{"displayFieldName":"TOWNNAME","fieldAliases":{"ID":"ID","DIS_CODE":"DIS_CODE","TOWNNAME":"TOWNNAME","LI":"LI","LIN":"LIN","STREET":"STREET","SECT":"SECT","MAREA":"MAREA","LANE":"LANE","ALLEY":"ALLEY","HOUSE_NO":"HOUSE_NO","E_COORD97":"E_COORD97","N_COORD97":"N_COORD97","ADDRESS":"ADDRESS","OBJECTID":"OBJECTID"},"geometryType":"esriGeometryPoint","spatialReference":{"wkid":102443,"latestWkid":3826},"fields":[{"name":"ID","type":"esriFieldTypeDouble","alias":"ID"},{"name":"DIS_CODE","type":"esriFieldTypeInteger","alias":"DIS_CODE"},{"name":"TOWNNAME","type":"esriFieldTypeString","alias":"TOWNNAME","length":8},{"name":"LI","type":"esriFieldTypeString","alias":"LI","length":8},{"name":"LIN","type":"esriFieldTypeString","alias":"LIN","length":12},{"name":"STREET","type":"esriFieldTypeString","alias":"STREET","length":20},{"name":"SECT","type":"esriFieldTypeString","alias":"SECT","length":8},{"name":"MAREA","type":"esriFieldTypeString","alias":"MAREA","length":12},{"name":"LANE","type":"esriFieldTypeString","alias":"LANE","length":10},{"name":"ALLEY","type":"esriFieldTypeString","alias":"ALLEY","length":10},{"name":"HOUSE_NO","type":"esriFieldTypeString","alias":"HOUSE_NO","length":20},{"name":"E_COORD97","type":"esriFieldTypeDouble","alias":"E_COORD97"},{"name":"N_COORD97","type":"esriFieldTypeDouble","alias":"N_COORD97"},{"name":"ADDRESS","type":"esriFieldTypeString","alias":"ADDRESS","length":50},{"name":"OBJECTID","type":"esriFieldTypeOID","alias":"OBJECTID"}],"features":[{"attributes":{"ID":258205,"DIS_CODE":0,"TOWNNAME":"永康區","LI":"大橋里","LIN":"27鄰","STREET":"大橋一街","SECT":" ","MAREA":" ","LANE":"２４７巷","ALLEY":" ","HOUSE_NO":"１８號","E_COORD97":171277.09,"N_COORD97":2546713.2400000002,"ADDRESS":"大橋一街２４７巷１８號","OBJECTID":258201},"geometry":{"x":171277.08999999985,"y":2546713.2400000002}},{"attributes":{"ID":258206,"DIS_CODE":0,"TOWNNAME":"永康區","LI":"大橋里","LIN":"27鄰","STREET":"大橋一街","SECT":" ","MAREA":" ","LANE":"２４７巷","ALLEY":" ","HOUSE_NO":"８號","E_COORD97":171288.04000000001,"N_COORD97":2546693.4900000002,"ADDRESS":"大橋一街２４７巷８號","OBJECTID":258202},"geometry":{"x":171288.03999999911,"y":2546693.4900000021}},{"attributes":{"ID":258207,"DIS_CODE":0,"TOWNNAME":"永康區","LI":"大灣里","LIN":"27鄰","STREET":"大灣六街","SECT":" ","MAREA":" ","LANE":"８０巷","ALLEY":" ","HOUSE_NO":"３８號","E_COORD97":175261.47,"N_COORD97":2545296.1299999999,"ADDRESS":"大灣六街８０巷３８號","OBJECTID":258203},"geometry":{"x":175261.46999999974,"y":2545296.129999999}},{"attributes":{"ID":258208,"DIS_CODE":0,"TOWNNAME":"永康區","LI":"五王里","LIN":"27鄰","STREET":"五福街","SECT":" ","MAREA":" ","LANE":"１１０巷","ALLEY":" ","HOUSE_NO":"５２號","E_COORD97":171568.76999999999,"N_COORD97":2545916.0699999998,"ADDRESS":"五福街１１０巷５２號","OBJECTID":258204},"geometry":{"x":171568.76999999955,"y":2545916.070000004}},{"attributes":{"ID":258209,"DIS_CODE":0,"TOWNNAME":"永康區","LI":"大橋里","LIN":"27鄰","STREET":"大橋一街","SECT":" ","MAREA":" ","LANE":"２４７巷","ALLEY":" ","HOUSE_NO":"４號","E_COORD97":171292.64000000001,"N_COORD97":2546686.2400000002,"ADDRESS":"大橋一街２４７巷４號","OBJECTID":258205},"geometry":{"x":171292.6400000006,"y":2546686.2400000002}},{"attributes":{"ID":258210,"DIS_CODE":0,"TOWNNAME":"永康區","LI":"大灣里","LIN":"27鄰","STREET":"大灣六街","SECT":" ","MAREA":" ","LANE":"８０巷","ALLEY":" ","HOUSE_NO":"８號","E_COORD97":175191.19,"N_COORD97":2545305.8599999999,"ADDRESS":"大灣六街８０巷８號","OBJECTID":258206},"geometry":{"x":175191.19000000041,"y":2545305.8599999975}},{"attributes":{"ID":258211,"DIS_CODE":0,"TOWNNAME":"永康區","LI":"中興里","LIN":"27鄰","STREET":"中興街","SECT":" ","MAREA":" ","LANE":"９１巷","ALLEY":" ","HOUSE_NO":"３３號之１","E_COORD97":171977.57000000001,"N_COORD97":2545345.6200000001,"ADDRESS":"中興街９１巷３３號之１","OBJECTID":258207},"geometry":{"x":171977.5700000003,"y":2545345.620000001}},{"attributes":{"ID":258212,"DIS_CODE":0,"TOWNNAME":"安南區","LI":"溪墘里","LIN":"17鄰","STREET":"海佃路","SECT":"一段","MAREA":" ","LANE":"３７２巷","ALLEY":" ","HOUSE_NO":"１７號","E_COORD97":167146.98000000001,"N_COORD97":2547617.7599999998,"ADDRESS":"海佃路一段３７２巷１７號","OBJECTID":258208},"geometry":{"x":167146.98000000045,"y":2547617.7599999998}},{"attributes":{"ID":258213,"DIS_CODE":0,"TOWNNAME":"安南區","LI":"溪墘里","LIN":"17鄰","STREET":"海佃路","SECT":"一段","MAREA":" ","LANE":"３７２巷","ALLEY":" ","HOUSE_NO":"１９號","E_COORD97":167152.59,"N_COORD97":2547619.3199999998,"ADDRESS":"海佃路一段３７２巷１９號","OBJECTID":258209},"geometry":{"x":167152.58999999985,"y":2547619.3199999984}},{"attributes":{"ID":258214,"DIS_CODE":0,"TOWNNAME":"永康區","LI":"西灣里","LIN":"53鄰","STREET":"文化路","SECT":" ","MAREA":" ","LANE":" ","ALLEY":" ","HOUSE_NO":"１９５號","E_COORD97":173738.17999999999,"N_COORD97":2546169.2200000002,"ADDRESS":"文化路１９５號","OBJECTID":258210},"geometry":{"x":173738.18000000156,"y":2546169.2200000007}},{"attributes":{"ID":258215,"DIS_CODE":0,"TOWNNAME":"安南區","LI":"溪墘里","LIN":"17鄰","STREET":"海佃路","SECT":"一段","MAREA":" ","LANE":"３７２巷","ALLEY":" ","HOUSE_NO":"２１號","E_COORD97":167156.73999999999,"N_COORD97":2547620.25,"ADDRESS":"海佃路一段３７２巷２１號","OBJECTID":258211},"geometry":{"x":167156.74000000022,"y":2547620.2500000019}},{"attributes":{"ID":258216,"DIS_CODE":0,"TOWNNAME":"安南區","LI":"溪墘里","LIN":"17鄰","STREET":"海佃路","SECT":"一段","MAREA":" ","LANE":"３７２巷","ALLEY":" ","HOUSE_NO":"２３號","E_COORD97":167161.94,"N_COORD97":2547620.5699999998,"ADDRESS":"海佃路一段３７２巷２３號","OBJECTID":258212},"geometry":{"x":167161.94000000134,"y":2547620.5700000003}},{"attributes":{"ID":258217,"DIS_CODE":0,"TOWNNAME":"南區","LI":"郡南里","LIN":"9鄰","STREET":"永成路","SECT":"三段","MAREA":" ","LANE":"１３７巷","ALLEY":" ","HOUSE_NO":"３２號","E_COORD97":167416.654495,"N_COORD97":2540758.7059900002,"ADDRESS":"永成路三段１３７巷３２號","OBJECTID":258213},"geometry":{"x":167416.65449499991,"y":2540758.7059860006}},{"attributes":{"ID":258218,"DIS_CODE":0,"TOWNNAME":"安南區","LI":"溪墘里","LIN":"17鄰","STREET":"海佃路","SECT":"一段","MAREA":" ","LANE":"３７２巷","ALLEY":" ","HOUSE_NO":"２５號","E_COORD97":167165.98999999999,"N_COORD97":2547621.0800000001,"ADDRESS":"海佃路一段３７２巷２５號","OBJECTID":258214},"geometry":{"x":167165.99000000209,"y":2547621.0800000038}},{"attributes":{"ID":258219,"DIS_CODE":0,"TOWNNAME":"安南區","LI":"溪墘里","LIN":"17鄰","STREET":"海佃路","SECT":"一段","MAREA":" ","LANE":"３７２巷","ALLEY":" ","HOUSE_NO":"２７號","E_COORD97":167171.29000000001,"N_COORD97":2547622.6400000001,"ADDRESS":"海佃路一段３７２巷２７號","OBJECTID":258215},"geometry":{"x":167171.29000000097,"y":2547622.6400000025}},{"attributes":{"ID":258220,"DIS_CODE":0,"TOWNNAME":"安南區","LI":"溪墘里","LIN":"17鄰","STREET":"海佃路","SECT":"一段","MAREA":" ","LANE":"３７２巷","ALLEY":" ","HOUSE_NO":"２９號","E_COORD97":167175.84,"N_COORD97":2547625.3799999999,"ADDRESS":"海佃路一段３７２巷２９號","OBJECTID":258216},"geometry":{"x":167175.84000000078,"y":2547625.3800000008}},{"attributes":{"ID":258221,"DIS_CODE":0,"TOWNNAME":"安南區","LI":"溪墘里","LIN":"17鄰","STREET":"海佃路","SECT":"一段","MAREA":" ","LANE":"３７２巷","ALLEY":" ","HOUSE_NO":"３１號","E_COORD97":167179.89999999999,"N_COORD97":2547626.9399999999,"ADDRESS":"海佃路一段３７２巷３１號","OBJECTID":258217},"geometry":{"x":167179.90000000037,"y":2547626.9399999995}},{"attributes":{"ID":258222,"DIS_CODE":0,"TOWNNAME":"仁德區","LI":"仁義里","LIN":"53鄰","STREET":"仁義三街","SECT":" ","MAREA":" ","LANE":" ","ALLEY":" ","HOUSE_NO":"３８號","E_COORD97":173410.60999999999,"N_COORD97":2541096.5099999998,"ADDRESS":"仁義三街３８號","OBJECTID":258218},"geometry":{"x":173410.61000000127,"y":2541096.5099999998}},{"attributes":{"ID":258223,"DIS_CODE":0,"TOWNNAME":"永康區","LI":"西灣里","LIN":"53鄰","STREET":"文化路","SECT":" ","MAREA":" ","LANE":" ","ALLEY":" ","HOUSE_NO":"１８３號","E_COORD97":173769.5,"N_COORD97":2546179.1800000002,"ADDRESS":"文化路１８３號","OBJECTID":258219},"geometry":{"x":173769.5,"y":2546179.1800000034}},{"attributes":{"ID":258224,"DIS_CODE":0,"TOWNNAME":"仁德區","LI":"仁義里","LIN":"53鄰","STREET":"仁義三街","SECT":" ","MAREA":" ","LANE":" ","ALLEY":" ","HOUSE_NO":"６２之１號","E_COORD97":173452.34,"N_COORD97":2541125.2999999998,"ADDRESS":"仁義三街６２之１號","OBJECTID":258220},"geometry":{"x":173452.34000000171,"y":2541125.3000000026}},{"attributes":{"ID":258225,"DIS_CODE":0,"TOWNNAME":"仁德區","LI":"仁義里","LIN":"53鄰","STREET":"仁義三街","SECT":" ","MAREA":" ","LANE":" ","ALLEY":" ","HOUSE_NO":"７８號","E_COORD97":173480.60000000001,"N_COORD97":2541119.0099999998,"ADDRESS":"仁義三街７８號","OBJECTID":258221},"geometry":{"x":173480.59999999963,"y":2541119.0100000016}},{"attributes":{"ID":258226,"DIS_CODE":0,"TOWNNAME":"仁德區","LI":"仁義里","LIN":"53鄰","STREET":"仁義三街","SECT":" ","MAREA":" ","LANE":" ","ALLEY":" ","HOUSE_NO":"７９號","E_COORD97":173492.35999999999,"N_COORD97":2541136.52,"ADDRESS":"仁義三街７９號","OBJECTID":258222},"geometry":{"x":173492.36000000127,"y":2541136.5200000014}},{"attributes":{"ID":258227,"DIS_CODE":0,"TOWNNAME":"仁德區","LI":"仁義里","LIN":"53鄰","STREET":"仁義三街","SECT":" ","MAREA":" ","LANE":" ","ALLEY":" ","HOUSE_NO":"６６號","E_COORD97":173454.06,"N_COORD97":2541125.02,"ADDRESS":"仁義三街６６號","OBJECTID":258223},"geometry":{"x":173454.06000000145,"y":2541125.0200000033}},{"attributes":{"ID":258228,"DIS_CODE":0,"TOWNNAME":"仁德區","LI":"仁義里","LIN":"53鄰","STREET":"仁義三街","SECT":" ","MAREA":" ","LANE":" ","ALLEY":" ","HOUSE_NO":"８０號","E_COORD97":173485.34,"N_COORD97":2541124.02,"ADDRESS":"仁義三街８０號","OBJECTID":258224},"geometry":{"x":173485.34000000078,"y":2541124.0199999996}},{"attributes":{"ID":258229,"DIS_CODE":0,"TOWNNAME":"仁德區","LI":"仁義里","LIN":"53鄰","STREET":"仁義三街","SECT":" ","MAREA":" ","LANE":" ","ALLEY":" ","HOUSE_NO":"６５號","E_COORD97":173461.29999999999,"N_COORD97":2541135.77,"ADDRESS":"仁義三街６５號","OBJECTID":258225},"geometry":{"x":173461.30000000075,"y":2541135.7699999996}},{"attributes":{"ID":258230,"DIS_CODE":0,"TOWNNAME":"仁德區","LI":"仁義里","LIN":"53鄰","STREET":"仁義三街","SECT":" ","MAREA":" ","LANE":" ","ALLEY":" ","HOUSE_NO":"６９號","E_COORD97":173469.31,"N_COORD97":2541137.77,"ADDRESS":"仁義三街６９號","OBJECTID":258226},"geometry":{"x":173469.31000000145,"y":2541137.7700000014}},{"attributes":{"ID":258231,"DIS_CODE":0,"TOWNNAME":"仁德區","LI":"仁義里","LIN":"53鄰","STREET":"仁義三街","SECT":" ","MAREA":" ","LANE":" ","ALLEY":" ","HOUSE_NO":"５８號","E_COORD97":173438.35999999999,"N_COORD97":2541125.52,"ADDRESS":"仁義三街５８號","OBJECTID":258227},"geometry":{"x":173438.36000000034,"y":2541125.5200000014}},{"attributes":{"ID":258232,"DIS_CODE":0,"TOWNNAME":"仁德區","LI":"仁義里","LIN":"53鄰","STREET":"仁義三街","SECT":" ","MAREA":" ","LANE":" ","ALLEY":" ","HOUSE_NO":"８５號","E_COORD97":173504.04999999999,"N_COORD97":2541137.52,"ADDRESS":"仁義三街８５號","OBJECTID":258228},"geometry":{"x":173504.05000000075,"y":2541137.5199999996}},{"attributes":{"ID":258233,"DIS_CODE":0,"TOWNNAME":"仁德區","LI":"仁義里","LIN":"53鄰","STREET":"仁義三街","SECT":" ","MAREA":" ","LANE":" ","ALLEY":" ","HOUSE_NO":"７３號","E_COORD97":173478.12,"N_COORD97":2541139.27,"ADDRESS":"仁義三街７３號","OBJECTID":258229},"geometry":{"x":173478.12000000104,"y":2541139.2699999996}},{"attributes":{"ID":258234,"DIS_CODE":0,"TOWNNAME":"新營區","LI":"埤寮里","LIN":"15鄰","STREET":"長榮路","SECT":"一段","MAREA":" ","LANE":" ","ALLEY":" ","HOUSE_NO":"３７８號","E_COORD97":180770.76000000001,"N_COORD97":2579970.0299999998,"ADDRESS":"長榮路一段３７８號","OBJECTID":258230},"geometry":{"x":180770.75999999978,"y":2579970.0299999993}},{"attributes":{"ID":258235,"DIS_CODE":0,"TOWNNAME":"永康區","LI":"五王里","LIN":"27鄰","STREET":"五福街","SECT":" ","MAREA":" ","LANE":"１１０巷","ALLEY":" ","HOUSE_NO":"１９號","E_COORD97":171582.94,"N_COORD97":2545924.3500000001,"ADDRESS":"五福街１１０巷１９號","OBJECTID":258231},"geometry":{"x":171582.94000000134,"y":2545924.3500000015}},{"attributes":{"ID":258236,"DIS_CODE":0,"TOWNNAME":"永康區","LI":"中興里","LIN":"27鄰","STREET":"中興街","SECT":" ","MAREA":" ","LANE":"９１巷","ALLEY":" ","HOUSE_NO":"４３號","E_COORD97":171951.17999999999,"N_COORD97":2545347.4399999999,"ADDRESS":"中興街９１巷４３號","OBJECTID":258232},"geometry":{"x":171951.1799999997,"y":2545347.4400000013}},{"attributes":{"ID":258237,"DIS_CODE":0,"TOWNNAME":"永康區","LI":"大橋里","LIN":"27鄰","STREET":"大橋一街","SECT":" ","MAREA":" ","LANE":"２５３巷","ALLEY":" ","HOUSE_NO":"５號","E_COORD97":171309.82999999999,"N_COORD97":2546714.4900000002,"ADDRESS":"大橋一街２５３巷５號","OBJECTID":258233},"geometry":{"x":171309.82999999914,"y":2546714.4900000021}},{"attributes":{"ID":258238,"DIS_CODE":0,"TOWNNAME":"永康區","LI":"大灣里","LIN":"27鄰","STREET":"大灣六街","SECT":" ","MAREA":" ","LANE":"８０巷","ALLEY":" ","HOUSE_NO":"２２號","E_COORD97":175220.67000000001,"N_COORD97":2545297.73,"ADDRESS":"大灣六街８０巷２２號","OBJECTID":258234},"geometry":{"x":175220.67000000086,"y":2545297.7299999986}},{"attributes":{"ID":258239,"DIS_CODE":0,"TOWNNAME":"永康區","LI":"大灣里","LIN":"27鄰","STREET":"大灣六街","SECT":" ","MAREA":" ","LANE":"８０巷","ALLEY":" ","HOUSE_NO":"１２號","E_COORD97":175200.81,"N_COORD97":2545300.3399999999,"ADDRESS":"大灣六街８０巷１２號","OBJECTID":258235},"geometry":{"x":175200.81000000052,"y":2545300.3400000017}},{"attributes":{"ID":258240,"DIS_CODE":0,"TOWNNAME":"永康區","LI":"五王里","LIN":"27鄰","STREET":"五福街","SECT":" ","MAREA":" ","LANE":"１１０巷","ALLEY":" ","HOUSE_NO":"９號","E_COORD97":171572.20000000001,"N_COORD97":2545944.0899999999,"ADDRESS":"五福街１１０巷９號","OBJECTID":258236},"geometry":{"x":171572.20000000112,"y":2545944.0900000017}},{"attributes":{"ID":258241,"DIS_CODE":0,"TOWNNAME":"永康區","LI":"勝利里","LIN":"27鄰","STREET":"勝利街","SECT":" ","MAREA":" ","LANE":"５８巷","ALLEY":" ","HOUSE_NO":"３６號","E_COORD97":171439.76000000001,"N_COORD97":2544656.6800000002,"ADDRESS":"勝利街５８巷３６號","OBJECTID":258237},"geometry":{"x":171439.76000000071,"y":2544656.6800000034}},{"attributes":{"ID":258242,"DIS_CODE":0,"TOWNNAME":"永康區","LI":"勝利里","LIN":"27鄰","STREET":"勝利街","SECT":" ","MAREA":" ","LANE":"５８巷","ALLEY":" ","HOUSE_NO":"１４號","E_COORD97":171389.5,"N_COORD97":2544664.6699999999,"ADDRESS":"勝利街５８巷１４號","OBJECTID":258238},"geometry":{"x":171389.5,"y":2544664.6700000018}},{"attributes":{"ID":258243,"DIS_CODE":0,"TOWNNAME":"安南區","LI":"溪墘里","LIN":"17鄰","STREET":"海佃路","SECT":"一段","MAREA":" ","LANE":"３７２巷","ALLEY":" ","HOUSE_NO":"３３號","E_COORD97":167183.95000000001,"N_COORD97":2547627.77,"ADDRESS":"海佃路一段３７２巷３３號","OBJECTID":258239},"geometry":{"x":167183.95000000112,"y":2547627.7699999996}},{"attributes":{"ID":258244,"DIS_CODE":0,"TOWNNAME":"安南區","LI":"溪墘里","LIN":"17鄰","STREET":"海佃路","SECT":"一段","MAREA":" ","LANE":"３７２巷","ALLEY":" ","HOUSE_NO":"５１號","E_COORD97":167224.47,"N_COORD97":2547635.8599999999,"ADDRESS":"海佃路一段３７２巷５１號","OBJECTID":258240},"geometry":{"x":167224.46999999974,"y":2547635.8600000013}},{"attributes":{"ID":258245,"DIS_CODE":0,"TOWNNAME":"安南區","LI":"溪墘里","LIN":"17鄰","STREET":"海佃路","SECT":"一段","MAREA":" ","LANE":"３７２巷","ALLEY":" ","HOUSE_NO":"５３號","E_COORD97":167233.42000000001,"N_COORD97":2547637.2799999998,"ADDRESS":"海佃路一段３７２巷５３號","OBJECTID":258241},"geometry":{"x":167233.41999999993,"y":2547637.2800000012}},{"attributes":{"ID":258246,"DIS_CODE":0,"TOWNNAME":"安南區","LI":"溪墘里","LIN":"17鄰","STREET":"海佃路","SECT":"一段","MAREA":" ","LANE":"３７２巷","ALLEY":" ","HOUSE_NO":"５５號","E_COORD97":167238.45000000001,"N_COORD97":2547638.9500000002,"ADDRESS":"海佃路一段３７２巷５５號","OBJECTID":258242},"geometry":{"x":167238.45000000019,"y":2547638.9500000011}},{"attributes":{"ID":258247,"DIS_CODE":0,"TOWNNAME":"安南區","LI":"溪墘里","LIN":"17鄰","STREET":"海佃路","SECT":"一段","MAREA":" ","LANE":"３７２巷","ALLEY":" ","HOUSE_NO":"５７號","E_COORD97":167242.20999999999,"N_COORD97":2547639.5800000001,"ADDRESS":"海佃路一段３７２巷５７號","OBJECTID":258243},"geometry":{"x":167242.21000000183,"y":2547639.5800000019}},{"attributes":{"ID":258248,"DIS_CODE":0,"TOWNNAME":"安南區","LI":"溪墘里","LIN":"17鄰","STREET":"海佃路","SECT":"一段","MAREA":" ","LANE":"３７２巷","ALLEY":" ","HOUSE_NO":"５９號","E_COORD97":167247.23000000001,"N_COORD97":2547639.79,"ADDRESS":"海佃路一段３７２巷５９號","OBJECTID":258244},"geometry":{"x":167247.23000000045,"y":2547639.790000001}},{"attributes":{"ID":258249,"DIS_CODE":0,"TOWNNAME":"歸仁區","LI":"南興里","LIN":"19鄰","STREET":"南興一街","SECT":" ","MAREA":" ","LANE":"２４巷","ALLEY":" ","HOUSE_NO":"３號","E_COORD97":175697.72044800001,"N_COORD97":2541314.5406499999,"ADDRESS":"南興一街２４巷３號","OBJECTID":258245},"geometry":{"x":175697.72044800129,"y":2541314.5406529997}},{"attributes":{"ID":258250,"DIS_CODE":0,"TOWNNAME":"安南區","LI":"溪墘里","LIN":"17鄰","STREET":"海佃路","SECT":"一段","MAREA":" ","LANE":"３７２巷","ALLEY":" ","HOUSE_NO":"６１號","E_COORD97":167251,"N_COORD97":2547640,"ADDRESS":"海佃路一段３７２巷６１號","OBJECTID":258246},"geometry":{"x":167251.00000000093,"y":2547640.0000000019}},{"attributes":{"ID":258251,"DIS_CODE":0,"TOWNNAME":"安南區","LI":"溪墘里","LIN":"17鄰","STREET":"海佃路","SECT":"一段","MAREA":" ","LANE":"３７２巷","ALLEY":" ","HOUSE_NO":"６３號","E_COORD97":167255.60000000001,"N_COORD97":2547641.04,"ADDRESS":"海佃路一段３７２巷６３號","OBJECTID":258247},"geometry":{"x":167255.59999999963,"y":2547641.040000001}},{"attributes":{"ID":258252,"DIS_CODE":0,"TOWNNAME":"安南區","LI":"溪墘里","LIN":"17鄰","STREET":"海佃路","SECT":"一段","MAREA":" ","LANE":"３７２巷","ALLEY":" ","HOUSE_NO":"６５號","E_COORD97":167260.84,"N_COORD97":2547641.6699999999,"ADDRESS":"海佃路一段３７２巷６５號","OBJECTID":258248},"geometry":{"x":167260.83999999985,"y":2547641.6700000018}},{"attributes":{"ID":258253,"DIS_CODE":0,"TOWNNAME":"安南區","LI":"溪墘里","LIN":"17鄰","STREET":"海佃路","SECT":"一段","MAREA":" ","LANE":"３７２巷","ALLEY":" ","HOUSE_NO":"７號","E_COORD97":167122.04000000001,"N_COORD97":2547612.4700000002,"ADDRESS":"海佃路一段３７２巷７號","OBJECTID":258249},"geometry":{"x":167122.04000000097,"y":2547612.4700000025}},{"attributes":{"ID":258254,"DIS_CODE":0,"TOWNNAME":"新營區","LI":"中營里","LIN":"10鄰","STREET":"開元路","SECT":" ","MAREA":" ","LANE":" ","ALLEY":" ","HOUSE_NO":"２８號","E_COORD97":180894.39999999999,"N_COORD97":2578684.7999999998,"ADDRESS":"開元路２８號","OBJECTID":258250},"geometry":{"x":180894.40000000224,"y":2578684.8000000007}},{"attributes":{"ID":258255,"DIS_CODE":0,"TOWNNAME":"仁德區","LI":"仁義里","LIN":"53鄰","STREET":"仁義三街","SECT":" ","MAREA":" ","LANE":" ","ALLEY":" ","HOUSE_NO":"８７號","E_COORD97":173507.63,"N_COORD97":2541139.77,"ADDRESS":"仁義三街８７號","OBJECTID":258251},"geometry":{"x":173507.62999999989,"y":2541139.7699999996}},{"attributes":{"ID":258256,"DIS_CODE":0,"TOWNNAME":"仁德區","LI":"仁義里","LIN":"53鄰","STREET":"仁義三街","SECT":" ","MAREA":" ","LANE":" ","ALLEY":" ","HOUSE_NO":"５６號","E_COORD97":173434.17000000001,"N_COORD97":2541126.02,"ADDRESS":"仁義三街５６號","OBJECTID":258252},"geometry":{"x":173434.16999999993,"y":2541126.0200000014}},{"attributes":{"ID":258257,"DIS_CODE":0,"TOWNNAME":"仁德區","LI":"仁義里","LIN":"53鄰","STREET":"仁義三街","SECT":" ","MAREA":" ","LANE":" ","ALLEY":" ","HOUSE_NO":"７２號","E_COORD97":173465.48999999999,"N_COORD97":2541122.02,"ADDRESS":"仁義三街７２號","OBJECTID":258253},"geometry":{"x":173465.49000000115,"y":2541122.0200000014}},{"attributes":{"ID":258258,"DIS_CODE":0,"TOWNNAME":"仁德區","LI":"仁義里","LIN":"53鄰","STREET":"仁義三街","SECT":" ","MAREA":" ","LANE":" ","ALLEY":" ","HOUSE_NO":"７１號","E_COORD97":173473.35000000001,"N_COORD97":2541139.52,"ADDRESS":"仁義三街７１號","OBJECTID":258254},"geometry":{"x":173473.34999999963,"y":2541139.5200000014}},{"attributes":{"ID":258259,"DIS_CODE":0,"TOWNNAME":"仁德區","LI":"仁義里","LIN":"53鄰","STREET":"仁義三街","SECT":" ","MAREA":" ","LANE":" ","ALLEY":" ","HOUSE_NO":"８６號","E_COORD97":173520.42000000001,"N_COORD97":2541121.5099999998,"ADDRESS":"仁義三街８６號","OBJECTID":258255},"geometry":{"x":173520.42000000086,"y":2541121.5099999979}},{"attributes":{"ID":258260,"DIS_CODE":0,"TOWNNAME":"仁德區","LI":"仁義里","LIN":"53鄰","STREET":"仁義三街","SECT":" ","MAREA":" ","LANE":" ","ALLEY":" ","HOUSE_NO":"８３號","E_COORD97":173500.10000000001,"N_COORD97":2541137.27,"ADDRESS":"仁義三街８３號","OBJECTID":258256},"geometry":{"x":173500.10000000056,"y":2541137.2700000014}},{"attributes":{"ID":258261,"DIS_CODE":0,"TOWNNAME":"仁德區","LI":"仁義里","LIN":"53鄰","STREET":"仁義三街","SECT":" ","MAREA":" ","LANE":" ","ALLEY":" ","HOUSE_NO":"７２之１號","E_COORD97":173470.51999999999,"N_COORD97":2541119.5099999998,"ADDRESS":"仁義三街７２之１號","OBJECTID":258257},"geometry":{"x":173470.51999999955,"y":2541119.5100000016}},{"attributes":{"ID":258262,"DIS_CODE":0,"TOWNNAME":"仁德區","LI":"仁義里","LIN":"53鄰","STREET":"仁義三街","SECT":" ","MAREA":" ","LANE":" ","ALLEY":" ","HOUSE_NO":"５４號","E_COORD97":173430.39000000001,"N_COORD97":2541126.27,"ADDRESS":"仁義三街５４號","OBJECTID":258258},"geometry":{"x":173430.3900000006,"y":2541126.2699999996}},{"attributes":{"ID":258263,"DIS_CODE":0,"TOWNNAME":"永康區","LI":"二王里","LIN":"17鄰","STREET":"忠孝路","SECT":" ","MAREA":" ","LANE":"３８０巷","ALLEY":" ","HOUSE_NO":"３３號","E_COORD97":172569.47,"N_COORD97":2546448.5299999998,"ADDRESS":"忠孝路３８０巷３３號","OBJECTID":258259},"geometry":{"x":172569.46999999974,"y":2546448.5300000012}},{"attributes":{"ID":258264,"DIS_CODE":0,"TOWNNAME":"永康區","LI":"二王里","LIN":"17鄰","STREET":"忠孝路","SECT":" ","MAREA":" ","LANE":"３８０巷","ALLEY":" ","HOUSE_NO":"３５號","E_COORD97":172573.45999999999,"N_COORD97":2546448.6099999999,"ADDRESS":"忠孝路３８０巷３５號","OBJECTID":258260},"geometry":{"x":172573.45999999903,"y":2546448.6100000013}},{"attributes":{"ID":258265,"DIS_CODE":0,"TOWNNAME":"永康區","LI":"二王里","LIN":"17鄰","STREET":"忠孝路","SECT":" ","MAREA":" ","LANE":"３８０巷","ALLEY":" ","HOUSE_NO":"３７號","E_COORD97":172578.22,"N_COORD97":2546448.6200000001,"ADDRESS":"忠孝路３８０巷３７號","OBJECTID":258261},"geometry":{"x":172578.21999999881,"y":2546448.6200000048}},{"attributes":{"ID":258266,"DIS_CODE":0,"TOWNNAME":"中西區","LI":"藥王里","LIN":"16鄰","STREET":"民權路","SECT":"三段","MAREA":" ","LANE":"４００巷","ALLEY":" ","HOUSE_NO":"３２號","E_COORD97":166816.34,"N_COORD97":2544492.29,"ADDRESS":"民權路三段４００巷３２號","OBJECTID":258262},"geometry":{"x":166816.34000000078,"y":2544492.2899999991}},{"attributes":{"ID":258267,"DIS_CODE":0,"TOWNNAME":"中西區","LI":"藥王里","LIN":"17鄰","STREET":"民權路","SECT":"三段","MAREA":" ","LANE":"４００巷","ALLEY":" ","HOUSE_NO":"３號","E_COORD97":166859.47,"N_COORD97":2544422.1000000001,"ADDRESS":"民權路三段４００巷３號","OBJECTID":258263},"geometry":{"x":166859.47000000067,"y":2544422.0999999996}},{"attributes":{"ID":258268,"DIS_CODE":0,"TOWNNAME":"永康區","LI":"西灣里","LIN":"12鄰","STREET":"永大路","SECT":"二段","MAREA":" ","LANE":"５５６巷","ALLEY":" ","HOUSE_NO":"１０號","E_COORD97":174432.98999999999,"N_COORD97":2545423.8500000001,"ADDRESS":"永大路二段５５６巷１０號","OBJECTID":258264},"geometry":{"x":174432.99000000022,"y":2545423.8499999996}},{"attributes":{"ID":258269,"DIS_CODE":0,"TOWNNAME":"永康區","LI":"永康里","LIN":"29鄰","STREET":"永大路","SECT":"二段","MAREA":" ","LANE":"８３１巷","ALLEY":" ","HOUSE_NO":"１０６號","E_COORD97":174097.39000000001,"N_COORD97":2546981.25,"ADDRESS":"永大路二段８３１巷１０６號","OBJECTID":258265},"geometry":{"x":174097.38999999966,"y":2546981.25}},{"attributes":{"ID":258270,"DIS_CODE":0,"TOWNNAME":"永康區","LI":"永康里","LIN":"29鄰","STREET":"永大路","SECT":"二段","MAREA":" ","LANE":"８３１巷","ALLEY":" ","HOUSE_NO":"１０８號","E_COORD97":174093.06,"N_COORD97":2546983.46,"ADDRESS":"永大路二段８３１巷１０８號","OBJECTID":258266},"geometry":{"x":174093.06000000145,"y":2546983.4600000028}},{"attributes":{"ID":258271,"DIS_CODE":0,"TOWNNAME":"安南區","LI":"溪墘里","LIN":"17鄰","STREET":"海佃路","SECT":"一段","MAREA":" ","LANE":"３７２巷","ALLEY":" ","HOUSE_NO":"９號","E_COORD97":167127.64999999999,"N_COORD97":2547613.0899999999,"ADDRESS":"海佃路一段３７２巷９號","OBJECTID":258267},"geometry":{"x":167127.64999999944,"y":2547613.0899999999}},{"attributes":{"ID":258272,"DIS_CODE":0,"TOWNNAME":"新營區","LI":"南興里","LIN":"27鄰","STREET":"建業路","SECT":" ","MAREA":" ","LANE":"１１１巷","ALLEY":" ","HOUSE_NO":"１１號","E_COORD97":178501.98000000001,"N_COORD97":2577430.3300000001,"ADDRESS":"建業路１１１巷１１號","OBJECTID":258268},"geometry":{"x":178501.98000000231,"y":2577430.3300000001}},{"attributes":{"ID":258273,"DIS_CODE":0,"TOWNNAME":"中西區","LI":"西賢里","LIN":"17鄰","STREET":"西賢一街","SECT":" ","MAREA":" ","LANE":"５７巷","ALLEY":" ","HOUSE_NO":"１０號","E_COORD97":165641.91,"N_COORD97":2544585.4100000001,"ADDRESS":"西賢一街５７巷１０號","OBJECTID":258269},"geometry":{"x":165641.91000000015,"y":2544585.410000002}},{"attributes":{"ID":258274,"DIS_CODE":0,"TOWNNAME":"中西區","LI":"西賢里","LIN":"17鄰","STREET":"西賢一街","SECT":" ","MAREA":" ","LANE":"５７巷","ALLEY":" ","HOUSE_NO":"１２號","E_COORD97":165629.67000000001,"N_COORD97":2544584.6000000001,"ADDRESS":"西賢一街５７巷１２號","OBJECTID":258270},"geometry":{"x":165629.66999999993,"y":2544584.5999999996}},{"attributes":{"ID":258275,"DIS_CODE":0,"TOWNNAME":"中西區","LI":"西賢里","LIN":"17鄰","STREET":"西賢一街","SECT":" ","MAREA":" ","LANE":"５７巷","ALLEY":" ","HOUSE_NO":"１６號","E_COORD97":165618.44,"N_COORD97":2544583.7799999998,"ADDRESS":"西賢一街５７巷１６號","OBJECTID":258271},"geometry":{"x":165618.44000000041,"y":2544583.7799999993}},{"attributes":{"ID":258276,"DIS_CODE":0,"TOWNNAME":"中西區","LI":"西賢里","LIN":"17鄰","STREET":"西賢一街","SECT":" ","MAREA":" ","LANE":"５７巷","ALLEY":" ","HOUSE_NO":"１８號","E_COORD97":165609.13,"N_COORD97":2544583.27,"ADDRESS":"西賢一街５７巷１８號","OBJECTID":258272},"geometry":{"x":165609.13000000082,"y":2544583.2699999996}},{"attributes":{"ID":258277,"DIS_CODE":0,"TOWNNAME":"中西區","LI":"西賢里","LIN":"17鄰","STREET":"西賢一街","SECT":" ","MAREA":" ","LANE":"５７巷","ALLEY":" ","HOUSE_NO":"２０號","E_COORD97":165596.38,"N_COORD97":2544583.5299999998,"ADDRESS":"西賢一街５７巷２０號","OBJECTID":258273},"geometry":{"x":165596.37999999989,"y":2544583.5300000012}},{"attributes":{"ID":258278,"DIS_CODE":0,"TOWNNAME":"中西區","LI":"西賢里","LIN":"17鄰","STREET":"西賢一街","SECT":" ","MAREA":" ","LANE":"５７巷","ALLEY":" ","HOUSE_NO":"２號","E_COORD97":165672.94,"N_COORD97":2544586.23,"ADDRESS":"西賢一街５７巷２號","OBJECTID":258274},"geometry":{"x":165672.93999999948,"y":2544586.2300000042}},{"attributes":{"ID":258279,"DIS_CODE":0,"TOWNNAME":"中西區","LI":"西賢里","LIN":"17鄰","STREET":"西賢一街","SECT":" ","MAREA":" ","LANE":"５７巷","ALLEY":" ","HOUSE_NO":"６號","E_COORD97":165662.32999999999,"N_COORD97":2544586.6299999999,"ADDRESS":"西賢一街５７巷６號","OBJECTID":258275},"geometry":{"x":165662.33000000101,"y":2544586.6300000008}},{"attributes":{"ID":258280,"DIS_CODE":0,"TOWNNAME":"中西區","LI":"西賢里","LIN":"17鄰","STREET":"西賢一街","SECT":" ","MAREA":" ","LANE":"５７巷","ALLEY":" ","HOUSE_NO":"８號","E_COORD97":165652.53,"N_COORD97":2544585.4100000001,"ADDRESS":"西賢一街５７巷８號","OBJECTID":258276},"geometry":{"x":165652.53000000119,"y":2544585.410000002}},{"attributes":{"ID":258281,"DIS_CODE":0,"TOWNNAME":"仁德區","LI":"仁義里","LIN":"53鄰","STREET":"仁義三街","SECT":" ","MAREA":" ","LANE":" ","ALLEY":" ","HOUSE_NO":"４２號","E_COORD97":173411.54000000001,"N_COORD97":2541104.2599999998,"ADDRESS":"仁義三街４２號","OBJECTID":258277},"geometry":{"x":173411.54000000004,"y":2541104.2600000016}},{"attributes":{"ID":258282,"DIS_CODE":0,"TOWNNAME":"仁德區","LI":"仁義里","LIN":"53鄰","STREET":"仁義三街","SECT":" ","MAREA":" ","LANE":" ","ALLEY":" ","HOUSE_NO":"６２號","E_COORD97":173446.26999999999,"N_COORD97":2541125.27,"ADDRESS":"仁義三街６２號","OBJECTID":258278},"geometry":{"x":173446.27000000048,"y":2541125.2699999996}},{"attributes":{"ID":258283,"DIS_CODE":0,"TOWNNAME":"永康區","LI":"西灣里","LIN":"53鄰","STREET":"文化路","SECT":" ","MAREA":" ","LANE":" ","ALLEY":" ","HOUSE_NO":"２０３號","E_COORD97":173722.75,"N_COORD97":2546164.4700000002,"ADDRESS":"文化路２０３號","OBJECTID":258279},"geometry":{"x":173722.75000000186,"y":2546164.4700000044}},{"attributes":{"ID":258284,"DIS_CODE":0,"TOWNNAME":"永康區","LI":"西灣里","LIN":"53鄰","STREET":"文化路","SECT":" ","MAREA":" ","LANE":" ","ALLEY":" ","HOUSE_NO":"２１５號","E_COORD97":173699.91,"N_COORD97":2546157.2200000002,"ADDRESS":"文化路２１５號","OBJECTID":258280},"geometry":{"x":173699.91000000108,"y":2546157.2200000025}},{"attributes":{"ID":258285,"DIS_CODE":0,"TOWNNAME":"永康區","LI":"西灣里","LIN":"53鄰","STREET":"文化路","SECT":" ","MAREA":" ","LANE":" ","ALLEY":" ","HOUSE_NO":"２０９號","E_COORD97":173711.32000000001,"N_COORD97":2546160.9700000002,"ADDRESS":"文化路２０９號","OBJECTID":258281},"geometry":{"x":173711.32000000123,"y":2546160.9700000044}},{"attributes":{"ID":258286,"DIS_CODE":0,"TOWNNAME":"中西區","LI":"光賢里","LIN":"13鄰","STREET":"西和路","SECT":" ","MAREA":" ","LANE":" ","ALLEY":" ","HOUSE_NO":"１１號二樓之２","E_COORD97":166714.92999999999,"N_COORD97":2544443.8999999999,"ADDRESS":"西和路１１號二樓之２","OBJECTID":258282},"geometry":{"x":166714.93000000156,"y":2544443.9000000022}},{"attributes":{"ID":258287,"DIS_CODE":0,"TOWNNAME":"中西區","LI":"光賢里","LIN":"13鄰","STREET":"西和路","SECT":" ","MAREA":" ","LANE":" ","ALLEY":" ","HOUSE_NO":"１１號二樓之３","E_COORD97":166714.92999999999,"N_COORD97":2544443.8999999999,"ADDRESS":"西和路１１號二樓之３","OBJECTID":258283},"geometry":{"x":166714.93000000156,"y":2544443.9000000022}},{"attributes":{"ID":258288,"DIS_CODE":0,"TOWNNAME":"中西區","LI":"光賢里","LIN":"13鄰","STREET":"西和路","SECT":" ","MAREA":" ","LANE":" ","ALLEY":" ","HOUSE_NO":"１１號二樓之５","E_COORD97":166714.92999999999,"N_COORD97":2544443.8999999999,"ADDRESS":"西和路１１號二樓之５","OBJECTID":258284},"geometry":{"x":166714.93000000156,"y":2544443.9000000022}},{"attributes":{"ID":258289,"DIS_CODE":0,"TOWNNAME":"仁德區","LI":"太子里","LIN":"27鄰","STREET":"大吉路","SECT":" ","MAREA":" ","LANE":"２０２巷","ALLEY":" ","HOUSE_NO":"６號","E_COORD97":173352.950664,"N_COORD97":2543381.02446,"ADDRESS":"大吉路２０２巷６號","OBJECTID":258285},"geometry":{"x":173352.95066400059,"y":2543381.0244580004}},{"attributes":{"ID":258290,"DIS_CODE":0,"TOWNNAME":"仁德區","LI":"太子里","LIN":"27鄰","STREET":"大吉路","SECT":" ","MAREA":" ","LANE":"２０２巷","ALLEY":" ","HOUSE_NO":"１０號","E_COORD97":173351.39999999999,"N_COORD97":2543388.2400000002,"ADDRESS":"大吉路２０２巷１０號","OBJECTID":258286},"geometry":{"x":173351.4000000013,"y":2543388.2400000002}},{"attributes":{"ID":258291,"DIS_CODE":0,"TOWNNAME":"仁德區","LI":"太子里","LIN":"27鄰","STREET":"大吉路","SECT":" ","MAREA":" ","LANE":"２０２巷","ALLEY":" ","HOUSE_NO":"１５號","E_COORD97":173323.09081299999,"N_COORD97":2543389.5969500002,"ADDRESS":"大吉路２０２巷１５號","OBJECTID":258287},"geometry":{"x":173323.09081300162,"y":2543389.5969540011}},{"attributes":{"ID":258292,"DIS_CODE":0,"TOWNNAME":"東區","LI":"大智里","LIN":"27鄰","STREET":"德東街","SECT":" ","MAREA":" ","LANE":"２３５巷","ALLEY":" ","HOUSE_NO":"６０號","E_COORD97":171494.12,"N_COORD97":2540299.4300000002,"ADDRESS":"德東街２３５巷６０號","OBJECTID":258288},"geometry":{"x":171494.12000000011,"y":2540299.4300000016}},{"attributes":{"ID":258293,"DIS_CODE":0,"TOWNNAME":"東區","LI":"後甲里","LIN":"27鄰","STREET":"建東街","SECT":" ","MAREA":" ","LANE":"３０巷","ALLEY":" ","HOUSE_NO":"１０號","E_COORD97":171857.92999999999,"N_COORD97":2543388.6099999999,"ADDRESS":"建東街３０巷１０號","OBJECTID":258289},"geometry":{"x":171857.9299999997,"y":2543388.6099999975}},{"attributes":{"ID":258294,"DIS_CODE":0,"TOWNNAME":"東區","LI":"後甲里","LIN":"27鄰","STREET":"建東街","SECT":" ","MAREA":" ","LANE":"３０巷","ALLEY":" ","HOUSE_NO":"１１號","E_COORD97":171863.92999999999,"N_COORD97":2543389.8700000001,"ADDRESS":"建東街３０巷１１號","OBJECTID":258290},"geometry":{"x":171863.93000000063,"y":2543389.8700000029}},{"attributes":{"ID":258295,"DIS_CODE":0,"TOWNNAME":"東區","LI":"後甲里","LIN":"27鄰","STREET":"建東街","SECT":" ","MAREA":" ","LANE":"３０巷","ALLEY":" ","HOUSE_NO":"１２號","E_COORD97":171869.29000000001,"N_COORD97":2543390.1899999999,"ADDRESS":"建東街３０巷１２號","OBJECTID":258291},"geometry":{"x":171869.29000000004,"y":2543390.1899999995}},{"attributes":{"ID":258296,"DIS_CODE":0,"TOWNNAME":"東區","LI":"後甲里","LIN":"27鄰","STREET":"建東街","SECT":" ","MAREA":" ","LANE":"３０巷","ALLEY":" ","HOUSE_NO":"１３號","E_COORD97":171874.35000000001,"N_COORD97":2543390.8199999998,"ADDRESS":"建東街３０巷１３號","OBJECTID":258292},"geometry":{"x":171874.35000000056,"y":2543390.8200000003}},{"attributes":{"ID":258297,"DIS_CODE":0,"TOWNNAME":"中西區","LI":"西賢里","LIN":"17鄰","STREET":"西賢一街","SECT":" ","MAREA":" ","LANE":"６７巷","ALLEY":" ","HOUSE_NO":"１０號","E_COORD97":165666.60999999999,"N_COORD97":2544630.5,"ADDRESS":"西賢一街６７巷１０號","OBJECTID":258293},"geometry":{"x":165666.6099999994,"y":2544630.5}},{"attributes":{"ID":258298,"DIS_CODE":0,"TOWNNAME":"中西區","LI":"西賢里","LIN":"17鄰","STREET":"西賢一街","SECT":" ","MAREA":" ","LANE":"６７巷","ALLEY":" ","HOUSE_NO":"１１號","E_COORD97":165643.64999999999,"N_COORD97":2544602.4500000002,"ADDRESS":"西賢一街６７巷１１號","OBJECTID":258294},"geometry":{"x":165643.65000000037,"y":2544602.4499999993}},{"attributes":{"ID":258299,"DIS_CODE":0,"TOWNNAME":"中西區","LI":"西賢里","LIN":"17鄰","STREET":"西賢一街","SECT":" ","MAREA":" ","LANE":"６７巷","ALLEY":" ","HOUSE_NO":"１２號","E_COORD97":165658.95999999999,"N_COORD97":2544630.7599999998,"ADDRESS":"西賢一街６７巷１２號","OBJECTID":258295},"geometry":{"x":165658.96000000183,"y":2544630.7600000016}},{"attributes":{"ID":258300,"DIS_CODE":0,"TOWNNAME":"中西區","LI":"西賢里","LIN":"17鄰","STREET":"西賢一街","SECT":" ","MAREA":" ","LANE":"６７巷","ALLEY":" ","HOUSE_NO":"１３號","E_COORD97":165635.34,"N_COORD97":2544601.7999999998,"ADDRESS":"西賢一街６７巷１３號","OBJECTID":258296},"geometry":{"x":165635.33999999985,"y":2544601.8000000007}},{"attributes":{"ID":258301,"DIS_CODE":0,"TOWNNAME":"中西區","LI":"西賢里","LIN":"17鄰","STREET":"西賢一街","SECT":" ","MAREA":" ","LANE":"６７巷","ALLEY":" ","HOUSE_NO":"１５號","E_COORD97":165630.14999999999,"N_COORD97":2544601.2799999998,"ADDRESS":"西賢一街６７巷１５號","OBJECTID":258297},"geometry":{"x":165630.15000000037,"y":2544601.2800000031}},{"attributes":{"ID":258302,"DIS_CODE":0,"TOWNNAME":"中西區","LI":"西賢里","LIN":"17鄰","STREET":"西賢一街","SECT":" ","MAREA":" ","LANE":"６７巷","ALLEY":" ","HOUSE_NO":"１６號","E_COORD97":165654.03,"N_COORD97":2544630.6299999999,"ADDRESS":"西賢一街６７巷１６號","OBJECTID":258298},"geometry":{"x":165654.03000000119,"y":2544630.6300000008}},{"attributes":{"ID":258303,"DIS_CODE":0,"TOWNNAME":"中西區","LI":"光賢里","LIN":"13鄰","STREET":"西和路","SECT":" ","MAREA":" ","LANE":" ","ALLEY":" ","HOUSE_NO":"１１號三樓之２","E_COORD97":166714.92999999999,"N_COORD97":2544443.8999999999,"ADDRESS":"西和路１１號三樓之２","OBJECTID":258299},"geometry":{"x":166714.93000000156,"y":2544443.9000000022}},{"attributes":{"ID":258304,"DIS_CODE":0,"TOWNNAME":"中西區","LI":"光賢里","LIN":"13鄰","STREET":"西和路","SECT":" ","MAREA":" ","LANE":" ","ALLEY":" ","HOUSE_NO":"１１號三樓之３","E_COORD97":166714.92999999999,"N_COORD97":2544443.8999999999,"ADDRESS":"西和路１１號三樓之３","OBJECTID":258300},"geometry":{"x":166714.93000000156,"y":2544443.9000000022}},{"attributes":{"ID":258305,"DIS_CODE":0,"TOWNNAME":"中西區","LI":"光賢里","LIN":"13鄰","STREET":"西和路","SECT":" ","MAREA":" ","LANE":" ","ALLEY":" ","HOUSE_NO":"１１號三樓之５","E_COORD97":166714.92999999999,"N_COORD97":2544443.8999999999,"ADDRESS":"西和路１１號三樓之５","OBJECTID":258301},"geometry":{"x":166714.93000000156,"y":2544443.9000000022}},{"attributes":{"ID":258306,"DIS_CODE":0,"TOWNNAME":"新營區","LI":"民生里","LIN":" ","STREET":"進修街","SECT":" ","MAREA":" ","LANE":" ","ALLEY":" ","HOUSE_NO":"１１之４號","E_COORD97":179018.60999999999,"N_COORD97":2578413.5499999998,"ADDRESS":"進修街１１之４號","OBJECTID":258302},"geometry":{"x":179018.61000000127,"y":2578413.5500000045}},{"attributes":{"ID":258307,"DIS_CODE":0,"TOWNNAME":"中西區","LI":"光賢里","LIN":"13鄰","STREET":"西和路","SECT":" ","MAREA":" ","LANE":" ","ALLEY":" ","HOUSE_NO":"１１號四樓之１","E_COORD97":166714.92999999999,"N_COORD97":2544443.8999999999,"ADDRESS":"西和路１１號四樓之１","OBJECTID":258303},"geometry":{"x":166714.93000000156,"y":2544443.9000000022}},{"attributes":{"ID":258308,"DIS_CODE":0,"TOWNNAME":"中西區","LI":"光賢里","LIN":"13鄰","STREET":"西和路","SECT":" ","MAREA":" ","LANE":" ","ALLEY":" ","HOUSE_NO":"１１號四樓之２","E_COORD97":166714.92999999999,"N_COORD97":2544443.8999999999,"ADDRESS":"西和路１１號四樓之２","OBJECTID":258304},"geometry":{"x":166714.93000000156,"y":2544443.9000000022}},{"attributes":{"ID":258309,"DIS_CODE":0,"TOWNNAME":"中西區","LI":"光賢里","LIN":"13鄰","STREET":"西和路","SECT":" ","MAREA":" ","LANE":" ","ALLEY":" ","HOUSE_NO":"１１號四樓之３","E_COORD97":166714.92999999999,"N_COORD97":2544443.8999999999,"ADDRESS":"西和路１１號四樓之３","OBJECTID":258305},"geometry":{"x":166714.93000000156,"y":2544443.9000000022}},{"attributes":{"ID":258310,"DIS_CODE":0,"TOWNNAME":"中西區","LI":"光賢里","LIN":"13鄰","STREET":"西和路","SECT":" ","MAREA":" ","LANE":" ","ALLEY":" ","HOUSE_NO":"１１號四樓之５","E_COORD97":166714.92999999999,"N_COORD97":2544443.8999999999,"ADDRESS":"西和路１１號四樓之５","OBJECTID":258306},"geometry":{"x":166714.93000000156,"y":2544443.9000000022}},{"attributes":{"ID":258311,"DIS_CODE":0,"TOWNNAME":"東區","LI":"後甲里","LIN":"27鄰","STREET":"裕農路","SECT":" ","MAREA":" ","LANE":"７７１巷","ALLEY":" ","HOUSE_NO":"３２號","E_COORD97":171898.41,"N_COORD97":2543351.1899999999,"ADDRESS":"裕農路７７１巷３２號","OBJECTID":258307},"geometry":{"x":171898.41000000108,"y":2543351.1900000032}},{"attributes":{"ID":258312,"DIS_CODE":0,"TOWNNAME":"東區","LI":"後甲里","LIN":"27鄰","STREET":"裕農路","SECT":" ","MAREA":" ","LANE":"７７１巷","ALLEY":" ","HOUSE_NO":"３４號","E_COORD97":171898.14999999999,"N_COORD97":2543355.4199999999,"ADDRESS":"裕農路７７１巷３４號","OBJECTID":258308},"geometry":{"x":171898.15000000224,"y":2543355.4199999999}},{"attributes":{"ID":258313,"DIS_CODE":0,"TOWNNAME":"東區","LI":"後甲里","LIN":"27鄰","STREET":"裕農路","SECT":" ","MAREA":" ","LANE":"７７１巷","ALLEY":" ","HOUSE_NO":"３６號","E_COORD97":171897.88,"N_COORD97":2543360.98,"ADDRESS":"裕農路７７１巷３６號","OBJECTID":258309},"geometry":{"x":171897.88000000082,"y":2543360.9800000023}},{"attributes":{"ID":258314,"DIS_CODE":0,"TOWNNAME":"東區","LI":"後甲里","LIN":"27鄰","STREET":"裕農路","SECT":" ","MAREA":" ","LANE":"７７１巷","ALLEY":" ","HOUSE_NO":"３８號","E_COORD97":171900.39000000001,"N_COORD97":2543367.9100000001,"ADDRESS":"裕農路７７１巷３８號","OBJECTID":258310},"geometry":{"x":171900.38999999966,"y":2543367.910000002}},{"attributes":{"ID":258315,"DIS_CODE":0,"TOWNNAME":"東區","LI":"後甲里","LIN":"27鄰","STREET":"裕農路","SECT":" ","MAREA":" ","LANE":"７７１巷","ALLEY":" ","HOUSE_NO":"４０號","E_COORD97":171899.32999999999,"N_COORD97":2543372.6800000002,"ADDRESS":"裕農路７７１巷４０號","OBJECTID":258311},"geometry":{"x":171899.33000000007,"y":2543372.6800000016}},{"attributes":{"ID":258316,"DIS_CODE":0,"TOWNNAME":"東區","LI":"後甲里","LIN":"27鄰","STREET":"裕農路","SECT":" ","MAREA":" ","LANE":"７７１巷","ALLEY":" ","HOUSE_NO":"４２號","E_COORD97":171898.85000000001,"N_COORD97":2543376.7000000002,"ADDRESS":"裕農路７７１巷４２號","OBJECTID":258312},"geometry":{"x":171898.84999999963,"y":2543376.6999999993}},{"attributes":{"ID":258317,"DIS_CODE":0,"TOWNNAME":"永康區","LI":"五王里","LIN":"27鄰","STREET":"五福街","SECT":" ","MAREA":" ","LANE":"１１０巷","ALLEY":" ","HOUSE_NO":"１號","E_COORD97":171558.70000000001,"N_COORD97":2545971.3300000001,"ADDRESS":"五福街１１０巷１號","OBJECTID":258313},"geometry":{"x":171558.70000000112,"y":2545971.3299999982}},{"attributes":{"ID":258318,"DIS_CODE":0,"TOWNNAME":"東區","LI":"後甲里","LIN":"27鄰","STREET":"裕農路","SECT":" ","MAREA":" ","LANE":"７７１巷","ALLEY":" ","HOUSE_NO":"４４號","E_COORD97":171897.63,"N_COORD97":2543382.4900000002,"ADDRESS":"裕農路７７１巷４４號","OBJECTID":258314},"geometry":{"x":171897.63000000175,"y":2543382.4900000002}},{"attributes":{"ID":258319,"DIS_CODE":0,"TOWNNAME":"東區","LI":"後甲里","LIN":"27鄰","STREET":"裕農路","SECT":" ","MAREA":" ","LANE":"７７１巷","ALLEY":" ","HOUSE_NO":"４６號","E_COORD97":171895.32999999999,"N_COORD97":2543387.96,"ADDRESS":"裕農路７７１巷４６號","OBJECTID":258315},"geometry":{"x":171895.33000000101,"y":2543387.9600000046}},{"attributes":{"ID":258320,"DIS_CODE":0,"TOWNNAME":"中西區","LI":"西賢里","LIN":"17鄰","STREET":"西賢一街","SECT":" ","MAREA":" ","LANE":"６７巷","ALLEY":" ","HOUSE_NO":"１７號","E_COORD97":165624.53,"N_COORD97":2544598.8399999999,"ADDRESS":"西賢一街６７巷１７號","OBJECTID":258316},"geometry":{"x":165624.53000000026,"y":2544598.8400000017}},{"attributes":{"ID":258321,"DIS_CODE":0,"TOWNNAME":"中西區","LI":"西賢里","LIN":"17鄰","STREET":"西賢一街","SECT":" ","MAREA":" ","LANE":"６７巷","ALLEY":" ","HOUSE_NO":"１８號","E_COORD97":165647.54000000001,"N_COORD97":2544630.2400000002,"ADDRESS":"西賢一街６７巷１８號","OBJECTID":258317},"geometry":{"x":165647.54000000004,"y":2544630.2400000021}},{"attributes":{"ID":258322,"DIS_CODE":0,"TOWNNAME":"中西區","LI":"西賢里","LIN":"17鄰","STREET":"西賢一街","SECT":" ","MAREA":" ","LANE":"６７巷","ALLEY":" ","HOUSE_NO":"１９號","E_COORD97":165617.78,"N_COORD97":2544599.27,"ADDRESS":"西賢一街６７巷１９號","OBJECTID":258318},"geometry":{"x":165617.78000000026,"y":2544599.2700000014}},{"attributes":{"ID":258323,"DIS_CODE":0,"TOWNNAME":"中西區","LI":"西賢里","LIN":"17鄰","STREET":"西賢一街","SECT":" ","MAREA":" ","LANE":"６７巷","ALLEY":" ","HOUSE_NO":"１號","E_COORD97":165674.64999999999,"N_COORD97":2544605.8199999998,"ADDRESS":"西賢一街６７巷１號","OBJECTID":258319},"geometry":{"x":165674.65000000037,"y":2544605.8200000022}},{"attributes":{"ID":258324,"DIS_CODE":0,"TOWNNAME":"中西區","LI":"西賢里","LIN":"17鄰","STREET":"西賢一街","SECT":" ","MAREA":" ","LANE":"６７巷","ALLEY":" ","HOUSE_NO":"２０號","E_COORD97":165641.44,"N_COORD97":2544629.7200000002,"ADDRESS":"西賢一街６７巷２０號","OBJECTID":258320},"geometry":{"x":165641.44000000134,"y":2544629.7200000007}},{"attributes":{"ID":258325,"DIS_CODE":0,"TOWNNAME":"中西區","LI":"西賢里","LIN":"17鄰","STREET":"西賢一街","SECT":" ","MAREA":" ","LANE":"６７巷","ALLEY":" ","HOUSE_NO":"２１號","E_COORD97":165611.48000000001,"N_COORD97":2544599.0499999998,"ADDRESS":"西賢一街６７巷２１號","OBJECTID":258321},"geometry":{"x":165611.48000000045,"y":2544599.0500000026}},{"attributes":{"ID":258326,"DIS_CODE":0,"TOWNNAME":"中西區","LI":"西賢里","LIN":"17鄰","STREET":"西賢一街","SECT":" ","MAREA":" ","LANE":"６７巷","ALLEY":" ","HOUSE_NO":"２２號","E_COORD97":165634.82000000001,"N_COORD97":2544629.98,"ADDRESS":"西賢一街６７巷２２號","OBJECTID":258322},"geometry":{"x":165634.82000000216,"y":2544629.9800000023}},{"attributes":{"ID":258327,"DIS_CODE":0,"TOWNNAME":"中西區","LI":"西賢里","LIN":"17鄰","STREET":"西賢一街","SECT":" ","MAREA":" ","LANE":"６７巷","ALLEY":" ","HOUSE_NO":"２３號","E_COORD97":165604.95000000001,"N_COORD97":2544599.4900000002,"ADDRESS":"西賢一街６７巷２３號","OBJECTID":258323},"geometry":{"x":165604.95000000205,"y":2544599.4900000002}},{"attributes":{"ID":258328,"DIS_CODE":0,"TOWNNAME":"中西區","LI":"西賢里","LIN":"17鄰","STREET":"西賢一街","SECT":" ","MAREA":" ","LANE":"６７巷","ALLEY":" ","HOUSE_NO":"２５號","E_COORD97":165599.51000000001,"N_COORD97":2544599.0499999998,"ADDRESS":"西賢一街６７巷２５號","OBJECTID":258324},"geometry":{"x":165599.51000000071,"y":2544599.0500000026}},{"attributes":{"ID":258329,"DIS_CODE":0,"TOWNNAME":"新營區","LI":"新東里","LIN":"20鄰","STREET":"東明街","SECT":" ","MAREA":" ","LANE":"２巷","ALLEY":" ","HOUSE_NO":"４９號","E_COORD97":180904.57999999999,"N_COORD97":2579546.3399999999,"ADDRESS":"東明街２巷４９號","OBJECTID":258325},"geometry":{"x":180904.58000000007,"y":2579546.3400000036}},{"attributes":{"ID":258330,"DIS_CODE":0,"TOWNNAME":"新營區","LI":"埤寮里","LIN":"14鄰","STREET":"中正路","SECT":" ","MAREA":" ","LANE":"４３０巷","ALLEY":" ","HOUSE_NO":"９８號","E_COORD97":180404.79999999999,"N_COORD97":2580301.7599999998,"ADDRESS":"中正路４３０巷９８號","OBJECTID":258326},"geometry":{"x":180404.80000000075,"y":2580301.7599999998}},{"attributes":{"ID":258331,"DIS_CODE":0,"TOWNNAME":"中西區","LI":"西賢里","LIN":"17鄰","STREET":"西賢一街","SECT":" ","MAREA":" ","LANE":"６７巷","ALLEY":" ","HOUSE_NO":"２６號","E_COORD97":165629.76000000001,"N_COORD97":2544629.46,"ADDRESS":"西賢一街６７巷２６號","OBJECTID":258327},"geometry":{"x":165629.76000000071,"y":2544629.4600000028}},{"attributes":{"ID":258332,"DIS_CODE":0,"TOWNNAME":"中西區","LI":"西賢里","LIN":"17鄰","STREET":"西賢一街","SECT":" ","MAREA":" ","LANE":"６７巷","ALLEY":" ","HOUSE_NO":"２７號","E_COORD97":165592.10999999999,"N_COORD97":2544598.1899999999,"ADDRESS":"西賢一街６７巷２７號","OBJECTID":258328},"geometry":{"x":165592.1100000022,"y":2544598.1899999995}},{"attributes":{"ID":258333,"DIS_CODE":0,"TOWNNAME":"中西區","LI":"西賢里","LIN":"17鄰","STREET":"西賢一街","SECT":" ","MAREA":" ","LANE":"６７巷","ALLEY":" ","HOUSE_NO":"２８號","E_COORD97":165624.41,"N_COORD97":2544626.9300000002,"ADDRESS":"西賢一街６７巷２８號","OBJECTID":258329},"geometry":{"x":165624.41000000108,"y":2544626.9299999997}},{"attributes":{"ID":258334,"DIS_CODE":0,"TOWNNAME":"中西區","LI":"光賢里","LIN":"13鄰","STREET":"西和路","SECT":" ","MAREA":" ","LANE":" ","ALLEY":" ","HOUSE_NO":"１１號五樓之１","E_COORD97":166714.92999999999,"N_COORD97":2544443.8999999999,"ADDRESS":"西和路１１號五樓之１","OBJECTID":258330},"geometry":{"x":166714.93000000156,"y":2544443.9000000022}},{"attributes":{"ID":258335,"DIS_CODE":0,"TOWNNAME":"中西區","LI":"光賢里","LIN":"13鄰","STREET":"西和路","SECT":" ","MAREA":" ","LANE":" ","ALLEY":" ","HOUSE_NO":"１１號五樓之２","E_COORD97":166714.92999999999,"N_COORD97":2544443.8999999999,"ADDRESS":"西和路１１號五樓之２","OBJECTID":258331},"geometry":{"x":166714.93000000156,"y":2544443.9000000022}},{"attributes":{"ID":258336,"DIS_CODE":0,"TOWNNAME":"中西區","LI":"光賢里","LIN":"13鄰","STREET":"西和路","SECT":" ","MAREA":" ","LANE":" ","ALLEY":" ","HOUSE_NO":"１１號五樓之３","E_COORD97":166714.92999999999,"N_COORD97":2544443.8999999999,"ADDRESS":"西和路１１號五樓之３","OBJECTID":258332},"geometry":{"x":166714.93000000156,"y":2544443.9000000022}},{"attributes":{"ID":258337,"DIS_CODE":0,"TOWNNAME":"中西區","LI":"光賢里","LIN":"13鄰","STREET":"西和路","SECT":" ","MAREA":" ","LANE":" ","ALLEY":" ","HOUSE_NO":"１１號五樓之５","E_COORD97":166714.92999999999,"N_COORD97":2544443.8999999999,"ADDRESS":"西和路１１號五樓之５","OBJECTID":258333},"geometry":{"x":166714.93000000156,"y":2544443.9000000022}},{"attributes":{"ID":258338,"DIS_CODE":0,"TOWNNAME":"安平區","LI":"育平里","LIN":"13鄰","STREET":"育平路","SECT":" ","MAREA":" ","LANE":" ","ALLEY":" ","HOUSE_NO":"２１２號四樓之４","E_COORD97":164690.60999999999,"N_COORD97":2543415.9199999999,"ADDRESS":"育平路２１２號四樓之４","OBJECTID":258334},"geometry":{"x":164690.61000000127,"y":2543415.9200000018}},{"attributes":{"ID":258339,"DIS_CODE":0,"TOWNNAME":"安南區","LI":"州北里","LIN":"13鄰","STREET":"安和路","SECT":"五段","MAREA":" ","LANE":" ","ALLEY":" ","HOUSE_NO":"８６號","E_COORD97":169937.51999999999,"N_COORD97":2551683.96,"ADDRESS":"安和路五段８６號","OBJECTID":258335},"geometry":{"x":169937.52000000048,"y":2551683.9600000009}},{"attributes":{"ID":258340,"DIS_CODE":0,"TOWNNAME":"安平區","LI":"石門里","LIN":"13鄰","STREET":"\u25A0忠街","SECT":" ","MAREA":" ","LANE":" ","ALLEY":" ","HOUSE_NO":"２３號","E_COORD97":164270.63,"N_COORD97":2544632.46,"ADDRESS":"\u25A0忠街２３號","OBJECTID":258336},"geometry":{"x":164270.62999999989,"y":2544632.4600000046}},{"attributes":{"ID":258341,"DIS_CODE":0,"TOWNNAME":"安平區","LI":"石門里","LIN":"13鄰","STREET":"\u25A0忠街","SECT":" ","MAREA":" ","LANE":" ","ALLEY":" ","HOUSE_NO":"２９號","E_COORD97":164267.37,"N_COORD97":2544606.4100000001,"ADDRESS":"\u25A0忠街２９號","OBJECTID":258337},"geometry":{"x":164267.37000000011,"y":2544606.410000002}},{"attributes":{"ID":258342,"DIS_CODE":0,"TOWNNAME":"安平區","LI":"石門里","LIN":"13鄰","STREET":"\u25A0忠街","SECT":" ","MAREA":" ","LANE":" ","ALLEY":" ","HOUSE_NO":"３０號之１","E_COORD97":164313.67000000001,"N_COORD97":2544640.4300000002,"ADDRESS":"\u25A0忠街３０號之１","OBJECTID":258338},"geometry":{"x":164313.67000000086,"y":2544640.4299999997}},{"attributes":{"ID":258343,"DIS_CODE":0,"TOWNNAME":"永康區","LI":"五王里","LIN":"27鄰","STREET":"五福街","SECT":" ","MAREA":" ","LANE":"１１０巷","ALLEY":" ","HOUSE_NO":"７６號","E_COORD97":171577.64999999999,"N_COORD97":2545897.71,"ADDRESS":"五福街１１０巷７６號","OBJECTID":258339},"geometry":{"x":171577.65000000224,"y":2545897.7100000009}},{"attributes":{"ID":258344,"DIS_CODE":0,"TOWNNAME":"永康區","LI":"五王里","LIN":"27鄰","STREET":"中山東路","SECT":" ","MAREA":" ","LANE":"６８巷","ALLEY":" ","HOUSE_NO":"２３號","E_COORD97":171587.14000000001,"N_COORD97":2545953.1699999999,"ADDRESS":"中山東路６８巷２３號","OBJECTID":258340},"geometry":{"x":171587.14000000153,"y":2545953.1700000018}},{"attributes":{"ID":258345,"DIS_CODE":0,"TOWNNAME":"永康區","LI":"中興里","LIN":"27鄰","STREET":"中興街","SECT":" ","MAREA":" ","LANE":"６９巷","ALLEY":" ","HOUSE_NO":"４號","E_COORD97":172049.17999999999,"N_COORD97":2545299.5,"ADDRESS":"中興街６９巷４號","OBJECTID":258341},"geometry":{"x":172049.1799999997,"y":2545299.5000000019}},{"attributes":{"ID":258346,"DIS_CODE":0,"TOWNNAME":"永康區","LI":"大橋里","LIN":"27鄰","STREET":"大橋一街","SECT":" ","MAREA":" ","LANE":"２５３巷","ALLEY":" ","HOUSE_NO":"３號","E_COORD97":171315.32000000001,"N_COORD97":2546706.7400000002,"ADDRESS":"大橋一街２５３巷３號","OBJECTID":258342},"geometry":{"x":171315.32000000216,"y":2546706.7400000002}},{"attributes":{"ID":258347,"DIS_CODE":0,"TOWNNAME":"永康區","LI":"五王里","LIN":"27鄰","STREET":"五福街","SECT":" ","MAREA":" ","LANE":"１１０巷","ALLEY":" ","HOUSE_NO":"６號","E_COORD97":171550.04999999999,"N_COORD97":2545959.8199999998,"ADDRESS":"五福街１１０巷６號","OBJECTID":258343},"geometry":{"x":171550.04999999981,"y":2545959.8200000022}},{"attributes":{"ID":258348,"DIS_CODE":0,"TOWNNAME":"永康區","LI":"中興里","LIN":"27鄰","STREET":"中興街","SECT":" ","MAREA":" ","LANE":"９１巷","ALLEY":" ","HOUSE_NO":"３１號","E_COORD97":171984.28,"N_COORD97":2545343,"ADDRESS":"中興街９１巷３１號","OBJECTID":258344},"geometry":{"x":171984.28000000119,"y":2545343.0000000037}},{"attributes":{"ID":258349,"DIS_CODE":0,"TOWNNAME":"永康區","LI":"大灣里","LIN":"27鄰","STREET":"大灣六街","SECT":" ","MAREA":" ","LANE":"８０巷","ALLEY":" ","HOUSE_NO":"２６號","E_COORD97":175226.07000000001,"N_COORD97":2545297.73,"ADDRESS":"大灣六街８０巷２６號","OBJECTID":258345},"geometry":{"x":175226.06999999937,"y":2545297.7299999986}},{"attributes":{"ID":258350,"DIS_CODE":0,"TOWNNAME":"永康區","LI":"中興里","LIN":"27鄰","STREET":"中興街","SECT":" ","MAREA":" ","LANE":"９１巷","ALLEY":" ","HOUSE_NO":"４１號","E_COORD97":171956.07999999999,"N_COORD97":2545347.0699999998,"ADDRESS":"中興街９１巷４１號","OBJECTID":258346},"geometry":{"x":171956.08000000101,"y":2545347.0700000022}},{"attributes":{"ID":258351,"DIS_CODE":0,"TOWNNAME":"永康區","LI":"大灣里","LIN":"27鄰","STREET":"大灣六街","SECT":" ","MAREA":" ","LANE":"８０巷","ALLEY":" ","HOUSE_NO":"２０號","E_COORD97":175215.26000000001,"N_COORD97":2545297.73,"ADDRESS":"大灣六街８０巷２０號","OBJECTID":258347},"geometry":{"x":175215.25999999978,"y":2545297.7299999986}},{"attributes":{"ID":258352,"DIS_CODE":0,"TOWNNAME":"永康區","LI":"中興里","LIN":"27鄰","STREET":"中興街","SECT":" ","MAREA":" ","LANE":"９１巷","ALLEY":" ","HOUSE_NO":"５號","E_COORD97":172045.98999999999,"N_COORD97":2545341.4900000002,"ADDRESS":"中興街９１巷５號","OBJECTID":258348},"geometry":{"x":172045.99000000022,"y":2545341.4900000021}},{"attributes":{"ID":258353,"DIS_CODE":0,"TOWNNAME":"中西區","LI":"西賢里","LIN":"17鄰","STREET":"西賢一街","SECT":" ","MAREA":" ","LANE":"６７巷","ALLEY":" ","HOUSE_NO":"２號","E_COORD97":165684.64999999999,"N_COORD97":2544632.5699999998,"ADDRESS":"西賢一街６７巷２號","OBJECTID":258349},"geometry":{"x":165684.65000000037,"y":2544632.5700000022}},{"attributes":{"ID":258354,"DIS_CODE":0,"TOWNNAME":"中西區","LI":"西賢里","LIN":"17鄰","STREET":"西賢一街","SECT":" ","MAREA":" ","LANE":"７１巷","ALLEY":" ","HOUSE_NO":"１０號","E_COORD97":165653.89000000001,"N_COORD97":2544653.1200000001,"ADDRESS":"西賢一街７１巷１０號","OBJECTID":258350},"geometry":{"x":165653.88999999873,"y":2544653.1200000029}},{"attributes":{"ID":258355,"DIS_CODE":0,"TOWNNAME":"中西區","LI":"西賢里","LIN":"17鄰","STREET":"西賢一街","SECT":" ","MAREA":" ","LANE":"７１巷","ALLEY":" ","HOUSE_NO":"１２號","E_COORD97":165647.66,"N_COORD97":2544652.8599999999,"ADDRESS":"西賢一街７１巷１２號","OBJECTID":258351},"geometry":{"x":165647.66000000201,"y":2544652.8600000013}},{"attributes":{"ID":258356,"DIS_CODE":0,"TOWNNAME":"中西區","LI":"西賢里","LIN":"17鄰","STREET":"西賢一街","SECT":" ","MAREA":" ","LANE":"７１巷","ALLEY":" ","HOUSE_NO":"１６號","E_COORD97":165641.42999999999,"N_COORD97":2544652.8599999999,"ADDRESS":"西賢一街７１巷１６號","OBJECTID":258352},"geometry":{"x":165641.4299999997,"y":2544652.8600000013}},{"attributes":{"ID":258357,"DIS_CODE":0,"TOWNNAME":"中西區","LI":"西賢里","LIN":"17鄰","STREET":"西賢一街","SECT":" ","MAREA":" ","LANE":"７１巷","ALLEY":" ","HOUSE_NO":"１８號","E_COORD97":165635.07000000001,"N_COORD97":2544652.8599999999,"ADDRESS":"西賢一街７１巷１８號","OBJECTID":258353},"geometry":{"x":165635.07000000123,"y":2544652.8600000013}},{"attributes":{"ID":258358,"DIS_CODE":0,"TOWNNAME":"中西區","LI":"西賢里","LIN":"17鄰","STREET":"西賢一街","SECT":" ","MAREA":" ","LANE":"７１巷","ALLEY":" ","HOUSE_NO":"２０號","E_COORD97":165626.62,"N_COORD97":2544650.1299999999,"ADDRESS":"西賢一街７１巷２０號","OBJECTID":258354},"geometry":{"x":165626.62000000011,"y":2544650.1300000008}},{"attributes":{"ID":258359,"DIS_CODE":0,"TOWNNAME":"中西區","LI":"西賢里","LIN":"17鄰","STREET":"西賢一街","SECT":" ","MAREA":" ","LANE":"７１巷","ALLEY":" ","HOUSE_NO":"２２號","E_COORD97":165622.57000000001,"N_COORD97":2544649.46,"ADDRESS":"西賢一街７１巷２２號","OBJECTID":258355},"geometry":{"x":165622.5700000003,"y":2544649.4600000046}},{"attributes":{"ID":258360,"DIS_CODE":0,"TOWNNAME":"中西區","LI":"西賢里","LIN":"17鄰","STREET":"西賢一街","SECT":" ","MAREA":" ","LANE":"７１巷","ALLEY":" ","HOUSE_NO":"２６號","E_COORD97":165617.28,"N_COORD97":2544649.9100000001,"ADDRESS":"西賢一街７１巷２６號","OBJECTID":258356},"geometry":{"x":165617.28000000026,"y":2544649.910000002}},{"attributes":{"ID":258361,"DIS_CODE":0,"TOWNNAME":"安平區","LI":"石門里","LIN":"13鄰","STREET":"\u25A0忠街","SECT":" ","MAREA":" ","LANE":" ","ALLEY":" ","HOUSE_NO":"３４號","E_COORD97":164294.42999999999,"N_COORD97":2544635.54,"ADDRESS":"\u25A0忠街３４號","OBJECTID":258357},"geometry":{"x":164294.43000000063,"y":2544635.5399999991}},{"attributes":{"ID":258362,"DIS_CODE":0,"TOWNNAME":"安平區","LI":"石門里","LIN":"13鄰","STREET":"\u25A0忠街","SECT":" ","MAREA":" ","LANE":" ","ALLEY":" ","HOUSE_NO":"３６號","E_COORD97":164281.39000000001,"N_COORD97":2544638.7999999998,"ADDRESS":"\u25A0忠街３６號","OBJECTID":258358},"geometry":{"x":164281.3900000006,"y":2544638.8000000007}},{"attributes":{"ID":258363,"DIS_CODE":0,"TOWNNAME":"安平區","LI":"石門里","LIN":"13鄰","STREET":"\u25A0忠街","SECT":" ","MAREA":" ","LANE":" ","ALLEY":" ","HOUSE_NO":"３８號","E_COORD97":164269.98000000001,"N_COORD97":2544644.9900000002,"ADDRESS":"\u25A0忠街３８號","OBJECTID":258359},"geometry":{"x":164269.98000000138,"y":2544644.9900000039}},{"attributes":{"ID":258364,"DIS_CODE":0,"TOWNNAME":"安平區","LI":"石門里","LIN":"13鄰","STREET":"\u25A0忠街","SECT":" ","MAREA":" ","LANE":" ","ALLEY":" ","HOUSE_NO":"４０號","E_COORD97":164263.13,"N_COORD97":2544646.6099999999,"ADDRESS":"\u25A0忠街４０號","OBJECTID":258360},"geometry":{"x":164263.13000000082,"y":2544646.6100000031}},{"attributes":{"ID":258365,"DIS_CODE":0,"TOWNNAME":"安平區","LI":"平安里","LIN":"13鄰","STREET":"安平路","SECT":" ","MAREA":" ","LANE":" ","ALLEY":" ","HOUSE_NO":"５２６號","E_COORD97":165061.22,"N_COORD97":2544353.4100000001,"ADDRESS":"安平路５２６號","OBJECTID":258361},"geometry":{"x":165061.21999999974,"y":2544353.4100000001}},{"attributes":{"ID":258366,"DIS_CODE":0,"TOWNNAME":"安平區","LI":"平安里","LIN":"13鄰","STREET":"安平路","SECT":" ","MAREA":" ","LANE":" ","ALLEY":" ","HOUSE_NO":"５３４號","E_COORD97":165038.88,"N_COORD97":2544357.7000000002,"ADDRESS":"安平路５３４號","OBJECTID":258362},"geometry":{"x":165038.88000000175,"y":2544357.700000003}},{"attributes":{"ID":258367,"DIS_CODE":0,"TOWNNAME":"安南區","LI":"頂安里","LIN":"13鄰","STREET":"北安三街","SECT":" ","MAREA":" ","LANE":" ","ALLEY":" ","HOUSE_NO":"６號","E_COORD97":168367.89999999999,"N_COORD97":2548640.8399999999,"ADDRESS":"北安三街６號","OBJECTID":258363},"geometry":{"x":168367.90000000037,"y":2548640.8400000017}},{"attributes":{"ID":258368,"DIS_CODE":0,"TOWNNAME":"安南區","LI":"頂安里","LIN":"13鄰","STREET":"安中二街","SECT":" ","MAREA":" ","LANE":" ","ALLEY":" ","HOUSE_NO":"１２９號","E_COORD97":168392.34,"N_COORD97":2548644.6499999999,"ADDRESS":"安中二街１２９號","OBJECTID":258364},"geometry":{"x":168392.34000000171,"y":2548644.6500000041}},{"attributes":{"ID":258369,"DIS_CODE":0,"TOWNNAME":"安南區","LI":"頂安里","LIN":"13鄰","STREET":"安中二街","SECT":" ","MAREA":" ","LANE":" ","ALLEY":" ","HOUSE_NO":"１３１號","E_COORD97":168391.54999999999,"N_COORD97":2548650.3700000001,"ADDRESS":"安中二街１３１號","OBJECTID":258365},"geometry":{"x":168391.55000000075,"y":2548650.370000001}},{"attributes":{"ID":258370,"DIS_CODE":0,"TOWNNAME":"安南區","LI":"頂安里","LIN":"13鄰","STREET":"安中二街","SECT":" ","MAREA":" ","LANE":" ","ALLEY":" ","HOUSE_NO":"１３３號","E_COORD97":168389.48999999999,"N_COORD97":2548656.3999999999,"ADDRESS":"安中二街１３３號","OBJECTID":258366},"geometry":{"x":168389.49000000022,"y":2548656.3999999985}},{"attributes":{"ID":258371,"DIS_CODE":0,"TOWNNAME":"安南區","LI":"頂安里","LIN":"13鄰","STREET":"安中二街","SECT":" ","MAREA":" ","LANE":" ","ALLEY":" ","HOUSE_NO":"１３５號","E_COORD97":168387.26000000001,"N_COORD97":2548662.1200000001,"ADDRESS":"安中二街１３５號","OBJECTID":258367},"geometry":{"x":168387.25999999978,"y":2548662.120000001}},{"attributes":{"ID":258372,"DIS_CODE":0,"TOWNNAME":"永康區","LI":"五王里","LIN":"27鄰","STREET":"五福街","SECT":" ","MAREA":" ","LANE":"１１０巷","ALLEY":" ","HOUSE_NO":"７０號","E_COORD97":171558.70000000001,"N_COORD97":2545890.5,"ADDRESS":"五福街１１０巷７０號","OBJECTID":258368},"geometry":{"x":171558.70000000112,"y":2545890.5000000019}},{"attributes":{"ID":258373,"DIS_CODE":0,"TOWNNAME":"永康區","LI":"五王里","LIN":"27鄰","STREET":"五福街","SECT":" ","MAREA":" ","LANE":"１１０巷","ALLEY":" ","HOUSE_NO":"４６號","E_COORD97":171549.92999999999,"N_COORD97":2545918.0600000001,"ADDRESS":"五福街１１０巷４６號","OBJECTID":258369},"geometry":{"x":171549.93000000063,"y":2545918.0600000005}},{"attributes":{"ID":258374,"DIS_CODE":0,"TOWNNAME":"永康區","LI":"中興里","LIN":"27鄰","STREET":"中興街","SECT":" ","MAREA":" ","LANE":"９１巷","ALLEY":" ","HOUSE_NO":"１號","E_COORD97":172055.45000000001,"N_COORD97":2545341.9900000002,"ADDRESS":"中興街９１巷１號","OBJECTID":258370},"geometry":{"x":172055.45000000112,"y":2545341.9900000002}},{"attributes":{"ID":258375,"DIS_CODE":0,"TOWNNAME":"永康區","LI":"五王里","LIN":"27鄰","STREET":"五福街","SECT":" ","MAREA":" ","LANE":"１１０巷","ALLEY":" ","HOUSE_NO":"８０號","E_COORD97":171582.42999999999,"N_COORD97":2545891.21,"ADDRESS":"五福街１１０巷８０號","OBJECTID":258371},"geometry":{"x":171582.43000000063,"y":2545891.2100000009}},{"attributes":{"ID":258376,"DIS_CODE":0,"TOWNNAME":"永康區","LI":"二王里","LIN":"27鄰","STREET":"中山南路","SECT":" ","MAREA":" ","LANE":"５４４巷","ALLEY":" ","HOUSE_NO":"７４號","E_COORD97":172317.06,"N_COORD97":2546284.71,"ADDRESS":"中山南路５４４巷７４號","OBJECTID":258372},"geometry":{"x":172317.06000000052,"y":2546284.7100000009}},{"attributes":{"ID":258377,"DIS_CODE":0,"TOWNNAME":"永康區","LI":"大灣里","LIN":"27鄰","STREET":"大灣六街","SECT":" ","MAREA":" ","LANE":"５３巷","ALLEY":" ","HOUSE_NO":"３號","E_COORD97":175162.81,"N_COORD97":2545232.46,"ADDRESS":"大灣六街５３巷３號","OBJECTID":258373},"geometry":{"x":175162.81000000145,"y":2545232.4600000046}},{"attributes":{"ID":258378,"DIS_CODE":0,"TOWNNAME":"永康區","LI":"二王里","LIN":"27鄰","STREET":"中山南路","SECT":" ","MAREA":" ","LANE":"５４４巷","ALLEY":" ","HOUSE_NO":"８０號","E_COORD97":172317.31,"N_COORD97":2546270.21,"ADDRESS":"中山南路５４４巷８０號","OBJECTID":258374},"geometry":{"x":172317.31000000052,"y":2546270.2100000009}},{"attributes":{"ID":258379,"DIS_CODE":0,"TOWNNAME":"安南區","LI":"安富里","LIN":"27鄰","STREET":"安寧街","SECT":" ","MAREA":" ","LANE":"７４巷","ALLEY":" ","HOUSE_NO":"１５號","E_COORD97":167426.31,"N_COORD97":2547110.5899999999,"ADDRESS":"安寧街７４巷１５號","OBJECTID":258375},"geometry":{"x":167426.31000000052,"y":2547110.5899999999}},{"attributes":{"ID":258380,"DIS_CODE":0,"TOWNNAME":"中西區","LI":"西賢里","LIN":"17鄰","STREET":"西賢一街","SECT":" ","MAREA":" ","LANE":"７１巷","ALLEY":" ","HOUSE_NO":"２８號","E_COORD97":165610.87,"N_COORD97":2544650.1299999999,"ADDRESS":"西賢一街７１巷２８號","OBJECTID":258376},"geometry":{"x":165610.87000000104,"y":2544650.1300000008}},{"attributes":{"ID":258381,"DIS_CODE":0,"TOWNNAME":"中西區","LI":"西賢里","LIN":"17鄰","STREET":"西賢一街","SECT":" ","MAREA":" ","LANE":"７１巷","ALLEY":" ","HOUSE_NO":"２號","E_COORD97":165671.01000000001,"N_COORD97":2544653.1200000001,"ADDRESS":"西賢一街７１巷２號","OBJECTID":258377},"geometry":{"x":165671.01000000071,"y":2544653.1200000029}},{"attributes":{"ID":258382,"DIS_CODE":0,"TOWNNAME":"安南區","LI":"頂安里","LIN":"13鄰","STREET":"安中二街","SECT":" ","MAREA":" ","LANE":" ","ALLEY":" ","HOUSE_NO":"１３７號","E_COORD97":168385.04000000001,"N_COORD97":2548668.3100000001,"ADDRESS":"安中二街１３７號","OBJECTID":258378},"geometry":{"x":168385.04000000097,"y":2548668.3100000024}},{"attributes":{"ID":258383,"DIS_CODE":0,"TOWNNAME":"安南區","LI":"頂安里","LIN":"13鄰","STREET":"安中二街","SECT":" ","MAREA":" ","LANE":" ","ALLEY":" ","HOUSE_NO":"１３９號","E_COORD97":168383.29000000001,"N_COORD97":2548674.8199999998,"ADDRESS":"安中二街１３９號","OBJECTID":258379},"geometry":{"x":168383.29000000097,"y":2548674.8200000022}},{"attributes":{"ID":258384,"DIS_CODE":0,"TOWNNAME":"新營區","LI":"民榮里","LIN":"4鄰","STREET":"濟安街","SECT":" ","MAREA":" ","LANE":" ","ALLEY":" ","HOUSE_NO":"４６號","E_COORD97":179352.51000000001,"N_COORD97":2577942.3300000001,"ADDRESS":"濟安街４６號","OBJECTID":258380},"geometry":{"x":179352.51000000071,"y":2577942.3300000001}},{"attributes":{"ID":258385,"DIS_CODE":0,"TOWNNAME":"安南區","LI":"頂安里","LIN":"13鄰","STREET":"安中二街","SECT":" ","MAREA":" ","LANE":" ","ALLEY":" ","HOUSE_NO":"１１８號","E_COORD97":168436.417678,"N_COORD97":2548583.53101,"ADDRESS":"安中二街１１８號","OBJECTID":258381},"geometry":{"x":168436.41767800041,"y":2548583.531014001}},{"attributes":{"ID":258386,"DIS_CODE":0,"TOWNNAME":"安南區","LI":"頂安里","LIN":"13鄰","STREET":"安中二街","SECT":" ","MAREA":" ","LANE":" ","ALLEY":" ","HOUSE_NO":"１２０號","E_COORD97":168430.76000000001,"N_COORD97":2548591.4700000002,"ADDRESS":"安中二街１２０號","OBJECTID":258382},"geometry":{"x":168430.76000000071,"y":2548591.4700000007}},{"attributes":{"ID":258387,"DIS_CODE":0,"TOWNNAME":"永康區","LI":"勝利里","LIN":"27鄰","STREET":"勝利街","SECT":" ","MAREA":" ","LANE":"５８巷","ALLEY":" ","HOUSE_NO":"３８號","E_COORD97":171443.39999999999,"N_COORD97":2544656.9300000002,"ADDRESS":"勝利街５８巷３８號","OBJECTID":258383},"geometry":{"x":171443.40000000037,"y":2544656.9299999997}},{"attributes":{"ID":258388,"DIS_CODE":0,"TOWNNAME":"永康區","LI":"大灣里","LIN":"27鄰","STREET":"大灣六街","SECT":" ","MAREA":" ","LANE":"８０巷","ALLEY":" ","HOUSE_NO":"６之１號","E_COORD97":175192.64000000001,"N_COORD97":2545285.9700000002,"ADDRESS":"大灣六街８０巷６之１號","OBJECTID":258384},"geometry":{"x":175192.63999999966,"y":2545285.9700000007}},{"attributes":{"ID":258389,"DIS_CODE":0,"TOWNNAME":"永康區","LI":"北灣里","LIN":"27鄰","STREET":"文賢街","SECT":" ","MAREA":" ","LANE":"１０８巷","ALLEY":" ","HOUSE_NO":"１１號","E_COORD97":175421.01999999999,"N_COORD97":2545463.6800000002,"ADDRESS":"文賢街１０８巷１１號","OBJECTID":258385},"geometry":{"x":175421.02000000048,"y":2545463.6800000034}},{"attributes":{"ID":258390,"DIS_CODE":0,"TOWNNAME":"永康區","LI":"北灣里","LIN":"27鄰","STREET":"文賢街","SECT":" ","MAREA":" ","LANE":"１０８巷","ALLEY":" ","HOUSE_NO":"１３號","E_COORD97":175427.07999999999,"N_COORD97":2545463.6800000002,"ADDRESS":"文賢街１０８巷１３號","OBJECTID":258386},"geometry":{"x":175427.08000000007,"y":2545463.6800000034}},{"attributes":{"ID":258391,"DIS_CODE":0,"TOWNNAME":"永康區","LI":"北灣里","LIN":"27鄰","STREET":"文賢街","SECT":" ","MAREA":" ","LANE":"１０８巷","ALLEY":" ","HOUSE_NO":"１６號","E_COORD97":175420.67000000001,"N_COORD97":2545450.4300000002,"ADDRESS":"文賢街１０８巷１６號","OBJECTID":258387},"geometry":{"x":175420.67000000086,"y":2545450.4299999997}},{"attributes":{"ID":258392,"DIS_CODE":0,"TOWNNAME":"永康區","LI":"北灣里","LIN":"27鄰","STREET":"文賢街","SECT":" ","MAREA":" ","LANE":"１０８巷","ALLEY":" ","HOUSE_NO":"１８號","E_COORD97":175427.85000000001,"N_COORD97":2545450.4900000002,"ADDRESS":"文賢街１０８巷１８號","OBJECTID":258388},"geometry":{"x":175427.84999999963,"y":2545450.4900000002}},{"attributes":{"ID":258393,"DIS_CODE":0,"TOWNNAME":"永康區","LI":"北灣里","LIN":"27鄰","STREET":"文賢街","SECT":" ","MAREA":" ","LANE":"１２２巷","ALLEY":" ","HOUSE_NO":"１２號","E_COORD97":175420.57999999999,"N_COORD97":2545512.5,"ADDRESS":"文賢街１２２巷１２號","OBJECTID":258389},"geometry":{"x":175420.58000000007,"y":2545512.5000000037}},{"attributes":{"ID":258394,"DIS_CODE":0,"TOWNNAME":"永康區","LI":"北灣里","LIN":"27鄰","STREET":"文賢街","SECT":" ","MAREA":" ","LANE":"１２２巷","ALLEY":" ","HOUSE_NO":"１６號","E_COORD97":175424.17000000001,"N_COORD97":2545512.6899999999,"ADDRESS":"文賢街１２２巷１６號","OBJECTID":258390},"geometry":{"x":175424.17000000086,"y":2545512.6899999995}},{"attributes":{"ID":258395,"DIS_CODE":0,"TOWNNAME":"永康區","LI":"北灣里","LIN":"27鄰","STREET":"文賢街","SECT":" ","MAREA":" ","LANE":"１２２巷","ALLEY":" ","HOUSE_NO":"１８號","E_COORD97":175427.53,"N_COORD97":2545512.54,"ADDRESS":"文賢街１２２巷１８號","OBJECTID":258391},"geometry":{"x":175427.53000000026,"y":2545512.540000001}},{"attributes":{"ID":258396,"DIS_CODE":0,"TOWNNAME":"東區","LI":"泉南里","LIN":"27鄰","STREET":"府連路","SECT":" ","MAREA":" ","LANE":"２６０巷","ALLEY":" ","HOUSE_NO":"１４號之１","E_COORD97":169451.23999999999,"N_COORD97":2542815.1400000001,"ADDRESS":"府連路２６０巷１４號之１","OBJECTID":258392},"geometry":{"x":169451.24000000115,"y":2542815.1400000025}},{"attributes":{"ID":258397,"DIS_CODE":0,"TOWNNAME":"中西區","LI":"西賢里","LIN":"17鄰","STREET":"西賢一街","SECT":" ","MAREA":" ","LANE":"７１巷","ALLEY":" ","HOUSE_NO":"３０號","E_COORD97":165603.67000000001,"N_COORD97":2544650.1299999999,"ADDRESS":"西賢一街７１巷３０號","OBJECTID":258393},"geometry":{"x":165603.67000000086,"y":2544650.1300000008}},{"attributes":{"ID":258398,"DIS_CODE":0,"TOWNNAME":"中西區","LI":"西賢里","LIN":"17鄰","STREET":"西賢一街","SECT":" ","MAREA":" ","LANE":"７１巷","ALLEY":" ","HOUSE_NO":"３２號","E_COORD97":165597.14000000001,"N_COORD97":2544649.9100000001,"ADDRESS":"西賢一街７１巷３２號","OBJECTID":258394},"geometry":{"x":165597.1400000006,"y":2544649.910000002}},{"attributes":{"ID":258399,"DIS_CODE":0,"TOWNNAME":"新營區","LI":"民榮里","LIN":" ","STREET":"南昌街","SECT":" ","MAREA":" ","LANE":" ","ALLEY":" ","HOUSE_NO":"５４之２號","E_COORD97":179366.89000000001,"N_COORD97":2577657.7000000002,"ADDRESS":"南昌街５４之２號","OBJECTID":258395},"geometry":{"x":179366.8900000006,"y":2577657.6999999993}},{"attributes":{"ID":258400,"DIS_CODE":0,"TOWNNAME":"安南區","LI":"溪墘里","LIN":"27鄰","STREET":"安寧街","SECT":" ","MAREA":" ","LANE":"１２１巷","ALLEY":" ","HOUSE_NO":"２６號","E_COORD97":167291.45000000001,"N_COORD97":2547175.8799999999,"ADDRESS":"安寧街１２１巷２６號","OBJECTID":258396},"geometry":{"x":167291.45000000019,"y":2547175.879999999}},{"attributes":{"ID":258401,"DIS_CODE":0,"TOWNNAME":"安南區","LI":"溪墘里","LIN":"27鄰","STREET":"安寧街","SECT":" ","MAREA":" ","LANE":"１２１巷","ALLEY":" ","HOUSE_NO":"２９號","E_COORD97":167283.53,"N_COORD97":2547153.71,"ADDRESS":"安寧街１２１巷２９號","OBJECTID":258397},"geometry":{"x":167283.53000000119,"y":2547153.7100000028}},{"attributes":{"ID":258402,"DIS_CODE":0,"TOWNNAME":"安南區","LI":"溪墘里","LIN":"27鄰","STREET":"安寧街","SECT":" ","MAREA":" ","LANE":"１２１巷","ALLEY":" ","HOUSE_NO":"３１號","E_COORD97":167277.87,"N_COORD97":2547152.3100000001,"ADDRESS":"安寧街１２１巷３１號","OBJECTID":258398},"geometry":{"x":167277.87000000011,"y":2547152.3100000024}},{"attributes":{"ID":258403,"DIS_CODE":0,"TOWNNAME":"東區","LI":"大智里","LIN":"17鄰","STREET":"德東街","SECT":" ","MAREA":" ","LANE":"１５１巷","ALLEY":" ","HOUSE_NO":"６８號","E_COORD97":171205.31,"N_COORD97":2540442.3700000001,"ADDRESS":"德東街１５１巷６８號","OBJECTID":258399},"geometry":{"x":171205.31000000052,"y":2540442.3699999992}},{"attributes":{"ID":258404,"DIS_CODE":0,"TOWNNAME":"東區","LI":"大智里","LIN":"17鄰","STREET":"德東街","SECT":" ","MAREA":" ","LANE":"１５１巷","ALLEY":" ","HOUSE_NO":"３８號","E_COORD97":171211.85999999999,"N_COORD97":2540371.9100000001,"ADDRESS":"德東街１５１巷３８號","OBJECTID":258400},"geometry":{"x":171211.86000000127,"y":2540371.9100000001}}]}