{"displayFieldName":"TOWNNAME","fieldAliases":{"ID":"ID","DIS_CODE":"DIS_CODE","TOWNNAME":"TOWNNAME","LI":"LI","LIN":"LIN","STREET":"STREET","SECT":"SECT","MAREA":"MAREA","LANE":"LANE","ALLEY":"ALLEY","HOUSE_NO":"HOUSE_NO","E_COORD97":"E_COORD97","N_COORD97":"N_COORD97","ADDRESS":"ADDRESS","OBJECTID":"OBJECTID"},"geometryType":"esriGeometryPoint","spatialReference":{"wkid":102443,"latestWkid":3826},"fields":[{"name":"ID","type":"esriFieldTypeDouble","alias":"ID"},{"name":"DIS_CODE","type":"esriFieldTypeInteger","alias":"DIS_CODE"},{"name":"TOWNNAME","type":"esriFieldTypeString","alias":"TOWNNAME","length":8},{"name":"LI","type":"esriFieldTypeString","alias":"LI","length":8},{"name":"LIN","type":"esriFieldTypeString","alias":"LIN","length":12},{"name":"STREET","type":"esriFieldTypeString","alias":"STREET","length":20},{"name":"SECT","type":"esriFieldTypeString","alias":"SECT","length":8},{"name":"MAREA","type":"esriFieldTypeString","alias":"MAREA","length":12},{"name":"LANE","type":"esriFieldTypeString","alias":"LANE","length":10},{"name":"ALLEY","type":"esriFieldTypeString","alias":"ALLEY","length":10},{"name":"HOUSE_NO","type":"esriFieldTypeString","alias":"HOUSE_NO","length":20},{"name":"E_COORD97","type":"esriFieldTypeDouble","alias":"E_COORD97"},{"name":"N_COORD97","type":"esriFieldTypeDouble","alias":"N_COORD97"},{"name":"ADDRESS","type":"esriFieldTypeString","alias":"ADDRESS","length":50},{"name":"OBJECTID","type":"esriFieldTypeOID","alias":"OBJECTID"}],"features":[{"attributes":{"ID":480626,"DIS_CODE":0,"TOWNNAME":"東區","LI":"成大里","LIN":"26鄰","STREET":"育樂街","SECT":" ","MAREA":" ","LANE":" ","ALLEY":" ","HOUSE_NO":"７６號六樓","E_COORD97":169563.29000000001,"N_COORD97":2544037.4900000002,"ADDRESS":"育樂街７６號六樓","OBJECTID":480601},"geometry":{"x":169563.29000000004,"y":2544037.4900000002}},{"attributes":{"ID":480627,"DIS_CODE":0,"TOWNNAME":"南區","LI":"新興里","LIN":"20鄰","STREET":"新興路","SECT":" ","MAREA":" ","LANE":" ","ALLEY":" ","HOUSE_NO":"２０２號","E_COORD97":167304.48999999999,"N_COORD97":2541985.0800000001,"ADDRESS":"新興路２０２號","OBJECTID":480602},"geometry":{"x":167304.49000000022,"y":2541985.0800000001}},{"attributes":{"ID":480628,"DIS_CODE":0,"TOWNNAME":"南區","LI":"新興里","LIN":"20鄰","STREET":"新興路","SECT":" ","MAREA":" ","LANE":" ","ALLEY":" ","HOUSE_NO":"２０２號之１","E_COORD97":167302.47,"N_COORD97":2541981.73,"ADDRESS":"新興路２０２號之１","OBJECTID":480603},"geometry":{"x":167302.46999999974,"y":2541981.7300000004}},{"attributes":{"ID":480629,"DIS_CODE":0,"TOWNNAME":"南區","LI":"新興里","LIN":"20鄰","STREET":"新興路","SECT":" ","MAREA":" ","LANE":" ","ALLEY":" ","HOUSE_NO":"２０４號","E_COORD97":167295.48000000001,"N_COORD97":2541979.3100000001,"ADDRESS":"新興路２０４號","OBJECTID":480604},"geometry":{"x":167295.48000000138,"y":2541979.3100000024}},{"attributes":{"ID":480630,"DIS_CODE":0,"TOWNNAME":"南區","LI":"新興里","LIN":"20鄰","STREET":"新興路","SECT":" ","MAREA":" ","LANE":" ","ALLEY":" ","HOUSE_NO":"２１０號","E_COORD97":167276.64999999999,"N_COORD97":2541970.1099999999,"ADDRESS":"新興路２１０號","OBJECTID":480605},"geometry":{"x":167276.65000000037,"y":2541970.1099999994}},{"attributes":{"ID":480631,"DIS_CODE":0,"TOWNNAME":"南區","LI":"新興里","LIN":"20鄰","STREET":"新興路","SECT":" ","MAREA":" ","LANE":" ","ALLEY":" ","HOUSE_NO":"２１６號","E_COORD97":167269.12,"N_COORD97":2541958.1600000001,"ADDRESS":"新興路２１６號","OBJECTID":480606},"geometry":{"x":167269.12000000104,"y":2541958.1600000001}},{"attributes":{"ID":480632,"DIS_CODE":0,"TOWNNAME":"南區","LI":"新興里","LIN":"20鄰","STREET":"新興路","SECT":" ","MAREA":" ","LANE":" ","ALLEY":" ","HOUSE_NO":"２１８號","E_COORD97":167265.62,"N_COORD97":2541955.3399999999,"ADDRESS":"新興路２１８號","OBJECTID":480607},"geometry":{"x":167265.62000000104,"y":2541955.3400000017}},{"attributes":{"ID":480633,"DIS_CODE":0,"TOWNNAME":"南區","LI":"新興里","LIN":"20鄰","STREET":"新興路","SECT":" ","MAREA":" ","LANE":" ","ALLEY":" ","HOUSE_NO":"２２０號","E_COORD97":167261.85999999999,"N_COORD97":2541951.7799999998,"ADDRESS":"新興路２２０號","OBJECTID":480608},"geometry":{"x":167261.8600000022,"y":2541951.7800000012}},{"attributes":{"ID":480634,"DIS_CODE":0,"TOWNNAME":"南區","LI":"新興里","LIN":"20鄰","STREET":"新興路","SECT":" ","MAREA":" ","LANE":" ","ALLEY":" ","HOUSE_NO":"２２２號","E_COORD97":167258.09,"N_COORD97":2541948.96,"ADDRESS":"新興路２２２號","OBJECTID":480609},"geometry":{"x":167258.09000000171,"y":2541948.9600000009}},{"attributes":{"ID":480635,"DIS_CODE":0,"TOWNNAME":"南區","LI":"新興里","LIN":"20鄰","STREET":"新興路","SECT":" ","MAREA":" ","LANE":" ","ALLEY":" ","HOUSE_NO":"２２４號","E_COORD97":167255,"N_COORD97":2541946,"ADDRESS":"新興路２２４號","OBJECTID":480610},"geometry":{"x":167255,"y":2541946.0000000037}},{"attributes":{"ID":480636,"DIS_CODE":0,"TOWNNAME":"南區","LI":"新興里","LIN":"20鄰","STREET":"新興路","SECT":" ","MAREA":" ","LANE":" ","ALLEY":" ","HOUSE_NO":"２２６號","E_COORD97":167250.97,"N_COORD97":2541942.2400000002,"ADDRESS":"新興路２２６號","OBJECTID":480611},"geometry":{"x":167250.97000000067,"y":2541942.2400000021}},{"attributes":{"ID":480637,"DIS_CODE":0,"TOWNNAME":"南區","LI":"新興里","LIN":"20鄰","STREET":"新興路","SECT":" ","MAREA":" ","LANE":" ","ALLEY":" ","HOUSE_NO":"２２８號","E_COORD97":167247.73999999999,"N_COORD97":2541939.96,"ADDRESS":"新興路２２８號","OBJECTID":480612},"geometry":{"x":167247.74000000115,"y":2541939.9600000009}},{"attributes":{"ID":480638,"DIS_CODE":0,"TOWNNAME":"南區","LI":"新興里","LIN":"20鄰","STREET":"新興路","SECT":" ","MAREA":" ","LANE":" ","ALLEY":" ","HOUSE_NO":"２２８號之１","E_COORD97":167241.69,"N_COORD97":2541933.2400000002,"ADDRESS":"新興路２２８號之１","OBJECTID":480613},"geometry":{"x":167241.69000000134,"y":2541933.2400000002}},{"attributes":{"ID":480639,"DIS_CODE":0,"TOWNNAME":"東區","LI":"成大里","LIN":"26鄰","STREET":"育樂街","SECT":" ","MAREA":" ","LANE":" ","ALLEY":" ","HOUSE_NO":"７６號四樓","E_COORD97":169563.29000000001,"N_COORD97":2544037.4900000002,"ADDRESS":"育樂街７６號四樓","OBJECTID":480614},"geometry":{"x":169563.29000000004,"y":2544037.4900000002}},{"attributes":{"ID":480640,"DIS_CODE":0,"TOWNNAME":"東區","LI":"成大里","LIN":"26鄰","STREET":"育樂街","SECT":" ","MAREA":" ","LANE":" ","ALLEY":" ","HOUSE_NO":"７８號七樓","E_COORD97":169548.75,"N_COORD97":2544040.27,"ADDRESS":"育樂街７８號七樓","OBJECTID":480615},"geometry":{"x":169548.75,"y":2544040.2700000014}},{"attributes":{"ID":480641,"DIS_CODE":0,"TOWNNAME":"東區","LI":"成大里","LIN":"26鄰","STREET":"育樂街","SECT":" ","MAREA":" ","LANE":" ","ALLEY":" ","HOUSE_NO":"７８號二樓","E_COORD97":169548.75,"N_COORD97":2544040.27,"ADDRESS":"育樂街７８號二樓","OBJECTID":480616},"geometry":{"x":169548.75,"y":2544040.2700000014}},{"attributes":{"ID":480642,"DIS_CODE":0,"TOWNNAME":"東區","LI":"成大里","LIN":"26鄰","STREET":"育樂街","SECT":" ","MAREA":" ","LANE":" ","ALLEY":" ","HOUSE_NO":"７８號八樓","E_COORD97":169548.75,"N_COORD97":2544040.27,"ADDRESS":"育樂街７８號八樓","OBJECTID":480617},"geometry":{"x":169548.75,"y":2544040.2700000014}},{"attributes":{"ID":480643,"DIS_CODE":0,"TOWNNAME":"東區","LI":"成大里","LIN":"26鄰","STREET":"育樂街","SECT":" ","MAREA":" ","LANE":" ","ALLEY":" ","HOUSE_NO":"７８號三樓","E_COORD97":169548.75,"N_COORD97":2544040.27,"ADDRESS":"育樂街７８號三樓","OBJECTID":480618},"geometry":{"x":169548.75,"y":2544040.2700000014}},{"attributes":{"ID":480644,"DIS_CODE":0,"TOWNNAME":"東區","LI":"成大里","LIN":"26鄰","STREET":"育樂街","SECT":" ","MAREA":" ","LANE":" ","ALLEY":" ","HOUSE_NO":"７８號五樓","E_COORD97":169548.75,"N_COORD97":2544040.27,"ADDRESS":"育樂街７８號五樓","OBJECTID":480619},"geometry":{"x":169548.75,"y":2544040.2700000014}},{"attributes":{"ID":480645,"DIS_CODE":0,"TOWNNAME":"東區","LI":"成大里","LIN":"26鄰","STREET":"育樂街","SECT":" ","MAREA":" ","LANE":" ","ALLEY":" ","HOUSE_NO":"７８號六樓","E_COORD97":169548.75,"N_COORD97":2544040.27,"ADDRESS":"育樂街７８號六樓","OBJECTID":480620},"geometry":{"x":169548.75,"y":2544040.2700000014}},{"attributes":{"ID":480646,"DIS_CODE":0,"TOWNNAME":"東區","LI":"成大里","LIN":"26鄰","STREET":"育樂街","SECT":" ","MAREA":" ","LANE":" ","ALLEY":" ","HOUSE_NO":"７８號四樓","E_COORD97":169548.75,"N_COORD97":2544040.27,"ADDRESS":"育樂街７８號四樓","OBJECTID":480621},"geometry":{"x":169548.75,"y":2544040.2700000014}},{"attributes":{"ID":480647,"DIS_CODE":0,"TOWNNAME":"東區","LI":"成大里","LIN":"26鄰","STREET":"育樂街","SECT":" ","MAREA":" ","LANE":" ","ALLEY":" ","HOUSE_NO":"８０號七樓","E_COORD97":169548.75,"N_COORD97":2544052.8599999999,"ADDRESS":"育樂街８０號七樓","OBJECTID":480622},"geometry":{"x":169548.75,"y":2544052.8600000013}},{"attributes":{"ID":480648,"DIS_CODE":0,"TOWNNAME":"東區","LI":"成大里","LIN":"26鄰","STREET":"育樂街","SECT":" ","MAREA":" ","LANE":" ","ALLEY":" ","HOUSE_NO":"８０號二樓","E_COORD97":169548.75,"N_COORD97":2544052.8599999999,"ADDRESS":"育樂街８０號二樓","OBJECTID":480623},"geometry":{"x":169548.75,"y":2544052.8600000013}},{"attributes":{"ID":480649,"DIS_CODE":0,"TOWNNAME":"東區","LI":"成大里","LIN":"26鄰","STREET":"育樂街","SECT":" ","MAREA":" ","LANE":" ","ALLEY":" ","HOUSE_NO":"８０號三樓","E_COORD97":169548.75,"N_COORD97":2544052.8599999999,"ADDRESS":"育樂街８０號三樓","OBJECTID":480624},"geometry":{"x":169548.75,"y":2544052.8600000013}},{"attributes":{"ID":480650,"DIS_CODE":0,"TOWNNAME":"東區","LI":"成大里","LIN":"26鄰","STREET":"育樂街","SECT":" ","MAREA":" ","LANE":" ","ALLEY":" ","HOUSE_NO":"８０號五樓","E_COORD97":169548.75,"N_COORD97":2544052.8599999999,"ADDRESS":"育樂街８０號五樓","OBJECTID":480625},"geometry":{"x":169548.75,"y":2544052.8600000013}},{"attributes":{"ID":480651,"DIS_CODE":0,"TOWNNAME":"東區","LI":"成大里","LIN":"26鄰","STREET":"育樂街","SECT":" ","MAREA":" ","LANE":" ","ALLEY":" ","HOUSE_NO":"８０號六樓","E_COORD97":169548.75,"N_COORD97":2544052.8599999999,"ADDRESS":"育樂街８０號六樓","OBJECTID":480626},"geometry":{"x":169548.75,"y":2544052.8600000013}},{"attributes":{"ID":480652,"DIS_CODE":0,"TOWNNAME":"東區","LI":"成大里","LIN":"26鄰","STREET":"育樂街","SECT":" ","MAREA":" ","LANE":" ","ALLEY":" ","HOUSE_NO":"８０號四樓","E_COORD97":169548.75,"N_COORD97":2544052.8599999999,"ADDRESS":"育樂街８０號四樓","OBJECTID":480627},"geometry":{"x":169548.75,"y":2544052.8600000013}},{"attributes":{"ID":480653,"DIS_CODE":0,"TOWNNAME":"東區","LI":"成大里","LIN":"26鄰","STREET":"育樂街","SECT":" ","MAREA":" ","LANE":" ","ALLEY":" ","HOUSE_NO":"８２號七樓","E_COORD97":169527.17000000001,"N_COORD97":2544053.9300000002,"ADDRESS":"育樂街８２號七樓","OBJECTID":480628},"geometry":{"x":169527.16999999993,"y":2544053.9299999997}},{"attributes":{"ID":480654,"DIS_CODE":0,"TOWNNAME":"東區","LI":"成大里","LIN":"26鄰","STREET":"育樂街","SECT":" ","MAREA":" ","LANE":" ","ALLEY":" ","HOUSE_NO":"８２號二樓","E_COORD97":169527.17000000001,"N_COORD97":2544053.9300000002,"ADDRESS":"育樂街８２號二樓","OBJECTID":480629},"geometry":{"x":169527.16999999993,"y":2544053.9299999997}},{"attributes":{"ID":480655,"DIS_CODE":0,"TOWNNAME":"南區","LI":"新興里","LIN":"20鄰","STREET":"新興路","SECT":" ","MAREA":" ","LANE":" ","ALLEY":" ","HOUSE_NO":"２７０號","E_COORD97":167141.42999999999,"N_COORD97":2541860.21,"ADDRESS":"新興路２７０號","OBJECTID":480630},"geometry":{"x":167141.4299999997,"y":2541860.2100000009}},{"attributes":{"ID":480656,"DIS_CODE":0,"TOWNNAME":"南區","LI":"新興里","LIN":"20鄰","STREET":"新興路","SECT":" ","MAREA":" ","LANE":" ","ALLEY":" ","HOUSE_NO":"２７２號","E_COORD97":167136.82000000001,"N_COORD97":2541856.8100000001,"ADDRESS":"新興路２７２號","OBJECTID":480631},"geometry":{"x":167136.82000000216,"y":2541856.8100000024}},{"attributes":{"ID":480657,"DIS_CODE":0,"TOWNNAME":"南區","LI":"新興里","LIN":"20鄰","STREET":"新興路","SECT":" ","MAREA":" ","LANE":" ","ALLEY":" ","HOUSE_NO":"２７４號","E_COORD97":167134.41,"N_COORD97":2541853,"ADDRESS":"新興路２７４號","OBJECTID":480632},"geometry":{"x":167134.41000000108,"y":2541853}},{"attributes":{"ID":480658,"DIS_CODE":0,"TOWNNAME":"東區","LI":"成大里","LIN":"26鄰","STREET":"育樂街","SECT":" ","MAREA":" ","LANE":" ","ALLEY":" ","HOUSE_NO":"８２號八樓","E_COORD97":169527.17000000001,"N_COORD97":2544053.9300000002,"ADDRESS":"育樂街８２號八樓","OBJECTID":480633},"geometry":{"x":169527.16999999993,"y":2544053.9299999997}},{"attributes":{"ID":480659,"DIS_CODE":0,"TOWNNAME":"東區","LI":"成大里","LIN":"26鄰","STREET":"育樂街","SECT":" ","MAREA":" ","LANE":" ","ALLEY":" ","HOUSE_NO":"８２號三樓","E_COORD97":169527.17000000001,"N_COORD97":2544053.9300000002,"ADDRESS":"育樂街８２號三樓","OBJECTID":480634},"geometry":{"x":169527.16999999993,"y":2544053.9299999997}},{"attributes":{"ID":480660,"DIS_CODE":0,"TOWNNAME":"東區","LI":"成大里","LIN":"26鄰","STREET":"育樂街","SECT":" ","MAREA":" ","LANE":" ","ALLEY":" ","HOUSE_NO":"８２號五樓","E_COORD97":169527.17000000001,"N_COORD97":2544053.9300000002,"ADDRESS":"育樂街８２號五樓","OBJECTID":480635},"geometry":{"x":169527.16999999993,"y":2544053.9299999997}},{"attributes":{"ID":480661,"DIS_CODE":0,"TOWNNAME":"東區","LI":"成大里","LIN":"26鄰","STREET":"育樂街","SECT":" ","MAREA":" ","LANE":" ","ALLEY":" ","HOUSE_NO":"８２號六樓","E_COORD97":169527.17000000001,"N_COORD97":2544053.9300000002,"ADDRESS":"育樂街８２號六樓","OBJECTID":480636},"geometry":{"x":169527.16999999993,"y":2544053.9299999997}},{"attributes":{"ID":480662,"DIS_CODE":0,"TOWNNAME":"東區","LI":"成大里","LIN":"26鄰","STREET":"育樂街","SECT":" ","MAREA":" ","LANE":" ","ALLEY":" ","HOUSE_NO":"８２號四樓","E_COORD97":169527.17000000001,"N_COORD97":2544053.9300000002,"ADDRESS":"育樂街８２號四樓","OBJECTID":480637},"geometry":{"x":169527.16999999993,"y":2544053.9299999997}},{"attributes":{"ID":480663,"DIS_CODE":0,"TOWNNAME":"東區","LI":"成大里","LIN":"26鄰","STREET":"育樂街","SECT":" ","MAREA":" ","LANE":" ","ALLEY":" ","HOUSE_NO":"８６號七樓","E_COORD97":169524.39000000001,"N_COORD97":2544042.6200000001,"ADDRESS":"育樂街８６號七樓","OBJECTID":480638},"geometry":{"x":169524.3900000006,"y":2544042.6200000029}},{"attributes":{"ID":480664,"DIS_CODE":0,"TOWNNAME":"東區","LI":"成大里","LIN":"26鄰","STREET":"育樂街","SECT":" ","MAREA":" ","LANE":" ","ALLEY":" ","HOUSE_NO":"８６號二樓","E_COORD97":169524.39000000001,"N_COORD97":2544042.6200000001,"ADDRESS":"育樂街８６號二樓","OBJECTID":480639},"geometry":{"x":169524.3900000006,"y":2544042.6200000029}},{"attributes":{"ID":480665,"DIS_CODE":0,"TOWNNAME":"東區","LI":"成大里","LIN":"26鄰","STREET":"育樂街","SECT":" ","MAREA":" ","LANE":" ","ALLEY":" ","HOUSE_NO":"８６號八樓","E_COORD97":169524.39000000001,"N_COORD97":2544042.6200000001,"ADDRESS":"育樂街８６號八樓","OBJECTID":480640},"geometry":{"x":169524.3900000006,"y":2544042.6200000029}},{"attributes":{"ID":480666,"DIS_CODE":0,"TOWNNAME":"東區","LI":"成大里","LIN":"26鄰","STREET":"育樂街","SECT":" ","MAREA":" ","LANE":" ","ALLEY":" ","HOUSE_NO":"８６號三樓","E_COORD97":169524.39000000001,"N_COORD97":2544042.6200000001,"ADDRESS":"育樂街８６號三樓","OBJECTID":480641},"geometry":{"x":169524.3900000006,"y":2544042.6200000029}},{"attributes":{"ID":480667,"DIS_CODE":0,"TOWNNAME":"東區","LI":"成大里","LIN":"26鄰","STREET":"育樂街","SECT":" ","MAREA":" ","LANE":" ","ALLEY":" ","HOUSE_NO":"８６號五樓","E_COORD97":169524.39000000001,"N_COORD97":2544042.6200000001,"ADDRESS":"育樂街８６號五樓","OBJECTID":480642},"geometry":{"x":169524.3900000006,"y":2544042.6200000029}},{"attributes":{"ID":480668,"DIS_CODE":0,"TOWNNAME":"東區","LI":"成大里","LIN":"26鄰","STREET":"育樂街","SECT":" ","MAREA":" ","LANE":" ","ALLEY":" ","HOUSE_NO":"８６號六樓","E_COORD97":169524.39000000001,"N_COORD97":2544042.6200000001,"ADDRESS":"育樂街８６號六樓","OBJECTID":480643},"geometry":{"x":169524.3900000006,"y":2544042.6200000029}},{"attributes":{"ID":480669,"DIS_CODE":0,"TOWNNAME":"東區","LI":"成大里","LIN":"26鄰","STREET":"育樂街","SECT":" ","MAREA":" ","LANE":" ","ALLEY":" ","HOUSE_NO":"８６號四樓","E_COORD97":169524.39000000001,"N_COORD97":2544042.6200000001,"ADDRESS":"育樂街８６號四樓","OBJECTID":480644},"geometry":{"x":169524.3900000006,"y":2544042.6200000029}},{"attributes":{"ID":480670,"DIS_CODE":0,"TOWNNAME":"東區","LI":"大福里","LIN":"26鄰","STREET":"榮譽街","SECT":" ","MAREA":" ","LANE":" ","ALLEY":" ","HOUSE_NO":"４８號之２五樓","E_COORD97":169673.47,"N_COORD97":2541566.8900000001,"ADDRESS":"榮譽街４８號之２五樓","OBJECTID":480645},"geometry":{"x":169673.47000000067,"y":2541566.8900000006}},{"attributes":{"ID":480671,"DIS_CODE":0,"TOWNNAME":"東區","LI":"大福里","LIN":"26鄰","STREET":"榮譽街","SECT":" ","MAREA":" ","LANE":" ","ALLEY":" ","HOUSE_NO":"４８號之２六樓","E_COORD97":169673.47,"N_COORD97":2541566.8900000001,"ADDRESS":"榮譽街４８號之２六樓","OBJECTID":480646},"geometry":{"x":169673.47000000067,"y":2541566.8900000006}},{"attributes":{"ID":480672,"DIS_CODE":0,"TOWNNAME":"東區","LI":"大福里","LIN":"26鄰","STREET":"榮譽街","SECT":" ","MAREA":" ","LANE":" ","ALLEY":" ","HOUSE_NO":"４８號之２四樓","E_COORD97":169673.47,"N_COORD97":2541566.8900000001,"ADDRESS":"榮譽街４８號之２四樓","OBJECTID":480647},"geometry":{"x":169673.47000000067,"y":2541566.8900000006}},{"attributes":{"ID":480673,"DIS_CODE":0,"TOWNNAME":"東區","LI":"大福里","LIN":"26鄰","STREET":"榮譽街","SECT":" ","MAREA":" ","LANE":" ","ALLEY":" ","HOUSE_NO":"４８號五樓","E_COORD97":169670.40611000001,"N_COORD97":2541577.2620899999,"ADDRESS":"榮譽街４８號五樓","OBJECTID":480648},"geometry":{"x":169670.4061100008,"y":2541577.2620910015}},{"attributes":{"ID":480674,"DIS_CODE":0,"TOWNNAME":"東區","LI":"大福里","LIN":"26鄰","STREET":"榮譽街","SECT":" ","MAREA":" ","LANE":" ","ALLEY":" ","HOUSE_NO":"４８號六樓","E_COORD97":169670.40611000001,"N_COORD97":2541577.2620899999,"ADDRESS":"榮譽街４８號六樓","OBJECTID":480649},"geometry":{"x":169670.4061100008,"y":2541577.2620910015}},{"attributes":{"ID":480675,"DIS_CODE":0,"TOWNNAME":"東區","LI":"大福里","LIN":"26鄰","STREET":"榮譽街","SECT":" ","MAREA":" ","LANE":" ","ALLEY":" ","HOUSE_NO":"４８號四樓","E_COORD97":169670.40611000001,"N_COORD97":2541577.2620899999,"ADDRESS":"榮譽街４８號四樓","OBJECTID":480650},"geometry":{"x":169670.4061100008,"y":2541577.2620910015}},{"attributes":{"ID":480676,"DIS_CODE":0,"TOWNNAME":"永康區","LI":"永康里","LIN":"26鄰","STREET":"中山北路","SECT":" ","MAREA":" ","LANE":" ","ALLEY":" ","HOUSE_NO":"１１４號十五樓之１","E_COORD97":174164.98999999999,"N_COORD97":2547447.25,"ADDRESS":"中山北路１１４號十五樓之１","OBJECTID":480651},"geometry":{"x":174164.99000000022,"y":2547447.2500000019}},{"attributes":{"ID":480677,"DIS_CODE":0,"TOWNNAME":"永康區","LI":"永康里","LIN":"26鄰","STREET":"永大路","SECT":"二段","MAREA":" ","LANE":" ","ALLEY":" ","HOUSE_NO":"１１２９號九樓之１","E_COORD97":174198.44,"N_COORD97":2547482.3599999999,"ADDRESS":"永大路二段１１２９號九樓之１","OBJECTID":480652},"geometry":{"x":174198.44000000134,"y":2547482.3599999994}},{"attributes":{"ID":480678,"DIS_CODE":0,"TOWNNAME":"永康區","LI":"安康里","LIN":"26鄰","STREET":"大橋一街","SECT":" ","MAREA":" ","LANE":" ","ALLEY":" ","HOUSE_NO":"５３號八樓之２","E_COORD97":170778.87,"N_COORD97":2546346.7999999998,"ADDRESS":"大橋一街５３號八樓之２","OBJECTID":480653},"geometry":{"x":170778.87000000011,"y":2546346.8000000026}},{"attributes":{"ID":480679,"DIS_CODE":0,"TOWNNAME":"永康區","LI":"永康里","LIN":"26鄰","STREET":"中山北路","SECT":" ","MAREA":" ","LANE":" ","ALLEY":" ","HOUSE_NO":"７２號三樓之１","E_COORD97":174076.98999999999,"N_COORD97":2547388.7599999998,"ADDRESS":"中山北路７２號三樓之１","OBJECTID":480654},"geometry":{"x":174076.99000000022,"y":2547388.7600000035}},{"attributes":{"ID":480680,"DIS_CODE":0,"TOWNNAME":"永康區","LI":"永康里","LIN":"26鄰","STREET":"永大路","SECT":"二段","MAREA":" ","LANE":" ","ALLEY":" ","HOUSE_NO":"１１２９號十一樓之６","E_COORD97":174199.79000000001,"N_COORD97":2547482.3599999999,"ADDRESS":"永大路二段１１２９號十一樓之６","OBJECTID":480655},"geometry":{"x":174199.79000000004,"y":2547482.3599999994}},{"attributes":{"ID":480681,"DIS_CODE":0,"TOWNNAME":"永康區","LI":"永康里","LIN":"26鄰","STREET":"永大路","SECT":"二段","MAREA":" ","LANE":" ","ALLEY":" ","HOUSE_NO":"１１２９號七樓之１","E_COORD97":174198.44,"N_COORD97":2547482.3599999999,"ADDRESS":"永大路二段１１２９號七樓之１","OBJECTID":480656},"geometry":{"x":174198.44000000134,"y":2547482.3599999994}},{"attributes":{"ID":480682,"DIS_CODE":0,"TOWNNAME":"永康區","LI":"永康里","LIN":"26鄰","STREET":"永大路","SECT":"二段","MAREA":" ","LANE":" ","ALLEY":" ","HOUSE_NO":"１１２９號十六樓之３","E_COORD97":174199.79000000001,"N_COORD97":2547482.3599999999,"ADDRESS":"永大路二段１１２９號十六樓之３","OBJECTID":480657},"geometry":{"x":174199.79000000004,"y":2547482.3599999994}},{"attributes":{"ID":480683,"DIS_CODE":0,"TOWNNAME":"永康區","LI":"永康里","LIN":"26鄰","STREET":"永大路","SECT":"二段","MAREA":" ","LANE":" ","ALLEY":" ","HOUSE_NO":"１１２９號十樓之７","E_COORD97":174198.51999999999,"N_COORD97":2547482.3599999999,"ADDRESS":"永大路二段１１２９號十樓之７","OBJECTID":480658},"geometry":{"x":174198.52000000142,"y":2547482.3599999994}},{"attributes":{"ID":480684,"DIS_CODE":0,"TOWNNAME":"學甲區","LI":"慈福里","LIN":"26鄰","STREET":"中山路","SECT":" ","MAREA":" ","LANE":" ","ALLEY":" ","HOUSE_NO":"８７號三樓","E_COORD97":166250.22,"N_COORD97":2570455.1600000001,"ADDRESS":"中山路８７號三樓","OBJECTID":480659},"geometry":{"x":166250.2200000016,"y":2570455.160000002}},{"attributes":{"ID":480685,"DIS_CODE":0,"TOWNNAME":"永康區","LI":"永康里","LIN":"26鄰","STREET":"中山北路","SECT":" ","MAREA":" ","LANE":" ","ALLEY":" ","HOUSE_NO":"１１４號十二樓之３","E_COORD97":174165.09,"N_COORD97":2547447.25,"ADDRESS":"中山北路１１４號十二樓之３","OBJECTID":480660},"geometry":{"x":174165.09000000078,"y":2547447.2500000019}},{"attributes":{"ID":480686,"DIS_CODE":0,"TOWNNAME":"永康區","LI":"永康里","LIN":"26鄰","STREET":"永大路","SECT":"二段","MAREA":" ","LANE":" ","ALLEY":" ","HOUSE_NO":"１１２９號十二樓之７","E_COORD97":174199.76999999999,"N_COORD97":2547482.3599999999,"ADDRESS":"永大路二段１１２９號十二樓之７","OBJECTID":480661},"geometry":{"x":174199.76999999955,"y":2547482.3599999994}},{"attributes":{"ID":480687,"DIS_CODE":0,"TOWNNAME":"永康區","LI":"永康里","LIN":"26鄰","STREET":"永大路","SECT":"二段","MAREA":" ","LANE":" ","ALLEY":" ","HOUSE_NO":"１１２９號十二樓之６","E_COORD97":174199.79000000001,"N_COORD97":2547482.3599999999,"ADDRESS":"永大路二段１１２９號十二樓之６","OBJECTID":480662},"geometry":{"x":174199.79000000004,"y":2547482.3599999994}},{"attributes":{"ID":480688,"DIS_CODE":0,"TOWNNAME":"永康區","LI":"永康里","LIN":"26鄰","STREET":"中山北路","SECT":" ","MAREA":" ","LANE":" ","ALLEY":" ","HOUSE_NO":"１１４號十六樓之１","E_COORD97":174164.98999999999,"N_COORD97":2547447.25,"ADDRESS":"中山北路１１４號十六樓之１","OBJECTID":480663},"geometry":{"x":174164.99000000022,"y":2547447.2500000019}},{"attributes":{"ID":480689,"DIS_CODE":0,"TOWNNAME":"永康區","LI":"永康里","LIN":"26鄰","STREET":"永大路","SECT":"二段","MAREA":" ","LANE":" ","ALLEY":" ","HOUSE_NO":"１１２９號十三樓之２","E_COORD97":174199.82000000001,"N_COORD97":2547482.3599999999,"ADDRESS":"永大路二段１１２９號十三樓之２","OBJECTID":480664},"geometry":{"x":174199.8200000003,"y":2547482.3599999994}},{"attributes":{"ID":480690,"DIS_CODE":0,"TOWNNAME":"永康區","LI":"永康里","LIN":"26鄰","STREET":"中山北路","SECT":" ","MAREA":" ","LANE":" ","ALLEY":" ","HOUSE_NO":"１１４號十二樓之１","E_COORD97":174164.98999999999,"N_COORD97":2547447.25,"ADDRESS":"中山北路１１４號十二樓之１","OBJECTID":480665},"geometry":{"x":174164.99000000022,"y":2547447.2500000019}},{"attributes":{"ID":480691,"DIS_CODE":0,"TOWNNAME":"永康區","LI":"永康里","LIN":"26鄰","STREET":"永大路","SECT":"二段","MAREA":" ","LANE":" ","ALLEY":" ","HOUSE_NO":"１１２９號十一樓之５","E_COORD97":174199.84,"N_COORD97":2547482.3599999999,"ADDRESS":"永大路二段１１２９號十一樓之５","OBJECTID":480666},"geometry":{"x":174199.83999999892,"y":2547482.3599999994}},{"attributes":{"ID":480692,"DIS_CODE":0,"TOWNNAME":"永康區","LI":"永康里","LIN":"26鄰","STREET":"中山北路","SECT":" ","MAREA":" ","LANE":" ","ALLEY":" ","HOUSE_NO":"７２號六樓之２","E_COORD97":174077.12,"N_COORD97":2547388.7599999998,"ADDRESS":"中山北路７２號六樓之２","OBJECTID":480667},"geometry":{"x":174077.12000000011,"y":2547388.7600000035}},{"attributes":{"ID":480693,"DIS_CODE":0,"TOWNNAME":"永康區","LI":"永康里","LIN":"26鄰","STREET":"永大路","SECT":"二段","MAREA":" ","LANE":" ","ALLEY":" ","HOUSE_NO":"１１２９號八樓之６","E_COORD97":174198.54000000001,"N_COORD97":2547482.3599999999,"ADDRESS":"永大路二段１１２９號八樓之６","OBJECTID":480668},"geometry":{"x":174198.54000000004,"y":2547482.3599999994}},{"attributes":{"ID":480694,"DIS_CODE":0,"TOWNNAME":"永康區","LI":"永康里","LIN":"26鄰","STREET":"中山北路","SECT":" ","MAREA":" ","LANE":" ","ALLEY":" ","HOUSE_NO":"７２號四樓之２","E_COORD97":174077.12,"N_COORD97":2547388.7599999998,"ADDRESS":"中山北路７２號四樓之２","OBJECTID":480669},"geometry":{"x":174077.12000000011,"y":2547388.7600000035}},{"attributes":{"ID":480695,"DIS_CODE":0,"TOWNNAME":"永康區","LI":"永康里","LIN":"26鄰","STREET":"永大路","SECT":"二段","MAREA":" ","LANE":" ","ALLEY":" ","HOUSE_NO":"１１２９號十五樓之１","E_COORD97":174199.69,"N_COORD97":2547482.3599999999,"ADDRESS":"永大路二段１１２９號十五樓之１","OBJECTID":480670},"geometry":{"x":174199.69000000041,"y":2547482.3599999994}},{"attributes":{"ID":480696,"DIS_CODE":0,"TOWNNAME":"永康區","LI":"永康里","LIN":"26鄰","STREET":"中山北路","SECT":" ","MAREA":" ","LANE":" ","ALLEY":" ","HOUSE_NO":"１１４號十三樓之２","E_COORD97":174165.12,"N_COORD97":2547447.25,"ADDRESS":"中山北路１１４號十三樓之２","OBJECTID":480671},"geometry":{"x":174165.12000000104,"y":2547447.2500000019}},{"attributes":{"ID":480697,"DIS_CODE":0,"TOWNNAME":"永康區","LI":"永康里","LIN":"26鄰","STREET":"永大路","SECT":"二段","MAREA":" ","LANE":" ","ALLEY":" ","HOUSE_NO":"１１２９號十樓之６","E_COORD97":174198.54000000001,"N_COORD97":2547482.3599999999,"ADDRESS":"永大路二段１１２９號十樓之６","OBJECTID":480672},"geometry":{"x":174198.54000000004,"y":2547482.3599999994}},{"attributes":{"ID":480698,"DIS_CODE":0,"TOWNNAME":"永康區","LI":"永康里","LIN":"26鄰","STREET":"永大路","SECT":"二段","MAREA":" ","LANE":" ","ALLEY":" ","HOUSE_NO":"１１２９號十六樓之６","E_COORD97":174199.79000000001,"N_COORD97":2547482.3599999999,"ADDRESS":"永大路二段１１２９號十六樓之６","OBJECTID":480673},"geometry":{"x":174199.79000000004,"y":2547482.3599999994}},{"attributes":{"ID":480699,"DIS_CODE":0,"TOWNNAME":"永康區","LI":"永康里","LIN":"26鄰","STREET":"中山北路","SECT":" ","MAREA":" ","LANE":" ","ALLEY":" ","HOUSE_NO":"１１４號十三樓之３","E_COORD97":174165.09,"N_COORD97":2547447.25,"ADDRESS":"中山北路１１４號十三樓之３","OBJECTID":480674},"geometry":{"x":174165.09000000078,"y":2547447.2500000019}},{"attributes":{"ID":480700,"DIS_CODE":0,"TOWNNAME":"永康區","LI":"永康里","LIN":"26鄰","STREET":"永大路","SECT":"二段","MAREA":" ","LANE":" ","ALLEY":" ","HOUSE_NO":"１１２９號十二樓之５","E_COORD97":174199.84,"N_COORD97":2547482.3599999999,"ADDRESS":"永大路二段１１２９號十二樓之５","OBJECTID":480675},"geometry":{"x":174199.83999999892,"y":2547482.3599999994}},{"attributes":{"ID":480701,"DIS_CODE":0,"TOWNNAME":"東區","LI":"虎尾里","LIN":"26鄰","STREET":"東門路","SECT":"三段","MAREA":" ","LANE":" ","ALLEY":" ","HOUSE_NO":"２９７號七樓之２","E_COORD97":171836.25,"N_COORD97":2541828.2999999998,"ADDRESS":"東門路三段２９７號七樓之２","OBJECTID":480676},"geometry":{"x":171836.25000000093,"y":2541828.3000000007}},{"attributes":{"ID":480702,"DIS_CODE":0,"TOWNNAME":"東區","LI":"虎尾里","LIN":"26鄰","STREET":"東門路","SECT":"三段","MAREA":" ","LANE":" ","ALLEY":" ","HOUSE_NO":"２９７號九樓","E_COORD97":171836.25,"N_COORD97":2541828.2999999998,"ADDRESS":"東門路三段２９７號九樓","OBJECTID":480677},"geometry":{"x":171836.25000000093,"y":2541828.3000000007}},{"attributes":{"ID":480703,"DIS_CODE":0,"TOWNNAME":"東區","LI":"虎尾里","LIN":"26鄰","STREET":"東門路","SECT":"三段","MAREA":" ","LANE":" ","ALLEY":" ","HOUSE_NO":"２９７號九樓之１","E_COORD97":171836.25,"N_COORD97":2541828.2999999998,"ADDRESS":"東門路三段２９７號九樓之１","OBJECTID":480678},"geometry":{"x":171836.25000000093,"y":2541828.3000000007}},{"attributes":{"ID":480704,"DIS_CODE":0,"TOWNNAME":"東區","LI":"虎尾里","LIN":"26鄰","STREET":"東門路","SECT":"三段","MAREA":" ","LANE":" ","ALLEY":" ","HOUSE_NO":"２９７號九樓之２","E_COORD97":171836.25,"N_COORD97":2541828.2999999998,"ADDRESS":"東門路三段２９７號九樓之２","OBJECTID":480679},"geometry":{"x":171836.25000000093,"y":2541828.3000000007}},{"attributes":{"ID":480705,"DIS_CODE":0,"TOWNNAME":"東區","LI":"虎尾里","LIN":"26鄰","STREET":"東門路","SECT":"三段","MAREA":" ","LANE":" ","ALLEY":" ","HOUSE_NO":"２９７號八樓","E_COORD97":171836.25,"N_COORD97":2541828.2999999998,"ADDRESS":"東門路三段２９７號八樓","OBJECTID":480680},"geometry":{"x":171836.25000000093,"y":2541828.3000000007}},{"attributes":{"ID":480706,"DIS_CODE":0,"TOWNNAME":"東區","LI":"虎尾里","LIN":"26鄰","STREET":"東門路","SECT":"三段","MAREA":" ","LANE":" ","ALLEY":" ","HOUSE_NO":"２９７號八樓之１","E_COORD97":171836.25,"N_COORD97":2541828.2999999998,"ADDRESS":"東門路三段２９７號八樓之１","OBJECTID":480681},"geometry":{"x":171836.25000000093,"y":2541828.3000000007}},{"attributes":{"ID":480707,"DIS_CODE":0,"TOWNNAME":"東區","LI":"虎尾里","LIN":"26鄰","STREET":"東門路","SECT":"三段","MAREA":" ","LANE":" ","ALLEY":" ","HOUSE_NO":"２９７號八樓之２","E_COORD97":171836.25,"N_COORD97":2541828.2999999998,"ADDRESS":"東門路三段２９７號八樓之２","OBJECTID":480682},"geometry":{"x":171836.25000000093,"y":2541828.3000000007}},{"attributes":{"ID":480708,"DIS_CODE":0,"TOWNNAME":"東區","LI":"虎尾里","LIN":"26鄰","STREET":"東門路","SECT":"三段","MAREA":" ","LANE":" ","ALLEY":" ","HOUSE_NO":"２９７號十一樓","E_COORD97":171836.25,"N_COORD97":2541828.2999999998,"ADDRESS":"東門路三段２９７號十一樓","OBJECTID":480683},"geometry":{"x":171836.25000000093,"y":2541828.3000000007}},{"attributes":{"ID":480709,"DIS_CODE":0,"TOWNNAME":"東區","LI":"虎尾里","LIN":"26鄰","STREET":"東門路","SECT":"三段","MAREA":" ","LANE":" ","ALLEY":" ","HOUSE_NO":"２９７號十一樓之１","E_COORD97":171836.25,"N_COORD97":2541828.2999999998,"ADDRESS":"東門路三段２９７號十一樓之１","OBJECTID":480684},"geometry":{"x":171836.25000000093,"y":2541828.3000000007}},{"attributes":{"ID":480710,"DIS_CODE":0,"TOWNNAME":"東區","LI":"虎尾里","LIN":"26鄰","STREET":"東門路","SECT":"三段","MAREA":" ","LANE":" ","ALLEY":" ","HOUSE_NO":"２９７號十一樓之２","E_COORD97":171836.25,"N_COORD97":2541828.2999999998,"ADDRESS":"東門路三段２９７號十一樓之２","OBJECTID":480685},"geometry":{"x":171836.25000000093,"y":2541828.3000000007}},{"attributes":{"ID":480711,"DIS_CODE":0,"TOWNNAME":"東區","LI":"虎尾里","LIN":"26鄰","STREET":"東門路","SECT":"三段","MAREA":" ","LANE":" ","ALLEY":" ","HOUSE_NO":"２９７號十二樓","E_COORD97":171836.25,"N_COORD97":2541828.2999999998,"ADDRESS":"東門路三段２９７號十二樓","OBJECTID":480686},"geometry":{"x":171836.25000000093,"y":2541828.3000000007}},{"attributes":{"ID":480712,"DIS_CODE":0,"TOWNNAME":"東區","LI":"虎尾里","LIN":"26鄰","STREET":"東門路","SECT":"三段","MAREA":" ","LANE":" ","ALLEY":" ","HOUSE_NO":"２９７號十二樓之１","E_COORD97":171836.25,"N_COORD97":2541828.2999999998,"ADDRESS":"東門路三段２９７號十二樓之１","OBJECTID":480687},"geometry":{"x":171836.25000000093,"y":2541828.3000000007}},{"attributes":{"ID":480713,"DIS_CODE":0,"TOWNNAME":"東區","LI":"虎尾里","LIN":"26鄰","STREET":"東門路","SECT":"三段","MAREA":" ","LANE":" ","ALLEY":" ","HOUSE_NO":"２９７號十二樓之２","E_COORD97":171836.25,"N_COORD97":2541828.2999999998,"ADDRESS":"東門路三段２９７號十二樓之２","OBJECTID":480688},"geometry":{"x":171836.25000000093,"y":2541828.3000000007}},{"attributes":{"ID":480714,"DIS_CODE":0,"TOWNNAME":"東區","LI":"虎尾里","LIN":"26鄰","STREET":"東門路","SECT":"三段","MAREA":" ","LANE":" ","ALLEY":" ","HOUSE_NO":"２９７號十三樓","E_COORD97":171836.25,"N_COORD97":2541828.2999999998,"ADDRESS":"東門路三段２９７號十三樓","OBJECTID":480689},"geometry":{"x":171836.25000000093,"y":2541828.3000000007}},{"attributes":{"ID":480715,"DIS_CODE":0,"TOWNNAME":"東區","LI":"虎尾里","LIN":"26鄰","STREET":"東門路","SECT":"三段","MAREA":" ","LANE":" ","ALLEY":" ","HOUSE_NO":"２９７號十三樓之１","E_COORD97":171836.25,"N_COORD97":2541828.2999999998,"ADDRESS":"東門路三段２９７號十三樓之１","OBJECTID":480690},"geometry":{"x":171836.25000000093,"y":2541828.3000000007}},{"attributes":{"ID":480716,"DIS_CODE":0,"TOWNNAME":"東區","LI":"虎尾里","LIN":"26鄰","STREET":"東門路","SECT":"三段","MAREA":" ","LANE":" ","ALLEY":" ","HOUSE_NO":"２９７號十三樓之２","E_COORD97":171836.25,"N_COORD97":2541828.2999999998,"ADDRESS":"東門路三段２９７號十三樓之２","OBJECTID":480691},"geometry":{"x":171836.25000000093,"y":2541828.3000000007}},{"attributes":{"ID":480717,"DIS_CODE":0,"TOWNNAME":"東區","LI":"虎尾里","LIN":"26鄰","STREET":"東門路","SECT":"三段","MAREA":" ","LANE":" ","ALLEY":" ","HOUSE_NO":"２９７號十五樓","E_COORD97":171836.25,"N_COORD97":2541828.2999999998,"ADDRESS":"東門路三段２９７號十五樓","OBJECTID":480692},"geometry":{"x":171836.25000000093,"y":2541828.3000000007}},{"attributes":{"ID":480718,"DIS_CODE":0,"TOWNNAME":"東區","LI":"虎尾里","LIN":"26鄰","STREET":"東門路","SECT":"三段","MAREA":" ","LANE":" ","ALLEY":" ","HOUSE_NO":"２９７號十五樓之１","E_COORD97":171836.25,"N_COORD97":2541828.2999999998,"ADDRESS":"東門路三段２９７號十五樓之１","OBJECTID":480693},"geometry":{"x":171836.25000000093,"y":2541828.3000000007}},{"attributes":{"ID":480719,"DIS_CODE":0,"TOWNNAME":"東區","LI":"虎尾里","LIN":"26鄰","STREET":"東門路","SECT":"三段","MAREA":" ","LANE":" ","ALLEY":" ","HOUSE_NO":"２９７號十五樓之２","E_COORD97":171836.25,"N_COORD97":2541828.2999999998,"ADDRESS":"東門路三段２９７號十五樓之２","OBJECTID":480694},"geometry":{"x":171836.25000000093,"y":2541828.3000000007}},{"attributes":{"ID":480720,"DIS_CODE":0,"TOWNNAME":"東區","LI":"虎尾里","LIN":"26鄰","STREET":"東門路","SECT":"三段","MAREA":" ","LANE":" ","ALLEY":" ","HOUSE_NO":"２９７號十四樓","E_COORD97":171836.25,"N_COORD97":2541828.2999999998,"ADDRESS":"東門路三段２９７號十四樓","OBJECTID":480695},"geometry":{"x":171836.25000000093,"y":2541828.3000000007}},{"attributes":{"ID":480721,"DIS_CODE":0,"TOWNNAME":"東區","LI":"虎尾里","LIN":"26鄰","STREET":"東門路","SECT":"三段","MAREA":" ","LANE":" ","ALLEY":" ","HOUSE_NO":"２９７號十四樓之１","E_COORD97":171836.25,"N_COORD97":2541828.2999999998,"ADDRESS":"東門路三段２９７號十四樓之１","OBJECTID":480696},"geometry":{"x":171836.25000000093,"y":2541828.3000000007}},{"attributes":{"ID":480722,"DIS_CODE":0,"TOWNNAME":"東區","LI":"虎尾里","LIN":"26鄰","STREET":"東門路","SECT":"三段","MAREA":" ","LANE":" ","ALLEY":" ","HOUSE_NO":"２９７號十四樓之２","E_COORD97":171836.25,"N_COORD97":2541828.2999999998,"ADDRESS":"東門路三段２９７號十四樓之２","OBJECTID":480697},"geometry":{"x":171836.25000000093,"y":2541828.3000000007}},{"attributes":{"ID":480723,"DIS_CODE":0,"TOWNNAME":"東區","LI":"虎尾里","LIN":"26鄰","STREET":"東門路","SECT":"三段","MAREA":" ","LANE":" ","ALLEY":" ","HOUSE_NO":"２９７號十樓","E_COORD97":171836.25,"N_COORD97":2541828.2999999998,"ADDRESS":"東門路三段２９７號十樓","OBJECTID":480698},"geometry":{"x":171836.25000000093,"y":2541828.3000000007}},{"attributes":{"ID":480724,"DIS_CODE":0,"TOWNNAME":"東區","LI":"虎尾里","LIN":"26鄰","STREET":"東門路","SECT":"三段","MAREA":" ","LANE":" ","ALLEY":" ","HOUSE_NO":"２９７號十樓之１","E_COORD97":171836.25,"N_COORD97":2541828.2999999998,"ADDRESS":"東門路三段２９７號十樓之１","OBJECTID":480699},"geometry":{"x":171836.25000000093,"y":2541828.3000000007}},{"attributes":{"ID":480725,"DIS_CODE":0,"TOWNNAME":"東區","LI":"虎尾里","LIN":"26鄰","STREET":"東門路","SECT":"三段","MAREA":" ","LANE":" ","ALLEY":" ","HOUSE_NO":"２９７號十樓之２","E_COORD97":171836.25,"N_COORD97":2541828.2999999998,"ADDRESS":"東門路三段２９７號十樓之２","OBJECTID":480700},"geometry":{"x":171836.25000000093,"y":2541828.3000000007}},{"attributes":{"ID":480726,"DIS_CODE":0,"TOWNNAME":"東區","LI":"虎尾里","LIN":"26鄰","STREET":"東門路","SECT":"三段","MAREA":" ","LANE":" ","ALLEY":" ","HOUSE_NO":"２９７號三樓","E_COORD97":171836.25,"N_COORD97":2541828.2999999998,"ADDRESS":"東門路三段２９７號三樓","OBJECTID":480701},"geometry":{"x":171836.25000000093,"y":2541828.3000000007}},{"attributes":{"ID":480727,"DIS_CODE":0,"TOWNNAME":"東區","LI":"虎尾里","LIN":"26鄰","STREET":"東門路","SECT":"三段","MAREA":" ","LANE":" ","ALLEY":" ","HOUSE_NO":"２９７號三樓之１","E_COORD97":171836.25,"N_COORD97":2541828.2999999998,"ADDRESS":"東門路三段２９７號三樓之１","OBJECTID":480702},"geometry":{"x":171836.25000000093,"y":2541828.3000000007}},{"attributes":{"ID":480728,"DIS_CODE":0,"TOWNNAME":"東區","LI":"虎尾里","LIN":"26鄰","STREET":"東門路","SECT":"三段","MAREA":" ","LANE":" ","ALLEY":" ","HOUSE_NO":"２９７號三樓之２","E_COORD97":171836.25,"N_COORD97":2541828.2999999998,"ADDRESS":"東門路三段２９７號三樓之２","OBJECTID":480703},"geometry":{"x":171836.25000000093,"y":2541828.3000000007}},{"attributes":{"ID":480729,"DIS_CODE":0,"TOWNNAME":"永康區","LI":"永康里","LIN":"26鄰","STREET":"永大路","SECT":"二段","MAREA":" ","LANE":" ","ALLEY":" ","HOUSE_NO":"１１２９號十五樓之７","E_COORD97":174199.76999999999,"N_COORD97":2547482.3599999999,"ADDRESS":"永大路二段１１２９號十五樓之７","OBJECTID":480704},"geometry":{"x":174199.76999999955,"y":2547482.3599999994}},{"attributes":{"ID":480730,"DIS_CODE":0,"TOWNNAME":"永康區","LI":"永康里","LIN":"26鄰","STREET":"中山北路","SECT":" ","MAREA":" ","LANE":" ","ALLEY":" ","HOUSE_NO":"１１４號十八樓之１","E_COORD97":174164.98999999999,"N_COORD97":2547447.25,"ADDRESS":"中山北路１１４號十八樓之１","OBJECTID":480705},"geometry":{"x":174164.99000000022,"y":2547447.2500000019}},{"attributes":{"ID":480731,"DIS_CODE":0,"TOWNNAME":"永康區","LI":"永康里","LIN":"26鄰","STREET":"中山北路","SECT":" ","MAREA":" ","LANE":" ","ALLEY":" ","HOUSE_NO":"７０號五樓之２","E_COORD97":174075.48000000001,"N_COORD97":2547398.25,"ADDRESS":"中山北路７０號五樓之２","OBJECTID":480706},"geometry":{"x":174075.48000000045,"y":2547398.25}},{"attributes":{"ID":480732,"DIS_CODE":0,"TOWNNAME":"永康區","LI":"永康里","LIN":"26鄰","STREET":"永大路","SECT":"二段","MAREA":" ","LANE":" ","ALLEY":" ","HOUSE_NO":"１１２９號十八樓之７","E_COORD97":174199.76999999999,"N_COORD97":2547482.3599999999,"ADDRESS":"永大路二段１１２９號十八樓之７","OBJECTID":480707},"geometry":{"x":174199.76999999955,"y":2547482.3599999994}},{"attributes":{"ID":480733,"DIS_CODE":0,"TOWNNAME":"永康區","LI":"安康里","LIN":"26鄰","STREET":"大橋一街","SECT":" ","MAREA":" ","LANE":" ","ALLEY":" ","HOUSE_NO":"５３號十四樓之２","E_COORD97":170780.12,"N_COORD97":2546346.7999999998,"ADDRESS":"大橋一街５３號十四樓之２","OBJECTID":480708},"geometry":{"x":170780.12000000011,"y":2546346.8000000026}},{"attributes":{"ID":480734,"DIS_CODE":0,"TOWNNAME":"永康區","LI":"安康里","LIN":"26鄰","STREET":"大橋一街","SECT":" ","MAREA":" ","LANE":" ","ALLEY":" ","HOUSE_NO":"５３號四樓之２","E_COORD97":170778.87,"N_COORD97":2546346.7999999998,"ADDRESS":"大橋一街５３號四樓之２","OBJECTID":480709},"geometry":{"x":170778.87000000011,"y":2546346.8000000026}},{"attributes":{"ID":480735,"DIS_CODE":0,"TOWNNAME":"永康區","LI":"安康里","LIN":"26鄰","STREET":"大橋一街","SECT":" ","MAREA":" ","LANE":" ","ALLEY":" ","HOUSE_NO":"５３號三樓之２","E_COORD97":170778.87,"N_COORD97":2546346.7999999998,"ADDRESS":"大橋一街５３號三樓之２","OBJECTID":480710},"geometry":{"x":170778.87000000011,"y":2546346.8000000026}},{"attributes":{"ID":480736,"DIS_CODE":0,"TOWNNAME":"永康區","LI":"永康里","LIN":"26鄰","STREET":"中山北路","SECT":" ","MAREA":" ","LANE":" ","ALLEY":" ","HOUSE_NO":"７０號三樓之３","E_COORD97":174075.45000000001,"N_COORD97":2547398.25,"ADDRESS":"中山北路７０號三樓之３","OBJECTID":480711},"geometry":{"x":174075.45000000019,"y":2547398.25}},{"attributes":{"ID":480737,"DIS_CODE":0,"TOWNNAME":"永康區","LI":"永康里","LIN":"26鄰","STREET":"永大路","SECT":"二段","MAREA":" ","LANE":" ","ALLEY":" ","HOUSE_NO":"１１２９號十六樓之５","E_COORD97":174199.84,"N_COORD97":2547482.3599999999,"ADDRESS":"永大路二段１１２９號十六樓之５","OBJECTID":480712},"geometry":{"x":174199.83999999892,"y":2547482.3599999994}},{"attributes":{"ID":480738,"DIS_CODE":0,"TOWNNAME":"南區","LI":"新興里","LIN":"22鄰","STREET":"金華路","SECT":"二段","MAREA":" ","LANE":" ","ALLEY":" ","HOUSE_NO":"２號","E_COORD97":167068.04999999999,"N_COORD97":2541805.75,"ADDRESS":"金華路二段２號","OBJECTID":480713},"geometry":{"x":167068.04999999981,"y":2541805.7500000019}},{"attributes":{"ID":480739,"DIS_CODE":0,"TOWNNAME":"永康區","LI":"永康里","LIN":"26鄰","STREET":"中山北路","SECT":" ","MAREA":" ","LANE":" ","ALLEY":" ","HOUSE_NO":"１１４號十九樓之２","E_COORD97":174165.12,"N_COORD97":2547447.25,"ADDRESS":"中山北路１１４號十九樓之２","OBJECTID":480714},"geometry":{"x":174165.12000000104,"y":2547447.2500000019}},{"attributes":{"ID":480740,"DIS_CODE":0,"TOWNNAME":"永康區","LI":"永康里","LIN":"26鄰","STREET":"中山北路","SECT":" ","MAREA":" ","LANE":" ","ALLEY":" ","HOUSE_NO":"１１４號六樓之３","E_COORD97":174163.84,"N_COORD97":2547447.25,"ADDRESS":"中山北路１１４號六樓之３","OBJECTID":480715},"geometry":{"x":174163.83999999985,"y":2547447.2500000019}},{"attributes":{"ID":480741,"DIS_CODE":0,"TOWNNAME":"永康區","LI":"永康里","LIN":"26鄰","STREET":"永大路","SECT":"二段","MAREA":" ","LANE":" ","ALLEY":" ","HOUSE_NO":"１１２９號六樓之６","E_COORD97":174198.54000000001,"N_COORD97":2547482.3599999999,"ADDRESS":"永大路二段１１２９號六樓之６","OBJECTID":480716},"geometry":{"x":174198.54000000004,"y":2547482.3599999994}},{"attributes":{"ID":480742,"DIS_CODE":0,"TOWNNAME":"永康區","LI":"永康里","LIN":"26鄰","STREET":"中山北路","SECT":" ","MAREA":" ","LANE":" ","ALLEY":" ","HOUSE_NO":"１１４號十四樓之５","E_COORD97":174165.14000000001,"N_COORD97":2547447.25,"ADDRESS":"中山北路１１４號十四樓之５","OBJECTID":480717},"geometry":{"x":174165.13999999966,"y":2547447.2500000019}},{"attributes":{"ID":480743,"DIS_CODE":0,"TOWNNAME":"永康區","LI":"永康里","LIN":"26鄰","STREET":"中山北路","SECT":" ","MAREA":" ","LANE":" ","ALLEY":" ","HOUSE_NO":"１１４號九樓之１","E_COORD97":174163.73999999999,"N_COORD97":2547447.25,"ADDRESS":"中山北路１１４號九樓之１","OBJECTID":480718},"geometry":{"x":174163.74000000209,"y":2547447.2500000019}},{"attributes":{"ID":480744,"DIS_CODE":0,"TOWNNAME":"永康區","LI":"永康里","LIN":"26鄰","STREET":"中山北路","SECT":" ","MAREA":" ","LANE":" ","ALLEY":" ","HOUSE_NO":"１１４號十三樓之１","E_COORD97":174164.98999999999,"N_COORD97":2547447.25,"ADDRESS":"中山北路１１４號十三樓之１","OBJECTID":480719},"geometry":{"x":174164.99000000022,"y":2547447.2500000019}},{"attributes":{"ID":480745,"DIS_CODE":0,"TOWNNAME":"永康區","LI":"永康里","LIN":"26鄰","STREET":"中山北路","SECT":" ","MAREA":" ","LANE":" ","ALLEY":" ","HOUSE_NO":"１１４號十樓之１","E_COORD97":174163.73999999999,"N_COORD97":2547447.25,"ADDRESS":"中山北路１１４號十樓之１","OBJECTID":480720},"geometry":{"x":174163.74000000209,"y":2547447.2500000019}},{"attributes":{"ID":480746,"DIS_CODE":0,"TOWNNAME":"永康區","LI":"安康里","LIN":"26鄰","STREET":"大橋一街","SECT":" ","MAREA":" ","LANE":" ","ALLEY":" ","HOUSE_NO":"５３號十一樓之２","E_COORD97":170780.12,"N_COORD97":2546346.7999999998,"ADDRESS":"大橋一街５３號十一樓之２","OBJECTID":480721},"geometry":{"x":170780.12000000011,"y":2546346.8000000026}},{"attributes":{"ID":480747,"DIS_CODE":0,"TOWNNAME":"永康區","LI":"永康里","LIN":"26鄰","STREET":"永大路","SECT":"二段","MAREA":" ","LANE":" ","ALLEY":" ","HOUSE_NO":"１１２９號八樓之７","E_COORD97":174198.51999999999,"N_COORD97":2547482.3599999999,"ADDRESS":"永大路二段１１２９號八樓之７","OBJECTID":480722},"geometry":{"x":174198.52000000142,"y":2547482.3599999994}},{"attributes":{"ID":480748,"DIS_CODE":0,"TOWNNAME":"永康區","LI":"永康里","LIN":"26鄰","STREET":"永大路","SECT":"二段","MAREA":" ","LANE":" ","ALLEY":" ","HOUSE_NO":"１１２９號七樓之３","E_COORD97":174198.54000000001,"N_COORD97":2547482.3599999999,"ADDRESS":"永大路二段１１２９號七樓之３","OBJECTID":480723},"geometry":{"x":174198.54000000004,"y":2547482.3599999994}},{"attributes":{"ID":480749,"DIS_CODE":0,"TOWNNAME":"永康區","LI":"永康里","LIN":"26鄰","STREET":"中山北路","SECT":" ","MAREA":" ","LANE":" ","ALLEY":" ","HOUSE_NO":"７０號五樓之３","E_COORD97":174075.45000000001,"N_COORD97":2547398.25,"ADDRESS":"中山北路７０號五樓之３","OBJECTID":480724},"geometry":{"x":174075.45000000019,"y":2547398.25}},{"attributes":{"ID":480750,"DIS_CODE":0,"TOWNNAME":"永康區","LI":"永康里","LIN":"26鄰","STREET":"中山北路","SECT":" ","MAREA":" ","LANE":" ","ALLEY":" ","HOUSE_NO":"１１４號五樓之３","E_COORD97":174163.84,"N_COORD97":2547447.25,"ADDRESS":"中山北路１１４號五樓之３","OBJECTID":480725},"geometry":{"x":174163.83999999985,"y":2547447.2500000019}},{"attributes":{"ID":480751,"DIS_CODE":0,"TOWNNAME":"永康區","LI":"永康里","LIN":"26鄰","STREET":"永大路","SECT":"二段","MAREA":" ","LANE":" ","ALLEY":" ","HOUSE_NO":"１１２９號十一樓之２","E_COORD97":174199.82000000001,"N_COORD97":2547482.3599999999,"ADDRESS":"永大路二段１１２９號十一樓之２","OBJECTID":480726},"geometry":{"x":174199.8200000003,"y":2547482.3599999994}},{"attributes":{"ID":480752,"DIS_CODE":0,"TOWNNAME":"永康區","LI":"永康里","LIN":"26鄰","STREET":"中山北路","SECT":" ","MAREA":" ","LANE":" ","ALLEY":" ","HOUSE_NO":"１１４號十樓之３","E_COORD97":174163.84,"N_COORD97":2547447.25,"ADDRESS":"中山北路１１４號十樓之３","OBJECTID":480727},"geometry":{"x":174163.83999999985,"y":2547447.2500000019}},{"attributes":{"ID":480753,"DIS_CODE":0,"TOWNNAME":"永康區","LI":"永康里","LIN":"26鄰","STREET":"永大路","SECT":"二段","MAREA":" ","LANE":" ","ALLEY":" ","HOUSE_NO":"１１２９號十六樓之２","E_COORD97":174199.82000000001,"N_COORD97":2547482.3599999999,"ADDRESS":"永大路二段１１２９號十六樓之２","OBJECTID":480728},"geometry":{"x":174199.8200000003,"y":2547482.3599999994}},{"attributes":{"ID":480754,"DIS_CODE":0,"TOWNNAME":"永康區","LI":"永康里","LIN":"26鄰","STREET":"永大路","SECT":"二段","MAREA":" ","LANE":" ","ALLEY":" ","HOUSE_NO":"１１２９號五樓之５","E_COORD97":174198.59,"N_COORD97":2547482.3599999999,"ADDRESS":"永大路二段１１２９號五樓之５","OBJECTID":480729},"geometry":{"x":174198.59000000078,"y":2547482.3599999994}},{"attributes":{"ID":480755,"DIS_CODE":0,"TOWNNAME":"永康區","LI":"永康里","LIN":"26鄰","STREET":"永大路","SECT":"二段","MAREA":" ","LANE":" ","ALLEY":" ","HOUSE_NO":"１１２９號九樓之７","E_COORD97":174198.51999999999,"N_COORD97":2547482.3599999999,"ADDRESS":"永大路二段１１２９號九樓之７","OBJECTID":480730},"geometry":{"x":174198.52000000142,"y":2547482.3599999994}},{"attributes":{"ID":480756,"DIS_CODE":0,"TOWNNAME":"東區","LI":"崇文里","LIN":"26鄰","STREET":"崇德二十二街","SECT":" ","MAREA":" ","LANE":" ","ALLEY":" ","HOUSE_NO":"６６號二樓","E_COORD97":170997.75,"N_COORD97":2540792.2000000002,"ADDRESS":"崇德二十二街６６號二樓","OBJECTID":480731},"geometry":{"x":170997.75,"y":2540792.2000000011}},{"attributes":{"ID":480757,"DIS_CODE":0,"TOWNNAME":"東區","LI":"崇文里","LIN":"26鄰","STREET":"崇德二十二街","SECT":" ","MAREA":" ","LANE":" ","ALLEY":" ","HOUSE_NO":"６６號三樓","E_COORD97":170997.75,"N_COORD97":2540792.2000000002,"ADDRESS":"崇德二十二街６６號三樓","OBJECTID":480732},"geometry":{"x":170997.75,"y":2540792.2000000011}},{"attributes":{"ID":480758,"DIS_CODE":0,"TOWNNAME":"東區","LI":"崇文里","LIN":"26鄰","STREET":"崇德二十二街","SECT":" ","MAREA":" ","LANE":" ","ALLEY":" ","HOUSE_NO":"６６號四樓","E_COORD97":170997.75,"N_COORD97":2540792.2000000002,"ADDRESS":"崇德二十二街６６號四樓","OBJECTID":480733},"geometry":{"x":170997.75,"y":2540792.2000000011}},{"attributes":{"ID":480759,"DIS_CODE":0,"TOWNNAME":"永康區","LI":"永康里","LIN":"26鄰","STREET":"永大路","SECT":"二段","MAREA":" ","LANE":" ","ALLEY":" ","HOUSE_NO":"１１２９號十樓之１","E_COORD97":174198.44,"N_COORD97":2547482.3599999999,"ADDRESS":"永大路二段１１２９號十樓之１","OBJECTID":480734},"geometry":{"x":174198.44000000134,"y":2547482.3599999994}},{"attributes":{"ID":480760,"DIS_CODE":0,"TOWNNAME":"永康區","LI":"永康里","LIN":"26鄰","STREET":"中山北路","SECT":" ","MAREA":" ","LANE":" ","ALLEY":" ","HOUSE_NO":"７０號三樓之２","E_COORD97":174075.48000000001,"N_COORD97":2547398.25,"ADDRESS":"中山北路７０號三樓之２","OBJECTID":480735},"geometry":{"x":174075.48000000045,"y":2547398.25}},{"attributes":{"ID":480761,"DIS_CODE":0,"TOWNNAME":"永康區","LI":"永康里","LIN":"26鄰","STREET":"永大路","SECT":"二段","MAREA":" ","LANE":" ","ALLEY":" ","HOUSE_NO":"１１２９號九樓之２","E_COORD97":174198.57000000001,"N_COORD97":2547482.3599999999,"ADDRESS":"永大路二段１１２９號九樓之２","OBJECTID":480736},"geometry":{"x":174198.5700000003,"y":2547482.3599999994}},{"attributes":{"ID":480762,"DIS_CODE":0,"TOWNNAME":"永康區","LI":"永康里","LIN":"26鄰","STREET":"永大路","SECT":"二段","MAREA":" ","LANE":" ","ALLEY":" ","HOUSE_NO":"１１２９號十三樓之３","E_COORD97":174199.79000000001,"N_COORD97":2547482.3599999999,"ADDRESS":"永大路二段１１２９號十三樓之３","OBJECTID":480737},"geometry":{"x":174199.79000000004,"y":2547482.3599999994}},{"attributes":{"ID":480763,"DIS_CODE":0,"TOWNNAME":"永康區","LI":"永康里","LIN":"26鄰","STREET":"永大路","SECT":"二段","MAREA":" ","LANE":" ","ALLEY":" ","HOUSE_NO":"１１２９號十四樓之２","E_COORD97":174199.82000000001,"N_COORD97":2547482.3599999999,"ADDRESS":"永大路二段１１２９號十四樓之２","OBJECTID":480738},"geometry":{"x":174199.8200000003,"y":2547482.3599999994}},{"attributes":{"ID":480764,"DIS_CODE":0,"TOWNNAME":"永康區","LI":"永康里","LIN":"26鄰","STREET":"永大路","SECT":"二段","MAREA":" ","LANE":" ","ALLEY":" ","HOUSE_NO":"１１２９號十四樓之６","E_COORD97":174199.79000000001,"N_COORD97":2547482.3599999999,"ADDRESS":"永大路二段１１２９號十四樓之６","OBJECTID":480739},"geometry":{"x":174199.79000000004,"y":2547482.3599999994}},{"attributes":{"ID":480765,"DIS_CODE":0,"TOWNNAME":"永康區","LI":"永康里","LIN":"26鄰","STREET":"永大路","SECT":"二段","MAREA":" ","LANE":" ","ALLEY":" ","HOUSE_NO":"１１２９號十五樓之５","E_COORD97":174199.84,"N_COORD97":2547482.3599999999,"ADDRESS":"永大路二段１１２９號十五樓之５","OBJECTID":480740},"geometry":{"x":174199.83999999892,"y":2547482.3599999994}},{"attributes":{"ID":480766,"DIS_CODE":0,"TOWNNAME":"永康區","LI":"永康里","LIN":"26鄰","STREET":"永大路","SECT":"二段","MAREA":" ","LANE":" ","ALLEY":" ","HOUSE_NO":"１１２９號十樓之２","E_COORD97":174198.57000000001,"N_COORD97":2547482.3599999999,"ADDRESS":"永大路二段１１２９號十樓之２","OBJECTID":480741},"geometry":{"x":174198.5700000003,"y":2547482.3599999994}},{"attributes":{"ID":480767,"DIS_CODE":0,"TOWNNAME":"永康區","LI":"永康里","LIN":"26鄰","STREET":"永大路","SECT":"二段","MAREA":" ","LANE":" ","ALLEY":" ","HOUSE_NO":"１１２９號十四樓之５","E_COORD97":174199.84,"N_COORD97":2547482.3599999999,"ADDRESS":"永大路二段１１２９號十四樓之５","OBJECTID":480742},"geometry":{"x":174199.83999999892,"y":2547482.3599999994}},{"attributes":{"ID":480768,"DIS_CODE":0,"TOWNNAME":"永康區","LI":"網寮里","LIN":"26鄰","STREET":"永興路","SECT":" ","MAREA":" ","LANE":" ","ALLEY":" ","HOUSE_NO":"９１號四樓之２","E_COORD97":173982.64000000001,"N_COORD97":2546562.8599999999,"ADDRESS":"永興路９１號四樓之２","OBJECTID":480743},"geometry":{"x":173982.6400000006,"y":2546562.8599999994}},{"attributes":{"ID":480769,"DIS_CODE":0,"TOWNNAME":"永康區","LI":"復國里","LIN":"26鄰","STREET":"復華三街","SECT":" ","MAREA":" ","LANE":" ","ALLEY":" ","HOUSE_NO":"６４號十九樓之３","E_COORD97":172720.97,"N_COORD97":2545600.2999999998,"ADDRESS":"復華三街６４號十九樓之３","OBJECTID":480744},"geometry":{"x":172720.97000000067,"y":2545600.3000000026}},{"attributes":{"ID":480770,"DIS_CODE":0,"TOWNNAME":"永康區","LI":"網寮里","LIN":"26鄰","STREET":"永興路","SECT":" ","MAREA":" ","LANE":" ","ALLEY":" ","HOUSE_NO":"６５號九樓之２","E_COORD97":174047.19,"N_COORD97":2546517.5499999998,"ADDRESS":"永興路６５號九樓之２","OBJECTID":480745},"geometry":{"x":174047.18999999948,"y":2546517.5500000026}},{"attributes":{"ID":480771,"DIS_CODE":0,"TOWNNAME":"永康區","LI":"復國里","LIN":"26鄰","STREET":"復華三街","SECT":" ","MAREA":" ","LANE":" ","ALLEY":" ","HOUSE_NO":"６４號四樓之５","E_COORD97":172719.78,"N_COORD97":2545600.2999999998,"ADDRESS":"復華三街６４號四樓之５","OBJECTID":480746},"geometry":{"x":172719.78000000119,"y":2545600.3000000026}},{"attributes":{"ID":480772,"DIS_CODE":0,"TOWNNAME":"永康區","LI":"復國里","LIN":"26鄰","STREET":"復華三街","SECT":" ","MAREA":" ","LANE":" ","ALLEY":" ","HOUSE_NO":"６２號八樓之５","E_COORD97":172710.62,"N_COORD97":2545562.9700000002,"ADDRESS":"復華三街６２號八樓之５","OBJECTID":480747},"geometry":{"x":172710.62000000104,"y":2545562.9700000007}},{"attributes":{"ID":480773,"DIS_CODE":0,"TOWNNAME":"永康區","LI":"復國里","LIN":"26鄰","STREET":"復華三街","SECT":" ","MAREA":" ","LANE":" ","ALLEY":" ","HOUSE_NO":"６４號五樓之３","E_COORD97":172719.72,"N_COORD97":2545600.2999999998,"ADDRESS":"復華三街６４號五樓之３","OBJECTID":480748},"geometry":{"x":172719.72000000067,"y":2545600.3000000026}},{"attributes":{"ID":480774,"DIS_CODE":0,"TOWNNAME":"佳里區","LI":"六安里","LIN":"26鄰","STREET":"林園街","SECT":" ","MAREA":" ","LANE":" ","ALLEY":" ","HOUSE_NO":"２１２號之１一樓","E_COORD97":165533.29000000001,"N_COORD97":2562928.6299999999,"ADDRESS":"林園街２１２號之１一樓","OBJECTID":480749},"geometry":{"x":165533.29000000097,"y":2562928.6300000008}},{"attributes":{"ID":480775,"DIS_CODE":0,"TOWNNAME":"佳里區","LI":"六安里","LIN":"26鄰","STREET":"林園街","SECT":" ","MAREA":" ","LANE":" ","ALLEY":" ","HOUSE_NO":"２１２號之１七樓","E_COORD97":165533.29000000001,"N_COORD97":2562928.6299999999,"ADDRESS":"林園街２１２號之１七樓","OBJECTID":480750},"geometry":{"x":165533.29000000097,"y":2562928.6300000008}},{"attributes":{"ID":480776,"DIS_CODE":0,"TOWNNAME":"佳里區","LI":"六安里","LIN":"26鄰","STREET":"林園街","SECT":" ","MAREA":" ","LANE":" ","ALLEY":" ","HOUSE_NO":"２１２號之１九樓","E_COORD97":165533.29000000001,"N_COORD97":2562928.6299999999,"ADDRESS":"林園街２１２號之１九樓","OBJECTID":480751},"geometry":{"x":165533.29000000097,"y":2562928.6300000008}},{"attributes":{"ID":480777,"DIS_CODE":0,"TOWNNAME":"佳里區","LI":"六安里","LIN":"26鄰","STREET":"林園街","SECT":" ","MAREA":" ","LANE":" ","ALLEY":" ","HOUSE_NO":"２１２號之１二樓","E_COORD97":165533.29000000001,"N_COORD97":2562928.6299999999,"ADDRESS":"林園街２１２號之１二樓","OBJECTID":480752},"geometry":{"x":165533.29000000097,"y":2562928.6300000008}},{"attributes":{"ID":480778,"DIS_CODE":0,"TOWNNAME":"佳里區","LI":"六安里","LIN":"26鄰","STREET":"林園街","SECT":" ","MAREA":" ","LANE":" ","ALLEY":" ","HOUSE_NO":"２１２號之１八樓","E_COORD97":165533.29000000001,"N_COORD97":2562928.6299999999,"ADDRESS":"林園街２１２號之１八樓","OBJECTID":480753},"geometry":{"x":165533.29000000097,"y":2562928.6300000008}},{"attributes":{"ID":480779,"DIS_CODE":0,"TOWNNAME":"佳里區","LI":"六安里","LIN":"26鄰","STREET":"林園街","SECT":" ","MAREA":" ","LANE":" ","ALLEY":" ","HOUSE_NO":"２１２號之１十一樓","E_COORD97":165533.29000000001,"N_COORD97":2562928.6299999999,"ADDRESS":"林園街２１２號之１十一樓","OBJECTID":480754},"geometry":{"x":165533.29000000097,"y":2562928.6300000008}},{"attributes":{"ID":480780,"DIS_CODE":0,"TOWNNAME":"佳里區","LI":"六安里","LIN":"26鄰","STREET":"林園街","SECT":" ","MAREA":" ","LANE":" ","ALLEY":" ","HOUSE_NO":"２１２號之１十二樓","E_COORD97":165533.29000000001,"N_COORD97":2562928.6299999999,"ADDRESS":"林園街２１２號之１十二樓","OBJECTID":480755},"geometry":{"x":165533.29000000097,"y":2562928.6300000008}},{"attributes":{"ID":480781,"DIS_CODE":0,"TOWNNAME":"佳里區","LI":"六安里","LIN":"26鄰","STREET":"林園街","SECT":" ","MAREA":" ","LANE":" ","ALLEY":" ","HOUSE_NO":"２１２號之１十樓","E_COORD97":165533.29000000001,"N_COORD97":2562928.6299999999,"ADDRESS":"林園街２１２號之１十樓","OBJECTID":480756},"geometry":{"x":165533.29000000097,"y":2562928.6300000008}},{"attributes":{"ID":480782,"DIS_CODE":0,"TOWNNAME":"佳里區","LI":"六安里","LIN":"26鄰","STREET":"林園街","SECT":" ","MAREA":" ","LANE":" ","ALLEY":" ","HOUSE_NO":"２１２號之１三樓","E_COORD97":165533.29000000001,"N_COORD97":2562928.6299999999,"ADDRESS":"林園街２１２號之１三樓","OBJECTID":480757},"geometry":{"x":165533.29000000097,"y":2562928.6300000008}},{"attributes":{"ID":480783,"DIS_CODE":0,"TOWNNAME":"佳里區","LI":"六安里","LIN":"26鄰","STREET":"林園街","SECT":" ","MAREA":" ","LANE":" ","ALLEY":" ","HOUSE_NO":"２１２號之１五樓","E_COORD97":165533.29000000001,"N_COORD97":2562928.6299999999,"ADDRESS":"林園街２１２號之１五樓","OBJECTID":480758},"geometry":{"x":165533.29000000097,"y":2562928.6300000008}},{"attributes":{"ID":480784,"DIS_CODE":0,"TOWNNAME":"佳里區","LI":"六安里","LIN":"26鄰","STREET":"林園街","SECT":" ","MAREA":" ","LANE":" ","ALLEY":" ","HOUSE_NO":"２１２號之１六樓","E_COORD97":165533.29000000001,"N_COORD97":2562928.6299999999,"ADDRESS":"林園街２１２號之１六樓","OBJECTID":480759},"geometry":{"x":165533.29000000097,"y":2562928.6300000008}},{"attributes":{"ID":480785,"DIS_CODE":0,"TOWNNAME":"佳里區","LI":"六安里","LIN":"26鄰","STREET":"林園街","SECT":" ","MAREA":" ","LANE":" ","ALLEY":" ","HOUSE_NO":"２１２號之１四樓","E_COORD97":165533.29000000001,"N_COORD97":2562928.6299999999,"ADDRESS":"林園街２１２號之１四樓","OBJECTID":480760},"geometry":{"x":165533.29000000097,"y":2562928.6300000008}},{"attributes":{"ID":480786,"DIS_CODE":0,"TOWNNAME":"佳里區","LI":"六安里","LIN":"26鄰","STREET":"林園街","SECT":" ","MAREA":" ","LANE":" ","ALLEY":" ","HOUSE_NO":"２１２號之２七樓","E_COORD97":165532.07999999999,"N_COORD97":2562941.0499999998,"ADDRESS":"林園街２１２號之２七樓","OBJECTID":480761},"geometry":{"x":165532.08000000007,"y":2562941.0500000026}},{"attributes":{"ID":480787,"DIS_CODE":0,"TOWNNAME":"北區","LI":"成德里","LIN":"26鄰","STREET":"育德一街","SECT":" ","MAREA":" ","LANE":" ","ALLEY":" ","HOUSE_NO":"３號九樓","E_COORD97":168478.51000000001,"N_COORD97":2545786,"ADDRESS":"育德一街３號九樓","OBJECTID":480762},"geometry":{"x":168478.50999999978,"y":2545786}},{"attributes":{"ID":480788,"DIS_CODE":0,"TOWNNAME":"佳里區","LI":"六安里","LIN":"26鄰","STREET":"林園街","SECT":" ","MAREA":" ","LANE":" ","ALLEY":" ","HOUSE_NO":"２１２號之２九樓","E_COORD97":165532.07999999999,"N_COORD97":2562941.0499999998,"ADDRESS":"林園街２１２號之２九樓","OBJECTID":480763},"geometry":{"x":165532.08000000007,"y":2562941.0500000026}},{"attributes":{"ID":480789,"DIS_CODE":0,"TOWNNAME":"佳里區","LI":"六安里","LIN":"26鄰","STREET":"林園街","SECT":" ","MAREA":" ","LANE":" ","ALLEY":" ","HOUSE_NO":"２１２號之２二樓","E_COORD97":165532.07999999999,"N_COORD97":2562941.0499999998,"ADDRESS":"林園街２１２號之２二樓","OBJECTID":480764},"geometry":{"x":165532.08000000007,"y":2562941.0500000026}},{"attributes":{"ID":480790,"DIS_CODE":0,"TOWNNAME":"佳里區","LI":"六安里","LIN":"26鄰","STREET":"林園街","SECT":" ","MAREA":" ","LANE":" ","ALLEY":" ","HOUSE_NO":"２１２號之２八樓","E_COORD97":165532.07999999999,"N_COORD97":2562941.0499999998,"ADDRESS":"林園街２１２號之２八樓","OBJECTID":480765},"geometry":{"x":165532.08000000007,"y":2562941.0500000026}},{"attributes":{"ID":480791,"DIS_CODE":0,"TOWNNAME":"佳里區","LI":"六安里","LIN":"26鄰","STREET":"林園街","SECT":" ","MAREA":" ","LANE":" ","ALLEY":" ","HOUSE_NO":"２１２號之２十一樓","E_COORD97":165532.07999999999,"N_COORD97":2562941.0499999998,"ADDRESS":"林園街２１２號之２十一樓","OBJECTID":480766},"geometry":{"x":165532.08000000007,"y":2562941.0500000026}},{"attributes":{"ID":480792,"DIS_CODE":0,"TOWNNAME":"佳里區","LI":"六安里","LIN":"26鄰","STREET":"林園街","SECT":" ","MAREA":" ","LANE":" ","ALLEY":" ","HOUSE_NO":"２１２號之２十二樓","E_COORD97":165532.07999999999,"N_COORD97":2562941.0499999998,"ADDRESS":"林園街２１２號之２十二樓","OBJECTID":480767},"geometry":{"x":165532.08000000007,"y":2562941.0500000026}},{"attributes":{"ID":480793,"DIS_CODE":0,"TOWNNAME":"佳里區","LI":"六安里","LIN":"26鄰","STREET":"林園街","SECT":" ","MAREA":" ","LANE":" ","ALLEY":" ","HOUSE_NO":"２１２號之２十樓","E_COORD97":165532.07999999999,"N_COORD97":2562941.0499999998,"ADDRESS":"林園街２１２號之２十樓","OBJECTID":480768},"geometry":{"x":165532.08000000007,"y":2562941.0500000026}},{"attributes":{"ID":480794,"DIS_CODE":0,"TOWNNAME":"佳里區","LI":"六安里","LIN":"26鄰","STREET":"林園街","SECT":" ","MAREA":" ","LANE":" ","ALLEY":" ","HOUSE_NO":"２１２號之２三樓","E_COORD97":165532.07999999999,"N_COORD97":2562941.0499999998,"ADDRESS":"林園街２１２號之２三樓","OBJECTID":480769},"geometry":{"x":165532.08000000007,"y":2562941.0500000026}},{"attributes":{"ID":480795,"DIS_CODE":0,"TOWNNAME":"佳里區","LI":"六安里","LIN":"26鄰","STREET":"林園街","SECT":" ","MAREA":" ","LANE":" ","ALLEY":" ","HOUSE_NO":"２１２號之２五樓","E_COORD97":165532.07999999999,"N_COORD97":2562941.0499999998,"ADDRESS":"林園街２１２號之２五樓","OBJECTID":480770},"geometry":{"x":165532.08000000007,"y":2562941.0500000026}},{"attributes":{"ID":480796,"DIS_CODE":0,"TOWNNAME":"佳里區","LI":"六安里","LIN":"26鄰","STREET":"林園街","SECT":" ","MAREA":" ","LANE":" ","ALLEY":" ","HOUSE_NO":"２１２號之２六樓","E_COORD97":165532.07999999999,"N_COORD97":2562941.0499999998,"ADDRESS":"林園街２１２號之２六樓","OBJECTID":480771},"geometry":{"x":165532.08000000007,"y":2562941.0500000026}},{"attributes":{"ID":480797,"DIS_CODE":0,"TOWNNAME":"佳里區","LI":"六安里","LIN":"26鄰","STREET":"林園街","SECT":" ","MAREA":" ","LANE":" ","ALLEY":" ","HOUSE_NO":"２１２號之２四樓","E_COORD97":165532.07999999999,"N_COORD97":2562941.0499999998,"ADDRESS":"林園街２１２號之２四樓","OBJECTID":480772},"geometry":{"x":165532.08000000007,"y":2562941.0500000026}},{"attributes":{"ID":480798,"DIS_CODE":0,"TOWNNAME":"佳里區","LI":"六安里","LIN":"26鄰","STREET":"林園街","SECT":" ","MAREA":" ","LANE":" ","ALLEY":" ","HOUSE_NO":"２１２號之３七樓","E_COORD97":165536.66,"N_COORD97":2562962.3799999999,"ADDRESS":"林園街２１２號之３七樓","OBJECTID":480773},"geometry":{"x":165536.66000000015,"y":2562962.3799999971}},{"attributes":{"ID":480799,"DIS_CODE":0,"TOWNNAME":"佳里區","LI":"六安里","LIN":"26鄰","STREET":"林園街","SECT":" ","MAREA":" ","LANE":" ","ALLEY":" ","HOUSE_NO":"２１２號之３九樓","E_COORD97":165536.66,"N_COORD97":2562962.3799999999,"ADDRESS":"林園街２１２號之３九樓","OBJECTID":480774},"geometry":{"x":165536.66000000015,"y":2562962.3799999971}},{"attributes":{"ID":480800,"DIS_CODE":0,"TOWNNAME":"佳里區","LI":"六安里","LIN":"26鄰","STREET":"林園街","SECT":" ","MAREA":" ","LANE":" ","ALLEY":" ","HOUSE_NO":"２１２號之３二樓","E_COORD97":165536.66,"N_COORD97":2562962.3799999999,"ADDRESS":"林園街２１２號之３二樓","OBJECTID":480775},"geometry":{"x":165536.66000000015,"y":2562962.3799999971}},{"attributes":{"ID":480801,"DIS_CODE":0,"TOWNNAME":"佳里區","LI":"六安里","LIN":"26鄰","STREET":"林園街","SECT":" ","MAREA":" ","LANE":" ","ALLEY":" ","HOUSE_NO":"２１２號之３八樓","E_COORD97":165536.66,"N_COORD97":2562962.3799999999,"ADDRESS":"林園街２１２號之３八樓","OBJECTID":480776},"geometry":{"x":165536.66000000015,"y":2562962.3799999971}},{"attributes":{"ID":480802,"DIS_CODE":0,"TOWNNAME":"佳里區","LI":"六安里","LIN":"26鄰","STREET":"林園街","SECT":" ","MAREA":" ","LANE":" ","ALLEY":" ","HOUSE_NO":"２１２號之３十一樓","E_COORD97":165536.66,"N_COORD97":2562962.3799999999,"ADDRESS":"林園街２１２號之３十一樓","OBJECTID":480777},"geometry":{"x":165536.66000000015,"y":2562962.3799999971}},{"attributes":{"ID":480803,"DIS_CODE":0,"TOWNNAME":"佳里區","LI":"六安里","LIN":"26鄰","STREET":"林園街","SECT":" ","MAREA":" ","LANE":" ","ALLEY":" ","HOUSE_NO":"２１２號之３十二樓","E_COORD97":165536.66,"N_COORD97":2562962.3799999999,"ADDRESS":"林園街２１２號之３十二樓","OBJECTID":480778},"geometry":{"x":165536.66000000015,"y":2562962.3799999971}},{"attributes":{"ID":480804,"DIS_CODE":0,"TOWNNAME":"佳里區","LI":"六安里","LIN":"26鄰","STREET":"林園街","SECT":" ","MAREA":" ","LANE":" ","ALLEY":" ","HOUSE_NO":"２１２號之３十樓","E_COORD97":165536.66,"N_COORD97":2562962.3799999999,"ADDRESS":"林園街２１２號之３十樓","OBJECTID":480779},"geometry":{"x":165536.66000000015,"y":2562962.3799999971}},{"attributes":{"ID":480805,"DIS_CODE":0,"TOWNNAME":"佳里區","LI":"六安里","LIN":"26鄰","STREET":"林園街","SECT":" ","MAREA":" ","LANE":" ","ALLEY":" ","HOUSE_NO":"２１２號之３三樓","E_COORD97":165536.66,"N_COORD97":2562962.3799999999,"ADDRESS":"林園街２１２號之３三樓","OBJECTID":480780},"geometry":{"x":165536.66000000015,"y":2562962.3799999971}},{"attributes":{"ID":480806,"DIS_CODE":0,"TOWNNAME":"佳里區","LI":"六安里","LIN":"26鄰","STREET":"林園街","SECT":" ","MAREA":" ","LANE":" ","ALLEY":" ","HOUSE_NO":"２１２號之３五樓","E_COORD97":165536.66,"N_COORD97":2562962.3799999999,"ADDRESS":"林園街２１２號之３五樓","OBJECTID":480781},"geometry":{"x":165536.66000000015,"y":2562962.3799999971}},{"attributes":{"ID":480807,"DIS_CODE":0,"TOWNNAME":"佳里區","LI":"六安里","LIN":"26鄰","STREET":"林園街","SECT":" ","MAREA":" ","LANE":" ","ALLEY":" ","HOUSE_NO":"２１２號之３六樓","E_COORD97":165536.66,"N_COORD97":2562962.3799999999,"ADDRESS":"林園街２１２號之３六樓","OBJECTID":480782},"geometry":{"x":165536.66000000015,"y":2562962.3799999971}},{"attributes":{"ID":480808,"DIS_CODE":0,"TOWNNAME":"佳里區","LI":"六安里","LIN":"26鄰","STREET":"林園街","SECT":" ","MAREA":" ","LANE":" ","ALLEY":" ","HOUSE_NO":"２１２號之３四樓","E_COORD97":165536.66,"N_COORD97":2562962.3799999999,"ADDRESS":"林園街２１２號之３四樓","OBJECTID":480783},"geometry":{"x":165536.66000000015,"y":2562962.3799999971}},{"attributes":{"ID":480809,"DIS_CODE":0,"TOWNNAME":"佳里區","LI":"六安里","LIN":"26鄰","STREET":"林園街","SECT":" ","MAREA":" ","LANE":" ","ALLEY":" ","HOUSE_NO":"２１２號之５七樓","E_COORD97":165533.32999999999,"N_COORD97":2562962.52,"ADDRESS":"林園街２１２號之５七樓","OBJECTID":480784},"geometry":{"x":165533.33000000101,"y":2562962.5200000033}},{"attributes":{"ID":480810,"DIS_CODE":0,"TOWNNAME":"佳里區","LI":"六安里","LIN":"26鄰","STREET":"林園街","SECT":" ","MAREA":" ","LANE":" ","ALLEY":" ","HOUSE_NO":"２１２號之５九樓","E_COORD97":165533.32999999999,"N_COORD97":2562962.52,"ADDRESS":"林園街２１２號之５九樓","OBJECTID":480785},"geometry":{"x":165533.33000000101,"y":2562962.5200000033}},{"attributes":{"ID":480811,"DIS_CODE":0,"TOWNNAME":"佳里區","LI":"六安里","LIN":"26鄰","STREET":"林園街","SECT":" ","MAREA":" ","LANE":" ","ALLEY":" ","HOUSE_NO":"２１２號之５二樓","E_COORD97":165533.32999999999,"N_COORD97":2562962.52,"ADDRESS":"林園街２１２號之５二樓","OBJECTID":480786},"geometry":{"x":165533.33000000101,"y":2562962.5200000033}},{"attributes":{"ID":480812,"DIS_CODE":0,"TOWNNAME":"佳里區","LI":"六安里","LIN":"26鄰","STREET":"林園街","SECT":" ","MAREA":" ","LANE":" ","ALLEY":" ","HOUSE_NO":"２１２號之５八樓","E_COORD97":165533.32999999999,"N_COORD97":2562962.52,"ADDRESS":"林園街２１２號之５八樓","OBJECTID":480787},"geometry":{"x":165533.33000000101,"y":2562962.5200000033}},{"attributes":{"ID":480813,"DIS_CODE":0,"TOWNNAME":"佳里區","LI":"六安里","LIN":"26鄰","STREET":"林園街","SECT":" ","MAREA":" ","LANE":" ","ALLEY":" ","HOUSE_NO":"２１２號之５十一樓","E_COORD97":165533.32999999999,"N_COORD97":2562962.52,"ADDRESS":"林園街２１２號之５十一樓","OBJECTID":480788},"geometry":{"x":165533.33000000101,"y":2562962.5200000033}},{"attributes":{"ID":480814,"DIS_CODE":0,"TOWNNAME":"佳里區","LI":"六安里","LIN":"26鄰","STREET":"林園街","SECT":" ","MAREA":" ","LANE":" ","ALLEY":" ","HOUSE_NO":"２１２號之５十二樓","E_COORD97":165533.32999999999,"N_COORD97":2562962.52,"ADDRESS":"林園街２１２號之５十二樓","OBJECTID":480789},"geometry":{"x":165533.33000000101,"y":2562962.5200000033}},{"attributes":{"ID":480815,"DIS_CODE":0,"TOWNNAME":"佳里區","LI":"六安里","LIN":"26鄰","STREET":"林園街","SECT":" ","MAREA":" ","LANE":" ","ALLEY":" ","HOUSE_NO":"２１２號之５十樓","E_COORD97":165533.32999999999,"N_COORD97":2562962.52,"ADDRESS":"林園街２１２號之５十樓","OBJECTID":480790},"geometry":{"x":165533.33000000101,"y":2562962.5200000033}},{"attributes":{"ID":480816,"DIS_CODE":0,"TOWNNAME":"佳里區","LI":"六安里","LIN":"26鄰","STREET":"林園街","SECT":" ","MAREA":" ","LANE":" ","ALLEY":" ","HOUSE_NO":"２１２號之５三樓","E_COORD97":165533.32999999999,"N_COORD97":2562962.52,"ADDRESS":"林園街２１２號之５三樓","OBJECTID":480791},"geometry":{"x":165533.33000000101,"y":2562962.5200000033}},{"attributes":{"ID":480817,"DIS_CODE":0,"TOWNNAME":"佳里區","LI":"六安里","LIN":"26鄰","STREET":"林園街","SECT":" ","MAREA":" ","LANE":" ","ALLEY":" ","HOUSE_NO":"２１２號之５五樓","E_COORD97":165533.32999999999,"N_COORD97":2562962.52,"ADDRESS":"林園街２１２號之５五樓","OBJECTID":480792},"geometry":{"x":165533.33000000101,"y":2562962.5200000033}},{"attributes":{"ID":480818,"DIS_CODE":0,"TOWNNAME":"佳里區","LI":"六安里","LIN":"26鄰","STREET":"林園街","SECT":" ","MAREA":" ","LANE":" ","ALLEY":" ","HOUSE_NO":"２１２號之５六樓","E_COORD97":165533.32999999999,"N_COORD97":2562962.52,"ADDRESS":"林園街２１２號之５六樓","OBJECTID":480793},"geometry":{"x":165533.33000000101,"y":2562962.5200000033}},{"attributes":{"ID":480819,"DIS_CODE":0,"TOWNNAME":"佳里區","LI":"六安里","LIN":"26鄰","STREET":"林園街","SECT":" ","MAREA":" ","LANE":" ","ALLEY":" ","HOUSE_NO":"２１２號之５四樓","E_COORD97":165533.32999999999,"N_COORD97":2562962.52,"ADDRESS":"林園街２１２號之５四樓","OBJECTID":480794},"geometry":{"x":165533.33000000101,"y":2562962.5200000033}},{"attributes":{"ID":480820,"DIS_CODE":0,"TOWNNAME":"佳里區","LI":"六安里","LIN":"26鄰","STREET":"林園街","SECT":" ","MAREA":" ","LANE":" ","ALLEY":" ","HOUSE_NO":"２１２號之６七樓","E_COORD97":165530.28,"N_COORD97":2562962.0899999999,"ADDRESS":"林園街２１２號之６七樓","OBJECTID":480795},"geometry":{"x":165530.28000000119,"y":2562962.0900000036}},{"attributes":{"ID":480821,"DIS_CODE":0,"TOWNNAME":"佳里區","LI":"六安里","LIN":"26鄰","STREET":"林園街","SECT":" ","MAREA":" ","LANE":" ","ALLEY":" ","HOUSE_NO":"２１２號之６九樓","E_COORD97":165530.28,"N_COORD97":2562962.0899999999,"ADDRESS":"林園街２１２號之６九樓","OBJECTID":480796},"geometry":{"x":165530.28000000119,"y":2562962.0900000036}},{"attributes":{"ID":480822,"DIS_CODE":0,"TOWNNAME":"佳里區","LI":"六安里","LIN":"26鄰","STREET":"林園街","SECT":" ","MAREA":" ","LANE":" ","ALLEY":" ","HOUSE_NO":"２１２號之６八樓","E_COORD97":165530.28,"N_COORD97":2562962.0899999999,"ADDRESS":"林園街２１２號之６八樓","OBJECTID":480797},"geometry":{"x":165530.28000000119,"y":2562962.0900000036}},{"attributes":{"ID":480823,"DIS_CODE":0,"TOWNNAME":"佳里區","LI":"六安里","LIN":"26鄰","STREET":"林園街","SECT":" ","MAREA":" ","LANE":" ","ALLEY":" ","HOUSE_NO":"２１２號之６十一樓","E_COORD97":165530.28,"N_COORD97":2562962.0899999999,"ADDRESS":"林園街２１２號之６十一樓","OBJECTID":480798},"geometry":{"x":165530.28000000119,"y":2562962.0900000036}},{"attributes":{"ID":480824,"DIS_CODE":0,"TOWNNAME":"佳里區","LI":"六安里","LIN":"26鄰","STREET":"林園街","SECT":" ","MAREA":" ","LANE":" ","ALLEY":" ","HOUSE_NO":"２１２號之６十樓","E_COORD97":165530.28,"N_COORD97":2562962.0899999999,"ADDRESS":"林園街２１２號之６十樓","OBJECTID":480799},"geometry":{"x":165530.28000000119,"y":2562962.0900000036}},{"attributes":{"ID":480825,"DIS_CODE":0,"TOWNNAME":"佳里區","LI":"六安里","LIN":"26鄰","STREET":"林園街","SECT":" ","MAREA":" ","LANE":" ","ALLEY":" ","HOUSE_NO":"２１２號之６五樓","E_COORD97":165530.28,"N_COORD97":2562962.0899999999,"ADDRESS":"林園街２１２號之６五樓","OBJECTID":480800},"geometry":{"x":165530.28000000119,"y":2562962.0900000036}}]}