{"displayFieldName":"TOWNNAME","fieldAliases":{"ID":"ID","DIS_CODE":"DIS_CODE","TOWNNAME":"TOWNNAME","LI":"LI","LIN":"LIN","STREET":"STREET","SECT":"SECT","MAREA":"MAREA","LANE":"LANE","ALLEY":"ALLEY","HOUSE_NO":"HOUSE_NO","E_COORD97":"E_COORD97","N_COORD97":"N_COORD97","ADDRESS":"ADDRESS","OBJECTID":"OBJECTID"},"geometryType":"esriGeometryPoint","spatialReference":{"wkid":102443,"latestWkid":3826},"fields":[{"name":"ID","type":"esriFieldTypeDouble","alias":"ID"},{"name":"DIS_CODE","type":"esriFieldTypeInteger","alias":"DIS_CODE"},{"name":"TOWNNAME","type":"esriFieldTypeString","alias":"TOWNNAME","length":8},{"name":"LI","type":"esriFieldTypeString","alias":"LI","length":8},{"name":"LIN","type":"esriFieldTypeString","alias":"LIN","length":12},{"name":"STREET","type":"esriFieldTypeString","alias":"STREET","length":20},{"name":"SECT","type":"esriFieldTypeString","alias":"SECT","length":8},{"name":"MAREA","type":"esriFieldTypeString","alias":"MAREA","length":12},{"name":"LANE","type":"esriFieldTypeString","alias":"LANE","length":10},{"name":"ALLEY","type":"esriFieldTypeString","alias":"ALLEY","length":10},{"name":"HOUSE_NO","type":"esriFieldTypeString","alias":"HOUSE_NO","length":20},{"name":"E_COORD97","type":"esriFieldTypeDouble","alias":"E_COORD97"},{"name":"N_COORD97","type":"esriFieldTypeDouble","alias":"N_COORD97"},{"name":"ADDRESS","type":"esriFieldTypeString","alias":"ADDRESS","length":50},{"name":"OBJECTID","type":"esriFieldTypeOID","alias":"OBJECTID"}],"features":[{"attributes":{"ID":176402,"DIS_CODE":0,"TOWNNAME":"新市區","LI":"大洲里","LIN":"10鄰","STREET":" ","SECT":" ","MAREA":"大洲","LANE":" ","ALLEY":" ","HOUSE_NO":"９８之２號","E_COORD97":174443.76000000001,"N_COORD97":2551461.0499999998,"ADDRESS":"大洲９８之２號","OBJECTID":176401},"geometry":{"x":174443.75999999978,"y":2551461.0500000026}},{"attributes":{"ID":176403,"DIS_CODE":0,"TOWNNAME":"新市區","LI":"大社里","LIN":"10鄰","STREET":" ","SECT":" ","MAREA":"大社","LANE":" ","ALLEY":" ","HOUSE_NO":"３７８號","E_COORD97":180054.09,"N_COORD97":2554626.75,"ADDRESS":"大社３７８號","OBJECTID":176402},"geometry":{"x":180054.09000000078,"y":2554626.75}},{"attributes":{"ID":176404,"DIS_CODE":0,"TOWNNAME":"新市區","LI":"大洲里","LIN":"10鄰","STREET":" ","SECT":" ","MAREA":"大洲","LANE":" ","ALLEY":" ","HOUSE_NO":"９３之２號","E_COORD97":174349.01999999999,"N_COORD97":2551479.2999999998,"ADDRESS":"大洲９３之２號","OBJECTID":176403},"geometry":{"x":174349.01999999955,"y":2551479.3000000026}},{"attributes":{"ID":176405,"DIS_CODE":0,"TOWNNAME":"南區","LI":"白雪里","LIN":" ","STREET":"鹽埕路","SECT":" ","MAREA":" ","LANE":"２９１巷","ALLEY":"１１７弄","HOUSE_NO":"４號","E_COORD97":166709.82000000001,"N_COORD97":2541175.9100000001,"ADDRESS":"鹽埕路２９１巷１１７弄４號","OBJECTID":176404},"geometry":{"x":166709.82000000123,"y":2541175.9100000001}},{"attributes":{"ID":176406,"DIS_CODE":0,"TOWNNAME":"南區","LI":"白雪里","LIN":" ","STREET":"鹽埕路","SECT":" ","MAREA":" ","LANE":"２９１巷","ALLEY":"１１７弄","HOUSE_NO":"６號","E_COORD97":166717.17999999999,"N_COORD97":2541172.6200000001,"ADDRESS":"鹽埕路２９１巷１１７弄６號","OBJECTID":176405},"geometry":{"x":166717.18000000063,"y":2541172.620000001}},{"attributes":{"ID":176407,"DIS_CODE":0,"TOWNNAME":"南區","LI":"白雪里","LIN":" ","STREET":"鹽埕路","SECT":" ","MAREA":" ","LANE":"２９１巷","ALLEY":"１１７弄","HOUSE_NO":"８號","E_COORD97":166722.26000000001,"N_COORD97":2541171.1000000001,"ADDRESS":"鹽埕路２９１巷１１７弄８號","OBJECTID":176406},"geometry":{"x":166722.25999999978,"y":2541171.0999999996}},{"attributes":{"ID":176408,"DIS_CODE":0,"TOWNNAME":"南區","LI":"白雪里","LIN":" ","STREET":"鹽埕路","SECT":" ","MAREA":" ","LANE":"２９１巷","ALLEY":"１１７弄","HOUSE_NO":"１０號","E_COORD97":166728.60999999999,"N_COORD97":2541167.04,"ADDRESS":"鹽埕路２９１巷１１７弄１０號","OBJECTID":176407},"geometry":{"x":166728.61000000127,"y":2541167.0399999991}},{"attributes":{"ID":176409,"DIS_CODE":0,"TOWNNAME":"南區","LI":"白雪里","LIN":" ","STREET":"鹽埕路","SECT":" ","MAREA":" ","LANE":"２９１巷","ALLEY":"１１７弄","HOUSE_NO":"１２號","E_COORD97":166738,"N_COORD97":2541168.8100000001,"ADDRESS":"鹽埕路２９１巷１１７弄１２號","OBJECTID":176408},"geometry":{"x":166738,"y":2541168.8100000024}},{"attributes":{"ID":176410,"DIS_CODE":0,"TOWNNAME":"南區","LI":"白雪里","LIN":" ","STREET":"鹽埕路","SECT":" ","MAREA":" ","LANE":"２９１巷","ALLEY":"１１７弄","HOUSE_NO":"１４號","E_COORD97":166740.79000000001,"N_COORD97":2541165.2599999998,"ADDRESS":"鹽埕路２９１巷１１７弄１４號","OBJECTID":176409},"geometry":{"x":166740.79000000097,"y":2541165.2600000016}},{"attributes":{"ID":176411,"DIS_CODE":0,"TOWNNAME":"南區","LI":"白雪里","LIN":" ","STREET":"鹽埕路","SECT":" ","MAREA":" ","LANE":"１５９巷","ALLEY":"３２弄","HOUSE_NO":"１號","E_COORD97":166752.09,"N_COORD97":2541110.23,"ADDRESS":"鹽埕路１５９巷３２弄１號","OBJECTID":176410},"geometry":{"x":166752.09000000078,"y":2541110.2300000004}},{"attributes":{"ID":176412,"DIS_CODE":0,"TOWNNAME":"南區","LI":"白雪里","LIN":" ","STREET":"鹽埕路","SECT":" ","MAREA":" ","LANE":"１５９巷","ALLEY":"３２弄","HOUSE_NO":"３號","E_COORD97":166752.38,"N_COORD97":2541115.1800000002,"ADDRESS":"鹽埕路１５９巷３２弄３號","OBJECTID":176411},"geometry":{"x":166752.37999999989,"y":2541115.1800000016}},{"attributes":{"ID":176413,"DIS_CODE":0,"TOWNNAME":"南區","LI":"白雪里","LIN":" ","STREET":"鹽埕路","SECT":" ","MAREA":" ","LANE":"１５９巷","ALLEY":"３２弄","HOUSE_NO":"５號","E_COORD97":166752.5,"N_COORD97":2541122.6299999999,"ADDRESS":"鹽埕路１５９巷３２弄５號","OBJECTID":176412},"geometry":{"x":166752.50000000093,"y":2541122.629999999}},{"attributes":{"ID":176414,"DIS_CODE":0,"TOWNNAME":"南區","LI":"白雪里","LIN":" ","STREET":"鹽埕路","SECT":" ","MAREA":" ","LANE":"１５９巷","ALLEY":"５８弄","HOUSE_NO":"１號","E_COORD97":166689.26000000001,"N_COORD97":2541118.7999999998,"ADDRESS":"鹽埕路１５９巷５８弄１號","OBJECTID":176413},"geometry":{"x":166689.26000000071,"y":2541118.8000000026}},{"attributes":{"ID":176415,"DIS_CODE":0,"TOWNNAME":"南區","LI":"白雪里","LIN":" ","STREET":"鹽埕路","SECT":" ","MAREA":" ","LANE":"１５９巷","ALLEY":"５８弄","HOUSE_NO":"２號","E_COORD97":166705.25,"N_COORD97":2541123.4300000002,"ADDRESS":"鹽埕路１５９巷５８弄２號","OBJECTID":176414},"geometry":{"x":166705.25000000093,"y":2541123.4300000016}},{"attributes":{"ID":176416,"DIS_CODE":0,"TOWNNAME":"東區","LI":"崇善里","LIN":"10鄰","STREET":"崇善八街","SECT":" ","MAREA":" ","LANE":" ","ALLEY":" ","HOUSE_NO":"５５號","E_COORD97":171196.53,"N_COORD97":2541444.5299999998,"ADDRESS":"崇善八街５５號","OBJECTID":176415},"geometry":{"x":171196.53000000026,"y":2541444.5300000012}},{"attributes":{"ID":176417,"DIS_CODE":0,"TOWNNAME":"東區","LI":"崇善里","LIN":"10鄰","STREET":"崇善八街","SECT":" ","MAREA":" ","LANE":" ","ALLEY":" ","HOUSE_NO":"５７號","E_COORD97":171201.53,"N_COORD97":2541443.5899999999,"ADDRESS":"崇善八街５７號","OBJECTID":176416},"geometry":{"x":171201.53000000026,"y":2541443.5900000036}},{"attributes":{"ID":176418,"DIS_CODE":0,"TOWNNAME":"東區","LI":"崇善里","LIN":"10鄰","STREET":"崇善八街","SECT":" ","MAREA":" ","LANE":" ","ALLEY":" ","HOUSE_NO":"５９號","E_COORD97":171203.09,"N_COORD97":2541448.8999999999,"ADDRESS":"崇善八街５９號","OBJECTID":176417},"geometry":{"x":171203.09000000078,"y":2541448.9000000041}},{"attributes":{"ID":176419,"DIS_CODE":0,"TOWNNAME":"東區","LI":"崇善里","LIN":"10鄰","STREET":"崇善八街","SECT":" ","MAREA":" ","LANE":" ","ALLEY":" ","HOUSE_NO":"６１號","E_COORD97":171207.78,"N_COORD97":2541450.46,"ADDRESS":"崇善八街６１號","OBJECTID":176418},"geometry":{"x":171207.78000000119,"y":2541450.4600000028}},{"attributes":{"ID":176420,"DIS_CODE":0,"TOWNNAME":"東區","LI":"崇善里","LIN":"10鄰","STREET":"崇善八街","SECT":" ","MAREA":" ","LANE":" ","ALLEY":" ","HOUSE_NO":"６５號","E_COORD97":171214.97,"N_COORD97":2541457.02,"ADDRESS":"崇善八街６５號","OBJECTID":176419},"geometry":{"x":171214.96999999974,"y":2541457.0200000033}},{"attributes":{"ID":176421,"DIS_CODE":0,"TOWNNAME":"南區","LI":"白雪里","LIN":" ","STREET":"鹽埕路","SECT":" ","MAREA":" ","LANE":"１５９巷","ALLEY":"５８弄","HOUSE_NO":"３號","E_COORD97":166695.60999999999,"N_COORD97":2541126.7200000002,"ADDRESS":"鹽埕路１５９巷５８弄３號","OBJECTID":176420},"geometry":{"x":166695.6099999994,"y":2541126.7200000007}},{"attributes":{"ID":176422,"DIS_CODE":0,"TOWNNAME":"南區","LI":"白雪里","LIN":" ","STREET":"鹽埕路","SECT":" ","MAREA":" ","LANE":"１５９巷","ALLEY":"５８弄","HOUSE_NO":"４號","E_COORD97":166711.34,"N_COORD97":2541131.79,"ADDRESS":"鹽埕路１５９巷５８弄４號","OBJECTID":176421},"geometry":{"x":166711.34000000078,"y":2541131.7899999991}},{"attributes":{"ID":176423,"DIS_CODE":0,"TOWNNAME":"南區","LI":"白雪里","LIN":" ","STREET":"鹽埕路","SECT":" ","MAREA":" ","LANE":"１５９巷","ALLEY":"５８弄","HOUSE_NO":"５號","E_COORD97":166685.20000000001,"N_COORD97":2541129.77,"ADDRESS":"鹽埕路１５９巷５８弄５號","OBJECTID":176422},"geometry":{"x":166685.20000000112,"y":2541129.7699999977}},{"attributes":{"ID":176424,"DIS_CODE":0,"TOWNNAME":"南區","LI":"白雪里","LIN":" ","STREET":"鹽埕路","SECT":" ","MAREA":" ","LANE":"１５９巷","ALLEY":"５８弄","HOUSE_NO":"６號","E_COORD97":166703.22,"N_COORD97":2541132.0499999998,"ADDRESS":"鹽埕路１５９巷５８弄６號","OBJECTID":176423},"geometry":{"x":166703.22000000067,"y":2541132.0500000007}},{"attributes":{"ID":176425,"DIS_CODE":0,"TOWNNAME":"南區","LI":"白雪里","LIN":" ","STREET":"鹽埕路","SECT":" ","MAREA":" ","LANE":"１５９巷","ALLEY":"５８弄","HOUSE_NO":"８號","E_COORD97":166705,"N_COORD97":2541139.3999999999,"ADDRESS":"鹽埕路１５９巷５８弄８號","OBJECTID":176424},"geometry":{"x":166705.00000000093,"y":2541139.4000000004}},{"attributes":{"ID":176426,"DIS_CODE":0,"TOWNNAME":"南區","LI":"白雪里","LIN":" ","STREET":"鹽埕路","SECT":" ","MAREA":" ","LANE":"１５９巷","ALLEY":"５８弄","HOUSE_NO":"１０號","E_COORD97":166703.48000000001,"N_COORD97":2541157.9100000001,"ADDRESS":"鹽埕路１５９巷５８弄１０號","OBJECTID":176425},"geometry":{"x":166703.48000000231,"y":2541157.910000002}},{"attributes":{"ID":176427,"DIS_CODE":0,"TOWNNAME":"南區","LI":"白雪里","LIN":" ","STREET":"鹽埕路","SECT":" ","MAREA":" ","LANE":"１５９巷","ALLEY":"５８弄","HOUSE_NO":"１２號","E_COORD97":166693.82999999999,"N_COORD97":2541141.9399999999,"ADDRESS":"鹽埕路１５９巷５８弄１２號","OBJECTID":176426},"geometry":{"x":166693.82999999914,"y":2541141.9399999995}},{"attributes":{"ID":176428,"DIS_CODE":0,"TOWNNAME":"南區","LI":"白雪里","LIN":" ","STREET":"鹽埕路","SECT":" ","MAREA":" ","LANE":"１５９巷","ALLEY":"３２弄","HOUSE_NO":"８號","E_COORD97":166772.48000000001,"N_COORD97":2541092.52,"ADDRESS":"鹽埕路１５９巷３２弄８號","OBJECTID":176427},"geometry":{"x":166772.48000000045,"y":2541092.5200000014}},{"attributes":{"ID":176429,"DIS_CODE":0,"TOWNNAME":"南區","LI":"白雪里","LIN":" ","STREET":"鹽埕路","SECT":" ","MAREA":" ","LANE":"１５９巷","ALLEY":"３２弄","HOUSE_NO":"１０號","E_COORD97":166763.39000000001,"N_COORD97":2541097.3100000001,"ADDRESS":"鹽埕路１５９巷３２弄１０號","OBJECTID":176428},"geometry":{"x":166763.3900000006,"y":2541097.3100000024}},{"attributes":{"ID":176430,"DIS_CODE":0,"TOWNNAME":"南區","LI":"白雪里","LIN":" ","STREET":"鹽埕路","SECT":" ","MAREA":" ","LANE":"１５９巷","ALLEY":"３２弄","HOUSE_NO":"１４號","E_COORD97":166762.89999999999,"N_COORD97":2541108.2400000002,"ADDRESS":"鹽埕路１５９巷３２弄１４號","OBJECTID":176429},"geometry":{"x":166762.90000000037,"y":2541108.2400000021}},{"attributes":{"ID":176431,"DIS_CODE":0,"TOWNNAME":"南區","LI":"白雪里","LIN":" ","STREET":"鹽埕路","SECT":" ","MAREA":" ","LANE":"１５９巷","ALLEY":"３２弄","HOUSE_NO":"１８號","E_COORD97":166762.07000000001,"N_COORD97":2541128.4399999999,"ADDRESS":"鹽埕路１５９巷３２弄１８號","OBJECTID":176430},"geometry":{"x":166762.07000000216,"y":2541128.4399999995}},{"attributes":{"ID":176432,"DIS_CODE":0,"TOWNNAME":"南區","LI":"白雪里","LIN":" ","STREET":"鹽埕路","SECT":" ","MAREA":" ","LANE":"１５９巷","ALLEY":"８弄","HOUSE_NO":"１號","E_COORD97":166793.87,"N_COORD97":2541077.5299999998,"ADDRESS":"鹽埕路１５９巷８弄１號","OBJECTID":176431},"geometry":{"x":166793.87000000197,"y":2541077.5300000012}},{"attributes":{"ID":176433,"DIS_CODE":0,"TOWNNAME":"南區","LI":"白雪里","LIN":" ","STREET":"鹽埕路","SECT":" ","MAREA":" ","LANE":"１５９巷","ALLEY":"８弄","HOUSE_NO":"２號","E_COORD97":166793.26000000001,"N_COORD97":2541087.9199999999,"ADDRESS":"鹽埕路１５９巷８弄２號","OBJECTID":176432},"geometry":{"x":166793.26000000071,"y":2541087.9199999999}},{"attributes":{"ID":176434,"DIS_CODE":0,"TOWNNAME":"新市區","LI":"三舍里","LIN":"10鄰","STREET":" ","SECT":" ","MAREA":"三舍","LANE":" ","ALLEY":" ","HOUSE_NO":"２１３號","E_COORD97":177747.01000000001,"N_COORD97":2555671.25,"ADDRESS":"三舍２１３號","OBJECTID":176433},"geometry":{"x":177747.01000000071,"y":2555671.25}},{"attributes":{"ID":176435,"DIS_CODE":0,"TOWNNAME":"新市區","LI":"三舍里","LIN":"10鄰","STREET":" ","SECT":" ","MAREA":"三舍","LANE":" ","ALLEY":" ","HOUSE_NO":"２０７之１號","E_COORD97":177639.37,"N_COORD97":2555656.0499999998,"ADDRESS":"三舍２０７之１號","OBJECTID":176434},"geometry":{"x":177639.37000000011,"y":2555656.0500000007}},{"attributes":{"ID":176436,"DIS_CODE":0,"TOWNNAME":"新市區","LI":"大洲里","LIN":"10鄰","STREET":" ","SECT":" ","MAREA":"大洲","LANE":" ","ALLEY":" ","HOUSE_NO":"１０１號之４","E_COORD97":174438.87,"N_COORD97":2551420.2999999998,"ADDRESS":"大洲１０１號之４","OBJECTID":176435},"geometry":{"x":174438.87000000011,"y":2551420.3000000007}},{"attributes":{"ID":176437,"DIS_CODE":0,"TOWNNAME":"新市區","LI":"大營里","LIN":"10鄰","STREET":" ","SECT":" ","MAREA":"大營","LANE":" ","ALLEY":" ","HOUSE_NO":"２２４號","E_COORD97":179379.39999999999,"N_COORD97":2555662,"ADDRESS":"大營２２４號","OBJECTID":176436},"geometry":{"x":179379.4000000013,"y":2555662}},{"attributes":{"ID":176438,"DIS_CODE":0,"TOWNNAME":"新市區","LI":"潭頂里","LIN":"10鄰","STREET":" ","SECT":" ","MAREA":"潭頂","LANE":" ","ALLEY":" ","HOUSE_NO":"３５８之１４號","E_COORD97":180580.07999999999,"N_COORD97":2552829.2999999998,"ADDRESS":"潭頂３５８之１４號","OBJECTID":176437},"geometry":{"x":180580.08000000101,"y":2552829.3000000026}},{"attributes":{"ID":176439,"DIS_CODE":0,"TOWNNAME":"仁德區","LI":"成功里","LIN":"1鄰","STREET":"保生東路","SECT":" ","MAREA":" ","LANE":"１３８巷","ALLEY":"６弄","HOUSE_NO":"９號","E_COORD97":171248.705709,"N_COORD97":2539531.7641099999,"ADDRESS":"保生東路１３８巷６弄９號","OBJECTID":176438},"geometry":{"x":171248.70570900105,"y":2539531.7641140018}},{"attributes":{"ID":176440,"DIS_CODE":0,"TOWNNAME":"南區","LI":"白雪里","LIN":" ","STREET":"鹽埕路","SECT":" ","MAREA":" ","LANE":"１５９巷","ALLEY":"８弄","HOUSE_NO":"３號","E_COORD97":166790.10000000001,"N_COORD97":2541102.29,"ADDRESS":"鹽埕路１５９巷８弄３號","OBJECTID":176439},"geometry":{"x":166790.10000000149,"y":2541102.2900000028}},{"attributes":{"ID":176441,"DIS_CODE":0,"TOWNNAME":"南區","LI":"白雪里","LIN":" ","STREET":"鹽埕路","SECT":" ","MAREA":" ","LANE":"１５９巷","ALLEY":"８弄","HOUSE_NO":"４號","E_COORD97":166809.25,"N_COORD97":2541099.1800000002,"ADDRESS":"鹽埕路１５９巷８弄４號","OBJECTID":176440},"geometry":{"x":166809.25,"y":2541099.1799999997}},{"attributes":{"ID":176442,"DIS_CODE":0,"TOWNNAME":"南區","LI":"白雪里","LIN":" ","STREET":"鹽埕路","SECT":" ","MAREA":" ","LANE":"１５９巷","ALLEY":"８弄","HOUSE_NO":"５號","E_COORD97":166808.26000000001,"N_COORD97":2541107.46,"ADDRESS":"鹽埕路１５９巷８弄５號","OBJECTID":176441},"geometry":{"x":166808.26000000071,"y":2541107.4600000028}},{"attributes":{"ID":176443,"DIS_CODE":0,"TOWNNAME":"新市區","LI":"豐華里","LIN":"10鄰","STREET":" ","SECT":" ","MAREA":"豐華","LANE":" ","ALLEY":" ","HOUSE_NO":"４７之４０號","E_COORD97":174150.88,"N_COORD97":2554462.2999999998,"ADDRESS":"豐華４７之４０號","OBJECTID":176442},"geometry":{"x":174150.88000000082,"y":2554462.3000000026}},{"attributes":{"ID":176444,"DIS_CODE":0,"TOWNNAME":"新市區","LI":"豐華里","LIN":"10鄰","STREET":" ","SECT":" ","MAREA":"豐華","LANE":" ","ALLEY":" ","HOUSE_NO":"４７之４４號","E_COORD97":174156.82000000001,"N_COORD97":2554478.5499999998,"ADDRESS":"豐華４７之４４號","OBJECTID":176443},"geometry":{"x":174156.82000000123,"y":2554478.5500000026}},{"attributes":{"ID":176445,"DIS_CODE":0,"TOWNNAME":"南區","LI":"白雪里","LIN":" ","STREET":"鹽埕路","SECT":" ","MAREA":" ","LANE":"１５９巷","ALLEY":"３２弄","HOUSE_NO":"４號","E_COORD97":166759.20000000001,"N_COORD97":2541083.0800000001,"ADDRESS":"鹽埕路１５９巷３２弄４號","OBJECTID":176444},"geometry":{"x":166759.20000000019,"y":2541083.0800000001}},{"attributes":{"ID":176446,"DIS_CODE":0,"TOWNNAME":"新市區","LI":"豐華里","LIN":"10鄰","STREET":" ","SECT":" ","MAREA":"豐華","LANE":" ","ALLEY":" ","HOUSE_NO":"４７之４９號","E_COORD97":174165.37,"N_COORD97":2554498.2999999998,"ADDRESS":"豐華４７之４９號","OBJECTID":176445},"geometry":{"x":174165.37000000011,"y":2554498.3000000007}},{"attributes":{"ID":176447,"DIS_CODE":0,"TOWNNAME":"南區","LI":"白雪里","LIN":" ","STREET":"鹽埕路","SECT":" ","MAREA":" ","LANE":"１５９巷","ALLEY":"３２弄","HOUSE_NO":"６號","E_COORD97":166778.35000000001,"N_COORD97":2541087.27,"ADDRESS":"鹽埕路１５９巷３２弄６號","OBJECTID":176446},"geometry":{"x":166778.35000000056,"y":2541087.2700000014}},{"attributes":{"ID":176448,"DIS_CODE":0,"TOWNNAME":"南區","LI":"白雪里","LIN":" ","STREET":"鹽埕路","SECT":" ","MAREA":" ","LANE":"１５９巷","ALLEY":"３２弄","HOUSE_NO":"２號","E_COORD97":166769.22,"N_COORD97":2541082.9100000001,"ADDRESS":"鹽埕路１５９巷３２弄２號","OBJECTID":176447},"geometry":{"x":166769.22000000067,"y":2541082.910000002}},{"attributes":{"ID":176449,"DIS_CODE":0,"TOWNNAME":"新市區","LI":"潭頂里","LIN":"10鄰","STREET":" ","SECT":" ","MAREA":"潭頂","LANE":" ","ALLEY":" ","HOUSE_NO":"３５９號","E_COORD97":180647.39000000001,"N_COORD97":2552869,"ADDRESS":"潭頂３５９號","OBJECTID":176448},"geometry":{"x":180647.38999999966,"y":2552869}},{"attributes":{"ID":176450,"DIS_CODE":0,"TOWNNAME":"南區","LI":"白雪里","LIN":" ","STREET":"鹽埕路","SECT":" ","MAREA":" ","LANE":"１０３巷","ALLEY":"２８弄","HOUSE_NO":"１號","E_COORD97":166704.47,"N_COORD97":2540775.7400000002,"ADDRESS":"鹽埕路１０３巷２８弄１號","OBJECTID":176449},"geometry":{"x":166704.4700000016,"y":2540775.7400000021}},{"attributes":{"ID":176451,"DIS_CODE":0,"TOWNNAME":"永康區","LI":"大橋里","LIN":"10鄰","STREET":"大橋三街","SECT":" ","MAREA":" ","LANE":" ","ALLEY":" ","HOUSE_NO":"２６２號","E_COORD97":171030.19,"N_COORD97":2546865.0800000001,"ADDRESS":"大橋三街２６２號","OBJECTID":176450},"geometry":{"x":171030.19000000134,"y":2546865.0800000038}},{"attributes":{"ID":176452,"DIS_CODE":0,"TOWNNAME":"永康區","LI":"大橋里","LIN":"10鄰","STREET":"大橋三街","SECT":" ","MAREA":" ","LANE":" ","ALLEY":" ","HOUSE_NO":"２１４號","E_COORD97":170885.12,"N_COORD97":2546779.7400000002,"ADDRESS":"大橋三街２１４號","OBJECTID":176451},"geometry":{"x":170885.12000000011,"y":2546779.7400000021}},{"attributes":{"ID":176453,"DIS_CODE":0,"TOWNNAME":"南區","LI":"白雪里","LIN":" ","STREET":"鹽埕路","SECT":" ","MAREA":" ","LANE":"１０３巷","ALLEY":"２８弄","HOUSE_NO":"２號","E_COORD97":166730.04999999999,"N_COORD97":2540787.5099999998,"ADDRESS":"鹽埕路１０３巷２８弄２號","OBJECTID":176452},"geometry":{"x":166730.05000000075,"y":2540787.5100000016}},{"attributes":{"ID":176454,"DIS_CODE":0,"TOWNNAME":"永康區","LI":"大橋里","LIN":"10鄰","STREET":"大橋三街","SECT":" ","MAREA":" ","LANE":" ","ALLEY":" ","HOUSE_NO":"２６０號","E_COORD97":171027.44,"N_COORD97":2546862.5800000001,"ADDRESS":"大橋三街２６０號","OBJECTID":176453},"geometry":{"x":171027.44000000041,"y":2546862.5800000019}},{"attributes":{"ID":176455,"DIS_CODE":0,"TOWNNAME":"南區","LI":"白雪里","LIN":" ","STREET":"鹽埕路","SECT":" ","MAREA":" ","LANE":"１０３巷","ALLEY":"２８弄","HOUSE_NO":"３號","E_COORD97":166698.67000000001,"N_COORD97":2540776.79,"ADDRESS":"鹽埕路１０３巷２８弄３號","OBJECTID":176454},"geometry":{"x":166698.67000000086,"y":2540776.7900000028}},{"attributes":{"ID":176456,"DIS_CODE":0,"TOWNNAME":"永康區","LI":"大灣里","LIN":"10鄰","STREET":"大灣六街","SECT":" ","MAREA":" ","LANE":" ","ALLEY":" ","HOUSE_NO":"１６０號","E_COORD97":174902.32000000001,"N_COORD97":2545439.8799999999,"ADDRESS":"大灣六街１６０號","OBJECTID":176455},"geometry":{"x":174902.32000000216,"y":2545439.879999999}},{"attributes":{"ID":176457,"DIS_CODE":0,"TOWNNAME":"東區","LI":"裕聖里","LIN":"15鄰","STREET":"裕孝路","SECT":" ","MAREA":" ","LANE":" ","ALLEY":" ","HOUSE_NO":"３２１號","E_COORD97":172444.48999999999,"N_COORD97":2542338.9700000002,"ADDRESS":"裕孝路３２１號","OBJECTID":176456},"geometry":{"x":172444.49000000022,"y":2542338.9700000007}},{"attributes":{"ID":176458,"DIS_CODE":0,"TOWNNAME":"東區","LI":"裕聖里","LIN":"15鄰","STREET":"裕孝路","SECT":" ","MAREA":" ","LANE":" ","ALLEY":" ","HOUSE_NO":"３２３號","E_COORD97":172444.20999999999,"N_COORD97":2542333.6299999999,"ADDRESS":"裕孝路３２３號","OBJECTID":176457},"geometry":{"x":172444.20999999996,"y":2542333.6299999971}},{"attributes":{"ID":176459,"DIS_CODE":0,"TOWNNAME":"東區","LI":"裕聖里","LIN":"6鄰","STREET":"裕孝路","SECT":" ","MAREA":" ","LANE":" ","ALLEY":" ","HOUSE_NO":"４９５號","E_COORD97":172446.47,"N_COORD97":2542217.46,"ADDRESS":"裕孝路４９５號","OBJECTID":176458},"geometry":{"x":172446.47000000067,"y":2542217.4600000009}},{"attributes":{"ID":176460,"DIS_CODE":0,"TOWNNAME":"東區","LI":"裕聖里","LIN":"21鄰","STREET":"裕孝路","SECT":" ","MAREA":" ","LANE":" ","ALLEY":" ","HOUSE_NO":"５００號","E_COORD97":172426.59,"N_COORD97":2542337.5800000001,"ADDRESS":"裕孝路５００號","OBJECTID":176459},"geometry":{"x":172426.58999999985,"y":2542337.5800000001}},{"attributes":{"ID":176461,"DIS_CODE":0,"TOWNNAME":"東區","LI":"裕聖里","LIN":"21鄰","STREET":"裕孝路","SECT":" ","MAREA":" ","LANE":" ","ALLEY":" ","HOUSE_NO":"５１８號","E_COORD97":172390.95999999999,"N_COORD97":2542337.4300000002,"ADDRESS":"裕孝路５１８號","OBJECTID":176460},"geometry":{"x":172390.96000000089,"y":2542337.4300000016}},{"attributes":{"ID":176462,"DIS_CODE":0,"TOWNNAME":"東區","LI":"裕聖里","LIN":"21鄰","STREET":"裕孝路","SECT":" ","MAREA":" ","LANE":" ","ALLEY":" ","HOUSE_NO":"５０２號","E_COORD97":172421.01000000001,"N_COORD97":2542337.29,"ADDRESS":"裕孝路５０２號","OBJECTID":176461},"geometry":{"x":172421.01000000071,"y":2542337.290000001}},{"attributes":{"ID":176463,"DIS_CODE":0,"TOWNNAME":"東區","LI":"裕聖里","LIN":"21鄰","STREET":"裕孝路","SECT":" ","MAREA":" ","LANE":" ","ALLEY":" ","HOUSE_NO":"５０６號","E_COORD97":172416.29000000001,"N_COORD97":2542337.29,"ADDRESS":"裕孝路５０６號","OBJECTID":176462},"geometry":{"x":172416.29000000097,"y":2542337.290000001}},{"attributes":{"ID":176464,"DIS_CODE":0,"TOWNNAME":"南區","LI":"白雪里","LIN":" ","STREET":"鹽埕路","SECT":" ","MAREA":" ","LANE":"１０３巷","ALLEY":"２８弄","HOUSE_NO":"４號","E_COORD97":166726.22,"N_COORD97":2540789.6699999999,"ADDRESS":"鹽埕路１０３巷２８弄４號","OBJECTID":176463},"geometry":{"x":166726.21999999974,"y":2540789.6700000018}},{"attributes":{"ID":176465,"DIS_CODE":0,"TOWNNAME":"南區","LI":"白雪里","LIN":" ","STREET":"鹽埕路","SECT":" ","MAREA":" ","LANE":"１０３巷","ALLEY":"２８弄","HOUSE_NO":"５號","E_COORD97":166692.87,"N_COORD97":2540778.3700000001,"ADDRESS":"鹽埕路１０３巷２８弄５號","OBJECTID":176464},"geometry":{"x":166692.87000000104,"y":2540778.3700000048}},{"attributes":{"ID":176466,"DIS_CODE":0,"TOWNNAME":"南區","LI":"白雪里","LIN":" ","STREET":"鹽埕路","SECT":" ","MAREA":" ","LANE":"１０３巷","ALLEY":"２８弄","HOUSE_NO":"６號","E_COORD97":166722.84,"N_COORD97":2540790.7000000002,"ADDRESS":"鹽埕路１０３巷２８弄６號","OBJECTID":176465},"geometry":{"x":166722.84000000078,"y":2540790.6999999993}},{"attributes":{"ID":176467,"DIS_CODE":0,"TOWNNAME":"南區","LI":"白雪里","LIN":" ","STREET":"鹽埕路","SECT":" ","MAREA":" ","LANE":"１０３巷","ALLEY":"２８弄","HOUSE_NO":"８號","E_COORD97":166718.84,"N_COORD97":2540791.4100000001,"ADDRESS":"鹽埕路１０３巷２８弄８號","OBJECTID":176466},"geometry":{"x":166718.83999999985,"y":2540791.410000002}},{"attributes":{"ID":176468,"DIS_CODE":0,"TOWNNAME":"南區","LI":"白雪里","LIN":" ","STREET":"鹽埕路","SECT":" ","MAREA":" ","LANE":"１０３巷","ALLEY":"２８弄","HOUSE_NO":"１０號","E_COORD97":166714.84,"N_COORD97":2540793.8799999999,"ADDRESS":"鹽埕路１０３巷２８弄１０號","OBJECTID":176467},"geometry":{"x":166714.83999999985,"y":2540793.8800000008}},{"attributes":{"ID":176469,"DIS_CODE":0,"TOWNNAME":"南區","LI":"白雪里","LIN":" ","STREET":"鹽埕路","SECT":" ","MAREA":" ","LANE":"１０３巷","ALLEY":"２８弄","HOUSE_NO":"１２號","E_COORD97":166711.23000000001,"N_COORD97":2540795.79,"ADDRESS":"鹽埕路１０３巷２８弄１２號","OBJECTID":176468},"geometry":{"x":166711.23000000045,"y":2540795.7899999991}},{"attributes":{"ID":176470,"DIS_CODE":0,"TOWNNAME":"南區","LI":"白雪里","LIN":" ","STREET":"鹽埕路","SECT":" ","MAREA":" ","LANE":"１０３巷","ALLEY":"２８弄","HOUSE_NO":"１４號","E_COORD97":166708.04999999999,"N_COORD97":2540796.8300000001,"ADDRESS":"鹽埕路１０３巷２８弄１４號","OBJECTID":176469},"geometry":{"x":166708.05000000075,"y":2540796.8300000001}},{"attributes":{"ID":176471,"DIS_CODE":0,"TOWNNAME":"南區","LI":"白雪里","LIN":" ","STREET":"鹽埕路","SECT":" ","MAREA":" ","LANE":"１０３巷","ALLEY":"２８弄","HOUSE_NO":"１６號","E_COORD97":166704.69,"N_COORD97":2540797.6200000001,"ADDRESS":"鹽埕路１０３巷２８弄１６號","OBJECTID":176470},"geometry":{"x":166704.69000000041,"y":2540797.6200000029}},{"attributes":{"ID":176472,"DIS_CODE":0,"TOWNNAME":"南區","LI":"白雪里","LIN":" ","STREET":"鹽埕路","SECT":" ","MAREA":" ","LANE":"１０３巷","ALLEY":"２８弄","HOUSE_NO":"１８號","E_COORD97":166698.26999999999,"N_COORD97":2540799.3900000001,"ADDRESS":"鹽埕路１０３巷２８弄１８號","OBJECTID":176471},"geometry":{"x":166698.26999999955,"y":2540799.3900000025}},{"attributes":{"ID":176473,"DIS_CODE":0,"TOWNNAME":"南區","LI":"白雪里","LIN":" ","STREET":"鹽埕路","SECT":" ","MAREA":" ","LANE":"１０３巷","ALLEY":"２８弄","HOUSE_NO":"２０號","E_COORD97":166694.41,"N_COORD97":2540799.8999999999,"ADDRESS":"鹽埕路１０３巷２８弄２０號","OBJECTID":176472},"geometry":{"x":166694.41000000015,"y":2540799.9000000004}},{"attributes":{"ID":176474,"DIS_CODE":0,"TOWNNAME":"南區","LI":"白雪里","LIN":" ","STREET":"鹽埕路","SECT":" ","MAREA":" ","LANE":"１０３巷","ALLEY":"２８弄","HOUSE_NO":"２２號","E_COORD97":166683.31,"N_COORD97":2540802.7200000002,"ADDRESS":"鹽埕路１０３巷２８弄２２號","OBJECTID":176473},"geometry":{"x":166683.30999999866,"y":2540802.7200000044}},{"attributes":{"ID":176475,"DIS_CODE":0,"TOWNNAME":"南區","LI":"白雪里","LIN":" ","STREET":"鹽埕路","SECT":" ","MAREA":" ","LANE":"１０３巷","ALLEY":"２８弄","HOUSE_NO":"３６號","E_COORD97":166617.57000000001,"N_COORD97":2540833.4100000001,"ADDRESS":"鹽埕路１０３巷２８弄３６號","OBJECTID":176474},"geometry":{"x":166617.5700000003,"y":2540833.4100000001}},{"attributes":{"ID":176476,"DIS_CODE":0,"TOWNNAME":"南區","LI":"白雪里","LIN":" ","STREET":"鹽埕路","SECT":" ","MAREA":" ","LANE":"１０３巷","ALLEY":"３８弄","HOUSE_NO":"２號","E_COORD97":166723.70000000001,"N_COORD97":2540760.4700000002,"ADDRESS":"鹽埕路１０３巷３８弄２號","OBJECTID":176475},"geometry":{"x":166723.70000000205,"y":2540760.4700000044}},{"attributes":{"ID":176477,"DIS_CODE":0,"TOWNNAME":"東區","LI":"裕聖里","LIN":"21鄰","STREET":"裕孝路","SECT":" ","MAREA":" ","LANE":" ","ALLEY":" ","HOUSE_NO":"５０８號","E_COORD97":172411.14000000001,"N_COORD97":2542337.29,"ADDRESS":"裕孝路５０８號","OBJECTID":176476},"geometry":{"x":172411.1400000006,"y":2542337.290000001}},{"attributes":{"ID":176478,"DIS_CODE":0,"TOWNNAME":"官田區","LI":"湖山里","LIN":"10鄰","STREET":" ","SECT":" ","MAREA":"烏山頭","LANE":" ","ALLEY":" ","HOUSE_NO":"５８號","E_COORD97":183467.57999999999,"N_COORD97":2567707.1099999999,"ADDRESS":"烏山頭５８號","OBJECTID":176477},"geometry":{"x":183467.58000000007,"y":2567707.1099999994}},{"attributes":{"ID":176479,"DIS_CODE":0,"TOWNNAME":"官田區","LI":"南\u25A0里","LIN":"10鄰","STREET":" ","SECT":" ","MAREA":"南\u25A0","LANE":" ","ALLEY":" ","HOUSE_NO":"２５０號","E_COORD97":179686.97,"N_COORD97":2568582.04,"ADDRESS":"南\u25A0２５０號","OBJECTID":176478},"geometry":{"x":179686.97000000067,"y":2568582.0399999991}},{"attributes":{"ID":176480,"DIS_CODE":0,"TOWNNAME":"永康區","LI":"大灣里","LIN":"10鄰","STREET":"大灣六街","SECT":" ","MAREA":" ","LANE":" ","ALLEY":" ","HOUSE_NO":"１０９號","E_COORD97":174891.95999999999,"N_COORD97":2545427.27,"ADDRESS":"大灣六街１０９號","OBJECTID":176479},"geometry":{"x":174891.95999999996,"y":2545427.2699999996}},{"attributes":{"ID":176481,"DIS_CODE":0,"TOWNNAME":"南區","LI":"白雪里","LIN":" ","STREET":"鹽埕路","SECT":" ","MAREA":" ","LANE":"１０３巷","ALLEY":"３８弄","HOUSE_NO":"４號","E_COORD97":166716.59,"N_COORD97":2540759.4199999999,"ADDRESS":"鹽埕路１０３巷３８弄４號","OBJECTID":176480},"geometry":{"x":166716.58999999985,"y":2540759.4199999999}},{"attributes":{"ID":176482,"DIS_CODE":0,"TOWNNAME":"官田區","LI":"南\u25A0里","LIN":"10鄰","STREET":" ","SECT":" ","MAREA":"南\u25A0","LANE":" ","ALLEY":" ","HOUSE_NO":"１２４號之１","E_COORD97":179164.79000000001,"N_COORD97":2568612.8500000001,"ADDRESS":"南\u25A0１２４號之１","OBJECTID":176481},"geometry":{"x":179164.79000000097,"y":2568612.8500000015}},{"attributes":{"ID":176483,"DIS_CODE":0,"TOWNNAME":"永康區","LI":"復興里","LIN":"10鄰","STREET":"復興路","SECT":" ","MAREA":" ","LANE":" ","ALLEY":" ","HOUSE_NO":"４０２號","E_COORD97":172124.44,"N_COORD97":2544340.7999999998,"ADDRESS":"復興路４０２號","OBJECTID":176482},"geometry":{"x":172124.44000000041,"y":2544340.8000000007}},{"attributes":{"ID":176484,"DIS_CODE":0,"TOWNNAME":"南區","LI":"白雪里","LIN":" ","STREET":"鹽埕路","SECT":" ","MAREA":" ","LANE":"１０３巷","ALLEY":"３８弄","HOUSE_NO":"６號","E_COORD97":166712.63,"N_COORD97":2540759.9500000002,"ADDRESS":"鹽埕路１０３巷３８弄６號","OBJECTID":176483},"geometry":{"x":166712.63000000082,"y":2540759.9500000011}},{"attributes":{"ID":176485,"DIS_CODE":0,"TOWNNAME":"官田區","LI":"南\u25A0里","LIN":"10鄰","STREET":" ","SECT":" ","MAREA":"南\u25A0","LANE":" ","ALLEY":" ","HOUSE_NO":"１５５號之１","E_COORD97":179299.85999999999,"N_COORD97":2568208.8100000001,"ADDRESS":"南\u25A0１５５號之１","OBJECTID":176484},"geometry":{"x":179299.86000000127,"y":2568208.8100000005}},{"attributes":{"ID":176486,"DIS_CODE":0,"TOWNNAME":"官田區","LI":"南\u25A0里","LIN":"10鄰","STREET":" ","SECT":" ","MAREA":"南\u25A0","LANE":" ","ALLEY":" ","HOUSE_NO":"１５５號之２","E_COORD97":179484.04999999999,"N_COORD97":2568237.8700000001,"ADDRESS":"南\u25A0１５５號之２","OBJECTID":176485},"geometry":{"x":179484.05000000168,"y":2568237.8700000029}},{"attributes":{"ID":176487,"DIS_CODE":0,"TOWNNAME":"南區","LI":"白雪里","LIN":" ","STREET":"鹽埕路","SECT":" ","MAREA":" ","LANE":"１０３巷","ALLEY":"３８弄","HOUSE_NO":"８號","E_COORD97":166710.53,"N_COORD97":2540760.7400000002,"ADDRESS":"鹽埕路１０３巷３８弄８號","OBJECTID":176486},"geometry":{"x":166710.53000000119,"y":2540760.7400000002}},{"attributes":{"ID":176488,"DIS_CODE":0,"TOWNNAME":"南區","LI":"白雪里","LIN":" ","STREET":"鹽埕路","SECT":" ","MAREA":" ","LANE":"１０３巷","ALLEY":"３８弄","HOUSE_NO":"１０號","E_COORD97":166706.31,"N_COORD97":2540759.9500000002,"ADDRESS":"鹽埕路１０３巷３８弄１０號","OBJECTID":176487},"geometry":{"x":166706.30999999959,"y":2540759.9500000011}},{"attributes":{"ID":176489,"DIS_CODE":0,"TOWNNAME":"南區","LI":"白雪里","LIN":" ","STREET":"鹽埕路","SECT":" ","MAREA":" ","LANE":"１０３巷","ALLEY":"３８弄","HOUSE_NO":"１２號","E_COORD97":166701.82999999999,"N_COORD97":2540758.8799999999,"ADDRESS":"鹽埕路１０３巷３８弄１２號","OBJECTID":176488},"geometry":{"x":166701.83000000007,"y":2540758.8799999971}},{"attributes":{"ID":176490,"DIS_CODE":0,"TOWNNAME":"南區","LI":"白雪里","LIN":" ","STREET":"鹽埕路","SECT":" ","MAREA":" ","LANE":"１０３巷","ALLEY":"３８弄","HOUSE_NO":"１４號","E_COORD97":166698.14000000001,"N_COORD97":2540759.4199999999,"ADDRESS":"鹽埕路１０３巷３８弄１４號","OBJECTID":176489},"geometry":{"x":166698.14000000153,"y":2540759.4199999999}},{"attributes":{"ID":176491,"DIS_CODE":0,"TOWNNAME":"南區","LI":"白雪里","LIN":" ","STREET":"鹽埕路","SECT":" ","MAREA":" ","LANE":"１０３巷","ALLEY":"３８弄","HOUSE_NO":"１６號","E_COORD97":166695.76999999999,"N_COORD97":2540759.6800000002,"ADDRESS":"鹽埕路１０３巷３８弄１６號","OBJECTID":176490},"geometry":{"x":166695.77000000048,"y":2540759.6799999997}},{"attributes":{"ID":176492,"DIS_CODE":0,"TOWNNAME":"官田區","LI":"南\u25A0里","LIN":"10鄰","STREET":" ","SECT":" ","MAREA":"南\u25A0","LANE":" ","ALLEY":" ","HOUSE_NO":"１５５號","E_COORD97":179188.98999999999,"N_COORD97":2568176.04,"ADDRESS":"南\u25A0１５５號","OBJECTID":176491},"geometry":{"x":179188.99000000115,"y":2568176.0400000028}},{"attributes":{"ID":176493,"DIS_CODE":0,"TOWNNAME":"白河區","LI":"大竹里","LIN":"10鄰","STREET":" ","SECT":" ","MAREA":"大排竹","LANE":" ","ALLEY":" ","HOUSE_NO":"１５４號","E_COORD97":189744.42000000001,"N_COORD97":2585224.8900000001,"ADDRESS":"大排竹１５４號","OBJECTID":176492},"geometry":{"x":189744.42000000179,"y":2585224.8900000006}},{"attributes":{"ID":176494,"DIS_CODE":0,"TOWNNAME":"白河區","LI":"大竹里","LIN":"10鄰","STREET":" ","SECT":" ","MAREA":"大排竹","LANE":" ","ALLEY":" ","HOUSE_NO":"１５５號","E_COORD97":189750.22,"N_COORD97":2585233.4300000002,"ADDRESS":"大排竹１５５號","OBJECTID":176493},"geometry":{"x":189750.21999999974,"y":2585233.4299999997}},{"attributes":{"ID":176495,"DIS_CODE":0,"TOWNNAME":"白河區","LI":"大竹里","LIN":"10鄰","STREET":" ","SECT":" ","MAREA":"大排竹","LANE":" ","ALLEY":" ","HOUSE_NO":"１５６號","E_COORD97":189716.84,"N_COORD97":2585244.2999999998,"ADDRESS":"大排竹１５６號","OBJECTID":176494},"geometry":{"x":189716.84000000078,"y":2585244.3000000026}},{"attributes":{"ID":176496,"DIS_CODE":0,"TOWNNAME":"白河區","LI":"大竹里","LIN":"10鄰","STREET":" ","SECT":" ","MAREA":"大排竹","LANE":" ","ALLEY":" ","HOUSE_NO":"１５８號","E_COORD97":189680.79000000001,"N_COORD97":2585222.1299999999,"ADDRESS":"大排竹１５８號","OBJECTID":176495},"geometry":{"x":189680.79000000004,"y":2585222.1300000027}},{"attributes":{"ID":176497,"DIS_CODE":0,"TOWNNAME":"白河區","LI":"大竹里","LIN":"10鄰","STREET":" ","SECT":" ","MAREA":"大排竹","LANE":" ","ALLEY":" ","HOUSE_NO":"１６０號","E_COORD97":189680.29999999999,"N_COORD97":2585247.3999999999,"ADDRESS":"大排竹１６０號","OBJECTID":176496},"geometry":{"x":189680.29999999981,"y":2585247.4000000004}},{"attributes":{"ID":176498,"DIS_CODE":0,"TOWNNAME":"白河區","LI":"關嶺里","LIN":"14鄰","STREET":" ","SECT":" ","MAREA":"關子嶺","LANE":" ","ALLEY":" ","HOUSE_NO":"１之７號","E_COORD97":201793.51999999999,"N_COORD97":2581760.29,"ADDRESS":"關子嶺１之７號","OBJECTID":176497},"geometry":{"x":201793.52000000048,"y":2581760.290000001}},{"attributes":{"ID":176499,"DIS_CODE":0,"TOWNNAME":"白河區","LI":"關嶺里","LIN":"1鄰","STREET":" ","SECT":" ","MAREA":"關子嶺","LANE":" ","ALLEY":" ","HOUSE_NO":"２０號","E_COORD97":199427.47,"N_COORD97":2581848.1499999999,"ADDRESS":"關子嶺２０號","OBJECTID":176498},"geometry":{"x":199427.47000000067,"y":2581848.1500000022}},{"attributes":{"ID":176500,"DIS_CODE":0,"TOWNNAME":"後壁區","LI":"長安里","LIN":"10鄰","STREET":" ","SECT":" ","MAREA":"中寮","LANE":" ","ALLEY":" ","HOUSE_NO":"１３１號","E_COORD97":184172.16,"N_COORD97":2581311.23,"ADDRESS":"中寮１３１號","OBJECTID":176499},"geometry":{"x":184172.16000000015,"y":2581311.2300000023}},{"attributes":{"ID":176501,"DIS_CODE":0,"TOWNNAME":"南區","LI":"白雪里","LIN":" ","STREET":"鹽埕路","SECT":" ","MAREA":" ","LANE":"１０３巷","ALLEY":"３８弄","HOUSE_NO":"１８號","E_COORD97":166692.35000000001,"N_COORD97":2540759.6800000002,"ADDRESS":"鹽埕路１０３巷３８弄１８號","OBJECTID":176500},"geometry":{"x":166692.35000000056,"y":2540759.6799999997}},{"attributes":{"ID":176502,"DIS_CODE":0,"TOWNNAME":"南區","LI":"白雪里","LIN":" ","STREET":"鹽埕路","SECT":" ","MAREA":" ","LANE":"１０３巷","ALLEY":"３８弄","HOUSE_NO":"２０號","E_COORD97":166679.57999999999,"N_COORD97":2540760.0600000001,"ADDRESS":"鹽埕路１０３巷３８弄２０號","OBJECTID":176501},"geometry":{"x":166679.58000000007,"y":2540760.0600000024}},{"attributes":{"ID":176503,"DIS_CODE":0,"TOWNNAME":"南區","LI":"白雪里","LIN":" ","STREET":"鹽埕路","SECT":" ","MAREA":" ","LANE":"１０３巷","ALLEY":"３８弄","HOUSE_NO":"２２號","E_COORD97":166678.89000000001,"N_COORD97":2540763.2999999998,"ADDRESS":"鹽埕路１０３巷３８弄２２號","OBJECTID":176502},"geometry":{"x":166678.88999999966,"y":2540763.3000000007}},{"attributes":{"ID":176504,"DIS_CODE":0,"TOWNNAME":"南區","LI":"白雪里","LIN":" ","STREET":"鹽埕路","SECT":" ","MAREA":" ","LANE":"１０３巷","ALLEY":"３８弄","HOUSE_NO":"２４號","E_COORD97":166678.19,"N_COORD97":2540767.0099999998,"ADDRESS":"鹽埕路１０３巷３８弄２４號","OBJECTID":176503},"geometry":{"x":166678.18999999948,"y":2540767.0100000016}},{"attributes":{"ID":176505,"DIS_CODE":0,"TOWNNAME":"白河區","LI":"永安里","LIN":"10鄰","STREET":"中山路","SECT":" ","MAREA":" ","LANE":" ","ALLEY":" ","HOUSE_NO":"５１號","E_COORD97":190184.76999999999,"N_COORD97":2583122.1200000001,"ADDRESS":"中山路５１號","OBJECTID":176504},"geometry":{"x":190184.77000000048,"y":2583122.1199999992}},{"attributes":{"ID":176506,"DIS_CODE":0,"TOWNNAME":"仁德區","LI":"太子里","LIN":"10鄰","STREET":"長興路","SECT":" ","MAREA":" ","LANE":" ","ALLEY":" ","HOUSE_NO":"２６號","E_COORD97":174131.41,"N_COORD97":2543605.25,"ADDRESS":"長興路２６號","OBJECTID":176505},"geometry":{"x":174131.41000000015,"y":2543605.25}},{"attributes":{"ID":176507,"DIS_CODE":0,"TOWNNAME":"東區","LI":"裕聖里","LIN":"21鄰","STREET":"裕孝路","SECT":" ","MAREA":" ","LANE":" ","ALLEY":" ","HOUSE_NO":"５１０號","E_COORD97":172406.41,"N_COORD97":2542337.5800000001,"ADDRESS":"裕孝路５１０號","OBJECTID":176506},"geometry":{"x":172406.41000000201,"y":2542337.5800000001}},{"attributes":{"ID":176508,"DIS_CODE":0,"TOWNNAME":"南區","LI":"白雪里","LIN":" ","STREET":"鹽埕路","SECT":" ","MAREA":" ","LANE":"１０３巷","ALLEY":"３８弄","HOUSE_NO":"２６號","E_COORD97":166677.95999999999,"N_COORD97":2540772.1099999999,"ADDRESS":"鹽埕路１０３巷３８弄２６號","OBJECTID":176507},"geometry":{"x":166677.96000000089,"y":2540772.1100000013}},{"attributes":{"ID":176509,"DIS_CODE":0,"TOWNNAME":"南區","LI":"白雪里","LIN":" ","STREET":"鹽埕路","SECT":" ","MAREA":" ","LANE":"１０３巷","ALLEY":"３８弄","HOUSE_NO":"２８號","E_COORD97":166677.95999999999,"N_COORD97":2540775.8100000001,"ADDRESS":"鹽埕路１０３巷３８弄２８號","OBJECTID":176508},"geometry":{"x":166677.96000000089,"y":2540775.8100000024}},{"attributes":{"ID":176510,"DIS_CODE":0,"TOWNNAME":"南區","LI":"白雪里","LIN":" ","STREET":"鹽埕路","SECT":" ","MAREA":" ","LANE":"１０３巷","ALLEY":"３８弄","HOUSE_NO":"３０號","E_COORD97":166677.95999999999,"N_COORD97":2540779.0600000001,"ADDRESS":"鹽埕路１０３巷３８弄３０號","OBJECTID":176509},"geometry":{"x":166677.96000000089,"y":2540779.0600000005}},{"attributes":{"ID":176511,"DIS_CODE":0,"TOWNNAME":"南區","LI":"白雪里","LIN":" ","STREET":"鹽埕路","SECT":" ","MAREA":" ","LANE":"１０３巷","ALLEY":"３８弄","HOUSE_NO":"３２號","E_COORD97":166679.35000000001,"N_COORD97":2540784.3799999999,"ADDRESS":"鹽埕路１０３巷３８弄３２號","OBJECTID":176510},"geometry":{"x":166679.34999999963,"y":2540784.3800000008}},{"attributes":{"ID":176512,"DIS_CODE":0,"TOWNNAME":"南區","LI":"白雪里","LIN":" ","STREET":"鹽埕路","SECT":" ","MAREA":" ","LANE":"１０３巷","ALLEY":"３８弄","HOUSE_NO":"３４號","E_COORD97":166677.73000000001,"N_COORD97":2540787.1600000001,"ADDRESS":"鹽埕路１０３巷３８弄３４號","OBJECTID":176511},"geometry":{"x":166677.73000000045,"y":2540787.160000002}},{"attributes":{"ID":176513,"DIS_CODE":0,"TOWNNAME":"南區","LI":"白雪里","LIN":" ","STREET":"鹽埕路","SECT":" ","MAREA":" ","LANE":"１０３巷","ALLEY":"２８弄","HOUSE_NO":"７號","E_COORD97":166645.95999999999,"N_COORD97":2540795.5,"ADDRESS":"鹽埕路１０３巷２８弄７號","OBJECTID":176512},"geometry":{"x":166645.96000000089,"y":2540795.5}},{"attributes":{"ID":176514,"DIS_CODE":0,"TOWNNAME":"南區","LI":"白雪里","LIN":" ","STREET":"鹽埕路","SECT":" ","MAREA":" ","LANE":"１０３巷","ALLEY":"２８弄","HOUSE_NO":"９號","E_COORD97":166634.59,"N_COORD97":2540796.8900000001,"ADDRESS":"鹽埕路１０３巷２８弄９號","OBJECTID":176513},"geometry":{"x":166634.59000000078,"y":2540796.8900000006}},{"attributes":{"ID":176515,"DIS_CODE":0,"TOWNNAME":"南區","LI":"白雪里","LIN":" ","STREET":"鹽埕路","SECT":" ","MAREA":" ","LANE":"１０３巷","ALLEY":"３８弄","HOUSE_NO":"３６號","E_COORD97":166655.92999999999,"N_COORD97":2540794.5800000001,"ADDRESS":"鹽埕路１０３巷３８弄３６號","OBJECTID":176514},"geometry":{"x":166655.93000000063,"y":2540794.5800000001}},{"attributes":{"ID":176516,"DIS_CODE":0,"TOWNNAME":"南區","LI":"白雪里","LIN":" ","STREET":"鹽埕路","SECT":" ","MAREA":" ","LANE":"１０３巷","ALLEY":"３８弄","HOUSE_NO":"３７號","E_COORD97":166649.48000000001,"N_COORD97":2540714.71,"ADDRESS":"鹽埕路１０３巷３８弄３７號","OBJECTID":176515},"geometry":{"x":166649.48000000138,"y":2540714.7100000046}},{"attributes":{"ID":176517,"DIS_CODE":0,"TOWNNAME":"南區","LI":"白雪里","LIN":" ","STREET":"鹽埕路","SECT":" ","MAREA":" ","LANE":"１０３巷","ALLEY":"３８弄","HOUSE_NO":"３８號","E_COORD97":166655.23000000001,"N_COORD97":2540787.8599999999,"ADDRESS":"鹽埕路１０３巷３８弄３８號","OBJECTID":176516},"geometry":{"x":166655.23000000045,"y":2540787.8600000013}},{"attributes":{"ID":176518,"DIS_CODE":0,"TOWNNAME":"南區","LI":"白雪里","LIN":" ","STREET":"鹽埕路","SECT":" ","MAREA":" ","LANE":"１０３巷","ALLEY":"３８弄","HOUSE_NO":"３９號","E_COORD97":166649.98000000001,"N_COORD97":2540718.6899999999,"ADDRESS":"鹽埕路１０３巷３８弄３９號","OBJECTID":176517},"geometry":{"x":166649.98000000138,"y":2540718.6899999995}},{"attributes":{"ID":176519,"DIS_CODE":0,"TOWNNAME":"南區","LI":"白雪里","LIN":" ","STREET":"鹽埕路","SECT":" ","MAREA":" ","LANE":"１０３巷","ALLEY":"３８弄","HOUSE_NO":"４０號","E_COORD97":166654.76999999999,"N_COORD97":2540783.6899999999,"ADDRESS":"鹽埕路１０３巷３８弄４０號","OBJECTID":176518},"geometry":{"x":166654.77000000142,"y":2540783.6899999995}},{"attributes":{"ID":176520,"DIS_CODE":0,"TOWNNAME":"南區","LI":"白雪里","LIN":" ","STREET":"鹽埕路","SECT":" ","MAREA":" ","LANE":"１０３巷","ALLEY":"３８弄","HOUSE_NO":"４１號","E_COORD97":166650.23000000001,"N_COORD97":2540722.1699999999,"ADDRESS":"鹽埕路１０３巷３８弄４１號","OBJECTID":176519},"geometry":{"x":166650.23000000045,"y":2540722.1700000018}},{"attributes":{"ID":176521,"DIS_CODE":0,"TOWNNAME":"南區","LI":"白雪里","LIN":" ","STREET":"鹽埕路","SECT":" ","MAREA":" ","LANE":"１０３巷","ALLEY":"３８弄","HOUSE_NO":"４２號","E_COORD97":166655,"N_COORD97":2540779.98,"ADDRESS":"鹽埕路１０３巷３８弄４２號","OBJECTID":176520},"geometry":{"x":166655,"y":2540779.9800000004}},{"attributes":{"ID":176522,"DIS_CODE":0,"TOWNNAME":"南區","LI":"白雪里","LIN":" ","STREET":"鹽埕路","SECT":" ","MAREA":" ","LANE":"１０３巷","ALLEY":"３８弄","HOUSE_NO":"４３號","E_COORD97":166651.97,"N_COORD97":2540725.1600000001,"ADDRESS":"鹽埕路１０３巷３８弄４３號","OBJECTID":176521},"geometry":{"x":166651.9700000016,"y":2540725.160000002}},{"attributes":{"ID":176523,"DIS_CODE":0,"TOWNNAME":"南區","LI":"白雪里","LIN":" ","STREET":"鹽埕路","SECT":" ","MAREA":" ","LANE":"１０３巷","ALLEY":"３８弄","HOUSE_NO":"４４號","E_COORD97":166654.76999999999,"N_COORD97":2540776.7400000002,"ADDRESS":"鹽埕路１０３巷３８弄４４號","OBJECTID":176522},"geometry":{"x":166654.77000000142,"y":2540776.7400000002}},{"attributes":{"ID":176524,"DIS_CODE":0,"TOWNNAME":"南區","LI":"白雪里","LIN":" ","STREET":"鹽埕路","SECT":" ","MAREA":" ","LANE":"１０３巷","ALLEY":"３８弄","HOUSE_NO":"４５號","E_COORD97":166651.47,"N_COORD97":2540727.8900000001,"ADDRESS":"鹽埕路１０３巷３８弄４５號","OBJECTID":176523},"geometry":{"x":166651.46999999974,"y":2540727.8900000025}},{"attributes":{"ID":176525,"DIS_CODE":0,"TOWNNAME":"南區","LI":"白雪里","LIN":" ","STREET":"鹽埕路","SECT":" ","MAREA":" ","LANE":"１０３巷","ALLEY":"３８弄","HOUSE_NO":"４６號","E_COORD97":166654.54000000001,"N_COORD97":2540773.0299999998,"ADDRESS":"鹽埕路１０３巷３８弄４６號","OBJECTID":176524},"geometry":{"x":166654.54000000004,"y":2540773.0300000012}},{"attributes":{"ID":176526,"DIS_CODE":0,"TOWNNAME":"南區","LI":"白雪里","LIN":" ","STREET":"鹽埕路","SECT":" ","MAREA":" ","LANE":"１０３巷","ALLEY":"３８弄","HOUSE_NO":"４７號","E_COORD97":166651.97,"N_COORD97":2540732.6200000001,"ADDRESS":"鹽埕路１０３巷３８弄４７號","OBJECTID":176525},"geometry":{"x":166651.9700000016,"y":2540732.6200000048}},{"attributes":{"ID":176527,"DIS_CODE":0,"TOWNNAME":"南區","LI":"白雪里","LIN":" ","STREET":"鹽埕路","SECT":" ","MAREA":" ","LANE":"１０３巷","ALLEY":"３８弄","HOUSE_NO":"４８號","E_COORD97":166654.29999999999,"N_COORD97":2540770.25,"ADDRESS":"鹽埕路１０３巷３８弄４８號","OBJECTID":176526},"geometry":{"x":166654.29999999981,"y":2540770.25}},{"attributes":{"ID":176528,"DIS_CODE":0,"TOWNNAME":"南區","LI":"白雪里","LIN":" ","STREET":"鹽埕路","SECT":" ","MAREA":" ","LANE":"１０３巷","ALLEY":"３８弄","HOUSE_NO":"４９號","E_COORD97":166652.97,"N_COORD97":2540736.3500000001,"ADDRESS":"鹽埕路１０３巷３８弄４９號","OBJECTID":176527},"geometry":{"x":166652.96999999974,"y":2540736.3500000034}},{"attributes":{"ID":176529,"DIS_CODE":0,"TOWNNAME":"南區","LI":"白雪里","LIN":" ","STREET":"鹽埕路","SECT":" ","MAREA":" ","LANE":"１０３巷","ALLEY":"３８弄","HOUSE_NO":"５０號","E_COORD97":166655,"N_COORD97":2540766.0800000001,"ADDRESS":"鹽埕路１０３巷３８弄５０號","OBJECTID":176528},"geometry":{"x":166655,"y":2540766.0800000019}},{"attributes":{"ID":176530,"DIS_CODE":0,"TOWNNAME":"南區","LI":"白雪里","LIN":" ","STREET":"鹽埕路","SECT":" ","MAREA":" ","LANE":"１０３巷","ALLEY":"３８弄","HOUSE_NO":"５１號","E_COORD97":166652.47,"N_COORD97":2540741.0800000001,"ADDRESS":"鹽埕路１０３巷３８弄５１號","OBJECTID":176529},"geometry":{"x":166652.47000000067,"y":2540741.0800000001}},{"attributes":{"ID":176531,"DIS_CODE":0,"TOWNNAME":"南區","LI":"白雪里","LIN":" ","STREET":"鹽埕路","SECT":" ","MAREA":" ","LANE":"１０３巷","ALLEY":"３８弄","HOUSE_NO":"５２號","E_COORD97":166651.98999999999,"N_COORD97":2540761.4500000002,"ADDRESS":"鹽埕路１０３巷３８弄５２號","OBJECTID":176530},"geometry":{"x":166651.99000000022,"y":2540761.4499999993}},{"attributes":{"ID":176532,"DIS_CODE":0,"TOWNNAME":"南區","LI":"白雪里","LIN":" ","STREET":"鹽埕路","SECT":" ","MAREA":" ","LANE":"１０３巷","ALLEY":"３８弄","HOUSE_NO":"５３號","E_COORD97":166651.47,"N_COORD97":2540747.0499999998,"ADDRESS":"鹽埕路１０３巷３８弄５３號","OBJECTID":176531},"geometry":{"x":166651.46999999974,"y":2540747.0500000026}},{"attributes":{"ID":176533,"DIS_CODE":0,"TOWNNAME":"南區","LI":"白雪里","LIN":" ","STREET":"鹽埕路","SECT":" ","MAREA":" ","LANE":"１０３巷","ALLEY":"３８弄","HOUSE_NO":"５４號","E_COORD97":166644.10000000001,"N_COORD97":2540764.0699999998,"ADDRESS":"鹽埕路１０３巷３８弄５４號","OBJECTID":176532},"geometry":{"x":166644.0999999987,"y":2540764.0700000022}},{"attributes":{"ID":176534,"DIS_CODE":0,"TOWNNAME":"南區","LI":"白雪里","LIN":" ","STREET":"鹽埕路","SECT":" ","MAREA":" ","LANE":"１０３巷","ALLEY":"３８弄","HOUSE_NO":"５５號","E_COORD97":166641.48999999999,"N_COORD97":2540738.6800000002,"ADDRESS":"鹽埕路１０３巷３８弄５５號","OBJECTID":176533},"geometry":{"x":166641.49000000022,"y":2540738.6800000016}},{"attributes":{"ID":176535,"DIS_CODE":0,"TOWNNAME":"東區","LI":"裕聖里","LIN":"21鄰","STREET":"裕孝路","SECT":" ","MAREA":" ","LANE":" ","ALLEY":" ","HOUSE_NO":"５１２號","E_COORD97":172400.97,"N_COORD97":2542337.5800000001,"ADDRESS":"裕孝路５１２號","OBJECTID":176534},"geometry":{"x":172400.97000000067,"y":2542337.5800000001}},{"attributes":{"ID":176536,"DIS_CODE":0,"TOWNNAME":"南區","LI":"白雪里","LIN":" ","STREET":"鹽埕路","SECT":" ","MAREA":" ","LANE":"１０３巷","ALLEY":"３８弄","HOUSE_NO":"５６號","E_COORD97":166640.42000000001,"N_COORD97":2540764.5,"ADDRESS":"鹽埕路１０３巷３８弄５６號","OBJECTID":176535},"geometry":{"x":166640.41999999993,"y":2540764.5}},{"attributes":{"ID":176537,"DIS_CODE":0,"TOWNNAME":"永康區","LI":"大灣里","LIN":"10鄰","STREET":"大灣六街","SECT":" ","MAREA":" ","LANE":" ","ALLEY":" ","HOUSE_NO":"１５６號","E_COORD97":174909.09,"N_COORD97":2545435.1299999999,"ADDRESS":"大灣六街１５６號","OBJECTID":176536},"geometry":{"x":174909.09000000078,"y":2545435.129999999}},{"attributes":{"ID":176538,"DIS_CODE":0,"TOWNNAME":"南區","LI":"白雪里","LIN":" ","STREET":"鹽埕路","SECT":" ","MAREA":" ","LANE":"１０３巷","ALLEY":"３８弄","HOUSE_NO":"５７號","E_COORD97":166638.03,"N_COORD97":2540739.98,"ADDRESS":"鹽埕路１０３巷３８弄５７號","OBJECTID":176537},"geometry":{"x":166638.03000000026,"y":2540739.9800000023}},{"attributes":{"ID":176539,"DIS_CODE":0,"TOWNNAME":"東區","LI":"東智里","LIN":"10鄰","STREET":"崇德路","SECT":" ","MAREA":" ","LANE":" ","ALLEY":" ","HOUSE_NO":"９０８號","E_COORD97":170774.59,"N_COORD97":2540225.8599999999,"ADDRESS":"崇德路９０８號","OBJECTID":176538},"geometry":{"x":170774.59000000078,"y":2540225.8599999994}},{"attributes":{"ID":176540,"DIS_CODE":0,"TOWNNAME":"後壁區","LI":"土溝里","LIN":"10鄰","STREET":" ","SECT":" ","MAREA":"土溝","LANE":" ","ALLEY":" ","HOUSE_NO":"９６號","E_COORD97":187657.10000000001,"N_COORD97":2585853.1800000002,"ADDRESS":"土溝９６號","OBJECTID":176539},"geometry":{"x":187657.09999999963,"y":2585853.1800000034}},{"attributes":{"ID":176541,"DIS_CODE":0,"TOWNNAME":"南區","LI":"白雪里","LIN":" ","STREET":"鹽埕路","SECT":" ","MAREA":" ","LANE":"１０３巷","ALLEY":"３８弄","HOUSE_NO":"５８號","E_COORD97":166635.01999999999,"N_COORD97":2540766.0099999998,"ADDRESS":"鹽埕路１０３巷３８弄５８號","OBJECTID":176540},"geometry":{"x":166635.02000000048,"y":2540766.0100000035}},{"attributes":{"ID":176542,"DIS_CODE":0,"TOWNNAME":"南區","LI":"白雪里","LIN":" ","STREET":"鹽埕路","SECT":" ","MAREA":" ","LANE":"１０３巷","ALLEY":"３８弄","HOUSE_NO":"５９號","E_COORD97":166633.48999999999,"N_COORD97":2540741.27,"ADDRESS":"鹽埕路１０３巷３８弄５９號","OBJECTID":176541},"geometry":{"x":166633.49000000022,"y":2540741.2700000014}},{"attributes":{"ID":176543,"DIS_CODE":0,"TOWNNAME":"南區","LI":"白雪里","LIN":" ","STREET":"鹽埕路","SECT":" ","MAREA":" ","LANE":"１０３巷","ALLEY":"３８弄","HOUSE_NO":"６１號","E_COORD97":166628.94,"N_COORD97":2540739.5499999998,"ADDRESS":"鹽埕路１０３巷３８弄６１號","OBJECTID":176542},"geometry":{"x":166628.94000000041,"y":2540739.5500000045}},{"attributes":{"ID":176544,"DIS_CODE":0,"TOWNNAME":"後壁區","LI":"土溝里","LIN":"10鄰","STREET":" ","SECT":" ","MAREA":"土溝","LANE":" ","ALLEY":" ","HOUSE_NO":"９７號之１","E_COORD97":187703.54000000001,"N_COORD97":2585827.6800000002,"ADDRESS":"土溝９７號之１","OBJECTID":176543},"geometry":{"x":187703.54000000004,"y":2585827.6800000016}},{"attributes":{"ID":176545,"DIS_CODE":0,"TOWNNAME":"後壁區","LI":"新嘉里","LIN":"10鄰","STREET":" ","SECT":" ","MAREA":"白沙屯","LANE":" ","ALLEY":" ","HOUSE_NO":"１００號","E_COORD97":179564.17999999999,"N_COORD97":2585545.96,"ADDRESS":"白沙屯１００號","OBJECTID":176544},"geometry":{"x":179564.1799999997,"y":2585545.9600000009}},{"attributes":{"ID":176546,"DIS_CODE":0,"TOWNNAME":"後壁區","LI":"新嘉里","LIN":"10鄰","STREET":" ","SECT":" ","MAREA":"白沙屯","LANE":" ","ALLEY":" ","HOUSE_NO":"１０１號","E_COORD97":179567.03,"N_COORD97":2585526.0699999998,"ADDRESS":"白沙屯１０１號","OBJECTID":176545},"geometry":{"x":179567.03000000026,"y":2585526.0700000022}},{"attributes":{"ID":176547,"DIS_CODE":0,"TOWNNAME":"後壁區","LI":"新嘉里","LIN":"10鄰","STREET":" ","SECT":" ","MAREA":"白沙屯","LANE":" ","ALLEY":" ","HOUSE_NO":"１０３號","E_COORD97":179567.28,"N_COORD97":2585512.1899999999,"ADDRESS":"白沙屯１０３號","OBJECTID":176546},"geometry":{"x":179567.28000000026,"y":2585512.1899999995}},{"attributes":{"ID":176548,"DIS_CODE":0,"TOWNNAME":"後壁區","LI":"新嘉里","LIN":"10鄰","STREET":" ","SECT":" ","MAREA":"白沙屯","LANE":" ","ALLEY":" ","HOUSE_NO":"１０４號","E_COORD97":179599.01999999999,"N_COORD97":2585500,"ADDRESS":"白沙屯１０４號","OBJECTID":176547},"geometry":{"x":179599.01999999955,"y":2585500.0000000019}},{"attributes":{"ID":176549,"DIS_CODE":0,"TOWNNAME":"後壁區","LI":"新嘉里","LIN":"10鄰","STREET":" ","SECT":" ","MAREA":"白沙屯","LANE":" ","ALLEY":" ","HOUSE_NO":"１０５號","E_COORD97":179593.5,"N_COORD97":2585522.25,"ADDRESS":"白沙屯１０５號","OBJECTID":176548},"geometry":{"x":179593.50000000093,"y":2585522.2500000019}},{"attributes":{"ID":176550,"DIS_CODE":0,"TOWNNAME":"後壁區","LI":"新嘉里","LIN":"10鄰","STREET":" ","SECT":" ","MAREA":"白沙屯","LANE":" ","ALLEY":" ","HOUSE_NO":"１０６號","E_COORD97":179602.38,"N_COORD97":2585547.0899999999,"ADDRESS":"白沙屯１０６號","OBJECTID":176549},"geometry":{"x":179602.38000000175,"y":2585547.0900000017}},{"attributes":{"ID":176551,"DIS_CODE":0,"TOWNNAME":"後壁區","LI":"新嘉里","LIN":"10鄰","STREET":" ","SECT":" ","MAREA":"白沙屯","LANE":" ","ALLEY":" ","HOUSE_NO":"１０７號","E_COORD97":179619.70999999999,"N_COORD97":2585531.0600000001,"ADDRESS":"白沙屯１０７號","OBJECTID":176550},"geometry":{"x":179619.70999999996,"y":2585531.0600000024}},{"attributes":{"ID":176552,"DIS_CODE":0,"TOWNNAME":"後壁區","LI":"新嘉里","LIN":"10鄰","STREET":" ","SECT":" ","MAREA":"白沙屯","LANE":" ","ALLEY":" ","HOUSE_NO":"９６號之２","E_COORD97":179576.31,"N_COORD97":2585573.3399999999,"ADDRESS":"白沙屯９６號之２","OBJECTID":176551},"geometry":{"x":179576.30999999959,"y":2585573.3399999999}},{"attributes":{"ID":176553,"DIS_CODE":0,"TOWNNAME":"後壁區","LI":"新嘉里","LIN":"10鄰","STREET":" ","SECT":" ","MAREA":"白沙屯","LANE":" ","ALLEY":" ","HOUSE_NO":"９７號","E_COORD97":179592.98999999999,"N_COORD97":2585566.8500000001,"ADDRESS":"白沙屯９７號","OBJECTID":176552},"geometry":{"x":179592.99000000022,"y":2585566.8499999996}},{"attributes":{"ID":176554,"DIS_CODE":0,"TOWNNAME":"後壁區","LI":"新嘉里","LIN":"10鄰","STREET":" ","SECT":" ","MAREA":"白沙屯","LANE":" ","ALLEY":" ","HOUSE_NO":"９９號","E_COORD97":179566.44,"N_COORD97":2585560.6600000001,"ADDRESS":"白沙屯９９號","OBJECTID":176553},"geometry":{"x":179566.44000000041,"y":2585560.6600000001}},{"attributes":{"ID":176555,"DIS_CODE":0,"TOWNNAME":"南區","LI":"白雪里","LIN":" ","STREET":"鹽埕路","SECT":" ","MAREA":" ","LANE":"１０３巷","ALLEY":"５８弄","HOUSE_NO":"２０號","E_COORD97":166640.42999999999,"N_COORD97":2540719.1800000002,"ADDRESS":"鹽埕路１０３巷５８弄２０號","OBJECTID":176554},"geometry":{"x":166640.43000000156,"y":2540719.1799999997}},{"attributes":{"ID":176556,"DIS_CODE":0,"TOWNNAME":"後壁區","LI":"竹新里","LIN":"10鄰","STREET":" ","SECT":" ","MAREA":"竹圍後","LANE":" ","ALLEY":" ","HOUSE_NO":"１０１號之１","E_COORD97":178706.64000000001,"N_COORD97":2582386.2599999998,"ADDRESS":"竹圍後１０１號之１","OBJECTID":176555},"geometry":{"x":178706.63999999966,"y":2582386.2599999998}},{"attributes":{"ID":176557,"DIS_CODE":0,"TOWNNAME":"南區","LI":"白雪里","LIN":" ","STREET":"鹽埕路","SECT":" ","MAREA":" ","LANE":"１０３巷","ALLEY":"５８弄","HOUSE_NO":"２２號","E_COORD97":166636.94,"N_COORD97":2540718.8100000001,"ADDRESS":"鹽埕路１０３巷５８弄２２號","OBJECTID":176556},"geometry":{"x":166636.94000000041,"y":2540718.8100000005}},{"attributes":{"ID":176558,"DIS_CODE":0,"TOWNNAME":"後壁區","LI":"竹新里","LIN":"10鄰","STREET":" ","SECT":" ","MAREA":"竹圍後","LANE":" ","ALLEY":" ","HOUSE_NO":"１０５號之２","E_COORD97":178652.98999999999,"N_COORD97":2582386.2799999998,"ADDRESS":"竹圍後１０５號之２","OBJECTID":176557},"geometry":{"x":178652.99000000115,"y":2582386.2799999993}},{"attributes":{"ID":176559,"DIS_CODE":0,"TOWNNAME":"後壁區","LI":"竹新里","LIN":"10鄰","STREET":" ","SECT":" ","MAREA":"竹圍後","LANE":" ","ALLEY":" ","HOUSE_NO":"１０５號之３","E_COORD97":178647.03,"N_COORD97":2582387.1899999999,"ADDRESS":"竹圍後１０５號之３","OBJECTID":176558},"geometry":{"x":178647.03000000026,"y":2582387.1899999995}},{"attributes":{"ID":176560,"DIS_CODE":0,"TOWNNAME":"佳里區","LI":"安西里","LIN":"15鄰","STREET":"和平街","SECT":" ","MAREA":" ","LANE":" ","ALLEY":" ","HOUSE_NO":"２９６號","E_COORD97":165219.23000000001,"N_COORD97":2562491.1600000001,"ADDRESS":"和平街２９６號","OBJECTID":176559},"geometry":{"x":165219.23000000138,"y":2562491.160000002}},{"attributes":{"ID":176561,"DIS_CODE":0,"TOWNNAME":"後壁區","LI":"竹新里","LIN":"10鄰","STREET":" ","SECT":" ","MAREA":"竹圍後","LANE":" ","ALLEY":" ","HOUSE_NO":"１０５號之６","E_COORD97":178634.60000000001,"N_COORD97":2582394.4900000002,"ADDRESS":"竹圍後１０５號之６","OBJECTID":176560},"geometry":{"x":178634.60000000056,"y":2582394.4900000021}},{"attributes":{"ID":176562,"DIS_CODE":0,"TOWNNAME":"佳里區","LI":"安西里","LIN":"15鄰","STREET":"和平街","SECT":" ","MAREA":" ","LANE":" ","ALLEY":" ","HOUSE_NO":"２９９號","E_COORD97":165186.78,"N_COORD97":2562461.0299999998,"ADDRESS":"和平街２９９號","OBJECTID":176561},"geometry":{"x":165186.78000000026,"y":2562461.0300000012}},{"attributes":{"ID":176563,"DIS_CODE":0,"TOWNNAME":"南區","LI":"白雪里","LIN":" ","STREET":"鹽埕路","SECT":" ","MAREA":" ","LANE":"１０３巷","ALLEY":"５８弄","HOUSE_NO":"２４號","E_COORD97":166633.70000000001,"N_COORD97":2540719.2400000002,"ADDRESS":"鹽埕路１０３巷５８弄２４號","OBJECTID":176562},"geometry":{"x":166633.70000000019,"y":2540719.2400000002}},{"attributes":{"ID":176564,"DIS_CODE":0,"TOWNNAME":"南區","LI":"白雪里","LIN":" ","STREET":"鹽埕路","SECT":" ","MAREA":" ","LANE":"１０３巷","ALLEY":"５８弄","HOUSE_NO":"２６號","E_COORD97":166628.73000000001,"N_COORD97":2540720.1099999999,"ADDRESS":"鹽埕路１０３巷５８弄２６號","OBJECTID":176563},"geometry":{"x":166628.73000000045,"y":2540720.1099999994}},{"attributes":{"ID":176565,"DIS_CODE":0,"TOWNNAME":"南區","LI":"白雪里","LIN":" ","STREET":"鹽埕路","SECT":" ","MAREA":" ","LANE":"１０３巷","ALLEY":"５８弄","HOUSE_NO":"２８號","E_COORD97":166624.62,"N_COORD97":2540720.3199999998,"ADDRESS":"鹽埕路１０３巷５８弄２８號","OBJECTID":176564},"geometry":{"x":166624.62000000104,"y":2540720.320000004}},{"attributes":{"ID":176566,"DIS_CODE":0,"TOWNNAME":"南區","LI":"白雪里","LIN":" ","STREET":"鹽埕路","SECT":" ","MAREA":" ","LANE":"１０３巷","ALLEY":"５８弄","HOUSE_NO":"２７號","E_COORD97":166646.75,"N_COORD97":2540675.9100000001,"ADDRESS":"鹽埕路１０３巷５８弄２７號","OBJECTID":176565},"geometry":{"x":166646.75,"y":2540675.910000002}},{"attributes":{"ID":176567,"DIS_CODE":0,"TOWNNAME":"南區","LI":"白雪里","LIN":" ","STREET":"鹽埕路","SECT":" ","MAREA":" ","LANE":"１０３巷","ALLEY":"５８弄","HOUSE_NO":"２９號","E_COORD97":166646.75,"N_COORD97":2540680.4399999999,"ADDRESS":"鹽埕路１０３巷５８弄２９號","OBJECTID":176566},"geometry":{"x":166646.75,"y":2540680.4399999995}},{"attributes":{"ID":176568,"DIS_CODE":0,"TOWNNAME":"南區","LI":"白雪里","LIN":" ","STREET":"鹽埕路","SECT":" ","MAREA":" ","LANE":"１０３巷","ALLEY":"５８弄","HOUSE_NO":"３１號","E_COORD97":166646.13,"N_COORD97":2540682.7000000002,"ADDRESS":"鹽埕路１０３巷５８弄３１號","OBJECTID":176567},"geometry":{"x":166646.13000000082,"y":2540682.700000003}},{"attributes":{"ID":176569,"DIS_CODE":0,"TOWNNAME":"南區","LI":"白雪里","LIN":" ","STREET":"鹽埕路","SECT":" ","MAREA":" ","LANE":"１０３巷","ALLEY":"５８弄","HOUSE_NO":"３３號","E_COORD97":166654.89999999999,"N_COORD97":2540691.9300000002,"ADDRESS":"鹽埕路１０３巷５８弄３３號","OBJECTID":176568},"geometry":{"x":166654.90000000224,"y":2540691.9300000034}},{"attributes":{"ID":176570,"DIS_CODE":0,"TOWNNAME":"南區","LI":"白雪里","LIN":" ","STREET":"鹽埕路","SECT":" ","MAREA":" ","LANE":"１０３巷","ALLEY":"５８弄","HOUSE_NO":"３５號","E_COORD97":166650.48999999999,"N_COORD97":2540692.1600000001,"ADDRESS":"鹽埕路１０３巷５８弄３５號","OBJECTID":176569},"geometry":{"x":166650.49000000022,"y":2540692.160000002}},{"attributes":{"ID":176571,"DIS_CODE":0,"TOWNNAME":"南區","LI":"白雪里","LIN":" ","STREET":"鹽埕路","SECT":" ","MAREA":" ","LANE":"１０３巷","ALLEY":"５８弄","HOUSE_NO":"３７號","E_COORD97":166645.84,"N_COORD97":2540693.7799999998,"ADDRESS":"鹽埕路１０３巷５８弄３７號","OBJECTID":176570},"geometry":{"x":166645.83999999985,"y":2540693.7800000012}},{"attributes":{"ID":176572,"DIS_CODE":0,"TOWNNAME":"南區","LI":"白雪里","LIN":" ","STREET":"鹽埕路","SECT":" ","MAREA":" ","LANE":"１０３巷","ALLEY":"５８弄","HOUSE_NO":"３９號","E_COORD97":166642.13,"N_COORD97":2540693.7799999998,"ADDRESS":"鹽埕路１０３巷５８弄３９號","OBJECTID":176571},"geometry":{"x":166642.12999999989,"y":2540693.7800000012}},{"attributes":{"ID":176573,"DIS_CODE":0,"TOWNNAME":"南區","LI":"白雪里","LIN":" ","STREET":"鹽埕路","SECT":" ","MAREA":" ","LANE":"１０３巷","ALLEY":"５８弄","HOUSE_NO":"４１號","E_COORD97":166638.64000000001,"N_COORD97":2540694.25,"ADDRESS":"鹽埕路１０３巷５８弄４１號","OBJECTID":176572},"geometry":{"x":166638.63999999966,"y":2540694.2500000019}},{"attributes":{"ID":176574,"DIS_CODE":0,"TOWNNAME":"仁德區","LI":"太子里","LIN":"10鄰","STREET":"長興路","SECT":" ","MAREA":" ","LANE":"１２巷","ALLEY":" ","HOUSE_NO":"１號","E_COORD97":174148.51000000001,"N_COORD97":2543548.2599999998,"ADDRESS":"長興路１２巷１號","OBJECTID":176573},"geometry":{"x":174148.51000000071,"y":2543548.2600000016}},{"attributes":{"ID":176575,"DIS_CODE":0,"TOWNNAME":"東區","LI":"崇文里","LIN":"24鄰","STREET":"崇德二十一街","SECT":" ","MAREA":" ","LANE":" ","ALLEY":" ","HOUSE_NO":"８６號","E_COORD97":171040.67999999999,"N_COORD97":2540850.5299999998,"ADDRESS":"崇德二十一街８６號","OBJECTID":176574},"geometry":{"x":171040.6799999997,"y":2540850.5300000012}},{"attributes":{"ID":176576,"DIS_CODE":0,"TOWNNAME":"東區","LI":"崇文里","LIN":"24鄰","STREET":"崇德二十一街","SECT":" ","MAREA":" ","LANE":" ","ALLEY":" ","HOUSE_NO":"８８號","E_COORD97":171044.85999999999,"N_COORD97":2540850.5299999998,"ADDRESS":"崇德二十一街８８號","OBJECTID":176575},"geometry":{"x":171044.86000000034,"y":2540850.5300000012}},{"attributes":{"ID":176577,"DIS_CODE":0,"TOWNNAME":"東區","LI":"崇文里","LIN":"24鄰","STREET":"崇德二十一街","SECT":" ","MAREA":" ","LANE":" ","ALLEY":" ","HOUSE_NO":"９０號","E_COORD97":171049.23999999999,"N_COORD97":2540850.5299999998,"ADDRESS":"崇德二十一街９０號","OBJECTID":176576},"geometry":{"x":171049.24000000022,"y":2540850.5300000012}},{"attributes":{"ID":176578,"DIS_CODE":0,"TOWNNAME":"東區","LI":"崇文里","LIN":"24鄰","STREET":"崇德二十一街","SECT":" ","MAREA":" ","LANE":" ","ALLEY":" ","HOUSE_NO":"９８號","E_COORD97":171069.29000000001,"N_COORD97":2540849.3300000001,"ADDRESS":"崇德二十一街９８號","OBJECTID":176577},"geometry":{"x":171069.29000000004,"y":2540849.3300000019}},{"attributes":{"ID":176579,"DIS_CODE":0,"TOWNNAME":"佳里區","LI":"建南里","LIN":"24鄰","STREET":"佳南路","SECT":" ","MAREA":" ","LANE":" ","ALLEY":" ","HOUSE_NO":"５３６號","E_COORD97":165409.23000000001,"N_COORD97":2560972.79,"ADDRESS":"佳南路５３６號","OBJECTID":176578},"geometry":{"x":165409.23000000045,"y":2560972.7899999991}},{"attributes":{"ID":176580,"DIS_CODE":0,"TOWNNAME":"永康區","LI":"永康里","LIN":"24鄰","STREET":"永正路","SECT":" ","MAREA":" ","LANE":" ","ALLEY":" ","HOUSE_NO":"２７號","E_COORD97":173555.48000000001,"N_COORD97":2547325.2400000002,"ADDRESS":"永正路２７號","OBJECTID":176579},"geometry":{"x":173555.48000000231,"y":2547325.2400000039}},{"attributes":{"ID":176581,"DIS_CODE":0,"TOWNNAME":"永康區","LI":"永康里","LIN":"24鄰","STREET":"永正路","SECT":" ","MAREA":" ","LANE":" ","ALLEY":" ","HOUSE_NO":"１號","E_COORD97":173568.64999999999,"N_COORD97":2547270.6600000001,"ADDRESS":"永正路１號","OBJECTID":176580},"geometry":{"x":173568.65000000037,"y":2547270.6600000001}},{"attributes":{"ID":176582,"DIS_CODE":0,"TOWNNAME":"永康區","LI":"永康里","LIN":"24鄰","STREET":"永正路","SECT":" ","MAREA":" ","LANE":" ","ALLEY":" ","HOUSE_NO":"３１號","E_COORD97":173556.84,"N_COORD97":2547334.4900000002,"ADDRESS":"永正路３１號","OBJECTID":176581},"geometry":{"x":173556.83999999985,"y":2547334.4900000021}},{"attributes":{"ID":176583,"DIS_CODE":0,"TOWNNAME":"永康區","LI":"崑山里","LIN":"24鄰","STREET":"大仁街","SECT":" ","MAREA":" ","LANE":" ","ALLEY":" ","HOUSE_NO":"６６號","E_COORD97":173822.37,"N_COORD97":2544706.8300000001,"ADDRESS":"大仁街６６號","OBJECTID":176582},"geometry":{"x":173822.37000000104,"y":2544706.8300000038}},{"attributes":{"ID":176584,"DIS_CODE":0,"TOWNNAME":"南區","LI":"田寮里","LIN":"24鄰","STREET":"大成路","SECT":"二段","MAREA":" ","LANE":" ","ALLEY":" ","HOUSE_NO":"１８號","E_COORD97":167670.31,"N_COORD97":2541749.1699999999,"ADDRESS":"大成路二段１８號","OBJECTID":176583},"geometry":{"x":167670.31000000052,"y":2541749.1700000018}},{"attributes":{"ID":176585,"DIS_CODE":0,"TOWNNAME":"南區","LI":"白雪里","LIN":" ","STREET":"鹽埕路","SECT":" ","MAREA":" ","LANE":"１０３巷","ALLEY":"５８弄","HOUSE_NO":"４３號","E_COORD97":166635.39000000001,"N_COORD97":2540693.7799999998,"ADDRESS":"鹽埕路１０３巷５８弄４３號","OBJECTID":176584},"geometry":{"x":166635.38999999873,"y":2540693.7800000012}},{"attributes":{"ID":176586,"DIS_CODE":0,"TOWNNAME":"南區","LI":"白雪里","LIN":" ","STREET":"鹽埕路","SECT":" ","MAREA":" ","LANE":"１０３巷","ALLEY":"５８弄","HOUSE_NO":"４５號","E_COORD97":166631.67999999999,"N_COORD97":2540693.0899999999,"ADDRESS":"鹽埕路１０３巷５８弄４５號","OBJECTID":176585},"geometry":{"x":166631.6799999997,"y":2540693.0899999999}},{"attributes":{"ID":176587,"DIS_CODE":0,"TOWNNAME":"南區","LI":"白雪里","LIN":" ","STREET":"鹽埕路","SECT":" ","MAREA":" ","LANE":"１０３巷","ALLEY":"５８弄","HOUSE_NO":"４７號","E_COORD97":166627.95999999999,"N_COORD97":2540694.0099999998,"ADDRESS":"鹽埕路１０３巷５８弄４７號","OBJECTID":176586},"geometry":{"x":166627.95999999996,"y":2540694.0099999998}},{"attributes":{"ID":176588,"DIS_CODE":0,"TOWNNAME":"南區","LI":"白雪里","LIN":" ","STREET":"鹽埕路","SECT":" ","MAREA":" ","LANE":"１０３巷","ALLEY":"５８弄","HOUSE_NO":"４９號","E_COORD97":166622.62,"N_COORD97":2540693.5499999998,"ADDRESS":"鹽埕路１０３巷５８弄４９號","OBJECTID":176587},"geometry":{"x":166622.62000000197,"y":2540693.5500000026}},{"attributes":{"ID":176589,"DIS_CODE":0,"TOWNNAME":"安南區","LI":"海東里","LIN":"10鄰","STREET":"海佃路","SECT":"二段","MAREA":" ","LANE":" ","ALLEY":" ","HOUSE_NO":"４５９號之６","E_COORD97":166707.35999999999,"N_COORD97":2549060.4500000002,"ADDRESS":"海佃路二段４５９號之６","OBJECTID":176588},"geometry":{"x":166707.36000000034,"y":2549060.4499999993}},{"attributes":{"ID":176590,"DIS_CODE":0,"TOWNNAME":"安南區","LI":"安西里","LIN":"10鄰","STREET":"安和路","SECT":"一段","MAREA":" ","LANE":" ","ALLEY":" ","HOUSE_NO":"３９７號","E_COORD97":169301.60999999999,"N_COORD97":2548364.1400000001,"ADDRESS":"安和路一段３９７號","OBJECTID":176589},"geometry":{"x":169301.61000000127,"y":2548364.1400000025}},{"attributes":{"ID":176591,"DIS_CODE":0,"TOWNNAME":"安南區","LI":"安西里","LIN":"10鄰","STREET":"安和路","SECT":"一段","MAREA":" ","LANE":" ","ALLEY":" ","HOUSE_NO":"３９７號之１","E_COORD97":169305.95000000001,"N_COORD97":2548365.1800000002,"ADDRESS":"安和路一段３９７號之１","OBJECTID":176590},"geometry":{"x":169305.95000000112,"y":2548365.1799999997}},{"attributes":{"ID":176592,"DIS_CODE":0,"TOWNNAME":"永康區","LI":"大灣里","LIN":"10鄰","STREET":"大灣路","SECT":" ","MAREA":" ","LANE":" ","ALLEY":" ","HOUSE_NO":"２６６號","E_COORD97":174952.57999999999,"N_COORD97":2545329.98,"ADDRESS":"大灣路２６６號","OBJECTID":176591},"geometry":{"x":174952.58000000007,"y":2545329.9799999986}},{"attributes":{"ID":176593,"DIS_CODE":0,"TOWNNAME":"南區","LI":"白雪里","LIN":" ","STREET":"鹽埕路","SECT":" ","MAREA":" ","LANE":"１０３巷","ALLEY":"５８弄","HOUSE_NO":"５１號","E_COORD97":166619.14000000001,"N_COORD97":2540693.0899999999,"ADDRESS":"鹽埕路１０３巷５８弄５１號","OBJECTID":176592},"geometry":{"x":166619.1400000006,"y":2540693.0899999999}},{"attributes":{"ID":176594,"DIS_CODE":0,"TOWNNAME":"南區","LI":"白雪里","LIN":" ","STREET":"鹽埕路","SECT":" ","MAREA":" ","LANE":"１０３巷","ALLEY":"５８弄","HOUSE_NO":"５３號","E_COORD97":166621.32000000001,"N_COORD97":2540684.3900000001,"ADDRESS":"鹽埕路１０３巷５８弄５３號","OBJECTID":176593},"geometry":{"x":166621.32000000216,"y":2540684.3900000025}},{"attributes":{"ID":176595,"DIS_CODE":0,"TOWNNAME":"南區","LI":"白雪里","LIN":" ","STREET":"鹽埕路","SECT":" ","MAREA":" ","LANE":"１０３巷","ALLEY":"５８弄","HOUSE_NO":"５５號","E_COORD97":166621.81,"N_COORD97":2540679.8199999998,"ADDRESS":"鹽埕路１０３巷５８弄５５號","OBJECTID":176594},"geometry":{"x":166621.80999999959,"y":2540679.8200000022}},{"attributes":{"ID":176596,"DIS_CODE":0,"TOWNNAME":"南區","LI":"白雪里","LIN":" ","STREET":"鹽埕路","SECT":" ","MAREA":" ","LANE":"１０３巷","ALLEY":"５８弄","HOUSE_NO":"５７號","E_COORD97":166622.42999999999,"N_COORD97":2540677.1400000001,"ADDRESS":"鹽埕路１０３巷５８弄５７號","OBJECTID":176595},"geometry":{"x":166622.43000000063,"y":2540677.1400000006}},{"attributes":{"ID":176597,"DIS_CODE":0,"TOWNNAME":"永康區","LI":"大灣里","LIN":"10鄰","STREET":"大灣六街","SECT":" ","MAREA":" ","LANE":" ","ALLEY":" ","HOUSE_NO":"１４８號","E_COORD97":174932.54000000001,"N_COORD97":2545424.6200000001,"ADDRESS":"大灣六街１４８號","OBJECTID":176596},"geometry":{"x":174932.54000000004,"y":2545424.6199999992}},{"attributes":{"ID":176598,"DIS_CODE":0,"TOWNNAME":"永康區","LI":"大灣里","LIN":"10鄰","STREET":"大灣六街","SECT":" ","MAREA":" ","LANE":" ","ALLEY":" ","HOUSE_NO":"１０３號","E_COORD97":174904.01000000001,"N_COORD97":2545421.02,"ADDRESS":"大灣六街１０３號","OBJECTID":176597},"geometry":{"x":174904.01000000164,"y":2545421.0200000014}},{"attributes":{"ID":176599,"DIS_CODE":0,"TOWNNAME":"永康區","LI":"大灣里","LIN":"10鄰","STREET":"大灣六街","SECT":" ","MAREA":" ","LANE":" ","ALLEY":" ","HOUSE_NO":"９７號","E_COORD97":174923.06,"N_COORD97":2545407.3500000001,"ADDRESS":"大灣六街９７號","OBJECTID":176598},"geometry":{"x":174923.05999999959,"y":2545407.3499999996}},{"attributes":{"ID":176600,"DIS_CODE":0,"TOWNNAME":"永康區","LI":"大灣里","LIN":"10鄰","STREET":"大灣六街","SECT":" ","MAREA":" ","LANE":" ","ALLEY":" ","HOUSE_NO":"１６２號","E_COORD97":174899.37,"N_COORD97":2545441.8799999999,"ADDRESS":"大灣六街１６２號","OBJECTID":176599},"geometry":{"x":174899.37000000011,"y":2545441.8800000008}},{"attributes":{"ID":176601,"DIS_CODE":0,"TOWNNAME":"永康區","LI":"大灣里","LIN":"10鄰","STREET":"大灣六街","SECT":" ","MAREA":" ","LANE":" ","ALLEY":" ","HOUSE_NO":"８３號","E_COORD97":174964.64000000001,"N_COORD97":2545380.9300000002,"ADDRESS":"大灣六街８３號","OBJECTID":176600},"geometry":{"x":174964.6400000006,"y":2545380.9300000016}}]}