{"displayFieldName":"TOWNNAME","fieldAliases":{"ID":"ID","DIS_CODE":"DIS_CODE","TOWNNAME":"TOWNNAME","LI":"LI","LIN":"LIN","STREET":"STREET","SECT":"SECT","MAREA":"MAREA","LANE":"LANE","ALLEY":"ALLEY","HOUSE_NO":"HOUSE_NO","E_COORD97":"E_COORD97","N_COORD97":"N_COORD97","ADDRESS":"ADDRESS","OBJECTID":"OBJECTID"},"geometryType":"esriGeometryPoint","spatialReference":{"wkid":102443,"latestWkid":3826},"fields":[{"name":"ID","type":"esriFieldTypeDouble","alias":"ID"},{"name":"DIS_CODE","type":"esriFieldTypeInteger","alias":"DIS_CODE"},{"name":"TOWNNAME","type":"esriFieldTypeString","alias":"TOWNNAME","length":8},{"name":"LI","type":"esriFieldTypeString","alias":"LI","length":8},{"name":"LIN","type":"esriFieldTypeString","alias":"LIN","length":12},{"name":"STREET","type":"esriFieldTypeString","alias":"STREET","length":20},{"name":"SECT","type":"esriFieldTypeString","alias":"SECT","length":8},{"name":"MAREA","type":"esriFieldTypeString","alias":"MAREA","length":12},{"name":"LANE","type":"esriFieldTypeString","alias":"LANE","length":10},{"name":"ALLEY","type":"esriFieldTypeString","alias":"ALLEY","length":10},{"name":"HOUSE_NO","type":"esriFieldTypeString","alias":"HOUSE_NO","length":20},{"name":"E_COORD97","type":"esriFieldTypeDouble","alias":"E_COORD97"},{"name":"N_COORD97","type":"esriFieldTypeDouble","alias":"N_COORD97"},{"name":"ADDRESS","type":"esriFieldTypeString","alias":"ADDRESS","length":50},{"name":"OBJECTID","type":"esriFieldTypeOID","alias":"OBJECTID"}],"features":[{"attributes":{"ID":202402,"DIS_CODE":0,"TOWNNAME":"將軍區","LI":"將富里","LIN":"3鄰","STREET":" ","SECT":" ","MAREA":"將富","LANE":" ","ALLEY":" ","HOUSE_NO":"２８之１２號","E_COORD97":161610.64000000001,"N_COORD97":2568502.8199999998,"ADDRESS":"將富２８之１２號","OBJECTID":202401},"geometry":{"x":161610.63999999966,"y":2568502.8200000003}},{"attributes":{"ID":202403,"DIS_CODE":0,"TOWNNAME":"將軍區","LI":"將富里","LIN":"3鄰","STREET":" ","SECT":" ","MAREA":"將富","LANE":" ","ALLEY":" ","HOUSE_NO":"２８之１３號","E_COORD97":161605.98000000001,"N_COORD97":2568504.4399999999,"ADDRESS":"將富２８之１３號","OBJECTID":202402},"geometry":{"x":161605.97999999952,"y":2568504.4399999995}},{"attributes":{"ID":202404,"DIS_CODE":0,"TOWNNAME":"將軍區","LI":"將富里","LIN":"3鄰","STREET":" ","SECT":" ","MAREA":"將富","LANE":" ","ALLEY":" ","HOUSE_NO":"２８之１號","E_COORD97":161662.88,"N_COORD97":2568512.3999999999,"ADDRESS":"將富２８之１號","OBJECTID":202403},"geometry":{"x":161662.88000000082,"y":2568512.4000000004}},{"attributes":{"ID":202405,"DIS_CODE":0,"TOWNNAME":"將軍區","LI":"將富里","LIN":"3鄰","STREET":" ","SECT":" ","MAREA":"將富","LANE":" ","ALLEY":" ","HOUSE_NO":"２８號","E_COORD97":161687.01000000001,"N_COORD97":2568505.2400000002,"ADDRESS":"將富２８號","OBJECTID":202404},"geometry":{"x":161687.01000000071,"y":2568505.2400000021}},{"attributes":{"ID":202406,"DIS_CODE":0,"TOWNNAME":"將軍區","LI":"將富里","LIN":"3鄰","STREET":" ","SECT":" ","MAREA":"將富","LANE":" ","ALLEY":" ","HOUSE_NO":"２９號","E_COORD97":161682.20000000001,"N_COORD97":2568540.7799999998,"ADDRESS":"將富２９號","OBJECTID":202405},"geometry":{"x":161682.19999999925,"y":2568540.7800000031}},{"attributes":{"ID":202407,"DIS_CODE":0,"TOWNNAME":"將軍區","LI":"將富里","LIN":"3鄰","STREET":" ","SECT":" ","MAREA":"將富","LANE":" ","ALLEY":" ","HOUSE_NO":"３０號","E_COORD97":161668.35999999999,"N_COORD97":2568547.1400000001,"ADDRESS":"將富３０號","OBJECTID":202406},"geometry":{"x":161668.36000000127,"y":2568547.1400000025}},{"attributes":{"ID":202408,"DIS_CODE":0,"TOWNNAME":"將軍區","LI":"將富里","LIN":"3鄰","STREET":" ","SECT":" ","MAREA":"將富","LANE":" ","ALLEY":" ","HOUSE_NO":"３２之１號","E_COORD97":161601.39000000001,"N_COORD97":2568535.3700000001,"ADDRESS":"將富３２之１號","OBJECTID":202407},"geometry":{"x":161601.3900000006,"y":2568535.3700000048}},{"attributes":{"ID":202409,"DIS_CODE":0,"TOWNNAME":"將軍區","LI":"將富里","LIN":"3鄰","STREET":" ","SECT":" ","MAREA":"將富","LANE":" ","ALLEY":" ","HOUSE_NO":"３２之２號","E_COORD97":161584.09,"N_COORD97":2568532.2999999998,"ADDRESS":"將富３２之２號","OBJECTID":202408},"geometry":{"x":161584.08999999985,"y":2568532.3000000045}},{"attributes":{"ID":202410,"DIS_CODE":0,"TOWNNAME":"將軍區","LI":"將富里","LIN":"3鄰","STREET":" ","SECT":" ","MAREA":"將富","LANE":" ","ALLEY":" ","HOUSE_NO":"３２號","E_COORD97":161583.04000000001,"N_COORD97":2568563.5299999998,"ADDRESS":"將富３２號","OBJECTID":202409},"geometry":{"x":161583.04000000004,"y":2568563.5300000012}},{"attributes":{"ID":202411,"DIS_CODE":0,"TOWNNAME":"將軍區","LI":"將富里","LIN":"3鄰","STREET":" ","SECT":" ","MAREA":"將富","LANE":" ","ALLEY":" ","HOUSE_NO":"３３之１號","E_COORD97":161542.32999999999,"N_COORD97":2568547,"ADDRESS":"將富３３之１號","OBJECTID":202410},"geometry":{"x":161542.33000000194,"y":2568547.0000000037}},{"attributes":{"ID":202412,"DIS_CODE":0,"TOWNNAME":"將軍區","LI":"將貴里","LIN":"3鄰","STREET":" ","SECT":" ","MAREA":"將貴","LANE":" ","ALLEY":" ","HOUSE_NO":"２４號","E_COORD97":161884.45000000001,"N_COORD97":2568350.6299999999,"ADDRESS":"將貴２４號","OBJECTID":202411},"geometry":{"x":161884.45000000112,"y":2568350.629999999}},{"attributes":{"ID":202413,"DIS_CODE":0,"TOWNNAME":"將軍區","LI":"將貴里","LIN":"3鄰","STREET":" ","SECT":" ","MAREA":"將貴","LANE":" ","ALLEY":" ","HOUSE_NO":"２５號","E_COORD97":161897.85000000001,"N_COORD97":2568360.77,"ADDRESS":"將貴２５號","OBJECTID":202412},"geometry":{"x":161897.85000000056,"y":2568360.7699999996}},{"attributes":{"ID":202414,"DIS_CODE":0,"TOWNNAME":"將軍區","LI":"將貴里","LIN":"3鄰","STREET":" ","SECT":" ","MAREA":"將貴","LANE":" ","ALLEY":" ","HOUSE_NO":"２６號","E_COORD97":161921.67000000001,"N_COORD97":2568357.73,"ADDRESS":"將貴２６號","OBJECTID":202413},"geometry":{"x":161921.67000000086,"y":2568357.7300000004}},{"attributes":{"ID":202415,"DIS_CODE":0,"TOWNNAME":"將軍區","LI":"將貴里","LIN":"3鄰","STREET":" ","SECT":" ","MAREA":"將貴","LANE":" ","ALLEY":" ","HOUSE_NO":"２７號","E_COORD97":161941.29999999999,"N_COORD97":2568358.8100000001,"ADDRESS":"將貴２７號","OBJECTID":202414},"geometry":{"x":161941.30000000075,"y":2568358.8100000042}},{"attributes":{"ID":202416,"DIS_CODE":0,"TOWNNAME":"將軍區","LI":"將貴里","LIN":"3鄰","STREET":" ","SECT":" ","MAREA":"將貴","LANE":" ","ALLEY":" ","HOUSE_NO":"２８之１號","E_COORD97":161958.70999999999,"N_COORD97":2568349.8700000001,"ADDRESS":"將貴２８之１號","OBJECTID":202415},"geometry":{"x":161958.71000000089,"y":2568349.8700000029}},{"attributes":{"ID":202417,"DIS_CODE":0,"TOWNNAME":"將軍區","LI":"將貴里","LIN":"3鄰","STREET":" ","SECT":" ","MAREA":"將貴","LANE":" ","ALLEY":" ","HOUSE_NO":"２８號","E_COORD97":161964.56,"N_COORD97":2568359.1899999999,"ADDRESS":"將貴２８號","OBJECTID":202416},"geometry":{"x":161964.56000000052,"y":2568359.1900000013}},{"attributes":{"ID":202418,"DIS_CODE":0,"TOWNNAME":"將軍區","LI":"將貴里","LIN":"3鄰","STREET":" ","SECT":" ","MAREA":"將貴","LANE":" ","ALLEY":" ","HOUSE_NO":"２９號","E_COORD97":161981.20000000001,"N_COORD97":2568359.6899999999,"ADDRESS":"將貴２９號","OBJECTID":202417},"geometry":{"x":161981.20000000112,"y":2568359.6900000013}},{"attributes":{"ID":202419,"DIS_CODE":0,"TOWNNAME":"將軍區","LI":"廣山里","LIN":"3鄰","STREET":" ","SECT":" ","MAREA":"廣山","LANE":" ","ALLEY":" ","HOUSE_NO":"２２之１０號","E_COORD97":160440.75,"N_COORD97":2568465.6299999999,"ADDRESS":"廣山２２之１０號","OBJECTID":202418},"geometry":{"x":160440.74999999907,"y":2568465.629999999}},{"attributes":{"ID":202420,"DIS_CODE":0,"TOWNNAME":"將軍區","LI":"廣山里","LIN":"3鄰","STREET":" ","SECT":" ","MAREA":"廣山","LANE":" ","ALLEY":" ","HOUSE_NO":"２２之１１號","E_COORD97":160457.5,"N_COORD97":2568472.8900000001,"ADDRESS":"廣山２２之１１號","OBJECTID":202419},"geometry":{"x":160457.5,"y":2568472.8900000006}},{"attributes":{"ID":202421,"DIS_CODE":0,"TOWNNAME":"將軍區","LI":"廣山里","LIN":"3鄰","STREET":" ","SECT":" ","MAREA":"廣山","LANE":" ","ALLEY":" ","HOUSE_NO":"２２之１２號","E_COORD97":160472.51999999999,"N_COORD97":2568468.0099999998,"ADDRESS":"廣山２２之１２號","OBJECTID":202420},"geometry":{"x":160472.52000000142,"y":2568468.0099999998}},{"attributes":{"ID":202422,"DIS_CODE":0,"TOWNNAME":"將軍區","LI":"廣山里","LIN":"3鄰","STREET":" ","SECT":" ","MAREA":"廣山","LANE":" ","ALLEY":" ","HOUSE_NO":"２２之１５號","E_COORD97":159914.04999999999,"N_COORD97":2568663.8999999999,"ADDRESS":"廣山２２之１５號","OBJECTID":202421},"geometry":{"x":159914.04999999981,"y":2568663.9000000022}},{"attributes":{"ID":202423,"DIS_CODE":0,"TOWNNAME":"將軍區","LI":"廣山里","LIN":"3鄰","STREET":" ","SECT":" ","MAREA":"廣山","LANE":" ","ALLEY":" ","HOUSE_NO":"２２之１７號","E_COORD97":159972.89999999999,"N_COORD97":2568652.8900000001,"ADDRESS":"廣山２２之１７號","OBJECTID":202422},"geometry":{"x":159972.9000000013,"y":2568652.8900000006}},{"attributes":{"ID":202424,"DIS_CODE":0,"TOWNNAME":"將軍區","LI":"廣山里","LIN":"3鄰","STREET":" ","SECT":" ","MAREA":"廣山","LANE":" ","ALLEY":" ","HOUSE_NO":"２２之１號","E_COORD97":159858.75,"N_COORD97":2568680.8799999999,"ADDRESS":"廣山２２之１號","OBJECTID":202423},"geometry":{"x":159858.75,"y":2568680.879999999}},{"attributes":{"ID":202425,"DIS_CODE":0,"TOWNNAME":"將軍區","LI":"廣山里","LIN":"3鄰","STREET":" ","SECT":" ","MAREA":"廣山","LANE":" ","ALLEY":" ","HOUSE_NO":"２２之２０號","E_COORD97":160612.95999999999,"N_COORD97":2568450.3700000001,"ADDRESS":"廣山２２之２０號","OBJECTID":202424},"geometry":{"x":160612.96000000089,"y":2568450.3699999992}},{"attributes":{"ID":202426,"DIS_CODE":0,"TOWNNAME":"將軍區","LI":"廣山里","LIN":"3鄰","STREET":" ","SECT":" ","MAREA":"廣山","LANE":" ","ALLEY":" ","HOUSE_NO":"２２之２號","E_COORD97":160007.14000000001,"N_COORD97":2568535.27,"ADDRESS":"廣山２２之２號","OBJECTID":202425},"geometry":{"x":160007.13999999966,"y":2568535.2700000014}},{"attributes":{"ID":202427,"DIS_CODE":0,"TOWNNAME":"將軍區","LI":"廣山里","LIN":"3鄰","STREET":" ","SECT":" ","MAREA":"廣山","LANE":" ","ALLEY":" ","HOUSE_NO":"２２之４號","E_COORD97":159917.67999999999,"N_COORD97":2568596.8100000001,"ADDRESS":"廣山２２之４號","OBJECTID":202426},"geometry":{"x":159917.68000000063,"y":2568596.8100000024}},{"attributes":{"ID":202428,"DIS_CODE":0,"TOWNNAME":"將軍區","LI":"廣山里","LIN":"3鄰","STREET":" ","SECT":" ","MAREA":"廣山","LANE":" ","ALLEY":" ","HOUSE_NO":"２２之５號","E_COORD97":159902.07000000001,"N_COORD97":2568594.1699999999,"ADDRESS":"廣山２２之５號","OBJECTID":202427},"geometry":{"x":159902.07000000123,"y":2568594.1700000018}},{"attributes":{"ID":202429,"DIS_CODE":0,"TOWNNAME":"將軍區","LI":"廣山里","LIN":"3鄰","STREET":" ","SECT":" ","MAREA":"廣山","LANE":" ","ALLEY":" ","HOUSE_NO":"２２之６號","E_COORD97":159930.01999999999,"N_COORD97":2568549.3100000001,"ADDRESS":"廣山２２之６號","OBJECTID":202428},"geometry":{"x":159930.02000000142,"y":2568549.3100000024}},{"attributes":{"ID":202430,"DIS_CODE":0,"TOWNNAME":"將軍區","LI":"廣山里","LIN":"3鄰","STREET":" ","SECT":" ","MAREA":"廣山","LANE":" ","ALLEY":" ","HOUSE_NO":"２２之７號","E_COORD97":160249.25,"N_COORD97":2568490.7599999998,"ADDRESS":"廣山２２之７號","OBJECTID":202429},"geometry":{"x":160249.25000000186,"y":2568490.7600000035}},{"attributes":{"ID":202431,"DIS_CODE":0,"TOWNNAME":"將軍區","LI":"廣山里","LIN":"3鄰","STREET":" ","SECT":" ","MAREA":"廣山","LANE":" ","ALLEY":" ","HOUSE_NO":"２２之９號","E_COORD97":159948.26999999999,"N_COORD97":2568497.77,"ADDRESS":"廣山２２之９號","OBJECTID":202430},"geometry":{"x":159948.26999999955,"y":2568497.7700000014}},{"attributes":{"ID":202432,"DIS_CODE":0,"TOWNNAME":"將軍區","LI":"廣山里","LIN":"3鄰","STREET":" ","SECT":" ","MAREA":"廣山","LANE":" ","ALLEY":" ","HOUSE_NO":"２２號","E_COORD97":159854.69,"N_COORD97":2568661.9199999999,"ADDRESS":"廣山２２號","OBJECTID":202431},"geometry":{"x":159854.69000000041,"y":2568661.9199999999}},{"attributes":{"ID":202433,"DIS_CODE":0,"TOWNNAME":"將軍區","LI":"廣山里","LIN":"3鄰","STREET":" ","SECT":" ","MAREA":"廣山","LANE":" ","ALLEY":" ","HOUSE_NO":"２３之１０號","E_COORD97":159930.67999999999,"N_COORD97":2568577.23,"ADDRESS":"廣山２３之１０號","OBJECTID":202432},"geometry":{"x":159930.67999999877,"y":2568577.2300000023}},{"attributes":{"ID":202434,"DIS_CODE":0,"TOWNNAME":"將軍區","LI":"廣山里","LIN":"3鄰","STREET":" ","SECT":" ","MAREA":"廣山","LANE":" ","ALLEY":" ","HOUSE_NO":"２３之３０號","E_COORD97":159878.07999999999,"N_COORD97":2568597.1800000002,"ADDRESS":"廣山２３之３０號","OBJECTID":202433},"geometry":{"x":159878.08000000101,"y":2568597.1800000016}},{"attributes":{"ID":202435,"DIS_CODE":0,"TOWNNAME":"將軍區","LI":"廣山里","LIN":"3鄰","STREET":" ","SECT":" ","MAREA":"廣山","LANE":" ","ALLEY":" ","HOUSE_NO":"２３號","E_COORD97":159858.75,"N_COORD97":2568705.1600000001,"ADDRESS":"廣山２３號","OBJECTID":202434},"geometry":{"x":159858.75,"y":2568705.1600000039}},{"attributes":{"ID":202436,"DIS_CODE":0,"TOWNNAME":"將軍區","LI":"廣山里","LIN":"3鄰","STREET":" ","SECT":" ","MAREA":"廣山","LANE":" ","ALLEY":" ","HOUSE_NO":"２５號","E_COORD97":159885.06,"N_COORD97":2568723.3500000001,"ADDRESS":"廣山２５號","OBJECTID":202435},"geometry":{"x":159885.05999999959,"y":2568723.3499999996}},{"attributes":{"ID":202437,"DIS_CODE":0,"TOWNNAME":"將軍區","LI":"廣山里","LIN":"3鄰","STREET":" ","SECT":" ","MAREA":"廣山","LANE":" ","ALLEY":" ","HOUSE_NO":"２６號","E_COORD97":159848.42000000001,"N_COORD97":2568748.8500000001,"ADDRESS":"廣山２６號","OBJECTID":202436},"geometry":{"x":159848.42000000086,"y":2568748.8500000015}},{"attributes":{"ID":202438,"DIS_CODE":0,"TOWNNAME":"將軍區","LI":"廣山里","LIN":"3鄰","STREET":" ","SECT":" ","MAREA":"廣山","LANE":" ","ALLEY":" ","HOUSE_NO":"２７之１號","E_COORD97":159887.01999999999,"N_COORD97":2568743.4399999999,"ADDRESS":"廣山２７之１號","OBJECTID":202437},"geometry":{"x":159887.01999999955,"y":2568743.4400000032}},{"attributes":{"ID":202439,"DIS_CODE":0,"TOWNNAME":"將軍區","LI":"廣山里","LIN":"3鄰","STREET":" ","SECT":" ","MAREA":"廣山","LANE":" ","ALLEY":" ","HOUSE_NO":"２７之２號","E_COORD97":159883.01999999999,"N_COORD97":2568750.8599999999,"ADDRESS":"廣山２７之２號","OBJECTID":202438},"geometry":{"x":159883.02000000048,"y":2568750.8600000031}},{"attributes":{"ID":202440,"DIS_CODE":0,"TOWNNAME":"安平區","LI":"建平里","LIN":"26鄰","STREET":"建平九街","SECT":" ","MAREA":" ","LANE":"６０巷","ALLEY":"１３弄","HOUSE_NO":"１７號","E_COORD97":165960.23000000001,"N_COORD97":2543572.1000000001,"ADDRESS":"建平九街６０巷１３弄１７號","OBJECTID":202439},"geometry":{"x":165960.23000000045,"y":2543572.0999999978}},{"attributes":{"ID":202441,"DIS_CODE":0,"TOWNNAME":"安平區","LI":"建平里","LIN":"26鄰","STREET":"建平九街","SECT":" ","MAREA":" ","LANE":"６０巷","ALLEY":"１３弄","HOUSE_NO":"１８號","E_COORD97":165960.75,"N_COORD97":2543597.1499999999,"ADDRESS":"建平九街６０巷１３弄１８號","OBJECTID":202440},"geometry":{"x":165960.75000000093,"y":2543597.1500000022}},{"attributes":{"ID":202442,"DIS_CODE":0,"TOWNNAME":"安平區","LI":"建平里","LIN":"26鄰","STREET":"建平九街","SECT":" ","MAREA":" ","LANE":"６０巷","ALLEY":"１３弄","HOUSE_NO":"１９號","E_COORD97":165956.09,"N_COORD97":2543572.4199999999,"ADDRESS":"建平九街６０巷１３弄１９號","OBJECTID":202441},"geometry":{"x":165956.08999999985,"y":2543572.4199999999}},{"attributes":{"ID":202443,"DIS_CODE":0,"TOWNNAME":"東山區","LI":"青山里","LIN":"2鄰","STREET":" ","SECT":" ","MAREA":"青山","LANE":" ","ALLEY":" ","HOUSE_NO":"１０號","E_COORD97":195442.32000000001,"N_COORD97":2575163.5800000001,"ADDRESS":"青山１０號","OBJECTID":202442},"geometry":{"x":195442.3200000003,"y":2575163.5800000001}},{"attributes":{"ID":202444,"DIS_CODE":0,"TOWNNAME":"安平區","LI":"建平里","LIN":"26鄰","STREET":"建平九街","SECT":" ","MAREA":" ","LANE":"６０巷","ALLEY":"１３弄","HOUSE_NO":"１號","E_COORD97":165998.76000000001,"N_COORD97":2543570.5099999998,"ADDRESS":"建平九街６０巷１３弄１號","OBJECTID":202443},"geometry":{"x":165998.75999999978,"y":2543570.5100000016}},{"attributes":{"ID":202445,"DIS_CODE":0,"TOWNNAME":"安平區","LI":"建平里","LIN":"26鄰","STREET":"建平九街","SECT":" ","MAREA":" ","LANE":"６０巷","ALLEY":"１３弄","HOUSE_NO":"２０號","E_COORD97":165956.66,"N_COORD97":2543597.3100000001,"ADDRESS":"建平九街６０巷１３弄２０號","OBJECTID":202444},"geometry":{"x":165956.66000000108,"y":2543597.3100000005}},{"attributes":{"ID":202446,"DIS_CODE":0,"TOWNNAME":"安平區","LI":"建平里","LIN":"26鄰","STREET":"建平九街","SECT":" ","MAREA":" ","LANE":"６０巷","ALLEY":"１３弄","HOUSE_NO":"２１號","E_COORD97":165951.79999999999,"N_COORD97":2543572.7400000002,"ADDRESS":"建平九街６０巷１３弄２１號","OBJECTID":202445},"geometry":{"x":165951.80000000075,"y":2543572.7400000021}},{"attributes":{"ID":202447,"DIS_CODE":0,"TOWNNAME":"安平區","LI":"建平里","LIN":"26鄰","STREET":"建平九街","SECT":" ","MAREA":" ","LANE":"６０巷","ALLEY":"１３弄","HOUSE_NO":"２２號","E_COORD97":165952.79999999999,"N_COORD97":2543598.1499999999,"ADDRESS":"建平九街６０巷１３弄２２號","OBJECTID":202446},"geometry":{"x":165952.79999999981,"y":2543598.1500000004}},{"attributes":{"ID":202448,"DIS_CODE":0,"TOWNNAME":"安平區","LI":"建平里","LIN":"26鄰","STREET":"建平九街","SECT":" ","MAREA":" ","LANE":"６０巷","ALLEY":"１３弄","HOUSE_NO":"２３號","E_COORD97":165944.95000000001,"N_COORD97":2543575.7599999998,"ADDRESS":"建平九街６０巷１３弄２３號","OBJECTID":202447},"geometry":{"x":165944.95000000019,"y":2543575.7600000016}},{"attributes":{"ID":202449,"DIS_CODE":0,"TOWNNAME":"安平區","LI":"建平里","LIN":"26鄰","STREET":"建平九街","SECT":" ","MAREA":" ","LANE":"６０巷","ALLEY":"１３弄","HOUSE_NO":"２４號","E_COORD97":165947.92999999999,"N_COORD97":2543598.8199999998,"ADDRESS":"建平九街６０巷１３弄２４號","OBJECTID":202448},"geometry":{"x":165947.9299999997,"y":2543598.820000004}},{"attributes":{"ID":202450,"DIS_CODE":0,"TOWNNAME":"安平區","LI":"建平里","LIN":"26鄰","STREET":"建平九街","SECT":" ","MAREA":" ","LANE":"６０巷","ALLEY":"１３弄","HOUSE_NO":"２６號","E_COORD97":165943.23999999999,"N_COORD97":2543600.1600000001,"ADDRESS":"建平九街６０巷１３弄２６號","OBJECTID":202449},"geometry":{"x":165943.24000000022,"y":2543600.160000002}},{"attributes":{"ID":202451,"DIS_CODE":0,"TOWNNAME":"安平區","LI":"建平里","LIN":"26鄰","STREET":"建平九街","SECT":" ","MAREA":" ","LANE":"６０巷","ALLEY":"１３弄","HOUSE_NO":"２號","E_COORD97":166018.70999999999,"N_COORD97":2543589.4300000002,"ADDRESS":"建平九街６０巷１３弄２號","OBJECTID":202450},"geometry":{"x":166018.71000000089,"y":2543589.4299999997}},{"attributes":{"ID":202452,"DIS_CODE":0,"TOWNNAME":"安平區","LI":"建平里","LIN":"26鄰","STREET":"建平九街","SECT":" ","MAREA":" ","LANE":"６０巷","ALLEY":"１３弄","HOUSE_NO":"３號","E_COORD97":165992.39999999999,"N_COORD97":2543569.8700000001,"ADDRESS":"建平九街６０巷１３弄３號","OBJECTID":202451},"geometry":{"x":165992.4000000013,"y":2543569.8700000029}},{"attributes":{"ID":202453,"DIS_CODE":0,"TOWNNAME":"安平區","LI":"建平里","LIN":"26鄰","STREET":"建平九街","SECT":" ","MAREA":" ","LANE":"６０巷","ALLEY":"１３弄","HOUSE_NO":"４號","E_COORD97":166014.35000000001,"N_COORD97":2543589.77,"ADDRESS":"建平九街６０巷１３弄４號","OBJECTID":202452},"geometry":{"x":166014.35000000056,"y":2543589.7699999996}},{"attributes":{"ID":202454,"DIS_CODE":0,"TOWNNAME":"安平區","LI":"建平里","LIN":"26鄰","STREET":"建平九街","SECT":" ","MAREA":" ","LANE":"６０巷","ALLEY":"１３弄","HOUSE_NO":"５號","E_COORD97":165987.78,"N_COORD97":2543570.0299999998,"ADDRESS":"建平九街６０巷１３弄５號","OBJECTID":202453},"geometry":{"x":165987.78000000119,"y":2543570.0300000012}},{"attributes":{"ID":202455,"DIS_CODE":0,"TOWNNAME":"安平區","LI":"建平里","LIN":"26鄰","STREET":"建平九街","SECT":" ","MAREA":" ","LANE":"６０巷","ALLEY":"１３弄","HOUSE_NO":"６號","E_COORD97":166011,"N_COORD97":2543590.27,"ADDRESS":"建平九街６０巷１３弄６號","OBJECTID":202454},"geometry":{"x":166011,"y":2543590.2699999996}},{"attributes":{"ID":202456,"DIS_CODE":0,"TOWNNAME":"安平區","LI":"建平里","LIN":"26鄰","STREET":"建平九街","SECT":" ","MAREA":" ","LANE":"６０巷","ALLEY":"１３弄","HOUSE_NO":"７號","E_COORD97":165981.73000000001,"N_COORD97":2543570.5099999998,"ADDRESS":"建平九街６０巷１３弄７號","OBJECTID":202455},"geometry":{"x":165981.73000000138,"y":2543570.5100000016}},{"attributes":{"ID":202457,"DIS_CODE":0,"TOWNNAME":"安平區","LI":"建平里","LIN":"26鄰","STREET":"建平九街","SECT":" ","MAREA":" ","LANE":"６０巷","ALLEY":"１３弄","HOUSE_NO":"８號","E_COORD97":166006.64000000001,"N_COORD97":2543591.4399999999,"ADDRESS":"建平九街６０巷１３弄８號","OBJECTID":202456},"geometry":{"x":166006.64000000153,"y":2543591.4400000013}},{"attributes":{"ID":202458,"DIS_CODE":0,"TOWNNAME":"安平區","LI":"建平里","LIN":"26鄰","STREET":"建平九街","SECT":" ","MAREA":" ","LANE":"６０巷","ALLEY":"１３弄","HOUSE_NO":"９號","E_COORD97":165978.38,"N_COORD97":2543570.1899999999,"ADDRESS":"建平九街６０巷１３弄９號","OBJECTID":202457},"geometry":{"x":165978.38000000082,"y":2543570.1899999995}},{"attributes":{"ID":202459,"DIS_CODE":0,"TOWNNAME":"玉井區","LI":"玉田里","LIN":"26鄰","STREET":"中山路","SECT":" ","MAREA":" ","LANE":"３巷","ALLEY":"２９弄","HOUSE_NO":"３１號","E_COORD97":194835.14999999999,"N_COORD97":2557776.2400000002,"ADDRESS":"中山路３巷２９弄３１號","OBJECTID":202458},"geometry":{"x":194835.15000000037,"y":2557776.2400000002}},{"attributes":{"ID":202460,"DIS_CODE":0,"TOWNNAME":"南區","LI":"大忠里","LIN":"26鄰","STREET":"大同路","SECT":"二段","MAREA":" ","LANE":"６４０巷","ALLEY":"１２２弄","HOUSE_NO":"１０號","E_COORD97":169117.22,"N_COORD97":2541026.6800000002,"ADDRESS":"大同路二段６４０巷１２２弄１０號","OBJECTID":202459},"geometry":{"x":169117.22000000067,"y":2541026.6800000016}},{"attributes":{"ID":202461,"DIS_CODE":0,"TOWNNAME":"南區","LI":"大忠里","LIN":"26鄰","STREET":"大同路","SECT":"二段","MAREA":" ","LANE":"６４０巷","ALLEY":"１２２弄","HOUSE_NO":"１２號","E_COORD97":169116.85999999999,"N_COORD97":2541032.2999999998,"ADDRESS":"大同路二段６４０巷１２２弄１２號","OBJECTID":202460},"geometry":{"x":169116.86000000127,"y":2541032.3000000007}},{"attributes":{"ID":202462,"DIS_CODE":0,"TOWNNAME":"南區","LI":"大忠里","LIN":"26鄰","STREET":"大同路","SECT":"二段","MAREA":" ","LANE":"６４０巷","ALLEY":"１２２弄","HOUSE_NO":"１４號","E_COORD97":169115.59,"N_COORD97":2541038.0800000001,"ADDRESS":"大同路二段６４０巷１２２弄１４號","OBJECTID":202461},"geometry":{"x":169115.58999999985,"y":2541038.0800000019}},{"attributes":{"ID":202463,"DIS_CODE":0,"TOWNNAME":"南區","LI":"大忠里","LIN":"26鄰","STREET":"大同路","SECT":"二段","MAREA":" ","LANE":"６４０巷","ALLEY":"１２２弄","HOUSE_NO":"１６號","E_COORD97":169115.04000000001,"N_COORD97":2541044.0600000001,"ADDRESS":"大同路二段６４０巷１２２弄１６號","OBJECTID":202462},"geometry":{"x":169115.0400000019,"y":2541044.0599999987}},{"attributes":{"ID":202464,"DIS_CODE":0,"TOWNNAME":"南區","LI":"大忠里","LIN":"26鄰","STREET":"大同路","SECT":"二段","MAREA":" ","LANE":"６４０巷","ALLEY":"１２２弄","HOUSE_NO":"１８號","E_COORD97":169114.13,"N_COORD97":2541049.4900000002,"ADDRESS":"大同路二段６４０巷１２２弄１８號","OBJECTID":202463},"geometry":{"x":169114.13000000175,"y":2541049.4900000021}},{"attributes":{"ID":202465,"DIS_CODE":0,"TOWNNAME":"南區","LI":"大忠里","LIN":"26鄰","STREET":"大同路","SECT":"二段","MAREA":" ","LANE":"６４０巷","ALLEY":"１２２弄","HOUSE_NO":"２０號","E_COORD97":169113.04000000001,"N_COORD97":2541055.29,"ADDRESS":"大同路二段６４０巷１２２弄２０號","OBJECTID":202464},"geometry":{"x":169113.04000000004,"y":2541055.290000001}},{"attributes":{"ID":202466,"DIS_CODE":0,"TOWNNAME":"麻豆區","LI":"大埕里","LIN":"9鄰","STREET":" ","SECT":" ","MAREA":"大埕","LANE":" ","ALLEY":" ","HOUSE_NO":"８３號之１０二樓","E_COORD97":173104.29999999999,"N_COORD97":2565442.4900000002,"ADDRESS":"大埕８３號之１０二樓","OBJECTID":202465},"geometry":{"x":173104.29999999981,"y":2565442.4900000021}},{"attributes":{"ID":202467,"DIS_CODE":0,"TOWNNAME":"麻豆區","LI":"大埕里","LIN":"9鄰","STREET":" ","SECT":" ","MAREA":"大埕","LANE":" ","ALLEY":" ","HOUSE_NO":"８３號之１０三樓","E_COORD97":173104.29999999999,"N_COORD97":2565442.4900000002,"ADDRESS":"大埕８３號之１０三樓","OBJECTID":202466},"geometry":{"x":173104.29999999981,"y":2565442.4900000021}},{"attributes":{"ID":202468,"DIS_CODE":0,"TOWNNAME":"麻豆區","LI":"大埕里","LIN":"9鄰","STREET":" ","SECT":" ","MAREA":"大埕","LANE":" ","ALLEY":" ","HOUSE_NO":"８３號之１０五樓","E_COORD97":173104.29999999999,"N_COORD97":2565442.4900000002,"ADDRESS":"大埕８３號之１０五樓","OBJECTID":202467},"geometry":{"x":173104.29999999981,"y":2565442.4900000021}},{"attributes":{"ID":202469,"DIS_CODE":0,"TOWNNAME":"麻豆區","LI":"大埕里","LIN":"9鄰","STREET":" ","SECT":" ","MAREA":"大埕","LANE":" ","ALLEY":" ","HOUSE_NO":"８３號之１０六樓","E_COORD97":173104.29999999999,"N_COORD97":2565442.4900000002,"ADDRESS":"大埕８３號之１０六樓","OBJECTID":202468},"geometry":{"x":173104.29999999981,"y":2565442.4900000021}},{"attributes":{"ID":202470,"DIS_CODE":0,"TOWNNAME":"將軍區","LI":"廣山里","LIN":"3鄰","STREET":" ","SECT":" ","MAREA":"廣山","LANE":" ","ALLEY":" ","HOUSE_NO":"２８之２號","E_COORD97":160419,"N_COORD97":2568948.3599999999,"ADDRESS":"廣山２８之２號","OBJECTID":202469},"geometry":{"x":160419.00000000093,"y":2568948.3600000013}},{"attributes":{"ID":202471,"DIS_CODE":0,"TOWNNAME":"南區","LI":"大忠里","LIN":"26鄰","STREET":"大同路","SECT":"二段","MAREA":" ","LANE":"６４０巷","ALLEY":"１２２弄","HOUSE_NO":"２號","E_COORD97":169121.04000000001,"N_COORD97":2541004.4100000001,"ADDRESS":"大同路二段６４０巷１２２弄２號","OBJECTID":202470},"geometry":{"x":169121.04000000004,"y":2541004.4100000039}},{"attributes":{"ID":202472,"DIS_CODE":0,"TOWNNAME":"南區","LI":"大忠里","LIN":"26鄰","STREET":"大同路","SECT":"二段","MAREA":" ","LANE":"６４０巷","ALLEY":"１２２弄","HOUSE_NO":"４號","E_COORD97":169119.95000000001,"N_COORD97":2541009.8399999999,"ADDRESS":"大同路二段６４０巷１２２弄４號","OBJECTID":202471},"geometry":{"x":169119.95000000019,"y":2541009.8399999999}},{"attributes":{"ID":202473,"DIS_CODE":0,"TOWNNAME":"將軍區","LI":"廣山里","LIN":"3鄰","STREET":" ","SECT":" ","MAREA":"廣山","LANE":" ","ALLEY":" ","HOUSE_NO":"２８之５號","E_COORD97":160542.76999999999,"N_COORD97":2569090.7799999998,"ADDRESS":"廣山２８之５號","OBJECTID":202472},"geometry":{"x":160542.77000000048,"y":2569090.7800000012}},{"attributes":{"ID":202474,"DIS_CODE":0,"TOWNNAME":"新營區","LI":"忠政里","LIN":"26鄰","STREET":"府西路","SECT":" ","MAREA":" ","LANE":"１３７巷","ALLEY":"１２弄","HOUSE_NO":"１１號","E_COORD97":179749.95999999999,"N_COORD97":2579372.3799999999,"ADDRESS":"府西路１３７巷１２弄１１號","OBJECTID":202473},"geometry":{"x":179749.96000000089,"y":2579372.3800000008}},{"attributes":{"ID":202475,"DIS_CODE":0,"TOWNNAME":"新營區","LI":"忠政里","LIN":"26鄰","STREET":"府西路","SECT":" ","MAREA":" ","LANE":"１３７巷","ALLEY":"１２弄","HOUSE_NO":"９號","E_COORD97":179748.67000000001,"N_COORD97":2579367.9500000002,"ADDRESS":"府西路１３７巷１２弄９號","OBJECTID":202474},"geometry":{"x":179748.67000000086,"y":2579367.9499999993}},{"attributes":{"ID":202476,"DIS_CODE":0,"TOWNNAME":"北區","LI":"和順里","LIN":"26鄰","STREET":"民德路","SECT":" ","MAREA":" ","LANE":"５８巷","ALLEY":"５弄","HOUSE_NO":"１０號","E_COORD97":168185.76000000001,"N_COORD97":2545263.9399999999,"ADDRESS":"民德路５８巷５弄１０號","OBJECTID":202475},"geometry":{"x":168185.75999999885,"y":2545263.9399999995}},{"attributes":{"ID":202477,"DIS_CODE":0,"TOWNNAME":"北區","LI":"和順里","LIN":"26鄰","STREET":"民德路","SECT":" ","MAREA":" ","LANE":"５８巷","ALLEY":"５弄","HOUSE_NO":"１１號","E_COORD97":168162.64999999999,"N_COORD97":2545246.1000000001,"ADDRESS":"民德路５８巷５弄１１號","OBJECTID":202476},"geometry":{"x":168162.6500000013,"y":2545246.0999999996}},{"attributes":{"ID":202478,"DIS_CODE":0,"TOWNNAME":"北區","LI":"和順里","LIN":"26鄰","STREET":"民德路","SECT":" ","MAREA":" ","LANE":"５８巷","ALLEY":"５弄","HOUSE_NO":"１２號","E_COORD97":168179.20000000001,"N_COORD97":2545267.6200000001,"ADDRESS":"民德路５８巷５弄１２號","OBJECTID":202477},"geometry":{"x":168179.20000000019,"y":2545267.620000001}},{"attributes":{"ID":202479,"DIS_CODE":0,"TOWNNAME":"北區","LI":"和順里","LIN":"26鄰","STREET":"民德路","SECT":" ","MAREA":" ","LANE":"５８巷","ALLEY":"５弄","HOUSE_NO":"１號","E_COORD97":168196.01000000001,"N_COORD97":2545221.9500000002,"ADDRESS":"民德路５８巷５弄１號","OBJECTID":202478},"geometry":{"x":168196.01000000164,"y":2545221.9500000011}},{"attributes":{"ID":202480,"DIS_CODE":0,"TOWNNAME":"歸仁區","LI":"武東里","LIN":"15鄰","STREET":"高鐵十二路","SECT":" ","MAREA":" ","LANE":" ","ALLEY":" ","HOUSE_NO":"５２號","E_COORD97":175918.69,"N_COORD97":2536192.48,"ADDRESS":"高鐵十二路５２號","OBJECTID":202479},"geometry":{"x":175918.68999999948,"y":2536192.4800000004}},{"attributes":{"ID":202481,"DIS_CODE":0,"TOWNNAME":"南區","LI":"廣州里","LIN":"6鄰","STREET":"大德街","SECT":" ","MAREA":" ","LANE":" ","ALLEY":" ","HOUSE_NO":"１６６號","E_COORD97":167529.39999999999,"N_COORD97":2543025.0800000001,"ADDRESS":"大德街１６６號","OBJECTID":202480},"geometry":{"x":167529.39999999944,"y":2543025.0800000019}},{"attributes":{"ID":202482,"DIS_CODE":0,"TOWNNAME":"南區","LI":"廣州里","LIN":"6鄰","STREET":"大德街","SECT":" ","MAREA":" ","LANE":" ","ALLEY":" ","HOUSE_NO":"１６８號","E_COORD97":167527.91,"N_COORD97":2543021.8999999999,"ADDRESS":"大德街１６８號","OBJECTID":202481},"geometry":{"x":167527.91000000108,"y":2543021.9000000041}},{"attributes":{"ID":202483,"DIS_CODE":0,"TOWNNAME":"南區","LI":"廣州里","LIN":"8鄰","STREET":"大德街","SECT":" ","MAREA":" ","LANE":" ","ALLEY":" ","HOUSE_NO":"１７２號","E_COORD97":167524.29000000001,"N_COORD97":2543015.52,"ADDRESS":"大德街１７２號","OBJECTID":202482},"geometry":{"x":167524.29000000004,"y":2543015.5199999996}},{"attributes":{"ID":202484,"DIS_CODE":0,"TOWNNAME":"南區","LI":"廣州里","LIN":"17鄰","STREET":"福吉二街","SECT":" ","MAREA":" ","LANE":" ","ALLEY":" ","HOUSE_NO":"５３號","E_COORD97":167284.26000000001,"N_COORD97":2542739.5099999998,"ADDRESS":"福吉二街５３號","OBJECTID":202483},"geometry":{"x":167284.26000000071,"y":2542739.5100000016}},{"attributes":{"ID":202485,"DIS_CODE":0,"TOWNNAME":"南區","LI":"廣州里","LIN":"17鄰","STREET":"福吉二街","SECT":" ","MAREA":" ","LANE":" ","ALLEY":" ","HOUSE_NO":"５５號","E_COORD97":167281.29999999999,"N_COORD97":2542743.73,"ADDRESS":"福吉二街５５號","OBJECTID":202484},"geometry":{"x":167281.29999999981,"y":2542743.7300000004}},{"attributes":{"ID":202486,"DIS_CODE":0,"TOWNNAME":"南區","LI":"廣州里","LIN":"17鄰","STREET":"福吉二街","SECT":" ","MAREA":" ","LANE":" ","ALLEY":" ","HOUSE_NO":"５７號","E_COORD97":167274.54999999999,"N_COORD97":2542748.3599999999,"ADDRESS":"福吉二街５７號","OBJECTID":202485},"geometry":{"x":167274.54999999981,"y":2542748.3599999994}},{"attributes":{"ID":202487,"DIS_CODE":0,"TOWNNAME":"南區","LI":"廣州里","LIN":"17鄰","STREET":"福吉二街","SECT":" ","MAREA":" ","LANE":" ","ALLEY":" ","HOUSE_NO":"５９號","E_COORD97":167266.95000000001,"N_COORD97":2542755.9500000002,"ADDRESS":"福吉二街５９號","OBJECTID":202486},"geometry":{"x":167266.95000000112,"y":2542755.950000003}},{"attributes":{"ID":202488,"DIS_CODE":0,"TOWNNAME":"南區","LI":"廣州里","LIN":"17鄰","STREET":"福吉二街","SECT":" ","MAREA":" ","LANE":" ","ALLEY":" ","HOUSE_NO":"６１號","E_COORD97":167263.57000000001,"N_COORD97":2542758.0600000001,"ADDRESS":"福吉二街６１號","OBJECTID":202487},"geometry":{"x":167263.5700000003,"y":2542758.0600000024}},{"attributes":{"ID":202489,"DIS_CODE":0,"TOWNNAME":"南區","LI":"廣州里","LIN":"17鄰","STREET":"福吉二街","SECT":" ","MAREA":" ","LANE":" ","ALLEY":" ","HOUSE_NO":"６９號","E_COORD97":167255.13,"N_COORD97":2542769.4500000002,"ADDRESS":"福吉二街６９號","OBJECTID":202488},"geometry":{"x":167255.13000000082,"y":2542769.450000003}},{"attributes":{"ID":202490,"DIS_CODE":0,"TOWNNAME":"南區","LI":"廣州里","LIN":"17鄰","STREET":"福吉三街","SECT":" ","MAREA":" ","LANE":" ","ALLEY":" ","HOUSE_NO":"４８號","E_COORD97":167270.75,"N_COORD97":2542725.1699999999,"ADDRESS":"福吉三街４８號","OBJECTID":202489},"geometry":{"x":167270.75000000186,"y":2542725.1700000018}},{"attributes":{"ID":202491,"DIS_CODE":0,"TOWNNAME":"永康區","LI":"尚頂里","LIN":"26鄰","STREET":"南台街","SECT":" ","MAREA":" ","LANE":"５４巷","ALLEY":"１０弄","HOUSE_NO":"１號四樓","E_COORD97":170358.07000000001,"N_COORD97":2547025.7599999998,"ADDRESS":"南台街５４巷１０弄１號四樓","OBJECTID":202490},"geometry":{"x":170358.07000000123,"y":2547025.7599999998}},{"attributes":{"ID":202492,"DIS_CODE":0,"TOWNNAME":"新營區","LI":"新南里","LIN":"26鄰","STREET":"復興路","SECT":" ","MAREA":" ","LANE":"６２０巷","ALLEY":"３９弄","HOUSE_NO":"５２號四樓之５","E_COORD97":177901.26999999999,"N_COORD97":2578494.2599999998,"ADDRESS":"復興路６２０巷３９弄５２號四樓之５","OBJECTID":202491},"geometry":{"x":177901.27000000048,"y":2578494.2599999998}},{"attributes":{"ID":202493,"DIS_CODE":0,"TOWNNAME":"新營區","LI":"新南里","LIN":"26鄰","STREET":"復興路","SECT":" ","MAREA":" ","LANE":"６２０巷","ALLEY":"３９弄","HOUSE_NO":"５２號六樓之２","E_COORD97":177901.25,"N_COORD97":2578494.2599999998,"ADDRESS":"復興路６２０巷３９弄５２號六樓之２","OBJECTID":202492},"geometry":{"x":177901.25000000186,"y":2578494.2599999998}},{"attributes":{"ID":202494,"DIS_CODE":0,"TOWNNAME":"新營區","LI":"新南里","LIN":"26鄰","STREET":"復興路","SECT":" ","MAREA":" ","LANE":"６２０巷","ALLEY":"３９弄","HOUSE_NO":"５２號一樓之１","E_COORD97":177901.12,"N_COORD97":2578494.2599999998,"ADDRESS":"復興路６２０巷３９弄５２號一樓之１","OBJECTID":202493},"geometry":{"x":177901.12000000104,"y":2578494.2599999998}},{"attributes":{"ID":202495,"DIS_CODE":0,"TOWNNAME":"新營區","LI":"新南里","LIN":"26鄰","STREET":"復興路","SECT":" ","MAREA":" ","LANE":"６２０巷","ALLEY":"３９弄","HOUSE_NO":"５２號二樓之５","E_COORD97":177901.26999999999,"N_COORD97":2578494.2599999998,"ADDRESS":"復興路６２０巷３９弄５２號二樓之５","OBJECTID":202494},"geometry":{"x":177901.27000000048,"y":2578494.2599999998}},{"attributes":{"ID":202496,"DIS_CODE":0,"TOWNNAME":"新營區","LI":"新南里","LIN":"26鄰","STREET":"復興路","SECT":" ","MAREA":" ","LANE":"６２０巷","ALLEY":"３９弄","HOUSE_NO":"５２號五樓之２","E_COORD97":177901.25,"N_COORD97":2578494.2599999998,"ADDRESS":"復興路６２０巷３９弄５２號五樓之２","OBJECTID":202495},"geometry":{"x":177901.25000000186,"y":2578494.2599999998}},{"attributes":{"ID":202497,"DIS_CODE":0,"TOWNNAME":"新營區","LI":"新南里","LIN":"26鄰","STREET":"復興路","SECT":" ","MAREA":" ","LANE":"６２０巷","ALLEY":"３９弄","HOUSE_NO":"５２號四樓之６","E_COORD97":177901.22,"N_COORD97":2578494.2599999998,"ADDRESS":"復興路６２０巷３９弄５２號四樓之６","OBJECTID":202496},"geometry":{"x":177901.2200000016,"y":2578494.2599999998}},{"attributes":{"ID":202498,"DIS_CODE":0,"TOWNNAME":"新營區","LI":"新南里","LIN":"26鄰","STREET":"復興路","SECT":" ","MAREA":" ","LANE":"６２０巷","ALLEY":"３９弄","HOUSE_NO":"５２號五樓之５","E_COORD97":177901.26999999999,"N_COORD97":2578494.2599999998,"ADDRESS":"復興路６２０巷３９弄５２號五樓之５","OBJECTID":202497},"geometry":{"x":177901.27000000048,"y":2578494.2599999998}},{"attributes":{"ID":202499,"DIS_CODE":0,"TOWNNAME":"永康區","LI":"正強里","LIN":"26鄰","STREET":"中正路","SECT":" ","MAREA":" ","LANE":"１５５巷","ALLEY":"１７弄","HOUSE_NO":"１０號","E_COORD97":173260.75,"N_COORD97":2547825.77,"ADDRESS":"中正路１５５巷１７弄１０號","OBJECTID":202498},"geometry":{"x":173260.75,"y":2547825.7699999977}},{"attributes":{"ID":202500,"DIS_CODE":0,"TOWNNAME":"永康區","LI":"正強里","LIN":"26鄰","STREET":"中正路","SECT":" ","MAREA":" ","LANE":"１５５巷","ALLEY":"２１弄","HOUSE_NO":"１１號","E_COORD97":173271.45000000001,"N_COORD97":2547761.6499999999,"ADDRESS":"中正路１５５巷２１弄１１號","OBJECTID":202499},"geometry":{"x":173271.45000000019,"y":2547761.6500000004}},{"attributes":{"ID":202501,"DIS_CODE":0,"TOWNNAME":"南區","LI":"廣州里","LIN":"19鄰","STREET":"福吉三街","SECT":" ","MAREA":" ","LANE":" ","ALLEY":" ","HOUSE_NO":"６９號","E_COORD97":167225.14999999999,"N_COORD97":2542735.7200000002,"ADDRESS":"福吉三街６９號","OBJECTID":202500},"geometry":{"x":167225.1500000013,"y":2542735.7200000025}},{"attributes":{"ID":202502,"DIS_CODE":0,"TOWNNAME":"永康區","LI":"正強里","LIN":"26鄰","STREET":"中正路","SECT":" ","MAREA":" ","LANE":"１５５巷","ALLEY":"１９弄","HOUSE_NO":"１２號","E_COORD97":173261.60000000001,"N_COORD97":2547785.3399999999,"ADDRESS":"中正路１５５巷１９弄１２號","OBJECTID":202501},"geometry":{"x":173261.59999999963,"y":2547785.3400000036}},{"attributes":{"ID":202503,"DIS_CODE":0,"TOWNNAME":"永康區","LI":"正強里","LIN":"26鄰","STREET":"中正路","SECT":" ","MAREA":" ","LANE":"１５５巷","ALLEY":"１７弄","HOUSE_NO":"６號","E_COORD97":173248.76000000001,"N_COORD97":2547824.27,"ADDRESS":"中正路１５５巷１７弄６號","OBJECTID":202502},"geometry":{"x":173248.75999999978,"y":2547824.2699999996}},{"attributes":{"ID":202504,"DIS_CODE":0,"TOWNNAME":"永康區","LI":"北灣里","LIN":"26鄰","STREET":"文賢街","SECT":" ","MAREA":" ","LANE":"７８巷","ALLEY":"１９弄","HOUSE_NO":"１０１號","E_COORD97":175455.62,"N_COORD97":2545489.27,"ADDRESS":"文賢街７８巷１９弄１０１號","OBJECTID":202503},"geometry":{"x":175455.62000000011,"y":2545489.2699999996}},{"attributes":{"ID":202505,"DIS_CODE":0,"TOWNNAME":"七股區","LI":"大潭里","LIN":"2鄰","STREET":" ","SECT":" ","MAREA":"台潭","LANE":" ","ALLEY":" ","HOUSE_NO":"４１號","E_COORD97":160996.57000000001,"N_COORD97":2565383.52,"ADDRESS":"台潭４１號","OBJECTID":202504},"geometry":{"x":160996.5700000003,"y":2565383.5200000014}},{"attributes":{"ID":202506,"DIS_CODE":0,"TOWNNAME":"安南區","LI":"安慶里","LIN":"26鄰","STREET":"長溪路","SECT":"一段","MAREA":" ","LANE":"１５９巷","ALLEY":"２１弄","HOUSE_NO":"１０號","E_COORD97":168973.22,"N_COORD97":2548502.6800000002,"ADDRESS":"長溪路一段１５９巷２１弄１０號","OBJECTID":202505},"geometry":{"x":168973.22000000067,"y":2548502.6800000016}},{"attributes":{"ID":202507,"DIS_CODE":0,"TOWNNAME":"安南區","LI":"安慶里","LIN":"26鄰","STREET":"長溪路","SECT":"一段","MAREA":" ","LANE":"１５９巷","ALLEY":"２１弄","HOUSE_NO":"１１號","E_COORD97":169009.72,"N_COORD97":2548487.4700000002,"ADDRESS":"長溪路一段１５９巷２１弄１１號","OBJECTID":202506},"geometry":{"x":169009.71999999974,"y":2548487.4700000025}},{"attributes":{"ID":202508,"DIS_CODE":0,"TOWNNAME":"安南區","LI":"安慶里","LIN":"26鄰","STREET":"長溪路","SECT":"一段","MAREA":" ","LANE":"１５９巷","ALLEY":"２１弄","HOUSE_NO":"１２號","E_COORD97":168974.88,"N_COORD97":2548496.7000000002,"ADDRESS":"長溪路一段１５９巷２１弄１２號","OBJECTID":202507},"geometry":{"x":168974.87999999989,"y":2548496.6999999993}},{"attributes":{"ID":202509,"DIS_CODE":0,"TOWNNAME":"安南區","LI":"安慶里","LIN":"26鄰","STREET":"長溪路","SECT":"一段","MAREA":" ","LANE":"１５９巷","ALLEY":"２１弄","HOUSE_NO":"１３號","E_COORD97":169007.59,"N_COORD97":2548476.3999999999,"ADDRESS":"長溪路一段１５９巷２１弄１３號","OBJECTID":202508},"geometry":{"x":169007.59000000171,"y":2548476.4000000004}},{"attributes":{"ID":202510,"DIS_CODE":0,"TOWNNAME":"安南區","LI":"安慶里","LIN":"26鄰","STREET":"長溪路","SECT":"一段","MAREA":" ","LANE":"１５９巷","ALLEY":"２１弄","HOUSE_NO":"１５號","E_COORD97":169012.82999999999,"N_COORD97":2548476.6800000002,"ADDRESS":"長溪路一段１５９巷２１弄１５號","OBJECTID":202509},"geometry":{"x":169012.83000000007,"y":2548476.6799999997}},{"attributes":{"ID":202511,"DIS_CODE":0,"TOWNNAME":"南區","LI":"廣州里","LIN":"17鄰","STREET":"福吉三街","SECT":" ","MAREA":" ","LANE":" ","ALLEY":" ","HOUSE_NO":"５０號","E_COORD97":167267.79000000001,"N_COORD97":2542729.8100000001,"ADDRESS":"福吉三街５０號","OBJECTID":202510},"geometry":{"x":167267.79000000097,"y":2542729.8100000005}},{"attributes":{"ID":202512,"DIS_CODE":0,"TOWNNAME":"南區","LI":"廣州里","LIN":"19鄰","STREET":"福吉三街","SECT":" ","MAREA":" ","LANE":" ","ALLEY":" ","HOUSE_NO":"５１號","E_COORD97":167253.01000000001,"N_COORD97":2542707.8900000001,"ADDRESS":"福吉三街５１號","OBJECTID":202511},"geometry":{"x":167253.00999999978,"y":2542707.8900000025}},{"attributes":{"ID":202513,"DIS_CODE":0,"TOWNNAME":"南區","LI":"廣州里","LIN":"19鄰","STREET":"福吉三街","SECT":" ","MAREA":" ","LANE":" ","ALLEY":" ","HOUSE_NO":"５３號","E_COORD97":167248.79000000001,"N_COORD97":2542713.3700000001,"ADDRESS":"福吉三街５３號","OBJECTID":202512},"geometry":{"x":167248.79000000097,"y":2542713.370000001}},{"attributes":{"ID":202514,"DIS_CODE":0,"TOWNNAME":"安南區","LI":"安慶里","LIN":"26鄰","STREET":"長溪路","SECT":"一段","MAREA":" ","LANE":"１５９巷","ALLEY":"２１弄","HOUSE_NO":"１６號","E_COORD97":168977.85000000001,"N_COORD97":2548491.5800000001,"ADDRESS":"長溪路一段１５９巷２１弄１６號","OBJECTID":202513},"geometry":{"x":168977.84999999963,"y":2548491.5800000001}},{"attributes":{"ID":202515,"DIS_CODE":0,"TOWNNAME":"安南區","LI":"安慶里","LIN":"26鄰","STREET":"長溪路","SECT":"一段","MAREA":" ","LANE":"１５９巷","ALLEY":"２１弄","HOUSE_NO":"１７號","E_COORD97":169017.64000000001,"N_COORD97":2548478.04,"ADDRESS":"長溪路一段１５９巷２１弄１７號","OBJECTID":202514},"geometry":{"x":169017.6400000006,"y":2548478.0400000028}},{"attributes":{"ID":202516,"DIS_CODE":0,"TOWNNAME":"安南區","LI":"安慶里","LIN":"26鄰","STREET":"長溪路","SECT":"一段","MAREA":" ","LANE":"１５９巷","ALLEY":"２１弄","HOUSE_NO":"１８號","E_COORD97":168977.94,"N_COORD97":2548486.21,"ADDRESS":"長溪路一段１５９巷２１弄１８號","OBJECTID":202515},"geometry":{"x":168977.94000000041,"y":2548486.2100000028}},{"attributes":{"ID":202517,"DIS_CODE":0,"TOWNNAME":"永康區","LI":"蔦松里","LIN":"9鄰","STREET":"正北三路","SECT":" ","MAREA":" ","LANE":" ","ALLEY":" ","HOUSE_NO":"１３８號","E_COORD97":174379.94,"N_COORD97":2550056.52,"ADDRESS":"正北三路１３８號","OBJECTID":202516},"geometry":{"x":174379.94000000134,"y":2550056.5200000014}},{"attributes":{"ID":202518,"DIS_CODE":0,"TOWNNAME":"安南區","LI":"安慶里","LIN":"26鄰","STREET":"長溪路","SECT":"一段","MAREA":" ","LANE":"１５９巷","ALLEY":"２１弄","HOUSE_NO":"１９號","E_COORD97":169022.06,"N_COORD97":2548479.1499999999,"ADDRESS":"長溪路一段１５９巷２１弄１９號","OBJECTID":202517},"geometry":{"x":169022.05999999959,"y":2548479.1500000022}},{"attributes":{"ID":202519,"DIS_CODE":0,"TOWNNAME":"安南區","LI":"安慶里","LIN":"26鄰","STREET":"長溪路","SECT":"一段","MAREA":" ","LANE":"１５９巷","ALLEY":"２１弄","HOUSE_NO":"１號","E_COORD97":168999.84,"N_COORD97":2548506.5,"ADDRESS":"長溪路一段１５９巷２１弄１號","OBJECTID":202518},"geometry":{"x":168999.84000000078,"y":2548506.5000000037}},{"attributes":{"ID":202520,"DIS_CODE":0,"TOWNNAME":"安南區","LI":"安慶里","LIN":"26鄰","STREET":"長溪路","SECT":"一段","MAREA":" ","LANE":"１５９巷","ALLEY":"２１弄","HOUSE_NO":"２１號","E_COORD97":169026.35999999999,"N_COORD97":2548481.1200000001,"ADDRESS":"長溪路一段１５９巷２１弄２１號","OBJECTID":202519},"geometry":{"x":169026.36000000034,"y":2548481.1200000029}},{"attributes":{"ID":202521,"DIS_CODE":0,"TOWNNAME":"安南區","LI":"安慶里","LIN":"26鄰","STREET":"長溪路","SECT":"一段","MAREA":" ","LANE":"１５９巷","ALLEY":"２１弄","HOUSE_NO":"２３號","E_COORD97":169039.23999999999,"N_COORD97":2548459.4500000002,"ADDRESS":"長溪路一段１５９巷２１弄２３號","OBJECTID":202520},"geometry":{"x":169039.24000000209,"y":2548459.4500000011}},{"attributes":{"ID":202522,"DIS_CODE":0,"TOWNNAME":"永康區","LI":"蔦松里","LIN":"9鄰","STREET":"中正北路","SECT":" ","MAREA":" ","LANE":" ","ALLEY":" ","HOUSE_NO":"８３７號","E_COORD97":174905.01000000001,"N_COORD97":2550092.7400000002,"ADDRESS":"中正北路８３７號","OBJECTID":202521},"geometry":{"x":174905.00999999978,"y":2550092.7400000021}},{"attributes":{"ID":202523,"DIS_CODE":0,"TOWNNAME":"安南區","LI":"安慶里","LIN":"26鄰","STREET":"長溪路","SECT":"一段","MAREA":" ","LANE":"１５９巷","ALLEY":"２１弄","HOUSE_NO":"２５號","E_COORD97":169034.48999999999,"N_COORD97":2548458.3399999999,"ADDRESS":"長溪路一段１５９巷２１弄２５號","OBJECTID":202522},"geometry":{"x":169034.49000000115,"y":2548458.3399999999}},{"attributes":{"ID":202524,"DIS_CODE":0,"TOWNNAME":"安南區","LI":"安慶里","LIN":"26鄰","STREET":"長溪路","SECT":"一段","MAREA":" ","LANE":"１５９巷","ALLEY":"２１弄","HOUSE_NO":"２７號","E_COORD97":169029.35000000001,"N_COORD97":2548457.04,"ADDRESS":"長溪路一段１５９巷２１弄２７號","OBJECTID":202523},"geometry":{"x":169029.35000000149,"y":2548457.0399999991}},{"attributes":{"ID":202525,"DIS_CODE":0,"TOWNNAME":"安南區","LI":"安慶里","LIN":"26鄰","STREET":"長溪路","SECT":"一段","MAREA":" ","LANE":"１５９巷","ALLEY":"２１弄","HOUSE_NO":"２８號","E_COORD97":168986.17999999999,"N_COORD97":2548471.3599999999,"ADDRESS":"長溪路一段１５９巷２１弄２８號","OBJECTID":202524},"geometry":{"x":168986.1799999997,"y":2548471.3599999994}},{"attributes":{"ID":202526,"DIS_CODE":0,"TOWNNAME":"安南區","LI":"安慶里","LIN":"26鄰","STREET":"長溪路","SECT":"一段","MAREA":" ","LANE":"１５９巷","ALLEY":"２１弄","HOUSE_NO":"２９號","E_COORD97":169024.01999999999,"N_COORD97":2548456.3900000001,"ADDRESS":"長溪路一段１５９巷２１弄２９號","OBJECTID":202525},"geometry":{"x":169024.01999999955,"y":2548456.3900000006}},{"attributes":{"ID":202527,"DIS_CODE":0,"TOWNNAME":"永康區","LI":"復興里","LIN":"9鄰","STREET":"復興路","SECT":" ","MAREA":" ","LANE":" ","ALLEY":" ","HOUSE_NO":"２８５號","E_COORD97":172331.84,"N_COORD97":2544318.02,"ADDRESS":"復興路２８５號","OBJECTID":202526},"geometry":{"x":172331.84000000171,"y":2544318.0199999996}},{"attributes":{"ID":202528,"DIS_CODE":0,"TOWNNAME":"永康區","LI":"復興里","LIN":"9鄰","STREET":"復興路","SECT":" ","MAREA":" ","LANE":" ","ALLEY":" ","HOUSE_NO":"３０１號","E_COORD97":172293.39999999999,"N_COORD97":2544315.0600000001,"ADDRESS":"復興路３０１號","OBJECTID":202527},"geometry":{"x":172293.4000000013,"y":2544315.0600000005}},{"attributes":{"ID":202529,"DIS_CODE":0,"TOWNNAME":"永康區","LI":"勝利里","LIN":"9鄰","STREET":"勝利街","SECT":" ","MAREA":" ","LANE":" ","ALLEY":" ","HOUSE_NO":"６９號","E_COORD97":171332.19,"N_COORD97":2544696.25,"ADDRESS":"勝利街６９號","OBJECTID":202528},"geometry":{"x":171332.19000000134,"y":2544696.25}},{"attributes":{"ID":202530,"DIS_CODE":0,"TOWNNAME":"永康區","LI":"復國里","LIN":"9鄰","STREET":"復國二路","SECT":" ","MAREA":" ","LANE":" ","ALLEY":" ","HOUSE_NO":"７３號","E_COORD97":172837.14999999999,"N_COORD97":2545252.52,"ADDRESS":"復國二路７３號","OBJECTID":202529},"geometry":{"x":172837.15000000224,"y":2545252.5200000014}},{"attributes":{"ID":202531,"DIS_CODE":0,"TOWNNAME":"南區","LI":"廣州里","LIN":"19鄰","STREET":"福吉三街","SECT":" ","MAREA":" ","LANE":" ","ALLEY":" ","HOUSE_NO":"５７號","E_COORD97":167239.5,"N_COORD97":2542718.4300000002,"ADDRESS":"福吉三街５７號","OBJECTID":202530},"geometry":{"x":167239.5,"y":2542718.4299999997}},{"attributes":{"ID":202532,"DIS_CODE":0,"TOWNNAME":"南區","LI":"廣州里","LIN":"19鄰","STREET":"福吉三街","SECT":" ","MAREA":" ","LANE":" ","ALLEY":" ","HOUSE_NO":"５９號","E_COORD97":167236.97,"N_COORD97":2542721.3799999999,"ADDRESS":"福吉三街５９號","OBJECTID":202531},"geometry":{"x":167236.97000000067,"y":2542721.379999999}},{"attributes":{"ID":202533,"DIS_CODE":0,"TOWNNAME":"南區","LI":"廣州里","LIN":"19鄰","STREET":"福吉三街","SECT":" ","MAREA":" ","LANE":" ","ALLEY":" ","HOUSE_NO":"６７號","E_COORD97":167225.98999999999,"N_COORD97":2542731.0800000001,"ADDRESS":"福吉三街６７號","OBJECTID":202532},"geometry":{"x":167225.99000000115,"y":2542731.0800000001}},{"attributes":{"ID":202534,"DIS_CODE":0,"TOWNNAME":"安南區","LI":"安慶里","LIN":"26鄰","STREET":"長溪路","SECT":"一段","MAREA":" ","LANE":"１５９巷","ALLEY":"２１弄","HOUSE_NO":"２號","E_COORD97":168967,"N_COORD97":2548525.02,"ADDRESS":"長溪路一段１５９巷２１弄２號","OBJECTID":202533},"geometry":{"x":168967,"y":2548525.0199999996}},{"attributes":{"ID":202535,"DIS_CODE":0,"TOWNNAME":"安南區","LI":"安慶里","LIN":"26鄰","STREET":"長溪路","SECT":"一段","MAREA":" ","LANE":"１５９巷","ALLEY":"２１弄","HOUSE_NO":"３１號","E_COORD97":169018.48999999999,"N_COORD97":2548456.7799999998,"ADDRESS":"長溪路一段１５９巷２１弄３１號","OBJECTID":202534},"geometry":{"x":169018.49000000022,"y":2548456.7800000012}},{"attributes":{"ID":202536,"DIS_CODE":0,"TOWNNAME":"南區","LI":"廣州里","LIN":"19鄰","STREET":"福吉四街","SECT":" ","MAREA":" ","LANE":" ","ALLEY":" ","HOUSE_NO":"７４號","E_COORD97":167189.85000000001,"N_COORD97":2542731.0800000001,"ADDRESS":"福吉四街７４號","OBJECTID":202535},"geometry":{"x":167189.84999999963,"y":2542731.0800000001}},{"attributes":{"ID":202537,"DIS_CODE":0,"TOWNNAME":"安南區","LI":"安慶里","LIN":"26鄰","STREET":"長溪路","SECT":"一段","MAREA":" ","LANE":"１５９巷","ALLEY":"２１弄","HOUSE_NO":"３２號","E_COORD97":168995.29999999999,"N_COORD97":2548459.7599999998,"ADDRESS":"長溪路一段１５９巷２１弄３２號","OBJECTID":202536},"geometry":{"x":168995.29999999981,"y":2548459.7599999998}},{"attributes":{"ID":202538,"DIS_CODE":0,"TOWNNAME":"安南區","LI":"安慶里","LIN":"26鄰","STREET":"長溪路","SECT":"一段","MAREA":" ","LANE":"１５９巷","ALLEY":"２１弄","HOUSE_NO":"３４號","E_COORD97":168996.32000000001,"N_COORD97":2548453.1000000001,"ADDRESS":"長溪路一段１５９巷２１弄３４號","OBJECTID":202537},"geometry":{"x":168996.32000000216,"y":2548453.0999999996}},{"attributes":{"ID":202539,"DIS_CODE":0,"TOWNNAME":"南區","LI":"廣州里","LIN":"19鄰","STREET":"福吉三街","SECT":" ","MAREA":" ","LANE":" ","ALLEY":" ","HOUSE_NO":"７１號","E_COORD97":167219.66,"N_COORD97":2542738.25,"ADDRESS":"福吉三街７１號","OBJECTID":202538},"geometry":{"x":167219.66000000108,"y":2542738.2500000019}},{"attributes":{"ID":202540,"DIS_CODE":0,"TOWNNAME":"將軍區","LI":"廣山里","LIN":"3鄰","STREET":" ","SECT":" ","MAREA":"廣山","LANE":" ","ALLEY":" ","HOUSE_NO":"２９之１號","E_COORD97":159840.45999999999,"N_COORD97":2568808.3799999999,"ADDRESS":"廣山２９之１號","OBJECTID":202539},"geometry":{"x":159840.45999999996,"y":2568808.3800000008}},{"attributes":{"ID":202541,"DIS_CODE":0,"TOWNNAME":"將軍區","LI":"廣山里","LIN":"3鄰","STREET":" ","SECT":" ","MAREA":"廣山","LANE":" ","ALLEY":" ","HOUSE_NO":"２９號","E_COORD97":159836.64999999999,"N_COORD97":2568808.3500000001,"ADDRESS":"廣山２９號","OBJECTID":202540},"geometry":{"x":159836.64999999944,"y":2568808.3499999978}},{"attributes":{"ID":202542,"DIS_CODE":0,"TOWNNAME":"將軍區","LI":"廣山里","LIN":"3鄰","STREET":" ","SECT":" ","MAREA":"廣山","LANE":" ","ALLEY":" ","HOUSE_NO":"３０號","E_COORD97":159831.17999999999,"N_COORD97":2568777.77,"ADDRESS":"廣山３０號","OBJECTID":202541},"geometry":{"x":159831.18000000063,"y":2568777.7699999996}},{"attributes":{"ID":202543,"DIS_CODE":0,"TOWNNAME":"將軍區","LI":"廣山里","LIN":"3鄰","STREET":" ","SECT":" ","MAREA":"廣山","LANE":" ","ALLEY":" ","HOUSE_NO":"３１之１號","E_COORD97":159861.41,"N_COORD97":2568839.2599999998,"ADDRESS":"廣山３１之１號","OBJECTID":202542},"geometry":{"x":159861.41000000015,"y":2568839.2599999998}},{"attributes":{"ID":202544,"DIS_CODE":0,"TOWNNAME":"將軍區","LI":"鯤溟里","LIN":"3鄰","STREET":" ","SECT":" ","MAREA":"鯤溟","LANE":" ","ALLEY":" ","HOUSE_NO":"１７號","E_COORD97":156630.42999999999,"N_COORD97":2565531,"ADDRESS":"鯤溟１７號","OBJECTID":202543},"geometry":{"x":156630.43000000063,"y":2565531.0000000019}},{"attributes":{"ID":202545,"DIS_CODE":0,"TOWNNAME":"將軍區","LI":"鯤溟里","LIN":"3鄰","STREET":" ","SECT":" ","MAREA":"鯤溟","LANE":" ","ALLEY":" ","HOUSE_NO":"１８號","E_COORD97":156644.56,"N_COORD97":2565544.6400000001,"ADDRESS":"鯤溟１８號","OBJECTID":202544},"geometry":{"x":156644.56000000145,"y":2565544.6400000006}},{"attributes":{"ID":202546,"DIS_CODE":0,"TOWNNAME":"安南區","LI":"安慶里","LIN":"26鄰","STREET":"長溪路","SECT":"一段","MAREA":" ","LANE":"１５９巷","ALLEY":"２１弄","HOUSE_NO":"３號","E_COORD97":169001.75,"N_COORD97":2548501.9300000002,"ADDRESS":"長溪路一段１５９巷２１弄３號","OBJECTID":202545},"geometry":{"x":169001.75000000093,"y":2548501.9299999997}},{"attributes":{"ID":202547,"DIS_CODE":0,"TOWNNAME":"永康區","LI":"二王里","LIN":"9鄰","STREET":"中山南路","SECT":" ","MAREA":" ","LANE":" ","ALLEY":" ","HOUSE_NO":"７４８號","E_COORD97":172690.56,"N_COORD97":2546756.4700000002,"ADDRESS":"中山南路７４８號","OBJECTID":202546},"geometry":{"x":172690.55999999959,"y":2546756.4700000007}},{"attributes":{"ID":202548,"DIS_CODE":0,"TOWNNAME":"永康區","LI":"二王里","LIN":"9鄰","STREET":"中山南路","SECT":" ","MAREA":" ","LANE":" ","ALLEY":" ","HOUSE_NO":"７２０號","E_COORD97":172631.10000000001,"N_COORD97":2546735.2799999998,"ADDRESS":"中山南路７２０號","OBJECTID":202547},"geometry":{"x":172631.09999999963,"y":2546735.2800000012}},{"attributes":{"ID":202549,"DIS_CODE":0,"TOWNNAME":"永康區","LI":"二王里","LIN":"9鄰","STREET":"中山南路","SECT":" ","MAREA":" ","LANE":" ","ALLEY":" ","HOUSE_NO":"７３８號","E_COORD97":172669.39000000001,"N_COORD97":2546747.7799999998,"ADDRESS":"中山南路７３８號","OBJECTID":202548},"geometry":{"x":172669.3900000006,"y":2546747.7800000012}},{"attributes":{"ID":202550,"DIS_CODE":0,"TOWNNAME":"安南區","LI":"安慶里","LIN":"26鄰","STREET":"長溪路","SECT":"一段","MAREA":" ","LANE":"１５９巷","ALLEY":"２１弄","HOUSE_NO":"４號","E_COORD97":168968.82000000001,"N_COORD97":2548519.75,"ADDRESS":"長溪路一段１５９巷２１弄４號","OBJECTID":202549},"geometry":{"x":168968.8200000003,"y":2548519.7500000019}},{"attributes":{"ID":202551,"DIS_CODE":0,"TOWNNAME":"永康區","LI":"二王里","LIN":"9鄰","STREET":"中山南路","SECT":" ","MAREA":" ","LANE":" ","ALLEY":" ","HOUSE_NO":"７１２號","E_COORD97":172615.37,"N_COORD97":2546729.2799999998,"ADDRESS":"中山南路７１２號","OBJECTID":202550},"geometry":{"x":172615.37000000104,"y":2546729.2799999993}},{"attributes":{"ID":202552,"DIS_CODE":0,"TOWNNAME":"安南區","LI":"安慶里","LIN":"26鄰","STREET":"長溪路","SECT":"一段","MAREA":" ","LANE":"１５９巷","ALLEY":"２１弄","HOUSE_NO":"５號","E_COORD97":169004.04999999999,"N_COORD97":2548498.6899999999,"ADDRESS":"長溪路一段１５９巷２１弄５號","OBJECTID":202551},"geometry":{"x":169004.04999999981,"y":2548498.6900000013}},{"attributes":{"ID":202553,"DIS_CODE":0,"TOWNNAME":"安南區","LI":"安慶里","LIN":"26鄰","STREET":"長溪路","SECT":"一段","MAREA":" ","LANE":"１５９巷","ALLEY":"２１弄","HOUSE_NO":"６號","E_COORD97":168971.14999999999,"N_COORD97":2548514,"ADDRESS":"長溪路一段１５９巷２１弄６號","OBJECTID":202552},"geometry":{"x":168971.1500000013,"y":2548514.0000000019}},{"attributes":{"ID":202554,"DIS_CODE":0,"TOWNNAME":"永康區","LI":"二王里","LIN":"9鄰","STREET":"中山南路","SECT":" ","MAREA":" ","LANE":" ","ALLEY":" ","HOUSE_NO":"７０８號","E_COORD97":172605.04999999999,"N_COORD97":2546726.1699999999,"ADDRESS":"中山南路７０８號","OBJECTID":202553},"geometry":{"x":172605.05000000168,"y":2546726.1700000018}},{"attributes":{"ID":202555,"DIS_CODE":0,"TOWNNAME":"永康區","LI":"大橋里","LIN":"9鄰","STREET":"大橋五街","SECT":" ","MAREA":" ","LANE":" ","ALLEY":" ","HOUSE_NO":"１４０號","E_COORD97":171007.92999999999,"N_COORD97":2546990.7999999998,"ADDRESS":"大橋五街１４０號","OBJECTID":202554},"geometry":{"x":171007.93000000063,"y":2546990.8000000026}},{"attributes":{"ID":202556,"DIS_CODE":0,"TOWNNAME":"永康區","LI":"大橋里","LIN":"9鄰","STREET":"大橋五街","SECT":" ","MAREA":" ","LANE":" ","ALLEY":" ","HOUSE_NO":"１３８號","E_COORD97":171003.76999999999,"N_COORD97":2546988.0499999998,"ADDRESS":"大橋五街１３８號","OBJECTID":202555},"geometry":{"x":171003.77000000048,"y":2546988.0500000045}},{"attributes":{"ID":202557,"DIS_CODE":0,"TOWNNAME":"安南區","LI":"安慶里","LIN":"26鄰","STREET":"長溪路","SECT":"一段","MAREA":" ","LANE":"１５９巷","ALLEY":"２１弄","HOUSE_NO":"７號","E_COORD97":169005.67000000001,"N_COORD97":2548494.8999999999,"ADDRESS":"長溪路一段１５９巷２１弄７號","OBJECTID":202556},"geometry":{"x":169005.67000000086,"y":2548494.9000000022}},{"attributes":{"ID":202558,"DIS_CODE":0,"TOWNNAME":"善化區","LI":"光文里","LIN":"9鄰","STREET":"成功路","SECT":" ","MAREA":" ","LANE":" ","ALLEY":" ","HOUSE_NO":"２５２號","E_COORD97":179204.32999999999,"N_COORD97":2558866.3999999999,"ADDRESS":"成功路２５２號","OBJECTID":202557},"geometry":{"x":179204.32999999914,"y":2558866.4000000022}},{"attributes":{"ID":202559,"DIS_CODE":0,"TOWNNAME":"安南區","LI":"安慶里","LIN":"26鄰","STREET":"長溪路","SECT":"一段","MAREA":" ","LANE":"１５９巷","ALLEY":"２１弄","HOUSE_NO":"８號","E_COORD97":168971.98000000001,"N_COORD97":2548508.3799999999,"ADDRESS":"長溪路一段１５９巷２１弄８號","OBJECTID":202558},"geometry":{"x":168971.98000000138,"y":2548508.379999999}},{"attributes":{"ID":202560,"DIS_CODE":0,"TOWNNAME":"南區","LI":"廣州里","LIN":"19鄰","STREET":"福吉三街","SECT":" ","MAREA":" ","LANE":" ","ALLEY":" ","HOUSE_NO":"７３號","E_COORD97":167215.01000000001,"N_COORD97":2542741.6200000001,"ADDRESS":"福吉三街７３號","OBJECTID":202559},"geometry":{"x":167215.01000000071,"y":2542741.620000001}},{"attributes":{"ID":202561,"DIS_CODE":0,"TOWNNAME":"南區","LI":"廣州里","LIN":"19鄰","STREET":"福吉四街","SECT":" ","MAREA":" ","LANE":" ","ALLEY":" ","HOUSE_NO":"５６號","E_COORD97":167224.89999999999,"N_COORD97":2542699.0299999998,"ADDRESS":"福吉四街５６號","OBJECTID":202560},"geometry":{"x":167224.9000000013,"y":2542699.0300000012}},{"attributes":{"ID":202562,"DIS_CODE":0,"TOWNNAME":"安南區","LI":"安慶里","LIN":"26鄰","STREET":"長溪路","SECT":"一段","MAREA":" ","LANE":"１５９巷","ALLEY":"２１弄","HOUSE_NO":"９號","E_COORD97":169007.42999999999,"N_COORD97":2548490.7200000002,"ADDRESS":"長溪路一段１５９巷２１弄９號","OBJECTID":202561},"geometry":{"x":169007.43000000063,"y":2548490.7200000007}},{"attributes":{"ID":202563,"DIS_CODE":0,"TOWNNAME":"南區","LI":"廣州里","LIN":"19鄰","STREET":"福吉四街","SECT":" ","MAREA":" ","LANE":" ","ALLEY":" ","HOUSE_NO":"５８號","E_COORD97":167220.67999999999,"N_COORD97":2542701.5600000001,"ADDRESS":"福吉四街５８號","OBJECTID":202562},"geometry":{"x":167220.68000000063,"y":2542701.5600000005}},{"attributes":{"ID":202564,"DIS_CODE":0,"TOWNNAME":"安南區","LI":"安慶里","LIN":"26鄰","STREET":"長溪路","SECT":"一段","MAREA":" ","LANE":"１５９巷","ALLEY":"２７弄","HOUSE_NO":"１０號","E_COORD97":168950.59,"N_COORD97":2548502.5600000001,"ADDRESS":"長溪路一段１５９巷２７弄１０號","OBJECTID":202563},"geometry":{"x":168950.59000000078,"y":2548502.5600000005}},{"attributes":{"ID":202565,"DIS_CODE":0,"TOWNNAME":"安南區","LI":"安慶里","LIN":"26鄰","STREET":"長溪路","SECT":"一段","MAREA":" ","LANE":"１５９巷","ALLEY":"２７弄","HOUSE_NO":"１２號","E_COORD97":168950.17999999999,"N_COORD97":2548495.9700000002,"ADDRESS":"長溪路一段１５９巷２７弄１２號","OBJECTID":202564},"geometry":{"x":168950.1799999997,"y":2548495.9700000007}},{"attributes":{"ID":202566,"DIS_CODE":0,"TOWNNAME":"安南區","LI":"安慶里","LIN":"26鄰","STREET":"長溪路","SECT":"一段","MAREA":" ","LANE":"１５９巷","ALLEY":"２７弄","HOUSE_NO":"１４號","E_COORD97":168951.26000000001,"N_COORD97":2548491.1299999999,"ADDRESS":"長溪路一段１５９巷２７弄１４號","OBJECTID":202565},"geometry":{"x":168951.25999999978,"y":2548491.1300000008}},{"attributes":{"ID":202567,"DIS_CODE":0,"TOWNNAME":"安南區","LI":"安慶里","LIN":"26鄰","STREET":"長溪路","SECT":"一段","MAREA":" ","LANE":"１５９巷","ALLEY":"２７弄","HOUSE_NO":"１６號","E_COORD97":168951.92999999999,"N_COORD97":2548487.8999999999,"ADDRESS":"長溪路一段１５９巷２７弄１６號","OBJECTID":202566},"geometry":{"x":168951.9299999997,"y":2548487.9000000022}},{"attributes":{"ID":202568,"DIS_CODE":0,"TOWNNAME":"安南區","LI":"安慶里","LIN":"26鄰","STREET":"長溪路","SECT":"一段","MAREA":" ","LANE":"１５９巷","ALLEY":"２７弄","HOUSE_NO":"１８號","E_COORD97":168952.20000000001,"N_COORD97":2548483.3300000001,"ADDRESS":"長溪路一段１５９巷２７弄１８號","OBJECTID":202567},"geometry":{"x":168952.20000000019,"y":2548483.3300000001}},{"attributes":{"ID":202569,"DIS_CODE":0,"TOWNNAME":"中西區","LI":"協和里","LIN":"12鄰","STREET":"臨安路","SECT":"一段","MAREA":" ","LANE":"２６７巷","ALLEY":" ","HOUSE_NO":"４２號","E_COORD97":167275.10754600001,"N_COORD97":2544844.9216800001,"ADDRESS":"臨安路一段２６７巷４２號","OBJECTID":202568},"geometry":{"x":167275.10754599981,"y":2544844.9216840025}},{"attributes":{"ID":202570,"DIS_CODE":0,"TOWNNAME":"安南區","LI":"安慶里","LIN":"26鄰","STREET":"長溪路","SECT":"一段","MAREA":" ","LANE":"１５９巷","ALLEY":"２７弄","HOUSE_NO":"２０號","E_COORD97":168952.88,"N_COORD97":2548479.6899999999,"ADDRESS":"長溪路一段１５９巷２７弄２０號","OBJECTID":202569},"geometry":{"x":168952.87999999989,"y":2548479.6899999995}},{"attributes":{"ID":202571,"DIS_CODE":0,"TOWNNAME":"南區","LI":"廣州里","LIN":"19鄰","STREET":"福吉四街","SECT":" ","MAREA":" ","LANE":" ","ALLEY":" ","HOUSE_NO":"６０號","E_COORD97":167218.14000000001,"N_COORD97":2542705.3599999999,"ADDRESS":"福吉四街６０號","OBJECTID":202570},"geometry":{"x":167218.13999999966,"y":2542705.3599999994}},{"attributes":{"ID":202572,"DIS_CODE":0,"TOWNNAME":"將軍區","LI":"鯤溟里","LIN":"3鄰","STREET":" ","SECT":" ","MAREA":"鯤溟","LANE":" ","ALLEY":" ","HOUSE_NO":"１９號","E_COORD97":156652.57000000001,"N_COORD97":2565544.7400000002,"ADDRESS":"鯤溟１９號","OBJECTID":202571},"geometry":{"x":156652.57000000123,"y":2565544.7399999984}},{"attributes":{"ID":202573,"DIS_CODE":0,"TOWNNAME":"將軍區","LI":"鯤溟里","LIN":"3鄰","STREET":" ","SECT":" ","MAREA":"鯤溟","LANE":" ","ALLEY":" ","HOUSE_NO":"２０之１號","E_COORD97":156633.39000000001,"N_COORD97":2565545.71,"ADDRESS":"鯤溟２０之１號","OBJECTID":202572},"geometry":{"x":156633.38999999966,"y":2565545.709999999}},{"attributes":{"ID":202574,"DIS_CODE":0,"TOWNNAME":"將軍區","LI":"鯤溟里","LIN":"3鄰","STREET":" ","SECT":" ","MAREA":"鯤溟","LANE":" ","ALLEY":" ","HOUSE_NO":"２０之２號","E_COORD97":156629.72,"N_COORD97":2565545.6099999999,"ADDRESS":"鯤溟２０之２號","OBJECTID":202573},"geometry":{"x":156629.71999999974,"y":2565545.6100000013}},{"attributes":{"ID":202575,"DIS_CODE":0,"TOWNNAME":"將軍區","LI":"鯤溟里","LIN":"3鄰","STREET":" ","SECT":" ","MAREA":"鯤溟","LANE":" ","ALLEY":" ","HOUSE_NO":"２０號","E_COORD97":156637.20000000001,"N_COORD97":2565545.7200000002,"ADDRESS":"鯤溟２０號","OBJECTID":202574},"geometry":{"x":156637.20000000019,"y":2565545.7200000044}},{"attributes":{"ID":202576,"DIS_CODE":0,"TOWNNAME":"將軍區","LI":"鯤鯓里","LIN":"3鄰","STREET":" ","SECT":" ","MAREA":"鯤鯓","LANE":" ","ALLEY":" ","HOUSE_NO":"１８號","E_COORD97":156587.82999999999,"N_COORD97":2565630.5699999998,"ADDRESS":"鯤鯓１８號","OBJECTID":202575},"geometry":{"x":156587.83000000101,"y":2565630.5700000003}},{"attributes":{"ID":202577,"DIS_CODE":0,"TOWNNAME":"龍崎區","LI":"楠坑里","LIN":"3鄰","STREET":" ","SECT":" ","MAREA":"樹子林","LANE":" ","ALLEY":" ","HOUSE_NO":"４號","E_COORD97":185168.09,"N_COORD97":2537122.25,"ADDRESS":"樹子林４號","OBJECTID":202576},"geometry":{"x":185168.09000000078,"y":2537122.25}},{"attributes":{"ID":202578,"DIS_CODE":0,"TOWNNAME":"龍崎區","LI":"崎頂里","LIN":"3鄰","STREET":" ","SECT":" ","MAREA":"新市子","LANE":" ","ALLEY":" ","HOUSE_NO":"８０之１號","E_COORD97":184557.62,"N_COORD97":2540522.2999999998,"ADDRESS":"新市子８０之１號","OBJECTID":202577},"geometry":{"x":184557.62000000197,"y":2540522.3000000026}},{"attributes":{"ID":202579,"DIS_CODE":0,"TOWNNAME":"龍崎區","LI":"崎頂里","LIN":"3鄰","STREET":" ","SECT":" ","MAREA":"新市子","LANE":" ","ALLEY":" ","HOUSE_NO":"７６號","E_COORD97":184593.42000000001,"N_COORD97":2540491.25,"ADDRESS":"新市子７６號","OBJECTID":202578},"geometry":{"x":184593.42000000086,"y":2540491.2500000019}},{"attributes":{"ID":202580,"DIS_CODE":0,"TOWNNAME":"安南區","LI":"安慶里","LIN":"26鄰","STREET":"長溪路","SECT":"一段","MAREA":" ","LANE":"１５９巷","ALLEY":"２７弄","HOUSE_NO":"２２號","E_COORD97":168952.54000000001,"N_COORD97":2548475.71,"ADDRESS":"長溪路一段１５９巷２７弄２２號","OBJECTID":202579},"geometry":{"x":168952.54000000097,"y":2548475.7100000028}},{"attributes":{"ID":202581,"DIS_CODE":0,"TOWNNAME":"東區","LI":"崇德里","LIN":"9鄰","STREET":"崇善路","SECT":" ","MAREA":" ","LANE":" ","ALLEY":" ","HOUSE_NO":"４６０號","E_COORD97":170988.38,"N_COORD97":2541509.1800000002,"ADDRESS":"崇善路４６０號","OBJECTID":202580},"geometry":{"x":170988.37999999989,"y":2541509.1799999997}},{"attributes":{"ID":202582,"DIS_CODE":0,"TOWNNAME":"東區","LI":"龍山里","LIN":"9鄰","STREET":"府東街","SECT":" ","MAREA":" ","LANE":" ","ALLEY":" ","HOUSE_NO":"１２號","E_COORD97":170103.75,"N_COORD97":2542869.7200000002,"ADDRESS":"府東街１２號","OBJECTID":202581},"geometry":{"x":170103.75000000093,"y":2542869.7200000007}},{"attributes":{"ID":202583,"DIS_CODE":0,"TOWNNAME":"安南區","LI":"安慶里","LIN":"26鄰","STREET":"長溪路","SECT":"一段","MAREA":" ","LANE":"１５９巷","ALLEY":"２７弄","HOUSE_NO":"２４號","E_COORD97":168952.72,"N_COORD97":2548471.04,"ADDRESS":"長溪路一段１５９巷２７弄２４號","OBJECTID":202582},"geometry":{"x":168952.72000000067,"y":2548471.0399999972}},{"attributes":{"ID":202584,"DIS_CODE":0,"TOWNNAME":"安南區","LI":"安慶里","LIN":"26鄰","STREET":"長溪路","SECT":"一段","MAREA":" ","LANE":"１５９巷","ALLEY":"２７弄","HOUSE_NO":"２６號","E_COORD97":168953.42999999999,"N_COORD97":2548467.3399999999,"ADDRESS":"長溪路一段１５９巷２７弄２６號","OBJECTID":202583},"geometry":{"x":168953.4299999997,"y":2548467.3400000017}},{"attributes":{"ID":202585,"DIS_CODE":0,"TOWNNAME":"東區","LI":"龍山里","LIN":"9鄰","STREET":"府東街","SECT":" ","MAREA":" ","LANE":" ","ALLEY":" ","HOUSE_NO":"１６號","E_COORD97":170095.92999999999,"N_COORD97":2542873.75,"ADDRESS":"府東街１６號","OBJECTID":202584},"geometry":{"x":170095.93000000063,"y":2542873.7500000019}},{"attributes":{"ID":202586,"DIS_CODE":0,"TOWNNAME":"東區","LI":"龍山里","LIN":"9鄰","STREET":"府東街","SECT":" ","MAREA":" ","LANE":" ","ALLEY":" ","HOUSE_NO":"１８號","E_COORD97":170091.89999999999,"N_COORD97":2542873.5,"ADDRESS":"府東街１８號","OBJECTID":202585},"geometry":{"x":170091.90000000037,"y":2542873.5}},{"attributes":{"ID":202587,"DIS_CODE":0,"TOWNNAME":"東區","LI":"龍山里","LIN":"9鄰","STREET":"府東街","SECT":" ","MAREA":" ","LANE":" ","ALLEY":" ","HOUSE_NO":"１４號","E_COORD97":170099.70999999999,"N_COORD97":2542871.4900000002,"ADDRESS":"府東街１４號","OBJECTID":202586},"geometry":{"x":170099.70999999996,"y":2542871.4900000002}},{"attributes":{"ID":202588,"DIS_CODE":0,"TOWNNAME":"安南區","LI":"安慶里","LIN":"26鄰","STREET":"長溪路","SECT":"一段","MAREA":" ","LANE":"１５９巷","ALLEY":"２７弄","HOUSE_NO":"２８號","E_COORD97":168953.28,"N_COORD97":2548463.7200000002,"ADDRESS":"長溪路一段１５９巷２７弄２８號","OBJECTID":202587},"geometry":{"x":168953.28000000119,"y":2548463.7200000007}},{"attributes":{"ID":202589,"DIS_CODE":0,"TOWNNAME":"永康區","LI":"大橋里","LIN":"9鄰","STREET":"大橋五街","SECT":" ","MAREA":" ","LANE":" ","ALLEY":" ","HOUSE_NO":"１４２號","E_COORD97":171011.63,"N_COORD97":2546992.7999999998,"ADDRESS":"大橋五街１４２號","OBJECTID":202588},"geometry":{"x":171011.63000000082,"y":2546992.7999999989}},{"attributes":{"ID":202590,"DIS_CODE":0,"TOWNNAME":"安南區","LI":"安慶里","LIN":"26鄰","STREET":"長溪路","SECT":"一段","MAREA":" ","LANE":"１５９巷","ALLEY":"２７弄","HOUSE_NO":"３２號","E_COORD97":168954.22,"N_COORD97":2548455.4399999999,"ADDRESS":"長溪路一段１５９巷２７弄３２號","OBJECTID":202589},"geometry":{"x":168954.22000000067,"y":2548455.4400000032}},{"attributes":{"ID":202591,"DIS_CODE":0,"TOWNNAME":"安南區","LI":"安慶里","LIN":"26鄰","STREET":"長溪路","SECT":"一段","MAREA":" ","LANE":"１５９巷","ALLEY":"２７弄","HOUSE_NO":"３６號","E_COORD97":168954.54000000001,"N_COORD97":2548447.73,"ADDRESS":"長溪路一段１５９巷２７弄３６號","OBJECTID":202590},"geometry":{"x":168954.54000000097,"y":2548447.7300000042}},{"attributes":{"ID":202592,"DIS_CODE":0,"TOWNNAME":"仁德區","LI":"仁義里","LIN":"9鄰","STREET":"仁義一街","SECT":" ","MAREA":" ","LANE":" ","ALLEY":" ","HOUSE_NO":"１５２號","E_COORD97":173652.51000000001,"N_COORD97":2541174.7599999998,"ADDRESS":"仁義一街１５２號","OBJECTID":202591},"geometry":{"x":173652.50999999978,"y":2541174.7600000016}},{"attributes":{"ID":202593,"DIS_CODE":0,"TOWNNAME":"仁德區","LI":"太子里","LIN":"9鄰","STREET":"太子路","SECT":" ","MAREA":" ","LANE":" ","ALLEY":" ","HOUSE_NO":"１６４號","E_COORD97":174393.88,"N_COORD97":2543524.2599999998,"ADDRESS":"太子路１６４號","OBJECTID":202592},"geometry":{"x":174393.87999999989,"y":2543524.2600000016}},{"attributes":{"ID":202594,"DIS_CODE":0,"TOWNNAME":"南區","LI":"廣州里","LIN":"19鄰","STREET":"福吉四街","SECT":" ","MAREA":" ","LANE":" ","ALLEY":" ","HOUSE_NO":"６２號","E_COORD97":167213.5,"N_COORD97":2542708.3100000001,"ADDRESS":"福吉四街６２號","OBJECTID":202593},"geometry":{"x":167213.50000000093,"y":2542708.3100000024}},{"attributes":{"ID":202595,"DIS_CODE":0,"TOWNNAME":"安南區","LI":"安慶里","LIN":"26鄰","STREET":"長溪路","SECT":"一段","MAREA":" ","LANE":"１５９巷","ALLEY":"２７弄","HOUSE_NO":"４號","E_COORD97":168947.53,"N_COORD97":2548521.5299999998,"ADDRESS":"長溪路一段１５９巷２７弄４號","OBJECTID":202594},"geometry":{"x":168947.53000000119,"y":2548521.5299999993}},{"attributes":{"ID":202596,"DIS_CODE":0,"TOWNNAME":"安南區","LI":"安慶里","LIN":"26鄰","STREET":"長溪路","SECT":"一段","MAREA":" ","LANE":"１５９巷","ALLEY":"２７弄","HOUSE_NO":"６號","E_COORD97":168948.64000000001,"N_COORD97":2548515.0499999998,"ADDRESS":"長溪路一段１５９巷２７弄６號","OBJECTID":202595},"geometry":{"x":168948.63999999966,"y":2548515.0500000026}},{"attributes":{"ID":202597,"DIS_CODE":0,"TOWNNAME":"安南區","LI":"州南里","LIN":"26鄰","STREET":"安和路","SECT":"四段","MAREA":" ","LANE":"５３８巷","ALLEY":"７１弄","HOUSE_NO":"１４號","E_COORD97":170091.59,"N_COORD97":2551263.5499999998,"ADDRESS":"安和路四段５３８巷７１弄１４號","OBJECTID":202596},"geometry":{"x":170091.59000000078,"y":2551263.5500000026}},{"attributes":{"ID":202598,"DIS_CODE":0,"TOWNNAME":"安南區","LI":"州南里","LIN":"26鄰","STREET":"安和路","SECT":"四段","MAREA":" ","LANE":"５３８巷","ALLEY":"７１弄","HOUSE_NO":"１１號","E_COORD97":170076.78,"N_COORD97":2551282.1800000002,"ADDRESS":"安和路四段５３８巷７１弄１１號","OBJECTID":202597},"geometry":{"x":170076.78000000119,"y":2551282.1800000016}},{"attributes":{"ID":202599,"DIS_CODE":0,"TOWNNAME":"南區","LI":"廣州里","LIN":"19鄰","STREET":"福吉四街","SECT":" ","MAREA":" ","LANE":" ","ALLEY":" ","HOUSE_NO":"６４號","E_COORD97":167210.54000000001,"N_COORD97":2542711.6800000002,"ADDRESS":"福吉四街６４號","OBJECTID":202598},"geometry":{"x":167210.54000000004,"y":2542711.6800000016}},{"attributes":{"ID":202600,"DIS_CODE":0,"TOWNNAME":"安南區","LI":"州南里","LIN":"26鄰","STREET":"安和路","SECT":"四段","MAREA":" ","LANE":"５３８巷","ALLEY":"７１弄","HOUSE_NO":"１２號","E_COORD97":170085.28,"N_COORD97":2551259.9900000002,"ADDRESS":"安和路四段５３８巷７１弄１２號","OBJECTID":202599},"geometry":{"x":170085.28000000119,"y":2551259.9900000021}},{"attributes":{"ID":202601,"DIS_CODE":0,"TOWNNAME":"安南區","LI":"州南里","LIN":"26鄰","STREET":"安和路","SECT":"四段","MAREA":" ","LANE":"５３８巷","ALLEY":"７１弄","HOUSE_NO":"１５號","E_COORD97":170085.01000000001,"N_COORD97":2551285.4700000002,"ADDRESS":"安和路四段５３８巷７１弄１５號","OBJECTID":202600},"geometry":{"x":170085.01000000071,"y":2551285.4700000025}}]}