{"displayFieldName":"TOWNNAME","fieldAliases":{"ID":"ID","DIS_CODE":"DIS_CODE","TOWNNAME":"TOWNNAME","LI":"LI","LIN":"LIN","STREET":"STREET","SECT":"SECT","MAREA":"MAREA","LANE":"LANE","ALLEY":"ALLEY","HOUSE_NO":"HOUSE_NO","E_COORD97":"E_COORD97","N_COORD97":"N_COORD97","ADDRESS":"ADDRESS","OBJECTID":"OBJECTID"},"geometryType":"esriGeometryPoint","spatialReference":{"wkid":102443,"latestWkid":3826},"fields":[{"name":"ID","type":"esriFieldTypeDouble","alias":"ID"},{"name":"DIS_CODE","type":"esriFieldTypeInteger","alias":"DIS_CODE"},{"name":"TOWNNAME","type":"esriFieldTypeString","alias":"TOWNNAME","length":8},{"name":"LI","type":"esriFieldTypeString","alias":"LI","length":8},{"name":"LIN","type":"esriFieldTypeString","alias":"LIN","length":12},{"name":"STREET","type":"esriFieldTypeString","alias":"STREET","length":20},{"name":"SECT","type":"esriFieldTypeString","alias":"SECT","length":8},{"name":"MAREA","type":"esriFieldTypeString","alias":"MAREA","length":12},{"name":"LANE","type":"esriFieldTypeString","alias":"LANE","length":10},{"name":"ALLEY","type":"esriFieldTypeString","alias":"ALLEY","length":10},{"name":"HOUSE_NO","type":"esriFieldTypeString","alias":"HOUSE_NO","length":20},{"name":"E_COORD97","type":"esriFieldTypeDouble","alias":"E_COORD97"},{"name":"N_COORD97","type":"esriFieldTypeDouble","alias":"N_COORD97"},{"name":"ADDRESS","type":"esriFieldTypeString","alias":"ADDRESS","length":50},{"name":"OBJECTID","type":"esriFieldTypeOID","alias":"OBJECTID"}],"features":[{"attributes":{"ID":509428,"DIS_CODE":0,"TOWNNAME":"新營區","LI":"民生里","LIN":"1鄰","STREET":"復興路","SECT":" ","MAREA":" ","LANE":" ","ALLEY":" ","HOUSE_NO":"１２０號","E_COORD97":179447.32000000001,"N_COORD97":2578059.27,"ADDRESS":"復興路１２０號","OBJECTID":509401},"geometry":{"x":179447.32000000123,"y":2578059.2700000014}},{"attributes":{"ID":509429,"DIS_CODE":0,"TOWNNAME":"新營區","LI":"埤寮里","LIN":"1鄰","STREET":"中正路","SECT":" ","MAREA":" ","LANE":" ","ALLEY":" ","HOUSE_NO":"５４７之２號","E_COORD97":180056.45999999999,"N_COORD97":2580882.6600000001,"ADDRESS":"中正路５４７之２號","OBJECTID":509402},"geometry":{"x":180056.46000000089,"y":2580882.6600000001}},{"attributes":{"ID":509430,"DIS_CODE":0,"TOWNNAME":"新營區","LI":"埤寮里","LIN":"1鄰","STREET":"中正路","SECT":" ","MAREA":" ","LANE":" ","ALLEY":" ","HOUSE_NO":"５３４號","E_COORD97":180104.42000000001,"N_COORD97":2580955.4700000002,"ADDRESS":"中正路５３４號","OBJECTID":509403},"geometry":{"x":180104.42000000086,"y":2580955.4700000007}},{"attributes":{"ID":509431,"DIS_CODE":0,"TOWNNAME":"歸仁區","LI":"六甲里","LIN":"1鄰","STREET":"中正南路","SECT":"一段","MAREA":" ","LANE":" ","ALLEY":" ","HOUSE_NO":"５５５號","E_COORD97":176783.01999999999,"N_COORD97":2539942.1800000002,"ADDRESS":"中正南路一段５５５號","OBJECTID":509404},"geometry":{"x":176783.01999999955,"y":2539942.1800000016}},{"attributes":{"ID":509432,"DIS_CODE":0,"TOWNNAME":"玉井區","LI":"玉井里","LIN":"1鄰","STREET":"憲政街","SECT":" ","MAREA":" ","LANE":" ","ALLEY":" ","HOUSE_NO":"２８號","E_COORD97":194631.92000000001,"N_COORD97":2558092.2599999998,"ADDRESS":"憲政街２８號","OBJECTID":509405},"geometry":{"x":194631.92000000086,"y":2558092.2600000035}},{"attributes":{"ID":509433,"DIS_CODE":0,"TOWNNAME":"玉井區","LI":"中正里","LIN":"1鄰","STREET":"中正路","SECT":" ","MAREA":" ","LANE":" ","ALLEY":" ","HOUSE_NO":"３４５號","E_COORD97":195292.26000000001,"N_COORD97":2558452.25,"ADDRESS":"中正路３４５號","OBJECTID":509406},"geometry":{"x":195292.26000000071,"y":2558452.2500000037}},{"attributes":{"ID":509434,"DIS_CODE":0,"TOWNNAME":"歸仁區","LI":"南興里","LIN":"1鄰","STREET":"文化街","SECT":"三段","MAREA":" ","LANE":" ","ALLEY":" ","HOUSE_NO":"２１８號","E_COORD97":176481.72,"N_COORD97":2541185.2599999998,"ADDRESS":"文化街三段２１８號","OBJECTID":509407},"geometry":{"x":176481.71999999974,"y":2541185.2600000016}},{"attributes":{"ID":509435,"DIS_CODE":0,"TOWNNAME":"歸仁區","LI":"七甲里","LIN":"1鄰","STREET":"七甲五街","SECT":" ","MAREA":" ","LANE":" ","ALLEY":" ","HOUSE_NO":"３９號","E_COORD97":177378.48999999999,"N_COORD97":2542594.6600000001,"ADDRESS":"七甲五街３９號","OBJECTID":509408},"geometry":{"x":177378.49000000115,"y":2542594.6600000001}},{"attributes":{"ID":509436,"DIS_CODE":0,"TOWNNAME":"北區","LI":"公園里","LIN":"1鄰","STREET":"北門路","SECT":"二段","MAREA":" ","LANE":" ","ALLEY":" ","HOUSE_NO":"１７號","E_COORD97":169236.60999999999,"N_COORD97":2544254.1699999999,"ADDRESS":"北門路二段１７號","OBJECTID":509409},"geometry":{"x":169236.61000000034,"y":2544254.1700000018}},{"attributes":{"ID":509437,"DIS_CODE":0,"TOWNNAME":"北區","LI":"公園里","LIN":"1鄰","STREET":"北門路","SECT":"二段","MAREA":" ","LANE":" ","ALLEY":" ","HOUSE_NO":"１９號","E_COORD97":169237.5,"N_COORD97":2544258.7400000002,"ADDRESS":"北門路二段１９號","OBJECTID":509410},"geometry":{"x":169237.50000000093,"y":2544258.7400000002}},{"attributes":{"ID":509438,"DIS_CODE":0,"TOWNNAME":"北區","LI":"公園里","LIN":"1鄰","STREET":"北門路","SECT":"二段","MAREA":" ","LANE":" ","ALLEY":" ","HOUSE_NO":"２１號","E_COORD97":169238.09,"N_COORD97":2544262.7200000002,"ADDRESS":"北門路二段２１號","OBJECTID":509411},"geometry":{"x":169238.09000000171,"y":2544262.7200000007}},{"attributes":{"ID":509439,"DIS_CODE":0,"TOWNNAME":"北區","LI":"公園里","LIN":"1鄰","STREET":"北門路","SECT":"二段","MAREA":" ","LANE":" ","ALLEY":" ","HOUSE_NO":"２３號","E_COORD97":169238.97,"N_COORD97":2544268.6200000001,"ADDRESS":"北門路二段２３號","OBJECTID":509412},"geometry":{"x":169238.97000000067,"y":2544268.6200000048}},{"attributes":{"ID":509440,"DIS_CODE":0,"TOWNNAME":"北區","LI":"公園里","LIN":"1鄰","STREET":"北門路","SECT":"二段","MAREA":" ","LANE":" ","ALLEY":" ","HOUSE_NO":"２５號","E_COORD97":169240.16,"N_COORD97":2544272.46,"ADDRESS":"北門路二段２５號","OBJECTID":509413},"geometry":{"x":169240.16000000108,"y":2544272.4600000009}},{"attributes":{"ID":509441,"DIS_CODE":0,"TOWNNAME":"北區","LI":"公園里","LIN":"1鄰","STREET":"北門路","SECT":"二段","MAREA":" ","LANE":" ","ALLEY":" ","HOUSE_NO":"２７號","E_COORD97":169241.63,"N_COORD97":2544277.1800000002,"ADDRESS":"北門路二段２７號","OBJECTID":509414},"geometry":{"x":169241.63000000082,"y":2544277.1800000034}},{"attributes":{"ID":509442,"DIS_CODE":0,"TOWNNAME":"北區","LI":"公園里","LIN":"1鄰","STREET":"北門路","SECT":"二段","MAREA":" ","LANE":" ","ALLEY":" ","HOUSE_NO":"２９號","E_COORD97":169242.07999999999,"N_COORD97":2544281.02,"ADDRESS":"北門路二段２９號","OBJECTID":509415},"geometry":{"x":169242.08000000101,"y":2544281.0199999996}},{"attributes":{"ID":509443,"DIS_CODE":0,"TOWNNAME":"北區","LI":"公園里","LIN":"1鄰","STREET":"北門路","SECT":"二段","MAREA":" ","LANE":" ","ALLEY":" ","HOUSE_NO":"３３號","E_COORD97":169242.82000000001,"N_COORD97":2544288.54,"ADDRESS":"北門路二段３３號","OBJECTID":509416},"geometry":{"x":169242.82000000123,"y":2544288.540000001}},{"attributes":{"ID":509444,"DIS_CODE":0,"TOWNNAME":"北區","LI":"公園里","LIN":"1鄰","STREET":"北門路","SECT":"二段","MAREA":" ","LANE":" ","ALLEY":" ","HOUSE_NO":"３５號","E_COORD97":169244.14999999999,"N_COORD97":2544292.8199999998,"ADDRESS":"北門路二段３５號","OBJECTID":509417},"geometry":{"x":169244.1500000013,"y":2544292.8200000003}},{"attributes":{"ID":509445,"DIS_CODE":0,"TOWNNAME":"北區","LI":"公園里","LIN":"1鄰","STREET":"北門路","SECT":"二段","MAREA":" ","LANE":" ","ALLEY":" ","HOUSE_NO":"３７號","E_COORD97":169245.20000000001,"N_COORD97":2544297.7799999998,"ADDRESS":"北門路二段３７號","OBJECTID":509418},"geometry":{"x":169245.20000000112,"y":2544297.7800000012}},{"attributes":{"ID":509446,"DIS_CODE":0,"TOWNNAME":"北區","LI":"公園里","LIN":"1鄰","STREET":"北門路","SECT":"二段","MAREA":" ","LANE":" ","ALLEY":" ","HOUSE_NO":"３９號","E_COORD97":169246.23000000001,"N_COORD97":2544302.9500000002,"ADDRESS":"北門路二段３９號","OBJECTID":509419},"geometry":{"x":169246.23000000231,"y":2544302.9500000011}},{"attributes":{"ID":509447,"DIS_CODE":0,"TOWNNAME":"北區","LI":"公園里","LIN":"1鄰","STREET":"富北街","SECT":" ","MAREA":" ","LANE":" ","ALLEY":" ","HOUSE_NO":"１８號之１","E_COORD97":169189.06,"N_COORD97":2544323.46,"ADDRESS":"富北街１８號之１","OBJECTID":509420},"geometry":{"x":169189.06000000052,"y":2544323.4600000009}},{"attributes":{"ID":509448,"DIS_CODE":0,"TOWNNAME":"北區","LI":"公園里","LIN":"1鄰","STREET":"富北街","SECT":" ","MAREA":" ","LANE":" ","ALLEY":" ","HOUSE_NO":"１８號之１地下層","E_COORD97":169189.06,"N_COORD97":2544323.46,"ADDRESS":"富北街１８號之１地下層","OBJECTID":509421},"geometry":{"x":169189.06000000052,"y":2544323.4600000009}},{"attributes":{"ID":509449,"DIS_CODE":0,"TOWNNAME":"北區","LI":"公園里","LIN":"1鄰","STREET":"富北街","SECT":" ","MAREA":" ","LANE":" ","ALLEY":" ","HOUSE_NO":"１８號之２","E_COORD97":169183.09,"N_COORD97":2544324.8599999999,"ADDRESS":"富北街１８號之２","OBJECTID":509422},"geometry":{"x":169183.08999999985,"y":2544324.8599999994}},{"attributes":{"ID":509450,"DIS_CODE":0,"TOWNNAME":"北區","LI":"公園里","LIN":"1鄰","STREET":"富北街","SECT":" ","MAREA":" ","LANE":" ","ALLEY":" ","HOUSE_NO":"１８號之２地下層","E_COORD97":169183.09,"N_COORD97":2544324.8599999999,"ADDRESS":"富北街１８號之２地下層","OBJECTID":509423},"geometry":{"x":169183.08999999985,"y":2544324.8599999994}},{"attributes":{"ID":509451,"DIS_CODE":0,"TOWNNAME":"北區","LI":"公園里","LIN":"1鄰","STREET":"富北街","SECT":" ","MAREA":" ","LANE":" ","ALLEY":" ","HOUSE_NO":"２０號","E_COORD97":169170.97,"N_COORD97":2544338.7200000002,"ADDRESS":"富北街２０號","OBJECTID":509424},"geometry":{"x":169170.9700000016,"y":2544338.7200000044}},{"attributes":{"ID":509452,"DIS_CODE":0,"TOWNNAME":"北區","LI":"公園里","LIN":"1鄰","STREET":"富北街","SECT":" ","MAREA":" ","LANE":" ","ALLEY":" ","HOUSE_NO":"２８號","E_COORD97":169169.73999999999,"N_COORD97":2544346.8500000001,"ADDRESS":"富北街２８號","OBJECTID":509425},"geometry":{"x":169169.74000000209,"y":2544346.8500000034}},{"attributes":{"ID":509453,"DIS_CODE":0,"TOWNNAME":"北區","LI":"公園里","LIN":"1鄰","STREET":"富北街","SECT":" ","MAREA":" ","LANE":" ","ALLEY":" ","HOUSE_NO":"３２號","E_COORD97":169168.16,"N_COORD97":2544352.8100000001,"ADDRESS":"富北街３２號","OBJECTID":509426},"geometry":{"x":169168.16000000015,"y":2544352.8100000024}},{"attributes":{"ID":509454,"DIS_CODE":0,"TOWNNAME":"北區","LI":"正覺里","LIN":"1鄰","STREET":"公園路","SECT":" ","MAREA":" ","LANE":" ","ALLEY":" ","HOUSE_NO":"５９９號之１","E_COORD97":169285.76000000001,"N_COORD97":2546088.71,"ADDRESS":"公園路５９９號之１","OBJECTID":509427},"geometry":{"x":169285.75999999978,"y":2546088.7100000046}},{"attributes":{"ID":509455,"DIS_CODE":0,"TOWNNAME":"北區","LI":"正覺里","LIN":"1鄰","STREET":"公園路","SECT":" ","MAREA":" ","LANE":" ","ALLEY":" ","HOUSE_NO":"５９９號之１０","E_COORD97":169311.17999999999,"N_COORD97":2546123.3100000001,"ADDRESS":"公園路５９９號之１０","OBJECTID":509428},"geometry":{"x":169311.1799999997,"y":2546123.3100000005}},{"attributes":{"ID":509456,"DIS_CODE":0,"TOWNNAME":"北區","LI":"正覺里","LIN":"1鄰","STREET":"公園路","SECT":" ","MAREA":" ","LANE":" ","ALLEY":" ","HOUSE_NO":"５９９號之１１","E_COORD97":169313.20000000001,"N_COORD97":2546130.4500000002,"ADDRESS":"公園路５９９號之１１","OBJECTID":509429},"geometry":{"x":169313.20000000019,"y":2546130.4500000011}},{"attributes":{"ID":509457,"DIS_CODE":0,"TOWNNAME":"北區","LI":"正覺里","LIN":"1鄰","STREET":"公園路","SECT":" ","MAREA":" ","LANE":" ","ALLEY":" ","HOUSE_NO":"５９９號之２","E_COORD97":169287.78,"N_COORD97":2546093.2000000002,"ADDRESS":"公園路５９９號之２","OBJECTID":509430},"geometry":{"x":169287.78000000026,"y":2546093.1999999993}},{"attributes":{"ID":509458,"DIS_CODE":0,"TOWNNAME":"北區","LI":"正覺里","LIN":"1鄰","STREET":"公園路","SECT":" ","MAREA":" ","LANE":" ","ALLEY":" ","HOUSE_NO":"５９９號之３","E_COORD97":169291.45000000001,"N_COORD97":2546096.3199999998,"ADDRESS":"公園路５９９號之３","OBJECTID":509431},"geometry":{"x":169291.45000000019,"y":2546096.3200000003}},{"attributes":{"ID":509459,"DIS_CODE":0,"TOWNNAME":"北區","LI":"正覺里","LIN":"1鄰","STREET":"公園路","SECT":" ","MAREA":" ","LANE":" ","ALLEY":" ","HOUSE_NO":"５９９號之４","E_COORD97":169292.73000000001,"N_COORD97":2546099.52,"ADDRESS":"公園路５９９號之４","OBJECTID":509432},"geometry":{"x":169292.73000000138,"y":2546099.5200000014}},{"attributes":{"ID":509460,"DIS_CODE":0,"TOWNNAME":"北區","LI":"正覺里","LIN":"1鄰","STREET":"公園路","SECT":" ","MAREA":" ","LANE":" ","ALLEY":" ","HOUSE_NO":"５９９號之５","E_COORD97":169296.39999999999,"N_COORD97":2546102.8199999998,"ADDRESS":"公園路５９９號之５","OBJECTID":509433},"geometry":{"x":169296.4000000013,"y":2546102.8200000003}},{"attributes":{"ID":509461,"DIS_CODE":0,"TOWNNAME":"北區","LI":"正覺里","LIN":"1鄰","STREET":"公園路","SECT":" ","MAREA":" ","LANE":" ","ALLEY":" ","HOUSE_NO":"５９９號之６","E_COORD97":169299.44,"N_COORD97":2546106.9900000002,"ADDRESS":"公園路５９９號之６","OBJECTID":509434},"geometry":{"x":169299.44000000134,"y":2546106.9900000021}},{"attributes":{"ID":509462,"DIS_CODE":0,"TOWNNAME":"北區","LI":"正覺里","LIN":"1鄰","STREET":"公園路","SECT":" ","MAREA":" ","LANE":" ","ALLEY":" ","HOUSE_NO":"５９９號之７","E_COORD97":169302.56,"N_COORD97":2546111.0299999998,"ADDRESS":"公園路５９９號之７","OBJECTID":509435},"geometry":{"x":169302.56000000145,"y":2546111.0299999993}},{"attributes":{"ID":509463,"DIS_CODE":0,"TOWNNAME":"北區","LI":"正覺里","LIN":"1鄰","STREET":"公園路","SECT":" ","MAREA":" ","LANE":" ","ALLEY":" ","HOUSE_NO":"５９９號之８","E_COORD97":169305.57999999999,"N_COORD97":2546115.4199999999,"ADDRESS":"公園路５９９號之８","OBJECTID":509436},"geometry":{"x":169305.58000000007,"y":2546115.4199999999}},{"attributes":{"ID":509464,"DIS_CODE":0,"TOWNNAME":"北區","LI":"正覺里","LIN":"1鄰","STREET":"公園路","SECT":" ","MAREA":" ","LANE":" ","ALLEY":" ","HOUSE_NO":"５９９號之９","E_COORD97":169308.06,"N_COORD97":2546119.0899999999,"ADDRESS":"公園路５９９號之９","OBJECTID":509437},"geometry":{"x":169308.06000000052,"y":2546119.0900000017}},{"attributes":{"ID":509465,"DIS_CODE":0,"TOWNNAME":"安平區","LI":"港仔里","LIN":"1鄰","STREET":"安平路","SECT":" ","MAREA":" ","LANE":" ","ALLEY":" ","HOUSE_NO":"２５號","E_COORD97":164682.76999999999,"N_COORD97":2544418.2200000002,"ADDRESS":"安平路２５號","OBJECTID":509438},"geometry":{"x":164682.76999999955,"y":2544418.2200000025}},{"attributes":{"ID":509466,"DIS_CODE":0,"TOWNNAME":"歸仁區","LI":"七甲里","LIN":"1鄰","STREET":"中正北路","SECT":"二段","MAREA":" ","LANE":" ","ALLEY":" ","HOUSE_NO":"１１５號","E_COORD97":177559.82000000001,"N_COORD97":2542395.6600000001,"ADDRESS":"中正北路二段１１５號","OBJECTID":509439},"geometry":{"x":177559.8200000003,"y":2542395.6600000001}},{"attributes":{"ID":509467,"DIS_CODE":0,"TOWNNAME":"歸仁區","LI":"八甲里","LIN":"1鄰","STREET":"大德路","SECT":" ","MAREA":" ","LANE":" ","ALLEY":" ","HOUSE_NO":"６５０號","E_COORD97":177001.76999999999,"N_COORD97":2541583.2599999998,"ADDRESS":"大德路６５０號","OBJECTID":509440},"geometry":{"x":177001.76999999955,"y":2541583.2599999998}},{"attributes":{"ID":509468,"DIS_CODE":0,"TOWNNAME":"北區","LI":"正覺里","LIN":"1鄰","STREET":"西門路","SECT":"四段","MAREA":" ","LANE":" ","ALLEY":" ","HOUSE_NO":"３５４號","E_COORD97":169000.70000000001,"N_COORD97":2546048.9100000001,"ADDRESS":"西門路四段３５４號","OBJECTID":509441},"geometry":{"x":169000.70000000112,"y":2546048.9099999983}},{"attributes":{"ID":509469,"DIS_CODE":0,"TOWNNAME":"北區","LI":"仁愛里","LIN":"1鄰","STREET":"東豐路","SECT":" ","MAREA":" ","LANE":" ","ALLEY":" ","HOUSE_NO":"１７１號","E_COORD97":169958.19,"N_COORD97":2544889.2400000002,"ADDRESS":"東豐路１７１號","OBJECTID":509442},"geometry":{"x":169958.19000000041,"y":2544889.2400000002}},{"attributes":{"ID":509470,"DIS_CODE":0,"TOWNNAME":"北區","LI":"重興里","LIN":"1鄰","STREET":"東豐路","SECT":" ","MAREA":" ","LANE":" ","ALLEY":" ","HOUSE_NO":"３３３號","E_COORD97":170490.42999999999,"N_COORD97":2544803.48,"ADDRESS":"東豐路３３３號","OBJECTID":509443},"geometry":{"x":170490.43000000063,"y":2544803.4800000004}},{"attributes":{"ID":509471,"DIS_CODE":0,"TOWNNAME":"安平區","LI":"平安里","LIN":"1鄰","STREET":"民權路","SECT":"四段","MAREA":" ","LANE":" ","ALLEY":" ","HOUSE_NO":"１號","E_COORD97":166597.89999999999,"N_COORD97":2544374.7599999998,"ADDRESS":"民權路四段１號","OBJECTID":509444},"geometry":{"x":166597.9000000013,"y":2544374.7600000035}},{"attributes":{"ID":509472,"DIS_CODE":0,"TOWNNAME":"安平區","LI":"平安里","LIN":"1鄰","STREET":"民權路","SECT":"四段","MAREA":" ","LANE":" ","ALLEY":" ","HOUSE_NO":"２１號","E_COORD97":166537,"N_COORD97":2544395.3999999999,"ADDRESS":"民權路四段２１號","OBJECTID":509445},"geometry":{"x":166537.00000000093,"y":2544395.4000000022}},{"attributes":{"ID":509473,"DIS_CODE":0,"TOWNNAME":"安平區","LI":"平安里","LIN":"1鄰","STREET":"民權路","SECT":"四段","MAREA":" ","LANE":" ","ALLEY":" ","HOUSE_NO":"２３號","E_COORD97":166530.94,"N_COORD97":2544396.3300000001,"ADDRESS":"民權路四段２３號","OBJECTID":509446},"geometry":{"x":166530.94000000227,"y":2544396.3300000019}},{"attributes":{"ID":509474,"DIS_CODE":0,"TOWNNAME":"安平區","LI":"平安里","LIN":"1鄰","STREET":"民權路","SECT":"四段","MAREA":" ","LANE":" ","ALLEY":" ","HOUSE_NO":"２５號","E_COORD97":166526.51999999999,"N_COORD97":2544397.0299999998,"ADDRESS":"民權路四段２５號","OBJECTID":509447},"geometry":{"x":166526.52000000048,"y":2544397.0300000012}},{"attributes":{"ID":509475,"DIS_CODE":0,"TOWNNAME":"安平區","LI":"平安里","LIN":"1鄰","STREET":"民權路","SECT":"四段","MAREA":" ","LANE":" ","ALLEY":" ","HOUSE_NO":"２７號","E_COORD97":166521.39000000001,"N_COORD97":2544397.73,"ADDRESS":"民權路四段２７號","OBJECTID":509448},"geometry":{"x":166521.38999999966,"y":2544397.7300000023}},{"attributes":{"ID":509476,"DIS_CODE":0,"TOWNNAME":"安平區","LI":"平安里","LIN":"1鄰","STREET":"民權路","SECT":"四段","MAREA":" ","LANE":" ","ALLEY":" ","HOUSE_NO":"２９號","E_COORD97":166517.20000000001,"N_COORD97":2544396.5699999998,"ADDRESS":"民權路四段２９號","OBJECTID":509449},"geometry":{"x":166517.20000000112,"y":2544396.5700000003}},{"attributes":{"ID":509477,"DIS_CODE":0,"TOWNNAME":"安平區","LI":"平安里","LIN":"1鄰","STREET":"民權路","SECT":"四段","MAREA":" ","LANE":" ","ALLEY":" ","HOUSE_NO":"３１號","E_COORD97":166512.31,"N_COORD97":2544396.5699999998,"ADDRESS":"民權路四段３１號","OBJECTID":509450},"geometry":{"x":166512.31000000145,"y":2544396.5700000003}},{"attributes":{"ID":509478,"DIS_CODE":0,"TOWNNAME":"安平區","LI":"平安里","LIN":"1鄰","STREET":"民權路","SECT":"四段","MAREA":" ","LANE":" ","ALLEY":" ","HOUSE_NO":"３３號","E_COORD97":166508.12,"N_COORD97":2544398.8900000001,"ADDRESS":"民權路四段３３號","OBJECTID":509451},"geometry":{"x":166508.12000000011,"y":2544398.8900000025}},{"attributes":{"ID":509479,"DIS_CODE":0,"TOWNNAME":"北區","LI":"重興里","LIN":"1鄰","STREET":"東豐路","SECT":" ","MAREA":" ","LANE":" ","ALLEY":" ","HOUSE_NO":"３３１號","E_COORD97":170484.72,"N_COORD97":2544804.1200000001,"ADDRESS":"東豐路３３１號","OBJECTID":509452},"geometry":{"x":170484.7200000016,"y":2544804.1199999992}},{"attributes":{"ID":509480,"DIS_CODE":0,"TOWNNAME":"北區","LI":"重興里","LIN":"1鄰","STREET":"東豐路","SECT":" ","MAREA":" ","LANE":" ","ALLEY":" ","HOUSE_NO":"３２９號","E_COORD97":170479.32000000001,"N_COORD97":2544804.75,"ADDRESS":"東豐路３２９號","OBJECTID":509453},"geometry":{"x":170479.3200000003,"y":2544804.75}},{"attributes":{"ID":509481,"DIS_CODE":0,"TOWNNAME":"北區","LI":"重興里","LIN":"1鄰","STREET":"東豐路","SECT":" ","MAREA":" ","LANE":" ","ALLEY":" ","HOUSE_NO":"３２７號","E_COORD97":170474.72,"N_COORD97":2544806.1800000002,"ADDRESS":"東豐路３２７號","OBJECTID":509454},"geometry":{"x":170474.7200000016,"y":2544806.1800000016}},{"attributes":{"ID":509482,"DIS_CODE":0,"TOWNNAME":"北區","LI":"重興里","LIN":"1鄰","STREET":"東豐路","SECT":" ","MAREA":" ","LANE":" ","ALLEY":" ","HOUSE_NO":"３２５號","E_COORD97":170470.42999999999,"N_COORD97":2544807.29,"ADDRESS":"東豐路３２５號","OBJECTID":509455},"geometry":{"x":170470.43000000063,"y":2544807.2899999991}},{"attributes":{"ID":509483,"DIS_CODE":0,"TOWNNAME":"北區","LI":"重興里","LIN":"1鄰","STREET":"東豐路","SECT":" ","MAREA":" ","LANE":" ","ALLEY":" ","HOUSE_NO":"３２３號","E_COORD97":170466.14999999999,"N_COORD97":2544807.9300000002,"ADDRESS":"東豐路３２３號","OBJECTID":509456},"geometry":{"x":170466.1500000013,"y":2544807.9300000016}},{"attributes":{"ID":509484,"DIS_CODE":0,"TOWNNAME":"北區","LI":"重興里","LIN":"1鄰","STREET":"東豐路","SECT":" ","MAREA":" ","LANE":" ","ALLEY":" ","HOUSE_NO":"３２１號","E_COORD97":170461.38,"N_COORD97":2544809.2000000002,"ADDRESS":"東豐路３２１號","OBJECTID":509457},"geometry":{"x":170461.37999999989,"y":2544809.2000000011}},{"attributes":{"ID":509485,"DIS_CODE":0,"TOWNNAME":"北區","LI":"重興里","LIN":"1鄰","STREET":"東豐路","SECT":" ","MAREA":" ","LANE":" ","ALLEY":" ","HOUSE_NO":"３１９號","E_COORD97":170457.26000000001,"N_COORD97":2544809.9900000002,"ADDRESS":"東豐路３１９號","OBJECTID":509458},"geometry":{"x":170457.25999999978,"y":2544809.9900000002}},{"attributes":{"ID":509486,"DIS_CODE":0,"TOWNNAME":"北區","LI":"重興里","LIN":"1鄰","STREET":"東豐路","SECT":" ","MAREA":" ","LANE":" ","ALLEY":" ","HOUSE_NO":"３１７號","E_COORD97":170452.01999999999,"N_COORD97":2544811.2599999998,"ADDRESS":"東豐路３１７號","OBJECTID":509459},"geometry":{"x":170452.02000000142,"y":2544811.2599999998}},{"attributes":{"ID":509487,"DIS_CODE":0,"TOWNNAME":"北區","LI":"重興里","LIN":"1鄰","STREET":"東豐路","SECT":" ","MAREA":" ","LANE":" ","ALLEY":" ","HOUSE_NO":"３１５號","E_COORD97":170447.10000000001,"N_COORD97":2544812.21,"ADDRESS":"東豐路３１５號","OBJECTID":509460},"geometry":{"x":170447.10000000056,"y":2544812.2100000009}},{"attributes":{"ID":509488,"DIS_CODE":0,"TOWNNAME":"北區","LI":"重興里","LIN":"1鄰","STREET":"東豐路","SECT":" ","MAREA":" ","LANE":" ","ALLEY":" ","HOUSE_NO":"３１３號","E_COORD97":170441.70000000001,"N_COORD97":2544813.6400000001,"ADDRESS":"東豐路３１３號","OBJECTID":509461},"geometry":{"x":170441.70000000112,"y":2544813.6399999987}},{"attributes":{"ID":509489,"DIS_CODE":0,"TOWNNAME":"北區","LI":"重興里","LIN":"1鄰","STREET":"東豐路","SECT":" ","MAREA":" ","LANE":" ","ALLEY":" ","HOUSE_NO":"３１１號","E_COORD97":170436.78,"N_COORD97":2544814.4399999999,"ADDRESS":"東豐路３１１號","OBJECTID":509462},"geometry":{"x":170436.78000000026,"y":2544814.4400000013}},{"attributes":{"ID":509490,"DIS_CODE":0,"TOWNNAME":"北區","LI":"重興里","LIN":"1鄰","STREET":"東豐路","SECT":" ","MAREA":" ","LANE":" ","ALLEY":" ","HOUSE_NO":"３０９號","E_COORD97":170431.54000000001,"N_COORD97":2544815.71,"ADDRESS":"東豐路３０９號","OBJECTID":509463},"geometry":{"x":170431.54000000004,"y":2544815.7100000009}},{"attributes":{"ID":509491,"DIS_CODE":0,"TOWNNAME":"北區","LI":"重興里","LIN":"1鄰","STREET":"東豐路","SECT":" ","MAREA":" ","LANE":" ","ALLEY":" ","HOUSE_NO":"３０７號","E_COORD97":170426.14000000001,"N_COORD97":2544816.5,"ADDRESS":"東豐路３０７號","OBJECTID":509464},"geometry":{"x":170426.1400000006,"y":2544816.5}},{"attributes":{"ID":509492,"DIS_CODE":0,"TOWNNAME":"南區","LI":"南華里","LIN":"1鄰","STREET":"中華南路","SECT":"二段","MAREA":" ","LANE":" ","ALLEY":" ","HOUSE_NO":"４０２號","E_COORD97":166395.34,"N_COORD97":2540299.21,"ADDRESS":"中華南路二段４０２號","OBJECTID":509465},"geometry":{"x":166395.34000000171,"y":2540299.2100000028}},{"attributes":{"ID":509493,"DIS_CODE":0,"TOWNNAME":"南區","LI":"南華里","LIN":"1鄰","STREET":"中華南路","SECT":"二段","MAREA":" ","LANE":" ","ALLEY":" ","HOUSE_NO":"４０４號","E_COORD97":166390.66,"N_COORD97":2540298.98,"ADDRESS":"中華南路二段４０４號","OBJECTID":509466},"geometry":{"x":166390.66000000108,"y":2540298.9800000042}},{"attributes":{"ID":509494,"DIS_CODE":0,"TOWNNAME":"南區","LI":"南華里","LIN":"1鄰","STREET":"中華南路","SECT":"二段","MAREA":" ","LANE":" ","ALLEY":" ","HOUSE_NO":"４０６號","E_COORD97":166386.56,"N_COORD97":2540298.98,"ADDRESS":"中華南路二段４０６號","OBJECTID":509467},"geometry":{"x":166386.55999999959,"y":2540298.9800000042}},{"attributes":{"ID":509495,"DIS_CODE":0,"TOWNNAME":"南區","LI":"南華里","LIN":"1鄰","STREET":"中華南路","SECT":"二段","MAREA":" ","LANE":" ","ALLEY":" ","HOUSE_NO":"４２４號","E_COORD97":166344.04999999999,"N_COORD97":2540298.3900000001,"ADDRESS":"中華南路二段４２４號","OBJECTID":509468},"geometry":{"x":166344.04999999981,"y":2540298.3900000006}},{"attributes":{"ID":509496,"DIS_CODE":0,"TOWNNAME":"南區","LI":"南華里","LIN":"1鄰","STREET":"中華南路","SECT":"二段","MAREA":" ","LANE":" ","ALLEY":" ","HOUSE_NO":"４２６號","E_COORD97":166340.07000000001,"N_COORD97":2540298.7400000002,"ADDRESS":"中華南路二段４２６號","OBJECTID":509469},"geometry":{"x":166340.07000000216,"y":2540298.7400000002}},{"attributes":{"ID":509497,"DIS_CODE":0,"TOWNNAME":"南區","LI":"南華里","LIN":"1鄰","STREET":"中華南路","SECT":"二段","MAREA":" ","LANE":" ","ALLEY":" ","HOUSE_NO":"４２８號","E_COORD97":166336.67000000001,"N_COORD97":2540298.3900000001,"ADDRESS":"中華南路二段４２８號","OBJECTID":509470},"geometry":{"x":166336.66999999993,"y":2540298.3900000006}},{"attributes":{"ID":509498,"DIS_CODE":0,"TOWNNAME":"南區","LI":"南華里","LIN":"1鄰","STREET":"中華南路","SECT":"二段","MAREA":" ","LANE":" ","ALLEY":" ","HOUSE_NO":"４３０號","E_COORD97":166331.17000000001,"N_COORD97":2540305.0600000001,"ADDRESS":"中華南路二段４３０號","OBJECTID":509471},"geometry":{"x":166331.17000000086,"y":2540305.0600000042}},{"attributes":{"ID":509499,"DIS_CODE":0,"TOWNNAME":"新營區","LI":"埤寮里","LIN":"1鄰","STREET":"中正路","SECT":" ","MAREA":" ","LANE":" ","ALLEY":" ","HOUSE_NO":"４９０號","E_COORD97":180085.23000000001,"N_COORD97":2580778.3599999999,"ADDRESS":"中正路４９０號","OBJECTID":509472},"geometry":{"x":180085.22999999952,"y":2580778.3599999994}},{"attributes":{"ID":509500,"DIS_CODE":0,"TOWNNAME":"新營區","LI":"新北里","LIN":"1鄰","STREET":"周武街","SECT":" ","MAREA":" ","LANE":" ","ALLEY":" ","HOUSE_NO":"２３號","E_COORD97":179390.64999999999,"N_COORD97":2578864.6499999999,"ADDRESS":"周武街２３號","OBJECTID":509473},"geometry":{"x":179390.64999999944,"y":2578864.6500000022}},{"attributes":{"ID":509501,"DIS_CODE":0,"TOWNNAME":"北區","LI":"成功里","LIN":"1鄰","STREET":"西門路","SECT":"四段","MAREA":" ","LANE":" ","ALLEY":" ","HOUSE_NO":"４３１號","E_COORD97":169174.41,"N_COORD97":2546440.3799999999,"ADDRESS":"西門路四段４３１號","OBJECTID":509474},"geometry":{"x":169174.41000000015,"y":2546440.379999999}},{"attributes":{"ID":509502,"DIS_CODE":0,"TOWNNAME":"北區","LI":"成功里","LIN":"1鄰","STREET":"西門路","SECT":"四段","MAREA":" ","LANE":" ","ALLEY":" ","HOUSE_NO":"４３３號","E_COORD97":169178.75,"N_COORD97":2546443.27,"ADDRESS":"西門路四段４３３號","OBJECTID":509475},"geometry":{"x":169178.75,"y":2546443.2700000014}},{"attributes":{"ID":509503,"DIS_CODE":0,"TOWNNAME":"北區","LI":"成功里","LIN":"1鄰","STREET":"西門路","SECT":"四段","MAREA":" ","LANE":" ","ALLEY":" ","HOUSE_NO":"４３５號","E_COORD97":169181.64000000001,"N_COORD97":2546446.1499999999,"ADDRESS":"西門路四段４３５號","OBJECTID":509476},"geometry":{"x":169181.64000000153,"y":2546446.1500000004}},{"attributes":{"ID":509504,"DIS_CODE":0,"TOWNNAME":"北區","LI":"成功里","LIN":"1鄰","STREET":"西門路","SECT":"四段","MAREA":" ","LANE":" ","ALLEY":" ","HOUSE_NO":"４３７號","E_COORD97":169185.01000000001,"N_COORD97":2546450,"ADDRESS":"西門路四段４３７號","OBJECTID":509477},"geometry":{"x":169185.01000000071,"y":2546450.0000000019}},{"attributes":{"ID":509505,"DIS_CODE":0,"TOWNNAME":"北區","LI":"成功里","LIN":"1鄰","STREET":"西門路","SECT":"四段","MAREA":" ","LANE":" ","ALLEY":" ","HOUSE_NO":"４３９號","E_COORD97":169185.97,"N_COORD97":2546454.8100000001,"ADDRESS":"西門路四段４３９號","OBJECTID":509478},"geometry":{"x":169185.96999999974,"y":2546454.8100000024}},{"attributes":{"ID":509506,"DIS_CODE":0,"TOWNNAME":"北區","LI":"成功里","LIN":"1鄰","STREET":"西門路","SECT":"四段","MAREA":" ","LANE":" ","ALLEY":" ","HOUSE_NO":"４４１號","E_COORD97":169188.38,"N_COORD97":2546458.6600000001,"ADDRESS":"西門路四段４４１號","OBJECTID":509479},"geometry":{"x":169188.37999999989,"y":2546458.660000002}},{"attributes":{"ID":509507,"DIS_CODE":0,"TOWNNAME":"北區","LI":"成功里","LIN":"1鄰","STREET":"西門路","SECT":"四段","MAREA":" ","LANE":" ","ALLEY":" ","HOUSE_NO":"４４３號","E_COORD97":169191.75,"N_COORD97":2546461.0699999998,"ADDRESS":"西門路四段４４３號","OBJECTID":509480},"geometry":{"x":169191.75000000093,"y":2546461.0700000003}},{"attributes":{"ID":509508,"DIS_CODE":0,"TOWNNAME":"北區","LI":"成功里","LIN":"1鄰","STREET":"西門路","SECT":"四段","MAREA":" ","LANE":" ","ALLEY":" ","HOUSE_NO":"４４５號","E_COORD97":169193.67999999999,"N_COORD97":2546465.8799999999,"ADDRESS":"西門路四段４４５號","OBJECTID":509481},"geometry":{"x":169193.68000000063,"y":2546465.8800000008}},{"attributes":{"ID":509509,"DIS_CODE":0,"TOWNNAME":"北區","LI":"成功里","LIN":"1鄰","STREET":"西門路","SECT":"四段","MAREA":" ","LANE":" ","ALLEY":" ","HOUSE_NO":"４４７號","E_COORD97":169199.94,"N_COORD97":2546466.3599999999,"ADDRESS":"西門路四段４４７號","OBJECTID":509482},"geometry":{"x":169199.94000000041,"y":2546466.3600000013}},{"attributes":{"ID":509510,"DIS_CODE":0,"TOWNNAME":"北區","LI":"成功里","LIN":"1鄰","STREET":"西門路","SECT":"四段","MAREA":" ","LANE":" ","ALLEY":" ","HOUSE_NO":"４４９號","E_COORD97":169201.87,"N_COORD97":2546470.6899999999,"ADDRESS":"西門路四段４４９號","OBJECTID":509483},"geometry":{"x":169201.87000000011,"y":2546470.6900000013}},{"attributes":{"ID":509511,"DIS_CODE":0,"TOWNNAME":"北區","LI":"成功里","LIN":"1鄰","STREET":"西門路","SECT":"四段","MAREA":" ","LANE":" ","ALLEY":" ","HOUSE_NO":"４５１號","E_COORD97":169204.28,"N_COORD97":2546475.5,"ADDRESS":"西門路四段４５１號","OBJECTID":509484},"geometry":{"x":169204.28000000026,"y":2546475.5000000037}},{"attributes":{"ID":509512,"DIS_CODE":0,"TOWNNAME":"北區","LI":"成功里","LIN":"1鄰","STREET":"西門路","SECT":"四段","MAREA":" ","LANE":" ","ALLEY":" ","HOUSE_NO":"４５３號","E_COORD97":169205.72,"N_COORD97":2546479.8300000001,"ADDRESS":"西門路四段４５３號","OBJECTID":509485},"geometry":{"x":169205.72000000067,"y":2546479.8300000001}},{"attributes":{"ID":509513,"DIS_CODE":0,"TOWNNAME":"北區","LI":"成功里","LIN":"1鄰","STREET":"西門路","SECT":"四段","MAREA":" ","LANE":" ","ALLEY":" ","HOUSE_NO":"４５５號","E_COORD97":169211.01999999999,"N_COORD97":2546487.04,"ADDRESS":"西門路四段４５５號","OBJECTID":509486},"geometry":{"x":169211.01999999955,"y":2546487.0399999991}},{"attributes":{"ID":509514,"DIS_CODE":0,"TOWNNAME":"關廟區","LI":"北勢里","LIN":"1鄰","STREET":"北新街","SECT":" ","MAREA":" ","LANE":" ","ALLEY":" ","HOUSE_NO":"１９號","E_COORD97":181272.04000000001,"N_COORD97":2540325.25,"ADDRESS":"北新街１９號","OBJECTID":509487},"geometry":{"x":181272.04000000004,"y":2540325.2500000019}},{"attributes":{"ID":509515,"DIS_CODE":0,"TOWNNAME":"關廟區","LI":"五甲里","LIN":"1鄰","STREET":"和平路","SECT":" ","MAREA":" ","LANE":" ","ALLEY":" ","HOUSE_NO":"３號","E_COORD97":181724.04000000001,"N_COORD97":2539303.25,"ADDRESS":"和平路３號","OBJECTID":509488},"geometry":{"x":181724.04000000097,"y":2539303.2500000037}},{"attributes":{"ID":509516,"DIS_CODE":0,"TOWNNAME":"安平區","LI":"海頭里","LIN":"1鄰","STREET":"延平街","SECT":" ","MAREA":" ","LANE":" ","ALLEY":" ","HOUSE_NO":"８２號","E_COORD97":164194.06,"N_COORD97":2544604.48,"ADDRESS":"延平街８２號","OBJECTID":509489},"geometry":{"x":164194.05999999959,"y":2544604.4800000042}},{"attributes":{"ID":509517,"DIS_CODE":0,"TOWNNAME":"安平區","LI":"海頭里","LIN":"1鄰","STREET":"延平街","SECT":" ","MAREA":" ","LANE":" ","ALLEY":" ","HOUSE_NO":"８４號","E_COORD97":164190.60999999999,"N_COORD97":2544603.1000000001,"ADDRESS":"延平街８４號","OBJECTID":509490},"geometry":{"x":164190.61000000127,"y":2544603.1000000034}},{"attributes":{"ID":509518,"DIS_CODE":0,"TOWNNAME":"歸仁區","LI":"歸仁里","LIN":"1鄰","STREET":"文化街","SECT":"一段","MAREA":" ","LANE":" ","ALLEY":" ","HOUSE_NO":"１２４號","E_COORD97":177741.72,"N_COORD97":2541126.2599999998,"ADDRESS":"文化街一段１２４號","OBJECTID":509491},"geometry":{"x":177741.71999999974,"y":2541126.2599999998}},{"attributes":{"ID":509519,"DIS_CODE":0,"TOWNNAME":"歸仁區","LI":"歸仁里","LIN":"1鄰","STREET":"文化街","SECT":"一段","MAREA":" ","LANE":" ","ALLEY":" ","HOUSE_NO":"１００號","E_COORD97":177863.82000000001,"N_COORD97":2541139.2599999998,"ADDRESS":"文化街一段１００號","OBJECTID":509492},"geometry":{"x":177863.82000000216,"y":2541139.2599999998}},{"attributes":{"ID":509520,"DIS_CODE":0,"TOWNNAME":"歸仁區","LI":"看東里","LIN":"1鄰","STREET":"忠孝南路","SECT":" ","MAREA":" ","LANE":" ","ALLEY":" ","HOUSE_NO":"５６號","E_COORD97":178505.32999999999,"N_COORD97":2540499.0499999998,"ADDRESS":"忠孝南路５６號","OBJECTID":509493},"geometry":{"x":178505.33000000007,"y":2540499.0500000026}},{"attributes":{"ID":509521,"DIS_CODE":0,"TOWNNAME":"歸仁區","LI":"媽廟里","LIN":"1鄰","STREET":"媽廟一街","SECT":" ","MAREA":" ","LANE":" ","ALLEY":" ","HOUSE_NO":"２５號","E_COORD97":177436.42999999999,"N_COORD97":2543528.7200000002,"ADDRESS":"媽廟一街２５號","OBJECTID":509494},"geometry":{"x":177436.4299999997,"y":2543528.7200000044}},{"attributes":{"ID":509522,"DIS_CODE":0,"TOWNNAME":"歸仁區","LI":"看西里","LIN":"1鄰","STREET":"仁愛三街","SECT":" ","MAREA":" ","LANE":" ","ALLEY":" ","HOUSE_NO":"２９號","E_COORD97":178366.94,"N_COORD97":2540476.2200000002,"ADDRESS":"仁愛三街２９號","OBJECTID":509495},"geometry":{"x":178366.94000000134,"y":2540476.2200000007}},{"attributes":{"ID":509523,"DIS_CODE":0,"TOWNNAME":"歸仁區","LI":"辜厝里","LIN":"1鄰","STREET":"中山路","SECT":"二段","MAREA":" ","LANE":" ","ALLEY":" ","HOUSE_NO":"２３號","E_COORD97":177540.70999999999,"N_COORD97":2540770.1200000001,"ADDRESS":"中山路二段２３號","OBJECTID":509496},"geometry":{"x":177540.71000000089,"y":2540770.1200000029}},{"attributes":{"ID":509524,"DIS_CODE":0,"TOWNNAME":"歸仁區","LI":"後市里","LIN":"1鄰","STREET":"大順街","SECT":" ","MAREA":" ","LANE":" ","ALLEY":" ","HOUSE_NO":"１５５號","E_COORD97":177018.73000000001,"N_COORD97":2540589.25,"ADDRESS":"大順街１５５號","OBJECTID":509497},"geometry":{"x":177018.73000000231,"y":2540589.2500000019}},{"attributes":{"ID":509525,"DIS_CODE":0,"TOWNNAME":"關廟區","LI":"關廟里","LIN":"1鄰","STREET":"文衡路","SECT":" ","MAREA":" ","LANE":" ","ALLEY":" ","HOUSE_NO":"６號","E_COORD97":180899.20999999999,"N_COORD97":2540052.27,"ADDRESS":"文衡路６號","OBJECTID":509498},"geometry":{"x":180899.21000000089,"y":2540052.2700000014}},{"attributes":{"ID":509526,"DIS_CODE":0,"TOWNNAME":"關廟區","LI":"關廟里","LIN":"1鄰","STREET":"文衡路","SECT":" ","MAREA":" ","LANE":" ","ALLEY":" ","HOUSE_NO":"２號","E_COORD97":180899.20999999999,"N_COORD97":2540049.27,"ADDRESS":"文衡路２號","OBJECTID":509499},"geometry":{"x":180899.21000000089,"y":2540049.2700000014}},{"attributes":{"ID":509527,"DIS_CODE":0,"TOWNNAME":"關廟區","LI":"關廟里","LIN":"1鄰","STREET":"文衡路","SECT":" ","MAREA":" ","LANE":" ","ALLEY":" ","HOUSE_NO":"２８號","E_COORD97":180903.48999999999,"N_COORD97":2540129.3300000001,"ADDRESS":"文衡路２８號","OBJECTID":509500},"geometry":{"x":180903.49000000022,"y":2540129.3300000001}},{"attributes":{"ID":509528,"DIS_CODE":0,"TOWNNAME":"南區","LI":"喜北里","LIN":"1鄰","STREET":"濱南路","SECT":" ","MAREA":" ","LANE":" ","ALLEY":" ","HOUSE_NO":"２２０號","E_COORD97":165866.56,"N_COORD97":2539265.1699999999,"ADDRESS":"濱南路２２０號","OBJECTID":509501},"geometry":{"x":165866.56000000052,"y":2539265.1699999999}},{"attributes":{"ID":509529,"DIS_CODE":0,"TOWNNAME":"南區","LI":"喜北里","LIN":"1鄰","STREET":"濱南路","SECT":" ","MAREA":" ","LANE":" ","ALLEY":" ","HOUSE_NO":"２３５號","E_COORD97":165904.35999999999,"N_COORD97":2539173.2599999998,"ADDRESS":"濱南路２３５號","OBJECTID":509502},"geometry":{"x":165904.36000000127,"y":2539173.2599999998}},{"attributes":{"ID":509530,"DIS_CODE":0,"TOWNNAME":"南區","LI":"文華里","LIN":"1鄰","STREET":"永華路","SECT":"一段","MAREA":" ","LANE":" ","ALLEY":" ","HOUSE_NO":"２６５號","E_COORD97":166999.76999999999,"N_COORD97":2543223.48,"ADDRESS":"永華路一段２６５號","OBJECTID":509503},"geometry":{"x":166999.77000000048,"y":2543223.4800000004}},{"attributes":{"ID":509531,"DIS_CODE":0,"TOWNNAME":"北區","LI":"新勝里","LIN":"1鄰","STREET":"北園街","SECT":" ","MAREA":" ","LANE":" ","ALLEY":" ","HOUSE_NO":"１號之１","E_COORD97":170348.92999999999,"N_COORD97":2545508.8100000001,"ADDRESS":"北園街１號之１","OBJECTID":509504},"geometry":{"x":170348.9299999997,"y":2545508.8100000024}},{"attributes":{"ID":509532,"DIS_CODE":0,"TOWNNAME":"北區","LI":"新勝里","LIN":"1鄰","STREET":"北園街","SECT":" ","MAREA":" ","LANE":" ","ALLEY":" ","HOUSE_NO":"３號","E_COORD97":170351.06,"N_COORD97":2545512.6699999999,"ADDRESS":"北園街３號","OBJECTID":509505},"geometry":{"x":170351.05999999959,"y":2545512.6700000018}},{"attributes":{"ID":509533,"DIS_CODE":0,"TOWNNAME":"北區","LI":"賢北里","LIN":"1鄰","STREET":"和緯路","SECT":"五段","MAREA":" ","LANE":" ","ALLEY":" ","HOUSE_NO":"６６號","E_COORD97":166392.81,"N_COORD97":2545204.0899999999,"ADDRESS":"和緯路五段６６號","OBJECTID":509506},"geometry":{"x":166392.80999999959,"y":2545204.0900000017}},{"attributes":{"ID":509534,"DIS_CODE":0,"TOWNNAME":"北區","LI":"大仁里","LIN":"1鄰","STREET":"北門路","SECT":"二段","MAREA":" ","LANE":" ","ALLEY":" ","HOUSE_NO":"２３８號","E_COORD97":169497.62,"N_COORD97":2545207.2999999998,"ADDRESS":"北門路二段２３８號","OBJECTID":509507},"geometry":{"x":169497.62000000197,"y":2545207.3000000026}},{"attributes":{"ID":509535,"DIS_CODE":0,"TOWNNAME":"北區","LI":"大仁里","LIN":"1鄰","STREET":"北門路","SECT":"二段","MAREA":" ","LANE":" ","ALLEY":" ","HOUSE_NO":"２４０號","E_COORD97":169499.53,"N_COORD97":2545211.7200000002,"ADDRESS":"北門路二段２４０號","OBJECTID":509508},"geometry":{"x":169499.53000000026,"y":2545211.7200000025}},{"attributes":{"ID":509536,"DIS_CODE":0,"TOWNNAME":"東區","LI":"自強里","LIN":"1鄰","STREET":"東成街","SECT":" ","MAREA":" ","LANE":" ","ALLEY":" ","HOUSE_NO":"７５號","E_COORD97":171469.87,"N_COORD97":2542287.98,"ADDRESS":"東成街７５號","OBJECTID":509509},"geometry":{"x":171469.87000000104,"y":2542287.9800000004}},{"attributes":{"ID":509537,"DIS_CODE":0,"TOWNNAME":"北區","LI":"大仁里","LIN":"1鄰","STREET":"北門路","SECT":"二段","MAREA":" ","LANE":" ","ALLEY":" ","HOUSE_NO":"２４２號","E_COORD97":169501.38,"N_COORD97":2545216.0899999999,"ADDRESS":"北門路二段２４２號","OBJECTID":509510},"geometry":{"x":169501.38000000082,"y":2545216.0899999999}},{"attributes":{"ID":509538,"DIS_CODE":0,"TOWNNAME":"北區","LI":"大仁里","LIN":"1鄰","STREET":"北門路","SECT":"二段","MAREA":" ","LANE":" ","ALLEY":" ","HOUSE_NO":"２４６號","E_COORD97":169503.04999999999,"N_COORD97":2545220.7599999998,"ADDRESS":"北門路二段２４６號","OBJECTID":509511},"geometry":{"x":169503.05000000075,"y":2545220.7599999998}},{"attributes":{"ID":509539,"DIS_CODE":0,"TOWNNAME":"北區","LI":"大仁里","LIN":"1鄰","STREET":"北門路","SECT":"二段","MAREA":" ","LANE":" ","ALLEY":" ","HOUSE_NO":"２４８號","E_COORD97":169505.26000000001,"N_COORD97":2545225.5,"ADDRESS":"北門路二段２４８號","OBJECTID":509512},"geometry":{"x":169505.26000000071,"y":2545225.5000000019}},{"attributes":{"ID":509540,"DIS_CODE":0,"TOWNNAME":"北區","LI":"大仁里","LIN":"1鄰","STREET":"北門路","SECT":"二段","MAREA":" ","LANE":" ","ALLEY":" ","HOUSE_NO":"２５０號","E_COORD97":169507.06,"N_COORD97":2545230.5899999999,"ADDRESS":"北門路二段２５０號","OBJECTID":509513},"geometry":{"x":169507.05999999959,"y":2545230.5900000036}},{"attributes":{"ID":509541,"DIS_CODE":0,"TOWNNAME":"北區","LI":"大仁里","LIN":"1鄰","STREET":"北門路","SECT":"二段","MAREA":" ","LANE":" ","ALLEY":" ","HOUSE_NO":"２５２號","E_COORD97":169509.26999999999,"N_COORD97":2545235.1200000001,"ADDRESS":"北門路二段２５２號","OBJECTID":509514},"geometry":{"x":169509.26999999955,"y":2545235.1200000048}},{"attributes":{"ID":509542,"DIS_CODE":0,"TOWNNAME":"北區","LI":"大仁里","LIN":"1鄰","STREET":"北門路","SECT":"二段","MAREA":" ","LANE":" ","ALLEY":" ","HOUSE_NO":"２５６號","E_COORD97":169511.32000000001,"N_COORD97":2545239.7799999998,"ADDRESS":"北門路二段２５６號","OBJECTID":509515},"geometry":{"x":169511.3200000003,"y":2545239.7800000012}},{"attributes":{"ID":509543,"DIS_CODE":0,"TOWNNAME":"北區","LI":"大仁里","LIN":"1鄰","STREET":"北門路","SECT":"二段","MAREA":" ","LANE":" ","ALLEY":" ","HOUSE_NO":"２６０號","E_COORD97":169518.70000000001,"N_COORD97":2545259,"ADDRESS":"北門路二段２６０號","OBJECTID":509516},"geometry":{"x":169518.70000000019,"y":2545259.0000000019}},{"attributes":{"ID":509544,"DIS_CODE":0,"TOWNNAME":"北區","LI":"大仁里","LIN":"1鄰","STREET":"北門路","SECT":"二段","MAREA":" ","LANE":" ","ALLEY":" ","HOUSE_NO":"２６２號","E_COORD97":169520.82000000001,"N_COORD97":2545264.3700000001,"ADDRESS":"北門路二段２６２號","OBJECTID":509517},"geometry":{"x":169520.82000000123,"y":2545264.3700000029}},{"attributes":{"ID":509545,"DIS_CODE":0,"TOWNNAME":"北區","LI":"五福里","LIN":"1鄰","STREET":"公園南路","SECT":" ","MAREA":" ","LANE":" ","ALLEY":" ","HOUSE_NO":"２６５號","E_COORD97":168422.85000000001,"N_COORD97":2544727.5899999999,"ADDRESS":"公園南路２６５號","OBJECTID":509518},"geometry":{"x":168422.85000000056,"y":2544727.5899999999}},{"attributes":{"ID":509546,"DIS_CODE":0,"TOWNNAME":"南區","LI":"大恩里","LIN":"1鄰","STREET":"國民路","SECT":" ","MAREA":" ","LANE":" ","ALLEY":" ","HOUSE_NO":"８２號","E_COORD97":169350.03,"N_COORD97":2540910.5600000001,"ADDRESS":"國民路８２號","OBJECTID":509519},"geometry":{"x":169350.03000000026,"y":2540910.5600000005}},{"attributes":{"ID":509547,"DIS_CODE":0,"TOWNNAME":"鹽水區","LI":"中境里","LIN":"1鄰","STREET":"武廟路","SECT":" ","MAREA":" ","LANE":" ","ALLEY":" ","HOUSE_NO":"１９號","E_COORD97":174858.39000000001,"N_COORD97":2580006.46,"ADDRESS":"武廟路１９號","OBJECTID":509520},"geometry":{"x":174858.38999999966,"y":2580006.4600000009}},{"attributes":{"ID":509548,"DIS_CODE":0,"TOWNNAME":"鹽水區","LI":"中境里","LIN":"1鄰","STREET":"武廟路","SECT":" ","MAREA":" ","LANE":" ","ALLEY":" ","HOUSE_NO":"１號","E_COORD97":174861.32999999999,"N_COORD97":2579936.21,"ADDRESS":"武廟路１號","OBJECTID":509521},"geometry":{"x":174861.33000000194,"y":2579936.2100000028}},{"attributes":{"ID":509549,"DIS_CODE":0,"TOWNNAME":"鹽水區","LI":"中境里","LIN":"1鄰","STREET":"武廟路","SECT":" ","MAREA":" ","LANE":" ","ALLEY":" ","HOUSE_NO":"５號","E_COORD97":174772.56,"N_COORD97":2579966.46,"ADDRESS":"武廟路５號","OBJECTID":509522},"geometry":{"x":174772.55999999959,"y":2579966.4600000009}},{"attributes":{"ID":509550,"DIS_CODE":0,"TOWNNAME":"安平區","LI":"港仔里","LIN":"1鄰","STREET":"安平路","SECT":" ","MAREA":" ","LANE":" ","ALLEY":" ","HOUSE_NO":"５５號","E_COORD97":164541.07999999999,"N_COORD97":2544448.4700000002,"ADDRESS":"安平路５５號","OBJECTID":509523},"geometry":{"x":164541.08000000194,"y":2544448.4700000007}},{"attributes":{"ID":509551,"DIS_CODE":0,"TOWNNAME":"鹽水區","LI":"中境里","LIN":"1鄰","STREET":"武廟路","SECT":" ","MAREA":" ","LANE":" ","ALLEY":" ","HOUSE_NO":"７之１號","E_COORD97":174691.47,"N_COORD97":2580006.2200000002,"ADDRESS":"武廟路７之１號","OBJECTID":509524},"geometry":{"x":174691.46999999974,"y":2580006.2200000025}},{"attributes":{"ID":509552,"DIS_CODE":0,"TOWNNAME":"鹽水區","LI":"中境里","LIN":"1鄰","STREET":"武廟路","SECT":" ","MAREA":" ","LANE":" ","ALLEY":" ","HOUSE_NO":"７號","E_COORD97":174723.17000000001,"N_COORD97":2579992.9500000002,"ADDRESS":"武廟路７號","OBJECTID":509525},"geometry":{"x":174723.16999999899,"y":2579992.9500000011}},{"attributes":{"ID":509553,"DIS_CODE":0,"TOWNNAME":"北區","LI":"中樓里","LIN":"1鄰","STREET":"小東路","SECT":" ","MAREA":" ","LANE":" ","ALLEY":" ","HOUSE_NO":"３３號","E_COORD97":169786.73999999999,"N_COORD97":2544658.7400000002,"ADDRESS":"小東路３３號","OBJECTID":509526},"geometry":{"x":169786.74000000209,"y":2544658.7400000002}},{"attributes":{"ID":509554,"DIS_CODE":0,"TOWNNAME":"北區","LI":"賢北里","LIN":"1鄰","STREET":"和緯路","SECT":"五段","MAREA":" ","LANE":" ","ALLEY":" ","HOUSE_NO":"３０號","E_COORD97":166505.03,"N_COORD97":2545258.98,"ADDRESS":"和緯路五段３０號","OBJECTID":509527},"geometry":{"x":166505.03000000119,"y":2545258.9800000042}},{"attributes":{"ID":509555,"DIS_CODE":0,"TOWNNAME":"北區","LI":"大道里","LIN":"1鄰","STREET":"和緯路","SECT":"一段","MAREA":" ","LANE":" ","ALLEY":" ","HOUSE_NO":"２號","E_COORD97":169707.22,"N_COORD97":2545513.5600000001,"ADDRESS":"和緯路一段２號","OBJECTID":509528},"geometry":{"x":169707.22000000067,"y":2545513.5600000024}},{"attributes":{"ID":509556,"DIS_CODE":0,"TOWNNAME":"北區","LI":"新勝里","LIN":"1鄰","STREET":"開元路","SECT":" ","MAREA":" ","LANE":" ","ALLEY":" ","HOUSE_NO":"３５５之６號","E_COORD97":170305.67999999999,"N_COORD97":2545497.46,"ADDRESS":"開元路３５５之６號","OBJECTID":509529},"geometry":{"x":170305.68000000063,"y":2545497.4600000028}},{"attributes":{"ID":509557,"DIS_CODE":0,"TOWNNAME":"北區","LI":"賢北里","LIN":"1鄰","STREET":"賢北街","SECT":" ","MAREA":" ","LANE":" ","ALLEY":" ","HOUSE_NO":"２８號","E_COORD97":166342.29000000001,"N_COORD97":2545272.6499999999,"ADDRESS":"賢北街２８號","OBJECTID":509530},"geometry":{"x":166342.29000000097,"y":2545272.6500000022}},{"attributes":{"ID":509558,"DIS_CODE":0,"TOWNNAME":"關廟區","LI":"關廟里","LIN":"1鄰","STREET":"文衡路","SECT":" ","MAREA":" ","LANE":" ","ALLEY":" ","HOUSE_NO":"４０號","E_COORD97":180905.09,"N_COORD97":2540150.3300000001,"ADDRESS":"文衡路４０號","OBJECTID":509531},"geometry":{"x":180905.09000000078,"y":2540150.3300000038}},{"attributes":{"ID":509559,"DIS_CODE":0,"TOWNNAME":"新營區","LI":"新北里","LIN":"1鄰","STREET":"三興街","SECT":" ","MAREA":" ","LANE":" ","ALLEY":" ","HOUSE_NO":"５７號之１０","E_COORD97":179402.53,"N_COORD97":2578928.8999999999,"ADDRESS":"三興街５７號之１０","OBJECTID":509532},"geometry":{"x":179402.53000000026,"y":2578928.9000000004}},{"attributes":{"ID":509560,"DIS_CODE":0,"TOWNNAME":"新營區","LI":"新東里","LIN":"1鄰","STREET":"開元路","SECT":" ","MAREA":" ","LANE":" ","ALLEY":" ","HOUSE_NO":"２０７號","E_COORD97":181638.04000000001,"N_COORD97":2579528.5499999998,"ADDRESS":"開元路２０７號","OBJECTID":509533},"geometry":{"x":181638.04000000097,"y":2579528.5499999989}},{"attributes":{"ID":509561,"DIS_CODE":0,"TOWNNAME":"新營區","LI":"新東里","LIN":"1鄰","STREET":"開元路","SECT":" ","MAREA":" ","LANE":" ","ALLEY":" ","HOUSE_NO":"２２５號","E_COORD97":181727.32000000001,"N_COORD97":2579593.48,"ADDRESS":"開元路２２５號","OBJECTID":509534},"geometry":{"x":181727.32000000216,"y":2579593.4800000042}},{"attributes":{"ID":509562,"DIS_CODE":0,"TOWNNAME":"新營區","LI":"中營里","LIN":"1鄰","STREET":"文昌街","SECT":" ","MAREA":" ","LANE":" ","ALLEY":" ","HOUSE_NO":"３３號","E_COORD97":180274.81,"N_COORD97":2578298.98,"ADDRESS":"文昌街３３號","OBJECTID":509535},"geometry":{"x":180274.80999999959,"y":2578298.9800000023}},{"attributes":{"ID":509563,"DIS_CODE":0,"TOWNNAME":"南區","LI":"廣州里","LIN":"1鄰","STREET":"福吉路","SECT":" ","MAREA":" ","LANE":" ","ALLEY":" ","HOUSE_NO":"５７號","E_COORD97":167331.12,"N_COORD97":2542550.1200000001,"ADDRESS":"福吉路５７號","OBJECTID":509536},"geometry":{"x":167331.12000000197,"y":2542550.1200000029}},{"attributes":{"ID":509564,"DIS_CODE":0,"TOWNNAME":"南區","LI":"廣州里","LIN":"1鄰","STREET":"福吉路","SECT":" ","MAREA":" ","LANE":" ","ALLEY":" ","HOUSE_NO":"５９號","E_COORD97":167329.01000000001,"N_COORD97":2542547.5899999999,"ADDRESS":"福吉路５９號","OBJECTID":509537},"geometry":{"x":167329.00999999978,"y":2542547.5899999999}},{"attributes":{"ID":509565,"DIS_CODE":0,"TOWNNAME":"南區","LI":"廣州里","LIN":"1鄰","STREET":"福吉路","SECT":" ","MAREA":" ","LANE":" ","ALLEY":" ","HOUSE_NO":"６１號","E_COORD97":167326.48000000001,"N_COORD97":2542544.2200000002,"ADDRESS":"福吉路６１號","OBJECTID":509538},"geometry":{"x":167326.48000000045,"y":2542544.2200000007}},{"attributes":{"ID":509566,"DIS_CODE":0,"TOWNNAME":"南區","LI":"廣州里","LIN":"1鄰","STREET":"福吉路","SECT":" ","MAREA":" ","LANE":" ","ALLEY":" ","HOUSE_NO":"５３號","E_COORD97":167336.60999999999,"N_COORD97":2542556.4500000002,"ADDRESS":"福吉路５３號","OBJECTID":509539},"geometry":{"x":167336.6100000022,"y":2542556.4500000011}},{"attributes":{"ID":509567,"DIS_CODE":0,"TOWNNAME":"新化區","LI":"協興里","LIN":"1鄰","STREET":"忠孝路","SECT":" ","MAREA":" ","LANE":" ","ALLEY":" ","HOUSE_NO":"１６０號之２","E_COORD97":178536.17999999999,"N_COORD97":2548624.2599999998,"ADDRESS":"忠孝路１６０號之２","OBJECTID":509540},"geometry":{"x":178536.18000000063,"y":2548624.2600000016}},{"attributes":{"ID":509568,"DIS_CODE":0,"TOWNNAME":"東區","LI":"虎尾里","LIN":"1鄰","STREET":"東門路","SECT":"三段","MAREA":" ","LANE":" ","ALLEY":" ","HOUSE_NO":"２２７號","E_COORD97":171597.53,"N_COORD97":2541937.3500000001,"ADDRESS":"東門路三段２２７號","OBJECTID":509541},"geometry":{"x":171597.53000000119,"y":2541937.3500000015}},{"attributes":{"ID":509569,"DIS_CODE":0,"TOWNNAME":"東區","LI":"虎尾里","LIN":"1鄰","STREET":"東門路","SECT":"三段","MAREA":" ","LANE":" ","ALLEY":" ","HOUSE_NO":"２２９號","E_COORD97":171602.79999999999,"N_COORD97":2541933.6499999999,"ADDRESS":"東門路三段２２９號","OBJECTID":509542},"geometry":{"x":171602.79999999981,"y":2541933.6500000004}},{"attributes":{"ID":509570,"DIS_CODE":0,"TOWNNAME":"東區","LI":"虎尾里","LIN":"1鄰","STREET":"東門路","SECT":"三段","MAREA":" ","LANE":" ","ALLEY":" ","HOUSE_NO":"２４１號","E_COORD97":171646.28,"N_COORD97":2541898.48,"ADDRESS":"東門路三段２４１號","OBJECTID":509543},"geometry":{"x":171646.28000000119,"y":2541898.4800000004}},{"attributes":{"ID":509571,"DIS_CODE":0,"TOWNNAME":"東區","LI":"龍山里","LIN":"1鄰","STREET":"東門路","SECT":"二段","MAREA":" ","LANE":" ","ALLEY":" ","HOUSE_NO":"３０６號","E_COORD97":170614.34,"N_COORD97":2542673.7400000002,"ADDRESS":"東門路二段３０６號","OBJECTID":509544},"geometry":{"x":170614.33999999985,"y":2542673.7400000039}},{"attributes":{"ID":509572,"DIS_CODE":0,"TOWNNAME":"東區","LI":"龍山里","LIN":"1鄰","STREET":"東門路","SECT":"二段","MAREA":" ","LANE":" ","ALLEY":" ","HOUSE_NO":"３０８號","E_COORD97":170618.19,"N_COORD97":2542672.9100000001,"ADDRESS":"東門路二段３０８號","OBJECTID":509545},"geometry":{"x":170618.19000000134,"y":2542672.910000002}},{"attributes":{"ID":509573,"DIS_CODE":0,"TOWNNAME":"東區","LI":"龍山里","LIN":"1鄰","STREET":"東門路","SECT":"二段","MAREA":" ","LANE":" ","ALLEY":" ","HOUSE_NO":"３１４號","E_COORD97":170633.73999999999,"N_COORD97":2542663.9700000002,"ADDRESS":"東門路二段３１４號","OBJECTID":509546},"geometry":{"x":170633.74000000022,"y":2542663.9700000007}},{"attributes":{"ID":509574,"DIS_CODE":0,"TOWNNAME":"東區","LI":"龍山里","LIN":"1鄰","STREET":"東門路","SECT":"二段","MAREA":" ","LANE":" ","ALLEY":" ","HOUSE_NO":"３２０號","E_COORD97":170650.53,"N_COORD97":2542650.4900000002,"ADDRESS":"東門路二段３２０號","OBJECTID":509547},"geometry":{"x":170650.53000000026,"y":2542650.4900000002}},{"attributes":{"ID":509575,"DIS_CODE":0,"TOWNNAME":"東區","LI":"龍山里","LIN":"1鄰","STREET":"東門路","SECT":"二段","MAREA":" ","LANE":" ","ALLEY":" ","HOUSE_NO":"３２４號","E_COORD97":170656.87,"N_COORD97":2542645.1299999999,"ADDRESS":"東門路二段３２４號","OBJECTID":509548},"geometry":{"x":170656.87000000011,"y":2542645.129999999}},{"attributes":{"ID":509576,"DIS_CODE":0,"TOWNNAME":"東區","LI":"龍山里","LIN":"1鄰","STREET":"東門路","SECT":"二段","MAREA":" ","LANE":" ","ALLEY":" ","HOUSE_NO":"３２６號","E_COORD97":170662.10000000001,"N_COORD97":2542643.6200000001,"ADDRESS":"東門路二段３２６號","OBJECTID":509549},"geometry":{"x":170662.10000000056,"y":2542643.620000001}},{"attributes":{"ID":509577,"DIS_CODE":0,"TOWNNAME":"東區","LI":"富裕里","LIN":"1鄰","STREET":"東門路","SECT":"二段","MAREA":" ","LANE":" ","ALLEY":" ","HOUSE_NO":"２７５號","E_COORD97":170656.81,"N_COORD97":2542691.8300000001,"ADDRESS":"東門路二段２７５號","OBJECTID":509550},"geometry":{"x":170656.80999999866,"y":2542691.8300000001}},{"attributes":{"ID":509578,"DIS_CODE":0,"TOWNNAME":"東區","LI":"富裕里","LIN":"1鄰","STREET":"東門路","SECT":"二段","MAREA":" ","LANE":" ","ALLEY":" ","HOUSE_NO":"２８１號","E_COORD97":170669.89000000001,"N_COORD97":2542679.1600000001,"ADDRESS":"東門路二段２８１號","OBJECTID":509551},"geometry":{"x":170669.88999999873,"y":2542679.1600000001}},{"attributes":{"ID":509579,"DIS_CODE":0,"TOWNNAME":"東區","LI":"自強里","LIN":"1鄰","STREET":"東成街","SECT":" ","MAREA":" ","LANE":" ","ALLEY":" ","HOUSE_NO":"５７號","E_COORD97":171379.54999999999,"N_COORD97":2542270.71,"ADDRESS":"東成街５７號","OBJECTID":509552},"geometry":{"x":171379.55000000075,"y":2542270.709999999}},{"attributes":{"ID":509580,"DIS_CODE":0,"TOWNNAME":"東區","LI":"新東里","LIN":"1鄰","STREET":"東門路","SECT":"二段","MAREA":" ","LANE":" ","ALLEY":" ","HOUSE_NO":"１４１號","E_COORD97":170314.73000000001,"N_COORD97":2542898.3100000001,"ADDRESS":"東門路二段１４１號","OBJECTID":509553},"geometry":{"x":170314.73000000138,"y":2542898.3100000024}},{"attributes":{"ID":509581,"DIS_CODE":0,"TOWNNAME":"東區","LI":"中西里","LIN":"1鄰","STREET":"東門路","SECT":"一段","MAREA":" ","LANE":" ","ALLEY":" ","HOUSE_NO":"３０１號","E_COORD97":169900.60999999999,"N_COORD97":2543032.1800000002,"ADDRESS":"東門路一段３０１號","OBJECTID":509554},"geometry":{"x":169900.61000000034,"y":2543032.1799999997}},{"attributes":{"ID":509582,"DIS_CODE":0,"TOWNNAME":"東區","LI":"中西里","LIN":"1鄰","STREET":"東門路","SECT":"一段","MAREA":" ","LANE":" ","ALLEY":" ","HOUSE_NO":"３０３號","E_COORD97":169905.67000000001,"N_COORD97":2543031.4500000002,"ADDRESS":"東門路一段３０３號","OBJECTID":509555},"geometry":{"x":169905.67000000179,"y":2543031.4500000011}},{"attributes":{"ID":509583,"DIS_CODE":0,"TOWNNAME":"東區","LI":"東安里","LIN":"1鄰","STREET":"東門路","SECT":"二段","MAREA":" ","LANE":" ","ALLEY":" ","HOUSE_NO":"１１７號","E_COORD97":170212.14999999999,"N_COORD97":2542927.4500000002,"ADDRESS":"東門路二段１１７號","OBJECTID":509556},"geometry":{"x":170212.1500000013,"y":2542927.4499999993}},{"attributes":{"ID":509584,"DIS_CODE":0,"TOWNNAME":"東區","LI":"崇明里","LIN":"1鄰","STREET":"中華東路","SECT":"三段","MAREA":" ","LANE":" ","ALLEY":" ","HOUSE_NO":"４７９號","E_COORD97":169751.97,"N_COORD97":2541460.9300000002,"ADDRESS":"中華東路三段４７９號","OBJECTID":509557},"geometry":{"x":169751.96999999974,"y":2541460.9299999997}},{"attributes":{"ID":509585,"DIS_CODE":0,"TOWNNAME":"東區","LI":"虎尾里","LIN":"1鄰","STREET":"東門路","SECT":"三段","MAREA":" ","LANE":" ","ALLEY":" ","HOUSE_NO":"１８１號","E_COORD97":171521.51000000001,"N_COORD97":2541996.8500000001,"ADDRESS":"東門路三段１８１號","OBJECTID":509558},"geometry":{"x":171521.50999999978,"y":2541996.8499999996}},{"attributes":{"ID":509586,"DIS_CODE":0,"TOWNNAME":"東區","LI":"東安里","LIN":"1鄰","STREET":"東門路","SECT":"二段","MAREA":" ","LANE":" ","ALLEY":" ","HOUSE_NO":"７７號","E_COORD97":170132.39000000001,"N_COORD97":2542953.0600000001,"ADDRESS":"東門路二段７７號","OBJECTID":509559},"geometry":{"x":170132.38999999966,"y":2542953.0600000042}},{"attributes":{"ID":509587,"DIS_CODE":0,"TOWNNAME":"東區","LI":"東安里","LIN":"1鄰","STREET":"東門路","SECT":"二段","MAREA":" ","LANE":" ","ALLEY":" ","HOUSE_NO":"９３號","E_COORD97":170169.5,"N_COORD97":2542940.4500000002,"ADDRESS":"東門路二段９３號","OBJECTID":509560},"geometry":{"x":170169.50000000186,"y":2542940.4500000011}},{"attributes":{"ID":509588,"DIS_CODE":0,"TOWNNAME":"東區","LI":"東安里","LIN":"1鄰","STREET":"東門路","SECT":"二段","MAREA":" ","LANE":" ","ALLEY":" ","HOUSE_NO":"１０３號","E_COORD97":170185.75,"N_COORD97":2542935.8999999999,"ADDRESS":"東門路二段１０３號","OBJECTID":509561},"geometry":{"x":170185.75,"y":2542935.9000000004}},{"attributes":{"ID":509589,"DIS_CODE":0,"TOWNNAME":"東區","LI":"虎尾里","LIN":"1鄰","STREET":"東門路","SECT":"三段","MAREA":" ","LANE":" ","ALLEY":" ","HOUSE_NO":"１２９號","E_COORD97":171342.48000000001,"N_COORD97":2542144.3900000001,"ADDRESS":"東門路三段１２９號","OBJECTID":509562},"geometry":{"x":171342.48000000045,"y":2542144.3900000025}},{"attributes":{"ID":509590,"DIS_CODE":0,"TOWNNAME":"東區","LI":"虎尾里","LIN":"1鄰","STREET":"東門路","SECT":"三段","MAREA":" ","LANE":" ","ALLEY":" ","HOUSE_NO":"１３１號","E_COORD97":171370.35999999999,"N_COORD97":2542136.9199999999,"ADDRESS":"東門路三段１３１號","OBJECTID":509563},"geometry":{"x":171370.36000000034,"y":2542136.9200000018}},{"attributes":{"ID":509591,"DIS_CODE":0,"TOWNNAME":"東區","LI":"虎尾里","LIN":"1鄰","STREET":"東門路","SECT":"三段","MAREA":" ","LANE":" ","ALLEY":" ","HOUSE_NO":"１３９號","E_COORD97":171403.35999999999,"N_COORD97":2542099.3599999999,"ADDRESS":"東門路三段１３９號","OBJECTID":509564},"geometry":{"x":171403.3600000022,"y":2542099.3600000013}},{"attributes":{"ID":509592,"DIS_CODE":0,"TOWNNAME":"東區","LI":"崇明里","LIN":"1鄰","STREET":"中華東路","SECT":"三段","MAREA":" ","LANE":" ","ALLEY":" ","HOUSE_NO":"４８３號","E_COORD97":169740.88,"N_COORD97":2541456.7799999998,"ADDRESS":"中華東路三段４８３號","OBJECTID":509565},"geometry":{"x":169740.87999999989,"y":2541456.7800000012}},{"attributes":{"ID":509593,"DIS_CODE":0,"TOWNNAME":"東區","LI":"崇明里","LIN":"1鄰","STREET":"中華東路","SECT":"三段","MAREA":" ","LANE":" ","ALLEY":" ","HOUSE_NO":"４８７號","E_COORD97":169745.60000000001,"N_COORD97":2541477.6899999999,"ADDRESS":"中華東路三段４８７號","OBJECTID":509566},"geometry":{"x":169745.59999999963,"y":2541477.6900000013}},{"attributes":{"ID":509594,"DIS_CODE":0,"TOWNNAME":"東區","LI":"崇明里","LIN":"1鄰","STREET":"中華東路","SECT":"三段","MAREA":" ","LANE":" ","ALLEY":" ","HOUSE_NO":"５１１號","E_COORD97":169675.20000000001,"N_COORD97":2541466.8199999998,"ADDRESS":"中華東路三段５１１號","OBJECTID":509567},"geometry":{"x":169675.20000000205,"y":2541466.8200000022}},{"attributes":{"ID":509595,"DIS_CODE":0,"TOWNNAME":"東區","LI":"崇明里","LIN":"1鄰","STREET":"中華東路","SECT":"三段","MAREA":" ","LANE":" ","ALLEY":" ","HOUSE_NO":"５１７號","E_COORD97":169663.76000000001,"N_COORD97":2541458.6800000002,"ADDRESS":"中華東路三段５１７號","OBJECTID":509568},"geometry":{"x":169663.75999999978,"y":2541458.6799999997}},{"attributes":{"ID":509596,"DIS_CODE":0,"TOWNNAME":"東區","LI":"自強里","LIN":"1鄰","STREET":"東成街","SECT":" ","MAREA":" ","LANE":" ","ALLEY":" ","HOUSE_NO":"１１號","E_COORD97":171276.41,"N_COORD97":2542253.7999999998,"ADDRESS":"東成街１１號","OBJECTID":509569},"geometry":{"x":171276.41000000108,"y":2542253.8000000026}},{"attributes":{"ID":509597,"DIS_CODE":0,"TOWNNAME":"東區","LI":"崇明里","LIN":"1鄰","STREET":"中華東路","SECT":"三段","MAREA":" ","LANE":" ","ALLEY":" ","HOUSE_NO":"５２１號","E_COORD97":169657.35000000001,"N_COORD97":2541453.6600000001,"ADDRESS":"中華東路三段５２１號","OBJECTID":509570},"geometry":{"x":169657.35000000056,"y":2541453.6600000039}},{"attributes":{"ID":509598,"DIS_CODE":0,"TOWNNAME":"東區","LI":"崇明里","LIN":"1鄰","STREET":"中華東路","SECT":"三段","MAREA":" ","LANE":" ","ALLEY":" ","HOUSE_NO":"５２９號","E_COORD97":169639.14999999999,"N_COORD97":2541454.3500000001,"ADDRESS":"中華東路三段５２９號","OBJECTID":509571},"geometry":{"x":169639.1500000013,"y":2541454.3499999996}},{"attributes":{"ID":509599,"DIS_CODE":0,"TOWNNAME":"東區","LI":"崇明里","LIN":"1鄰","STREET":"中華東路","SECT":"三段","MAREA":" ","LANE":" ","ALLEY":" ","HOUSE_NO":"５３５號","E_COORD97":169623.45999999999,"N_COORD97":2541442.0800000001,"ADDRESS":"中華東路三段５３５號","OBJECTID":509572},"geometry":{"x":169623.45999999996,"y":2541442.0800000001}},{"attributes":{"ID":509600,"DIS_CODE":0,"TOWNNAME":"東區","LI":"崇明里","LIN":"1鄰","STREET":"中華東路","SECT":"三段","MAREA":" ","LANE":" ","ALLEY":" ","HOUSE_NO":"５３９號","E_COORD97":169603.67000000001,"N_COORD97":2541441.7000000002,"ADDRESS":"中華東路三段５３９號","OBJECTID":509573},"geometry":{"x":169603.66999999993,"y":2541441.6999999993}},{"attributes":{"ID":509601,"DIS_CODE":0,"TOWNNAME":"東區","LI":"崇明里","LIN":"1鄰","STREET":"中華東路","SECT":"三段","MAREA":" ","LANE":" ","ALLEY":" ","HOUSE_NO":"５５１號","E_COORD97":169562.35999999999,"N_COORD97":2541438.9399999999,"ADDRESS":"中華東路三段５５１號","OBJECTID":509574},"geometry":{"x":169562.3600000022,"y":2541438.9399999995}},{"attributes":{"ID":509602,"DIS_CODE":0,"TOWNNAME":"東區","LI":"自強里","LIN":"1鄰","STREET":"東成街","SECT":" ","MAREA":" ","LANE":" ","ALLEY":" ","HOUSE_NO":"１７號","E_COORD97":171309.17999999999,"N_COORD97":2542269.04,"ADDRESS":"東成街１７號","OBJECTID":509575},"geometry":{"x":171309.18000000063,"y":2542269.0399999991}},{"attributes":{"ID":509603,"DIS_CODE":0,"TOWNNAME":"東區","LI":"自強里","LIN":"1鄰","STREET":"東成街","SECT":" ","MAREA":" ","LANE":" ","ALLEY":" ","HOUSE_NO":"２３號","E_COORD97":171322.28,"N_COORD97":2542260.5699999998,"ADDRESS":"東成街２３號","OBJECTID":509576},"geometry":{"x":171322.27999999933,"y":2542260.5700000003}},{"attributes":{"ID":509604,"DIS_CODE":0,"TOWNNAME":"東區","LI":"自強里","LIN":"1鄰","STREET":"東成街","SECT":" ","MAREA":" ","LANE":" ","ALLEY":" ","HOUSE_NO":"２７號","E_COORD97":171330.07999999999,"N_COORD97":2542261.8500000001,"ADDRESS":"東成街２７號","OBJECTID":509577},"geometry":{"x":171330.08000000007,"y":2542261.8500000034}},{"attributes":{"ID":509605,"DIS_CODE":0,"TOWNNAME":"東區","LI":"自強里","LIN":"1鄰","STREET":"東成街","SECT":" ","MAREA":" ","LANE":" ","ALLEY":" ","HOUSE_NO":"３１號","E_COORD97":171344.34,"N_COORD97":2542263.96,"ADDRESS":"東成街３１號","OBJECTID":509578},"geometry":{"x":171344.34000000078,"y":2542263.9600000028}},{"attributes":{"ID":509606,"DIS_CODE":0,"TOWNNAME":"東區","LI":"自強里","LIN":"1鄰","STREET":"東成街","SECT":" ","MAREA":" ","LANE":" ","ALLEY":" ","HOUSE_NO":"６９號","E_COORD97":171436.82999999999,"N_COORD97":2542278.0899999999,"ADDRESS":"東成街６９號","OBJECTID":509579},"geometry":{"x":171436.83000000007,"y":2542278.0900000017}},{"attributes":{"ID":509607,"DIS_CODE":0,"TOWNNAME":"安南區","LI":"梅花里","LIN":"1鄰","STREET":"北安路","SECT":"二段","MAREA":" ","LANE":" ","ALLEY":" ","HOUSE_NO":"３１９號之１","E_COORD97":168402.94,"N_COORD97":2548201.4300000002,"ADDRESS":"北安路二段３１９號之１","OBJECTID":509580},"geometry":{"x":168402.94000000134,"y":2548201.4300000034}},{"attributes":{"ID":509608,"DIS_CODE":0,"TOWNNAME":"安南區","LI":"梅花里","LIN":"1鄰","STREET":"北安路","SECT":"二段","MAREA":" ","LANE":" ","ALLEY":" ","HOUSE_NO":"３１９號之２","E_COORD97":168400.47,"N_COORD97":2548213.79,"ADDRESS":"北安路二段３１９號之２","OBJECTID":509581},"geometry":{"x":168400.47000000067,"y":2548213.7899999991}},{"attributes":{"ID":509609,"DIS_CODE":0,"TOWNNAME":"安南區","LI":"梅花里","LIN":"1鄰","STREET":"北安路","SECT":"二段","MAREA":" ","LANE":" ","ALLEY":" ","HOUSE_NO":"３１９號之３","E_COORD97":168398.98999999999,"N_COORD97":2548227.1299999999,"ADDRESS":"北安路二段３１９號之３","OBJECTID":509582},"geometry":{"x":168398.99000000115,"y":2548227.1300000008}},{"attributes":{"ID":509610,"DIS_CODE":0,"TOWNNAME":"安南區","LI":"梅花里","LIN":"1鄰","STREET":"北安路","SECT":"二段","MAREA":" ","LANE":" ","ALLEY":" ","HOUSE_NO":"３１９號之５","E_COORD97":168398,"N_COORD97":2548238,"ADDRESS":"北安路二段３１９號之５","OBJECTID":509583},"geometry":{"x":168397.99999999907,"y":2548238}},{"attributes":{"ID":509611,"DIS_CODE":0,"TOWNNAME":"安南區","LI":"梅花里","LIN":"1鄰","STREET":"北安路","SECT":"二段","MAREA":" ","LANE":" ","ALLEY":" ","HOUSE_NO":"３５５號之６","E_COORD97":168350.47,"N_COORD97":2548423.9199999999,"ADDRESS":"北安路二段３５５號之６","OBJECTID":509584},"geometry":{"x":168350.46999999881,"y":2548423.9199999999}},{"attributes":{"ID":509612,"DIS_CODE":0,"TOWNNAME":"安南區","LI":"城東里","LIN":"1鄰","STREET":"安明路","SECT":"四段","MAREA":" ","LANE":" ","ALLEY":" ","HOUSE_NO":"６７２號之２","E_COORD97":161293.29000000001,"N_COORD97":2551647.5499999998,"ADDRESS":"安明路四段６７２號之２","OBJECTID":509585},"geometry":{"x":161293.2900000019,"y":2551647.5500000026}},{"attributes":{"ID":509613,"DIS_CODE":0,"TOWNNAME":"安南區","LI":"\u25A0南里","LIN":"1鄰","STREET":"環福街","SECT":" ","MAREA":" ","LANE":" ","ALLEY":" ","HOUSE_NO":"２號之２","E_COORD97":170125.79000000001,"N_COORD97":2552447.0800000001,"ADDRESS":"環福街２號之２","OBJECTID":509586},"geometry":{"x":170125.79000000097,"y":2552447.0800000019}},{"attributes":{"ID":509614,"DIS_CODE":0,"TOWNNAME":"安南區","LI":"鳳凰里","LIN":"1鄰","STREET":"怡安路","SECT":"二段","MAREA":" ","LANE":" ","ALLEY":" ","HOUSE_NO":"８３之３號","E_COORD97":168099.03699699999,"N_COORD97":2549305.38796,"ADDRESS":"怡安路二段８３之３號","OBJECTID":509587},"geometry":{"x":168099.03699700069,"y":2549305.3879580013}},{"attributes":{"ID":509615,"DIS_CODE":0,"TOWNNAME":"安南區","LI":"鳳凰里","LIN":"1鄰","STREET":"怡安路","SECT":"二段","MAREA":" ","LANE":" ","ALLEY":" ","HOUSE_NO":"８３號之１","E_COORD97":168109.20018300001,"N_COORD97":2549303.4829600002,"ADDRESS":"怡安路二段８３號之１","OBJECTID":509588},"geometry":{"x":168109.20018300135,"y":2549303.4829590023}},{"attributes":{"ID":509616,"DIS_CODE":0,"TOWNNAME":"安南區","LI":"鳳凰里","LIN":"1鄰","STREET":"怡安路","SECT":"二段","MAREA":" ","LANE":" ","ALLEY":" ","HOUSE_NO":"８３號之２","E_COORD97":168104.96552200001,"N_COORD97":2549303.6946299998,"ADDRESS":"怡安路二段８３號之２","OBJECTID":509589},"geometry":{"x":168104.9655220015,"y":2549303.6946249995}},{"attributes":{"ID":509617,"DIS_CODE":0,"TOWNNAME":"安南區","LI":"南興里","LIN":"1鄰","STREET":"安中路","SECT":"五段","MAREA":" ","LANE":" ","ALLEY":" ","HOUSE_NO":"４２２號之１","E_COORD97":162433.51999999999,"N_COORD97":2551183.4900000002,"ADDRESS":"安中路五段４２２號之１","OBJECTID":509590},"geometry":{"x":162433.51999999955,"y":2551183.4900000002}},{"attributes":{"ID":509618,"DIS_CODE":0,"TOWNNAME":"安南區","LI":"淵中里","LIN":"1鄰","STREET":"安中路","SECT":"三段","MAREA":" ","LANE":" ","ALLEY":" ","HOUSE_NO":"２８１號","E_COORD97":165710.07999999999,"N_COORD97":2549876.8399999999,"ADDRESS":"安中路三段２８１號","OBJECTID":509591},"geometry":{"x":165710.08000000007,"y":2549876.8400000036}},{"attributes":{"ID":509619,"DIS_CODE":0,"TOWNNAME":"安南區","LI":"淵中里","LIN":"1鄰","STREET":"安中路","SECT":"三段","MAREA":" ","LANE":" ","ALLEY":" ","HOUSE_NO":"２８３號","E_COORD97":165706.84,"N_COORD97":2549877.5699999998,"ADDRESS":"安中路三段２８３號","OBJECTID":509592},"geometry":{"x":165706.83999999985,"y":2549877.5700000022}},{"attributes":{"ID":509620,"DIS_CODE":0,"TOWNNAME":"安南區","LI":"頂安里","LIN":"1鄰","STREET":"長溪路","SECT":"一段","MAREA":" ","LANE":" ","ALLEY":" ","HOUSE_NO":"４５０號之１","E_COORD97":168489.62,"N_COORD97":2549047.4100000001,"ADDRESS":"長溪路一段４５０號之１","OBJECTID":509593},"geometry":{"x":168489.62000000104,"y":2549047.410000002}},{"attributes":{"ID":509621,"DIS_CODE":0,"TOWNNAME":"安南區","LI":"新順里","LIN":"1鄰","STREET":"安豐六街","SECT":" ","MAREA":" ","LANE":" ","ALLEY":" ","HOUSE_NO":"９９號","E_COORD97":169500.69,"N_COORD97":2549678.3999999999,"ADDRESS":"安豐六街９９號","OBJECTID":509594},"geometry":{"x":169500.68999999948,"y":2549678.4000000022}},{"attributes":{"ID":509622,"DIS_CODE":0,"TOWNNAME":"安南區","LI":"新順里","LIN":"1鄰","STREET":"安豐六街","SECT":" ","MAREA":" ","LANE":" ","ALLEY":" ","HOUSE_NO":"１０１號","E_COORD97":169504.70999999999,"N_COORD97":2549676.8599999999,"ADDRESS":"安豐六街１０１號","OBJECTID":509595},"geometry":{"x":169504.70999999996,"y":2549676.8600000013}},{"attributes":{"ID":509623,"DIS_CODE":0,"TOWNNAME":"安南區","LI":"新順里","LIN":"1鄰","STREET":"安豐六街","SECT":" ","MAREA":" ","LANE":" ","ALLEY":" ","HOUSE_NO":"１０３號","E_COORD97":169509.42999999999,"N_COORD97":2549675.1699999999,"ADDRESS":"安豐六街１０３號","OBJECTID":509596},"geometry":{"x":169509.43000000063,"y":2549675.1700000018}},{"attributes":{"ID":509624,"DIS_CODE":0,"TOWNNAME":"安南區","LI":"新順里","LIN":"1鄰","STREET":"安豐六街","SECT":" ","MAREA":" ","LANE":" ","ALLEY":" ","HOUSE_NO":"１０５號","E_COORD97":169512.79000000001,"N_COORD97":2549673.8300000001,"ADDRESS":"安豐六街１０５號","OBJECTID":509597},"geometry":{"x":169512.79000000004,"y":2549673.8300000038}},{"attributes":{"ID":509625,"DIS_CODE":0,"TOWNNAME":"安南區","LI":"新順里","LIN":"1鄰","STREET":"安豐六街","SECT":" ","MAREA":" ","LANE":" ","ALLEY":" ","HOUSE_NO":"１０７號","E_COORD97":169516.84,"N_COORD97":2549672.8199999998,"ADDRESS":"安豐六街１０７號","OBJECTID":509598},"geometry":{"x":169516.84000000078,"y":2549672.8200000003}},{"attributes":{"ID":509626,"DIS_CODE":0,"TOWNNAME":"安南區","LI":"新順里","LIN":"1鄰","STREET":"安豐六街","SECT":" ","MAREA":" ","LANE":" ","ALLEY":" ","HOUSE_NO":"１０９號","E_COORD97":169521.89000000001,"N_COORD97":2549671.1400000001,"ADDRESS":"安豐六街１０９號","OBJECTID":509599},"geometry":{"x":169521.88999999966,"y":2549671.1400000006}},{"attributes":{"ID":509627,"DIS_CODE":0,"TOWNNAME":"安南區","LI":"淵中里","LIN":"1鄰","STREET":"樂安一街","SECT":" ","MAREA":" ","LANE":" ","ALLEY":" ","HOUSE_NO":"２２７號","E_COORD97":165553.10000000001,"N_COORD97":2549849.8700000001,"ADDRESS":"樂安一街２２７號","OBJECTID":509600},"geometry":{"x":165553.10000000056,"y":2549849.870000001}}]}