{"displayFieldName":"TOWNNAME","fieldAliases":{"ID":"ID","DIS_CODE":"DIS_CODE","TOWNNAME":"TOWNNAME","LI":"LI","LIN":"LIN","STREET":"STREET","SECT":"SECT","MAREA":"MAREA","LANE":"LANE","ALLEY":"ALLEY","HOUSE_NO":"HOUSE_NO","E_COORD97":"E_COORD97","N_COORD97":"N_COORD97","ADDRESS":"ADDRESS","OBJECTID":"OBJECTID"},"geometryType":"esriGeometryPoint","spatialReference":{"wkid":102443,"latestWkid":3826},"fields":[{"name":"ID","type":"esriFieldTypeDouble","alias":"ID"},{"name":"DIS_CODE","type":"esriFieldTypeInteger","alias":"DIS_CODE"},{"name":"TOWNNAME","type":"esriFieldTypeString","alias":"TOWNNAME","length":8},{"name":"LI","type":"esriFieldTypeString","alias":"LI","length":8},{"name":"LIN","type":"esriFieldTypeString","alias":"LIN","length":12},{"name":"STREET","type":"esriFieldTypeString","alias":"STREET","length":20},{"name":"SECT","type":"esriFieldTypeString","alias":"SECT","length":8},{"name":"MAREA","type":"esriFieldTypeString","alias":"MAREA","length":12},{"name":"LANE","type":"esriFieldTypeString","alias":"LANE","length":10},{"name":"ALLEY","type":"esriFieldTypeString","alias":"ALLEY","length":10},{"name":"HOUSE_NO","type":"esriFieldTypeString","alias":"HOUSE_NO","length":20},{"name":"E_COORD97","type":"esriFieldTypeDouble","alias":"E_COORD97"},{"name":"N_COORD97","type":"esriFieldTypeDouble","alias":"N_COORD97"},{"name":"ADDRESS","type":"esriFieldTypeString","alias":"ADDRESS","length":50},{"name":"OBJECTID","type":"esriFieldTypeOID","alias":"OBJECTID"}],"features":[{"attributes":{"ID":422226,"DIS_CODE":0,"TOWNNAME":"永康區","LI":"西灣里","LIN":"16鄰","STREET":"民族路","SECT":" ","MAREA":" ","LANE":"４６５巷","ALLEY":" ","HOUSE_NO":"２７號","E_COORD97":174646.54999999999,"N_COORD97":2545353.27,"ADDRESS":"民族路４６５巷２７號","OBJECTID":422201},"geometry":{"x":174646.55000000075,"y":2545353.2699999996}},{"attributes":{"ID":422227,"DIS_CODE":0,"TOWNNAME":"永康區","LI":"尚頂里","LIN":"27鄰","STREET":"南台街","SECT":" ","MAREA":" ","LANE":"５４巷","ALLEY":" ","HOUSE_NO":"１２號","E_COORD97":170347.01000000001,"N_COORD97":2547057,"ADDRESS":"南台街５４巷１２號","OBJECTID":422202},"geometry":{"x":170347.00999999978,"y":2547057}},{"attributes":{"ID":422228,"DIS_CODE":0,"TOWNNAME":"永康區","LI":"西灣里","LIN":"46鄰","STREET":"永華路","SECT":" ","MAREA":" ","LANE":"２３３巷","ALLEY":" ","HOUSE_NO":"４１號","E_COORD97":173971.32999999999,"N_COORD97":2545758.2400000002,"ADDRESS":"永華路２３３巷４１號","OBJECTID":422203},"geometry":{"x":173971.33000000194,"y":2545758.2400000002}},{"attributes":{"ID":422229,"DIS_CODE":0,"TOWNNAME":"永康區","LI":"尚頂里","LIN":"22鄰","STREET":"南台街","SECT":" ","MAREA":" ","LANE":"１３巷","ALLEY":" ","HOUSE_NO":"２６號","E_COORD97":170401.60000000001,"N_COORD97":2546873.9900000002,"ADDRESS":"南台街１３巷２６號","OBJECTID":422204},"geometry":{"x":170401.59999999963,"y":2546873.9900000021}},{"attributes":{"ID":422230,"DIS_CODE":0,"TOWNNAME":"永康區","LI":"西灣里","LIN":"26鄰","STREET":"國光八街","SECT":" ","MAREA":" ","LANE":"４１巷","ALLEY":" ","HOUSE_NO":"４２號","E_COORD97":174328.45999999999,"N_COORD97":2545658.7400000002,"ADDRESS":"國光八街４１巷４２號","OBJECTID":422205},"geometry":{"x":174328.46000000089,"y":2545658.7400000002}},{"attributes":{"ID":422231,"DIS_CODE":0,"TOWNNAME":"永康區","LI":"尚頂里","LIN":"32鄰","STREET":"中正南路","SECT":" ","MAREA":" ","LANE":"２３５巷","ALLEY":" ","HOUSE_NO":"２１號","E_COORD97":170116.48999999999,"N_COORD97":2547539.9100000001,"ADDRESS":"中正南路２３５巷２１號","OBJECTID":422206},"geometry":{"x":170116.49000000022,"y":2547539.9100000001}},{"attributes":{"ID":422232,"DIS_CODE":0,"TOWNNAME":"永康區","LI":"尚頂里","LIN":"25鄰","STREET":"中正南路","SECT":" ","MAREA":" ","LANE":"２１０巷","ALLEY":" ","HOUSE_NO":"２６號","E_COORD97":170191.54999999999,"N_COORD97":2547140.75,"ADDRESS":"中正南路２１０巷２６號","OBJECTID":422207},"geometry":{"x":170191.55000000075,"y":2547140.75}},{"attributes":{"ID":422233,"DIS_CODE":0,"TOWNNAME":"永康區","LI":"西灣里","LIN":"24鄰","STREET":"國光八街","SECT":" ","MAREA":" ","LANE":"１１巷","ALLEY":" ","HOUSE_NO":"９號","E_COORD97":174411.63,"N_COORD97":2545708,"ADDRESS":"國光八街１１巷９號","OBJECTID":422208},"geometry":{"x":174411.63000000175,"y":2545708}},{"attributes":{"ID":422234,"DIS_CODE":0,"TOWNNAME":"永康區","LI":"西灣里","LIN":"53鄰","STREET":"文化路","SECT":" ","MAREA":" ","LANE":"２３５巷","ALLEY":" ","HOUSE_NO":"７號","E_COORD97":173668.04999999999,"N_COORD97":2546086.1099999999,"ADDRESS":"文化路２３５巷７號","OBJECTID":422209},"geometry":{"x":173668.05000000075,"y":2546086.1099999994}},{"attributes":{"ID":422235,"DIS_CODE":0,"TOWNNAME":"永康區","LI":"尚頂里","LIN":"34鄰","STREET":"中正南路","SECT":" ","MAREA":" ","LANE":"３７５巷","ALLEY":" ","HOUSE_NO":"１號","E_COORD97":170506.28,"N_COORD97":2547823.4900000002,"ADDRESS":"中正南路３７５巷１號","OBJECTID":422210},"geometry":{"x":170506.28000000026,"y":2547823.4900000002}},{"attributes":{"ID":422236,"DIS_CODE":0,"TOWNNAME":"永康區","LI":"尚頂里","LIN":"3鄰","STREET":"中正二街","SECT":" ","MAREA":" ","LANE":"１６２巷","ALLEY":" ","HOUSE_NO":"３０號","E_COORD97":171366.06,"N_COORD97":2547560.5,"ADDRESS":"中正二街１６２巷３０號","OBJECTID":422211},"geometry":{"x":171366.06000000052,"y":2547560.5000000037}},{"attributes":{"ID":422237,"DIS_CODE":0,"TOWNNAME":"永康區","LI":"西灣里","LIN":"24鄰","STREET":"國光七街","SECT":" ","MAREA":" ","LANE":"６巷","ALLEY":" ","HOUSE_NO":"８號之１０","E_COORD97":174379.60000000001,"N_COORD97":2545588,"ADDRESS":"國光七街６巷８號之１０","OBJECTID":422212},"geometry":{"x":174379.60000000056,"y":2545588.0000000019}},{"attributes":{"ID":422238,"DIS_CODE":0,"TOWNNAME":"佳里區","LI":"建南里","LIN":"19鄰","STREET":"自由街","SECT":" ","MAREA":" ","LANE":"１６６巷","ALLEY":" ","HOUSE_NO":"３號","E_COORD97":165656.32000000001,"N_COORD97":2561794.3999999999,"ADDRESS":"自由街１６６巷３號","OBJECTID":422213},"geometry":{"x":165656.3200000003,"y":2561794.4000000041}},{"attributes":{"ID":422239,"DIS_CODE":0,"TOWNNAME":"永康區","LI":"尚頂里","LIN":"6鄰","STREET":"中正二街","SECT":" ","MAREA":" ","LANE":"１０５巷","ALLEY":" ","HOUSE_NO":"４２號","E_COORD97":170943.70000000001,"N_COORD97":2547626.77,"ADDRESS":"中正二街１０５巷４２號","OBJECTID":422214},"geometry":{"x":170943.70000000112,"y":2547626.7700000014}},{"attributes":{"ID":422240,"DIS_CODE":0,"TOWNNAME":"永康區","LI":"尚頂里","LIN":"12鄰","STREET":"正南一街","SECT":" ","MAREA":" ","LANE":"９２巷","ALLEY":" ","HOUSE_NO":"２３號","E_COORD97":171048.57999999999,"N_COORD97":2547362.0800000001,"ADDRESS":"正南一街９２巷２３號","OBJECTID":422215},"geometry":{"x":171048.58000000007,"y":2547362.0800000001}},{"attributes":{"ID":422241,"DIS_CODE":0,"TOWNNAME":"永康區","LI":"西灣里","LIN":"27鄰","STREET":"國光八街","SECT":" ","MAREA":" ","LANE":"１２巷","ALLEY":" ","HOUSE_NO":"９號","E_COORD97":174431.67999999999,"N_COORD97":2545826.4399999999,"ADDRESS":"國光八街１２巷９號","OBJECTID":422216},"geometry":{"x":174431.68000000063,"y":2545826.4399999995}},{"attributes":{"ID":422242,"DIS_CODE":0,"TOWNNAME":"永康區","LI":"西灣里","LIN":"38鄰","STREET":"國光八街","SECT":" ","MAREA":" ","LANE":"１２９巷","ALLEY":" ","HOUSE_NO":"１９號","E_COORD97":174163.39999999999,"N_COORD97":2545626.5,"ADDRESS":"國光八街１２９巷１９號","OBJECTID":422217},"geometry":{"x":174163.4000000013,"y":2545626.5}},{"attributes":{"ID":422243,"DIS_CODE":0,"TOWNNAME":"永康區","LI":"正強里","LIN":"42鄰","STREET":"中正路","SECT":" ","MAREA":" ","LANE":"２５６巷","ALLEY":" ","HOUSE_NO":"１號之３８","E_COORD97":173178.20999999999,"N_COORD97":2547946.8999999999,"ADDRESS":"中正路２５６巷１號之３８","OBJECTID":422218},"geometry":{"x":173178.20999999996,"y":2547946.9000000004}},{"attributes":{"ID":422244,"DIS_CODE":0,"TOWNNAME":"永康區","LI":"北灣里","LIN":"24鄰","STREET":"大灣路","SECT":" ","MAREA":" ","LANE":"３７巷","ALLEY":" ","HOUSE_NO":"２４號","E_COORD97":175407.62,"N_COORD97":2545865.9900000002,"ADDRESS":"大灣路３７巷２４號","OBJECTID":422219},"geometry":{"x":175407.62000000104,"y":2545865.9900000021}},{"attributes":{"ID":422245,"DIS_CODE":0,"TOWNNAME":"永康區","LI":"正強里","LIN":"14鄰","STREET":"正強街","SECT":" ","MAREA":" ","LANE":"１１１巷","ALLEY":" ","HOUSE_NO":"７號","E_COORD97":173298.89000000001,"N_COORD97":2547402.9900000002,"ADDRESS":"正強街１１１巷７號","OBJECTID":422220},"geometry":{"x":173298.88999999966,"y":2547402.9900000021}},{"attributes":{"ID":422246,"DIS_CODE":0,"TOWNNAME":"永康區","LI":"北灣里","LIN":"22鄰","STREET":"大灣路","SECT":" ","MAREA":" ","LANE":"４０巷","ALLEY":" ","HOUSE_NO":"１０２號","E_COORD97":174946.91,"N_COORD97":2546226.5899999999,"ADDRESS":"大灣路４０巷１０２號","OBJECTID":422221},"geometry":{"x":174946.91000000015,"y":2546226.5899999999}},{"attributes":{"ID":422247,"DIS_CODE":0,"TOWNNAME":"永康區","LI":"正強里","LIN":"32鄰","STREET":"四維街","SECT":" ","MAREA":" ","LANE":"５１巷","ALLEY":" ","HOUSE_NO":"２３號","E_COORD97":173339.51000000001,"N_COORD97":2548033.4900000002,"ADDRESS":"四維街５１巷２３號","OBJECTID":422222},"geometry":{"x":173339.51000000071,"y":2548033.4900000021}},{"attributes":{"ID":422248,"DIS_CODE":0,"TOWNNAME":"永康區","LI":"永康里","LIN":"22鄰","STREET":"中山南路","SECT":" ","MAREA":" ","LANE":"４７１巷","ALLEY":" ","HOUSE_NO":"３２號","E_COORD97":173151.92999999999,"N_COORD97":2547151.5499999998,"ADDRESS":"中山南路４７１巷３２號","OBJECTID":422223},"geometry":{"x":173151.93000000063,"y":2547151.5500000026}},{"attributes":{"ID":422249,"DIS_CODE":0,"TOWNNAME":"永康區","LI":"永康里","LIN":"6鄰","STREET":"中山南路","SECT":" ","MAREA":" ","LANE":"６５３巷","ALLEY":" ","HOUSE_NO":"６號","E_COORD97":173805.60000000001,"N_COORD97":2547446.25,"ADDRESS":"中山南路６５３巷６號","OBJECTID":422224},"geometry":{"x":173805.59999999963,"y":2547446.25}},{"attributes":{"ID":422250,"DIS_CODE":0,"TOWNNAME":"永康區","LI":"正強里","LIN":"45鄰","STREET":"中正路","SECT":" ","MAREA":" ","LANE":"２５６巷","ALLEY":" ","HOUSE_NO":"７號之５３","E_COORD97":173183.01000000001,"N_COORD97":2547985.3100000001,"ADDRESS":"中正路２５６巷７號之５３","OBJECTID":422225},"geometry":{"x":173183.00999999978,"y":2547985.3100000005}},{"attributes":{"ID":422251,"DIS_CODE":0,"TOWNNAME":"永康區","LI":"正強里","LIN":"44鄰","STREET":"中正路","SECT":" ","MAREA":" ","LANE":"２５６巷","ALLEY":" ","HOUSE_NO":"５號之４１","E_COORD97":173155.09,"N_COORD97":2547982.8799999999,"ADDRESS":"中正路２５６巷５號之４１","OBJECTID":422226},"geometry":{"x":173155.08999999985,"y":2547982.879999999}},{"attributes":{"ID":422252,"DIS_CODE":0,"TOWNNAME":"永康區","LI":"正強里","LIN":"45鄰","STREET":"中正路","SECT":" ","MAREA":" ","LANE":"２５６巷","ALLEY":" ","HOUSE_NO":"７號之５４","E_COORD97":173182.92999999999,"N_COORD97":2547985.3100000001,"ADDRESS":"中正路２５６巷７號之５４","OBJECTID":422227},"geometry":{"x":173182.9299999997,"y":2547985.3100000005}},{"attributes":{"ID":422253,"DIS_CODE":0,"TOWNNAME":"永康區","LI":"正強里","LIN":"38鄰","STREET":"正強街","SECT":" ","MAREA":" ","LANE":"３０３巷","ALLEY":" ","HOUSE_NO":"６號","E_COORD97":173243.20000000001,"N_COORD97":2548033.9199999999,"ADDRESS":"正強街３０３巷６號","OBJECTID":422228},"geometry":{"x":173243.20000000019,"y":2548033.9199999999}},{"attributes":{"ID":422254,"DIS_CODE":0,"TOWNNAME":"永康區","LI":"正強里","LIN":"46鄰","STREET":"中正路","SECT":" ","MAREA":" ","LANE":"２５６巷","ALLEY":" ","HOUSE_NO":"９號之１１","E_COORD97":173207.06,"N_COORD97":2547991.8799999999,"ADDRESS":"中正路２５６巷９號之１１","OBJECTID":422229},"geometry":{"x":173207.06000000052,"y":2547991.8800000008}},{"attributes":{"ID":422255,"DIS_CODE":0,"TOWNNAME":"永康區","LI":"正強里","LIN":"45鄰","STREET":"中正路","SECT":" ","MAREA":" ","LANE":"２５６巷","ALLEY":" ","HOUSE_NO":"７號之３９","E_COORD97":173182.98999999999,"N_COORD97":2547985.3100000001,"ADDRESS":"中正路２５６巷７號之３９","OBJECTID":422230},"geometry":{"x":173182.99000000115,"y":2547985.3100000005}},{"attributes":{"ID":422256,"DIS_CODE":0,"TOWNNAME":"永康區","LI":"北灣里","LIN":"22鄰","STREET":"大灣路","SECT":" ","MAREA":" ","LANE":"４０巷","ALLEY":" ","HOUSE_NO":"１０４號","E_COORD97":174944.01000000001,"N_COORD97":2546229.3399999999,"ADDRESS":"大灣路４０巷１０４號","OBJECTID":422231},"geometry":{"x":174944.00999999978,"y":2546229.3400000017}},{"attributes":{"ID":422257,"DIS_CODE":0,"TOWNNAME":"永康區","LI":"正強里","LIN":"43鄰","STREET":"中正路","SECT":" ","MAREA":" ","LANE":"２５６巷","ALLEY":" ","HOUSE_NO":"３號之２５","E_COORD97":173149.29000000001,"N_COORD97":2547954.29,"ADDRESS":"中正路２５６巷３號之２５","OBJECTID":422232},"geometry":{"x":173149.29000000004,"y":2547954.2900000028}},{"attributes":{"ID":422258,"DIS_CODE":0,"TOWNNAME":"永康區","LI":"正強里","LIN":"44鄰","STREET":"中正路","SECT":" ","MAREA":" ","LANE":"２５６巷","ALLEY":" ","HOUSE_NO":"５號之３８","E_COORD97":173155.23999999999,"N_COORD97":2547982.8799999999,"ADDRESS":"中正路２５６巷５號之３８","OBJECTID":422233},"geometry":{"x":173155.24000000115,"y":2547982.879999999}},{"attributes":{"ID":422259,"DIS_CODE":0,"TOWNNAME":"永康區","LI":"北灣里","LIN":"31鄰","STREET":"大同街","SECT":" ","MAREA":" ","LANE":"３３巷","ALLEY":" ","HOUSE_NO":"２８號","E_COORD97":175251.20000000001,"N_COORD97":2545325.0600000001,"ADDRESS":"大同街３３巷２８號","OBJECTID":422234},"geometry":{"x":175251.20000000112,"y":2545325.0600000005}},{"attributes":{"ID":422260,"DIS_CODE":0,"TOWNNAME":"永康區","LI":"永康里","LIN":"11鄰","STREET":"中山南路","SECT":" ","MAREA":" ","LANE":"１０５４巷","ALLEY":" ","HOUSE_NO":"４３號","E_COORD97":173746.14000000001,"N_COORD97":2547130.2999999998,"ADDRESS":"中山南路１０５４巷４３號","OBJECTID":422235},"geometry":{"x":173746.13999999966,"y":2547130.3000000007}},{"attributes":{"ID":422261,"DIS_CODE":0,"TOWNNAME":"永康區","LI":"永康里","LIN":"11鄰","STREET":"中山南路","SECT":" ","MAREA":" ","LANE":"１０５４巷","ALLEY":" ","HOUSE_NO":"３７號","E_COORD97":173746.35000000001,"N_COORD97":2547165.75,"ADDRESS":"中山南路１０５４巷３７號","OBJECTID":422236},"geometry":{"x":173746.34999999963,"y":2547165.7500000019}},{"attributes":{"ID":422262,"DIS_CODE":0,"TOWNNAME":"永康區","LI":"正強里","LIN":"43鄰","STREET":"中正路","SECT":" ","MAREA":" ","LANE":"２５６巷","ALLEY":" ","HOUSE_NO":"３號之４８","E_COORD97":173149.29000000001,"N_COORD97":2547954.29,"ADDRESS":"中正路２５６巷３號之４８","OBJECTID":422237},"geometry":{"x":173149.29000000004,"y":2547954.2900000028}},{"attributes":{"ID":422263,"DIS_CODE":0,"TOWNNAME":"永康區","LI":"正強里","LIN":"44鄰","STREET":"中正路","SECT":" ","MAREA":" ","LANE":"２５６巷","ALLEY":" ","HOUSE_NO":"５號之３６","E_COORD97":173155.19,"N_COORD97":2547982.8799999999,"ADDRESS":"中正路２５６巷５號之３６","OBJECTID":422238},"geometry":{"x":173155.19000000041,"y":2547982.879999999}},{"attributes":{"ID":422264,"DIS_CODE":0,"TOWNNAME":"永康區","LI":"正強里","LIN":"18鄰","STREET":"自強路","SECT":" ","MAREA":" ","LANE":"１８８巷","ALLEY":" ","HOUSE_NO":"７４號","E_COORD97":173227.73999999999,"N_COORD97":2547246.75,"ADDRESS":"自強路１８８巷７４號","OBJECTID":422239},"geometry":{"x":173227.74000000022,"y":2547246.7500000037}},{"attributes":{"ID":422265,"DIS_CODE":0,"TOWNNAME":"永康區","LI":"永康里","LIN":"39鄰","STREET":"永忠路","SECT":" ","MAREA":" ","LANE":"１１巷","ALLEY":" ","HOUSE_NO":"１號","E_COORD97":174236.92999999999,"N_COORD97":2546366.9500000002,"ADDRESS":"永忠路１１巷１號","OBJECTID":422240},"geometry":{"x":174236.93000000063,"y":2546366.9500000011}},{"attributes":{"ID":422266,"DIS_CODE":0,"TOWNNAME":"永康區","LI":"正強里","LIN":"42鄰","STREET":"中正路","SECT":" ","MAREA":" ","LANE":"２５６巷","ALLEY":" ","HOUSE_NO":"１號之１０","E_COORD97":173178.10999999999,"N_COORD97":2547946.8999999999,"ADDRESS":"中正路２５６巷１號之１０","OBJECTID":422241},"geometry":{"x":173178.1100000022,"y":2547946.9000000004}},{"attributes":{"ID":422267,"DIS_CODE":0,"TOWNNAME":"永康區","LI":"正強里","LIN":"46鄰","STREET":"中正路","SECT":" ","MAREA":" ","LANE":"２５６巷","ALLEY":" ","HOUSE_NO":"９號之１５","E_COORD97":173207.20999999999,"N_COORD97":2547991.8799999999,"ADDRESS":"中正路２５６巷９號之１５","OBJECTID":422242},"geometry":{"x":173207.20999999996,"y":2547991.8800000008}},{"attributes":{"ID":422268,"DIS_CODE":0,"TOWNNAME":"永康區","LI":"正強里","LIN":"15鄰","STREET":"自強路","SECT":" ","MAREA":" ","LANE":"１８８巷","ALLEY":" ","HOUSE_NO":"９５號","E_COORD97":173252.19,"N_COORD97":2547218.2400000002,"ADDRESS":"自強路１８８巷９５號","OBJECTID":422243},"geometry":{"x":173252.19000000227,"y":2547218.2400000021}},{"attributes":{"ID":422269,"DIS_CODE":0,"TOWNNAME":"永康區","LI":"正強里","LIN":"38鄰","STREET":"正強街","SECT":" ","MAREA":" ","LANE":"３０５巷","ALLEY":" ","HOUSE_NO":"１０號","E_COORD97":173234.32999999999,"N_COORD97":2548079.4900000002,"ADDRESS":"正強街３０５巷１０號","OBJECTID":422244},"geometry":{"x":173234.33000000101,"y":2548079.4900000039}},{"attributes":{"ID":422270,"DIS_CODE":0,"TOWNNAME":"永康區","LI":"正強里","LIN":"32鄰","STREET":"四維街","SECT":" ","MAREA":" ","LANE":"５１巷","ALLEY":" ","HOUSE_NO":"５號底二層之１","E_COORD97":173383.70999999999,"N_COORD97":2548047.1899999999,"ADDRESS":"四維街５１巷５號底二層之１","OBJECTID":422245},"geometry":{"x":173383.70999999996,"y":2548047.1900000013}},{"attributes":{"ID":422271,"DIS_CODE":0,"TOWNNAME":"永康區","LI":"正強里","LIN":"32鄰","STREET":"四維街","SECT":" ","MAREA":" ","LANE":"５１巷","ALLEY":" ","HOUSE_NO":"１１號","E_COORD97":173364.51000000001,"N_COORD97":2548040.9900000002,"ADDRESS":"四維街５１巷１１號","OBJECTID":422246},"geometry":{"x":173364.50999999978,"y":2548040.9900000002}},{"attributes":{"ID":422272,"DIS_CODE":0,"TOWNNAME":"永康區","LI":"正強里","LIN":"43鄰","STREET":"中正路","SECT":" ","MAREA":" ","LANE":"２５６巷","ALLEY":" ","HOUSE_NO":"３號之５","E_COORD97":173148.04000000001,"N_COORD97":2547954.29,"ADDRESS":"中正路２５６巷３號之５","OBJECTID":422247},"geometry":{"x":173148.04000000097,"y":2547954.2900000028}},{"attributes":{"ID":422273,"DIS_CODE":0,"TOWNNAME":"永康區","LI":"正強里","LIN":"15鄰","STREET":"自強路","SECT":" ","MAREA":" ","LANE":"１８８巷","ALLEY":" ","HOUSE_NO":"７１號","E_COORD97":173243.88,"N_COORD97":2547277,"ADDRESS":"自強路１８８巷７１號","OBJECTID":422248},"geometry":{"x":173243.88000000082,"y":2547277.0000000019}},{"attributes":{"ID":422274,"DIS_CODE":0,"TOWNNAME":"永康區","LI":"正強里","LIN":"42鄰","STREET":"中正路","SECT":" ","MAREA":" ","LANE":"２５６巷","ALLEY":" ","HOUSE_NO":"１號之４２","E_COORD97":173178.19,"N_COORD97":2547946.8999999999,"ADDRESS":"中正路２５６巷１號之４２","OBJECTID":422249},"geometry":{"x":173178.19000000134,"y":2547946.9000000004}},{"attributes":{"ID":422275,"DIS_CODE":0,"TOWNNAME":"永康區","LI":"正強里","LIN":"43鄰","STREET":"中正路","SECT":" ","MAREA":" ","LANE":"２５６巷","ALLEY":" ","HOUSE_NO":"３號之４","E_COORD97":173147.91,"N_COORD97":2547954.29,"ADDRESS":"中正路２５６巷３號之４","OBJECTID":422250},"geometry":{"x":173147.91000000108,"y":2547954.2900000028}},{"attributes":{"ID":422276,"DIS_CODE":0,"TOWNNAME":"永康區","LI":"北灣里","LIN":"30鄰","STREET":"大同街","SECT":" ","MAREA":" ","LANE":"３３巷","ALLEY":" ","HOUSE_NO":"２３號","E_COORD97":175262.42999999999,"N_COORD97":2545319.77,"ADDRESS":"大同街３３巷２３號","OBJECTID":422251},"geometry":{"x":175262.43000000063,"y":2545319.7699999996}},{"attributes":{"ID":422277,"DIS_CODE":0,"TOWNNAME":"永康區","LI":"永康里","LIN":"28鄰","STREET":"永平街","SECT":" ","MAREA":" ","LANE":"４６９巷","ALLEY":" ","HOUSE_NO":"３２號","E_COORD97":174172.60999999999,"N_COORD97":2546912.8300000001,"ADDRESS":"永平街４６９巷３２號","OBJECTID":422252},"geometry":{"x":174172.61000000034,"y":2546912.8300000001}},{"attributes":{"ID":422278,"DIS_CODE":0,"TOWNNAME":"永康區","LI":"正強里","LIN":"44鄰","STREET":"中正路","SECT":" ","MAREA":" ","LANE":"２５６巷","ALLEY":" ","HOUSE_NO":"５號之２２","E_COORD97":173155.22,"N_COORD97":2547982.8799999999,"ADDRESS":"中正路２５６巷５號之２２","OBJECTID":422253},"geometry":{"x":173155.22000000067,"y":2547982.879999999}},{"attributes":{"ID":422279,"DIS_CODE":0,"TOWNNAME":"佳里區","LI":"建南里","LIN":"24鄰","STREET":"成功路","SECT":" ","MAREA":" ","LANE":"２１３巷","ALLEY":" ","HOUSE_NO":"８號","E_COORD97":165405.63,"N_COORD97":2561107.0899999999,"ADDRESS":"成功路２１３巷８號","OBJECTID":422254},"geometry":{"x":165405.63000000082,"y":2561107.0899999999}},{"attributes":{"ID":422280,"DIS_CODE":0,"TOWNNAME":"佳里區","LI":"建南里","LIN":"31鄰","STREET":"成功路","SECT":" ","MAREA":" ","LANE":"２１３巷","ALLEY":" ","HOUSE_NO":"７８號","E_COORD97":165581.62,"N_COORD97":2561077.3799999999,"ADDRESS":"成功路２１３巷７８號","OBJECTID":422255},"geometry":{"x":165581.62000000197,"y":2561077.3799999971}},{"attributes":{"ID":422281,"DIS_CODE":0,"TOWNNAME":"佳里區","LI":"建南里","LIN":"31鄰","STREET":"成功路","SECT":" ","MAREA":" ","LANE":"２１３巷","ALLEY":" ","HOUSE_NO":"８０號","E_COORD97":165585.63,"N_COORD97":2561077.1800000002,"ADDRESS":"成功路２１３巷８０號","OBJECTID":422256},"geometry":{"x":165585.62999999989,"y":2561077.1800000016}},{"attributes":{"ID":422282,"DIS_CODE":0,"TOWNNAME":"佳里區","LI":"建南里","LIN":"31鄰","STREET":"成功路","SECT":" ","MAREA":" ","LANE":"２１３巷","ALLEY":" ","HOUSE_NO":"８２號","E_COORD97":165589.57000000001,"N_COORD97":2561076.54,"ADDRESS":"成功路２１３巷８２號","OBJECTID":422257},"geometry":{"x":165589.57000000123,"y":2561076.5400000028}},{"attributes":{"ID":422283,"DIS_CODE":0,"TOWNNAME":"佳里區","LI":"建南里","LIN":"31鄰","STREET":"成功路","SECT":" ","MAREA":" ","LANE":"２１３巷","ALLEY":" ","HOUSE_NO":"８４號","E_COORD97":165605.26000000001,"N_COORD97":2561078.3100000001,"ADDRESS":"成功路２１３巷８４號","OBJECTID":422258},"geometry":{"x":165605.25999999978,"y":2561078.3100000005}},{"attributes":{"ID":422284,"DIS_CODE":0,"TOWNNAME":"佳里區","LI":"建南里","LIN":"31鄰","STREET":"成功路","SECT":" ","MAREA":" ","LANE":"２１３巷","ALLEY":" ","HOUSE_NO":"８６號","E_COORD97":165604.39000000001,"N_COORD97":2561072.5,"ADDRESS":"成功路２１３巷８６號","OBJECTID":422259},"geometry":{"x":165604.38999999966,"y":2561072.5000000019}},{"attributes":{"ID":422285,"DIS_CODE":0,"TOWNNAME":"佳里區","LI":"建南里","LIN":"31鄰","STREET":"成功路","SECT":" ","MAREA":" ","LANE":"２１３巷","ALLEY":" ","HOUSE_NO":"８８號","E_COORD97":165604.23000000001,"N_COORD97":2561067.5699999998,"ADDRESS":"成功路２１３巷８８號","OBJECTID":422260},"geometry":{"x":165604.23000000045,"y":2561067.570000004}},{"attributes":{"ID":422286,"DIS_CODE":0,"TOWNNAME":"佳里區","LI":"建南里","LIN":"31鄰","STREET":"成功路","SECT":" ","MAREA":" ","LANE":"２１３巷","ALLEY":" ","HOUSE_NO":"９０號","E_COORD97":165604.45999999999,"N_COORD97":2561063.4900000002,"ADDRESS":"成功路２１３巷９０號","OBJECTID":422261},"geometry":{"x":165604.45999999996,"y":2561063.4900000002}},{"attributes":{"ID":422287,"DIS_CODE":0,"TOWNNAME":"佳里區","LI":"建南里","LIN":"30鄰","STREET":"成功路","SECT":" ","MAREA":" ","LANE":"２１３巷","ALLEY":" ","HOUSE_NO":"７９號","E_COORD97":165596.39000000001,"N_COORD97":2561096.3799999999,"ADDRESS":"成功路２１３巷７９號","OBJECTID":422262},"geometry":{"x":165596.39000000153,"y":2561096.379999999}},{"attributes":{"ID":422288,"DIS_CODE":0,"TOWNNAME":"佳里區","LI":"建南里","LIN":"30鄰","STREET":"成功路","SECT":" ","MAREA":" ","LANE":"２１３巷","ALLEY":" ","HOUSE_NO":"８１號","E_COORD97":165600.87,"N_COORD97":2561095.7999999998,"ADDRESS":"成功路２１３巷８１號","OBJECTID":422263},"geometry":{"x":165600.87000000104,"y":2561095.8000000007}},{"attributes":{"ID":422289,"DIS_CODE":0,"TOWNNAME":"佳里區","LI":"建南里","LIN":"30鄰","STREET":"成功路","SECT":" ","MAREA":" ","LANE":"２１３巷","ALLEY":" ","HOUSE_NO":"８３號","E_COORD97":165605.54999999999,"N_COORD97":2561095.9399999999,"ADDRESS":"成功路２１３巷８３號","OBJECTID":422264},"geometry":{"x":165605.55000000168,"y":2561095.9400000013}},{"attributes":{"ID":422290,"DIS_CODE":0,"TOWNNAME":"佳里區","LI":"建南里","LIN":"30鄰","STREET":"成功路","SECT":" ","MAREA":" ","LANE":"２１３巷","ALLEY":" ","HOUSE_NO":"８５號","E_COORD97":165610.29999999999,"N_COORD97":2561095.4500000002,"ADDRESS":"成功路２１３巷８５號","OBJECTID":422265},"geometry":{"x":165610.29999999981,"y":2561095.4500000011}},{"attributes":{"ID":422291,"DIS_CODE":0,"TOWNNAME":"佳里區","LI":"建南里","LIN":"30鄰","STREET":"成功路","SECT":" ","MAREA":" ","LANE":"２１３巷","ALLEY":" ","HOUSE_NO":"９１號之１","E_COORD97":165639.89000000001,"N_COORD97":2561082.2000000002,"ADDRESS":"成功路２１３巷９１號之１","OBJECTID":422266},"geometry":{"x":165639.88999999966,"y":2561082.1999999993}},{"attributes":{"ID":422292,"DIS_CODE":0,"TOWNNAME":"佳里區","LI":"建南里","LIN":"30鄰","STREET":"成功路","SECT":" ","MAREA":" ","LANE":"２１３巷","ALLEY":" ","HOUSE_NO":"９１號之２","E_COORD97":165646.45999999999,"N_COORD97":2561082.3199999998,"ADDRESS":"成功路２１３巷９１號之２","OBJECTID":422267},"geometry":{"x":165646.45999999996,"y":2561082.3200000003}},{"attributes":{"ID":422293,"DIS_CODE":0,"TOWNNAME":"佳里區","LI":"安西里","LIN":"41鄰","STREET":"育善街","SECT":" ","MAREA":" ","LANE":"１３５巷","ALLEY":" ","HOUSE_NO":"３２號","E_COORD97":164904.87,"N_COORD97":2562428.6099999999,"ADDRESS":"育善街１３５巷３２號","OBJECTID":422268},"geometry":{"x":164904.87000000011,"y":2562428.6099999994}},{"attributes":{"ID":422294,"DIS_CODE":0,"TOWNNAME":"佳里區","LI":"安西里","LIN":"41鄰","STREET":"育善街","SECT":" ","MAREA":" ","LANE":"１３５巷","ALLEY":" ","HOUSE_NO":"３４號","E_COORD97":164904.79999999999,"N_COORD97":2562434.8300000001,"ADDRESS":"育善街１３５巷３４號","OBJECTID":422269},"geometry":{"x":164904.79999999981,"y":2562434.8300000001}},{"attributes":{"ID":422295,"DIS_CODE":0,"TOWNNAME":"佳里區","LI":"安西里","LIN":"41鄰","STREET":"育善街","SECT":" ","MAREA":" ","LANE":"１３５巷","ALLEY":" ","HOUSE_NO":"３６號","E_COORD97":164904.79000000001,"N_COORD97":2562440.4500000002,"ADDRESS":"育善街１３５巷３６號","OBJECTID":422270},"geometry":{"x":164904.79000000097,"y":2562440.450000003}},{"attributes":{"ID":422296,"DIS_CODE":0,"TOWNNAME":"佳里區","LI":"安西里","LIN":"41鄰","STREET":"育善街","SECT":" ","MAREA":" ","LANE":"１３５巷","ALLEY":" ","HOUSE_NO":"３８號","E_COORD97":164904.41,"N_COORD97":2562446.4700000002,"ADDRESS":"育善街１３５巷３８號","OBJECTID":422271},"geometry":{"x":164904.41000000015,"y":2562446.4700000025}},{"attributes":{"ID":422297,"DIS_CODE":0,"TOWNNAME":"佳里區","LI":"安西里","LIN":"41鄰","STREET":"育善街","SECT":" ","MAREA":" ","LANE":"１３５巷","ALLEY":" ","HOUSE_NO":"４０號","E_COORD97":164904.41,"N_COORD97":2562452.2400000002,"ADDRESS":"育善街１３５巷４０號","OBJECTID":422272},"geometry":{"x":164904.41000000015,"y":2562452.2400000002}},{"attributes":{"ID":422298,"DIS_CODE":0,"TOWNNAME":"佳里區","LI":"安西里","LIN":"41鄰","STREET":"育善街","SECT":" ","MAREA":" ","LANE":"１３５巷","ALLEY":" ","HOUSE_NO":"４２號","E_COORD97":164904.04000000001,"N_COORD97":2562458.5299999998,"ADDRESS":"育善街１３５巷４２號","OBJECTID":422273},"geometry":{"x":164904.0400000019,"y":2562458.5299999993}},{"attributes":{"ID":422299,"DIS_CODE":0,"TOWNNAME":"佳里區","LI":"安西里","LIN":"41鄰","STREET":"育善街","SECT":" ","MAREA":" ","LANE":"１３５巷","ALLEY":" ","HOUSE_NO":"６６號","E_COORD97":164850.44,"N_COORD97":2562404.9700000002,"ADDRESS":"育善街１３５巷６６號","OBJECTID":422274},"geometry":{"x":164850.44000000041,"y":2562404.9700000025}},{"attributes":{"ID":422300,"DIS_CODE":0,"TOWNNAME":"佳里區","LI":"安西里","LIN":"35鄰","STREET":"育善街","SECT":" ","MAREA":" ","LANE":"２７６巷","ALLEY":" ","HOUSE_NO":"１７號","E_COORD97":164954.17999999999,"N_COORD97":2562783.3900000001,"ADDRESS":"育善街２７６巷１７號","OBJECTID":422275},"geometry":{"x":164954.18000000063,"y":2562783.3900000006}},{"attributes":{"ID":422301,"DIS_CODE":0,"TOWNNAME":"佳里區","LI":"安西里","LIN":"35鄰","STREET":"育善街","SECT":" ","MAREA":" ","LANE":"２７６巷","ALLEY":" ","HOUSE_NO":"１８號","E_COORD97":164967.89000000001,"N_COORD97":2562740.5099999998,"ADDRESS":"育善街２７６巷１８號","OBJECTID":422276},"geometry":{"x":164967.8900000006,"y":2562740.5100000016}},{"attributes":{"ID":422302,"DIS_CODE":0,"TOWNNAME":"佳里區","LI":"安西里","LIN":"35鄰","STREET":"育善街","SECT":" ","MAREA":" ","LANE":"２７６巷","ALLEY":" ","HOUSE_NO":"１９號","E_COORD97":164954.17000000001,"N_COORD97":2562788.0699999998,"ADDRESS":"育善街２７６巷１９號","OBJECTID":422277},"geometry":{"x":164954.17000000086,"y":2562788.0700000022}},{"attributes":{"ID":422303,"DIS_CODE":0,"TOWNNAME":"安南區","LI":"安慶里","LIN":"32鄰","STREET":"頂安街","SECT":" ","MAREA":" ","LANE":"３９９巷","ALLEY":" ","HOUSE_NO":"５號","E_COORD97":169034.01999999999,"N_COORD97":2549364.2599999998,"ADDRESS":"頂安街３９９巷５號","OBJECTID":422278},"geometry":{"x":169034.01999999955,"y":2549364.2599999998}},{"attributes":{"ID":422304,"DIS_CODE":0,"TOWNNAME":"安南區","LI":"安慶里","LIN":"32鄰","STREET":"頂安街","SECT":" ","MAREA":" ","LANE":"３９９巷","ALLEY":" ","HOUSE_NO":"７號","E_COORD97":169034.64999999999,"N_COORD97":2549360.0699999998,"ADDRESS":"頂安街３９９巷７號","OBJECTID":422279},"geometry":{"x":169034.65000000037,"y":2549360.0700000003}},{"attributes":{"ID":422305,"DIS_CODE":0,"TOWNNAME":"安南區","LI":"總頭里","LIN":"11鄰","STREET":"長溪路","SECT":"二段","MAREA":" ","LANE":"５８１巷","ALLEY":" ","HOUSE_NO":"６５之１號","E_COORD97":168153.38,"N_COORD97":2550539.4100000001,"ADDRESS":"長溪路二段５８１巷６５之１號","OBJECTID":422280},"geometry":{"x":168153.38000000082,"y":2550539.410000002}},{"attributes":{"ID":422306,"DIS_CODE":0,"TOWNNAME":"安南區","LI":"總頭里","LIN":"11鄰","STREET":"長溪路","SECT":"二段","MAREA":" ","LANE":"５８１巷","ALLEY":" ","HOUSE_NO":"６３號","E_COORD97":168152.35999999999,"N_COORD97":2550554.6499999999,"ADDRESS":"長溪路二段５８１巷６３號","OBJECTID":422281},"geometry":{"x":168152.36000000127,"y":2550554.6500000022}},{"attributes":{"ID":422307,"DIS_CODE":0,"TOWNNAME":"東區","LI":"復興里","LIN":"19鄰","STREET":"自由路","SECT":"三段","MAREA":" ","LANE":" ","ALLEY":" ","HOUSE_NO":"１６１號","E_COORD97":171790.04000000001,"N_COORD97":2542425.02,"ADDRESS":"自由路三段１６１號","OBJECTID":422282},"geometry":{"x":171790.0400000019,"y":2542425.0200000014}},{"attributes":{"ID":422308,"DIS_CODE":0,"TOWNNAME":"東區","LI":"復興里","LIN":"19鄰","STREET":"自由路","SECT":"三段","MAREA":" ","LANE":" ","ALLEY":" ","HOUSE_NO":"１６３號","E_COORD97":171788.45000000001,"N_COORD97":2542429.3999999999,"ADDRESS":"自由路三段１６３號","OBJECTID":422283},"geometry":{"x":171788.45000000019,"y":2542429.4000000022}},{"attributes":{"ID":422309,"DIS_CODE":0,"TOWNNAME":"東區","LI":"復興里","LIN":"19鄰","STREET":"自由路","SECT":"三段","MAREA":" ","LANE":" ","ALLEY":" ","HOUSE_NO":"１６５號","E_COORD97":171787.66,"N_COORD97":2542433.3799999999,"ADDRESS":"自由路三段１６５號","OBJECTID":422284},"geometry":{"x":171787.66000000201,"y":2542433.379999999}},{"attributes":{"ID":422310,"DIS_CODE":0,"TOWNNAME":"東區","LI":"復興里","LIN":"19鄰","STREET":"自由路","SECT":"三段","MAREA":" ","LANE":" ","ALLEY":" ","HOUSE_NO":"１６７號","E_COORD97":171786.45999999999,"N_COORD97":2542437.3500000001,"ADDRESS":"自由路三段１６７號","OBJECTID":422285},"geometry":{"x":171786.45999999996,"y":2542437.3499999996}},{"attributes":{"ID":422311,"DIS_CODE":0,"TOWNNAME":"東區","LI":"復興里","LIN":"19鄰","STREET":"自由路","SECT":"三段","MAREA":" ","LANE":" ","ALLEY":" ","HOUSE_NO":"１６９號","E_COORD97":171785.76999999999,"N_COORD97":2542442.3999999999,"ADDRESS":"自由路三段１６９號","OBJECTID":422286},"geometry":{"x":171785.76999999955,"y":2542442.4000000022}},{"attributes":{"ID":422312,"DIS_CODE":0,"TOWNNAME":"東區","LI":"復興里","LIN":"19鄰","STREET":"自由路","SECT":"三段","MAREA":" ","LANE":" ","ALLEY":" ","HOUSE_NO":"１７１號","E_COORD97":171784.38,"N_COORD97":2542447.3700000001,"ADDRESS":"自由路三段１７１號","OBJECTID":422287},"geometry":{"x":171784.38000000082,"y":2542447.3700000029}},{"attributes":{"ID":422313,"DIS_CODE":0,"TOWNNAME":"鹽水區","LI":"岸內里","LIN":"24鄰","STREET":"北門路","SECT":" ","MAREA":" ","LANE":"９巷","ALLEY":" ","HOUSE_NO":"８５號","E_COORD97":175407.85999999999,"N_COORD97":2580531.79,"ADDRESS":"北門路９巷８５號","OBJECTID":422288},"geometry":{"x":175407.86000000127,"y":2580531.7899999991}},{"attributes":{"ID":422314,"DIS_CODE":0,"TOWNNAME":"東區","LI":"復興里","LIN":"19鄰","STREET":"自由路","SECT":"三段","MAREA":" ","LANE":" ","ALLEY":" ","HOUSE_NO":"１７３號","E_COORD97":171783.12,"N_COORD97":2542451.46,"ADDRESS":"自由路三段１７３號","OBJECTID":422289},"geometry":{"x":171783.12000000104,"y":2542451.4600000009}},{"attributes":{"ID":422315,"DIS_CODE":0,"TOWNNAME":"東區","LI":"復興里","LIN":"19鄰","STREET":"自由路","SECT":"三段","MAREA":" ","LANE":" ","ALLEY":" ","HOUSE_NO":"１７５號","E_COORD97":171782.48000000001,"N_COORD97":2542454.4500000002,"ADDRESS":"自由路三段１７５號","OBJECTID":422290},"geometry":{"x":171782.48000000138,"y":2542454.4500000011}},{"attributes":{"ID":422316,"DIS_CODE":0,"TOWNNAME":"東區","LI":"虎尾里","LIN":"20鄰","STREET":"自由路","SECT":"三段","MAREA":" ","LANE":" ","ALLEY":" ","HOUSE_NO":"１３號","E_COORD97":171806.14999999999,"N_COORD97":2541890.9700000002,"ADDRESS":"自由路三段１３號","OBJECTID":422291},"geometry":{"x":171806.15000000037,"y":2541890.9700000007}},{"attributes":{"ID":422317,"DIS_CODE":0,"TOWNNAME":"東區","LI":"虎尾里","LIN":"20鄰","STREET":"自由路","SECT":"三段","MAREA":" ","LANE":" ","ALLEY":" ","HOUSE_NO":"１５號","E_COORD97":171806.56,"N_COORD97":2541897.04,"ADDRESS":"自由路三段１５號","OBJECTID":422292},"geometry":{"x":171806.56000000052,"y":2541897.0399999972}},{"attributes":{"ID":422318,"DIS_CODE":0,"TOWNNAME":"東區","LI":"虎尾里","LIN":"20鄰","STREET":"自由路","SECT":"三段","MAREA":" ","LANE":" ","ALLEY":" ","HOUSE_NO":"１７號","E_COORD97":171806.95999999999,"N_COORD97":2541902.8599999999,"ADDRESS":"自由路三段１７號","OBJECTID":422293},"geometry":{"x":171806.95999999996,"y":2541902.8600000013}},{"attributes":{"ID":422319,"DIS_CODE":0,"TOWNNAME":"東區","LI":"虎尾里","LIN":"20鄰","STREET":"自由路","SECT":"三段","MAREA":" ","LANE":" ","ALLEY":" ","HOUSE_NO":"１９號","E_COORD97":171793.38,"N_COORD97":2541903.52,"ADDRESS":"自由路三段１９號","OBJECTID":422294},"geometry":{"x":171793.38000000082,"y":2541903.5199999996}},{"attributes":{"ID":422320,"DIS_CODE":0,"TOWNNAME":"東區","LI":"虎尾里","LIN":"20鄰","STREET":"自由路","SECT":"三段","MAREA":" ","LANE":" ","ALLEY":" ","HOUSE_NO":"３號","E_COORD97":171802.67999999999,"N_COORD97":2541861.8999999999,"ADDRESS":"自由路三段３號","OBJECTID":422295},"geometry":{"x":171802.68000000063,"y":2541861.9000000004}},{"attributes":{"ID":422321,"DIS_CODE":0,"TOWNNAME":"東區","LI":"虎尾里","LIN":"20鄰","STREET":"自由路","SECT":"三段","MAREA":" ","LANE":" ","ALLEY":" ","HOUSE_NO":"５號","E_COORD97":171803.39999999999,"N_COORD97":2541867.7200000002,"ADDRESS":"自由路三段５號","OBJECTID":422296},"geometry":{"x":171803.4000000013,"y":2541867.7200000025}},{"attributes":{"ID":422322,"DIS_CODE":0,"TOWNNAME":"東區","LI":"虎尾里","LIN":"20鄰","STREET":"自由路","SECT":"三段","MAREA":" ","LANE":" ","ALLEY":" ","HOUSE_NO":"７號","E_COORD97":171803.88,"N_COORD97":2541873.6099999999,"ADDRESS":"自由路三段７號","OBJECTID":422297},"geometry":{"x":171803.87999999989,"y":2541873.6100000031}},{"attributes":{"ID":422323,"DIS_CODE":0,"TOWNNAME":"東區","LI":"虎尾里","LIN":"20鄰","STREET":"自由路","SECT":"三段","MAREA":" ","LANE":" ","ALLEY":" ","HOUSE_NO":"９號","E_COORD97":171804.82000000001,"N_COORD97":2541879.73,"ADDRESS":"自由路三段９號","OBJECTID":422298},"geometry":{"x":171804.8200000003,"y":2541879.7300000004}},{"attributes":{"ID":422324,"DIS_CODE":0,"TOWNNAME":"東區","LI":"成大里","LIN":"9鄰","STREET":"育樂街","SECT":" ","MAREA":" ","LANE":"１４１巷","ALLEY":" ","HOUSE_NO":"１２號","E_COORD97":169554.26000000001,"N_COORD97":2543932.73,"ADDRESS":"育樂街１４１巷１２號","OBJECTID":422299},"geometry":{"x":169554.26000000071,"y":2543932.7300000023}},{"attributes":{"ID":422325,"DIS_CODE":0,"TOWNNAME":"東區","LI":"成大里","LIN":"8鄰","STREET":"民族路","SECT":"一段","MAREA":" ","LANE":"１８巷","ALLEY":" ","HOUSE_NO":"１０號","E_COORD97":169557.59,"N_COORD97":2543886.9300000002,"ADDRESS":"民族路一段１８巷１０號","OBJECTID":422300},"geometry":{"x":169557.59000000078,"y":2543886.9300000016}},{"attributes":{"ID":422326,"DIS_CODE":0,"TOWNNAME":"東區","LI":"成大里","LIN":"8鄰","STREET":"民族路","SECT":"一段","MAREA":" ","LANE":"１８巷","ALLEY":" ","HOUSE_NO":"１１號","E_COORD97":169533.39999999999,"N_COORD97":2543907.7200000002,"ADDRESS":"民族路一段１８巷１１號","OBJECTID":422301},"geometry":{"x":169533.4000000013,"y":2543907.7200000007}},{"attributes":{"ID":422327,"DIS_CODE":0,"TOWNNAME":"東區","LI":"成大里","LIN":"8鄰","STREET":"民族路","SECT":"一段","MAREA":" ","LANE":"１８巷","ALLEY":" ","HOUSE_NO":"１２號","E_COORD97":169558.19,"N_COORD97":2543893.6600000001,"ADDRESS":"民族路一段１８巷１２號","OBJECTID":422302},"geometry":{"x":169558.19000000041,"y":2543893.6600000001}},{"attributes":{"ID":422328,"DIS_CODE":0,"TOWNNAME":"東區","LI":"成大里","LIN":"8鄰","STREET":"民族路","SECT":"一段","MAREA":" ","LANE":"１８巷","ALLEY":" ","HOUSE_NO":"１３號","E_COORD97":169533.79999999999,"N_COORD97":2543912.8700000001,"ADDRESS":"民族路一段１８巷１３號","OBJECTID":422303},"geometry":{"x":169533.80000000075,"y":2543912.870000001}},{"attributes":{"ID":422329,"DIS_CODE":0,"TOWNNAME":"東區","LI":"成大里","LIN":"8鄰","STREET":"民族路","SECT":"一段","MAREA":" ","LANE":"１８巷","ALLEY":" ","HOUSE_NO":"１９號","E_COORD97":169534,"N_COORD97":2543926.3300000001,"ADDRESS":"民族路一段１８巷１９號","OBJECTID":422304},"geometry":{"x":169534.00000000093,"y":2543926.3300000001}},{"attributes":{"ID":422330,"DIS_CODE":0,"TOWNNAME":"東區","LI":"成大里","LIN":"8鄰","STREET":"民族路","SECT":"一段","MAREA":" ","LANE":"１８巷","ALLEY":" ","HOUSE_NO":"１號","E_COORD97":169532.41,"N_COORD97":2543885.7400000002,"ADDRESS":"民族路一段１８巷１號","OBJECTID":422305},"geometry":{"x":169532.41000000015,"y":2543885.7400000002}},{"attributes":{"ID":422331,"DIS_CODE":0,"TOWNNAME":"東區","LI":"成大里","LIN":"8鄰","STREET":"民族路","SECT":"一段","MAREA":" ","LANE":"１８巷","ALLEY":" ","HOUSE_NO":"２０號","E_COORD97":169544.89999999999,"N_COORD97":2543910.29,"ADDRESS":"民族路一段１８巷２０號","OBJECTID":422306},"geometry":{"x":169544.90000000037,"y":2543910.290000001}},{"attributes":{"ID":422332,"DIS_CODE":0,"TOWNNAME":"東區","LI":"成大里","LIN":"8鄰","STREET":"民族路","SECT":"一段","MAREA":" ","LANE":"１８巷","ALLEY":" ","HOUSE_NO":"２２號","E_COORD97":169545.69,"N_COORD97":2543915.4399999999,"ADDRESS":"民族路一段１８巷２２號","OBJECTID":422307},"geometry":{"x":169545.69000000134,"y":2543915.4399999976}},{"attributes":{"ID":422333,"DIS_CODE":0,"TOWNNAME":"東區","LI":"成大里","LIN":"8鄰","STREET":"民族路","SECT":"一段","MAREA":" ","LANE":"１８巷","ALLEY":" ","HOUSE_NO":"２４號","E_COORD97":169545.69,"N_COORD97":2543919.7999999998,"ADDRESS":"民族路一段１８巷２４號","OBJECTID":422308},"geometry":{"x":169545.69000000134,"y":2543919.8000000007}},{"attributes":{"ID":422334,"DIS_CODE":0,"TOWNNAME":"東區","LI":"成大里","LIN":"8鄰","STREET":"民族路","SECT":"一段","MAREA":" ","LANE":"１８巷","ALLEY":" ","HOUSE_NO":"２６號","E_COORD97":169545.29999999999,"N_COORD97":2543924.1499999999,"ADDRESS":"民族路一段１８巷２６號","OBJECTID":422309},"geometry":{"x":169545.30000000168,"y":2543924.1500000004}},{"attributes":{"ID":422335,"DIS_CODE":0,"TOWNNAME":"將軍區","LI":"長沙里","LIN":"5鄰","STREET":" ","SECT":" ","MAREA":"長沙","LANE":" ","ALLEY":" ","HOUSE_NO":"４１號","E_COORD97":157279.763549,"N_COORD97":2568681.2879400002,"ADDRESS":"長沙４１號","OBJECTID":422310},"geometry":{"x":157279.76354900096,"y":2568681.2879440002}},{"attributes":{"ID":422336,"DIS_CODE":0,"TOWNNAME":"東區","LI":"成大里","LIN":"8鄰","STREET":"民族路","SECT":"一段","MAREA":" ","LANE":"１８巷","ALLEY":" ","HOUSE_NO":"２號","E_COORD97":169543.51000000001,"N_COORD97":2543885.9399999999,"ADDRESS":"民族路一段１８巷２號","OBJECTID":422311},"geometry":{"x":169543.50999999978,"y":2543885.9400000013}},{"attributes":{"ID":422337,"DIS_CODE":0,"TOWNNAME":"東區","LI":"成大里","LIN":"8鄰","STREET":"民族路","SECT":"一段","MAREA":" ","LANE":"１８巷","ALLEY":" ","HOUSE_NO":"３號","E_COORD97":169532.41,"N_COORD97":2543890.6899999999,"ADDRESS":"民族路一段１８巷３號","OBJECTID":422312},"geometry":{"x":169532.41000000015,"y":2543890.6900000013}},{"attributes":{"ID":422338,"DIS_CODE":0,"TOWNNAME":"東區","LI":"成大里","LIN":"8鄰","STREET":"民族路","SECT":"一段","MAREA":" ","LANE":"１８巷","ALLEY":" ","HOUSE_NO":"４號","E_COORD97":169543.91,"N_COORD97":2543890.2999999998,"ADDRESS":"民族路一段１８巷４號","OBJECTID":422313},"geometry":{"x":169543.91000000108,"y":2543890.3000000007}},{"attributes":{"ID":422339,"DIS_CODE":0,"TOWNNAME":"東區","LI":"成大里","LIN":"8鄰","STREET":"民族路","SECT":"一段","MAREA":" ","LANE":"１８巷","ALLEY":" ","HOUSE_NO":"５號","E_COORD97":169532.20999999999,"N_COORD97":2543895.0499999998,"ADDRESS":"民族路一段１８巷５號","OBJECTID":422314},"geometry":{"x":169532.20999999996,"y":2543895.0500000007}},{"attributes":{"ID":422340,"DIS_CODE":0,"TOWNNAME":"東區","LI":"成大里","LIN":"8鄰","STREET":"民族路","SECT":"一段","MAREA":" ","LANE":"１８巷","ALLEY":" ","HOUSE_NO":"６號","E_COORD97":169544.10999999999,"N_COORD97":2543895.4399999999,"ADDRESS":"民族路一段１８巷６號","OBJECTID":422315},"geometry":{"x":169544.11000000127,"y":2543895.4400000032}},{"attributes":{"ID":422341,"DIS_CODE":0,"TOWNNAME":"東區","LI":"東門里","LIN":"13鄰","STREET":"東門路","SECT":"一段","MAREA":" ","LANE":"２１１巷","ALLEY":" ","HOUSE_NO":"１８號","E_COORD97":169710.35000000001,"N_COORD97":2543198.3399999999,"ADDRESS":"東門路一段２１１巷１８號","OBJECTID":422316},"geometry":{"x":169710.34999999963,"y":2543198.3400000017}},{"attributes":{"ID":422342,"DIS_CODE":0,"TOWNNAME":"東區","LI":"東門里","LIN":"13鄰","STREET":"東門路","SECT":"一段","MAREA":" ","LANE":"２１１巷","ALLEY":" ","HOUSE_NO":"１９號","E_COORD97":169687.03,"N_COORD97":2543190.6499999999,"ADDRESS":"東門路一段２１１巷１９號","OBJECTID":422317},"geometry":{"x":169687.03000000119,"y":2543190.6500000022}},{"attributes":{"ID":422343,"DIS_CODE":0,"TOWNNAME":"東區","LI":"東門里","LIN":"13鄰","STREET":"東門路","SECT":"一段","MAREA":" ","LANE":"２１１巷","ALLEY":" ","HOUSE_NO":"１號","E_COORD97":169667.79999999999,"N_COORD97":2543136.6699999999,"ADDRESS":"東門路一段２１１巷１號","OBJECTID":422318},"geometry":{"x":169667.80000000075,"y":2543136.6699999999}},{"attributes":{"ID":422344,"DIS_CODE":0,"TOWNNAME":"東區","LI":"東門里","LIN":"13鄰","STREET":"東門路","SECT":"一段","MAREA":" ","LANE":"２１１巷","ALLEY":" ","HOUSE_NO":"２１號","E_COORD97":169696.84,"N_COORD97":2543189.79,"ADDRESS":"東門路一段２１１巷２１號","OBJECTID":422319},"geometry":{"x":169696.83999999985,"y":2543189.7899999991}},{"attributes":{"ID":422345,"DIS_CODE":0,"TOWNNAME":"東區","LI":"東門里","LIN":"13鄰","STREET":"東門路","SECT":"一段","MAREA":" ","LANE":"２１１巷","ALLEY":" ","HOUSE_NO":"２號","E_COORD97":169687.42000000001,"N_COORD97":2543143.46,"ADDRESS":"東門路一段２１１巷２號","OBJECTID":422320},"geometry":{"x":169687.42000000086,"y":2543143.4600000009}},{"attributes":{"ID":422346,"DIS_CODE":0,"TOWNNAME":"北區","LI":"五福里","LIN":"13鄰","STREET":"成功路","SECT":" ","MAREA":" ","LANE":" ","ALLEY":" ","HOUSE_NO":"２８６號","E_COORD97":168170.37,"N_COORD97":2544466.3300000001,"ADDRESS":"成功路２８６號","OBJECTID":422321},"geometry":{"x":168170.37000000104,"y":2544466.3300000038}},{"attributes":{"ID":422347,"DIS_CODE":0,"TOWNNAME":"東區","LI":"東門里","LIN":"13鄰","STREET":"東門路","SECT":"一段","MAREA":" ","LANE":"２１１巷","ALLEY":" ","HOUSE_NO":"３號","E_COORD97":169670.22,"N_COORD97":2543140.8900000001,"ADDRESS":"東門路一段２１１巷３號","OBJECTID":422322},"geometry":{"x":169670.22000000067,"y":2543140.8900000043}},{"attributes":{"ID":422348,"DIS_CODE":0,"TOWNNAME":"東區","LI":"東門里","LIN":"13鄰","STREET":"東門路","SECT":"一段","MAREA":" ","LANE":"２１１巷","ALLEY":" ","HOUSE_NO":"５號","E_COORD97":169674.29999999999,"N_COORD97":2543148.7200000002,"ADDRESS":"東門路一段２１１巷５號","OBJECTID":422323},"geometry":{"x":169674.30000000075,"y":2543148.7200000044}},{"attributes":{"ID":422349,"DIS_CODE":0,"TOWNNAME":"東區","LI":"東門里","LIN":"17鄰","STREET":"東門路","SECT":"一段","MAREA":" ","LANE":"１３１巷","ALLEY":" ","HOUSE_NO":"１３號","E_COORD97":169451.12,"N_COORD97":2543306.8100000001,"ADDRESS":"東門路一段１３１巷１３號","OBJECTID":422324},"geometry":{"x":169451.12000000011,"y":2543306.8100000005}},{"attributes":{"ID":422350,"DIS_CODE":0,"TOWNNAME":"東區","LI":"東門里","LIN":"17鄰","STREET":"東門路","SECT":"一段","MAREA":" ","LANE":"１３１巷","ALLEY":" ","HOUSE_NO":"１４號","E_COORD97":169461.78,"N_COORD97":2543314.77,"ADDRESS":"東門路一段１３１巷１４號","OBJECTID":422325},"geometry":{"x":169461.78000000119,"y":2543314.7700000014}},{"attributes":{"ID":422351,"DIS_CODE":0,"TOWNNAME":"東區","LI":"東門里","LIN":"20鄰","STREET":"勝利路","SECT":" ","MAREA":" ","LANE":"１９巷","ALLEY":" ","HOUSE_NO":"９號","E_COORD97":169702.44,"N_COORD97":2543141.0099999998,"ADDRESS":"勝利路１９巷９號","OBJECTID":422326},"geometry":{"x":169702.43999999948,"y":2543141.0099999998}},{"attributes":{"ID":422352,"DIS_CODE":0,"TOWNNAME":"東區","LI":"東門里","LIN":"14鄰","STREET":"慶東街","SECT":" ","MAREA":" ","LANE":"８７巷","ALLEY":" ","HOUSE_NO":"３號","E_COORD97":169608.22,"N_COORD97":2543194.77,"ADDRESS":"慶東街８７巷３號","OBJECTID":422327},"geometry":{"x":169608.21999999974,"y":2543194.7700000033}},{"attributes":{"ID":422353,"DIS_CODE":0,"TOWNNAME":"東區","LI":"東門里","LIN":"14鄰","STREET":"慶東街","SECT":" ","MAREA":" ","LANE":"８７巷","ALLEY":" ","HOUSE_NO":"３號之１","E_COORD97":169610.88,"N_COORD97":2543210.2799999998,"ADDRESS":"慶東街８７巷３號之１","OBJECTID":422328},"geometry":{"x":169610.88000000175,"y":2543210.2799999993}},{"attributes":{"ID":422354,"DIS_CODE":0,"TOWNNAME":"東區","LI":"東門里","LIN":"22鄰","STREET":"東榮街","SECT":" ","MAREA":" ","LANE":"１１５巷","ALLEY":" ","HOUSE_NO":"１１號","E_COORD97":169567.09,"N_COORD97":2543255.9100000001,"ADDRESS":"東榮街１１５巷１１號","OBJECTID":422329},"geometry":{"x":169567.09000000171,"y":2543255.910000002}},{"attributes":{"ID":422355,"DIS_CODE":0,"TOWNNAME":"東區","LI":"東門里","LIN":"17鄰","STREET":"東門路","SECT":"一段","MAREA":" ","LANE":"１３５巷","ALLEY":" ","HOUSE_NO":"２５號","E_COORD97":169507.34,"N_COORD97":2543282.7799999998,"ADDRESS":"東門路一段１３５巷２５號","OBJECTID":422330},"geometry":{"x":169507.33999999985,"y":2543282.7800000031}},{"attributes":{"ID":422356,"DIS_CODE":0,"TOWNNAME":"東區","LI":"東門里","LIN":"17鄰","STREET":"東門路","SECT":"一段","MAREA":" ","LANE":"１３５巷","ALLEY":" ","HOUSE_NO":"９號","E_COORD97":169490.91,"N_COORD97":2543277.9199999999,"ADDRESS":"東門路一段１３５巷９號","OBJECTID":422331},"geometry":{"x":169490.91000000108,"y":2543277.9199999999}},{"attributes":{"ID":422357,"DIS_CODE":0,"TOWNNAME":"東區","LI":"東門里","LIN":"17鄰","STREET":"東榮街","SECT":" ","MAREA":" ","LANE":"８０巷","ALLEY":" ","HOUSE_NO":"１號","E_COORD97":169514.13,"N_COORD97":2543296.5499999998,"ADDRESS":"東榮街８０巷１號","OBJECTID":422332},"geometry":{"x":169514.12999999896,"y":2543296.5500000026}},{"attributes":{"ID":422358,"DIS_CODE":0,"TOWNNAME":"東區","LI":"東門里","LIN":"17鄰","STREET":"東榮街","SECT":" ","MAREA":" ","LANE":"８０巷","ALLEY":" ","HOUSE_NO":"２號","E_COORD97":169503.39999999999,"N_COORD97":2543301.25,"ADDRESS":"東榮街８０巷２號","OBJECTID":422333},"geometry":{"x":169503.4000000013,"y":2543301.2500000019}},{"attributes":{"ID":422359,"DIS_CODE":0,"TOWNNAME":"東區","LI":"東門里","LIN":"17鄰","STREET":"東榮街","SECT":" ","MAREA":" ","LANE":"８０巷","ALLEY":" ","HOUSE_NO":"３號","E_COORD97":169486.89000000001,"N_COORD97":2543301.6299999999,"ADDRESS":"東榮街８０巷３號","OBJECTID":422334},"geometry":{"x":169486.89000000153,"y":2543301.6300000008}},{"attributes":{"ID":422360,"DIS_CODE":0,"TOWNNAME":"東區","LI":"東門里","LIN":"17鄰","STREET":"東榮街","SECT":" ","MAREA":" ","LANE":"８０巷","ALLEY":" ","HOUSE_NO":"４號","E_COORD97":169478.47,"N_COORD97":2543312.7599999998,"ADDRESS":"東榮街８０巷４號","OBJECTID":422335},"geometry":{"x":169478.47000000067,"y":2543312.7599999998}},{"attributes":{"ID":422361,"DIS_CODE":0,"TOWNNAME":"東區","LI":"東門里","LIN":"17鄰","STREET":"東榮街","SECT":" ","MAREA":" ","LANE":"８０巷","ALLEY":" ","HOUSE_NO":"５號","E_COORD97":169477.16,"N_COORD97":2543304.4399999999,"ADDRESS":"東榮街８０巷５號","OBJECTID":422336},"geometry":{"x":169477.16000000108,"y":2543304.4399999995}},{"attributes":{"ID":422362,"DIS_CODE":0,"TOWNNAME":"東區","LI":"泉南里","LIN":"6鄰","STREET":"東門路","SECT":"一段","MAREA":" ","LANE":"１１２巷","ALLEY":" ","HOUSE_NO":"１０號","E_COORD97":169384.67000000001,"N_COORD97":2543138.79,"ADDRESS":"東門路一段１１２巷１０號","OBJECTID":422337},"geometry":{"x":169384.66999999993,"y":2543138.7899999991}},{"attributes":{"ID":422363,"DIS_CODE":0,"TOWNNAME":"東區","LI":"泉南里","LIN":"6鄰","STREET":"東門路","SECT":"一段","MAREA":" ","LANE":"１１２巷","ALLEY":" ","HOUSE_NO":"１２號","E_COORD97":169411.54999999999,"N_COORD97":2543125.4100000001,"ADDRESS":"東門路一段１１２巷１２號","OBJECTID":422338},"geometry":{"x":169411.55000000075,"y":2543125.4100000001}},{"attributes":{"ID":422364,"DIS_CODE":0,"TOWNNAME":"東區","LI":"泉南里","LIN":"6鄰","STREET":"東門路","SECT":"一段","MAREA":" ","LANE":"１１２巷","ALLEY":" ","HOUSE_NO":"１３號","E_COORD97":169427.81,"N_COORD97":2543135.3399999999,"ADDRESS":"東門路一段１１２巷１３號","OBJECTID":422339},"geometry":{"x":169427.80999999866,"y":2543135.3399999999}},{"attributes":{"ID":422365,"DIS_CODE":0,"TOWNNAME":"東區","LI":"泉南里","LIN":"6鄰","STREET":"東門路","SECT":"一段","MAREA":" ","LANE":"１１２巷","ALLEY":" ","HOUSE_NO":"１５號","E_COORD97":169427.81,"N_COORD97":2543131.8900000001,"ADDRESS":"東門路一段１１２巷１５號","OBJECTID":422340},"geometry":{"x":169427.80999999866,"y":2543131.8900000025}},{"attributes":{"ID":422366,"DIS_CODE":0,"TOWNNAME":"東區","LI":"泉南里","LIN":"6鄰","STREET":"東門路","SECT":"一段","MAREA":" ","LANE":"１１２巷","ALLEY":" ","HOUSE_NO":"１７號","E_COORD97":169427.70999999999,"N_COORD97":2543128.5499999998,"ADDRESS":"東門路一段１１２巷１７號","OBJECTID":422341},"geometry":{"x":169427.71000000089,"y":2543128.5500000007}},{"attributes":{"ID":422367,"DIS_CODE":0,"TOWNNAME":"東區","LI":"泉南里","LIN":"6鄰","STREET":"東門路","SECT":"一段","MAREA":" ","LANE":"１１２巷","ALLEY":" ","HOUSE_NO":"１９號","E_COORD97":169430.12,"N_COORD97":2543124.6800000002,"ADDRESS":"東門路一段１１２巷１９號","OBJECTID":422342},"geometry":{"x":169430.12000000104,"y":2543124.6800000016}},{"attributes":{"ID":422368,"DIS_CODE":0,"TOWNNAME":"東區","LI":"泉南里","LIN":"6鄰","STREET":"東門路","SECT":"一段","MAREA":" ","LANE":"１１２巷","ALLEY":" ","HOUSE_NO":"２１號","E_COORD97":169417.31,"N_COORD97":2543135.6600000001,"ADDRESS":"東門路一段１１２巷２１號","OBJECTID":422343},"geometry":{"x":169417.30999999959,"y":2543135.660000002}},{"attributes":{"ID":422369,"DIS_CODE":0,"TOWNNAME":"東區","LI":"泉南里","LIN":"6鄰","STREET":"東門路","SECT":"一段","MAREA":" ","LANE":"１１２巷","ALLEY":" ","HOUSE_NO":"２３號","E_COORD97":169416.78,"N_COORD97":2543128.0299999998,"ADDRESS":"東門路一段１１２巷２３號","OBJECTID":422344},"geometry":{"x":169416.78000000026,"y":2543128.0299999975}},{"attributes":{"ID":422370,"DIS_CODE":0,"TOWNNAME":"東區","LI":"泉南里","LIN":"6鄰","STREET":"東門路","SECT":"一段","MAREA":" ","LANE":"１１２巷","ALLEY":" ","HOUSE_NO":"５號","E_COORD97":169423.73999999999,"N_COORD97":2543149.4500000002,"ADDRESS":"東門路一段１１２巷５號","OBJECTID":422345},"geometry":{"x":169423.74000000022,"y":2543149.4500000011}},{"attributes":{"ID":422371,"DIS_CODE":0,"TOWNNAME":"東區","LI":"泉南里","LIN":"6鄰","STREET":"東門路","SECT":"一段","MAREA":" ","LANE":"１１２巷","ALLEY":" ","HOUSE_NO":"８號","E_COORD97":169389.69,"N_COORD97":2543137.75,"ADDRESS":"東門路一段１１２巷８號","OBJECTID":422346},"geometry":{"x":169389.69000000134,"y":2543137.7500000037}},{"attributes":{"ID":422372,"DIS_CODE":0,"TOWNNAME":"東區","LI":"泉南里","LIN":"17鄰","STREET":"光華街","SECT":" ","MAREA":" ","LANE":"１１９巷","ALLEY":" ","HOUSE_NO":"４６號","E_COORD97":169731.41,"N_COORD97":2542806.96,"ADDRESS":"光華街１１９巷４６號","OBJECTID":422347},"geometry":{"x":169731.41000000108,"y":2542806.9600000009}},{"attributes":{"ID":422373,"DIS_CODE":0,"TOWNNAME":"東區","LI":"泉南里","LIN":"17鄰","STREET":"光華街","SECT":" ","MAREA":" ","LANE":"１１９巷","ALLEY":" ","HOUSE_NO":"４８號","E_COORD97":169728.14000000001,"N_COORD97":2542808.4300000002,"ADDRESS":"光華街１１９巷４８號","OBJECTID":422348},"geometry":{"x":169728.1400000006,"y":2542808.4300000016}},{"attributes":{"ID":422374,"DIS_CODE":0,"TOWNNAME":"東區","LI":"泉南里","LIN":"17鄰","STREET":"光華街","SECT":" ","MAREA":" ","LANE":"１１９巷","ALLEY":" ","HOUSE_NO":"５０號","E_COORD97":169725.51000000001,"N_COORD97":2542810.48,"ADDRESS":"光華街１１９巷５０號","OBJECTID":422349},"geometry":{"x":169725.51000000071,"y":2542810.4800000004}},{"attributes":{"ID":422375,"DIS_CODE":0,"TOWNNAME":"東區","LI":"泉南里","LIN":"17鄰","STREET":"光華街","SECT":" ","MAREA":" ","LANE":"１１９巷","ALLEY":" ","HOUSE_NO":"５２號","E_COORD97":169722.23999999999,"N_COORD97":2542812.3599999999,"ADDRESS":"光華街１１９巷５２號","OBJECTID":422350},"geometry":{"x":169722.23999999929,"y":2542812.3600000013}},{"attributes":{"ID":422376,"DIS_CODE":0,"TOWNNAME":"東區","LI":"泉南里","LIN":"17鄰","STREET":"光華街","SECT":" ","MAREA":" ","LANE":"１１９巷","ALLEY":" ","HOUSE_NO":"５４號","E_COORD97":169718.70999999999,"N_COORD97":2542814.7400000002,"ADDRESS":"光華街１１９巷５４號","OBJECTID":422351},"geometry":{"x":169718.70999999996,"y":2542814.7400000002}},{"attributes":{"ID":422377,"DIS_CODE":0,"TOWNNAME":"東區","LI":"泉南里","LIN":"17鄰","STREET":"光華街","SECT":" ","MAREA":" ","LANE":"１１９巷","ALLEY":" ","HOUSE_NO":"５６號","E_COORD97":169715.03,"N_COORD97":2542816.21,"ADDRESS":"光華街１１９巷５６號","OBJECTID":422352},"geometry":{"x":169715.03000000026,"y":2542816.2100000009}},{"attributes":{"ID":422378,"DIS_CODE":0,"TOWNNAME":"東區","LI":"泉南里","LIN":"17鄰","STREET":"光華街","SECT":" ","MAREA":" ","LANE":"１１９巷","ALLEY":" ","HOUSE_NO":"５８號","E_COORD97":169711.75,"N_COORD97":2542818.0899999999,"ADDRESS":"光華街１１９巷５８號","OBJECTID":422353},"geometry":{"x":169711.74999999907,"y":2542818.0900000017}},{"attributes":{"ID":422379,"DIS_CODE":0,"TOWNNAME":"東區","LI":"泉南里","LIN":"23鄰","STREET":"光華街","SECT":" ","MAREA":" ","LANE":"２２９巷","ALLEY":" ","HOUSE_NO":"２０號","E_COORD97":169454.14000000001,"N_COORD97":2542953.5800000001,"ADDRESS":"光華街２２９巷２０號","OBJECTID":422354},"geometry":{"x":169454.13999999966,"y":2542953.5800000019}},{"attributes":{"ID":422380,"DIS_CODE":0,"TOWNNAME":"官田區","LI":"隆田里","LIN":"12鄰","STREET":"大同街","SECT":" ","MAREA":" ","LANE":"１４巷","ALLEY":" ","HOUSE_NO":"１０號","E_COORD97":180161.25,"N_COORD97":2565958.1899999999,"ADDRESS":"大同街１４巷１０號","OBJECTID":422355},"geometry":{"x":180161.25000000093,"y":2565958.1900000032}},{"attributes":{"ID":422381,"DIS_CODE":0,"TOWNNAME":"官田區","LI":"隆田里","LIN":"12鄰","STREET":"大同街","SECT":" ","MAREA":" ","LANE":"１４巷","ALLEY":" ","HOUSE_NO":"１１號","E_COORD97":180180.26999999999,"N_COORD97":2565963.0699999998,"ADDRESS":"大同街１４巷１１號","OBJECTID":422356},"geometry":{"x":180180.26999999955,"y":2565963.0699999984}},{"attributes":{"ID":422382,"DIS_CODE":0,"TOWNNAME":"官田區","LI":"隆田里","LIN":"12鄰","STREET":"大同街","SECT":" ","MAREA":" ","LANE":"１４巷","ALLEY":" ","HOUSE_NO":"１２號","E_COORD97":180161.32000000001,"N_COORD97":2565962.0699999998,"ADDRESS":"大同街１４巷１２號","OBJECTID":422357},"geometry":{"x":180161.32000000123,"y":2565962.0700000003}},{"attributes":{"ID":422383,"DIS_CODE":0,"TOWNNAME":"官田區","LI":"隆田里","LIN":"12鄰","STREET":"大同街","SECT":" ","MAREA":" ","LANE":"１４巷","ALLEY":" ","HOUSE_NO":"１３號","E_COORD97":180180.10000000001,"N_COORD97":2565967.0299999998,"ADDRESS":"大同街１４巷１３號","OBJECTID":422358},"geometry":{"x":180180.09999999963,"y":2565967.0300000012}},{"attributes":{"ID":422384,"DIS_CODE":0,"TOWNNAME":"官田區","LI":"隆田里","LIN":"12鄰","STREET":"大同街","SECT":" ","MAREA":" ","LANE":"１４巷","ALLEY":" ","HOUSE_NO":"１４號","E_COORD97":180161.06,"N_COORD97":2565966.6800000002,"ADDRESS":"大同街１４巷１４號","OBJECTID":422359},"geometry":{"x":180161.05999999959,"y":2565966.6800000016}},{"attributes":{"ID":422385,"DIS_CODE":0,"TOWNNAME":"官田區","LI":"二鎮里","LIN":"22鄰","STREET":"工社西街","SECT":" ","MAREA":" ","LANE":"１１巷","ALLEY":" ","HOUSE_NO":"６４號","E_COORD97":181402.01999999999,"N_COORD97":2568769.9300000002,"ADDRESS":"工社西街１１巷６４號","OBJECTID":422360},"geometry":{"x":181402.02000000048,"y":2568769.9299999997}},{"attributes":{"ID":422386,"DIS_CODE":0,"TOWNNAME":"中西區","LI":"西湖里","LIN":"32鄰","STREET":"湖美二街","SECT":" ","MAREA":" ","LANE":"１４２巷","ALLEY":" ","HOUSE_NO":"３２號","E_COORD97":166290.59,"N_COORD97":2545029.6000000001,"ADDRESS":"湖美二街１４２巷３２號","OBJECTID":422361},"geometry":{"x":166290.59000000078,"y":2545029.5999999996}},{"attributes":{"ID":422387,"DIS_CODE":0,"TOWNNAME":"中西區","LI":"大南里","LIN":"1鄰","STREET":"健康路","SECT":"一段","MAREA":" ","LANE":"３１０巷","ALLEY":" ","HOUSE_NO":"１０號","E_COORD97":168268.51999999999,"N_COORD97":2542489.8999999999,"ADDRESS":"健康路一段３１０巷１０號","OBJECTID":422362},"geometry":{"x":168268.51999999862,"y":2542489.9000000022}},{"attributes":{"ID":422388,"DIS_CODE":0,"TOWNNAME":"中西區","LI":"大南里","LIN":"1鄰","STREET":"健康路","SECT":"一段","MAREA":" ","LANE":"３１０巷","ALLEY":" ","HOUSE_NO":"２號","E_COORD97":168267.5,"N_COORD97":2542460.5600000001,"ADDRESS":"健康路一段３１０巷２號","OBJECTID":422363},"geometry":{"x":168267.50000000186,"y":2542460.5600000005}},{"attributes":{"ID":422389,"DIS_CODE":0,"TOWNNAME":"中西區","LI":"西湖里","LIN":"16鄰","STREET":"湖美一街","SECT":" ","MAREA":" ","LANE":"１７３巷","ALLEY":" ","HOUSE_NO":"６號","E_COORD97":166051.95000000001,"N_COORD97":2545020.8799999999,"ADDRESS":"湖美一街１７３巷６號","OBJECTID":422364},"geometry":{"x":166051.95000000019,"y":2545020.8800000027}},{"attributes":{"ID":422390,"DIS_CODE":0,"TOWNNAME":"中西區","LI":"西湖里","LIN":"2鄰","STREET":"頂美二街","SECT":" ","MAREA":" ","LANE":"４８巷","ALLEY":" ","HOUSE_NO":"３３號","E_COORD97":166472.57999999999,"N_COORD97":2544580.5,"ADDRESS":"頂美二街４８巷３３號","OBJECTID":422365},"geometry":{"x":166472.58000000101,"y":2544580.5000000037}},{"attributes":{"ID":422391,"DIS_CODE":0,"TOWNNAME":"中西區","LI":"西湖里","LIN":"2鄰","STREET":"頂美二街","SECT":" ","MAREA":" ","LANE":"４８巷","ALLEY":" ","HOUSE_NO":"３１號","E_COORD97":166467.98000000001,"N_COORD97":2544580.6600000001,"ADDRESS":"頂美二街４８巷３１號","OBJECTID":422366},"geometry":{"x":166467.98000000231,"y":2544580.660000002}},{"attributes":{"ID":422392,"DIS_CODE":0,"TOWNNAME":"中西區","LI":"西湖里","LIN":"2鄰","STREET":"頂美二街","SECT":" ","MAREA":" ","LANE":"４８巷","ALLEY":" ","HOUSE_NO":"２９號","E_COORD97":166463.20999999999,"N_COORD97":2544580.6600000001,"ADDRESS":"頂美二街４８巷２９號","OBJECTID":422367},"geometry":{"x":166463.21000000089,"y":2544580.660000002}},{"attributes":{"ID":422393,"DIS_CODE":0,"TOWNNAME":"中西區","LI":"西湖里","LIN":"2鄰","STREET":"頂美二街","SECT":" ","MAREA":" ","LANE":"４８巷","ALLEY":" ","HOUSE_NO":"２７號","E_COORD97":166458.60999999999,"N_COORD97":2544580.6600000001,"ADDRESS":"頂美二街４８巷２７號","OBJECTID":422368},"geometry":{"x":166458.61000000127,"y":2544580.660000002}},{"attributes":{"ID":422394,"DIS_CODE":0,"TOWNNAME":"中西區","LI":"西湖里","LIN":"18鄰","STREET":"湖美一街","SECT":" ","MAREA":" ","LANE":"１３０巷","ALLEY":" ","HOUSE_NO":"９號","E_COORD97":166091.17000000001,"N_COORD97":2545020.1699999999,"ADDRESS":"湖美一街１３０巷９號","OBJECTID":422369},"geometry":{"x":166091.16999999993,"y":2545020.1700000018}},{"attributes":{"ID":422395,"DIS_CODE":0,"TOWNNAME":"中西區","LI":"西湖里","LIN":"32鄰","STREET":"湖美二街","SECT":" ","MAREA":" ","LANE":"１４２巷","ALLEY":" ","HOUSE_NO":"３６號","E_COORD97":166291.23000000001,"N_COORD97":2545043.2599999998,"ADDRESS":"湖美二街１４２巷３６號","OBJECTID":422370},"geometry":{"x":166291.23000000045,"y":2545043.2600000016}},{"attributes":{"ID":422396,"DIS_CODE":0,"TOWNNAME":"中西區","LI":"西湖里","LIN":"32鄰","STREET":"湖美二街","SECT":" ","MAREA":" ","LANE":"１４２巷","ALLEY":" ","HOUSE_NO":"３８號","E_COORD97":166298.04999999999,"N_COORD97":2545045.3199999998,"ADDRESS":"湖美二街１４２巷３８號","OBJECTID":422371},"geometry":{"x":166298.05000000075,"y":2545045.3200000003}},{"attributes":{"ID":422397,"DIS_CODE":0,"TOWNNAME":"中西區","LI":"西湖里","LIN":"32鄰","STREET":"湖美二街","SECT":" ","MAREA":" ","LANE":"１４２巷","ALLEY":" ","HOUSE_NO":"４０號","E_COORD97":166304.39999999999,"N_COORD97":2545048.3399999999,"ADDRESS":"湖美二街１４２巷４０號","OBJECTID":422372},"geometry":{"x":166304.4000000013,"y":2545048.3399999999}},{"attributes":{"ID":422398,"DIS_CODE":0,"TOWNNAME":"中西區","LI":"西湖里","LIN":"32鄰","STREET":"湖美二街","SECT":" ","MAREA":" ","LANE":"１４２巷","ALLEY":" ","HOUSE_NO":"４２號","E_COORD97":166309.95999999999,"N_COORD97":2545051.8300000001,"ADDRESS":"湖美二街１４２巷４２號","OBJECTID":422373},"geometry":{"x":166309.96000000183,"y":2545051.8300000001}},{"attributes":{"ID":422399,"DIS_CODE":0,"TOWNNAME":"中西區","LI":"光賢里","LIN":"11鄰","STREET":"中華西路","SECT":"二段","MAREA":" ","LANE":"５８０巷","ALLEY":" ","HOUSE_NO":"１０６號","E_COORD97":166736.76000000001,"N_COORD97":2544809.7999999998,"ADDRESS":"中華西路二段５８０巷１０６號","OBJECTID":422374},"geometry":{"x":166736.76000000071,"y":2544809.8000000045}},{"attributes":{"ID":422400,"DIS_CODE":0,"TOWNNAME":"中西區","LI":"光賢里","LIN":"18鄰","STREET":"武聖路","SECT":" ","MAREA":" ","LANE":"１９７巷","ALLEY":" ","HOUSE_NO":"１６號","E_COORD97":166893.69,"N_COORD97":2545197.6000000001,"ADDRESS":"武聖路１９７巷１６號","OBJECTID":422375},"geometry":{"x":166893.69000000227,"y":2545197.6000000015}},{"attributes":{"ID":422401,"DIS_CODE":0,"TOWNNAME":"中西區","LI":"法華里","LIN":"2鄰","STREET":"五妃街","SECT":" ","MAREA":" ","LANE":"４０巷","ALLEY":" ","HOUSE_NO":"７號","E_COORD97":169042.91,"N_COORD97":2542596.8799999999,"ADDRESS":"五妃街４０巷７號","OBJECTID":422376},"geometry":{"x":169042.90999999922,"y":2542596.8800000027}},{"attributes":{"ID":422402,"DIS_CODE":0,"TOWNNAME":"中西區","LI":"法華里","LIN":"2鄰","STREET":"五妃街","SECT":" ","MAREA":" ","LANE":"４０巷","ALLEY":" ","HOUSE_NO":"９號","E_COORD97":169047.67000000001,"N_COORD97":2542601.9100000001,"ADDRESS":"五妃街４０巷９號","OBJECTID":422377},"geometry":{"x":169047.66999999899,"y":2542601.910000002}},{"attributes":{"ID":422403,"DIS_CODE":0,"TOWNNAME":"中西區","LI":"法華里","LIN":"2鄰","STREET":"五妃街","SECT":" ","MAREA":" ","LANE":"４０巷","ALLEY":" ","HOUSE_NO":"１１號","E_COORD97":169051.91,"N_COORD97":2542606.1499999999,"ADDRESS":"五妃街４０巷１１號","OBJECTID":422378},"geometry":{"x":169051.91000000108,"y":2542606.1500000004}},{"attributes":{"ID":422404,"DIS_CODE":0,"TOWNNAME":"中西區","LI":"法華里","LIN":"2鄰","STREET":"五妃街","SECT":" ","MAREA":" ","LANE":"４０巷","ALLEY":" ","HOUSE_NO":"１３號","E_COORD97":169057.73000000001,"N_COORD97":2542611.1699999999,"ADDRESS":"五妃街４０巷１３號","OBJECTID":422379},"geometry":{"x":169057.73000000045,"y":2542611.1699999999}},{"attributes":{"ID":422405,"DIS_CODE":0,"TOWNNAME":"中西區","LI":"法華里","LIN":"2鄰","STREET":"五妃街","SECT":" ","MAREA":" ","LANE":"４０巷","ALLEY":" ","HOUSE_NO":"１５號","E_COORD97":169062.22,"N_COORD97":2542616.9900000002,"ADDRESS":"五妃街４０巷１５號","OBJECTID":422380},"geometry":{"x":169062.21999999974,"y":2542616.9900000002}},{"attributes":{"ID":422406,"DIS_CODE":0,"TOWNNAME":"中西區","LI":"元安里","LIN":"3鄰","STREET":"西門路","SECT":"一段","MAREA":" ","LANE":"７０３巷","ALLEY":" ","HOUSE_NO":"８號","E_COORD97":167680.13,"N_COORD97":2543250.5800000001,"ADDRESS":"西門路一段７０３巷８號","OBJECTID":422381},"geometry":{"x":167680.13000000175,"y":2543250.5799999982}},{"attributes":{"ID":422407,"DIS_CODE":0,"TOWNNAME":"中西區","LI":"元安里","LIN":"3鄰","STREET":"西門路","SECT":"一段","MAREA":" ","LANE":"７０３巷","ALLEY":" ","HOUSE_NO":"８之１號","E_COORD97":167675.42000000001,"N_COORD97":2543252.1299999999,"ADDRESS":"西門路一段７０３巷８之１號","OBJECTID":422382},"geometry":{"x":167675.42000000086,"y":2543252.129999999}},{"attributes":{"ID":422408,"DIS_CODE":0,"TOWNNAME":"永康區","LI":"正強里","LIN":"38鄰","STREET":"正強街","SECT":" ","MAREA":" ","LANE":"３０５巷","ALLEY":" ","HOUSE_NO":"２１號","E_COORD97":173196.54000000001,"N_COORD97":2548049.6699999999,"ADDRESS":"正強街３０５巷２１號","OBJECTID":422383},"geometry":{"x":173196.54000000004,"y":2548049.6699999999}},{"attributes":{"ID":422409,"DIS_CODE":0,"TOWNNAME":"永康區","LI":"正強里","LIN":"38鄰","STREET":"正強街","SECT":" ","MAREA":" ","LANE":"３０５巷","ALLEY":" ","HOUSE_NO":"８號","E_COORD97":173238.14000000001,"N_COORD97":2548080.9900000002,"ADDRESS":"正強街３０５巷８號","OBJECTID":422384},"geometry":{"x":173238.13999999873,"y":2548080.9900000021}},{"attributes":{"ID":422410,"DIS_CODE":0,"TOWNNAME":"永康區","LI":"安康里","LIN":"6鄰","STREET":"中華路","SECT":" ","MAREA":" ","LANE":"７２７巷","ALLEY":" ","HOUSE_NO":"２３號","E_COORD97":170769.29000000001,"N_COORD97":2546374.2400000002,"ADDRESS":"中華路７２７巷２３號","OBJECTID":422385},"geometry":{"x":170769.28999999911,"y":2546374.2400000002}},{"attributes":{"ID":422411,"DIS_CODE":0,"TOWNNAME":"永康區","LI":"正強里","LIN":"9鄰","STREET":"正義街","SECT":" ","MAREA":" ","LANE":"１２６巷","ALLEY":" ","HOUSE_NO":"１５號","E_COORD97":173347.37,"N_COORD97":2547580.27,"ADDRESS":"正義街１２６巷１５號","OBJECTID":422386},"geometry":{"x":173347.37000000197,"y":2547580.2699999996}},{"attributes":{"ID":422412,"DIS_CODE":0,"TOWNNAME":"永康區","LI":"北灣里","LIN":"29鄰","STREET":"文賢街","SECT":" ","MAREA":" ","LANE":"７８巷","ALLEY":" ","HOUSE_NO":"９號","E_COORD97":175408.79000000001,"N_COORD97":2545318.0699999998,"ADDRESS":"文賢街７８巷９號","OBJECTID":422387},"geometry":{"x":175408.79000000004,"y":2545318.0700000003}},{"attributes":{"ID":422413,"DIS_CODE":0,"TOWNNAME":"永康區","LI":"安康里","LIN":"23鄰","STREET":"中華西街","SECT":" ","MAREA":" ","LANE":"１２２巷","ALLEY":" ","HOUSE_NO":"１１號","E_COORD97":170771.64999999999,"N_COORD97":2546181.9900000002,"ADDRESS":"中華西街１２２巷１１號","OBJECTID":422388},"geometry":{"x":170771.65000000037,"y":2546181.9900000021}},{"attributes":{"ID":422414,"DIS_CODE":0,"TOWNNAME":"永康區","LI":"正強里","LIN":"8鄰","STREET":"正義街","SECT":" ","MAREA":" ","LANE":"７９巷","ALLEY":" ","HOUSE_NO":"１３號","E_COORD97":173500.32999999999,"N_COORD97":2547538.1400000001,"ADDRESS":"正義街７９巷１３號","OBJECTID":422389},"geometry":{"x":173500.33000000101,"y":2547538.1400000006}},{"attributes":{"ID":422415,"DIS_CODE":0,"TOWNNAME":"永康區","LI":"正強里","LIN":"31鄰","STREET":"自強路","SECT":" ","MAREA":" ","LANE":"２５５巷","ALLEY":" ","HOUSE_NO":"３８號","E_COORD97":173151.98999999999,"N_COORD97":2547615.2400000002,"ADDRESS":"自強路２５５巷３８號","OBJECTID":422390},"geometry":{"x":173151.99000000115,"y":2547615.2400000002}},{"attributes":{"ID":422416,"DIS_CODE":0,"TOWNNAME":"永康區","LI":"正強里","LIN":"6鄰","STREET":"自強路","SECT":" ","MAREA":" ","LANE":"３３０巷","ALLEY":" ","HOUSE_NO":"５號","E_COORD97":173424.13,"N_COORD97":2547676.25,"ADDRESS":"自強路３３０巷５號","OBJECTID":422391},"geometry":{"x":173424.13000000082,"y":2547676.25}},{"attributes":{"ID":422417,"DIS_CODE":0,"TOWNNAME":"永康區","LI":"正強里","LIN":"33鄰","STREET":"埔園街","SECT":" ","MAREA":" ","LANE":"４０６巷","ALLEY":" ","HOUSE_NO":"１號","E_COORD97":173299.82000000001,"N_COORD97":2548163.4900000002,"ADDRESS":"埔園街４０６巷１號","OBJECTID":422392},"geometry":{"x":173299.8200000003,"y":2548163.4900000002}},{"attributes":{"ID":422418,"DIS_CODE":0,"TOWNNAME":"永康區","LI":"正強里","LIN":"22鄰","STREET":"自強路","SECT":" ","MAREA":" ","LANE":"３２１巷","ALLEY":" ","HOUSE_NO":"１２號","E_COORD97":173439.85999999999,"N_COORD97":2547788,"ADDRESS":"自強路３２１巷１２號","OBJECTID":422393},"geometry":{"x":173439.86000000127,"y":2547788.0000000019}},{"attributes":{"ID":422419,"DIS_CODE":0,"TOWNNAME":"永康區","LI":"正強里","LIN":"21鄰","STREET":"自強路","SECT":" ","MAREA":" ","LANE":"３３３巷","ALLEY":" ","HOUSE_NO":"３號","E_COORD97":173468.29999999999,"N_COORD97":2547785.23,"ADDRESS":"自強路３３３巷３號","OBJECTID":422394},"geometry":{"x":173468.30000000075,"y":2547785.2300000004}},{"attributes":{"ID":422420,"DIS_CODE":0,"TOWNNAME":"永康區","LI":"正強里","LIN":"38鄰","STREET":"正強街","SECT":" ","MAREA":" ","LANE":"３０５巷","ALLEY":" ","HOUSE_NO":"１號","E_COORD97":173251.14000000001,"N_COORD97":2548061.4199999999,"ADDRESS":"正強街３０５巷１號","OBJECTID":422395},"geometry":{"x":173251.13999999966,"y":2548061.4199999999}},{"attributes":{"ID":422421,"DIS_CODE":0,"TOWNNAME":"永康區","LI":"正強里","LIN":"38鄰","STREET":"正強街","SECT":" ","MAREA":" ","LANE":"３０３巷","ALLEY":" ","HOUSE_NO":"１８號","E_COORD97":173218.92000000001,"N_COORD97":2548027.1699999999,"ADDRESS":"正強街３０３巷１８號","OBJECTID":422396},"geometry":{"x":173218.91999999993,"y":2548027.1700000037}},{"attributes":{"ID":422422,"DIS_CODE":0,"TOWNNAME":"永康區","LI":"永康里","LIN":"7鄰","STREET":"中山南路","SECT":" ","MAREA":" ","LANE":"１１１６巷","ALLEY":" ","HOUSE_NO":"１１號","E_COORD97":173897.34,"N_COORD97":2547293.2400000002,"ADDRESS":"中山南路１１１６巷１１號","OBJECTID":422397},"geometry":{"x":173897.34000000078,"y":2547293.2400000002}},{"attributes":{"ID":422423,"DIS_CODE":0,"TOWNNAME":"永康區","LI":"正強里","LIN":"3鄰","STREET":"正義街","SECT":" ","MAREA":" ","LANE":"４９巷","ALLEY":" ","HOUSE_NO":"１６號","E_COORD97":173573.97,"N_COORD97":2547595.5099999998,"ADDRESS":"正義街４９巷１６號","OBJECTID":422398},"geometry":{"x":173573.97000000067,"y":2547595.5100000016}},{"attributes":{"ID":422424,"DIS_CODE":0,"TOWNNAME":"永康區","LI":"正強里","LIN":"4鄰","STREET":"正義街","SECT":" ","MAREA":" ","LANE":"２２巷","ALLEY":" ","HOUSE_NO":"１號","E_COORD97":173583.92999999999,"N_COORD97":2547712.2599999998,"ADDRESS":"正義街２２巷１號","OBJECTID":422399},"geometry":{"x":173583.93000000156,"y":2547712.2600000016}},{"attributes":{"ID":422425,"DIS_CODE":0,"TOWNNAME":"永康區","LI":"正強里","LIN":"38鄰","STREET":"正強街","SECT":" ","MAREA":" ","LANE":"３０５巷","ALLEY":" ","HOUSE_NO":"４２號","E_COORD97":173172.81,"N_COORD97":2548065.9900000002,"ADDRESS":"正強街３０５巷４２號","OBJECTID":422400},"geometry":{"x":173172.81000000052,"y":2548065.9900000039}}]}