{"displayFieldName":"TOWNNAME","fieldAliases":{"ID":"ID","DIS_CODE":"DIS_CODE","TOWNNAME":"TOWNNAME","LI":"LI","LIN":"LIN","STREET":"STREET","SECT":"SECT","MAREA":"MAREA","LANE":"LANE","ALLEY":"ALLEY","HOUSE_NO":"HOUSE_NO","E_COORD97":"E_COORD97","N_COORD97":"N_COORD97","ADDRESS":"ADDRESS","OBJECTID":"OBJECTID"},"geometryType":"esriGeometryPoint","spatialReference":{"wkid":102443,"latestWkid":3826},"fields":[{"name":"ID","type":"esriFieldTypeDouble","alias":"ID"},{"name":"DIS_CODE","type":"esriFieldTypeInteger","alias":"DIS_CODE"},{"name":"TOWNNAME","type":"esriFieldTypeString","alias":"TOWNNAME","length":8},{"name":"LI","type":"esriFieldTypeString","alias":"LI","length":8},{"name":"LIN","type":"esriFieldTypeString","alias":"LIN","length":12},{"name":"STREET","type":"esriFieldTypeString","alias":"STREET","length":20},{"name":"SECT","type":"esriFieldTypeString","alias":"SECT","length":8},{"name":"MAREA","type":"esriFieldTypeString","alias":"MAREA","length":12},{"name":"LANE","type":"esriFieldTypeString","alias":"LANE","length":10},{"name":"ALLEY","type":"esriFieldTypeString","alias":"ALLEY","length":10},{"name":"HOUSE_NO","type":"esriFieldTypeString","alias":"HOUSE_NO","length":20},{"name":"E_COORD97","type":"esriFieldTypeDouble","alias":"E_COORD97"},{"name":"N_COORD97","type":"esriFieldTypeDouble","alias":"N_COORD97"},{"name":"ADDRESS","type":"esriFieldTypeString","alias":"ADDRESS","length":50},{"name":"OBJECTID","type":"esriFieldTypeOID","alias":"OBJECTID"}],"features":[{"attributes":{"ID":269006,"DIS_CODE":0,"TOWNNAME":"麻豆區","LI":"莊禮里","LIN":"3鄰","STREET":" ","SECT":" ","MAREA":"莊禮寮","LANE":" ","ALLEY":" ","HOUSE_NO":"３９號之１","E_COORD97":169308.22,"N_COORD97":2566103.5600000001,"ADDRESS":"莊禮寮３９號之１","OBJECTID":269001},"geometry":{"x":169308.21999999881,"y":2566103.5600000024}},{"attributes":{"ID":269007,"DIS_CODE":0,"TOWNNAME":"麻豆區","LI":"莊禮里","LIN":"3鄰","STREET":" ","SECT":" ","MAREA":"莊禮寮","LANE":" ","ALLEY":" ","HOUSE_NO":"４３號","E_COORD97":169343.60000000001,"N_COORD97":2566144.3399999999,"ADDRESS":"莊禮寮４３號","OBJECTID":269002},"geometry":{"x":169343.60000000056,"y":2566144.3400000017}},{"attributes":{"ID":269008,"DIS_CODE":0,"TOWNNAME":"麻豆區","LI":"莊禮里","LIN":"3鄰","STREET":" ","SECT":" ","MAREA":"莊禮寮","LANE":" ","ALLEY":" ","HOUSE_NO":"４４號","E_COORD97":169346.45000000001,"N_COORD97":2566133.5499999998,"ADDRESS":"莊禮寮４４號","OBJECTID":269003},"geometry":{"x":169346.45000000112,"y":2566133.5500000045}},{"attributes":{"ID":269009,"DIS_CODE":0,"TOWNNAME":"關廟區","LI":"北花里","LIN":"17鄰","STREET":"中正路","SECT":" ","MAREA":" ","LANE":"５３７巷","ALLEY":" ","HOUSE_NO":"１３號","E_COORD97":182381.32999999999,"N_COORD97":2540455.3799999999,"ADDRESS":"中正路５３７巷１３號","OBJECTID":269004},"geometry":{"x":182381.33000000194,"y":2540455.3800000008}},{"attributes":{"ID":269010,"DIS_CODE":0,"TOWNNAME":"關廟區","LI":"松腳里","LIN":"17鄰","STREET":"民族街","SECT":" ","MAREA":" ","LANE":"５巷","ALLEY":" ","HOUSE_NO":"１０號","E_COORD97":181624.14000000001,"N_COORD97":2539759.29,"ADDRESS":"民族街５巷１０號","OBJECTID":269005},"geometry":{"x":181624.13999999966,"y":2539759.2899999991}},{"attributes":{"ID":269011,"DIS_CODE":0,"TOWNNAME":"關廟區","LI":"東勢里","LIN":"17鄰","STREET":"旺萊路","SECT":" ","MAREA":" ","LANE":"２６０巷","ALLEY":" ","HOUSE_NO":"８號","E_COORD97":181913.73999999999,"N_COORD97":2539351.25,"ADDRESS":"旺萊路２６０巷８號","OBJECTID":269006},"geometry":{"x":181913.74000000022,"y":2539351.2500000019}},{"attributes":{"ID":269012,"DIS_CODE":0,"TOWNNAME":"關廟區","LI":"北花里","LIN":"17鄰","STREET":"中正路","SECT":" ","MAREA":" ","LANE":"３９６巷","ALLEY":" ","HOUSE_NO":"１號","E_COORD97":182464.45999999999,"N_COORD97":2540697.25,"ADDRESS":"中正路３９６巷１號","OBJECTID":269007},"geometry":{"x":182464.45999999996,"y":2540697.2500000019}},{"attributes":{"ID":269013,"DIS_CODE":0,"TOWNNAME":"關廟區","LI":"北花里","LIN":"17鄰","STREET":"中正路","SECT":" ","MAREA":" ","LANE":"５３７巷","ALLEY":" ","HOUSE_NO":"２０號","E_COORD97":182370.63,"N_COORD97":2540440.4700000002,"ADDRESS":"中正路５３７巷２０號","OBJECTID":269008},"geometry":{"x":182370.63000000175,"y":2540440.4700000007}},{"attributes":{"ID":269014,"DIS_CODE":0,"TOWNNAME":"關廟區","LI":"北花里","LIN":"17鄰","STREET":"中正路","SECT":" ","MAREA":" ","LANE":"５３７巷","ALLEY":" ","HOUSE_NO":"２號","E_COORD97":182343.28,"N_COORD97":2540451.4700000002,"ADDRESS":"中正路５３７巷２號","OBJECTID":269009},"geometry":{"x":182343.28000000119,"y":2540451.4699999988}},{"attributes":{"ID":269015,"DIS_CODE":0,"TOWNNAME":"關廟區","LI":"北花里","LIN":"17鄰","STREET":"中正路","SECT":" ","MAREA":" ","LANE":"５３７巷","ALLEY":" ","HOUSE_NO":"３號","E_COORD97":182361.64000000001,"N_COORD97":2540459.7000000002,"ADDRESS":"中正路５３７巷３號","OBJECTID":269010},"geometry":{"x":182361.63999999873,"y":2540459.7000000011}},{"attributes":{"ID":269016,"DIS_CODE":0,"TOWNNAME":"關廟區","LI":"東勢里","LIN":"17鄰","STREET":"旺萊路","SECT":" ","MAREA":" ","LANE":"２６０巷","ALLEY":" ","HOUSE_NO":"５號","E_COORD97":181940.94,"N_COORD97":2539358.25,"ADDRESS":"旺萊路２６０巷５號","OBJECTID":269011},"geometry":{"x":181940.94000000041,"y":2539358.2500000019}},{"attributes":{"ID":269017,"DIS_CODE":0,"TOWNNAME":"關廟區","LI":"山西里","LIN":"17鄰","STREET":"崇明街","SECT":" ","MAREA":" ","LANE":"２３巷","ALLEY":" ","HOUSE_NO":"１０號","E_COORD97":180990.97,"N_COORD97":2540671.25,"ADDRESS":"崇明街２３巷１０號","OBJECTID":269012},"geometry":{"x":180990.96999999974,"y":2540671.25}},{"attributes":{"ID":269018,"DIS_CODE":0,"TOWNNAME":"關廟區","LI":"山西里","LIN":"17鄰","STREET":"崇明街","SECT":" ","MAREA":" ","LANE":"２３巷","ALLEY":" ","HOUSE_NO":"８號","E_COORD97":180992.42000000001,"N_COORD97":2540677.25,"ADDRESS":"崇明街２３巷８號","OBJECTID":269013},"geometry":{"x":180992.42000000086,"y":2540677.2500000019}},{"attributes":{"ID":269019,"DIS_CODE":0,"TOWNNAME":"北區","LI":"成功里","LIN":"17鄰","STREET":"北成路","SECT":" ","MAREA":" ","LANE":"８０巷","ALLEY":" ","HOUSE_NO":"４３號","E_COORD97":169068.98000000001,"N_COORD97":2546780.9500000002,"ADDRESS":"北成路８０巷４３號","OBJECTID":269014},"geometry":{"x":169068.98000000138,"y":2546780.9500000011}},{"attributes":{"ID":269020,"DIS_CODE":0,"TOWNNAME":"北區","LI":"成功里","LIN":"17鄰","STREET":"北成路","SECT":" ","MAREA":" ","LANE":"８０巷","ALLEY":" ","HOUSE_NO":"４５號","E_COORD97":169072.07000000001,"N_COORD97":2546785.8999999999,"ADDRESS":"北成路８０巷４５號","OBJECTID":269015},"geometry":{"x":169072.0700000003,"y":2546785.9000000022}},{"attributes":{"ID":269021,"DIS_CODE":0,"TOWNNAME":"北區","LI":"成功里","LIN":"17鄰","STREET":"北成路","SECT":" ","MAREA":" ","LANE":"８０巷","ALLEY":" ","HOUSE_NO":"４７號","E_COORD97":169074.54000000001,"N_COORD97":2546791.46,"ADDRESS":"北成路８０巷４７號","OBJECTID":269016},"geometry":{"x":169074.54000000097,"y":2546791.4600000009}},{"attributes":{"ID":269022,"DIS_CODE":0,"TOWNNAME":"北區","LI":"成功里","LIN":"17鄰","STREET":"北成路","SECT":" ","MAREA":" ","LANE":"８０巷","ALLEY":" ","HOUSE_NO":"４９號","E_COORD97":169080.42000000001,"N_COORD97":2546795.4700000002,"ADDRESS":"北成路８０巷４９號","OBJECTID":269017},"geometry":{"x":169080.42000000086,"y":2546795.4700000025}},{"attributes":{"ID":269023,"DIS_CODE":0,"TOWNNAME":"北區","LI":"力行里","LIN":"17鄰","STREET":"南園街","SECT":" ","MAREA":" ","LANE":"１２７巷","ALLEY":" ","HOUSE_NO":"７９號","E_COORD97":170805.09,"N_COORD97":2545343.4700000002,"ADDRESS":"南園街１２７巷７９號","OBJECTID":269018},"geometry":{"x":170805.09000000078,"y":2545343.4700000007}},{"attributes":{"ID":269024,"DIS_CODE":0,"TOWNNAME":"北區","LI":"力行里","LIN":"17鄰","STREET":"南園街","SECT":" ","MAREA":" ","LANE":"１２７巷","ALLEY":" ","HOUSE_NO":"４２號","E_COORD97":170800.88,"N_COORD97":2545295.9100000001,"ADDRESS":"南園街１２７巷４２號","OBJECTID":269019},"geometry":{"x":170800.88000000175,"y":2545295.9100000001}},{"attributes":{"ID":269025,"DIS_CODE":0,"TOWNNAME":"北區","LI":"力行里","LIN":"17鄰","STREET":"南園街","SECT":" ","MAREA":" ","LANE":"１２７巷","ALLEY":" ","HOUSE_NO":"６３號之１","E_COORD97":170787.76999999999,"N_COORD97":2545310.54,"ADDRESS":"南園街１２７巷６３號之１","OBJECTID":269020},"geometry":{"x":170787.77000000142,"y":2545310.5399999991}},{"attributes":{"ID":269026,"DIS_CODE":0,"TOWNNAME":"北區","LI":"力行里","LIN":"17鄰","STREET":"南園街","SECT":" ","MAREA":" ","LANE":"１２７巷","ALLEY":" ","HOUSE_NO":"６３號之２","E_COORD97":170789.88,"N_COORD97":2545314.8999999999,"ADDRESS":"南園街１２７巷６３號之２","OBJECTID":269021},"geometry":{"x":170789.87999999989,"y":2545314.9000000022}},{"attributes":{"ID":269027,"DIS_CODE":0,"TOWNNAME":"北區","LI":"力行里","LIN":"17鄰","STREET":"南園街","SECT":" ","MAREA":" ","LANE":"１２７巷","ALLEY":" ","HOUSE_NO":"６５號","E_COORD97":170792.13,"N_COORD97":2545318.3300000001,"ADDRESS":"南園街１２７巷６５號","OBJECTID":269022},"geometry":{"x":170792.12999999989,"y":2545318.3300000019}},{"attributes":{"ID":269028,"DIS_CODE":0,"TOWNNAME":"北區","LI":"力行里","LIN":"17鄰","STREET":"南園街","SECT":" ","MAREA":" ","LANE":"１２７巷","ALLEY":" ","HOUSE_NO":"６７號","E_COORD97":170794.64000000001,"N_COORD97":2545319.8399999999,"ADDRESS":"南園街１２７巷６７號","OBJECTID":269023},"geometry":{"x":170794.63999999966,"y":2545319.8399999999}},{"attributes":{"ID":269029,"DIS_CODE":0,"TOWNNAME":"新營區","LI":"姑爺里","LIN":"2鄰","STREET":" ","SECT":" ","MAREA":"姑爺","LANE":" ","ALLEY":" ","HOUSE_NO":"２０號","E_COORD97":174372.42999999999,"N_COORD97":2574219.2599999998,"ADDRESS":"姑爺２０號","OBJECTID":269024},"geometry":{"x":174372.43000000063,"y":2574219.2599999998}},{"attributes":{"ID":269030,"DIS_CODE":0,"TOWNNAME":"北區","LI":"力行里","LIN":"17鄰","STREET":"南園街","SECT":" ","MAREA":" ","LANE":"１２７巷","ALLEY":" ","HOUSE_NO":"６９號","E_COORD97":170796.89000000001,"N_COORD97":2545324.3300000001,"ADDRESS":"南園街１２７巷６９號","OBJECTID":269025},"geometry":{"x":170796.88999999966,"y":2545324.3300000019}},{"attributes":{"ID":269031,"DIS_CODE":0,"TOWNNAME":"北區","LI":"力行里","LIN":"17鄰","STREET":"南園街","SECT":" ","MAREA":" ","LANE":"１２７巷","ALLEY":" ","HOUSE_NO":"７１號","E_COORD97":170798.73999999999,"N_COORD97":2545329.48,"ADDRESS":"南園街１２７巷７１號","OBJECTID":269026},"geometry":{"x":170798.74000000209,"y":2545329.4800000004}},{"attributes":{"ID":269032,"DIS_CODE":0,"TOWNNAME":"北區","LI":"力行里","LIN":"17鄰","STREET":"南園街","SECT":" ","MAREA":" ","LANE":"１２７巷","ALLEY":" ","HOUSE_NO":"１０１號","E_COORD97":170830.85000000001,"N_COORD97":2545375.0299999998,"ADDRESS":"南園街１２７巷１０１號","OBJECTID":269027},"geometry":{"x":170830.84999999963,"y":2545375.0299999993}},{"attributes":{"ID":269033,"DIS_CODE":0,"TOWNNAME":"北區","LI":"力行里","LIN":"17鄰","STREET":"南園街","SECT":" ","MAREA":" ","LANE":"１２７巷","ALLEY":" ","HOUSE_NO":"１０３號","E_COORD97":170833.32999999999,"N_COORD97":2545378.1299999999,"ADDRESS":"南園街１２７巷１０３號","OBJECTID":269028},"geometry":{"x":170833.33000000007,"y":2545378.129999999}},{"attributes":{"ID":269034,"DIS_CODE":0,"TOWNNAME":"北區","LI":"力行里","LIN":"17鄰","STREET":"南園街","SECT":" ","MAREA":" ","LANE":"１２７巷","ALLEY":" ","HOUSE_NO":"１０５號","E_COORD97":170834.10000000001,"N_COORD97":2545380.9100000001,"ADDRESS":"南園街１２７巷１０５號","OBJECTID":269029},"geometry":{"x":170834.09999999963,"y":2545380.9099999983}},{"attributes":{"ID":269035,"DIS_CODE":0,"TOWNNAME":"北區","LI":"力行里","LIN":"17鄰","STREET":"南園街","SECT":" ","MAREA":" ","LANE":"１２７巷","ALLEY":" ","HOUSE_NO":"１１７號之１","E_COORD97":170834.89000000001,"N_COORD97":2545411.9100000001,"ADDRESS":"南園街１２７巷１１７號之１","OBJECTID":269030},"geometry":{"x":170834.8900000006,"y":2545411.9100000039}},{"attributes":{"ID":269036,"DIS_CODE":0,"TOWNNAME":"北區","LI":"力行里","LIN":"17鄰","STREET":"南園街","SECT":" ","MAREA":" ","LANE":"１２７巷","ALLEY":" ","HOUSE_NO":"１１９號","E_COORD97":170853.94,"N_COORD97":2545404.9500000002,"ADDRESS":"南園街１２７巷１１９號","OBJECTID":269031},"geometry":{"x":170853.94000000134,"y":2545404.9500000011}},{"attributes":{"ID":269037,"DIS_CODE":0,"TOWNNAME":"北區","LI":"力行里","LIN":"17鄰","STREET":"南園街","SECT":" ","MAREA":" ","LANE":"１２７巷","ALLEY":" ","HOUSE_NO":"１１９號之１","E_COORD97":170838.76000000001,"N_COORD97":2545414.6899999999,"ADDRESS":"南園街１２７巷１１９號之１","OBJECTID":269032},"geometry":{"x":170838.75999999885,"y":2545414.6899999995}},{"attributes":{"ID":269038,"DIS_CODE":0,"TOWNNAME":"北區","LI":"力行里","LIN":"17鄰","STREET":"南園街","SECT":" ","MAREA":" ","LANE":"１２７巷","ALLEY":" ","HOUSE_NO":"９１號","E_COORD97":170819,"N_COORD97":2545361.3500000001,"ADDRESS":"南園街１２７巷９１號","OBJECTID":269033},"geometry":{"x":170819.00000000093,"y":2545361.3500000015}},{"attributes":{"ID":269039,"DIS_CODE":0,"TOWNNAME":"北區","LI":"玉皇里","LIN":"3鄰","STREET":"崇安街","SECT":" ","MAREA":" ","LANE":" ","ALLEY":" ","HOUSE_NO":"１３號","E_COORD97":168598.32999999999,"N_COORD97":2544513.46,"ADDRESS":"崇安街１３號","OBJECTID":269034},"geometry":{"x":168598.33000000101,"y":2544513.459999999}},{"attributes":{"ID":269040,"DIS_CODE":0,"TOWNNAME":"北區","LI":"三德里","LIN":"3鄰","STREET":"北華街","SECT":" ","MAREA":" ","LANE":" ","ALLEY":" ","HOUSE_NO":"２６９號","E_COORD97":168507.20000000001,"N_COORD97":2544569.7599999998,"ADDRESS":"北華街２６９號","OBJECTID":269035},"geometry":{"x":168507.20000000205,"y":2544569.7600000016}},{"attributes":{"ID":269041,"DIS_CODE":0,"TOWNNAME":"北區","LI":"三德里","LIN":"3鄰","STREET":"北華街","SECT":" ","MAREA":" ","LANE":" ","ALLEY":" ","HOUSE_NO":"２７１號","E_COORD97":168507.06,"N_COORD97":2544584.3599999999,"ADDRESS":"北華街２７１號","OBJECTID":269036},"geometry":{"x":168507.05999999959,"y":2544584.3600000013}},{"attributes":{"ID":269042,"DIS_CODE":0,"TOWNNAME":"北區","LI":"三德里","LIN":"3鄰","STREET":"北華街","SECT":" ","MAREA":" ","LANE":" ","ALLEY":" ","HOUSE_NO":"２７９號","E_COORD97":168496.34,"N_COORD97":2544583.1099999999,"ADDRESS":"北華街２７９號","OBJECTID":269037},"geometry":{"x":168496.34000000078,"y":2544583.1100000013}},{"attributes":{"ID":269043,"DIS_CODE":0,"TOWNNAME":"北區","LI":"大山里","LIN":"3鄰","STREET":"精忠街","SECT":" ","MAREA":" ","LANE":" ","ALLEY":" ","HOUSE_NO":"６４號","E_COORD97":169425.87,"N_COORD97":2545494.9500000002,"ADDRESS":"精忠街６４號","OBJECTID":269038},"geometry":{"x":169425.87000000011,"y":2545494.9499999974}},{"attributes":{"ID":269044,"DIS_CODE":0,"TOWNNAME":"北區","LI":"大山里","LIN":"3鄰","STREET":"精忠街","SECT":" ","MAREA":" ","LANE":" ","ALLEY":" ","HOUSE_NO":"６８號","E_COORD97":169419.41,"N_COORD97":2545496.23,"ADDRESS":"精忠街６８號","OBJECTID":269039},"geometry":{"x":169419.41000000201,"y":2545496.2300000023}},{"attributes":{"ID":269045,"DIS_CODE":0,"TOWNNAME":"北區","LI":"大山里","LIN":"3鄰","STREET":"精忠街","SECT":" ","MAREA":" ","LANE":" ","ALLEY":" ","HOUSE_NO":"７２號","E_COORD97":169407.64999999999,"N_COORD97":2545498.25,"ADDRESS":"精忠街７２號","OBJECTID":269040},"geometry":{"x":169407.65000000037,"y":2545498.2500000019}},{"attributes":{"ID":269046,"DIS_CODE":0,"TOWNNAME":"安平區","LI":"海頭里","LIN":"3鄰","STREET":"中興街","SECT":" ","MAREA":" ","LANE":" ","ALLEY":" ","HOUSE_NO":"２４號","E_COORD97":164207.60000000001,"N_COORD97":2544713.2599999998,"ADDRESS":"中興街２４號","OBJECTID":269041},"geometry":{"x":164207.59999999963,"y":2544713.2599999998}},{"attributes":{"ID":269047,"DIS_CODE":0,"TOWNNAME":"北區","LI":"大和里","LIN":"3鄰","STREET":"大港街","SECT":" ","MAREA":" ","LANE":" ","ALLEY":" ","HOUSE_NO":"６３號","E_COORD97":167135.78,"N_COORD97":2546046.5600000001,"ADDRESS":"大港街６３號","OBJECTID":269042},"geometry":{"x":167135.78000000119,"y":2546046.5600000024}},{"attributes":{"ID":269048,"DIS_CODE":0,"TOWNNAME":"安南區","LI":"海西里","LIN":"4鄰","STREET":"海中街","SECT":" ","MAREA":" ","LANE":" ","ALLEY":" ","HOUSE_NO":"１２５號","E_COORD97":166370.16,"N_COORD97":2549061.6800000002,"ADDRESS":"海中街１２５號","OBJECTID":269043},"geometry":{"x":166370.16000000108,"y":2549061.6800000016}},{"attributes":{"ID":269049,"DIS_CODE":0,"TOWNNAME":"安南區","LI":"新順里","LIN":"14鄰","STREET":"永安二街","SECT":" ","MAREA":" ","LANE":" ","ALLEY":" ","HOUSE_NO":"３３號","E_COORD97":169930.60000000001,"N_COORD97":2549450.4100000001,"ADDRESS":"永安二街３３號","OBJECTID":269044},"geometry":{"x":169930.59999999963,"y":2549450.410000002}},{"attributes":{"ID":269050,"DIS_CODE":0,"TOWNNAME":"安南區","LI":"新順里","LIN":"8鄰","STREET":"總安街","SECT":"一段","MAREA":" ","LANE":" ","ALLEY":" ","HOUSE_NO":"３４６號","E_COORD97":169236.73000000001,"N_COORD97":2550378.3599999999,"ADDRESS":"總安街一段３４６號","OBJECTID":269045},"geometry":{"x":169236.73000000138,"y":2550378.3600000031}},{"attributes":{"ID":269051,"DIS_CODE":0,"TOWNNAME":"安南區","LI":"城中里","LIN":"8鄰","STREET":"青砂街","SECT":"一段","MAREA":" ","LANE":" ","ALLEY":" ","HOUSE_NO":"９８號","E_COORD97":160654.06,"N_COORD97":2551575.1600000001,"ADDRESS":"青砂街一段９８號","OBJECTID":269046},"geometry":{"x":160654.06000000052,"y":2551575.160000002}},{"attributes":{"ID":269052,"DIS_CODE":0,"TOWNNAME":"安南區","LI":"安順里","LIN":"20鄰","STREET":"育安一街","SECT":" ","MAREA":" ","LANE":" ","ALLEY":" ","HOUSE_NO":"１３４號","E_COORD97":169483.12,"N_COORD97":2549939.6099999999,"ADDRESS":"育安一街１３４號","OBJECTID":269047},"geometry":{"x":169483.12000000104,"y":2549939.6100000013}},{"attributes":{"ID":269053,"DIS_CODE":0,"TOWNNAME":"安南區","LI":"新順里","LIN":"13鄰","STREET":"開安一街","SECT":" ","MAREA":" ","LANE":" ","ALLEY":" ","HOUSE_NO":"１９號","E_COORD97":170537.13,"N_COORD97":2549670.0800000001,"ADDRESS":"開安一街１９號","OBJECTID":269048},"geometry":{"x":170537.13000000082,"y":2549670.0800000019}},{"attributes":{"ID":269054,"DIS_CODE":0,"TOWNNAME":"安南區","LI":"頂安里","LIN":"7鄰","STREET":"頂安街","SECT":" ","MAREA":" ","LANE":" ","ALLEY":" ","HOUSE_NO":"５１９號","E_COORD97":168663.60999999999,"N_COORD97":2549275.75,"ADDRESS":"頂安街５１９號","OBJECTID":269049},"geometry":{"x":168663.61000000034,"y":2549275.7500000019}},{"attributes":{"ID":269055,"DIS_CODE":0,"TOWNNAME":"安南區","LI":"佃西里","LIN":"13鄰","STREET":"海佃路","SECT":"四段","MAREA":" ","LANE":" ","ALLEY":" ","HOUSE_NO":"４６１號","E_COORD97":165414.12,"N_COORD97":2551542.6200000001,"ADDRESS":"海佃路四段４６１號","OBJECTID":269050},"geometry":{"x":165414.12000000104,"y":2551542.6200000029}},{"attributes":{"ID":269056,"DIS_CODE":0,"TOWNNAME":"安南區","LI":"安順里","LIN":"20鄰","STREET":"育安一街","SECT":" ","MAREA":" ","LANE":" ","ALLEY":" ","HOUSE_NO":"１４０號","E_COORD97":169505.70000000001,"N_COORD97":2549958.7999999998,"ADDRESS":"育安一街１４０號","OBJECTID":269051},"geometry":{"x":169505.70000000205,"y":2549958.8000000007}},{"attributes":{"ID":269057,"DIS_CODE":0,"TOWNNAME":"北區","LI":"力行里","LIN":"17鄰","STREET":"南園街","SECT":" ","MAREA":" ","LANE":"１２７巷","ALLEY":" ","HOUSE_NO":"９３號","E_COORD97":170821.78,"N_COORD97":2545364.3900000001,"ADDRESS":"南園街１２７巷９３號","OBJECTID":269052},"geometry":{"x":170821.78000000026,"y":2545364.3900000006}},{"attributes":{"ID":269058,"DIS_CODE":0,"TOWNNAME":"北區","LI":"力行里","LIN":"17鄰","STREET":"南園街","SECT":" ","MAREA":" ","LANE":"１２７巷","ALLEY":" ","HOUSE_NO":"９５號","E_COORD97":170822.70000000001,"N_COORD97":2545366.77,"ADDRESS":"南園街１２７巷９５號","OBJECTID":269053},"geometry":{"x":170822.70000000205,"y":2545366.7699999996}},{"attributes":{"ID":269059,"DIS_CODE":0,"TOWNNAME":"北區","LI":"力行里","LIN":"17鄰","STREET":"南園街","SECT":" ","MAREA":" ","LANE":"１２７巷","ALLEY":" ","HOUSE_NO":"９７號","E_COORD97":170825.60999999999,"N_COORD97":2545369.7999999998,"ADDRESS":"南園街１２７巷９７號","OBJECTID":269054},"geometry":{"x":170825.61000000127,"y":2545369.8000000026}},{"attributes":{"ID":269060,"DIS_CODE":0,"TOWNNAME":"北區","LI":"力行里","LIN":"17鄰","STREET":"南園街","SECT":" ","MAREA":" ","LANE":"１２７巷","ALLEY":" ","HOUSE_NO":"９９號","E_COORD97":170828.64999999999,"N_COORD97":2545372.8399999999,"ADDRESS":"南園街１２７巷９９號","OBJECTID":269055},"geometry":{"x":170828.6500000013,"y":2545372.8400000017}},{"attributes":{"ID":269061,"DIS_CODE":0,"TOWNNAME":"北區","LI":"實踐里","LIN":"13鄰","STREET":"實踐街","SECT":" ","MAREA":" ","LANE":"１４巷","ALLEY":" ","HOUSE_NO":"１０號","E_COORD97":169718.03,"N_COORD97":2546083.79,"ADDRESS":"實踐街１４巷１０號","OBJECTID":269056},"geometry":{"x":169718.03000000026,"y":2546083.790000001}},{"attributes":{"ID":269062,"DIS_CODE":0,"TOWNNAME":"北區","LI":"實踐里","LIN":"13鄰","STREET":"實踐街","SECT":" ","MAREA":" ","LANE":"１４巷","ALLEY":" ","HOUSE_NO":"１２號","E_COORD97":169718.42000000001,"N_COORD97":2546077.6099999999,"ADDRESS":"實踐街１４巷１２號","OBJECTID":269057},"geometry":{"x":169718.41999999993,"y":2546077.6100000031}},{"attributes":{"ID":269063,"DIS_CODE":0,"TOWNNAME":"北區","LI":"實踐里","LIN":"13鄰","STREET":"實踐街","SECT":" ","MAREA":" ","LANE":"１４巷","ALLEY":" ","HOUSE_NO":"１６號","E_COORD97":169720.29000000001,"N_COORD97":2546071.0299999998,"ADDRESS":"實踐街１４巷１６號","OBJECTID":269058},"geometry":{"x":169720.29000000097,"y":2546071.0300000031}},{"attributes":{"ID":269064,"DIS_CODE":0,"TOWNNAME":"北區","LI":"實踐里","LIN":"13鄰","STREET":"實踐街","SECT":" ","MAREA":" ","LANE":"１４巷","ALLEY":" ","HOUSE_NO":"２號","E_COORD97":169715.28,"N_COORD97":2546110.4199999999,"ADDRESS":"實踐街１４巷２號","OBJECTID":269059},"geometry":{"x":169715.28000000212,"y":2546110.4200000018}},{"attributes":{"ID":269065,"DIS_CODE":0,"TOWNNAME":"歸仁區","LI":"六甲里","LIN":"17鄰","STREET":"六甲路","SECT":" ","MAREA":" ","LANE":"３２１巷","ALLEY":" ","HOUSE_NO":"３３號","E_COORD97":175735.32000000001,"N_COORD97":2539135.25,"ADDRESS":"六甲路３２１巷３３號","OBJECTID":269060},"geometry":{"x":175735.32000000123,"y":2539135.2500000019}},{"attributes":{"ID":269066,"DIS_CODE":0,"TOWNNAME":"新營區","LI":"南紙里","LIN":"17鄰","STREET":"南紙街","SECT":" ","MAREA":" ","LANE":"１６２巷","ALLEY":" ","HOUSE_NO":"２７號","E_COORD97":177807.79999999999,"N_COORD97":2577287.52,"ADDRESS":"南紙街１６２巷２７號","OBJECTID":269061},"geometry":{"x":177807.80000000075,"y":2577287.5200000014}},{"attributes":{"ID":269067,"DIS_CODE":0,"TOWNNAME":"新營區","LI":"忠政里","LIN":"17鄰","STREET":"府西路","SECT":" ","MAREA":" ","LANE":"２５８巷","ALLEY":" ","HOUSE_NO":"２號","E_COORD97":179799.56,"N_COORD97":2579727.6200000001,"ADDRESS":"府西路２５８巷２號","OBJECTID":269062},"geometry":{"x":179799.56000000052,"y":2579727.620000001}},{"attributes":{"ID":269068,"DIS_CODE":0,"TOWNNAME":"新營區","LI":"忠政里","LIN":"17鄰","STREET":"府西路","SECT":" ","MAREA":" ","LANE":"２５８巷","ALLEY":" ","HOUSE_NO":"１１號","E_COORD97":179819.20999999999,"N_COORD97":2579738.6099999999,"ADDRESS":"府西路２５８巷１１號","OBJECTID":269063},"geometry":{"x":179819.21000000089,"y":2579738.6100000013}},{"attributes":{"ID":269069,"DIS_CODE":0,"TOWNNAME":"新營區","LI":"忠政里","LIN":"17鄰","STREET":"府西路","SECT":" ","MAREA":" ","LANE":"２５８巷","ALLEY":" ","HOUSE_NO":"１９號","E_COORD97":179835.57999999999,"N_COORD97":2579740.75,"ADDRESS":"府西路２５８巷１９號","OBJECTID":269064},"geometry":{"x":179835.58000000101,"y":2579740.7500000019}},{"attributes":{"ID":269070,"DIS_CODE":0,"TOWNNAME":"新營區","LI":"南紙里","LIN":"17鄰","STREET":"南紙街","SECT":" ","MAREA":" ","LANE":"１６２巷","ALLEY":" ","HOUSE_NO":"５號","E_COORD97":177761.45000000001,"N_COORD97":2577278.8799999999,"ADDRESS":"南紙街１６２巷５號","OBJECTID":269065},"geometry":{"x":177761.45000000112,"y":2577278.879999999}},{"attributes":{"ID":269071,"DIS_CODE":0,"TOWNNAME":"新營區","LI":"南紙里","LIN":"17鄰","STREET":"南紙街","SECT":" ","MAREA":" ","LANE":"１６２巷","ALLEY":" ","HOUSE_NO":"７５號","E_COORD97":177910.14000000001,"N_COORD97":2577304.7400000002,"ADDRESS":"南紙街１６２巷７５號","OBJECTID":269066},"geometry":{"x":177910.14000000153,"y":2577304.7400000002}},{"attributes":{"ID":269072,"DIS_CODE":0,"TOWNNAME":"新營區","LI":"新東里","LIN":"17鄰","STREET":"東興二街","SECT":" ","MAREA":" ","LANE":"３５巷","ALLEY":" ","HOUSE_NO":"１６號","E_COORD97":180904.35000000001,"N_COORD97":2579076.79,"ADDRESS":"東興二街３５巷１６號","OBJECTID":269067},"geometry":{"x":180904.35000000056,"y":2579076.7899999991}},{"attributes":{"ID":269073,"DIS_CODE":0,"TOWNNAME":"新營區","LI":"南紙里","LIN":"17鄰","STREET":"南紙街","SECT":" ","MAREA":" ","LANE":"１６２巷","ALLEY":" ","HOUSE_NO":"７號","E_COORD97":177765.56,"N_COORD97":2577279.9700000002,"ADDRESS":"南紙街１６２巷７號","OBJECTID":269068},"geometry":{"x":177765.56000000052,"y":2577279.9700000007}},{"attributes":{"ID":269074,"DIS_CODE":0,"TOWNNAME":"新營區","LI":"新東里","LIN":"17鄰","STREET":"東興二街","SECT":" ","MAREA":" ","LANE":"３５巷","ALLEY":" ","HOUSE_NO":"２號","E_COORD97":180902.03,"N_COORD97":2579052.4300000002,"ADDRESS":"東興二街３５巷２號","OBJECTID":269069},"geometry":{"x":180902.03000000119,"y":2579052.4299999997}},{"attributes":{"ID":269075,"DIS_CODE":0,"TOWNNAME":"新營區","LI":"南紙里","LIN":"17鄰","STREET":"南紙街","SECT":" ","MAREA":" ","LANE":"１６２巷","ALLEY":" ","HOUSE_NO":"５３號","E_COORD97":177860.98999999999,"N_COORD97":2577298.3300000001,"ADDRESS":"南紙街１６２巷５３號","OBJECTID":269070},"geometry":{"x":177860.99000000209,"y":2577298.3300000001}},{"attributes":{"ID":269076,"DIS_CODE":0,"TOWNNAME":"新營區","LI":"南紙里","LIN":"17鄰","STREET":"南紙街","SECT":" ","MAREA":" ","LANE":"１６２巷","ALLEY":" ","HOUSE_NO":"４１號","E_COORD97":177837.5,"N_COORD97":2577294.02,"ADDRESS":"南紙街１６２巷４１號","OBJECTID":269071},"geometry":{"x":177837.50000000093,"y":2577294.0200000014}},{"attributes":{"ID":269077,"DIS_CODE":0,"TOWNNAME":"安平區","LI":"海頭里","LIN":"3鄰","STREET":"中興街","SECT":" ","MAREA":" ","LANE":" ","ALLEY":" ","HOUSE_NO":"２６號","E_COORD97":164223.25,"N_COORD97":2544714,"ADDRESS":"中興街２６號","OBJECTID":269072},"geometry":{"x":164223.25000000093,"y":2544714.0000000019}},{"attributes":{"ID":269078,"DIS_CODE":0,"TOWNNAME":"新營區","LI":"南紙里","LIN":"17鄰","STREET":"南紙街","SECT":" ","MAREA":" ","LANE":"１６２巷","ALLEY":" ","HOUSE_NO":"２１號","E_COORD97":177794.48999999999,"N_COORD97":2577285.3700000001,"ADDRESS":"南紙街１６２巷２１號","OBJECTID":269073},"geometry":{"x":177794.49000000022,"y":2577285.370000001}},{"attributes":{"ID":269079,"DIS_CODE":0,"TOWNNAME":"新營區","LI":"新東里","LIN":"17鄰","STREET":"東興二街","SECT":" ","MAREA":" ","LANE":"３５巷","ALLEY":" ","HOUSE_NO":"８號","E_COORD97":180902.07999999999,"N_COORD97":2579062.3999999999,"ADDRESS":"東興二街３５巷８號","OBJECTID":269074},"geometry":{"x":180902.08000000101,"y":2579062.4000000022}},{"attributes":{"ID":269080,"DIS_CODE":0,"TOWNNAME":"新營區","LI":"忠政里","LIN":"17鄰","STREET":"府西路","SECT":" ","MAREA":" ","LANE":"２５８巷","ALLEY":" ","HOUSE_NO":"３６號","E_COORD97":179924.59,"N_COORD97":2579727.04,"ADDRESS":"府西路２５８巷３６號","OBJECTID":269075},"geometry":{"x":179924.59000000171,"y":2579727.0400000028}},{"attributes":{"ID":269081,"DIS_CODE":0,"TOWNNAME":"新營區","LI":"南紙里","LIN":"17鄰","STREET":"南紙街","SECT":" ","MAREA":" ","LANE":"１６２巷","ALLEY":" ","HOUSE_NO":"１３號","E_COORD97":177779.06,"N_COORD97":2577282.1200000001,"ADDRESS":"南紙街１６２巷１３號","OBJECTID":269076},"geometry":{"x":177779.06000000052,"y":2577282.1200000029}},{"attributes":{"ID":269082,"DIS_CODE":0,"TOWNNAME":"新營區","LI":"南紙里","LIN":"17鄰","STREET":"南紙街","SECT":" ","MAREA":" ","LANE":"１６２巷","ALLEY":" ","HOUSE_NO":"７３號","E_COORD97":177904,"N_COORD97":2577304.77,"ADDRESS":"南紙街１６２巷７３號","OBJECTID":269077},"geometry":{"x":177904,"y":2577304.7699999996}},{"attributes":{"ID":269083,"DIS_CODE":0,"TOWNNAME":"安平區","LI":"海頭里","LIN":"3鄰","STREET":"中興街","SECT":" ","MAREA":" ","LANE":" ","ALLEY":" ","HOUSE_NO":"２０號","E_COORD97":164226.29000000001,"N_COORD97":2544693.6400000001,"ADDRESS":"中興街２０號","OBJECTID":269078},"geometry":{"x":164226.29000000097,"y":2544693.6400000006}},{"attributes":{"ID":269084,"DIS_CODE":0,"TOWNNAME":"安平區","LI":"海頭里","LIN":"3鄰","STREET":"中興街","SECT":" ","MAREA":" ","LANE":" ","ALLEY":" ","HOUSE_NO":"２２號","E_COORD97":164220.95999999999,"N_COORD97":2544699.4399999999,"ADDRESS":"中興街２２號","OBJECTID":269079},"geometry":{"x":164220.95999999996,"y":2544699.4400000013}},{"attributes":{"ID":269085,"DIS_CODE":0,"TOWNNAME":"歸仁區","LI":"六甲里","LIN":"17鄰","STREET":"六甲路","SECT":" ","MAREA":" ","LANE":"３６５巷","ALLEY":" ","HOUSE_NO":"３９號","E_COORD97":175633.82000000001,"N_COORD97":2539148.25,"ADDRESS":"六甲路３６５巷３９號","OBJECTID":269080},"geometry":{"x":175633.82000000123,"y":2539148.2500000019}},{"attributes":{"ID":269086,"DIS_CODE":0,"TOWNNAME":"歸仁區","LI":"大廟里","LIN":"17鄰","STREET":"保大路","SECT":"三段","MAREA":" ","LANE":"３６６巷","ALLEY":" ","HOUSE_NO":"６０號","E_COORD97":175691.32000000001,"N_COORD97":2545302.2799999998,"ADDRESS":"保大路三段３６６巷６０號","OBJECTID":269081},"geometry":{"x":175691.32000000123,"y":2545302.2799999993}},{"attributes":{"ID":269087,"DIS_CODE":0,"TOWNNAME":"關廟區","LI":"山西里","LIN":"17鄰","STREET":"崇明街","SECT":" ","MAREA":" ","LANE":"２３巷","ALLEY":" ","HOUSE_NO":"１５號","E_COORD97":180996.76999999999,"N_COORD97":2540652.25,"ADDRESS":"崇明街２３巷１５號","OBJECTID":269082},"geometry":{"x":180996.77000000048,"y":2540652.2499999981}},{"attributes":{"ID":269088,"DIS_CODE":0,"TOWNNAME":"關廟區","LI":"山西里","LIN":"17鄰","STREET":"崇明街","SECT":" ","MAREA":" ","LANE":"３巷","ALLEY":" ","HOUSE_NO":"２號","E_COORD97":181040.26999999999,"N_COORD97":2540626.25,"ADDRESS":"崇明街３巷２號","OBJECTID":269083},"geometry":{"x":181040.27000000142,"y":2540626.2500000019}},{"attributes":{"ID":269089,"DIS_CODE":0,"TOWNNAME":"安平區","LI":"海頭里","LIN":"3鄰","STREET":"中興街","SECT":" ","MAREA":" ","LANE":" ","ALLEY":" ","HOUSE_NO":"２８號","E_COORD97":164223.34,"N_COORD97":2544715.6000000001,"ADDRESS":"中興街２８號","OBJECTID":269084},"geometry":{"x":164223.33999999985,"y":2544715.6000000015}},{"attributes":{"ID":269090,"DIS_CODE":0,"TOWNNAME":"北區","LI":"大和里","LIN":"3鄰","STREET":"大港街","SECT":" ","MAREA":" ","LANE":" ","ALLEY":" ","HOUSE_NO":"５５號","E_COORD97":167154.45000000001,"N_COORD97":2546050.2599999998,"ADDRESS":"大港街５５號","OBJECTID":269085},"geometry":{"x":167154.45000000205,"y":2546050.2600000016}},{"attributes":{"ID":269091,"DIS_CODE":0,"TOWNNAME":"北區","LI":"大和里","LIN":"3鄰","STREET":"大港街","SECT":" ","MAREA":" ","LANE":" ","ALLEY":" ","HOUSE_NO":"５７號","E_COORD97":167149.89999999999,"N_COORD97":2546049.7400000002,"ADDRESS":"大港街５７號","OBJECTID":269086},"geometry":{"x":167149.90000000224,"y":2546049.7400000002}},{"attributes":{"ID":269092,"DIS_CODE":0,"TOWNNAME":"北區","LI":"大和里","LIN":"3鄰","STREET":"大港街","SECT":" ","MAREA":" ","LANE":" ","ALLEY":" ","HOUSE_NO":"５９號","E_COORD97":167145.14999999999,"N_COORD97":2546048.3799999999,"ADDRESS":"大港街５９號","OBJECTID":269087},"geometry":{"x":167145.1500000013,"y":2546048.3800000008}},{"attributes":{"ID":269093,"DIS_CODE":0,"TOWNNAME":"北區","LI":"大和里","LIN":"3鄰","STREET":"大港街","SECT":" ","MAREA":" ","LANE":" ","ALLEY":" ","HOUSE_NO":"６１號","E_COORD97":167140.26999999999,"N_COORD97":2546048.6400000001,"ADDRESS":"大港街６１號","OBJECTID":269088},"geometry":{"x":167140.27000000048,"y":2546048.6400000025}},{"attributes":{"ID":269094,"DIS_CODE":0,"TOWNNAME":"安南區","LI":"新順里","LIN":"13鄰","STREET":"開安路","SECT":" ","MAREA":" ","LANE":" ","ALLEY":" ","HOUSE_NO":"１０號","E_COORD97":170279.23999999999,"N_COORD97":2549473.2999999998,"ADDRESS":"開安路１０號","OBJECTID":269089},"geometry":{"x":170279.24000000022,"y":2549473.3000000007}},{"attributes":{"ID":269095,"DIS_CODE":0,"TOWNNAME":"善化區","LI":"文昌里","LIN":" ","STREET":"永福路","SECT":" ","MAREA":" ","LANE":" ","ALLEY":" ","HOUSE_NO":"１６３號","E_COORD97":177182.19,"N_COORD97":2558745.75,"ADDRESS":"永福路１６３號","OBJECTID":269090},"geometry":{"x":177182.19000000134,"y":2558745.75}},{"attributes":{"ID":269096,"DIS_CODE":0,"TOWNNAME":"善化區","LI":"光文里","LIN":"13鄰","STREET":"樹人路","SECT":" ","MAREA":" ","LANE":" ","ALLEY":" ","HOUSE_NO":"５４號","E_COORD97":178377.07999999999,"N_COORD97":2559050.5,"ADDRESS":"樹人路５４號","OBJECTID":269091},"geometry":{"x":178377.07999999914,"y":2559050.5000000037}},{"attributes":{"ID":269097,"DIS_CODE":0,"TOWNNAME":"安南區","LI":"城中里","LIN":"8鄰","STREET":"青砂街","SECT":"一段","MAREA":" ","LANE":" ","ALLEY":" ","HOUSE_NO":"８２號","E_COORD97":160669.76000000001,"N_COORD97":2551542.5899999999,"ADDRESS":"青砂街一段８２號","OBJECTID":269092},"geometry":{"x":160669.76000000071,"y":2551542.5899999999}},{"attributes":{"ID":269098,"DIS_CODE":0,"TOWNNAME":"安南區","LI":"南興里","LIN":"4鄰","STREET":"安興街","SECT":" ","MAREA":" ","LANE":" ","ALLEY":" ","HOUSE_NO":"４２２號","E_COORD97":163589.92000000001,"N_COORD97":2552351.04,"ADDRESS":"安興街４２２號","OBJECTID":269093},"geometry":{"x":163589.92000000086,"y":2552351.040000001}},{"attributes":{"ID":269099,"DIS_CODE":0,"TOWNNAME":"安南區","LI":"南興里","LIN":"4鄰","STREET":"安興街","SECT":" ","MAREA":" ","LANE":" ","ALLEY":" ","HOUSE_NO":"４２４號","E_COORD97":163590.97,"N_COORD97":2552359.4500000002,"ADDRESS":"安興街４２４號","OBJECTID":269094},"geometry":{"x":163590.97000000067,"y":2552359.4499999993}},{"attributes":{"ID":269100,"DIS_CODE":0,"TOWNNAME":"安南區","LI":"安順里","LIN":"18鄰","STREET":"安豐三街","SECT":" ","MAREA":" ","LANE":" ","ALLEY":" ","HOUSE_NO":"１５３號","E_COORD97":169604.98999999999,"N_COORD97":2549950.6600000001,"ADDRESS":"安豐三街１５３號","OBJECTID":269095},"geometry":{"x":169604.99000000022,"y":2549950.660000002}},{"attributes":{"ID":269101,"DIS_CODE":0,"TOWNNAME":"安南區","LI":"安順里","LIN":"18鄰","STREET":"育安街","SECT":" ","MAREA":" ","LANE":" ","ALLEY":" ","HOUSE_NO":"１８６號","E_COORD97":169590.17000000001,"N_COORD97":2549935.54,"ADDRESS":"育安街１８６號","OBJECTID":269096},"geometry":{"x":169590.16999999899,"y":2549935.5399999991}},{"attributes":{"ID":269102,"DIS_CODE":0,"TOWNNAME":"關廟區","LI":"香洋里","LIN":"17鄰","STREET":"中央路","SECT":" ","MAREA":" ","LANE":"２２巷","ALLEY":" ","HOUSE_NO":"３號","E_COORD97":181602.60999999999,"N_COORD97":2540017.3199999998,"ADDRESS":"中央路２２巷３號","OBJECTID":269097},"geometry":{"x":181602.61000000034,"y":2540017.3200000003}},{"attributes":{"ID":269103,"DIS_CODE":0,"TOWNNAME":"新化區","LI":"東榮里","LIN":"17鄰","STREET":"中興路","SECT":" ","MAREA":" ","LANE":"６８５巷","ALLEY":" ","HOUSE_NO":"１號","E_COORD97":179591.41,"N_COORD97":2548045.25,"ADDRESS":"中興路６８５巷１號","OBJECTID":269098},"geometry":{"x":179591.41000000015,"y":2548045.25}},{"attributes":{"ID":269104,"DIS_CODE":0,"TOWNNAME":"南區","LI":"白雪里","LIN":"17鄰","STREET":"新都路","SECT":" ","MAREA":" ","LANE":"６１２巷","ALLEY":" ","HOUSE_NO":"３７號之１","E_COORD97":166862.20999999999,"N_COORD97":2541011.0299999998,"ADDRESS":"新都路６１２巷３７號之１","OBJECTID":269099},"geometry":{"x":166862.20999999996,"y":2541011.0299999993}},{"attributes":{"ID":269105,"DIS_CODE":0,"TOWNNAME":"北區","LI":"元寶里","LIN":"17鄰","STREET":"開元路","SECT":" ","MAREA":" ","LANE":"４８５巷","ALLEY":" ","HOUSE_NO":"１８號","E_COORD97":170526.03,"N_COORD97":2545707.4300000002,"ADDRESS":"開元路４８５巷１８號","OBJECTID":269100},"geometry":{"x":170526.03000000119,"y":2545707.4300000016}},{"attributes":{"ID":269106,"DIS_CODE":0,"TOWNNAME":"北區","LI":"元寶里","LIN":"17鄰","STREET":"開元路","SECT":" ","MAREA":" ","LANE":"４８５巷","ALLEY":" ","HOUSE_NO":"２０號","E_COORD97":170517.32000000001,"N_COORD97":2545701.5699999998,"ADDRESS":"開元路４８５巷２０號","OBJECTID":269101},"geometry":{"x":170517.32000000123,"y":2545701.5700000003}},{"attributes":{"ID":269107,"DIS_CODE":0,"TOWNNAME":"北區","LI":"元寶里","LIN":"17鄰","STREET":"開元路","SECT":" ","MAREA":" ","LANE":"４８５巷","ALLEY":" ","HOUSE_NO":"４２號","E_COORD97":170508.91,"N_COORD97":2545753.9500000002,"ADDRESS":"開元路４８５巷４２號","OBJECTID":269102},"geometry":{"x":170508.91000000015,"y":2545753.9500000011}},{"attributes":{"ID":269108,"DIS_CODE":0,"TOWNNAME":"安平區","LI":"西門里","LIN":"17鄰","STREET":"安北路","SECT":" ","MAREA":" ","LANE":"３７０巷","ALLEY":" ","HOUSE_NO":"１３號","E_COORD97":163184.39999999999,"N_COORD97":2544631.1299999999,"ADDRESS":"安北路３７０巷１３號","OBJECTID":269103},"geometry":{"x":163184.40000000037,"y":2544631.129999999}},{"attributes":{"ID":269109,"DIS_CODE":0,"TOWNNAME":"鹽水區","LI":"橋南里","LIN":"17鄰","STREET":"治水路","SECT":" ","MAREA":" ","LANE":"１０５巷","ALLEY":" ","HOUSE_NO":"１４號","E_COORD97":174542.72,"N_COORD97":2579481.3500000001,"ADDRESS":"治水路１０５巷１４號","OBJECTID":269104},"geometry":{"x":174542.71999999974,"y":2579481.3500000034}},{"attributes":{"ID":269110,"DIS_CODE":0,"TOWNNAME":"鹽水區","LI":"橋南里","LIN":"17鄰","STREET":"治水路","SECT":" ","MAREA":" ","LANE":"１０５巷","ALLEY":" ","HOUSE_NO":"２６號","E_COORD97":174450.03,"N_COORD97":2579504.7400000002,"ADDRESS":"治水路１０５巷２６號","OBJECTID":269105},"geometry":{"x":174450.03000000212,"y":2579504.7400000021}},{"attributes":{"ID":269111,"DIS_CODE":0,"TOWNNAME":"鹽水區","LI":"橋南里","LIN":"17鄰","STREET":"治水路","SECT":" ","MAREA":" ","LANE":"１０５巷","ALLEY":" ","HOUSE_NO":"８號","E_COORD97":174570.04999999999,"N_COORD97":2579483.1200000001,"ADDRESS":"治水路１０５巷８號","OBJECTID":269106},"geometry":{"x":174570.05000000075,"y":2579483.120000001}},{"attributes":{"ID":269112,"DIS_CODE":0,"TOWNNAME":"鹽水區","LI":"橋南里","LIN":"17鄰","STREET":"治水路","SECT":" ","MAREA":" ","LANE":"１０５巷","ALLEY":" ","HOUSE_NO":"９號","E_COORD97":174512.91,"N_COORD97":2579457,"ADDRESS":"治水路１０５巷９號","OBJECTID":269107},"geometry":{"x":174512.91000000015,"y":2579457.0000000037}},{"attributes":{"ID":269113,"DIS_CODE":0,"TOWNNAME":"北區","LI":"小康里","LIN":"17鄰","STREET":"大武街","SECT":" ","MAREA":" ","LANE":"４０１巷","ALLEY":" ","HOUSE_NO":"１８之２號","E_COORD97":169769.07999999999,"N_COORD97":2546535.3500000001,"ADDRESS":"大武街４０１巷１８之２號","OBJECTID":269108},"geometry":{"x":169769.08000000194,"y":2546535.3500000015}},{"attributes":{"ID":269114,"DIS_CODE":0,"TOWNNAME":"北區","LI":"文元里","LIN":"17鄰","STREET":"文成路","SECT":" ","MAREA":" ","LANE":"７５０巷","ALLEY":" ","HOUSE_NO":"２３３號","E_COORD97":167604.13,"N_COORD97":2546217.48,"ADDRESS":"文成路７５０巷２３３號","OBJECTID":269109},"geometry":{"x":167604.13000000082,"y":2546217.4800000004}},{"attributes":{"ID":269115,"DIS_CODE":0,"TOWNNAME":"北區","LI":"大和里","LIN":"17鄰","STREET":"中華北路","SECT":"一段","MAREA":" ","LANE":"６３２巷","ALLEY":" ","HOUSE_NO":"１號","E_COORD97":167255.38,"N_COORD97":2546455.9300000002,"ADDRESS":"中華北路一段６３２巷１號","OBJECTID":269110},"geometry":{"x":167255.37999999989,"y":2546455.9300000016}},{"attributes":{"ID":269116,"DIS_CODE":0,"TOWNNAME":"北區","LI":"大港里","LIN":"17鄰","STREET":"大興街","SECT":" ","MAREA":" ","LANE":"２４６巷","ALLEY":" ","HOUSE_NO":"１１９號","E_COORD97":166561.53,"N_COORD97":2545891.21,"ADDRESS":"大興街２４６巷１１９號","OBJECTID":269111},"geometry":{"x":166561.53000000026,"y":2545891.2100000009}},{"attributes":{"ID":269117,"DIS_CODE":0,"TOWNNAME":"北區","LI":"大港里","LIN":"17鄰","STREET":"大興街","SECT":" ","MAREA":" ","LANE":"２４６巷","ALLEY":" ","HOUSE_NO":"１２１號","E_COORD97":166565.20999999999,"N_COORD97":2545892.3799999999,"ADDRESS":"大興街２４６巷１２１號","OBJECTID":269112},"geometry":{"x":166565.20999999996,"y":2545892.3800000008}},{"attributes":{"ID":269118,"DIS_CODE":0,"TOWNNAME":"新營區","LI":"忠政里","LIN":"17鄰","STREET":"府西路","SECT":" ","MAREA":" ","LANE":"２６０巷","ALLEY":" ","HOUSE_NO":"９號","E_COORD97":179819.14000000001,"N_COORD97":2579779.5800000001,"ADDRESS":"府西路２６０巷９號","OBJECTID":269113},"geometry":{"x":179819.1400000006,"y":2579779.5800000019}},{"attributes":{"ID":269119,"DIS_CODE":0,"TOWNNAME":"新營區","LI":"忠政里","LIN":"17鄰","STREET":"府西路","SECT":" ","MAREA":" ","LANE":"２５８巷","ALLEY":" ","HOUSE_NO":"７號","E_COORD97":179810.82999999999,"N_COORD97":2579738.6400000001,"ADDRESS":"府西路２５８巷７號","OBJECTID":269114},"geometry":{"x":179810.83000000007,"y":2579738.6400000025}},{"attributes":{"ID":269120,"DIS_CODE":0,"TOWNNAME":"新營區","LI":"忠政里","LIN":"17鄰","STREET":"府西路","SECT":" ","MAREA":" ","LANE":"２５８巷","ALLEY":" ","HOUSE_NO":"１５號","E_COORD97":179827.39000000001,"N_COORD97":2579739.6800000002,"ADDRESS":"府西路２５８巷１５號","OBJECTID":269115},"geometry":{"x":179827.39000000153,"y":2579739.6799999997}},{"attributes":{"ID":269121,"DIS_CODE":0,"TOWNNAME":"新營區","LI":"南紙里","LIN":"17鄰","STREET":"南紙街","SECT":" ","MAREA":" ","LANE":"１６２巷","ALLEY":" ","HOUSE_NO":"４３號","E_COORD97":177840.57000000001,"N_COORD97":2577294,"ADDRESS":"南紙街１６２巷４３號","OBJECTID":269116},"geometry":{"x":177840.57000000123,"y":2577294.0000000037}},{"attributes":{"ID":269122,"DIS_CODE":0,"TOWNNAME":"新營區","LI":"忠政里","LIN":"17鄰","STREET":"府西路","SECT":" ","MAREA":" ","LANE":"２６０巷","ALLEY":" ","HOUSE_NO":"１７號","E_COORD97":179844.95000000001,"N_COORD97":2579775.04,"ADDRESS":"府西路２６０巷１７號","OBJECTID":269117},"geometry":{"x":179844.95000000112,"y":2579775.040000001}},{"attributes":{"ID":269123,"DIS_CODE":0,"TOWNNAME":"新營區","LI":"忠政里","LIN":"17鄰","STREET":"府西路","SECT":" ","MAREA":" ","LANE":"２６０巷","ALLEY":" ","HOUSE_NO":"１９號","E_COORD97":179850.06,"N_COORD97":2579775.0099999998,"ADDRESS":"府西路２６０巷１９號","OBJECTID":269118},"geometry":{"x":179850.06000000145,"y":2579775.0099999998}},{"attributes":{"ID":269124,"DIS_CODE":0,"TOWNNAME":"新營區","LI":"忠政里","LIN":"17鄰","STREET":"府西路","SECT":" ","MAREA":" ","LANE":"２５８巷","ALLEY":" ","HOUSE_NO":"９號","E_COORD97":179813.84,"N_COORD97":2579738.6299999999,"ADDRESS":"府西路２５８巷９號","OBJECTID":269119},"geometry":{"x":179813.83999999985,"y":2579738.629999999}},{"attributes":{"ID":269125,"DIS_CODE":0,"TOWNNAME":"新營區","LI":"忠政里","LIN":"17鄰","STREET":"府西路","SECT":" ","MAREA":" ","LANE":"２６０巷","ALLEY":" ","HOUSE_NO":"５號","E_COORD97":179806.92000000001,"N_COORD97":2579780.75,"ADDRESS":"府西路２６０巷５號","OBJECTID":269120},"geometry":{"x":179806.91999999993,"y":2579780.7500000037}},{"attributes":{"ID":269126,"DIS_CODE":0,"TOWNNAME":"新化區","LI":"東榮里","LIN":"17鄰","STREET":"中興路","SECT":" ","MAREA":" ","LANE":"６７７巷","ALLEY":" ","HOUSE_NO":"２５號","E_COORD97":179609.85999999999,"N_COORD97":2547978.25,"ADDRESS":"中興路６７７巷２５號","OBJECTID":269121},"geometry":{"x":179609.86000000127,"y":2547978.25}},{"attributes":{"ID":269127,"DIS_CODE":0,"TOWNNAME":"北區","LI":"興北里","LIN":"13鄰","STREET":"公園路","SECT":" ","MAREA":" ","LANE":"６２４巷","ALLEY":" ","HOUSE_NO":"７１號","E_COORD97":169222.78,"N_COORD97":2545314.4399999999,"ADDRESS":"公園路６２４巷７１號","OBJECTID":269122},"geometry":{"x":169222.78000000119,"y":2545314.4399999995}},{"attributes":{"ID":269128,"DIS_CODE":0,"TOWNNAME":"北區","LI":"興北里","LIN":"13鄰","STREET":"公園路","SECT":" ","MAREA":" ","LANE":"６２４巷","ALLEY":" ","HOUSE_NO":"７３號","E_COORD97":169226.64999999999,"N_COORD97":2545314.8100000001,"ADDRESS":"公園路６２４巷７３號","OBJECTID":269123},"geometry":{"x":169226.6500000013,"y":2545314.8100000024}},{"attributes":{"ID":269129,"DIS_CODE":0,"TOWNNAME":"北區","LI":"興北里","LIN":"13鄰","STREET":"公園路","SECT":" ","MAREA":" ","LANE":"６２４巷","ALLEY":" ","HOUSE_NO":"７５號","E_COORD97":169230.98000000001,"N_COORD97":2545315.1200000001,"ADDRESS":"公園路６２４巷７５號","OBJECTID":269124},"geometry":{"x":169230.98000000231,"y":2545315.120000001}},{"attributes":{"ID":269130,"DIS_CODE":0,"TOWNNAME":"北區","LI":"興北里","LIN":"13鄰","STREET":"公園路","SECT":" ","MAREA":" ","LANE":"６２４巷","ALLEY":" ","HOUSE_NO":"７７號","E_COORD97":169234.57000000001,"N_COORD97":2545316.3599999999,"ADDRESS":"公園路６２４巷７７號","OBJECTID":269125},"geometry":{"x":169234.5700000003,"y":2545316.3600000031}},{"attributes":{"ID":269131,"DIS_CODE":0,"TOWNNAME":"南區","LI":"佛壇里","LIN":"17鄰","STREET":"興南街","SECT":" ","MAREA":" ","LANE":"１０１巷","ALLEY":" ","HOUSE_NO":"１４號","E_COORD97":166214.48999999999,"N_COORD97":2535709.29,"ADDRESS":"興南街１０１巷１４號","OBJECTID":269126},"geometry":{"x":166214.49000000022,"y":2535709.290000001}},{"attributes":{"ID":269132,"DIS_CODE":0,"TOWNNAME":"南區","LI":"新昌里","LIN":"17鄰","STREET":"大德街","SECT":" ","MAREA":" ","LANE":"１４１巷","ALLEY":" ","HOUSE_NO":"５７號","E_COORD97":167562.92000000001,"N_COORD97":2542813.75,"ADDRESS":"大德街１４１巷５７號","OBJECTID":269127},"geometry":{"x":167562.92000000179,"y":2542813.7500000019}},{"attributes":{"ID":269133,"DIS_CODE":0,"TOWNNAME":"南區","LI":"新昌里","LIN":"17鄰","STREET":"大德街","SECT":" ","MAREA":" ","LANE":"１４１巷","ALLEY":" ","HOUSE_NO":"５９號","E_COORD97":167567.29999999999,"N_COORD97":2542812.7799999998,"ADDRESS":"大德街１４１巷５９號","OBJECTID":269128},"geometry":{"x":167567.30000000075,"y":2542812.7800000012}},{"attributes":{"ID":269134,"DIS_CODE":0,"TOWNNAME":"南區","LI":"新昌里","LIN":"17鄰","STREET":"大德街","SECT":" ","MAREA":" ","LANE":"１４１巷","ALLEY":" ","HOUSE_NO":"５９之１號","E_COORD97":167573.95999999999,"N_COORD97":2542811.3199999998,"ADDRESS":"大德街１４１巷５９之１號","OBJECTID":269129},"geometry":{"x":167573.95999999996,"y":2542811.3200000003}},{"attributes":{"ID":269135,"DIS_CODE":0,"TOWNNAME":"歸仁區","LI":"六甲里","LIN":"17鄰","STREET":"六甲路","SECT":" ","MAREA":" ","LANE":"３２１巷","ALLEY":" ","HOUSE_NO":"３８號","E_COORD97":175694.092386,"N_COORD97":2539144.5057000001,"ADDRESS":"六甲路３２１巷３８號","OBJECTID":269130},"geometry":{"x":175694.09238600079,"y":2539144.5057050027}},{"attributes":{"ID":269136,"DIS_CODE":0,"TOWNNAME":"歸仁區","LI":"六甲里","LIN":"17鄰","STREET":"六甲路","SECT":" ","MAREA":" ","LANE":"３４１巷","ALLEY":" ","HOUSE_NO":"１１號","E_COORD97":175695.15172299999,"N_COORD97":2539183.4523499999,"ADDRESS":"六甲路３４１巷１１號","OBJECTID":269131},"geometry":{"x":175695.15172300022,"y":2539183.452351002}},{"attributes":{"ID":269137,"DIS_CODE":0,"TOWNNAME":"歸仁區","LI":"大潭里","LIN":"17鄰","STREET":"中正南路","SECT":"三段","MAREA":" ","LANE":"２５０巷","ALLEY":" ","HOUSE_NO":"３５號","E_COORD97":175094.5,"N_COORD97":2534772.2799999998,"ADDRESS":"中正南路三段２５０巷３５號","OBJECTID":269132},"geometry":{"x":175094.50000000093,"y":2534772.2799999993}},{"attributes":{"ID":269138,"DIS_CODE":0,"TOWNNAME":"歸仁區","LI":"大潭里","LIN":"17鄰","STREET":"中正南路","SECT":"三段","MAREA":" ","LANE":"２５０巷","ALLEY":" ","HOUSE_NO":"４９號","E_COORD97":175055.60000000001,"N_COORD97":2534786.2799999998,"ADDRESS":"中正南路三段２５０巷４９號","OBJECTID":269133},"geometry":{"x":175055.5999999987,"y":2534786.2800000031}},{"attributes":{"ID":269139,"DIS_CODE":0,"TOWNNAME":"南區","LI":"白雪里","LIN":"17鄰","STREET":"新都路","SECT":" ","MAREA":" ","LANE":"６１２巷","ALLEY":" ","HOUSE_NO":"５１號","E_COORD97":166903.81,"N_COORD97":2540998.71,"ADDRESS":"新都路６１２巷５１號","OBJECTID":269134},"geometry":{"x":166903.81000000145,"y":2540998.7100000009}},{"attributes":{"ID":269140,"DIS_CODE":0,"TOWNNAME":"南區","LI":"白雪里","LIN":"17鄰","STREET":"新都路","SECT":" ","MAREA":" ","LANE":"６１２巷","ALLEY":" ","HOUSE_NO":"４１號","E_COORD97":166869.91,"N_COORD97":2541006.5800000001,"ADDRESS":"新都路６１２巷４１號","OBJECTID":269135},"geometry":{"x":166869.91000000201,"y":2541006.5800000038}},{"attributes":{"ID":269141,"DIS_CODE":0,"TOWNNAME":"安平區","LI":"文平里","LIN":"17鄰","STREET":"建平三街","SECT":" ","MAREA":" ","LANE":"６５巷","ALLEY":" ","HOUSE_NO":"２６號","E_COORD97":165745.89999999999,"N_COORD97":2542844.6899999999,"ADDRESS":"建平三街６５巷２６號","OBJECTID":269136},"geometry":{"x":165745.90000000037,"y":2542844.6899999995}},{"attributes":{"ID":269142,"DIS_CODE":0,"TOWNNAME":"安平區","LI":"文平里","LIN":"17鄰","STREET":"建平三街","SECT":" ","MAREA":" ","LANE":"６５巷","ALLEY":" ","HOUSE_NO":"２８號","E_COORD97":165744.713418,"N_COORD97":2542840.0787499999,"ADDRESS":"建平三街６５巷２８號","OBJECTID":269137},"geometry":{"x":165744.71341800038,"y":2542840.0787470024}},{"attributes":{"ID":269143,"DIS_CODE":0,"TOWNNAME":"安平區","LI":"國平里","LIN":"17鄰","STREET":"華平路","SECT":" ","MAREA":" ","LANE":"２１巷","ALLEY":" ","HOUSE_NO":"３６號","E_COORD97":165205.39000000001,"N_COORD97":2542809.1600000001,"ADDRESS":"華平路２１巷３６號","OBJECTID":269138},"geometry":{"x":165205.3900000006,"y":2542809.1600000001}},{"attributes":{"ID":269144,"DIS_CODE":0,"TOWNNAME":"北區","LI":"文元里","LIN":"17鄰","STREET":"文賢路","SECT":" ","MAREA":" ","LANE":"１０３０巷","ALLEY":" ","HOUSE_NO":"１９號","E_COORD97":167468.67000000001,"N_COORD97":2546083.5499999998,"ADDRESS":"文賢路１０３０巷１９號","OBJECTID":269139},"geometry":{"x":167468.67000000086,"y":2546083.5500000026}},{"attributes":{"ID":269145,"DIS_CODE":0,"TOWNNAME":"北區","LI":"文元里","LIN":"17鄰","STREET":"文賢路","SECT":" ","MAREA":" ","LANE":"１０３０巷","ALLEY":" ","HOUSE_NO":"２３號","E_COORD97":167476.67000000001,"N_COORD97":2546083.9300000002,"ADDRESS":"文賢路１０３０巷２３號","OBJECTID":269140},"geometry":{"x":167476.67000000086,"y":2546083.9300000016}},{"attributes":{"ID":269146,"DIS_CODE":0,"TOWNNAME":"北區","LI":"興南里","LIN":"5鄰","STREET":"公園路","SECT":" ","MAREA":" ","LANE":"３２１巷","ALLEY":" ","HOUSE_NO":"７３號","E_COORD97":168760.94,"N_COORD97":2544958.04,"ADDRESS":"公園路３２１巷７３號","OBJECTID":269141},"geometry":{"x":168760.94000000041,"y":2544958.0399999991}},{"attributes":{"ID":269147,"DIS_CODE":0,"TOWNNAME":"北區","LI":"興南里","LIN":"5鄰","STREET":"公園路","SECT":" ","MAREA":" ","LANE":"３２１巷","ALLEY":" ","HOUSE_NO":"７５號","E_COORD97":168751.09,"N_COORD97":2544957.3399999999,"ADDRESS":"公園路３２１巷７５號","OBJECTID":269142},"geometry":{"x":168751.08999999985,"y":2544957.339999998}},{"attributes":{"ID":269148,"DIS_CODE":0,"TOWNNAME":"北區","LI":"文成里","LIN":"17鄰","STREET":"文賢路","SECT":" ","MAREA":" ","LANE":"２４２巷","ALLEY":" ","HOUSE_NO":"１６號","E_COORD97":167411.51000000001,"N_COORD97":2545004.1899999999,"ADDRESS":"文賢路２４２巷１６號","OBJECTID":269143},"geometry":{"x":167411.51000000071,"y":2545004.1899999995}},{"attributes":{"ID":269149,"DIS_CODE":0,"TOWNNAME":"北區","LI":"和順里","LIN":"17鄰","STREET":"民德路","SECT":" ","MAREA":" ","LANE":"９５巷","ALLEY":" ","HOUSE_NO":"５１號","E_COORD97":168120.01999999999,"N_COORD97":2545078.8999999999,"ADDRESS":"民德路９５巷５１號","OBJECTID":269144},"geometry":{"x":168120.02000000048,"y":2545078.9000000004}},{"attributes":{"ID":269150,"DIS_CODE":0,"TOWNNAME":"北區","LI":"和順里","LIN":"17鄰","STREET":"民德路","SECT":" ","MAREA":" ","LANE":"９５巷","ALLEY":" ","HOUSE_NO":"２３號","E_COORD97":168174.75,"N_COORD97":2545099.96,"ADDRESS":"民德路９５巷２３號","OBJECTID":269145},"geometry":{"x":168174.75000000093,"y":2545099.959999999}},{"attributes":{"ID":269151,"DIS_CODE":0,"TOWNNAME":"北區","LI":"實踐里","LIN":"17鄰","STREET":"大武街","SECT":" ","MAREA":" ","LANE":"１５４巷","ALLEY":" ","HOUSE_NO":"１號","E_COORD97":169659.42999999999,"N_COORD97":2546071.4399999999,"ADDRESS":"大武街１５４巷１號","OBJECTID":269146},"geometry":{"x":169659.43000000156,"y":2546071.4399999995}},{"attributes":{"ID":269152,"DIS_CODE":0,"TOWNNAME":"北區","LI":"實踐里","LIN":"17鄰","STREET":"大武街","SECT":" ","MAREA":" ","LANE":"１５４巷","ALLEY":" ","HOUSE_NO":"２號","E_COORD97":169658.25,"N_COORD97":2546056.8999999999,"ADDRESS":"大武街１５４巷２號","OBJECTID":269147},"geometry":{"x":169658.25000000093,"y":2546056.9000000022}},{"attributes":{"ID":269153,"DIS_CODE":0,"TOWNNAME":"北區","LI":"實踐里","LIN":"17鄰","STREET":"大武街","SECT":" ","MAREA":" ","LANE":"１５４巷","ALLEY":" ","HOUSE_NO":"３號","E_COORD97":169663.95000000001,"N_COORD97":2546070.9500000002,"ADDRESS":"大武街１５４巷３號","OBJECTID":269148},"geometry":{"x":169663.95000000112,"y":2546070.9499999993}},{"attributes":{"ID":269154,"DIS_CODE":0,"TOWNNAME":"新營區","LI":"南興里","LIN":"17鄰","STREET":"興農街","SECT":" ","MAREA":" ","LANE":"１４０巷","ALLEY":" ","HOUSE_NO":"２１之２號","E_COORD97":179168.89999999999,"N_COORD97":2577526.8599999999,"ADDRESS":"興農街１４０巷２１之２號","OBJECTID":269149},"geometry":{"x":179168.9000000013,"y":2577526.8599999994}},{"attributes":{"ID":269155,"DIS_CODE":0,"TOWNNAME":"新營區","LI":"民榮里","LIN":"17鄰","STREET":"裕民路","SECT":" ","MAREA":" ","LANE":"５８巷","ALLEY":" ","HOUSE_NO":"５號","E_COORD97":179109.03,"N_COORD97":2577780.6800000002,"ADDRESS":"裕民路５８巷５號","OBJECTID":269150},"geometry":{"x":179109.03000000119,"y":2577780.6800000034}},{"attributes":{"ID":269156,"DIS_CODE":0,"TOWNNAME":"新營區","LI":"民榮里","LIN":"17鄰","STREET":"裕民路","SECT":" ","MAREA":" ","LANE":"５８巷","ALLEY":" ","HOUSE_NO":"７號","E_COORD97":179104.94,"N_COORD97":2577780.7000000002,"ADDRESS":"裕民路５８巷７號","OBJECTID":269151},"geometry":{"x":179104.94000000041,"y":2577780.7000000011}},{"attributes":{"ID":269157,"DIS_CODE":0,"TOWNNAME":"新營區","LI":"南興里","LIN":"17鄰","STREET":"興農街","SECT":" ","MAREA":" ","LANE":"１４０巷","ALLEY":" ","HOUSE_NO":"２７之３號","E_COORD97":179151.5,"N_COORD97":2577526.9500000002,"ADDRESS":"興農街１４０巷２７之３號","OBJECTID":269152},"geometry":{"x":179151.50000000093,"y":2577526.9499999993}},{"attributes":{"ID":269158,"DIS_CODE":0,"TOWNNAME":"新營區","LI":"民榮里","LIN":"17鄰","STREET":"裕民路","SECT":" ","MAREA":" ","LANE":"５８巷","ALLEY":" ","HOUSE_NO":"１之２號","E_COORD97":179110.60999999999,"N_COORD97":2577806.2200000002,"ADDRESS":"裕民路５８巷１之２號","OBJECTID":269153},"geometry":{"x":179110.61000000034,"y":2577806.2200000025}},{"attributes":{"ID":269159,"DIS_CODE":0,"TOWNNAME":"新化區","LI":"東榮里","LIN":"17鄰","STREET":"中興路","SECT":" ","MAREA":" ","LANE":"６７７巷","ALLEY":" ","HOUSE_NO":"１４號","E_COORD97":179608.26000000001,"N_COORD97":2547999.25,"ADDRESS":"中興路６７７巷１４號","OBJECTID":269154},"geometry":{"x":179608.26000000071,"y":2547999.2499999981}},{"attributes":{"ID":269160,"DIS_CODE":0,"TOWNNAME":"新化區","LI":"東榮里","LIN":"17鄰","STREET":"中興路","SECT":" ","MAREA":" ","LANE":"６７７巷","ALLEY":" ","HOUSE_NO":"３２號","E_COORD97":179590.06,"N_COORD97":2547962.25,"ADDRESS":"中興路６７７巷３２號","OBJECTID":269155},"geometry":{"x":179590.05999999959,"y":2547962.2500000037}},{"attributes":{"ID":269161,"DIS_CODE":0,"TOWNNAME":"新化區","LI":"東榮里","LIN":"17鄰","STREET":"中興路","SECT":" ","MAREA":" ","LANE":"６７７巷","ALLEY":" ","HOUSE_NO":"２７號","E_COORD97":179609.85999999999,"N_COORD97":2547971.25,"ADDRESS":"中興路６７７巷２７號","OBJECTID":269156},"geometry":{"x":179609.86000000127,"y":2547971.25}},{"attributes":{"ID":269162,"DIS_CODE":0,"TOWNNAME":"歸仁區","LI":"六甲里","LIN":"17鄰","STREET":"六甲路","SECT":" ","MAREA":" ","LANE":"３２１巷","ALLEY":" ","HOUSE_NO":"１４號","E_COORD97":175719.486745,"N_COORD97":2539187.9135599998,"ADDRESS":"六甲路３２１巷１４號","OBJECTID":269157},"geometry":{"x":175719.48674500082,"y":2539187.9135550037}},{"attributes":{"ID":269163,"DIS_CODE":0,"TOWNNAME":"歸仁區","LI":"六甲里","LIN":"17鄰","STREET":"六甲路","SECT":" ","MAREA":" ","LANE":"３２１巷","ALLEY":" ","HOUSE_NO":"１２號","E_COORD97":175719.486745,"N_COORD97":2539192.6760499999,"ADDRESS":"六甲路３２１巷１２號","OBJECTID":269158},"geometry":{"x":175719.48674500082,"y":2539192.6760520004}},{"attributes":{"ID":269164,"DIS_CODE":0,"TOWNNAME":"新化區","LI":"東榮里","LIN":"17鄰","STREET":"中興路","SECT":" ","MAREA":" ","LANE":"６７７巷","ALLEY":" ","HOUSE_NO":"９號","E_COORD97":179622.91,"N_COORD97":2548027.25,"ADDRESS":"中興路６７７巷９號","OBJECTID":269159},"geometry":{"x":179622.91000000108,"y":2548027.2500000019}},{"attributes":{"ID":269165,"DIS_CODE":0,"TOWNNAME":"麻豆區","LI":"龍泉里","LIN":"3鄰","STREET":" ","SECT":" ","MAREA":"溝子墘","LANE":" ","ALLEY":" ","HOUSE_NO":"２１號","E_COORD97":173977.79000000001,"N_COORD97":2564219.54,"ADDRESS":"溝子墘２１號","OBJECTID":269160},"geometry":{"x":173977.79000000004,"y":2564219.5400000028}},{"attributes":{"ID":269166,"DIS_CODE":0,"TOWNNAME":"麻豆區","LI":"龍泉里","LIN":"3鄰","STREET":" ","SECT":" ","MAREA":"溝子墘","LANE":" ","ALLEY":" ","HOUSE_NO":"２２號","E_COORD97":173988.79000000001,"N_COORD97":2564237.8999999999,"ADDRESS":"溝子墘２２號","OBJECTID":269161},"geometry":{"x":173988.79000000097,"y":2564237.9000000004}},{"attributes":{"ID":269167,"DIS_CODE":0,"TOWNNAME":"新化區","LI":"東榮里","LIN":"17鄰","STREET":"中興路","SECT":" ","MAREA":" ","LANE":"６７７巷","ALLEY":" ","HOUSE_NO":"３７號","E_COORD97":179609.85999999999,"N_COORD97":2547950.25,"ADDRESS":"中興路６７７巷３７號","OBJECTID":269162},"geometry":{"x":179609.86000000127,"y":2547950.2500000019}},{"attributes":{"ID":269168,"DIS_CODE":0,"TOWNNAME":"新化區","LI":"東榮里","LIN":"17鄰","STREET":"中興路","SECT":" ","MAREA":" ","LANE":"６７７巷","ALLEY":" ","HOUSE_NO":"２號","E_COORD97":179607.70999999999,"N_COORD97":2548018.25,"ADDRESS":"中興路６７７巷２號","OBJECTID":269163},"geometry":{"x":179607.71000000089,"y":2548018.25}},{"attributes":{"ID":269169,"DIS_CODE":0,"TOWNNAME":"安平區","LI":"億載里","LIN":"17鄰","STREET":"平豐路","SECT":" ","MAREA":" ","LANE":"４３巷","ALLEY":" ","HOUSE_NO":"２２號之１","E_COORD97":164257.39999999999,"N_COORD97":2543008.4300000002,"ADDRESS":"平豐路４３巷２２號之１","OBJECTID":269164},"geometry":{"x":164257.40000000037,"y":2543008.4300000016}},{"attributes":{"ID":269170,"DIS_CODE":0,"TOWNNAME":"永康區","LI":"東橋里","LIN":"17鄰","STREET":"東橋三路","SECT":" ","MAREA":" ","LANE":"２１３巷","ALLEY":" ","HOUSE_NO":"８號","E_COORD97":171403.01999999999,"N_COORD97":2546908.25,"ADDRESS":"東橋三路２１３巷８號","OBJECTID":269165},"geometry":{"x":171403.02000000142,"y":2546908.2500000019}},{"attributes":{"ID":269171,"DIS_CODE":0,"TOWNNAME":"永康區","LI":"東橋里","LIN":"17鄰","STREET":"東橋三路","SECT":" ","MAREA":" ","LANE":"２１３巷","ALLEY":" ","HOUSE_NO":"６號","E_COORD97":171407.79999999999,"N_COORD97":2546911.21,"ADDRESS":"東橋三路２１３巷６號","OBJECTID":269166},"geometry":{"x":171407.79999999981,"y":2546911.2100000009}},{"attributes":{"ID":269172,"DIS_CODE":0,"TOWNNAME":"麻豆區","LI":"龍泉里","LIN":"3鄰","STREET":" ","SECT":" ","MAREA":"溝子墘","LANE":" ","ALLEY":" ","HOUSE_NO":"２３號","E_COORD97":174008.32999999999,"N_COORD97":2564221.04,"ADDRESS":"溝子墘２３號","OBJECTID":269167},"geometry":{"x":174008.33000000007,"y":2564221.040000001}},{"attributes":{"ID":269173,"DIS_CODE":0,"TOWNNAME":"麻豆區","LI":"龍泉里","LIN":"3鄰","STREET":" ","SECT":" ","MAREA":"溝子墘","LANE":" ","ALLEY":" ","HOUSE_NO":"２４號之１","E_COORD97":173972.16,"N_COORD97":2564160.9500000002,"ADDRESS":"溝子墘２４號之１","OBJECTID":269168},"geometry":{"x":173972.16000000015,"y":2564160.9500000011}},{"attributes":{"ID":269174,"DIS_CODE":0,"TOWNNAME":"歸仁區","LI":"南保里","LIN":"3鄰","STREET":"民權二街","SECT":" ","MAREA":" ","LANE":" ","ALLEY":" ","HOUSE_NO":"５９號","E_COORD97":176933.19,"N_COORD97":2541411.29,"ADDRESS":"民權二街５９號","OBJECTID":269169},"geometry":{"x":176933.19000000134,"y":2541411.290000001}},{"attributes":{"ID":269175,"DIS_CODE":0,"TOWNNAME":"歸仁區","LI":"南興里","LIN":"3鄰","STREET":"文化十二街","SECT":" ","MAREA":" ","LANE":" ","ALLEY":" ","HOUSE_NO":"５７號","E_COORD97":176457.19,"N_COORD97":2541307.3300000001,"ADDRESS":"文化十二街５７號","OBJECTID":269170},"geometry":{"x":176457.19000000041,"y":2541307.3300000019}},{"attributes":{"ID":269176,"DIS_CODE":0,"TOWNNAME":"永康區","LI":"烏竹里","LIN":"17鄰","STREET":"竹南街","SECT":" ","MAREA":" ","LANE":"５６巷","ALLEY":" ","HOUSE_NO":"１７號","E_COORD97":174428.29999999999,"N_COORD97":2548875.9100000001,"ADDRESS":"竹南街５６巷１７號","OBJECTID":269171},"geometry":{"x":174428.29999999981,"y":2548875.9100000001}},{"attributes":{"ID":269177,"DIS_CODE":0,"TOWNNAME":"永康區","LI":"東橋里","LIN":"17鄰","STREET":"東橋三路","SECT":" ","MAREA":" ","LANE":"２１３巷","ALLEY":" ","HOUSE_NO":"２號","E_COORD97":171412.54000000001,"N_COORD97":2546913.6200000001,"ADDRESS":"東橋三路２１３巷２號","OBJECTID":269172},"geometry":{"x":171412.54000000097,"y":2546913.6200000029}},{"attributes":{"ID":269178,"DIS_CODE":0,"TOWNNAME":"永康區","LI":"烏竹里","LIN":"17鄰","STREET":"竹南街","SECT":" ","MAREA":" ","LANE":"５６巷","ALLEY":" ","HOUSE_NO":"５６號","E_COORD97":174456.54999999999,"N_COORD97":2548859.6099999999,"ADDRESS":"竹南街５６巷５６號","OBJECTID":269173},"geometry":{"x":174456.55000000075,"y":2548859.6099999994}},{"attributes":{"ID":269179,"DIS_CODE":0,"TOWNNAME":"歸仁區","LI":"南保里","LIN":"3鄰","STREET":"民權二街","SECT":" ","MAREA":" ","LANE":" ","ALLEY":" ","HOUSE_NO":"６１號","E_COORD97":176951.59,"N_COORD97":2541406.29,"ADDRESS":"民權二街６１號","OBJECTID":269174},"geometry":{"x":176951.59000000078,"y":2541406.2899999991}},{"attributes":{"ID":269180,"DIS_CODE":0,"TOWNNAME":"永康區","LI":"東橋里","LIN":"17鄰","STREET":"東橋十街","SECT":" ","MAREA":" ","LANE":"８８巷","ALLEY":" ","HOUSE_NO":"５號","E_COORD97":171411.51999999999,"N_COORD97":2546884.6299999999,"ADDRESS":"東橋十街８８巷５號","OBJECTID":269175},"geometry":{"x":171411.52000000142,"y":2546884.6300000008}},{"attributes":{"ID":269181,"DIS_CODE":0,"TOWNNAME":"永康區","LI":"烏竹里","LIN":"17鄰","STREET":"竹南街","SECT":" ","MAREA":" ","LANE":"５６巷","ALLEY":" ","HOUSE_NO":"２１號","E_COORD97":174426.45000000001,"N_COORD97":2548886.5299999998,"ADDRESS":"竹南街５６巷２１號","OBJECTID":269176},"geometry":{"x":174426.45000000019,"y":2548886.5300000012}},{"attributes":{"ID":269182,"DIS_CODE":0,"TOWNNAME":"永康區","LI":"東橋里","LIN":"17鄰","STREET":"東橋三路","SECT":" ","MAREA":" ","LANE":"２１３巷","ALLEY":" ","HOUSE_NO":"１號","E_COORD97":171417.92999999999,"N_COORD97":2546895.27,"ADDRESS":"東橋三路２１３巷１號","OBJECTID":269177},"geometry":{"x":171417.93000000063,"y":2546895.2700000014}},{"attributes":{"ID":269183,"DIS_CODE":0,"TOWNNAME":"歸仁區","LI":"南保里","LIN":"3鄰","STREET":"民權二街","SECT":" ","MAREA":" ","LANE":" ","ALLEY":" ","HOUSE_NO":"６３號","E_COORD97":176951.69,"N_COORD97":2541411.29,"ADDRESS":"民權二街６３號","OBJECTID":269178},"geometry":{"x":176951.69000000134,"y":2541411.290000001}},{"attributes":{"ID":269184,"DIS_CODE":0,"TOWNNAME":"永康區","LI":"烏竹里","LIN":"17鄰","STREET":"竹南街","SECT":" ","MAREA":" ","LANE":"５６巷","ALLEY":" ","HOUSE_NO":"６２號","E_COORD97":174453.94,"N_COORD97":2548877.4700000002,"ADDRESS":"竹南街５６巷６２號","OBJECTID":269179},"geometry":{"x":174453.94000000041,"y":2548877.4700000025}},{"attributes":{"ID":269185,"DIS_CODE":0,"TOWNNAME":"永康區","LI":"東橋里","LIN":"17鄰","STREET":"東橋十街","SECT":" ","MAREA":" ","LANE":"８８巷","ALLEY":" ","HOUSE_NO":"１２號","E_COORD97":171394.01000000001,"N_COORD97":2546863.3999999999,"ADDRESS":"東橋十街８８巷１２號","OBJECTID":269180},"geometry":{"x":171394.01000000071,"y":2546863.4000000022}},{"attributes":{"ID":269186,"DIS_CODE":0,"TOWNNAME":"歸仁區","LI":"南保里","LIN":"3鄰","STREET":"民權二街","SECT":" ","MAREA":" ","LANE":" ","ALLEY":" ","HOUSE_NO":"６７號","E_COORD97":176951.69,"N_COORD97":2541419.29,"ADDRESS":"民權二街６７號","OBJECTID":269181},"geometry":{"x":176951.69000000134,"y":2541419.2899999991}},{"attributes":{"ID":269187,"DIS_CODE":0,"TOWNNAME":"歸仁區","LI":"歸仁里","LIN":"3鄰","STREET":"中正北路","SECT":"一段","MAREA":" ","LANE":" ","ALLEY":" ","HOUSE_NO":"４２號","E_COORD97":177685.48000000001,"N_COORD97":2540953.04,"ADDRESS":"中正北路一段４２號","OBJECTID":269182},"geometry":{"x":177685.48000000138,"y":2540953.040000001}},{"attributes":{"ID":269188,"DIS_CODE":0,"TOWNNAME":"永康區","LI":"東橋里","LIN":"17鄰","STREET":"東橋三路","SECT":" ","MAREA":" ","LANE":"２１３巷","ALLEY":" ","HOUSE_NO":"７號","E_COORD97":171404.12,"N_COORD97":2546888.4700000002,"ADDRESS":"東橋三路２１３巷７號","OBJECTID":269183},"geometry":{"x":171404.12000000011,"y":2546888.4700000007}},{"attributes":{"ID":269189,"DIS_CODE":0,"TOWNNAME":"歸仁區","LI":"歸仁里","LIN":"3鄰","STREET":"大通路","SECT":" ","MAREA":" ","LANE":" ","ALLEY":" ","HOUSE_NO":"７６號","E_COORD97":177723.57999999999,"N_COORD97":2540900.3399999999,"ADDRESS":"大通路７６號","OBJECTID":269184},"geometry":{"x":177723.58000000101,"y":2540900.3400000017}},{"attributes":{"ID":269190,"DIS_CODE":0,"TOWNNAME":"永康區","LI":"東橋里","LIN":"17鄰","STREET":"東橋十街","SECT":" ","MAREA":" ","LANE":"８８巷","ALLEY":" ","HOUSE_NO":"１１號","E_COORD97":171417.56,"N_COORD97":2546871.9300000002,"ADDRESS":"東橋十街８８巷１１號","OBJECTID":269185},"geometry":{"x":171417.55999999959,"y":2546871.9299999997}},{"attributes":{"ID":269191,"DIS_CODE":0,"TOWNNAME":"麻豆區","LI":"龍泉里","LIN":"3鄰","STREET":" ","SECT":" ","MAREA":"溝子墘","LANE":" ","ALLEY":" ","HOUSE_NO":"３２號","E_COORD97":174042.69,"N_COORD97":2564164.0499999998,"ADDRESS":"溝子墘３２號","OBJECTID":269186},"geometry":{"x":174042.69000000134,"y":2564164.0500000026}},{"attributes":{"ID":269192,"DIS_CODE":0,"TOWNNAME":"歸仁區","LI":"媽廟里","LIN":"3鄰","STREET":"和順路","SECT":"一段","MAREA":" ","LANE":" ","ALLEY":" ","HOUSE_NO":"２８５號","E_COORD97":176727.51999999999,"N_COORD97":2543639.25,"ADDRESS":"和順路一段２８５號","OBJECTID":269187},"geometry":{"x":176727.51999999862,"y":2543639.2499999981}},{"attributes":{"ID":269193,"DIS_CODE":0,"TOWNNAME":"歸仁區","LI":"歸仁里","LIN":"3鄰","STREET":"中正北路","SECT":"一段","MAREA":" ","LANE":" ","ALLEY":" ","HOUSE_NO":"６６號","E_COORD97":177692.88,"N_COORD97":2540995.04,"ADDRESS":"中正北路一段６６號","OBJECTID":269188},"geometry":{"x":177692.87999999989,"y":2540995.0399999991}},{"attributes":{"ID":269194,"DIS_CODE":0,"TOWNNAME":"歸仁區","LI":"媽廟里","LIN":"3鄰","STREET":"媽廟一街","SECT":" ","MAREA":" ","LANE":" ","ALLEY":" ","HOUSE_NO":"５２號","E_COORD97":177347.42999999999,"N_COORD97":2543556.7200000002,"ADDRESS":"媽廟一街５２號","OBJECTID":269189},"geometry":{"x":177347.43000000063,"y":2543556.7200000025}},{"attributes":{"ID":269195,"DIS_CODE":0,"TOWNNAME":"麻豆區","LI":"龍泉里","LIN":"3鄰","STREET":" ","SECT":" ","MAREA":"溝子墘","LANE":" ","ALLEY":" ","HOUSE_NO":"３３號","E_COORD97":174046.98999999999,"N_COORD97":2564139.04,"ADDRESS":"溝子墘３３號","OBJECTID":269190},"geometry":{"x":174046.99000000115,"y":2564139.040000001}},{"attributes":{"ID":269196,"DIS_CODE":0,"TOWNNAME":"麻豆區","LI":"龍泉里","LIN":"3鄰","STREET":" ","SECT":" ","MAREA":"溝子墘","LANE":" ","ALLEY":" ","HOUSE_NO":"３４號","E_COORD97":174038.60999999999,"N_COORD97":2564124.25,"ADDRESS":"溝子墘３４號","OBJECTID":269191},"geometry":{"x":174038.61000000034,"y":2564124.2500000037}},{"attributes":{"ID":269197,"DIS_CODE":0,"TOWNNAME":"歸仁區","LI":"新厝里","LIN":"3鄰","STREET":"和平南街","SECT":" ","MAREA":" ","LANE":" ","ALLEY":" ","HOUSE_NO":"３８號","E_COORD97":177811.97,"N_COORD97":2540662.25,"ADDRESS":"和平南街３８號","OBJECTID":269192},"geometry":{"x":177811.97000000067,"y":2540662.25}},{"attributes":{"ID":269198,"DIS_CODE":0,"TOWNNAME":"歸仁區","LI":"歸南里","LIN":"3鄰","STREET":"民權南路","SECT":" ","MAREA":" ","LANE":" ","ALLEY":" ","HOUSE_NO":"２４２號","E_COORD97":176942.51000000001,"N_COORD97":2540245.5,"ADDRESS":"民權南路２４２號","OBJECTID":269193},"geometry":{"x":176942.50999999978,"y":2540245.5000000019}},{"attributes":{"ID":269199,"DIS_CODE":0,"TOWNNAME":"將軍區","LI":"三吉里","LIN":"2鄰","STREET":" ","SECT":" ","MAREA":"三吉","LANE":" ","ALLEY":" ","HOUSE_NO":"１２號","E_COORD97":161403.73000000001,"N_COORD97":2567687.6899999999,"ADDRESS":"三吉１２號","OBJECTID":269194},"geometry":{"x":161403.73000000045,"y":2567687.6900000013}},{"attributes":{"ID":269200,"DIS_CODE":0,"TOWNNAME":"歸仁區","LI":"媽廟里","LIN":"3鄰","STREET":"和順路","SECT":"一段","MAREA":" ","LANE":" ","ALLEY":" ","HOUSE_NO":"２９３號","E_COORD97":176704.92000000001,"N_COORD97":2543643.25,"ADDRESS":"和順路一段２９３號","OBJECTID":269195},"geometry":{"x":176704.92000000179,"y":2543643.2500000019}},{"attributes":{"ID":269201,"DIS_CODE":0,"TOWNNAME":"歸仁區","LI":"新厝里","LIN":"3鄰","STREET":"和平南街","SECT":" ","MAREA":" ","LANE":" ","ALLEY":" ","HOUSE_NO":"３４號","E_COORD97":177815.07000000001,"N_COORD97":2540669.25,"ADDRESS":"和平南街３４號","OBJECTID":269196},"geometry":{"x":177815.07000000123,"y":2540669.2499999981}},{"attributes":{"ID":269202,"DIS_CODE":0,"TOWNNAME":"永康區","LI":"東橋里","LIN":"17鄰","STREET":"東橋三路","SECT":" ","MAREA":" ","LANE":"２１３巷","ALLEY":" ","HOUSE_NO":"１２號","E_COORD97":171394.39999999999,"N_COORD97":2546902.8900000001,"ADDRESS":"東橋三路２１３巷１２號","OBJECTID":269197},"geometry":{"x":171394.40000000037,"y":2546902.8900000006}},{"attributes":{"ID":269203,"DIS_CODE":0,"TOWNNAME":"永康區","LI":"烏竹里","LIN":"17鄰","STREET":"竹南街","SECT":" ","MAREA":" ","LANE":"５６巷","ALLEY":" ","HOUSE_NO":"６８號","E_COORD97":174449,"N_COORD97":2548887.0299999998,"ADDRESS":"竹南街５６巷６８號","OBJECTID":269198},"geometry":{"x":174449.00000000093,"y":2548887.0299999993}},{"attributes":{"ID":269204,"DIS_CODE":0,"TOWNNAME":"歸仁區","LI":"新厝里","LIN":"3鄰","STREET":"和平南街","SECT":" ","MAREA":" ","LANE":" ","ALLEY":" ","HOUSE_NO":"３２號","E_COORD97":177816.07000000001,"N_COORD97":2540673.25,"ADDRESS":"和平南街３２號","OBJECTID":269199},"geometry":{"x":177816.0700000003,"y":2540673.2500000019}},{"attributes":{"ID":269205,"DIS_CODE":0,"TOWNNAME":"歸仁區","LI":"媽廟里","LIN":"3鄰","STREET":"媽廟一街","SECT":" ","MAREA":" ","LANE":" ","ALLEY":" ","HOUSE_NO":"５６號","E_COORD97":177339.42999999999,"N_COORD97":2543595.7200000002,"ADDRESS":"媽廟一街５６號","OBJECTID":269200},"geometry":{"x":177339.43000000063,"y":2543595.7200000007}}]}