{"displayFieldName":"TOWNNAME","fieldAliases":{"ID":"ID","DIS_CODE":"DIS_CODE","TOWNNAME":"TOWNNAME","LI":"LI","LIN":"LIN","STREET":"STREET","SECT":"SECT","MAREA":"MAREA","LANE":"LANE","ALLEY":"ALLEY","HOUSE_NO":"HOUSE_NO","E_COORD97":"E_COORD97","N_COORD97":"N_COORD97","ADDRESS":"ADDRESS","OBJECTID":"OBJECTID"},"geometryType":"esriGeometryPoint","spatialReference":{"wkid":102443,"latestWkid":3826},"fields":[{"name":"ID","type":"esriFieldTypeDouble","alias":"ID"},{"name":"DIS_CODE","type":"esriFieldTypeInteger","alias":"DIS_CODE"},{"name":"TOWNNAME","type":"esriFieldTypeString","alias":"TOWNNAME","length":8},{"name":"LI","type":"esriFieldTypeString","alias":"LI","length":8},{"name":"LIN","type":"esriFieldTypeString","alias":"LIN","length":12},{"name":"STREET","type":"esriFieldTypeString","alias":"STREET","length":20},{"name":"SECT","type":"esriFieldTypeString","alias":"SECT","length":8},{"name":"MAREA","type":"esriFieldTypeString","alias":"MAREA","length":12},{"name":"LANE","type":"esriFieldTypeString","alias":"LANE","length":10},{"name":"ALLEY","type":"esriFieldTypeString","alias":"ALLEY","length":10},{"name":"HOUSE_NO","type":"esriFieldTypeString","alias":"HOUSE_NO","length":20},{"name":"E_COORD97","type":"esriFieldTypeDouble","alias":"E_COORD97"},{"name":"N_COORD97","type":"esriFieldTypeDouble","alias":"N_COORD97"},{"name":"ADDRESS","type":"esriFieldTypeString","alias":"ADDRESS","length":50},{"name":"OBJECTID","type":"esriFieldTypeOID","alias":"OBJECTID"}],"features":[{"attributes":{"ID":661428,"DIS_CODE":0,"TOWNNAME":"善化區","LI":"牛庄里","LIN":"2鄰","STREET":" ","SECT":" ","MAREA":"牛庄","LANE":" ","ALLEY":" ","HOUSE_NO":"２６號之７","E_COORD97":180344.56307999999,"N_COORD97":2559751.7107799998,"ADDRESS":"牛庄２６號之７","OBJECTID":661401},"geometry":{"x":180344.56308000162,"y":2559751.7107799985}},{"attributes":{"ID":661429,"DIS_CODE":0,"TOWNNAME":"善化區","LI":"牛庄里","LIN":"1鄰","STREET":" ","SECT":" ","MAREA":"牛庄","LANE":" ","ALLEY":" ","HOUSE_NO":"１６號之２","E_COORD97":180312.34956999999,"N_COORD97":2559699.4291400001,"ADDRESS":"牛庄１６號之２","OBJECTID":661402},"geometry":{"x":180312.34957000054,"y":2559699.4291399997}},{"attributes":{"ID":661430,"DIS_CODE":0,"TOWNNAME":"善化區","LI":"田寮里","LIN":"10鄰","STREET":" ","SECT":" ","MAREA":"六分寮","LANE":" ","ALLEY":" ","HOUSE_NO":"１０９號","E_COORD97":178594.283425,"N_COORD97":2561392.8815000001,"ADDRESS":"六分寮１０９號","OBJECTID":661403},"geometry":{"x":178594.28342499956,"y":2561392.881500002}},{"attributes":{"ID":661431,"DIS_CODE":0,"TOWNNAME":"善化區","LI":"田寮里","LIN":"11鄰","STREET":" ","SECT":" ","MAREA":"六分寮","LANE":" ","ALLEY":" ","HOUSE_NO":"１１４號","E_COORD97":178669.51259999999,"N_COORD97":2561429.49981,"ADDRESS":"六分寮１１４號","OBJECTID":661404},"geometry":{"x":178669.51260000002,"y":2561429.499814}},{"attributes":{"ID":661432,"DIS_CODE":0,"TOWNNAME":"善化區","LI":"田寮里","LIN":"12鄰","STREET":" ","SECT":" ","MAREA":"六分寮","LANE":" ","ALLEY":" ","HOUSE_NO":"１３１號之３６","E_COORD97":178593.22385000001,"N_COORD97":2561238.7882500002,"ADDRESS":"六分寮１３１號之３６","OBJECTID":661405},"geometry":{"x":178593.22385000065,"y":2561238.7882499993}},{"attributes":{"ID":661433,"DIS_CODE":0,"TOWNNAME":"善化區","LI":"田寮里","LIN":"12鄰","STREET":" ","SECT":" ","MAREA":"六分寮","LANE":" ","ALLEY":" ","HOUSE_NO":"１３１之２８號","E_COORD97":178622.04405,"N_COORD97":2561150.76792,"ADDRESS":"六分寮１３１之２８號","OBJECTID":661406},"geometry":{"x":178622.04405000061,"y":2561150.7679210007}},{"attributes":{"ID":661434,"DIS_CODE":0,"TOWNNAME":"善化區","LI":"田寮里","LIN":"12鄰","STREET":" ","SECT":" ","MAREA":"六分寮","LANE":" ","ALLEY":" ","HOUSE_NO":"１３１號之２４","E_COORD97":178563.80092000001,"N_COORD97":2561134.71422,"ADDRESS":"六分寮１３１號之２４","OBJECTID":661407},"geometry":{"x":178563.80091999937,"y":2561134.7142200004}},{"attributes":{"ID":661435,"DIS_CODE":0,"TOWNNAME":"善化區","LI":"坐駕里","LIN":"13鄰","STREET":"大成路","SECT":" ","MAREA":" ","LANE":"３６７巷","ALLEY":" ","HOUSE_NO":"３３號","E_COORD97":178165.41263899999,"N_COORD97":2558700.06415,"ADDRESS":"大成路３６７巷３３號","OBJECTID":661408},"geometry":{"x":178165.41263900045,"y":2558700.0641450044}},{"attributes":{"ID":661436,"DIS_CODE":0,"TOWNNAME":"安定區","LI":"海寮里","LIN":"2鄰","STREET":" ","SECT":" ","MAREA":"海寮","LANE":" ","ALLEY":" ","HOUSE_NO":"２５之１９號","E_COORD97":169522.31681300001,"N_COORD97":2554686.3298200001,"ADDRESS":"海寮２５之１９號","OBJECTID":661409},"geometry":{"x":169522.31681299955,"y":2554686.3298209999}},{"attributes":{"ID":661437,"DIS_CODE":0,"TOWNNAME":"安定區","LI":"港南里","LIN":"17鄰","STREET":" ","SECT":" ","MAREA":"港口","LANE":" ","ALLEY":" ","HOUSE_NO":"１４０之４７號","E_COORD97":171632.26912700001,"N_COORD97":2554474.6897300002,"ADDRESS":"港口１４０之４７號","OBJECTID":661410},"geometry":{"x":171632.26912700105,"y":2554474.6897270009}},{"attributes":{"ID":661438,"DIS_CODE":0,"TOWNNAME":"安定區","LI":"港南里","LIN":"17鄰","STREET":" ","SECT":" ","MAREA":"港口","LANE":" ","ALLEY":" ","HOUSE_NO":"１４０之４８號","E_COORD97":171634.57294400001,"N_COORD97":2554473.7636899999,"ADDRESS":"港口１４０之４８號","OBJECTID":661411},"geometry":{"x":171634.57294400129,"y":2554473.7636859994}},{"attributes":{"ID":661439,"DIS_CODE":0,"TOWNNAME":"安定區","LI":"港南里","LIN":"1鄰","STREET":" ","SECT":" ","MAREA":"港口","LANE":" ","ALLEY":" ","HOUSE_NO":"１０之１３號","E_COORD97":171312.67407099999,"N_COORD97":2554267.6004599999,"ADDRESS":"港口１０之１３號","OBJECTID":661412},"geometry":{"x":171312.67407099996,"y":2554267.6004639994}},{"attributes":{"ID":661440,"DIS_CODE":0,"TOWNNAME":"安定區","LI":"南安里","LIN":"1鄰","STREET":" ","SECT":" ","MAREA":"油車","LANE":" ","ALLEY":" ","HOUSE_NO":"４之２１號","E_COORD97":170516.98327200001,"N_COORD97":2556406.7026399998,"ADDRESS":"油車４之２１號","OBJECTID":661413},"geometry":{"x":170516.98327200115,"y":2556406.7026420031}},{"attributes":{"ID":661441,"DIS_CODE":0,"TOWNNAME":"安定區","LI":"安定里","LIN":"4鄰","STREET":" ","SECT":" ","MAREA":"安定","LANE":" ","ALLEY":" ","HOUSE_NO":"７之３號","E_COORD97":172602.22913200001,"N_COORD97":2558095.8546500001,"ADDRESS":"安定７之３號","OBJECTID":661414},"geometry":{"x":172602.22913200129,"y":2558095.854646001}},{"attributes":{"ID":661442,"DIS_CODE":0,"TOWNNAME":"安定區","LI":"蘇林里","LIN":"6鄰","STREET":" ","SECT":" ","MAREA":"蘇厝","LANE":" ","ALLEY":" ","HOUSE_NO":"６３之２號","E_COORD97":173621.12539299999,"N_COORD97":2558629.4395699999,"ADDRESS":"蘇厝６３之２號","OBJECTID":661415},"geometry":{"x":173621.12539300043,"y":2558629.4395669997}},{"attributes":{"ID":661443,"DIS_CODE":0,"TOWNNAME":"安定區","LI":"港南里","LIN":"1鄰","STREET":" ","SECT":" ","MAREA":"港口","LANE":" ","ALLEY":" ","HOUSE_NO":"１之８５號","E_COORD97":170277.04203400001,"N_COORD97":2554272.0189999999,"ADDRESS":"港口１之８５號","OBJECTID":661416},"geometry":{"x":170277.04203400202,"y":2554272.019003002}},{"attributes":{"ID":661444,"DIS_CODE":0,"TOWNNAME":"安定區","LI":"安加里","LIN":"10鄰","STREET":" ","SECT":" ","MAREA":"安定","LANE":" ","ALLEY":" ","HOUSE_NO":"２５８之７３號","E_COORD97":172369.75544000001,"N_COORD97":2557386.5864900001,"ADDRESS":"安定２５８之７３號","OBJECTID":661417},"geometry":{"x":172369.75544000044,"y":2557386.586488001}},{"attributes":{"ID":661445,"DIS_CODE":0,"TOWNNAME":"安定區","LI":"海寮里","LIN":"1鄰","STREET":" ","SECT":" ","MAREA":"海寮","LANE":" ","ALLEY":" ","HOUSE_NO":"５之５０號","E_COORD97":168946.865644,"N_COORD97":2555096.0368900001,"ADDRESS":"海寮５之５０號","OBJECTID":661418},"geometry":{"x":168946.86564400233,"y":2555096.0368910003}},{"attributes":{"ID":661446,"DIS_CODE":0,"TOWNNAME":"安定區","LI":"海寮里","LIN":"1鄰","STREET":" ","SECT":" ","MAREA":"海寮","LANE":" ","ALLEY":" ","HOUSE_NO":"５之２４號","E_COORD97":168927.37588000001,"N_COORD97":2555130.7502100002,"ADDRESS":"海寮５之２４號","OBJECTID":661419},"geometry":{"x":168927.37588000204,"y":2555130.7502060011}},{"attributes":{"ID":661447,"DIS_CODE":0,"TOWNNAME":"安定區","LI":"新吉里","LIN":"7鄰","STREET":" ","SECT":" ","MAREA":"新吉","LANE":" ","ALLEY":" ","HOUSE_NO":"５８之１８號","E_COORD97":168893.53359899999,"N_COORD97":2553618.6572699999,"ADDRESS":"新吉５８之１８號","OBJECTID":661420},"geometry":{"x":168893.53359900042,"y":2553618.6572719999}},{"attributes":{"ID":661448,"DIS_CODE":0,"TOWNNAME":"安定區","LI":"安定里","LIN":"10鄰","STREET":" ","SECT":" ","MAREA":"安定","LANE":" ","ALLEY":" ","HOUSE_NO":"９２之１號","E_COORD97":172049.73669300001,"N_COORD97":2557779.4131499999,"ADDRESS":"安定９２之１號","OBJECTID":661421},"geometry":{"x":172049.73669300135,"y":2557779.4131509997}},{"attributes":{"ID":661449,"DIS_CODE":0,"TOWNNAME":"善化區","LI":"坐駕里","LIN":"19鄰","STREET":"大成路","SECT":" ","MAREA":" ","LANE":"３６７巷","ALLEY":" ","HOUSE_NO":"３４號","E_COORD97":178188.3708,"N_COORD97":2558697.2970699999,"ADDRESS":"大成路３６７巷３４號","OBJECTID":661422},"geometry":{"x":178188.37079999968,"y":2558697.2970710006}},{"attributes":{"ID":661450,"DIS_CODE":0,"TOWNNAME":"北區","LI":"文元里","LIN":"22鄰","STREET":"海安路","SECT":"三段","MAREA":" ","LANE":" ","ALLEY":" ","HOUSE_NO":"７４７號","E_COORD97":168022.86811800001,"N_COORD97":2545894.62745,"ADDRESS":"海安路三段７４７號","OBJECTID":661423},"geometry":{"x":168022.86811800022,"y":2545894.6274490003}},{"attributes":{"ID":661451,"DIS_CODE":0,"TOWNNAME":"北區","LI":"文元里","LIN":"22鄰","STREET":"海安路","SECT":"三段","MAREA":" ","LANE":" ","ALLEY":" ","HOUSE_NO":"７３１號","E_COORD97":168025.610942,"N_COORD97":2545861.7300399998,"ADDRESS":"海安路三段７３１號","OBJECTID":661424},"geometry":{"x":168025.61094199959,"y":2545861.7300400008}},{"attributes":{"ID":661452,"DIS_CODE":0,"TOWNNAME":"北區","LI":"文元里","LIN":"22鄰","STREET":"海安路","SECT":"三段","MAREA":" ","LANE":" ","ALLEY":" ","HOUSE_NO":"７３３號","E_COORD97":168019.46741899999,"N_COORD97":2545861.5183700002,"ADDRESS":"海安路三段７３３號","OBJECTID":661425},"geometry":{"x":168019.46741900034,"y":2545861.5183739997}},{"attributes":{"ID":661453,"DIS_CODE":0,"TOWNNAME":"北區","LI":"成德里","LIN":"20鄰","STREET":"文成三路","SECT":" ","MAREA":" ","LANE":" ","ALLEY":" ","HOUSE_NO":"１８９號","E_COORD97":168510.31376399999,"N_COORD97":2546354.9131100001,"ADDRESS":"文成三路１８９號","OBJECTID":661426},"geometry":{"x":168510.31376400124,"y":2546354.9131070022}},{"attributes":{"ID":661454,"DIS_CODE":0,"TOWNNAME":"北區","LI":"成功里","LIN":"8鄰","STREET":"北安路","SECT":"一段","MAREA":" ","LANE":"２１２巷","ALLEY":" ","HOUSE_NO":"３５號","E_COORD97":168868.121048,"N_COORD97":2546649.5529499999,"ADDRESS":"北安路一段２１２巷３５號","OBJECTID":661427},"geometry":{"x":168868.12104799971,"y":2546649.5529479999}},{"attributes":{"ID":661455,"DIS_CODE":0,"TOWNNAME":"北區","LI":"興北里","LIN":"7鄰","STREET":"公園北路","SECT":" ","MAREA":" ","LANE":"８８巷","ALLEY":" ","HOUSE_NO":"１之２號","E_COORD97":169119.58182200001,"N_COORD97":2545028.6104899999,"ADDRESS":"公園北路８８巷１之２號","OBJECTID":661428},"geometry":{"x":169119.58182200044,"y":2545028.6104899999}},{"attributes":{"ID":661456,"DIS_CODE":0,"TOWNNAME":"北區","LI":"公園里","LIN":"6鄰","STREET":"北忠街","SECT":" ","MAREA":" ","LANE":" ","ALLEY":" ","HOUSE_NO":"６９號二樓","E_COORD97":169100.950575,"N_COORD97":2544382.0861200001,"ADDRESS":"北忠街６９號二樓","OBJECTID":661429},"geometry":{"x":169100.95057499968,"y":2544382.0861190017}},{"attributes":{"ID":661457,"DIS_CODE":0,"TOWNNAME":"北區","LI":"公園里","LIN":"6鄰","STREET":"北忠街","SECT":" ","MAREA":" ","LANE":" ","ALLEY":" ","HOUSE_NO":"６９號三樓","E_COORD97":169100.950575,"N_COORD97":2544382.0861200001,"ADDRESS":"北忠街６９號三樓","OBJECTID":661430},"geometry":{"x":169100.95057499968,"y":2544382.0861190017}},{"attributes":{"ID":661458,"DIS_CODE":0,"TOWNNAME":"北區","LI":"公園里","LIN":"6鄰","STREET":"北忠街","SECT":" ","MAREA":" ","LANE":" ","ALLEY":" ","HOUSE_NO":"６９號四樓","E_COORD97":169100.950575,"N_COORD97":2544382.0861200001,"ADDRESS":"北忠街６９號四樓","OBJECTID":661431},"geometry":{"x":169100.95057499968,"y":2544382.0861190017}},{"attributes":{"ID":661459,"DIS_CODE":0,"TOWNNAME":"北區","LI":"公園里","LIN":"6鄰","STREET":"北忠街","SECT":" ","MAREA":" ","LANE":" ","ALLEY":" ","HOUSE_NO":"６９號五樓","E_COORD97":169100.950575,"N_COORD97":2544382.0861200001,"ADDRESS":"北忠街６９號五樓","OBJECTID":661432},"geometry":{"x":169100.95057499968,"y":2544382.0861190017}},{"attributes":{"ID":661460,"DIS_CODE":0,"TOWNNAME":"北區","LI":"公園里","LIN":"6鄰","STREET":"北忠街","SECT":" ","MAREA":" ","LANE":" ","ALLEY":" ","HOUSE_NO":"６９號六樓","E_COORD97":169100.950575,"N_COORD97":2544382.0861200001,"ADDRESS":"北忠街６９號六樓","OBJECTID":661433},"geometry":{"x":169100.95057499968,"y":2544382.0861190017}},{"attributes":{"ID":661461,"DIS_CODE":0,"TOWNNAME":"北區","LI":"公園里","LIN":"6鄰","STREET":"北忠街","SECT":" ","MAREA":" ","LANE":" ","ALLEY":" ","HOUSE_NO":"６９號七樓","E_COORD97":169100.950575,"N_COORD97":2544382.0861200001,"ADDRESS":"北忠街６９號七樓","OBJECTID":661434},"geometry":{"x":169100.95057499968,"y":2544382.0861190017}},{"attributes":{"ID":661462,"DIS_CODE":0,"TOWNNAME":"北區","LI":"公園里","LIN":"6鄰","STREET":"北忠街","SECT":" ","MAREA":" ","LANE":" ","ALLEY":" ","HOUSE_NO":"６９號八樓","E_COORD97":169100.950575,"N_COORD97":2544382.0861200001,"ADDRESS":"北忠街６９號八樓","OBJECTID":661435},"geometry":{"x":169100.95057499968,"y":2544382.0861190017}},{"attributes":{"ID":661463,"DIS_CODE":0,"TOWNNAME":"北區","LI":"公園里","LIN":"6鄰","STREET":"北忠街","SECT":" ","MAREA":" ","LANE":" ","ALLEY":" ","HOUSE_NO":"６９號九樓","E_COORD97":169100.950575,"N_COORD97":2544382.0861200001,"ADDRESS":"北忠街６９號九樓","OBJECTID":661436},"geometry":{"x":169100.95057499968,"y":2544382.0861190017}},{"attributes":{"ID":661464,"DIS_CODE":0,"TOWNNAME":"北區","LI":"公園里","LIN":"6鄰","STREET":"北忠街","SECT":" ","MAREA":" ","LANE":" ","ALLEY":" ","HOUSE_NO":"６９號十樓","E_COORD97":169100.950575,"N_COORD97":2544382.0861200001,"ADDRESS":"北忠街６９號十樓","OBJECTID":661437},"geometry":{"x":169100.95057499968,"y":2544382.0861190017}},{"attributes":{"ID":661465,"DIS_CODE":0,"TOWNNAME":"北區","LI":"公園里","LIN":"6鄰","STREET":"北忠街","SECT":" ","MAREA":" ","LANE":" ","ALLEY":" ","HOUSE_NO":"６９號十一樓","E_COORD97":169100.950575,"N_COORD97":2544382.0861200001,"ADDRESS":"北忠街６９號十一樓","OBJECTID":661438},"geometry":{"x":169100.95057499968,"y":2544382.0861190017}},{"attributes":{"ID":661466,"DIS_CODE":0,"TOWNNAME":"北區","LI":"公園里","LIN":"6鄰","STREET":"北忠街","SECT":" ","MAREA":" ","LANE":" ","ALLEY":" ","HOUSE_NO":"６９號十二樓","E_COORD97":169100.950575,"N_COORD97":2544382.0861200001,"ADDRESS":"北忠街６９號十二樓","OBJECTID":661439},"geometry":{"x":169100.95057499968,"y":2544382.0861190017}},{"attributes":{"ID":661467,"DIS_CODE":0,"TOWNNAME":"北區","LI":"公園里","LIN":"6鄰","STREET":"北忠街","SECT":" ","MAREA":" ","LANE":" ","ALLEY":" ","HOUSE_NO":"６９號十三樓","E_COORD97":169100.950575,"N_COORD97":2544382.0861200001,"ADDRESS":"北忠街６９號十三樓","OBJECTID":661440},"geometry":{"x":169100.95057499968,"y":2544382.0861190017}},{"attributes":{"ID":661468,"DIS_CODE":0,"TOWNNAME":"北區","LI":"公園里","LIN":"6鄰","STREET":"北忠街","SECT":" ","MAREA":" ","LANE":" ","ALLEY":" ","HOUSE_NO":"６９號十四樓","E_COORD97":169100.950575,"N_COORD97":2544382.0861200001,"ADDRESS":"北忠街６９號十四樓","OBJECTID":661441},"geometry":{"x":169100.95057499968,"y":2544382.0861190017}},{"attributes":{"ID":661469,"DIS_CODE":0,"TOWNNAME":"北區","LI":"公園里","LIN":"6鄰","STREET":"西華街","SECT":" ","MAREA":" ","LANE":" ","ALLEY":" ","HOUSE_NO":"１８號","E_COORD97":169070.44480299999,"N_COORD97":2544360.8916099998,"ADDRESS":"西華街１８號","OBJECTID":661442},"geometry":{"x":169070.44480300136,"y":2544360.8916109987}},{"attributes":{"ID":661470,"DIS_CODE":0,"TOWNNAME":"北區","LI":"公園里","LIN":"6鄰","STREET":"西華街","SECT":" ","MAREA":" ","LANE":" ","ALLEY":" ","HOUSE_NO":"１８號二樓","E_COORD97":169070.44480299999,"N_COORD97":2544360.8916099998,"ADDRESS":"西華街１８號二樓","OBJECTID":661443},"geometry":{"x":169070.44480300136,"y":2544360.8916109987}},{"attributes":{"ID":661471,"DIS_CODE":0,"TOWNNAME":"北區","LI":"公園里","LIN":"6鄰","STREET":"西華街","SECT":" ","MAREA":" ","LANE":" ","ALLEY":" ","HOUSE_NO":"１８號三樓","E_COORD97":169070.44480299999,"N_COORD97":2544360.8916099998,"ADDRESS":"西華街１８號三樓","OBJECTID":661444},"geometry":{"x":169070.44480300136,"y":2544360.8916109987}},{"attributes":{"ID":661472,"DIS_CODE":0,"TOWNNAME":"北區","LI":"公園里","LIN":"6鄰","STREET":"西華街","SECT":" ","MAREA":" ","LANE":" ","ALLEY":" ","HOUSE_NO":"１８號四樓","E_COORD97":169070.44480299999,"N_COORD97":2544360.8916099998,"ADDRESS":"西華街１８號四樓","OBJECTID":661445},"geometry":{"x":169070.44480300136,"y":2544360.8916109987}},{"attributes":{"ID":661473,"DIS_CODE":0,"TOWNNAME":"北區","LI":"公園里","LIN":"6鄰","STREET":"西華街","SECT":" ","MAREA":" ","LANE":" ","ALLEY":" ","HOUSE_NO":"１８號五樓","E_COORD97":169070.44480299999,"N_COORD97":2544360.8916099998,"ADDRESS":"西華街１８號五樓","OBJECTID":661446},"geometry":{"x":169070.44480300136,"y":2544360.8916109987}},{"attributes":{"ID":661474,"DIS_CODE":0,"TOWNNAME":"北區","LI":"公園里","LIN":"6鄰","STREET":"西華街","SECT":" ","MAREA":" ","LANE":" ","ALLEY":" ","HOUSE_NO":"１８號六樓","E_COORD97":169070.44480299999,"N_COORD97":2544360.8916099998,"ADDRESS":"西華街１８號六樓","OBJECTID":661447},"geometry":{"x":169070.44480300136,"y":2544360.8916109987}},{"attributes":{"ID":661475,"DIS_CODE":0,"TOWNNAME":"北區","LI":"公園里","LIN":"6鄰","STREET":"西華街","SECT":" ","MAREA":" ","LANE":" ","ALLEY":" ","HOUSE_NO":"１８號七樓","E_COORD97":169070.44480299999,"N_COORD97":2544360.8916099998,"ADDRESS":"西華街１８號七樓","OBJECTID":661448},"geometry":{"x":169070.44480300136,"y":2544360.8916109987}},{"attributes":{"ID":661476,"DIS_CODE":0,"TOWNNAME":"北區","LI":"公園里","LIN":"6鄰","STREET":"西華街","SECT":" ","MAREA":" ","LANE":" ","ALLEY":" ","HOUSE_NO":"１８號八樓","E_COORD97":169070.44480299999,"N_COORD97":2544360.8916099998,"ADDRESS":"西華街１８號八樓","OBJECTID":661449},"geometry":{"x":169070.44480300136,"y":2544360.8916109987}},{"attributes":{"ID":661477,"DIS_CODE":0,"TOWNNAME":"北區","LI":"公園里","LIN":"6鄰","STREET":"西華街","SECT":" ","MAREA":" ","LANE":" ","ALLEY":" ","HOUSE_NO":"１８號九樓","E_COORD97":169070.44480299999,"N_COORD97":2544360.8916099998,"ADDRESS":"西華街１８號九樓","OBJECTID":661450},"geometry":{"x":169070.44480300136,"y":2544360.8916109987}},{"attributes":{"ID":661478,"DIS_CODE":0,"TOWNNAME":"北區","LI":"公園里","LIN":"6鄰","STREET":"西華街","SECT":" ","MAREA":" ","LANE":" ","ALLEY":" ","HOUSE_NO":"１８號十樓","E_COORD97":169070.44480299999,"N_COORD97":2544360.8916099998,"ADDRESS":"西華街１８號十樓","OBJECTID":661451},"geometry":{"x":169070.44480300136,"y":2544360.8916109987}},{"attributes":{"ID":661479,"DIS_CODE":0,"TOWNNAME":"北區","LI":"公園里","LIN":"6鄰","STREET":"西華街","SECT":" ","MAREA":" ","LANE":" ","ALLEY":" ","HOUSE_NO":"１８號十一樓","E_COORD97":169070.44480299999,"N_COORD97":2544360.8916099998,"ADDRESS":"西華街１８號十一樓","OBJECTID":661452},"geometry":{"x":169070.44480300136,"y":2544360.8916109987}},{"attributes":{"ID":661480,"DIS_CODE":0,"TOWNNAME":"北區","LI":"公園里","LIN":"6鄰","STREET":"西華街","SECT":" ","MAREA":" ","LANE":" ","ALLEY":" ","HOUSE_NO":"１８號十二樓","E_COORD97":169070.44480299999,"N_COORD97":2544360.8916099998,"ADDRESS":"西華街１８號十二樓","OBJECTID":661453},"geometry":{"x":169070.44480300136,"y":2544360.8916109987}},{"attributes":{"ID":661481,"DIS_CODE":0,"TOWNNAME":"北區","LI":"公園里","LIN":"6鄰","STREET":"西華街","SECT":" ","MAREA":" ","LANE":" ","ALLEY":" ","HOUSE_NO":"１８號十三樓","E_COORD97":169070.44480299999,"N_COORD97":2544360.8916099998,"ADDRESS":"西華街１８號十三樓","OBJECTID":661454},"geometry":{"x":169070.44480300136,"y":2544360.8916109987}},{"attributes":{"ID":661482,"DIS_CODE":0,"TOWNNAME":"北區","LI":"公園里","LIN":"6鄰","STREET":"西華街","SECT":" ","MAREA":" ","LANE":" ","ALLEY":" ","HOUSE_NO":"１８號十四樓","E_COORD97":169070.44480299999,"N_COORD97":2544360.8916099998,"ADDRESS":"西華街１８號十四樓","OBJECTID":661455},"geometry":{"x":169070.44480300136,"y":2544360.8916109987}},{"attributes":{"ID":661483,"DIS_CODE":0,"TOWNNAME":"善化區","LI":"文正里","LIN":"13鄰","STREET":"中山路","SECT":" ","MAREA":" ","LANE":" ","ALLEY":" ","HOUSE_NO":"５６６號之１","E_COORD97":176807.30918000001,"N_COORD97":2559237.1990299998,"ADDRESS":"中山路５６６號之１","OBJECTID":661456},"geometry":{"x":176807.30917999987,"y":2559237.1990300026}},{"attributes":{"ID":661484,"DIS_CODE":0,"TOWNNAME":"善化區","LI":"文正里","LIN":"13鄰","STREET":"陽明路","SECT":" ","MAREA":" ","LANE":" ","ALLEY":" ","HOUSE_NO":"６０號","E_COORD97":176552.41970900001,"N_COORD97":2559311.0706600002,"ADDRESS":"陽明路６０號","OBJECTID":661457},"geometry":{"x":176552.41970899981,"y":2559311.0706569999}},{"attributes":{"ID":661485,"DIS_CODE":0,"TOWNNAME":"善化區","LI":"文正里","LIN":"13鄰","STREET":"陽明路","SECT":" ","MAREA":" ","LANE":"２３８巷","ALLEY":" ","HOUSE_NO":"５０號","E_COORD97":176307.91226400001,"N_COORD97":2559680.0054600001,"ADDRESS":"陽明路２３８巷５０號","OBJECTID":661458},"geometry":{"x":176307.91226400062,"y":2559680.0054580029}},{"attributes":{"ID":661486,"DIS_CODE":0,"TOWNNAME":"善化區","LI":"文正里","LIN":"13鄰","STREET":"陽明路","SECT":" ","MAREA":" ","LANE":"２３８巷","ALLEY":" ","HOUSE_NO":"６８號","E_COORD97":176467.45655,"N_COORD97":2559695.2454499998,"ADDRESS":"陽明路２３８巷６８號","OBJECTID":661459},"geometry":{"x":176467.45655000117,"y":2559695.2454500012}},{"attributes":{"ID":661487,"DIS_CODE":0,"TOWNNAME":"善化區","LI":"文正里","LIN":"14鄰","STREET":"陽明路","SECT":" ","MAREA":" ","LANE":" ","ALLEY":" ","HOUSE_NO":"２７號","E_COORD97":176610.05058000001,"N_COORD97":2559225.9807000002,"ADDRESS":"陽明路２７號","OBJECTID":661460},"geometry":{"x":176610.05057999957,"y":2559225.980700003}},{"attributes":{"ID":661488,"DIS_CODE":0,"TOWNNAME":"善化區","LI":"文正里","LIN":"14鄰","STREET":"興農路","SECT":" ","MAREA":" ","LANE":" ","ALLEY":" ","HOUSE_NO":"９４號","E_COORD97":176320.41307800001,"N_COORD97":2559160.1524,"ADDRESS":"興農路９４號","OBJECTID":661461},"geometry":{"x":176320.41307800077,"y":2559160.1524049994}},{"attributes":{"ID":661489,"DIS_CODE":0,"TOWNNAME":"善化區","LI":"文正里","LIN":"14鄰","STREET":"興農路","SECT":" ","MAREA":" ","LANE":" ","ALLEY":" ","HOUSE_NO":"１６４號之１","E_COORD97":176120.18817000001,"N_COORD97":2559116.76076,"ADDRESS":"興農路１６４號之１","OBJECTID":661462},"geometry":{"x":176120.18816999998,"y":2559116.7607600018}},{"attributes":{"ID":661490,"DIS_CODE":0,"TOWNNAME":"善化區","LI":"文正里","LIN":"14鄰","STREET":"興農路","SECT":" ","MAREA":" ","LANE":"１８８巷","ALLEY":" ","HOUSE_NO":"２４號","E_COORD97":176006.621461,"N_COORD97":2559251.5923600001,"ADDRESS":"興農路１８８巷２４號","OBJECTID":661463},"geometry":{"x":176006.62146100122,"y":2559251.592356002}},{"attributes":{"ID":661491,"DIS_CODE":0,"TOWNNAME":"善化區","LI":"文正里","LIN":"14鄰","STREET":"興農路","SECT":" ","MAREA":" ","LANE":"１８８巷","ALLEY":" ","HOUSE_NO":"２５號","E_COORD97":175997.722576,"N_COORD97":2559250.5340200001,"ADDRESS":"興農路１８８巷２５號","OBJECTID":661464},"geometry":{"x":175997.7225759998,"y":2559250.5340229999}},{"attributes":{"ID":661492,"DIS_CODE":0,"TOWNNAME":"善化區","LI":"文正里","LIN":"14鄰","STREET":"興農路","SECT":" ","MAREA":" ","LANE":"１８８巷","ALLEY":" ","HOUSE_NO":"２７號","E_COORD97":175965.51709000001,"N_COORD97":2559239.7390299998,"ADDRESS":"興農路１８８巷２７號","OBJECTID":661465},"geometry":{"x":175965.51709000114,"y":2559239.7390290014}},{"attributes":{"ID":661493,"DIS_CODE":0,"TOWNNAME":"善化區","LI":"文正里","LIN":"14鄰","STREET":"興農路","SECT":" ","MAREA":" ","LANE":"１８８巷","ALLEY":" ","HOUSE_NO":"２０號","E_COORD97":175993.69688999999,"N_COORD97":2559227.2507000002,"ADDRESS":"興農路１８８巷２０號","OBJECTID":661466},"geometry":{"x":175993.69689000212,"y":2559227.2507020012}},{"attributes":{"ID":661494,"DIS_CODE":0,"TOWNNAME":"善化區","LI":"文正里","LIN":"14鄰","STREET":"興農路","SECT":" ","MAREA":" ","LANE":" ","ALLEY":" ","HOUSE_NO":"２６０號之１","E_COORD97":175773.97919000001,"N_COORD97":2559085.6457699998,"ADDRESS":"興農路２６０號之１","OBJECTID":661467},"geometry":{"x":175773.97919000126,"y":2559085.645770004}},{"attributes":{"ID":661495,"DIS_CODE":0,"TOWNNAME":"善化區","LI":"文正里","LIN":"14鄰","STREET":"興農路","SECT":" ","MAREA":" ","LANE":" ","ALLEY":" ","HOUSE_NO":"２２８號","E_COORD97":175911.27627,"N_COORD97":2559089.0324400002,"ADDRESS":"興農路２２８號","OBJECTID":661468},"geometry":{"x":175911.2762700012,"y":2559089.0324440021}},{"attributes":{"ID":661496,"DIS_CODE":0,"TOWNNAME":"善化區","LI":"文正里","LIN":"13鄰","STREET":"陽明路","SECT":" ","MAREA":" ","LANE":" ","ALLEY":" ","HOUSE_NO":"７４號","E_COORD97":176509.62031,"N_COORD97":2559347.68897,"ADDRESS":"陽明路７４號","OBJECTID":661469},"geometry":{"x":176509.62031000014,"y":2559347.6889700014}},{"attributes":{"ID":661497,"DIS_CODE":0,"TOWNNAME":"善化區","LI":"文正里","LIN":"13鄰","STREET":"陽明路","SECT":" ","MAREA":" ","LANE":"２３８巷","ALLEY":" ","HOUSE_NO":"７０號之１","E_COORD97":176497.11949000001,"N_COORD97":2559696.3037800002,"ADDRESS":"陽明路２３８巷７０號之１","OBJECTID":661470},"geometry":{"x":176497.11949000042,"y":2559696.3037800007}},{"attributes":{"ID":661498,"DIS_CODE":0,"TOWNNAME":"善化區","LI":"溪美里","LIN":"22鄰","STREET":" ","SECT":" ","MAREA":"溪尾","LANE":" ","ALLEY":" ","HOUSE_NO":"５３７號之２","E_COORD97":177041.22271999999,"N_COORD97":2561305.8162400001,"ADDRESS":"溪尾５３７號之２","OBJECTID":661471},"geometry":{"x":177041.22272000089,"y":2561305.8162400033}},{"attributes":{"ID":661499,"DIS_CODE":0,"TOWNNAME":"山上區","LI":"明和里","LIN":"6鄰","STREET":" ","SECT":" ","MAREA":"明和","LANE":" ","ALLEY":" ","HOUSE_NO":"１５３號","E_COORD97":183286.28315999999,"N_COORD97":2556118.3685900001,"ADDRESS":"明和１５３號","OBJECTID":661472},"geometry":{"x":183286.28316000104,"y":2556118.3685950022}},{"attributes":{"ID":661500,"DIS_CODE":0,"TOWNNAME":"山上區","LI":"明和里","LIN":"13鄰","STREET":" ","SECT":" ","MAREA":"明和","LANE":" ","ALLEY":" ","HOUSE_NO":"２１７號","E_COORD97":183352.59354199999,"N_COORD97":2556313.8957500001,"ADDRESS":"明和２１７號","OBJECTID":661473},"geometry":{"x":183352.59354200028,"y":2556313.8957550004}},{"attributes":{"ID":661501,"DIS_CODE":0,"TOWNNAME":"安南區","LI":"淵中里","LIN":"6鄰","STREET":"本田路","SECT":"三段","MAREA":" ","LANE":" ","ALLEY":" ","HOUSE_NO":"１５１之１６號","E_COORD97":164030.343785,"N_COORD97":2549264.5184200001,"ADDRESS":"本田路三段１５１之１６號","OBJECTID":661474},"geometry":{"x":164030.3437849991,"y":2549264.5184250008}},{"attributes":{"ID":661502,"DIS_CODE":0,"TOWNNAME":"安南區","LI":"淵中里","LIN":"6鄰","STREET":"本田路","SECT":"三段","MAREA":" ","LANE":" ","ALLEY":" ","HOUSE_NO":"１５１之１８號","E_COORD97":164036.90926499999,"N_COORD97":2549274.8900899999,"ADDRESS":"本田路三段１５１之１８號","OBJECTID":661475},"geometry":{"x":164036.90926500037,"y":2549274.8900860008}},{"attributes":{"ID":661503,"DIS_CODE":0,"TOWNNAME":"安南區","LI":"淵中里","LIN":"6鄰","STREET":"本田路","SECT":"三段","MAREA":" ","LANE":" ","ALLEY":" ","HOUSE_NO":"１５１之２０號","E_COORD97":164043.26295500001,"N_COORD97":2549282.9334100001,"ADDRESS":"本田路三段１５１之２０號","OBJECTID":661476},"geometry":{"x":164043.26295499969,"y":2549282.9334150031}},{"attributes":{"ID":661504,"DIS_CODE":0,"TOWNNAME":"善化區","LI":"東昌里","LIN":"10鄰","STREET":" ","SECT":" ","MAREA":"東勢寮","LANE":" ","ALLEY":" ","HOUSE_NO":"１１０號","E_COORD97":180200.894875,"N_COORD97":2561827.7254300001,"ADDRESS":"東勢寮１１０號","OBJECTID":661477},"geometry":{"x":180200.89487500023,"y":2561827.7254290041}},{"attributes":{"ID":661505,"DIS_CODE":0,"TOWNNAME":"善化區","LI":"東隆里","LIN":"3鄰","STREET":" ","SECT":" ","MAREA":"東勢寮","LANE":" ","ALLEY":" ","HOUSE_NO":"１５０號","E_COORD97":180101.89666299999,"N_COORD97":2561891.2925200001,"ADDRESS":"東勢寮１５０號","OBJECTID":661478},"geometry":{"x":180101.89666300081,"y":2561891.2925180048}},{"attributes":{"ID":661506,"DIS_CODE":0,"TOWNNAME":"善化區","LI":"東隆里","LIN":"3鄰","STREET":" ","SECT":" ","MAREA":"東勢寮","LANE":" ","ALLEY":" ","HOUSE_NO":"１５０號之１","E_COORD97":180110.57816999999,"N_COORD97":2561896.2666799999,"ADDRESS":"東勢寮１５０號之１","OBJECTID":661479},"geometry":{"x":180110.57817000058,"y":2561896.2666799985}},{"attributes":{"ID":661507,"DIS_CODE":0,"TOWNNAME":"善化區","LI":"東隆里","LIN":"7鄰","STREET":" ","SECT":" ","MAREA":"東勢寮","LANE":" ","ALLEY":" ","HOUSE_NO":"１９１號之４","E_COORD97":179855.36960999999,"N_COORD97":2561858.04666,"ADDRESS":"東勢寮１９１號之４","OBJECTID":661480},"geometry":{"x":179855.36961000133,"y":2561858.0466600005}},{"attributes":{"ID":661508,"DIS_CODE":0,"TOWNNAME":"善化區","LI":"東隆里","LIN":"7鄰","STREET":" ","SECT":" ","MAREA":"東勢寮","LANE":" ","ALLEY":" ","HOUSE_NO":"１９１號之３","E_COORD97":179850.07600999999,"N_COORD97":2561851.53791,"ADDRESS":"東勢寮１９１號之３","OBJECTID":661481},"geometry":{"x":179850.07601000089,"y":2561851.5379100014}},{"attributes":{"ID":661509,"DIS_CODE":0,"TOWNNAME":"善化區","LI":"東隆里","LIN":"6鄰","STREET":" ","SECT":" ","MAREA":"東勢寮","LANE":" ","ALLEY":" ","HOUSE_NO":"１８６號之２","E_COORD97":180001.89657000001,"N_COORD97":2561760.9975399999,"ADDRESS":"東勢寮１８６號之２","OBJECTID":661482},"geometry":{"x":180001.89656999987,"y":2561760.9975400008}},{"attributes":{"ID":661510,"DIS_CODE":0,"TOWNNAME":"善化區","LI":"東隆里","LIN":"6鄰","STREET":" ","SECT":" ","MAREA":"東勢寮","LANE":" ","ALLEY":" ","HOUSE_NO":"１８６號之３","E_COORD97":180007.08429999999,"N_COORD97":2561757.3992099999,"ADDRESS":"東勢寮１８６號之３","OBJECTID":661483},"geometry":{"x":180007.08430000115,"y":2561757.3992100004}},{"attributes":{"ID":661511,"DIS_CODE":0,"TOWNNAME":"善化區","LI":"東昌里","LIN":"6鄰","STREET":" ","SECT":" ","MAREA":"東勢寮","LANE":" ","ALLEY":" ","HOUSE_NO":"６１號之２","E_COORD97":180554.15562999999,"N_COORD97":2561918.4492700002,"ADDRESS":"東勢寮６１號之２","OBJECTID":661484},"geometry":{"x":180554.15562999994,"y":2561918.4492700025}},{"attributes":{"ID":661512,"DIS_CODE":0,"TOWNNAME":"安南區","LI":"淵西里","LIN":"12鄰","STREET":"安中路","SECT":"四段","MAREA":" ","LANE":"２１０巷","ALLEY":"３３弄","HOUSE_NO":"７號","E_COORD97":164800.64117399999,"N_COORD97":2550188.2828500001,"ADDRESS":"安中路四段２１０巷３３弄７號","OBJECTID":661485},"geometry":{"x":164800.64117400069,"y":2550188.282846}},{"attributes":{"ID":661513,"DIS_CODE":0,"TOWNNAME":"安南區","LI":"淵西里","LIN":"10鄰","STREET":"安中路","SECT":"四段","MAREA":" ","LANE":"３２０巷","ALLEY":"１２９弄","HOUSE_NO":"４６號","E_COORD97":164647.01699999999,"N_COORD97":2550466.3068599999,"ADDRESS":"安中路四段３２０巷１２９弄４６號","OBJECTID":661486},"geometry":{"x":164647.01699999999,"y":2550466.3068630006}},{"attributes":{"ID":661514,"DIS_CODE":0,"TOWNNAME":"安南區","LI":"淵西里","LIN":"10鄰","STREET":"安中路","SECT":"四段","MAREA":" ","LANE":"３２０巷","ALLEY":"１５弄","HOUSE_NO":"２３６號","E_COORD97":164131.263569,"N_COORD97":2550660.93426,"ADDRESS":"安中路四段３２０巷１５弄２３６號","OBJECTID":661487},"geometry":{"x":164131.26356900111,"y":2550660.9342580009}},{"attributes":{"ID":661515,"DIS_CODE":0,"TOWNNAME":"安南區","LI":"淵西里","LIN":"16鄰","STREET":"安中路","SECT":"四段","MAREA":" ","LANE":"２２５巷","ALLEY":" ","HOUSE_NO":"１９之２０號","E_COORD97":164685.58196499999,"N_COORD97":2550093.3503999999,"ADDRESS":"安中路四段２２５巷１９之２０號","OBJECTID":661488},"geometry":{"x":164685.5819650013,"y":2550093.3503980003}},{"attributes":{"ID":661516,"DIS_CODE":0,"TOWNNAME":"安南區","LI":"公親里","LIN":"1鄰","STREET":"公學路","SECT":"一段","MAREA":" ","LANE":"２６２巷","ALLEY":" ","HOUSE_NO":"３１之８８號","E_COORD97":167834.98346399999,"N_COORD97":2553074.4621199998,"ADDRESS":"公學路一段２６２巷３１之８８號","OBJECTID":661489},"geometry":{"x":167834.98346399982,"y":2553074.4621210024}},{"attributes":{"ID":661517,"DIS_CODE":0,"TOWNNAME":"安南區","LI":"公親里","LIN":"9鄰","STREET":"公學路","SECT":"一段","MAREA":" ","LANE":"２７７巷","ALLEY":" ","HOUSE_NO":"４１號","E_COORD97":168167.65925999999,"N_COORD97":2552949.0496899998,"ADDRESS":"公學路一段２７７巷４１號","OBJECTID":661490},"geometry":{"x":168167.6592600001,"y":2552949.0496889986}},{"attributes":{"ID":661518,"DIS_CODE":0,"TOWNNAME":"安南區","LI":"淵西里","LIN":"10鄰","STREET":"安中路","SECT":"四段","MAREA":" ","LANE":"５００巷","ALLEY":"４１弄","HOUSE_NO":"１９號","E_COORD97":163945.85508400001,"N_COORD97":2550729.7258899999,"ADDRESS":"安中路四段５００巷４１弄１９號","OBJECTID":661491},"geometry":{"x":163945.85508400016,"y":2550729.7258870006}},{"attributes":{"ID":661519,"DIS_CODE":0,"TOWNNAME":"安南區","LI":"淵西里","LIN":"9鄰","STREET":"安中路","SECT":"四段","MAREA":" ","LANE":"３０６巷","ALLEY":" ","HOUSE_NO":"９５號","E_COORD97":164667.35896000001,"N_COORD97":2550319.41028,"ADDRESS":"安中路四段３０６巷９５號","OBJECTID":661492},"geometry":{"x":164667.3589600008,"y":2550319.4102760013}},{"attributes":{"ID":661520,"DIS_CODE":0,"TOWNNAME":"東區","LI":"東智里","LIN":"12鄰","STREET":"崇德三十一街","SECT":" ","MAREA":" ","LANE":" ","ALLEY":" ","HOUSE_NO":"３８號","E_COORD97":170873.22604499999,"N_COORD97":2540123.75483,"ADDRESS":"崇德三十一街３８號","OBJECTID":661493},"geometry":{"x":170873.22604500223,"y":2540123.7548280004}},{"attributes":{"ID":661521,"DIS_CODE":0,"TOWNNAME":"東區","LI":"東智里","LIN":"12鄰","STREET":"崇德三十一街","SECT":" ","MAREA":" ","LANE":" ","ALLEY":" ","HOUSE_NO":"３６號","E_COORD97":170868.141076,"N_COORD97":2540124.3898299998,"ADDRESS":"崇德三十一街３６號","OBJECTID":661494},"geometry":{"x":170868.14107600134,"y":2540124.3898280002}},{"attributes":{"ID":661522,"DIS_CODE":0,"TOWNNAME":"東區","LI":"東智里","LIN":"12鄰","STREET":"崇德三十一街","SECT":" ","MAREA":" ","LANE":" ","ALLEY":" ","HOUSE_NO":"３２號","E_COORD97":170863.26798100001,"N_COORD97":2540124.6014899998,"ADDRESS":"崇德三十一街３２號","OBJECTID":661495},"geometry":{"x":170863.26798100118,"y":2540124.6014939975}},{"attributes":{"ID":661523,"DIS_CODE":0,"TOWNNAME":"東區","LI":"東智里","LIN":"12鄰","STREET":"崇德三十一街","SECT":" ","MAREA":" ","LANE":" ","ALLEY":" ","HOUSE_NO":"３０號","E_COORD97":170859.66612800001,"N_COORD97":2540125.6598299998,"ADDRESS":"崇德三十一街３０號","OBJECTID":661496},"geometry":{"x":170859.66612800211,"y":2540125.6598270014}},{"attributes":{"ID":661524,"DIS_CODE":0,"TOWNNAME":"東區","LI":"東智里","LIN":"12鄰","STREET":"崇德三十一街","SECT":" ","MAREA":" ","LANE":" ","ALLEY":" ","HOUSE_NO":"２８號","E_COORD97":170856.06427500001,"N_COORD97":2540125.8714899998,"ADDRESS":"崇德三十一街２８號","OBJECTID":661497},"geometry":{"x":170856.06427500024,"y":2540125.8714940026}},{"attributes":{"ID":661525,"DIS_CODE":0,"TOWNNAME":"東區","LI":"東智里","LIN":"12鄰","STREET":"崇德三十一街","SECT":" ","MAREA":" ","LANE":" ","ALLEY":" ","HOUSE_NO":"２６號","E_COORD97":170851.19117999999,"N_COORD97":2540125.8714899998,"ADDRESS":"崇德三十一街２６號","OBJECTID":661498},"geometry":{"x":170851.19118000008,"y":2540125.8714940026}},{"attributes":{"ID":661526,"DIS_CODE":0,"TOWNNAME":"東區","LI":"東智里","LIN":"11鄰","STREET":"崇德三十一街","SECT":" ","MAREA":" ","LANE":" ","ALLEY":" ","HOUSE_NO":"１５號","E_COORD97":170853.30991700001,"N_COORD97":2540138.78315,"ADDRESS":"崇德三十一街１５號","OBJECTID":661499},"geometry":{"x":170853.30991700105,"y":2540138.7831530012}},{"attributes":{"ID":661527,"DIS_CODE":0,"TOWNNAME":"東區","LI":"東智里","LIN":"11鄰","STREET":"崇德三十一街","SECT":" ","MAREA":" ","LANE":" ","ALLEY":" ","HOUSE_NO":"１７號","E_COORD97":170857.75926399999,"N_COORD97":2540137.51315,"ADDRESS":"崇德三十一街１７號","OBJECTID":661500},"geometry":{"x":170857.75926399976,"y":2540137.5131540019}},{"attributes":{"ID":661528,"DIS_CODE":0,"TOWNNAME":"東區","LI":"東智里","LIN":"11鄰","STREET":"崇德三十一街","SECT":" ","MAREA":" ","LANE":" ","ALLEY":" ","HOUSE_NO":"１９號","E_COORD97":170860.93737,"N_COORD97":2540137.30149,"ADDRESS":"崇德三十一街１９號","OBJECTID":661501},"geometry":{"x":170860.93736999948,"y":2540137.3014880009}},{"attributes":{"ID":661529,"DIS_CODE":0,"TOWNNAME":"東區","LI":"東智里","LIN":"11鄰","STREET":"崇德三十一街","SECT":" ","MAREA":" ","LANE":" ","ALLEY":" ","HOUSE_NO":"２１號","E_COORD97":170864.751097,"N_COORD97":2540136.8781499998,"ADDRESS":"崇德三十一街２１號","OBJECTID":661502},"geometry":{"x":170864.7510970002,"y":2540136.8781540021}},{"attributes":{"ID":661530,"DIS_CODE":0,"TOWNNAME":"東區","LI":"東智里","LIN":"11鄰","STREET":"崇德三十一街","SECT":" ","MAREA":" ","LANE":" ","ALLEY":" ","HOUSE_NO":"２３號","E_COORD97":170868.77669699999,"N_COORD97":2540136.6664900002,"ADDRESS":"崇德三十一街２３號","OBJECTID":661503},"geometry":{"x":170868.77669699956,"y":2540136.6664880011}},{"attributes":{"ID":661531,"DIS_CODE":0,"TOWNNAME":"東區","LI":"東智里","LIN":"11鄰","STREET":"崇德三十一街","SECT":" ","MAREA":" ","LANE":" ","ALLEY":" ","HOUSE_NO":"２５號","E_COORD97":170873.01417099999,"N_COORD97":2540136.4548200001,"ADDRESS":"崇德三十一街２５號","OBJECTID":661504},"geometry":{"x":170873.01417099964,"y":2540136.4548209999}},{"attributes":{"ID":661532,"DIS_CODE":0,"TOWNNAME":"東區","LI":"東智里","LIN":"11鄰","STREET":"崇德三十一街","SECT":" ","MAREA":" ","LANE":" ","ALLEY":" ","HOUSE_NO":"２７號","E_COORD97":170886.36221399999,"N_COORD97":2540136.8781499998,"ADDRESS":"崇德三十一街２７號","OBJECTID":661505},"geometry":{"x":170886.3622140009,"y":2540136.8781540021}},{"attributes":{"ID":661533,"DIS_CODE":0,"TOWNNAME":"東區","LI":"東智里","LIN":"11鄰","STREET":"崇德三十一街","SECT":" ","MAREA":" ","LANE":" ","ALLEY":" ","HOUSE_NO":"２９號","E_COORD97":170891.44718300001,"N_COORD97":2540135.6081599998,"ADDRESS":"崇德三十一街２９號","OBJECTID":661506},"geometry":{"x":170891.44718299899,"y":2540135.6081550028}},{"attributes":{"ID":661534,"DIS_CODE":0,"TOWNNAME":"東區","LI":"東智里","LIN":"11鄰","STREET":"崇德三十一街","SECT":" ","MAREA":" ","LANE":" ","ALLEY":" ","HOUSE_NO":"３１號","E_COORD97":170896.532152,"N_COORD97":2540136.03149,"ADDRESS":"崇德三十一街３１號","OBJECTID":661507},"geometry":{"x":170896.53215199988,"y":2540136.0314880013}},{"attributes":{"ID":661535,"DIS_CODE":0,"TOWNNAME":"東區","LI":"東智里","LIN":"11鄰","STREET":"崇德三十一街","SECT":" ","MAREA":" ","LANE":" ","ALLEY":" ","HOUSE_NO":"３３號","E_COORD97":170900.98149899999,"N_COORD97":2540134.7614899999,"ADDRESS":"崇德三十一街３３號","OBJECTID":661508},"geometry":{"x":170900.98149900138,"y":2540134.7614890002}},{"attributes":{"ID":661536,"DIS_CODE":0,"TOWNNAME":"東區","LI":"東智里","LIN":"11鄰","STREET":"崇德三十一街","SECT":" ","MAREA":" ","LANE":" ","ALLEY":" ","HOUSE_NO":"３５號","E_COORD97":170905.85459500001,"N_COORD97":2540134.3381599998,"ADDRESS":"崇德三十一街３５號","OBJECTID":661509},"geometry":{"x":170905.85459499992,"y":2540134.3381560016}},{"attributes":{"ID":661537,"DIS_CODE":0,"TOWNNAME":"東區","LI":"東智里","LIN":"11鄰","STREET":"崇德三十一街","SECT":" ","MAREA":" ","LANE":" ","ALLEY":" ","HOUSE_NO":"３７號","E_COORD97":170913.905795,"N_COORD97":2540132.43316,"ADDRESS":"崇德三十一街３７號","OBJECTID":661510},"geometry":{"x":170913.90579500142,"y":2540132.4331570026}},{"attributes":{"ID":661538,"DIS_CODE":0,"TOWNNAME":"東區","LI":"東智里","LIN":"11鄰","STREET":"崇德三十一街","SECT":" ","MAREA":" ","LANE":" ","ALLEY":" ","HOUSE_NO":"３９號","E_COORD97":170922.80449099999,"N_COORD97":2540131.5864900001,"ADDRESS":"崇德三十一街３９號","OBJECTID":661511},"geometry":{"x":170922.80449100211,"y":2540131.5864910018}},{"attributes":{"ID":661539,"DIS_CODE":0,"TOWNNAME":"東區","LI":"東智里","LIN":"11鄰","STREET":"崇德三十一街","SECT":" ","MAREA":" ","LANE":" ","ALLEY":" ","HOUSE_NO":"４３號","E_COORD97":170939.118766,"N_COORD97":2540133.70316,"ADDRESS":"崇德三十一街４３號","OBJECTID":661512},"geometry":{"x":170939.11876600143,"y":2540133.7031560019}},{"attributes":{"ID":661540,"DIS_CODE":0,"TOWNNAME":"東區","LI":"東智里","LIN":"11鄰","STREET":"崇德三十一街","SECT":" ","MAREA":" ","LANE":" ","ALLEY":" ","HOUSE_NO":"４５號","E_COORD97":170949.288703,"N_COORD97":2540133.2798199998,"ADDRESS":"崇德三十一街４５號","OBJECTID":661513},"geometry":{"x":170949.28870300017,"y":2540133.2798229996}},{"attributes":{"ID":661541,"DIS_CODE":0,"TOWNNAME":"東區","LI":"東智里","LIN":"11鄰","STREET":"崇德三十一街","SECT":" ","MAREA":" ","LANE":" ","ALLEY":" ","HOUSE_NO":"４７號","E_COORD97":170954.37367199999,"N_COORD97":2540133.70316,"ADDRESS":"崇德三十一街４７號","OBJECTID":661514},"geometry":{"x":170954.37367200106,"y":2540133.7031560019}},{"attributes":{"ID":661542,"DIS_CODE":0,"TOWNNAME":"東區","LI":"東智里","LIN":"11鄰","STREET":"崇德三十一街","SECT":" ","MAREA":" ","LANE":" ","ALLEY":" ","HOUSE_NO":"４９號","E_COORD97":170960.094262,"N_COORD97":2540133.9148200001,"ADDRESS":"崇德三十一街４９號","OBJECTID":661515},"geometry":{"x":170960.09426200204,"y":2540133.9148229994}},{"attributes":{"ID":661543,"DIS_CODE":0,"TOWNNAME":"東區","LI":"東智里","LIN":"11鄰","STREET":"崇德三十一街","SECT":" ","MAREA":" ","LANE":" ","ALLEY":" ","HOUSE_NO":"５１號","E_COORD97":170965.39110499999,"N_COORD97":2540134.1264900002,"ADDRESS":"崇德三十一街５１號","OBJECTID":661516},"geometry":{"x":170965.39110500086,"y":2540134.1264890004}},{"attributes":{"ID":661544,"DIS_CODE":0,"TOWNNAME":"東區","LI":"東智里","LIN":"11鄰","STREET":"崇德三十一街","SECT":" ","MAREA":" ","LANE":" ","ALLEY":" ","HOUSE_NO":"５３號","E_COORD97":170970.687947,"N_COORD97":2540134.5498199998,"ADDRESS":"崇德三十一街５３號","OBJECTID":661517},"geometry":{"x":170970.68794700038,"y":2540134.5498219989}},{"attributes":{"ID":661545,"DIS_CODE":0,"TOWNNAME":"東區","LI":"東智里","LIN":"11鄰","STREET":"崇德三十一街","SECT":" ","MAREA":" ","LANE":" ","ALLEY":" ","HOUSE_NO":"５５號","E_COORD97":170974.71354699999,"N_COORD97":2540134.3381599998,"ADDRESS":"崇德三十一街５５號","OBJECTID":661518},"geometry":{"x":170974.71354699973,"y":2540134.3381560016}},{"attributes":{"ID":661546,"DIS_CODE":0,"TOWNNAME":"東區","LI":"東智里","LIN":"11鄰","STREET":"崇德三十一街","SECT":" ","MAREA":" ","LANE":" ","ALLEY":" ","HOUSE_NO":"５７號","E_COORD97":170979.37476899999,"N_COORD97":2540134.1264900002,"ADDRESS":"崇德三十一街５７號","OBJECTID":661519},"geometry":{"x":170979.37476900034,"y":2540134.1264890004}},{"attributes":{"ID":661547,"DIS_CODE":0,"TOWNNAME":"東區","LI":"東智里","LIN":"11鄰","STREET":"崇德三十一街","SECT":" ","MAREA":" ","LANE":" ","ALLEY":" ","HOUSE_NO":"５９號","E_COORD97":170983.18849500001,"N_COORD97":2540135.8198199999,"ADDRESS":"崇德三十一街５９號","OBJECTID":661520},"geometry":{"x":170983.18849500176,"y":2540135.8198220041}},{"attributes":{"ID":661548,"DIS_CODE":0,"TOWNNAME":"東區","LI":"東智里","LIN":"11鄰","STREET":"崇德三十一街","SECT":" ","MAREA":" ","LANE":" ","ALLEY":" ","HOUSE_NO":"６１號","E_COORD97":170987.21409600001,"N_COORD97":2540134.97315,"ADDRESS":"崇德三十一街６１號","OBJECTID":661521},"geometry":{"x":170987.21409599949,"y":2540134.973155003}},{"attributes":{"ID":661549,"DIS_CODE":0,"TOWNNAME":"東區","LI":"東智里","LIN":"11鄰","STREET":"崇德三十一街","SECT":" ","MAREA":" ","LANE":" ","ALLEY":" ","HOUSE_NO":"６３號","E_COORD97":170991.45157,"N_COORD97":2540135.1848200001,"ADDRESS":"崇德三十一街６３號","OBJECTID":661522},"geometry":{"x":170991.45156999957,"y":2540135.1848220043}},{"attributes":{"ID":661550,"DIS_CODE":0,"TOWNNAME":"東區","LI":"東智里","LIN":"11鄰","STREET":"崇德三十一街","SECT":" ","MAREA":" ","LANE":" ","ALLEY":" ","HOUSE_NO":"６５號","E_COORD97":170995.689044,"N_COORD97":2540135.6081599998,"ADDRESS":"崇德三十一街６５號","OBJECTID":661523},"geometry":{"x":170995.68904399965,"y":2540135.6081550028}},{"attributes":{"ID":661551,"DIS_CODE":0,"TOWNNAME":"東區","LI":"東智里","LIN":"11鄰","STREET":"崇德三十一街","SECT":" ","MAREA":" ","LANE":" ","ALLEY":" ","HOUSE_NO":"７５號","E_COORD97":171021.11388799999,"N_COORD97":2540138.3598199999,"ADDRESS":"崇德三十一街７５號","OBJECTID":661524},"geometry":{"x":171021.11388800107,"y":2540138.3598200027}},{"attributes":{"ID":661552,"DIS_CODE":0,"TOWNNAME":"東區","LI":"東智里","LIN":"11鄰","STREET":"崇德三十一街","SECT":" ","MAREA":" ","LANE":" ","ALLEY":" ","HOUSE_NO":"７３號","E_COORD97":171015.39329800001,"N_COORD97":2540137.9364900002,"ADDRESS":"崇德三十一街７３號","OBJECTID":661525},"geometry":{"x":171015.3932980001,"y":2540137.9364870004}},{"attributes":{"ID":661553,"DIS_CODE":0,"TOWNNAME":"東區","LI":"東智里","LIN":"11鄰","STREET":"崇德三十一街","SECT":" ","MAREA":" ","LANE":" ","ALLEY":" ","HOUSE_NO":"７１號","E_COORD97":171009.672708,"N_COORD97":2540137.30149,"ADDRESS":"崇德三十一街７１號","OBJECTID":661526},"geometry":{"x":171009.67270800192,"y":2540137.3014880009}},{"attributes":{"ID":661554,"DIS_CODE":0,"TOWNNAME":"東區","LI":"東智里","LIN":"11鄰","STREET":"崇德三十一街","SECT":" ","MAREA":" ","LANE":" ","ALLEY":" ","HOUSE_NO":"６９號","E_COORD97":171003.95211799999,"N_COORD97":2540136.8781499998,"ADDRESS":"崇德三十一街６９號","OBJECTID":661527},"geometry":{"x":171003.95211800095,"y":2540136.8781540021}},{"attributes":{"ID":661555,"DIS_CODE":0,"TOWNNAME":"東區","LI":"東智里","LIN":"11鄰","STREET":"崇德三十一街","SECT":" ","MAREA":" ","LANE":" ","ALLEY":" ","HOUSE_NO":"６７號","E_COORD97":170999.290897,"N_COORD97":2540136.4548200001,"ADDRESS":"崇德三十一街６７號","OBJECTID":661528},"geometry":{"x":170999.29089699965,"y":2540136.4548209999}},{"attributes":{"ID":661556,"DIS_CODE":0,"TOWNNAME":"東區","LI":"東聖里","LIN":"1鄰","STREET":"中華東路","SECT":"二段","MAREA":" ","LANE":" ","ALLEY":" ","HOUSE_NO":"５３號","E_COORD97":171428.33514099999,"N_COORD97":2543071.8465700001,"ADDRESS":"中華東路二段５３號","OBJECTID":661529},"geometry":{"x":171428.33514100034,"y":2543071.8465700001}},{"attributes":{"ID":661557,"DIS_CODE":0,"TOWNNAME":"東區","LI":"東聖里","LIN":"1鄰","STREET":"裕農路","SECT":" ","MAREA":" ","LANE":" ","ALLEY":" ","HOUSE_NO":"５８８號之１","E_COORD97":171549.10315099999,"N_COORD97":2543203.18567,"ADDRESS":"裕農路５８８號之１","OBJECTID":661530},"geometry":{"x":171549.1031510001,"y":2543203.1856650002}},{"attributes":{"ID":661558,"DIS_CODE":0,"TOWNNAME":"東區","LI":"東聖里","LIN":"2鄰","STREET":"裕豐街","SECT":"二段","MAREA":" ","LANE":" ","ALLEY":" ","HOUSE_NO":"１１９號之１","E_COORD97":171617.75023000001,"N_COORD97":2543185.7231700001,"ADDRESS":"裕豐街二段１１９號之１","OBJECTID":661531},"geometry":{"x":171617.75023000035,"y":2543185.7231750004}},{"attributes":{"ID":661559,"DIS_CODE":0,"TOWNNAME":"東區","LI":"德高里","LIN":"17鄰","STREET":"崇善路","SECT":" ","MAREA":" ","LANE":"１０８９巷","ALLEY":"５８弄","HOUSE_NO":"１０號","E_COORD97":171662.97586100001,"N_COORD97":2540522.1522599999,"ADDRESS":"崇善路１０８９巷５８弄１０號","OBJECTID":661532},"geometry":{"x":171662.9758609999,"y":2540522.1522589996}},{"attributes":{"ID":661560,"DIS_CODE":0,"TOWNNAME":"新市區","LI":"新和里","LIN":"45鄰","STREET":"信義街","SECT":" ","MAREA":" ","LANE":" ","ALLEY":" ","HOUSE_NO":"１３９號","E_COORD97":177211.057214,"N_COORD97":2553122.2309300001,"ADDRESS":"信義街１３９號","OBJECTID":661533},"geometry":{"x":177211.05721400026,"y":2553122.2309300024}},{"attributes":{"ID":661561,"DIS_CODE":0,"TOWNNAME":"東區","LI":"德高里","LIN":"17鄰","STREET":"崇善路","SECT":" ","MAREA":" ","LANE":"１０８９巷","ALLEY":"５８弄","HOUSE_NO":"６號","E_COORD97":171660.44899500001,"N_COORD97":2540533.5106000002,"ADDRESS":"崇善路１０８９巷５８弄６號","OBJECTID":661534},"geometry":{"x":171660.44899500161,"y":2540533.5105960034}},{"attributes":{"ID":661562,"DIS_CODE":0,"TOWNNAME":"東區","LI":"德高里","LIN":"17鄰","STREET":"崇善路","SECT":" ","MAREA":" ","LANE":"１０８９巷","ALLEY":"５８弄","HOUSE_NO":"８號","E_COORD97":171661.710655,"N_COORD97":2540529.10409,"ADDRESS":"崇善路１０８９巷５８弄８號","OBJECTID":661535},"geometry":{"x":171661.71065500099,"y":2540529.1040900014}},{"attributes":{"ID":661563,"DIS_CODE":0,"TOWNNAME":"東區","LI":"關聖里","LIN":"14鄰","STREET":"裕忠路","SECT":" ","MAREA":" ","LANE":" ","ALLEY":" ","HOUSE_NO":"１６２號","E_COORD97":172244.26937600001,"N_COORD97":2542911.4689600002,"ADDRESS":"裕忠路１６２號","OBJECTID":661536},"geometry":{"x":172244.26937600039,"y":2542911.468959}},{"attributes":{"ID":661564,"DIS_CODE":0,"TOWNNAME":"東區","LI":"關聖里","LIN":"14鄰","STREET":"裕忠路","SECT":" ","MAREA":" ","LANE":" ","ALLEY":" ","HOUSE_NO":"１６２之１號","E_COORD97":172243.85229400001,"N_COORD97":2542906.4656600002,"ADDRESS":"裕忠路１６２之１號","OBJECTID":661537},"geometry":{"x":172243.85229399987,"y":2542906.4656579997}},{"attributes":{"ID":661565,"DIS_CODE":0,"TOWNNAME":"東區","LI":"裕聖里","LIN":"6鄰","STREET":"裕敬一街","SECT":" ","MAREA":" ","LANE":" ","ALLEY":" ","HOUSE_NO":"２９號","E_COORD97":172552.60818899999,"N_COORD97":2542159.9465800002,"ADDRESS":"裕敬一街２９號","OBJECTID":661538},"geometry":{"x":172552.60818899982,"y":2542159.9465820044}},{"attributes":{"ID":661566,"DIS_CODE":0,"TOWNNAME":"東區","LI":"裕聖里","LIN":"6鄰","STREET":"裕敬一街","SECT":" ","MAREA":" ","LANE":" ","ALLEY":" ","HOUSE_NO":"３１號","E_COORD97":172552.08129199999,"N_COORD97":2542152.0508599998,"ADDRESS":"裕敬一街３１號","OBJECTID":661539},"geometry":{"x":172552.08129199967,"y":2542152.0508630015}},{"attributes":{"ID":661567,"DIS_CODE":0,"TOWNNAME":"東區","LI":"路東里","LIN":"9鄰","STREET":"林森路","SECT":"一段","MAREA":" ","LANE":"５８巷","ALLEY":" ","HOUSE_NO":"１８之１號","E_COORD97":169347.135844,"N_COORD97":2542314.3663400002,"ADDRESS":"林森路一段５８巷１６之１號","OBJECTID":661540},"geometry":{"x":169347.13584400062,"y":2542314.3663420025}},{"attributes":{"ID":661568,"DIS_CODE":0,"TOWNNAME":"東區","LI":"東光里","LIN":"32鄰","STREET":"東平路","SECT":" ","MAREA":" ","LANE":" ","ALLEY":" ","HOUSE_NO":"１３１號","E_COORD97":171061.008971,"N_COORD97":2543957.34932,"ADDRESS":"東平路１３１號","OBJECTID":661541},"geometry":{"x":171061.00897100009,"y":2543957.3493180014}},{"attributes":{"ID":661569,"DIS_CODE":0,"TOWNNAME":"東區","LI":"富裕里","LIN":"7鄰","STREET":"裕農路","SECT":" ","MAREA":" ","LANE":"２８８巷","ALLEY":"６０弄","HOUSE_NO":"２６號","E_COORD97":170897.53279900001,"N_COORD97":2542869.7792799999,"ADDRESS":"裕農路２８８巷６０弄２６號","OBJECTID":661542},"geometry":{"x":170897.53279900085,"y":2542869.7792780008}},{"attributes":{"ID":661570,"DIS_CODE":0,"TOWNNAME":"東區","LI":"復興里","LIN":"20鄰","STREET":"東成街","SECT":" ","MAREA":" ","LANE":" ","ALLEY":" ","HOUSE_NO":"２０３號","E_COORD97":171869.036165,"N_COORD97":2542319.3064299999,"ADDRESS":"東成街２０３號","OBJECTID":661543},"geometry":{"x":171869.03616500087,"y":2542319.3064310011}},{"attributes":{"ID":661571,"DIS_CODE":0,"TOWNNAME":"東區","LI":"復興里","LIN":"20鄰","STREET":"東成街","SECT":" ","MAREA":" ","LANE":" ","ALLEY":" ","HOUSE_NO":"２０５號","E_COORD97":171877.99340400001,"N_COORD97":2542314.5690000001,"ADDRESS":"東成街２０５號","OBJECTID":661544},"geometry":{"x":171877.993404001,"y":2542314.5689990018}},{"attributes":{"ID":661572,"DIS_CODE":0,"TOWNNAME":"東區","LI":"文聖里","LIN":"13鄰","STREET":"裕平路","SECT":" ","MAREA":" ","LANE":" ","ALLEY":" ","HOUSE_NO":"２０２號","E_COORD97":172391.27082599999,"N_COORD97":2542811.2473499998,"ADDRESS":"裕平路２０２號","OBJECTID":661545},"geometry":{"x":172391.27082600072,"y":2542811.2473490015}},{"attributes":{"ID":661573,"DIS_CODE":0,"TOWNNAME":"東區","LI":"文聖里","LIN":"13鄰","STREET":"裕平路","SECT":" ","MAREA":" ","LANE":" ","ALLEY":" ","HOUSE_NO":"１９６號","E_COORD97":172349.01373199999,"N_COORD97":2542810.5104100001,"ADDRESS":"裕平路１９６號","OBJECTID":661546},"geometry":{"x":172349.01373200025,"y":2542810.5104150008}},{"attributes":{"ID":661574,"DIS_CODE":0,"TOWNNAME":"東區","LI":"文聖里","LIN":"13鄰","STREET":"裕平路","SECT":" ","MAREA":" ","LANE":" ","ALLEY":" ","HOUSE_NO":"１９８號","E_COORD97":172365.97979700001,"N_COORD97":2542810.6156899999,"ADDRESS":"裕平路１９８號","OBJECTID":661547},"geometry":{"x":172365.979797001,"y":2542810.6156920027}},{"attributes":{"ID":661575,"DIS_CODE":0,"TOWNNAME":"東區","LI":"文聖里","LIN":"13鄰","STREET":"裕平路","SECT":" ","MAREA":" ","LANE":" ","ALLEY":" ","HOUSE_NO":"２００號","E_COORD97":172376.201588,"N_COORD97":2542810.0893100002,"ADDRESS":"裕平路２００號","OBJECTID":661548},"geometry":{"x":172376.2015880011,"y":2542810.0893100034}},{"attributes":{"ID":661576,"DIS_CODE":0,"TOWNNAME":"東區","LI":"文聖里","LIN":"13鄰","STREET":"裕平路","SECT":" ","MAREA":" ","LANE":" ","ALLEY":" ","HOUSE_NO":"１９６之１號","E_COORD97":172349.37355399999,"N_COORD97":2542802.4306399999,"ADDRESS":"裕平路１９６之１號","OBJECTID":661549},"geometry":{"x":172349.37355400063,"y":2542802.4306370001}},{"attributes":{"ID":661577,"DIS_CODE":0,"TOWNNAME":"東區","LI":"文聖里","LIN":"13鄰","STREET":"裕平路","SECT":" ","MAREA":" ","LANE":" ","ALLEY":" ","HOUSE_NO":"１９６之２號","E_COORD97":172349.180016,"N_COORD97":2542796.5477800001,"ADDRESS":"裕平路１９６之２號","OBJECTID":661550},"geometry":{"x":172349.18001599982,"y":2542796.5477789994}},{"attributes":{"ID":661578,"DIS_CODE":0,"TOWNNAME":"東區","LI":"文聖里","LIN":"13鄰","STREET":"裕平路","SECT":" ","MAREA":" ","LANE":" ","ALLEY":" ","HOUSE_NO":"１９６之３號","E_COORD97":172348.741243,"N_COORD97":2542790.42392,"ADDRESS":"裕平路１９６之３號","OBJECTID":661551},"geometry":{"x":172348.74124300107,"y":2542790.4239230044}},{"attributes":{"ID":661579,"DIS_CODE":0,"TOWNNAME":"東區","LI":"文聖里","LIN":"13鄰","STREET":"裕平路","SECT":" ","MAREA":" ","LANE":" ","ALLEY":" ","HOUSE_NO":"１９６之５號","E_COORD97":172348.54837,"N_COORD97":2542782.6599099999,"ADDRESS":"裕平路１９６之５號","OBJECTID":661552},"geometry":{"x":172348.54836999997,"y":2542782.6599080004}},{"attributes":{"ID":661580,"DIS_CODE":0,"TOWNNAME":"東區","LI":"文聖里","LIN":"13鄰","STREET":"裕平路","SECT":" ","MAREA":" ","LANE":" ","ALLEY":" ","HOUSE_NO":"１９６之６號","E_COORD97":172348.10893300001,"N_COORD97":2542774.415,"ADDRESS":"裕平路１９６之６號","OBJECTID":661553},"geometry":{"x":172348.10893299896,"y":2542774.4149990026}},{"attributes":{"ID":661581,"DIS_CODE":0,"TOWNNAME":"東區","LI":"文聖里","LIN":"13鄰","STREET":"裕平路","SECT":" ","MAREA":" ","LANE":" ","ALLEY":" ","HOUSE_NO":"１９６之７號","E_COORD97":172347.916726,"N_COORD97":2542765.8261500001,"ADDRESS":"裕平路１９６之７號","OBJECTID":661554},"geometry":{"x":172347.91672600061,"y":2542765.8261549994}},{"attributes":{"ID":661582,"DIS_CODE":0,"TOWNNAME":"東區","LI":"仁和里","LIN":"14鄰","STREET":"德昌路","SECT":" ","MAREA":" ","LANE":" ","ALLEY":" ","HOUSE_NO":"２１６號","E_COORD97":171840.60804299999,"N_COORD97":2541041.80534,"ADDRESS":"德昌路２１６號","OBJECTID":661555},"geometry":{"x":171840.60804300103,"y":2541041.8053370044}},{"attributes":{"ID":661583,"DIS_CODE":0,"TOWNNAME":"東區","LI":"仁和里","LIN":"14鄰","STREET":"德昌路","SECT":" ","MAREA":" ","LANE":" ","ALLEY":" ","HOUSE_NO":"２００號","E_COORD97":171835.784893,"N_COORD97":2541001.4046299998,"ADDRESS":"德昌路２００號","OBJECTID":661556},"geometry":{"x":171835.7848930005,"y":2541001.404632004}},{"attributes":{"ID":661584,"DIS_CODE":0,"TOWNNAME":"東區","LI":"仁和里","LIN":"14鄰","STREET":"德昌路","SECT":" ","MAREA":" ","LANE":" ","ALLEY":" ","HOUSE_NO":"２１０號","E_COORD97":171859.49523199999,"N_COORD97":2541025.5129,"ADDRESS":"德昌路２１０號","OBJECTID":661557},"geometry":{"x":171859.49523200002,"y":2541025.5128949992}},{"attributes":{"ID":661585,"DIS_CODE":0,"TOWNNAME":"東區","LI":"仁和里","LIN":"14鄰","STREET":"德昌路","SECT":" ","MAREA":" ","LANE":" ","ALLEY":" ","HOUSE_NO":"２１２號","E_COORD97":171840.18429500001,"N_COORD97":2541033.33867,"ADDRESS":"德昌路２１２號","OBJECTID":661558},"geometry":{"x":171840.18429499958,"y":2541033.3386749998}},{"attributes":{"ID":661586,"DIS_CODE":0,"TOWNNAME":"東區","LI":"文聖里","LIN":"13鄰","STREET":"裕平路","SECT":" ","MAREA":" ","LANE":" ","ALLEY":" ","HOUSE_NO":"１９８之１０號","E_COORD97":172362.241095,"N_COORD97":2542751.3302500001,"ADDRESS":"裕平路１９８之１０號","OBJECTID":661559},"geometry":{"x":172362.24109500088,"y":2542751.3302470017}},{"attributes":{"ID":661587,"DIS_CODE":0,"TOWNNAME":"東區","LI":"文聖里","LIN":"13鄰","STREET":"裕平路","SECT":" ","MAREA":" ","LANE":" ","ALLEY":" ","HOUSE_NO":"１９８之１號","E_COORD97":172364.57170500001,"N_COORD97":2542804.24688,"ADDRESS":"裕平路１９８之１號","OBJECTID":661560},"geometry":{"x":172364.57170500141,"y":2542804.2468850017}},{"attributes":{"ID":661588,"DIS_CODE":0,"TOWNNAME":"東區","LI":"文聖里","LIN":"13鄰","STREET":"裕平路","SECT":" ","MAREA":" ","LANE":" ","ALLEY":" ","HOUSE_NO":"１９８之２號","E_COORD97":172365.207326,"N_COORD97":2542798.9552199999,"ADDRESS":"裕平路１９８之２號","OBJECTID":661561},"geometry":{"x":172365.20732599963,"y":2542798.9552210011}},{"attributes":{"ID":661589,"DIS_CODE":0,"TOWNNAME":"東區","LI":"文聖里","LIN":"13鄰","STREET":"裕平路","SECT":" ","MAREA":" ","LANE":" ","ALLEY":" ","HOUSE_NO":"１９８之３號","E_COORD97":172364.35983199999,"N_COORD97":2542792.3935600002,"ADDRESS":"裕平路１９８之３號","OBJECTID":661562},"geometry":{"x":172364.35983199999,"y":2542792.3935580011}},{"attributes":{"ID":661590,"DIS_CODE":0,"TOWNNAME":"東區","LI":"文聖里","LIN":"13鄰","STREET":"裕平路","SECT":" ","MAREA":" ","LANE":" ","ALLEY":" ","HOUSE_NO":"１９８之５號","E_COORD97":172363.93608399999,"N_COORD97":2542786.2552299998,"ADDRESS":"裕平路１９８之５號","OBJECTID":661563},"geometry":{"x":172363.93608400133,"y":2542786.2552279998}},{"attributes":{"ID":661591,"DIS_CODE":0,"TOWNNAME":"東區","LI":"文聖里","LIN":"13鄰","STREET":"裕平路","SECT":" ","MAREA":" ","LANE":" ","ALLEY":" ","HOUSE_NO":"１９８之６號","E_COORD97":172362.876716,"N_COORD97":2542779.69356,"ADDRESS":"裕平路１９８之６號","OBJECTID":661564},"geometry":{"x":172362.87671600189,"y":2542779.6935649998}},{"attributes":{"ID":661592,"DIS_CODE":0,"TOWNNAME":"東區","LI":"文聖里","LIN":"13鄰","STREET":"裕平路","SECT":" ","MAREA":" ","LANE":" ","ALLEY":" ","HOUSE_NO":"１９８之７號","E_COORD97":172362.876716,"N_COORD97":2542772.7085699998,"ADDRESS":"裕平路１９８之７號","OBJECTID":661565},"geometry":{"x":172362.87671600189,"y":2542772.7085689995}},{"attributes":{"ID":661593,"DIS_CODE":0,"TOWNNAME":"東區","LI":"文聖里","LIN":"13鄰","STREET":"裕平路","SECT":" ","MAREA":" ","LANE":" ","ALLEY":" ","HOUSE_NO":"１９８之８號","E_COORD97":172362.241095,"N_COORD97":2542766.5702399998,"ADDRESS":"裕平路１９８之８號","OBJECTID":661566},"geometry":{"x":172362.24109500088,"y":2542766.5702390019}},{"attributes":{"ID":661594,"DIS_CODE":0,"TOWNNAME":"東區","LI":"文聖里","LIN":"13鄰","STREET":"裕平路","SECT":" ","MAREA":" ","LANE":" ","ALLEY":" ","HOUSE_NO":"１９８之９號","E_COORD97":172361.817347,"N_COORD97":2542758.7385800001,"ADDRESS":"裕平路１９８之９號","OBJECTID":661567},"geometry":{"x":172361.81734700035,"y":2542758.7385760024}},{"attributes":{"ID":661595,"DIS_CODE":0,"TOWNNAME":"東區","LI":"文聖里","LIN":"13鄰","STREET":"裕平路","SECT":" ","MAREA":" ","LANE":" ","ALLEY":" ","HOUSE_NO":"２００之１號","E_COORD97":172374.95351699999,"N_COORD97":2542803.6118899998,"ADDRESS":"裕平路２００之１號","OBJECTID":661568},"geometry":{"x":172374.95351700112,"y":2542803.6118850019}},{"attributes":{"ID":661596,"DIS_CODE":0,"TOWNNAME":"東區","LI":"文聖里","LIN":"13鄰","STREET":"裕平路","SECT":" ","MAREA":" ","LANE":" ","ALLEY":" ","HOUSE_NO":"２００之２號","E_COORD97":172373.89414799999,"N_COORD97":2542797.2618900002,"ADDRESS":"裕平路２００之２號","OBJECTID":661569},"geometry":{"x":172373.89414799958,"y":2542797.2618889995}},{"attributes":{"ID":661597,"DIS_CODE":0,"TOWNNAME":"東區","LI":"文聖里","LIN":"13鄰","STREET":"裕平路","SECT":" ","MAREA":" ","LANE":" ","ALLEY":" ","HOUSE_NO":"２００之３號","E_COORD97":172373.68227399999,"N_COORD97":2542791.1235600002,"ADDRESS":"裕平路２００之３號","OBJECTID":661570},"geometry":{"x":172373.68227400072,"y":2542791.1235590018}},{"attributes":{"ID":661598,"DIS_CODE":0,"TOWNNAME":"東區","LI":"文聖里","LIN":"13鄰","STREET":"裕平路","SECT":" ","MAREA":" ","LANE":" ","ALLEY":" ","HOUSE_NO":"２００之５號","E_COORD97":172373.470401,"N_COORD97":2542784.5619000001,"ADDRESS":"裕平路２００之５號","OBJECTID":661571},"geometry":{"x":172373.47040100023,"y":2542784.5618960019}},{"attributes":{"ID":661599,"DIS_CODE":0,"TOWNNAME":"東區","LI":"文聖里","LIN":"13鄰","STREET":"裕平路","SECT":" ","MAREA":" ","LANE":" ","ALLEY":" ","HOUSE_NO":"２００之６號","E_COORD97":172373.258527,"N_COORD97":2542778.0002299999,"ADDRESS":"裕平路２００之６號","OBJECTID":661572},"geometry":{"x":172373.25852700137,"y":2542778.0002330001}},{"attributes":{"ID":661600,"DIS_CODE":0,"TOWNNAME":"東區","LI":"文聖里","LIN":"13鄰","STREET":"裕平路","SECT":" ","MAREA":" ","LANE":" ","ALLEY":" ","HOUSE_NO":"２００之７號","E_COORD97":172372.83478,"N_COORD97":2542771.2269000001,"ADDRESS":"裕平路２００之７號","OBJECTID":661573},"geometry":{"x":172372.83478000015,"y":2542771.226902999}},{"attributes":{"ID":661601,"DIS_CODE":0,"TOWNNAME":"東區","LI":"文聖里","LIN":"13鄰","STREET":"裕平路","SECT":" ","MAREA":" ","LANE":" ","ALLEY":" ","HOUSE_NO":"２００之８號","E_COORD97":172372.411032,"N_COORD97":2542764.2419099999,"ADDRESS":"裕平路２００之８號","OBJECTID":661574},"geometry":{"x":172372.41103200056,"y":2542764.2419070005}},{"attributes":{"ID":661602,"DIS_CODE":0,"TOWNNAME":"東區","LI":"文聖里","LIN":"13鄰","STREET":"裕平路","SECT":" ","MAREA":" ","LANE":" ","ALLEY":" ","HOUSE_NO":"２００之９號","E_COORD97":172371.35166399999,"N_COORD97":2542752.1769099999,"ADDRESS":"裕平路２００之９號","OBJECTID":661575},"geometry":{"x":172371.35166400112,"y":2542752.1769130025}},{"attributes":{"ID":661603,"DIS_CODE":0,"TOWNNAME":"東區","LI":"文聖里","LIN":"13鄰","STREET":"裕平路","SECT":" ","MAREA":" ","LANE":" ","ALLEY":" ","HOUSE_NO":"２０２之１號","E_COORD97":172391.267792,"N_COORD97":2542803.1885500001,"ADDRESS":"裕平路２０２之１號","OBJECTID":661576},"geometry":{"x":172391.2677919995,"y":2542803.1885519996}},{"attributes":{"ID":661604,"DIS_CODE":0,"TOWNNAME":"東區","LI":"文聖里","LIN":"13鄰","STREET":"裕平路","SECT":" ","MAREA":" ","LANE":" ","ALLEY":" ","HOUSE_NO":"２０２之２號","E_COORD97":172390.208423,"N_COORD97":2542795.7802200001,"ADDRESS":"裕平路２０２之２號","OBJECTID":661577},"geometry":{"x":172390.20842300076,"y":2542795.7802230027}},{"attributes":{"ID":661605,"DIS_CODE":0,"TOWNNAME":"東區","LI":"文聖里","LIN":"13鄰","STREET":"裕平路","SECT":" ","MAREA":" ","LANE":" ","ALLEY":" ","HOUSE_NO":"２０２之３號","E_COORD97":172390.208423,"N_COORD97":2542788.7952299998,"ADDRESS":"裕平路２０２之３號","OBJECTID":661578},"geometry":{"x":172390.20842300076,"y":2542788.7952270042}},{"attributes":{"ID":661606,"DIS_CODE":0,"TOWNNAME":"東區","LI":"文聖里","LIN":"13鄰","STREET":"裕平路","SECT":" ","MAREA":" ","LANE":" ","ALLEY":" ","HOUSE_NO":"２０２之９號","E_COORD97":172391.055918,"N_COORD97":2542751.11858,"ADDRESS":"裕平路２０２之９號","OBJECTID":661579},"geometry":{"x":172391.05591799971,"y":2542751.1185800005}},{"attributes":{"ID":661607,"DIS_CODE":0,"TOWNNAME":"東區","LI":"文聖里","LIN":"13鄰","STREET":"裕平路","SECT":" ","MAREA":" ","LANE":" ","ALLEY":" ","HOUSE_NO":"２０２之８號","E_COORD97":172391.47966499999,"N_COORD97":2542760.8552399999,"ADDRESS":"裕平路２０２之８號","OBJECTID":661580},"geometry":{"x":172391.47966500092,"y":2542760.855241999}},{"attributes":{"ID":661608,"DIS_CODE":0,"TOWNNAME":"東區","LI":"文聖里","LIN":"13鄰","STREET":"裕平路","SECT":" ","MAREA":" ","LANE":" ","ALLEY":" ","HOUSE_NO":"２０２之７號","E_COORD97":172391.69153899999,"N_COORD97":2542768.26357,"ADDRESS":"裕平路２０２之７號","OBJECTID":661581},"geometry":{"x":172391.69153899979,"y":2542768.2635710016}},{"attributes":{"ID":661609,"DIS_CODE":0,"TOWNNAME":"東區","LI":"文聖里","LIN":"13鄰","STREET":"裕平路","SECT":" ","MAREA":" ","LANE":" ","ALLEY":" ","HOUSE_NO":"２０２之６號","E_COORD97":172390.420297,"N_COORD97":2542776.9419,"ADDRESS":"裕平路２０２之６號","OBJECTID":661582},"geometry":{"x":172390.42029699963,"y":2542776.9419000018}},{"attributes":{"ID":661610,"DIS_CODE":0,"TOWNNAME":"東區","LI":"文聖里","LIN":"13鄰","STREET":"裕平路","SECT":" ","MAREA":" ","LANE":" ","ALLEY":" ","HOUSE_NO":"２０２之５號","E_COORD97":172389.78467600001,"N_COORD97":2542783.5035600001,"ADDRESS":"裕平路２０２之５號","OBJECTID":661583},"geometry":{"x":172389.78467600141,"y":2542783.5035630036}},{"attributes":{"ID":661611,"DIS_CODE":0,"TOWNNAME":"東區","LI":"虎尾里","LIN":"2鄰","STREET":"東門路","SECT":"三段","MAREA":" ","LANE":"１７９巷","ALLEY":" ","HOUSE_NO":"４４號","E_COORD97":171651.742532,"N_COORD97":2542007.8643999998,"ADDRESS":"東門路三段１７９巷４４號","OBJECTID":661584},"geometry":{"x":171651.74253200181,"y":2542007.8644039985}},{"attributes":{"ID":661612,"DIS_CODE":0,"TOWNNAME":"後壁區","LI":"後壁里","LIN":"10鄰","STREET":" ","SECT":" ","MAREA":"後壁","LANE":" ","ALLEY":" ","HOUSE_NO":"１７４號之１","E_COORD97":185053.841552,"N_COORD97":2584890.3944100002,"ADDRESS":"後壁１７４號之１","OBJECTID":661585},"geometry":{"x":185053.84155200049,"y":2584890.3944090009}},{"attributes":{"ID":661613,"DIS_CODE":0,"TOWNNAME":"七股區","LI":"義合里","LIN":"11鄰","STREET":" ","SECT":" ","MAREA":"義合","LANE":" ","ALLEY":" ","HOUSE_NO":"９０號之２","E_COORD97":161558.03349500001,"N_COORD97":2555711.7665200001,"ADDRESS":"義合９０號之２","OBJECTID":661586},"geometry":{"x":161558.03349499963,"y":2555711.7665250003}},{"attributes":{"ID":661614,"DIS_CODE":0,"TOWNNAME":"七股區","LI":"義合里","LIN":"11鄰","STREET":" ","SECT":" ","MAREA":"義合","LANE":" ","ALLEY":" ","HOUSE_NO":"９０號之３","E_COORD97":161623.08635100001,"N_COORD97":2555682.7682099999,"ADDRESS":"義合９０號之３","OBJECTID":661587},"geometry":{"x":161623.08635100164,"y":2555682.7682080008}},{"attributes":{"ID":661615,"DIS_CODE":0,"TOWNNAME":"永康區","LI":"\u25A0行里","LIN":"43鄰","STREET":"中正二街","SECT":" ","MAREA":" ","LANE":"１９２巷","ALLEY":" ","HOUSE_NO":"２６號","E_COORD97":171538.75999699999,"N_COORD97":2547785.6736599999,"ADDRESS":"中正二街１９２巷２６號","OBJECTID":661588},"geometry":{"x":171538.75999700185,"y":2547785.6736580003}},{"attributes":{"ID":661616,"DIS_CODE":0,"TOWNNAME":"永康區","LI":"\u25A0行里","LIN":"43鄰","STREET":"中正二街","SECT":" ","MAREA":" ","LANE":"１９２巷","ALLEY":" ","HOUSE_NO":"２７號","E_COORD97":171532.40145800001,"N_COORD97":2547779.5353299999,"ADDRESS":"中正二街１９２巷２７號","OBJECTID":661589},"geometry":{"x":171532.40145799983,"y":2547779.5353280026}},{"attributes":{"ID":661617,"DIS_CODE":0,"TOWNNAME":"永康區","LI":"\u25A0行里","LIN":"43鄰","STREET":"中正二街","SECT":" ","MAREA":" ","LANE":"１９２巷","ALLEY":" ","HOUSE_NO":"２７號二樓","E_COORD97":171532.40145800001,"N_COORD97":2547779.5353299999,"ADDRESS":"中正二街１９２巷２７號二樓","OBJECTID":661590},"geometry":{"x":171532.40145799983,"y":2547779.5353280026}},{"attributes":{"ID":661618,"DIS_CODE":0,"TOWNNAME":"永康區","LI":"\u25A0行里","LIN":"43鄰","STREET":"中正二街","SECT":" ","MAREA":" ","LANE":"１９２巷","ALLEY":" ","HOUSE_NO":"２９號","E_COORD97":171534.097068,"N_COORD97":2547777.41866,"ADDRESS":"中正二街１９２巷２９號","OBJECTID":661591},"geometry":{"x":171534.09706800058,"y":2547777.4186630007}},{"attributes":{"ID":661619,"DIS_CODE":0,"TOWNNAME":"後壁區","LI":"後壁里","LIN":"10鄰","STREET":" ","SECT":" ","MAREA":"後壁","LANE":" ","ALLEY":" ","HOUSE_NO":"１７７號之１","E_COORD97":185181.86424200001,"N_COORD97":2584287.1447399999,"ADDRESS":"後壁１７７號之１","OBJECTID":661592},"geometry":{"x":185181.86424199957,"y":2584287.144735001}},{"attributes":{"ID":661620,"DIS_CODE":0,"TOWNNAME":"歸仁區","LI":"大廟里","LIN":"22鄰","STREET":"大廟一街","SECT":" ","MAREA":" ","LANE":"３８巷","ALLEY":"２５弄","HOUSE_NO":"１１之１號","E_COORD97":175728.638722,"N_COORD97":2544039.3908199999,"ADDRESS":"大廟一街３８巷２５弄１１之１號","OBJECTID":661593},"geometry":{"x":175728.63872200064,"y":2544039.3908210024}},{"attributes":{"ID":661621,"DIS_CODE":0,"TOWNNAME":"後壁區","LI":"後壁里","LIN":"11鄰","STREET":" ","SECT":" ","MAREA":"後壁","LANE":" ","ALLEY":" ","HOUSE_NO":"１９０號之１","E_COORD97":185143.181889,"N_COORD97":2585011.2560100001,"ADDRESS":"後壁１９０號之１","OBJECTID":661594},"geometry":{"x":185143.18188900035,"y":2585011.2560109999}},{"attributes":{"ID":661622,"DIS_CODE":0,"TOWNNAME":"後壁區","LI":"後壁里","LIN":"12鄰","STREET":" ","SECT":" ","MAREA":"後壁","LANE":" ","ALLEY":" ","HOUSE_NO":"１９８號之１","E_COORD97":185284.76989699999,"N_COORD97":2585031.3643299998,"ADDRESS":"後壁１９８號之１","OBJECTID":661595},"geometry":{"x":185284.76989700086,"y":2585031.364333}},{"attributes":{"ID":661623,"DIS_CODE":0,"TOWNNAME":"後壁區","LI":"後壁里","LIN":"12鄰","STREET":" ","SECT":" ","MAREA":"後壁","LANE":" ","ALLEY":" ","HOUSE_NO":"１９８號之２","E_COORD97":185290.06885000001,"N_COORD97":2585020.5693399999,"ADDRESS":"後壁１９８號之２","OBJECTID":661596},"geometry":{"x":185290.06885000039,"y":2585020.5693390016}},{"attributes":{"ID":661624,"DIS_CODE":0,"TOWNNAME":"中西區","LI":"西湖里","LIN":"33鄰","STREET":"中華西路","SECT":"二段","MAREA":" ","LANE":"８５１巷","ALLEY":"１１７弄","HOUSE_NO":"１６號","E_COORD97":166323.06474500001,"N_COORD97":2545014.4577799998,"ADDRESS":"中華西路二段８５１巷１１７弄１６號","OBJECTID":661597},"geometry":{"x":166323.06474500056,"y":2545014.4577840008}},{"attributes":{"ID":661625,"DIS_CODE":0,"TOWNNAME":"中西區","LI":"中正里","LIN":"7鄰","STREET":"國華街","SECT":"三段","MAREA":" ","LANE":" ","ALLEY":" ","HOUSE_NO":"１５號","E_COORD97":167722.885798,"N_COORD97":2543807.3234399999,"ADDRESS":"國華街三段１５號","OBJECTID":661598},"geometry":{"x":167722.88579800073,"y":2543807.3234350011}},{"attributes":{"ID":661626,"DIS_CODE":0,"TOWNNAME":"中西區","LI":"萬昌里","LIN":"8鄰","STREET":"府前路","SECT":"一段","MAREA":" ","LANE":"１２２巷","ALLEY":" ","HOUSE_NO":"１８號","E_COORD97":168816.84043899999,"N_COORD97":2543351.81702,"ADDRESS":"府前路一段１２２巷１８號","OBJECTID":661599},"geometry":{"x":168816.84043900017,"y":2543351.8170149997}},{"attributes":{"ID":661627,"DIS_CODE":0,"TOWNNAME":"中西區","LI":"萬昌里","LIN":"8鄰","STREET":"府前路","SECT":"一段","MAREA":" ","LANE":"１２２巷","ALLEY":" ","HOUSE_NO":"１８號八樓之２","E_COORD97":168816.84043899999,"N_COORD97":2543351.81702,"ADDRESS":"府前路一段１２２巷１８號八樓之２","OBJECTID":661600},"geometry":{"x":168816.84043900017,"y":2543351.8170149997}}]}