{"displayFieldName":"TOWNNAME","fieldAliases":{"ID":"ID","DIS_CODE":"DIS_CODE","TOWNNAME":"TOWNNAME","LI":"LI","LIN":"LIN","STREET":"STREET","SECT":"SECT","MAREA":"MAREA","LANE":"LANE","ALLEY":"ALLEY","HOUSE_NO":"HOUSE_NO","E_COORD97":"E_COORD97","N_COORD97":"N_COORD97","ADDRESS":"ADDRESS","OBJECTID":"OBJECTID"},"geometryType":"esriGeometryPoint","spatialReference":{"wkid":102443,"latestWkid":3826},"fields":[{"name":"ID","type":"esriFieldTypeDouble","alias":"ID"},{"name":"DIS_CODE","type":"esriFieldTypeInteger","alias":"DIS_CODE"},{"name":"TOWNNAME","type":"esriFieldTypeString","alias":"TOWNNAME","length":8},{"name":"LI","type":"esriFieldTypeString","alias":"LI","length":8},{"name":"LIN","type":"esriFieldTypeString","alias":"LIN","length":12},{"name":"STREET","type":"esriFieldTypeString","alias":"STREET","length":20},{"name":"SECT","type":"esriFieldTypeString","alias":"SECT","length":8},{"name":"MAREA","type":"esriFieldTypeString","alias":"MAREA","length":12},{"name":"LANE","type":"esriFieldTypeString","alias":"LANE","length":10},{"name":"ALLEY","type":"esriFieldTypeString","alias":"ALLEY","length":10},{"name":"HOUSE_NO","type":"esriFieldTypeString","alias":"HOUSE_NO","length":20},{"name":"E_COORD97","type":"esriFieldTypeDouble","alias":"E_COORD97"},{"name":"N_COORD97","type":"esriFieldTypeDouble","alias":"N_COORD97"},{"name":"ADDRESS","type":"esriFieldTypeString","alias":"ADDRESS","length":50},{"name":"OBJECTID","type":"esriFieldTypeOID","alias":"OBJECTID"}],"features":[{"attributes":{"ID":237005,"DIS_CODE":0,"TOWNNAME":"官田區","LI":"隆田里","LIN":"14鄰","STREET":"勝利路","SECT":" ","MAREA":" ","LANE":" ","ALLEY":" ","HOUSE_NO":"１４３號","E_COORD97":180154.06,"N_COORD97":2566105.6400000001,"ADDRESS":"勝利路１４３號","OBJECTID":237001},"geometry":{"x":180154.06000000052,"y":2566105.6400000043}},{"attributes":{"ID":237006,"DIS_CODE":0,"TOWNNAME":"歸仁區","LI":"崙頂里","LIN":"16鄰","STREET":"大成路","SECT":" ","MAREA":" ","LANE":" ","ALLEY":" ","HOUSE_NO":"３３８號","E_COORD97":177954.21445900001,"N_COORD97":2540094.10384,"ADDRESS":"大成路３３８號","OBJECTID":237002},"geometry":{"x":177954.21445900109,"y":2540094.103845004}},{"attributes":{"ID":237007,"DIS_CODE":0,"TOWNNAME":"永康區","LI":"東橋里","LIN":"16鄰","STREET":"東橋六街","SECT":" ","MAREA":" ","LANE":" ","ALLEY":" ","HOUSE_NO":"１２８號","E_COORD97":171634.52168999999,"N_COORD97":2546708.6273599998,"ADDRESS":"東橋六街１２８號","OBJECTID":237003},"geometry":{"x":171634.52169000078,"y":2546708.6273599993}},{"attributes":{"ID":237008,"DIS_CODE":0,"TOWNNAME":"安南區","LI":"淵中里","LIN":"16鄰","STREET":"本田街","SECT":"三段","MAREA":" ","LANE":" ","ALLEY":" ","HOUSE_NO":"１８０號之１０","E_COORD97":164392.70758799999,"N_COORD97":2549278.9635700001,"ADDRESS":"本田街三段１８０號之１０","OBJECTID":237004},"geometry":{"x":164392.70758800115,"y":2549278.9635659996}},{"attributes":{"ID":237009,"DIS_CODE":0,"TOWNNAME":"安南區","LI":"淵中里","LIN":"16鄰","STREET":"本田街","SECT":"三段","MAREA":" ","LANE":" ","ALLEY":" ","HOUSE_NO":"１８０號之１００","E_COORD97":164443.34982999999,"N_COORD97":2549149.2119700001,"ADDRESS":"本田街三段１８０號之１００","OBJECTID":237005},"geometry":{"x":164443.34983000159,"y":2549149.2119700015}},{"attributes":{"ID":237010,"DIS_CODE":0,"TOWNNAME":"安南區","LI":"淵中里","LIN":"16鄰","STREET":"本田路","SECT":"三段","MAREA":" ","LANE":" ","ALLEY":" ","HOUSE_NO":"４２２號","E_COORD97":164830.74179199999,"N_COORD97":2549755.70279,"ADDRESS":"本田路三段４２２號","OBJECTID":237006},"geometry":{"x":164830.7417919999,"y":2549755.7027879991}},{"attributes":{"ID":237011,"DIS_CODE":0,"TOWNNAME":"安南區","LI":"淵中里","LIN":"16鄰","STREET":"本田街","SECT":"三段","MAREA":" ","LANE":" ","ALLEY":" ","HOUSE_NO":"１８０之５６號","E_COORD97":164441.70766499999,"N_COORD97":2549262.41389,"ADDRESS":"本田街三段１８０之５６號","OBJECTID":237007},"geometry":{"x":164441.70766500104,"y":2549262.4138880018}},{"attributes":{"ID":237012,"DIS_CODE":0,"TOWNNAME":"安南區","LI":"淵中里","LIN":"16鄰","STREET":"本田街","SECT":"三段","MAREA":" ","LANE":" ","ALLEY":" ","HOUSE_NO":"５５０號之２","E_COORD97":164907.70177499999,"N_COORD97":2549787.1072499999,"ADDRESS":"本田街三段５５０號之２","OBJECTID":237008},"geometry":{"x":164907.70177500043,"y":2549787.1072540022}},{"attributes":{"ID":237013,"DIS_CODE":0,"TOWNNAME":"安南區","LI":"淵中里","LIN":"16鄰","STREET":"本田路","SECT":"三段","MAREA":" ","LANE":" ","ALLEY":" ","HOUSE_NO":"６６６號","E_COORD97":164905.78980999999,"N_COORD97":2549817.3177299998,"ADDRESS":"本田路三段６６６號","OBJECTID":237009},"geometry":{"x":164905.78981000185,"y":2549817.317726003}},{"attributes":{"ID":237014,"DIS_CODE":0,"TOWNNAME":"安南區","LI":"淵中里","LIN":"16鄰","STREET":"本田路","SECT":"三段","MAREA":" ","LANE":" ","ALLEY":" ","HOUSE_NO":"７２８號","E_COORD97":165008.56247400001,"N_COORD97":2549894.7396999998,"ADDRESS":"本田路三段７２８號","OBJECTID":237010},"geometry":{"x":165008.5624740012,"y":2549894.7396959998}},{"attributes":{"ID":237015,"DIS_CODE":0,"TOWNNAME":"安南區","LI":"淵中里","LIN":"16鄰","STREET":"本田路","SECT":"三段","MAREA":" ","LANE":" ","ALLEY":" ","HOUSE_NO":"７６６號","E_COORD97":165069.587436,"N_COORD97":2549938.7663400001,"ADDRESS":"本田路三段７６６號","OBJECTID":237011},"geometry":{"x":165069.58743600175,"y":2549938.7663390022}},{"attributes":{"ID":237016,"DIS_CODE":0,"TOWNNAME":"佳里區","LI":"忠仁里","LIN":"13鄰","STREET":"信義一街","SECT":" ","MAREA":" ","LANE":"２９１巷","ALLEY":" ","HOUSE_NO":"８號","E_COORD97":166169.04999999999,"N_COORD97":2562295.1099999999,"ADDRESS":"信義一街２９１巷８號","OBJECTID":237012},"geometry":{"x":166169.05000000075,"y":2562295.1100000013}},{"attributes":{"ID":237017,"DIS_CODE":0,"TOWNNAME":"安南區","LI":"海西里","LIN":"13鄰","STREET":"海尾路","SECT":" ","MAREA":" ","LANE":" ","ALLEY":" ","HOUSE_NO":"５０２號","E_COORD97":166244.95000000001,"N_COORD97":2548430.23,"ADDRESS":"海尾路５０２號","OBJECTID":237013},"geometry":{"x":166244.95000000019,"y":2548430.2300000004}},{"attributes":{"ID":237018,"DIS_CODE":0,"TOWNNAME":"麻豆區","LI":"油車里","LIN":"16鄰","STREET":" ","SECT":" ","MAREA":"油車","LANE":" ","ALLEY":" ","HOUSE_NO":"１２９號之２７","E_COORD97":172392.95999999999,"N_COORD97":2565320.0800000001,"ADDRESS":"油車１２９號之２７","OBJECTID":237014},"geometry":{"x":172392.96000000089,"y":2565320.0800000019}},{"attributes":{"ID":237019,"DIS_CODE":0,"TOWNNAME":"安南區","LI":"海西里","LIN":"13鄰","STREET":"海尾路","SECT":" ","MAREA":" ","LANE":" ","ALLEY":" ","HOUSE_NO":"５０６號","E_COORD97":166245.35999999999,"N_COORD97":2548434.6600000001,"ADDRESS":"海尾路５０６號","OBJECTID":237015},"geometry":{"x":166245.36000000127,"y":2548434.660000002}},{"attributes":{"ID":237020,"DIS_CODE":0,"TOWNNAME":"安南區","LI":"海西里","LIN":"13鄰","STREET":"海尾路","SECT":" ","MAREA":" ","LANE":"３９５巷","ALLEY":" ","HOUSE_NO":"１１７號","E_COORD97":166416.78340700001,"N_COORD97":2548331.0235000001,"ADDRESS":"海尾路３９５巷１１７號","OBJECTID":237016},"geometry":{"x":166416.78340699989,"y":2548331.0235020034}},{"attributes":{"ID":237021,"DIS_CODE":0,"TOWNNAME":"官田區","LI":"隆田里","LIN":"14鄰","STREET":"勝利路","SECT":" ","MAREA":" ","LANE":" ","ALLEY":" ","HOUSE_NO":"１４５號","E_COORD97":180157.48999999999,"N_COORD97":2566109.0699999998,"ADDRESS":"勝利路１４５號","OBJECTID":237017},"geometry":{"x":180157.49000000022,"y":2566109.070000004}},{"attributes":{"ID":237022,"DIS_CODE":0,"TOWNNAME":"官田區","LI":"隆田里","LIN":"14鄰","STREET":"勝利路","SECT":" ","MAREA":" ","LANE":" ","ALLEY":" ","HOUSE_NO":"１４７號","E_COORD97":180162.39999999999,"N_COORD97":2566113.7400000002,"ADDRESS":"勝利路１４７號","OBJECTID":237018},"geometry":{"x":180162.4000000013,"y":2566113.7400000002}},{"attributes":{"ID":237023,"DIS_CODE":0,"TOWNNAME":"官田區","LI":"隆田里","LIN":"14鄰","STREET":"勝利路","SECT":" ","MAREA":" ","LANE":" ","ALLEY":" ","HOUSE_NO":"１４９號","E_COORD97":180166.66,"N_COORD97":2566118.52,"ADDRESS":"勝利路１４９號","OBJECTID":237019},"geometry":{"x":180166.66000000015,"y":2566118.5199999977}},{"attributes":{"ID":237024,"DIS_CODE":0,"TOWNNAME":"官田區","LI":"隆田里","LIN":"14鄰","STREET":"勝利路","SECT":" ","MAREA":" ","LANE":" ","ALLEY":" ","HOUSE_NO":"１５１號","E_COORD97":180170.26000000001,"N_COORD97":2566122.8399999999,"ADDRESS":"勝利路１５１號","OBJECTID":237020},"geometry":{"x":180170.25999999978,"y":2566122.8399999999}},{"attributes":{"ID":237025,"DIS_CODE":0,"TOWNNAME":"歸仁區","LI":"許厝里","LIN":"33鄰","STREET":"公園八街","SECT":" ","MAREA":" ","LANE":" ","ALLEY":" ","HOUSE_NO":"３４號","E_COORD97":177891.63,"N_COORD97":2540579.8199999998,"ADDRESS":"公園八街３４號","OBJECTID":237021},"geometry":{"x":177891.62999999989,"y":2540579.8200000003}},{"attributes":{"ID":237026,"DIS_CODE":0,"TOWNNAME":"關廟區","LI":"新埔里","LIN":"9鄰","STREET":"新埔三街","SECT":" ","MAREA":" ","LANE":"１３７巷","ALLEY":" ","HOUSE_NO":"１３９號","E_COORD97":181222.70632999999,"N_COORD97":2542365.78101,"ADDRESS":"新埔三街１３７巷１３９號","OBJECTID":237022},"geometry":{"x":181222.70633000135,"y":2542365.7810069993}},{"attributes":{"ID":237027,"DIS_CODE":0,"TOWNNAME":"歸仁區","LI":"辜厝里","LIN":"34鄰","STREET":"大吉街","SECT":" ","MAREA":" ","LANE":" ","ALLEY":" ","HOUSE_NO":"１２５號","E_COORD97":177210.94,"N_COORD97":2540518.6800000002,"ADDRESS":"大吉街１２５號","OBJECTID":237023},"geometry":{"x":177210.94000000134,"y":2540518.6800000016}},{"attributes":{"ID":237028,"DIS_CODE":0,"TOWNNAME":"官田區","LI":"隆田里","LIN":"14鄰","STREET":"勝利路","SECT":" ","MAREA":" ","LANE":" ","ALLEY":" ","HOUSE_NO":"１５３號","E_COORD97":180174.37,"N_COORD97":2566127.0699999998,"ADDRESS":"勝利路１５３號","OBJECTID":237024},"geometry":{"x":180174.37000000104,"y":2566127.0700000022}},{"attributes":{"ID":237029,"DIS_CODE":0,"TOWNNAME":"白河區","LI":"永安里","LIN":"14鄰","STREET":"中山路","SECT":" ","MAREA":" ","LANE":" ","ALLEY":" ","HOUSE_NO":"１６７號","E_COORD97":190416.23999999999,"N_COORD97":2583500.9399999999,"ADDRESS":"中山路１６７號","OBJECTID":237025},"geometry":{"x":190416.24000000115,"y":2583500.9399999995}},{"attributes":{"ID":237030,"DIS_CODE":0,"TOWNNAME":"白河區","LI":"永安里","LIN":"16鄰","STREET":"忠孝街","SECT":" ","MAREA":" ","LANE":" ","ALLEY":" ","HOUSE_NO":"２６之２號","E_COORD97":189814.42821799999,"N_COORD97":2583283.4349000002,"ADDRESS":"忠孝街２６之２號","OBJECTID":237026},"geometry":{"x":189814.42821800057,"y":2583283.4349000026}},{"attributes":{"ID":237031,"DIS_CODE":0,"TOWNNAME":"將軍區","LI":"嘉昌里","LIN":"16鄰","STREET":" ","SECT":" ","MAREA":"昌平","LANE":" ","ALLEY":" ","HOUSE_NO":"３６號","E_COORD97":163511.92000000001,"N_COORD97":2567429.2200000002,"ADDRESS":"昌平３６號","OBJECTID":237027},"geometry":{"x":163511.92000000086,"y":2567429.2200000007}},{"attributes":{"ID":237032,"DIS_CODE":0,"TOWNNAME":"永康區","LI":"永康里","LIN":"16鄰","STREET":"永中街","SECT":" ","MAREA":" ","LANE":"１００巷","ALLEY":" ","HOUSE_NO":"２９號","E_COORD97":174013.29000000001,"N_COORD97":2547160.1000000001,"ADDRESS":"永中街１００巷２９號","OBJECTID":237028},"geometry":{"x":174013.29000000004,"y":2547160.1000000015}},{"attributes":{"ID":237033,"DIS_CODE":0,"TOWNNAME":"永康區","LI":"烏竹里","LIN":"16鄰","STREET":"龍橋街","SECT":" ","MAREA":" ","LANE":"１８６巷","ALLEY":" ","HOUSE_NO":"５８號","E_COORD97":174731.23000000001,"N_COORD97":2548818.25,"ADDRESS":"龍橋街１８６巷５８號","OBJECTID":237029},"geometry":{"x":174731.23000000045,"y":2548818.25}},{"attributes":{"ID":237034,"DIS_CODE":0,"TOWNNAME":"永康區","LI":"復華里","LIN":"16鄰","STREET":"國華街","SECT":" ","MAREA":" ","LANE":"９５巷","ALLEY":" ","HOUSE_NO":"７號","E_COORD97":172784.66,"N_COORD97":2546027.75,"ADDRESS":"國華街９５巷７號","OBJECTID":237030},"geometry":{"x":172784.66000000108,"y":2546027.7500000019}},{"attributes":{"ID":237035,"DIS_CODE":0,"TOWNNAME":"安南區","LI":"海西里","LIN":"13鄰","STREET":"海環街","SECT":" ","MAREA":" ","LANE":"２８１巷","ALLEY":" ","HOUSE_NO":"９０號之２０１","E_COORD97":165873.07000000001,"N_COORD97":2548750.6899999999,"ADDRESS":"海環街２８１巷９０號之２０１","OBJECTID":237031},"geometry":{"x":165873.0700000003,"y":2548750.6899999995}},{"attributes":{"ID":237036,"DIS_CODE":0,"TOWNNAME":"歸仁區","LI":"後市里","LIN":"12鄰","STREET":"民權南路","SECT":" ","MAREA":" ","LANE":" ","ALLEY":" ","HOUSE_NO":"５號","E_COORD97":176988.14000000001,"N_COORD97":2540813.25,"ADDRESS":"民權南路５號","OBJECTID":237032},"geometry":{"x":176988.1400000006,"y":2540813.2500000019}},{"attributes":{"ID":237037,"DIS_CODE":0,"TOWNNAME":"安南區","LI":"海西里","LIN":"13鄰","STREET":"海環街","SECT":" ","MAREA":" ","LANE":"３６５巷","ALLEY":" ","HOUSE_NO":"２６號","E_COORD97":165997.66,"N_COORD97":2548869.2599999998,"ADDRESS":"海環街３６５巷２６號","OBJECTID":237033},"geometry":{"x":165997.66000000015,"y":2548869.2599999998}},{"attributes":{"ID":237038,"DIS_CODE":0,"TOWNNAME":"安南區","LI":"海西里","LIN":"13鄰","STREET":"海環街","SECT":" ","MAREA":" ","LANE":"３６５巷","ALLEY":" ","HOUSE_NO":"２８號","E_COORD97":165992.14999999999,"N_COORD97":2548866.6499999999,"ADDRESS":"海環街３６５巷２８號","OBJECTID":237034},"geometry":{"x":165992.1500000013,"y":2548866.6500000022}},{"attributes":{"ID":237039,"DIS_CODE":0,"TOWNNAME":"安南區","LI":"海西里","LIN":"13鄰","STREET":"海環街","SECT":" ","MAREA":" ","LANE":"３６５巷","ALLEY":" ","HOUSE_NO":"３號","E_COORD97":166054.54000000001,"N_COORD97":2548870.5800000001,"ADDRESS":"海環街３６５巷３號","OBJECTID":237035},"geometry":{"x":166054.54000000004,"y":2548870.5800000001}},{"attributes":{"ID":237040,"DIS_CODE":0,"TOWNNAME":"安南區","LI":"海西里","LIN":"13鄰","STREET":"海環街","SECT":" ","MAREA":" ","LANE":"３６５巷","ALLEY":" ","HOUSE_NO":"４號","E_COORD97":166040.63,"N_COORD97":2548896.0499999998,"ADDRESS":"海環街３６５巷４號","OBJECTID":237036},"geometry":{"x":166040.62999999896,"y":2548896.0500000007}},{"attributes":{"ID":237041,"DIS_CODE":0,"TOWNNAME":"安南區","LI":"海西里","LIN":"13鄰","STREET":"海環街","SECT":" ","MAREA":" ","LANE":"３６５巷","ALLEY":" ","HOUSE_NO":"５號","E_COORD97":166050.87,"N_COORD97":2548868.0499999998,"ADDRESS":"海環街３６５巷５號","OBJECTID":237037},"geometry":{"x":166050.87000000011,"y":2548868.0500000007}},{"attributes":{"ID":237042,"DIS_CODE":0,"TOWNNAME":"安南區","LI":"海西里","LIN":"13鄰","STREET":"海環街","SECT":" ","MAREA":" ","LANE":"３６５巷","ALLEY":" ","HOUSE_NO":"７號","E_COORD97":166046.37,"N_COORD97":2548866.6400000001,"ADDRESS":"海環街３６５巷７號","OBJECTID":237038},"geometry":{"x":166046.37000000104,"y":2548866.6400000025}},{"attributes":{"ID":237043,"DIS_CODE":0,"TOWNNAME":"安南區","LI":"海西里","LIN":"13鄰","STREET":"海環街","SECT":" ","MAREA":" ","LANE":"３６５巷","ALLEY":" ","HOUSE_NO":"８號","E_COORD97":166031.42000000001,"N_COORD97":2548891.4500000002,"ADDRESS":"海環街３６５巷８號","OBJECTID":237039},"geometry":{"x":166031.41999999993,"y":2548891.4499999993}},{"attributes":{"ID":237044,"DIS_CODE":0,"TOWNNAME":"白河區","LI":"永安里","LIN":"14鄰","STREET":"中山路","SECT":" ","MAREA":" ","LANE":" ","ALLEY":" ","HOUSE_NO":"１６９號","E_COORD97":190444.28,"N_COORD97":2583500.3599999999,"ADDRESS":"中山路１６９號","OBJECTID":237040},"geometry":{"x":190444.28000000119,"y":2583500.3600000013}},{"attributes":{"ID":237045,"DIS_CODE":0,"TOWNNAME":"白河區","LI":"永安里","LIN":"14鄰","STREET":"中山路","SECT":" ","MAREA":" ","LANE":" ","ALLEY":" ","HOUSE_NO":"１７１號","E_COORD97":190447.01999999999,"N_COORD97":2583503.5800000001,"ADDRESS":"中山路１７１號","OBJECTID":237041},"geometry":{"x":190447.02000000048,"y":2583503.5800000001}},{"attributes":{"ID":237046,"DIS_CODE":0,"TOWNNAME":"白河區","LI":"永安里","LIN":"14鄰","STREET":"中山路","SECT":" ","MAREA":" ","LANE":" ","ALLEY":" ","HOUSE_NO":"１７３號","E_COORD97":190449.20000000001,"N_COORD97":2583507.8100000001,"ADDRESS":"中山路１７３號","OBJECTID":237042},"geometry":{"x":190449.20000000019,"y":2583507.8100000024}},{"attributes":{"ID":237047,"DIS_CODE":0,"TOWNNAME":"白河區","LI":"永安里","LIN":"14鄰","STREET":"中山路","SECT":" ","MAREA":" ","LANE":" ","ALLEY":" ","HOUSE_NO":"１７５號","E_COORD97":190452.73999999999,"N_COORD97":2583511.54,"ADDRESS":"中山路１７５號","OBJECTID":237043},"geometry":{"x":190452.74000000209,"y":2583511.540000001}},{"attributes":{"ID":237048,"DIS_CODE":0,"TOWNNAME":"中西區","LI":"建國里","LIN":"6鄰","STREET":"永福路","SECT":"二段","MAREA":" ","LANE":"９７巷","ALLEY":" ","HOUSE_NO":"６號","E_COORD97":168053.54000000001,"N_COORD97":2543774.8399999999,"ADDRESS":"永福路二段９７巷６號","OBJECTID":237044},"geometry":{"x":168053.54000000004,"y":2543774.8400000017}},{"attributes":{"ID":237049,"DIS_CODE":0,"TOWNNAME":"將軍區","LI":"嘉昌里","LIN":"16鄰","STREET":" ","SECT":" ","MAREA":"昌平","LANE":" ","ALLEY":" ","HOUSE_NO":"３９號","E_COORD97":163592.25,"N_COORD97":2567408.7999999998,"ADDRESS":"昌平３９號","OBJECTID":237045},"geometry":{"x":163592.25000000186,"y":2567408.8000000007}},{"attributes":{"ID":237050,"DIS_CODE":0,"TOWNNAME":"中西區","LI":"建國里","LIN":"6鄰","STREET":"永福路","SECT":"二段","MAREA":" ","LANE":"９７巷","ALLEY":" ","HOUSE_NO":"８號","E_COORD97":168046.69,"N_COORD97":2543778.1800000002,"ADDRESS":"永福路二段９７巷８號","OBJECTID":237046},"geometry":{"x":168046.69000000134,"y":2543778.1799999997}},{"attributes":{"ID":237051,"DIS_CODE":0,"TOWNNAME":"中西區","LI":"建國里","LIN":"6鄰","STREET":"永福路","SECT":"二段","MAREA":" ","LANE":"９７巷","ALLEY":" ","HOUSE_NO":"９號","E_COORD97":168021.10999999999,"N_COORD97":2543760.54,"ADDRESS":"永福路二段９７巷９號","OBJECTID":237047},"geometry":{"x":168021.11000000034,"y":2543760.5399999991}},{"attributes":{"ID":237052,"DIS_CODE":0,"TOWNNAME":"永康區","LI":"烏竹里","LIN":"16鄰","STREET":"龍橋街","SECT":" ","MAREA":" ","LANE":"１８６巷","ALLEY":" ","HOUSE_NO":"３７號","E_COORD97":174725.76000000001,"N_COORD97":2548790.7999999998,"ADDRESS":"龍橋街１８６巷３７號","OBJECTID":237048},"geometry":{"x":174725.75999999978,"y":2548790.8000000026}},{"attributes":{"ID":237053,"DIS_CODE":0,"TOWNNAME":"永康區","LI":"烏竹里","LIN":"16鄰","STREET":"龍橋街","SECT":" ","MAREA":" ","LANE":"１８６巷","ALLEY":" ","HOUSE_NO":"４１號","E_COORD97":174732.56,"N_COORD97":2548796.5499999998,"ADDRESS":"龍橋街１８６巷４１號","OBJECTID":237049},"geometry":{"x":174732.56000000052,"y":2548796.5500000026}},{"attributes":{"ID":237054,"DIS_CODE":0,"TOWNNAME":"永康區","LI":"烏竹里","LIN":"16鄰","STREET":"龍橋街","SECT":" ","MAREA":" ","LANE":"１８６巷","ALLEY":" ","HOUSE_NO":"４７號","E_COORD97":174742.64000000001,"N_COORD97":2548804.7999999998,"ADDRESS":"龍橋街１８６巷４７號","OBJECTID":237050},"geometry":{"x":174742.6400000006,"y":2548804.8000000026}},{"attributes":{"ID":237055,"DIS_CODE":0,"TOWNNAME":"東區","LI":"崇信里","LIN":"16鄰","STREET":"崇善路","SECT":" ","MAREA":" ","LANE":"２０５巷","ALLEY":" ","HOUSE_NO":"１０號","E_COORD97":170555.22,"N_COORD97":2542272.0800000001,"ADDRESS":"崇善路２０５巷１０號","OBJECTID":237051},"geometry":{"x":170555.21999999974,"y":2542272.0800000019}},{"attributes":{"ID":237056,"DIS_CODE":0,"TOWNNAME":"東區","LI":"崇信里","LIN":"16鄰","STREET":"崇善路","SECT":" ","MAREA":" ","LANE":"２０５巷","ALLEY":" ","HOUSE_NO":"１２號","E_COORD97":170563.39000000001,"N_COORD97":2542282.3100000001,"ADDRESS":"崇善路２０５巷１２號","OBJECTID":237052},"geometry":{"x":170563.3900000006,"y":2542282.3100000005}},{"attributes":{"ID":237057,"DIS_CODE":0,"TOWNNAME":"東區","LI":"崇信里","LIN":"16鄰","STREET":"崇善路","SECT":" ","MAREA":" ","LANE":"２０５巷","ALLEY":" ","HOUSE_NO":"１４號","E_COORD97":170559.79000000001,"N_COORD97":2542293.1000000001,"ADDRESS":"崇善路２０５巷１４號","OBJECTID":237053},"geometry":{"x":170559.79000000097,"y":2542293.0999999996}},{"attributes":{"ID":237058,"DIS_CODE":0,"TOWNNAME":"東區","LI":"崇信里","LIN":"16鄰","STREET":"崇善路","SECT":" ","MAREA":" ","LANE":"２０５巷","ALLEY":" ","HOUSE_NO":"１６號","E_COORD97":170565.06,"N_COORD97":2542300.71,"ADDRESS":"崇善路２０５巷１６號","OBJECTID":237054},"geometry":{"x":170565.05999999959,"y":2542300.7100000009}},{"attributes":{"ID":237059,"DIS_CODE":0,"TOWNNAME":"東區","LI":"崇信里","LIN":"16鄰","STREET":"崇善路","SECT":" ","MAREA":" ","LANE":"２０５巷","ALLEY":" ","HOUSE_NO":"１８號","E_COORD97":170574.06,"N_COORD97":2542293.9300000002,"ADDRESS":"崇善路２０５巷１８號","OBJECTID":237055},"geometry":{"x":170574.06000000052,"y":2542293.9299999997}},{"attributes":{"ID":237060,"DIS_CODE":0,"TOWNNAME":"安南區","LI":"海西里","LIN":"13鄰","STREET":"海環街","SECT":" ","MAREA":" ","LANE":"３６５巷","ALLEY":" ","HOUSE_NO":"９號","E_COORD97":166043.26999999999,"N_COORD97":2548863.27,"ADDRESS":"海環街３６５巷９號","OBJECTID":237056},"geometry":{"x":166043.27000000048,"y":2548863.2700000033}},{"attributes":{"ID":237061,"DIS_CODE":0,"TOWNNAME":"安南區","LI":"海西里","LIN":"13鄰","STREET":"海環街","SECT":" ","MAREA":" ","LANE":"３６５巷","ALLEY":" ","HOUSE_NO":"１１號","E_COORD97":166039.60000000001,"N_COORD97":2548861.2999999998,"ADDRESS":"海環街３６５巷１１號","OBJECTID":237057},"geometry":{"x":166039.60000000056,"y":2548861.3000000045}},{"attributes":{"ID":237062,"DIS_CODE":0,"TOWNNAME":"安南區","LI":"海西里","LIN":"13鄰","STREET":"海環街","SECT":" ","MAREA":" ","LANE":"３６５巷","ALLEY":" ","HOUSE_NO":"１３號","E_COORD97":166035.38,"N_COORD97":2548858.48,"ADDRESS":"海環街３６５巷１３號","OBJECTID":237058},"geometry":{"x":166035.37999999989,"y":2548858.4800000004}},{"attributes":{"ID":237063,"DIS_CODE":0,"TOWNNAME":"安南區","LI":"海西里","LIN":"13鄰","STREET":"海環街","SECT":" ","MAREA":" ","LANE":"３６５巷","ALLEY":" ","HOUSE_NO":"１５號","E_COORD97":166031.14999999999,"N_COORD97":2548856.5099999998,"ADDRESS":"海環街３６５巷１５號","OBJECTID":237059},"geometry":{"x":166031.1500000013,"y":2548856.5100000016}},{"attributes":{"ID":237064,"DIS_CODE":0,"TOWNNAME":"白河區","LI":"永安里","LIN":"14鄰","STREET":"中山路","SECT":" ","MAREA":" ","LANE":" ","ALLEY":" ","HOUSE_NO":"１７７號","E_COORD97":190456.09,"N_COORD97":2583516.2599999998,"ADDRESS":"中山路１７７號","OBJECTID":237060},"geometry":{"x":190456.08999999985,"y":2583516.2599999998}},{"attributes":{"ID":237065,"DIS_CODE":0,"TOWNNAME":"白河區","LI":"永安里","LIN":"14鄰","STREET":"中山路","SECT":" ","MAREA":" ","LANE":" ","ALLEY":" ","HOUSE_NO":"１８５號","E_COORD97":190465.14000000001,"N_COORD97":2583528.6600000001,"ADDRESS":"中山路１８５號","OBJECTID":237061},"geometry":{"x":190465.1400000006,"y":2583528.660000002}},{"attributes":{"ID":237066,"DIS_CODE":0,"TOWNNAME":"白河區","LI":"永安里","LIN":"14鄰","STREET":"中山路","SECT":" ","MAREA":" ","LANE":" ","ALLEY":" ","HOUSE_NO":"１８７號","E_COORD97":190467.81,"N_COORD97":2583532.6499999999,"ADDRESS":"中山路１８７號","OBJECTID":237062},"geometry":{"x":190467.80999999959,"y":2583532.6500000022}},{"attributes":{"ID":237067,"DIS_CODE":0,"TOWNNAME":"白河區","LI":"永安里","LIN":"14鄰","STREET":"中山路","SECT":" ","MAREA":" ","LANE":" ","ALLEY":" ","HOUSE_NO":"１８９號","E_COORD97":190470.51999999999,"N_COORD97":2583536.21,"ADDRESS":"中山路１８９號","OBJECTID":237063},"geometry":{"x":190470.52000000142,"y":2583536.2100000028}},{"attributes":{"ID":237068,"DIS_CODE":0,"TOWNNAME":"白河區","LI":"永安里","LIN":"14鄰","STREET":"中山路","SECT":" ","MAREA":" ","LANE":" ","ALLEY":" ","HOUSE_NO":"１９３號","E_COORD97":190476.16,"N_COORD97":2583544.8100000001,"ADDRESS":"中山路１９３號","OBJECTID":237064},"geometry":{"x":190476.16000000015,"y":2583544.8100000024}},{"attributes":{"ID":237069,"DIS_CODE":0,"TOWNNAME":"白河區","LI":"永安里","LIN":"14鄰","STREET":"中山路","SECT":" ","MAREA":" ","LANE":" ","ALLEY":" ","HOUSE_NO":"１９５號","E_COORD97":190478.48000000001,"N_COORD97":2583548.7599999998,"ADDRESS":"中山路１９５號","OBJECTID":237065},"geometry":{"x":190478.48000000231,"y":2583548.7600000016}},{"attributes":{"ID":237070,"DIS_CODE":0,"TOWNNAME":"白河區","LI":"永安里","LIN":"14鄰","STREET":"中山路","SECT":" ","MAREA":" ","LANE":" ","ALLEY":" ","HOUSE_NO":"１９７號","E_COORD97":190481.03,"N_COORD97":2583552.4199999999,"ADDRESS":"中山路１９７號","OBJECTID":237066},"geometry":{"x":190481.03000000026,"y":2583552.4199999999}},{"attributes":{"ID":237071,"DIS_CODE":0,"TOWNNAME":"白河區","LI":"永安里","LIN":"14鄰","STREET":"中山路","SECT":" ","MAREA":" ","LANE":" ","ALLEY":" ","HOUSE_NO":"１９９號","E_COORD97":190484.16,"N_COORD97":2583556.2400000002,"ADDRESS":"中山路１９９號","OBJECTID":237067},"geometry":{"x":190484.16000000108,"y":2583556.2400000021}},{"attributes":{"ID":237072,"DIS_CODE":0,"TOWNNAME":"歸仁區","LI":"辜厝里","LIN":"32鄰","STREET":"中正南路","SECT":"一段","MAREA":" ","LANE":" ","ALLEY":" ","HOUSE_NO":"１９８號","E_COORD97":177371.45000000001,"N_COORD97":2540376.4500000002,"ADDRESS":"中正南路一段１９８號","OBJECTID":237068},"geometry":{"x":177371.45000000112,"y":2540376.4500000011}},{"attributes":{"ID":237073,"DIS_CODE":0,"TOWNNAME":"白河區","LI":"永安里","LIN":"14鄰","STREET":"中山路","SECT":" ","MAREA":" ","LANE":" ","ALLEY":" ","HOUSE_NO":"２０７號","E_COORD97":190494.98999999999,"N_COORD97":2583572.3599999999,"ADDRESS":"中山路２０７號","OBJECTID":237069},"geometry":{"x":190494.99000000022,"y":2583572.3599999994}},{"attributes":{"ID":237074,"DIS_CODE":0,"TOWNNAME":"白河區","LI":"永安里","LIN":"14鄰","STREET":"中山路","SECT":" ","MAREA":" ","LANE":" ","ALLEY":" ","HOUSE_NO":"２０９號","E_COORD97":190498.5,"N_COORD97":2583576.6299999999,"ADDRESS":"中山路２０９號","OBJECTID":237070},"geometry":{"x":190498.50000000093,"y":2583576.629999999}},{"attributes":{"ID":237075,"DIS_CODE":0,"TOWNNAME":"永康區","LI":"\u25A0行里","LIN":"16鄰","STREET":"中正六街","SECT":" ","MAREA":" ","LANE":"２６６巷","ALLEY":" ","HOUSE_NO":"１６號","E_COORD97":171943.70999999999,"N_COORD97":2548880.9900000002,"ADDRESS":"中正六街２６６巷１６號","OBJECTID":237071},"geometry":{"x":171943.71000000089,"y":2548880.9900000021}},{"attributes":{"ID":237076,"DIS_CODE":0,"TOWNNAME":"永康區","LI":"網寮里","LIN":"16鄰","STREET":"永勝街","SECT":" ","MAREA":" ","LANE":"２２５巷","ALLEY":" ","HOUSE_NO":"６號","E_COORD97":173373.64999999999,"N_COORD97":2546697,"ADDRESS":"永勝街２２５巷６號","OBJECTID":237072},"geometry":{"x":173373.6500000013,"y":2546697.0000000019}},{"attributes":{"ID":237077,"DIS_CODE":0,"TOWNNAME":"安南區","LI":"海西里","LIN":"13鄰","STREET":"海環街","SECT":" ","MAREA":" ","LANE":"３６５巷","ALLEY":" ","HOUSE_NO":"１６號","E_COORD97":166017.38,"N_COORD97":2548880.5600000001,"ADDRESS":"海環街３６５巷１６號","OBJECTID":237073},"geometry":{"x":166017.38000000082,"y":2548880.5600000024}},{"attributes":{"ID":237078,"DIS_CODE":0,"TOWNNAME":"安南區","LI":"海西里","LIN":"13鄰","STREET":"海環街","SECT":" ","MAREA":" ","LANE":"３６５巷","ALLEY":" ","HOUSE_NO":"１８號","E_COORD97":166013.60999999999,"N_COORD97":2548878.2400000002,"ADDRESS":"海環街３６５巷１８號","OBJECTID":237074},"geometry":{"x":166013.61000000034,"y":2548878.2400000021}},{"attributes":{"ID":237079,"DIS_CODE":0,"TOWNNAME":"安南區","LI":"海西里","LIN":"13鄰","STREET":"海環街","SECT":" ","MAREA":" ","LANE":"３６５巷","ALLEY":" ","HOUSE_NO":"１號","E_COORD97":166057.64000000001,"N_COORD97":2548873.6800000002,"ADDRESS":"海環街３６５巷１號","OBJECTID":237075},"geometry":{"x":166057.6400000006,"y":2548873.6799999997}},{"attributes":{"ID":237080,"DIS_CODE":0,"TOWNNAME":"白河區","LI":"永安里","LIN":"14鄰","STREET":"中山路","SECT":" ","MAREA":" ","LANE":" ","ALLEY":" ","HOUSE_NO":"２１３號","E_COORD97":190503.98999999999,"N_COORD97":2583583.3900000001,"ADDRESS":"中山路２１３號","OBJECTID":237076},"geometry":{"x":190503.99000000115,"y":2583583.3900000006}},{"attributes":{"ID":237081,"DIS_CODE":0,"TOWNNAME":"白河區","LI":"永安里","LIN":"14鄰","STREET":"中山路","SECT":" ","MAREA":" ","LANE":" ","ALLEY":" ","HOUSE_NO":"２１５號","E_COORD97":190508.53,"N_COORD97":2583589.5499999998,"ADDRESS":"中山路２１５號","OBJECTID":237077},"geometry":{"x":190508.53000000212,"y":2583589.5500000007}},{"attributes":{"ID":237082,"DIS_CODE":0,"TOWNNAME":"白河區","LI":"永安里","LIN":"14鄰","STREET":"中山路","SECT":" ","MAREA":" ","LANE":" ","ALLEY":" ","HOUSE_NO":"２１９號","E_COORD97":190513.19,"N_COORD97":2583595.7400000002,"ADDRESS":"中山路２１９號","OBJECTID":237078},"geometry":{"x":190513.19000000134,"y":2583595.7400000021}},{"attributes":{"ID":237083,"DIS_CODE":0,"TOWNNAME":"下營區","LI":"新興里","LIN":"16鄰","STREET":"寮前二街","SECT":" ","MAREA":" ","LANE":"２８巷","ALLEY":" ","HOUSE_NO":"１１號","E_COORD97":175274.5,"N_COORD97":2570459.71,"ADDRESS":"寮前二街２８巷１１號","OBJECTID":237079},"geometry":{"x":175274.50000000093,"y":2570459.7100000028}},{"attributes":{"ID":237084,"DIS_CODE":0,"TOWNNAME":"歸仁區","LI":"歸南里","LIN":"16鄰","STREET":"民生十一街","SECT":" ","MAREA":" ","LANE":"３１巷","ALLEY":" ","HOUSE_NO":"１２號","E_COORD97":176177.91,"N_COORD97":2539775.25,"ADDRESS":"民生十一街３１巷１２號","OBJECTID":237080},"geometry":{"x":176177.91000000015,"y":2539775.2500000019}},{"attributes":{"ID":237085,"DIS_CODE":0,"TOWNNAME":"中西區","LI":"郡王里","LIN":"5鄰","STREET":"大埔街","SECT":" ","MAREA":" ","LANE":"８９巷","ALLEY":" ","HOUSE_NO":"３３號","E_COORD97":168823.59,"N_COORD97":2543052.6499999999,"ADDRESS":"大埔街８９巷３３號","OBJECTID":237081},"geometry":{"x":168823.59000000078,"y":2543052.6500000004}},{"attributes":{"ID":237086,"DIS_CODE":0,"TOWNNAME":"中西區","LI":"郡王里","LIN":"5鄰","STREET":"大埔街","SECT":" ","MAREA":" ","LANE":"８９巷","ALLEY":" ","HOUSE_NO":"３５號","E_COORD97":168829.04000000001,"N_COORD97":2543050.04,"ADDRESS":"大埔街８９巷３５號","OBJECTID":237082},"geometry":{"x":168829.04000000097,"y":2543050.0400000028}},{"attributes":{"ID":237087,"DIS_CODE":0,"TOWNNAME":"中西區","LI":"郡王里","LIN":"5鄰","STREET":"大埔街","SECT":" ","MAREA":" ","LANE":"８９巷","ALLEY":" ","HOUSE_NO":"３７號","E_COORD97":168838.98999999999,"N_COORD97":2543037.4199999999,"ADDRESS":"大埔街８９巷３７號","OBJECTID":237083},"geometry":{"x":168838.99000000022,"y":2543037.4199999999}},{"attributes":{"ID":237088,"DIS_CODE":0,"TOWNNAME":"中西區","LI":"郡王里","LIN":"5鄰","STREET":"大埔街","SECT":" ","MAREA":" ","LANE":"８９巷","ALLEY":" ","HOUSE_NO":"３９號","E_COORD97":168834.91,"N_COORD97":2543035.4500000002,"ADDRESS":"大埔街８９巷３９號","OBJECTID":237084},"geometry":{"x":168834.91000000108,"y":2543035.4500000011}},{"attributes":{"ID":237089,"DIS_CODE":0,"TOWNNAME":"中西區","LI":"郡王里","LIN":"5鄰","STREET":"大埔街","SECT":" ","MAREA":" ","LANE":"８９巷","ALLEY":" ","HOUSE_NO":"４１號","E_COORD97":168832.70999999999,"N_COORD97":2543039.71,"ADDRESS":"大埔街８９巷４１號","OBJECTID":237085},"geometry":{"x":168832.71000000089,"y":2543039.7100000009}},{"attributes":{"ID":237090,"DIS_CODE":0,"TOWNNAME":"中西區","LI":"郡王里","LIN":"5鄰","STREET":"大埔街","SECT":" ","MAREA":" ","LANE":"８９巷","ALLEY":" ","HOUSE_NO":"４３號","E_COORD97":168828.13,"N_COORD97":2543035.0899999999,"ADDRESS":"大埔街８９巷４３號","OBJECTID":237086},"geometry":{"x":168828.13000000082,"y":2543035.0900000017}},{"attributes":{"ID":237091,"DIS_CODE":0,"TOWNNAME":"中西區","LI":"郡王里","LIN":"5鄰","STREET":"大埔街","SECT":" ","MAREA":" ","LANE":"８９巷","ALLEY":" ","HOUSE_NO":"４５號","E_COORD97":168826.54000000001,"N_COORD97":2543035.8799999999,"ADDRESS":"大埔街８９巷４５號","OBJECTID":237087},"geometry":{"x":168826.54000000004,"y":2543035.879999999}},{"attributes":{"ID":237092,"DIS_CODE":0,"TOWNNAME":"安南區","LI":"海西里","LIN":"13鄰","STREET":"海環街","SECT":" ","MAREA":" ","LANE":"３６５巷","ALLEY":" ","HOUSE_NO":"２０號","E_COORD97":166009.54999999999,"N_COORD97":2548876.21,"ADDRESS":"海環街３６５巷２０號","OBJECTID":237088},"geometry":{"x":166009.55000000075,"y":2548876.2100000028}},{"attributes":{"ID":237093,"DIS_CODE":0,"TOWNNAME":"安南區","LI":"州北里","LIN":"13鄰","STREET":"安和路","SECT":"五段","MAREA":" ","LANE":"８１巷","ALLEY":" ","HOUSE_NO":"１０號","E_COORD97":169881.85999999999,"N_COORD97":2551685.3199999998,"ADDRESS":"安和路五段８１巷１０號","OBJECTID":237089},"geometry":{"x":169881.86000000034,"y":2551685.3200000022}},{"attributes":{"ID":237094,"DIS_CODE":0,"TOWNNAME":"安南區","LI":"州北里","LIN":"13鄰","STREET":"安和路","SECT":"五段","MAREA":" ","LANE":"８１巷","ALLEY":" ","HOUSE_NO":"１２號","E_COORD97":169876.01000000001,"N_COORD97":2551683.73,"ADDRESS":"安和路五段８１巷１２號","OBJECTID":237090},"geometry":{"x":169876.01000000164,"y":2551683.7300000004}},{"attributes":{"ID":237095,"DIS_CODE":0,"TOWNNAME":"安南區","LI":"州北里","LIN":"13鄰","STREET":"安和路","SECT":"五段","MAREA":" ","LANE":"８１巷","ALLEY":" ","HOUSE_NO":"１４號","E_COORD97":169872.29999999999,"N_COORD97":2551682.3999999999,"ADDRESS":"安和路五段８１巷１４號","OBJECTID":237091},"geometry":{"x":169872.30000000168,"y":2551682.4000000022}},{"attributes":{"ID":237096,"DIS_CODE":0,"TOWNNAME":"安南區","LI":"州北里","LIN":"13鄰","STREET":"安和路","SECT":"五段","MAREA":" ","LANE":"８１巷","ALLEY":" ","HOUSE_NO":"１６號","E_COORD97":169862.20000000001,"N_COORD97":2551690.6200000001,"ADDRESS":"安和路五段８１巷１６號","OBJECTID":237092},"geometry":{"x":169862.20000000112,"y":2551690.6200000029}},{"attributes":{"ID":237097,"DIS_CODE":0,"TOWNNAME":"白河區","LI":"永安里","LIN":"14鄰","STREET":"中山路","SECT":" ","MAREA":" ","LANE":" ","ALLEY":" ","HOUSE_NO":"２３３號","E_COORD97":190536.42000000001,"N_COORD97":2583625.0899999999,"ADDRESS":"中山路２３３號","OBJECTID":237093},"geometry":{"x":190536.42000000086,"y":2583625.0899999999}},{"attributes":{"ID":237098,"DIS_CODE":0,"TOWNNAME":"白河區","LI":"永安里","LIN":"14鄰","STREET":"中山路","SECT":" ","MAREA":" ","LANE":" ","ALLEY":" ","HOUSE_NO":"２５５號","E_COORD97":190550.42999999999,"N_COORD97":2583656.5,"ADDRESS":"中山路２５５號","OBJECTID":237094},"geometry":{"x":190550.4299999997,"y":2583656.5}},{"attributes":{"ID":237099,"DIS_CODE":0,"TOWNNAME":"白河區","LI":"永安里","LIN":"14鄰","STREET":"中山路","SECT":" ","MAREA":" ","LANE":" ","ALLEY":" ","HOUSE_NO":"２５９號","E_COORD97":190556.23999999999,"N_COORD97":2583664.3500000001,"ADDRESS":"中山路２５９號","OBJECTID":237095},"geometry":{"x":190556.24000000209,"y":2583664.3499999996}},{"attributes":{"ID":237100,"DIS_CODE":0,"TOWNNAME":"白河區","LI":"永安里","LIN":"14鄰","STREET":"中山路","SECT":" ","MAREA":" ","LANE":" ","ALLEY":" ","HOUSE_NO":"２８３號","E_COORD97":190569.48999999999,"N_COORD97":2583689.1200000001,"ADDRESS":"中山路２８３號","OBJECTID":237096},"geometry":{"x":190569.49000000022,"y":2583689.1200000029}},{"attributes":{"ID":237101,"DIS_CODE":0,"TOWNNAME":"白河區","LI":"永安里","LIN":"14鄰","STREET":"中山路","SECT":" ","MAREA":" ","LANE":" ","ALLEY":" ","HOUSE_NO":"２９１號","E_COORD97":190581.79000000001,"N_COORD97":2583706.1400000001,"ADDRESS":"中山路２９１號","OBJECTID":237097},"geometry":{"x":190581.79000000097,"y":2583706.1400000025}},{"attributes":{"ID":237102,"DIS_CODE":0,"TOWNNAME":"白河區","LI":"永安里","LIN":"14鄰","STREET":"中山路","SECT":" ","MAREA":" ","LANE":" ","ALLEY":" ","HOUSE_NO":"２９３號","E_COORD97":190591.31,"N_COORD97":2583714.4900000002,"ADDRESS":"中山路２９３號","OBJECTID":237098},"geometry":{"x":190591.31000000052,"y":2583714.4900000002}},{"attributes":{"ID":237103,"DIS_CODE":0,"TOWNNAME":"白河區","LI":"永安里","LIN":"14鄰","STREET":"中山路","SECT":" ","MAREA":" ","LANE":" ","ALLEY":" ","HOUSE_NO":"２９５號","E_COORD97":190578.76999999999,"N_COORD97":2583728.3599999999,"ADDRESS":"中山路２９５號","OBJECTID":237099},"geometry":{"x":190578.76999999955,"y":2583728.3599999994}},{"attributes":{"ID":237104,"DIS_CODE":0,"TOWNNAME":"安南區","LI":"理想里","LIN":"14鄰","STREET":"大安街","SECT":" ","MAREA":" ","LANE":" ","ALLEY":" ","HOUSE_NO":"８１號","E_COORD97":167215.10000000001,"N_COORD97":2548057.9900000002,"ADDRESS":"大安街８１號","OBJECTID":237100},"geometry":{"x":167215.09999999963,"y":2548057.9900000002}},{"attributes":{"ID":237105,"DIS_CODE":0,"TOWNNAME":"安南區","LI":"海東里","LIN":"14鄰","STREET":"海環街","SECT":" ","MAREA":" ","LANE":" ","ALLEY":" ","HOUSE_NO":"１０號","E_COORD97":166712.01000000001,"N_COORD97":2548894.52,"ADDRESS":"海環街１０號","OBJECTID":237101},"geometry":{"x":166712.00999999978,"y":2548894.5199999996}},{"attributes":{"ID":237106,"DIS_CODE":0,"TOWNNAME":"安南區","LI":"海東里","LIN":"14鄰","STREET":"海環街","SECT":" ","MAREA":" ","LANE":" ","ALLEY":" ","HOUSE_NO":"１２號","E_COORD97":166708.63,"N_COORD97":2548891.77,"ADDRESS":"海環街１２號","OBJECTID":237102},"geometry":{"x":166708.63000000175,"y":2548891.7700000014}},{"attributes":{"ID":237107,"DIS_CODE":0,"TOWNNAME":"安南區","LI":"海東里","LIN":"14鄰","STREET":"海環街","SECT":" ","MAREA":" ","LANE":" ","ALLEY":" ","HOUSE_NO":"１４號","E_COORD97":166704.84,"N_COORD97":2548889.2400000002,"ADDRESS":"海環街１４號","OBJECTID":237103},"geometry":{"x":166704.83999999985,"y":2548889.2400000021}},{"attributes":{"ID":237108,"DIS_CODE":0,"TOWNNAME":"新營區","LI":"忠政里","LIN":"16鄰","STREET":"府西路","SECT":" ","MAREA":" ","LANE":"２５９巷","ALLEY":" ","HOUSE_NO":"１９號","E_COORD97":179747.53,"N_COORD97":2579722.3399999999,"ADDRESS":"府西路２５９巷１９號","OBJECTID":237104},"geometry":{"x":179747.53000000212,"y":2579722.3400000036}},{"attributes":{"ID":237109,"DIS_CODE":0,"TOWNNAME":"中西區","LI":"郡王里","LIN":"13鄰","STREET":"建業街","SECT":" ","MAREA":" ","LANE":"３７巷","ALLEY":" ","HOUSE_NO":"１９號","E_COORD97":168538.41,"N_COORD97":2543112.0600000001,"ADDRESS":"建業街３７巷１９號","OBJECTID":237105},"geometry":{"x":168538.41000000108,"y":2543112.0600000005}},{"attributes":{"ID":237110,"DIS_CODE":0,"TOWNNAME":"中西區","LI":"郡王里","LIN":"13鄰","STREET":"建業街","SECT":" ","MAREA":" ","LANE":"３７巷","ALLEY":" ","HOUSE_NO":"１號","E_COORD97":168572.88,"N_COORD97":2543113.5600000001,"ADDRESS":"建業街３７巷１號","OBJECTID":237106},"geometry":{"x":168572.87999999989,"y":2543113.5600000024}},{"attributes":{"ID":237111,"DIS_CODE":0,"TOWNNAME":"安平區","LI":"海頭里","LIN":"16鄰","STREET":"古堡街","SECT":" ","MAREA":" ","LANE":"９０巷","ALLEY":" ","HOUSE_NO":"７號","E_COORD97":163925.60999999999,"N_COORD97":2544932.8100000001,"ADDRESS":"古堡街９０巷７號","OBJECTID":237107},"geometry":{"x":163925.61000000034,"y":2544932.8100000024}},{"attributes":{"ID":237112,"DIS_CODE":0,"TOWNNAME":"安平區","LI":"怡平里","LIN":"16鄰","STREET":"永華六街","SECT":" ","MAREA":" ","LANE":"１５４巷","ALLEY":" ","HOUSE_NO":"４６號","E_COORD97":165700.87,"N_COORD97":2543941.7599999998,"ADDRESS":"永華六街１５４巷４６號","OBJECTID":237108},"geometry":{"x":165700.87000000104,"y":2543941.7600000016}},{"attributes":{"ID":237113,"DIS_CODE":0,"TOWNNAME":"安平區","LI":"怡平里","LIN":"16鄰","STREET":"永華六街","SECT":" ","MAREA":" ","LANE":"１５４巷","ALLEY":" ","HOUSE_NO":"５０號之１","E_COORD97":165691.48999999999,"N_COORD97":2543943.25,"ADDRESS":"永華六街１５４巷５０號之１","OBJECTID":237109},"geometry":{"x":165691.49000000115,"y":2543943.25}},{"attributes":{"ID":237114,"DIS_CODE":0,"TOWNNAME":"安南區","LI":"安東里","LIN":"13鄰","STREET":"安和路","SECT":"一段","MAREA":" ","LANE":"２２０巷","ALLEY":" ","HOUSE_NO":"１０４號","E_COORD97":169580.89999999999,"N_COORD97":2548062.3599999999,"ADDRESS":"安和路一段２２０巷１０４號","OBJECTID":237110},"geometry":{"x":169580.9000000013,"y":2548062.3599999975}},{"attributes":{"ID":237115,"DIS_CODE":0,"TOWNNAME":"安南區","LI":"海東里","LIN":"14鄰","STREET":"海環街","SECT":" ","MAREA":" ","LANE":" ","ALLEY":" ","HOUSE_NO":"２２號","E_COORD97":166688.42999999999,"N_COORD97":2548879.4500000002,"ADDRESS":"海環街２２號","OBJECTID":237111},"geometry":{"x":166688.43000000063,"y":2548879.4500000011}},{"attributes":{"ID":237116,"DIS_CODE":0,"TOWNNAME":"安南區","LI":"海東里","LIN":"14鄰","STREET":"海環街","SECT":" ","MAREA":" ","LANE":" ","ALLEY":" ","HOUSE_NO":"２４號","E_COORD97":166684.82999999999,"N_COORD97":2548876.5699999998,"ADDRESS":"海環街２４號","OBJECTID":237112},"geometry":{"x":166684.83000000007,"y":2548876.5700000022}},{"attributes":{"ID":237117,"DIS_CODE":0,"TOWNNAME":"安南區","LI":"海東里","LIN":"14鄰","STREET":"海環街","SECT":" ","MAREA":" ","LANE":" ","ALLEY":" ","HOUSE_NO":"２６號","E_COORD97":166681.01000000001,"N_COORD97":2548874.0299999998,"ADDRESS":"海環街２６號","OBJECTID":237113},"geometry":{"x":166681.01000000071,"y":2548874.0299999993}},{"attributes":{"ID":237118,"DIS_CODE":0,"TOWNNAME":"安南區","LI":"海東里","LIN":"14鄰","STREET":"海環街","SECT":" ","MAREA":" ","LANE":" ","ALLEY":" ","HOUSE_NO":"３０號","E_COORD97":166673.09,"N_COORD97":2548869.02,"ADDRESS":"海環街３０號","OBJECTID":237114},"geometry":{"x":166673.08999999985,"y":2548869.0200000014}},{"attributes":{"ID":237119,"DIS_CODE":0,"TOWNNAME":"安南區","LI":"海東里","LIN":"14鄰","STREET":"海環街","SECT":" ","MAREA":" ","LANE":" ","ALLEY":" ","HOUSE_NO":"８號","E_COORD97":166714.45999999999,"N_COORD97":2548898.3700000001,"ADDRESS":"海環街８號","OBJECTID":237115},"geometry":{"x":166714.45999999996,"y":2548898.3700000048}},{"attributes":{"ID":237120,"DIS_CODE":0,"TOWNNAME":"安南區","LI":"溪心里","LIN":"14鄰","STREET":"本原街","SECT":"二段","MAREA":" ","LANE":" ","ALLEY":" ","HOUSE_NO":"４８７號之１００","E_COORD97":166069.01999999999,"N_COORD97":2550553.6899999999,"ADDRESS":"本原街二段４８７號之１００","OBJECTID":237116},"geometry":{"x":166069.02000000048,"y":2550553.6900000013}},{"attributes":{"ID":237121,"DIS_CODE":0,"TOWNNAME":"安南區","LI":"溪心里","LIN":"14鄰","STREET":"本原街","SECT":"二段","MAREA":" ","LANE":" ","ALLEY":" ","HOUSE_NO":"４８７號之１２０","E_COORD97":166243.13,"N_COORD97":2550601.23,"ADDRESS":"本原街二段４８７號之１２０","OBJECTID":237117},"geometry":{"x":166243.13000000082,"y":2550601.2300000023}},{"attributes":{"ID":237122,"DIS_CODE":0,"TOWNNAME":"北區","LI":"玉皇里","LIN":"16鄰","STREET":"成功路","SECT":" ","MAREA":" ","LANE":"６８巷","ALLEY":" ","HOUSE_NO":"１０號","E_COORD97":168705.13,"N_COORD97":2544379.98,"ADDRESS":"成功路６８巷１０號","OBJECTID":237118},"geometry":{"x":168705.12999999989,"y":2544379.9800000004}},{"attributes":{"ID":237123,"DIS_CODE":0,"TOWNNAME":"北區","LI":"玉皇里","LIN":"16鄰","STREET":"成功路","SECT":" ","MAREA":" ","LANE":"６８巷","ALLEY":" ","HOUSE_NO":"１２號","E_COORD97":168705.98999999999,"N_COORD97":2544383.1099999999,"ADDRESS":"成功路６８巷１２號","OBJECTID":237119},"geometry":{"x":168705.99000000115,"y":2544383.1100000013}},{"attributes":{"ID":237124,"DIS_CODE":0,"TOWNNAME":"安南區","LI":"安東里","LIN":"13鄰","STREET":"安和路","SECT":"一段","MAREA":" ","LANE":"２２０巷","ALLEY":" ","HOUSE_NO":"１０６號","E_COORD97":169567.91,"N_COORD97":2548071.02,"ADDRESS":"安和路一段２２０巷１０６號","OBJECTID":237120},"geometry":{"x":169567.91000000015,"y":2548071.0199999996}},{"attributes":{"ID":237125,"DIS_CODE":0,"TOWNNAME":"安南區","LI":"安東里","LIN":"13鄰","STREET":"安和路","SECT":"一段","MAREA":" ","LANE":"２２０巷","ALLEY":" ","HOUSE_NO":"１１０號","E_COORD97":169582.57999999999,"N_COORD97":2548078.2799999998,"ADDRESS":"安和路一段２２０巷１１０號","OBJECTID":237121},"geometry":{"x":169582.58000000194,"y":2548078.2799999993}},{"attributes":{"ID":237126,"DIS_CODE":0,"TOWNNAME":"安南區","LI":"安東里","LIN":"13鄰","STREET":"安和路","SECT":"一段","MAREA":" ","LANE":"２２０巷","ALLEY":" ","HOUSE_NO":"１１６號","E_COORD97":169597.39000000001,"N_COORD97":2548084.98,"ADDRESS":"安和路一段２２０巷１１６號","OBJECTID":237122},"geometry":{"x":169597.3900000006,"y":2548084.9800000004}},{"attributes":{"ID":237127,"DIS_CODE":0,"TOWNNAME":"安南區","LI":"安東里","LIN":"13鄰","STREET":"安和路","SECT":"一段","MAREA":" ","LANE":"２２０巷","ALLEY":" ","HOUSE_NO":"１３４號","E_COORD97":169646.01000000001,"N_COORD97":2548096.4199999999,"ADDRESS":"安和路一段２２０巷１３４號","OBJECTID":237123},"geometry":{"x":169646.01000000071,"y":2548096.4200000037}},{"attributes":{"ID":237128,"DIS_CODE":0,"TOWNNAME":"安南區","LI":"安東里","LIN":"13鄰","STREET":"安和路","SECT":"一段","MAREA":" ","LANE":"２２０巷","ALLEY":" ","HOUSE_NO":"６０號","E_COORD97":169496.53,"N_COORD97":2547992.3700000001,"ADDRESS":"安和路一段２２０巷６０號","OBJECTID":237124},"geometry":{"x":169496.52999999933,"y":2547992.370000001}},{"attributes":{"ID":237129,"DIS_CODE":0,"TOWNNAME":"永康區","LI":"大橋里","LIN":"14鄰","STREET":"中華路","SECT":" ","MAREA":" ","LANE":" ","ALLEY":" ","HOUSE_NO":"８００號","E_COORD97":170763.79000000001,"N_COORD97":2546516.25,"ADDRESS":"中華路８００號","OBJECTID":237125},"geometry":{"x":170763.79000000004,"y":2546516.25}},{"attributes":{"ID":237130,"DIS_CODE":0,"TOWNNAME":"安南區","LI":"安西里","LIN":"13鄰","STREET":"安和路","SECT":"一段","MAREA":" ","LANE":"１５９巷","ALLEY":" ","HOUSE_NO":"４８號","E_COORD97":169254.25,"N_COORD97":2547816.5800000001,"ADDRESS":"安和路一段１５９巷４８號","OBJECTID":237126},"geometry":{"x":169254.25000000186,"y":2547816.5800000001}},{"attributes":{"ID":237131,"DIS_CODE":0,"TOWNNAME":"安南區","LI":"理想里","LIN":"14鄰","STREET":"大安街","SECT":" ","MAREA":" ","LANE":" ","ALLEY":" ","HOUSE_NO":"９３號","E_COORD97":167230.26999999999,"N_COORD97":2548082.3399999999,"ADDRESS":"大安街９３號","OBJECTID":237127},"geometry":{"x":167230.27000000048,"y":2548082.3399999999}},{"attributes":{"ID":237132,"DIS_CODE":0,"TOWNNAME":"安南區","LI":"溪心里","LIN":"14鄰","STREET":"本原街","SECT":"二段","MAREA":" ","LANE":" ","ALLEY":" ","HOUSE_NO":"５１６號","E_COORD97":165877.10999999999,"N_COORD97":2550529.3700000001,"ADDRESS":"本原街二段５１６號","OBJECTID":237128},"geometry":{"x":165877.11000000127,"y":2550529.3700000029}},{"attributes":{"ID":237133,"DIS_CODE":0,"TOWNNAME":"安南區","LI":"安西里","LIN":"13鄰","STREET":"安和路","SECT":"一段","MAREA":" ","LANE":"１５９巷","ALLEY":" ","HOUSE_NO":"３２號","E_COORD97":169281.64000000001,"N_COORD97":2547797.4300000002,"ADDRESS":"安和路一段１５９巷３２號","OBJECTID":237129},"geometry":{"x":169281.64000000153,"y":2547797.4299999997}},{"attributes":{"ID":237134,"DIS_CODE":0,"TOWNNAME":"安南區","LI":"安西里","LIN":"13鄰","STREET":"安和路","SECT":"一段","MAREA":" ","LANE":"１５９巷","ALLEY":" ","HOUSE_NO":"３４號","E_COORD97":169277.34,"N_COORD97":2547796.6499999999,"ADDRESS":"安和路一段１５９巷３４號","OBJECTID":237130},"geometry":{"x":169277.34000000078,"y":2547796.6500000004}},{"attributes":{"ID":237135,"DIS_CODE":0,"TOWNNAME":"安南區","LI":"安西里","LIN":"13鄰","STREET":"安和路","SECT":"一段","MAREA":" ","LANE":"１５９巷","ALLEY":" ","HOUSE_NO":"３５號","E_COORD97":169282.42999999999,"N_COORD97":2547776.3199999998,"ADDRESS":"安和路一段１５９巷３５號","OBJECTID":237131},"geometry":{"x":169282.4299999997,"y":2547776.3200000022}},{"attributes":{"ID":237136,"DIS_CODE":0,"TOWNNAME":"安南區","LI":"安西里","LIN":"13鄰","STREET":"安和路","SECT":"一段","MAREA":" ","LANE":"１５９巷","ALLEY":" ","HOUSE_NO":"３６號","E_COORD97":169273.03,"N_COORD97":2547795.4700000002,"ADDRESS":"安和路一段１５９巷３６號","OBJECTID":237132},"geometry":{"x":169273.03000000119,"y":2547795.4700000044}},{"attributes":{"ID":237137,"DIS_CODE":0,"TOWNNAME":"安南區","LI":"安西里","LIN":"13鄰","STREET":"安和路","SECT":"一段","MAREA":" ","LANE":"１５９巷","ALLEY":" ","HOUSE_NO":"３８號","E_COORD97":169268.34,"N_COORD97":2547796.25,"ADDRESS":"安和路一段１５９巷３８號","OBJECTID":237133},"geometry":{"x":169268.33999999985,"y":2547796.2500000037}},{"attributes":{"ID":237138,"DIS_CODE":0,"TOWNNAME":"安南區","LI":"安西里","LIN":"13鄰","STREET":"安和路","SECT":"一段","MAREA":" ","LANE":"１５９巷","ALLEY":" ","HOUSE_NO":"４０號","E_COORD97":169263.64000000001,"N_COORD97":2547798.21,"ADDRESS":"安和路一段１５９巷４０號","OBJECTID":237134},"geometry":{"x":169263.6400000006,"y":2547798.2100000028}},{"attributes":{"ID":237139,"DIS_CODE":0,"TOWNNAME":"安南區","LI":"安西里","LIN":"13鄰","STREET":"安和路","SECT":"一段","MAREA":" ","LANE":"１５９巷","ALLEY":" ","HOUSE_NO":"４６號","E_COORD97":169257.38,"N_COORD97":2547814.23,"ADDRESS":"安和路一段１５９巷４６號","OBJECTID":237135},"geometry":{"x":169257.38000000082,"y":2547814.2300000023}},{"attributes":{"ID":237140,"DIS_CODE":0,"TOWNNAME":"安南區","LI":"安西里","LIN":"13鄰","STREET":"安和路","SECT":"一段","MAREA":" ","LANE":"１５９巷","ALLEY":" ","HOUSE_NO":"７０號","E_COORD97":169224.51000000001,"N_COORD97":2547852.0899999999,"ADDRESS":"安和路一段１５９巷７０號","OBJECTID":237136},"geometry":{"x":169224.50999999978,"y":2547852.0900000017}},{"attributes":{"ID":237141,"DIS_CODE":0,"TOWNNAME":"安南區","LI":"安西里","LIN":"13鄰","STREET":"安和路","SECT":"一段","MAREA":" ","LANE":"１５９巷","ALLEY":" ","HOUSE_NO":"７１號","E_COORD97":169203.88,"N_COORD97":2547838.0800000001,"ADDRESS":"安和路一段１５９巷７１號","OBJECTID":237137},"geometry":{"x":169203.87999999896,"y":2547838.0800000038}},{"attributes":{"ID":237142,"DIS_CODE":0,"TOWNNAME":"安南區","LI":"安西里","LIN":"13鄰","STREET":"安和路","SECT":"一段","MAREA":" ","LANE":"１５９巷","ALLEY":" ","HOUSE_NO":"７２號","E_COORD97":169221.38,"N_COORD97":2547854.4300000002,"ADDRESS":"安和路一段１５９巷７２號","OBJECTID":237138},"geometry":{"x":169221.38000000082,"y":2547854.4299999997}},{"attributes":{"ID":237143,"DIS_CODE":0,"TOWNNAME":"安南區","LI":"安西里","LIN":"13鄰","STREET":"安和路","SECT":"一段","MAREA":" ","LANE":"１５９巷","ALLEY":" ","HOUSE_NO":"７３號","E_COORD97":169200.75,"N_COORD97":2547841.2000000002,"ADDRESS":"安和路一段１５９巷７３號","OBJECTID":237139},"geometry":{"x":169200.75000000093,"y":2547841.2000000011}},{"attributes":{"ID":237144,"DIS_CODE":0,"TOWNNAME":"安南區","LI":"安西里","LIN":"13鄰","STREET":"安和路","SECT":"一段","MAREA":" ","LANE":"１５９巷","ALLEY":" ","HOUSE_NO":"７號","E_COORD97":169343.09,"N_COORD97":2547800.9399999999,"ADDRESS":"安和路一段１５９巷７號","OBJECTID":237140},"geometry":{"x":169343.08999999892,"y":2547800.9400000032}},{"attributes":{"ID":237145,"DIS_CODE":0,"TOWNNAME":"南區","LI":"南都里","LIN":"16鄰","STREET":"中華南路","SECT":"二段","MAREA":" ","LANE":"３１５巷","ALLEY":" ","HOUSE_NO":"３３號","E_COORD97":166559.5,"N_COORD97":2540036.29,"ADDRESS":"中華南路二段３１５巷３３號","OBJECTID":237141},"geometry":{"x":166559.50000000093,"y":2540036.2899999991}},{"attributes":{"ID":237146,"DIS_CODE":0,"TOWNNAME":"北區","LI":"仁愛里","LIN":"16鄰","STREET":"東豐路","SECT":" ","MAREA":" ","LANE":"２２７巷","ALLEY":" ","HOUSE_NO":"１０號","E_COORD97":170123.34,"N_COORD97":2544890.71,"ADDRESS":"東豐路２２７巷１０號","OBJECTID":237142},"geometry":{"x":170123.34000000078,"y":2544890.7100000009}},{"attributes":{"ID":237147,"DIS_CODE":0,"TOWNNAME":"北區","LI":"仁愛里","LIN":"16鄰","STREET":"東豐路","SECT":" ","MAREA":" ","LANE":"２２７巷","ALLEY":" ","HOUSE_NO":"１２號","E_COORD97":170118.25,"N_COORD97":2544902.0499999998,"ADDRESS":"東豐路２２７巷１２號","OBJECTID":237143},"geometry":{"x":170118.25,"y":2544902.0500000007}},{"attributes":{"ID":237148,"DIS_CODE":0,"TOWNNAME":"北區","LI":"仁愛里","LIN":"16鄰","STREET":"東豐路","SECT":" ","MAREA":" ","LANE":"２２７巷","ALLEY":" ","HOUSE_NO":"１８號","E_COORD97":170143.59,"N_COORD97":2544902.5899999999,"ADDRESS":"東豐路２２７巷１８號","OBJECTID":237144},"geometry":{"x":170143.59000000078,"y":2544902.5900000017}},{"attributes":{"ID":237149,"DIS_CODE":0,"TOWNNAME":"北區","LI":"仁愛里","LIN":"16鄰","STREET":"東豐路","SECT":" ","MAREA":" ","LANE":"２２７巷","ALLEY":" ","HOUSE_NO":"２０號","E_COORD97":170138.98000000001,"N_COORD97":2544937.1200000001,"ADDRESS":"東豐路２２７巷２０號","OBJECTID":237145},"geometry":{"x":170138.98000000045,"y":2544937.1200000029}},{"attributes":{"ID":237150,"DIS_CODE":0,"TOWNNAME":"北區","LI":"仁愛里","LIN":"16鄰","STREET":"東豐路","SECT":" ","MAREA":" ","LANE":"２２７巷","ALLEY":" ","HOUSE_NO":"２０號之１","E_COORD97":170144.39000000001,"N_COORD97":2544941.5299999998,"ADDRESS":"東豐路２２７巷２０號之１","OBJECTID":237146},"geometry":{"x":170144.38999999873,"y":2544941.5299999993}},{"attributes":{"ID":237151,"DIS_CODE":0,"TOWNNAME":"北區","LI":"仁愛里","LIN":"16鄰","STREET":"東豐路","SECT":" ","MAREA":" ","LANE":"２２７巷","ALLEY":" ","HOUSE_NO":"２０號之１０","E_COORD97":170114.47,"N_COORD97":2544944,"ADDRESS":"東豐路２２７巷２０號之１０","OBJECTID":237147},"geometry":{"x":170114.46999999974,"y":2544944.0000000019}},{"attributes":{"ID":237152,"DIS_CODE":0,"TOWNNAME":"北區","LI":"仁愛里","LIN":"16鄰","STREET":"東豐路","SECT":" ","MAREA":" ","LANE":"２２７巷","ALLEY":" ","HOUSE_NO":"２０號之２","E_COORD97":170135.01999999999,"N_COORD97":2544935.4199999999,"ADDRESS":"東豐路２２７巷２０號之２","OBJECTID":237148},"geometry":{"x":170135.02000000142,"y":2544935.4199999999}},{"attributes":{"ID":237153,"DIS_CODE":0,"TOWNNAME":"北區","LI":"仁愛里","LIN":"16鄰","STREET":"東豐路","SECT":" ","MAREA":" ","LANE":"２２７巷","ALLEY":" ","HOUSE_NO":"２０號之３","E_COORD97":170130.84,"N_COORD97":2544935.5699999998,"ADDRESS":"東豐路２２７巷２０號之３","OBJECTID":237149},"geometry":{"x":170130.83999999985,"y":2544935.5700000003}},{"attributes":{"ID":237154,"DIS_CODE":0,"TOWNNAME":"北區","LI":"大道里","LIN":"16鄰","STREET":"北門路","SECT":"二段","MAREA":" ","LANE":"５４７巷","ALLEY":" ","HOUSE_NO":"３９號","E_COORD97":169546.16,"N_COORD97":2545697.8799999999,"ADDRESS":"北門路二段５４７巷３９號","OBJECTID":237150},"geometry":{"x":169546.16000000015,"y":2545697.879999999}},{"attributes":{"ID":237155,"DIS_CODE":0,"TOWNNAME":"安南區","LI":"安西里","LIN":"13鄰","STREET":"安和路","SECT":"一段","MAREA":" ","LANE":"１５９巷","ALLEY":" ","HOUSE_NO":"８號","E_COORD97":169332.51999999999,"N_COORD97":2547818.9199999999,"ADDRESS":"安和路一段１５９巷８號","OBJECTID":237151},"geometry":{"x":169332.51999999955,"y":2547818.9200000018}},{"attributes":{"ID":237156,"DIS_CODE":0,"TOWNNAME":"安南區","LI":"安西里","LIN":"13鄰","STREET":"安和路","SECT":"一段","MAREA":" ","LANE":"１５９巷","ALLEY":" ","HOUSE_NO":"９號","E_COORD97":169339.17000000001,"N_COORD97":2547799.77,"ADDRESS":"安和路一段１５９巷９號","OBJECTID":237152},"geometry":{"x":169339.16999999993,"y":2547799.7700000014}},{"attributes":{"ID":237157,"DIS_CODE":0,"TOWNNAME":"安南區","LI":"溪心里","LIN":"14鄰","STREET":"本原街","SECT":"二段","MAREA":" ","LANE":" ","ALLEY":" ","HOUSE_NO":"５１８號","E_COORD97":165874.44,"N_COORD97":2550526.46,"ADDRESS":"本原街二段５１８號","OBJECTID":237153},"geometry":{"x":165874.44000000041,"y":2550526.4600000028}},{"attributes":{"ID":237158,"DIS_CODE":0,"TOWNNAME":"安南區","LI":"溪心里","LIN":"14鄰","STREET":"本原街","SECT":"二段","MAREA":" ","LANE":" ","ALLEY":" ","HOUSE_NO":"５２０號","E_COORD97":165870.67000000001,"N_COORD97":2550523.54,"ADDRESS":"本原街二段５２０號","OBJECTID":237154},"geometry":{"x":165870.66999999993,"y":2550523.540000001}},{"attributes":{"ID":237159,"DIS_CODE":0,"TOWNNAME":"安南區","LI":"溪心里","LIN":"14鄰","STREET":"本原街","SECT":"二段","MAREA":" ","LANE":" ","ALLEY":" ","HOUSE_NO":"５２２號","E_COORD97":165867.87,"N_COORD97":2550520.02,"ADDRESS":"本原街二段５２２號","OBJECTID":237155},"geometry":{"x":165867.87000000011,"y":2550520.0200000014}},{"attributes":{"ID":237160,"DIS_CODE":0,"TOWNNAME":"安南區","LI":"溪心里","LIN":"14鄰","STREET":"本原街","SECT":"二段","MAREA":" ","LANE":" ","ALLEY":" ","HOUSE_NO":"５２４號","E_COORD97":165863.98000000001,"N_COORD97":2550518.5600000001,"ADDRESS":"本原街二段５２４號","OBJECTID":237156},"geometry":{"x":165863.98000000045,"y":2550518.5600000024}},{"attributes":{"ID":237161,"DIS_CODE":0,"TOWNNAME":"關廟區","LI":"新埔里","LIN":"9鄰","STREET":"新埔三街","SECT":" ","MAREA":" ","LANE":"１３７巷","ALLEY":" ","HOUSE_NO":"１０１號","E_COORD97":181190.501747,"N_COORD97":2541854.2887800001,"ADDRESS":"新埔三街１３７巷１０１號","OBJECTID":237157},"geometry":{"x":181190.50174700003,"y":2541854.2887829989}},{"attributes":{"ID":237162,"DIS_CODE":0,"TOWNNAME":"安南區","LI":"溪心里","LIN":"14鄰","STREET":"本原街","SECT":"二段","MAREA":" ","LANE":" ","ALLEY":" ","HOUSE_NO":"５２６號","E_COORD97":165860.20999999999,"N_COORD97":2550514.9100000001,"ADDRESS":"本原街二段５２６號","OBJECTID":237158},"geometry":{"x":165860.20999999996,"y":2550514.910000002}},{"attributes":{"ID":237163,"DIS_CODE":0,"TOWNNAME":"安南區","LI":"溪心里","LIN":"14鄰","STREET":"本原街","SECT":"二段","MAREA":" ","LANE":" ","ALLEY":" ","HOUSE_NO":"５２８號","E_COORD97":165856.20000000001,"N_COORD97":2550512.8500000001,"ADDRESS":"本原街二段５２８號","OBJECTID":237159},"geometry":{"x":165856.20000000112,"y":2550512.8499999996}},{"attributes":{"ID":237164,"DIS_CODE":0,"TOWNNAME":"安南區","LI":"溪心里","LIN":"14鄰","STREET":"本原街","SECT":"二段","MAREA":" ","LANE":" ","ALLEY":" ","HOUSE_NO":"５３０號","E_COORD97":165852.06,"N_COORD97":2550510.54,"ADDRESS":"本原街二段５３０號","OBJECTID":237160},"geometry":{"x":165852.05999999959,"y":2550510.5399999991}},{"attributes":{"ID":237165,"DIS_CODE":0,"TOWNNAME":"安南區","LI":"理想里","LIN":"14鄰","STREET":"大安街","SECT":" ","MAREA":" ","LANE":" ","ALLEY":" ","HOUSE_NO":"９５號","E_COORD97":167231.48000000001,"N_COORD97":2548087.1899999999,"ADDRESS":"大安街９５號","OBJECTID":237161},"geometry":{"x":167231.48000000138,"y":2548087.1899999995}},{"attributes":{"ID":237166,"DIS_CODE":0,"TOWNNAME":"仁德區","LI":"成功里","LIN":"14鄰","STREET":"全福路","SECT":" ","MAREA":" ","LANE":" ","ALLEY":" ","HOUSE_NO":"３８號","E_COORD97":170916.26999999999,"N_COORD97":2539307.75,"ADDRESS":"全福路３８號","OBJECTID":237162},"geometry":{"x":170916.26999999955,"y":2539307.7500000019}},{"attributes":{"ID":237167,"DIS_CODE":0,"TOWNNAME":"仁德區","LI":"保安里","LIN":"14鄰","STREET":"文賢路","SECT":"一段","MAREA":" ","LANE":" ","ALLEY":" ","HOUSE_NO":"５８７號之１","E_COORD97":171143.70999999999,"N_COORD97":2536793.8300000001,"ADDRESS":"文賢路一段５８７號之１","OBJECTID":237163},"geometry":{"x":171143.70999999996,"y":2536793.8300000038}},{"attributes":{"ID":237168,"DIS_CODE":0,"TOWNNAME":"仁德區","LI":"成功里","LIN":"14鄰","STREET":"全福路","SECT":" ","MAREA":" ","LANE":" ","ALLEY":" ","HOUSE_NO":"４８號","E_COORD97":170937.92000000001,"N_COORD97":2539306,"ADDRESS":"全福路４８號","OBJECTID":237164},"geometry":{"x":170937.92000000179,"y":2539306.0000000019}},{"attributes":{"ID":237169,"DIS_CODE":0,"TOWNNAME":"北區","LI":"大豐里","LIN":"16鄰","STREET":"和緯路","SECT":"四段","MAREA":" ","LANE":"１９７巷","ALLEY":" ","HOUSE_NO":"３號","E_COORD97":166909.67999999999,"N_COORD97":2545366.3500000001,"ADDRESS":"和緯路四段１９７巷３號","OBJECTID":237165},"geometry":{"x":166909.6799999997,"y":2545366.3499999996}},{"attributes":{"ID":237170,"DIS_CODE":0,"TOWNNAME":"安南區","LI":"安和里","LIN":"13鄰","STREET":"安和路","SECT":"一段","MAREA":" ","LANE":"９６巷","ALLEY":" ","HOUSE_NO":"１２號","E_COORD97":169553.17000000001,"N_COORD97":2547611.0099999998,"ADDRESS":"安和路一段９６巷１２號","OBJECTID":237166},"geometry":{"x":169553.17000000086,"y":2547611.0100000035}},{"attributes":{"ID":237171,"DIS_CODE":0,"TOWNNAME":"新營區","LI":"太北里","LIN":"16鄰","STREET":" ","SECT":" ","MAREA":"太子宮","LANE":" ","ALLEY":" ","HOUSE_NO":"１４６之２８號","E_COORD97":175769.28,"N_COORD97":2577043.1600000001,"ADDRESS":"太子宮１４６之２８號","OBJECTID":237167},"geometry":{"x":175769.28000000119,"y":2577043.160000002}},{"attributes":{"ID":237172,"DIS_CODE":0,"TOWNNAME":"新營區","LI":"太北里","LIN":"16鄰","STREET":" ","SECT":" ","MAREA":"太子宮","LANE":" ","ALLEY":" ","HOUSE_NO":"１４６之１８號","E_COORD97":175752.42999999999,"N_COORD97":2577068.5099999998,"ADDRESS":"太子宮１４６之１８號","OBJECTID":237168},"geometry":{"x":175752.43000000063,"y":2577068.5099999998}},{"attributes":{"ID":237173,"DIS_CODE":0,"TOWNNAME":"安南區","LI":"安和里","LIN":"13鄰","STREET":"安和路","SECT":"一段","MAREA":" ","LANE":"９６巷","ALLEY":" ","HOUSE_NO":"１４號","E_COORD97":169554.97,"N_COORD97":2547615.2200000002,"ADDRESS":"安和路一段９６巷１４號","OBJECTID":237169},"geometry":{"x":169554.97000000067,"y":2547615.2200000025}},{"attributes":{"ID":237174,"DIS_CODE":0,"TOWNNAME":"安南區","LI":"安和里","LIN":"13鄰","STREET":"安和路","SECT":"一段","MAREA":" ","LANE":"９６巷","ALLEY":" ","HOUSE_NO":"１６號","E_COORD97":169557.98000000001,"N_COORD97":2547618.52,"ADDRESS":"安和路一段９６巷１６號","OBJECTID":237170},"geometry":{"x":169557.98000000045,"y":2547618.5200000014}},{"attributes":{"ID":237175,"DIS_CODE":0,"TOWNNAME":"安南區","LI":"安和里","LIN":"13鄰","STREET":"安和路","SECT":"一段","MAREA":" ","LANE":"９６巷","ALLEY":" ","HOUSE_NO":"１８號","E_COORD97":169559.79000000001,"N_COORD97":2547621.8300000001,"ADDRESS":"安和路一段９６巷１８號","OBJECTID":237171},"geometry":{"x":169559.79000000097,"y":2547621.8300000001}},{"attributes":{"ID":237176,"DIS_CODE":0,"TOWNNAME":"安南區","LI":"安和里","LIN":"13鄰","STREET":"安和路","SECT":"一段","MAREA":" ","LANE":"９６巷","ALLEY":" ","HOUSE_NO":"２２號","E_COORD97":169564.60000000001,"N_COORD97":2547629.6400000001,"ADDRESS":"安和路一段９６巷２２號","OBJECTID":237172},"geometry":{"x":169564.59999999963,"y":2547629.6400000006}},{"attributes":{"ID":237177,"DIS_CODE":0,"TOWNNAME":"安南區","LI":"安和里","LIN":"13鄰","STREET":"安和路","SECT":"一段","MAREA":" ","LANE":"９６巷","ALLEY":" ","HOUSE_NO":"２６號","E_COORD97":169568.81,"N_COORD97":2547636.8599999999,"ADDRESS":"安和路一段９６巷２６號","OBJECTID":237173},"geometry":{"x":169568.81000000052,"y":2547636.8600000013}},{"attributes":{"ID":237178,"DIS_CODE":0,"TOWNNAME":"安南區","LI":"溪墘里","LIN":"13鄰","STREET":"海佃路","SECT":"一段","MAREA":" ","LANE":"３２０巷","ALLEY":" ","HOUSE_NO":"４２號","E_COORD97":167260.67999999999,"N_COORD97":2547493.75,"ADDRESS":"海佃路一段３２０巷４２號","OBJECTID":237174},"geometry":{"x":167260.67999999877,"y":2547493.75}},{"attributes":{"ID":237179,"DIS_CODE":0,"TOWNNAME":"安南區","LI":"溪墘里","LIN":"13鄰","STREET":"海佃路","SECT":"一段","MAREA":" ","LANE":"３２０巷","ALLEY":" ","HOUSE_NO":"４６號","E_COORD97":167273.45999999999,"N_COORD97":2547496.0899999999,"ADDRESS":"海佃路一段３２０巷４６號","OBJECTID":237175},"geometry":{"x":167273.46000000089,"y":2547496.0900000017}},{"attributes":{"ID":237180,"DIS_CODE":0,"TOWNNAME":"仁德區","LI":"成功里","LIN":"14鄰","STREET":"全福路","SECT":" ","MAREA":" ","LANE":" ","ALLEY":" ","HOUSE_NO":"４５號","E_COORD97":170938.85999999999,"N_COORD97":2539323.7400000002,"ADDRESS":"全福路４５號","OBJECTID":237176},"geometry":{"x":170938.8600000022,"y":2539323.7400000039}},{"attributes":{"ID":237181,"DIS_CODE":0,"TOWNNAME":"六甲區","LI":"中社里","LIN":"16鄰","STREET":" ","SECT":" ","MAREA":"林鳳營","LANE":" ","ALLEY":" ","HOUSE_NO":"２５號","E_COORD97":180471.42999999999,"N_COORD97":2571385.3399999999,"ADDRESS":"林鳳營２５號","OBJECTID":237177},"geometry":{"x":180471.43000000156,"y":2571385.339999998}},{"attributes":{"ID":237182,"DIS_CODE":0,"TOWNNAME":"南區","LI":"建南里","LIN":"16鄰","STREET":"中華南路","SECT":"二段","MAREA":" ","LANE":"２３３巷","ALLEY":" ","HOUSE_NO":"３００號之１","E_COORD97":167116.17000000001,"N_COORD97":2539161.5800000001,"ADDRESS":"中華南路二段２３３巷３００號之１","OBJECTID":237178},"geometry":{"x":167116.16999999993,"y":2539161.5800000001}},{"attributes":{"ID":237183,"DIS_CODE":0,"TOWNNAME":"安南區","LI":"溪墘里","LIN":"13鄰","STREET":"海佃路","SECT":"一段","MAREA":" ","LANE":"３２０巷","ALLEY":" ","HOUSE_NO":"４８號","E_COORD97":167279.69,"N_COORD97":2547497.3300000001,"ADDRESS":"海佃路一段３２０巷４８號","OBJECTID":237179},"geometry":{"x":167279.69000000041,"y":2547497.3300000038}},{"attributes":{"ID":237184,"DIS_CODE":0,"TOWNNAME":"安南區","LI":"溪墘里","LIN":"13鄰","STREET":"海佃路","SECT":"一段","MAREA":" ","LANE":"３２０巷","ALLEY":" ","HOUSE_NO":"４號","E_COORD97":167138.23000000001,"N_COORD97":2547466.6299999999,"ADDRESS":"海佃路一段３２０巷４號","OBJECTID":237180},"geometry":{"x":167138.23000000138,"y":2547466.6299999971}},{"attributes":{"ID":237185,"DIS_CODE":0,"TOWNNAME":"安南區","LI":"溪墘里","LIN":"13鄰","STREET":"海佃路","SECT":"一段","MAREA":" ","LANE":"３２０巷","ALLEY":" ","HOUSE_NO":"５０號","E_COORD97":167287.95000000001,"N_COORD97":2547498.4199999999,"ADDRESS":"海佃路一段３２０巷５０號","OBJECTID":237181},"geometry":{"x":167287.95000000019,"y":2547498.4199999999}},{"attributes":{"ID":237186,"DIS_CODE":0,"TOWNNAME":"安南區","LI":"溪墘里","LIN":"13鄰","STREET":"海佃路","SECT":"一段","MAREA":" ","LANE":"３２０巷","ALLEY":" ","HOUSE_NO":"６號","E_COORD97":167144.88,"N_COORD97":2547467.77,"ADDRESS":"海佃路一段３２０巷６號","OBJECTID":237182},"geometry":{"x":167144.88000000082,"y":2547467.7700000014}},{"attributes":{"ID":237187,"DIS_CODE":0,"TOWNNAME":"安南區","LI":"溪墘里","LIN":"13鄰","STREET":"海佃路","SECT":"一段","MAREA":" ","LANE":"３２０巷","ALLEY":" ","HOUSE_NO":"８號","E_COORD97":167151.04000000001,"N_COORD97":2547468.7000000002,"ADDRESS":"海佃路一段３２０巷８號","OBJECTID":237183},"geometry":{"x":167151.04000000004,"y":2547468.6999999993}},{"attributes":{"ID":237188,"DIS_CODE":0,"TOWNNAME":"安平區","LI":"怡平里","LIN":"13鄰","STREET":"永華六街","SECT":" ","MAREA":" ","LANE":"２７９巷","ALLEY":" ","HOUSE_NO":"１８之１號","E_COORD97":165574.70000000001,"N_COORD97":2544124.1699999999,"ADDRESS":"永華六街２７９巷１８之１號","OBJECTID":237184},"geometry":{"x":165574.70000000112,"y":2544124.1699999999}},{"attributes":{"ID":237189,"DIS_CODE":0,"TOWNNAME":"安平區","LI":"怡平里","LIN":"13鄰","STREET":"永華六街","SECT":" ","MAREA":" ","LANE":"２７９巷","ALLEY":" ","HOUSE_NO":"１８之２號","E_COORD97":165580.56,"N_COORD97":2544124.6400000001,"ADDRESS":"永華六街２７９巷１８之２號","OBJECTID":237185},"geometry":{"x":165580.56000000052,"y":2544124.6400000006}},{"attributes":{"ID":237190,"DIS_CODE":0,"TOWNNAME":"安平區","LI":"怡平里","LIN":"13鄰","STREET":"永華六街","SECT":" ","MAREA":" ","LANE":"２７９巷","ALLEY":" ","HOUSE_NO":"１８之３號","E_COORD97":165586.57999999999,"N_COORD97":2544125.1000000001,"ADDRESS":"永華六街２７９巷１８之３號","OBJECTID":237186},"geometry":{"x":165586.58000000007,"y":2544125.1000000034}},{"attributes":{"ID":237191,"DIS_CODE":0,"TOWNNAME":"安平區","LI":"怡平里","LIN":"13鄰","STREET":"永華六街","SECT":" ","MAREA":" ","LANE":"２７９巷","ALLEY":" ","HOUSE_NO":"１８之４號","E_COORD97":165593.67999999999,"N_COORD97":2544125.5600000001,"ADDRESS":"永華六街２７９巷１８之４號","OBJECTID":237187},"geometry":{"x":165593.6799999997,"y":2544125.5600000005}},{"attributes":{"ID":237192,"DIS_CODE":0,"TOWNNAME":"安平區","LI":"怡平里","LIN":"13鄰","STREET":"永華六街","SECT":" ","MAREA":" ","LANE":"２７９巷","ALLEY":" ","HOUSE_NO":"１８之５號","E_COORD97":165599.39999999999,"N_COORD97":2544126.0299999998,"ADDRESS":"永華六街２７９巷１８之５號","OBJECTID":237188},"geometry":{"x":165599.4000000013,"y":2544126.0300000012}},{"attributes":{"ID":237193,"DIS_CODE":0,"TOWNNAME":"安平區","LI":"怡平里","LIN":"13鄰","STREET":"永華六街","SECT":" ","MAREA":" ","LANE":"２７９巷","ALLEY":" ","HOUSE_NO":"１８之６號","E_COORD97":165606.64999999999,"N_COORD97":2544126.4900000002,"ADDRESS":"永華六街２７９巷１８之６號","OBJECTID":237189},"geometry":{"x":165606.65000000037,"y":2544126.4900000039}},{"attributes":{"ID":237194,"DIS_CODE":0,"TOWNNAME":"安平區","LI":"怡平里","LIN":"13鄰","STREET":"永華六街","SECT":" ","MAREA":" ","LANE":"２７９巷","ALLEY":" ","HOUSE_NO":"１８之７號","E_COORD97":165612.98000000001,"N_COORD97":2544126.7999999998,"ADDRESS":"永華六街２７９巷１８之７號","OBJECTID":237190},"geometry":{"x":165612.98000000045,"y":2544126.8000000007}},{"attributes":{"ID":237195,"DIS_CODE":0,"TOWNNAME":"仁德區","LI":"仁德里","LIN":"14鄰","STREET":"四維街","SECT":" ","MAREA":" ","LANE":" ","ALLEY":" ","HOUSE_NO":"１６號","E_COORD97":173300.25398800001,"N_COORD97":2541537.2625099998,"ADDRESS":"四維街１６號","OBJECTID":237191},"geometry":{"x":173300.25398799963,"y":2541537.2625080012}},{"attributes":{"ID":237196,"DIS_CODE":0,"TOWNNAME":"歸仁區","LI":"八甲里","LIN":"16鄰","STREET":"大明三街","SECT":" ","MAREA":" ","LANE":"９３巷","ALLEY":" ","HOUSE_NO":"１０號","E_COORD97":178072.57000000001,"N_COORD97":2541626.6099999999,"ADDRESS":"大明三街９３巷１０號","OBJECTID":237192},"geometry":{"x":178072.57000000123,"y":2541626.6100000013}},{"attributes":{"ID":237197,"DIS_CODE":0,"TOWNNAME":"歸仁區","LI":"大廟里","LIN":"16鄰","STREET":"大廟六街","SECT":" ","MAREA":" ","LANE":"３５巷","ALLEY":" ","HOUSE_NO":"９號","E_COORD97":176056.57999999999,"N_COORD97":2544280.0899999999,"ADDRESS":"大廟六街３５巷９號","OBJECTID":237193},"geometry":{"x":176056.58000000194,"y":2544280.0899999999}},{"attributes":{"ID":237198,"DIS_CODE":0,"TOWNNAME":"安平區","LI":"怡平里","LIN":"13鄰","STREET":"永華六街","SECT":" ","MAREA":" ","LANE":"２７９巷","ALLEY":" ","HOUSE_NO":"１８之８號","E_COORD97":165609.73999999999,"N_COORD97":2544143.1499999999,"ADDRESS":"永華六街２７９巷１８之８號","OBJECTID":237194},"geometry":{"x":165609.74000000209,"y":2544143.1500000022}},{"attributes":{"ID":237199,"DIS_CODE":0,"TOWNNAME":"安平區","LI":"怡平里","LIN":"13鄰","STREET":"永華六街","SECT":" ","MAREA":" ","LANE":"２７９巷","ALLEY":" ","HOUSE_NO":"１８之９號","E_COORD97":165598.78,"N_COORD97":2544141.9100000001,"ADDRESS":"永華六街２７９巷１８之９號","OBJECTID":237195},"geometry":{"x":165598.78000000026,"y":2544141.910000002}},{"attributes":{"ID":237200,"DIS_CODE":0,"TOWNNAME":"安平區","LI":"怡平里","LIN":"13鄰","STREET":"永華六街","SECT":" ","MAREA":" ","LANE":"２７９巷","ALLEY":" ","HOUSE_NO":"１８之１０號","E_COORD97":165591.82999999999,"N_COORD97":2544141.2999999998,"ADDRESS":"永華六街２７９巷１８之１０號","OBJECTID":237196},"geometry":{"x":165591.83000000007,"y":2544141.3000000007}},{"attributes":{"ID":237201,"DIS_CODE":0,"TOWNNAME":"安平區","LI":"怡平里","LIN":"13鄰","STREET":"永華六街","SECT":" ","MAREA":" ","LANE":"２７９巷","ALLEY":" ","HOUSE_NO":"１８之１１號","E_COORD97":165586.42999999999,"N_COORD97":2544140.8300000001,"ADDRESS":"永華六街２７９巷１８之１１號","OBJECTID":237197},"geometry":{"x":165586.43000000063,"y":2544140.8300000038}},{"attributes":{"ID":237202,"DIS_CODE":0,"TOWNNAME":"安平區","LI":"怡平里","LIN":"13鄰","STREET":"永華六街","SECT":" ","MAREA":" ","LANE":"２７９巷","ALLEY":" ","HOUSE_NO":"１８之１２號","E_COORD97":165580.56,"N_COORD97":2544140.52,"ADDRESS":"永華六街２７９巷１８之１２號","OBJECTID":237198},"geometry":{"x":165580.56000000052,"y":2544140.5200000014}},{"attributes":{"ID":237203,"DIS_CODE":0,"TOWNNAME":"安平區","LI":"怡平里","LIN":"13鄰","STREET":"永華六街","SECT":" ","MAREA":" ","LANE":"２７９巷","ALLEY":" ","HOUSE_NO":"１８之１３號","E_COORD97":165575.47,"N_COORD97":2544140.3700000001,"ADDRESS":"永華六街２７９巷１８之１３號","OBJECTID":237199},"geometry":{"x":165575.4700000016,"y":2544140.370000001}},{"attributes":{"ID":237204,"DIS_CODE":0,"TOWNNAME":"安平區","LI":"怡平里","LIN":"13鄰","STREET":"永華六街","SECT":" ","MAREA":" ","LANE":"２７９巷","ALLEY":" ","HOUSE_NO":"１８之１４號","E_COORD97":165570.22,"N_COORD97":2544139.29,"ADDRESS":"永華六街２７９巷１８之１４號","OBJECTID":237200},"geometry":{"x":165570.21999999974,"y":2544139.2899999991}}]}