{"displayFieldName":"TOWNNAME","fieldAliases":{"ID":"ID","DIS_CODE":"DIS_CODE","TOWNNAME":"TOWNNAME","LI":"LI","LIN":"LIN","STREET":"STREET","SECT":"SECT","MAREA":"MAREA","LANE":"LANE","ALLEY":"ALLEY","HOUSE_NO":"HOUSE_NO","E_COORD97":"E_COORD97","N_COORD97":"N_COORD97","ADDRESS":"ADDRESS","OBJECTID":"OBJECTID"},"geometryType":"esriGeometryPoint","spatialReference":{"wkid":102443,"latestWkid":3826},"fields":[{"name":"ID","type":"esriFieldTypeDouble","alias":"ID"},{"name":"DIS_CODE","type":"esriFieldTypeInteger","alias":"DIS_CODE"},{"name":"TOWNNAME","type":"esriFieldTypeString","alias":"TOWNNAME","length":8},{"name":"LI","type":"esriFieldTypeString","alias":"LI","length":8},{"name":"LIN","type":"esriFieldTypeString","alias":"LIN","length":12},{"name":"STREET","type":"esriFieldTypeString","alias":"STREET","length":20},{"name":"SECT","type":"esriFieldTypeString","alias":"SECT","length":8},{"name":"MAREA","type":"esriFieldTypeString","alias":"MAREA","length":12},{"name":"LANE","type":"esriFieldTypeString","alias":"LANE","length":10},{"name":"ALLEY","type":"esriFieldTypeString","alias":"ALLEY","length":10},{"name":"HOUSE_NO","type":"esriFieldTypeString","alias":"HOUSE_NO","length":20},{"name":"E_COORD97","type":"esriFieldTypeDouble","alias":"E_COORD97"},{"name":"N_COORD97","type":"esriFieldTypeDouble","alias":"N_COORD97"},{"name":"ADDRESS","type":"esriFieldTypeString","alias":"ADDRESS","length":50},{"name":"OBJECTID","type":"esriFieldTypeOID","alias":"OBJECTID"}],"features":[{"attributes":{"ID":252805,"DIS_CODE":0,"TOWNNAME":"歸仁區","LI":"歸南里","LIN":"14鄰","STREET":"民生南街","SECT":"二段","MAREA":" ","LANE":"２７７巷","ALLEY":" ","HOUSE_NO":"２８號","E_COORD97":176165.10999999999,"N_COORD97":2539984.25,"ADDRESS":"民生南街二段２７７巷２８號","OBJECTID":252801},"geometry":{"x":176165.1100000022,"y":2539984.25}},{"attributes":{"ID":252806,"DIS_CODE":0,"TOWNNAME":"安平區","LI":"文平里","LIN":"24鄰","STREET":"建平三街","SECT":" ","MAREA":" ","LANE":" ","ALLEY":" ","HOUSE_NO":"９之１號","E_COORD97":166211.14999999999,"N_COORD97":2542859.8999999999,"ADDRESS":"建平三街９之１號","OBJECTID":252802},"geometry":{"x":166211.1500000013,"y":2542859.9000000022}},{"attributes":{"ID":252807,"DIS_CODE":0,"TOWNNAME":"歸仁區","LI":"歸南里","LIN":"14鄰","STREET":"民生南街","SECT":"二段","MAREA":" ","LANE":"２７７巷","ALLEY":" ","HOUSE_NO":"３４號","E_COORD97":176179.51000000001,"N_COORD97":2539986.25,"ADDRESS":"民生南街二段２７７巷３４號","OBJECTID":252803},"geometry":{"x":176179.51000000071,"y":2539986.2500000019}},{"attributes":{"ID":252808,"DIS_CODE":0,"TOWNNAME":"玉井區","LI":"玉井里","LIN":"14鄰","STREET":"中正路","SECT":" ","MAREA":" ","LANE":" ","ALLEY":" ","HOUSE_NO":"１２８號","E_COORD97":194871.85999999999,"N_COORD97":2558182.2400000002,"ADDRESS":"中正路１２８號","OBJECTID":252804},"geometry":{"x":194871.86000000127,"y":2558182.2400000021}},{"attributes":{"ID":252809,"DIS_CODE":0,"TOWNNAME":"歸仁區","LI":"新厝里","LIN":"14鄰","STREET":"中正南路","SECT":"一段","MAREA":" ","LANE":"８５巷","ALLEY":" ","HOUSE_NO":"４６號","E_COORD97":177633.04999999999,"N_COORD97":2540475.5899999999,"ADDRESS":"中正南路一段８５巷４６號","OBJECTID":252805},"geometry":{"x":177633.05000000168,"y":2540475.5899999999}},{"attributes":{"ID":252810,"DIS_CODE":0,"TOWNNAME":"歸仁區","LI":"歸仁里","LIN":"14鄰","STREET":"信義北路","SECT":" ","MAREA":" ","LANE":"９６巷","ALLEY":" ","HOUSE_NO":"７號","E_COORD97":178003.07000000001,"N_COORD97":2541064.1099999999,"ADDRESS":"信義北路９６巷７號","OBJECTID":252806},"geometry":{"x":178003.07000000123,"y":2541064.1100000013}},{"attributes":{"ID":252811,"DIS_CODE":0,"TOWNNAME":"麻豆區","LI":"東角里","LIN":"14鄰","STREET":"民生路","SECT":" ","MAREA":" ","LANE":"２５巷","ALLEY":" ","HOUSE_NO":"５號","E_COORD97":173695.31,"N_COORD97":2564684.8999999999,"ADDRESS":"民生路２５巷５號","OBJECTID":252807},"geometry":{"x":173695.31000000052,"y":2564684.9000000004}},{"attributes":{"ID":252812,"DIS_CODE":0,"TOWNNAME":"麻豆區","LI":"東角里","LIN":"14鄰","STREET":"民生路","SECT":" ","MAREA":" ","LANE":"２９巷","ALLEY":" ","HOUSE_NO":"２號","E_COORD97":173735.09,"N_COORD97":2564657.23,"ADDRESS":"民生路２９巷２號","OBJECTID":252808},"geometry":{"x":173735.08999999985,"y":2564657.2300000042}},{"attributes":{"ID":252813,"DIS_CODE":0,"TOWNNAME":"麻豆區","LI":"東角里","LIN":"14鄰","STREET":"民生路","SECT":" ","MAREA":" ","LANE":"２９巷","ALLEY":" ","HOUSE_NO":"３號","E_COORD97":173761.23999999999,"N_COORD97":2564655.27,"ADDRESS":"民生路２９巷３號","OBJECTID":252809},"geometry":{"x":173761.24000000022,"y":2564655.2699999996}},{"attributes":{"ID":252814,"DIS_CODE":0,"TOWNNAME":"北區","LI":"正覺里","LIN":"14鄰","STREET":"西門路","SECT":"四段","MAREA":" ","LANE":"５４４巷","ALLEY":" ","HOUSE_NO":"１１號","E_COORD97":169257.64000000001,"N_COORD97":2546418.3300000001,"ADDRESS":"西門路四段５４４巷１１號","OBJECTID":252810},"geometry":{"x":169257.63999999966,"y":2546418.3300000001}},{"attributes":{"ID":252815,"DIS_CODE":0,"TOWNNAME":"北區","LI":"正覺里","LIN":"14鄰","STREET":"西門路","SECT":"四段","MAREA":" ","LANE":"５４４巷","ALLEY":" ","HOUSE_NO":"１３號","E_COORD97":169259.47,"N_COORD97":2546413.27,"ADDRESS":"西門路四段５４４巷１３號","OBJECTID":252811},"geometry":{"x":169259.47000000067,"y":2546413.2700000014}},{"attributes":{"ID":252816,"DIS_CODE":0,"TOWNNAME":"北區","LI":"正覺里","LIN":"14鄰","STREET":"西門路","SECT":"四段","MAREA":" ","LANE":"５４４巷","ALLEY":" ","HOUSE_NO":"１５號","E_COORD97":169261.37,"N_COORD97":2546406.5899999999,"ADDRESS":"西門路四段５４４巷１５號","OBJECTID":252812},"geometry":{"x":169261.37000000011,"y":2546406.5899999999}},{"attributes":{"ID":252817,"DIS_CODE":0,"TOWNNAME":"北區","LI":"正覺里","LIN":"14鄰","STREET":"西門路","SECT":"四段","MAREA":" ","LANE":"５４４巷","ALLEY":" ","HOUSE_NO":"１號","E_COORD97":169239.69,"N_COORD97":2546430.7400000002,"ADDRESS":"西門路四段５４４巷１號","OBJECTID":252813},"geometry":{"x":169239.69000000227,"y":2546430.7400000021}},{"attributes":{"ID":252818,"DIS_CODE":0,"TOWNNAME":"北區","LI":"正覺里","LIN":"14鄰","STREET":"西門路","SECT":"四段","MAREA":" ","LANE":"５４４巷","ALLEY":" ","HOUSE_NO":"３號","E_COORD97":169243.89000000001,"N_COORD97":2546427.6000000001,"ADDRESS":"西門路四段５４４巷３號","OBJECTID":252814},"geometry":{"x":169243.88999999966,"y":2546427.6000000015}},{"attributes":{"ID":252819,"DIS_CODE":0,"TOWNNAME":"北區","LI":"正覺里","LIN":"14鄰","STREET":"西門路","SECT":"四段","MAREA":" ","LANE":"５４４巷","ALLEY":" ","HOUSE_NO":"５號","E_COORD97":169246.66,"N_COORD97":2546425.6000000001,"ADDRESS":"西門路四段５４４巷５號","OBJECTID":252815},"geometry":{"x":169246.66000000108,"y":2546425.5999999996}},{"attributes":{"ID":252820,"DIS_CODE":0,"TOWNNAME":"北區","LI":"正覺里","LIN":"14鄰","STREET":"西門路","SECT":"四段","MAREA":" ","LANE":"５４４巷","ALLEY":" ","HOUSE_NO":"７號","E_COORD97":169250.47,"N_COORD97":2546423.1200000001,"ADDRESS":"西門路四段５４４巷７號","OBJECTID":252816},"geometry":{"x":169250.46999999974,"y":2546423.1200000029}},{"attributes":{"ID":252821,"DIS_CODE":0,"TOWNNAME":"北區","LI":"正覺里","LIN":"14鄰","STREET":"西門路","SECT":"四段","MAREA":" ","LANE":"５４４巷","ALLEY":" ","HOUSE_NO":"９號","E_COORD97":169253.92000000001,"N_COORD97":2546419.96,"ADDRESS":"西門路四段５４４巷９號","OBJECTID":252817},"geometry":{"x":169253.91999999993,"y":2546419.9600000028}},{"attributes":{"ID":252822,"DIS_CODE":0,"TOWNNAME":"北區","LI":"正覺里","LIN":"14鄰","STREET":"西門路","SECT":"四段","MAREA":" ","LANE":"５５４巷","ALLEY":" ","HOUSE_NO":"１號","E_COORD97":169255.76999999999,"N_COORD97":2546454.2200000002,"ADDRESS":"西門路四段５５４巷１號","OBJECTID":252818},"geometry":{"x":169255.77000000048,"y":2546454.2199999988}},{"attributes":{"ID":252823,"DIS_CODE":0,"TOWNNAME":"北區","LI":"正覺里","LIN":"14鄰","STREET":"西門路","SECT":"四段","MAREA":" ","LANE":"５５４巷","ALLEY":" ","HOUSE_NO":"２號","E_COORD97":169247.84,"N_COORD97":2546441.7000000002,"ADDRESS":"西門路四段５５４巷２號","OBJECTID":252819},"geometry":{"x":169247.83999999985,"y":2546441.6999999993}},{"attributes":{"ID":252824,"DIS_CODE":0,"TOWNNAME":"北區","LI":"正覺里","LIN":"14鄰","STREET":"西門路","SECT":"四段","MAREA":" ","LANE":"５５４巷","ALLEY":" ","HOUSE_NO":"３號","E_COORD97":169260.35000000001,"N_COORD97":2546451.8399999999,"ADDRESS":"西門路四段５５４巷３號","OBJECTID":252820},"geometry":{"x":169260.35000000056,"y":2546451.8399999999}},{"attributes":{"ID":252825,"DIS_CODE":0,"TOWNNAME":"北區","LI":"正覺里","LIN":"14鄰","STREET":"西門路","SECT":"四段","MAREA":" ","LANE":"５５４巷","ALLEY":" ","HOUSE_NO":"４號","E_COORD97":169256.23000000001,"N_COORD97":2546437.9900000002,"ADDRESS":"西門路四段５５４巷４號","OBJECTID":252821},"geometry":{"x":169256.23000000045,"y":2546437.9900000002}},{"attributes":{"ID":252826,"DIS_CODE":0,"TOWNNAME":"北區","LI":"正覺里","LIN":"14鄰","STREET":"西門路","SECT":"四段","MAREA":" ","LANE":"５５４巷","ALLEY":" ","HOUSE_NO":"５號","E_COORD97":169265.12,"N_COORD97":2546449.5499999998,"ADDRESS":"西門路四段５５４巷５號","OBJECTID":252822},"geometry":{"x":169265.12000000011,"y":2546449.5500000026}},{"attributes":{"ID":252827,"DIS_CODE":0,"TOWNNAME":"北區","LI":"正覺里","LIN":"14鄰","STREET":"西門路","SECT":"四段","MAREA":" ","LANE":"５５４巷","ALLEY":" ","HOUSE_NO":"６號","E_COORD97":169263.95999999999,"N_COORD97":2546430.5499999998,"ADDRESS":"西門路四段５５４巷６號","OBJECTID":252823},"geometry":{"x":169263.95999999996,"y":2546430.5500000007}},{"attributes":{"ID":252828,"DIS_CODE":0,"TOWNNAME":"北區","LI":"正覺里","LIN":"14鄰","STREET":"西門路","SECT":"四段","MAREA":" ","LANE":"５５４巷","ALLEY":" ","HOUSE_NO":"７號","E_COORD97":169269.60000000001,"N_COORD97":2546445.2599999998,"ADDRESS":"西門路四段５５４巷７號","OBJECTID":252824},"geometry":{"x":169269.59999999963,"y":2546445.2599999998}},{"attributes":{"ID":252829,"DIS_CODE":0,"TOWNNAME":"六甲區","LI":"甲東里","LIN":"14鄰","STREET":"忠孝街","SECT":" ","MAREA":" ","LANE":"１６８巷","ALLEY":" ","HOUSE_NO":"４號","E_COORD97":184039.29999999999,"N_COORD97":2569877.52,"ADDRESS":"忠孝街１６８巷４號","OBJECTID":252825},"geometry":{"x":184039.30000000075,"y":2569877.5199999996}},{"attributes":{"ID":252830,"DIS_CODE":0,"TOWNNAME":"北區","LI":"正覺里","LIN":"14鄰","STREET":"西門路","SECT":"四段","MAREA":" ","LANE":"５７２巷","ALLEY":" ","HOUSE_NO":"１號","E_COORD97":169288.41,"N_COORD97":2546488.3999999999,"ADDRESS":"西門路四段５７２巷１號","OBJECTID":252826},"geometry":{"x":169288.41000000015,"y":2546488.4000000022}},{"attributes":{"ID":252831,"DIS_CODE":0,"TOWNNAME":"北區","LI":"正覺里","LIN":"14鄰","STREET":"西門路","SECT":"四段","MAREA":" ","LANE":"５７２巷","ALLEY":" ","HOUSE_NO":"２號","E_COORD97":169275.72,"N_COORD97":2546469.6899999999,"ADDRESS":"西門路四段５７２巷２號","OBJECTID":252827},"geometry":{"x":169275.71999999974,"y":2546469.6899999995}},{"attributes":{"ID":252832,"DIS_CODE":0,"TOWNNAME":"北區","LI":"正覺里","LIN":"14鄰","STREET":"西門路","SECT":"四段","MAREA":" ","LANE":"５７２巷","ALLEY":" ","HOUSE_NO":"３號","E_COORD97":169292.32000000001,"N_COORD97":2546485.1499999999,"ADDRESS":"西門路四段５７２巷３號","OBJECTID":252828},"geometry":{"x":169292.3200000003,"y":2546485.1500000041}},{"attributes":{"ID":252833,"DIS_CODE":0,"TOWNNAME":"後壁區","LI":"土溝里","LIN":"6鄰","STREET":" ","SECT":" ","MAREA":"土溝","LANE":" ","ALLEY":" ","HOUSE_NO":"５３號","E_COORD97":187189.04000000001,"N_COORD97":2585079.6800000002,"ADDRESS":"土溝５３號","OBJECTID":252829},"geometry":{"x":187189.0400000019,"y":2585079.6799999997}},{"attributes":{"ID":252834,"DIS_CODE":0,"TOWNNAME":"北區","LI":"正覺里","LIN":"14鄰","STREET":"西門路","SECT":"四段","MAREA":" ","LANE":"５７２巷","ALLEY":" ","HOUSE_NO":"５號","E_COORD97":169296.60999999999,"N_COORD97":2546481.8199999998,"ADDRESS":"西門路四段５７２巷５號","OBJECTID":252830},"geometry":{"x":169296.61000000127,"y":2546481.8200000022}},{"attributes":{"ID":252835,"DIS_CODE":0,"TOWNNAME":"北區","LI":"正覺里","LIN":"14鄰","STREET":"西門路","SECT":"四段","MAREA":" ","LANE":"５７２巷","ALLEY":" ","HOUSE_NO":"６號","E_COORD97":169282.67999999999,"N_COORD97":2546463.6800000002,"ADDRESS":"西門路四段５７２巷６號","OBJECTID":252831},"geometry":{"x":169282.6799999997,"y":2546463.6800000034}},{"attributes":{"ID":252836,"DIS_CODE":0,"TOWNNAME":"北區","LI":"正覺里","LIN":"14鄰","STREET":"西門路","SECT":"四段","MAREA":" ","LANE":"５７２巷","ALLEY":" ","HOUSE_NO":"７號","E_COORD97":169299.19,"N_COORD97":2546478.6699999999,"ADDRESS":"西門路四段５７２巷７號","OBJECTID":252832},"geometry":{"x":169299.19000000227,"y":2546478.6700000018}},{"attributes":{"ID":252837,"DIS_CODE":0,"TOWNNAME":"北區","LI":"正覺里","LIN":"14鄰","STREET":"西門路","SECT":"四段","MAREA":" ","LANE":"５７２巷","ALLEY":" ","HOUSE_NO":"８號","E_COORD97":169286.97,"N_COORD97":2546459.6800000002,"ADDRESS":"西門路四段５７２巷８號","OBJECTID":252833},"geometry":{"x":169286.97000000067,"y":2546459.6799999997}},{"attributes":{"ID":252838,"DIS_CODE":0,"TOWNNAME":"麻豆區","LI":"\u25A0江里","LIN":"14鄰","STREET":"民權路","SECT":" ","MAREA":" ","LANE":"９１巷","ALLEY":" ","HOUSE_NO":"３號之１０","E_COORD97":173525.41,"N_COORD97":2564488.3900000001,"ADDRESS":"民權路９１巷３號之１０","OBJECTID":252834},"geometry":{"x":173525.41000000108,"y":2564488.3900000006}},{"attributes":{"ID":252839,"DIS_CODE":0,"TOWNNAME":"麻豆區","LI":"\u25A0江里","LIN":"14鄰","STREET":"民權路","SECT":" ","MAREA":" ","LANE":"９１巷","ALLEY":" ","HOUSE_NO":"３號之１１","E_COORD97":173516.82999999999,"N_COORD97":2564481.1899999999,"ADDRESS":"民權路９１巷３號之１１","OBJECTID":252835},"geometry":{"x":173516.83000000007,"y":2564481.1900000013}},{"attributes":{"ID":252840,"DIS_CODE":0,"TOWNNAME":"麻豆區","LI":"\u25A0江里","LIN":"14鄰","STREET":"民權路","SECT":" ","MAREA":" ","LANE":"９１巷","ALLEY":" ","HOUSE_NO":"３號之６","E_COORD97":173546.48999999999,"N_COORD97":2564473.6699999999,"ADDRESS":"民權路９１巷３號之６","OBJECTID":252836},"geometry":{"x":173546.49000000022,"y":2564473.6700000037}},{"attributes":{"ID":252841,"DIS_CODE":0,"TOWNNAME":"麻豆區","LI":"\u25A0江里","LIN":"14鄰","STREET":"民權路","SECT":" ","MAREA":" ","LANE":"９１巷","ALLEY":" ","HOUSE_NO":"３號之７","E_COORD97":173545.92000000001,"N_COORD97":2564477.4100000001,"ADDRESS":"民權路９１巷３號之７","OBJECTID":252837},"geometry":{"x":173545.92000000086,"y":2564477.410000002}},{"attributes":{"ID":252842,"DIS_CODE":0,"TOWNNAME":"麻豆區","LI":"\u25A0江里","LIN":"14鄰","STREET":"民權路","SECT":" ","MAREA":" ","LANE":"９１巷","ALLEY":" ","HOUSE_NO":"３號之８","E_COORD97":173543.53,"N_COORD97":2564486.4100000001,"ADDRESS":"民權路９１巷３號之８","OBJECTID":252838},"geometry":{"x":173543.53000000119,"y":2564486.410000002}},{"attributes":{"ID":252843,"DIS_CODE":0,"TOWNNAME":"麻豆區","LI":"\u25A0江里","LIN":"14鄰","STREET":"民權路","SECT":" ","MAREA":" ","LANE":"９１巷","ALLEY":" ","HOUSE_NO":"３號之９","E_COORD97":173542.73999999999,"N_COORD97":2564490.2200000002,"ADDRESS":"民權路９１巷３號之９","OBJECTID":252839},"geometry":{"x":173542.74000000022,"y":2564490.2200000007}},{"attributes":{"ID":252844,"DIS_CODE":0,"TOWNNAME":"麻豆區","LI":"\u25A0江里","LIN":"14鄰","STREET":"民權路","SECT":" ","MAREA":" ","LANE":"９１巷","ALLEY":" ","HOUSE_NO":"５號之１","E_COORD97":173535.67000000001,"N_COORD97":2564512.5899999999,"ADDRESS":"民權路９１巷５號之１","OBJECTID":252840},"geometry":{"x":173535.67000000086,"y":2564512.5900000017}},{"attributes":{"ID":252845,"DIS_CODE":0,"TOWNNAME":"麻豆區","LI":"\u25A0江里","LIN":"14鄰","STREET":"民權路","SECT":" ","MAREA":" ","LANE":"９１巷","ALLEY":" ","HOUSE_NO":"５號之３","E_COORD97":173542.72,"N_COORD97":2564495.8199999998,"ADDRESS":"民權路９１巷５號之３","OBJECTID":252841},"geometry":{"x":173542.71999999974,"y":2564495.8200000003}},{"attributes":{"ID":252846,"DIS_CODE":0,"TOWNNAME":"麻豆區","LI":"\u25A0江里","LIN":"14鄰","STREET":"民權路","SECT":" ","MAREA":" ","LANE":"９１巷","ALLEY":" ","HOUSE_NO":"５號之４","E_COORD97":173523.20999999999,"N_COORD97":2564508.9500000002,"ADDRESS":"民權路９１巷５號之４","OBJECTID":252842},"geometry":{"x":173523.21000000089,"y":2564508.9500000011}},{"attributes":{"ID":252847,"DIS_CODE":0,"TOWNNAME":"麻豆區","LI":"\u25A0江里","LIN":"14鄰","STREET":"民權路","SECT":" ","MAREA":" ","LANE":"９１巷","ALLEY":" ","HOUSE_NO":"５號之５","E_COORD97":173518.78,"N_COORD97":2564508.3500000001,"ADDRESS":"民權路９１巷５號之５","OBJECTID":252843},"geometry":{"x":173518.78000000026,"y":2564508.3499999996}},{"attributes":{"ID":252848,"DIS_CODE":0,"TOWNNAME":"六甲區","LI":"甲南里","LIN":"14鄰","STREET":"永安街","SECT":" ","MAREA":" ","LANE":"３巷","ALLEY":" ","HOUSE_NO":"１１號","E_COORD97":183947.89000000001,"N_COORD97":2569797.2400000002,"ADDRESS":"永安街３巷１１號","OBJECTID":252844},"geometry":{"x":183947.88999999966,"y":2569797.2400000021}},{"attributes":{"ID":252849,"DIS_CODE":0,"TOWNNAME":"六甲區","LI":"甲南里","LIN":"14鄰","STREET":"永安街","SECT":" ","MAREA":" ","LANE":"３巷","ALLEY":" ","HOUSE_NO":"１３號","E_COORD97":183945.5,"N_COORD97":2569785.52,"ADDRESS":"永安街３巷１３號","OBJECTID":252845},"geometry":{"x":183945.50000000093,"y":2569785.5199999996}},{"attributes":{"ID":252850,"DIS_CODE":0,"TOWNNAME":"六甲區","LI":"甲南里","LIN":"14鄰","STREET":"永安街","SECT":" ","MAREA":" ","LANE":"３巷","ALLEY":" ","HOUSE_NO":"１５號","E_COORD97":183939.94,"N_COORD97":2569779.0600000001,"ADDRESS":"永安街３巷１５號","OBJECTID":252846},"geometry":{"x":183939.94000000041,"y":2569779.0600000024}},{"attributes":{"ID":252851,"DIS_CODE":0,"TOWNNAME":"六甲區","LI":"甲南里","LIN":"14鄰","STREET":"永安街","SECT":" ","MAREA":" ","LANE":"３巷","ALLEY":" ","HOUSE_NO":"１９號","E_COORD97":183936.82000000001,"N_COORD97":2569766.6099999999,"ADDRESS":"永安街３巷１９號","OBJECTID":252847},"geometry":{"x":183936.82000000123,"y":2569766.6100000013}},{"attributes":{"ID":252852,"DIS_CODE":0,"TOWNNAME":"六甲區","LI":"甲南里","LIN":"14鄰","STREET":"永安街","SECT":" ","MAREA":" ","LANE":"３巷","ALLEY":" ","HOUSE_NO":"１號","E_COORD97":183961.94,"N_COORD97":2569828.27,"ADDRESS":"永安街３巷１號","OBJECTID":252848},"geometry":{"x":183961.94000000041,"y":2569828.2699999996}},{"attributes":{"ID":252853,"DIS_CODE":0,"TOWNNAME":"安平區","LI":"平通里","LIN":"14鄰","STREET":"健康三街","SECT":" ","MAREA":" ","LANE":"４６０巷","ALLEY":" ","HOUSE_NO":"６２號","E_COORD97":165001.84,"N_COORD97":2543879.48,"ADDRESS":"健康三街４６０巷６２號","OBJECTID":252849},"geometry":{"x":165001.84000000171,"y":2543879.4800000023}},{"attributes":{"ID":252854,"DIS_CODE":0,"TOWNNAME":"新營區","LI":"南興里","LIN":"14鄰","STREET":"興農街","SECT":" ","MAREA":" ","LANE":"１３６巷","ALLEY":" ","HOUSE_NO":"２３之４號","E_COORD97":179154.92999999999,"N_COORD97":2577601.1299999999,"ADDRESS":"興農街１３６巷２３之４號","OBJECTID":252850},"geometry":{"x":179154.93000000063,"y":2577601.1300000008}},{"attributes":{"ID":252855,"DIS_CODE":0,"TOWNNAME":"新營區","LI":"新北里","LIN":"14鄰","STREET":"南新街","SECT":" ","MAREA":" ","LANE":"１３巷","ALLEY":" ","HOUSE_NO":"１１號","E_COORD97":179309.48999999999,"N_COORD97":2578803.02,"ADDRESS":"南新街１３巷１１號","OBJECTID":252851},"geometry":{"x":179309.49000000022,"y":2578803.0200000014}},{"attributes":{"ID":252856,"DIS_CODE":0,"TOWNNAME":"新營區","LI":"王公里","LIN":"14鄰","STREET":"公正街","SECT":" ","MAREA":" ","LANE":"７０巷","ALLEY":" ","HOUSE_NO":"１１號","E_COORD97":180229.78,"N_COORD97":2579397.79,"ADDRESS":"公正街７０巷１１號","OBJECTID":252852},"geometry":{"x":180229.78000000026,"y":2579397.790000001}},{"attributes":{"ID":252857,"DIS_CODE":0,"TOWNNAME":"新營區","LI":"埤寮里","LIN":"14鄰","STREET":"中正路","SECT":" ","MAREA":" ","LANE":"４３０巷","ALLEY":" ","HOUSE_NO":"１５號","E_COORD97":180212.64999999999,"N_COORD97":2580538.5499999998,"ADDRESS":"中正路４３０巷１５號","OBJECTID":252853},"geometry":{"x":180212.65000000037,"y":2580538.5500000007}},{"attributes":{"ID":252858,"DIS_CODE":0,"TOWNNAME":"新營區","LI":"中營里","LIN":"14鄰","STREET":"東昇街","SECT":" ","MAREA":" ","LANE":"１７７巷","ALLEY":" ","HOUSE_NO":"２５號","E_COORD97":181872.54999999999,"N_COORD97":2579196.3399999999,"ADDRESS":"東昇街１７７巷２５號","OBJECTID":252854},"geometry":{"x":181872.55000000168,"y":2579196.3399999999}},{"attributes":{"ID":252859,"DIS_CODE":0,"TOWNNAME":"新營區","LI":"王公里","LIN":"14鄰","STREET":"公正街","SECT":" ","MAREA":" ","LANE":"７０巷","ALLEY":" ","HOUSE_NO":"１號","E_COORD97":180180.44,"N_COORD97":2579393.5899999999,"ADDRESS":"公正街７０巷１號","OBJECTID":252855},"geometry":{"x":180180.44000000227,"y":2579393.5900000017}},{"attributes":{"ID":252860,"DIS_CODE":0,"TOWNNAME":"新營區","LI":"王公里","LIN":"14鄰","STREET":"公正街","SECT":" ","MAREA":" ","LANE":"７０巷","ALLEY":" ","HOUSE_NO":"１４號","E_COORD97":180244.09,"N_COORD97":2579397.7200000002,"ADDRESS":"公正街７０巷１４號","OBJECTID":252856},"geometry":{"x":180244.09000000078,"y":2579397.7200000007}},{"attributes":{"ID":252861,"DIS_CODE":0,"TOWNNAME":"新營區","LI":"埤寮里","LIN":"14鄰","STREET":"中正路","SECT":" ","MAREA":" ","LANE":"４３０巷","ALLEY":" ","HOUSE_NO":"１１０之１號","E_COORD97":180791.5,"N_COORD97":2580390.8199999998,"ADDRESS":"中正路４３０巷１１０之１號","OBJECTID":252857},"geometry":{"x":180791.49999999907,"y":2580390.8199999984}},{"attributes":{"ID":252862,"DIS_CODE":0,"TOWNNAME":"新營區","LI":"王公里","LIN":"14鄰","STREET":"公正街","SECT":" ","MAREA":" ","LANE":"７０巷","ALLEY":" ","HOUSE_NO":"３號","E_COORD97":180189.73000000001,"N_COORD97":2579394.6499999999,"ADDRESS":"公正街７０巷３號","OBJECTID":252858},"geometry":{"x":180189.73000000045,"y":2579394.6500000004}},{"attributes":{"ID":252863,"DIS_CODE":0,"TOWNNAME":"新營區","LI":"嘉芳里","LIN":"14鄰","STREET":"新工路","SECT":" ","MAREA":" ","LANE":"４巷","ALLEY":" ","HOUSE_NO":"２號","E_COORD97":176466.35999999999,"N_COORD97":2578705.0099999998,"ADDRESS":"新工路４巷２號","OBJECTID":252859},"geometry":{"x":176466.36000000034,"y":2578705.0100000016}},{"attributes":{"ID":252864,"DIS_CODE":0,"TOWNNAME":"新營區","LI":"埤寮里","LIN":"14鄰","STREET":"中正路","SECT":" ","MAREA":" ","LANE":"４３０巷","ALLEY":" ","HOUSE_NO":"１２５號","E_COORD97":180821.06,"N_COORD97":2580465.9199999999,"ADDRESS":"中正路４３０巷１２５號","OBJECTID":252860},"geometry":{"x":180821.05999999959,"y":2580465.9200000018}},{"attributes":{"ID":252865,"DIS_CODE":0,"TOWNNAME":"新營區","LI":"埤寮里","LIN":"14鄰","STREET":"中正路","SECT":" ","MAREA":" ","LANE":"４３０巷","ALLEY":" ","HOUSE_NO":"６號","E_COORD97":180121.41,"N_COORD97":2580536.7599999998,"ADDRESS":"中正路４３０巷６號","OBJECTID":252861},"geometry":{"x":180121.41000000108,"y":2580536.7600000035}},{"attributes":{"ID":252866,"DIS_CODE":0,"TOWNNAME":"新營區","LI":"興安里","LIN":"14鄰","STREET":"中興路","SECT":" ","MAREA":" ","LANE":"３１巷","ALLEY":" ","HOUSE_NO":"４號","E_COORD97":180179.76000000001,"N_COORD97":2577496.5299999998,"ADDRESS":"中興路３１巷４號","OBJECTID":252862},"geometry":{"x":180179.76000000071,"y":2577496.5300000031}},{"attributes":{"ID":252867,"DIS_CODE":0,"TOWNNAME":"新營區","LI":"埤寮里","LIN":"14鄰","STREET":"中正路","SECT":" ","MAREA":" ","LANE":"３８６巷","ALLEY":" ","HOUSE_NO":"５號","E_COORD97":180436.73000000001,"N_COORD97":2579951.6400000001,"ADDRESS":"中正路３８６巷５號","OBJECTID":252863},"geometry":{"x":180436.73000000138,"y":2579951.6400000043}},{"attributes":{"ID":252868,"DIS_CODE":0,"TOWNNAME":"新營區","LI":"中營里","LIN":"14鄰","STREET":"東昇街","SECT":" ","MAREA":" ","LANE":"１７７巷","ALLEY":" ","HOUSE_NO":"１６號","E_COORD97":181924.23000000001,"N_COORD97":2579106.3900000001,"ADDRESS":"東昇街１７７巷１６號","OBJECTID":252864},"geometry":{"x":181924.23000000045,"y":2579106.3900000025}},{"attributes":{"ID":252869,"DIS_CODE":0,"TOWNNAME":"歸仁區","LI":"崙頂里","LIN":"16鄰","STREET":"崙頂一街","SECT":" ","MAREA":" ","LANE":"２３巷","ALLEY":" ","HOUSE_NO":"２５號","E_COORD97":177944.916692,"N_COORD97":2540043.7525200001,"ADDRESS":"崙頂一街２３巷２５號","OBJECTID":252865},"geometry":{"x":177944.91669199988,"y":2540043.7525219992}},{"attributes":{"ID":252870,"DIS_CODE":0,"TOWNNAME":"新營區","LI":"中營里","LIN":"14鄰","STREET":"東昇街","SECT":" ","MAREA":" ","LANE":"１７７巷","ALLEY":" ","HOUSE_NO":"１５號","E_COORD97":181897.73999999999,"N_COORD97":2579128.6600000001,"ADDRESS":"東昇街１７７巷１５號","OBJECTID":252866},"geometry":{"x":181897.74000000115,"y":2579128.660000002}},{"attributes":{"ID":252871,"DIS_CODE":0,"TOWNNAME":"新營區","LI":"埤寮里","LIN":"14鄰","STREET":"中正路","SECT":" ","MAREA":" ","LANE":"３８６巷","ALLEY":" ","HOUSE_NO":"７號","E_COORD97":180359.16,"N_COORD97":2580200.0800000001,"ADDRESS":"中正路３８６巷７號","OBJECTID":252867},"geometry":{"x":180359.16000000108,"y":2580200.0800000019}},{"attributes":{"ID":252872,"DIS_CODE":0,"TOWNNAME":"鹽水區","LI":"橋南里","LIN":"9鄰","STREET":"南門路","SECT":" ","MAREA":" ","LANE":"１５４巷","ALLEY":" ","HOUSE_NO":"９號","E_COORD97":175321.93449000001,"N_COORD97":2579009.6795899998,"ADDRESS":"南門路１５４巷９號","OBJECTID":252868},"geometry":{"x":175321.93449000083,"y":2579009.6795940008}},{"attributes":{"ID":252873,"DIS_CODE":0,"TOWNNAME":"新營區","LI":"新北里","LIN":"14鄰","STREET":"南新街","SECT":" ","MAREA":" ","LANE":"１３巷","ALLEY":" ","HOUSE_NO":"２４號","E_COORD97":179301.45999999999,"N_COORD97":2578819.6699999999,"ADDRESS":"南新街１３巷２４號","OBJECTID":252869},"geometry":{"x":179301.45999999996,"y":2578819.6700000018}},{"attributes":{"ID":252874,"DIS_CODE":0,"TOWNNAME":"新營區","LI":"新北里","LIN":"14鄰","STREET":"南新街","SECT":" ","MAREA":" ","LANE":"１３巷","ALLEY":" ","HOUSE_NO":"６４號","E_COORD97":179260.42999999999,"N_COORD97":2578807.6800000002,"ADDRESS":"南新街１３巷６４號","OBJECTID":252870},"geometry":{"x":179260.4299999997,"y":2578807.6799999997}},{"attributes":{"ID":252875,"DIS_CODE":0,"TOWNNAME":"新營區","LI":"新北里","LIN":"14鄰","STREET":"南新街","SECT":" ","MAREA":" ","LANE":"１３巷","ALLEY":" ","HOUSE_NO":"３４號","E_COORD97":179299.54999999999,"N_COORD97":2578844.0499999998,"ADDRESS":"南新街１３巷３４號","OBJECTID":252871},"geometry":{"x":179299.55000000075,"y":2578844.0500000045}},{"attributes":{"ID":252876,"DIS_CODE":0,"TOWNNAME":"新營區","LI":"中營里","LIN":"14鄰","STREET":"東昇街","SECT":" ","MAREA":" ","LANE":"１７７巷","ALLEY":" ","HOUSE_NO":"２０號","E_COORD97":181924.39999999999,"N_COORD97":2579127.4300000002,"ADDRESS":"東昇街１７７巷２０號","OBJECTID":252872},"geometry":{"x":181924.40000000037,"y":2579127.4299999997}},{"attributes":{"ID":252877,"DIS_CODE":0,"TOWNNAME":"新營區","LI":"埤寮里","LIN":"14鄰","STREET":"中正路","SECT":" ","MAREA":" ","LANE":"４３０巷","ALLEY":" ","HOUSE_NO":"１０２號","E_COORD97":180414.63,"N_COORD97":2580161.0600000001,"ADDRESS":"中正路４３０巷１０２號","OBJECTID":252873},"geometry":{"x":180414.63000000082,"y":2580161.0600000005}},{"attributes":{"ID":252878,"DIS_CODE":0,"TOWNNAME":"新營區","LI":"新北里","LIN":"14鄰","STREET":"南新街","SECT":" ","MAREA":" ","LANE":"１３巷","ALLEY":" ","HOUSE_NO":"３２號","E_COORD97":179305.69,"N_COORD97":2578845.1299999999,"ADDRESS":"南新街１３巷３２號","OBJECTID":252874},"geometry":{"x":179305.68999999948,"y":2578845.1300000008}},{"attributes":{"ID":252879,"DIS_CODE":0,"TOWNNAME":"新營區","LI":"新南里","LIN":"14鄰","STREET":"民治路","SECT":" ","MAREA":" ","LANE":"３００巷","ALLEY":" ","HOUSE_NO":"１６之３號","E_COORD97":178742.17000000001,"N_COORD97":2578569.9199999999,"ADDRESS":"民治路３００巷１６之３號","OBJECTID":252875},"geometry":{"x":178742.16999999993,"y":2578569.9200000018}},{"attributes":{"ID":252880,"DIS_CODE":0,"TOWNNAME":"新營區","LI":"民生里","LIN":"14鄰","STREET":"復興路","SECT":" ","MAREA":" ","LANE":"２３４巷","ALLEY":" ","HOUSE_NO":"３號","E_COORD97":178918.47,"N_COORD97":2578131.5600000001,"ADDRESS":"復興路２３４巷３號","OBJECTID":252876},"geometry":{"x":178918.4700000016,"y":2578131.5600000042}},{"attributes":{"ID":252881,"DIS_CODE":0,"TOWNNAME":"新營區","LI":"新北里","LIN":"14鄰","STREET":"南新街","SECT":" ","MAREA":" ","LANE":"１３巷","ALLEY":" ","HOUSE_NO":"１３號","E_COORD97":179305.39000000001,"N_COORD97":2578800.8300000001,"ADDRESS":"南新街１３巷１３號","OBJECTID":252877},"geometry":{"x":179305.39000000153,"y":2578800.8300000038}},{"attributes":{"ID":252882,"DIS_CODE":0,"TOWNNAME":"新營區","LI":"中營里","LIN":"14鄰","STREET":"東昇街","SECT":" ","MAREA":" ","LANE":"１７７巷","ALLEY":" ","HOUSE_NO":"１９號","E_COORD97":181895.79000000001,"N_COORD97":2579149.7200000002,"ADDRESS":"東昇街１７７巷１９號","OBJECTID":252878},"geometry":{"x":181895.79000000097,"y":2579149.7200000007}},{"attributes":{"ID":252883,"DIS_CODE":0,"TOWNNAME":"歸仁區","LI":"大潭里","LIN":"14鄰","STREET":"大潭二街","SECT":" ","MAREA":" ","LANE":"４８巷","ALLEY":" ","HOUSE_NO":"１２號","E_COORD97":174984.70999999999,"N_COORD97":2534624.25,"ADDRESS":"大潭二街４８巷１２號","OBJECTID":252879},"geometry":{"x":174984.71000000089,"y":2534624.2499999981}},{"attributes":{"ID":252884,"DIS_CODE":0,"TOWNNAME":"歸仁區","LI":"八甲里","LIN":"14鄰","STREET":"大明三街","SECT":" ","MAREA":" ","LANE":"７１巷","ALLEY":" ","HOUSE_NO":"６號","E_COORD97":178097.22,"N_COORD97":2541687.6099999999,"ADDRESS":"大明三街７１巷６號","OBJECTID":252880},"geometry":{"x":178097.21999999974,"y":2541687.6100000013}},{"attributes":{"ID":252885,"DIS_CODE":0,"TOWNNAME":"歸仁區","LI":"七甲里","LIN":"14鄰","STREET":"南丁路","SECT":" ","MAREA":" ","LANE":"５９１巷","ALLEY":" ","HOUSE_NO":"２５號","E_COORD97":175956.73999999999,"N_COORD97":2543092.25,"ADDRESS":"南丁路５９１巷２５號","OBJECTID":252881},"geometry":{"x":175956.74000000022,"y":2543092.25}},{"attributes":{"ID":252886,"DIS_CODE":0,"TOWNNAME":"歸仁區","LI":"大潭里","LIN":"14鄰","STREET":"大潭二街","SECT":" ","MAREA":" ","LANE":"４８巷","ALLEY":" ","HOUSE_NO":"６號","E_COORD97":174997.85999999999,"N_COORD97":2534631.25,"ADDRESS":"大潭二街４８巷６號","OBJECTID":252882},"geometry":{"x":174997.86000000127,"y":2534631.2500000037}},{"attributes":{"ID":252887,"DIS_CODE":0,"TOWNNAME":"歸仁區","LI":"八甲里","LIN":"14鄰","STREET":"大明三街","SECT":" ","MAREA":" ","LANE":"２１巷","ALLEY":" ","HOUSE_NO":"８號","E_COORD97":178097.62,"N_COORD97":2541770.6099999999,"ADDRESS":"大明三街２１巷８號","OBJECTID":252883},"geometry":{"x":178097.62000000104,"y":2541770.6099999994}},{"attributes":{"ID":252888,"DIS_CODE":0,"TOWNNAME":"歸仁區","LI":"七甲里","LIN":"14鄰","STREET":"南潭一街","SECT":" ","MAREA":" ","LANE":"４２巷","ALLEY":" ","HOUSE_NO":"３２號","E_COORD97":175889.94,"N_COORD97":2543070.25,"ADDRESS":"南潭一街４２巷３２號","OBJECTID":252884},"geometry":{"x":175889.94000000227,"y":2543070.2500000019}},{"attributes":{"ID":252889,"DIS_CODE":0,"TOWNNAME":"北區","LI":"六甲里","LIN":"14鄰","STREET":"和緯路","SECT":"二段","MAREA":" ","LANE":"３０巷","ALLEY":" ","HOUSE_NO":"４９號","E_COORD97":169047.54000000001,"N_COORD97":2545818.1699999999,"ADDRESS":"和緯路二段３０巷４９號","OBJECTID":252885},"geometry":{"x":169047.54000000097,"y":2545818.1700000018}},{"attributes":{"ID":252890,"DIS_CODE":0,"TOWNNAME":"北區","LI":"六甲里","LIN":"14鄰","STREET":"和緯路","SECT":"二段","MAREA":" ","LANE":"３０巷","ALLEY":" ","HOUSE_NO":"５１號","E_COORD97":169047.39000000001,"N_COORD97":2545823.2000000002,"ADDRESS":"和緯路二段３０巷５１號","OBJECTID":252886},"geometry":{"x":169047.38999999966,"y":2545823.2000000011}},{"attributes":{"ID":252891,"DIS_CODE":0,"TOWNNAME":"北區","LI":"六甲里","LIN":"14鄰","STREET":"和緯路","SECT":"二段","MAREA":" ","LANE":"３０巷","ALLEY":" ","HOUSE_NO":"５３號","E_COORD97":169048.57999999999,"N_COORD97":2545827.0600000001,"ADDRESS":"和緯路二段３０巷５３號","OBJECTID":252887},"geometry":{"x":169048.58000000194,"y":2545827.0600000005}},{"attributes":{"ID":252892,"DIS_CODE":0,"TOWNNAME":"北區","LI":"六甲里","LIN":"14鄰","STREET":"和緯路","SECT":"二段","MAREA":" ","LANE":"３０巷","ALLEY":" ","HOUSE_NO":"５５號","E_COORD97":169048.57999999999,"N_COORD97":2545831.3500000001,"ADDRESS":"和緯路二段３０巷５５號","OBJECTID":252888},"geometry":{"x":169048.58000000194,"y":2545831.3499999996}},{"attributes":{"ID":252893,"DIS_CODE":0,"TOWNNAME":"北區","LI":"六甲里","LIN":"14鄰","STREET":"和緯路","SECT":"二段","MAREA":" ","LANE":"３０巷","ALLEY":" ","HOUSE_NO":"５７號","E_COORD97":169049.01999999999,"N_COORD97":2545836.8300000001,"ADDRESS":"和緯路二段３０巷５７號","OBJECTID":252889},"geometry":{"x":169049.02000000048,"y":2545836.8300000019}},{"attributes":{"ID":252894,"DIS_CODE":0,"TOWNNAME":"後壁區","LI":"長安里","LIN":"13鄰","STREET":" ","SECT":" ","MAREA":"中寮","LANE":" ","ALLEY":" ","HOUSE_NO":"１８２號","E_COORD97":184108.35000000001,"N_COORD97":2581525.75,"ADDRESS":"中寮１８２號","OBJECTID":252890},"geometry":{"x":184108.35000000056,"y":2581525.75}},{"attributes":{"ID":252895,"DIS_CODE":0,"TOWNNAME":"後壁區","LI":"長安里","LIN":"13鄰","STREET":" ","SECT":" ","MAREA":"中寮","LANE":" ","ALLEY":" ","HOUSE_NO":"１８３號之１１","E_COORD97":184119.95000000001,"N_COORD97":2581468.6699999999,"ADDRESS":"中寮１８３號之１１","OBJECTID":252891},"geometry":{"x":184119.95000000112,"y":2581468.6699999999}},{"attributes":{"ID":252896,"DIS_CODE":0,"TOWNNAME":"後壁區","LI":"長安里","LIN":"13鄰","STREET":" ","SECT":" ","MAREA":"中寮","LANE":" ","ALLEY":" ","HOUSE_NO":"１８３號之１２","E_COORD97":184116.42000000001,"N_COORD97":2581469.1499999999,"ADDRESS":"中寮１８３號之１２","OBJECTID":252892},"geometry":{"x":184116.42000000179,"y":2581469.1500000004}},{"attributes":{"ID":252897,"DIS_CODE":0,"TOWNNAME":"後壁區","LI":"長安里","LIN":"13鄰","STREET":" ","SECT":" ","MAREA":"中寮","LANE":" ","ALLEY":" ","HOUSE_NO":"１８５號","E_COORD97":184148.51999999999,"N_COORD97":2581446.3700000001,"ADDRESS":"中寮１８５號","OBJECTID":252893},"geometry":{"x":184148.51999999955,"y":2581446.3700000029}},{"attributes":{"ID":252898,"DIS_CODE":0,"TOWNNAME":"北區","LI":"六甲里","LIN":"14鄰","STREET":"和緯路","SECT":"二段","MAREA":" ","LANE":"３０巷","ALLEY":" ","HOUSE_NO":"５９號","E_COORD97":169050.95000000001,"N_COORD97":2545844.0099999998,"ADDRESS":"和緯路二段３０巷５９號","OBJECTID":252894},"geometry":{"x":169050.95000000019,"y":2545844.0099999998}},{"attributes":{"ID":252899,"DIS_CODE":0,"TOWNNAME":"北區","LI":"六甲里","LIN":"14鄰","STREET":"和緯路","SECT":"二段","MAREA":" ","LANE":"３０巷","ALLEY":" ","HOUSE_NO":"６１號","E_COORD97":169052.88,"N_COORD97":2545848.7400000002,"ADDRESS":"和緯路二段３０巷６１號","OBJECTID":252895},"geometry":{"x":169052.87999999989,"y":2545848.7400000002}},{"attributes":{"ID":252900,"DIS_CODE":0,"TOWNNAME":"北區","LI":"興北里","LIN":"14鄰","STREET":"公園路","SECT":" ","MAREA":" ","LANE":"６３４巷","ALLEY":" ","HOUSE_NO":"１００號","E_COORD97":169251.26999999999,"N_COORD97":2545348.1299999999,"ADDRESS":"公園路６３４巷１００號","OBJECTID":252896},"geometry":{"x":169251.26999999955,"y":2545348.1300000027}},{"attributes":{"ID":252901,"DIS_CODE":0,"TOWNNAME":"北區","LI":"興北里","LIN":"14鄰","STREET":"公園路","SECT":" ","MAREA":" ","LANE":"６３４巷","ALLEY":" ","HOUSE_NO":"１０２號","E_COORD97":169254.82000000001,"N_COORD97":2545344.4500000002,"ADDRESS":"公園路６３４巷１０２號","OBJECTID":252897},"geometry":{"x":169254.82000000123,"y":2545344.4499999993}},{"attributes":{"ID":252902,"DIS_CODE":0,"TOWNNAME":"北區","LI":"興北里","LIN":"14鄰","STREET":"公園路","SECT":" ","MAREA":" ","LANE":"６３４巷","ALLEY":" ","HOUSE_NO":"１０４號","E_COORD97":169259.32999999999,"N_COORD97":2545344.8700000001,"ADDRESS":"公園路６３４巷１０４號","OBJECTID":252898},"geometry":{"x":169259.33000000101,"y":2545344.8699999992}},{"attributes":{"ID":252903,"DIS_CODE":0,"TOWNNAME":"北區","LI":"興北里","LIN":"14鄰","STREET":"公園路","SECT":" ","MAREA":" ","LANE":"６３４巷","ALLEY":" ","HOUSE_NO":"１０６號","E_COORD97":169263.34,"N_COORD97":2545345.0299999998,"ADDRESS":"公園路６３４巷１０６號","OBJECTID":252899},"geometry":{"x":169263.33999999985,"y":2545345.0299999993}},{"attributes":{"ID":252904,"DIS_CODE":0,"TOWNNAME":"北區","LI":"興北里","LIN":"14鄰","STREET":"公園路","SECT":" ","MAREA":" ","LANE":"６３４巷","ALLEY":" ","HOUSE_NO":"１０８號","E_COORD97":169267.51999999999,"N_COORD97":2545345.0299999998,"ADDRESS":"公園路６３４巷１０８號","OBJECTID":252900},"geometry":{"x":169267.52000000048,"y":2545345.0299999993}},{"attributes":{"ID":252905,"DIS_CODE":0,"TOWNNAME":"北區","LI":"興北里","LIN":"14鄰","STREET":"公園路","SECT":" ","MAREA":" ","LANE":"６３４巷","ALLEY":" ","HOUSE_NO":"１１０號","E_COORD97":169271.85999999999,"N_COORD97":2545345.2000000002,"ADDRESS":"公園路６３４巷１１０號","OBJECTID":252901},"geometry":{"x":169271.86000000034,"y":2545345.2000000011}},{"attributes":{"ID":252906,"DIS_CODE":0,"TOWNNAME":"東區","LI":"東聖里","LIN":"18鄰","STREET":"中華東路","SECT":"二段","MAREA":" ","LANE":"１３３巷","ALLEY":" ","HOUSE_NO":"２７號","E_COORD97":171473.31,"N_COORD97":2542853.8799999999,"ADDRESS":"中華東路二段１３３巷２７號","OBJECTID":252902},"geometry":{"x":171473.30999999959,"y":2542853.879999999}},{"attributes":{"ID":252907,"DIS_CODE":0,"TOWNNAME":"東區","LI":"東聖里","LIN":"13鄰","STREET":"中華東路","SECT":"二段","MAREA":" ","LANE":"４１巷","ALLEY":" ","HOUSE_NO":"４１號","E_COORD97":171563.88,"N_COORD97":2543107.4900000002,"ADDRESS":"中華東路二段４１巷４１號","OBJECTID":252903},"geometry":{"x":171563.88000000082,"y":2543107.4900000002}},{"attributes":{"ID":252908,"DIS_CODE":0,"TOWNNAME":"東區","LI":"東智里","LIN":"8鄰","STREET":"長東街","SECT":" ","MAREA":" ","LANE":"１０８巷","ALLEY":" ","HOUSE_NO":"３３號","E_COORD97":170939.03,"N_COORD97":2540193.4199999999,"ADDRESS":"長東街１０８巷３３號","OBJECTID":252904},"geometry":{"x":170939.03000000026,"y":2540193.4199999981}},{"attributes":{"ID":252909,"DIS_CODE":0,"TOWNNAME":"東區","LI":"東聖里","LIN":"15鄰","STREET":"中華東路","SECT":"二段","MAREA":" ","LANE":"７３巷","ALLEY":" ","HOUSE_NO":"１號","E_COORD97":171453.76000000001,"N_COORD97":2543030.7599999998,"ADDRESS":"中華東路二段７３巷１號","OBJECTID":252905},"geometry":{"x":171453.75999999978,"y":2543030.7599999998}},{"attributes":{"ID":252910,"DIS_CODE":0,"TOWNNAME":"東區","LI":"崇善里","LIN":"4鄰","STREET":"崇善二街","SECT":" ","MAREA":" ","LANE":"８２巷","ALLEY":" ","HOUSE_NO":"２７號","E_COORD97":171017.06,"N_COORD97":2542059.0699999998,"ADDRESS":"崇善二街８２巷２７號","OBJECTID":252906},"geometry":{"x":171017.06000000052,"y":2542059.0700000022}},{"attributes":{"ID":252911,"DIS_CODE":0,"TOWNNAME":"東區","LI":"崇善里","LIN":"24鄰","STREET":"崇善十二街","SECT":" ","MAREA":" ","LANE":"６巷","ALLEY":" ","HOUSE_NO":"９號","E_COORD97":171240.07000000001,"N_COORD97":2541058.3399999999,"ADDRESS":"崇善十二街６巷９號","OBJECTID":252907},"geometry":{"x":171240.0700000003,"y":2541058.339999998}},{"attributes":{"ID":252912,"DIS_CODE":0,"TOWNNAME":"北區","LI":"興北里","LIN":"14鄰","STREET":"公園路","SECT":" ","MAREA":" ","LANE":"６３４巷","ALLEY":" ","HOUSE_NO":"５４號","E_COORD97":169144.19,"N_COORD97":2545339.1200000001,"ADDRESS":"公園路６３４巷５４號","OBJECTID":252908},"geometry":{"x":169144.19000000041,"y":2545339.120000001}},{"attributes":{"ID":252913,"DIS_CODE":0,"TOWNNAME":"北區","LI":"興北里","LIN":"14鄰","STREET":"公園路","SECT":" ","MAREA":" ","LANE":"６３４巷","ALLEY":" ","HOUSE_NO":"５６號","E_COORD97":169149.78,"N_COORD97":2545342.21,"ADDRESS":"公園路６３４巷５６號","OBJECTID":252909},"geometry":{"x":169149.78000000119,"y":2545342.2100000009}},{"attributes":{"ID":252914,"DIS_CODE":0,"TOWNNAME":"北區","LI":"興北里","LIN":"14鄰","STREET":"公園路","SECT":" ","MAREA":" ","LANE":"６３４巷","ALLEY":" ","HOUSE_NO":"５８號","E_COORD97":169153.70999999999,"N_COORD97":2545342.71,"ADDRESS":"公園路６３４巷５８號","OBJECTID":252910},"geometry":{"x":169153.70999999996,"y":2545342.7100000046}},{"attributes":{"ID":252915,"DIS_CODE":0,"TOWNNAME":"安平區","LI":"文平里","LIN":"24鄰","STREET":"建平三街","SECT":" ","MAREA":" ","LANE":" ","ALLEY":" ","HOUSE_NO":"９之２號","E_COORD97":166206.07000000001,"N_COORD97":2542860.0600000001,"ADDRESS":"建平三街９之２號","OBJECTID":252911},"geometry":{"x":166206.07000000216,"y":2542860.0600000005}},{"attributes":{"ID":252916,"DIS_CODE":0,"TOWNNAME":"安平區","LI":"文平里","LIN":"24鄰","STREET":"建平三街","SECT":" ","MAREA":" ","LANE":" ","ALLEY":" ","HOUSE_NO":"９之３號","E_COORD97":166201.47,"N_COORD97":2542860.2200000002,"ADDRESS":"建平三街９之３號","OBJECTID":252912},"geometry":{"x":166201.47000000067,"y":2542860.2200000007}},{"attributes":{"ID":252917,"DIS_CODE":0,"TOWNNAME":"安平區","LI":"文平里","LIN":"24鄰","STREET":"建平三街","SECT":" ","MAREA":" ","LANE":" ","ALLEY":" ","HOUSE_NO":"１２號","E_COORD97":166294.48999999999,"N_COORD97":2542869.4199999999,"ADDRESS":"建平三街１２號","OBJECTID":252913},"geometry":{"x":166294.49000000022,"y":2542869.4200000018}},{"attributes":{"ID":252918,"DIS_CODE":0,"TOWNNAME":"安平區","LI":"文平里","LIN":"24鄰","STREET":"建平三街","SECT":" ","MAREA":" ","LANE":" ","ALLEY":" ","HOUSE_NO":"６號","E_COORD97":166307.82999999999,"N_COORD97":2542878.3100000001,"ADDRESS":"建平三街６號","OBJECTID":252914},"geometry":{"x":166307.83000000101,"y":2542878.3100000024}},{"attributes":{"ID":252919,"DIS_CODE":0,"TOWNNAME":"安平區","LI":"文平里","LIN":"24鄰","STREET":"建平路","SECT":" ","MAREA":" ","LANE":" ","ALLEY":" ","HOUSE_NO":"４２號","E_COORD97":166130.82000000001,"N_COORD97":2542858.0699999998,"ADDRESS":"建平路４２號","OBJECTID":252915},"geometry":{"x":166130.8200000003,"y":2542858.070000004}},{"attributes":{"ID":252920,"DIS_CODE":0,"TOWNNAME":"安平區","LI":"文平里","LIN":"24鄰","STREET":"建平路","SECT":" ","MAREA":" ","LANE":" ","ALLEY":" ","HOUSE_NO":"５０號","E_COORD97":166127.60803100001,"N_COORD97":2542894.4207199998,"ADDRESS":"建平路５０號","OBJECTID":252916},"geometry":{"x":166127.60803100094,"y":2542894.4207210001}},{"attributes":{"ID":252921,"DIS_CODE":0,"TOWNNAME":"南區","LI":"文南里","LIN":"24鄰","STREET":"南明街","SECT":" ","MAREA":" ","LANE":" ","ALLEY":" ","HOUSE_NO":"１４號","E_COORD97":166842.48999999999,"N_COORD97":2542800.2799999998,"ADDRESS":"南明街１４號","OBJECTID":252917},"geometry":{"x":166842.49000000115,"y":2542800.2799999993}},{"attributes":{"ID":252922,"DIS_CODE":0,"TOWNNAME":"東區","LI":"東聖里","LIN":"14鄰","STREET":"中華東路","SECT":"二段","MAREA":" ","LANE":"４１巷","ALLEY":" ","HOUSE_NO":"６２號","E_COORD97":171608.20999999999,"N_COORD97":2543079.5899999999,"ADDRESS":"中華東路二段４１巷６２號","OBJECTID":252918},"geometry":{"x":171608.20999999996,"y":2543079.5899999999}},{"attributes":{"ID":252923,"DIS_CODE":0,"TOWNNAME":"北區","LI":"興北里","LIN":"14鄰","STREET":"公園路","SECT":" ","MAREA":" ","LANE":"６３４巷","ALLEY":" ","HOUSE_NO":"６０號","E_COORD97":169158.29999999999,"N_COORD97":2545343.21,"ADDRESS":"公園路６３４巷６０號","OBJECTID":252919},"geometry":{"x":169158.29999999981,"y":2545343.2100000028}},{"attributes":{"ID":252924,"DIS_CODE":0,"TOWNNAME":"北區","LI":"興北里","LIN":"14鄰","STREET":"公園路","SECT":" ","MAREA":" ","LANE":"６３４巷","ALLEY":" ","HOUSE_NO":"６２號","E_COORD97":169162.31,"N_COORD97":2545343.3700000001,"ADDRESS":"公園路６３４巷６２號","OBJECTID":252920},"geometry":{"x":169162.31000000052,"y":2545343.3700000029}},{"attributes":{"ID":252925,"DIS_CODE":0,"TOWNNAME":"北區","LI":"興北里","LIN":"14鄰","STREET":"公園路","SECT":" ","MAREA":" ","LANE":"６３４巷","ALLEY":" ","HOUSE_NO":"６４號","E_COORD97":169166.66,"N_COORD97":2545344.21,"ADDRESS":"公園路６３４巷６４號","OBJECTID":252921},"geometry":{"x":169166.65999999922,"y":2545344.2100000028}},{"attributes":{"ID":252926,"DIS_CODE":0,"TOWNNAME":"南區","LI":"文南里","LIN":"24鄰","STREET":"南明街","SECT":" ","MAREA":" ","LANE":" ","ALLEY":" ","HOUSE_NO":"１６號","E_COORD97":166836.20999999999,"N_COORD97":2542800.6600000001,"ADDRESS":"南明街１６號","OBJECTID":252922},"geometry":{"x":166836.20999999996,"y":2542800.660000002}},{"attributes":{"ID":252927,"DIS_CODE":0,"TOWNNAME":"南區","LI":"文南里","LIN":"24鄰","STREET":"南明街","SECT":" ","MAREA":" ","LANE":" ","ALLEY":" ","HOUSE_NO":"１８號","E_COORD97":166830.70000000001,"N_COORD97":2542801.6099999999,"ADDRESS":"南明街１８號","OBJECTID":252923},"geometry":{"x":166830.70000000205,"y":2542801.6099999994}},{"attributes":{"ID":252928,"DIS_CODE":0,"TOWNNAME":"北區","LI":"興北里","LIN":"14鄰","STREET":"公園路","SECT":" ","MAREA":" ","LANE":"６３４巷","ALLEY":" ","HOUSE_NO":"６６號","E_COORD97":169170.57999999999,"N_COORD97":2545345.04,"ADDRESS":"公園路６３４巷６６號","OBJECTID":252924},"geometry":{"x":169170.58000000194,"y":2545345.0399999972}},{"attributes":{"ID":252929,"DIS_CODE":0,"TOWNNAME":"北區","LI":"興北里","LIN":"14鄰","STREET":"公園路","SECT":" ","MAREA":" ","LANE":"６３４巷","ALLEY":" ","HOUSE_NO":"６８號","E_COORD97":169175.01000000001,"N_COORD97":2545345.54,"ADDRESS":"公園路６３４巷６８號","OBJECTID":252925},"geometry":{"x":169175.01000000071,"y":2545345.5400000028}},{"attributes":{"ID":252930,"DIS_CODE":0,"TOWNNAME":"北區","LI":"興北里","LIN":"14鄰","STREET":"公園路","SECT":" ","MAREA":" ","LANE":"６３４巷","ALLEY":" ","HOUSE_NO":"７０號","E_COORD97":169188.5,"N_COORD97":2545343.29,"ADDRESS":"公園路６３４巷７０號","OBJECTID":252926},"geometry":{"x":169188.50000000093,"y":2545343.2899999991}},{"attributes":{"ID":252931,"DIS_CODE":0,"TOWNNAME":"東區","LI":"東聖里","LIN":"11鄰","STREET":"中華東路","SECT":"二段","MAREA":" ","LANE":"１３３巷","ALLEY":" ","HOUSE_NO":"４７號","E_COORD97":171520.76999999999,"N_COORD97":2542843.4500000002,"ADDRESS":"中華東路二段１３３巷４７號","OBJECTID":252927},"geometry":{"x":171520.77000000048,"y":2542843.4499999993}},{"attributes":{"ID":252932,"DIS_CODE":0,"TOWNNAME":"東區","LI":"東聖里","LIN":"11鄰","STREET":"中華東路","SECT":"二段","MAREA":" ","LANE":"１３３巷","ALLEY":" ","HOUSE_NO":"４９號","E_COORD97":171525.70000000001,"N_COORD97":2542842.5299999998,"ADDRESS":"中華東路二段１３３巷４９號","OBJECTID":252928},"geometry":{"x":171525.70000000019,"y":2542842.5299999993}},{"attributes":{"ID":252933,"DIS_CODE":0,"TOWNNAME":"北區","LI":"安民里","LIN":"11鄰","STREET":"國華街","SECT":"四段","MAREA":" ","LANE":"９巷","ALLEY":" ","HOUSE_NO":"３號","E_COORD97":167993.01999999999,"N_COORD97":2544589.6600000001,"ADDRESS":"國華街四段９巷３號","OBJECTID":252929},"geometry":{"x":167993.02000000048,"y":2544589.6600000039}},{"attributes":{"ID":252934,"DIS_CODE":0,"TOWNNAME":"東區","LI":"東聖里","LIN":"13鄰","STREET":"中華東路","SECT":"二段","MAREA":" ","LANE":"４１巷","ALLEY":" ","HOUSE_NO":"１１號","E_COORD97":171479.03,"N_COORD97":2543111.0600000001,"ADDRESS":"中華東路二段４１巷１１號","OBJECTID":252930},"geometry":{"x":171479.03000000119,"y":2543111.0600000005}},{"attributes":{"ID":252935,"DIS_CODE":0,"TOWNNAME":"東區","LI":"東聖里","LIN":"13鄰","STREET":"中華東路","SECT":"二段","MAREA":" ","LANE":"４１巷","ALLEY":" ","HOUSE_NO":"１３號","E_COORD97":171484.06,"N_COORD97":2543113.1000000001,"ADDRESS":"中華東路二段４１巷１３號","OBJECTID":252931},"geometry":{"x":171484.05999999866,"y":2543113.0999999996}},{"attributes":{"ID":252936,"DIS_CODE":0,"TOWNNAME":"東區","LI":"東聖里","LIN":"13鄰","STREET":"中華東路","SECT":"二段","MAREA":" ","LANE":"４１巷","ALLEY":" ","HOUSE_NO":"１５號","E_COORD97":171489.63,"N_COORD97":2543114.46,"ADDRESS":"中華東路二段４１巷１５號","OBJECTID":252932},"geometry":{"x":171489.63000000082,"y":2543114.4600000028}},{"attributes":{"ID":252937,"DIS_CODE":0,"TOWNNAME":"北區","LI":"興北里","LIN":"14鄰","STREET":"公園路","SECT":" ","MAREA":" ","LANE":"６３４巷","ALLEY":" ","HOUSE_NO":"８２號","E_COORD97":169213.06,"N_COORD97":2545350.7200000002,"ADDRESS":"公園路６３４巷８２號","OBJECTID":252933},"geometry":{"x":169213.06000000052,"y":2545350.7200000025}},{"attributes":{"ID":252938,"DIS_CODE":0,"TOWNNAME":"北區","LI":"興北里","LIN":"14鄰","STREET":"公園路","SECT":" ","MAREA":" ","LANE":"６３４巷","ALLEY":" ","HOUSE_NO":"８４號","E_COORD97":169216.98000000001,"N_COORD97":2545351.6400000001,"ADDRESS":"公園路６３４巷８４號","OBJECTID":252934},"geometry":{"x":169216.98000000045,"y":2545351.6400000006}},{"attributes":{"ID":252939,"DIS_CODE":0,"TOWNNAME":"北區","LI":"興北里","LIN":"14鄰","STREET":"公園路","SECT":" ","MAREA":" ","LANE":"６３４巷","ALLEY":" ","HOUSE_NO":"８６號","E_COORD97":169220.95000000001,"N_COORD97":2545350.5499999998,"ADDRESS":"公園路６３４巷８６號","OBJECTID":252935},"geometry":{"x":169220.95000000112,"y":2545350.5500000045}},{"attributes":{"ID":252940,"DIS_CODE":0,"TOWNNAME":"北區","LI":"興北里","LIN":"14鄰","STREET":"公園路","SECT":" ","MAREA":" ","LANE":"６３４巷","ALLEY":" ","HOUSE_NO":"８８號","E_COORD97":169225.29999999999,"N_COORD97":2545349.9700000002,"ADDRESS":"公園路６３４巷８８號","OBJECTID":252936},"geometry":{"x":169225.30000000075,"y":2545349.9700000007}},{"attributes":{"ID":252941,"DIS_CODE":0,"TOWNNAME":"北區","LI":"興北里","LIN":"14鄰","STREET":"公園路","SECT":" ","MAREA":" ","LANE":"６３４巷","ALLEY":" ","HOUSE_NO":"９０號","E_COORD97":169229.64000000001,"N_COORD97":2545349.9700000002,"ADDRESS":"公園路６３４巷９０號","OBJECTID":252937},"geometry":{"x":169229.6400000006,"y":2545349.9700000007}},{"attributes":{"ID":252942,"DIS_CODE":0,"TOWNNAME":"南區","LI":"文南里","LIN":"24鄰","STREET":"南明街","SECT":" ","MAREA":" ","LANE":" ","ALLEY":" ","HOUSE_NO":"２２號","E_COORD97":166818.57999999999,"N_COORD97":2542802.73,"ADDRESS":"南明街２２號","OBJECTID":252938},"geometry":{"x":166818.58000000007,"y":2542802.7300000042}},{"attributes":{"ID":252943,"DIS_CODE":0,"TOWNNAME":"南區","LI":"文南里","LIN":"24鄰","STREET":"南明街","SECT":" ","MAREA":" ","LANE":" ","ALLEY":" ","HOUSE_NO":"２４號","E_COORD97":166812.82000000001,"N_COORD97":2542803.3100000001,"ADDRESS":"南明街２４號","OBJECTID":252939},"geometry":{"x":166812.81999999937,"y":2542803.3100000024}},{"attributes":{"ID":252944,"DIS_CODE":0,"TOWNNAME":"南區","LI":"文南里","LIN":"24鄰","STREET":"永南四街","SECT":" ","MAREA":" ","LANE":" ","ALLEY":" ","HOUSE_NO":"１０號","E_COORD97":166898.79000000001,"N_COORD97":2542746.6200000001,"ADDRESS":"永南四街１０號","OBJECTID":252940},"geometry":{"x":166898.79000000004,"y":2542746.6200000048}},{"attributes":{"ID":252945,"DIS_CODE":0,"TOWNNAME":"南區","LI":"文南里","LIN":"24鄰","STREET":"永南四街","SECT":" ","MAREA":" ","LANE":" ","ALLEY":" ","HOUSE_NO":"１２號","E_COORD97":166894.60999999999,"N_COORD97":2542747.1800000002,"ADDRESS":"永南四街１２號","OBJECTID":252941},"geometry":{"x":166894.61000000127,"y":2542747.1799999997}},{"attributes":{"ID":252946,"DIS_CODE":0,"TOWNNAME":"南區","LI":"文南里","LIN":"24鄰","STREET":"永南四街","SECT":" ","MAREA":" ","LANE":" ","ALLEY":" ","HOUSE_NO":"１４號","E_COORD97":166890.23000000001,"N_COORD97":2542747.5600000001,"ADDRESS":"永南四街１４號","OBJECTID":252942},"geometry":{"x":166890.23000000138,"y":2542747.5600000024}},{"attributes":{"ID":252947,"DIS_CODE":0,"TOWNNAME":"南區","LI":"文南里","LIN":"24鄰","STREET":"永南四街","SECT":" ","MAREA":" ","LANE":" ","ALLEY":" ","HOUSE_NO":"１６號","E_COORD97":166885.85999999999,"N_COORD97":2542749.0800000001,"ADDRESS":"永南四街１６號","OBJECTID":252943},"geometry":{"x":166885.86000000127,"y":2542749.0800000038}},{"attributes":{"ID":252948,"DIS_CODE":0,"TOWNNAME":"南區","LI":"文南里","LIN":"24鄰","STREET":"南明街","SECT":" ","MAREA":" ","LANE":" ","ALLEY":" ","HOUSE_NO":"２８號","E_COORD97":166800.35999999999,"N_COORD97":2542804.27,"ADDRESS":"南明街２８號","OBJECTID":252944},"geometry":{"x":166800.36000000034,"y":2542804.2699999996}},{"attributes":{"ID":252949,"DIS_CODE":0,"TOWNNAME":"東區","LI":"東聖里","LIN":"10鄰","STREET":"中華東路","SECT":"二段","MAREA":" ","LANE":"１３３巷","ALLEY":" ","HOUSE_NO":"５９號","E_COORD97":171551.95000000001,"N_COORD97":2542835.9100000001,"ADDRESS":"中華東路二段１３３巷５９號","OBJECTID":252945},"geometry":{"x":171551.95000000112,"y":2542835.910000002}},{"attributes":{"ID":252950,"DIS_CODE":0,"TOWNNAME":"東區","LI":"東聖里","LIN":"10鄰","STREET":"中華東路","SECT":"二段","MAREA":" ","LANE":"１３３巷","ALLEY":" ","HOUSE_NO":"６５號","E_COORD97":171564.09,"N_COORD97":2542833.23,"ADDRESS":"中華東路二段１３３巷６５號","OBJECTID":252946},"geometry":{"x":171564.09000000078,"y":2542833.2300000042}},{"attributes":{"ID":252951,"DIS_CODE":0,"TOWNNAME":"東區","LI":"東聖里","LIN":"10鄰","STREET":"中華東路","SECT":"二段","MAREA":" ","LANE":"１３３巷","ALLEY":" ","HOUSE_NO":"６９號","E_COORD97":171572.97,"N_COORD97":2542831.6400000001,"ADDRESS":"中華東路二段１３３巷６９號","OBJECTID":252947},"geometry":{"x":171572.96999999881,"y":2542831.6400000025}},{"attributes":{"ID":252952,"DIS_CODE":0,"TOWNNAME":"東區","LI":"東聖里","LIN":"10鄰","STREET":"中華東路","SECT":"二段","MAREA":" ","LANE":"１３３巷","ALLEY":" ","HOUSE_NO":"７３號","E_COORD97":171580.92999999999,"N_COORD97":2542830.54,"ADDRESS":"中華東路二段１３３巷７３號","OBJECTID":252948},"geometry":{"x":171580.93000000063,"y":2542830.540000001}},{"attributes":{"ID":252953,"DIS_CODE":0,"TOWNNAME":"永康區","LI":"大灣里","LIN":"11鄰","STREET":"大灣路","SECT":" ","MAREA":" ","LANE":"２４０巷","ALLEY":" ","HOUSE_NO":"１號六樓之１","E_COORD97":174967.13,"N_COORD97":2545362.9900000002,"ADDRESS":"大灣路２４０巷１號六樓之１","OBJECTID":252949},"geometry":{"x":174967.12999999989,"y":2545362.9900000002}},{"attributes":{"ID":252954,"DIS_CODE":0,"TOWNNAME":"北區","LI":"安民里","LIN":"11鄰","STREET":"國華街","SECT":"四段","MAREA":" ","LANE":"９巷","ALLEY":" ","HOUSE_NO":"４號","E_COORD97":167988.62,"N_COORD97":2544591.5099999998,"ADDRESS":"國華街四段９巷４號","OBJECTID":252950},"geometry":{"x":167988.62000000011,"y":2544591.5100000016}},{"attributes":{"ID":252955,"DIS_CODE":0,"TOWNNAME":"北區","LI":"興北里","LIN":"14鄰","STREET":"公園路","SECT":" ","MAREA":" ","LANE":"６３４巷","ALLEY":" ","HOUSE_NO":"９２號","E_COORD97":169233.89999999999,"N_COORD97":2545349.6400000001,"ADDRESS":"公園路６３４巷９２號","OBJECTID":252951},"geometry":{"x":169233.9000000013,"y":2545349.6400000043}},{"attributes":{"ID":252956,"DIS_CODE":0,"TOWNNAME":"北區","LI":"興北里","LIN":"14鄰","STREET":"公園路","SECT":" ","MAREA":" ","LANE":"６３４巷","ALLEY":" ","HOUSE_NO":"９４號","E_COORD97":169238.32999999999,"N_COORD97":2545349.2999999998,"ADDRESS":"公園路６３４巷９４號","OBJECTID":252952},"geometry":{"x":169238.32999999914,"y":2545349.3000000026}},{"attributes":{"ID":252957,"DIS_CODE":0,"TOWNNAME":"北區","LI":"興北里","LIN":"14鄰","STREET":"公園路","SECT":" ","MAREA":" ","LANE":"６３４巷","ALLEY":" ","HOUSE_NO":"９６號","E_COORD97":169242.25,"N_COORD97":2545348.8799999999,"ADDRESS":"公園路６３４巷９６號","OBJECTID":252953},"geometry":{"x":169242.25000000186,"y":2545348.879999999}},{"attributes":{"ID":252958,"DIS_CODE":0,"TOWNNAME":"北區","LI":"興北里","LIN":"14鄰","STREET":"公園路","SECT":" ","MAREA":" ","LANE":"６３４巷","ALLEY":" ","HOUSE_NO":"９８號","E_COORD97":169247.01000000001,"N_COORD97":2545348.7200000002,"ADDRESS":"公園路６３４巷９８號","OBJECTID":252954},"geometry":{"x":169247.01000000164,"y":2545348.7200000007}},{"attributes":{"ID":252959,"DIS_CODE":0,"TOWNNAME":"北區","LI":"興北里","LIN":"14鄰","STREET":"公園路","SECT":" ","MAREA":" ","LANE":"６３４巷","ALLEY":" ","HOUSE_NO":"１０１號","E_COORD97":169331.37,"N_COORD97":2545357.21,"ADDRESS":"公園路６３４巷１０１號","OBJECTID":252955},"geometry":{"x":169331.37000000197,"y":2545357.2100000028}},{"attributes":{"ID":252960,"DIS_CODE":0,"TOWNNAME":"南區","LI":"文南里","LIN":"24鄰","STREET":"南明街","SECT":" ","MAREA":" ","LANE":" ","ALLEY":" ","HOUSE_NO":"２號","E_COORD97":166878.82000000001,"N_COORD97":2542796.8599999999,"ADDRESS":"南明街２號","OBJECTID":252956},"geometry":{"x":166878.8200000003,"y":2542796.8599999994}},{"attributes":{"ID":252961,"DIS_CODE":0,"TOWNNAME":"南區","LI":"文南里","LIN":"24鄰","STREET":"南明街","SECT":" ","MAREA":" ","LANE":" ","ALLEY":" ","HOUSE_NO":"３０號","E_COORD97":166794.60999999999,"N_COORD97":2542804.27,"ADDRESS":"南明街３０號","OBJECTID":252957},"geometry":{"x":166794.61000000127,"y":2542804.2699999996}},{"attributes":{"ID":252962,"DIS_CODE":0,"TOWNNAME":"南區","LI":"文南里","LIN":"24鄰","STREET":"南明街","SECT":" ","MAREA":" ","LANE":" ","ALLEY":" ","HOUSE_NO":"３２號","E_COORD97":166787.89999999999,"N_COORD97":2542805.4199999999,"ADDRESS":"南明街３２號","OBJECTID":252958},"geometry":{"x":166787.90000000037,"y":2542805.4200000018}},{"attributes":{"ID":252963,"DIS_CODE":0,"TOWNNAME":"南區","LI":"文南里","LIN":"24鄰","STREET":"南明街","SECT":" ","MAREA":" ","LANE":" ","ALLEY":" ","HOUSE_NO":"３４號","E_COORD97":166782.14999999999,"N_COORD97":2542806.1800000002,"ADDRESS":"南明街３４號","OBJECTID":252959},"geometry":{"x":166782.1500000013,"y":2542806.1800000016}},{"attributes":{"ID":252964,"DIS_CODE":0,"TOWNNAME":"南區","LI":"文南里","LIN":"24鄰","STREET":"南明街","SECT":" ","MAREA":" ","LANE":" ","ALLEY":" ","HOUSE_NO":"３６號","E_COORD97":166776.39000000001,"N_COORD97":2542806.1800000002,"ADDRESS":"南明街３６號","OBJECTID":252960},"geometry":{"x":166776.3900000006,"y":2542806.1800000016}},{"attributes":{"ID":252965,"DIS_CODE":0,"TOWNNAME":"南區","LI":"文南里","LIN":"24鄰","STREET":"南明街","SECT":" ","MAREA":" ","LANE":" ","ALLEY":" ","HOUSE_NO":"３８號","E_COORD97":166770.64999999999,"N_COORD97":2542807.3300000001,"ADDRESS":"南明街３８號","OBJECTID":252961},"geometry":{"x":166770.6500000013,"y":2542807.3300000001}},{"attributes":{"ID":252966,"DIS_CODE":0,"TOWNNAME":"南區","LI":"文南里","LIN":"24鄰","STREET":"南明街","SECT":" ","MAREA":" ","LANE":" ","ALLEY":" ","HOUSE_NO":"４０號","E_COORD97":166764.31,"N_COORD97":2542807.8999999999,"ADDRESS":"南明街４０號","OBJECTID":252962},"geometry":{"x":166764.30999999959,"y":2542807.8999999985}},{"attributes":{"ID":252967,"DIS_CODE":0,"TOWNNAME":"北區","LI":"興北里","LIN":"14鄰","STREET":"公園路","SECT":" ","MAREA":" ","LANE":"６３４巷","ALLEY":" ","HOUSE_NO":"１０３號","E_COORD97":169335.98999999999,"N_COORD97":2545357.6899999999,"ADDRESS":"公園路６３４巷１０３號","OBJECTID":252963},"geometry":{"x":169335.99000000115,"y":2545357.6899999995}},{"attributes":{"ID":252968,"DIS_CODE":0,"TOWNNAME":"北區","LI":"興北里","LIN":"14鄰","STREET":"公園路","SECT":" ","MAREA":" ","LANE":"６３４巷","ALLEY":" ","HOUSE_NO":"１０５號","E_COORD97":169340.20999999999,"N_COORD97":2545357.77,"ADDRESS":"公園路６３４巷１０５號","OBJECTID":252964},"geometry":{"x":169340.20999999996,"y":2545357.7700000033}},{"attributes":{"ID":252969,"DIS_CODE":0,"TOWNNAME":"北區","LI":"興北里","LIN":"14鄰","STREET":"公園路","SECT":" ","MAREA":" ","LANE":"６３４巷","ALLEY":" ","HOUSE_NO":"１１２號","E_COORD97":169282.16,"N_COORD97":2545341.7799999998,"ADDRESS":"公園路６３４巷１１２號","OBJECTID":252965},"geometry":{"x":169282.16000000201,"y":2545341.7800000012}},{"attributes":{"ID":252970,"DIS_CODE":0,"TOWNNAME":"北區","LI":"興北里","LIN":"14鄰","STREET":"公園路","SECT":" ","MAREA":" ","LANE":"６３４巷","ALLEY":" ","HOUSE_NO":"１１４號","E_COORD97":169287.26000000001,"N_COORD97":2545342.0299999998,"ADDRESS":"公園路６３４巷１１４號","OBJECTID":252966},"geometry":{"x":169287.25999999978,"y":2545342.0299999975}},{"attributes":{"ID":252971,"DIS_CODE":0,"TOWNNAME":"北區","LI":"興北里","LIN":"14鄰","STREET":"公園路","SECT":" ","MAREA":" ","LANE":"６３４巷","ALLEY":" ","HOUSE_NO":"１１６號","E_COORD97":169291.94,"N_COORD97":2545342.1099999999,"ADDRESS":"公園路６３４巷１１６號","OBJECTID":252967},"geometry":{"x":169291.94000000041,"y":2545342.1100000013}},{"attributes":{"ID":252972,"DIS_CODE":0,"TOWNNAME":"北區","LI":"興北里","LIN":"14鄰","STREET":"公園路","SECT":" ","MAREA":" ","LANE":"６３４巷","ALLEY":" ","HOUSE_NO":"１１８號","E_COORD97":169296.53,"N_COORD97":2545342.3599999999,"ADDRESS":"公園路６３４巷１１８號","OBJECTID":252968},"geometry":{"x":169296.52999999933,"y":2545342.3599999994}},{"attributes":{"ID":252973,"DIS_CODE":0,"TOWNNAME":"北區","LI":"興北里","LIN":"14鄰","STREET":"公園路","SECT":" ","MAREA":" ","LANE":"６３４巷","ALLEY":" ","HOUSE_NO":"１２０號","E_COORD97":169300.87,"N_COORD97":2545342.8599999999,"ADDRESS":"公園路６３４巷１２０號","OBJECTID":252969},"geometry":{"x":169300.87000000197,"y":2545342.8599999994}},{"attributes":{"ID":252974,"DIS_CODE":0,"TOWNNAME":"北區","LI":"興北里","LIN":"14鄰","STREET":"公園路","SECT":" ","MAREA":" ","LANE":"６３４巷","ALLEY":" ","HOUSE_NO":"１２２號","E_COORD97":169304.88,"N_COORD97":2545342.7000000002,"ADDRESS":"公園路６３４巷１２２號","OBJECTID":252970},"geometry":{"x":169304.87999999989,"y":2545342.6999999993}},{"attributes":{"ID":252975,"DIS_CODE":0,"TOWNNAME":"北區","LI":"興北里","LIN":"14鄰","STREET":"公園路","SECT":" ","MAREA":" ","LANE":"６３４巷","ALLEY":" ","HOUSE_NO":"１２４號","E_COORD97":169309.48000000001,"N_COORD97":2545343.1099999999,"ADDRESS":"公園路６３４巷１２４號","OBJECTID":252971},"geometry":{"x":169309.48000000138,"y":2545343.1100000013}},{"attributes":{"ID":252976,"DIS_CODE":0,"TOWNNAME":"北區","LI":"興北里","LIN":"14鄰","STREET":"公園路","SECT":" ","MAREA":" ","LANE":"６３４巷","ALLEY":" ","HOUSE_NO":"１２６號","E_COORD97":169313.98999999999,"N_COORD97":2545343.5299999998,"ADDRESS":"公園路６３４巷１２６號","OBJECTID":252972},"geometry":{"x":169313.99000000115,"y":2545343.5300000012}},{"attributes":{"ID":252977,"DIS_CODE":0,"TOWNNAME":"北區","LI":"興北里","LIN":"14鄰","STREET":"公園路","SECT":" ","MAREA":" ","LANE":"６３４巷","ALLEY":" ","HOUSE_NO":"１２８號","E_COORD97":169318.5,"N_COORD97":2545343.7799999998,"ADDRESS":"公園路６３４巷１２８號","OBJECTID":252973},"geometry":{"x":169318.50000000186,"y":2545343.7800000031}},{"attributes":{"ID":252978,"DIS_CODE":0,"TOWNNAME":"北區","LI":"興北里","LIN":"14鄰","STREET":"公園路","SECT":" ","MAREA":" ","LANE":"６３４巷","ALLEY":" ","HOUSE_NO":"１３０號","E_COORD97":169323.17000000001,"N_COORD97":2545344.0299999998,"ADDRESS":"公園路６３４巷１３０號","OBJECTID":252974},"geometry":{"x":169323.17000000086,"y":2545344.0299999993}},{"attributes":{"ID":252979,"DIS_CODE":0,"TOWNNAME":"北區","LI":"興北里","LIN":"14鄰","STREET":"公園路","SECT":" ","MAREA":" ","LANE":"６３４巷","ALLEY":" ","HOUSE_NO":"１３２號","E_COORD97":169327.35000000001,"N_COORD97":2545343.9500000002,"ADDRESS":"公園路６３４巷１３２號","OBJECTID":252975},"geometry":{"x":169327.34999999963,"y":2545343.9500000011}},{"attributes":{"ID":252980,"DIS_CODE":0,"TOWNNAME":"北區","LI":"興北里","LIN":"14鄰","STREET":"公園路","SECT":" ","MAREA":" ","LANE":"６３４巷","ALLEY":" ","HOUSE_NO":"１３４號","E_COORD97":169332.10999999999,"N_COORD97":2545344.4500000002,"ADDRESS":"公園路６３４巷１３４號","OBJECTID":252976},"geometry":{"x":169332.11000000127,"y":2545344.4499999993}},{"attributes":{"ID":252981,"DIS_CODE":0,"TOWNNAME":"北區","LI":"興北里","LIN":"14鄰","STREET":"公園路","SECT":" ","MAREA":" ","LANE":"６３４巷","ALLEY":" ","HOUSE_NO":"１３６號","E_COORD97":169337.12,"N_COORD97":2545344.2799999998,"ADDRESS":"公園路６３４巷１３６號","OBJECTID":252977},"geometry":{"x":169337.12000000104,"y":2545344.2800000012}},{"attributes":{"ID":252982,"DIS_CODE":0,"TOWNNAME":"歸仁區","LI":"六甲里","LIN":"14鄰","STREET":"六甲路","SECT":" ","MAREA":" ","LANE":"２５７巷","ALLEY":" ","HOUSE_NO":"１８號","E_COORD97":175891.22,"N_COORD97":2539130.25,"ADDRESS":"六甲路２５７巷１８號","OBJECTID":252978},"geometry":{"x":175891.22000000067,"y":2539130.2500000037}},{"attributes":{"ID":252983,"DIS_CODE":0,"TOWNNAME":"北區","LI":"華興里","LIN":"14鄰","STREET":"南園街","SECT":" ","MAREA":" ","LANE":"１０９巷","ALLEY":" ","HOUSE_NO":"３７號","E_COORD97":170752.98000000001,"N_COORD97":2545386.9199999999,"ADDRESS":"南園街１０９巷３７號","OBJECTID":252979},"geometry":{"x":170752.98000000045,"y":2545386.9199999999}},{"attributes":{"ID":252984,"DIS_CODE":0,"TOWNNAME":"北區","LI":"華興里","LIN":"14鄰","STREET":"南園街","SECT":" ","MAREA":" ","LANE":"１０９巷","ALLEY":" ","HOUSE_NO":"３９號","E_COORD97":170758.10000000001,"N_COORD97":2545389.9900000002,"ADDRESS":"南園街１０９巷３９號","OBJECTID":252980},"geometry":{"x":170758.09999999963,"y":2545389.9900000002}},{"attributes":{"ID":252985,"DIS_CODE":0,"TOWNNAME":"北區","LI":"華興里","LIN":"14鄰","STREET":"南園街","SECT":" ","MAREA":" ","LANE":"１０９巷","ALLEY":" ","HOUSE_NO":"４１號","E_COORD97":170761.54000000001,"N_COORD97":2545392.6400000001,"ADDRESS":"南園街１０９巷４１號","OBJECTID":252981},"geometry":{"x":170761.54000000097,"y":2545392.6400000006}},{"attributes":{"ID":252986,"DIS_CODE":0,"TOWNNAME":"北區","LI":"華興里","LIN":"14鄰","STREET":"南園街","SECT":" ","MAREA":" ","LANE":"１０９巷","ALLEY":" ","HOUSE_NO":"４３號","E_COORD97":170764.01000000001,"N_COORD97":2545395.29,"ADDRESS":"南園街１０９巷４３號","OBJECTID":252982},"geometry":{"x":170764.00999999978,"y":2545395.290000001}},{"attributes":{"ID":252987,"DIS_CODE":0,"TOWNNAME":"北區","LI":"華興里","LIN":"14鄰","STREET":"南園街","SECT":" ","MAREA":" ","LANE":"１０９巷","ALLEY":" ","HOUSE_NO":"４５號","E_COORD97":170768.10999999999,"N_COORD97":2545397.8799999999,"ADDRESS":"南園街１０９巷４５號","OBJECTID":252983},"geometry":{"x":170768.11000000127,"y":2545397.8800000008}},{"attributes":{"ID":252988,"DIS_CODE":0,"TOWNNAME":"北區","LI":"華興里","LIN":"14鄰","STREET":"南園街","SECT":" ","MAREA":" ","LANE":"１０９巷","ALLEY":" ","HOUSE_NO":"４７號","E_COORD97":170771.06,"N_COORD97":2545401.0699999998,"ADDRESS":"南園街１０９巷４７號","OBJECTID":252984},"geometry":{"x":170771.06000000052,"y":2545401.0700000022}},{"attributes":{"ID":252989,"DIS_CODE":0,"TOWNNAME":"北區","LI":"華興里","LIN":"14鄰","STREET":"南園街","SECT":" ","MAREA":" ","LANE":"１０９巷","ALLEY":" ","HOUSE_NO":"４９號","E_COORD97":170775.04999999999,"N_COORD97":2545403.75,"ADDRESS":"南園街１０９巷４９號","OBJECTID":252985},"geometry":{"x":170775.04999999981,"y":2545403.7500000019}},{"attributes":{"ID":252990,"DIS_CODE":0,"TOWNNAME":"北區","LI":"華興里","LIN":"14鄰","STREET":"南園街","SECT":" ","MAREA":" ","LANE":"１０９巷","ALLEY":" ","HOUSE_NO":"５１號","E_COORD97":170777.82000000001,"N_COORD97":2545406.9399999999,"ADDRESS":"南園街１０９巷５１號","OBJECTID":252986},"geometry":{"x":170777.8200000003,"y":2545406.9399999995}},{"attributes":{"ID":252991,"DIS_CODE":0,"TOWNNAME":"北區","LI":"華興里","LIN":"14鄰","STREET":"南園街","SECT":" ","MAREA":" ","LANE":"１０９巷","ALLEY":" ","HOUSE_NO":"５３號","E_COORD97":170780.84,"N_COORD97":2545409.6499999999,"ADDRESS":"南園街１０９巷５３號","OBJECTID":252987},"geometry":{"x":170780.84000000171,"y":2545409.6500000004}},{"attributes":{"ID":252992,"DIS_CODE":0,"TOWNNAME":"北區","LI":"華興里","LIN":"14鄰","STREET":"南園街","SECT":" ","MAREA":" ","LANE":"１０９巷","ALLEY":" ","HOUSE_NO":"５５號","E_COORD97":170784.32999999999,"N_COORD97":2545412.6600000001,"ADDRESS":"南園街１０９巷５５號","OBJECTID":252988},"geometry":{"x":170784.32999999914,"y":2545412.6600000001}},{"attributes":{"ID":252993,"DIS_CODE":0,"TOWNNAME":"北區","LI":"華興里","LIN":"14鄰","STREET":"南園街","SECT":" ","MAREA":" ","LANE":"１０９巷","ALLEY":" ","HOUSE_NO":"５６號","E_COORD97":170764.10000000001,"N_COORD97":2545353.79,"ADDRESS":"南園街１０９巷５６號","OBJECTID":252989},"geometry":{"x":170764.10000000056,"y":2545353.7900000028}},{"attributes":{"ID":252994,"DIS_CODE":0,"TOWNNAME":"北區","LI":"華興里","LIN":"14鄰","STREET":"南園街","SECT":" ","MAREA":" ","LANE":"１０９巷","ALLEY":" ","HOUSE_NO":"５７號","E_COORD97":170788.42000000001,"N_COORD97":2545415.3300000001,"ADDRESS":"南園街１０９巷５７號","OBJECTID":252990},"geometry":{"x":170788.41999999993,"y":2545415.3299999982}},{"attributes":{"ID":252995,"DIS_CODE":0,"TOWNNAME":"北區","LI":"華興里","LIN":"14鄰","STREET":"南園街","SECT":" ","MAREA":" ","LANE":"１０９巷","ALLEY":" ","HOUSE_NO":"５８號","E_COORD97":170762.95000000001,"N_COORD97":2545358.46,"ADDRESS":"南園街１０９巷５８號","OBJECTID":252991},"geometry":{"x":170762.95000000019,"y":2545358.4600000028}},{"attributes":{"ID":252996,"DIS_CODE":0,"TOWNNAME":"北區","LI":"華興里","LIN":"14鄰","STREET":"南園街","SECT":" ","MAREA":" ","LANE":"１０９巷","ALLEY":" ","HOUSE_NO":"５９號","E_COORD97":170791.85999999999,"N_COORD97":2545417.8599999999,"ADDRESS":"南園街１０９巷５９號","OBJECTID":252992},"geometry":{"x":170791.86000000127,"y":2545417.8599999975}},{"attributes":{"ID":252997,"DIS_CODE":0,"TOWNNAME":"北區","LI":"華興里","LIN":"14鄰","STREET":"南園街","SECT":" ","MAREA":" ","LANE":"１０９巷","ALLEY":" ","HOUSE_NO":"６０號","E_COORD97":170762.67000000001,"N_COORD97":2545362.2599999998,"ADDRESS":"南園街１０９巷６０號","OBJECTID":252993},"geometry":{"x":170762.66999999993,"y":2545362.2600000016}},{"attributes":{"ID":252998,"DIS_CODE":0,"TOWNNAME":"北區","LI":"華興里","LIN":"14鄰","STREET":"南園街","SECT":" ","MAREA":" ","LANE":"１０９巷","ALLEY":" ","HOUSE_NO":"６１號","E_COORD97":170795.06,"N_COORD97":2545420.8199999998,"ADDRESS":"南園街１０９巷６１號","OBJECTID":252994},"geometry":{"x":170795.06000000052,"y":2545420.8200000022}},{"attributes":{"ID":252999,"DIS_CODE":0,"TOWNNAME":"北區","LI":"華興里","LIN":"14鄰","STREET":"南園街","SECT":" ","MAREA":" ","LANE":"１０９巷","ALLEY":" ","HOUSE_NO":"６２號","E_COORD97":170760.76999999999,"N_COORD97":2545369.3199999998,"ADDRESS":"南園街１０９巷６２號","OBJECTID":252995},"geometry":{"x":170760.77000000048,"y":2545369.3200000022}},{"attributes":{"ID":253000,"DIS_CODE":0,"TOWNNAME":"北區","LI":"華興里","LIN":"14鄰","STREET":"南園街","SECT":" ","MAREA":" ","LANE":"１０９巷","ALLEY":" ","HOUSE_NO":"６３號","E_COORD97":170798.44,"N_COORD97":2545423.77,"ADDRESS":"南園街１０９巷６３號","OBJECTID":252996},"geometry":{"x":170798.44000000134,"y":2545423.7700000014}},{"attributes":{"ID":253001,"DIS_CODE":0,"TOWNNAME":"北區","LI":"華興里","LIN":"14鄰","STREET":"南園街","SECT":" ","MAREA":" ","LANE":"１０９巷","ALLEY":" ","HOUSE_NO":"６４號","E_COORD97":170766.48999999999,"N_COORD97":2545373.8999999999,"ADDRESS":"南園街１０９巷６４號","OBJECTID":252997},"geometry":{"x":170766.48999999929,"y":2545373.9000000004}},{"attributes":{"ID":253002,"DIS_CODE":0,"TOWNNAME":"北區","LI":"華興里","LIN":"14鄰","STREET":"南園街","SECT":" ","MAREA":" ","LANE":"１０９巷","ALLEY":" ","HOUSE_NO":"６５號","E_COORD97":170802.12,"N_COORD97":2545427.0299999998,"ADDRESS":"南園街１０９巷６５號","OBJECTID":252998},"geometry":{"x":170802.12000000011,"y":2545427.0300000031}},{"attributes":{"ID":253003,"DIS_CODE":0,"TOWNNAME":"北區","LI":"華興里","LIN":"14鄰","STREET":"南園街","SECT":" ","MAREA":" ","LANE":"１０９巷","ALLEY":" ","HOUSE_NO":"６６號","E_COORD97":170771.34,"N_COORD97":2545376.4700000002,"ADDRESS":"南園街１０９巷６６號","OBJECTID":252999},"geometry":{"x":170771.34000000078,"y":2545376.4700000007}},{"attributes":{"ID":253004,"DIS_CODE":0,"TOWNNAME":"北區","LI":"華興里","LIN":"14鄰","STREET":"南園街","SECT":" ","MAREA":" ","LANE":"１０９巷","ALLEY":" ","HOUSE_NO":"６７號","E_COORD97":170805.38,"N_COORD97":2545429.8599999999,"ADDRESS":"南園街１０９巷６７號","OBJECTID":253000},"geometry":{"x":170805.37999999989,"y":2545429.8600000013}}]}