{"displayFieldName":"TOWNNAME","fieldAliases":{"ID":"ID","DIS_CODE":"DIS_CODE","TOWNNAME":"TOWNNAME","LI":"LI","LIN":"LIN","STREET":"STREET","SECT":"SECT","MAREA":"MAREA","LANE":"LANE","ALLEY":"ALLEY","HOUSE_NO":"HOUSE_NO","E_COORD97":"E_COORD97","N_COORD97":"N_COORD97","ADDRESS":"ADDRESS","OBJECTID":"OBJECTID"},"geometryType":"esriGeometryPoint","spatialReference":{"wkid":102443,"latestWkid":3826},"fields":[{"name":"ID","type":"esriFieldTypeDouble","alias":"ID"},{"name":"DIS_CODE","type":"esriFieldTypeInteger","alias":"DIS_CODE"},{"name":"TOWNNAME","type":"esriFieldTypeString","alias":"TOWNNAME","length":8},{"name":"LI","type":"esriFieldTypeString","alias":"LI","length":8},{"name":"LIN","type":"esriFieldTypeString","alias":"LIN","length":12},{"name":"STREET","type":"esriFieldTypeString","alias":"STREET","length":20},{"name":"SECT","type":"esriFieldTypeString","alias":"SECT","length":8},{"name":"MAREA","type":"esriFieldTypeString","alias":"MAREA","length":12},{"name":"LANE","type":"esriFieldTypeString","alias":"LANE","length":10},{"name":"ALLEY","type":"esriFieldTypeString","alias":"ALLEY","length":10},{"name":"HOUSE_NO","type":"esriFieldTypeString","alias":"HOUSE_NO","length":20},{"name":"E_COORD97","type":"esriFieldTypeDouble","alias":"E_COORD97"},{"name":"N_COORD97","type":"esriFieldTypeDouble","alias":"N_COORD97"},{"name":"ADDRESS","type":"esriFieldTypeString","alias":"ADDRESS","length":50},{"name":"OBJECTID","type":"esriFieldTypeOID","alias":"OBJECTID"}],"features":[{"attributes":{"ID":678828,"DIS_CODE":0,"TOWNNAME":"中西區","LI":"進學里","LIN":"9鄰","STREET":"永福路","SECT":"一段","MAREA":" ","LANE":"６８巷","ALLEY":" ","HOUSE_NO":"１２號二樓之３","E_COORD97":168112.83314199999,"N_COORD97":2543057.6469000001,"ADDRESS":"永福路一段６８巷１２號二樓之３","OBJECTID":678801},"geometry":{"x":168112.83314216975,"y":2543057.6469024327}},{"attributes":{"ID":678829,"DIS_CODE":0,"TOWNNAME":"中西區","LI":"進學里","LIN":"9鄰","STREET":"永福路","SECT":"一段","MAREA":" ","LANE":"６８巷","ALLEY":" ","HOUSE_NO":"１２號三樓之１","E_COORD97":168100.09773800001,"N_COORD97":2543059.2270499999,"ADDRESS":"永福路一段６８巷１２號三樓之１","OBJECTID":678802},"geometry":{"x":168100.09773757309,"y":2543059.2270549871}},{"attributes":{"ID":678830,"DIS_CODE":0,"TOWNNAME":"中西區","LI":"進學里","LIN":"9鄰","STREET":"永福路","SECT":"一段","MAREA":" ","LANE":"６８巷","ALLEY":" ","HOUSE_NO":"１２號三樓之２","E_COORD97":168106.34171499999,"N_COORD97":2543058.6770000001,"ADDRESS":"永福路一段６８巷１２號三樓之２","OBJECTID":678803},"geometry":{"x":168106.34171508625,"y":2543058.6770018823}},{"attributes":{"ID":678831,"DIS_CODE":0,"TOWNNAME":"中西區","LI":"進學里","LIN":"9鄰","STREET":"永福路","SECT":"一段","MAREA":" ","LANE":"６８巷","ALLEY":" ","HOUSE_NO":"１２號三樓之３","E_COORD97":168112.83314199999,"N_COORD97":2543057.6469000001,"ADDRESS":"永福路一段６８巷１２號三樓之３","OBJECTID":678804},"geometry":{"x":168112.83314216975,"y":2543057.6469024327}},{"attributes":{"ID":678832,"DIS_CODE":0,"TOWNNAME":"中西區","LI":"進學里","LIN":"9鄰","STREET":"永福路","SECT":"一段","MAREA":" ","LANE":"６８巷","ALLEY":" ","HOUSE_NO":"１２號五樓之１","E_COORD97":168100.09773800001,"N_COORD97":2543059.2270499999,"ADDRESS":"永福路一段６８巷１２號五樓之１","OBJECTID":678805},"geometry":{"x":168100.09773757309,"y":2543059.2270549871}},{"attributes":{"ID":678833,"DIS_CODE":0,"TOWNNAME":"中西區","LI":"進學里","LIN":"9鄰","STREET":"永福路","SECT":"一段","MAREA":" ","LANE":"６８巷","ALLEY":" ","HOUSE_NO":"１２號五樓之２","E_COORD97":168106.34171499999,"N_COORD97":2543058.6770000001,"ADDRESS":"永福路一段６８巷１２號五樓之２","OBJECTID":678806},"geometry":{"x":168106.34171508625,"y":2543058.6770018823}},{"attributes":{"ID":678834,"DIS_CODE":0,"TOWNNAME":"中西區","LI":"進學里","LIN":"9鄰","STREET":"永福路","SECT":"一段","MAREA":" ","LANE":"６８巷","ALLEY":" ","HOUSE_NO":"１２號五樓之３","E_COORD97":168112.83314199999,"N_COORD97":2543057.6469000001,"ADDRESS":"永福路一段６８巷１２號五樓之３","OBJECTID":678807},"geometry":{"x":168112.83314216975,"y":2543057.6469024327}},{"attributes":{"ID":678835,"DIS_CODE":0,"TOWNNAME":"中西區","LI":"進學里","LIN":"9鄰","STREET":"永福路","SECT":"一段","MAREA":" ","LANE":"６８巷","ALLEY":" ","HOUSE_NO":"１２號六樓之１","E_COORD97":168100.09773800001,"N_COORD97":2543059.2270499999,"ADDRESS":"永福路一段６８巷１２號六樓之１","OBJECTID":678808},"geometry":{"x":168100.09773757309,"y":2543059.2270549871}},{"attributes":{"ID":678836,"DIS_CODE":0,"TOWNNAME":"中西區","LI":"進學里","LIN":"9鄰","STREET":"永福路","SECT":"一段","MAREA":" ","LANE":"６８巷","ALLEY":" ","HOUSE_NO":"１２號六樓之２","E_COORD97":168106.34171499999,"N_COORD97":2543058.6770000001,"ADDRESS":"永福路一段６８巷１２號六樓之２","OBJECTID":678809},"geometry":{"x":168106.34171508625,"y":2543058.6770018823}},{"attributes":{"ID":678837,"DIS_CODE":0,"TOWNNAME":"中西區","LI":"進學里","LIN":"9鄰","STREET":"永福路","SECT":"一段","MAREA":" ","LANE":"６８巷","ALLEY":" ","HOUSE_NO":"１２號六樓之３","E_COORD97":168112.83314199999,"N_COORD97":2543057.6469000001,"ADDRESS":"永福路一段６８巷１２號六樓之３","OBJECTID":678810},"geometry":{"x":168112.83314216975,"y":2543057.6469024327}},{"attributes":{"ID":678838,"DIS_CODE":0,"TOWNNAME":"中西區","LI":"進學里","LIN":"9鄰","STREET":"永福路","SECT":"一段","MAREA":" ","LANE":"６８巷","ALLEY":" ","HOUSE_NO":"１２號四樓之１","E_COORD97":168100.09773800001,"N_COORD97":2543059.2270499999,"ADDRESS":"永福路一段６８巷１２號四樓之１","OBJECTID":678811},"geometry":{"x":168100.09773757309,"y":2543059.2270549871}},{"attributes":{"ID":678839,"DIS_CODE":0,"TOWNNAME":"中西區","LI":"進學里","LIN":"9鄰","STREET":"永福路","SECT":"一段","MAREA":" ","LANE":"６８巷","ALLEY":" ","HOUSE_NO":"１２號四樓之２","E_COORD97":168106.34171499999,"N_COORD97":2543058.6770000001,"ADDRESS":"永福路一段６８巷１２號四樓之２","OBJECTID":678812},"geometry":{"x":168106.34171508625,"y":2543058.6770018823}},{"attributes":{"ID":678840,"DIS_CODE":0,"TOWNNAME":"中西區","LI":"進學里","LIN":"9鄰","STREET":"永福路","SECT":"一段","MAREA":" ","LANE":"６８巷","ALLEY":" ","HOUSE_NO":"１２號四樓之３","E_COORD97":168112.83314199999,"N_COORD97":2543057.6469000001,"ADDRESS":"永福路一段６８巷１２號四樓之３","OBJECTID":678813},"geometry":{"x":168112.83314216975,"y":2543057.6469024327}},{"attributes":{"ID":678841,"DIS_CODE":0,"TOWNNAME":"中西區","LI":"進學里","LIN":"9鄰","STREET":"忠義路","SECT":"一段","MAREA":" ","LANE":"８５巷","ALLEY":" ","HOUSE_NO":"１１號一樓","E_COORD97":168131.17740399999,"N_COORD97":2543050.06617,"ADDRESS":"忠義路一段８５巷１１號一樓","OBJECTID":678814},"geometry":{"x":168131.17740371358,"y":2543050.0661705583}},{"attributes":{"ID":678842,"DIS_CODE":0,"TOWNNAME":"中西區","LI":"進學里","LIN":"9鄰","STREET":"忠義路","SECT":"一段","MAREA":" ","LANE":"８５巷","ALLEY":" ","HOUSE_NO":"１１號二樓之１","E_COORD97":168131.17740399999,"N_COORD97":2543050.06617,"ADDRESS":"忠義路一段８５巷１１號二樓之１","OBJECTID":678815},"geometry":{"x":168131.17740371358,"y":2543050.0661705583}},{"attributes":{"ID":678843,"DIS_CODE":0,"TOWNNAME":"中西區","LI":"進學里","LIN":"9鄰","STREET":"忠義路","SECT":"一段","MAREA":" ","LANE":"８５巷","ALLEY":" ","HOUSE_NO":"１１號二樓之２","E_COORD97":168131.17740399999,"N_COORD97":2543050.06617,"ADDRESS":"忠義路一段８５巷１１號二樓之２","OBJECTID":678816},"geometry":{"x":168131.17740371358,"y":2543050.0661705583}},{"attributes":{"ID":678844,"DIS_CODE":0,"TOWNNAME":"中西區","LI":"進學里","LIN":"9鄰","STREET":"忠義路","SECT":"一段","MAREA":" ","LANE":"８５巷","ALLEY":" ","HOUSE_NO":"１１號二樓之３","E_COORD97":168131.17740399999,"N_COORD97":2543050.06617,"ADDRESS":"忠義路一段８５巷１１號二樓之３","OBJECTID":678817},"geometry":{"x":168131.17740371358,"y":2543050.0661705583}},{"attributes":{"ID":678845,"DIS_CODE":0,"TOWNNAME":"中西區","LI":"進學里","LIN":"9鄰","STREET":"忠義路","SECT":"一段","MAREA":" ","LANE":"８５巷","ALLEY":" ","HOUSE_NO":"１１號三樓之１","E_COORD97":168131.17740399999,"N_COORD97":2543050.06617,"ADDRESS":"忠義路一段８５巷１１號三樓之１","OBJECTID":678818},"geometry":{"x":168131.17740371358,"y":2543050.0661705583}},{"attributes":{"ID":678846,"DIS_CODE":0,"TOWNNAME":"中西區","LI":"進學里","LIN":"9鄰","STREET":"忠義路","SECT":"一段","MAREA":" ","LANE":"８５巷","ALLEY":" ","HOUSE_NO":"１１號三樓之２","E_COORD97":168131.17740399999,"N_COORD97":2543050.06617,"ADDRESS":"忠義路一段８５巷１１號三樓之２","OBJECTID":678819},"geometry":{"x":168131.17740371358,"y":2543050.0661705583}},{"attributes":{"ID":678847,"DIS_CODE":0,"TOWNNAME":"中西區","LI":"進學里","LIN":"9鄰","STREET":"忠義路","SECT":"一段","MAREA":" ","LANE":"８５巷","ALLEY":" ","HOUSE_NO":"１１號三樓之３","E_COORD97":168131.17740399999,"N_COORD97":2543050.06617,"ADDRESS":"忠義路一段８５巷１１號三樓之３","OBJECTID":678820},"geometry":{"x":168131.17740371358,"y":2543050.0661705583}},{"attributes":{"ID":678848,"DIS_CODE":0,"TOWNNAME":"中西區","LI":"進學里","LIN":"9鄰","STREET":"忠義路","SECT":"一段","MAREA":" ","LANE":"８５巷","ALLEY":" ","HOUSE_NO":"１１號三樓之４","E_COORD97":168131.17740399999,"N_COORD97":2543050.06617,"ADDRESS":"忠義路一段８５巷１１號三樓之４","OBJECTID":678821},"geometry":{"x":168131.17740371358,"y":2543050.0661705583}},{"attributes":{"ID":678849,"DIS_CODE":0,"TOWNNAME":"中西區","LI":"進學里","LIN":"9鄰","STREET":"忠義路","SECT":"一段","MAREA":" ","LANE":"８５巷","ALLEY":" ","HOUSE_NO":"１１號五樓之１","E_COORD97":168131.17740399999,"N_COORD97":2543050.06617,"ADDRESS":"忠義路一段８５巷１１號五樓之１","OBJECTID":678822},"geometry":{"x":168131.17740371358,"y":2543050.0661705583}},{"attributes":{"ID":678850,"DIS_CODE":0,"TOWNNAME":"中西區","LI":"進學里","LIN":"9鄰","STREET":"忠義路","SECT":"一段","MAREA":" ","LANE":"８５巷","ALLEY":" ","HOUSE_NO":"１１號五樓之２","E_COORD97":168131.17740399999,"N_COORD97":2543050.06617,"ADDRESS":"忠義路一段８５巷１１號五樓之２","OBJECTID":678823},"geometry":{"x":168131.17740371358,"y":2543050.0661705583}},{"attributes":{"ID":678851,"DIS_CODE":0,"TOWNNAME":"中西區","LI":"進學里","LIN":"9鄰","STREET":"忠義路","SECT":"一段","MAREA":" ","LANE":"８５巷","ALLEY":" ","HOUSE_NO":"１１號五樓之３","E_COORD97":168131.17740399999,"N_COORD97":2543050.06617,"ADDRESS":"忠義路一段８５巷１１號五樓之３","OBJECTID":678824},"geometry":{"x":168131.17740371358,"y":2543050.0661705583}},{"attributes":{"ID":678852,"DIS_CODE":0,"TOWNNAME":"中西區","LI":"進學里","LIN":"9鄰","STREET":"忠義路","SECT":"一段","MAREA":" ","LANE":"８５巷","ALLEY":" ","HOUSE_NO":"１１號五樓之４","E_COORD97":168131.17740399999,"N_COORD97":2543050.06617,"ADDRESS":"忠義路一段８５巷１１號五樓之４","OBJECTID":678825},"geometry":{"x":168131.17740371358,"y":2543050.0661705583}},{"attributes":{"ID":678853,"DIS_CODE":0,"TOWNNAME":"中西區","LI":"進學里","LIN":"9鄰","STREET":"忠義路","SECT":"一段","MAREA":" ","LANE":"８５巷","ALLEY":" ","HOUSE_NO":"１１號四樓之１","E_COORD97":168131.17740399999,"N_COORD97":2543050.06617,"ADDRESS":"忠義路一段８５巷１１號四樓之１","OBJECTID":678826},"geometry":{"x":168131.17740371358,"y":2543050.0661705583}},{"attributes":{"ID":678854,"DIS_CODE":0,"TOWNNAME":"中西區","LI":"進學里","LIN":"9鄰","STREET":"忠義路","SECT":"一段","MAREA":" ","LANE":"８５巷","ALLEY":" ","HOUSE_NO":"１１號四樓之２","E_COORD97":168131.17740399999,"N_COORD97":2543050.06617,"ADDRESS":"忠義路一段８５巷１１號四樓之２","OBJECTID":678827},"geometry":{"x":168131.17740371358,"y":2543050.0661705583}},{"attributes":{"ID":678855,"DIS_CODE":0,"TOWNNAME":"中西區","LI":"進學里","LIN":"9鄰","STREET":"忠義路","SECT":"一段","MAREA":" ","LANE":"８５巷","ALLEY":" ","HOUSE_NO":"１１號四樓之３","E_COORD97":168131.17740399999,"N_COORD97":2543050.06617,"ADDRESS":"忠義路一段８５巷１１號四樓之３","OBJECTID":678828},"geometry":{"x":168131.17740371358,"y":2543050.0661705583}},{"attributes":{"ID":678856,"DIS_CODE":0,"TOWNNAME":"中西區","LI":"進學里","LIN":"9鄰","STREET":"忠義路","SECT":"一段","MAREA":" ","LANE":"８５巷","ALLEY":" ","HOUSE_NO":"１１號四樓之４","E_COORD97":168131.17740399999,"N_COORD97":2543050.06617,"ADDRESS":"忠義路一段８５巷１１號四樓之４","OBJECTID":678829},"geometry":{"x":168131.17740371358,"y":2543050.0661705583}},{"attributes":{"ID":678857,"DIS_CODE":0,"TOWNNAME":"中西區","LI":"進學里","LIN":"9鄰","STREET":"忠義路","SECT":"一段","MAREA":" ","LANE":"８５巷","ALLEY":" ","HOUSE_NO":"１３號","E_COORD97":168127.935814,"N_COORD97":2543058.7570099998,"ADDRESS":"忠義路一段８５巷１３號","OBJECTID":678830},"geometry":{"x":168127.93581433129,"y":2543058.7570096087}},{"attributes":{"ID":678858,"DIS_CODE":0,"TOWNNAME":"中西區","LI":"進學里","LIN":"9鄰","STREET":"忠義路","SECT":"一段","MAREA":" ","LANE":"８５巷","ALLEY":" ","HOUSE_NO":"１５號","E_COORD97":168120.57831400001,"N_COORD97":2543055.8367300001,"ADDRESS":"忠義路一段８５巷１５號","OBJECTID":678831},"geometry":{"x":168120.57831374835,"y":2543055.8367276695}},{"attributes":{"ID":678859,"DIS_CODE":0,"TOWNNAME":"中西區","LI":"進學里","LIN":"9鄰","STREET":"忠義路","SECT":"一段","MAREA":" ","LANE":"８５巷","ALLEY":" ","HOUSE_NO":"１９號","E_COORD97":168114.994202,"N_COORD97":2543066.13772,"ADDRESS":"忠義路一段８５巷１９號","OBJECTID":678832},"geometry":{"x":168114.99420175888,"y":2543066.1377221681}},{"attributes":{"ID":678860,"DIS_CODE":0,"TOWNNAME":"中西區","LI":"進學里","LIN":"9鄰","STREET":"忠義路","SECT":"一段","MAREA":" ","LANE":"８５巷","ALLEY":" ","HOUSE_NO":"２１號","E_COORD97":168106.37470799999,"N_COORD97":2543068.0279000001,"ADDRESS":"忠義路一段８５巷２１號","OBJECTID":678833},"geometry":{"x":168106.37470836192,"y":2543068.0279046558}},{"attributes":{"ID":678861,"DIS_CODE":0,"TOWNNAME":"中西區","LI":"進學里","LIN":"9鄰","STREET":"忠義路","SECT":"一段","MAREA":" ","LANE":"８５巷","ALLEY":" ","HOUSE_NO":"７號","E_COORD97":168141.64452100001,"N_COORD97":2543067.4778499999,"ADDRESS":"忠義路一段８５巷７號","OBJECTID":678834},"geometry":{"x":168141.64452057239,"y":2543067.4778515548}},{"attributes":{"ID":678862,"DIS_CODE":0,"TOWNNAME":"中西區","LI":"進學里","LIN":"9鄰","STREET":"忠義路","SECT":"一段","MAREA":" ","LANE":"８５巷","ALLEY":" ","HOUSE_NO":"９號","E_COORD97":168133.94883899999,"N_COORD97":2543057.5668899999,"ADDRESS":"忠義路一段８５巷９號","OBJECTID":678835},"geometry":{"x":168133.94883891009,"y":2543057.5668947063}},{"attributes":{"ID":678863,"DIS_CODE":0,"TOWNNAME":"中西區","LI":"進學里","LIN":"9鄰","STREET":"忠義路","SECT":"一段","MAREA":" ","LANE":"８５巷","ALLEY":" ","HOUSE_NO":"９號之１","E_COORD97":168132.52187999999,"N_COORD97":2543039.87519,"ADDRESS":"忠義路一段８５巷９號之１","OBJECTID":678836},"geometry":{"x":168132.52187971584,"y":2543039.8751866799}},{"attributes":{"ID":678864,"DIS_CODE":0,"TOWNNAME":"中西區","LI":"進學里","LIN":"9鄰","STREET":"忠義路","SECT":"一段","MAREA":" ","LANE":"８５巷","ALLEY":" ","HOUSE_NO":"９號底層","E_COORD97":168133.94883899999,"N_COORD97":2543057.5668899999,"ADDRESS":"忠義路一段８５巷９號底層","OBJECTID":678837},"geometry":{"x":168133.94883891009,"y":2543057.5668947063}},{"attributes":{"ID":678865,"DIS_CODE":0,"TOWNNAME":"中西區","LI":"進學里","LIN":"10鄰","STREET":"永福路","SECT":"一段","MAREA":" ","LANE":"６８巷","ALLEY":" ","HOUSE_NO":"１０號一樓","E_COORD97":168090.447204,"N_COORD97":2543056.0667500002,"ADDRESS":"永福路一段６８巷１０號一樓","OBJECTID":678838},"geometry":{"x":168090.44720429834,"y":2543056.0667498782}},{"attributes":{"ID":678866,"DIS_CODE":0,"TOWNNAME":"中西區","LI":"進學里","LIN":"10鄰","STREET":"永福路","SECT":"一段","MAREA":" ","LANE":"６８巷","ALLEY":" ","HOUSE_NO":"１０號二樓","E_COORD97":168090.447204,"N_COORD97":2543056.0667500002,"ADDRESS":"永福路一段６８巷１０號二樓","OBJECTID":678839},"geometry":{"x":168090.44720429834,"y":2543056.0667498782}},{"attributes":{"ID":678867,"DIS_CODE":0,"TOWNNAME":"中西區","LI":"進學里","LIN":"10鄰","STREET":"永福路","SECT":"一段","MAREA":" ","LANE":"６８巷","ALLEY":" ","HOUSE_NO":"１０號三樓","E_COORD97":168090.447204,"N_COORD97":2543056.0667500002,"ADDRESS":"永福路一段６８巷１０號三樓","OBJECTID":678840},"geometry":{"x":168090.44720429834,"y":2543056.0667498782}},{"attributes":{"ID":678868,"DIS_CODE":0,"TOWNNAME":"中西區","LI":"進學里","LIN":"10鄰","STREET":"永福路","SECT":"一段","MAREA":" ","LANE":"６８巷","ALLEY":" ","HOUSE_NO":"１０號五樓","E_COORD97":168090.447204,"N_COORD97":2543056.0667500002,"ADDRESS":"永福路一段６８巷１０號五樓","OBJECTID":678841},"geometry":{"x":168090.44720429834,"y":2543056.0667498782}},{"attributes":{"ID":678869,"DIS_CODE":0,"TOWNNAME":"中西區","LI":"進學里","LIN":"10鄰","STREET":"永福路","SECT":"一段","MAREA":" ","LANE":"６８巷","ALLEY":" ","HOUSE_NO":"１０號四樓","E_COORD97":168090.447204,"N_COORD97":2543056.0667500002,"ADDRESS":"永福路一段６８巷１０號四樓","OBJECTID":678842},"geometry":{"x":168090.44720429834,"y":2543056.0667498782}},{"attributes":{"ID":678870,"DIS_CODE":0,"TOWNNAME":"中西區","LI":"進學里","LIN":"10鄰","STREET":"永福路","SECT":"一段","MAREA":" ","LANE":"６８巷","ALLEY":" ","HOUSE_NO":"８號一樓","E_COORD97":168082.53706599999,"N_COORD97":2543054.80663,"ADDRESS":"永福路一段６８巷８號一樓","OBJECTID":678843},"geometry":{"x":168082.53706633858,"y":2543054.8066282198}},{"attributes":{"ID":678871,"DIS_CODE":0,"TOWNNAME":"中西區","LI":"進學里","LIN":"10鄰","STREET":"永福路","SECT":"一段","MAREA":" ","LANE":"６８巷","ALLEY":" ","HOUSE_NO":"８號二樓","E_COORD97":168082.53706599999,"N_COORD97":2543054.80663,"ADDRESS":"永福路一段６８巷８號二樓","OBJECTID":678844},"geometry":{"x":168082.53706633858,"y":2543054.8066282198}},{"attributes":{"ID":678872,"DIS_CODE":0,"TOWNNAME":"中西區","LI":"進學里","LIN":"10鄰","STREET":"永福路","SECT":"一段","MAREA":" ","LANE":"６８巷","ALLEY":" ","HOUSE_NO":"８號三樓","E_COORD97":168082.53706599999,"N_COORD97":2543054.80663,"ADDRESS":"永福路一段６８巷８號三樓","OBJECTID":678845},"geometry":{"x":168082.53706633858,"y":2543054.8066282198}},{"attributes":{"ID":678873,"DIS_CODE":0,"TOWNNAME":"中西區","LI":"進學里","LIN":"10鄰","STREET":"永福路","SECT":"一段","MAREA":" ","LANE":"６８巷","ALLEY":" ","HOUSE_NO":"８號五樓","E_COORD97":168082.53706599999,"N_COORD97":2543054.80663,"ADDRESS":"永福路一段６８巷８號五樓","OBJECTID":678846},"geometry":{"x":168082.53706633858,"y":2543054.8066282198}},{"attributes":{"ID":678874,"DIS_CODE":0,"TOWNNAME":"中西區","LI":"進學里","LIN":"10鄰","STREET":"永福路","SECT":"一段","MAREA":" ","LANE":"６８巷","ALLEY":" ","HOUSE_NO":"８號四樓","E_COORD97":168082.53706599999,"N_COORD97":2543054.80663,"ADDRESS":"永福路一段６８巷８號四樓","OBJECTID":678847},"geometry":{"x":168082.53706633858,"y":2543054.8066282198}},{"attributes":{"ID":678875,"DIS_CODE":0,"TOWNNAME":"中西區","LI":"進學里","LIN":"10鄰","STREET":"樹林街","SECT":"二段","MAREA":" ","LANE":" ","ALLEY":" ","HOUSE_NO":"３０２號","E_COORD97":168101.046294,"N_COORD97":2543034.8547,"ADDRESS":"樹林街二段３０２號","OBJECTID":678848},"geometry":{"x":168101.0462942645,"y":2543034.8547019809}},{"attributes":{"ID":678876,"DIS_CODE":0,"TOWNNAME":"中西區","LI":"進學里","LIN":"10鄰","STREET":"樹林街","SECT":"二段","MAREA":" ","LANE":" ","ALLEY":" ","HOUSE_NO":"３０４號","E_COORD97":168097.16958399999,"N_COORD97":2543035.7247899999,"ADDRESS":"樹林街二段３０４號","OBJECTID":678849},"geometry":{"x":168097.16958431434,"y":2543035.7247859836}},{"attributes":{"ID":678877,"DIS_CODE":0,"TOWNNAME":"中西區","LI":"進學里","LIN":"10鄰","STREET":"樹林街","SECT":"二段","MAREA":" ","LANE":" ","ALLEY":" ","HOUSE_NO":"３０６號","E_COORD97":168092.1876,"N_COORD97":2543042.6754600001,"ADDRESS":"樹林街二段３０６號","OBJECTID":678850},"geometry":{"x":168092.18759961519,"y":2543042.6754570305}},{"attributes":{"ID":678878,"DIS_CODE":0,"TOWNNAME":"中西區","LI":"進學里","LIN":"10鄰","STREET":"樹林街","SECT":"二段","MAREA":" ","LANE":" ","ALLEY":" ","HOUSE_NO":"３０８號","E_COORD97":168092.509284,"N_COORD97":2543034.4546599998,"ADDRESS":"樹林街二段３０８號","OBJECTID":678851},"geometry":{"x":168092.50928405765,"y":2543034.4546633624}},{"attributes":{"ID":678879,"DIS_CODE":0,"TOWNNAME":"中西區","LI":"進學里","LIN":"10鄰","STREET":"樹林街","SECT":"二段","MAREA":" ","LANE":" ","ALLEY":" ","HOUSE_NO":"３１０號","E_COORD97":168087.997454,"N_COORD97":2543033.4245600002,"ADDRESS":"樹林街二段３１０號","OBJECTID":678852},"geometry":{"x":168087.99745354243,"y":2543033.4245639089}},{"attributes":{"ID":678880,"DIS_CODE":0,"TOWNNAME":"中西區","LI":"進學里","LIN":"10鄰","STREET":"樹林街","SECT":"二段","MAREA":" ","LANE":" ","ALLEY":" ","HOUSE_NO":"３１２號","E_COORD97":168093.532076,"N_COORD97":2543025.05376,"ADDRESS":"樹林街二段３１２號","OBJECTID":678853},"geometry":{"x":168093.53207561839,"y":2543025.0537557639}},{"attributes":{"ID":678881,"DIS_CODE":0,"TOWNNAME":"中西區","LI":"進學里","LIN":"10鄰","STREET":"樹林街","SECT":"二段","MAREA":" ","LANE":" ","ALLEY":" ","HOUSE_NO":"３１２號二樓","E_COORD97":168093.532076,"N_COORD97":2543025.05376,"ADDRESS":"樹林街二段３１２號二樓","OBJECTID":678854},"geometry":{"x":168093.53207561839,"y":2543025.0537557639}},{"attributes":{"ID":678882,"DIS_CODE":0,"TOWNNAME":"中西區","LI":"進學里","LIN":"10鄰","STREET":"樹林街","SECT":"二段","MAREA":" ","LANE":" ","ALLEY":" ","HOUSE_NO":"３１２號三樓","E_COORD97":168093.532076,"N_COORD97":2543025.05376,"ADDRESS":"樹林街二段３１２號三樓","OBJECTID":678855},"geometry":{"x":168093.53207561839,"y":2543025.0537557639}},{"attributes":{"ID":678883,"DIS_CODE":0,"TOWNNAME":"中西區","LI":"進學里","LIN":"10鄰","STREET":"樹林街","SECT":"二段","MAREA":" ","LANE":" ","ALLEY":" ","HOUSE_NO":"３１２號五樓","E_COORD97":168093.532076,"N_COORD97":2543025.05376,"ADDRESS":"樹林街二段３１２號五樓","OBJECTID":678856},"geometry":{"x":168093.53207561839,"y":2543025.0537557639}},{"attributes":{"ID":678884,"DIS_CODE":0,"TOWNNAME":"中西區","LI":"進學里","LIN":"10鄰","STREET":"樹林街","SECT":"二段","MAREA":" ","LANE":" ","ALLEY":" ","HOUSE_NO":"３１２號六樓","E_COORD97":168093.532076,"N_COORD97":2543025.05376,"ADDRESS":"樹林街二段３１２號六樓","OBJECTID":678857},"geometry":{"x":168093.53207561839,"y":2543025.0537557639}},{"attributes":{"ID":678885,"DIS_CODE":0,"TOWNNAME":"中西區","LI":"進學里","LIN":"10鄰","STREET":"樹林街","SECT":"二段","MAREA":" ","LANE":" ","ALLEY":" ","HOUSE_NO":"３１２號四樓","E_COORD97":168093.532076,"N_COORD97":2543025.05376,"ADDRESS":"樹林街二段３１２號四樓","OBJECTID":678858},"geometry":{"x":168093.53207561839,"y":2543025.0537557639}},{"attributes":{"ID":678886,"DIS_CODE":0,"TOWNNAME":"中西區","LI":"進學里","LIN":"10鄰","STREET":"樹林街","SECT":"二段","MAREA":" ","LANE":" ","ALLEY":" ","HOUSE_NO":"３１４號","E_COORD97":168097.40878600001,"N_COORD97":2543000.9514299999,"ADDRESS":"樹林街二段３１４號","OBJECTID":678859},"geometry":{"x":168097.40878556762,"y":2543000.951428825}},{"attributes":{"ID":678887,"DIS_CODE":0,"TOWNNAME":"中西區","LI":"進學里","LIN":"10鄰","STREET":"樹林街","SECT":"二段","MAREA":" ","LANE":" ","ALLEY":" ","HOUSE_NO":"３１６號","E_COORD97":168092.113365,"N_COORD97":2543000.5113900001,"ADDRESS":"樹林街二段３１６號","OBJECTID":678860},"geometry":{"x":168092.113364744,"y":2543000.5113863442}},{"attributes":{"ID":678888,"DIS_CODE":0,"TOWNNAME":"中西區","LI":"進學里","LIN":"10鄰","STREET":"樹林街","SECT":"二段","MAREA":" ","LANE":" ","ALLEY":" ","HOUSE_NO":"３１８號","E_COORD97":168086.034354,"N_COORD97":2542999.4612799999,"ADDRESS":"樹林街二段３１８號","OBJECTID":678861},"geometry":{"x":168086.03435361199,"y":2542999.4612849653}},{"attributes":{"ID":678889,"DIS_CODE":0,"TOWNNAME":"中西區","LI":"進學里","LIN":"10鄰","STREET":"樹林街","SECT":"二段","MAREA":" ","LANE":" ","ALLEY":" ","HOUSE_NO":"３２０號","E_COORD97":168079.74088600001,"N_COORD97":2543004.2117400002,"ADDRESS":"樹林街二段３２０號","OBJECTID":678862},"geometry":{"x":168079.74088618625,"y":2543004.2117435914}},{"attributes":{"ID":678890,"DIS_CODE":0,"TOWNNAME":"中西區","LI":"進學里","LIN":"10鄰","STREET":"樹林街","SECT":"二段","MAREA":" ","LANE":" ","ALLEY":" ","HOUSE_NO":"３２２號","E_COORD97":168072.51535900001,"N_COORD97":2543000.5113900001,"ADDRESS":"樹林街二段３２２號","OBJECTID":678863},"geometry":{"x":168072.51535870694,"y":2543000.5113863442}},{"attributes":{"ID":678891,"DIS_CODE":0,"TOWNNAME":"中西區","LI":"進學里","LIN":"10鄰","STREET":"樹林街","SECT":"二段","MAREA":" ","LANE":" ","ALLEY":" ","HOUSE_NO":"３２６號","E_COORD97":168065.19085099999,"N_COORD97":2543011.61246,"ADDRESS":"樹林街二段３２６號","OBJECTID":678864},"geometry":{"x":168065.19085140061,"y":2543011.6124580856}},{"attributes":{"ID":678892,"DIS_CODE":0,"TOWNNAME":"中西區","LI":"進學里","LIN":"10鄰","STREET":"樹林街","SECT":"二段","MAREA":" ","LANE":"３２８巷","ALLEY":" ","HOUSE_NO":"１０號一樓","E_COORD97":168071.15438600001,"N_COORD97":2543049.0860799998,"ADDRESS":"樹林街二段３２８巷１０號一樓","OBJECTID":678865},"geometry":{"x":168071.1543860659,"y":2543049.0860759392}},{"attributes":{"ID":678893,"DIS_CODE":0,"TOWNNAME":"中西區","LI":"進學里","LIN":"10鄰","STREET":"樹林街","SECT":"二段","MAREA":" ","LANE":"３２８巷","ALLEY":" ","HOUSE_NO":"１０號二樓","E_COORD97":168071.15438600001,"N_COORD97":2543049.0860799998,"ADDRESS":"樹林街二段３２８巷１０號二樓","OBJECTID":678866},"geometry":{"x":168071.1543860659,"y":2543049.0860759392}},{"attributes":{"ID":678894,"DIS_CODE":0,"TOWNNAME":"中西區","LI":"進學里","LIN":"10鄰","STREET":"樹林街","SECT":"二段","MAREA":" ","LANE":"３２８巷","ALLEY":" ","HOUSE_NO":"１０號三樓","E_COORD97":168071.15438600001,"N_COORD97":2543049.0860799998,"ADDRESS":"樹林街二段３２８巷１０號三樓","OBJECTID":678867},"geometry":{"x":168071.1543860659,"y":2543049.0860759392}},{"attributes":{"ID":678895,"DIS_CODE":0,"TOWNNAME":"中西區","LI":"進學里","LIN":"10鄰","STREET":"樹林街","SECT":"二段","MAREA":" ","LANE":"３２８巷","ALLEY":" ","HOUSE_NO":"１０號五樓","E_COORD97":168071.15438600001,"N_COORD97":2543049.0860799998,"ADDRESS":"樹林街二段３２８巷１０號五樓","OBJECTID":678868},"geometry":{"x":168071.1543860659,"y":2543049.0860759392}},{"attributes":{"ID":678896,"DIS_CODE":0,"TOWNNAME":"中西區","LI":"進學里","LIN":"10鄰","STREET":"樹林街","SECT":"二段","MAREA":" ","LANE":"３２８巷","ALLEY":" ","HOUSE_NO":"１０號四樓","E_COORD97":168071.15438600001,"N_COORD97":2543049.0860799998,"ADDRESS":"樹林街二段３２８巷１０號四樓","OBJECTID":678869},"geometry":{"x":168071.1543860659,"y":2543049.0860759392}},{"attributes":{"ID":678897,"DIS_CODE":0,"TOWNNAME":"中西區","LI":"進學里","LIN":"10鄰","STREET":"樹林街","SECT":"二段","MAREA":" ","LANE":"３２８巷","ALLEY":" ","HOUSE_NO":"１２號","E_COORD97":168069.768668,"N_COORD97":2543054.4365900001,"ADDRESS":"樹林街二段３２８巷１２號","OBJECTID":678870},"geometry":{"x":168069.76866846718,"y":2543054.4365924951}},{"attributes":{"ID":678898,"DIS_CODE":0,"TOWNNAME":"中西區","LI":"進學里","LIN":"10鄰","STREET":"樹林街","SECT":"二段","MAREA":" ","LANE":"３２８巷","ALLEY":" ","HOUSE_NO":"２號一樓之１","E_COORD97":168079.01503400001,"N_COORD97":2543020.5033200001,"ADDRESS":"樹林街二段３２８巷２號一樓之１","OBJECTID":678871},"geometry":{"x":168079.01503411122,"y":2543020.5033164453}},{"attributes":{"ID":678899,"DIS_CODE":0,"TOWNNAME":"中西區","LI":"進學里","LIN":"10鄰","STREET":"樹林街","SECT":"二段","MAREA":" ","LANE":"３２８巷","ALLEY":" ","HOUSE_NO":"２號一樓之２","E_COORD97":168079.38620800001,"N_COORD97":2543024.9337399998,"ADDRESS":"樹林街二段３２８巷２號一樓之２","OBJECTID":678872},"geometry":{"x":168079.38620846625,"y":2543024.9337441754}},{"attributes":{"ID":678900,"DIS_CODE":0,"TOWNNAME":"中西區","LI":"進學里","LIN":"10鄰","STREET":"樹林街","SECT":"二段","MAREA":" ","LANE":"３２８巷","ALLEY":" ","HOUSE_NO":"２號一樓之３","E_COORD97":168079.47693999999,"N_COORD97":2543029.27416,"ADDRESS":"樹林街二段３２８巷２號一樓之３","OBJECTID":678873},"geometry":{"x":168079.47693997622,"y":2543029.2741632145}},{"attributes":{"ID":678901,"DIS_CODE":0,"TOWNNAME":"中西區","LI":"進學里","LIN":"10鄰","STREET":"樹林街","SECT":"二段","MAREA":" ","LANE":"３２８巷","ALLEY":" ","HOUSE_NO":"２號二樓之１","E_COORD97":168079.01503400001,"N_COORD97":2543020.5033200001,"ADDRESS":"樹林街二段３２８巷２號二樓之１","OBJECTID":678874},"geometry":{"x":168079.01503411122,"y":2543020.5033164453}},{"attributes":{"ID":678902,"DIS_CODE":0,"TOWNNAME":"中西區","LI":"進學里","LIN":"10鄰","STREET":"樹林街","SECT":"二段","MAREA":" ","LANE":"３２８巷","ALLEY":" ","HOUSE_NO":"２號二樓之２","E_COORD97":168079.38620800001,"N_COORD97":2543024.9337399998,"ADDRESS":"樹林街二段３２８巷２號二樓之２","OBJECTID":678875},"geometry":{"x":168079.38620846625,"y":2543024.9337441754}},{"attributes":{"ID":678903,"DIS_CODE":0,"TOWNNAME":"中西區","LI":"進學里","LIN":"10鄰","STREET":"樹林街","SECT":"二段","MAREA":" ","LANE":"３２８巷","ALLEY":" ","HOUSE_NO":"２號二樓之３","E_COORD97":168079.47693999999,"N_COORD97":2543029.27416,"ADDRESS":"樹林街二段３２８巷２號二樓之３","OBJECTID":678876},"geometry":{"x":168079.47693997622,"y":2543029.2741632145}},{"attributes":{"ID":678904,"DIS_CODE":0,"TOWNNAME":"中西區","LI":"進學里","LIN":"10鄰","STREET":"樹林街","SECT":"二段","MAREA":" ","LANE":"３２８巷","ALLEY":" ","HOUSE_NO":"２號三樓之１","E_COORD97":168079.01503400001,"N_COORD97":2543020.5033200001,"ADDRESS":"樹林街二段３２８巷２號三樓之１","OBJECTID":678877},"geometry":{"x":168079.01503411122,"y":2543020.5033164453}},{"attributes":{"ID":678905,"DIS_CODE":0,"TOWNNAME":"中西區","LI":"進學里","LIN":"10鄰","STREET":"樹林街","SECT":"二段","MAREA":" ","LANE":"３２８巷","ALLEY":" ","HOUSE_NO":"２號三樓之２","E_COORD97":168079.38620800001,"N_COORD97":2543024.9337399998,"ADDRESS":"樹林街二段３２８巷２號三樓之２","OBJECTID":678878},"geometry":{"x":168079.38620846625,"y":2543024.9337441754}},{"attributes":{"ID":678906,"DIS_CODE":0,"TOWNNAME":"中西區","LI":"進學里","LIN":"10鄰","STREET":"樹林街","SECT":"二段","MAREA":" ","LANE":"３２８巷","ALLEY":" ","HOUSE_NO":"２號三樓之３","E_COORD97":168079.47693999999,"N_COORD97":2543029.27416,"ADDRESS":"樹林街二段３２８巷２號三樓之３","OBJECTID":678879},"geometry":{"x":168079.47693997622,"y":2543029.2741632145}},{"attributes":{"ID":678907,"DIS_CODE":0,"TOWNNAME":"中西區","LI":"進學里","LIN":"10鄰","STREET":"樹林街","SECT":"二段","MAREA":" ","LANE":"３２８巷","ALLEY":" ","HOUSE_NO":"２號五樓之１","E_COORD97":168079.01503400001,"N_COORD97":2543020.5033200001,"ADDRESS":"樹林街二段３２８巷２號五樓之１","OBJECTID":678880},"geometry":{"x":168079.01503411122,"y":2543020.5033164453}},{"attributes":{"ID":678908,"DIS_CODE":0,"TOWNNAME":"中西區","LI":"進學里","LIN":"10鄰","STREET":"樹林街","SECT":"二段","MAREA":" ","LANE":"３２８巷","ALLEY":" ","HOUSE_NO":"２號五樓之２","E_COORD97":168079.38620800001,"N_COORD97":2543024.9337399998,"ADDRESS":"樹林街二段３２８巷２號五樓之２","OBJECTID":678881},"geometry":{"x":168079.38620846625,"y":2543024.9337441754}},{"attributes":{"ID":678909,"DIS_CODE":0,"TOWNNAME":"中西區","LI":"進學里","LIN":"10鄰","STREET":"樹林街","SECT":"二段","MAREA":" ","LANE":"３２８巷","ALLEY":" ","HOUSE_NO":"２號五樓之３","E_COORD97":168079.47693999999,"N_COORD97":2543029.27416,"ADDRESS":"樹林街二段３２８巷２號五樓之３","OBJECTID":678882},"geometry":{"x":168079.47693997622,"y":2543029.2741632145}},{"attributes":{"ID":678910,"DIS_CODE":0,"TOWNNAME":"中西區","LI":"進學里","LIN":"10鄰","STREET":"樹林街","SECT":"二段","MAREA":" ","LANE":"３２８巷","ALLEY":" ","HOUSE_NO":"２號四樓之１","E_COORD97":168079.01503400001,"N_COORD97":2543020.5033200001,"ADDRESS":"樹林街二段３２８巷２號四樓之１","OBJECTID":678883},"geometry":{"x":168079.01503411122,"y":2543020.5033164453}},{"attributes":{"ID":678911,"DIS_CODE":0,"TOWNNAME":"中西區","LI":"進學里","LIN":"10鄰","STREET":"樹林街","SECT":"二段","MAREA":" ","LANE":"３２８巷","ALLEY":" ","HOUSE_NO":"２號四樓之２","E_COORD97":168079.38620800001,"N_COORD97":2543024.9337399998,"ADDRESS":"樹林街二段３２８巷２號四樓之２","OBJECTID":678884},"geometry":{"x":168079.38620846625,"y":2543024.9337441754}},{"attributes":{"ID":678912,"DIS_CODE":0,"TOWNNAME":"中西區","LI":"進學里","LIN":"10鄰","STREET":"樹林街","SECT":"二段","MAREA":" ","LANE":"３２８巷","ALLEY":" ","HOUSE_NO":"２號四樓之３","E_COORD97":168079.47693999999,"N_COORD97":2543029.27416,"ADDRESS":"樹林街二段３２８巷２號四樓之３","OBJECTID":678885},"geometry":{"x":168079.47693997622,"y":2543029.2741632145}},{"attributes":{"ID":678913,"DIS_CODE":0,"TOWNNAME":"中西區","LI":"進學里","LIN":"10鄰","STREET":"樹林街","SECT":"二段","MAREA":" ","LANE":"３２８巷","ALLEY":" ","HOUSE_NO":"４號","E_COORD97":168065.70224700001,"N_COORD97":2543027.4639900001,"ADDRESS":"樹林街二段３２８巷４號","OBJECTID":678886},"geometry":{"x":168065.70224718098,"y":2543027.463988455}},{"attributes":{"ID":678914,"DIS_CODE":0,"TOWNNAME":"中西區","LI":"進學里","LIN":"10鄰","STREET":"樹林街","SECT":"二段","MAREA":" ","LANE":"３２８巷","ALLEY":" ","HOUSE_NO":"４號一樓","E_COORD97":168065.70224700001,"N_COORD97":2543027.4639900001,"ADDRESS":"樹林街二段３２８巷４號一樓","OBJECTID":678887},"geometry":{"x":168065.70224718098,"y":2543027.463988455}},{"attributes":{"ID":678915,"DIS_CODE":0,"TOWNNAME":"中西區","LI":"進學里","LIN":"10鄰","STREET":"樹林街","SECT":"二段","MAREA":" ","LANE":"３２８巷","ALLEY":" ","HOUSE_NO":"４號二樓","E_COORD97":168065.70224700001,"N_COORD97":2543027.4639900001,"ADDRESS":"樹林街二段３２８巷４號二樓","OBJECTID":678888},"geometry":{"x":168065.70224718098,"y":2543027.463988455}},{"attributes":{"ID":678916,"DIS_CODE":0,"TOWNNAME":"中西區","LI":"進學里","LIN":"10鄰","STREET":"樹林街","SECT":"二段","MAREA":" ","LANE":"３２８巷","ALLEY":" ","HOUSE_NO":"４號三樓","E_COORD97":168065.70224700001,"N_COORD97":2543027.4639900001,"ADDRESS":"樹林街二段３２８巷４號三樓","OBJECTID":678889},"geometry":{"x":168065.70224718098,"y":2543027.463988455}},{"attributes":{"ID":678917,"DIS_CODE":0,"TOWNNAME":"中西區","LI":"進學里","LIN":"10鄰","STREET":"樹林街","SECT":"二段","MAREA":" ","LANE":"３２８巷","ALLEY":" ","HOUSE_NO":"６號一樓","E_COORD97":168067.277676,"N_COORD97":2543037.61497,"ADDRESS":"樹林街二段３２８巷６號一樓","OBJECTID":678890},"geometry":{"x":168067.27767611668,"y":2543037.6149684712}},{"attributes":{"ID":678918,"DIS_CODE":0,"TOWNNAME":"中西區","LI":"進學里","LIN":"10鄰","STREET":"樹林街","SECT":"二段","MAREA":" ","LANE":"３２８巷","ALLEY":" ","HOUSE_NO":"６號二樓","E_COORD97":168067.277676,"N_COORD97":2543037.61497,"ADDRESS":"樹林街二段３２８巷６號二樓","OBJECTID":678891},"geometry":{"x":168067.27767611668,"y":2543037.6149684712}},{"attributes":{"ID":678919,"DIS_CODE":0,"TOWNNAME":"中西區","LI":"進學里","LIN":"10鄰","STREET":"樹林街","SECT":"二段","MAREA":" ","LANE":"３２８巷","ALLEY":" ","HOUSE_NO":"６號三樓","E_COORD97":168067.277676,"N_COORD97":2543037.61497,"ADDRESS":"樹林街二段３２８巷６號三樓","OBJECTID":678892},"geometry":{"x":168067.27767611668,"y":2543037.6149684712}},{"attributes":{"ID":678920,"DIS_CODE":0,"TOWNNAME":"中西區","LI":"進學里","LIN":"10鄰","STREET":"樹林街","SECT":"二段","MAREA":" ","LANE":"３２８巷","ALLEY":" ","HOUSE_NO":"６號四樓","E_COORD97":168067.277676,"N_COORD97":2543037.61497,"ADDRESS":"樹林街二段３２８巷６號四樓","OBJECTID":678893},"geometry":{"x":168067.27767611668,"y":2543037.6149684712}},{"attributes":{"ID":678921,"DIS_CODE":0,"TOWNNAME":"中西區","LI":"進學里","LIN":"10鄰","STREET":"樹林街","SECT":"二段","MAREA":" ","LANE":"３２８巷","ALLEY":" ","HOUSE_NO":"８號一樓","E_COORD97":168070.88219199999,"N_COORD97":2543041.9753899998,"ADDRESS":"樹林街二段３２８巷８號一樓","OBJECTID":678894},"geometry":{"x":168070.88219153695,"y":2543041.9753894415}},{"attributes":{"ID":678922,"DIS_CODE":0,"TOWNNAME":"中西區","LI":"進學里","LIN":"10鄰","STREET":"樹林街","SECT":"二段","MAREA":" ","LANE":"３２８巷","ALLEY":" ","HOUSE_NO":"８號二樓","E_COORD97":168070.88219199999,"N_COORD97":2543041.9753899998,"ADDRESS":"樹林街二段３２８巷８號二樓","OBJECTID":678895},"geometry":{"x":168070.88219153695,"y":2543041.9753894415}},{"attributes":{"ID":678923,"DIS_CODE":0,"TOWNNAME":"中西區","LI":"進學里","LIN":"10鄰","STREET":"樹林街","SECT":"二段","MAREA":" ","LANE":"３２８巷","ALLEY":" ","HOUSE_NO":"８號三樓","E_COORD97":168070.88219199999,"N_COORD97":2543041.9753899998,"ADDRESS":"樹林街二段３２８巷８號三樓","OBJECTID":678896},"geometry":{"x":168070.88219153695,"y":2543041.9753894415}},{"attributes":{"ID":678924,"DIS_CODE":0,"TOWNNAME":"中西區","LI":"進學里","LIN":"10鄰","STREET":"樹林街","SECT":"二段","MAREA":" ","LANE":"３２８巷","ALLEY":" ","HOUSE_NO":"８號五樓","E_COORD97":168070.88219199999,"N_COORD97":2543041.9753899998,"ADDRESS":"樹林街二段３２８巷８號五樓","OBJECTID":678897},"geometry":{"x":168070.88219153695,"y":2543041.9753894415}},{"attributes":{"ID":678925,"DIS_CODE":0,"TOWNNAME":"中西區","LI":"進學里","LIN":"10鄰","STREET":"樹林街","SECT":"二段","MAREA":" ","LANE":"３２８巷","ALLEY":" ","HOUSE_NO":"８號四樓","E_COORD97":168070.88219199999,"N_COORD97":2543041.9753899998,"ADDRESS":"樹林街二段３２８巷８號四樓","OBJECTID":678898},"geometry":{"x":168070.88219153695,"y":2543041.9753894415}},{"attributes":{"ID":678926,"DIS_CODE":0,"TOWNNAME":"中西區","LI":"進學里","LIN":"11鄰","STREET":"永福路","SECT":"一段","MAREA":" ","LANE":" ","ALLEY":" ","HOUSE_NO":"４６號","E_COORD97":168006.11639000001,"N_COORD97":2543012.9125799998,"ADDRESS":"永福路一段４６號","OBJECTID":678899},"geometry":{"x":168006.11639044061,"y":2543012.9125836063}},{"attributes":{"ID":678927,"DIS_CODE":0,"TOWNNAME":"中西區","LI":"進學里","LIN":"11鄰","STREET":"永福路","SECT":"一段","MAREA":" ","LANE":" ","ALLEY":" ","HOUSE_NO":"４８號","E_COORD97":168006.02565900001,"N_COORD97":2543016.9829799999,"ADDRESS":"永福路一段４８號","OBJECTID":678900},"geometry":{"x":168006.02565893251,"y":2543016.9829765745}},{"attributes":{"ID":678928,"DIS_CODE":0,"TOWNNAME":"中西區","LI":"進學里","LIN":"11鄰","STREET":"永福路","SECT":"一段","MAREA":" ","LANE":" ","ALLEY":" ","HOUSE_NO":"５０號一樓","E_COORD97":168005.50601499999,"N_COORD97":2543022.4035,"ADDRESS":"永福路一段５０號一樓","OBJECTID":678901},"geometry":{"x":168005.50601483323,"y":2543022.4034998957}},{"attributes":{"ID":678929,"DIS_CODE":0,"TOWNNAME":"中西區","LI":"進學里","LIN":"11鄰","STREET":"永福路","SECT":"一段","MAREA":" ","LANE":" ","ALLEY":" ","HOUSE_NO":"５０號二樓","E_COORD97":168005.50601499999,"N_COORD97":2543022.4035,"ADDRESS":"永福路一段５０號二樓","OBJECTID":678902},"geometry":{"x":168005.50601483323,"y":2543022.4034998957}},{"attributes":{"ID":678930,"DIS_CODE":0,"TOWNNAME":"中西區","LI":"進學里","LIN":"11鄰","STREET":"永福路","SECT":"一段","MAREA":" ","LANE":" ","ALLEY":" ","HOUSE_NO":"５０號三樓之１","E_COORD97":168005.50601499999,"N_COORD97":2543022.4035,"ADDRESS":"永福路一段５０號三樓之１","OBJECTID":678903},"geometry":{"x":168005.50601483323,"y":2543022.4034998957}},{"attributes":{"ID":678931,"DIS_CODE":0,"TOWNNAME":"中西區","LI":"進學里","LIN":"11鄰","STREET":"永福路","SECT":"一段","MAREA":" ","LANE":" ","ALLEY":" ","HOUSE_NO":"５０號三樓之２","E_COORD97":168005.50601499999,"N_COORD97":2543022.4035,"ADDRESS":"永福路一段５０號三樓之２","OBJECTID":678904},"geometry":{"x":168005.50601483323,"y":2543022.4034998957}},{"attributes":{"ID":678932,"DIS_CODE":0,"TOWNNAME":"中西區","LI":"進學里","LIN":"11鄰","STREET":"永福路","SECT":"一段","MAREA":" ","LANE":" ","ALLEY":" ","HOUSE_NO":"５０號三樓之３","E_COORD97":168005.50601499999,"N_COORD97":2543022.4035,"ADDRESS":"永福路一段５０號三樓之３","OBJECTID":678905},"geometry":{"x":168005.50601483323,"y":2543022.4034998957}},{"attributes":{"ID":678933,"DIS_CODE":0,"TOWNNAME":"中西區","LI":"進學里","LIN":"11鄰","STREET":"永福路","SECT":"一段","MAREA":" ","LANE":" ","ALLEY":" ","HOUSE_NO":"５０號五樓之１","E_COORD97":168005.50601499999,"N_COORD97":2543022.4035,"ADDRESS":"永福路一段５０號五樓之１","OBJECTID":678906},"geometry":{"x":168005.50601483323,"y":2543022.4034998957}},{"attributes":{"ID":678934,"DIS_CODE":0,"TOWNNAME":"中西區","LI":"進學里","LIN":"11鄰","STREET":"永福路","SECT":"一段","MAREA":" ","LANE":" ","ALLEY":" ","HOUSE_NO":"５０號五樓之２","E_COORD97":168005.50601499999,"N_COORD97":2543022.4035,"ADDRESS":"永福路一段５０號五樓之２","OBJECTID":678907},"geometry":{"x":168005.50601483323,"y":2543022.4034998957}},{"attributes":{"ID":678935,"DIS_CODE":0,"TOWNNAME":"中西區","LI":"進學里","LIN":"11鄰","STREET":"永福路","SECT":"一段","MAREA":" ","LANE":" ","ALLEY":" ","HOUSE_NO":"５０號五樓之３","E_COORD97":168005.50601499999,"N_COORD97":2543022.4035,"ADDRESS":"永福路一段５０號五樓之３","OBJECTID":678908},"geometry":{"x":168005.50601483323,"y":2543022.4034998957}},{"attributes":{"ID":678936,"DIS_CODE":0,"TOWNNAME":"中西區","LI":"進學里","LIN":"11鄰","STREET":"永福路","SECT":"一段","MAREA":" ","LANE":" ","ALLEY":" ","HOUSE_NO":"５０號四樓之１","E_COORD97":168005.50601499999,"N_COORD97":2543022.4035,"ADDRESS":"永福路一段５０號四樓之１","OBJECTID":678909},"geometry":{"x":168005.50601483323,"y":2543022.4034998957}},{"attributes":{"ID":678937,"DIS_CODE":0,"TOWNNAME":"中西區","LI":"進學里","LIN":"11鄰","STREET":"永福路","SECT":"一段","MAREA":" ","LANE":" ","ALLEY":" ","HOUSE_NO":"５０號四樓之２","E_COORD97":168005.50601499999,"N_COORD97":2543022.4035,"ADDRESS":"永福路一段５０號四樓之２","OBJECTID":678910},"geometry":{"x":168005.50601483323,"y":2543022.4034998957}},{"attributes":{"ID":678938,"DIS_CODE":0,"TOWNNAME":"中西區","LI":"進學里","LIN":"11鄰","STREET":"永福路","SECT":"一段","MAREA":" ","LANE":" ","ALLEY":" ","HOUSE_NO":"５０號四樓之３","E_COORD97":168005.50601499999,"N_COORD97":2543022.4035,"ADDRESS":"永福路一段５０號四樓之３","OBJECTID":678911},"geometry":{"x":168005.50601483323,"y":2543022.4034998957}},{"attributes":{"ID":678939,"DIS_CODE":0,"TOWNNAME":"中西區","LI":"進學里","LIN":"11鄰","STREET":"永福路","SECT":"一段","MAREA":" ","LANE":" ","ALLEY":" ","HOUSE_NO":"５４號","E_COORD97":168006.372088,"N_COORD97":2543029.6842,"ADDRESS":"永福路一段５４號","OBJECTID":678912},"geometry":{"x":168006.37208833173,"y":2543029.6842028014}},{"attributes":{"ID":678940,"DIS_CODE":0,"TOWNNAME":"中西區","LI":"進學里","LIN":"11鄰","STREET":"永福路","SECT":"一段","MAREA":" ","LANE":" ","ALLEY":" ","HOUSE_NO":"５８號","E_COORD97":168006.71851800001,"N_COORD97":2543040.7952800002,"ADDRESS":"永福路一段５８號","OBJECTID":678913},"geometry":{"x":168006.71851773188,"y":2543040.7952755112}},{"attributes":{"ID":678941,"DIS_CODE":0,"TOWNNAME":"中西區","LI":"進學里","LIN":"11鄰","STREET":"永福路","SECT":"一段","MAREA":" ","LANE":" ","ALLEY":" ","HOUSE_NO":"６０號","E_COORD97":168006.54530299999,"N_COORD97":2543046.98587,"ADDRESS":"永福路一段６０號","OBJECTID":678914},"geometry":{"x":168006.5453030318,"y":2543046.9858731758}},{"attributes":{"ID":678942,"DIS_CODE":0,"TOWNNAME":"中西區","LI":"進學里","LIN":"11鄰","STREET":"永福路","SECT":"一段","MAREA":" ","LANE":" ","ALLEY":" ","HOUSE_NO":"６２號","E_COORD97":168007.84853700001,"N_COORD97":2543052.2663799999,"ADDRESS":"永福路一段６２號","OBJECTID":678915},"geometry":{"x":168007.84853744041,"y":2543052.2663829736}},{"attributes":{"ID":678943,"DIS_CODE":0,"TOWNNAME":"中西區","LI":"進學里","LIN":"11鄰","STREET":"永福路","SECT":"一段","MAREA":" ","LANE":" ","ALLEY":" ","HOUSE_NO":"６４號","E_COORD97":168008.36818200001,"N_COORD97":2543057.1268500001,"ADDRESS":"永福路一段６４號","OBJECTID":678916},"geometry":{"x":168008.3681815397,"y":2543057.1268522255}},{"attributes":{"ID":678944,"DIS_CODE":0,"TOWNNAME":"中西區","LI":"進學里","LIN":"11鄰","STREET":"永福路","SECT":"一段","MAREA":" ","LANE":" ","ALLEY":" ","HOUSE_NO":"６６號","E_COORD97":168008.28569799999,"N_COORD97":2543062.8473999999,"ADDRESS":"永福路一段６６號","OBJECTID":678917},"geometry":{"x":168008.28569834866,"y":2543062.8474045116}},{"attributes":{"ID":678945,"DIS_CODE":0,"TOWNNAME":"中西區","LI":"進學里","LIN":"11鄰","STREET":"樹林街","SECT":"二段","MAREA":" ","LANE":"３２８巷","ALLEY":" ","HOUSE_NO":"１號","E_COORD97":168048.33953600001,"N_COORD97":2543033.9846199998,"ADDRESS":"樹林街二段３２８巷１號","OBJECTID":678918},"geometry":{"x":168048.3395356033,"y":2543033.9846179783}},{"attributes":{"ID":678946,"DIS_CODE":0,"TOWNNAME":"中西區","LI":"進學里","LIN":"11鄰","STREET":"樹林街","SECT":"二段","MAREA":" ","LANE":"３２８巷","ALLEY":" ","HOUSE_NO":"７號","E_COORD97":168050.08817900001,"N_COORD97":2543049.3461000002,"ADDRESS":"樹林街二段３２８巷７號","OBJECTID":678919},"geometry":{"x":168050.08817923907,"y":2543049.3461010382}},{"attributes":{"ID":678947,"DIS_CODE":0,"TOWNNAME":"中西區","LI":"進學里","LIN":"11鄰","STREET":"樹林街","SECT":"二段","MAREA":" ","LANE":" ","ALLEY":" ","HOUSE_NO":"３３０號","E_COORD97":168047.209516,"N_COORD97":2543012.6725599999,"ADDRESS":"樹林街二段３３０號","OBJECTID":678920},"geometry":{"x":168047.20951589383,"y":2543012.6725604329}},{"attributes":{"ID":678948,"DIS_CODE":0,"TOWNNAME":"中西區","LI":"進學里","LIN":"11鄰","STREET":"樹林街","SECT":"二段","MAREA":" ","LANE":" ","ALLEY":" ","HOUSE_NO":"３４０號","E_COORD97":168030.37469699999,"N_COORD97":2543000.7814099998,"ADDRESS":"樹林街二段３４０號","OBJECTID":678921},"geometry":{"x":168030.37469673622,"y":2543000.7814124115}},{"attributes":{"ID":678949,"DIS_CODE":0,"TOWNNAME":"中西區","LI":"進學里","LIN":"7鄰","STREET":"永福路","SECT":"一段","MAREA":" ","LANE":"２６巷","ALLEY":" ","HOUSE_NO":"１號一樓","E_COORD97":168011.14786500001,"N_COORD97":2542944.9260200001,"ADDRESS":"永福路一段２６巷１號一樓","OBJECTID":678922},"geometry":{"x":168011.14786505699,"y":2542944.9260199107}},{"attributes":{"ID":678950,"DIS_CODE":0,"TOWNNAME":"中西區","LI":"進學里","LIN":"7鄰","STREET":"永福路","SECT":"一段","MAREA":" ","LANE":"２６巷","ALLEY":" ","HOUSE_NO":"１號二樓","E_COORD97":168011.14786500001,"N_COORD97":2542944.9260200001,"ADDRESS":"永福路一段２６巷１號二樓","OBJECTID":678923},"geometry":{"x":168011.14786505699,"y":2542944.9260199107}},{"attributes":{"ID":678951,"DIS_CODE":0,"TOWNNAME":"中西區","LI":"進學里","LIN":"7鄰","STREET":"永福路","SECT":"一段","MAREA":" ","LANE":"２６巷","ALLEY":" ","HOUSE_NO":"１號三樓","E_COORD97":168011.14786500001,"N_COORD97":2542944.9260200001,"ADDRESS":"永福路一段２６巷１號三樓","OBJECTID":678924},"geometry":{"x":168011.14786505699,"y":2542944.9260199107}},{"attributes":{"ID":678952,"DIS_CODE":0,"TOWNNAME":"中西區","LI":"進學里","LIN":"7鄰","STREET":"永福路","SECT":"一段","MAREA":" ","LANE":"２６巷","ALLEY":" ","HOUSE_NO":"１號四樓之１","E_COORD97":168011.14786500001,"N_COORD97":2542944.9260200001,"ADDRESS":"永福路一段２６巷１號四樓之１","OBJECTID":678925},"geometry":{"x":168011.14786505699,"y":2542944.9260199107}},{"attributes":{"ID":678953,"DIS_CODE":0,"TOWNNAME":"中西區","LI":"進學里","LIN":"7鄰","STREET":"永福路","SECT":"一段","MAREA":" ","LANE":"２６巷","ALLEY":" ","HOUSE_NO":"１號四樓之２","E_COORD97":168011.14786500001,"N_COORD97":2542944.9260200001,"ADDRESS":"永福路一段２６巷１號四樓之２","OBJECTID":678926},"geometry":{"x":168011.14786505699,"y":2542944.9260199107}},{"attributes":{"ID":678954,"DIS_CODE":0,"TOWNNAME":"中西區","LI":"進學里","LIN":"7鄰","STREET":"永福路","SECT":"一段","MAREA":" ","LANE":"２６巷","ALLEY":" ","HOUSE_NO":"２號一樓","E_COORD97":168010.28179199999,"N_COORD97":2542937.1252700002,"ADDRESS":"永福路一段２６巷２號一樓","OBJECTID":678927},"geometry":{"x":168010.28179155663,"y":2542937.125266796}},{"attributes":{"ID":678955,"DIS_CODE":0,"TOWNNAME":"中西區","LI":"進學里","LIN":"7鄰","STREET":"永福路","SECT":"一段","MAREA":" ","LANE":"２６巷","ALLEY":" ","HOUSE_NO":"２號二樓","E_COORD97":168010.28179199999,"N_COORD97":2542937.1252700002,"ADDRESS":"永福路一段２６巷２號二樓","OBJECTID":678928},"geometry":{"x":168010.28179155663,"y":2542937.125266796}},{"attributes":{"ID":678956,"DIS_CODE":0,"TOWNNAME":"中西區","LI":"進學里","LIN":"7鄰","STREET":"永福路","SECT":"一段","MAREA":" ","LANE":"２６巷","ALLEY":" ","HOUSE_NO":"２號三樓","E_COORD97":168010.28179199999,"N_COORD97":2542937.1252700002,"ADDRESS":"永福路一段２６巷２號三樓","OBJECTID":678929},"geometry":{"x":168010.28179155663,"y":2542937.125266796}},{"attributes":{"ID":678957,"DIS_CODE":0,"TOWNNAME":"中西區","LI":"進學里","LIN":"7鄰","STREET":"永福路","SECT":"一段","MAREA":" ","LANE":"２６巷","ALLEY":" ","HOUSE_NO":"２號四樓之１","E_COORD97":168010.28179199999,"N_COORD97":2542937.1252700002,"ADDRESS":"永福路一段２６巷２號四樓之１","OBJECTID":678930},"geometry":{"x":168010.28179155663,"y":2542937.125266796}},{"attributes":{"ID":678958,"DIS_CODE":0,"TOWNNAME":"中西區","LI":"進學里","LIN":"7鄰","STREET":"永福路","SECT":"一段","MAREA":" ","LANE":"２６巷","ALLEY":" ","HOUSE_NO":"２號四樓之２","E_COORD97":168010.28179199999,"N_COORD97":2542937.1252700002,"ADDRESS":"永福路一段２６巷２號四樓之２","OBJECTID":678931},"geometry":{"x":168010.28179155663,"y":2542937.125266796}},{"attributes":{"ID":678959,"DIS_CODE":0,"TOWNNAME":"中西區","LI":"進學里","LIN":"7鄰","STREET":"永福路","SECT":"一段","MAREA":" ","LANE":"２６巷","ALLEY":" ","HOUSE_NO":"３號一樓","E_COORD97":168019.38793600001,"N_COORD97":2542944.6659900001,"ADDRESS":"永福路一段２６巷３號一樓","OBJECTID":678932},"geometry":{"x":168019.38793577533,"y":2542944.6659948062}},{"attributes":{"ID":678960,"DIS_CODE":0,"TOWNNAME":"中西區","LI":"進學里","LIN":"7鄰","STREET":"永福路","SECT":"一段","MAREA":" ","LANE":"２６巷","ALLEY":" ","HOUSE_NO":"３號二樓","E_COORD97":168019.38793600001,"N_COORD97":2542944.6659900001,"ADDRESS":"永福路一段２６巷３號二樓","OBJECTID":678933},"geometry":{"x":168019.38793577533,"y":2542944.6659948062}},{"attributes":{"ID":678961,"DIS_CODE":0,"TOWNNAME":"中西區","LI":"進學里","LIN":"7鄰","STREET":"永福路","SECT":"一段","MAREA":" ","LANE":"２６巷","ALLEY":" ","HOUSE_NO":"３號三樓","E_COORD97":168019.38793600001,"N_COORD97":2542944.6659900001,"ADDRESS":"永福路一段２６巷３號三樓","OBJECTID":678934},"geometry":{"x":168019.38793577533,"y":2542944.6659948062}},{"attributes":{"ID":678962,"DIS_CODE":0,"TOWNNAME":"中西區","LI":"進學里","LIN":"7鄰","STREET":"永福路","SECT":"一段","MAREA":" ","LANE":"２６巷","ALLEY":" ","HOUSE_NO":"３號四樓之１","E_COORD97":168019.38793600001,"N_COORD97":2542944.6659900001,"ADDRESS":"永福路一段２６巷３號四樓之１","OBJECTID":678935},"geometry":{"x":168019.38793577533,"y":2542944.6659948062}},{"attributes":{"ID":678963,"DIS_CODE":0,"TOWNNAME":"中西區","LI":"進學里","LIN":"7鄰","STREET":"永福路","SECT":"一段","MAREA":" ","LANE":"２６巷","ALLEY":" ","HOUSE_NO":"３號四樓之２","E_COORD97":168019.38793600001,"N_COORD97":2542944.6659900001,"ADDRESS":"永福路一段２６巷３號四樓之２","OBJECTID":678936},"geometry":{"x":168019.38793577533,"y":2542944.6659948062}},{"attributes":{"ID":678964,"DIS_CODE":0,"TOWNNAME":"中西區","LI":"進學里","LIN":"7鄰","STREET":"永福路","SECT":"一段","MAREA":" ","LANE":"２６巷","ALLEY":" ","HOUSE_NO":"４號一樓","E_COORD97":168018.959023,"N_COORD97":2542936.9552500001,"ADDRESS":"永福路一段２６巷４號一樓","OBJECTID":678937},"geometry":{"x":168018.95902318601,"y":2542936.9552503787}},{"attributes":{"ID":678965,"DIS_CODE":0,"TOWNNAME":"中西區","LI":"進學里","LIN":"7鄰","STREET":"永福路","SECT":"一段","MAREA":" ","LANE":"２６巷","ALLEY":" ","HOUSE_NO":"４號二樓","E_COORD97":168018.959023,"N_COORD97":2542936.9552500001,"ADDRESS":"永福路一段２６巷４號二樓","OBJECTID":678938},"geometry":{"x":168018.95902318601,"y":2542936.9552503787}},{"attributes":{"ID":678966,"DIS_CODE":0,"TOWNNAME":"中西區","LI":"進學里","LIN":"7鄰","STREET":"永福路","SECT":"一段","MAREA":" ","LANE":"２６巷","ALLEY":" ","HOUSE_NO":"４號三樓","E_COORD97":168018.959023,"N_COORD97":2542936.9552500001,"ADDRESS":"永福路一段２６巷４號三樓","OBJECTID":678939},"geometry":{"x":168018.95902318601,"y":2542936.9552503787}},{"attributes":{"ID":678967,"DIS_CODE":0,"TOWNNAME":"中西區","LI":"進學里","LIN":"7鄰","STREET":"永福路","SECT":"一段","MAREA":" ","LANE":"２６巷","ALLEY":" ","HOUSE_NO":"４號四樓之１","E_COORD97":168018.959023,"N_COORD97":2542936.9552500001,"ADDRESS":"永福路一段２６巷４號四樓之１","OBJECTID":678940},"geometry":{"x":168018.95902318601,"y":2542936.9552503787}},{"attributes":{"ID":678968,"DIS_CODE":0,"TOWNNAME":"中西區","LI":"進學里","LIN":"7鄰","STREET":"永福路","SECT":"一段","MAREA":" ","LANE":"２６巷","ALLEY":" ","HOUSE_NO":"４號四樓之２","E_COORD97":168018.959023,"N_COORD97":2542936.9552500001,"ADDRESS":"永福路一段２６巷４號四樓之２","OBJECTID":678941},"geometry":{"x":168018.95902318601,"y":2542936.9552503787}},{"attributes":{"ID":678969,"DIS_CODE":0,"TOWNNAME":"中西區","LI":"進學里","LIN":"7鄰","STREET":"永福路","SECT":"一段","MAREA":" ","LANE":" ","ALLEY":" ","HOUSE_NO":"２８號","E_COORD97":168010.53748900001,"N_COORD97":2542953.7968799998,"ADDRESS":"永福路一段２８號","OBJECTID":678942},"geometry":{"x":168010.53748944588,"y":2542953.7968763374}},{"attributes":{"ID":678970,"DIS_CODE":0,"TOWNNAME":"中西區","LI":"進學里","LIN":"7鄰","STREET":"永福路","SECT":"一段","MAREA":" ","LANE":" ","ALLEY":" ","HOUSE_NO":"３２號","E_COORD97":168003.94708300001,"N_COORD97":2542964.3979000002,"ADDRESS":"永福路一段３２號","OBJECTID":678943},"geometry":{"x":168003.9470825335,"y":2542964.3978998028}},{"attributes":{"ID":678971,"DIS_CODE":0,"TOWNNAME":"中西區","LI":"進學里","LIN":"7鄰","STREET":"永福路","SECT":"一段","MAREA":" ","LANE":" ","ALLEY":" ","HOUSE_NO":"３４號","E_COORD97":168003.254224,"N_COORD97":2542969.6283999998,"ADDRESS":"永福路一段３４號","OBJECTID":678944},"geometry":{"x":168003.25422373414,"y":2542969.6284047756}},{"attributes":{"ID":678972,"DIS_CODE":0,"TOWNNAME":"中西區","LI":"進學里","LIN":"7鄰","STREET":"永福路","SECT":"一段","MAREA":" ","LANE":" ","ALLEY":" ","HOUSE_NO":"３６號","E_COORD97":168003.77386799999,"N_COORD97":2542973.2687599999,"ADDRESS":"永福路一段３６號","OBJECTID":678945},"geometry":{"x":168003.77386783529,"y":2542973.2687562313}},{"attributes":{"ID":678973,"DIS_CODE":0,"TOWNNAME":"中西區","LI":"進學里","LIN":"7鄰","STREET":"永福路","SECT":"一段","MAREA":" ","LANE":" ","ALLEY":" ","HOUSE_NO":"３８號","E_COORD97":168004.31000900001,"N_COORD97":2542982.5496499999,"ADDRESS":"永福路一段３８號","OBJECTID":678946},"geometry":{"x":168004.31000857241,"y":2542982.5496522449}},{"attributes":{"ID":678974,"DIS_CODE":0,"TOWNNAME":"中西區","LI":"進學里","LIN":"7鄰","STREET":"樹林街","SECT":"二段","MAREA":" ","LANE":" ","ALLEY":" ","HOUSE_NO":"２１１號","E_COORD97":168023.72655200001,"N_COORD97":2542975.13894,"ADDRESS":"樹林街二段２１１號","OBJECTID":678947},"geometry":{"x":168023.72655159049,"y":2542975.1389367823}},{"attributes":{"ID":678975,"DIS_CODE":0,"TOWNNAME":"中西區","LI":"進學里","LIN":"7鄰","STREET":"樹林街","SECT":"二段","MAREA":" ","LANE":" ","ALLEY":" ","HOUSE_NO":"２１３號","E_COORD97":168026.24228899999,"N_COORD97":2542982.6296600001,"ADDRESS":"樹林街二段２１３號","OBJECTID":678948},"geometry":{"x":168026.24228889775,"y":2542982.6296599675}},{"attributes":{"ID":678976,"DIS_CODE":0,"TOWNNAME":"中西區","LI":"進學里","LIN":"7鄰","STREET":"樹林街","SECT":"二段","MAREA":" ","LANE":" ","ALLEY":" ","HOUSE_NO":"２１５號","E_COORD97":168020.08079499999,"N_COORD97":2542986.7000500001,"ADDRESS":"樹林街二段２１５號","OBJECTID":678949},"geometry":{"x":168020.08079457469,"y":2542986.7000529412}},{"attributes":{"ID":678977,"DIS_CODE":0,"TOWNNAME":"中西區","LI":"進學里","LIN":"7鄰","STREET":"樹林街","SECT":"二段","MAREA":" ","LANE":" ","ALLEY":" ","HOUSE_NO":"２１７號","E_COORD97":168014.52967600001,"N_COORD97":2542986.5300400001,"ADDRESS":"樹林街二段２１７號","OBJECTID":678950},"geometry":{"x":168014.52967586182,"y":2542986.5300365277}},{"attributes":{"ID":678978,"DIS_CODE":0,"TOWNNAME":"中西區","LI":"進學里","LIN":"3鄰","STREET":"樹林街","SECT":"二段","MAREA":" ","LANE":" ","ALLEY":" ","HOUSE_NO":"１６３號","E_COORD97":168148.24317599999,"N_COORD97":2542982.8596800002,"ADDRESS":"樹林街二段１６３號","OBJECTID":678951},"geometry":{"x":168148.24317580555,"y":2542982.8596821781}},{"attributes":{"ID":678979,"DIS_CODE":0,"TOWNNAME":"中西區","LI":"進學里","LIN":"3鄰","STREET":"樹林街","SECT":"二段","MAREA":" ","LANE":" ","ALLEY":" ","HOUSE_NO":"１６７號","E_COORD97":168128.81838400001,"N_COORD97":2542978.8993000002,"ADDRESS":"樹林街二段１６７號","OBJECTID":678952},"geometry":{"x":168128.81838446949,"y":2542978.8992998265}},{"attributes":{"ID":678980,"DIS_CODE":0,"TOWNNAME":"中西區","LI":"進學里","LIN":"3鄰","STREET":"樹林街","SECT":"二段","MAREA":" ","LANE":" ","ALLEY":" ","HOUSE_NO":"１７１號","E_COORD97":168120.90824700001,"N_COORD97":2542984.35983,"ADDRESS":"樹林街二段１７１號","OBJECTID":678953},"geometry":{"x":168120.9082465088,"y":2542984.3598270062}},{"attributes":{"ID":678981,"DIS_CODE":0,"TOWNNAME":"中西區","LI":"進學里","LIN":"3鄰","STREET":"樹林街","SECT":"二段","MAREA":" ","LANE":" ","ALLEY":" ","HOUSE_NO":"１７３號","E_COORD97":168112.99810900001,"N_COORD97":2542983.7997699999,"ADDRESS":"樹林街二段１７３號","OBJECTID":678954},"geometry":{"x":168112.99810855091,"y":2542983.7997729369}},{"attributes":{"ID":678982,"DIS_CODE":0,"TOWNNAME":"中西區","LI":"進學里","LIN":"3鄰","STREET":"樹林街","SECT":"二段","MAREA":" ","LANE":"１７５巷","ALLEY":" ","HOUSE_NO":"１０號","E_COORD97":168089.61412400001,"N_COORD97":2542927.97438,"ADDRESS":"樹林街二段１７５巷１０號","OBJECTID":678955},"geometry":{"x":168089.61412407458,"y":2542927.97438333}},{"attributes":{"ID":678983,"DIS_CODE":0,"TOWNNAME":"中西區","LI":"進學里","LIN":"3鄰","STREET":"樹林街","SECT":"二段","MAREA":" ","LANE":"１７５巷","ALLEY":" ","HOUSE_NO":"１１號一樓","E_COORD97":168109.937982,"N_COORD97":2542919.5235700002,"ADDRESS":"樹林街二段１７５巷１１號一樓","OBJECTID":678956},"geometry":{"x":168109.93798218854,"y":2542919.5235674549}},{"attributes":{"ID":678984,"DIS_CODE":0,"TOWNNAME":"中西區","LI":"進學里","LIN":"3鄰","STREET":"樹林街","SECT":"二段","MAREA":" ","LANE":"１７５巷","ALLEY":" ","HOUSE_NO":"１１號二樓之１","E_COORD97":168109.937982,"N_COORD97":2542919.5235700002,"ADDRESS":"樹林街二段１７５巷１１號二樓之１","OBJECTID":678957},"geometry":{"x":168109.93798218854,"y":2542919.5235674549}},{"attributes":{"ID":678985,"DIS_CODE":0,"TOWNNAME":"中西區","LI":"進學里","LIN":"3鄰","STREET":"樹林街","SECT":"二段","MAREA":" ","LANE":"１７５巷","ALLEY":" ","HOUSE_NO":"１１號二樓之２","E_COORD97":168109.937982,"N_COORD97":2542919.5235700002,"ADDRESS":"樹林街二段１７５巷１１號二樓之２","OBJECTID":678958},"geometry":{"x":168109.93798218854,"y":2542919.5235674549}},{"attributes":{"ID":678986,"DIS_CODE":0,"TOWNNAME":"中西區","LI":"進學里","LIN":"3鄰","STREET":"樹林街","SECT":"二段","MAREA":" ","LANE":"１７５巷","ALLEY":" ","HOUSE_NO":"１１號三樓之１","E_COORD97":168109.937982,"N_COORD97":2542919.5235700002,"ADDRESS":"樹林街二段１７５巷１１號三樓之１","OBJECTID":678959},"geometry":{"x":168109.93798218854,"y":2542919.5235674549}},{"attributes":{"ID":678987,"DIS_CODE":0,"TOWNNAME":"中西區","LI":"進學里","LIN":"3鄰","STREET":"樹林街","SECT":"二段","MAREA":" ","LANE":"１７５巷","ALLEY":" ","HOUSE_NO":"１１號三樓之２","E_COORD97":168109.937982,"N_COORD97":2542919.5235700002,"ADDRESS":"樹林街二段１７５巷１１號三樓之２","OBJECTID":678960},"geometry":{"x":168109.93798218854,"y":2542919.5235674549}},{"attributes":{"ID":678988,"DIS_CODE":0,"TOWNNAME":"中西區","LI":"進學里","LIN":"3鄰","STREET":"樹林街","SECT":"二段","MAREA":" ","LANE":"１７５巷","ALLEY":" ","HOUSE_NO":"１１號三樓之３","E_COORD97":168109.937982,"N_COORD97":2542919.5235700002,"ADDRESS":"樹林街二段１７５巷１１號三樓之３","OBJECTID":678961},"geometry":{"x":168109.93798218854,"y":2542919.5235674549}},{"attributes":{"ID":678989,"DIS_CODE":0,"TOWNNAME":"中西區","LI":"進學里","LIN":"3鄰","STREET":"樹林街","SECT":"二段","MAREA":" ","LANE":"１７５巷","ALLEY":" ","HOUSE_NO":"１１號五樓之１","E_COORD97":168109.937982,"N_COORD97":2542919.5235700002,"ADDRESS":"樹林街二段１７５巷１１號五樓之１","OBJECTID":678962},"geometry":{"x":168109.93798218854,"y":2542919.5235674549}},{"attributes":{"ID":678990,"DIS_CODE":0,"TOWNNAME":"中西區","LI":"進學里","LIN":"3鄰","STREET":"樹林街","SECT":"二段","MAREA":" ","LANE":"１７５巷","ALLEY":" ","HOUSE_NO":"１１號五樓之２","E_COORD97":168109.937982,"N_COORD97":2542919.5235700002,"ADDRESS":"樹林街二段１７５巷１１號五樓之２","OBJECTID":678963},"geometry":{"x":168109.93798218854,"y":2542919.5235674549}},{"attributes":{"ID":678991,"DIS_CODE":0,"TOWNNAME":"中西區","LI":"進學里","LIN":"3鄰","STREET":"樹林街","SECT":"二段","MAREA":" ","LANE":"１７５巷","ALLEY":" ","HOUSE_NO":"１１號六樓之１","E_COORD97":168109.937982,"N_COORD97":2542919.5235700002,"ADDRESS":"樹林街二段１７５巷１１號六樓之１","OBJECTID":678964},"geometry":{"x":168109.93798218854,"y":2542919.5235674549}},{"attributes":{"ID":678992,"DIS_CODE":0,"TOWNNAME":"中西區","LI":"進學里","LIN":"3鄰","STREET":"樹林街","SECT":"二段","MAREA":" ","LANE":"１７５巷","ALLEY":" ","HOUSE_NO":"１１號六樓之２","E_COORD97":168109.937982,"N_COORD97":2542919.5235700002,"ADDRESS":"樹林街二段１７５巷１１號六樓之２","OBJECTID":678965},"geometry":{"x":168109.93798218854,"y":2542919.5235674549}},{"attributes":{"ID":678993,"DIS_CODE":0,"TOWNNAME":"中西區","LI":"進學里","LIN":"3鄰","STREET":"樹林街","SECT":"二段","MAREA":" ","LANE":"１７５巷","ALLEY":" ","HOUSE_NO":"１１號四樓之１","E_COORD97":168109.937982,"N_COORD97":2542919.5235700002,"ADDRESS":"樹林街二段１７５巷１１號四樓之１","OBJECTID":678966},"geometry":{"x":168109.93798218854,"y":2542919.5235674549}},{"attributes":{"ID":678994,"DIS_CODE":0,"TOWNNAME":"中西區","LI":"進學里","LIN":"3鄰","STREET":"樹林街","SECT":"二段","MAREA":" ","LANE":"１７５巷","ALLEY":" ","HOUSE_NO":"１１號四樓之２","E_COORD97":168109.937982,"N_COORD97":2542919.5235700002,"ADDRESS":"樹林街二段１７５巷１１號四樓之２","OBJECTID":678967},"geometry":{"x":168109.93798218854,"y":2542919.5235674549}},{"attributes":{"ID":678995,"DIS_CODE":0,"TOWNNAME":"中西區","LI":"進學里","LIN":"3鄰","STREET":"樹林街","SECT":"二段","MAREA":" ","LANE":"１７５巷","ALLEY":" ","HOUSE_NO":"１２號","E_COORD97":168089.98529800001,"N_COORD97":2542919.3135500001,"ADDRESS":"樹林街二段１７５巷１２號","OBJECTID":678968},"geometry":{"x":168089.98529843148,"y":2542919.313547181}},{"attributes":{"ID":678996,"DIS_CODE":0,"TOWNNAME":"中西區","LI":"進學里","LIN":"3鄰","STREET":"樹林街","SECT":"二段","MAREA":" ","LANE":"１７５巷","ALLEY":" ","HOUSE_NO":"１３號","E_COORD97":168109.583304,"N_COORD97":2542914.4230800001,"ADDRESS":"樹林街二段１７５巷１３號","OBJECTID":678969},"geometry":{"x":168109.58330446854,"y":2542914.4230750352}},{"attributes":{"ID":678997,"DIS_CODE":0,"TOWNNAME":"中西區","LI":"進學里","LIN":"3鄰","STREET":"樹林街","SECT":"二段","MAREA":" ","LANE":"１７５巷","ALLEY":" ","HOUSE_NO":"１４號","E_COORD97":168089.13572200001,"N_COORD97":2542913.8530199998,"ADDRESS":"樹林街二段１７５巷１４號","OBJECTID":678970},"geometry":{"x":168089.13572157174,"y":2542913.8530199975}},{"attributes":{"ID":678998,"DIS_CODE":0,"TOWNNAME":"中西區","LI":"進學里","LIN":"3鄰","STREET":"樹林街","SECT":"二段","MAREA":" ","LANE":"１７５巷","ALLEY":" ","HOUSE_NO":"１號","E_COORD97":168115.2499,"N_COORD97":2542956.0770999999,"ADDRESS":"樹林街二段１７５巷１號","OBJECTID":678971},"geometry":{"x":168115.24989964813,"y":2542956.0770964809}},{"attributes":{"ID":678999,"DIS_CODE":0,"TOWNNAME":"中西區","LI":"進學里","LIN":"3鄰","STREET":"樹林街","SECT":"二段","MAREA":" ","LANE":"１７５巷","ALLEY":" ","HOUSE_NO":"３號","E_COORD97":168110.160687,"N_COORD97":2542950.8065900002,"ADDRESS":"樹林街二段１７５巷３號","OBJECTID":678972},"geometry":{"x":168110.16068680212,"y":2542950.8065876421}},{"attributes":{"ID":679000,"DIS_CODE":0,"TOWNNAME":"中西區","LI":"進學里","LIN":"3鄰","STREET":"樹林街","SECT":"二段","MAREA":" ","LANE":"１７５巷","ALLEY":" ","HOUSE_NO":"４號","E_COORD97":168093.09491499999,"N_COORD97":2542951.9267000002,"ADDRESS":"樹林街二段１７５巷４號","OBJECTID":678973},"geometry":{"x":168093.09491471015,"y":2542951.9266957864}},{"attributes":{"ID":679001,"DIS_CODE":0,"TOWNNAME":"中西區","LI":"進學里","LIN":"3鄰","STREET":"樹林街","SECT":"二段","MAREA":" ","LANE":"１７５巷","ALLEY":" ","HOUSE_NO":"５號一樓","E_COORD97":168115.340631,"N_COORD97":2542942.3957799999,"ADDRESS":"樹林街二段１７５巷５號一樓","OBJECTID":678974},"geometry":{"x":168115.34063115809,"y":2542942.3957756311}},{"attributes":{"ID":679002,"DIS_CODE":0,"TOWNNAME":"中西區","LI":"進學里","LIN":"3鄰","STREET":"樹林街","SECT":"二段","MAREA":" ","LANE":"１７５巷","ALLEY":" ","HOUSE_NO":"５號二樓","E_COORD97":168115.340631,"N_COORD97":2542942.3957799999,"ADDRESS":"樹林街二段１７５巷５號二樓","OBJECTID":678975},"geometry":{"x":168115.34063115809,"y":2542942.3957756311}},{"attributes":{"ID":679003,"DIS_CODE":0,"TOWNNAME":"中西區","LI":"進學里","LIN":"3鄰","STREET":"樹林街","SECT":"二段","MAREA":" ","LANE":"１７５巷","ALLEY":" ","HOUSE_NO":"５號三樓","E_COORD97":168115.340631,"N_COORD97":2542942.3957799999,"ADDRESS":"樹林街二段１７５巷５號三樓","OBJECTID":678976},"geometry":{"x":168115.34063115809,"y":2542942.3957756311}},{"attributes":{"ID":679004,"DIS_CODE":0,"TOWNNAME":"中西區","LI":"進學里","LIN":"3鄰","STREET":"樹林街","SECT":"二段","MAREA":" ","LANE":"１７５巷","ALLEY":" ","HOUSE_NO":"５號五樓","E_COORD97":168115.340631,"N_COORD97":2542942.3957799999,"ADDRESS":"樹林街二段１７５巷５號五樓","OBJECTID":678977},"geometry":{"x":168115.34063115809,"y":2542942.3957756311}},{"attributes":{"ID":679005,"DIS_CODE":0,"TOWNNAME":"中西區","LI":"進學里","LIN":"3鄰","STREET":"樹林街","SECT":"二段","MAREA":" ","LANE":"１７５巷","ALLEY":" ","HOUSE_NO":"５號四樓","E_COORD97":168115.340631,"N_COORD97":2542942.3957799999,"ADDRESS":"樹林街二段１７５巷５號四樓","OBJECTID":678978},"geometry":{"x":168115.34063115809,"y":2542942.3957756311}},{"attributes":{"ID":679006,"DIS_CODE":0,"TOWNNAME":"中西區","LI":"進學里","LIN":"3鄰","STREET":"樹林街","SECT":"二段","MAREA":" ","LANE":"１７５巷","ALLEY":" ","HOUSE_NO":"７號二樓","E_COORD97":168114.59003399999,"N_COORD97":2542935.3350900002,"ADDRESS":"樹林街二段１７５巷７號二樓","OBJECTID":678979},"geometry":{"x":168114.5900341263,"y":2542935.3350939676}},{"attributes":{"ID":679007,"DIS_CODE":0,"TOWNNAME":"中西區","LI":"進學里","LIN":"3鄰","STREET":"樹林街","SECT":"二段","MAREA":" ","LANE":"１７５巷","ALLEY":" ","HOUSE_NO":"７號三樓","E_COORD97":168114.59003399999,"N_COORD97":2542935.3350900002,"ADDRESS":"樹林街二段１７５巷７號三樓","OBJECTID":678980},"geometry":{"x":168114.5900341263,"y":2542935.3350939676}},{"attributes":{"ID":679008,"DIS_CODE":0,"TOWNNAME":"中西區","LI":"進學里","LIN":"3鄰","STREET":"樹林街","SECT":"二段","MAREA":" ","LANE":"１７５巷","ALLEY":" ","HOUSE_NO":"７號五樓","E_COORD97":168114.59003399999,"N_COORD97":2542935.3350900002,"ADDRESS":"樹林街二段１７５巷７號五樓","OBJECTID":678981},"geometry":{"x":168114.5900341263,"y":2542935.3350939676}},{"attributes":{"ID":679009,"DIS_CODE":0,"TOWNNAME":"中西區","LI":"進學里","LIN":"3鄰","STREET":"樹林街","SECT":"二段","MAREA":" ","LANE":"１７５巷","ALLEY":" ","HOUSE_NO":"７號四樓","E_COORD97":168114.59003399999,"N_COORD97":2542935.3350900002,"ADDRESS":"樹林街二段１７５巷７號四樓","OBJECTID":678982},"geometry":{"x":168114.5900341263,"y":2542935.3350939676}},{"attributes":{"ID":679010,"DIS_CODE":0,"TOWNNAME":"中西區","LI":"進學里","LIN":"3鄰","STREET":"樹林街","SECT":"二段","MAREA":" ","LANE":"１７５巷","ALLEY":" ","HOUSE_NO":"８號","E_COORD97":168092.06387499999,"N_COORD97":2542933.8049499998,"ADDRESS":"樹林街二段１７５巷８號","OBJECTID":678983},"geometry":{"x":168092.06387483049,"y":2542933.8049462382}},{"attributes":{"ID":679011,"DIS_CODE":0,"TOWNNAME":"中西區","LI":"進學里","LIN":"3鄰","STREET":"樹林街","SECT":"二段","MAREA":" ","LANE":"１７５巷","ALLEY":" ","HOUSE_NO":"９號一樓","E_COORD97":168114.11163199999,"N_COORD97":2542929.2245,"ADDRESS":"樹林街二段１７５巷９號一樓","OBJECTID":678984},"geometry":{"x":168114.11163162161,"y":2542929.2245040238}},{"attributes":{"ID":679012,"DIS_CODE":0,"TOWNNAME":"中西區","LI":"進學里","LIN":"3鄰","STREET":"樹林街","SECT":"二段","MAREA":" ","LANE":"１７５巷","ALLEY":" ","HOUSE_NO":"９號二樓","E_COORD97":168114.11163199999,"N_COORD97":2542929.2245,"ADDRESS":"樹林街二段１７５巷９號二樓","OBJECTID":678985},"geometry":{"x":168114.11163162161,"y":2542929.2245040238}},{"attributes":{"ID":679013,"DIS_CODE":0,"TOWNNAME":"中西區","LI":"進學里","LIN":"3鄰","STREET":"樹林街","SECT":"二段","MAREA":" ","LANE":"１７５巷","ALLEY":" ","HOUSE_NO":"９號三樓","E_COORD97":168114.11163199999,"N_COORD97":2542929.2245,"ADDRESS":"樹林街二段１７５巷９號三樓","OBJECTID":678986},"geometry":{"x":168114.11163162161,"y":2542929.2245040238}},{"attributes":{"ID":679014,"DIS_CODE":0,"TOWNNAME":"中西區","LI":"進學里","LIN":"3鄰","STREET":"樹林街","SECT":"二段","MAREA":" ","LANE":"１７５巷","ALLEY":" ","HOUSE_NO":"９號五樓","E_COORD97":168114.11163199999,"N_COORD97":2542929.2245,"ADDRESS":"樹林街二段１７５巷９號五樓","OBJECTID":678987},"geometry":{"x":168114.11163162161,"y":2542929.2245040238}},{"attributes":{"ID":679015,"DIS_CODE":0,"TOWNNAME":"中西區","LI":"進學里","LIN":"3鄰","STREET":"樹林街","SECT":"二段","MAREA":" ","LANE":"１７５巷","ALLEY":" ","HOUSE_NO":"９號四樓","E_COORD97":168114.11163199999,"N_COORD97":2542929.2245,"ADDRESS":"樹林街二段１７５巷９號四樓","OBJECTID":678988},"geometry":{"x":168114.11163162161,"y":2542929.2245040238}},{"attributes":{"ID":679016,"DIS_CODE":0,"TOWNNAME":"中西區","LI":"進學里","LIN":"3鄰","STREET":"樹林街","SECT":"二段","MAREA":" ","LANE":" ","ALLEY":" ","HOUSE_NO":"１７７號","E_COORD97":168086.39728,"N_COORD97":2542983.6997600002,"ADDRESS":"樹林街二段１７７號","OBJECTID":678989},"geometry":{"x":168086.39727964811,"y":2542983.6997632831}},{"attributes":{"ID":679017,"DIS_CODE":0,"TOWNNAME":"中西區","LI":"進學里","LIN":"7鄰","STREET":"樹林街","SECT":"二段","MAREA":" ","LANE":" ","ALLEY":" ","HOUSE_NO":"１８３號","E_COORD97":168076.870471,"N_COORD97":2542980.1294200001,"ADDRESS":"樹林街二段１８３號","OBJECTID":678990},"geometry":{"x":168076.870471159,"y":2542980.1294185873}},{"attributes":{"ID":679018,"DIS_CODE":0,"TOWNNAME":"中西區","LI":"進學里","LIN":"7鄰","STREET":"樹林街","SECT":"二段","MAREA":" ","LANE":" ","ALLEY":" ","HOUSE_NO":"１８５號","E_COORD97":168077.150914,"N_COORD97":2542971.3785700002,"ADDRESS":"樹林街二段１８５號","OBJECTID":678991},"geometry":{"x":168077.15091400687,"y":2542971.3785737436}},{"attributes":{"ID":679019,"DIS_CODE":0,"TOWNNAME":"中西區","LI":"進學里","LIN":"7鄰","STREET":"樹林街","SECT":"二段","MAREA":" ","LANE":" ","ALLEY":" ","HOUSE_NO":"１８７號","E_COORD97":168075.45176,"N_COORD97":2542959.51743,"ADDRESS":"樹林街二段１８７號","OBJECTID":678992},"geometry":{"x":168075.4517602846,"y":2542959.5174286254}},{"attributes":{"ID":679020,"DIS_CODE":0,"TOWNNAME":"中西區","LI":"進學里","LIN":"7鄰","STREET":"樹林街","SECT":"二段","MAREA":" ","LANE":" ","ALLEY":" ","HOUSE_NO":"１８９號","E_COORD97":168069.52121899999,"N_COORD97":2542959.7074500001,"ADDRESS":"樹林街二段１８９號","OBJECTID":678993},"geometry":{"x":168069.52121889498,"y":2542959.7074469682}},{"attributes":{"ID":679021,"DIS_CODE":0,"TOWNNAME":"中西區","LI":"進學里","LIN":"7鄰","STREET":"樹林街","SECT":"二段","MAREA":" ","LANE":" ","ALLEY":" ","HOUSE_NO":"１９１號","E_COORD97":168068.57266199999,"N_COORD97":2542971.8486199998,"ADDRESS":"樹林街二段１９１號","OBJECTID":678994},"geometry":{"x":168068.57266220637,"y":2542971.8486191276}},{"attributes":{"ID":679022,"DIS_CODE":0,"TOWNNAME":"中西區","LI":"進學里","LIN":"7鄰","STREET":"樹林街","SECT":"二段","MAREA":" ","LANE":" ","ALLEY":" ","HOUSE_NO":"１９３號","E_COORD97":168068.39119900001,"N_COORD97":2542980.02941,"ADDRESS":"樹林街二段１９３號","OBJECTID":678995},"geometry":{"x":168068.39119918644,"y":2542980.0294089299}},{"attributes":{"ID":679023,"DIS_CODE":0,"TOWNNAME":"中西區","LI":"進學里","LIN":"7鄰","STREET":"樹林街","SECT":"二段","MAREA":" ","LANE":" ","ALLEY":" ","HOUSE_NO":"１９５號","E_COORD97":168062.831832,"N_COORD97":2542983.8897799999,"ADDRESS":"樹林街二段１９５號","OBJECTID":678996},"geometry":{"x":168062.83183215465,"y":2542983.8897816259}},{"attributes":{"ID":679024,"DIS_CODE":0,"TOWNNAME":"中西區","LI":"進學里","LIN":"7鄰","STREET":"樹林街","SECT":"二段","MAREA":" ","LANE":" ","ALLEY":" ","HOUSE_NO":"１９７號","E_COORD97":168056.61259999999,"N_COORD97":2542980.7894799998,"ADDRESS":"樹林街二段１９７號","OBJECTID":678997},"geometry":{"x":168056.61259960011,"y":2542980.7894823104}},{"attributes":{"ID":679025,"DIS_CODE":0,"TOWNNAME":"中西區","LI":"進學里","LIN":"7鄰","STREET":"樹林街","SECT":"二段","MAREA":" ","LANE":" ","ALLEY":" ","HOUSE_NO":"１９９號","E_COORD97":168051.886313,"N_COORD97":2542980.4194499999,"ADDRESS":"樹林街二段１９９號","OBJECTID":678998},"geometry":{"x":168051.88631279022,"y":2542980.4194465857}},{"attributes":{"ID":679026,"DIS_CODE":0,"TOWNNAME":"中西區","LI":"進學里","LIN":"7鄰","STREET":"樹林街","SECT":"二段","MAREA":" ","LANE":" ","ALLEY":" ","HOUSE_NO":"２０３號","E_COORD97":168072.68032499999,"N_COORD97":2542945.51608,"ADDRESS":"樹林街二段２０３號","OBJECTID":678999},"geometry":{"x":168072.68032508809,"y":2542945.5160768777}},{"attributes":{"ID":679027,"DIS_CODE":0,"TOWNNAME":"中西區","LI":"進學里","LIN":"7鄰","STREET":"樹林街","SECT":"二段","MAREA":" ","LANE":" ","ALLEY":" ","HOUSE_NO":"２０５號","E_COORD97":168035.612379,"N_COORD97":2542979.6793800001,"ADDRESS":"樹林街二段２０５號","OBJECTID":679000},"geometry":{"x":168035.61237932649,"y":2542979.6793751381}}]}