{"displayFieldName":"TOWNNAME","fieldAliases":{"ID":"ID","DIS_CODE":"DIS_CODE","TOWNNAME":"TOWNNAME","LI":"LI","LIN":"LIN","STREET":"STREET","SECT":"SECT","MAREA":"MAREA","LANE":"LANE","ALLEY":"ALLEY","HOUSE_NO":"HOUSE_NO","E_COORD97":"E_COORD97","N_COORD97":"N_COORD97","ADDRESS":"ADDRESS","OBJECTID":"OBJECTID"},"geometryType":"esriGeometryPoint","spatialReference":{"wkid":102443,"latestWkid":3826},"fields":[{"name":"ID","type":"esriFieldTypeDouble","alias":"ID"},{"name":"DIS_CODE","type":"esriFieldTypeInteger","alias":"DIS_CODE"},{"name":"TOWNNAME","type":"esriFieldTypeString","alias":"TOWNNAME","length":8},{"name":"LI","type":"esriFieldTypeString","alias":"LI","length":8},{"name":"LIN","type":"esriFieldTypeString","alias":"LIN","length":12},{"name":"STREET","type":"esriFieldTypeString","alias":"STREET","length":20},{"name":"SECT","type":"esriFieldTypeString","alias":"SECT","length":8},{"name":"MAREA","type":"esriFieldTypeString","alias":"MAREA","length":12},{"name":"LANE","type":"esriFieldTypeString","alias":"LANE","length":10},{"name":"ALLEY","type":"esriFieldTypeString","alias":"ALLEY","length":10},{"name":"HOUSE_NO","type":"esriFieldTypeString","alias":"HOUSE_NO","length":20},{"name":"E_COORD97","type":"esriFieldTypeDouble","alias":"E_COORD97"},{"name":"N_COORD97","type":"esriFieldTypeDouble","alias":"N_COORD97"},{"name":"ADDRESS","type":"esriFieldTypeString","alias":"ADDRESS","length":50},{"name":"OBJECTID","type":"esriFieldTypeOID","alias":"OBJECTID"}],"features":[{"attributes":{"ID":337410,"DIS_CODE":0,"TOWNNAME":"中西區","LI":"協和里","LIN":"8鄰","STREET":"臨安路","SECT":"一段","MAREA":" ","LANE":" ","ALLEY":" ","HOUSE_NO":"２３７號","E_COORD97":167313.10000000001,"N_COORD97":2544688.7799999998,"ADDRESS":"臨安路一段２３７號","OBJECTID":337401},"geometry":{"x":167313.09999999963,"y":2544688.7799999993}},{"attributes":{"ID":337411,"DIS_CODE":0,"TOWNNAME":"中西區","LI":"協和里","LIN":"8鄰","STREET":"臨安路","SECT":"一段","MAREA":" ","LANE":" ","ALLEY":" ","HOUSE_NO":"２３７號之１","E_COORD97":167304.54000000001,"N_COORD97":2544698.6000000001,"ADDRESS":"臨安路一段２３７號之１","OBJECTID":337402},"geometry":{"x":167304.5400000019,"y":2544698.6000000015}},{"attributes":{"ID":337412,"DIS_CODE":0,"TOWNNAME":"中西區","LI":"協和里","LIN":"8鄰","STREET":"臨安路","SECT":"一段","MAREA":" ","LANE":" ","ALLEY":" ","HOUSE_NO":"２３９號","E_COORD97":167317.06,"N_COORD97":2544691.1600000001,"ADDRESS":"臨安路一段２３９號","OBJECTID":337403},"geometry":{"x":167317.05999999959,"y":2544691.1600000039}},{"attributes":{"ID":337413,"DIS_CODE":0,"TOWNNAME":"新化區","LI":"竹林里","LIN":"5鄰","STREET":"仁愛街","SECT":" ","MAREA":" ","LANE":" ","ALLEY":" ","HOUSE_NO":"８３號","E_COORD97":178844.67999999999,"N_COORD97":2548562.25,"ADDRESS":"仁愛街８３號","OBJECTID":337404},"geometry":{"x":178844.68000000063,"y":2548562.2500000037}},{"attributes":{"ID":337414,"DIS_CODE":0,"TOWNNAME":"安南區","LI":"溪頂里","LIN":"5鄰","STREET":"府安路","SECT":"四段","MAREA":" ","LANE":"１５１巷","ALLEY":" ","HOUSE_NO":"３５號","E_COORD97":168850.56,"N_COORD97":2547315.0499999998,"ADDRESS":"府安路四段１５１巷３５號","OBJECTID":337405},"geometry":{"x":168850.56000000052,"y":2547315.0500000026}},{"attributes":{"ID":337415,"DIS_CODE":0,"TOWNNAME":"安南區","LI":"溪頂里","LIN":"5鄰","STREET":"府安路","SECT":"四段","MAREA":" ","LANE":"１５１巷","ALLEY":" ","HOUSE_NO":"３７號","E_COORD97":168857.67999999999,"N_COORD97":2547316.3999999999,"ADDRESS":"府安路四段１５１巷３７號","OBJECTID":337406},"geometry":{"x":168857.68000000156,"y":2547316.4000000004}},{"attributes":{"ID":337416,"DIS_CODE":0,"TOWNNAME":"安南區","LI":"溪頂里","LIN":"5鄰","STREET":"府安路","SECT":"四段","MAREA":" ","LANE":"１５１巷","ALLEY":" ","HOUSE_NO":"３９號","E_COORD97":168864.69,"N_COORD97":2547317.5699999998,"ADDRESS":"府安路四段１５１巷３９號","OBJECTID":337407},"geometry":{"x":168864.69000000041,"y":2547317.5700000022}},{"attributes":{"ID":337417,"DIS_CODE":0,"TOWNNAME":"安南區","LI":"溪頂里","LIN":"5鄰","STREET":"府安路","SECT":"四段","MAREA":" ","LANE":"１５１巷","ALLEY":" ","HOUSE_NO":"４１號","E_COORD97":168871.06,"N_COORD97":2547318.3500000001,"ADDRESS":"府安路四段１５１巷４１號","OBJECTID":337408},"geometry":{"x":168871.05999999959,"y":2547318.3500000015}},{"attributes":{"ID":337418,"DIS_CODE":0,"TOWNNAME":"安南區","LI":"溪頂里","LIN":"5鄰","STREET":"府安路","SECT":"四段","MAREA":" ","LANE":"１５１巷","ALLEY":" ","HOUSE_NO":"４３號","E_COORD97":168879.37,"N_COORD97":2547319.52,"ADDRESS":"府安路四段１５１巷４３號","OBJECTID":337409},"geometry":{"x":168879.37000000104,"y":2547319.5200000014}},{"attributes":{"ID":337419,"DIS_CODE":0,"TOWNNAME":"安南區","LI":"溪頂里","LIN":"5鄰","STREET":"府安路","SECT":"四段","MAREA":" ","LANE":"１５１巷","ALLEY":" ","HOUSE_NO":"４５號","E_COORD97":168887.54999999999,"N_COORD97":2547321.7200000002,"ADDRESS":"府安路四段１５１巷４５號","OBJECTID":337410},"geometry":{"x":168887.55000000168,"y":2547321.7200000007}},{"attributes":{"ID":337420,"DIS_CODE":0,"TOWNNAME":"永康區","LI":"\u25A0行里","LIN":"1鄰","STREET":"中正路","SECT":" ","MAREA":" ","LANE":"９７０巷","ALLEY":" ","HOUSE_NO":"３號","E_COORD97":171949.67999999999,"N_COORD97":2548986.9700000002,"ADDRESS":"中正路９７０巷３號","OBJECTID":337411},"geometry":{"x":171949.68000000156,"y":2548986.9700000025}},{"attributes":{"ID":337421,"DIS_CODE":0,"TOWNNAME":"永康區","LI":"大橋里","LIN":"1鄰","STREET":"大橋一街","SECT":" ","MAREA":" ","LANE":"７３巷","ALLEY":" ","HOUSE_NO":"１５７號","E_COORD97":170612.35000000001,"N_COORD97":2546680.7400000002,"ADDRESS":"大橋一街７３巷１５７號","OBJECTID":337412},"geometry":{"x":170612.34999999963,"y":2546680.7399999984}},{"attributes":{"ID":337422,"DIS_CODE":0,"TOWNNAME":"永康區","LI":"五王里","LIN":"1鄰","STREET":"成功路","SECT":" ","MAREA":" ","LANE":"１３０巷","ALLEY":" ","HOUSE_NO":"３４號","E_COORD97":171544.66,"N_COORD97":2545542.5299999998,"ADDRESS":"成功路１３０巷３４號","OBJECTID":337413},"geometry":{"x":171544.66000000015,"y":2545542.5300000012}},{"attributes":{"ID":337423,"DIS_CODE":0,"TOWNNAME":"永康區","LI":"龍潭里","LIN":"1鄰","STREET":"龍國街","SECT":" ","MAREA":" ","LANE":"３３０巷","ALLEY":" ","HOUSE_NO":"２號","E_COORD97":174649.32999999999,"N_COORD97":2547973.9199999999,"ADDRESS":"龍國街３３０巷２號","OBJECTID":337414},"geometry":{"x":174649.33000000007,"y":2547973.9199999999}},{"attributes":{"ID":337424,"DIS_CODE":0,"TOWNNAME":"安南區","LI":"海西里","LIN":"1鄰","STREET":"海環街","SECT":" ","MAREA":" ","LANE":"５３４巷","ALLEY":" ","HOUSE_NO":"１２號","E_COORD97":166278.01000000001,"N_COORD97":2549172.3100000001,"ADDRESS":"海環街５３４巷１２號","OBJECTID":337415},"geometry":{"x":166278.00999999978,"y":2549172.3100000005}},{"attributes":{"ID":337425,"DIS_CODE":0,"TOWNNAME":"安南區","LI":"海西里","LIN":"1鄰","STREET":"海環街","SECT":" ","MAREA":" ","LANE":"５３４巷","ALLEY":" ","HOUSE_NO":"１４號","E_COORD97":166280.10999999999,"N_COORD97":2549166.46,"ADDRESS":"海環街５３４巷１４號","OBJECTID":337416},"geometry":{"x":166280.11000000034,"y":2549166.4600000028}},{"attributes":{"ID":337426,"DIS_CODE":0,"TOWNNAME":"永康區","LI":"勝利里","LIN":"1鄰","STREET":"勝利街","SECT":" ","MAREA":" ","LANE":"１巷","ALLEY":" ","HOUSE_NO":"３號","E_COORD97":171127.28,"N_COORD97":2544573.7599999998,"ADDRESS":"勝利街１巷３號","OBJECTID":337417},"geometry":{"x":171127.27999999933,"y":2544573.7599999998}},{"attributes":{"ID":337427,"DIS_CODE":0,"TOWNNAME":"永康區","LI":"神洲里","LIN":"1鄰","STREET":"忠孝路","SECT":" ","MAREA":" ","LANE":"６巷","ALLEY":" ","HOUSE_NO":"２號","E_COORD97":172103.70000000001,"N_COORD97":2544566.75,"ADDRESS":"忠孝路６巷２號","OBJECTID":337418},"geometry":{"x":172103.70000000019,"y":2544566.75}},{"attributes":{"ID":337428,"DIS_CODE":0,"TOWNNAME":"永康區","LI":"復國里","LIN":"1鄰","STREET":"復國二路","SECT":" ","MAREA":" ","LANE":"２８巷","ALLEY":" ","HOUSE_NO":"２號","E_COORD97":172862.64000000001,"N_COORD97":2544889.7799999998,"ADDRESS":"復國二路２８巷２號","OBJECTID":337419},"geometry":{"x":172862.6400000006,"y":2544889.7800000031}},{"attributes":{"ID":337429,"DIS_CODE":0,"TOWNNAME":"永康區","LI":"復國里","LIN":"1鄰","STREET":"復國二路","SECT":" ","MAREA":" ","LANE":"２８巷","ALLEY":" ","HOUSE_NO":"４號","E_COORD97":172870.54000000001,"N_COORD97":2544889.7799999998,"ADDRESS":"復國二路２８巷４號","OBJECTID":337420},"geometry":{"x":172870.54000000097,"y":2544889.7800000031}},{"attributes":{"ID":337430,"DIS_CODE":0,"TOWNNAME":"永康區","LI":"崑山里","LIN":"1鄰","STREET":"永大路","SECT":"一段","MAREA":" ","LANE":"２８７巷","ALLEY":" ","HOUSE_NO":"９６號","E_COORD97":173784.29999999999,"N_COORD97":2544385.98,"ADDRESS":"永大路一段２８７巷９６號","OBJECTID":337421},"geometry":{"x":173784.29999999981,"y":2544385.9800000004}},{"attributes":{"ID":337431,"DIS_CODE":0,"TOWNNAME":"永康區","LI":"復國里","LIN":"1鄰","STREET":"復國二路","SECT":" ","MAREA":" ","LANE":"１８巷","ALLEY":" ","HOUSE_NO":"１２號","E_COORD97":172866.94,"N_COORD97":2544848.6299999999,"ADDRESS":"復國二路１８巷１２號","OBJECTID":337422},"geometry":{"x":172866.94000000041,"y":2544848.629999999}},{"attributes":{"ID":337432,"DIS_CODE":0,"TOWNNAME":"永康區","LI":"復國里","LIN":"1鄰","STREET":"復國二路","SECT":" ","MAREA":" ","LANE":"１６巷","ALLEY":" ","HOUSE_NO":"８號","E_COORD97":172856.29999999999,"N_COORD97":2544806.96,"ADDRESS":"復國二路１６巷８號","OBJECTID":337423},"geometry":{"x":172856.30000000075,"y":2544806.9600000009}},{"attributes":{"ID":337433,"DIS_CODE":0,"TOWNNAME":"永康區","LI":"復國里","LIN":"1鄰","STREET":"復國二路","SECT":" ","MAREA":" ","LANE":"１０巷","ALLEY":" ","HOUSE_NO":"５號","E_COORD97":172854.22,"N_COORD97":2544761.29,"ADDRESS":"復國二路１０巷５號","OBJECTID":337424},"geometry":{"x":172854.21999999974,"y":2544761.290000001}},{"attributes":{"ID":337434,"DIS_CODE":0,"TOWNNAME":"永康區","LI":"復國里","LIN":"1鄰","STREET":"復國二路","SECT":" ","MAREA":" ","LANE":"１８巷","ALLEY":" ","HOUSE_NO":"１１號","E_COORD97":172870.62,"N_COORD97":2544864.7799999998,"ADDRESS":"復國二路１８巷１１號","OBJECTID":337425},"geometry":{"x":172870.62000000011,"y":2544864.7799999993}},{"attributes":{"ID":337435,"DIS_CODE":0,"TOWNNAME":"永康區","LI":"勝利里","LIN":"1鄰","STREET":"勝利街","SECT":" ","MAREA":" ","LANE":"１巷","ALLEY":" ","HOUSE_NO":"１號","E_COORD97":171135.07000000001,"N_COORD97":2544571.2599999998,"ADDRESS":"勝利街１巷１號","OBJECTID":337426},"geometry":{"x":171135.0700000003,"y":2544571.2599999979}},{"attributes":{"ID":337436,"DIS_CODE":0,"TOWNNAME":"永康區","LI":"北灣里","LIN":"1鄰","STREET":"大灣路","SECT":" ","MAREA":" ","LANE":"１１９巷","ALLEY":" ","HOUSE_NO":"３０之１號","E_COORD97":175196.79000000001,"N_COORD97":2545507.1400000001,"ADDRESS":"大灣路１１９巷３０之１號","OBJECTID":337427},"geometry":{"x":175196.79000000004,"y":2545507.1400000025}},{"attributes":{"ID":337437,"DIS_CODE":0,"TOWNNAME":"永康區","LI":"北灣里","LIN":"1鄰","STREET":"大灣路","SECT":" ","MAREA":" ","LANE":"１１９巷","ALLEY":" ","HOUSE_NO":"３０之２號","E_COORD97":175195.82000000001,"N_COORD97":2545512.1200000001,"ADDRESS":"大灣路１１９巷３０之２號","OBJECTID":337428},"geometry":{"x":175195.82000000123,"y":2545512.120000001}},{"attributes":{"ID":337438,"DIS_CODE":0,"TOWNNAME":"永康區","LI":"北灣里","LIN":"1鄰","STREET":"大灣路","SECT":" ","MAREA":" ","LANE":"１１９巷","ALLEY":" ","HOUSE_NO":"３０號","E_COORD97":175195.04999999999,"N_COORD97":2545500.5899999999,"ADDRESS":"大灣路１１９巷３０號","OBJECTID":337429},"geometry":{"x":175195.04999999981,"y":2545500.5899999999}},{"attributes":{"ID":337439,"DIS_CODE":0,"TOWNNAME":"永康區","LI":"王行里","LIN":"1鄰","STREET":"王行路","SECT":" ","MAREA":" ","LANE":"２２４巷","ALLEY":" ","HOUSE_NO":"１號","E_COORD97":175671.5,"N_COORD97":2548192.7999999998,"ADDRESS":"王行路２２４巷１號","OBJECTID":337430},"geometry":{"x":175671.5,"y":2548192.8000000007}},{"attributes":{"ID":337440,"DIS_CODE":0,"TOWNNAME":"東區","LI":"東光里","LIN":"1鄰","STREET":"東寧路","SECT":" ","MAREA":" ","LANE":"４３５巷","ALLEY":" ","HOUSE_NO":"１０號","E_COORD97":171085.29000000001,"N_COORD97":2543372.8300000001,"ADDRESS":"東寧路４３５巷１０號","OBJECTID":337431},"geometry":{"x":171085.29000000097,"y":2543372.8300000019}},{"attributes":{"ID":337441,"DIS_CODE":0,"TOWNNAME":"安南區","LI":"原佃里","LIN":"1鄰","STREET":"本原街","SECT":"一段","MAREA":" ","LANE":"９７巷","ALLEY":" ","HOUSE_NO":"２３２號之８","E_COORD97":167804.56,"N_COORD97":2549683.0299999998,"ADDRESS":"本原街一段９７巷２３２號之８","OBJECTID":337432},"geometry":{"x":167804.56000000052,"y":2549683.0300000012}},{"attributes":{"ID":337442,"DIS_CODE":0,"TOWNNAME":"中西區","LI":"協和里","LIN":"8鄰","STREET":"臨安路","SECT":"一段","MAREA":" ","LANE":" ","ALLEY":" ","HOUSE_NO":"２４１號","E_COORD97":167321.20000000001,"N_COORD97":2544693.2599999998,"ADDRESS":"臨安路一段２４１號","OBJECTID":337433},"geometry":{"x":167321.20000000112,"y":2544693.2599999998}},{"attributes":{"ID":337443,"DIS_CODE":0,"TOWNNAME":"中西區","LI":"協和里","LIN":"8鄰","STREET":"臨安路","SECT":"一段","MAREA":" ","LANE":" ","ALLEY":" ","HOUSE_NO":"２４３號","E_COORD97":167324.53,"N_COORD97":2544696.27,"ADDRESS":"臨安路一段２４３號","OBJECTID":337434},"geometry":{"x":167324.53000000026,"y":2544696.2699999996}},{"attributes":{"ID":337444,"DIS_CODE":0,"TOWNNAME":"中西區","LI":"協和里","LIN":"8鄰","STREET":"臨安路","SECT":"一段","MAREA":" ","LANE":" ","ALLEY":" ","HOUSE_NO":"２４５號","E_COORD97":167328.5,"N_COORD97":2544698.96,"ADDRESS":"臨安路一段２４５號","OBJECTID":337435},"geometry":{"x":167328.50000000186,"y":2544698.9600000009}},{"attributes":{"ID":337445,"DIS_CODE":0,"TOWNNAME":"中西區","LI":"協和里","LIN":"8鄰","STREET":"臨安路","SECT":"一段","MAREA":" ","LANE":" ","ALLEY":" ","HOUSE_NO":"２４７號","E_COORD97":167332.45999999999,"N_COORD97":2544701.4900000002,"ADDRESS":"臨安路一段２４７號","OBJECTID":337436},"geometry":{"x":167332.46000000089,"y":2544701.4900000002}},{"attributes":{"ID":337446,"DIS_CODE":0,"TOWNNAME":"中西區","LI":"協和里","LIN":"8鄰","STREET":"臨安路","SECT":"一段","MAREA":" ","LANE":" ","ALLEY":" ","HOUSE_NO":"２４９號","E_COORD97":167336.42000000001,"N_COORD97":2544703.5499999998,"ADDRESS":"臨安路一段２４９號","OBJECTID":337437},"geometry":{"x":167336.42000000086,"y":2544703.5500000026}},{"attributes":{"ID":337447,"DIS_CODE":0,"TOWNNAME":"中西區","LI":"協進里","LIN":"8鄰","STREET":"西寧街","SECT":" ","MAREA":" ","LANE":" ","ALLEY":" ","HOUSE_NO":"１００號","E_COORD97":166990.59,"N_COORD97":2544263.8599999999,"ADDRESS":"西寧街１００號","OBJECTID":337438},"geometry":{"x":166990.59000000078,"y":2544263.8599999994}},{"attributes":{"ID":337448,"DIS_CODE":0,"TOWNNAME":"中西區","LI":"協進里","LIN":"8鄰","STREET":"西寧街","SECT":" ","MAREA":" ","LANE":" ","ALLEY":" ","HOUSE_NO":"１０２號","E_COORD97":166989.94,"N_COORD97":2544260.1099999999,"ADDRESS":"西寧街１０２號","OBJECTID":337439},"geometry":{"x":166989.94000000041,"y":2544260.1100000031}},{"attributes":{"ID":337449,"DIS_CODE":0,"TOWNNAME":"安南區","LI":"公親里","LIN":"5鄰","STREET":"公學路","SECT":"一段","MAREA":" ","LANE":"１２４巷","ALLEY":" ","HOUSE_NO":"７５號","E_COORD97":168117.82000000001,"N_COORD97":2553170.7400000002,"ADDRESS":"公學路一段１２４巷７５號","OBJECTID":337440},"geometry":{"x":168117.8200000003,"y":2553170.7400000021}},{"attributes":{"ID":337450,"DIS_CODE":0,"TOWNNAME":"安南區","LI":"公親里","LIN":"5鄰","STREET":"公學路","SECT":"一段","MAREA":" ","LANE":"２２６巷","ALLEY":" ","HOUSE_NO":"１６號","E_COORD97":168062.10000000001,"N_COORD97":2553109.0099999998,"ADDRESS":"公學路一段２２６巷１６號","OBJECTID":337441},"geometry":{"x":168062.10000000056,"y":2553109.0099999998}},{"attributes":{"ID":337451,"DIS_CODE":0,"TOWNNAME":"安南區","LI":"公親里","LIN":"5鄰","STREET":"公學路","SECT":"一段","MAREA":" ","LANE":"２２６巷","ALLEY":" ","HOUSE_NO":"２０號","E_COORD97":168078.31,"N_COORD97":2553109.6600000001,"ADDRESS":"公學路一段２２６巷２０號","OBJECTID":337442},"geometry":{"x":168078.30999999959,"y":2553109.6600000039}},{"attributes":{"ID":337452,"DIS_CODE":0,"TOWNNAME":"安南區","LI":"公親里","LIN":"5鄰","STREET":"公學路","SECT":"一段","MAREA":" ","LANE":"２２６巷","ALLEY":" ","HOUSE_NO":"２號","E_COORD97":168022.09,"N_COORD97":2553076.21,"ADDRESS":"公學路一段２２６巷２號","OBJECTID":337443},"geometry":{"x":168022.08999999985,"y":2553076.2100000046}},{"attributes":{"ID":337453,"DIS_CODE":0,"TOWNNAME":"永康區","LI":"三合里","LIN":"5鄰","STREET":"南工街","SECT":" ","MAREA":" ","LANE":"６６巷","ALLEY":" ","HOUSE_NO":"８號","E_COORD97":172134.17000000001,"N_COORD97":2545646.3599999999,"ADDRESS":"南工街６６巷８號","OBJECTID":337444},"geometry":{"x":172134.16999999993,"y":2545646.3600000013}},{"attributes":{"ID":337454,"DIS_CODE":0,"TOWNNAME":"安南區","LI":"海佃里","LIN":"1鄰","STREET":"海佃路","SECT":"一段","MAREA":" ","LANE":"１５７巷","ALLEY":" ","HOUSE_NO":"１號之２","E_COORD97":167117.78,"N_COORD97":2547095.77,"ADDRESS":"海佃路一段１５７巷１號之２","OBJECTID":337445},"geometry":{"x":167117.78000000026,"y":2547095.7699999996}},{"attributes":{"ID":337455,"DIS_CODE":0,"TOWNNAME":"安南區","LI":"淵西里","LIN":"1鄰","STREET":"安中路","SECT":"四段","MAREA":" ","LANE":"２９０巷","ALLEY":" ","HOUSE_NO":"３３３號","E_COORD97":165200.70000000001,"N_COORD97":2550381.5499999998,"ADDRESS":"安中路四段２９０巷３３３號","OBJECTID":337446},"geometry":{"x":165200.70000000019,"y":2550381.5500000045}},{"attributes":{"ID":337456,"DIS_CODE":0,"TOWNNAME":"安南區","LI":"理想里","LIN":"1鄰","STREET":"同安路","SECT":" ","MAREA":" ","LANE":"５２巷","ALLEY":" ","HOUSE_NO":"１９號","E_COORD97":166932.29999999999,"N_COORD97":2548801.4700000002,"ADDRESS":"同安路５２巷１９號","OBJECTID":337447},"geometry":{"x":166932.29999999981,"y":2548801.4700000007}},{"attributes":{"ID":337457,"DIS_CODE":0,"TOWNNAME":"安南區","LI":"理想里","LIN":"1鄰","STREET":"同安路","SECT":" ","MAREA":" ","LANE":"５２巷","ALLEY":" ","HOUSE_NO":"２５號","E_COORD97":166942.70000000001,"N_COORD97":2548784.7000000002,"ADDRESS":"同安路５２巷２５號","OBJECTID":337448},"geometry":{"x":166942.70000000112,"y":2548784.6999999993}},{"attributes":{"ID":337458,"DIS_CODE":0,"TOWNNAME":"安南區","LI":"頂安里","LIN":"1鄰","STREET":"長溪路","SECT":"一段","MAREA":" ","LANE":"４７６巷","ALLEY":" ","HOUSE_NO":"３號","E_COORD97":168503.56,"N_COORD97":2549069.8900000001,"ADDRESS":"長溪路一段４７６巷３號","OBJECTID":337449},"geometry":{"x":168503.55999999959,"y":2549069.8900000006}},{"attributes":{"ID":337459,"DIS_CODE":0,"TOWNNAME":"安南區","LI":"頂安里","LIN":"1鄰","STREET":"長溪路","SECT":"一段","MAREA":" ","LANE":"４７６巷","ALLEY":" ","HOUSE_NO":"３４號","E_COORD97":168610.28,"N_COORD97":2549066.0099999998,"ADDRESS":"長溪路一段４７６巷３４號","OBJECTID":337450},"geometry":{"x":168610.28000000119,"y":2549066.0100000016}},{"attributes":{"ID":337460,"DIS_CODE":0,"TOWNNAME":"安南區","LI":"溪心里","LIN":"1鄰","STREET":"海環街","SECT":" ","MAREA":" ","LANE":"７１５巷","ALLEY":" ","HOUSE_NO":"１３４號","E_COORD97":166301.26999999999,"N_COORD97":2549591.7000000002,"ADDRESS":"海環街７１５巷１３４號","OBJECTID":337451},"geometry":{"x":166301.27000000048,"y":2549591.6999999993}},{"attributes":{"ID":337461,"DIS_CODE":0,"TOWNNAME":"安南區","LI":"溪北里","LIN":"1鄰","STREET":"安和路","SECT":"一段","MAREA":" ","LANE":"１２３巷","ALLEY":" ","HOUSE_NO":"２９號","E_COORD97":169369.19,"N_COORD97":2547598.3100000001,"ADDRESS":"安和路一段１２３巷２９號","OBJECTID":337452},"geometry":{"x":169369.19000000134,"y":2547598.3100000005}},{"attributes":{"ID":337462,"DIS_CODE":0,"TOWNNAME":"安南區","LI":"溪北里","LIN":"1鄰","STREET":"安和路","SECT":"一段","MAREA":" ","LANE":"１２３巷","ALLEY":" ","HOUSE_NO":"４１號","E_COORD97":169348.20999999999,"N_COORD97":2547589.3700000001,"ADDRESS":"安和路一段１２３巷４１號","OBJECTID":337453},"geometry":{"x":169348.21000000089,"y":2547589.3699999992}},{"attributes":{"ID":337463,"DIS_CODE":0,"TOWNNAME":"安南區","LI":"溪頂里","LIN":"1鄰","STREET":"文安街","SECT":" ","MAREA":" ","LANE":"１４７巷","ALLEY":" ","HOUSE_NO":"２號","E_COORD97":169046.16,"N_COORD97":2547403.8700000001,"ADDRESS":"文安街１４７巷２號","OBJECTID":337454},"geometry":{"x":169046.16000000015,"y":2547403.8700000029}},{"attributes":{"ID":337464,"DIS_CODE":0,"TOWNNAME":"安南區","LI":"學東里","LIN":"1鄰","STREET":"公學路","SECT":"六段","MAREA":" ","LANE":"７２１巷","ALLEY":" ","HOUSE_NO":"３２７號","E_COORD97":162343.57999999999,"N_COORD97":2552922.6699999999,"ADDRESS":"公學路六段７２１巷３２７號","OBJECTID":337455},"geometry":{"x":162343.58000000007,"y":2552922.6700000037}},{"attributes":{"ID":337465,"DIS_CODE":0,"TOWNNAME":"安南區","LI":"學東里","LIN":"1鄰","STREET":"公學路","SECT":"六段","MAREA":" ","LANE":"７２１巷","ALLEY":" ","HOUSE_NO":"３３１號","E_COORD97":162359.67999999999,"N_COORD97":2552927.3700000001,"ADDRESS":"公學路六段７２１巷３３１號","OBJECTID":337456},"geometry":{"x":162359.6799999997,"y":2552927.3700000029}},{"attributes":{"ID":337466,"DIS_CODE":0,"TOWNNAME":"安南區","LI":"學東里","LIN":"1鄰","STREET":"公學路","SECT":"六段","MAREA":" ","LANE":"７２１巷","ALLEY":" ","HOUSE_NO":"３３３號","E_COORD97":162367.39999999999,"N_COORD97":2552928.7000000002,"ADDRESS":"公學路六段７２１巷３３３號","OBJECTID":337457},"geometry":{"x":162367.40000000037,"y":2552928.700000003}},{"attributes":{"ID":337467,"DIS_CODE":0,"TOWNNAME":"安南區","LI":"學東里","LIN":"1鄰","STREET":"公學路","SECT":"六段","MAREA":" ","LANE":"７２１巷","ALLEY":" ","HOUSE_NO":"３４１號","E_COORD97":162386.32999999999,"N_COORD97":2552927.0099999998,"ADDRESS":"公學路六段７２１巷３４１號","OBJECTID":337458},"geometry":{"x":162386.33000000007,"y":2552927.0100000035}},{"attributes":{"ID":337468,"DIS_CODE":0,"TOWNNAME":"永康區","LI":"復國里","LIN":"1鄰","STREET":"復國二路","SECT":" ","MAREA":" ","LANE":"１８巷","ALLEY":" ","HOUSE_NO":"１３號","E_COORD97":172874.73000000001,"N_COORD97":2544864.7799999998,"ADDRESS":"復國二路１８巷１３號","OBJECTID":337459},"geometry":{"x":172874.73000000138,"y":2544864.7799999993}},{"attributes":{"ID":337469,"DIS_CODE":0,"TOWNNAME":"永康區","LI":"神洲里","LIN":"1鄰","STREET":"忠孝路","SECT":" ","MAREA":" ","LANE":"６巷","ALLEY":" ","HOUSE_NO":"６號","E_COORD97":172115.88,"N_COORD97":2544567.5,"ADDRESS":"忠孝路６巷６號","OBJECTID":337460},"geometry":{"x":172115.87999999989,"y":2544567.5000000019}},{"attributes":{"ID":337470,"DIS_CODE":0,"TOWNNAME":"永康區","LI":"中華里","LIN":"1鄰","STREET":"小東路","SECT":" ","MAREA":" ","LANE":"６８５巷","ALLEY":" ","HOUSE_NO":"６號之１２","E_COORD97":172052.32999999999,"N_COORD97":2544383.3599999999,"ADDRESS":"小東路６８５巷６號之１２","OBJECTID":337461},"geometry":{"x":172052.32999999914,"y":2544383.3599999994}},{"attributes":{"ID":337471,"DIS_CODE":0,"TOWNNAME":"中西區","LI":"協進里","LIN":"8鄰","STREET":"西寧街","SECT":" ","MAREA":" ","LANE":" ","ALLEY":" ","HOUSE_NO":"１０４號","E_COORD97":166989.29999999999,"N_COORD97":2544256.4700000002,"ADDRESS":"西寧街１０４號","OBJECTID":337462},"geometry":{"x":166989.30000000075,"y":2544256.4700000025}},{"attributes":{"ID":337472,"DIS_CODE":0,"TOWNNAME":"中西區","LI":"協進里","LIN":"8鄰","STREET":"西寧街","SECT":" ","MAREA":" ","LANE":" ","ALLEY":" ","HOUSE_NO":"１０６號","E_COORD97":166982.85999999999,"N_COORD97":2544258.5,"ADDRESS":"西寧街１０６號","OBJECTID":337463},"geometry":{"x":166982.86000000127,"y":2544258.5000000019}},{"attributes":{"ID":337473,"DIS_CODE":0,"TOWNNAME":"中西區","LI":"協進里","LIN":"8鄰","STREET":"西寧街","SECT":" ","MAREA":" ","LANE":" ","ALLEY":" ","HOUSE_NO":"１０８號","E_COORD97":166978.45999999999,"N_COORD97":2544260.4300000002,"ADDRESS":"西寧街１０８號","OBJECTID":337464},"geometry":{"x":166978.46000000089,"y":2544260.4299999997}},{"attributes":{"ID":337474,"DIS_CODE":0,"TOWNNAME":"中西區","LI":"協進里","LIN":"8鄰","STREET":"西寧街","SECT":" ","MAREA":" ","LANE":" ","ALLEY":" ","HOUSE_NO":"１１０號","E_COORD97":166974.06,"N_COORD97":2544261.8300000001,"ADDRESS":"西寧街１１０號","OBJECTID":337465},"geometry":{"x":166974.06000000052,"y":2544261.8300000001}},{"attributes":{"ID":337475,"DIS_CODE":0,"TOWNNAME":"中西區","LI":"協進里","LIN":"8鄰","STREET":"西寧街","SECT":" ","MAREA":" ","LANE":" ","ALLEY":" ","HOUSE_NO":"１１２號","E_COORD97":166970.51000000001,"N_COORD97":2544263.7599999998,"ADDRESS":"西寧街１１２號","OBJECTID":337466},"geometry":{"x":166970.51000000164,"y":2544263.7600000016}},{"attributes":{"ID":337476,"DIS_CODE":0,"TOWNNAME":"東區","LI":"大同里","LIN":"5鄰","STREET":"大同路","SECT":"一段","MAREA":" ","LANE":"７１巷","ALLEY":" ","HOUSE_NO":"１號","E_COORD97":169204.81,"N_COORD97":2543073.1499999999,"ADDRESS":"大同路一段７１巷１號","OBJECTID":337467},"geometry":{"x":169204.81000000052,"y":2543073.1500000004}},{"attributes":{"ID":337477,"DIS_CODE":0,"TOWNNAME":"東區","LI":"大同里","LIN":"5鄰","STREET":"大同路","SECT":"一段","MAREA":" ","LANE":"７１巷","ALLEY":" ","HOUSE_NO":"２１號","E_COORD97":169235.03,"N_COORD97":2543075.0099999998,"ADDRESS":"大同路一段７１巷２１號","OBJECTID":337468},"geometry":{"x":169235.03000000026,"y":2543075.0100000016}},{"attributes":{"ID":337478,"DIS_CODE":0,"TOWNNAME":"東區","LI":"大同里","LIN":"5鄰","STREET":"大同路","SECT":"一段","MAREA":" ","LANE":"７１巷","ALLEY":" ","HOUSE_NO":"２３號","E_COORD97":169242.48999999999,"N_COORD97":2543078.3100000001,"ADDRESS":"大同路一段７１巷２３號","OBJECTID":337469},"geometry":{"x":169242.48999999929,"y":2543078.3100000024}},{"attributes":{"ID":337479,"DIS_CODE":0,"TOWNNAME":"東區","LI":"大同里","LIN":"5鄰","STREET":"大同路","SECT":"一段","MAREA":" ","LANE":"７１巷","ALLEY":" ","HOUSE_NO":"２３號之１","E_COORD97":169247.23000000001,"N_COORD97":2543077.5899999999,"ADDRESS":"大同路一段７１巷２３號之１","OBJECTID":337470},"geometry":{"x":169247.23000000045,"y":2543077.5900000036}},{"attributes":{"ID":337480,"DIS_CODE":0,"TOWNNAME":"東區","LI":"大同里","LIN":"5鄰","STREET":"大同路","SECT":"一段","MAREA":" ","LANE":"７１巷","ALLEY":" ","HOUSE_NO":"３號","E_COORD97":169210.48000000001,"N_COORD97":2543072.6000000001,"ADDRESS":"大同路一段７１巷３號","OBJECTID":337471},"geometry":{"x":169210.48000000045,"y":2543072.5999999996}},{"attributes":{"ID":337481,"DIS_CODE":0,"TOWNNAME":"東區","LI":"大同里","LIN":"5鄰","STREET":"大同路","SECT":"一段","MAREA":" ","LANE":"７１巷","ALLEY":" ","HOUSE_NO":"５號","E_COORD97":169214.13,"N_COORD97":2543071.4900000002,"ADDRESS":"大同路一段７１巷５號","OBJECTID":337472},"geometry":{"x":169214.13000000175,"y":2543071.4900000002}},{"attributes":{"ID":337482,"DIS_CODE":0,"TOWNNAME":"東區","LI":"大同里","LIN":"5鄰","STREET":"大同路","SECT":"一段","MAREA":" ","LANE":"７１巷","ALLEY":" ","HOUSE_NO":"７號","E_COORD97":169214.53,"N_COORD97":2543075.3199999998,"ADDRESS":"大同路一段７１巷７號","OBJECTID":337473},"geometry":{"x":169214.53000000026,"y":2543075.3200000003}},{"attributes":{"ID":337483,"DIS_CODE":0,"TOWNNAME":"東區","LI":"大同里","LIN":"5鄰","STREET":"大同路","SECT":"一段","MAREA":" ","LANE":"７１巷","ALLEY":" ","HOUSE_NO":"９號","E_COORD97":169214.53,"N_COORD97":2543079.9399999999,"ADDRESS":"大同路一段７１巷９號","OBJECTID":337474},"geometry":{"x":169214.53000000026,"y":2543079.9399999995}},{"attributes":{"ID":337484,"DIS_CODE":0,"TOWNNAME":"永康區","LI":"中華里","LIN":"1鄰","STREET":"小東路","SECT":" ","MAREA":" ","LANE":"６８５巷","ALLEY":" ","HOUSE_NO":"８號之８","E_COORD97":172048.64000000001,"N_COORD97":2544401.7400000002,"ADDRESS":"小東路６８５巷８號之８","OBJECTID":337475},"geometry":{"x":172048.6400000006,"y":2544401.7400000002}},{"attributes":{"ID":337485,"DIS_CODE":0,"TOWNNAME":"永康區","LI":"蔦松里","LIN":"1鄰","STREET":"蔦松二街","SECT":" ","MAREA":" ","LANE":"８７巷","ALLEY":" ","HOUSE_NO":"１５號","E_COORD97":173666.76999999999,"N_COORD97":2549286.2400000002,"ADDRESS":"蔦松二街８７巷１５號","OBJECTID":337476},"geometry":{"x":173666.77000000048,"y":2549286.2400000021}},{"attributes":{"ID":337486,"DIS_CODE":0,"TOWNNAME":"永康區","LI":"大灣里","LIN":"1鄰","STREET":"大安街","SECT":" ","MAREA":" ","LANE":"３６８巷","ALLEY":" ","HOUSE_NO":"１５號","E_COORD97":174723.94,"N_COORD97":2545710.7799999998,"ADDRESS":"大安街３６８巷１５號","OBJECTID":337477},"geometry":{"x":174723.94000000134,"y":2545710.7800000012}},{"attributes":{"ID":337487,"DIS_CODE":0,"TOWNNAME":"永康區","LI":"復國里","LIN":"1鄰","STREET":"復國二路","SECT":" ","MAREA":" ","LANE":"１０巷","ALLEY":" ","HOUSE_NO":"３號","E_COORD97":172849.34,"N_COORD97":2544761.29,"ADDRESS":"復國二路１０巷３號","OBJECTID":337478},"geometry":{"x":172849.34000000078,"y":2544761.290000001}},{"attributes":{"ID":337488,"DIS_CODE":0,"TOWNNAME":"永康區","LI":"蔦松里","LIN":"1鄰","STREET":"蔦松二街","SECT":" ","MAREA":" ","LANE":"１２４巷","ALLEY":" ","HOUSE_NO":"１２號","E_COORD97":173807.44,"N_COORD97":2549349.0299999998,"ADDRESS":"蔦松二街１２４巷１２號","OBJECTID":337479},"geometry":{"x":173807.44000000041,"y":2549349.0299999993}},{"attributes":{"ID":337489,"DIS_CODE":0,"TOWNNAME":"永康區","LI":"埔園里","LIN":"1鄰","STREET":"埔聖街","SECT":" ","MAREA":" ","LANE":"２５巷","ALLEY":" ","HOUSE_NO":"２號","E_COORD97":173913.76999999999,"N_COORD97":2547607.4900000002,"ADDRESS":"埔聖街２５巷２號","OBJECTID":337480},"geometry":{"x":173913.77000000048,"y":2547607.4900000002}},{"attributes":{"ID":337490,"DIS_CODE":0,"TOWNNAME":"永康區","LI":"五王里","LIN":"1鄰","STREET":"中華二路","SECT":" ","MAREA":" ","LANE":"２０６巷","ALLEY":" ","HOUSE_NO":"２０號","E_COORD97":171606.87,"N_COORD97":2545498.75,"ADDRESS":"中華二路２０６巷２０號","OBJECTID":337481},"geometry":{"x":171606.87000000104,"y":2545498.7500000019}},{"attributes":{"ID":337491,"DIS_CODE":0,"TOWNNAME":"永康區","LI":"復國里","LIN":"1鄰","STREET":"復國二路","SECT":" ","MAREA":" ","LANE":"１８巷","ALLEY":" ","HOUSE_NO":"１號","E_COORD97":172847.76999999999,"N_COORD97":2544864.2799999998,"ADDRESS":"復國二路１８巷１號","OBJECTID":337482},"geometry":{"x":172847.77000000048,"y":2544864.2799999993}},{"attributes":{"ID":337492,"DIS_CODE":0,"TOWNNAME":"中西區","LI":"協進里","LIN":"8鄰","STREET":"西寧街","SECT":" ","MAREA":" ","LANE":" ","ALLEY":" ","HOUSE_NO":"１１２之１號","E_COORD97":166966.84,"N_COORD97":2544265.6299999999,"ADDRESS":"西寧街１１２之１號","OBJECTID":337483},"geometry":{"x":166966.84000000078,"y":2544265.629999999}},{"attributes":{"ID":337493,"DIS_CODE":0,"TOWNNAME":"中西區","LI":"協進里","LIN":"8鄰","STREET":"西寧街","SECT":" ","MAREA":" ","LANE":" ","ALLEY":" ","HOUSE_NO":"１１８號","E_COORD97":166957.17999999999,"N_COORD97":2544265.77,"ADDRESS":"西寧街１１８號","OBJECTID":337484},"geometry":{"x":166957.1799999997,"y":2544265.7699999996}},{"attributes":{"ID":337494,"DIS_CODE":0,"TOWNNAME":"中西區","LI":"協進里","LIN":"8鄰","STREET":"西寧街","SECT":" ","MAREA":" ","LANE":" ","ALLEY":" ","HOUSE_NO":"１２０號","E_COORD97":166952.56,"N_COORD97":2544266.52,"ADDRESS":"西寧街１２０號","OBJECTID":337485},"geometry":{"x":166952.55999999959,"y":2544266.5199999996}},{"attributes":{"ID":337495,"DIS_CODE":0,"TOWNNAME":"中西區","LI":"協進里","LIN":"8鄰","STREET":"西寧街","SECT":" ","MAREA":" ","LANE":" ","ALLEY":" ","HOUSE_NO":"１２２號","E_COORD97":166947.09,"N_COORD97":2544267.0600000001,"ADDRESS":"西寧街１２２號","OBJECTID":337486},"geometry":{"x":166947.08999999985,"y":2544267.0600000005}},{"attributes":{"ID":337496,"DIS_CODE":0,"TOWNNAME":"中西區","LI":"協進里","LIN":"8鄰","STREET":"西寧街","SECT":" ","MAREA":" ","LANE":" ","ALLEY":" ","HOUSE_NO":"１２４號","E_COORD97":166942.35999999999,"N_COORD97":2544268.1299999999,"ADDRESS":"西寧街１２４號","OBJECTID":337487},"geometry":{"x":166942.36000000127,"y":2544268.129999999}},{"attributes":{"ID":337497,"DIS_CODE":0,"TOWNNAME":"中西區","LI":"協進里","LIN":"8鄰","STREET":"西寧街","SECT":" ","MAREA":" ","LANE":" ","ALLEY":" ","HOUSE_NO":"１２６號","E_COORD97":166936.98999999999,"N_COORD97":2544268.8799999999,"ADDRESS":"西寧街１２６號","OBJECTID":337488},"geometry":{"x":166936.99000000022,"y":2544268.8800000008}},{"attributes":{"ID":337498,"DIS_CODE":0,"TOWNNAME":"中西區","LI":"協進里","LIN":"8鄰","STREET":"西寧街","SECT":" ","MAREA":" ","LANE":" ","ALLEY":" ","HOUSE_NO":"１２８號","E_COORD97":166931.41,"N_COORD97":2544269.9500000002,"ADDRESS":"西寧街１２８號","OBJECTID":337489},"geometry":{"x":166931.41000000108,"y":2544269.9499999993}},{"attributes":{"ID":337499,"DIS_CODE":0,"TOWNNAME":"中西區","LI":"協進里","LIN":"8鄰","STREET":"濟生街","SECT":" ","MAREA":" ","LANE":" ","ALLEY":" ","HOUSE_NO":"５５號","E_COORD97":166990.70000000001,"N_COORD97":2544270.73,"ADDRESS":"濟生街５５號","OBJECTID":337490},"geometry":{"x":166990.70000000112,"y":2544270.7300000042}},{"attributes":{"ID":337500,"DIS_CODE":0,"TOWNNAME":"中西區","LI":"協進里","LIN":"8鄰","STREET":"濟生街","SECT":" ","MAREA":" ","LANE":" ","ALLEY":" ","HOUSE_NO":"５７號","E_COORD97":166991.45000000001,"N_COORD97":2544273.9399999999,"ADDRESS":"濟生街５７號","OBJECTID":337491},"geometry":{"x":166991.45000000019,"y":2544273.9399999995}},{"attributes":{"ID":337501,"DIS_CODE":0,"TOWNNAME":"永康區","LI":"崑山里","LIN":"1鄰","STREET":"永大路","SECT":"一段","MAREA":" ","LANE":"２８７巷","ALLEY":" ","HOUSE_NO":"６２號","E_COORD97":173887.56,"N_COORD97":2544413.9300000002,"ADDRESS":"永大路一段２８７巷６２號","OBJECTID":337492},"geometry":{"x":173887.55999999959,"y":2544413.9299999997}},{"attributes":{"ID":337502,"DIS_CODE":0,"TOWNNAME":"永康區","LI":"崑山里","LIN":"1鄰","STREET":"永大路","SECT":"一段","MAREA":" ","LANE":"２８７巷","ALLEY":" ","HOUSE_NO":"２號","E_COORD97":174011.10999999999,"N_COORD97":2544454.2999999998,"ADDRESS":"永大路一段２８７巷２號","OBJECTID":337493},"geometry":{"x":174011.11000000127,"y":2544454.3000000026}},{"attributes":{"ID":337503,"DIS_CODE":0,"TOWNNAME":"永康區","LI":"崑山里","LIN":"1鄰","STREET":"永大路","SECT":"一段","MAREA":" ","LANE":"２８７巷","ALLEY":" ","HOUSE_NO":"５０號","E_COORD97":173909.13,"N_COORD97":2544418.3399999999,"ADDRESS":"永大路一段２８７巷５０號","OBJECTID":337494},"geometry":{"x":173909.12999999989,"y":2544418.3400000036}},{"attributes":{"ID":337504,"DIS_CODE":0,"TOWNNAME":"永康區","LI":"崑山里","LIN":"1鄰","STREET":"永大路","SECT":"一段","MAREA":" ","LANE":"２８７巷","ALLEY":" ","HOUSE_NO":"５２號","E_COORD97":173903.42999999999,"N_COORD97":2544416.6499999999,"ADDRESS":"永大路一段２８７巷５２號","OBJECTID":337495},"geometry":{"x":173903.4299999997,"y":2544416.6499999985}},{"attributes":{"ID":337505,"DIS_CODE":0,"TOWNNAME":"永康區","LI":"烏竹里","LIN":"1鄰","STREET":"烏竹北街","SECT":" ","MAREA":" ","LANE":"９８巷","ALLEY":" ","HOUSE_NO":"９號","E_COORD97":174460.44,"N_COORD97":2549549.5,"ADDRESS":"烏竹北街９８巷９號","OBJECTID":337496},"geometry":{"x":174460.44000000041,"y":2549549.5}},{"attributes":{"ID":337506,"DIS_CODE":0,"TOWNNAME":"永康區","LI":"烏竹里","LIN":"1鄰","STREET":"烏竹北街","SECT":" ","MAREA":" ","LANE":"９８巷","ALLEY":" ","HOUSE_NO":"１５號","E_COORD97":174453.34,"N_COORD97":2549558.5,"ADDRESS":"烏竹北街９８巷１５號","OBJECTID":337497},"geometry":{"x":174453.34000000078,"y":2549558.5000000019}},{"attributes":{"ID":337507,"DIS_CODE":0,"TOWNNAME":"永康區","LI":"崑山里","LIN":"1鄰","STREET":"永大路","SECT":"一段","MAREA":" ","LANE":"２８７巷","ALLEY":" ","HOUSE_NO":"５８號","E_COORD97":173891.94,"N_COORD97":2544418.6499999999,"ADDRESS":"永大路一段２８７巷５８號","OBJECTID":337498},"geometry":{"x":173891.94000000134,"y":2544418.6500000004}},{"attributes":{"ID":337508,"DIS_CODE":0,"TOWNNAME":"永康區","LI":"烏竹里","LIN":"1鄰","STREET":"烏竹北街","SECT":" ","MAREA":" ","LANE":"９８巷","ALLEY":" ","HOUSE_NO":"２３號","E_COORD97":174475.60000000001,"N_COORD97":2549565.7400000002,"ADDRESS":"烏竹北街９８巷２３號","OBJECTID":337499},"geometry":{"x":174475.59999999963,"y":2549565.7400000002}},{"attributes":{"ID":337509,"DIS_CODE":0,"TOWNNAME":"永康區","LI":"烏竹里","LIN":"1鄰","STREET":"烏竹北街","SECT":" ","MAREA":" ","LANE":"９８巷","ALLEY":" ","HOUSE_NO":"１１號","E_COORD97":174458.82999999999,"N_COORD97":2549552.25,"ADDRESS":"烏竹北街９８巷１１號","OBJECTID":337500},"geometry":{"x":174458.83000000007,"y":2549552.2500000037}},{"attributes":{"ID":337510,"DIS_CODE":0,"TOWNNAME":"永康區","LI":"烏竹里","LIN":"1鄰","STREET":"烏竹北街","SECT":" ","MAREA":" ","LANE":"２０巷","ALLEY":" ","HOUSE_NO":"６２號","E_COORD97":174571.45000000001,"N_COORD97":2549546.0800000001,"ADDRESS":"烏竹北街２０巷６２號","OBJECTID":337501},"geometry":{"x":174571.45000000112,"y":2549546.0800000001}},{"attributes":{"ID":337511,"DIS_CODE":0,"TOWNNAME":"永康區","LI":"崑山里","LIN":"1鄰","STREET":"永大路","SECT":"一段","MAREA":" ","LANE":"２８７巷","ALLEY":" ","HOUSE_NO":"４８號","E_COORD97":173913.06,"N_COORD97":2544422.1899999999,"ADDRESS":"永大路一段２８７巷４８號","OBJECTID":337502},"geometry":{"x":173913.05999999959,"y":2544422.1899999995}},{"attributes":{"ID":337512,"DIS_CODE":0,"TOWNNAME":"永康區","LI":"烏竹里","LIN":"1鄰","STREET":"烏竹北街","SECT":" ","MAREA":" ","LANE":"９８巷","ALLEY":" ","HOUSE_NO":"２５號","E_COORD97":174473.17000000001,"N_COORD97":2549569.4900000002,"ADDRESS":"烏竹北街９８巷２５號","OBJECTID":337503},"geometry":{"x":174473.17000000086,"y":2549569.4900000021}},{"attributes":{"ID":337513,"DIS_CODE":0,"TOWNNAME":"安南區","LI":"東和里","LIN":"1鄰","STREET":"長和路","SECT":"一段","MAREA":" ","LANE":"８７１巷","ALLEY":" ","HOUSE_NO":"１１號","E_COORD97":170770.12,"N_COORD97":2551453.3300000001,"ADDRESS":"長和路一段８７１巷１１號","OBJECTID":337504},"geometry":{"x":170770.12000000011,"y":2551453.3300000001}},{"attributes":{"ID":337514,"DIS_CODE":0,"TOWNNAME":"安南區","LI":"東和里","LIN":"1鄰","STREET":"長和路","SECT":"一段","MAREA":" ","LANE":"８７１巷","ALLEY":" ","HOUSE_NO":"１７號","E_COORD97":170759.79999999999,"N_COORD97":2551447.7799999998,"ADDRESS":"長和路一段８７１巷１７號","OBJECTID":337505},"geometry":{"x":170759.79999999981,"y":2551447.7800000012}},{"attributes":{"ID":337515,"DIS_CODE":0,"TOWNNAME":"安南區","LI":"東和里","LIN":"1鄰","STREET":"長和路","SECT":"一段","MAREA":" ","LANE":"８７１巷","ALLEY":" ","HOUSE_NO":"４０號","E_COORD97":170699.73999999999,"N_COORD97":2551439.04,"ADDRESS":"長和路一段８７１巷４０號","OBJECTID":337506},"geometry":{"x":170699.74000000022,"y":2551439.040000001}},{"attributes":{"ID":337516,"DIS_CODE":0,"TOWNNAME":"安南區","LI":"梅花里","LIN":"1鄰","STREET":"北安路","SECT":"二段","MAREA":" ","LANE":"４３３巷","ALLEY":" ","HOUSE_NO":"３６號","E_COORD97":168226.67999999999,"N_COORD97":2548677.27,"ADDRESS":"北安路二段４３３巷３６號","OBJECTID":337507},"geometry":{"x":168226.6799999997,"y":2548677.2700000014}},{"attributes":{"ID":337517,"DIS_CODE":0,"TOWNNAME":"安南區","LI":"梅花里","LIN":"1鄰","STREET":"北安路","SECT":"二段","MAREA":" ","LANE":"４３３巷","ALLEY":" ","HOUSE_NO":"３２號","E_COORD97":168230.12,"N_COORD97":2548676.8399999999,"ADDRESS":"北安路二段４３３巷３２號","OBJECTID":337508},"geometry":{"x":168230.12000000104,"y":2548676.8400000036}},{"attributes":{"ID":337518,"DIS_CODE":0,"TOWNNAME":"安南區","LI":"梅花里","LIN":"1鄰","STREET":"北安路","SECT":"二段","MAREA":" ","LANE":"４３３巷","ALLEY":" ","HOUSE_NO":"３０號","E_COORD97":168233.14000000001,"N_COORD97":2548676.6299999999,"ADDRESS":"北安路二段４３３巷３０號","OBJECTID":337509},"geometry":{"x":168233.1400000006,"y":2548676.629999999}},{"attributes":{"ID":337519,"DIS_CODE":0,"TOWNNAME":"東區","LI":"文聖里","LIN":"1鄰","STREET":"裕學路","SECT":" ","MAREA":" ","LANE":" ","ALLEY":" ","HOUSE_NO":"３９號","E_COORD97":171771.89999999999,"N_COORD97":2542820.2799999998,"ADDRESS":"裕學路３９號","OBJECTID":337510},"geometry":{"x":171771.90000000037,"y":2542820.2799999993}},{"attributes":{"ID":337520,"DIS_CODE":0,"TOWNNAME":"東區","LI":"東明里","LIN":"1鄰","STREET":"東興路","SECT":" ","MAREA":" ","LANE":"１１巷","ALLEY":" ","HOUSE_NO":"２６號","E_COORD97":170842.32999999999,"N_COORD97":2543449.2200000002,"ADDRESS":"東興路１１巷２６號","OBJECTID":337511},"geometry":{"x":170842.33000000101,"y":2543449.2200000007}},{"attributes":{"ID":337521,"DIS_CODE":0,"TOWNNAME":"東區","LI":"崇德里","LIN":"1鄰","STREET":"崇善路","SECT":" ","MAREA":" ","LANE":"２３２巷","ALLEY":" ","HOUSE_NO":"９３號","E_COORD97":170628.09,"N_COORD97":2541837.8399999999,"ADDRESS":"崇善路２３２巷９３號","OBJECTID":337512},"geometry":{"x":170628.08999999892,"y":2541837.8399999999}},{"attributes":{"ID":337522,"DIS_CODE":0,"TOWNNAME":"仁德區","LI":"田厝里","LIN":"1鄰","STREET":"保安路","SECT":"二段","MAREA":" ","LANE":"６３０巷","ALLEY":" ","HOUSE_NO":"３６號","E_COORD97":172776.57000000001,"N_COORD97":2537492.0600000001,"ADDRESS":"保安路二段６３０巷３６號","OBJECTID":337513},"geometry":{"x":172776.57000000216,"y":2537492.0600000024}},{"attributes":{"ID":337523,"DIS_CODE":0,"TOWNNAME":"仁德區","LI":"後壁里","LIN":"1鄰","STREET":"中正路","SECT":"二段","MAREA":" ","LANE":"３９４巷","ALLEY":" ","HOUSE_NO":"１５號","E_COORD97":173294.17000000001,"N_COORD97":2539237.77,"ADDRESS":"中正路二段３９４巷１５號","OBJECTID":337514},"geometry":{"x":173294.16999999899,"y":2539237.7699999996}},{"attributes":{"ID":337524,"DIS_CODE":0,"TOWNNAME":"仁德區","LI":"成功里","LIN":"1鄰","STREET":"保生東路","SECT":" ","MAREA":" ","LANE":"１３８巷","ALLEY":" ","HOUSE_NO":"１０號","E_COORD97":171223.84,"N_COORD97":2539575.3100000001,"ADDRESS":"保生東路１３８巷１０號","OBJECTID":337515},"geometry":{"x":171223.84000000078,"y":2539575.3100000024}},{"attributes":{"ID":337525,"DIS_CODE":0,"TOWNNAME":"仁德區","LI":"成功里","LIN":"1鄰","STREET":"保生東路","SECT":" ","MAREA":" ","LANE":"１３８巷","ALLEY":" ","HOUSE_NO":"１８號","E_COORD97":171235.29000000001,"N_COORD97":2539574.0600000001,"ADDRESS":"保生東路１３８巷１８號","OBJECTID":337516},"geometry":{"x":171235.29000000004,"y":2539574.0600000024}},{"attributes":{"ID":337526,"DIS_CODE":0,"TOWNNAME":"仁德區","LI":"成功里","LIN":"1鄰","STREET":"保生東路","SECT":" ","MAREA":" ","LANE":"１３８巷","ALLEY":" ","HOUSE_NO":"１７號","E_COORD97":171240.01000000001,"N_COORD97":2539595.6899999999,"ADDRESS":"保生東路１３８巷１７號","OBJECTID":337517},"geometry":{"x":171240.00999999978,"y":2539595.6900000013}},{"attributes":{"ID":337527,"DIS_CODE":0,"TOWNNAME":"仁德區","LI":"新田里","LIN":"1鄰","STREET":"新田二街","SECT":" ","MAREA":" ","LANE":"１３８巷","ALLEY":" ","HOUSE_NO":"１０１號","E_COORD97":175080.53,"N_COORD97":2539847.2400000002,"ADDRESS":"新田二街１３８巷１０１號","OBJECTID":337518},"geometry":{"x":175080.53000000212,"y":2539847.2400000021}},{"attributes":{"ID":337528,"DIS_CODE":0,"TOWNNAME":"仁德區","LI":"新田里","LIN":"1鄰","STREET":"新田二街","SECT":" ","MAREA":" ","LANE":"１３８巷","ALLEY":" ","HOUSE_NO":"７號","E_COORD97":174941.42000000001,"N_COORD97":2540024.75,"ADDRESS":"新田二街１３８巷７號","OBJECTID":337519},"geometry":{"x":174941.41999999993,"y":2540024.75}},{"attributes":{"ID":337529,"DIS_CODE":0,"TOWNNAME":"仁德區","LI":"後壁里","LIN":"1鄰","STREET":"中正路","SECT":"二段","MAREA":" ","LANE":"３９４巷","ALLEY":" ","HOUSE_NO":"１７號","E_COORD97":173313.57999999999,"N_COORD97":2539226.27,"ADDRESS":"中正路二段３９４巷１７號","OBJECTID":337520},"geometry":{"x":173313.57999999914,"y":2539226.2699999996}},{"attributes":{"ID":337530,"DIS_CODE":0,"TOWNNAME":"仁德區","LI":"成功里","LIN":"1鄰","STREET":"保生東路","SECT":" ","MAREA":" ","LANE":"２１８巷","ALLEY":" ","HOUSE_NO":"１００號","E_COORD97":171239.41,"N_COORD97":2539607.1899999999,"ADDRESS":"保生東路２１８巷１００號","OBJECTID":337521},"geometry":{"x":171239.41000000015,"y":2539607.1899999995}},{"attributes":{"ID":337531,"DIS_CODE":0,"TOWNNAME":"仁德區","LI":"新田里","LIN":"1鄰","STREET":"新田二街","SECT":" ","MAREA":" ","LANE":"１３８巷","ALLEY":" ","HOUSE_NO":"４８號","E_COORD97":175033.82999999999,"N_COORD97":2539981.0099999998,"ADDRESS":"新田二街１３８巷４８號","OBJECTID":337522},"geometry":{"x":175033.83000000007,"y":2539981.0099999998}},{"attributes":{"ID":337532,"DIS_CODE":0,"TOWNNAME":"仁德區","LI":"新田里","LIN":"1鄰","STREET":"新田二街","SECT":" ","MAREA":" ","LANE":"１３８巷","ALLEY":" ","HOUSE_NO":"３２號","E_COORD97":175026.73999999999,"N_COORD97":2540016.3700000001,"ADDRESS":"新田二街１３８巷３２號","OBJECTID":337523},"geometry":{"x":175026.74000000115,"y":2540016.3700000029}},{"attributes":{"ID":337533,"DIS_CODE":0,"TOWNNAME":"東區","LI":"自強里","LIN":"5鄰","STREET":"東門路","SECT":"三段","MAREA":" ","LANE":"３７巷","ALLEY":" ","HOUSE_NO":"１８號","E_COORD97":171239.19,"N_COORD97":2542400.3799999999,"ADDRESS":"東門路三段３７巷１８號","OBJECTID":337524},"geometry":{"x":171239.19000000134,"y":2542400.3800000008}},{"attributes":{"ID":337534,"DIS_CODE":0,"TOWNNAME":"東區","LI":"自強里","LIN":"5鄰","STREET":"東門路","SECT":"三段","MAREA":" ","LANE":"３７巷","ALLEY":" ","HOUSE_NO":"２０號","E_COORD97":171238.91,"N_COORD97":2542407.3999999999,"ADDRESS":"東門路三段３７巷２０號","OBJECTID":337525},"geometry":{"x":171238.91000000108,"y":2542407.4000000004}},{"attributes":{"ID":337535,"DIS_CODE":0,"TOWNNAME":"東區","LI":"復興里","LIN":"5鄰","STREET":"富農街","SECT":"一段","MAREA":" ","LANE":"２１８巷","ALLEY":" ","HOUSE_NO":"１０號","E_COORD97":171588.29999999999,"N_COORD97":2542537.3700000001,"ADDRESS":"富農街一段２１８巷１０號","OBJECTID":337526},"geometry":{"x":171588.30000000075,"y":2542537.370000001}},{"attributes":{"ID":337536,"DIS_CODE":0,"TOWNNAME":"東區","LI":"復興里","LIN":"5鄰","STREET":"富農街","SECT":"一段","MAREA":" ","LANE":"２１８巷","ALLEY":" ","HOUSE_NO":"１１號","E_COORD97":171611.39000000001,"N_COORD97":2542560.6000000001,"ADDRESS":"富農街一段２１８巷１１號","OBJECTID":337527},"geometry":{"x":171611.3900000006,"y":2542560.5999999996}},{"attributes":{"ID":337537,"DIS_CODE":0,"TOWNNAME":"東區","LI":"復興里","LIN":"5鄰","STREET":"富農街","SECT":"一段","MAREA":" ","LANE":"２１８巷","ALLEY":" ","HOUSE_NO":"１２號","E_COORD97":171593.42999999999,"N_COORD97":2542537.3700000001,"ADDRESS":"富農街一段２１８巷１２號","OBJECTID":337528},"geometry":{"x":171593.4299999997,"y":2542537.370000001}},{"attributes":{"ID":337538,"DIS_CODE":0,"TOWNNAME":"東區","LI":"復興里","LIN":"5鄰","STREET":"富農街","SECT":"一段","MAREA":" ","LANE":"２１８巷","ALLEY":" ","HOUSE_NO":"１３號","E_COORD97":171616.84,"N_COORD97":2542560.6000000001,"ADDRESS":"富農街一段２１８巷１３號","OBJECTID":337529},"geometry":{"x":171616.84000000078,"y":2542560.5999999996}},{"attributes":{"ID":337539,"DIS_CODE":0,"TOWNNAME":"東區","LI":"復興里","LIN":"5鄰","STREET":"富農街","SECT":"一段","MAREA":" ","LANE":"２１８巷","ALLEY":" ","HOUSE_NO":"１４號","E_COORD97":171598.56,"N_COORD97":2542539.6200000001,"ADDRESS":"富農街一段２１８巷１４號","OBJECTID":337530},"geometry":{"x":171598.56000000052,"y":2542539.6200000048}},{"attributes":{"ID":337540,"DIS_CODE":0,"TOWNNAME":"仁德區","LI":"成功里","LIN":"1鄰","STREET":"保生東路","SECT":" ","MAREA":" ","LANE":"１３８巷","ALLEY":" ","HOUSE_NO":"５號","E_COORD97":171212.88,"N_COORD97":2539587.6899999999,"ADDRESS":"保生東路１３８巷５號","OBJECTID":337531},"geometry":{"x":171212.88000000175,"y":2539587.6900000032}},{"attributes":{"ID":337541,"DIS_CODE":0,"TOWNNAME":"仁德區","LI":"成功里","LIN":"1鄰","STREET":"保生東路","SECT":" ","MAREA":" ","LANE":"１３８巷","ALLEY":" ","HOUSE_NO":"５６號","E_COORD97":171297.59,"N_COORD97":2539565.5499999998,"ADDRESS":"保生東路１３８巷５６號","OBJECTID":337532},"geometry":{"x":171297.58999999985,"y":2539565.5500000007}},{"attributes":{"ID":337542,"DIS_CODE":0,"TOWNNAME":"仁德區","LI":"新田里","LIN":"1鄰","STREET":"新田二街","SECT":" ","MAREA":" ","LANE":"１３８巷","ALLEY":" ","HOUSE_NO":"５２號","E_COORD97":175036.98999999999,"N_COORD97":2539968.5099999998,"ADDRESS":"新田二街１３８巷５２號","OBJECTID":337533},"geometry":{"x":175036.99000000115,"y":2539968.5099999998}},{"attributes":{"ID":337543,"DIS_CODE":0,"TOWNNAME":"仁德區","LI":"田厝里","LIN":"1鄰","STREET":"保安路","SECT":"二段","MAREA":" ","LANE":"６３０巷","ALLEY":" ","HOUSE_NO":"４８號","E_COORD97":172780.41,"N_COORD97":2537467.8799999999,"ADDRESS":"保安路二段６３０巷４８號","OBJECTID":337534},"geometry":{"x":172780.41000000015,"y":2537467.8800000008}},{"attributes":{"ID":337544,"DIS_CODE":0,"TOWNNAME":"仁德區","LI":"成功里","LIN":"1鄰","STREET":"保生東路","SECT":" ","MAREA":" ","LANE":"１３８巷","ALLEY":" ","HOUSE_NO":"３０號","E_COORD97":171257.79000000001,"N_COORD97":2539572.0600000001,"ADDRESS":"保生東路１３８巷３０號","OBJECTID":337535},"geometry":{"x":171257.79000000097,"y":2539572.0600000005}},{"attributes":{"ID":337545,"DIS_CODE":0,"TOWNNAME":"仁德區","LI":"成功里","LIN":"1鄰","STREET":"保生東路","SECT":" ","MAREA":" ","LANE":"１３８巷","ALLEY":" ","HOUSE_NO":"２０號","E_COORD97":171239.20000000001,"N_COORD97":2539574.0600000001,"ADDRESS":"保生東路１３８巷２０號","OBJECTID":337536},"geometry":{"x":171239.20000000019,"y":2539574.0600000024}},{"attributes":{"ID":337546,"DIS_CODE":0,"TOWNNAME":"永康區","LI":"烏竹里","LIN":"1鄰","STREET":"烏竹北街","SECT":" ","MAREA":" ","LANE":"２０巷","ALLEY":" ","HOUSE_NO":"７２號","E_COORD97":174514.98999999999,"N_COORD97":2549558.8500000001,"ADDRESS":"烏竹北街２０巷７２號","OBJECTID":337537},"geometry":{"x":174514.99000000115,"y":2549558.8500000015}},{"attributes":{"ID":337547,"DIS_CODE":0,"TOWNNAME":"永康區","LI":"烏竹里","LIN":"1鄰","STREET":"烏竹北街","SECT":" ","MAREA":" ","LANE":"２０巷","ALLEY":" ","HOUSE_NO":"７６號","E_COORD97":174511.20000000001,"N_COORD97":2549556.1099999999,"ADDRESS":"烏竹北街２０巷７６號","OBJECTID":337538},"geometry":{"x":174511.20000000019,"y":2549556.1100000031}},{"attributes":{"ID":337548,"DIS_CODE":0,"TOWNNAME":"永康區","LI":"烏竹里","LIN":"1鄰","STREET":"烏竹北街","SECT":" ","MAREA":" ","LANE":"２０巷","ALLEY":" ","HOUSE_NO":"７８號","E_COORD97":174507.16,"N_COORD97":2549553.04,"ADDRESS":"烏竹北街２０巷７８號","OBJECTID":337539},"geometry":{"x":174507.16000000108,"y":2549553.040000001}},{"attributes":{"ID":337549,"DIS_CODE":0,"TOWNNAME":"永康區","LI":"烏竹里","LIN":"1鄰","STREET":"烏竹北街","SECT":" ","MAREA":" ","LANE":"２０巷","ALLEY":" ","HOUSE_NO":"８０號","E_COORD97":174502.87,"N_COORD97":2549550.21,"ADDRESS":"烏竹北街２０巷８０號","OBJECTID":337540},"geometry":{"x":174502.87000000011,"y":2549550.2100000046}},{"attributes":{"ID":337550,"DIS_CODE":0,"TOWNNAME":"永康區","LI":"烏竹里","LIN":"1鄰","STREET":"烏竹北街","SECT":" ","MAREA":" ","LANE":"２０巷","ALLEY":" ","HOUSE_NO":"８２號","E_COORD97":174496.51999999999,"N_COORD97":2549549.52,"ADDRESS":"烏竹北街２０巷８２號","OBJECTID":337541},"geometry":{"x":174496.51999999955,"y":2549549.5199999996}},{"attributes":{"ID":337551,"DIS_CODE":0,"TOWNNAME":"永康區","LI":"烏竹里","LIN":"1鄰","STREET":"烏竹北街","SECT":" ","MAREA":" ","LANE":"９８巷","ALLEY":" ","HOUSE_NO":"１８號","E_COORD97":174518.09,"N_COORD97":2549577.8399999999,"ADDRESS":"烏竹北街９８巷１８號","OBJECTID":337542},"geometry":{"x":174518.08999999985,"y":2549577.8399999999}},{"attributes":{"ID":337552,"DIS_CODE":0,"TOWNNAME":"永康區","LI":"烏竹里","LIN":"1鄰","STREET":"烏竹北街","SECT":" ","MAREA":" ","LANE":"９８巷","ALLEY":" ","HOUSE_NO":"２０號","E_COORD97":174521.84,"N_COORD97":2549573.6099999999,"ADDRESS":"烏竹北街９８巷２０號","OBJECTID":337543},"geometry":{"x":174521.83999999985,"y":2549573.6100000013}},{"attributes":{"ID":337553,"DIS_CODE":0,"TOWNNAME":"永康區","LI":"烏竹里","LIN":"1鄰","STREET":"烏竹北街","SECT":" ","MAREA":" ","LANE":"９８巷","ALLEY":" ","HOUSE_NO":"２２號","E_COORD97":174525.35000000001,"N_COORD97":2549569.8199999998,"ADDRESS":"烏竹北街９８巷２２號","OBJECTID":337544},"geometry":{"x":174525.35000000056,"y":2549569.8200000022}},{"attributes":{"ID":337554,"DIS_CODE":0,"TOWNNAME":"永康區","LI":"烏竹里","LIN":"1鄰","STREET":"烏竹北街","SECT":" ","MAREA":" ","LANE":"９８巷","ALLEY":" ","HOUSE_NO":"２６號","E_COORD97":174528.5,"N_COORD97":2549566.6099999999,"ADDRESS":"烏竹北街９８巷２６號","OBJECTID":337545},"geometry":{"x":174528.50000000093,"y":2549566.6100000013}},{"attributes":{"ID":337555,"DIS_CODE":0,"TOWNNAME":"永康區","LI":"烏竹里","LIN":"1鄰","STREET":"烏竹北街","SECT":" ","MAREA":" ","LANE":"９８巷","ALLEY":" ","HOUSE_NO":"２８號","E_COORD97":174530.92999999999,"N_COORD97":2549562.7599999998,"ADDRESS":"烏竹北街９８巷２８號","OBJECTID":337546},"geometry":{"x":174530.9299999997,"y":2549562.7600000016}},{"attributes":{"ID":337556,"DIS_CODE":0,"TOWNNAME":"永康區","LI":"烏竹里","LIN":"1鄰","STREET":"烏竹北街","SECT":" ","MAREA":" ","LANE":"９８巷","ALLEY":" ","HOUSE_NO":"３０號","E_COORD97":174547.56,"N_COORD97":2549575.5699999998,"ADDRESS":"烏竹北街９８巷３０號","OBJECTID":337547},"geometry":{"x":174547.56000000052,"y":2549575.5700000022}},{"attributes":{"ID":337557,"DIS_CODE":0,"TOWNNAME":"中西區","LI":"協進里","LIN":"8鄰","STREET":"濟生街","SECT":" ","MAREA":" ","LANE":" ","ALLEY":" ","HOUSE_NO":"５９號","E_COORD97":166992.09,"N_COORD97":2544277.5899999999,"ADDRESS":"濟生街５９號","OBJECTID":337548},"geometry":{"x":166992.09000000171,"y":2544277.589999998}},{"attributes":{"ID":337558,"DIS_CODE":0,"TOWNNAME":"中西區","LI":"協進里","LIN":"8鄰","STREET":"濟生街","SECT":" ","MAREA":" ","LANE":" ","ALLEY":" ","HOUSE_NO":"６１號","E_COORD97":166992.20000000001,"N_COORD97":2544281.23,"ADDRESS":"濟生街６１號","OBJECTID":337549},"geometry":{"x":166992.20000000112,"y":2544281.2300000023}},{"attributes":{"ID":337559,"DIS_CODE":0,"TOWNNAME":"中西區","LI":"協進里","LIN":"8鄰","STREET":"濟生街","SECT":" ","MAREA":" ","LANE":" ","ALLEY":" ","HOUSE_NO":"６３號","E_COORD97":166984.04000000001,"N_COORD97":2544276.6200000001,"ADDRESS":"濟生街６３號","OBJECTID":337550},"geometry":{"x":166984.0400000019,"y":2544276.6200000029}},{"attributes":{"ID":337560,"DIS_CODE":0,"TOWNNAME":"中西區","LI":"協進里","LIN":"8鄰","STREET":"濟生街","SECT":" ","MAREA":" ","LANE":" ","ALLEY":" ","HOUSE_NO":"６５號","E_COORD97":166979.75,"N_COORD97":2544276.6600000001,"ADDRESS":"濟生街６５號","OBJECTID":337551},"geometry":{"x":166979.75000000093,"y":2544276.6600000001}},{"attributes":{"ID":337561,"DIS_CODE":0,"TOWNNAME":"中西區","LI":"協進里","LIN":"8鄰","STREET":"濟生街","SECT":" ","MAREA":" ","LANE":" ","ALLEY":" ","HOUSE_NO":"６７號","E_COORD97":166975.34,"N_COORD97":2544276.8700000001,"ADDRESS":"濟生街６７號","OBJECTID":337552},"geometry":{"x":166975.34000000078,"y":2544276.8699999992}},{"attributes":{"ID":337562,"DIS_CODE":0,"TOWNNAME":"中西區","LI":"協進里","LIN":"8鄰","STREET":"濟生街","SECT":" ","MAREA":" ","LANE":" ","ALLEY":" ","HOUSE_NO":"６９號","E_COORD97":166970.41,"N_COORD97":2544277.73,"ADDRESS":"濟生街６９號","OBJECTID":337553},"geometry":{"x":166970.41000000108,"y":2544277.7300000023}},{"attributes":{"ID":337563,"DIS_CODE":0,"TOWNNAME":"中西區","LI":"協進里","LIN":"8鄰","STREET":"濟生街","SECT":" ","MAREA":" ","LANE":" ","ALLEY":" ","HOUSE_NO":"７１號","E_COORD97":166965.89999999999,"N_COORD97":2544279.4399999999,"ADDRESS":"濟生街７１號","OBJECTID":337554},"geometry":{"x":166965.90000000037,"y":2544279.4400000013}},{"attributes":{"ID":337564,"DIS_CODE":0,"TOWNNAME":"中西區","LI":"協進里","LIN":"8鄰","STREET":"濟生街","SECT":" ","MAREA":" ","LANE":" ","ALLEY":" ","HOUSE_NO":"７３號","E_COORD97":166963.20999999999,"N_COORD97":2544287.48,"ADDRESS":"濟生街７３號","OBJECTID":337555},"geometry":{"x":166963.21000000089,"y":2544287.4800000023}},{"attributes":{"ID":337565,"DIS_CODE":0,"TOWNNAME":"中西區","LI":"協進里","LIN":"8鄰","STREET":"濟生街","SECT":" ","MAREA":" ","LANE":" ","ALLEY":" ","HOUSE_NO":"７５號","E_COORD97":166959.35000000001,"N_COORD97":2544286.2999999998,"ADDRESS":"濟生街７５號","OBJECTID":337556},"geometry":{"x":166959.3499999987,"y":2544286.3000000007}},{"attributes":{"ID":337566,"DIS_CODE":0,"TOWNNAME":"東區","LI":"復興里","LIN":"5鄰","STREET":"富農街","SECT":"一段","MAREA":" ","LANE":"２１８巷","ALLEY":" ","HOUSE_NO":"３３號","E_COORD97":171663.64999999999,"N_COORD97":2542566.5899999999,"ADDRESS":"富農街一段２１８巷３３號","OBJECTID":337557},"geometry":{"x":171663.65000000037,"y":2542566.5900000017}},{"attributes":{"ID":337567,"DIS_CODE":0,"TOWNNAME":"東區","LI":"復興里","LIN":"5鄰","STREET":"富農街","SECT":"一段","MAREA":" ","LANE":"２１８巷","ALLEY":" ","HOUSE_NO":"３５號","E_COORD97":171667.5,"N_COORD97":2542566.27,"ADDRESS":"富農街一段２１８巷３５號","OBJECTID":337558},"geometry":{"x":171667.5,"y":2542566.2699999996}},{"attributes":{"ID":337568,"DIS_CODE":0,"TOWNNAME":"東區","LI":"復興里","LIN":"5鄰","STREET":"富農街","SECT":"一段","MAREA":" ","LANE":"２１８巷","ALLEY":" ","HOUSE_NO":"３６號","E_COORD97":171649.85999999999,"N_COORD97":2542547.7000000002,"ADDRESS":"富農街一段２１８巷３６號","OBJECTID":337559},"geometry":{"x":171649.86000000127,"y":2542547.7000000011}},{"attributes":{"ID":337569,"DIS_CODE":0,"TOWNNAME":"東區","LI":"復興里","LIN":"5鄰","STREET":"富農街","SECT":"一段","MAREA":" ","LANE":"２１８巷","ALLEY":" ","HOUSE_NO":"３８號","E_COORD97":171654.98999999999,"N_COORD97":2542548.02,"ADDRESS":"富農街一段２１８巷３８號","OBJECTID":337560},"geometry":{"x":171654.99000000115,"y":2542548.0199999996}},{"attributes":{"ID":337570,"DIS_CODE":0,"TOWNNAME":"東區","LI":"復興里","LIN":"5鄰","STREET":"富農街","SECT":"一段","MAREA":" ","LANE":"２１８巷","ALLEY":" ","HOUSE_NO":"３號","E_COORD97":171591.82999999999,"N_COORD97":2542560.2799999998,"ADDRESS":"富農街一段２１８巷３號","OBJECTID":337561},"geometry":{"x":171591.83000000101,"y":2542560.2800000031}},{"attributes":{"ID":337571,"DIS_CODE":0,"TOWNNAME":"東區","LI":"復興里","LIN":"5鄰","STREET":"富農街","SECT":"一段","MAREA":" ","LANE":"２１８巷","ALLEY":" ","HOUSE_NO":"４０號","E_COORD97":171659.48000000001,"N_COORD97":2542547.7000000002,"ADDRESS":"富農街一段２１８巷４０號","OBJECTID":337562},"geometry":{"x":171659.48000000045,"y":2542547.7000000011}},{"attributes":{"ID":337572,"DIS_CODE":0,"TOWNNAME":"東區","LI":"復興里","LIN":"5鄰","STREET":"富農街","SECT":"一段","MAREA":" ","LANE":"２１８巷","ALLEY":" ","HOUSE_NO":"４２號","E_COORD97":171664.60999999999,"N_COORD97":2542548.98,"ADDRESS":"富農街一段２１８巷４２號","OBJECTID":337563},"geometry":{"x":171664.61000000127,"y":2542548.9800000004}},{"attributes":{"ID":337573,"DIS_CODE":0,"TOWNNAME":"東區","LI":"復興里","LIN":"5鄰","STREET":"富農街","SECT":"一段","MAREA":" ","LANE":"２１８巷","ALLEY":" ","HOUSE_NO":"４４號","E_COORD97":171669.42000000001,"N_COORD97":2542548.3399999999,"ADDRESS":"富農街一段２１８巷４４號","OBJECTID":337564},"geometry":{"x":171669.41999999993,"y":2542548.3400000017}},{"attributes":{"ID":337574,"DIS_CODE":0,"TOWNNAME":"東區","LI":"復興里","LIN":"5鄰","STREET":"富農街","SECT":"一段","MAREA":" ","LANE":"２１８巷","ALLEY":" ","HOUSE_NO":"４號","E_COORD97":171573.54999999999,"N_COORD97":2542539.2999999998,"ADDRESS":"富農街一段２１８巷４號","OBJECTID":337565},"geometry":{"x":171573.54999999981,"y":2542539.3000000026}},{"attributes":{"ID":337575,"DIS_CODE":0,"TOWNNAME":"東區","LI":"復興里","LIN":"5鄰","STREET":"富農街","SECT":"一段","MAREA":" ","LANE":"２１８巷","ALLEY":" ","HOUSE_NO":"５號","E_COORD97":171596.32000000001,"N_COORD97":2542560.2799999998,"ADDRESS":"富農街一段２１８巷５號","OBJECTID":337566},"geometry":{"x":171596.3200000003,"y":2542560.2800000031}},{"attributes":{"ID":337576,"DIS_CODE":0,"TOWNNAME":"東區","LI":"復興里","LIN":"5鄰","STREET":"富農街","SECT":"一段","MAREA":" ","LANE":"２１８巷","ALLEY":" ","HOUSE_NO":"６號","E_COORD97":171578.35999999999,"N_COORD97":2542539.6200000001,"ADDRESS":"富農街一段２１８巷６號","OBJECTID":337567},"geometry":{"x":171578.36000000127,"y":2542539.6200000048}},{"attributes":{"ID":337577,"DIS_CODE":0,"TOWNNAME":"東區","LI":"復興里","LIN":"5鄰","STREET":"富農街","SECT":"一段","MAREA":" ","LANE":"２１８巷","ALLEY":" ","HOUSE_NO":"７號","E_COORD97":171600.81,"N_COORD97":2542560.2799999998,"ADDRESS":"富農街一段２１８巷７號","OBJECTID":337568},"geometry":{"x":171600.80999999959,"y":2542560.2800000031}},{"attributes":{"ID":337578,"DIS_CODE":0,"TOWNNAME":"東區","LI":"復興里","LIN":"5鄰","STREET":"富農街","SECT":"一段","MAREA":" ","LANE":"２１８巷","ALLEY":" ","HOUSE_NO":"８號","E_COORD97":171583.81,"N_COORD97":2542538.0099999998,"ADDRESS":"富農街一段２１８巷８號","OBJECTID":337569},"geometry":{"x":171583.80999999959,"y":2542538.0099999998}},{"attributes":{"ID":337579,"DIS_CODE":0,"TOWNNAME":"永康區","LI":"\u25A0洲里","LIN":"24鄰","STREET":"正南二街","SECT":" ","MAREA":" ","LANE":" ","ALLEY":" ","HOUSE_NO":"７８號","E_COORD97":170758.09,"N_COORD97":2548369.2400000002,"ADDRESS":"正南二街７８號","OBJECTID":337570},"geometry":{"x":170758.08999999985,"y":2548369.2400000039}},{"attributes":{"ID":337580,"DIS_CODE":0,"TOWNNAME":"永康區","LI":"安康里","LIN":" ","STREET":"中山南路","SECT":" ","MAREA":" ","LANE":" ","ALLEY":" ","HOUSE_NO":"１２１之１號","E_COORD97":170983.42999999999,"N_COORD97":2545938.79,"ADDRESS":"中山南路１２１之１號","OBJECTID":337571},"geometry":{"x":170983.43000000156,"y":2545938.7899999991}},{"attributes":{"ID":337581,"DIS_CODE":0,"TOWNNAME":"永康區","LI":"甲頂里","LIN":" ","STREET":"中央路","SECT":" ","MAREA":" ","LANE":" ","ALLEY":" ","HOUSE_NO":"３７號","E_COORD97":169623.47,"N_COORD97":2547039.2200000002,"ADDRESS":"中央路３７號","OBJECTID":337572},"geometry":{"x":169623.46999999974,"y":2547039.2200000007}},{"attributes":{"ID":337582,"DIS_CODE":0,"TOWNNAME":"永康區","LI":"南灣里","LIN":" ","STREET":"南興路","SECT":" ","MAREA":" ","LANE":" ","ALLEY":" ","HOUSE_NO":"２１之５號","E_COORD97":174120.88,"N_COORD97":2543991.4100000001,"ADDRESS":"南興路２１之５號","OBJECTID":337573},"geometry":{"x":174120.88000000082,"y":2543991.410000002}},{"attributes":{"ID":337583,"DIS_CODE":0,"TOWNNAME":"永康區","LI":"東灣里","LIN":" ","STREET":"大灣一街","SECT":" ","MAREA":" ","LANE":" ","ALLEY":" ","HOUSE_NO":"１９８號","E_COORD97":174833.32000000001,"N_COORD97":2544568.25,"ADDRESS":"大灣一街１９８號","OBJECTID":337574},"geometry":{"x":174833.32000000123,"y":2544568.2499999981}},{"attributes":{"ID":337584,"DIS_CODE":0,"TOWNNAME":"永康區","LI":"勝利里","LIN":" ","STREET":"中華一路","SECT":" ","MAREA":" ","LANE":" ","ALLEY":" ","HOUSE_NO":"２２５號","E_COORD97":171397.79000000001,"N_COORD97":2544966.25,"ADDRESS":"中華一路２２５號","OBJECTID":337575},"geometry":{"x":171397.79000000004,"y":2544966.2500000019}},{"attributes":{"ID":337585,"DIS_CODE":0,"TOWNNAME":"永康區","LI":"尚頂里","LIN":" ","STREET":"中正三街","SECT":" ","MAREA":" ","LANE":" ","ALLEY":" ","HOUSE_NO":"１０之１號","E_COORD97":172600.01999999999,"N_COORD97":2548782.54,"ADDRESS":"中正三街１０之１號","OBJECTID":337576},"geometry":{"x":172600.02000000048,"y":2548782.5399999991}},{"attributes":{"ID":337586,"DIS_CODE":0,"TOWNNAME":"永康區","LI":"\u25A0洲里","LIN":"20鄰","STREET":"中正南路","SECT":" ","MAREA":" ","LANE":" ","ALLEY":" ","HOUSE_NO":"７８５號","E_COORD97":171685.85999999999,"N_COORD97":2548963.4900000002,"ADDRESS":"中正南路７８５號","OBJECTID":337577},"geometry":{"x":171685.86000000034,"y":2548963.4900000002}},{"attributes":{"ID":337587,"DIS_CODE":0,"TOWNNAME":"永康區","LI":"南灣里","LIN":" ","STREET":"立興街","SECT":" ","MAREA":" ","LANE":" ","ALLEY":" ","HOUSE_NO":"７６號","E_COORD97":174558.92999999999,"N_COORD97":2544800.7799999998,"ADDRESS":"立興街７６號","OBJECTID":337578},"geometry":{"x":174558.93000000063,"y":2544800.7799999993}},{"attributes":{"ID":337588,"DIS_CODE":0,"TOWNNAME":"官田區","LI":"大崎里","LIN":"5鄰","STREET":" ","SECT":" ","MAREA":"大崎","LANE":" ","ALLEY":" ","HOUSE_NO":"４０號","E_COORD97":185755.26999999999,"N_COORD97":2565573.1200000001,"ADDRESS":"大崎４０號","OBJECTID":337579},"geometry":{"x":185755.27000000048,"y":2565573.120000001}},{"attributes":{"ID":337589,"DIS_CODE":0,"TOWNNAME":"永康區","LI":"安康里","LIN":" ","STREET":"中華路","SECT":" ","MAREA":" ","LANE":" ","ALLEY":" ","HOUSE_NO":"６９５之３號","E_COORD97":170922.07999999999,"N_COORD97":2546319.2999999998,"ADDRESS":"中華路６９５之３號","OBJECTID":337580},"geometry":{"x":170922.08000000101,"y":2546319.3000000026}},{"attributes":{"ID":337590,"DIS_CODE":0,"TOWNNAME":"永康區","LI":"西勢里","LIN":" ","STREET":"富強路","SECT":"二段","MAREA":" ","LANE":" ","ALLEY":" ","HOUSE_NO":"１４號","E_COORD97":175660.45000000001,"N_COORD97":2546893.9199999999,"ADDRESS":"富強路二段１４號","OBJECTID":337581},"geometry":{"x":175660.45000000019,"y":2546893.9200000018}},{"attributes":{"ID":337591,"DIS_CODE":0,"TOWNNAME":"永康區","LI":"尚頂里","LIN":" ","STREET":"中正南路","SECT":" ","MAREA":" ","LANE":" ","ALLEY":" ","HOUSE_NO":"２６０號","E_COORD97":170362.48999999999,"N_COORD97":2547569.1099999999,"ADDRESS":"中正南路２６０號","OBJECTID":337582},"geometry":{"x":170362.49000000022,"y":2547569.1100000031}},{"attributes":{"ID":337592,"DIS_CODE":0,"TOWNNAME":"永康區","LI":"南灣里","LIN":" ","STREET":"南灣街","SECT":" ","MAREA":" ","LANE":" ","ALLEY":" ","HOUSE_NO":"４５號","E_COORD97":174518.76999999999,"N_COORD97":2544920.48,"ADDRESS":"南灣街４５號","OBJECTID":337583},"geometry":{"x":174518.77000000142,"y":2544920.4800000023}},{"attributes":{"ID":337593,"DIS_CODE":0,"TOWNNAME":"永康區","LI":"烏竹里","LIN":" ","STREET":"龍橋街","SECT":" ","MAREA":" ","LANE":" ","ALLEY":" ","HOUSE_NO":"２６４號","E_COORD97":174564.14000000001,"N_COORD97":2548898.5,"ADDRESS":"龍橋街２６４號","OBJECTID":337584},"geometry":{"x":174564.1400000006,"y":2548898.5}},{"attributes":{"ID":337594,"DIS_CODE":0,"TOWNNAME":"永康區","LI":"大灣里","LIN":" ","STREET":"大灣路","SECT":" ","MAREA":" ","LANE":" ","ALLEY":" ","HOUSE_NO":"２３０之５號","E_COORD97":173390.81,"N_COORD97":2545156.3999999999,"ADDRESS":"大灣路２３０之５號","OBJECTID":337585},"geometry":{"x":173390.80999999959,"y":2545156.4000000004}},{"attributes":{"ID":337595,"DIS_CODE":0,"TOWNNAME":"永康區","LI":"中興里","LIN":"5鄰","STREET":"中華路","SECT":" ","MAREA":" ","LANE":"２１４巷","ALLEY":" ","HOUSE_NO":"６９號","E_COORD97":171886.32000000001,"N_COORD97":2545075.25,"ADDRESS":"中華路２１４巷６９號","OBJECTID":337586},"geometry":{"x":171886.3200000003,"y":2545075.2500000019}},{"attributes":{"ID":337596,"DIS_CODE":0,"TOWNNAME":"永康區","LI":"復興里","LIN":"5鄰","STREET":"復興路","SECT":" ","MAREA":" ","LANE":"４２３巷","ALLEY":" ","HOUSE_NO":"１５號","E_COORD97":172132.26000000001,"N_COORD97":2544278.5299999998,"ADDRESS":"復興路４２３巷１５號","OBJECTID":337587},"geometry":{"x":172132.26000000164,"y":2544278.5300000012}},{"attributes":{"ID":337597,"DIS_CODE":0,"TOWNNAME":"永康區","LI":"西橋里","LIN":"5鄰","STREET":"中華西街","SECT":" ","MAREA":" ","LANE":"２１巷","ALLEY":" ","HOUSE_NO":"１８號","E_COORD97":170731.20000000001,"N_COORD97":2545925,"ADDRESS":"中華西街２１巷１８號","OBJECTID":337588},"geometry":{"x":170731.20000000205,"y":2545925}},{"attributes":{"ID":337598,"DIS_CODE":0,"TOWNNAME":"永康區","LI":"西勢里","LIN":"5鄰","STREET":"富強路","SECT":"一段","MAREA":" ","LANE":"２７９巷","ALLEY":" ","HOUSE_NO":"１１１號","E_COORD97":175351.48999999999,"N_COORD97":2546677.52,"ADDRESS":"富強路一段２７９巷１１１號","OBJECTID":337589},"geometry":{"x":175351.49000000022,"y":2546677.5199999996}},{"attributes":{"ID":337599,"DIS_CODE":0,"TOWNNAME":"永康區","LI":"烏竹里","LIN":"1鄰","STREET":"烏竹北街","SECT":" ","MAREA":" ","LANE":"９８巷","ALLEY":" ","HOUSE_NO":"３２號","E_COORD97":174544.23999999999,"N_COORD97":2549578.9700000002,"ADDRESS":"烏竹北街９８巷３２號","OBJECTID":337590},"geometry":{"x":174544.24000000115,"y":2549578.9700000025}},{"attributes":{"ID":337600,"DIS_CODE":0,"TOWNNAME":"永康區","LI":"烏竹里","LIN":"1鄰","STREET":"烏竹北街","SECT":" ","MAREA":" ","LANE":"９８巷","ALLEY":" ","HOUSE_NO":"３６號","E_COORD97":174540.92000000001,"N_COORD97":2549582.6099999999,"ADDRESS":"烏竹北街９８巷３６號","OBJECTID":337591},"geometry":{"x":174540.92000000086,"y":2549582.6099999994}},{"attributes":{"ID":337601,"DIS_CODE":0,"TOWNNAME":"永康區","LI":"烏竹里","LIN":"1鄰","STREET":"烏竹北街","SECT":" ","MAREA":" ","LANE":"９８巷","ALLEY":" ","HOUSE_NO":"３８號","E_COORD97":174537.53,"N_COORD97":2549586.4100000001,"ADDRESS":"烏竹北街９８巷３８號","OBJECTID":337592},"geometry":{"x":174537.53000000026,"y":2549586.410000002}},{"attributes":{"ID":337602,"DIS_CODE":0,"TOWNNAME":"永康區","LI":"烏竹里","LIN":"1鄰","STREET":"烏竹北街","SECT":" ","MAREA":" ","LANE":"９８巷","ALLEY":" ","HOUSE_NO":"４０號","E_COORD97":174534.13,"N_COORD97":2549590.21,"ADDRESS":"烏竹北街９８巷４０號","OBJECTID":337593},"geometry":{"x":174534.13000000082,"y":2549590.2100000009}},{"attributes":{"ID":337603,"DIS_CODE":0,"TOWNNAME":"仁德區","LI":"上崙里","LIN":"1鄰","STREET":"德崙路","SECT":" ","MAREA":" ","LANE":"７７巷","ALLEY":" ","HOUSE_NO":"１１２號","E_COORD97":173672.12,"N_COORD97":2538454.52,"ADDRESS":"德崙路７７巷１１２號","OBJECTID":337594},"geometry":{"x":173672.12000000011,"y":2538454.5200000014}},{"attributes":{"ID":337604,"DIS_CODE":0,"TOWNNAME":"下營區","LI":"新興里","LIN":"1鄰","STREET":"新北街","SECT":" ","MAREA":" ","LANE":"９７巷","ALLEY":" ","HOUSE_NO":"１０號","E_COORD97":175056.82999999999,"N_COORD97":2571095.8399999999,"ADDRESS":"新北街９７巷１０號","OBJECTID":337595},"geometry":{"x":175056.83000000101,"y":2571095.8399999999}},{"attributes":{"ID":337605,"DIS_CODE":0,"TOWNNAME":"下營區","LI":"新興里","LIN":"1鄰","STREET":"新北街","SECT":" ","MAREA":" ","LANE":"９７巷","ALLEY":" ","HOUSE_NO":"１１號","E_COORD97":175025.82999999999,"N_COORD97":2571103.0499999998,"ADDRESS":"新北街９７巷１１號","OBJECTID":337596},"geometry":{"x":175025.83000000194,"y":2571103.0500000007}},{"attributes":{"ID":337606,"DIS_CODE":0,"TOWNNAME":"下營區","LI":"新興里","LIN":"1鄰","STREET":"新北街","SECT":" ","MAREA":" ","LANE":"９７巷","ALLEY":" ","HOUSE_NO":"１３號","E_COORD97":175024.89000000001,"N_COORD97":2571108.7200000002,"ADDRESS":"新北街９７巷１３號","OBJECTID":337597},"geometry":{"x":175024.88999999873,"y":2571108.7200000007}},{"attributes":{"ID":337607,"DIS_CODE":0,"TOWNNAME":"下營區","LI":"新興里","LIN":"1鄰","STREET":"新北街","SECT":" ","MAREA":" ","LANE":"９７巷","ALLEY":" ","HOUSE_NO":"１５號","E_COORD97":175024.10999999999,"N_COORD97":2571116.7200000002,"ADDRESS":"新北街９７巷１５號","OBJECTID":337598},"geometry":{"x":175024.1099999994,"y":2571116.7200000025}},{"attributes":{"ID":337608,"DIS_CODE":0,"TOWNNAME":"中西區","LI":"協進里","LIN":"8鄰","STREET":"濟生街","SECT":" ","MAREA":" ","LANE":" ","ALLEY":" ","HOUSE_NO":"７７號","E_COORD97":166956.66,"N_COORD97":2544288.5600000001,"ADDRESS":"濟生街７７號","OBJECTID":337599},"geometry":{"x":166956.66000000108,"y":2544288.5600000005}},{"attributes":{"ID":337609,"DIS_CODE":0,"TOWNNAME":"中西區","LI":"協進里","LIN":"8鄰","STREET":"濟生街","SECT":" ","MAREA":" ","LANE":" ","ALLEY":" ","HOUSE_NO":"７９號","E_COORD97":166953.01000000001,"N_COORD97":2544287.0600000001,"ADDRESS":"濟生街７９號","OBJECTID":337600},"geometry":{"x":166953.00999999978,"y":2544287.0600000024}}]}