{"displayFieldName":"TOWNNAME","fieldAliases":{"ID":"ID","DIS_CODE":"DIS_CODE","TOWNNAME":"TOWNNAME","LI":"LI","LIN":"LIN","STREET":"STREET","SECT":"SECT","MAREA":"MAREA","LANE":"LANE","ALLEY":"ALLEY","HOUSE_NO":"HOUSE_NO","E_COORD97":"E_COORD97","N_COORD97":"N_COORD97","ADDRESS":"ADDRESS","OBJECTID":"OBJECTID"},"geometryType":"esriGeometryPoint","spatialReference":{"wkid":102443,"latestWkid":3826},"fields":[{"name":"ID","type":"esriFieldTypeDouble","alias":"ID"},{"name":"DIS_CODE","type":"esriFieldTypeInteger","alias":"DIS_CODE"},{"name":"TOWNNAME","type":"esriFieldTypeString","alias":"TOWNNAME","length":8},{"name":"LI","type":"esriFieldTypeString","alias":"LI","length":8},{"name":"LIN","type":"esriFieldTypeString","alias":"LIN","length":12},{"name":"STREET","type":"esriFieldTypeString","alias":"STREET","length":20},{"name":"SECT","type":"esriFieldTypeString","alias":"SECT","length":8},{"name":"MAREA","type":"esriFieldTypeString","alias":"MAREA","length":12},{"name":"LANE","type":"esriFieldTypeString","alias":"LANE","length":10},{"name":"ALLEY","type":"esriFieldTypeString","alias":"ALLEY","length":10},{"name":"HOUSE_NO","type":"esriFieldTypeString","alias":"HOUSE_NO","length":20},{"name":"E_COORD97","type":"esriFieldTypeDouble","alias":"E_COORD97"},{"name":"N_COORD97","type":"esriFieldTypeDouble","alias":"N_COORD97"},{"name":"ADDRESS","type":"esriFieldTypeString","alias":"ADDRESS","length":50},{"name":"OBJECTID","type":"esriFieldTypeOID","alias":"OBJECTID"}],"features":[{"attributes":{"ID":362611,"DIS_CODE":0,"TOWNNAME":"安南區","LI":"海佃里","LIN":"19鄰","STREET":"海佃路","SECT":"一段","MAREA":" ","LANE":"２１３巷","ALLEY":" ","HOUSE_NO":"２２號","E_COORD97":167040.76999999999,"N_COORD97":2547257.02,"ADDRESS":"海佃路一段２１３巷２２號","OBJECTID":362601},"geometry":{"x":167040.76999999955,"y":2547257.0199999996}},{"attributes":{"ID":362612,"DIS_CODE":0,"TOWNNAME":"安南區","LI":"海佃里","LIN":"19鄰","STREET":"海佃路","SECT":"一段","MAREA":" ","LANE":"２１３巷","ALLEY":" ","HOUSE_NO":"２３號","E_COORD97":167042.10000000001,"N_COORD97":2547229.79,"ADDRESS":"海佃路一段２１３巷２３號","OBJECTID":362602},"geometry":{"x":167042.09999999963,"y":2547229.790000001}},{"attributes":{"ID":362613,"DIS_CODE":0,"TOWNNAME":"安南區","LI":"海佃里","LIN":"19鄰","STREET":"海佃路","SECT":"一段","MAREA":" ","LANE":"２１３巷","ALLEY":" ","HOUSE_NO":"２４號","E_COORD97":167036.12,"N_COORD97":2547255.6899999999,"ADDRESS":"海佃路一段２１３巷２４號","OBJECTID":362603},"geometry":{"x":167036.12000000197,"y":2547255.6899999995}},{"attributes":{"ID":362614,"DIS_CODE":0,"TOWNNAME":"安南區","LI":"海佃里","LIN":"19鄰","STREET":"海佃路","SECT":"一段","MAREA":" ","LANE":"２１３巷","ALLEY":" ","HOUSE_NO":"２５號","E_COORD97":167036.78,"N_COORD97":2547229.1200000001,"ADDRESS":"海佃路一段２１３巷２５號","OBJECTID":362604},"geometry":{"x":167036.77999999933,"y":2547229.1200000029}},{"attributes":{"ID":362615,"DIS_CODE":0,"TOWNNAME":"安南區","LI":"海佃里","LIN":"19鄰","STREET":"海佃路","SECT":"一段","MAREA":" ","LANE":"２１３巷","ALLEY":" ","HOUSE_NO":"２６號","E_COORD97":167032.13,"N_COORD97":2547255.0299999998,"ADDRESS":"海佃路一段２１３巷２６號","OBJECTID":362605},"geometry":{"x":167032.12999999989,"y":2547255.0300000012}},{"attributes":{"ID":362616,"DIS_CODE":0,"TOWNNAME":"安南區","LI":"海佃里","LIN":"19鄰","STREET":"海佃路","SECT":"一段","MAREA":" ","LANE":"２１３巷","ALLEY":" ","HOUSE_NO":"２７號","E_COORD97":167032.13,"N_COORD97":2547229.1200000001,"ADDRESS":"海佃路一段２１３巷２７號","OBJECTID":362606},"geometry":{"x":167032.12999999989,"y":2547229.1200000029}},{"attributes":{"ID":362617,"DIS_CODE":0,"TOWNNAME":"安南區","LI":"海佃里","LIN":"19鄰","STREET":"海佃路","SECT":"一段","MAREA":" ","LANE":"２１３巷","ALLEY":" ","HOUSE_NO":"２８號","E_COORD97":167027.47,"N_COORD97":2547255.0299999998,"ADDRESS":"海佃路一段２１３巷２８號","OBJECTID":362607},"geometry":{"x":167027.46999999974,"y":2547255.0300000012}},{"attributes":{"ID":362618,"DIS_CODE":0,"TOWNNAME":"安南區","LI":"海佃里","LIN":"19鄰","STREET":"海佃路","SECT":"一段","MAREA":" ","LANE":"２１３巷","ALLEY":" ","HOUSE_NO":"２９號","E_COORD97":167027.47,"N_COORD97":2547229.1200000001,"ADDRESS":"海佃路一段２１３巷２９號","OBJECTID":362608},"geometry":{"x":167027.46999999974,"y":2547229.1200000029}},{"attributes":{"ID":362619,"DIS_CODE":0,"TOWNNAME":"安南區","LI":"海佃里","LIN":"19鄰","STREET":"海佃路","SECT":"一段","MAREA":" ","LANE":"２１３巷","ALLEY":" ","HOUSE_NO":"２號","E_COORD97":167084.67000000001,"N_COORD97":2547268.98,"ADDRESS":"海佃路一段２１３巷２號","OBJECTID":362609},"geometry":{"x":167084.66999999899,"y":2547268.9800000004}},{"attributes":{"ID":362620,"DIS_CODE":0,"TOWNNAME":"安南區","LI":"海佃里","LIN":"19鄰","STREET":"海佃路","SECT":"一段","MAREA":" ","LANE":"２１３巷","ALLEY":" ","HOUSE_NO":"３０號","E_COORD97":167023.48000000001,"N_COORD97":2547253.04,"ADDRESS":"海佃路一段２１３巷３０號","OBJECTID":362610},"geometry":{"x":167023.48000000045,"y":2547253.0399999991}},{"attributes":{"ID":362621,"DIS_CODE":0,"TOWNNAME":"安南區","LI":"海佃里","LIN":"19鄰","STREET":"海佃路","SECT":"一段","MAREA":" ","LANE":"２１３巷","ALLEY":" ","HOUSE_NO":"３１號","E_COORD97":167023.48000000001,"N_COORD97":2547227.79,"ADDRESS":"海佃路一段２１３巷３１號","OBJECTID":362611},"geometry":{"x":167023.48000000045,"y":2547227.7899999991}},{"attributes":{"ID":362622,"DIS_CODE":0,"TOWNNAME":"安南區","LI":"海佃里","LIN":"19鄰","STREET":"海佃路","SECT":"一段","MAREA":" ","LANE":"２１３巷","ALLEY":" ","HOUSE_NO":"３２號","E_COORD97":167018.82999999999,"N_COORD97":2547253.7000000002,"ADDRESS":"海佃路一段２１３巷３２號","OBJECTID":362612},"geometry":{"x":167018.83000000007,"y":2547253.7000000011}},{"attributes":{"ID":362623,"DIS_CODE":0,"TOWNNAME":"安南區","LI":"海佃里","LIN":"19鄰","STREET":"海佃路","SECT":"一段","MAREA":" ","LANE":"２１３巷","ALLEY":" ","HOUSE_NO":"３３號","E_COORD97":167018.82999999999,"N_COORD97":2547227.79,"ADDRESS":"海佃路一段２１３巷３３號","OBJECTID":362613},"geometry":{"x":167018.83000000007,"y":2547227.7899999991}},{"attributes":{"ID":362624,"DIS_CODE":0,"TOWNNAME":"安南區","LI":"海佃里","LIN":"19鄰","STREET":"海佃路","SECT":"一段","MAREA":" ","LANE":"２１３巷","ALLEY":" ","HOUSE_NO":"３４號","E_COORD97":167014.17000000001,"N_COORD97":2547251.71,"ADDRESS":"海佃路一段２１３巷３４號","OBJECTID":362614},"geometry":{"x":167014.17000000086,"y":2547251.7100000028}},{"attributes":{"ID":362625,"DIS_CODE":0,"TOWNNAME":"安南區","LI":"海佃里","LIN":"19鄰","STREET":"海佃路","SECT":"一段","MAREA":" ","LANE":"２１３巷","ALLEY":" ","HOUSE_NO":"３５號","E_COORD97":167014.84,"N_COORD97":2547226.46,"ADDRESS":"海佃路一段２１３巷３５號","OBJECTID":362615},"geometry":{"x":167014.84000000078,"y":2547226.4600000028}},{"attributes":{"ID":362626,"DIS_CODE":0,"TOWNNAME":"安南區","LI":"海佃里","LIN":"19鄰","STREET":"海佃路","SECT":"一段","MAREA":" ","LANE":"２１３巷","ALLEY":" ","HOUSE_NO":"２之１號","E_COORD97":167080.67999999999,"N_COORD97":2547266.9900000002,"ADDRESS":"海佃路一段２１３巷２之１號","OBJECTID":362616},"geometry":{"x":167080.6799999997,"y":2547266.9900000021}},{"attributes":{"ID":362627,"DIS_CODE":0,"TOWNNAME":"安南區","LI":"海佃里","LIN":"19鄰","STREET":"海佃路","SECT":"一段","MAREA":" ","LANE":"２１３巷","ALLEY":" ","HOUSE_NO":"５０號","E_COORD97":166979.59,"N_COORD97":2547245.0699999998,"ADDRESS":"海佃路一段２１３巷５０號","OBJECTID":362617},"geometry":{"x":166979.58999999985,"y":2547245.070000004}},{"attributes":{"ID":362628,"DIS_CODE":0,"TOWNNAME":"安南區","LI":"海佃里","LIN":"19鄰","STREET":"海佃路","SECT":"一段","MAREA":" ","LANE":"２１３巷","ALLEY":" ","HOUSE_NO":"５１號","E_COORD97":166979.59,"N_COORD97":2547220.4900000002,"ADDRESS":"海佃路一段２１３巷５１號","OBJECTID":362618},"geometry":{"x":166979.58999999985,"y":2547220.4900000002}},{"attributes":{"ID":362629,"DIS_CODE":0,"TOWNNAME":"安南區","LI":"海佃里","LIN":"19鄰","STREET":"海佃路","SECT":"一段","MAREA":" ","LANE":"２１３巷","ALLEY":" ","HOUSE_NO":"５２號","E_COORD97":166974.94,"N_COORD97":2547244.3999999999,"ADDRESS":"海佃路一段２１３巷５２號","OBJECTID":362619},"geometry":{"x":166974.94000000227,"y":2547244.4000000022}},{"attributes":{"ID":362630,"DIS_CODE":0,"TOWNNAME":"安南區","LI":"海佃里","LIN":"19鄰","STREET":"海佃路","SECT":"一段","MAREA":" ","LANE":"２１３巷","ALLEY":" ","HOUSE_NO":"５３號","E_COORD97":166974.94,"N_COORD97":2547219.8199999998,"ADDRESS":"海佃路一段２１３巷５３號","OBJECTID":362620},"geometry":{"x":166974.94000000227,"y":2547219.8200000022}},{"attributes":{"ID":362631,"DIS_CODE":0,"TOWNNAME":"安南區","LI":"海佃里","LIN":"19鄰","STREET":"海佃路","SECT":"一段","MAREA":" ","LANE":"２１３巷","ALLEY":" ","HOUSE_NO":"５４號","E_COORD97":166969.62,"N_COORD97":2547243.7400000002,"ADDRESS":"海佃路一段２１３巷５４號","OBJECTID":362621},"geometry":{"x":166969.62000000011,"y":2547243.7400000039}},{"attributes":{"ID":362632,"DIS_CODE":0,"TOWNNAME":"安南區","LI":"海佃里","LIN":"19鄰","STREET":"海佃路","SECT":"一段","MAREA":" ","LANE":"２１３巷","ALLEY":" ","HOUSE_NO":"５５號","E_COORD97":166970.28,"N_COORD97":2547218.4900000002,"ADDRESS":"海佃路一段２１３巷５５號","OBJECTID":362622},"geometry":{"x":166970.28000000026,"y":2547218.4900000039}},{"attributes":{"ID":362633,"DIS_CODE":0,"TOWNNAME":"安南區","LI":"海佃里","LIN":"19鄰","STREET":"海佃路","SECT":"一段","MAREA":" ","LANE":"２１３巷","ALLEY":" ","HOUSE_NO":"５６號","E_COORD97":166964.95999999999,"N_COORD97":2547243.7400000002,"ADDRESS":"海佃路一段２１３巷５６號","OBJECTID":362623},"geometry":{"x":166964.96000000089,"y":2547243.7400000039}},{"attributes":{"ID":362634,"DIS_CODE":0,"TOWNNAME":"安南區","LI":"海佃里","LIN":"19鄰","STREET":"海佃路","SECT":"一段","MAREA":" ","LANE":"２１３巷","ALLEY":" ","HOUSE_NO":"５號","E_COORD97":167081.34,"N_COORD97":2547239.0899999999,"ADDRESS":"海佃路一段２１３巷５號","OBJECTID":362624},"geometry":{"x":167081.33999999985,"y":2547239.0900000017}},{"attributes":{"ID":362635,"DIS_CODE":0,"TOWNNAME":"安南區","LI":"海佃里","LIN":"19鄰","STREET":"海佃路","SECT":"一段","MAREA":" ","LANE":"２１３巷","ALLEY":" ","HOUSE_NO":"６號","E_COORD97":167076.01999999999,"N_COORD97":2547264.9900000002,"ADDRESS":"海佃路一段２１３巷６號","OBJECTID":362625},"geometry":{"x":167076.02000000048,"y":2547264.9900000002}},{"attributes":{"ID":362636,"DIS_CODE":0,"TOWNNAME":"安南區","LI":"海佃里","LIN":"19鄰","STREET":"海佃路","SECT":"一段","MAREA":" ","LANE":"２１３巷","ALLEY":" ","HOUSE_NO":"７號","E_COORD97":167076.69,"N_COORD97":2547238.4199999999,"ADDRESS":"海佃路一段２１３巷７號","OBJECTID":362626},"geometry":{"x":167076.69000000227,"y":2547238.4199999999}},{"attributes":{"ID":362637,"DIS_CODE":0,"TOWNNAME":"安南區","LI":"海佃里","LIN":"19鄰","STREET":"海佃路","SECT":"一段","MAREA":" ","LANE":"２１３巷","ALLEY":" ","HOUSE_NO":"８號","E_COORD97":167072.03,"N_COORD97":2547263,"ADDRESS":"海佃路一段２１３巷８號","OBJECTID":362627},"geometry":{"x":167072.03000000026,"y":2547263.0000000019}},{"attributes":{"ID":362638,"DIS_CODE":0,"TOWNNAME":"安南區","LI":"海佃里","LIN":"19鄰","STREET":"海佃路","SECT":"一段","MAREA":" ","LANE":"２１３巷","ALLEY":" ","HOUSE_NO":"９號","E_COORD97":167072.03,"N_COORD97":2547237.0899999999,"ADDRESS":"海佃路一段２１３巷９號","OBJECTID":362628},"geometry":{"x":167072.03000000026,"y":2547237.0899999999}},{"attributes":{"ID":362639,"DIS_CODE":0,"TOWNNAME":"安南區","LI":"溪墘里","LIN":"19鄰","STREET":"海佃路","SECT":"一段","MAREA":" ","LANE":"４００巷","ALLEY":" ","HOUSE_NO":"４０號","E_COORD97":167188.89000000001,"N_COORD97":2547680.2200000002,"ADDRESS":"海佃路一段４００巷４０號","OBJECTID":362629},"geometry":{"x":167188.8900000006,"y":2547680.2200000007}},{"attributes":{"ID":362640,"DIS_CODE":0,"TOWNNAME":"安南區","LI":"安東里","LIN":"19鄰","STREET":"安和路","SECT":"一段","MAREA":" ","LANE":"４９６巷","ALLEY":" ","HOUSE_NO":"２１號","E_COORD97":169515.10999999999,"N_COORD97":2548453.7200000002,"ADDRESS":"安和路一段４９６巷２１號","OBJECTID":362630},"geometry":{"x":169515.11000000127,"y":2548453.7200000007}},{"attributes":{"ID":362641,"DIS_CODE":0,"TOWNNAME":"安南區","LI":"州南里","LIN":"19鄰","STREET":"安和路","SECT":"四段","MAREA":" ","LANE":"２７４巷","ALLEY":" ","HOUSE_NO":"３５號","E_COORD97":170026.09,"N_COORD97":2550762.3399999999,"ADDRESS":"安和路四段２７４巷３５號","OBJECTID":362631},"geometry":{"x":170026.08999999985,"y":2550762.3400000017}},{"attributes":{"ID":362642,"DIS_CODE":0,"TOWNNAME":"安南區","LI":"州南里","LIN":"19鄰","STREET":"安和路","SECT":"四段","MAREA":" ","LANE":"２７４巷","ALLEY":" ","HOUSE_NO":"３７號","E_COORD97":170030.63,"N_COORD97":2550761.3300000001,"ADDRESS":"安和路四段２７４巷３７號","OBJECTID":362632},"geometry":{"x":170030.62999999989,"y":2550761.3300000001}},{"attributes":{"ID":362643,"DIS_CODE":0,"TOWNNAME":"安南區","LI":"州南里","LIN":"19鄰","STREET":"安和路","SECT":"四段","MAREA":" ","LANE":"２７４巷","ALLEY":" ","HOUSE_NO":"５１號","E_COORD97":170057.88,"N_COORD97":2550765.8700000001,"ADDRESS":"安和路四段２７４巷５１號","OBJECTID":362633},"geometry":{"x":170057.87999999989,"y":2550765.870000001}},{"attributes":{"ID":362644,"DIS_CODE":0,"TOWNNAME":"安南區","LI":"海東里","LIN":"19鄰","STREET":"海佃路","SECT":"二段","MAREA":" ","LANE":"２６５巷","ALLEY":" ","HOUSE_NO":"１６號","E_COORD97":166706.62,"N_COORD97":2548643.04,"ADDRESS":"海佃路二段２６５巷１６號","OBJECTID":362634},"geometry":{"x":166706.62000000011,"y":2548643.0399999991}},{"attributes":{"ID":362645,"DIS_CODE":0,"TOWNNAME":"安南區","LI":"海東里","LIN":"19鄰","STREET":"海佃路","SECT":"二段","MAREA":" ","LANE":"２６５巷","ALLEY":" ","HOUSE_NO":"２６號","E_COORD97":166709.51000000001,"N_COORD97":2548611.6000000001,"ADDRESS":"海佃路二段２６５巷２６號","OBJECTID":362635},"geometry":{"x":166709.51000000071,"y":2548611.6000000015}},{"attributes":{"ID":362646,"DIS_CODE":0,"TOWNNAME":"安南區","LI":"海東里","LIN":"19鄰","STREET":"海佃路","SECT":"二段","MAREA":" ","LANE":"２６５巷","ALLEY":" ","HOUSE_NO":"５２號","E_COORD97":166632.45999999999,"N_COORD97":2548567.9700000002,"ADDRESS":"海佃路二段２６５巷５２號","OBJECTID":362636},"geometry":{"x":166632.46000000089,"y":2548567.9700000007}},{"attributes":{"ID":362647,"DIS_CODE":0,"TOWNNAME":"安南區","LI":"海東里","LIN":"19鄰","STREET":"海佃路","SECT":"二段","MAREA":" ","LANE":"２６５巷","ALLEY":" ","HOUSE_NO":"５２之１號","E_COORD97":166623.66,"N_COORD97":2548564.54,"ADDRESS":"海佃路二段２６５巷５２之１號","OBJECTID":362637},"geometry":{"x":166623.66000000015,"y":2548564.5399999991}},{"attributes":{"ID":362648,"DIS_CODE":0,"TOWNNAME":"安南區","LI":"海東里","LIN":"19鄰","STREET":"海佃路","SECT":"二段","MAREA":" ","LANE":"２６５巷","ALLEY":" ","HOUSE_NO":"５６號","E_COORD97":166618.32999999999,"N_COORD97":2548563.4500000002,"ADDRESS":"海佃路二段２６５巷５６號","OBJECTID":362638},"geometry":{"x":166618.33000000101,"y":2548563.450000003}},{"attributes":{"ID":362649,"DIS_CODE":0,"TOWNNAME":"新化區","LI":"太平里","LIN":"10鄰","STREET":"中正路","SECT":" ","MAREA":" ","LANE":"８５３巷","ALLEY":" ","HOUSE_NO":"５號","E_COORD97":178593.81,"N_COORD97":2549463.25,"ADDRESS":"中正路８５３巷５號","OBJECTID":362639},"geometry":{"x":178593.81000000145,"y":2549463.25}},{"attributes":{"ID":362650,"DIS_CODE":0,"TOWNNAME":"南區","LI":"郡南里","LIN":"19鄰","STREET":"德興路","SECT":" ","MAREA":" ","LANE":"１７７巷","ALLEY":" ","HOUSE_NO":"２６號","E_COORD97":167282.48999999999,"N_COORD97":2540355.71,"ADDRESS":"德興路１７７巷２６號","OBJECTID":362640},"geometry":{"x":167282.49000000022,"y":2540355.7100000028}},{"attributes":{"ID":362651,"DIS_CODE":0,"TOWNNAME":"南區","LI":"郡南里","LIN":"19鄰","STREET":"德興路","SECT":" ","MAREA":" ","LANE":"１７７巷","ALLEY":" ","HOUSE_NO":"２８號","E_COORD97":167287.10999999999,"N_COORD97":2540356.8100000001,"ADDRESS":"德興路１７７巷２８號","OBJECTID":362641},"geometry":{"x":167287.11000000034,"y":2540356.8100000005}},{"attributes":{"ID":362652,"DIS_CODE":0,"TOWNNAME":"南區","LI":"郡南里","LIN":"19鄰","STREET":"德興路","SECT":" ","MAREA":" ","LANE":"１７７巷","ALLEY":" ","HOUSE_NO":"２９號","E_COORD97":167295.07000000001,"N_COORD97":2540382,"ADDRESS":"德興路１７７巷２９號","OBJECTID":362642},"geometry":{"x":167295.07000000123,"y":2540382}},{"attributes":{"ID":362653,"DIS_CODE":0,"TOWNNAME":"歸仁區","LI":"武東里","LIN":"12鄰","STREET":" ","SECT":" ","MAREA":"明德新村","LANE":" ","ALLEY":" ","HOUSE_NO":"２３１號","E_COORD97":175117.64000000001,"N_COORD97":2536089.27,"ADDRESS":"明德新村２３１號","OBJECTID":362643},"geometry":{"x":175117.63999999966,"y":2536089.2700000014}},{"attributes":{"ID":362654,"DIS_CODE":0,"TOWNNAME":"南區","LI":"郡南里","LIN":"19鄰","STREET":"德興路","SECT":" ","MAREA":" ","LANE":"１７７巷","ALLEY":" ","HOUSE_NO":"３０號","E_COORD97":167291.51000000001,"N_COORD97":2540358.3399999999,"ADDRESS":"德興路１７７巷３０號","OBJECTID":362644},"geometry":{"x":167291.51000000071,"y":2540358.3400000017}},{"attributes":{"ID":362655,"DIS_CODE":0,"TOWNNAME":"南區","LI":"郡南里","LIN":"19鄰","STREET":"德興路","SECT":" ","MAREA":" ","LANE":"１７７巷","ALLEY":" ","HOUSE_NO":"３１號","E_COORD97":167300.70000000001,"N_COORD97":2540383.0499999998,"ADDRESS":"德興路１７７巷３１號","OBJECTID":362645},"geometry":{"x":167300.70000000112,"y":2540383.0500000007}},{"attributes":{"ID":362656,"DIS_CODE":0,"TOWNNAME":"南區","LI":"郡南里","LIN":"19鄰","STREET":"德興路","SECT":" ","MAREA":" ","LANE":"１７７巷","ALLEY":" ","HOUSE_NO":"３２號","E_COORD97":167295.67999999999,"N_COORD97":2540357.4700000002,"ADDRESS":"德興路１７７巷３２號","OBJECTID":362646},"geometry":{"x":167295.6799999997,"y":2540357.4700000025}},{"attributes":{"ID":362657,"DIS_CODE":0,"TOWNNAME":"南區","LI":"郡南里","LIN":"19鄰","STREET":"德興路","SECT":" ","MAREA":" ","LANE":"１７７巷","ALLEY":" ","HOUSE_NO":"３３號","E_COORD97":167305.26999999999,"N_COORD97":2540383.7599999998,"ADDRESS":"德興路１７７巷３３號","OBJECTID":362647},"geometry":{"x":167305.26999999955,"y":2540383.7599999998}},{"attributes":{"ID":362658,"DIS_CODE":0,"TOWNNAME":"仁德區","LI":"上崙里","LIN":"19鄰","STREET":"上崙一街","SECT":" ","MAREA":" ","LANE":"１５巷","ALLEY":" ","HOUSE_NO":"２號","E_COORD97":173842.38,"N_COORD97":2538066.9900000002,"ADDRESS":"上崙一街１５巷２號","OBJECTID":362648},"geometry":{"x":173842.38000000082,"y":2538066.9900000002}},{"attributes":{"ID":362659,"DIS_CODE":0,"TOWNNAME":"南區","LI":"郡南里","LIN":"19鄰","STREET":"德興路","SECT":" ","MAREA":" ","LANE":"１７７巷","ALLEY":" ","HOUSE_NO":"３４號","E_COORD97":167299.64000000001,"N_COORD97":2540359.6600000001,"ADDRESS":"德興路１７７巷３４號","OBJECTID":362649},"geometry":{"x":167299.63999999966,"y":2540359.660000002}},{"attributes":{"ID":362660,"DIS_CODE":0,"TOWNNAME":"南區","LI":"郡南里","LIN":"19鄰","STREET":"德興路","SECT":" ","MAREA":" ","LANE":"１７７巷","ALLEY":" ","HOUSE_NO":"３５號","E_COORD97":167311.60000000001,"N_COORD97":2540384.1099999999,"ADDRESS":"德興路１７７巷３５號","OBJECTID":362650},"geometry":{"x":167311.59999999963,"y":2540384.1099999994}},{"attributes":{"ID":362661,"DIS_CODE":0,"TOWNNAME":"南區","LI":"郡南里","LIN":"19鄰","STREET":"德興路","SECT":" ","MAREA":" ","LANE":"１７７巷","ALLEY":" ","HOUSE_NO":"３６號","E_COORD97":167304.92000000001,"N_COORD97":2540360.98,"ADDRESS":"德興路１７７巷３６號","OBJECTID":362651},"geometry":{"x":167304.91999999993,"y":2540360.9800000023}},{"attributes":{"ID":362662,"DIS_CODE":0,"TOWNNAME":"南區","LI":"郡南里","LIN":"19鄰","STREET":"德興路","SECT":" ","MAREA":" ","LANE":"１７７巷","ALLEY":" ","HOUSE_NO":"３７號","E_COORD97":167318.28,"N_COORD97":2540383.4100000001,"ADDRESS":"德興路１７７巷３７號","OBJECTID":362652},"geometry":{"x":167318.28000000212,"y":2540383.4100000001}},{"attributes":{"ID":362663,"DIS_CODE":0,"TOWNNAME":"南區","LI":"郡南里","LIN":"19鄰","STREET":"德興路","SECT":" ","MAREA":" ","LANE":"１７７巷","ALLEY":" ","HOUSE_NO":"３８號","E_COORD97":167310.20000000001,"N_COORD97":2540362.0800000001,"ADDRESS":"德興路１７７巷３８號","OBJECTID":362653},"geometry":{"x":167310.19999999925,"y":2540362.0800000038}},{"attributes":{"ID":362664,"DIS_CODE":0,"TOWNNAME":"永康區","LI":"勝利里","LIN":"19鄰","STREET":"中華一路","SECT":" ","MAREA":" ","LANE":"２７２巷","ALLEY":" ","HOUSE_NO":"３６號","E_COORD97":171339.32000000001,"N_COORD97":2545067.75,"ADDRESS":"中華一路２７２巷３６號","OBJECTID":362654},"geometry":{"x":171339.32000000123,"y":2545067.7500000019}},{"attributes":{"ID":362665,"DIS_CODE":0,"TOWNNAME":"永康區","LI":"勝利里","LIN":"19鄰","STREET":"中華一路","SECT":" ","MAREA":" ","LANE":"２７２巷","ALLEY":" ","HOUSE_NO":"２０號","E_COORD97":171336.97,"N_COORD97":2545034.9900000002,"ADDRESS":"中華一路２７２巷２０號","OBJECTID":362655},"geometry":{"x":171336.96999999974,"y":2545034.9900000039}},{"attributes":{"ID":362666,"DIS_CODE":0,"TOWNNAME":"永康區","LI":"勝利里","LIN":"19鄰","STREET":"中華一路","SECT":" ","MAREA":" ","LANE":"２７２巷","ALLEY":" ","HOUSE_NO":"３號","E_COORD97":171323.94,"N_COORD97":2545007.9900000002,"ADDRESS":"中華一路２７２巷３號","OBJECTID":362656},"geometry":{"x":171323.94000000134,"y":2545007.9900000039}},{"attributes":{"ID":362667,"DIS_CODE":0,"TOWNNAME":"永康區","LI":"埔園里","LIN":"19鄰","STREET":"四維街","SECT":" ","MAREA":" ","LANE":"１４０巷","ALLEY":" ","HOUSE_NO":"２３號","E_COORD97":173395.29000000001,"N_COORD97":2548344.7400000002,"ADDRESS":"四維街１４０巷２３號","OBJECTID":362657},"geometry":{"x":173395.2900000019,"y":2548344.7400000002}},{"attributes":{"ID":362668,"DIS_CODE":0,"TOWNNAME":"永康區","LI":"南灣里","LIN":"19鄰","STREET":"大灣路","SECT":" ","MAREA":" ","LANE":"７６４巷","ALLEY":" ","HOUSE_NO":"１６６號","E_COORD97":174249.44,"N_COORD97":2544770.1200000001,"ADDRESS":"大灣路７６４巷１６６號","OBJECTID":362658},"geometry":{"x":174249.44000000134,"y":2544770.120000001}},{"attributes":{"ID":362669,"DIS_CODE":0,"TOWNNAME":"永康區","LI":"埔園里","LIN":"19鄰","STREET":"四維街","SECT":" ","MAREA":" ","LANE":"１４０巷","ALLEY":" ","HOUSE_NO":"２５號","E_COORD97":173399.95999999999,"N_COORD97":2548344.2400000002,"ADDRESS":"四維街１４０巷２５號","OBJECTID":362659},"geometry":{"x":173399.96000000089,"y":2548344.2400000002}},{"attributes":{"ID":362670,"DIS_CODE":0,"TOWNNAME":"永康區","LI":"南灣里","LIN":"19鄰","STREET":"大灣路","SECT":" ","MAREA":" ","LANE":"７６４巷","ALLEY":" ","HOUSE_NO":"１３６號","E_COORD97":174282.48999999999,"N_COORD97":2544719.0600000001,"ADDRESS":"大灣路７６４巷１３６號","OBJECTID":362660},"geometry":{"x":174282.49000000209,"y":2544719.0600000005}},{"attributes":{"ID":362671,"DIS_CODE":0,"TOWNNAME":"永康區","LI":"南灣里","LIN":"19鄰","STREET":"大灣路","SECT":" ","MAREA":" ","LANE":"７６４巷","ALLEY":" ","HOUSE_NO":"１３８號","E_COORD97":174298.20000000001,"N_COORD97":2544715.9900000002,"ADDRESS":"大灣路７６４巷１３８號","OBJECTID":362661},"geometry":{"x":174298.20000000112,"y":2544715.9899999984}},{"attributes":{"ID":362672,"DIS_CODE":0,"TOWNNAME":"永康區","LI":"東橋里","LIN":"19鄰","STREET":"中山南路","SECT":" ","MAREA":" ","LANE":"３６５巷","ALLEY":" ","HOUSE_NO":"２號之４９","E_COORD97":172850.16,"N_COORD97":2547078.6299999999,"ADDRESS":"中山南路３６５巷２號之４９","OBJECTID":362662},"geometry":{"x":172850.16000000015,"y":2547078.6300000008}},{"attributes":{"ID":362673,"DIS_CODE":0,"TOWNNAME":"永康區","LI":"南灣里","LIN":"19鄰","STREET":"大灣路","SECT":" ","MAREA":" ","LANE":"７６４巷","ALLEY":" ","HOUSE_NO":"１２４號","E_COORD97":174264.60999999999,"N_COORD97":2544731.6800000002,"ADDRESS":"大灣路７６４巷１２４號","OBJECTID":362663},"geometry":{"x":174264.6099999994,"y":2544731.6800000016}},{"attributes":{"ID":362674,"DIS_CODE":0,"TOWNNAME":"永康區","LI":"東橋里","LIN":"19鄰","STREET":"中山南路","SECT":" ","MAREA":" ","LANE":"３６５巷","ALLEY":" ","HOUSE_NO":"２號之５１","E_COORD97":172833.29000000001,"N_COORD97":2547075.1400000001,"ADDRESS":"中山南路３６５巷２號之５１","OBJECTID":362664},"geometry":{"x":172833.29000000097,"y":2547075.1400000043}},{"attributes":{"ID":362675,"DIS_CODE":0,"TOWNNAME":"永康區","LI":"埔園里","LIN":"19鄰","STREET":"四維街","SECT":" ","MAREA":" ","LANE":"１４０巷","ALLEY":" ","HOUSE_NO":"２４號","E_COORD97":173394.79000000001,"N_COORD97":2548296.5,"ADDRESS":"四維街１４０巷２４號","OBJECTID":362665},"geometry":{"x":173394.79000000004,"y":2548296.5000000019}},{"attributes":{"ID":362676,"DIS_CODE":0,"TOWNNAME":"永康區","LI":"埔園里","LIN":"19鄰","STREET":"四維街","SECT":" ","MAREA":" ","LANE":"１４０巷","ALLEY":" ","HOUSE_NO":"１９號","E_COORD97":173386.92000000001,"N_COORD97":2548343.4900000002,"ADDRESS":"四維街１４０巷１９號","OBJECTID":362666},"geometry":{"x":173386.91999999993,"y":2548343.4900000002}},{"attributes":{"ID":362677,"DIS_CODE":0,"TOWNNAME":"永康區","LI":"東灣里","LIN":"19鄰","STREET":"大灣三街","SECT":" ","MAREA":" ","LANE":"７３巷","ALLEY":" ","HOUSE_NO":"２１號","E_COORD97":174864.13,"N_COORD97":2544896.7999999998,"ADDRESS":"大灣三街７３巷２１號","OBJECTID":362667},"geometry":{"x":174864.12999999896,"y":2544896.8000000007}},{"attributes":{"ID":362678,"DIS_CODE":0,"TOWNNAME":"永康區","LI":"南灣里","LIN":"19鄰","STREET":"大灣路","SECT":" ","MAREA":" ","LANE":"７６４巷","ALLEY":" ","HOUSE_NO":"１３０號","E_COORD97":174276.07000000001,"N_COORD97":2544727.4300000002,"ADDRESS":"大灣路７６４巷１３０號","OBJECTID":362668},"geometry":{"x":174276.0700000003,"y":2544727.4300000016}},{"attributes":{"ID":362679,"DIS_CODE":0,"TOWNNAME":"永康區","LI":"南灣里","LIN":"19鄰","STREET":"大灣路","SECT":" ","MAREA":" ","LANE":"７６４巷","ALLEY":" ","HOUSE_NO":"１２６號","E_COORD97":174268.48999999999,"N_COORD97":2544730.1800000002,"ADDRESS":"大灣路７６４巷１２６號","OBJECTID":362669},"geometry":{"x":174268.49000000022,"y":2544730.1799999997}},{"attributes":{"ID":362680,"DIS_CODE":0,"TOWNNAME":"永康區","LI":"埔園里","LIN":"19鄰","STREET":"四維街","SECT":" ","MAREA":" ","LANE":"１４０巷","ALLEY":" ","HOUSE_NO":"１６號","E_COORD97":173389.22,"N_COORD97":2548312.25,"ADDRESS":"四維街１４０巷１６號","OBJECTID":362670},"geometry":{"x":173389.22000000067,"y":2548312.2500000019}},{"attributes":{"ID":362681,"DIS_CODE":0,"TOWNNAME":"永康區","LI":"南灣里","LIN":"19鄰","STREET":"大灣路","SECT":" ","MAREA":" ","LANE":"７６４巷","ALLEY":" ","HOUSE_NO":"１１８號","E_COORD97":174245.94,"N_COORD97":2544731.48,"ADDRESS":"大灣路７６４巷１１８號","OBJECTID":362671},"geometry":{"x":174245.94000000134,"y":2544731.4800000023}},{"attributes":{"ID":362682,"DIS_CODE":0,"TOWNNAME":"永康區","LI":"東灣里","LIN":"19鄰","STREET":"大灣三街","SECT":" ","MAREA":" ","LANE":"５７巷","ALLEY":" ","HOUSE_NO":"３０號","E_COORD97":174959.42999999999,"N_COORD97":2544859.3500000001,"ADDRESS":"大灣三街５７巷３０號","OBJECTID":362672},"geometry":{"x":174959.43000000063,"y":2544859.3500000015}},{"attributes":{"ID":362683,"DIS_CODE":0,"TOWNNAME":"永康區","LI":"南灣里","LIN":"19鄰","STREET":"大灣路","SECT":" ","MAREA":" ","LANE":"７６４巷","ALLEY":" ","HOUSE_NO":"１５６號","E_COORD97":174271.75,"N_COORD97":2544741.8900000001,"ADDRESS":"大灣路７６４巷１５６號","OBJECTID":362673},"geometry":{"x":174271.75,"y":2544741.8900000025}},{"attributes":{"ID":362684,"DIS_CODE":0,"TOWNNAME":"永康區","LI":"東灣里","LIN":"19鄰","STREET":"大灣三街","SECT":" ","MAREA":" ","LANE":"５７巷","ALLEY":" ","HOUSE_NO":"１８號","E_COORD97":174927.98000000001,"N_COORD97":2544884.5600000001,"ADDRESS":"大灣三街５７巷１８號","OBJECTID":362674},"geometry":{"x":174927.98000000045,"y":2544884.5600000005}},{"attributes":{"ID":362685,"DIS_CODE":0,"TOWNNAME":"永康區","LI":"南灣里","LIN":"19鄰","STREET":"大灣路","SECT":" ","MAREA":" ","LANE":"７６４巷","ALLEY":" ","HOUSE_NO":"１２２號","E_COORD97":174260.64000000001,"N_COORD97":2544733.1800000002,"ADDRESS":"大灣路７６４巷１２２號","OBJECTID":362675},"geometry":{"x":174260.6400000006,"y":2544733.1799999997}},{"attributes":{"ID":362686,"DIS_CODE":0,"TOWNNAME":"永康區","LI":"烏竹里","LIN":"19鄰","STREET":"自強路","SECT":" ","MAREA":" ","LANE":"７７３巷","ALLEY":" ","HOUSE_NO":"１號","E_COORD97":174473.35000000001,"N_COORD97":2548578.2999999998,"ADDRESS":"自強路７７３巷１號","OBJECTID":362676},"geometry":{"x":174473.35000000056,"y":2548578.3000000007}},{"attributes":{"ID":362687,"DIS_CODE":0,"TOWNNAME":"永康區","LI":"東灣里","LIN":"19鄰","STREET":"大灣三街","SECT":" ","MAREA":" ","LANE":"５７巷","ALLEY":" ","HOUSE_NO":"２８號","E_COORD97":174947.34,"N_COORD97":2544869.5,"ADDRESS":"大灣三街５７巷２８號","OBJECTID":362677},"geometry":{"x":174947.33999999985,"y":2544869.5000000019}},{"attributes":{"ID":362688,"DIS_CODE":0,"TOWNNAME":"永康區","LI":"南灣里","LIN":"19鄰","STREET":"大灣路","SECT":" ","MAREA":" ","LANE":"７６４巷","ALLEY":" ","HOUSE_NO":"１４０號","E_COORD97":174312.14000000001,"N_COORD97":2544738.7400000002,"ADDRESS":"大灣路７６４巷１４０號","OBJECTID":362678},"geometry":{"x":174312.13999999966,"y":2544738.7400000021}},{"attributes":{"ID":362689,"DIS_CODE":0,"TOWNNAME":"永康區","LI":"南灣里","LIN":"19鄰","STREET":"大灣路","SECT":" ","MAREA":" ","LANE":"７６４巷","ALLEY":" ","HOUSE_NO":"１０４號","E_COORD97":174242.88,"N_COORD97":2544707.3300000001,"ADDRESS":"大灣路７６４巷１０４號","OBJECTID":362679},"geometry":{"x":174242.88000000082,"y":2544707.3300000019}},{"attributes":{"ID":362690,"DIS_CODE":0,"TOWNNAME":"永康區","LI":"東橋里","LIN":"19鄰","STREET":"中山南路","SECT":" ","MAREA":" ","LANE":"４６７巷","ALLEY":" ","HOUSE_NO":"１５號","E_COORD97":172889.35999999999,"N_COORD97":2546987.7200000002,"ADDRESS":"中山南路４６７巷１５號","OBJECTID":362680},"geometry":{"x":172889.36000000034,"y":2546987.7200000025}},{"attributes":{"ID":362691,"DIS_CODE":0,"TOWNNAME":"永康區","LI":"東橋里","LIN":"19鄰","STREET":"中山南路","SECT":" ","MAREA":" ","LANE":"４６７巷","ALLEY":" ","HOUSE_NO":"１３號","E_COORD97":172921.31,"N_COORD97":2546976.3999999999,"ADDRESS":"中山南路４６７巷１３號","OBJECTID":362681},"geometry":{"x":172921.30999999959,"y":2546976.4000000022}},{"attributes":{"ID":362692,"DIS_CODE":0,"TOWNNAME":"永康區","LI":"南灣里","LIN":"19鄰","STREET":"大灣路","SECT":" ","MAREA":" ","LANE":"７６４巷","ALLEY":" ","HOUSE_NO":"１２０之１號","E_COORD97":174256.06,"N_COORD97":2544729.0299999998,"ADDRESS":"大灣路７６４巷１２０之１號","OBJECTID":362682},"geometry":{"x":174256.06000000052,"y":2544729.0300000012}},{"attributes":{"ID":362693,"DIS_CODE":0,"TOWNNAME":"永康區","LI":"東灣里","LIN":"19鄰","STREET":"大灣三街","SECT":" ","MAREA":" ","LANE":"５７巷","ALLEY":" ","HOUSE_NO":"１２號","E_COORD97":174909.79999999999,"N_COORD97":2544887.71,"ADDRESS":"大灣三街５７巷１２號","OBJECTID":362683},"geometry":{"x":174909.79999999981,"y":2544887.7100000009}},{"attributes":{"ID":362694,"DIS_CODE":0,"TOWNNAME":"永康區","LI":"埔園里","LIN":"19鄰","STREET":"四維街","SECT":" ","MAREA":" ","LANE":"１４０巷","ALLEY":" ","HOUSE_NO":"３５號","E_COORD97":173405.04000000001,"N_COORD97":2548303,"ADDRESS":"四維街１４０巷３５號","OBJECTID":362684},"geometry":{"x":173405.04000000004,"y":2548303.0000000037}},{"attributes":{"ID":362695,"DIS_CODE":0,"TOWNNAME":"永康區","LI":"埔園里","LIN":"19鄰","STREET":"四維街","SECT":" ","MAREA":" ","LANE":"１４０巷","ALLEY":" ","HOUSE_NO":"１４號","E_COORD97":173379.91,"N_COORD97":2548330.4900000002,"ADDRESS":"四維街１４０巷１４號","OBJECTID":362685},"geometry":{"x":173379.91000000108,"y":2548330.4900000039}},{"attributes":{"ID":362696,"DIS_CODE":0,"TOWNNAME":"新市區","LI":"新市里","LIN":"19鄰","STREET":"和平街","SECT":" ","MAREA":" ","LANE":"１５巷","ALLEY":" ","HOUSE_NO":"１４號","E_COORD97":177749.95000000001,"N_COORD97":2553395.4900000002,"ADDRESS":"和平街１５巷１４號","OBJECTID":362686},"geometry":{"x":177749.95000000112,"y":2553395.4900000039}},{"attributes":{"ID":362697,"DIS_CODE":0,"TOWNNAME":"新市區","LI":"新市里","LIN":"19鄰","STREET":"和平街","SECT":" ","MAREA":" ","LANE":"１５巷","ALLEY":" ","HOUSE_NO":"１０號","E_COORD97":177749.04000000001,"N_COORD97":2553409.25,"ADDRESS":"和平街１５巷１０號","OBJECTID":362687},"geometry":{"x":177749.04000000097,"y":2553409.25}},{"attributes":{"ID":362698,"DIS_CODE":0,"TOWNNAME":"新市區","LI":"新市里","LIN":"19鄰","STREET":"和平街","SECT":" ","MAREA":" ","LANE":"１５巷","ALLEY":" ","HOUSE_NO":"２號","E_COORD97":177746.59,"N_COORD97":2553428.75,"ADDRESS":"和平街１５巷２號","OBJECTID":362688},"geometry":{"x":177746.59000000078,"y":2553428.7500000019}},{"attributes":{"ID":362699,"DIS_CODE":0,"TOWNNAME":"東區","LI":"崇明里","LIN":"19鄰","STREET":"中華東路","SECT":"三段","MAREA":" ","LANE":"３５７巷","ALLEY":" ","HOUSE_NO":"６９號","E_COORD97":170411.78,"N_COORD97":2541533.23,"ADDRESS":"中華東路三段３５７巷６９號","OBJECTID":362689},"geometry":{"x":170411.78000000026,"y":2541533.2300000004}},{"attributes":{"ID":362700,"DIS_CODE":0,"TOWNNAME":"東區","LI":"東聖里","LIN":"19鄰","STREET":"中華東路","SECT":"二段","MAREA":" ","LANE":"１３３巷","ALLEY":" ","HOUSE_NO":"１１號","E_COORD97":171436.63,"N_COORD97":2542860.6800000002,"ADDRESS":"中華東路二段１３３巷１１號","OBJECTID":362690},"geometry":{"x":171436.63000000175,"y":2542860.6800000016}},{"attributes":{"ID":362701,"DIS_CODE":0,"TOWNNAME":"東區","LI":"大同里","LIN":"19鄰","STREET":"府連路","SECT":" ","MAREA":" ","LANE":"１８２巷","ALLEY":" ","HOUSE_NO":"３８之１號","E_COORD97":169310.12,"N_COORD97":2542734.1600000001,"ADDRESS":"府連路１８２巷３８之１號","OBJECTID":362691},"geometry":{"x":169310.12000000104,"y":2542734.1600000001}},{"attributes":{"ID":362702,"DIS_CODE":0,"TOWNNAME":"東區","LI":"大同里","LIN":"19鄰","STREET":"府連路","SECT":" ","MAREA":" ","LANE":"１８２巷","ALLEY":" ","HOUSE_NO":"３８號","E_COORD97":169302.98000000001,"N_COORD97":2542735.75,"ADDRESS":"府連路１８２巷３８號","OBJECTID":362692},"geometry":{"x":169302.98000000138,"y":2542735.7500000019}},{"attributes":{"ID":362703,"DIS_CODE":0,"TOWNNAME":"東區","LI":"大智里","LIN":"19鄰","STREET":"崇善十五街","SECT":" ","MAREA":" ","LANE":"４２巷","ALLEY":" ","HOUSE_NO":"１０號","E_COORD97":171341.09,"N_COORD97":2540596.8300000001,"ADDRESS":"崇善十五街４２巷１０號","OBJECTID":362693},"geometry":{"x":171341.08999999985,"y":2540596.8300000001}},{"attributes":{"ID":362704,"DIS_CODE":0,"TOWNNAME":"東區","LI":"大智里","LIN":"19鄰","STREET":"崇善十五街","SECT":" ","MAREA":" ","LANE":"４２巷","ALLEY":" ","HOUSE_NO":"１２號","E_COORD97":171346,"N_COORD97":2540598.46,"ADDRESS":"崇善十五街４２巷１２號","OBJECTID":362694},"geometry":{"x":171346.00000000186,"y":2540598.4600000028}},{"attributes":{"ID":362705,"DIS_CODE":0,"TOWNNAME":"東區","LI":"大智里","LIN":"19鄰","STREET":"崇善十五街","SECT":" ","MAREA":" ","LANE":"４２巷","ALLEY":" ","HOUSE_NO":"１６號","E_COORD97":171351.89999999999,"N_COORD97":2540600.4300000002,"ADDRESS":"崇善十五街４２巷１６號","OBJECTID":362695},"geometry":{"x":171351.90000000037,"y":2540600.4300000016}},{"attributes":{"ID":362706,"DIS_CODE":0,"TOWNNAME":"東區","LI":"大智里","LIN":"19鄰","STREET":"崇善十五街","SECT":" ","MAREA":" ","LANE":"４２巷","ALLEY":" ","HOUSE_NO":"１８號","E_COORD97":171357.45999999999,"N_COORD97":2540602.3900000001,"ADDRESS":"崇善十五街４２巷１８號","OBJECTID":362696},"geometry":{"x":171357.45999999996,"y":2540602.3900000025}},{"attributes":{"ID":362707,"DIS_CODE":0,"TOWNNAME":"東區","LI":"大智里","LIN":"19鄰","STREET":"崇善十五街","SECT":" ","MAREA":" ","LANE":"４２巷","ALLEY":" ","HOUSE_NO":"２０號","E_COORD97":171362.04999999999,"N_COORD97":2540605.0099999998,"ADDRESS":"崇善十五街４２巷２０號","OBJECTID":362697},"geometry":{"x":171362.04999999981,"y":2540605.0099999998}},{"attributes":{"ID":362708,"DIS_CODE":0,"TOWNNAME":"東區","LI":"大智里","LIN":"19鄰","STREET":"崇善十五街","SECT":" ","MAREA":" ","LANE":"４２巷","ALLEY":" ","HOUSE_NO":"２２號","E_COORD97":171367.29000000001,"N_COORD97":2540608.29,"ADDRESS":"崇善十五街４２巷２２號","OBJECTID":362698},"geometry":{"x":171367.29000000004,"y":2540608.290000001}},{"attributes":{"ID":362709,"DIS_CODE":0,"TOWNNAME":"東區","LI":"大智里","LIN":"19鄰","STREET":"崇善十五街","SECT":" ","MAREA":" ","LANE":"４２巷","ALLEY":" ","HOUSE_NO":"２６號","E_COORD97":171358.12,"N_COORD97":2540618.4399999999,"ADDRESS":"崇善十五街４２巷２６號","OBJECTID":362699},"geometry":{"x":171358.12000000011,"y":2540618.4400000013}},{"attributes":{"ID":362710,"DIS_CODE":0,"TOWNNAME":"東區","LI":"大智里","LIN":"19鄰","STREET":"崇善十五街","SECT":" ","MAREA":" ","LANE":"４２巷","ALLEY":" ","HOUSE_NO":"２８號","E_COORD97":171353.20999999999,"N_COORD97":2540615.8199999998,"ADDRESS":"崇善十五街４２巷２８號","OBJECTID":362700},"geometry":{"x":171353.21000000089,"y":2540615.8200000022}},{"attributes":{"ID":362711,"DIS_CODE":0,"TOWNNAME":"東區","LI":"大智里","LIN":"19鄰","STREET":"崇善十五街","SECT":" ","MAREA":" ","LANE":"４２巷","ALLEY":" ","HOUSE_NO":"３０號","E_COORD97":171348.62,"N_COORD97":2540614.5099999998,"ADDRESS":"崇善十五街４２巷３０號","OBJECTID":362701},"geometry":{"x":171348.61999999918,"y":2540614.5100000016}},{"attributes":{"ID":362712,"DIS_CODE":0,"TOWNNAME":"東區","LI":"大智里","LIN":"19鄰","STREET":"崇善十五街","SECT":" ","MAREA":" ","LANE":"４２巷","ALLEY":" ","HOUSE_NO":"３２號","E_COORD97":171344.35999999999,"N_COORD97":2540613.8500000001,"ADDRESS":"崇善十五街４２巷３２號","OBJECTID":362702},"geometry":{"x":171344.36000000127,"y":2540613.8499999996}},{"attributes":{"ID":362713,"DIS_CODE":0,"TOWNNAME":"東區","LI":"大智里","LIN":"19鄰","STREET":"崇善十五街","SECT":" ","MAREA":" ","LANE":"４２巷","ALLEY":" ","HOUSE_NO":"３６號","E_COORD97":171339.45000000001,"N_COORD97":2540612.8700000001,"ADDRESS":"崇善十五街４２巷３６號","OBJECTID":362703},"geometry":{"x":171339.45000000019,"y":2540612.8700000029}},{"attributes":{"ID":362714,"DIS_CODE":0,"TOWNNAME":"東區","LI":"大智里","LIN":"19鄰","STREET":"崇善十五街","SECT":" ","MAREA":" ","LANE":"４２巷","ALLEY":" ","HOUSE_NO":"３８號","E_COORD97":171333.56,"N_COORD97":2540611.5600000001,"ADDRESS":"崇善十五街４２巷３８號","OBJECTID":362704},"geometry":{"x":171333.56000000052,"y":2540611.5600000024}},{"attributes":{"ID":362715,"DIS_CODE":0,"TOWNNAME":"東區","LI":"大智里","LIN":"19鄰","STREET":"崇善十五街","SECT":" ","MAREA":" ","LANE":"４２巷","ALLEY":" ","HOUSE_NO":"８號","E_COORD97":171336.17999999999,"N_COORD97":2540595.1899999999,"ADDRESS":"崇善十五街４２巷８號","OBJECTID":362705},"geometry":{"x":171336.18000000063,"y":2540595.1900000013}},{"attributes":{"ID":362716,"DIS_CODE":0,"TOWNNAME":"東區","LI":"小東里","LIN":"19鄰","STREET":"東興路","SECT":" ","MAREA":" ","LANE":"３１４巷","ALLEY":" ","HOUSE_NO":"３０號","E_COORD97":171099.29000000001,"N_COORD97":2544137.7200000002,"ADDRESS":"東興路３１４巷３０號","OBJECTID":362706},"geometry":{"x":171099.29000000004,"y":2544137.7200000007}},{"attributes":{"ID":362717,"DIS_CODE":0,"TOWNNAME":"仁德區","LI":"後壁里","LIN":"19鄰","STREET":"德崙路","SECT":" ","MAREA":" ","LANE":"２１巷","ALLEY":" ","HOUSE_NO":"１５號","E_COORD97":173280.59,"N_COORD97":2538645.02,"ADDRESS":"德崙路２１巷１５號","OBJECTID":362707},"geometry":{"x":173280.58999999985,"y":2538645.0199999996}},{"attributes":{"ID":362718,"DIS_CODE":0,"TOWNNAME":"仁德區","LI":"保安里","LIN":"19鄰","STREET":"文賢路","SECT":"二段","MAREA":" ","LANE":"１５巷","ALLEY":" ","HOUSE_NO":"１７號","E_COORD97":171788.12,"N_COORD97":2535891.3199999998,"ADDRESS":"文賢路二段１５巷１７號","OBJECTID":362708},"geometry":{"x":171788.12000000104,"y":2535891.3200000003}},{"attributes":{"ID":362719,"DIS_CODE":0,"TOWNNAME":"仁德區","LI":"上崙里","LIN":"19鄰","STREET":"德崙路","SECT":" ","MAREA":" ","LANE":"３１６巷","ALLEY":" ","HOUSE_NO":"４０號","E_COORD97":173897.44,"N_COORD97":2538017.77,"ADDRESS":"德崙路３１６巷４０號","OBJECTID":362709},"geometry":{"x":173897.44000000041,"y":2538017.7700000033}},{"attributes":{"ID":362720,"DIS_CODE":0,"TOWNNAME":"仁德區","LI":"上崙里","LIN":"19鄰","STREET":"上崙一街","SECT":" ","MAREA":" ","LANE":"４１巷","ALLEY":" ","HOUSE_NO":"９號","E_COORD97":173899.34,"N_COORD97":2537997.7400000002,"ADDRESS":"上崙一街４１巷９號","OBJECTID":362710},"geometry":{"x":173899.33999999985,"y":2537997.7400000002}},{"attributes":{"ID":362721,"DIS_CODE":0,"TOWNNAME":"仁德區","LI":"上崙里","LIN":"19鄰","STREET":"德崙路","SECT":" ","MAREA":" ","LANE":"３１６巷","ALLEY":" ","HOUSE_NO":"２６號","E_COORD97":173896.06,"N_COORD97":2538069.7599999998,"ADDRESS":"德崙路３１６巷２６號","OBJECTID":362711},"geometry":{"x":173896.05999999959,"y":2538069.7600000016}},{"attributes":{"ID":362722,"DIS_CODE":0,"TOWNNAME":"南區","LI":"大忠里","LIN":"13鄰","STREET":"公英四街","SECT":" ","MAREA":" ","LANE":" ","ALLEY":" ","HOUSE_NO":"９號","E_COORD97":169371.76000000001,"N_COORD97":2541143.5899999999,"ADDRESS":"公英四街９號","OBJECTID":362712},"geometry":{"x":169371.75999999978,"y":2541143.5899999999}},{"attributes":{"ID":362723,"DIS_CODE":0,"TOWNNAME":"仁德區","LI":"上崙里","LIN":"19鄰","STREET":"上崙一街","SECT":" ","MAREA":" ","LANE":"１５巷","ALLEY":" ","HOUSE_NO":"１７號","E_COORD97":173886.28,"N_COORD97":2538080.7400000002,"ADDRESS":"上崙一街１５巷１７號","OBJECTID":362713},"geometry":{"x":173886.28000000119,"y":2538080.7400000021}},{"attributes":{"ID":362724,"DIS_CODE":0,"TOWNNAME":"仁德區","LI":"上崙里","LIN":"19鄰","STREET":"上崙一街","SECT":" ","MAREA":" ","LANE":"２９巷","ALLEY":" ","HOUSE_NO":"２號","E_COORD97":173847.39999999999,"N_COORD97":2538017.25,"ADDRESS":"上崙一街２９巷２號","OBJECTID":362714},"geometry":{"x":173847.39999999944,"y":2538017.25}},{"attributes":{"ID":362725,"DIS_CODE":0,"TOWNNAME":"仁德區","LI":"上崙里","LIN":"19鄰","STREET":"德崙路","SECT":" ","MAREA":" ","LANE":"３１６巷","ALLEY":" ","HOUSE_NO":"４８號","E_COORD97":173910.73999999999,"N_COORD97":2538014.52,"ADDRESS":"德崙路３１６巷４８號","OBJECTID":362715},"geometry":{"x":173910.74000000022,"y":2538014.5199999996}},{"attributes":{"ID":362726,"DIS_CODE":0,"TOWNNAME":"仁德區","LI":"上崙里","LIN":"19鄰","STREET":"德崙路","SECT":" ","MAREA":" ","LANE":"３１６巷","ALLEY":" ","HOUSE_NO":"３０號","E_COORD97":173882.42999999999,"N_COORD97":2538070.5099999998,"ADDRESS":"德崙路３１６巷３０號","OBJECTID":362716},"geometry":{"x":173882.43000000063,"y":2538070.5100000035}},{"attributes":{"ID":362727,"DIS_CODE":0,"TOWNNAME":"仁德區","LI":"上崙里","LIN":"19鄰","STREET":"德崙路","SECT":" ","MAREA":" ","LANE":"３１６巷","ALLEY":" ","HOUSE_NO":"３２號","E_COORD97":173885.70000000001,"N_COORD97":2538047.27,"ADDRESS":"德崙路３１６巷３２號","OBJECTID":362717},"geometry":{"x":173885.70000000019,"y":2538047.2699999996}},{"attributes":{"ID":362728,"DIS_CODE":0,"TOWNNAME":"仁德區","LI":"上崙里","LIN":"19鄰","STREET":"上崙一街","SECT":" ","MAREA":" ","LANE":"１５巷","ALLEY":" ","HOUSE_NO":"１３號","E_COORD97":173873.47,"N_COORD97":2538078.7400000002,"ADDRESS":"上崙一街１５巷１３號","OBJECTID":362718},"geometry":{"x":173873.4700000016,"y":2538078.7400000002}},{"attributes":{"ID":362729,"DIS_CODE":0,"TOWNNAME":"仁德區","LI":"上崙里","LIN":"19鄰","STREET":"德崙路","SECT":" ","MAREA":" ","LANE":"３１６巷","ALLEY":" ","HOUSE_NO":"５２號","E_COORD97":173913.48000000001,"N_COORD97":2538001.2599999998,"ADDRESS":"德崙路３１６巷５２號","OBJECTID":362719},"geometry":{"x":173913.48000000138,"y":2538001.2600000016}},{"attributes":{"ID":362730,"DIS_CODE":0,"TOWNNAME":"仁德區","LI":"上崙里","LIN":"19鄰","STREET":"崑崙路","SECT":" ","MAREA":" ","LANE":"５３４巷","ALLEY":" ","HOUSE_NO":"２７號","E_COORD97":174241.54000000001,"N_COORD97":2536998,"ADDRESS":"崑崙路５３４巷２７號","OBJECTID":362720},"geometry":{"x":174241.54000000097,"y":2536998}},{"attributes":{"ID":362731,"DIS_CODE":0,"TOWNNAME":"仁德區","LI":"上崙里","LIN":"19鄰","STREET":"德崙路","SECT":" ","MAREA":" ","LANE":"３１６巷","ALLEY":" ","HOUSE_NO":"３８號","E_COORD97":173885.91,"N_COORD97":2538014.77,"ADDRESS":"德崙路３１６巷３８號","OBJECTID":362721},"geometry":{"x":173885.91000000015,"y":2538014.7700000014}},{"attributes":{"ID":362732,"DIS_CODE":0,"TOWNNAME":"仁德區","LI":"上崙里","LIN":"19鄰","STREET":"德崙路","SECT":" ","MAREA":" ","LANE":"３１６巷","ALLEY":" ","HOUSE_NO":"３６號","E_COORD97":173893.53,"N_COORD97":2538034.52,"ADDRESS":"德崙路３１６巷３６號","OBJECTID":362722},"geometry":{"x":173893.53000000026,"y":2538034.5200000014}},{"attributes":{"ID":362733,"DIS_CODE":0,"TOWNNAME":"仁德區","LI":"上崙里","LIN":"19鄰","STREET":"德崙路","SECT":" ","MAREA":" ","LANE":"３１６巷","ALLEY":" ","HOUSE_NO":"２號","E_COORD97":173876.95000000001,"N_COORD97":2538099.5099999998,"ADDRESS":"德崙路３１６巷２號","OBJECTID":362723},"geometry":{"x":173876.95000000019,"y":2538099.5099999998}},{"attributes":{"ID":362734,"DIS_CODE":0,"TOWNNAME":"仁德區","LI":"上崙里","LIN":"19鄰","STREET":"上崙一街","SECT":" ","MAREA":" ","LANE":"２９巷","ALLEY":" ","HOUSE_NO":"８號","E_COORD97":173863.85000000001,"N_COORD97":2538036.5,"ADDRESS":"上崙一街２９巷８號","OBJECTID":362724},"geometry":{"x":173863.84999999963,"y":2538036.5}},{"attributes":{"ID":362735,"DIS_CODE":0,"TOWNNAME":"東區","LI":"大智里","LIN":"32鄰","STREET":"德東街","SECT":" ","MAREA":" ","LANE":"２３５巷","ALLEY":" ","HOUSE_NO":"２１號四樓之６","E_COORD97":171385.82999999999,"N_COORD97":2540315,"ADDRESS":"德東街２３５巷２１號四樓之６","OBJECTID":362725},"geometry":{"x":171385.83000000007,"y":2540314.9999999981}},{"attributes":{"ID":362736,"DIS_CODE":0,"TOWNNAME":"東區","LI":"大智里","LIN":"32鄰","STREET":"德東街","SECT":" ","MAREA":" ","LANE":"２３５巷","ALLEY":" ","HOUSE_NO":"２１號四樓之７","E_COORD97":171385.82999999999,"N_COORD97":2540315,"ADDRESS":"德東街２３５巷２１號四樓之７","OBJECTID":362726},"geometry":{"x":171385.83000000007,"y":2540314.9999999981}},{"attributes":{"ID":362737,"DIS_CODE":0,"TOWNNAME":"東區","LI":"大智里","LIN":"32鄰","STREET":"德東街","SECT":" ","MAREA":" ","LANE":"２３５巷","ALLEY":" ","HOUSE_NO":"２１號四樓之８","E_COORD97":171385.82999999999,"N_COORD97":2540315,"ADDRESS":"德東街２３５巷２１號四樓之８","OBJECTID":362727},"geometry":{"x":171385.83000000007,"y":2540314.9999999981}},{"attributes":{"ID":362738,"DIS_CODE":0,"TOWNNAME":"東區","LI":"大智里","LIN":"32鄰","STREET":"德東街","SECT":" ","MAREA":" ","LANE":"２３５巷","ALLEY":" ","HOUSE_NO":"２１號四樓之９","E_COORD97":171385.82999999999,"N_COORD97":2540315,"ADDRESS":"德東街２３５巷２１號四樓之９","OBJECTID":362728},"geometry":{"x":171385.83000000007,"y":2540314.9999999981}},{"attributes":{"ID":362739,"DIS_CODE":0,"TOWNNAME":"佳里區","LI":"安西里","LIN":"46鄰","STREET":"文化路","SECT":" ","MAREA":" ","LANE":"６４１巷","ALLEY":" ","HOUSE_NO":"１號","E_COORD97":164552.85000000001,"N_COORD97":2562538.1099999999,"ADDRESS":"文化路６４１巷１號","OBJECTID":362729},"geometry":{"x":164552.85000000056,"y":2562538.1100000013}},{"attributes":{"ID":362740,"DIS_CODE":0,"TOWNNAME":"新化區","LI":"東榮里","LIN":"19鄰","STREET":"中興路","SECT":" ","MAREA":" ","LANE":"７１９巷","ALLEY":" ","HOUSE_NO":"１２號","E_COORD97":179468.66,"N_COORD97":2548078.25,"ADDRESS":"中興路７１９巷１２號","OBJECTID":362730},"geometry":{"x":179468.66000000108,"y":2548078.2500000019}},{"attributes":{"ID":362741,"DIS_CODE":0,"TOWNNAME":"南區","LI":"新昌里","LIN":"19鄰","STREET":"西門路","SECT":"一段","MAREA":" ","LANE":"６８９巷","ALLEY":" ","HOUSE_NO":"３３號","E_COORD97":167632.89999999999,"N_COORD97":2543065.23,"ADDRESS":"西門路一段６８９巷３３號","OBJECTID":362731},"geometry":{"x":167632.90000000224,"y":2543065.2300000023}},{"attributes":{"ID":362742,"DIS_CODE":0,"TOWNNAME":"南區","LI":"新昌里","LIN":"19鄰","STREET":"西門路","SECT":"一段","MAREA":" ","LANE":"６８９巷","ALLEY":" ","HOUSE_NO":"３５號","E_COORD97":167631.60999999999,"N_COORD97":2543060.0899999999,"ADDRESS":"西門路一段６８９巷３５號","OBJECTID":362732},"geometry":{"x":167631.61000000127,"y":2543060.0899999999}},{"attributes":{"ID":362743,"DIS_CODE":0,"TOWNNAME":"南區","LI":"新昌里","LIN":"19鄰","STREET":"西門路","SECT":"一段","MAREA":" ","LANE":"６８９巷","ALLEY":" ","HOUSE_NO":"３７號","E_COORD97":167657.35000000001,"N_COORD97":2543051.4100000001,"ADDRESS":"西門路一段６８９巷３７號","OBJECTID":362733},"geometry":{"x":167657.34999999963,"y":2543051.4100000001}},{"attributes":{"ID":362744,"DIS_CODE":0,"TOWNNAME":"南區","LI":"新昌里","LIN":"19鄰","STREET":"西門路","SECT":"一段","MAREA":" ","LANE":"６８９巷","ALLEY":" ","HOUSE_NO":"３９號","E_COORD97":167652.84,"N_COORD97":2543051.0899999999,"ADDRESS":"西門路一段６８９巷３９號","OBJECTID":362734},"geometry":{"x":167652.83999999985,"y":2543051.0900000017}},{"attributes":{"ID":362745,"DIS_CODE":0,"TOWNNAME":"南區","LI":"新昌里","LIN":"19鄰","STREET":"西門路","SECT":"一段","MAREA":" ","LANE":"６８９巷","ALLEY":" ","HOUSE_NO":"４１號","E_COORD97":167646.73000000001,"N_COORD97":2543051.4100000001,"ADDRESS":"西門路一段６８９巷４１號","OBJECTID":362735},"geometry":{"x":167646.73000000138,"y":2543051.4100000001}},{"attributes":{"ID":362746,"DIS_CODE":0,"TOWNNAME":"南區","LI":"新昌里","LIN":"19鄰","STREET":"西門路","SECT":"一段","MAREA":" ","LANE":"６８９巷","ALLEY":" ","HOUSE_NO":"４３號","E_COORD97":167641.26000000001,"N_COORD97":2543051.4100000001,"ADDRESS":"西門路一段６８９巷４３號","OBJECTID":362736},"geometry":{"x":167641.25999999978,"y":2543051.4100000001}},{"attributes":{"ID":362747,"DIS_CODE":0,"TOWNNAME":"南區","LI":"新昌里","LIN":"19鄰","STREET":"西門路","SECT":"一段","MAREA":" ","LANE":"６８９巷","ALLEY":" ","HOUSE_NO":"４５號","E_COORD97":167636.44,"N_COORD97":2543052.0600000001,"ADDRESS":"西門路一段６８９巷４５號","OBJECTID":362737},"geometry":{"x":167636.44000000134,"y":2543052.0600000024}},{"attributes":{"ID":362748,"DIS_CODE":0,"TOWNNAME":"南區","LI":"新昌里","LIN":"19鄰","STREET":"西門路","SECT":"一段","MAREA":" ","LANE":"６８９巷","ALLEY":" ","HOUSE_NO":"４７號","E_COORD97":167631.92999999999,"N_COORD97":2543051.0899999999,"ADDRESS":"西門路一段６８９巷４７號","OBJECTID":362738},"geometry":{"x":167631.92999999877,"y":2543051.0900000017}},{"attributes":{"ID":362749,"DIS_CODE":0,"TOWNNAME":"南區","LI":"新昌里","LIN":"19鄰","STREET":"西門路","SECT":"一段","MAREA":" ","LANE":"６８９巷","ALLEY":" ","HOUSE_NO":"４９號","E_COORD97":167630.97,"N_COORD97":2543046.5899999999,"ADDRESS":"西門路一段６８９巷４９號","OBJECTID":362739},"geometry":{"x":167630.96999999974,"y":2543046.5899999999}},{"attributes":{"ID":362750,"DIS_CODE":0,"TOWNNAME":"南區","LI":"新昌里","LIN":"19鄰","STREET":"西門路","SECT":"一段","MAREA":" ","LANE":"６８９巷","ALLEY":" ","HOUSE_NO":"５１號","E_COORD97":167657.98999999999,"N_COORD97":2543036.9500000002,"ADDRESS":"西門路一段６８９巷５１號","OBJECTID":362740},"geometry":{"x":167657.99000000115,"y":2543036.9499999974}},{"attributes":{"ID":362751,"DIS_CODE":0,"TOWNNAME":"南區","LI":"新昌里","LIN":"19鄰","STREET":"西門路","SECT":"一段","MAREA":" ","LANE":"６８９巷","ALLEY":" ","HOUSE_NO":"５３號","E_COORD97":167653.16,"N_COORD97":2543036.9500000002,"ADDRESS":"西門路一段６８９巷５３號","OBJECTID":362741},"geometry":{"x":167653.16000000108,"y":2543036.9499999974}},{"attributes":{"ID":362752,"DIS_CODE":0,"TOWNNAME":"南區","LI":"新昌里","LIN":"19鄰","STREET":"西門路","SECT":"一段","MAREA":" ","LANE":"６８９巷","ALLEY":" ","HOUSE_NO":"５５號","E_COORD97":167647.70000000001,"N_COORD97":2543037.5899999999,"ADDRESS":"西門路一段６８９巷５５號","OBJECTID":362742},"geometry":{"x":167647.70000000205,"y":2543037.5900000017}},{"attributes":{"ID":362753,"DIS_CODE":0,"TOWNNAME":"南區","LI":"新昌里","LIN":"19鄰","STREET":"西門路","SECT":"一段","MAREA":" ","LANE":"６８９巷","ALLEY":" ","HOUSE_NO":"５７號","E_COORD97":167641.57999999999,"N_COORD97":2543036.3100000001,"ADDRESS":"西門路一段６８９巷５７號","OBJECTID":362743},"geometry":{"x":167641.58000000194,"y":2543036.3100000042}},{"attributes":{"ID":362754,"DIS_CODE":0,"TOWNNAME":"南區","LI":"新昌里","LIN":"19鄰","STREET":"西門路","SECT":"一段","MAREA":" ","LANE":"６８９巷","ALLEY":" ","HOUSE_NO":"５９號","E_COORD97":167636.44,"N_COORD97":2543037.5899999999,"ADDRESS":"西門路一段６８９巷５９號","OBJECTID":362744},"geometry":{"x":167636.44000000134,"y":2543037.5900000017}},{"attributes":{"ID":362755,"DIS_CODE":0,"TOWNNAME":"南區","LI":"文南里","LIN":"13鄰","STREET":"文南路","SECT":" ","MAREA":" ","LANE":" ","ALLEY":" ","HOUSE_NO":"７７號","E_COORD97":166923.32999999999,"N_COORD97":2542724.6299999999,"ADDRESS":"文南路７７號","OBJECTID":362745},"geometry":{"x":166923.33000000101,"y":2542724.6300000008}},{"attributes":{"ID":362756,"DIS_CODE":0,"TOWNNAME":"南區","LI":"文南里","LIN":"13鄰","STREET":"文南路","SECT":" ","MAREA":" ","LANE":" ","ALLEY":" ","HOUSE_NO":"７９號","E_COORD97":166923.89000000001,"N_COORD97":2542729.5699999998,"ADDRESS":"文南路７９號","OBJECTID":362746},"geometry":{"x":166923.8900000006,"y":2542729.5700000022}},{"attributes":{"ID":362757,"DIS_CODE":0,"TOWNNAME":"安平區","LI":"億載里","LIN":"13鄰","STREET":"光州五街","SECT":" ","MAREA":" ","LANE":" ","ALLEY":" ","HOUSE_NO":"４０號","E_COORD97":163986.51000000001,"N_COORD97":2543290.96,"ADDRESS":"光州五街４０號","OBJECTID":362747},"geometry":{"x":163986.50999999978,"y":2543290.9600000028}},{"attributes":{"ID":362758,"DIS_CODE":0,"TOWNNAME":"安平區","LI":"金城里","LIN":"13鄰","STREET":"安北路","SECT":" ","MAREA":" ","LANE":" ","ALLEY":" ","HOUSE_NO":"７２０號","E_COORD97":162514.98000000001,"N_COORD97":2544242.3799999999,"ADDRESS":"安北路７２０號","OBJECTID":362748},"geometry":{"x":162514.98000000138,"y":2544242.3800000008}},{"attributes":{"ID":362759,"DIS_CODE":0,"TOWNNAME":"安平區","LI":"國平里","LIN":"13鄰","STREET":"建平一街","SECT":" ","MAREA":" ","LANE":" ","ALLEY":" ","HOUSE_NO":"１９１號","E_COORD97":165616.84,"N_COORD97":2542773.6699999999,"ADDRESS":"建平一街１９１號","OBJECTID":362749},"geometry":{"x":165616.83999999985,"y":2542773.6699999999}},{"attributes":{"ID":362760,"DIS_CODE":0,"TOWNNAME":"安平區","LI":"國平里","LIN":"13鄰","STREET":"建平一街","SECT":" ","MAREA":" ","LANE":" ","ALLEY":" ","HOUSE_NO":"１９３號","E_COORD97":165613.17999999999,"N_COORD97":2542775.25,"ADDRESS":"建平一街１９３號","OBJECTID":362750},"geometry":{"x":165613.18000000063,"y":2542775.2500000019}},{"attributes":{"ID":362761,"DIS_CODE":0,"TOWNNAME":"安南區","LI":"安慶里","LIN":"32鄰","STREET":"怡安路","SECT":"一段","MAREA":" ","LANE":"３１６巷","ALLEY":" ","HOUSE_NO":"２３號二樓","E_COORD97":168924.47,"N_COORD97":2549159.2799999998,"ADDRESS":"怡安路一段３１６巷２３號二樓","OBJECTID":362751},"geometry":{"x":168924.46999999974,"y":2549159.2800000012}},{"attributes":{"ID":362762,"DIS_CODE":0,"TOWNNAME":"安南區","LI":"安慶里","LIN":"32鄰","STREET":"怡安路","SECT":"一段","MAREA":" ","LANE":"３１６巷","ALLEY":" ","HOUSE_NO":"２３號三樓","E_COORD97":168924.47,"N_COORD97":2549159.2799999998,"ADDRESS":"怡安路一段３１６巷２３號三樓","OBJECTID":362752},"geometry":{"x":168924.46999999974,"y":2549159.2800000012}},{"attributes":{"ID":362763,"DIS_CODE":0,"TOWNNAME":"安南區","LI":"安慶里","LIN":"32鄰","STREET":"怡安路","SECT":"一段","MAREA":" ","LANE":"３１６巷","ALLEY":" ","HOUSE_NO":"２３號五樓","E_COORD97":168924.47,"N_COORD97":2549159.2799999998,"ADDRESS":"怡安路一段３１６巷２３號五樓","OBJECTID":362753},"geometry":{"x":168924.46999999974,"y":2549159.2800000012}},{"attributes":{"ID":362764,"DIS_CODE":0,"TOWNNAME":"南區","LI":"新昌里","LIN":"19鄰","STREET":"西門路","SECT":"一段","MAREA":" ","LANE":"６８９巷","ALLEY":" ","HOUSE_NO":"６１號","E_COORD97":167631.92999999999,"N_COORD97":2543036.9500000002,"ADDRESS":"西門路一段６８９巷６１號","OBJECTID":362754},"geometry":{"x":167631.92999999877,"y":2543036.9499999974}},{"attributes":{"ID":362765,"DIS_CODE":0,"TOWNNAME":"安南區","LI":"大安里","LIN":"19鄰","STREET":"義安街","SECT":" ","MAREA":" ","LANE":"２１２巷","ALLEY":" ","HOUSE_NO":"１７號","E_COORD97":167691.10000000001,"N_COORD97":2548318.4199999999,"ADDRESS":"義安街２１２巷１７號","OBJECTID":362755},"geometry":{"x":167691.09999999963,"y":2548318.4200000018}},{"attributes":{"ID":362766,"DIS_CODE":0,"TOWNNAME":"安南區","LI":"大安里","LIN":"19鄰","STREET":"義安街","SECT":" ","MAREA":" ","LANE":"２１２巷","ALLEY":" ","HOUSE_NO":"１８號","E_COORD97":167678.62,"N_COORD97":2548301.27,"ADDRESS":"義安街２１２巷１８號","OBJECTID":362756},"geometry":{"x":167678.62000000197,"y":2548301.2700000014}},{"attributes":{"ID":362767,"DIS_CODE":0,"TOWNNAME":"安南區","LI":"大安里","LIN":"19鄰","STREET":"義安街","SECT":" ","MAREA":" ","LANE":"２１２巷","ALLEY":" ","HOUSE_NO":"１９號","E_COORD97":167697.85999999999,"N_COORD97":2548314.2599999998,"ADDRESS":"義安街２１２巷１９號","OBJECTID":362757},"geometry":{"x":167697.86000000127,"y":2548314.2599999979}},{"attributes":{"ID":362768,"DIS_CODE":0,"TOWNNAME":"安南區","LI":"大安里","LIN":"19鄰","STREET":"義安街","SECT":" ","MAREA":" ","LANE":"２１２巷","ALLEY":" ","HOUSE_NO":"１號","E_COORD97":167652.63,"N_COORD97":2548343.1400000001,"ADDRESS":"義安街２１２巷１號","OBJECTID":362758},"geometry":{"x":167652.62999999989,"y":2548343.1400000043}},{"attributes":{"ID":362769,"DIS_CODE":0,"TOWNNAME":"安南區","LI":"大安里","LIN":"19鄰","STREET":"安通路","SECT":"五段","MAREA":" ","LANE":"２３０巷","ALLEY":" ","HOUSE_NO":"１６０號","E_COORD97":167809.00249000001,"N_COORD97":2548070.2669000002,"ADDRESS":"安通路五段２３０巷１６０號","OBJECTID":362759},"geometry":{"x":167809.0024900008,"y":2548070.2669040002}},{"attributes":{"ID":362770,"DIS_CODE":0,"TOWNNAME":"安南區","LI":"大安里","LIN":"19鄰","STREET":"安通路","SECT":"五段","MAREA":" ","LANE":"２３０巷","ALLEY":" ","HOUSE_NO":"１６０號之２","E_COORD97":167785.50012300001,"N_COORD97":2548034.07192,"ADDRESS":"安通路五段２３０巷１６０號之２","OBJECTID":362760},"geometry":{"x":167785.50012299977,"y":2548034.0719229989}},{"attributes":{"ID":362771,"DIS_CODE":0,"TOWNNAME":"安南區","LI":"大安里","LIN":"19鄰","STREET":"安通路","SECT":"五段","MAREA":" ","LANE":"２３０巷","ALLEY":" ","HOUSE_NO":"１６０號之８","E_COORD97":167806.24996099999,"N_COORD97":2548064.9752400001,"ADDRESS":"安通路五段２３０巷１６０號之８","OBJECTID":362761},"geometry":{"x":167806.24996099994,"y":2548064.9752399996}},{"attributes":{"ID":362772,"DIS_CODE":0,"TOWNNAME":"安南區","LI":"大安里","LIN":"19鄰","STREET":"安通路","SECT":"五段","MAREA":" ","LANE":"２３０巷","ALLEY":" ","HOUSE_NO":"１６０號之７","E_COORD97":167801.59183399999,"N_COORD97":2548060.3185800002,"ADDRESS":"安通路五段２３０巷１６０號之７","OBJECTID":362762},"geometry":{"x":167801.59183400124,"y":2548060.3185760044}},{"attributes":{"ID":362773,"DIS_CODE":0,"TOWNNAME":"安南區","LI":"大安里","LIN":"19鄰","STREET":"安通路","SECT":"五段","MAREA":" ","LANE":"２３０巷","ALLEY":" ","HOUSE_NO":"１６０號之５","E_COORD97":167790.158249,"N_COORD97":2548045.9252499999,"ADDRESS":"安通路五段２３０巷１６０號之５","OBJECTID":362763},"geometry":{"x":167790.15824900102,"y":2548045.9252499994}},{"attributes":{"ID":362774,"DIS_CODE":0,"TOWNNAME":"安南區","LI":"大安里","LIN":"19鄰","STREET":"安通路","SECT":"五段","MAREA":" ","LANE":"２３０巷","ALLEY":" ","HOUSE_NO":"１６０號之６","E_COORD97":167792.910779,"N_COORD97":2548052.2752499999,"ADDRESS":"安通路五段２３０巷１６０號之６","OBJECTID":362764},"geometry":{"x":167792.91077900119,"y":2548052.275247002}},{"attributes":{"ID":362775,"DIS_CODE":0,"TOWNNAME":"安南區","LI":"大安里","LIN":"19鄰","STREET":"義安街","SECT":" ","MAREA":" ","LANE":"２１２巷","ALLEY":" ","HOUSE_NO":"２０號","E_COORD97":167686.16,"N_COORD97":2548296.6000000001,"ADDRESS":"義安街２１２巷２０號","OBJECTID":362765},"geometry":{"x":167686.16000000015,"y":2548296.6000000015}},{"attributes":{"ID":362776,"DIS_CODE":0,"TOWNNAME":"安南區","LI":"大安里","LIN":"19鄰","STREET":"義安街","SECT":" ","MAREA":" ","LANE":"２１２巷","ALLEY":" ","HOUSE_NO":"２１號","E_COORD97":167701.23999999999,"N_COORD97":2548311.1400000001,"ADDRESS":"義安街２１２巷２１號","OBJECTID":362766},"geometry":{"x":167701.24000000022,"y":2548311.1400000006}},{"attributes":{"ID":362777,"DIS_CODE":0,"TOWNNAME":"安南區","LI":"大安里","LIN":"19鄰","STREET":"義安街","SECT":" ","MAREA":" ","LANE":"２１２巷","ALLEY":" ","HOUSE_NO":"２２號","E_COORD97":167690.57999999999,"N_COORD97":2548294.52,"ADDRESS":"義安街２１２巷２２號","OBJECTID":362767},"geometry":{"x":167690.58000000007,"y":2548294.5199999996}},{"attributes":{"ID":362778,"DIS_CODE":0,"TOWNNAME":"安南區","LI":"大安里","LIN":"19鄰","STREET":"義安街","SECT":" ","MAREA":" ","LANE":"２１２巷","ALLEY":" ","HOUSE_NO":"２３號","E_COORD97":167705.39999999999,"N_COORD97":2548308.29,"ADDRESS":"義安街２１２巷２３號","OBJECTID":362768},"geometry":{"x":167705.40000000037,"y":2548308.290000001}},{"attributes":{"ID":362779,"DIS_CODE":0,"TOWNNAME":"安南區","LI":"大安里","LIN":"19鄰","STREET":"義安街","SECT":" ","MAREA":" ","LANE":"２１２巷","ALLEY":" ","HOUSE_NO":"２４號","E_COORD97":167695.51999999999,"N_COORD97":2548291.6600000001,"ADDRESS":"義安街２１２巷２４號","OBJECTID":362769},"geometry":{"x":167695.51999999955,"y":2548291.6599999983}},{"attributes":{"ID":362780,"DIS_CODE":0,"TOWNNAME":"安南區","LI":"大安里","LIN":"19鄰","STREET":"義安街","SECT":" ","MAREA":" ","LANE":"２１２巷","ALLEY":" ","HOUSE_NO":"２５號","E_COORD97":167709.82000000001,"N_COORD97":2548305.4300000002,"ADDRESS":"義安街２１２巷２５號","OBJECTID":362770},"geometry":{"x":167709.82000000123,"y":2548305.4299999997}},{"attributes":{"ID":362781,"DIS_CODE":0,"TOWNNAME":"安南區","LI":"大安里","LIN":"19鄰","STREET":"義安街","SECT":" ","MAREA":" ","LANE":"２１２巷","ALLEY":" ","HOUSE_NO":"２６號","E_COORD97":167699.67999999999,"N_COORD97":2548289.3300000001,"ADDRESS":"義安街２１２巷２６號","OBJECTID":362771},"geometry":{"x":167699.6799999997,"y":2548289.3300000001}},{"attributes":{"ID":362782,"DIS_CODE":0,"TOWNNAME":"安南區","LI":"大安里","LIN":"19鄰","STREET":"義安街","SECT":" ","MAREA":" ","LANE":"２１２巷","ALLEY":" ","HOUSE_NO":"２７號","E_COORD97":167714.5,"N_COORD97":2548302.8300000001,"ADDRESS":"義安街２１２巷２７號","OBJECTID":362772},"geometry":{"x":167714.5,"y":2548302.8300000001}},{"attributes":{"ID":362783,"DIS_CODE":0,"TOWNNAME":"安南區","LI":"大安里","LIN":"19鄰","STREET":"義安街","SECT":" ","MAREA":" ","LANE":"２１２巷","ALLEY":" ","HOUSE_NO":"２８號","E_COORD97":167703.32000000001,"N_COORD97":2548286.4700000002,"ADDRESS":"義安街２１２巷２８號","OBJECTID":362773},"geometry":{"x":167703.32000000123,"y":2548286.4700000007}},{"attributes":{"ID":362784,"DIS_CODE":0,"TOWNNAME":"安南區","LI":"大安里","LIN":"19鄰","STREET":"義安街","SECT":" ","MAREA":" ","LANE":"２１２巷","ALLEY":" ","HOUSE_NO":"２９號","E_COORD97":167718.92000000001,"N_COORD97":2548300.2400000002,"ADDRESS":"義安街２１２巷２９號","OBJECTID":362774},"geometry":{"x":167718.92000000086,"y":2548300.2400000002}},{"attributes":{"ID":362785,"DIS_CODE":0,"TOWNNAME":"安平區","LI":"國平里","LIN":"13鄰","STREET":"建平一街","SECT":" ","MAREA":" ","LANE":" ","ALLEY":" ","HOUSE_NO":"１９５號","E_COORD97":165608.57999999999,"N_COORD97":2542775.4100000001,"ADDRESS":"建平一街１９５號","OBJECTID":362775},"geometry":{"x":165608.58000000007,"y":2542775.410000002}},{"attributes":{"ID":362786,"DIS_CODE":0,"TOWNNAME":"安平區","LI":"國平里","LIN":"13鄰","STREET":"建平一街","SECT":" ","MAREA":" ","LANE":" ","ALLEY":" ","HOUSE_NO":"１９７號","E_COORD97":165603.82000000001,"N_COORD97":2542775.8900000001,"ADDRESS":"建平一街１９７號","OBJECTID":362776},"geometry":{"x":165603.8200000003,"y":2542775.8900000025}},{"attributes":{"ID":362787,"DIS_CODE":0,"TOWNNAME":"安平區","LI":"國平里","LIN":"13鄰","STREET":"建平一街","SECT":" ","MAREA":" ","LANE":" ","ALLEY":" ","HOUSE_NO":"１９９號","E_COORD97":165600.79999999999,"N_COORD97":2542776.21,"ADDRESS":"建平一街１９９號","OBJECTID":362777},"geometry":{"x":165600.80000000075,"y":2542776.2100000046}},{"attributes":{"ID":362788,"DIS_CODE":0,"TOWNNAME":"中西區","LI":"郡王里","LIN":"18鄰","STREET":"府前路","SECT":"一段","MAREA":" ","LANE":"十七五巷","ALLEY":" ","HOUSE_NO":"１０號","E_COORD97":168586.92999999999,"N_COORD97":2543227.7999999998,"ADDRESS":"府前路一段十七五巷１０號","OBJECTID":362778},"geometry":{"x":168586.93000000063,"y":2543227.8000000026}},{"attributes":{"ID":362789,"DIS_CODE":0,"TOWNNAME":"中西區","LI":"郡王里","LIN":"18鄰","STREET":"府前路","SECT":"一段","MAREA":" ","LANE":"十七五巷","ALLEY":" ","HOUSE_NO":"１１號","E_COORD97":168575.34,"N_COORD97":2543227.96,"ADDRESS":"府前路一段十七五巷１１號","OBJECTID":362779},"geometry":{"x":168575.34000000171,"y":2543227.9600000009}},{"attributes":{"ID":362790,"DIS_CODE":0,"TOWNNAME":"中西區","LI":"郡王里","LIN":"18鄰","STREET":"府前路","SECT":"一段","MAREA":" ","LANE":"十七五巷","ALLEY":" ","HOUSE_NO":"１２號","E_COORD97":168563.28,"N_COORD97":2543228.2799999998,"ADDRESS":"府前路一段十七五巷１２號","OBJECTID":362780},"geometry":{"x":168563.28000000119,"y":2543228.2800000031}},{"attributes":{"ID":362791,"DIS_CODE":0,"TOWNNAME":"中西區","LI":"郡王里","LIN":"18鄰","STREET":"府前路","SECT":"一段","MAREA":" ","LANE":"十七五巷","ALLEY":" ","HOUSE_NO":"１３號","E_COORD97":168562.32000000001,"N_COORD97":2543216.21,"ADDRESS":"府前路一段十七五巷１３號","OBJECTID":362781},"geometry":{"x":168562.32000000216,"y":2543216.2100000009}},{"attributes":{"ID":362792,"DIS_CODE":0,"TOWNNAME":"中西區","LI":"郡王里","LIN":"18鄰","STREET":"府前路","SECT":"一段","MAREA":" ","LANE":"十七五巷","ALLEY":" ","HOUSE_NO":"１５號","E_COORD97":168572.01000000001,"N_COORD97":2543216.6899999999,"ADDRESS":"府前路一段十七五巷１５號","OBJECTID":362782},"geometry":{"x":168572.00999999978,"y":2543216.6900000013}},{"attributes":{"ID":362793,"DIS_CODE":0,"TOWNNAME":"中西區","LI":"郡王里","LIN":"18鄰","STREET":"府前路","SECT":"一段","MAREA":" ","LANE":"十七五巷","ALLEY":" ","HOUSE_NO":"１６號","E_COORD97":168580.89999999999,"N_COORD97":2543216.6899999999,"ADDRESS":"府前路一段十七五巷１６號","OBJECTID":362783},"geometry":{"x":168580.9000000013,"y":2543216.6900000013}},{"attributes":{"ID":362794,"DIS_CODE":0,"TOWNNAME":"中西區","LI":"郡王里","LIN":"18鄰","STREET":"府前路","SECT":"一段","MAREA":" ","LANE":"十七五巷","ALLEY":" ","HOUSE_NO":"１７號","E_COORD97":168589.14999999999,"N_COORD97":2543217.1699999999,"ADDRESS":"府前路一段十七五巷１７號","OBJECTID":362784},"geometry":{"x":168589.1500000013,"y":2543217.1700000018}},{"attributes":{"ID":362795,"DIS_CODE":0,"TOWNNAME":"中西區","LI":"郡王里","LIN":"18鄰","STREET":"府前路","SECT":"一段","MAREA":" ","LANE":"十七五巷","ALLEY":" ","HOUSE_NO":"１８號","E_COORD97":168599.95000000001,"N_COORD97":2543217.1699999999,"ADDRESS":"府前路一段十七五巷１８號","OBJECTID":362785},"geometry":{"x":168599.95000000019,"y":2543217.1700000018}},{"attributes":{"ID":362796,"DIS_CODE":0,"TOWNNAME":"安南區","LI":"大安里","LIN":"19鄰","STREET":"義安街","SECT":" ","MAREA":" ","LANE":"２１２巷","ALLEY":" ","HOUSE_NO":"３０號","E_COORD97":167706.95999999999,"N_COORD97":2548282.3100000001,"ADDRESS":"義安街２１２巷３０號","OBJECTID":362786},"geometry":{"x":167706.96000000089,"y":2548282.3100000024}},{"attributes":{"ID":362797,"DIS_CODE":0,"TOWNNAME":"安平區","LI":"國平里","LIN":"13鄰","STREET":"建平一街","SECT":" ","MAREA":" ","LANE":" ","ALLEY":" ","HOUSE_NO":"２０１號","E_COORD97":165594.92999999999,"N_COORD97":2542777,"ADDRESS":"建平一街２０１號","OBJECTID":362787},"geometry":{"x":165594.93000000063,"y":2542777.0000000019}},{"attributes":{"ID":362798,"DIS_CODE":0,"TOWNNAME":"安平區","LI":"國平里","LIN":"13鄰","STREET":"建平一街","SECT":" ","MAREA":" ","LANE":" ","ALLEY":" ","HOUSE_NO":"２０３號","E_COORD97":165590.64000000001,"N_COORD97":2542777.9500000002,"ADDRESS":"建平一街２０３號","OBJECTID":362788},"geometry":{"x":165590.63999999966,"y":2542777.9499999993}},{"attributes":{"ID":362799,"DIS_CODE":0,"TOWNNAME":"安平區","LI":"億載里","LIN":"13鄰","STREET":"光州五街","SECT":" ","MAREA":" ","LANE":" ","ALLEY":" ","HOUSE_NO":"１３９號","E_COORD97":164220.42999999999,"N_COORD97":2543319.6699999999,"ADDRESS":"光州五街１３９號","OBJECTID":362789},"geometry":{"x":164220.43000000063,"y":2543319.6699999999}},{"attributes":{"ID":362800,"DIS_CODE":0,"TOWNNAME":"鹽水區","LI":"水秀里","LIN":"13鄰","STREET":"朝琴路","SECT":" ","MAREA":" ","LANE":" ","ALLEY":" ","HOUSE_NO":"７３號","E_COORD97":175281.91,"N_COORD97":2580078.0499999998,"ADDRESS":"朝琴路７３號","OBJECTID":362790},"geometry":{"x":175281.91000000108,"y":2580078.0500000045}},{"attributes":{"ID":362801,"DIS_CODE":0,"TOWNNAME":"鹽水區","LI":"水秀里","LIN":"13鄰","STREET":"朝琴路","SECT":" ","MAREA":" ","LANE":" ","ALLEY":" ","HOUSE_NO":"７５號","E_COORD97":175285.76000000001,"N_COORD97":2580080.3399999999,"ADDRESS":"朝琴路７５號","OBJECTID":362791},"geometry":{"x":175285.76000000071,"y":2580080.3399999999}},{"attributes":{"ID":362802,"DIS_CODE":0,"TOWNNAME":"鹽水區","LI":"水正里","LIN":"13鄰","STREET":"橋南街","SECT":" ","MAREA":" ","LANE":" ","ALLEY":" ","HOUSE_NO":"４號","E_COORD97":175049.34,"N_COORD97":2579579.8700000001,"ADDRESS":"橋南街４號","OBJECTID":362792},"geometry":{"x":175049.34000000171,"y":2579579.870000001}},{"attributes":{"ID":362803,"DIS_CODE":0,"TOWNNAME":"安平區","LI":"建平里","LIN":"13鄰","STREET":"建平十四街","SECT":" ","MAREA":" ","LANE":" ","ALLEY":" ","HOUSE_NO":"１０１號","E_COORD97":166121.01000000001,"N_COORD97":2544056.7999999998,"ADDRESS":"建平十四街１０１號","OBJECTID":362793},"geometry":{"x":166121.00999999885,"y":2544056.8000000045}},{"attributes":{"ID":362804,"DIS_CODE":0,"TOWNNAME":"安平區","LI":"建平里","LIN":"13鄰","STREET":"建平十四街","SECT":" ","MAREA":" ","LANE":" ","ALLEY":" ","HOUSE_NO":"１０３號","E_COORD97":166116.14999999999,"N_COORD97":2544057.2200000002,"ADDRESS":"建平十四街１０３號","OBJECTID":362794},"geometry":{"x":166116.1500000013,"y":2544057.2199999988}},{"attributes":{"ID":362805,"DIS_CODE":0,"TOWNNAME":"安平區","LI":"建平里","LIN":"13鄰","STREET":"建平十四街","SECT":" ","MAREA":" ","LANE":" ","ALLEY":" ","HOUSE_NO":"１０５號","E_COORD97":166111.32000000001,"N_COORD97":2544057.7400000002,"ADDRESS":"建平十四街１０５號","OBJECTID":362795},"geometry":{"x":166111.32000000123,"y":2544057.7400000021}},{"attributes":{"ID":362806,"DIS_CODE":0,"TOWNNAME":"安平區","LI":"建平里","LIN":"13鄰","STREET":"建平十四街","SECT":" ","MAREA":" ","LANE":" ","ALLEY":" ","HOUSE_NO":"１０７號","E_COORD97":166106.37,"N_COORD97":2544058.6899999999,"ADDRESS":"建平十四街１０７號","OBJECTID":362796},"geometry":{"x":166106.37000000011,"y":2544058.6899999995}},{"attributes":{"ID":362807,"DIS_CODE":0,"TOWNNAME":"南區","LI":"開南里","LIN":"18鄰","STREET":"\u25A0埕路","SECT":" ","MAREA":" ","LANE":"１５９巷","ALLEY":" ","HOUSE_NO":"３號二樓","E_COORD97":166627.39999999999,"N_COORD97":2541119.1600000001,"ADDRESS":"\u25A0埕路１５９巷３號二樓","OBJECTID":362797},"geometry":{"x":166627.40000000037,"y":2541119.160000002}},{"attributes":{"ID":362808,"DIS_CODE":0,"TOWNNAME":"南區","LI":"開南里","LIN":"18鄰","STREET":"\u25A0埕路","SECT":" ","MAREA":" ","LANE":"１５９巷","ALLEY":" ","HOUSE_NO":"３號二樓之１","E_COORD97":166627.39999999999,"N_COORD97":2541119.1600000001,"ADDRESS":"\u25A0埕路１５９巷３號二樓之１","OBJECTID":362798},"geometry":{"x":166627.40000000037,"y":2541119.160000002}},{"attributes":{"ID":362809,"DIS_CODE":0,"TOWNNAME":"南區","LI":"開南里","LIN":"18鄰","STREET":"\u25A0埕路","SECT":" ","MAREA":" ","LANE":"１５９巷","ALLEY":" ","HOUSE_NO":"３號二樓之２","E_COORD97":166627.39999999999,"N_COORD97":2541119.1600000001,"ADDRESS":"\u25A0埕路１５９巷３號二樓之２","OBJECTID":362799},"geometry":{"x":166627.40000000037,"y":2541119.160000002}},{"attributes":{"ID":362810,"DIS_CODE":0,"TOWNNAME":"南區","LI":"開南里","LIN":"18鄰","STREET":"\u25A0埕路","SECT":" ","MAREA":" ","LANE":"１５９巷","ALLEY":" ","HOUSE_NO":"３號二樓之３","E_COORD97":166627.39999999999,"N_COORD97":2541119.1600000001,"ADDRESS":"\u25A0埕路１５９巷３號二樓之３","OBJECTID":362800},"geometry":{"x":166627.40000000037,"y":2541119.160000002}}]}