{"displayFieldName":"TOWNNAME","fieldAliases":{"ID":"ID","DIS_CODE":"DIS_CODE","TOWNNAME":"TOWNNAME","LI":"LI","LIN":"LIN","STREET":"STREET","SECT":"SECT","MAREA":"MAREA","LANE":"LANE","ALLEY":"ALLEY","HOUSE_NO":"HOUSE_NO","E_COORD97":"E_COORD97","N_COORD97":"N_COORD97","ADDRESS":"ADDRESS","OBJECTID":"OBJECTID"},"geometryType":"esriGeometryPoint","spatialReference":{"wkid":102443,"latestWkid":3826},"fields":[{"name":"ID","type":"esriFieldTypeDouble","alias":"ID"},{"name":"DIS_CODE","type":"esriFieldTypeInteger","alias":"DIS_CODE"},{"name":"TOWNNAME","type":"esriFieldTypeString","alias":"TOWNNAME","length":8},{"name":"LI","type":"esriFieldTypeString","alias":"LI","length":8},{"name":"LIN","type":"esriFieldTypeString","alias":"LIN","length":12},{"name":"STREET","type":"esriFieldTypeString","alias":"STREET","length":20},{"name":"SECT","type":"esriFieldTypeString","alias":"SECT","length":8},{"name":"MAREA","type":"esriFieldTypeString","alias":"MAREA","length":12},{"name":"LANE","type":"esriFieldTypeString","alias":"LANE","length":10},{"name":"ALLEY","type":"esriFieldTypeString","alias":"ALLEY","length":10},{"name":"HOUSE_NO","type":"esriFieldTypeString","alias":"HOUSE_NO","length":20},{"name":"E_COORD97","type":"esriFieldTypeDouble","alias":"E_COORD97"},{"name":"N_COORD97","type":"esriFieldTypeDouble","alias":"N_COORD97"},{"name":"ADDRESS","type":"esriFieldTypeString","alias":"ADDRESS","length":50},{"name":"OBJECTID","type":"esriFieldTypeOID","alias":"OBJECTID"}],"features":[{"attributes":{"ID":22201,"DIS_CODE":0,"TOWNNAME":"官田區","LI":"東庄里","LIN":"17鄰","STREET":" ","SECT":" ","MAREA":"東庄","LANE":" ","ALLEY":" ","HOUSE_NO":"１６號","E_COORD97":178420.95999999999,"N_COORD97":2565315.4300000002,"ADDRESS":"東庄１６號","OBJECTID":22201},"geometry":{"x":178420.96000000089,"y":2565315.4299999997}},{"attributes":{"ID":22202,"DIS_CODE":0,"TOWNNAME":"官田區","LI":"東庄里","LIN":"17鄰","STREET":" ","SECT":" ","MAREA":"東庄","LANE":" ","ALLEY":" ","HOUSE_NO":"１７號之１","E_COORD97":178435.73000000001,"N_COORD97":2565351.4399999999,"ADDRESS":"東庄１７號之１","OBJECTID":22202},"geometry":{"x":178435.73000000045,"y":2565351.4399999995}},{"attributes":{"ID":22203,"DIS_CODE":0,"TOWNNAME":"官田區","LI":"東庄里","LIN":"17鄰","STREET":" ","SECT":" ","MAREA":"東庄","LANE":" ","ALLEY":" ","HOUSE_NO":"１７號之２","E_COORD97":178432.67000000001,"N_COORD97":2565362.8799999999,"ADDRESS":"東庄１７號之２","OBJECTID":22203},"geometry":{"x":178432.67000000086,"y":2565362.8800000027}},{"attributes":{"ID":22204,"DIS_CODE":0,"TOWNNAME":"永康區","LI":"五王里","LIN":"14鄰","STREET":"中華二路","SECT":" ","MAREA":" ","LANE":"２０６巷","ALLEY":"６８弄","HOUSE_NO":"４３號五樓之１","E_COORD97":171633.06,"N_COORD97":2545733.0800000001,"ADDRESS":"中華二路２０６巷６８弄４３號五樓之１","OBJECTID":22204},"geometry":{"x":171633.05999999959,"y":2545733.0800000019}},{"attributes":{"ID":22205,"DIS_CODE":0,"TOWNNAME":"永康區","LI":"安康里","LIN":"14鄰","STREET":"中華路","SECT":" ","MAREA":" ","LANE":"６１９巷","ALLEY":"８８弄","HOUSE_NO":"１０號五樓","E_COORD97":170863.01000000001,"N_COORD97":2546051.75,"ADDRESS":"中華路６１９巷８８弄１０號五樓","OBJECTID":22205},"geometry":{"x":170863.01000000071,"y":2546051.75}},{"attributes":{"ID":22206,"DIS_CODE":0,"TOWNNAME":"永康區","LI":"安康里","LIN":"14鄰","STREET":"中華路","SECT":" ","MAREA":" ","LANE":"６１９巷","ALLEY":"８８弄","HOUSE_NO":"２４號一樓之１５","E_COORD97":170872.75,"N_COORD97":2546063.54,"ADDRESS":"中華路６１９巷８８弄２４號一樓之１５","OBJECTID":22206},"geometry":{"x":170872.75,"y":2546063.5399999991}},{"attributes":{"ID":22207,"DIS_CODE":0,"TOWNNAME":"永康區","LI":"五王里","LIN":"14鄰","STREET":"中華二路","SECT":" ","MAREA":" ","LANE":"２０６巷","ALLEY":"６８弄","HOUSE_NO":"５１號三樓之２","E_COORD97":171637.81,"N_COORD97":2545715.3399999999,"ADDRESS":"中華二路２０６巷６８弄５１號三樓之２","OBJECTID":22207},"geometry":{"x":171637.80999999959,"y":2545715.3399999999}},{"attributes":{"ID":22208,"DIS_CODE":0,"TOWNNAME":"永康區","LI":"安康里","LIN":"14鄰","STREET":"中華路","SECT":" ","MAREA":" ","LANE":"６１９巷","ALLEY":"８８弄","HOUSE_NO":"２４號三樓之７","E_COORD97":170871.42999999999,"N_COORD97":2546063.54,"ADDRESS":"中華路６１９巷８８弄２４號三樓之７","OBJECTID":22208},"geometry":{"x":170871.42999999877,"y":2546063.5399999991}},{"attributes":{"ID":22209,"DIS_CODE":0,"TOWNNAME":"官田區","LI":"東庄里","LIN":"17鄰","STREET":" ","SECT":" ","MAREA":"東庄","LANE":" ","ALLEY":" ","HOUSE_NO":"１７號","E_COORD97":178416.57000000001,"N_COORD97":2565314.1499999999,"ADDRESS":"東庄１７號","OBJECTID":22209},"geometry":{"x":178416.57000000216,"y":2565314.1500000004}},{"attributes":{"ID":22210,"DIS_CODE":0,"TOWNNAME":"官田區","LI":"東庄里","LIN":"17鄰","STREET":" ","SECT":" ","MAREA":"東庄","LANE":" ","ALLEY":" ","HOUSE_NO":"１８號之１","E_COORD97":178425.39999999999,"N_COORD97":2565347.2799999998,"ADDRESS":"東庄１８號之１","OBJECTID":22210},"geometry":{"x":178425.40000000037,"y":2565347.2800000031}},{"attributes":{"ID":22211,"DIS_CODE":0,"TOWNNAME":"官田區","LI":"東庄里","LIN":"17鄰","STREET":" ","SECT":" ","MAREA":"東庄","LANE":" ","ALLEY":" ","HOUSE_NO":"１８號之２","E_COORD97":178412.76000000001,"N_COORD97":2565369.29,"ADDRESS":"東庄１８號之２","OBJECTID":22211},"geometry":{"x":178412.75999999978,"y":2565369.2899999991}},{"attributes":{"ID":22212,"DIS_CODE":0,"TOWNNAME":"官田區","LI":"東庄里","LIN":"17鄰","STREET":" ","SECT":" ","MAREA":"東庄","LANE":" ","ALLEY":" ","HOUSE_NO":"１８號之３","E_COORD97":178415.85000000001,"N_COORD97":2565346.3100000001,"ADDRESS":"東庄１８號之３","OBJECTID":22212},"geometry":{"x":178415.85000000056,"y":2565346.3100000024}},{"attributes":{"ID":22213,"DIS_CODE":0,"TOWNNAME":"永康區","LI":"安康里","LIN":"14鄰","STREET":"中華路","SECT":" ","MAREA":" ","LANE":"６１９巷","ALLEY":"８８弄","HOUSE_NO":"２４號二樓之５","E_COORD97":170871.5,"N_COORD97":2546063.54,"ADDRESS":"中華路６１９巷８８弄２４號二樓之５","OBJECTID":22213},"geometry":{"x":170871.50000000093,"y":2546063.5399999991}},{"attributes":{"ID":22214,"DIS_CODE":0,"TOWNNAME":"永康區","LI":"安康里","LIN":"14鄰","STREET":"中華路","SECT":" ","MAREA":" ","LANE":"６１９巷","ALLEY":"８８弄","HOUSE_NO":"２４號三樓之３","E_COORD97":170871.45000000001,"N_COORD97":2546063.54,"ADDRESS":"中華路６１９巷８８弄２４號三樓之３","OBJECTID":22214},"geometry":{"x":170871.45000000019,"y":2546063.5399999991}},{"attributes":{"ID":22215,"DIS_CODE":0,"TOWNNAME":"永康區","LI":"安康里","LIN":"14鄰","STREET":"中華路","SECT":" ","MAREA":" ","LANE":"６１９巷","ALLEY":"８８弄","HOUSE_NO":"２４號四樓之４","E_COORD97":170871.37,"N_COORD97":2546063.54,"ADDRESS":"中華路６１９巷８８弄２４號四樓之４","OBJECTID":22215},"geometry":{"x":170871.37000000104,"y":2546063.5399999991}},{"attributes":{"ID":22216,"DIS_CODE":0,"TOWNNAME":"永康區","LI":"安康里","LIN":"14鄰","STREET":"中華路","SECT":" ","MAREA":" ","LANE":"６１９巷","ALLEY":"８８弄","HOUSE_NO":"２４號三樓之９","E_COORD97":170871.42999999999,"N_COORD97":2546063.54,"ADDRESS":"中華路６１９巷８８弄２４號三樓之９","OBJECTID":22216},"geometry":{"x":170871.42999999877,"y":2546063.5399999991}},{"attributes":{"ID":22217,"DIS_CODE":0,"TOWNNAME":"官田區","LI":"東庄里","LIN":"17鄰","STREET":" ","SECT":" ","MAREA":"東庄","LANE":" ","ALLEY":" ","HOUSE_NO":"１９號之１０","E_COORD97":178326.57000000001,"N_COORD97":2565321.7000000002,"ADDRESS":"東庄１９號之１０","OBJECTID":22217},"geometry":{"x":178326.56999999937,"y":2565321.7000000011}},{"attributes":{"ID":22218,"DIS_CODE":0,"TOWNNAME":"官田區","LI":"東庄里","LIN":"17鄰","STREET":" ","SECT":" ","MAREA":"東庄","LANE":" ","ALLEY":" ","HOUSE_NO":"１９號之１１","E_COORD97":178330.84,"N_COORD97":2565322.2400000002,"ADDRESS":"東庄１９號之１１","OBJECTID":22218},"geometry":{"x":178330.83999999985,"y":2565322.2400000021}},{"attributes":{"ID":22219,"DIS_CODE":0,"TOWNNAME":"官田區","LI":"東庄里","LIN":"17鄰","STREET":" ","SECT":" ","MAREA":"東庄","LANE":" ","ALLEY":" ","HOUSE_NO":"１９號之１２","E_COORD97":178335.42999999999,"N_COORD97":2565322.3399999999,"ADDRESS":"東庄１９號之１２","OBJECTID":22219},"geometry":{"x":178335.43000000156,"y":2565322.3399999999}},{"attributes":{"ID":22220,"DIS_CODE":0,"TOWNNAME":"官田區","LI":"東庄里","LIN":"17鄰","STREET":" ","SECT":" ","MAREA":"東庄","LANE":" ","ALLEY":" ","HOUSE_NO":"１９號之１３","E_COORD97":178344.20000000001,"N_COORD97":2565326.3999999999,"ADDRESS":"東庄１９號之１３","OBJECTID":22220},"geometry":{"x":178344.19999999925,"y":2565326.4000000004}},{"attributes":{"ID":22221,"DIS_CODE":0,"TOWNNAME":"官田區","LI":"東庄里","LIN":"17鄰","STREET":" ","SECT":" ","MAREA":"東庄","LANE":" ","ALLEY":" ","HOUSE_NO":"１９號之１４","E_COORD97":178348.26000000001,"N_COORD97":2565326.5099999998,"ADDRESS":"東庄１９號之１４","OBJECTID":22221},"geometry":{"x":178348.25999999978,"y":2565326.5100000016}},{"attributes":{"ID":22222,"DIS_CODE":0,"TOWNNAME":"永康區","LI":"安康里","LIN":"14鄰","STREET":"中華路","SECT":" ","MAREA":" ","LANE":"６１９巷","ALLEY":"８８弄","HOUSE_NO":"２４號一樓之６","E_COORD97":170871.45000000001,"N_COORD97":2546063.54,"ADDRESS":"中華路６１９巷８８弄２４號一樓之６","OBJECTID":22222},"geometry":{"x":170871.45000000019,"y":2546063.5399999991}},{"attributes":{"ID":22223,"DIS_CODE":0,"TOWNNAME":"永康區","LI":"安康里","LIN":"14鄰","STREET":"中華路","SECT":" ","MAREA":" ","LANE":"６１９巷","ALLEY":"８８弄","HOUSE_NO":"６號二樓","E_COORD97":170860.14999999999,"N_COORD97":2546040.2599999998,"ADDRESS":"中華路６１９巷８８弄６號二樓","OBJECTID":22223},"geometry":{"x":170860.15000000037,"y":2546040.2600000016}},{"attributes":{"ID":22224,"DIS_CODE":0,"TOWNNAME":"永康區","LI":"安康里","LIN":"14鄰","STREET":"中華路","SECT":" ","MAREA":" ","LANE":"６１９巷","ALLEY":"８８弄","HOUSE_NO":"１０號二樓","E_COORD97":170863.01000000001,"N_COORD97":2546051.75,"ADDRESS":"中華路６１９巷８８弄１０號二樓","OBJECTID":22224},"geometry":{"x":170863.01000000071,"y":2546051.75}},{"attributes":{"ID":22225,"DIS_CODE":0,"TOWNNAME":"東區","LI":"虎尾里","LIN":"24鄰","STREET":"東成街","SECT":" ","MAREA":" ","LANE":" ","ALLEY":" ","HOUSE_NO":"２０２號","E_COORD97":171895.59,"N_COORD97":2542291.0899999999,"ADDRESS":"東成街２０２號","OBJECTID":22225},"geometry":{"x":171895.58999999985,"y":2542291.0900000036}},{"attributes":{"ID":22226,"DIS_CODE":0,"TOWNNAME":"永康區","LI":"安康里","LIN":"14鄰","STREET":"中華路","SECT":" ","MAREA":" ","LANE":"６１９巷","ALLEY":"８８弄","HOUSE_NO":"２４號二樓之９","E_COORD97":170871.42999999999,"N_COORD97":2546063.54,"ADDRESS":"中華路６１９巷８８弄２４號二樓之９","OBJECTID":22226},"geometry":{"x":170871.42999999877,"y":2546063.5399999991}},{"attributes":{"ID":22227,"DIS_CODE":0,"TOWNNAME":"歸仁區","LI":"媽廟里","LIN":"24鄰","STREET":"保大路","SECT":"一段","MAREA":" ","LANE":" ","ALLEY":" ","HOUSE_NO":"１４９號","E_COORD97":177716.13,"N_COORD97":2544016.7200000002,"ADDRESS":"保大路一段１４９號","OBJECTID":22227},"geometry":{"x":177716.13000000082,"y":2544016.7200000044}},{"attributes":{"ID":22228,"DIS_CODE":0,"TOWNNAME":"北區","LI":"長榮里","LIN":"24鄰","STREET":"長勝路","SECT":" ","MAREA":" ","LANE":" ","ALLEY":" ","HOUSE_NO":"６６號","E_COORD97":169924.51999999999,"N_COORD97":2545673.77,"ADDRESS":"長勝路６６號","OBJECTID":22228},"geometry":{"x":169924.51999999955,"y":2545673.7700000014}},{"attributes":{"ID":22229,"DIS_CODE":0,"TOWNNAME":"新營區","LI":"新南里","LIN":"24鄰","STREET":"隋唐街","SECT":" ","MAREA":" ","LANE":" ","ALLEY":" ","HOUSE_NO":"２８３號","E_COORD97":178220.38,"N_COORD97":2578575.7000000002,"ADDRESS":"隋唐街２８３號","OBJECTID":22229},"geometry":{"x":178220.37999999989,"y":2578575.6999999993}},{"attributes":{"ID":22230,"DIS_CODE":0,"TOWNNAME":"新營區","LI":"王公里","LIN":"24鄰","STREET":"公正街","SECT":" ","MAREA":" ","LANE":" ","ALLEY":" ","HOUSE_NO":"８１號","E_COORD97":180147.16,"N_COORD97":2579431.3999999999,"ADDRESS":"公正街８１號","OBJECTID":22230},"geometry":{"x":180147.16000000108,"y":2579431.4000000022}},{"attributes":{"ID":22231,"DIS_CODE":0,"TOWNNAME":"新營區","LI":"大宏里","LIN":"24鄰","STREET":"民治路","SECT":" ","MAREA":" ","LANE":" ","ALLEY":" ","HOUSE_NO":"３號之３２","E_COORD97":180565.73999999999,"N_COORD97":2578780.5299999998,"ADDRESS":"民治路３號之３２","OBJECTID":22231},"geometry":{"x":180565.74000000022,"y":2578780.5299999993}},{"attributes":{"ID":22232,"DIS_CODE":0,"TOWNNAME":"新營區","LI":"三仙里","LIN":"24鄰","STREET":"三興街","SECT":" ","MAREA":" ","LANE":" ","ALLEY":" ","HOUSE_NO":"５２之４號","E_COORD97":179448,"N_COORD97":2578901.21,"ADDRESS":"三興街５２之４號","OBJECTID":22232},"geometry":{"x":179448.00000000093,"y":2578901.2100000028}},{"attributes":{"ID":22233,"DIS_CODE":0,"TOWNNAME":"南區","LI":"建南里","LIN":"24鄰","STREET":"明興路","SECT":" ","MAREA":" ","LANE":" ","ALLEY":" ","HOUSE_NO":"１０５號","E_COORD97":166631.94,"N_COORD97":2539890.3100000001,"ADDRESS":"明興路１０５號","OBJECTID":22233},"geometry":{"x":166631.94000000041,"y":2539890.3100000024}},{"attributes":{"ID":22234,"DIS_CODE":0,"TOWNNAME":"官田區","LI":"東庄里","LIN":"17鄰","STREET":" ","SECT":" ","MAREA":"東庄","LANE":" ","ALLEY":" ","HOUSE_NO":"１９號之１５","E_COORD97":178352.73999999999,"N_COORD97":2565327.04,"ADDRESS":"東庄１９號之１５","OBJECTID":22234},"geometry":{"x":178352.74000000115,"y":2565327.0399999991}},{"attributes":{"ID":22235,"DIS_CODE":0,"TOWNNAME":"官田區","LI":"東庄里","LIN":"17鄰","STREET":" ","SECT":" ","MAREA":"東庄","LANE":" ","ALLEY":" ","HOUSE_NO":"１９號之８","E_COORD97":178317.26999999999,"N_COORD97":2565320.5,"ADDRESS":"東庄１９號之８","OBJECTID":22235},"geometry":{"x":178317.26999999955,"y":2565320.5000000019}},{"attributes":{"ID":22236,"DIS_CODE":0,"TOWNNAME":"官田區","LI":"東庄里","LIN":"17鄰","STREET":" ","SECT":" ","MAREA":"東庄","LANE":" ","ALLEY":" ","HOUSE_NO":"１９號之９","E_COORD97":178321.98000000001,"N_COORD97":2565321.4900000002,"ADDRESS":"東庄１９號之９","OBJECTID":22236},"geometry":{"x":178321.98000000045,"y":2565321.4900000002}},{"attributes":{"ID":22237,"DIS_CODE":0,"TOWNNAME":"官田區","LI":"東庄里","LIN":"17鄰","STREET":" ","SECT":" ","MAREA":"東庄","LANE":" ","ALLEY":" ","HOUSE_NO":"１９號","E_COORD97":178387.20999999999,"N_COORD97":2565368.9900000002,"ADDRESS":"東庄１９號","OBJECTID":22237},"geometry":{"x":178387.21000000089,"y":2565368.9900000002}},{"attributes":{"ID":22238,"DIS_CODE":0,"TOWNNAME":"官田區","LI":"東庄里","LIN":"17鄰","STREET":" ","SECT":" ","MAREA":"東庄","LANE":" ","ALLEY":" ","HOUSE_NO":"２０號","E_COORD97":178391.25,"N_COORD97":2565464.3900000001,"ADDRESS":"東庄２０號","OBJECTID":22238},"geometry":{"x":178391.25000000186,"y":2565464.3900000025}},{"attributes":{"ID":22239,"DIS_CODE":0,"TOWNNAME":"官田區","LI":"東庄里","LIN":"17鄰","STREET":" ","SECT":" ","MAREA":"東庄","LANE":" ","ALLEY":" ","HOUSE_NO":"２１號","E_COORD97":178452.51000000001,"N_COORD97":2565466.46,"ADDRESS":"東庄２１號","OBJECTID":22239},"geometry":{"x":178452.51000000071,"y":2565466.4600000046}},{"attributes":{"ID":22240,"DIS_CODE":0,"TOWNNAME":"新化區","LI":"全興里","LIN":"17鄰","STREET":" ","SECT":" ","MAREA":"竹子\u25A0","LANE":" ","ALLEY":" ","HOUSE_NO":"２４７號之３４３","E_COORD97":178333.78,"N_COORD97":2546701.2599999998,"ADDRESS":"竹子\u25A0２４７號之３４３","OBJECTID":22240},"geometry":{"x":178333.78000000212,"y":2546701.2600000016}},{"attributes":{"ID":22241,"DIS_CODE":0,"TOWNNAME":"永康區","LI":"安康里","LIN":"14鄰","STREET":"中華路","SECT":" ","MAREA":" ","LANE":"６１９巷","ALLEY":"８８弄","HOUSE_NO":"２４號三樓之１２","E_COORD97":170872.73000000001,"N_COORD97":2546063.54,"ADDRESS":"中華路６１９巷８８弄２４號三樓之１２","OBJECTID":22241},"geometry":{"x":170872.73000000138,"y":2546063.5399999991}},{"attributes":{"ID":22242,"DIS_CODE":0,"TOWNNAME":"南區","LI":"南都里","LIN":"14鄰","STREET":"中華南路","SECT":"二段","MAREA":" ","LANE":"３１５巷","ALLEY":"３弄","HOUSE_NO":"１０號二樓","E_COORD97":166510.97,"N_COORD97":2540180.54,"ADDRESS":"中華南路二段３１５巷３弄１０號二樓","OBJECTID":22242},"geometry":{"x":166510.96999999974,"y":2540180.5399999991}},{"attributes":{"ID":22243,"DIS_CODE":0,"TOWNNAME":"南區","LI":"南都里","LIN":"14鄰","STREET":"中華南路","SECT":"二段","MAREA":" ","LANE":"３１５巷","ALLEY":"３弄","HOUSE_NO":"１０號三樓","E_COORD97":166510.97,"N_COORD97":2540180.54,"ADDRESS":"中華南路二段３１５巷３弄１０號三樓","OBJECTID":22243},"geometry":{"x":166510.96999999974,"y":2540180.5399999991}},{"attributes":{"ID":22244,"DIS_CODE":0,"TOWNNAME":"南區","LI":"南都里","LIN":"14鄰","STREET":"中華南路","SECT":"二段","MAREA":" ","LANE":"３１５巷","ALLEY":"３弄","HOUSE_NO":"１０號五樓","E_COORD97":166510.97,"N_COORD97":2540180.54,"ADDRESS":"中華南路二段３１５巷３弄１０號五樓","OBJECTID":22244},"geometry":{"x":166510.96999999974,"y":2540180.5399999991}},{"attributes":{"ID":22245,"DIS_CODE":0,"TOWNNAME":"南區","LI":"南都里","LIN":"14鄰","STREET":"中華南路","SECT":"二段","MAREA":" ","LANE":"３１５巷","ALLEY":"３弄","HOUSE_NO":"１０號四樓","E_COORD97":166510.97,"N_COORD97":2540180.54,"ADDRESS":"中華南路二段３１５巷３弄１０號四樓","OBJECTID":22245},"geometry":{"x":166510.96999999974,"y":2540180.5399999991}},{"attributes":{"ID":22246,"DIS_CODE":0,"TOWNNAME":"南區","LI":"南都里","LIN":"14鄰","STREET":"中華南路","SECT":"二段","MAREA":" ","LANE":"３１５巷","ALLEY":"３弄","HOUSE_NO":"１２號二樓","E_COORD97":166518.64000000001,"N_COORD97":2540180.54,"ADDRESS":"中華南路二段３１５巷３弄１２號二樓","OBJECTID":22246},"geometry":{"x":166518.64000000153,"y":2540180.5399999991}},{"attributes":{"ID":22247,"DIS_CODE":0,"TOWNNAME":"南區","LI":"南都里","LIN":"14鄰","STREET":"中華南路","SECT":"二段","MAREA":" ","LANE":"３１５巷","ALLEY":"３弄","HOUSE_NO":"１２號三樓","E_COORD97":166518.64000000001,"N_COORD97":2540180.54,"ADDRESS":"中華南路二段３１５巷３弄１２號三樓","OBJECTID":22247},"geometry":{"x":166518.64000000153,"y":2540180.5399999991}},{"attributes":{"ID":22248,"DIS_CODE":0,"TOWNNAME":"南區","LI":"南都里","LIN":"14鄰","STREET":"中華南路","SECT":"二段","MAREA":" ","LANE":"３１５巷","ALLEY":"３弄","HOUSE_NO":"１２號五樓","E_COORD97":166518.64000000001,"N_COORD97":2540180.54,"ADDRESS":"中華南路二段３１５巷３弄１２號五樓","OBJECTID":22248},"geometry":{"x":166518.64000000153,"y":2540180.5399999991}},{"attributes":{"ID":22249,"DIS_CODE":0,"TOWNNAME":"南區","LI":"南都里","LIN":"14鄰","STREET":"中華南路","SECT":"二段","MAREA":" ","LANE":"３１５巷","ALLEY":"３弄","HOUSE_NO":"１２號四樓","E_COORD97":166518.64000000001,"N_COORD97":2540180.54,"ADDRESS":"中華南路二段３１５巷３弄１２號四樓","OBJECTID":22249},"geometry":{"x":166518.64000000153,"y":2540180.5399999991}},{"attributes":{"ID":22250,"DIS_CODE":0,"TOWNNAME":"南區","LI":"南都里","LIN":"14鄰","STREET":"中華南路","SECT":"二段","MAREA":" ","LANE":"３１５巷","ALLEY":"３弄","HOUSE_NO":"１４號二樓","E_COORD97":166545.12,"N_COORD97":2540179.8399999999,"ADDRESS":"中華南路二段３１５巷３弄１４號二樓","OBJECTID":22250},"geometry":{"x":166545.12000000104,"y":2540179.8399999999}},{"attributes":{"ID":22251,"DIS_CODE":0,"TOWNNAME":"南區","LI":"南都里","LIN":"14鄰","STREET":"中華南路","SECT":"二段","MAREA":" ","LANE":"３１５巷","ALLEY":"３弄","HOUSE_NO":"１４號三樓","E_COORD97":166545.12,"N_COORD97":2540179.8399999999,"ADDRESS":"中華南路二段３１５巷３弄１４號三樓","OBJECTID":22251},"geometry":{"x":166545.12000000104,"y":2540179.8399999999}},{"attributes":{"ID":22252,"DIS_CODE":0,"TOWNNAME":"南區","LI":"南都里","LIN":"14鄰","STREET":"中華南路","SECT":"二段","MAREA":" ","LANE":"３１５巷","ALLEY":"３弄","HOUSE_NO":"１４號五樓","E_COORD97":166545.12,"N_COORD97":2540179.8399999999,"ADDRESS":"中華南路二段３１５巷３弄１４號五樓","OBJECTID":22252},"geometry":{"x":166545.12000000104,"y":2540179.8399999999}},{"attributes":{"ID":22253,"DIS_CODE":0,"TOWNNAME":"南區","LI":"南都里","LIN":"14鄰","STREET":"中華南路","SECT":"二段","MAREA":" ","LANE":"３１５巷","ALLEY":"３弄","HOUSE_NO":"１４號四樓","E_COORD97":166545.12,"N_COORD97":2540179.8399999999,"ADDRESS":"中華南路二段３１５巷３弄１４號四樓","OBJECTID":22253},"geometry":{"x":166545.12000000104,"y":2540179.8399999999}},{"attributes":{"ID":22254,"DIS_CODE":0,"TOWNNAME":"南區","LI":"南都里","LIN":"14鄰","STREET":"中華南路","SECT":"二段","MAREA":" ","LANE":"３１５巷","ALLEY":"３弄","HOUSE_NO":"１６號二樓","E_COORD97":166552.44,"N_COORD97":2540179.8399999999,"ADDRESS":"中華南路二段３１５巷３弄１６號二樓","OBJECTID":22254},"geometry":{"x":166552.44000000041,"y":2540179.8399999999}},{"attributes":{"ID":22255,"DIS_CODE":0,"TOWNNAME":"南區","LI":"南都里","LIN":"14鄰","STREET":"中華南路","SECT":"二段","MAREA":" ","LANE":"３１５巷","ALLEY":"３弄","HOUSE_NO":"１６號三樓","E_COORD97":166552.44,"N_COORD97":2540179.8399999999,"ADDRESS":"中華南路二段３１５巷３弄１６號三樓","OBJECTID":22255},"geometry":{"x":166552.44000000041,"y":2540179.8399999999}},{"attributes":{"ID":22256,"DIS_CODE":0,"TOWNNAME":"東區","LI":"虎尾里","LIN":"24鄰","STREET":"東成街","SECT":" ","MAREA":" ","LANE":" ","ALLEY":" ","HOUSE_NO":"２１０號","E_COORD97":171912.10000000001,"N_COORD97":2542287.6200000001,"ADDRESS":"東成街２１０號","OBJECTID":22256},"geometry":{"x":171912.09999999963,"y":2542287.620000001}},{"attributes":{"ID":22257,"DIS_CODE":0,"TOWNNAME":"東區","LI":"虎尾里","LIN":"24鄰","STREET":"東成街","SECT":" ","MAREA":" ","LANE":" ","ALLEY":" ","HOUSE_NO":"２３０號","E_COORD97":171962.07000000001,"N_COORD97":2542280.8900000001,"ADDRESS":"東成街２３０號","OBJECTID":22257},"geometry":{"x":171962.0700000003,"y":2542280.8900000025}},{"attributes":{"ID":22258,"DIS_CODE":0,"TOWNNAME":"東區","LI":"虎尾里","LIN":"24鄰","STREET":"東成街","SECT":" ","MAREA":" ","LANE":" ","ALLEY":" ","HOUSE_NO":"２１４號","E_COORD97":171920.57000000001,"N_COORD97":2542285.6800000002,"ADDRESS":"東成街２１４號","OBJECTID":22258},"geometry":{"x":171920.57000000216,"y":2542285.6799999997}},{"attributes":{"ID":22259,"DIS_CODE":0,"TOWNNAME":"永康區","LI":"\u25A0洲里","LIN":"24鄰","STREET":"中正南路","SECT":" ","MAREA":" ","LANE":" ","ALLEY":" ","HOUSE_NO":"５２１號","E_COORD97":170945.70999999999,"N_COORD97":2548225.4900000002,"ADDRESS":"中正南路５２１號","OBJECTID":22259},"geometry":{"x":170945.70999999996,"y":2548225.4900000039}},{"attributes":{"ID":22260,"DIS_CODE":0,"TOWNNAME":"永康區","LI":"\u25A0洲里","LIN":"24鄰","STREET":"中正南路","SECT":" ","MAREA":" ","LANE":" ","ALLEY":" ","HOUSE_NO":"５２９號","E_COORD97":170960.75,"N_COORD97":2548242.73,"ADDRESS":"中正南路５２９號","OBJECTID":22260},"geometry":{"x":170960.75,"y":2548242.7300000004}},{"attributes":{"ID":22261,"DIS_CODE":0,"TOWNNAME":"永康區","LI":"龍潭里","LIN":"24鄰","STREET":"中山北路","SECT":" ","MAREA":" ","LANE":" ","ALLEY":" ","HOUSE_NO":"２７８號","E_COORD97":174757.22,"N_COORD97":2547652.9500000002,"ADDRESS":"中山北路２７８號","OBJECTID":22261},"geometry":{"x":174757.22000000067,"y":2547652.9500000011}},{"attributes":{"ID":22262,"DIS_CODE":0,"TOWNNAME":"永康區","LI":"龍潭里","LIN":"24鄰","STREET":"中山北路","SECT":" ","MAREA":" ","LANE":" ","ALLEY":" ","HOUSE_NO":"３９８號","E_COORD97":175319.35999999999,"N_COORD97":2547729.3599999999,"ADDRESS":"中山北路３９８號","OBJECTID":22262},"geometry":{"x":175319.36000000127,"y":2547729.3599999994}},{"attributes":{"ID":22263,"DIS_CODE":0,"TOWNNAME":"仁德區","LI":"仁愛里","LIN":"24鄰","STREET":" ","SECT":" ","MAREA":"仁愛","LANE":" ","ALLEY":" ","HOUSE_NO":"５０５號","E_COORD97":170020.30965800001,"N_COORD97":2540094.4500000002,"ADDRESS":"仁愛５０５號","OBJECTID":22263},"geometry":{"x":170020.30965800025,"y":2540094.450000003}},{"attributes":{"ID":22264,"DIS_CODE":0,"TOWNNAME":"仁德區","LI":"仁愛里","LIN":"24鄰","STREET":" ","SECT":" ","MAREA":"仁愛","LANE":" ","ALLEY":" ","HOUSE_NO":"５０８號","E_COORD97":170041.497122,"N_COORD97":2540094.4500000002,"ADDRESS":"仁愛５０８號","OBJECTID":22264},"geometry":{"x":170041.49712200183,"y":2540094.450000003}},{"attributes":{"ID":22265,"DIS_CODE":0,"TOWNNAME":"仁德區","LI":"仁愛里","LIN":"24鄰","STREET":" ","SECT":" ","MAREA":"仁愛","LANE":" ","ALLEY":" ","HOUSE_NO":"４９８號","E_COORD97":170028.14902000001,"N_COORD97":2540126.9129300001,"ADDRESS":"仁愛４９８號","OBJECTID":22265},"geometry":{"x":170028.14902000036,"y":2540126.9129280001}},{"attributes":{"ID":22266,"DIS_CODE":0,"TOWNNAME":"善化區","LI":"文昌里","LIN":"17鄰","STREET":" ","SECT":" ","MAREA":"益民寮","LANE":" ","ALLEY":" ","HOUSE_NO":"７號","E_COORD97":177875.26000000001,"N_COORD97":2557228.5099999998,"ADDRESS":"益民寮７號","OBJECTID":22266},"geometry":{"x":177875.25999999978,"y":2557228.5099999998}},{"attributes":{"ID":22267,"DIS_CODE":0,"TOWNNAME":"善化區","LI":"文昌里","LIN":"17鄰","STREET":" ","SECT":" ","MAREA":"益民寮","LANE":" ","ALLEY":" ","HOUSE_NO":"２２之７號","E_COORD97":177672.17000000001,"N_COORD97":2557194.02,"ADDRESS":"益民寮２２之７號","OBJECTID":22267},"geometry":{"x":177672.16999999993,"y":2557194.0199999996}},{"attributes":{"ID":22268,"DIS_CODE":0,"TOWNNAME":"善化區","LI":"文昌里","LIN":"17鄰","STREET":" ","SECT":" ","MAREA":"益民寮","LANE":" ","ALLEY":" ","HOUSE_NO":"１０３號","E_COORD97":178455.87,"N_COORD97":2557380.2599999998,"ADDRESS":"益民寮１０３號","OBJECTID":22268},"geometry":{"x":178455.87000000011,"y":2557380.2600000035}},{"attributes":{"ID":22269,"DIS_CODE":0,"TOWNNAME":"南區","LI":"南都里","LIN":"14鄰","STREET":"中華南路","SECT":"二段","MAREA":" ","LANE":"３１５巷","ALLEY":"３弄","HOUSE_NO":"１６號五樓","E_COORD97":166552.44,"N_COORD97":2540179.8399999999,"ADDRESS":"中華南路二段３１５巷３弄１６號五樓","OBJECTID":22269},"geometry":{"x":166552.44000000041,"y":2540179.8399999999}},{"attributes":{"ID":22270,"DIS_CODE":0,"TOWNNAME":"南區","LI":"南都里","LIN":"14鄰","STREET":"中華南路","SECT":"二段","MAREA":" ","LANE":"３１５巷","ALLEY":"３弄","HOUSE_NO":"１６號四樓","E_COORD97":166552.44,"N_COORD97":2540179.8399999999,"ADDRESS":"中華南路二段３１５巷３弄１６號四樓","OBJECTID":22270},"geometry":{"x":166552.44000000041,"y":2540179.8399999999}},{"attributes":{"ID":22271,"DIS_CODE":0,"TOWNNAME":"善化區","LI":"文昌里","LIN":"17鄰","STREET":" ","SECT":" ","MAREA":"益民寮","LANE":" ","ALLEY":" ","HOUSE_NO":"２２之１９號","E_COORD97":177648.5,"N_COORD97":2557200.02,"ADDRESS":"益民寮２２之１９號","OBJECTID":22271},"geometry":{"x":177648.5,"y":2557200.0200000014}},{"attributes":{"ID":22272,"DIS_CODE":0,"TOWNNAME":"南區","LI":"南都里","LIN":"14鄰","STREET":"中華南路","SECT":"二段","MAREA":" ","LANE":"３１５巷","ALLEY":"３弄","HOUSE_NO":"１８號二樓","E_COORD97":166561.14999999999,"N_COORD97":2540179.8399999999,"ADDRESS":"中華南路二段３１５巷３弄１８號二樓","OBJECTID":22272},"geometry":{"x":166561.15000000037,"y":2540179.8399999999}},{"attributes":{"ID":22273,"DIS_CODE":0,"TOWNNAME":"南區","LI":"南都里","LIN":"14鄰","STREET":"中華南路","SECT":"二段","MAREA":" ","LANE":"３１５巷","ALLEY":"３弄","HOUSE_NO":"１８號三樓","E_COORD97":166561.14999999999,"N_COORD97":2540179.8399999999,"ADDRESS":"中華南路二段３１５巷３弄１８號三樓","OBJECTID":22273},"geometry":{"x":166561.15000000037,"y":2540179.8399999999}},{"attributes":{"ID":22274,"DIS_CODE":0,"TOWNNAME":"南區","LI":"南都里","LIN":"14鄰","STREET":"中華南路","SECT":"二段","MAREA":" ","LANE":"３１５巷","ALLEY":"３弄","HOUSE_NO":"１８號五樓","E_COORD97":166561.14999999999,"N_COORD97":2540179.8399999999,"ADDRESS":"中華南路二段３１５巷３弄１８號五樓","OBJECTID":22274},"geometry":{"x":166561.15000000037,"y":2540179.8399999999}},{"attributes":{"ID":22275,"DIS_CODE":0,"TOWNNAME":"善化區","LI":"文昌里","LIN":"17鄰","STREET":" ","SECT":" ","MAREA":"益民寮","LANE":" ","ALLEY":" ","HOUSE_NO":"２２之２４號","E_COORD97":177663.31,"N_COORD97":2557174.02,"ADDRESS":"益民寮２２之２４號","OBJECTID":22275},"geometry":{"x":177663.31000000052,"y":2557174.0199999996}},{"attributes":{"ID":22276,"DIS_CODE":0,"TOWNNAME":"善化區","LI":"文昌里","LIN":"17鄰","STREET":" ","SECT":" ","MAREA":"益民寮","LANE":" ","ALLEY":" ","HOUSE_NO":"２２之２６號","E_COORD97":177665.60000000001,"N_COORD97":2557165.27,"ADDRESS":"益民寮２２之２６號","OBJECTID":22276},"geometry":{"x":177665.59999999963,"y":2557165.2699999996}},{"attributes":{"ID":22277,"DIS_CODE":0,"TOWNNAME":"善化區","LI":"文昌里","LIN":"17鄰","STREET":" ","SECT":" ","MAREA":"益民寮","LANE":" ","ALLEY":" ","HOUSE_NO":"１３號之２３","E_COORD97":177521.70000000001,"N_COORD97":2557261.77,"ADDRESS":"益民寮１３號之２３","OBJECTID":22277},"geometry":{"x":177521.70000000019,"y":2557261.7700000014}},{"attributes":{"ID":22278,"DIS_CODE":0,"TOWNNAME":"善化區","LI":"文昌里","LIN":"17鄰","STREET":" ","SECT":" ","MAREA":"益民寮","LANE":" ","ALLEY":" ","HOUSE_NO":"２２之１８號","E_COORD97":177652.54999999999,"N_COORD97":2557201.02,"ADDRESS":"益民寮２２之１８號","OBJECTID":22278},"geometry":{"x":177652.54999999981,"y":2557201.0199999996}},{"attributes":{"ID":22279,"DIS_CODE":0,"TOWNNAME":"善化區","LI":"文昌里","LIN":"17鄰","STREET":" ","SECT":" ","MAREA":"益民寮","LANE":" ","ALLEY":" ","HOUSE_NO":"２２之２號","E_COORD97":177677.37,"N_COORD97":2557173.52,"ADDRESS":"益民寮２２之２號","OBJECTID":22279},"geometry":{"x":177677.37000000104,"y":2557173.5199999996}},{"attributes":{"ID":22280,"DIS_CODE":0,"TOWNNAME":"善化區","LI":"文昌里","LIN":"17鄰","STREET":" ","SECT":" ","MAREA":"益民寮","LANE":" ","ALLEY":" ","HOUSE_NO":"２２之２１號","E_COORD97":177660.81,"N_COORD97":2557186.27,"ADDRESS":"益民寮２２之２１號","OBJECTID":22280},"geometry":{"x":177660.80999999959,"y":2557186.2699999996}},{"attributes":{"ID":22281,"DIS_CODE":0,"TOWNNAME":"善化區","LI":"文昌里","LIN":"17鄰","STREET":" ","SECT":" ","MAREA":"益民寮","LANE":" ","ALLEY":" ","HOUSE_NO":"１８號之２","E_COORD97":177668.20999999999,"N_COORD97":2557126.27,"ADDRESS":"益民寮１８號之２","OBJECTID":22281},"geometry":{"x":177668.21000000089,"y":2557126.2700000014}},{"attributes":{"ID":22282,"DIS_CODE":0,"TOWNNAME":"南區","LI":"南都里","LIN":"14鄰","STREET":"中華南路","SECT":"二段","MAREA":" ","LANE":"３１５巷","ALLEY":"３弄","HOUSE_NO":"１８號四樓","E_COORD97":166561.14999999999,"N_COORD97":2540179.8399999999,"ADDRESS":"中華南路二段３１５巷３弄１８號四樓","OBJECTID":22282},"geometry":{"x":166561.15000000037,"y":2540179.8399999999}},{"attributes":{"ID":22283,"DIS_CODE":0,"TOWNNAME":"善化區","LI":"文昌里","LIN":"17鄰","STREET":" ","SECT":" ","MAREA":"益民寮","LANE":" ","ALLEY":" ","HOUSE_NO":"６０號","E_COORD97":178101.5,"N_COORD97":2557099.2599999998,"ADDRESS":"益民寮６０號","OBJECTID":22283},"geometry":{"x":178101.50000000093,"y":2557099.2600000016}},{"attributes":{"ID":22284,"DIS_CODE":0,"TOWNNAME":"善化區","LI":"文昌里","LIN":"17鄰","STREET":" ","SECT":" ","MAREA":"益民寮","LANE":" ","ALLEY":" ","HOUSE_NO":"２２之１１號","E_COORD97":177681.20000000001,"N_COORD97":2557208.02,"ADDRESS":"益民寮２２之１１號","OBJECTID":22284},"geometry":{"x":177681.20000000019,"y":2557208.0199999996}},{"attributes":{"ID":22285,"DIS_CODE":0,"TOWNNAME":"善化區","LI":"文昌里","LIN":"17鄰","STREET":" ","SECT":" ","MAREA":"益民寮","LANE":" ","ALLEY":" ","HOUSE_NO":"２２之１０號","E_COORD97":177685.29000000001,"N_COORD97":2557209.02,"ADDRESS":"益民寮２２之１０號","OBJECTID":22285},"geometry":{"x":177685.29000000004,"y":2557209.0200000033}},{"attributes":{"ID":22286,"DIS_CODE":0,"TOWNNAME":"南區","LI":"南都里","LIN":"14鄰","STREET":"中華南路","SECT":"二段","MAREA":" ","LANE":"３１５巷","ALLEY":"３弄","HOUSE_NO":"２０號二樓","E_COORD97":166569.51999999999,"N_COORD97":2540179.4900000002,"ADDRESS":"中華南路二段３１５巷３弄２０號二樓","OBJECTID":22286},"geometry":{"x":166569.51999999955,"y":2540179.4900000002}},{"attributes":{"ID":22287,"DIS_CODE":0,"TOWNNAME":"南區","LI":"南都里","LIN":"14鄰","STREET":"中華南路","SECT":"二段","MAREA":" ","LANE":"３１５巷","ALLEY":"３弄","HOUSE_NO":"２０號三樓","E_COORD97":166569.51999999999,"N_COORD97":2540179.4900000002,"ADDRESS":"中華南路二段３１５巷３弄２０號三樓","OBJECTID":22287},"geometry":{"x":166569.51999999955,"y":2540179.4900000002}},{"attributes":{"ID":22288,"DIS_CODE":0,"TOWNNAME":"南區","LI":"南都里","LIN":"14鄰","STREET":"中華南路","SECT":"二段","MAREA":" ","LANE":"３１５巷","ALLEY":"３弄","HOUSE_NO":"２０號五樓","E_COORD97":166569.51999999999,"N_COORD97":2540179.4900000002,"ADDRESS":"中華南路二段３１５巷３弄２０號五樓","OBJECTID":22288},"geometry":{"x":166569.51999999955,"y":2540179.4900000002}},{"attributes":{"ID":22289,"DIS_CODE":0,"TOWNNAME":"永康區","LI":"龍潭里","LIN":"24鄰","STREET":"中山北路","SECT":" ","MAREA":" ","LANE":"３４４巷","ALLEY":" ","HOUSE_NO":"２２號","E_COORD97":175109.76999999999,"N_COORD97":2547437.4100000001,"ADDRESS":"中山北路３４４巷２２號","OBJECTID":22289},"geometry":{"x":175109.76999999955,"y":2547437.410000002}},{"attributes":{"ID":22290,"DIS_CODE":0,"TOWNNAME":"永康區","LI":"\u25A0洲里","LIN":"24鄰","STREET":"國聖街","SECT":" ","MAREA":" ","LANE":" ","ALLEY":" ","HOUSE_NO":"２４１號","E_COORD97":170871.98000000001,"N_COORD97":2548482.25,"ADDRESS":"國聖街２４１號","OBJECTID":22290},"geometry":{"x":170871.98000000231,"y":2548482.2500000019}},{"attributes":{"ID":22291,"DIS_CODE":0,"TOWNNAME":"永康區","LI":"\u25A0洲里","LIN":"24鄰","STREET":"國聖街","SECT":" ","MAREA":" ","LANE":" ","ALLEY":" ","HOUSE_NO":"２４６號","E_COORD97":170739.53,"N_COORD97":2548306.25,"ADDRESS":"國聖街２４６號","OBJECTID":22291},"geometry":{"x":170739.53000000119,"y":2548306.2500000019}},{"attributes":{"ID":22292,"DIS_CODE":0,"TOWNNAME":"南區","LI":"南都里","LIN":"14鄰","STREET":"中華南路","SECT":"二段","MAREA":" ","LANE":"３１５巷","ALLEY":"３弄","HOUSE_NO":"２０號四樓","E_COORD97":166569.51999999999,"N_COORD97":2540179.4900000002,"ADDRESS":"中華南路二段３１５巷３弄２０號四樓","OBJECTID":22292},"geometry":{"x":166569.51999999955,"y":2540179.4900000002}},{"attributes":{"ID":22293,"DIS_CODE":0,"TOWNNAME":"南區","LI":"南都里","LIN":"14鄰","STREET":"中華南路","SECT":"二段","MAREA":" ","LANE":"３１５巷","ALLEY":"３弄","HOUSE_NO":"２號四樓","E_COORD97":166476.82000000001,"N_COORD97":2540180.1899999999,"ADDRESS":"中華南路二段３１５巷３弄２號四樓","OBJECTID":22293},"geometry":{"x":166476.8200000003,"y":2540180.1899999995}},{"attributes":{"ID":22294,"DIS_CODE":0,"TOWNNAME":"南區","LI":"南都里","LIN":"14鄰","STREET":"中華南路","SECT":"二段","MAREA":" ","LANE":"３１５巷","ALLEY":"３弄","HOUSE_NO":"２號二樓","E_COORD97":166476.82000000001,"N_COORD97":2540180.1899999999,"ADDRESS":"中華南路二段３１５巷３弄２號二樓","OBJECTID":22294},"geometry":{"x":166476.8200000003,"y":2540180.1899999995}},{"attributes":{"ID":22295,"DIS_CODE":0,"TOWNNAME":"南區","LI":"南都里","LIN":"14鄰","STREET":"中華南路","SECT":"二段","MAREA":" ","LANE":"３１５巷","ALLEY":"３弄","HOUSE_NO":"２號三樓","E_COORD97":166476.82000000001,"N_COORD97":2540180.1899999999,"ADDRESS":"中華南路二段３１５巷３弄２號三樓","OBJECTID":22295},"geometry":{"x":166476.8200000003,"y":2540180.1899999995}},{"attributes":{"ID":22296,"DIS_CODE":0,"TOWNNAME":"南區","LI":"南都里","LIN":"14鄰","STREET":"中華南路","SECT":"二段","MAREA":" ","LANE":"３１５巷","ALLEY":"３弄","HOUSE_NO":"２號五樓","E_COORD97":166476.82000000001,"N_COORD97":2540180.1899999999,"ADDRESS":"中華南路二段３１５巷３弄２號五樓","OBJECTID":22296},"geometry":{"x":166476.8200000003,"y":2540180.1899999995}},{"attributes":{"ID":22297,"DIS_CODE":0,"TOWNNAME":"南區","LI":"南都里","LIN":"14鄰","STREET":"中華南路","SECT":"二段","MAREA":" ","LANE":"３１５巷","ALLEY":"３弄","HOUSE_NO":"４號二樓","E_COORD97":166484.13,"N_COORD97":2540180.54,"ADDRESS":"中華南路二段３１５巷３弄４號二樓","OBJECTID":22297},"geometry":{"x":166484.12999999989,"y":2540180.5399999991}},{"attributes":{"ID":22298,"DIS_CODE":0,"TOWNNAME":"南區","LI":"南都里","LIN":"14鄰","STREET":"中華南路","SECT":"二段","MAREA":" ","LANE":"３１５巷","ALLEY":"３弄","HOUSE_NO":"４號三樓","E_COORD97":166484.13,"N_COORD97":2540180.54,"ADDRESS":"中華南路二段３１５巷３弄４號三樓","OBJECTID":22298},"geometry":{"x":166484.12999999989,"y":2540180.5399999991}},{"attributes":{"ID":22299,"DIS_CODE":0,"TOWNNAME":"南區","LI":"南都里","LIN":"14鄰","STREET":"中華南路","SECT":"二段","MAREA":" ","LANE":"３１５巷","ALLEY":"３弄","HOUSE_NO":"４號五樓","E_COORD97":166484.13,"N_COORD97":2540180.54,"ADDRESS":"中華南路二段３１５巷３弄４號五樓","OBJECTID":22299},"geometry":{"x":166484.12999999989,"y":2540180.5399999991}},{"attributes":{"ID":22300,"DIS_CODE":0,"TOWNNAME":"南區","LI":"南都里","LIN":"14鄰","STREET":"中華南路","SECT":"二段","MAREA":" ","LANE":"３１５巷","ALLEY":"３弄","HOUSE_NO":"４號四樓","E_COORD97":166484.13,"N_COORD97":2540180.54,"ADDRESS":"中華南路二段３１５巷３弄４號四樓","OBJECTID":22300},"geometry":{"x":166484.12999999989,"y":2540180.5399999991}},{"attributes":{"ID":22301,"DIS_CODE":0,"TOWNNAME":"南區","LI":"南都里","LIN":"14鄰","STREET":"中華南路","SECT":"二段","MAREA":" ","LANE":"３１５巷","ALLEY":"３弄","HOUSE_NO":"６號二樓","E_COORD97":166493.19,"N_COORD97":2540180.54,"ADDRESS":"中華南路二段３１５巷３弄６號二樓","OBJECTID":22301},"geometry":{"x":166493.19000000041,"y":2540180.5399999991}},{"attributes":{"ID":22302,"DIS_CODE":0,"TOWNNAME":"善化區","LI":"文昌里","LIN":"17鄰","STREET":" ","SECT":" ","MAREA":"益民寮","LANE":" ","ALLEY":" ","HOUSE_NO":"２２號","E_COORD97":177678.97,"N_COORD97":2557164.0099999998,"ADDRESS":"益民寮２２號","OBJECTID":22302},"geometry":{"x":177678.96999999974,"y":2557164.0099999998}},{"attributes":{"ID":22303,"DIS_CODE":0,"TOWNNAME":"南區","LI":"南都里","LIN":"14鄰","STREET":"中華南路","SECT":"二段","MAREA":" ","LANE":"３１５巷","ALLEY":"３弄","HOUSE_NO":"６號三樓","E_COORD97":166493.19,"N_COORD97":2540180.54,"ADDRESS":"中華南路二段３１５巷３弄６號三樓","OBJECTID":22303},"geometry":{"x":166493.19000000041,"y":2540180.5399999991}},{"attributes":{"ID":22304,"DIS_CODE":0,"TOWNNAME":"南區","LI":"南都里","LIN":"14鄰","STREET":"中華南路","SECT":"二段","MAREA":" ","LANE":"３１５巷","ALLEY":"３弄","HOUSE_NO":"６號五樓","E_COORD97":166493.19,"N_COORD97":2540180.54,"ADDRESS":"中華南路二段３１５巷３弄６號五樓","OBJECTID":22304},"geometry":{"x":166493.19000000041,"y":2540180.5399999991}},{"attributes":{"ID":22305,"DIS_CODE":0,"TOWNNAME":"南區","LI":"南都里","LIN":"14鄰","STREET":"中華南路","SECT":"二段","MAREA":" ","LANE":"３１５巷","ALLEY":"３弄","HOUSE_NO":"６號四樓","E_COORD97":166493.19,"N_COORD97":2540180.54,"ADDRESS":"中華南路二段３１５巷３弄６號四樓","OBJECTID":22305},"geometry":{"x":166493.19000000041,"y":2540180.5399999991}},{"attributes":{"ID":22306,"DIS_CODE":0,"TOWNNAME":"南區","LI":"南都里","LIN":"14鄰","STREET":"中華南路","SECT":"二段","MAREA":" ","LANE":"３１５巷","ALLEY":"３弄","HOUSE_NO":"８號二樓","E_COORD97":166501.56,"N_COORD97":2540180.54,"ADDRESS":"中華南路二段３１５巷３弄８號二樓","OBJECTID":22306},"geometry":{"x":166501.55999999959,"y":2540180.5399999991}},{"attributes":{"ID":22307,"DIS_CODE":0,"TOWNNAME":"善化區","LI":"胡厝里","LIN":"17鄰","STREET":" ","SECT":" ","MAREA":"西衛","LANE":" ","ALLEY":" ","HOUSE_NO":"７之２０號","E_COORD97":174374.92999999999,"N_COORD97":2559446.02,"ADDRESS":"西衛７之２０號","OBJECTID":22307},"geometry":{"x":174374.9299999997,"y":2559446.0199999996}},{"attributes":{"ID":22308,"DIS_CODE":0,"TOWNNAME":"善化區","LI":"胡厝里","LIN":"17鄰","STREET":" ","SECT":" ","MAREA":"西衛","LANE":" ","ALLEY":" ","HOUSE_NO":"５之６號","E_COORD97":174474.73000000001,"N_COORD97":2559538.02,"ADDRESS":"西衛５之６號","OBJECTID":22308},"geometry":{"x":174474.73000000138,"y":2559538.0200000033}},{"attributes":{"ID":22309,"DIS_CODE":0,"TOWNNAME":"善化區","LI":"胡厝里","LIN":"17鄰","STREET":" ","SECT":" ","MAREA":"西衛","LANE":" ","ALLEY":" ","HOUSE_NO":"７之２７號","E_COORD97":174406.44,"N_COORD97":2559451.52,"ADDRESS":"西衛７之２７號","OBJECTID":22309},"geometry":{"x":174406.44000000041,"y":2559451.5200000014}},{"attributes":{"ID":22310,"DIS_CODE":0,"TOWNNAME":"善化區","LI":"胡厝里","LIN":"17鄰","STREET":" ","SECT":" ","MAREA":"西衛","LANE":" ","ALLEY":" ","HOUSE_NO":"５之３號","E_COORD97":174477.39000000001,"N_COORD97":2559529.52,"ADDRESS":"西衛５之３號","OBJECTID":22310},"geometry":{"x":174477.39000000153,"y":2559529.5200000014}},{"attributes":{"ID":22311,"DIS_CODE":0,"TOWNNAME":"善化區","LI":"胡厝里","LIN":"17鄰","STREET":" ","SECT":" ","MAREA":"西衛","LANE":" ","ALLEY":" ","HOUSE_NO":"７之２３號","E_COORD97":174388.28,"N_COORD97":2559448.02,"ADDRESS":"西衛７之２３號","OBJECTID":22311},"geometry":{"x":174388.28000000026,"y":2559448.0200000014}},{"attributes":{"ID":22312,"DIS_CODE":0,"TOWNNAME":"南區","LI":"南都里","LIN":"14鄰","STREET":"中華南路","SECT":"二段","MAREA":" ","LANE":"３１５巷","ALLEY":"３弄","HOUSE_NO":"８號三樓","E_COORD97":166501.56,"N_COORD97":2540180.54,"ADDRESS":"中華南路二段３１５巷３弄８號三樓","OBJECTID":22312},"geometry":{"x":166501.55999999959,"y":2540180.5399999991}},{"attributes":{"ID":22313,"DIS_CODE":0,"TOWNNAME":"善化區","LI":"胡厝里","LIN":"17鄰","STREET":" ","SECT":" ","MAREA":"西衛","LANE":" ","ALLEY":" ","HOUSE_NO":"７之２２號","E_COORD97":174384.31,"N_COORD97":2559447.27,"ADDRESS":"西衛７之２２號","OBJECTID":22313},"geometry":{"x":174384.30999999959,"y":2559447.2699999996}},{"attributes":{"ID":22314,"DIS_CODE":0,"TOWNNAME":"善化區","LI":"胡厝里","LIN":"17鄰","STREET":" ","SECT":" ","MAREA":"西衛","LANE":" ","ALLEY":" ","HOUSE_NO":"７之２號","E_COORD97":174424.76999999999,"N_COORD97":2559477.27,"ADDRESS":"西衛７之２號","OBJECTID":22314},"geometry":{"x":174424.76999999955,"y":2559477.2699999996}},{"attributes":{"ID":22315,"DIS_CODE":0,"TOWNNAME":"善化區","LI":"胡厝里","LIN":"17鄰","STREET":" ","SECT":" ","MAREA":"西衛","LANE":" ","ALLEY":" ","HOUSE_NO":"７之２１號","E_COORD97":174379.73999999999,"N_COORD97":2559446.52,"ADDRESS":"西衛７之２１號","OBJECTID":22315},"geometry":{"x":174379.74000000115,"y":2559446.5200000033}},{"attributes":{"ID":22316,"DIS_CODE":0,"TOWNNAME":"南區","LI":"南都里","LIN":"14鄰","STREET":"中華南路","SECT":"二段","MAREA":" ","LANE":"３１５巷","ALLEY":"３弄","HOUSE_NO":"８號五樓","E_COORD97":166501.56,"N_COORD97":2540180.54,"ADDRESS":"中華南路二段３１５巷３弄８號五樓","OBJECTID":22316},"geometry":{"x":166501.55999999959,"y":2540180.5399999991}},{"attributes":{"ID":22317,"DIS_CODE":0,"TOWNNAME":"南區","LI":"南都里","LIN":"14鄰","STREET":"中華南路","SECT":"二段","MAREA":" ","LANE":"３１５巷","ALLEY":"３弄","HOUSE_NO":"８號四樓","E_COORD97":166501.56,"N_COORD97":2540180.54,"ADDRESS":"中華南路二段３１５巷３弄８號四樓","OBJECTID":22317},"geometry":{"x":166501.55999999959,"y":2540180.5399999991}},{"attributes":{"ID":22318,"DIS_CODE":0,"TOWNNAME":"楠西區","LI":"灣丘里","LIN":"14鄰","STREET":" ","SECT":" ","MAREA":"鳳興","LANE":" ","ALLEY":" ","HOUSE_NO":"１１號","E_COORD97":198677.17000000001,"N_COORD97":2562682.25,"ADDRESS":"鳳興１１號","OBJECTID":22318},"geometry":{"x":198677.16999999993,"y":2562682.25}},{"attributes":{"ID":22319,"DIS_CODE":0,"TOWNNAME":"北區","LI":"仁愛里","LIN":"14鄰","STREET":"長榮路","SECT":"四段","MAREA":" ","LANE":"３１巷","ALLEY":"２３弄","HOUSE_NO":"６號三樓","E_COORD97":170148.42999999999,"N_COORD97":2544862.1299999999,"ADDRESS":"長榮路四段３１巷２３弄６號三樓","OBJECTID":22319},"geometry":{"x":170148.43000000063,"y":2544862.129999999}},{"attributes":{"ID":22320,"DIS_CODE":0,"TOWNNAME":"北區","LI":"仁愛里","LIN":"14鄰","STREET":"長榮路","SECT":"四段","MAREA":" ","LANE":"３１巷","ALLEY":"２３弄","HOUSE_NO":"６號五樓","E_COORD97":170148.42999999999,"N_COORD97":2544862.1299999999,"ADDRESS":"長榮路四段３１巷２３弄６號五樓","OBJECTID":22320},"geometry":{"x":170148.43000000063,"y":2544862.129999999}},{"attributes":{"ID":22321,"DIS_CODE":0,"TOWNNAME":"仁德區","LI":"大甲里","LIN":"24鄰","STREET":"行大二街","SECT":" ","MAREA":" ","LANE":"４６巷","ALLEY":" ","HOUSE_NO":"３４號","E_COORD97":169603.42000000001,"N_COORD97":2535311.4900000002,"ADDRESS":"行大二街４６巷３４號","OBJECTID":22321},"geometry":{"x":169603.41999999993,"y":2535311.4900000039}},{"attributes":{"ID":22322,"DIS_CODE":0,"TOWNNAME":"仁德區","LI":"大甲里","LIN":"24鄰","STREET":"行大二街","SECT":" ","MAREA":" ","LANE":" ","ALLEY":" ","HOUSE_NO":"３０號","E_COORD97":169692.92999999999,"N_COORD97":2535323.5,"ADDRESS":"行大二街３０號","OBJECTID":22322},"geometry":{"x":169692.9299999997,"y":2535323.5}},{"attributes":{"ID":22323,"DIS_CODE":0,"TOWNNAME":"北區","LI":"六甲里","LIN":"4鄰","STREET":"公園路","SECT":" ","MAREA":" ","LANE":" ","ALLEY":" ","HOUSE_NO":"５３３號","E_COORD97":169063.10999999999,"N_COORD97":2545589.52,"ADDRESS":"公園路５３３號","OBJECTID":22323},"geometry":{"x":169063.11000000034,"y":2545589.5199999996}},{"attributes":{"ID":22324,"DIS_CODE":0,"TOWNNAME":"新市區","LI":"大社里","LIN":"24鄰","STREET":" ","SECT":" ","MAREA":"大社","LANE":" ","ALLEY":" ","HOUSE_NO":"８８６之４１號","E_COORD97":179789.60000000001,"N_COORD97":2553990.29,"ADDRESS":"大社８８６之４１號","OBJECTID":22324},"geometry":{"x":179789.59999999963,"y":2553990.290000001}},{"attributes":{"ID":22325,"DIS_CODE":0,"TOWNNAME":"善化區","LI":"胡厝里","LIN":"17鄰","STREET":" ","SECT":" ","MAREA":"西衛","LANE":" ","ALLEY":" ","HOUSE_NO":"４號","E_COORD97":174454.38,"N_COORD97":2559501.75,"ADDRESS":"西衛４號","OBJECTID":22325},"geometry":{"x":174454.38000000082,"y":2559501.75}},{"attributes":{"ID":22326,"DIS_CODE":0,"TOWNNAME":"善化區","LI":"胡厝里","LIN":"17鄰","STREET":" ","SECT":" ","MAREA":"西衛","LANE":" ","ALLEY":" ","HOUSE_NO":"７之７號","E_COORD97":174398.92000000001,"N_COORD97":2559466.7599999998,"ADDRESS":"西衛７之７號","OBJECTID":22326},"geometry":{"x":174398.91999999993,"y":2559466.7600000016}},{"attributes":{"ID":22327,"DIS_CODE":0,"TOWNNAME":"善化區","LI":"胡厝里","LIN":"17鄰","STREET":" ","SECT":" ","MAREA":"西衛","LANE":" ","ALLEY":" ","HOUSE_NO":"７之１５號","E_COORD97":174363.95000000001,"N_COORD97":2559462.52,"ADDRESS":"西衛７之１５號","OBJECTID":22327},"geometry":{"x":174363.95000000205,"y":2559462.5199999996}},{"attributes":{"ID":22328,"DIS_CODE":0,"TOWNNAME":"大內區","LI":"石湖里","LIN":"17鄰","STREET":" ","SECT":" ","MAREA":"新厝子","LANE":" ","ALLEY":" ","HOUSE_NO":"４６號","E_COORD97":183480.51999999999,"N_COORD97":2560893.25,"ADDRESS":"新厝子４６號","OBJECTID":22328},"geometry":{"x":183480.51999999955,"y":2560893.2500000037}},{"attributes":{"ID":22329,"DIS_CODE":0,"TOWNNAME":"大內區","LI":"頭社里","LIN":"17鄰","STREET":" ","SECT":" ","MAREA":"頭社","LANE":" ","ALLEY":" ","HOUSE_NO":"２１６號之１","E_COORD97":187566.73000000001,"N_COORD97":2559550.2999999998,"ADDRESS":"頭社２１６號之１","OBJECTID":22329},"geometry":{"x":187566.73000000138,"y":2559550.3000000007}},{"attributes":{"ID":22330,"DIS_CODE":0,"TOWNNAME":"大內區","LI":"頭社里","LIN":"17鄰","STREET":" ","SECT":" ","MAREA":"頭社","LANE":" ","ALLEY":" ","HOUSE_NO":"２２１號之２","E_COORD97":187631.45999999999,"N_COORD97":2559539.2999999998,"ADDRESS":"頭社２２１號之２","OBJECTID":22330},"geometry":{"x":187631.45999999996,"y":2559539.3000000007}},{"attributes":{"ID":22331,"DIS_CODE":0,"TOWNNAME":"大內區","LI":"石湖里","LIN":"17鄰","STREET":" ","SECT":" ","MAREA":"新厝子","LANE":" ","ALLEY":" ","HOUSE_NO":"７０號","E_COORD97":183452.01999999999,"N_COORD97":2560985.25,"ADDRESS":"新厝子７０號","OBJECTID":22331},"geometry":{"x":183452.01999999955,"y":2560985.2500000019}},{"attributes":{"ID":22332,"DIS_CODE":0,"TOWNNAME":"北區","LI":"仁愛里","LIN":"14鄰","STREET":"長榮路","SECT":"四段","MAREA":" ","LANE":"３１巷","ALLEY":"２３弄","HOUSE_NO":"６號四樓","E_COORD97":170148.42999999999,"N_COORD97":2544862.1299999999,"ADDRESS":"長榮路四段３１巷２３弄６號四樓","OBJECTID":22332},"geometry":{"x":170148.43000000063,"y":2544862.129999999}},{"attributes":{"ID":22333,"DIS_CODE":0,"TOWNNAME":"北區","LI":"仁愛里","LIN":"14鄰","STREET":"長榮路","SECT":"四段","MAREA":" ","LANE":"３１巷","ALLEY":"２３弄","HOUSE_NO":"８號二樓","E_COORD97":170159.12,"N_COORD97":2544861.5,"ADDRESS":"長榮路四段３１巷２３弄８號二樓","OBJECTID":22333},"geometry":{"x":170159.12000000104,"y":2544861.4999999981}},{"attributes":{"ID":22334,"DIS_CODE":0,"TOWNNAME":"北區","LI":"仁愛里","LIN":"14鄰","STREET":"長榮路","SECT":"四段","MAREA":" ","LANE":"３１巷","ALLEY":"２３弄","HOUSE_NO":"８號三樓","E_COORD97":170159.12,"N_COORD97":2544861.5,"ADDRESS":"長榮路四段３１巷２３弄８號三樓","OBJECTID":22334},"geometry":{"x":170159.12000000104,"y":2544861.4999999981}},{"attributes":{"ID":22335,"DIS_CODE":0,"TOWNNAME":"北區","LI":"仁愛里","LIN":"14鄰","STREET":"長榮路","SECT":"四段","MAREA":" ","LANE":"３１巷","ALLEY":"２３弄","HOUSE_NO":"８號五樓","E_COORD97":170159.12,"N_COORD97":2544861.5,"ADDRESS":"長榮路四段３１巷２３弄８號五樓","OBJECTID":22335},"geometry":{"x":170159.12000000104,"y":2544861.4999999981}},{"attributes":{"ID":22336,"DIS_CODE":0,"TOWNNAME":"北區","LI":"仁愛里","LIN":"14鄰","STREET":"長榮路","SECT":"四段","MAREA":" ","LANE":"３１巷","ALLEY":"２３弄","HOUSE_NO":"８號四樓","E_COORD97":170159.12,"N_COORD97":2544861.5,"ADDRESS":"長榮路四段３１巷２３弄８號四樓","OBJECTID":22336},"geometry":{"x":170159.12000000104,"y":2544861.4999999981}},{"attributes":{"ID":22337,"DIS_CODE":0,"TOWNNAME":"安平區","LI":"文平里","LIN":"14鄰","STREET":"建平五街","SECT":" ","MAREA":" ","LANE":"２２巷","ALLEY":"１５弄","HOUSE_NO":"１５號二樓","E_COORD97":166032.01999999999,"N_COORD97":2543158.52,"ADDRESS":"建平五街２２巷１５弄１５號二樓","OBJECTID":22337},"geometry":{"x":166032.01999999955,"y":2543158.5199999996}},{"attributes":{"ID":22338,"DIS_CODE":0,"TOWNNAME":"安平區","LI":"文平里","LIN":"14鄰","STREET":"建平五街","SECT":" ","MAREA":" ","LANE":"２２巷","ALLEY":"１５弄","HOUSE_NO":"１５號三樓","E_COORD97":166032.01999999999,"N_COORD97":2543158.52,"ADDRESS":"建平五街２２巷１５弄１５號三樓","OBJECTID":22338},"geometry":{"x":166032.01999999955,"y":2543158.5199999996}},{"attributes":{"ID":22339,"DIS_CODE":0,"TOWNNAME":"安平區","LI":"文平里","LIN":"14鄰","STREET":"建平五街","SECT":" ","MAREA":" ","LANE":"２２巷","ALLEY":"１５弄","HOUSE_NO":"１５號五樓","E_COORD97":166032.01999999999,"N_COORD97":2543158.52,"ADDRESS":"建平五街２２巷１５弄１５號五樓","OBJECTID":22339},"geometry":{"x":166032.01999999955,"y":2543158.5199999996}},{"attributes":{"ID":22340,"DIS_CODE":0,"TOWNNAME":"安平區","LI":"文平里","LIN":"14鄰","STREET":"建平五街","SECT":" ","MAREA":" ","LANE":"２２巷","ALLEY":"１５弄","HOUSE_NO":"１５號六樓","E_COORD97":166032.01999999999,"N_COORD97":2543158.52,"ADDRESS":"建平五街２２巷１５弄１５號六樓","OBJECTID":22340},"geometry":{"x":166032.01999999955,"y":2543158.5199999996}},{"attributes":{"ID":22341,"DIS_CODE":0,"TOWNNAME":"安平區","LI":"文平里","LIN":"14鄰","STREET":"建平五街","SECT":" ","MAREA":" ","LANE":"２２巷","ALLEY":"１５弄","HOUSE_NO":"１５號四樓","E_COORD97":166032.01999999999,"N_COORD97":2543158.52,"ADDRESS":"建平五街２２巷１５弄１５號四樓","OBJECTID":22341},"geometry":{"x":166032.01999999955,"y":2543158.5199999996}},{"attributes":{"ID":22342,"DIS_CODE":0,"TOWNNAME":"安平區","LI":"文平里","LIN":"14鄰","STREET":"建平五街","SECT":" ","MAREA":" ","LANE":"２２巷","ALLEY":"１５弄","HOUSE_NO":"１６號二樓之１","E_COORD97":166011.39999999999,"N_COORD97":2543183.3100000001,"ADDRESS":"建平五街２２巷１５弄１６號二樓之１","OBJECTID":22342},"geometry":{"x":166011.4000000013,"y":2543183.3100000024}},{"attributes":{"ID":22343,"DIS_CODE":0,"TOWNNAME":"安平區","LI":"文平里","LIN":"14鄰","STREET":"建平五街","SECT":" ","MAREA":" ","LANE":"２２巷","ALLEY":"１５弄","HOUSE_NO":"１６號二樓之２","E_COORD97":166011.39999999999,"N_COORD97":2543183.3100000001,"ADDRESS":"建平五街２２巷１５弄１６號二樓之２","OBJECTID":22343},"geometry":{"x":166011.4000000013,"y":2543183.3100000024}},{"attributes":{"ID":22344,"DIS_CODE":0,"TOWNNAME":"安平區","LI":"文平里","LIN":"14鄰","STREET":"建平五街","SECT":" ","MAREA":" ","LANE":"２２巷","ALLEY":"１５弄","HOUSE_NO":"１６號二樓之３","E_COORD97":166011.39999999999,"N_COORD97":2543183.3100000001,"ADDRESS":"建平五街２２巷１５弄１６號二樓之３","OBJECTID":22344},"geometry":{"x":166011.4000000013,"y":2543183.3100000024}},{"attributes":{"ID":22345,"DIS_CODE":0,"TOWNNAME":"東區","LI":"忠孝里","LIN":"24鄰","STREET":"崇明四街","SECT":" ","MAREA":" ","LANE":" ","ALLEY":" ","HOUSE_NO":"３６號","E_COORD97":169671.35999999999,"N_COORD97":2542304.4500000002,"ADDRESS":"崇明四街３６號","OBJECTID":22345},"geometry":{"x":169671.36000000127,"y":2542304.4499999993}},{"attributes":{"ID":22346,"DIS_CODE":0,"TOWNNAME":"東區","LI":"東明里","LIN":"24鄰","STREET":"怡東路","SECT":" ","MAREA":" ","LANE":" ","ALLEY":" ","HOUSE_NO":"２１號","E_COORD97":170802.38,"N_COORD97":2543503.8900000001,"ADDRESS":"怡東路２１號","OBJECTID":22346},"geometry":{"x":170802.37999999989,"y":2543503.8900000025}},{"attributes":{"ID":22347,"DIS_CODE":0,"TOWNNAME":"東區","LI":"東明里","LIN":"24鄰","STREET":"怡東路","SECT":" ","MAREA":" ","LANE":" ","ALLEY":" ","HOUSE_NO":"２３號","E_COORD97":170803.39000000001,"N_COORD97":2543507.5,"ADDRESS":"怡東路２３號","OBJECTID":22347},"geometry":{"x":170803.38999999966,"y":2543507.5}},{"attributes":{"ID":22348,"DIS_CODE":0,"TOWNNAME":"東區","LI":"東明里","LIN":"24鄰","STREET":"怡東路","SECT":" ","MAREA":" ","LANE":" ","ALLEY":" ","HOUSE_NO":"２５號","E_COORD97":170804.79000000001,"N_COORD97":2543512.8999999999,"ADDRESS":"怡東路２５號","OBJECTID":22348},"geometry":{"x":170804.79000000004,"y":2543512.9000000004}},{"attributes":{"ID":22349,"DIS_CODE":0,"TOWNNAME":"東區","LI":"東明里","LIN":"24鄰","STREET":"怡東路","SECT":" ","MAREA":" ","LANE":" ","ALLEY":" ","HOUSE_NO":"２７號","E_COORD97":170805.39000000001,"N_COORD97":2543516.9100000001,"ADDRESS":"怡東路２７號","OBJECTID":22349},"geometry":{"x":170805.38999999966,"y":2543516.910000002}},{"attributes":{"ID":22350,"DIS_CODE":0,"TOWNNAME":"安南區","LI":"溪北里","LIN":"24鄰","STREET":"郡安路","SECT":"四段","MAREA":" ","LANE":" ","ALLEY":" ","HOUSE_NO":"５２號","E_COORD97":169230.73999999999,"N_COORD97":2547605.46,"ADDRESS":"郡安路四段５２號","OBJECTID":22350},"geometry":{"x":169230.74000000209,"y":2547605.459999999}},{"attributes":{"ID":22351,"DIS_CODE":0,"TOWNNAME":"安南區","LI":"溪北里","LIN":"24鄰","STREET":"郡安路","SECT":"四段","MAREA":" ","LANE":" ","ALLEY":" ","HOUSE_NO":"４９號","E_COORD97":169244.60999999999,"N_COORD97":2547607.23,"ADDRESS":"郡安路四段４９號","OBJECTID":22351},"geometry":{"x":169244.61000000034,"y":2547607.2300000023}},{"attributes":{"ID":22352,"DIS_CODE":0,"TOWNNAME":"安南區","LI":"溪北里","LIN":"24鄰","STREET":"郡安路","SECT":"四段","MAREA":" ","LANE":" ","ALLEY":" ","HOUSE_NO":"５０號","E_COORD97":169240.09,"N_COORD97":2547606.5800000001,"ADDRESS":"郡安路四段５０號","OBJECTID":22352},"geometry":{"x":169240.09000000078,"y":2547606.5800000001}},{"attributes":{"ID":22353,"DIS_CODE":0,"TOWNNAME":"安南區","LI":"溪北里","LIN":"24鄰","STREET":"郡安路","SECT":"四段","MAREA":" ","LANE":" ","ALLEY":" ","HOUSE_NO":"５１號","E_COORD97":169235.57999999999,"N_COORD97":2547605.9399999999,"ADDRESS":"郡安路四段５１號","OBJECTID":22353},"geometry":{"x":169235.58000000101,"y":2547605.9400000013}},{"attributes":{"ID":22354,"DIS_CODE":0,"TOWNNAME":"安平區","LI":"文平里","LIN":"14鄰","STREET":"建平五街","SECT":" ","MAREA":" ","LANE":"２２巷","ALLEY":"１５弄","HOUSE_NO":"１６號三樓之１","E_COORD97":166011.39999999999,"N_COORD97":2543183.3100000001,"ADDRESS":"建平五街２２巷１５弄１６號三樓之１","OBJECTID":22354},"geometry":{"x":166011.4000000013,"y":2543183.3100000024}},{"attributes":{"ID":22355,"DIS_CODE":0,"TOWNNAME":"安平區","LI":"文平里","LIN":"14鄰","STREET":"建平五街","SECT":" ","MAREA":" ","LANE":"２２巷","ALLEY":"１５弄","HOUSE_NO":"１６號三樓之２","E_COORD97":166011.39999999999,"N_COORD97":2543183.3100000001,"ADDRESS":"建平五街２２巷１５弄１６號三樓之２","OBJECTID":22355},"geometry":{"x":166011.4000000013,"y":2543183.3100000024}},{"attributes":{"ID":22356,"DIS_CODE":0,"TOWNNAME":"新市區","LI":"大社里","LIN":"24鄰","STREET":" ","SECT":" ","MAREA":"大社","LANE":" ","ALLEY":" ","HOUSE_NO":"８８６之４２號","E_COORD97":179851.57999999999,"N_COORD97":2554074.4199999999,"ADDRESS":"大社８８６之４２號","OBJECTID":22356},"geometry":{"x":179851.58000000007,"y":2554074.4200000018}},{"attributes":{"ID":22357,"DIS_CODE":0,"TOWNNAME":"善化區","LI":"光文里","LIN":"24鄰","STREET":"公園路","SECT":" ","MAREA":" ","LANE":" ","ALLEY":" ","HOUSE_NO":"６１號","E_COORD97":178237.78,"N_COORD97":2559210.75,"ADDRESS":"公園路６１號","OBJECTID":22357},"geometry":{"x":178237.78000000119,"y":2559210.75}},{"attributes":{"ID":22358,"DIS_CODE":0,"TOWNNAME":"大內區","LI":"石湖里","LIN":"17鄰","STREET":" ","SECT":" ","MAREA":"新厝子","LANE":" ","ALLEY":" ","HOUSE_NO":"６０號","E_COORD97":183453.12,"N_COORD97":2560933.25,"ADDRESS":"新厝子６０號","OBJECTID":22358},"geometry":{"x":183453.12000000104,"y":2560933.25}},{"attributes":{"ID":22359,"DIS_CODE":0,"TOWNNAME":"永康區","LI":"網寮里","LIN":"24鄰","STREET":"永和街","SECT":" ","MAREA":" ","LANE":" ","ALLEY":" ","HOUSE_NO":"２１號","E_COORD97":173793.12,"N_COORD97":2546480.21,"ADDRESS":"永和街２１號","OBJECTID":22359},"geometry":{"x":173793.12000000197,"y":2546480.2100000009}},{"attributes":{"ID":22360,"DIS_CODE":0,"TOWNNAME":"安平區","LI":"文平里","LIN":"14鄰","STREET":"建平五街","SECT":" ","MAREA":" ","LANE":"２２巷","ALLEY":"１５弄","HOUSE_NO":"１６號三樓之３","E_COORD97":166011.39999999999,"N_COORD97":2543183.3100000001,"ADDRESS":"建平五街２２巷１５弄１６號三樓之３","OBJECTID":22360},"geometry":{"x":166011.4000000013,"y":2543183.3100000024}},{"attributes":{"ID":22361,"DIS_CODE":0,"TOWNNAME":"安平區","LI":"文平里","LIN":"14鄰","STREET":"建平五街","SECT":" ","MAREA":" ","LANE":"２２巷","ALLEY":"１５弄","HOUSE_NO":"１６號五樓之１","E_COORD97":166011.39999999999,"N_COORD97":2543183.3100000001,"ADDRESS":"建平五街２２巷１５弄１６號五樓之１","OBJECTID":22361},"geometry":{"x":166011.4000000013,"y":2543183.3100000024}},{"attributes":{"ID":22362,"DIS_CODE":0,"TOWNNAME":"安平區","LI":"文平里","LIN":"14鄰","STREET":"建平五街","SECT":" ","MAREA":" ","LANE":"２２巷","ALLEY":"１５弄","HOUSE_NO":"１６號五樓之２","E_COORD97":166011.39999999999,"N_COORD97":2543183.3100000001,"ADDRESS":"建平五街２２巷１５弄１６號五樓之２","OBJECTID":22362},"geometry":{"x":166011.4000000013,"y":2543183.3100000024}},{"attributes":{"ID":22363,"DIS_CODE":0,"TOWNNAME":"安平區","LI":"文平里","LIN":"14鄰","STREET":"建平五街","SECT":" ","MAREA":" ","LANE":"２２巷","ALLEY":"１５弄","HOUSE_NO":"１６號五樓之３","E_COORD97":166011.39999999999,"N_COORD97":2543183.3100000001,"ADDRESS":"建平五街２２巷１５弄１６號五樓之３","OBJECTID":22363},"geometry":{"x":166011.4000000013,"y":2543183.3100000024}},{"attributes":{"ID":22364,"DIS_CODE":0,"TOWNNAME":"安平區","LI":"文平里","LIN":"14鄰","STREET":"建平五街","SECT":" ","MAREA":" ","LANE":"２２巷","ALLEY":"１５弄","HOUSE_NO":"１６號六樓","E_COORD97":166011.39999999999,"N_COORD97":2543183.3100000001,"ADDRESS":"建平五街２２巷１５弄１６號六樓","OBJECTID":22364},"geometry":{"x":166011.4000000013,"y":2543183.3100000024}},{"attributes":{"ID":22365,"DIS_CODE":0,"TOWNNAME":"安平區","LI":"文平里","LIN":"14鄰","STREET":"建平五街","SECT":" ","MAREA":" ","LANE":"２２巷","ALLEY":"１５弄","HOUSE_NO":"１６號四樓之１","E_COORD97":166011.39999999999,"N_COORD97":2543183.3100000001,"ADDRESS":"建平五街２２巷１５弄１６號四樓之１","OBJECTID":22365},"geometry":{"x":166011.4000000013,"y":2543183.3100000024}},{"attributes":{"ID":22366,"DIS_CODE":0,"TOWNNAME":"北區","LI":"六甲里","LIN":"4鄰","STREET":"公園路","SECT":" ","MAREA":" ","LANE":" ","ALLEY":" ","HOUSE_NO":"５３１號","E_COORD97":169062.17000000001,"N_COORD97":2545584.8399999999,"ADDRESS":"公園路５３１號","OBJECTID":22366},"geometry":{"x":169062.17000000086,"y":2545584.8400000036}},{"attributes":{"ID":22367,"DIS_CODE":0,"TOWNNAME":"北區","LI":"六甲里","LIN":"4鄰","STREET":"公園路","SECT":" ","MAREA":" ","LANE":" ","ALLEY":" ","HOUSE_NO":"５２９號","E_COORD97":169060.60999999999,"N_COORD97":2545580.6200000001,"ADDRESS":"公園路５２９號","OBJECTID":22367},"geometry":{"x":169060.6100000022,"y":2545580.6200000048}},{"attributes":{"ID":22368,"DIS_CODE":0,"TOWNNAME":"安平區","LI":"文平里","LIN":"14鄰","STREET":"建平五街","SECT":" ","MAREA":" ","LANE":"２２巷","ALLEY":"１５弄","HOUSE_NO":"１６號四樓之２","E_COORD97":166011.39999999999,"N_COORD97":2543183.3100000001,"ADDRESS":"建平五街２２巷１５弄１６號四樓之２","OBJECTID":22368},"geometry":{"x":166011.4000000013,"y":2543183.3100000024}},{"attributes":{"ID":22369,"DIS_CODE":0,"TOWNNAME":"北區","LI":"六甲里","LIN":"4鄰","STREET":"公園路","SECT":" ","MAREA":" ","LANE":" ","ALLEY":" ","HOUSE_NO":"５２７號","E_COORD97":169059.35999999999,"N_COORD97":2545574.6800000002,"ADDRESS":"公園路５２７號","OBJECTID":22369},"geometry":{"x":169059.36000000127,"y":2545574.6799999997}},{"attributes":{"ID":22370,"DIS_CODE":0,"TOWNNAME":"北區","LI":"六甲里","LIN":"4鄰","STREET":"公園路","SECT":" ","MAREA":" ","LANE":" ","ALLEY":" ","HOUSE_NO":"５２３號","E_COORD97":169056.38,"N_COORD97":2545567.1800000002,"ADDRESS":"公園路５２３號","OBJECTID":22370},"geometry":{"x":169056.37999999896,"y":2545567.1799999997}},{"attributes":{"ID":22371,"DIS_CODE":0,"TOWNNAME":"安平區","LI":"文平里","LIN":"14鄰","STREET":"建平五街","SECT":" ","MAREA":" ","LANE":"２２巷","ALLEY":"１５弄","HOUSE_NO":"１６號四樓之３","E_COORD97":166011.39999999999,"N_COORD97":2543183.3100000001,"ADDRESS":"建平五街２２巷１５弄１６號四樓之３","OBJECTID":22371},"geometry":{"x":166011.4000000013,"y":2543183.3100000024}},{"attributes":{"ID":22372,"DIS_CODE":0,"TOWNNAME":"安平區","LI":"文平里","LIN":"14鄰","STREET":"建平五街","SECT":" ","MAREA":" ","LANE":"２２巷","ALLEY":"１５弄","HOUSE_NO":"１７號二樓","E_COORD97":166020.85000000001,"N_COORD97":2543159.2999999998,"ADDRESS":"建平五街２２巷１５弄１７號二樓","OBJECTID":22372},"geometry":{"x":166020.85000000056,"y":2543159.3000000026}},{"attributes":{"ID":22373,"DIS_CODE":0,"TOWNNAME":"安平區","LI":"文平里","LIN":"14鄰","STREET":"建平五街","SECT":" ","MAREA":" ","LANE":"２２巷","ALLEY":"１５弄","HOUSE_NO":"１７號三樓","E_COORD97":166020.85000000001,"N_COORD97":2543159.2999999998,"ADDRESS":"建平五街２２巷１５弄１７號三樓","OBJECTID":22373},"geometry":{"x":166020.85000000056,"y":2543159.3000000026}},{"attributes":{"ID":22374,"DIS_CODE":0,"TOWNNAME":"安平區","LI":"文平里","LIN":"14鄰","STREET":"建平五街","SECT":" ","MAREA":" ","LANE":"２２巷","ALLEY":"１５弄","HOUSE_NO":"１７號五樓","E_COORD97":166020.85000000001,"N_COORD97":2543159.2999999998,"ADDRESS":"建平五街２２巷１５弄１７號五樓","OBJECTID":22374},"geometry":{"x":166020.85000000056,"y":2543159.3000000026}},{"attributes":{"ID":22375,"DIS_CODE":0,"TOWNNAME":"安平區","LI":"文平里","LIN":"14鄰","STREET":"建平五街","SECT":" ","MAREA":" ","LANE":"２２巷","ALLEY":"１５弄","HOUSE_NO":"１７號六樓","E_COORD97":166020.85000000001,"N_COORD97":2543159.2999999998,"ADDRESS":"建平五街２２巷１５弄１７號六樓","OBJECTID":22375},"geometry":{"x":166020.85000000056,"y":2543159.3000000026}},{"attributes":{"ID":22376,"DIS_CODE":0,"TOWNNAME":"安平區","LI":"文平里","LIN":"14鄰","STREET":"建平五街","SECT":" ","MAREA":" ","LANE":"２２巷","ALLEY":"１５弄","HOUSE_NO":"１７號四樓","E_COORD97":166020.85000000001,"N_COORD97":2543159.2999999998,"ADDRESS":"建平五街２２巷１５弄１７號四樓","OBJECTID":22376},"geometry":{"x":166020.85000000056,"y":2543159.3000000026}},{"attributes":{"ID":22377,"DIS_CODE":0,"TOWNNAME":"北區","LI":"六甲里","LIN":"4鄰","STREET":"公園路","SECT":" ","MAREA":" ","LANE":" ","ALLEY":" ","HOUSE_NO":"５１５號","E_COORD97":169053.41,"N_COORD97":2545558.8999999999,"ADDRESS":"公園路５１５號","OBJECTID":22377},"geometry":{"x":169053.41000000108,"y":2545558.9000000022}},{"attributes":{"ID":22378,"DIS_CODE":0,"TOWNNAME":"北區","LI":"六甲里","LIN":"4鄰","STREET":"公園路","SECT":" ","MAREA":" ","LANE":" ","ALLEY":" ","HOUSE_NO":"５１３號","E_COORD97":169052.32000000001,"N_COORD97":2545554.2200000002,"ADDRESS":"公園路５１３號","OBJECTID":22378},"geometry":{"x":169052.32000000216,"y":2545554.2200000025}},{"attributes":{"ID":22379,"DIS_CODE":0,"TOWNNAME":"安平區","LI":"文平里","LIN":"14鄰","STREET":"建平五街","SECT":" ","MAREA":" ","LANE":"２２巷","ALLEY":"１５弄","HOUSE_NO":"１８號之１五樓之１","E_COORD97":166001.54000000001,"N_COORD97":2543190.98,"ADDRESS":"建平五街２２巷１５弄１８號之１五樓之１","OBJECTID":22379},"geometry":{"x":166001.54000000097,"y":2543190.9800000042}},{"attributes":{"ID":22380,"DIS_CODE":0,"TOWNNAME":"安平區","LI":"文平里","LIN":"14鄰","STREET":"建平五街","SECT":" ","MAREA":" ","LANE":"２２巷","ALLEY":"１５弄","HOUSE_NO":"１８號之１五樓之２","E_COORD97":166001.54000000001,"N_COORD97":2543190.98,"ADDRESS":"建平五街２２巷１５弄１８號之１五樓之２","OBJECTID":22380},"geometry":{"x":166001.54000000097,"y":2543190.9800000042}},{"attributes":{"ID":22381,"DIS_CODE":0,"TOWNNAME":"北區","LI":"華興里","LIN":"1鄰","STREET":"開南街","SECT":" ","MAREA":" ","LANE":" ","ALLEY":" ","HOUSE_NO":"７號","E_COORD97":170301.20000000001,"N_COORD97":2545396.1499999999,"ADDRESS":"開南街７號","OBJECTID":22381},"geometry":{"x":170301.20000000112,"y":2545396.1500000004}},{"attributes":{"ID":22382,"DIS_CODE":0,"TOWNNAME":"安平區","LI":"文平里","LIN":"14鄰","STREET":"建平五街","SECT":" ","MAREA":" ","LANE":"２２巷","ALLEY":"１５弄","HOUSE_NO":"１８號之１六樓之１","E_COORD97":166001.54000000001,"N_COORD97":2543190.98,"ADDRESS":"建平五街２２巷１５弄１８號之１六樓之１","OBJECTID":22382},"geometry":{"x":166001.54000000097,"y":2543190.9800000042}},{"attributes":{"ID":22383,"DIS_CODE":0,"TOWNNAME":"北區","LI":"六甲里","LIN":" ","STREET":"公園路","SECT":" ","MAREA":" ","LANE":" ","ALLEY":" ","HOUSE_NO":"５４３號之１","E_COORD97":169071.84,"N_COORD97":2545613.7000000002,"ADDRESS":"公園路５４３號之１","OBJECTID":22383},"geometry":{"x":169071.83999999985,"y":2545613.7000000011}},{"attributes":{"ID":22384,"DIS_CODE":0,"TOWNNAME":"北區","LI":"六甲里","LIN":" ","STREET":"公園路","SECT":" ","MAREA":" ","LANE":" ","ALLEY":" ","HOUSE_NO":"５４３號之２","E_COORD97":169069.60999999999,"N_COORD97":2545609.4700000002,"ADDRESS":"公園路５４３號之２","OBJECTID":22384},"geometry":{"x":169069.61000000127,"y":2545609.4700000025}},{"attributes":{"ID":22385,"DIS_CODE":0,"TOWNNAME":"北區","LI":"六甲里","LIN":"3鄰","STREET":"公園路","SECT":" ","MAREA":" ","LANE":" ","ALLEY":" ","HOUSE_NO":"５０７號","E_COORD97":169049.04000000001,"N_COORD97":2545543.7999999998,"ADDRESS":"公園路５０７號","OBJECTID":22385},"geometry":{"x":169049.04000000097,"y":2545543.8000000007}},{"attributes":{"ID":22386,"DIS_CODE":0,"TOWNNAME":"北區","LI":"六甲里","LIN":"3鄰","STREET":"公園路","SECT":" ","MAREA":" ","LANE":" ","ALLEY":" ","HOUSE_NO":"５０５號","E_COORD97":169047.16,"N_COORD97":2545539.27,"ADDRESS":"公園路５０５號","OBJECTID":22386},"geometry":{"x":169047.16000000108,"y":2545539.2699999996}},{"attributes":{"ID":22387,"DIS_CODE":0,"TOWNNAME":"北區","LI":"六甲里","LIN":"3鄰","STREET":"公園路","SECT":" ","MAREA":" ","LANE":" ","ALLEY":" ","HOUSE_NO":"５０３號","E_COORD97":169045.59,"N_COORD97":2545535.0499999998,"ADDRESS":"公園路５０３號","OBJECTID":22387},"geometry":{"x":169045.59000000078,"y":2545535.0500000026}},{"attributes":{"ID":22388,"DIS_CODE":0,"TOWNNAME":"北區","LI":"六甲里","LIN":"3鄰","STREET":"公園路","SECT":" ","MAREA":" ","LANE":" ","ALLEY":" ","HOUSE_NO":"５０１號","E_COORD97":169044.5,"N_COORD97":2545531.9199999999,"ADDRESS":"公園路５０１號","OBJECTID":22388},"geometry":{"x":169044.50000000093,"y":2545531.9199999999}},{"attributes":{"ID":22389,"DIS_CODE":0,"TOWNNAME":"北區","LI":"六甲里","LIN":"3鄰","STREET":"公園路","SECT":" ","MAREA":" ","LANE":" ","ALLEY":" ","HOUSE_NO":"４９９號","E_COORD97":169043.72,"N_COORD97":2545528.7999999998,"ADDRESS":"公園路４９９號","OBJECTID":22389},"geometry":{"x":169043.71999999974,"y":2545528.8000000026}},{"attributes":{"ID":22390,"DIS_CODE":0,"TOWNNAME":"北區","LI":"六甲里","LIN":"3鄰","STREET":"公園路","SECT":" ","MAREA":" ","LANE":" ","ALLEY":" ","HOUSE_NO":"４９７號","E_COORD97":169042.78,"N_COORD97":2545524.5800000001,"ADDRESS":"公園路４９７號","OBJECTID":22390},"geometry":{"x":169042.78000000119,"y":2545524.5800000001}},{"attributes":{"ID":22391,"DIS_CODE":0,"TOWNNAME":"安平區","LI":"文平里","LIN":"14鄰","STREET":"建平五街","SECT":" ","MAREA":" ","LANE":"２２巷","ALLEY":"１５弄","HOUSE_NO":"１８號之１六樓之２","E_COORD97":166001.54000000001,"N_COORD97":2543190.98,"ADDRESS":"建平五街２２巷１５弄１８號之１六樓之２","OBJECTID":22391},"geometry":{"x":166001.54000000097,"y":2543190.9800000042}},{"attributes":{"ID":22392,"DIS_CODE":0,"TOWNNAME":"安平區","LI":"文平里","LIN":"14鄰","STREET":"建平五街","SECT":" ","MAREA":" ","LANE":"２２巷","ALLEY":"１５弄","HOUSE_NO":"１８號之１四樓之１","E_COORD97":166001.54000000001,"N_COORD97":2543190.98,"ADDRESS":"建平五街２２巷１５弄１８號之１四樓之１","OBJECTID":22392},"geometry":{"x":166001.54000000097,"y":2543190.9800000042}},{"attributes":{"ID":22393,"DIS_CODE":0,"TOWNNAME":"安平區","LI":"文平里","LIN":"14鄰","STREET":"建平五街","SECT":" ","MAREA":" ","LANE":"２２巷","ALLEY":"１５弄","HOUSE_NO":"１８號五樓之１","E_COORD97":166016.81,"N_COORD97":2543190.2000000002,"ADDRESS":"建平五街２２巷１５弄１８號五樓之１","OBJECTID":22393},"geometry":{"x":166016.80999999959,"y":2543190.1999999993}},{"attributes":{"ID":22394,"DIS_CODE":0,"TOWNNAME":"安平區","LI":"文平里","LIN":"14鄰","STREET":"建平五街","SECT":" ","MAREA":" ","LANE":"２２巷","ALLEY":"１５弄","HOUSE_NO":"１８號五樓之２","E_COORD97":166016.81,"N_COORD97":2543190.2000000002,"ADDRESS":"建平五街２２巷１５弄１８號五樓之２","OBJECTID":22394},"geometry":{"x":166016.80999999959,"y":2543190.1999999993}},{"attributes":{"ID":22395,"DIS_CODE":0,"TOWNNAME":"大內區","LI":"石湖里","LIN":"17鄰","STREET":" ","SECT":" ","MAREA":"新厝子","LANE":" ","ALLEY":" ","HOUSE_NO":"７９號之２","E_COORD97":183443.09,"N_COORD97":2561093.2999999998,"ADDRESS":"新厝子７９號之２","OBJECTID":22395},"geometry":{"x":183443.08999999985,"y":2561093.2999999989}},{"attributes":{"ID":22396,"DIS_CODE":0,"TOWNNAME":"大內區","LI":"石湖里","LIN":"17鄰","STREET":" ","SECT":" ","MAREA":"新厝子","LANE":" ","ALLEY":" ","HOUSE_NO":"７５號","E_COORD97":183441.01999999999,"N_COORD97":2561050.25,"ADDRESS":"新厝子７５號","OBJECTID":22396},"geometry":{"x":183441.02000000048,"y":2561050.2500000019}},{"attributes":{"ID":22397,"DIS_CODE":0,"TOWNNAME":"大內區","LI":"石湖里","LIN":"17鄰","STREET":" ","SECT":" ","MAREA":"新厝子","LANE":" ","ALLEY":" ","HOUSE_NO":"６９號","E_COORD97":183453.22,"N_COORD97":2560978.25,"ADDRESS":"新厝子６９號","OBJECTID":22397},"geometry":{"x":183453.22000000067,"y":2560978.2500000019}},{"attributes":{"ID":22398,"DIS_CODE":0,"TOWNNAME":"大內區","LI":"石湖里","LIN":"17鄰","STREET":" ","SECT":" ","MAREA":"新厝子","LANE":" ","ALLEY":" ","HOUSE_NO":"６７號","E_COORD97":183454.42000000001,"N_COORD97":2560970.25,"ADDRESS":"新厝子６７號","OBJECTID":22398},"geometry":{"x":183454.41999999993,"y":2560970.25}},{"attributes":{"ID":22399,"DIS_CODE":0,"TOWNNAME":"大內區","LI":"頭社里","LIN":"17鄰","STREET":" ","SECT":" ","MAREA":"頭社","LANE":" ","ALLEY":" ","HOUSE_NO":"２１５號","E_COORD97":187606.19,"N_COORD97":2559536.25,"ADDRESS":"頭社２１５號","OBJECTID":22399},"geometry":{"x":187606.19000000134,"y":2559536.25}},{"attributes":{"ID":22400,"DIS_CODE":0,"TOWNNAME":"大內區","LI":"石湖里","LIN":"17鄰","STREET":" ","SECT":" ","MAREA":"新厝子","LANE":" ","ALLEY":" ","HOUSE_NO":"４０之２號","E_COORD97":184264.72,"N_COORD97":2560827.2999999998,"ADDRESS":"新厝子４０之２號","OBJECTID":22400},"geometry":{"x":184264.71999999974,"y":2560827.3000000026}}]}