{"displayFieldName":"TOWNNAME","fieldAliases":{"ID":"ID","DIS_CODE":"DIS_CODE","TOWNNAME":"TOWNNAME","LI":"LI","LIN":"LIN","STREET":"STREET","SECT":"SECT","MAREA":"MAREA","LANE":"LANE","ALLEY":"ALLEY","HOUSE_NO":"HOUSE_NO","E_COORD97":"E_COORD97","N_COORD97":"N_COORD97","ADDRESS":"ADDRESS","OBJECTID":"OBJECTID"},"geometryType":"esriGeometryPoint","spatialReference":{"wkid":102443,"latestWkid":3826},"fields":[{"name":"ID","type":"esriFieldTypeDouble","alias":"ID"},{"name":"DIS_CODE","type":"esriFieldTypeInteger","alias":"DIS_CODE"},{"name":"TOWNNAME","type":"esriFieldTypeString","alias":"TOWNNAME","length":8},{"name":"LI","type":"esriFieldTypeString","alias":"LI","length":8},{"name":"LIN","type":"esriFieldTypeString","alias":"LIN","length":12},{"name":"STREET","type":"esriFieldTypeString","alias":"STREET","length":20},{"name":"SECT","type":"esriFieldTypeString","alias":"SECT","length":8},{"name":"MAREA","type":"esriFieldTypeString","alias":"MAREA","length":12},{"name":"LANE","type":"esriFieldTypeString","alias":"LANE","length":10},{"name":"ALLEY","type":"esriFieldTypeString","alias":"ALLEY","length":10},{"name":"HOUSE_NO","type":"esriFieldTypeString","alias":"HOUSE_NO","length":20},{"name":"E_COORD97","type":"esriFieldTypeDouble","alias":"E_COORD97"},{"name":"N_COORD97","type":"esriFieldTypeDouble","alias":"N_COORD97"},{"name":"ADDRESS","type":"esriFieldTypeString","alias":"ADDRESS","length":50},{"name":"OBJECTID","type":"esriFieldTypeOID","alias":"OBJECTID"}],"features":[{"attributes":{"ID":374211,"DIS_CODE":0,"TOWNNAME":"東區","LI":"東光里","LIN":"10鄰","STREET":"東興路","SECT":" ","MAREA":" ","LANE":"１９９巷","ALLEY":" ","HOUSE_NO":"１０號六樓","E_COORD97":170962.84,"N_COORD97":2543875.46,"ADDRESS":"東興路１９９巷１０號六樓","OBJECTID":374201},"geometry":{"x":170962.84000000078,"y":2543875.4600000009}},{"attributes":{"ID":374212,"DIS_CODE":0,"TOWNNAME":"東區","LI":"東光里","LIN":"10鄰","STREET":"東興路","SECT":" ","MAREA":" ","LANE":"１９９巷","ALLEY":" ","HOUSE_NO":"１０號七樓","E_COORD97":170962.84,"N_COORD97":2543875.46,"ADDRESS":"東興路１９９巷１０號七樓","OBJECTID":374202},"geometry":{"x":170962.84000000078,"y":2543875.4600000009}},{"attributes":{"ID":374213,"DIS_CODE":0,"TOWNNAME":"東區","LI":"東光里","LIN":"10鄰","STREET":"東興路","SECT":" ","MAREA":" ","LANE":"１９９巷","ALLEY":" ","HOUSE_NO":"１０號八樓","E_COORD97":170962.84,"N_COORD97":2543875.46,"ADDRESS":"東興路１９９巷１０號八樓","OBJECTID":374203},"geometry":{"x":170962.84000000078,"y":2543875.4600000009}},{"attributes":{"ID":374214,"DIS_CODE":0,"TOWNNAME":"東區","LI":"東光里","LIN":"10鄰","STREET":"東興路","SECT":" ","MAREA":" ","LANE":"１９９巷","ALLEY":" ","HOUSE_NO":"１０號九樓","E_COORD97":170962.84,"N_COORD97":2543875.46,"ADDRESS":"東興路１９９巷１０號九樓","OBJECTID":374204},"geometry":{"x":170962.84000000078,"y":2543875.4600000009}},{"attributes":{"ID":374215,"DIS_CODE":0,"TOWNNAME":"安南區","LI":"安慶里","LIN":"13鄰","STREET":"怡安路","SECT":"一段","MAREA":" ","LANE":" ","ALLEY":" ","HOUSE_NO":"３１號","E_COORD97":169464.85000000001,"N_COORD97":2548952.3100000001,"ADDRESS":"怡安路一段３１號","OBJECTID":374205},"geometry":{"x":169464.8499999987,"y":2548952.3100000042}},{"attributes":{"ID":374216,"DIS_CODE":0,"TOWNNAME":"東區","LI":"東光里","LIN":"10鄰","STREET":"東興路","SECT":" ","MAREA":" ","LANE":"１９９巷","ALLEY":" ","HOUSE_NO":"１０號十樓","E_COORD97":170962.84,"N_COORD97":2543875.46,"ADDRESS":"東興路１９９巷１０號十樓","OBJECTID":374206},"geometry":{"x":170962.84000000078,"y":2543875.4600000009}},{"attributes":{"ID":374217,"DIS_CODE":0,"TOWNNAME":"東區","LI":"東光里","LIN":"10鄰","STREET":"東興路","SECT":" ","MAREA":" ","LANE":"１９９巷","ALLEY":" ","HOUSE_NO":"１０號十一樓","E_COORD97":170962.84,"N_COORD97":2543875.46,"ADDRESS":"東興路１９９巷１０號十一樓","OBJECTID":374207},"geometry":{"x":170962.84000000078,"y":2543875.4600000009}},{"attributes":{"ID":374218,"DIS_CODE":0,"TOWNNAME":"東區","LI":"東光里","LIN":"10鄰","STREET":"東興路","SECT":" ","MAREA":" ","LANE":"１９９巷","ALLEY":" ","HOUSE_NO":"１０號十二樓","E_COORD97":170962.84,"N_COORD97":2543875.46,"ADDRESS":"東興路１９９巷１０號十二樓","OBJECTID":374208},"geometry":{"x":170962.84000000078,"y":2543875.4600000009}},{"attributes":{"ID":374219,"DIS_CODE":0,"TOWNNAME":"東區","LI":"東光里","LIN":"10鄰","STREET":"東興路","SECT":" ","MAREA":" ","LANE":"１９９巷","ALLEY":" ","HOUSE_NO":"１２號二樓","E_COORD97":170950.76000000001,"N_COORD97":2543877.4700000002,"ADDRESS":"東興路１９９巷１２號二樓","OBJECTID":374209},"geometry":{"x":170950.76000000164,"y":2543877.4700000025}},{"attributes":{"ID":374220,"DIS_CODE":0,"TOWNNAME":"東區","LI":"東光里","LIN":"10鄰","STREET":"東興路","SECT":" ","MAREA":" ","LANE":"１９９巷","ALLEY":" ","HOUSE_NO":"１２號三樓","E_COORD97":170950.76000000001,"N_COORD97":2543877.4700000002,"ADDRESS":"東興路１９９巷１２號三樓","OBJECTID":374210},"geometry":{"x":170950.76000000164,"y":2543877.4700000025}},{"attributes":{"ID":374221,"DIS_CODE":0,"TOWNNAME":"東區","LI":"東光里","LIN":"10鄰","STREET":"東興路","SECT":" ","MAREA":" ","LANE":"１９９巷","ALLEY":" ","HOUSE_NO":"１２號四樓","E_COORD97":170950.76000000001,"N_COORD97":2543877.4700000002,"ADDRESS":"東興路１９９巷１２號四樓","OBJECTID":374211},"geometry":{"x":170950.76000000164,"y":2543877.4700000025}},{"attributes":{"ID":374222,"DIS_CODE":0,"TOWNNAME":"東區","LI":"東光里","LIN":"10鄰","STREET":"東興路","SECT":" ","MAREA":" ","LANE":"１９９巷","ALLEY":" ","HOUSE_NO":"１２號五樓","E_COORD97":170950.76000000001,"N_COORD97":2543877.4700000002,"ADDRESS":"東興路１９９巷１２號五樓","OBJECTID":374212},"geometry":{"x":170950.76000000164,"y":2543877.4700000025}},{"attributes":{"ID":374223,"DIS_CODE":0,"TOWNNAME":"東區","LI":"東光里","LIN":"10鄰","STREET":"東興路","SECT":" ","MAREA":" ","LANE":"１９９巷","ALLEY":" ","HOUSE_NO":"１２號六樓","E_COORD97":170950.76000000001,"N_COORD97":2543877.4700000002,"ADDRESS":"東興路１９９巷１２號六樓","OBJECTID":374213},"geometry":{"x":170950.76000000164,"y":2543877.4700000025}},{"attributes":{"ID":374224,"DIS_CODE":0,"TOWNNAME":"東區","LI":"東光里","LIN":"10鄰","STREET":"東興路","SECT":" ","MAREA":" ","LANE":"１９９巷","ALLEY":" ","HOUSE_NO":"１２號七樓","E_COORD97":170950.76000000001,"N_COORD97":2543877.4700000002,"ADDRESS":"東興路１９９巷１２號七樓","OBJECTID":374214},"geometry":{"x":170950.76000000164,"y":2543877.4700000025}},{"attributes":{"ID":374225,"DIS_CODE":0,"TOWNNAME":"東區","LI":"東光里","LIN":"10鄰","STREET":"東興路","SECT":" ","MAREA":" ","LANE":"１９９巷","ALLEY":" ","HOUSE_NO":"１２號八樓","E_COORD97":170950.76000000001,"N_COORD97":2543877.4700000002,"ADDRESS":"東興路１９９巷１２號八樓","OBJECTID":374215},"geometry":{"x":170950.76000000164,"y":2543877.4700000025}},{"attributes":{"ID":374226,"DIS_CODE":0,"TOWNNAME":"東區","LI":"東光里","LIN":"10鄰","STREET":"東興路","SECT":" ","MAREA":" ","LANE":"１９９巷","ALLEY":" ","HOUSE_NO":"１２號九樓","E_COORD97":170950.76000000001,"N_COORD97":2543877.4700000002,"ADDRESS":"東興路１９９巷１２號九樓","OBJECTID":374216},"geometry":{"x":170950.76000000164,"y":2543877.4700000025}},{"attributes":{"ID":374227,"DIS_CODE":0,"TOWNNAME":"東區","LI":"東光里","LIN":"10鄰","STREET":"東興路","SECT":" ","MAREA":" ","LANE":"１９９巷","ALLEY":" ","HOUSE_NO":"１２號十樓","E_COORD97":170950.76000000001,"N_COORD97":2543877.4700000002,"ADDRESS":"東興路１９９巷１２號十樓","OBJECTID":374217},"geometry":{"x":170950.76000000164,"y":2543877.4700000025}},{"attributes":{"ID":374228,"DIS_CODE":0,"TOWNNAME":"東區","LI":"東光里","LIN":"10鄰","STREET":"東興路","SECT":" ","MAREA":" ","LANE":"１９９巷","ALLEY":" ","HOUSE_NO":"１２號十一樓","E_COORD97":170950.76000000001,"N_COORD97":2543877.4700000002,"ADDRESS":"東興路１９９巷１２號十一樓","OBJECTID":374218},"geometry":{"x":170950.76000000164,"y":2543877.4700000025}},{"attributes":{"ID":374229,"DIS_CODE":0,"TOWNNAME":"東區","LI":"東光里","LIN":"10鄰","STREET":"東興路","SECT":" ","MAREA":" ","LANE":"１９９巷","ALLEY":" ","HOUSE_NO":"１２號十二樓","E_COORD97":170950.76000000001,"N_COORD97":2543877.4700000002,"ADDRESS":"東興路１９９巷１２號十二樓","OBJECTID":374219},"geometry":{"x":170950.76000000164,"y":2543877.4700000025}},{"attributes":{"ID":374230,"DIS_CODE":0,"TOWNNAME":"東區","LI":"東光里","LIN":"10鄰","STREET":"東興路","SECT":" ","MAREA":" ","LANE":"１９９巷","ALLEY":" ","HOUSE_NO":"１６號二樓","E_COORD97":170939.07999999999,"N_COORD97":2543879.0800000001,"ADDRESS":"東興路１９９巷１６號二樓","OBJECTID":374220},"geometry":{"x":170939.08000000101,"y":2543879.0800000019}},{"attributes":{"ID":374231,"DIS_CODE":0,"TOWNNAME":"東區","LI":"東光里","LIN":"10鄰","STREET":"東興路","SECT":" ","MAREA":" ","LANE":"１９９巷","ALLEY":" ","HOUSE_NO":"１６號三樓","E_COORD97":170939.07999999999,"N_COORD97":2543879.0800000001,"ADDRESS":"東興路１９９巷１６號三樓","OBJECTID":374221},"geometry":{"x":170939.08000000101,"y":2543879.0800000019}},{"attributes":{"ID":374232,"DIS_CODE":0,"TOWNNAME":"東區","LI":"東光里","LIN":"10鄰","STREET":"東興路","SECT":" ","MAREA":" ","LANE":"１９９巷","ALLEY":" ","HOUSE_NO":"１６號四樓","E_COORD97":170939.07999999999,"N_COORD97":2543879.0800000001,"ADDRESS":"東興路１９９巷１６號四樓","OBJECTID":374222},"geometry":{"x":170939.08000000101,"y":2543879.0800000019}},{"attributes":{"ID":374233,"DIS_CODE":0,"TOWNNAME":"東區","LI":"東光里","LIN":"10鄰","STREET":"東興路","SECT":" ","MAREA":" ","LANE":"１９９巷","ALLEY":" ","HOUSE_NO":"１６號五樓","E_COORD97":170939.07999999999,"N_COORD97":2543879.0800000001,"ADDRESS":"東興路１９９巷１６號五樓","OBJECTID":374223},"geometry":{"x":170939.08000000101,"y":2543879.0800000019}},{"attributes":{"ID":374234,"DIS_CODE":0,"TOWNNAME":"東區","LI":"東光里","LIN":"10鄰","STREET":"東興路","SECT":" ","MAREA":" ","LANE":"１９９巷","ALLEY":" ","HOUSE_NO":"１６號六樓","E_COORD97":170939.07999999999,"N_COORD97":2543879.0800000001,"ADDRESS":"東興路１９９巷１６號六樓","OBJECTID":374224},"geometry":{"x":170939.08000000101,"y":2543879.0800000019}},{"attributes":{"ID":374235,"DIS_CODE":0,"TOWNNAME":"東區","LI":"東光里","LIN":"10鄰","STREET":"東興路","SECT":" ","MAREA":" ","LANE":"１９９巷","ALLEY":" ","HOUSE_NO":"１６號七樓","E_COORD97":170939.07999999999,"N_COORD97":2543879.0800000001,"ADDRESS":"東興路１９９巷１６號七樓","OBJECTID":374225},"geometry":{"x":170939.08000000101,"y":2543879.0800000019}},{"attributes":{"ID":374236,"DIS_CODE":0,"TOWNNAME":"東區","LI":"東光里","LIN":"10鄰","STREET":"東興路","SECT":" ","MAREA":" ","LANE":"１９９巷","ALLEY":" ","HOUSE_NO":"１６號八樓","E_COORD97":170939.07999999999,"N_COORD97":2543879.0800000001,"ADDRESS":"東興路１９９巷１６號八樓","OBJECTID":374226},"geometry":{"x":170939.08000000101,"y":2543879.0800000019}},{"attributes":{"ID":374237,"DIS_CODE":0,"TOWNNAME":"東區","LI":"東光里","LIN":"10鄰","STREET":"東興路","SECT":" ","MAREA":" ","LANE":"１９９巷","ALLEY":" ","HOUSE_NO":"１６號九樓","E_COORD97":170939.07999999999,"N_COORD97":2543879.0800000001,"ADDRESS":"東興路１９９巷１６號九樓","OBJECTID":374227},"geometry":{"x":170939.08000000101,"y":2543879.0800000019}},{"attributes":{"ID":374238,"DIS_CODE":0,"TOWNNAME":"東區","LI":"東光里","LIN":"10鄰","STREET":"東興路","SECT":" ","MAREA":" ","LANE":"１９９巷","ALLEY":" ","HOUSE_NO":"１６號十樓","E_COORD97":170939.07999999999,"N_COORD97":2543879.0800000001,"ADDRESS":"東興路１９９巷１６號十樓","OBJECTID":374228},"geometry":{"x":170939.08000000101,"y":2543879.0800000019}},{"attributes":{"ID":374239,"DIS_CODE":0,"TOWNNAME":"東區","LI":"東光里","LIN":"10鄰","STREET":"東興路","SECT":" ","MAREA":" ","LANE":"１９９巷","ALLEY":" ","HOUSE_NO":"１６號十一樓","E_COORD97":170939.07999999999,"N_COORD97":2543879.0800000001,"ADDRESS":"東興路１９９巷１６號十一樓","OBJECTID":374229},"geometry":{"x":170939.08000000101,"y":2543879.0800000019}},{"attributes":{"ID":374240,"DIS_CODE":0,"TOWNNAME":"東區","LI":"東光里","LIN":"10鄰","STREET":"東興路","SECT":" ","MAREA":" ","LANE":"１９９巷","ALLEY":" ","HOUSE_NO":"１６號十二樓","E_COORD97":170939.07999999999,"N_COORD97":2543879.0800000001,"ADDRESS":"東興路１９９巷１６號十二樓","OBJECTID":374230},"geometry":{"x":170939.08000000101,"y":2543879.0800000019}},{"attributes":{"ID":374241,"DIS_CODE":0,"TOWNNAME":"東區","LI":"東光里","LIN":"10鄰","STREET":"東興路","SECT":" ","MAREA":" ","LANE":"１９９巷","ALLEY":" ","HOUSE_NO":"１８號二樓","E_COORD97":170928.20999999999,"N_COORD97":2543880.8900000001,"ADDRESS":"東興路１９９巷１８號二樓","OBJECTID":374231},"geometry":{"x":170928.21000000089,"y":2543880.8900000025}},{"attributes":{"ID":374242,"DIS_CODE":0,"TOWNNAME":"東區","LI":"東光里","LIN":"10鄰","STREET":"東興路","SECT":" ","MAREA":" ","LANE":"１９９巷","ALLEY":" ","HOUSE_NO":"１８號三樓","E_COORD97":170928.20999999999,"N_COORD97":2543880.8900000001,"ADDRESS":"東興路１９９巷１８號三樓","OBJECTID":374232},"geometry":{"x":170928.21000000089,"y":2543880.8900000025}},{"attributes":{"ID":374243,"DIS_CODE":0,"TOWNNAME":"東區","LI":"東光里","LIN":"10鄰","STREET":"東興路","SECT":" ","MAREA":" ","LANE":"１９９巷","ALLEY":" ","HOUSE_NO":"１８號四樓","E_COORD97":170928.20999999999,"N_COORD97":2543880.8900000001,"ADDRESS":"東興路１９９巷１８號四樓","OBJECTID":374233},"geometry":{"x":170928.21000000089,"y":2543880.8900000025}},{"attributes":{"ID":374244,"DIS_CODE":0,"TOWNNAME":"東區","LI":"東光里","LIN":"10鄰","STREET":"東興路","SECT":" ","MAREA":" ","LANE":"１９９巷","ALLEY":" ","HOUSE_NO":"１８號五樓","E_COORD97":170928.20999999999,"N_COORD97":2543880.8900000001,"ADDRESS":"東興路１９９巷１８號五樓","OBJECTID":374234},"geometry":{"x":170928.21000000089,"y":2543880.8900000025}},{"attributes":{"ID":374245,"DIS_CODE":0,"TOWNNAME":"東區","LI":"東光里","LIN":"10鄰","STREET":"東興路","SECT":" ","MAREA":" ","LANE":"１９９巷","ALLEY":" ","HOUSE_NO":"１８號六樓","E_COORD97":170928.20999999999,"N_COORD97":2543880.8900000001,"ADDRESS":"東興路１９９巷１８號六樓","OBJECTID":374235},"geometry":{"x":170928.21000000089,"y":2543880.8900000025}},{"attributes":{"ID":374246,"DIS_CODE":0,"TOWNNAME":"東區","LI":"東光里","LIN":"10鄰","STREET":"東興路","SECT":" ","MAREA":" ","LANE":"１９９巷","ALLEY":" ","HOUSE_NO":"１８號七樓","E_COORD97":170928.20999999999,"N_COORD97":2543880.8900000001,"ADDRESS":"東興路１９９巷１８號七樓","OBJECTID":374236},"geometry":{"x":170928.21000000089,"y":2543880.8900000025}},{"attributes":{"ID":374247,"DIS_CODE":0,"TOWNNAME":"東區","LI":"東光里","LIN":"10鄰","STREET":"東興路","SECT":" ","MAREA":" ","LANE":"１９９巷","ALLEY":" ","HOUSE_NO":"１８號八樓","E_COORD97":170928.20999999999,"N_COORD97":2543880.8900000001,"ADDRESS":"東興路１９９巷１８號八樓","OBJECTID":374237},"geometry":{"x":170928.21000000089,"y":2543880.8900000025}},{"attributes":{"ID":374248,"DIS_CODE":0,"TOWNNAME":"東區","LI":"東光里","LIN":"10鄰","STREET":"東興路","SECT":" ","MAREA":" ","LANE":"１９９巷","ALLEY":" ","HOUSE_NO":"１８號九樓","E_COORD97":170928.20999999999,"N_COORD97":2543880.8900000001,"ADDRESS":"東興路１９９巷１８號九樓","OBJECTID":374238},"geometry":{"x":170928.21000000089,"y":2543880.8900000025}},{"attributes":{"ID":374249,"DIS_CODE":0,"TOWNNAME":"東區","LI":"東光里","LIN":"10鄰","STREET":"東興路","SECT":" ","MAREA":" ","LANE":"１９９巷","ALLEY":" ","HOUSE_NO":"１８號十樓","E_COORD97":170928.20999999999,"N_COORD97":2543880.8900000001,"ADDRESS":"東興路１９９巷１８號十樓","OBJECTID":374239},"geometry":{"x":170928.21000000089,"y":2543880.8900000025}},{"attributes":{"ID":374250,"DIS_CODE":0,"TOWNNAME":"東區","LI":"東光里","LIN":"10鄰","STREET":"東興路","SECT":" ","MAREA":" ","LANE":"１９９巷","ALLEY":" ","HOUSE_NO":"１８號十一樓","E_COORD97":170928.20999999999,"N_COORD97":2543880.8900000001,"ADDRESS":"東興路１９９巷１８號十一樓","OBJECTID":374240},"geometry":{"x":170928.21000000089,"y":2543880.8900000025}},{"attributes":{"ID":374251,"DIS_CODE":0,"TOWNNAME":"東區","LI":"東光里","LIN":"10鄰","STREET":"東興路","SECT":" ","MAREA":" ","LANE":"１９９巷","ALLEY":" ","HOUSE_NO":"１８號十二樓","E_COORD97":170928.20999999999,"N_COORD97":2543880.8900000001,"ADDRESS":"東興路１９９巷１８號十二樓","OBJECTID":374241},"geometry":{"x":170928.21000000089,"y":2543880.8900000025}},{"attributes":{"ID":374252,"DIS_CODE":0,"TOWNNAME":"東區","LI":"東光里","LIN":"10鄰","STREET":"怡東路","SECT":" ","MAREA":" ","LANE":"１５０巷","ALLEY":" ","HOUSE_NO":"２號二樓","E_COORD97":170917.10999999999,"N_COORD97":2543894.98,"ADDRESS":"怡東路１５０巷２號二樓","OBJECTID":374242},"geometry":{"x":170917.11000000127,"y":2543894.9800000004}},{"attributes":{"ID":374253,"DIS_CODE":0,"TOWNNAME":"東區","LI":"東光里","LIN":"10鄰","STREET":"怡東路","SECT":" ","MAREA":" ","LANE":"１５０巷","ALLEY":" ","HOUSE_NO":"２號三樓","E_COORD97":170917.10999999999,"N_COORD97":2543894.98,"ADDRESS":"怡東路１５０巷２號三樓","OBJECTID":374243},"geometry":{"x":170917.11000000127,"y":2543894.9800000004}},{"attributes":{"ID":374254,"DIS_CODE":0,"TOWNNAME":"東區","LI":"東光里","LIN":"10鄰","STREET":"怡東路","SECT":" ","MAREA":" ","LANE":"１５０巷","ALLEY":" ","HOUSE_NO":"２號四樓","E_COORD97":170917.10999999999,"N_COORD97":2543894.98,"ADDRESS":"怡東路１５０巷２號四樓","OBJECTID":374244},"geometry":{"x":170917.11000000127,"y":2543894.9800000004}},{"attributes":{"ID":374255,"DIS_CODE":0,"TOWNNAME":"東區","LI":"東光里","LIN":"10鄰","STREET":"怡東路","SECT":" ","MAREA":" ","LANE":"１５０巷","ALLEY":" ","HOUSE_NO":"２號五樓","E_COORD97":170917.10999999999,"N_COORD97":2543894.98,"ADDRESS":"怡東路１５０巷２號五樓","OBJECTID":374245},"geometry":{"x":170917.11000000127,"y":2543894.9800000004}},{"attributes":{"ID":374256,"DIS_CODE":0,"TOWNNAME":"東區","LI":"東光里","LIN":"10鄰","STREET":"怡東路","SECT":" ","MAREA":" ","LANE":"１５０巷","ALLEY":" ","HOUSE_NO":"２號六樓","E_COORD97":170917.10999999999,"N_COORD97":2543894.98,"ADDRESS":"怡東路１５０巷２號六樓","OBJECTID":374246},"geometry":{"x":170917.11000000127,"y":2543894.9800000004}},{"attributes":{"ID":374257,"DIS_CODE":0,"TOWNNAME":"東區","LI":"東光里","LIN":"10鄰","STREET":"怡東路","SECT":" ","MAREA":" ","LANE":"１５０巷","ALLEY":" ","HOUSE_NO":"２號七樓","E_COORD97":170917.10999999999,"N_COORD97":2543894.98,"ADDRESS":"怡東路１５０巷２號七樓","OBJECTID":374247},"geometry":{"x":170917.11000000127,"y":2543894.9800000004}},{"attributes":{"ID":374258,"DIS_CODE":0,"TOWNNAME":"東區","LI":"東光里","LIN":"10鄰","STREET":"怡東路","SECT":" ","MAREA":" ","LANE":"１５０巷","ALLEY":" ","HOUSE_NO":"２號八樓","E_COORD97":170917.10999999999,"N_COORD97":2543894.98,"ADDRESS":"怡東路１５０巷２號八樓","OBJECTID":374248},"geometry":{"x":170917.11000000127,"y":2543894.9800000004}},{"attributes":{"ID":374259,"DIS_CODE":0,"TOWNNAME":"東區","LI":"東光里","LIN":"10鄰","STREET":"怡東路","SECT":" ","MAREA":" ","LANE":"１５０巷","ALLEY":" ","HOUSE_NO":"２號九樓","E_COORD97":170917.10999999999,"N_COORD97":2543894.98,"ADDRESS":"怡東路１５０巷２號九樓","OBJECTID":374249},"geometry":{"x":170917.11000000127,"y":2543894.9800000004}},{"attributes":{"ID":374260,"DIS_CODE":0,"TOWNNAME":"東區","LI":"東光里","LIN":"10鄰","STREET":"怡東路","SECT":" ","MAREA":" ","LANE":"１５０巷","ALLEY":" ","HOUSE_NO":"２號十樓","E_COORD97":170917.10999999999,"N_COORD97":2543894.98,"ADDRESS":"怡東路１５０巷２號十樓","OBJECTID":374250},"geometry":{"x":170917.11000000127,"y":2543894.9800000004}},{"attributes":{"ID":374261,"DIS_CODE":0,"TOWNNAME":"東區","LI":"東光里","LIN":"10鄰","STREET":"怡東路","SECT":" ","MAREA":" ","LANE":"１５０巷","ALLEY":" ","HOUSE_NO":"２號十一樓","E_COORD97":170917.10999999999,"N_COORD97":2543894.98,"ADDRESS":"怡東路１５０巷２號十一樓","OBJECTID":374251},"geometry":{"x":170917.11000000127,"y":2543894.9800000004}},{"attributes":{"ID":374262,"DIS_CODE":0,"TOWNNAME":"東區","LI":"東光里","LIN":"10鄰","STREET":"怡東路","SECT":" ","MAREA":" ","LANE":"１５０巷","ALLEY":" ","HOUSE_NO":"８號二樓","E_COORD97":170921.70999999999,"N_COORD97":2543913.6400000001,"ADDRESS":"怡東路１５０巷８號二樓","OBJECTID":374252},"geometry":{"x":170921.70999999996,"y":2543913.6400000025}},{"attributes":{"ID":374263,"DIS_CODE":0,"TOWNNAME":"東區","LI":"東光里","LIN":"10鄰","STREET":"怡東路","SECT":" ","MAREA":" ","LANE":"１５０巷","ALLEY":" ","HOUSE_NO":"８號三樓","E_COORD97":170921.70999999999,"N_COORD97":2543913.6400000001,"ADDRESS":"怡東路１５０巷８號三樓","OBJECTID":374253},"geometry":{"x":170921.70999999996,"y":2543913.6400000025}},{"attributes":{"ID":374264,"DIS_CODE":0,"TOWNNAME":"東區","LI":"東光里","LIN":"10鄰","STREET":"怡東路","SECT":" ","MAREA":" ","LANE":"１５０巷","ALLEY":" ","HOUSE_NO":"８號四樓","E_COORD97":170921.70999999999,"N_COORD97":2543913.6400000001,"ADDRESS":"怡東路１５０巷８號四樓","OBJECTID":374254},"geometry":{"x":170921.70999999996,"y":2543913.6400000025}},{"attributes":{"ID":374265,"DIS_CODE":0,"TOWNNAME":"東區","LI":"東光里","LIN":"10鄰","STREET":"怡東路","SECT":" ","MAREA":" ","LANE":"１５０巷","ALLEY":" ","HOUSE_NO":"８號五樓","E_COORD97":170921.70999999999,"N_COORD97":2543913.6400000001,"ADDRESS":"怡東路１５０巷８號五樓","OBJECTID":374255},"geometry":{"x":170921.70999999996,"y":2543913.6400000025}},{"attributes":{"ID":374266,"DIS_CODE":0,"TOWNNAME":"東區","LI":"東光里","LIN":"10鄰","STREET":"怡東路","SECT":" ","MAREA":" ","LANE":"１５０巷","ALLEY":" ","HOUSE_NO":"８號六樓","E_COORD97":170921.70999999999,"N_COORD97":2543913.6400000001,"ADDRESS":"怡東路１５０巷８號六樓","OBJECTID":374256},"geometry":{"x":170921.70999999996,"y":2543913.6400000025}},{"attributes":{"ID":374267,"DIS_CODE":0,"TOWNNAME":"東區","LI":"東光里","LIN":"10鄰","STREET":"怡東路","SECT":" ","MAREA":" ","LANE":"１５０巷","ALLEY":" ","HOUSE_NO":"８號七樓","E_COORD97":170921.70999999999,"N_COORD97":2543913.6400000001,"ADDRESS":"怡東路１５０巷８號七樓","OBJECTID":374257},"geometry":{"x":170921.70999999996,"y":2543913.6400000025}},{"attributes":{"ID":374268,"DIS_CODE":0,"TOWNNAME":"東區","LI":"東光里","LIN":"10鄰","STREET":"怡東路","SECT":" ","MAREA":" ","LANE":"１５０巷","ALLEY":" ","HOUSE_NO":"８號八樓","E_COORD97":170921.70999999999,"N_COORD97":2543913.6400000001,"ADDRESS":"怡東路１５０巷８號八樓","OBJECTID":374258},"geometry":{"x":170921.70999999996,"y":2543913.6400000025}},{"attributes":{"ID":374269,"DIS_CODE":0,"TOWNNAME":"東區","LI":"東光里","LIN":"10鄰","STREET":"怡東路","SECT":" ","MAREA":" ","LANE":"１５０巷","ALLEY":" ","HOUSE_NO":"８號九樓","E_COORD97":170921.70999999999,"N_COORD97":2543913.6400000001,"ADDRESS":"怡東路１５０巷８號九樓","OBJECTID":374259},"geometry":{"x":170921.70999999996,"y":2543913.6400000025}},{"attributes":{"ID":374270,"DIS_CODE":0,"TOWNNAME":"東區","LI":"東光里","LIN":"10鄰","STREET":"怡東路","SECT":" ","MAREA":" ","LANE":"１５０巷","ALLEY":" ","HOUSE_NO":"８號十樓","E_COORD97":170921.70999999999,"N_COORD97":2543913.6400000001,"ADDRESS":"怡東路１５０巷８號十樓","OBJECTID":374260},"geometry":{"x":170921.70999999996,"y":2543913.6400000025}},{"attributes":{"ID":374271,"DIS_CODE":0,"TOWNNAME":"東區","LI":"東光里","LIN":"10鄰","STREET":"怡東路","SECT":" ","MAREA":" ","LANE":"１５０巷","ALLEY":" ","HOUSE_NO":"８號十一樓","E_COORD97":170921.70999999999,"N_COORD97":2543913.6400000001,"ADDRESS":"怡東路１５０巷８號十一樓","OBJECTID":374261},"geometry":{"x":170921.70999999996,"y":2543913.6400000025}},{"attributes":{"ID":374272,"DIS_CODE":0,"TOWNNAME":"東區","LI":"東光里","LIN":"10鄰","STREET":"怡東路","SECT":" ","MAREA":" ","LANE":"１５０巷","ALLEY":" ","HOUSE_NO":"１０號二樓","E_COORD97":170923.72,"N_COORD97":2543921.96,"ADDRESS":"怡東路１５０巷１０號二樓","OBJECTID":374262},"geometry":{"x":170923.71999999881,"y":2543921.9600000028}},{"attributes":{"ID":374273,"DIS_CODE":0,"TOWNNAME":"東區","LI":"東光里","LIN":"10鄰","STREET":"怡東路","SECT":" ","MAREA":" ","LANE":"１５０巷","ALLEY":" ","HOUSE_NO":"１０號三樓","E_COORD97":170923.72,"N_COORD97":2543921.96,"ADDRESS":"怡東路１５０巷１０號三樓","OBJECTID":374263},"geometry":{"x":170923.71999999881,"y":2543921.9600000028}},{"attributes":{"ID":374274,"DIS_CODE":0,"TOWNNAME":"東區","LI":"東光里","LIN":"10鄰","STREET":"怡東路","SECT":" ","MAREA":" ","LANE":"１５０巷","ALLEY":" ","HOUSE_NO":"１０號四樓","E_COORD97":170923.72,"N_COORD97":2543921.96,"ADDRESS":"怡東路１５０巷１０號四樓","OBJECTID":374264},"geometry":{"x":170923.71999999881,"y":2543921.9600000028}},{"attributes":{"ID":374275,"DIS_CODE":0,"TOWNNAME":"東區","LI":"東光里","LIN":"10鄰","STREET":"怡東路","SECT":" ","MAREA":" ","LANE":"１５０巷","ALLEY":" ","HOUSE_NO":"１０號五樓","E_COORD97":170923.72,"N_COORD97":2543921.96,"ADDRESS":"怡東路１５０巷１０號五樓","OBJECTID":374265},"geometry":{"x":170923.71999999881,"y":2543921.9600000028}},{"attributes":{"ID":374276,"DIS_CODE":0,"TOWNNAME":"東區","LI":"東光里","LIN":"10鄰","STREET":"怡東路","SECT":" ","MAREA":" ","LANE":"１５０巷","ALLEY":" ","HOUSE_NO":"１０號六樓","E_COORD97":170923.72,"N_COORD97":2543921.96,"ADDRESS":"怡東路１５０巷１０號六樓","OBJECTID":374266},"geometry":{"x":170923.71999999881,"y":2543921.9600000028}},{"attributes":{"ID":374277,"DIS_CODE":0,"TOWNNAME":"東區","LI":"東光里","LIN":"10鄰","STREET":"怡東路","SECT":" ","MAREA":" ","LANE":"１５０巷","ALLEY":" ","HOUSE_NO":"１０號七樓","E_COORD97":170923.72,"N_COORD97":2543921.96,"ADDRESS":"怡東路１５０巷１０號七樓","OBJECTID":374267},"geometry":{"x":170923.71999999881,"y":2543921.9600000028}},{"attributes":{"ID":374278,"DIS_CODE":0,"TOWNNAME":"安南區","LI":"安慶里","LIN":"13鄰","STREET":"怡安路","SECT":"一段","MAREA":" ","LANE":" ","ALLEY":" ","HOUSE_NO":"３３號","E_COORD97":169458.37,"N_COORD97":2548950.0899999999,"ADDRESS":"怡安路一段３３號","OBJECTID":374268},"geometry":{"x":169458.37000000011,"y":2548950.0900000017}},{"attributes":{"ID":374279,"DIS_CODE":0,"TOWNNAME":"東區","LI":"東光里","LIN":"10鄰","STREET":"怡東路","SECT":" ","MAREA":" ","LANE":"１５０巷","ALLEY":" ","HOUSE_NO":"１０號八樓","E_COORD97":170923.72,"N_COORD97":2543921.96,"ADDRESS":"怡東路１５０巷１０號八樓","OBJECTID":374269},"geometry":{"x":170923.71999999881,"y":2543921.9600000028}},{"attributes":{"ID":374280,"DIS_CODE":0,"TOWNNAME":"東區","LI":"東光里","LIN":"10鄰","STREET":"怡東路","SECT":" ","MAREA":" ","LANE":"１５０巷","ALLEY":" ","HOUSE_NO":"１０號九樓","E_COORD97":170923.72,"N_COORD97":2543921.96,"ADDRESS":"怡東路１５０巷１０號九樓","OBJECTID":374270},"geometry":{"x":170923.71999999881,"y":2543921.9600000028}},{"attributes":{"ID":374281,"DIS_CODE":0,"TOWNNAME":"東區","LI":"東光里","LIN":"10鄰","STREET":"怡東路","SECT":" ","MAREA":" ","LANE":"１５０巷","ALLEY":" ","HOUSE_NO":"１０號十樓","E_COORD97":170923.72,"N_COORD97":2543921.96,"ADDRESS":"怡東路１５０巷１０號十樓","OBJECTID":374271},"geometry":{"x":170923.71999999881,"y":2543921.9600000028}},{"attributes":{"ID":374282,"DIS_CODE":0,"TOWNNAME":"東區","LI":"東光里","LIN":"10鄰","STREET":"怡東路","SECT":" ","MAREA":" ","LANE":"１５０巷","ALLEY":" ","HOUSE_NO":"１０號十一樓","E_COORD97":170923.72,"N_COORD97":2543921.96,"ADDRESS":"怡東路１５０巷１０號十一樓","OBJECTID":374272},"geometry":{"x":170923.71999999881,"y":2543921.9600000028}},{"attributes":{"ID":374283,"DIS_CODE":0,"TOWNNAME":"仁德區","LI":"保安里","LIN":"10鄰","STREET":"中正路","SECT":"一段","MAREA":" ","LANE":"２７３巷","ALLEY":" ","HOUSE_NO":"３號二樓","E_COORD97":171858.29000000001,"N_COORD97":2536039.52,"ADDRESS":"中正路一段２７３巷３號二樓","OBJECTID":374273},"geometry":{"x":171858.29000000097,"y":2536039.5200000033}},{"attributes":{"ID":374284,"DIS_CODE":0,"TOWNNAME":"仁德區","LI":"保安里","LIN":"10鄰","STREET":"中正路","SECT":"一段","MAREA":" ","LANE":"２７３巷","ALLEY":" ","HOUSE_NO":"３號三樓","E_COORD97":171858.29000000001,"N_COORD97":2536039.52,"ADDRESS":"中正路一段２７３巷３號三樓","OBJECTID":374274},"geometry":{"x":171858.29000000097,"y":2536039.5200000033}},{"attributes":{"ID":374285,"DIS_CODE":0,"TOWNNAME":"永康區","LI":"二王里","LIN":"10鄰","STREET":"二王路","SECT":" ","MAREA":" ","LANE":"１５５巷","ALLEY":" ","HOUSE_NO":"１７號二樓之１","E_COORD97":173022.07000000001,"N_COORD97":2546505.6400000001,"ADDRESS":"二王路１５５巷１７號二樓之１","OBJECTID":374275},"geometry":{"x":173022.0700000003,"y":2546505.6400000043}},{"attributes":{"ID":374286,"DIS_CODE":0,"TOWNNAME":"永康區","LI":"二王里","LIN":"10鄰","STREET":"二王路","SECT":" ","MAREA":" ","LANE":"１５５巷","ALLEY":" ","HOUSE_NO":"１７號二樓之２","E_COORD97":173022.07000000001,"N_COORD97":2546505.6400000001,"ADDRESS":"二王路１５５巷１７號二樓之２","OBJECTID":374276},"geometry":{"x":173022.0700000003,"y":2546505.6400000043}},{"attributes":{"ID":374287,"DIS_CODE":0,"TOWNNAME":"永康區","LI":"二王里","LIN":"10鄰","STREET":"二王路","SECT":" ","MAREA":" ","LANE":"１５５巷","ALLEY":" ","HOUSE_NO":"１７號三樓之１","E_COORD97":173022.07000000001,"N_COORD97":2546505.6400000001,"ADDRESS":"二王路１５５巷１７號三樓之１","OBJECTID":374277},"geometry":{"x":173022.0700000003,"y":2546505.6400000043}},{"attributes":{"ID":374288,"DIS_CODE":0,"TOWNNAME":"永康區","LI":"二王里","LIN":"10鄰","STREET":"二王路","SECT":" ","MAREA":" ","LANE":"１５５巷","ALLEY":" ","HOUSE_NO":"１７號三樓之２","E_COORD97":173022.07000000001,"N_COORD97":2546505.6400000001,"ADDRESS":"二王路１５５巷１７號三樓之２","OBJECTID":374278},"geometry":{"x":173022.0700000003,"y":2546505.6400000043}},{"attributes":{"ID":374289,"DIS_CODE":0,"TOWNNAME":"永康區","LI":"二王里","LIN":"10鄰","STREET":"二王路","SECT":" ","MAREA":" ","LANE":"１５５巷","ALLEY":" ","HOUSE_NO":"１７號四樓","E_COORD97":173022.07000000001,"N_COORD97":2546505.6400000001,"ADDRESS":"二王路１５５巷１７號四樓","OBJECTID":374279},"geometry":{"x":173022.0700000003,"y":2546505.6400000043}},{"attributes":{"ID":374290,"DIS_CODE":0,"TOWNNAME":"永康區","LI":"二王里","LIN":"10鄰","STREET":"二王路","SECT":" ","MAREA":" ","LANE":"１５５巷","ALLEY":" ","HOUSE_NO":"１７號五樓之１","E_COORD97":173022.07000000001,"N_COORD97":2546505.6400000001,"ADDRESS":"二王路１５５巷１７號五樓之１","OBJECTID":374280},"geometry":{"x":173022.0700000003,"y":2546505.6400000043}},{"attributes":{"ID":374291,"DIS_CODE":0,"TOWNNAME":"永康區","LI":"二王里","LIN":"10鄰","STREET":"二王路","SECT":" ","MAREA":" ","LANE":"１５５巷","ALLEY":" ","HOUSE_NO":"１７號五樓之２","E_COORD97":173022.07000000001,"N_COORD97":2546505.6400000001,"ADDRESS":"二王路１５５巷１７號五樓之２","OBJECTID":374281},"geometry":{"x":173022.0700000003,"y":2546505.6400000043}},{"attributes":{"ID":374292,"DIS_CODE":0,"TOWNNAME":"永康區","LI":"五王里","LIN":"10鄰","STREET":"中山東路","SECT":" ","MAREA":" ","LANE":"２９２巷","ALLEY":" ","HOUSE_NO":"２９號五樓","E_COORD97":171742.26000000001,"N_COORD97":2545595.6000000001,"ADDRESS":"中山東路２９２巷２９號五樓","OBJECTID":374282},"geometry":{"x":171742.25999999885,"y":2545595.5999999996}},{"attributes":{"ID":374293,"DIS_CODE":0,"TOWNNAME":"永康區","LI":"五王里","LIN":"10鄰","STREET":"中山東路","SECT":" ","MAREA":" ","LANE":"２９２巷","ALLEY":" ","HOUSE_NO":"２７號二樓","E_COORD97":171741.10000000001,"N_COORD97":2545600.8500000001,"ADDRESS":"中山東路２９２巷２７號二樓","OBJECTID":374283},"geometry":{"x":171741.09999999963,"y":2545600.8499999996}},{"attributes":{"ID":374294,"DIS_CODE":0,"TOWNNAME":"永康區","LI":"五王里","LIN":"10鄰","STREET":"中山東路","SECT":" ","MAREA":" ","LANE":"２９２巷","ALLEY":" ","HOUSE_NO":"２９號二樓","E_COORD97":171742.26000000001,"N_COORD97":2545595.6000000001,"ADDRESS":"中山東路２９２巷２９號二樓","OBJECTID":374284},"geometry":{"x":171742.25999999885,"y":2545595.5999999996}},{"attributes":{"ID":374295,"DIS_CODE":0,"TOWNNAME":"永康區","LI":"五王里","LIN":"10鄰","STREET":"中山東路","SECT":" ","MAREA":" ","LANE":"２９２巷","ALLEY":" ","HOUSE_NO":"２９號三樓","E_COORD97":171742.26000000001,"N_COORD97":2545595.6000000001,"ADDRESS":"中山東路２９２巷２９號三樓","OBJECTID":374285},"geometry":{"x":171742.25999999885,"y":2545595.5999999996}},{"attributes":{"ID":374296,"DIS_CODE":0,"TOWNNAME":"東區","LI":"自強里","LIN":"10鄰","STREET":"東門路","SECT":"三段","MAREA":" ","LANE":"１１巷","ALLEY":" ","HOUSE_NO":"９號二樓","E_COORD97":171086.53,"N_COORD97":2542427.23,"ADDRESS":"東門路三段１１巷９號二樓","OBJECTID":374286},"geometry":{"x":171086.53000000026,"y":2542427.2300000023}},{"attributes":{"ID":374297,"DIS_CODE":0,"TOWNNAME":"東區","LI":"自強里","LIN":"10鄰","STREET":"東門路","SECT":"三段","MAREA":" ","LANE":"１１巷","ALLEY":" ","HOUSE_NO":"２號四樓之１","E_COORD97":171116.98000000001,"N_COORD97":2542449.0699999998,"ADDRESS":"東門路三段１１巷２號四樓之１","OBJECTID":374287},"geometry":{"x":171116.98000000045,"y":2542449.0700000022}},{"attributes":{"ID":374298,"DIS_CODE":0,"TOWNNAME":"新化區","LI":"協興里","LIN":"10鄰","STREET":"正新路","SECT":" ","MAREA":" ","LANE":"３６３巷","ALLEY":" ","HOUSE_NO":"２０號十二樓之３","E_COORD97":178479.47,"N_COORD97":2548904.2599999998,"ADDRESS":"正新路３６３巷２０號十二樓之３","OBJECTID":374288},"geometry":{"x":178479.47000000067,"y":2548904.2600000035}},{"attributes":{"ID":374299,"DIS_CODE":0,"TOWNNAME":"新化區","LI":"協興里","LIN":"10鄰","STREET":"正新路","SECT":" ","MAREA":" ","LANE":"３６３巷","ALLEY":" ","HOUSE_NO":"２０號五樓之２","E_COORD97":178479.22,"N_COORD97":2548904.2599999998,"ADDRESS":"正新路３６３巷２０號五樓之２","OBJECTID":374289},"geometry":{"x":178479.21999999881,"y":2548904.2600000035}},{"attributes":{"ID":374300,"DIS_CODE":0,"TOWNNAME":"新化區","LI":"協興里","LIN":"10鄰","STREET":"正新路","SECT":" ","MAREA":" ","LANE":"３６３巷","ALLEY":" ","HOUSE_NO":"２０號五樓之１","E_COORD97":178479.20000000001,"N_COORD97":2548904.2599999998,"ADDRESS":"正新路３６３巷２０號五樓之１","OBJECTID":374290},"geometry":{"x":178479.20000000019,"y":2548904.2600000035}},{"attributes":{"ID":374301,"DIS_CODE":0,"TOWNNAME":"新化區","LI":"協興里","LIN":"10鄰","STREET":"正新路","SECT":" ","MAREA":" ","LANE":"３６３巷","ALLEY":" ","HOUSE_NO":"２０號十樓之２","E_COORD97":178479.22,"N_COORD97":2548904.2599999998,"ADDRESS":"正新路３６３巷２０號十樓之２","OBJECTID":374291},"geometry":{"x":178479.21999999881,"y":2548904.2600000035}},{"attributes":{"ID":374302,"DIS_CODE":0,"TOWNNAME":"永康區","LI":"安康里","LIN":"10鄰","STREET":"中華路","SECT":" ","MAREA":" ","LANE":"６１９巷","ALLEY":" ","HOUSE_NO":"５１號一樓之２","E_COORD97":170904.5,"N_COORD97":2545986.29,"ADDRESS":"中華路６１９巷５１號一樓之２","OBJECTID":374292},"geometry":{"x":170904.5,"y":2545986.2899999991}},{"attributes":{"ID":374303,"DIS_CODE":0,"TOWNNAME":"永康區","LI":"安康里","LIN":"10鄰","STREET":"中華路","SECT":" ","MAREA":" ","LANE":"６１９巷","ALLEY":" ","HOUSE_NO":"５１號五樓之１","E_COORD97":170904.37,"N_COORD97":2545986.29,"ADDRESS":"中華路６１９巷５１號五樓之１","OBJECTID":374293},"geometry":{"x":170904.37000000011,"y":2545986.2899999991}},{"attributes":{"ID":374304,"DIS_CODE":0,"TOWNNAME":"東區","LI":"自強里","LIN":"10鄰","STREET":"東門路","SECT":"三段","MAREA":" ","LANE":"１１巷","ALLEY":" ","HOUSE_NO":"１０號三樓之１","E_COORD97":171130.10999999999,"N_COORD97":2542466.1299999999,"ADDRESS":"東門路三段１１巷１０號三樓之１","OBJECTID":374294},"geometry":{"x":171130.11000000034,"y":2542466.1300000027}},{"attributes":{"ID":374305,"DIS_CODE":0,"TOWNNAME":"東區","LI":"自強里","LIN":"10鄰","STREET":"東門路","SECT":"三段","MAREA":" ","LANE":"１１巷","ALLEY":" ","HOUSE_NO":"１０號三樓之２","E_COORD97":171130.10999999999,"N_COORD97":2542466.1299999999,"ADDRESS":"東門路三段１１巷１０號三樓之２","OBJECTID":374295},"geometry":{"x":171130.11000000034,"y":2542466.1300000027}},{"attributes":{"ID":374306,"DIS_CODE":0,"TOWNNAME":"東區","LI":"自強里","LIN":"10鄰","STREET":"東門路","SECT":"三段","MAREA":" ","LANE":"１１巷","ALLEY":" ","HOUSE_NO":"１０號三樓之３","E_COORD97":171130.10999999999,"N_COORD97":2542466.1299999999,"ADDRESS":"東門路三段１１巷１０號三樓之３","OBJECTID":374296},"geometry":{"x":171130.11000000034,"y":2542466.1300000027}},{"attributes":{"ID":374307,"DIS_CODE":0,"TOWNNAME":"東區","LI":"自強里","LIN":"10鄰","STREET":"東門路","SECT":"三段","MAREA":" ","LANE":"１１巷","ALLEY":" ","HOUSE_NO":"１０號五樓之１","E_COORD97":171130.10999999999,"N_COORD97":2542466.1299999999,"ADDRESS":"東門路三段１１巷１０號五樓之１","OBJECTID":374297},"geometry":{"x":171130.11000000034,"y":2542466.1300000027}},{"attributes":{"ID":374308,"DIS_CODE":0,"TOWNNAME":"東區","LI":"自強里","LIN":"10鄰","STREET":"東門路","SECT":"三段","MAREA":" ","LANE":"１１巷","ALLEY":" ","HOUSE_NO":"１０號五樓之２","E_COORD97":171130.10999999999,"N_COORD97":2542466.1299999999,"ADDRESS":"東門路三段１１巷１０號五樓之２","OBJECTID":374298},"geometry":{"x":171130.11000000034,"y":2542466.1300000027}},{"attributes":{"ID":374309,"DIS_CODE":0,"TOWNNAME":"東區","LI":"自強里","LIN":"10鄰","STREET":"東門路","SECT":"三段","MAREA":" ","LANE":"１１巷","ALLEY":" ","HOUSE_NO":"１０號五樓之３","E_COORD97":171130.10999999999,"N_COORD97":2542466.1299999999,"ADDRESS":"東門路三段１１巷１０號五樓之３","OBJECTID":374299},"geometry":{"x":171130.11000000034,"y":2542466.1300000027}},{"attributes":{"ID":374310,"DIS_CODE":0,"TOWNNAME":"東區","LI":"自強里","LIN":"10鄰","STREET":"東門路","SECT":"三段","MAREA":" ","LANE":"１１巷","ALLEY":" ","HOUSE_NO":"１０號四樓之１","E_COORD97":171130.10999999999,"N_COORD97":2542466.1299999999,"ADDRESS":"東門路三段１１巷１０號四樓之１","OBJECTID":374300},"geometry":{"x":171130.11000000034,"y":2542466.1300000027}},{"attributes":{"ID":374311,"DIS_CODE":0,"TOWNNAME":"東區","LI":"自強里","LIN":"10鄰","STREET":"東門路","SECT":"三段","MAREA":" ","LANE":"１１巷","ALLEY":" ","HOUSE_NO":"１０號四樓之２","E_COORD97":171130.10999999999,"N_COORD97":2542466.1299999999,"ADDRESS":"東門路三段１１巷１０號四樓之２","OBJECTID":374301},"geometry":{"x":171130.11000000034,"y":2542466.1300000027}},{"attributes":{"ID":374312,"DIS_CODE":0,"TOWNNAME":"東區","LI":"自強里","LIN":"10鄰","STREET":"東門路","SECT":"三段","MAREA":" ","LANE":"１１巷","ALLEY":" ","HOUSE_NO":"１０號四樓之３","E_COORD97":171130.10999999999,"N_COORD97":2542466.1299999999,"ADDRESS":"東門路三段１１巷１０號四樓之３","OBJECTID":374302},"geometry":{"x":171130.11000000034,"y":2542466.1300000027}},{"attributes":{"ID":374313,"DIS_CODE":0,"TOWNNAME":"東區","LI":"自強里","LIN":"10鄰","STREET":"東門路","SECT":"三段","MAREA":" ","LANE":"１１巷","ALLEY":" ","HOUSE_NO":"１１號七樓","E_COORD97":171093.51000000001,"N_COORD97":2542436.6000000001,"ADDRESS":"東門路三段１１巷１１號七樓","OBJECTID":374303},"geometry":{"x":171093.51000000071,"y":2542436.6000000034}},{"attributes":{"ID":374314,"DIS_CODE":0,"TOWNNAME":"東區","LI":"自強里","LIN":"10鄰","STREET":"東門路","SECT":"三段","MAREA":" ","LANE":"１１巷","ALLEY":" ","HOUSE_NO":"１１號二樓","E_COORD97":171093.51000000001,"N_COORD97":2542436.6000000001,"ADDRESS":"東門路三段１１巷１１號二樓","OBJECTID":374304},"geometry":{"x":171093.51000000071,"y":2542436.6000000034}},{"attributes":{"ID":374315,"DIS_CODE":0,"TOWNNAME":"東區","LI":"自強里","LIN":"10鄰","STREET":"東門路","SECT":"三段","MAREA":" ","LANE":"１１巷","ALLEY":" ","HOUSE_NO":"１１號三樓","E_COORD97":171093.51000000001,"N_COORD97":2542436.6000000001,"ADDRESS":"東門路三段１１巷１１號三樓","OBJECTID":374305},"geometry":{"x":171093.51000000071,"y":2542436.6000000034}},{"attributes":{"ID":374316,"DIS_CODE":0,"TOWNNAME":"東區","LI":"自強里","LIN":"10鄰","STREET":"東門路","SECT":"三段","MAREA":" ","LANE":"１１巷","ALLEY":" ","HOUSE_NO":"１１號五樓","E_COORD97":171093.51000000001,"N_COORD97":2542436.6000000001,"ADDRESS":"東門路三段１１巷１１號五樓","OBJECTID":374306},"geometry":{"x":171093.51000000071,"y":2542436.6000000034}},{"attributes":{"ID":374317,"DIS_CODE":0,"TOWNNAME":"東區","LI":"自強里","LIN":"10鄰","STREET":"東門路","SECT":"三段","MAREA":" ","LANE":"１１巷","ALLEY":" ","HOUSE_NO":"１１號六樓","E_COORD97":171093.51000000001,"N_COORD97":2542436.6000000001,"ADDRESS":"東門路三段１１巷１１號六樓","OBJECTID":374307},"geometry":{"x":171093.51000000071,"y":2542436.6000000034}},{"attributes":{"ID":374318,"DIS_CODE":0,"TOWNNAME":"東區","LI":"自強里","LIN":"10鄰","STREET":"東門路","SECT":"三段","MAREA":" ","LANE":"１１巷","ALLEY":" ","HOUSE_NO":"１１號四樓","E_COORD97":171093.51000000001,"N_COORD97":2542436.6000000001,"ADDRESS":"東門路三段１１巷１１號四樓","OBJECTID":374308},"geometry":{"x":171093.51000000071,"y":2542436.6000000034}},{"attributes":{"ID":374319,"DIS_CODE":0,"TOWNNAME":"東區","LI":"自強里","LIN":"10鄰","STREET":"東門路","SECT":"三段","MAREA":" ","LANE":"１１巷","ALLEY":" ","HOUSE_NO":"１８號三樓","E_COORD97":171154.45999999999,"N_COORD97":2542467.0800000001,"ADDRESS":"東門路三段１１巷１８號三樓","OBJECTID":374309},"geometry":{"x":171154.45999999996,"y":2542467.0800000001}},{"attributes":{"ID":374320,"DIS_CODE":0,"TOWNNAME":"東區","LI":"自強里","LIN":"10鄰","STREET":"東門路","SECT":"三段","MAREA":" ","LANE":"１１巷","ALLEY":" ","HOUSE_NO":"７號七樓","E_COORD97":171080.92999999999,"N_COORD97":2542421.0499999998,"ADDRESS":"東門路三段１１巷７號七樓","OBJECTID":374310},"geometry":{"x":171080.9299999997,"y":2542421.0500000045}},{"attributes":{"ID":374321,"DIS_CODE":0,"TOWNNAME":"東區","LI":"自強里","LIN":"10鄰","STREET":"東門路","SECT":"三段","MAREA":" ","LANE":"１１巷","ALLEY":" ","HOUSE_NO":"１８號五樓","E_COORD97":171154.45999999999,"N_COORD97":2542467.0800000001,"ADDRESS":"東門路三段１１巷１８號五樓","OBJECTID":374311},"geometry":{"x":171154.45999999996,"y":2542467.0800000001}},{"attributes":{"ID":374322,"DIS_CODE":0,"TOWNNAME":"東區","LI":"自強里","LIN":"10鄰","STREET":"東門路","SECT":"三段","MAREA":" ","LANE":"１１巷","ALLEY":" ","HOUSE_NO":"１８號四樓","E_COORD97":171154.45999999999,"N_COORD97":2542467.0800000001,"ADDRESS":"東門路三段１１巷１８號四樓","OBJECTID":374312},"geometry":{"x":171154.45999999996,"y":2542467.0800000001}},{"attributes":{"ID":374323,"DIS_CODE":0,"TOWNNAME":"東區","LI":"自強里","LIN":"10鄰","STREET":"東門路","SECT":"三段","MAREA":" ","LANE":"１１巷","ALLEY":" ","HOUSE_NO":"１號二樓","E_COORD97":171059.54000000001,"N_COORD97":2542395.1499999999,"ADDRESS":"東門路三段１１巷１號二樓","OBJECTID":374313},"geometry":{"x":171059.54000000097,"y":2542395.1500000004}},{"attributes":{"ID":374324,"DIS_CODE":0,"TOWNNAME":"東區","LI":"自強里","LIN":"10鄰","STREET":"東門路","SECT":"三段","MAREA":" ","LANE":"１１巷","ALLEY":" ","HOUSE_NO":"１號三樓","E_COORD97":171059.54000000001,"N_COORD97":2542395.1499999999,"ADDRESS":"東門路三段１１巷１號三樓","OBJECTID":374314},"geometry":{"x":171059.54000000097,"y":2542395.1500000004}},{"attributes":{"ID":374325,"DIS_CODE":0,"TOWNNAME":"東區","LI":"自強里","LIN":"10鄰","STREET":"東門路","SECT":"三段","MAREA":" ","LANE":"１１巷","ALLEY":" ","HOUSE_NO":"１號五樓","E_COORD97":171059.54000000001,"N_COORD97":2542395.1499999999,"ADDRESS":"東門路三段１１巷１號五樓","OBJECTID":374315},"geometry":{"x":171059.54000000097,"y":2542395.1500000004}},{"attributes":{"ID":374326,"DIS_CODE":0,"TOWNNAME":"東區","LI":"自強里","LIN":"10鄰","STREET":"東門路","SECT":"三段","MAREA":" ","LANE":"１１巷","ALLEY":" ","HOUSE_NO":"１號四樓","E_COORD97":171059.54000000001,"N_COORD97":2542395.1499999999,"ADDRESS":"東門路三段１１巷１號四樓","OBJECTID":374316},"geometry":{"x":171059.54000000097,"y":2542395.1500000004}},{"attributes":{"ID":374327,"DIS_CODE":0,"TOWNNAME":"東區","LI":"自強里","LIN":"10鄰","STREET":"東門路","SECT":"三段","MAREA":" ","LANE":"１１巷","ALLEY":" ","HOUSE_NO":"２２號二樓","E_COORD97":171139.59,"N_COORD97":2542449.3900000001,"ADDRESS":"東門路三段１１巷２２號二樓","OBJECTID":374317},"geometry":{"x":171139.58999999985,"y":2542449.3900000025}},{"attributes":{"ID":374328,"DIS_CODE":0,"TOWNNAME":"東區","LI":"自強里","LIN":"10鄰","STREET":"東門路","SECT":"三段","MAREA":" ","LANE":"１１巷","ALLEY":" ","HOUSE_NO":"２２號三樓","E_COORD97":171139.59,"N_COORD97":2542449.3900000001,"ADDRESS":"東門路三段１１巷２２號三樓","OBJECTID":374318},"geometry":{"x":171139.58999999985,"y":2542449.3900000025}},{"attributes":{"ID":374329,"DIS_CODE":0,"TOWNNAME":"東區","LI":"自強里","LIN":"10鄰","STREET":"東門路","SECT":"三段","MAREA":" ","LANE":"１１巷","ALLEY":" ","HOUSE_NO":"２２號五樓","E_COORD97":171139.59,"N_COORD97":2542449.3900000001,"ADDRESS":"東門路三段１１巷２２號五樓","OBJECTID":374319},"geometry":{"x":171139.58999999985,"y":2542449.3900000025}},{"attributes":{"ID":374330,"DIS_CODE":0,"TOWNNAME":"東區","LI":"自強里","LIN":"10鄰","STREET":"東門路","SECT":"三段","MAREA":" ","LANE":"１１巷","ALLEY":" ","HOUSE_NO":"２２號四樓","E_COORD97":171139.59,"N_COORD97":2542449.3900000001,"ADDRESS":"東門路三段１１巷２２號四樓","OBJECTID":374320},"geometry":{"x":171139.58999999985,"y":2542449.3900000025}},{"attributes":{"ID":374331,"DIS_CODE":0,"TOWNNAME":"東區","LI":"自強里","LIN":"10鄰","STREET":"東門路","SECT":"三段","MAREA":" ","LANE":"１１巷","ALLEY":" ","HOUSE_NO":"２４號三樓","E_COORD97":171147.03,"N_COORD97":2542459.1800000002,"ADDRESS":"東門路三段１１巷２４號三樓","OBJECTID":374321},"geometry":{"x":171147.03000000026,"y":2542459.1799999997}},{"attributes":{"ID":374332,"DIS_CODE":0,"TOWNNAME":"東區","LI":"自強里","LIN":"10鄰","STREET":"東門路","SECT":"三段","MAREA":" ","LANE":"１１巷","ALLEY":" ","HOUSE_NO":"２４號五樓","E_COORD97":171147.03,"N_COORD97":2542459.1800000002,"ADDRESS":"東門路三段１１巷２４號五樓","OBJECTID":374322},"geometry":{"x":171147.03000000026,"y":2542459.1799999997}},{"attributes":{"ID":374333,"DIS_CODE":0,"TOWNNAME":"東區","LI":"自強里","LIN":"10鄰","STREET":"東門路","SECT":"三段","MAREA":" ","LANE":"１１巷","ALLEY":" ","HOUSE_NO":"２４號四樓","E_COORD97":171147.03,"N_COORD97":2542459.1800000002,"ADDRESS":"東門路三段１１巷２４號四樓","OBJECTID":374323},"geometry":{"x":171147.03000000026,"y":2542459.1799999997}},{"attributes":{"ID":374334,"DIS_CODE":0,"TOWNNAME":"東區","LI":"自強里","LIN":"10鄰","STREET":"東門路","SECT":"三段","MAREA":" ","LANE":"１１巷","ALLEY":" ","HOUSE_NO":"２號三樓之１","E_COORD97":171116.98000000001,"N_COORD97":2542449.0699999998,"ADDRESS":"東門路三段１１巷２號三樓之１","OBJECTID":374324},"geometry":{"x":171116.98000000045,"y":2542449.0700000022}},{"attributes":{"ID":374335,"DIS_CODE":0,"TOWNNAME":"東區","LI":"自強里","LIN":"10鄰","STREET":"東門路","SECT":"三段","MAREA":" ","LANE":"１１巷","ALLEY":" ","HOUSE_NO":"２號三樓之２","E_COORD97":171116.98000000001,"N_COORD97":2542449.0699999998,"ADDRESS":"東門路三段１１巷２號三樓之２","OBJECTID":374325},"geometry":{"x":171116.98000000045,"y":2542449.0700000022}},{"attributes":{"ID":374336,"DIS_CODE":0,"TOWNNAME":"東區","LI":"自強里","LIN":"10鄰","STREET":"東門路","SECT":"三段","MAREA":" ","LANE":"１１巷","ALLEY":" ","HOUSE_NO":"２號三樓之３","E_COORD97":171116.98000000001,"N_COORD97":2542449.0699999998,"ADDRESS":"東門路三段１１巷２號三樓之３","OBJECTID":374326},"geometry":{"x":171116.98000000045,"y":2542449.0700000022}},{"attributes":{"ID":374337,"DIS_CODE":0,"TOWNNAME":"東區","LI":"自強里","LIN":"10鄰","STREET":"東門路","SECT":"三段","MAREA":" ","LANE":"１１巷","ALLEY":" ","HOUSE_NO":"２號五樓之１","E_COORD97":171116.98000000001,"N_COORD97":2542449.0699999998,"ADDRESS":"東門路三段１１巷２號五樓之１","OBJECTID":374327},"geometry":{"x":171116.98000000045,"y":2542449.0700000022}},{"attributes":{"ID":374338,"DIS_CODE":0,"TOWNNAME":"東區","LI":"自強里","LIN":"10鄰","STREET":"東門路","SECT":"三段","MAREA":" ","LANE":"１１巷","ALLEY":" ","HOUSE_NO":"２號五樓之２","E_COORD97":171116.98000000001,"N_COORD97":2542449.0699999998,"ADDRESS":"東門路三段１１巷２號五樓之２","OBJECTID":374328},"geometry":{"x":171116.98000000045,"y":2542449.0700000022}},{"attributes":{"ID":374339,"DIS_CODE":0,"TOWNNAME":"東區","LI":"自強里","LIN":"10鄰","STREET":"東門路","SECT":"三段","MAREA":" ","LANE":"１１巷","ALLEY":" ","HOUSE_NO":"２號五樓之３","E_COORD97":171116.98000000001,"N_COORD97":2542449.0699999998,"ADDRESS":"東門路三段１１巷２號五樓之３","OBJECTID":374329},"geometry":{"x":171116.98000000045,"y":2542449.0700000022}},{"attributes":{"ID":374340,"DIS_CODE":0,"TOWNNAME":"東區","LI":"自強里","LIN":"10鄰","STREET":"東門路","SECT":"三段","MAREA":" ","LANE":"１１巷","ALLEY":" ","HOUSE_NO":"２號四樓之２","E_COORD97":171116.98000000001,"N_COORD97":2542449.0699999998,"ADDRESS":"東門路三段１１巷２號四樓之２","OBJECTID":374330},"geometry":{"x":171116.98000000045,"y":2542449.0700000022}},{"attributes":{"ID":374341,"DIS_CODE":0,"TOWNNAME":"東區","LI":"自強里","LIN":"10鄰","STREET":"東門路","SECT":"三段","MAREA":" ","LANE":"１１巷","ALLEY":" ","HOUSE_NO":"２號四樓之３","E_COORD97":171116.98000000001,"N_COORD97":2542449.0699999998,"ADDRESS":"東門路三段１１巷２號四樓之３","OBJECTID":374331},"geometry":{"x":171116.98000000045,"y":2542449.0700000022}},{"attributes":{"ID":374342,"DIS_CODE":0,"TOWNNAME":"東區","LI":"自強里","LIN":"10鄰","STREET":"東門路","SECT":"三段","MAREA":" ","LANE":"１１巷","ALLEY":" ","HOUSE_NO":"３號二樓","E_COORD97":171065.29000000001,"N_COORD97":2542400.4900000002,"ADDRESS":"東門路三段１１巷３號二樓","OBJECTID":374332},"geometry":{"x":171065.29000000004,"y":2542400.4900000039}},{"attributes":{"ID":374343,"DIS_CODE":0,"TOWNNAME":"東區","LI":"自強里","LIN":"10鄰","STREET":"東門路","SECT":"三段","MAREA":" ","LANE":"１１巷","ALLEY":" ","HOUSE_NO":"３號三樓","E_COORD97":171065.29000000001,"N_COORD97":2542400.4900000002,"ADDRESS":"東門路三段１１巷３號三樓","OBJECTID":374333},"geometry":{"x":171065.29000000004,"y":2542400.4900000039}},{"attributes":{"ID":374344,"DIS_CODE":0,"TOWNNAME":"東區","LI":"自強里","LIN":"10鄰","STREET":"東門路","SECT":"三段","MAREA":" ","LANE":"１１巷","ALLEY":" ","HOUSE_NO":"３號五樓","E_COORD97":171065.29000000001,"N_COORD97":2542400.4900000002,"ADDRESS":"東門路三段１１巷３號五樓","OBJECTID":374334},"geometry":{"x":171065.29000000004,"y":2542400.4900000039}},{"attributes":{"ID":374345,"DIS_CODE":0,"TOWNNAME":"東區","LI":"自強里","LIN":"10鄰","STREET":"東門路","SECT":"三段","MAREA":" ","LANE":"１１巷","ALLEY":" ","HOUSE_NO":"３號四樓","E_COORD97":171065.29000000001,"N_COORD97":2542400.4900000002,"ADDRESS":"東門路三段１１巷３號四樓","OBJECTID":374335},"geometry":{"x":171065.29000000004,"y":2542400.4900000039}},{"attributes":{"ID":374346,"DIS_CODE":0,"TOWNNAME":"東區","LI":"自強里","LIN":"10鄰","STREET":"東門路","SECT":"三段","MAREA":" ","LANE":"１１巷","ALLEY":" ","HOUSE_NO":"５號二樓","E_COORD97":171074.79000000001,"N_COORD97":2542413.9300000002,"ADDRESS":"東門路三段１１巷５號二樓","OBJECTID":374336},"geometry":{"x":171074.79000000097,"y":2542413.9300000034}},{"attributes":{"ID":374347,"DIS_CODE":0,"TOWNNAME":"東區","LI":"自強里","LIN":"10鄰","STREET":"東門路","SECT":"三段","MAREA":" ","LANE":"１１巷","ALLEY":" ","HOUSE_NO":"５號三樓","E_COORD97":171074.79000000001,"N_COORD97":2542413.9300000002,"ADDRESS":"東門路三段１１巷５號三樓","OBJECTID":374337},"geometry":{"x":171074.79000000097,"y":2542413.9300000034}},{"attributes":{"ID":374348,"DIS_CODE":0,"TOWNNAME":"東區","LI":"自強里","LIN":"10鄰","STREET":"東門路","SECT":"三段","MAREA":" ","LANE":"１１巷","ALLEY":" ","HOUSE_NO":"５號五樓","E_COORD97":171074.79000000001,"N_COORD97":2542413.9300000002,"ADDRESS":"東門路三段１１巷５號五樓","OBJECTID":374338},"geometry":{"x":171074.79000000097,"y":2542413.9300000034}},{"attributes":{"ID":374349,"DIS_CODE":0,"TOWNNAME":"東區","LI":"自強里","LIN":"10鄰","STREET":"東門路","SECT":"三段","MAREA":" ","LANE":"１１巷","ALLEY":" ","HOUSE_NO":"５號六樓","E_COORD97":171074.79000000001,"N_COORD97":2542413.9300000002,"ADDRESS":"東門路三段１１巷５號六樓","OBJECTID":374339},"geometry":{"x":171074.79000000097,"y":2542413.9300000034}},{"attributes":{"ID":374350,"DIS_CODE":0,"TOWNNAME":"東區","LI":"自強里","LIN":"10鄰","STREET":"東門路","SECT":"三段","MAREA":" ","LANE":"１１巷","ALLEY":" ","HOUSE_NO":"５號四樓","E_COORD97":171074.79000000001,"N_COORD97":2542413.9300000002,"ADDRESS":"東門路三段１１巷５號四樓","OBJECTID":374340},"geometry":{"x":171074.79000000097,"y":2542413.9300000034}},{"attributes":{"ID":374351,"DIS_CODE":0,"TOWNNAME":"東區","LI":"自強里","LIN":"10鄰","STREET":"東門路","SECT":"三段","MAREA":" ","LANE":"１１巷","ALLEY":" ","HOUSE_NO":"７號二樓","E_COORD97":171080.92999999999,"N_COORD97":2542421.0499999998,"ADDRESS":"東門路三段１１巷７號二樓","OBJECTID":374341},"geometry":{"x":171080.9299999997,"y":2542421.0500000045}},{"attributes":{"ID":374352,"DIS_CODE":0,"TOWNNAME":"東區","LI":"自強里","LIN":"10鄰","STREET":"東門路","SECT":"三段","MAREA":" ","LANE":"１１巷","ALLEY":" ","HOUSE_NO":"７號三樓","E_COORD97":171080.92999999999,"N_COORD97":2542421.0499999998,"ADDRESS":"東門路三段１１巷７號三樓","OBJECTID":374342},"geometry":{"x":171080.9299999997,"y":2542421.0500000045}},{"attributes":{"ID":374353,"DIS_CODE":0,"TOWNNAME":"東區","LI":"自強里","LIN":"10鄰","STREET":"東門路","SECT":"三段","MAREA":" ","LANE":"１１巷","ALLEY":" ","HOUSE_NO":"７號五樓","E_COORD97":171080.92999999999,"N_COORD97":2542421.0499999998,"ADDRESS":"東門路三段１１巷７號五樓","OBJECTID":374343},"geometry":{"x":171080.9299999997,"y":2542421.0500000045}},{"attributes":{"ID":374354,"DIS_CODE":0,"TOWNNAME":"東區","LI":"自強里","LIN":"10鄰","STREET":"東門路","SECT":"三段","MAREA":" ","LANE":"１１巷","ALLEY":" ","HOUSE_NO":"７號六樓","E_COORD97":171080.92999999999,"N_COORD97":2542421.0499999998,"ADDRESS":"東門路三段１１巷７號六樓","OBJECTID":374344},"geometry":{"x":171080.9299999997,"y":2542421.0500000045}},{"attributes":{"ID":374355,"DIS_CODE":0,"TOWNNAME":"東區","LI":"自強里","LIN":"10鄰","STREET":"東門路","SECT":"三段","MAREA":" ","LANE":"１１巷","ALLEY":" ","HOUSE_NO":"７號四樓","E_COORD97":171080.92999999999,"N_COORD97":2542421.0499999998,"ADDRESS":"東門路三段１１巷７號四樓","OBJECTID":374345},"geometry":{"x":171080.9299999997,"y":2542421.0500000045}},{"attributes":{"ID":374356,"DIS_CODE":0,"TOWNNAME":"東區","LI":"自強里","LIN":"10鄰","STREET":"東門路","SECT":"三段","MAREA":" ","LANE":"１１巷","ALLEY":" ","HOUSE_NO":"９號七樓","E_COORD97":171086.53,"N_COORD97":2542427.23,"ADDRESS":"東門路三段１１巷９號七樓","OBJECTID":374346},"geometry":{"x":171086.53000000026,"y":2542427.2300000023}},{"attributes":{"ID":374357,"DIS_CODE":0,"TOWNNAME":"東區","LI":"大同里","LIN":"10鄰","STREET":"大同路","SECT":"一段","MAREA":" ","LANE":"１１５巷","ALLEY":" ","HOUSE_NO":"１２號四樓","E_COORD97":169193.5,"N_COORD97":2542947.6099999999,"ADDRESS":"大同路一段１１５巷１２號四樓","OBJECTID":374347},"geometry":{"x":169193.50000000093,"y":2542947.6099999994}},{"attributes":{"ID":374358,"DIS_CODE":0,"TOWNNAME":"中西區","LI":"三合里","LIN":"10鄰","STREET":"忠孝街","SECT":" ","MAREA":" ","LANE":"９３巷","ALLEY":" ","HOUSE_NO":"４５號之１二樓之１","E_COORD97":167596.17999999999,"N_COORD97":2544588.2200000002,"ADDRESS":"忠孝街９３巷４５號之１二樓之１","OBJECTID":374348},"geometry":{"x":167596.1799999997,"y":2544588.2200000007}},{"attributes":{"ID":374359,"DIS_CODE":0,"TOWNNAME":"中西區","LI":"三合里","LIN":"10鄰","STREET":"忠孝街","SECT":" ","MAREA":" ","LANE":"９３巷","ALLEY":" ","HOUSE_NO":"４５號之１二樓之２","E_COORD97":167596.17999999999,"N_COORD97":2544588.2200000002,"ADDRESS":"忠孝街９３巷４５號之１二樓之２","OBJECTID":374349},"geometry":{"x":167596.1799999997,"y":2544588.2200000007}},{"attributes":{"ID":374360,"DIS_CODE":0,"TOWNNAME":"中西區","LI":"三合里","LIN":"10鄰","STREET":"忠孝街","SECT":" ","MAREA":" ","LANE":"９３巷","ALLEY":" ","HOUSE_NO":"４５號之１三樓之１","E_COORD97":167596.17999999999,"N_COORD97":2544588.2200000002,"ADDRESS":"忠孝街９３巷４５號之１三樓之１","OBJECTID":374350},"geometry":{"x":167596.1799999997,"y":2544588.2200000007}},{"attributes":{"ID":374361,"DIS_CODE":0,"TOWNNAME":"中西區","LI":"三合里","LIN":"10鄰","STREET":"忠孝街","SECT":" ","MAREA":" ","LANE":"９３巷","ALLEY":" ","HOUSE_NO":"４５號之１三樓之２","E_COORD97":167596.17999999999,"N_COORD97":2544588.2200000002,"ADDRESS":"忠孝街９３巷４５號之１三樓之２","OBJECTID":374351},"geometry":{"x":167596.1799999997,"y":2544588.2200000007}},{"attributes":{"ID":374362,"DIS_CODE":0,"TOWNNAME":"中西區","LI":"三合里","LIN":"10鄰","STREET":"忠孝街","SECT":" ","MAREA":" ","LANE":"９３巷","ALLEY":" ","HOUSE_NO":"４５號之１五樓之１","E_COORD97":167596.17999999999,"N_COORD97":2544588.2200000002,"ADDRESS":"忠孝街９３巷４５號之１五樓之１","OBJECTID":374352},"geometry":{"x":167596.1799999997,"y":2544588.2200000007}},{"attributes":{"ID":374363,"DIS_CODE":0,"TOWNNAME":"中西區","LI":"三合里","LIN":"10鄰","STREET":"忠孝街","SECT":" ","MAREA":" ","LANE":"９３巷","ALLEY":" ","HOUSE_NO":"４５號之１五樓之２","E_COORD97":167596.17999999999,"N_COORD97":2544588.2200000002,"ADDRESS":"忠孝街９３巷４５號之１五樓之２","OBJECTID":374353},"geometry":{"x":167596.1799999997,"y":2544588.2200000007}},{"attributes":{"ID":374364,"DIS_CODE":0,"TOWNNAME":"中西區","LI":"三合里","LIN":"10鄰","STREET":"忠孝街","SECT":" ","MAREA":" ","LANE":"９３巷","ALLEY":" ","HOUSE_NO":"４５號之１四樓之１","E_COORD97":167596.17999999999,"N_COORD97":2544588.2200000002,"ADDRESS":"忠孝街９３巷４５號之１四樓之１","OBJECTID":374354},"geometry":{"x":167596.1799999997,"y":2544588.2200000007}},{"attributes":{"ID":374365,"DIS_CODE":0,"TOWNNAME":"中西區","LI":"三合里","LIN":"10鄰","STREET":"忠孝街","SECT":" ","MAREA":" ","LANE":"９３巷","ALLEY":" ","HOUSE_NO":"４５號之１四樓之２","E_COORD97":167596.17999999999,"N_COORD97":2544588.2200000002,"ADDRESS":"忠孝街９３巷４５號之１四樓之２","OBJECTID":374355},"geometry":{"x":167596.1799999997,"y":2544588.2200000007}},{"attributes":{"ID":374366,"DIS_CODE":0,"TOWNNAME":"中西區","LI":"三合里","LIN":"10鄰","STREET":"信義街","SECT":" ","MAREA":" ","LANE":"４６巷","ALLEY":" ","HOUSE_NO":"２７號二樓","E_COORD97":167613.67999999999,"N_COORD97":2544565.4399999999,"ADDRESS":"信義街４６巷２７號二樓","OBJECTID":374356},"geometry":{"x":167613.68000000063,"y":2544565.4399999995}},{"attributes":{"ID":374367,"DIS_CODE":0,"TOWNNAME":"中西區","LI":"三合里","LIN":"10鄰","STREET":"信義街","SECT":" ","MAREA":" ","LANE":"４６巷","ALLEY":" ","HOUSE_NO":"２７號三樓","E_COORD97":167613.67999999999,"N_COORD97":2544565.4399999999,"ADDRESS":"信義街４６巷２７號三樓","OBJECTID":374357},"geometry":{"x":167613.68000000063,"y":2544565.4399999995}},{"attributes":{"ID":374368,"DIS_CODE":0,"TOWNNAME":"中西區","LI":"三合里","LIN":"10鄰","STREET":"信義街","SECT":" ","MAREA":" ","LANE":"４６巷","ALLEY":" ","HOUSE_NO":"２７號五樓","E_COORD97":167613.67999999999,"N_COORD97":2544565.4399999999,"ADDRESS":"信義街４６巷２７號五樓","OBJECTID":374358},"geometry":{"x":167613.68000000063,"y":2544565.4399999995}},{"attributes":{"ID":374369,"DIS_CODE":0,"TOWNNAME":"中西區","LI":"三合里","LIN":"10鄰","STREET":"信義街","SECT":" ","MAREA":" ","LANE":"４６巷","ALLEY":" ","HOUSE_NO":"２７號四樓","E_COORD97":167613.67999999999,"N_COORD97":2544565.4399999999,"ADDRESS":"信義街４６巷２７號四樓","OBJECTID":374359},"geometry":{"x":167613.68000000063,"y":2544565.4399999995}},{"attributes":{"ID":374370,"DIS_CODE":0,"TOWNNAME":"中西區","LI":"大涼里","LIN":"10鄰","STREET":"府前路","SECT":"二段","MAREA":" ","LANE":"２５８巷","ALLEY":" ","HOUSE_NO":"３１號二樓之１２","E_COORD97":167026.88,"N_COORD97":2543756.5600000001,"ADDRESS":"府前路二段２５８巷３１號二樓之１２","OBJECTID":374360},"geometry":{"x":167026.87999999989,"y":2543756.5600000042}},{"attributes":{"ID":374371,"DIS_CODE":0,"TOWNNAME":"中西區","LI":"大涼里","LIN":"10鄰","STREET":"府前路","SECT":"二段","MAREA":" ","LANE":"２５８巷","ALLEY":" ","HOUSE_NO":"３１號二樓之１３","E_COORD97":167026.88,"N_COORD97":2543756.5600000001,"ADDRESS":"府前路二段２５８巷３１號二樓之１３","OBJECTID":374361},"geometry":{"x":167026.87999999989,"y":2543756.5600000042}},{"attributes":{"ID":374372,"DIS_CODE":0,"TOWNNAME":"中西區","LI":"大涼里","LIN":"10鄰","STREET":"府前路","SECT":"二段","MAREA":" ","LANE":"２５８巷","ALLEY":" ","HOUSE_NO":"３１號二樓之１４","E_COORD97":167026.88,"N_COORD97":2543756.5600000001,"ADDRESS":"府前路二段２５８巷３１號二樓之１４","OBJECTID":374362},"geometry":{"x":167026.87999999989,"y":2543756.5600000042}},{"attributes":{"ID":374373,"DIS_CODE":0,"TOWNNAME":"中西區","LI":"大涼里","LIN":"10鄰","STREET":"府前路","SECT":"二段","MAREA":" ","LANE":"２５８巷","ALLEY":" ","HOUSE_NO":"３１號二樓之１５","E_COORD97":167026.88,"N_COORD97":2543756.5600000001,"ADDRESS":"府前路二段２５８巷３１號二樓之１５","OBJECTID":374363},"geometry":{"x":167026.87999999989,"y":2543756.5600000042}},{"attributes":{"ID":374374,"DIS_CODE":0,"TOWNNAME":"中西區","LI":"大涼里","LIN":"10鄰","STREET":"府前路","SECT":"二段","MAREA":" ","LANE":"２５８巷","ALLEY":" ","HOUSE_NO":"３１號二樓之１６","E_COORD97":167026.88,"N_COORD97":2543756.5600000001,"ADDRESS":"府前路二段２５８巷３１號二樓之１６","OBJECTID":374364},"geometry":{"x":167026.87999999989,"y":2543756.5600000042}},{"attributes":{"ID":374375,"DIS_CODE":0,"TOWNNAME":"中西區","LI":"大涼里","LIN":"10鄰","STREET":"府前路","SECT":"二段","MAREA":" ","LANE":"２５８巷","ALLEY":" ","HOUSE_NO":"３１號二樓之１７","E_COORD97":167026.88,"N_COORD97":2543756.5600000001,"ADDRESS":"府前路二段２５８巷３１號二樓之１７","OBJECTID":374365},"geometry":{"x":167026.87999999989,"y":2543756.5600000042}},{"attributes":{"ID":374376,"DIS_CODE":0,"TOWNNAME":"中西區","LI":"大涼里","LIN":"10鄰","STREET":"府前路","SECT":"二段","MAREA":" ","LANE":"２５８巷","ALLEY":" ","HOUSE_NO":"３１號二樓之１８","E_COORD97":167026.88,"N_COORD97":2543756.5600000001,"ADDRESS":"府前路二段２５８巷３１號二樓之１８","OBJECTID":374366},"geometry":{"x":167026.87999999989,"y":2543756.5600000042}},{"attributes":{"ID":374377,"DIS_CODE":0,"TOWNNAME":"中西區","LI":"大涼里","LIN":"10鄰","STREET":"府前路","SECT":"二段","MAREA":" ","LANE":"２５８巷","ALLEY":" ","HOUSE_NO":"３１號二樓之２","E_COORD97":167026.88,"N_COORD97":2543756.5600000001,"ADDRESS":"府前路二段２５８巷３１號二樓之２","OBJECTID":374367},"geometry":{"x":167026.87999999989,"y":2543756.5600000042}},{"attributes":{"ID":374378,"DIS_CODE":0,"TOWNNAME":"中西區","LI":"大涼里","LIN":"10鄰","STREET":"府前路","SECT":"二段","MAREA":" ","LANE":"２５８巷","ALLEY":" ","HOUSE_NO":"３１號二樓之３","E_COORD97":167026.88,"N_COORD97":2543756.5600000001,"ADDRESS":"府前路二段２５８巷３１號二樓之３","OBJECTID":374368},"geometry":{"x":167026.87999999989,"y":2543756.5600000042}},{"attributes":{"ID":374379,"DIS_CODE":0,"TOWNNAME":"中西區","LI":"大涼里","LIN":"10鄰","STREET":"府前路","SECT":"二段","MAREA":" ","LANE":"２５８巷","ALLEY":" ","HOUSE_NO":"３１號二樓之４","E_COORD97":167026.88,"N_COORD97":2543756.5600000001,"ADDRESS":"府前路二段２５８巷３１號二樓之４","OBJECTID":374369},"geometry":{"x":167026.87999999989,"y":2543756.5600000042}},{"attributes":{"ID":374380,"DIS_CODE":0,"TOWNNAME":"中西區","LI":"大涼里","LIN":"10鄰","STREET":"府前路","SECT":"二段","MAREA":" ","LANE":"２５８巷","ALLEY":" ","HOUSE_NO":"３１號二樓之５","E_COORD97":167026.88,"N_COORD97":2543756.5600000001,"ADDRESS":"府前路二段２５８巷３１號二樓之５","OBJECTID":374370},"geometry":{"x":167026.87999999989,"y":2543756.5600000042}},{"attributes":{"ID":374381,"DIS_CODE":0,"TOWNNAME":"中西區","LI":"大涼里","LIN":"10鄰","STREET":"府前路","SECT":"二段","MAREA":" ","LANE":"２５８巷","ALLEY":" ","HOUSE_NO":"３１號二樓之６","E_COORD97":167026.88,"N_COORD97":2543756.5600000001,"ADDRESS":"府前路二段２５８巷３１號二樓之６","OBJECTID":374371},"geometry":{"x":167026.87999999989,"y":2543756.5600000042}},{"attributes":{"ID":374382,"DIS_CODE":0,"TOWNNAME":"中西區","LI":"大涼里","LIN":"10鄰","STREET":"府前路","SECT":"二段","MAREA":" ","LANE":"２５８巷","ALLEY":" ","HOUSE_NO":"３１號二樓之７","E_COORD97":167026.88,"N_COORD97":2543756.5600000001,"ADDRESS":"府前路二段２５８巷３１號二樓之７","OBJECTID":374372},"geometry":{"x":167026.87999999989,"y":2543756.5600000042}},{"attributes":{"ID":374383,"DIS_CODE":0,"TOWNNAME":"中西區","LI":"大涼里","LIN":"10鄰","STREET":"府前路","SECT":"二段","MAREA":" ","LANE":"２５８巷","ALLEY":" ","HOUSE_NO":"３１號二樓之８","E_COORD97":167026.88,"N_COORD97":2543756.5600000001,"ADDRESS":"府前路二段２５８巷３１號二樓之８","OBJECTID":374373},"geometry":{"x":167026.87999999989,"y":2543756.5600000042}},{"attributes":{"ID":374384,"DIS_CODE":0,"TOWNNAME":"中西區","LI":"大涼里","LIN":"10鄰","STREET":"府前路","SECT":"二段","MAREA":" ","LANE":"２５８巷","ALLEY":" ","HOUSE_NO":"３１號二樓之９","E_COORD97":167026.88,"N_COORD97":2543756.5600000001,"ADDRESS":"府前路二段２５８巷３１號二樓之９","OBJECTID":374374},"geometry":{"x":167026.87999999989,"y":2543756.5600000042}},{"attributes":{"ID":374385,"DIS_CODE":0,"TOWNNAME":"中西區","LI":"大涼里","LIN":"10鄰","STREET":"府前路","SECT":"二段","MAREA":" ","LANE":"２５８巷","ALLEY":" ","HOUSE_NO":"３１號三樓之１","E_COORD97":167026.88,"N_COORD97":2543756.5600000001,"ADDRESS":"府前路二段２５８巷３１號三樓之１","OBJECTID":374375},"geometry":{"x":167026.87999999989,"y":2543756.5600000042}},{"attributes":{"ID":374386,"DIS_CODE":0,"TOWNNAME":"中西區","LI":"大涼里","LIN":"10鄰","STREET":"府前路","SECT":"二段","MAREA":" ","LANE":"２５８巷","ALLEY":" ","HOUSE_NO":"３１號三樓之１０","E_COORD97":167026.88,"N_COORD97":2543756.5600000001,"ADDRESS":"府前路二段２５８巷３１號三樓之１０","OBJECTID":374376},"geometry":{"x":167026.87999999989,"y":2543756.5600000042}},{"attributes":{"ID":374387,"DIS_CODE":0,"TOWNNAME":"中西區","LI":"大涼里","LIN":"10鄰","STREET":"府前路","SECT":"二段","MAREA":" ","LANE":"２５８巷","ALLEY":" ","HOUSE_NO":"３１號三樓之１１","E_COORD97":167026.88,"N_COORD97":2543756.5600000001,"ADDRESS":"府前路二段２５８巷３１號三樓之１１","OBJECTID":374377},"geometry":{"x":167026.87999999989,"y":2543756.5600000042}},{"attributes":{"ID":374388,"DIS_CODE":0,"TOWNNAME":"中西區","LI":"大涼里","LIN":"10鄰","STREET":"府前路","SECT":"二段","MAREA":" ","LANE":"２５８巷","ALLEY":" ","HOUSE_NO":"３１號三樓之１２","E_COORD97":167026.88,"N_COORD97":2543756.5600000001,"ADDRESS":"府前路二段２５８巷３１號三樓之１２","OBJECTID":374378},"geometry":{"x":167026.87999999989,"y":2543756.5600000042}},{"attributes":{"ID":374389,"DIS_CODE":0,"TOWNNAME":"中西區","LI":"大涼里","LIN":"10鄰","STREET":"府前路","SECT":"二段","MAREA":" ","LANE":"２５８巷","ALLEY":" ","HOUSE_NO":"３１號三樓之１３","E_COORD97":167026.88,"N_COORD97":2543756.5600000001,"ADDRESS":"府前路二段２５８巷３１號三樓之１３","OBJECTID":374379},"geometry":{"x":167026.87999999989,"y":2543756.5600000042}},{"attributes":{"ID":374390,"DIS_CODE":0,"TOWNNAME":"中西區","LI":"大涼里","LIN":"10鄰","STREET":"府前路","SECT":"二段","MAREA":" ","LANE":"２５８巷","ALLEY":" ","HOUSE_NO":"３１號三樓之１４","E_COORD97":167026.88,"N_COORD97":2543756.5600000001,"ADDRESS":"府前路二段２５８巷３１號三樓之１４","OBJECTID":374380},"geometry":{"x":167026.87999999989,"y":2543756.5600000042}},{"attributes":{"ID":374391,"DIS_CODE":0,"TOWNNAME":"中西區","LI":"大涼里","LIN":"10鄰","STREET":"府前路","SECT":"二段","MAREA":" ","LANE":"２５８巷","ALLEY":" ","HOUSE_NO":"３１號三樓之１５","E_COORD97":167026.88,"N_COORD97":2543756.5600000001,"ADDRESS":"府前路二段２５８巷３１號三樓之１５","OBJECTID":374381},"geometry":{"x":167026.87999999989,"y":2543756.5600000042}},{"attributes":{"ID":374392,"DIS_CODE":0,"TOWNNAME":"中西區","LI":"大涼里","LIN":"10鄰","STREET":"府前路","SECT":"二段","MAREA":" ","LANE":"２５８巷","ALLEY":" ","HOUSE_NO":"３１號三樓之１６","E_COORD97":167026.88,"N_COORD97":2543756.5600000001,"ADDRESS":"府前路二段２５８巷３１號三樓之１６","OBJECTID":374382},"geometry":{"x":167026.87999999989,"y":2543756.5600000042}},{"attributes":{"ID":374393,"DIS_CODE":0,"TOWNNAME":"中西區","LI":"大涼里","LIN":"10鄰","STREET":"府前路","SECT":"二段","MAREA":" ","LANE":"２５８巷","ALLEY":" ","HOUSE_NO":"３１號三樓之１７","E_COORD97":167026.88,"N_COORD97":2543756.5600000001,"ADDRESS":"府前路二段２５８巷３１號三樓之１７","OBJECTID":374383},"geometry":{"x":167026.87999999989,"y":2543756.5600000042}},{"attributes":{"ID":374394,"DIS_CODE":0,"TOWNNAME":"中西區","LI":"大涼里","LIN":"10鄰","STREET":"府前路","SECT":"二段","MAREA":" ","LANE":"２５８巷","ALLEY":" ","HOUSE_NO":"３１號三樓之１８","E_COORD97":167026.88,"N_COORD97":2543756.5600000001,"ADDRESS":"府前路二段２５８巷３１號三樓之１８","OBJECTID":374384},"geometry":{"x":167026.87999999989,"y":2543756.5600000042}},{"attributes":{"ID":374395,"DIS_CODE":0,"TOWNNAME":"中西區","LI":"大涼里","LIN":"10鄰","STREET":"府前路","SECT":"二段","MAREA":" ","LANE":"２５８巷","ALLEY":" ","HOUSE_NO":"３１號三樓之２","E_COORD97":167026.88,"N_COORD97":2543756.5600000001,"ADDRESS":"府前路二段２５８巷３１號三樓之２","OBJECTID":374385},"geometry":{"x":167026.87999999989,"y":2543756.5600000042}},{"attributes":{"ID":374396,"DIS_CODE":0,"TOWNNAME":"中西區","LI":"大涼里","LIN":"10鄰","STREET":"府前路","SECT":"二段","MAREA":" ","LANE":"２５８巷","ALLEY":" ","HOUSE_NO":"３１號三樓之３","E_COORD97":167026.88,"N_COORD97":2543756.5600000001,"ADDRESS":"府前路二段２５８巷３１號三樓之３","OBJECTID":374386},"geometry":{"x":167026.87999999989,"y":2543756.5600000042}},{"attributes":{"ID":374397,"DIS_CODE":0,"TOWNNAME":"中西區","LI":"大涼里","LIN":"10鄰","STREET":"府前路","SECT":"二段","MAREA":" ","LANE":"２５８巷","ALLEY":" ","HOUSE_NO":"３１號三樓之４","E_COORD97":167026.88,"N_COORD97":2543756.5600000001,"ADDRESS":"府前路二段２５８巷３１號三樓之４","OBJECTID":374387},"geometry":{"x":167026.87999999989,"y":2543756.5600000042}},{"attributes":{"ID":374398,"DIS_CODE":0,"TOWNNAME":"中西區","LI":"大涼里","LIN":"10鄰","STREET":"府前路","SECT":"二段","MAREA":" ","LANE":"２５８巷","ALLEY":" ","HOUSE_NO":"３１號三樓之５","E_COORD97":167026.88,"N_COORD97":2543756.5600000001,"ADDRESS":"府前路二段２５８巷３１號三樓之５","OBJECTID":374388},"geometry":{"x":167026.87999999989,"y":2543756.5600000042}},{"attributes":{"ID":374399,"DIS_CODE":0,"TOWNNAME":"中西區","LI":"大涼里","LIN":"10鄰","STREET":"府前路","SECT":"二段","MAREA":" ","LANE":"２５８巷","ALLEY":" ","HOUSE_NO":"３１號三樓之６","E_COORD97":167026.88,"N_COORD97":2543756.5600000001,"ADDRESS":"府前路二段２５８巷３１號三樓之６","OBJECTID":374389},"geometry":{"x":167026.87999999989,"y":2543756.5600000042}},{"attributes":{"ID":374400,"DIS_CODE":0,"TOWNNAME":"中西區","LI":"大涼里","LIN":"10鄰","STREET":"府前路","SECT":"二段","MAREA":" ","LANE":"２５８巷","ALLEY":" ","HOUSE_NO":"３１號三樓之７","E_COORD97":167026.88,"N_COORD97":2543756.5600000001,"ADDRESS":"府前路二段２５８巷３１號三樓之７","OBJECTID":374390},"geometry":{"x":167026.87999999989,"y":2543756.5600000042}},{"attributes":{"ID":374401,"DIS_CODE":0,"TOWNNAME":"中西區","LI":"大涼里","LIN":"10鄰","STREET":"府前路","SECT":"二段","MAREA":" ","LANE":"２５８巷","ALLEY":" ","HOUSE_NO":"３１號三樓之８","E_COORD97":167026.88,"N_COORD97":2543756.5600000001,"ADDRESS":"府前路二段２５８巷３１號三樓之８","OBJECTID":374391},"geometry":{"x":167026.87999999989,"y":2543756.5600000042}},{"attributes":{"ID":374402,"DIS_CODE":0,"TOWNNAME":"中西區","LI":"大涼里","LIN":"10鄰","STREET":"府前路","SECT":"二段","MAREA":" ","LANE":"２５８巷","ALLEY":" ","HOUSE_NO":"３１號三樓之９","E_COORD97":167026.88,"N_COORD97":2543756.5600000001,"ADDRESS":"府前路二段２５８巷３１號三樓之９","OBJECTID":374392},"geometry":{"x":167026.87999999989,"y":2543756.5600000042}},{"attributes":{"ID":374403,"DIS_CODE":0,"TOWNNAME":"中西區","LI":"大涼里","LIN":"10鄰","STREET":"府前路","SECT":"二段","MAREA":" ","LANE":"２５８巷","ALLEY":" ","HOUSE_NO":"３１號五樓之１","E_COORD97":167026.88,"N_COORD97":2543756.5600000001,"ADDRESS":"府前路二段２５８巷３１號五樓之１","OBJECTID":374393},"geometry":{"x":167026.87999999989,"y":2543756.5600000042}},{"attributes":{"ID":374404,"DIS_CODE":0,"TOWNNAME":"中西區","LI":"大涼里","LIN":"10鄰","STREET":"府前路","SECT":"二段","MAREA":" ","LANE":"２５８巷","ALLEY":" ","HOUSE_NO":"３１號五樓之１０","E_COORD97":167026.88,"N_COORD97":2543756.5600000001,"ADDRESS":"府前路二段２５８巷３１號五樓之１０","OBJECTID":374394},"geometry":{"x":167026.87999999989,"y":2543756.5600000042}},{"attributes":{"ID":374405,"DIS_CODE":0,"TOWNNAME":"中西區","LI":"大涼里","LIN":"10鄰","STREET":"府前路","SECT":"二段","MAREA":" ","LANE":"２５８巷","ALLEY":" ","HOUSE_NO":"３１號五樓之１１","E_COORD97":167026.88,"N_COORD97":2543756.5600000001,"ADDRESS":"府前路二段２５８巷３１號五樓之１１","OBJECTID":374395},"geometry":{"x":167026.87999999989,"y":2543756.5600000042}},{"attributes":{"ID":374406,"DIS_CODE":0,"TOWNNAME":"中西區","LI":"大涼里","LIN":"10鄰","STREET":"府前路","SECT":"二段","MAREA":" ","LANE":"２５８巷","ALLEY":" ","HOUSE_NO":"３１號五樓之１２","E_COORD97":167026.88,"N_COORD97":2543756.5600000001,"ADDRESS":"府前路二段２５８巷３１號五樓之１２","OBJECTID":374396},"geometry":{"x":167026.87999999989,"y":2543756.5600000042}},{"attributes":{"ID":374407,"DIS_CODE":0,"TOWNNAME":"中西區","LI":"大涼里","LIN":"10鄰","STREET":"府前路","SECT":"二段","MAREA":" ","LANE":"２５８巷","ALLEY":" ","HOUSE_NO":"３１號五樓之１３","E_COORD97":167026.88,"N_COORD97":2543756.5600000001,"ADDRESS":"府前路二段２５８巷３１號五樓之１３","OBJECTID":374397},"geometry":{"x":167026.87999999989,"y":2543756.5600000042}},{"attributes":{"ID":374408,"DIS_CODE":0,"TOWNNAME":"中西區","LI":"大涼里","LIN":"10鄰","STREET":"府前路","SECT":"二段","MAREA":" ","LANE":"２５８巷","ALLEY":" ","HOUSE_NO":"３１號五樓之１４","E_COORD97":167026.88,"N_COORD97":2543756.5600000001,"ADDRESS":"府前路二段２５８巷３１號五樓之１４","OBJECTID":374398},"geometry":{"x":167026.87999999989,"y":2543756.5600000042}},{"attributes":{"ID":374409,"DIS_CODE":0,"TOWNNAME":"中西區","LI":"大涼里","LIN":"10鄰","STREET":"府前路","SECT":"二段","MAREA":" ","LANE":"２５８巷","ALLEY":" ","HOUSE_NO":"３１號五樓之１５","E_COORD97":167026.88,"N_COORD97":2543756.5600000001,"ADDRESS":"府前路二段２５８巷３１號五樓之１５","OBJECTID":374399},"geometry":{"x":167026.87999999989,"y":2543756.5600000042}},{"attributes":{"ID":374410,"DIS_CODE":0,"TOWNNAME":"中西區","LI":"大涼里","LIN":"10鄰","STREET":"府前路","SECT":"二段","MAREA":" ","LANE":"２５８巷","ALLEY":" ","HOUSE_NO":"３１號五樓之１６","E_COORD97":167026.88,"N_COORD97":2543756.5600000001,"ADDRESS":"府前路二段２５８巷３１號五樓之１６","OBJECTID":374400},"geometry":{"x":167026.87999999989,"y":2543756.5600000042}}]}