{"displayFieldName":"TOWNNAME","fieldAliases":{"ID":"ID","DIS_CODE":"DIS_CODE","TOWNNAME":"TOWNNAME","LI":"LI","LIN":"LIN","STREET":"STREET","SECT":"SECT","MAREA":"MAREA","LANE":"LANE","ALLEY":"ALLEY","HOUSE_NO":"HOUSE_NO","E_COORD97":"E_COORD97","N_COORD97":"N_COORD97","ADDRESS":"ADDRESS","OBJECTID":"OBJECTID"},"geometryType":"esriGeometryPoint","spatialReference":{"wkid":102443,"latestWkid":3826},"fields":[{"name":"ID","type":"esriFieldTypeDouble","alias":"ID"},{"name":"DIS_CODE","type":"esriFieldTypeInteger","alias":"DIS_CODE"},{"name":"TOWNNAME","type":"esriFieldTypeString","alias":"TOWNNAME","length":8},{"name":"LI","type":"esriFieldTypeString","alias":"LI","length":8},{"name":"LIN","type":"esriFieldTypeString","alias":"LIN","length":12},{"name":"STREET","type":"esriFieldTypeString","alias":"STREET","length":20},{"name":"SECT","type":"esriFieldTypeString","alias":"SECT","length":8},{"name":"MAREA","type":"esriFieldTypeString","alias":"MAREA","length":12},{"name":"LANE","type":"esriFieldTypeString","alias":"LANE","length":10},{"name":"ALLEY","type":"esriFieldTypeString","alias":"ALLEY","length":10},{"name":"HOUSE_NO","type":"esriFieldTypeString","alias":"HOUSE_NO","length":20},{"name":"E_COORD97","type":"esriFieldTypeDouble","alias":"E_COORD97"},{"name":"N_COORD97","type":"esriFieldTypeDouble","alias":"N_COORD97"},{"name":"ADDRESS","type":"esriFieldTypeString","alias":"ADDRESS","length":50},{"name":"OBJECTID","type":"esriFieldTypeOID","alias":"OBJECTID"}],"features":[{"attributes":{"ID":343210,"DIS_CODE":0,"TOWNNAME":"東山區","LI":"三榮里","LIN":"5鄰","STREET":" ","SECT":" ","MAREA":"木柵","LANE":" ","ALLEY":" ","HOUSE_NO":"１７號","E_COORD97":187638.79999999999,"N_COORD97":2579864.21,"ADDRESS":"木柵１７號","OBJECTID":343201},"geometry":{"x":187638.79999999981,"y":2579864.2100000028}},{"attributes":{"ID":343211,"DIS_CODE":0,"TOWNNAME":"東山區","LI":"三榮里","LIN":"5鄰","STREET":" ","SECT":" ","MAREA":"木柵","LANE":" ","ALLEY":" ","HOUSE_NO":"１８號","E_COORD97":187639.37,"N_COORD97":2579852.0499999998,"ADDRESS":"木柵１８號","OBJECTID":343202},"geometry":{"x":187639.36999999918,"y":2579852.0500000026}},{"attributes":{"ID":343212,"DIS_CODE":0,"TOWNNAME":"東山區","LI":"三榮里","LIN":"5鄰","STREET":" ","SECT":" ","MAREA":"木柵","LANE":" ","ALLEY":" ","HOUSE_NO":"１號","E_COORD97":187752.60999999999,"N_COORD97":2579801.27,"ADDRESS":"木柵１號","OBJECTID":343203},"geometry":{"x":187752.61000000034,"y":2579801.2700000014}},{"attributes":{"ID":343213,"DIS_CODE":0,"TOWNNAME":"東山區","LI":"三榮里","LIN":"5鄰","STREET":" ","SECT":" ","MAREA":"木柵","LANE":" ","ALLEY":" ","HOUSE_NO":"３號之３","E_COORD97":187660.51000000001,"N_COORD97":2579819.5499999998,"ADDRESS":"木柵３號之３","OBJECTID":343204},"geometry":{"x":187660.51000000071,"y":2579819.5500000007}},{"attributes":{"ID":343214,"DIS_CODE":0,"TOWNNAME":"東山區","LI":"三榮里","LIN":"5鄰","STREET":" ","SECT":" ","MAREA":"木柵","LANE":" ","ALLEY":" ","HOUSE_NO":"４號","E_COORD97":187717.75,"N_COORD97":2579799.0299999998,"ADDRESS":"木柵４號","OBJECTID":343205},"geometry":{"x":187717.75,"y":2579799.0300000012}},{"attributes":{"ID":343215,"DIS_CODE":0,"TOWNNAME":"新營區","LI":"民生里","LIN":"5鄰","STREET":"中華路","SECT":" ","MAREA":" ","LANE":"７６巷","ALLEY":" ","HOUSE_NO":"１３之１號","E_COORD97":179429.31,"N_COORD97":2578309.7000000002,"ADDRESS":"中華路７６巷１３之１號","OBJECTID":343206},"geometry":{"x":179429.30999999959,"y":2578309.7000000011}},{"attributes":{"ID":343216,"DIS_CODE":0,"TOWNNAME":"東山區","LI":"三榮里","LIN":"5鄰","STREET":" ","SECT":" ","MAREA":"木柵","LANE":" ","ALLEY":" ","HOUSE_NO":"６號","E_COORD97":187667.45000000001,"N_COORD97":2579808.2000000002,"ADDRESS":"木柵６號","OBJECTID":343207},"geometry":{"x":187667.45000000019,"y":2579808.2000000011}},{"attributes":{"ID":343217,"DIS_CODE":0,"TOWNNAME":"新營區","LI":"土庫里","LIN":"5鄰","STREET":" ","SECT":" ","MAREA":"土庫","LANE":" ","ALLEY":" ","HOUSE_NO":"５０之１號","E_COORD97":183264.01000000001,"N_COORD97":2579887.75,"ADDRESS":"土庫５０之１號","OBJECTID":343208},"geometry":{"x":183264.00999999978,"y":2579887.75}},{"attributes":{"ID":343218,"DIS_CODE":0,"TOWNNAME":"永康區","LI":"尚頂里","LIN":"35鄰","STREET":"國聖街","SECT":" ","MAREA":" ","LANE":"８６巷","ALLEY":" ","HOUSE_NO":"１７號","E_COORD97":170468.70000000001,"N_COORD97":2547936.3300000001,"ADDRESS":"國聖街８６巷１７號","OBJECTID":343209},"geometry":{"x":170468.70000000112,"y":2547936.3300000001}},{"attributes":{"ID":343219,"DIS_CODE":0,"TOWNNAME":"永康區","LI":"南灣里","LIN":"35鄰","STREET":"南灣街","SECT":" ","MAREA":" ","LANE":"６０巷","ALLEY":" ","HOUSE_NO":"１號","E_COORD97":174537.78,"N_COORD97":2544944.1200000001,"ADDRESS":"南灣街６０巷１號","OBJECTID":343210},"geometry":{"x":174537.78000000026,"y":2544944.1200000029}},{"attributes":{"ID":343220,"DIS_CODE":0,"TOWNNAME":"永康區","LI":"埔園里","LIN":"35鄰","STREET":"八德街","SECT":" ","MAREA":" ","LANE":"２７巷","ALLEY":" ","HOUSE_NO":"３３號","E_COORD97":174263.48999999999,"N_COORD97":2548410.8500000001,"ADDRESS":"八德街２７巷３３號","OBJECTID":343211},"geometry":{"x":174263.49000000022,"y":2548410.8499999996}},{"attributes":{"ID":343221,"DIS_CODE":0,"TOWNNAME":"永康區","LI":"埔園里","LIN":"35鄰","STREET":"八德街","SECT":" ","MAREA":" ","LANE":"２７巷","ALLEY":" ","HOUSE_NO":"２３號","E_COORD97":174265.62,"N_COORD97":2548431.5899999999,"ADDRESS":"八德街２７巷２３號","OBJECTID":343212},"geometry":{"x":174265.62000000011,"y":2548431.5900000017}},{"attributes":{"ID":343222,"DIS_CODE":0,"TOWNNAME":"新營區","LI":"嘉芳里","LIN":"5鄰","STREET":" ","SECT":" ","MAREA":"茄苳腳","LANE":" ","ALLEY":" ","HOUSE_NO":"５７號","E_COORD97":176943.70999999999,"N_COORD97":2578394.77,"ADDRESS":"茄苳腳５７號","OBJECTID":343213},"geometry":{"x":176943.71000000183,"y":2578394.7700000014}},{"attributes":{"ID":343223,"DIS_CODE":0,"TOWNNAME":"新化區","LI":"北勢里","LIN":"8鄰","STREET":"永新路","SECT":" ","MAREA":" ","LANE":" ","ALLEY":" ","HOUSE_NO":"２５號四樓之３","E_COORD97":177802.39999999999,"N_COORD97":2550963.2999999998,"ADDRESS":"永新路２５號四樓之３","OBJECTID":343214},"geometry":{"x":177802.40000000224,"y":2550963.3000000045}},{"attributes":{"ID":343224,"DIS_CODE":0,"TOWNNAME":"新營區","LI":"嘉芳里","LIN":"5鄰","STREET":" ","SECT":" ","MAREA":"茄苳腳","LANE":" ","ALLEY":" ","HOUSE_NO":"５７之３５號","E_COORD97":176860.78,"N_COORD97":2578449.52,"ADDRESS":"茄苳腳５７之３５號","OBJECTID":343215},"geometry":{"x":176860.78000000119,"y":2578449.5200000033}},{"attributes":{"ID":343225,"DIS_CODE":0,"TOWNNAME":"新營區","LI":"鐵線里","LIN":"5鄰","STREET":" ","SECT":" ","MAREA":"鐵線橋","LANE":" ","ALLEY":" ","HOUSE_NO":"４８之５號","E_COORD97":176093.37,"N_COORD97":2573710.0800000001,"ADDRESS":"鐵線橋４８之５號","OBJECTID":343216},"geometry":{"x":176093.37000000011,"y":2573710.0800000038}},{"attributes":{"ID":343226,"DIS_CODE":0,"TOWNNAME":"新營區","LI":"永生里","LIN":"8鄰","STREET":"富源街","SECT":" ","MAREA":" ","LANE":" ","ALLEY":" ","HOUSE_NO":"１９之２號二樓","E_COORD97":180029.23999999999,"N_COORD97":2577964.7799999998,"ADDRESS":"富源街１９之２號二樓","OBJECTID":343217},"geometry":{"x":180029.24000000115,"y":2577964.7799999993}},{"attributes":{"ID":343227,"DIS_CODE":0,"TOWNNAME":"新營區","LI":"嘉芳里","LIN":"5鄰","STREET":" ","SECT":" ","MAREA":"茄苳腳","LANE":" ","ALLEY":" ","HOUSE_NO":"６０號","E_COORD97":176885.79999999999,"N_COORD97":2578478.1200000001,"ADDRESS":"茄苳腳６０號","OBJECTID":343218},"geometry":{"x":176885.80000000075,"y":2578478.1200000029}},{"attributes":{"ID":343228,"DIS_CODE":0,"TOWNNAME":"新營區","LI":"嘉芳里","LIN":"5鄰","STREET":" ","SECT":" ","MAREA":"茄苳腳","LANE":" ","ALLEY":" ","HOUSE_NO":"６０之１３號","E_COORD97":176920.20999999999,"N_COORD97":2578472.48,"ADDRESS":"茄苳腳６０之１３號","OBJECTID":343219},"geometry":{"x":176920.21000000089,"y":2578472.4800000023}},{"attributes":{"ID":343229,"DIS_CODE":0,"TOWNNAME":"永康區","LI":"埔園里","LIN":"35鄰","STREET":"八德街","SECT":" ","MAREA":" ","LANE":"２７巷","ALLEY":" ","HOUSE_NO":"２９號","E_COORD97":174263.31,"N_COORD97":2548419.1000000001,"ADDRESS":"八德街２７巷２９號","OBJECTID":343220},"geometry":{"x":174263.31000000052,"y":2548419.0999999996}},{"attributes":{"ID":343230,"DIS_CODE":0,"TOWNNAME":"新營區","LI":"嘉芳里","LIN":"5鄰","STREET":" ","SECT":" ","MAREA":"茄苳腳","LANE":" ","ALLEY":" ","HOUSE_NO":"５８之７號","E_COORD97":176911.64999999999,"N_COORD97":2578441.5099999998,"ADDRESS":"茄苳腳５８之７號","OBJECTID":343221},"geometry":{"x":176911.65000000037,"y":2578441.5099999998}},{"attributes":{"ID":343231,"DIS_CODE":0,"TOWNNAME":"新營區","LI":"嘉芳里","LIN":"5鄰","STREET":" ","SECT":" ","MAREA":"茄苳腳","LANE":" ","ALLEY":" ","HOUSE_NO":"５８之９號","E_COORD97":176903.45999999999,"N_COORD97":2578439.3399999999,"ADDRESS":"茄苳腳５８之９號","OBJECTID":343222},"geometry":{"x":176903.46000000089,"y":2578439.3399999999}},{"attributes":{"ID":343232,"DIS_CODE":0,"TOWNNAME":"永康區","LI":"南灣里","LIN":"35鄰","STREET":"南灣街","SECT":" ","MAREA":" ","LANE":"６０巷","ALLEY":" ","HOUSE_NO":"９號","E_COORD97":174529.39000000001,"N_COORD97":2544968.25,"ADDRESS":"南灣街６０巷９號","OBJECTID":343223},"geometry":{"x":174529.38999999966,"y":2544968.2499999981}},{"attributes":{"ID":343233,"DIS_CODE":0,"TOWNNAME":"永康區","LI":"南灣里","LIN":"35鄰","STREET":"南灣街","SECT":" ","MAREA":" ","LANE":"６０巷","ALLEY":" ","HOUSE_NO":"２１號","E_COORD97":174549.64999999999,"N_COORD97":2544977.0099999998,"ADDRESS":"南灣街６０巷２１號","OBJECTID":343224},"geometry":{"x":174549.6500000013,"y":2544977.0100000016}},{"attributes":{"ID":343234,"DIS_CODE":0,"TOWNNAME":"永康區","LI":"南灣里","LIN":"35鄰","STREET":"南灣街","SECT":" ","MAREA":" ","LANE":"６０巷","ALLEY":" ","HOUSE_NO":"１１號","E_COORD97":174537.19,"N_COORD97":2544959.4300000002,"ADDRESS":"南灣街６０巷１１號","OBJECTID":343225},"geometry":{"x":174537.19000000227,"y":2544959.4299999997}},{"attributes":{"ID":343235,"DIS_CODE":0,"TOWNNAME":"永康區","LI":"東灣里","LIN":"35鄰","STREET":"民族路","SECT":" ","MAREA":" ","LANE":"２７３巷","ALLEY":" ","HOUSE_NO":"１５號","E_COORD97":175075.85999999999,"N_COORD97":2545010.6099999999,"ADDRESS":"民族路２７３巷１５號","OBJECTID":343226},"geometry":{"x":175075.86000000127,"y":2545010.6100000013}},{"attributes":{"ID":343236,"DIS_CODE":0,"TOWNNAME":"東山區","LI":"水雲里","LIN":"5鄰","STREET":" ","SECT":" ","MAREA":"牛肉崎","LANE":" ","ALLEY":" ","HOUSE_NO":"３２號","E_COORD97":190533.98999999999,"N_COORD97":2573948.54,"ADDRESS":"牛肉崎３２號","OBJECTID":343227},"geometry":{"x":190533.99000000022,"y":2573948.5399999991}},{"attributes":{"ID":343237,"DIS_CODE":0,"TOWNNAME":"新營區","LI":"嘉芳里","LIN":"5鄰","STREET":" ","SECT":" ","MAREA":"茄苳腳","LANE":" ","ALLEY":" ","HOUSE_NO":"６０之１號","E_COORD97":176892.39999999999,"N_COORD97":2578480.3700000001,"ADDRESS":"茄苳腳６０之１號","OBJECTID":343228},"geometry":{"x":176892.4000000013,"y":2578480.3700000029}},{"attributes":{"ID":343238,"DIS_CODE":0,"TOWNNAME":"東山區","LI":"水雲里","LIN":"5鄰","STREET":" ","SECT":" ","MAREA":"牛肉崎","LANE":" ","ALLEY":" ","HOUSE_NO":"２８之１號","E_COORD97":190598.29000000001,"N_COORD97":2573989.6699999999,"ADDRESS":"牛肉崎２８之１號","OBJECTID":343229},"geometry":{"x":190598.29000000097,"y":2573989.6699999999}},{"attributes":{"ID":343239,"DIS_CODE":0,"TOWNNAME":"永康區","LI":"埔園里","LIN":"35鄰","STREET":"八德街","SECT":" ","MAREA":" ","LANE":"２７巷","ALLEY":" ","HOUSE_NO":"２６號","E_COORD97":174267.22,"N_COORD97":2548454.3399999999,"ADDRESS":"八德街２７巷２６號","OBJECTID":343230},"geometry":{"x":174267.22000000067,"y":2548454.3400000017}},{"attributes":{"ID":343240,"DIS_CODE":0,"TOWNNAME":"永康區","LI":"埔園里","LIN":"35鄰","STREET":"八德街","SECT":" ","MAREA":" ","LANE":"２７巷","ALLEY":" ","HOUSE_NO":"１２號","E_COORD97":174271.42999999999,"N_COORD97":2548478.3500000001,"ADDRESS":"八德街２７巷１２號","OBJECTID":343231},"geometry":{"x":174271.4299999997,"y":2548478.3499999996}},{"attributes":{"ID":343241,"DIS_CODE":0,"TOWNNAME":"永康區","LI":"埔園里","LIN":"35鄰","STREET":"八德街","SECT":" ","MAREA":" ","LANE":"２７巷","ALLEY":" ","HOUSE_NO":"１０號","E_COORD97":174272.07000000001,"N_COORD97":2548482.3500000001,"ADDRESS":"八德街２７巷１０號","OBJECTID":343232},"geometry":{"x":174272.07000000123,"y":2548482.3499999996}},{"attributes":{"ID":343242,"DIS_CODE":0,"TOWNNAME":"永康區","LI":"正強里","LIN":"35鄰","STREET":"正強街","SECT":" ","MAREA":" ","LANE":"３１５巷","ALLEY":" ","HOUSE_NO":"１８號","E_COORD97":173200.62,"N_COORD97":2548303,"ADDRESS":"正強街３１５巷１８號","OBJECTID":343233},"geometry":{"x":173200.62000000104,"y":2548303.0000000037}},{"attributes":{"ID":343243,"DIS_CODE":0,"TOWNNAME":"永康區","LI":"北灣里","LIN":"35鄰","STREET":"大灣路","SECT":" ","MAREA":" ","LANE":"４０巷","ALLEY":" ","HOUSE_NO":"６２號之１","E_COORD97":175082.29999999999,"N_COORD97":2546102.1699999999,"ADDRESS":"大灣路４０巷６２號之１","OBJECTID":343234},"geometry":{"x":175082.30000000075,"y":2546102.1700000018}},{"attributes":{"ID":343244,"DIS_CODE":0,"TOWNNAME":"佳里區","LI":"安西里","LIN":"35鄰","STREET":"光華街","SECT":" ","MAREA":" ","LANE":"１３０巷","ALLEY":" ","HOUSE_NO":"３號","E_COORD97":165045.92000000001,"N_COORD97":2562834.27,"ADDRESS":"光華街１３０巷３號","OBJECTID":343235},"geometry":{"x":165045.92000000086,"y":2562834.2699999996}},{"attributes":{"ID":343245,"DIS_CODE":0,"TOWNNAME":"佳里區","LI":"安西里","LIN":"35鄰","STREET":"光華街","SECT":" ","MAREA":" ","LANE":"１３０巷","ALLEY":" ","HOUSE_NO":"５號","E_COORD97":165045.53,"N_COORD97":2562838.3199999998,"ADDRESS":"光華街１３０巷５號","OBJECTID":343236},"geometry":{"x":165045.53000000119,"y":2562838.3200000003}},{"attributes":{"ID":343246,"DIS_CODE":0,"TOWNNAME":"佳里區","LI":"安西里","LIN":"35鄰","STREET":"光華街","SECT":" ","MAREA":" ","LANE":"１３０巷","ALLEY":" ","HOUSE_NO":"７號","E_COORD97":165046.19,"N_COORD97":2562842.0299999998,"ADDRESS":"光華街１３０巷７號","OBJECTID":343237},"geometry":{"x":165046.19000000134,"y":2562842.0299999993}},{"attributes":{"ID":343247,"DIS_CODE":0,"TOWNNAME":"佳里區","LI":"安西里","LIN":"35鄰","STREET":"光華街","SECT":" ","MAREA":" ","LANE":"１３０巷","ALLEY":" ","HOUSE_NO":"９號","E_COORD97":165046.41,"N_COORD97":2562845.9500000002,"ADDRESS":"光華街１３０巷９號","OBJECTID":343238},"geometry":{"x":165046.41000000108,"y":2562845.9499999993}},{"attributes":{"ID":343248,"DIS_CODE":0,"TOWNNAME":"佳里區","LI":"安西里","LIN":"35鄰","STREET":"光華街","SECT":" ","MAREA":" ","LANE":"１３１巷","ALLEY":" ","HOUSE_NO":"２號","E_COORD97":165064.45000000001,"N_COORD97":2562790.27,"ADDRESS":"光華街１３１巷２號","OBJECTID":343239},"geometry":{"x":165064.45000000112,"y":2562790.2699999996}},{"attributes":{"ID":343249,"DIS_CODE":0,"TOWNNAME":"佳里區","LI":"安西里","LIN":"35鄰","STREET":"光華街","SECT":" ","MAREA":" ","LANE":"１３１巷","ALLEY":" ","HOUSE_NO":"４號","E_COORD97":165064.17999999999,"N_COORD97":2562785.3500000001,"ADDRESS":"光華街１３１巷４號","OBJECTID":343240},"geometry":{"x":165064.18000000063,"y":2562785.3500000015}},{"attributes":{"ID":343250,"DIS_CODE":0,"TOWNNAME":"麻豆區","LI":"海埔里","LIN":"5鄰","STREET":" ","SECT":" ","MAREA":"海埔","LANE":" ","ALLEY":" ","HOUSE_NO":"２號之１","E_COORD97":169594.54000000001,"N_COORD97":2566686.3700000001,"ADDRESS":"海埔２號之１","OBJECTID":343241},"geometry":{"x":169594.53999999911,"y":2566686.370000001}},{"attributes":{"ID":343251,"DIS_CODE":0,"TOWNNAME":"佳里區","LI":"安西里","LIN":"35鄰","STREET":"光華街","SECT":" ","MAREA":" ","LANE":"１３１巷","ALLEY":" ","HOUSE_NO":"６號","E_COORD97":165062.44,"N_COORD97":2562780.29,"ADDRESS":"光華街１３１巷６號","OBJECTID":343242},"geometry":{"x":165062.44000000041,"y":2562780.2900000028}},{"attributes":{"ID":343252,"DIS_CODE":0,"TOWNNAME":"佳里區","LI":"安西里","LIN":"35鄰","STREET":"光華街","SECT":" ","MAREA":" ","LANE":"１５７巷","ALLEY":" ","HOUSE_NO":"２４號","E_COORD97":164995.53,"N_COORD97":2562753.77,"ADDRESS":"光華街１５７巷２４號","OBJECTID":343243},"geometry":{"x":164995.53000000026,"y":2562753.7700000033}},{"attributes":{"ID":343253,"DIS_CODE":0,"TOWNNAME":"佳里區","LI":"安西里","LIN":"35鄰","STREET":"光華街","SECT":" ","MAREA":" ","LANE":"１５７巷","ALLEY":" ","HOUSE_NO":"２號","E_COORD97":164994.70000000001,"N_COORD97":2562799.96,"ADDRESS":"光華街１５７巷２號","OBJECTID":343244},"geometry":{"x":164994.70000000205,"y":2562799.9600000009}},{"attributes":{"ID":343254,"DIS_CODE":0,"TOWNNAME":"佳里區","LI":"安西里","LIN":"35鄰","STREET":"光華街","SECT":" ","MAREA":" ","LANE":"１５７巷","ALLEY":" ","HOUSE_NO":"３號","E_COORD97":165017.01000000001,"N_COORD97":2562787.9100000001,"ADDRESS":"光華街１５７巷３號","OBJECTID":343245},"geometry":{"x":165017.00999999978,"y":2562787.910000002}},{"attributes":{"ID":343255,"DIS_CODE":0,"TOWNNAME":"佳里區","LI":"安西里","LIN":"35鄰","STREET":"光華街","SECT":" ","MAREA":" ","LANE":"２１７巷","ALLEY":" ","HOUSE_NO":"１號","E_COORD97":164847.42999999999,"N_COORD97":2562799.7999999998,"ADDRESS":"光華街２１７巷１號","OBJECTID":343246},"geometry":{"x":164847.43000000063,"y":2562799.8000000026}},{"attributes":{"ID":343256,"DIS_CODE":0,"TOWNNAME":"北區","LI":"光武里","LIN":"5鄰","STREET":"長榮路","SECT":"五段","MAREA":" ","LANE":"３８３巷","ALLEY":" ","HOUSE_NO":"４５號","E_COORD97":169539.32999999999,"N_COORD97":2545851.0099999998,"ADDRESS":"長榮路五段３８３巷４５號","OBJECTID":343247},"geometry":{"x":169539.33000000007,"y":2545851.0099999998}},{"attributes":{"ID":343257,"DIS_CODE":0,"TOWNNAME":"北區","LI":"光武里","LIN":"5鄰","STREET":"長榮路","SECT":"五段","MAREA":" ","LANE":"３８３巷","ALLEY":" ","HOUSE_NO":"４７號","E_COORD97":169536.22,"N_COORD97":2545851.4900000002,"ADDRESS":"長榮路五段３８３巷４７號","OBJECTID":343248},"geometry":{"x":169536.22000000067,"y":2545851.4900000002}},{"attributes":{"ID":343258,"DIS_CODE":0,"TOWNNAME":"北區","LI":"光武里","LIN":"5鄰","STREET":"長榮路","SECT":"五段","MAREA":" ","LANE":"３８３巷","ALLEY":" ","HOUSE_NO":"４９號","E_COORD97":169533.35999999999,"N_COORD97":2545852.2000000002,"ADDRESS":"長榮路五段３８３巷４９號","OBJECTID":343249},"geometry":{"x":169533.3599999994,"y":2545852.1999999993}},{"attributes":{"ID":343259,"DIS_CODE":0,"TOWNNAME":"北區","LI":"光武里","LIN":"5鄰","STREET":"長榮路","SECT":"五段","MAREA":" ","LANE":"３８３巷","ALLEY":" ","HOUSE_NO":"５１號","E_COORD97":169530.97,"N_COORD97":2545852.4399999999,"ADDRESS":"長榮路五段３８３巷５１號","OBJECTID":343250},"geometry":{"x":169530.97000000067,"y":2545852.4400000013}},{"attributes":{"ID":343260,"DIS_CODE":0,"TOWNNAME":"北區","LI":"光武里","LIN":"5鄰","STREET":"長榮路","SECT":"五段","MAREA":" ","LANE":"３８３巷","ALLEY":" ","HOUSE_NO":"５３號","E_COORD97":169528.34,"N_COORD97":2545852.6800000002,"ADDRESS":"長榮路五段３８３巷５３號","OBJECTID":343251},"geometry":{"x":169528.34000000078,"y":2545852.6799999997}},{"attributes":{"ID":343261,"DIS_CODE":0,"TOWNNAME":"北區","LI":"光武里","LIN":"5鄰","STREET":"長榮路","SECT":"五段","MAREA":" ","LANE":"３８３巷","ALLEY":" ","HOUSE_NO":"５５號","E_COORD97":169525.23999999999,"N_COORD97":2545853.3999999999,"ADDRESS":"長榮路五段３８３巷５５號","OBJECTID":343252},"geometry":{"x":169525.24000000022,"y":2545853.4000000022}},{"attributes":{"ID":343262,"DIS_CODE":0,"TOWNNAME":"佳里區","LI":"安西里","LIN":"35鄰","STREET":"光華街","SECT":" ","MAREA":" ","LANE":"２１７巷","ALLEY":" ","HOUSE_NO":"３號","E_COORD97":164851.63,"N_COORD97":2562792.7599999998,"ADDRESS":"光華街２１７巷３號","OBJECTID":343253},"geometry":{"x":164851.62999999989,"y":2562792.7600000016}},{"attributes":{"ID":343263,"DIS_CODE":0,"TOWNNAME":"佳里區","LI":"安西里","LIN":"35鄰","STREET":"光華街","SECT":" ","MAREA":" ","LANE":"２１７巷","ALLEY":" ","HOUSE_NO":"５號","E_COORD97":164850.20000000001,"N_COORD97":2562786.5600000001,"ADDRESS":"光華街２１７巷５號","OBJECTID":343254},"geometry":{"x":164850.20000000019,"y":2562786.5599999987}},{"attributes":{"ID":343264,"DIS_CODE":0,"TOWNNAME":"佳里區","LI":"安西里","LIN":"35鄰","STREET":"育善街","SECT":" ","MAREA":" ","LANE":"２７２巷","ALLEY":" ","HOUSE_NO":"１１號","E_COORD97":164973.17000000001,"N_COORD97":2562720.5899999999,"ADDRESS":"育善街２７２巷１１號","OBJECTID":343255},"geometry":{"x":164973.17000000086,"y":2562720.5899999999}},{"attributes":{"ID":343265,"DIS_CODE":0,"TOWNNAME":"佳里區","LI":"安西里","LIN":"35鄰","STREET":"育善街","SECT":" ","MAREA":" ","LANE":"２７２巷","ALLEY":" ","HOUSE_NO":"１３號","E_COORD97":164979.29000000001,"N_COORD97":2562733.3700000001,"ADDRESS":"育善街２７２巷１３號","OBJECTID":343256},"geometry":{"x":164979.29000000097,"y":2562733.370000001}},{"attributes":{"ID":343266,"DIS_CODE":0,"TOWNNAME":"佳里區","LI":"安西里","LIN":"35鄰","STREET":"育善街","SECT":" ","MAREA":" ","LANE":"２７２巷","ALLEY":" ","HOUSE_NO":"１７號","E_COORD97":164991.23999999999,"N_COORD97":2562724.6200000001,"ADDRESS":"育善街２７２巷１７號","OBJECTID":343257},"geometry":{"x":164991.24000000115,"y":2562724.620000001}},{"attributes":{"ID":343267,"DIS_CODE":0,"TOWNNAME":"佳里區","LI":"安西里","LIN":"35鄰","STREET":"育善街","SECT":" ","MAREA":" ","LANE":"２７２巷","ALLEY":" ","HOUSE_NO":"１９號","E_COORD97":164996.14999999999,"N_COORD97":2562724.54,"ADDRESS":"育善街２７２巷１９號","OBJECTID":343258},"geometry":{"x":164996.15000000037,"y":2562724.5400000028}},{"attributes":{"ID":343268,"DIS_CODE":0,"TOWNNAME":"佳里區","LI":"安西里","LIN":"35鄰","STREET":"育善街","SECT":" ","MAREA":" ","LANE":"２７２巷","ALLEY":" ","HOUSE_NO":"１號","E_COORD97":164949.57000000001,"N_COORD97":2562724.3700000001,"ADDRESS":"育善街２７２巷１號","OBJECTID":343259},"geometry":{"x":164949.5700000003,"y":2562724.3700000048}},{"attributes":{"ID":343269,"DIS_CODE":0,"TOWNNAME":"佳里區","LI":"安西里","LIN":"35鄰","STREET":"育善街","SECT":" ","MAREA":" ","LANE":"２７２巷","ALLEY":" ","HOUSE_NO":"３號","E_COORD97":164954.66,"N_COORD97":2562722.9100000001,"ADDRESS":"育善街２７２巷３號","OBJECTID":343260},"geometry":{"x":164954.66000000108,"y":2562722.9100000039}},{"attributes":{"ID":343270,"DIS_CODE":0,"TOWNNAME":"佳里區","LI":"安西里","LIN":"35鄰","STREET":"育善街","SECT":" ","MAREA":" ","LANE":"２７２巷","ALLEY":" ","HOUSE_NO":"５號","E_COORD97":164959.31,"N_COORD97":2562720.8900000001,"ADDRESS":"育善街２７２巷５號","OBJECTID":343261},"geometry":{"x":164959.30999999866,"y":2562720.8900000025}},{"attributes":{"ID":343271,"DIS_CODE":0,"TOWNNAME":"新營區","LI":"永生里","LIN":"8鄰","STREET":"富源街","SECT":" ","MAREA":" ","LANE":" ","ALLEY":" ","HOUSE_NO":"１９之２號三樓","E_COORD97":180029.23999999999,"N_COORD97":2577964.7799999998,"ADDRESS":"富源街１９之２號三樓","OBJECTID":343262},"geometry":{"x":180029.24000000115,"y":2577964.7799999993}},{"attributes":{"ID":343272,"DIS_CODE":0,"TOWNNAME":"新營區","LI":"永生里","LIN":"8鄰","STREET":"富源街","SECT":" ","MAREA":" ","LANE":" ","ALLEY":" ","HOUSE_NO":"１９之２號四樓","E_COORD97":180029.23999999999,"N_COORD97":2577964.7799999998,"ADDRESS":"富源街１９之２號四樓","OBJECTID":343263},"geometry":{"x":180029.24000000115,"y":2577964.7799999993}},{"attributes":{"ID":343273,"DIS_CODE":0,"TOWNNAME":"鹽水區","LI":"下中里","LIN":"5鄰","STREET":" ","SECT":" ","MAREA":"下中","LANE":" ","ALLEY":" ","HOUSE_NO":"１８號","E_COORD97":172366.60999999999,"N_COORD97":2580000.3500000001,"ADDRESS":"下中１８號","OBJECTID":343264},"geometry":{"x":172366.61000000127,"y":2580000.3500000034}},{"attributes":{"ID":343274,"DIS_CODE":0,"TOWNNAME":"新營區","LI":"永生里","LIN":"8鄰","STREET":"富源街","SECT":" ","MAREA":" ","LANE":" ","ALLEY":" ","HOUSE_NO":"１９之２號五樓","E_COORD97":180029.23999999999,"N_COORD97":2577964.7799999998,"ADDRESS":"富源街１９之２號五樓","OBJECTID":343265},"geometry":{"x":180029.24000000115,"y":2577964.7799999993}},{"attributes":{"ID":343275,"DIS_CODE":0,"TOWNNAME":"中西區","LI":"中正里","LIN":"8鄰","STREET":"中正路","SECT":" ","MAREA":" ","LANE":" ","ALLEY":" ","HOUSE_NO":"２４０號七樓","E_COORD97":167651.64000000001,"N_COORD97":2543767.2200000002,"ADDRESS":"中正路２４０號七樓","OBJECTID":343266},"geometry":{"x":167651.6400000006,"y":2543767.2200000025}},{"attributes":{"ID":343276,"DIS_CODE":0,"TOWNNAME":"中西區","LI":"中正里","LIN":"8鄰","STREET":"中正路","SECT":" ","MAREA":" ","LANE":" ","ALLEY":" ","HOUSE_NO":"２４０號九樓","E_COORD97":167651.64000000001,"N_COORD97":2543767.2200000002,"ADDRESS":"中正路２４０號九樓","OBJECTID":343267},"geometry":{"x":167651.6400000006,"y":2543767.2200000025}},{"attributes":{"ID":343277,"DIS_CODE":0,"TOWNNAME":"中西區","LI":"中正里","LIN":"8鄰","STREET":"中正路","SECT":" ","MAREA":" ","LANE":" ","ALLEY":" ","HOUSE_NO":"２４０號八樓","E_COORD97":167651.64000000001,"N_COORD97":2543767.2200000002,"ADDRESS":"中正路２４０號八樓","OBJECTID":343268},"geometry":{"x":167651.6400000006,"y":2543767.2200000025}},{"attributes":{"ID":343278,"DIS_CODE":0,"TOWNNAME":"鹽水區","LI":"下中里","LIN":"5鄰","STREET":" ","SECT":" ","MAREA":"下中","LANE":" ","ALLEY":" ","HOUSE_NO":"４號","E_COORD97":172390.22,"N_COORD97":2579952.4900000002,"ADDRESS":"下中４號","OBJECTID":343269},"geometry":{"x":172390.2200000016,"y":2579952.4900000039}},{"attributes":{"ID":343279,"DIS_CODE":0,"TOWNNAME":"鹽水區","LI":"水仙里","LIN":"5鄰","STREET":"中山路","SECT":" ","MAREA":" ","LANE":"３巷","ALLEY":" ","HOUSE_NO":"１６號","E_COORD97":175042.03,"N_COORD97":2579784.9700000002,"ADDRESS":"中山路３巷１６號","OBJECTID":343270},"geometry":{"x":175042.03000000119,"y":2579784.9700000025}},{"attributes":{"ID":343280,"DIS_CODE":0,"TOWNNAME":"鹽水區","LI":"水秀里","LIN":"5鄰","STREET":" ","SECT":" ","MAREA":"土庫","LANE":" ","ALLEY":" ","HOUSE_NO":"６５號","E_COORD97":176201.38,"N_COORD97":2580115.4900000002,"ADDRESS":"土庫６５號","OBJECTID":343271},"geometry":{"x":176201.37999999989,"y":2580115.4900000021}},{"attributes":{"ID":343281,"DIS_CODE":0,"TOWNNAME":"鹽水區","LI":"大莊里","LIN":"5鄰","STREET":" ","SECT":" ","MAREA":"大莊","LANE":" ","ALLEY":" ","HOUSE_NO":"２８號","E_COORD97":172912.35999999999,"N_COORD97":2576790.1299999999,"ADDRESS":"大莊２８號","OBJECTID":343272},"geometry":{"x":172912.36000000127,"y":2576790.1299999971}},{"attributes":{"ID":343282,"DIS_CODE":0,"TOWNNAME":"鹽水區","LI":"大莊里","LIN":"5鄰","STREET":" ","SECT":" ","MAREA":"大莊","LANE":" ","ALLEY":" ","HOUSE_NO":"２９號","E_COORD97":172844.79999999999,"N_COORD97":2576799.1600000001,"ADDRESS":"大莊２９號","OBJECTID":343273},"geometry":{"x":172844.80000000075,"y":2576799.160000002}},{"attributes":{"ID":343283,"DIS_CODE":0,"TOWNNAME":"鹽水區","LI":"大莊里","LIN":"5鄰","STREET":" ","SECT":" ","MAREA":"大莊","LANE":" ","ALLEY":" ","HOUSE_NO":"３１號","E_COORD97":172828,"N_COORD97":2576799.79,"ADDRESS":"大莊３１號","OBJECTID":343274},"geometry":{"x":172828.00000000093,"y":2576799.7900000028}},{"attributes":{"ID":343284,"DIS_CODE":0,"TOWNNAME":"鹽水區","LI":"大莊里","LIN":"5鄰","STREET":" ","SECT":" ","MAREA":"大莊","LANE":" ","ALLEY":" ","HOUSE_NO":"３２號","E_COORD97":172830.16,"N_COORD97":2576782.6499999999,"ADDRESS":"大莊３２號","OBJECTID":343275},"geometry":{"x":172830.16000000201,"y":2576782.6500000022}},{"attributes":{"ID":343285,"DIS_CODE":0,"TOWNNAME":"鹽水區","LI":"大莊里","LIN":"5鄰","STREET":" ","SECT":" ","MAREA":"大莊","LANE":" ","ALLEY":" ","HOUSE_NO":"４７號","E_COORD97":172763.82999999999,"N_COORD97":2576787.21,"ADDRESS":"大莊４７號","OBJECTID":343276},"geometry":{"x":172763.83000000007,"y":2576787.2100000009}},{"attributes":{"ID":343286,"DIS_CODE":0,"TOWNNAME":"鹽水區","LI":"大莊里","LIN":"5鄰","STREET":" ","SECT":" ","MAREA":"大莊","LANE":" ","ALLEY":" ","HOUSE_NO":"４８號之１","E_COORD97":172793.67000000001,"N_COORD97":2576768.5600000001,"ADDRESS":"大莊４８號之１","OBJECTID":343277},"geometry":{"x":172793.66999999993,"y":2576768.5600000042}},{"attributes":{"ID":343287,"DIS_CODE":0,"TOWNNAME":"鹽水區","LI":"大莊里","LIN":"5鄰","STREET":" ","SECT":" ","MAREA":"大莊","LANE":" ","ALLEY":" ","HOUSE_NO":"４８號","E_COORD97":172784.53,"N_COORD97":2576764.3700000001,"ADDRESS":"大莊４８號","OBJECTID":343278},"geometry":{"x":172784.53000000026,"y":2576764.3700000029}},{"attributes":{"ID":343288,"DIS_CODE":0,"TOWNNAME":"鹽水區","LI":"大莊里","LIN":"5鄰","STREET":" ","SECT":" ","MAREA":"大莊","LANE":" ","ALLEY":" ","HOUSE_NO":"４９號","E_COORD97":172774.25,"N_COORD97":2576763.4199999999,"ADDRESS":"大莊４９號","OBJECTID":343279},"geometry":{"x":172774.25,"y":2576763.4200000018}},{"attributes":{"ID":343289,"DIS_CODE":0,"TOWNNAME":"鹽水區","LI":"大莊里","LIN":"5鄰","STREET":" ","SECT":" ","MAREA":"大莊","LANE":" ","ALLEY":" ","HOUSE_NO":"６３號","E_COORD97":172898.54999999999,"N_COORD97":2576746.9700000002,"ADDRESS":"大莊６３號","OBJECTID":343280},"geometry":{"x":172898.55000000075,"y":2576746.9700000025}},{"attributes":{"ID":343290,"DIS_CODE":0,"TOWNNAME":"鹽水區","LI":"大莊里","LIN":"5鄰","STREET":" ","SECT":" ","MAREA":"大莊","LANE":" ","ALLEY":" ","HOUSE_NO":"６７之１號","E_COORD97":172957.67999999999,"N_COORD97":2576766.71,"ADDRESS":"大莊６７之１號","OBJECTID":343281},"geometry":{"x":172957.6799999997,"y":2576766.7100000009}},{"attributes":{"ID":343291,"DIS_CODE":0,"TOWNNAME":"鹽水區","LI":"大莊里","LIN":"5鄰","STREET":" ","SECT":" ","MAREA":"大莊","LANE":" ","ALLEY":" ","HOUSE_NO":"６７號","E_COORD97":172943.85000000001,"N_COORD97":2576743.04,"ADDRESS":"大莊６７號","OBJECTID":343282},"geometry":{"x":172943.85000000056,"y":2576743.0399999991}},{"attributes":{"ID":343292,"DIS_CODE":0,"TOWNNAME":"鹽水區","LI":"大豐里","LIN":"5鄰","STREET":" ","SECT":" ","MAREA":"大豐","LANE":" ","ALLEY":" ","HOUSE_NO":"４４號","E_COORD97":170512.79000000001,"N_COORD97":2573760.8900000001,"ADDRESS":"大豐４４號","OBJECTID":343283},"geometry":{"x":170512.79000000004,"y":2573760.8900000025}},{"attributes":{"ID":343293,"DIS_CODE":0,"TOWNNAME":"鹽水區","LI":"大豐里","LIN":"5鄰","STREET":" ","SECT":" ","MAREA":"大豐","LANE":" ","ALLEY":" ","HOUSE_NO":"４５號","E_COORD97":170535.12,"N_COORD97":2573762.8900000001,"ADDRESS":"大豐４５號","OBJECTID":343284},"geometry":{"x":170535.12000000197,"y":2573762.8900000043}},{"attributes":{"ID":343294,"DIS_CODE":0,"TOWNNAME":"佳里區","LI":"安西里","LIN":"35鄰","STREET":"育善街","SECT":" ","MAREA":" ","LANE":"２７２巷","ALLEY":" ","HOUSE_NO":"７號","E_COORD97":164964.32000000001,"N_COORD97":2562720.7999999998,"ADDRESS":"育善街２７２巷７號","OBJECTID":343285},"geometry":{"x":164964.3200000003,"y":2562720.7999999989}},{"attributes":{"ID":343295,"DIS_CODE":0,"TOWNNAME":"中西區","LI":"中正里","LIN":"8鄰","STREET":"中正路","SECT":" ","MAREA":" ","LANE":" ","ALLEY":" ","HOUSE_NO":"２４０號十一樓","E_COORD97":167651.64000000001,"N_COORD97":2543767.2200000002,"ADDRESS":"中正路２４０號十一樓","OBJECTID":343286},"geometry":{"x":167651.6400000006,"y":2543767.2200000025}},{"attributes":{"ID":343296,"DIS_CODE":0,"TOWNNAME":"關廟區","LI":"田中里","LIN":"5鄰","STREET":"中大街","SECT":" ","MAREA":" ","LANE":" ","ALLEY":" ","HOUSE_NO":"１３７號","E_COORD97":183993.680024,"N_COORD97":2533158.1003700001,"ADDRESS":"中大街１３７號","OBJECTID":343287},"geometry":{"x":183993.68002400082,"y":2533158.1003750004}},{"attributes":{"ID":343297,"DIS_CODE":0,"TOWNNAME":"關廟區","LI":"田中里","LIN":"5鄰","STREET":"中大街","SECT":" ","MAREA":" ","LANE":"１２７巷","ALLEY":" ","HOUSE_NO":"８號","E_COORD97":184111.54000000001,"N_COORD97":2533344.25,"ADDRESS":"中大街１２７巷８號","OBJECTID":343288},"geometry":{"x":184111.54000000004,"y":2533344.2500000019}},{"attributes":{"ID":343298,"DIS_CODE":0,"TOWNNAME":"關廟區","LI":"五甲里","LIN":"5鄰","STREET":"五甲路","SECT":" ","MAREA":" ","LANE":"２１巷","ALLEY":" ","HOUSE_NO":"７號","E_COORD97":181277.22,"N_COORD97":2539065.25,"ADDRESS":"五甲路２１巷７號","OBJECTID":343289},"geometry":{"x":181277.21999999974,"y":2539065.25}},{"attributes":{"ID":343299,"DIS_CODE":0,"TOWNNAME":"關廟區","LI":"五甲里","LIN":"5鄰","STREET":"五甲路","SECT":" ","MAREA":" ","LANE":"２１巷","ALLEY":" ","HOUSE_NO":"１３號","E_COORD97":181278.07000000001,"N_COORD97":2539038.25,"ADDRESS":"五甲路２１巷１３號","OBJECTID":343290},"geometry":{"x":181278.07000000216,"y":2539038.25}},{"attributes":{"ID":343300,"DIS_CODE":0,"TOWNNAME":"關廟區","LI":"下湖里","LIN":"5鄰","STREET":"下湖二街","SECT":" ","MAREA":" ","LANE":"６９巷","ALLEY":" ","HOUSE_NO":"７號","E_COORD97":179343.44,"N_COORD97":2543035.25,"ADDRESS":"下湖二街６９巷７號","OBJECTID":343291},"geometry":{"x":179343.44000000134,"y":2543035.25}},{"attributes":{"ID":343301,"DIS_CODE":0,"TOWNNAME":"關廟區","LI":"布袋里","LIN":"5鄰","STREET":"南雄南路","SECT":" ","MAREA":" ","LANE":"１７５巷","ALLEY":" ","HOUSE_NO":"８號","E_COORD97":183169.69,"N_COORD97":2535587.25,"ADDRESS":"南雄南路１７５巷８號","OBJECTID":343292},"geometry":{"x":183169.69000000134,"y":2535587.2500000037}},{"attributes":{"ID":343302,"DIS_CODE":0,"TOWNNAME":"佳里區","LI":"安西里","LIN":"35鄰","STREET":"育善街","SECT":" ","MAREA":" ","LANE":"２７２巷","ALLEY":" ","HOUSE_NO":"９號","E_COORD97":164968.73000000001,"N_COORD97":2562720.7000000002,"ADDRESS":"育善街２７２巷９號","OBJECTID":343293},"geometry":{"x":164968.73000000045,"y":2562720.7000000011}},{"attributes":{"ID":343303,"DIS_CODE":0,"TOWNNAME":"佳里區","LI":"安西里","LIN":"35鄰","STREET":"育善街","SECT":" ","MAREA":" ","LANE":"２７６巷","ALLEY":" ","HOUSE_NO":"１０號","E_COORD97":164955.06,"N_COORD97":2562740.79,"ADDRESS":"育善街２７６巷１０號","OBJECTID":343294},"geometry":{"x":164955.06000000052,"y":2562740.790000001}},{"attributes":{"ID":343304,"DIS_CODE":0,"TOWNNAME":"佳里區","LI":"安西里","LIN":"35鄰","STREET":"育善街","SECT":" ","MAREA":" ","LANE":"２７６巷","ALLEY":" ","HOUSE_NO":"１１號","E_COORD97":164953.92999999999,"N_COORD97":2562771.1699999999,"ADDRESS":"育善街２７６巷１１號","OBJECTID":343295},"geometry":{"x":164953.93000000063,"y":2562771.1699999999}},{"attributes":{"ID":343305,"DIS_CODE":0,"TOWNNAME":"佳里區","LI":"安西里","LIN":"35鄰","STREET":"育善街","SECT":" ","MAREA":" ","LANE":"２７６巷","ALLEY":" ","HOUSE_NO":"１２號","E_COORD97":164959.76000000001,"N_COORD97":2562740.4900000002,"ADDRESS":"育善街２７６巷１２號","OBJECTID":343296},"geometry":{"x":164959.75999999978,"y":2562740.4900000021}},{"attributes":{"ID":343306,"DIS_CODE":0,"TOWNNAME":"佳里區","LI":"安西里","LIN":"35鄰","STREET":"育善街","SECT":" ","MAREA":" ","LANE":"２７６巷","ALLEY":" ","HOUSE_NO":"１３號","E_COORD97":164953.79999999999,"N_COORD97":2562775.6499999999,"ADDRESS":"育善街２７６巷１３號","OBJECTID":343297},"geometry":{"x":164953.79999999981,"y":2562775.6499999985}},{"attributes":{"ID":343307,"DIS_CODE":0,"TOWNNAME":"佳里區","LI":"安西里","LIN":"35鄰","STREET":"育善街","SECT":" ","MAREA":" ","LANE":"２７６巷","ALLEY":" ","HOUSE_NO":"１５號","E_COORD97":164954.23000000001,"N_COORD97":2562779.5699999998,"ADDRESS":"育善街２７６巷１５號","OBJECTID":343298},"geometry":{"x":164954.23000000138,"y":2562779.570000004}},{"attributes":{"ID":343308,"DIS_CODE":0,"TOWNNAME":"佳里區","LI":"安西里","LIN":"35鄰","STREET":"育善街","SECT":" ","MAREA":" ","LANE":"２７６巷","ALLEY":" ","HOUSE_NO":"１６號","E_COORD97":164963.59,"N_COORD97":2562740.8999999999,"ADDRESS":"育善街２７６巷１６號","OBJECTID":343299},"geometry":{"x":164963.59000000078,"y":2562740.9000000022}},{"attributes":{"ID":343309,"DIS_CODE":0,"TOWNNAME":"佳里區","LI":"安西里","LIN":"35鄰","STREET":"育善街","SECT":" ","MAREA":" ","LANE":"２７６巷","ALLEY":" ","HOUSE_NO":"２０號","E_COORD97":164972.16,"N_COORD97":2562740.6099999999,"ADDRESS":"育善街２７６巷２０號","OBJECTID":343300},"geometry":{"x":164972.16000000015,"y":2562740.6099999994}},{"attributes":{"ID":343310,"DIS_CODE":0,"TOWNNAME":"中西區","LI":"中正里","LIN":"8鄰","STREET":"中正路","SECT":" ","MAREA":" ","LANE":" ","ALLEY":" ","HOUSE_NO":"２４０號十樓","E_COORD97":167651.64000000001,"N_COORD97":2543767.2200000002,"ADDRESS":"中正路２４０號十樓","OBJECTID":343301},"geometry":{"x":167651.6400000006,"y":2543767.2200000025}},{"attributes":{"ID":343311,"DIS_CODE":0,"TOWNNAME":"中西區","LI":"中正里","LIN":"8鄰","STREET":"中正路","SECT":" ","MAREA":" ","LANE":" ","ALLEY":" ","HOUSE_NO":"２４０號五樓","E_COORD97":167651.64000000001,"N_COORD97":2543767.2200000002,"ADDRESS":"中正路２４０號五樓","OBJECTID":343302},"geometry":{"x":167651.6400000006,"y":2543767.2200000025}},{"attributes":{"ID":343312,"DIS_CODE":0,"TOWNNAME":"中西區","LI":"中正里","LIN":"8鄰","STREET":"中正路","SECT":" ","MAREA":" ","LANE":" ","ALLEY":" ","HOUSE_NO":"２４０號六樓","E_COORD97":167651.64000000001,"N_COORD97":2543767.2200000002,"ADDRESS":"中正路２４０號六樓","OBJECTID":343303},"geometry":{"x":167651.6400000006,"y":2543767.2200000025}},{"attributes":{"ID":343313,"DIS_CODE":0,"TOWNNAME":"中西區","LI":"中正里","LIN":"8鄰","STREET":"中正路","SECT":" ","MAREA":" ","LANE":" ","ALLEY":" ","HOUSE_NO":"２４０號四樓","E_COORD97":167651.64000000001,"N_COORD97":2543767.2200000002,"ADDRESS":"中正路２４０號四樓","OBJECTID":343304},"geometry":{"x":167651.6400000006,"y":2543767.2200000025}},{"attributes":{"ID":343314,"DIS_CODE":0,"TOWNNAME":"南區","LI":"光明里","LIN":"8鄰","STREET":"利南街","SECT":" ","MAREA":" ","LANE":" ","ALLEY":" ","HOUSE_NO":"２１７號二樓","E_COORD97":166743.04999999999,"N_COORD97":2541595.2599999998,"ADDRESS":"利南街２１７號二樓","OBJECTID":343305},"geometry":{"x":166743.05000000168,"y":2541595.2600000016}},{"attributes":{"ID":343315,"DIS_CODE":0,"TOWNNAME":"佳里區","LI":"安西里","LIN":"35鄰","STREET":"育善街","SECT":" ","MAREA":" ","LANE":"２７６巷","ALLEY":" ","HOUSE_NO":"２１號","E_COORD97":164970.72,"N_COORD97":2562787.25,"ADDRESS":"育善街２７６巷２１號","OBJECTID":343306},"geometry":{"x":164970.72000000067,"y":2562787.25}},{"attributes":{"ID":343316,"DIS_CODE":0,"TOWNNAME":"安南區","LI":"安富里","LIN":"35鄰","STREET":"府安路","SECT":"五段","MAREA":" ","LANE":"１６２巷","ALLEY":" ","HOUSE_NO":"８５號","E_COORD97":167736.88,"N_COORD97":2547235.0299999998,"ADDRESS":"府安路五段１６２巷８５號","OBJECTID":343307},"geometry":{"x":167736.87999999989,"y":2547235.0300000012}},{"attributes":{"ID":343317,"DIS_CODE":0,"TOWNNAME":"安南區","LI":"安富里","LIN":"35鄰","STREET":"府安路","SECT":"五段","MAREA":" ","LANE":"１６２巷","ALLEY":" ","HOUSE_NO":"５１號","E_COORD97":167757.92999999999,"N_COORD97":2547131.4900000002,"ADDRESS":"府安路五段１６２巷５１號","OBJECTID":343308},"geometry":{"x":167757.93000000063,"y":2547131.4900000021}},{"attributes":{"ID":343318,"DIS_CODE":0,"TOWNNAME":"安南區","LI":"安富里","LIN":"35鄰","STREET":"府安路","SECT":"五段","MAREA":" ","LANE":"１６２巷","ALLEY":" ","HOUSE_NO":"５３號","E_COORD97":167756.07000000001,"N_COORD97":2547136.23,"ADDRESS":"府安路五段１６２巷５３號","OBJECTID":343309},"geometry":{"x":167756.07000000123,"y":2547136.2300000023}},{"attributes":{"ID":343319,"DIS_CODE":0,"TOWNNAME":"安南區","LI":"安富里","LIN":"35鄰","STREET":"府安路","SECT":"五段","MAREA":" ","LANE":"１６２巷","ALLEY":" ","HOUSE_NO":"５５號","E_COORD97":167755.56,"N_COORD97":2547140.46,"ADDRESS":"府安路五段１６２巷５５號","OBJECTID":343310},"geometry":{"x":167755.56000000052,"y":2547140.4600000009}},{"attributes":{"ID":343320,"DIS_CODE":0,"TOWNNAME":"南區","LI":"光明里","LIN":"8鄰","STREET":"利南街","SECT":" ","MAREA":" ","LANE":" ","ALLEY":" ","HOUSE_NO":"２１７號三樓","E_COORD97":166743.04999999999,"N_COORD97":2541595.2599999998,"ADDRESS":"利南街２１７號三樓","OBJECTID":343311},"geometry":{"x":166743.05000000168,"y":2541595.2600000016}},{"attributes":{"ID":343321,"DIS_CODE":0,"TOWNNAME":"安南區","LI":"安富里","LIN":"35鄰","STREET":"府安路","SECT":"五段","MAREA":" ","LANE":"１６２巷","ALLEY":" ","HOUSE_NO":"５７號","E_COORD97":167754.88,"N_COORD97":2547145.71,"ADDRESS":"府安路五段１６２巷５７號","OBJECTID":343312},"geometry":{"x":167754.88000000082,"y":2547145.7100000009}},{"attributes":{"ID":343322,"DIS_CODE":0,"TOWNNAME":"佳里區","LI":"忠仁里","LIN":"14鄰","STREET":" ","SECT":" ","MAREA":"忠仁","LANE":" ","ALLEY":" ","HOUSE_NO":"１０６號之７","E_COORD97":166105.79000000001,"N_COORD97":2562145.96,"ADDRESS":"忠仁１０６號之７","OBJECTID":343313},"geometry":{"x":166105.79000000004,"y":2562145.9600000009}},{"attributes":{"ID":343323,"DIS_CODE":0,"TOWNNAME":"安南區","LI":"安富里","LIN":"35鄰","STREET":"府安路","SECT":"五段","MAREA":" ","LANE":"１６２巷","ALLEY":" ","HOUSE_NO":"５９號","E_COORD97":167754.20999999999,"N_COORD97":2547151.2999999998,"ADDRESS":"府安路五段１６２巷５９號","OBJECTID":343314},"geometry":{"x":167754.21000000183,"y":2547151.3000000007}},{"attributes":{"ID":343324,"DIS_CODE":0,"TOWNNAME":"安南區","LI":"安富里","LIN":"35鄰","STREET":"府安路","SECT":"五段","MAREA":" ","LANE":"１６２巷","ALLEY":" ","HOUSE_NO":"６１號","E_COORD97":167753.19,"N_COORD97":2547156.8900000001,"ADDRESS":"府安路五段１６２巷６１號","OBJECTID":343315},"geometry":{"x":167753.19000000134,"y":2547156.8900000006}},{"attributes":{"ID":343325,"DIS_CODE":0,"TOWNNAME":"安南區","LI":"安富里","LIN":"35鄰","STREET":"府安路","SECT":"五段","MAREA":" ","LANE":"１６２巷","ALLEY":" ","HOUSE_NO":"６３號","E_COORD97":167752.34,"N_COORD97":2547161.29,"ADDRESS":"府安路五段１６２巷６３號","OBJECTID":343316},"geometry":{"x":167752.33999999985,"y":2547161.290000001}},{"attributes":{"ID":343326,"DIS_CODE":0,"TOWNNAME":"安南區","LI":"安富里","LIN":"35鄰","STREET":"府安路","SECT":"五段","MAREA":" ","LANE":"１６２巷","ALLEY":" ","HOUSE_NO":"６５號","E_COORD97":167751.67000000001,"N_COORD97":2547165.7000000002,"ADDRESS":"府安路五段１６２巷６５號","OBJECTID":343317},"geometry":{"x":167751.67000000086,"y":2547165.7000000011}},{"attributes":{"ID":343327,"DIS_CODE":0,"TOWNNAME":"安南區","LI":"安富里","LIN":"35鄰","STREET":"府安路","SECT":"五段","MAREA":" ","LANE":"１６２巷","ALLEY":" ","HOUSE_NO":"６７號","E_COORD97":167749.79999999999,"N_COORD97":2547170.4399999999,"ADDRESS":"府安路五段１６２巷６７號","OBJECTID":343318},"geometry":{"x":167749.79999999981,"y":2547170.4400000032}},{"attributes":{"ID":343328,"DIS_CODE":0,"TOWNNAME":"安南區","LI":"安富里","LIN":"35鄰","STREET":"府安路","SECT":"五段","MAREA":" ","LANE":"１６２巷","ALLEY":" ","HOUSE_NO":"６９號","E_COORD97":167748.95999999999,"N_COORD97":2547174.8399999999,"ADDRESS":"府安路五段１６２巷６９號","OBJECTID":343319},"geometry":{"x":167748.95999999903,"y":2547174.8400000036}},{"attributes":{"ID":343329,"DIS_CODE":0,"TOWNNAME":"安南區","LI":"安富里","LIN":"35鄰","STREET":"府安路","SECT":"五段","MAREA":" ","LANE":"１６２巷","ALLEY":" ","HOUSE_NO":"７１號","E_COORD97":167748.10999999999,"N_COORD97":2547179.0699999998,"ADDRESS":"府安路五段１６２巷７１號","OBJECTID":343320},"geometry":{"x":167748.11000000034,"y":2547179.0700000003}},{"attributes":{"ID":343330,"DIS_CODE":0,"TOWNNAME":"安南區","LI":"安富里","LIN":"35鄰","STREET":"府安路","SECT":"五段","MAREA":" ","LANE":"１６２巷","ALLEY":" ","HOUSE_NO":"７３號","E_COORD97":167746.72,"N_COORD97":2547187.7200000002,"ADDRESS":"府安路五段１６２巷７３號","OBJECTID":343321},"geometry":{"x":167746.71999999974,"y":2547187.7200000025}},{"attributes":{"ID":343331,"DIS_CODE":0,"TOWNNAME":"安南區","LI":"安富里","LIN":"35鄰","STREET":"府安路","SECT":"五段","MAREA":" ","LANE":"１６２巷","ALLEY":" ","HOUSE_NO":"９５號","E_COORD97":167729.89999999999,"N_COORD97":2547268.3700000001,"ADDRESS":"府安路五段１６２巷９５號","OBJECTID":343322},"geometry":{"x":167729.9000000013,"y":2547268.3700000029}},{"attributes":{"ID":343332,"DIS_CODE":0,"TOWNNAME":"安南區","LI":"安富里","LIN":"35鄰","STREET":"府安路","SECT":"五段","MAREA":" ","LANE":"１６２巷","ALLEY":" ","HOUSE_NO":"９３號","E_COORD97":167731.95999999999,"N_COORD97":2547262.6499999999,"ADDRESS":"府安路五段１６２巷９３號","OBJECTID":343323},"geometry":{"x":167731.95999999996,"y":2547262.6500000022}},{"attributes":{"ID":343333,"DIS_CODE":0,"TOWNNAME":"安南區","LI":"安富里","LIN":"35鄰","STREET":"海佃路","SECT":"一段","MAREA":" ","LANE":"１５８巷","ALLEY":" ","HOUSE_NO":"１５８號","E_COORD97":167719.73999999999,"N_COORD97":2547282.4900000002,"ADDRESS":"海佃路一段１５８巷１５８號","OBJECTID":343324},"geometry":{"x":167719.74000000022,"y":2547282.4899999984}},{"attributes":{"ID":343334,"DIS_CODE":0,"TOWNNAME":"麻豆區","LI":"麻口里","LIN":"5鄰","STREET":" ","SECT":" ","MAREA":"麻豆口","LANE":" ","ALLEY":" ","HOUSE_NO":"３２號","E_COORD97":170175.54999999999,"N_COORD97":2564581.04,"ADDRESS":"麻豆口３２號","OBJECTID":343325},"geometry":{"x":170175.54999999981,"y":2564581.0399999991}},{"attributes":{"ID":343335,"DIS_CODE":0,"TOWNNAME":"關廟區","LI":"布袋里","LIN":"5鄰","STREET":"長文街","SECT":" ","MAREA":" ","LANE":"１３５巷","ALLEY":" ","HOUSE_NO":"３５號","E_COORD97":182876.29000000001,"N_COORD97":2535310.2999999998,"ADDRESS":"長文街１３５巷３５號","OBJECTID":343326},"geometry":{"x":182876.29000000004,"y":2535310.3000000026}},{"attributes":{"ID":343336,"DIS_CODE":0,"TOWNNAME":"關廟區","LI":"北花里","LIN":"5鄰","STREET":"四維街","SECT":" ","MAREA":" ","LANE":"３５０巷","ALLEY":" ","HOUSE_NO":"４１號","E_COORD97":182008.91,"N_COORD97":2540253.25,"ADDRESS":"四維街３５０巷４１號","OBJECTID":343327},"geometry":{"x":182008.91000000015,"y":2540253.2500000019}},{"attributes":{"ID":343337,"DIS_CODE":0,"TOWNNAME":"關廟區","LI":"東勢里","LIN":"5鄰","STREET":"東興路","SECT":" ","MAREA":" ","LANE":"２９２巷","ALLEY":" ","HOUSE_NO":"５號","E_COORD97":181831.57000000001,"N_COORD97":2539525.25,"ADDRESS":"東興路２９２巷５號","OBJECTID":343328},"geometry":{"x":181831.5700000003,"y":2539525.25}},{"attributes":{"ID":343338,"DIS_CODE":0,"TOWNNAME":"關廟區","LI":"松腳里","LIN":"5鄰","STREET":"中山路","SECT":"一段","MAREA":" ","LANE":"２１巷","ALLEY":" ","HOUSE_NO":"１７號","E_COORD97":182073.45999999999,"N_COORD97":2539897.2799999998,"ADDRESS":"中山路一段２１巷１７號","OBJECTID":343329},"geometry":{"x":182073.46000000183,"y":2539897.2799999993}},{"attributes":{"ID":343339,"DIS_CODE":0,"TOWNNAME":"關廟區","LI":"北花里","LIN":"5鄰","STREET":"園東街","SECT":" ","MAREA":" ","LANE":"１４０巷","ALLEY":" ","HOUSE_NO":"６號","E_COORD97":182072.60999999999,"N_COORD97":2540267.25,"ADDRESS":"園東街１４０巷６號","OBJECTID":343330},"geometry":{"x":182072.61000000034,"y":2540267.2500000019}},{"attributes":{"ID":343340,"DIS_CODE":0,"TOWNNAME":"關廟區","LI":"北勢里","LIN":"5鄰","STREET":"中正路","SECT":" ","MAREA":" ","LANE":"７３８巷","ALLEY":" ","HOUSE_NO":"２５號","E_COORD97":181595.10999999999,"N_COORD97":2540356.25,"ADDRESS":"中正路７３８巷２５號","OBJECTID":343331},"geometry":{"x":181595.11000000127,"y":2540356.25}},{"attributes":{"ID":343341,"DIS_CODE":0,"TOWNNAME":"關廟區","LI":"松腳里","LIN":"5鄰","STREET":"中山路","SECT":"一段","MAREA":" ","LANE":"２１巷","ALLEY":" ","HOUSE_NO":"２０號","E_COORD97":182047.35999999999,"N_COORD97":2539902.2799999998,"ADDRESS":"中山路一段２１巷２０號","OBJECTID":343332},"geometry":{"x":182047.3600000022,"y":2539902.2800000031}},{"attributes":{"ID":343342,"DIS_CODE":0,"TOWNNAME":"關廟區","LI":"北勢里","LIN":"5鄰","STREET":"成功路","SECT":" ","MAREA":" ","LANE":"１１５巷","ALLEY":" ","HOUSE_NO":"９號","E_COORD97":181575.57000000001,"N_COORD97":2540404.27,"ADDRESS":"成功路１１５巷９號","OBJECTID":343333},"geometry":{"x":181575.5700000003,"y":2540404.2699999977}},{"attributes":{"ID":343343,"DIS_CODE":0,"TOWNNAME":"關廟區","LI":"北勢里","LIN":"5鄰","STREET":"成功路","SECT":" ","MAREA":" ","LANE":"１１５巷","ALLEY":" ","HOUSE_NO":"６號","E_COORD97":181570.57000000001,"N_COORD97":2540426.27,"ADDRESS":"成功路１１５巷６號","OBJECTID":343334},"geometry":{"x":181570.5700000003,"y":2540426.2700000014}},{"attributes":{"ID":343344,"DIS_CODE":0,"TOWNNAME":"北區","LI":"成德里","LIN":"5鄰","STREET":"西門路","SECT":"四段","MAREA":" ","LANE":"６５巷","ALLEY":" ","HOUSE_NO":"７１號","E_COORD97":168521.75,"N_COORD97":2545395.7200000002,"ADDRESS":"西門路四段６５巷７１號","OBJECTID":343335},"geometry":{"x":168521.74999999907,"y":2545395.7200000007}},{"attributes":{"ID":343345,"DIS_CODE":0,"TOWNNAME":"安南區","LI":"安富里","LIN":"35鄰","STREET":"海佃路","SECT":"一段","MAREA":" ","LANE":"１５８巷","ALLEY":" ","HOUSE_NO":"１５６號","E_COORD97":167713.23000000001,"N_COORD97":2547281.2200000002,"ADDRESS":"海佃路一段１５８巷１５６號","OBJECTID":343336},"geometry":{"x":167713.23000000045,"y":2547281.2200000007}},{"attributes":{"ID":343346,"DIS_CODE":0,"TOWNNAME":"安南區","LI":"安富里","LIN":"35鄰","STREET":"海佃路","SECT":"一段","MAREA":" ","LANE":"１５８巷","ALLEY":" ","HOUSE_NO":"１６０號","E_COORD97":167726.88,"N_COORD97":2547283.6099999999,"ADDRESS":"海佃路一段１５８巷１６０號","OBJECTID":343337},"geometry":{"x":167726.87999999989,"y":2547283.6099999994}},{"attributes":{"ID":343347,"DIS_CODE":0,"TOWNNAME":"仁德區","LI":"成功里","LIN":"35鄰","STREET":"保華路","SECT":" ","MAREA":" ","LANE":"６４巷","ALLEY":" ","HOUSE_NO":"９號","E_COORD97":170608.70000000001,"N_COORD97":2540029,"ADDRESS":"保華路６４巷９號","OBJECTID":343338},"geometry":{"x":170608.70000000019,"y":2540029}},{"attributes":{"ID":343348,"DIS_CODE":0,"TOWNNAME":"東區","LI":"泉南里","LIN":"35鄰","STREET":"林森路","SECT":"一段","MAREA":" ","LANE":"１５３巷","ALLEY":" ","HOUSE_NO":"２９號","E_COORD97":169525,"N_COORD97":2542804.1099999999,"ADDRESS":"林森路一段１５３巷２９號","OBJECTID":343339},"geometry":{"x":169525,"y":2542804.1099999994}},{"attributes":{"ID":343349,"DIS_CODE":0,"TOWNNAME":"南區","LI":"光明里","LIN":"8鄰","STREET":"利南街","SECT":" ","MAREA":" ","LANE":" ","ALLEY":" ","HOUSE_NO":"２１７號四樓","E_COORD97":166743.04999999999,"N_COORD97":2541595.2599999998,"ADDRESS":"利南街２１７號四樓","OBJECTID":343340},"geometry":{"x":166743.05000000168,"y":2541595.2600000016}},{"attributes":{"ID":343350,"DIS_CODE":0,"TOWNNAME":"南區","LI":"光明里","LIN":"8鄰","STREET":"利南街","SECT":" ","MAREA":" ","LANE":" ","ALLEY":" ","HOUSE_NO":"２１７號四樓之１","E_COORD97":166743.04999999999,"N_COORD97":2541595.2599999998,"ADDRESS":"利南街２１７號四樓之１","OBJECTID":343341},"geometry":{"x":166743.05000000168,"y":2541595.2600000016}},{"attributes":{"ID":343351,"DIS_CODE":0,"TOWNNAME":"南區","LI":"光明里","LIN":"8鄰","STREET":"利南街","SECT":" ","MAREA":" ","LANE":" ","ALLEY":" ","HOUSE_NO":"２１７號五樓","E_COORD97":166743.04999999999,"N_COORD97":2541595.2599999998,"ADDRESS":"利南街２１７號五樓","OBJECTID":343342},"geometry":{"x":166743.05000000168,"y":2541595.2600000016}},{"attributes":{"ID":343352,"DIS_CODE":0,"TOWNNAME":"南區","LI":"光明里","LIN":"8鄰","STREET":"利南街","SECT":" ","MAREA":" ","LANE":" ","ALLEY":" ","HOUSE_NO":"２１７號五樓之１","E_COORD97":166743.04999999999,"N_COORD97":2541595.2599999998,"ADDRESS":"利南街２１７號五樓之１","OBJECTID":343343},"geometry":{"x":166743.05000000168,"y":2541595.2600000016}},{"attributes":{"ID":343353,"DIS_CODE":0,"TOWNNAME":"南區","LI":"光明里","LIN":"8鄰","STREET":"利南街","SECT":" ","MAREA":" ","LANE":" ","ALLEY":" ","HOUSE_NO":"２１９號二樓","E_COORD97":166739.70000000001,"N_COORD97":2541600.8500000001,"ADDRESS":"利南街２１９號二樓","OBJECTID":343344},"geometry":{"x":166739.70000000112,"y":2541600.8500000034}},{"attributes":{"ID":343354,"DIS_CODE":0,"TOWNNAME":"南區","LI":"光明里","LIN":"8鄰","STREET":"利南街","SECT":" ","MAREA":" ","LANE":" ","ALLEY":" ","HOUSE_NO":"２１９號三樓","E_COORD97":166739.70000000001,"N_COORD97":2541600.8500000001,"ADDRESS":"利南街２１９號三樓","OBJECTID":343345},"geometry":{"x":166739.70000000112,"y":2541600.8500000034}},{"attributes":{"ID":343355,"DIS_CODE":0,"TOWNNAME":"南區","LI":"光明里","LIN":"8鄰","STREET":"利南街","SECT":" ","MAREA":" ","LANE":" ","ALLEY":" ","HOUSE_NO":"２１９號四樓","E_COORD97":166739.70000000001,"N_COORD97":2541600.8500000001,"ADDRESS":"利南街２１９號四樓","OBJECTID":343346},"geometry":{"x":166739.70000000112,"y":2541600.8500000034}},{"attributes":{"ID":343356,"DIS_CODE":0,"TOWNNAME":"南區","LI":"光明里","LIN":"8鄰","STREET":"利南街","SECT":" ","MAREA":" ","LANE":" ","ALLEY":" ","HOUSE_NO":"２１９號五樓","E_COORD97":166739.70000000001,"N_COORD97":2541600.8500000001,"ADDRESS":"利南街２１９號五樓","OBJECTID":343347},"geometry":{"x":166739.70000000112,"y":2541600.8500000034}},{"attributes":{"ID":343357,"DIS_CODE":0,"TOWNNAME":"南區","LI":"光明里","LIN":"8鄰","STREET":"利南街","SECT":" ","MAREA":" ","LANE":" ","ALLEY":" ","HOUSE_NO":"２２１號二樓","E_COORD97":166734.10999999999,"N_COORD97":2541609.46,"ADDRESS":"利南街２２１號二樓","OBJECTID":343348},"geometry":{"x":166734.11000000034,"y":2541609.4600000028}},{"attributes":{"ID":343358,"DIS_CODE":0,"TOWNNAME":"南區","LI":"光明里","LIN":"8鄰","STREET":"利南街","SECT":" ","MAREA":" ","LANE":" ","ALLEY":" ","HOUSE_NO":"２２１號三樓","E_COORD97":166734.10999999999,"N_COORD97":2541609.46,"ADDRESS":"利南街２２１號三樓","OBJECTID":343349},"geometry":{"x":166734.11000000034,"y":2541609.4600000028}},{"attributes":{"ID":343359,"DIS_CODE":0,"TOWNNAME":"東區","LI":"泉南里","LIN":"35鄰","STREET":"林森路","SECT":"一段","MAREA":" ","LANE":"１５３巷","ALLEY":" ","HOUSE_NO":"３１號","E_COORD97":169520.97,"N_COORD97":2542801.96,"ADDRESS":"林森路一段１５３巷３１號","OBJECTID":343350},"geometry":{"x":169520.97000000067,"y":2542801.9600000028}},{"attributes":{"ID":343360,"DIS_CODE":0,"TOWNNAME":"東區","LI":"泉南里","LIN":"35鄰","STREET":"林森路","SECT":"一段","MAREA":" ","LANE":"１５３巷","ALLEY":" ","HOUSE_NO":"３３號","E_COORD97":169515.87,"N_COORD97":2542801.96,"ADDRESS":"林森路一段１５３巷３３號","OBJECTID":343351},"geometry":{"x":169515.87000000011,"y":2542801.9600000028}},{"attributes":{"ID":343361,"DIS_CODE":0,"TOWNNAME":"東區","LI":"泉南里","LIN":"35鄰","STREET":"林森路","SECT":"一段","MAREA":" ","LANE":"１５３巷","ALLEY":" ","HOUSE_NO":"３５號","E_COORD97":169512.64000000001,"N_COORD97":2542800.3500000001,"ADDRESS":"林森路一段１５３巷３５號","OBJECTID":343352},"geometry":{"x":169512.6400000006,"y":2542800.3499999996}},{"attributes":{"ID":343362,"DIS_CODE":0,"TOWNNAME":"東區","LI":"泉南里","LIN":"35鄰","STREET":"林森路","SECT":"一段","MAREA":" ","LANE":"１５３巷","ALLEY":" ","HOUSE_NO":"３７號","E_COORD97":169508.20999999999,"N_COORD97":2542797.6699999999,"ADDRESS":"林森路一段１５３巷３７號","OBJECTID":343353},"geometry":{"x":169508.20999999996,"y":2542797.6699999999}},{"attributes":{"ID":343363,"DIS_CODE":0,"TOWNNAME":"東區","LI":"泉南里","LIN":"35鄰","STREET":"林森路","SECT":"一段","MAREA":" ","LANE":"１５３巷","ALLEY":" ","HOUSE_NO":"３９號","E_COORD97":169503.10999999999,"N_COORD97":2542793.6400000001,"ADDRESS":"林森路一段１５３巷３９號","OBJECTID":343354},"geometry":{"x":169503.11000000127,"y":2542793.6400000025}},{"attributes":{"ID":343364,"DIS_CODE":0,"TOWNNAME":"東區","LI":"泉南里","LIN":"35鄰","STREET":"林森路","SECT":"一段","MAREA":" ","LANE":"１５３巷","ALLEY":" ","HOUSE_NO":"４１號","E_COORD97":169497.32999999999,"N_COORD97":2542787.8599999999,"ADDRESS":"林森路一段１５３巷４１號","OBJECTID":343355},"geometry":{"x":169497.33000000007,"y":2542787.8600000013}},{"attributes":{"ID":343365,"DIS_CODE":0,"TOWNNAME":"東區","LI":"泉南里","LIN":"35鄰","STREET":"林森路","SECT":"一段","MAREA":" ","LANE":"１５３巷","ALLEY":" ","HOUSE_NO":"４３號","E_COORD97":169489.54999999999,"N_COORD97":2542780.48,"ADDRESS":"林森路一段１５３巷４３號","OBJECTID":343356},"geometry":{"x":169489.55000000075,"y":2542780.4800000042}},{"attributes":{"ID":343366,"DIS_CODE":0,"TOWNNAME":"東區","LI":"泉南里","LIN":"35鄰","STREET":"林森路","SECT":"一段","MAREA":" ","LANE":"１５３巷","ALLEY":" ","HOUSE_NO":"４５號","E_COORD97":169483.89999999999,"N_COORD97":2542777.1200000001,"ADDRESS":"林森路一段１５３巷４５號","OBJECTID":343357},"geometry":{"x":169483.90000000037,"y":2542777.1200000048}},{"attributes":{"ID":343367,"DIS_CODE":0,"TOWNNAME":"永康區","LI":"正強里","LIN":"35鄰","STREET":"正強街","SECT":" ","MAREA":" ","LANE":"３１５巷","ALLEY":" ","HOUSE_NO":"１號","E_COORD97":173230.64999999999,"N_COORD97":2548294.0800000001,"ADDRESS":"正強街３１５巷１號","OBJECTID":343358},"geometry":{"x":173230.6500000013,"y":2548294.0800000001}},{"attributes":{"ID":343368,"DIS_CODE":0,"TOWNNAME":"永康區","LI":"正強里","LIN":"35鄰","STREET":"正強街","SECT":" ","MAREA":" ","LANE":"３１３巷","ALLEY":" ","HOUSE_NO":"８號","E_COORD97":173228.32999999999,"N_COORD97":2548268.3900000001,"ADDRESS":"正強街３１３巷８號","OBJECTID":343359},"geometry":{"x":173228.33000000007,"y":2548268.3900000025}},{"attributes":{"ID":343369,"DIS_CODE":0,"TOWNNAME":"永康區","LI":"正強里","LIN":"35鄰","STREET":"正強街","SECT":" ","MAREA":" ","LANE":"３１３巷","ALLEY":" ","HOUSE_NO":"２３號","E_COORD97":173190.10999999999,"N_COORD97":2548239.8999999999,"ADDRESS":"正強街３１３巷２３號","OBJECTID":343360},"geometry":{"x":173190.1100000022,"y":2548239.9000000022}},{"attributes":{"ID":343370,"DIS_CODE":0,"TOWNNAME":"南區","LI":"明興里","LIN":"10鄰","STREET":"金華路","SECT":"一段","MAREA":" ","LANE":"１０２巷","ALLEY":" ","HOUSE_NO":"２０號","E_COORD97":167024.25,"N_COORD97":2540513.96,"ADDRESS":"金華路一段１０２巷２０號","OBJECTID":343361},"geometry":{"x":167024.25,"y":2540513.9600000028}},{"attributes":{"ID":343371,"DIS_CODE":0,"TOWNNAME":"北區","LI":"實踐里","LIN":"18鄰","STREET":"大武街","SECT":" ","MAREA":" ","LANE":"２０５巷","ALLEY":" ","HOUSE_NO":"１１號","E_COORD97":169586.612287,"N_COORD97":2546122.77061,"ADDRESS":"大武街２０５巷１１號","OBJECTID":343362},"geometry":{"x":169586.61228700168,"y":2546122.770606}},{"attributes":{"ID":343372,"DIS_CODE":0,"TOWNNAME":"麻豆區","LI":"莊禮里","LIN":"5鄰","STREET":" ","SECT":" ","MAREA":"莊禮寮","LANE":" ","ALLEY":" ","HOUSE_NO":"５９號","E_COORD97":169430.82999999999,"N_COORD97":2566069.2000000002,"ADDRESS":"莊禮寮５９號","OBJECTID":343363},"geometry":{"x":169430.83000000101,"y":2566069.1999999993}},{"attributes":{"ID":343373,"DIS_CODE":0,"TOWNNAME":"麻豆區","LI":"莊禮里","LIN":"5鄰","STREET":" ","SECT":" ","MAREA":"莊禮寮","LANE":" ","ALLEY":" ","HOUSE_NO":"６０號","E_COORD97":169452.45999999999,"N_COORD97":2566057.2200000002,"ADDRESS":"莊禮寮６０號","OBJECTID":343364},"geometry":{"x":169452.45999999996,"y":2566057.2200000007}},{"attributes":{"ID":343374,"DIS_CODE":0,"TOWNNAME":"麻豆區","LI":"莊禮里","LIN":"5鄰","STREET":" ","SECT":" ","MAREA":"莊禮寮","LANE":" ","ALLEY":" ","HOUSE_NO":"６１號","E_COORD97":169435.54000000001,"N_COORD97":2566046.2799999998,"ADDRESS":"莊禮寮６１號","OBJECTID":343365},"geometry":{"x":169435.54000000097,"y":2566046.2800000012}},{"attributes":{"ID":343375,"DIS_CODE":0,"TOWNNAME":"麻豆區","LI":"莊禮里","LIN":"5鄰","STREET":" ","SECT":" ","MAREA":"莊禮寮","LANE":" ","ALLEY":" ","HOUSE_NO":"６２號之２","E_COORD97":169417,"N_COORD97":2566010.6299999999,"ADDRESS":"莊禮寮６２號之２","OBJECTID":343366},"geometry":{"x":169417.00000000186,"y":2566010.629999999}},{"attributes":{"ID":343376,"DIS_CODE":0,"TOWNNAME":"麻豆區","LI":"莊禮里","LIN":"5鄰","STREET":" ","SECT":" ","MAREA":"莊禮寮","LANE":" ","ALLEY":" ","HOUSE_NO":"６２號","E_COORD97":169423.42000000001,"N_COORD97":2566034.9700000002,"ADDRESS":"莊禮寮６２號","OBJECTID":343367},"geometry":{"x":169423.41999999993,"y":2566034.9700000007}},{"attributes":{"ID":343377,"DIS_CODE":0,"TOWNNAME":"麻豆區","LI":"莊禮里","LIN":"5鄰","STREET":" ","SECT":" ","MAREA":"莊禮寮","LANE":" ","ALLEY":" ","HOUSE_NO":"６５號之１","E_COORD97":169413.17999999999,"N_COORD97":2565986.1699999999,"ADDRESS":"莊禮寮６５號之１","OBJECTID":343368},"geometry":{"x":169413.1799999997,"y":2565986.1700000018}},{"attributes":{"ID":343378,"DIS_CODE":0,"TOWNNAME":"麻豆區","LI":"莊禮里","LIN":"5鄰","STREET":" ","SECT":" ","MAREA":"莊禮寮","LANE":" ","ALLEY":" ","HOUSE_NO":"６５號之２","E_COORD97":169415.20999999999,"N_COORD97":2565996.21,"ADDRESS":"莊禮寮６５號之２","OBJECTID":343369},"geometry":{"x":169415.20999999996,"y":2565996.2100000009}},{"attributes":{"ID":343379,"DIS_CODE":0,"TOWNNAME":"永康區","LI":"永康里","LIN":"35鄰","STREET":"大同街","SECT":" ","MAREA":" ","LANE":"８０１巷","ALLEY":" ","HOUSE_NO":"１３號","E_COORD97":174398.38,"N_COORD97":2546975.7400000002,"ADDRESS":"大同街８０１巷１３號","OBJECTID":343370},"geometry":{"x":174398.38000000082,"y":2546975.7400000039}},{"attributes":{"ID":343380,"DIS_CODE":0,"TOWNNAME":"永康區","LI":"永康里","LIN":"35鄰","STREET":"大同街","SECT":" ","MAREA":" ","LANE":"９２８巷","ALLEY":" ","HOUSE_NO":"１號","E_COORD97":174451.32999999999,"N_COORD97":2547005.7400000002,"ADDRESS":"大同街９２８巷１號","OBJECTID":343371},"geometry":{"x":174451.33000000101,"y":2547005.7400000002}},{"attributes":{"ID":343381,"DIS_CODE":0,"TOWNNAME":"永康區","LI":"永康里","LIN":"35鄰","STREET":"大同街","SECT":" ","MAREA":" ","LANE":"８０１巷","ALLEY":" ","HOUSE_NO":"１５號","E_COORD97":174394.32999999999,"N_COORD97":2546974.4900000002,"ADDRESS":"大同街８０１巷１５號","OBJECTID":343372},"geometry":{"x":174394.33000000101,"y":2546974.4900000021}},{"attributes":{"ID":343382,"DIS_CODE":0,"TOWNNAME":"永康區","LI":"北灣里","LIN":"35鄰","STREET":"大灣路","SECT":" ","MAREA":" ","LANE":"４０巷","ALLEY":" ","HOUSE_NO":"６６號之１","E_COORD97":175073.79999999999,"N_COORD97":2546110.1699999999,"ADDRESS":"大灣路４０巷６６號之１","OBJECTID":343373},"geometry":{"x":175073.80000000075,"y":2546110.1699999999}},{"attributes":{"ID":343383,"DIS_CODE":0,"TOWNNAME":"永康區","LI":"永康里","LIN":"35鄰","STREET":"大同街","SECT":" ","MAREA":" ","LANE":"９２８巷","ALLEY":" ","HOUSE_NO":"１５號","E_COORD97":174480.5,"N_COORD97":2547013.9900000002,"ADDRESS":"大同街９２８巷１５號","OBJECTID":343374},"geometry":{"x":174480.50000000186,"y":2547013.9900000002}},{"attributes":{"ID":343384,"DIS_CODE":0,"TOWNNAME":"北區","LI":"和順里","LIN":"35鄰","STREET":"公園南路","SECT":" ","MAREA":" ","LANE":"３６２巷","ALLEY":" ","HOUSE_NO":"２２號九樓之５","E_COORD97":168293.48000000001,"N_COORD97":2544933.5499999998,"ADDRESS":"公園南路３６２巷２２號九樓之５","OBJECTID":343375},"geometry":{"x":168293.47999999952,"y":2544933.5500000045}},{"attributes":{"ID":343385,"DIS_CODE":0,"TOWNNAME":"北區","LI":"和順里","LIN":"35鄰","STREET":"公園南路","SECT":" ","MAREA":" ","LANE":"３６２巷","ALLEY":" ","HOUSE_NO":"２２號九樓之６","E_COORD97":168293.48000000001,"N_COORD97":2544933.5499999998,"ADDRESS":"公園南路３６２巷２２號九樓之６","OBJECTID":343376},"geometry":{"x":168293.47999999952,"y":2544933.5500000045}},{"attributes":{"ID":343386,"DIS_CODE":0,"TOWNNAME":"北區","LI":"和順里","LIN":"35鄰","STREET":"公園南路","SECT":" ","MAREA":" ","LANE":"３６２巷","ALLEY":" ","HOUSE_NO":"２２號二十一樓之１","E_COORD97":168293.48000000001,"N_COORD97":2544933.5499999998,"ADDRESS":"公園南路３６２巷２２號二十一樓之１","OBJECTID":343377},"geometry":{"x":168293.47999999952,"y":2544933.5500000045}},{"attributes":{"ID":343387,"DIS_CODE":0,"TOWNNAME":"北區","LI":"和順里","LIN":"35鄰","STREET":"公園南路","SECT":" ","MAREA":" ","LANE":"３６２巷","ALLEY":" ","HOUSE_NO":"２２號二十一樓之２","E_COORD97":168293.48000000001,"N_COORD97":2544933.5499999998,"ADDRESS":"公園南路３６２巷２２號二十一樓之２","OBJECTID":343378},"geometry":{"x":168293.47999999952,"y":2544933.5500000045}},{"attributes":{"ID":343388,"DIS_CODE":0,"TOWNNAME":"北區","LI":"和順里","LIN":"35鄰","STREET":"公園南路","SECT":" ","MAREA":" ","LANE":"３６２巷","ALLEY":" ","HOUSE_NO":"２２號二十一樓之３","E_COORD97":168293.48000000001,"N_COORD97":2544933.5499999998,"ADDRESS":"公園南路３６２巷２２號二十一樓之３","OBJECTID":343379},"geometry":{"x":168293.47999999952,"y":2544933.5500000045}},{"attributes":{"ID":343389,"DIS_CODE":0,"TOWNNAME":"北區","LI":"和順里","LIN":"35鄰","STREET":"公園南路","SECT":" ","MAREA":" ","LANE":"３６２巷","ALLEY":" ","HOUSE_NO":"２２號二十一樓之５","E_COORD97":168293.48000000001,"N_COORD97":2544933.5499999998,"ADDRESS":"公園南路３６２巷２２號二十一樓之５","OBJECTID":343380},"geometry":{"x":168293.47999999952,"y":2544933.5500000045}},{"attributes":{"ID":343390,"DIS_CODE":0,"TOWNNAME":"北區","LI":"和順里","LIN":"35鄰","STREET":"公園南路","SECT":" ","MAREA":" ","LANE":"３６２巷","ALLEY":" ","HOUSE_NO":"２２號二十一樓之６","E_COORD97":168293.48000000001,"N_COORD97":2544933.5499999998,"ADDRESS":"公園南路３６２巷２２號二十一樓之６","OBJECTID":343381},"geometry":{"x":168293.47999999952,"y":2544933.5500000045}},{"attributes":{"ID":343391,"DIS_CODE":0,"TOWNNAME":"北區","LI":"和順里","LIN":"35鄰","STREET":"公園南路","SECT":" ","MAREA":" ","LANE":"３６２巷","ALLEY":" ","HOUSE_NO":"２２號二十二樓之１","E_COORD97":168293.48000000001,"N_COORD97":2544933.5499999998,"ADDRESS":"公園南路３６２巷２２號二十二樓之１","OBJECTID":343382},"geometry":{"x":168293.47999999952,"y":2544933.5500000045}},{"attributes":{"ID":343392,"DIS_CODE":0,"TOWNNAME":"北區","LI":"和順里","LIN":"35鄰","STREET":"公園南路","SECT":" ","MAREA":" ","LANE":"３６２巷","ALLEY":" ","HOUSE_NO":"２２號二十二樓之２","E_COORD97":168293.48000000001,"N_COORD97":2544933.5499999998,"ADDRESS":"公園南路３６２巷２２號二十二樓之２","OBJECTID":343383},"geometry":{"x":168293.47999999952,"y":2544933.5500000045}},{"attributes":{"ID":343393,"DIS_CODE":0,"TOWNNAME":"北區","LI":"和順里","LIN":"35鄰","STREET":"公園南路","SECT":" ","MAREA":" ","LANE":"３６２巷","ALLEY":" ","HOUSE_NO":"２２號二十二樓之３","E_COORD97":168293.48000000001,"N_COORD97":2544933.5499999998,"ADDRESS":"公園南路３６２巷２２號二十二樓之３","OBJECTID":343384},"geometry":{"x":168293.47999999952,"y":2544933.5500000045}},{"attributes":{"ID":343394,"DIS_CODE":0,"TOWNNAME":"北區","LI":"和順里","LIN":"35鄰","STREET":"公園南路","SECT":" ","MAREA":" ","LANE":"３６２巷","ALLEY":" ","HOUSE_NO":"２２號二十二樓之５","E_COORD97":168293.48000000001,"N_COORD97":2544933.5499999998,"ADDRESS":"公園南路３６２巷２２號二十二樓之５","OBJECTID":343385},"geometry":{"x":168293.47999999952,"y":2544933.5500000045}},{"attributes":{"ID":343395,"DIS_CODE":0,"TOWNNAME":"北區","LI":"和順里","LIN":"35鄰","STREET":"公園南路","SECT":" ","MAREA":" ","LANE":"３６２巷","ALLEY":" ","HOUSE_NO":"２２號二十三樓之１","E_COORD97":168293.48000000001,"N_COORD97":2544933.5499999998,"ADDRESS":"公園南路３６２巷２２號二十三樓之１","OBJECTID":343386},"geometry":{"x":168293.47999999952,"y":2544933.5500000045}},{"attributes":{"ID":343396,"DIS_CODE":0,"TOWNNAME":"北區","LI":"和順里","LIN":"35鄰","STREET":"公園南路","SECT":" ","MAREA":" ","LANE":"３６２巷","ALLEY":" ","HOUSE_NO":"２２號二十三樓之２","E_COORD97":168293.48000000001,"N_COORD97":2544933.5499999998,"ADDRESS":"公園南路３６２巷２２號二十三樓之２","OBJECTID":343387},"geometry":{"x":168293.47999999952,"y":2544933.5500000045}},{"attributes":{"ID":343397,"DIS_CODE":0,"TOWNNAME":"北區","LI":"和順里","LIN":"35鄰","STREET":"公園南路","SECT":" ","MAREA":" ","LANE":"３６２巷","ALLEY":" ","HOUSE_NO":"２２號二十樓之１","E_COORD97":168293.48000000001,"N_COORD97":2544933.5499999998,"ADDRESS":"公園南路３６２巷２２號二十樓之１","OBJECTID":343388},"geometry":{"x":168293.47999999952,"y":2544933.5500000045}},{"attributes":{"ID":343398,"DIS_CODE":0,"TOWNNAME":"北區","LI":"和順里","LIN":"35鄰","STREET":"公園南路","SECT":" ","MAREA":" ","LANE":"３６２巷","ALLEY":" ","HOUSE_NO":"２２號二十樓之２","E_COORD97":168293.48000000001,"N_COORD97":2544933.5499999998,"ADDRESS":"公園南路３６２巷２２號二十樓之２","OBJECTID":343389},"geometry":{"x":168293.47999999952,"y":2544933.5500000045}},{"attributes":{"ID":343399,"DIS_CODE":0,"TOWNNAME":"北區","LI":"和順里","LIN":"35鄰","STREET":"公園南路","SECT":" ","MAREA":" ","LANE":"３６２巷","ALLEY":" ","HOUSE_NO":"２２號二十樓之３","E_COORD97":168293.48000000001,"N_COORD97":2544933.5499999998,"ADDRESS":"公園南路３６２巷２２號二十樓之３","OBJECTID":343390},"geometry":{"x":168293.47999999952,"y":2544933.5500000045}},{"attributes":{"ID":343400,"DIS_CODE":0,"TOWNNAME":"北區","LI":"和順里","LIN":"35鄰","STREET":"公園南路","SECT":" ","MAREA":" ","LANE":"３６２巷","ALLEY":" ","HOUSE_NO":"２２號二十樓之５","E_COORD97":168293.48000000001,"N_COORD97":2544933.5499999998,"ADDRESS":"公園南路３６２巷２２號二十樓之５","OBJECTID":343391},"geometry":{"x":168293.47999999952,"y":2544933.5500000045}},{"attributes":{"ID":343401,"DIS_CODE":0,"TOWNNAME":"北區","LI":"和順里","LIN":"35鄰","STREET":"公園南路","SECT":" ","MAREA":" ","LANE":"３６２巷","ALLEY":" ","HOUSE_NO":"２２號二十樓之６","E_COORD97":168293.48000000001,"N_COORD97":2544933.5499999998,"ADDRESS":"公園南路３６２巷２２號二十樓之６","OBJECTID":343392},"geometry":{"x":168293.47999999952,"y":2544933.5500000045}},{"attributes":{"ID":343402,"DIS_CODE":0,"TOWNNAME":"北區","LI":"成德里","LIN":"20鄰","STREET":"文成一路","SECT":" ","MAREA":" ","LANE":"１５８巷","ALLEY":" ","HOUSE_NO":"２７號","E_COORD97":168389.70000000001,"N_COORD97":2546144.3700000001,"ADDRESS":"文成一路１５８巷２７號","OBJECTID":343393},"geometry":{"x":168389.70000000019,"y":2546144.370000001}},{"attributes":{"ID":343403,"DIS_CODE":0,"TOWNNAME":"北區","LI":"成德里","LIN":"20鄰","STREET":"文成一路","SECT":" ","MAREA":" ","LANE":"１５８巷","ALLEY":" ","HOUSE_NO":"２９號","E_COORD97":168392.48999999999,"N_COORD97":2546150.77,"ADDRESS":"文成一路１５８巷２９號","OBJECTID":343394},"geometry":{"x":168392.49000000022,"y":2546150.7699999996}},{"attributes":{"ID":343404,"DIS_CODE":0,"TOWNNAME":"北區","LI":"大和里","LIN":"14鄰","STREET":"文賢路","SECT":" ","MAREA":" ","LANE":"７９９巷","ALLEY":" ","HOUSE_NO":"１２號","E_COORD97":167269.35999999999,"N_COORD97":2546299.6699999999,"ADDRESS":"文賢路７９９巷１２號","OBJECTID":343395},"geometry":{"x":167269.36000000127,"y":2546299.6699999999}},{"attributes":{"ID":343405,"DIS_CODE":0,"TOWNNAME":"北區","LI":"和順里","LIN":"35鄰","STREET":"公園南路","SECT":" ","MAREA":" ","LANE":"３６２巷","ALLEY":" ","HOUSE_NO":"２２號十一樓之１","E_COORD97":168293.48000000001,"N_COORD97":2544933.5499999998,"ADDRESS":"公園南路３６２巷２２號十一樓之１","OBJECTID":343396},"geometry":{"x":168293.47999999952,"y":2544933.5500000045}},{"attributes":{"ID":343406,"DIS_CODE":0,"TOWNNAME":"北區","LI":"和順里","LIN":"35鄰","STREET":"公園南路","SECT":" ","MAREA":" ","LANE":"３６２巷","ALLEY":" ","HOUSE_NO":"２２號十一樓之２","E_COORD97":168293.48000000001,"N_COORD97":2544933.5499999998,"ADDRESS":"公園南路３６２巷２２號十一樓之２","OBJECTID":343397},"geometry":{"x":168293.47999999952,"y":2544933.5500000045}},{"attributes":{"ID":343407,"DIS_CODE":0,"TOWNNAME":"北區","LI":"和順里","LIN":"35鄰","STREET":"公園南路","SECT":" ","MAREA":" ","LANE":"３６２巷","ALLEY":" ","HOUSE_NO":"２２號十一樓之３","E_COORD97":168293.48000000001,"N_COORD97":2544933.5499999998,"ADDRESS":"公園南路３６２巷２２號十一樓之３","OBJECTID":343398},"geometry":{"x":168293.47999999952,"y":2544933.5500000045}},{"attributes":{"ID":343408,"DIS_CODE":0,"TOWNNAME":"北區","LI":"和順里","LIN":"35鄰","STREET":"公園南路","SECT":" ","MAREA":" ","LANE":"３６２巷","ALLEY":" ","HOUSE_NO":"２２號十一樓之５","E_COORD97":168293.48000000001,"N_COORD97":2544933.5499999998,"ADDRESS":"公園南路３６２巷２２號十一樓之５","OBJECTID":343399},"geometry":{"x":168293.47999999952,"y":2544933.5500000045}},{"attributes":{"ID":343409,"DIS_CODE":0,"TOWNNAME":"東區","LI":"裕聖里","LIN":"1鄰","STREET":"裕忠路","SECT":" ","MAREA":" ","LANE":" ","ALLEY":" ","HOUSE_NO":"２３５號","E_COORD97":172276.82000000001,"N_COORD97":2542514.96,"ADDRESS":"裕忠路２３５號","OBJECTID":343400},"geometry":{"x":172276.82000000123,"y":2542514.9600000028}}]}