{"displayFieldName":"TOWNNAME","fieldAliases":{"ID":"ID","DIS_CODE":"DIS_CODE","TOWNNAME":"TOWNNAME","LI":"LI","LIN":"LIN","STREET":"STREET","SECT":"SECT","MAREA":"MAREA","LANE":"LANE","ALLEY":"ALLEY","HOUSE_NO":"HOUSE_NO","E_COORD97":"E_COORD97","N_COORD97":"N_COORD97","ADDRESS":"ADDRESS","OBJECTID":"OBJECTID"},"geometryType":"esriGeometryPoint","spatialReference":{"wkid":102443,"latestWkid":3826},"fields":[{"name":"ID","type":"esriFieldTypeDouble","alias":"ID"},{"name":"DIS_CODE","type":"esriFieldTypeInteger","alias":"DIS_CODE"},{"name":"TOWNNAME","type":"esriFieldTypeString","alias":"TOWNNAME","length":8},{"name":"LI","type":"esriFieldTypeString","alias":"LI","length":8},{"name":"LIN","type":"esriFieldTypeString","alias":"LIN","length":12},{"name":"STREET","type":"esriFieldTypeString","alias":"STREET","length":20},{"name":"SECT","type":"esriFieldTypeString","alias":"SECT","length":8},{"name":"MAREA","type":"esriFieldTypeString","alias":"MAREA","length":12},{"name":"LANE","type":"esriFieldTypeString","alias":"LANE","length":10},{"name":"ALLEY","type":"esriFieldTypeString","alias":"ALLEY","length":10},{"name":"HOUSE_NO","type":"esriFieldTypeString","alias":"HOUSE_NO","length":20},{"name":"E_COORD97","type":"esriFieldTypeDouble","alias":"E_COORD97"},{"name":"N_COORD97","type":"esriFieldTypeDouble","alias":"N_COORD97"},{"name":"ADDRESS","type":"esriFieldTypeString","alias":"ADDRESS","length":50},{"name":"OBJECTID","type":"esriFieldTypeOID","alias":"OBJECTID"}],"features":[{"attributes":{"ID":637828,"DIS_CODE":0,"TOWNNAME":"佳里區","LI":"建南里","LIN":"34鄰","STREET":"佳南路","SECT":" ","MAREA":" ","LANE":" ","ALLEY":" ","HOUSE_NO":"２１９號","E_COORD97":165992.31,"N_COORD97":2560954.6800000002,"ADDRESS":"佳南路２１９號","OBJECTID":637801},"geometry":{"x":165992.31000000052,"y":2560954.6800000016}},{"attributes":{"ID":637829,"DIS_CODE":0,"TOWNNAME":"佳里區","LI":"建南里","LIN":"34鄰","STREET":"佳南路","SECT":" ","MAREA":" ","LANE":" ","ALLEY":" ","HOUSE_NO":"２２１號","E_COORD97":165987.26999999999,"N_COORD97":2560954.1899999999,"ADDRESS":"佳南路２２１號","OBJECTID":637802},"geometry":{"x":165987.27000000048,"y":2560954.1900000032}},{"attributes":{"ID":637830,"DIS_CODE":0,"TOWNNAME":"佳里區","LI":"建南里","LIN":"34鄰","STREET":"佳南路","SECT":" ","MAREA":" ","LANE":" ","ALLEY":" ","HOUSE_NO":"２２３號","E_COORD97":165982.81,"N_COORD97":2560952.7799999998,"ADDRESS":"佳南路２２３號","OBJECTID":637803},"geometry":{"x":165982.80999999959,"y":2560952.7799999993}},{"attributes":{"ID":637831,"DIS_CODE":0,"TOWNNAME":"佳里區","LI":"東寧里","LIN":"8鄰","STREET":"和平街","SECT":" ","MAREA":" ","LANE":" ","ALLEY":" ","HOUSE_NO":"１１８號","E_COORD97":165771.01000000001,"N_COORD97":2562522.1000000001,"ADDRESS":"和平街１１８號","OBJECTID":637804},"geometry":{"x":165771.01000000071,"y":2562522.1000000015}},{"attributes":{"ID":637832,"DIS_CODE":0,"TOWNNAME":"佳里區","LI":"安西里","LIN":"13鄰","STREET":"和平街","SECT":" ","MAREA":" ","LANE":" ","ALLEY":" ","HOUSE_NO":"１８５號","E_COORD97":165458.64000000001,"N_COORD97":2562467.2999999998,"ADDRESS":"和平街１８５號","OBJECTID":637805},"geometry":{"x":165458.63999999966,"y":2562467.3000000026}},{"attributes":{"ID":637833,"DIS_CODE":0,"TOWNNAME":"佳里區","LI":"安西里","LIN":"13鄰","STREET":"和平街","SECT":" ","MAREA":" ","LANE":" ","ALLEY":" ","HOUSE_NO":"１８９號","E_COORD97":165450.88,"N_COORD97":2562467.8199999998,"ADDRESS":"和平街１８９號","OBJECTID":637806},"geometry":{"x":165450.88000000175,"y":2562467.8200000003}},{"attributes":{"ID":637834,"DIS_CODE":0,"TOWNNAME":"佳里區","LI":"安西里","LIN":"13鄰","STREET":"和平街","SECT":" ","MAREA":" ","LANE":" ","ALLEY":" ","HOUSE_NO":"１９１號","E_COORD97":165446.20999999999,"N_COORD97":2562467.8599999999,"ADDRESS":"和平街１９１號","OBJECTID":637807},"geometry":{"x":165446.20999999996,"y":2562467.8599999994}},{"attributes":{"ID":637835,"DIS_CODE":0,"TOWNNAME":"佳里區","LI":"安西里","LIN":"13鄰","STREET":"和平街","SECT":" ","MAREA":" ","LANE":" ","ALLEY":" ","HOUSE_NO":"１９３號","E_COORD97":165442.89000000001,"N_COORD97":2562468.1899999999,"ADDRESS":"和平街１９３號","OBJECTID":637808},"geometry":{"x":165442.8900000006,"y":2562468.1899999995}},{"attributes":{"ID":637836,"DIS_CODE":0,"TOWNNAME":"佳里區","LI":"安西里","LIN":"13鄰","STREET":"和平街","SECT":" ","MAREA":" ","LANE":" ","ALLEY":" ","HOUSE_NO":"１９５號","E_COORD97":165438.10000000001,"N_COORD97":2562467.9100000001,"ADDRESS":"和平街１９５號","OBJECTID":637809},"geometry":{"x":165438.09999999963,"y":2562467.9100000001}},{"attributes":{"ID":637837,"DIS_CODE":0,"TOWNNAME":"佳里區","LI":"安西里","LIN":"13鄰","STREET":"和平街","SECT":" ","MAREA":" ","LANE":" ","ALLEY":" ","HOUSE_NO":"１９７號","E_COORD97":165433.54000000001,"N_COORD97":2562467.7799999998,"ADDRESS":"和平街１９７號","OBJECTID":637810},"geometry":{"x":165433.54000000097,"y":2562467.7799999993}},{"attributes":{"ID":637838,"DIS_CODE":0,"TOWNNAME":"佳里區","LI":"鎮山里","LIN":"4鄰","STREET":"延平路","SECT":" ","MAREA":" ","LANE":" ","ALLEY":" ","HOUSE_NO":"１１２號","E_COORD97":165953.07999999999,"N_COORD97":2561816.4700000002,"ADDRESS":"延平路１１２號","OBJECTID":637811},"geometry":{"x":165953.07999999914,"y":2561816.4700000007}},{"attributes":{"ID":637839,"DIS_CODE":0,"TOWNNAME":"佳里區","LI":"鎮山里","LIN":"4鄰","STREET":"延平路","SECT":" ","MAREA":" ","LANE":" ","ALLEY":" ","HOUSE_NO":"１１４號","E_COORD97":165952.35000000001,"N_COORD97":2561821.1299999999,"ADDRESS":"延平路１１４號","OBJECTID":637812},"geometry":{"x":165952.34999999963,"y":2561821.129999999}},{"attributes":{"ID":637840,"DIS_CODE":0,"TOWNNAME":"佳里區","LI":"鎮山里","LIN":"4鄰","STREET":"延平路","SECT":" ","MAREA":" ","LANE":" ","ALLEY":" ","HOUSE_NO":"１１６號","E_COORD97":165951.22,"N_COORD97":2561825.8799999999,"ADDRESS":"延平路１１６號","OBJECTID":637813},"geometry":{"x":165951.21999999974,"y":2561825.879999999}},{"attributes":{"ID":637841,"DIS_CODE":0,"TOWNNAME":"佳里區","LI":"鎮山里","LIN":"4鄰","STREET":"延平路","SECT":" ","MAREA":" ","LANE":" ","ALLEY":" ","HOUSE_NO":"１１８號","E_COORD97":165950.42999999999,"N_COORD97":2561830.5099999998,"ADDRESS":"延平路１１８號","OBJECTID":637814},"geometry":{"x":165950.43000000156,"y":2561830.5100000016}},{"attributes":{"ID":637842,"DIS_CODE":0,"TOWNNAME":"佳里區","LI":"鎮山里","LIN":"4鄰","STREET":"延平路","SECT":" ","MAREA":" ","LANE":" ","ALLEY":" ","HOUSE_NO":"１２０號","E_COORD97":165949.42000000001,"N_COORD97":2561835.1899999999,"ADDRESS":"延平路１２０號","OBJECTID":637815},"geometry":{"x":165949.42000000086,"y":2561835.1899999976}},{"attributes":{"ID":637843,"DIS_CODE":0,"TOWNNAME":"佳里區","LI":"鎮山里","LIN":"4鄰","STREET":"延平路","SECT":" ","MAREA":" ","LANE":" ","ALLEY":" ","HOUSE_NO":"１２２號","E_COORD97":165948.76000000001,"N_COORD97":2561839.4100000001,"ADDRESS":"延平路１２２號","OBJECTID":637816},"geometry":{"x":165948.76000000071,"y":2561839.410000002}},{"attributes":{"ID":637844,"DIS_CODE":0,"TOWNNAME":"佳里區","LI":"鎮山里","LIN":"4鄰","STREET":"延平路","SECT":" ","MAREA":" ","LANE":" ","ALLEY":" ","HOUSE_NO":"１２４號","E_COORD97":165947.66,"N_COORD97":2561843.9700000002,"ADDRESS":"延平路１２４號","OBJECTID":637817},"geometry":{"x":165947.66000000201,"y":2561843.9700000007}},{"attributes":{"ID":637845,"DIS_CODE":0,"TOWNNAME":"佳里區","LI":"鎮山里","LIN":"4鄰","STREET":"延平路","SECT":" ","MAREA":" ","LANE":" ","ALLEY":" ","HOUSE_NO":"１２６號","E_COORD97":165946.75,"N_COORD97":2561848.2000000002,"ADDRESS":"延平路１２６號","OBJECTID":637818},"geometry":{"x":165946.74999999907,"y":2561848.1999999993}},{"attributes":{"ID":637846,"DIS_CODE":0,"TOWNNAME":"佳里區","LI":"東寧里","LIN":"13鄰","STREET":"和平街","SECT":" ","MAREA":" ","LANE":" ","ALLEY":" ","HOUSE_NO":"６２號","E_COORD97":165928.78,"N_COORD97":2562537.8700000001,"ADDRESS":"和平街６２號","OBJECTID":637819},"geometry":{"x":165928.78000000119,"y":2562537.8700000048}},{"attributes":{"ID":637847,"DIS_CODE":0,"TOWNNAME":"中西區","LI":"保安里","LIN":"4鄰","STREET":"西門路","SECT":"一段","MAREA":" ","LANE":" ","ALLEY":" ","HOUSE_NO":"７７３號","E_COORD97":167724.32000000001,"N_COORD97":2543401.6499999999,"ADDRESS":"西門路一段７７３號","OBJECTID":637820},"geometry":{"x":167724.3200000003,"y":2543401.6500000004}},{"attributes":{"ID":637848,"DIS_CODE":0,"TOWNNAME":"中西區","LI":"保安里","LIN":"4鄰","STREET":"西門路","SECT":"一段","MAREA":" ","LANE":" ","ALLEY":" ","HOUSE_NO":"７７５號","E_COORD97":167726.17000000001,"N_COORD97":2543405.2000000002,"ADDRESS":"西門路一段７７５號","OBJECTID":637821},"geometry":{"x":167726.17000000086,"y":2543405.200000003}},{"attributes":{"ID":637849,"DIS_CODE":0,"TOWNNAME":"中西區","LI":"保安里","LIN":"4鄰","STREET":"西門路","SECT":"一段","MAREA":" ","LANE":" ","ALLEY":" ","HOUSE_NO":"７７７號","E_COORD97":167726.01999999999,"N_COORD97":2543409.8199999998,"ADDRESS":"西門路一段７７７號","OBJECTID":637822},"geometry":{"x":167726.01999999955,"y":2543409.8200000022}},{"attributes":{"ID":637850,"DIS_CODE":0,"TOWNNAME":"中西區","LI":"保安里","LIN":"4鄰","STREET":"西門路","SECT":"一段","MAREA":" ","LANE":" ","ALLEY":" ","HOUSE_NO":"７７９號","E_COORD97":167727.70999999999,"N_COORD97":2543414.9100000001,"ADDRESS":"西門路一段７７９號","OBJECTID":637823},"geometry":{"x":167727.71000000089,"y":2543414.9100000039}},{"attributes":{"ID":637851,"DIS_CODE":0,"TOWNNAME":"中西區","LI":"保安里","LIN":"4鄰","STREET":"保安路","SECT":" ","MAREA":" ","LANE":" ","ALLEY":" ","HOUSE_NO":"１１號","E_COORD97":167705.66,"N_COORD97":2543408.4300000002,"ADDRESS":"保安路１１號","OBJECTID":637824},"geometry":{"x":167705.66000000108,"y":2543408.4300000016}},{"attributes":{"ID":637852,"DIS_CODE":0,"TOWNNAME":"中西區","LI":"保安里","LIN":"4鄰","STREET":"保安路","SECT":" ","MAREA":" ","LANE":" ","ALLEY":" ","HOUSE_NO":"１３號","E_COORD97":167692.70000000001,"N_COORD97":2543405.3500000001,"ADDRESS":"保安路１３號","OBJECTID":637825},"geometry":{"x":167692.70000000019,"y":2543405.3500000015}},{"attributes":{"ID":637853,"DIS_CODE":0,"TOWNNAME":"中西區","LI":"保安里","LIN":"4鄰","STREET":"保安路","SECT":" ","MAREA":" ","LANE":" ","ALLEY":" ","HOUSE_NO":"１９號","E_COORD97":167679.13,"N_COORD97":2543409.21,"ADDRESS":"保安路１９號","OBJECTID":637826},"geometry":{"x":167679.13000000082,"y":2543409.2100000009}},{"attributes":{"ID":637854,"DIS_CODE":0,"TOWNNAME":"中西區","LI":"保安里","LIN":"4鄰","STREET":"保安路","SECT":" ","MAREA":" ","LANE":" ","ALLEY":" ","HOUSE_NO":"１號","E_COORD97":167721.39000000001,"N_COORD97":2543410.4399999999,"ADDRESS":"保安路１號","OBJECTID":637827},"geometry":{"x":167721.38999999966,"y":2543410.4400000032}},{"attributes":{"ID":637855,"DIS_CODE":0,"TOWNNAME":"中西區","LI":"保安里","LIN":"4鄰","STREET":"保安路","SECT":" ","MAREA":" ","LANE":" ","ALLEY":" ","HOUSE_NO":"３號","E_COORD97":167716.76000000001,"N_COORD97":2543410.2799999998,"ADDRESS":"保安路３號","OBJECTID":637828},"geometry":{"x":167716.76000000071,"y":2543410.2799999993}},{"attributes":{"ID":637856,"DIS_CODE":0,"TOWNNAME":"中西區","LI":"保安里","LIN":"4鄰","STREET":"保安路","SECT":" ","MAREA":" ","LANE":" ","ALLEY":" ","HOUSE_NO":"５號","E_COORD97":167711.82999999999,"N_COORD97":2543409.98,"ADDRESS":"保安路５號","OBJECTID":637829},"geometry":{"x":167711.83000000101,"y":2543409.9800000004}},{"attributes":{"ID":637857,"DIS_CODE":0,"TOWNNAME":"中西區","LI":"保安里","LIN":"4鄰","STREET":"保安路","SECT":" ","MAREA":" ","LANE":" ","ALLEY":" ","HOUSE_NO":"７號","E_COORD97":167709.04999999999,"N_COORD97":2543409.6699999999,"ADDRESS":"保安路７號","OBJECTID":637830},"geometry":{"x":167709.04999999981,"y":2543409.6700000018}},{"attributes":{"ID":637858,"DIS_CODE":0,"TOWNNAME":"中西區","LI":"安海里","LIN":"13鄰","STREET":"河中街","SECT":" ","MAREA":" ","LANE":" ","ALLEY":" ","HOUSE_NO":"４１號","E_COORD97":167284.17000000001,"N_COORD97":2544028.23,"ADDRESS":"河中街４１號","OBJECTID":637831},"geometry":{"x":167284.16999999993,"y":2544028.2300000023}},{"attributes":{"ID":637859,"DIS_CODE":0,"TOWNNAME":"中西區","LI":"安海里","LIN":"19鄰","STREET":"民生路","SECT":"二段","MAREA":" ","LANE":" ","ALLEY":" ","HOUSE_NO":"３７３號","E_COORD97":166912.92999999999,"N_COORD97":2544212.2200000002,"ADDRESS":"民生路二段３７３號","OBJECTID":637832},"geometry":{"x":166912.9299999997,"y":2544212.2200000007}},{"attributes":{"ID":637860,"DIS_CODE":0,"TOWNNAME":"中西區","LI":"安海里","LIN":"19鄰","STREET":"民生路","SECT":"二段","MAREA":" ","LANE":" ","ALLEY":" ","HOUSE_NO":"３７３號之１","E_COORD97":166897.63,"N_COORD97":2544176.8300000001,"ADDRESS":"民生路二段３７３號之１","OBJECTID":637833},"geometry":{"x":166897.63000000082,"y":2544176.8300000001}},{"attributes":{"ID":637861,"DIS_CODE":0,"TOWNNAME":"中西區","LI":"安海里","LIN":"19鄰","STREET":"民生路","SECT":"二段","MAREA":" ","LANE":" ","ALLEY":" ","HOUSE_NO":"３７５號","E_COORD97":166908.56,"N_COORD97":2544213.0899999999,"ADDRESS":"民生路二段３７５號","OBJECTID":637834},"geometry":{"x":166908.55999999959,"y":2544213.089999998}},{"attributes":{"ID":637862,"DIS_CODE":0,"TOWNNAME":"中西區","LI":"安海里","LIN":"19鄰","STREET":"民生路","SECT":"二段","MAREA":" ","LANE":" ","ALLEY":" ","HOUSE_NO":"３７７號","E_COORD97":166904.19,"N_COORD97":2544213.5299999998,"ADDRESS":"民生路二段３７７號","OBJECTID":637835},"geometry":{"x":166904.19000000134,"y":2544213.5300000012}},{"attributes":{"ID":637863,"DIS_CODE":0,"TOWNNAME":"中西區","LI":"安海里","LIN":"19鄰","STREET":"民生路","SECT":"二段","MAREA":" ","LANE":" ","ALLEY":" ","HOUSE_NO":"３７９號","E_COORD97":166899.38,"N_COORD97":2544213.96,"ADDRESS":"民生路二段３７９號","OBJECTID":637836},"geometry":{"x":166899.37999999989,"y":2544213.9600000009}},{"attributes":{"ID":637864,"DIS_CODE":0,"TOWNNAME":"中西區","LI":"安海里","LIN":"19鄰","STREET":"民生路","SECT":"二段","MAREA":" ","LANE":" ","ALLEY":" ","HOUSE_NO":"３８１號","E_COORD97":166866.01999999999,"N_COORD97":2544206.6299999999,"ADDRESS":"民生路二段３８１號","OBJECTID":637837},"geometry":{"x":166866.01999999955,"y":2544206.6300000008}},{"attributes":{"ID":637865,"DIS_CODE":0,"TOWNNAME":"安南區","LI":"佃東里","LIN":"3鄰","STREET":"十二佃路","SECT":" ","MAREA":" ","LANE":" ","ALLEY":" ","HOUSE_NO":"５號","E_COORD97":165712.81,"N_COORD97":2552027.0499999998,"ADDRESS":"十二佃路５號","OBJECTID":637838},"geometry":{"x":165712.81000000052,"y":2552027.0500000026}},{"attributes":{"ID":637866,"DIS_CODE":0,"TOWNNAME":"中西區","LI":"安海里","LIN":"19鄰","STREET":"民生路","SECT":"二段","MAREA":" ","LANE":" ","ALLEY":" ","HOUSE_NO":"３８３號","E_COORD97":166867.32999999999,"N_COORD97":2544216.6699999999,"ADDRESS":"民生路二段３８３號","OBJECTID":637839},"geometry":{"x":166867.33000000101,"y":2544216.6700000018}},{"attributes":{"ID":637867,"DIS_CODE":0,"TOWNNAME":"中西區","LI":"安海里","LIN":"19鄰","STREET":"民生路","SECT":"二段","MAREA":" ","LANE":" ","ALLEY":" ","HOUSE_NO":"３８５號","E_COORD97":166859.45999999999,"N_COORD97":2544220.1699999999,"ADDRESS":"民生路二段３８５號","OBJECTID":637840},"geometry":{"x":166859.46000000089,"y":2544220.1700000018}},{"attributes":{"ID":637868,"DIS_CODE":0,"TOWNNAME":"中西區","LI":"安海里","LIN":"19鄰","STREET":"民生路","SECT":"二段","MAREA":" ","LANE":" ","ALLEY":" ","HOUSE_NO":"３８７號","E_COORD97":166849.84,"N_COORD97":2544220.6000000001,"ADDRESS":"民生路二段３８７號","OBJECTID":637841},"geometry":{"x":166849.84000000078,"y":2544220.6000000015}},{"attributes":{"ID":637869,"DIS_CODE":0,"TOWNNAME":"中西區","LI":"安海里","LIN":"21鄰","STREET":"安平路","SECT":" ","MAREA":" ","LANE":" ","ALLEY":" ","HOUSE_NO":"１號","E_COORD97":166666.70000000001,"N_COORD97":2544252.9199999999,"ADDRESS":"安平路１號","OBJECTID":637842},"geometry":{"x":166666.70000000112,"y":2544252.9200000018}},{"attributes":{"ID":637870,"DIS_CODE":0,"TOWNNAME":"中西區","LI":"普濟里","LIN":"7鄰","STREET":"郡緯街","SECT":" ","MAREA":" ","LANE":" ","ALLEY":" ","HOUSE_NO":"１０８號","E_COORD97":167860.81,"N_COORD97":2544449.2599999998,"ADDRESS":"郡緯街１０８號","OBJECTID":637843},"geometry":{"x":167860.80999999959,"y":2544449.2599999979}},{"attributes":{"ID":637871,"DIS_CODE":0,"TOWNNAME":"中西區","LI":"普濟里","LIN":"7鄰","STREET":"郡緯街","SECT":" ","MAREA":" ","LANE":" ","ALLEY":" ","HOUSE_NO":"１１０號","E_COORD97":167863.17999999999,"N_COORD97":2544432.0699999998,"ADDRESS":"郡緯街１１０號","OBJECTID":637844},"geometry":{"x":167863.18000000063,"y":2544432.0700000022}},{"attributes":{"ID":637872,"DIS_CODE":0,"TOWNNAME":"中西區","LI":"普濟里","LIN":"7鄰","STREET":"郡緯街","SECT":" ","MAREA":" ","LANE":" ","ALLEY":" ","HOUSE_NO":"１１２號","E_COORD97":167863.88,"N_COORD97":2544427.4700000002,"ADDRESS":"郡緯街１１２號","OBJECTID":637845},"geometry":{"x":167863.88000000082,"y":2544427.4700000007}},{"attributes":{"ID":637873,"DIS_CODE":0,"TOWNNAME":"中西區","LI":"普濟里","LIN":"7鄰","STREET":"郡緯街","SECT":" ","MAREA":" ","LANE":" ","ALLEY":" ","HOUSE_NO":"１１４號","E_COORD97":167865.53,"N_COORD97":2544423.1299999999,"ADDRESS":"郡緯街１１４號","OBJECTID":637846},"geometry":{"x":167865.53000000026,"y":2544423.1300000008}},{"attributes":{"ID":637874,"DIS_CODE":0,"TOWNNAME":"中西區","LI":"普濟里","LIN":"7鄰","STREET":"郡緯街","SECT":" ","MAREA":" ","LANE":" ","ALLEY":" ","HOUSE_NO":"１１８號","E_COORD97":167855.79999999999,"N_COORD97":2544423.6499999999,"ADDRESS":"郡緯街１１８號","OBJECTID":637847},"geometry":{"x":167855.80000000075,"y":2544423.6500000041}},{"attributes":{"ID":637875,"DIS_CODE":0,"TOWNNAME":"中西區","LI":"普濟里","LIN":"7鄰","STREET":"郡緯街","SECT":" ","MAREA":" ","LANE":" ","ALLEY":" ","HOUSE_NO":"９１號","E_COORD97":167871.26000000001,"N_COORD97":2544405.3399999999,"ADDRESS":"郡緯街９１號","OBJECTID":637848},"geometry":{"x":167871.26000000071,"y":2544405.3400000017}},{"attributes":{"ID":637876,"DIS_CODE":0,"TOWNNAME":"中西區","LI":"普濟里","LIN":"7鄰","STREET":"郡緯街","SECT":" ","MAREA":" ","LANE":" ","ALLEY":" ","HOUSE_NO":"９３號","E_COORD97":167867.79000000001,"N_COORD97":2544407.3300000001,"ADDRESS":"郡緯街９３號","OBJECTID":637849},"geometry":{"x":167867.79000000097,"y":2544407.3300000001}},{"attributes":{"ID":637877,"DIS_CODE":0,"TOWNNAME":"中西區","LI":"普濟里","LIN":"7鄰","STREET":"郡緯街","SECT":" ","MAREA":" ","LANE":" ","ALLEY":" ","HOUSE_NO":"９９號","E_COORD97":167846.01000000001,"N_COORD97":2544389.1299999999,"ADDRESS":"郡緯街９９號","OBJECTID":637850},"geometry":{"x":167846.00999999978,"y":2544389.1300000008}},{"attributes":{"ID":637878,"DIS_CODE":0,"TOWNNAME":"中西區","LI":"普濟里","LIN":"6鄰","STREET":"普濟街","SECT":" ","MAREA":" ","LANE":" ","ALLEY":" ","HOUSE_NO":"６７號","E_COORD97":167878.07999999999,"N_COORD97":2544365.4500000002,"ADDRESS":"普濟街６７號","OBJECTID":637851},"geometry":{"x":167878.08000000007,"y":2544365.4499999993}},{"attributes":{"ID":637879,"DIS_CODE":0,"TOWNNAME":"中西區","LI":"普濟里","LIN":"6鄰","STREET":"普濟街","SECT":" ","MAREA":" ","LANE":" ","ALLEY":" ","HOUSE_NO":"６７號之１","E_COORD97":167873.69,"N_COORD97":2544371.2400000002,"ADDRESS":"普濟街６７號之１","OBJECTID":637852},"geometry":{"x":167873.69000000134,"y":2544371.2400000002}},{"attributes":{"ID":637880,"DIS_CODE":0,"TOWNNAME":"中西區","LI":"普濟里","LIN":"6鄰","STREET":"普濟街","SECT":" ","MAREA":" ","LANE":" ","ALLEY":" ","HOUSE_NO":"６７號之２","E_COORD97":167880.45999999999,"N_COORD97":2544367.1299999999,"ADDRESS":"普濟街６７號之２","OBJECTID":637853},"geometry":{"x":167880.45999999996,"y":2544367.129999999}},{"attributes":{"ID":637881,"DIS_CODE":0,"TOWNNAME":"中西區","LI":"水仙里","LIN":"4鄰","STREET":"西門路","SECT":"二段","MAREA":" ","LANE":" ","ALLEY":" ","HOUSE_NO":"２７１號","E_COORD97":167925.25,"N_COORD97":2544058.2400000002,"ADDRESS":"西門路二段２７１號","OBJECTID":637854},"geometry":{"x":167925.25000000186,"y":2544058.2400000021}},{"attributes":{"ID":637882,"DIS_CODE":0,"TOWNNAME":"中西區","LI":"水仙里","LIN":"4鄰","STREET":"西門路","SECT":"二段","MAREA":" ","LANE":" ","ALLEY":" ","HOUSE_NO":"２７３號","E_COORD97":167926.13,"N_COORD97":2544062.21,"ADDRESS":"西門路二段２７３號","OBJECTID":637855},"geometry":{"x":167926.13000000082,"y":2544062.2100000028}},{"attributes":{"ID":637883,"DIS_CODE":0,"TOWNNAME":"中西區","LI":"郡西里","LIN":"7鄰","STREET":"大勇街","SECT":" ","MAREA":" ","LANE":" ","ALLEY":" ","HOUSE_NO":"４７號","E_COORD97":167383.45999999999,"N_COORD97":2543349.8300000001,"ADDRESS":"大勇街４７號","OBJECTID":637856},"geometry":{"x":167383.46000000089,"y":2543349.8300000001}},{"attributes":{"ID":637884,"DIS_CODE":0,"TOWNNAME":"中西區","LI":"郡西里","LIN":"1鄰","STREET":"永華路","SECT":"一段","MAREA":" ","LANE":" ","ALLEY":" ","HOUSE_NO":"８８號","E_COORD97":167423.67000000001,"N_COORD97":2543165.4100000001,"ADDRESS":"永華路一段８８號","OBJECTID":637857},"geometry":{"x":167423.66999999993,"y":2543165.410000002}},{"attributes":{"ID":637885,"DIS_CODE":0,"TOWNNAME":"中西區","LI":"郡西里","LIN":"1鄰","STREET":"建安街","SECT":" ","MAREA":" ","LANE":" ","ALLEY":" ","HOUSE_NO":"６７號之１","E_COORD97":167428.92000000001,"N_COORD97":2543249.3900000001,"ADDRESS":"建安街６７號之１","OBJECTID":637858},"geometry":{"x":167428.92000000179,"y":2543249.3900000043}},{"attributes":{"ID":637886,"DIS_CODE":0,"TOWNNAME":"中西區","LI":"郡西里","LIN":"1鄰","STREET":"建安街","SECT":" ","MAREA":" ","LANE":" ","ALLEY":" ","HOUSE_NO":"６９號","E_COORD97":167422.82000000001,"N_COORD97":2543249.8799999999,"ADDRESS":"建安街６９號","OBJECTID":637859},"geometry":{"x":167422.8200000003,"y":2543249.879999999}},{"attributes":{"ID":637887,"DIS_CODE":0,"TOWNNAME":"中西區","LI":"郡西里","LIN":"1鄰","STREET":"建安街","SECT":" ","MAREA":" ","LANE":" ","ALLEY":" ","HOUSE_NO":"６９號之１","E_COORD97":167415.98000000001,"N_COORD97":2543248.7799999998,"ADDRESS":"建安街６９號之１","OBJECTID":637860},"geometry":{"x":167415.98000000138,"y":2543248.7800000031}},{"attributes":{"ID":637888,"DIS_CODE":0,"TOWNNAME":"中西區","LI":"郡西里","LIN":"1鄰","STREET":"永華路","SECT":"一段","MAREA":" ","LANE":" ","ALLEY":" ","HOUSE_NO":"９０號","E_COORD97":167413.29000000001,"N_COORD97":2543161.75,"ADDRESS":"永華路一段９０號","OBJECTID":637861},"geometry":{"x":167413.29000000097,"y":2543161.7500000019}},{"attributes":{"ID":637889,"DIS_CODE":0,"TOWNNAME":"下營區","LI":"仁里里","LIN":"21鄰","STREET":"仁信街","SECT":" ","MAREA":" ","LANE":" ","ALLEY":" ","HOUSE_NO":"１７號","E_COORD97":174369.79999999999,"N_COORD97":2569639.52,"ADDRESS":"仁信街１７號","OBJECTID":637862},"geometry":{"x":174369.80000000168,"y":2569639.5200000014}},{"attributes":{"ID":637890,"DIS_CODE":0,"TOWNNAME":"中西區","LI":"郡西里","LIN":"1鄰","STREET":"永華路","SECT":"一段","MAREA":" ","LANE":" ","ALLEY":" ","HOUSE_NO":"９２號","E_COORD97":167409.98999999999,"N_COORD97":2543162.5499999998,"ADDRESS":"永華路一段９２號","OBJECTID":637863},"geometry":{"x":167409.98999999929,"y":2543162.5500000007}},{"attributes":{"ID":637891,"DIS_CODE":0,"TOWNNAME":"中西區","LI":"郡西里","LIN":"1鄰","STREET":"永華路","SECT":"一段","MAREA":" ","LANE":" ","ALLEY":" ","HOUSE_NO":"９４號","E_COORD97":167406.16,"N_COORD97":2543163.5299999998,"ADDRESS":"永華路一段９４號","OBJECTID":637864},"geometry":{"x":167406.16000000108,"y":2543163.5300000012}},{"attributes":{"ID":637892,"DIS_CODE":0,"TOWNNAME":"中西區","LI":"郡西里","LIN":"1鄰","STREET":"永華路","SECT":"一段","MAREA":" ","LANE":" ","ALLEY":" ","HOUSE_NO":"９６號","E_COORD97":167402.59,"N_COORD97":2543164.0600000001,"ADDRESS":"永華路一段９６號","OBJECTID":637865},"geometry":{"x":167402.59000000078,"y":2543164.0600000024}},{"attributes":{"ID":637893,"DIS_CODE":0,"TOWNNAME":"中西區","LI":"水仙里","LIN":"4鄰","STREET":"西門路","SECT":"二段","MAREA":" ","LANE":" ","ALLEY":" ","HOUSE_NO":"２２７號","E_COORD97":167908.06,"N_COORD97":2543976.5600000001,"ADDRESS":"西門路二段２２７號","OBJECTID":637866},"geometry":{"x":167908.06000000052,"y":2543976.5600000005}},{"attributes":{"ID":637894,"DIS_CODE":0,"TOWNNAME":"中西區","LI":"水仙里","LIN":"4鄰","STREET":"西門路","SECT":"二段","MAREA":" ","LANE":" ","ALLEY":" ","HOUSE_NO":"２２９號","E_COORD97":167908.94,"N_COORD97":2543981.6299999999,"ADDRESS":"西門路二段２２９號","OBJECTID":637867},"geometry":{"x":167908.93999999948,"y":2543981.6300000027}},{"attributes":{"ID":637895,"DIS_CODE":0,"TOWNNAME":"中西區","LI":"水仙里","LIN":"4鄰","STREET":"西門路","SECT":"二段","MAREA":" ","LANE":" ","ALLEY":" ","HOUSE_NO":"２３１號","E_COORD97":167906.07999999999,"N_COORD97":2543986.0299999998,"ADDRESS":"西門路二段２３１號","OBJECTID":637868},"geometry":{"x":167906.08000000194,"y":2543986.0300000031}},{"attributes":{"ID":637896,"DIS_CODE":0,"TOWNNAME":"中西區","LI":"水仙里","LIN":"4鄰","STREET":"西門路","SECT":"二段","MAREA":" ","LANE":" ","ALLEY":" ","HOUSE_NO":"２３３號","E_COORD97":167902.34,"N_COORD97":2543992.4199999999,"ADDRESS":"西門路二段２３３號","OBJECTID":637869},"geometry":{"x":167902.34000000171,"y":2543992.4200000018}},{"attributes":{"ID":637897,"DIS_CODE":0,"TOWNNAME":"中西區","LI":"水仙里","LIN":"4鄰","STREET":"西門路","SECT":"二段","MAREA":" ","LANE":" ","ALLEY":" ","HOUSE_NO":"２３５號","E_COORD97":167910.70999999999,"N_COORD97":2543989.77,"ADDRESS":"西門路二段２３５號","OBJECTID":637870},"geometry":{"x":167910.71000000089,"y":2543989.7699999996}},{"attributes":{"ID":637898,"DIS_CODE":0,"TOWNNAME":"中西區","LI":"水仙里","LIN":"4鄰","STREET":"西門路","SECT":"二段","MAREA":" ","LANE":" ","ALLEY":" ","HOUSE_NO":"２３７號","E_COORD97":167911.81,"N_COORD97":2543995.0600000001,"ADDRESS":"西門路二段２３７號","OBJECTID":637871},"geometry":{"x":167911.80999999959,"y":2543995.0600000024}},{"attributes":{"ID":637899,"DIS_CODE":0,"TOWNNAME":"中西區","LI":"水仙里","LIN":"4鄰","STREET":"西門路","SECT":"二段","MAREA":" ","LANE":" ","ALLEY":" ","HOUSE_NO":"２３９號","E_COORD97":167912.25,"N_COORD97":2543998.3599999999,"ADDRESS":"西門路二段２３９號","OBJECTID":637872},"geometry":{"x":167912.25000000093,"y":2543998.3600000013}},{"attributes":{"ID":637900,"DIS_CODE":0,"TOWNNAME":"中西區","LI":"水仙里","LIN":"4鄰","STREET":"西門路","SECT":"二段","MAREA":" ","LANE":" ","ALLEY":" ","HOUSE_NO":"２４１號","E_COORD97":167912.69,"N_COORD97":2544002.54,"ADDRESS":"西門路二段２４１號","OBJECTID":637873},"geometry":{"x":167912.69000000134,"y":2544002.5399999972}},{"attributes":{"ID":637901,"DIS_CODE":0,"TOWNNAME":"中西區","LI":"水仙里","LIN":"4鄰","STREET":"西門路","SECT":"二段","MAREA":" ","LANE":" ","ALLEY":" ","HOUSE_NO":"２４３號","E_COORD97":167914.67000000001,"N_COORD97":2544006.29,"ADDRESS":"西門路二段２４３號","OBJECTID":637874},"geometry":{"x":167914.66999999993,"y":2544006.2899999991}},{"attributes":{"ID":637902,"DIS_CODE":0,"TOWNNAME":"中西區","LI":"水仙里","LIN":"4鄰","STREET":"西門路","SECT":"二段","MAREA":" ","LANE":" ","ALLEY":" ","HOUSE_NO":"２４７號","E_COORD97":167916.44,"N_COORD97":2544015.3100000001,"ADDRESS":"西門路二段２４７號","OBJECTID":637875},"geometry":{"x":167916.44000000134,"y":2544015.3100000005}},{"attributes":{"ID":637903,"DIS_CODE":0,"TOWNNAME":"中西區","LI":"水仙里","LIN":"4鄰","STREET":"西門路","SECT":"二段","MAREA":" ","LANE":" ","ALLEY":" ","HOUSE_NO":"２４９號","E_COORD97":167916.44,"N_COORD97":2544018.8399999999,"ADDRESS":"西門路二段２４９號","OBJECTID":637876},"geometry":{"x":167916.44000000134,"y":2544018.8400000017}},{"attributes":{"ID":637904,"DIS_CODE":0,"TOWNNAME":"中西區","LI":"水仙里","LIN":"4鄰","STREET":"西門路","SECT":"二段","MAREA":" ","LANE":" ","ALLEY":" ","HOUSE_NO":"２５１號","E_COORD97":167917.54000000001,"N_COORD97":2544023.2400000002,"ADDRESS":"西門路二段２５１號","OBJECTID":637877},"geometry":{"x":167917.54000000004,"y":2544023.2400000021}},{"attributes":{"ID":637905,"DIS_CODE":0,"TOWNNAME":"中西區","LI":"水仙里","LIN":"4鄰","STREET":"西門路","SECT":"二段","MAREA":" ","LANE":" ","ALLEY":" ","HOUSE_NO":"２５５號","E_COORD97":167919.29999999999,"N_COORD97":2544030.7200000002,"ADDRESS":"西門路二段２５５號","OBJECTID":637878},"geometry":{"x":167919.29999999981,"y":2544030.7200000025}},{"attributes":{"ID":637906,"DIS_CODE":0,"TOWNNAME":"中西區","LI":"水仙里","LIN":"4鄰","STREET":"西門路","SECT":"二段","MAREA":" ","LANE":" ","ALLEY":" ","HOUSE_NO":"２５７號","E_COORD97":167920.39999999999,"N_COORD97":2544034.6899999999,"ADDRESS":"西門路二段２５７號","OBJECTID":637879},"geometry":{"x":167920.40000000037,"y":2544034.6899999995}},{"attributes":{"ID":637907,"DIS_CODE":0,"TOWNNAME":"中西區","LI":"水仙里","LIN":"4鄰","STREET":"西門路","SECT":"二段","MAREA":" ","LANE":" ","ALLEY":" ","HOUSE_NO":"２５９號","E_COORD97":167921.28,"N_COORD97":2544038.6499999999,"ADDRESS":"西門路二段２５９號","OBJECTID":637880},"geometry":{"x":167921.28000000026,"y":2544038.6500000022}},{"attributes":{"ID":637908,"DIS_CODE":0,"TOWNNAME":"中西區","LI":"水仙里","LIN":"4鄰","STREET":"西門路","SECT":"二段","MAREA":" ","LANE":" ","ALLEY":" ","HOUSE_NO":"２６１號","E_COORD97":167921.94,"N_COORD97":2544041.73,"ADDRESS":"西門路二段２６１號","OBJECTID":637881},"geometry":{"x":167921.94000000041,"y":2544041.7300000023}},{"attributes":{"ID":637909,"DIS_CODE":0,"TOWNNAME":"中西區","LI":"水仙里","LIN":"4鄰","STREET":"西門路","SECT":"二段","MAREA":" ","LANE":" ","ALLEY":" ","HOUSE_NO":"２６３號","E_COORD97":167922.60000000001,"N_COORD97":2544045.0299999998,"ADDRESS":"西門路二段２６３號","OBJECTID":637882},"geometry":{"x":167922.60000000056,"y":2544045.0300000012}},{"attributes":{"ID":637910,"DIS_CODE":0,"TOWNNAME":"中西區","LI":"水仙里","LIN":"4鄰","STREET":"西門路","SECT":"二段","MAREA":" ","LANE":" ","ALLEY":" ","HOUSE_NO":"２６５號","E_COORD97":167923.48999999999,"N_COORD97":2544048.7799999998,"ADDRESS":"西門路二段２６５號","OBJECTID":637883},"geometry":{"x":167923.49000000022,"y":2544048.7800000031}},{"attributes":{"ID":637911,"DIS_CODE":0,"TOWNNAME":"中西區","LI":"水仙里","LIN":"4鄰","STREET":"西門路","SECT":"二段","MAREA":" ","LANE":" ","ALLEY":" ","HOUSE_NO":"２６７號","E_COORD97":167924.14999999999,"N_COORD97":2544051.4199999999,"ADDRESS":"西門路二段２６７號","OBJECTID":637884},"geometry":{"x":167924.15000000037,"y":2544051.4199999999}},{"attributes":{"ID":637912,"DIS_CODE":0,"TOWNNAME":"中西區","LI":"水仙里","LIN":"4鄰","STREET":"西門路","SECT":"二段","MAREA":" ","LANE":" ","ALLEY":" ","HOUSE_NO":"２６９號","E_COORD97":167924.81,"N_COORD97":2544055.1600000001,"ADDRESS":"西門路二段２６９號","OBJECTID":637885},"geometry":{"x":167924.81000000052,"y":2544055.160000002}},{"attributes":{"ID":637913,"DIS_CODE":0,"TOWNNAME":"中西區","LI":"水仙里","LIN":"8鄰","STREET":"民權路","SECT":"三段","MAREA":" ","LANE":" ","ALLEY":" ","HOUSE_NO":"１７號","E_COORD97":167887.79999999999,"N_COORD97":2544085.1400000001,"ADDRESS":"民權路三段１７號","OBJECTID":637886},"geometry":{"x":167887.80000000075,"y":2544085.1400000043}},{"attributes":{"ID":637914,"DIS_CODE":0,"TOWNNAME":"中西區","LI":"水仙里","LIN":"8鄰","STREET":"民權路","SECT":"三段","MAREA":" ","LANE":" ","ALLEY":" ","HOUSE_NO":"１９號","E_COORD97":167884.04999999999,"N_COORD97":2544086.02,"ADDRESS":"民權路三段１９號","OBJECTID":637887},"geometry":{"x":167884.05000000075,"y":2544086.0200000014}},{"attributes":{"ID":637915,"DIS_CODE":0,"TOWNNAME":"中西區","LI":"水仙里","LIN":"8鄰","STREET":"民權路","SECT":"三段","MAREA":" ","LANE":" ","ALLEY":" ","HOUSE_NO":"２１號","E_COORD97":167880.29999999999,"N_COORD97":2544087.1200000001,"ADDRESS":"民權路三段２１號","OBJECTID":637888},"geometry":{"x":167880.29999999981,"y":2544087.1200000029}},{"attributes":{"ID":637916,"DIS_CODE":0,"TOWNNAME":"中西區","LI":"水仙里","LIN":"8鄰","STREET":"民權路","SECT":"三段","MAREA":" ","LANE":" ","ALLEY":" ","HOUSE_NO":"２３號","E_COORD97":167875.67999999999,"N_COORD97":2544087.7799999998,"ADDRESS":"民權路三段２３號","OBJECTID":637889},"geometry":{"x":167875.6799999997,"y":2544087.7799999993}},{"attributes":{"ID":637917,"DIS_CODE":0,"TOWNNAME":"中西區","LI":"水仙里","LIN":"7鄰","STREET":"和平街","SECT":" ","MAREA":" ","LANE":" ","ALLEY":" ","HOUSE_NO":"１１號","E_COORD97":167891.76000000001,"N_COORD97":2544066.1499999999,"ADDRESS":"和平街１１號","OBJECTID":637890},"geometry":{"x":167891.76000000071,"y":2544066.1500000004}},{"attributes":{"ID":637918,"DIS_CODE":0,"TOWNNAME":"中西區","LI":"水仙里","LIN":"7鄰","STREET":"和平街","SECT":" ","MAREA":" ","LANE":" ","ALLEY":" ","HOUSE_NO":"１３號","E_COORD97":167887.57000000001,"N_COORD97":2544067.9100000001,"ADDRESS":"和平街１３號","OBJECTID":637891},"geometry":{"x":167887.56999999937,"y":2544067.9100000001}},{"attributes":{"ID":637919,"DIS_CODE":0,"TOWNNAME":"中西區","LI":"水仙里","LIN":"7鄰","STREET":"和平街","SECT":" ","MAREA":" ","LANE":" ","ALLEY":" ","HOUSE_NO":"１５號","E_COORD97":167882.73000000001,"N_COORD97":2544068.79,"ADDRESS":"和平街１５號","OBJECTID":637892},"geometry":{"x":167882.73000000045,"y":2544068.7900000028}},{"attributes":{"ID":637920,"DIS_CODE":0,"TOWNNAME":"中西區","LI":"水仙里","LIN":"7鄰","STREET":"和平街","SECT":" ","MAREA":" ","LANE":" ","ALLEY":" ","HOUSE_NO":"１７號","E_COORD97":167878.54000000001,"N_COORD97":2544069.0099999998,"ADDRESS":"和平街１７號","OBJECTID":637893},"geometry":{"x":167878.54000000004,"y":2544069.0100000016}},{"attributes":{"ID":637921,"DIS_CODE":0,"TOWNNAME":"中西區","LI":"大涼里","LIN":"4鄰","STREET":"府前路","SECT":"二段","MAREA":" ","LANE":" ","ALLEY":" ","HOUSE_NO":"１９８號","E_COORD97":167232.17999999999,"N_COORD97":2543588.75,"ADDRESS":"府前路二段１９８號","OBJECTID":637894},"geometry":{"x":167232.18000000063,"y":2543588.7500000037}},{"attributes":{"ID":637922,"DIS_CODE":0,"TOWNNAME":"中西區","LI":"大涼里","LIN":"4鄰","STREET":"府前路","SECT":"二段","MAREA":" ","LANE":" ","ALLEY":" ","HOUSE_NO":"２００號","E_COORD97":167222.10000000001,"N_COORD97":2543590.04,"ADDRESS":"府前路二段２００號","OBJECTID":637895},"geometry":{"x":167222.09999999963,"y":2543590.040000001}},{"attributes":{"ID":637923,"DIS_CODE":0,"TOWNNAME":"中西區","LI":"大涼里","LIN":"4鄰","STREET":"府前路","SECT":"二段","MAREA":" ","LANE":" ","ALLEY":" ","HOUSE_NO":"２０２號","E_COORD97":167217.95999999999,"N_COORD97":2543591.3300000001,"ADDRESS":"府前路二段２０２號","OBJECTID":637896},"geometry":{"x":167217.95999999996,"y":2543591.3299999982}},{"attributes":{"ID":637924,"DIS_CODE":0,"TOWNNAME":"中西區","LI":"大涼里","LIN":"4鄰","STREET":"府前路","SECT":"二段","MAREA":" ","LANE":" ","ALLEY":" ","HOUSE_NO":"２０４號","E_COORD97":167214.34,"N_COORD97":2543592.1000000001,"ADDRESS":"府前路二段２０４號","OBJECTID":637897},"geometry":{"x":167214.34000000078,"y":2543592.0999999996}},{"attributes":{"ID":637925,"DIS_CODE":0,"TOWNNAME":"中西區","LI":"大涼里","LIN":"4鄰","STREET":"府前路","SECT":"二段","MAREA":" ","LANE":" ","ALLEY":" ","HOUSE_NO":"２０８號","E_COORD97":167205.29000000001,"N_COORD97":2543598.2999999998,"ADDRESS":"府前路二段２０８號","OBJECTID":637898},"geometry":{"x":167205.29000000004,"y":2543598.3000000007}},{"attributes":{"ID":637926,"DIS_CODE":0,"TOWNNAME":"中西區","LI":"大涼里","LIN":"4鄰","STREET":"府前路","SECT":"二段","MAREA":" ","LANE":" ","ALLEY":" ","HOUSE_NO":"２１０號","E_COORD97":167202.70999999999,"N_COORD97":2543599.0699999998,"ADDRESS":"府前路二段２１０號","OBJECTID":637899},"geometry":{"x":167202.70999999996,"y":2543599.0700000003}},{"attributes":{"ID":637927,"DIS_CODE":0,"TOWNNAME":"中西區","LI":"大涼里","LIN":"4鄰","STREET":"府前路","SECT":"二段","MAREA":" ","LANE":" ","ALLEY":" ","HOUSE_NO":"２１２號","E_COORD97":167197.54000000001,"N_COORD97":2543600.8799999999,"ADDRESS":"府前路二段２１２號","OBJECTID":637900},"geometry":{"x":167197.53999999911,"y":2543600.8800000008}},{"attributes":{"ID":637928,"DIS_CODE":0,"TOWNNAME":"中西區","LI":"大涼里","LIN":"4鄰","STREET":"府前路","SECT":"二段","MAREA":" ","LANE":" ","ALLEY":" ","HOUSE_NO":"２１４號","E_COORD97":167193.82999999999,"N_COORD97":2543602.6899999999,"ADDRESS":"府前路二段２１４號","OBJECTID":637901},"geometry":{"x":167193.83000000007,"y":2543602.6900000013}},{"attributes":{"ID":637929,"DIS_CODE":0,"TOWNNAME":"中西區","LI":"大涼里","LIN":"4鄰","STREET":"府前路","SECT":"二段","MAREA":" ","LANE":" ","ALLEY":" ","HOUSE_NO":"２１６號","E_COORD97":167187.32999999999,"N_COORD97":2543597.8199999998,"ADDRESS":"府前路二段２１６號","OBJECTID":637902},"geometry":{"x":167187.33000000194,"y":2543597.8200000003}},{"attributes":{"ID":637930,"DIS_CODE":0,"TOWNNAME":"中西區","LI":"大涼里","LIN":"4鄰","STREET":"府前路","SECT":"二段","MAREA":" ","LANE":" ","ALLEY":" ","HOUSE_NO":"２１８號","E_COORD97":167184.09,"N_COORD97":2543601.3399999999,"ADDRESS":"府前路二段２１８號","OBJECTID":637903},"geometry":{"x":167184.09000000078,"y":2543601.3400000036}},{"attributes":{"ID":637931,"DIS_CODE":0,"TOWNNAME":"中西區","LI":"大涼里","LIN":"4鄰","STREET":"府前路","SECT":"二段","MAREA":" ","LANE":" ","ALLEY":" ","HOUSE_NO":"２２０號","E_COORD97":167178.14000000001,"N_COORD97":2543601.0699999998,"ADDRESS":"府前路二段２２０號","OBJECTID":637904},"geometry":{"x":167178.1400000006,"y":2543601.0700000022}},{"attributes":{"ID":637932,"DIS_CODE":0,"TOWNNAME":"中西區","LI":"大涼里","LIN":"4鄰","STREET":"府前路","SECT":"二段","MAREA":" ","LANE":" ","ALLEY":" ","HOUSE_NO":"２２４號","E_COORD97":167173.81,"N_COORD97":2543601.0699999998,"ADDRESS":"府前路二段２２４號","OBJECTID":637905},"geometry":{"x":167173.81000000052,"y":2543601.0700000022}},{"attributes":{"ID":637933,"DIS_CODE":0,"TOWNNAME":"中西區","LI":"大涼里","LIN":"4鄰","STREET":"府前路","SECT":"二段","MAREA":" ","LANE":" ","ALLEY":" ","HOUSE_NO":"２２６號","E_COORD97":167169.48000000001,"N_COORD97":2543602.4199999999,"ADDRESS":"府前路二段２２６號","OBJECTID":637906},"geometry":{"x":167169.48000000045,"y":2543602.4200000018}},{"attributes":{"ID":637934,"DIS_CODE":0,"TOWNNAME":"中西區","LI":"大涼里","LIN":"4鄰","STREET":"府前路","SECT":"二段","MAREA":" ","LANE":" ","ALLEY":" ","HOUSE_NO":"２２８號","E_COORD97":167165.42999999999,"N_COORD97":2543602.96,"ADDRESS":"府前路二段２２８號","OBJECTID":637907},"geometry":{"x":167165.4299999997,"y":2543602.9600000028}},{"attributes":{"ID":637935,"DIS_CODE":0,"TOWNNAME":"中西區","LI":"大涼里","LIN":"4鄰","STREET":"府前路","SECT":"二段","MAREA":" ","LANE":" ","ALLEY":" ","HOUSE_NO":"２３０號","E_COORD97":167160.01999999999,"N_COORD97":2543604.8500000001,"ADDRESS":"府前路二段２３０號","OBJECTID":637908},"geometry":{"x":167160.02000000142,"y":2543604.8500000015}},{"attributes":{"ID":637936,"DIS_CODE":0,"TOWNNAME":"中西區","LI":"大涼里","LIN":"4鄰","STREET":"府前路","SECT":"二段","MAREA":" ","LANE":" ","ALLEY":" ","HOUSE_NO":"２３８號","E_COORD97":167146.41,"N_COORD97":2543608.8999999999,"ADDRESS":"府前路二段２３８號","OBJECTID":637909},"geometry":{"x":167146.41000000108,"y":2543608.9000000022}},{"attributes":{"ID":637937,"DIS_CODE":0,"TOWNNAME":"中西區","LI":"大涼里","LIN":"4鄰","STREET":"府前路","SECT":"二段","MAREA":" ","LANE":" ","ALLEY":" ","HOUSE_NO":"２４０號","E_COORD97":167131.60999999999,"N_COORD97":2543613.04,"ADDRESS":"府前路二段２４０號","OBJECTID":637910},"geometry":{"x":167131.61000000127,"y":2543613.0400000028}},{"attributes":{"ID":637938,"DIS_CODE":0,"TOWNNAME":"中西區","LI":"大涼里","LIN":"4鄰","STREET":"府前路","SECT":"二段","MAREA":" ","LANE":" ","ALLEY":" ","HOUSE_NO":"２４４號","E_COORD97":167123.69,"N_COORD97":2543613.9500000002,"ADDRESS":"府前路二段２４４號","OBJECTID":637911},"geometry":{"x":167123.69000000041,"y":2543613.9500000011}},{"attributes":{"ID":637939,"DIS_CODE":0,"TOWNNAME":"中西區","LI":"大涼里","LIN":"4鄰","STREET":"府前路","SECT":"二段","MAREA":" ","LANE":" ","ALLEY":" ","HOUSE_NO":"２４６號","E_COORD97":167118.95000000001,"N_COORD97":2543615.3599999999,"ADDRESS":"府前路二段２４６號","OBJECTID":637912},"geometry":{"x":167118.95000000112,"y":2543615.3600000013}},{"attributes":{"ID":637940,"DIS_CODE":0,"TOWNNAME":"中西區","LI":"大涼里","LIN":"4鄰","STREET":"府前路","SECT":"二段","MAREA":" ","LANE":" ","ALLEY":" ","HOUSE_NO":"２４６號之１","E_COORD97":167115.44,"N_COORD97":2543616.23,"ADDRESS":"府前路二段２４６號之１","OBJECTID":637913},"geometry":{"x":167115.44000000041,"y":2543616.2300000042}},{"attributes":{"ID":637941,"DIS_CODE":0,"TOWNNAME":"中西區","LI":"大涼里","LIN":"4鄰","STREET":"府前路","SECT":"二段","MAREA":" ","LANE":" ","ALLEY":" ","HOUSE_NO":"２５０號","E_COORD97":167110.51999999999,"N_COORD97":2543617.6400000001,"ADDRESS":"府前路二段２５０號","OBJECTID":637914},"geometry":{"x":167110.51999999955,"y":2543617.6400000025}},{"attributes":{"ID":637942,"DIS_CODE":0,"TOWNNAME":"中西區","LI":"大涼里","LIN":"4鄰","STREET":"府前路","SECT":"二段","MAREA":" ","LANE":" ","ALLEY":" ","HOUSE_NO":"２５２號","E_COORD97":167106.48000000001,"N_COORD97":2543618.5099999998,"ADDRESS":"府前路二段２５２號","OBJECTID":637915},"geometry":{"x":167106.48000000045,"y":2543618.5100000016}},{"attributes":{"ID":637943,"DIS_CODE":0,"TOWNNAME":"中西區","LI":"大涼里","LIN":"4鄰","STREET":"府前路","SECT":"二段","MAREA":" ","LANE":" ","ALLEY":" ","HOUSE_NO":"２５４號","E_COORD97":167101.73999999999,"N_COORD97":2543618.5099999998,"ADDRESS":"府前路二段２５４號","OBJECTID":637916},"geometry":{"x":167101.74000000115,"y":2543618.5100000016}},{"attributes":{"ID":637944,"DIS_CODE":0,"TOWNNAME":"下營區","LI":"仁里里","LIN":"4鄰","STREET":"仁里街","SECT":" ","MAREA":" ","LANE":" ","ALLEY":" ","HOUSE_NO":"７２號","E_COORD97":174251.87,"N_COORD97":2570154.6400000001,"ADDRESS":"仁里街７２號","OBJECTID":637917},"geometry":{"x":174251.87000000011,"y":2570154.6400000025}},{"attributes":{"ID":637945,"DIS_CODE":0,"TOWNNAME":"下營區","LI":"仁里里","LIN":"4鄰","STREET":"仁里街","SECT":" ","MAREA":" ","LANE":" ","ALLEY":" ","HOUSE_NO":"８０號","E_COORD97":174253.81,"N_COORD97":2570125.1000000001,"ADDRESS":"仁里街８０號","OBJECTID":637918},"geometry":{"x":174253.80999999959,"y":2570125.0999999996}},{"attributes":{"ID":637946,"DIS_CODE":0,"TOWNNAME":"下營區","LI":"仁里里","LIN":"1鄰","STREET":"仁南街","SECT":" ","MAREA":" ","LANE":" ","ALLEY":" ","HOUSE_NO":"１１號","E_COORD97":174627.45999999999,"N_COORD97":2569676.3799999999,"ADDRESS":"仁南街１１號","OBJECTID":637919},"geometry":{"x":174627.45999999996,"y":2569676.3800000008}},{"attributes":{"ID":637947,"DIS_CODE":0,"TOWNNAME":"下營區","LI":"仁里里","LIN":"1鄰","STREET":"仁南街","SECT":" ","MAREA":" ","LANE":" ","ALLEY":" ","HOUSE_NO":"１６號","E_COORD97":174603.91,"N_COORD97":2569699.7799999998,"ADDRESS":"仁南街１６號","OBJECTID":637920},"geometry":{"x":174603.91000000108,"y":2569699.7799999993}},{"attributes":{"ID":637948,"DIS_CODE":0,"TOWNNAME":"下營區","LI":"仁里里","LIN":"1鄰","STREET":"仁南街","SECT":" ","MAREA":" ","LANE":" ","ALLEY":" ","HOUSE_NO":"１８號","E_COORD97":174583.19,"N_COORD97":2569687.2999999998,"ADDRESS":"仁南街１８號","OBJECTID":637921},"geometry":{"x":174583.19000000134,"y":2569687.3000000007}},{"attributes":{"ID":637949,"DIS_CODE":0,"TOWNNAME":"下營區","LI":"仁里里","LIN":"1鄰","STREET":"仁南街","SECT":" ","MAREA":" ","LANE":" ","ALLEY":" ","HOUSE_NO":"１號","E_COORD97":174655.07000000001,"N_COORD97":2569685.9900000002,"ADDRESS":"仁南街１號","OBJECTID":637922},"geometry":{"x":174655.07000000123,"y":2569685.9900000002}},{"attributes":{"ID":637950,"DIS_CODE":0,"TOWNNAME":"下營區","LI":"仁里里","LIN":"1鄰","STREET":"仁南街","SECT":" ","MAREA":" ","LANE":" ","ALLEY":" ","HOUSE_NO":"２０號","E_COORD97":174567.14000000001,"N_COORD97":2569703.0299999998,"ADDRESS":"仁南街２０號","OBJECTID":637923},"geometry":{"x":174567.13999999873,"y":2569703.0300000012}},{"attributes":{"ID":637951,"DIS_CODE":0,"TOWNNAME":"下營區","LI":"仁里里","LIN":"1鄰","STREET":"仁南街","SECT":" ","MAREA":" ","LANE":" ","ALLEY":" ","HOUSE_NO":"２２號","E_COORD97":174562.60999999999,"N_COORD97":2569702.8399999999,"ADDRESS":"仁南街２２號","OBJECTID":637924},"geometry":{"x":174562.61000000034,"y":2569702.8399999999}},{"attributes":{"ID":637952,"DIS_CODE":0,"TOWNNAME":"下營區","LI":"仁里里","LIN":"7鄰","STREET":"仁美街","SECT":" ","MAREA":" ","LANE":" ","ALLEY":" ","HOUSE_NO":"１８號","E_COORD97":174212.57999999999,"N_COORD97":2570254.4700000002,"ADDRESS":"仁美街１８號","OBJECTID":637925},"geometry":{"x":174212.58000000101,"y":2570254.4700000025}},{"attributes":{"ID":637953,"DIS_CODE":0,"TOWNNAME":"下營區","LI":"仁里里","LIN":"7鄰","STREET":"仁美街","SECT":" ","MAREA":" ","LANE":" ","ALLEY":" ","HOUSE_NO":"２８號","E_COORD97":174205.87,"N_COORD97":2570234.7000000002,"ADDRESS":"仁美街２８號","OBJECTID":637926},"geometry":{"x":174205.87000000104,"y":2570234.7000000011}},{"attributes":{"ID":637954,"DIS_CODE":0,"TOWNNAME":"下營區","LI":"仁里里","LIN":"7鄰","STREET":"仁美街","SECT":" ","MAREA":" ","LANE":" ","ALLEY":" ","HOUSE_NO":"３８號","E_COORD97":174197.41,"N_COORD97":2570214.9399999999,"ADDRESS":"仁美街３８號","OBJECTID":637927},"geometry":{"x":174197.41000000015,"y":2570214.9400000032}},{"attributes":{"ID":637955,"DIS_CODE":0,"TOWNNAME":"下營區","LI":"仁里里","LIN":"7鄰","STREET":"仁美街","SECT":" ","MAREA":" ","LANE":" ","ALLEY":" ","HOUSE_NO":"４０號","E_COORD97":174196.34,"N_COORD97":2570209.77,"ADDRESS":"仁美街４０號","OBJECTID":637928},"geometry":{"x":174196.33999999985,"y":2570209.7700000014}},{"attributes":{"ID":637956,"DIS_CODE":0,"TOWNNAME":"下營區","LI":"仁里里","LIN":"7鄰","STREET":"仁美街","SECT":" ","MAREA":" ","LANE":" ","ALLEY":" ","HOUSE_NO":"４８號","E_COORD97":174193.60999999999,"N_COORD97":2570187.6200000001,"ADDRESS":"仁美街４８號","OBJECTID":637929},"geometry":{"x":174193.6100000022,"y":2570187.620000001}},{"attributes":{"ID":637957,"DIS_CODE":0,"TOWNNAME":"下營區","LI":"仁里里","LIN":"7鄰","STREET":"仁美街","SECT":" ","MAREA":" ","LANE":" ","ALLEY":" ","HOUSE_NO":"５０號","E_COORD97":174192.70000000001,"N_COORD97":2570182.2200000002,"ADDRESS":"仁美街５０號","OBJECTID":637930},"geometry":{"x":174192.69999999925,"y":2570182.2200000007}},{"attributes":{"ID":637958,"DIS_CODE":0,"TOWNNAME":"下營區","LI":"仁里里","LIN":"21鄰","STREET":"仁南街","SECT":" ","MAREA":" ","LANE":" ","ALLEY":" ","HOUSE_NO":"８８號","E_COORD97":174386.97,"N_COORD97":2569719.1600000001,"ADDRESS":"仁南街８８號","OBJECTID":637931},"geometry":{"x":174386.96999999974,"y":2569719.1600000039}},{"attributes":{"ID":637959,"DIS_CODE":0,"TOWNNAME":"下營區","LI":"仁里里","LIN":"21鄰","STREET":"仁南街","SECT":" ","MAREA":" ","LANE":" ","ALLEY":" ","HOUSE_NO":"９０號","E_COORD97":174379.57000000001,"N_COORD97":2569719.8500000001,"ADDRESS":"仁南街９０號","OBJECTID":637932},"geometry":{"x":174379.5700000003,"y":2569719.8499999996}},{"attributes":{"ID":637960,"DIS_CODE":0,"TOWNNAME":"下營區","LI":"仁里里","LIN":"21鄰","STREET":"仁南街","SECT":" ","MAREA":" ","LANE":" ","ALLEY":" ","HOUSE_NO":"９７號","E_COORD97":174332.39999999999,"N_COORD97":2569706.2000000002,"ADDRESS":"仁南街９７號","OBJECTID":637933},"geometry":{"x":174332.40000000224,"y":2569706.1999999993}},{"attributes":{"ID":637961,"DIS_CODE":0,"TOWNNAME":"下營區","LI":"仁里里","LIN":"4鄰","STREET":"仁美街","SECT":" ","MAREA":" ","LANE":" ","ALLEY":" ","HOUSE_NO":"６７號","E_COORD97":174205.92999999999,"N_COORD97":2570146.0299999998,"ADDRESS":"仁美街６７號","OBJECTID":637934},"geometry":{"x":174205.93000000156,"y":2570146.0299999975}},{"attributes":{"ID":637962,"DIS_CODE":0,"TOWNNAME":"下營區","LI":"仁里里","LIN":"4鄰","STREET":"仁美街","SECT":" ","MAREA":" ","LANE":" ","ALLEY":" ","HOUSE_NO":"６９號","E_COORD97":174205.23999999999,"N_COORD97":2570140.9700000002,"ADDRESS":"仁美街６９號","OBJECTID":637935},"geometry":{"x":174205.24000000115,"y":2570140.9700000007}},{"attributes":{"ID":637963,"DIS_CODE":0,"TOWNNAME":"下營區","LI":"營前里","LIN":"25鄰","STREET":"仁愛街","SECT":" ","MAREA":" ","LANE":" ","ALLEY":" ","HOUSE_NO":"１６號","E_COORD97":174770.14000000001,"N_COORD97":2570056.54,"ADDRESS":"仁愛街１６號","OBJECTID":637936},"geometry":{"x":174770.13999999966,"y":2570056.5399999991}},{"attributes":{"ID":637964,"DIS_CODE":0,"TOWNNAME":"下營區","LI":"營前里","LIN":"25鄰","STREET":"仁愛街","SECT":" ","MAREA":" ","LANE":" ","ALLEY":" ","HOUSE_NO":"４２號","E_COORD97":174816.97,"N_COORD97":2570073.3500000001,"ADDRESS":"仁愛街４２號","OBJECTID":637937},"geometry":{"x":174816.96999999974,"y":2570073.3500000034}},{"attributes":{"ID":637965,"DIS_CODE":0,"TOWNNAME":"下營區","LI":"營前里","LIN":"25鄰","STREET":"仁愛街","SECT":" ","MAREA":" ","LANE":" ","ALLEY":" ","HOUSE_NO":"４６號","E_COORD97":174820.41,"N_COORD97":2570074.6800000002,"ADDRESS":"仁愛街４６號","OBJECTID":637938},"geometry":{"x":174820.41000000108,"y":2570074.6800000016}},{"attributes":{"ID":637966,"DIS_CODE":0,"TOWNNAME":"下營區","LI":"營前里","LIN":"25鄰","STREET":"仁愛街","SECT":" ","MAREA":" ","LANE":" ","ALLEY":" ","HOUSE_NO":"４８號","E_COORD97":174824.12,"N_COORD97":2570076.0099999998,"ADDRESS":"仁愛街４８號","OBJECTID":637939},"geometry":{"x":174824.12000000104,"y":2570076.0100000016}},{"attributes":{"ID":637967,"DIS_CODE":0,"TOWNNAME":"下營區","LI":"營前里","LIN":"25鄰","STREET":"仁愛街","SECT":" ","MAREA":" ","LANE":" ","ALLEY":" ","HOUSE_NO":"５０號","E_COORD97":174827.64000000001,"N_COORD97":2570077.21,"ADDRESS":"仁愛街５０號","OBJECTID":637940},"geometry":{"x":174827.63999999966,"y":2570077.2100000009}},{"attributes":{"ID":637968,"DIS_CODE":0,"TOWNNAME":"下營區","LI":"營前里","LIN":"25鄰","STREET":"仁愛街","SECT":" ","MAREA":" ","LANE":" ","ALLEY":" ","HOUSE_NO":"５２號","E_COORD97":174831.10000000001,"N_COORD97":2570078.8999999999,"ADDRESS":"仁愛街５２號","OBJECTID":637941},"geometry":{"x":174831.09999999963,"y":2570078.9000000004}},{"attributes":{"ID":637969,"DIS_CODE":0,"TOWNNAME":"下營區","LI":"營前里","LIN":"25鄰","STREET":"仁愛街","SECT":" ","MAREA":" ","LANE":" ","ALLEY":" ","HOUSE_NO":"５６號","E_COORD97":174834.67999999999,"N_COORD97":2570080,"ADDRESS":"仁愛街５６號","OBJECTID":637942},"geometry":{"x":174834.6799999997,"y":2570080.0000000019}},{"attributes":{"ID":637970,"DIS_CODE":0,"TOWNNAME":"下營區","LI":"營前里","LIN":"24鄰","STREET":"仁愛街","SECT":" ","MAREA":" ","LANE":" ","ALLEY":" ","HOUSE_NO":"８號","E_COORD97":174743.85999999999,"N_COORD97":2570044.5099999998,"ADDRESS":"仁愛街８號","OBJECTID":637943},"geometry":{"x":174743.86000000034,"y":2570044.5099999998}},{"attributes":{"ID":637971,"DIS_CODE":0,"TOWNNAME":"下營區","LI":"仁里里","LIN":"4鄰","STREET":"仁興街","SECT":" ","MAREA":" ","LANE":" ","ALLEY":" ","HOUSE_NO":"２０號","E_COORD97":174215.26999999999,"N_COORD97":2570130.1400000001,"ADDRESS":"仁興街２０號","OBJECTID":637944},"geometry":{"x":174215.26999999862,"y":2570130.1400000025}},{"attributes":{"ID":637972,"DIS_CODE":0,"TOWNNAME":"下營區","LI":"仁里里","LIN":"18鄰","STREET":"公園路","SECT":" ","MAREA":" ","LANE":" ","ALLEY":" ","HOUSE_NO":"１０號","E_COORD97":174367.01000000001,"N_COORD97":2570366.54,"ADDRESS":"公園路１０號","OBJECTID":637945},"geometry":{"x":174367.01000000071,"y":2570366.5400000028}},{"attributes":{"ID":637973,"DIS_CODE":0,"TOWNNAME":"下營區","LI":"仁里里","LIN":"8鄰","STREET":"公園路","SECT":" ","MAREA":" ","LANE":" ","ALLEY":" ","HOUSE_NO":"１００號","E_COORD97":174192.07000000001,"N_COORD97":2570303.6200000001,"ADDRESS":"公園路１００號","OBJECTID":637946},"geometry":{"x":174192.07000000216,"y":2570303.6200000048}},{"attributes":{"ID":637974,"DIS_CODE":0,"TOWNNAME":"下營區","LI":"仁里里","LIN":"6鄰","STREET":"仁興街","SECT":" ","MAREA":" ","LANE":" ","ALLEY":" ","HOUSE_NO":"１號","E_COORD97":174235.88,"N_COORD97":2570094.9199999999,"ADDRESS":"仁興街１號","OBJECTID":637947},"geometry":{"x":174235.88000000082,"y":2570094.9200000018}},{"attributes":{"ID":637975,"DIS_CODE":0,"TOWNNAME":"下營區","LI":"仁里里","LIN":"17鄰","STREET":"公園路","SECT":" ","MAREA":" ","LANE":" ","ALLEY":" ","HOUSE_NO":"２２號","E_COORD97":174350.79000000001,"N_COORD97":2570363.6200000001,"ADDRESS":"公園路２２號","OBJECTID":637948},"geometry":{"x":174350.79000000004,"y":2570363.620000001}},{"attributes":{"ID":637976,"DIS_CODE":0,"TOWNNAME":"下營區","LI":"仁里里","LIN":"2鄰","STREET":"公園路","SECT":" ","MAREA":" ","LANE":" ","ALLEY":" ","HOUSE_NO":"１號","E_COORD97":174296.63,"N_COORD97":2570323.71,"ADDRESS":"公園路１號","OBJECTID":637949},"geometry":{"x":174296.63000000082,"y":2570323.7100000028}},{"attributes":{"ID":637977,"DIS_CODE":0,"TOWNNAME":"下營區","LI":"仁里里","LIN":"17鄰","STREET":"公園路","SECT":" ","MAREA":" ","LANE":" ","ALLEY":" ","HOUSE_NO":"４８號","E_COORD97":174307.70000000001,"N_COORD97":2570351.4900000002,"ADDRESS":"公園路４８號","OBJECTID":637950},"geometry":{"x":174307.70000000019,"y":2570351.4900000021}},{"attributes":{"ID":637978,"DIS_CODE":0,"TOWNNAME":"下營區","LI":"仁里里","LIN":"17鄰","STREET":"公園路","SECT":" ","MAREA":" ","LANE":" ","ALLEY":" ","HOUSE_NO":"３６號","E_COORD97":174326.54000000001,"N_COORD97":2570355.1200000001,"ADDRESS":"公園路３６號","OBJECTID":637951},"geometry":{"x":174326.54000000097,"y":2570355.1200000029}},{"attributes":{"ID":637979,"DIS_CODE":0,"TOWNNAME":"下營區","LI":"仁里里","LIN":"2鄰","STREET":"公園路","SECT":" ","MAREA":" ","LANE":" ","ALLEY":" ","HOUSE_NO":"７號","E_COORD97":174283,"N_COORD97":2570319.0800000001,"ADDRESS":"公園路７號","OBJECTID":637952},"geometry":{"x":174283,"y":2570319.0800000001}},{"attributes":{"ID":637980,"DIS_CODE":0,"TOWNNAME":"下營區","LI":"宅內里","LIN":"4鄰","STREET":"友愛街","SECT":" ","MAREA":" ","LANE":" ","ALLEY":" ","HOUSE_NO":"１５１號","E_COORD97":174176.07000000001,"N_COORD97":2570719.6000000001,"ADDRESS":"友愛街１５１號","OBJECTID":637953},"geometry":{"x":174176.0700000003,"y":2570719.6000000015}},{"attributes":{"ID":637981,"DIS_CODE":0,"TOWNNAME":"下營區","LI":"宅內里","LIN":"4鄰","STREET":"友愛街","SECT":" ","MAREA":" ","LANE":" ","ALLEY":" ","HOUSE_NO":"１５３號","E_COORD97":174172.47,"N_COORD97":2570733.4700000002,"ADDRESS":"友愛街１５３號","OBJECTID":637954},"geometry":{"x":174172.47000000067,"y":2570733.4700000007}},{"attributes":{"ID":637982,"DIS_CODE":0,"TOWNNAME":"下營區","LI":"宅內里","LIN":"4鄰","STREET":"友愛街","SECT":" ","MAREA":" ","LANE":" ","ALLEY":" ","HOUSE_NO":"１５５號","E_COORD97":174166.56,"N_COORD97":2570742.6299999999,"ADDRESS":"友愛街１５５號","OBJECTID":637955},"geometry":{"x":174166.56000000052,"y":2570742.6300000008}},{"attributes":{"ID":637983,"DIS_CODE":0,"TOWNNAME":"下營區","LI":"宅內里","LIN":"4鄰","STREET":"友愛街","SECT":" ","MAREA":" ","LANE":" ","ALLEY":" ","HOUSE_NO":"１５９號","E_COORD97":174166.45000000001,"N_COORD97":2570755.25,"ADDRESS":"友愛街１５９號","OBJECTID":637956},"geometry":{"x":174166.45000000112,"y":2570755.25}},{"attributes":{"ID":637984,"DIS_CODE":0,"TOWNNAME":"下營區","LI":"宅內里","LIN":"4鄰","STREET":"友愛街","SECT":" ","MAREA":" ","LANE":" ","ALLEY":" ","HOUSE_NO":"１６１號","E_COORD97":174166.14999999999,"N_COORD97":2570759.54,"ADDRESS":"友愛街１６１號","OBJECTID":637957},"geometry":{"x":174166.15000000224,"y":2570759.5400000028}},{"attributes":{"ID":637985,"DIS_CODE":0,"TOWNNAME":"下營區","LI":"宅內里","LIN":"4鄰","STREET":"友愛街","SECT":" ","MAREA":" ","LANE":" ","ALLEY":" ","HOUSE_NO":"１６７號","E_COORD97":174155.78,"N_COORD97":2570766.7599999998,"ADDRESS":"友愛街１６７號","OBJECTID":637958},"geometry":{"x":174155.78000000119,"y":2570766.7600000016}},{"attributes":{"ID":637986,"DIS_CODE":0,"TOWNNAME":"下營區","LI":"宅內里","LIN":"4鄰","STREET":"友愛街","SECT":" ","MAREA":" ","LANE":" ","ALLEY":" ","HOUSE_NO":"１６９號","E_COORD97":174163.44,"N_COORD97":2570782.6099999999,"ADDRESS":"友愛街１６９號","OBJECTID":637959},"geometry":{"x":174163.44000000041,"y":2570782.6099999994}},{"attributes":{"ID":637987,"DIS_CODE":0,"TOWNNAME":"下營區","LI":"宅內里","LIN":"4鄰","STREET":"友愛街","SECT":" ","MAREA":" ","LANE":" ","ALLEY":" ","HOUSE_NO":"１７３號","E_COORD97":174143.48999999999,"N_COORD97":2570789.8799999999,"ADDRESS":"友愛街１７３號","OBJECTID":637960},"geometry":{"x":174143.49000000209,"y":2570789.879999999}},{"attributes":{"ID":637988,"DIS_CODE":0,"TOWNNAME":"下營區","LI":"宅內里","LIN":"4鄰","STREET":"友愛街","SECT":" ","MAREA":" ","LANE":" ","ALLEY":" ","HOUSE_NO":"１７５號","E_COORD97":174155.39999999999,"N_COORD97":2570801.48,"ADDRESS":"友愛街１７５號","OBJECTID":637961},"geometry":{"x":174155.40000000037,"y":2570801.4800000004}},{"attributes":{"ID":637989,"DIS_CODE":0,"TOWNNAME":"下營區","LI":"宅內里","LIN":"4鄰","STREET":"友愛街","SECT":" ","MAREA":" ","LANE":" ","ALLEY":" ","HOUSE_NO":"１７６號","E_COORD97":174194.62,"N_COORD97":2570720.6099999999,"ADDRESS":"友愛街１７６號","OBJECTID":637962},"geometry":{"x":174194.62000000011,"y":2570720.6099999994}},{"attributes":{"ID":637990,"DIS_CODE":0,"TOWNNAME":"下營區","LI":"宅內里","LIN":"4鄰","STREET":"友愛街","SECT":" ","MAREA":" ","LANE":" ","ALLEY":" ","HOUSE_NO":"１７７號","E_COORD97":174154.92000000001,"N_COORD97":2570805.1699999999,"ADDRESS":"友愛街１７７號","OBJECTID":637963},"geometry":{"x":174154.91999999993,"y":2570805.1700000018}},{"attributes":{"ID":637991,"DIS_CODE":0,"TOWNNAME":"下營區","LI":"宅內里","LIN":"4鄰","STREET":"友愛街","SECT":" ","MAREA":" ","LANE":" ","ALLEY":" ","HOUSE_NO":"１７８號","E_COORD97":174194.95000000001,"N_COORD97":2570730.7999999998,"ADDRESS":"友愛街１７８號","OBJECTID":637964},"geometry":{"x":174194.95000000112,"y":2570730.8000000007}},{"attributes":{"ID":637992,"DIS_CODE":0,"TOWNNAME":"下營區","LI":"宅內里","LIN":"4鄰","STREET":"友愛街","SECT":" ","MAREA":" ","LANE":" ","ALLEY":" ","HOUSE_NO":"１７９號","E_COORD97":174153.14000000001,"N_COORD97":2570811.04,"ADDRESS":"友愛街１７９號","OBJECTID":637965},"geometry":{"x":174153.13999999966,"y":2570811.040000001}},{"attributes":{"ID":637993,"DIS_CODE":0,"TOWNNAME":"下營區","LI":"宅內里","LIN":"4鄰","STREET":"友愛街","SECT":" ","MAREA":" ","LANE":" ","ALLEY":" ","HOUSE_NO":"１８６號","E_COORD97":174189.84,"N_COORD97":2570757.46,"ADDRESS":"友愛街１８６號","OBJECTID":637966},"geometry":{"x":174189.84000000171,"y":2570757.4600000009}},{"attributes":{"ID":637994,"DIS_CODE":0,"TOWNNAME":"下營區","LI":"宅內里","LIN":"4鄰","STREET":"友愛街","SECT":" ","MAREA":" ","LANE":" ","ALLEY":" ","HOUSE_NO":"１９０號","E_COORD97":174192.64999999999,"N_COORD97":2570741.77,"ADDRESS":"友愛街１９０號","OBJECTID":637967},"geometry":{"x":174192.65000000037,"y":2570741.7700000033}},{"attributes":{"ID":637995,"DIS_CODE":0,"TOWNNAME":"下營區","LI":"仁里里","LIN":"13鄰","STREET":"友愛街","SECT":" ","MAREA":" ","LANE":" ","ALLEY":" ","HOUSE_NO":"６３號","E_COORD97":174179.32000000001,"N_COORD97":2570449.2999999998,"ADDRESS":"友愛街６３號","OBJECTID":637968},"geometry":{"x":174179.32000000123,"y":2570449.3000000026}},{"attributes":{"ID":637996,"DIS_CODE":0,"TOWNNAME":"下營區","LI":"仁里里","LIN":"13鄰","STREET":"友愛街","SECT":" ","MAREA":" ","LANE":" ","ALLEY":" ","HOUSE_NO":"６５號","E_COORD97":174179.17999999999,"N_COORD97":2570453.8300000001,"ADDRESS":"友愛街６５號","OBJECTID":637969},"geometry":{"x":174179.18000000063,"y":2570453.8300000019}},{"attributes":{"ID":637997,"DIS_CODE":0,"TOWNNAME":"下營區","LI":"仁里里","LIN":"13鄰","STREET":"友愛街","SECT":" ","MAREA":" ","LANE":" ","ALLEY":" ","HOUSE_NO":"６９號","E_COORD97":174177.59,"N_COORD97":2570461.6200000001,"ADDRESS":"友愛街６９號","OBJECTID":637970},"geometry":{"x":174177.58999999985,"y":2570461.620000001}},{"attributes":{"ID":637998,"DIS_CODE":0,"TOWNNAME":"下營區","LI":"新興里","LIN":"14鄰","STREET":"文化街","SECT":" ","MAREA":" ","LANE":" ","ALLEY":" ","HOUSE_NO":"１１８號","E_COORD97":174778.29999999999,"N_COORD97":2570497.1499999999,"ADDRESS":"文化街１１８號","OBJECTID":637971},"geometry":{"x":174778.30000000168,"y":2570497.1500000022}},{"attributes":{"ID":637999,"DIS_CODE":0,"TOWNNAME":"下營區","LI":"新興里","LIN":"14鄰","STREET":"文化街","SECT":" ","MAREA":" ","LANE":" ","ALLEY":" ","HOUSE_NO":"１２２號","E_COORD97":174773.95999999999,"N_COORD97":2570527.21,"ADDRESS":"文化街１２２號","OBJECTID":637972},"geometry":{"x":174773.96000000183,"y":2570527.2100000028}},{"attributes":{"ID":638000,"DIS_CODE":0,"TOWNNAME":"下營區","LI":"新興里","LIN":"14鄰","STREET":"文化街","SECT":" ","MAREA":" ","LANE":" ","ALLEY":" ","HOUSE_NO":"１４０號","E_COORD97":174760.73999999999,"N_COORD97":2570547.1200000001,"ADDRESS":"文化街１４０號","OBJECTID":637973},"geometry":{"x":174760.74000000115,"y":2570547.120000001}},{"attributes":{"ID":638001,"DIS_CODE":0,"TOWNNAME":"下營區","LI":"營前里","LIN":"15鄰","STREET":"文化街","SECT":" ","MAREA":" ","LANE":" ","ALLEY":" ","HOUSE_NO":"７９號","E_COORD97":174778.10000000001,"N_COORD97":2570400.7000000002,"ADDRESS":"文化街７９號","OBJECTID":637974},"geometry":{"x":174778.10000000056,"y":2570400.7000000011}},{"attributes":{"ID":638002,"DIS_CODE":0,"TOWNNAME":"下營區","LI":"營前里","LIN":"15鄰","STREET":"文化街","SECT":" ","MAREA":" ","LANE":" ","ALLEY":" ","HOUSE_NO":"８１號","E_COORD97":174776.82000000001,"N_COORD97":2570411.3999999999,"ADDRESS":"文化街８１號","OBJECTID":637975},"geometry":{"x":174776.81999999937,"y":2570411.4000000004}},{"attributes":{"ID":638003,"DIS_CODE":0,"TOWNNAME":"下營區","LI":"營前里","LIN":"15鄰","STREET":"文化街","SECT":" ","MAREA":" ","LANE":" ","ALLEY":" ","HOUSE_NO":"８２號","E_COORD97":174807.94,"N_COORD97":2570386.8399999999,"ADDRESS":"文化街８２號","OBJECTID":637976},"geometry":{"x":174807.94000000041,"y":2570386.8400000017}},{"attributes":{"ID":638004,"DIS_CODE":0,"TOWNNAME":"下營區","LI":"營前里","LIN":"15鄰","STREET":"文化街","SECT":" ","MAREA":" ","LANE":" ","ALLEY":" ","HOUSE_NO":"８５號","E_COORD97":174771.73000000001,"N_COORD97":2570432.02,"ADDRESS":"文化街８５號","OBJECTID":637977},"geometry":{"x":174771.73000000138,"y":2570432.0200000014}},{"attributes":{"ID":638005,"DIS_CODE":0,"TOWNNAME":"下營區","LI":"營前里","LIN":"15鄰","STREET":"文化街","SECT":" ","MAREA":" ","LANE":" ","ALLEY":" ","HOUSE_NO":"８６號","E_COORD97":174809.78,"N_COORD97":2570398.5,"ADDRESS":"文化街８６號","OBJECTID":637978},"geometry":{"x":174809.78000000119,"y":2570398.5000000019}},{"attributes":{"ID":638006,"DIS_CODE":0,"TOWNNAME":"下營區","LI":"營前里","LIN":"15鄰","STREET":"文化街","SECT":" ","MAREA":" ","LANE":" ","ALLEY":" ","HOUSE_NO":"９０號","E_COORD97":174808.75,"N_COORD97":2570411.2400000002,"ADDRESS":"文化街９０號","OBJECTID":637979},"geometry":{"x":174808.75,"y":2570411.2400000021}},{"attributes":{"ID":638007,"DIS_CODE":0,"TOWNNAME":"下營區","LI":"營前里","LIN":"15鄰","STREET":"文化街","SECT":" ","MAREA":" ","LANE":" ","ALLEY":" ","HOUSE_NO":"９３號","E_COORD97":174759.82000000001,"N_COORD97":2570456.3100000001,"ADDRESS":"文化街９３號","OBJECTID":637980},"geometry":{"x":174759.8200000003,"y":2570456.3100000005}},{"attributes":{"ID":638008,"DIS_CODE":0,"TOWNNAME":"下營區","LI":"營前里","LIN":"4鄰","STREET":"文明街","SECT":" ","MAREA":" ","LANE":" ","ALLEY":" ","HOUSE_NO":"７５號","E_COORD97":174582.56,"N_COORD97":2570309.0800000001,"ADDRESS":"文明街７５號","OBJECTID":637981},"geometry":{"x":174582.55999999959,"y":2570309.0800000001}},{"attributes":{"ID":638009,"DIS_CODE":0,"TOWNNAME":"下營區","LI":"營前里","LIN":"4鄰","STREET":"文明街","SECT":" ","MAREA":" ","LANE":" ","ALLEY":" ","HOUSE_NO":"７７號","E_COORD97":174577.44,"N_COORD97":2570308.0699999998,"ADDRESS":"文明街７７號","OBJECTID":637982},"geometry":{"x":174577.44000000041,"y":2570308.0700000003}},{"attributes":{"ID":638010,"DIS_CODE":0,"TOWNNAME":"下營區","LI":"營前里","LIN":"4鄰","STREET":"文明街","SECT":" ","MAREA":" ","LANE":" ","ALLEY":" ","HOUSE_NO":"７９號","E_COORD97":174572.39000000001,"N_COORD97":2570307.8199999998,"ADDRESS":"文明街７９號","OBJECTID":637983},"geometry":{"x":174572.39000000153,"y":2570307.8199999984}},{"attributes":{"ID":638011,"DIS_CODE":0,"TOWNNAME":"下營區","LI":"營前里","LIN":"4鄰","STREET":"文明街","SECT":" ","MAREA":" ","LANE":" ","ALLEY":" ","HOUSE_NO":"８１號","E_COORD97":174568.09,"N_COORD97":2570307.3700000001,"ADDRESS":"文明街８１號","OBJECTID":637984},"geometry":{"x":174568.09000000078,"y":2570307.370000001}},{"attributes":{"ID":638012,"DIS_CODE":0,"TOWNNAME":"下營區","LI":"營前里","LIN":"4鄰","STREET":"文明街","SECT":" ","MAREA":" ","LANE":" ","ALLEY":" ","HOUSE_NO":"８３號","E_COORD97":174564.35999999999,"N_COORD97":2570306.75,"ADDRESS":"文明街８３號","OBJECTID":637985},"geometry":{"x":174564.36000000034,"y":2570306.75}},{"attributes":{"ID":638013,"DIS_CODE":0,"TOWNNAME":"下營區","LI":"營前里","LIN":"4鄰","STREET":"文明街","SECT":" ","MAREA":" ","LANE":" ","ALLEY":" ","HOUSE_NO":"８５號","E_COORD97":174558.22,"N_COORD97":2570305.1600000001,"ADDRESS":"文明街８５號","OBJECTID":637986},"geometry":{"x":174558.21999999881,"y":2570305.1600000001}},{"attributes":{"ID":638014,"DIS_CODE":0,"TOWNNAME":"下營區","LI":"營前里","LIN":"4鄰","STREET":"文明街","SECT":" ","MAREA":" ","LANE":" ","ALLEY":" ","HOUSE_NO":"８７號","E_COORD97":174539.32000000001,"N_COORD97":2570303.3900000001,"ADDRESS":"文明街８７號","OBJECTID":637987},"geometry":{"x":174539.3200000003,"y":2570303.3900000006}},{"attributes":{"ID":638015,"DIS_CODE":0,"TOWNNAME":"下營區","LI":"營前里","LIN":"4鄰","STREET":"文明街","SECT":" ","MAREA":" ","LANE":" ","ALLEY":" ","HOUSE_NO":"８９號","E_COORD97":174531.14000000001,"N_COORD97":2570302.8500000001,"ADDRESS":"文明街８９號","OBJECTID":637988},"geometry":{"x":174531.13999999966,"y":2570302.8499999996}},{"attributes":{"ID":638016,"DIS_CODE":0,"TOWNNAME":"下營區","LI":"營前里","LIN":"4鄰","STREET":"文明街","SECT":" ","MAREA":" ","LANE":" ","ALLEY":" ","HOUSE_NO":"９１號","E_COORD97":174527.10000000001,"N_COORD97":2570301.8599999999,"ADDRESS":"文明街９１號","OBJECTID":637989},"geometry":{"x":174527.10000000056,"y":2570301.8599999994}},{"attributes":{"ID":638017,"DIS_CODE":0,"TOWNNAME":"下營區","LI":"營前里","LIN":"4鄰","STREET":"文明街","SECT":" ","MAREA":" ","LANE":" ","ALLEY":" ","HOUSE_NO":"９３號","E_COORD97":174507.98999999999,"N_COORD97":2570306.7799999998,"ADDRESS":"文明街９３號","OBJECTID":637990},"geometry":{"x":174507.99000000115,"y":2570306.7799999993}},{"attributes":{"ID":638018,"DIS_CODE":0,"TOWNNAME":"下營區","LI":"營前里","LIN":"14鄰","STREET":"文明街","SECT":" ","MAREA":" ","LANE":" ","ALLEY":" ","HOUSE_NO":"７０號","E_COORD97":174659.04000000001,"N_COORD97":2570345.3599999999,"ADDRESS":"文明街７０號","OBJECTID":637991},"geometry":{"x":174659.04000000004,"y":2570345.3600000013}},{"attributes":{"ID":638019,"DIS_CODE":0,"TOWNNAME":"下營區","LI":"下營里","LIN":"20鄰","STREET":"民生街","SECT":" ","MAREA":" ","LANE":" ","ALLEY":" ","HOUSE_NO":"５０號","E_COORD97":174450.64000000001,"N_COORD97":2570414.96,"ADDRESS":"民生街５０號","OBJECTID":637992},"geometry":{"x":174450.6400000006,"y":2570414.9600000009}},{"attributes":{"ID":638020,"DIS_CODE":0,"TOWNNAME":"下營區","LI":"下營里","LIN":"20鄰","STREET":"民生街","SECT":" ","MAREA":" ","LANE":" ","ALLEY":" ","HOUSE_NO":"５２號","E_COORD97":174449.26000000001,"N_COORD97":2570403.4500000002,"ADDRESS":"民生街５２號","OBJECTID":637993},"geometry":{"x":174449.25999999978,"y":2570403.4499999993}},{"attributes":{"ID":638021,"DIS_CODE":0,"TOWNNAME":"下營區","LI":"下營里","LIN":"20鄰","STREET":"民生街","SECT":" ","MAREA":" ","LANE":" ","ALLEY":" ","HOUSE_NO":"５６號","E_COORD97":174450.38,"N_COORD97":2570398.8999999999,"ADDRESS":"民生街５６號","OBJECTID":637994},"geometry":{"x":174450.37999999989,"y":2570398.8999999985}},{"attributes":{"ID":638022,"DIS_CODE":0,"TOWNNAME":"下營區","LI":"下營里","LIN":"18鄰","STREET":"民族一街","SECT":" ","MAREA":" ","LANE":" ","ALLEY":" ","HOUSE_NO":"６８號","E_COORD97":174376.47,"N_COORD97":2570561.8399999999,"ADDRESS":"民族一街６８號","OBJECTID":637995},"geometry":{"x":174376.46999999974,"y":2570561.8400000036}},{"attributes":{"ID":638023,"DIS_CODE":0,"TOWNNAME":"下營區","LI":"下營里","LIN":"20鄰","STREET":"民生街","SECT":" ","MAREA":" ","LANE":" ","ALLEY":" ","HOUSE_NO":"５８號","E_COORD97":174449.82999999999,"N_COORD97":2570394.3599999999,"ADDRESS":"民生街５８號","OBJECTID":637996},"geometry":{"x":174449.83000000101,"y":2570394.3599999994}},{"attributes":{"ID":638024,"DIS_CODE":0,"TOWNNAME":"下營區","LI":"下營里","LIN":"20鄰","STREET":"民生街","SECT":" ","MAREA":" ","LANE":" ","ALLEY":" ","HOUSE_NO":"６０號","E_COORD97":174449.79999999999,"N_COORD97":2570390.1800000002,"ADDRESS":"民生街６０號","OBJECTID":637997},"geometry":{"x":174449.80000000075,"y":2570390.1800000016}},{"attributes":{"ID":638025,"DIS_CODE":0,"TOWNNAME":"下營區","LI":"下營里","LIN":"20鄰","STREET":"民生街","SECT":" ","MAREA":" ","LANE":" ","ALLEY":" ","HOUSE_NO":"６２號","E_COORD97":174449.95999999999,"N_COORD97":2570385.7400000002,"ADDRESS":"民生街６２號","OBJECTID":637998},"geometry":{"x":174449.95999999996,"y":2570385.7400000002}},{"attributes":{"ID":638026,"DIS_CODE":0,"TOWNNAME":"下營區","LI":"下營里","LIN":"14鄰","STREET":"民族一街","SECT":" ","MAREA":" ","LANE":" ","ALLEY":" ","HOUSE_NO":"１０號","E_COORD97":174493.67000000001,"N_COORD97":2570575.1299999999,"ADDRESS":"民族一街１０號","OBJECTID":637999},"geometry":{"x":174493.66999999993,"y":2570575.129999999}},{"attributes":{"ID":638027,"DIS_CODE":0,"TOWNNAME":"下營區","LI":"下營里","LIN":"14鄰","STREET":"民族一街","SECT":" ","MAREA":" ","LANE":" ","ALLEY":" ","HOUSE_NO":"１２號","E_COORD97":174488.82000000001,"N_COORD97":2570573.8100000001,"ADDRESS":"民族一街１２號","OBJECTID":638000},"geometry":{"x":174488.82000000216,"y":2570573.8100000024}}]}