{"displayFieldName":"TOWNNAME","fieldAliases":{"ID":"ID","DIS_CODE":"DIS_CODE","TOWNNAME":"TOWNNAME","LI":"LI","LIN":"LIN","STREET":"STREET","SECT":"SECT","MAREA":"MAREA","LANE":"LANE","ALLEY":"ALLEY","HOUSE_NO":"HOUSE_NO","E_COORD97":"E_COORD97","N_COORD97":"N_COORD97","ADDRESS":"ADDRESS","OBJECTID":"OBJECTID"},"geometryType":"esriGeometryPoint","spatialReference":{"wkid":102443,"latestWkid":3826},"fields":[{"name":"ID","type":"esriFieldTypeDouble","alias":"ID"},{"name":"DIS_CODE","type":"esriFieldTypeInteger","alias":"DIS_CODE"},{"name":"TOWNNAME","type":"esriFieldTypeString","alias":"TOWNNAME","length":8},{"name":"LI","type":"esriFieldTypeString","alias":"LI","length":8},{"name":"LIN","type":"esriFieldTypeString","alias":"LIN","length":12},{"name":"STREET","type":"esriFieldTypeString","alias":"STREET","length":20},{"name":"SECT","type":"esriFieldTypeString","alias":"SECT","length":8},{"name":"MAREA","type":"esriFieldTypeString","alias":"MAREA","length":12},{"name":"LANE","type":"esriFieldTypeString","alias":"LANE","length":10},{"name":"ALLEY","type":"esriFieldTypeString","alias":"ALLEY","length":10},{"name":"HOUSE_NO","type":"esriFieldTypeString","alias":"HOUSE_NO","length":20},{"name":"E_COORD97","type":"esriFieldTypeDouble","alias":"E_COORD97"},{"name":"N_COORD97","type":"esriFieldTypeDouble","alias":"N_COORD97"},{"name":"ADDRESS","type":"esriFieldTypeString","alias":"ADDRESS","length":50},{"name":"OBJECTID","type":"esriFieldTypeOID","alias":"OBJECTID"}],"features":[{"attributes":{"ID":528628,"DIS_CODE":0,"TOWNNAME":"新化區","LI":"武安里","LIN":"6鄰","STREET":"中正路","SECT":" ","MAREA":" ","LANE":" ","ALLEY":" ","HOUSE_NO":"３８３號之６","E_COORD97":179084.95999999999,"N_COORD97":2548285.2599999998,"ADDRESS":"中正路３８３號之６","OBJECTID":528601},"geometry":{"x":179084.96000000089,"y":2548285.2600000016}},{"attributes":{"ID":528629,"DIS_CODE":0,"TOWNNAME":"新化區","LI":"中央里","LIN":"6鄰","STREET":"和平街","SECT":" ","MAREA":" ","LANE":" ","ALLEY":" ","HOUSE_NO":"１８５號","E_COORD97":178888.01999999999,"N_COORD97":2548332.25,"ADDRESS":"和平街１８５號","OBJECTID":528602},"geometry":{"x":178888.02000000048,"y":2548332.2500000019}},{"attributes":{"ID":528630,"DIS_CODE":0,"TOWNNAME":"新化區","LI":"武安里","LIN":"6鄰","STREET":"中正路","SECT":" ","MAREA":" ","LANE":" ","ALLEY":" ","HOUSE_NO":"３８３號之９","E_COORD97":179076.25,"N_COORD97":2548283.2599999998,"ADDRESS":"中正路３８３號之９","OBJECTID":528603},"geometry":{"x":179076.25000000093,"y":2548283.2599999998}},{"attributes":{"ID":528631,"DIS_CODE":0,"TOWNNAME":"新化區","LI":"中央里","LIN":"6鄰","STREET":"信義路","SECT":" ","MAREA":" ","LANE":" ","ALLEY":" ","HOUSE_NO":"３７０號","E_COORD97":178795.42999999999,"N_COORD97":2548316.25,"ADDRESS":"信義路３７０號","OBJECTID":528604},"geometry":{"x":178795.43000000063,"y":2548316.2500000019}},{"attributes":{"ID":528632,"DIS_CODE":0,"TOWNNAME":"新化區","LI":"竹林里","LIN":"6鄰","STREET":"仁愛街","SECT":" ","MAREA":" ","LANE":" ","ALLEY":" ","HOUSE_NO":"８２號之１","E_COORD97":178866.01000000001,"N_COORD97":2548576.2599999998,"ADDRESS":"仁愛街８２號之１","OBJECTID":528605},"geometry":{"x":178866.01000000071,"y":2548576.2600000016}},{"attributes":{"ID":528633,"DIS_CODE":0,"TOWNNAME":"新化區","LI":"觀音里","LIN":"6鄰","STREET":"中正路","SECT":" ","MAREA":" ","LANE":" ","ALLEY":" ","HOUSE_NO":"５５１號","E_COORD97":178995.01000000001,"N_COORD97":2548675.25,"ADDRESS":"中正路５５１號","OBJECTID":528606},"geometry":{"x":178995.01000000071,"y":2548675.2500000019}},{"attributes":{"ID":528634,"DIS_CODE":0,"TOWNNAME":"新化區","LI":"竹林里","LIN":"6鄰","STREET":"仁愛街","SECT":" ","MAREA":" ","LANE":" ","ALLEY":" ","HOUSE_NO":"８０號之１","E_COORD97":178881.60999999999,"N_COORD97":2548575.2599999998,"ADDRESS":"仁愛街８０號之１","OBJECTID":528607},"geometry":{"x":178881.61000000034,"y":2548575.2599999979}},{"attributes":{"ID":528635,"DIS_CODE":0,"TOWNNAME":"新化區","LI":"中央里","LIN":"6鄰","STREET":"信義路","SECT":" ","MAREA":" ","LANE":" ","ALLEY":" ","HOUSE_NO":"３０８號","E_COORD97":178949.32999999999,"N_COORD97":2548345.25,"ADDRESS":"信義路３０８號","OBJECTID":528608},"geometry":{"x":178949.33000000007,"y":2548345.2500000037}},{"attributes":{"ID":528636,"DIS_CODE":0,"TOWNNAME":"新化區","LI":"中央里","LIN":"6鄰","STREET":"信義路","SECT":" ","MAREA":" ","LANE":" ","ALLEY":" ","HOUSE_NO":"３１０號之２","E_COORD97":178941.78,"N_COORD97":2548345.2599999998,"ADDRESS":"信義路３１０號之２","OBJECTID":528609},"geometry":{"x":178941.78000000026,"y":2548345.2600000016}},{"attributes":{"ID":528637,"DIS_CODE":0,"TOWNNAME":"新化區","LI":"中央里","LIN":"6鄰","STREET":"信義路","SECT":" ","MAREA":" ","LANE":" ","ALLEY":" ","HOUSE_NO":"３０４號","E_COORD97":178950.53,"N_COORD97":2548338.25,"ADDRESS":"信義路３０４號","OBJECTID":528610},"geometry":{"x":178950.53000000026,"y":2548338.2499999981}},{"attributes":{"ID":528638,"DIS_CODE":0,"TOWNNAME":"新化區","LI":"中央里","LIN":"6鄰","STREET":"信義路","SECT":" ","MAREA":" ","LANE":" ","ALLEY":" ","HOUSE_NO":"３２２號之２","E_COORD97":178916.67999999999,"N_COORD97":2548311.2599999998,"ADDRESS":"信義路３２２號之２","OBJECTID":528611},"geometry":{"x":178916.6799999997,"y":2548311.2600000035}},{"attributes":{"ID":528639,"DIS_CODE":0,"TOWNNAME":"新化區","LI":"中央里","LIN":"6鄰","STREET":"信義路","SECT":" ","MAREA":" ","LANE":" ","ALLEY":" ","HOUSE_NO":"３１２號","E_COORD97":178942.92999999999,"N_COORD97":2548337.25,"ADDRESS":"信義路３１２號","OBJECTID":528612},"geometry":{"x":178942.93000000063,"y":2548337.25}},{"attributes":{"ID":528640,"DIS_CODE":0,"TOWNNAME":"新化區","LI":"中央里","LIN":"6鄰","STREET":"信義路","SECT":" ","MAREA":" ","LANE":" ","ALLEY":" ","HOUSE_NO":"３３６號","E_COORD97":178890.32999999999,"N_COORD97":2548311.25,"ADDRESS":"信義路３３６號","OBJECTID":528613},"geometry":{"x":178890.33000000007,"y":2548311.2500000037}},{"attributes":{"ID":528641,"DIS_CODE":0,"TOWNNAME":"新化區","LI":"中央里","LIN":"6鄰","STREET":"信義路","SECT":" ","MAREA":" ","LANE":" ","ALLEY":" ","HOUSE_NO":"３６０號","E_COORD97":178815.03,"N_COORD97":2548298.25,"ADDRESS":"信義路３６０號","OBJECTID":528614},"geometry":{"x":178815.03000000212,"y":2548298.2500000019}},{"attributes":{"ID":528642,"DIS_CODE":0,"TOWNNAME":"新化區","LI":"中央里","LIN":"6鄰","STREET":"信義路","SECT":" ","MAREA":" ","LANE":" ","ALLEY":" ","HOUSE_NO":"３３８號之１","E_COORD97":178871.35999999999,"N_COORD97":2548309.2599999998,"ADDRESS":"信義路３３８號之１","OBJECTID":528615},"geometry":{"x":178871.36000000127,"y":2548309.2600000016}},{"attributes":{"ID":528643,"DIS_CODE":0,"TOWNNAME":"新化區","LI":"中央里","LIN":"6鄰","STREET":"信義路","SECT":" ","MAREA":" ","LANE":" ","ALLEY":" ","HOUSE_NO":"３０８號之１","E_COORD97":178948.85999999999,"N_COORD97":2548349.2599999998,"ADDRESS":"信義路３０８號之１","OBJECTID":528616},"geometry":{"x":178948.86000000127,"y":2548349.2600000016}},{"attributes":{"ID":528644,"DIS_CODE":0,"TOWNNAME":"新化區","LI":"中央里","LIN":"6鄰","STREET":"信義路","SECT":" ","MAREA":" ","LANE":" ","ALLEY":" ","HOUSE_NO":"３５４號","E_COORD97":178854.42999999999,"N_COORD97":2548305.25,"ADDRESS":"信義路３５４號","OBJECTID":528617},"geometry":{"x":178854.43000000063,"y":2548305.2500000019}},{"attributes":{"ID":528645,"DIS_CODE":0,"TOWNNAME":"新化區","LI":"中央里","LIN":"6鄰","STREET":"信義路","SECT":" ","MAREA":" ","LANE":" ","ALLEY":" ","HOUSE_NO":"３１０號之３","E_COORD97":178942.57999999999,"N_COORD97":2548341.2599999998,"ADDRESS":"信義路３１０號之３","OBJECTID":528618},"geometry":{"x":178942.58000000007,"y":2548341.2599999998}},{"attributes":{"ID":528646,"DIS_CODE":0,"TOWNNAME":"新化區","LI":"中央里","LIN":"6鄰","STREET":"信義路","SECT":" ","MAREA":" ","LANE":" ","ALLEY":" ","HOUSE_NO":"３１４號","E_COORD97":178943.82999999999,"N_COORD97":2548333.25,"ADDRESS":"信義路３１４號","OBJECTID":528619},"geometry":{"x":178943.83000000101,"y":2548333.2500000019}},{"attributes":{"ID":528647,"DIS_CODE":0,"TOWNNAME":"新化區","LI":"中央里","LIN":"6鄰","STREET":"信義路","SECT":" ","MAREA":" ","LANE":" ","ALLEY":" ","HOUSE_NO":"３５２號","E_COORD97":178858.42999999999,"N_COORD97":2548306.25,"ADDRESS":"信義路３５２號","OBJECTID":528620},"geometry":{"x":178858.4299999997,"y":2548306.2500000019}},{"attributes":{"ID":528648,"DIS_CODE":0,"TOWNNAME":"新化區","LI":"武安里","LIN":"6鄰","STREET":"信義路","SECT":" ","MAREA":" ","LANE":" ","ALLEY":" ","HOUSE_NO":"２３３號","E_COORD97":179079.63,"N_COORD97":2548311.25,"ADDRESS":"信義路２３３號","OBJECTID":528621},"geometry":{"x":179079.62999999989,"y":2548311.2500000037}},{"attributes":{"ID":528649,"DIS_CODE":0,"TOWNNAME":"新化區","LI":"武安里","LIN":"6鄰","STREET":"信義路","SECT":" ","MAREA":" ","LANE":" ","ALLEY":" ","HOUSE_NO":"２２９號","E_COORD97":179085.23000000001,"N_COORD97":2548312.25,"ADDRESS":"信義路２２９號","OBJECTID":528622},"geometry":{"x":179085.23000000231,"y":2548312.2500000019}},{"attributes":{"ID":528650,"DIS_CODE":0,"TOWNNAME":"新化區","LI":"武安里","LIN":"6鄰","STREET":"信義路","SECT":" ","MAREA":" ","LANE":" ","ALLEY":" ","HOUSE_NO":"２４３號","E_COORD97":179066.63,"N_COORD97":2548309.25,"ADDRESS":"信義路２４３號","OBJECTID":528623},"geometry":{"x":179066.63000000175,"y":2548309.2500000019}},{"attributes":{"ID":528651,"DIS_CODE":0,"TOWNNAME":"新化區","LI":"護國里","LIN":"6鄰","STREET":"中山路","SECT":" ","MAREA":" ","LANE":" ","ALLEY":" ","HOUSE_NO":"１３２號","E_COORD97":179344.70999999999,"N_COORD97":2548667.25,"ADDRESS":"中山路１３２號","OBJECTID":528624},"geometry":{"x":179344.71000000089,"y":2548667.2500000037}},{"attributes":{"ID":528652,"DIS_CODE":0,"TOWNNAME":"新化區","LI":"武安里","LIN":"6鄰","STREET":"中正路","SECT":" ","MAREA":" ","LANE":" ","ALLEY":" ","HOUSE_NO":"３８３號之１４","E_COORD97":179058.98999999999,"N_COORD97":2548281.2599999998,"ADDRESS":"中正路３８３號之１４","OBJECTID":528625},"geometry":{"x":179058.99000000022,"y":2548281.2600000016}},{"attributes":{"ID":528653,"DIS_CODE":0,"TOWNNAME":"新化區","LI":"中央里","LIN":"6鄰","STREET":"和平街","SECT":" ","MAREA":" ","LANE":" ","ALLEY":" ","HOUSE_NO":"１８２號","E_COORD97":178904.32000000001,"N_COORD97":2548326.25,"ADDRESS":"和平街１８２號","OBJECTID":528626},"geometry":{"x":178904.3200000003,"y":2548326.2500000019}},{"attributes":{"ID":528654,"DIS_CODE":0,"TOWNNAME":"新化區","LI":"中央里","LIN":"6鄰","STREET":"和平街","SECT":" ","MAREA":" ","LANE":" ","ALLEY":" ","HOUSE_NO":"１９１號","E_COORD97":178886.12,"N_COORD97":2548341.25,"ADDRESS":"和平街１９１號","OBJECTID":528627},"geometry":{"x":178886.12000000104,"y":2548341.25}},{"attributes":{"ID":528655,"DIS_CODE":0,"TOWNNAME":"新化區","LI":"協興里","LIN":"6鄰","STREET":"忠孝路","SECT":" ","MAREA":" ","LANE":" ","ALLEY":" ","HOUSE_NO":"１９２號之２","E_COORD97":178397.88,"N_COORD97":2548575.2599999998,"ADDRESS":"忠孝路１９２號之２","OBJECTID":528628},"geometry":{"x":178397.87999999989,"y":2548575.2599999979}},{"attributes":{"ID":528656,"DIS_CODE":0,"TOWNNAME":"新化區","LI":"協興里","LIN":"6鄰","STREET":"忠孝路","SECT":" ","MAREA":" ","LANE":" ","ALLEY":" ","HOUSE_NO":"１９２號之３","E_COORD97":178393.26999999999,"N_COORD97":2548573.2599999998,"ADDRESS":"忠孝路１９２號之３","OBJECTID":528629},"geometry":{"x":178393.26999999955,"y":2548573.2600000016}},{"attributes":{"ID":528657,"DIS_CODE":0,"TOWNNAME":"新化區","LI":"武安里","LIN":"6鄰","STREET":"中正路","SECT":" ","MAREA":" ","LANE":" ","ALLEY":" ","HOUSE_NO":"３８３號之１８","E_COORD97":179044.32000000001,"N_COORD97":2548278.2599999998,"ADDRESS":"中正路３８３號之１８","OBJECTID":528630},"geometry":{"x":179044.32000000123,"y":2548278.2600000016}},{"attributes":{"ID":528658,"DIS_CODE":0,"TOWNNAME":"新化區","LI":"竹林里","LIN":"6鄰","STREET":"竹林路","SECT":" ","MAREA":" ","LANE":" ","ALLEY":" ","HOUSE_NO":"６８號","E_COORD97":178839.20000000001,"N_COORD97":2548587.7400000002,"ADDRESS":"竹林路６８號","OBJECTID":528631},"geometry":{"x":178839.19999999925,"y":2548587.7400000021}},{"attributes":{"ID":528659,"DIS_CODE":0,"TOWNNAME":"安平區","LI":"華平里","LIN":"6鄰","STREET":"華平路","SECT":" ","MAREA":" ","LANE":" ","ALLEY":" ","HOUSE_NO":"６１５號","E_COORD97":165451.14000000001,"N_COORD97":2544117.6000000001,"ADDRESS":"華平路６１５號","OBJECTID":528632},"geometry":{"x":165451.1400000006,"y":2544117.5999999996}},{"attributes":{"ID":528660,"DIS_CODE":0,"TOWNNAME":"北區","LI":"東興里","LIN":"6鄰","STREET":"小東路","SECT":" ","MAREA":" ","LANE":" ","ALLEY":" ","HOUSE_NO":"２４７號","E_COORD97":170912.62,"N_COORD97":2544510.4399999999,"ADDRESS":"小東路２４７號","OBJECTID":528633},"geometry":{"x":170912.62000000011,"y":2544510.4400000013}},{"attributes":{"ID":528661,"DIS_CODE":0,"TOWNNAME":"北區","LI":"東興里","LIN":"6鄰","STREET":"小東路","SECT":" ","MAREA":" ","LANE":" ","ALLEY":" ","HOUSE_NO":"２４５號","E_COORD97":170907.29000000001,"N_COORD97":2544505.0299999998,"ADDRESS":"小東路２４５號","OBJECTID":528634},"geometry":{"x":170907.29000000097,"y":2544505.0300000031}},{"attributes":{"ID":528662,"DIS_CODE":0,"TOWNNAME":"北區","LI":"東興里","LIN":"6鄰","STREET":"小東路","SECT":" ","MAREA":" ","LANE":" ","ALLEY":" ","HOUSE_NO":"２４９號","E_COORD97":170916.85000000001,"N_COORD97":2544508.0099999998,"ADDRESS":"小東路２４９號","OBJECTID":528635},"geometry":{"x":170916.85000000056,"y":2544508.0099999998}},{"attributes":{"ID":528663,"DIS_CODE":0,"TOWNNAME":"玉井區","LI":"竹圍里","LIN":"6鄰","STREET":"大成路","SECT":" ","MAREA":" ","LANE":" ","ALLEY":" ","HOUSE_NO":"４３７號","E_COORD97":195506.66,"N_COORD97":2558577.9100000001,"ADDRESS":"大成路４３７號","OBJECTID":528636},"geometry":{"x":195506.66000000201,"y":2558577.910000002}},{"attributes":{"ID":528664,"DIS_CODE":0,"TOWNNAME":"安平區","LI":"華平里","LIN":"6鄰","STREET":"慶平路","SECT":" ","MAREA":" ","LANE":" ","ALLEY":" ","HOUSE_NO":"４１２號","E_COORD97":165484.67000000001,"N_COORD97":2544190.8399999999,"ADDRESS":"慶平路４１２號","OBJECTID":528637},"geometry":{"x":165484.67000000086,"y":2544190.8399999999}},{"attributes":{"ID":528665,"DIS_CODE":0,"TOWNNAME":"安平區","LI":"億載里","LIN":"6鄰","STREET":"光州七街","SECT":" ","MAREA":" ","LANE":" ","ALLEY":" ","HOUSE_NO":"５７號","E_COORD97":164124.37,"N_COORD97":2543729.25,"ADDRESS":"光州七街５７號","OBJECTID":528638},"geometry":{"x":164124.37000000104,"y":2543729.2500000019}},{"attributes":{"ID":528666,"DIS_CODE":0,"TOWNNAME":"安平區","LI":"華平里","LIN":"6鄰","STREET":"華平路","SECT":" ","MAREA":" ","LANE":" ","ALLEY":" ","HOUSE_NO":"６１７號","E_COORD97":165451.14000000001,"N_COORD97":2544117.6000000001,"ADDRESS":"華平路６１７號","OBJECTID":528639},"geometry":{"x":165451.1400000006,"y":2544117.5999999996}},{"attributes":{"ID":528667,"DIS_CODE":0,"TOWNNAME":"安平區","LI":"華平里","LIN":"6鄰","STREET":"華平路","SECT":" ","MAREA":" ","LANE":" ","ALLEY":" ","HOUSE_NO":"６１９號","E_COORD97":165451.14000000001,"N_COORD97":2544117.6000000001,"ADDRESS":"華平路６１９號","OBJECTID":528640},"geometry":{"x":165451.1400000006,"y":2544117.5999999996}},{"attributes":{"ID":528668,"DIS_CODE":0,"TOWNNAME":"安平區","LI":"億載里","LIN":"6鄰","STREET":"平豐路","SECT":" ","MAREA":" ","LANE":" ","ALLEY":" ","HOUSE_NO":"２７７號","E_COORD97":164267.14000000001,"N_COORD97":2543737.5499999998,"ADDRESS":"平豐路２７７號","OBJECTID":528641},"geometry":{"x":164267.13999999966,"y":2543737.5500000026}},{"attributes":{"ID":528669,"DIS_CODE":0,"TOWNNAME":"永康區","LI":"安康里","LIN":"6鄰","STREET":"大橋一街","SECT":" ","MAREA":" ","LANE":" ","ALLEY":" ","HOUSE_NO":"５７之３號","E_COORD97":170822.42999999999,"N_COORD97":2546374.8900000001,"ADDRESS":"大橋一街５７之３號","OBJECTID":528642},"geometry":{"x":170822.43000000156,"y":2546374.8899999987}},{"attributes":{"ID":528670,"DIS_CODE":0,"TOWNNAME":"仁德區","LI":"仁義里","LIN":"6鄰","STREET":"中清路","SECT":" ","MAREA":" ","LANE":" ","ALLEY":" ","HOUSE_NO":"８２號","E_COORD97":173727.09,"N_COORD97":2541221.54,"ADDRESS":"中清路８２號","OBJECTID":528643},"geometry":{"x":173727.09000000171,"y":2541221.5399999991}},{"attributes":{"ID":528671,"DIS_CODE":0,"TOWNNAME":"中西區","LI":"中正里","LIN":"6鄰","STREET":"國華街","SECT":"三段","MAREA":" ","LANE":" ","ALLEY":" ","HOUSE_NO":"３１號","E_COORD97":167737.67000000001,"N_COORD97":2543860.3799999999,"ADDRESS":"國華街三段３１號","OBJECTID":528644},"geometry":{"x":167737.67000000086,"y":2543860.379999999}},{"attributes":{"ID":528672,"DIS_CODE":0,"TOWNNAME":"中西區","LI":"中正里","LIN":"6鄰","STREET":"國華街","SECT":"三段","MAREA":" ","LANE":" ","ALLEY":" ","HOUSE_NO":"３３號","E_COORD97":167729.79000000001,"N_COORD97":2543862.6400000001,"ADDRESS":"國華街三段３３號","OBJECTID":528645},"geometry":{"x":167729.79000000004,"y":2543862.6400000025}},{"attributes":{"ID":528673,"DIS_CODE":0,"TOWNNAME":"中西區","LI":"中正里","LIN":"6鄰","STREET":"國華街","SECT":"三段","MAREA":" ","LANE":" ","ALLEY":" ","HOUSE_NO":"３５號","E_COORD97":167728.26000000001,"N_COORD97":2543862.8599999999,"ADDRESS":"國華街三段３５號","OBJECTID":528646},"geometry":{"x":167728.26000000164,"y":2543862.8600000013}},{"attributes":{"ID":528674,"DIS_CODE":0,"TOWNNAME":"中西區","LI":"中正里","LIN":"6鄰","STREET":"國華街","SECT":"三段","MAREA":" ","LANE":" ","ALLEY":" ","HOUSE_NO":"３７號","E_COORD97":167723.81,"N_COORD97":2543863.5099999998,"ADDRESS":"國華街三段３７號","OBJECTID":528647},"geometry":{"x":167723.80999999959,"y":2543863.5099999998}},{"attributes":{"ID":528675,"DIS_CODE":0,"TOWNNAME":"中西區","LI":"中正里","LIN":"6鄰","STREET":"國華街","SECT":"三段","MAREA":" ","LANE":" ","ALLEY":" ","HOUSE_NO":"３９號","E_COORD97":167721.62,"N_COORD97":2543863.8799999999,"ADDRESS":"國華街三段３９號","OBJECTID":528648},"geometry":{"x":167721.62000000104,"y":2543863.879999999}},{"attributes":{"ID":528676,"DIS_CODE":0,"TOWNNAME":"中西區","LI":"中正里","LIN":"6鄰","STREET":"國華街","SECT":"三段","MAREA":" ","LANE":" ","ALLEY":" ","HOUSE_NO":"４１號","E_COORD97":167718.82000000001,"N_COORD97":2543865.0800000001,"ADDRESS":"國華街三段４１號","OBJECTID":528649},"geometry":{"x":167718.82000000123,"y":2543865.0800000019}},{"attributes":{"ID":528677,"DIS_CODE":0,"TOWNNAME":"中西區","LI":"中正里","LIN":"6鄰","STREET":"國華街","SECT":"三段","MAREA":" ","LANE":" ","ALLEY":" ","HOUSE_NO":"４３號","E_COORD97":167713.06,"N_COORD97":2543867.48,"ADDRESS":"國華街三段４３號","OBJECTID":528650},"geometry":{"x":167713.06000000052,"y":2543867.4800000004}},{"attributes":{"ID":528678,"DIS_CODE":0,"TOWNNAME":"中西區","LI":"中正里","LIN":"6鄰","STREET":"國華街","SECT":"三段","MAREA":" ","LANE":" ","ALLEY":" ","HOUSE_NO":"４５號","E_COORD97":167707.81,"N_COORD97":2543868.1400000001,"ADDRESS":"國華街三段４５號","OBJECTID":528651},"geometry":{"x":167707.81000000052,"y":2543868.1400000043}},{"attributes":{"ID":528679,"DIS_CODE":0,"TOWNNAME":"中西區","LI":"中正里","LIN":"6鄰","STREET":"國華街","SECT":"三段","MAREA":" ","LANE":" ","ALLEY":" ","HOUSE_NO":"４７號","E_COORD97":167703.28,"N_COORD97":2543868.7200000002,"ADDRESS":"國華街三段４７號","OBJECTID":528652},"geometry":{"x":167703.28000000119,"y":2543868.7200000025}},{"attributes":{"ID":528680,"DIS_CODE":0,"TOWNNAME":"中西區","LI":"中正里","LIN":"6鄰","STREET":"國華街","SECT":"三段","MAREA":" ","LANE":" ","ALLEY":" ","HOUSE_NO":"５１號","E_COORD97":167745.5,"N_COORD97":2543885.5299999998,"ADDRESS":"國華街三段５１號","OBJECTID":528653},"geometry":{"x":167745.50000000186,"y":2543885.5300000012}},{"attributes":{"ID":528681,"DIS_CODE":0,"TOWNNAME":"中西區","LI":"中正里","LIN":"6鄰","STREET":"國華街","SECT":"三段","MAREA":" ","LANE":" ","ALLEY":" ","HOUSE_NO":"５３號","E_COORD97":167747.23999999999,"N_COORD97":2543891.6400000001,"ADDRESS":"國華街三段５３號","OBJECTID":528654},"geometry":{"x":167747.24000000022,"y":2543891.6400000043}},{"attributes":{"ID":528682,"DIS_CODE":0,"TOWNNAME":"中西區","LI":"中正里","LIN":"6鄰","STREET":"正興街","SECT":" ","MAREA":" ","LANE":" ","ALLEY":" ","HOUSE_NO":"７８號","E_COORD97":167703.12,"N_COORD97":2543892.6800000002,"ADDRESS":"正興街７８號","OBJECTID":528655},"geometry":{"x":167703.12000000104,"y":2543892.6799999997}},{"attributes":{"ID":528683,"DIS_CODE":0,"TOWNNAME":"中西區","LI":"中正里","LIN":"6鄰","STREET":"正興街","SECT":" ","MAREA":" ","LANE":" ","ALLEY":" ","HOUSE_NO":"８０號","E_COORD97":167697.48000000001,"N_COORD97":2543893.4399999999,"ADDRESS":"正興街８０號","OBJECTID":528656},"geometry":{"x":167697.48000000138,"y":2543893.4400000013}},{"attributes":{"ID":528684,"DIS_CODE":0,"TOWNNAME":"中西區","LI":"中正里","LIN":"6鄰","STREET":"正興街","SECT":" ","MAREA":" ","LANE":" ","ALLEY":" ","HOUSE_NO":"８２號","E_COORD97":167692.72,"N_COORD97":2543895.2999999998,"ADDRESS":"正興街８２號","OBJECTID":528657},"geometry":{"x":167692.71999999881,"y":2543895.3000000026}},{"attributes":{"ID":528685,"DIS_CODE":0,"TOWNNAME":"中西區","LI":"中正里","LIN":"6鄰","STREET":"正興街","SECT":" ","MAREA":" ","LANE":" ","ALLEY":" ","HOUSE_NO":"８４號","E_COORD97":167688.85000000001,"N_COORD97":2543896.0600000001,"ADDRESS":"正興街８４號","OBJECTID":528658},"geometry":{"x":167688.85000000056,"y":2543896.0600000024}},{"attributes":{"ID":528686,"DIS_CODE":0,"TOWNNAME":"中西區","LI":"中正里","LIN":"6鄰","STREET":"正興街","SECT":" ","MAREA":" ","LANE":" ","ALLEY":" ","HOUSE_NO":"８６號","E_COORD97":167684.20000000001,"N_COORD97":2543899.6200000001,"ADDRESS":"正興街８６號","OBJECTID":528659},"geometry":{"x":167684.20000000019,"y":2543899.6200000029}},{"attributes":{"ID":528687,"DIS_CODE":0,"TOWNNAME":"中西區","LI":"中正里","LIN":"6鄰","STREET":"正興街","SECT":" ","MAREA":" ","LANE":" ","ALLEY":" ","HOUSE_NO":"８８號","E_COORD97":167679.17000000001,"N_COORD97":2543898.96,"ADDRESS":"正興街８８號","OBJECTID":528660},"geometry":{"x":167679.16999999993,"y":2543898.9600000009}},{"attributes":{"ID":528688,"DIS_CODE":0,"TOWNNAME":"中西區","LI":"中正里","LIN":"6鄰","STREET":"正興街","SECT":" ","MAREA":" ","LANE":" ","ALLEY":" ","HOUSE_NO":"１００號","E_COORD97":167678.17999999999,"N_COORD97":2543879.0899999999,"ADDRESS":"正興街１００號","OBJECTID":528661},"geometry":{"x":167678.18000000063,"y":2543879.0900000017}},{"attributes":{"ID":528689,"DIS_CODE":0,"TOWNNAME":"中西區","LI":"中正里","LIN":"6鄰","STREET":"正興街","SECT":" ","MAREA":" ","LANE":" ","ALLEY":" ","HOUSE_NO":"１０２號","E_COORD97":167671.45999999999,"N_COORD97":2543872.9900000002,"ADDRESS":"正興街１０２號","OBJECTID":528662},"geometry":{"x":167671.46000000089,"y":2543872.9900000021}},{"attributes":{"ID":528690,"DIS_CODE":0,"TOWNNAME":"中西區","LI":"中正里","LIN":"6鄰","STREET":"正興街","SECT":" ","MAREA":" ","LANE":" ","ALLEY":" ","HOUSE_NO":"１０４號","E_COORD97":167665.92000000001,"N_COORD97":2543873.4100000001,"ADDRESS":"正興街１０４號","OBJECTID":528663},"geometry":{"x":167665.91999999993,"y":2543873.410000002}},{"attributes":{"ID":528691,"DIS_CODE":0,"TOWNNAME":"中西區","LI":"中正里","LIN":"6鄰","STREET":"正興街","SECT":" ","MAREA":" ","LANE":" ","ALLEY":" ","HOUSE_NO":"１０６號","E_COORD97":167661.69,"N_COORD97":2543873.1200000001,"ADDRESS":"正興街１０６號","OBJECTID":528664},"geometry":{"x":167661.69000000134,"y":2543873.1200000029}},{"attributes":{"ID":528692,"DIS_CODE":0,"TOWNNAME":"中西區","LI":"中正里","LIN":"6鄰","STREET":"正興街","SECT":" ","MAREA":" ","LANE":" ","ALLEY":" ","HOUSE_NO":"１０８號","E_COORD97":167658.26000000001,"N_COORD97":2543873.7000000002,"ADDRESS":"正興街１０８號","OBJECTID":528665},"geometry":{"x":167658.25999999978,"y":2543873.7000000011}},{"attributes":{"ID":528693,"DIS_CODE":0,"TOWNNAME":"中西區","LI":"中正里","LIN":"6鄰","STREET":"正興街","SECT":" ","MAREA":" ","LANE":" ","ALLEY":" ","HOUSE_NO":"１１０號","E_COORD97":167653.01000000001,"N_COORD97":2543875.1600000001,"ADDRESS":"正興街１１０號","OBJECTID":528666},"geometry":{"x":167653.00999999978,"y":2543875.160000002}},{"attributes":{"ID":528694,"DIS_CODE":0,"TOWNNAME":"中西區","LI":"中正里","LIN":"6鄰","STREET":"正興街","SECT":" ","MAREA":" ","LANE":" ","ALLEY":" ","HOUSE_NO":"１１２號","E_COORD97":167649.07000000001,"N_COORD97":2543877.1299999999,"ADDRESS":"正興街１１２號","OBJECTID":528667},"geometry":{"x":167649.07000000123,"y":2543877.1300000008}},{"attributes":{"ID":528695,"DIS_CODE":0,"TOWNNAME":"中西區","LI":"中正里","LIN":"6鄰","STREET":"正興街","SECT":" ","MAREA":" ","LANE":" ","ALLEY":" ","HOUSE_NO":"９０號","E_COORD97":167675.01999999999,"N_COORD97":2543900.1600000001,"ADDRESS":"正興街９０號","OBJECTID":528668},"geometry":{"x":167675.01999999955,"y":2543900.1600000001}},{"attributes":{"ID":528696,"DIS_CODE":0,"TOWNNAME":"中西區","LI":"中正里","LIN":"6鄰","STREET":"正興街","SECT":" ","MAREA":" ","LANE":" ","ALLEY":" ","HOUSE_NO":"９２號","E_COORD97":167692.42999999999,"N_COORD97":2543879.5299999998,"ADDRESS":"正興街９２號","OBJECTID":528669},"geometry":{"x":167692.4299999997,"y":2543879.5299999993}},{"attributes":{"ID":528697,"DIS_CODE":0,"TOWNNAME":"中西區","LI":"中正里","LIN":"6鄰","STREET":"正興街","SECT":" ","MAREA":" ","LANE":" ","ALLEY":" ","HOUSE_NO":"９４號","E_COORD97":167687.54000000001,"N_COORD97":2543879.8199999998,"ADDRESS":"正興街９４號","OBJECTID":528670},"geometry":{"x":167687.5400000019,"y":2543879.8199999984}},{"attributes":{"ID":528698,"DIS_CODE":0,"TOWNNAME":"中西區","LI":"中正里","LIN":"6鄰","STREET":"正興街","SECT":" ","MAREA":" ","LANE":" ","ALLEY":" ","HOUSE_NO":"９６號","E_COORD97":167685.76999999999,"N_COORD97":2543880.21,"ADDRESS":"正興街９６號","OBJECTID":528671},"geometry":{"x":167685.77000000048,"y":2543880.2100000009}},{"attributes":{"ID":528699,"DIS_CODE":0,"TOWNNAME":"永康區","LI":"安康里","LIN":"6鄰","STREET":"中華西街","SECT":" ","MAREA":" ","LANE":" ","ALLEY":" ","HOUSE_NO":"２３８號","E_COORD97":170703.62,"N_COORD97":2546451.75,"ADDRESS":"中華西街２３８號","OBJECTID":528672},"geometry":{"x":170703.62000000104,"y":2546451.7500000019}},{"attributes":{"ID":528700,"DIS_CODE":0,"TOWNNAME":"永康區","LI":"安康里","LIN":"6鄰","STREET":"中華西街","SECT":" ","MAREA":" ","LANE":" ","ALLEY":" ","HOUSE_NO":"１８０號","E_COORD97":170634.04000000001,"N_COORD97":2546308,"ADDRESS":"中華西街１８０號","OBJECTID":528673},"geometry":{"x":170634.04000000097,"y":2546308}},{"attributes":{"ID":528701,"DIS_CODE":0,"TOWNNAME":"永康區","LI":"永康里","LIN":"6鄰","STREET":"中山南路","SECT":" ","MAREA":" ","LANE":" ","ALLEY":" ","HOUSE_NO":"１０９０號","E_COORD97":173802.23000000001,"N_COORD97":2547325.9900000002,"ADDRESS":"中山南路１０９０號","OBJECTID":528674},"geometry":{"x":173802.23000000045,"y":2547325.9900000002}},{"attributes":{"ID":528702,"DIS_CODE":0,"TOWNNAME":"永康區","LI":"安康里","LIN":"6鄰","STREET":"大橋一街","SECT":" ","MAREA":" ","LANE":" ","ALLEY":" ","HOUSE_NO":"４９之５號","E_COORD97":170720.73999999999,"N_COORD97":2546314.1000000001,"ADDRESS":"大橋一街４９之５號","OBJECTID":528675},"geometry":{"x":170720.74000000209,"y":2546314.0999999996}},{"attributes":{"ID":528703,"DIS_CODE":0,"TOWNNAME":"中西區","LI":"元安里","LIN":"6鄰","STREET":"大德街","SECT":" ","MAREA":" ","LANE":" ","ALLEY":" ","HOUSE_NO":"９８號","E_COORD97":167528.04999999999,"N_COORD97":2543188.04,"ADDRESS":"大德街９８號","OBJECTID":528676},"geometry":{"x":167528.05000000075,"y":2543188.0399999991}},{"attributes":{"ID":528704,"DIS_CODE":0,"TOWNNAME":"永康區","LI":"安康里","LIN":"6鄰","STREET":"大橋一街","SECT":" ","MAREA":" ","LANE":" ","ALLEY":" ","HOUSE_NO":"４５之１號","E_COORD97":170672.85999999999,"N_COORD97":2546286.27,"ADDRESS":"大橋一街４５之１號","OBJECTID":528677},"geometry":{"x":170672.86000000127,"y":2546286.2699999996}},{"attributes":{"ID":528705,"DIS_CODE":0,"TOWNNAME":"中西區","LI":"元安里","LIN":"6鄰","STREET":"建安街","SECT":" ","MAREA":" ","LANE":" ","ALLEY":" ","HOUSE_NO":"４１號","E_COORD97":167534.45999999999,"N_COORD97":2543245.0699999998,"ADDRESS":"建安街４１號","OBJECTID":528678},"geometry":{"x":167534.46000000089,"y":2543245.0700000022}},{"attributes":{"ID":528706,"DIS_CODE":0,"TOWNNAME":"永康區","LI":"永康里","LIN":"6鄰","STREET":"中山南路","SECT":" ","MAREA":" ","LANE":" ","ALLEY":" ","HOUSE_NO":"６５５號","E_COORD97":173836.03,"N_COORD97":2547396.4900000002,"ADDRESS":"中山南路６５５號","OBJECTID":528679},"geometry":{"x":173836.03000000026,"y":2547396.4900000002}},{"attributes":{"ID":528707,"DIS_CODE":0,"TOWNNAME":"永康區","LI":"安康里","LIN":"6鄰","STREET":"大橋一街","SECT":" ","MAREA":" ","LANE":" ","ALLEY":" ","HOUSE_NO":"５１號","E_COORD97":170736.38,"N_COORD97":2546325.4199999999,"ADDRESS":"大橋一街５１號","OBJECTID":528680},"geometry":{"x":170736.38000000175,"y":2546325.4199999999}},{"attributes":{"ID":528708,"DIS_CODE":0,"TOWNNAME":"永康區","LI":"安康里","LIN":"6鄰","STREET":"中華路","SECT":" ","MAREA":" ","LANE":" ","ALLEY":" ","HOUSE_NO":"７２５之１號底一層之","E_COORD97":170838.94,"N_COORD97":2546407.2999999998,"ADDRESS":"中華路７２５之１號底一層之２","OBJECTID":528681},"geometry":{"x":170838.94000000134,"y":2546407.3000000026}},{"attributes":{"ID":528709,"DIS_CODE":0,"TOWNNAME":"永康區","LI":"安康里","LIN":"6鄰","STREET":"大橋一街","SECT":" ","MAREA":" ","LANE":" ","ALLEY":" ","HOUSE_NO":"４５號","E_COORD97":170666.04999999999,"N_COORD97":2546283.9700000002,"ADDRESS":"大橋一街４５號","OBJECTID":528682},"geometry":{"x":170666.05000000075,"y":2546283.9700000025}},{"attributes":{"ID":528710,"DIS_CODE":0,"TOWNNAME":"中西區","LI":"元安里","LIN":"6鄰","STREET":"建安街","SECT":" ","MAREA":" ","LANE":" ","ALLEY":" ","HOUSE_NO":"４３號","E_COORD97":167530.25,"N_COORD97":2543245.2599999998,"ADDRESS":"建安街４３號","OBJECTID":528683},"geometry":{"x":167530.25000000186,"y":2543245.2599999998}},{"attributes":{"ID":528711,"DIS_CODE":0,"TOWNNAME":"中西區","LI":"元安里","LIN":"6鄰","STREET":"大德街","SECT":" ","MAREA":" ","LANE":" ","ALLEY":" ","HOUSE_NO":"１１８號","E_COORD97":167536.14999999999,"N_COORD97":2543141.3999999999,"ADDRESS":"大德街１１８號","OBJECTID":528684},"geometry":{"x":167536.15000000037,"y":2543141.4000000022}},{"attributes":{"ID":528712,"DIS_CODE":0,"TOWNNAME":"中西區","LI":"元安里","LIN":"6鄰","STREET":"永華路","SECT":"一段","MAREA":" ","LANE":" ","ALLEY":" ","HOUSE_NO":"５４號","E_COORD97":167538.12,"N_COORD97":2543132.3500000001,"ADDRESS":"永華路一段５４號","OBJECTID":528685},"geometry":{"x":167538.12000000104,"y":2543132.3499999996}},{"attributes":{"ID":528713,"DIS_CODE":0,"TOWNNAME":"中西區","LI":"元安里","LIN":"6鄰","STREET":"永華路","SECT":"一段","MAREA":" ","LANE":" ","ALLEY":" ","HOUSE_NO":"５６號","E_COORD97":167533.16,"N_COORD97":2543132.1000000001,"ADDRESS":"永華路一段５６號","OBJECTID":528686},"geometry":{"x":167533.16000000108,"y":2543132.1000000015}},{"attributes":{"ID":528714,"DIS_CODE":0,"TOWNNAME":"中西區","LI":"元安里","LIN":"6鄰","STREET":"建安街","SECT":" ","MAREA":" ","LANE":" ","ALLEY":" ","HOUSE_NO":"４５號","E_COORD97":167525.69,"N_COORD97":2543245.8799999999,"ADDRESS":"建安街４５號","OBJECTID":528687},"geometry":{"x":167525.69000000041,"y":2543245.879999999}},{"attributes":{"ID":528715,"DIS_CODE":0,"TOWNNAME":"中西區","LI":"元安里","LIN":"6鄰","STREET":"建安街","SECT":" ","MAREA":" ","LANE":" ","ALLEY":" ","HOUSE_NO":"５３號","E_COORD97":167510.29000000001,"N_COORD97":2543245.8199999998,"ADDRESS":"建安街５３號","OBJECTID":528688},"geometry":{"x":167510.29000000097,"y":2543245.8199999984}},{"attributes":{"ID":528716,"DIS_CODE":0,"TOWNNAME":"中西區","LI":"元安里","LIN":"6鄰","STREET":"建安街","SECT":" ","MAREA":" ","LANE":" ","ALLEY":" ","HOUSE_NO":"５５號","E_COORD97":167505.26000000001,"N_COORD97":2543245.9900000002,"ADDRESS":"建安街５５號","OBJECTID":528689},"geometry":{"x":167505.25999999978,"y":2543245.9900000021}},{"attributes":{"ID":528717,"DIS_CODE":0,"TOWNNAME":"中西區","LI":"元安里","LIN":"6鄰","STREET":"建安街","SECT":" ","MAREA":" ","LANE":" ","ALLEY":" ","HOUSE_NO":"５７號","E_COORD97":167501.35999999999,"N_COORD97":2543245.0299999998,"ADDRESS":"建安街５７號","OBJECTID":528690},"geometry":{"x":167501.36000000127,"y":2543245.0300000012}},{"attributes":{"ID":528718,"DIS_CODE":0,"TOWNNAME":"中西區","LI":"元安里","LIN":"6鄰","STREET":"建安街","SECT":" ","MAREA":" ","LANE":" ","ALLEY":" ","HOUSE_NO":"５９號","E_COORD97":167497.03,"N_COORD97":2543246.3399999999,"ADDRESS":"建安街５９號","OBJECTID":528691},"geometry":{"x":167497.03000000119,"y":2543246.3400000017}},{"attributes":{"ID":528719,"DIS_CODE":0,"TOWNNAME":"中西區","LI":"元安里","LIN":"6鄰","STREET":"建安街","SECT":" ","MAREA":" ","LANE":" ","ALLEY":" ","HOUSE_NO":"４７號","E_COORD97":167521.20999999999,"N_COORD97":2543245.9700000002,"ADDRESS":"建安街４７號","OBJECTID":528692},"geometry":{"x":167521.20999999996,"y":2543245.9700000025}},{"attributes":{"ID":528720,"DIS_CODE":0,"TOWNNAME":"中西區","LI":"元安里","LIN":"6鄰","STREET":"大德街","SECT":" ","MAREA":" ","LANE":" ","ALLEY":" ","HOUSE_NO":"１００號","E_COORD97":167527.20999999999,"N_COORD97":2543184.1299999999,"ADDRESS":"大德街１００號","OBJECTID":528693},"geometry":{"x":167527.21000000089,"y":2543184.129999999}},{"attributes":{"ID":528721,"DIS_CODE":0,"TOWNNAME":"中西區","LI":"元安里","LIN":"6鄰","STREET":"大德街","SECT":" ","MAREA":" ","LANE":" ","ALLEY":" ","HOUSE_NO":"１０２號","E_COORD97":167527.76999999999,"N_COORD97":2543179.1899999999,"ADDRESS":"大德街１０２號","OBJECTID":528694},"geometry":{"x":167527.76999999862,"y":2543179.1900000013}},{"attributes":{"ID":528722,"DIS_CODE":0,"TOWNNAME":"中西區","LI":"元安里","LIN":"6鄰","STREET":"大德街","SECT":" ","MAREA":" ","LANE":" ","ALLEY":" ","HOUSE_NO":"１０４號","E_COORD97":167528.57999999999,"N_COORD97":2543173.7200000002,"ADDRESS":"大德街１０４號","OBJECTID":528695},"geometry":{"x":167528.58000000101,"y":2543173.7200000025}},{"attributes":{"ID":528723,"DIS_CODE":0,"TOWNNAME":"中西區","LI":"元安里","LIN":"6鄰","STREET":"大德街","SECT":" ","MAREA":" ","LANE":" ","ALLEY":" ","HOUSE_NO":"１０６號","E_COORD97":167528.25,"N_COORD97":2543168.6899999999,"ADDRESS":"大德街１０６號","OBJECTID":528696},"geometry":{"x":167528.25,"y":2543168.6900000013}},{"attributes":{"ID":528724,"DIS_CODE":0,"TOWNNAME":"中西區","LI":"元安里","LIN":"6鄰","STREET":"大德街","SECT":" ","MAREA":" ","LANE":" ","ALLEY":" ","HOUSE_NO":"１０８號","E_COORD97":167527.94,"N_COORD97":2543164.1800000002,"ADDRESS":"大德街１０８號","OBJECTID":528697},"geometry":{"x":167527.94000000134,"y":2543164.1799999997}},{"attributes":{"ID":528725,"DIS_CODE":0,"TOWNNAME":"中西區","LI":"元安里","LIN":"6鄰","STREET":"大德街","SECT":" ","MAREA":" ","LANE":" ","ALLEY":" ","HOUSE_NO":"１１０號","E_COORD97":167528.67000000001,"N_COORD97":2543159.4700000002,"ADDRESS":"大德街１１０號","OBJECTID":528698},"geometry":{"x":167528.66999999993,"y":2543159.4700000007}},{"attributes":{"ID":528726,"DIS_CODE":0,"TOWNNAME":"中西區","LI":"元安里","LIN":"6鄰","STREET":"大德街","SECT":" ","MAREA":" ","LANE":" ","ALLEY":" ","HOUSE_NO":"１１２號","E_COORD97":167528.67000000001,"N_COORD97":2543155.0899999999,"ADDRESS":"大德街１１２號","OBJECTID":528699},"geometry":{"x":167528.66999999993,"y":2543155.0899999999}},{"attributes":{"ID":528727,"DIS_CODE":0,"TOWNNAME":"中西區","LI":"元安里","LIN":"6鄰","STREET":"大德街","SECT":" ","MAREA":" ","LANE":" ","ALLEY":" ","HOUSE_NO":"１１４號","E_COORD97":167532.32999999999,"N_COORD97":2543151.0299999998,"ADDRESS":"大德街１１４號","OBJECTID":528700},"geometry":{"x":167532.33000000007,"y":2543151.0299999993}},{"attributes":{"ID":528728,"DIS_CODE":0,"TOWNNAME":"中西區","LI":"元安里","LIN":"6鄰","STREET":"大德街","SECT":" ","MAREA":" ","LANE":" ","ALLEY":" ","HOUSE_NO":"１１６號","E_COORD97":167524.53,"N_COORD97":2543150.71,"ADDRESS":"大德街１１６號","OBJECTID":528701},"geometry":{"x":167524.53000000026,"y":2543150.7100000028}},{"attributes":{"ID":528729,"DIS_CODE":0,"TOWNNAME":"中西區","LI":"元安里","LIN":"6鄰","STREET":"大德街","SECT":" ","MAREA":" ","LANE":" ","ALLEY":" ","HOUSE_NO":"７６號","E_COORD97":167530.53,"N_COORD97":2543235.21,"ADDRESS":"大德街７６號","OBJECTID":528702},"geometry":{"x":167530.53000000119,"y":2543235.2100000028}},{"attributes":{"ID":528730,"DIS_CODE":0,"TOWNNAME":"中西區","LI":"元安里","LIN":"6鄰","STREET":"大德街","SECT":" ","MAREA":" ","LANE":" ","ALLEY":" ","HOUSE_NO":"７８號","E_COORD97":167530.07999999999,"N_COORD97":2543230.21,"ADDRESS":"大德街７８號","OBJECTID":528703},"geometry":{"x":167530.08000000101,"y":2543230.209999999}},{"attributes":{"ID":528731,"DIS_CODE":0,"TOWNNAME":"中西區","LI":"元安里","LIN":"6鄰","STREET":"大德街","SECT":" ","MAREA":" ","LANE":" ","ALLEY":" ","HOUSE_NO":"８０號","E_COORD97":167530.53,"N_COORD97":2543226.3199999998,"ADDRESS":"大德街８０號","OBJECTID":528704},"geometry":{"x":167530.53000000119,"y":2543226.3200000022}},{"attributes":{"ID":528732,"DIS_CODE":0,"TOWNNAME":"中西區","LI":"元安里","LIN":"6鄰","STREET":"大德街","SECT":" ","MAREA":" ","LANE":" ","ALLEY":" ","HOUSE_NO":"８２號","E_COORD97":167530.44,"N_COORD97":2543221.6699999999,"ADDRESS":"大德街８２號","OBJECTID":528705},"geometry":{"x":167530.44000000041,"y":2543221.6699999999}},{"attributes":{"ID":528733,"DIS_CODE":0,"TOWNNAME":"中西區","LI":"元安里","LIN":"6鄰","STREET":"大德街","SECT":" ","MAREA":" ","LANE":" ","ALLEY":" ","HOUSE_NO":"８６號","E_COORD97":167530.17000000001,"N_COORD97":2543213.6800000002,"ADDRESS":"大德街８６號","OBJECTID":528706},"geometry":{"x":167530.16999999993,"y":2543213.6800000016}},{"attributes":{"ID":528734,"DIS_CODE":0,"TOWNNAME":"中西區","LI":"保安里","LIN":"6鄰","STREET":"尊王路","SECT":" ","MAREA":" ","LANE":" ","ALLEY":" ","HOUSE_NO":"７２號","E_COORD97":167592.28,"N_COORD97":2543591.98,"ADDRESS":"尊王路７２號","OBJECTID":528707},"geometry":{"x":167592.28000000026,"y":2543591.9800000023}},{"attributes":{"ID":528735,"DIS_CODE":0,"TOWNNAME":"中西區","LI":"保安里","LIN":"6鄰","STREET":"尊王路","SECT":" ","MAREA":" ","LANE":" ","ALLEY":" ","HOUSE_NO":"８２號","E_COORD97":167563.45999999999,"N_COORD97":2543598.25,"ADDRESS":"尊王路８２號","OBJECTID":528708},"geometry":{"x":167563.45999999996,"y":2543598.25}},{"attributes":{"ID":528736,"DIS_CODE":0,"TOWNNAME":"中西區","LI":"保安里","LIN":"6鄰","STREET":"尊王路","SECT":" ","MAREA":" ","LANE":" ","ALLEY":" ","HOUSE_NO":"６６號","E_COORD97":167606.60999999999,"N_COORD97":2543586.5099999998,"ADDRESS":"尊王路６６號","OBJECTID":528709},"geometry":{"x":167606.61000000127,"y":2543586.5100000035}},{"attributes":{"ID":528737,"DIS_CODE":0,"TOWNNAME":"中西區","LI":"保安里","LIN":"6鄰","STREET":"尊王路","SECT":" ","MAREA":" ","LANE":" ","ALLEY":" ","HOUSE_NO":"６２號","E_COORD97":167617.72,"N_COORD97":2543583.6099999999,"ADDRESS":"尊王路６２號","OBJECTID":528710},"geometry":{"x":167617.71999999974,"y":2543583.6100000013}},{"attributes":{"ID":528738,"DIS_CODE":0,"TOWNNAME":"中西區","LI":"保安里","LIN":"6鄰","STREET":"尊王路","SECT":" ","MAREA":" ","LANE":" ","ALLEY":" ","HOUSE_NO":"６０號","E_COORD97":167621.56,"N_COORD97":2543582.5899999999,"ADDRESS":"尊王路６０號","OBJECTID":528711},"geometry":{"x":167621.56000000052,"y":2543582.589999998}},{"attributes":{"ID":528739,"DIS_CODE":0,"TOWNNAME":"中西區","LI":"保安里","LIN":"6鄰","STREET":"尊王路","SECT":" ","MAREA":" ","LANE":" ","ALLEY":" ","HOUSE_NO":"５８號","E_COORD97":167624.92000000001,"N_COORD97":2543582.0299999998,"ADDRESS":"尊王路５８號","OBJECTID":528712},"geometry":{"x":167624.91999999993,"y":2543582.0299999993}},{"attributes":{"ID":528740,"DIS_CODE":0,"TOWNNAME":"中西區","LI":"保安里","LIN":"6鄰","STREET":"尊王路","SECT":" ","MAREA":" ","LANE":" ","ALLEY":" ","HOUSE_NO":"５６號","E_COORD97":167628.20000000001,"N_COORD97":2543581.6800000002,"ADDRESS":"尊王路５６號","OBJECTID":528713},"geometry":{"x":167628.20000000019,"y":2543581.6799999997}},{"attributes":{"ID":528741,"DIS_CODE":0,"TOWNNAME":"中西區","LI":"保安里","LIN":"6鄰","STREET":"尊王路","SECT":" ","MAREA":" ","LANE":" ","ALLEY":" ","HOUSE_NO":"５２號","E_COORD97":167631.91,"N_COORD97":2543580.8399999999,"ADDRESS":"尊王路５２號","OBJECTID":528714},"geometry":{"x":167631.91000000015,"y":2543580.839999998}},{"attributes":{"ID":528742,"DIS_CODE":0,"TOWNNAME":"中西區","LI":"保安里","LIN":"6鄰","STREET":"尊王路","SECT":" ","MAREA":" ","LANE":" ","ALLEY":" ","HOUSE_NO":"５０號","E_COORD97":167635.69,"N_COORD97":2543579.6000000001,"ADDRESS":"尊王路５０號","OBJECTID":528715},"geometry":{"x":167635.69000000041,"y":2543579.6000000015}},{"attributes":{"ID":528743,"DIS_CODE":0,"TOWNNAME":"中西區","LI":"保安里","LIN":"6鄰","STREET":"尊王路","SECT":" ","MAREA":" ","LANE":" ","ALLEY":" ","HOUSE_NO":"４８號","E_COORD97":167654.01000000001,"N_COORD97":2543575.3999999999,"ADDRESS":"尊王路４８號","OBJECTID":528716},"geometry":{"x":167654.01000000071,"y":2543575.4000000022}},{"attributes":{"ID":528744,"DIS_CODE":0,"TOWNNAME":"中西區","LI":"保安里","LIN":"6鄰","STREET":"尊王路","SECT":" ","MAREA":" ","LANE":" ","ALLEY":" ","HOUSE_NO":"４６號","E_COORD97":167656.69,"N_COORD97":2543574.3999999999,"ADDRESS":"尊王路４６號","OBJECTID":528717},"geometry":{"x":167656.69000000134,"y":2543574.4000000041}},{"attributes":{"ID":528745,"DIS_CODE":0,"TOWNNAME":"中西區","LI":"保安里","LIN":"6鄰","STREET":"尊王路","SECT":" ","MAREA":" ","LANE":" ","ALLEY":" ","HOUSE_NO":"４２號","E_COORD97":167659.54999999999,"N_COORD97":2543574.0600000001,"ADDRESS":"尊王路４２號","OBJECTID":528718},"geometry":{"x":167659.54999999981,"y":2543574.0600000024}},{"attributes":{"ID":528746,"DIS_CODE":0,"TOWNNAME":"中西區","LI":"保安里","LIN":"6鄰","STREET":"尊王路","SECT":" ","MAREA":" ","LANE":" ","ALLEY":" ","HOUSE_NO":"４０號","E_COORD97":167662.73999999999,"N_COORD97":2543573.3900000001,"ADDRESS":"尊王路４０號","OBJECTID":528719},"geometry":{"x":167662.74000000209,"y":2543573.3900000006}},{"attributes":{"ID":528747,"DIS_CODE":0,"TOWNNAME":"中西區","LI":"保安里","LIN":"6鄰","STREET":"尊王路","SECT":" ","MAREA":" ","LANE":" ","ALLEY":" ","HOUSE_NO":"３８號","E_COORD97":167665.60000000001,"N_COORD97":2543572.7200000002,"ADDRESS":"尊王路３８號","OBJECTID":528720},"geometry":{"x":167665.59999999963,"y":2543572.7200000044}},{"attributes":{"ID":528748,"DIS_CODE":0,"TOWNNAME":"新化區","LI":"太平里","LIN":"6鄰","STREET":"民生路","SECT":" ","MAREA":" ","LANE":" ","ALLEY":" ","HOUSE_NO":"３００號","E_COORD97":178942.81,"N_COORD97":2549185.25,"ADDRESS":"民生路３００號","OBJECTID":528721},"geometry":{"x":178942.80999999959,"y":2549185.25}},{"attributes":{"ID":528749,"DIS_CODE":0,"TOWNNAME":"新化區","LI":"太平里","LIN":"6鄰","STREET":"民生路","SECT":" ","MAREA":" ","LANE":" ","ALLEY":" ","HOUSE_NO":"２６４號","E_COORD97":178985.70999999999,"N_COORD97":2549122.25,"ADDRESS":"民生路２６４號","OBJECTID":528722},"geometry":{"x":178985.70999999996,"y":2549122.2500000019}},{"attributes":{"ID":528750,"DIS_CODE":0,"TOWNNAME":"新化區","LI":"太平里","LIN":"6鄰","STREET":"民生路","SECT":" ","MAREA":" ","LANE":" ","ALLEY":" ","HOUSE_NO":"２７４號","E_COORD97":178972.31,"N_COORD97":2549142.25,"ADDRESS":"民生路２７４號","OBJECTID":528723},"geometry":{"x":178972.31000000052,"y":2549142.2500000037}},{"attributes":{"ID":528751,"DIS_CODE":0,"TOWNNAME":"新化區","LI":"太平里","LIN":"6鄰","STREET":"民生路","SECT":" ","MAREA":" ","LANE":" ","ALLEY":" ","HOUSE_NO":"２８８號","E_COORD97":178956.51000000001,"N_COORD97":2549165.25,"ADDRESS":"民生路２８８號","OBJECTID":528724},"geometry":{"x":178956.50999999978,"y":2549165.25}},{"attributes":{"ID":528752,"DIS_CODE":0,"TOWNNAME":"新化區","LI":"太平里","LIN":"6鄰","STREET":"民生路","SECT":" ","MAREA":" ","LANE":" ","ALLEY":" ","HOUSE_NO":"２７２號","E_COORD97":178974.31,"N_COORD97":2549139.25,"ADDRESS":"民生路２７２號","OBJECTID":528725},"geometry":{"x":178974.31000000052,"y":2549139.2500000019}},{"attributes":{"ID":528753,"DIS_CODE":0,"TOWNNAME":"新化區","LI":"太平里","LIN":"6鄰","STREET":"民生路","SECT":" ","MAREA":" ","LANE":" ","ALLEY":" ","HOUSE_NO":"３１０號","E_COORD97":178932.01000000001,"N_COORD97":2549201.25,"ADDRESS":"民生路３１０號","OBJECTID":528726},"geometry":{"x":178932.01000000071,"y":2549201.2500000019}},{"attributes":{"ID":528754,"DIS_CODE":0,"TOWNNAME":"新化區","LI":"太平里","LIN":"6鄰","STREET":"民生路","SECT":" ","MAREA":" ","LANE":" ","ALLEY":" ","HOUSE_NO":"２７８號","E_COORD97":178967.51000000001,"N_COORD97":2549149.25,"ADDRESS":"民生路２７８號","OBJECTID":528727},"geometry":{"x":178967.51000000071,"y":2549149.2500000019}},{"attributes":{"ID":528755,"DIS_CODE":0,"TOWNNAME":"新化區","LI":"清水里","LIN":"6鄰","STREET":"民權街","SECT":" ","MAREA":" ","LANE":" ","ALLEY":" ","HOUSE_NO":"３７號","E_COORD97":178732.76000000001,"N_COORD97":2548531.25,"ADDRESS":"民權街３７號","OBJECTID":528728},"geometry":{"x":178732.75999999978,"y":2548531.25}},{"attributes":{"ID":528756,"DIS_CODE":0,"TOWNNAME":"新化區","LI":"太平里","LIN":"6鄰","STREET":"民生路","SECT":" ","MAREA":" ","LANE":" ","ALLEY":" ","HOUSE_NO":"３０８號","E_COORD97":178933.91,"N_COORD97":2549198.25,"ADDRESS":"民生路３０８號","OBJECTID":528729},"geometry":{"x":178933.91000000015,"y":2549198.25}},{"attributes":{"ID":528757,"DIS_CODE":0,"TOWNNAME":"新化區","LI":"太平里","LIN":"6鄰","STREET":"民生路","SECT":" ","MAREA":" ","LANE":" ","ALLEY":" ","HOUSE_NO":"３０２號","E_COORD97":178940.70999999999,"N_COORD97":2549188.25,"ADDRESS":"民生路３０２號","OBJECTID":528730},"geometry":{"x":178940.71000000183,"y":2549188.25}},{"attributes":{"ID":528758,"DIS_CODE":0,"TOWNNAME":"新化區","LI":"太平里","LIN":"6鄰","STREET":"民生路","SECT":" ","MAREA":" ","LANE":" ","ALLEY":" ","HOUSE_NO":"２８６號","E_COORD97":178958.91,"N_COORD97":2549162.25,"ADDRESS":"民生路２８６號","OBJECTID":528731},"geometry":{"x":178958.91000000108,"y":2549162.2500000037}},{"attributes":{"ID":528759,"DIS_CODE":0,"TOWNNAME":"新化區","LI":"協興里","LIN":"6鄰","STREET":"忠孝路","SECT":" ","MAREA":" ","LANE":" ","ALLEY":" ","HOUSE_NO":"１９８號","E_COORD97":178363.82000000001,"N_COORD97":2548560.25,"ADDRESS":"忠孝路１９８號","OBJECTID":528732},"geometry":{"x":178363.81999999937,"y":2548560.2500000019}},{"attributes":{"ID":528760,"DIS_CODE":0,"TOWNNAME":"新化區","LI":"協興里","LIN":"6鄰","STREET":"忠孝路","SECT":" ","MAREA":" ","LANE":" ","ALLEY":" ","HOUSE_NO":"１９８號之２","E_COORD97":178355.67999999999,"N_COORD97":2548556.2599999998,"ADDRESS":"忠孝路１９８號之２","OBJECTID":528733},"geometry":{"x":178355.67999999877,"y":2548556.2600000016}},{"attributes":{"ID":528761,"DIS_CODE":0,"TOWNNAME":"新化區","LI":"竹林里","LIN":"6鄰","STREET":"忠孝路","SECT":" ","MAREA":" ","LANE":" ","ALLEY":" ","HOUSE_NO":"７５號","E_COORD97":178868.47,"N_COORD97":2548666.25,"ADDRESS":"忠孝路７５號","OBJECTID":528734},"geometry":{"x":178868.46999999974,"y":2548666.25}},{"attributes":{"ID":528762,"DIS_CODE":0,"TOWNNAME":"新化區","LI":"太平里","LIN":"6鄰","STREET":"民生路","SECT":" ","MAREA":" ","LANE":" ","ALLEY":" ","HOUSE_NO":"２９２號","E_COORD97":178951.70999999999,"N_COORD97":2549172.25,"ADDRESS":"民生路２９２號","OBJECTID":528735},"geometry":{"x":178951.71000000089,"y":2549172.25}},{"attributes":{"ID":528763,"DIS_CODE":0,"TOWNNAME":"新化區","LI":"太平里","LIN":"6鄰","STREET":"民生路","SECT":" ","MAREA":" ","LANE":" ","ALLEY":" ","HOUSE_NO":"２６８號","E_COORD97":178981.10999999999,"N_COORD97":2549129.25,"ADDRESS":"民生路２６８號","OBJECTID":528736},"geometry":{"x":178981.11000000127,"y":2549129.2500000019}},{"attributes":{"ID":528764,"DIS_CODE":0,"TOWNNAME":"新化區","LI":"太平里","LIN":"6鄰","STREET":"民生路","SECT":" ","MAREA":" ","LANE":" ","ALLEY":" ","HOUSE_NO":"３０４號","E_COORD97":178938.60999999999,"N_COORD97":2549191.25,"ADDRESS":"民生路３０４號","OBJECTID":528737},"geometry":{"x":178938.61000000127,"y":2549191.25}},{"attributes":{"ID":528765,"DIS_CODE":0,"TOWNNAME":"新化區","LI":"太平里","LIN":"6鄰","STREET":"民生路","SECT":" ","MAREA":" ","LANE":" ","ALLEY":" ","HOUSE_NO":"２８０號","E_COORD97":178965.70999999999,"N_COORD97":2549152.25,"ADDRESS":"民生路２８０號","OBJECTID":528738},"geometry":{"x":178965.70999999996,"y":2549152.2500000037}},{"attributes":{"ID":528766,"DIS_CODE":0,"TOWNNAME":"新化區","LI":"太平里","LIN":"6鄰","STREET":"民生路","SECT":" ","MAREA":" ","LANE":" ","ALLEY":" ","HOUSE_NO":"２９８號","E_COORD97":178945.01000000001,"N_COORD97":2549182.25,"ADDRESS":"民生路２９８號","OBJECTID":528739},"geometry":{"x":178945.00999999978,"y":2549182.25}},{"attributes":{"ID":528767,"DIS_CODE":0,"TOWNNAME":"新化區","LI":"太平里","LIN":"6鄰","STREET":"民生路","SECT":" ","MAREA":" ","LANE":" ","ALLEY":" ","HOUSE_NO":"２８４號","E_COORD97":178961.01000000001,"N_COORD97":2549159.25,"ADDRESS":"民生路２８４號","OBJECTID":528740},"geometry":{"x":178961.01000000071,"y":2549159.2500000019}},{"attributes":{"ID":528768,"DIS_CODE":0,"TOWNNAME":"新化區","LI":"太平里","LIN":"6鄰","STREET":"民生路","SECT":" ","MAREA":" ","LANE":" ","ALLEY":" ","HOUSE_NO":"２９０號","E_COORD97":178954.20999999999,"N_COORD97":2549169.25,"ADDRESS":"民生路２９０號","OBJECTID":528741},"geometry":{"x":178954.21000000183,"y":2549169.2500000037}},{"attributes":{"ID":528769,"DIS_CODE":0,"TOWNNAME":"新化區","LI":"太平里","LIN":"6鄰","STREET":"民生路","SECT":" ","MAREA":" ","LANE":" ","ALLEY":" ","HOUSE_NO":"２７６號","E_COORD97":178969.91,"N_COORD97":2549145.25,"ADDRESS":"民生路２７６號","OBJECTID":528742},"geometry":{"x":178969.91000000015,"y":2549145.2499999981}},{"attributes":{"ID":528770,"DIS_CODE":0,"TOWNNAME":"新化區","LI":"太平里","LIN":"6鄰","STREET":"民生路","SECT":" ","MAREA":" ","LANE":" ","ALLEY":" ","HOUSE_NO":"３１２號","E_COORD97":178927.41,"N_COORD97":2549208.25,"ADDRESS":"民生路３１２號","OBJECTID":528743},"geometry":{"x":178927.41000000015,"y":2549208.25}},{"attributes":{"ID":528771,"DIS_CODE":0,"TOWNNAME":"新化區","LI":"竹林里","LIN":"6鄰","STREET":"忠孝路","SECT":" ","MAREA":" ","LANE":" ","ALLEY":" ","HOUSE_NO":"７９號","E_COORD97":178853.97,"N_COORD97":2548664.25,"ADDRESS":"忠孝路７９號","OBJECTID":528744},"geometry":{"x":178853.9700000016,"y":2548664.2500000037}},{"attributes":{"ID":528772,"DIS_CODE":0,"TOWNNAME":"新化區","LI":"中央里","LIN":"6鄰","STREET":"信義路","SECT":" ","MAREA":" ","LANE":" ","ALLEY":" ","HOUSE_NO":"２９６號","E_COORD97":178962.53,"N_COORD97":2548315.25,"ADDRESS":"信義路２９６號","OBJECTID":528745},"geometry":{"x":178962.53000000212,"y":2548315.2500000019}},{"attributes":{"ID":528773,"DIS_CODE":0,"TOWNNAME":"新化區","LI":"觀音里","LIN":"6鄰","STREET":"中正路","SECT":" ","MAREA":" ","LANE":" ","ALLEY":" ","HOUSE_NO":"５２３號","E_COORD97":179015.20999999999,"N_COORD97":2548606.25,"ADDRESS":"中正路５２３號","OBJECTID":528746},"geometry":{"x":179015.20999999903,"y":2548606.2500000037}},{"attributes":{"ID":528774,"DIS_CODE":0,"TOWNNAME":"新化區","LI":"東榮里","LIN":"6鄰","STREET":"信義路","SECT":" ","MAREA":" ","LANE":" ","ALLEY":" ","HOUSE_NO":"１１５號之３","E_COORD97":179690.88,"N_COORD97":2548493.2599999998,"ADDRESS":"信義路１１５號之３","OBJECTID":528747},"geometry":{"x":179690.88000000082,"y":2548493.2599999998}},{"attributes":{"ID":528775,"DIS_CODE":0,"TOWNNAME":"新化區","LI":"觀音里","LIN":"6鄰","STREET":"仁愛街","SECT":" ","MAREA":" ","LANE":" ","ALLEY":" ","HOUSE_NO":"５０號","E_COORD97":179007.85938800001,"N_COORD97":2548587.8289299998,"ADDRESS":"仁愛街５０號","OBJECTID":528748},"geometry":{"x":179007.85938800219,"y":2548587.8289290015}},{"attributes":{"ID":528776,"DIS_CODE":0,"TOWNNAME":"新化區","LI":"武安里","LIN":"6鄰","STREET":"大同街","SECT":" ","MAREA":" ","LANE":" ","ALLEY":" ","HOUSE_NO":"８４號","E_COORD97":178998.98000000001,"N_COORD97":2548274.25,"ADDRESS":"大同街８４號","OBJECTID":528749},"geometry":{"x":178998.98000000138,"y":2548274.2500000037}},{"attributes":{"ID":528777,"DIS_CODE":0,"TOWNNAME":"新化區","LI":"武安里","LIN":"6鄰","STREET":"中正路","SECT":" ","MAREA":" ","LANE":" ","ALLEY":" ","HOUSE_NO":"３７５號","E_COORD97":179103.70999999999,"N_COORD97":2548293.25,"ADDRESS":"中正路３７５號","OBJECTID":528750},"geometry":{"x":179103.71000000089,"y":2548293.25}},{"attributes":{"ID":528778,"DIS_CODE":0,"TOWNNAME":"安南區","LI":"淵中里","LIN":"6鄰","STREET":"本田路","SECT":"三段","MAREA":" ","LANE":" ","ALLEY":" ","HOUSE_NO":"７０３號","E_COORD97":165020.32999999999,"N_COORD97":2549932.79,"ADDRESS":"本田路三段７０３號","OBJECTID":528751},"geometry":{"x":165020.33000000007,"y":2549932.7899999991}},{"attributes":{"ID":528779,"DIS_CODE":0,"TOWNNAME":"南區","LI":"光明里","LIN":"6鄰","STREET":"新興路","SECT":" ","MAREA":" ","LANE":" ","ALLEY":" ","HOUSE_NO":"５１３號","E_COORD97":166686.45999999999,"N_COORD97":2541711.1699999999,"ADDRESS":"新興路５１３號","OBJECTID":528752},"geometry":{"x":166686.46000000089,"y":2541711.1700000018}},{"attributes":{"ID":528780,"DIS_CODE":0,"TOWNNAME":"南區","LI":"光明里","LIN":"6鄰","STREET":"新興路","SECT":" ","MAREA":" ","LANE":" ","ALLEY":" ","HOUSE_NO":"５１５號","E_COORD97":166682.29000000001,"N_COORD97":2541711.3999999999,"ADDRESS":"新興路５１５號","OBJECTID":528753},"geometry":{"x":166682.2900000019,"y":2541711.4000000004}},{"attributes":{"ID":528781,"DIS_CODE":0,"TOWNNAME":"南區","LI":"光明里","LIN":"6鄰","STREET":"新興路","SECT":" ","MAREA":" ","LANE":" ","ALLEY":" ","HOUSE_NO":"５１７號","E_COORD97":166677.54000000001,"N_COORD97":2541711.1200000001,"ADDRESS":"新興路５１７號","OBJECTID":528754},"geometry":{"x":166677.54000000097,"y":2541711.120000001}},{"attributes":{"ID":528782,"DIS_CODE":0,"TOWNNAME":"南區","LI":"光明里","LIN":"6鄰","STREET":"新興路","SECT":" ","MAREA":" ","LANE":" ","ALLEY":" ","HOUSE_NO":"５１９號","E_COORD97":166672.78,"N_COORD97":2541710.6800000002,"ADDRESS":"新興路５１９號","OBJECTID":528755},"geometry":{"x":166672.78000000119,"y":2541710.6800000034}},{"attributes":{"ID":528783,"DIS_CODE":0,"TOWNNAME":"南區","LI":"光明里","LIN":"6鄰","STREET":"新興路","SECT":" ","MAREA":" ","LANE":" ","ALLEY":" ","HOUSE_NO":"５２１號","E_COORD97":166668.23000000001,"N_COORD97":2541710.0899999999,"ADDRESS":"新興路５２１號","OBJECTID":528756},"geometry":{"x":166668.23000000138,"y":2541710.0899999999}},{"attributes":{"ID":528784,"DIS_CODE":0,"TOWNNAME":"南區","LI":"光明里","LIN":"6鄰","STREET":"新興路","SECT":" ","MAREA":" ","LANE":" ","ALLEY":" ","HOUSE_NO":"５２３號","E_COORD97":166663.85000000001,"N_COORD97":2541710.0899999999,"ADDRESS":"新興路５２３號","OBJECTID":528757},"geometry":{"x":166663.84999999963,"y":2541710.0899999999}},{"attributes":{"ID":528785,"DIS_CODE":0,"TOWNNAME":"南區","LI":"光明里","LIN":"6鄰","STREET":"新興路","SECT":" ","MAREA":" ","LANE":" ","ALLEY":" ","HOUSE_NO":"５２５號","E_COORD97":166659.20999999999,"N_COORD97":2541709.4199999999,"ADDRESS":"新興路５２５號","OBJECTID":528758},"geometry":{"x":166659.21000000089,"y":2541709.4200000018}},{"attributes":{"ID":528786,"DIS_CODE":0,"TOWNNAME":"南區","LI":"光明里","LIN":"6鄰","STREET":"新興路","SECT":" ","MAREA":" ","LANE":" ","ALLEY":" ","HOUSE_NO":"５２７號","E_COORD97":166654.32999999999,"N_COORD97":2541708.3199999998,"ADDRESS":"新興路５２７號","OBJECTID":528759},"geometry":{"x":166654.33000000007,"y":2541708.3200000022}},{"attributes":{"ID":528787,"DIS_CODE":0,"TOWNNAME":"南區","LI":"光明里","LIN":"6鄰","STREET":"新興路","SECT":" ","MAREA":" ","LANE":" ","ALLEY":" ","HOUSE_NO":"５２９號","E_COORD97":166650.28,"N_COORD97":2541707.3999999999,"ADDRESS":"新興路５２９號","OBJECTID":528760},"geometry":{"x":166650.27999999933,"y":2541707.4000000022}},{"attributes":{"ID":528788,"DIS_CODE":0,"TOWNNAME":"南區","LI":"光明里","LIN":"6鄰","STREET":"新興路","SECT":" ","MAREA":" ","LANE":" ","ALLEY":" ","HOUSE_NO":"５３１號","E_COORD97":166645.48000000001,"N_COORD97":2541707.23,"ADDRESS":"新興路５３１號","OBJECTID":528761},"geometry":{"x":166645.48000000045,"y":2541707.2300000004}},{"attributes":{"ID":528789,"DIS_CODE":0,"TOWNNAME":"南區","LI":"再興里","LIN":"6鄰","STREET":"三官路","SECT":" ","MAREA":" ","LANE":" ","ALLEY":" ","HOUSE_NO":"４６號","E_COORD97":167329.14999999999,"N_COORD97":2542298.1800000002,"ADDRESS":"三官路４６號","OBJECTID":528762},"geometry":{"x":167329.15000000037,"y":2542298.1800000016}},{"attributes":{"ID":528790,"DIS_CODE":0,"TOWNNAME":"南區","LI":"再興里","LIN":"6鄰","STREET":"三官路","SECT":" ","MAREA":" ","LANE":" ","ALLEY":" ","HOUSE_NO":"７６號","E_COORD97":167339.26000000001,"N_COORD97":2542227.5600000001,"ADDRESS":"三官路７６號","OBJECTID":528763},"geometry":{"x":167339.25999999978,"y":2542227.5600000042}},{"attributes":{"ID":528791,"DIS_CODE":0,"TOWNNAME":"南區","LI":"再興里","LIN":"6鄰","STREET":"三官路","SECT":" ","MAREA":" ","LANE":" ","ALLEY":" ","HOUSE_NO":"７８號","E_COORD97":167339.26000000001,"N_COORD97":2542223.6499999999,"ADDRESS":"三官路７８號","OBJECTID":528764},"geometry":{"x":167339.25999999978,"y":2542223.6500000022}},{"attributes":{"ID":528792,"DIS_CODE":0,"TOWNNAME":"南區","LI":"再興里","LIN":"6鄰","STREET":"三官路","SECT":" ","MAREA":" ","LANE":" ","ALLEY":" ","HOUSE_NO":"８０號","E_COORD97":167339.57999999999,"N_COORD97":2542219.3100000001,"ADDRESS":"三官路８０號","OBJECTID":528765},"geometry":{"x":167339.58000000007,"y":2542219.3100000024}},{"attributes":{"ID":528793,"DIS_CODE":0,"TOWNNAME":"南區","LI":"再興里","LIN":"6鄰","STREET":"三官路","SECT":" ","MAREA":" ","LANE":" ","ALLEY":" ","HOUSE_NO":"８４號","E_COORD97":167340.22,"N_COORD97":2542210.75,"ADDRESS":"三官路８４號","OBJECTID":528766},"geometry":{"x":167340.2200000016,"y":2542210.75}},{"attributes":{"ID":528794,"DIS_CODE":0,"TOWNNAME":"南區","LI":"再興里","LIN":"6鄰","STREET":"三官路","SECT":" ","MAREA":" ","LANE":" ","ALLEY":" ","HOUSE_NO":"８６號","E_COORD97":167340.53,"N_COORD97":2542202.4700000002,"ADDRESS":"三官路８６號","OBJECTID":528767},"geometry":{"x":167340.53000000119,"y":2542202.4700000025}},{"attributes":{"ID":528795,"DIS_CODE":0,"TOWNNAME":"南區","LI":"同安里","LIN":"6鄰","STREET":"明興路","SECT":" ","MAREA":" ","LANE":" ","ALLEY":" ","HOUSE_NO":"１２１６號","E_COORD97":166442.45999999999,"N_COORD97":2536305.7999999998,"ADDRESS":"明興路１２１６號","OBJECTID":528768},"geometry":{"x":166442.46000000089,"y":2536305.8000000007}},{"attributes":{"ID":528796,"DIS_CODE":0,"TOWNNAME":"南區","LI":"同安里","LIN":"6鄰","STREET":"明興路","SECT":" ","MAREA":" ","LANE":" ","ALLEY":" ","HOUSE_NO":"１２２０號","E_COORD97":166436.59,"N_COORD97":2536296.02,"ADDRESS":"明興路１２２０號","OBJECTID":528769},"geometry":{"x":166436.59000000078,"y":2536296.0199999996}},{"attributes":{"ID":528797,"DIS_CODE":0,"TOWNNAME":"南區","LI":"同安里","LIN":"6鄰","STREET":"明興路","SECT":" ","MAREA":" ","LANE":" ","ALLEY":" ","HOUSE_NO":"１２２２號","E_COORD97":166433.54999999999,"N_COORD97":2536287.5499999998,"ADDRESS":"明興路１２２２號","OBJECTID":528770},"geometry":{"x":166433.55000000075,"y":2536287.5500000007}},{"attributes":{"ID":528798,"DIS_CODE":0,"TOWNNAME":"東區","LI":"忠孝里","LIN":"33鄰","STREET":"崇明二街","SECT":" ","MAREA":" ","LANE":" ","ALLEY":" ","HOUSE_NO":"９號","E_COORD97":169546.34,"N_COORD97":2542397.3999999999,"ADDRESS":"崇明二街９號","OBJECTID":528771},"geometry":{"x":169546.33999999985,"y":2542397.4000000004}},{"attributes":{"ID":528799,"DIS_CODE":0,"TOWNNAME":"南區","LI":"同安里","LIN":"6鄰","STREET":"明興路","SECT":" ","MAREA":" ","LANE":" ","ALLEY":" ","HOUSE_NO":"１２２６號","E_COORD97":166434.85000000001,"N_COORD97":2536279.6400000001,"ADDRESS":"明興路１２２６號","OBJECTID":528772},"geometry":{"x":166434.84999999963,"y":2536279.6400000006}},{"attributes":{"ID":528800,"DIS_CODE":0,"TOWNNAME":"南區","LI":"同安里","LIN":"6鄰","STREET":"明興路","SECT":" ","MAREA":" ","LANE":" ","ALLEY":" ","HOUSE_NO":"１２２８號","E_COORD97":166431.59,"N_COORD97":2536273.77,"ADDRESS":"明興路１２２８號","OBJECTID":528773},"geometry":{"x":166431.59000000078,"y":2536273.7699999996}},{"attributes":{"ID":528801,"DIS_CODE":0,"TOWNNAME":"南區","LI":"同安里","LIN":"6鄰","STREET":"明興路","SECT":" ","MAREA":" ","LANE":" ","ALLEY":" ","HOUSE_NO":"１２３０號","E_COORD97":166430.5,"N_COORD97":2536266.3900000001,"ADDRESS":"明興路１２３０號","OBJECTID":528774},"geometry":{"x":166430.50000000093,"y":2536266.3900000025}},{"attributes":{"ID":528802,"DIS_CODE":0,"TOWNNAME":"南區","LI":"同安里","LIN":"6鄰","STREET":"明興路","SECT":" ","MAREA":" ","LANE":" ","ALLEY":" ","HOUSE_NO":"１２５０號","E_COORD97":166405.54999999999,"N_COORD97":2536220.4100000001,"ADDRESS":"明興路１２５０號","OBJECTID":528775},"geometry":{"x":166405.54999999981,"y":2536220.4100000039}},{"attributes":{"ID":528803,"DIS_CODE":0,"TOWNNAME":"南區","LI":"同安里","LIN":"6鄰","STREET":"明興路","SECT":" ","MAREA":" ","LANE":" ","ALLEY":" ","HOUSE_NO":"１２５４號","E_COORD97":166405.60999999999,"N_COORD97":2536211.9500000002,"ADDRESS":"明興路１２５４號","OBJECTID":528776},"geometry":{"x":166405.61000000034,"y":2536211.9499999993}},{"attributes":{"ID":528804,"DIS_CODE":0,"TOWNNAME":"南區","LI":"同安里","LIN":"6鄰","STREET":"興南街","SECT":" ","MAREA":" ","LANE":" ","ALLEY":" ","HOUSE_NO":"４號","E_COORD97":166406.23000000001,"N_COORD97":2536206.1699999999,"ADDRESS":"興南街４號","OBJECTID":528777},"geometry":{"x":166406.23000000045,"y":2536206.1700000018}},{"attributes":{"ID":528805,"DIS_CODE":0,"TOWNNAME":"南區","LI":"同安里","LIN":"6鄰","STREET":"興南街","SECT":" ","MAREA":" ","LANE":" ","ALLEY":" ","HOUSE_NO":"１８號","E_COORD97":166376.51999999999,"N_COORD97":2536179.3399999999,"ADDRESS":"興南街１８號","OBJECTID":528778},"geometry":{"x":166376.51999999955,"y":2536179.3399999999}},{"attributes":{"ID":528806,"DIS_CODE":0,"TOWNNAME":"南區","LI":"同安里","LIN":"6鄰","STREET":"興南街","SECT":" ","MAREA":" ","LANE":" ","ALLEY":" ","HOUSE_NO":"２０號","E_COORD97":166377.70999999999,"N_COORD97":2536174.3799999999,"ADDRESS":"興南街２０號","OBJECTID":528779},"geometry":{"x":166377.71000000183,"y":2536174.379999999}},{"attributes":{"ID":528807,"DIS_CODE":0,"TOWNNAME":"南區","LI":"同安里","LIN":"6鄰","STREET":"興南街","SECT":" ","MAREA":" ","LANE":" ","ALLEY":" ","HOUSE_NO":"２２號","E_COORD97":166367.79000000001,"N_COORD97":2536175.3700000001,"ADDRESS":"興南街２２號","OBJECTID":528780},"geometry":{"x":166367.79000000097,"y":2536175.3700000029}},{"attributes":{"ID":528808,"DIS_CODE":0,"TOWNNAME":"南區","LI":"同安里","LIN":"6鄰","STREET":"興南街","SECT":" ","MAREA":" ","LANE":" ","ALLEY":" ","HOUSE_NO":"２４號","E_COORD97":166364.32000000001,"N_COORD97":2536183.8599999999,"ADDRESS":"興南街２４號","OBJECTID":528781},"geometry":{"x":166364.32000000123,"y":2536183.8600000013}},{"attributes":{"ID":528809,"DIS_CODE":0,"TOWNNAME":"南區","LI":"同安里","LIN":"6鄰","STREET":"興南街","SECT":" ","MAREA":" ","LANE":" ","ALLEY":" ","HOUSE_NO":"２６號","E_COORD97":166370.42999999999,"N_COORD97":2536166.1499999999,"ADDRESS":"興南街２６號","OBJECTID":528782},"geometry":{"x":166370.4299999997,"y":2536166.1500000022}},{"attributes":{"ID":528810,"DIS_CODE":0,"TOWNNAME":"南區","LI":"同安里","LIN":"6鄰","STREET":"興南街","SECT":" ","MAREA":" ","LANE":" ","ALLEY":" ","HOUSE_NO":"２８號","E_COORD97":166363.13,"N_COORD97":2536162.1600000001,"ADDRESS":"興南街２８號","OBJECTID":528783},"geometry":{"x":166363.13000000082,"y":2536162.160000002}},{"attributes":{"ID":528811,"DIS_CODE":0,"TOWNNAME":"南區","LI":"同安里","LIN":"6鄰","STREET":"興南街","SECT":" ","MAREA":" ","LANE":" ","ALLEY":" ","HOUSE_NO":"３０號","E_COORD97":166350.51999999999,"N_COORD97":2536159.3100000001,"ADDRESS":"興南街３０號","OBJECTID":528784},"geometry":{"x":166350.52000000048,"y":2536159.3100000005}},{"attributes":{"ID":528812,"DIS_CODE":0,"TOWNNAME":"南區","LI":"同安里","LIN":"6鄰","STREET":"興南街","SECT":" ","MAREA":" ","LANE":" ","ALLEY":" ","HOUSE_NO":"３２號","E_COORD97":166347.32000000001,"N_COORD97":2536175.4900000002,"ADDRESS":"興南街３２號","OBJECTID":528785},"geometry":{"x":166347.32000000123,"y":2536175.4900000002}},{"attributes":{"ID":528813,"DIS_CODE":0,"TOWNNAME":"南區","LI":"同安里","LIN":"6鄰","STREET":"興南街","SECT":" ","MAREA":" ","LANE":" ","ALLEY":" ","HOUSE_NO":"３４號","E_COORD97":166332.66,"N_COORD97":2536160.1800000002,"ADDRESS":"興南街３４號","OBJECTID":528786},"geometry":{"x":166332.66000000108,"y":2536160.1799999978}},{"attributes":{"ID":528814,"DIS_CODE":0,"TOWNNAME":"南區","LI":"同安里","LIN":"6鄰","STREET":"興南街","SECT":" ","MAREA":" ","LANE":" ","ALLEY":" ","HOUSE_NO":"３６號","E_COORD97":166322.04999999999,"N_COORD97":2536165.48,"ADDRESS":"興南街３６號","OBJECTID":528787},"geometry":{"x":166322.04999999981,"y":2536165.4800000004}},{"attributes":{"ID":528815,"DIS_CODE":0,"TOWNNAME":"仁德區","LI":"二行里","LIN":"6鄰","STREET":"二仁路","SECT":"一段","MAREA":" ","LANE":" ","ALLEY":" ","HOUSE_NO":"５３號","E_COORD97":170562.54000000001,"N_COORD97":2535357.7799999998,"ADDRESS":"二仁路一段５３號","OBJECTID":528788},"geometry":{"x":170562.5400000019,"y":2535357.7799999993}},{"attributes":{"ID":528816,"DIS_CODE":0,"TOWNNAME":"南區","LI":"同安里","LIN":"6鄰","STREET":"明興路","SECT":" ","MAREA":" ","LANE":" ","ALLEY":" ","HOUSE_NO":"１２５２號","E_COORD97":166396.48000000001,"N_COORD97":2536219.6800000002,"ADDRESS":"明興路１２５２號","OBJECTID":528789},"geometry":{"x":166396.48000000045,"y":2536219.6800000016}},{"attributes":{"ID":528817,"DIS_CODE":0,"TOWNNAME":"安南區","LI":"顯宮里","LIN":"6鄰","STREET":"媽祖宮二街","SECT":" ","MAREA":" ","LANE":" ","ALLEY":" ","HOUSE_NO":"１１２之１號","E_COORD97":160511.85000000001,"N_COORD97":2548872.1000000001,"ADDRESS":"媽祖宮二街１１２之１號","OBJECTID":528790},"geometry":{"x":160511.84999999963,"y":2548872.1000000015}},{"attributes":{"ID":528818,"DIS_CODE":0,"TOWNNAME":"安南區","LI":"淵中里","LIN":"6鄰","STREET":"本田路","SECT":"三段","MAREA":" ","LANE":" ","ALLEY":" ","HOUSE_NO":"５４９之１號","E_COORD97":164718.66,"N_COORD97":2549721.2200000002,"ADDRESS":"本田路三段５４９之１號","OBJECTID":528791},"geometry":{"x":164718.66000000201,"y":2549721.2200000007}},{"attributes":{"ID":528819,"DIS_CODE":0,"TOWNNAME":"安南區","LI":"城西里","LIN":"6鄰","STREET":"城西街","SECT":"三段","MAREA":" ","LANE":" ","ALLEY":" ","HOUSE_NO":"４３１號","E_COORD97":157325.48999999999,"N_COORD97":2550878.27,"ADDRESS":"城西街三段４３１號","OBJECTID":528792},"geometry":{"x":157325.49000000209,"y":2550878.2700000014}},{"attributes":{"ID":528820,"DIS_CODE":0,"TOWNNAME":"仁德區","LI":"二行里","LIN":"6鄰","STREET":"二行一路","SECT":" ","MAREA":" ","LANE":" ","ALLEY":" ","HOUSE_NO":"９６號","E_COORD97":170508.95000000001,"N_COORD97":2535484.4900000002,"ADDRESS":"二行一路９６號","OBJECTID":528793},"geometry":{"x":170508.95000000019,"y":2535484.4900000021}},{"attributes":{"ID":528821,"DIS_CODE":0,"TOWNNAME":"仁德區","LI":"土庫里","LIN":"6鄰","STREET":"土庫三街","SECT":" ","MAREA":" ","LANE":" ","ALLEY":" ","HOUSE_NO":"８１號","E_COORD97":174315.35999999999,"N_COORD97":2543080.9900000002,"ADDRESS":"土庫三街８１號","OBJECTID":528794},"geometry":{"x":174315.36000000034,"y":2543080.9900000002}},{"attributes":{"ID":528822,"DIS_CODE":0,"TOWNNAME":"仁德區","LI":"太子里","LIN":"6鄰","STREET":"長興二街","SECT":" ","MAREA":" ","LANE":" ","ALLEY":" ","HOUSE_NO":"３９號","E_COORD97":174296.82000000001,"N_COORD97":2543688.5,"ADDRESS":"長興二街３９號","OBJECTID":528795},"geometry":{"x":174296.8200000003,"y":2543688.5000000037}},{"attributes":{"ID":528823,"DIS_CODE":0,"TOWNNAME":"仁德區","LI":"仁義里","LIN":"6鄰","STREET":"仁義二街","SECT":" ","MAREA":" ","LANE":" ","ALLEY":" ","HOUSE_NO":"３１號","E_COORD97":173809.85000000001,"N_COORD97":2541193.7599999998,"ADDRESS":"仁義二街３１號","OBJECTID":528796},"geometry":{"x":173809.85000000149,"y":2541193.7599999998}},{"attributes":{"ID":528824,"DIS_CODE":0,"TOWNNAME":"仁德區","LI":"仁德里","LIN":"6鄰","STREET":"中正路","SECT":"二段","MAREA":" ","LANE":" ","ALLEY":" ","HOUSE_NO":"１１３３號","E_COORD97":173348.95999999999,"N_COORD97":2540988.1699999999,"ADDRESS":"中正路二段１１３３號","OBJECTID":528797},"geometry":{"x":173348.96000000089,"y":2540988.1699999999}},{"attributes":{"ID":528825,"DIS_CODE":0,"TOWNNAME":"仁德區","LI":"仁義里","LIN":"6鄰","STREET":"仁義二街","SECT":" ","MAREA":" ","LANE":" ","ALLEY":" ","HOUSE_NO":"７號","E_COORD97":173746.51000000001,"N_COORD97":2541167.77,"ADDRESS":"仁義二街７號","OBJECTID":528798},"geometry":{"x":173746.51000000071,"y":2541167.7700000014}},{"attributes":{"ID":528826,"DIS_CODE":0,"TOWNNAME":"仁德區","LI":"仁義里","LIN":"6鄰","STREET":"仁義二街","SECT":" ","MAREA":" ","LANE":" ","ALLEY":" ","HOUSE_NO":"１５號","E_COORD97":173770.60999999999,"N_COORD97":2541172.52,"ADDRESS":"仁義二街１５號","OBJECTID":528799},"geometry":{"x":173770.61000000034,"y":2541172.5200000033}},{"attributes":{"ID":528827,"DIS_CODE":0,"TOWNNAME":"仁德區","LI":"二行里","LIN":"6鄰","STREET":"二行一路","SECT":" ","MAREA":" ","LANE":" ","ALLEY":" ","HOUSE_NO":"５２號","E_COORD97":170456.23999999999,"N_COORD97":2535354.25,"ADDRESS":"二行一路５２號","OBJECTID":528800},"geometry":{"x":170456.23999999929,"y":2535354.2500000019}}]}