{"displayFieldName":"TOWNNAME","fieldAliases":{"ID":"ID","DIS_CODE":"DIS_CODE","TOWNNAME":"TOWNNAME","LI":"LI","LIN":"LIN","STREET":"STREET","SECT":"SECT","MAREA":"MAREA","LANE":"LANE","ALLEY":"ALLEY","HOUSE_NO":"HOUSE_NO","E_COORD97":"E_COORD97","N_COORD97":"N_COORD97","ADDRESS":"ADDRESS","OBJECTID":"OBJECTID"},"geometryType":"esriGeometryPoint","spatialReference":{"wkid":102443,"latestWkid":3826},"fields":[{"name":"ID","type":"esriFieldTypeDouble","alias":"ID"},{"name":"DIS_CODE","type":"esriFieldTypeInteger","alias":"DIS_CODE"},{"name":"TOWNNAME","type":"esriFieldTypeString","alias":"TOWNNAME","length":8},{"name":"LI","type":"esriFieldTypeString","alias":"LI","length":8},{"name":"LIN","type":"esriFieldTypeString","alias":"LIN","length":12},{"name":"STREET","type":"esriFieldTypeString","alias":"STREET","length":20},{"name":"SECT","type":"esriFieldTypeString","alias":"SECT","length":8},{"name":"MAREA","type":"esriFieldTypeString","alias":"MAREA","length":12},{"name":"LANE","type":"esriFieldTypeString","alias":"LANE","length":10},{"name":"ALLEY","type":"esriFieldTypeString","alias":"ALLEY","length":10},{"name":"HOUSE_NO","type":"esriFieldTypeString","alias":"HOUSE_NO","length":20},{"name":"E_COORD97","type":"esriFieldTypeDouble","alias":"E_COORD97"},{"name":"N_COORD97","type":"esriFieldTypeDouble","alias":"N_COORD97"},{"name":"ADDRESS","type":"esriFieldTypeString","alias":"ADDRESS","length":50},{"name":"OBJECTID","type":"esriFieldTypeOID","alias":"OBJECTID"}],"features":[{"attributes":{"ID":18801,"DIS_CODE":0,"TOWNNAME":"永康區","LI":"二王里","LIN":"47鄰","STREET":"南工街","SECT":" ","MAREA":" ","LANE":"２２６巷","ALLEY":"３弄","HOUSE_NO":"２號一樓","E_COORD97":171980.20000000001,"N_COORD97":2545998.9900000002,"ADDRESS":"南工街２２６巷３弄２號一樓","OBJECTID":18801},"geometry":{"x":171980.20000000019,"y":2545998.9900000021}},{"attributes":{"ID":18802,"DIS_CODE":0,"TOWNNAME":"西港區","LI":"西港里","LIN":"14鄰","STREET":" ","SECT":" ","MAREA":"西港","LANE":" ","ALLEY":" ","HOUSE_NO":"５５號之１２","E_COORD97":168567.04999999999,"N_COORD97":2557831.1000000001,"ADDRESS":"西港５５號之１２","OBJECTID":18802},"geometry":{"x":168567.05000000168,"y":2557831.0999999996}},{"attributes":{"ID":18803,"DIS_CODE":0,"TOWNNAME":"西港區","LI":"西港里","LIN":"14鄰","STREET":" ","SECT":" ","MAREA":"西港","LANE":" ","ALLEY":" ","HOUSE_NO":"５５號之１３","E_COORD97":168566.28,"N_COORD97":2557835.7000000002,"ADDRESS":"西港５５號之１３","OBJECTID":18803},"geometry":{"x":168566.28000000119,"y":2557835.7000000011}},{"attributes":{"ID":18804,"DIS_CODE":0,"TOWNNAME":"西港區","LI":"西港里","LIN":"14鄰","STREET":" ","SECT":" ","MAREA":"西港","LANE":" ","ALLEY":" ","HOUSE_NO":"５５號之１４","E_COORD97":168565.32000000001,"N_COORD97":2557839.98,"ADDRESS":"西港５５號之１４","OBJECTID":18804},"geometry":{"x":168565.3200000003,"y":2557839.9800000004}},{"attributes":{"ID":18805,"DIS_CODE":0,"TOWNNAME":"永康區","LI":"二王里","LIN":"47鄰","STREET":"南工街","SECT":" ","MAREA":" ","LANE":"２２６巷","ALLEY":"３弄","HOUSE_NO":"３號三樓之１","E_COORD97":171967.48999999999,"N_COORD97":2545991.6000000001,"ADDRESS":"南工街２２６巷３弄３號三樓之１","OBJECTID":18805},"geometry":{"x":171967.49000000115,"y":2545991.5999999996}},{"attributes":{"ID":18806,"DIS_CODE":0,"TOWNNAME":"永康區","LI":"二王里","LIN":"47鄰","STREET":"南工街","SECT":" ","MAREA":" ","LANE":"２２６巷","ALLEY":"１弄","HOUSE_NO":"５號七樓之２","E_COORD97":171963.16,"N_COORD97":2546027.73,"ADDRESS":"南工街２２６巷１弄５號七樓之２","OBJECTID":18806},"geometry":{"x":171963.16000000015,"y":2546027.7300000023}},{"attributes":{"ID":18807,"DIS_CODE":0,"TOWNNAME":"永康區","LI":"二王里","LIN":"47鄰","STREET":"南工街","SECT":" ","MAREA":" ","LANE":"２２６巷","ALLEY":"３弄","HOUSE_NO":"７號三樓之１","E_COORD97":171948.06,"N_COORD97":2545994.3500000001,"ADDRESS":"南工街２２６巷３弄７號三樓之１","OBJECTID":18807},"geometry":{"x":171948.05999999959,"y":2545994.3499999996}},{"attributes":{"ID":18808,"DIS_CODE":0,"TOWNNAME":"白河區","LI":"關嶺里","LIN":"8鄰","STREET":" ","SECT":" ","MAREA":"南寮","LANE":" ","ALLEY":" ","HOUSE_NO":"１７號","E_COORD97":198726.10999999999,"N_COORD97":2580226.9300000002,"ADDRESS":"南寮１７號","OBJECTID":18808},"geometry":{"x":198726.11000000034,"y":2580226.9300000034}},{"attributes":{"ID":18809,"DIS_CODE":0,"TOWNNAME":"永康區","LI":"二王里","LIN":"47鄰","STREET":"南工街","SECT":" ","MAREA":" ","LANE":"２２６巷","ALLEY":"３弄","HOUSE_NO":"６號五樓之１","E_COORD97":171959.04999999999,"N_COORD97":2546002.0299999998,"ADDRESS":"南工街２２６巷３弄６號五樓之１","OBJECTID":18809},"geometry":{"x":171959.04999999888,"y":2546002.0299999993}},{"attributes":{"ID":18810,"DIS_CODE":0,"TOWNNAME":"永康區","LI":"二王里","LIN":"47鄰","STREET":"南工街","SECT":" ","MAREA":" ","LANE":"２２６巷","ALLEY":"３弄","HOUSE_NO":"６號四樓之１","E_COORD97":171959.04999999999,"N_COORD97":2546002.0299999998,"ADDRESS":"南工街２２６巷３弄６號四樓之１","OBJECTID":18810},"geometry":{"x":171959.04999999888,"y":2546002.0299999993}},{"attributes":{"ID":18811,"DIS_CODE":0,"TOWNNAME":"永康區","LI":"二王里","LIN":"47鄰","STREET":"南工街","SECT":" ","MAREA":" ","LANE":"２２６巷","ALLEY":"３弄","HOUSE_NO":"７號八樓之１","E_COORD97":171948.06,"N_COORD97":2545994.3500000001,"ADDRESS":"南工街２２６巷３弄７號八樓之１","OBJECTID":18811},"geometry":{"x":171948.05999999959,"y":2545994.3499999996}},{"attributes":{"ID":18812,"DIS_CODE":0,"TOWNNAME":"永康區","LI":"二王里","LIN":"47鄰","STREET":"南工街","SECT":" ","MAREA":" ","LANE":"２２６巷","ALLEY":"１弄","HOUSE_NO":"１號三樓之２","E_COORD97":171985.04999999999,"N_COORD97":2546024.98,"ADDRESS":"南工街２２６巷１弄１號三樓之２","OBJECTID":18812},"geometry":{"x":171985.05000000075,"y":2546024.9799999986}},{"attributes":{"ID":18813,"DIS_CODE":0,"TOWNNAME":"永康區","LI":"二王里","LIN":"47鄰","STREET":"南工街","SECT":" ","MAREA":" ","LANE":"２２６巷","ALLEY":"１弄","HOUSE_NO":"９號八樓之１","E_COORD97":171944.73000000001,"N_COORD97":2546029.73,"ADDRESS":"南工街２２６巷１弄９號八樓之１","OBJECTID":18813},"geometry":{"x":171944.73000000045,"y":2546029.7300000004}},{"attributes":{"ID":18814,"DIS_CODE":0,"TOWNNAME":"永康區","LI":"二王里","LIN":"47鄰","STREET":"南工街","SECT":" ","MAREA":" ","LANE":"２２６巷","ALLEY":"３弄","HOUSE_NO":"１號二樓之２","E_COORD97":171977.98000000001,"N_COORD97":2545990.6000000001,"ADDRESS":"南工街２２６巷３弄１號二樓之２","OBJECTID":18814},"geometry":{"x":171977.98000000138,"y":2545990.6000000015}},{"attributes":{"ID":18815,"DIS_CODE":0,"TOWNNAME":"永康區","LI":"二王里","LIN":"47鄰","STREET":"南工街","SECT":" ","MAREA":" ","LANE":"２２６巷","ALLEY":"３弄","HOUSE_NO":"３號八樓之１","E_COORD97":171967.48999999999,"N_COORD97":2545991.6000000001,"ADDRESS":"南工街２２６巷３弄３號八樓之１","OBJECTID":18815},"geometry":{"x":171967.49000000115,"y":2545991.5999999996}},{"attributes":{"ID":18816,"DIS_CODE":0,"TOWNNAME":"永康區","LI":"二王里","LIN":"47鄰","STREET":"南工街","SECT":" ","MAREA":" ","LANE":"２２６巷","ALLEY":"３弄","HOUSE_NO":"３號二樓之１","E_COORD97":171967.48999999999,"N_COORD97":2545991.6000000001,"ADDRESS":"南工街２２６巷３弄３號二樓之１","OBJECTID":18816},"geometry":{"x":171967.49000000115,"y":2545991.5999999996}},{"attributes":{"ID":18817,"DIS_CODE":0,"TOWNNAME":"永康區","LI":"二王里","LIN":"47鄰","STREET":"南工街","SECT":" ","MAREA":" ","LANE":"２２６巷","ALLEY":"３弄","HOUSE_NO":"６號三樓之２","E_COORD97":171959.19,"N_COORD97":2546002.0299999998,"ADDRESS":"南工街２２６巷３弄６號三樓之２","OBJECTID":18817},"geometry":{"x":171959.19000000134,"y":2546002.0299999993}},{"attributes":{"ID":18818,"DIS_CODE":0,"TOWNNAME":"永康區","LI":"二王里","LIN":"47鄰","STREET":"南工街","SECT":" ","MAREA":" ","LANE":"２２６巷","ALLEY":"１弄","HOUSE_NO":"１０號六樓之２","E_COORD97":171948.26000000001,"N_COORD97":2546040.5,"ADDRESS":"南工街２２６巷１弄１０號六樓之２","OBJECTID":18818},"geometry":{"x":171948.26000000071,"y":2546040.5}},{"attributes":{"ID":18819,"DIS_CODE":0,"TOWNNAME":"永康區","LI":"二王里","LIN":"47鄰","STREET":"南工街","SECT":" ","MAREA":" ","LANE":"２２６巷","ALLEY":"１弄","HOUSE_NO":"１０號八樓之２","E_COORD97":171948.26000000001,"N_COORD97":2546040.5,"ADDRESS":"南工街２２６巷１弄１０號八樓之２","OBJECTID":18819},"geometry":{"x":171948.26000000071,"y":2546040.5}},{"attributes":{"ID":18820,"DIS_CODE":0,"TOWNNAME":"永康區","LI":"二王里","LIN":"47鄰","STREET":"南工街","SECT":" ","MAREA":" ","LANE":"２２６巷","ALLEY":"３弄","HOUSE_NO":"３號六樓之１","E_COORD97":171967.48999999999,"N_COORD97":2545991.6000000001,"ADDRESS":"南工街２２６巷３弄３號六樓之１","OBJECTID":18820},"geometry":{"x":171967.49000000115,"y":2545991.5999999996}},{"attributes":{"ID":18821,"DIS_CODE":0,"TOWNNAME":"永康區","LI":"二王里","LIN":"47鄰","STREET":"南工街","SECT":" ","MAREA":" ","LANE":"２２６巷","ALLEY":"３弄","HOUSE_NO":"３號七樓之１","E_COORD97":171967.48999999999,"N_COORD97":2545991.6000000001,"ADDRESS":"南工街２２６巷３弄３號七樓之１","OBJECTID":18821},"geometry":{"x":171967.49000000115,"y":2545991.5999999996}},{"attributes":{"ID":18822,"DIS_CODE":0,"TOWNNAME":"永康區","LI":"二王里","LIN":"47鄰","STREET":"南工街","SECT":" ","MAREA":" ","LANE":"２２６巷","ALLEY":"３弄","HOUSE_NO":"２號三樓之１","E_COORD97":171982.32999999999,"N_COORD97":2545999.0299999998,"ADDRESS":"南工街２２６巷３弄２號三樓之１","OBJECTID":18822},"geometry":{"x":171982.33000000007,"y":2545999.0299999993}},{"attributes":{"ID":18823,"DIS_CODE":0,"TOWNNAME":"永康區","LI":"二王里","LIN":"47鄰","STREET":"南工街","SECT":" ","MAREA":" ","LANE":"２２６巷","ALLEY":"１弄","HOUSE_NO":"１０號七樓之２","E_COORD97":171948.26000000001,"N_COORD97":2546040.5,"ADDRESS":"南工街２２６巷１弄１０號七樓之２","OBJECTID":18823},"geometry":{"x":171948.26000000071,"y":2546040.5}},{"attributes":{"ID":18824,"DIS_CODE":0,"TOWNNAME":"永康區","LI":"二王里","LIN":"47鄰","STREET":"南工街","SECT":" ","MAREA":" ","LANE":"２２６巷","ALLEY":"３弄","HOUSE_NO":"６號七樓之１","E_COORD97":171959.04999999999,"N_COORD97":2546002.0299999998,"ADDRESS":"南工街２２６巷３弄６號七樓之１","OBJECTID":18824},"geometry":{"x":171959.04999999888,"y":2546002.0299999993}},{"attributes":{"ID":18825,"DIS_CODE":0,"TOWNNAME":"西港區","LI":"西港里","LIN":"14鄰","STREET":" ","SECT":" ","MAREA":"西港","LANE":" ","ALLEY":" ","HOUSE_NO":"５５號之１６","E_COORD97":168563.45999999999,"N_COORD97":2557848.8900000001,"ADDRESS":"西港５５號之１６","OBJECTID":18825},"geometry":{"x":168563.46000000089,"y":2557848.8900000025}},{"attributes":{"ID":18826,"DIS_CODE":0,"TOWNNAME":"永康區","LI":"二王里","LIN":"47鄰","STREET":"南工街","SECT":" ","MAREA":" ","LANE":"２２６巷","ALLEY":"１弄","HOUSE_NO":"２號三樓之１","E_COORD97":171984.51999999999,"N_COORD97":2546036.2599999998,"ADDRESS":"南工街２２６巷１弄２號三樓之１","OBJECTID":18826},"geometry":{"x":171984.52000000142,"y":2546036.2600000035}},{"attributes":{"ID":18827,"DIS_CODE":0,"TOWNNAME":"永康區","LI":"二王里","LIN":"47鄰","STREET":"南工街","SECT":" ","MAREA":" ","LANE":"２２６巷","ALLEY":"１弄","HOUSE_NO":"６號七樓之１","E_COORD97":171965.41,"N_COORD97":2546038.2599999998,"ADDRESS":"南工街２２６巷１弄６號七樓之１","OBJECTID":18827},"geometry":{"x":171965.40999999922,"y":2546038.2599999998}},{"attributes":{"ID":18828,"DIS_CODE":0,"TOWNNAME":"永康區","LI":"二王里","LIN":"47鄰","STREET":"南工街","SECT":" ","MAREA":" ","LANE":"２２６巷","ALLEY":"１弄","HOUSE_NO":"６號七樓之２","E_COORD97":171965.54999999999,"N_COORD97":2546038.2599999998,"ADDRESS":"南工街２２６巷１弄６號七樓之２","OBJECTID":18828},"geometry":{"x":171965.54999999981,"y":2546038.2599999998}},{"attributes":{"ID":18829,"DIS_CODE":0,"TOWNNAME":"新營區","LI":"民榮里","LIN":"24鄰","STREET":"裕民路","SECT":" ","MAREA":" ","LANE":" ","ALLEY":" ","HOUSE_NO":"１４之２號五樓之４","E_COORD97":179132.48999999999,"N_COORD97":2577936.8199999998,"ADDRESS":"裕民路１４之２號五樓之４","OBJECTID":18829},"geometry":{"x":179132.49000000115,"y":2577936.8200000022}},{"attributes":{"ID":18830,"DIS_CODE":0,"TOWNNAME":"永康區","LI":"二王里","LIN":"47鄰","STREET":"南工街","SECT":" ","MAREA":" ","LANE":"２２６巷","ALLEY":"１弄","HOUSE_NO":"９號四樓之１","E_COORD97":171944.73000000001,"N_COORD97":2546029.73,"ADDRESS":"南工街２２６巷１弄９號四樓之１","OBJECTID":18830},"geometry":{"x":171944.73000000045,"y":2546029.7300000004}},{"attributes":{"ID":18831,"DIS_CODE":0,"TOWNNAME":"永康區","LI":"二王里","LIN":"47鄰","STREET":"南工街","SECT":" ","MAREA":" ","LANE":"２２６巷","ALLEY":"３弄","HOUSE_NO":"６號三樓之１","E_COORD97":171959.04999999999,"N_COORD97":2546002.0299999998,"ADDRESS":"南工街２２６巷３弄６號三樓之１","OBJECTID":18831},"geometry":{"x":171959.04999999888,"y":2546002.0299999993}},{"attributes":{"ID":18832,"DIS_CODE":0,"TOWNNAME":"永康區","LI":"二王里","LIN":"47鄰","STREET":"南工街","SECT":" ","MAREA":" ","LANE":"２２６巷","ALLEY":"３弄","HOUSE_NO":"６號六樓之１","E_COORD97":171959.04999999999,"N_COORD97":2546002.0299999998,"ADDRESS":"南工街２２６巷３弄６號六樓之１","OBJECTID":18832},"geometry":{"x":171959.04999999888,"y":2546002.0299999993}},{"attributes":{"ID":18833,"DIS_CODE":0,"TOWNNAME":"永康區","LI":"二王里","LIN":"47鄰","STREET":"南工街","SECT":" ","MAREA":" ","LANE":"２２６巷","ALLEY":"３弄","HOUSE_NO":"２號六樓之２","E_COORD97":171982.47,"N_COORD97":2545999.0299999998,"ADDRESS":"南工街２２６巷３弄２號六樓之２","OBJECTID":18833},"geometry":{"x":171982.47000000067,"y":2545999.0299999993}},{"attributes":{"ID":18834,"DIS_CODE":0,"TOWNNAME":"永康區","LI":"二王里","LIN":"47鄰","STREET":"南工街","SECT":" ","MAREA":" ","LANE":"２２６巷","ALLEY":"１弄","HOUSE_NO":"１號四樓之１","E_COORD97":171984.91,"N_COORD97":2546024.98,"ADDRESS":"南工街２２６巷１弄１號四樓之１","OBJECTID":18834},"geometry":{"x":171984.91000000108,"y":2546024.9799999986}},{"attributes":{"ID":18835,"DIS_CODE":0,"TOWNNAME":"永康區","LI":"二王里","LIN":"47鄰","STREET":"南工街","SECT":" ","MAREA":" ","LANE":"２２６巷","ALLEY":"３弄","HOUSE_NO":"１號七樓之２","E_COORD97":171977.98000000001,"N_COORD97":2545990.6000000001,"ADDRESS":"南工街２２６巷３弄１號七樓之２","OBJECTID":18835},"geometry":{"x":171977.98000000138,"y":2545990.6000000015}},{"attributes":{"ID":18836,"DIS_CODE":0,"TOWNNAME":"永康區","LI":"二王里","LIN":"47鄰","STREET":"南工街","SECT":" ","MAREA":" ","LANE":"２２６巷","ALLEY":"３弄","HOUSE_NO":"７號七樓之１","E_COORD97":171948.06,"N_COORD97":2545994.3500000001,"ADDRESS":"南工街２２６巷３弄７號七樓之１","OBJECTID":18836},"geometry":{"x":171948.05999999959,"y":2545994.3499999996}},{"attributes":{"ID":18837,"DIS_CODE":0,"TOWNNAME":"新市區","LI":"潭頂里","LIN":"14鄰","STREET":" ","SECT":" ","MAREA":"潭頂","LANE":" ","ALLEY":" ","HOUSE_NO":"５４７號","E_COORD97":180156.67000000001,"N_COORD97":2552955.25,"ADDRESS":"潭頂５４７號","OBJECTID":18837},"geometry":{"x":180156.67000000086,"y":2552955.25}},{"attributes":{"ID":18838,"DIS_CODE":0,"TOWNNAME":"西港區","LI":"營西里","LIN":"14鄰","STREET":" ","SECT":" ","MAREA":"後營","LANE":" ","ALLEY":" ","HOUSE_NO":"１１０號之６","E_COORD97":169848.07000000001,"N_COORD97":2560378.9900000002,"ADDRESS":"後營１１０號之６","OBJECTID":18838},"geometry":{"x":169848.07000000123,"y":2560378.9900000002}},{"attributes":{"ID":18839,"DIS_CODE":0,"TOWNNAME":"永康區","LI":"二王里","LIN":"47鄰","STREET":"南工街","SECT":" ","MAREA":" ","LANE":"２２６巷","ALLEY":"３弄","HOUSE_NO":"１０號三樓之１","E_COORD97":171943.32999999999,"N_COORD97":2546004.0299999998,"ADDRESS":"南工街２２６巷３弄１０號三樓之１","OBJECTID":18839},"geometry":{"x":171943.33000000007,"y":2546004.0300000012}},{"attributes":{"ID":18840,"DIS_CODE":0,"TOWNNAME":"永康區","LI":"二王里","LIN":"47鄰","STREET":"南工街","SECT":" ","MAREA":" ","LANE":"２２６巷","ALLEY":"３弄","HOUSE_NO":"１０號六樓之２","E_COORD97":171943.47,"N_COORD97":2546004.0299999998,"ADDRESS":"南工街２２６巷３弄１０號六樓之２","OBJECTID":18840},"geometry":{"x":171943.47000000067,"y":2546004.0300000012}},{"attributes":{"ID":18841,"DIS_CODE":0,"TOWNNAME":"永康區","LI":"二王里","LIN":"47鄰","STREET":"南工街","SECT":" ","MAREA":" ","LANE":"２２６巷","ALLEY":"３弄","HOUSE_NO":"３號六樓之２","E_COORD97":171967.63,"N_COORD97":2545991.6000000001,"ADDRESS":"南工街２２６巷３弄３號六樓之２","OBJECTID":18841},"geometry":{"x":171967.63000000082,"y":2545991.5999999996}},{"attributes":{"ID":18842,"DIS_CODE":0,"TOWNNAME":"永康區","LI":"二王里","LIN":"47鄰","STREET":"南工街","SECT":" ","MAREA":" ","LANE":"２２６巷","ALLEY":"３弄","HOUSE_NO":"１０號三樓之２","E_COORD97":171943.47,"N_COORD97":2546004.0299999998,"ADDRESS":"南工街２２６巷３弄１０號三樓之２","OBJECTID":18842},"geometry":{"x":171943.47000000067,"y":2546004.0300000012}},{"attributes":{"ID":18843,"DIS_CODE":0,"TOWNNAME":"永康區","LI":"二王里","LIN":"47鄰","STREET":"南工街","SECT":" ","MAREA":" ","LANE":"２２６巷","ALLEY":"３弄","HOUSE_NO":"１號六樓之２","E_COORD97":171977.98000000001,"N_COORD97":2545990.6000000001,"ADDRESS":"南工街２２６巷３弄１號六樓之２","OBJECTID":18843},"geometry":{"x":171977.98000000138,"y":2545990.6000000015}},{"attributes":{"ID":18844,"DIS_CODE":0,"TOWNNAME":"永康區","LI":"二王里","LIN":"47鄰","STREET":"南工街","SECT":" ","MAREA":" ","LANE":"２２６巷","ALLEY":"３弄","HOUSE_NO":"７號五樓之２","E_COORD97":171948.20000000001,"N_COORD97":2545994.3500000001,"ADDRESS":"南工街２２６巷３弄７號五樓之２","OBJECTID":18844},"geometry":{"x":171948.20000000019,"y":2545994.3499999996}},{"attributes":{"ID":18845,"DIS_CODE":0,"TOWNNAME":"永康區","LI":"二王里","LIN":"47鄰","STREET":"南工街","SECT":" ","MAREA":" ","LANE":"２２６巷","ALLEY":"１弄","HOUSE_NO":"１０號八樓之１","E_COORD97":171948.12,"N_COORD97":2546040.5,"ADDRESS":"南工街２２６巷１弄１０號八樓之１","OBJECTID":18845},"geometry":{"x":171948.12000000011,"y":2546040.5}},{"attributes":{"ID":18846,"DIS_CODE":0,"TOWNNAME":"永康區","LI":"二王里","LIN":"47鄰","STREET":"南工街","SECT":" ","MAREA":" ","LANE":"２２６巷","ALLEY":"１弄","HOUSE_NO":"９號八樓之２","E_COORD97":171944.87,"N_COORD97":2546029.73,"ADDRESS":"南工街２２６巷１弄９號八樓之２","OBJECTID":18846},"geometry":{"x":171944.87000000011,"y":2546029.7300000004}},{"attributes":{"ID":18847,"DIS_CODE":0,"TOWNNAME":"永康區","LI":"二王里","LIN":"47鄰","STREET":"南工街","SECT":" ","MAREA":" ","LANE":"２２６巷","ALLEY":"１弄","HOUSE_NO":"９號二樓之２","E_COORD97":171944.87,"N_COORD97":2546029.73,"ADDRESS":"南工街２２６巷１弄９號二樓之２","OBJECTID":18847},"geometry":{"x":171944.87000000011,"y":2546029.7300000004}},{"attributes":{"ID":18848,"DIS_CODE":0,"TOWNNAME":"永康區","LI":"二王里","LIN":"47鄰","STREET":"南工街","SECT":" ","MAREA":" ","LANE":"２２６巷","ALLEY":"３弄","HOUSE_NO":"１號七樓之１","E_COORD97":171977.84,"N_COORD97":2545990.6000000001,"ADDRESS":"南工街２２６巷３弄１號七樓之１","OBJECTID":18848},"geometry":{"x":171977.84000000078,"y":2545990.6000000015}},{"attributes":{"ID":18849,"DIS_CODE":0,"TOWNNAME":"永康區","LI":"二王里","LIN":"47鄰","STREET":"南工街","SECT":" ","MAREA":" ","LANE":"２２６巷","ALLEY":"１弄","HOUSE_NO":"９號六樓之２","E_COORD97":171944.87,"N_COORD97":2546029.73,"ADDRESS":"南工街２２６巷１弄９號六樓之２","OBJECTID":18849},"geometry":{"x":171944.87000000011,"y":2546029.7300000004}},{"attributes":{"ID":18850,"DIS_CODE":0,"TOWNNAME":"永康區","LI":"二王里","LIN":"47鄰","STREET":"南工街","SECT":" ","MAREA":" ","LANE":"２２６巷","ALLEY":"３弄","HOUSE_NO":"２號四樓之１","E_COORD97":171982.32999999999,"N_COORD97":2545999.0299999998,"ADDRESS":"南工街２２６巷３弄２號四樓之１","OBJECTID":18850},"geometry":{"x":171982.33000000007,"y":2545999.0299999993}},{"attributes":{"ID":18851,"DIS_CODE":0,"TOWNNAME":"永康區","LI":"二王里","LIN":"47鄰","STREET":"南工街","SECT":" ","MAREA":" ","LANE":"２２６巷","ALLEY":"３弄","HOUSE_NO":"１０號七樓之２","E_COORD97":171943.47,"N_COORD97":2546004.0299999998,"ADDRESS":"南工街２２６巷３弄１０號七樓之２","OBJECTID":18851},"geometry":{"x":171943.47000000067,"y":2546004.0300000012}},{"attributes":{"ID":18852,"DIS_CODE":0,"TOWNNAME":"永康區","LI":"二王里","LIN":"47鄰","STREET":"南工街","SECT":" ","MAREA":" ","LANE":"２２６巷","ALLEY":"３弄","HOUSE_NO":"２號七樓之１","E_COORD97":171982.32999999999,"N_COORD97":2545999.0299999998,"ADDRESS":"南工街２２６巷３弄２號七樓之１","OBJECTID":18852},"geometry":{"x":171982.33000000007,"y":2545999.0299999993}},{"attributes":{"ID":18853,"DIS_CODE":0,"TOWNNAME":"永康區","LI":"二王里","LIN":"47鄰","STREET":"南工街","SECT":" ","MAREA":" ","LANE":"２２６巷","ALLEY":"３弄","HOUSE_NO":"３號五樓之１","E_COORD97":171967.48999999999,"N_COORD97":2545991.6000000001,"ADDRESS":"南工街２２６巷３弄３號五樓之１","OBJECTID":18853},"geometry":{"x":171967.49000000115,"y":2545991.5999999996}},{"attributes":{"ID":18854,"DIS_CODE":0,"TOWNNAME":"永康區","LI":"二王里","LIN":"47鄰","STREET":"南工街","SECT":" ","MAREA":" ","LANE":"２２６巷","ALLEY":"１弄","HOUSE_NO":"１０號六樓之１","E_COORD97":171948.12,"N_COORD97":2546040.5,"ADDRESS":"南工街２２６巷１弄１０號六樓之１","OBJECTID":18854},"geometry":{"x":171948.12000000011,"y":2546040.5}},{"attributes":{"ID":18855,"DIS_CODE":0,"TOWNNAME":"永康區","LI":"二王里","LIN":"47鄰","STREET":"南工街","SECT":" ","MAREA":" ","LANE":"２２６巷","ALLEY":"３弄","HOUSE_NO":"１號五樓之２","E_COORD97":171977.98000000001,"N_COORD97":2545990.6000000001,"ADDRESS":"南工街２２６巷３弄１號五樓之２","OBJECTID":18855},"geometry":{"x":171977.98000000138,"y":2545990.6000000015}},{"attributes":{"ID":18856,"DIS_CODE":0,"TOWNNAME":"永康區","LI":"二王里","LIN":"47鄰","STREET":"南工街","SECT":" ","MAREA":" ","LANE":"２２６巷","ALLEY":"３弄","HOUSE_NO":"７號二樓之１","E_COORD97":171948.06,"N_COORD97":2545994.3500000001,"ADDRESS":"南工街２２６巷３弄７號二樓之１","OBJECTID":18856},"geometry":{"x":171948.05999999959,"y":2545994.3499999996}},{"attributes":{"ID":18857,"DIS_CODE":0,"TOWNNAME":"永康區","LI":"二王里","LIN":"47鄰","STREET":"南工街","SECT":" ","MAREA":" ","LANE":"２２６巷","ALLEY":"３弄","HOUSE_NO":"１０號四樓之２","E_COORD97":171943.47,"N_COORD97":2546004.0299999998,"ADDRESS":"南工街２２６巷３弄１０號四樓之２","OBJECTID":18857},"geometry":{"x":171943.47000000067,"y":2546004.0300000012}},{"attributes":{"ID":18858,"DIS_CODE":0,"TOWNNAME":"永康區","LI":"二王里","LIN":"47鄰","STREET":"南工街","SECT":" ","MAREA":" ","LANE":"２２６巷","ALLEY":"３弄","HOUSE_NO":"６號五樓之２","E_COORD97":171959.19,"N_COORD97":2546002.0299999998,"ADDRESS":"南工街２２６巷３弄６號五樓之２","OBJECTID":18858},"geometry":{"x":171959.19000000134,"y":2546002.0299999993}},{"attributes":{"ID":18859,"DIS_CODE":0,"TOWNNAME":"永康區","LI":"二王里","LIN":"47鄰","STREET":"南工街","SECT":" ","MAREA":" ","LANE":"２２６巷","ALLEY":"１弄","HOUSE_NO":"９號七樓之１","E_COORD97":171944.73000000001,"N_COORD97":2546029.73,"ADDRESS":"南工街２２６巷１弄９號七樓之１","OBJECTID":18859},"geometry":{"x":171944.73000000045,"y":2546029.7300000004}},{"attributes":{"ID":18860,"DIS_CODE":0,"TOWNNAME":"永康區","LI":"二王里","LIN":"47鄰","STREET":"南工街","SECT":" ","MAREA":" ","LANE":"２２６巷","ALLEY":"１弄","HOUSE_NO":"１０號四樓之２","E_COORD97":171948.26000000001,"N_COORD97":2546040.5,"ADDRESS":"南工街２２６巷１弄１０號四樓之２","OBJECTID":18860},"geometry":{"x":171948.26000000071,"y":2546040.5}},{"attributes":{"ID":18861,"DIS_CODE":0,"TOWNNAME":"永康區","LI":"二王里","LIN":"47鄰","STREET":"南工街","SECT":" ","MAREA":" ","LANE":"２２６巷","ALLEY":"３弄","HOUSE_NO":"２號六樓之１","E_COORD97":171982.32999999999,"N_COORD97":2545999.0299999998,"ADDRESS":"南工街２２６巷３弄２號六樓之１","OBJECTID":18861},"geometry":{"x":171982.33000000007,"y":2545999.0299999993}},{"attributes":{"ID":18862,"DIS_CODE":0,"TOWNNAME":"永康區","LI":"二王里","LIN":"47鄰","STREET":"南工街","SECT":" ","MAREA":" ","LANE":"２２６巷","ALLEY":"３弄","HOUSE_NO":"３號八樓之２","E_COORD97":171967.63,"N_COORD97":2545991.6000000001,"ADDRESS":"南工街２２６巷３弄３號八樓之２","OBJECTID":18862},"geometry":{"x":171967.63000000082,"y":2545991.5999999996}},{"attributes":{"ID":18863,"DIS_CODE":0,"TOWNNAME":"永康區","LI":"二王里","LIN":"47鄰","STREET":"南工街","SECT":" ","MAREA":" ","LANE":"２２６巷","ALLEY":"３弄","HOUSE_NO":"７號四樓之２","E_COORD97":171948.20000000001,"N_COORD97":2545994.3500000001,"ADDRESS":"南工街２２６巷３弄７號四樓之２","OBJECTID":18863},"geometry":{"x":171948.20000000019,"y":2545994.3499999996}},{"attributes":{"ID":18864,"DIS_CODE":0,"TOWNNAME":"永康區","LI":"二王里","LIN":"47鄰","STREET":"南工街","SECT":" ","MAREA":" ","LANE":"２２６巷","ALLEY":"１弄","HOUSE_NO":"９號五樓之１","E_COORD97":171944.73000000001,"N_COORD97":2546029.73,"ADDRESS":"南工街２２６巷１弄９號五樓之１","OBJECTID":18864},"geometry":{"x":171944.73000000045,"y":2546029.7300000004}},{"attributes":{"ID":18865,"DIS_CODE":0,"TOWNNAME":"永康區","LI":"二王里","LIN":"47鄰","STREET":"南工街","SECT":" ","MAREA":" ","LANE":"２２６巷","ALLEY":"１弄","HOUSE_NO":"１０號五樓之２","E_COORD97":171948.26000000001,"N_COORD97":2546040.5,"ADDRESS":"南工街２２６巷１弄１０號五樓之２","OBJECTID":18865},"geometry":{"x":171948.26000000071,"y":2546040.5}},{"attributes":{"ID":18866,"DIS_CODE":0,"TOWNNAME":"永康區","LI":"二王里","LIN":"47鄰","STREET":"南工街","SECT":" ","MAREA":" ","LANE":"２２６巷","ALLEY":"１弄","HOUSE_NO":"１０號三樓之２","E_COORD97":171948.26000000001,"N_COORD97":2546040.5,"ADDRESS":"南工街２２６巷１弄１０號三樓之２","OBJECTID":18866},"geometry":{"x":171948.26000000071,"y":2546040.5}},{"attributes":{"ID":18867,"DIS_CODE":0,"TOWNNAME":"永康區","LI":"二王里","LIN":"47鄰","STREET":"南工街","SECT":" ","MAREA":" ","LANE":"２２６巷","ALLEY":"３弄","HOUSE_NO":"１０號二樓之２","E_COORD97":171943.47,"N_COORD97":2546004.0299999998,"ADDRESS":"南工街２２６巷３弄１０號二樓之２","OBJECTID":18867},"geometry":{"x":171943.47000000067,"y":2546004.0300000012}},{"attributes":{"ID":18868,"DIS_CODE":0,"TOWNNAME":"永康區","LI":"二王里","LIN":"47鄰","STREET":"南工街","SECT":" ","MAREA":" ","LANE":"２２６巷","ALLEY":"１弄","HOUSE_NO":"１０號五樓之１","E_COORD97":171948.12,"N_COORD97":2546040.5,"ADDRESS":"南工街２２６巷１弄１０號五樓之１","OBJECTID":18868},"geometry":{"x":171948.12000000011,"y":2546040.5}},{"attributes":{"ID":18869,"DIS_CODE":0,"TOWNNAME":"永康區","LI":"二王里","LIN":"47鄰","STREET":"南工街","SECT":" ","MAREA":" ","LANE":"２２６巷","ALLEY":"３弄","HOUSE_NO":"６號二樓之１","E_COORD97":171959.04999999999,"N_COORD97":2546002.0299999998,"ADDRESS":"南工街２２６巷３弄６號二樓之１","OBJECTID":18869},"geometry":{"x":171959.04999999888,"y":2546002.0299999993}},{"attributes":{"ID":18870,"DIS_CODE":0,"TOWNNAME":"永康區","LI":"二王里","LIN":"47鄰","STREET":"南工街","SECT":" ","MAREA":" ","LANE":"２２６巷","ALLEY":"３弄","HOUSE_NO":"７號六樓之１","E_COORD97":171948.06,"N_COORD97":2545994.3500000001,"ADDRESS":"南工街２２６巷３弄７號六樓之１","OBJECTID":18870},"geometry":{"x":171948.05999999959,"y":2545994.3499999996}},{"attributes":{"ID":18871,"DIS_CODE":0,"TOWNNAME":"永康區","LI":"二王里","LIN":"47鄰","STREET":"南工街","SECT":" ","MAREA":" ","LANE":"２２６巷","ALLEY":"３弄","HOUSE_NO":"１０號四樓之１","E_COORD97":171943.32999999999,"N_COORD97":2546004.0299999998,"ADDRESS":"南工街２２６巷３弄１０號四樓之１","OBJECTID":18871},"geometry":{"x":171943.33000000007,"y":2546004.0300000012}},{"attributes":{"ID":18872,"DIS_CODE":0,"TOWNNAME":"永康區","LI":"二王里","LIN":"47鄰","STREET":"南工街","SECT":" ","MAREA":" ","LANE":"２２６巷","ALLEY":"１弄","HOUSE_NO":"６號八樓之２","E_COORD97":171965.54999999999,"N_COORD97":2546038.2599999998,"ADDRESS":"南工街２２６巷１弄６號八樓之２","OBJECTID":18872},"geometry":{"x":171965.54999999981,"y":2546038.2599999998}},{"attributes":{"ID":18873,"DIS_CODE":0,"TOWNNAME":"永康區","LI":"二王里","LIN":"47鄰","STREET":"南工街","SECT":" ","MAREA":" ","LANE":"２２６巷","ALLEY":"１弄","HOUSE_NO":"１０號四樓之１","E_COORD97":171948.12,"N_COORD97":2546040.5,"ADDRESS":"南工街２２６巷１弄１０號四樓之１","OBJECTID":18873},"geometry":{"x":171948.12000000011,"y":2546040.5}},{"attributes":{"ID":18874,"DIS_CODE":0,"TOWNNAME":"永康區","LI":"二王里","LIN":"47鄰","STREET":"南工街","SECT":" ","MAREA":" ","LANE":"２２６巷","ALLEY":"１弄","HOUSE_NO":"９號四樓之２","E_COORD97":171944.87,"N_COORD97":2546029.73,"ADDRESS":"南工街２２６巷１弄９號四樓之２","OBJECTID":18874},"geometry":{"x":171944.87000000011,"y":2546029.7300000004}},{"attributes":{"ID":18875,"DIS_CODE":0,"TOWNNAME":"永康區","LI":"二王里","LIN":"47鄰","STREET":"南工街","SECT":" ","MAREA":" ","LANE":"２２６巷","ALLEY":"１弄","HOUSE_NO":"１０號七樓之１","E_COORD97":171948.12,"N_COORD97":2546040.5,"ADDRESS":"南工街２２６巷１弄１０號七樓之１","OBJECTID":18875},"geometry":{"x":171948.12000000011,"y":2546040.5}},{"attributes":{"ID":18876,"DIS_CODE":0,"TOWNNAME":"永康區","LI":"二王里","LIN":"47鄰","STREET":"南工街","SECT":" ","MAREA":" ","LANE":"２２６巷","ALLEY":"１弄","HOUSE_NO":"９號五樓之２","E_COORD97":171944.87,"N_COORD97":2546029.73,"ADDRESS":"南工街２２６巷１弄９號五樓之２","OBJECTID":18876},"geometry":{"x":171944.87000000011,"y":2546029.7300000004}},{"attributes":{"ID":18877,"DIS_CODE":0,"TOWNNAME":"永康區","LI":"二王里","LIN":"47鄰","STREET":"南工街","SECT":" ","MAREA":" ","LANE":"２２６巷","ALLEY":"１弄","HOUSE_NO":"９號七樓之２","E_COORD97":171944.87,"N_COORD97":2546029.73,"ADDRESS":"南工街２２６巷１弄９號七樓之２","OBJECTID":18877},"geometry":{"x":171944.87000000011,"y":2546029.7300000004}},{"attributes":{"ID":18878,"DIS_CODE":0,"TOWNNAME":"西港區","LI":"西港里","LIN":"14鄰","STREET":" ","SECT":" ","MAREA":"西港","LANE":" ","ALLEY":" ","HOUSE_NO":"５５號之１７","E_COORD97":168562.62,"N_COORD97":2557852.71,"ADDRESS":"西港５５號之１７","OBJECTID":18878},"geometry":{"x":168562.62000000104,"y":2557852.7100000009}},{"attributes":{"ID":18879,"DIS_CODE":0,"TOWNNAME":"永康區","LI":"二王里","LIN":"47鄰","STREET":"南工街","SECT":" ","MAREA":" ","LANE":"２２６巷","ALLEY":"１弄","HOUSE_NO":"９號三樓之２","E_COORD97":171944.87,"N_COORD97":2546029.73,"ADDRESS":"南工街２２６巷１弄９號三樓之２","OBJECTID":18879},"geometry":{"x":171944.87000000011,"y":2546029.7300000004}},{"attributes":{"ID":18880,"DIS_CODE":0,"TOWNNAME":"永康區","LI":"二王里","LIN":"47鄰","STREET":"南工街","SECT":" ","MAREA":" ","LANE":"２２６巷","ALLEY":"１弄","HOUSE_NO":"９號二樓之１","E_COORD97":171944.73000000001,"N_COORD97":2546029.73,"ADDRESS":"南工街２２６巷１弄９號二樓之１","OBJECTID":18880},"geometry":{"x":171944.73000000045,"y":2546029.7300000004}},{"attributes":{"ID":18881,"DIS_CODE":0,"TOWNNAME":"永康區","LI":"二王里","LIN":"47鄰","STREET":"南工街","SECT":" ","MAREA":" ","LANE":"２２６巷","ALLEY":"１弄","HOUSE_NO":"８號","E_COORD97":171950.09,"N_COORD97":2546039.21,"ADDRESS":"南工街２２６巷１弄８號","OBJECTID":18881},"geometry":{"x":171950.08999999985,"y":2546039.2100000028}},{"attributes":{"ID":18882,"DIS_CODE":0,"TOWNNAME":"永康區","LI":"二王里","LIN":"47鄰","STREET":"南工街","SECT":" ","MAREA":" ","LANE":"２２６巷","ALLEY":"１弄","HOUSE_NO":"５號","E_COORD97":171958.39000000001,"N_COORD97":2546027.6800000002,"ADDRESS":"南工街２２６巷１弄５號","OBJECTID":18882},"geometry":{"x":171958.39000000153,"y":2546027.6800000016}},{"attributes":{"ID":18883,"DIS_CODE":0,"TOWNNAME":"永康區","LI":"二王里","LIN":"47鄰","STREET":"南工街","SECT":" ","MAREA":" ","LANE":"２２６巷","ALLEY":"１弄","HOUSE_NO":"６號","E_COORD97":171960.78,"N_COORD97":2546038.21,"ADDRESS":"南工街２２６巷１弄６號","OBJECTID":18883},"geometry":{"x":171960.78000000026,"y":2546038.2100000028}},{"attributes":{"ID":18884,"DIS_CODE":0,"TOWNNAME":"永康區","LI":"二王里","LIN":"47鄰","STREET":"南工街","SECT":" ","MAREA":" ","LANE":"２２６巷","ALLEY":"２弄","HOUSE_NO":"１４號","E_COORD97":172031.04999999999,"N_COORD97":2545991.5,"ADDRESS":"南工街２２６巷２弄１４號","OBJECTID":18884},"geometry":{"x":172031.05000000075,"y":2545991.5000000019}},{"attributes":{"ID":18885,"DIS_CODE":0,"TOWNNAME":"西港區","LI":"西港里","LIN":"14鄰","STREET":" ","SECT":" ","MAREA":"西港","LANE":" ","ALLEY":" ","HOUSE_NO":"５５號之１","E_COORD97":168587.29999999999,"N_COORD97":2557841.4199999999,"ADDRESS":"西港５５號之１","OBJECTID":18885},"geometry":{"x":168587.29999999888,"y":2557841.4200000018}},{"attributes":{"ID":18886,"DIS_CODE":0,"TOWNNAME":"西港區","LI":"西港里","LIN":"14鄰","STREET":" ","SECT":" ","MAREA":"西港","LANE":" ","ALLEY":" ","HOUSE_NO":"５５號之２","E_COORD97":168591.72,"N_COORD97":2557841.8100000001,"ADDRESS":"西港５５號之２","OBJECTID":18886},"geometry":{"x":168591.72000000067,"y":2557841.8100000042}},{"attributes":{"ID":18887,"DIS_CODE":0,"TOWNNAME":"西港區","LI":"西港里","LIN":"14鄰","STREET":" ","SECT":" ","MAREA":"西港","LANE":" ","ALLEY":" ","HOUSE_NO":"５５號之３","E_COORD97":168596.26999999999,"N_COORD97":2557842.6800000002,"ADDRESS":"西港５５號之３","OBJECTID":18887},"geometry":{"x":168596.27000000048,"y":2557842.6800000016}},{"attributes":{"ID":18888,"DIS_CODE":0,"TOWNNAME":"西港區","LI":"西港里","LIN":"14鄰","STREET":" ","SECT":" ","MAREA":"西港","LANE":" ","ALLEY":" ","HOUSE_NO":"５５號之５","E_COORD97":168600.72,"N_COORD97":2557843.0600000001,"ADDRESS":"西港５５號之５","OBJECTID":18888},"geometry":{"x":168600.71999999974,"y":2557843.0600000005}},{"attributes":{"ID":18889,"DIS_CODE":0,"TOWNNAME":"西港區","LI":"西港里","LIN":"14鄰","STREET":" ","SECT":" ","MAREA":"西港","LANE":" ","ALLEY":" ","HOUSE_NO":"５５號之６","E_COORD97":168605.32999999999,"N_COORD97":2557843.6200000001,"ADDRESS":"西港５５號之６","OBJECTID":18889},"geometry":{"x":168605.33000000007,"y":2557843.6200000048}},{"attributes":{"ID":18890,"DIS_CODE":0,"TOWNNAME":"永康區","LI":"二王里","LIN":"47鄰","STREET":"南工街","SECT":" ","MAREA":" ","LANE":"２２６巷","ALLEY":"３弄","HOUSE_NO":"９號","E_COORD97":171936.01000000001,"N_COORD97":2545995.5499999998,"ADDRESS":"南工街２２６巷３弄９號","OBJECTID":18890},"geometry":{"x":171936.01000000071,"y":2545995.5500000026}},{"attributes":{"ID":18891,"DIS_CODE":0,"TOWNNAME":"永康區","LI":"\u25A0行里","LIN":"47鄰","STREET":"新行街","SECT":" ","MAREA":" ","LANE":"４巷","ALLEY":"３０弄","HOUSE_NO":"１３號","E_COORD97":172377.20000000001,"N_COORD97":2548806.5699999998,"ADDRESS":"新行街４巷３０弄１３號","OBJECTID":18891},"geometry":{"x":172377.20000000205,"y":2548806.5700000003}},{"attributes":{"ID":18892,"DIS_CODE":0,"TOWNNAME":"歸仁區","LI":"後市里","LIN":"47鄰","STREET":"文化街","SECT":"二段","MAREA":" ","LANE":"１２１巷","ALLEY":"７弄","HOUSE_NO":"５號","E_COORD97":177198.84,"N_COORD97":2541143.7599999998,"ADDRESS":"文化街二段１２１巷７弄５號","OBJECTID":18892},"geometry":{"x":177198.84000000171,"y":2541143.7600000035}},{"attributes":{"ID":18893,"DIS_CODE":0,"TOWNNAME":"歸仁區","LI":"辜厝里","LIN":"47鄰","STREET":"民權九街","SECT":" ","MAREA":" ","LANE":"５６巷","ALLEY":"９弄","HOUSE_NO":"２號","E_COORD97":177101.62,"N_COORD97":2540300.0299999998,"ADDRESS":"民權九街５６巷９弄２號","OBJECTID":18893},"geometry":{"x":177101.62000000011,"y":2540300.0299999993}},{"attributes":{"ID":18894,"DIS_CODE":0,"TOWNNAME":"歸仁區","LI":"後市里","LIN":"47鄰","STREET":"文化街","SECT":"二段","MAREA":" ","LANE":"１２１巷","ALLEY":"７弄","HOUSE_NO":"１３號","E_COORD97":177215.48999999999,"N_COORD97":2541141.7599999998,"ADDRESS":"文化街二段１２１巷７弄１３號","OBJECTID":18894},"geometry":{"x":177215.49000000115,"y":2541141.7600000016}},{"attributes":{"ID":18895,"DIS_CODE":0,"TOWNNAME":"永康區","LI":"二王里","LIN":"47鄰","STREET":"南工街","SECT":" ","MAREA":" ","LANE":"２２６巷","ALLEY":"１弄","HOUSE_NO":"６號六樓之１","E_COORD97":171965.41,"N_COORD97":2546038.2599999998,"ADDRESS":"南工街２２６巷１弄６號六樓之１","OBJECTID":18895},"geometry":{"x":171965.40999999922,"y":2546038.2599999998}},{"attributes":{"ID":18896,"DIS_CODE":0,"TOWNNAME":"官田區","LI":"二鎮里","LIN":"14鄰","STREET":" ","SECT":" ","MAREA":"程泰","LANE":" ","ALLEY":" ","HOUSE_NO":"７６號","E_COORD97":182064.31,"N_COORD97":2566745.5899999999,"ADDRESS":"程泰７６號","OBJECTID":18896},"geometry":{"x":182064.31000000052,"y":2566745.589999998}},{"attributes":{"ID":18897,"DIS_CODE":0,"TOWNNAME":"永康區","LI":"二王里","LIN":"47鄰","STREET":"南工街","SECT":" ","MAREA":" ","LANE":"２２６巷","ALLEY":"１弄","HOUSE_NO":"５號八樓之２","E_COORD97":171963.16,"N_COORD97":2546027.73,"ADDRESS":"南工街２２６巷１弄５號八樓之２","OBJECTID":18897},"geometry":{"x":171963.16000000015,"y":2546027.7300000023}},{"attributes":{"ID":18898,"DIS_CODE":0,"TOWNNAME":"永康區","LI":"\u25A0行里","LIN":"47鄰","STREET":"新行街","SECT":" ","MAREA":" ","LANE":"４巷","ALLEY":"３０弄","HOUSE_NO":"５號","E_COORD97":172360.14999999999,"N_COORD97":2548814.3199999998,"ADDRESS":"新行街４巷３０弄５號","OBJECTID":18898},"geometry":{"x":172360.15000000037,"y":2548814.3200000022}},{"attributes":{"ID":18899,"DIS_CODE":0,"TOWNNAME":"永康區","LI":"二王里","LIN":"47鄰","STREET":"南工街","SECT":" ","MAREA":" ","LANE":"２２６巷","ALLEY":"１弄","HOUSE_NO":"６號三樓之１","E_COORD97":171965.41,"N_COORD97":2546038.2599999998,"ADDRESS":"南工街２２６巷１弄６號三樓之１","OBJECTID":18899},"geometry":{"x":171965.40999999922,"y":2546038.2599999998}},{"attributes":{"ID":18900,"DIS_CODE":0,"TOWNNAME":"永康區","LI":"二王里","LIN":"47鄰","STREET":"南工街","SECT":" ","MAREA":" ","LANE":"２２６巷","ALLEY":"１弄","HOUSE_NO":"１號三樓","E_COORD97":171982.78,"N_COORD97":2546024.9399999999,"ADDRESS":"南工街２２６巷１弄１號三樓","OBJECTID":18900},"geometry":{"x":171982.78000000026,"y":2546024.9400000013}},{"attributes":{"ID":18901,"DIS_CODE":0,"TOWNNAME":"永康區","LI":"二王里","LIN":"47鄰","STREET":"南工街","SECT":" ","MAREA":" ","LANE":"２２６巷","ALLEY":"１弄","HOUSE_NO":"６號六樓之２","E_COORD97":171965.54999999999,"N_COORD97":2546038.2599999998,"ADDRESS":"南工街２２６巷１弄６號六樓之２","OBJECTID":18901},"geometry":{"x":171965.54999999981,"y":2546038.2599999998}},{"attributes":{"ID":18902,"DIS_CODE":0,"TOWNNAME":"永康區","LI":"二王里","LIN":"47鄰","STREET":"南工街","SECT":" ","MAREA":" ","LANE":"２２６巷","ALLEY":"１弄","HOUSE_NO":"１號四樓之２","E_COORD97":171985.04999999999,"N_COORD97":2546024.98,"ADDRESS":"南工街２２６巷１弄１號四樓之２","OBJECTID":18902},"geometry":{"x":171985.05000000075,"y":2546024.9799999986}},{"attributes":{"ID":18903,"DIS_CODE":0,"TOWNNAME":"永康區","LI":"二王里","LIN":"47鄰","STREET":"南工街","SECT":" ","MAREA":" ","LANE":"２２６巷","ALLEY":"１弄","HOUSE_NO":"５號二樓之１","E_COORD97":171963.01999999999,"N_COORD97":2546027.73,"ADDRESS":"南工街２２６巷１弄５號二樓之１","OBJECTID":18903},"geometry":{"x":171963.02000000048,"y":2546027.7300000023}},{"attributes":{"ID":18904,"DIS_CODE":0,"TOWNNAME":"永康區","LI":"二王里","LIN":"47鄰","STREET":"南工街","SECT":" ","MAREA":" ","LANE":"２２６巷","ALLEY":"１弄","HOUSE_NO":"１號六樓之２","E_COORD97":171985.04999999999,"N_COORD97":2546024.98,"ADDRESS":"南工街２２６巷１弄１號六樓之２","OBJECTID":18904},"geometry":{"x":171985.05000000075,"y":2546024.9799999986}},{"attributes":{"ID":18905,"DIS_CODE":0,"TOWNNAME":"永康區","LI":"二王里","LIN":"47鄰","STREET":"南工街","SECT":" ","MAREA":" ","LANE":"２２６巷","ALLEY":"３弄","HOUSE_NO":"７號六樓之２","E_COORD97":171948.20000000001,"N_COORD97":2545994.3500000001,"ADDRESS":"南工街２２６巷３弄７號六樓之２","OBJECTID":18905},"geometry":{"x":171948.20000000019,"y":2545994.3499999996}},{"attributes":{"ID":18906,"DIS_CODE":0,"TOWNNAME":"永康區","LI":"二王里","LIN":"47鄰","STREET":"南工街","SECT":" ","MAREA":" ","LANE":"２２６巷","ALLEY":"３弄","HOUSE_NO":"１０號七樓之１","E_COORD97":171943.32999999999,"N_COORD97":2546004.0299999998,"ADDRESS":"南工街２２６巷３弄１０號七樓之１","OBJECTID":18906},"geometry":{"x":171943.33000000007,"y":2546004.0300000012}},{"attributes":{"ID":18907,"DIS_CODE":0,"TOWNNAME":"永康區","LI":"二王里","LIN":"47鄰","STREET":"南工街","SECT":" ","MAREA":" ","LANE":"２２６巷","ALLEY":"１弄","HOUSE_NO":"５號八樓之１","E_COORD97":171963.01999999999,"N_COORD97":2546027.73,"ADDRESS":"南工街２２６巷１弄５號八樓之１","OBJECTID":18907},"geometry":{"x":171963.02000000048,"y":2546027.7300000023}},{"attributes":{"ID":18908,"DIS_CODE":0,"TOWNNAME":"永康區","LI":"二王里","LIN":"47鄰","STREET":"南工街","SECT":" ","MAREA":" ","LANE":"２２６巷","ALLEY":"３弄","HOUSE_NO":"２號四樓之２","E_COORD97":171982.47,"N_COORD97":2545999.0299999998,"ADDRESS":"南工街２２６巷３弄２號四樓之２","OBJECTID":18908},"geometry":{"x":171982.47000000067,"y":2545999.0299999993}},{"attributes":{"ID":18909,"DIS_CODE":0,"TOWNNAME":"永康區","LI":"二王里","LIN":"47鄰","STREET":"南工街","SECT":" ","MAREA":" ","LANE":"２２６巷","ALLEY":"１弄","HOUSE_NO":"９號三樓之１","E_COORD97":171944.73000000001,"N_COORD97":2546029.73,"ADDRESS":"南工街２２６巷１弄９號三樓之１","OBJECTID":18909},"geometry":{"x":171944.73000000045,"y":2546029.7300000004}},{"attributes":{"ID":18910,"DIS_CODE":0,"TOWNNAME":"永康區","LI":"二王里","LIN":"47鄰","STREET":"南工街","SECT":" ","MAREA":" ","LANE":"２２６巷","ALLEY":"３弄","HOUSE_NO":"６號四樓之２","E_COORD97":171959.19,"N_COORD97":2546002.0299999998,"ADDRESS":"南工街２２６巷３弄６號四樓之２","OBJECTID":18910},"geometry":{"x":171959.19000000134,"y":2546002.0299999993}},{"attributes":{"ID":18911,"DIS_CODE":0,"TOWNNAME":"永康區","LI":"二王里","LIN":"47鄰","STREET":"南工街","SECT":" ","MAREA":" ","LANE":"２２６巷","ALLEY":"１弄","HOUSE_NO":"６號四樓之２","E_COORD97":171965.54999999999,"N_COORD97":2546038.2599999998,"ADDRESS":"南工街２２６巷１弄６號四樓之２","OBJECTID":18911},"geometry":{"x":171965.54999999981,"y":2546038.2599999998}},{"attributes":{"ID":18912,"DIS_CODE":0,"TOWNNAME":"永康區","LI":"二王里","LIN":"47鄰","STREET":"南工街","SECT":" ","MAREA":" ","LANE":"２２６巷","ALLEY":"１弄","HOUSE_NO":"６號八樓之１","E_COORD97":171965.41,"N_COORD97":2546038.2599999998,"ADDRESS":"南工街２２６巷１弄６號八樓之１","OBJECTID":18912},"geometry":{"x":171965.40999999922,"y":2546038.2599999998}},{"attributes":{"ID":18913,"DIS_CODE":0,"TOWNNAME":"永康區","LI":"二王里","LIN":"47鄰","STREET":"南工街","SECT":" ","MAREA":" ","LANE":"２２６巷","ALLEY":"１弄","HOUSE_NO":"５號四樓之１","E_COORD97":171963.01999999999,"N_COORD97":2546027.73,"ADDRESS":"南工街２２６巷１弄５號四樓之１","OBJECTID":18913},"geometry":{"x":171963.02000000048,"y":2546027.7300000023}},{"attributes":{"ID":18914,"DIS_CODE":0,"TOWNNAME":"永康區","LI":"二王里","LIN":"47鄰","STREET":"南工街","SECT":" ","MAREA":" ","LANE":"２２６巷","ALLEY":"１弄","HOUSE_NO":"９號六樓之１","E_COORD97":171944.73000000001,"N_COORD97":2546029.73,"ADDRESS":"南工街２２６巷１弄９號六樓之１","OBJECTID":18914},"geometry":{"x":171944.73000000045,"y":2546029.7300000004}},{"attributes":{"ID":18915,"DIS_CODE":0,"TOWNNAME":"永康區","LI":"二王里","LIN":"47鄰","STREET":"南工街","SECT":" ","MAREA":" ","LANE":"２２６巷","ALLEY":"１弄","HOUSE_NO":"５號六樓之１","E_COORD97":171963.01999999999,"N_COORD97":2546027.73,"ADDRESS":"南工街２２６巷１弄５號六樓之１","OBJECTID":18915},"geometry":{"x":171963.02000000048,"y":2546027.7300000023}},{"attributes":{"ID":18916,"DIS_CODE":0,"TOWNNAME":"永康區","LI":"二王里","LIN":"47鄰","STREET":"南工街","SECT":" ","MAREA":" ","LANE":"２２６巷","ALLEY":"３弄","HOUSE_NO":"３號三樓之２","E_COORD97":171967.63,"N_COORD97":2545991.6000000001,"ADDRESS":"南工街２２６巷３弄３號三樓之２","OBJECTID":18916},"geometry":{"x":171967.63000000082,"y":2545991.5999999996}},{"attributes":{"ID":18917,"DIS_CODE":0,"TOWNNAME":"永康區","LI":"二王里","LIN":"47鄰","STREET":"南工街","SECT":" ","MAREA":" ","LANE":"２２６巷","ALLEY":"３弄","HOUSE_NO":"１０號五樓之２","E_COORD97":171943.47,"N_COORD97":2546004.0299999998,"ADDRESS":"南工街２２６巷３弄１０號五樓之２","OBJECTID":18917},"geometry":{"x":171943.47000000067,"y":2546004.0300000012}},{"attributes":{"ID":18918,"DIS_CODE":0,"TOWNNAME":"永康區","LI":"二王里","LIN":"47鄰","STREET":"南工街","SECT":" ","MAREA":" ","LANE":"２２６巷","ALLEY":"３弄","HOUSE_NO":"７號二樓之２","E_COORD97":171948.20000000001,"N_COORD97":2545994.3500000001,"ADDRESS":"南工街２２６巷３弄７號二樓之２","OBJECTID":18918},"geometry":{"x":171948.20000000019,"y":2545994.3499999996}},{"attributes":{"ID":18919,"DIS_CODE":0,"TOWNNAME":"永康區","LI":"二王里","LIN":"47鄰","STREET":"南工街","SECT":" ","MAREA":" ","LANE":"２２６巷","ALLEY":"３弄","HOUSE_NO":"６號二樓之２","E_COORD97":171959.19,"N_COORD97":2546002.0299999998,"ADDRESS":"南工街２２６巷３弄６號二樓之２","OBJECTID":18919},"geometry":{"x":171959.19000000134,"y":2546002.0299999993}},{"attributes":{"ID":18920,"DIS_CODE":0,"TOWNNAME":"永康區","LI":"二王里","LIN":"47鄰","STREET":"南工街","SECT":" ","MAREA":" ","LANE":"２２６巷","ALLEY":"３弄","HOUSE_NO":"１號二樓之１","E_COORD97":171977.84,"N_COORD97":2545990.6000000001,"ADDRESS":"南工街２２６巷３弄１號二樓之１","OBJECTID":18920},"geometry":{"x":171977.84000000078,"y":2545990.6000000015}},{"attributes":{"ID":18921,"DIS_CODE":0,"TOWNNAME":"永康區","LI":"二王里","LIN":"47鄰","STREET":"南工街","SECT":" ","MAREA":" ","LANE":"２２６巷","ALLEY":"１弄","HOUSE_NO":"１０號三樓之１","E_COORD97":171948.12,"N_COORD97":2546040.5,"ADDRESS":"南工街２２６巷１弄１０號三樓之１","OBJECTID":18921},"geometry":{"x":171948.12000000011,"y":2546040.5}},{"attributes":{"ID":18922,"DIS_CODE":0,"TOWNNAME":"永康區","LI":"二王里","LIN":"47鄰","STREET":"南工街","SECT":" ","MAREA":" ","LANE":"２２６巷","ALLEY":"１弄","HOUSE_NO":"２號七樓之１","E_COORD97":171984.51999999999,"N_COORD97":2546036.2599999998,"ADDRESS":"南工街２２６巷１弄２號七樓之１","OBJECTID":18922},"geometry":{"x":171984.52000000142,"y":2546036.2600000035}},{"attributes":{"ID":18923,"DIS_CODE":0,"TOWNNAME":"永康區","LI":"二王里","LIN":"47鄰","STREET":"南工街","SECT":" ","MAREA":" ","LANE":"２２６巷","ALLEY":"１弄","HOUSE_NO":"１號七樓之２","E_COORD97":171985.04999999999,"N_COORD97":2546024.98,"ADDRESS":"南工街２２６巷１弄１號七樓之２","OBJECTID":18923},"geometry":{"x":171985.05000000075,"y":2546024.9799999986}},{"attributes":{"ID":18924,"DIS_CODE":0,"TOWNNAME":"永康區","LI":"二王里","LIN":"47鄰","STREET":"南工街","SECT":" ","MAREA":" ","LANE":"２２６巷","ALLEY":"３弄","HOUSE_NO":"２號三樓之２","E_COORD97":171982.47,"N_COORD97":2545999.0299999998,"ADDRESS":"南工街２２６巷３弄２號三樓之２","OBJECTID":18924},"geometry":{"x":171982.47000000067,"y":2545999.0299999993}},{"attributes":{"ID":18925,"DIS_CODE":0,"TOWNNAME":"白河區","LI":"關嶺里","LIN":"14鄰","STREET":" ","SECT":" ","MAREA":"關子嶺","LANE":" ","ALLEY":" ","HOUSE_NO":"７之４號","E_COORD97":200276.97,"N_COORD97":2582291.7000000002,"ADDRESS":"關子嶺７之４號","OBJECTID":18925},"geometry":{"x":200276.96999999974,"y":2582291.6999999993}},{"attributes":{"ID":18926,"DIS_CODE":0,"TOWNNAME":"永康區","LI":"二王里","LIN":"47鄰","STREET":"南工街","SECT":" ","MAREA":" ","LANE":"２２６巷","ALLEY":"１弄","HOUSE_NO":"２號六樓之１","E_COORD97":171984.51999999999,"N_COORD97":2546036.2599999998,"ADDRESS":"南工街２２６巷１弄２號六樓之１","OBJECTID":18926},"geometry":{"x":171984.52000000142,"y":2546036.2600000035}},{"attributes":{"ID":18927,"DIS_CODE":0,"TOWNNAME":"永康區","LI":"二王里","LIN":"47鄰","STREET":"南工街","SECT":" ","MAREA":" ","LANE":"２２６巷","ALLEY":"１弄","HOUSE_NO":"１０號二樓之２","E_COORD97":171948.26000000001,"N_COORD97":2546040.5,"ADDRESS":"南工街２２６巷１弄１０號二樓之２","OBJECTID":18927},"geometry":{"x":171948.26000000071,"y":2546040.5}},{"attributes":{"ID":18928,"DIS_CODE":0,"TOWNNAME":"永康區","LI":"二王里","LIN":"47鄰","STREET":"南工街","SECT":" ","MAREA":" ","LANE":"２２６巷","ALLEY":"１弄","HOUSE_NO":"６號二樓之２","E_COORD97":171965.54999999999,"N_COORD97":2546038.2599999998,"ADDRESS":"南工街２２６巷１弄６號二樓之２","OBJECTID":18928},"geometry":{"x":171965.54999999981,"y":2546038.2599999998}},{"attributes":{"ID":18929,"DIS_CODE":0,"TOWNNAME":"永康區","LI":"二王里","LIN":"47鄰","STREET":"南工街","SECT":" ","MAREA":" ","LANE":"２２６巷","ALLEY":"３弄","HOUSE_NO":"７號三樓之２","E_COORD97":171948.20000000001,"N_COORD97":2545994.3500000001,"ADDRESS":"南工街２２６巷３弄７號三樓之２","OBJECTID":18929},"geometry":{"x":171948.20000000019,"y":2545994.3499999996}},{"attributes":{"ID":18930,"DIS_CODE":0,"TOWNNAME":"永康區","LI":"二王里","LIN":"47鄰","STREET":"南工街","SECT":" ","MAREA":" ","LANE":"２２６巷","ALLEY":"３弄","HOUSE_NO":"３號七樓之２","E_COORD97":171967.63,"N_COORD97":2545991.6000000001,"ADDRESS":"南工街２２６巷３弄３號七樓之２","OBJECTID":18930},"geometry":{"x":171967.63000000082,"y":2545991.5999999996}},{"attributes":{"ID":18931,"DIS_CODE":0,"TOWNNAME":"永康區","LI":"二王里","LIN":"47鄰","STREET":"南工街","SECT":" ","MAREA":" ","LANE":"２２６巷","ALLEY":"３弄","HOUSE_NO":"６號六樓之２","E_COORD97":171959.19,"N_COORD97":2546002.0299999998,"ADDRESS":"南工街２２６巷３弄６號六樓之２","OBJECTID":18931},"geometry":{"x":171959.19000000134,"y":2546002.0299999993}},{"attributes":{"ID":18932,"DIS_CODE":0,"TOWNNAME":"新市區","LI":"新和里","LIN":"47鄰","STREET":"和平街","SECT":" ","MAREA":" ","LANE":"１６８巷","ALLEY":"１７弄","HOUSE_NO":"４號","E_COORD97":177406.62,"N_COORD97":2553340,"ADDRESS":"和平街１６８巷１７弄４號","OBJECTID":18932},"geometry":{"x":177406.62000000011,"y":2553340}},{"attributes":{"ID":18933,"DIS_CODE":0,"TOWNNAME":"歸仁區","LI":"後市里","LIN":"47鄰","STREET":"文化街","SECT":"二段","MAREA":" ","LANE":"１２１巷","ALLEY":"７弄","HOUSE_NO":"７號","E_COORD97":177201.94,"N_COORD97":2541142.7599999998,"ADDRESS":"文化街二段１２１巷７弄７號","OBJECTID":18933},"geometry":{"x":177201.93999999948,"y":2541142.7599999998}},{"attributes":{"ID":18934,"DIS_CODE":0,"TOWNNAME":"歸仁區","LI":"後市里","LIN":"47鄰","STREET":"文化街","SECT":"二段","MAREA":" ","LANE":"１２１巷","ALLEY":"１２弄","HOUSE_NO":"６號","E_COORD97":177179.59,"N_COORD97":2541145.7599999998,"ADDRESS":"文化街二段１２１巷１２弄６號","OBJECTID":18934},"geometry":{"x":177179.58999999985,"y":2541145.7599999998}},{"attributes":{"ID":18935,"DIS_CODE":0,"TOWNNAME":"歸仁區","LI":"後市里","LIN":"47鄰","STREET":"文化街","SECT":"二段","MAREA":" ","LANE":"１２１巷","ALLEY":"７弄","HOUSE_NO":"１５號","E_COORD97":177219.59,"N_COORD97":2541141.7599999998,"ADDRESS":"文化街二段１２１巷７弄１５號","OBJECTID":18935},"geometry":{"x":177219.59000000078,"y":2541141.7600000016}},{"attributes":{"ID":18936,"DIS_CODE":0,"TOWNNAME":"歸仁區","LI":"後市里","LIN":"47鄰","STREET":"文化街","SECT":"二段","MAREA":" ","LANE":"１２１巷","ALLEY":"７弄","HOUSE_NO":"９號","E_COORD97":177207.04000000001,"N_COORD97":2541142.7599999998,"ADDRESS":"文化街二段１２１巷７弄９號","OBJECTID":18936},"geometry":{"x":177207.04000000004,"y":2541142.7599999998}},{"attributes":{"ID":18937,"DIS_CODE":0,"TOWNNAME":"歸仁區","LI":"後市里","LIN":"47鄰","STREET":"文化街","SECT":"二段","MAREA":" ","LANE":"１２１巷","ALLEY":"１２弄","HOUSE_NO":"８號","E_COORD97":177175.48999999999,"N_COORD97":2541145.7599999998,"ADDRESS":"文化街二段１２１巷１２弄８號","OBJECTID":18937},"geometry":{"x":177175.49000000022,"y":2541145.7599999998}},{"attributes":{"ID":18938,"DIS_CODE":0,"TOWNNAME":"歸仁區","LI":"辜厝里","LIN":"47鄰","STREET":"民權九街","SECT":" ","MAREA":" ","LANE":"５６巷","ALLEY":"９弄","HOUSE_NO":"８號","E_COORD97":177109.82000000001,"N_COORD97":2540300.0299999998,"ADDRESS":"民權九街５６巷９弄８號","OBJECTID":18938},"geometry":{"x":177109.82000000123,"y":2540300.0299999993}},{"attributes":{"ID":18939,"DIS_CODE":0,"TOWNNAME":"歸仁區","LI":"辜厝里","LIN":"47鄰","STREET":"民權九街","SECT":" ","MAREA":" ","LANE":"５６巷","ALLEY":"９弄","HOUSE_NO":"３號","E_COORD97":177107.92000000001,"N_COORD97":2540321.0299999998,"ADDRESS":"民權九街５６巷９弄３號","OBJECTID":18939},"geometry":{"x":177107.91999999993,"y":2540321.0300000031}},{"attributes":{"ID":18940,"DIS_CODE":0,"TOWNNAME":"歸仁區","LI":"辜厝里","LIN":"47鄰","STREET":"民權九街","SECT":" ","MAREA":" ","LANE":"５６巷","ALLEY":"９弄","HOUSE_NO":"６號","E_COORD97":177105.72,"N_COORD97":2540300.0299999998,"ADDRESS":"民權九街５６巷９弄６號","OBJECTID":18940},"geometry":{"x":177105.71999999974,"y":2540300.0299999993}},{"attributes":{"ID":18941,"DIS_CODE":0,"TOWNNAME":"歸仁區","LI":"辜厝里","LIN":"47鄰","STREET":"民權九街","SECT":" ","MAREA":" ","LANE":"５６巷","ALLEY":"９弄","HOUSE_NO":"１０號","E_COORD97":177115.26999999999,"N_COORD97":2540298.0299999998,"ADDRESS":"民權九街５６巷９弄１０號","OBJECTID":18941},"geometry":{"x":177115.26999999955,"y":2540298.0300000012}},{"attributes":{"ID":18942,"DIS_CODE":0,"TOWNNAME":"歸仁區","LI":"後市里","LIN":"47鄰","STREET":"文化街","SECT":"二段","MAREA":" ","LANE":"１２１巷","ALLEY":"１２弄","HOUSE_NO":"１８號","E_COORD97":177156.34,"N_COORD97":2541149.7599999998,"ADDRESS":"文化街二段１２１巷１２弄１８號","OBJECTID":18942},"geometry":{"x":177156.34000000171,"y":2541149.7599999998}},{"attributes":{"ID":18943,"DIS_CODE":0,"TOWNNAME":"歸仁區","LI":"後市里","LIN":"47鄰","STREET":"文化街","SECT":"二段","MAREA":" ","LANE":"１２１巷","ALLEY":"１２弄","HOUSE_NO":"１０號","E_COORD97":177172.73999999999,"N_COORD97":2541145.7599999998,"ADDRESS":"文化街二段１２１巷１２弄１０號","OBJECTID":18943},"geometry":{"x":177172.74000000209,"y":2541145.7599999998}},{"attributes":{"ID":18944,"DIS_CODE":0,"TOWNNAME":"歸仁區","LI":"後市里","LIN":"47鄰","STREET":"文化街","SECT":"二段","MAREA":" ","LANE":"１２１巷","ALLEY":"１２弄","HOUSE_NO":"１２號","E_COORD97":177169.64000000001,"N_COORD97":2541146.7599999998,"ADDRESS":"文化街二段１２１巷１２弄１２號","OBJECTID":18944},"geometry":{"x":177169.6400000006,"y":2541146.7599999998}},{"attributes":{"ID":18945,"DIS_CODE":0,"TOWNNAME":"歸仁區","LI":"後市里","LIN":"47鄰","STREET":"文化街","SECT":"二段","MAREA":" ","LANE":"１２１巷","ALLEY":"７弄","HOUSE_NO":"１１號","E_COORD97":177211.39000000001,"N_COORD97":2541142.7599999998,"ADDRESS":"文化街二段１２１巷７弄１１號","OBJECTID":18945},"geometry":{"x":177211.38999999966,"y":2541142.7599999998}},{"attributes":{"ID":18946,"DIS_CODE":0,"TOWNNAME":"歸仁區","LI":"後市里","LIN":"47鄰","STREET":"文化街","SECT":"二段","MAREA":" ","LANE":"１２１巷","ALLEY":"１２弄","HOUSE_NO":"１４號","E_COORD97":177164.54000000001,"N_COORD97":2541147.7599999998,"ADDRESS":"文化街二段１２１巷１２弄１４號","OBJECTID":18946},"geometry":{"x":177164.54000000004,"y":2541147.7600000016}},{"attributes":{"ID":18947,"DIS_CODE":0,"TOWNNAME":"歸仁區","LI":"後市里","LIN":"47鄰","STREET":"文化街","SECT":"二段","MAREA":" ","LANE":"１２１巷","ALLEY":"７弄","HOUSE_NO":"１號","E_COORD97":177191.64000000001,"N_COORD97":2541143.7599999998,"ADDRESS":"文化街二段１２１巷７弄１號","OBJECTID":18947},"geometry":{"x":177191.6400000006,"y":2541143.7600000035}},{"attributes":{"ID":18948,"DIS_CODE":0,"TOWNNAME":"歸仁區","LI":"後市里","LIN":"47鄰","STREET":"文化街","SECT":"二段","MAREA":" ","LANE":"１２１巷","ALLEY":"７弄","HOUSE_NO":"３號","E_COORD97":177195.73999999999,"N_COORD97":2541143.7599999998,"ADDRESS":"文化街二段１２１巷７弄３號","OBJECTID":18948},"geometry":{"x":177195.74000000022,"y":2541143.7600000035}},{"attributes":{"ID":18949,"DIS_CODE":0,"TOWNNAME":"歸仁區","LI":"後市里","LIN":"47鄰","STREET":"文化街","SECT":"二段","MAREA":" ","LANE":"１２１巷","ALLEY":"７弄","HOUSE_NO":"１７號","E_COORD97":177223.69,"N_COORD97":2541139.7599999998,"ADDRESS":"文化街二段１２１巷７弄１７號","OBJECTID":18949},"geometry":{"x":177223.69000000041,"y":2541139.7599999998}},{"attributes":{"ID":18950,"DIS_CODE":0,"TOWNNAME":"歸仁區","LI":"後市里","LIN":"47鄰","STREET":"文化街","SECT":"二段","MAREA":" ","LANE":"１２１巷","ALLEY":"７弄","HOUSE_NO":"１９號","E_COORD97":177228.79000000001,"N_COORD97":2541139.7599999998,"ADDRESS":"文化街二段１２１巷７弄１９號","OBJECTID":18950},"geometry":{"x":177228.79000000097,"y":2541139.7599999998}},{"attributes":{"ID":18951,"DIS_CODE":0,"TOWNNAME":"歸仁區","LI":"辜厝里","LIN":"47鄰","STREET":"民權九街","SECT":" ","MAREA":" ","LANE":"５６巷","ALLEY":"９弄","HOUSE_NO":"１號","E_COORD97":177102.82000000001,"N_COORD97":2540321.0299999998,"ADDRESS":"民權九街５６巷９弄１號","OBJECTID":18951},"geometry":{"x":177102.82000000216,"y":2540321.0300000031}},{"attributes":{"ID":18952,"DIS_CODE":0,"TOWNNAME":"永康區","LI":"二王里","LIN":"47鄰","STREET":"南工街","SECT":" ","MAREA":" ","LANE":"２２６巷","ALLEY":"６弄","HOUSE_NO":"１５號","E_COORD97":172036.60000000001,"N_COORD97":2546008.3999999999,"ADDRESS":"南工街２２６巷６弄１５號","OBJECTID":18952},"geometry":{"x":172036.60000000149,"y":2546008.4000000004}},{"attributes":{"ID":18953,"DIS_CODE":0,"TOWNNAME":"永康區","LI":"二王里","LIN":"47鄰","STREET":"南工街","SECT":" ","MAREA":" ","LANE":"２２６巷","ALLEY":"２弄","HOUSE_NO":"１５號","E_COORD97":172033.82000000001,"N_COORD97":2545980.8999999999,"ADDRESS":"南工街２２６巷２弄１５號","OBJECTID":18953},"geometry":{"x":172033.8200000003,"y":2545980.9000000004}},{"attributes":{"ID":18954,"DIS_CODE":0,"TOWNNAME":"永康區","LI":"二王里","LIN":"47鄰","STREET":"南工街","SECT":" ","MAREA":" ","LANE":"２２６巷","ALLEY":"１弄","HOUSE_NO":"７號","E_COORD97":171948.94,"N_COORD97":2546028.6800000002,"ADDRESS":"南工街２２６巷１弄７號","OBJECTID":18954},"geometry":{"x":171948.94000000134,"y":2546028.6799999997}},{"attributes":{"ID":18955,"DIS_CODE":0,"TOWNNAME":"永康區","LI":"\u25A0行里","LIN":"47鄰","STREET":"新行街","SECT":" ","MAREA":" ","LANE":"４巷","ALLEY":"３０弄","HOUSE_NO":"１９號","E_COORD97":172389.20000000001,"N_COORD97":2548800.5699999998,"ADDRESS":"新行街４巷３０弄１９號","OBJECTID":18955},"geometry":{"x":172389.20000000205,"y":2548800.5700000003}},{"attributes":{"ID":18956,"DIS_CODE":0,"TOWNNAME":"永康區","LI":"\u25A0行里","LIN":"47鄰","STREET":"新行街","SECT":" ","MAREA":" ","LANE":"４巷","ALLEY":"３０弄","HOUSE_NO":"３號","E_COORD97":172356.10000000001,"N_COORD97":2548816.3199999998,"ADDRESS":"新行街４巷３０弄３號","OBJECTID":18956},"geometry":{"x":172356.10000000056,"y":2548816.320000004}},{"attributes":{"ID":18957,"DIS_CODE":0,"TOWNNAME":"永康區","LI":"\u25A0行里","LIN":"47鄰","STREET":"新行街","SECT":" ","MAREA":" ","LANE":"４巷","ALLEY":"３０弄","HOUSE_NO":"２３號","E_COORD97":172397.01000000001,"N_COORD97":2548796.3199999998,"ADDRESS":"新行街４巷３０弄２３號","OBJECTID":18957},"geometry":{"x":172397.01000000071,"y":2548796.3200000022}},{"attributes":{"ID":18958,"DIS_CODE":0,"TOWNNAME":"永康區","LI":"\u25A0行里","LIN":"47鄰","STREET":"新行街","SECT":" ","MAREA":" ","LANE":"４巷","ALLEY":"４６弄","HOUSE_NO":"１０號","E_COORD97":172384.23999999999,"N_COORD97":2548832.5,"ADDRESS":"新行街４巷４６弄１０號","OBJECTID":18958},"geometry":{"x":172384.24000000115,"y":2548832.5000000019}},{"attributes":{"ID":18959,"DIS_CODE":0,"TOWNNAME":"仁德區","LI":"新田里","LIN":"4鄰","STREET":"勝利路","SECT":" ","MAREA":" ","LANE":"１３２巷","ALLEY":"１２弄","HOUSE_NO":"２４號","E_COORD97":174354.41204299999,"N_COORD97":2539419.8824700001,"ADDRESS":"勝利路１３２巷１２弄２４號","OBJECTID":18959},"geometry":{"x":174354.41204300057,"y":2539419.8824659996}},{"attributes":{"ID":18960,"DIS_CODE":0,"TOWNNAME":"永康區","LI":"\u25A0行里","LIN":"47鄰","STREET":"新行街","SECT":" ","MAREA":" ","LANE":"４巷","ALLEY":"３０弄","HOUSE_NO":"１５號","E_COORD97":172381.60000000001,"N_COORD97":2548804.0699999998,"ADDRESS":"新行街４巷３０弄１５號","OBJECTID":18960},"geometry":{"x":172381.59999999963,"y":2548804.0700000003}},{"attributes":{"ID":18961,"DIS_CODE":0,"TOWNNAME":"永康區","LI":"\u25A0行里","LIN":"47鄰","STREET":"新行街","SECT":" ","MAREA":" ","LANE":"４巷","ALLEY":"４６弄","HOUSE_NO":"２號","E_COORD97":172367.38,"N_COORD97":2548846.2400000002,"ADDRESS":"新行街４巷４６弄２號","OBJECTID":18961},"geometry":{"x":172367.38000000082,"y":2548846.2400000002}},{"attributes":{"ID":18962,"DIS_CODE":0,"TOWNNAME":"永康區","LI":"\u25A0行里","LIN":"47鄰","STREET":"新行街","SECT":" ","MAREA":" ","LANE":"４巷","ALLEY":"３０弄","HOUSE_NO":"７號","E_COORD97":172364.51000000001,"N_COORD97":2548812.5699999998,"ADDRESS":"新行街４巷３０弄７號","OBJECTID":18962},"geometry":{"x":172364.51000000164,"y":2548812.5700000022}},{"attributes":{"ID":18963,"DIS_CODE":0,"TOWNNAME":"永康區","LI":"西灣里","LIN":"47鄰","STREET":"永華路","SECT":" ","MAREA":" ","LANE":"２０１巷","ALLEY":"３２弄","HOUSE_NO":"３５號","E_COORD97":173969.85000000001,"N_COORD97":2545691.1200000001,"ADDRESS":"永華路２０１巷３２弄３５號","OBJECTID":18963},"geometry":{"x":173969.85000000056,"y":2545691.120000001}},{"attributes":{"ID":18964,"DIS_CODE":0,"TOWNNAME":"永康區","LI":"西灣里","LIN":"47鄰","STREET":"大灣路","SECT":" ","MAREA":" ","LANE":"９４２巷","ALLEY":"５６１弄","HOUSE_NO":"２０號","E_COORD97":173896.13,"N_COORD97":2545638.4900000002,"ADDRESS":"大灣路９４２巷５６１弄２０號","OBJECTID":18964},"geometry":{"x":173896.12999999989,"y":2545638.4900000039}},{"attributes":{"ID":18965,"DIS_CODE":0,"TOWNNAME":"永康區","LI":"西灣里","LIN":"47鄰","STREET":"大灣路","SECT":" ","MAREA":" ","LANE":"９４２巷","ALLEY":"５６１弄","HOUSE_NO":"７８號","E_COORD97":173596.59,"N_COORD97":2545739.0899999999,"ADDRESS":"大灣路９４２巷５６１弄７８號","OBJECTID":18965},"geometry":{"x":173596.59000000171,"y":2545739.0900000036}},{"attributes":{"ID":18966,"DIS_CODE":0,"TOWNNAME":"永康區","LI":"\u25A0行里","LIN":"47鄰","STREET":"新行街","SECT":" ","MAREA":" ","LANE":"４巷","ALLEY":"３０弄","HOUSE_NO":"１７號","E_COORD97":172385.64999999999,"N_COORD97":2548802.5699999998,"ADDRESS":"新行街４巷３０弄１７號","OBJECTID":18966},"geometry":{"x":172385.65000000037,"y":2548802.5700000022}},{"attributes":{"ID":18967,"DIS_CODE":0,"TOWNNAME":"永康區","LI":"\u25A0行里","LIN":"47鄰","STREET":"新行街","SECT":" ","MAREA":" ","LANE":"４巷","ALLEY":"３０弄","HOUSE_NO":"１１號","E_COORD97":172373.42000000001,"N_COORD97":2548808.5699999998,"ADDRESS":"新行街４巷３０弄１１號","OBJECTID":18967},"geometry":{"x":172373.41999999993,"y":2548808.5700000022}},{"attributes":{"ID":18968,"DIS_CODE":0,"TOWNNAME":"永康區","LI":"\u25A0行里","LIN":"47鄰","STREET":"新行街","SECT":" ","MAREA":" ","LANE":"４巷","ALLEY":"３０弄","HOUSE_NO":"２１號","E_COORD97":172392.85000000001,"N_COORD97":2548798.5699999998,"ADDRESS":"新行街４巷３０弄２１號","OBJECTID":18968},"geometry":{"x":172392.85000000056,"y":2548798.5700000022}},{"attributes":{"ID":18969,"DIS_CODE":0,"TOWNNAME":"永康區","LI":"\u25A0行里","LIN":"47鄰","STREET":"新行街","SECT":" ","MAREA":" ","LANE":"４巷","ALLEY":"４６弄","HOUSE_NO":"８號","E_COORD97":172377.88,"N_COORD97":2548835.5,"ADDRESS":"新行街４巷４６弄８號","OBJECTID":18969},"geometry":{"x":172377.88000000082,"y":2548835.5000000019}},{"attributes":{"ID":18970,"DIS_CODE":0,"TOWNNAME":"歸仁區","LI":"西埔里","LIN":"6鄰","STREET":"保大路","SECT":"二段","MAREA":" ","LANE":"１１８巷","ALLEY":"３７弄","HOUSE_NO":"１０號","E_COORD97":177102.53346000001,"N_COORD97":2544234.2477099998,"ADDRESS":"保大路二段１１８巷３７弄１０號","OBJECTID":18970},"geometry":{"x":177102.5334599996,"y":2544234.2477100026}},{"attributes":{"ID":18971,"DIS_CODE":0,"TOWNNAME":"歸仁區","LI":"西埔里","LIN":"6鄰","STREET":"保大路","SECT":"二段","MAREA":" ","LANE":"１１８巷","ALLEY":"３７弄","HOUSE_NO":"１號","E_COORD97":177102.32143000001,"N_COORD97":2544221.12439,"ADDRESS":"保大路二段１１８巷３７弄１號","OBJECTID":18971},"geometry":{"x":177102.32143000048,"y":2544221.1243900023}},{"attributes":{"ID":18972,"DIS_CODE":0,"TOWNNAME":"歸仁區","LI":"西埔里","LIN":"6鄰","STREET":"保大路","SECT":"二段","MAREA":" ","LANE":"１１８巷","ALLEY":"３７弄","HOUSE_NO":"８號","E_COORD97":177110.27270999999,"N_COORD97":2544227.26272,"ADDRESS":"保大路二段１１８巷３７弄８號","OBJECTID":18972},"geometry":{"x":177110.2727100011,"y":2544227.26272}},{"attributes":{"ID":18973,"DIS_CODE":0,"TOWNNAME":"東區","LI":"和平里","LIN":"14鄰","STREET":"東門路","SECT":"三段","MAREA":" ","LANE":"２２６巷","ALLEY":"１１７弄","HOUSE_NO":"３８號","E_COORD97":171408.69,"N_COORD97":2541771.9300000002,"ADDRESS":"東門路三段２２６巷１１７弄３８號","OBJECTID":18973},"geometry":{"x":171408.69000000134,"y":2541771.9299999997}},{"attributes":{"ID":18974,"DIS_CODE":0,"TOWNNAME":"永康區","LI":"復興里","LIN":"14鄰","STREET":"復興路","SECT":" ","MAREA":" ","LANE":"２９６巷","ALLEY":"１１弄","HOUSE_NO":"２號","E_COORD97":172339.48000000001,"N_COORD97":2544378.21,"ADDRESS":"復興路２９６巷１１弄２號","OBJECTID":18974},"geometry":{"x":172339.48000000045,"y":2544378.2100000009}},{"attributes":{"ID":18975,"DIS_CODE":0,"TOWNNAME":"永康區","LI":"復興里","LIN":"14鄰","STREET":"復興路","SECT":" ","MAREA":" ","LANE":"２９６巷","ALLEY":"１１弄","HOUSE_NO":"１４號","E_COORD97":172348,"N_COORD97":2544400.1200000001,"ADDRESS":"復興路２９６巷１１弄１４號","OBJECTID":18975},"geometry":{"x":172348.00000000186,"y":2544400.120000001}},{"attributes":{"ID":18976,"DIS_CODE":0,"TOWNNAME":"永康區","LI":"復興里","LIN":"14鄰","STREET":"復興路","SECT":" ","MAREA":" ","LANE":"２９６巷","ALLEY":"１１弄","HOUSE_NO":"４號","E_COORD97":172340.88,"N_COORD97":2544381.96,"ADDRESS":"復興路２９６巷１１弄４號","OBJECTID":18976},"geometry":{"x":172340.88000000082,"y":2544381.9600000028}},{"attributes":{"ID":18977,"DIS_CODE":0,"TOWNNAME":"永康區","LI":"復興里","LIN":"14鄰","STREET":"復興路","SECT":" ","MAREA":" ","LANE":"２４６巷","ALLEY":"１１弄","HOUSE_NO":"３號","E_COORD97":172392.81,"N_COORD97":2544413.3900000001,"ADDRESS":"復興路２４６巷１１弄３號","OBJECTID":18977},"geometry":{"x":172392.81000000145,"y":2544413.3900000025}},{"attributes":{"ID":18978,"DIS_CODE":0,"TOWNNAME":"安南區","LI":"佃東里","LIN":"14鄰","STREET":"公學路","SECT":"四段","MAREA":" ","LANE":"２巷","ALLEY":"１３弄","HOUSE_NO":"３號","E_COORD97":165953.60999999999,"N_COORD97":2552090.1400000001,"ADDRESS":"公學路四段２巷１３弄３號","OBJECTID":18978},"geometry":{"x":165953.61000000127,"y":2552090.1400000025}},{"attributes":{"ID":18979,"DIS_CODE":0,"TOWNNAME":"安南區","LI":"佃東里","LIN":"14鄰","STREET":"公學路","SECT":"四段","MAREA":" ","LANE":"２巷","ALLEY":"１３弄","HOUSE_NO":"７號","E_COORD97":165941.17000000001,"N_COORD97":2552088.8599999999,"ADDRESS":"公學路四段２巷１３弄７號","OBJECTID":18979},"geometry":{"x":165941.17000000086,"y":2552088.8599999994}},{"attributes":{"ID":18980,"DIS_CODE":0,"TOWNNAME":"安南區","LI":"佃東里","LIN":"14鄰","STREET":"公學路","SECT":"四段","MAREA":" ","LANE":"２巷","ALLEY":"１３弄","HOUSE_NO":"９號","E_COORD97":165933.67000000001,"N_COORD97":2552092.29,"ADDRESS":"公學路四段２巷１３弄９號","OBJECTID":18980},"geometry":{"x":165933.67000000179,"y":2552092.2899999991}},{"attributes":{"ID":18981,"DIS_CODE":0,"TOWNNAME":"西港區","LI":"西港里","LIN":"14鄰","STREET":" ","SECT":" ","MAREA":"西港","LANE":" ","ALLEY":" ","HOUSE_NO":"５５號之７","E_COORD97":168609.60000000001,"N_COORD97":2557844.0899999999,"ADDRESS":"西港５５號之７","OBJECTID":18981},"geometry":{"x":168609.60000000056,"y":2557844.0900000017}},{"attributes":{"ID":18982,"DIS_CODE":0,"TOWNNAME":"西港區","LI":"西港里","LIN":"14鄰","STREET":" ","SECT":" ","MAREA":"西港","LANE":" ","ALLEY":" ","HOUSE_NO":"５５號之８","E_COORD97":168614.92000000001,"N_COORD97":2557845.1000000001,"ADDRESS":"西港５５號之８","OBJECTID":18982},"geometry":{"x":168614.91999999993,"y":2557845.0999999996}},{"attributes":{"ID":18983,"DIS_CODE":0,"TOWNNAME":"西港區","LI":"南海里","LIN":"14鄰","STREET":" ","SECT":" ","MAREA":"南海埔","LANE":" ","ALLEY":" ","HOUSE_NO":"１２３號之１","E_COORD97":167623.17999999999,"N_COORD97":2557237.3900000001,"ADDRESS":"南海埔１２３號之１","OBJECTID":18983},"geometry":{"x":167623.1799999997,"y":2557237.3900000006}},{"attributes":{"ID":18984,"DIS_CODE":0,"TOWNNAME":"西港區","LI":"南海里","LIN":"14鄰","STREET":" ","SECT":" ","MAREA":"南海埔","LANE":" ","ALLEY":" ","HOUSE_NO":"１２３之２號","E_COORD97":167529.01000000001,"N_COORD97":2557286.8599999999,"ADDRESS":"南海埔１２３之２號","OBJECTID":18984},"geometry":{"x":167529.00999999978,"y":2557286.8599999994}},{"attributes":{"ID":18985,"DIS_CODE":0,"TOWNNAME":"西港區","LI":"南海里","LIN":"14鄰","STREET":" ","SECT":" ","MAREA":"南海埔","LANE":" ","ALLEY":" ","HOUSE_NO":"１２３號之２","E_COORD97":167529.01000000001,"N_COORD97":2557286.8599999999,"ADDRESS":"南海埔１２３號之２","OBJECTID":18985},"geometry":{"x":167529.00999999978,"y":2557286.8599999994}},{"attributes":{"ID":18986,"DIS_CODE":0,"TOWNNAME":"安南區","LI":"佃東里","LIN":"14鄰","STREET":"公學路","SECT":"四段","MAREA":" ","LANE":"２巷","ALLEY":"１３弄","HOUSE_NO":"６號","E_COORD97":165958.34,"N_COORD97":2552114.4399999999,"ADDRESS":"公學路四段２巷１３弄６號","OBJECTID":18986},"geometry":{"x":165958.34000000078,"y":2552114.4400000013}},{"attributes":{"ID":18987,"DIS_CODE":0,"TOWNNAME":"白河區","LI":"關嶺里","LIN":"14鄰","STREET":" ","SECT":" ","MAREA":"關子嶺","LANE":" ","ALLEY":" ","HOUSE_NO":"７之５號","E_COORD97":200251.03,"N_COORD97":2582287.73,"ADDRESS":"關子嶺７之５號","OBJECTID":18987},"geometry":{"x":200251.03000000119,"y":2582287.7300000023}},{"attributes":{"ID":18988,"DIS_CODE":0,"TOWNNAME":"安南區","LI":"佃東里","LIN":"14鄰","STREET":"公學路","SECT":"四段","MAREA":" ","LANE":"２巷","ALLEY":"１３弄","HOUSE_NO":"８號","E_COORD97":165952.12,"N_COORD97":2552116.79,"ADDRESS":"公學路四段２巷１３弄８號","OBJECTID":18988},"geometry":{"x":165952.12000000011,"y":2552116.7899999991}},{"attributes":{"ID":18989,"DIS_CODE":0,"TOWNNAME":"安南區","LI":"佃東里","LIN":"14鄰","STREET":"公學路","SECT":"四段","MAREA":" ","LANE":"２巷","ALLEY":"１３弄","HOUSE_NO":"２號","E_COORD97":165970.35000000001,"N_COORD97":2552119.1499999999,"ADDRESS":"公學路四段２巷１３弄２號","OBJECTID":18989},"geometry":{"x":165970.34999999963,"y":2552119.1500000004}},{"attributes":{"ID":18990,"DIS_CODE":0,"TOWNNAME":"安南區","LI":"佃東里","LIN":"14鄰","STREET":"公學路","SECT":"四段","MAREA":" ","LANE":"２巷","ALLEY":"１３弄","HOUSE_NO":"１０號","E_COORD97":165946.10999999999,"N_COORD97":2552114.2200000002,"ADDRESS":"公學路四段２巷１３弄１０號","OBJECTID":18990},"geometry":{"x":165946.11000000034,"y":2552114.2200000025}},{"attributes":{"ID":18991,"DIS_CODE":0,"TOWNNAME":"安南區","LI":"佃東里","LIN":"14鄰","STREET":"公學路","SECT":"四段","MAREA":" ","LANE":"２巷","ALLEY":"１９弄","HOUSE_NO":"４號","E_COORD97":165954.69,"N_COORD97":2552135.2200000002,"ADDRESS":"公學路四段２巷１９弄４號","OBJECTID":18991},"geometry":{"x":165954.69000000134,"y":2552135.2200000007}},{"attributes":{"ID":18992,"DIS_CODE":0,"TOWNNAME":"安南區","LI":"長安里","LIN":"14鄰","STREET":"長溪路","SECT":"三段","MAREA":" ","LANE":"３８０巷","ALLEY":"１２５弄","HOUSE_NO":"１５號","E_COORD97":167961.12,"N_COORD97":2552202.0600000001,"ADDRESS":"長溪路三段３８０巷１２５弄１５號","OBJECTID":18992},"geometry":{"x":167961.12000000011,"y":2552202.0600000042}},{"attributes":{"ID":18993,"DIS_CODE":0,"TOWNNAME":"仁德區","LI":"土庫里","LIN":"14鄰","STREET":"土庫路","SECT":" ","MAREA":" ","LANE":"１８５巷","ALLEY":"３２弄","HOUSE_NO":"２００號","E_COORD97":174426.76999999999,"N_COORD97":2542599,"ADDRESS":"土庫路１８５巷３２弄２００號","OBJECTID":18993},"geometry":{"x":174426.76999999955,"y":2542599}},{"attributes":{"ID":18994,"DIS_CODE":0,"TOWNNAME":"仁德區","LI":"仁義里","LIN":"14鄰","STREET":"義林路","SECT":" ","MAREA":" ","LANE":"２００巷","ALLEY":"６５弄","HOUSE_NO":"３號","E_COORD97":174647.89000000001,"N_COORD97":2541334.27,"ADDRESS":"義林路２００巷６５弄３號","OBJECTID":18994},"geometry":{"x":174647.88999999966,"y":2541334.2700000014}},{"attributes":{"ID":18995,"DIS_CODE":0,"TOWNNAME":"仁德區","LI":"仁義里","LIN":"14鄰","STREET":"義林路","SECT":" ","MAREA":" ","LANE":"２００巷","ALLEY":"６５弄","HOUSE_NO":"１３號","E_COORD97":174646.38,"N_COORD97":2541314.7599999998,"ADDRESS":"義林路２００巷６５弄１３號","OBJECTID":18995},"geometry":{"x":174646.38000000082,"y":2541314.7600000016}},{"attributes":{"ID":18996,"DIS_CODE":0,"TOWNNAME":"仁德區","LI":"仁義里","LIN":"14鄰","STREET":"義林路","SECT":" ","MAREA":" ","LANE":"２００巷","ALLEY":"５６弄","HOUSE_NO":"４號","E_COORD97":174696.47,"N_COORD97":2541306.4700000002,"ADDRESS":"義林路２００巷５６弄４號","OBJECTID":18996},"geometry":{"x":174696.47000000067,"y":2541306.4700000025}},{"attributes":{"ID":18997,"DIS_CODE":0,"TOWNNAME":"仁德區","LI":"仁義里","LIN":"14鄰","STREET":"義林路","SECT":" ","MAREA":" ","LANE":"２００巷","ALLEY":"６５弄","HOUSE_NO":"８號","E_COORD97":174627.10999999999,"N_COORD97":2541323.6600000001,"ADDRESS":"義林路２００巷６５弄８號","OBJECTID":18997},"geometry":{"x":174627.11000000034,"y":2541323.6600000001}},{"attributes":{"ID":18998,"DIS_CODE":0,"TOWNNAME":"仁德區","LI":"仁義里","LIN":"14鄰","STREET":"義林路","SECT":" ","MAREA":" ","LANE":"２００巷","ALLEY":"６５弄","HOUSE_NO":"５號","E_COORD97":174647.62,"N_COORD97":2541330.27,"ADDRESS":"義林路２００巷６５弄５號","OBJECTID":18998},"geometry":{"x":174647.62000000197,"y":2541330.2700000014}},{"attributes":{"ID":18999,"DIS_CODE":0,"TOWNNAME":"仁德區","LI":"仁義里","LIN":"14鄰","STREET":"義林路","SECT":" ","MAREA":" ","LANE":"２００巷","ALLEY":"４６弄","HOUSE_NO":"２７號","E_COORD97":174722.07999999999,"N_COORD97":2541271.5899999999,"ADDRESS":"義林路２００巷４６弄２７號","OBJECTID":18999},"geometry":{"x":174722.08000000007,"y":2541271.5900000017}},{"attributes":{"ID":19000,"DIS_CODE":0,"TOWNNAME":"仁德區","LI":"仁義里","LIN":"14鄰","STREET":"義林路","SECT":" ","MAREA":" ","LANE":"２００巷","ALLEY":"６５弄","HOUSE_NO":"１１號","E_COORD97":174646.85000000001,"N_COORD97":2541318.2599999998,"ADDRESS":"義林路２００巷６５弄１１號","OBJECTID":19000},"geometry":{"x":174646.84999999963,"y":2541318.2600000016}}]}