{"displayFieldName":"TOWNNAME","fieldAliases":{"ID":"ID","DIS_CODE":"DIS_CODE","TOWNNAME":"TOWNNAME","LI":"LI","LIN":"LIN","STREET":"STREET","SECT":"SECT","MAREA":"MAREA","LANE":"LANE","ALLEY":"ALLEY","HOUSE_NO":"HOUSE_NO","E_COORD97":"E_COORD97","N_COORD97":"N_COORD97","ADDRESS":"ADDRESS","OBJECTID":"OBJECTID"},"geometryType":"esriGeometryPoint","spatialReference":{"wkid":102443,"latestWkid":3826},"fields":[{"name":"ID","type":"esriFieldTypeDouble","alias":"ID"},{"name":"DIS_CODE","type":"esriFieldTypeInteger","alias":"DIS_CODE"},{"name":"TOWNNAME","type":"esriFieldTypeString","alias":"TOWNNAME","length":8},{"name":"LI","type":"esriFieldTypeString","alias":"LI","length":8},{"name":"LIN","type":"esriFieldTypeString","alias":"LIN","length":12},{"name":"STREET","type":"esriFieldTypeString","alias":"STREET","length":20},{"name":"SECT","type":"esriFieldTypeString","alias":"SECT","length":8},{"name":"MAREA","type":"esriFieldTypeString","alias":"MAREA","length":12},{"name":"LANE","type":"esriFieldTypeString","alias":"LANE","length":10},{"name":"ALLEY","type":"esriFieldTypeString","alias":"ALLEY","length":10},{"name":"HOUSE_NO","type":"esriFieldTypeString","alias":"HOUSE_NO","length":20},{"name":"E_COORD97","type":"esriFieldTypeDouble","alias":"E_COORD97"},{"name":"N_COORD97","type":"esriFieldTypeDouble","alias":"N_COORD97"},{"name":"ADDRESS","type":"esriFieldTypeString","alias":"ADDRESS","length":50},{"name":"OBJECTID","type":"esriFieldTypeOID","alias":"OBJECTID"}],"features":[{"attributes":{"ID":226405,"DIS_CODE":0,"TOWNNAME":"官田區","LI":"隆本里","LIN":"29鄰","STREET":"中山路","SECT":"二段","MAREA":" ","LANE":" ","ALLEY":" ","HOUSE_NO":"２２號","E_COORD97":179104.12,"N_COORD97":2565962.98,"ADDRESS":"中山路二段２２號","OBJECTID":226401},"geometry":{"x":179104.11999999918,"y":2565962.9800000004}},{"attributes":{"ID":226406,"DIS_CODE":0,"TOWNNAME":"官田區","LI":"隆本里","LIN":"29鄰","STREET":"中山路","SECT":"二段","MAREA":" ","LANE":" ","ALLEY":" ","HOUSE_NO":"２６號","E_COORD97":179099.85999999999,"N_COORD97":2565965.1000000001,"ADDRESS":"中山路二段２６號","OBJECTID":226402},"geometry":{"x":179099.86000000127,"y":2565965.0999999996}},{"attributes":{"ID":226407,"DIS_CODE":0,"TOWNNAME":"官田區","LI":"隆本里","LIN":"29鄰","STREET":"中山路","SECT":"二段","MAREA":" ","LANE":" ","ALLEY":" ","HOUSE_NO":"２８號","E_COORD97":179095.75,"N_COORD97":2565966.7999999998,"ADDRESS":"中山路二段２８號","OBJECTID":226403},"geometry":{"x":179095.75,"y":2565966.8000000026}},{"attributes":{"ID":226408,"DIS_CODE":0,"TOWNNAME":"官田區","LI":"隆本里","LIN":"29鄰","STREET":"中山路","SECT":"二段","MAREA":" ","LANE":" ","ALLEY":" ","HOUSE_NO":"３０號","E_COORD97":179091.48999999999,"N_COORD97":2565968.46,"ADDRESS":"中山路二段３０號","OBJECTID":226404},"geometry":{"x":179091.49000000022,"y":2565968.4600000028}},{"attributes":{"ID":226409,"DIS_CODE":0,"TOWNNAME":"東區","LI":"小東里","LIN":"33鄰","STREET":"東平路","SECT":" ","MAREA":" ","LANE":" ","ALLEY":" ","HOUSE_NO":"８８號","E_COORD97":171173.26000000001,"N_COORD97":2543964.75,"ADDRESS":"東平路８８號","OBJECTID":226405},"geometry":{"x":171173.26000000071,"y":2543964.7499999981}},{"attributes":{"ID":226410,"DIS_CODE":0,"TOWNNAME":"永康區","LI":"北灣里","LIN":"29鄰","STREET":"文賢街","SECT":" ","MAREA":" ","LANE":"７８巷","ALLEY":" ","HOUSE_NO":"１１號","E_COORD97":175414.26000000001,"N_COORD97":2545318.0699999998,"ADDRESS":"文賢街７８巷１１號","OBJECTID":226406},"geometry":{"x":175414.26000000164,"y":2545318.0700000003}},{"attributes":{"ID":226411,"DIS_CODE":0,"TOWNNAME":"永康區","LI":"復華里","LIN":"22鄰","STREET":"復華七街","SECT":" ","MAREA":" ","LANE":"１１７巷","ALLEY":" ","HOUSE_NO":"３０號","E_COORD97":172807.28,"N_COORD97":2546220.5099999998,"ADDRESS":"復華七街１１７巷３０號","OBJECTID":226407},"geometry":{"x":172807.28000000212,"y":2546220.5099999998}},{"attributes":{"ID":226412,"DIS_CODE":0,"TOWNNAME":"東區","LI":"泉南里","LIN":"34鄰","STREET":"林森路","SECT":"一段","MAREA":" ","LANE":" ","ALLEY":" ","HOUSE_NO":"１５１號七樓","E_COORD97":169521.72,"N_COORD97":2542559.71,"ADDRESS":"林森路一段１５１號七樓","OBJECTID":226408},"geometry":{"x":169521.71999999974,"y":2542559.7100000028}},{"attributes":{"ID":226413,"DIS_CODE":0,"TOWNNAME":"永康區","LI":"埔園里","LIN":"22鄰","STREET":"四維街","SECT":" ","MAREA":" ","LANE":"５８巷","ALLEY":" ","HOUSE_NO":"５號","E_COORD97":173434.13,"N_COORD97":2548079.3399999999,"ADDRESS":"四維街５８巷５號","OBJECTID":226409},"geometry":{"x":173434.13000000082,"y":2548079.3399999999}},{"attributes":{"ID":226414,"DIS_CODE":0,"TOWNNAME":"永康區","LI":"安康里","LIN":"22鄰","STREET":"中華路","SECT":" ","MAREA":" ","LANE":"７０３巷","ALLEY":" ","HOUSE_NO":"７５號","E_COORD97":170730.35000000001,"N_COORD97":2546213.5099999998,"ADDRESS":"中華路７０３巷７５號","OBJECTID":226410},"geometry":{"x":170730.35000000056,"y":2546213.5099999998}},{"attributes":{"ID":226415,"DIS_CODE":0,"TOWNNAME":"永康區","LI":"二王里","LIN":"22鄰","STREET":"中山南路","SECT":" ","MAREA":" ","LANE":"６１６巷","ALLEY":" ","HOUSE_NO":"６號","E_COORD97":172322.78,"N_COORD97":2546570.4300000002,"ADDRESS":"中山南路６１６巷６號","OBJECTID":226411},"geometry":{"x":172322.78000000119,"y":2546570.4299999978}},{"attributes":{"ID":226416,"DIS_CODE":0,"TOWNNAME":"永康區","LI":"二王里","LIN":"22鄰","STREET":"中山南路","SECT":" ","MAREA":" ","LANE":"６１６巷","ALLEY":" ","HOUSE_NO":"４號","E_COORD97":172323.10999999999,"N_COORD97":2546574.6800000002,"ADDRESS":"中山南路６１６巷４號","OBJECTID":226412},"geometry":{"x":172323.11000000034,"y":2546574.6799999997}},{"attributes":{"ID":226417,"DIS_CODE":0,"TOWNNAME":"新市區","LI":"港墘里","LIN":"22鄰","STREET":"華美街","SECT":" ","MAREA":" ","LANE":"１３巷","ALLEY":" ","HOUSE_NO":"６號","E_COORD97":178096.56,"N_COORD97":2552864.0499999998,"ADDRESS":"華美街１３巷６號","OBJECTID":226413},"geometry":{"x":178096.55999999959,"y":2552864.0500000026}},{"attributes":{"ID":226418,"DIS_CODE":0,"TOWNNAME":"永康區","LI":"正強里","LIN":"22鄰","STREET":"中正路","SECT":" ","MAREA":" ","LANE":"１２７巷","ALLEY":" ","HOUSE_NO":"２９號","E_COORD97":173400.70999999999,"N_COORD97":2547770,"ADDRESS":"中正路１２７巷２９號","OBJECTID":226414},"geometry":{"x":173400.70999999903,"y":2547770}},{"attributes":{"ID":226419,"DIS_CODE":0,"TOWNNAME":"永康區","LI":"正強里","LIN":"22鄰","STREET":"中正路","SECT":" ","MAREA":" ","LANE":"１２７巷","ALLEY":" ","HOUSE_NO":"３７號","E_COORD97":173404.95999999999,"N_COORD97":2547752.75,"ADDRESS":"中正路１２７巷３７號","OBJECTID":226415},"geometry":{"x":173404.96000000089,"y":2547752.7500000019}},{"attributes":{"ID":226420,"DIS_CODE":0,"TOWNNAME":"永康區","LI":"正強里","LIN":"22鄰","STREET":"中正路","SECT":" ","MAREA":" ","LANE":"１２７巷","ALLEY":" ","HOUSE_NO":"３１號","E_COORD97":173402.01000000001,"N_COORD97":2547765.75,"ADDRESS":"中正路１２７巷３１號","OBJECTID":226416},"geometry":{"x":173402.01000000164,"y":2547765.7500000037}},{"attributes":{"ID":226421,"DIS_CODE":0,"TOWNNAME":"永康區","LI":"北灣里","LIN":"22鄰","STREET":"大灣路","SECT":" ","MAREA":" ","LANE":"４０巷","ALLEY":" ","HOUSE_NO":"１１０號","E_COORD97":174935.39999999999,"N_COORD97":2546238.8399999999,"ADDRESS":"大灣路４０巷１１０號","OBJECTID":226417},"geometry":{"x":174935.40000000037,"y":2546238.839999998}},{"attributes":{"ID":226422,"DIS_CODE":0,"TOWNNAME":"永康區","LI":"五王里","LIN":"22鄰","STREET":"成功路","SECT":" ","MAREA":" ","LANE":"２２８巷","ALLEY":" ","HOUSE_NO":"２５號","E_COORD97":171411.70999999999,"N_COORD97":2545821.27,"ADDRESS":"成功路２２８巷２５號","OBJECTID":226418},"geometry":{"x":171411.70999999996,"y":2545821.2699999996}},{"attributes":{"ID":226423,"DIS_CODE":0,"TOWNNAME":"永康區","LI":"五王里","LIN":"22鄰","STREET":"成功路","SECT":" ","MAREA":" ","LANE":"２２８巷","ALLEY":" ","HOUSE_NO":"４１號","E_COORD97":171443.66,"N_COORD97":2545844.2599999998,"ADDRESS":"成功路２２８巷４１號","OBJECTID":226419},"geometry":{"x":171443.66000000108,"y":2545844.2600000016}},{"attributes":{"ID":226424,"DIS_CODE":0,"TOWNNAME":"永康區","LI":"正強里","LIN":"22鄰","STREET":"中正路","SECT":" ","MAREA":" ","LANE":"１２７巷","ALLEY":" ","HOUSE_NO":"２７號","E_COORD97":173401.42000000001,"N_COORD97":2547774.75,"ADDRESS":"中正路１２７巷２７號","OBJECTID":226420},"geometry":{"x":173401.42000000086,"y":2547774.75}},{"attributes":{"ID":226425,"DIS_CODE":0,"TOWNNAME":"永康區","LI":"五王里","LIN":"22鄰","STREET":"成功路","SECT":" ","MAREA":" ","LANE":"２２８巷","ALLEY":" ","HOUSE_NO":"５１號","E_COORD97":171462.26000000001,"N_COORD97":2545861.5099999998,"ADDRESS":"成功路２２８巷５１號","OBJECTID":226421},"geometry":{"x":171462.25999999978,"y":2545861.5100000035}},{"attributes":{"ID":226426,"DIS_CODE":0,"TOWNNAME":"永康區","LI":"五王里","LIN":"22鄰","STREET":"成功路","SECT":" ","MAREA":" ","LANE":"２２８巷","ALLEY":" ","HOUSE_NO":"４５號","E_COORD97":171451.16,"N_COORD97":2545850.0099999998,"ADDRESS":"成功路２２８巷４５號","OBJECTID":226422},"geometry":{"x":171451.16000000015,"y":2545850.0099999998}},{"attributes":{"ID":226427,"DIS_CODE":0,"TOWNNAME":"永康區","LI":"五王里","LIN":"22鄰","STREET":"成功路","SECT":" ","MAREA":" ","LANE":"２２８巷","ALLEY":" ","HOUSE_NO":"４３號","E_COORD97":171447.45999999999,"N_COORD97":2545847.0099999998,"ADDRESS":"成功路２２８巷４３號","OBJECTID":226423},"geometry":{"x":171447.45999999996,"y":2545847.0099999998}},{"attributes":{"ID":226428,"DIS_CODE":0,"TOWNNAME":"永康區","LI":"五王里","LIN":"22鄰","STREET":"成功路","SECT":" ","MAREA":" ","LANE":"２２８巷","ALLEY":" ","HOUSE_NO":"１０號","E_COORD97":171392.01000000001,"N_COORD97":2545788.27,"ADDRESS":"成功路２２８巷１０號","OBJECTID":226424},"geometry":{"x":171392.01000000071,"y":2545788.2700000033}},{"attributes":{"ID":226429,"DIS_CODE":0,"TOWNNAME":"永康區","LI":"五王里","LIN":"22鄰","STREET":"成功路","SECT":" ","MAREA":" ","LANE":"２２８巷","ALLEY":" ","HOUSE_NO":"１５號","E_COORD97":171392.91,"N_COORD97":2545812.52,"ADDRESS":"成功路２２８巷１５號","OBJECTID":226425},"geometry":{"x":171392.91000000108,"y":2545812.5199999996}},{"attributes":{"ID":226430,"DIS_CODE":0,"TOWNNAME":"永康區","LI":"正強里","LIN":"22鄰","STREET":"中正路","SECT":" ","MAREA":" ","LANE":"１２７巷","ALLEY":" ","HOUSE_NO":"４１號","E_COORD97":173407.69,"N_COORD97":2547743.9900000002,"ADDRESS":"中正路１２７巷４１號","OBJECTID":226426},"geometry":{"x":173407.69000000041,"y":2547743.9900000039}},{"attributes":{"ID":226431,"DIS_CODE":0,"TOWNNAME":"永康區","LI":"五王里","LIN":"22鄰","STREET":"成功路","SECT":" ","MAREA":" ","LANE":"２２８巷","ALLEY":" ","HOUSE_NO":"９號","E_COORD97":171379.78,"N_COORD97":2545802.77,"ADDRESS":"成功路２２８巷９號","OBJECTID":226427},"geometry":{"x":171379.78000000026,"y":2545802.7700000014}},{"attributes":{"ID":226432,"DIS_CODE":0,"TOWNNAME":"永康區","LI":"五王里","LIN":"22鄰","STREET":"成功路","SECT":" ","MAREA":" ","LANE":"２２８巷","ALLEY":" ","HOUSE_NO":"３５號","E_COORD97":171431.20999999999,"N_COORD97":2545837.0099999998,"ADDRESS":"成功路２２８巷３５號","OBJECTID":226428},"geometry":{"x":171431.21000000089,"y":2545837.0099999998}},{"attributes":{"ID":226433,"DIS_CODE":0,"TOWNNAME":"安南區","LI":"國安里","LIN":"6鄰","STREET":"國安街","SECT":" ","MAREA":" ","LANE":"２１０巷","ALLEY":" ","HOUSE_NO":"３１號","E_COORD97":166566.45999999999,"N_COORD97":2547034.5600000001,"ADDRESS":"國安街２１０巷３１號","OBJECTID":226429},"geometry":{"x":166566.46000000089,"y":2547034.5600000005}},{"attributes":{"ID":226434,"DIS_CODE":0,"TOWNNAME":"安南區","LI":"溪頂里","LIN":"29鄰","STREET":"北安路","SECT":"二段","MAREA":" ","LANE":"６０巷","ALLEY":" ","HOUSE_NO":"６０號二樓","E_COORD97":168687.26000000001,"N_COORD97":2547517.3500000001,"ADDRESS":"北安路二段６０巷６０號二樓","OBJECTID":226430},"geometry":{"x":168687.25999999978,"y":2547517.3500000015}},{"attributes":{"ID":226435,"DIS_CODE":0,"TOWNNAME":"永康區","LI":"五王里","LIN":"22鄰","STREET":"成功路","SECT":" ","MAREA":" ","LANE":"２２８巷","ALLEY":" ","HOUSE_NO":"２８號","E_COORD97":171422.79999999999,"N_COORD97":2545815.02,"ADDRESS":"成功路２２８巷２８號","OBJECTID":226431},"geometry":{"x":171422.79999999981,"y":2545815.0200000014}},{"attributes":{"ID":226436,"DIS_CODE":0,"TOWNNAME":"永康區","LI":"正強里","LIN":"22鄰","STREET":"中正路","SECT":" ","MAREA":" ","LANE":"１２７巷","ALLEY":" ","HOUSE_NO":"３５號","E_COORD97":173403.92000000001,"N_COORD97":2547756.75,"ADDRESS":"中正路１２７巷３５號","OBJECTID":226432},"geometry":{"x":173403.91999999993,"y":2547756.7500000019}},{"attributes":{"ID":226437,"DIS_CODE":0,"TOWNNAME":"永康區","LI":"五王里","LIN":"22鄰","STREET":"成功路","SECT":" ","MAREA":" ","LANE":"２２８巷","ALLEY":" ","HOUSE_NO":"５９號","E_COORD97":171484.76000000001,"N_COORD97":2545872.2599999998,"ADDRESS":"成功路２２８巷５９號","OBJECTID":226433},"geometry":{"x":171484.76000000164,"y":2545872.2599999998}},{"attributes":{"ID":226438,"DIS_CODE":0,"TOWNNAME":"永康區","LI":"五王里","LIN":"22鄰","STREET":"成功路","SECT":" ","MAREA":" ","LANE":"２２８巷","ALLEY":" ","HOUSE_NO":"５６號","E_COORD97":171481.85000000001,"N_COORD97":2545850.5099999998,"ADDRESS":"成功路２２８巷５６號","OBJECTID":226434},"geometry":{"x":171481.84999999963,"y":2545850.5099999998}},{"attributes":{"ID":226439,"DIS_CODE":0,"TOWNNAME":"永康區","LI":"五王里","LIN":"22鄰","STREET":"成功路","SECT":" ","MAREA":" ","LANE":"２２８巷","ALLEY":" ","HOUSE_NO":"３０號","E_COORD97":171427.04000000001,"N_COORD97":2545817.27,"ADDRESS":"成功路２２８巷３０號","OBJECTID":226435},"geometry":{"x":171427.03999999911,"y":2545817.2699999996}},{"attributes":{"ID":226440,"DIS_CODE":0,"TOWNNAME":"永康區","LI":"五王里","LIN":"22鄰","STREET":"成功路","SECT":" ","MAREA":" ","LANE":"２２８巷","ALLEY":" ","HOUSE_NO":"１７號","E_COORD97":171397.79999999999,"N_COORD97":2545813.77,"ADDRESS":"成功路２２８巷１７號","OBJECTID":226436},"geometry":{"x":171397.79999999981,"y":2545813.7699999996}},{"attributes":{"ID":226441,"DIS_CODE":0,"TOWNNAME":"東區","LI":"大學里","LIN":"22鄰","STREET":"東寧路","SECT":" ","MAREA":" ","LANE":"９３巷","ALLEY":" ","HOUSE_NO":"６６號","E_COORD97":170376.20999999999,"N_COORD97":2543733.3399999999,"ADDRESS":"東寧路９３巷６６號","OBJECTID":226437},"geometry":{"x":170376.20999999996,"y":2543733.339999998}},{"attributes":{"ID":226442,"DIS_CODE":0,"TOWNNAME":"東區","LI":"大學里","LIN":"22鄰","STREET":"東寧路","SECT":" ","MAREA":" ","LANE":"９３巷","ALLEY":" ","HOUSE_NO":"６８號","E_COORD97":170363.04999999999,"N_COORD97":2543734.9700000002,"ADDRESS":"東寧路９３巷６８號","OBJECTID":226438},"geometry":{"x":170363.05000000075,"y":2543734.9700000025}},{"attributes":{"ID":226443,"DIS_CODE":0,"TOWNNAME":"東區","LI":"大學里","LIN":"22鄰","STREET":"東寧路","SECT":" ","MAREA":" ","LANE":"９３巷","ALLEY":" ","HOUSE_NO":"７０號","E_COORD97":170376.01000000001,"N_COORD97":2543709.0800000001,"ADDRESS":"東寧路９３巷７０號","OBJECTID":226439},"geometry":{"x":170376.01000000164,"y":2543709.0800000019}},{"attributes":{"ID":226444,"DIS_CODE":0,"TOWNNAME":"東區","LI":"大學里","LIN":"22鄰","STREET":"東寧路","SECT":" ","MAREA":" ","LANE":"９３巷","ALLEY":" ","HOUSE_NO":"７２號","E_COORD97":170360.69,"N_COORD97":2543710,"ADDRESS":"東寧路９３巷７２號","OBJECTID":226440},"geometry":{"x":170360.69000000134,"y":2543710.0000000019}},{"attributes":{"ID":226445,"DIS_CODE":0,"TOWNNAME":"東區","LI":"大學里","LIN":"22鄰","STREET":"東寧路","SECT":" ","MAREA":" ","LANE":"９３巷","ALLEY":" ","HOUSE_NO":"７４號","E_COORD97":170372.28,"N_COORD97":2543686.1499999999,"ADDRESS":"東寧路９３巷７４號","OBJECTID":226441},"geometry":{"x":170372.28000000026,"y":2543686.1500000022}},{"attributes":{"ID":226446,"DIS_CODE":0,"TOWNNAME":"永康區","LI":"西勢里","LIN":"22鄰","STREET":"富強路","SECT":"一段","MAREA":" ","LANE":"２巷","ALLEY":" ","HOUSE_NO":"１１１號","E_COORD97":175805.23999999999,"N_COORD97":2545801.3500000001,"ADDRESS":"富強路一段２巷１１１號","OBJECTID":226442},"geometry":{"x":175805.24000000115,"y":2545801.3500000034}},{"attributes":{"ID":226447,"DIS_CODE":0,"TOWNNAME":"永康區","LI":"五王里","LIN":"22鄰","STREET":"成功路","SECT":" ","MAREA":" ","LANE":"２２８巷","ALLEY":" ","HOUSE_NO":"３２號","E_COORD97":171425.22,"N_COORD97":2545817.71,"ADDRESS":"成功路２２８巷３２號","OBJECTID":226443},"geometry":{"x":171425.21999999974,"y":2545817.7100000028}},{"attributes":{"ID":226448,"DIS_CODE":0,"TOWNNAME":"永康區","LI":"五王里","LIN":"22鄰","STREET":"成功路","SECT":" ","MAREA":" ","LANE":"２２８巷","ALLEY":" ","HOUSE_NO":"３６號","E_COORD97":171429.28,"N_COORD97":2545820.6200000001,"ADDRESS":"成功路２２８巷３６號","OBJECTID":226444},"geometry":{"x":171429.28000000212,"y":2545820.620000001}},{"attributes":{"ID":226449,"DIS_CODE":0,"TOWNNAME":"安南區","LI":"溪頂里","LIN":"22鄰","STREET":"郡安路","SECT":"四段","MAREA":" ","LANE":"２４９巷","ALLEY":" ","HOUSE_NO":"４０號","E_COORD97":168725.91,"N_COORD97":2547546.8799999999,"ADDRESS":"郡安路四段２４９巷４０號","OBJECTID":226445},"geometry":{"x":168725.90999999922,"y":2547546.8800000008}},{"attributes":{"ID":226450,"DIS_CODE":0,"TOWNNAME":"安南區","LI":"溪頂里","LIN":"22鄰","STREET":"郡安路","SECT":"四段","MAREA":" ","LANE":"２４９巷","ALLEY":" ","HOUSE_NO":"２８號","E_COORD97":168724.17000000001,"N_COORD97":2547577.8500000001,"ADDRESS":"郡安路四段２４９巷２８號","OBJECTID":226446},"geometry":{"x":168724.17000000086,"y":2547577.8499999978}},{"attributes":{"ID":226451,"DIS_CODE":0,"TOWNNAME":"安南區","LI":"州北里","LIN":"22鄰","STREET":"安和路","SECT":"五段","MAREA":" ","LANE":"２６９巷","ALLEY":" ","HOUSE_NO":"１１號","E_COORD97":169693.88,"N_COORD97":2552000.1699999999,"ADDRESS":"安和路五段２６９巷１１號","OBJECTID":226447},"geometry":{"x":169693.88000000175,"y":2552000.1699999999}},{"attributes":{"ID":226452,"DIS_CODE":0,"TOWNNAME":"安南區","LI":"州北里","LIN":"22鄰","STREET":"安和路","SECT":"五段","MAREA":" ","LANE":"２６９巷","ALLEY":" ","HOUSE_NO":"２號","E_COORD97":169688.76000000001,"N_COORD97":2552026.5499999998,"ADDRESS":"安和路五段２６９巷２號","OBJECTID":226448},"geometry":{"x":169688.75999999978,"y":2552026.5500000026}},{"attributes":{"ID":226453,"DIS_CODE":0,"TOWNNAME":"東區","LI":"泉南里","LIN":"34鄰","STREET":"林森路","SECT":"一段","MAREA":" ","LANE":" ","ALLEY":" ","HOUSE_NO":"１５１號八樓","E_COORD97":169521.72,"N_COORD97":2542559.71,"ADDRESS":"林森路一段１５１號八樓","OBJECTID":226449},"geometry":{"x":169521.71999999974,"y":2542559.7100000028}},{"attributes":{"ID":226454,"DIS_CODE":0,"TOWNNAME":"東區","LI":"泉南里","LIN":"34鄰","STREET":"林森路","SECT":"一段","MAREA":" ","LANE":" ","ALLEY":" ","HOUSE_NO":"１５１號八樓之１","E_COORD97":169521.72,"N_COORD97":2542559.71,"ADDRESS":"林森路一段１５１號八樓之１","OBJECTID":226450},"geometry":{"x":169521.71999999974,"y":2542559.7100000028}},{"attributes":{"ID":226455,"DIS_CODE":0,"TOWNNAME":"新營區","LI":"新東里","LIN":"27鄰","STREET":"東光街","SECT":" ","MAREA":" ","LANE":"８２巷","ALLEY":" ","HOUSE_NO":"２０號","E_COORD97":180652.086576,"N_COORD97":2579625.3968699998,"ADDRESS":"東光街８２巷２０號","OBJECTID":226451},"geometry":{"x":180652.08657600079,"y":2579625.3968710005}},{"attributes":{"ID":226456,"DIS_CODE":0,"TOWNNAME":"安南區","LI":"溪頂里","LIN":"29鄰","STREET":"北安路","SECT":"二段","MAREA":" ","LANE":"６０巷","ALLEY":" ","HOUSE_NO":"６６號八樓","E_COORD97":168699.89999999999,"N_COORD97":2547517.8199999998,"ADDRESS":"北安路二段６０巷６６號八樓","OBJECTID":226452},"geometry":{"x":168699.9000000013,"y":2547517.820000004}},{"attributes":{"ID":226457,"DIS_CODE":0,"TOWNNAME":"安南區","LI":"州北里","LIN":"22鄰","STREET":"安和路","SECT":"五段","MAREA":" ","LANE":"２６９巷","ALLEY":" ","HOUSE_NO":"４號","E_COORD97":169683.41,"N_COORD97":2552024.6099999999,"ADDRESS":"安和路五段２６９巷４號","OBJECTID":226453},"geometry":{"x":169683.41000000015,"y":2552024.6100000013}},{"attributes":{"ID":226458,"DIS_CODE":0,"TOWNNAME":"安南區","LI":"州北里","LIN":"22鄰","STREET":"安和路","SECT":"五段","MAREA":" ","LANE":"２６９巷","ALLEY":" ","HOUSE_NO":"７號","E_COORD97":169705.23999999999,"N_COORD97":2552005.7599999998,"ADDRESS":"安和路五段２６９巷７號","OBJECTID":226454},"geometry":{"x":169705.23999999929,"y":2552005.7599999998}},{"attributes":{"ID":226459,"DIS_CODE":0,"TOWNNAME":"安南區","LI":"州北里","LIN":"22鄰","STREET":"安和路","SECT":"五段","MAREA":" ","LANE":"２６９巷","ALLEY":" ","HOUSE_NO":"９號","E_COORD97":169699.48000000001,"N_COORD97":2552002.7599999998,"ADDRESS":"安和路五段２６９巷９號","OBJECTID":226455},"geometry":{"x":169699.48000000138,"y":2552002.7599999998}},{"attributes":{"ID":226460,"DIS_CODE":0,"TOWNNAME":"永康區","LI":"北灣里","LIN":"22鄰","STREET":"大灣路","SECT":" ","MAREA":" ","LANE":"４０巷","ALLEY":" ","HOUSE_NO":"１０８號","E_COORD97":174937.82000000001,"N_COORD97":2546235.0899999999,"ADDRESS":"大灣路４０巷１０８號","OBJECTID":226456},"geometry":{"x":174937.8200000003,"y":2546235.0900000017}},{"attributes":{"ID":226461,"DIS_CODE":0,"TOWNNAME":"永康區","LI":"永康里","LIN":"22鄰","STREET":"中山南路","SECT":" ","MAREA":" ","LANE":"４７１巷","ALLEY":" ","HOUSE_NO":"３４號","E_COORD97":173156.42999999999,"N_COORD97":2547152.2999999998,"ADDRESS":"中山南路４７１巷３４號","OBJECTID":226457},"geometry":{"x":173156.4299999997,"y":2547152.3000000045}},{"attributes":{"ID":226462,"DIS_CODE":0,"TOWNNAME":"永康區","LI":"正強里","LIN":"22鄰","STREET":"自強路","SECT":" ","MAREA":" ","LANE":"３２１巷","ALLEY":" ","HOUSE_NO":"１０號","E_COORD97":173440.22,"N_COORD97":2547780.25,"ADDRESS":"自強路３２１巷１０號","OBJECTID":226458},"geometry":{"x":173440.22000000067,"y":2547780.2500000019}},{"attributes":{"ID":226463,"DIS_CODE":0,"TOWNNAME":"永康區","LI":"西勢里","LIN":"22鄰","STREET":"富強路","SECT":"一段","MAREA":" ","LANE":"２１６巷","ALLEY":" ","HOUSE_NO":"２５號","E_COORD97":175708.26999999999,"N_COORD97":2546357.5099999998,"ADDRESS":"富強路一段２１６巷２５號","OBJECTID":226459},"geometry":{"x":175708.26999999955,"y":2546357.5100000016}},{"attributes":{"ID":226464,"DIS_CODE":0,"TOWNNAME":"永康區","LI":"建國里","LIN":"22鄰","STREET":"興國街","SECT":" ","MAREA":" ","LANE":"５巷","ALLEY":" ","HOUSE_NO":"１號","E_COORD97":172669.82000000001,"N_COORD97":2544682.25,"ADDRESS":"興國街５巷１號","OBJECTID":226460},"geometry":{"x":172669.82000000216,"y":2544682.25}},{"attributes":{"ID":226465,"DIS_CODE":0,"TOWNNAME":"永康區","LI":"中興里","LIN":"22鄰","STREET":"中華路","SECT":" ","MAREA":" ","LANE":"２１２巷","ALLEY":" ","HOUSE_NO":"４０號","E_COORD97":171793.01000000001,"N_COORD97":2545010.5099999998,"ADDRESS":"中華路２１２巷４０號","OBJECTID":226461},"geometry":{"x":171793.00999999978,"y":2545010.5100000035}},{"attributes":{"ID":226466,"DIS_CODE":0,"TOWNNAME":"東區","LI":"自強里","LIN":"22鄰","STREET":"富農街","SECT":"一段","MAREA":" ","LANE":"１５３巷","ALLEY":" ","HOUSE_NO":"２２號","E_COORD97":171499.48000000001,"N_COORD97":2542535.4399999999,"ADDRESS":"富農街一段１５３巷２２號","OBJECTID":226462},"geometry":{"x":171499.48000000138,"y":2542535.4399999995}},{"attributes":{"ID":226467,"DIS_CODE":0,"TOWNNAME":"東區","LI":"自強里","LIN":"22鄰","STREET":"富農街","SECT":"一段","MAREA":" ","LANE":"１５３巷","ALLEY":" ","HOUSE_NO":"２４號","E_COORD97":171494.60000000001,"N_COORD97":2542535.4399999999,"ADDRESS":"富農街一段１５３巷２４號","OBJECTID":226463},"geometry":{"x":171494.60000000056,"y":2542535.4399999995}},{"attributes":{"ID":226468,"DIS_CODE":0,"TOWNNAME":"東區","LI":"自強里","LIN":"22鄰","STREET":"富農街","SECT":"一段","MAREA":" ","LANE":"１５３巷","ALLEY":" ","HOUSE_NO":"２６號","E_COORD97":171490.01000000001,"N_COORD97":2542535.4399999999,"ADDRESS":"富農街一段１５３巷２６號","OBJECTID":226464},"geometry":{"x":171490.01000000071,"y":2542535.4399999995}},{"attributes":{"ID":226469,"DIS_CODE":0,"TOWNNAME":"東區","LI":"自強里","LIN":"22鄰","STREET":"富農街","SECT":"一段","MAREA":" ","LANE":"１５３巷","ALLEY":" ","HOUSE_NO":"２８號","E_COORD97":171485.85000000001,"N_COORD97":2542535.4399999999,"ADDRESS":"富農街一段１５３巷２８號","OBJECTID":226465},"geometry":{"x":171485.85000000056,"y":2542535.4399999995}},{"attributes":{"ID":226470,"DIS_CODE":0,"TOWNNAME":"東區","LI":"自強里","LIN":"22鄰","STREET":"富農街","SECT":"一段","MAREA":" ","LANE":"１５３巷","ALLEY":" ","HOUSE_NO":"２號","E_COORD97":171528.32000000001,"N_COORD97":2542537.3199999998,"ADDRESS":"富農街一段１５３巷２號","OBJECTID":226466},"geometry":{"x":171528.3200000003,"y":2542537.320000004}},{"attributes":{"ID":226471,"DIS_CODE":0,"TOWNNAME":"新市區","LI":"港墘里","LIN":"22鄰","STREET":"南港街","SECT":" ","MAREA":" ","LANE":"２６巷","ALLEY":" ","HOUSE_NO":"２號","E_COORD97":178195.76999999999,"N_COORD97":2552784,"ADDRESS":"南港街２６巷２號","OBJECTID":226467},"geometry":{"x":178195.77000000142,"y":2552784}},{"attributes":{"ID":226472,"DIS_CODE":0,"TOWNNAME":"新市區","LI":"港墘里","LIN":"22鄰","STREET":"華美街","SECT":" ","MAREA":" ","LANE":"１３巷","ALLEY":" ","HOUSE_NO":"２號","E_COORD97":178112.78,"N_COORD97":2552839.7999999998,"ADDRESS":"華美街１３巷２號","OBJECTID":226468},"geometry":{"x":178112.78000000026,"y":2552839.8000000007}},{"attributes":{"ID":226473,"DIS_CODE":0,"TOWNNAME":"安南區","LI":"溪頂里","LIN":"22鄰","STREET":"郡安路","SECT":"四段","MAREA":" ","LANE":"２４９巷","ALLEY":" ","HOUSE_NO":"４２之１號","E_COORD97":168726.39999999999,"N_COORD97":2547538.5,"ADDRESS":"郡安路四段２４９巷４２之１號","OBJECTID":226469},"geometry":{"x":168726.40000000224,"y":2547538.5}},{"attributes":{"ID":226474,"DIS_CODE":0,"TOWNNAME":"安南區","LI":"海東里","LIN":"22鄰","STREET":"同安路","SECT":" ","MAREA":" ","LANE":"１７巷","ALLEY":" ","HOUSE_NO":"２號","E_COORD97":166848.91,"N_COORD97":2548903.5,"ADDRESS":"同安路１７巷２號","OBJECTID":226470},"geometry":{"x":166848.91000000015,"y":2548903.5000000019}},{"attributes":{"ID":226475,"DIS_CODE":0,"TOWNNAME":"安南區","LI":"海東里","LIN":"22鄰","STREET":"同安路","SECT":" ","MAREA":" ","LANE":"１７巷","ALLEY":" ","HOUSE_NO":"６號","E_COORD97":166850.92999999999,"N_COORD97":2548909.1699999999,"ADDRESS":"同安路１７巷６號","OBJECTID":226471},"geometry":{"x":166850.93000000063,"y":2548909.1700000018}},{"attributes":{"ID":226476,"DIS_CODE":0,"TOWNNAME":"安南區","LI":"海東里","LIN":"22鄰","STREET":"同安路","SECT":" ","MAREA":" ","LANE":"１７巷","ALLEY":" ","HOUSE_NO":"８號","E_COORD97":166849.94,"N_COORD97":2548913.3999999999,"ADDRESS":"同安路１７巷８號","OBJECTID":226472},"geometry":{"x":166849.94000000134,"y":2548913.4000000004}},{"attributes":{"ID":226477,"DIS_CODE":0,"TOWNNAME":"安南區","LI":"海東里","LIN":"22鄰","STREET":"同安路","SECT":" ","MAREA":" ","LANE":"１７巷","ALLEY":" ","HOUSE_NO":"１０號","E_COORD97":166848.17999999999,"N_COORD97":2548917.75,"ADDRESS":"同安路１７巷１０號","OBJECTID":226473},"geometry":{"x":166848.1799999997,"y":2548917.75}},{"attributes":{"ID":226478,"DIS_CODE":0,"TOWNNAME":"安南區","LI":"海東里","LIN":"22鄰","STREET":"海佃路","SECT":"二段","MAREA":" ","LANE":"４９２巷","ALLEY":" ","HOUSE_NO":"２號","E_COORD97":166793.57999999999,"N_COORD97":2548944.9399999999,"ADDRESS":"海佃路二段４９２巷２號","OBJECTID":226474},"geometry":{"x":166793.58000000007,"y":2548944.9400000013}},{"attributes":{"ID":226479,"DIS_CODE":0,"TOWNNAME":"安南區","LI":"海東里","LIN":"22鄰","STREET":"海佃路","SECT":"二段","MAREA":" ","LANE":"４９２巷","ALLEY":" ","HOUSE_NO":"６號","E_COORD97":166797.85999999999,"N_COORD97":2548945.6499999999,"ADDRESS":"海佃路二段４９２巷６號","OBJECTID":226475},"geometry":{"x":166797.86000000127,"y":2548945.6500000004}},{"attributes":{"ID":226480,"DIS_CODE":0,"TOWNNAME":"安南區","LI":"海東里","LIN":"22鄰","STREET":"海佃路","SECT":"二段","MAREA":" ","LANE":"４９２巷","ALLEY":" ","HOUSE_NO":"８號","E_COORD97":166802.23999999999,"N_COORD97":2548946.3599999999,"ADDRESS":"海佃路二段４９２巷８號","OBJECTID":226476},"geometry":{"x":166802.24000000115,"y":2548946.3599999994}},{"attributes":{"ID":226481,"DIS_CODE":0,"TOWNNAME":"安南區","LI":"海東里","LIN":"22鄰","STREET":"海佃路","SECT":"二段","MAREA":" ","LANE":"４９２巷","ALLEY":" ","HOUSE_NO":"１０號","E_COORD97":166806.48000000001,"N_COORD97":2548946.7799999998,"ADDRESS":"海佃路二段４９２巷１０號","OBJECTID":226477},"geometry":{"x":166806.48000000045,"y":2548946.7799999993}},{"attributes":{"ID":226482,"DIS_CODE":0,"TOWNNAME":"安南區","LI":"海東里","LIN":"22鄰","STREET":"海佃路","SECT":"二段","MAREA":" ","LANE":"４９２巷","ALLEY":" ","HOUSE_NO":"１２號","E_COORD97":166810.60999999999,"N_COORD97":2548947.3900000001,"ADDRESS":"海佃路二段４９２巷１２號","OBJECTID":226478},"geometry":{"x":166810.61000000034,"y":2548947.3900000006}},{"attributes":{"ID":226483,"DIS_CODE":0,"TOWNNAME":"安南區","LI":"海東里","LIN":"22鄰","STREET":"海佃路","SECT":"二段","MAREA":" ","LANE":"４９２巷","ALLEY":" ","HOUSE_NO":"１６號","E_COORD97":166814.89000000001,"N_COORD97":2548948.46,"ADDRESS":"海佃路二段４９２巷１６號","OBJECTID":226479},"geometry":{"x":166814.88999999966,"y":2548948.4600000046}},{"attributes":{"ID":226484,"DIS_CODE":0,"TOWNNAME":"安南區","LI":"海東里","LIN":"22鄰","STREET":"海佃路","SECT":"二段","MAREA":" ","LANE":"４９２巷","ALLEY":" ","HOUSE_NO":"１８號","E_COORD97":166819.07000000001,"N_COORD97":2548948.3599999999,"ADDRESS":"海佃路二段４９２巷１８號","OBJECTID":226480},"geometry":{"x":166819.0700000003,"y":2548948.3600000013}},{"attributes":{"ID":226485,"DIS_CODE":0,"TOWNNAME":"安南區","LI":"海東里","LIN":"22鄰","STREET":"海佃路","SECT":"二段","MAREA":" ","LANE":"４９２巷","ALLEY":" ","HOUSE_NO":"２０號","E_COORD97":166823.56,"N_COORD97":2548949.79,"ADDRESS":"海佃路二段４９２巷２０號","OBJECTID":226481},"geometry":{"x":166823.55999999959,"y":2548949.7899999991}},{"attributes":{"ID":226486,"DIS_CODE":0,"TOWNNAME":"歸仁區","LI":"八甲里","LIN":"14鄰","STREET":"大仁七街","SECT":" ","MAREA":" ","LANE":" ","ALLEY":" ","HOUSE_NO":"３０號","E_COORD97":178163.22,"N_COORD97":2541651.6099999999,"ADDRESS":"大仁七街３０號","OBJECTID":226482},"geometry":{"x":178163.21999999974,"y":2541651.6099999994}},{"attributes":{"ID":226487,"DIS_CODE":0,"TOWNNAME":"安南區","LI":"溪東里","LIN":"22鄰","STREET":"安富街","SECT":" ","MAREA":" ","LANE":"１６７巷","ALLEY":" ","HOUSE_NO":"１１號","E_COORD97":167809.69,"N_COORD97":2547464.9300000002,"ADDRESS":"安富街１６７巷１１號","OBJECTID":226483},"geometry":{"x":167809.69000000134,"y":2547464.9299999997}},{"attributes":{"ID":226488,"DIS_CODE":0,"TOWNNAME":"安南區","LI":"溪東里","LIN":"22鄰","STREET":"安富街","SECT":" ","MAREA":" ","LANE":"１６７巷","ALLEY":" ","HOUSE_NO":"１３號","E_COORD97":167810.59,"N_COORD97":2547460.8399999999,"ADDRESS":"安富街１６７巷１３號","OBJECTID":226484},"geometry":{"x":167810.58999999985,"y":2547460.8400000017}},{"attributes":{"ID":226489,"DIS_CODE":0,"TOWNNAME":"安南區","LI":"溪東里","LIN":"22鄰","STREET":"安富街","SECT":" ","MAREA":" ","LANE":"１６７巷","ALLEY":" ","HOUSE_NO":"１５號","E_COORD97":167810.32999999999,"N_COORD97":2547455.54,"ADDRESS":"安富街１６７巷１５號","OBJECTID":226485},"geometry":{"x":167810.33000000007,"y":2547455.540000001}},{"attributes":{"ID":226490,"DIS_CODE":0,"TOWNNAME":"佳里區","LI":"安西里","LIN":"22鄰","STREET":"公園路","SECT":" ","MAREA":" ","LANE":"４６７巷","ALLEY":" ","HOUSE_NO":"３７號","E_COORD97":165248.16,"N_COORD97":2562906.0600000001,"ADDRESS":"公園路４６７巷３７號","OBJECTID":226486},"geometry":{"x":165248.16000000108,"y":2562906.0600000024}},{"attributes":{"ID":226491,"DIS_CODE":0,"TOWNNAME":"佳里區","LI":"建南里","LIN":"22鄰","STREET":"四維三街","SECT":" ","MAREA":" ","LANE":"２３巷","ALLEY":" ","HOUSE_NO":"１１號","E_COORD97":165608.64999999999,"N_COORD97":2561416.4100000001,"ADDRESS":"四維三街２３巷１１號","OBJECTID":226487},"geometry":{"x":165608.65000000037,"y":2561416.4100000001}},{"attributes":{"ID":226492,"DIS_CODE":0,"TOWNNAME":"佳里區","LI":"建南里","LIN":"22鄰","STREET":"四維三街","SECT":" ","MAREA":" ","LANE":"２３巷","ALLEY":" ","HOUSE_NO":"１號","E_COORD97":165585.95000000001,"N_COORD97":2561416.5099999998,"ADDRESS":"四維三街２３巷１號","OBJECTID":226488},"geometry":{"x":165585.95000000019,"y":2561416.5100000035}},{"attributes":{"ID":226493,"DIS_CODE":0,"TOWNNAME":"永康區","LI":"尚頂里","LIN":"22鄰","STREET":"南台街","SECT":" ","MAREA":" ","LANE":"１３巷","ALLEY":" ","HOUSE_NO":"１８號","E_COORD97":170402.20999999999,"N_COORD97":2546891.4900000002,"ADDRESS":"南台街１３巷１８號","OBJECTID":226489},"geometry":{"x":170402.21000000089,"y":2546891.4900000002}},{"attributes":{"ID":226494,"DIS_CODE":0,"TOWNNAME":"永康區","LI":"尚頂里","LIN":"22鄰","STREET":"南台街","SECT":" ","MAREA":" ","LANE":"１３巷","ALLEY":" ","HOUSE_NO":"２２號","E_COORD97":170401.79000000001,"N_COORD97":2546882.9900000002,"ADDRESS":"南台街１３巷２２號","OBJECTID":226490},"geometry":{"x":170401.79000000097,"y":2546882.9900000021}},{"attributes":{"ID":226495,"DIS_CODE":0,"TOWNNAME":"永康區","LI":"尚頂里","LIN":"22鄰","STREET":"南台街","SECT":" ","MAREA":" ","LANE":"１３巷","ALLEY":" ","HOUSE_NO":"５６號","E_COORD97":170322.42999999999,"N_COORD97":2546840.2200000002,"ADDRESS":"南台街１３巷５６號","OBJECTID":226491},"geometry":{"x":170322.43000000063,"y":2546840.2200000007}},{"attributes":{"ID":226496,"DIS_CODE":0,"TOWNNAME":"安南區","LI":"新順里","LIN":"22鄰","STREET":"安豐六街","SECT":" ","MAREA":" ","LANE":"２５巷","ALLEY":" ","HOUSE_NO":"２９號","E_COORD97":169294.76000000001,"N_COORD97":2549773.5800000001,"ADDRESS":"安豐六街２５巷２９號","OBJECTID":226492},"geometry":{"x":169294.76000000071,"y":2549773.5800000001}},{"attributes":{"ID":226497,"DIS_CODE":0,"TOWNNAME":"佳里區","LI":"安西里","LIN":"22鄰","STREET":"光華街","SECT":" ","MAREA":" ","LANE":"９０巷","ALLEY":" ","HOUSE_NO":"１１號","E_COORD97":165219.92999999999,"N_COORD97":2562853.6800000002,"ADDRESS":"光華街９０巷１１號","OBJECTID":226493},"geometry":{"x":165219.93000000063,"y":2562853.6800000016}},{"attributes":{"ID":226498,"DIS_CODE":0,"TOWNNAME":"佳里區","LI":"安西里","LIN":"22鄰","STREET":"光華街","SECT":" ","MAREA":" ","LANE":"９０巷","ALLEY":" ","HOUSE_NO":"１５號","E_COORD97":165224.95999999999,"N_COORD97":2562861.5,"ADDRESS":"光華街９０巷１５號","OBJECTID":226494},"geometry":{"x":165224.96000000183,"y":2562861.5000000019}},{"attributes":{"ID":226499,"DIS_CODE":0,"TOWNNAME":"佳里區","LI":"安西里","LIN":"22鄰","STREET":"光華街","SECT":" ","MAREA":" ","LANE":"９０巷","ALLEY":" ","HOUSE_NO":"１７號","E_COORD97":165225.56,"N_COORD97":2562865.4100000001,"ADDRESS":"光華街９０巷１７號","OBJECTID":226495},"geometry":{"x":165225.56000000145,"y":2562865.4100000039}},{"attributes":{"ID":226500,"DIS_CODE":0,"TOWNNAME":"佳里區","LI":"六安里","LIN":"22鄰","STREET":"佳北路","SECT":" ","MAREA":" ","LANE":"３４５巷","ALLEY":" ","HOUSE_NO":"６號","E_COORD97":165415.69,"N_COORD97":2563422.1600000001,"ADDRESS":"佳北路３４５巷６號","OBJECTID":226496},"geometry":{"x":165415.69000000134,"y":2563422.1600000001}},{"attributes":{"ID":226501,"DIS_CODE":0,"TOWNNAME":"佳里區","LI":"六安里","LIN":"22鄰","STREET":"佳北路","SECT":" ","MAREA":" ","LANE":"３８３巷","ALLEY":" ","HOUSE_NO":"２號","E_COORD97":165303.92999999999,"N_COORD97":2563400.8300000001,"ADDRESS":"佳北路３８３巷２號","OBJECTID":226497},"geometry":{"x":165303.9299999997,"y":2563400.8300000001}},{"attributes":{"ID":226502,"DIS_CODE":0,"TOWNNAME":"佳里區","LI":"六安里","LIN":"22鄰","STREET":"佳北路","SECT":" ","MAREA":" ","LANE":"３８３巷","ALLEY":" ","HOUSE_NO":"３號","E_COORD97":165320.88,"N_COORD97":2563402.2000000002,"ADDRESS":"佳北路３８３巷３號","OBJECTID":226498},"geometry":{"x":165320.88000000082,"y":2563402.2000000011}},{"attributes":{"ID":226503,"DIS_CODE":0,"TOWNNAME":"佳里區","LI":"六安里","LIN":"22鄰","STREET":"佳北路","SECT":" ","MAREA":" ","LANE":"３８３巷","ALLEY":" ","HOUSE_NO":"５號","E_COORD97":165322.75,"N_COORD97":2563397.3100000001,"ADDRESS":"佳北路３８３巷５號","OBJECTID":226499},"geometry":{"x":165322.75,"y":2563397.3100000005}},{"attributes":{"ID":226504,"DIS_CODE":0,"TOWNNAME":"佳里區","LI":"六安里","LIN":"22鄰","STREET":"佳北路","SECT":" ","MAREA":" ","LANE":"３８３巷","ALLEY":" ","HOUSE_NO":"６號","E_COORD97":165306.91,"N_COORD97":2563395.8199999998,"ADDRESS":"佳北路３８３巷６號","OBJECTID":226500},"geometry":{"x":165306.91000000201,"y":2563395.8200000022}},{"attributes":{"ID":226505,"DIS_CODE":0,"TOWNNAME":"佳里區","LI":"六安里","LIN":"22鄰","STREET":"佳北路","SECT":" ","MAREA":" ","LANE":"３８３巷","ALLEY":" ","HOUSE_NO":"７號","E_COORD97":165325.01999999999,"N_COORD97":2563391.8799999999,"ADDRESS":"佳北路３８３巷７號","OBJECTID":226501},"geometry":{"x":165325.01999999955,"y":2563391.879999999}},{"attributes":{"ID":226506,"DIS_CODE":0,"TOWNNAME":"佳里區","LI":"六安里","LIN":"22鄰","STREET":"佳北路","SECT":" ","MAREA":" ","LANE":"３８３巷","ALLEY":" ","HOUSE_NO":"９號","E_COORD97":165326.79000000001,"N_COORD97":2563385.7400000002,"ADDRESS":"佳北路３８３巷９號","OBJECTID":226502},"geometry":{"x":165326.79000000097,"y":2563385.7400000021}},{"attributes":{"ID":226507,"DIS_CODE":0,"TOWNNAME":"官田區","LI":"二鎮里","LIN":"22鄰","STREET":"工社西街","SECT":" ","MAREA":" ","LANE":"１１巷","ALLEY":" ","HOUSE_NO":"１８號","E_COORD97":180949.14999999999,"N_COORD97":2568656.8500000001,"ADDRESS":"工社西街１１巷１８號","OBJECTID":226503},"geometry":{"x":180949.1500000013,"y":2568656.8500000015}},{"attributes":{"ID":226508,"DIS_CODE":0,"TOWNNAME":"官田區","LI":"二鎮里","LIN":"22鄰","STREET":"工社西街","SECT":" ","MAREA":" ","LANE":"１１巷","ALLEY":" ","HOUSE_NO":"５０號","E_COORD97":181265.64000000001,"N_COORD97":2568739.9500000002,"ADDRESS":"工社西街１１巷５０號","OBJECTID":226504},"geometry":{"x":181265.6400000006,"y":2568739.9500000011}},{"attributes":{"ID":226509,"DIS_CODE":0,"TOWNNAME":"官田區","LI":"二鎮里","LIN":"22鄰","STREET":"工社西街","SECT":" ","MAREA":" ","LANE":"１１巷","ALLEY":" ","HOUSE_NO":"５５號","E_COORD97":181293.51999999999,"N_COORD97":2568746.0800000001,"ADDRESS":"工社西街１１巷５５號","OBJECTID":226505},"geometry":{"x":181293.52000000048,"y":2568746.0800000001}},{"attributes":{"ID":226510,"DIS_CODE":0,"TOWNNAME":"官田區","LI":"二鎮里","LIN":"22鄰","STREET":"工社西街","SECT":" ","MAREA":" ","LANE":"１１巷","ALLEY":" ","HOUSE_NO":"５９號","E_COORD97":181362.35999999999,"N_COORD97":2568762.2400000002,"ADDRESS":"工社西街１１巷５９號","OBJECTID":226506},"geometry":{"x":181362.3599999994,"y":2568762.2399999984}},{"attributes":{"ID":226511,"DIS_CODE":0,"TOWNNAME":"官田區","LI":"二鎮里","LIN":"22鄰","STREET":"工社西街","SECT":" ","MAREA":" ","LANE":"１１巷","ALLEY":" ","HOUSE_NO":"５號","E_COORD97":180858.82999999999,"N_COORD97":2568632.1899999999,"ADDRESS":"工社西街１１巷５號","OBJECTID":226507},"geometry":{"x":180858.82999999914,"y":2568632.1899999995}},{"attributes":{"ID":226512,"DIS_CODE":0,"TOWNNAME":"安南區","LI":"安順里","LIN":"22鄰","STREET":"總安街","SECT":"一段","MAREA":" ","LANE":"２２６巷","ALLEY":" ","HOUSE_NO":"１號","E_COORD97":169445.38,"N_COORD97":2550273.1899999999,"ADDRESS":"總安街一段２２６巷１號","OBJECTID":226508},"geometry":{"x":169445.38000000082,"y":2550273.1899999995}},{"attributes":{"ID":226513,"DIS_CODE":0,"TOWNNAME":"安南區","LI":"安順里","LIN":"22鄰","STREET":"總安街","SECT":"一段","MAREA":" ","LANE":"２２６巷","ALLEY":" ","HOUSE_NO":"７號","E_COORD97":169446.48999999999,"N_COORD97":2550290.02,"ADDRESS":"總安街一段２２６巷７號","OBJECTID":226509},"geometry":{"x":169446.49000000115,"y":2550290.0200000014}},{"attributes":{"ID":226514,"DIS_CODE":0,"TOWNNAME":"安南區","LI":"安順里","LIN":"22鄰","STREET":"總安街","SECT":"一段","MAREA":" ","LANE":"２２６巷","ALLEY":" ","HOUSE_NO":"３號","E_COORD97":169445.70000000001,"N_COORD97":2550279.7000000002,"ADDRESS":"總安街一段２２６巷３號","OBJECTID":226510},"geometry":{"x":169445.70000000019,"y":2550279.6999999993}},{"attributes":{"ID":226515,"DIS_CODE":0,"TOWNNAME":"安南區","LI":"安順里","LIN":"22鄰","STREET":"總安街","SECT":"一段","MAREA":" ","LANE":"２２６巷","ALLEY":" ","HOUSE_NO":"５號","E_COORD97":169446.17999999999,"N_COORD97":2550285.2599999998,"ADDRESS":"總安街一段２２６巷５號","OBJECTID":226511},"geometry":{"x":169446.18000000063,"y":2550285.2600000016}},{"attributes":{"ID":226516,"DIS_CODE":0,"TOWNNAME":"安南區","LI":"安順里","LIN":"22鄰","STREET":"總安街","SECT":"一段","MAREA":" ","LANE":"２２６巷","ALLEY":" ","HOUSE_NO":"２號","E_COORD97":169458.56,"N_COORD97":2550253.0299999998,"ADDRESS":"總安街一段２２６巷２號","OBJECTID":226512},"geometry":{"x":169458.56000000145,"y":2550253.0300000012}},{"attributes":{"ID":226517,"DIS_CODE":0,"TOWNNAME":"白河區","LI":"永安里","LIN":"22鄰","STREET":"西安街","SECT":" ","MAREA":" ","LANE":"４８巷","ALLEY":" ","HOUSE_NO":"１號","E_COORD97":189769.76999999999,"N_COORD97":2582795.5,"ADDRESS":"西安街４８巷１號","OBJECTID":226513},"geometry":{"x":189769.76999999955,"y":2582795.5}},{"attributes":{"ID":226518,"DIS_CODE":0,"TOWNNAME":"白河區","LI":"永安里","LIN":"22鄰","STREET":"西安街","SECT":" ","MAREA":" ","LANE":"５０巷","ALLEY":" ","HOUSE_NO":"１０號","E_COORD97":189764.87,"N_COORD97":2582818.1000000001,"ADDRESS":"西安街５０巷１０號","OBJECTID":226514},"geometry":{"x":189764.87000000011,"y":2582818.0999999996}},{"attributes":{"ID":226519,"DIS_CODE":0,"TOWNNAME":"白河區","LI":"永安里","LIN":"22鄰","STREET":"西安街","SECT":" ","MAREA":" ","LANE":"５０巷","ALLEY":" ","HOUSE_NO":"１２號","E_COORD97":189767.25,"N_COORD97":2582822.5499999998,"ADDRESS":"西安街５０巷１２號","OBJECTID":226515},"geometry":{"x":189767.25,"y":2582822.5500000007}},{"attributes":{"ID":226520,"DIS_CODE":0,"TOWNNAME":"白河區","LI":"永安里","LIN":"22鄰","STREET":"西安街","SECT":" ","MAREA":" ","LANE":"５０巷","ALLEY":" ","HOUSE_NO":"１６號","E_COORD97":189769.62,"N_COORD97":2582827,"ADDRESS":"西安街５０巷１６號","OBJECTID":226516},"geometry":{"x":189769.62000000011,"y":2582827.0000000037}},{"attributes":{"ID":226521,"DIS_CODE":0,"TOWNNAME":"白河區","LI":"永安里","LIN":"22鄰","STREET":"西安街","SECT":" ","MAREA":" ","LANE":"５０巷","ALLEY":" ","HOUSE_NO":"６號","E_COORD97":189760.13,"N_COORD97":2582809.2000000002,"ADDRESS":"西安街５０巷６號","OBJECTID":226517},"geometry":{"x":189760.13000000082,"y":2582809.2000000011}},{"attributes":{"ID":226522,"DIS_CODE":0,"TOWNNAME":"白河區","LI":"永安里","LIN":"22鄰","STREET":"西安街","SECT":" ","MAREA":" ","LANE":"５０巷","ALLEY":" ","HOUSE_NO":"８號","E_COORD97":189762.5,"N_COORD97":2582813.6499999999,"ADDRESS":"西安街５０巷８號","OBJECTID":226518},"geometry":{"x":189762.50000000186,"y":2582813.6500000022}},{"attributes":{"ID":226523,"DIS_CODE":0,"TOWNNAME":"永康區","LI":"安康里","LIN":"22鄰","STREET":"中華西街","SECT":" ","MAREA":" ","LANE":"１２２巷","ALLEY":" ","HOUSE_NO":"１號","E_COORD97":170739.25,"N_COORD97":2546161.9900000002,"ADDRESS":"中華西街１２２巷１號","OBJECTID":226519},"geometry":{"x":170739.25000000186,"y":2546161.9900000021}},{"attributes":{"ID":226524,"DIS_CODE":0,"TOWNNAME":"永康區","LI":"正強里","LIN":"22鄰","STREET":"自強路","SECT":" ","MAREA":" ","LANE":"３２１巷","ALLEY":" ","HOUSE_NO":"１１號","E_COORD97":173432.01999999999,"N_COORD97":2547770,"ADDRESS":"自強路３２１巷１１號","OBJECTID":226520},"geometry":{"x":173432.01999999955,"y":2547770}},{"attributes":{"ID":226525,"DIS_CODE":0,"TOWNNAME":"鹽水區","LI":"橋南里","LIN":"22鄰","STREET":"新中路","SECT":" ","MAREA":" ","LANE":"１０２巷","ALLEY":" ","HOUSE_NO":"５號一樓","E_COORD97":175995.51999999999,"N_COORD97":2578601.8599999999,"ADDRESS":"新中路１０２巷５號一樓","OBJECTID":226521},"geometry":{"x":175995.52000000048,"y":2578601.8599999994}},{"attributes":{"ID":226526,"DIS_CODE":0,"TOWNNAME":"鹽水區","LI":"橋南里","LIN":"22鄰","STREET":"新中路","SECT":" ","MAREA":" ","LANE":"１０２巷","ALLEY":" ","HOUSE_NO":"５號七樓","E_COORD97":175995.51999999999,"N_COORD97":2578601.8599999999,"ADDRESS":"新中路１０２巷５號七樓","OBJECTID":226522},"geometry":{"x":175995.52000000048,"y":2578601.8599999994}},{"attributes":{"ID":226527,"DIS_CODE":0,"TOWNNAME":"鹽水區","LI":"橋南里","LIN":"22鄰","STREET":"新中路","SECT":" ","MAREA":" ","LANE":"１０２巷","ALLEY":" ","HOUSE_NO":"５號二樓","E_COORD97":175995.51999999999,"N_COORD97":2578601.8599999999,"ADDRESS":"新中路１０２巷５號二樓","OBJECTID":226523},"geometry":{"x":175995.52000000048,"y":2578601.8599999994}},{"attributes":{"ID":226528,"DIS_CODE":0,"TOWNNAME":"鹽水區","LI":"橋南里","LIN":"22鄰","STREET":"新中路","SECT":" ","MAREA":" ","LANE":"１０２巷","ALLEY":" ","HOUSE_NO":"５號三樓","E_COORD97":175995.51999999999,"N_COORD97":2578601.8599999999,"ADDRESS":"新中路１０２巷５號三樓","OBJECTID":226524},"geometry":{"x":175995.52000000048,"y":2578601.8599999994}},{"attributes":{"ID":226529,"DIS_CODE":0,"TOWNNAME":"鹽水區","LI":"橋南里","LIN":"22鄰","STREET":"新中路","SECT":" ","MAREA":" ","LANE":"１０２巷","ALLEY":" ","HOUSE_NO":"５號五樓","E_COORD97":175995.51999999999,"N_COORD97":2578601.8599999999,"ADDRESS":"新中路１０２巷５號五樓","OBJECTID":226525},"geometry":{"x":175995.52000000048,"y":2578601.8599999994}},{"attributes":{"ID":226530,"DIS_CODE":0,"TOWNNAME":"鹽水區","LI":"橋南里","LIN":"22鄰","STREET":"新中路","SECT":" ","MAREA":" ","LANE":"１０２巷","ALLEY":" ","HOUSE_NO":"５號六樓","E_COORD97":175995.51999999999,"N_COORD97":2578601.8599999999,"ADDRESS":"新中路１０２巷５號六樓","OBJECTID":226526},"geometry":{"x":175995.52000000048,"y":2578601.8599999994}},{"attributes":{"ID":226531,"DIS_CODE":0,"TOWNNAME":"鹽水區","LI":"橋南里","LIN":"22鄰","STREET":"新中路","SECT":" ","MAREA":" ","LANE":"１０２巷","ALLEY":" ","HOUSE_NO":"５號四樓","E_COORD97":175995.51999999999,"N_COORD97":2578601.8599999999,"ADDRESS":"新中路１０２巷５號四樓","OBJECTID":226527},"geometry":{"x":175995.52000000048,"y":2578601.8599999994}},{"attributes":{"ID":226532,"DIS_CODE":0,"TOWNNAME":"鹽水區","LI":"橋南里","LIN":"22鄰","STREET":"新中路","SECT":" ","MAREA":" ","LANE":"１０２巷","ALLEY":" ","HOUSE_NO":"７號一樓","E_COORD97":175989.32999999999,"N_COORD97":2578600.6699999999,"ADDRESS":"新中路１０２巷７號一樓","OBJECTID":226528},"geometry":{"x":175989.33000000101,"y":2578600.6699999999}},{"attributes":{"ID":226533,"DIS_CODE":0,"TOWNNAME":"鹽水區","LI":"橋南里","LIN":"22鄰","STREET":"新中路","SECT":" ","MAREA":" ","LANE":"１０２巷","ALLEY":" ","HOUSE_NO":"７號七樓","E_COORD97":175989.32999999999,"N_COORD97":2578600.6699999999,"ADDRESS":"新中路１０２巷７號七樓","OBJECTID":226529},"geometry":{"x":175989.33000000101,"y":2578600.6699999999}},{"attributes":{"ID":226534,"DIS_CODE":0,"TOWNNAME":"永康區","LI":"神洲里","LIN":"22鄰","STREET":"忠孝路","SECT":" ","MAREA":" ","LANE":"７６巷","ALLEY":" ","HOUSE_NO":"２９號二樓","E_COORD97":172166.28,"N_COORD97":2544924.9399999999,"ADDRESS":"忠孝路７６巷２９號二樓","OBJECTID":226530},"geometry":{"x":172166.28000000026,"y":2544924.9399999995}},{"attributes":{"ID":226535,"DIS_CODE":0,"TOWNNAME":"學甲區","LI":"秀昌里","LIN":"29鄰","STREET":" ","SECT":" ","MAREA":"煥昌","LANE":" ","ALLEY":" ","HOUSE_NO":"７０號","E_COORD97":166215.19,"N_COORD97":2570954.98,"ADDRESS":"煥昌７０號","OBJECTID":226531},"geometry":{"x":166215.19000000041,"y":2570954.9800000023}},{"attributes":{"ID":226536,"DIS_CODE":0,"TOWNNAME":"永康區","LI":"神洲里","LIN":"22鄰","STREET":"忠孝路","SECT":" ","MAREA":" ","LANE":"７６巷","ALLEY":" ","HOUSE_NO":"２９號四樓","E_COORD97":172166.28,"N_COORD97":2544924.9399999999,"ADDRESS":"忠孝路７６巷２９號四樓","OBJECTID":226532},"geometry":{"x":172166.28000000026,"y":2544924.9399999995}},{"attributes":{"ID":226537,"DIS_CODE":0,"TOWNNAME":"善化區","LI":"光文里","LIN":"22鄰","STREET":"光華路","SECT":" ","MAREA":" ","LANE":"３５巷","ALLEY":" ","HOUSE_NO":"１９號三樓之２","E_COORD97":178564.59,"N_COORD97":2559258.27,"ADDRESS":"光華路３５巷１９號三樓之２","OBJECTID":226533},"geometry":{"x":178564.58999999985,"y":2559258.2700000033}},{"attributes":{"ID":226538,"DIS_CODE":0,"TOWNNAME":"永康區","LI":"\u25A0行里","LIN":"22鄰","STREET":"正南五街","SECT":" ","MAREA":" ","LANE":"５２０巷","ALLEY":" ","HOUSE_NO":"５０號五樓","E_COORD97":171691.53,"N_COORD97":2548779.75,"ADDRESS":"正南五街５２０巷５０號五樓","OBJECTID":226534},"geometry":{"x":171691.53000000026,"y":2548779.7500000019}},{"attributes":{"ID":226539,"DIS_CODE":0,"TOWNNAME":"安南區","LI":"安順里","LIN":"14鄰","STREET":"總安街","SECT":"一段","MAREA":" ","LANE":"１４６巷","ALLEY":" ","HOUSE_NO":"９０號","E_COORD97":169630.98000000001,"N_COORD97":2550357.98,"ADDRESS":"總安街一段１４６巷９０號","OBJECTID":226535},"geometry":{"x":169630.97999999952,"y":2550357.9800000042}},{"attributes":{"ID":226540,"DIS_CODE":0,"TOWNNAME":"安南區","LI":"安西里","LIN":"12鄰","STREET":"安通路","SECT":"四段","MAREA":" ","LANE":"４７巷","ALLEY":" ","HOUSE_NO":"３號","E_COORD97":169140.46151299999,"N_COORD97":2547748.0888499999,"ADDRESS":"安通路四段４７巷３號","OBJECTID":226536},"geometry":{"x":169140.46151300054,"y":2547748.0888480004}},{"attributes":{"ID":226541,"DIS_CODE":0,"TOWNNAME":"永康區","LI":"網寮里","LIN":"22鄰","STREET":"永春街","SECT":" ","MAREA":" ","LANE":"２５巷","ALLEY":" ","HOUSE_NO":"１５號之１","E_COORD97":173734.04999999999,"N_COORD97":2546269.54,"ADDRESS":"永春街２５巷１５號之１","OBJECTID":226537},"geometry":{"x":173734.05000000168,"y":2546269.5399999991}},{"attributes":{"ID":226542,"DIS_CODE":0,"TOWNNAME":"永康區","LI":"網寮里","LIN":"22鄰","STREET":"永春街","SECT":" ","MAREA":" ","LANE":"２５巷","ALLEY":" ","HOUSE_NO":"１０號","E_COORD97":173731.31,"N_COORD97":2546288.2400000002,"ADDRESS":"永春街２５巷１０號","OBJECTID":226538},"geometry":{"x":173731.30999999959,"y":2546288.2400000021}},{"attributes":{"ID":226543,"DIS_CODE":0,"TOWNNAME":"永康區","LI":"網寮里","LIN":"22鄰","STREET":"永春街","SECT":" ","MAREA":" ","LANE":"２５巷","ALLEY":" ","HOUSE_NO":"１５號之３","E_COORD97":173725.75,"N_COORD97":2546267.04,"ADDRESS":"永春街２５巷１５號之３","OBJECTID":226539},"geometry":{"x":173725.75,"y":2546267.0399999991}},{"attributes":{"ID":226544,"DIS_CODE":0,"TOWNNAME":"永康區","LI":"復國里","LIN":"22鄰","STREET":"復華六街","SECT":" ","MAREA":" ","LANE":"９３巷","ALLEY":" ","HOUSE_NO":"１號","E_COORD97":172629.42999999999,"N_COORD97":2545820.7400000002,"ADDRESS":"復華六街９３巷１號","OBJECTID":226540},"geometry":{"x":172629.43000000156,"y":2545820.7400000021}},{"attributes":{"ID":226545,"DIS_CODE":0,"TOWNNAME":"永康區","LI":"龍潭里","LIN":"22鄰","STREET":"龍安街","SECT":" ","MAREA":" ","LANE":"２７２巷","ALLEY":" ","HOUSE_NO":"１０號","E_COORD97":174778.20000000001,"N_COORD97":2548548.8100000001,"ADDRESS":"龍安街２７２巷１０號","OBJECTID":226541},"geometry":{"x":174778.20000000112,"y":2548548.8100000042}},{"attributes":{"ID":226546,"DIS_CODE":0,"TOWNNAME":"永康區","LI":"網寮里","LIN":"22鄰","STREET":"永春街","SECT":" ","MAREA":" ","LANE":"２５巷","ALLEY":" ","HOUSE_NO":"１２之６號","E_COORD97":173705.57999999999,"N_COORD97":2546280.04,"ADDRESS":"永春街２５巷１２之６號","OBJECTID":226542},"geometry":{"x":173705.58000000101,"y":2546280.0399999991}},{"attributes":{"ID":226547,"DIS_CODE":0,"TOWNNAME":"永康區","LI":"勝利里","LIN":"22鄰","STREET":"勝華街","SECT":" ","MAREA":" ","LANE":"３７巷","ALLEY":" ","HOUSE_NO":"７號","E_COORD97":171460.70999999999,"N_COORD97":2545187.7599999998,"ADDRESS":"勝華街３７巷７號","OBJECTID":226543},"geometry":{"x":171460.70999999996,"y":2545187.7599999998}},{"attributes":{"ID":226548,"DIS_CODE":0,"TOWNNAME":"永康區","LI":"勝利里","LIN":"22鄰","STREET":"勝華街","SECT":" ","MAREA":" ","LANE":"３７巷","ALLEY":" ","HOUSE_NO":"５號","E_COORD97":171461.17000000001,"N_COORD97":2545192.2599999998,"ADDRESS":"勝華街３７巷５號","OBJECTID":226544},"geometry":{"x":171461.16999999993,"y":2545192.2600000016}},{"attributes":{"ID":226549,"DIS_CODE":0,"TOWNNAME":"東區","LI":"莊敬里","LIN":"22鄰","STREET":"莊敬路","SECT":" ","MAREA":" ","LANE":"１３６巷","ALLEY":" ","HOUSE_NO":"１０號","E_COORD97":171435.01999999999,"N_COORD97":2544018.6000000001,"ADDRESS":"莊敬路１３６巷１０號","OBJECTID":226545},"geometry":{"x":171435.01999999955,"y":2544018.5999999996}},{"attributes":{"ID":226550,"DIS_CODE":0,"TOWNNAME":"東區","LI":"莊敬里","LIN":"22鄰","STREET":"莊敬路","SECT":" ","MAREA":" ","LANE":"１３６巷","ALLEY":" ","HOUSE_NO":"１２號","E_COORD97":171439.48000000001,"N_COORD97":2544015.9500000002,"ADDRESS":"莊敬路１３６巷１２號","OBJECTID":226546},"geometry":{"x":171439.48000000045,"y":2544015.9499999993}},{"attributes":{"ID":226551,"DIS_CODE":0,"TOWNNAME":"東區","LI":"莊敬里","LIN":"22鄰","STREET":"莊敬路","SECT":" ","MAREA":" ","LANE":"１３６巷","ALLEY":" ","HOUSE_NO":"６號","E_COORD97":171426.10999999999,"N_COORD97":2544018.1800000002,"ADDRESS":"莊敬路１３６巷６號","OBJECTID":226547},"geometry":{"x":171426.11000000127,"y":2544018.1799999997}},{"attributes":{"ID":226552,"DIS_CODE":0,"TOWNNAME":"東區","LI":"莊敬里","LIN":"22鄰","STREET":"莊敬路","SECT":" ","MAREA":" ","LANE":"１３６巷","ALLEY":" ","HOUSE_NO":"８號","E_COORD97":171430.03,"N_COORD97":2544015.4199999999,"ADDRESS":"莊敬路１３６巷８號","OBJECTID":226548},"geometry":{"x":171430.03000000026,"y":2544015.4200000018}},{"attributes":{"ID":226553,"DIS_CODE":0,"TOWNNAME":"東區","LI":"莊敬里","LIN":"22鄰","STREET":"莊敬路","SECT":" ","MAREA":" ","LANE":"１１６巷","ALLEY":" ","HOUSE_NO":"１５號","E_COORD97":171435.56,"N_COORD97":2543977.75,"ADDRESS":"莊敬路１１６巷１５號","OBJECTID":226549},"geometry":{"x":171435.56000000052,"y":2543977.75}},{"attributes":{"ID":226554,"DIS_CODE":0,"TOWNNAME":"東區","LI":"莊敬里","LIN":"22鄰","STREET":"莊敬路","SECT":" ","MAREA":" ","LANE":"１３６巷","ALLEY":" ","HOUSE_NO":"４號","E_COORD97":171421.54000000001,"N_COORD97":2544020.73,"ADDRESS":"莊敬路１３６巷４號","OBJECTID":226550},"geometry":{"x":171421.54000000004,"y":2544020.7300000023}},{"attributes":{"ID":226555,"DIS_CODE":0,"TOWNNAME":"永康區","LI":"崑山里","LIN":"22鄰","STREET":"大灣路","SECT":" ","MAREA":" ","LANE":"７９８巷","ALLEY":" ","HOUSE_NO":"５０號","E_COORD97":174049.54000000001,"N_COORD97":2544643.2599999998,"ADDRESS":"大灣路７９８巷５０號","OBJECTID":226551},"geometry":{"x":174049.5400000019,"y":2544643.2600000016}},{"attributes":{"ID":226556,"DIS_CODE":0,"TOWNNAME":"永康區","LI":"勝利里","LIN":"22鄰","STREET":"中華一路","SECT":" ","MAREA":" ","LANE":"１８２巷","ALLEY":" ","HOUSE_NO":"２１號","E_COORD97":171502.13,"N_COORD97":2545105,"ADDRESS":"中華一路１８２巷２１號","OBJECTID":226552},"geometry":{"x":171502.12999999989,"y":2545105}},{"attributes":{"ID":226557,"DIS_CODE":0,"TOWNNAME":"中西區","LI":"西湖里","LIN":"22鄰","STREET":"湖美街","SECT":" ","MAREA":" ","LANE":"３２巷","ALLEY":" ","HOUSE_NO":"１５號","E_COORD97":165996.35000000001,"N_COORD97":2544582.1800000002,"ADDRESS":"湖美街３２巷１５號","OBJECTID":226553},"geometry":{"x":165996.34999999963,"y":2544582.1800000034}},{"attributes":{"ID":226558,"DIS_CODE":0,"TOWNNAME":"中西區","LI":"西湖里","LIN":"22鄰","STREET":"湖美街","SECT":" ","MAREA":" ","LANE":"３２巷","ALLEY":" ","HOUSE_NO":"１６號","E_COORD97":165997.14999999999,"N_COORD97":2544552.27,"ADDRESS":"湖美街３２巷１６號","OBJECTID":226554},"geometry":{"x":165997.15000000224,"y":2544552.2700000014}},{"attributes":{"ID":226559,"DIS_CODE":0,"TOWNNAME":"中西區","LI":"西湖里","LIN":"22鄰","STREET":"湖美街","SECT":" ","MAREA":" ","LANE":"３２巷","ALLEY":" ","HOUSE_NO":"１７號","E_COORD97":166000.63,"N_COORD97":2544582.98,"ADDRESS":"湖美街３２巷１７號","OBJECTID":226555},"geometry":{"x":166000.63000000082,"y":2544582.9800000004}},{"attributes":{"ID":226560,"DIS_CODE":0,"TOWNNAME":"中西區","LI":"西湖里","LIN":"22鄰","STREET":"湖美街","SECT":" ","MAREA":" ","LANE":"３２巷","ALLEY":" ","HOUSE_NO":"１８號","E_COORD97":166001.16,"N_COORD97":2544553.3399999999,"ADDRESS":"湖美街３２巷１８號","OBJECTID":226556},"geometry":{"x":166001.16000000015,"y":2544553.3399999999}},{"attributes":{"ID":226561,"DIS_CODE":0,"TOWNNAME":"中西區","LI":"西湖里","LIN":"22鄰","STREET":"湖美街","SECT":" ","MAREA":" ","LANE":"３２巷","ALLEY":" ","HOUSE_NO":"１９號","E_COORD97":166004.89999999999,"N_COORD97":2544581.9100000001,"ADDRESS":"湖美街３２巷１９號","OBJECTID":226557},"geometry":{"x":166004.90000000037,"y":2544581.910000002}},{"attributes":{"ID":226562,"DIS_CODE":0,"TOWNNAME":"中西區","LI":"西湖里","LIN":"22鄰","STREET":"湖美街","SECT":" ","MAREA":" ","LANE":"３２巷","ALLEY":" ","HOUSE_NO":"１號","E_COORD97":165966.13,"N_COORD97":2544580.3100000001,"ADDRESS":"湖美街３２巷１號","OBJECTID":226558},"geometry":{"x":165966.13000000175,"y":2544580.3100000024}},{"attributes":{"ID":226563,"DIS_CODE":0,"TOWNNAME":"中西區","LI":"光賢里","LIN":"22鄰","STREET":"和緯路","SECT":"四段","MAREA":" ","LANE":"２７７巷","ALLEY":" ","HOUSE_NO":"２號","E_COORD97":166690.03,"N_COORD97":2545275.4700000002,"ADDRESS":"和緯路四段２７７巷２號","OBJECTID":226559},"geometry":{"x":166690.03000000119,"y":2545275.4700000007}},{"attributes":{"ID":226564,"DIS_CODE":0,"TOWNNAME":"中西區","LI":"光賢里","LIN":"22鄰","STREET":"和緯路","SECT":"四段","MAREA":" ","LANE":"２７７巷","ALLEY":" ","HOUSE_NO":"４號","E_COORD97":166686.03,"N_COORD97":2545271.04,"ADDRESS":"和緯路四段２７７巷４號","OBJECTID":226560},"geometry":{"x":166686.03000000212,"y":2545271.040000001}},{"attributes":{"ID":226565,"DIS_CODE":0,"TOWNNAME":"中西區","LI":"光賢里","LIN":"22鄰","STREET":"和緯路","SECT":"四段","MAREA":" ","LANE":"２７７巷","ALLEY":" ","HOUSE_NO":"６號","E_COORD97":166678.04000000001,"N_COORD97":2545268.3799999999,"ADDRESS":"和緯路四段２７７巷６號","OBJECTID":226561},"geometry":{"x":166678.04000000097,"y":2545268.3800000027}},{"attributes":{"ID":226566,"DIS_CODE":0,"TOWNNAME":"新市區","LI":"港墘里","LIN":"22鄰","STREET":"南港街","SECT":" ","MAREA":" ","LANE":"２６巷","ALLEY":" ","HOUSE_NO":"１７號","E_COORD97":178177.32000000001,"N_COORD97":2552818.75,"ADDRESS":"南港街２６巷１７號","OBJECTID":226562},"geometry":{"x":178177.3200000003,"y":2552818.7500000019}},{"attributes":{"ID":226567,"DIS_CODE":0,"TOWNNAME":"新市區","LI":"港墘里","LIN":"22鄰","STREET":"南港街","SECT":" ","MAREA":" ","LANE":"２６巷","ALLEY":" ","HOUSE_NO":"８號","E_COORD97":178191.82000000001,"N_COORD97":2552801.75,"ADDRESS":"南港街２６巷８號","OBJECTID":226563},"geometry":{"x":178191.82000000123,"y":2552801.7500000019}},{"attributes":{"ID":226568,"DIS_CODE":0,"TOWNNAME":"新市區","LI":"新市里","LIN":"22鄰","STREET":"和平街","SECT":" ","MAREA":" ","LANE":"１６巷","ALLEY":" ","HOUSE_NO":"１５號","E_COORD97":177741.51000000001,"N_COORD97":2553514.75,"ADDRESS":"和平街１６巷１５號","OBJECTID":226564},"geometry":{"x":177741.50999999978,"y":2553514.75}},{"attributes":{"ID":226569,"DIS_CODE":0,"TOWNNAME":"新營區","LI":"三仙里","LIN":"23鄰","STREET":"育德一街","SECT":" ","MAREA":" ","LANE":" ","ALLEY":" ","HOUSE_NO":"９號","E_COORD97":179572.70000000001,"N_COORD97":2578930.23,"ADDRESS":"育德一街９號","OBJECTID":226565},"geometry":{"x":179572.70000000019,"y":2578930.2299999986}},{"attributes":{"ID":226570,"DIS_CODE":0,"TOWNNAME":"東區","LI":"虎尾里","LIN":"29鄰","STREET":"東成街","SECT":" ","MAREA":" ","LANE":"２００巷","ALLEY":" ","HOUSE_NO":"７０號","E_COORD97":171873.95000000001,"N_COORD97":2542119.0299999998,"ADDRESS":"東成街２００巷７０號","OBJECTID":226566},"geometry":{"x":171873.95000000112,"y":2542119.0300000012}},{"attributes":{"ID":226571,"DIS_CODE":0,"TOWNNAME":"永康區","LI":"復國里","LIN":"29鄰","STREET":"復華二街","SECT":" ","MAREA":" ","LANE":"１巷","ALLEY":" ","HOUSE_NO":"１１號","E_COORD97":172685.88,"N_COORD97":2545303.7799999998,"ADDRESS":"復華二街１巷１１號","OBJECTID":226567},"geometry":{"x":172685.88000000175,"y":2545303.7800000012}},{"attributes":{"ID":226572,"DIS_CODE":0,"TOWNNAME":"永康區","LI":"復國里","LIN":"29鄰","STREET":"復華二街","SECT":" ","MAREA":" ","LANE":"１巷","ALLEY":" ","HOUSE_NO":"１３號","E_COORD97":172684.17999999999,"N_COORD97":2545299.0299999998,"ADDRESS":"復華二街１巷１３號","OBJECTID":226568},"geometry":{"x":172684.18000000063,"y":2545299.0300000012}},{"attributes":{"ID":226573,"DIS_CODE":0,"TOWNNAME":"新市區","LI":"港墘里","LIN":"22鄰","STREET":"華美街","SECT":" ","MAREA":" ","LANE":"８巷","ALLEY":" ","HOUSE_NO":"１號","E_COORD97":178149.70000000001,"N_COORD97":2552807.7999999998,"ADDRESS":"華美街８巷１號","OBJECTID":226569},"geometry":{"x":178149.70000000112,"y":2552807.8000000026}},{"attributes":{"ID":226574,"DIS_CODE":0,"TOWNNAME":"新市區","LI":"港墘里","LIN":"22鄰","STREET":"華美街","SECT":" ","MAREA":" ","LANE":"８巷","ALLEY":" ","HOUSE_NO":"１２號","E_COORD97":178156.54000000001,"N_COORD97":2552800.0499999998,"ADDRESS":"華美街８巷１２號","OBJECTID":226570},"geometry":{"x":178156.54000000004,"y":2552800.0500000026}},{"attributes":{"ID":226575,"DIS_CODE":0,"TOWNNAME":"東區","LI":"崇善里","LIN":"22鄰","STREET":"崇善十一街","SECT":" ","MAREA":" ","LANE":"１２巷","ALLEY":" ","HOUSE_NO":"２１號之１","E_COORD97":171205.66,"N_COORD97":2541128.4700000002,"ADDRESS":"崇善十一街１２巷２１號之１","OBJECTID":226571},"geometry":{"x":171205.66000000015,"y":2541128.4700000007}},{"attributes":{"ID":226576,"DIS_CODE":0,"TOWNNAME":"東區","LI":"崇善里","LIN":"22鄰","STREET":"崇善十一街","SECT":" ","MAREA":" ","LANE":"１２巷","ALLEY":" ","HOUSE_NO":"２３號","E_COORD97":171208.76999999999,"N_COORD97":2541120.9300000002,"ADDRESS":"崇善十一街１２巷２３號","OBJECTID":226572},"geometry":{"x":171208.77000000048,"y":2541120.9299999997}},{"attributes":{"ID":226577,"DIS_CODE":0,"TOWNNAME":"永康區","LI":"中興里","LIN":"22鄰","STREET":"中華路","SECT":" ","MAREA":" ","LANE":"２１２巷","ALLEY":" ","HOUSE_NO":"９號","E_COORD97":171724.29000000001,"N_COORD97":2545018.04,"ADDRESS":"中華路２１２巷９號","OBJECTID":226573},"geometry":{"x":171724.29000000097,"y":2545018.040000001}},{"attributes":{"ID":226578,"DIS_CODE":0,"TOWNNAME":"永康區","LI":"中興里","LIN":"22鄰","STREET":"中華路","SECT":" ","MAREA":" ","LANE":"２１２巷","ALLEY":" ","HOUSE_NO":"１號","E_COORD97":171704.72,"N_COORD97":2545030.2400000002,"ADDRESS":"中華路２１２巷１號","OBJECTID":226574},"geometry":{"x":171704.71999999974,"y":2545030.2400000021}},{"attributes":{"ID":226579,"DIS_CODE":0,"TOWNNAME":"永康區","LI":"三合里","LIN":"22鄰","STREET":"南工街","SECT":" ","MAREA":" ","LANE":"３１１巷","ALLEY":" ","HOUSE_NO":"２０號","E_COORD97":171817.72,"N_COORD97":2545997.3900000001,"ADDRESS":"南工街３１１巷２０號","OBJECTID":226575},"geometry":{"x":171817.72000000067,"y":2545997.3900000006}},{"attributes":{"ID":226580,"DIS_CODE":0,"TOWNNAME":"永康區","LI":"崑山里","LIN":"22鄰","STREET":"大灣路","SECT":" ","MAREA":" ","LANE":"７９８巷","ALLEY":" ","HOUSE_NO":"２８號","E_COORD97":174030.48999999999,"N_COORD97":2544599.4900000002,"ADDRESS":"大灣路７９８巷２８號","OBJECTID":226576},"geometry":{"x":174030.49000000115,"y":2544599.4900000002}},{"attributes":{"ID":226581,"DIS_CODE":0,"TOWNNAME":"永康區","LI":"網寮里","LIN":"22鄰","STREET":"永春街","SECT":" ","MAREA":" ","LANE":"１３巷","ALLEY":" ","HOUSE_NO":"３９號","E_COORD97":173679.5,"N_COORD97":2546207.1899999999,"ADDRESS":"永春街１３巷３９號","OBJECTID":226577},"geometry":{"x":173679.5,"y":2546207.1900000013}},{"attributes":{"ID":226582,"DIS_CODE":0,"TOWNNAME":"永康區","LI":"網寮里","LIN":"22鄰","STREET":"永大一路","SECT":" ","MAREA":" ","LANE":"２５１巷","ALLEY":" ","HOUSE_NO":"２２號","E_COORD97":173666.32000000001,"N_COORD97":2546233.7599999998,"ADDRESS":"永大一路２５１巷２２號","OBJECTID":226578},"geometry":{"x":173666.3200000003,"y":2546233.7600000016}},{"attributes":{"ID":226583,"DIS_CODE":0,"TOWNNAME":"永康區","LI":"勝利里","LIN":"22鄰","STREET":"勝華街","SECT":" ","MAREA":" ","LANE":"３７巷","ALLEY":" ","HOUSE_NO":"２５號","E_COORD97":171459.17000000001,"N_COORD97":2545147.75,"ADDRESS":"勝華街３７巷２５號","OBJECTID":226579},"geometry":{"x":171459.17000000086,"y":2545147.75}},{"attributes":{"ID":226584,"DIS_CODE":0,"TOWNNAME":"永康區","LI":"網寮里","LIN":"22鄰","STREET":"永春街","SECT":" ","MAREA":" ","LANE":"１３巷","ALLEY":" ","HOUSE_NO":"１７號","E_COORD97":173731.94,"N_COORD97":2546217.6299999999,"ADDRESS":"永春街１３巷１７號","OBJECTID":226580},"geometry":{"x":173731.94000000227,"y":2546217.629999999}},{"attributes":{"ID":226585,"DIS_CODE":0,"TOWNNAME":"永康區","LI":"勝利里","LIN":"22鄰","STREET":"勝華街","SECT":" ","MAREA":" ","LANE":"３７巷","ALLEY":" ","HOUSE_NO":"２９號","E_COORD97":171459.42999999999,"N_COORD97":2545139.75,"ADDRESS":"勝華街３７巷２９號","OBJECTID":226581},"geometry":{"x":171459.4299999997,"y":2545139.75}},{"attributes":{"ID":226586,"DIS_CODE":0,"TOWNNAME":"永康區","LI":"勝利里","LIN":"22鄰","STREET":"勝華街","SECT":" ","MAREA":" ","LANE":"３７巷","ALLEY":" ","HOUSE_NO":"９號","E_COORD97":171460.48000000001,"N_COORD97":2545183.5099999998,"ADDRESS":"勝華街３７巷９號","OBJECTID":226582},"geometry":{"x":171460.48000000138,"y":2545183.5100000035}},{"attributes":{"ID":226587,"DIS_CODE":0,"TOWNNAME":"東區","LI":"泉南里","LIN":"34鄰","STREET":"林森路","SECT":"一段","MAREA":" ","LANE":" ","ALLEY":" ","HOUSE_NO":"１５１號九樓","E_COORD97":169521.72,"N_COORD97":2542559.71,"ADDRESS":"林森路一段１５１號九樓","OBJECTID":226583},"geometry":{"x":169521.71999999974,"y":2542559.7100000028}},{"attributes":{"ID":226588,"DIS_CODE":0,"TOWNNAME":"東區","LI":"泉南里","LIN":"34鄰","STREET":"林森路","SECT":"一段","MAREA":" ","LANE":" ","ALLEY":" ","HOUSE_NO":"１５１號十樓","E_COORD97":169521.72,"N_COORD97":2542559.71,"ADDRESS":"林森路一段１５１號十樓","OBJECTID":226584},"geometry":{"x":169521.71999999974,"y":2542559.7100000028}},{"attributes":{"ID":226589,"DIS_CODE":0,"TOWNNAME":"東區","LI":"泉南里","LIN":"34鄰","STREET":"林森路","SECT":"一段","MAREA":" ","LANE":" ","ALLEY":" ","HOUSE_NO":"１５１號十樓之１","E_COORD97":169521.72,"N_COORD97":2542559.71,"ADDRESS":"林森路一段１５１號十樓之１","OBJECTID":226585},"geometry":{"x":169521.71999999974,"y":2542559.7100000028}},{"attributes":{"ID":226590,"DIS_CODE":0,"TOWNNAME":"東區","LI":"小東里","LIN":"33鄰","STREET":"東興路","SECT":" ","MAREA":" ","LANE":"２８４巷","ALLEY":" ","HOUSE_NO":"２２號","E_COORD97":171115.20000000001,"N_COORD97":2543998.6200000001,"ADDRESS":"東興路２８４巷２２號","OBJECTID":226586},"geometry":{"x":171115.20000000019,"y":2543998.6200000029}},{"attributes":{"ID":226591,"DIS_CODE":0,"TOWNNAME":"東區","LI":"小東里","LIN":"33鄰","STREET":"東興路","SECT":" ","MAREA":" ","LANE":"２８４巷","ALLEY":" ","HOUSE_NO":"２４號","E_COORD97":171120.89999999999,"N_COORD97":2543998.1099999999,"ADDRESS":"東興路２８４巷２４號","OBJECTID":226587},"geometry":{"x":171120.90000000037,"y":2543998.1099999994}},{"attributes":{"ID":226592,"DIS_CODE":0,"TOWNNAME":"永康區","LI":"復華里","LIN":"29鄰","STREET":"國華街","SECT":" ","MAREA":" ","LANE":"１３６巷","ALLEY":" ","HOUSE_NO":"１８號","E_COORD97":172673.64999999999,"N_COORD97":2546216.25,"ADDRESS":"國華街１３６巷１８號","OBJECTID":226588},"geometry":{"x":172673.65000000037,"y":2546216.2500000037}},{"attributes":{"ID":226593,"DIS_CODE":0,"TOWNNAME":"永康區","LI":"網寮里","LIN":"22鄰","STREET":"永春街","SECT":" ","MAREA":" ","LANE":"１３巷","ALLEY":" ","HOUSE_NO":"３號","E_COORD97":173774.10000000001,"N_COORD97":2546227.9300000002,"ADDRESS":"永春街１３巷３號","OBJECTID":226589},"geometry":{"x":173774.10000000149,"y":2546227.9299999978}},{"attributes":{"ID":226594,"DIS_CODE":0,"TOWNNAME":"永康區","LI":"網寮里","LIN":"22鄰","STREET":"永春街","SECT":" ","MAREA":" ","LANE":"１３巷","ALLEY":" ","HOUSE_NO":"３２號","E_COORD97":173688.87,"N_COORD97":2546225.3700000001,"ADDRESS":"永春街１３巷３２號","OBJECTID":226590},"geometry":{"x":173688.87000000104,"y":2546225.370000001}},{"attributes":{"ID":226595,"DIS_CODE":0,"TOWNNAME":"永康區","LI":"勝利里","LIN":"22鄰","STREET":"勝華街","SECT":" ","MAREA":" ","LANE":"３７巷","ALLEY":" ","HOUSE_NO":"１３號","E_COORD97":171461.29000000001,"N_COORD97":2545175.0099999998,"ADDRESS":"勝華街３７巷１３號","OBJECTID":226591},"geometry":{"x":171461.29000000097,"y":2545175.0099999998}},{"attributes":{"ID":226596,"DIS_CODE":0,"TOWNNAME":"永康區","LI":"勝利里","LIN":"22鄰","STREET":"中華路","SECT":" ","MAREA":" ","LANE":"２１７巷","ALLEY":" ","HOUSE_NO":"２１號","E_COORD97":171547.10999999999,"N_COORD97":2545045.1200000001,"ADDRESS":"中華路２１７巷２１號","OBJECTID":226592},"geometry":{"x":171547.11000000034,"y":2545045.1200000048}},{"attributes":{"ID":226597,"DIS_CODE":0,"TOWNNAME":"永康區","LI":"勝利里","LIN":"22鄰","STREET":"中華路","SECT":" ","MAREA":" ","LANE":"２３１巷","ALLEY":" ","HOUSE_NO":"２號","E_COORD97":171581.10000000001,"N_COORD97":2545093.75,"ADDRESS":"中華路２３１巷２號","OBJECTID":226593},"geometry":{"x":171581.10000000056,"y":2545093.7499999981}},{"attributes":{"ID":226598,"DIS_CODE":0,"TOWNNAME":"永康區","LI":"勝利里","LIN":"22鄰","STREET":"中華路","SECT":" ","MAREA":" ","LANE":"２３１巷","ALLEY":" ","HOUSE_NO":"３號","E_COORD97":171579.70000000001,"N_COORD97":2545080.9500000002,"ADDRESS":"中華路２３１巷３號","OBJECTID":226594},"geometry":{"x":171579.70000000019,"y":2545080.9499999993}},{"attributes":{"ID":226599,"DIS_CODE":0,"TOWNNAME":"永康區","LI":"勝利里","LIN":"22鄰","STREET":"中華一路","SECT":" ","MAREA":" ","LANE":"１８２巷","ALLEY":" ","HOUSE_NO":"１７號","E_COORD97":171502.13,"N_COORD97":2545096.25,"ADDRESS":"中華一路１８２巷１７號","OBJECTID":226595},"geometry":{"x":171502.12999999989,"y":2545096.25}},{"attributes":{"ID":226600,"DIS_CODE":0,"TOWNNAME":"東區","LI":"泉南里","LIN":"34鄰","STREET":"林森路","SECT":"一段","MAREA":" ","LANE":" ","ALLEY":" ","HOUSE_NO":"１５１號十一樓","E_COORD97":169521.72,"N_COORD97":2542559.71,"ADDRESS":"林森路一段１５１號十一樓","OBJECTID":226596},"geometry":{"x":169521.71999999974,"y":2542559.7100000028}},{"attributes":{"ID":226601,"DIS_CODE":0,"TOWNNAME":"東區","LI":"泉南里","LIN":"34鄰","STREET":"林森路","SECT":"一段","MAREA":" ","LANE":" ","ALLEY":" ","HOUSE_NO":"１５１號十一樓之１","E_COORD97":169521.72,"N_COORD97":2542559.71,"ADDRESS":"林森路一段１５１號十一樓之１","OBJECTID":226597},"geometry":{"x":169521.71999999974,"y":2542559.7100000028}},{"attributes":{"ID":226602,"DIS_CODE":0,"TOWNNAME":"歸仁區","LI":"八甲里","LIN":"14鄰","STREET":"大明三街","SECT":" ","MAREA":" ","LANE":" ","ALLEY":" ","HOUSE_NO":"４５號","E_COORD97":178073.32000000001,"N_COORD97":2541719.6099999999,"ADDRESS":"大明三街４５號","OBJECTID":226598},"geometry":{"x":178073.3200000003,"y":2541719.6099999994}},{"attributes":{"ID":226603,"DIS_CODE":0,"TOWNNAME":"東區","LI":"泉南里","LIN":"29鄰","STREET":"府連路","SECT":" ","MAREA":" ","LANE":"３４４巷","ALLEY":" ","HOUSE_NO":"２７號","E_COORD97":169619.88,"N_COORD97":2542664.2000000002,"ADDRESS":"府連路３４４巷２７號","OBJECTID":226599},"geometry":{"x":169619.88000000082,"y":2542664.2000000011}},{"attributes":{"ID":226604,"DIS_CODE":0,"TOWNNAME":"東區","LI":"泉南里","LIN":"29鄰","STREET":"府連路","SECT":" ","MAREA":" ","LANE":"３４４巷","ALLEY":" ","HOUSE_NO":"３３號","E_COORD97":169622.22,"N_COORD97":2542649.3399999999,"ADDRESS":"府連路３４４巷３３號","OBJECTID":226600},"geometry":{"x":169622.22000000067,"y":2542649.3400000017}}]}