{"displayFieldName":"TOWNNAME","fieldAliases":{"ID":"ID","DIS_CODE":"DIS_CODE","TOWNNAME":"TOWNNAME","LI":"LI","LIN":"LIN","STREET":"STREET","SECT":"SECT","MAREA":"MAREA","LANE":"LANE","ALLEY":"ALLEY","HOUSE_NO":"HOUSE_NO","E_COORD97":"E_COORD97","N_COORD97":"N_COORD97","ADDRESS":"ADDRESS","OBJECTID":"OBJECTID"},"geometryType":"esriGeometryPoint","spatialReference":{"wkid":102443,"latestWkid":3826},"fields":[{"name":"ID","type":"esriFieldTypeDouble","alias":"ID"},{"name":"DIS_CODE","type":"esriFieldTypeInteger","alias":"DIS_CODE"},{"name":"TOWNNAME","type":"esriFieldTypeString","alias":"TOWNNAME","length":8},{"name":"LI","type":"esriFieldTypeString","alias":"LI","length":8},{"name":"LIN","type":"esriFieldTypeString","alias":"LIN","length":12},{"name":"STREET","type":"esriFieldTypeString","alias":"STREET","length":20},{"name":"SECT","type":"esriFieldTypeString","alias":"SECT","length":8},{"name":"MAREA","type":"esriFieldTypeString","alias":"MAREA","length":12},{"name":"LANE","type":"esriFieldTypeString","alias":"LANE","length":10},{"name":"ALLEY","type":"esriFieldTypeString","alias":"ALLEY","length":10},{"name":"HOUSE_NO","type":"esriFieldTypeString","alias":"HOUSE_NO","length":20},{"name":"E_COORD97","type":"esriFieldTypeDouble","alias":"E_COORD97"},{"name":"N_COORD97","type":"esriFieldTypeDouble","alias":"N_COORD97"},{"name":"ADDRESS","type":"esriFieldTypeString","alias":"ADDRESS","length":50},{"name":"OBJECTID","type":"esriFieldTypeOID","alias":"OBJECTID"}],"features":[{"attributes":{"ID":499828,"DIS_CODE":0,"TOWNNAME":"安平區","LI":"怡平里","LIN":"15鄰","STREET":"建平十一街","SECT":" ","MAREA":" ","LANE":" ","ALLEY":" ","HOUSE_NO":"２７２號","E_COORD97":165691.45000000001,"N_COORD97":2543989.2599999998,"ADDRESS":"建平十一街２７２號","OBJECTID":499801},"geometry":{"x":165691.45000000205,"y":2543989.2600000016}},{"attributes":{"ID":499829,"DIS_CODE":0,"TOWNNAME":"安平區","LI":"怡平里","LIN":"15鄰","STREET":"建平十一街","SECT":" ","MAREA":" ","LANE":" ","ALLEY":" ","HOUSE_NO":"２７４號","E_COORD97":165687.07000000001,"N_COORD97":2543990.4300000002,"ADDRESS":"建平十一街２７４號","OBJECTID":499802},"geometry":{"x":165687.0700000003,"y":2543990.4300000034}},{"attributes":{"ID":499830,"DIS_CODE":0,"TOWNNAME":"安平區","LI":"怡平里","LIN":"15鄰","STREET":"建平十一街","SECT":" ","MAREA":" ","LANE":" ","ALLEY":" ","HOUSE_NO":"２７６號","E_COORD97":165682.98000000001,"N_COORD97":2543991.0099999998,"ADDRESS":"建平十一街２７６號","OBJECTID":499803},"geometry":{"x":165682.98000000231,"y":2543991.0100000016}},{"attributes":{"ID":499831,"DIS_CODE":0,"TOWNNAME":"安平區","LI":"怡平里","LIN":"15鄰","STREET":"建平十一街","SECT":" ","MAREA":" ","LANE":" ","ALLEY":" ","HOUSE_NO":"２７８號","E_COORD97":165679.17999999999,"N_COORD97":2543991.3100000001,"ADDRESS":"建平十一街２７８號","OBJECTID":499804},"geometry":{"x":165679.18000000156,"y":2543991.3100000005}},{"attributes":{"ID":499832,"DIS_CODE":0,"TOWNNAME":"安平區","LI":"怡平里","LIN":"15鄰","STREET":"建平十一街","SECT":" ","MAREA":" ","LANE":" ","ALLEY":" ","HOUSE_NO":"２８０號","E_COORD97":165674.79999999999,"N_COORD97":2543991.8900000001,"ADDRESS":"建平十一街２８０號","OBJECTID":499805},"geometry":{"x":165674.79999999981,"y":2543991.8900000043}},{"attributes":{"ID":499833,"DIS_CODE":0,"TOWNNAME":"安平區","LI":"怡平里","LIN":"15鄰","STREET":"建平十一街","SECT":" ","MAREA":" ","LANE":" ","ALLEY":" ","HOUSE_NO":"２８２號","E_COORD97":165670.70999999999,"N_COORD97":2543992.4700000002,"ADDRESS":"建平十一街２８２號","OBJECTID":499806},"geometry":{"x":165670.71000000183,"y":2543992.4700000025}},{"attributes":{"ID":499834,"DIS_CODE":0,"TOWNNAME":"安平區","LI":"怡平里","LIN":"15鄰","STREET":"建平十一街","SECT":" ","MAREA":" ","LANE":" ","ALLEY":" ","HOUSE_NO":"２８４號","E_COORD97":165665.73999999999,"N_COORD97":2543992.77,"ADDRESS":"建平十一街２８４號","OBJECTID":499807},"geometry":{"x":165665.74000000209,"y":2543992.7700000014}},{"attributes":{"ID":499835,"DIS_CODE":0,"TOWNNAME":"安平區","LI":"怡平里","LIN":"15鄰","STREET":"建平十一街","SECT":" ","MAREA":" ","LANE":" ","ALLEY":" ","HOUSE_NO":"２８６號","E_COORD97":165661.64999999999,"N_COORD97":2543993.3500000001,"ADDRESS":"建平十一街２８６號","OBJECTID":499808},"geometry":{"x":165661.6500000013,"y":2543993.3499999996}},{"attributes":{"ID":499836,"DIS_CODE":0,"TOWNNAME":"安平區","LI":"怡平里","LIN":"15鄰","STREET":"建平十一街","SECT":" ","MAREA":" ","LANE":" ","ALLEY":" ","HOUSE_NO":"２８８號","E_COORD97":165656.67999999999,"N_COORD97":2543994.8100000001,"ADDRESS":"建平十一街２８８號","OBJECTID":499809},"geometry":{"x":165656.6799999997,"y":2543994.8100000005}},{"attributes":{"ID":499837,"DIS_CODE":0,"TOWNNAME":"安平區","LI":"怡平里","LIN":"15鄰","STREET":"文平路","SECT":" ","MAREA":" ","LANE":" ","ALLEY":" ","HOUSE_NO":"５０３號","E_COORD97":165815.22,"N_COORD97":2543991.98,"ADDRESS":"文平路５０３號","OBJECTID":499810},"geometry":{"x":165815.22000000067,"y":2543991.9800000023}},{"attributes":{"ID":499838,"DIS_CODE":0,"TOWNNAME":"安平區","LI":"平通里","LIN":"15鄰","STREET":"健康三街","SECT":" ","MAREA":" ","LANE":" ","ALLEY":" ","HOUSE_NO":"４５６號","E_COORD97":164841.66,"N_COORD97":2543889.1000000001,"ADDRESS":"健康三街４５６號","OBJECTID":499811},"geometry":{"x":164841.66000000015,"y":2543889.1000000015}},{"attributes":{"ID":499839,"DIS_CODE":0,"TOWNNAME":"安平區","LI":"平通里","LIN":"15鄰","STREET":"健康三街","SECT":" ","MAREA":" ","LANE":" ","ALLEY":" ","HOUSE_NO":"４５８號","E_COORD97":164843.19,"N_COORD97":2543898.3199999998,"ADDRESS":"健康三街４５８號","OBJECTID":499812},"geometry":{"x":164843.19000000134,"y":2543898.3200000022}},{"attributes":{"ID":499840,"DIS_CODE":0,"TOWNNAME":"新營區","LI":"民榮里","LIN":"15鄰","STREET":"復興路","SECT":" ","MAREA":" ","LANE":" ","ALLEY":" ","HOUSE_NO":"２５９號","E_COORD97":178783.69,"N_COORD97":2578091.2400000002,"ADDRESS":"復興路２５９號","OBJECTID":499813},"geometry":{"x":178783.69000000227,"y":2578091.2400000002}},{"attributes":{"ID":499841,"DIS_CODE":0,"TOWNNAME":"新營區","LI":"新東里","LIN":"15鄰","STREET":"東智街","SECT":" ","MAREA":" ","LANE":" ","ALLEY":" ","HOUSE_NO":"３３號","E_COORD97":180983.67000000001,"N_COORD97":2579617.96,"ADDRESS":"東智街３３號","OBJECTID":499814},"geometry":{"x":180983.67000000179,"y":2579617.9600000028}},{"attributes":{"ID":499842,"DIS_CODE":0,"TOWNNAME":"新營區","LI":"新東里","LIN":"15鄰","STREET":"東泰五街","SECT":" ","MAREA":" ","LANE":" ","ALLEY":" ","HOUSE_NO":"３３號","E_COORD97":181047.22,"N_COORD97":2579648.6699999999,"ADDRESS":"東泰五街３３號","OBJECTID":499815},"geometry":{"x":181047.21999999974,"y":2579648.6699999999}},{"attributes":{"ID":499843,"DIS_CODE":0,"TOWNNAME":"仁德區","LI":"土庫里","LIN":"15鄰","STREET":"土庫二街","SECT":" ","MAREA":" ","LANE":" ","ALLEY":" ","HOUSE_NO":"３１號","E_COORD97":174472.29999999999,"N_COORD97":2542958.2400000002,"ADDRESS":"土庫二街３１號","OBJECTID":499816},"geometry":{"x":174472.29999999981,"y":2542958.2400000039}},{"attributes":{"ID":499844,"DIS_CODE":0,"TOWNNAME":"新營區","LI":"民生里","LIN":"15鄰","STREET":"三民路","SECT":" ","MAREA":" ","LANE":" ","ALLEY":" ","HOUSE_NO":"１３５之５號","E_COORD97":179273.81,"N_COORD97":2578194.0899999999,"ADDRESS":"三民路１３５之５號","OBJECTID":499817},"geometry":{"x":179273.81000000052,"y":2578194.0899999999}},{"attributes":{"ID":499845,"DIS_CODE":0,"TOWNNAME":"新營區","LI":"王公里","LIN":"15鄰","STREET":"大勇街","SECT":" ","MAREA":" ","LANE":" ","ALLEY":" ","HOUSE_NO":"１０號","E_COORD97":180214.56,"N_COORD97":2579424.4399999999,"ADDRESS":"大勇街１０號","OBJECTID":499818},"geometry":{"x":180214.56000000052,"y":2579424.4400000013}},{"attributes":{"ID":499846,"DIS_CODE":0,"TOWNNAME":"柳營區","LI":"東昇里","LIN":"15鄰","STREET":"康樂街","SECT":" ","MAREA":" ","LANE":" ","ALLEY":" ","HOUSE_NO":"５８號","E_COORD97":180387.32000000001,"N_COORD97":2575148.0499999998,"ADDRESS":"康樂街５８號","OBJECTID":499819},"geometry":{"x":180387.3200000003,"y":2575148.0500000007}},{"attributes":{"ID":499847,"DIS_CODE":0,"TOWNNAME":"南區","LI":"金華里","LIN":"15鄰","STREET":"惠南街","SECT":" ","MAREA":" ","LANE":" ","ALLEY":" ","HOUSE_NO":"３９號","E_COORD97":166739.95000000001,"N_COORD97":2542090.9100000001,"ADDRESS":"惠南街３９號","OBJECTID":499820},"geometry":{"x":166739.95000000019,"y":2542090.9100000001}},{"attributes":{"ID":499848,"DIS_CODE":0,"TOWNNAME":"南區","LI":"金華里","LIN":"15鄰","STREET":"惠南街","SECT":" ","MAREA":" ","LANE":" ","ALLEY":" ","HOUSE_NO":"４３號","E_COORD97":166741.26000000001,"N_COORD97":2542112.4399999999,"ADDRESS":"惠南街４３號","OBJECTID":499821},"geometry":{"x":166741.25999999978,"y":2542112.4400000013}},{"attributes":{"ID":499849,"DIS_CODE":0,"TOWNNAME":"南區","LI":"金華里","LIN":"15鄰","STREET":"新孝路","SECT":" ","MAREA":" ","LANE":" ","ALLEY":" ","HOUSE_NO":"９２號","E_COORD97":166738.63,"N_COORD97":2542079.7799999998,"ADDRESS":"新孝路９２號","OBJECTID":499822},"geometry":{"x":166738.62999999989,"y":2542079.7800000012}},{"attributes":{"ID":499850,"DIS_CODE":0,"TOWNNAME":"南區","LI":"金華里","LIN":"15鄰","STREET":"新孝路","SECT":" ","MAREA":" ","LANE":" ","ALLEY":" ","HOUSE_NO":"９４號","E_COORD97":166726.56,"N_COORD97":2542080.6600000001,"ADDRESS":"新孝路９４號","OBJECTID":499823},"geometry":{"x":166726.56000000052,"y":2542080.6600000039}},{"attributes":{"ID":499851,"DIS_CODE":0,"TOWNNAME":"南區","LI":"金華里","LIN":"15鄰","STREET":"新孝路","SECT":" ","MAREA":" ","LANE":" ","ALLEY":" ","HOUSE_NO":"９６號","E_COORD97":166716.57000000001,"N_COORD97":2542081.3199999998,"ADDRESS":"新孝路９６號","OBJECTID":499824},"geometry":{"x":166716.57000000123,"y":2542081.3200000022}},{"attributes":{"ID":499852,"DIS_CODE":0,"TOWNNAME":"南區","LI":"金華里","LIN":"15鄰","STREET":"新孝路","SECT":" ","MAREA":" ","LANE":" ","ALLEY":" ","HOUSE_NO":"９８號","E_COORD97":166705.38,"N_COORD97":2542081.9700000002,"ADDRESS":"新孝路９８號","OBJECTID":499825},"geometry":{"x":166705.38000000175,"y":2542081.9700000007}},{"attributes":{"ID":499853,"DIS_CODE":0,"TOWNNAME":"安平區","LI":"平通里","LIN":"15鄰","STREET":"平通路","SECT":" ","MAREA":" ","LANE":" ","ALLEY":" ","HOUSE_NO":"６０２號","E_COORD97":164888.57999999999,"N_COORD97":2543857.25,"ADDRESS":"平通路６０２號","OBJECTID":499826},"geometry":{"x":164888.58000000194,"y":2543857.2500000019}},{"attributes":{"ID":499854,"DIS_CODE":0,"TOWNNAME":"安平區","LI":"平通里","LIN":"15鄰","STREET":"平通路","SECT":" ","MAREA":" ","LANE":" ","ALLEY":" ","HOUSE_NO":"５８２號","E_COORD97":164933.35999999999,"N_COORD97":2543850.8100000001,"ADDRESS":"平通路５８２號","OBJECTID":499827},"geometry":{"x":164933.36000000127,"y":2543850.8100000024}},{"attributes":{"ID":499855,"DIS_CODE":0,"TOWNNAME":"安平區","LI":"平通里","LIN":"15鄰","STREET":"平通路","SECT":" ","MAREA":" ","LANE":" ","ALLEY":" ","HOUSE_NO":"５８４號","E_COORD97":164927.79000000001,"N_COORD97":2543850.9700000002,"ADDRESS":"平通路５８４號","OBJECTID":499828},"geometry":{"x":164927.7900000019,"y":2543850.9700000007}},{"attributes":{"ID":499856,"DIS_CODE":0,"TOWNNAME":"安平區","LI":"平通里","LIN":"15鄰","STREET":"平通路","SECT":" ","MAREA":" ","LANE":" ","ALLEY":" ","HOUSE_NO":"５８６號","E_COORD97":164923.84,"N_COORD97":2543851.5299999998,"ADDRESS":"平通路５８６號","OBJECTID":499829},"geometry":{"x":164923.84000000171,"y":2543851.5300000012}},{"attributes":{"ID":499857,"DIS_CODE":0,"TOWNNAME":"安平區","LI":"平通里","LIN":"15鄰","STREET":"平通路","SECT":" ","MAREA":" ","LANE":" ","ALLEY":" ","HOUSE_NO":"５８８號","E_COORD97":164919.48999999999,"N_COORD97":2543852.25,"ADDRESS":"平通路５８８號","OBJECTID":499830},"geometry":{"x":164919.49000000022,"y":2543852.25}},{"attributes":{"ID":499858,"DIS_CODE":0,"TOWNNAME":"安平區","LI":"平通里","LIN":"15鄰","STREET":"平通路","SECT":" ","MAREA":" ","LANE":" ","ALLEY":" ","HOUSE_NO":"５９０號","E_COORD97":164914.89999999999,"N_COORD97":2543852.8999999999,"ADDRESS":"平通路５９０號","OBJECTID":499831},"geometry":{"x":164914.90000000037,"y":2543852.9000000022}},{"attributes":{"ID":499859,"DIS_CODE":0,"TOWNNAME":"安平區","LI":"平通里","LIN":"15鄰","STREET":"平通路","SECT":" ","MAREA":" ","LANE":" ","ALLEY":" ","HOUSE_NO":"５９２號","E_COORD97":164910.54000000001,"N_COORD97":2543853.54,"ADDRESS":"平通路５９２號","OBJECTID":499832},"geometry":{"x":164910.54000000004,"y":2543853.5400000028}},{"attributes":{"ID":499860,"DIS_CODE":0,"TOWNNAME":"安平區","LI":"平通里","LIN":"15鄰","STREET":"平通路","SECT":" ","MAREA":" ","LANE":" ","ALLEY":" ","HOUSE_NO":"５９４號","E_COORD97":164906.03,"N_COORD97":2543854.1899999999,"ADDRESS":"平通路５９４號","OBJECTID":499833},"geometry":{"x":164906.03000000212,"y":2543854.1900000013}},{"attributes":{"ID":499861,"DIS_CODE":0,"TOWNNAME":"安平區","LI":"平通里","LIN":"15鄰","STREET":"平通路","SECT":" ","MAREA":" ","LANE":" ","ALLEY":" ","HOUSE_NO":"５９６號","E_COORD97":164901.67999999999,"N_COORD97":2543854.8300000001,"ADDRESS":"平通路５９６號","OBJECTID":499834},"geometry":{"x":164901.68000000063,"y":2543854.8300000001}},{"attributes":{"ID":499862,"DIS_CODE":0,"TOWNNAME":"安平區","LI":"平通里","LIN":"15鄰","STREET":"平通路","SECT":" ","MAREA":" ","LANE":" ","ALLEY":" ","HOUSE_NO":"５９８號","E_COORD97":164897.81,"N_COORD97":2543855.5600000001,"ADDRESS":"平通路５９８號","OBJECTID":499835},"geometry":{"x":164897.80999999959,"y":2543855.5600000024}},{"attributes":{"ID":499863,"DIS_CODE":0,"TOWNNAME":"安平區","LI":"平通里","LIN":"15鄰","STREET":"平通路","SECT":" ","MAREA":" ","LANE":" ","ALLEY":" ","HOUSE_NO":"６００號","E_COORD97":164892.69,"N_COORD97":2543856.2799999998,"ADDRESS":"平通路６００號","OBJECTID":499836},"geometry":{"x":164892.69000000041,"y":2543856.2800000012}},{"attributes":{"ID":499864,"DIS_CODE":0,"TOWNNAME":"安平區","LI":"平通里","LIN":"15鄰","STREET":"平通路","SECT":" ","MAREA":" ","LANE":" ","ALLEY":" ","HOUSE_NO":"６０４號","E_COORD97":164884.22,"N_COORD97":2543857.8100000001,"ADDRESS":"平通路６０４號","OBJECTID":499837},"geometry":{"x":164884.22000000067,"y":2543857.8100000024}},{"attributes":{"ID":499865,"DIS_CODE":0,"TOWNNAME":"安平區","LI":"平通里","LIN":"15鄰","STREET":"平通路","SECT":" ","MAREA":" ","LANE":" ","ALLEY":" ","HOUSE_NO":"６０６號","E_COORD97":164879.63,"N_COORD97":2543858.54,"ADDRESS":"平通路６０６號","OBJECTID":499838},"geometry":{"x":164879.63000000175,"y":2543858.540000001}},{"attributes":{"ID":499866,"DIS_CODE":0,"TOWNNAME":"安平區","LI":"平通里","LIN":"15鄰","STREET":"平通路","SECT":" ","MAREA":" ","LANE":" ","ALLEY":" ","HOUSE_NO":"６０８號","E_COORD97":164875.20000000001,"N_COORD97":2543859.4199999999,"ADDRESS":"平通路６０８號","OBJECTID":499839},"geometry":{"x":164875.20000000019,"y":2543859.4200000018}},{"attributes":{"ID":499867,"DIS_CODE":0,"TOWNNAME":"安平區","LI":"平通里","LIN":"15鄰","STREET":"平通路","SECT":" ","MAREA":" ","LANE":" ","ALLEY":" ","HOUSE_NO":"６１０號","E_COORD97":164870.67999999999,"N_COORD97":2543859.8300000001,"ADDRESS":"平通路６１０號","OBJECTID":499840},"geometry":{"x":164870.68000000156,"y":2543859.8300000019}},{"attributes":{"ID":499868,"DIS_CODE":0,"TOWNNAME":"安平區","LI":"平通里","LIN":"15鄰","STREET":"平通路","SECT":" ","MAREA":" ","LANE":" ","ALLEY":" ","HOUSE_NO":"６１２號","E_COORD97":164866.25,"N_COORD97":2543860.6299999999,"ADDRESS":"平通路６１２號","OBJECTID":499841},"geometry":{"x":164866.25,"y":2543860.6300000008}},{"attributes":{"ID":499869,"DIS_CODE":0,"TOWNNAME":"安平區","LI":"平通里","LIN":"15鄰","STREET":"平通路","SECT":" ","MAREA":" ","LANE":" ","ALLEY":" ","HOUSE_NO":"６１４號","E_COORD97":164861.98000000001,"N_COORD97":2543861.6000000001,"ADDRESS":"平通路６１４號","OBJECTID":499842},"geometry":{"x":164861.98000000045,"y":2543861.6000000015}},{"attributes":{"ID":499870,"DIS_CODE":0,"TOWNNAME":"安平區","LI":"石門里","LIN":"15鄰","STREET":"民權路","SECT":"四段","MAREA":" ","LANE":" ","ALLEY":" ","HOUSE_NO":"７３５號","E_COORD97":164771.04999999999,"N_COORD97":2544665.5800000001,"ADDRESS":"民權路四段７３５號","OBJECTID":499843},"geometry":{"x":164771.04999999981,"y":2544665.5800000019}},{"attributes":{"ID":499871,"DIS_CODE":0,"TOWNNAME":"安平區","LI":"石門里","LIN":"15鄰","STREET":"民權路","SECT":"四段","MAREA":" ","LANE":" ","ALLEY":" ","HOUSE_NO":"７３７號","E_COORD97":164765.64000000001,"N_COORD97":2544667.3799999999,"ADDRESS":"民權路四段７３７號","OBJECTID":499844},"geometry":{"x":164765.64000000153,"y":2544667.379999999}},{"attributes":{"ID":499872,"DIS_CODE":0,"TOWNNAME":"安平區","LI":"石門里","LIN":"15鄰","STREET":"民權路","SECT":"四段","MAREA":" ","LANE":" ","ALLEY":" ","HOUSE_NO":"７３９號","E_COORD97":164761.25,"N_COORD97":2544667.1299999999,"ADDRESS":"民權路四段７３９號","OBJECTID":499845},"geometry":{"x":164761.25,"y":2544667.1300000008}},{"attributes":{"ID":499873,"DIS_CODE":0,"TOWNNAME":"安平區","LI":"石門里","LIN":"15鄰","STREET":"民權路","SECT":"四段","MAREA":" ","LANE":" ","ALLEY":" ","HOUSE_NO":"７４１號","E_COORD97":164757.64000000001,"N_COORD97":2544669.4500000002,"ADDRESS":"民權路四段７４１號","OBJECTID":499846},"geometry":{"x":164757.6400000006,"y":2544669.4500000011}},{"attributes":{"ID":499874,"DIS_CODE":0,"TOWNNAME":"安平區","LI":"石門里","LIN":"15鄰","STREET":"民權路","SECT":"四段","MAREA":" ","LANE":" ","ALLEY":" ","HOUSE_NO":"７４３號","E_COORD97":164753,"N_COORD97":2544670.48,"ADDRESS":"民權路四段７４３號","OBJECTID":499847},"geometry":{"x":164753,"y":2544670.4800000023}},{"attributes":{"ID":499875,"DIS_CODE":0,"TOWNNAME":"安平區","LI":"石門里","LIN":"15鄰","STREET":"民權路","SECT":"四段","MAREA":" ","LANE":" ","ALLEY":" ","HOUSE_NO":"７４５號","E_COORD97":164748.87,"N_COORD97":2544672.02,"ADDRESS":"民權路四段７４５號","OBJECTID":499848},"geometry":{"x":164748.87000000011,"y":2544672.0200000014}},{"attributes":{"ID":499876,"DIS_CODE":0,"TOWNNAME":"永康區","LI":"六合里","LIN":"5鄰","STREET":"新興街","SECT":" ","MAREA":" ","LANE":"３４巷","ALLEY":"１１弄","HOUSE_NO":"５號","E_COORD97":171072.64999999999,"N_COORD97":2545754.9900000002,"ADDRESS":"新興街３４巷１１弄５號","OBJECTID":499849},"geometry":{"x":171072.6500000013,"y":2545754.9900000021}},{"attributes":{"ID":499877,"DIS_CODE":0,"TOWNNAME":"永康區","LI":"中華里","LIN":"15鄰","STREET":"忠義街","SECT":" ","MAREA":" ","LANE":" ","ALLEY":" ","HOUSE_NO":"５２號","E_COORD97":171731.35999999999,"N_COORD97":2544494.4199999999,"ADDRESS":"忠義街５２號","OBJECTID":499850},"geometry":{"x":171731.36000000034,"y":2544494.4199999999}},{"attributes":{"ID":499878,"DIS_CODE":0,"TOWNNAME":"永康區","LI":"中華里","LIN":"15鄰","STREET":"華興街","SECT":" ","MAREA":" ","LANE":" ","ALLEY":" ","HOUSE_NO":"９７號底一層之１２","E_COORD97":171792.98000000001,"N_COORD97":2544563.1299999999,"ADDRESS":"華興街９７號底一層之１２","OBJECTID":499851},"geometry":{"x":171792.98000000138,"y":2544563.129999999}},{"attributes":{"ID":499879,"DIS_CODE":0,"TOWNNAME":"永康區","LI":"中華里","LIN":"15鄰","STREET":"華興街","SECT":" ","MAREA":" ","LANE":" ","ALLEY":" ","HOUSE_NO":"９７號底一層之１３","E_COORD97":171792.94,"N_COORD97":2544563.1299999999,"ADDRESS":"華興街９７號底一層之１３","OBJECTID":499852},"geometry":{"x":171792.94000000134,"y":2544563.129999999}},{"attributes":{"ID":499880,"DIS_CODE":0,"TOWNNAME":"永康區","LI":"中華里","LIN":"15鄰","STREET":"華興街","SECT":" ","MAREA":" ","LANE":" ","ALLEY":" ","HOUSE_NO":"９７號底一層之６","E_COORD97":171791.70000000001,"N_COORD97":2544563.1299999999,"ADDRESS":"華興街９７號底一層之６","OBJECTID":499853},"geometry":{"x":171791.70000000019,"y":2544563.129999999}},{"attributes":{"ID":499881,"DIS_CODE":0,"TOWNNAME":"永康區","LI":"三合里","LIN":"15鄰","STREET":"南工街","SECT":" ","MAREA":" ","LANE":" ","ALLEY":" ","HOUSE_NO":"２３１號","E_COORD97":172015.25,"N_COORD97":2545944.9900000002,"ADDRESS":"南工街２３１號","OBJECTID":499854},"geometry":{"x":172015.25,"y":2545944.9900000021}},{"attributes":{"ID":499882,"DIS_CODE":0,"TOWNNAME":"永康區","LI":"大橋里","LIN":"15鄰","STREET":"大橋二街","SECT":" ","MAREA":" ","LANE":" ","ALLEY":" ","HOUSE_NO":"５６號","E_COORD97":170842.16,"N_COORD97":2546608.3100000001,"ADDRESS":"大橋二街５６號","OBJECTID":499855},"geometry":{"x":170842.16000000108,"y":2546608.3100000005}},{"attributes":{"ID":499883,"DIS_CODE":0,"TOWNNAME":"永康區","LI":"二王里","LIN":"15鄰","STREET":"忠孝路","SECT":" ","MAREA":" ","LANE":" ","ALLEY":" ","HOUSE_NO":"４５６號","E_COORD97":172488.39000000001,"N_COORD97":2546635.52,"ADDRESS":"忠孝路４５６號","OBJECTID":499856},"geometry":{"x":172488.38999999966,"y":2546635.5200000014}},{"attributes":{"ID":499884,"DIS_CODE":0,"TOWNNAME":"北區","LI":"裕民里","LIN":"8鄰","STREET":"臨安路","SECT":"二段","MAREA":" ","LANE":" ","ALLEY":" ","HOUSE_NO":"４０號","E_COORD97":167594.97,"N_COORD97":2544775.8300000001,"ADDRESS":"臨安路二段４０號","OBJECTID":499857},"geometry":{"x":167594.97000000067,"y":2544775.8300000019}},{"attributes":{"ID":499885,"DIS_CODE":0,"TOWNNAME":"北區","LI":"裕民里","LIN":"8鄰","STREET":"臨安路","SECT":"二段","MAREA":" ","LANE":" ","ALLEY":" ","HOUSE_NO":"４２號","E_COORD97":167599.85999999999,"N_COORD97":2544777.6200000001,"ADDRESS":"臨安路二段４２號","OBJECTID":499858},"geometry":{"x":167599.86000000127,"y":2544777.6200000029}},{"attributes":{"ID":499886,"DIS_CODE":0,"TOWNNAME":"仁德區","LI":"仁德里","LIN":"15鄰","STREET":"仁德一街","SECT":" ","MAREA":" ","LANE":" ","ALLEY":" ","HOUSE_NO":"４５號","E_COORD97":173188.85000000001,"N_COORD97":2541283.0099999998,"ADDRESS":"仁德一街４５號","OBJECTID":499859},"geometry":{"x":173188.84999999963,"y":2541283.0099999998}},{"attributes":{"ID":499887,"DIS_CODE":0,"TOWNNAME":"仁德區","LI":"仁義里","LIN":"15鄰","STREET":"義林路","SECT":" ","MAREA":" ","LANE":" ","ALLEY":" ","HOUSE_NO":"２４０號","E_COORD97":174576.09,"N_COORD97":2541367.27,"ADDRESS":"義林路２４０號","OBJECTID":499860},"geometry":{"x":174576.08999999985,"y":2541367.2700000033}},{"attributes":{"ID":499888,"DIS_CODE":0,"TOWNNAME":"仁德區","LI":"土庫里","LIN":"15鄰","STREET":"土庫二街","SECT":" ","MAREA":" ","LANE":" ","ALLEY":" ","HOUSE_NO":"２１號","E_COORD97":174444.62,"N_COORD97":2542996.25,"ADDRESS":"土庫二街２１號","OBJECTID":499861},"geometry":{"x":174444.62000000104,"y":2542996.2500000019}},{"attributes":{"ID":499889,"DIS_CODE":0,"TOWNNAME":"仁德區","LI":"土庫里","LIN":"15鄰","STREET":"土庫二街","SECT":" ","MAREA":" ","LANE":" ","ALLEY":" ","HOUSE_NO":"２９號","E_COORD97":174474.70000000001,"N_COORD97":2542967.7400000002,"ADDRESS":"土庫二街２９號","OBJECTID":499862},"geometry":{"x":174474.70000000112,"y":2542967.7400000002}},{"attributes":{"ID":499890,"DIS_CODE":0,"TOWNNAME":"仁德區","LI":"土庫里","LIN":"15鄰","STREET":"土庫二街","SECT":" ","MAREA":" ","LANE":" ","ALLEY":" ","HOUSE_NO":"５號","E_COORD97":174415.98000000001,"N_COORD97":2543040.4900000002,"ADDRESS":"土庫二街５號","OBJECTID":499863},"geometry":{"x":174415.98000000045,"y":2543040.4900000002}},{"attributes":{"ID":499891,"DIS_CODE":0,"TOWNNAME":"仁德區","LI":"土庫里","LIN":"15鄰","STREET":"土庫二街","SECT":" ","MAREA":" ","LANE":" ","ALLEY":" ","HOUSE_NO":"２５號","E_COORD97":174449.92999999999,"N_COORD97":2542986.5,"ADDRESS":"土庫二街２５號","OBJECTID":499864},"geometry":{"x":174449.92999999877,"y":2542986.5}},{"attributes":{"ID":499892,"DIS_CODE":0,"TOWNNAME":"仁德區","LI":"土庫里","LIN":"15鄰","STREET":"土庫二街","SECT":" ","MAREA":" ","LANE":" ","ALLEY":" ","HOUSE_NO":"７６號","E_COORD97":174499.51000000001,"N_COORD97":2542872.7400000002,"ADDRESS":"土庫二街７６號","OBJECTID":499865},"geometry":{"x":174499.51000000071,"y":2542872.7400000002}},{"attributes":{"ID":499893,"DIS_CODE":0,"TOWNNAME":"仁德區","LI":"仁義里","LIN":"15鄰","STREET":"義林路","SECT":" ","MAREA":" ","LANE":" ","ALLEY":" ","HOUSE_NO":"２１８號","E_COORD97":174572.01999999999,"N_COORD97":2541301.0099999998,"ADDRESS":"義林路２１８號","OBJECTID":499866},"geometry":{"x":174572.02000000048,"y":2541301.0099999998}},{"attributes":{"ID":499894,"DIS_CODE":0,"TOWNNAME":"仁德區","LI":"土庫里","LIN":"15鄰","STREET":"土庫二街","SECT":" ","MAREA":" ","LANE":" ","ALLEY":" ","HOUSE_NO":"１０號","E_COORD97":174422.45999999999,"N_COORD97":2543005,"ADDRESS":"土庫二街１０號","OBJECTID":499867},"geometry":{"x":174422.45999999996,"y":2543005.0000000019}},{"attributes":{"ID":499895,"DIS_CODE":0,"TOWNNAME":"仁德區","LI":"仁德里","LIN":"15鄰","STREET":"仁德一街","SECT":" ","MAREA":" ","LANE":" ","ALLEY":" ","HOUSE_NO":"３７號","E_COORD97":173188.69,"N_COORD97":2541265.27,"ADDRESS":"仁德一街３７號","OBJECTID":499868},"geometry":{"x":173188.69000000041,"y":2541265.2699999996}},{"attributes":{"ID":499896,"DIS_CODE":0,"TOWNNAME":"仁德區","LI":"土庫里","LIN":"15鄰","STREET":"土庫二街","SECT":" ","MAREA":" ","LANE":" ","ALLEY":" ","HOUSE_NO":"１９號","E_COORD97":174439.34,"N_COORD97":2543000,"ADDRESS":"土庫二街１９號","OBJECTID":499869},"geometry":{"x":174439.34000000078,"y":2543000}},{"attributes":{"ID":499897,"DIS_CODE":0,"TOWNNAME":"仁德區","LI":"仁義里","LIN":"15鄰","STREET":"義林路","SECT":" ","MAREA":" ","LANE":" ","ALLEY":" ","HOUSE_NO":"２３２號","E_COORD97":174573.95999999999,"N_COORD97":2541334.77,"ADDRESS":"義林路２３２號","OBJECTID":499870},"geometry":{"x":174573.96000000183,"y":2541334.7700000014}},{"attributes":{"ID":499898,"DIS_CODE":0,"TOWNNAME":"仁德區","LI":"仁義里","LIN":"15鄰","STREET":"義林路","SECT":" ","MAREA":" ","LANE":" ","ALLEY":" ","HOUSE_NO":"２１４號","E_COORD97":174568.51000000001,"N_COORD97":2541293.5099999998,"ADDRESS":"義林路２１４號","OBJECTID":499871},"geometry":{"x":174568.51000000071,"y":2541293.5099999998}},{"attributes":{"ID":499899,"DIS_CODE":0,"TOWNNAME":"仁德區","LI":"上崙里","LIN":"15鄰","STREET":"德崙路","SECT":" ","MAREA":" ","LANE":" ","ALLEY":" ","HOUSE_NO":"４００號","E_COORD97":174085.17999999999,"N_COORD97":2538091.5099999998,"ADDRESS":"德崙路４００號","OBJECTID":499872},"geometry":{"x":174085.1799999997,"y":2538091.5100000016}},{"attributes":{"ID":499900,"DIS_CODE":0,"TOWNNAME":"仁德區","LI":"仁義里","LIN":"15鄰","STREET":"義林路","SECT":" ","MAREA":" ","LANE":" ","ALLEY":" ","HOUSE_NO":"２２６號","E_COORD97":174572.10000000001,"N_COORD97":2541318.2599999998,"ADDRESS":"義林路２２６號","OBJECTID":499873},"geometry":{"x":174572.09999999963,"y":2541318.2600000016}},{"attributes":{"ID":499901,"DIS_CODE":0,"TOWNNAME":"仁德區","LI":"仁德里","LIN":"15鄰","STREET":"中山路","SECT":" ","MAREA":" ","LANE":" ","ALLEY":" ","HOUSE_NO":"６４１號","E_COORD97":173217.54999999999,"N_COORD97":2541326.7400000002,"ADDRESS":"中山路６４１號","OBJECTID":499874},"geometry":{"x":173217.55000000075,"y":2541326.7400000002}},{"attributes":{"ID":499902,"DIS_CODE":0,"TOWNNAME":"仁德區","LI":"仁德里","LIN":"15鄰","STREET":"仁德一街","SECT":" ","MAREA":" ","LANE":" ","ALLEY":" ","HOUSE_NO":"５０號","E_COORD97":173176.10999999999,"N_COORD97":2541270.77,"ADDRESS":"仁德一街５０號","OBJECTID":499875},"geometry":{"x":173176.11000000034,"y":2541270.7699999996}},{"attributes":{"ID":499903,"DIS_CODE":0,"TOWNNAME":"仁德區","LI":"仁德里","LIN":"15鄰","STREET":"中山路","SECT":" ","MAREA":" ","LANE":" ","ALLEY":" ","HOUSE_NO":"６２９號","E_COORD97":173250.29000000001,"N_COORD97":2541320.4900000002,"ADDRESS":"中山路６２９號","OBJECTID":499876},"geometry":{"x":173250.29000000097,"y":2541320.4900000021}},{"attributes":{"ID":499904,"DIS_CODE":0,"TOWNNAME":"仁德區","LI":"仁德里","LIN":"15鄰","STREET":"中山路","SECT":" ","MAREA":" ","LANE":" ","ALLEY":" ","HOUSE_NO":"６４７號","E_COORD97":173206.89999999999,"N_COORD97":2541329,"ADDRESS":"中山路６４７號","OBJECTID":499877},"geometry":{"x":173206.9000000013,"y":2541329.0000000037}},{"attributes":{"ID":499905,"DIS_CODE":0,"TOWNNAME":"仁德區","LI":"仁德里","LIN":"15鄰","STREET":"仁德一街","SECT":" ","MAREA":" ","LANE":" ","ALLEY":" ","HOUSE_NO":"４７號","E_COORD97":173189.04000000001,"N_COORD97":2541287.0099999998,"ADDRESS":"仁德一街４７號","OBJECTID":499878},"geometry":{"x":173189.04000000097,"y":2541287.0099999998}},{"attributes":{"ID":499906,"DIS_CODE":0,"TOWNNAME":"仁德區","LI":"仁德里","LIN":"15鄰","STREET":"仁德一街","SECT":" ","MAREA":" ","LANE":" ","ALLEY":" ","HOUSE_NO":"７０號","E_COORD97":173177.32000000001,"N_COORD97":2541315.0099999998,"ADDRESS":"仁德一街７０號","OBJECTID":499879},"geometry":{"x":173177.32000000123,"y":2541315.0100000035}},{"attributes":{"ID":499907,"DIS_CODE":0,"TOWNNAME":"仁德區","LI":"保安里","LIN":"15鄰","STREET":"文賢路","SECT":"二段","MAREA":" ","LANE":" ","ALLEY":" ","HOUSE_NO":"１６號","E_COORD97":171701.23000000001,"N_COORD97":2535828.0699999998,"ADDRESS":"文賢路二段１６號","OBJECTID":499880},"geometry":{"x":171701.23000000138,"y":2535828.0700000003}},{"attributes":{"ID":499908,"DIS_CODE":0,"TOWNNAME":"仁德區","LI":"保安里","LIN":"15鄰","STREET":"文賢路","SECT":"二段","MAREA":" ","LANE":" ","ALLEY":" ","HOUSE_NO":"１０號","E_COORD97":171690.70000000001,"N_COORD97":2535836.0699999998,"ADDRESS":"文賢路二段１０號","OBJECTID":499881},"geometry":{"x":171690.70000000205,"y":2535836.0699999984}},{"attributes":{"ID":499909,"DIS_CODE":0,"TOWNNAME":"仁德區","LI":"仁德里","LIN":"15鄰","STREET":"仁德一街","SECT":" ","MAREA":" ","LANE":" ","ALLEY":" ","HOUSE_NO":"５７號","E_COORD97":173189.34,"N_COORD97":2541308.7599999998,"ADDRESS":"仁德一街５７號","OBJECTID":499882},"geometry":{"x":173189.33999999985,"y":2541308.7599999998}},{"attributes":{"ID":499910,"DIS_CODE":0,"TOWNNAME":"仁德區","LI":"仁德里","LIN":"15鄰","STREET":"仁德一街","SECT":" ","MAREA":" ","LANE":" ","ALLEY":" ","HOUSE_NO":"６８號","E_COORD97":173177,"N_COORD97":2541310.0099999998,"ADDRESS":"仁德一街６８號","OBJECTID":499883},"geometry":{"x":173177.00000000093,"y":2541310.0099999998}},{"attributes":{"ID":499911,"DIS_CODE":0,"TOWNNAME":"仁德區","LI":"保安里","LIN":"15鄰","STREET":"中正路","SECT":"一段","MAREA":" ","LANE":" ","ALLEY":" ","HOUSE_NO":"２１４號","E_COORD97":171610.79999999999,"N_COORD97":2535800.02,"ADDRESS":"中正路一段２１４號","OBJECTID":499884},"geometry":{"x":171610.79999999981,"y":2535800.0200000014}},{"attributes":{"ID":499912,"DIS_CODE":0,"TOWNNAME":"善化區","LI":"光文里","LIN":"15鄰","STREET":"民權路","SECT":" ","MAREA":" ","LANE":" ","ALLEY":" ","HOUSE_NO":"１３６號","E_COORD97":178328.84,"N_COORD97":2559035.0099999998,"ADDRESS":"民權路１３６號","OBJECTID":499885},"geometry":{"x":178328.83999999985,"y":2559035.0099999998}},{"attributes":{"ID":499913,"DIS_CODE":0,"TOWNNAME":"善化區","LI":"光文里","LIN":"15鄰","STREET":"樹人路","SECT":" ","MAREA":" ","LANE":" ","ALLEY":" ","HOUSE_NO":"１９號","E_COORD97":178377.42000000001,"N_COORD97":2558933.75,"ADDRESS":"樹人路１９號","OBJECTID":499886},"geometry":{"x":178377.41999999993,"y":2558933.7500000019}},{"attributes":{"ID":499914,"DIS_CODE":0,"TOWNNAME":"善化區","LI":"光文里","LIN":"15鄰","STREET":"民生路","SECT":" ","MAREA":" ","LANE":" ","ALLEY":" ","HOUSE_NO":"２５０號","E_COORD97":178289.23000000001,"N_COORD97":2558946.2599999998,"ADDRESS":"民生路２５０號","OBJECTID":499887},"geometry":{"x":178289.23000000138,"y":2558946.2599999998}},{"attributes":{"ID":499915,"DIS_CODE":0,"TOWNNAME":"善化區","LI":"光文里","LIN":"15鄰","STREET":"民權路","SECT":" ","MAREA":" ","LANE":" ","ALLEY":" ","HOUSE_NO":"１５６號","E_COORD97":178281.23000000001,"N_COORD97":2559027.2599999998,"ADDRESS":"民權路１５６號","OBJECTID":499888},"geometry":{"x":178281.23000000045,"y":2559027.2599999998}},{"attributes":{"ID":499916,"DIS_CODE":0,"TOWNNAME":"善化區","LI":"光文里","LIN":"15鄰","STREET":"大成路","SECT":" ","MAREA":" ","LANE":" ","ALLEY":" ","HOUSE_NO":"２１０號","E_COORD97":178357.45000000001,"N_COORD97":2558874,"ADDRESS":"大成路２１０號","OBJECTID":499889},"geometry":{"x":178357.45000000019,"y":2558874.0000000037}},{"attributes":{"ID":499917,"DIS_CODE":0,"TOWNNAME":"善化區","LI":"光文里","LIN":"15鄰","STREET":"民權路","SECT":" ","MAREA":" ","LANE":" ","ALLEY":" ","HOUSE_NO":"１３７號","E_COORD97":178328.63,"N_COORD97":2559012.7599999998,"ADDRESS":"民權路１３７號","OBJECTID":499890},"geometry":{"x":178328.62999999989,"y":2559012.7600000016}},{"attributes":{"ID":499918,"DIS_CODE":0,"TOWNNAME":"善化區","LI":"光文里","LIN":"15鄰","STREET":"民生路","SECT":" ","MAREA":" ","LANE":" ","ALLEY":" ","HOUSE_NO":"２１３號","E_COORD97":178360.67000000001,"N_COORD97":2558936.7599999998,"ADDRESS":"民生路２１３號","OBJECTID":499891},"geometry":{"x":178360.66999999993,"y":2558936.7600000035}},{"attributes":{"ID":499919,"DIS_CODE":0,"TOWNNAME":"永康區","LI":"復華里","LIN":"15鄰","STREET":"復國一路","SECT":" ","MAREA":" ","LANE":" ","ALLEY":" ","HOUSE_NO":"４１８號","E_COORD97":172749.32999999999,"N_COORD97":2545987.02,"ADDRESS":"復國一路４１８號","OBJECTID":499892},"geometry":{"x":172749.33000000101,"y":2545987.0200000014}},{"attributes":{"ID":499920,"DIS_CODE":0,"TOWNNAME":"北區","LI":"成德里","LIN":"34鄰","STREET":"文成路","SECT":" ","MAREA":" ","LANE":" ","ALLEY":" ","HOUSE_NO":"１８２號","E_COORD97":168408.04000000001,"N_COORD97":2545967.9900000002,"ADDRESS":"文成路１８２號","OBJECTID":499893},"geometry":{"x":168408.0400000019,"y":2545967.9900000021}},{"attributes":{"ID":499921,"DIS_CODE":0,"TOWNNAME":"北區","LI":"成德里","LIN":"34鄰","STREET":"文成路","SECT":" ","MAREA":" ","LANE":" ","ALLEY":" ","HOUSE_NO":"１８６號","E_COORD97":168401.17999999999,"N_COORD97":2545968.3700000001,"ADDRESS":"文成路１８６號","OBJECTID":499894},"geometry":{"x":168401.1799999997,"y":2545968.370000001}},{"attributes":{"ID":499922,"DIS_CODE":0,"TOWNNAME":"善化區","LI":"光文里","LIN":"15鄰","STREET":"民生路","SECT":" ","MAREA":" ","LANE":" ","ALLEY":" ","HOUSE_NO":"２４７號","E_COORD97":178283.04999999999,"N_COORD97":2558923.0099999998,"ADDRESS":"民生路２４７號","OBJECTID":499895},"geometry":{"x":178283.04999999981,"y":2558923.0099999998}},{"attributes":{"ID":499923,"DIS_CODE":0,"TOWNNAME":"善化區","LI":"光文里","LIN":"15鄰","STREET":"大成路","SECT":" ","MAREA":" ","LANE":" ","ALLEY":" ","HOUSE_NO":"２２２號","E_COORD97":178331.23000000001,"N_COORD97":2558870.5,"ADDRESS":"大成路２２２號","OBJECTID":499896},"geometry":{"x":178331.23000000138,"y":2558870.4999999981}},{"attributes":{"ID":499924,"DIS_CODE":0,"TOWNNAME":"永康區","LI":"復華里","LIN":"15鄰","STREET":"復國一路","SECT":" ","MAREA":" ","LANE":" ","ALLEY":" ","HOUSE_NO":"４２６號","E_COORD97":172738.13,"N_COORD97":2546003.0299999998,"ADDRESS":"復國一路４２６號","OBJECTID":499897},"geometry":{"x":172738.12999999989,"y":2546003.0299999993}},{"attributes":{"ID":499925,"DIS_CODE":0,"TOWNNAME":"永康區","LI":"網寮里","LIN":"15鄰","STREET":"永和街","SECT":" ","MAREA":" ","LANE":" ","ALLEY":" ","HOUSE_NO":"２５８號","E_COORD97":173402.07999999999,"N_COORD97":2546571.9700000002,"ADDRESS":"永和街２５８號","OBJECTID":499898},"geometry":{"x":173402.08000000101,"y":2546571.9700000025}},{"attributes":{"ID":499926,"DIS_CODE":0,"TOWNNAME":"永康區","LI":"網寮里","LIN":"15鄰","STREET":"永和街","SECT":" ","MAREA":" ","LANE":" ","ALLEY":" ","HOUSE_NO":"２５６號","E_COORD97":173406.72,"N_COORD97":2546569.4700000002,"ADDRESS":"永和街２５６號","OBJECTID":499899},"geometry":{"x":173406.71999999974,"y":2546569.4700000025}},{"attributes":{"ID":499927,"DIS_CODE":0,"TOWNNAME":"永康區","LI":"復國里","LIN":"15鄰","STREET":"復國二路","SECT":" ","MAREA":" ","LANE":" ","ALLEY":" ","HOUSE_NO":"１２７號","E_COORD97":172890.03,"N_COORD97":2545613.7799999998,"ADDRESS":"復國二路１２７號","OBJECTID":499900},"geometry":{"x":172890.03000000026,"y":2545613.7799999993}},{"attributes":{"ID":499928,"DIS_CODE":0,"TOWNNAME":"永康區","LI":"復華里","LIN":"15鄰","STREET":"復國一路","SECT":" ","MAREA":" ","LANE":" ","ALLEY":" ","HOUSE_NO":"４３２號","E_COORD97":172728.89999999999,"N_COORD97":2546015.0299999998,"ADDRESS":"復國一路４３２號","OBJECTID":499901},"geometry":{"x":172728.9000000013,"y":2546015.0300000012}},{"attributes":{"ID":499929,"DIS_CODE":0,"TOWNNAME":"永康區","LI":"復國里","LIN":"15鄰","STREET":"復國二路","SECT":" ","MAREA":" ","LANE":" ","ALLEY":" ","HOUSE_NO":"１２１號","E_COORD97":172885.98000000001,"N_COORD97":2545596.2799999998,"ADDRESS":"復國二路１２１號","OBJECTID":499902},"geometry":{"x":172885.98000000231,"y":2545596.2800000012}},{"attributes":{"ID":499930,"DIS_CODE":0,"TOWNNAME":"永康區","LI":"復華里","LIN":"15鄰","STREET":"復國一路","SECT":" ","MAREA":" ","LANE":" ","ALLEY":" ","HOUSE_NO":"３９４號","E_COORD97":172774.84,"N_COORD97":2545932.5299999998,"ADDRESS":"復國一路３９４號","OBJECTID":499903},"geometry":{"x":172774.84000000078,"y":2545932.5300000012}},{"attributes":{"ID":499931,"DIS_CODE":0,"TOWNNAME":"永康區","LI":"復華里","LIN":"15鄰","STREET":"復國一路","SECT":" ","MAREA":" ","LANE":" ","ALLEY":" ","HOUSE_NO":"４０２號","E_COORD97":172767.53,"N_COORD97":2545951.77,"ADDRESS":"復國一路４０２號","OBJECTID":499904},"geometry":{"x":172767.53000000026,"y":2545951.7700000014}},{"attributes":{"ID":499932,"DIS_CODE":0,"TOWNNAME":"永康區","LI":"復國里","LIN":"15鄰","STREET":"復國二路","SECT":" ","MAREA":" ","LANE":" ","ALLEY":" ","HOUSE_NO":"１１９號","E_COORD97":172885.07999999999,"N_COORD97":2545590.7799999998,"ADDRESS":"復國二路１１９號","OBJECTID":499905},"geometry":{"x":172885.08000000101,"y":2545590.7799999993}},{"attributes":{"ID":499933,"DIS_CODE":0,"TOWNNAME":"永康區","LI":"復國里","LIN":"15鄰","STREET":"復國二路","SECT":" ","MAREA":" ","LANE":" ","ALLEY":" ","HOUSE_NO":"１１７號","E_COORD97":172883.70000000001,"N_COORD97":2545586.7799999998,"ADDRESS":"復國二路１１７號","OBJECTID":499906},"geometry":{"x":172883.70000000019,"y":2545586.7799999993}},{"attributes":{"ID":499934,"DIS_CODE":0,"TOWNNAME":"永康區","LI":"網寮里","LIN":"15鄰","STREET":"永和街","SECT":" ","MAREA":" ","LANE":" ","ALLEY":" ","HOUSE_NO":"２５２號","E_COORD97":173413.26000000001,"N_COORD97":2546572.2000000002,"ADDRESS":"永和街２５２號","OBJECTID":499907},"geometry":{"x":173413.25999999978,"y":2546572.2000000011}},{"attributes":{"ID":499935,"DIS_CODE":0,"TOWNNAME":"永康區","LI":"復華里","LIN":"15鄰","STREET":"復華六街","SECT":" ","MAREA":" ","LANE":" ","ALLEY":" ","HOUSE_NO":"４６號","E_COORD97":172812.17000000001,"N_COORD97":2545851.1899999999,"ADDRESS":"復華六街４６號","OBJECTID":499908},"geometry":{"x":172812.16999999993,"y":2545851.1900000013}},{"attributes":{"ID":499936,"DIS_CODE":0,"TOWNNAME":"南區","LI":"彰南里","LIN":"15鄰","STREET":"新信路","SECT":" ","MAREA":" ","LANE":" ","ALLEY":" ","HOUSE_NO":"１３號","E_COORD97":165765.63,"N_COORD97":2541459.7400000002,"ADDRESS":"新信路１３號","OBJECTID":499909},"geometry":{"x":165765.62999999989,"y":2541459.7400000039}},{"attributes":{"ID":499937,"DIS_CODE":0,"TOWNNAME":"永康區","LI":"復國里","LIN":"15鄰","STREET":"復國二路","SECT":" ","MAREA":" ","LANE":" ","ALLEY":" ","HOUSE_NO":"１２５號","E_COORD97":172888.63,"N_COORD97":2545608.0299999998,"ADDRESS":"復國二路１２５號","OBJECTID":499910},"geometry":{"x":172888.62999999989,"y":2545608.0300000012}},{"attributes":{"ID":499938,"DIS_CODE":0,"TOWNNAME":"永康區","LI":"復華里","LIN":"15鄰","STREET":"復國一路","SECT":" ","MAREA":" ","LANE":" ","ALLEY":" ","HOUSE_NO":"４０４號","E_COORD97":172765.28,"N_COORD97":2545956.77,"ADDRESS":"復國一路４０４號","OBJECTID":499911},"geometry":{"x":172765.28000000119,"y":2545956.7699999996}},{"attributes":{"ID":499939,"DIS_CODE":0,"TOWNNAME":"永康區","LI":"龍潭里","LIN":"15鄰","STREET":"龍潭街","SECT":" ","MAREA":" ","LANE":" ","ALLEY":" ","HOUSE_NO":"２３４號","E_COORD97":174922.09,"N_COORD97":2548309.96,"ADDRESS":"龍潭街２３４號","OBJECTID":499912},"geometry":{"x":174922.09000000171,"y":2548309.9600000009}},{"attributes":{"ID":499940,"DIS_CODE":0,"TOWNNAME":"永康區","LI":"復華里","LIN":"15鄰","STREET":"復國一路","SECT":" ","MAREA":" ","LANE":" ","ALLEY":" ","HOUSE_NO":"４２０號","E_COORD97":172746.95000000001,"N_COORD97":2545991.2799999998,"ADDRESS":"復國一路４２０號","OBJECTID":499913},"geometry":{"x":172746.95000000112,"y":2545991.2799999975}},{"attributes":{"ID":499941,"DIS_CODE":0,"TOWNNAME":"永康區","LI":"復華里","LIN":"15鄰","STREET":"復國一路","SECT":" ","MAREA":" ","LANE":" ","ALLEY":" ","HOUSE_NO":"４０８號","E_COORD97":172761.09,"N_COORD97":2545966.52,"ADDRESS":"復國一路４０８號","OBJECTID":499914},"geometry":{"x":172761.09000000078,"y":2545966.5200000033}},{"attributes":{"ID":499942,"DIS_CODE":0,"TOWNNAME":"永康區","LI":"龍潭里","LIN":"15鄰","STREET":"龍橋街","SECT":" ","MAREA":" ","LANE":" ","ALLEY":" ","HOUSE_NO":"１０號","E_COORD97":174888.48999999999,"N_COORD97":2548305.23,"ADDRESS":"龍橋街１０號","OBJECTID":499915},"geometry":{"x":174888.49000000022,"y":2548305.2300000042}},{"attributes":{"ID":499943,"DIS_CODE":0,"TOWNNAME":"永康區","LI":"龍潭里","LIN":"15鄰","STREET":"龍潭街","SECT":" ","MAREA":" ","LANE":" ","ALLEY":" ","HOUSE_NO":"２３０號","E_COORD97":174919.09,"N_COORD97":2548303.21,"ADDRESS":"龍潭街２３０號","OBJECTID":499916},"geometry":{"x":174919.09000000078,"y":2548303.2100000028}},{"attributes":{"ID":499944,"DIS_CODE":0,"TOWNNAME":"永康區","LI":"龍潭里","LIN":"15鄰","STREET":"龍潭街","SECT":" ","MAREA":" ","LANE":" ","ALLEY":" ","HOUSE_NO":"２２６號","E_COORD97":174914.92000000001,"N_COORD97":2548296.8599999999,"ADDRESS":"龍潭街２２６號","OBJECTID":499917},"geometry":{"x":174914.92000000179,"y":2548296.8600000013}},{"attributes":{"ID":499945,"DIS_CODE":0,"TOWNNAME":"永康區","LI":"龍潭里","LIN":"15鄰","STREET":"龍潭街","SECT":" ","MAREA":" ","LANE":" ","ALLEY":" ","HOUSE_NO":"２２８號","E_COORD97":174916.98999999999,"N_COORD97":2548300.3500000001,"ADDRESS":"龍潭街２２８號","OBJECTID":499918},"geometry":{"x":174916.99000000115,"y":2548300.3500000034}},{"attributes":{"ID":499946,"DIS_CODE":0,"TOWNNAME":"永康區","LI":"復華里","LIN":"15鄰","STREET":"復國一路","SECT":" ","MAREA":" ","LANE":" ","ALLEY":" ","HOUSE_NO":"４２４號","E_COORD97":172741.14999999999,"N_COORD97":2545999.0299999998,"ADDRESS":"復國一路４２４號","OBJECTID":499919},"geometry":{"x":172741.1500000013,"y":2545999.0299999993}},{"attributes":{"ID":499947,"DIS_CODE":0,"TOWNNAME":"善化區","LI":"東關里","LIN":"15鄰","STREET":"大同路","SECT":" ","MAREA":" ","LANE":" ","ALLEY":" ","HOUSE_NO":"３８４號","E_COORD97":177346.67999999999,"N_COORD97":2559022,"ADDRESS":"大同路３８４號","OBJECTID":499920},"geometry":{"x":177346.6799999997,"y":2559022}},{"attributes":{"ID":499948,"DIS_CODE":0,"TOWNNAME":"東區","LI":"崇德里","LIN":"15鄰","STREET":"崇明十三街","SECT":" ","MAREA":" ","LANE":" ","ALLEY":" ","HOUSE_NO":"４８號","E_COORD97":170539.62,"N_COORD97":2541643.8700000001,"ADDRESS":"崇明十三街４８號","OBJECTID":499921},"geometry":{"x":170539.62000000011,"y":2541643.8700000029}},{"attributes":{"ID":499949,"DIS_CODE":0,"TOWNNAME":"北區","LI":"賢北里","LIN":"2鄰","STREET":"賢北街","SECT":" ","MAREA":" ","LANE":" ","ALLEY":" ","HOUSE_NO":"８６號","E_COORD97":166291.51999999999,"N_COORD97":2545400.04,"ADDRESS":"賢北街８６號","OBJECTID":499922},"geometry":{"x":166291.51999999955,"y":2545400.040000001}},{"attributes":{"ID":499950,"DIS_CODE":0,"TOWNNAME":"東區","LI":"崇德里","LIN":"15鄰","STREET":"崇明十三街","SECT":" ","MAREA":" ","LANE":" ","ALLEY":" ","HOUSE_NO":"４９號","E_COORD97":170528.54999999999,"N_COORD97":2541669.6200000001,"ADDRESS":"崇明十三街４９號","OBJECTID":499923},"geometry":{"x":170528.55000000075,"y":2541669.6200000029}},{"attributes":{"ID":499951,"DIS_CODE":0,"TOWNNAME":"東區","LI":"崇德里","LIN":"15鄰","STREET":"崇明十三街","SECT":" ","MAREA":" ","LANE":" ","ALLEY":" ","HOUSE_NO":"５０號","E_COORD97":170542.04000000001,"N_COORD97":2541647.1000000001,"ADDRESS":"崇明十三街５０號","OBJECTID":499924},"geometry":{"x":170542.04000000004,"y":2541647.1000000015}},{"attributes":{"ID":499952,"DIS_CODE":0,"TOWNNAME":"東區","LI":"崇德里","LIN":"15鄰","STREET":"崇明十三街","SECT":" ","MAREA":" ","LANE":" ","ALLEY":" ","HOUSE_NO":"５１號","E_COORD97":170531.32000000001,"N_COORD97":2541673.4500000002,"ADDRESS":"崇明十三街５１號","OBJECTID":499925},"geometry":{"x":170531.3200000003,"y":2541673.4499999993}},{"attributes":{"ID":499953,"DIS_CODE":0,"TOWNNAME":"東區","LI":"崇德里","LIN":"15鄰","STREET":"崇明十三街","SECT":" ","MAREA":" ","LANE":" ","ALLEY":" ","HOUSE_NO":"５２號","E_COORD97":170545.28,"N_COORD97":2541649.5299999998,"ADDRESS":"崇明十三街５２號","OBJECTID":499926},"geometry":{"x":170545.28000000026,"y":2541649.5299999993}},{"attributes":{"ID":499954,"DIS_CODE":0,"TOWNNAME":"東區","LI":"崇德里","LIN":"15鄰","STREET":"崇明十三街","SECT":" ","MAREA":" ","LANE":" ","ALLEY":" ","HOUSE_NO":"５３號","E_COORD97":170533.88,"N_COORD97":2541677.0699999998,"ADDRESS":"崇明十三街５３號","OBJECTID":499927},"geometry":{"x":170533.87999999989,"y":2541677.0700000003}},{"attributes":{"ID":499955,"DIS_CODE":0,"TOWNNAME":"東區","LI":"崇德里","LIN":"15鄰","STREET":"崇明十三街","SECT":" ","MAREA":" ","LANE":" ","ALLEY":" ","HOUSE_NO":"５４號","E_COORD97":170548.51000000001,"N_COORD97":2541652.7599999998,"ADDRESS":"崇明十三街５４號","OBJECTID":499928},"geometry":{"x":170548.50999999978,"y":2541652.7600000016}},{"attributes":{"ID":499956,"DIS_CODE":0,"TOWNNAME":"東區","LI":"崇德里","LIN":"15鄰","STREET":"崇明十三街","SECT":" ","MAREA":" ","LANE":" ","ALLEY":" ","HOUSE_NO":"５５號","E_COORD97":170536.01000000001,"N_COORD97":2541679.8300000001,"ADDRESS":"崇明十三街５５號","OBJECTID":499929},"geometry":{"x":170536.01000000071,"y":2541679.8300000019}},{"attributes":{"ID":499957,"DIS_CODE":0,"TOWNNAME":"東區","LI":"崇德里","LIN":"15鄰","STREET":"崇明十三街","SECT":" ","MAREA":" ","LANE":" ","ALLEY":" ","HOUSE_NO":"５６號","E_COORD97":170550.94,"N_COORD97":2541655.9900000002,"ADDRESS":"崇明十三街５６號","OBJECTID":499930},"geometry":{"x":170550.94000000134,"y":2541655.9900000021}},{"attributes":{"ID":499958,"DIS_CODE":0,"TOWNNAME":"東區","LI":"崇德里","LIN":"15鄰","STREET":"崇明十三街","SECT":" ","MAREA":" ","LANE":" ","ALLEY":" ","HOUSE_NO":"５７號","E_COORD97":170539.20000000001,"N_COORD97":2541683.02,"ADDRESS":"崇明十三街５７號","OBJECTID":499931},"geometry":{"x":170539.20000000019,"y":2541683.0199999996}},{"attributes":{"ID":499959,"DIS_CODE":0,"TOWNNAME":"東區","LI":"崇德里","LIN":"15鄰","STREET":"崇明十三街","SECT":" ","MAREA":" ","LANE":" ","ALLEY":" ","HOUSE_NO":"６０號","E_COORD97":170556.59,"N_COORD97":2541663.2599999998,"ADDRESS":"崇明十三街６０號","OBJECTID":499932},"geometry":{"x":170556.58999999985,"y":2541663.2600000016}},{"attributes":{"ID":499960,"DIS_CODE":0,"TOWNNAME":"東區","LI":"崇德里","LIN":"15鄰","STREET":"崇明十三街","SECT":" ","MAREA":" ","LANE":" ","ALLEY":" ","HOUSE_NO":"６１號","E_COORD97":170542.34,"N_COORD97":2541689.5800000001,"ADDRESS":"崇明十三街６１號","OBJECTID":499933},"geometry":{"x":170542.34000000078,"y":2541689.5800000001}},{"attributes":{"ID":499961,"DIS_CODE":0,"TOWNNAME":"東區","LI":"崇德里","LIN":"15鄰","STREET":"崇明十三街","SECT":" ","MAREA":" ","LANE":" ","ALLEY":" ","HOUSE_NO":"６２號","E_COORD97":170559.82999999999,"N_COORD97":2541666.4900000002,"ADDRESS":"崇明十三街６２號","OBJECTID":499934},"geometry":{"x":170559.83000000007,"y":2541666.4900000021}},{"attributes":{"ID":499962,"DIS_CODE":0,"TOWNNAME":"東區","LI":"崇德里","LIN":"15鄰","STREET":"崇明十三街","SECT":" ","MAREA":" ","LANE":" ","ALLEY":" ","HOUSE_NO":"６４號","E_COORD97":170561.76999999999,"N_COORD97":2541668.9100000001,"ADDRESS":"崇明十三街６４號","OBJECTID":499935},"geometry":{"x":170561.76999999955,"y":2541668.9100000039}},{"attributes":{"ID":499963,"DIS_CODE":0,"TOWNNAME":"東區","LI":"崇德里","LIN":"15鄰","STREET":"崇明十三街","SECT":" ","MAREA":" ","LANE":" ","ALLEY":" ","HOUSE_NO":"６５號","E_COORD97":170546.70999999999,"N_COORD97":2541696.3500000001,"ADDRESS":"崇明十三街６５號","OBJECTID":499936},"geometry":{"x":170546.71000000089,"y":2541696.3500000015}},{"attributes":{"ID":499964,"DIS_CODE":0,"TOWNNAME":"東區","LI":"崇德里","LIN":"15鄰","STREET":"崇明十三街","SECT":" ","MAREA":" ","LANE":" ","ALLEY":" ","HOUSE_NO":"６６號","E_COORD97":170564.67999999999,"N_COORD97":2541672.9500000002,"ADDRESS":"崇明十三街６６號","OBJECTID":499937},"geometry":{"x":170564.68000000156,"y":2541672.9499999993}},{"attributes":{"ID":499965,"DIS_CODE":0,"TOWNNAME":"東區","LI":"崇德里","LIN":"15鄰","STREET":"崇明十三街","SECT":" ","MAREA":" ","LANE":" ","ALLEY":" ","HOUSE_NO":"６７號","E_COORD97":170549.87,"N_COORD97":2541699.3700000001,"ADDRESS":"崇明十三街６７號","OBJECTID":499938},"geometry":{"x":170549.87000000011,"y":2541699.370000001}},{"attributes":{"ID":499966,"DIS_CODE":0,"TOWNNAME":"東區","LI":"崇德里","LIN":"15鄰","STREET":"崇明十三街","SECT":" ","MAREA":" ","LANE":" ","ALLEY":" ","HOUSE_NO":"６９號","E_COORD97":170551.98000000001,"N_COORD97":2541701.9300000002,"ADDRESS":"崇明十三街６９號","OBJECTID":499939},"geometry":{"x":170551.98000000138,"y":2541701.9300000034}},{"attributes":{"ID":499967,"DIS_CODE":0,"TOWNNAME":"東區","LI":"崇德里","LIN":"15鄰","STREET":"崇明十三街","SECT":" ","MAREA":" ","LANE":" ","ALLEY":" ","HOUSE_NO":"７０號","E_COORD97":170569.85000000001,"N_COORD97":2541678.6000000001,"ADDRESS":"崇明十三街７０號","OBJECTID":499940},"geometry":{"x":170569.84999999963,"y":2541678.6000000015}},{"attributes":{"ID":499968,"DIS_CODE":0,"TOWNNAME":"東區","LI":"崇德里","LIN":"15鄰","STREET":"崇明十三街","SECT":" ","MAREA":" ","LANE":" ","ALLEY":" ","HOUSE_NO":"７２號","E_COORD97":170572.28,"N_COORD97":2541681.5099999998,"ADDRESS":"崇明十三街７２號","OBJECTID":499941},"geometry":{"x":170572.28000000026,"y":2541681.5100000016}},{"attributes":{"ID":499969,"DIS_CODE":0,"TOWNNAME":"東區","LI":"崇德里","LIN":"15鄰","STREET":"崇明十三街","SECT":" ","MAREA":" ","LANE":" ","ALLEY":" ","HOUSE_NO":"７４號","E_COORD97":170574.48000000001,"N_COORD97":2541685.2200000002,"ADDRESS":"崇明十三街７４號","OBJECTID":499942},"geometry":{"x":170574.48000000045,"y":2541685.2200000025}},{"attributes":{"ID":499970,"DIS_CODE":0,"TOWNNAME":"東區","LI":"崇德里","LIN":"15鄰","STREET":"崇明十三街","SECT":" ","MAREA":" ","LANE":" ","ALLEY":" ","HOUSE_NO":"７６號","E_COORD97":170576.37,"N_COORD97":2541688.5800000001,"ADDRESS":"崇明十三街７６號","OBJECTID":499943},"geometry":{"x":170576.37000000104,"y":2541688.5800000019}},{"attributes":{"ID":499971,"DIS_CODE":0,"TOWNNAME":"東區","LI":"崇德里","LIN":"15鄰","STREET":"崇明十三街","SECT":" ","MAREA":" ","LANE":" ","ALLEY":" ","HOUSE_NO":"８號","E_COORD97":170480.97,"N_COORD97":2541575.75,"ADDRESS":"崇明十三街８號","OBJECTID":499944},"geometry":{"x":170480.96999999974,"y":2541575.7500000019}},{"attributes":{"ID":499972,"DIS_CODE":0,"TOWNNAME":"東區","LI":"崇德里","LIN":"15鄰","STREET":"崇明十三街","SECT":" ","MAREA":" ","LANE":" ","ALLEY":" ","HOUSE_NO":"１９號","E_COORD97":170482.14000000001,"N_COORD97":2541614.3100000001,"ADDRESS":"崇明十三街１９號","OBJECTID":499945},"geometry":{"x":170482.1400000006,"y":2541614.3100000005}},{"attributes":{"ID":499973,"DIS_CODE":0,"TOWNNAME":"東區","LI":"崇德里","LIN":"15鄰","STREET":"崇明十三街","SECT":" ","MAREA":" ","LANE":" ","ALLEY":" ","HOUSE_NO":"６３號","E_COORD97":170544.60000000001,"N_COORD97":2541692.5899999999,"ADDRESS":"崇明十三街６３號","OBJECTID":499946},"geometry":{"x":170544.59999999963,"y":2541692.5900000017}},{"attributes":{"ID":499974,"DIS_CODE":0,"TOWNNAME":"東區","LI":"崇德里","LIN":"15鄰","STREET":"崇明十三街","SECT":" ","MAREA":" ","LANE":" ","ALLEY":" ","HOUSE_NO":"６８號","E_COORD97":170567.91,"N_COORD97":2541675.3700000001,"ADDRESS":"崇明十三街６８號","OBJECTID":499947},"geometry":{"x":170567.91000000015,"y":2541675.370000001}},{"attributes":{"ID":499975,"DIS_CODE":0,"TOWNNAME":"北區","LI":"長德里","LIN":"4鄰","STREET":"長德街","SECT":" ","MAREA":" ","LANE":" ","ALLEY":" ","HOUSE_NO":"１５號","E_COORD97":168533.16,"N_COORD97":2544756,"ADDRESS":"長德街１５號","OBJECTID":499948},"geometry":{"x":168533.16000000108,"y":2544756}},{"attributes":{"ID":499976,"DIS_CODE":0,"TOWNNAME":"新市區","LI":"港墘里","LIN":"15鄰","STREET":"光華街","SECT":" ","MAREA":" ","LANE":" ","ALLEY":" ","HOUSE_NO":"９號","E_COORD97":177999.39000000001,"N_COORD97":2552595,"ADDRESS":"光華街９號","OBJECTID":499949},"geometry":{"x":177999.38999999966,"y":2552595.0000000037}},{"attributes":{"ID":499977,"DIS_CODE":0,"TOWNNAME":"中西區","LI":"五妃里","LIN":"15鄰","STREET":"樹林街","SECT":"二段","MAREA":" ","LANE":" ","ALLEY":" ","HOUSE_NO":"５３號","E_COORD97":168611.04000000001,"N_COORD97":2542891.3799999999,"ADDRESS":"樹林街二段５３號","OBJECTID":499950},"geometry":{"x":168611.04000000004,"y":2542891.3799999971}},{"attributes":{"ID":499978,"DIS_CODE":0,"TOWNNAME":"中西區","LI":"五妃里","LIN":"15鄰","STREET":"樹林街","SECT":"二段","MAREA":" ","LANE":" ","ALLEY":" ","HOUSE_NO":"５５號","E_COORD97":168604.91,"N_COORD97":2542893.29,"ADDRESS":"樹林街二段５５號","OBJECTID":499951},"geometry":{"x":168604.91000000015,"y":2542893.290000001}},{"attributes":{"ID":499979,"DIS_CODE":0,"TOWNNAME":"中西區","LI":"郡王里","LIN":"15鄰","STREET":"建業街","SECT":" ","MAREA":" ","LANE":" ","ALLEY":" ","HOUSE_NO":"７４號","E_COORD97":168497.38,"N_COORD97":2543167.2799999998,"ADDRESS":"建業街７４號","OBJECTID":499952},"geometry":{"x":168497.38000000082,"y":2543167.2800000031}},{"attributes":{"ID":499980,"DIS_CODE":0,"TOWNNAME":"中西區","LI":"郡王里","LIN":"15鄰","STREET":"建業街","SECT":" ","MAREA":" ","LANE":" ","ALLEY":" ","HOUSE_NO":"７６號","E_COORD97":168494.01999999999,"N_COORD97":2543167.2799999998,"ADDRESS":"建業街７６號","OBJECTID":499953},"geometry":{"x":168494.01999999862,"y":2543167.2800000031}},{"attributes":{"ID":499981,"DIS_CODE":0,"TOWNNAME":"中西區","LI":"郡王里","LIN":"15鄰","STREET":"建業街","SECT":" ","MAREA":" ","LANE":" ","ALLEY":" ","HOUSE_NO":"７８號","E_COORD97":168489.95999999999,"N_COORD97":2543167.3700000001,"ADDRESS":"建業街７８號","OBJECTID":499954},"geometry":{"x":168489.96000000183,"y":2543167.370000001}},{"attributes":{"ID":499982,"DIS_CODE":0,"TOWNNAME":"中西區","LI":"永華里","LIN":"15鄰","STREET":"友愛街","SECT":" ","MAREA":" ","LANE":" ","ALLEY":" ","HOUSE_NO":"１１號","E_COORD97":168573.10000000001,"N_COORD97":2543497.8999999999,"ADDRESS":"友愛街１１號","OBJECTID":499955},"geometry":{"x":168573.09999999963,"y":2543497.9000000022}},{"attributes":{"ID":499983,"DIS_CODE":0,"TOWNNAME":"中西區","LI":"永華里","LIN":"15鄰","STREET":"友愛街","SECT":" ","MAREA":" ","LANE":" ","ALLEY":" ","HOUSE_NO":"１３號","E_COORD97":168568.57999999999,"N_COORD97":2543496.8999999999,"ADDRESS":"友愛街１３號","OBJECTID":499956},"geometry":{"x":168568.58000000007,"y":2543496.9000000022}},{"attributes":{"ID":499984,"DIS_CODE":0,"TOWNNAME":"南區","LI":"同安里","LIN":"5鄰","STREET":"灣裡路","SECT":" ","MAREA":" ","LANE":"３５１巷","ALLEY":"１２弄","HOUSE_NO":"７號","E_COORD97":166286.94,"N_COORD97":2536137.4100000001,"ADDRESS":"灣裡路３５１巷１２弄７號","OBJECTID":499957},"geometry":{"x":166286.94000000134,"y":2536137.4100000001}},{"attributes":{"ID":499985,"DIS_CODE":0,"TOWNNAME":"仁德區","LI":"仁德里","LIN":"15鄰","STREET":"仁德一街","SECT":" ","MAREA":" ","LANE":" ","ALLEY":" ","HOUSE_NO":"４８號","E_COORD97":173176.39000000001,"N_COORD97":2541266.52,"ADDRESS":"仁德一街４８號","OBJECTID":499958},"geometry":{"x":173176.38999999966,"y":2541266.5199999996}},{"attributes":{"ID":499986,"DIS_CODE":0,"TOWNNAME":"仁德區","LI":"保安里","LIN":"15鄰","STREET":"中正路","SECT":"一段","MAREA":" ","LANE":" ","ALLEY":" ","HOUSE_NO":"２２０號","E_COORD97":171619.66,"N_COORD97":2535809.02,"ADDRESS":"中正路一段２２０號","OBJECTID":499959},"geometry":{"x":171619.66000000201,"y":2535809.0200000033}},{"attributes":{"ID":499987,"DIS_CODE":0,"TOWNNAME":"仁德區","LI":"保安里","LIN":"15鄰","STREET":"文賢路","SECT":"二段","MAREA":" ","LANE":" ","ALLEY":" ","HOUSE_NO":"２２號","E_COORD97":171719.07000000001,"N_COORD97":2535814.3199999998,"ADDRESS":"文賢路二段２２號","OBJECTID":499960},"geometry":{"x":171719.07000000123,"y":2535814.320000004}},{"attributes":{"ID":499988,"DIS_CODE":0,"TOWNNAME":"仁德區","LI":"仁德里","LIN":"15鄰","STREET":"仁德一街","SECT":" ","MAREA":" ","LANE":" ","ALLEY":" ","HOUSE_NO":"７２號","E_COORD97":173177.28,"N_COORD97":2541319.2599999998,"ADDRESS":"仁德一街７２號","OBJECTID":499961},"geometry":{"x":173177.28000000119,"y":2541319.2599999998}},{"attributes":{"ID":499989,"DIS_CODE":0,"TOWNNAME":"仁德區","LI":"仁德里","LIN":"15鄰","STREET":"中山路","SECT":" ","MAREA":" ","LANE":" ","ALLEY":" ","HOUSE_NO":"６４５號","E_COORD97":173210.54000000001,"N_COORD97":2541328.2400000002,"ADDRESS":"中山路６４５號","OBJECTID":499962},"geometry":{"x":173210.5400000019,"y":2541328.2400000021}},{"attributes":{"ID":499990,"DIS_CODE":0,"TOWNNAME":"仁德區","LI":"保安里","LIN":"15鄰","STREET":"中正路","SECT":"一段","MAREA":" ","LANE":" ","ALLEY":" ","HOUSE_NO":"２１８號","E_COORD97":171616.87,"N_COORD97":2535806.27,"ADDRESS":"中正路一段２１８號","OBJECTID":499963},"geometry":{"x":171616.87000000104,"y":2535806.2699999996}},{"attributes":{"ID":499991,"DIS_CODE":0,"TOWNNAME":"仁德區","LI":"仁德里","LIN":"15鄰","STREET":"仁德一街","SECT":" ","MAREA":" ","LANE":" ","ALLEY":" ","HOUSE_NO":"５４號","E_COORD97":173176.17999999999,"N_COORD97":2541279.5099999998,"ADDRESS":"仁德一街５４號","OBJECTID":499964},"geometry":{"x":173176.1799999997,"y":2541279.5099999998}},{"attributes":{"ID":499992,"DIS_CODE":0,"TOWNNAME":"仁德區","LI":"仁德里","LIN":"15鄰","STREET":"仁德一街","SECT":" ","MAREA":" ","LANE":" ","ALLEY":" ","HOUSE_NO":"５１號","E_COORD97":173189.03,"N_COORD97":2541295.7599999998,"ADDRESS":"仁德一街５１號","OBJECTID":499965},"geometry":{"x":173189.03000000119,"y":2541295.7599999998}},{"attributes":{"ID":499993,"DIS_CODE":0,"TOWNNAME":"仁德區","LI":"保安里","LIN":"15鄰","STREET":"文賢路","SECT":"二段","MAREA":" ","LANE":" ","ALLEY":" ","HOUSE_NO":"１２號","E_COORD97":171693.95000000001,"N_COORD97":2535833.3199999998,"ADDRESS":"文賢路二段１２號","OBJECTID":499966},"geometry":{"x":171693.94999999925,"y":2535833.3200000003}},{"attributes":{"ID":499994,"DIS_CODE":0,"TOWNNAME":"永康區","LI":"東橋里","LIN":"15鄰","STREET":"東橋七路","SECT":" ","MAREA":" ","LANE":" ","ALLEY":" ","HOUSE_NO":"１０１號","E_COORD97":171876.04000000001,"N_COORD97":2546609.0699999998,"ADDRESS":"東橋七路１０１號","OBJECTID":499967},"geometry":{"x":171876.04000000004,"y":2546609.0700000022}},{"attributes":{"ID":499995,"DIS_CODE":0,"TOWNNAME":"仁德區","LI":"後壁里","LIN":"15鄰","STREET":"德南路","SECT":" ","MAREA":" ","LANE":" ","ALLEY":" ","HOUSE_NO":"６１號","E_COORD97":173415.26000000001,"N_COORD97":2538731.0099999998,"ADDRESS":"德南路６１號","OBJECTID":499968},"geometry":{"x":173415.25999999978,"y":2538731.0099999998}},{"attributes":{"ID":499996,"DIS_CODE":0,"TOWNNAME":"仁德區","LI":"太子里","LIN":"15鄰","STREET":"長興路","SECT":" ","MAREA":" ","LANE":" ","ALLEY":" ","HOUSE_NO":"６１號","E_COORD97":174127.10000000001,"N_COORD97":2543717.2599999998,"ADDRESS":"長興路６１號","OBJECTID":499969},"geometry":{"x":174127.10000000056,"y":2543717.2600000035}},{"attributes":{"ID":499997,"DIS_CODE":0,"TOWNNAME":"仁德區","LI":"太子里","LIN":"15鄰","STREET":"長興路","SECT":" ","MAREA":" ","LANE":" ","ALLEY":" ","HOUSE_NO":"５５號","E_COORD97":174123.23999999999,"N_COORD97":2543692.25,"ADDRESS":"長興路５５號","OBJECTID":499970},"geometry":{"x":174123.24000000115,"y":2543692.25}},{"attributes":{"ID":499998,"DIS_CODE":0,"TOWNNAME":"仁德區","LI":"新田里","LIN":"15鄰","STREET":"民安路","SECT":"二段","MAREA":" ","LANE":" ","ALLEY":" ","HOUSE_NO":"９號","E_COORD97":173331.72,"N_COORD97":2539311.0600000001,"ADDRESS":"民安路二段９號","OBJECTID":499971},"geometry":{"x":173331.72000000067,"y":2539311.0600000005}},{"attributes":{"ID":499999,"DIS_CODE":0,"TOWNNAME":"南區","LI":"郡南里","LIN":"5鄰","STREET":"永興一街","SECT":" ","MAREA":" ","LANE":" ","ALLEY":" ","HOUSE_NO":"１１號之１","E_COORD97":167267.06,"N_COORD97":2540698.04,"ADDRESS":"永興一街１１號之１","OBJECTID":499972},"geometry":{"x":167267.06000000052,"y":2540698.040000001}},{"attributes":{"ID":500000,"DIS_CODE":0,"TOWNNAME":"南區","LI":"郡南里","LIN":"5鄰","STREET":"永興一街","SECT":" ","MAREA":" ","LANE":" ","ALLEY":" ","HOUSE_NO":"１１號之２","E_COORD97":167270.87,"N_COORD97":2540698.04,"ADDRESS":"永興一街１１號之２","OBJECTID":499973},"geometry":{"x":167270.87000000104,"y":2540698.040000001}},{"attributes":{"ID":500001,"DIS_CODE":0,"TOWNNAME":"南區","LI":"文南里","LIN":"13鄰","STREET":"健康路","SECT":"二段","MAREA":" ","LANE":" ","ALLEY":" ","HOUSE_NO":"２８６號","E_COORD97":166875.88,"N_COORD97":2542510.9300000002,"ADDRESS":"健康路二段２８６號","OBJECTID":499974},"geometry":{"x":166875.87999999989,"y":2542510.9299999997}},{"attributes":{"ID":500002,"DIS_CODE":0,"TOWNNAME":"仁德區","LI":"新田里","LIN":"15鄰","STREET":"民安路","SECT":"二段","MAREA":" ","LANE":" ","ALLEY":" ","HOUSE_NO":"３號","E_COORD97":173314.42000000001,"N_COORD97":2539315.5600000001,"ADDRESS":"民安路二段３號","OBJECTID":499975},"geometry":{"x":173314.41999999993,"y":2539315.5600000024}},{"attributes":{"ID":500003,"DIS_CODE":0,"TOWNNAME":"南區","LI":"田寮里","LIN":"1鄰","STREET":"大成路","SECT":"二段","MAREA":" ","LANE":" ","ALLEY":" ","HOUSE_NO":"２３４號","E_COORD97":167125.94,"N_COORD97":2541750.0600000001,"ADDRESS":"大成路二段２３４號","OBJECTID":499976},"geometry":{"x":167125.94000000227,"y":2541750.0600000024}},{"attributes":{"ID":500004,"DIS_CODE":0,"TOWNNAME":"南區","LI":"田寮里","LIN":"1鄰","STREET":"大成路","SECT":"二段","MAREA":" ","LANE":" ","ALLEY":" ","HOUSE_NO":"２３２號","E_COORD97":167152.14999999999,"N_COORD97":2541750.8799999999,"ADDRESS":"大成路二段２３２號","OBJECTID":499977},"geometry":{"x":167152.1500000013,"y":2541750.879999999}},{"attributes":{"ID":500005,"DIS_CODE":0,"TOWNNAME":"南區","LI":"光明里","LIN":"12鄰","STREET":"利南街","SECT":" ","MAREA":" ","LANE":" ","ALLEY":" ","HOUSE_NO":"１０７號","E_COORD97":166729.09,"N_COORD97":2541265.2000000002,"ADDRESS":"利南街１０７號","OBJECTID":499978},"geometry":{"x":166729.08999999985,"y":2541265.1999999993}},{"attributes":{"ID":500006,"DIS_CODE":0,"TOWNNAME":"南區","LI":"光明里","LIN":"12鄰","STREET":"利南街","SECT":" ","MAREA":" ","LANE":" ","ALLEY":" ","HOUSE_NO":"１０９號","E_COORD97":166728.60999999999,"N_COORD97":2541270.6699999999,"ADDRESS":"利南街１０９號","OBJECTID":499979},"geometry":{"x":166728.61000000127,"y":2541270.6700000018}},{"attributes":{"ID":500007,"DIS_CODE":0,"TOWNNAME":"白河區","LI":"永安里","LIN":"15鄰","STREET":"平等街","SECT":" ","MAREA":" ","LANE":" ","ALLEY":" ","HOUSE_NO":"４２號","E_COORD97":190037.57999999999,"N_COORD97":2583606.8900000001,"ADDRESS":"平等街４２號","OBJECTID":499980},"geometry":{"x":190037.58000000007,"y":2583606.8900000006}},{"attributes":{"ID":500008,"DIS_CODE":0,"TOWNNAME":"白河區","LI":"永安里","LIN":"15鄰","STREET":"平等街","SECT":" ","MAREA":" ","LANE":" ","ALLEY":" ","HOUSE_NO":"４３號","E_COORD97":190029.69,"N_COORD97":2583624.3500000001,"ADDRESS":"平等街４３號","OBJECTID":499981},"geometry":{"x":190029.69000000134,"y":2583624.3499999978}},{"attributes":{"ID":500009,"DIS_CODE":0,"TOWNNAME":"白河區","LI":"永安里","LIN":"15鄰","STREET":"平等街","SECT":" ","MAREA":" ","LANE":" ","ALLEY":" ","HOUSE_NO":"４５號","E_COORD97":190034.85999999999,"N_COORD97":2583627.25,"ADDRESS":"平等街４５號","OBJECTID":499982},"geometry":{"x":190034.86000000034,"y":2583627.2500000019}},{"attributes":{"ID":500010,"DIS_CODE":0,"TOWNNAME":"白河區","LI":"永安里","LIN":"15鄰","STREET":"平等街","SECT":" ","MAREA":" ","LANE":" ","ALLEY":" ","HOUSE_NO":"４６號","E_COORD97":190040.17000000001,"N_COORD97":2583610.5099999998,"ADDRESS":"平等街４６號","OBJECTID":499983},"geometry":{"x":190040.17000000086,"y":2583610.5100000016}},{"attributes":{"ID":500011,"DIS_CODE":0,"TOWNNAME":"白河區","LI":"永安里","LIN":"15鄰","STREET":"平等街","SECT":" ","MAREA":" ","LANE":" ","ALLEY":" ","HOUSE_NO":"４７號","E_COORD97":190037.76000000001,"N_COORD97":2583630.5600000001,"ADDRESS":"平等街４７號","OBJECTID":499984},"geometry":{"x":190037.75999999978,"y":2583630.5599999987}},{"attributes":{"ID":500012,"DIS_CODE":0,"TOWNNAME":"白河區","LI":"永安里","LIN":"15鄰","STREET":"平等街","SECT":" ","MAREA":" ","LANE":" ","ALLEY":" ","HOUSE_NO":"４８號","E_COORD97":190043.17000000001,"N_COORD97":2583612.8500000001,"ADDRESS":"平等街４８號","OBJECTID":499985},"geometry":{"x":190043.17000000086,"y":2583612.8499999996}},{"attributes":{"ID":500013,"DIS_CODE":0,"TOWNNAME":"白河區","LI":"永安里","LIN":"15鄰","STREET":"平等街","SECT":" ","MAREA":" ","LANE":" ","ALLEY":" ","HOUSE_NO":"５０號","E_COORD97":190046.82999999999,"N_COORD97":2583615.79,"ADDRESS":"平等街５０號","OBJECTID":499986},"geometry":{"x":190046.83000000194,"y":2583615.790000001}},{"attributes":{"ID":500014,"DIS_CODE":0,"TOWNNAME":"白河區","LI":"永安里","LIN":"15鄰","STREET":"平等街","SECT":" ","MAREA":" ","LANE":" ","ALLEY":" ","HOUSE_NO":"５１號","E_COORD97":190047.63,"N_COORD97":2583640.04,"ADDRESS":"平等街５１號","OBJECTID":499987},"geometry":{"x":190047.62999999989,"y":2583640.040000001}},{"attributes":{"ID":500015,"DIS_CODE":0,"TOWNNAME":"官田區","LI":"隆本里","LIN":"15鄰","STREET":"復興街","SECT":" ","MAREA":" ","LANE":" ","ALLEY":" ","HOUSE_NO":"１３０號","E_COORD97":179727.88,"N_COORD97":2566406.1499999999,"ADDRESS":"復興街１３０號","OBJECTID":499988},"geometry":{"x":179727.88000000082,"y":2566406.1500000004}},{"attributes":{"ID":500016,"DIS_CODE":0,"TOWNNAME":"官田區","LI":"隆本里","LIN":"15鄰","STREET":"復興街","SECT":" ","MAREA":" ","LANE":" ","ALLEY":" ","HOUSE_NO":"１３２號","E_COORD97":179723.39000000001,"N_COORD97":2566405.3300000001,"ADDRESS":"復興街１３２號","OBJECTID":499989},"geometry":{"x":179723.38999999966,"y":2566405.3300000038}},{"attributes":{"ID":500017,"DIS_CODE":0,"TOWNNAME":"官田區","LI":"隆本里","LIN":"15鄰","STREET":"復興街","SECT":" ","MAREA":" ","LANE":" ","ALLEY":" ","HOUSE_NO":"１３３號","E_COORD97":179521.56,"N_COORD97":2566378.3900000001,"ADDRESS":"復興街１３３號","OBJECTID":499990},"geometry":{"x":179521.56000000052,"y":2566378.3900000043}},{"attributes":{"ID":500018,"DIS_CODE":0,"TOWNNAME":"官田區","LI":"隆本里","LIN":"15鄰","STREET":"復興街","SECT":" ","MAREA":" ","LANE":" ","ALLEY":" ","HOUSE_NO":"１３６號","E_COORD97":179719,"N_COORD97":2566404.5600000001,"ADDRESS":"復興街１３６號","OBJECTID":499991},"geometry":{"x":179719.00000000093,"y":2566404.5600000024}},{"attributes":{"ID":500019,"DIS_CODE":0,"TOWNNAME":"官田區","LI":"隆本里","LIN":"15鄰","STREET":"復興街","SECT":" ","MAREA":" ","LANE":" ","ALLEY":" ","HOUSE_NO":"１３８號","E_COORD97":179715.01999999999,"N_COORD97":2566403.7200000002,"ADDRESS":"復興街１３８號","OBJECTID":499992},"geometry":{"x":179715.02000000048,"y":2566403.7200000025}},{"attributes":{"ID":500020,"DIS_CODE":0,"TOWNNAME":"官田區","LI":"隆本里","LIN":"15鄰","STREET":"復興街","SECT":" ","MAREA":" ","LANE":" ","ALLEY":" ","HOUSE_NO":"１４０號","E_COORD97":179710,"N_COORD97":2566402.5800000001,"ADDRESS":"復興街１４０號","OBJECTID":499993},"geometry":{"x":179709.99999999907,"y":2566402.5800000001}},{"attributes":{"ID":500021,"DIS_CODE":0,"TOWNNAME":"官田區","LI":"隆本里","LIN":"15鄰","STREET":"復興街","SECT":" ","MAREA":" ","LANE":" ","ALLEY":" ","HOUSE_NO":"１４２號","E_COORD97":179705.44,"N_COORD97":2566401.46,"ADDRESS":"復興街１４２號","OBJECTID":499994},"geometry":{"x":179705.44000000041,"y":2566401.4600000009}},{"attributes":{"ID":500022,"DIS_CODE":0,"TOWNNAME":"官田區","LI":"隆本里","LIN":"15鄰","STREET":"復興街","SECT":" ","MAREA":" ","LANE":" ","ALLEY":" ","HOUSE_NO":"１４６號","E_COORD97":179700.57000000001,"N_COORD97":2566400.4100000001,"ADDRESS":"復興街１４６號","OBJECTID":499995},"geometry":{"x":179700.57000000123,"y":2566400.4100000001}},{"attributes":{"ID":500023,"DIS_CODE":0,"TOWNNAME":"官田區","LI":"隆本里","LIN":"15鄰","STREET":"復興街","SECT":" ","MAREA":" ","LANE":" ","ALLEY":" ","HOUSE_NO":"１４８號","E_COORD97":179696.14999999999,"N_COORD97":2566399.1400000001,"ADDRESS":"復興街１４８號","OBJECTID":499996},"geometry":{"x":179696.1500000013,"y":2566399.1400000006}},{"attributes":{"ID":500024,"DIS_CODE":0,"TOWNNAME":"官田區","LI":"隆本里","LIN":"15鄰","STREET":"復興街","SECT":" ","MAREA":" ","LANE":" ","ALLEY":" ","HOUSE_NO":"１５０號","E_COORD97":179692.20000000001,"N_COORD97":2566398.8700000001,"ADDRESS":"復興街１５０號","OBJECTID":499997},"geometry":{"x":179692.20000000112,"y":2566398.870000001}},{"attributes":{"ID":500025,"DIS_CODE":0,"TOWNNAME":"官田區","LI":"隆本里","LIN":"15鄰","STREET":"復興街","SECT":" ","MAREA":" ","LANE":" ","ALLEY":" ","HOUSE_NO":"１５２號","E_COORD97":179687.23999999999,"N_COORD97":2566399.04,"ADDRESS":"復興街１５２號","OBJECTID":499998},"geometry":{"x":179687.24000000115,"y":2566399.0399999991}},{"attributes":{"ID":500026,"DIS_CODE":0,"TOWNNAME":"官田區","LI":"隆本里","LIN":"15鄰","STREET":"復興街","SECT":" ","MAREA":" ","LANE":" ","ALLEY":" ","HOUSE_NO":"１５６號","E_COORD97":179683.06,"N_COORD97":2566398,"ADDRESS":"復興街１５６號","OBJECTID":499999},"geometry":{"x":179683.05999999959,"y":2566398.0000000019}},{"attributes":{"ID":500027,"DIS_CODE":0,"TOWNNAME":"官田區","LI":"隆本里","LIN":"15鄰","STREET":"復興街","SECT":" ","MAREA":" ","LANE":" ","ALLEY":" ","HOUSE_NO":"１８０號","E_COORD97":179630.60999999999,"N_COORD97":2566403.4500000002,"ADDRESS":"復興街１８０號","OBJECTID":500000},"geometry":{"x":179630.61000000127,"y":2566403.4499999974}}]}