{"displayFieldName":"TOWNNAME","fieldAliases":{"ID":"ID","DIS_CODE":"DIS_CODE","TOWNNAME":"TOWNNAME","LI":"LI","LIN":"LIN","STREET":"STREET","SECT":"SECT","MAREA":"MAREA","LANE":"LANE","ALLEY":"ALLEY","HOUSE_NO":"HOUSE_NO","E_COORD97":"E_COORD97","N_COORD97":"N_COORD97","ADDRESS":"ADDRESS","OBJECTID":"OBJECTID"},"geometryType":"esriGeometryPoint","spatialReference":{"wkid":102443,"latestWkid":3826},"fields":[{"name":"ID","type":"esriFieldTypeDouble","alias":"ID"},{"name":"DIS_CODE","type":"esriFieldTypeInteger","alias":"DIS_CODE"},{"name":"TOWNNAME","type":"esriFieldTypeString","alias":"TOWNNAME","length":8},{"name":"LI","type":"esriFieldTypeString","alias":"LI","length":8},{"name":"LIN","type":"esriFieldTypeString","alias":"LIN","length":12},{"name":"STREET","type":"esriFieldTypeString","alias":"STREET","length":20},{"name":"SECT","type":"esriFieldTypeString","alias":"SECT","length":8},{"name":"MAREA","type":"esriFieldTypeString","alias":"MAREA","length":12},{"name":"LANE","type":"esriFieldTypeString","alias":"LANE","length":10},{"name":"ALLEY","type":"esriFieldTypeString","alias":"ALLEY","length":10},{"name":"HOUSE_NO","type":"esriFieldTypeString","alias":"HOUSE_NO","length":20},{"name":"E_COORD97","type":"esriFieldTypeDouble","alias":"E_COORD97"},{"name":"N_COORD97","type":"esriFieldTypeDouble","alias":"N_COORD97"},{"name":"ADDRESS","type":"esriFieldTypeString","alias":"ADDRESS","length":50},{"name":"OBJECTID","type":"esriFieldTypeOID","alias":"OBJECTID"}],"features":[{"attributes":{"ID":47201,"DIS_CODE":0,"TOWNNAME":"歸仁區","LI":"許厝里","LIN":"17鄰","STREET":"忠孝北路","SECT":" ","MAREA":" ","LANE":" ","ALLEY":" ","HOUSE_NO":"１９號二樓","E_COORD97":178444.22,"N_COORD97":2540724.25,"ADDRESS":"忠孝北路１９號二樓","OBJECTID":47201},"geometry":{"x":178444.22000000067,"y":2540724.2500000019}},{"attributes":{"ID":47202,"DIS_CODE":0,"TOWNNAME":"歸仁區","LI":"辜厝里","LIN":"17鄰","STREET":"大順街","SECT":" ","MAREA":" ","LANE":" ","ALLEY":" ","HOUSE_NO":"１３號九樓","E_COORD97":177457.67999999999,"N_COORD97":2540505.9500000002,"ADDRESS":"大順街１３號九樓","OBJECTID":47202},"geometry":{"x":177457.68000000063,"y":2540505.9500000011}},{"attributes":{"ID":47203,"DIS_CODE":0,"TOWNNAME":"新營區","LI":"民榮里","LIN":"17鄰","STREET":"富強街","SECT":" ","MAREA":" ","LANE":" ","ALLEY":" ","HOUSE_NO":"６號六樓","E_COORD97":178986.82999999999,"N_COORD97":2577803.4500000002,"ADDRESS":"富強街６號六樓","OBJECTID":47203},"geometry":{"x":178986.83000000007,"y":2577803.4500000011}},{"attributes":{"ID":47204,"DIS_CODE":0,"TOWNNAME":"安南區","LI":"佃東里","LIN":"15鄰","STREET":"公學路","SECT":"四段","MAREA":" ","LANE":"１２２巷","ALLEY":"８５弄","HOUSE_NO":"３號三樓之１４","E_COORD97":165551.64999999999,"N_COORD97":2552246.02,"ADDRESS":"公學路四段１２２巷８５弄３號三樓之１４","OBJECTID":47204},"geometry":{"x":165551.6500000013,"y":2552246.0200000014}},{"attributes":{"ID":47205,"DIS_CODE":0,"TOWNNAME":"安南區","LI":"佃東里","LIN":"15鄰","STREET":"公學路","SECT":"四段","MAREA":" ","LANE":"１２２巷","ALLEY":"８５弄","HOUSE_NO":"３號三樓之１５","E_COORD97":165551.64999999999,"N_COORD97":2552246.02,"ADDRESS":"公學路四段１２２巷８５弄３號三樓之１５","OBJECTID":47205},"geometry":{"x":165551.6500000013,"y":2552246.0200000014}},{"attributes":{"ID":47206,"DIS_CODE":0,"TOWNNAME":"安南區","LI":"佃東里","LIN":"15鄰","STREET":"公學路","SECT":"四段","MAREA":" ","LANE":"１２２巷","ALLEY":"８５弄","HOUSE_NO":"３號四樓之９","E_COORD97":165551.64999999999,"N_COORD97":2552246.02,"ADDRESS":"公學路四段１２２巷８５弄３號四樓之９","OBJECTID":47206},"geometry":{"x":165551.6500000013,"y":2552246.0200000014}},{"attributes":{"ID":47207,"DIS_CODE":0,"TOWNNAME":"安南區","LI":"佃東里","LIN":"15鄰","STREET":"公學路","SECT":"四段","MAREA":" ","LANE":"１２２巷","ALLEY":"８５弄","HOUSE_NO":"３號四樓之１０","E_COORD97":165551.64999999999,"N_COORD97":2552246.02,"ADDRESS":"公學路四段１２２巷８５弄３號四樓之１０","OBJECTID":47207},"geometry":{"x":165551.6500000013,"y":2552246.0200000014}},{"attributes":{"ID":47208,"DIS_CODE":0,"TOWNNAME":"安南區","LI":"佃東里","LIN":"15鄰","STREET":"公學路","SECT":"四段","MAREA":" ","LANE":"１２２巷","ALLEY":"８５弄","HOUSE_NO":"３號四樓之１１","E_COORD97":165551.64999999999,"N_COORD97":2552246.02,"ADDRESS":"公學路四段１２２巷８５弄３號四樓之１１","OBJECTID":47208},"geometry":{"x":165551.6500000013,"y":2552246.0200000014}},{"attributes":{"ID":47209,"DIS_CODE":0,"TOWNNAME":"安南區","LI":"佃東里","LIN":"15鄰","STREET":"公學路","SECT":"四段","MAREA":" ","LANE":"１２２巷","ALLEY":"８５弄","HOUSE_NO":"３號四樓之１２","E_COORD97":165551.64999999999,"N_COORD97":2552246.02,"ADDRESS":"公學路四段１２２巷８５弄３號四樓之１２","OBJECTID":47209},"geometry":{"x":165551.6500000013,"y":2552246.0200000014}},{"attributes":{"ID":47210,"DIS_CODE":0,"TOWNNAME":"安南區","LI":"佃東里","LIN":"15鄰","STREET":"公學路","SECT":"四段","MAREA":" ","LANE":"１２２巷","ALLEY":"８５弄","HOUSE_NO":"３號四樓之１３","E_COORD97":165551.64999999999,"N_COORD97":2552246.02,"ADDRESS":"公學路四段１２２巷８５弄３號四樓之１３","OBJECTID":47210},"geometry":{"x":165551.6500000013,"y":2552246.0200000014}},{"attributes":{"ID":47211,"DIS_CODE":0,"TOWNNAME":"安南區","LI":"佃東里","LIN":"15鄰","STREET":"公學路","SECT":"四段","MAREA":" ","LANE":"１２２巷","ALLEY":"８５弄","HOUSE_NO":"３號四樓之１４","E_COORD97":165551.64999999999,"N_COORD97":2552246.02,"ADDRESS":"公學路四段１２２巷８５弄３號四樓之１４","OBJECTID":47211},"geometry":{"x":165551.6500000013,"y":2552246.0200000014}},{"attributes":{"ID":47212,"DIS_CODE":0,"TOWNNAME":"安南區","LI":"佃東里","LIN":"15鄰","STREET":"公學路","SECT":"四段","MAREA":" ","LANE":"１２２巷","ALLEY":"８５弄","HOUSE_NO":"３號四樓之１５","E_COORD97":165551.64999999999,"N_COORD97":2552246.02,"ADDRESS":"公學路四段１２２巷８５弄３號四樓之１５","OBJECTID":47212},"geometry":{"x":165551.6500000013,"y":2552246.0200000014}},{"attributes":{"ID":47213,"DIS_CODE":0,"TOWNNAME":"安南區","LI":"佃東里","LIN":"15鄰","STREET":"公學路","SECT":"四段","MAREA":" ","LANE":"１２２巷","ALLEY":"８５弄","HOUSE_NO":"３號五樓之９","E_COORD97":165551.64999999999,"N_COORD97":2552246.02,"ADDRESS":"公學路四段１２２巷８５弄３號五樓之９","OBJECTID":47213},"geometry":{"x":165551.6500000013,"y":2552246.0200000014}},{"attributes":{"ID":47214,"DIS_CODE":0,"TOWNNAME":"永康區","LI":"勝利里","LIN":"15鄰","STREET":"勝利街","SECT":" ","MAREA":" ","LANE":"９５巷","ALLEY":"９弄","HOUSE_NO":"７號","E_COORD97":171267.51999999999,"N_COORD97":2544854.2599999998,"ADDRESS":"勝利街９５巷９弄７號","OBJECTID":47214},"geometry":{"x":171267.52000000142,"y":2544854.2600000016}},{"attributes":{"ID":47215,"DIS_CODE":0,"TOWNNAME":"安南區","LI":"佃東里","LIN":"15鄰","STREET":"公學路","SECT":"四段","MAREA":" ","LANE":"１２２巷","ALLEY":"８５弄","HOUSE_NO":"３號五樓之１０","E_COORD97":165551.64999999999,"N_COORD97":2552246.02,"ADDRESS":"公學路四段１２２巷８５弄３號五樓之１０","OBJECTID":47215},"geometry":{"x":165551.6500000013,"y":2552246.0200000014}},{"attributes":{"ID":47216,"DIS_CODE":0,"TOWNNAME":"安南區","LI":"佃東里","LIN":"15鄰","STREET":"公學路","SECT":"四段","MAREA":" ","LANE":"１２２巷","ALLEY":"８５弄","HOUSE_NO":"３號五樓之１１","E_COORD97":165551.64999999999,"N_COORD97":2552246.02,"ADDRESS":"公學路四段１２２巷８５弄３號五樓之１１","OBJECTID":47216},"geometry":{"x":165551.6500000013,"y":2552246.0200000014}},{"attributes":{"ID":47217,"DIS_CODE":0,"TOWNNAME":"安南區","LI":"佃東里","LIN":"15鄰","STREET":"公學路","SECT":"四段","MAREA":" ","LANE":"１２２巷","ALLEY":"８５弄","HOUSE_NO":"３號五樓之１２","E_COORD97":165551.64999999999,"N_COORD97":2552246.02,"ADDRESS":"公學路四段１２２巷８５弄３號五樓之１２","OBJECTID":47217},"geometry":{"x":165551.6500000013,"y":2552246.0200000014}},{"attributes":{"ID":47218,"DIS_CODE":0,"TOWNNAME":"安南區","LI":"佃東里","LIN":"15鄰","STREET":"公學路","SECT":"四段","MAREA":" ","LANE":"１２２巷","ALLEY":"８５弄","HOUSE_NO":"３號五樓之１３","E_COORD97":165551.64999999999,"N_COORD97":2552246.02,"ADDRESS":"公學路四段１２２巷８５弄３號五樓之１３","OBJECTID":47218},"geometry":{"x":165551.6500000013,"y":2552246.0200000014}},{"attributes":{"ID":47219,"DIS_CODE":0,"TOWNNAME":"安南區","LI":"佃東里","LIN":"15鄰","STREET":"公學路","SECT":"四段","MAREA":" ","LANE":"１２２巷","ALLEY":"８５弄","HOUSE_NO":"３號五樓之１４","E_COORD97":165551.64999999999,"N_COORD97":2552246.02,"ADDRESS":"公學路四段１２２巷８５弄３號五樓之１４","OBJECTID":47219},"geometry":{"x":165551.6500000013,"y":2552246.0200000014}},{"attributes":{"ID":47220,"DIS_CODE":0,"TOWNNAME":"安南區","LI":"佃東里","LIN":"15鄰","STREET":"公學路","SECT":"四段","MAREA":" ","LANE":"１２２巷","ALLEY":"８５弄","HOUSE_NO":"３號五樓之１５","E_COORD97":165551.64999999999,"N_COORD97":2552246.02,"ADDRESS":"公學路四段１２２巷８５弄３號五樓之１５","OBJECTID":47220},"geometry":{"x":165551.6500000013,"y":2552246.0200000014}},{"attributes":{"ID":47221,"DIS_CODE":0,"TOWNNAME":"安南區","LI":"佃東里","LIN":"15鄰","STREET":"公學路","SECT":"四段","MAREA":" ","LANE":"１２２巷","ALLEY":"８５弄","HOUSE_NO":"３號六樓之９","E_COORD97":165551.64999999999,"N_COORD97":2552246.02,"ADDRESS":"公學路四段１２２巷８５弄３號六樓之９","OBJECTID":47221},"geometry":{"x":165551.6500000013,"y":2552246.0200000014}},{"attributes":{"ID":47222,"DIS_CODE":0,"TOWNNAME":"安南區","LI":"佃東里","LIN":"15鄰","STREET":"公學路","SECT":"四段","MAREA":" ","LANE":"１２２巷","ALLEY":"８５弄","HOUSE_NO":"３號六樓之１０","E_COORD97":165551.64999999999,"N_COORD97":2552246.02,"ADDRESS":"公學路四段１２２巷８５弄３號六樓之１０","OBJECTID":47222},"geometry":{"x":165551.6500000013,"y":2552246.0200000014}},{"attributes":{"ID":47223,"DIS_CODE":0,"TOWNNAME":"西港區","LI":"南海里","LIN":"15鄰","STREET":" ","SECT":" ","MAREA":"東港","LANE":" ","ALLEY":" ","HOUSE_NO":"３之６號","E_COORD97":167123.69,"N_COORD97":2556307.9399999999,"ADDRESS":"東港３之６號","OBJECTID":47223},"geometry":{"x":167123.69000000041,"y":2556307.9400000013}},{"attributes":{"ID":47224,"DIS_CODE":0,"TOWNNAME":"安南區","LI":"佃東里","LIN":"15鄰","STREET":"公學路","SECT":"四段","MAREA":" ","LANE":"１２２巷","ALLEY":"８５弄","HOUSE_NO":"３號六樓之１１","E_COORD97":165551.64999999999,"N_COORD97":2552246.02,"ADDRESS":"公學路四段１２２巷８５弄３號六樓之１１","OBJECTID":47224},"geometry":{"x":165551.6500000013,"y":2552246.0200000014}},{"attributes":{"ID":47225,"DIS_CODE":0,"TOWNNAME":"安南區","LI":"佃東里","LIN":"15鄰","STREET":"公學路","SECT":"四段","MAREA":" ","LANE":"１２２巷","ALLEY":"８５弄","HOUSE_NO":"３號六樓之１２","E_COORD97":165551.64999999999,"N_COORD97":2552246.02,"ADDRESS":"公學路四段１２２巷８５弄３號六樓之１２","OBJECTID":47225},"geometry":{"x":165551.6500000013,"y":2552246.0200000014}},{"attributes":{"ID":47226,"DIS_CODE":0,"TOWNNAME":"安南區","LI":"佃東里","LIN":"15鄰","STREET":"公學路","SECT":"四段","MAREA":" ","LANE":"１２２巷","ALLEY":"８５弄","HOUSE_NO":"３號六樓之１３","E_COORD97":165551.64999999999,"N_COORD97":2552246.02,"ADDRESS":"公學路四段１２２巷８５弄３號六樓之１３","OBJECTID":47226},"geometry":{"x":165551.6500000013,"y":2552246.0200000014}},{"attributes":{"ID":47227,"DIS_CODE":0,"TOWNNAME":"安南區","LI":"佃東里","LIN":"15鄰","STREET":"公學路","SECT":"四段","MAREA":" ","LANE":"１２２巷","ALLEY":"８５弄","HOUSE_NO":"３號六樓之１４","E_COORD97":165551.64999999999,"N_COORD97":2552246.02,"ADDRESS":"公學路四段１２２巷８５弄３號六樓之１４","OBJECTID":47227},"geometry":{"x":165551.6500000013,"y":2552246.0200000014}},{"attributes":{"ID":47228,"DIS_CODE":0,"TOWNNAME":"安南區","LI":"佃東里","LIN":"15鄰","STREET":"公學路","SECT":"四段","MAREA":" ","LANE":"１２２巷","ALLEY":"８５弄","HOUSE_NO":"３號六樓之１５","E_COORD97":165551.64999999999,"N_COORD97":2552246.02,"ADDRESS":"公學路四段１２２巷８５弄３號六樓之１５","OBJECTID":47228},"geometry":{"x":165551.6500000013,"y":2552246.0200000014}},{"attributes":{"ID":47229,"DIS_CODE":0,"TOWNNAME":"永康區","LI":"永康里","LIN":"28鄰","STREET":"永大路","SECT":"二段","MAREA":" ","LANE":"８３１巷","ALLEY":"５８弄","HOUSE_NO":"１０號","E_COORD97":174158.54000000001,"N_COORD97":2546965.6699999999,"ADDRESS":"永大路二段８３１巷５８弄１０號","OBJECTID":47229},"geometry":{"x":174158.54000000097,"y":2546965.6699999981}},{"attributes":{"ID":47230,"DIS_CODE":0,"TOWNNAME":"安南區","LI":"佃東里","LIN":"15鄰","STREET":"公學路","SECT":"四段","MAREA":" ","LANE":"１２２巷","ALLEY":"８５弄","HOUSE_NO":"３號七樓之９","E_COORD97":165551.64999999999,"N_COORD97":2552246.02,"ADDRESS":"公學路四段１２２巷８５弄３號七樓之９","OBJECTID":47230},"geometry":{"x":165551.6500000013,"y":2552246.0200000014}},{"attributes":{"ID":47231,"DIS_CODE":0,"TOWNNAME":"安南區","LI":"佃東里","LIN":"15鄰","STREET":"公學路","SECT":"四段","MAREA":" ","LANE":"１２２巷","ALLEY":"８５弄","HOUSE_NO":"３號七樓之１０","E_COORD97":165551.64999999999,"N_COORD97":2552246.02,"ADDRESS":"公學路四段１２２巷８５弄３號七樓之１０","OBJECTID":47231},"geometry":{"x":165551.6500000013,"y":2552246.0200000014}},{"attributes":{"ID":47232,"DIS_CODE":0,"TOWNNAME":"安南區","LI":"佃東里","LIN":"15鄰","STREET":"公學路","SECT":"四段","MAREA":" ","LANE":"１２２巷","ALLEY":"８５弄","HOUSE_NO":"３號七樓之１１","E_COORD97":165551.64999999999,"N_COORD97":2552246.02,"ADDRESS":"公學路四段１２２巷８５弄３號七樓之１１","OBJECTID":47232},"geometry":{"x":165551.6500000013,"y":2552246.0200000014}},{"attributes":{"ID":47233,"DIS_CODE":0,"TOWNNAME":"安南區","LI":"佃東里","LIN":"15鄰","STREET":"公學路","SECT":"四段","MAREA":" ","LANE":"１２２巷","ALLEY":"８５弄","HOUSE_NO":"３號七樓之１２","E_COORD97":165551.64999999999,"N_COORD97":2552246.02,"ADDRESS":"公學路四段１２２巷８５弄３號七樓之１２","OBJECTID":47233},"geometry":{"x":165551.6500000013,"y":2552246.0200000014}},{"attributes":{"ID":47234,"DIS_CODE":0,"TOWNNAME":"安南區","LI":"佃東里","LIN":"15鄰","STREET":"公學路","SECT":"四段","MAREA":" ","LANE":"１２２巷","ALLEY":"８５弄","HOUSE_NO":"３號七樓之１３","E_COORD97":165551.64999999999,"N_COORD97":2552246.02,"ADDRESS":"公學路四段１２２巷８５弄３號七樓之１３","OBJECTID":47234},"geometry":{"x":165551.6500000013,"y":2552246.0200000014}},{"attributes":{"ID":47235,"DIS_CODE":0,"TOWNNAME":"西港區","LI":"後營里","LIN":"15鄰","STREET":" ","SECT":" ","MAREA":"後營","LANE":" ","ALLEY":" ","HOUSE_NO":"２９８號之３","E_COORD97":169962.70000000001,"N_COORD97":2559957.79,"ADDRESS":"後營２９８號之３","OBJECTID":47235},"geometry":{"x":169962.70000000019,"y":2559957.790000001}},{"attributes":{"ID":47236,"DIS_CODE":0,"TOWNNAME":"安南區","LI":"佃東里","LIN":"15鄰","STREET":"公學路","SECT":"四段","MAREA":" ","LANE":"１２２巷","ALLEY":"８５弄","HOUSE_NO":"３號七樓之１４","E_COORD97":165551.64999999999,"N_COORD97":2552246.02,"ADDRESS":"公學路四段１２２巷８５弄３號七樓之１４","OBJECTID":47236},"geometry":{"x":165551.6500000013,"y":2552246.0200000014}},{"attributes":{"ID":47237,"DIS_CODE":0,"TOWNNAME":"安南區","LI":"佃東里","LIN":"15鄰","STREET":"公學路","SECT":"四段","MAREA":" ","LANE":"１２２巷","ALLEY":"８５弄","HOUSE_NO":"３號七樓之１５","E_COORD97":165551.64999999999,"N_COORD97":2552246.02,"ADDRESS":"公學路四段１２２巷８５弄３號七樓之１５","OBJECTID":47237},"geometry":{"x":165551.6500000013,"y":2552246.0200000014}},{"attributes":{"ID":47238,"DIS_CODE":0,"TOWNNAME":"安南區","LI":"佃東里","LIN":"15鄰","STREET":"公學路","SECT":"四段","MAREA":" ","LANE":"１２２巷","ALLEY":"８５弄","HOUSE_NO":"３號八樓之９","E_COORD97":165551.64999999999,"N_COORD97":2552246.02,"ADDRESS":"公學路四段１２２巷８５弄３號八樓之９","OBJECTID":47238},"geometry":{"x":165551.6500000013,"y":2552246.0200000014}},{"attributes":{"ID":47239,"DIS_CODE":0,"TOWNNAME":"安南區","LI":"佃東里","LIN":"15鄰","STREET":"公學路","SECT":"四段","MAREA":" ","LANE":"１２２巷","ALLEY":"８５弄","HOUSE_NO":"３號八樓之１０","E_COORD97":165551.64999999999,"N_COORD97":2552246.02,"ADDRESS":"公學路四段１２２巷８５弄３號八樓之１０","OBJECTID":47239},"geometry":{"x":165551.6500000013,"y":2552246.0200000014}},{"attributes":{"ID":47240,"DIS_CODE":0,"TOWNNAME":"安南區","LI":"佃東里","LIN":"15鄰","STREET":"公學路","SECT":"四段","MAREA":" ","LANE":"１２２巷","ALLEY":"８５弄","HOUSE_NO":"３號八樓之１１","E_COORD97":165551.64999999999,"N_COORD97":2552246.02,"ADDRESS":"公學路四段１２２巷８５弄３號八樓之１１","OBJECTID":47240},"geometry":{"x":165551.6500000013,"y":2552246.0200000014}},{"attributes":{"ID":47241,"DIS_CODE":0,"TOWNNAME":"安南區","LI":"佃東里","LIN":"15鄰","STREET":"公學路","SECT":"四段","MAREA":" ","LANE":"１２２巷","ALLEY":"８５弄","HOUSE_NO":"３號八樓之１２","E_COORD97":165551.64999999999,"N_COORD97":2552246.02,"ADDRESS":"公學路四段１２２巷８５弄３號八樓之１２","OBJECTID":47241},"geometry":{"x":165551.6500000013,"y":2552246.0200000014}},{"attributes":{"ID":47242,"DIS_CODE":0,"TOWNNAME":"安南區","LI":"佃東里","LIN":"15鄰","STREET":"公學路","SECT":"四段","MAREA":" ","LANE":"１２２巷","ALLEY":"８５弄","HOUSE_NO":"３號八樓之１３","E_COORD97":165551.64999999999,"N_COORD97":2552246.02,"ADDRESS":"公學路四段１２２巷８５弄３號八樓之１３","OBJECTID":47242},"geometry":{"x":165551.6500000013,"y":2552246.0200000014}},{"attributes":{"ID":47243,"DIS_CODE":0,"TOWNNAME":"安南區","LI":"佃東里","LIN":"15鄰","STREET":"公學路","SECT":"四段","MAREA":" ","LANE":"１２２巷","ALLEY":"８５弄","HOUSE_NO":"３號八樓之１４","E_COORD97":165551.64999999999,"N_COORD97":2552246.02,"ADDRESS":"公學路四段１２２巷８５弄３號八樓之１４","OBJECTID":47243},"geometry":{"x":165551.6500000013,"y":2552246.0200000014}},{"attributes":{"ID":47244,"DIS_CODE":0,"TOWNNAME":"安南區","LI":"佃東里","LIN":"15鄰","STREET":"公學路","SECT":"四段","MAREA":" ","LANE":"１２２巷","ALLEY":"８５弄","HOUSE_NO":"３號八樓之１５","E_COORD97":165551.64999999999,"N_COORD97":2552246.02,"ADDRESS":"公學路四段１２２巷８５弄３號八樓之１５","OBJECTID":47244},"geometry":{"x":165551.6500000013,"y":2552246.0200000014}},{"attributes":{"ID":47245,"DIS_CODE":0,"TOWNNAME":"安南區","LI":"佃東里","LIN":"15鄰","STREET":"公學路","SECT":"四段","MAREA":" ","LANE":"１２２巷","ALLEY":"８５弄","HOUSE_NO":"３號九樓之９","E_COORD97":165551.64999999999,"N_COORD97":2552246.02,"ADDRESS":"公學路四段１２２巷８５弄３號九樓之９","OBJECTID":47245},"geometry":{"x":165551.6500000013,"y":2552246.0200000014}},{"attributes":{"ID":47246,"DIS_CODE":0,"TOWNNAME":"安南區","LI":"佃東里","LIN":"15鄰","STREET":"公學路","SECT":"四段","MAREA":" ","LANE":"１２２巷","ALLEY":"８５弄","HOUSE_NO":"３號九樓之１０","E_COORD97":165551.64999999999,"N_COORD97":2552246.02,"ADDRESS":"公學路四段１２２巷８５弄３號九樓之１０","OBJECTID":47246},"geometry":{"x":165551.6500000013,"y":2552246.0200000014}},{"attributes":{"ID":47247,"DIS_CODE":0,"TOWNNAME":"安南區","LI":"佃東里","LIN":"15鄰","STREET":"公學路","SECT":"四段","MAREA":" ","LANE":"１２２巷","ALLEY":"８５弄","HOUSE_NO":"３號九樓之１１","E_COORD97":165551.64999999999,"N_COORD97":2552246.02,"ADDRESS":"公學路四段１２２巷８５弄３號九樓之１１","OBJECTID":47247},"geometry":{"x":165551.6500000013,"y":2552246.0200000014}},{"attributes":{"ID":47248,"DIS_CODE":0,"TOWNNAME":"安南區","LI":"佃東里","LIN":"15鄰","STREET":"公學路","SECT":"四段","MAREA":" ","LANE":"１２２巷","ALLEY":"８５弄","HOUSE_NO":"３號九樓之１２","E_COORD97":165551.64999999999,"N_COORD97":2552246.02,"ADDRESS":"公學路四段１２２巷８５弄３號九樓之１２","OBJECTID":47248},"geometry":{"x":165551.6500000013,"y":2552246.0200000014}},{"attributes":{"ID":47249,"DIS_CODE":0,"TOWNNAME":"西港區","LI":"南海里","LIN":"15鄰","STREET":" ","SECT":" ","MAREA":"東港","LANE":" ","ALLEY":" ","HOUSE_NO":"３號","E_COORD97":167128.85999999999,"N_COORD97":2556307.9399999999,"ADDRESS":"東港３號","OBJECTID":47249},"geometry":{"x":167128.86000000034,"y":2556307.9400000013}},{"attributes":{"ID":47250,"DIS_CODE":0,"TOWNNAME":"安南區","LI":"佃東里","LIN":"15鄰","STREET":"公學路","SECT":"四段","MAREA":" ","LANE":"１２２巷","ALLEY":"８５弄","HOUSE_NO":"３號九樓之１３","E_COORD97":165551.64999999999,"N_COORD97":2552246.02,"ADDRESS":"公學路四段１２２巷８５弄３號九樓之１３","OBJECTID":47250},"geometry":{"x":165551.6500000013,"y":2552246.0200000014}},{"attributes":{"ID":47251,"DIS_CODE":0,"TOWNNAME":"安南區","LI":"佃東里","LIN":"15鄰","STREET":"公學路","SECT":"四段","MAREA":" ","LANE":"１２２巷","ALLEY":"８５弄","HOUSE_NO":"３號九樓之１４","E_COORD97":165551.64999999999,"N_COORD97":2552246.02,"ADDRESS":"公學路四段１２２巷８５弄３號九樓之１４","OBJECTID":47251},"geometry":{"x":165551.6500000013,"y":2552246.0200000014}},{"attributes":{"ID":47252,"DIS_CODE":0,"TOWNNAME":"安南區","LI":"佃東里","LIN":"15鄰","STREET":"公學路","SECT":"四段","MAREA":" ","LANE":"１２２巷","ALLEY":"８５弄","HOUSE_NO":"３號九樓之１５","E_COORD97":165551.64999999999,"N_COORD97":2552246.02,"ADDRESS":"公學路四段１２２巷８５弄３號九樓之１５","OBJECTID":47252},"geometry":{"x":165551.6500000013,"y":2552246.0200000014}},{"attributes":{"ID":47253,"DIS_CODE":0,"TOWNNAME":"永康區","LI":"網寮里","LIN":"15鄰","STREET":"永和街","SECT":" ","MAREA":" ","LANE":"２６０巷","ALLEY":"１２弄","HOUSE_NO":"８號","E_COORD97":173438.72,"N_COORD97":2546594.8799999999,"ADDRESS":"永和街２６０巷１２弄８號","OBJECTID":47253},"geometry":{"x":173438.71999999974,"y":2546594.8800000008}},{"attributes":{"ID":47254,"DIS_CODE":0,"TOWNNAME":"永康區","LI":"網寮里","LIN":"15鄰","STREET":"永和街","SECT":" ","MAREA":" ","LANE":"２６０巷","ALLEY":"１２弄","HOUSE_NO":"３號","E_COORD97":173441.26999999999,"N_COORD97":2546614.75,"ADDRESS":"永和街２６０巷１２弄３號","OBJECTID":47254},"geometry":{"x":173441.27000000048,"y":2546614.75}},{"attributes":{"ID":47255,"DIS_CODE":0,"TOWNNAME":"永康區","LI":"網寮里","LIN":"15鄰","STREET":"永和街","SECT":" ","MAREA":" ","LANE":"２６０巷","ALLEY":"１２弄","HOUSE_NO":"１號","E_COORD97":173436.89000000001,"N_COORD97":2546616.75,"ADDRESS":"永和街２６０巷１２弄１號","OBJECTID":47255},"geometry":{"x":173436.8900000006,"y":2546616.7500000019}},{"attributes":{"ID":47256,"DIS_CODE":0,"TOWNNAME":"永康區","LI":"網寮里","LIN":"15鄰","STREET":"永和街","SECT":" ","MAREA":" ","LANE":"２６０巷","ALLEY":"１２弄","HOUSE_NO":"２５號","E_COORD97":173489.95000000001,"N_COORD97":2546617,"ADDRESS":"永和街２６０巷１２弄２５號","OBJECTID":47256},"geometry":{"x":173489.95000000112,"y":2546617}},{"attributes":{"ID":47257,"DIS_CODE":0,"TOWNNAME":"永康區","LI":"網寮里","LIN":"15鄰","STREET":"永和街","SECT":" ","MAREA":" ","LANE":"２６０巷","ALLEY":"２６弄","HOUSE_NO":"１６號","E_COORD97":173474.84,"N_COORD97":2546631.5,"ADDRESS":"永和街２６０巷２６弄１６號","OBJECTID":47257},"geometry":{"x":173474.84000000078,"y":2546631.5000000037}},{"attributes":{"ID":47258,"DIS_CODE":0,"TOWNNAME":"永康區","LI":"網寮里","LIN":"15鄰","STREET":"永和街","SECT":" ","MAREA":" ","LANE":"２６０巷","ALLEY":"１２弄","HOUSE_NO":"２７號","E_COORD97":173491.91,"N_COORD97":2546621,"ADDRESS":"永和街２６０巷１２弄２７號","OBJECTID":47258},"geometry":{"x":173491.91000000108,"y":2546621}},{"attributes":{"ID":47259,"DIS_CODE":0,"TOWNNAME":"永康區","LI":"網寮里","LIN":"15鄰","STREET":"永和街","SECT":" ","MAREA":" ","LANE":"２６０巷","ALLEY":"１２弄","HOUSE_NO":"１９號","E_COORD97":173483.53,"N_COORD97":2546605.4900000002,"ADDRESS":"永和街２６０巷１２弄１９號","OBJECTID":47259},"geometry":{"x":173483.53000000026,"y":2546605.4900000021}},{"attributes":{"ID":47260,"DIS_CODE":0,"TOWNNAME":"永康區","LI":"網寮里","LIN":"15鄰","STREET":"永和街","SECT":" ","MAREA":" ","LANE":"２６０巷","ALLEY":"１２弄","HOUSE_NO":"６號","E_COORD97":173434.54999999999,"N_COORD97":2546596.8799999999,"ADDRESS":"永和街２６０巷１２弄６號","OBJECTID":47260},"geometry":{"x":173434.55000000075,"y":2546596.879999999}},{"attributes":{"ID":47261,"DIS_CODE":0,"TOWNNAME":"永康區","LI":"勝利里","LIN":"15鄰","STREET":"勝利街","SECT":" ","MAREA":" ","LANE":"９５巷","ALLEY":"９弄","HOUSE_NO":"９號","E_COORD97":171266.82000000001,"N_COORD97":2544848.25,"ADDRESS":"勝利街９５巷９弄９號","OBJECTID":47261},"geometry":{"x":171266.82000000123,"y":2544848.25}},{"attributes":{"ID":47262,"DIS_CODE":0,"TOWNNAME":"永康區","LI":"勝利里","LIN":"15鄰","STREET":"勝利街","SECT":" ","MAREA":" ","LANE":"９５巷","ALLEY":"９弄","HOUSE_NO":"８號","E_COORD97":171260.57000000001,"N_COORD97":2544856.2599999998,"ADDRESS":"勝利街９５巷９弄８號","OBJECTID":47262},"geometry":{"x":171260.5700000003,"y":2544856.2600000035}},{"attributes":{"ID":47263,"DIS_CODE":0,"TOWNNAME":"永康區","LI":"勝利里","LIN":"15鄰","STREET":"勝利街","SECT":" ","MAREA":" ","LANE":"９５巷","ALLEY":"９弄","HOUSE_NO":"１０號","E_COORD97":171261.34,"N_COORD97":2544849.5,"ADDRESS":"勝利街９５巷９弄１０號","OBJECTID":47263},"geometry":{"x":171261.33999999985,"y":2544849.5000000019}},{"attributes":{"ID":47264,"DIS_CODE":0,"TOWNNAME":"北門區","LI":"永隆里","LIN":"1鄰","STREET":" ","SECT":" ","MAREA":"北門","LANE":" ","ALLEY":" ","HOUSE_NO":"１１號","E_COORD97":160332.95999999999,"N_COORD97":2574334.4300000002,"ADDRESS":"北門１１號","OBJECTID":47264},"geometry":{"x":160332.96000000089,"y":2574334.4300000034}},{"attributes":{"ID":47265,"DIS_CODE":0,"TOWNNAME":"永康區","LI":"勝利里","LIN":"15鄰","STREET":"勝利街","SECT":" ","MAREA":" ","LANE":"９５巷","ALLEY":"９弄","HOUSE_NO":"５號","E_COORD97":171268.23000000001,"N_COORD97":2544860.2599999998,"ADDRESS":"勝利街９５巷９弄５號","OBJECTID":47265},"geometry":{"x":171268.23000000045,"y":2544860.2600000016}},{"attributes":{"ID":47266,"DIS_CODE":0,"TOWNNAME":"永康區","LI":"大橋里","LIN":"15鄰","STREET":"大橋一街","SECT":" ","MAREA":" ","LANE":"１０３巷","ALLEY":"４１弄","HOUSE_NO":"２１號","E_COORD97":170925.35999999999,"N_COORD97":2546487.7999999998,"ADDRESS":"大橋一街１０３巷４１弄２１號","OBJECTID":47266},"geometry":{"x":170925.36000000127,"y":2546487.8000000045}},{"attributes":{"ID":47267,"DIS_CODE":0,"TOWNNAME":"永康區","LI":"大橋里","LIN":"15鄰","STREET":"大橋一街","SECT":" ","MAREA":" ","LANE":"１０３巷","ALLEY":"４１弄","HOUSE_NO":"２號","E_COORD97":170935.35000000001,"N_COORD97":2546511.79,"ADDRESS":"大橋一街１０３巷４１弄２號","OBJECTID":47267},"geometry":{"x":170935.35000000056,"y":2546511.7899999991}},{"attributes":{"ID":47268,"DIS_CODE":0,"TOWNNAME":"永康區","LI":"五王里","LIN":"15鄰","STREET":"中華二路","SECT":" ","MAREA":" ","LANE":"２０６巷","ALLEY":"６８弄","HOUSE_NO":"２３號","E_COORD97":171613.92999999999,"N_COORD97":2545709.6000000001,"ADDRESS":"中華二路２０６巷６８弄２３號","OBJECTID":47268},"geometry":{"x":171613.92999999877,"y":2545709.6000000015}},{"attributes":{"ID":47269,"DIS_CODE":0,"TOWNNAME":"東區","LI":"虎尾里","LIN":"15鄰","STREET":"東成街","SECT":" ","MAREA":" ","LANE":"１１１巷","ALLEY":"１２弄","HOUSE_NO":"２０號","E_COORD97":171663.70000000001,"N_COORD97":2542376.7999999998,"ADDRESS":"東成街１１１巷１２弄２０號","OBJECTID":47269},"geometry":{"x":171663.70000000112,"y":2542376.8000000026}},{"attributes":{"ID":47270,"DIS_CODE":0,"TOWNNAME":"東區","LI":"虎尾里","LIN":"15鄰","STREET":"東成街","SECT":" ","MAREA":" ","LANE":"１１１巷","ALLEY":"１２弄","HOUSE_NO":"２２號","E_COORD97":171659.32000000001,"N_COORD97":2542402.2999999998,"ADDRESS":"東成街１１１巷１２弄２２號","OBJECTID":47270},"geometry":{"x":171659.3200000003,"y":2542402.3000000045}},{"attributes":{"ID":47271,"DIS_CODE":0,"TOWNNAME":"東區","LI":"虎尾里","LIN":"15鄰","STREET":"東成街","SECT":" ","MAREA":" ","LANE":"１１１巷","ALLEY":"１２弄","HOUSE_NO":"２４號","E_COORD97":171662.10000000001,"N_COORD97":2542392.8900000001,"ADDRESS":"東成街１１１巷１２弄２４號","OBJECTID":47271},"geometry":{"x":171662.10000000056,"y":2542392.8900000025}},{"attributes":{"ID":47272,"DIS_CODE":0,"TOWNNAME":"西港區","LI":"西港里","LIN":"15鄰","STREET":" ","SECT":" ","MAREA":"西港","LANE":" ","ALLEY":" ","HOUSE_NO":"２８號之５","E_COORD97":168519.92999999999,"N_COORD97":2557944.5899999999,"ADDRESS":"西港２８號之５","OBJECTID":47272},"geometry":{"x":168519.9299999997,"y":2557944.5900000036}},{"attributes":{"ID":47273,"DIS_CODE":0,"TOWNNAME":"西港區","LI":"西港里","LIN":"15鄰","STREET":" ","SECT":" ","MAREA":"西港","LANE":" ","ALLEY":" ","HOUSE_NO":"２９號","E_COORD97":168505.70999999999,"N_COORD97":2557962.9100000001,"ADDRESS":"西港２９號","OBJECTID":47273},"geometry":{"x":168505.71000000089,"y":2557962.9100000039}},{"attributes":{"ID":47274,"DIS_CODE":0,"TOWNNAME":"西港區","LI":"西港里","LIN":"15鄰","STREET":" ","SECT":" ","MAREA":"西港","LANE":" ","ALLEY":" ","HOUSE_NO":"３５號","E_COORD97":168485.51999999999,"N_COORD97":2557931.8700000001,"ADDRESS":"西港３５號","OBJECTID":47274},"geometry":{"x":168485.51999999862,"y":2557931.870000001}},{"attributes":{"ID":47275,"DIS_CODE":0,"TOWNNAME":"西港區","LI":"西港里","LIN":"15鄰","STREET":" ","SECT":" ","MAREA":"西港","LANE":" ","ALLEY":" ","HOUSE_NO":"４５號之１１","E_COORD97":168596.76000000001,"N_COORD97":2557975.7200000002,"ADDRESS":"西港４５號之１１","OBJECTID":47275},"geometry":{"x":168596.76000000071,"y":2557975.7200000025}},{"attributes":{"ID":47276,"DIS_CODE":0,"TOWNNAME":"西港區","LI":"西港里","LIN":"15鄰","STREET":" ","SECT":" ","MAREA":"西港","LANE":" ","ALLEY":" ","HOUSE_NO":"４５號之１２","E_COORD97":168597.42999999999,"N_COORD97":2557971.7000000002,"ADDRESS":"西港４５號之１２","OBJECTID":47276},"geometry":{"x":168597.4299999997,"y":2557971.7000000011}},{"attributes":{"ID":47277,"DIS_CODE":0,"TOWNNAME":"西港區","LI":"西港里","LIN":"15鄰","STREET":" ","SECT":" ","MAREA":"西港","LANE":" ","ALLEY":" ","HOUSE_NO":"４５號之１３","E_COORD97":168597.57000000001,"N_COORD97":2557966.8500000001,"ADDRESS":"西港４５號之１３","OBJECTID":47277},"geometry":{"x":168597.5700000003,"y":2557966.8500000015}},{"attributes":{"ID":47278,"DIS_CODE":0,"TOWNNAME":"西港區","LI":"西港里","LIN":"15鄰","STREET":" ","SECT":" ","MAREA":"西港","LANE":" ","ALLEY":" ","HOUSE_NO":"４５號之１４","E_COORD97":168598.69,"N_COORD97":2557963.3100000001,"ADDRESS":"西港４５號之１４","OBJECTID":47278},"geometry":{"x":168598.69000000041,"y":2557963.3100000005}},{"attributes":{"ID":47279,"DIS_CODE":0,"TOWNNAME":"西港區","LI":"南海里","LIN":"15鄰","STREET":" ","SECT":" ","MAREA":"東港","LANE":" ","ALLEY":" ","HOUSE_NO":"２號","E_COORD97":167110.25,"N_COORD97":2556331.5099999998,"ADDRESS":"東港２號","OBJECTID":47279},"geometry":{"x":167110.25000000093,"y":2556331.5100000016}},{"attributes":{"ID":47280,"DIS_CODE":0,"TOWNNAME":"西港區","LI":"南海里","LIN":"15鄰","STREET":" ","SECT":" ","MAREA":"東港","LANE":" ","ALLEY":" ","HOUSE_NO":"３號之１","E_COORD97":167115.89999999999,"N_COORD97":2556289.3599999999,"ADDRESS":"東港３號之１","OBJECTID":47280},"geometry":{"x":167115.90000000224,"y":2556289.3599999994}},{"attributes":{"ID":47281,"DIS_CODE":0,"TOWNNAME":"西港區","LI":"南海里","LIN":"15鄰","STREET":" ","SECT":" ","MAREA":"東港","LANE":" ","ALLEY":" ","HOUSE_NO":"３號之２","E_COORD97":167100.64999999999,"N_COORD97":2556289.4199999999,"ADDRESS":"東港３號之２","OBJECTID":47281},"geometry":{"x":167100.65000000224,"y":2556289.4199999999}},{"attributes":{"ID":47282,"DIS_CODE":0,"TOWNNAME":"楠西區","LI":"灣丘里","LIN":"1鄰","STREET":" ","SECT":" ","MAREA":"灣丘","LANE":" ","ALLEY":" ","HOUSE_NO":"１１號","E_COORD97":199069.57000000001,"N_COORD97":2563875.25,"ADDRESS":"灣丘１１號","OBJECTID":47282},"geometry":{"x":199069.57000000123,"y":2563875.25}},{"attributes":{"ID":47283,"DIS_CODE":0,"TOWNNAME":"西港區","LI":"南海里","LIN":"15鄰","STREET":" ","SECT":" ","MAREA":"東港","LANE":" ","ALLEY":" ","HOUSE_NO":"５號之１","E_COORD97":167078.20000000001,"N_COORD97":2556282.27,"ADDRESS":"東港５號之１","OBJECTID":47283},"geometry":{"x":167078.20000000112,"y":2556282.2700000014}},{"attributes":{"ID":47284,"DIS_CODE":0,"TOWNNAME":"西港區","LI":"南海里","LIN":"15鄰","STREET":" ","SECT":" ","MAREA":"東港","LANE":" ","ALLEY":" ","HOUSE_NO":"５號之２","E_COORD97":167073.28,"N_COORD97":2556282.5699999998,"ADDRESS":"東港５號之２","OBJECTID":47284},"geometry":{"x":167073.28000000119,"y":2556282.5700000003}},{"attributes":{"ID":47285,"DIS_CODE":0,"TOWNNAME":"西港區","LI":"南海里","LIN":"15鄰","STREET":" ","SECT":" ","MAREA":"東港","LANE":" ","ALLEY":" ","HOUSE_NO":"５號之３","E_COORD97":167066.79000000001,"N_COORD97":2556283.23,"ADDRESS":"東港５號之３","OBJECTID":47285},"geometry":{"x":167066.79000000004,"y":2556283.2300000023}},{"attributes":{"ID":47286,"DIS_CODE":0,"TOWNNAME":"西港區","LI":"南海里","LIN":"15鄰","STREET":" ","SECT":" ","MAREA":"東港","LANE":" ","ALLEY":" ","HOUSE_NO":"５號之４","E_COORD97":167060.04000000001,"N_COORD97":2556282.1200000001,"ADDRESS":"東港５號之４","OBJECTID":47286},"geometry":{"x":167060.04000000004,"y":2556282.1200000029}},{"attributes":{"ID":47287,"DIS_CODE":0,"TOWNNAME":"西港區","LI":"南海里","LIN":"15鄰","STREET":" ","SECT":" ","MAREA":"東港","LANE":" ","ALLEY":" ","HOUSE_NO":"５號之６","E_COORD97":167051.26000000001,"N_COORD97":2556281.79,"ADDRESS":"東港５號之６","OBJECTID":47287},"geometry":{"x":167051.25999999978,"y":2556281.790000001}},{"attributes":{"ID":47288,"DIS_CODE":0,"TOWNNAME":"西港區","LI":"南海里","LIN":"15鄰","STREET":" ","SECT":" ","MAREA":"東港","LANE":" ","ALLEY":" ","HOUSE_NO":"５號之７","E_COORD97":167047.14000000001,"N_COORD97":2556282.0600000001,"ADDRESS":"東港５號之７","OBJECTID":47288},"geometry":{"x":167047.13999999966,"y":2556282.0600000024}},{"attributes":{"ID":47289,"DIS_CODE":0,"TOWNNAME":"西港區","LI":"南海里","LIN":"15鄰","STREET":" ","SECT":" ","MAREA":"東港","LANE":" ","ALLEY":" ","HOUSE_NO":"５號之８","E_COORD97":167042.63,"N_COORD97":2556281.7200000002,"ADDRESS":"東港５號之８","OBJECTID":47289},"geometry":{"x":167042.63000000175,"y":2556281.7200000007}},{"attributes":{"ID":47290,"DIS_CODE":0,"TOWNNAME":"西港區","LI":"南海里","LIN":"15鄰","STREET":" ","SECT":" ","MAREA":"東港","LANE":" ","ALLEY":" ","HOUSE_NO":"５號","E_COORD97":167082.28,"N_COORD97":2556282.2599999998,"ADDRESS":"東港５號","OBJECTID":47290},"geometry":{"x":167082.28000000026,"y":2556282.2600000016}},{"attributes":{"ID":47291,"DIS_CODE":0,"TOWNNAME":"西港區","LI":"南海里","LIN":"15鄰","STREET":" ","SECT":" ","MAREA":"東港","LANE":" ","ALLEY":" ","HOUSE_NO":"８號","E_COORD97":167067.17000000001,"N_COORD97":2556318.4399999999,"ADDRESS":"東港８號","OBJECTID":47291},"geometry":{"x":167067.16999999993,"y":2556318.4400000013}},{"attributes":{"ID":47292,"DIS_CODE":0,"TOWNNAME":"西港區","LI":"南海里","LIN":"15鄰","STREET":" ","SECT":" ","MAREA":"東港","LANE":" ","ALLEY":" ","HOUSE_NO":"９號","E_COORD97":167081.62,"N_COORD97":2556339.3199999998,"ADDRESS":"東港９號","OBJECTID":47292},"geometry":{"x":167081.62000000011,"y":2556339.3200000003}},{"attributes":{"ID":47293,"DIS_CODE":0,"TOWNNAME":"西港區","LI":"營西里","LIN":"15鄰","STREET":" ","SECT":" ","MAREA":"後營","LANE":" ","ALLEY":" ","HOUSE_NO":"１１３號","E_COORD97":169774.79000000001,"N_COORD97":2560403.6699999999,"ADDRESS":"後營１１３號","OBJECTID":47293},"geometry":{"x":169774.79000000097,"y":2560403.6699999999}},{"attributes":{"ID":47294,"DIS_CODE":0,"TOWNNAME":"西港區","LI":"後營里","LIN":"15鄰","STREET":" ","SECT":" ","MAREA":"後營","LANE":" ","ALLEY":" ","HOUSE_NO":"２９２號","E_COORD97":169984.45999999999,"N_COORD97":2560089.02,"ADDRESS":"後營２９２號","OBJECTID":47294},"geometry":{"x":169984.45999999996,"y":2560089.0199999996}},{"attributes":{"ID":47295,"DIS_CODE":0,"TOWNNAME":"西港區","LI":"後營里","LIN":"15鄰","STREET":" ","SECT":" ","MAREA":"後營","LANE":" ","ALLEY":" ","HOUSE_NO":"２９３號","E_COORD97":169977.82999999999,"N_COORD97":2560074.4300000002,"ADDRESS":"後營２９３號","OBJECTID":47295},"geometry":{"x":169977.83000000101,"y":2560074.4300000034}},{"attributes":{"ID":47296,"DIS_CODE":0,"TOWNNAME":"西港區","LI":"後營里","LIN":"15鄰","STREET":" ","SECT":" ","MAREA":"後營","LANE":" ","ALLEY":" ","HOUSE_NO":"２９５號","E_COORD97":169991.56,"N_COORD97":2560024.77,"ADDRESS":"後營２９５號","OBJECTID":47296},"geometry":{"x":169991.56000000052,"y":2560024.7700000033}},{"attributes":{"ID":47297,"DIS_CODE":0,"TOWNNAME":"西港區","LI":"後營里","LIN":"15鄰","STREET":" ","SECT":" ","MAREA":"後營","LANE":" ","ALLEY":" ","HOUSE_NO":"２９７號","E_COORD97":169997.89999999999,"N_COORD97":2560006.5899999999,"ADDRESS":"後營２９７號","OBJECTID":47297},"geometry":{"x":169997.9000000013,"y":2560006.5900000017}},{"attributes":{"ID":47298,"DIS_CODE":0,"TOWNNAME":"西港區","LI":"後營里","LIN":"15鄰","STREET":" ","SECT":" ","MAREA":"後營","LANE":" ","ALLEY":" ","HOUSE_NO":"２９８號之１０","E_COORD97":169998.12,"N_COORD97":2559960.3599999999,"ADDRESS":"後營２９８號之１０","OBJECTID":47298},"geometry":{"x":169998.12000000104,"y":2559960.3600000013}},{"attributes":{"ID":47299,"DIS_CODE":0,"TOWNNAME":"西港區","LI":"後營里","LIN":"15鄰","STREET":" ","SECT":" ","MAREA":"後營","LANE":" ","ALLEY":" ","HOUSE_NO":"２９８號之１","E_COORD97":169939.39999999999,"N_COORD97":2559960.3300000001,"ADDRESS":"後營２９８號之１","OBJECTID":47299},"geometry":{"x":169939.40000000037,"y":2559960.3300000038}},{"attributes":{"ID":47300,"DIS_CODE":0,"TOWNNAME":"西港區","LI":"後營里","LIN":"15鄰","STREET":" ","SECT":" ","MAREA":"後營","LANE":" ","ALLEY":" ","HOUSE_NO":"２９８號之２","E_COORD97":169956.73999999999,"N_COORD97":2559958.25,"ADDRESS":"後營２９８號之２","OBJECTID":47300},"geometry":{"x":169956.74000000115,"y":2559958.2500000019}},{"attributes":{"ID":47301,"DIS_CODE":0,"TOWNNAME":"西港區","LI":"後營里","LIN":"15鄰","STREET":" ","SECT":" ","MAREA":"後營","LANE":" ","ALLEY":" ","HOUSE_NO":"２９８號之４","E_COORD97":169969.19,"N_COORD97":2559957.8799999999,"ADDRESS":"後營２９８號之４","OBJECTID":47301},"geometry":{"x":169969.19000000134,"y":2559957.879999999}},{"attributes":{"ID":47302,"DIS_CODE":0,"TOWNNAME":"西港區","LI":"後營里","LIN":"15鄰","STREET":" ","SECT":" ","MAREA":"後營","LANE":" ","ALLEY":" ","HOUSE_NO":"２９８號之７","E_COORD97":169985.32999999999,"N_COORD97":2559961.23,"ADDRESS":"後營２９８號之７","OBJECTID":47302},"geometry":{"x":169985.33000000007,"y":2559961.2300000042}},{"attributes":{"ID":47303,"DIS_CODE":0,"TOWNNAME":"西港區","LI":"後營里","LIN":"15鄰","STREET":" ","SECT":" ","MAREA":"後營","LANE":" ","ALLEY":" ","HOUSE_NO":"２９８號之８","E_COORD97":169989.72,"N_COORD97":2559960.6099999999,"ADDRESS":"後營２９８號之８","OBJECTID":47303},"geometry":{"x":169989.71999999881,"y":2559960.6099999994}},{"attributes":{"ID":47304,"DIS_CODE":0,"TOWNNAME":"西港區","LI":"後營里","LIN":"15鄰","STREET":" ","SECT":" ","MAREA":"後營","LANE":" ","ALLEY":" ","HOUSE_NO":"２９８號之９","E_COORD97":169994.23999999999,"N_COORD97":2559960.4500000002,"ADDRESS":"後營２９８號之９","OBJECTID":47304},"geometry":{"x":169994.24000000115,"y":2559960.4499999993}},{"attributes":{"ID":47305,"DIS_CODE":0,"TOWNNAME":"西港區","LI":"後營里","LIN":"15鄰","STREET":" ","SECT":" ","MAREA":"後營","LANE":" ","ALLEY":" ","HOUSE_NO":"２９８號","E_COORD97":169992.29999999999,"N_COORD97":2559984.5499999998,"ADDRESS":"後營２９８號","OBJECTID":47305},"geometry":{"x":169992.29999999981,"y":2559984.5500000026}},{"attributes":{"ID":47306,"DIS_CODE":0,"TOWNNAME":"西港區","LI":"營西里","LIN":"15鄰","STREET":" ","SECT":" ","MAREA":"後營","LANE":" ","ALLEY":" ","HOUSE_NO":"１１８號","E_COORD97":169791.26999999999,"N_COORD97":2560414.9500000002,"ADDRESS":"後營１１８號","OBJECTID":47306},"geometry":{"x":169791.27000000048,"y":2560414.9499999993}},{"attributes":{"ID":47307,"DIS_CODE":0,"TOWNNAME":"新市區","LI":"大社里","LIN":"15鄰","STREET":" ","SECT":" ","MAREA":"大社","LANE":" ","ALLEY":" ","HOUSE_NO":"６１８號","E_COORD97":180032.85000000001,"N_COORD97":2554454,"ADDRESS":"大社６１８號","OBJECTID":47307},"geometry":{"x":180032.85000000149,"y":2554454.0000000019}},{"attributes":{"ID":47308,"DIS_CODE":0,"TOWNNAME":"東區","LI":"虎尾里","LIN":"15鄰","STREET":"東成街","SECT":" ","MAREA":" ","LANE":"１１１巷","ALLEY":"１２弄","HOUSE_NO":"２６號","E_COORD97":171665.20000000001,"N_COORD97":2542402.3799999999,"ADDRESS":"東成街１１１巷１２弄２６號","OBJECTID":47308},"geometry":{"x":171665.20000000205,"y":2542402.379999999}},{"attributes":{"ID":47309,"DIS_CODE":0,"TOWNNAME":"永康區","LI":"五王里","LIN":"15鄰","STREET":"中華二路","SECT":" ","MAREA":" ","LANE":"２０６巷","ALLEY":"６８弄","HOUSE_NO":"２５號","E_COORD97":171612.42999999999,"N_COORD97":2545714.6000000001,"ADDRESS":"中華二路２０６巷６８弄２５號","OBJECTID":47309},"geometry":{"x":171612.43000000156,"y":2545714.5999999996}},{"attributes":{"ID":47310,"DIS_CODE":0,"TOWNNAME":"永康區","LI":"大橋里","LIN":"15鄰","STREET":"大橋一街","SECT":" ","MAREA":" ","LANE":"１０３巷","ALLEY":"４１弄","HOUSE_NO":"４號","E_COORD97":170925.84,"N_COORD97":2546504.5499999998,"ADDRESS":"大橋一街１０３巷４１弄４號","OBJECTID":47310},"geometry":{"x":170925.83999999985,"y":2546504.5500000026}},{"attributes":{"ID":47311,"DIS_CODE":0,"TOWNNAME":"永康區","LI":"大橋里","LIN":"15鄰","STREET":"大橋一街","SECT":" ","MAREA":" ","LANE":"１０３巷","ALLEY":"４１弄","HOUSE_NO":"３１號","E_COORD97":170938.67999999999,"N_COORD97":2546468.0499999998,"ADDRESS":"大橋一街１０３巷４１弄３１號","OBJECTID":47311},"geometry":{"x":170938.6799999997,"y":2546468.0500000007}},{"attributes":{"ID":47312,"DIS_CODE":0,"TOWNNAME":"中西區","LI":"光賢里","LIN":"15鄰","STREET":"武聖路","SECT":" ","MAREA":" ","LANE":"１５１巷","ALLEY":"２９弄","HOUSE_NO":"１號","E_COORD97":167027.14999999999,"N_COORD97":2545090.8999999999,"ADDRESS":"武聖路１５１巷２９弄１號","OBJECTID":47312},"geometry":{"x":167027.15000000037,"y":2545090.9000000022}},{"attributes":{"ID":47313,"DIS_CODE":0,"TOWNNAME":"中西區","LI":"光賢里","LIN":"15鄰","STREET":"武聖路","SECT":" ","MAREA":" ","LANE":"１５１巷","ALLEY":"２９弄","HOUSE_NO":"２號","E_COORD97":167011.42000000001,"N_COORD97":2545070.21,"ADDRESS":"武聖路１５１巷２９弄２號","OBJECTID":47313},"geometry":{"x":167011.41999999993,"y":2545070.2100000009}},{"attributes":{"ID":47314,"DIS_CODE":0,"TOWNNAME":"中西區","LI":"光賢里","LIN":"15鄰","STREET":"武聖路","SECT":" ","MAREA":" ","LANE":"１５１巷","ALLEY":"２９弄","HOUSE_NO":"３號","E_COORD97":167031.37,"N_COORD97":2545087.8399999999,"ADDRESS":"武聖路１５１巷２９弄３號","OBJECTID":47314},"geometry":{"x":167031.37000000104,"y":2545087.8400000017}},{"attributes":{"ID":47315,"DIS_CODE":0,"TOWNNAME":"中西區","LI":"光賢里","LIN":"15鄰","STREET":"武聖路","SECT":" ","MAREA":" ","LANE":"１５１巷","ALLEY":"２９弄","HOUSE_NO":"４號","E_COORD97":167016.79999999999,"N_COORD97":2545066.7599999998,"ADDRESS":"武聖路１５１巷２９弄４號","OBJECTID":47315},"geometry":{"x":167016.80000000075,"y":2545066.7600000016}},{"attributes":{"ID":47316,"DIS_CODE":0,"TOWNNAME":"中西區","LI":"光賢里","LIN":"15鄰","STREET":"武聖路","SECT":" ","MAREA":" ","LANE":"１５１巷","ALLEY":"２９弄","HOUSE_NO":"５號","E_COORD97":167036.73999999999,"N_COORD97":2545084.77,"ADDRESS":"武聖路１５１巷２９弄５號","OBJECTID":47316},"geometry":{"x":167036.74000000022,"y":2545084.7700000014}},{"attributes":{"ID":47317,"DIS_CODE":0,"TOWNNAME":"中西區","LI":"光賢里","LIN":"15鄰","STREET":"武聖路","SECT":" ","MAREA":" ","LANE":"１５１巷","ALLEY":"２９弄","HOUSE_NO":"６號","E_COORD97":167019.85999999999,"N_COORD97":2545062.1699999999,"ADDRESS":"武聖路１５１巷２９弄６號","OBJECTID":47317},"geometry":{"x":167019.86000000127,"y":2545062.1699999999}},{"attributes":{"ID":47318,"DIS_CODE":0,"TOWNNAME":"中西區","LI":"光賢里","LIN":"15鄰","STREET":"武聖路","SECT":" ","MAREA":" ","LANE":"１５１巷","ALLEY":"２９弄","HOUSE_NO":"７號","E_COORD97":167041.19,"N_COORD97":2545082.3100000001,"ADDRESS":"武聖路１５１巷２９弄７號","OBJECTID":47318},"geometry":{"x":167041.19000000227,"y":2545082.3100000005}},{"attributes":{"ID":47319,"DIS_CODE":0,"TOWNNAME":"中西區","LI":"光賢里","LIN":"15鄰","STREET":"武聖路","SECT":" ","MAREA":" ","LANE":"１５１巷","ALLEY":"４９弄","HOUSE_NO":"１號","E_COORD97":167003.37,"N_COORD97":2545052.5899999999,"ADDRESS":"武聖路１５１巷４９弄１號","OBJECTID":47319},"geometry":{"x":167003.37000000011,"y":2545052.5899999999}},{"attributes":{"ID":47320,"DIS_CODE":0,"TOWNNAME":"中西區","LI":"光賢里","LIN":"15鄰","STREET":"武聖路","SECT":" ","MAREA":" ","LANE":"１５１巷","ALLEY":"４９弄","HOUSE_NO":"３號","E_COORD97":167006.82000000001,"N_COORD97":2545048.7599999998,"ADDRESS":"武聖路１５１巷４９弄３號","OBJECTID":47320},"geometry":{"x":167006.82000000123,"y":2545048.7599999998}},{"attributes":{"ID":47321,"DIS_CODE":0,"TOWNNAME":"中西區","LI":"光賢里","LIN":"15鄰","STREET":"武聖路","SECT":" ","MAREA":" ","LANE":"１５１巷","ALLEY":"４９弄","HOUSE_NO":"５號","E_COORD97":167011.04000000001,"N_COORD97":2545045.6899999999,"ADDRESS":"武聖路１５１巷４９弄５號","OBJECTID":47321},"geometry":{"x":167011.04000000004,"y":2545045.6899999995}},{"attributes":{"ID":47322,"DIS_CODE":0,"TOWNNAME":"中西區","LI":"光賢里","LIN":"15鄰","STREET":"武聖路","SECT":" ","MAREA":" ","LANE":"１５１巷","ALLEY":"４９弄","HOUSE_NO":"７號","E_COORD97":167015.64000000001,"N_COORD97":2545044.1600000001,"ADDRESS":"武聖路１５１巷４９弄７號","OBJECTID":47322},"geometry":{"x":167015.6400000006,"y":2545044.160000002}},{"attributes":{"ID":47323,"DIS_CODE":0,"TOWNNAME":"中西區","LI":"光賢里","LIN":"15鄰","STREET":"武聖路","SECT":" ","MAREA":" ","LANE":"１５１巷","ALLEY":"９弄","HOUSE_NO":"１號","E_COORD97":167049.41,"N_COORD97":2545139.9500000002,"ADDRESS":"武聖路１５１巷９弄１號","OBJECTID":47323},"geometry":{"x":167049.41000000201,"y":2545139.9500000011}},{"attributes":{"ID":47324,"DIS_CODE":0,"TOWNNAME":"中西區","LI":"光賢里","LIN":"15鄰","STREET":"武聖路","SECT":" ","MAREA":" ","LANE":"１５１巷","ALLEY":"９弄","HOUSE_NO":"２號","E_COORD97":167041.35000000001,"N_COORD97":2545112.7400000002,"ADDRESS":"武聖路１５１巷９弄２號","OBJECTID":47324},"geometry":{"x":167041.35000000056,"y":2545112.7400000021}},{"attributes":{"ID":47325,"DIS_CODE":0,"TOWNNAME":"新營區","LI":"民榮里","LIN":"17鄰","STREET":"富強街","SECT":" ","MAREA":" ","LANE":" ","ALLEY":" ","HOUSE_NO":"１４號七樓","E_COORD97":178988.07000000001,"N_COORD97":2577803.4500000002,"ADDRESS":"富強街１４號七樓","OBJECTID":47325},"geometry":{"x":178988.07000000123,"y":2577803.4500000011}},{"attributes":{"ID":47326,"DIS_CODE":0,"TOWNNAME":"中西區","LI":"光賢里","LIN":"15鄰","STREET":"武聖路","SECT":" ","MAREA":" ","LANE":"１５１巷","ALLEY":"９弄","HOUSE_NO":"３號","E_COORD97":167054.78,"N_COORD97":2545137.6499999999,"ADDRESS":"武聖路１５１巷９弄３號","OBJECTID":47326},"geometry":{"x":167054.78000000026,"y":2545137.6500000004}},{"attributes":{"ID":47327,"DIS_CODE":0,"TOWNNAME":"中西區","LI":"光賢里","LIN":"15鄰","STREET":"武聖路","SECT":" ","MAREA":" ","LANE":"１５１巷","ALLEY":"９弄","HOUSE_NO":"４號","E_COORD97":167044.79999999999,"N_COORD97":2545109.6800000002,"ADDRESS":"武聖路１５１巷９弄４號","OBJECTID":47327},"geometry":{"x":167044.80000000168,"y":2545109.6799999997}},{"attributes":{"ID":47328,"DIS_CODE":0,"TOWNNAME":"中西區","LI":"光賢里","LIN":"15鄰","STREET":"武聖路","SECT":" ","MAREA":" ","LANE":"１５１巷","ALLEY":"９弄","HOUSE_NO":"５號","E_COORD97":167060.14999999999,"N_COORD97":2545136.8799999999,"ADDRESS":"武聖路１５１巷９弄５號","OBJECTID":47328},"geometry":{"x":167060.1500000013,"y":2545136.8800000008}},{"attributes":{"ID":47329,"DIS_CODE":0,"TOWNNAME":"仁德區","LI":"仁義里","LIN":"18鄰","STREET":"正義路","SECT":" ","MAREA":" ","LANE":" ","ALLEY":" ","HOUSE_NO":"２３７號","E_COORD97":173997.37,"N_COORD97":2541396.5099999998,"ADDRESS":"正義路２３７號","OBJECTID":47329},"geometry":{"x":173997.37000000104,"y":2541396.5100000035}},{"attributes":{"ID":47330,"DIS_CODE":0,"TOWNNAME":"仁德區","LI":"保安里","LIN":" ","STREET":"文賢路","SECT":"一段","MAREA":" ","LANE":" ","ALLEY":" ","HOUSE_NO":"５５１號","E_COORD97":171143.82000000001,"N_COORD97":2536978.5800000001,"ADDRESS":"文賢路一段５５１號","OBJECTID":47330},"geometry":{"x":171143.8200000003,"y":2536978.5800000038}},{"attributes":{"ID":47331,"DIS_CODE":0,"TOWNNAME":"仁德區","LI":"保安里","LIN":" ","STREET":"中正路","SECT":"一段","MAREA":" ","LANE":" ","ALLEY":" ","HOUSE_NO":"２３４號","E_COORD97":171644.45000000001,"N_COORD97":2535832.27,"ADDRESS":"中正路一段２３４號","OBJECTID":47331},"geometry":{"x":171644.45000000019,"y":2535832.2700000014}},{"attributes":{"ID":47332,"DIS_CODE":0,"TOWNNAME":"中西區","LI":"光賢里","LIN":"15鄰","STREET":"武聖路","SECT":" ","MAREA":" ","LANE":"１５１巷","ALLEY":"９弄","HOUSE_NO":"６號","E_COORD97":167049.41,"N_COORD97":2545106.23,"ADDRESS":"武聖路１５１巷９弄６號","OBJECTID":47332},"geometry":{"x":167049.41000000201,"y":2545106.2300000023}},{"attributes":{"ID":47333,"DIS_CODE":0,"TOWNNAME":"中西區","LI":"光賢里","LIN":"15鄰","STREET":"武聖路","SECT":" ","MAREA":" ","LANE":"１５１巷","ALLEY":"９弄","HOUSE_NO":"７號","E_COORD97":167064.75,"N_COORD97":2545133.0499999998,"ADDRESS":"武聖路１５１巷９弄７號","OBJECTID":47333},"geometry":{"x":167064.75000000093,"y":2545133.0500000007}},{"attributes":{"ID":47334,"DIS_CODE":0,"TOWNNAME":"中西區","LI":"光賢里","LIN":"15鄰","STREET":"武聖路","SECT":" ","MAREA":" ","LANE":"１５１巷","ALLEY":"９弄","HOUSE_NO":"８號","E_COORD97":167054.01000000001,"N_COORD97":2545103.9300000002,"ADDRESS":"武聖路１５１巷９弄８號","OBJECTID":47334},"geometry":{"x":167054.01000000071,"y":2545103.9300000016}},{"attributes":{"ID":47335,"DIS_CODE":0,"TOWNNAME":"新市區","LI":"新市里","LIN":"15鄰","STREET":"中正路","SECT":" ","MAREA":" ","LANE":"３０１巷","ALLEY":"１８弄","HOUSE_NO":"９號","E_COORD97":177638.20999999999,"N_COORD97":2553356.75,"ADDRESS":"中正路３０１巷１８弄９號","OBJECTID":47335},"geometry":{"x":177638.20999999996,"y":2553356.7500000019}},{"attributes":{"ID":47336,"DIS_CODE":0,"TOWNNAME":"安平區","LI":"怡平里","LIN":"14鄰","STREET":"建平十一街","SECT":" ","MAREA":" ","LANE":"３２６巷","ALLEY":"２弄","HOUSE_NO":"６號","E_COORD97":165584.10999999999,"N_COORD97":2544021.8199999998,"ADDRESS":"建平十一街３２６巷２弄６號","OBJECTID":47336},"geometry":{"x":165584.11000000127,"y":2544021.8200000003}},{"attributes":{"ID":47337,"DIS_CODE":0,"TOWNNAME":"新市區","LI":"新市里","LIN":"15鄰","STREET":"中正路","SECT":" ","MAREA":" ","LANE":"３０１巷","ALLEY":"１８弄","HOUSE_NO":"１１號","E_COORD97":177646.34,"N_COORD97":2553360.5,"ADDRESS":"中正路３０１巷１８弄１１號","OBJECTID":47337},"geometry":{"x":177646.34000000171,"y":2553360.5}},{"attributes":{"ID":47338,"DIS_CODE":0,"TOWNNAME":"安平區","LI":"西門里","LIN":"19鄰","STREET":"安平路","SECT":" ","MAREA":" ","LANE":"９９０巷","ALLEY":"２１弄","HOUSE_NO":"３號","E_COORD97":163235.78,"N_COORD97":2544488.4100000001,"ADDRESS":"安平路９９０巷２１弄３號","OBJECTID":47338},"geometry":{"x":163235.78000000026,"y":2544488.4100000001}},{"attributes":{"ID":47339,"DIS_CODE":0,"TOWNNAME":"永康區","LI":"大橋里","LIN":"15鄰","STREET":"大橋一街","SECT":" ","MAREA":" ","LANE":"１０３巷","ALLEY":"４１弄","HOUSE_NO":"５號","E_COORD97":170943.84,"N_COORD97":2546497.7999999998,"ADDRESS":"大橋一街１０３巷４１弄５號","OBJECTID":47339},"geometry":{"x":170943.84000000078,"y":2546497.7999999989}},{"attributes":{"ID":47340,"DIS_CODE":0,"TOWNNAME":"永康區","LI":"大橋里","LIN":"15鄰","STREET":"大橋一街","SECT":" ","MAREA":" ","LANE":"１０３巷","ALLEY":"４１弄","HOUSE_NO":"７號","E_COORD97":170940.94,"N_COORD97":2546501.0499999998,"ADDRESS":"大橋一街１０３巷４１弄７號","OBJECTID":47340},"geometry":{"x":170940.94000000041,"y":2546501.0500000026}},{"attributes":{"ID":47341,"DIS_CODE":0,"TOWNNAME":"永康區","LI":"大橋里","LIN":"15鄰","STREET":"大橋一街","SECT":" ","MAREA":" ","LANE":"１０３巷","ALLEY":"４１弄","HOUSE_NO":"１０號","E_COORD97":170914.17999999999,"N_COORD97":2546497.2999999998,"ADDRESS":"大橋一街１０３巷４１弄１０號","OBJECTID":47341},"geometry":{"x":170914.18000000063,"y":2546497.3000000007}},{"attributes":{"ID":47342,"DIS_CODE":0,"TOWNNAME":"永康區","LI":"大橋里","LIN":"15鄰","STREET":"大橋一街","SECT":" ","MAREA":" ","LANE":"７３巷","ALLEY":"４０弄","HOUSE_NO":"５號","E_COORD97":170886.89999999999,"N_COORD97":2546533.25,"ADDRESS":"大橋一街７３巷４０弄５號","OBJECTID":47342},"geometry":{"x":170886.90000000037,"y":2546533.25}},{"attributes":{"ID":47343,"DIS_CODE":0,"TOWNNAME":"永康區","LI":"大橋里","LIN":"15鄰","STREET":"大橋一街","SECT":" ","MAREA":" ","LANE":"１０３巷","ALLEY":"４１弄","HOUSE_NO":"１２號","E_COORD97":170909.69,"N_COORD97":2546494.7999999998,"ADDRESS":"大橋一街１０３巷４１弄１２號","OBJECTID":47343},"geometry":{"x":170909.69000000134,"y":2546494.8000000045}},{"attributes":{"ID":47344,"DIS_CODE":0,"TOWNNAME":"永康區","LI":"勝利里","LIN":"15鄰","STREET":"勝利街","SECT":" ","MAREA":" ","LANE":"９５巷","ALLEY":"９弄","HOUSE_NO":"６號","E_COORD97":171261.32000000001,"N_COORD97":2544862.0099999998,"ADDRESS":"勝利街９５巷９弄６號","OBJECTID":47344},"geometry":{"x":171261.32000000123,"y":2544862.0100000016}},{"attributes":{"ID":47345,"DIS_CODE":0,"TOWNNAME":"永康區","LI":"神洲里","LIN":"15鄰","STREET":"忠孝路","SECT":" ","MAREA":" ","LANE":"７６巷","ALLEY":"６３弄","HOUSE_NO":"３１號","E_COORD97":172159.78,"N_COORD97":2545030.2799999998,"ADDRESS":"忠孝路７６巷６３弄３１號","OBJECTID":47345},"geometry":{"x":172159.78000000212,"y":2545030.2799999993}},{"attributes":{"ID":47346,"DIS_CODE":0,"TOWNNAME":"永康區","LI":"勝利里","LIN":"15鄰","STREET":"勝利街","SECT":" ","MAREA":" ","LANE":"９５巷","ALLEY":"９弄","HOUSE_NO":"１１號","E_COORD97":171267.14000000001,"N_COORD97":2544841.5,"ADDRESS":"勝利街９５巷９弄１１號","OBJECTID":47346},"geometry":{"x":171267.1400000006,"y":2544841.5000000037}},{"attributes":{"ID":47347,"DIS_CODE":0,"TOWNNAME":"永康區","LI":"勝利里","LIN":"15鄰","STREET":"勝利街","SECT":" ","MAREA":" ","LANE":"９５巷","ALLEY":"９弄","HOUSE_NO":"１８號","E_COORD97":171258.63,"N_COORD97":2544825.5,"ADDRESS":"勝利街９５巷９弄１８號","OBJECTID":47347},"geometry":{"x":171258.63000000175,"y":2544825.5000000019}},{"attributes":{"ID":47348,"DIS_CODE":0,"TOWNNAME":"永康區","LI":"勝利里","LIN":"15鄰","STREET":"勝利街","SECT":" ","MAREA":" ","LANE":"２２巷","ALLEY":"４５弄","HOUSE_NO":"９５號","E_COORD97":171242.59,"N_COORD97":2544869.5,"ADDRESS":"勝利街２２巷４５弄９５號","OBJECTID":47348},"geometry":{"x":171242.59000000078,"y":2544869.5000000019}},{"attributes":{"ID":47349,"DIS_CODE":0,"TOWNNAME":"永康區","LI":"勝利里","LIN":"15鄰","STREET":"勝利街","SECT":" ","MAREA":" ","LANE":"９５巷","ALLEY":"９弄","HOUSE_NO":"１４號","E_COORD97":171259.70999999999,"N_COORD97":2544837.25,"ADDRESS":"勝利街９５巷９弄１４號","OBJECTID":47349},"geometry":{"x":171259.70999999903,"y":2544837.2500000019}},{"attributes":{"ID":47350,"DIS_CODE":0,"TOWNNAME":"關廟區","LI":"龜洞里","LIN":"7鄰","STREET":"南雄南路","SECT":" ","MAREA":" ","LANE":"７０１巷","ALLEY":"１６弄","HOUSE_NO":"２７號","E_COORD97":183347.99118700001,"N_COORD97":2533361.51193,"ADDRESS":"南雄南路７０１巷１６弄２７號","OBJECTID":47350},"geometry":{"x":183347.99118700065,"y":2533361.5119320024}},{"attributes":{"ID":47351,"DIS_CODE":0,"TOWNNAME":"永康區","LI":"勝利里","LIN":"15鄰","STREET":"勝利街","SECT":" ","MAREA":" ","LANE":"９５巷","ALLEY":"９弄","HOUSE_NO":"２４號","E_COORD97":171257.23999999999,"N_COORD97":2544807.75,"ADDRESS":"勝利街９５巷９弄２４號","OBJECTID":47351},"geometry":{"x":171257.24000000115,"y":2544807.75}},{"attributes":{"ID":47352,"DIS_CODE":0,"TOWNNAME":"白河區","LI":"永安里","LIN":"15鄰","STREET":"大德街","SECT":" ","MAREA":" ","LANE":"９０巷","ALLEY":"５弄","HOUSE_NO":"１號","E_COORD97":189969.73000000001,"N_COORD97":2583679.48,"ADDRESS":"大德街９０巷５弄１號","OBJECTID":47352},"geometry":{"x":189969.73000000045,"y":2583679.4800000023}},{"attributes":{"ID":47353,"DIS_CODE":0,"TOWNNAME":"白河區","LI":"永安里","LIN":"15鄰","STREET":"大德街","SECT":" ","MAREA":" ","LANE":"９０巷","ALLEY":"５弄","HOUSE_NO":"２號","E_COORD97":189982.26000000001,"N_COORD97":2583686.3500000001,"ADDRESS":"大德街９０巷５弄２號","OBJECTID":47353},"geometry":{"x":189982.25999999978,"y":2583686.3500000015}},{"attributes":{"ID":47354,"DIS_CODE":0,"TOWNNAME":"白河區","LI":"永安里","LIN":"15鄰","STREET":"大德街","SECT":" ","MAREA":" ","LANE":"９０巷","ALLEY":"５弄","HOUSE_NO":"３號","E_COORD97":189966.91,"N_COORD97":2583685.0699999998,"ADDRESS":"大德街９０巷５弄３號","OBJECTID":47354},"geometry":{"x":189966.91000000108,"y":2583685.0700000022}},{"attributes":{"ID":47355,"DIS_CODE":0,"TOWNNAME":"白河區","LI":"永安里","LIN":"15鄰","STREET":"大德街","SECT":" ","MAREA":" ","LANE":"９０巷","ALLEY":"５弄","HOUSE_NO":"６號","E_COORD97":189978.82000000001,"N_COORD97":2583693.3100000001,"ADDRESS":"大德街９０巷５弄６號","OBJECTID":47355},"geometry":{"x":189978.8200000003,"y":2583693.3099999987}},{"attributes":{"ID":47356,"DIS_CODE":0,"TOWNNAME":"仁德區","LI":"保安里","LIN":"15鄰","STREET":"文賢路","SECT":"二段","MAREA":" ","LANE":"１８巷","ALLEY":"１７弄","HOUSE_NO":"１號","E_COORD97":171697.28,"N_COORD97":2535772.8300000001,"ADDRESS":"文賢路二段１８巷１７弄１號","OBJECTID":47356},"geometry":{"x":171697.28000000119,"y":2535772.8300000001}},{"attributes":{"ID":47357,"DIS_CODE":0,"TOWNNAME":"仁德區","LI":"保安里","LIN":"15鄰","STREET":"文賢路","SECT":"二段","MAREA":" ","LANE":"１８巷","ALLEY":"１７弄","HOUSE_NO":"４號","E_COORD97":171693.28,"N_COORD97":2535760.8300000001,"ADDRESS":"文賢路二段１８巷１７弄４號","OBJECTID":47357},"geometry":{"x":171693.28000000026,"y":2535760.8300000019}},{"attributes":{"ID":47358,"DIS_CODE":0,"TOWNNAME":"安平區","LI":"石門里","LIN":"5鄰","STREET":"安北路","SECT":" ","MAREA":" ","LANE":"１６巷","ALLEY":"１７弄","HOUSE_NO":"１５號","E_COORD97":164694.82999999999,"N_COORD97":2544543.2599999998,"ADDRESS":"安北路１６巷１７弄１５號","OBJECTID":47358},"geometry":{"x":164694.83000000007,"y":2544543.2599999998}},{"attributes":{"ID":47359,"DIS_CODE":0,"TOWNNAME":"安平區","LI":"平安里","LIN":"18鄰","STREET":"安平路","SECT":" ","MAREA":" ","LANE":"６０６巷","ALLEY":"１７弄","HOUSE_NO":"２３號","E_COORD97":164777.20000000001,"N_COORD97":2544492.21,"ADDRESS":"安平路６０６巷１７弄２３號","OBJECTID":47359},"geometry":{"x":164777.20000000019,"y":2544492.2100000028}},{"attributes":{"ID":47360,"DIS_CODE":0,"TOWNNAME":"安平區","LI":"港仔里","LIN":"15鄰","STREET":"運河路","SECT":" ","MAREA":" ","LANE":"２３巷","ALLEY":"２３弄","HOUSE_NO":"２號之１","E_COORD97":164089.03,"N_COORD97":2544467.3700000001,"ADDRESS":"運河路２３巷２３弄２號之１","OBJECTID":47360},"geometry":{"x":164089.03000000212,"y":2544467.3700000029}},{"attributes":{"ID":47361,"DIS_CODE":0,"TOWNNAME":"仁德區","LI":"保安里","LIN":"15鄰","STREET":"文賢路","SECT":"二段","MAREA":" ","LANE":"１８巷","ALLEY":"１７弄","HOUSE_NO":"５號","E_COORD97":171702.66,"N_COORD97":2535767.0800000001,"ADDRESS":"文賢路二段１８巷１７弄５號","OBJECTID":47361},"geometry":{"x":171702.65999999922,"y":2535767.0800000001}},{"attributes":{"ID":47362,"DIS_CODE":0,"TOWNNAME":"仁德區","LI":"成功里","LIN":"15鄰","STREET":"全福路","SECT":" ","MAREA":" ","LANE":"８０巷","ALLEY":"１４弄","HOUSE_NO":"１６號","E_COORD97":170976.67000000001,"N_COORD97":2539278.75,"ADDRESS":"全福路８０巷１４弄１６號","OBJECTID":47362},"geometry":{"x":170976.66999999993,"y":2539278.75}},{"attributes":{"ID":47363,"DIS_CODE":0,"TOWNNAME":"仁德區","LI":"成功里","LIN":"15鄰","STREET":"全福路","SECT":" ","MAREA":" ","LANE":"８０巷","ALLEY":"１４弄","HOUSE_NO":"１７號","E_COORD97":170970.87,"N_COORD97":2539261,"ADDRESS":"全福路８０巷１４弄１７號","OBJECTID":47363},"geometry":{"x":170970.87000000104,"y":2539261.0000000037}},{"attributes":{"ID":47364,"DIS_CODE":0,"TOWNNAME":"仁德區","LI":"成功里","LIN":"15鄰","STREET":"全福路","SECT":" ","MAREA":" ","LANE":"８０巷","ALLEY":"１４弄","HOUSE_NO":"２７號","E_COORD97":170950.01000000001,"N_COORD97":2539262.5,"ADDRESS":"全福路８０巷１４弄２７號","OBJECTID":47364},"geometry":{"x":170950.00999999978,"y":2539262.5}},{"attributes":{"ID":47365,"DIS_CODE":0,"TOWNNAME":"西港區","LI":"後營里","LIN":"15鄰","STREET":" ","SECT":" ","MAREA":"後營","LANE":" ","ALLEY":" ","HOUSE_NO":"３７４號之５","E_COORD97":169926.06,"N_COORD97":2559886.8999999999,"ADDRESS":"後營３７４號之５","OBJECTID":47365},"geometry":{"x":169926.05999999959,"y":2559886.9000000022}},{"attributes":{"ID":47366,"DIS_CODE":0,"TOWNNAME":"仁德區","LI":"成功里","LIN":"15鄰","STREET":"全福路","SECT":" ","MAREA":" ","LANE":"８０巷","ALLEY":"１４弄","HOUSE_NO":"３３號","E_COORD97":170937.53,"N_COORD97":2539263.5,"ADDRESS":"全福路８０巷１４弄３３號","OBJECTID":47366},"geometry":{"x":170937.53000000212,"y":2539263.5}},{"attributes":{"ID":47367,"DIS_CODE":0,"TOWNNAME":"仁德區","LI":"成功里","LIN":"15鄰","STREET":"全福路","SECT":" ","MAREA":" ","LANE":"８０巷","ALLEY":"１４弄","HOUSE_NO":"３１號","E_COORD97":170941.92000000001,"N_COORD97":2539263.5,"ADDRESS":"全福路８０巷１４弄３１號","OBJECTID":47367},"geometry":{"x":170941.92000000086,"y":2539263.5}},{"attributes":{"ID":47368,"DIS_CODE":0,"TOWNNAME":"仁德區","LI":"成功里","LIN":"15鄰","STREET":"全福路","SECT":" ","MAREA":" ","LANE":"８０巷","ALLEY":"１４弄","HOUSE_NO":"３號","E_COORD97":170999.70999999999,"N_COORD97":2539258.75,"ADDRESS":"全福路８０巷１４弄３號","OBJECTID":47368},"geometry":{"x":170999.70999999996,"y":2539258.75}},{"attributes":{"ID":47369,"DIS_CODE":0,"TOWNNAME":"仁德區","LI":"成功里","LIN":"15鄰","STREET":"全福路","SECT":" ","MAREA":" ","LANE":"８０巷","ALLEY":"１４弄","HOUSE_NO":"９號","E_COORD97":170986.53,"N_COORD97":2539259.5,"ADDRESS":"全福路８０巷１４弄９號","OBJECTID":47369},"geometry":{"x":170986.53000000026,"y":2539259.5}},{"attributes":{"ID":47370,"DIS_CODE":0,"TOWNNAME":"仁德區","LI":"新田里","LIN":"15鄰","STREET":"民安路","SECT":"二段","MAREA":" ","LANE":"６３巷","ALLEY":"１７弄","HOUSE_NO":"３號","E_COORD97":173438.14000000001,"N_COORD97":2539279.0699999998,"ADDRESS":"民安路二段６３巷１７弄３號","OBJECTID":47370},"geometry":{"x":173438.13999999873,"y":2539279.0700000022}},{"attributes":{"ID":47371,"DIS_CODE":0,"TOWNNAME":"仁德區","LI":"成功里","LIN":"15鄰","STREET":"全福路","SECT":" ","MAREA":" ","LANE":"８０巷","ALLEY":"１４弄","HOUSE_NO":"２之１號","E_COORD97":171003.41,"N_COORD97":2539276.7999999998,"ADDRESS":"全福路８０巷１４弄２之１號","OBJECTID":47371},"geometry":{"x":171003.41000000108,"y":2539276.8000000026}},{"attributes":{"ID":47372,"DIS_CODE":0,"TOWNNAME":"仁德區","LI":"成功里","LIN":"15鄰","STREET":"全福路","SECT":" ","MAREA":" ","LANE":"８０巷","ALLEY":"１４弄","HOUSE_NO":"４３號","E_COORD97":170916.23000000001,"N_COORD97":2539265.5,"ADDRESS":"全福路８０巷１４弄４３號","OBJECTID":47372},"geometry":{"x":170916.23000000138,"y":2539265.5000000019}},{"attributes":{"ID":47373,"DIS_CODE":0,"TOWNNAME":"仁德區","LI":"成功里","LIN":"15鄰","STREET":"全福路","SECT":" ","MAREA":" ","LANE":"８０巷","ALLEY":"１４弄","HOUSE_NO":"３５號","E_COORD97":170933.45999999999,"N_COORD97":2539264,"ADDRESS":"全福路８０巷１４弄３５號","OBJECTID":47373},"geometry":{"x":170933.46000000089,"y":2539263.9999999981}},{"attributes":{"ID":47374,"DIS_CODE":0,"TOWNNAME":"仁德區","LI":"成功里","LIN":"15鄰","STREET":"全福路","SECT":" ","MAREA":" ","LANE":"８０巷","ALLEY":"１４弄","HOUSE_NO":"２０號","E_COORD97":170967.70999999999,"N_COORD97":2539279.25,"ADDRESS":"全福路８０巷１４弄２０號","OBJECTID":47374},"geometry":{"x":170967.70999999996,"y":2539279.2499999981}},{"attributes":{"ID":47375,"DIS_CODE":0,"TOWNNAME":"仁德區","LI":"成功里","LIN":"15鄰","STREET":"全福路","SECT":" ","MAREA":" ","LANE":"８０巷","ALLEY":"１４弄","HOUSE_NO":"１號","E_COORD97":171003.87,"N_COORD97":2539258.25,"ADDRESS":"全福路８０巷１４弄１號","OBJECTID":47375},"geometry":{"x":171003.87000000011,"y":2539258.25}},{"attributes":{"ID":47376,"DIS_CODE":0,"TOWNNAME":"仁德區","LI":"成功里","LIN":"15鄰","STREET":"全福路","SECT":" ","MAREA":" ","LANE":"８０巷","ALLEY":"１４弄","HOUSE_NO":"４６號","E_COORD97":170912.60000000001,"N_COORD97":2539283.75,"ADDRESS":"全福路８０巷１４弄４６號","OBJECTID":47376},"geometry":{"x":170912.60000000149,"y":2539283.7500000019}},{"attributes":{"ID":47377,"DIS_CODE":0,"TOWNNAME":"仁德區","LI":"成功里","LIN":"15鄰","STREET":"全福路","SECT":" ","MAREA":" ","LANE":"８０巷","ALLEY":"１４弄","HOUSE_NO":"４９號","E_COORD97":170903.23000000001,"N_COORD97":2539266,"ADDRESS":"全福路８０巷１４弄４９號","OBJECTID":47377},"geometry":{"x":170903.23000000138,"y":2539266}},{"attributes":{"ID":47378,"DIS_CODE":0,"TOWNNAME":"仁德區","LI":"成功里","LIN":"15鄰","STREET":"全福路","SECT":" ","MAREA":" ","LANE":"８０巷","ALLEY":"１４弄","HOUSE_NO":"４１號","E_COORD97":170920.62,"N_COORD97":2539265.25,"ADDRESS":"全福路８０巷１４弄４１號","OBJECTID":47378},"geometry":{"x":170920.62000000104,"y":2539265.25}},{"attributes":{"ID":47379,"DIS_CODE":0,"TOWNNAME":"仁德區","LI":"成功里","LIN":"15鄰","STREET":"全福路","SECT":" ","MAREA":" ","LANE":"８０巷","ALLEY":"１４弄","HOUSE_NO":"３７號","E_COORD97":170929.70999999999,"N_COORD97":2539264.25,"ADDRESS":"全福路８０巷１４弄３７號","OBJECTID":47379},"geometry":{"x":170929.71000000089,"y":2539264.25}},{"attributes":{"ID":47380,"DIS_CODE":0,"TOWNNAME":"仁德區","LI":"成功里","LIN":"15鄰","STREET":"全福路","SECT":" ","MAREA":" ","LANE":"８０巷","ALLEY":"１４弄","HOUSE_NO":"３９號","E_COORD97":170924.76000000001,"N_COORD97":2539264.5,"ADDRESS":"全福路８０巷１４弄３９號","OBJECTID":47380},"geometry":{"x":170924.75999999978,"y":2539264.5000000019}},{"attributes":{"ID":47381,"DIS_CODE":0,"TOWNNAME":"仁德區","LI":"成功里","LIN":"15鄰","STREET":"全福路","SECT":" ","MAREA":" ","LANE":"８０巷","ALLEY":"１４弄","HOUSE_NO":"４５號","E_COORD97":170912.01000000001,"N_COORD97":2539265.5,"ADDRESS":"全福路８０巷１４弄４５號","OBJECTID":47381},"geometry":{"x":170912.01000000071,"y":2539265.5000000019}},{"attributes":{"ID":47382,"DIS_CODE":0,"TOWNNAME":"仁德區","LI":"成功里","LIN":"15鄰","STREET":"全福路","SECT":" ","MAREA":" ","LANE":"８０巷","ALLEY":"１４弄","HOUSE_NO":"４８號","E_COORD97":170908.53,"N_COORD97":2539283.75,"ADDRESS":"全福路８０巷１４弄４８號","OBJECTID":47382},"geometry":{"x":170908.53000000026,"y":2539283.7500000019}},{"attributes":{"ID":47383,"DIS_CODE":0,"TOWNNAME":"仁德區","LI":"成功里","LIN":"15鄰","STREET":"全福路","SECT":" ","MAREA":" ","LANE":"８０巷","ALLEY":"１４弄","HOUSE_NO":"４７號","E_COORD97":170907.57000000001,"N_COORD97":2539266,"ADDRESS":"全福路８０巷１４弄４７號","OBJECTID":47383},"geometry":{"x":170907.57000000123,"y":2539266}},{"attributes":{"ID":47384,"DIS_CODE":0,"TOWNNAME":"仁德區","LI":"成功里","LIN":"15鄰","STREET":"全福路","SECT":" ","MAREA":" ","LANE":"８０巷","ALLEY":"１４弄","HOUSE_NO":"４２號","E_COORD97":170921.41,"N_COORD97":2539283,"ADDRESS":"全福路８０巷１４弄４２號","OBJECTID":47384},"geometry":{"x":170921.41000000201,"y":2539283}},{"attributes":{"ID":47385,"DIS_CODE":0,"TOWNNAME":"仁德區","LI":"新田里","LIN":"15鄰","STREET":"民安路","SECT":"二段","MAREA":" ","LANE":"６３巷","ALLEY":"１７弄","HOUSE_NO":"９號","E_COORD97":173444.88,"N_COORD97":2539289.8199999998,"ADDRESS":"民安路二段６３巷１７弄９號","OBJECTID":47385},"geometry":{"x":173444.87999999989,"y":2539289.8200000022}},{"attributes":{"ID":47386,"DIS_CODE":0,"TOWNNAME":"仁德區","LI":"後壁里","LIN":"15鄰","STREET":"德善路","SECT":" ","MAREA":" ","LANE":"１０８巷","ALLEY":"１２弄","HOUSE_NO":"４號","E_COORD97":173450.12,"N_COORD97":2538784.52,"ADDRESS":"德善路１０８巷１２弄４號","OBJECTID":47386},"geometry":{"x":173450.12000000011,"y":2538784.5199999996}},{"attributes":{"ID":47387,"DIS_CODE":0,"TOWNNAME":"仁德區","LI":"成功里","LIN":"15鄰","STREET":"全福路","SECT":" ","MAREA":" ","LANE":"８０巷","ALLEY":"１４弄","HOUSE_NO":"３８號","E_COORD97":170930.37,"N_COORD97":2539282.25,"ADDRESS":"全福路８０巷１４弄３８號","OBJECTID":47387},"geometry":{"x":170930.37000000104,"y":2539282.25}},{"attributes":{"ID":47388,"DIS_CODE":0,"TOWNNAME":"安南區","LI":"長安里","LIN":"15鄰","STREET":"公學路","SECT":"二段","MAREA":" ","LANE":"６３巷","ALLEY":"２弄","HOUSE_NO":"１０號","E_COORD97":167783.23000000001,"N_COORD97":2552418.5699999998,"ADDRESS":"公學路二段６３巷２弄１０號","OBJECTID":47388},"geometry":{"x":167783.22999999952,"y":2552418.570000004}},{"attributes":{"ID":47389,"DIS_CODE":0,"TOWNNAME":"安南區","LI":"長安里","LIN":"15鄰","STREET":"公學路","SECT":"二段","MAREA":" ","LANE":"６３巷","ALLEY":"２弄","HOUSE_NO":"１２號","E_COORD97":167781.66,"N_COORD97":2552413.8799999999,"ADDRESS":"公學路二段６３巷２弄１２號","OBJECTID":47389},"geometry":{"x":167781.66000000015,"y":2552413.879999999}},{"attributes":{"ID":47390,"DIS_CODE":0,"TOWNNAME":"安南區","LI":"長安里","LIN":"15鄰","STREET":"公學路","SECT":"二段","MAREA":" ","LANE":"６３巷","ALLEY":"２弄","HOUSE_NO":"１４號","E_COORD97":167780.03,"N_COORD97":2552409.6899999999,"ADDRESS":"公學路二段６３巷２弄１４號","OBJECTID":47390},"geometry":{"x":167780.03000000119,"y":2552409.6899999995}},{"attributes":{"ID":47391,"DIS_CODE":0,"TOWNNAME":"安南區","LI":"長安里","LIN":"15鄰","STREET":"公學路","SECT":"二段","MAREA":" ","LANE":"６３巷","ALLEY":"２弄","HOUSE_NO":"１６號","E_COORD97":167777.95999999999,"N_COORD97":2552405.8199999998,"ADDRESS":"公學路二段６３巷２弄１６號","OBJECTID":47391},"geometry":{"x":167777.96000000183,"y":2552405.8200000003}},{"attributes":{"ID":47392,"DIS_CODE":0,"TOWNNAME":"安南區","LI":"長安里","LIN":"15鄰","STREET":"公學路","SECT":"二段","MAREA":" ","LANE":"６３巷","ALLEY":"２弄","HOUSE_NO":"１８號","E_COORD97":167776.04000000001,"N_COORD97":2552401.5600000001,"ADDRESS":"公學路二段６３巷２弄１８號","OBJECTID":47392},"geometry":{"x":167776.04000000097,"y":2552401.5600000005}},{"attributes":{"ID":47393,"DIS_CODE":0,"TOWNNAME":"安南區","LI":"長安里","LIN":"15鄰","STREET":"公學路","SECT":"二段","MAREA":" ","LANE":"６３巷","ALLEY":"２弄","HOUSE_NO":"２０號","E_COORD97":167774.91,"N_COORD97":2552397.2999999998,"ADDRESS":"公學路二段６３巷２弄２０號","OBJECTID":47393},"geometry":{"x":167774.90999999922,"y":2552397.3000000045}},{"attributes":{"ID":47394,"DIS_CODE":0,"TOWNNAME":"安南區","LI":"長安里","LIN":"15鄰","STREET":"公學路","SECT":"二段","MAREA":" ","LANE":"６３巷","ALLEY":"２弄","HOUSE_NO":"２號","E_COORD97":167789.28,"N_COORD97":2552435.75,"ADDRESS":"公學路二段６３巷２弄２號","OBJECTID":47394},"geometry":{"x":167789.28000000026,"y":2552435.7500000019}},{"attributes":{"ID":47395,"DIS_CODE":0,"TOWNNAME":"安南區","LI":"長安里","LIN":"15鄰","STREET":"公學路","SECT":"二段","MAREA":" ","LANE":"６３巷","ALLEY":"２弄","HOUSE_NO":"４號","E_COORD97":167788.06,"N_COORD97":2552431.21,"ADDRESS":"公學路二段６３巷２弄４號","OBJECTID":47395},"geometry":{"x":167788.05999999959,"y":2552431.2100000009}},{"attributes":{"ID":47396,"DIS_CODE":0,"TOWNNAME":"安南區","LI":"長安里","LIN":"15鄰","STREET":"公學路","SECT":"二段","MAREA":" ","LANE":"６３巷","ALLEY":"２弄","HOUSE_NO":"６號","E_COORD97":167786.17000000001,"N_COORD97":2552427.0699999998,"ADDRESS":"公學路二段６３巷２弄６號","OBJECTID":47396},"geometry":{"x":167786.16999999993,"y":2552427.0700000022}},{"attributes":{"ID":47397,"DIS_CODE":0,"TOWNNAME":"安南區","LI":"長安里","LIN":"15鄰","STREET":"公學路","SECT":"二段","MAREA":" ","LANE":"６３巷","ALLEY":"２弄","HOUSE_NO":"８號","E_COORD97":167784.01999999999,"N_COORD97":2552422.8399999999,"ADDRESS":"公學路二段６３巷２弄８號","OBJECTID":47397},"geometry":{"x":167784.02000000048,"y":2552422.8399999999}},{"attributes":{"ID":47398,"DIS_CODE":0,"TOWNNAME":"永康區","LI":"五王里","LIN":"15鄰","STREET":"中華二路","SECT":" ","MAREA":" ","LANE":"２０６巷","ALLEY":"６８弄","HOUSE_NO":"１７號","E_COORD97":171617.51999999999,"N_COORD97":2545696.1000000001,"ADDRESS":"中華二路２０６巷６８弄１７號","OBJECTID":47398},"geometry":{"x":171617.51999999955,"y":2545696.1000000015}},{"attributes":{"ID":47399,"DIS_CODE":0,"TOWNNAME":"永康區","LI":"大灣里","LIN":"15鄰","STREET":"大灣路","SECT":" ","MAREA":" ","LANE":"２８８巷","ALLEY":"２９弄","HOUSE_NO":"２號","E_COORD97":174820.82999999999,"N_COORD97":2545232.5499999998,"ADDRESS":"大灣路２８８巷２９弄２號","OBJECTID":47399},"geometry":{"x":174820.83000000101,"y":2545232.5500000026}},{"attributes":{"ID":47400,"DIS_CODE":0,"TOWNNAME":"永康區","LI":"五王里","LIN":"15鄰","STREET":"中華二路","SECT":" ","MAREA":" ","LANE":"２０６巷","ALLEY":"６８弄","HOUSE_NO":"９號","E_COORD97":171624.04000000001,"N_COORD97":2545670.1899999999,"ADDRESS":"中華二路２０６巷６８弄９號","OBJECTID":47400},"geometry":{"x":171624.04000000097,"y":2545670.1900000032}}]}