{"displayFieldName":"TOWNNAME","fieldAliases":{"ID":"ID","DIS_CODE":"DIS_CODE","TOWNNAME":"TOWNNAME","LI":"LI","LIN":"LIN","STREET":"STREET","SECT":"SECT","MAREA":"MAREA","LANE":"LANE","ALLEY":"ALLEY","HOUSE_NO":"HOUSE_NO","E_COORD97":"E_COORD97","N_COORD97":"N_COORD97","ADDRESS":"ADDRESS","OBJECTID":"OBJECTID"},"geometryType":"esriGeometryPoint","spatialReference":{"wkid":102443,"latestWkid":3826},"fields":[{"name":"ID","type":"esriFieldTypeDouble","alias":"ID"},{"name":"DIS_CODE","type":"esriFieldTypeInteger","alias":"DIS_CODE"},{"name":"TOWNNAME","type":"esriFieldTypeString","alias":"TOWNNAME","length":8},{"name":"LI","type":"esriFieldTypeString","alias":"LI","length":8},{"name":"LIN","type":"esriFieldTypeString","alias":"LIN","length":12},{"name":"STREET","type":"esriFieldTypeString","alias":"STREET","length":20},{"name":"SECT","type":"esriFieldTypeString","alias":"SECT","length":8},{"name":"MAREA","type":"esriFieldTypeString","alias":"MAREA","length":12},{"name":"LANE","type":"esriFieldTypeString","alias":"LANE","length":10},{"name":"ALLEY","type":"esriFieldTypeString","alias":"ALLEY","length":10},{"name":"HOUSE_NO","type":"esriFieldTypeString","alias":"HOUSE_NO","length":20},{"name":"E_COORD97","type":"esriFieldTypeDouble","alias":"E_COORD97"},{"name":"N_COORD97","type":"esriFieldTypeDouble","alias":"N_COORD97"},{"name":"ADDRESS","type":"esriFieldTypeString","alias":"ADDRESS","length":50},{"name":"OBJECTID","type":"esriFieldTypeOID","alias":"OBJECTID"}],"features":[{"attributes":{"ID":381811,"DIS_CODE":0,"TOWNNAME":"中西區","LI":"西賢里","LIN":"9鄰","STREET":"西賢一街","SECT":" ","MAREA":" ","LANE":"１１８巷","ALLEY":" ","HOUSE_NO":"１８號","E_COORD97":165757.60999999999,"N_COORD97":2544658.21,"ADDRESS":"西賢一街１１８巷１８號","OBJECTID":381801},"geometry":{"x":165757.61000000034,"y":2544658.2100000028}},{"attributes":{"ID":381812,"DIS_CODE":0,"TOWNNAME":"中西區","LI":"西賢里","LIN":"9鄰","STREET":"西賢一街","SECT":" ","MAREA":" ","LANE":"１１８巷","ALLEY":" ","HOUSE_NO":"２０號","E_COORD97":165757.32999999999,"N_COORD97":2544663.1200000001,"ADDRESS":"西賢一街１１８巷２０號","OBJECTID":381802},"geometry":{"x":165757.33000000101,"y":2544663.1200000029}},{"attributes":{"ID":381813,"DIS_CODE":0,"TOWNNAME":"中西區","LI":"西賢里","LIN":"9鄰","STREET":"西賢一街","SECT":" ","MAREA":" ","LANE":"１１８巷","ALLEY":" ","HOUSE_NO":"２２號","E_COORD97":165757.04000000001,"N_COORD97":2544672.5,"ADDRESS":"西賢一街１１８巷２２號","OBJECTID":381803},"geometry":{"x":165757.04000000097,"y":2544672.5000000019}},{"attributes":{"ID":381814,"DIS_CODE":0,"TOWNNAME":"中西區","LI":"西賢里","LIN":"9鄰","STREET":"西賢一街","SECT":" ","MAREA":" ","LANE":"１１８巷","ALLEY":" ","HOUSE_NO":"２６號","E_COORD97":165757.32999999999,"N_COORD97":2544676.1099999999,"ADDRESS":"西賢一街１１８巷２６號","OBJECTID":381804},"geometry":{"x":165757.33000000101,"y":2544676.1099999994}},{"attributes":{"ID":381815,"DIS_CODE":0,"TOWNNAME":"中西區","LI":"西賢里","LIN":"9鄰","STREET":"西賢一街","SECT":" ","MAREA":" ","LANE":"１１８巷","ALLEY":" ","HOUSE_NO":"２號","E_COORD97":165727.54999999999,"N_COORD97":2544676.1099999999,"ADDRESS":"西賢一街１１８巷２號","OBJECTID":381805},"geometry":{"x":165727.54999999888,"y":2544676.1099999994}},{"attributes":{"ID":381816,"DIS_CODE":0,"TOWNNAME":"中西區","LI":"西賢里","LIN":"9鄰","STREET":"西賢一街","SECT":" ","MAREA":" ","LANE":"１１８巷","ALLEY":" ","HOUSE_NO":"８號","E_COORD97":165743.73999999999,"N_COORD97":2544677.4100000001,"ADDRESS":"西賢一街１１８巷８號","OBJECTID":381806},"geometry":{"x":165743.74000000209,"y":2544677.410000002}},{"attributes":{"ID":381817,"DIS_CODE":0,"TOWNNAME":"新市區","LI":"永就里","LIN":"9鄰","STREET":"中山路","SECT":" ","MAREA":" ","LANE":"工業巷","ALLEY":" ","HOUSE_NO":"１３號","E_COORD97":177578.07000000001,"N_COORD97":2551983,"ADDRESS":"中山路工業巷１３號","OBJECTID":381807},"geometry":{"x":177578.07000000123,"y":2551983.0000000019}},{"attributes":{"ID":381818,"DIS_CODE":0,"TOWNNAME":"新市區","LI":"永就里","LIN":"9鄰","STREET":"中山路","SECT":" ","MAREA":" ","LANE":"１９５巷","ALLEY":" ","HOUSE_NO":"２０號","E_COORD97":177682.67999999999,"N_COORD97":2552010,"ADDRESS":"中山路１９５巷２０號","OBJECTID":381808},"geometry":{"x":177682.67999999877,"y":2552010.0000000019}},{"attributes":{"ID":381819,"DIS_CODE":0,"TOWNNAME":"東區","LI":"仁和里","LIN":"9鄰","STREET":"仁和路","SECT":" ","MAREA":" ","LANE":"１１１巷","ALLEY":" ","HOUSE_NO":"１３６號","E_COORD97":171756.95999999999,"N_COORD97":2541285.5600000001,"ADDRESS":"仁和路１１１巷１３６號","OBJECTID":381809},"geometry":{"x":171756.96000000089,"y":2541285.5600000024}},{"attributes":{"ID":381820,"DIS_CODE":0,"TOWNNAME":"東區","LI":"仁和里","LIN":"9鄰","STREET":"仁和路","SECT":" ","MAREA":" ","LANE":"１１１巷","ALLEY":" ","HOUSE_NO":"１３８號","E_COORD97":171761.70000000001,"N_COORD97":2541285.3199999998,"ADDRESS":"仁和路１１１巷１３８號","OBJECTID":381810},"geometry":{"x":171761.70000000019,"y":2541285.3200000003}},{"attributes":{"ID":381821,"DIS_CODE":0,"TOWNNAME":"東區","LI":"大智里","LIN":"9鄰","STREET":"德東街","SECT":" ","MAREA":" ","LANE":"１５１巷","ALLEY":" ","HOUSE_NO":"１１號","E_COORD97":171189.01999999999,"N_COORD97":2540321.8599999999,"ADDRESS":"德東街１５１巷１１號","OBJECTID":381811},"geometry":{"x":171189.01999999955,"y":2540321.8599999994}},{"attributes":{"ID":381822,"DIS_CODE":0,"TOWNNAME":"東區","LI":"大智里","LIN":"9鄰","STREET":"德東街","SECT":" ","MAREA":" ","LANE":"１５１巷","ALLEY":" ","HOUSE_NO":"９號","E_COORD97":171189.01999999999,"N_COORD97":2540314.5099999998,"ADDRESS":"德東街１５１巷９號","OBJECTID":381812},"geometry":{"x":171189.01999999955,"y":2540314.5099999998}},{"attributes":{"ID":381823,"DIS_CODE":0,"TOWNNAME":"永康區","LI":"復國里","LIN":"9鄰","STREET":"復國一路","SECT":" ","MAREA":" ","LANE":"２１０巷","ALLEY":" ","HOUSE_NO":"２３號","E_COORD97":172778.5,"N_COORD97":2545253.27,"ADDRESS":"復國一路２１０巷２３號","OBJECTID":381813},"geometry":{"x":172778.50000000186,"y":2545253.2700000014}},{"attributes":{"ID":381824,"DIS_CODE":0,"TOWNNAME":"永康區","LI":"復國里","LIN":"9鄰","STREET":"復國一路","SECT":" ","MAREA":" ","LANE":"２１０巷","ALLEY":" ","HOUSE_NO":"８號","E_COORD97":172769.54999999999,"N_COORD97":2545197.8100000001,"ADDRESS":"復國一路２１０巷８號","OBJECTID":381814},"geometry":{"x":172769.55000000168,"y":2545197.8100000005}},{"attributes":{"ID":381825,"DIS_CODE":0,"TOWNNAME":"永康區","LI":"復國里","LIN":"9鄰","STREET":"復國二路","SECT":" ","MAREA":" ","LANE":"９０巷","ALLEY":" ","HOUSE_NO":"１０號","E_COORD97":172876.78,"N_COORD97":2545227.9100000001,"ADDRESS":"復國二路９０巷１０號","OBJECTID":381815},"geometry":{"x":172876.78000000212,"y":2545227.9100000001}},{"attributes":{"ID":381826,"DIS_CODE":0,"TOWNNAME":"永康區","LI":"復國里","LIN":"9鄰","STREET":"復國二路","SECT":" ","MAREA":" ","LANE":"６９巷","ALLEY":" ","HOUSE_NO":"１６號","E_COORD97":172806.5,"N_COORD97":2545236.27,"ADDRESS":"復國二路６９巷１６號","OBJECTID":381816},"geometry":{"x":172806.5,"y":2545236.2700000014}},{"attributes":{"ID":381827,"DIS_CODE":0,"TOWNNAME":"永康區","LI":"復國里","LIN":"9鄰","STREET":"復國二路","SECT":" ","MAREA":" ","LANE":"６９巷","ALLEY":" ","HOUSE_NO":"１４號","E_COORD97":172810.64000000001,"N_COORD97":2545236.02,"ADDRESS":"復國二路６９巷１４號","OBJECTID":381817},"geometry":{"x":172810.63999999966,"y":2545236.0199999996}},{"attributes":{"ID":381828,"DIS_CODE":0,"TOWNNAME":"安南區","LI":"安富里","LIN":"9鄰","STREET":"郡安路","SECT":"五段","MAREA":" ","LANE":"１８４巷","ALLEY":" ","HOUSE_NO":"１１７號","E_COORD97":167539.53,"N_COORD97":2547462.2599999998,"ADDRESS":"郡安路五段１８４巷１１７號","OBJECTID":381818},"geometry":{"x":167539.53000000119,"y":2547462.2599999998}},{"attributes":{"ID":381829,"DIS_CODE":0,"TOWNNAME":"安南區","LI":"梅花里","LIN":"9鄰","STREET":"安中路","SECT":"一段","MAREA":" ","LANE":"７０１巷","ALLEY":" ","HOUSE_NO":"２５號之１","E_COORD97":167545.91,"N_COORD97":2549147.2200000002,"ADDRESS":"安中路一段７０１巷２５號之１","OBJECTID":381819},"geometry":{"x":167545.91000000015,"y":2549147.2200000025}},{"attributes":{"ID":381830,"DIS_CODE":0,"TOWNNAME":"安南區","LI":"鳳凰里","LIN":"9鄰","STREET":"安中路","SECT":"一段","MAREA":" ","LANE":"７００巷","ALLEY":" ","HOUSE_NO":"３５號之３","E_COORD97":167704.79000000001,"N_COORD97":2549290.0899999999,"ADDRESS":"安中路一段７００巷３５號之３","OBJECTID":381820},"geometry":{"x":167704.79000000097,"y":2549290.0900000017}},{"attributes":{"ID":381831,"DIS_CODE":0,"TOWNNAME":"安南區","LI":"鳳凰里","LIN":"9鄰","STREET":"安中路","SECT":"一段","MAREA":" ","LANE":"７００巷","ALLEY":" ","HOUSE_NO":"５５號之１","E_COORD97":167782.31,"N_COORD97":2549282.8900000001,"ADDRESS":"安中路一段７００巷５５號之１","OBJECTID":381821},"geometry":{"x":167782.31000000052,"y":2549282.8900000006}},{"attributes":{"ID":381832,"DIS_CODE":0,"TOWNNAME":"安南區","LI":"鳳凰里","LIN":"9鄰","STREET":"安中路","SECT":"一段","MAREA":" ","LANE":"７００巷","ALLEY":" ","HOUSE_NO":"５７號之３","E_COORD97":167789.97,"N_COORD97":2549283,"ADDRESS":"安中路一段７００巷５７號之３","OBJECTID":381822},"geometry":{"x":167789.97000000067,"y":2549283.0000000019}},{"attributes":{"ID":381833,"DIS_CODE":0,"TOWNNAME":"安南區","LI":"梅花里","LIN":"9鄰","STREET":"安中路","SECT":"一段","MAREA":" ","LANE":"７０１巷","ALLEY":" ","HOUSE_NO":"５１號之２","E_COORD97":167469.22,"N_COORD97":2549076.75,"ADDRESS":"安中路一段７０１巷５１號之２","OBJECTID":381823},"geometry":{"x":167469.22000000067,"y":2549076.75}},{"attributes":{"ID":381834,"DIS_CODE":0,"TOWNNAME":"安南區","LI":"鳳凰里","LIN":"9鄰","STREET":"安中路","SECT":"一段","MAREA":" ","LANE":"７００巷","ALLEY":" ","HOUSE_NO":"２７號","E_COORD97":167675.94,"N_COORD97":2549291.3799999999,"ADDRESS":"安中路一段７００巷２７號","OBJECTID":381824},"geometry":{"x":167675.94000000041,"y":2549291.379999999}},{"attributes":{"ID":381835,"DIS_CODE":0,"TOWNNAME":"安南區","LI":"鳳凰里","LIN":"9鄰","STREET":"安中路","SECT":"一段","MAREA":" ","LANE":"７００巷","ALLEY":" ","HOUSE_NO":"２９號之１","E_COORD97":167681.82999999999,"N_COORD97":2549291.27,"ADDRESS":"安中路一段７００巷２９號之１","OBJECTID":381825},"geometry":{"x":167681.83000000007,"y":2549291.2700000014}},{"attributes":{"ID":381836,"DIS_CODE":0,"TOWNNAME":"安南區","LI":"鳳凰里","LIN":"9鄰","STREET":"安中路","SECT":"一段","MAREA":" ","LANE":"７００巷","ALLEY":" ","HOUSE_NO":"３１號","E_COORD97":167688.89000000001,"N_COORD97":2549291.0299999998,"ADDRESS":"安中路一段７００巷３１號","OBJECTID":381826},"geometry":{"x":167688.8900000006,"y":2549291.0299999993}},{"attributes":{"ID":381837,"DIS_CODE":0,"TOWNNAME":"安南區","LI":"鳳凰里","LIN":"9鄰","STREET":"安中路","SECT":"一段","MAREA":" ","LANE":"７００巷","ALLEY":" ","HOUSE_NO":"３３號","E_COORD97":167697.95999999999,"N_COORD97":2549290.4399999999,"ADDRESS":"安中路一段７００巷３３號","OBJECTID":381827},"geometry":{"x":167697.95999999996,"y":2549290.4400000013}},{"attributes":{"ID":381838,"DIS_CODE":0,"TOWNNAME":"安南區","LI":"鳳凰里","LIN":"9鄰","STREET":"安中路","SECT":"一段","MAREA":" ","LANE":"７００巷","ALLEY":" ","HOUSE_NO":"３７號","E_COORD97":167713.51000000001,"N_COORD97":2549289.7400000002,"ADDRESS":"安中路一段７００巷３７號","OBJECTID":381828},"geometry":{"x":167713.51000000071,"y":2549289.7400000021}},{"attributes":{"ID":381839,"DIS_CODE":0,"TOWNNAME":"安南區","LI":"鳳凰里","LIN":"9鄰","STREET":"安中路","SECT":"一段","MAREA":" ","LANE":"７００巷","ALLEY":" ","HOUSE_NO":"３９號","E_COORD97":167720.34,"N_COORD97":2549289.1499999999,"ADDRESS":"安中路一段７００巷３９號","OBJECTID":381829},"geometry":{"x":167720.33999999985,"y":2549289.1500000041}},{"attributes":{"ID":381840,"DIS_CODE":0,"TOWNNAME":"安南區","LI":"鳳凰里","LIN":"9鄰","STREET":"安中路","SECT":"一段","MAREA":" ","LANE":"７００巷","ALLEY":" ","HOUSE_NO":"４１號","E_COORD97":167729.29000000001,"N_COORD97":2549288.3300000001,"ADDRESS":"安中路一段７００巷４１號","OBJECTID":381830},"geometry":{"x":167729.29000000004,"y":2549288.3300000019}},{"attributes":{"ID":381841,"DIS_CODE":0,"TOWNNAME":"安南區","LI":"鳳凰里","LIN":"9鄰","STREET":"安中路","SECT":"一段","MAREA":" ","LANE":"７００巷","ALLEY":" ","HOUSE_NO":"４３號","E_COORD97":167736.47,"N_COORD97":2549287.8599999999,"ADDRESS":"安中路一段７００巷４３號","OBJECTID":381831},"geometry":{"x":167736.46999999974,"y":2549287.8600000013}},{"attributes":{"ID":381842,"DIS_CODE":0,"TOWNNAME":"安南區","LI":"鳳凰里","LIN":"9鄰","STREET":"安中路","SECT":"一段","MAREA":" ","LANE":"７００巷","ALLEY":" ","HOUSE_NO":"４５號","E_COORD97":167743.42000000001,"N_COORD97":2549287.5,"ADDRESS":"安中路一段７００巷４５號","OBJECTID":381832},"geometry":{"x":167743.41999999993,"y":2549287.5000000019}},{"attributes":{"ID":381843,"DIS_CODE":0,"TOWNNAME":"安南區","LI":"鳳凰里","LIN":"9鄰","STREET":"安中路","SECT":"一段","MAREA":" ","LANE":"７００巷","ALLEY":" ","HOUSE_NO":"４９號","E_COORD97":167759.82000000001,"N_COORD97":2549285,"ADDRESS":"安中路一段７００巷４９號","OBJECTID":381833},"geometry":{"x":167759.8200000003,"y":2549285}},{"attributes":{"ID":381844,"DIS_CODE":0,"TOWNNAME":"安南區","LI":"鳳凰里","LIN":"9鄰","STREET":"安中路","SECT":"一段","MAREA":" ","LANE":"７００巷","ALLEY":" ","HOUSE_NO":"５１號","E_COORD97":167767,"N_COORD97":2549284.4100000001,"ADDRESS":"安中路一段７００巷５１號","OBJECTID":381834},"geometry":{"x":167767,"y":2549284.410000002}},{"attributes":{"ID":381845,"DIS_CODE":0,"TOWNNAME":"安南區","LI":"鳳凰里","LIN":"9鄰","STREET":"安中路","SECT":"一段","MAREA":" ","LANE":"７００巷","ALLEY":" ","HOUSE_NO":"５３號","E_COORD97":167773.82999999999,"N_COORD97":2549283.5899999999,"ADDRESS":"安中路一段７００巷５３號","OBJECTID":381835},"geometry":{"x":167773.83000000194,"y":2549283.5900000017}},{"attributes":{"ID":381846,"DIS_CODE":0,"TOWNNAME":"安南區","LI":"鳳凰里","LIN":"9鄰","STREET":"安中路","SECT":"一段","MAREA":" ","LANE":"７００巷","ALLEY":" ","HOUSE_NO":"５９號","E_COORD97":167796.44,"N_COORD97":2549282.1800000002,"ADDRESS":"安中路一段７００巷５９號","OBJECTID":381836},"geometry":{"x":167796.44000000041,"y":2549282.1800000016}},{"attributes":{"ID":381847,"DIS_CODE":0,"TOWNNAME":"安南區","LI":"梅花里","LIN":"9鄰","STREET":"安中路","SECT":"一段","MAREA":" ","LANE":"７０１巷","ALLEY":" ","HOUSE_NO":"２３號之１","E_COORD97":167551.44,"N_COORD97":2549153.5899999999,"ADDRESS":"安中路一段７０１巷２３號之１","OBJECTID":381837},"geometry":{"x":167551.44000000227,"y":2549153.5900000017}},{"attributes":{"ID":381848,"DIS_CODE":0,"TOWNNAME":"安南區","LI":"梅花里","LIN":"9鄰","STREET":"安中路","SECT":"一段","MAREA":" ","LANE":"７０１巷","ALLEY":" ","HOUSE_NO":"２７號","E_COORD97":167540.38,"N_COORD97":2549142.96,"ADDRESS":"安中路一段７０１巷２７號","OBJECTID":381838},"geometry":{"x":167540.37999999989,"y":2549142.9600000028}},{"attributes":{"ID":381849,"DIS_CODE":0,"TOWNNAME":"安南區","LI":"梅花里","LIN":"9鄰","STREET":"安中路","SECT":"一段","MAREA":" ","LANE":"７０１巷","ALLEY":" ","HOUSE_NO":"２９號","E_COORD97":167534.42000000001,"N_COORD97":2549137.6499999999,"ADDRESS":"安中路一段７０１巷２９號","OBJECTID":381839},"geometry":{"x":167534.42000000086,"y":2549137.6500000022}},{"attributes":{"ID":381850,"DIS_CODE":0,"TOWNNAME":"安南區","LI":"梅花里","LIN":"9鄰","STREET":"安中路","SECT":"一段","MAREA":" ","LANE":"７０１巷","ALLEY":" ","HOUSE_NO":"３１號","E_COORD97":167528.67999999999,"N_COORD97":2549132.9700000002,"ADDRESS":"安中路一段７０１巷３１號","OBJECTID":381840},"geometry":{"x":167528.68000000156,"y":2549132.9700000007}},{"attributes":{"ID":381851,"DIS_CODE":0,"TOWNNAME":"安南區","LI":"梅花里","LIN":"9鄰","STREET":"安中路","SECT":"一段","MAREA":" ","LANE":"７０１巷","ALLEY":" ","HOUSE_NO":"３３號之１","E_COORD97":167522.51000000001,"N_COORD97":2549126.8100000001,"ADDRESS":"安中路一段７０１巷３３號之１","OBJECTID":381841},"geometry":{"x":167522.50999999978,"y":2549126.8100000024}},{"attributes":{"ID":381852,"DIS_CODE":0,"TOWNNAME":"安南區","LI":"梅花里","LIN":"9鄰","STREET":"安中路","SECT":"一段","MAREA":" ","LANE":"７０１巷","ALLEY":" ","HOUSE_NO":"３５號","E_COORD97":167516.76999999999,"N_COORD97":2549122.3399999999,"ADDRESS":"安中路一段７０１巷３５號","OBJECTID":381842},"geometry":{"x":167516.77000000048,"y":2549122.3400000017}},{"attributes":{"ID":381853,"DIS_CODE":0,"TOWNNAME":"安南區","LI":"梅花里","LIN":"9鄰","STREET":"安中路","SECT":"一段","MAREA":" ","LANE":"７０１巷","ALLEY":" ","HOUSE_NO":"３７號之３","E_COORD97":167510.17000000001,"N_COORD97":2549116.1800000002,"ADDRESS":"安中路一段７０１巷３７號之３","OBJECTID":381843},"geometry":{"x":167510.16999999899,"y":2549116.1800000016}},{"attributes":{"ID":381854,"DIS_CODE":0,"TOWNNAME":"安南區","LI":"梅花里","LIN":"9鄰","STREET":"安中路","SECT":"一段","MAREA":" ","LANE":"７０１巷","ALLEY":" ","HOUSE_NO":"４１號之２","E_COORD97":167499.85999999999,"N_COORD97":2549102.6800000002,"ADDRESS":"安中路一段７０１巷４１號之２","OBJECTID":381844},"geometry":{"x":167499.86000000127,"y":2549102.6800000016}},{"attributes":{"ID":381855,"DIS_CODE":0,"TOWNNAME":"安南區","LI":"梅花里","LIN":"9鄰","STREET":"安中路","SECT":"一段","MAREA":" ","LANE":"７０１巷","ALLEY":" ","HOUSE_NO":"４３號之１","E_COORD97":167493.69,"N_COORD97":2549098.2200000002,"ADDRESS":"安中路一段７０１巷４３號之１","OBJECTID":381845},"geometry":{"x":167493.69000000227,"y":2549098.2200000007}},{"attributes":{"ID":381856,"DIS_CODE":0,"TOWNNAME":"安南區","LI":"梅花里","LIN":"9鄰","STREET":"安中路","SECT":"一段","MAREA":" ","LANE":"７０１巷","ALLEY":" ","HOUSE_NO":"４５號","E_COORD97":167487.73000000001,"N_COORD97":2549093.1200000001,"ADDRESS":"安中路一段７０１巷４５號","OBJECTID":381846},"geometry":{"x":167487.73000000045,"y":2549093.1200000048}},{"attributes":{"ID":381857,"DIS_CODE":0,"TOWNNAME":"安南區","LI":"梅花里","LIN":"9鄰","STREET":"安中路","SECT":"一段","MAREA":" ","LANE":"７０１巷","ALLEY":" ","HOUSE_NO":"４７號之１","E_COORD97":167483.04999999999,"N_COORD97":2549088.8599999999,"ADDRESS":"安中路一段７０１巷４７號之１","OBJECTID":381847},"geometry":{"x":167483.04999999981,"y":2549088.8599999994}},{"attributes":{"ID":381858,"DIS_CODE":0,"TOWNNAME":"安南區","LI":"梅花里","LIN":"9鄰","STREET":"安中路","SECT":"一段","MAREA":" ","LANE":"７０１巷","ALLEY":" ","HOUSE_NO":"４９號之１","E_COORD97":167477.94,"N_COORD97":2549082.9100000001,"ADDRESS":"安中路一段７０１巷４９號之１","OBJECTID":381848},"geometry":{"x":167477.94000000041,"y":2549082.9100000001}},{"attributes":{"ID":381859,"DIS_CODE":0,"TOWNNAME":"仁德區","LI":"仁德里","LIN":"9鄰","STREET":"仁德二街","SECT":" ","MAREA":" ","LANE":"２７巷","ALLEY":" ","HOUSE_NO":"７號","E_COORD97":173252.32999999999,"N_COORD97":2541037.77,"ADDRESS":"仁德二街２７巷７號","OBJECTID":381849},"geometry":{"x":173252.33000000007,"y":2541037.7699999996}},{"attributes":{"ID":381860,"DIS_CODE":0,"TOWNNAME":"仁德區","LI":"田厝里","LIN":"9鄰","STREET":"田厝二街","SECT":" ","MAREA":" ","LANE":"８６巷","ALLEY":" ","HOUSE_NO":"１１號","E_COORD97":172367.35000000001,"N_COORD97":2537783.2400000002,"ADDRESS":"田厝二街８６巷１１號","OBJECTID":381850},"geometry":{"x":172367.35000000056,"y":2537783.2400000002}},{"attributes":{"ID":381861,"DIS_CODE":0,"TOWNNAME":"仁德區","LI":"仁德里","LIN":"9鄰","STREET":"仁德二街","SECT":" ","MAREA":" ","LANE":"２７巷","ALLEY":" ","HOUSE_NO":"１號","E_COORD97":173250.42000000001,"N_COORD97":2541050.27,"ADDRESS":"仁德二街２７巷１號","OBJECTID":381851},"geometry":{"x":173250.42000000086,"y":2541050.2700000014}},{"attributes":{"ID":381862,"DIS_CODE":0,"TOWNNAME":"仁德區","LI":"仁德里","LIN":"9鄰","STREET":"仁德二街","SECT":" ","MAREA":" ","LANE":"２７巷","ALLEY":" ","HOUSE_NO":"５號","E_COORD97":173252.32999999999,"N_COORD97":2541042.27,"ADDRESS":"仁德二街２７巷５號","OBJECTID":381852},"geometry":{"x":173252.33000000007,"y":2541042.2700000014}},{"attributes":{"ID":381863,"DIS_CODE":0,"TOWNNAME":"仁德區","LI":"太子里","LIN":"9鄰","STREET":"長興二街","SECT":" ","MAREA":" ","LANE":"５巷","ALLEY":" ","HOUSE_NO":"１號","E_COORD97":174582.67999999999,"N_COORD97":2543712.7599999998,"ADDRESS":"長興二街５巷１號","OBJECTID":381853},"geometry":{"x":174582.68000000063,"y":2543712.7599999998}},{"attributes":{"ID":381864,"DIS_CODE":0,"TOWNNAME":"永康區","LI":"龍潭里","LIN":"34鄰","STREET":"龍埔街","SECT":" ","MAREA":" ","LANE":"１８１巷","ALLEY":" ","HOUSE_NO":"１６號","E_COORD97":174448.73999999999,"N_COORD97":2548200.1899999999,"ADDRESS":"龍埔街１８１巷１６號","OBJECTID":381854},"geometry":{"x":174448.74000000115,"y":2548200.1900000013}},{"attributes":{"ID":381865,"DIS_CODE":0,"TOWNNAME":"永康區","LI":"\u25A0行里","LIN":"47鄰","STREET":"新行街","SECT":" ","MAREA":" ","LANE":"４巷","ALLEY":" ","HOUSE_NO":"４９號","E_COORD97":172326.66,"N_COORD97":2548849.7200000002,"ADDRESS":"新行街４巷４９號","OBJECTID":381855},"geometry":{"x":172326.66000000201,"y":2548849.7200000007}},{"attributes":{"ID":381866,"DIS_CODE":0,"TOWNNAME":"仁德區","LI":"成功里","LIN":"9鄰","STREET":"成功二街","SECT":" ","MAREA":" ","LANE":"７巷","ALLEY":" ","HOUSE_NO":"１４號","E_COORD97":170958.95999999999,"N_COORD97":2539982.77,"ADDRESS":"成功二街７巷１４號","OBJECTID":381856},"geometry":{"x":170958.95999999996,"y":2539982.7699999996}},{"attributes":{"ID":381867,"DIS_CODE":0,"TOWNNAME":"仁德區","LI":"成功里","LIN":"9鄰","STREET":"成功二街","SECT":" ","MAREA":" ","LANE":"７巷","ALLEY":" ","HOUSE_NO":"１３號","E_COORD97":170966.10000000001,"N_COORD97":2539995.02,"ADDRESS":"成功二街７巷１３號","OBJECTID":381857},"geometry":{"x":170966.09999999963,"y":2539995.0199999996}},{"attributes":{"ID":381868,"DIS_CODE":0,"TOWNNAME":"仁德區","LI":"成功里","LIN":"9鄰","STREET":"成功二街","SECT":" ","MAREA":" ","LANE":"７巷","ALLEY":" ","HOUSE_NO":"６號","E_COORD97":170933.51000000001,"N_COORD97":2539981.7599999998,"ADDRESS":"成功二街７巷６號","OBJECTID":381858},"geometry":{"x":170933.50999999978,"y":2539981.7600000016}},{"attributes":{"ID":381869,"DIS_CODE":0,"TOWNNAME":"仁德區","LI":"成功里","LIN":"9鄰","STREET":"成功二街","SECT":" ","MAREA":" ","LANE":"７巷","ALLEY":" ","HOUSE_NO":"５號","E_COORD97":170944.81,"N_COORD97":2539994.27,"ADDRESS":"成功二街７巷５號","OBJECTID":381859},"geometry":{"x":170944.80999999959,"y":2539994.2700000033}},{"attributes":{"ID":381870,"DIS_CODE":0,"TOWNNAME":"仁德區","LI":"後壁里","LIN":"9鄰","STREET":"民安路","SECT":"二段","MAREA":" ","LANE":"１８２巷","ALLEY":" ","HOUSE_NO":"１１號","E_COORD97":173787.22,"N_COORD97":2538904.0600000001,"ADDRESS":"民安路二段１８２巷１１號","OBJECTID":381860},"geometry":{"x":173787.22000000067,"y":2538904.0600000005}},{"attributes":{"ID":381871,"DIS_CODE":0,"TOWNNAME":"仁德區","LI":"後壁里","LIN":"9鄰","STREET":"民安路","SECT":"二段","MAREA":" ","LANE":"１８２巷","ALLEY":" ","HOUSE_NO":"１７號","E_COORD97":173777.32999999999,"N_COORD97":2538892.5699999998,"ADDRESS":"民安路二段１８２巷１７號","OBJECTID":381861},"geometry":{"x":173777.33000000007,"y":2538892.5700000022}},{"attributes":{"ID":381872,"DIS_CODE":0,"TOWNNAME":"仁德區","LI":"成功里","LIN":"9鄰","STREET":"成功二街","SECT":" ","MAREA":" ","LANE":"７巷","ALLEY":" ","HOUSE_NO":"７號","E_COORD97":170949.85999999999,"N_COORD97":2539994.52,"ADDRESS":"成功二街７巷７號","OBJECTID":381862},"geometry":{"x":170949.86000000034,"y":2539994.5199999996}},{"attributes":{"ID":381873,"DIS_CODE":0,"TOWNNAME":"仁德區","LI":"後壁里","LIN":"9鄰","STREET":"民安路","SECT":"二段","MAREA":" ","LANE":"１８２巷","ALLEY":" ","HOUSE_NO":"１９號","E_COORD97":173774.23000000001,"N_COORD97":2538888.3199999998,"ADDRESS":"民安路二段１８２巷１９號","OBJECTID":381863},"geometry":{"x":173774.23000000231,"y":2538888.3200000003}},{"attributes":{"ID":381874,"DIS_CODE":0,"TOWNNAME":"仁德區","LI":"成功里","LIN":"9鄰","STREET":"成功二街","SECT":" ","MAREA":" ","LANE":"７巷","ALLEY":" ","HOUSE_NO":"１９號","E_COORD97":170980.10000000001,"N_COORD97":2539995.77,"ADDRESS":"成功二街７巷１９號","OBJECTID":381864},"geometry":{"x":170980.09999999963,"y":2539995.7700000014}},{"attributes":{"ID":381875,"DIS_CODE":0,"TOWNNAME":"仁德區","LI":"後壁里","LIN":"9鄰","STREET":"民安路","SECT":"二段","MAREA":" ","LANE":"１８２巷","ALLEY":" ","HOUSE_NO":"９號","E_COORD97":173782.79000000001,"N_COORD97":2538917.0600000001,"ADDRESS":"民安路二段１８２巷９號","OBJECTID":381865},"geometry":{"x":173782.79000000004,"y":2538917.0600000005}},{"attributes":{"ID":381876,"DIS_CODE":0,"TOWNNAME":"仁德區","LI":"後壁里","LIN":"9鄰","STREET":"民安路","SECT":"二段","MAREA":" ","LANE":"１８２巷","ALLEY":" ","HOUSE_NO":"１５號","E_COORD97":173780.37,"N_COORD97":2538897.5600000001,"ADDRESS":"民安路二段１８２巷１５號","OBJECTID":381866},"geometry":{"x":173780.37000000104,"y":2538897.5600000005}},{"attributes":{"ID":381877,"DIS_CODE":0,"TOWNNAME":"安南區","LI":"溪東里","LIN":"9鄰","STREET":"府安路","SECT":"五段","MAREA":" ","LANE":"１１巷","ALLEY":" ","HOUSE_NO":"１４號","E_COORD97":168478.06,"N_COORD97":2547268.7000000002,"ADDRESS":"府安路五段１１巷１４號","OBJECTID":381867},"geometry":{"x":168478.05999999959,"y":2547268.6999999993}},{"attributes":{"ID":381878,"DIS_CODE":0,"TOWNNAME":"安南區","LI":"溪東里","LIN":"9鄰","STREET":"府安路","SECT":"五段","MAREA":" ","LANE":"１１巷","ALLEY":" ","HOUSE_NO":"１５號","E_COORD97":168454.04000000001,"N_COORD97":2547270.1200000001,"ADDRESS":"府安路五段１１巷１５號","OBJECTID":381868},"geometry":{"x":168454.04000000097,"y":2547270.1200000029}},{"attributes":{"ID":381879,"DIS_CODE":0,"TOWNNAME":"安南區","LI":"溪東里","LIN":"9鄰","STREET":"府安路","SECT":"五段","MAREA":" ","LANE":"１１巷","ALLEY":" ","HOUSE_NO":"１６號","E_COORD97":168476.13,"N_COORD97":2547273.52,"ADDRESS":"府安路五段１１巷１６號","OBJECTID":381869},"geometry":{"x":168476.12999999989,"y":2547273.5199999996}},{"attributes":{"ID":381880,"DIS_CODE":0,"TOWNNAME":"安南區","LI":"溪東里","LIN":"9鄰","STREET":"府安路","SECT":"五段","MAREA":" ","LANE":"１１巷","ALLEY":" ","HOUSE_NO":"１８號","E_COORD97":168476.13,"N_COORD97":2547277.9500000002,"ADDRESS":"府安路五段１１巷１８號","OBJECTID":381870},"geometry":{"x":168476.12999999989,"y":2547277.9499999993}},{"attributes":{"ID":381881,"DIS_CODE":0,"TOWNNAME":"安南區","LI":"溪東里","LIN":"9鄰","STREET":"府安路","SECT":"五段","MAREA":" ","LANE":"１１巷","ALLEY":" ","HOUSE_NO":"１９號","E_COORD97":168451.88,"N_COORD97":2547280.0800000001,"ADDRESS":"府安路五段１１巷１９號","OBJECTID":381871},"geometry":{"x":168451.88000000082,"y":2547280.0800000019}},{"attributes":{"ID":381882,"DIS_CODE":0,"TOWNNAME":"安南區","LI":"溪東里","LIN":"9鄰","STREET":"府安路","SECT":"五段","MAREA":" ","LANE":"１１巷","ALLEY":" ","HOUSE_NO":"１號","E_COORD97":168459.53,"N_COORD97":2547235.5099999998,"ADDRESS":"府安路五段１１巷１號","OBJECTID":381872},"geometry":{"x":168459.53000000119,"y":2547235.5100000016}},{"attributes":{"ID":381883,"DIS_CODE":0,"TOWNNAME":"安南區","LI":"溪東里","LIN":"9鄰","STREET":"府安路","SECT":"五段","MAREA":" ","LANE":"１１巷","ALLEY":" ","HOUSE_NO":"２０號","E_COORD97":168474.20999999999,"N_COORD97":2547282.5699999998,"ADDRESS":"府安路五段１１巷２０號","OBJECTID":381873},"geometry":{"x":168474.20999999996,"y":2547282.5700000022}},{"attributes":{"ID":381884,"DIS_CODE":0,"TOWNNAME":"安南區","LI":"溪東里","LIN":"9鄰","STREET":"府安路","SECT":"五段","MAREA":" ","LANE":"１１巷","ALLEY":" ","HOUSE_NO":"２１號","E_COORD97":168451.22,"N_COORD97":2547284.8900000001,"ADDRESS":"府安路五段１１巷２１號","OBJECTID":381874},"geometry":{"x":168451.22000000067,"y":2547284.8900000025}},{"attributes":{"ID":381885,"DIS_CODE":0,"TOWNNAME":"安南區","LI":"溪東里","LIN":"9鄰","STREET":"府安路","SECT":"五段","MAREA":" ","LANE":"１１巷","ALLEY":" ","HOUSE_NO":"２２號","E_COORD97":168473.04999999999,"N_COORD97":2547287.3900000001,"ADDRESS":"府安路五段１１巷２２號","OBJECTID":381875},"geometry":{"x":168473.04999999981,"y":2547287.3900000043}},{"attributes":{"ID":381886,"DIS_CODE":0,"TOWNNAME":"安南區","LI":"溪東里","LIN":"9鄰","STREET":"府安路","SECT":"五段","MAREA":" ","LANE":"１１巷","ALLEY":" ","HOUSE_NO":"２３號","E_COORD97":168450.32999999999,"N_COORD97":2547289.3500000001,"ADDRESS":"府安路五段１１巷２３號","OBJECTID":381876},"geometry":{"x":168450.33000000101,"y":2547289.3499999996}},{"attributes":{"ID":381887,"DIS_CODE":0,"TOWNNAME":"安南區","LI":"溪東里","LIN":"9鄰","STREET":"府安路","SECT":"五段","MAREA":" ","LANE":"１１巷","ALLEY":" ","HOUSE_NO":"２４號","E_COORD97":168473.63,"N_COORD97":2547294.3199999998,"ADDRESS":"府安路五段１１巷２４號","OBJECTID":381877},"geometry":{"x":168473.63000000082,"y":2547294.320000004}},{"attributes":{"ID":381888,"DIS_CODE":0,"TOWNNAME":"安南區","LI":"溪東里","LIN":"9鄰","STREET":"府安路","SECT":"五段","MAREA":" ","LANE":"１１巷","ALLEY":" ","HOUSE_NO":"２５號","E_COORD97":168448.53,"N_COORD97":2547296.8500000001,"ADDRESS":"府安路五段１１巷２５號","OBJECTID":381878},"geometry":{"x":168448.53000000026,"y":2547296.8500000034}},{"attributes":{"ID":381889,"DIS_CODE":0,"TOWNNAME":"安南區","LI":"溪東里","LIN":"9鄰","STREET":"府安路","SECT":"五段","MAREA":" ","LANE":"１１巷","ALLEY":" ","HOUSE_NO":"３號","E_COORD97":168458.20000000001,"N_COORD97":2547240.1600000001,"ADDRESS":"府安路五段１１巷３號","OBJECTID":381879},"geometry":{"x":168458.20000000112,"y":2547240.1600000001}},{"attributes":{"ID":381890,"DIS_CODE":0,"TOWNNAME":"安南區","LI":"溪東里","LIN":"9鄰","STREET":"府安路","SECT":"五段","MAREA":" ","LANE":"１１巷","ALLEY":" ","HOUSE_NO":"５號","E_COORD97":168458.04000000001,"N_COORD97":2547244.4700000002,"ADDRESS":"府安路五段１１巷５號","OBJECTID":381880},"geometry":{"x":168458.04000000004,"y":2547244.4700000007}},{"attributes":{"ID":381891,"DIS_CODE":0,"TOWNNAME":"安南區","LI":"溪東里","LIN":"9鄰","STREET":"府安路","SECT":"五段","MAREA":" ","LANE":"１１巷","ALLEY":" ","HOUSE_NO":"６號","E_COORD97":168480.39999999999,"N_COORD97":2547248.5699999998,"ADDRESS":"府安路五段１１巷６號","OBJECTID":381881},"geometry":{"x":168480.39999999944,"y":2547248.570000004}},{"attributes":{"ID":381892,"DIS_CODE":0,"TOWNNAME":"安南區","LI":"溪東里","LIN":"9鄰","STREET":"府安路","SECT":"五段","MAREA":" ","LANE":"１１巷","ALLEY":" ","HOUSE_NO":"７號","E_COORD97":168456.70999999999,"N_COORD97":2547249.29,"ADDRESS":"府安路五段１１巷７號","OBJECTID":381882},"geometry":{"x":168456.71000000089,"y":2547249.290000001}},{"attributes":{"ID":381893,"DIS_CODE":0,"TOWNNAME":"安南區","LI":"溪東里","LIN":"9鄰","STREET":"府安路","SECT":"五段","MAREA":" ","LANE":"１１巷","ALLEY":" ","HOUSE_NO":"８號","E_COORD97":168480.01000000001,"N_COORD97":2547252.7999999998,"ADDRESS":"府安路五段１１巷８號","OBJECTID":381883},"geometry":{"x":168480.00999999978,"y":2547252.8000000007}},{"attributes":{"ID":381894,"DIS_CODE":0,"TOWNNAME":"永康區","LI":"復國里","LIN":"9鄰","STREET":"復國二路","SECT":" ","MAREA":" ","LANE":"８８巷","ALLEY":" ","HOUSE_NO":"７號","E_COORD97":172867.45000000001,"N_COORD97":2545207.7799999998,"ADDRESS":"復國二路８８巷７號","OBJECTID":381884},"geometry":{"x":172867.45000000112,"y":2545207.7799999993}},{"attributes":{"ID":381895,"DIS_CODE":0,"TOWNNAME":"永康區","LI":"復國里","LIN":"9鄰","STREET":"復國二路","SECT":" ","MAREA":" ","LANE":"８８巷","ALLEY":" ","HOUSE_NO":"８號之２","E_COORD97":172892.04000000001,"N_COORD97":2545158.29,"ADDRESS":"復國二路８８巷８號之２","OBJECTID":381885},"geometry":{"x":172892.04000000097,"y":2545158.290000001}},{"attributes":{"ID":381896,"DIS_CODE":0,"TOWNNAME":"永康區","LI":"勝利里","LIN":"9鄰","STREET":"勝利街","SECT":" ","MAREA":" ","LANE":"５１巷","ALLEY":" ","HOUSE_NO":"３號","E_COORD97":171297.41,"N_COORD97":2544669.7599999998,"ADDRESS":"勝利街５１巷３號","OBJECTID":381886},"geometry":{"x":171297.41000000015,"y":2544669.7600000035}},{"attributes":{"ID":381897,"DIS_CODE":0,"TOWNNAME":"永康區","LI":"復國里","LIN":"9鄰","STREET":"復國二路","SECT":" ","MAREA":" ","LANE":"９０巷","ALLEY":" ","HOUSE_NO":"６號","E_COORD97":172864.32000000001,"N_COORD97":2545228.9100000001,"ADDRESS":"復國二路９０巷６號","OBJECTID":381887},"geometry":{"x":172864.3200000003,"y":2545228.910000002}},{"attributes":{"ID":381898,"DIS_CODE":0,"TOWNNAME":"永康區","LI":"復國里","LIN":"9鄰","STREET":"復國二路","SECT":" ","MAREA":" ","LANE":"９０巷","ALLEY":" ","HOUSE_NO":"４號","E_COORD97":172858.79000000001,"N_COORD97":2545229.4100000001,"ADDRESS":"復國二路９０巷４號","OBJECTID":381888},"geometry":{"x":172858.79000000004,"y":2545229.410000002}},{"attributes":{"ID":381899,"DIS_CODE":0,"TOWNNAME":"永康區","LI":"復國里","LIN":"9鄰","STREET":"復國二路","SECT":" ","MAREA":" ","LANE":"８８巷","ALLEY":" ","HOUSE_NO":"８之３號","E_COORD97":172891.32999999999,"N_COORD97":2545152.29,"ADDRESS":"復國二路８８巷８之３號","OBJECTID":381889},"geometry":{"x":172891.33000000007,"y":2545152.2899999991}},{"attributes":{"ID":381900,"DIS_CODE":0,"TOWNNAME":"永康區","LI":"復國里","LIN":"9鄰","STREET":"復國二路","SECT":" ","MAREA":" ","LANE":"８８巷","ALLEY":" ","HOUSE_NO":"５號","E_COORD97":172861.84,"N_COORD97":2545208.5299999998,"ADDRESS":"復國二路８８巷５號","OBJECTID":381890},"geometry":{"x":172861.83999999985,"y":2545208.5299999993}},{"attributes":{"ID":381901,"DIS_CODE":0,"TOWNNAME":"永康區","LI":"復國里","LIN":"9鄰","STREET":"復國二路","SECT":" ","MAREA":" ","LANE":"８８巷","ALLEY":" ","HOUSE_NO":"１號","E_COORD97":172850.79000000001,"N_COORD97":2545210.0299999998,"ADDRESS":"復國二路８８巷１號","OBJECTID":381891},"geometry":{"x":172850.79000000004,"y":2545210.0300000031}},{"attributes":{"ID":381902,"DIS_CODE":0,"TOWNNAME":"永康區","LI":"復國里","LIN":"9鄰","STREET":"復國二路","SECT":" ","MAREA":" ","LANE":"６９巷","ALLEY":" ","HOUSE_NO":"６號","E_COORD97":172826.64999999999,"N_COORD97":2545235.02,"ADDRESS":"復國二路６９巷６號","OBJECTID":381892},"geometry":{"x":172826.65000000037,"y":2545235.0200000014}},{"attributes":{"ID":381903,"DIS_CODE":0,"TOWNNAME":"永康區","LI":"大橋里","LIN":"9鄰","STREET":"大橋一街","SECT":" ","MAREA":" ","LANE":"２４７巷","ALLEY":" ","HOUSE_NO":"１３１號","E_COORD97":171078.95999999999,"N_COORD97":2546960.9399999999,"ADDRESS":"大橋一街２４７巷１３１號","OBJECTID":381893},"geometry":{"x":171078.96000000089,"y":2546960.9400000013}},{"attributes":{"ID":381904,"DIS_CODE":0,"TOWNNAME":"永康區","LI":"正強里","LIN":"9鄰","STREET":"正義街","SECT":" ","MAREA":" ","LANE":"１２６巷","ALLEY":" ","HOUSE_NO":"２５號","E_COORD97":173380.35000000001,"N_COORD97":2547596.9199999999,"ADDRESS":"正義街１２６巷２５號","OBJECTID":381894},"geometry":{"x":173380.34999999963,"y":2547596.9199999999}},{"attributes":{"ID":381905,"DIS_CODE":0,"TOWNNAME":"東區","LI":"仁和里","LIN":"9鄰","STREET":"仁和路","SECT":" ","MAREA":" ","LANE":"１１１巷","ALLEY":" ","HOUSE_NO":"１０１號之１","E_COORD97":171643.26000000001,"N_COORD97":2541304.6099999999,"ADDRESS":"仁和路１１１巷１０１號之１","OBJECTID":381895},"geometry":{"x":171643.25999999978,"y":2541304.6100000013}},{"attributes":{"ID":381906,"DIS_CODE":0,"TOWNNAME":"東區","LI":"仁和里","LIN":"9鄰","STREET":"仁和路","SECT":" ","MAREA":" ","LANE":"１１１巷","ALLEY":" ","HOUSE_NO":"１０１號之２","E_COORD97":171649.37,"N_COORD97":2541305.8799999999,"ADDRESS":"仁和路１１１巷１０１號之２","OBJECTID":381896},"geometry":{"x":171649.37000000104,"y":2541305.8800000008}},{"attributes":{"ID":381907,"DIS_CODE":0,"TOWNNAME":"東區","LI":"德高里","LIN":"9鄰","STREET":"仁和路","SECT":" ","MAREA":" ","LANE":"２０８巷","ALLEY":" ","HOUSE_NO":"４８號","E_COORD97":171440.87,"N_COORD97":2540934.52,"ADDRESS":"仁和路２０８巷４８號","OBJECTID":381897},"geometry":{"x":171440.87000000104,"y":2540934.5199999996}},{"attributes":{"ID":381908,"DIS_CODE":0,"TOWNNAME":"東區","LI":"德高里","LIN":"9鄰","STREET":"仁和路","SECT":" ","MAREA":" ","LANE":"２０８巷","ALLEY":" ","HOUSE_NO":"５０號","E_COORD97":171437.81,"N_COORD97":2540930.96,"ADDRESS":"仁和路２０８巷５０號","OBJECTID":381898},"geometry":{"x":171437.80999999959,"y":2540930.9600000028}},{"attributes":{"ID":381909,"DIS_CODE":0,"TOWNNAME":"東區","LI":"德高里","LIN":"9鄰","STREET":"仁和路","SECT":" ","MAREA":" ","LANE":"２０８巷","ALLEY":" ","HOUSE_NO":"５４號","E_COORD97":171430.29000000001,"N_COORD97":2540924.71,"ADDRESS":"仁和路２０８巷５４號","OBJECTID":381899},"geometry":{"x":171430.29000000004,"y":2540924.709999999}},{"attributes":{"ID":381910,"DIS_CODE":0,"TOWNNAME":"東區","LI":"德高里","LIN":"9鄰","STREET":"仁和路","SECT":" ","MAREA":" ","LANE":"２０８巷","ALLEY":" ","HOUSE_NO":"５６號","E_COORD97":171428.04999999999,"N_COORD97":2540919.54,"ADDRESS":"仁和路２０８巷５６號","OBJECTID":381900},"geometry":{"x":171428.04999999981,"y":2540919.5399999991}},{"attributes":{"ID":381911,"DIS_CODE":0,"TOWNNAME":"東區","LI":"德高里","LIN":"9鄰","STREET":"仁和路","SECT":" ","MAREA":" ","LANE":"２０８巷","ALLEY":" ","HOUSE_NO":"５８號","E_COORD97":171424.73999999999,"N_COORD97":2540916.8700000001,"ADDRESS":"仁和路２０８巷５８號","OBJECTID":381901},"geometry":{"x":171424.74000000115,"y":2540916.870000001}},{"attributes":{"ID":381912,"DIS_CODE":0,"TOWNNAME":"東區","LI":"德高里","LIN":"9鄰","STREET":"崇善東路","SECT":" ","MAREA":" ","LANE":"１００巷","ALLEY":" ","HOUSE_NO":"１０號","E_COORD97":171421.42000000001,"N_COORD97":2541005.79,"ADDRESS":"崇善東路１００巷１０號","OBJECTID":381902},"geometry":{"x":171421.42000000086,"y":2541005.7899999991}},{"attributes":{"ID":381913,"DIS_CODE":0,"TOWNNAME":"東區","LI":"德高里","LIN":"9鄰","STREET":"崇善東路","SECT":" ","MAREA":" ","LANE":"１００巷","ALLEY":" ","HOUSE_NO":"１２號","E_COORD97":171418.06,"N_COORD97":2541003.0800000001,"ADDRESS":"崇善東路１００巷１２號","OBJECTID":381903},"geometry":{"x":171418.06000000145,"y":2541003.0800000038}},{"attributes":{"ID":381914,"DIS_CODE":0,"TOWNNAME":"東區","LI":"德高里","LIN":"9鄰","STREET":"崇善東路","SECT":" ","MAREA":" ","LANE":"１００巷","ALLEY":" ","HOUSE_NO":"１４號","E_COORD97":171414.31,"N_COORD97":2541000.8900000001,"ADDRESS":"崇善東路１００巷１４號","OBJECTID":381904},"geometry":{"x":171414.30999999959,"y":2541000.8900000006}},{"attributes":{"ID":381915,"DIS_CODE":0,"TOWNNAME":"東區","LI":"德高里","LIN":"9鄰","STREET":"崇善東路","SECT":" ","MAREA":" ","LANE":"１００巷","ALLEY":" ","HOUSE_NO":"１８號","E_COORD97":171408.37,"N_COORD97":2540987.98,"ADDRESS":"崇善東路１００巷１８號","OBJECTID":381905},"geometry":{"x":171408.37000000104,"y":2540987.9800000023}},{"attributes":{"ID":381916,"DIS_CODE":0,"TOWNNAME":"東區","LI":"德高里","LIN":"9鄰","STREET":"崇善東路","SECT":" ","MAREA":" ","LANE":"１００巷","ALLEY":" ","HOUSE_NO":"２０號","E_COORD97":171415.09,"N_COORD97":2540981.6499999999,"ADDRESS":"崇善東路１００巷２０號","OBJECTID":381906},"geometry":{"x":171415.09000000078,"y":2540981.6500000004}},{"attributes":{"ID":381917,"DIS_CODE":0,"TOWNNAME":"東區","LI":"德高里","LIN":"9鄰","STREET":"崇善東路","SECT":" ","MAREA":" ","LANE":"１００巷","ALLEY":" ","HOUSE_NO":"２２號","E_COORD97":171430.59,"N_COORD97":2540998.1699999999,"ADDRESS":"崇善東路１００巷２２號","OBJECTID":381907},"geometry":{"x":171430.59000000078,"y":2540998.1699999999}},{"attributes":{"ID":381918,"DIS_CODE":0,"TOWNNAME":"東區","LI":"德高里","LIN":"9鄰","STREET":"崇善東路","SECT":" ","MAREA":" ","LANE":"１００巷","ALLEY":" ","HOUSE_NO":"２８號","E_COORD97":171428.76000000001,"N_COORD97":2540973.46,"ADDRESS":"崇善東路１００巷２８號","OBJECTID":381908},"geometry":{"x":171428.76000000164,"y":2540973.4600000009}},{"attributes":{"ID":381919,"DIS_CODE":0,"TOWNNAME":"東區","LI":"德高里","LIN":"9鄰","STREET":"崇善東路","SECT":" ","MAREA":" ","LANE":"１００巷","ALLEY":" ","HOUSE_NO":"２號","E_COORD97":171430.20999999999,"N_COORD97":2541015.0800000001,"ADDRESS":"崇善東路１００巷２號","OBJECTID":381909},"geometry":{"x":171430.20999999996,"y":2541015.0800000001}},{"attributes":{"ID":381920,"DIS_CODE":0,"TOWNNAME":"東區","LI":"德高里","LIN":"9鄰","STREET":"崇善東路","SECT":" ","MAREA":" ","LANE":"１００巷","ALLEY":" ","HOUSE_NO":"３０號","E_COORD97":171430.76000000001,"N_COORD97":2540969.3999999999,"ADDRESS":"崇善東路１００巷３０號","OBJECTID":381910},"geometry":{"x":171430.76000000071,"y":2540969.4000000004}},{"attributes":{"ID":381921,"DIS_CODE":0,"TOWNNAME":"東區","LI":"德高里","LIN":"9鄰","STREET":"崇善東路","SECT":" ","MAREA":" ","LANE":"１００巷","ALLEY":" ","HOUSE_NO":"３４號","E_COORD97":171438.76999999999,"N_COORD97":2540959.3900000001,"ADDRESS":"崇善東路１００巷３４號","OBJECTID":381911},"geometry":{"x":171438.77000000142,"y":2540959.3900000006}},{"attributes":{"ID":381922,"DIS_CODE":0,"TOWNNAME":"東區","LI":"德高里","LIN":"9鄰","STREET":"崇善東路","SECT":" ","MAREA":" ","LANE":"１００巷","ALLEY":" ","HOUSE_NO":"８號","E_COORD97":171424.64999999999,"N_COORD97":2541008.2400000002,"ADDRESS":"崇善東路１００巷８號","OBJECTID":381912},"geometry":{"x":171424.65000000037,"y":2541008.2400000002}},{"attributes":{"ID":381923,"DIS_CODE":0,"TOWNNAME":"東區","LI":"德高里","LIN":"9鄰","STREET":"崇善東路","SECT":" ","MAREA":" ","LANE":"１００巷","ALLEY":" ","HOUSE_NO":"６號","E_COORD97":171427.35999999999,"N_COORD97":2541011.4700000002,"ADDRESS":"崇善東路１００巷６號","OBJECTID":381913},"geometry":{"x":171427.36000000127,"y":2541011.4700000025}},{"attributes":{"ID":381924,"DIS_CODE":0,"TOWNNAME":"東區","LI":"德高里","LIN":"9鄰","STREET":"崇善東路","SECT":" ","MAREA":" ","LANE":"１００巷","ALLEY":" ","HOUSE_NO":"１６號","E_COORD97":171402.29999999999,"N_COORD97":2540992.8300000001,"ADDRESS":"崇善東路１００巷１６號","OBJECTID":381914},"geometry":{"x":171402.29999999981,"y":2540992.8300000001}},{"attributes":{"ID":381925,"DIS_CODE":0,"TOWNNAME":"東區","LI":"德高里","LIN":"9鄰","STREET":"崇善東路","SECT":" ","MAREA":" ","LANE":"１００巷","ALLEY":" ","HOUSE_NO":"２６號","E_COORD97":171429.78,"N_COORD97":2540984.6699999999,"ADDRESS":"崇善東路１００巷２６號","OBJECTID":381915},"geometry":{"x":171429.78000000119,"y":2540984.6699999999}},{"attributes":{"ID":381926,"DIS_CODE":0,"TOWNNAME":"東區","LI":"德高里","LIN":"9鄰","STREET":"崇善東路","SECT":" ","MAREA":" ","LANE":"１００巷","ALLEY":" ","HOUSE_NO":"３２號","E_COORD97":171435.37,"N_COORD97":2540963.7999999998,"ADDRESS":"崇善東路１００巷３２號","OBJECTID":381916},"geometry":{"x":171435.37000000104,"y":2540963.8000000007}},{"attributes":{"ID":381927,"DIS_CODE":0,"TOWNNAME":"東區","LI":"關聖里","LIN":"9鄰","STREET":"裕農路","SECT":" ","MAREA":" ","LANE":"７２６巷","ALLEY":" ","HOUSE_NO":"１６號","E_COORD97":171867.51000000001,"N_COORD97":2543098.3500000001,"ADDRESS":"裕農路７２６巷１６號","OBJECTID":381917},"geometry":{"x":171867.50999999978,"y":2543098.3499999996}},{"attributes":{"ID":381928,"DIS_CODE":0,"TOWNNAME":"東區","LI":"關聖里","LIN":"9鄰","STREET":"裕農路","SECT":" ","MAREA":" ","LANE":"７２６巷","ALLEY":" ","HOUSE_NO":"３４號","E_COORD97":171851.06,"N_COORD97":2543080.8900000001,"ADDRESS":"裕農路７２６巷３４號","OBJECTID":381918},"geometry":{"x":171851.06000000052,"y":2543080.8900000025}},{"attributes":{"ID":381929,"DIS_CODE":0,"TOWNNAME":"東區","LI":"關聖里","LIN":"9鄰","STREET":"裕農路","SECT":" ","MAREA":" ","LANE":"７２６巷","ALLEY":" ","HOUSE_NO":"３６號","E_COORD97":171846.95000000001,"N_COORD97":2543080.2799999998,"ADDRESS":"裕農路７２６巷３６號","OBJECTID":381919},"geometry":{"x":171846.95000000112,"y":2543080.2800000012}},{"attributes":{"ID":381930,"DIS_CODE":0,"TOWNNAME":"東區","LI":"關聖里","LIN":"9鄰","STREET":"裕農路","SECT":" ","MAREA":" ","LANE":"７２６巷","ALLEY":" ","HOUSE_NO":"３８號","E_COORD97":171846.73999999999,"N_COORD97":2543059,"ADDRESS":"裕農路７２６巷３８號","OBJECTID":381920},"geometry":{"x":171846.74000000115,"y":2543059.0000000019}},{"attributes":{"ID":381931,"DIS_CODE":0,"TOWNNAME":"東區","LI":"關聖里","LIN":"9鄰","STREET":"裕農路","SECT":" ","MAREA":" ","LANE":"７２６巷","ALLEY":" ","HOUSE_NO":"４０號","E_COORD97":171850.82999999999,"N_COORD97":2543055.9399999999,"ADDRESS":"裕農路７２６巷４０號","OBJECTID":381921},"geometry":{"x":171850.83000000194,"y":2543055.9400000013}},{"attributes":{"ID":381932,"DIS_CODE":0,"TOWNNAME":"東區","LI":"關聖里","LIN":"9鄰","STREET":"裕農路","SECT":" ","MAREA":" ","LANE":"７２６巷","ALLEY":" ","HOUSE_NO":"４２號","E_COORD97":171854.41,"N_COORD97":2543053.5899999999,"ADDRESS":"裕農路７２６巷４２號","OBJECTID":381922},"geometry":{"x":171854.41000000108,"y":2543053.589999998}},{"attributes":{"ID":381933,"DIS_CODE":0,"TOWNNAME":"東區","LI":"關聖里","LIN":"9鄰","STREET":"裕農路","SECT":" ","MAREA":" ","LANE":"７２６巷","ALLEY":" ","HOUSE_NO":"４６號","E_COORD97":171857.98999999999,"N_COORD97":2543059.9199999999,"ADDRESS":"裕農路７２６巷４６號","OBJECTID":381923},"geometry":{"x":171857.99000000022,"y":2543059.9200000018}},{"attributes":{"ID":381934,"DIS_CODE":0,"TOWNNAME":"東區","LI":"關聖里","LIN":"9鄰","STREET":"裕農路","SECT":" ","MAREA":" ","LANE":"７２６巷","ALLEY":" ","HOUSE_NO":"４８號","E_COORD97":171867.48999999999,"N_COORD97":2543063.0899999999,"ADDRESS":"裕農路７２６巷４８號","OBJECTID":381924},"geometry":{"x":171867.49000000115,"y":2543063.0899999999}},{"attributes":{"ID":381935,"DIS_CODE":0,"TOWNNAME":"東區","LI":"關聖里","LIN":"9鄰","STREET":"裕農路","SECT":" ","MAREA":" ","LANE":"７２６巷","ALLEY":" ","HOUSE_NO":"５０號","E_COORD97":171867.39000000001,"N_COORD97":2543059,"ADDRESS":"裕農路７２６巷５０號","OBJECTID":381925},"geometry":{"x":171867.3900000006,"y":2543059.0000000019}},{"attributes":{"ID":381936,"DIS_CODE":0,"TOWNNAME":"東區","LI":"關聖里","LIN":"9鄰","STREET":"裕農路","SECT":" ","MAREA":" ","LANE":"７２６巷","ALLEY":" ","HOUSE_NO":"５２號","E_COORD97":171867.39000000001,"N_COORD97":2543054.9199999999,"ADDRESS":"裕農路７２６巷５２號","OBJECTID":381926},"geometry":{"x":171867.3900000006,"y":2543054.9199999981}},{"attributes":{"ID":381937,"DIS_CODE":0,"TOWNNAME":"東區","LI":"關聖里","LIN":"9鄰","STREET":"裕農路","SECT":" ","MAREA":" ","LANE":"７２６巷","ALLEY":" ","HOUSE_NO":"５４號","E_COORD97":171867.19,"N_COORD97":2543050.5299999998,"ADDRESS":"裕農路７２６巷５４號","OBJECTID":381927},"geometry":{"x":171867.18999999948,"y":2543050.5300000031}},{"attributes":{"ID":381938,"DIS_CODE":0,"TOWNNAME":"東區","LI":"關聖里","LIN":"9鄰","STREET":"裕農路","SECT":" ","MAREA":" ","LANE":"７２６巷","ALLEY":" ","HOUSE_NO":"１８號","E_COORD97":171868.13,"N_COORD97":2543093.6299999999,"ADDRESS":"裕農路７２６巷１８號","OBJECTID":381928},"geometry":{"x":171868.12999999989,"y":2543093.6300000008}},{"attributes":{"ID":381939,"DIS_CODE":0,"TOWNNAME":"東區","LI":"關聖里","LIN":"9鄰","STREET":"裕農路","SECT":" ","MAREA":" ","LANE":"７２６巷","ALLEY":" ","HOUSE_NO":"５６號","E_COORD97":171867.19,"N_COORD97":2543046.4399999999,"ADDRESS":"裕農路７２６巷５６號","OBJECTID":381929},"geometry":{"x":171867.18999999948,"y":2543046.4399999995}},{"attributes":{"ID":381940,"DIS_CODE":0,"TOWNNAME":"東區","LI":"關聖里","LIN":"9鄰","STREET":"裕農路","SECT":" ","MAREA":" ","LANE":"７２６巷","ALLEY":" ","HOUSE_NO":"５８號","E_COORD97":171867.07000000001,"N_COORD97":2543041.7599999998,"ADDRESS":"裕農路７２６巷５８號","OBJECTID":381930},"geometry":{"x":171867.07000000123,"y":2543041.7599999998}},{"attributes":{"ID":381941,"DIS_CODE":0,"TOWNNAME":"東區","LI":"關聖里","LIN":"9鄰","STREET":"裕農路","SECT":" ","MAREA":" ","LANE":"７２６巷","ALLEY":" ","HOUSE_NO":"６０號","E_COORD97":171866.76999999999,"N_COORD97":2543037.7200000002,"ADDRESS":"裕農路７２６巷６０號","OBJECTID":381931},"geometry":{"x":171866.76999999955,"y":2543037.7200000025}},{"attributes":{"ID":381942,"DIS_CODE":0,"TOWNNAME":"東區","LI":"關聖里","LIN":"9鄰","STREET":"裕農路","SECT":" ","MAREA":" ","LANE":"７２６巷","ALLEY":" ","HOUSE_NO":"６２號","E_COORD97":171866.32000000001,"N_COORD97":2543033.8599999999,"ADDRESS":"裕農路７２６巷６２號","OBJECTID":381932},"geometry":{"x":171866.32000000216,"y":2543033.8599999994}},{"attributes":{"ID":381943,"DIS_CODE":0,"TOWNNAME":"東區","LI":"關聖里","LIN":"9鄰","STREET":"裕農路","SECT":" ","MAREA":" ","LANE":"７２６巷","ALLEY":" ","HOUSE_NO":"６４號","E_COORD97":171858.31,"N_COORD97":2543041.3700000001,"ADDRESS":"裕農路７２６巷６４號","OBJECTID":381933},"geometry":{"x":171858.30999999959,"y":2543041.370000001}},{"attributes":{"ID":381944,"DIS_CODE":0,"TOWNNAME":"東區","LI":"關聖里","LIN":"9鄰","STREET":"裕農路","SECT":" ","MAREA":" ","LANE":"７２６巷","ALLEY":" ","HOUSE_NO":"７０號","E_COORD97":171846.89000000001,"N_COORD97":2543043.2799999998,"ADDRESS":"裕農路７２６巷７０號","OBJECTID":381934},"geometry":{"x":171846.8900000006,"y":2543043.2800000012}},{"attributes":{"ID":381945,"DIS_CODE":0,"TOWNNAME":"東區","LI":"關聖里","LIN":"9鄰","STREET":"裕農路","SECT":" ","MAREA":" ","LANE":"７２６巷","ALLEY":" ","HOUSE_NO":"７２號","E_COORD97":171846.14999999999,"N_COORD97":2543014.7599999998,"ADDRESS":"裕農路７２６巷７２號","OBJECTID":381935},"geometry":{"x":171846.1500000013,"y":2543014.7599999998}},{"attributes":{"ID":381946,"DIS_CODE":0,"TOWNNAME":"東區","LI":"關聖里","LIN":"9鄰","STREET":"裕農路","SECT":" ","MAREA":" ","LANE":"７２６巷","ALLEY":" ","HOUSE_NO":"７４號","E_COORD97":171849.98999999999,"N_COORD97":2543016.9300000002,"ADDRESS":"裕農路７２６巷７４號","OBJECTID":381936},"geometry":{"x":171849.99000000115,"y":2543016.9299999997}},{"attributes":{"ID":381947,"DIS_CODE":0,"TOWNNAME":"東區","LI":"關聖里","LIN":"9鄰","STREET":"裕農路","SECT":" ","MAREA":" ","LANE":"７２６巷","ALLEY":" ","HOUSE_NO":"２０號","E_COORD97":171867.51000000001,"N_COORD97":2543089.52,"ADDRESS":"裕農路７２６巷２０號","OBJECTID":381937},"geometry":{"x":171867.50999999978,"y":2543089.5200000014}},{"attributes":{"ID":381948,"DIS_CODE":0,"TOWNNAME":"東區","LI":"關聖里","LIN":"9鄰","STREET":"裕農路","SECT":" ","MAREA":" ","LANE":"７２６巷","ALLEY":" ","HOUSE_NO":"７６號","E_COORD97":171854.20000000001,"N_COORD97":2543014.9500000002,"ADDRESS":"裕農路７２６巷７６號","OBJECTID":381938},"geometry":{"x":171854.20000000112,"y":2543014.9500000011}},{"attributes":{"ID":381949,"DIS_CODE":0,"TOWNNAME":"東區","LI":"關聖里","LIN":"9鄰","STREET":"裕農路","SECT":" ","MAREA":" ","LANE":"７２６巷","ALLEY":" ","HOUSE_NO":"７８號","E_COORD97":171858.23000000001,"N_COORD97":2543016.9300000002,"ADDRESS":"裕農路７２６巷７８號","OBJECTID":381939},"geometry":{"x":171858.23000000045,"y":2543016.9299999997}},{"attributes":{"ID":381950,"DIS_CODE":0,"TOWNNAME":"東區","LI":"關聖里","LIN":"9鄰","STREET":"裕農路","SECT":" ","MAREA":" ","LANE":"７２６巷","ALLEY":" ","HOUSE_NO":"８２號","E_COORD97":171865.72,"N_COORD97":2543020.1200000001,"ADDRESS":"裕農路７２６巷８２號","OBJECTID":381940},"geometry":{"x":171865.71999999974,"y":2543020.120000001}},{"attributes":{"ID":381951,"DIS_CODE":0,"TOWNNAME":"東區","LI":"關聖里","LIN":"9鄰","STREET":"裕農路","SECT":" ","MAREA":" ","LANE":"７２６巷","ALLEY":" ","HOUSE_NO":"８６號","E_COORD97":171866.23999999999,"N_COORD97":2543011.3799999999,"ADDRESS":"裕農路７２６巷８６號","OBJECTID":381941},"geometry":{"x":171866.24000000022,"y":2543011.3800000008}},{"attributes":{"ID":381952,"DIS_CODE":0,"TOWNNAME":"東區","LI":"關聖里","LIN":"9鄰","STREET":"裕農路","SECT":" ","MAREA":" ","LANE":"７２６巷","ALLEY":" ","HOUSE_NO":"８８號","E_COORD97":171864.84,"N_COORD97":2543006.8300000001,"ADDRESS":"裕農路７２６巷８８號","OBJECTID":381942},"geometry":{"x":171864.83999999985,"y":2543006.8300000001}},{"attributes":{"ID":381953,"DIS_CODE":0,"TOWNNAME":"東區","LI":"關聖里","LIN":"9鄰","STREET":"裕農路","SECT":" ","MAREA":" ","LANE":"７２６巷","ALLEY":" ","HOUSE_NO":"９０號","E_COORD97":171864.48999999999,"N_COORD97":2543002.1099999999,"ADDRESS":"裕農路７２６巷９０號","OBJECTID":381943},"geometry":{"x":171864.49000000022,"y":2543002.1099999975}},{"attributes":{"ID":381954,"DIS_CODE":0,"TOWNNAME":"東區","LI":"關聖里","LIN":"9鄰","STREET":"裕農路","SECT":" ","MAREA":" ","LANE":"７２６巷","ALLEY":" ","HOUSE_NO":"９２號","E_COORD97":171863.97,"N_COORD97":2542997.73,"ADDRESS":"裕農路７２６巷９２號","OBJECTID":381944},"geometry":{"x":171863.96999999974,"y":2542997.7300000004}},{"attributes":{"ID":381955,"DIS_CODE":0,"TOWNNAME":"東區","LI":"關聖里","LIN":"9鄰","STREET":"裕農路","SECT":" ","MAREA":" ","LANE":"７２６巷","ALLEY":" ","HOUSE_NO":"９４號","E_COORD97":171855.97,"N_COORD97":2543004,"ADDRESS":"裕農路７２６巷９４號","OBJECTID":381945},"geometry":{"x":171855.96999999974,"y":2543004.0000000037}},{"attributes":{"ID":381956,"DIS_CODE":0,"TOWNNAME":"東區","LI":"關聖里","LIN":"9鄰","STREET":"裕農路","SECT":" ","MAREA":" ","LANE":"７２６巷","ALLEY":" ","HOUSE_NO":"２２號","E_COORD97":171867.51000000001,"N_COORD97":2543085,"ADDRESS":"裕農路７２６巷２２號","OBJECTID":381946},"geometry":{"x":171867.50999999978,"y":2543085.0000000037}},{"attributes":{"ID":381957,"DIS_CODE":0,"TOWNNAME":"東區","LI":"關聖里","LIN":"9鄰","STREET":"裕農路","SECT":" ","MAREA":" ","LANE":"７２６巷","ALLEY":" ","HOUSE_NO":"９６號","E_COORD97":171851.09,"N_COORD97":2543001.0699999998,"ADDRESS":"裕農路７２６巷９６號","OBJECTID":381947},"geometry":{"x":171851.09000000078,"y":2543001.0700000022}},{"attributes":{"ID":381958,"DIS_CODE":0,"TOWNNAME":"東區","LI":"關聖里","LIN":"9鄰","STREET":"裕農路","SECT":" ","MAREA":" ","LANE":"７２６巷","ALLEY":" ","HOUSE_NO":"９８號","E_COORD97":171846.20999999999,"N_COORD97":2543004,"ADDRESS":"裕農路７２６巷９８號","OBJECTID":381948},"geometry":{"x":171846.20999999903,"y":2543004.0000000037}},{"attributes":{"ID":381959,"DIS_CODE":0,"TOWNNAME":"東區","LI":"關聖里","LIN":"9鄰","STREET":"裕農路","SECT":" ","MAREA":" ","LANE":"７２６巷","ALLEY":" ","HOUSE_NO":"１００號","E_COORD97":171846.64999999999,"N_COORD97":2542982.54,"ADDRESS":"裕農路７２６巷１００號","OBJECTID":381949},"geometry":{"x":171846.65000000037,"y":2542982.540000001}},{"attributes":{"ID":381960,"DIS_CODE":0,"TOWNNAME":"東區","LI":"關聖里","LIN":"9鄰","STREET":"裕農路","SECT":" ","MAREA":" ","LANE":"７２６巷","ALLEY":" ","HOUSE_NO":"１０２號","E_COORD97":171850.82000000001,"N_COORD97":2542983.6099999999,"ADDRESS":"裕農路７２６巷１０２號","OBJECTID":381950},"geometry":{"x":171850.8200000003,"y":2542983.6100000013}},{"attributes":{"ID":381961,"DIS_CODE":0,"TOWNNAME":"東區","LI":"關聖里","LIN":"9鄰","STREET":"裕農路","SECT":" ","MAREA":" ","LANE":"７２６巷","ALLEY":" ","HOUSE_NO":"１０４號","E_COORD97":171855.53,"N_COORD97":2542982.7200000002,"ADDRESS":"裕農路７２６巷１０４號","OBJECTID":381951},"geometry":{"x":171855.53000000026,"y":2542982.7200000044}},{"attributes":{"ID":381962,"DIS_CODE":0,"TOWNNAME":"東區","LI":"關聖里","LIN":"9鄰","STREET":"裕農路","SECT":" ","MAREA":" ","LANE":"７２６巷","ALLEY":" ","HOUSE_NO":"１０６號","E_COORD97":171864.17999999999,"N_COORD97":2542988.3700000001,"ADDRESS":"裕農路７２６巷１０６號","OBJECTID":381952},"geometry":{"x":171864.1799999997,"y":2542988.370000001}},{"attributes":{"ID":381963,"DIS_CODE":0,"TOWNNAME":"東區","LI":"關聖里","LIN":"9鄰","STREET":"裕農路","SECT":" ","MAREA":" ","LANE":"７２６巷","ALLEY":" ","HOUSE_NO":"１０８號","E_COORD97":171864.38,"N_COORD97":2542984.3999999999,"ADDRESS":"裕農路７２６巷１０８號","OBJECTID":381953},"geometry":{"x":171864.38000000082,"y":2542984.4000000041}},{"attributes":{"ID":381964,"DIS_CODE":0,"TOWNNAME":"東區","LI":"關聖里","LIN":"9鄰","STREET":"裕農路","SECT":" ","MAREA":" ","LANE":"７２６巷","ALLEY":" ","HOUSE_NO":"１１０號","E_COORD97":171864.07999999999,"N_COORD97":2542979.9199999999,"ADDRESS":"裕農路７２６巷１１０號","OBJECTID":381954},"geometry":{"x":171864.08000000007,"y":2542979.9199999999}},{"attributes":{"ID":381965,"DIS_CODE":0,"TOWNNAME":"東區","LI":"關聖里","LIN":"9鄰","STREET":"裕農路","SECT":" ","MAREA":" ","LANE":"７２６巷","ALLEY":" ","HOUSE_NO":"１１２號","E_COORD97":171868.56,"N_COORD97":2542950.2200000002,"ADDRESS":"裕農路７２６巷１１２號","OBJECTID":381955},"geometry":{"x":171868.55999999959,"y":2542950.2200000025}},{"attributes":{"ID":381966,"DIS_CODE":0,"TOWNNAME":"東區","LI":"關聖里","LIN":"9鄰","STREET":"裕農路","SECT":" ","MAREA":" ","LANE":"７２６巷","ALLEY":" ","HOUSE_NO":"２４號","E_COORD97":171867.51000000001,"N_COORD97":2543081.2999999998,"ADDRESS":"裕農路７２６巷２４號","OBJECTID":381956},"geometry":{"x":171867.50999999978,"y":2543081.3000000026}},{"attributes":{"ID":381967,"DIS_CODE":0,"TOWNNAME":"東區","LI":"關聖里","LIN":"9鄰","STREET":"裕農路","SECT":" ","MAREA":" ","LANE":"７２６巷","ALLEY":" ","HOUSE_NO":"２６號","E_COORD97":171867.10000000001,"N_COORD97":2543076.7799999998,"ADDRESS":"裕農路７２６巷２６號","OBJECTID":381957},"geometry":{"x":171867.10000000149,"y":2543076.7800000012}},{"attributes":{"ID":381968,"DIS_CODE":0,"TOWNNAME":"東區","LI":"關聖里","LIN":"9鄰","STREET":"裕農路","SECT":" ","MAREA":" ","LANE":"７２６巷","ALLEY":" ","HOUSE_NO":"２８號","E_COORD97":171867.92000000001,"N_COORD97":2543073.0800000001,"ADDRESS":"裕農路７２６巷２８號","OBJECTID":381958},"geometry":{"x":171867.91999999993,"y":2543073.0800000001}},{"attributes":{"ID":381969,"DIS_CODE":0,"TOWNNAME":"東區","LI":"關聖里","LIN":"9鄰","STREET":"裕農路","SECT":" ","MAREA":" ","LANE":"７２６巷","ALLEY":" ","HOUSE_NO":"３０號","E_COORD97":171858.67000000001,"N_COORD97":2543076.1699999999,"ADDRESS":"裕農路７２６巷３０號","OBJECTID":381959},"geometry":{"x":171858.67000000086,"y":2543076.1699999999}},{"attributes":{"ID":381970,"DIS_CODE":0,"TOWNNAME":"東區","LI":"關聖里","LIN":"9鄰","STREET":"裕農路","SECT":" ","MAREA":" ","LANE":"７２６巷","ALLEY":" ","HOUSE_NO":"３２號","E_COORD97":171855.17000000001,"N_COORD97":2543079.8599999999,"ADDRESS":"裕農路７２６巷３２號","OBJECTID":381960},"geometry":{"x":171855.17000000179,"y":2543079.8600000013}},{"attributes":{"ID":381971,"DIS_CODE":0,"TOWNNAME":"安南區","LI":"海東里","LIN":"9鄰","STREET":"海佃路","SECT":"二段","MAREA":" ","LANE":"４８３巷","ALLEY":" ","HOUSE_NO":"２之１號","E_COORD97":166671.57999999999,"N_COORD97":2549165.6299999999,"ADDRESS":"海佃路二段４８３巷２之１號","OBJECTID":381961},"geometry":{"x":166671.58000000007,"y":2549165.6300000027}},{"attributes":{"ID":381972,"DIS_CODE":0,"TOWNNAME":"安南區","LI":"國安里","LIN":"9鄰","STREET":"國安街","SECT":" ","MAREA":" ","LANE":"２３６巷","ALLEY":" ","HOUSE_NO":"２２號","E_COORD97":166544.32000000001,"N_COORD97":2547007.1099999999,"ADDRESS":"國安街２３６巷２２號","OBJECTID":381962},"geometry":{"x":166544.3200000003,"y":2547007.1100000013}},{"attributes":{"ID":381973,"DIS_CODE":0,"TOWNNAME":"安南區","LI":"國安里","LIN":"9鄰","STREET":"國安街","SECT":" ","MAREA":" ","LANE":"２３６巷","ALLEY":" ","HOUSE_NO":"２４號","E_COORD97":166543.09,"N_COORD97":2547012.3300000001,"ADDRESS":"國安街２３６巷２４號","OBJECTID":381963},"geometry":{"x":166543.09000000078,"y":2547012.3300000038}},{"attributes":{"ID":381974,"DIS_CODE":0,"TOWNNAME":"安南區","LI":"國安里","LIN":"9鄰","STREET":"國安街","SECT":" ","MAREA":" ","LANE":"２３６巷","ALLEY":" ","HOUSE_NO":"３１號","E_COORD97":166495.45999999999,"N_COORD97":2547021.9399999999,"ADDRESS":"國安街２３６巷３１號","OBJECTID":381964},"geometry":{"x":166495.46000000089,"y":2547021.9400000013}},{"attributes":{"ID":381975,"DIS_CODE":0,"TOWNNAME":"安南區","LI":"國安里","LIN":"9鄰","STREET":"國安街","SECT":" ","MAREA":" ","LANE":"２３６巷","ALLEY":" ","HOUSE_NO":"４４號","E_COORD97":166536.79000000001,"N_COORD97":2547056.6800000002,"ADDRESS":"國安街２３６巷４４號","OBJECTID":381965},"geometry":{"x":166536.79000000097,"y":2547056.6799999997}},{"attributes":{"ID":381976,"DIS_CODE":0,"TOWNNAME":"永康區","LI":"龍潭里","LIN":"32鄰","STREET":"龍國街","SECT":" ","MAREA":" ","LANE":"２４０巷","ALLEY":" ","HOUSE_NO":"２號","E_COORD97":174465.39999999999,"N_COORD97":2548023.8500000001,"ADDRESS":"龍國街２４０巷２號","OBJECTID":381966},"geometry":{"x":174465.40000000037,"y":2548023.8499999996}},{"attributes":{"ID":381977,"DIS_CODE":0,"TOWNNAME":"安南區","LI":"國安里","LIN":"9鄰","STREET":"國安街","SECT":" ","MAREA":" ","LANE":"２３６巷","ALLEY":" ","HOUSE_NO":"５０號","E_COORD97":166534.94,"N_COORD97":2547069.9199999999,"ADDRESS":"國安街２３６巷５０號","OBJECTID":381967},"geometry":{"x":166534.94000000134,"y":2547069.9200000018}},{"attributes":{"ID":381978,"DIS_CODE":0,"TOWNNAME":"安南區","LI":"國安里","LIN":"9鄰","STREET":"國安街","SECT":" ","MAREA":" ","LANE":"２３６巷","ALLEY":" ","HOUSE_NO":"６號","E_COORD97":166551.10999999999,"N_COORD97":2546972.3100000001,"ADDRESS":"國安街２３６巷６號","OBJECTID":381968},"geometry":{"x":166551.11000000034,"y":2546972.3100000042}},{"attributes":{"ID":381979,"DIS_CODE":0,"TOWNNAME":"安南區","LI":"國安里","LIN":"9鄰","STREET":"國安街","SECT":" ","MAREA":" ","LANE":"２３６巷","ALLEY":" ","HOUSE_NO":"７號","E_COORD97":166503.66,"N_COORD97":2546968.3300000001,"ADDRESS":"國安街２３６巷７號","OBJECTID":381969},"geometry":{"x":166503.66000000201,"y":2546968.3300000038}},{"attributes":{"ID":381980,"DIS_CODE":0,"TOWNNAME":"安南區","LI":"國安里","LIN":"9鄰","STREET":"國安街","SECT":" ","MAREA":" ","LANE":"２３６巷","ALLEY":" ","HOUSE_NO":"８號","E_COORD97":166550.56,"N_COORD97":2546976.5600000001,"ADDRESS":"國安街２３６巷８號","OBJECTID":381970},"geometry":{"x":166550.55999999959,"y":2546976.5600000005}},{"attributes":{"ID":381981,"DIS_CODE":0,"TOWNNAME":"安南區","LI":"淵西里","LIN":"9鄰","STREET":"安中路","SECT":"四段","MAREA":" ","LANE":"２９０巷","ALLEY":" ","HOUSE_NO":"１９號","E_COORD97":164559.82000000001,"N_COORD97":2550242.2799999998,"ADDRESS":"安中路四段２９０巷１９號","OBJECTID":381971},"geometry":{"x":164559.8200000003,"y":2550242.2799999993}},{"attributes":{"ID":381982,"DIS_CODE":0,"TOWNNAME":"安南區","LI":"淵西里","LIN":"9鄰","STREET":"安中路","SECT":"四段","MAREA":" ","LANE":"２９０巷","ALLEY":" ","HOUSE_NO":"２５號","E_COORD97":164575.28,"N_COORD97":2550239.1000000001,"ADDRESS":"安中路四段２９０巷２５號","OBJECTID":381972},"geometry":{"x":164575.28000000026,"y":2550239.1000000015}},{"attributes":{"ID":381983,"DIS_CODE":0,"TOWNNAME":"安南區","LI":"淵西里","LIN":"9鄰","STREET":"安中路","SECT":"四段","MAREA":" ","LANE":"２９０巷","ALLEY":" ","HOUSE_NO":"３３號","E_COORD97":164590.95999999999,"N_COORD97":2550254.0899999999,"ADDRESS":"安中路四段２９０巷３３號","OBJECTID":381973},"geometry":{"x":164590.96000000183,"y":2550254.0899999999}},{"attributes":{"ID":381984,"DIS_CODE":0,"TOWNNAME":"安南區","LI":"淵西里","LIN":"9鄰","STREET":"安中路","SECT":"四段","MAREA":" ","LANE":"２９０巷","ALLEY":" ","HOUSE_NO":"４３號","E_COORD97":164618.23999999999,"N_COORD97":2550261.1200000001,"ADDRESS":"安中路四段２９０巷４３號","OBJECTID":381974},"geometry":{"x":164618.24000000209,"y":2550261.1200000029}},{"attributes":{"ID":381985,"DIS_CODE":0,"TOWNNAME":"安南區","LI":"淵西里","LIN":"9鄰","STREET":"安中路","SECT":"四段","MAREA":" ","LANE":"２９０巷","ALLEY":" ","HOUSE_NO":"４７號","E_COORD97":164621.64999999999,"N_COORD97":2550284.0499999998,"ADDRESS":"安中路四段２９０巷４７號","OBJECTID":381975},"geometry":{"x":164621.65000000037,"y":2550284.0500000026}},{"attributes":{"ID":381986,"DIS_CODE":0,"TOWNNAME":"安南區","LI":"淵西里","LIN":"9鄰","STREET":"安中路","SECT":"四段","MAREA":" ","LANE":"２９０巷","ALLEY":" ","HOUSE_NO":"５３號","E_COORD97":164640.06,"N_COORD97":2550251.3599999999,"ADDRESS":"安中路四段２９０巷５３號","OBJECTID":381976},"geometry":{"x":164640.05999999959,"y":2550251.3599999994}},{"attributes":{"ID":381987,"DIS_CODE":0,"TOWNNAME":"安南區","LI":"溪頂里","LIN":"9鄰","STREET":"惠安街","SECT":" ","MAREA":" ","LANE":"５１巷","ALLEY":" ","HOUSE_NO":"６２號","E_COORD97":168743.64999999999,"N_COORD97":2547455.4300000002,"ADDRESS":"惠安街５１巷６２號","OBJECTID":381977},"geometry":{"x":168743.6500000013,"y":2547455.4300000034}},{"attributes":{"ID":381988,"DIS_CODE":0,"TOWNNAME":"安南區","LI":"溪墘里","LIN":"9鄰","STREET":"海佃路","SECT":"一段","MAREA":" ","LANE":"２７０巷","ALLEY":" ","HOUSE_NO":"４８號","E_COORD97":167290.79000000001,"N_COORD97":2547420.8100000001,"ADDRESS":"海佃路一段２７０巷４８號","OBJECTID":381978},"geometry":{"x":167290.78999999911,"y":2547420.8100000024}},{"attributes":{"ID":381989,"DIS_CODE":0,"TOWNNAME":"安南區","LI":"安和里","LIN":"9鄰","STREET":"安和路","SECT":"一段","MAREA":" ","LANE":"１８巷","ALLEY":" ","HOUSE_NO":"５號","E_COORD97":169602.10999999999,"N_COORD97":2547425.1200000001,"ADDRESS":"安和路一段１８巷５號","OBJECTID":381979},"geometry":{"x":169602.11000000127,"y":2547425.1200000048}},{"attributes":{"ID":381990,"DIS_CODE":0,"TOWNNAME":"安南區","LI":"安和里","LIN":"9鄰","STREET":"安和路","SECT":"一段","MAREA":" ","LANE":"１８巷","ALLEY":" ","HOUSE_NO":"６號","E_COORD97":169606.19,"N_COORD97":2547427.1600000001,"ADDRESS":"安和路一段１８巷６號","OBJECTID":381980},"geometry":{"x":169606.19000000134,"y":2547427.1600000039}},{"attributes":{"ID":381991,"DIS_CODE":0,"TOWNNAME":"安南區","LI":"安和里","LIN":"9鄰","STREET":"安和路","SECT":"一段","MAREA":" ","LANE":"１８巷","ALLEY":" ","HOUSE_NO":"１３號","E_COORD97":169635.26000000001,"N_COORD97":2547443.8199999998,"ADDRESS":"安和路一段１８巷１３號","OBJECTID":381981},"geometry":{"x":169635.26000000164,"y":2547443.8200000022}},{"attributes":{"ID":381992,"DIS_CODE":0,"TOWNNAME":"安南區","LI":"安和里","LIN":"9鄰","STREET":"安和路","SECT":"一段","MAREA":" ","LANE":"１８巷","ALLEY":" ","HOUSE_NO":"９號","E_COORD97":169618.97,"N_COORD97":2547434.9300000002,"ADDRESS":"安和路一段１８巷９號","OBJECTID":381982},"geometry":{"x":169618.97000000067,"y":2547434.9299999978}},{"attributes":{"ID":381993,"DIS_CODE":0,"TOWNNAME":"安南區","LI":"安和里","LIN":"9鄰","STREET":"安和路","SECT":"一段","MAREA":" ","LANE":"１８巷","ALLEY":" ","HOUSE_NO":"１號","E_COORD97":169591.69,"N_COORD97":2547419.48,"ADDRESS":"安和路一段１８巷１號","OBJECTID":381983},"geometry":{"x":169591.69000000041,"y":2547419.4800000023}},{"attributes":{"ID":381994,"DIS_CODE":0,"TOWNNAME":"安南區","LI":"安和里","LIN":"9鄰","STREET":"安和路","SECT":"一段","MAREA":" ","LANE":"１８巷","ALLEY":" ","HOUSE_NO":"２號","E_COORD97":169594.07000000001,"N_COORD97":2547421.1499999999,"ADDRESS":"安和路一段１８巷２號","OBJECTID":381984},"geometry":{"x":169594.0700000003,"y":2547421.1500000022}},{"attributes":{"ID":381995,"DIS_CODE":0,"TOWNNAME":"安南區","LI":"安和里","LIN":"9鄰","STREET":"安和路","SECT":"一段","MAREA":" ","LANE":"１８巷","ALLEY":" ","HOUSE_NO":"１５號","E_COORD97":169639.51999999999,"N_COORD97":2547446.0499999998,"ADDRESS":"安和路一段１８巷１５號","OBJECTID":381985},"geometry":{"x":169639.51999999955,"y":2547446.0500000026}},{"attributes":{"ID":381996,"DIS_CODE":0,"TOWNNAME":"安南區","LI":"安和里","LIN":"9鄰","STREET":"安和路","SECT":"一段","MAREA":" ","LANE":"１８巷","ALLEY":" ","HOUSE_NO":"７號","E_COORD97":169610.07999999999,"N_COORD97":2547430.1200000001,"ADDRESS":"安和路一段１８巷７號","OBJECTID":381986},"geometry":{"x":169610.08000000101,"y":2547430.1200000029}},{"attributes":{"ID":381997,"DIS_CODE":0,"TOWNNAME":"永康區","LI":"\u25A0行里","LIN":"25鄰","STREET":"\u25A0和街","SECT":" ","MAREA":" ","LANE":"２５２巷","ALLEY":" ","HOUSE_NO":"３號","E_COORD97":171695.63,"N_COORD97":2548343.7400000002,"ADDRESS":"\u25A0和街２５２巷３號","OBJECTID":381987},"geometry":{"x":171695.62999999989,"y":2548343.7400000021}},{"attributes":{"ID":381998,"DIS_CODE":0,"TOWNNAME":"永康區","LI":"龍潭里","LIN":"40鄰","STREET":"國民路","SECT":" ","MAREA":" ","LANE":"２０１巷","ALLEY":" ","HOUSE_NO":"１７號","E_COORD97":174530.07999999999,"N_COORD97":2547100.7599999998,"ADDRESS":"國民路２０１巷１７號","OBJECTID":381988},"geometry":{"x":174530.08000000007,"y":2547100.7600000035}},{"attributes":{"ID":381999,"DIS_CODE":0,"TOWNNAME":"永康區","LI":"\u25A0行里","LIN":"7鄰","STREET":"中正五街","SECT":" ","MAREA":" ","LANE":"１１巷","ALLEY":" ","HOUSE_NO":"３３號","E_COORD97":172579.73999999999,"N_COORD97":2548666.4900000002,"ADDRESS":"中正五街１１巷３３號","OBJECTID":381989},"geometry":{"x":172579.74000000022,"y":2548666.4900000021}},{"attributes":{"ID":382000,"DIS_CODE":0,"TOWNNAME":"永康區","LI":"中華里","LIN":"9鄰","STREET":"小東路","SECT":" ","MAREA":" ","LANE":"６４７巷","ALLEY":" ","HOUSE_NO":"８５號","E_COORD97":171925.98999999999,"N_COORD97":2544539.6600000001,"ADDRESS":"小東路６４７巷８５號","OBJECTID":381990},"geometry":{"x":171925.98999999929,"y":2544539.660000002}},{"attributes":{"ID":382001,"DIS_CODE":0,"TOWNNAME":"永康區","LI":"大灣里","LIN":"9鄰","STREET":"大灣路","SECT":" ","MAREA":" ","LANE":"２１８巷","ALLEY":" ","HOUSE_NO":"２９號","E_COORD97":174852.35000000001,"N_COORD97":2545506.1000000001,"ADDRESS":"大灣路２１８巷２９號","OBJECTID":381991},"geometry":{"x":174852.35000000149,"y":2545506.1000000015}},{"attributes":{"ID":382002,"DIS_CODE":0,"TOWNNAME":"永康區","LI":"\u25A0行里","LIN":"18鄰","STREET":"中正路","SECT":" ","MAREA":" ","LANE":"６３５巷","ALLEY":" ","HOUSE_NO":"５４號","E_COORD97":171632.17000000001,"N_COORD97":2548801,"ADDRESS":"中正路６３５巷５４號","OBJECTID":381992},"geometry":{"x":171632.16999999993,"y":2548801}},{"attributes":{"ID":382003,"DIS_CODE":0,"TOWNNAME":"永康區","LI":"龍潭里","LIN":"43鄰","STREET":"國民路","SECT":" ","MAREA":" ","LANE":"２３１巷","ALLEY":" ","HOUSE_NO":"４５號","E_COORD97":174613.07999999999,"N_COORD97":2547034.7599999998,"ADDRESS":"國民路２３１巷４５號","OBJECTID":381993},"geometry":{"x":174613.08000000007,"y":2547034.7599999998}},{"attributes":{"ID":382004,"DIS_CODE":0,"TOWNNAME":"永康區","LI":"蔦松里","LIN":"1鄰","STREET":"蔦松二街","SECT":" ","MAREA":" ","LANE":"８７巷","ALLEY":" ","HOUSE_NO":"３１號","E_COORD97":173649.26999999999,"N_COORD97":2549255.9900000002,"ADDRESS":"蔦松二街８７巷３１號","OBJECTID":381994},"geometry":{"x":173649.27000000142,"y":2549255.9900000039}},{"attributes":{"ID":382005,"DIS_CODE":0,"TOWNNAME":"永康區","LI":"\u25A0行里","LIN":"6鄰","STREET":"新行街","SECT":" ","MAREA":" ","LANE":"３３巷","ALLEY":" ","HOUSE_NO":"１０號","E_COORD97":172228.01000000001,"N_COORD97":2548839.4100000001,"ADDRESS":"新行街３３巷１０號","OBJECTID":381995},"geometry":{"x":172228.01000000071,"y":2548839.4100000039}},{"attributes":{"ID":382006,"DIS_CODE":0,"TOWNNAME":"安南區","LI":"頂安里","LIN":"9鄰","STREET":"頂安街","SECT":" ","MAREA":" ","LANE":"４２０巷","ALLEY":" ","HOUSE_NO":"２號","E_COORD97":168904.94,"N_COORD97":2549365.7799999998,"ADDRESS":"頂安街４２０巷２號","OBJECTID":381996},"geometry":{"x":168904.94000000041,"y":2549365.7800000012}},{"attributes":{"ID":382007,"DIS_CODE":0,"TOWNNAME":"安南區","LI":"頂安里","LIN":"9鄰","STREET":"頂安街","SECT":" ","MAREA":" ","LANE":"４２０巷","ALLEY":" ","HOUSE_NO":"６號","E_COORD97":168902.26999999999,"N_COORD97":2549368.7000000002,"ADDRESS":"頂安街４２０巷６號","OBJECTID":381997},"geometry":{"x":168902.26999999955,"y":2549368.700000003}},{"attributes":{"ID":382008,"DIS_CODE":0,"TOWNNAME":"安南區","LI":"頂安里","LIN":"9鄰","STREET":"頂安街","SECT":" ","MAREA":" ","LANE":"４２０巷","ALLEY":" ","HOUSE_NO":"８號","E_COORD97":168899.98999999999,"N_COORD97":2549371.5,"ADDRESS":"頂安街４２０巷８號","OBJECTID":381998},"geometry":{"x":168899.99000000022,"y":2549371.5000000019}},{"attributes":{"ID":382009,"DIS_CODE":0,"TOWNNAME":"安南區","LI":"頂安里","LIN":"9鄰","STREET":"頂安街","SECT":" ","MAREA":" ","LANE":"４２０巷","ALLEY":" ","HOUSE_NO":"３６號","E_COORD97":168895.54000000001,"N_COORD97":2549427.7599999998,"ADDRESS":"頂安街４２０巷３６號","OBJECTID":381999},"geometry":{"x":168895.54000000004,"y":2549427.7600000016}},{"attributes":{"ID":382010,"DIS_CODE":0,"TOWNNAME":"安南區","LI":"頂安里","LIN":"9鄰","STREET":"頂安街","SECT":" ","MAREA":" ","LANE":"４２０巷","ALLEY":" ","HOUSE_NO":"３８號","E_COORD97":168902.14999999999,"N_COORD97":2549432.46,"ADDRESS":"頂安街４２０巷３８號","OBJECTID":382000},"geometry":{"x":168902.15000000037,"y":2549432.4600000009}}]}