{"displayFieldName":"TOWNNAME","fieldAliases":{"ID":"ID","DIS_CODE":"DIS_CODE","TOWNNAME":"TOWNNAME","LI":"LI","LIN":"LIN","STREET":"STREET","SECT":"SECT","MAREA":"MAREA","LANE":"LANE","ALLEY":"ALLEY","HOUSE_NO":"HOUSE_NO","E_COORD97":"E_COORD97","N_COORD97":"N_COORD97","ADDRESS":"ADDRESS","OBJECTID":"OBJECTID"},"geometryType":"esriGeometryPoint","spatialReference":{"wkid":102443,"latestWkid":3826},"fields":[{"name":"ID","type":"esriFieldTypeDouble","alias":"ID"},{"name":"DIS_CODE","type":"esriFieldTypeInteger","alias":"DIS_CODE"},{"name":"TOWNNAME","type":"esriFieldTypeString","alias":"TOWNNAME","length":8},{"name":"LI","type":"esriFieldTypeString","alias":"LI","length":8},{"name":"LIN","type":"esriFieldTypeString","alias":"LIN","length":12},{"name":"STREET","type":"esriFieldTypeString","alias":"STREET","length":20},{"name":"SECT","type":"esriFieldTypeString","alias":"SECT","length":8},{"name":"MAREA","type":"esriFieldTypeString","alias":"MAREA","length":12},{"name":"LANE","type":"esriFieldTypeString","alias":"LANE","length":10},{"name":"ALLEY","type":"esriFieldTypeString","alias":"ALLEY","length":10},{"name":"HOUSE_NO","type":"esriFieldTypeString","alias":"HOUSE_NO","length":20},{"name":"E_COORD97","type":"esriFieldTypeDouble","alias":"E_COORD97"},{"name":"N_COORD97","type":"esriFieldTypeDouble","alias":"N_COORD97"},{"name":"ADDRESS","type":"esriFieldTypeString","alias":"ADDRESS","length":50},{"name":"OBJECTID","type":"esriFieldTypeOID","alias":"OBJECTID"}],"features":[{"attributes":{"ID":266605,"DIS_CODE":0,"TOWNNAME":"歸仁區","LI":"八甲里","LIN":"14鄰","STREET":"大明三街","SECT":" ","MAREA":" ","LANE":"７１巷","ALLEY":" ","HOUSE_NO":"２號","E_COORD97":178075.72,"N_COORD97":2541690.6099999999,"ADDRESS":"大明三街７１巷２號","OBJECTID":266601},"geometry":{"x":178075.71999999881,"y":2541690.6100000013}},{"attributes":{"ID":266606,"DIS_CODE":0,"TOWNNAME":"歸仁區","LI":"八甲里","LIN":"14鄰","STREET":"大明三街","SECT":" ","MAREA":" ","LANE":"８１巷","ALLEY":" ","HOUSE_NO":"１７號","E_COORD97":178095.37,"N_COORD97":2541664.6099999999,"ADDRESS":"大明三街８１巷１７號","OBJECTID":266602},"geometry":{"x":178095.37000000011,"y":2541664.6100000013}},{"attributes":{"ID":266607,"DIS_CODE":0,"TOWNNAME":"歸仁區","LI":"八甲里","LIN":"14鄰","STREET":"大明三街","SECT":" ","MAREA":" ","LANE":"８１巷","ALLEY":" ","HOUSE_NO":"１９號","E_COORD97":178103.57000000001,"N_COORD97":2541667.6099999999,"ADDRESS":"大明三街８１巷１９號","OBJECTID":266603},"geometry":{"x":178103.57000000123,"y":2541667.6100000013}},{"attributes":{"ID":266608,"DIS_CODE":0,"TOWNNAME":"歸仁區","LI":"八甲里","LIN":"14鄰","STREET":"大明街","SECT":" ","MAREA":" ","LANE":"１３８巷","ALLEY":" ","HOUSE_NO":"１２０號","E_COORD97":178859.63,"N_COORD97":2541719.25,"ADDRESS":"大明街１３８巷１２０號","OBJECTID":266604},"geometry":{"x":178859.62999999989,"y":2541719.25}},{"attributes":{"ID":266609,"DIS_CODE":0,"TOWNNAME":"歸仁區","LI":"七甲里","LIN":"14鄰","STREET":"南丁路","SECT":" ","MAREA":" ","LANE":"５７１巷","ALLEY":" ","HOUSE_NO":"１６號","E_COORD97":175990.34,"N_COORD97":2543048.25,"ADDRESS":"南丁路５７１巷１６號","OBJECTID":266605},"geometry":{"x":175990.34000000078,"y":2543048.25}},{"attributes":{"ID":266610,"DIS_CODE":0,"TOWNNAME":"歸仁區","LI":"八甲里","LIN":"14鄰","STREET":"大明三街","SECT":" ","MAREA":" ","LANE":"２１巷","ALLEY":" ","HOUSE_NO":"３號","E_COORD97":178097.72,"N_COORD97":2541783.6099999999,"ADDRESS":"大明三街２１巷３號","OBJECTID":266606},"geometry":{"x":178097.71999999974,"y":2541783.6099999994}},{"attributes":{"ID":266611,"DIS_CODE":0,"TOWNNAME":"歸仁區","LI":"七甲里","LIN":"14鄰","STREET":"南丁路","SECT":" ","MAREA":" ","LANE":"５９１巷","ALLEY":" ","HOUSE_NO":"４９號","E_COORD97":175891.14000000001,"N_COORD97":2543096.25,"ADDRESS":"南丁路５９１巷４９號","OBJECTID":266607},"geometry":{"x":175891.14000000153,"y":2543096.25}},{"attributes":{"ID":266612,"DIS_CODE":0,"TOWNNAME":"歸仁區","LI":"七甲里","LIN":"14鄰","STREET":"南丁路","SECT":" ","MAREA":" ","LANE":"５７１巷","ALLEY":" ","HOUSE_NO":"３２號","E_COORD97":175943.23999999999,"N_COORD97":2543054.25,"ADDRESS":"南丁路５７１巷３２號","OBJECTID":266608},"geometry":{"x":175943.24000000022,"y":2543054.2500000019}},{"attributes":{"ID":266613,"DIS_CODE":0,"TOWNNAME":"歸仁區","LI":"八甲里","LIN":"14鄰","STREET":"大明三街","SECT":" ","MAREA":" ","LANE":"２１巷","ALLEY":" ","HOUSE_NO":"１號","E_COORD97":178092.62,"N_COORD97":2541783.6099999999,"ADDRESS":"大明三街２１巷１號","OBJECTID":266609},"geometry":{"x":178092.62000000104,"y":2541783.6099999994}},{"attributes":{"ID":266614,"DIS_CODE":0,"TOWNNAME":"南區","LI":"鯤鯓里","LIN":"14鄰","STREET":"鯤鯓路","SECT":" ","MAREA":" ","LANE":"１０２巷","ALLEY":" ","HOUSE_NO":"７３號","E_COORD97":165047.34,"N_COORD97":2540267.04,"ADDRESS":"鯤鯓路１０２巷７３號","OBJECTID":266610},"geometry":{"x":165047.33999999985,"y":2540267.040000001}},{"attributes":{"ID":266615,"DIS_CODE":0,"TOWNNAME":"南區","LI":"鯤鯓里","LIN":"14鄰","STREET":"鯤鯓路","SECT":" ","MAREA":" ","LANE":"１０２巷","ALLEY":" ","HOUSE_NO":"７５號","E_COORD97":165038.89000000001,"N_COORD97":2540268.8500000001,"ADDRESS":"鯤鯓路１０２巷７５號","OBJECTID":266611},"geometry":{"x":165038.8900000006,"y":2540268.8500000015}},{"attributes":{"ID":266616,"DIS_CODE":0,"TOWNNAME":"南區","LI":"鯤鯓里","LIN":"14鄰","STREET":"鯤鯓路","SECT":" ","MAREA":" ","LANE":"１０２巷","ALLEY":" ","HOUSE_NO":"７７號","E_COORD97":165034.35999999999,"N_COORD97":2540268.9900000002,"ADDRESS":"鯤鯓路１０２巷７７號","OBJECTID":266612},"geometry":{"x":165034.3599999994,"y":2540268.9900000021}},{"attributes":{"ID":266617,"DIS_CODE":0,"TOWNNAME":"南區","LI":"同安里","LIN":"14鄰","STREET":"明興路","SECT":" ","MAREA":" ","LANE":"１３６５巷","ALLEY":" ","HOUSE_NO":"２３號","E_COORD97":166455.54000000001,"N_COORD97":2535899.9900000002,"ADDRESS":"明興路１３６５巷２３號","OBJECTID":266613},"geometry":{"x":166455.54000000097,"y":2535899.9900000002}},{"attributes":{"ID":266618,"DIS_CODE":0,"TOWNNAME":"南區","LI":"同安里","LIN":"14鄰","STREET":"明興路","SECT":" ","MAREA":" ","LANE":"１３６５巷","ALLEY":" ","HOUSE_NO":"２５號","E_COORD97":166460.29999999999,"N_COORD97":2535897.48,"ADDRESS":"明興路１３６５巷２５號","OBJECTID":266614},"geometry":{"x":166460.30000000075,"y":2535897.4800000004}},{"attributes":{"ID":266619,"DIS_CODE":0,"TOWNNAME":"鹽水區","LI":"大莊里","LIN":"2鄰","STREET":" ","SECT":" ","MAREA":"大莊","LANE":" ","ALLEY":" ","HOUSE_NO":"８７號","E_COORD97":172919.17999999999,"N_COORD97":2576667.3999999999,"ADDRESS":"大莊８７號","OBJECTID":266615},"geometry":{"x":172919.17999999877,"y":2576667.4000000004}},{"attributes":{"ID":266620,"DIS_CODE":0,"TOWNNAME":"南區","LI":"同安里","LIN":"14鄰","STREET":"明興路","SECT":" ","MAREA":" ","LANE":"１３６５巷","ALLEY":" ","HOUSE_NO":"２７號","E_COORD97":166464.88,"N_COORD97":2535898.0800000001,"ADDRESS":"明興路１３６５巷２７號","OBJECTID":266616},"geometry":{"x":166464.88000000082,"y":2535898.0800000019}},{"attributes":{"ID":266621,"DIS_CODE":0,"TOWNNAME":"玉井區","LI":"玉田里","LIN":"41鄰","STREET":"民族路","SECT":" ","MAREA":" ","LANE":"１７９巷","ALLEY":" ","HOUSE_NO":"６號","E_COORD97":195455.17000000001,"N_COORD97":2558122.29,"ADDRESS":"民族路１７９巷６號","OBJECTID":266617},"geometry":{"x":195455.16999999993,"y":2558122.290000001}},{"attributes":{"ID":266622,"DIS_CODE":0,"TOWNNAME":"楠西區","LI":"東勢里","LIN":"14鄰","STREET":"茄拔路","SECT":" ","MAREA":" ","LANE":"１７７巷","ALLEY":" ","HOUSE_NO":"４２號","E_COORD97":197463.03,"N_COORD97":2563860.2000000002,"ADDRESS":"茄拔路１７７巷４２號","OBJECTID":266618},"geometry":{"x":197463.03000000026,"y":2563860.2000000011}},{"attributes":{"ID":266623,"DIS_CODE":0,"TOWNNAME":"楠西區","LI":"楠西里","LIN":"14鄰","STREET":"中正路","SECT":" ","MAREA":" ","LANE":"２２巷","ALLEY":" ","HOUSE_NO":"１３號","E_COORD97":197124.85999999999,"N_COORD97":2564037.25,"ADDRESS":"中正路２２巷１３號","OBJECTID":266619},"geometry":{"x":197124.86000000127,"y":2564037.2500000019}},{"attributes":{"ID":266624,"DIS_CODE":0,"TOWNNAME":"楠西區","LI":"楠西里","LIN":"14鄰","STREET":"中興南路","SECT":" ","MAREA":" ","LANE":"８５巷","ALLEY":" ","HOUSE_NO":"２８號","E_COORD97":197118.31,"N_COORD97":2564012.25,"ADDRESS":"中興南路８５巷２８號","OBJECTID":266620},"geometry":{"x":197118.30999999959,"y":2564012.2500000037}},{"attributes":{"ID":266625,"DIS_CODE":0,"TOWNNAME":"楠西區","LI":"楠西里","LIN":"14鄰","STREET":"中興南路","SECT":" ","MAREA":" ","LANE":"８５巷","ALLEY":" ","HOUSE_NO":"５２號","E_COORD97":197069.31,"N_COORD97":2564019.25,"ADDRESS":"中興南路８５巷５２號","OBJECTID":266621},"geometry":{"x":197069.30999999959,"y":2564019.2500000037}},{"attributes":{"ID":266626,"DIS_CODE":0,"TOWNNAME":"楠西區","LI":"楠西里","LIN":"14鄰","STREET":"中興南路","SECT":" ","MAREA":" ","LANE":"８５巷","ALLEY":" ","HOUSE_NO":"２０號","E_COORD97":197133.51000000001,"N_COORD97":2564010.25,"ADDRESS":"中興南路８５巷２０號","OBJECTID":266622},"geometry":{"x":197133.51000000071,"y":2564010.2500000019}},{"attributes":{"ID":266627,"DIS_CODE":0,"TOWNNAME":"楠西區","LI":"楠西里","LIN":"14鄰","STREET":"中興南路","SECT":" ","MAREA":" ","LANE":"８５巷","ALLEY":" ","HOUSE_NO":"３０號","E_COORD97":197104.31,"N_COORD97":2564024.25,"ADDRESS":"中興南路８５巷３０號","OBJECTID":266623},"geometry":{"x":197104.31000000052,"y":2564024.25}},{"attributes":{"ID":266628,"DIS_CODE":0,"TOWNNAME":"楠西區","LI":"東勢里","LIN":"14鄰","STREET":"茄拔路","SECT":" ","MAREA":" ","LANE":"１６９巷","ALLEY":" ","HOUSE_NO":"５號","E_COORD97":197412.28,"N_COORD97":2563830.2000000002,"ADDRESS":"茄拔路１６９巷５號","OBJECTID":266624},"geometry":{"x":197412.28000000026,"y":2563830.2000000011}},{"attributes":{"ID":266629,"DIS_CODE":0,"TOWNNAME":"楠西區","LI":"楠西里","LIN":"14鄰","STREET":"中興南路","SECT":" ","MAREA":" ","LANE":"８５巷","ALLEY":" ","HOUSE_NO":"２６號","E_COORD97":197124.60999999999,"N_COORD97":2564014.25,"ADDRESS":"中興南路８５巷２６號","OBJECTID":266625},"geometry":{"x":197124.61000000127,"y":2564014.25}},{"attributes":{"ID":266630,"DIS_CODE":0,"TOWNNAME":"南區","LI":"大恩里","LIN":"14鄰","STREET":"大同路","SECT":"二段","MAREA":" ","LANE":"７５０巷","ALLEY":" ","HOUSE_NO":"１２６號","E_COORD97":169135.54000000001,"N_COORD97":2540714.8700000001,"ADDRESS":"大同路二段７５０巷１２６號","OBJECTID":266626},"geometry":{"x":169135.54000000097,"y":2540714.8700000029}},{"attributes":{"ID":266631,"DIS_CODE":0,"TOWNNAME":"南區","LI":"大恩里","LIN":"14鄰","STREET":"大同路","SECT":"二段","MAREA":" ","LANE":"７５０巷","ALLEY":" ","HOUSE_NO":"１２８號","E_COORD97":169131.45000000001,"N_COORD97":2540715.0899999999,"ADDRESS":"大同路二段７５０巷１２８號","OBJECTID":266627},"geometry":{"x":169131.45000000112,"y":2540715.0900000017}},{"attributes":{"ID":266632,"DIS_CODE":0,"TOWNNAME":"南區","LI":"大恩里","LIN":"14鄰","STREET":"大同路","SECT":"二段","MAREA":" ","LANE":"７５０巷","ALLEY":" ","HOUSE_NO":"１３０號","E_COORD97":169127.16,"N_COORD97":2540714.98,"ADDRESS":"大同路二段７５０巷１３０號","OBJECTID":266628},"geometry":{"x":169127.16000000015,"y":2540714.9800000004}},{"attributes":{"ID":266633,"DIS_CODE":0,"TOWNNAME":"南區","LI":"大恩里","LIN":"14鄰","STREET":"大同路","SECT":"二段","MAREA":" ","LANE":"７５０巷","ALLEY":" ","HOUSE_NO":"１３２號","E_COORD97":169122.64999999999,"N_COORD97":2540715.0899999999,"ADDRESS":"大同路二段７５０巷１３２號","OBJECTID":266629},"geometry":{"x":169122.65000000037,"y":2540715.0900000017}},{"attributes":{"ID":266634,"DIS_CODE":0,"TOWNNAME":"南區","LI":"大恩里","LIN":"14鄰","STREET":"大同路","SECT":"二段","MAREA":" ","LANE":"７５０巷","ALLEY":" ","HOUSE_NO":"１３６號","E_COORD97":169112.31,"N_COORD97":2540714.23,"ADDRESS":"大同路二段７５０巷１３６號","OBJECTID":266630},"geometry":{"x":169112.30999999959,"y":2540714.2300000042}},{"attributes":{"ID":266635,"DIS_CODE":0,"TOWNNAME":"南區","LI":"大恩里","LIN":"14鄰","STREET":"大同路","SECT":"二段","MAREA":" ","LANE":"７５０巷","ALLEY":" ","HOUSE_NO":"１３６號之１","E_COORD97":169107.48000000001,"N_COORD97":2540725.1899999999,"ADDRESS":"大同路二段７５０巷１３６號之１","OBJECTID":266631},"geometry":{"x":169107.48000000138,"y":2540725.1900000013}},{"attributes":{"ID":266636,"DIS_CODE":0,"TOWNNAME":"南區","LI":"大恩里","LIN":"14鄰","STREET":"大同路","SECT":"二段","MAREA":" ","LANE":"７５０巷","ALLEY":" ","HOUSE_NO":"１３８號","E_COORD97":169107.48000000001,"N_COORD97":2540714.02,"ADDRESS":"大同路二段７５０巷１３８號","OBJECTID":266632},"geometry":{"x":169107.48000000138,"y":2540714.0199999996}},{"attributes":{"ID":266637,"DIS_CODE":0,"TOWNNAME":"南區","LI":"大恩里","LIN":"14鄰","STREET":"大同路","SECT":"二段","MAREA":" ","LANE":"７５０巷","ALLEY":" ","HOUSE_NO":"１４２號","E_COORD97":169098.98999999999,"N_COORD97":2540714.02,"ADDRESS":"大同路二段７５０巷１４２號","OBJECTID":266633},"geometry":{"x":169098.99000000115,"y":2540714.0199999996}},{"attributes":{"ID":266638,"DIS_CODE":0,"TOWNNAME":"南區","LI":"大恩里","LIN":"14鄰","STREET":"大同路","SECT":"二段","MAREA":" ","LANE":"７５０巷","ALLEY":" ","HOUSE_NO":"１４４號","E_COORD97":169095.01999999999,"N_COORD97":2540714.1200000001,"ADDRESS":"大同路二段７５０巷１４４號","OBJECTID":266634},"geometry":{"x":169095.02000000048,"y":2540714.120000001}},{"attributes":{"ID":266639,"DIS_CODE":0,"TOWNNAME":"南區","LI":"大恩里","LIN":"14鄰","STREET":"大同路","SECT":"二段","MAREA":" ","LANE":"７５０巷","ALLEY":" ","HOUSE_NO":"１４６號","E_COORD97":169090.94,"N_COORD97":2540714.02,"ADDRESS":"大同路二段７５０巷１４６號","OBJECTID":266635},"geometry":{"x":169090.94000000134,"y":2540714.0199999996}},{"attributes":{"ID":266640,"DIS_CODE":0,"TOWNNAME":"南區","LI":"大恩里","LIN":"14鄰","STREET":"大同路","SECT":"二段","MAREA":" ","LANE":"７５０巷","ALLEY":" ","HOUSE_NO":"１４８號","E_COORD97":169086.85999999999,"N_COORD97":2540714.02,"ADDRESS":"大同路二段７５０巷１４８號","OBJECTID":266636},"geometry":{"x":169086.86000000034,"y":2540714.0199999996}},{"attributes":{"ID":266641,"DIS_CODE":0,"TOWNNAME":"南區","LI":"大恩里","LIN":"14鄰","STREET":"大同路","SECT":"二段","MAREA":" ","LANE":"７５０巷","ALLEY":" ","HOUSE_NO":"１４０號","E_COORD97":169103.17999999999,"N_COORD97":2540713.9100000001,"ADDRESS":"大同路二段７５０巷１４０號","OBJECTID":266637},"geometry":{"x":169103.1799999997,"y":2540713.910000002}},{"attributes":{"ID":266642,"DIS_CODE":0,"TOWNNAME":"南區","LI":"大恩里","LIN":"14鄰","STREET":"大同路","SECT":"二段","MAREA":" ","LANE":"７５０巷","ALLEY":" ","HOUSE_NO":"１５２號","E_COORD97":169075.01000000001,"N_COORD97":2540713.5899999999,"ADDRESS":"大同路二段７５０巷１５２號","OBJECTID":266638},"geometry":{"x":169075.00999999978,"y":2540713.5899999999}},{"attributes":{"ID":266643,"DIS_CODE":0,"TOWNNAME":"南區","LI":"大恩里","LIN":"14鄰","STREET":"大同路","SECT":"二段","MAREA":" ","LANE":"７５０巷","ALLEY":" ","HOUSE_NO":"１５４號","E_COORD97":169070.92999999999,"N_COORD97":2540713.6899999999,"ADDRESS":"大同路二段７５０巷１５４號","OBJECTID":266639},"geometry":{"x":169070.9299999997,"y":2540713.6900000013}},{"attributes":{"ID":266644,"DIS_CODE":0,"TOWNNAME":"南區","LI":"大恩里","LIN":"14鄰","STREET":"大同路","SECT":"二段","MAREA":" ","LANE":"７５０巷","ALLEY":" ","HOUSE_NO":"１５６號","E_COORD97":169066.53,"N_COORD97":2540714.02,"ADDRESS":"大同路二段７５０巷１５６號","OBJECTID":266640},"geometry":{"x":169066.53000000119,"y":2540714.0199999996}},{"attributes":{"ID":266645,"DIS_CODE":0,"TOWNNAME":"南區","LI":"大恩里","LIN":"14鄰","STREET":"大同路","SECT":"二段","MAREA":" ","LANE":"７５０巷","ALLEY":" ","HOUSE_NO":"１５８號","E_COORD97":169062.23000000001,"N_COORD97":2540714.02,"ADDRESS":"大同路二段７５０巷１５８號","OBJECTID":266641},"geometry":{"x":169062.23000000138,"y":2540714.0199999996}},{"attributes":{"ID":266646,"DIS_CODE":0,"TOWNNAME":"南區","LI":"大恩里","LIN":"14鄰","STREET":"大同路","SECT":"二段","MAREA":" ","LANE":"７５０巷","ALLEY":" ","HOUSE_NO":"１６０號","E_COORD97":169058.04999999999,"N_COORD97":2540713.9100000001,"ADDRESS":"大同路二段７５０巷１６０號","OBJECTID":266642},"geometry":{"x":169058.04999999981,"y":2540713.910000002}},{"attributes":{"ID":266647,"DIS_CODE":0,"TOWNNAME":"南區","LI":"大恩里","LIN":"14鄰","STREET":"大同路","SECT":"二段","MAREA":" ","LANE":"７５０巷","ALLEY":" ","HOUSE_NO":"１６２號","E_COORD97":169054.07000000001,"N_COORD97":2540713.9100000001,"ADDRESS":"大同路二段７５０巷１６２號","OBJECTID":266643},"geometry":{"x":169054.07000000216,"y":2540713.910000002}},{"attributes":{"ID":266648,"DIS_CODE":0,"TOWNNAME":"新營區","LI":"嘉芳里","LIN":"14鄰","STREET":"新工路","SECT":" ","MAREA":" ","LANE":"４巷","ALLEY":" ","HOUSE_NO":"８號","E_COORD97":176208.59,"N_COORD97":2578702.96,"ADDRESS":"新工路４巷８號","OBJECTID":266644},"geometry":{"x":176208.58999999985,"y":2578702.9600000028}},{"attributes":{"ID":266649,"DIS_CODE":0,"TOWNNAME":"新營區","LI":"新北里","LIN":"14鄰","STREET":"南新街","SECT":" ","MAREA":" ","LANE":"１３巷","ALLEY":" ","HOUSE_NO":"７８號","E_COORD97":179236.98999999999,"N_COORD97":2578822.1899999999,"ADDRESS":"南新街１３巷７８號","OBJECTID":266645},"geometry":{"x":179236.99000000022,"y":2578822.1900000013}},{"attributes":{"ID":266650,"DIS_CODE":0,"TOWNNAME":"歸仁區","LI":"南保里","LIN":"32鄰","STREET":"民權八街","SECT":" ","MAREA":" ","LANE":"７０巷","ALLEY":" ","HOUSE_NO":"５號","E_COORD97":176774.89000000001,"N_COORD97":2541026.29,"ADDRESS":"民權八街７０巷５號","OBJECTID":266646},"geometry":{"x":176774.8900000006,"y":2541026.2899999991}},{"attributes":{"ID":266651,"DIS_CODE":0,"TOWNNAME":"歸仁區","LI":"南興里","LIN":"13鄰","STREET":"文化十八街","SECT":" ","MAREA":" ","LANE":"１８巷","ALLEY":" ","HOUSE_NO":"１號","E_COORD97":175864.79000000001,"N_COORD97":2541279.3300000001,"ADDRESS":"文化十八街１８巷１號","OBJECTID":266647},"geometry":{"x":175864.79000000004,"y":2541279.3300000038}},{"attributes":{"ID":266652,"DIS_CODE":0,"TOWNNAME":"歸仁區","LI":"南保里","LIN":"34鄰","STREET":"民權六街","SECT":" ","MAREA":" ","LANE":"８１巷","ALLEY":" ","HOUSE_NO":"２號","E_COORD97":176769.98999999999,"N_COORD97":2541076.29,"ADDRESS":"民權六街８１巷２號","OBJECTID":266648},"geometry":{"x":176769.99000000115,"y":2541076.290000001}},{"attributes":{"ID":266653,"DIS_CODE":0,"TOWNNAME":"南區","LI":"省躬里","LIN":"14鄰","STREET":"永成路","SECT":"一段","MAREA":" ","LANE":"６４６巷","ALLEY":" ","HOUSE_NO":"２５號","E_COORD97":167614.16,"N_COORD97":2537688.8900000001,"ADDRESS":"永成路一段６４６巷２５號","OBJECTID":266649},"geometry":{"x":167614.16000000108,"y":2537688.8900000043}},{"attributes":{"ID":266654,"DIS_CODE":0,"TOWNNAME":"南區","LI":"喜南里","LIN":"14鄰","STREET":"喜樹路","SECT":" ","MAREA":" ","LANE":"２５２巷","ALLEY":" ","HOUSE_NO":"１１號","E_COORD97":165660.87,"N_COORD97":2537942.1800000002,"ADDRESS":"喜樹路２５２巷１１號","OBJECTID":266650},"geometry":{"x":165660.87000000011,"y":2537942.1799999997}},{"attributes":{"ID":266655,"DIS_CODE":0,"TOWNNAME":"南區","LI":"永寧里","LIN":"14鄰","STREET":"灣裡路","SECT":" ","MAREA":" ","LANE":"２１８巷","ALLEY":" ","HOUSE_NO":"４號","E_COORD97":166023.45999999999,"N_COORD97":2536533.1600000001,"ADDRESS":"灣裡路２１８巷４號","OBJECTID":266651},"geometry":{"x":166023.46000000183,"y":2536533.1600000001}},{"attributes":{"ID":266656,"DIS_CODE":0,"TOWNNAME":"南區","LI":"永寧里","LIN":"14鄰","STREET":"灣裡路","SECT":" ","MAREA":" ","LANE":"２１８巷","ALLEY":" ","HOUSE_NO":"６號","E_COORD97":166017.66,"N_COORD97":2536533.27,"ADDRESS":"灣裡路２１８巷６號","OBJECTID":266652},"geometry":{"x":166017.66000000108,"y":2536533.2700000014}},{"attributes":{"ID":266657,"DIS_CODE":0,"TOWNNAME":"南區","LI":"永寧里","LIN":"14鄰","STREET":"灣裡路","SECT":" ","MAREA":" ","LANE":"２１８巷","ALLEY":" ","HOUSE_NO":"８號","E_COORD97":166011.04999999999,"N_COORD97":2536533.5099999998,"ADDRESS":"灣裡路２１８巷８號","OBJECTID":266653},"geometry":{"x":166011.05000000075,"y":2536533.5099999998}},{"attributes":{"ID":266658,"DIS_CODE":0,"TOWNNAME":"南區","LI":"喜南里","LIN":"14鄰","STREET":"喜樹路","SECT":" ","MAREA":" ","LANE":"２５２巷","ALLEY":" ","HOUSE_NO":"１３號","E_COORD97":165659.17999999999,"N_COORD97":2537949.5499999998,"ADDRESS":"喜樹路２５２巷１３號","OBJECTID":266654},"geometry":{"x":165659.18000000063,"y":2537949.5500000026}},{"attributes":{"ID":266659,"DIS_CODE":0,"TOWNNAME":"南區","LI":"喜南里","LIN":"14鄰","STREET":"喜樹路","SECT":" ","MAREA":" ","LANE":"２５２巷","ALLEY":" ","HOUSE_NO":"１７號","E_COORD97":165654.95999999999,"N_COORD97":2537954.8199999998,"ADDRESS":"喜樹路２５２巷１７號","OBJECTID":266655},"geometry":{"x":165654.95999999996,"y":2537954.8200000022}},{"attributes":{"ID":266660,"DIS_CODE":0,"TOWNNAME":"南區","LI":"喜南里","LIN":"14鄰","STREET":"喜樹路","SECT":" ","MAREA":" ","LANE":"２５２巷","ALLEY":" ","HOUSE_NO":"２１號","E_COORD97":165649.06,"N_COORD97":2537960.0899999999,"ADDRESS":"喜樹路２５２巷２１號","OBJECTID":266656},"geometry":{"x":165649.05999999959,"y":2537960.0899999999}},{"attributes":{"ID":266661,"DIS_CODE":0,"TOWNNAME":"白河區","LI":"汴頭里","LIN":"9鄰","STREET":" ","SECT":" ","MAREA":"內枋林","LANE":" ","ALLEY":" ","HOUSE_NO":"２３號","E_COORD97":193866.47,"N_COORD97":2585022.6600000001,"ADDRESS":"內枋林２３號","OBJECTID":266657},"geometry":{"x":193866.4700000016,"y":2585022.6600000001}},{"attributes":{"ID":266662,"DIS_CODE":0,"TOWNNAME":"後壁區","LI":"新東里","LIN":"3鄰","STREET":" ","SECT":" ","MAREA":"新港東","LANE":" ","ALLEY":" ","HOUSE_NO":"３３號之３二樓","E_COORD97":181387.79000000001,"N_COORD97":2581848.9700000002,"ADDRESS":"新港東３３號之３二樓","OBJECTID":266658},"geometry":{"x":181387.79000000004,"y":2581848.9700000025}},{"attributes":{"ID":266663,"DIS_CODE":0,"TOWNNAME":"後壁區","LI":"新東里","LIN":"3鄰","STREET":" ","SECT":" ","MAREA":"新港東","LANE":" ","ALLEY":" ","HOUSE_NO":"３３號之３三樓","E_COORD97":181387.79000000001,"N_COORD97":2581848.9700000002,"ADDRESS":"新港東３３號之３三樓","OBJECTID":266659},"geometry":{"x":181387.79000000004,"y":2581848.9700000025}},{"attributes":{"ID":266664,"DIS_CODE":0,"TOWNNAME":"東區","LI":"大學里","LIN":"3鄰","STREET":"長榮路","SECT":"三段","MAREA":" ","LANE":" ","ALLEY":" ","HOUSE_NO":"８８號四樓之３","E_COORD97":170388.51999999999,"N_COORD97":2543891.3900000001,"ADDRESS":"長榮路三段８８號四樓之３","OBJECTID":266660},"geometry":{"x":170388.51999999955,"y":2543891.3900000025}},{"attributes":{"ID":266665,"DIS_CODE":0,"TOWNNAME":"南區","LI":"喜南里","LIN":"14鄰","STREET":"喜樹路","SECT":" ","MAREA":" ","LANE":"２５２巷","ALLEY":" ","HOUSE_NO":"３號","E_COORD97":165677.53,"N_COORD97":2537929.5299999998,"ADDRESS":"喜樹路２５２巷３號","OBJECTID":266661},"geometry":{"x":165677.53000000119,"y":2537929.5299999993}},{"attributes":{"ID":266666,"DIS_CODE":0,"TOWNNAME":"南區","LI":"喜南里","LIN":"14鄰","STREET":"喜樹路","SECT":" ","MAREA":" ","LANE":"２５２巷","ALLEY":" ","HOUSE_NO":"５號","E_COORD97":165675,"N_COORD97":2537934.7999999998,"ADDRESS":"喜樹路２５２巷５號","OBJECTID":266662},"geometry":{"x":165675,"y":2537934.8000000026}},{"attributes":{"ID":266667,"DIS_CODE":0,"TOWNNAME":"南區","LI":"喜南里","LIN":"14鄰","STREET":"喜樹路","SECT":" ","MAREA":" ","LANE":"２５２巷","ALLEY":" ","HOUSE_NO":"９號","E_COORD97":165664.45000000001,"N_COORD97":2537937.96,"ADDRESS":"喜樹路２５２巷９號","OBJECTID":266663},"geometry":{"x":165664.45000000112,"y":2537937.9600000028}},{"attributes":{"ID":266668,"DIS_CODE":0,"TOWNNAME":"南區","LI":"喜南里","LIN":"14鄰","STREET":"喜樹路","SECT":" ","MAREA":" ","LANE":"２５４巷","ALLEY":" ","HOUSE_NO":"１０號","E_COORD97":165654.95999999999,"N_COORD97":2537916.8900000001,"ADDRESS":"喜樹路２５４巷１０號","OBJECTID":266664},"geometry":{"x":165654.95999999996,"y":2537916.8900000025}},{"attributes":{"ID":266669,"DIS_CODE":0,"TOWNNAME":"東區","LI":"東光里","LIN":"35鄰","STREET":"凱旋路","SECT":" ","MAREA":" ","LANE":" ","ALLEY":" ","HOUSE_NO":"４６號","E_COORD97":171276.85999999999,"N_COORD97":2543746.96,"ADDRESS":"凱旋路４６號","OBJECTID":266665},"geometry":{"x":171276.86000000127,"y":2543746.9600000009}},{"attributes":{"ID":266670,"DIS_CODE":0,"TOWNNAME":"南區","LI":"喜南里","LIN":"14鄰","STREET":"喜樹路","SECT":" ","MAREA":" ","LANE":"２５４巷","ALLEY":" ","HOUSE_NO":"１２號","E_COORD97":165645.04999999999,"N_COORD97":2537913.1000000001,"ADDRESS":"喜樹路２５４巷１２號","OBJECTID":266666},"geometry":{"x":165645.05000000075,"y":2537913.0999999996}},{"attributes":{"ID":266671,"DIS_CODE":0,"TOWNNAME":"南區","LI":"喜南里","LIN":"14鄰","STREET":"喜樹路","SECT":" ","MAREA":" ","LANE":"２５４巷","ALLEY":" ","HOUSE_NO":"１４號","E_COORD97":165634.92999999999,"N_COORD97":2537908.46,"ADDRESS":"喜樹路２５４巷１４號","OBJECTID":266667},"geometry":{"x":165634.9299999997,"y":2537908.4600000009}},{"attributes":{"ID":266672,"DIS_CODE":0,"TOWNNAME":"南區","LI":"喜南里","LIN":"14鄰","STREET":"喜樹路","SECT":" ","MAREA":" ","LANE":"２５４巷","ALLEY":" ","HOUSE_NO":"１６號","E_COORD97":165629.01999999999,"N_COORD97":2537906.3500000001,"ADDRESS":"喜樹路２５４巷１６號","OBJECTID":266668},"geometry":{"x":165629.01999999955,"y":2537906.3500000015}},{"attributes":{"ID":266673,"DIS_CODE":0,"TOWNNAME":"南區","LI":"文華里","LIN":"14鄰","STREET":"金華路","SECT":"二段","MAREA":" ","LANE":"３９９巷","ALLEY":" ","HOUSE_NO":"１３號","E_COORD97":167080.84,"N_COORD97":2543051.4399999999,"ADDRESS":"金華路二段３９９巷１３號","OBJECTID":266669},"geometry":{"x":167080.84000000078,"y":2543051.4400000013}},{"attributes":{"ID":266674,"DIS_CODE":0,"TOWNNAME":"南區","LI":"新生里","LIN":"14鄰","STREET":"大同路","SECT":"二段","MAREA":" ","LANE":"１１２巷","ALLEY":" ","HOUSE_NO":"１號","E_COORD97":169245.78,"N_COORD97":2542254.5099999998,"ADDRESS":"大同路二段１１２巷１號","OBJECTID":266670},"geometry":{"x":169245.78000000212,"y":2542254.5100000016}},{"attributes":{"ID":266675,"DIS_CODE":0,"TOWNNAME":"南區","LI":"新生里","LIN":"14鄰","STREET":"大同路","SECT":"二段","MAREA":" ","LANE":"１１２巷","ALLEY":" ","HOUSE_NO":"３號","E_COORD97":169233.95000000001,"N_COORD97":2542251.0899999999,"ADDRESS":"大同路二段１１２巷３號","OBJECTID":266671},"geometry":{"x":169233.95000000019,"y":2542251.0900000017}},{"attributes":{"ID":266676,"DIS_CODE":0,"TOWNNAME":"南區","LI":"明興里","LIN":"14鄰","STREET":"金華路","SECT":"一段","MAREA":" ","LANE":"３０巷","ALLEY":" ","HOUSE_NO":"１６號","E_COORD97":166922.41,"N_COORD97":2540311.1699999999,"ADDRESS":"金華路一段３０巷１６號","OBJECTID":266672},"geometry":{"x":166922.41000000201,"y":2540311.1700000018}},{"attributes":{"ID":266677,"DIS_CODE":0,"TOWNNAME":"南區","LI":"明興里","LIN":"14鄰","STREET":"金華路","SECT":"一段","MAREA":" ","LANE":"３０巷","ALLEY":" ","HOUSE_NO":"１８號","E_COORD97":166926.29999999999,"N_COORD97":2540311.77,"ADDRESS":"金華路一段３０巷１８號","OBJECTID":266673},"geometry":{"x":166926.30000000075,"y":2540311.7699999996}},{"attributes":{"ID":266678,"DIS_CODE":0,"TOWNNAME":"南區","LI":"明興里","LIN":"14鄰","STREET":"金華路","SECT":"一段","MAREA":" ","LANE":"３０巷","ALLEY":" ","HOUSE_NO":"２０號","E_COORD97":166930.57999999999,"N_COORD97":2540313.6600000001,"ADDRESS":"金華路一段３０巷２０號","OBJECTID":266674},"geometry":{"x":166930.58000000007,"y":2540313.6600000001}},{"attributes":{"ID":266679,"DIS_CODE":0,"TOWNNAME":"南區","LI":"明興里","LIN":"14鄰","STREET":"金華路","SECT":"一段","MAREA":" ","LANE":"３０巷","ALLEY":" ","HOUSE_NO":"２２號","E_COORD97":166934.26999999999,"N_COORD97":2540314.46,"ADDRESS":"金華路一段３０巷２２號","OBJECTID":266675},"geometry":{"x":166934.26999999955,"y":2540314.4600000028}},{"attributes":{"ID":266680,"DIS_CODE":0,"TOWNNAME":"六甲區","LI":"水林里","LIN":"14鄰","STREET":"民族街","SECT":" ","MAREA":" ","LANE":"３５２巷","ALLEY":" ","HOUSE_NO":"６號","E_COORD97":183032.38,"N_COORD97":2570394.0299999998,"ADDRESS":"民族街３５２巷６號","OBJECTID":266676},"geometry":{"x":183032.38000000082,"y":2570394.0300000012}},{"attributes":{"ID":266681,"DIS_CODE":0,"TOWNNAME":"東區","LI":"裕農里","LIN":"14鄰","STREET":"裕豐街","SECT":" ","MAREA":" ","LANE":"２１４巷","ALLEY":" ","HOUSE_NO":"３號二樓之１","E_COORD97":170824.07000000001,"N_COORD97":2543176.7200000002,"ADDRESS":"裕豐街２１４巷３號二樓之１","OBJECTID":266677},"geometry":{"x":170824.07000000123,"y":2543176.7200000025}},{"attributes":{"ID":266682,"DIS_CODE":0,"TOWNNAME":"東區","LI":"裕農里","LIN":"14鄰","STREET":"裕豐街","SECT":" ","MAREA":" ","LANE":"２１４巷","ALLEY":" ","HOUSE_NO":"３號三樓之１","E_COORD97":170824.07000000001,"N_COORD97":2543176.7200000002,"ADDRESS":"裕豐街２１４巷３號三樓之１","OBJECTID":266678},"geometry":{"x":170824.07000000123,"y":2543176.7200000025}},{"attributes":{"ID":266683,"DIS_CODE":0,"TOWNNAME":"東區","LI":"裕農里","LIN":"14鄰","STREET":"裕豐街","SECT":" ","MAREA":" ","LANE":"２１４巷","ALLEY":" ","HOUSE_NO":"３號四樓","E_COORD97":170824.07000000001,"N_COORD97":2543176.7200000002,"ADDRESS":"裕豐街２１４巷３號四樓","OBJECTID":266679},"geometry":{"x":170824.07000000123,"y":2543176.7200000025}},{"attributes":{"ID":266684,"DIS_CODE":0,"TOWNNAME":"東區","LI":"莊敬里","LIN":"14鄰","STREET":"莊敬路","SECT":" ","MAREA":" ","LANE":"２０５巷","ALLEY":" ","HOUSE_NO":"２４號七樓之１","E_COORD97":171286.66,"N_COORD97":2544183.3199999998,"ADDRESS":"莊敬路２０５巷２４號七樓之１","OBJECTID":266680},"geometry":{"x":171286.66000000015,"y":2544183.3200000022}},{"attributes":{"ID":266685,"DIS_CODE":0,"TOWNNAME":"東區","LI":"莊敬里","LIN":"14鄰","STREET":"莊敬路","SECT":" ","MAREA":" ","LANE":"２０５巷","ALLEY":" ","HOUSE_NO":"２４號五樓之１","E_COORD97":171286.66,"N_COORD97":2544183.3199999998,"ADDRESS":"莊敬路２０５巷２４號五樓之１","OBJECTID":266681},"geometry":{"x":171286.66000000015,"y":2544183.3200000022}},{"attributes":{"ID":266686,"DIS_CODE":0,"TOWNNAME":"東區","LI":"莊敬里","LIN":"14鄰","STREET":"莊敬路","SECT":" ","MAREA":" ","LANE":"２１９巷","ALLEY":" ","HOUSE_NO":"１５號四樓","E_COORD97":171291.67999999999,"N_COORD97":2544199.4900000002,"ADDRESS":"莊敬路２１９巷１５號四樓","OBJECTID":266682},"geometry":{"x":171291.6799999997,"y":2544199.4900000002}},{"attributes":{"ID":266687,"DIS_CODE":0,"TOWNNAME":"東區","LI":"莊敬里","LIN":"14鄰","STREET":"莊敬路","SECT":" ","MAREA":" ","LANE":"２０５巷","ALLEY":" ","HOUSE_NO":"２４號三樓","E_COORD97":171286.66,"N_COORD97":2544183.3199999998,"ADDRESS":"莊敬路２０５巷２４號三樓","OBJECTID":266683},"geometry":{"x":171286.66000000015,"y":2544183.3200000022}},{"attributes":{"ID":266688,"DIS_CODE":0,"TOWNNAME":"東區","LI":"莊敬里","LIN":"14鄰","STREET":"莊敬路","SECT":" ","MAREA":" ","LANE":"２０５巷","ALLEY":" ","HOUSE_NO":"２４號五樓","E_COORD97":171286.66,"N_COORD97":2544183.3199999998,"ADDRESS":"莊敬路２０５巷２４號五樓","OBJECTID":266684},"geometry":{"x":171286.66000000015,"y":2544183.3200000022}},{"attributes":{"ID":266689,"DIS_CODE":0,"TOWNNAME":"中西區","LI":"西湖里","LIN":"34鄰","STREET":"西湖街","SECT":" ","MAREA":" ","LANE":" ","ALLEY":" ","HOUSE_NO":"６９號","E_COORD97":166410.47,"N_COORD97":2544891.8700000001,"ADDRESS":"西湖街６９號","OBJECTID":266685},"geometry":{"x":166410.46999999974,"y":2544891.8700000029}},{"attributes":{"ID":266690,"DIS_CODE":0,"TOWNNAME":"中西區","LI":"西湖里","LIN":"34鄰","STREET":"西湖街","SECT":" ","MAREA":" ","LANE":" ","ALLEY":" ","HOUSE_NO":"７１號","E_COORD97":166404.63,"N_COORD97":2544892.3799999999,"ADDRESS":"西湖街７１號","OBJECTID":266686},"geometry":{"x":166404.62999999989,"y":2544892.3800000008}},{"attributes":{"ID":266691,"DIS_CODE":0,"TOWNNAME":"玉井區","LI":"玉田里","LIN":"41鄰","STREET":"民族路","SECT":" ","MAREA":" ","LANE":"１７９巷","ALLEY":" ","HOUSE_NO":"１５號","E_COORD97":195439.54000000001,"N_COORD97":2558150.29,"ADDRESS":"民族路１７９巷１５號","OBJECTID":266687},"geometry":{"x":195439.5400000019,"y":2558150.290000001}},{"attributes":{"ID":266692,"DIS_CODE":0,"TOWNNAME":"南區","LI":"田寮里","LIN":"19鄰","STREET":"西門路","SECT":"一段","MAREA":" ","LANE":"２２３巷","ALLEY":" ","HOUSE_NO":"９號","E_COORD97":167676.95999999999,"N_COORD97":2541770.4399999999,"ADDRESS":"西門路一段２２３巷９號","OBJECTID":266688},"geometry":{"x":167676.96000000089,"y":2541770.4400000013}},{"attributes":{"ID":266693,"DIS_CODE":0,"TOWNNAME":"南區","LI":"田寮里","LIN":"19鄰","STREET":"西門路","SECT":"一段","MAREA":" ","LANE":"２２３巷","ALLEY":" ","HOUSE_NO":"８號","E_COORD97":167677.88,"N_COORD97":2541813.7200000002,"ADDRESS":"西門路一段２２３巷８號","OBJECTID":266689},"geometry":{"x":167677.87999999989,"y":2541813.7200000025}},{"attributes":{"ID":266694,"DIS_CODE":0,"TOWNNAME":"東區","LI":"裕農里","LIN":"14鄰","STREET":"裕豐街","SECT":" ","MAREA":" ","LANE":"２１４巷","ALLEY":" ","HOUSE_NO":"１號四樓之１","E_COORD97":170802.69,"N_COORD97":2543174.6499999999,"ADDRESS":"裕豐街２１４巷１號四樓之１","OBJECTID":266690},"geometry":{"x":170802.69000000227,"y":2543174.6500000004}},{"attributes":{"ID":266695,"DIS_CODE":0,"TOWNNAME":"玉井區","LI":"玉田里","LIN":"36鄰","STREET":"玉安街","SECT":" ","MAREA":" ","LANE":"３０巷","ALLEY":" ","HOUSE_NO":"５號","E_COORD97":195087.91,"N_COORD97":2558370.3100000001,"ADDRESS":"玉安街３０巷５號","OBJECTID":266691},"geometry":{"x":195087.91000000201,"y":2558370.3100000005}},{"attributes":{"ID":266696,"DIS_CODE":0,"TOWNNAME":"南區","LI":"田寮里","LIN":"20鄰","STREET":"西門路","SECT":"一段","MAREA":" ","LANE":"２７９巷","ALLEY":" ","HOUSE_NO":"１９號","E_COORD97":167618.62,"N_COORD97":2541916.3300000001,"ADDRESS":"西門路一段２７９巷１９號","OBJECTID":266692},"geometry":{"x":167618.62000000011,"y":2541916.3300000001}},{"attributes":{"ID":266697,"DIS_CODE":0,"TOWNNAME":"南區","LI":"田寮里","LIN":"20鄰","STREET":"西門路","SECT":"一段","MAREA":" ","LANE":"２７９巷","ALLEY":" ","HOUSE_NO":"１號","E_COORD97":167699.32999999999,"N_COORD97":2541917.8300000001,"ADDRESS":"西門路一段２７９巷１號","OBJECTID":266693},"geometry":{"x":167699.33000000194,"y":2541917.8300000019}},{"attributes":{"ID":266698,"DIS_CODE":0,"TOWNNAME":"南區","LI":"田寮里","LIN":"20鄰","STREET":"西門路","SECT":"一段","MAREA":" ","LANE":"２７９巷","ALLEY":" ","HOUSE_NO":"２１號","E_COORD97":167629.87,"N_COORD97":2541916.8100000001,"ADDRESS":"西門路一段２７９巷２１號","OBJECTID":266694},"geometry":{"x":167629.87000000104,"y":2541916.8100000005}},{"attributes":{"ID":266699,"DIS_CODE":0,"TOWNNAME":"玉井區","LI":"玉田里","LIN":"15鄰","STREET":"民權路","SECT":" ","MAREA":" ","LANE":"１６７巷","ALLEY":" ","HOUSE_NO":"６號","E_COORD97":194434.59,"N_COORD97":2557811.29,"ADDRESS":"民權路１６７巷６號","OBJECTID":266695},"geometry":{"x":194434.58999999985,"y":2557811.290000001}},{"attributes":{"ID":266700,"DIS_CODE":0,"TOWNNAME":"東區","LI":"裕農里","LIN":"14鄰","STREET":"裕豐街","SECT":" ","MAREA":" ","LANE":"２１４巷","ALLEY":" ","HOUSE_NO":"１號四樓之２","E_COORD97":170807.14000000001,"N_COORD97":2543179.3599999999,"ADDRESS":"裕豐街２１４巷１號四樓之２","OBJECTID":266696},"geometry":{"x":170807.13999999966,"y":2543179.3599999994}},{"attributes":{"ID":266701,"DIS_CODE":0,"TOWNNAME":"新營區","LI":"民榮里","LIN":"35鄰","STREET":"新進路","SECT":"二段","MAREA":" ","LANE":" ","ALLEY":" ","HOUSE_NO":"４０９之１號","E_COORD97":178667.49453,"N_COORD97":2577971.5009300001,"ADDRESS":"新進路二段４０９之１號","OBJECTID":266697},"geometry":{"x":178667.49452999979,"y":2577971.500930002}},{"attributes":{"ID":266702,"DIS_CODE":0,"TOWNNAME":"東區","LI":"東聖里","LIN":"14鄰","STREET":"中華東路","SECT":"二段","MAREA":" ","LANE":"４１巷","ALLEY":" ","HOUSE_NO":"６０號二樓","E_COORD97":171598.31,"N_COORD97":2543080.3700000001,"ADDRESS":"中華東路二段４１巷６０號二樓","OBJECTID":266698},"geometry":{"x":171598.31000000052,"y":2543080.3700000048}},{"attributes":{"ID":266703,"DIS_CODE":0,"TOWNNAME":"東區","LI":"東聖里","LIN":"14鄰","STREET":"中華東路","SECT":"二段","MAREA":" ","LANE":"４１巷","ALLEY":" ","HOUSE_NO":"６０號三樓","E_COORD97":171598.31,"N_COORD97":2543080.3700000001,"ADDRESS":"中華東路二段４１巷６０號三樓","OBJECTID":266699},"geometry":{"x":171598.31000000052,"y":2543080.3700000048}},{"attributes":{"ID":266704,"DIS_CODE":0,"TOWNNAME":"東區","LI":"東聖里","LIN":"14鄰","STREET":"中華東路","SECT":"二段","MAREA":" ","LANE":"４１巷","ALLEY":" ","HOUSE_NO":"６０號四樓","E_COORD97":171598.31,"N_COORD97":2543080.3700000001,"ADDRESS":"中華東路二段４１巷６０號四樓","OBJECTID":266700},"geometry":{"x":171598.31000000052,"y":2543080.3700000048}},{"attributes":{"ID":266705,"DIS_CODE":0,"TOWNNAME":"中西區","LI":"西賢里","LIN":"14鄰","STREET":"西賢一街","SECT":" ","MAREA":" ","LANE":"２３０巷","ALLEY":" ","HOUSE_NO":"１３號七樓之１","E_COORD97":165739.92999999999,"N_COORD97":2544957.48,"ADDRESS":"西賢一街２３０巷１３號七樓之１","OBJECTID":266701},"geometry":{"x":165739.9299999997,"y":2544957.4800000042}},{"attributes":{"ID":266706,"DIS_CODE":0,"TOWNNAME":"白河區","LI":"汴頭里","LIN":"9鄰","STREET":" ","SECT":" ","MAREA":"內枋林","LANE":" ","ALLEY":" ","HOUSE_NO":"２４號","E_COORD97":193866.32999999999,"N_COORD97":2585036.5699999998,"ADDRESS":"內枋林２４號","OBJECTID":266702},"geometry":{"x":193866.33000000101,"y":2585036.5700000003}},{"attributes":{"ID":266707,"DIS_CODE":0,"TOWNNAME":"白河區","LI":"內角里","LIN":"5鄰","STREET":" ","SECT":" ","MAREA":"內角","LANE":" ","ALLEY":" ","HOUSE_NO":"６２之３號","E_COORD97":192629.06,"N_COORD97":2588486.5800000001,"ADDRESS":"內角６２之３號","OBJECTID":266703},"geometry":{"x":192629.06000000052,"y":2588486.5800000019}},{"attributes":{"ID":266708,"DIS_CODE":0,"TOWNNAME":"白河區","LI":"內角里","LIN":"5鄰","STREET":" ","SECT":" ","MAREA":"內角","LANE":" ","ALLEY":" ","HOUSE_NO":"６２之４號","E_COORD97":192627.20999999999,"N_COORD97":2588490.6600000001,"ADDRESS":"內角６２之４號","OBJECTID":266704},"geometry":{"x":192627.20999999996,"y":2588490.6600000001}},{"attributes":{"ID":266709,"DIS_CODE":0,"TOWNNAME":"白河區","LI":"內角里","LIN":"5鄰","STREET":" ","SECT":" ","MAREA":"內角","LANE":" ","ALLEY":" ","HOUSE_NO":"６２之５號","E_COORD97":192625.10000000001,"N_COORD97":2588494.5,"ADDRESS":"內角６２之５號","OBJECTID":266705},"geometry":{"x":192625.10000000056,"y":2588494.5}},{"attributes":{"ID":266710,"DIS_CODE":0,"TOWNNAME":"白河區","LI":"內角里","LIN":"5鄰","STREET":" ","SECT":" ","MAREA":"內角","LANE":" ","ALLEY":" ","HOUSE_NO":"６２號","E_COORD97":192633.29000000001,"N_COORD97":2588471.4500000002,"ADDRESS":"內角６２號","OBJECTID":266706},"geometry":{"x":192633.29000000004,"y":2588471.4499999974}},{"attributes":{"ID":266711,"DIS_CODE":0,"TOWNNAME":"中西區","LI":"赤嵌里","LIN":"3鄰","STREET":"民族路","SECT":"二段","MAREA":" ","LANE":" ","ALLEY":" ","HOUSE_NO":"７６號之１７七樓之１","E_COORD97":168801.73000000001,"N_COORD97":2543963.3999999999,"ADDRESS":"民族路二段７６號之１７七樓之１","OBJECTID":266707},"geometry":{"x":168801.73000000045,"y":2543963.4000000004}},{"attributes":{"ID":266712,"DIS_CODE":0,"TOWNNAME":"中西區","LI":"西賢里","LIN":"14鄰","STREET":"西賢一街","SECT":" ","MAREA":" ","LANE":"２３０巷","ALLEY":" ","HOUSE_NO":"１３號七樓之２","E_COORD97":165739.92999999999,"N_COORD97":2544957.48,"ADDRESS":"西賢一街２３０巷１３號七樓之２","OBJECTID":266708},"geometry":{"x":165739.9299999997,"y":2544957.4800000042}},{"attributes":{"ID":266713,"DIS_CODE":0,"TOWNNAME":"中西區","LI":"西賢里","LIN":"14鄰","STREET":"西賢一街","SECT":" ","MAREA":" ","LANE":"２３０巷","ALLEY":" ","HOUSE_NO":"１３號九樓之１","E_COORD97":165739.92999999999,"N_COORD97":2544957.48,"ADDRESS":"西賢一街２３０巷１３號九樓之１","OBJECTID":266709},"geometry":{"x":165739.9299999997,"y":2544957.4800000042}},{"attributes":{"ID":266714,"DIS_CODE":0,"TOWNNAME":"中西區","LI":"西賢里","LIN":"14鄰","STREET":"西賢一街","SECT":" ","MAREA":" ","LANE":"２３０巷","ALLEY":" ","HOUSE_NO":"１３號九樓之２","E_COORD97":165739.92999999999,"N_COORD97":2544957.48,"ADDRESS":"西賢一街２３０巷１３號九樓之２","OBJECTID":266710},"geometry":{"x":165739.9299999997,"y":2544957.4800000042}},{"attributes":{"ID":266715,"DIS_CODE":0,"TOWNNAME":"中西區","LI":"萬昌里","LIN":"17鄰","STREET":"青年路","SECT":" ","MAREA":" ","LANE":"１６４巷","ALLEY":" ","HOUSE_NO":"１６號","E_COORD97":168993.94,"N_COORD97":2543539.8100000001,"ADDRESS":"青年路１６４巷１６號","OBJECTID":266711},"geometry":{"x":168993.94000000227,"y":2543539.8100000005}},{"attributes":{"ID":266716,"DIS_CODE":0,"TOWNNAME":"中西區","LI":"西賢里","LIN":"14鄰","STREET":"西賢一街","SECT":" ","MAREA":" ","LANE":"２３０巷","ALLEY":" ","HOUSE_NO":"１３號二樓之１","E_COORD97":165739.92999999999,"N_COORD97":2544957.48,"ADDRESS":"西賢一街２３０巷１３號二樓之１","OBJECTID":266712},"geometry":{"x":165739.9299999997,"y":2544957.4800000042}},{"attributes":{"ID":266717,"DIS_CODE":0,"TOWNNAME":"中西區","LI":"西賢里","LIN":"14鄰","STREET":"西賢一街","SECT":" ","MAREA":" ","LANE":"２３０巷","ALLEY":" ","HOUSE_NO":"１３號二樓之２","E_COORD97":165739.92999999999,"N_COORD97":2544957.48,"ADDRESS":"西賢一街２３０巷１３號二樓之２","OBJECTID":266713},"geometry":{"x":165739.9299999997,"y":2544957.4800000042}},{"attributes":{"ID":266718,"DIS_CODE":0,"TOWNNAME":"中西區","LI":"西湖里","LIN":"34鄰","STREET":"西湖街","SECT":" ","MAREA":" ","LANE":" ","ALLEY":" ","HOUSE_NO":"７３號","E_COORD97":166399.29000000001,"N_COORD97":2544892.6299999999,"ADDRESS":"西湖街７３號","OBJECTID":266714},"geometry":{"x":166399.2900000019,"y":2544892.629999999}},{"attributes":{"ID":266719,"DIS_CODE":0,"TOWNNAME":"新營區","LI":"民榮里","LIN":"35鄰","STREET":"新進路","SECT":"二段","MAREA":" ","LANE":" ","ALLEY":" ","HOUSE_NO":"４０９號","E_COORD97":178669.40133600001,"N_COORD97":2577964.93927,"ADDRESS":"新進路二段４０９號","OBJECTID":266715},"geometry":{"x":178669.40133600123,"y":2577964.939267002}},{"attributes":{"ID":266720,"DIS_CODE":0,"TOWNNAME":"中西區","LI":"西賢里","LIN":"14鄰","STREET":"西賢一街","SECT":" ","MAREA":" ","LANE":"２３０巷","ALLEY":" ","HOUSE_NO":"１３號八樓之１","E_COORD97":165739.92999999999,"N_COORD97":2544957.48,"ADDRESS":"西賢一街２３０巷１３號八樓之１","OBJECTID":266716},"geometry":{"x":165739.9299999997,"y":2544957.4800000042}},{"attributes":{"ID":266721,"DIS_CODE":0,"TOWNNAME":"中西區","LI":"西賢里","LIN":"14鄰","STREET":"西賢一街","SECT":" ","MAREA":" ","LANE":"２３０巷","ALLEY":" ","HOUSE_NO":"１３號八樓之２","E_COORD97":165739.92999999999,"N_COORD97":2544957.48,"ADDRESS":"西賢一街２３０巷１３號八樓之２","OBJECTID":266717},"geometry":{"x":165739.9299999997,"y":2544957.4800000042}},{"attributes":{"ID":266722,"DIS_CODE":0,"TOWNNAME":"中西區","LI":"西賢里","LIN":"14鄰","STREET":"西賢一街","SECT":" ","MAREA":" ","LANE":"２３０巷","ALLEY":" ","HOUSE_NO":"１３號三樓之１","E_COORD97":165739.92999999999,"N_COORD97":2544957.48,"ADDRESS":"西賢一街２３０巷１３號三樓之１","OBJECTID":266718},"geometry":{"x":165739.9299999997,"y":2544957.4800000042}},{"attributes":{"ID":266723,"DIS_CODE":0,"TOWNNAME":"中西區","LI":"安海里","LIN":"14鄰","STREET":"河中街","SECT":" ","MAREA":" ","LANE":"４３巷","ALLEY":" ","HOUSE_NO":"５號","E_COORD97":167275.48000000001,"N_COORD97":2544054.0499999998,"ADDRESS":"河中街４３巷５號","OBJECTID":266719},"geometry":{"x":167275.48000000138,"y":2544054.0500000007}},{"attributes":{"ID":266724,"DIS_CODE":0,"TOWNNAME":"東區","LI":"大同里","LIN":"14鄰","STREET":"大同路","SECT":"一段","MAREA":" ","LANE":"１５５巷","ALLEY":" ","HOUSE_NO":"１４號二樓","E_COORD97":169206.98999999999,"N_COORD97":2542869.5800000001,"ADDRESS":"大同路一段１５５巷１４號二樓","OBJECTID":266720},"geometry":{"x":169206.99000000209,"y":2542869.5800000001}},{"attributes":{"ID":266725,"DIS_CODE":0,"TOWNNAME":"東區","LI":"東門里","LIN":"14鄰","STREET":"慶東街","SECT":" ","MAREA":" ","LANE":"８７巷","ALLEY":" ","HOUSE_NO":"３號二樓","E_COORD97":169608.22,"N_COORD97":2543194.77,"ADDRESS":"慶東街８７巷３號二樓","OBJECTID":266721},"geometry":{"x":169608.21999999974,"y":2543194.7700000033}},{"attributes":{"ID":266726,"DIS_CODE":0,"TOWNNAME":"南區","LI":"新生里","LIN":"14鄰","STREET":"大同路","SECT":"二段","MAREA":" ","LANE":"１１２巷","ALLEY":" ","HOUSE_NO":"３號十樓之１","E_COORD97":169240.42999999999,"N_COORD97":2542229.23,"ADDRESS":"大同路二段１１２巷３號十樓之１","OBJECTID":266722},"geometry":{"x":169240.4299999997,"y":2542229.2300000004}},{"attributes":{"ID":266727,"DIS_CODE":0,"TOWNNAME":"南區","LI":"新生里","LIN":"14鄰","STREET":"大同路","SECT":"二段","MAREA":" ","LANE":"１１２巷","ALLEY":" ","HOUSE_NO":"３號十樓之２","E_COORD97":169240.42999999999,"N_COORD97":2542229.23,"ADDRESS":"大同路二段１１２巷３號十樓之２","OBJECTID":266723},"geometry":{"x":169240.4299999997,"y":2542229.2300000004}},{"attributes":{"ID":266728,"DIS_CODE":0,"TOWNNAME":"北區","LI":"中樓里","LIN":"14鄰","STREET":"開元路","SECT":" ","MAREA":" ","LANE":"９０巷","ALLEY":" ","HOUSE_NO":"１５號二樓之１","E_COORD97":169832.62,"N_COORD97":2545160,"ADDRESS":"開元路９０巷１５號二樓之１","OBJECTID":266724},"geometry":{"x":169832.62000000011,"y":2545160.0000000037}},{"attributes":{"ID":266729,"DIS_CODE":0,"TOWNNAME":"北區","LI":"中樓里","LIN":"14鄰","STREET":"開元路","SECT":" ","MAREA":" ","LANE":"９０巷","ALLEY":" ","HOUSE_NO":"１５號二樓之２","E_COORD97":169832.62,"N_COORD97":2545160,"ADDRESS":"開元路９０巷１５號二樓之２","OBJECTID":266725},"geometry":{"x":169832.62000000011,"y":2545160.0000000037}},{"attributes":{"ID":266730,"DIS_CODE":0,"TOWNNAME":"北區","LI":"中樓里","LIN":"14鄰","STREET":"開元路","SECT":" ","MAREA":" ","LANE":"９０巷","ALLEY":" ","HOUSE_NO":"１５號三樓之１","E_COORD97":169832.62,"N_COORD97":2545160,"ADDRESS":"開元路９０巷１５號三樓之１","OBJECTID":266726},"geometry":{"x":169832.62000000011,"y":2545160.0000000037}},{"attributes":{"ID":266731,"DIS_CODE":0,"TOWNNAME":"北區","LI":"中樓里","LIN":"14鄰","STREET":"開元路","SECT":" ","MAREA":" ","LANE":"９０巷","ALLEY":" ","HOUSE_NO":"１５號三樓之２","E_COORD97":169832.62,"N_COORD97":2545160,"ADDRESS":"開元路９０巷１５號三樓之２","OBJECTID":266727},"geometry":{"x":169832.62000000011,"y":2545160.0000000037}},{"attributes":{"ID":266732,"DIS_CODE":0,"TOWNNAME":"北區","LI":"光武里","LIN":"14鄰","STREET":"北門路","SECT":"二段","MAREA":" ","LANE":"５７７巷","ALLEY":" ","HOUSE_NO":"２１號八樓之１","E_COORD97":169527.57999999999,"N_COORD97":2545798.4500000002,"ADDRESS":"北門路二段５７７巷２１號八樓之１","OBJECTID":266728},"geometry":{"x":169527.58000000007,"y":2545798.4500000011}},{"attributes":{"ID":266733,"DIS_CODE":0,"TOWNNAME":"北區","LI":"光武里","LIN":"14鄰","STREET":"北門路","SECT":"二段","MAREA":" ","LANE":"５７７巷","ALLEY":" ","HOUSE_NO":"２１號九樓之１","E_COORD97":169527.57999999999,"N_COORD97":2545798.4500000002,"ADDRESS":"北門路二段５７７巷２１號九樓之１","OBJECTID":266729},"geometry":{"x":169527.58000000007,"y":2545798.4500000011}},{"attributes":{"ID":266734,"DIS_CODE":0,"TOWNNAME":"北區","LI":"光武里","LIN":"14鄰","STREET":"北門路","SECT":"二段","MAREA":" ","LANE":"５７７巷","ALLEY":" ","HOUSE_NO":"２１號十樓之１","E_COORD97":169527.57999999999,"N_COORD97":2545798.4500000002,"ADDRESS":"北門路二段５７７巷２１號十樓之１","OBJECTID":266730},"geometry":{"x":169527.58000000007,"y":2545798.4500000011}},{"attributes":{"ID":266735,"DIS_CODE":0,"TOWNNAME":"北區","LI":"光武里","LIN":"14鄰","STREET":"北門路","SECT":"二段","MAREA":" ","LANE":"５７７巷","ALLEY":" ","HOUSE_NO":"２１號三樓之２","E_COORD97":169527.57999999999,"N_COORD97":2545798.4500000002,"ADDRESS":"北門路二段５７７巷２１號三樓之２","OBJECTID":266731},"geometry":{"x":169527.58000000007,"y":2545798.4500000011}},{"attributes":{"ID":266736,"DIS_CODE":0,"TOWNNAME":"北區","LI":"光武里","LIN":"14鄰","STREET":"北門路","SECT":"二段","MAREA":" ","LANE":"５７７巷","ALLEY":" ","HOUSE_NO":"２１號四樓之２","E_COORD97":169527.57999999999,"N_COORD97":2545798.4500000002,"ADDRESS":"北門路二段５７７巷２１號四樓之２","OBJECTID":266732},"geometry":{"x":169527.58000000007,"y":2545798.4500000011}},{"attributes":{"ID":266737,"DIS_CODE":0,"TOWNNAME":"北區","LI":"光武里","LIN":"14鄰","STREET":"北門路","SECT":"二段","MAREA":" ","LANE":"５７７巷","ALLEY":" ","HOUSE_NO":"２１號五樓之２","E_COORD97":169527.57999999999,"N_COORD97":2545798.4500000002,"ADDRESS":"北門路二段５７７巷２１號五樓之２","OBJECTID":266733},"geometry":{"x":169527.58000000007,"y":2545798.4500000011}},{"attributes":{"ID":266738,"DIS_CODE":0,"TOWNNAME":"北區","LI":"光武里","LIN":"14鄰","STREET":"北門路","SECT":"二段","MAREA":" ","LANE":"５７７巷","ALLEY":" ","HOUSE_NO":"２１號六樓之２","E_COORD97":169527.57999999999,"N_COORD97":2545798.4500000002,"ADDRESS":"北門路二段５７７巷２１號六樓之２","OBJECTID":266734},"geometry":{"x":169527.58000000007,"y":2545798.4500000011}},{"attributes":{"ID":266739,"DIS_CODE":0,"TOWNNAME":"北區","LI":"光武里","LIN":"14鄰","STREET":"北門路","SECT":"二段","MAREA":" ","LANE":"５７７巷","ALLEY":" ","HOUSE_NO":"２１號七樓之２","E_COORD97":169527.57999999999,"N_COORD97":2545798.4500000002,"ADDRESS":"北門路二段５７７巷２１號七樓之２","OBJECTID":266735},"geometry":{"x":169527.58000000007,"y":2545798.4500000011}},{"attributes":{"ID":266740,"DIS_CODE":0,"TOWNNAME":"北區","LI":"光武里","LIN":"14鄰","STREET":"北門路","SECT":"二段","MAREA":" ","LANE":"５７７巷","ALLEY":" ","HOUSE_NO":"２１號八樓之２","E_COORD97":169527.57999999999,"N_COORD97":2545798.4500000002,"ADDRESS":"北門路二段５７７巷２１號八樓之２","OBJECTID":266736},"geometry":{"x":169527.58000000007,"y":2545798.4500000011}},{"attributes":{"ID":266741,"DIS_CODE":0,"TOWNNAME":"北區","LI":"光武里","LIN":"14鄰","STREET":"北門路","SECT":"二段","MAREA":" ","LANE":"５７７巷","ALLEY":" ","HOUSE_NO":"２１號九樓之２","E_COORD97":169527.57999999999,"N_COORD97":2545798.4500000002,"ADDRESS":"北門路二段５７７巷２１號九樓之２","OBJECTID":266737},"geometry":{"x":169527.58000000007,"y":2545798.4500000011}},{"attributes":{"ID":266742,"DIS_CODE":0,"TOWNNAME":"北區","LI":"光武里","LIN":"14鄰","STREET":"北門路","SECT":"二段","MAREA":" ","LANE":"５７７巷","ALLEY":" ","HOUSE_NO":"２１號十樓之２","E_COORD97":169527.57999999999,"N_COORD97":2545798.4500000002,"ADDRESS":"北門路二段５７７巷２１號十樓之２","OBJECTID":266738},"geometry":{"x":169527.58000000007,"y":2545798.4500000011}},{"attributes":{"ID":266743,"DIS_CODE":0,"TOWNNAME":"北區","LI":"振興里","LIN":"14鄰","STREET":"長榮路","SECT":"四段","MAREA":" ","LANE":"１０２巷","ALLEY":" ","HOUSE_NO":"１３號二樓","E_COORD97":170327.47,"N_COORD97":2545131.6899999999,"ADDRESS":"長榮路四段１０２巷１３號二樓","OBJECTID":266739},"geometry":{"x":170327.47000000067,"y":2545131.6900000013}},{"attributes":{"ID":266744,"DIS_CODE":0,"TOWNNAME":"北區","LI":"振興里","LIN":"14鄰","STREET":"長榮路","SECT":"四段","MAREA":" ","LANE":"１０２巷","ALLEY":" ","HOUSE_NO":"１３號三樓","E_COORD97":170327.47,"N_COORD97":2545131.6899999999,"ADDRESS":"長榮路四段１０２巷１３號三樓","OBJECTID":266740},"geometry":{"x":170327.47000000067,"y":2545131.6900000013}},{"attributes":{"ID":266745,"DIS_CODE":0,"TOWNNAME":"北區","LI":"振興里","LIN":"14鄰","STREET":"長榮路","SECT":"四段","MAREA":" ","LANE":"１０２巷","ALLEY":" ","HOUSE_NO":"１３號四樓","E_COORD97":170327.47,"N_COORD97":2545131.6899999999,"ADDRESS":"長榮路四段１０２巷１３號四樓","OBJECTID":266741},"geometry":{"x":170327.47000000067,"y":2545131.6900000013}},{"attributes":{"ID":266746,"DIS_CODE":0,"TOWNNAME":"南區","LI":"再興里","LIN":"14鄰","STREET":"金華路","SECT":"二段","MAREA":" ","LANE":"１００巷","ALLEY":" ","HOUSE_NO":"３５號七樓之１","E_COORD97":167195.64000000001,"N_COORD97":2542106.3300000001,"ADDRESS":"金華路二段１００巷３５號七樓之１","OBJECTID":266742},"geometry":{"x":167195.6400000006,"y":2542106.3299999982}},{"attributes":{"ID":266747,"DIS_CODE":0,"TOWNNAME":"中西區","LI":"西湖里","LIN":"34鄰","STREET":"西湖街","SECT":" ","MAREA":" ","LANE":" ","ALLEY":" ","HOUSE_NO":"７５號","E_COORD97":166394.47,"N_COORD97":2544893.1400000001,"ADDRESS":"西湖街７５號","OBJECTID":266743},"geometry":{"x":166394.47000000067,"y":2544893.1400000025}},{"attributes":{"ID":266748,"DIS_CODE":0,"TOWNNAME":"南區","LI":"再興里","LIN":"14鄰","STREET":"金華路","SECT":"二段","MAREA":" ","LANE":"１００巷","ALLEY":" ","HOUSE_NO":"３５號七樓之２","E_COORD97":167195.64000000001,"N_COORD97":2542106.3300000001,"ADDRESS":"金華路二段１００巷３５號七樓之２","OBJECTID":266744},"geometry":{"x":167195.6400000006,"y":2542106.3299999982}},{"attributes":{"ID":266749,"DIS_CODE":0,"TOWNNAME":"北區","LI":"長榮里","LIN":"14鄰","STREET":"長榮路","SECT":"五段","MAREA":" ","LANE":"４１巷","ALLEY":" ","HOUSE_NO":"７２號七樓之２","E_COORD97":169847.92000000001,"N_COORD97":2545621.7200000002,"ADDRESS":"長榮路五段４１巷７２號七樓之２","OBJECTID":266745},"geometry":{"x":169847.92000000179,"y":2545621.7200000025}},{"attributes":{"ID":266750,"DIS_CODE":0,"TOWNNAME":"北區","LI":"長榮里","LIN":"14鄰","STREET":"長榮路","SECT":"五段","MAREA":" ","LANE":"４１巷","ALLEY":" ","HOUSE_NO":"７２號七樓之３","E_COORD97":169847.92000000001,"N_COORD97":2545621.7200000002,"ADDRESS":"長榮路五段４１巷７２號七樓之３","OBJECTID":266746},"geometry":{"x":169847.92000000179,"y":2545621.7200000025}},{"attributes":{"ID":266751,"DIS_CODE":0,"TOWNNAME":"北區","LI":"大山里","LIN":"14鄰","STREET":"旭日街","SECT":" ","MAREA":" ","LANE":"１４３巷","ALLEY":" ","HOUSE_NO":"２０號二樓之１","E_COORD97":169377.10000000001,"N_COORD97":2545742.1200000001,"ADDRESS":"旭日街１４３巷２０號二樓之１","OBJECTID":266747},"geometry":{"x":169377.10000000056,"y":2545742.120000001}},{"attributes":{"ID":266752,"DIS_CODE":0,"TOWNNAME":"北區","LI":"大山里","LIN":"14鄰","STREET":"旭日街","SECT":" ","MAREA":" ","LANE":"１４３巷","ALLEY":" ","HOUSE_NO":"２０號二樓之２","E_COORD97":169377.10000000001,"N_COORD97":2545742.1200000001,"ADDRESS":"旭日街１４３巷２０號二樓之２","OBJECTID":266748},"geometry":{"x":169377.10000000056,"y":2545742.120000001}},{"attributes":{"ID":266753,"DIS_CODE":0,"TOWNNAME":"北區","LI":"大山里","LIN":"14鄰","STREET":"旭日街","SECT":" ","MAREA":" ","LANE":"１４３巷","ALLEY":" ","HOUSE_NO":"２０號二樓之３","E_COORD97":169377.10000000001,"N_COORD97":2545742.1200000001,"ADDRESS":"旭日街１４３巷２０號二樓之３","OBJECTID":266749},"geometry":{"x":169377.10000000056,"y":2545742.120000001}},{"attributes":{"ID":266754,"DIS_CODE":0,"TOWNNAME":"北區","LI":"大山里","LIN":"14鄰","STREET":"旭日街","SECT":" ","MAREA":" ","LANE":"１４３巷","ALLEY":" ","HOUSE_NO":"２０號二樓之４","E_COORD97":169377.10000000001,"N_COORD97":2545742.1200000001,"ADDRESS":"旭日街１４３巷２０號二樓之４","OBJECTID":266750},"geometry":{"x":169377.10000000056,"y":2545742.120000001}},{"attributes":{"ID":266755,"DIS_CODE":0,"TOWNNAME":"永康區","LI":"永康里","LIN":"3鄰","STREET":"中山路","SECT":" ","MAREA":" ","LANE":" ","ALLEY":" ","HOUSE_NO":"１２號四樓之２","E_COORD97":173882.56,"N_COORD97":2547415.23,"ADDRESS":"中山路１２號四樓之２","OBJECTID":266751},"geometry":{"x":173882.55999999959,"y":2547415.2300000023}},{"attributes":{"ID":266756,"DIS_CODE":0,"TOWNNAME":"永康區","LI":"永康里","LIN":"3鄰","STREET":"中山路","SECT":" ","MAREA":" ","LANE":" ","ALLEY":" ","HOUSE_NO":"１２號八樓之１","E_COORD97":173882.42999999999,"N_COORD97":2547415.23,"ADDRESS":"中山路１２號八樓之１","OBJECTID":266752},"geometry":{"x":173882.43000000063,"y":2547415.2300000023}},{"attributes":{"ID":266757,"DIS_CODE":0,"TOWNNAME":"永康區","LI":"永康里","LIN":"3鄰","STREET":"中山路","SECT":" ","MAREA":" ","LANE":" ","ALLEY":" ","HOUSE_NO":"１２號六樓之６","E_COORD97":173882.53,"N_COORD97":2547415.23,"ADDRESS":"中山路１２號六樓之６","OBJECTID":266753},"geometry":{"x":173882.53000000119,"y":2547415.2300000023}},{"attributes":{"ID":266758,"DIS_CODE":0,"TOWNNAME":"永康區","LI":"永康里","LIN":"3鄰","STREET":"中山路","SECT":" ","MAREA":" ","LANE":" ","ALLEY":" ","HOUSE_NO":"１２號三樓之２","E_COORD97":173882.56,"N_COORD97":2547415.23,"ADDRESS":"中山路１２號三樓之２","OBJECTID":266754},"geometry":{"x":173882.55999999959,"y":2547415.2300000023}},{"attributes":{"ID":266759,"DIS_CODE":0,"TOWNNAME":"永康區","LI":"永康里","LIN":"3鄰","STREET":"中山路","SECT":" ","MAREA":" ","LANE":" ","ALLEY":" ","HOUSE_NO":"１２號二樓之５","E_COORD97":173882.57999999999,"N_COORD97":2547415.23,"ADDRESS":"中山路１２號二樓之５","OBJECTID":266755},"geometry":{"x":173882.58000000007,"y":2547415.2300000023}},{"attributes":{"ID":266760,"DIS_CODE":0,"TOWNNAME":"永康區","LI":"永康里","LIN":"3鄰","STREET":"中山路","SECT":" ","MAREA":" ","LANE":" ","ALLEY":" ","HOUSE_NO":"１２號五樓之１","E_COORD97":173882.42999999999,"N_COORD97":2547415.23,"ADDRESS":"中山路１２號五樓之１","OBJECTID":266756},"geometry":{"x":173882.43000000063,"y":2547415.2300000023}},{"attributes":{"ID":266761,"DIS_CODE":0,"TOWNNAME":"南區","LI":"彰南里","LIN":"20鄰","STREET":"新平路","SECT":" ","MAREA":" ","LANE":" ","ALLEY":" ","HOUSE_NO":"１之１號","E_COORD97":166172.89999999999,"N_COORD97":2540562.71,"ADDRESS":"新平路１之１號","OBJECTID":266757},"geometry":{"x":166172.90000000037,"y":2540562.7100000028}},{"attributes":{"ID":266762,"DIS_CODE":0,"TOWNNAME":"歸仁區","LI":"歸仁里","LIN":"20鄰","STREET":"文化街","SECT":"一段","MAREA":" ","LANE":"１０１巷","ALLEY":" ","HOUSE_NO":"１１號","E_COORD97":178060.09,"N_COORD97":2541123.1299999999,"ADDRESS":"文化街一段１０１巷１１號","OBJECTID":266758},"geometry":{"x":178060.09000000078,"y":2541123.129999999}},{"attributes":{"ID":266763,"DIS_CODE":0,"TOWNNAME":"北區","LI":"玉皇里","LIN":"14鄰","STREET":"佑民街","SECT":" ","MAREA":" ","LANE":"５３巷","ALLEY":" ","HOUSE_NO":"１１號二樓","E_COORD97":168563.82000000001,"N_COORD97":2544462.27,"ADDRESS":"佑民街５３巷１１號二樓","OBJECTID":266759},"geometry":{"x":168563.8200000003,"y":2544462.2699999996}},{"attributes":{"ID":266764,"DIS_CODE":0,"TOWNNAME":"北區","LI":"玉皇里","LIN":"14鄰","STREET":"佑民街","SECT":" ","MAREA":" ","LANE":"５３巷","ALLEY":" ","HOUSE_NO":"１１號五樓","E_COORD97":168563.82000000001,"N_COORD97":2544462.27,"ADDRESS":"佑民街５３巷１１號五樓","OBJECTID":266760},"geometry":{"x":168563.8200000003,"y":2544462.2699999996}},{"attributes":{"ID":266765,"DIS_CODE":0,"TOWNNAME":"永康區","LI":"永康里","LIN":"14鄰","STREET":"永中街","SECT":" ","MAREA":" ","LANE":"１００巷","ALLEY":" ","HOUSE_NO":"３０號","E_COORD97":174076.85000000001,"N_COORD97":2547107.3300000001,"ADDRESS":"永中街１００巷３０號","OBJECTID":266761},"geometry":{"x":174076.84999999963,"y":2547107.3300000038}},{"attributes":{"ID":266766,"DIS_CODE":0,"TOWNNAME":"永康區","LI":"正強里","LIN":"14鄰","STREET":"正強街","SECT":" ","MAREA":" ","LANE":"１１１巷","ALLEY":" ","HOUSE_NO":"１１號","E_COORD97":173289.53,"N_COORD97":2547401.7400000002,"ADDRESS":"正強街１１１巷１１號","OBJECTID":266762},"geometry":{"x":173289.53000000119,"y":2547401.7400000002}},{"attributes":{"ID":266767,"DIS_CODE":0,"TOWNNAME":"安南區","LI":"長安里","LIN":"14鄰","STREET":"長溪路","SECT":"三段","MAREA":" ","LANE":"３８０巷","ALLEY":" ","HOUSE_NO":"１００號之１","E_COORD97":168001.12,"N_COORD97":2552179.9500000002,"ADDRESS":"長溪路三段３８０巷１００號之１","OBJECTID":266763},"geometry":{"x":168001.12000000104,"y":2552179.9499999993}},{"attributes":{"ID":266768,"DIS_CODE":0,"TOWNNAME":"安南區","LI":"長安里","LIN":"14鄰","STREET":"長溪路","SECT":"三段","MAREA":" ","LANE":"３８０巷","ALLEY":" ","HOUSE_NO":"１０１號","E_COORD97":167958.72,"N_COORD97":2552180.8799999999,"ADDRESS":"長溪路三段３８０巷１０１號","OBJECTID":266764},"geometry":{"x":167958.71999999974,"y":2552180.879999999}},{"attributes":{"ID":266769,"DIS_CODE":0,"TOWNNAME":"安南區","LI":"長安里","LIN":"14鄰","STREET":"長溪路","SECT":"三段","MAREA":" ","LANE":"３８０巷","ALLEY":" ","HOUSE_NO":"１０３號","E_COORD97":167963.04000000001,"N_COORD97":2552183.1200000001,"ADDRESS":"長溪路三段３８０巷１０３號","OBJECTID":266765},"geometry":{"x":167963.04000000004,"y":2552183.1200000029}},{"attributes":{"ID":266770,"DIS_CODE":0,"TOWNNAME":"安南區","LI":"長安里","LIN":"14鄰","STREET":"長溪路","SECT":"三段","MAREA":" ","LANE":"３８０巷","ALLEY":" ","HOUSE_NO":"１０５號","E_COORD97":167971.31,"N_COORD97":2552186.8100000001,"ADDRESS":"長溪路三段３８０巷１０５號","OBJECTID":266766},"geometry":{"x":167971.30999999959,"y":2552186.8100000042}},{"attributes":{"ID":266771,"DIS_CODE":0,"TOWNNAME":"安南區","LI":"頂安里","LIN":"14鄰","STREET":"長溪路","SECT":"一段","MAREA":" ","LANE":"４０７巷","ALLEY":" ","HOUSE_NO":"９號","E_COORD97":168556.84,"N_COORD97":2548882.5800000001,"ADDRESS":"長溪路一段４０７巷９號","OBJECTID":266767},"geometry":{"x":168556.84000000078,"y":2548882.5800000019}},{"attributes":{"ID":266772,"DIS_CODE":0,"TOWNNAME":"安南區","LI":"頂安里","LIN":"14鄰","STREET":"長溪路","SECT":"一段","MAREA":" ","LANE":"４０７巷","ALLEY":" ","HOUSE_NO":"１１號","E_COORD97":168551.79999999999,"N_COORD97":2548870.1699999999,"ADDRESS":"長溪路一段４０７巷１１號","OBJECTID":266768},"geometry":{"x":168551.80000000168,"y":2548870.1699999999}},{"attributes":{"ID":266773,"DIS_CODE":0,"TOWNNAME":"安南區","LI":"海南里","LIN":"14鄰","STREET":"府安路","SECT":"七段","MAREA":" ","LANE":"６６巷","ALLEY":" ","HOUSE_NO":"２２之１號","E_COORD97":165874.82999999999,"N_COORD97":2545973.21,"ADDRESS":"府安路七段６６巷２２之１號","OBJECTID":266769},"geometry":{"x":165874.83000000007,"y":2545973.2100000046}},{"attributes":{"ID":266774,"DIS_CODE":0,"TOWNNAME":"安南區","LI":"海南里","LIN":"14鄰","STREET":"府安路","SECT":"七段","MAREA":" ","LANE":"６６巷","ALLEY":" ","HOUSE_NO":"２２號","E_COORD97":165877.88,"N_COORD97":2545969.7799999998,"ADDRESS":"府安路七段６６巷２２號","OBJECTID":266770},"geometry":{"x":165877.87999999989,"y":2545969.7799999993}},{"attributes":{"ID":266775,"DIS_CODE":0,"TOWNNAME":"佳里區","LI":"忠仁里","LIN":"14鄰","STREET":"佳東路","SECT":" ","MAREA":" ","LANE":"２３７巷","ALLEY":" ","HOUSE_NO":"２號","E_COORD97":166358.75,"N_COORD97":2562001.48,"ADDRESS":"佳東路２３７巷２號","OBJECTID":266771},"geometry":{"x":166358.75000000186,"y":2562001.4800000023}},{"attributes":{"ID":266776,"DIS_CODE":0,"TOWNNAME":"佳里區","LI":"忠仁里","LIN":"14鄰","STREET":"佳東路","SECT":" ","MAREA":" ","LANE":"２３７巷","ALLEY":" ","HOUSE_NO":"６號","E_COORD97":166353.04999999999,"N_COORD97":2562001.3399999999,"ADDRESS":"佳東路２３７巷６號","OBJECTID":266772},"geometry":{"x":166353.04999999888,"y":2562001.3400000017}},{"attributes":{"ID":266777,"DIS_CODE":0,"TOWNNAME":"佳里區","LI":"忠仁里","LIN":"14鄰","STREET":"佳東路","SECT":" ","MAREA":" ","LANE":"２３７巷","ALLEY":" ","HOUSE_NO":"８號","E_COORD97":166347.82999999999,"N_COORD97":2562001.6899999999,"ADDRESS":"佳東路２３７巷８號","OBJECTID":266773},"geometry":{"x":166347.83000000007,"y":2562001.6900000032}},{"attributes":{"ID":266778,"DIS_CODE":0,"TOWNNAME":"南區","LI":"田寮里","LIN":"20鄰","STREET":"西門路","SECT":"一段","MAREA":" ","LANE":"２７９巷","ALLEY":" ","HOUSE_NO":"２號之１","E_COORD97":167691.41,"N_COORD97":2541944.5800000001,"ADDRESS":"西門路一段２７９巷２號之１","OBJECTID":266774},"geometry":{"x":167691.41000000015,"y":2541944.5800000001}},{"attributes":{"ID":266779,"DIS_CODE":0,"TOWNNAME":"南區","LI":"田寮里","LIN":"20鄰","STREET":"西門路","SECT":"一段","MAREA":" ","LANE":"２７９巷","ALLEY":" ","HOUSE_NO":"３號","E_COORD97":167691.39000000001,"N_COORD97":2541917.8300000001,"ADDRESS":"西門路一段２７９巷３號","OBJECTID":266775},"geometry":{"x":167691.38999999966,"y":2541917.8300000019}},{"attributes":{"ID":266780,"DIS_CODE":0,"TOWNNAME":"南區","LI":"田寮里","LIN":"20鄰","STREET":"西門路","SECT":"一段","MAREA":" ","LANE":"２７９巷","ALLEY":" ","HOUSE_NO":"５號","E_COORD97":167684.07999999999,"N_COORD97":2541917.3199999998,"ADDRESS":"西門路一段２７９巷５號","OBJECTID":266776},"geometry":{"x":167684.08000000101,"y":2541917.3200000022}},{"attributes":{"ID":266781,"DIS_CODE":0,"TOWNNAME":"南區","LI":"田寮里","LIN":"20鄰","STREET":"西門路","SECT":"一段","MAREA":" ","LANE":"２７９巷","ALLEY":" ","HOUSE_NO":"６號","E_COORD97":167698.89999999999,"N_COORD97":2541956.73,"ADDRESS":"西門路一段２７９巷６號","OBJECTID":266777},"geometry":{"x":167698.90000000037,"y":2541956.7300000004}},{"attributes":{"ID":266782,"DIS_CODE":0,"TOWNNAME":"永康區","LI":"北灣里","LIN":"14鄰","STREET":"大灣七街","SECT":" ","MAREA":" ","LANE":"１１１巷","ALLEY":" ","HOUSE_NO":"１６號","E_COORD97":175032.82999999999,"N_COORD97":2545918.7400000002,"ADDRESS":"大灣七街１１１巷１６號","OBJECTID":266778},"geometry":{"x":175032.83000000101,"y":2545918.7400000021}},{"attributes":{"ID":266783,"DIS_CODE":0,"TOWNNAME":"永康區","LI":"勝利里","LIN":"14鄰","STREET":"勝利街","SECT":" ","MAREA":" ","LANE":"７７巷","ALLEY":" ","HOUSE_NO":"２１號","E_COORD97":171275.29000000001,"N_COORD97":2544770.2599999998,"ADDRESS":"勝利街７７巷２１號","OBJECTID":266779},"geometry":{"x":171275.29000000097,"y":2544770.2599999998}},{"attributes":{"ID":266784,"DIS_CODE":0,"TOWNNAME":"永康區","LI":"復華里","LIN":"14鄰","STREET":"國華街","SECT":" ","MAREA":" ","LANE":"９６巷","ALLEY":" ","HOUSE_NO":"２４號","E_COORD97":172914.31,"N_COORD97":2545918.25,"ADDRESS":"國華街９６巷２４號","OBJECTID":266780},"geometry":{"x":172914.30999999959,"y":2545918.2500000019}},{"attributes":{"ID":266785,"DIS_CODE":0,"TOWNNAME":"佳里區","LI":"東寧里","LIN":"14鄰","STREET":"延平路","SECT":" ","MAREA":" ","LANE":"３５０巷","ALLEY":" ","HOUSE_NO":"５號","E_COORD97":165899.48000000001,"N_COORD97":2562484.8500000001,"ADDRESS":"延平路３５０巷５號","OBJECTID":266781},"geometry":{"x":165899.48000000045,"y":2562484.8499999996}},{"attributes":{"ID":266786,"DIS_CODE":0,"TOWNNAME":"佳里區","LI":"忠仁里","LIN":"14鄰","STREET":"信義一街","SECT":" ","MAREA":" ","LANE":"２７１巷","ALLEY":" ","HOUSE_NO":"１１號","E_COORD97":166150.38,"N_COORD97":2562190.5800000001,"ADDRESS":"信義一街２７１巷１１號","OBJECTID":266782},"geometry":{"x":166150.37999999989,"y":2562190.5800000019}},{"attributes":{"ID":266787,"DIS_CODE":0,"TOWNNAME":"佳里區","LI":"忠仁里","LIN":"14鄰","STREET":"信義一街","SECT":" ","MAREA":" ","LANE":"２７１巷","ALLEY":" ","HOUSE_NO":"１３號","E_COORD97":166149.72,"N_COORD97":2562186.5299999998,"ADDRESS":"信義一街２７１巷１３號","OBJECTID":266783},"geometry":{"x":166149.71999999974,"y":2562186.5300000012}},{"attributes":{"ID":266788,"DIS_CODE":0,"TOWNNAME":"佳里區","LI":"忠仁里","LIN":"14鄰","STREET":"信義一街","SECT":" ","MAREA":" ","LANE":"２７１巷","ALLEY":" ","HOUSE_NO":"１５號","E_COORD97":166148.54000000001,"N_COORD97":2562182.23,"ADDRESS":"信義一街２７１巷１５號","OBJECTID":266784},"geometry":{"x":166148.54000000097,"y":2562182.2300000042}},{"attributes":{"ID":266789,"DIS_CODE":0,"TOWNNAME":"佳里區","LI":"忠仁里","LIN":"14鄰","STREET":"信義一街","SECT":" ","MAREA":" ","LANE":"２７１巷","ALLEY":" ","HOUSE_NO":"１７號","E_COORD97":166148.04999999999,"N_COORD97":2562177.6899999999,"ADDRESS":"信義一街２７１巷１７號","OBJECTID":266785},"geometry":{"x":166148.05000000168,"y":2562177.6899999976}},{"attributes":{"ID":266790,"DIS_CODE":0,"TOWNNAME":"佳里區","LI":"忠仁里","LIN":"14鄰","STREET":"信義一街","SECT":" ","MAREA":" ","LANE":"２７１巷","ALLEY":" ","HOUSE_NO":"１９號","E_COORD97":166147.39999999999,"N_COORD97":2562173.6899999999,"ADDRESS":"信義一街２７１巷１９號","OBJECTID":266786},"geometry":{"x":166147.40000000037,"y":2562173.6899999995}},{"attributes":{"ID":266791,"DIS_CODE":0,"TOWNNAME":"佳里區","LI":"忠仁里","LIN":"14鄰","STREET":"信義一街","SECT":" ","MAREA":" ","LANE":"２７１巷","ALLEY":" ","HOUSE_NO":"１號","E_COORD97":166154.91,"N_COORD97":2562211.3799999999,"ADDRESS":"信義一街２７１巷１號","OBJECTID":266787},"geometry":{"x":166154.91000000108,"y":2562211.3800000008}},{"attributes":{"ID":266792,"DIS_CODE":0,"TOWNNAME":"佳里區","LI":"忠仁里","LIN":"14鄰","STREET":"信義一街","SECT":" ","MAREA":" ","LANE":"２７１巷","ALLEY":" ","HOUSE_NO":"３號","E_COORD97":166153.97,"N_COORD97":2562206.9700000002,"ADDRESS":"信義一街２７１巷３號","OBJECTID":266788},"geometry":{"x":166153.97000000067,"y":2562206.9700000007}},{"attributes":{"ID":266793,"DIS_CODE":0,"TOWNNAME":"佳里區","LI":"忠仁里","LIN":"14鄰","STREET":"信義一街","SECT":" ","MAREA":" ","LANE":"２７１巷","ALLEY":" ","HOUSE_NO":"５號","E_COORD97":166152.98000000001,"N_COORD97":2562202.9399999999,"ADDRESS":"信義一街２７１巷５號","OBJECTID":266789},"geometry":{"x":166152.98000000138,"y":2562202.9399999995}},{"attributes":{"ID":266794,"DIS_CODE":0,"TOWNNAME":"安南區","LI":"州南里","LIN":"14鄰","STREET":"安和路","SECT":"四段","MAREA":" ","LANE":"５３３巷","ALLEY":" ","HOUSE_NO":"１５５號","E_COORD97":169624.42999999999,"N_COORD97":2551200.3399999999,"ADDRESS":"安和路四段５３３巷１５５號","OBJECTID":266790},"geometry":{"x":169624.43000000063,"y":2551200.3400000017}},{"attributes":{"ID":266795,"DIS_CODE":0,"TOWNNAME":"安南區","LI":"州南里","LIN":"14鄰","STREET":"安和路","SECT":"四段","MAREA":" ","LANE":"５３３巷","ALLEY":" ","HOUSE_NO":"１５７號","E_COORD97":169619.89000000001,"N_COORD97":2551200.5899999999,"ADDRESS":"安和路四段５３３巷１５７號","OBJECTID":266791},"geometry":{"x":169619.88999999966,"y":2551200.5899999999}},{"attributes":{"ID":266796,"DIS_CODE":0,"TOWNNAME":"白河區","LI":"六溪里","LIN":"5鄰","STREET":" ","SECT":" ","MAREA":"六重溪","LANE":" ","ALLEY":" ","HOUSE_NO":"２３號","E_COORD97":194676.60000000001,"N_COORD97":2578737.9700000002,"ADDRESS":"六重溪２３號","OBJECTID":266792},"geometry":{"x":194676.60000000056,"y":2578737.9700000007}},{"attributes":{"ID":266797,"DIS_CODE":0,"TOWNNAME":"安南區","LI":"州南里","LIN":"14鄰","STREET":"安和路","SECT":"四段","MAREA":" ","LANE":"５３３巷","ALLEY":" ","HOUSE_NO":"１５９號","E_COORD97":169614.35000000001,"N_COORD97":2551200.8399999999,"ADDRESS":"安和路四段５３３巷１５９號","OBJECTID":266793},"geometry":{"x":169614.35000000056,"y":2551200.8400000017}},{"attributes":{"ID":266798,"DIS_CODE":0,"TOWNNAME":"安南區","LI":"州南里","LIN":"14鄰","STREET":"安和路","SECT":"四段","MAREA":" ","LANE":"５３３巷","ALLEY":" ","HOUSE_NO":"１６３號","E_COORD97":169606.04000000001,"N_COORD97":2551203.8599999999,"ADDRESS":"安和路四段５３３巷１６３號","OBJECTID":266794},"geometry":{"x":169606.04000000004,"y":2551203.8599999994}},{"attributes":{"ID":266799,"DIS_CODE":0,"TOWNNAME":"安南區","LI":"海西里","LIN":"14鄰","STREET":"海環街","SECT":" ","MAREA":" ","LANE":"４３７巷","ALLEY":" ","HOUSE_NO":"５２之１號","E_COORD97":166037.07999999999,"N_COORD97":2549170.1699999999,"ADDRESS":"海環街４３７巷５２之１號","OBJECTID":266795},"geometry":{"x":166037.08000000007,"y":2549170.1700000018}},{"attributes":{"ID":266800,"DIS_CODE":0,"TOWNNAME":"新市區","LI":"港墘里","LIN":"14鄰","STREET":"長安街","SECT":" ","MAREA":" ","LANE":"３６巷","ALLEY":" ","HOUSE_NO":"２４號","E_COORD97":178292.48999999999,"N_COORD97":2552805.8199999998,"ADDRESS":"長安街３６巷２４號","OBJECTID":266796},"geometry":{"x":178292.49000000022,"y":2552805.8200000003}},{"attributes":{"ID":266801,"DIS_CODE":0,"TOWNNAME":"永康區","LI":"復國里","LIN":"14鄰","STREET":"復國二路","SECT":" ","MAREA":" ","LANE":"１７８巷","ALLEY":" ","HOUSE_NO":"８號之８","E_COORD97":172951.51999999999,"N_COORD97":2545652.6099999999,"ADDRESS":"復國二路１７８巷８號之８","OBJECTID":266797},"geometry":{"x":172951.52000000048,"y":2545652.6099999994}},{"attributes":{"ID":266802,"DIS_CODE":0,"TOWNNAME":"東區","LI":"崇信里","LIN":"14鄰","STREET":"崇學路","SECT":" ","MAREA":" ","LANE":"１８８巷","ALLEY":" ","HOUSE_NO":"２２號","E_COORD97":170573.89999999999,"N_COORD97":2542425.73,"ADDRESS":"崇學路１８８巷２２號","OBJECTID":266798},"geometry":{"x":170573.90000000037,"y":2542425.7300000004}},{"attributes":{"ID":266803,"DIS_CODE":0,"TOWNNAME":"東區","LI":"崇信里","LIN":"14鄰","STREET":"崇學路","SECT":" ","MAREA":" ","LANE":"１８８巷","ALLEY":" ","HOUSE_NO":"２４號","E_COORD97":170569.76999999999,"N_COORD97":2542421.6099999999,"ADDRESS":"崇學路１８８巷２４號","OBJECTID":266799},"geometry":{"x":170569.77000000048,"y":2542421.6099999994}},{"attributes":{"ID":266804,"DIS_CODE":0,"TOWNNAME":"安南區","LI":"安東里","LIN":"14鄰","STREET":"安通路","SECT":"三段","MAREA":" ","LANE":"１３０巷","ALLEY":" ","HOUSE_NO":"２８號","E_COORD97":169452.92000000001,"N_COORD97":2547921.1499999999,"ADDRESS":"安通路三段１３０巷２８號","OBJECTID":266800},"geometry":{"x":169452.92000000179,"y":2547921.1500000004}}]}