{"displayFieldName":"TOWNNAME","fieldAliases":{"ID":"ID","DIS_CODE":"DIS_CODE","TOWNNAME":"TOWNNAME","LI":"LI","LIN":"LIN","STREET":"STREET","SECT":"SECT","MAREA":"MAREA","LANE":"LANE","ALLEY":"ALLEY","HOUSE_NO":"HOUSE_NO","E_COORD97":"E_COORD97","N_COORD97":"N_COORD97","ADDRESS":"ADDRESS","OBJECTID":"OBJECTID"},"geometryType":"esriGeometryPoint","spatialReference":{"wkid":102443,"latestWkid":3826},"fields":[{"name":"ID","type":"esriFieldTypeDouble","alias":"ID"},{"name":"DIS_CODE","type":"esriFieldTypeInteger","alias":"DIS_CODE"},{"name":"TOWNNAME","type":"esriFieldTypeString","alias":"TOWNNAME","length":8},{"name":"LI","type":"esriFieldTypeString","alias":"LI","length":8},{"name":"LIN","type":"esriFieldTypeString","alias":"LIN","length":12},{"name":"STREET","type":"esriFieldTypeString","alias":"STREET","length":20},{"name":"SECT","type":"esriFieldTypeString","alias":"SECT","length":8},{"name":"MAREA","type":"esriFieldTypeString","alias":"MAREA","length":12},{"name":"LANE","type":"esriFieldTypeString","alias":"LANE","length":10},{"name":"ALLEY","type":"esriFieldTypeString","alias":"ALLEY","length":10},{"name":"HOUSE_NO","type":"esriFieldTypeString","alias":"HOUSE_NO","length":20},{"name":"E_COORD97","type":"esriFieldTypeDouble","alias":"E_COORD97"},{"name":"N_COORD97","type":"esriFieldTypeDouble","alias":"N_COORD97"},{"name":"ADDRESS","type":"esriFieldTypeString","alias":"ADDRESS","length":50},{"name":"OBJECTID","type":"esriFieldTypeOID","alias":"OBJECTID"}],"features":[{"attributes":{"ID":146201,"DIS_CODE":0,"TOWNNAME":"東區","LI":"崇文里","LIN":"30鄰","STREET":"崇德二十四街","SECT":" ","MAREA":" ","LANE":" ","ALLEY":" ","HOUSE_NO":"３４號","E_COORD97":170905.79999999999,"N_COORD97":2540693.96,"ADDRESS":"崇德二十四街３４號","OBJECTID":146201},"geometry":{"x":170905.79999999981,"y":2540693.9600000028}},{"attributes":{"ID":146202,"DIS_CODE":0,"TOWNNAME":"東區","LI":"崇文里","LIN":"30鄰","STREET":"崇德二十四街","SECT":" ","MAREA":" ","LANE":" ","ALLEY":" ","HOUSE_NO":"３６號","E_COORD97":170909.89000000001,"N_COORD97":2540694.25,"ADDRESS":"崇德二十四街３６號","OBJECTID":146202},"geometry":{"x":170909.8900000006,"y":2540694.2500000019}},{"attributes":{"ID":146203,"DIS_CODE":0,"TOWNNAME":"東區","LI":"崇文里","LIN":"30鄰","STREET":"崇德二十四街","SECT":" ","MAREA":" ","LANE":" ","ALLEY":" ","HOUSE_NO":"３８號","E_COORD97":170914.56,"N_COORD97":2540694.1499999999,"ADDRESS":"崇德二十四街３８號","OBJECTID":146203},"geometry":{"x":170914.56000000145,"y":2540694.1500000041}},{"attributes":{"ID":146204,"DIS_CODE":0,"TOWNNAME":"東區","LI":"崇文里","LIN":"30鄰","STREET":"崇德二十四街","SECT":" ","MAREA":" ","LANE":" ","ALLEY":" ","HOUSE_NO":"４０號","E_COORD97":170919.23999999999,"N_COORD97":2540694.0499999998,"ADDRESS":"崇德二十四街４０號","OBJECTID":146204},"geometry":{"x":170919.24000000209,"y":2540694.0500000007}},{"attributes":{"ID":146205,"DIS_CODE":0,"TOWNNAME":"東區","LI":"崇文里","LIN":"30鄰","STREET":"崇德二十四街","SECT":" ","MAREA":" ","LANE":" ","ALLEY":" ","HOUSE_NO":"４２號","E_COORD97":170923.51999999999,"N_COORD97":2540694.0499999998,"ADDRESS":"崇德二十四街４２號","OBJECTID":146205},"geometry":{"x":170923.52000000048,"y":2540694.0500000007}},{"attributes":{"ID":146206,"DIS_CODE":0,"TOWNNAME":"東區","LI":"崇文里","LIN":"30鄰","STREET":"崇德二十四街","SECT":" ","MAREA":" ","LANE":" ","ALLEY":" ","HOUSE_NO":"４６號","E_COORD97":170928.10000000001,"N_COORD97":2540693.96,"ADDRESS":"崇德二十四街４６號","OBJECTID":146206},"geometry":{"x":170928.10000000056,"y":2540693.9600000028}},{"attributes":{"ID":146207,"DIS_CODE":0,"TOWNNAME":"東區","LI":"崇文里","LIN":"30鄰","STREET":"崇德二十四街","SECT":" ","MAREA":" ","LANE":" ","ALLEY":" ","HOUSE_NO":"４８號","E_COORD97":170932.57999999999,"N_COORD97":2540693.8599999999,"ADDRESS":"崇德二十四街４８號","OBJECTID":146207},"geometry":{"x":170932.58000000101,"y":2540693.8599999994}},{"attributes":{"ID":146208,"DIS_CODE":0,"TOWNNAME":"白河區","LI":"河東里","LIN":"4鄰","STREET":" ","SECT":" ","MAREA":"糞箕湖","LANE":" ","ALLEY":" ","HOUSE_NO":"６３之５０號","E_COORD97":191883.23000000001,"N_COORD97":2582499.5499999998,"ADDRESS":"糞箕湖６３之５０號","OBJECTID":146208},"geometry":{"x":191883.23000000045,"y":2582499.5500000026}},{"attributes":{"ID":146209,"DIS_CODE":0,"TOWNNAME":"白河區","LI":"河東里","LIN":"4鄰","STREET":" ","SECT":" ","MAREA":"糞箕湖","LANE":" ","ALLEY":" ","HOUSE_NO":"６３之５１號","E_COORD97":191883.35999999999,"N_COORD97":2582504.75,"ADDRESS":"糞箕湖６３之５１號","OBJECTID":146209},"geometry":{"x":191883.36000000127,"y":2582504.7500000019}},{"attributes":{"ID":146210,"DIS_CODE":0,"TOWNNAME":"白河區","LI":"河東里","LIN":"4鄰","STREET":" ","SECT":" ","MAREA":"糞箕湖","LANE":" ","ALLEY":" ","HOUSE_NO":"６３之５２號","E_COORD97":191883.91,"N_COORD97":2582510.3700000001,"ADDRESS":"糞箕湖６３之５２號","OBJECTID":146210},"geometry":{"x":191883.90999999922,"y":2582510.3700000048}},{"attributes":{"ID":146211,"DIS_CODE":0,"TOWNNAME":"白河區","LI":"河東里","LIN":"4鄰","STREET":" ","SECT":" ","MAREA":"糞箕湖","LANE":" ","ALLEY":" ","HOUSE_NO":"６３之５３號","E_COORD97":191884.35999999999,"N_COORD97":2582517.1299999999,"ADDRESS":"糞箕湖６３之５３號","OBJECTID":146211},"geometry":{"x":191884.36000000034,"y":2582517.1300000008}},{"attributes":{"ID":146212,"DIS_CODE":0,"TOWNNAME":"白河區","LI":"河東里","LIN":"4鄰","STREET":" ","SECT":" ","MAREA":"糞箕湖","LANE":" ","ALLEY":" ","HOUSE_NO":"６３之５５號","E_COORD97":191884.47,"N_COORD97":2582522.98,"ADDRESS":"糞箕湖６３之５５號","OBJECTID":146212},"geometry":{"x":191884.46999999974,"y":2582522.9800000023}},{"attributes":{"ID":146213,"DIS_CODE":0,"TOWNNAME":"白河區","LI":"河東里","LIN":"1鄰","STREET":" ","SECT":" ","MAREA":"糞箕湖","LANE":" ","ALLEY":" ","HOUSE_NO":"６之１號","E_COORD97":192247.01999999999,"N_COORD97":2582235.1200000001,"ADDRESS":"糞箕湖６之１號","OBJECTID":146213},"geometry":{"x":192247.01999999862,"y":2582235.1200000029}},{"attributes":{"ID":146214,"DIS_CODE":0,"TOWNNAME":"白河區","LI":"河東里","LIN":"4鄰","STREET":" ","SECT":" ","MAREA":"糞箕湖","LANE":" ","ALLEY":" ","HOUSE_NO":"６３之５６號","E_COORD97":191885.04999999999,"N_COORD97":2582528.1899999999,"ADDRESS":"糞箕湖６３之５６號","OBJECTID":146214},"geometry":{"x":191885.05000000075,"y":2582528.1900000013}},{"attributes":{"ID":146215,"DIS_CODE":0,"TOWNNAME":"白河區","LI":"河東里","LIN":"4鄰","STREET":" ","SECT":" ","MAREA":"糞箕湖","LANE":" ","ALLEY":" ","HOUSE_NO":"６３之５７號","E_COORD97":191885.5,"N_COORD97":2582533.48,"ADDRESS":"糞箕湖６３之５７號","OBJECTID":146215},"geometry":{"x":191885.50000000093,"y":2582533.4800000023}},{"attributes":{"ID":146216,"DIS_CODE":0,"TOWNNAME":"佳里區","LI":"安西里","LIN":"30鄰","STREET":"佳西路","SECT":" ","MAREA":" ","LANE":" ","ALLEY":" ","HOUSE_NO":"４８８號","E_COORD97":164944.32999999999,"N_COORD97":2563103.1699999999,"ADDRESS":"佳西路４８８號","OBJECTID":146216},"geometry":{"x":164944.33000000007,"y":2563103.1699999999}},{"attributes":{"ID":146217,"DIS_CODE":0,"TOWNNAME":"佳里區","LI":"安西里","LIN":"30鄰","STREET":"佳西路","SECT":" ","MAREA":" ","LANE":" ","ALLEY":" ","HOUSE_NO":"４９０號","E_COORD97":164947.34,"N_COORD97":2563106.04,"ADDRESS":"佳西路４９０號","OBJECTID":146217},"geometry":{"x":164947.33999999985,"y":2563106.0399999991}},{"attributes":{"ID":146218,"DIS_CODE":0,"TOWNNAME":"佳里區","LI":"安西里","LIN":"30鄰","STREET":"佳西路","SECT":" ","MAREA":" ","LANE":" ","ALLEY":" ","HOUSE_NO":"４９２號","E_COORD97":164950.62,"N_COORD97":2563109.7200000002,"ADDRESS":"佳西路４９２號","OBJECTID":146218},"geometry":{"x":164950.62000000011,"y":2563109.7200000007}},{"attributes":{"ID":146219,"DIS_CODE":0,"TOWNNAME":"佳里區","LI":"安西里","LIN":"30鄰","STREET":"佳西路","SECT":" ","MAREA":" ","LANE":" ","ALLEY":" ","HOUSE_NO":"５７１號","E_COORD97":164912.54999999999,"N_COORD97":2563272.0600000001,"ADDRESS":"佳西路５７１號","OBJECTID":146219},"geometry":{"x":164912.55000000075,"y":2563272.0600000024}},{"attributes":{"ID":146220,"DIS_CODE":0,"TOWNNAME":"佳里區","LI":"安西里","LIN":"30鄰","STREET":"佳西路","SECT":" ","MAREA":" ","LANE":" ","ALLEY":" ","HOUSE_NO":"４９６號","E_COORD97":164953.04000000001,"N_COORD97":2563113.2999999998,"ADDRESS":"佳西路４９６號","OBJECTID":146220},"geometry":{"x":164953.04000000004,"y":2563113.3000000007}},{"attributes":{"ID":146221,"DIS_CODE":0,"TOWNNAME":"佳里區","LI":"安西里","LIN":"30鄰","STREET":"佳西路","SECT":" ","MAREA":" ","LANE":" ","ALLEY":" ","HOUSE_NO":"４９８號","E_COORD97":164955.76000000001,"N_COORD97":2563116.71,"ADDRESS":"佳西路４９８號","OBJECTID":146221},"geometry":{"x":164955.75999999978,"y":2563116.7100000009}},{"attributes":{"ID":146222,"DIS_CODE":0,"TOWNNAME":"佳里區","LI":"安西里","LIN":"30鄰","STREET":"佳西路","SECT":" ","MAREA":" ","LANE":" ","ALLEY":" ","HOUSE_NO":"５００號","E_COORD97":164957.70000000001,"N_COORD97":2563120.6400000001,"ADDRESS":"佳西路５００號","OBJECTID":146222},"geometry":{"x":164957.70000000112,"y":2563120.6400000006}},{"attributes":{"ID":146223,"DIS_CODE":0,"TOWNNAME":"佳里區","LI":"安西里","LIN":"30鄰","STREET":"佳西路","SECT":" ","MAREA":" ","LANE":" ","ALLEY":" ","HOUSE_NO":"５０２號","E_COORD97":164960.39000000001,"N_COORD97":2563124.1299999999,"ADDRESS":"佳西路５０２號","OBJECTID":146223},"geometry":{"x":164960.38999999966,"y":2563124.1300000008}},{"attributes":{"ID":146224,"DIS_CODE":0,"TOWNNAME":"北區","LI":"勝安里","LIN":"3鄰","STREET":"開元路","SECT":" ","MAREA":" ","LANE":"６３巷","ALLEY":"７弄","HOUSE_NO":"６８號","E_COORD97":169591.60000000001,"N_COORD97":2545269.5,"ADDRESS":"開元路６３巷７弄６８號","OBJECTID":146224},"geometry":{"x":169591.59999999963,"y":2545269.5000000019}},{"attributes":{"ID":146225,"DIS_CODE":0,"TOWNNAME":"北區","LI":"勝安里","LIN":"3鄰","STREET":"開元路","SECT":" ","MAREA":" ","LANE":"６３巷","ALLEY":"７弄","HOUSE_NO":"６８號之５","E_COORD97":169603.48000000001,"N_COORD97":2545288.52,"ADDRESS":"開元路６３巷７弄６８號之５","OBJECTID":146225},"geometry":{"x":169603.48000000045,"y":2545288.5200000033}},{"attributes":{"ID":146226,"DIS_CODE":0,"TOWNNAME":"北區","LI":"勝安里","LIN":"3鄰","STREET":"開元路","SECT":" ","MAREA":" ","LANE":"６３巷","ALLEY":"７弄","HOUSE_NO":"６號","E_COORD97":169645.54999999999,"N_COORD97":2545284.7799999998,"ADDRESS":"開元路６３巷７弄６號","OBJECTID":146226},"geometry":{"x":169645.55000000075,"y":2545284.7799999993}},{"attributes":{"ID":146227,"DIS_CODE":0,"TOWNNAME":"北區","LI":"勝安里","LIN":"3鄰","STREET":"開元路","SECT":" ","MAREA":" ","LANE":"６３巷","ALLEY":"７弄","HOUSE_NO":"８號","E_COORD97":169644.60999999999,"N_COORD97":2545287.46,"ADDRESS":"開元路６３巷７弄８號","OBJECTID":146227},"geometry":{"x":169644.61000000034,"y":2545287.4600000028}},{"attributes":{"ID":146228,"DIS_CODE":0,"TOWNNAME":"北區","LI":"勝安里","LIN":"3鄰","STREET":"開元路","SECT":" ","MAREA":" ","LANE":"６３巷","ALLEY":"１８弄","HOUSE_NO":"１１號","E_COORD97":169663.38,"N_COORD97":2545299.8399999999,"ADDRESS":"開元路６３巷１８弄１１號","OBJECTID":146228},"geometry":{"x":169663.38000000175,"y":2545299.8400000036}},{"attributes":{"ID":146229,"DIS_CODE":0,"TOWNNAME":"北區","LI":"勝安里","LIN":"3鄰","STREET":"開元路","SECT":" ","MAREA":" ","LANE":"６３巷","ALLEY":"１８弄","HOUSE_NO":"１１號之１","E_COORD97":169658.97,"N_COORD97":2545313.7000000002,"ADDRESS":"開元路６３巷１８弄１１號之１","OBJECTID":146229},"geometry":{"x":169658.96999999974,"y":2545313.6999999974}},{"attributes":{"ID":146230,"DIS_CODE":0,"TOWNNAME":"北區","LI":"勝安里","LIN":"3鄰","STREET":"開元路","SECT":" ","MAREA":" ","LANE":"６３巷","ALLEY":"１８弄","HOUSE_NO":"１３號","E_COORD97":169676.95000000001,"N_COORD97":2545302.3599999999,"ADDRESS":"開元路６３巷１８弄１３號","OBJECTID":146230},"geometry":{"x":169676.95000000112,"y":2545302.3599999994}},{"attributes":{"ID":146231,"DIS_CODE":0,"TOWNNAME":"北區","LI":"勝安里","LIN":"3鄰","STREET":"開元路","SECT":" ","MAREA":" ","LANE":"６３巷","ALLEY":"１８弄","HOUSE_NO":"１５號","E_COORD97":169671.26999999999,"N_COORD97":2545315.1200000001,"ADDRESS":"開元路６３巷１８弄１５號","OBJECTID":146231},"geometry":{"x":169671.27000000048,"y":2545315.120000001}},{"attributes":{"ID":146232,"DIS_CODE":0,"TOWNNAME":"北區","LI":"勝安里","LIN":"3鄰","STREET":"開元路","SECT":" ","MAREA":" ","LANE":"６３巷","ALLEY":"１８弄","HOUSE_NO":"１號","E_COORD97":169654.39000000001,"N_COORD97":2545291.3999999999,"ADDRESS":"開元路６３巷１８弄１號","OBJECTID":146232},"geometry":{"x":169654.38999999966,"y":2545291.4000000022}},{"attributes":{"ID":146233,"DIS_CODE":0,"TOWNNAME":"北區","LI":"勝安里","LIN":"3鄰","STREET":"開元路","SECT":" ","MAREA":" ","LANE":"６３巷","ALLEY":"１８弄","HOUSE_NO":"１號之１","E_COORD97":169646.66,"N_COORD97":2545310,"ADDRESS":"開元路６３巷１８弄１號之１","OBJECTID":146233},"geometry":{"x":169646.66000000108,"y":2545310.0000000019}},{"attributes":{"ID":146234,"DIS_CODE":0,"TOWNNAME":"佳里區","LI":"安西里","LIN":"30鄰","STREET":"佳西路","SECT":" ","MAREA":" ","LANE":" ","ALLEY":" ","HOUSE_NO":"５０６號","E_COORD97":164962.78,"N_COORD97":2563127.9700000002,"ADDRESS":"佳西路５０６號","OBJECTID":146234},"geometry":{"x":164962.78000000119,"y":2563127.9700000025}},{"attributes":{"ID":146235,"DIS_CODE":0,"TOWNNAME":"佳里區","LI":"安西里","LIN":"30鄰","STREET":"佳西路","SECT":" ","MAREA":" ","LANE":" ","ALLEY":" ","HOUSE_NO":"５０８號","E_COORD97":164965.45999999999,"N_COORD97":2563131.3700000001,"ADDRESS":"佳西路５０８號","OBJECTID":146235},"geometry":{"x":164965.45999999903,"y":2563131.3700000029}},{"attributes":{"ID":146236,"DIS_CODE":0,"TOWNNAME":"佳里區","LI":"安西里","LIN":"30鄰","STREET":"佳西路","SECT":" ","MAREA":" ","LANE":" ","ALLEY":" ","HOUSE_NO":"５１０號","E_COORD97":164967.79999999999,"N_COORD97":2563135.0699999998,"ADDRESS":"佳西路５１０號","OBJECTID":146236},"geometry":{"x":164967.79999999981,"y":2563135.0700000003}},{"attributes":{"ID":146237,"DIS_CODE":0,"TOWNNAME":"佳里區","LI":"安西里","LIN":"30鄰","STREET":"佳西路","SECT":" ","MAREA":" ","LANE":" ","ALLEY":" ","HOUSE_NO":"５１７號","E_COORD97":164947.85000000001,"N_COORD97":2563158.77,"ADDRESS":"佳西路５１７號","OBJECTID":146237},"geometry":{"x":164947.85000000056,"y":2563158.7700000014}},{"attributes":{"ID":146238,"DIS_CODE":0,"TOWNNAME":"佳里區","LI":"安西里","LIN":"30鄰","STREET":"佳西路","SECT":" ","MAREA":" ","LANE":" ","ALLEY":" ","HOUSE_NO":"５６１號","E_COORD97":165016.76000000001,"N_COORD97":2563252.6099999999,"ADDRESS":"佳西路５６１號","OBJECTID":146238},"geometry":{"x":165016.75999999978,"y":2563252.6099999994}},{"attributes":{"ID":146239,"DIS_CODE":0,"TOWNNAME":"白河區","LI":"河東里","LIN":"4鄰","STREET":" ","SECT":" ","MAREA":"糞箕湖","LANE":" ","ALLEY":" ","HOUSE_NO":"６３之５８號","E_COORD97":191886.10999999999,"N_COORD97":2582541.23,"ADDRESS":"糞箕湖６３之５８號","OBJECTID":146239},"geometry":{"x":191886.1099999994,"y":2582541.2300000042}},{"attributes":{"ID":146240,"DIS_CODE":0,"TOWNNAME":"白河區","LI":"河東里","LIN":"4鄰","STREET":" ","SECT":" ","MAREA":"糞箕湖","LANE":" ","ALLEY":" ","HOUSE_NO":"６３之５９號","E_COORD97":191886.20999999999,"N_COORD97":2582545.52,"ADDRESS":"糞箕湖６３之５９號","OBJECTID":146240},"geometry":{"x":191886.20999999996,"y":2582545.5200000014}},{"attributes":{"ID":146241,"DIS_CODE":0,"TOWNNAME":"白河區","LI":"河東里","LIN":"4鄰","STREET":" ","SECT":" ","MAREA":"糞箕湖","LANE":" ","ALLEY":" ","HOUSE_NO":"６３之５號","E_COORD97":191896.37,"N_COORD97":2582494.6299999999,"ADDRESS":"糞箕湖６３之５號","OBJECTID":146241},"geometry":{"x":191896.37000000104,"y":2582494.629999999}},{"attributes":{"ID":146242,"DIS_CODE":0,"TOWNNAME":"白河區","LI":"河東里","LIN":"4鄰","STREET":" ","SECT":" ","MAREA":"糞箕湖","LANE":" ","ALLEY":" ","HOUSE_NO":"６３之６０號","E_COORD97":191886.19,"N_COORD97":2582553.7599999998,"ADDRESS":"糞箕湖６３之６０號","OBJECTID":146242},"geometry":{"x":191886.19000000134,"y":2582553.7599999979}},{"attributes":{"ID":146243,"DIS_CODE":0,"TOWNNAME":"白河區","LI":"河東里","LIN":"4鄰","STREET":" ","SECT":" ","MAREA":"糞箕湖","LANE":" ","ALLEY":" ","HOUSE_NO":"６３之７號","E_COORD97":192064.34,"N_COORD97":2582444.1899999999,"ADDRESS":"糞箕湖６３之７號","OBJECTID":146243},"geometry":{"x":192064.34000000078,"y":2582444.1899999995}},{"attributes":{"ID":146244,"DIS_CODE":0,"TOWNNAME":"白河區","LI":"河東里","LIN":"4鄰","STREET":" ","SECT":" ","MAREA":"糞箕湖","LANE":" ","ALLEY":" ","HOUSE_NO":"６３號","E_COORD97":192092.95000000001,"N_COORD97":2582435.48,"ADDRESS":"糞箕湖６３號","OBJECTID":146244},"geometry":{"x":192092.95000000112,"y":2582435.4800000023}},{"attributes":{"ID":146245,"DIS_CODE":0,"TOWNNAME":"白河區","LI":"河東里","LIN":"4鄰","STREET":" ","SECT":" ","MAREA":"糞箕湖","LANE":" ","ALLEY":" ","HOUSE_NO":"６４號","E_COORD97":192152.48000000001,"N_COORD97":2582494.2000000002,"ADDRESS":"糞箕湖６４號","OBJECTID":146245},"geometry":{"x":192152.48000000138,"y":2582494.2000000011}},{"attributes":{"ID":146246,"DIS_CODE":0,"TOWNNAME":"白河區","LI":"河東里","LIN":"4鄰","STREET":" ","SECT":" ","MAREA":"糞箕湖","LANE":" ","ALLEY":" ","HOUSE_NO":"６５之１號","E_COORD97":192166.51000000001,"N_COORD97":2582505.8500000001,"ADDRESS":"糞箕湖６５之１號","OBJECTID":146246},"geometry":{"x":192166.51000000071,"y":2582505.8500000034}},{"attributes":{"ID":146247,"DIS_CODE":0,"TOWNNAME":"白河區","LI":"河東里","LIN":"4鄰","STREET":" ","SECT":" ","MAREA":"糞箕湖","LANE":" ","ALLEY":" ","HOUSE_NO":"６５號","E_COORD97":192156.12,"N_COORD97":2582518.4300000002,"ADDRESS":"糞箕湖６５號","OBJECTID":146247},"geometry":{"x":192156.12000000104,"y":2582518.4299999997}},{"attributes":{"ID":146248,"DIS_CODE":0,"TOWNNAME":"佳里區","LI":"安西里","LIN":"30鄰","STREET":"佳西路","SECT":" ","MAREA":" ","LANE":" ","ALLEY":" ","HOUSE_NO":"５６３號","E_COORD97":164989.45999999999,"N_COORD97":2563248.5499999998,"ADDRESS":"佳西路５６３號","OBJECTID":146248},"geometry":{"x":164989.46000000089,"y":2563248.5500000026}},{"attributes":{"ID":146249,"DIS_CODE":0,"TOWNNAME":"佳里區","LI":"安西里","LIN":"30鄰","STREET":"佳西路","SECT":" ","MAREA":" ","LANE":" ","ALLEY":" ","HOUSE_NO":"５６５號","E_COORD97":164969.37,"N_COORD97":2563256.2200000002,"ADDRESS":"佳西路５６５號","OBJECTID":146249},"geometry":{"x":164969.37000000011,"y":2563256.2200000007}},{"attributes":{"ID":146250,"DIS_CODE":0,"TOWNNAME":"佳里區","LI":"安西里","LIN":"30鄰","STREET":"佳西路","SECT":" ","MAREA":" ","LANE":" ","ALLEY":" ","HOUSE_NO":"５６７號","E_COORD97":164941.89999999999,"N_COORD97":2563237.4900000002,"ADDRESS":"佳西路５６７號","OBJECTID":146250},"geometry":{"x":164941.90000000037,"y":2563237.4900000002}},{"attributes":{"ID":146251,"DIS_CODE":0,"TOWNNAME":"北區","LI":"勝安里","LIN":"3鄰","STREET":"開元路","SECT":" ","MAREA":" ","LANE":"６３巷","ALLEY":"１８弄","HOUSE_NO":"１號之２","E_COORD97":169652.5,"N_COORD97":2545296.1299999999,"ADDRESS":"開元路６３巷１８弄１號之２","OBJECTID":146251},"geometry":{"x":169652.50000000186,"y":2545296.129999999}},{"attributes":{"ID":146252,"DIS_CODE":0,"TOWNNAME":"北區","LI":"勝安里","LIN":"3鄰","STREET":"開元路","SECT":" ","MAREA":" ","LANE":"６３巷","ALLEY":"１８弄","HOUSE_NO":"１號之３","E_COORD97":169650.45000000001,"N_COORD97":2545300.7000000002,"ADDRESS":"開元路６３巷１８弄１號之３","OBJECTID":146252},"geometry":{"x":169650.45000000112,"y":2545300.7000000011}},{"attributes":{"ID":146253,"DIS_CODE":0,"TOWNNAME":"北區","LI":"勝安里","LIN":"3鄰","STREET":"開元路","SECT":" ","MAREA":" ","LANE":"６３巷","ALLEY":"１８弄","HOUSE_NO":"１號之４","E_COORD97":169648.39000000001,"N_COORD97":2545306.0600000001,"ADDRESS":"開元路６３巷１８弄１號之４","OBJECTID":146253},"geometry":{"x":169648.3900000006,"y":2545306.0600000042}},{"attributes":{"ID":146254,"DIS_CODE":0,"TOWNNAME":"北區","LI":"勝安里","LIN":"3鄰","STREET":"開元路","SECT":" ","MAREA":" ","LANE":"６３巷","ALLEY":"１８弄","HOUSE_NO":"３號","E_COORD97":169643.66,"N_COORD97":2545317.7999999998,"ADDRESS":"開元路６３巷１８弄３號","OBJECTID":146254},"geometry":{"x":169643.66000000108,"y":2545317.8000000007}},{"attributes":{"ID":146255,"DIS_CODE":0,"TOWNNAME":"北區","LI":"勝安里","LIN":"3鄰","STREET":"開元路","SECT":" ","MAREA":" ","LANE":"６３巷","ALLEY":"１８弄","HOUSE_NO":"５號","E_COORD97":169641.76999999999,"N_COORD97":2545325.6800000002,"ADDRESS":"開元路６３巷１８弄５號","OBJECTID":146255},"geometry":{"x":169641.77000000142,"y":2545325.6800000016}},{"attributes":{"ID":146256,"DIS_CODE":0,"TOWNNAME":"北區","LI":"勝安里","LIN":"3鄰","STREET":"開元路","SECT":" ","MAREA":" ","LANE":"６３巷","ALLEY":"１８弄","HOUSE_NO":"７號","E_COORD97":169654.39000000001,"N_COORD97":2545324.8900000001,"ADDRESS":"開元路６３巷１８弄７號","OBJECTID":146256},"geometry":{"x":169654.38999999966,"y":2545324.8900000025}},{"attributes":{"ID":146257,"DIS_CODE":0,"TOWNNAME":"北區","LI":"勝安里","LIN":"3鄰","STREET":"開元路","SECT":" ","MAREA":" ","LANE":"６３巷","ALLEY":"１８弄","HOUSE_NO":"９號","E_COORD97":169666.54000000001,"N_COORD97":2545329.3100000001,"ADDRESS":"開元路６３巷１８弄９號","OBJECTID":146257},"geometry":{"x":169666.54000000097,"y":2545329.3100000024}},{"attributes":{"ID":146258,"DIS_CODE":0,"TOWNNAME":"仁德區","LI":"後壁里","LIN":"41鄰","STREET":"德善路","SECT":" ","MAREA":" ","LANE":"２７３巷","ALLEY":"６弄","HOUSE_NO":"２號","E_COORD97":173939.63,"N_COORD97":2538681.4300000002,"ADDRESS":"德善路２７３巷６弄２號","OBJECTID":146258},"geometry":{"x":173939.62999999989,"y":2538681.4300000034}},{"attributes":{"ID":146259,"DIS_CODE":0,"TOWNNAME":"仁德區","LI":"後壁里","LIN":"21鄰","STREET":"中正路","SECT":"二段","MAREA":" ","LANE":"９７巷","ALLEY":"３３弄","HOUSE_NO":"２號","E_COORD97":173057.48999999999,"N_COORD97":2538545.5299999998,"ADDRESS":"中正路二段９７巷３３弄２號","OBJECTID":146259},"geometry":{"x":173057.49000000115,"y":2538545.5300000012}},{"attributes":{"ID":146260,"DIS_CODE":0,"TOWNNAME":"仁德區","LI":"後壁里","LIN":"36鄰","STREET":"民安路","SECT":"一段","MAREA":" ","LANE":"３１０巷","ALLEY":"２９弄","HOUSE_NO":"１０號","E_COORD97":172812.70000000001,"N_COORD97":2539418.4399999999,"ADDRESS":"民安路一段３１０巷２９弄１０號","OBJECTID":146260},"geometry":{"x":172812.70000000019,"y":2539418.4399999995}},{"attributes":{"ID":146261,"DIS_CODE":0,"TOWNNAME":"西港區","LI":"後營里","LIN":"13鄰","STREET":" ","SECT":" ","MAREA":"後營","LANE":" ","ALLEY":" ","HOUSE_NO":"３７５號之１８","E_COORD97":169907.92000000001,"N_COORD97":2559821.8399999999,"ADDRESS":"後營３７５號之１８","OBJECTID":146261},"geometry":{"x":169907.92000000086,"y":2559821.8400000017}},{"attributes":{"ID":146262,"DIS_CODE":0,"TOWNNAME":"西港區","LI":"後營里","LIN":"13鄰","STREET":" ","SECT":" ","MAREA":"後營","LANE":" ","ALLEY":" ","HOUSE_NO":"３７５號之２","E_COORD97":169906.20999999999,"N_COORD97":2559902.7999999998,"ADDRESS":"後營３７５號之２","OBJECTID":146262},"geometry":{"x":169906.20999999996,"y":2559902.8000000007}},{"attributes":{"ID":146263,"DIS_CODE":0,"TOWNNAME":"西港區","LI":"後營里","LIN":"13鄰","STREET":" ","SECT":" ","MAREA":"後營","LANE":" ","ALLEY":" ","HOUSE_NO":"３７５號之３","E_COORD97":169906.35000000001,"N_COORD97":2559897.6899999999,"ADDRESS":"後營３７５號之３","OBJECTID":146263},"geometry":{"x":169906.35000000056,"y":2559897.6900000013}},{"attributes":{"ID":146264,"DIS_CODE":0,"TOWNNAME":"西港區","LI":"營西里","LIN":"4鄰","STREET":" ","SECT":" ","MAREA":"後營","LANE":" ","ALLEY":" ","HOUSE_NO":"３７號之１","E_COORD97":169693.91,"N_COORD97":2560183.21,"ADDRESS":"後營３７號之１","OBJECTID":146264},"geometry":{"x":169693.91000000201,"y":2560183.2100000028}},{"attributes":{"ID":146265,"DIS_CODE":0,"TOWNNAME":"西港區","LI":"營西里","LIN":"4鄰","STREET":" ","SECT":" ","MAREA":"後營","LANE":" ","ALLEY":" ","HOUSE_NO":"３７號之２","E_COORD97":169695.87,"N_COORD97":2560188.5899999999,"ADDRESS":"後營３７號之２","OBJECTID":146265},"geometry":{"x":169695.87000000197,"y":2560188.589999998}},{"attributes":{"ID":146266,"DIS_CODE":0,"TOWNNAME":"西港區","LI":"營西里","LIN":"4鄰","STREET":" ","SECT":" ","MAREA":"後營","LANE":" ","ALLEY":" ","HOUSE_NO":"３８號之１","E_COORD97":169734.20999999999,"N_COORD97":2560177.6200000001,"ADDRESS":"後營３８號之１","OBJECTID":146266},"geometry":{"x":169734.21000000183,"y":2560177.6200000029}},{"attributes":{"ID":146267,"DIS_CODE":0,"TOWNNAME":"西港區","LI":"營西里","LIN":"4鄰","STREET":" ","SECT":" ","MAREA":"後營","LANE":" ","ALLEY":" ","HOUSE_NO":"３８號之２","E_COORD97":169734.42000000001,"N_COORD97":2560182.3599999999,"ADDRESS":"後營３８號之２","OBJECTID":146267},"geometry":{"x":169734.42000000179,"y":2560182.3599999994}},{"attributes":{"ID":146268,"DIS_CODE":0,"TOWNNAME":"西港區","LI":"營西里","LIN":"4鄰","STREET":" ","SECT":" ","MAREA":"後營","LANE":" ","ALLEY":" ","HOUSE_NO":"３８號","E_COORD97":169718.45999999999,"N_COORD97":2560219.1699999999,"ADDRESS":"後營３８號","OBJECTID":146268},"geometry":{"x":169718.45999999996,"y":2560219.1700000018}},{"attributes":{"ID":146269,"DIS_CODE":0,"TOWNNAME":"西港區","LI":"營西里","LIN":"5鄰","STREET":" ","SECT":" ","MAREA":"後營","LANE":" ","ALLEY":" ","HOUSE_NO":"４０號之１","E_COORD97":169744.57000000001,"N_COORD97":2560215.6400000001,"ADDRESS":"後營４０號之１","OBJECTID":146269},"geometry":{"x":169744.57000000123,"y":2560215.6400000006}},{"attributes":{"ID":146270,"DIS_CODE":0,"TOWNNAME":"西港區","LI":"後營里","LIN":"13鄰","STREET":" ","SECT":" ","MAREA":"後營","LANE":" ","ALLEY":" ","HOUSE_NO":"３９４之２０號","E_COORD97":170053.29000000001,"N_COORD97":2559709.4700000002,"ADDRESS":"後營３９４之２０號","OBJECTID":146270},"geometry":{"x":170053.29000000004,"y":2559709.4700000025}},{"attributes":{"ID":146271,"DIS_CODE":0,"TOWNNAME":"西港區","LI":"後營里","LIN":"13鄰","STREET":" ","SECT":" ","MAREA":"後營","LANE":" ","ALLEY":" ","HOUSE_NO":"３９４號","E_COORD97":169777.92999999999,"N_COORD97":2559850.7000000002,"ADDRESS":"後營３９４號","OBJECTID":146271},"geometry":{"x":169777.9299999997,"y":2559850.6999999993}},{"attributes":{"ID":146272,"DIS_CODE":0,"TOWNNAME":"西港區","LI":"營西里","LIN":"1鄰","STREET":" ","SECT":" ","MAREA":"後營","LANE":" ","ALLEY":" ","HOUSE_NO":"４２３之３號","E_COORD97":169691.63,"N_COORD97":2559857.3300000001,"ADDRESS":"後營４２３之３號","OBJECTID":146272},"geometry":{"x":169691.62999999989,"y":2559857.3300000001}},{"attributes":{"ID":146273,"DIS_CODE":0,"TOWNNAME":"西港區","LI":"營西里","LIN":"1鄰","STREET":" ","SECT":" ","MAREA":"後營","LANE":" ","ALLEY":" ","HOUSE_NO":"４２３號","E_COORD97":169712.29999999999,"N_COORD97":2559820.2000000002,"ADDRESS":"後營４２３號","OBJECTID":146273},"geometry":{"x":169712.29999999981,"y":2559820.1999999993}},{"attributes":{"ID":146274,"DIS_CODE":0,"TOWNNAME":"西港區","LI":"營西里","LIN":"1鄰","STREET":" ","SECT":" ","MAREA":"後營","LANE":" ","ALLEY":" ","HOUSE_NO":"４２５號","E_COORD97":169709.07000000001,"N_COORD97":2559809.0699999998,"ADDRESS":"後營４２５號","OBJECTID":146274},"geometry":{"x":169709.07000000123,"y":2559809.0700000003}},{"attributes":{"ID":146275,"DIS_CODE":0,"TOWNNAME":"仁德區","LI":"後壁里","LIN":"30鄰","STREET":"德洋一街","SECT":" ","MAREA":" ","LANE":"３７巷","ALLEY":"１６弄","HOUSE_NO":"２２號","E_COORD97":173070.04999999999,"N_COORD97":2539251.2599999998,"ADDRESS":"德洋一街３７巷１６弄２２號","OBJECTID":146275},"geometry":{"x":173070.05000000075,"y":2539251.2599999998}},{"attributes":{"ID":146276,"DIS_CODE":0,"TOWNNAME":"西港區","LI":"營西里","LIN":"1鄰","STREET":" ","SECT":" ","MAREA":"後營","LANE":" ","ALLEY":" ","HOUSE_NO":"４２６號","E_COORD97":169707.16,"N_COORD97":2559804.6200000001,"ADDRESS":"後營４２６號","OBJECTID":146276},"geometry":{"x":169707.16000000015,"y":2559804.6200000029}},{"attributes":{"ID":146277,"DIS_CODE":0,"TOWNNAME":"西港區","LI":"營西里","LIN":"1鄰","STREET":" ","SECT":" ","MAREA":"後營","LANE":" ","ALLEY":" ","HOUSE_NO":"４２７號","E_COORD97":169705.39000000001,"N_COORD97":2559801,"ADDRESS":"後營４２７號","OBJECTID":146277},"geometry":{"x":169705.38999999873,"y":2559801.0000000019}},{"attributes":{"ID":146278,"DIS_CODE":0,"TOWNNAME":"仁德區","LI":"後壁里","LIN":"23鄰","STREET":"中正路","SECT":"二段","MAREA":" ","LANE":"９７巷","ALLEY":"６４弄","HOUSE_NO":"１２號","E_COORD97":173128.09,"N_COORD97":2538582.7799999998,"ADDRESS":"中正路二段９７巷６４弄１２號","OBJECTID":146278},"geometry":{"x":173128.08999999985,"y":2538582.7799999993}},{"attributes":{"ID":146279,"DIS_CODE":0,"TOWNNAME":"關廟區","LI":"埤頭里","LIN":"3鄰","STREET":"保東路","SECT":" ","MAREA":" ","LANE":"８５巷","ALLEY":"１６弄","HOUSE_NO":"３５號","E_COORD97":178904.76999999999,"N_COORD97":2543879.25,"ADDRESS":"保東路８５巷１６弄３５號","OBJECTID":146279},"geometry":{"x":178904.77000000048,"y":2543879.25}},{"attributes":{"ID":146280,"DIS_CODE":0,"TOWNNAME":"西港區","LI":"營西里","LIN":"1鄰","STREET":" ","SECT":" ","MAREA":"後營","LANE":" ","ALLEY":" ","HOUSE_NO":"４２９號","E_COORD97":169701.72,"N_COORD97":2559790.4700000002,"ADDRESS":"後營４２９號","OBJECTID":146280},"geometry":{"x":169701.7200000016,"y":2559790.4700000044}},{"attributes":{"ID":146281,"DIS_CODE":0,"TOWNNAME":"西港區","LI":"金砂里","LIN":"4鄰","STREET":" ","SECT":" ","MAREA":"砂凹子","LANE":" ","ALLEY":" ","HOUSE_NO":"１號之１","E_COORD97":168810.29000000001,"N_COORD97":2561648.54,"ADDRESS":"砂凹子１號之１","OBJECTID":146281},"geometry":{"x":168810.29000000097,"y":2561648.5399999991}},{"attributes":{"ID":146282,"DIS_CODE":0,"TOWNNAME":"永康區","LI":"埔園里","LIN":"30鄰","STREET":"龍埔街","SECT":" ","MAREA":" ","LANE":" ","ALLEY":" ","HOUSE_NO":"４８２之９號","E_COORD97":173779.72,"N_COORD97":2548364.29,"ADDRESS":"龍埔街４８２之９號","OBJECTID":146282},"geometry":{"x":173779.71999999974,"y":2548364.2900000028}},{"attributes":{"ID":146283,"DIS_CODE":0,"TOWNNAME":"仁德區","LI":"後壁里","LIN":"42鄰","STREET":"德崙路","SECT":" ","MAREA":" ","LANE":"４８巷","ALLEY":"１５弄","HOUSE_NO":"５號","E_COORD97":173328.81,"N_COORD97":2538501.7599999998,"ADDRESS":"德崙路４８巷１５弄５號","OBJECTID":146283},"geometry":{"x":173328.81000000052,"y":2538501.7599999998}},{"attributes":{"ID":146284,"DIS_CODE":0,"TOWNNAME":"永康區","LI":"勝利里","LIN":"30鄰","STREET":"中華路","SECT":" ","MAREA":" ","LANE":" ","ALLEY":" ","HOUSE_NO":"８５號","E_COORD97":171556.85000000001,"N_COORD97":2544646.5099999998,"ADDRESS":"中華路８５號","OBJECTID":146284},"geometry":{"x":171556.85000000149,"y":2544646.5099999998}},{"attributes":{"ID":146285,"DIS_CODE":0,"TOWNNAME":"仁德區","LI":"後壁里","LIN":"35鄰","STREET":"德洋二街","SECT":" ","MAREA":" ","LANE":"８巷","ALLEY":"２４弄","HOUSE_NO":"１１號","E_COORD97":172423.20999999999,"N_COORD97":2539459.0099999998,"ADDRESS":"德洋二街８巷２４弄１１號","OBJECTID":146285},"geometry":{"x":172423.21000000089,"y":2539459.0099999998}},{"attributes":{"ID":146286,"DIS_CODE":0,"TOWNNAME":"永康區","LI":"埔園里","LIN":"30鄰","STREET":"龍埔街","SECT":" ","MAREA":" ","LANE":" ","ALLEY":" ","HOUSE_NO":"４８０號","E_COORD97":173818.31,"N_COORD97":2548357.2400000002,"ADDRESS":"龍埔街４８０號","OBJECTID":146286},"geometry":{"x":173818.30999999959,"y":2548357.2400000021}},{"attributes":{"ID":146287,"DIS_CODE":0,"TOWNNAME":"關廟區","LI":"松腳里","LIN":"3鄰","STREET":"松平街","SECT":" ","MAREA":" ","LANE":"５６巷","ALLEY":"７弄","HOUSE_NO":"７號","E_COORD97":181986.01999999999,"N_COORD97":2539768.25,"ADDRESS":"松平街５６巷７弄７號","OBJECTID":146287},"geometry":{"x":181986.01999999862,"y":2539768.2500000019}},{"attributes":{"ID":146288,"DIS_CODE":0,"TOWNNAME":"關廟區","LI":"埤頭里","LIN":"3鄰","STREET":"保東路","SECT":" ","MAREA":" ","LANE":"３巷","ALLEY":"５６弄","HOUSE_NO":"１６號","E_COORD97":179005.87,"N_COORD97":2543951.2999999998,"ADDRESS":"保東路３巷５６弄１６號","OBJECTID":146288},"geometry":{"x":179005.87000000197,"y":2543951.3000000007}},{"attributes":{"ID":146289,"DIS_CODE":0,"TOWNNAME":"西港區","LI":"金砂里","LIN":"4鄰","STREET":" ","SECT":" ","MAREA":"砂凹子","LANE":" ","ALLEY":" ","HOUSE_NO":"１號之２","E_COORD97":168856.64000000001,"N_COORD97":2561580.3300000001,"ADDRESS":"砂凹子１號之２","OBJECTID":146289},"geometry":{"x":168856.6400000006,"y":2561580.3300000001}},{"attributes":{"ID":146290,"DIS_CODE":0,"TOWNNAME":"永康區","LI":"埔園里","LIN":"30鄰","STREET":"龍埔街","SECT":" ","MAREA":" ","LANE":" ","ALLEY":" ","HOUSE_NO":"４８２號之５","E_COORD97":173798.29999999999,"N_COORD97":2548360.29,"ADDRESS":"龍埔街４８２號之５","OBJECTID":146290},"geometry":{"x":173798.29999999888,"y":2548360.2899999991}},{"attributes":{"ID":146291,"DIS_CODE":0,"TOWNNAME":"關廟區","LI":"北花里","LIN":"3鄰","STREET":"旺萊路","SECT":" ","MAREA":" ","LANE":"５８１巷","ALLEY":"２８弄","HOUSE_NO":"３８號","E_COORD97":182147.44,"N_COORD97":2540371.25,"ADDRESS":"旺萊路５８１巷２８弄３８號","OBJECTID":146291},"geometry":{"x":182147.44000000134,"y":2540371.2500000037}},{"attributes":{"ID":146292,"DIS_CODE":0,"TOWNNAME":"仁德區","LI":"後壁里","LIN":"41鄰","STREET":"德善路","SECT":" ","MAREA":" ","LANE":"２７３巷","ALLEY":"６弄","HOUSE_NO":"４號","E_COORD97":173943.29999999999,"N_COORD97":2538679.4300000002,"ADDRESS":"德善路２７３巷６弄４號","OBJECTID":146292},"geometry":{"x":173943.30000000075,"y":2538679.4300000016}},{"attributes":{"ID":146293,"DIS_CODE":0,"TOWNNAME":"仁德區","LI":"新田里","LIN":"4鄰","STREET":"勝利路","SECT":" ","MAREA":" ","LANE":"１３２巷","ALLEY":"２６弄","HOUSE_NO":"５號","E_COORD97":174266.42999999999,"N_COORD97":2539379.0099999998,"ADDRESS":"勝利路１３２巷２６弄５號","OBJECTID":146293},"geometry":{"x":174266.4299999997,"y":2539379.0100000035}},{"attributes":{"ID":146294,"DIS_CODE":0,"TOWNNAME":"仁德區","LI":"後壁里","LIN":"30鄰","STREET":"德洋一街","SECT":" ","MAREA":" ","LANE":"３７巷","ALLEY":"１４弄","HOUSE_NO":"２４號","E_COORD97":173110.98000000001,"N_COORD97":2539248.25,"ADDRESS":"德洋一街３７巷１４弄２４號","OBJECTID":146294},"geometry":{"x":173110.98000000045,"y":2539248.25}},{"attributes":{"ID":146295,"DIS_CODE":0,"TOWNNAME":"安平區","LI":"港仔里","LIN":"3鄰","STREET":"安平路","SECT":" ","MAREA":" ","LANE":"７５巷","ALLEY":"１８弄","HOUSE_NO":"１１號","E_COORD97":164344.76999999999,"N_COORD97":2544399.2400000002,"ADDRESS":"安平路７５巷１８弄１１號","OBJECTID":146295},"geometry":{"x":164344.77000000048,"y":2544399.2400000039}},{"attributes":{"ID":146296,"DIS_CODE":0,"TOWNNAME":"安平區","LI":"港仔里","LIN":"3鄰","STREET":"安平路","SECT":" ","MAREA":" ","LANE":"７５巷","ALLEY":"１８弄","HOUSE_NO":"１３號","E_COORD97":164330.29000000001,"N_COORD97":2544402.02,"ADDRESS":"安平路７５巷１８弄１３號","OBJECTID":146296},"geometry":{"x":164330.29000000004,"y":2544402.0199999996}},{"attributes":{"ID":146297,"DIS_CODE":0,"TOWNNAME":"安平區","LI":"港仔里","LIN":"3鄰","STREET":"安平路","SECT":" ","MAREA":" ","LANE":"７５巷","ALLEY":"１８弄","HOUSE_NO":"１５號","E_COORD97":164326.23000000001,"N_COORD97":2544405.2400000002,"ADDRESS":"安平路７５巷１８弄１５號","OBJECTID":146297},"geometry":{"x":164326.23000000045,"y":2544405.2400000002}},{"attributes":{"ID":146298,"DIS_CODE":0,"TOWNNAME":"安平區","LI":"港仔里","LIN":"3鄰","STREET":"安平路","SECT":" ","MAREA":" ","LANE":"７５巷","ALLEY":"１８弄","HOUSE_NO":"１號之１","E_COORD97":164395.54000000001,"N_COORD97":2544379.7200000002,"ADDRESS":"安平路７５巷１８弄１號之１","OBJECTID":146298},"geometry":{"x":164395.5400000019,"y":2544379.7200000044}},{"attributes":{"ID":146299,"DIS_CODE":0,"TOWNNAME":"安平區","LI":"港仔里","LIN":"3鄰","STREET":"安平路","SECT":" ","MAREA":" ","LANE":"７５巷","ALLEY":"１８弄","HOUSE_NO":"３號","E_COORD97":164383.26999999999,"N_COORD97":2544383.77,"ADDRESS":"安平路７５巷１８弄３號","OBJECTID":146299},"geometry":{"x":164383.27000000142,"y":2544383.7699999996}},{"attributes":{"ID":146300,"DIS_CODE":0,"TOWNNAME":"安平區","LI":"港仔里","LIN":"3鄰","STREET":"安平路","SECT":" ","MAREA":" ","LANE":"７５巷","ALLEY":"１８弄","HOUSE_NO":"５號","E_COORD97":164376.98000000001,"N_COORD97":2544387.2400000002,"ADDRESS":"安平路７５巷１８弄５號","OBJECTID":146300},"geometry":{"x":164376.98000000045,"y":2544387.2400000021}},{"attributes":{"ID":146301,"DIS_CODE":0,"TOWNNAME":"安平區","LI":"港仔里","LIN":"3鄰","STREET":"安平路","SECT":" ","MAREA":" ","LANE":"７５巷","ALLEY":"１８弄","HOUSE_NO":"７號","E_COORD97":164370.12,"N_COORD97":2544387.54,"ADDRESS":"安平路７５巷１８弄７號","OBJECTID":146301},"geometry":{"x":164370.12000000104,"y":2544387.5399999991}},{"attributes":{"ID":146302,"DIS_CODE":0,"TOWNNAME":"安平區","LI":"港仔里","LIN":"3鄰","STREET":"安平路","SECT":" ","MAREA":" ","LANE":"７５巷","ALLEY":"１８弄","HOUSE_NO":"７號之１","E_COORD97":164366.26999999999,"N_COORD97":2544389.0800000001,"ADDRESS":"安平路７５巷１８弄７號之１","OBJECTID":146302},"geometry":{"x":164366.27000000142,"y":2544389.0800000001}},{"attributes":{"ID":146303,"DIS_CODE":0,"TOWNNAME":"安平區","LI":"港仔里","LIN":"3鄰","STREET":"安平路","SECT":" ","MAREA":" ","LANE":"７５巷","ALLEY":"１８弄","HOUSE_NO":"８號","E_COORD97":164393.26000000001,"N_COORD97":2544396.71,"ADDRESS":"安平路７５巷１８弄８號","OBJECTID":146303},"geometry":{"x":164393.25999999978,"y":2544396.7100000046}},{"attributes":{"ID":146304,"DIS_CODE":0,"TOWNNAME":"安平區","LI":"港仔里","LIN":"3鄰","STREET":"安平路","SECT":" ","MAREA":" ","LANE":"７５巷","ALLEY":"１８弄","HOUSE_NO":"９號","E_COORD97":164351.16,"N_COORD97":2544396.5499999998,"ADDRESS":"安平路７５巷１８弄９號","OBJECTID":146304},"geometry":{"x":164351.16000000108,"y":2544396.5500000007}},{"attributes":{"ID":146305,"DIS_CODE":0,"TOWNNAME":"安平區","LI":"港仔里","LIN":"3鄰","STREET":"安平路","SECT":" ","MAREA":" ","LANE":"７５巷","ALLEY":"２２弄","HOUSE_NO":"１０號","E_COORD97":164369.89999999999,"N_COORD97":2544364.3999999999,"ADDRESS":"安平路７５巷２２弄１０號","OBJECTID":146305},"geometry":{"x":164369.9000000013,"y":2544364.4000000041}},{"attributes":{"ID":146306,"DIS_CODE":0,"TOWNNAME":"安平區","LI":"港仔里","LIN":"3鄰","STREET":"安平路","SECT":" ","MAREA":" ","LANE":"７５巷","ALLEY":"２２弄","HOUSE_NO":"１２號","E_COORD97":164362.47,"N_COORD97":2544366.5800000001,"ADDRESS":"安平路７５巷２２弄１２號","OBJECTID":146306},"geometry":{"x":164362.47000000067,"y":2544366.5800000019}},{"attributes":{"ID":146307,"DIS_CODE":0,"TOWNNAME":"安平區","LI":"港仔里","LIN":"3鄰","STREET":"安平路","SECT":" ","MAREA":" ","LANE":"７５巷","ALLEY":"２２弄","HOUSE_NO":"１６號","E_COORD97":164356.48999999999,"N_COORD97":2544368.48,"ADDRESS":"安平路７５巷２２弄１６號","OBJECTID":146307},"geometry":{"x":164356.49000000022,"y":2544368.4800000023}},{"attributes":{"ID":146308,"DIS_CODE":0,"TOWNNAME":"安平區","LI":"港仔里","LIN":"3鄰","STREET":"安平路","SECT":" ","MAREA":" ","LANE":"７５巷","ALLEY":"２２弄","HOUSE_NO":"１８號","E_COORD97":164352.70000000001,"N_COORD97":2544369.79,"ADDRESS":"安平路７５巷２２弄１８號","OBJECTID":146308},"geometry":{"x":164352.70000000112,"y":2544369.7899999991}},{"attributes":{"ID":146309,"DIS_CODE":0,"TOWNNAME":"北區","LI":"長德里","LIN":"3鄰","STREET":"公園南路","SECT":" ","MAREA":" ","LANE":"１５２巷","ALLEY":"３０弄","HOUSE_NO":"２５號","E_COORD97":168635.57999999999,"N_COORD97":2544778.2200000002,"ADDRESS":"公園南路１５２巷３０弄２５號","OBJECTID":146309},"geometry":{"x":168635.58000000101,"y":2544778.2200000007}},{"attributes":{"ID":146310,"DIS_CODE":0,"TOWNNAME":"西港區","LI":"金砂里","LIN":"4鄰","STREET":" ","SECT":" ","MAREA":"砂凹子","LANE":" ","ALLEY":" ","HOUSE_NO":"１號","E_COORD97":168823.73000000001,"N_COORD97":2561697.3900000001,"ADDRESS":"砂凹子１號","OBJECTID":146310},"geometry":{"x":168823.73000000045,"y":2561697.3900000025}},{"attributes":{"ID":146311,"DIS_CODE":0,"TOWNNAME":"西港區","LI":"金砂里","LIN":"6鄰","STREET":" ","SECT":" ","MAREA":"砂凹子","LANE":" ","ALLEY":" ","HOUSE_NO":"２３號之１０","E_COORD97":168718.79999999999,"N_COORD97":2561854.3100000001,"ADDRESS":"砂凹子２３號之１０","OBJECTID":146311},"geometry":{"x":168718.79999999981,"y":2561854.3100000024}},{"attributes":{"ID":146312,"DIS_CODE":0,"TOWNNAME":"西港區","LI":"金砂里","LIN":"6鄰","STREET":" ","SECT":" ","MAREA":"砂凹子","LANE":" ","ALLEY":" ","HOUSE_NO":"２３號之１１","E_COORD97":168717.97,"N_COORD97":2561858.8500000001,"ADDRESS":"砂凹子２３號之１１","OBJECTID":146312},"geometry":{"x":168717.96999999974,"y":2561858.8500000015}},{"attributes":{"ID":146313,"DIS_CODE":0,"TOWNNAME":"西港區","LI":"金砂里","LIN":"6鄰","STREET":" ","SECT":" ","MAREA":"砂凹子","LANE":" ","ALLEY":" ","HOUSE_NO":"２３號之１２","E_COORD97":168717.07999999999,"N_COORD97":2561862.71,"ADDRESS":"砂凹子２３號之１２","OBJECTID":146313},"geometry":{"x":168717.08000000101,"y":2561862.7100000009}},{"attributes":{"ID":146314,"DIS_CODE":0,"TOWNNAME":"佳里區","LI":"安西里","LIN":"30鄰","STREET":"忠孝路","SECT":" ","MAREA":" ","LANE":" ","ALLEY":" ","HOUSE_NO":"３３１號","E_COORD97":165041.44,"N_COORD97":2563288.5899999999,"ADDRESS":"忠孝路３３１號","OBJECTID":146314},"geometry":{"x":165041.44000000134,"y":2563288.5900000017}},{"attributes":{"ID":146315,"DIS_CODE":0,"TOWNNAME":"佳里區","LI":"安西里","LIN":"30鄰","STREET":"忠孝路","SECT":" ","MAREA":" ","LANE":" ","ALLEY":" ","HOUSE_NO":"３４７號","E_COORD97":165027.62,"N_COORD97":2563297.4300000002,"ADDRESS":"忠孝路３４７號","OBJECTID":146315},"geometry":{"x":165027.62000000104,"y":2563297.4299999997}},{"attributes":{"ID":146316,"DIS_CODE":0,"TOWNNAME":"佳里區","LI":"安西里","LIN":"30鄰","STREET":"忠孝路","SECT":" ","MAREA":" ","LANE":" ","ALLEY":" ","HOUSE_NO":"３５９號","E_COORD97":164991.35000000001,"N_COORD97":2563329.2999999998,"ADDRESS":"忠孝路３５９號","OBJECTID":146316},"geometry":{"x":164991.35000000149,"y":2563329.3000000026}},{"attributes":{"ID":146317,"DIS_CODE":0,"TOWNNAME":"北區","LI":"長德里","LIN":"3鄰","STREET":"公園南路","SECT":" ","MAREA":" ","LANE":"１５２巷","ALLEY":"３０弄","HOUSE_NO":"２７號","E_COORD97":168639.73999999999,"N_COORD97":2544775.4500000002,"ADDRESS":"公園南路１５２巷３０弄２７號","OBJECTID":146317},"geometry":{"x":168639.74000000115,"y":2544775.4499999993}},{"attributes":{"ID":146318,"DIS_CODE":0,"TOWNNAME":"北區","LI":"長德里","LIN":"3鄰","STREET":"公園南路","SECT":" ","MAREA":" ","LANE":"１５２巷","ALLEY":"３０弄","HOUSE_NO":"２９號","E_COORD97":168639.39000000001,"N_COORD97":2544785.1400000001,"ADDRESS":"公園南路１５２巷３０弄２９號","OBJECTID":146318},"geometry":{"x":168639.3900000006,"y":2544785.1400000006}},{"attributes":{"ID":146319,"DIS_CODE":0,"TOWNNAME":"新市區","LI":"大社里","LIN":"30鄰","STREET":" ","SECT":" ","MAREA":"大社","LANE":" ","ALLEY":" ","HOUSE_NO":"９８９號","E_COORD97":180267.35000000001,"N_COORD97":2553720.75,"ADDRESS":"大社９８９號","OBJECTID":146319},"geometry":{"x":180267.35000000056,"y":2553720.75}},{"attributes":{"ID":146320,"DIS_CODE":0,"TOWNNAME":"西港區","LI":"金砂里","LIN":"6鄰","STREET":" ","SECT":" ","MAREA":"砂凹子","LANE":" ","ALLEY":" ","HOUSE_NO":"２３號之１","E_COORD97":168742.78,"N_COORD97":2561821,"ADDRESS":"砂凹子２３號之１","OBJECTID":146320},"geometry":{"x":168742.78000000119,"y":2561821.0000000019}},{"attributes":{"ID":146321,"DIS_CODE":0,"TOWNNAME":"西港區","LI":"金砂里","LIN":"6鄰","STREET":" ","SECT":" ","MAREA":"砂凹子","LANE":" ","ALLEY":" ","HOUSE_NO":"２３號之２","E_COORD97":168729.35999999999,"N_COORD97":2561822.48,"ADDRESS":"砂凹子２３號之２","OBJECTID":146321},"geometry":{"x":168729.36000000034,"y":2561822.4800000023}},{"attributes":{"ID":146322,"DIS_CODE":0,"TOWNNAME":"西港區","LI":"金砂里","LIN":"6鄰","STREET":" ","SECT":" ","MAREA":"砂凹子","LANE":" ","ALLEY":" ","HOUSE_NO":"２３號之３","E_COORD97":168724.92999999999,"N_COORD97":2561822.2000000002,"ADDRESS":"砂凹子２３號之３","OBJECTID":146322},"geometry":{"x":168724.9299999997,"y":2561822.2000000011}},{"attributes":{"ID":146323,"DIS_CODE":0,"TOWNNAME":"北區","LI":"長德里","LIN":"3鄰","STREET":"公園南路","SECT":" ","MAREA":" ","LANE":"１５２巷","ALLEY":"３０弄","HOUSE_NO":"３１號","E_COORD97":168641.47,"N_COORD97":2544782.7200000002,"ADDRESS":"公園南路１５２巷３０弄３１號","OBJECTID":146323},"geometry":{"x":168641.46999999974,"y":2544782.7199999988}},{"attributes":{"ID":146324,"DIS_CODE":0,"TOWNNAME":"北區","LI":"長德里","LIN":"3鄰","STREET":"公園南路","SECT":" ","MAREA":" ","LANE":"１５２巷","ALLEY":"３０弄","HOUSE_NO":"３３號","E_COORD97":168641.82000000001,"N_COORD97":2544790.6699999999,"ADDRESS":"公園南路１５２巷３０弄３３號","OBJECTID":146324},"geometry":{"x":168641.8200000003,"y":2544790.6700000018}},{"attributes":{"ID":146325,"DIS_CODE":0,"TOWNNAME":"西港區","LI":"金砂里","LIN":"6鄰","STREET":" ","SECT":" ","MAREA":"砂凹子","LANE":" ","ALLEY":" ","HOUSE_NO":"２３號之４","E_COORD97":168720.82999999999,"N_COORD97":2561821.3900000001,"ADDRESS":"砂凹子２３號之４","OBJECTID":146325},"geometry":{"x":168720.83000000007,"y":2561821.3900000006}},{"attributes":{"ID":146326,"DIS_CODE":0,"TOWNNAME":"北區","LI":"力行里","LIN":"3鄰","STREET":"開南街","SECT":" ","MAREA":" ","LANE":"２７５巷","ALLEY":"３弄","HOUSE_NO":"４號","E_COORD97":170937.76999999999,"N_COORD97":2545004.2799999998,"ADDRESS":"開南街２７５巷３弄４號","OBJECTID":146326},"geometry":{"x":170937.76999999955,"y":2545004.2799999993}},{"attributes":{"ID":146327,"DIS_CODE":0,"TOWNNAME":"北區","LI":"長德里","LIN":"3鄰","STREET":"公園南路","SECT":" ","MAREA":" ","LANE":"１５２巷","ALLEY":"３０弄","HOUSE_NO":"３５號","E_COORD97":168644.94,"N_COORD97":2544798.2799999998,"ADDRESS":"公園南路１５２巷３０弄３５號","OBJECTID":146327},"geometry":{"x":168644.94000000134,"y":2544798.2800000031}},{"attributes":{"ID":146328,"DIS_CODE":0,"TOWNNAME":"北區","LI":"長德里","LIN":"3鄰","STREET":"公園南路","SECT":" ","MAREA":" ","LANE":"１５２巷","ALLEY":"３０弄","HOUSE_NO":"３７號","E_COORD97":168636.01000000001,"N_COORD97":2544800.0499999998,"ADDRESS":"公園南路１５２巷３０弄３７號","OBJECTID":146328},"geometry":{"x":168636.00999999978,"y":2544800.0500000007}},{"attributes":{"ID":146329,"DIS_CODE":0,"TOWNNAME":"北區","LI":"長德里","LIN":"3鄰","STREET":"公園南路","SECT":" ","MAREA":" ","LANE":"１５２巷","ALLEY":"３０弄","HOUSE_NO":"３９號","E_COORD97":168630.82000000001,"N_COORD97":2544800.4100000001,"ADDRESS":"公園南路１５２巷３０弄３９號","OBJECTID":146329},"geometry":{"x":168630.82000000123,"y":2544800.4100000001}},{"attributes":{"ID":146330,"DIS_CODE":0,"TOWNNAME":"北區","LI":"長德里","LIN":"3鄰","STREET":"公園南路","SECT":" ","MAREA":" ","LANE":"１５２巷","ALLEY":"３０弄","HOUSE_NO":"４１號","E_COORD97":168639.73999999999,"N_COORD97":2544807.9399999999,"ADDRESS":"公園南路１５２巷３０弄４１號","OBJECTID":146330},"geometry":{"x":168639.74000000115,"y":2544807.9400000013}},{"attributes":{"ID":146331,"DIS_CODE":0,"TOWNNAME":"北區","LI":"長德里","LIN":"3鄰","STREET":"公園南路","SECT":" ","MAREA":" ","LANE":"１５２巷","ALLEY":"３０弄","HOUSE_NO":"４３號","E_COORD97":168643.54999999999,"N_COORD97":2544815.8999999999,"ADDRESS":"公園南路１５２巷３０弄４３號","OBJECTID":146331},"geometry":{"x":168643.55000000075,"y":2544815.9000000022}},{"attributes":{"ID":146332,"DIS_CODE":0,"TOWNNAME":"北區","LI":"長德里","LIN":"3鄰","STREET":"公園南路","SECT":" ","MAREA":" ","LANE":"１５２巷","ALLEY":"３０弄","HOUSE_NO":"４５號","E_COORD97":168638.35000000001,"N_COORD97":2544816.9300000002,"ADDRESS":"公園南路１５２巷３０弄４５號","OBJECTID":146332},"geometry":{"x":168638.35000000056,"y":2544816.9299999997}},{"attributes":{"ID":146333,"DIS_CODE":0,"TOWNNAME":"佳里區","LI":"安西里","LIN":"30鄰","STREET":"忠孝路","SECT":" ","MAREA":" ","LANE":" ","ALLEY":" ","HOUSE_NO":"３６１號","E_COORD97":164987.82999999999,"N_COORD97":2563331.8300000001,"ADDRESS":"忠孝路３６１號","OBJECTID":146333},"geometry":{"x":164987.83000000007,"y":2563331.8300000019}},{"attributes":{"ID":146334,"DIS_CODE":0,"TOWNNAME":"西港區","LI":"金砂里","LIN":"6鄰","STREET":" ","SECT":" ","MAREA":"砂凹子","LANE":" ","ALLEY":" ","HOUSE_NO":"２３號之５","E_COORD97":168721.85000000001,"N_COORD97":2561832.25,"ADDRESS":"砂凹子２３號之５","OBJECTID":146334},"geometry":{"x":168721.84999999963,"y":2561832.2500000037}},{"attributes":{"ID":146335,"DIS_CODE":0,"TOWNNAME":"西港區","LI":"金砂里","LIN":"6鄰","STREET":" ","SECT":" ","MAREA":"砂凹子","LANE":" ","ALLEY":" ","HOUSE_NO":"２３號之６","E_COORD97":168721.29000000001,"N_COORD97":2561836.8599999999,"ADDRESS":"砂凹子２３號之６","OBJECTID":146335},"geometry":{"x":168721.29000000004,"y":2561836.8599999994}},{"attributes":{"ID":146336,"DIS_CODE":0,"TOWNNAME":"西港區","LI":"金砂里","LIN":"6鄰","STREET":" ","SECT":" ","MAREA":"砂凹子","LANE":" ","ALLEY":" ","HOUSE_NO":"２３號之７","E_COORD97":168720.85999999999,"N_COORD97":2561841.1600000001,"ADDRESS":"砂凹子２３號之７","OBJECTID":146336},"geometry":{"x":168720.86000000034,"y":2561841.160000002}},{"attributes":{"ID":146337,"DIS_CODE":0,"TOWNNAME":"西港區","LI":"金砂里","LIN":"6鄰","STREET":" ","SECT":" ","MAREA":"砂凹子","LANE":" ","ALLEY":" ","HOUSE_NO":"２３號之８","E_COORD97":168720.14999999999,"N_COORD97":2561845.4300000002,"ADDRESS":"砂凹子２３號之８","OBJECTID":146337},"geometry":{"x":168720.1500000013,"y":2561845.4300000016}},{"attributes":{"ID":146338,"DIS_CODE":0,"TOWNNAME":"西港區","LI":"金砂里","LIN":"6鄰","STREET":" ","SECT":" ","MAREA":"砂凹子","LANE":" ","ALLEY":" ","HOUSE_NO":"２３號之９","E_COORD97":168719.32999999999,"N_COORD97":2561849.7599999998,"ADDRESS":"砂凹子２３號之９","OBJECTID":146338},"geometry":{"x":168719.33000000007,"y":2561849.7600000016}},{"attributes":{"ID":146339,"DIS_CODE":0,"TOWNNAME":"西港區","LI":"金砂里","LIN":"6鄰","STREET":" ","SECT":" ","MAREA":"砂凹子","LANE":" ","ALLEY":" ","HOUSE_NO":"２３號","E_COORD97":168755.35999999999,"N_COORD97":2561817.9100000001,"ADDRESS":"砂凹子２３號","OBJECTID":146339},"geometry":{"x":168755.3600000022,"y":2561817.9100000039}},{"attributes":{"ID":146340,"DIS_CODE":0,"TOWNNAME":"西港區","LI":"金砂里","LIN":"6鄰","STREET":" ","SECT":" ","MAREA":"砂凹子","LANE":" ","ALLEY":" ","HOUSE_NO":"２４號","E_COORD97":168750.85000000001,"N_COORD97":2561841.29,"ADDRESS":"砂凹子２４號","OBJECTID":146340},"geometry":{"x":168750.84999999963,"y":2561841.2900000028}},{"attributes":{"ID":146341,"DIS_CODE":0,"TOWNNAME":"西港區","LI":"金砂里","LIN":"4鄰","STREET":" ","SECT":" ","MAREA":"砂凹子","LANE":" ","ALLEY":" ","HOUSE_NO":"２號","E_COORD97":168789.23000000001,"N_COORD97":2561679.29,"ADDRESS":"砂凹子２號","OBJECTID":146341},"geometry":{"x":168789.23000000138,"y":2561679.290000001}},{"attributes":{"ID":146342,"DIS_CODE":0,"TOWNNAME":"西港區","LI":"金砂里","LIN":"4鄰","STREET":" ","SECT":" ","MAREA":"砂凹子","LANE":" ","ALLEY":" ","HOUSE_NO":"４號之１","E_COORD97":168823.54999999999,"N_COORD97":2561720.8799999999,"ADDRESS":"砂凹子４號之１","OBJECTID":146342},"geometry":{"x":168823.55000000075,"y":2561720.879999999}},{"attributes":{"ID":146343,"DIS_CODE":0,"TOWNNAME":"西港區","LI":"金砂里","LIN":"4鄰","STREET":" ","SECT":" ","MAREA":"砂凹子","LANE":" ","ALLEY":" ","HOUSE_NO":"４號之２","E_COORD97":168829.82999999999,"N_COORD97":2561735.2799999998,"ADDRESS":"砂凹子４號之２","OBJECTID":146343},"geometry":{"x":168829.83000000194,"y":2561735.2799999993}},{"attributes":{"ID":146344,"DIS_CODE":0,"TOWNNAME":"西港區","LI":"金砂里","LIN":"4鄰","STREET":" ","SECT":" ","MAREA":"砂凹子","LANE":" ","ALLEY":" ","HOUSE_NO":"５號之１","E_COORD97":168833.78,"N_COORD97":2561774.1600000001,"ADDRESS":"砂凹子５號之１","OBJECTID":146344},"geometry":{"x":168833.78000000212,"y":2561774.1600000001}},{"attributes":{"ID":146345,"DIS_CODE":0,"TOWNNAME":"西港區","LI":"金砂里","LIN":"4鄰","STREET":" ","SECT":" ","MAREA":"砂凹子","LANE":" ","ALLEY":" ","HOUSE_NO":"５號","E_COORD97":168818.29000000001,"N_COORD97":2561766.6499999999,"ADDRESS":"砂凹子５號","OBJECTID":146345},"geometry":{"x":168818.2900000019,"y":2561766.6500000022}},{"attributes":{"ID":146346,"DIS_CODE":0,"TOWNNAME":"西港區","LI":"金砂里","LIN":"4鄰","STREET":" ","SECT":" ","MAREA":"砂凹子","LANE":" ","ALLEY":" ","HOUSE_NO":"７號","E_COORD97":168780.89999999999,"N_COORD97":2561759.6899999999,"ADDRESS":"砂凹子７號","OBJECTID":146346},"geometry":{"x":168780.9000000013,"y":2561759.6899999995}},{"attributes":{"ID":146347,"DIS_CODE":0,"TOWNNAME":"北區","LI":"長德里","LIN":"3鄰","STREET":"公園南路","SECT":" ","MAREA":" ","LANE":"１５２巷","ALLEY":"３０弄","HOUSE_NO":"４７號","E_COORD97":168634.89000000001,"N_COORD97":2544818.3199999998,"ADDRESS":"公園南路１５２巷３０弄４７號","OBJECTID":146347},"geometry":{"x":168634.8900000006,"y":2544818.3200000003}},{"attributes":{"ID":146348,"DIS_CODE":0,"TOWNNAME":"北區","LI":"長德里","LIN":"3鄰","STREET":"公園南路","SECT":" ","MAREA":" ","LANE":"１５２巷","ALLEY":"３０弄","HOUSE_NO":"４９號","E_COORD97":168638.01000000001,"N_COORD97":2544824.5499999998,"ADDRESS":"公園南路１５２巷３０弄４９號","OBJECTID":146348},"geometry":{"x":168638.00999999978,"y":2544824.5500000007}},{"attributes":{"ID":146349,"DIS_CODE":0,"TOWNNAME":"西港區","LI":"金砂里","LIN":"4鄰","STREET":" ","SECT":" ","MAREA":"砂凹子","LANE":" ","ALLEY":" ","HOUSE_NO":"８號","E_COORD97":168786.92999999999,"N_COORD97":2561713.5499999998,"ADDRESS":"砂凹子８號","OBJECTID":146349},"geometry":{"x":168786.93000000063,"y":2561713.5500000026}},{"attributes":{"ID":146350,"DIS_CODE":0,"TOWNNAME":"西港區","LI":"金砂里","LIN":"4鄰","STREET":" ","SECT":" ","MAREA":"砂凹子","LANE":" ","ALLEY":" ","HOUSE_NO":"９號之１","E_COORD97":168768.88,"N_COORD97":2561790.75,"ADDRESS":"砂凹子９號之１","OBJECTID":146350},"geometry":{"x":168768.88000000082,"y":2561790.75}},{"attributes":{"ID":146351,"DIS_CODE":0,"TOWNNAME":"北區","LI":"長德里","LIN":"3鄰","STREET":"公園南路","SECT":" ","MAREA":" ","LANE":"１５２巷","ALLEY":"３０弄","HOUSE_NO":"５１號","E_COORD97":168647.70999999999,"N_COORD97":2544806.3999999999,"ADDRESS":"公園南路１５２巷３０弄５１號","OBJECTID":146351},"geometry":{"x":168647.71000000089,"y":2544806.4000000022}},{"attributes":{"ID":146352,"DIS_CODE":0,"TOWNNAME":"西港區","LI":"金砂里","LIN":"4鄰","STREET":" ","SECT":" ","MAREA":"砂凹子","LANE":" ","ALLEY":" ","HOUSE_NO":"９號","E_COORD97":168752.97,"N_COORD97":2561781.5800000001,"ADDRESS":"砂凹子９號","OBJECTID":146352},"geometry":{"x":168752.97000000067,"y":2561781.5800000001}},{"attributes":{"ID":146353,"DIS_CODE":0,"TOWNNAME":"北區","LI":"長德里","LIN":"3鄰","STREET":"公園南路","SECT":" ","MAREA":" ","LANE":"１５２巷","ALLEY":"３０弄","HOUSE_NO":"５３號","E_COORD97":168651.17000000001,"N_COORD97":2544812.6299999999,"ADDRESS":"公園南路１５２巷３０弄５３號","OBJECTID":146353},"geometry":{"x":168651.17000000179,"y":2544812.6300000008}},{"attributes":{"ID":146354,"DIS_CODE":0,"TOWNNAME":"西港區","LI":"港東里","LIN":"6鄰","STREET":" ","SECT":" ","MAREA":"烏竹林","LANE":" ","ALLEY":" ","HOUSE_NO":"１號","E_COORD97":169682.45000000001,"N_COORD97":2557942.1299999999,"ADDRESS":"烏竹林１號","OBJECTID":146354},"geometry":{"x":169682.45000000112,"y":2557942.129999999}},{"attributes":{"ID":146355,"DIS_CODE":0,"TOWNNAME":"西港區","LI":"劉厝里","LIN":"15鄰","STREET":" ","SECT":" ","MAREA":"蚶西港","LANE":" ","ALLEY":" ","HOUSE_NO":"１０號","E_COORD97":166073.60999999999,"N_COORD97":2559157.0499999998,"ADDRESS":"蚶西港１０號","OBJECTID":146355},"geometry":{"x":166073.6100000022,"y":2559157.0500000026}},{"attributes":{"ID":146356,"DIS_CODE":0,"TOWNNAME":"西港區","LI":"新復里","LIN":"4鄰","STREET":" ","SECT":" ","MAREA":"新港","LANE":" ","ALLEY":" ","HOUSE_NO":"２５號之３","E_COORD97":166472.29000000001,"N_COORD97":2556440.4100000001,"ADDRESS":"新港２５號之３","OBJECTID":146356},"geometry":{"x":166472.29000000097,"y":2556440.4099999983}},{"attributes":{"ID":146357,"DIS_CODE":0,"TOWNNAME":"西港區","LI":"新復里","LIN":"4鄰","STREET":" ","SECT":" ","MAREA":"新港","LANE":" ","ALLEY":" ","HOUSE_NO":"２５號之４","E_COORD97":166468.06,"N_COORD97":2556440.6000000001,"ADDRESS":"新港２５號之４","OBJECTID":146357},"geometry":{"x":166468.06000000145,"y":2556440.5999999996}},{"attributes":{"ID":146358,"DIS_CODE":0,"TOWNNAME":"北區","LI":"長德里","LIN":"3鄰","STREET":"公園南路","SECT":" ","MAREA":" ","LANE":"１５２巷","ALLEY":"３０弄","HOUSE_NO":"５５號","E_COORD97":168654.29000000001,"N_COORD97":2544821.9700000002,"ADDRESS":"公園南路１５２巷３０弄５５號","OBJECTID":146358},"geometry":{"x":168654.29000000097,"y":2544821.9700000044}},{"attributes":{"ID":146359,"DIS_CODE":0,"TOWNNAME":"北區","LI":"長德里","LIN":"3鄰","STREET":"公園南路","SECT":" ","MAREA":" ","LANE":"１５２巷","ALLEY":"３０弄","HOUSE_NO":"５號","E_COORD97":168635.92999999999,"N_COORD97":2544767.8399999999,"ADDRESS":"公園南路１５２巷３０弄５號","OBJECTID":146359},"geometry":{"x":168635.93000000063,"y":2544767.8400000036}},{"attributes":{"ID":146360,"DIS_CODE":0,"TOWNNAME":"北區","LI":"長德里","LIN":"3鄰","STREET":"公園南路","SECT":" ","MAREA":" ","LANE":"１５２巷","ALLEY":"３０弄","HOUSE_NO":"７號","E_COORD97":168633.5,"N_COORD97":2544770.2599999998,"ADDRESS":"公園南路１５２巷３０弄７號","OBJECTID":146360},"geometry":{"x":168633.5,"y":2544770.2599999998}},{"attributes":{"ID":146361,"DIS_CODE":0,"TOWNNAME":"北區","LI":"長德里","LIN":"3鄰","STREET":"公園南路","SECT":" ","MAREA":" ","LANE":"１５２巷","ALLEY":"３０弄","HOUSE_NO":"９號","E_COORD97":168625.19,"N_COORD97":2544770.9500000002,"ADDRESS":"公園南路１５２巷３０弄９號","OBJECTID":146361},"geometry":{"x":168625.19000000134,"y":2544770.9500000011}},{"attributes":{"ID":146362,"DIS_CODE":0,"TOWNNAME":"西港區","LI":"新復里","LIN":"4鄰","STREET":" ","SECT":" ","MAREA":"新港","LANE":" ","ALLEY":" ","HOUSE_NO":"２５號之５","E_COORD97":166463.60999999999,"N_COORD97":2556439.6899999999,"ADDRESS":"新港２５號之５","OBJECTID":146362},"geometry":{"x":166463.6100000022,"y":2556439.6899999995}},{"attributes":{"ID":146363,"DIS_CODE":0,"TOWNNAME":"北區","LI":"長德里","LIN":"3鄰","STREET":"公園南路","SECT":" ","MAREA":" ","LANE":"１５２巷","ALLEY":"３０弄","HOUSE_NO":"６０號","E_COORD97":168658.10000000001,"N_COORD97":2544809.1699999999,"ADDRESS":"公園南路１５２巷３０弄６０號","OBJECTID":146363},"geometry":{"x":168658.10000000149,"y":2544809.1699999999}},{"attributes":{"ID":146364,"DIS_CODE":0,"TOWNNAME":"北區","LI":"長德里","LIN":"3鄰","STREET":"公園南路","SECT":" ","MAREA":" ","LANE":"１５２巷","ALLEY":"３０弄","HOUSE_NO":"６２號","E_COORD97":168660.17999999999,"N_COORD97":2544816.4300000002,"ADDRESS":"公園南路１５２巷３０弄６２號","OBJECTID":146364},"geometry":{"x":168660.1799999997,"y":2544816.4299999997}},{"attributes":{"ID":146365,"DIS_CODE":0,"TOWNNAME":"北區","LI":"長德里","LIN":"3鄰","STREET":"公園南路","SECT":" ","MAREA":" ","LANE":"１５２巷","ALLEY":"３０弄","HOUSE_NO":"６８號","E_COORD97":168672.31,"N_COORD97":2544825.0800000001,"ADDRESS":"公園南路１５２巷３０弄６８號","OBJECTID":146365},"geometry":{"x":168672.31000000052,"y":2544825.0800000019}},{"attributes":{"ID":146366,"DIS_CODE":0,"TOWNNAME":"西港區","LI":"新復里","LIN":"4鄰","STREET":" ","SECT":" ","MAREA":"新港","LANE":" ","ALLEY":" ","HOUSE_NO":"２５號","E_COORD97":166486.26999999999,"N_COORD97":2556442.5,"ADDRESS":"新港２５號","OBJECTID":146366},"geometry":{"x":166486.26999999955,"y":2556442.5}},{"attributes":{"ID":146367,"DIS_CODE":0,"TOWNNAME":"關廟區","LI":"埤頭里","LIN":"3鄰","STREET":"保東路","SECT":" ","MAREA":" ","LANE":"３巷","ALLEY":"５６弄","HOUSE_NO":"２６號","E_COORD97":178989.57000000001,"N_COORD97":2543941.25,"ADDRESS":"保東路３巷５６弄２６號","OBJECTID":146367},"geometry":{"x":178989.57000000216,"y":2543941.2500000037}},{"attributes":{"ID":146368,"DIS_CODE":0,"TOWNNAME":"西港區","LI":"新復里","LIN":"4鄰","STREET":" ","SECT":" ","MAREA":"新港","LANE":" ","ALLEY":" ","HOUSE_NO":"２６號之１","E_COORD97":166418.57000000001,"N_COORD97":2556446.6400000001,"ADDRESS":"新港２６號之１","OBJECTID":146368},"geometry":{"x":166418.57000000123,"y":2556446.6400000025}},{"attributes":{"ID":146369,"DIS_CODE":0,"TOWNNAME":"關廟區","LI":"埤頭里","LIN":"3鄰","STREET":"保東路","SECT":" ","MAREA":" ","LANE":"３巷","ALLEY":"５６弄","HOUSE_NO":"６號","E_COORD97":179033.67000000001,"N_COORD97":2543948.25,"ADDRESS":"保東路３巷５６弄６號","OBJECTID":146369},"geometry":{"x":179033.66999999993,"y":2543948.2500000019}},{"attributes":{"ID":146370,"DIS_CODE":0,"TOWNNAME":"關廟區","LI":"埤頭里","LIN":"3鄰","STREET":"保東路","SECT":" ","MAREA":" ","LANE":"３巷","ALLEY":"５６弄","HOUSE_NO":"１２號","E_COORD97":179004.17000000001,"N_COORD97":2543946.25,"ADDRESS":"保東路３巷５６弄１２號","OBJECTID":146370},"geometry":{"x":179004.17000000086,"y":2543946.2500000019}},{"attributes":{"ID":146371,"DIS_CODE":0,"TOWNNAME":"關廟區","LI":"龜洞里","LIN":"3鄰","STREET":"中崙街","SECT":" ","MAREA":" ","LANE":"１１巷","ALLEY":"６弄","HOUSE_NO":"１３號","E_COORD97":183316.23999999999,"N_COORD97":2533538.25,"ADDRESS":"中崙街１１巷６弄１３號","OBJECTID":146371},"geometry":{"x":183316.24000000115,"y":2533538.25}},{"attributes":{"ID":146372,"DIS_CODE":0,"TOWNNAME":"西港區","LI":"新復里","LIN":"4鄰","STREET":" ","SECT":" ","MAREA":"新港","LANE":" ","ALLEY":" ","HOUSE_NO":"２６號之２","E_COORD97":166454.76999999999,"N_COORD97":2556424.8900000001,"ADDRESS":"新港２６號之２","OBJECTID":146372},"geometry":{"x":166454.77000000142,"y":2556424.8900000025}},{"attributes":{"ID":146373,"DIS_CODE":0,"TOWNNAME":"關廟區","LI":"北花里","LIN":"3鄰","STREET":"旺萊路","SECT":" ","MAREA":" ","LANE":"５８１巷","ALLEY":"２８弄","HOUSE_NO":"２０號","E_COORD97":182200.44,"N_COORD97":2540363.25,"ADDRESS":"旺萊路５８１巷２８弄２０號","OBJECTID":146373},"geometry":{"x":182200.44000000041,"y":2540363.25}},{"attributes":{"ID":146374,"DIS_CODE":0,"TOWNNAME":"關廟區","LI":"北花里","LIN":"3鄰","STREET":"旺萊路","SECT":" ","MAREA":" ","LANE":"５８１巷","ALLEY":"２８弄","HOUSE_NO":"１６號","E_COORD97":182197.73999999999,"N_COORD97":2540353.25,"ADDRESS":"旺萊路５８１巷２８弄１６號","OBJECTID":146374},"geometry":{"x":182197.74000000115,"y":2540353.25}},{"attributes":{"ID":146375,"DIS_CODE":0,"TOWNNAME":"西港區","LI":"新復里","LIN":"4鄰","STREET":" ","SECT":" ","MAREA":"新港","LANE":" ","ALLEY":" ","HOUSE_NO":"２６號之３","E_COORD97":166438.37,"N_COORD97":2556431.4300000002,"ADDRESS":"新港２６號之３","OBJECTID":146375},"geometry":{"x":166438.37000000104,"y":2556431.4300000016}},{"attributes":{"ID":146376,"DIS_CODE":0,"TOWNNAME":"西港區","LI":"新復里","LIN":"4鄰","STREET":" ","SECT":" ","MAREA":"新港","LANE":" ","ALLEY":" ","HOUSE_NO":"２６號之５","E_COORD97":166444.09,"N_COORD97":2556442.0899999999,"ADDRESS":"新港２６號之５","OBJECTID":146376},"geometry":{"x":166444.08999999985,"y":2556442.0899999999}},{"attributes":{"ID":146377,"DIS_CODE":0,"TOWNNAME":"西港區","LI":"新復里","LIN":"4鄰","STREET":" ","SECT":" ","MAREA":"新港","LANE":" ","ALLEY":" ","HOUSE_NO":"２６號","E_COORD97":166458.25,"N_COORD97":2556444.6099999999,"ADDRESS":"新港２６號","OBJECTID":146377},"geometry":{"x":166458.25,"y":2556444.6099999994}},{"attributes":{"ID":146378,"DIS_CODE":0,"TOWNNAME":"西港區","LI":"新復里","LIN":"4鄰","STREET":" ","SECT":" ","MAREA":"新港","LANE":" ","ALLEY":" ","HOUSE_NO":"２７之１６號","E_COORD97":166373.84,"N_COORD97":2556097.48,"ADDRESS":"新港２７之１６號","OBJECTID":146378},"geometry":{"x":166373.84000000078,"y":2556097.4800000004}},{"attributes":{"ID":146379,"DIS_CODE":0,"TOWNNAME":"關廟區","LI":"東勢里","LIN":"3鄰","STREET":"東安街","SECT":" ","MAREA":" ","LANE":"２４５巷","ALLEY":"６７弄","HOUSE_NO":"１號","E_COORD97":181644.92000000001,"N_COORD97":2539492.3199999998,"ADDRESS":"東安街２４５巷６７弄１號","OBJECTID":146379},"geometry":{"x":181644.92000000086,"y":2539492.3200000003}},{"attributes":{"ID":146380,"DIS_CODE":0,"TOWNNAME":"六甲區","LI":"六甲里","LIN":"30鄰","STREET":"中華路","SECT":" ","MAREA":" ","LANE":" ","ALLEY":" ","HOUSE_NO":"９５號","E_COORD97":183413.62,"N_COORD97":2569334.4700000002,"ADDRESS":"中華路９５號","OBJECTID":146380},"geometry":{"x":183413.62000000104,"y":2569334.4700000044}},{"attributes":{"ID":146381,"DIS_CODE":0,"TOWNNAME":"六甲區","LI":"六甲里","LIN":"30鄰","STREET":"中華路","SECT":" ","MAREA":" ","LANE":" ","ALLEY":" ","HOUSE_NO":"９７號","E_COORD97":183406.23999999999,"N_COORD97":2569331.3900000001,"ADDRESS":"中華路９７號","OBJECTID":146381},"geometry":{"x":183406.24000000115,"y":2569331.3900000043}},{"attributes":{"ID":146382,"DIS_CODE":0,"TOWNNAME":"西港區","LI":"慶安里","LIN":"20鄰","STREET":"中山路","SECT":" ","MAREA":" ","LANE":" ","ALLEY":" ","HOUSE_NO":"３０５號","E_COORD97":168375.31,"N_COORD97":2557998.4300000002,"ADDRESS":"中山路３０５號","OBJECTID":146382},"geometry":{"x":168375.31000000145,"y":2557998.4299999997}},{"attributes":{"ID":146383,"DIS_CODE":0,"TOWNNAME":"西港區","LI":"慶安里","LIN":"20鄰","STREET":"中山路","SECT":" ","MAREA":" ","LANE":" ","ALLEY":" ","HOUSE_NO":"３０７號","E_COORD97":168374.20000000001,"N_COORD97":2558002.0899999999,"ADDRESS":"中山路３０７號","OBJECTID":146383},"geometry":{"x":168374.20000000019,"y":2558002.0900000036}},{"attributes":{"ID":146384,"DIS_CODE":0,"TOWNNAME":"西港區","LI":"西港里","LIN":"17鄰","STREET":"中山路","SECT":" ","MAREA":" ","LANE":" ","ALLEY":" ","HOUSE_NO":"２６６號","E_COORD97":168456.89000000001,"N_COORD97":2557872.4500000002,"ADDRESS":"中山路２６６號","OBJECTID":146384},"geometry":{"x":168456.8900000006,"y":2557872.4499999993}},{"attributes":{"ID":146385,"DIS_CODE":0,"TOWNNAME":"西港區","LI":"西港里","LIN":"17鄰","STREET":"中山路","SECT":" ","MAREA":" ","LANE":" ","ALLEY":" ","HOUSE_NO":"２６８號","E_COORD97":168430.42999999999,"N_COORD97":2557855.4300000002,"ADDRESS":"中山路２６８號","OBJECTID":146385},"geometry":{"x":168430.43000000156,"y":2557855.4300000016}},{"attributes":{"ID":146386,"DIS_CODE":0,"TOWNNAME":"西港區","LI":"西港里","LIN":"17鄰","STREET":"中山路","SECT":" ","MAREA":" ","LANE":" ","ALLEY":" ","HOUSE_NO":"２７０號","E_COORD97":168429.79999999999,"N_COORD97":2557858.9700000002,"ADDRESS":"中山路２７０號","OBJECTID":146386},"geometry":{"x":168429.80000000168,"y":2557858.9700000025}},{"attributes":{"ID":146387,"DIS_CODE":0,"TOWNNAME":"西港區","LI":"西港里","LIN":"17鄰","STREET":"中山路","SECT":" ","MAREA":" ","LANE":" ","ALLEY":" ","HOUSE_NO":"２７４號","E_COORD97":168428.60999999999,"N_COORD97":2557867.25,"ADDRESS":"中山路２７４號","OBJECTID":146387},"geometry":{"x":168428.61000000127,"y":2557867.25}},{"attributes":{"ID":146388,"DIS_CODE":0,"TOWNNAME":"西港區","LI":"西港里","LIN":"17鄰","STREET":"中山路","SECT":" ","MAREA":" ","LANE":" ","ALLEY":" ","HOUSE_NO":"２７６號","E_COORD97":168427.34,"N_COORD97":2557870.5600000001,"ADDRESS":"中山路２７６號","OBJECTID":146388},"geometry":{"x":168427.33999999985,"y":2557870.5599999987}},{"attributes":{"ID":146389,"DIS_CODE":0,"TOWNNAME":"關廟區","LI":"北花里","LIN":"3鄰","STREET":"旺萊路","SECT":" ","MAREA":" ","LANE":"５８１巷","ALLEY":"２８弄","HOUSE_NO":"１２號","E_COORD97":182196.23999999999,"N_COORD97":2540349.25,"ADDRESS":"旺萊路５８１巷２８弄１２號","OBJECTID":146389},"geometry":{"x":182196.24000000115,"y":2540349.25}},{"attributes":{"ID":146390,"DIS_CODE":0,"TOWNNAME":"關廟區","LI":"龜洞里","LIN":"3鄰","STREET":"中崙街","SECT":" ","MAREA":" ","LANE":"１１巷","ALLEY":"６弄","HOUSE_NO":"２７號","E_COORD97":183285.54000000001,"N_COORD97":2533574.25,"ADDRESS":"中崙街１１巷６弄２７號","OBJECTID":146390},"geometry":{"x":183285.54000000097,"y":2533574.2500000019}},{"attributes":{"ID":146391,"DIS_CODE":0,"TOWNNAME":"北區","LI":"成德里","LIN":"3鄰","STREET":"西門路","SECT":"四段","MAREA":" ","LANE":"１９巷","ALLEY":"３８弄","HOUSE_NO":"１０號","E_COORD97":168558.69,"N_COORD97":2545338.2000000002,"ADDRESS":"西門路四段１９巷３８弄１０號","OBJECTID":146391},"geometry":{"x":168558.69000000134,"y":2545338.2000000011}},{"attributes":{"ID":146392,"DIS_CODE":0,"TOWNNAME":"北區","LI":"成德里","LIN":"3鄰","STREET":"西門路","SECT":"四段","MAREA":" ","LANE":"１９巷","ALLEY":"３８弄","HOUSE_NO":"１２號","E_COORD97":168560.89999999999,"N_COORD97":2545341.96,"ADDRESS":"西門路四段１９巷３８弄１２號","OBJECTID":146392},"geometry":{"x":168560.9000000013,"y":2545341.9600000028}},{"attributes":{"ID":146393,"DIS_CODE":0,"TOWNNAME":"北區","LI":"成德里","LIN":"3鄰","STREET":"西門路","SECT":"四段","MAREA":" ","LANE":"１９巷","ALLEY":"３８弄","HOUSE_NO":"１４號","E_COORD97":168562.67000000001,"N_COORD97":2545345.9399999999,"ADDRESS":"西門路四段１９巷３８弄１４號","OBJECTID":146393},"geometry":{"x":168562.66999999993,"y":2545345.9399999995}},{"attributes":{"ID":146394,"DIS_CODE":0,"TOWNNAME":"北區","LI":"力行里","LIN":"3鄰","STREET":"開南街","SECT":" ","MAREA":" ","LANE":"２７５巷","ALLEY":"３弄","HOUSE_NO":"５號","E_COORD97":170932.84,"N_COORD97":2544992.8500000001,"ADDRESS":"開南街２７５巷３弄５號","OBJECTID":146394},"geometry":{"x":170932.83999999985,"y":2544992.8499999996}},{"attributes":{"ID":146395,"DIS_CODE":0,"TOWNNAME":"北區","LI":"成德里","LIN":"3鄰","STREET":"西門路","SECT":"四段","MAREA":" ","LANE":"１９巷","ALLEY":"３８弄","HOUSE_NO":"１６號","E_COORD97":168564.67000000001,"N_COORD97":2545349.2599999998,"ADDRESS":"西門路四段１９巷３８弄１６號","OBJECTID":146395},"geometry":{"x":168564.67000000179,"y":2545349.2600000016}},{"attributes":{"ID":146396,"DIS_CODE":0,"TOWNNAME":"北區","LI":"成德里","LIN":"3鄰","STREET":"西門路","SECT":"四段","MAREA":" ","LANE":"１９巷","ALLEY":"３８弄","HOUSE_NO":"２號","E_COORD97":168550.70999999999,"N_COORD97":2545323.8100000001,"ADDRESS":"西門路四段１９巷３８弄２號","OBJECTID":146396},"geometry":{"x":168550.70999999996,"y":2545323.8100000005}},{"attributes":{"ID":146397,"DIS_CODE":0,"TOWNNAME":"北區","LI":"成德里","LIN":"3鄰","STREET":"西門路","SECT":"四段","MAREA":" ","LANE":"１９巷","ALLEY":"３８弄","HOUSE_NO":"４號","E_COORD97":168552.26000000001,"N_COORD97":2545327.1299999999,"ADDRESS":"西門路四段１９巷３８弄４號","OBJECTID":146397},"geometry":{"x":168552.26000000071,"y":2545327.129999999}},{"attributes":{"ID":146398,"DIS_CODE":0,"TOWNNAME":"北區","LI":"成德里","LIN":"3鄰","STREET":"西門路","SECT":"四段","MAREA":" ","LANE":"１９巷","ALLEY":"３８弄","HOUSE_NO":"６號","E_COORD97":168554.48000000001,"N_COORD97":2545331.1200000001,"ADDRESS":"西門路四段１９巷３８弄６號","OBJECTID":146398},"geometry":{"x":168554.48000000045,"y":2545331.1200000029}},{"attributes":{"ID":146399,"DIS_CODE":0,"TOWNNAME":"北區","LI":"成德里","LIN":"3鄰","STREET":"西門路","SECT":"四段","MAREA":" ","LANE":"１９巷","ALLEY":"３８弄","HOUSE_NO":"８號","E_COORD97":168556.25,"N_COORD97":2545334.4300000002,"ADDRESS":"西門路四段１９巷３８弄８號","OBJECTID":146399},"geometry":{"x":168556.25000000093,"y":2545334.4300000016}},{"attributes":{"ID":146400,"DIS_CODE":0,"TOWNNAME":"北區","LI":"力行里","LIN":"3鄰","STREET":"開南街","SECT":" ","MAREA":" ","LANE":"２７５巷","ALLEY":"３弄","HOUSE_NO":"１０號","E_COORD97":170925.69,"N_COORD97":2545004.9199999999,"ADDRESS":"開南街２７５巷３弄１０號","OBJECTID":146400},"geometry":{"x":170925.69000000041,"y":2545004.9200000018}}]}