{"displayFieldName":"TOWNNAME","fieldAliases":{"ID":"ID","DIS_CODE":"DIS_CODE","TOWNNAME":"TOWNNAME","LI":"LI","LIN":"LIN","STREET":"STREET","SECT":"SECT","MAREA":"MAREA","LANE":"LANE","ALLEY":"ALLEY","HOUSE_NO":"HOUSE_NO","E_COORD97":"E_COORD97","N_COORD97":"N_COORD97","ADDRESS":"ADDRESS","OBJECTID":"OBJECTID"},"geometryType":"esriGeometryPoint","spatialReference":{"wkid":102443,"latestWkid":3826},"fields":[{"name":"ID","type":"esriFieldTypeDouble","alias":"ID"},{"name":"DIS_CODE","type":"esriFieldTypeInteger","alias":"DIS_CODE"},{"name":"TOWNNAME","type":"esriFieldTypeString","alias":"TOWNNAME","length":8},{"name":"LI","type":"esriFieldTypeString","alias":"LI","length":8},{"name":"LIN","type":"esriFieldTypeString","alias":"LIN","length":12},{"name":"STREET","type":"esriFieldTypeString","alias":"STREET","length":20},{"name":"SECT","type":"esriFieldTypeString","alias":"SECT","length":8},{"name":"MAREA","type":"esriFieldTypeString","alias":"MAREA","length":12},{"name":"LANE","type":"esriFieldTypeString","alias":"LANE","length":10},{"name":"ALLEY","type":"esriFieldTypeString","alias":"ALLEY","length":10},{"name":"HOUSE_NO","type":"esriFieldTypeString","alias":"HOUSE_NO","length":20},{"name":"E_COORD97","type":"esriFieldTypeDouble","alias":"E_COORD97"},{"name":"N_COORD97","type":"esriFieldTypeDouble","alias":"N_COORD97"},{"name":"ADDRESS","type":"esriFieldTypeString","alias":"ADDRESS","length":50},{"name":"OBJECTID","type":"esriFieldTypeOID","alias":"OBJECTID"}],"features":[{"attributes":{"ID":172602,"DIS_CODE":0,"TOWNNAME":"仁德區","LI":"仁愛里","LIN":"12鄰","STREET":" ","SECT":" ","MAREA":"仁愛","LANE":" ","ALLEY":" ","HOUSE_NO":"２５３號","E_COORD97":170307.19966000001,"N_COORD97":2540101.1540000001,"ADDRESS":"仁愛２５３號","OBJECTID":172601},"geometry":{"x":170307.19966000132,"y":2540101.1539999992}},{"attributes":{"ID":172603,"DIS_CODE":0,"TOWNNAME":"仁德區","LI":"仁愛里","LIN":"12鄰","STREET":" ","SECT":" ","MAREA":"仁愛","LANE":" ","ALLEY":" ","HOUSE_NO":"２５４號","E_COORD97":170302.43293000001,"N_COORD97":2540101.054,"ADDRESS":"仁愛２５４號","OBJECTID":172602},"geometry":{"x":170302.43293000199,"y":2540101.0540000014}},{"attributes":{"ID":172604,"DIS_CODE":0,"TOWNNAME":"新化區","LI":"山\u25A0里","LIN":"10鄰","STREET":" ","SECT":" ","MAREA":"五甲勢","LANE":" ","ALLEY":" ","HOUSE_NO":"３９號","E_COORD97":181778.48000000001,"N_COORD97":2545738.2599999998,"ADDRESS":"五甲勢３９號","OBJECTID":172603},"geometry":{"x":181778.48000000045,"y":2545738.2600000016}},{"attributes":{"ID":172605,"DIS_CODE":0,"TOWNNAME":"新營區","LI":"新東里","LIN":" ","STREET":"民族路","SECT":" ","MAREA":" ","LANE":"１５０巷","ALLEY":"５５弄","HOUSE_NO":"７號３樓","E_COORD97":180607.38,"N_COORD97":2579383.8500000001,"ADDRESS":"民族路１５０巷５５弄７號３樓","OBJECTID":172604},"geometry":{"x":180607.37999999989,"y":2579383.8500000015}},{"attributes":{"ID":172606,"DIS_CODE":0,"TOWNNAME":"新營區","LI":"新東里","LIN":" ","STREET":"民族路","SECT":" ","MAREA":" ","LANE":"１５０巷","ALLEY":"５５弄","HOUSE_NO":"３號２樓","E_COORD97":180607.44,"N_COORD97":2579383.8500000001,"ADDRESS":"民族路１５０巷５５弄３號２樓","OBJECTID":172605},"geometry":{"x":180607.44000000041,"y":2579383.8500000015}},{"attributes":{"ID":172607,"DIS_CODE":0,"TOWNNAME":"新營區","LI":"南紙里","LIN":"24鄰","STREET":"南紙街","SECT":" ","MAREA":" ","LANE":"１１７巷","ALLEY":"４０弄","HOUSE_NO":"１號七樓之４","E_COORD97":177949.94,"N_COORD97":2577430.8599999999,"ADDRESS":"南紙街１１７巷４０弄１號七樓之４","OBJECTID":172606},"geometry":{"x":177949.94000000134,"y":2577430.8600000013}},{"attributes":{"ID":172608,"DIS_CODE":0,"TOWNNAME":"新營區","LI":"新東里","LIN":" ","STREET":"民族路","SECT":" ","MAREA":" ","LANE":"１５０巷","ALLEY":"５５弄","HOUSE_NO":"７號４樓","E_COORD97":180607.38,"N_COORD97":2579383.8500000001,"ADDRESS":"民族路１５０巷５５弄７號４樓","OBJECTID":172607},"geometry":{"x":180607.37999999989,"y":2579383.8500000015}},{"attributes":{"ID":172609,"DIS_CODE":0,"TOWNNAME":"新營區","LI":"新東里","LIN":" ","STREET":"民族路","SECT":" ","MAREA":" ","LANE":"１５０巷","ALLEY":"５５弄","HOUSE_NO":"７號２樓","E_COORD97":180607.38,"N_COORD97":2579383.8500000001,"ADDRESS":"民族路１５０巷５５弄７號２樓","OBJECTID":172608},"geometry":{"x":180607.37999999989,"y":2579383.8500000015}},{"attributes":{"ID":172610,"DIS_CODE":0,"TOWNNAME":"新營區","LI":"新東里","LIN":" ","STREET":"民族路","SECT":" ","MAREA":" ","LANE":"１５０巷","ALLEY":"５５弄","HOUSE_NO":"５號７樓","E_COORD97":180607.37,"N_COORD97":2579383.8500000001,"ADDRESS":"民族路１５０巷５５弄５號７樓","OBJECTID":172609},"geometry":{"x":180607.37000000011,"y":2579383.8500000015}},{"attributes":{"ID":172611,"DIS_CODE":0,"TOWNNAME":"新營區","LI":"新東里","LIN":" ","STREET":"民族路","SECT":" ","MAREA":" ","LANE":"１５０巷","ALLEY":"５５弄","HOUSE_NO":"３號６樓","E_COORD97":180607.44,"N_COORD97":2579383.8500000001,"ADDRESS":"民族路１５０巷５５弄３號６樓","OBJECTID":172610},"geometry":{"x":180607.44000000041,"y":2579383.8500000015}},{"attributes":{"ID":172612,"DIS_CODE":0,"TOWNNAME":"新營區","LI":"新東里","LIN":" ","STREET":"民族路","SECT":" ","MAREA":" ","LANE":"１５０巷","ALLEY":"５５弄","HOUSE_NO":"７號７樓","E_COORD97":180607.38,"N_COORD97":2579383.8500000001,"ADDRESS":"民族路１５０巷５５弄７號７樓","OBJECTID":172611},"geometry":{"x":180607.37999999989,"y":2579383.8500000015}},{"attributes":{"ID":172613,"DIS_CODE":0,"TOWNNAME":"新營區","LI":"南紙里","LIN":"24鄰","STREET":"南紙街","SECT":" ","MAREA":" ","LANE":"１１７巷","ALLEY":"４０弄","HOUSE_NO":"１號七樓之１０","E_COORD97":177951.22,"N_COORD97":2577430.8599999999,"ADDRESS":"南紙街１１７巷４０弄１號七樓之１０","OBJECTID":172612},"geometry":{"x":177951.22000000067,"y":2577430.8600000013}},{"attributes":{"ID":172614,"DIS_CODE":0,"TOWNNAME":"東區","LI":"南聖里","LIN":"12鄰","STREET":"裕信路","SECT":" ","MAREA":" ","LANE":" ","ALLEY":" ","HOUSE_NO":"３６之１６號","E_COORD97":172533.14000000001,"N_COORD97":2543233.3900000001,"ADDRESS":"裕信路３６之１６號","OBJECTID":172613},"geometry":{"x":172533.14000000153,"y":2543233.3900000025}},{"attributes":{"ID":172615,"DIS_CODE":0,"TOWNNAME":"新營區","LI":"新東里","LIN":" ","STREET":"民族路","SECT":" ","MAREA":" ","LANE":"１５０巷","ALLEY":"５５弄","HOUSE_NO":"５號４樓","E_COORD97":180607.37,"N_COORD97":2579383.8500000001,"ADDRESS":"民族路１５０巷５５弄５號４樓","OBJECTID":172614},"geometry":{"x":180607.37000000011,"y":2579383.8500000015}},{"attributes":{"ID":172616,"DIS_CODE":0,"TOWNNAME":"新營區","LI":"新東里","LIN":" ","STREET":"民族路","SECT":" ","MAREA":" ","LANE":"１５０巷","ALLEY":"５５弄","HOUSE_NO":"７號６樓","E_COORD97":180607.38,"N_COORD97":2579383.8500000001,"ADDRESS":"民族路１５０巷５５弄７號６樓","OBJECTID":172615},"geometry":{"x":180607.37999999989,"y":2579383.8500000015}},{"attributes":{"ID":172617,"DIS_CODE":0,"TOWNNAME":"新營區","LI":"新東里","LIN":" ","STREET":"民族路","SECT":" ","MAREA":" ","LANE":"１５０巷","ALLEY":"５５弄","HOUSE_NO":"３號７樓","E_COORD97":180607.44,"N_COORD97":2579383.8500000001,"ADDRESS":"民族路１５０巷５５弄３號７樓","OBJECTID":172616},"geometry":{"x":180607.44000000041,"y":2579383.8500000015}},{"attributes":{"ID":172618,"DIS_CODE":0,"TOWNNAME":"新營區","LI":"新東里","LIN":" ","STREET":"民族路","SECT":" ","MAREA":" ","LANE":"１５０巷","ALLEY":"５５弄","HOUSE_NO":"５號３樓","E_COORD97":180607.37,"N_COORD97":2579383.8500000001,"ADDRESS":"民族路１５０巷５５弄５號３樓","OBJECTID":172617},"geometry":{"x":180607.37000000011,"y":2579383.8500000015}},{"attributes":{"ID":172619,"DIS_CODE":0,"TOWNNAME":"新營區","LI":"南紙里","LIN":"24鄰","STREET":"南紙街","SECT":" ","MAREA":" ","LANE":"１１７巷","ALLEY":"４０弄","HOUSE_NO":"１號四樓之１","E_COORD97":177949.92000000001,"N_COORD97":2577430.8599999999,"ADDRESS":"南紙街１１７巷４０弄１號四樓之１","OBJECTID":172618},"geometry":{"x":177949.92000000086,"y":2577430.8600000013}},{"attributes":{"ID":172620,"DIS_CODE":0,"TOWNNAME":"官田區","LI":"拔林里","LIN":"12鄰","STREET":" ","SECT":" ","MAREA":"拔子林","LANE":" ","ALLEY":" ","HOUSE_NO":"８４號","E_COORD97":180256.60000000001,"N_COORD97":2563792.6899999999,"ADDRESS":"拔子林８４號","OBJECTID":172619},"geometry":{"x":180256.60000000149,"y":2563792.6900000013}},{"attributes":{"ID":172621,"DIS_CODE":0,"TOWNNAME":"北區","LI":"成功里","LIN":"19鄰","STREET":"北成路","SECT":" ","MAREA":" ","LANE":"１２８巷","ALLEY":"４５弄","HOUSE_NO":"１０號七樓","E_COORD97":168936.51000000001,"N_COORD97":2546850.8199999998,"ADDRESS":"北成路１２８巷４５弄１０號七樓","OBJECTID":172620},"geometry":{"x":168936.50999999978,"y":2546850.8200000022}},{"attributes":{"ID":172622,"DIS_CODE":0,"TOWNNAME":"北區","LI":"成功里","LIN":"19鄰","STREET":"北成路","SECT":" ","MAREA":" ","LANE":"１２８巷","ALLEY":"４５弄","HOUSE_NO":"１０號九樓","E_COORD97":168936.51000000001,"N_COORD97":2546850.8199999998,"ADDRESS":"北成路１２８巷４５弄１０號九樓","OBJECTID":172621},"geometry":{"x":168936.50999999978,"y":2546850.8200000022}},{"attributes":{"ID":172623,"DIS_CODE":0,"TOWNNAME":"北區","LI":"成功里","LIN":"19鄰","STREET":"北成路","SECT":" ","MAREA":" ","LANE":"１２８巷","ALLEY":"４５弄","HOUSE_NO":"１０號二樓","E_COORD97":168936.51000000001,"N_COORD97":2546850.8199999998,"ADDRESS":"北成路１２８巷４５弄１０號二樓","OBJECTID":172622},"geometry":{"x":168936.50999999978,"y":2546850.8200000022}},{"attributes":{"ID":172624,"DIS_CODE":0,"TOWNNAME":"北區","LI":"成功里","LIN":"19鄰","STREET":"北成路","SECT":" ","MAREA":" ","LANE":"１２８巷","ALLEY":"４５弄","HOUSE_NO":"１０號八樓","E_COORD97":168936.51000000001,"N_COORD97":2546850.8199999998,"ADDRESS":"北成路１２８巷４５弄１０號八樓","OBJECTID":172623},"geometry":{"x":168936.50999999978,"y":2546850.8200000022}},{"attributes":{"ID":172625,"DIS_CODE":0,"TOWNNAME":"北區","LI":"成功里","LIN":"19鄰","STREET":"北成路","SECT":" ","MAREA":" ","LANE":"１２８巷","ALLEY":"４５弄","HOUSE_NO":"１０號三樓","E_COORD97":168936.51000000001,"N_COORD97":2546850.8199999998,"ADDRESS":"北成路１２８巷４５弄１０號三樓","OBJECTID":172624},"geometry":{"x":168936.50999999978,"y":2546850.8200000022}},{"attributes":{"ID":172626,"DIS_CODE":0,"TOWNNAME":"北區","LI":"成功里","LIN":"19鄰","STREET":"北成路","SECT":" ","MAREA":" ","LANE":"１２８巷","ALLEY":"４５弄","HOUSE_NO":"１０號五樓","E_COORD97":168936.51000000001,"N_COORD97":2546850.8199999998,"ADDRESS":"北成路１２８巷４５弄１０號五樓","OBJECTID":172625},"geometry":{"x":168936.50999999978,"y":2546850.8200000022}},{"attributes":{"ID":172627,"DIS_CODE":0,"TOWNNAME":"北區","LI":"成功里","LIN":"19鄰","STREET":"北成路","SECT":" ","MAREA":" ","LANE":"１２８巷","ALLEY":"４５弄","HOUSE_NO":"１０號六樓","E_COORD97":168936.51000000001,"N_COORD97":2546850.8199999998,"ADDRESS":"北成路１２８巷４５弄１０號六樓","OBJECTID":172626},"geometry":{"x":168936.50999999978,"y":2546850.8200000022}},{"attributes":{"ID":172628,"DIS_CODE":0,"TOWNNAME":"北區","LI":"成功里","LIN":"19鄰","STREET":"北成路","SECT":" ","MAREA":" ","LANE":"１２８巷","ALLEY":"４５弄","HOUSE_NO":"１０號四樓","E_COORD97":168936.51000000001,"N_COORD97":2546850.8199999998,"ADDRESS":"北成路１２８巷４５弄１０號四樓","OBJECTID":172627},"geometry":{"x":168936.50999999978,"y":2546850.8200000022}},{"attributes":{"ID":172629,"DIS_CODE":0,"TOWNNAME":"北區","LI":"成功里","LIN":"19鄰","STREET":"北成路","SECT":" ","MAREA":" ","LANE":"１２８巷","ALLEY":"４５弄","HOUSE_NO":"１２號七樓","E_COORD97":168931.23999999999,"N_COORD97":2546854.9100000001,"ADDRESS":"北成路１２８巷４５弄１２號七樓","OBJECTID":172628},"geometry":{"x":168931.24000000115,"y":2546854.9100000001}},{"attributes":{"ID":172630,"DIS_CODE":0,"TOWNNAME":"北區","LI":"成功里","LIN":"19鄰","STREET":"北成路","SECT":" ","MAREA":" ","LANE":"１２８巷","ALLEY":"４５弄","HOUSE_NO":"１２號九樓","E_COORD97":168931.23999999999,"N_COORD97":2546854.9100000001,"ADDRESS":"北成路１２８巷４５弄１２號九樓","OBJECTID":172629},"geometry":{"x":168931.24000000115,"y":2546854.9100000001}},{"attributes":{"ID":172631,"DIS_CODE":0,"TOWNNAME":"北區","LI":"成功里","LIN":"19鄰","STREET":"北成路","SECT":" ","MAREA":" ","LANE":"１２８巷","ALLEY":"４５弄","HOUSE_NO":"１２號二樓","E_COORD97":168931.23999999999,"N_COORD97":2546854.9100000001,"ADDRESS":"北成路１２８巷４５弄１２號二樓","OBJECTID":172630},"geometry":{"x":168931.24000000115,"y":2546854.9100000001}},{"attributes":{"ID":172632,"DIS_CODE":0,"TOWNNAME":"北區","LI":"成功里","LIN":"19鄰","STREET":"北成路","SECT":" ","MAREA":" ","LANE":"１２８巷","ALLEY":"４５弄","HOUSE_NO":"１２號八樓","E_COORD97":168931.23999999999,"N_COORD97":2546854.9100000001,"ADDRESS":"北成路１２８巷４５弄１２號八樓","OBJECTID":172631},"geometry":{"x":168931.24000000115,"y":2546854.9100000001}},{"attributes":{"ID":172633,"DIS_CODE":0,"TOWNNAME":"新化區","LI":"太平里","LIN":"17鄰","STREET":"太平街","SECT":" ","MAREA":" ","LANE":" ","ALLEY":" ","HOUSE_NO":"８９號之１６","E_COORD97":178661.47,"N_COORD97":2548686.2599999998,"ADDRESS":"太平街８９號之１６","OBJECTID":172632},"geometry":{"x":178661.47000000067,"y":2548686.2599999998}},{"attributes":{"ID":172634,"DIS_CODE":0,"TOWNNAME":"北區","LI":"成功里","LIN":"19鄰","STREET":"北成路","SECT":" ","MAREA":" ","LANE":"１２８巷","ALLEY":"４５弄","HOUSE_NO":"１２號三樓","E_COORD97":168931.23999999999,"N_COORD97":2546854.9100000001,"ADDRESS":"北成路１２８巷４５弄１２號三樓","OBJECTID":172633},"geometry":{"x":168931.24000000115,"y":2546854.9100000001}},{"attributes":{"ID":172635,"DIS_CODE":0,"TOWNNAME":"北區","LI":"成功里","LIN":"19鄰","STREET":"北成路","SECT":" ","MAREA":" ","LANE":"１２８巷","ALLEY":"４５弄","HOUSE_NO":"１２號五樓","E_COORD97":168931.23999999999,"N_COORD97":2546854.9100000001,"ADDRESS":"北成路１２８巷４５弄１２號五樓","OBJECTID":172634},"geometry":{"x":168931.24000000115,"y":2546854.9100000001}},{"attributes":{"ID":172636,"DIS_CODE":0,"TOWNNAME":"安平區","LI":"平安里","LIN":"13鄰","STREET":"安平路","SECT":" ","MAREA":" ","LANE":"５５０巷","ALLEY":"１７弄","HOUSE_NO":"４號三樓","E_COORD97":164992.98999999999,"N_COORD97":2544437.4900000002,"ADDRESS":"安平路５５０巷１７弄４號三樓","OBJECTID":172635},"geometry":{"x":164992.99000000115,"y":2544437.4900000002}},{"attributes":{"ID":172637,"DIS_CODE":0,"TOWNNAME":"白河區","LI":"白河里","LIN":"12鄰","STREET":"新富街","SECT":" ","MAREA":" ","LANE":" ","ALLEY":" ","HOUSE_NO":"１５號","E_COORD97":190280.70999999999,"N_COORD97":2583151.2000000002,"ADDRESS":"新富街１５號","OBJECTID":172636},"geometry":{"x":190280.70999999996,"y":2583151.2000000011}},{"attributes":{"ID":172638,"DIS_CODE":0,"TOWNNAME":"安平區","LI":"平安里","LIN":"13鄰","STREET":"安平路","SECT":" ","MAREA":" ","LANE":"５５０巷","ALLEY":"１７弄","HOUSE_NO":"４號四樓","E_COORD97":164992.98999999999,"N_COORD97":2544437.4900000002,"ADDRESS":"安平路５５０巷１７弄４號四樓","OBJECTID":172637},"geometry":{"x":164992.99000000115,"y":2544437.4900000002}},{"attributes":{"ID":172639,"DIS_CODE":0,"TOWNNAME":"東區","LI":"泉南里","LIN":"12鄰","STREET":"光華街","SECT":" ","MAREA":" ","LANE":" ","ALLEY":" ","HOUSE_NO":"２１３號","E_COORD97":169566.51000000001,"N_COORD97":2543014.5600000001,"ADDRESS":"光華街２１３號","OBJECTID":172638},"geometry":{"x":169566.51000000071,"y":2543014.5600000024}},{"attributes":{"ID":172640,"DIS_CODE":0,"TOWNNAME":"東區","LI":"泉南里","LIN":"12鄰","STREET":"光華街","SECT":" ","MAREA":" ","LANE":" ","ALLEY":" ","HOUSE_NO":"２１５號","E_COORD97":169560.34,"N_COORD97":2543015.9500000002,"ADDRESS":"光華街２１５號","OBJECTID":172639},"geometry":{"x":169560.34000000171,"y":2543015.9499999993}},{"attributes":{"ID":172641,"DIS_CODE":0,"TOWNNAME":"東區","LI":"泉南里","LIN":"12鄰","STREET":"光華街","SECT":" ","MAREA":" ","LANE":" ","ALLEY":" ","HOUSE_NO":"２１７號","E_COORD97":169555.70999999999,"N_COORD97":2543018.2599999998,"ADDRESS":"光華街２１７號","OBJECTID":172640},"geometry":{"x":169555.70999999996,"y":2543018.2599999998}},{"attributes":{"ID":172642,"DIS_CODE":0,"TOWNNAME":"新營區","LI":"南紙里","LIN":"24鄰","STREET":"南紙街","SECT":" ","MAREA":" ","LANE":"１１７巷","ALLEY":"４０弄","HOUSE_NO":"１號六樓之９","E_COORD97":177950,"N_COORD97":2577430.8599999999,"ADDRESS":"南紙街１１７巷４０弄１號六樓之９","OBJECTID":172641},"geometry":{"x":177950,"y":2577430.8600000013}},{"attributes":{"ID":172643,"DIS_CODE":0,"TOWNNAME":"新營區","LI":"南紙里","LIN":"24鄰","STREET":"南紙街","SECT":" ","MAREA":" ","LANE":"１１７巷","ALLEY":"４０弄","HOUSE_NO":"１號七樓之１７","E_COORD97":177951.23999999999,"N_COORD97":2577430.8599999999,"ADDRESS":"南紙街１１７巷４０弄１號七樓之１７","OBJECTID":172642},"geometry":{"x":177951.24000000115,"y":2577430.8600000013}},{"attributes":{"ID":172644,"DIS_CODE":0,"TOWNNAME":"永康區","LI":"正強里","LIN":"20鄰","STREET":"中山南路","SECT":" ","MAREA":" ","LANE":"４７１巷","ALLEY":"１５弄","HOUSE_NO":"９號","E_COORD97":173122.34,"N_COORD97":2547234.5,"ADDRESS":"中山南路４７１巷１５弄９號","OBJECTID":172643},"geometry":{"x":173122.34000000078,"y":2547234.5}},{"attributes":{"ID":172645,"DIS_CODE":0,"TOWNNAME":"永康區","LI":"北灣里","LIN":"38鄰","STREET":"大灣路","SECT":" ","MAREA":" ","LANE":"４０巷","ALLEY":"１８１弄","HOUSE_NO":"８號","E_COORD97":174839.88,"N_COORD97":2546276.6600000001,"ADDRESS":"大灣路４０巷１８１弄８號","OBJECTID":172644},"geometry":{"x":174839.87999999989,"y":2546276.6600000001}},{"attributes":{"ID":172646,"DIS_CODE":0,"TOWNNAME":"永康區","LI":"北灣里","LIN":"38鄰","STREET":"大灣路","SECT":" ","MAREA":" ","LANE":"４０巷","ALLEY":"２０９弄","HOUSE_NO":"２６號","E_COORD97":174751.92000000001,"N_COORD97":2546310.9399999999,"ADDRESS":"大灣路４０巷２０９弄２６號","OBJECTID":172645},"geometry":{"x":174751.91999999993,"y":2546310.9399999995}},{"attributes":{"ID":172647,"DIS_CODE":0,"TOWNNAME":"永康區","LI":"正強里","LIN":"20鄰","STREET":"中山南路","SECT":" ","MAREA":" ","LANE":"４７１巷","ALLEY":"２７弄","HOUSE_NO":"１號","E_COORD97":173139.48999999999,"N_COORD97":2547177.4199999999,"ADDRESS":"中山南路４７１巷２７弄１號","OBJECTID":172646},"geometry":{"x":173139.49000000022,"y":2547177.4199999999}},{"attributes":{"ID":172648,"DIS_CODE":0,"TOWNNAME":"永康區","LI":"北灣里","LIN":"24鄰","STREET":"大灣路","SECT":" ","MAREA":" ","LANE":"３７巷","ALLEY":"２０弄","HOUSE_NO":"１０號","E_COORD97":175384.73999999999,"N_COORD97":2545825,"ADDRESS":"大灣路３７巷２０弄１０號","OBJECTID":172647},"geometry":{"x":175384.74000000115,"y":2545825.0000000019}},{"attributes":{"ID":172649,"DIS_CODE":0,"TOWNNAME":"永康區","LI":"正強里","LIN":"26鄰","STREET":"中正路","SECT":" ","MAREA":" ","LANE":"１５５巷","ALLEY":"１９弄","HOUSE_NO":"４號","E_COORD97":173244,"N_COORD97":2547784.3399999999,"ADDRESS":"中正路１５５巷１９弄４號","OBJECTID":172648},"geometry":{"x":173244,"y":2547784.3399999999}},{"attributes":{"ID":172650,"DIS_CODE":0,"TOWNNAME":"善化區","LI":"文正里","LIN":"12鄰","STREET":"文正路","SECT":" ","MAREA":" ","LANE":" ","ALLEY":" ","HOUSE_NO":"１１號","E_COORD97":176868.17038299999,"N_COORD97":2559227.1405199999,"ADDRESS":"文正路１１號","OBJECTID":172649},"geometry":{"x":176868.17038300075,"y":2559227.1405190006}},{"attributes":{"ID":172651,"DIS_CODE":0,"TOWNNAME":"永康區","LI":"正強里","LIN":"25鄰","STREET":"中正路","SECT":" ","MAREA":" ","LANE":"１２７巷","ALLEY":"８弄","HOUSE_NO":"１７號","E_COORD97":173317.60999999999,"N_COORD97":2547820.4900000002,"ADDRESS":"中正路１２７巷８弄１７號","OBJECTID":172650},"geometry":{"x":173317.61000000127,"y":2547820.4900000002}},{"attributes":{"ID":172652,"DIS_CODE":0,"TOWNNAME":"永康區","LI":"北灣里","LIN":"38鄰","STREET":"大灣路","SECT":" ","MAREA":" ","LANE":"４０巷","ALLEY":"１８１弄","HOUSE_NO":"３８號","E_COORD97":174796.82000000001,"N_COORD97":2546228.96,"ADDRESS":"大灣路４０巷１８１弄３８號","OBJECTID":172651},"geometry":{"x":174796.8200000003,"y":2546228.959999999}},{"attributes":{"ID":172653,"DIS_CODE":0,"TOWNNAME":"永康區","LI":"正強里","LIN":"26鄰","STREET":"中正路","SECT":" ","MAREA":" ","LANE":"１５５巷","ALLEY":"２１弄","HOUSE_NO":"７號","E_COORD97":173258.04000000001,"N_COORD97":2547760.6499999999,"ADDRESS":"中正路１５５巷２１弄７號","OBJECTID":172652},"geometry":{"x":173258.0400000019,"y":2547760.6500000022}},{"attributes":{"ID":172654,"DIS_CODE":0,"TOWNNAME":"永康區","LI":"正強里","LIN":"20鄰","STREET":"中山南路","SECT":" ","MAREA":" ","LANE":"４７１巷","ALLEY":"３９弄","HOUSE_NO":"１號","E_COORD97":173165.48000000001,"N_COORD97":2547182.98,"ADDRESS":"中山南路４７１巷３９弄１號","OBJECTID":172653},"geometry":{"x":173165.47999999952,"y":2547182.9800000023}},{"attributes":{"ID":172655,"DIS_CODE":0,"TOWNNAME":"永康區","LI":"正強里","LIN":"20鄰","STREET":"中山南路","SECT":" ","MAREA":" ","LANE":"４７１巷","ALLEY":"１５弄","HOUSE_NO":"５號","E_COORD97":173117.98999999999,"N_COORD97":2547203.0899999999,"ADDRESS":"中山南路４７１巷１５弄５號","OBJECTID":172654},"geometry":{"x":173117.99000000115,"y":2547203.0899999999}},{"attributes":{"ID":172656,"DIS_CODE":0,"TOWNNAME":"官田區","LI":"拔林里","LIN":"12鄰","STREET":" ","SECT":" ","MAREA":"拔子林","LANE":" ","ALLEY":" ","HOUSE_NO":"８４號之８","E_COORD97":180325.54999999999,"N_COORD97":2563844.2799999998,"ADDRESS":"拔子林８４號之８","OBJECTID":172655},"geometry":{"x":180325.55000000075,"y":2563844.2799999993}},{"attributes":{"ID":172657,"DIS_CODE":0,"TOWNNAME":"東區","LI":"泉南里","LIN":"12鄰","STREET":"光華街","SECT":" ","MAREA":" ","LANE":" ","ALLEY":" ","HOUSE_NO":"２１９號之５","E_COORD97":169531.51000000001,"N_COORD97":2543025.3500000001,"ADDRESS":"光華街２１９號之５","OBJECTID":172656},"geometry":{"x":169531.50999999978,"y":2543025.3500000015}},{"attributes":{"ID":172658,"DIS_CODE":0,"TOWNNAME":"永康區","LI":"西勢里","LIN":"12鄰","STREET":"廣盛街","SECT":" ","MAREA":" ","LANE":" ","ALLEY":" ","HOUSE_NO":"１７６號","E_COORD97":176086.16,"N_COORD97":2546706.75,"ADDRESS":"廣盛街１７６號","OBJECTID":172657},"geometry":{"x":176086.16000000015,"y":2546706.75}},{"attributes":{"ID":172659,"DIS_CODE":0,"TOWNNAME":"新化區","LI":"東榮里","LIN":"19鄰","STREET":"民生路","SECT":" ","MAREA":" ","LANE":" ","ALLEY":" ","HOUSE_NO":"２４號","E_COORD97":179453.45999999999,"N_COORD97":2548113.2400000002,"ADDRESS":"民生路２４號","OBJECTID":172658},"geometry":{"x":179453.46000000089,"y":2548113.2400000021}},{"attributes":{"ID":172660,"DIS_CODE":0,"TOWNNAME":"永康區","LI":"北灣里","LIN":"26鄰","STREET":"文賢街","SECT":" ","MAREA":" ","LANE":"７８巷","ALLEY":"１９弄","HOUSE_NO":"９號","E_COORD97":175415.45999999999,"N_COORD97":2545348.8199999998,"ADDRESS":"文賢街７８巷１９弄９號","OBJECTID":172659},"geometry":{"x":175415.46000000089,"y":2545348.8200000022}},{"attributes":{"ID":172661,"DIS_CODE":0,"TOWNNAME":"永康區","LI":"北灣里","LIN":"39鄰","STREET":"大同街","SECT":" ","MAREA":" ","LANE":"４２５巷","ALLEY":"１弄","HOUSE_NO":"７號","E_COORD97":174600.26000000001,"N_COORD97":2546301.25,"ADDRESS":"大同街４２５巷１弄７號","OBJECTID":172660},"geometry":{"x":174600.25999999978,"y":2546301.2500000019}},{"attributes":{"ID":172662,"DIS_CODE":0,"TOWNNAME":"永康區","LI":"正強里","LIN":"20鄰","STREET":"中山南路","SECT":" ","MAREA":" ","LANE":"４７１巷","ALLEY":"３９弄","HOUSE_NO":"３號","E_COORD97":173164.07000000001,"N_COORD97":2547189.48,"ADDRESS":"中山南路４７１巷３９弄３號","OBJECTID":172661},"geometry":{"x":173164.0700000003,"y":2547189.4800000023}},{"attributes":{"ID":172663,"DIS_CODE":0,"TOWNNAME":"永康區","LI":"正強里","LIN":"26鄰","STREET":"中正路","SECT":" ","MAREA":" ","LANE":"１５５巷","ALLEY":"２１弄","HOUSE_NO":"１號","E_COORD97":173242.29999999999,"N_COORD97":2547759.1499999999,"ADDRESS":"中正路１５５巷２１弄１號","OBJECTID":172662},"geometry":{"x":173242.29999999888,"y":2547759.1500000004}},{"attributes":{"ID":172664,"DIS_CODE":0,"TOWNNAME":"永康區","LI":"北灣里","LIN":"39鄰","STREET":"大同街","SECT":" ","MAREA":" ","LANE":"４２５巷","ALLEY":"１弄","HOUSE_NO":"３號","E_COORD97":174597.76999999999,"N_COORD97":2546310.3500000001,"ADDRESS":"大同街４２５巷１弄３號","OBJECTID":172663},"geometry":{"x":174597.76999999955,"y":2546310.3500000015}},{"attributes":{"ID":172665,"DIS_CODE":0,"TOWNNAME":"永康區","LI":"正強里","LIN":"26鄰","STREET":"中正路","SECT":" ","MAREA":" ","LANE":"１５５巷","ALLEY":"１９弄","HOUSE_NO":"９號","E_COORD97":173256.28,"N_COORD97":2547800.6400000001,"ADDRESS":"中正路１５５巷１９弄９號","OBJECTID":172664},"geometry":{"x":173256.28000000026,"y":2547800.6399999987}},{"attributes":{"ID":172666,"DIS_CODE":0,"TOWNNAME":"永康區","LI":"正強里","LIN":"25鄰","STREET":"中正路","SECT":" ","MAREA":" ","LANE":"１２７巷","ALLEY":"８弄","HOUSE_NO":"１４號","E_COORD97":173327.07000000001,"N_COORD97":2547838.8199999998,"ADDRESS":"中正路１２７巷８弄１４號","OBJECTID":172665},"geometry":{"x":173327.0700000003,"y":2547838.8200000003}},{"attributes":{"ID":172667,"DIS_CODE":0,"TOWNNAME":"安南區","LI":"總頭里","LIN":"1鄰","STREET":"長溪路","SECT":"二段","MAREA":" ","LANE":"４１０巷","ALLEY":"１弄","HOUSE_NO":"４１號","E_COORD97":168380.31,"N_COORD97":2550303.3900000001,"ADDRESS":"長溪路二段４１０巷１弄４１號","OBJECTID":172666},"geometry":{"x":168380.31000000145,"y":2550303.3900000006}},{"attributes":{"ID":172668,"DIS_CODE":0,"TOWNNAME":"安南區","LI":"總頭里","LIN":"6鄰","STREET":"長溪路","SECT":"二段","MAREA":" ","LANE":"５７０巷","ALLEY":"２３弄","HOUSE_NO":"１０號","E_COORD97":168336.63,"N_COORD97":2550674.4100000001,"ADDRESS":"長溪路二段５７０巷２３弄１０號","OBJECTID":172667},"geometry":{"x":168336.63000000082,"y":2550674.410000002}},{"attributes":{"ID":172669,"DIS_CODE":0,"TOWNNAME":"安南區","LI":"總頭里","LIN":"6鄰","STREET":"長溪路","SECT":"二段","MAREA":" ","LANE":"５７０巷","ALLEY":"２３弄","HOUSE_NO":"１１號","E_COORD97":168303.17999999999,"N_COORD97":2550636.9399999999,"ADDRESS":"長溪路二段５７０巷２３弄１１號","OBJECTID":172668},"geometry":{"x":168303.17999999877,"y":2550636.9400000013}},{"attributes":{"ID":172670,"DIS_CODE":0,"TOWNNAME":"安南區","LI":"總頭里","LIN":"6鄰","STREET":"長溪路","SECT":"二段","MAREA":" ","LANE":"５７０巷","ALLEY":"２３弄","HOUSE_NO":"１３號","E_COORD97":168301.82000000001,"N_COORD97":2550648.23,"ADDRESS":"長溪路二段５７０巷２３弄１３號","OBJECTID":172669},"geometry":{"x":168301.82000000123,"y":2550648.2300000042}},{"attributes":{"ID":172671,"DIS_CODE":0,"TOWNNAME":"東區","LI":"崇成里","LIN":"15鄰","STREET":"崇明路","SECT":" ","MAREA":" ","LANE":" ","ALLEY":" ","HOUSE_NO":"５６１號","E_COORD97":170620.06,"N_COORD97":2541277.9399999999,"ADDRESS":"崇明路５６１號","OBJECTID":172670},"geometry":{"x":170620.06000000052,"y":2541277.9400000032}},{"attributes":{"ID":172672,"DIS_CODE":0,"TOWNNAME":"安南區","LI":"總頭里","LIN":"6鄰","STREET":"長溪路","SECT":"二段","MAREA":" ","LANE":"５７０巷","ALLEY":"２３弄","HOUSE_NO":"２２號","E_COORD97":168313.98000000001,"N_COORD97":2550695.5,"ADDRESS":"長溪路二段５７０巷２３弄２２號","OBJECTID":172671},"geometry":{"x":168313.98000000231,"y":2550695.5}},{"attributes":{"ID":172673,"DIS_CODE":0,"TOWNNAME":"安南區","LI":"總頭里","LIN":"6鄰","STREET":"長溪路","SECT":"二段","MAREA":" ","LANE":"５７０巷","ALLEY":"２３弄","HOUSE_NO":"２５號","E_COORD97":168287.79999999999,"N_COORD97":2550689.75,"ADDRESS":"長溪路二段５７０巷２３弄２５號","OBJECTID":172672},"geometry":{"x":168287.80000000075,"y":2550689.75}},{"attributes":{"ID":172674,"DIS_CODE":0,"TOWNNAME":"安南區","LI":"總頭里","LIN":"6鄰","STREET":"長溪路","SECT":"二段","MAREA":" ","LANE":"５７０巷","ALLEY":"３１弄","HOUSE_NO":"１１號","E_COORD97":168355.07000000001,"N_COORD97":2550639.3199999998,"ADDRESS":"長溪路二段５７０巷３１弄１１號","OBJECTID":172673},"geometry":{"x":168355.0700000003,"y":2550639.3200000003}},{"attributes":{"ID":172675,"DIS_CODE":0,"TOWNNAME":"安南區","LI":"總頭里","LIN":"6鄰","STREET":"長溪路","SECT":"二段","MAREA":" ","LANE":"５７０巷","ALLEY":"３１弄","HOUSE_NO":"１３號","E_COORD97":168364.95000000001,"N_COORD97":2550650.1299999999,"ADDRESS":"長溪路二段５７０巷３１弄１３號","OBJECTID":172674},"geometry":{"x":168364.95000000112,"y":2550650.129999999}},{"attributes":{"ID":172676,"DIS_CODE":0,"TOWNNAME":"安南區","LI":"總頭里","LIN":"6鄰","STREET":"長溪路","SECT":"二段","MAREA":" ","LANE":"５７０巷","ALLEY":"３１弄","HOUSE_NO":"１７號","E_COORD97":168376.41,"N_COORD97":2550656.4900000002,"ADDRESS":"長溪路二段５７０巷３１弄１７號","OBJECTID":172675},"geometry":{"x":168376.41000000015,"y":2550656.4900000021}},{"attributes":{"ID":172677,"DIS_CODE":0,"TOWNNAME":"安南區","LI":"長安里","LIN":"4鄰","STREET":"長溪路","SECT":"三段","MAREA":" ","LANE":"４０５巷","ALLEY":"４０弄","HOUSE_NO":"１０１號","E_COORD97":167399.29999999999,"N_COORD97":2551926.52,"ADDRESS":"長溪路三段４０５巷４０弄１０１號","OBJECTID":172676},"geometry":{"x":167399.30000000075,"y":2551926.5200000033}},{"attributes":{"ID":172678,"DIS_CODE":0,"TOWNNAME":"安南區","LI":"長安里","LIN":"4鄰","STREET":"長溪路","SECT":"三段","MAREA":" ","LANE":"４０５巷","ALLEY":"４０弄","HOUSE_NO":"９５號","E_COORD97":167399.42999999999,"N_COORD97":2551948,"ADDRESS":"長溪路三段４０５巷４０弄９５號","OBJECTID":172677},"geometry":{"x":167399.4299999997,"y":2551948.0000000019}},{"attributes":{"ID":172679,"DIS_CODE":0,"TOWNNAME":"安南區","LI":"長安里","LIN":"4鄰","STREET":"長溪路","SECT":"三段","MAREA":" ","LANE":"４０５巷","ALLEY":"４０弄","HOUSE_NO":"９７號","E_COORD97":167389.95999999999,"N_COORD97":2551938.73,"ADDRESS":"長溪路三段４０５巷４０弄９７號","OBJECTID":172678},"geometry":{"x":167389.96000000089,"y":2551938.7300000004}},{"attributes":{"ID":172680,"DIS_CODE":0,"TOWNNAME":"安南區","LI":"長安里","LIN":"4鄰","STREET":"長溪路","SECT":"三段","MAREA":" ","LANE":"４０５巷","ALLEY":"４０弄","HOUSE_NO":"９９號","E_COORD97":167393.84,"N_COORD97":2551935.6899999999,"ADDRESS":"長溪路三段４０５巷４０弄９９號","OBJECTID":172679},"geometry":{"x":167393.84000000171,"y":2551935.6900000032}},{"attributes":{"ID":172681,"DIS_CODE":0,"TOWNNAME":"安南區","LI":"長安里","LIN":"7鄰","STREET":"長溪路","SECT":"三段","MAREA":" ","LANE":"４０５巷","ALLEY":"４０弄","HOUSE_NO":"１１號","E_COORD97":167529,"N_COORD97":2552030.8399999999,"ADDRESS":"長溪路三段４０５巷４０弄１１號","OBJECTID":172680},"geometry":{"x":167529.00000000093,"y":2552030.8400000017}},{"attributes":{"ID":172682,"DIS_CODE":0,"TOWNNAME":"安南區","LI":"長安里","LIN":"7鄰","STREET":"長溪路","SECT":"三段","MAREA":" ","LANE":"４０５巷","ALLEY":"４０弄","HOUSE_NO":"１３號","E_COORD97":167526.45999999999,"N_COORD97":2552034.6499999999,"ADDRESS":"長溪路三段４０５巷４０弄１３號","OBJECTID":172681},"geometry":{"x":167526.45999999996,"y":2552034.6500000004}},{"attributes":{"ID":172683,"DIS_CODE":0,"TOWNNAME":"安南區","LI":"長安里","LIN":"7鄰","STREET":"長溪路","SECT":"三段","MAREA":" ","LANE":"４０５巷","ALLEY":"４０弄","HOUSE_NO":"１５號","E_COORD97":167523.32999999999,"N_COORD97":2552038.0099999998,"ADDRESS":"長溪路三段４０５巷４０弄１５號","OBJECTID":172682},"geometry":{"x":167523.33000000101,"y":2552038.0099999998}},{"attributes":{"ID":172684,"DIS_CODE":0,"TOWNNAME":"安南區","LI":"總頭里","LIN":"7鄰","STREET":"長溪路","SECT":"二段","MAREA":" ","LANE":"５９８巷","ALLEY":"８９弄","HOUSE_NO":"５７號","E_COORD97":168296.32999999999,"N_COORD97":2550844.8999999999,"ADDRESS":"長溪路二段５９８巷８９弄５７號","OBJECTID":172683},"geometry":{"x":168296.33000000101,"y":2550844.9000000022}},{"attributes":{"ID":172685,"DIS_CODE":0,"TOWNNAME":"新化區","LI":"豐榮里","LIN":"12鄰","STREET":"正新路","SECT":" ","MAREA":" ","LANE":" ","ALLEY":" ","HOUSE_NO":"１５１號","E_COORD97":178533.01999999999,"N_COORD97":2548178.25,"ADDRESS":"正新路１５１號","OBJECTID":172684},"geometry":{"x":178533.02000000142,"y":2548178.25}},{"attributes":{"ID":172686,"DIS_CODE":0,"TOWNNAME":"安南區","LI":"總頭里","LIN":"7鄰","STREET":"長溪路","SECT":"二段","MAREA":" ","LANE":"５９８巷","ALLEY":"８９弄","HOUSE_NO":"２６號","E_COORD97":168361.54000000001,"N_COORD97":2550905.3999999999,"ADDRESS":"長溪路二段５９８巷８９弄２６號","OBJECTID":172685},"geometry":{"x":168361.54000000004,"y":2550905.4000000022}},{"attributes":{"ID":172687,"DIS_CODE":0,"TOWNNAME":"安南區","LI":"總頭里","LIN":"7鄰","STREET":"長溪路","SECT":"二段","MAREA":" ","LANE":"５７０巷","ALLEY":"３１弄","HOUSE_NO":"４８號","E_COORD97":168384.89999999999,"N_COORD97":2550732.9700000002,"ADDRESS":"長溪路二段５７０巷３１弄４８號","OBJECTID":172686},"geometry":{"x":168384.90000000037,"y":2550732.9700000025}},{"attributes":{"ID":172688,"DIS_CODE":0,"TOWNNAME":"安南區","LI":"安慶里","LIN":"26鄰","STREET":"長溪路","SECT":"一段","MAREA":" ","LANE":"１５９巷","ALLEY":"２７弄","HOUSE_NO":"３０號","E_COORD97":168954.29999999999,"N_COORD97":2548459.2200000002,"ADDRESS":"長溪路一段１５９巷２７弄３０號","OBJECTID":172687},"geometry":{"x":168954.30000000075,"y":2548459.2200000025}},{"attributes":{"ID":172689,"DIS_CODE":0,"TOWNNAME":"安南區","LI":"溪心里","LIN":"7鄰","STREET":"本原街","SECT":"二段","MAREA":" ","LANE":"１３２巷","ALLEY":"３弄","HOUSE_NO":"９號","E_COORD97":166693.42000000001,"N_COORD97":2550787.5699999998,"ADDRESS":"本原街二段１３２巷３弄９號","OBJECTID":172688},"geometry":{"x":166693.42000000086,"y":2550787.5700000003}},{"attributes":{"ID":172690,"DIS_CODE":0,"TOWNNAME":"安南區","LI":"溪心里","LIN":"7鄰","STREET":"本原街","SECT":"二段","MAREA":" ","LANE":"１３２巷","ALLEY":"３弄","HOUSE_NO":"１１號","E_COORD97":166687.54000000001,"N_COORD97":2550786.71,"ADDRESS":"本原街二段１３２巷３弄１１號","OBJECTID":172689},"geometry":{"x":166687.54000000097,"y":2550786.7100000009}},{"attributes":{"ID":172691,"DIS_CODE":0,"TOWNNAME":"安南區","LI":"溪心里","LIN":"7鄰","STREET":"本原街","SECT":"二段","MAREA":" ","LANE":"１３２巷","ALLEY":"３弄","HOUSE_NO":"１３號","E_COORD97":166684.10000000001,"N_COORD97":2550789.7200000002,"ADDRESS":"本原街二段１３２巷３弄１３號","OBJECTID":172690},"geometry":{"x":166684.09999999963,"y":2550789.7200000007}},{"attributes":{"ID":172692,"DIS_CODE":0,"TOWNNAME":"安南區","LI":"溪心里","LIN":"7鄰","STREET":"本原街","SECT":"二段","MAREA":" ","LANE":"１３２巷","ALLEY":"３弄","HOUSE_NO":"１５號","E_COORD97":166678.5,"N_COORD97":2550789.7200000002,"ADDRESS":"本原街二段１３２巷３弄１５號","OBJECTID":172691},"geometry":{"x":166678.5,"y":2550789.7200000007}},{"attributes":{"ID":172693,"DIS_CODE":0,"TOWNNAME":"安南區","LI":"溪心里","LIN":"7鄰","STREET":"本原街","SECT":"二段","MAREA":" ","LANE":"１３２巷","ALLEY":"３弄","HOUSE_NO":"１７號","E_COORD97":166673.19,"N_COORD97":2550790,"ADDRESS":"本原街二段１３２巷３弄１７號","OBJECTID":172692},"geometry":{"x":166673.19000000227,"y":2550790}},{"attributes":{"ID":172694,"DIS_CODE":0,"TOWNNAME":"安南區","LI":"溪心里","LIN":"7鄰","STREET":"本原街","SECT":"二段","MAREA":" ","LANE":"１３２巷","ALLEY":"３弄","HOUSE_NO":"１號","E_COORD97":166710.35000000001,"N_COORD97":2550779.54,"ADDRESS":"本原街二段１３２巷３弄１號","OBJECTID":172693},"geometry":{"x":166710.35000000149,"y":2550779.5399999991}},{"attributes":{"ID":172695,"DIS_CODE":0,"TOWNNAME":"安南區","LI":"溪心里","LIN":"7鄰","STREET":"本原街","SECT":"二段","MAREA":" ","LANE":"１３２巷","ALLEY":"３弄","HOUSE_NO":"２１號","E_COORD97":166664.01000000001,"N_COORD97":2550793.5899999999,"ADDRESS":"本原街二段１３２巷３弄２１號","OBJECTID":172694},"geometry":{"x":166664.01000000071,"y":2550793.5899999999}},{"attributes":{"ID":172696,"DIS_CODE":0,"TOWNNAME":"安南區","LI":"溪心里","LIN":"7鄰","STREET":"本原街","SECT":"二段","MAREA":" ","LANE":"１３２巷","ALLEY":"３弄","HOUSE_NO":"２３號","E_COORD97":166662,"N_COORD97":2550802.1899999999,"ADDRESS":"本原街二段１３２巷３弄２３號","OBJECTID":172695},"geometry":{"x":166662,"y":2550802.1899999995}},{"attributes":{"ID":172697,"DIS_CODE":0,"TOWNNAME":"安南區","LI":"溪心里","LIN":"7鄰","STREET":"本原街","SECT":"二段","MAREA":" ","LANE":"１３２巷","ALLEY":"３弄","HOUSE_NO":"３號","E_COORD97":166706.04999999999,"N_COORD97":2550781.8300000001,"ADDRESS":"本原街二段１３２巷３弄３號","OBJECTID":172696},"geometry":{"x":166706.05000000075,"y":2550781.8300000001}},{"attributes":{"ID":172698,"DIS_CODE":0,"TOWNNAME":"安南區","LI":"溪心里","LIN":"7鄰","STREET":"本原街","SECT":"二段","MAREA":" ","LANE":"１３２巷","ALLEY":"３弄","HOUSE_NO":"５號","E_COORD97":166701.45999999999,"N_COORD97":2550783.7000000002,"ADDRESS":"本原街二段１３２巷３弄５號","OBJECTID":172697},"geometry":{"x":166701.46000000183,"y":2550783.7000000011}},{"attributes":{"ID":172699,"DIS_CODE":0,"TOWNNAME":"安南區","LI":"溪心里","LIN":"7鄰","STREET":"本原街","SECT":"二段","MAREA":" ","LANE":"１３２巷","ALLEY":"３弄","HOUSE_NO":"１９號","E_COORD97":166668.89000000001,"N_COORD97":2550793.73,"ADDRESS":"本原街二段１３２巷３弄１９號","OBJECTID":172698},"geometry":{"x":166668.88999999966,"y":2550793.7300000042}},{"attributes":{"ID":172700,"DIS_CODE":0,"TOWNNAME":"楠西區","LI":"鹿田里","LIN":"11鄰","STREET":" ","SECT":" ","MAREA":"油車","LANE":" ","ALLEY":" ","HOUSE_NO":"５９號","E_COORD97":197793.23999999999,"N_COORD97":2562627.25,"ADDRESS":"油車５９號","OBJECTID":172699},"geometry":{"x":197793.24000000115,"y":2562627.2500000019}},{"attributes":{"ID":172701,"DIS_CODE":0,"TOWNNAME":"安南區","LI":"溪心里","LIN":"7鄰","STREET":"本原街","SECT":"二段","MAREA":" ","LANE":"１３２巷","ALLEY":"３弄","HOUSE_NO":"２號","E_COORD97":166696.91,"N_COORD97":2550807.5800000001,"ADDRESS":"本原街二段１３２巷３弄２號","OBJECTID":172700},"geometry":{"x":166696.91000000201,"y":2550807.5800000001}},{"attributes":{"ID":172702,"DIS_CODE":0,"TOWNNAME":"安南區","LI":"溪心里","LIN":"7鄰","STREET":"本原街","SECT":"二段","MAREA":" ","LANE":"１３２巷","ALLEY":"３弄","HOUSE_NO":"６號","E_COORD97":166671.94,"N_COORD97":2550815.5,"ADDRESS":"本原街二段１３２巷３弄６號","OBJECTID":172701},"geometry":{"x":166671.94000000134,"y":2550815.5000000019}},{"attributes":{"ID":172703,"DIS_CODE":0,"TOWNNAME":"安南區","LI":"溪心里","LIN":"7鄰","STREET":"本原街","SECT":"二段","MAREA":" ","LANE":"１３２巷","ALLEY":"３弄","HOUSE_NO":"７號","E_COORD97":166696.87,"N_COORD97":2550784.4100000001,"ADDRESS":"本原街二段１３２巷３弄７號","OBJECTID":172702},"geometry":{"x":166696.87000000011,"y":2550784.4100000001}},{"attributes":{"ID":172704,"DIS_CODE":0,"TOWNNAME":"安南區","LI":"溪心里","LIN":"7鄰","STREET":"本原街","SECT":"二段","MAREA":" ","LANE":"１３２巷","ALLEY":"３弄","HOUSE_NO":"８號","E_COORD97":166660.48000000001,"N_COORD97":2550818.73,"ADDRESS":"本原街二段１３２巷３弄８號","OBJECTID":172703},"geometry":{"x":166660.48000000045,"y":2550818.7300000023}},{"attributes":{"ID":172705,"DIS_CODE":0,"TOWNNAME":"安南區","LI":"安慶里","LIN":"3鄰","STREET":"長溪路","SECT":"一段","MAREA":" ","LANE":"１６８巷","ALLEY":"１５５弄","HOUSE_NO":"１號","E_COORD97":169041.35000000001,"N_COORD97":2548908.7599999998,"ADDRESS":"長溪路一段１６８巷１５５弄１號","OBJECTID":172704},"geometry":{"x":169041.35000000056,"y":2548908.7600000016}},{"attributes":{"ID":172706,"DIS_CODE":0,"TOWNNAME":"安南區","LI":"安慶里","LIN":"3鄰","STREET":"長溪路","SECT":"一段","MAREA":" ","LANE":"１６８巷","ALLEY":"１５５弄","HOUSE_NO":"２號","E_COORD97":169051.66,"N_COORD97":2548927.4500000002,"ADDRESS":"長溪路一段１６８巷１５５弄２號","OBJECTID":172705},"geometry":{"x":169051.66000000108,"y":2548927.4500000011}},{"attributes":{"ID":172707,"DIS_CODE":0,"TOWNNAME":"安南區","LI":"安慶里","LIN":"3鄰","STREET":"長溪路","SECT":"一段","MAREA":" ","LANE":"１６８巷","ALLEY":"１５５弄","HOUSE_NO":"３號","E_COORD97":169037.17000000001,"N_COORD97":2548908.21,"ADDRESS":"長溪路一段１６８巷１５５弄３號","OBJECTID":172706},"geometry":{"x":169037.16999999993,"y":2548908.2100000009}},{"attributes":{"ID":172708,"DIS_CODE":0,"TOWNNAME":"安南區","LI":"安慶里","LIN":"3鄰","STREET":"長溪路","SECT":"一段","MAREA":" ","LANE":"１６８巷","ALLEY":"１５５弄","HOUSE_NO":"５號","E_COORD97":169032.67000000001,"N_COORD97":2548908.4300000002,"ADDRESS":"長溪路一段１６８巷１５５弄５號","OBJECTID":172707},"geometry":{"x":169032.67000000179,"y":2548908.4299999997}},{"attributes":{"ID":172709,"DIS_CODE":0,"TOWNNAME":"安南區","LI":"安慶里","LIN":"3鄰","STREET":"長溪路","SECT":"一段","MAREA":" ","LANE":"１６８巷","ALLEY":"１５５弄","HOUSE_NO":"８號","E_COORD97":169036.26000000001,"N_COORD97":2548931.6200000001,"ADDRESS":"長溪路一段１６８巷１５５弄８號","OBJECTID":172708},"geometry":{"x":169036.25999999978,"y":2548931.6200000029}},{"attributes":{"ID":172710,"DIS_CODE":0,"TOWNNAME":"安南區","LI":"安慶里","LIN":"3鄰","STREET":"長溪路","SECT":"一段","MAREA":" ","LANE":"１６８巷","ALLEY":"１７５弄","HOUSE_NO":"１號","E_COORD97":169051.28,"N_COORD97":2548933.8500000001,"ADDRESS":"長溪路一段１６８巷１７５弄１號","OBJECTID":172709},"geometry":{"x":169051.28000000119,"y":2548933.8499999996}},{"attributes":{"ID":172711,"DIS_CODE":0,"TOWNNAME":"安南區","LI":"安慶里","LIN":"3鄰","STREET":"長溪路","SECT":"一段","MAREA":" ","LANE":"１６８巷","ALLEY":"１７５弄","HOUSE_NO":"３號","E_COORD97":169045.64000000001,"N_COORD97":2548932,"ADDRESS":"長溪路一段１６８巷１７５弄３號","OBJECTID":172710},"geometry":{"x":169045.63999999966,"y":2548932}},{"attributes":{"ID":172712,"DIS_CODE":0,"TOWNNAME":"安南區","LI":"安慶里","LIN":"3鄰","STREET":"長溪路","SECT":"一段","MAREA":" ","LANE":"１６８巷","ALLEY":"１７５弄","HOUSE_NO":"５號","E_COORD97":169041.23999999999,"N_COORD97":2548932.1099999999,"ADDRESS":"長溪路一段１６８巷１７５弄５號","OBJECTID":172711},"geometry":{"x":169041.24000000115,"y":2548932.1100000031}},{"attributes":{"ID":172713,"DIS_CODE":0,"TOWNNAME":"安南區","LI":"淵西里","LIN":"7鄰","STREET":"安中路","SECT":"四段","MAREA":" ","LANE":"３２０巷","ALLEY":"１２９弄","HOUSE_NO":"３０號之７","E_COORD97":164772.95999999999,"N_COORD97":2550465.8500000001,"ADDRESS":"安中路四段３２０巷１２９弄３０號之７","OBJECTID":172712},"geometry":{"x":164772.96000000089,"y":2550465.8499999996}},{"attributes":{"ID":172714,"DIS_CODE":0,"TOWNNAME":"永康區","LI":"西灣里","LIN":"12鄰","STREET":"大灣五街","SECT":" ","MAREA":" ","LANE":" ","ALLEY":" ","HOUSE_NO":"１５８號","E_COORD97":174514.23000000001,"N_COORD97":2545323.3900000001,"ADDRESS":"大灣五街１５８號","OBJECTID":172713},"geometry":{"x":174514.23000000045,"y":2545323.3900000006}},{"attributes":{"ID":172715,"DIS_CODE":0,"TOWNNAME":"永康區","LI":"西橋里","LIN":"12鄰","STREET":"中華西街","SECT":" ","MAREA":" ","LANE":" ","ALLEY":" ","HOUSE_NO":"１４５號","E_COORD97":170637.20999999999,"N_COORD97":2546236.5,"ADDRESS":"中華西街１４５號","OBJECTID":172714},"geometry":{"x":170637.20999999996,"y":2546236.5}},{"attributes":{"ID":172716,"DIS_CODE":0,"TOWNNAME":"安南區","LI":"\u25A0南里","LIN":"4鄰","STREET":"安昌街","SECT":" ","MAREA":" ","LANE":"２２２巷","ALLEY":"５４弄","HOUSE_NO":"６號","E_COORD97":170235.62,"N_COORD97":2552545.0099999998,"ADDRESS":"安昌街２２２巷５４弄６號","OBJECTID":172715},"geometry":{"x":170235.62000000104,"y":2552545.0100000016}},{"attributes":{"ID":172717,"DIS_CODE":0,"TOWNNAME":"安南區","LI":"佃東里","LIN":"4鄰","STREET":"公學路","SECT":"四段","MAREA":" ","LANE":"１２２巷","ALLEY":"９６弄","HOUSE_NO":"２號","E_COORD97":165614.38,"N_COORD97":2552297.7999999998,"ADDRESS":"公學路四段１２２巷９６弄２號","OBJECTID":172716},"geometry":{"x":165614.38000000082,"y":2552297.8000000007}},{"attributes":{"ID":172718,"DIS_CODE":0,"TOWNNAME":"安南區","LI":"佃東里","LIN":"4鄰","STREET":"公學路","SECT":"四段","MAREA":" ","LANE":"１２２巷","ALLEY":"９６弄","HOUSE_NO":"４號","E_COORD97":165622.69,"N_COORD97":2552297.3799999999,"ADDRESS":"公學路四段１２２巷９６弄４號","OBJECTID":172717},"geometry":{"x":165622.69000000134,"y":2552297.3800000008}},{"attributes":{"ID":172719,"DIS_CODE":0,"TOWNNAME":"安南區","LI":"佃東里","LIN":"4鄰","STREET":"公學路","SECT":"四段","MAREA":" ","LANE":"１２２巷","ALLEY":"９６弄","HOUSE_NO":"６號","E_COORD97":165634.39000000001,"N_COORD97":2552299.0699999998,"ADDRESS":"公學路四段１２２巷９６弄６號","OBJECTID":172718},"geometry":{"x":165634.3900000006,"y":2552299.0700000003}},{"attributes":{"ID":172720,"DIS_CODE":0,"TOWNNAME":"安南區","LI":"佃東里","LIN":"4鄰","STREET":"公學路","SECT":"四段","MAREA":" ","LANE":"１２２巷","ALLEY":"９６弄","HOUSE_NO":"８號","E_COORD97":165640.60999999999,"N_COORD97":2552301.1699999999,"ADDRESS":"公學路四段１２２巷９６弄８號","OBJECTID":172719},"geometry":{"x":165640.61000000034,"y":2552301.1699999999}},{"attributes":{"ID":172721,"DIS_CODE":0,"TOWNNAME":"安南區","LI":"長安里","LIN":"14鄰","STREET":"長溪路","SECT":"三段","MAREA":" ","LANE":"３８０巷","ALLEY":"１２５弄","HOUSE_NO":"２２號","E_COORD97":167979.32999999999,"N_COORD97":2552267.8700000001,"ADDRESS":"長溪路三段３８０巷１２５弄２２號","OBJECTID":172720},"geometry":{"x":167979.33000000101,"y":2552267.870000001}},{"attributes":{"ID":172722,"DIS_CODE":0,"TOWNNAME":"安南區","LI":"佃東里","LIN":"6鄰","STREET":"公學路","SECT":"四段","MAREA":" ","LANE":"１２２巷","ALLEY":"２７２弄","HOUSE_NO":"１０號","E_COORD97":165628.41,"N_COORD97":2552351.6400000001,"ADDRESS":"公學路四段１２２巷２７２弄１０號","OBJECTID":172721},"geometry":{"x":165628.41000000015,"y":2552351.6400000025}},{"attributes":{"ID":172723,"DIS_CODE":0,"TOWNNAME":"安南區","LI":"佃東里","LIN":"6鄰","STREET":"公學路","SECT":"四段","MAREA":" ","LANE":"１２２巷","ALLEY":"２７２弄","HOUSE_NO":"１２號","E_COORD97":165633.04000000001,"N_COORD97":2552349.0099999998,"ADDRESS":"公學路四段１２２巷２７２弄１２號","OBJECTID":172722},"geometry":{"x":165633.0400000019,"y":2552349.0100000016}},{"attributes":{"ID":172724,"DIS_CODE":0,"TOWNNAME":"安南區","LI":"佃東里","LIN":"6鄰","STREET":"公學路","SECT":"四段","MAREA":" ","LANE":"１２２巷","ALLEY":"２７２弄","HOUSE_NO":"１４號","E_COORD97":165637.17000000001,"N_COORD97":2552351.5600000001,"ADDRESS":"公學路四段１２２巷２７２弄１４號","OBJECTID":172723},"geometry":{"x":165637.17000000179,"y":2552351.5600000024}},{"attributes":{"ID":172725,"DIS_CODE":0,"TOWNNAME":"安南區","LI":"佃東里","LIN":"6鄰","STREET":"公學路","SECT":"四段","MAREA":" ","LANE":"１２２巷","ALLEY":"２７２弄","HOUSE_NO":"１６號","E_COORD97":165641.82999999999,"N_COORD97":2552349.46,"ADDRESS":"公學路四段１２２巷２７２弄１６號","OBJECTID":172724},"geometry":{"x":165641.83000000101,"y":2552349.4600000028}},{"attributes":{"ID":172726,"DIS_CODE":0,"TOWNNAME":"安南區","LI":"佃東里","LIN":"6鄰","STREET":"公學路","SECT":"四段","MAREA":" ","LANE":"１２２巷","ALLEY":"２７２弄","HOUSE_NO":"１８號","E_COORD97":165646.04000000001,"N_COORD97":2552351.5600000001,"ADDRESS":"公學路四段１２２巷２７２弄１８號","OBJECTID":172725},"geometry":{"x":165646.04000000004,"y":2552351.5600000024}},{"attributes":{"ID":172727,"DIS_CODE":0,"TOWNNAME":"安南區","LI":"\u25A0南里","LIN":"4鄰","STREET":"安昌街","SECT":" ","MAREA":" ","LANE":"２２２巷","ALLEY":"５４弄","HOUSE_NO":"１１號","E_COORD97":170249.70999999999,"N_COORD97":2552524.8500000001,"ADDRESS":"安昌街２２２巷５４弄１１號","OBJECTID":172726},"geometry":{"x":170249.71000000089,"y":2552524.8500000015}},{"attributes":{"ID":172728,"DIS_CODE":0,"TOWNNAME":"官田區","LI":"拔林里","LIN":"12鄰","STREET":" ","SECT":" ","MAREA":"拔子林","LANE":" ","ALLEY":" ","HOUSE_NO":"８４號之９","E_COORD97":180382.03,"N_COORD97":2563884.9500000002,"ADDRESS":"拔子林８４號之９","OBJECTID":172727},"geometry":{"x":180382.03000000119,"y":2563884.9500000011}},{"attributes":{"ID":172729,"DIS_CODE":0,"TOWNNAME":"安南區","LI":"南興里","LIN":"4鄰","STREET":"安興街","SECT":" ","MAREA":" ","LANE":"６２４巷","ALLEY":"８０弄","HOUSE_NO":"３號","E_COORD97":163615.82000000001,"N_COORD97":2552379.0800000001,"ADDRESS":"安興街６２４巷８０弄３號","OBJECTID":172728},"geometry":{"x":163615.82000000216,"y":2552379.0800000019}},{"attributes":{"ID":172730,"DIS_CODE":0,"TOWNNAME":"安南區","LI":"南興里","LIN":"4鄰","STREET":"安興街","SECT":" ","MAREA":" ","LANE":"６２４巷","ALLEY":"８０弄","HOUSE_NO":"５號","E_COORD97":163617.29999999999,"N_COORD97":2552375.73,"ADDRESS":"安興街６２４巷８０弄５號","OBJECTID":172729},"geometry":{"x":163617.30000000075,"y":2552375.7300000004}},{"attributes":{"ID":172731,"DIS_CODE":0,"TOWNNAME":"安南區","LI":"南興里","LIN":"4鄰","STREET":"安興街","SECT":" ","MAREA":" ","LANE":"６２４巷","ALLEY":"８０弄","HOUSE_NO":"７號","E_COORD97":163617.67999999999,"N_COORD97":2552370.5299999998,"ADDRESS":"安興街６２４巷８０弄７號","OBJECTID":172730},"geometry":{"x":163617.67999999877,"y":2552370.5300000031}},{"attributes":{"ID":172732,"DIS_CODE":0,"TOWNNAME":"安南區","LI":"南興里","LIN":"4鄰","STREET":"安興街","SECT":" ","MAREA":" ","LANE":"６２４巷","ALLEY":"８０弄","HOUSE_NO":"１號","E_COORD97":163616.19,"N_COORD97":2552383.9100000001,"ADDRESS":"安興街６２４巷８０弄１號","OBJECTID":172731},"geometry":{"x":163616.19000000041,"y":2552383.910000002}},{"attributes":{"ID":172733,"DIS_CODE":0,"TOWNNAME":"安南區","LI":"頂安里","LIN":"8鄰","STREET":"怡安路","SECT":"一段","MAREA":" ","LANE":"４４６巷","ALLEY":"３５弄","HOUSE_NO":"２號","E_COORD97":168672.23000000001,"N_COORD97":2549266.8700000001,"ADDRESS":"怡安路一段４４６巷３５弄２號","OBJECTID":172732},"geometry":{"x":168672.23000000138,"y":2549266.870000001}},{"attributes":{"ID":172734,"DIS_CODE":0,"TOWNNAME":"安南區","LI":"溪心里","LIN":"7鄰","STREET":"本原街","SECT":"二段","MAREA":" ","LANE":"１３２巷","ALLEY":"７０弄","HOUSE_NO":"７號","E_COORD97":166643.69,"N_COORD97":2550867.3799999999,"ADDRESS":"本原街二段１３２巷７０弄７號","OBJECTID":172733},"geometry":{"x":166643.69000000041,"y":2550867.3800000008}},{"attributes":{"ID":172735,"DIS_CODE":0,"TOWNNAME":"安南區","LI":"頂安里","LIN":"15鄰","STREET":"長溪路","SECT":"一段","MAREA":" ","LANE":"４０７巷","ALLEY":"８３弄","HOUSE_NO":"１０號","E_COORD97":168641.79999999999,"N_COORD97":2548774.21,"ADDRESS":"長溪路一段４０７巷８３弄１０號","OBJECTID":172734},"geometry":{"x":168641.80000000075,"y":2548774.2100000028}},{"attributes":{"ID":172736,"DIS_CODE":0,"TOWNNAME":"新化區","LI":"崙頂里","LIN":"1鄰","STREET":" ","SECT":" ","MAREA":"崙子頂","LANE":" ","ALLEY":" ","HOUSE_NO":"３０號之５０","E_COORD97":177504.76999999999,"N_COORD97":2546457.2599999998,"ADDRESS":"崙子頂３０號之５０","OBJECTID":172735},"geometry":{"x":177504.77000000048,"y":2546457.2600000016}},{"attributes":{"ID":172737,"DIS_CODE":0,"TOWNNAME":"安南區","LI":"頂安里","LIN":"15鄰","STREET":"長溪路","SECT":"一段","MAREA":" ","LANE":"４０７巷","ALLEY":"８３弄","HOUSE_NO":"１２號","E_COORD97":168643.48000000001,"N_COORD97":2548778.5699999998,"ADDRESS":"長溪路一段４０７巷８３弄１２號","OBJECTID":172736},"geometry":{"x":168643.48000000138,"y":2548778.5700000022}},{"attributes":{"ID":172738,"DIS_CODE":0,"TOWNNAME":"安南區","LI":"長安里","LIN":"1鄰","STREET":"長溪路","SECT":"三段","MAREA":" ","LANE":"３７３巷","ALLEY":"１２弄","HOUSE_NO":"１１號","E_COORD97":167616.23000000001,"N_COORD97":2551976.1699999999,"ADDRESS":"長溪路三段３７３巷１２弄１１號","OBJECTID":172737},"geometry":{"x":167616.23000000138,"y":2551976.1699999999}},{"attributes":{"ID":172739,"DIS_CODE":0,"TOWNNAME":"官田區","LI":"拔林里","LIN":"12鄰","STREET":" ","SECT":" ","MAREA":"拔子林","LANE":" ","ALLEY":" ","HOUSE_NO":"８３號之１５","E_COORD97":180451.12,"N_COORD97":2563586.3399999999,"ADDRESS":"拔子林８３號之１５","OBJECTID":172738},"geometry":{"x":180451.12000000011,"y":2563586.3399999999}},{"attributes":{"ID":172740,"DIS_CODE":0,"TOWNNAME":"安南區","LI":"\u25A0南里","LIN":"32鄰","STREET":"安昌街","SECT":" ","MAREA":" ","LANE":"１７４巷","ALLEY":"３９弄","HOUSE_NO":"２０號","E_COORD97":170191.32999999999,"N_COORD97":2552337.46,"ADDRESS":"安昌街１７４巷３９弄２０號","OBJECTID":172739},"geometry":{"x":170191.33000000101,"y":2552337.4600000009}},{"attributes":{"ID":172741,"DIS_CODE":0,"TOWNNAME":"官田區","LI":"拔林里","LIN":"12鄰","STREET":" ","SECT":" ","MAREA":"拔子林","LANE":" ","ALLEY":" ","HOUSE_NO":"８３號之１６","E_COORD97":180445.22,"N_COORD97":2563588.4100000001,"ADDRESS":"拔子林８３號之１６","OBJECTID":172740},"geometry":{"x":180445.21999999974,"y":2563588.410000002}},{"attributes":{"ID":172742,"DIS_CODE":0,"TOWNNAME":"安南區","LI":"\u25A0南里","LIN":"32鄰","STREET":"安昌街","SECT":" ","MAREA":" ","LANE":"１７４巷","ALLEY":"３９弄","HOUSE_NO":"２２號","E_COORD97":170181.01000000001,"N_COORD97":2552324.5299999998,"ADDRESS":"安昌街１７４巷３９弄２２號","OBJECTID":172741},"geometry":{"x":170181.00999999885,"y":2552324.5300000012}},{"attributes":{"ID":172743,"DIS_CODE":0,"TOWNNAME":"官田區","LI":"拔林里","LIN":"12鄰","STREET":" ","SECT":" ","MAREA":"拔子林","LANE":" ","ALLEY":" ","HOUSE_NO":"８３號之１７","E_COORD97":180439.07000000001,"N_COORD97":2563591.6899999999,"ADDRESS":"拔子林８３號之１７","OBJECTID":172742},"geometry":{"x":180439.07000000123,"y":2563591.6900000032}},{"attributes":{"ID":172744,"DIS_CODE":0,"TOWNNAME":"官田區","LI":"拔林里","LIN":"12鄰","STREET":" ","SECT":" ","MAREA":"拔子林","LANE":" ","ALLEY":" ","HOUSE_NO":"８３號之１８","E_COORD97":180433.28,"N_COORD97":2563594.4399999999,"ADDRESS":"拔子林８３號之１８","OBJECTID":172743},"geometry":{"x":180433.28000000026,"y":2563594.4400000013}},{"attributes":{"ID":172745,"DIS_CODE":0,"TOWNNAME":"安南區","LI":"\u25A0南里","LIN":"32鄰","STREET":"安昌街","SECT":" ","MAREA":" ","LANE":"１７４巷","ALLEY":"３９弄","HOUSE_NO":"２４號","E_COORD97":170180.76000000001,"N_COORD97":2552319.75,"ADDRESS":"安昌街１７４巷３９弄２４號","OBJECTID":172744},"geometry":{"x":170180.75999999978,"y":2552319.7500000019}},{"attributes":{"ID":172746,"DIS_CODE":0,"TOWNNAME":"安南區","LI":"\u25A0南里","LIN":"32鄰","STREET":"安昌街","SECT":" ","MAREA":" ","LANE":"１７４巷","ALLEY":"３９弄","HOUSE_NO":"２６號","E_COORD97":170181.26999999999,"N_COORD97":2552314.9700000002,"ADDRESS":"安昌街１７４巷３９弄２６號","OBJECTID":172745},"geometry":{"x":170181.27000000048,"y":2552314.9700000025}},{"attributes":{"ID":172747,"DIS_CODE":0,"TOWNNAME":"安南區","LI":"\u25A0南里","LIN":"32鄰","STREET":"安昌街","SECT":" ","MAREA":" ","LANE":"１７４巷","ALLEY":"３９弄","HOUSE_NO":"２８號","E_COORD97":170181.39999999999,"N_COORD97":2552311.3599999999,"ADDRESS":"安昌街１７４巷３９弄２８號","OBJECTID":172746},"geometry":{"x":170181.4000000013,"y":2552311.3600000013}},{"attributes":{"ID":172748,"DIS_CODE":0,"TOWNNAME":"官田區","LI":"拔林里","LIN":"12鄰","STREET":" ","SECT":" ","MAREA":"拔子林","LANE":" ","ALLEY":" ","HOUSE_NO":"８３號之１９","E_COORD97":180428.23999999999,"N_COORD97":2563601.6400000001,"ADDRESS":"拔子林８３號之１９","OBJECTID":172747},"geometry":{"x":180428.24000000115,"y":2563601.6400000025}},{"attributes":{"ID":172749,"DIS_CODE":0,"TOWNNAME":"官田區","LI":"拔林里","LIN":"12鄰","STREET":" ","SECT":" ","MAREA":"拔子林","LANE":" ","ALLEY":" ","HOUSE_NO":"８３號之１","E_COORD97":180499.92999999999,"N_COORD97":2563523.3999999999,"ADDRESS":"拔子林８３號之１","OBJECTID":172748},"geometry":{"x":180499.9299999997,"y":2563523.4000000041}},{"attributes":{"ID":172750,"DIS_CODE":0,"TOWNNAME":"安南區","LI":"\u25A0南里","LIN":"32鄰","STREET":"安昌街","SECT":" ","MAREA":" ","LANE":"１７４巷","ALLEY":"３９弄","HOUSE_NO":"３０號","E_COORD97":170206.75,"N_COORD97":2552315.4900000002,"ADDRESS":"安昌街１７４巷３９弄３０號","OBJECTID":172749},"geometry":{"x":170206.74999999907,"y":2552315.4900000021}},{"attributes":{"ID":172751,"DIS_CODE":0,"TOWNNAME":"官田區","LI":"拔林里","LIN":"12鄰","STREET":" ","SECT":" ","MAREA":"拔子林","LANE":" ","ALLEY":" ","HOUSE_NO":"８３號之２７","E_COORD97":180446.39000000001,"N_COORD97":2563559.7999999998,"ADDRESS":"拔子林８３號之２７","OBJECTID":172750},"geometry":{"x":180446.3900000006,"y":2563559.8000000026}},{"attributes":{"ID":172752,"DIS_CODE":0,"TOWNNAME":"官田區","LI":"拔林里","LIN":"12鄰","STREET":" ","SECT":" ","MAREA":"拔子林","LANE":" ","ALLEY":" ","HOUSE_NO":"８３號之２８","E_COORD97":180438.64000000001,"N_COORD97":2563563.3100000001,"ADDRESS":"拔子林８３號之２８","OBJECTID":172751},"geometry":{"x":180438.63999999966,"y":2563563.3100000005}},{"attributes":{"ID":172753,"DIS_CODE":0,"TOWNNAME":"官田區","LI":"拔林里","LIN":"12鄰","STREET":" ","SECT":" ","MAREA":"拔子林","LANE":" ","ALLEY":" ","HOUSE_NO":"８３號之２９","E_COORD97":180434.38,"N_COORD97":2563565.21,"ADDRESS":"拔子林８３號之２９","OBJECTID":172752},"geometry":{"x":180434.37999999989,"y":2563565.2100000009}},{"attributes":{"ID":172754,"DIS_CODE":0,"TOWNNAME":"官田區","LI":"拔林里","LIN":"12鄰","STREET":" ","SECT":" ","MAREA":"拔子林","LANE":" ","ALLEY":" ","HOUSE_NO":"８３號之３０","E_COORD97":180430.59,"N_COORD97":2563566.6800000002,"ADDRESS":"拔子林８３號之３０","OBJECTID":172753},"geometry":{"x":180430.59000000078,"y":2563566.6799999997}},{"attributes":{"ID":172755,"DIS_CODE":0,"TOWNNAME":"安南區","LI":"\u25A0南里","LIN":"32鄰","STREET":"安昌街","SECT":" ","MAREA":" ","LANE":"１７４巷","ALLEY":"３９弄","HOUSE_NO":"３２號","E_COORD97":170206.10000000001,"N_COORD97":2552320.1400000001,"ADDRESS":"安昌街１７４巷３９弄３２號","OBJECTID":172754},"geometry":{"x":170206.10000000056,"y":2552320.1400000043}},{"attributes":{"ID":172756,"DIS_CODE":0,"TOWNNAME":"安南區","LI":"\u25A0南里","LIN":"32鄰","STREET":"安昌街","SECT":" ","MAREA":" ","LANE":"１７４巷","ALLEY":"３９弄","HOUSE_NO":"３４號","E_COORD97":170201.14999999999,"N_COORD97":2552336.46,"ADDRESS":"安昌街１７４巷３９弄３４號","OBJECTID":172755},"geometry":{"x":170201.15000000224,"y":2552336.4600000028}},{"attributes":{"ID":172757,"DIS_CODE":0,"TOWNNAME":"官田區","LI":"拔林里","LIN":"12鄰","STREET":" ","SECT":" ","MAREA":"拔子林","LANE":" ","ALLEY":" ","HOUSE_NO":"８３號之３１","E_COORD97":180426.37,"N_COORD97":2563568.9900000002,"ADDRESS":"拔子林８３號之３１","OBJECTID":172756},"geometry":{"x":180426.36999999918,"y":2563568.9900000002}},{"attributes":{"ID":172758,"DIS_CODE":0,"TOWNNAME":"官田區","LI":"拔林里","LIN":"12鄰","STREET":" ","SECT":" ","MAREA":"拔子林","LANE":" ","ALLEY":" ","HOUSE_NO":"８３號之４３","E_COORD97":180421.13,"N_COORD97":2563531.2599999998,"ADDRESS":"拔子林８３號之４３","OBJECTID":172757},"geometry":{"x":180421.13000000175,"y":2563531.2600000016}},{"attributes":{"ID":172759,"DIS_CODE":0,"TOWNNAME":"官田區","LI":"拔林里","LIN":"12鄰","STREET":" ","SECT":" ","MAREA":"拔子林","LANE":" ","ALLEY":" ","HOUSE_NO":"８３號之４４","E_COORD97":180420.81,"N_COORD97":2563439.8999999999,"ADDRESS":"拔子林８３號之４４","OBJECTID":172758},"geometry":{"x":180420.80999999959,"y":2563439.9000000022}},{"attributes":{"ID":172760,"DIS_CODE":0,"TOWNNAME":"善化區","LI":"什乃里","LIN":"1鄰","STREET":" ","SECT":" ","MAREA":"什乃","LANE":" ","ALLEY":" ","HOUSE_NO":"４號","E_COORD97":176236.41,"N_COORD97":2560381,"ADDRESS":"什乃４號","OBJECTID":172759},"geometry":{"x":176236.41000000108,"y":2560381.0000000019}},{"attributes":{"ID":172761,"DIS_CODE":0,"TOWNNAME":"官田區","LI":"拔林里","LIN":"12鄰","STREET":" ","SECT":" ","MAREA":"拔子林","LANE":" ","ALLEY":" ","HOUSE_NO":"８４號之１０","E_COORD97":180354.31,"N_COORD97":2563932.8100000001,"ADDRESS":"拔子林８４號之１０","OBJECTID":172760},"geometry":{"x":180354.30999999959,"y":2563932.8100000005}},{"attributes":{"ID":172762,"DIS_CODE":0,"TOWNNAME":"安南區","LI":"\u25A0南里","LIN":"32鄰","STREET":"安昌街","SECT":" ","MAREA":" ","LANE":"１７４巷","ALLEY":"３９弄","HOUSE_NO":"３８號","E_COORD97":170210.76999999999,"N_COORD97":2552337.46,"ADDRESS":"安昌街１７４巷３９弄３８號","OBJECTID":172761},"geometry":{"x":170210.76999999955,"y":2552337.4600000009}},{"attributes":{"ID":172763,"DIS_CODE":0,"TOWNNAME":"安南區","LI":"總頭里","LIN":"8鄰","STREET":"長溪路","SECT":"二段","MAREA":" ","LANE":"６７１巷","ALLEY":"５１弄","HOUSE_NO":"１０號","E_COORD97":168103.13,"N_COORD97":2550763.6299999999,"ADDRESS":"長溪路二段６７１巷５１弄１０號","OBJECTID":172762},"geometry":{"x":168103.12999999989,"y":2550763.6300000008}},{"attributes":{"ID":172764,"DIS_CODE":0,"TOWNNAME":"官田區","LI":"拔林里","LIN":"12鄰","STREET":" ","SECT":" ","MAREA":"拔子林","LANE":" ","ALLEY":" ","HOUSE_NO":"８４號之１１","E_COORD97":180466.53,"N_COORD97":2563642.9500000002,"ADDRESS":"拔子林８４號之１１","OBJECTID":172763},"geometry":{"x":180466.53000000119,"y":2563642.9499999993}},{"attributes":{"ID":172765,"DIS_CODE":0,"TOWNNAME":"安南區","LI":"總頭里","LIN":"8鄰","STREET":"長溪路","SECT":"二段","MAREA":" ","LANE":"６７１巷","ALLEY":"５１弄","HOUSE_NO":"１１號","E_COORD97":168129.04999999999,"N_COORD97":2550750.96,"ADDRESS":"長溪路二段６７１巷５１弄１１號","OBJECTID":172764},"geometry":{"x":168129.04999999981,"y":2550750.9600000009}},{"attributes":{"ID":172766,"DIS_CODE":0,"TOWNNAME":"安南區","LI":"長安里","LIN":"15鄰","STREET":"公學路","SECT":"二段","MAREA":" ","LANE":"１２３巷","ALLEY":"８３弄","HOUSE_NO":"１號","E_COORD97":167844.17999999999,"N_COORD97":2552441.3900000001,"ADDRESS":"公學路二段１２３巷８３弄１號","OBJECTID":172765},"geometry":{"x":167844.18000000063,"y":2552441.3900000025}},{"attributes":{"ID":172767,"DIS_CODE":0,"TOWNNAME":"安南區","LI":"長安里","LIN":"15鄰","STREET":"公學路","SECT":"二段","MAREA":" ","LANE":"１２３巷","ALLEY":"８３弄","HOUSE_NO":"３號","E_COORD97":167846.42000000001,"N_COORD97":2552445.75,"ADDRESS":"公學路二段１２３巷８３弄３號","OBJECTID":172766},"geometry":{"x":167846.42000000086,"y":2552445.7500000019}},{"attributes":{"ID":172768,"DIS_CODE":0,"TOWNNAME":"安南區","LI":"長安里","LIN":"15鄰","STREET":"公學路","SECT":"二段","MAREA":" ","LANE":"１２３巷","ALLEY":"８３弄","HOUSE_NO":"５號","E_COORD97":167848.29999999999,"N_COORD97":2552450.4100000001,"ADDRESS":"公學路二段１２３巷８３弄５號","OBJECTID":172767},"geometry":{"x":167848.30000000168,"y":2552450.410000002}},{"attributes":{"ID":172769,"DIS_CODE":0,"TOWNNAME":"官田區","LI":"拔林里","LIN":"12鄰","STREET":" ","SECT":" ","MAREA":"拔子林","LANE":" ","ALLEY":" ","HOUSE_NO":"８４號之２","E_COORD97":180369.63,"N_COORD97":2563786.8399999999,"ADDRESS":"拔子林８４號之２","OBJECTID":172768},"geometry":{"x":180369.62999999989,"y":2563786.8399999999}},{"attributes":{"ID":172770,"DIS_CODE":0,"TOWNNAME":"官田區","LI":"拔林里","LIN":"12鄰","STREET":" ","SECT":" ","MAREA":"拔子林","LANE":" ","ALLEY":" ","HOUSE_NO":"８５號之１６","E_COORD97":180207.26000000001,"N_COORD97":2563722.1299999999,"ADDRESS":"拔子林８５號之１６","OBJECTID":172769},"geometry":{"x":180207.26000000071,"y":2563722.129999999}},{"attributes":{"ID":172771,"DIS_CODE":0,"TOWNNAME":"官田區","LI":"拔林里","LIN":"12鄰","STREET":" ","SECT":" ","MAREA":"拔子林","LANE":" ","ALLEY":" ","HOUSE_NO":"８５號之１","E_COORD97":180368.54000000001,"N_COORD97":2563653.3100000001,"ADDRESS":"拔子林８５號之１","OBJECTID":172770},"geometry":{"x":180368.54000000004,"y":2563653.3100000024}},{"attributes":{"ID":172772,"DIS_CODE":0,"TOWNNAME":"新化區","LI":"礁坑里","LIN":"12鄰","STREET":" ","SECT":" ","MAREA":"茄冬坑","LANE":" ","ALLEY":" ","HOUSE_NO":"１號之６","E_COORD97":182019.67000000001,"N_COORD97":2548669.2599999998,"ADDRESS":"茄冬坑１號之６","OBJECTID":172771},"geometry":{"x":182019.67000000086,"y":2548669.2599999998}},{"attributes":{"ID":172773,"DIS_CODE":0,"TOWNNAME":"新化區","LI":"豐榮里","LIN":"12鄰","STREET":"正新路","SECT":" ","MAREA":" ","LANE":"９５巷","ALLEY":" ","HOUSE_NO":"４８號","E_COORD97":178547.62,"N_COORD97":2547978.3900000001,"ADDRESS":"正新路４８號","OBJECTID":172772},"geometry":{"x":178547.62000000011,"y":2547978.3900000006}},{"attributes":{"ID":172774,"DIS_CODE":0,"TOWNNAME":"新化區","LI":"豐榮里","LIN":"12鄰","STREET":"正新路","SECT":" ","MAREA":" ","LANE":"９５巷","ALLEY":" ","HOUSE_NO":"５０號","E_COORD97":178551.76000000001,"N_COORD97":2547978.8300000001,"ADDRESS":"正新路５０號","OBJECTID":172773},"geometry":{"x":178551.75999999978,"y":2547978.8300000038}},{"attributes":{"ID":172775,"DIS_CODE":0,"TOWNNAME":"安南區","LI":"城南里","LIN":"12鄰","STREET":"城西街","SECT":"二段","MAREA":" ","LANE":" ","ALLEY":" ","HOUSE_NO":"２５０號","E_COORD97":159729.64000000001,"N_COORD97":2551016.21,"ADDRESS":"城西街二段２５０號","OBJECTID":172774},"geometry":{"x":159729.6400000006,"y":2551016.2100000028}},{"attributes":{"ID":172776,"DIS_CODE":0,"TOWNNAME":"安南區","LI":"城南里","LIN":"12鄰","STREET":"城西街","SECT":"二段","MAREA":" ","LANE":" ","ALLEY":" ","HOUSE_NO":"２５８號","E_COORD97":159709.39000000001,"N_COORD97":2551002.5099999998,"ADDRESS":"城西街二段２５８號","OBJECTID":172775},"geometry":{"x":159709.3900000006,"y":2551002.5100000016}},{"attributes":{"ID":172777,"DIS_CODE":0,"TOWNNAME":"善化區","LI":"文昌里","LIN":"12鄰","STREET":"中和街","SECT":" ","MAREA":" ","LANE":" ","ALLEY":" ","HOUSE_NO":"４２號","E_COORD97":177452.51000000001,"N_COORD97":2558913.5,"ADDRESS":"中和街４２號","OBJECTID":172776},"geometry":{"x":177452.51000000071,"y":2558913.5}},{"attributes":{"ID":172778,"DIS_CODE":0,"TOWNNAME":"安南區","LI":"城南里","LIN":"12鄰","STREET":"城西街","SECT":"二段","MAREA":" ","LANE":" ","ALLEY":" ","HOUSE_NO":"２６４號","E_COORD97":159696.59,"N_COORD97":2551007.0800000001,"ADDRESS":"城西街二段２６４號","OBJECTID":172777},"geometry":{"x":159696.59000000078,"y":2551007.0800000001}},{"attributes":{"ID":172779,"DIS_CODE":0,"TOWNNAME":"安南區","LI":"長安里","LIN":"15鄰","STREET":"公學路","SECT":"二段","MAREA":" ","LANE":"１２３巷","ALLEY":"８３弄","HOUSE_NO":"７號","E_COORD97":167850.29999999999,"N_COORD97":2552454.7400000002,"ADDRESS":"公學路二段１２３巷８３弄７號","OBJECTID":172778},"geometry":{"x":167850.30000000075,"y":2552454.7400000039}},{"attributes":{"ID":172780,"DIS_CODE":0,"TOWNNAME":"安南區","LI":"安東里","LIN":"12鄰","STREET":"安和路","SECT":"一段","MAREA":" ","LANE":"２２０巷","ALLEY":"１２９弄","HOUSE_NO":"１４號","E_COORD97":169597.45999999999,"N_COORD97":2548180.0800000001,"ADDRESS":"安和路一段２２０巷１２９弄１４號","OBJECTID":172779},"geometry":{"x":169597.46000000089,"y":2548180.0800000001}},{"attributes":{"ID":172781,"DIS_CODE":0,"TOWNNAME":"安南區","LI":"長安里","LIN":"1鄰","STREET":"長溪路","SECT":"三段","MAREA":" ","LANE":"３７３巷","ALLEY":"３８弄","HOUSE_NO":"２２號","E_COORD97":167614.98000000001,"N_COORD97":2551960.3700000001,"ADDRESS":"長溪路三段３７３巷３８弄２２號","OBJECTID":172780},"geometry":{"x":167614.98000000045,"y":2551960.3700000029}},{"attributes":{"ID":172782,"DIS_CODE":0,"TOWNNAME":"安南區","LI":"安慶里","LIN":"2鄰","STREET":"長溪路","SECT":"一段","MAREA":" ","LANE":"１６８巷","ALLEY":"１３１弄","HOUSE_NO":"３８號","E_COORD97":168968.39000000001,"N_COORD97":2548865.7000000002,"ADDRESS":"長溪路一段１６８巷１３１弄３８號","OBJECTID":172781},"geometry":{"x":168968.3900000006,"y":2548865.6999999993}},{"attributes":{"ID":172783,"DIS_CODE":0,"TOWNNAME":"新化區","LI":"豐榮里","LIN":"6鄰","STREET":" ","SECT":" ","MAREA":"洋子","LANE":" ","ALLEY":" ","HOUSE_NO":"１５１號之２","E_COORD97":177776.73000000001,"N_COORD97":2548046.2599999998,"ADDRESS":"洋子１５１號之２","OBJECTID":172782},"geometry":{"x":177776.73000000138,"y":2548046.2599999998}},{"attributes":{"ID":172784,"DIS_CODE":0,"TOWNNAME":"安南區","LI":"城東里","LIN":"4鄰","STREET":"城北路","SECT":" ","MAREA":" ","LANE":"１７２巷","ALLEY":"５１弄","HOUSE_NO":"２號","E_COORD97":161120.19,"N_COORD97":2551785.5899999999,"ADDRESS":"城北路１７２巷５１弄２號","OBJECTID":172783},"geometry":{"x":161120.19000000134,"y":2551785.5900000017}},{"attributes":{"ID":172785,"DIS_CODE":0,"TOWNNAME":"安南區","LI":"城東里","LIN":"4鄰","STREET":"城北路","SECT":" ","MAREA":" ","LANE":"１７２巷","ALLEY":"５１弄","HOUSE_NO":"４號","E_COORD97":161120.79000000001,"N_COORD97":2551781.25,"ADDRESS":"城北路１７２巷５１弄４號","OBJECTID":172784},"geometry":{"x":161120.79000000097,"y":2551781.2500000019}},{"attributes":{"ID":172786,"DIS_CODE":0,"TOWNNAME":"安南區","LI":"城東里","LIN":"4鄰","STREET":"城北路","SECT":" ","MAREA":" ","LANE":"１７２巷","ALLEY":"５１弄","HOUSE_NO":"６號","E_COORD97":161122.20999999999,"N_COORD97":2551777.71,"ADDRESS":"城北路１７２巷５１弄６號","OBJECTID":172785},"geometry":{"x":161122.20999999996,"y":2551777.7100000046}},{"attributes":{"ID":172787,"DIS_CODE":0,"TOWNNAME":"安南區","LI":"城東里","LIN":"4鄰","STREET":"城北路","SECT":" ","MAREA":" ","LANE":"１７２巷","ALLEY":"５１弄","HOUSE_NO":"８號","E_COORD97":161123.12,"N_COORD97":2551773.4700000002,"ADDRESS":"城北路１７２巷５１弄８號","OBJECTID":172786},"geometry":{"x":161123.12000000011,"y":2551773.4700000025}},{"attributes":{"ID":172788,"DIS_CODE":0,"TOWNNAME":"安南區","LI":"淵中里","LIN":"11鄰","STREET":"安中路","SECT":"四段","MAREA":" ","LANE":"４巷","ALLEY":"４８弄","HOUSE_NO":"４８號","E_COORD97":165266.81,"N_COORD97":2550244,"ADDRESS":"安中路四段４巷４８弄４８號","OBJECTID":172787},"geometry":{"x":165266.81000000052,"y":2550244}},{"attributes":{"ID":172789,"DIS_CODE":0,"TOWNNAME":"安南區","LI":"淵中里","LIN":"11鄰","STREET":"安中路","SECT":"四段","MAREA":" ","LANE":"４巷","ALLEY":"４８弄","HOUSE_NO":"４６號","E_COORD97":165271.70000000001,"N_COORD97":2550239.5299999998,"ADDRESS":"安中路四段４巷４８弄４６號","OBJECTID":172788},"geometry":{"x":165271.70000000112,"y":2550239.5300000012}},{"attributes":{"ID":172790,"DIS_CODE":0,"TOWNNAME":"安南區","LI":"安慶里","LIN":"13鄰","STREET":"培安路","SECT":" ","MAREA":" ","LANE":"２６７巷","ALLEY":" ","HOUSE_NO":"１１號","E_COORD97":169337.92000000001,"N_COORD97":2548952.8199999998,"ADDRESS":"培安路２６７巷１１號","OBJECTID":172789},"geometry":{"x":169337.92000000086,"y":2548952.8200000022}},{"attributes":{"ID":172791,"DIS_CODE":0,"TOWNNAME":"安南區","LI":"原佃里","LIN":"4鄰","STREET":"本原街","SECT":"一段","MAREA":" ","LANE":"９４巷","ALLEY":"１７弄","HOUSE_NO":"２號","E_COORD97":167965.06,"N_COORD97":2550237.3300000001,"ADDRESS":"本原街一段９４巷１７弄２號","OBJECTID":172790},"geometry":{"x":167965.06000000145,"y":2550237.3300000019}},{"attributes":{"ID":172792,"DIS_CODE":0,"TOWNNAME":"安南區","LI":"原佃里","LIN":"4鄰","STREET":"本原街","SECT":"一段","MAREA":" ","LANE":"９４巷","ALLEY":"１７弄","HOUSE_NO":"４號","E_COORD97":167961.10000000001,"N_COORD97":2550238.9300000002,"ADDRESS":"本原街一段９４巷１７弄４號","OBJECTID":172791},"geometry":{"x":167961.09999999963,"y":2550238.9300000034}},{"attributes":{"ID":172793,"DIS_CODE":0,"TOWNNAME":"安南區","LI":"州北里","LIN":"9鄰","STREET":"北安路","SECT":"四段","MAREA":" ","LANE":"４２０巷","ALLEY":"３弄","HOUSE_NO":"１號","E_COORD97":169542.56,"N_COORD97":2551651.4700000002,"ADDRESS":"北安路四段４２０巷３弄１號","OBJECTID":172792},"geometry":{"x":169542.55999999959,"y":2551651.4700000025}},{"attributes":{"ID":172794,"DIS_CODE":0,"TOWNNAME":"安南區","LI":"理想里","LIN":"4鄰","STREET":"海佃路","SECT":"二段","MAREA":" ","LANE":"３４２巷","ALLEY":"２１弄","HOUSE_NO":"４６號","E_COORD97":167014.29999999999,"N_COORD97":2548668.3700000001,"ADDRESS":"海佃路二段３４２巷２１弄４６號","OBJECTID":172793},"geometry":{"x":167014.30000000168,"y":2548668.3700000029}},{"attributes":{"ID":172795,"DIS_CODE":0,"TOWNNAME":"安南區","LI":"城南里","LIN":"12鄰","STREET":"城西街","SECT":"二段","MAREA":" ","LANE":" ","ALLEY":" ","HOUSE_NO":"２７０號","E_COORD97":159682.56,"N_COORD97":2551021.3900000001,"ADDRESS":"城西街二段２７０號","OBJECTID":172794},"geometry":{"x":159682.56000000052,"y":2551021.3900000025}},{"attributes":{"ID":172796,"DIS_CODE":0,"TOWNNAME":"善化區","LI":"文昌里","LIN":"12鄰","STREET":"大信路","SECT":" ","MAREA":" ","LANE":" ","ALLEY":" ","HOUSE_NO":"２０號","E_COORD97":177506.59,"N_COORD97":2558947,"ADDRESS":"大信路２０號","OBJECTID":172795},"geometry":{"x":177506.58999999985,"y":2558947}},{"attributes":{"ID":172797,"DIS_CODE":0,"TOWNNAME":"東區","LI":"裕聖里","LIN":"17鄰","STREET":"裕華二街","SECT":" ","MAREA":" ","LANE":" ","ALLEY":" ","HOUSE_NO":"２號","E_COORD97":172703.95999999999,"N_COORD97":2542177.75,"ADDRESS":"裕華二街２號","OBJECTID":172796},"geometry":{"x":172703.95999999903,"y":2542177.75}},{"attributes":{"ID":172798,"DIS_CODE":0,"TOWNNAME":"安南區","LI":"理想里","LIN":"4鄰","STREET":"海佃路","SECT":"二段","MAREA":" ","LANE":"３４２巷","ALLEY":"２１弄","HOUSE_NO":"４８號","E_COORD97":167011.87,"N_COORD97":2548664.0499999998,"ADDRESS":"海佃路二段３４２巷２１弄４８號","OBJECTID":172797},"geometry":{"x":167011.87000000011,"y":2548664.0500000026}},{"attributes":{"ID":172799,"DIS_CODE":0,"TOWNNAME":"安南區","LI":"\u25A0南里","LIN":"31鄰","STREET":"安昌街","SECT":" ","MAREA":" ","LANE":"１７４巷","ALLEY":"１９１弄","HOUSE_NO":"６１號之７","E_COORD97":170201.20000000001,"N_COORD97":2552131.5499999998,"ADDRESS":"安昌街１７４巷１９１弄６１號之７","OBJECTID":172798},"geometry":{"x":170201.20000000112,"y":2552131.5500000026}},{"attributes":{"ID":172800,"DIS_CODE":0,"TOWNNAME":"安南區","LI":"\u25A0南里","LIN":"31鄰","STREET":"安昌街","SECT":" ","MAREA":" ","LANE":"１７４巷","ALLEY":"１９１弄","HOUSE_NO":"６１號之８","E_COORD97":170201.39999999999,"N_COORD97":2552127.3100000001,"ADDRESS":"安昌街１７４巷１９１弄６１號之８","OBJECTID":172799},"geometry":{"x":170201.4000000013,"y":2552127.3100000024}},{"attributes":{"ID":172801,"DIS_CODE":0,"TOWNNAME":"安南區","LI":"安東里","LIN":"17鄰","STREET":"安和路","SECT":"一段","MAREA":" ","LANE":"４７８巷","ALLEY":"２弄","HOUSE_NO":"３３號","E_COORD97":169431.94,"N_COORD97":2548344.3500000001,"ADDRESS":"安和路一段４７８巷２弄３３號","OBJECTID":172800},"geometry":{"x":169431.94000000134,"y":2548344.3500000034}}]}