{"displayFieldName":"TOWNNAME","fieldAliases":{"ID":"ID","DIS_CODE":"DIS_CODE","TOWNNAME":"TOWNNAME","LI":"LI","LIN":"LIN","STREET":"STREET","SECT":"SECT","MAREA":"MAREA","LANE":"LANE","ALLEY":"ALLEY","HOUSE_NO":"HOUSE_NO","E_COORD97":"E_COORD97","N_COORD97":"N_COORD97","ADDRESS":"ADDRESS","OBJECTID":"OBJECTID"},"geometryType":"esriGeometryPoint","spatialReference":{"wkid":102443,"latestWkid":3826},"fields":[{"name":"ID","type":"esriFieldTypeDouble","alias":"ID"},{"name":"DIS_CODE","type":"esriFieldTypeInteger","alias":"DIS_CODE"},{"name":"TOWNNAME","type":"esriFieldTypeString","alias":"TOWNNAME","length":8},{"name":"LI","type":"esriFieldTypeString","alias":"LI","length":8},{"name":"LIN","type":"esriFieldTypeString","alias":"LIN","length":12},{"name":"STREET","type":"esriFieldTypeString","alias":"STREET","length":20},{"name":"SECT","type":"esriFieldTypeString","alias":"SECT","length":8},{"name":"MAREA","type":"esriFieldTypeString","alias":"MAREA","length":12},{"name":"LANE","type":"esriFieldTypeString","alias":"LANE","length":10},{"name":"ALLEY","type":"esriFieldTypeString","alias":"ALLEY","length":10},{"name":"HOUSE_NO","type":"esriFieldTypeString","alias":"HOUSE_NO","length":20},{"name":"E_COORD97","type":"esriFieldTypeDouble","alias":"E_COORD97"},{"name":"N_COORD97","type":"esriFieldTypeDouble","alias":"N_COORD97"},{"name":"ADDRESS","type":"esriFieldTypeString","alias":"ADDRESS","length":50},{"name":"OBJECTID","type":"esriFieldTypeOID","alias":"OBJECTID"}],"features":[{"attributes":{"ID":204402,"DIS_CODE":0,"TOWNNAME":"北區","LI":"正覺里","LIN":"25鄰","STREET":"公園路","SECT":" ","MAREA":" ","LANE":"７６９巷","ALLEY":"３０弄","HOUSE_NO":"１９號","E_COORD97":169500,"N_COORD97":2546506.9500000002,"ADDRESS":"公園路７６９巷３０弄１９號","OBJECTID":204401},"geometry":{"x":169500.00000000186,"y":2546506.9500000011}},{"attributes":{"ID":204403,"DIS_CODE":0,"TOWNNAME":"北區","LI":"正覺里","LIN":"25鄰","STREET":"公園路","SECT":" ","MAREA":" ","LANE":"７６９巷","ALLEY":"３０弄","HOUSE_NO":"１號","E_COORD97":169536.92000000001,"N_COORD97":2546495.5899999999,"ADDRESS":"公園路７６９巷３０弄１號","OBJECTID":204402},"geometry":{"x":169536.91999999993,"y":2546495.5900000017}},{"attributes":{"ID":204404,"DIS_CODE":0,"TOWNNAME":"永康區","LI":"新樹里","LIN":"1鄰","STREET":"富強路","SECT":"二段","MAREA":" ","LANE":" ","ALLEY":" ","HOUSE_NO":"２０８號","E_COORD97":175649.34,"N_COORD97":2547278.8500000001,"ADDRESS":"富強路二段２０８號","OBJECTID":204403},"geometry":{"x":175649.34000000171,"y":2547278.8499999996}},{"attributes":{"ID":204405,"DIS_CODE":0,"TOWNNAME":"北區","LI":"正覺里","LIN":"25鄰","STREET":"公園路","SECT":" ","MAREA":" ","LANE":"７６９巷","ALLEY":"３０弄","HOUSE_NO":"２０號","E_COORD97":169504.14999999999,"N_COORD97":2546521.7000000002,"ADDRESS":"公園路７６９巷３０弄２０號","OBJECTID":204404},"geometry":{"x":169504.15000000037,"y":2546521.7000000011}},{"attributes":{"ID":204406,"DIS_CODE":0,"TOWNNAME":"北區","LI":"正覺里","LIN":"25鄰","STREET":"公園路","SECT":" ","MAREA":" ","LANE":"７６９巷","ALLEY":"３０弄","HOUSE_NO":"２１號","E_COORD97":169496.42999999999,"N_COORD97":2546507.98,"ADDRESS":"公園路７６９巷３０弄２１號","OBJECTID":204405},"geometry":{"x":169496.4299999997,"y":2546507.9800000023}},{"attributes":{"ID":204407,"DIS_CODE":0,"TOWNNAME":"北區","LI":"正覺里","LIN":"25鄰","STREET":"公園路","SECT":" ","MAREA":" ","LANE":"７６９巷","ALLEY":"３０弄","HOUSE_NO":"２２號","E_COORD97":169500.39000000001,"N_COORD97":2546522.5499999998,"ADDRESS":"公園路７６９巷３０弄２２號","OBJECTID":204406},"geometry":{"x":169500.39000000153,"y":2546522.5500000007}},{"attributes":{"ID":204408,"DIS_CODE":0,"TOWNNAME":"北區","LI":"正覺里","LIN":"25鄰","STREET":"公園路","SECT":" ","MAREA":" ","LANE":"７６９巷","ALLEY":"３０弄","HOUSE_NO":"２３號","E_COORD97":169492.01999999999,"N_COORD97":2546509.2999999998,"ADDRESS":"公園路７６９巷３０弄２３號","OBJECTID":204407},"geometry":{"x":169492.01999999955,"y":2546509.3000000026}},{"attributes":{"ID":204409,"DIS_CODE":0,"TOWNNAME":"北區","LI":"正覺里","LIN":"25鄰","STREET":"公園路","SECT":" ","MAREA":" ","LANE":"７６９巷","ALLEY":"３０弄","HOUSE_NO":"２４號","E_COORD97":169495.79000000001,"N_COORD97":2546524.3300000001,"ADDRESS":"公園路７６９巷３０弄２４號","OBJECTID":204408},"geometry":{"x":169495.79000000004,"y":2546524.3300000038}},{"attributes":{"ID":204410,"DIS_CODE":0,"TOWNNAME":"北區","LI":"正覺里","LIN":"25鄰","STREET":"公園路","SECT":" ","MAREA":" ","LANE":"７６９巷","ALLEY":"３０弄","HOUSE_NO":"２５號","E_COORD97":169485.23999999999,"N_COORD97":2546510.8199999998,"ADDRESS":"公園路７６９巷３０弄２５號","OBJECTID":204409},"geometry":{"x":169485.24000000115,"y":2546510.820000004}},{"attributes":{"ID":204411,"DIS_CODE":0,"TOWNNAME":"北區","LI":"正覺里","LIN":"25鄰","STREET":"公園路","SECT":" ","MAREA":" ","LANE":"７６９巷","ALLEY":"３０弄","HOUSE_NO":"２６號","E_COORD97":169488.79000000001,"N_COORD97":2546526.3199999998,"ADDRESS":"公園路７６９巷３０弄２６號","OBJECTID":204410},"geometry":{"x":169488.79000000004,"y":2546526.3200000003}},{"attributes":{"ID":204412,"DIS_CODE":0,"TOWNNAME":"北區","LI":"正覺里","LIN":"25鄰","STREET":"公園路","SECT":" ","MAREA":" ","LANE":"７６９巷","ALLEY":"３０弄","HOUSE_NO":"２７號","E_COORD97":169481.48000000001,"N_COORD97":2546511.5699999998,"ADDRESS":"公園路７６９巷３０弄２７號","OBJECTID":204411},"geometry":{"x":169481.48000000045,"y":2546511.5700000003}},{"attributes":{"ID":204413,"DIS_CODE":0,"TOWNNAME":"北區","LI":"正覺里","LIN":"25鄰","STREET":"公園路","SECT":" ","MAREA":" ","LANE":"７６９巷","ALLEY":"３０弄","HOUSE_NO":"２８號","E_COORD97":169485.5,"N_COORD97":2546527.9199999999,"ADDRESS":"公園路７６９巷３０弄２８號","OBJECTID":204412},"geometry":{"x":169485.50000000093,"y":2546527.9200000018}},{"attributes":{"ID":204414,"DIS_CODE":0,"TOWNNAME":"南區","LI":"彰南里","LIN":"11鄰","STREET":"中華西路","SECT":"一段","MAREA":" ","LANE":" ","ALLEY":" ","HOUSE_NO":"９１號","E_COORD97":166375.59,"N_COORD97":2542104.9399999999,"ADDRESS":"中華西路一段９１號","OBJECTID":204413},"geometry":{"x":166375.59000000078,"y":2542104.9399999976}},{"attributes":{"ID":204415,"DIS_CODE":0,"TOWNNAME":"安南區","LI":"大安里","LIN":"6鄰","STREET":"理安街","SECT":" ","MAREA":" ","LANE":" ","ALLEY":" ","HOUSE_NO":"１００號","E_COORD97":167401.17000000001,"N_COORD97":2548067.9199999999,"ADDRESS":"理安街１００號","OBJECTID":204414},"geometry":{"x":167401.16999999993,"y":2548067.9199999999}},{"attributes":{"ID":204416,"DIS_CODE":0,"TOWNNAME":"安南區","LI":"大安里","LIN":"6鄰","STREET":"理安街","SECT":" ","MAREA":" ","LANE":" ","ALLEY":" ","HOUSE_NO":"１０１號","E_COORD97":167385.81,"N_COORD97":2548085.9199999999,"ADDRESS":"理安街１０１號","OBJECTID":204415},"geometry":{"x":167385.81000000052,"y":2548085.9199999999}},{"attributes":{"ID":204417,"DIS_CODE":0,"TOWNNAME":"安南區","LI":"大安里","LIN":"6鄰","STREET":"理安街","SECT":" ","MAREA":" ","LANE":" ","ALLEY":" ","HOUSE_NO":"１０４號","E_COORD97":167407.48000000001,"N_COORD97":2548075.0299999998,"ADDRESS":"理安街１０４號","OBJECTID":204416},"geometry":{"x":167407.48000000138,"y":2548075.0300000031}},{"attributes":{"ID":204418,"DIS_CODE":0,"TOWNNAME":"安南區","LI":"大安里","LIN":"6鄰","STREET":"理安街","SECT":" ","MAREA":" ","LANE":" ","ALLEY":" ","HOUSE_NO":"７７號","E_COORD97":167353.31,"N_COORD97":2548039.7400000002,"ADDRESS":"理安街７７號","OBJECTID":204417},"geometry":{"x":167353.31000000052,"y":2548039.7400000002}},{"attributes":{"ID":204419,"DIS_CODE":0,"TOWNNAME":"安南區","LI":"大安里","LIN":"4鄰","STREET":"理安街","SECT":" ","MAREA":" ","LANE":" ","ALLEY":" ","HOUSE_NO":"３０號","E_COORD97":167315.70999999999,"N_COORD97":2547937.1699999999,"ADDRESS":"理安街３０號","OBJECTID":204418},"geometry":{"x":167315.71000000089,"y":2547937.1700000018}},{"attributes":{"ID":204420,"DIS_CODE":0,"TOWNNAME":"安南區","LI":"大安里","LIN":"4鄰","STREET":"理安街","SECT":" ","MAREA":" ","LANE":" ","ALLEY":" ","HOUSE_NO":"３４號","E_COORD97":167320.85000000001,"N_COORD97":2547944.8700000001,"ADDRESS":"理安街３４號","OBJECTID":204419},"geometry":{"x":167320.85000000056,"y":2547944.870000001}},{"attributes":{"ID":204421,"DIS_CODE":0,"TOWNNAME":"安南區","LI":"大安里","LIN":"4鄰","STREET":"理安街","SECT":" ","MAREA":" ","LANE":" ","ALLEY":" ","HOUSE_NO":"３５號","E_COORD97":167299.60999999999,"N_COORD97":2547952.8900000001,"ADDRESS":"理安街３５號","OBJECTID":204420},"geometry":{"x":167299.61000000127,"y":2547952.8900000025}},{"attributes":{"ID":204422,"DIS_CODE":0,"TOWNNAME":"安南區","LI":"大安里","LIN":"4鄰","STREET":"理安街","SECT":" ","MAREA":" ","LANE":" ","ALLEY":" ","HOUSE_NO":"３６號","E_COORD97":167323.53,"N_COORD97":2547948.5699999998,"ADDRESS":"理安街３６號","OBJECTID":204421},"geometry":{"x":167323.53000000212,"y":2547948.5700000003}},{"attributes":{"ID":204423,"DIS_CODE":0,"TOWNNAME":"安南區","LI":"大安里","LIN":"4鄰","STREET":"理安街","SECT":" ","MAREA":" ","LANE":" ","ALLEY":" ","HOUSE_NO":"３７號","E_COORD97":167301.89999999999,"N_COORD97":2547957.0699999998,"ADDRESS":"理安街３７號","OBJECTID":204422},"geometry":{"x":167301.90000000037,"y":2547957.070000004}},{"attributes":{"ID":204424,"DIS_CODE":0,"TOWNNAME":"安南區","LI":"大安里","LIN":"13鄰","STREET":"義安街","SECT":" ","MAREA":" ","LANE":" ","ALLEY":" ","HOUSE_NO":"１２號","E_COORD97":167347.16,"N_COORD97":2547900.23,"ADDRESS":"義安街１２號","OBJECTID":204423},"geometry":{"x":167347.16000000015,"y":2547900.2300000004}},{"attributes":{"ID":204425,"DIS_CODE":0,"TOWNNAME":"安南區","LI":"大安里","LIN":"19鄰","STREET":"義安街","SECT":" ","MAREA":" ","LANE":" ","ALLEY":" ","HOUSE_NO":"２００號","E_COORD97":167616.81,"N_COORD97":2548322.02,"ADDRESS":"義安街２００號","OBJECTID":204424},"geometry":{"x":167616.80999999959,"y":2548322.0199999996}},{"attributes":{"ID":204426,"DIS_CODE":0,"TOWNNAME":"安南區","LI":"大安里","LIN":"19鄰","STREET":"義安街","SECT":" ","MAREA":" ","LANE":" ","ALLEY":" ","HOUSE_NO":"２０４號","E_COORD97":167621.73999999999,"N_COORD97":2548330.0699999998,"ADDRESS":"義安街２０４號","OBJECTID":204425},"geometry":{"x":167621.74000000022,"y":2548330.070000004}},{"attributes":{"ID":204427,"DIS_CODE":0,"TOWNNAME":"安南區","LI":"大安里","LIN":"19鄰","STREET":"義安街","SECT":" ","MAREA":" ","LANE":" ","ALLEY":" ","HOUSE_NO":"２０６號","E_COORD97":167625.85000000001,"N_COORD97":2548332.23,"ADDRESS":"義安街２０６號","OBJECTID":204426},"geometry":{"x":167625.85000000056,"y":2548332.2300000042}},{"attributes":{"ID":204428,"DIS_CODE":0,"TOWNNAME":"安南區","LI":"大安里","LIN":"19鄰","STREET":"義安街","SECT":" ","MAREA":" ","LANE":" ","ALLEY":" ","HOUSE_NO":"２０８號","E_COORD97":167628.45000000001,"N_COORD97":2548336.6499999999,"ADDRESS":"義安街２０８號","OBJECTID":204427},"geometry":{"x":167628.45000000019,"y":2548336.6500000022}},{"attributes":{"ID":204429,"DIS_CODE":0,"TOWNNAME":"安南區","LI":"大安里","LIN":"19鄰","STREET":"義安街","SECT":" ","MAREA":" ","LANE":" ","ALLEY":" ","HOUSE_NO":"２１０號","E_COORD97":167631.31,"N_COORD97":2548340.29,"ADDRESS":"義安街２１０號","OBJECTID":204428},"geometry":{"x":167631.31000000052,"y":2548340.2899999991}},{"attributes":{"ID":204430,"DIS_CODE":0,"TOWNNAME":"將軍區","LI":"玉山里","LIN":"2鄰","STREET":" ","SECT":" ","MAREA":"玉山","LANE":" ","ALLEY":" ","HOUSE_NO":"１８之９號","E_COORD97":161408.76000000001,"N_COORD97":2568246.8900000001,"ADDRESS":"玉山１８之９號","OBJECTID":204429},"geometry":{"x":161408.76000000071,"y":2568246.8900000025}},{"attributes":{"ID":204431,"DIS_CODE":0,"TOWNNAME":"永康區","LI":"新樹里","LIN":"3鄰","STREET":"富強路","SECT":"二段","MAREA":" ","LANE":" ","ALLEY":" ","HOUSE_NO":"３２９號","E_COORD97":175557.12,"N_COORD97":2547563.5600000001,"ADDRESS":"富強路二段３２９號","OBJECTID":204430},"geometry":{"x":175557.12000000011,"y":2547563.5600000005}},{"attributes":{"ID":204432,"DIS_CODE":0,"TOWNNAME":"永康區","LI":"龍潭里","LIN":"32鄰","STREET":"龍中街","SECT":" ","MAREA":" ","LANE":" ","ALLEY":" ","HOUSE_NO":"５８號之２","E_COORD97":174452.48000000001,"N_COORD97":2547985.6000000001,"ADDRESS":"龍中街５８號之２","OBJECTID":204431},"geometry":{"x":174452.48000000138,"y":2547985.5999999996}},{"attributes":{"ID":204433,"DIS_CODE":0,"TOWNNAME":"北區","LI":"正覺里","LIN":"25鄰","STREET":"公園路","SECT":" ","MAREA":" ","LANE":"７６９巷","ALLEY":"３０弄","HOUSE_NO":"２９號","E_COORD97":169477.26000000001,"N_COORD97":2546513.4500000002,"ADDRESS":"公園路７６９巷３０弄２９號","OBJECTID":204432},"geometry":{"x":169477.25999999978,"y":2546513.4500000011}},{"attributes":{"ID":204434,"DIS_CODE":0,"TOWNNAME":"北區","LI":"正覺里","LIN":"25鄰","STREET":"公園路","SECT":" ","MAREA":" ","LANE":"７６９巷","ALLEY":"３０弄","HOUSE_NO":"２號","E_COORD97":169540.97,"N_COORD97":2546508.8500000001,"ADDRESS":"公園路７６９巷３０弄２號","OBJECTID":204433},"geometry":{"x":169540.97000000067,"y":2546508.8499999996}},{"attributes":{"ID":204435,"DIS_CODE":0,"TOWNNAME":"永康區","LI":"龍潭里","LIN":"34鄰","STREET":"龍中街","SECT":" ","MAREA":" ","LANE":" ","ALLEY":" ","HOUSE_NO":"１２２號","E_COORD97":174421.70999999999,"N_COORD97":2548197.25,"ADDRESS":"龍中街１２２號","OBJECTID":204434},"geometry":{"x":174421.71000000089,"y":2548197.2500000019}},{"attributes":{"ID":204436,"DIS_CODE":0,"TOWNNAME":"北區","LI":"正覺里","LIN":"25鄰","STREET":"公園路","SECT":" ","MAREA":" ","LANE":"７６９巷","ALLEY":"３０弄","HOUSE_NO":"３０號","E_COORD97":169481.84,"N_COORD97":2546528.8599999999,"ADDRESS":"公園路７６９巷３０弄３０號","OBJECTID":204435},"geometry":{"x":169481.83999999985,"y":2546528.8599999994}},{"attributes":{"ID":204437,"DIS_CODE":0,"TOWNNAME":"北區","LI":"正覺里","LIN":"25鄰","STREET":"公園路","SECT":" ","MAREA":" ","LANE":"７６９巷","ALLEY":"３０弄","HOUSE_NO":"３１號","E_COORD97":169473.01999999999,"N_COORD97":2546514.7799999998,"ADDRESS":"公園路７６９巷３０弄３１號","OBJECTID":204436},"geometry":{"x":169473.02000000048,"y":2546514.7800000012}},{"attributes":{"ID":204438,"DIS_CODE":0,"TOWNNAME":"北區","LI":"正覺里","LIN":"25鄰","STREET":"公園路","SECT":" ","MAREA":" ","LANE":"７６９巷","ALLEY":"３０弄","HOUSE_NO":"３２號","E_COORD97":169476.85999999999,"N_COORD97":2546529.7999999998,"ADDRESS":"公園路７６９巷３０弄３２號","OBJECTID":204437},"geometry":{"x":169476.86000000034,"y":2546529.8000000026}},{"attributes":{"ID":204439,"DIS_CODE":0,"TOWNNAME":"北區","LI":"正覺里","LIN":"25鄰","STREET":"公園路","SECT":" ","MAREA":" ","LANE":"７６９巷","ALLEY":"３０弄","HOUSE_NO":"３３號","E_COORD97":169469.16,"N_COORD97":2546515.8100000001,"ADDRESS":"公園路７６９巷３０弄３３號","OBJECTID":204438},"geometry":{"x":169469.16000000108,"y":2546515.8100000024}},{"attributes":{"ID":204440,"DIS_CODE":0,"TOWNNAME":"北區","LI":"正覺里","LIN":"25鄰","STREET":"公園路","SECT":" ","MAREA":" ","LANE":"７６９巷","ALLEY":"３０弄","HOUSE_NO":"３４號","E_COORD97":169473.20000000001,"N_COORD97":2546530.5499999998,"ADDRESS":"公園路７６９巷３０弄３４號","OBJECTID":204439},"geometry":{"x":169473.20000000019,"y":2546530.5500000026}},{"attributes":{"ID":204441,"DIS_CODE":0,"TOWNNAME":"北區","LI":"正覺里","LIN":"25鄰","STREET":"公園路","SECT":" ","MAREA":" ","LANE":"７６９巷","ALLEY":"３０弄","HOUSE_NO":"３５號","E_COORD97":169465.22,"N_COORD97":2546517.6000000001,"ADDRESS":"公園路７６９巷３０弄３５號","OBJECTID":204440},"geometry":{"x":169465.21999999974,"y":2546517.5999999996}},{"attributes":{"ID":204442,"DIS_CODE":0,"TOWNNAME":"北區","LI":"正覺里","LIN":"25鄰","STREET":"公園路","SECT":" ","MAREA":" ","LANE":"７６９巷","ALLEY":"３０弄","HOUSE_NO":"３６號","E_COORD97":169468.69,"N_COORD97":2546532.3300000001,"ADDRESS":"公園路７６９巷３０弄３６號","OBJECTID":204441},"geometry":{"x":169468.69000000227,"y":2546532.3300000019}},{"attributes":{"ID":204443,"DIS_CODE":0,"TOWNNAME":"北區","LI":"正覺里","LIN":"25鄰","STREET":"公園路","SECT":" ","MAREA":" ","LANE":"７６９巷","ALLEY":"３０弄","HOUSE_NO":"３７號","E_COORD97":169460.89999999999,"N_COORD97":2546518.9100000001,"ADDRESS":"公園路７６９巷３０弄３７號","OBJECTID":204442},"geometry":{"x":169460.9000000013,"y":2546518.9100000001}},{"attributes":{"ID":204444,"DIS_CODE":0,"TOWNNAME":"北區","LI":"正覺里","LIN":"25鄰","STREET":"公園路","SECT":" ","MAREA":" ","LANE":"７６９巷","ALLEY":"３０弄","HOUSE_NO":"３８號","E_COORD97":169464.75,"N_COORD97":2546532.9900000002,"ADDRESS":"公園路７６９巷３０弄３８號","OBJECTID":204443},"geometry":{"x":169464.75000000093,"y":2546532.9900000002}},{"attributes":{"ID":204445,"DIS_CODE":0,"TOWNNAME":"將軍區","LI":"玉山里","LIN":"2鄰","STREET":" ","SECT":" ","MAREA":"玉山","LANE":" ","ALLEY":" ","HOUSE_NO":"１８號","E_COORD97":160619.59,"N_COORD97":2567849.0099999998,"ADDRESS":"玉山１８號","OBJECTID":204444},"geometry":{"x":160619.58999999985,"y":2567849.0100000016}},{"attributes":{"ID":204446,"DIS_CODE":0,"TOWNNAME":"將軍區","LI":"玉山里","LIN":"2鄰","STREET":" ","SECT":" ","MAREA":"玉山","LANE":" ","ALLEY":" ","HOUSE_NO":"２０之１號","E_COORD97":160766.89000000001,"N_COORD97":2567738.8399999999,"ADDRESS":"玉山２０之１號","OBJECTID":204445},"geometry":{"x":160766.8900000006,"y":2567738.8400000017}},{"attributes":{"ID":204447,"DIS_CODE":0,"TOWNNAME":"將軍區","LI":"玉山里","LIN":"2鄰","STREET":" ","SECT":" ","MAREA":"玉山","LANE":" ","ALLEY":" ","HOUSE_NO":"２０號","E_COORD97":160593.67999999999,"N_COORD97":2567781.7999999998,"ADDRESS":"玉山２０號","OBJECTID":204446},"geometry":{"x":160593.68000000156,"y":2567781.8000000007}},{"attributes":{"ID":204448,"DIS_CODE":0,"TOWNNAME":"將軍區","LI":"西和里","LIN":"2鄰","STREET":" ","SECT":" ","MAREA":"西和","LANE":" ","ALLEY":" ","HOUSE_NO":"１２號","E_COORD97":163252.44,"N_COORD97":2566448.0299999998,"ADDRESS":"西和１２號","OBJECTID":204447},"geometry":{"x":163252.44000000227,"y":2566448.0300000012}},{"attributes":{"ID":204449,"DIS_CODE":0,"TOWNNAME":"北區","LI":"正覺里","LIN":"25鄰","STREET":"公園路","SECT":" ","MAREA":" ","LANE":"７６９巷","ALLEY":"３０弄","HOUSE_NO":"３９號","E_COORD97":169456.10000000001,"N_COORD97":2546520.4199999999,"ADDRESS":"公園路７６９巷３０弄３９號","OBJECTID":204448},"geometry":{"x":169456.09999999963,"y":2546520.4200000018}},{"attributes":{"ID":204450,"DIS_CODE":0,"TOWNNAME":"北區","LI":"正覺里","LIN":"25鄰","STREET":"公園路","SECT":" ","MAREA":" ","LANE":"７６９巷","ALLEY":"３０弄","HOUSE_NO":"３號","E_COORD97":169532.12,"N_COORD97":2546496.7200000002,"ADDRESS":"公園路７６９巷３０弄３號","OBJECTID":204449},"geometry":{"x":169532.12000000104,"y":2546496.7200000025}},{"attributes":{"ID":204451,"DIS_CODE":0,"TOWNNAME":"北區","LI":"正覺里","LIN":"25鄰","STREET":"公園路","SECT":" ","MAREA":" ","LANE":"７６９巷","ALLEY":"３０弄","HOUSE_NO":"４０號","E_COORD97":169460.79999999999,"N_COORD97":2546534.3999999999,"ADDRESS":"公園路７６９巷３０弄４０號","OBJECTID":204450},"geometry":{"x":169460.80000000075,"y":2546534.4000000041}},{"attributes":{"ID":204452,"DIS_CODE":0,"TOWNNAME":"北區","LI":"正覺里","LIN":"25鄰","STREET":"公園路","SECT":" ","MAREA":" ","LANE":"７６９巷","ALLEY":"３０弄","HOUSE_NO":"４１號","E_COORD97":169452.63,"N_COORD97":2546521.3599999999,"ADDRESS":"公園路７６９巷３０弄４１號","OBJECTID":204451},"geometry":{"x":169452.62999999989,"y":2546521.3600000013}},{"attributes":{"ID":204453,"DIS_CODE":0,"TOWNNAME":"北區","LI":"正覺里","LIN":"25鄰","STREET":"公園路","SECT":" ","MAREA":" ","LANE":"７６９巷","ALLEY":"３０弄","HOUSE_NO":"４２號","E_COORD97":169455.92000000001,"N_COORD97":2546535.4300000002,"ADDRESS":"公園路７６９巷３０弄４２號","OBJECTID":204452},"geometry":{"x":169455.91999999993,"y":2546535.4299999997}},{"attributes":{"ID":204454,"DIS_CODE":0,"TOWNNAME":"北區","LI":"正覺里","LIN":"25鄰","STREET":"公園路","SECT":" ","MAREA":" ","LANE":"７６９巷","ALLEY":"３０弄","HOUSE_NO":"４３號","E_COORD97":169448.48999999999,"N_COORD97":2546522.3900000001,"ADDRESS":"公園路７６９巷３０弄４３號","OBJECTID":204453},"geometry":{"x":169448.49000000115,"y":2546522.3900000025}},{"attributes":{"ID":204455,"DIS_CODE":0,"TOWNNAME":"北區","LI":"正覺里","LIN":"25鄰","STREET":"公園路","SECT":" ","MAREA":" ","LANE":"７６９巷","ALLEY":"３０弄","HOUSE_NO":"４５號","E_COORD97":169444.73999999999,"N_COORD97":2546524.5499999998,"ADDRESS":"公園路７６９巷３０弄４５號","OBJECTID":204454},"geometry":{"x":169444.74000000115,"y":2546524.5500000026}},{"attributes":{"ID":204456,"DIS_CODE":0,"TOWNNAME":"將軍區","LI":"西和里","LIN":"2鄰","STREET":" ","SECT":" ","MAREA":"西和","LANE":" ","ALLEY":" ","HOUSE_NO":"２０之２號","E_COORD97":163256.85000000001,"N_COORD97":2566414.7999999998,"ADDRESS":"西和２０之２號","OBJECTID":204455},"geometry":{"x":163256.84999999963,"y":2566414.8000000007}},{"attributes":{"ID":204457,"DIS_CODE":0,"TOWNNAME":"將軍區","LI":"西和里","LIN":"2鄰","STREET":" ","SECT":" ","MAREA":"西和","LANE":" ","ALLEY":" ","HOUSE_NO":"２０之３號","E_COORD97":163252.82000000001,"N_COORD97":2566412.6800000002,"ADDRESS":"西和２０之３號","OBJECTID":204456},"geometry":{"x":163252.8200000003,"y":2566412.6800000034}},{"attributes":{"ID":204458,"DIS_CODE":0,"TOWNNAME":"將軍區","LI":"西華里","LIN":"2鄰","STREET":" ","SECT":" ","MAREA":"西華","LANE":" ","ALLEY":" ","HOUSE_NO":"１８號","E_COORD97":163788.14000000001,"N_COORD97":2566471.6899999999,"ADDRESS":"西華１８號","OBJECTID":204457},"geometry":{"x":163788.1400000006,"y":2566471.6900000013}},{"attributes":{"ID":204459,"DIS_CODE":0,"TOWNNAME":"將軍區","LI":"西華里","LIN":"2鄰","STREET":" ","SECT":" ","MAREA":"西華","LANE":" ","ALLEY":" ","HOUSE_NO":"１９號","E_COORD97":163833.16,"N_COORD97":2566476.5299999998,"ADDRESS":"西華１９號","OBJECTID":204458},"geometry":{"x":163833.16000000015,"y":2566476.5299999993}},{"attributes":{"ID":204460,"DIS_CODE":0,"TOWNNAME":"將軍區","LI":"西華里","LIN":"2鄰","STREET":" ","SECT":" ","MAREA":"西華","LANE":" ","ALLEY":" ","HOUSE_NO":"２０號","E_COORD97":163832.94,"N_COORD97":2566473,"ADDRESS":"西華２０號","OBJECTID":204459},"geometry":{"x":163832.94000000041,"y":2566473.0000000019}},{"attributes":{"ID":204461,"DIS_CODE":0,"TOWNNAME":"將軍區","LI":"西華里","LIN":"2鄰","STREET":" ","SECT":" ","MAREA":"西華","LANE":" ","ALLEY":" ","HOUSE_NO":"２１號","E_COORD97":163832.60999999999,"N_COORD97":2566469.3599999999,"ADDRESS":"西華２１號","OBJECTID":204460},"geometry":{"x":163832.6100000022,"y":2566469.3600000013}},{"attributes":{"ID":204462,"DIS_CODE":0,"TOWNNAME":"將軍區","LI":"西華里","LIN":"2鄰","STREET":" ","SECT":" ","MAREA":"西華","LANE":" ","ALLEY":" ","HOUSE_NO":"２２號","E_COORD97":163832.25,"N_COORD97":2566465.5699999998,"ADDRESS":"西華２２號","OBJECTID":204461},"geometry":{"x":163832.25,"y":2566465.5700000022}},{"attributes":{"ID":204463,"DIS_CODE":0,"TOWNNAME":"北區","LI":"正覺里","LIN":"25鄰","STREET":"公園路","SECT":" ","MAREA":" ","LANE":"７６９巷","ALLEY":"３０弄","HOUSE_NO":"４７號","E_COORD97":169446.42999999999,"N_COORD97":2546538.25,"ADDRESS":"公園路７６９巷３０弄４７號","OBJECTID":204462},"geometry":{"x":169446.43000000063,"y":2546538.2500000037}},{"attributes":{"ID":204464,"DIS_CODE":0,"TOWNNAME":"永康區","LI":"蔦松里","LIN":"9鄰","STREET":"中正北路","SECT":" ","MAREA":" ","LANE":" ","ALLEY":" ","HOUSE_NO":"７０７號","E_COORD97":174257.54000000001,"N_COORD97":2549502.7400000002,"ADDRESS":"中正北路７０７號","OBJECTID":204463},"geometry":{"x":174257.54000000004,"y":2549502.7400000021}},{"attributes":{"ID":204465,"DIS_CODE":0,"TOWNNAME":"北區","LI":"正覺里","LIN":"25鄰","STREET":"公園路","SECT":" ","MAREA":" ","LANE":"７６９巷","ALLEY":"３０弄","HOUSE_NO":"４號","E_COORD97":169537.39999999999,"N_COORD97":2546510.4399999999,"ADDRESS":"公園路７６９巷３０弄４號","OBJECTID":204464},"geometry":{"x":169537.4000000013,"y":2546510.4400000013}},{"attributes":{"ID":204466,"DIS_CODE":0,"TOWNNAME":"北區","LI":"正覺里","LIN":"25鄰","STREET":"公園路","SECT":" ","MAREA":" ","LANE":"７６９巷","ALLEY":"３０弄","HOUSE_NO":"５號","E_COORD97":169527.98999999999,"N_COORD97":2546497.75,"ADDRESS":"公園路７６９巷３０弄５號","OBJECTID":204465},"geometry":{"x":169527.99000000115,"y":2546497.7500000037}},{"attributes":{"ID":204467,"DIS_CODE":0,"TOWNNAME":"北區","LI":"正覺里","LIN":"25鄰","STREET":"公園路","SECT":" ","MAREA":" ","LANE":"７６９巷","ALLEY":"３０弄","HOUSE_NO":"６號","E_COORD97":169532.98999999999,"N_COORD97":2546511.6600000001,"ADDRESS":"公園路７６９巷３０弄６號","OBJECTID":204466},"geometry":{"x":169532.99000000115,"y":2546511.6599999983}},{"attributes":{"ID":204468,"DIS_CODE":0,"TOWNNAME":"北區","LI":"正覺里","LIN":"25鄰","STREET":"公園路","SECT":" ","MAREA":" ","LANE":"７６９巷","ALLEY":"３０弄","HOUSE_NO":"７號","E_COORD97":169523.95000000001,"N_COORD97":2546498.8799999999,"ADDRESS":"公園路７６９巷３０弄７號","OBJECTID":204467},"geometry":{"x":169523.95000000019,"y":2546498.8800000027}},{"attributes":{"ID":204469,"DIS_CODE":0,"TOWNNAME":"北區","LI":"正覺里","LIN":"25鄰","STREET":"公園路","SECT":" ","MAREA":" ","LANE":"７６９巷","ALLEY":"３０弄","HOUSE_NO":"８號","E_COORD97":169528.57000000001,"N_COORD97":2546513.2599999998,"ADDRESS":"公園路７６９巷３０弄８號","OBJECTID":204468},"geometry":{"x":169528.57000000216,"y":2546513.2599999998}},{"attributes":{"ID":204470,"DIS_CODE":0,"TOWNNAME":"北區","LI":"正覺里","LIN":"25鄰","STREET":"公園路","SECT":" ","MAREA":" ","LANE":"７６９巷","ALLEY":"３０弄","HOUSE_NO":"９號","E_COORD97":169519.73000000001,"N_COORD97":2546500,"ADDRESS":"公園路７６９巷３０弄９號","OBJECTID":204469},"geometry":{"x":169519.73000000138,"y":2546500.0000000019}},{"attributes":{"ID":204471,"DIS_CODE":0,"TOWNNAME":"六甲區","LI":"二甲里","LIN":"25鄰","STREET":"和平街","SECT":" ","MAREA":" ","LANE":"４８０巷","ALLEY":"６弄","HOUSE_NO":"１１號","E_COORD97":182924.92999999999,"N_COORD97":2570060.7400000002,"ADDRESS":"和平街４８０巷６弄１１號","OBJECTID":204470},"geometry":{"x":182924.93000000063,"y":2570060.7399999984}},{"attributes":{"ID":204472,"DIS_CODE":0,"TOWNNAME":"六甲區","LI":"二甲里","LIN":"25鄰","STREET":"和平街","SECT":" ","MAREA":" ","LANE":"４８０巷","ALLEY":"６弄","HOUSE_NO":"１３號","E_COORD97":182910.98000000001,"N_COORD97":2570049.02,"ADDRESS":"和平街４８０巷６弄１３號","OBJECTID":204471},"geometry":{"x":182910.98000000045,"y":2570049.0200000014}},{"attributes":{"ID":204473,"DIS_CODE":0,"TOWNNAME":"六甲區","LI":"二甲里","LIN":"25鄰","STREET":"和平街","SECT":" ","MAREA":" ","LANE":"４８０巷","ALLEY":"６弄","HOUSE_NO":"１號","E_COORD97":182930,"N_COORD97":2570078.8399999999,"ADDRESS":"和平街４８０巷６弄１號","OBJECTID":204472},"geometry":{"x":182930.00000000093,"y":2570078.8399999999}},{"attributes":{"ID":204474,"DIS_CODE":0,"TOWNNAME":"六甲區","LI":"二甲里","LIN":"25鄰","STREET":"和平街","SECT":" ","MAREA":" ","LANE":"４８０巷","ALLEY":"６弄","HOUSE_NO":"３號","E_COORD97":182929.03,"N_COORD97":2570075.21,"ADDRESS":"和平街４８０巷６弄３號","OBJECTID":204473},"geometry":{"x":182929.03000000026,"y":2570075.209999999}},{"attributes":{"ID":204475,"DIS_CODE":0,"TOWNNAME":"六甲區","LI":"二甲里","LIN":"25鄰","STREET":"和平街","SECT":" ","MAREA":" ","LANE":"４８０巷","ALLEY":"６弄","HOUSE_NO":"５號","E_COORD97":182927.91,"N_COORD97":2570071.71,"ADDRESS":"和平街４８０巷６弄５號","OBJECTID":204474},"geometry":{"x":182927.91000000015,"y":2570071.7100000009}},{"attributes":{"ID":204476,"DIS_CODE":0,"TOWNNAME":"六甲區","LI":"二甲里","LIN":"25鄰","STREET":"和平街","SECT":" ","MAREA":" ","LANE":"４８０巷","ALLEY":"６弄","HOUSE_NO":"７號","E_COORD97":182927.14000000001,"N_COORD97":2570068.2200000002,"ADDRESS":"和平街４８０巷６弄７號","OBJECTID":204475},"geometry":{"x":182927.13999999966,"y":2570068.2200000044}},{"attributes":{"ID":204477,"DIS_CODE":0,"TOWNNAME":"六甲區","LI":"二甲里","LIN":"25鄰","STREET":"和平街","SECT":" ","MAREA":" ","LANE":"４８０巷","ALLEY":"６弄","HOUSE_NO":"９號","E_COORD97":182926.07000000001,"N_COORD97":2570064.8700000001,"ADDRESS":"和平街４８０巷６弄９號","OBJECTID":204476},"geometry":{"x":182926.07000000123,"y":2570064.8700000029}},{"attributes":{"ID":204478,"DIS_CODE":0,"TOWNNAME":"六甲區","LI":"六甲里","LIN":"25鄰","STREET":"信義街","SECT":" ","MAREA":" ","LANE":"２３８巷","ALLEY":"１弄","HOUSE_NO":"１０號","E_COORD97":183392.92000000001,"N_COORD97":2569825.9700000002,"ADDRESS":"信義街２３８巷１弄１０號","OBJECTID":204477},"geometry":{"x":183392.92000000086,"y":2569825.9700000044}},{"attributes":{"ID":204479,"DIS_CODE":0,"TOWNNAME":"六甲區","LI":"六甲里","LIN":"25鄰","STREET":"信義街","SECT":" ","MAREA":" ","LANE":"２３８巷","ALLEY":"１弄","HOUSE_NO":"１２號","E_COORD97":183394.48000000001,"N_COORD97":2569829.7999999998,"ADDRESS":"信義街２３８巷１弄１２號","OBJECTID":204478},"geometry":{"x":183394.48000000138,"y":2569829.8000000007}},{"attributes":{"ID":204480,"DIS_CODE":0,"TOWNNAME":"六甲區","LI":"六甲里","LIN":"25鄰","STREET":"信義街","SECT":" ","MAREA":" ","LANE":"２３８巷","ALLEY":"１弄","HOUSE_NO":"１４號","E_COORD97":183396.07000000001,"N_COORD97":2569833.5299999998,"ADDRESS":"信義街２３８巷１弄１４號","OBJECTID":204479},"geometry":{"x":183396.07000000123,"y":2569833.5299999993}},{"attributes":{"ID":204481,"DIS_CODE":0,"TOWNNAME":"六甲區","LI":"六甲里","LIN":"25鄰","STREET":"信義街","SECT":" ","MAREA":" ","LANE":"２３８巷","ALLEY":"１弄","HOUSE_NO":"１６號","E_COORD97":183397.48999999999,"N_COORD97":2569837.4100000001,"ADDRESS":"信義街２３８巷１弄１６號","OBJECTID":204480},"geometry":{"x":183397.49000000209,"y":2569837.410000002}},{"attributes":{"ID":204482,"DIS_CODE":0,"TOWNNAME":"六甲區","LI":"六甲里","LIN":"25鄰","STREET":"信義街","SECT":" ","MAREA":" ","LANE":"２３８巷","ALLEY":"１弄","HOUSE_NO":"１８號","E_COORD97":183399.09,"N_COORD97":2569841.21,"ADDRESS":"信義街２３８巷１弄１８號","OBJECTID":204481},"geometry":{"x":183399.08999999985,"y":2569841.2100000009}},{"attributes":{"ID":204483,"DIS_CODE":0,"TOWNNAME":"六甲區","LI":"六甲里","LIN":"25鄰","STREET":"信義街","SECT":" ","MAREA":" ","LANE":"２３８巷","ALLEY":"１弄","HOUSE_NO":"２號","E_COORD97":183387.63,"N_COORD97":2569810.9700000002,"ADDRESS":"信義街２３８巷１弄２號","OBJECTID":204482},"geometry":{"x":183387.63000000175,"y":2569810.9700000007}},{"attributes":{"ID":204484,"DIS_CODE":0,"TOWNNAME":"將軍區","LI":"西華里","LIN":"2鄰","STREET":" ","SECT":" ","MAREA":"西華","LANE":" ","ALLEY":" ","HOUSE_NO":"２３之６號","E_COORD97":163830.42000000001,"N_COORD97":2566447.6499999999,"ADDRESS":"西華２３之６號","OBJECTID":204483},"geometry":{"x":163830.42000000086,"y":2566447.6500000041}},{"attributes":{"ID":204485,"DIS_CODE":0,"TOWNNAME":"六甲區","LI":"六甲里","LIN":"25鄰","STREET":"信義街","SECT":" ","MAREA":" ","LANE":"２３８巷","ALLEY":"１弄","HOUSE_NO":"４號","E_COORD97":183388.69,"N_COORD97":2569814.5,"ADDRESS":"信義街２３８巷１弄４號","OBJECTID":204484},"geometry":{"x":183388.69000000041,"y":2569814.5}},{"attributes":{"ID":204486,"DIS_CODE":0,"TOWNNAME":"六甲區","LI":"六甲里","LIN":"25鄰","STREET":"信義街","SECT":" ","MAREA":" ","LANE":"２３８巷","ALLEY":"１弄","HOUSE_NO":"６號","E_COORD97":183390.23000000001,"N_COORD97":2569818.7599999998,"ADDRESS":"信義街２３８巷１弄６號","OBJECTID":204485},"geometry":{"x":183390.23000000045,"y":2569818.7599999998}},{"attributes":{"ID":204487,"DIS_CODE":0,"TOWNNAME":"六甲區","LI":"六甲里","LIN":"25鄰","STREET":"信義街","SECT":" ","MAREA":" ","LANE":"２３８巷","ALLEY":"１弄","HOUSE_NO":"８號","E_COORD97":183391.53,"N_COORD97":2569822.2599999998,"ADDRESS":"信義街２３８巷１弄８號","OBJECTID":204486},"geometry":{"x":183391.53000000026,"y":2569822.2599999998}},{"attributes":{"ID":204488,"DIS_CODE":0,"TOWNNAME":"六甲區","LI":"甲南里","LIN":"25鄰","STREET":"珊瑚路","SECT":" ","MAREA":" ","LANE":"２０巷","ALLEY":"１弄","HOUSE_NO":"１０號","E_COORD97":183688.95999999999,"N_COORD97":2569430.1800000002,"ADDRESS":"珊瑚路２０巷１弄１０號","OBJECTID":204487},"geometry":{"x":183688.96000000183,"y":2569430.1800000034}},{"attributes":{"ID":204489,"DIS_CODE":0,"TOWNNAME":"六甲區","LI":"甲南里","LIN":"25鄰","STREET":"珊瑚路","SECT":" ","MAREA":" ","LANE":"２０巷","ALLEY":"１弄","HOUSE_NO":"２號","E_COORD97":183668.67999999999,"N_COORD97":2569446.0099999998,"ADDRESS":"珊瑚路２０巷１弄２號","OBJECTID":204488},"geometry":{"x":183668.68000000063,"y":2569446.0100000016}},{"attributes":{"ID":204490,"DIS_CODE":0,"TOWNNAME":"六甲區","LI":"甲南里","LIN":"25鄰","STREET":"珊瑚路","SECT":" ","MAREA":" ","LANE":"２０巷","ALLEY":"１弄","HOUSE_NO":"４號","E_COORD97":183674.19,"N_COORD97":2569441.98,"ADDRESS":"珊瑚路２０巷１弄４號","OBJECTID":204489},"geometry":{"x":183674.18999999948,"y":2569441.9800000004}},{"attributes":{"ID":204491,"DIS_CODE":0,"TOWNNAME":"六甲區","LI":"甲南里","LIN":"25鄰","STREET":"珊瑚路","SECT":" ","MAREA":" ","LANE":"２０巷","ALLEY":"１弄","HOUSE_NO":"６號","E_COORD97":183678.67000000001,"N_COORD97":2569438.3100000001,"ADDRESS":"珊瑚路２０巷１弄６號","OBJECTID":204490},"geometry":{"x":183678.66999999993,"y":2569438.3100000024}},{"attributes":{"ID":204492,"DIS_CODE":0,"TOWNNAME":"六甲區","LI":"甲南里","LIN":"25鄰","STREET":"珊瑚路","SECT":" ","MAREA":" ","LANE":"２０巷","ALLEY":"１弄","HOUSE_NO":"８號","E_COORD97":183682.47,"N_COORD97":2569435,"ADDRESS":"珊瑚路２０巷１弄８號","OBJECTID":204491},"geometry":{"x":183682.47000000067,"y":2569435.0000000037}},{"attributes":{"ID":204493,"DIS_CODE":0,"TOWNNAME":"六甲區","LI":"甲南里","LIN":"25鄰","STREET":"珊瑚路","SECT":" ","MAREA":" ","LANE":"１２２巷","ALLEY":"１７弄","HOUSE_NO":"１２號","E_COORD97":183925.03,"N_COORD97":2569029.48,"ADDRESS":"珊瑚路１２２巷１７弄１２號","OBJECTID":204492},"geometry":{"x":183925.03000000119,"y":2569029.4800000023}},{"attributes":{"ID":204494,"DIS_CODE":0,"TOWNNAME":"將軍區","LI":"西華里","LIN":"2鄰","STREET":" ","SECT":" ","MAREA":"西華","LANE":" ","ALLEY":" ","HOUSE_NO":"２３號","E_COORD97":163834.51999999999,"N_COORD97":2566456.3399999999,"ADDRESS":"西華２３號","OBJECTID":204493},"geometry":{"x":163834.52000000048,"y":2566456.3400000017}},{"attributes":{"ID":204495,"DIS_CODE":0,"TOWNNAME":"北區","LI":"六甲里","LIN":"9鄰","STREET":"西門路","SECT":"四段","MAREA":" ","LANE":" ","ALLEY":" ","HOUSE_NO":"３３２號","E_COORD97":168982.88,"N_COORD97":2546006.5499999998,"ADDRESS":"西門路四段３３２號","OBJECTID":204494},"geometry":{"x":168982.87999999989,"y":2546006.5500000007}},{"attributes":{"ID":204496,"DIS_CODE":0,"TOWNNAME":"北區","LI":"六甲里","LIN":"9鄰","STREET":"西門路","SECT":"四段","MAREA":" ","LANE":" ","ALLEY":" ","HOUSE_NO":"３３４號","E_COORD97":168983.67999999999,"N_COORD97":2546010.4399999999,"ADDRESS":"西門路四段３３４號","OBJECTID":204495},"geometry":{"x":168983.68000000063,"y":2546010.4399999995}},{"attributes":{"ID":204497,"DIS_CODE":0,"TOWNNAME":"六甲區","LI":"甲南里","LIN":"25鄰","STREET":"珊瑚路","SECT":" ","MAREA":" ","LANE":"１２２巷","ALLEY":"２弄","HOUSE_NO":"２１號","E_COORD97":183790.70000000001,"N_COORD97":2569144.3900000001,"ADDRESS":"珊瑚路１２２巷２弄２１號","OBJECTID":204496},"geometry":{"x":183790.70000000019,"y":2569144.3900000006}},{"attributes":{"ID":204498,"DIS_CODE":0,"TOWNNAME":"北區","LI":"六甲里","LIN":"9鄰","STREET":"西門路","SECT":"四段","MAREA":" ","LANE":" ","ALLEY":" ","HOUSE_NO":"３３６號","E_COORD97":168986.07999999999,"N_COORD97":2546015.3300000001,"ADDRESS":"西門路四段３３６號","OBJECTID":204497},"geometry":{"x":168986.08000000101,"y":2546015.3300000001}},{"attributes":{"ID":204499,"DIS_CODE":0,"TOWNNAME":"六甲區","LI":"甲南里","LIN":"25鄰","STREET":"珊瑚路","SECT":" ","MAREA":" ","LANE":"１２２巷","ALLEY":"２弄","HOUSE_NO":"２６號","E_COORD97":183765.37,"N_COORD97":2569243.1000000001,"ADDRESS":"珊瑚路１２２巷２弄２６號","OBJECTID":204498},"geometry":{"x":183765.37000000011,"y":2569243.0999999996}},{"attributes":{"ID":204500,"DIS_CODE":0,"TOWNNAME":"六甲區","LI":"甲南里","LIN":"25鄰","STREET":"珊瑚路","SECT":" ","MAREA":" ","LANE":"１２２巷","ALLEY":"２弄","HOUSE_NO":"２８號","E_COORD97":183759.79000000001,"N_COORD97":2569245.1099999999,"ADDRESS":"珊瑚路１２２巷２弄２８號","OBJECTID":204499},"geometry":{"x":183759.79000000097,"y":2569245.1100000013}},{"attributes":{"ID":204501,"DIS_CODE":0,"TOWNNAME":"將軍區","LI":"忠興里","LIN":"2鄰","STREET":" ","SECT":" ","MAREA":"忠興","LANE":" ","ALLEY":" ","HOUSE_NO":"３０之９號","E_COORD97":163821.76999999999,"N_COORD97":2566736.9900000002,"ADDRESS":"忠興３０之９號","OBJECTID":204500},"geometry":{"x":163821.76999999955,"y":2566736.9900000021}},{"attributes":{"ID":204502,"DIS_CODE":0,"TOWNNAME":"六甲區","LI":"甲南里","LIN":"25鄰","STREET":"珊瑚路","SECT":" ","MAREA":" ","LANE":"１２２巷","ALLEY":"２弄","HOUSE_NO":"３０號","E_COORD97":183750.57999999999,"N_COORD97":2569251.0299999998,"ADDRESS":"珊瑚路１２２巷２弄３０號","OBJECTID":204501},"geometry":{"x":183750.58000000007,"y":2569251.0300000031}},{"attributes":{"ID":204503,"DIS_CODE":0,"TOWNNAME":"六甲區","LI":"甲南里","LIN":"25鄰","STREET":"珊瑚路","SECT":" ","MAREA":" ","LANE":"１２２巷","ALLEY":"２弄","HOUSE_NO":"３２號","E_COORD97":183746.64999999999,"N_COORD97":2569252.9199999999,"ADDRESS":"珊瑚路１２２巷２弄３２號","OBJECTID":204502},"geometry":{"x":183746.65000000037,"y":2569252.9200000018}},{"attributes":{"ID":204504,"DIS_CODE":0,"TOWNNAME":"六甲區","LI":"甲南里","LIN":"25鄰","STREET":"珊瑚路","SECT":" ","MAREA":" ","LANE":"１２２巷","ALLEY":"２弄","HOUSE_NO":"３６號","E_COORD97":183742.67000000001,"N_COORD97":2569257.2599999998,"ADDRESS":"珊瑚路１２２巷２弄３６號","OBJECTID":204503},"geometry":{"x":183742.66999999993,"y":2569257.2600000016}},{"attributes":{"ID":204505,"DIS_CODE":0,"TOWNNAME":"六甲區","LI":"甲南里","LIN":"25鄰","STREET":"珊瑚路","SECT":" ","MAREA":" ","LANE":"１２２巷","ALLEY":"２弄","HOUSE_NO":"３８號","E_COORD97":183738.17999999999,"N_COORD97":2569258.52,"ADDRESS":"珊瑚路１２２巷２弄３８號","OBJECTID":204504},"geometry":{"x":183738.18000000063,"y":2569258.5200000014}},{"attributes":{"ID":204506,"DIS_CODE":0,"TOWNNAME":"六甲區","LI":"甲南里","LIN":"25鄰","STREET":"珊瑚路","SECT":" ","MAREA":" ","LANE":"１２２巷","ALLEY":"２弄","HOUSE_NO":"３號","E_COORD97":183877.01999999999,"N_COORD97":2569168.8900000001,"ADDRESS":"珊瑚路１２２巷２弄３號","OBJECTID":204505},"geometry":{"x":183877.02000000048,"y":2569168.8900000043}},{"attributes":{"ID":204507,"DIS_CODE":0,"TOWNNAME":"北區","LI":"六甲里","LIN":"9鄰","STREET":"西門路","SECT":"四段","MAREA":" ","LANE":" ","ALLEY":" ","HOUSE_NO":"３３８號","E_COORD97":168987.07999999999,"N_COORD97":2546019.52,"ADDRESS":"西門路四段３３８號","OBJECTID":204506},"geometry":{"x":168987.08000000007,"y":2546019.5199999996}},{"attributes":{"ID":204508,"DIS_CODE":0,"TOWNNAME":"北區","LI":"和順里","LIN":"9鄰","STREET":"民德路","SECT":" ","MAREA":" ","LANE":" ","ALLEY":" ","HOUSE_NO":"３４號","E_COORD97":168242.28,"N_COORD97":2545168.7999999998,"ADDRESS":"民德路３４號","OBJECTID":204507},"geometry":{"x":168242.28000000212,"y":2545168.7999999989}},{"attributes":{"ID":204509,"DIS_CODE":0,"TOWNNAME":"將軍區","LI":"西華里","LIN":"2鄰","STREET":" ","SECT":" ","MAREA":"西華","LANE":" ","ALLEY":" ","HOUSE_NO":"２８號","E_COORD97":163807.78,"N_COORD97":2566434.21,"ADDRESS":"西華２８號","OBJECTID":204508},"geometry":{"x":163807.78000000119,"y":2566434.2100000046}},{"attributes":{"ID":204510,"DIS_CODE":0,"TOWNNAME":"六甲區","LI":"甲南里","LIN":"25鄰","STREET":"珊瑚路","SECT":" ","MAREA":" ","LANE":"１２２巷","ALLEY":"２弄","HOUSE_NO":"４０號","E_COORD97":183733.89999999999,"N_COORD97":2569260.4900000002,"ADDRESS":"珊瑚路１２２巷２弄４０號","OBJECTID":204509},"geometry":{"x":183733.90000000224,"y":2569260.4900000021}},{"attributes":{"ID":204511,"DIS_CODE":0,"TOWNNAME":"六甲區","LI":"甲南里","LIN":"25鄰","STREET":"珊瑚路","SECT":" ","MAREA":" ","LANE":"１２２巷","ALLEY":"２弄","HOUSE_NO":"４２號","E_COORD97":183728.92999999999,"N_COORD97":2569262.6299999999,"ADDRESS":"珊瑚路１２２巷２弄４２號","OBJECTID":204510},"geometry":{"x":183728.9299999997,"y":2569262.629999999}},{"attributes":{"ID":204512,"DIS_CODE":0,"TOWNNAME":"六甲區","LI":"甲南里","LIN":"25鄰","STREET":"珊瑚路","SECT":" ","MAREA":" ","LANE":"１２２巷","ALLEY":"２弄","HOUSE_NO":"５６號","E_COORD97":183701.47,"N_COORD97":2569267.1800000002,"ADDRESS":"珊瑚路１２２巷２弄５６號","OBJECTID":204511},"geometry":{"x":183701.46999999974,"y":2569267.1799999997}},{"attributes":{"ID":204513,"DIS_CODE":0,"TOWNNAME":"六甲區","LI":"甲南里","LIN":"25鄰","STREET":"珊瑚路","SECT":" ","MAREA":" ","LANE":"１２２巷","ALLEY":"２弄","HOUSE_NO":"６０號","E_COORD97":183688.5,"N_COORD97":2569272.6699999999,"ADDRESS":"珊瑚路１２２巷２弄６０號","OBJECTID":204512},"geometry":{"x":183688.5,"y":2569272.6700000018}},{"attributes":{"ID":204514,"DIS_CODE":0,"TOWNNAME":"六甲區","LI":"甲南里","LIN":"25鄰","STREET":"珊瑚路","SECT":" ","MAREA":" ","LANE":"１２２巷","ALLEY":"２弄","HOUSE_NO":"７號","E_COORD97":183847.54999999999,"N_COORD97":2569185.77,"ADDRESS":"珊瑚路１２２巷２弄７號","OBJECTID":204513},"geometry":{"x":183847.55000000168,"y":2569185.7700000014}},{"attributes":{"ID":204515,"DIS_CODE":0,"TOWNNAME":"永康區","LI":"龍潭里","LIN":"14鄰","STREET":"龍安街","SECT":" ","MAREA":" ","LANE":" ","ALLEY":" ","HOUSE_NO":"９３號","E_COORD97":174595.20000000001,"N_COORD97":2548310.4900000002,"ADDRESS":"龍安街９３號","OBJECTID":204514},"geometry":{"x":174595.20000000112,"y":2548310.4900000021}},{"attributes":{"ID":204516,"DIS_CODE":0,"TOWNNAME":"六甲區","LI":"甲南里","LIN":"25鄰","STREET":"珊瑚路","SECT":" ","MAREA":" ","LANE":"１２２巷","ALLEY":"２弄","HOUSE_NO":"９號","E_COORD97":183837.39999999999,"N_COORD97":2569147.75,"ADDRESS":"珊瑚路１２２巷２弄９號","OBJECTID":204515},"geometry":{"x":183837.4000000013,"y":2569147.75}},{"attributes":{"ID":204517,"DIS_CODE":0,"TOWNNAME":"六甲區","LI":"甲南里","LIN":"25鄰","STREET":"珊瑚路","SECT":" ","MAREA":" ","LANE":"８６巷","ALLEY":"１１弄","HOUSE_NO":"１號","E_COORD97":183774.42000000001,"N_COORD97":2569276.2200000002,"ADDRESS":"珊瑚路８６巷１１弄１號","OBJECTID":204516},"geometry":{"x":183774.42000000086,"y":2569276.2200000025}},{"attributes":{"ID":204518,"DIS_CODE":0,"TOWNNAME":"六甲區","LI":"甲南里","LIN":"25鄰","STREET":"珊瑚路","SECT":" ","MAREA":" ","LANE":"８６巷","ALLEY":"１１弄","HOUSE_NO":"２號","E_COORD97":183768.51999999999,"N_COORD97":2569255.4700000002,"ADDRESS":"珊瑚路８６巷１１弄２號","OBJECTID":204517},"geometry":{"x":183768.52000000048,"y":2569255.4700000007}},{"attributes":{"ID":204519,"DIS_CODE":0,"TOWNNAME":"六甲區","LI":"甲南里","LIN":"25鄰","STREET":"珊瑚路","SECT":" ","MAREA":" ","LANE":"８６巷","ALLEY":"１１弄","HOUSE_NO":"３號","E_COORD97":183779.34,"N_COORD97":2569273.7799999998,"ADDRESS":"珊瑚路８６巷１１弄３號","OBJECTID":204518},"geometry":{"x":183779.33999999892,"y":2569273.7800000012}},{"attributes":{"ID":204520,"DIS_CODE":0,"TOWNNAME":"新營區","LI":"南紙里","LIN":"25鄰","STREET":"建業路","SECT":" ","MAREA":" ","LANE":"２２７巷","ALLEY":"２弄","HOUSE_NO":"３４號","E_COORD97":178027.67999999999,"N_COORD97":2577482.4700000002,"ADDRESS":"建業路２２７巷２弄３４號","OBJECTID":204519},"geometry":{"x":178027.68000000063,"y":2577482.4700000025}},{"attributes":{"ID":204521,"DIS_CODE":0,"TOWNNAME":"柳營區","LI":"光福里","LIN":"25鄰","STREET":"柳營路","SECT":"一段","MAREA":" ","LANE":"６６２巷","ALLEY":"３１弄","HOUSE_NO":"１１號","E_COORD97":179848.23000000001,"N_COORD97":2574491.73,"ADDRESS":"柳營路一段６６２巷３１弄１１號","OBJECTID":204520},"geometry":{"x":179848.23000000138,"y":2574491.7300000004}},{"attributes":{"ID":204522,"DIS_CODE":0,"TOWNNAME":"柳營區","LI":"光福里","LIN":"25鄰","STREET":"柳營路","SECT":"一段","MAREA":" ","LANE":"６６２巷","ALLEY":"３１弄","HOUSE_NO":"１５號","E_COORD97":179847.64000000001,"N_COORD97":2574501.21,"ADDRESS":"柳營路一段６６２巷３１弄１５號","OBJECTID":204521},"geometry":{"x":179847.63999999966,"y":2574501.2100000028}},{"attributes":{"ID":204523,"DIS_CODE":0,"TOWNNAME":"將軍區","LI":"西華里","LIN":"2鄰","STREET":" ","SECT":" ","MAREA":"西華","LANE":" ","ALLEY":" ","HOUSE_NO":"３０號","E_COORD97":163829.51000000001,"N_COORD97":2566427.9500000002,"ADDRESS":"西華３０號","OBJECTID":204522},"geometry":{"x":163829.51000000071,"y":2566427.9500000011}},{"attributes":{"ID":204524,"DIS_CODE":0,"TOWNNAME":"將軍區","LI":"忠興里","LIN":"2鄰","STREET":" ","SECT":" ","MAREA":"忠興","LANE":" ","ALLEY":" ","HOUSE_NO":"３０之２號","E_COORD97":163828.62,"N_COORD97":2566708.2799999998,"ADDRESS":"忠興３０之２號","OBJECTID":204523},"geometry":{"x":163828.62000000011,"y":2566708.2800000012}},{"attributes":{"ID":204525,"DIS_CODE":0,"TOWNNAME":"將軍區","LI":"忠興里","LIN":"2鄰","STREET":" ","SECT":" ","MAREA":"忠興","LANE":" ","ALLEY":" ","HOUSE_NO":"３０之３號","E_COORD97":163827.17000000001,"N_COORD97":2566711.8900000001,"ADDRESS":"忠興３０之３號","OBJECTID":204524},"geometry":{"x":163827.17000000086,"y":2566711.8900000025}},{"attributes":{"ID":204526,"DIS_CODE":0,"TOWNNAME":"將軍區","LI":"忠興里","LIN":"2鄰","STREET":" ","SECT":" ","MAREA":"忠興","LANE":" ","ALLEY":" ","HOUSE_NO":"３０之４號","E_COORD97":163823.89000000001,"N_COORD97":2566716.0600000001,"ADDRESS":"忠興３０之４號","OBJECTID":204525},"geometry":{"x":163823.8900000006,"y":2566716.0600000042}},{"attributes":{"ID":204527,"DIS_CODE":0,"TOWNNAME":"將軍區","LI":"忠興里","LIN":"2鄰","STREET":" ","SECT":" ","MAREA":"忠興","LANE":" ","ALLEY":" ","HOUSE_NO":"３０之５號","E_COORD97":163823.76999999999,"N_COORD97":2566720.1699999999,"ADDRESS":"忠興３０之５號","OBJECTID":204526},"geometry":{"x":163823.76999999862,"y":2566720.1699999999}},{"attributes":{"ID":204528,"DIS_CODE":0,"TOWNNAME":"將軍區","LI":"忠興里","LIN":"2鄰","STREET":" ","SECT":" ","MAREA":"忠興","LANE":" ","ALLEY":" ","HOUSE_NO":"３０之６號","E_COORD97":163823.62,"N_COORD97":2566723.3999999999,"ADDRESS":"忠興３０之６號","OBJECTID":204527},"geometry":{"x":163823.62000000011,"y":2566723.4000000004}},{"attributes":{"ID":204529,"DIS_CODE":0,"TOWNNAME":"歸仁區","LI":"歸南里","LIN":"9鄰","STREET":"民生九街","SECT":" ","MAREA":" ","LANE":" ","ALLEY":" ","HOUSE_NO":"７１號","E_COORD97":176223.59,"N_COORD97":2540149.29,"ADDRESS":"民生九街７１號","OBJECTID":204528},"geometry":{"x":176223.58999999985,"y":2540149.2899999972}},{"attributes":{"ID":204530,"DIS_CODE":0,"TOWNNAME":"歸仁區","LI":"看西里","LIN":"9鄰","STREET":"仁愛五街","SECT":" ","MAREA":" ","LANE":" ","ALLEY":" ","HOUSE_NO":"１８號","E_COORD97":178339.63,"N_COORD97":2540312.2000000002,"ADDRESS":"仁愛五街１８號","OBJECTID":204529},"geometry":{"x":178339.63000000082,"y":2540312.1999999993}},{"attributes":{"ID":204531,"DIS_CODE":0,"TOWNNAME":"柳營區","LI":"光福里","LIN":"25鄰","STREET":"柳營路","SECT":"一段","MAREA":" ","LANE":"６６２巷","ALLEY":"３１弄","HOUSE_NO":"１７號","E_COORD97":179847.07999999999,"N_COORD97":2574505.8300000001,"ADDRESS":"柳營路一段６６２巷３１弄１７號","OBJECTID":204530},"geometry":{"x":179847.08000000101,"y":2574505.8300000019}},{"attributes":{"ID":204532,"DIS_CODE":0,"TOWNNAME":"將軍區","LI":"忠興里","LIN":"2鄰","STREET":" ","SECT":" ","MAREA":"忠興","LANE":" ","ALLEY":" ","HOUSE_NO":"３０之７號","E_COORD97":163823.45000000001,"N_COORD97":2566727.5899999999,"ADDRESS":"忠興３０之７號","OBJECTID":204531},"geometry":{"x":163823.45000000112,"y":2566727.5899999999}},{"attributes":{"ID":204533,"DIS_CODE":0,"TOWNNAME":"將軍區","LI":"忠興里","LIN":"2鄰","STREET":" ","SECT":" ","MAREA":"忠興","LANE":" ","ALLEY":" ","HOUSE_NO":"３０之８號","E_COORD97":163822.72,"N_COORD97":2566732.4500000002,"ADDRESS":"忠興３０之８號","OBJECTID":204532},"geometry":{"x":163822.7200000016,"y":2566732.450000003}},{"attributes":{"ID":204534,"DIS_CODE":0,"TOWNNAME":"柳營區","LI":"光福里","LIN":"25鄰","STREET":"柳營路","SECT":"一段","MAREA":" ","LANE":"６６２巷","ALLEY":"３１弄","HOUSE_NO":"１９號","E_COORD97":179846.51000000001,"N_COORD97":2574510.4500000002,"ADDRESS":"柳營路一段６６２巷３１弄１９號","OBJECTID":204533},"geometry":{"x":179846.50999999978,"y":2574510.4500000011}},{"attributes":{"ID":204535,"DIS_CODE":0,"TOWNNAME":"柳營區","LI":"光福里","LIN":"25鄰","STREET":"柳營路","SECT":"一段","MAREA":" ","LANE":"６６２巷","ALLEY":"３１弄","HOUSE_NO":"１號","E_COORD97":179849.94,"N_COORD97":2574470.98,"ADDRESS":"柳營路一段６６２巷３１弄１號","OBJECTID":204534},"geometry":{"x":179849.94000000227,"y":2574470.9800000023}},{"attributes":{"ID":204536,"DIS_CODE":0,"TOWNNAME":"柳營區","LI":"光福里","LIN":"25鄰","STREET":"柳營路","SECT":"一段","MAREA":" ","LANE":"６６２巷","ALLEY":"３１弄","HOUSE_NO":"２１號","E_COORD97":179845.94,"N_COORD97":2574515.0699999998,"ADDRESS":"柳營路一段６６２巷３１弄２１號","OBJECTID":204535},"geometry":{"x":179845.94000000041,"y":2574515.0700000022}},{"attributes":{"ID":204537,"DIS_CODE":0,"TOWNNAME":"柳營區","LI":"光福里","LIN":"25鄰","STREET":"柳營路","SECT":"一段","MAREA":" ","LANE":"６６２巷","ALLEY":"３１弄","HOUSE_NO":"２３號","E_COORD97":179834.76999999999,"N_COORD97":2574507.29,"ADDRESS":"柳營路一段６６２巷３１弄２３號","OBJECTID":204536},"geometry":{"x":179834.76999999955,"y":2574507.2899999991}},{"attributes":{"ID":204538,"DIS_CODE":0,"TOWNNAME":"將軍區","LI":"忠興里","LIN":"2鄰","STREET":" ","SECT":" ","MAREA":"忠興","LANE":" ","ALLEY":" ","HOUSE_NO":"３０號","E_COORD97":163827.20000000001,"N_COORD97":2566693.8399999999,"ADDRESS":"忠興３０號","OBJECTID":204537},"geometry":{"x":163827.20000000112,"y":2566693.8400000017}},{"attributes":{"ID":204539,"DIS_CODE":0,"TOWNNAME":"柳營區","LI":"光福里","LIN":"25鄰","STREET":"柳營路","SECT":"一段","MAREA":" ","LANE":"６６２巷","ALLEY":"３１弄","HOUSE_NO":"２５號","E_COORD97":179830.84,"N_COORD97":2574506.8599999999,"ADDRESS":"柳營路一段６６２巷３１弄２５號","OBJECTID":204538},"geometry":{"x":179830.83999999985,"y":2574506.8599999994}},{"attributes":{"ID":204540,"DIS_CODE":0,"TOWNNAME":"柳營區","LI":"光福里","LIN":"25鄰","STREET":"柳營路","SECT":"一段","MAREA":" ","LANE":"６６２巷","ALLEY":"３１弄","HOUSE_NO":"２７號","E_COORD97":179826.91,"N_COORD97":2574506.4399999999,"ADDRESS":"柳營路一段６６２巷３１弄２７號","OBJECTID":204539},"geometry":{"x":179826.91000000108,"y":2574506.4399999995}},{"attributes":{"ID":204541,"DIS_CODE":0,"TOWNNAME":"將軍區","LI":"忠興里","LIN":"2鄰","STREET":" ","SECT":" ","MAREA":"忠興","LANE":" ","ALLEY":" ","HOUSE_NO":"３２之１號","E_COORD97":163768.69,"N_COORD97":2566757.8399999999,"ADDRESS":"忠興３２之１號","OBJECTID":204540},"geometry":{"x":163768.69000000041,"y":2566757.8400000036}},{"attributes":{"ID":204542,"DIS_CODE":0,"TOWNNAME":"將軍區","LI":"忠興里","LIN":"2鄰","STREET":" ","SECT":" ","MAREA":"忠興","LANE":" ","ALLEY":" ","HOUSE_NO":"３２之２號","E_COORD97":163791.06,"N_COORD97":2566714.9700000002,"ADDRESS":"忠興３２之２號","OBJECTID":204541},"geometry":{"x":163791.05999999959,"y":2566714.9700000025}},{"attributes":{"ID":204543,"DIS_CODE":0,"TOWNNAME":"將軍區","LI":"忠興里","LIN":"2鄰","STREET":" ","SECT":" ","MAREA":"忠興","LANE":" ","ALLEY":" ","HOUSE_NO":"３２之３號","E_COORD97":163790.06,"N_COORD97":2566719.6600000001,"ADDRESS":"忠興３２之３號","OBJECTID":204542},"geometry":{"x":163790.06000000052,"y":2566719.660000002}},{"attributes":{"ID":204544,"DIS_CODE":0,"TOWNNAME":"將軍區","LI":"忠興里","LIN":"2鄰","STREET":" ","SECT":" ","MAREA":"忠興","LANE":" ","ALLEY":" ","HOUSE_NO":"３２之４號","E_COORD97":163789.59,"N_COORD97":2566724.54,"ADDRESS":"忠興３２之４號","OBJECTID":204543},"geometry":{"x":163789.58999999985,"y":2566724.5399999991}},{"attributes":{"ID":204545,"DIS_CODE":0,"TOWNNAME":"將軍區","LI":"忠興里","LIN":"2鄰","STREET":" ","SECT":" ","MAREA":"忠興","LANE":" ","ALLEY":" ","HOUSE_NO":"３２之５號","E_COORD97":163787.5,"N_COORD97":2566728.8500000001,"ADDRESS":"忠興３２之５號","OBJECTID":204544},"geometry":{"x":163787.50000000093,"y":2566728.8499999996}},{"attributes":{"ID":204546,"DIS_CODE":0,"TOWNNAME":"柳營區","LI":"光福里","LIN":"25鄰","STREET":"柳營路","SECT":"一段","MAREA":" ","LANE":"６６２巷","ALLEY":"３１弄","HOUSE_NO":"２９號","E_COORD97":179822.98999999999,"N_COORD97":2574506.0099999998,"ADDRESS":"柳營路一段６６２巷３１弄２９號","OBJECTID":204545},"geometry":{"x":179822.99000000115,"y":2574506.0099999998}},{"attributes":{"ID":204547,"DIS_CODE":0,"TOWNNAME":"柳營區","LI":"光福里","LIN":"25鄰","STREET":"柳營路","SECT":"一段","MAREA":" ","LANE":"６６２巷","ALLEY":"３１弄","HOUSE_NO":"３１號","E_COORD97":179819.06,"N_COORD97":2574505.5800000001,"ADDRESS":"柳營路一段６６２巷３１弄３１號","OBJECTID":204546},"geometry":{"x":179819.05999999959,"y":2574505.5800000001}},{"attributes":{"ID":204548,"DIS_CODE":0,"TOWNNAME":"柳營區","LI":"光福里","LIN":"25鄰","STREET":"柳營路","SECT":"一段","MAREA":" ","LANE":"６６２巷","ALLEY":"３１弄","HOUSE_NO":"３３號","E_COORD97":179816.64999999999,"N_COORD97":2574529.0699999998,"ADDRESS":"柳營路一段６６２巷３１弄３３號","OBJECTID":204547},"geometry":{"x":179816.6500000013,"y":2574529.0700000003}},{"attributes":{"ID":204549,"DIS_CODE":0,"TOWNNAME":"柳營區","LI":"光福里","LIN":"25鄰","STREET":"柳營路","SECT":"一段","MAREA":" ","LANE":"６６２巷","ALLEY":"３１弄","HOUSE_NO":"３５號","E_COORD97":179820.95999999999,"N_COORD97":2574529.6200000001,"ADDRESS":"柳營路一段６６２巷３１弄３５號","OBJECTID":204548},"geometry":{"x":179820.96000000089,"y":2574529.620000001}},{"attributes":{"ID":204550,"DIS_CODE":0,"TOWNNAME":"柳營區","LI":"光福里","LIN":"25鄰","STREET":"柳營路","SECT":"一段","MAREA":" ","LANE":"６６２巷","ALLEY":"３１弄","HOUSE_NO":"３７號","E_COORD97":179825.26999999999,"N_COORD97":2574530.1699999999,"ADDRESS":"柳營路一段６６２巷３１弄３７號","OBJECTID":204549},"geometry":{"x":179825.27000000048,"y":2574530.1700000018}},{"attributes":{"ID":204551,"DIS_CODE":0,"TOWNNAME":"柳營區","LI":"光福里","LIN":"25鄰","STREET":"柳營路","SECT":"一段","MAREA":" ","LANE":"６６２巷","ALLEY":"３１弄","HOUSE_NO":"３９號","E_COORD97":179829.57999999999,"N_COORD97":2574530.7200000002,"ADDRESS":"柳營路一段６６２巷３１弄３９號","OBJECTID":204550},"geometry":{"x":179829.58000000007,"y":2574530.7200000025}},{"attributes":{"ID":204552,"DIS_CODE":0,"TOWNNAME":"安南區","LI":"溪心里","LIN":"19鄰","STREET":"功安一街","SECT":" ","MAREA":" ","LANE":" ","ALLEY":" ","HOUSE_NO":"４５號","E_COORD97":166081.10999999999,"N_COORD97":2549868.46,"ADDRESS":"功安一街４５號","OBJECTID":204551},"geometry":{"x":166081.11000000127,"y":2549868.4600000028}},{"attributes":{"ID":204553,"DIS_CODE":0,"TOWNNAME":"柳營區","LI":"光福里","LIN":"25鄰","STREET":"柳營路","SECT":"一段","MAREA":" ","LANE":"６６２巷","ALLEY":"３１弄","HOUSE_NO":"３號","E_COORD97":179849.60000000001,"N_COORD97":2574475.1299999999,"ADDRESS":"柳營路一段６６２巷３１弄３號","OBJECTID":204552},"geometry":{"x":179849.5999999987,"y":2574475.1300000008}},{"attributes":{"ID":204554,"DIS_CODE":0,"TOWNNAME":"柳營區","LI":"光福里","LIN":"25鄰","STREET":"柳營路","SECT":"一段","MAREA":" ","LANE":"６６２巷","ALLEY":"３１弄","HOUSE_NO":"４１號","E_COORD97":179833.88,"N_COORD97":2574531.2599999998,"ADDRESS":"柳營路一段６６２巷３１弄４１號","OBJECTID":204553},"geometry":{"x":179833.87999999989,"y":2574531.2599999998}},{"attributes":{"ID":204555,"DIS_CODE":0,"TOWNNAME":"柳營區","LI":"光福里","LIN":"25鄰","STREET":"柳營路","SECT":"一段","MAREA":" ","LANE":"６６２巷","ALLEY":"３１弄","HOUSE_NO":"４３號","E_COORD97":179845.03,"N_COORD97":2574524.1099999999,"ADDRESS":"柳營路一段６６２巷３１弄４３號","OBJECTID":204554},"geometry":{"x":179845.03000000026,"y":2574524.1100000013}},{"attributes":{"ID":204556,"DIS_CODE":0,"TOWNNAME":"柳營區","LI":"光福里","LIN":"25鄰","STREET":"柳營路","SECT":"一段","MAREA":" ","LANE":"６６２巷","ALLEY":"３１弄","HOUSE_NO":"４５號","E_COORD97":179844.48999999999,"N_COORD97":2574528.5499999998,"ADDRESS":"柳營路一段６６２巷３１弄４５號","OBJECTID":204555},"geometry":{"x":179844.49000000115,"y":2574528.5500000026}},{"attributes":{"ID":204557,"DIS_CODE":0,"TOWNNAME":"將軍區","LI":"忠興里","LIN":"2鄰","STREET":" ","SECT":" ","MAREA":"忠興","LANE":" ","ALLEY":" ","HOUSE_NO":"３２之６號","E_COORD97":163795.14999999999,"N_COORD97":2566773.27,"ADDRESS":"忠興３２之６號","OBJECTID":204556},"geometry":{"x":163795.15000000224,"y":2566773.2699999996}},{"attributes":{"ID":204558,"DIS_CODE":0,"TOWNNAME":"柳營區","LI":"光福里","LIN":"25鄰","STREET":"柳營路","SECT":"一段","MAREA":" ","LANE":"６６２巷","ALLEY":"３１弄","HOUSE_NO":"４７號","E_COORD97":179843.95000000001,"N_COORD97":2574532.9900000002,"ADDRESS":"柳營路一段６６２巷３１弄４７號","OBJECTID":204557},"geometry":{"x":179843.95000000019,"y":2574532.9900000002}},{"attributes":{"ID":204559,"DIS_CODE":0,"TOWNNAME":"將軍區","LI":"忠興里","LIN":"2鄰","STREET":" ","SECT":" ","MAREA":"忠興","LANE":" ","ALLEY":" ","HOUSE_NO":"３２之７號","E_COORD97":163799.37,"N_COORD97":2566771.8799999999,"ADDRESS":"忠興３２之７號","OBJECTID":204558},"geometry":{"x":163799.37000000011,"y":2566771.879999999}},{"attributes":{"ID":204560,"DIS_CODE":0,"TOWNNAME":"永康區","LI":"復華里","LIN":"1鄰","STREET":"復國二路","SECT":" ","MAREA":" ","LANE":" ","ALLEY":" ","HOUSE_NO":"２４８號","E_COORD97":172995.03,"N_COORD97":2545963.52,"ADDRESS":"復國二路２４８號","OBJECTID":204559},"geometry":{"x":172995.03000000026,"y":2545963.5200000014}},{"attributes":{"ID":204561,"DIS_CODE":0,"TOWNNAME":"永康區","LI":"龍潭里","LIN":"21鄰","STREET":"龍潭街","SECT":" ","MAREA":" ","LANE":" ","ALLEY":" ","HOUSE_NO":"２９４號","E_COORD97":174940.73999999999,"N_COORD97":2548478.5800000001,"ADDRESS":"龍潭街２９４號","OBJECTID":204560},"geometry":{"x":174940.74000000115,"y":2548478.5799999982}},{"attributes":{"ID":204562,"DIS_CODE":0,"TOWNNAME":"永康區","LI":"蔦松里","LIN":"3鄰","STREET":"蔦松一街","SECT":" ","MAREA":" ","LANE":" ","ALLEY":" ","HOUSE_NO":"７號","E_COORD97":174034.07999999999,"N_COORD97":2549337.5600000001,"ADDRESS":"蔦松一街７號","OBJECTID":204561},"geometry":{"x":174034.08000000194,"y":2549337.5600000024}},{"attributes":{"ID":204563,"DIS_CODE":0,"TOWNNAME":"白河區","LI":"外角里","LIN":"7鄰","STREET":"開明街","SECT":" ","MAREA":" ","LANE":" ","ALLEY":" ","HOUSE_NO":"４５號","E_COORD97":190740.17999999999,"N_COORD97":2583311.98,"ADDRESS":"開明街４５號","OBJECTID":204562},"geometry":{"x":190740.1799999997,"y":2583311.9800000004}},{"attributes":{"ID":204564,"DIS_CODE":0,"TOWNNAME":"安南區","LI":"溪心里","LIN":"18鄰","STREET":"仁安二街","SECT":" ","MAREA":" ","LANE":" ","ALLEY":" ","HOUSE_NO":"１７號","E_COORD97":165947.31,"N_COORD97":2550113.3500000001,"ADDRESS":"仁安二街１７號","OBJECTID":204563},"geometry":{"x":165947.30999999959,"y":2550113.3499999996}},{"attributes":{"ID":204565,"DIS_CODE":0,"TOWNNAME":"白河區","LI":"外角里","LIN":"7鄰","STREET":"開明街","SECT":" ","MAREA":" ","LANE":" ","ALLEY":" ","HOUSE_NO":"４３號","E_COORD97":190741.03,"N_COORD97":2583316.2200000002,"ADDRESS":"開明街４３號","OBJECTID":204564},"geometry":{"x":190741.03000000119,"y":2583316.2200000025}},{"attributes":{"ID":204566,"DIS_CODE":0,"TOWNNAME":"白河區","LI":"外角里","LIN":"7鄰","STREET":"開明街","SECT":" ","MAREA":" ","LANE":" ","ALLEY":" ","HOUSE_NO":"４４號","E_COORD97":190724.94,"N_COORD97":2583332.8700000001,"ADDRESS":"開明街４４號","OBJECTID":204565},"geometry":{"x":190724.94000000134,"y":2583332.870000001}},{"attributes":{"ID":204567,"DIS_CODE":0,"TOWNNAME":"安南區","LI":"溪心里","LIN":"19鄰","STREET":"功安一街","SECT":" ","MAREA":" ","LANE":" ","ALLEY":" ","HOUSE_NO":"２１號","E_COORD97":166105.85999999999,"N_COORD97":2549839.98,"ADDRESS":"功安一街２１號","OBJECTID":204566},"geometry":{"x":166105.8600000022,"y":2549839.9800000023}},{"attributes":{"ID":204568,"DIS_CODE":0,"TOWNNAME":"安南區","LI":"溪心里","LIN":"19鄰","STREET":"功安一街","SECT":" ","MAREA":" ","LANE":" ","ALLEY":" ","HOUSE_NO":"２３號","E_COORD97":166104.79000000001,"N_COORD97":2549846.8999999999,"ADDRESS":"功安一街２３號","OBJECTID":204567},"geometry":{"x":166104.79000000097,"y":2549846.9000000022}},{"attributes":{"ID":204569,"DIS_CODE":0,"TOWNNAME":"安南區","LI":"溪心里","LIN":"19鄰","STREET":"功安一街","SECT":" ","MAREA":" ","LANE":" ","ALLEY":" ","HOUSE_NO":"２５號","E_COORD97":166097.20000000001,"N_COORD97":2549848.8799999999,"ADDRESS":"功安一街２５號","OBJECTID":204568},"geometry":{"x":166097.20000000112,"y":2549848.8800000027}},{"attributes":{"ID":204570,"DIS_CODE":0,"TOWNNAME":"安南區","LI":"溪心里","LIN":"19鄰","STREET":"功安一街","SECT":" ","MAREA":" ","LANE":" ","ALLEY":" ","HOUSE_NO":"２７號","E_COORD97":166094.31,"N_COORD97":2549852.5899999999,"ADDRESS":"功安一街２７號","OBJECTID":204569},"geometry":{"x":166094.31000000052,"y":2549852.5900000017}},{"attributes":{"ID":204571,"DIS_CODE":0,"TOWNNAME":"安南區","LI":"溪心里","LIN":"19鄰","STREET":"功安一街","SECT":" ","MAREA":" ","LANE":" ","ALLEY":" ","HOUSE_NO":"２９號","E_COORD97":166091.34,"N_COORD97":2549855.4700000002,"ADDRESS":"功安一街２９號","OBJECTID":204570},"geometry":{"x":166091.33999999985,"y":2549855.4700000007}},{"attributes":{"ID":204572,"DIS_CODE":0,"TOWNNAME":"柳營區","LI":"光福里","LIN":"25鄰","STREET":"柳營路","SECT":"一段","MAREA":" ","LANE":"６６２巷","ALLEY":"３１弄","HOUSE_NO":"４９號","E_COORD97":179843.41,"N_COORD97":2574537.4300000002,"ADDRESS":"柳營路一段６６２巷３１弄４９號","OBJECTID":204571},"geometry":{"x":179843.41000000108,"y":2574537.4299999997}},{"attributes":{"ID":204573,"DIS_CODE":0,"TOWNNAME":"柳營區","LI":"光福里","LIN":"25鄰","STREET":"柳營路","SECT":"一段","MAREA":" ","LANE":"６６２巷","ALLEY":"３１弄","HOUSE_NO":"５９號","E_COORD97":179842.09,"N_COORD97":2574558.5299999998,"ADDRESS":"柳營路一段６６２巷３１弄５９號","OBJECTID":204572},"geometry":{"x":179842.09000000078,"y":2574558.5300000012}},{"attributes":{"ID":204574,"DIS_CODE":0,"TOWNNAME":"柳營區","LI":"光福里","LIN":"25鄰","STREET":"柳營路","SECT":"一段","MAREA":" ","LANE":"６６２巷","ALLEY":"３１弄","HOUSE_NO":"５號","E_COORD97":179849.25,"N_COORD97":2574479.2799999998,"ADDRESS":"柳營路一段６６２巷３１弄５號","OBJECTID":204573},"geometry":{"x":179849.25000000093,"y":2574479.2799999993}},{"attributes":{"ID":204575,"DIS_CODE":0,"TOWNNAME":"柳營區","LI":"光福里","LIN":"25鄰","STREET":"柳營路","SECT":"一段","MAREA":" ","LANE":"６６２巷","ALLEY":"３１弄","HOUSE_NO":"７０號","E_COORD97":179874.51999999999,"N_COORD97":2574580.8900000001,"ADDRESS":"柳營路一段６６２巷３１弄７０號","OBJECTID":204574},"geometry":{"x":179874.52000000048,"y":2574580.8900000025}},{"attributes":{"ID":204576,"DIS_CODE":0,"TOWNNAME":"柳營區","LI":"光福里","LIN":"25鄰","STREET":"柳營路","SECT":"一段","MAREA":" ","LANE":"６６２巷","ALLEY":"３１弄","HOUSE_NO":"７９號","E_COORD97":179833.45999999999,"N_COORD97":2574587.02,"ADDRESS":"柳營路一段６６２巷３１弄７９號","OBJECTID":204575},"geometry":{"x":179833.45999999996,"y":2574587.0199999996}},{"attributes":{"ID":204577,"DIS_CODE":0,"TOWNNAME":"柳營區","LI":"光福里","LIN":"25鄰","STREET":"柳營路","SECT":"一段","MAREA":" ","LANE":"６６２巷","ALLEY":"３１弄","HOUSE_NO":"７號","E_COORD97":179848.91,"N_COORD97":2574483.4300000002,"ADDRESS":"柳營路一段６６２巷３１弄７號","OBJECTID":204576},"geometry":{"x":179848.91000000108,"y":2574483.4299999978}},{"attributes":{"ID":204578,"DIS_CODE":0,"TOWNNAME":"柳營區","LI":"光福里","LIN":"25鄰","STREET":"柳營路","SECT":"一段","MAREA":" ","LANE":"６６２巷","ALLEY":"３１弄","HOUSE_NO":"８１號","E_COORD97":179829.01999999999,"N_COORD97":2574586.4900000002,"ADDRESS":"柳營路一段６６２巷３１弄８１號","OBJECTID":204577},"geometry":{"x":179829.01999999955,"y":2574586.4900000021}},{"attributes":{"ID":204579,"DIS_CODE":0,"TOWNNAME":"柳營區","LI":"光福里","LIN":"25鄰","STREET":"柳營路","SECT":"一段","MAREA":" ","LANE":"６６２巷","ALLEY":"３１弄","HOUSE_NO":"８３號","E_COORD97":179824.57000000001,"N_COORD97":2574585.96,"ADDRESS":"柳營路一段６６２巷３１弄８３號","OBJECTID":204578},"geometry":{"x":179824.5700000003,"y":2574585.9600000009}},{"attributes":{"ID":204580,"DIS_CODE":0,"TOWNNAME":"柳營區","LI":"光福里","LIN":"25鄰","STREET":"柳營路","SECT":"一段","MAREA":" ","LANE":"６６２巷","ALLEY":"３１弄","HOUSE_NO":"８５號","E_COORD97":179820.12,"N_COORD97":2574585.4300000002,"ADDRESS":"柳營路一段６６２巷３１弄８５號","OBJECTID":204579},"geometry":{"x":179820.12000000104,"y":2574585.4300000034}},{"attributes":{"ID":204581,"DIS_CODE":0,"TOWNNAME":"柳營區","LI":"光福里","LIN":"25鄰","STREET":"柳營路","SECT":"一段","MAREA":" ","LANE":"６６２巷","ALLEY":"３１弄","HOUSE_NO":"８７號","E_COORD97":179815.67000000001,"N_COORD97":2574584.8999999999,"ADDRESS":"柳營路一段６６２巷３１弄８７號","OBJECTID":204580},"geometry":{"x":179815.67000000179,"y":2574584.9000000004}},{"attributes":{"ID":204582,"DIS_CODE":0,"TOWNNAME":"柳營區","LI":"光福里","LIN":"25鄰","STREET":"柳營路","SECT":"一段","MAREA":" ","LANE":"６６２巷","ALLEY":"３１弄","HOUSE_NO":"８９號","E_COORD97":179811.22,"N_COORD97":2574584.3700000001,"ADDRESS":"柳營路一段６６２巷３１弄８９號","OBJECTID":204581},"geometry":{"x":179811.21999999974,"y":2574584.3700000029}},{"attributes":{"ID":204583,"DIS_CODE":0,"TOWNNAME":"柳營區","LI":"光福里","LIN":"25鄰","STREET":"柳營路","SECT":"一段","MAREA":" ","LANE":"６６２巷","ALLEY":"３１弄","HOUSE_NO":"９５號","E_COORD97":179819.98999999999,"N_COORD97":2574606.5899999999,"ADDRESS":"柳營路一段６６２巷３１弄９５號","OBJECTID":204582},"geometry":{"x":179819.99000000022,"y":2574606.5899999999}},{"attributes":{"ID":204584,"DIS_CODE":0,"TOWNNAME":"柳營區","LI":"光福里","LIN":"25鄰","STREET":"柳營路","SECT":"一段","MAREA":" ","LANE":"６６２巷","ALLEY":"３１弄","HOUSE_NO":"９７號","E_COORD97":179831.19,"N_COORD97":2574608.4700000002,"ADDRESS":"柳營路一段６６２巷３１弄９７號","OBJECTID":204583},"geometry":{"x":179831.18999999948,"y":2574608.4700000007}},{"attributes":{"ID":204585,"DIS_CODE":0,"TOWNNAME":"柳營區","LI":"光福里","LIN":"25鄰","STREET":"柳營路","SECT":"一段","MAREA":" ","LANE":"６６２巷","ALLEY":"３１弄","HOUSE_NO":"９號","E_COORD97":179848.57000000001,"N_COORD97":2574487.5800000001,"ADDRESS":"柳營路一段６６２巷３１弄９號","OBJECTID":204584},"geometry":{"x":179848.5700000003,"y":2574487.5800000019}},{"attributes":{"ID":204586,"DIS_CODE":0,"TOWNNAME":"安南區","LI":"溪心里","LIN":"19鄰","STREET":"功安一街","SECT":" ","MAREA":" ","LANE":" ","ALLEY":" ","HOUSE_NO":"３１號","E_COORD97":166086.56,"N_COORD97":2549857.7799999998,"ADDRESS":"功安一街３１號","OBJECTID":204585},"geometry":{"x":166086.55999999866,"y":2549857.7800000012}},{"attributes":{"ID":204587,"DIS_CODE":0,"TOWNNAME":"安南區","LI":"溪心里","LIN":"19鄰","STREET":"功安一街","SECT":" ","MAREA":" ","LANE":" ","ALLEY":" ","HOUSE_NO":"３３號","E_COORD97":166087.14000000001,"N_COORD97":2549842.54,"ADDRESS":"功安一街３３號","OBJECTID":204586},"geometry":{"x":166087.13999999966,"y":2549842.540000001}},{"attributes":{"ID":204588,"DIS_CODE":0,"TOWNNAME":"安南區","LI":"溪心里","LIN":"19鄰","STREET":"功安一街","SECT":" ","MAREA":" ","LANE":" ","ALLEY":" ","HOUSE_NO":"３５號","E_COORD97":166085.98000000001,"N_COORD97":2549837.1000000001,"ADDRESS":"功安一街３５號","OBJECTID":204587},"geometry":{"x":166085.98000000045,"y":2549837.0999999996}},{"attributes":{"ID":204589,"DIS_CODE":0,"TOWNNAME":"麻豆區","LI":"港尾里","LIN":"15鄰","STREET":" ","SECT":" ","MAREA":"客子寮","LANE":" ","ALLEY":" ","HOUSE_NO":"２８號","E_COORD97":169765.51000000001,"N_COORD97":2568423.9199999999,"ADDRESS":"客子寮２８號","OBJECTID":204588},"geometry":{"x":169765.50999999978,"y":2568423.9199999999}},{"attributes":{"ID":204590,"DIS_CODE":0,"TOWNNAME":"將軍區","LI":"忠興里","LIN":"2鄰","STREET":" ","SECT":" ","MAREA":"忠興","LANE":" ","ALLEY":" ","HOUSE_NO":"３２之８號","E_COORD97":163781.34,"N_COORD97":2566772.9300000002,"ADDRESS":"忠興３２之８號","OBJECTID":204589},"geometry":{"x":163781.34000000171,"y":2566772.9299999997}},{"attributes":{"ID":204591,"DIS_CODE":0,"TOWNNAME":"六甲區","LI":"甲東里","LIN":"25鄰","STREET":"裕農街","SECT":" ","MAREA":" ","LANE":"２巷","ALLEY":"２１弄","HOUSE_NO":"４之２號","E_COORD97":183946.42999999999,"N_COORD97":2569512.9300000002,"ADDRESS":"裕農街２巷２１弄４之２號","OBJECTID":204590},"geometry":{"x":183946.42999999877,"y":2569512.9299999997}},{"attributes":{"ID":204592,"DIS_CODE":0,"TOWNNAME":"六甲區","LI":"甲東里","LIN":"25鄰","STREET":"裕農街","SECT":" ","MAREA":" ","LANE":"２巷","ALLEY":"２１弄","HOUSE_NO":"６號","E_COORD97":183960.81,"N_COORD97":2569504.6099999999,"ADDRESS":"裕農街２巷２１弄６號","OBJECTID":204591},"geometry":{"x":183960.81000000145,"y":2569504.6099999994}},{"attributes":{"ID":204593,"DIS_CODE":0,"TOWNNAME":"楠西區","LI":"東勢里","LIN":"9鄰","STREET":"水庫路","SECT":" ","MAREA":" ","LANE":" ","ALLEY":" ","HOUSE_NO":"２００號","E_COORD97":197712.26999999999,"N_COORD97":2564256.25,"ADDRESS":"水庫路２００號","OBJECTID":204592},"geometry":{"x":197712.26999999862,"y":2564256.2500000037}},{"attributes":{"ID":204594,"DIS_CODE":0,"TOWNNAME":"楠西區","LI":"東勢里","LIN":"9鄰","STREET":"水庫路","SECT":" ","MAREA":" ","LANE":" ","ALLEY":" ","HOUSE_NO":"２３０號","E_COORD97":197721.87,"N_COORD97":2564190.25,"ADDRESS":"水庫路２３０號","OBJECTID":204593},"geometry":{"x":197721.87000000011,"y":2564190.25}},{"attributes":{"ID":204595,"DIS_CODE":0,"TOWNNAME":"楠西區","LI":"東勢里","LIN":"9鄰","STREET":"水庫路","SECT":" ","MAREA":" ","LANE":" ","ALLEY":" ","HOUSE_NO":"２１２號","E_COORD97":197716.97,"N_COORD97":2564231.25,"ADDRESS":"水庫路２１２號","OBJECTID":204594},"geometry":{"x":197716.97000000067,"y":2564231.25}},{"attributes":{"ID":204596,"DIS_CODE":0,"TOWNNAME":"六甲區","LI":"甲東里","LIN":"25鄰","STREET":"裕農街","SECT":" ","MAREA":" ","LANE":"２巷","ALLEY":"２９弄","HOUSE_NO":"３號","E_COORD97":183921.76999999999,"N_COORD97":2569497.7599999998,"ADDRESS":"裕農街２巷２９弄３號","OBJECTID":204595},"geometry":{"x":183921.76999999955,"y":2569497.7600000035}},{"attributes":{"ID":204597,"DIS_CODE":0,"TOWNNAME":"北區","LI":"成功里","LIN":"25鄰","STREET":"北成路","SECT":" ","MAREA":" ","LANE":"１２８巷","ALLEY":"６７弄","HOUSE_NO":"３１號","E_COORD97":168924.39999999999,"N_COORD97":2546890.8599999999,"ADDRESS":"北成路１２８巷６７弄３１號","OBJECTID":204596},"geometry":{"x":168924.40000000037,"y":2546890.8600000013}},{"attributes":{"ID":204598,"DIS_CODE":0,"TOWNNAME":"北區","LI":"成功里","LIN":"25鄰","STREET":"北成路","SECT":" ","MAREA":" ","LANE":"１２８巷","ALLEY":"６７弄","HOUSE_NO":"３３號","E_COORD97":168920.91,"N_COORD97":2546893.3999999999,"ADDRESS":"北成路１２８巷６７弄３３號","OBJECTID":204597},"geometry":{"x":168920.91000000201,"y":2546893.3999999985}},{"attributes":{"ID":204599,"DIS_CODE":0,"TOWNNAME":"北區","LI":"正覺里","LIN":"15鄰","STREET":"正覺街","SECT":" ","MAREA":" ","LANE":" ","ALLEY":" ","HOUSE_NO":"１０１號","E_COORD97":169307.87,"N_COORD97":2546464.8300000001,"ADDRESS":"正覺街１０１號","OBJECTID":204598},"geometry":{"x":169307.87000000104,"y":2546464.8300000019}},{"attributes":{"ID":204600,"DIS_CODE":0,"TOWNNAME":"新營區","LI":"南紙里","LIN":"25鄰","STREET":"建業路","SECT":" ","MAREA":" ","LANE":"２２７巷","ALLEY":"２弄","HOUSE_NO":"４０號","E_COORD97":178007.20999999999,"N_COORD97":2577483.6800000002,"ADDRESS":"建業路２２７巷２弄４０號","OBJECTID":204599},"geometry":{"x":178007.21000000089,"y":2577483.6800000016}},{"attributes":{"ID":204601,"DIS_CODE":0,"TOWNNAME":"北區","LI":"成功里","LIN":"25鄰","STREET":"北成路","SECT":" ","MAREA":" ","LANE":"１２８巷","ALLEY":"６７弄","HOUSE_NO":"１３號","E_COORD97":168959.95000000001,"N_COORD97":2546872.4300000002,"ADDRESS":"北成路１２８巷６７弄１３號","OBJECTID":204600},"geometry":{"x":168959.95000000112,"y":2546872.4300000034}}]}