{"displayFieldName":"TOWNNAME","fieldAliases":{"ID":"ID","DIS_CODE":"DIS_CODE","TOWNNAME":"TOWNNAME","LI":"LI","LIN":"LIN","STREET":"STREET","SECT":"SECT","MAREA":"MAREA","LANE":"LANE","ALLEY":"ALLEY","HOUSE_NO":"HOUSE_NO","E_COORD97":"E_COORD97","N_COORD97":"N_COORD97","ADDRESS":"ADDRESS","OBJECTID":"OBJECTID"},"geometryType":"esriGeometryPoint","spatialReference":{"wkid":102443,"latestWkid":3826},"fields":[{"name":"ID","type":"esriFieldTypeDouble","alias":"ID"},{"name":"DIS_CODE","type":"esriFieldTypeInteger","alias":"DIS_CODE"},{"name":"TOWNNAME","type":"esriFieldTypeString","alias":"TOWNNAME","length":8},{"name":"LI","type":"esriFieldTypeString","alias":"LI","length":8},{"name":"LIN","type":"esriFieldTypeString","alias":"LIN","length":12},{"name":"STREET","type":"esriFieldTypeString","alias":"STREET","length":20},{"name":"SECT","type":"esriFieldTypeString","alias":"SECT","length":8},{"name":"MAREA","type":"esriFieldTypeString","alias":"MAREA","length":12},{"name":"LANE","type":"esriFieldTypeString","alias":"LANE","length":10},{"name":"ALLEY","type":"esriFieldTypeString","alias":"ALLEY","length":10},{"name":"HOUSE_NO","type":"esriFieldTypeString","alias":"HOUSE_NO","length":20},{"name":"E_COORD97","type":"esriFieldTypeDouble","alias":"E_COORD97"},{"name":"N_COORD97","type":"esriFieldTypeDouble","alias":"N_COORD97"},{"name":"ADDRESS","type":"esriFieldTypeString","alias":"ADDRESS","length":50},{"name":"OBJECTID","type":"esriFieldTypeOID","alias":"OBJECTID"}],"features":[{"attributes":{"ID":397025,"DIS_CODE":0,"TOWNNAME":"安南區","LI":"淵東里","LIN":"16鄰","STREET":"安中路","SECT":"三段","MAREA":" ","LANE":"２５６巷","ALLEY":" ","HOUSE_NO":"８３號","E_COORD97":165696.84,"N_COORD97":2550034.4900000002,"ADDRESS":"安中路三段２５６巷８３號","OBJECTID":397001},"geometry":{"x":165696.84000000171,"y":2550034.4900000002}},{"attributes":{"ID":397026,"DIS_CODE":0,"TOWNNAME":"安南區","LI":"淵東里","LIN":"16鄰","STREET":"安中路","SECT":"三段","MAREA":" ","LANE":"２５６巷","ALLEY":" ","HOUSE_NO":"８５號","E_COORD97":165696.44,"N_COORD97":2550038.6600000001,"ADDRESS":"安中路三段２５６巷８５號","OBJECTID":397002},"geometry":{"x":165696.44000000041,"y":2550038.660000002}},{"attributes":{"ID":397027,"DIS_CODE":0,"TOWNNAME":"安南區","LI":"淵東里","LIN":"16鄰","STREET":"安中路","SECT":"三段","MAREA":" ","LANE":"２５６巷","ALLEY":" ","HOUSE_NO":"８７號","E_COORD97":165696.04999999999,"N_COORD97":2550043.02,"ADDRESS":"安中路三段２５６巷８７號","OBJECTID":397003},"geometry":{"x":165696.05000000075,"y":2550043.0200000014}},{"attributes":{"ID":397028,"DIS_CODE":0,"TOWNNAME":"安南區","LI":"淵東里","LIN":"16鄰","STREET":"安中路","SECT":"三段","MAREA":" ","LANE":"２５６巷","ALLEY":" ","HOUSE_NO":"８９號","E_COORD97":165696.25,"N_COORD97":2550046.5899999999,"ADDRESS":"安中路三段２５６巷８９號","OBJECTID":397004},"geometry":{"x":165696.25000000093,"y":2550046.5899999999}},{"attributes":{"ID":397029,"DIS_CODE":0,"TOWNNAME":"安南區","LI":"淵東里","LIN":"16鄰","STREET":"安中路","SECT":"三段","MAREA":" ","LANE":"２５６巷","ALLEY":" ","HOUSE_NO":"９１號","E_COORD97":165696.04999999999,"N_COORD97":2550050.9500000002,"ADDRESS":"安中路三段２５６巷９１號","OBJECTID":397005},"geometry":{"x":165696.05000000075,"y":2550050.9499999993}},{"attributes":{"ID":397030,"DIS_CODE":0,"TOWNNAME":"安南區","LI":"淵東里","LIN":"16鄰","STREET":"安中路","SECT":"三段","MAREA":" ","LANE":"２５６巷","ALLEY":" ","HOUSE_NO":"９３號","E_COORD97":165695.64999999999,"N_COORD97":2550055.1099999999,"ADDRESS":"安中路三段２５６巷９３號","OBJECTID":397006},"geometry":{"x":165695.6500000013,"y":2550055.1100000013}},{"attributes":{"ID":397031,"DIS_CODE":0,"TOWNNAME":"東區","LI":"崇德里","LIN":"20鄰","STREET":"崇明十四街","SECT":" ","MAREA":" ","LANE":"６０巷","ALLEY":" ","HOUSE_NO":"１２號地下層","E_COORD97":170670.23000000001,"N_COORD97":2541602.1800000002,"ADDRESS":"崇明十四街６０巷１２號地下層","OBJECTID":397007},"geometry":{"x":170670.23000000231,"y":2541602.1800000034}},{"attributes":{"ID":397032,"DIS_CODE":0,"TOWNNAME":"安南區","LI":"淵東里","LIN":"16鄰","STREET":"安中路","SECT":"三段","MAREA":" ","LANE":"２５６巷","ALLEY":" ","HOUSE_NO":"９５號","E_COORD97":165695.45000000001,"N_COORD97":2550059.2799999998,"ADDRESS":"安中路三段２５６巷９５號","OBJECTID":397008},"geometry":{"x":165695.45000000112,"y":2550059.2799999993}},{"attributes":{"ID":397033,"DIS_CODE":0,"TOWNNAME":"安南區","LI":"淵東里","LIN":"16鄰","STREET":"安中路","SECT":"三段","MAREA":" ","LANE":"２５６巷","ALLEY":" ","HOUSE_NO":"９７號","E_COORD97":165695.25,"N_COORD97":2550063.2400000002,"ADDRESS":"安中路三段２５６巷９７號","OBJECTID":397009},"geometry":{"x":165695.25,"y":2550063.2400000002}},{"attributes":{"ID":397034,"DIS_CODE":0,"TOWNNAME":"安南區","LI":"淵東里","LIN":"16鄰","STREET":"安中路","SECT":"三段","MAREA":" ","LANE":"２５６巷","ALLEY":" ","HOUSE_NO":"９９號","E_COORD97":165694.66,"N_COORD97":2550067.4100000001,"ADDRESS":"安中路三段２５６巷９９號","OBJECTID":397010},"geometry":{"x":165694.66000000015,"y":2550067.410000002}},{"attributes":{"ID":397035,"DIS_CODE":0,"TOWNNAME":"安南區","LI":"淵東里","LIN":"16鄰","STREET":"安中路","SECT":"三段","MAREA":" ","LANE":"２５６巷","ALLEY":" ","HOUSE_NO":"１０１號","E_COORD97":165694.06,"N_COORD97":2550071.77,"ADDRESS":"安中路三段２５６巷１０１號","OBJECTID":397011},"geometry":{"x":165694.06000000052,"y":2550071.7700000014}},{"attributes":{"ID":397036,"DIS_CODE":0,"TOWNNAME":"安南區","LI":"淵東里","LIN":"16鄰","STREET":"安中路","SECT":"三段","MAREA":" ","LANE":"２５６巷","ALLEY":" ","HOUSE_NO":"１０３號","E_COORD97":165693.85999999999,"N_COORD97":2550075.9300000002,"ADDRESS":"安中路三段２５６巷１０３號","OBJECTID":397012},"geometry":{"x":165693.8600000022,"y":2550075.9299999997}},{"attributes":{"ID":397037,"DIS_CODE":0,"TOWNNAME":"安南區","LI":"學東里","LIN":"16鄰","STREET":"城北路","SECT":" ","MAREA":" ","LANE":"７３６巷","ALLEY":" ","HOUSE_NO":"５９號之１","E_COORD97":161118.03,"N_COORD97":2553042.5099999998,"ADDRESS":"城北路７３６巷５９號之１","OBJECTID":397013},"geometry":{"x":161118.03000000119,"y":2553042.5100000035}},{"attributes":{"ID":397038,"DIS_CODE":0,"TOWNNAME":"安南區","LI":"學東里","LIN":"16鄰","STREET":"城北路","SECT":" ","MAREA":" ","LANE":"７３６巷","ALLEY":" ","HOUSE_NO":"６３號之１","E_COORD97":161128.62,"N_COORD97":2553042.6600000001,"ADDRESS":"城北路７３６巷６３號之１","OBJECTID":397014},"geometry":{"x":161128.62000000104,"y":2553042.660000002}},{"attributes":{"ID":397039,"DIS_CODE":0,"TOWNNAME":"中西區","LI":"建國里","LIN":"16鄰","STREET":"民生路","SECT":"一段","MAREA":" ","LANE":"１３２巷","ALLEY":" ","HOUSE_NO":"１１號","E_COORD97":168078.70000000001,"N_COORD97":2543908.9300000002,"ADDRESS":"民生路一段１３２巷１１號","OBJECTID":397015},"geometry":{"x":168078.70000000112,"y":2543908.9299999978}},{"attributes":{"ID":397040,"DIS_CODE":0,"TOWNNAME":"中西區","LI":"建國里","LIN":"16鄰","STREET":"民生路","SECT":"一段","MAREA":" ","LANE":"１３２巷","ALLEY":" ","HOUSE_NO":"１３號","E_COORD97":168080.82000000001,"N_COORD97":2543912.52,"ADDRESS":"民生路一段１３２巷１３號","OBJECTID":397016},"geometry":{"x":168080.81999999937,"y":2543912.5200000014}},{"attributes":{"ID":397041,"DIS_CODE":0,"TOWNNAME":"中西區","LI":"建國里","LIN":"16鄰","STREET":"民生路","SECT":"一段","MAREA":" ","LANE":"１３２巷","ALLEY":" ","HOUSE_NO":"１４號","E_COORD97":168088.12,"N_COORD97":2543902.4500000002,"ADDRESS":"民生路一段１３２巷１４號","OBJECTID":397017},"geometry":{"x":168088.12000000011,"y":2543902.4500000011}},{"attributes":{"ID":397042,"DIS_CODE":0,"TOWNNAME":"中西區","LI":"建國里","LIN":"16鄰","STREET":"民生路","SECT":"一段","MAREA":" ","LANE":"１３２巷","ALLEY":" ","HOUSE_NO":"１５號","E_COORD97":168080.5,"N_COORD97":2543916.27,"ADDRESS":"民生路一段１３２巷１５號","OBJECTID":397018},"geometry":{"x":168080.5,"y":2543916.2699999996}},{"attributes":{"ID":397043,"DIS_CODE":0,"TOWNNAME":"中西區","LI":"建國里","LIN":"16鄰","STREET":"民生路","SECT":"一段","MAREA":" ","LANE":"１３２巷","ALLEY":" ","HOUSE_NO":"１６號","E_COORD97":168090.98000000001,"N_COORD97":2543899.25,"ADDRESS":"民生路一段１３２巷１６號","OBJECTID":397019},"geometry":{"x":168090.98000000138,"y":2543899.25}},{"attributes":{"ID":397044,"DIS_CODE":0,"TOWNNAME":"中西區","LI":"建國里","LIN":"16鄰","STREET":"民生路","SECT":"一段","MAREA":" ","LANE":"１３２巷","ALLEY":" ","HOUSE_NO":"１７號","E_COORD97":168081.31,"N_COORD97":2543918.7200000002,"ADDRESS":"民生路一段１３２巷１７號","OBJECTID":397020},"geometry":{"x":168081.30999999959,"y":2543918.7200000025}},{"attributes":{"ID":397045,"DIS_CODE":0,"TOWNNAME":"中西區","LI":"建國里","LIN":"16鄰","STREET":"民生路","SECT":"一段","MAREA":" ","LANE":"１３２巷","ALLEY":" ","HOUSE_NO":"１８號","E_COORD97":168095.20000000001,"N_COORD97":2543900.2599999998,"ADDRESS":"民生路一段１３２巷１８號","OBJECTID":397021},"geometry":{"x":168095.20000000205,"y":2543900.2600000035}},{"attributes":{"ID":397046,"DIS_CODE":0,"TOWNNAME":"中西區","LI":"建國里","LIN":"16鄰","STREET":"民生路","SECT":"一段","MAREA":" ","LANE":"１３２巷","ALLEY":" ","HOUSE_NO":"２４號","E_COORD97":168090.98000000001,"N_COORD97":2543907,"ADDRESS":"民生路一段１３２巷２４號","OBJECTID":397022},"geometry":{"x":168090.98000000138,"y":2543907.0000000019}},{"attributes":{"ID":397047,"DIS_CODE":0,"TOWNNAME":"中西區","LI":"建國里","LIN":"16鄰","STREET":"民生路","SECT":"一段","MAREA":" ","LANE":"１３２巷","ALLEY":" ","HOUSE_NO":"３號","E_COORD97":168066.79999999999,"N_COORD97":2543878.3500000001,"ADDRESS":"民生路一段１３２巷３號","OBJECTID":397023},"geometry":{"x":168066.79999999981,"y":2543878.3499999996}},{"attributes":{"ID":397048,"DIS_CODE":0,"TOWNNAME":"中西區","LI":"建國里","LIN":"16鄰","STREET":"民生路","SECT":"一段","MAREA":" ","LANE":"１３２巷","ALLEY":" ","HOUSE_NO":"５號","E_COORD97":168071.67999999999,"N_COORD97":2543895.8900000001,"ADDRESS":"民生路一段１３２巷５號","OBJECTID":397024},"geometry":{"x":168071.68000000063,"y":2543895.8900000006}},{"attributes":{"ID":397049,"DIS_CODE":0,"TOWNNAME":"中西區","LI":"建國里","LIN":"16鄰","STREET":"民生路","SECT":"一段","MAREA":" ","LANE":"１３２巷","ALLEY":" ","HOUSE_NO":"７號","E_COORD97":168076.25,"N_COORD97":2543900.9399999999,"ADDRESS":"民生路一段１３２巷７號","OBJECTID":397025},"geometry":{"x":168076.25000000093,"y":2543900.9399999995}},{"attributes":{"ID":397050,"DIS_CODE":0,"TOWNNAME":"中西區","LI":"建國里","LIN":"16鄰","STREET":"民生路","SECT":"一段","MAREA":" ","LANE":"１３２巷","ALLEY":" ","HOUSE_NO":"９號","E_COORD97":168077.56,"N_COORD97":2543905.5099999998,"ADDRESS":"民生路一段１３２巷９號","OBJECTID":397026},"geometry":{"x":168077.56000000052,"y":2543905.5100000035}},{"attributes":{"ID":397051,"DIS_CODE":0,"TOWNNAME":"中西區","LI":"建國里","LIN":"16鄰","STREET":"新美街","SECT":" ","MAREA":" ","LANE":"５０巷","ALLEY":" ","HOUSE_NO":"１０號","E_COORD97":168072.54999999999,"N_COORD97":2543931.2000000002,"ADDRESS":"新美街５０巷１０號","OBJECTID":397027},"geometry":{"x":168072.55000000075,"y":2543931.2000000011}},{"attributes":{"ID":397052,"DIS_CODE":0,"TOWNNAME":"中西區","LI":"建國里","LIN":"16鄰","STREET":"新美街","SECT":" ","MAREA":" ","LANE":"５０巷","ALLEY":" ","HOUSE_NO":"１２號","E_COORD97":168077.29000000001,"N_COORD97":2543929.4700000002,"ADDRESS":"新美街５０巷１２號","OBJECTID":397028},"geometry":{"x":168077.29000000004,"y":2543929.4700000007}},{"attributes":{"ID":397053,"DIS_CODE":0,"TOWNNAME":"中西區","LI":"建國里","LIN":"16鄰","STREET":"新美街","SECT":" ","MAREA":" ","LANE":"５０巷","ALLEY":" ","HOUSE_NO":"１４號","E_COORD97":168080.45000000001,"N_COORD97":2543927.1800000002,"ADDRESS":"新美街５０巷１４號","OBJECTID":397029},"geometry":{"x":168080.45000000112,"y":2543927.1799999997}},{"attributes":{"ID":397054,"DIS_CODE":0,"TOWNNAME":"中西區","LI":"建國里","LIN":"16鄰","STREET":"新美街","SECT":" ","MAREA":" ","LANE":"５０巷","ALLEY":" ","HOUSE_NO":"１６號","E_COORD97":168083.32999999999,"N_COORD97":2543925.3100000001,"ADDRESS":"新美街５０巷１６號","OBJECTID":397030},"geometry":{"x":168083.33000000007,"y":2543925.3100000024}},{"attributes":{"ID":397055,"DIS_CODE":0,"TOWNNAME":"中西區","LI":"建國里","LIN":"16鄰","STREET":"新美街","SECT":" ","MAREA":" ","LANE":"５０巷","ALLEY":" ","HOUSE_NO":"１８號","E_COORD97":168087.48999999999,"N_COORD97":2543923.5899999999,"ADDRESS":"新美街５０巷１８號","OBJECTID":397031},"geometry":{"x":168087.49000000022,"y":2543923.5899999999}},{"attributes":{"ID":397056,"DIS_CODE":0,"TOWNNAME":"中西區","LI":"建國里","LIN":"16鄰","STREET":"民生路","SECT":"一段","MAREA":" ","LANE":"１５６巷","ALLEY":" ","HOUSE_NO":"１０號","E_COORD97":168049.98999999999,"N_COORD97":2543888.8300000001,"ADDRESS":"民生路一段１５６巷１０號","OBJECTID":397032},"geometry":{"x":168049.99000000115,"y":2543888.8300000001}},{"attributes":{"ID":397057,"DIS_CODE":0,"TOWNNAME":"中西區","LI":"建國里","LIN":"16鄰","STREET":"民生路","SECT":"一段","MAREA":" ","LANE":"１５６巷","ALLEY":" ","HOUSE_NO":"１２號","E_COORD97":168055.88,"N_COORD97":2543892.5600000001,"ADDRESS":"民生路一段１５６巷１２號","OBJECTID":397033},"geometry":{"x":168055.87999999989,"y":2543892.5600000024}},{"attributes":{"ID":397058,"DIS_CODE":0,"TOWNNAME":"中西區","LI":"建國里","LIN":"16鄰","STREET":"民生路","SECT":"一段","MAREA":" ","LANE":"１５６巷","ALLEY":" ","HOUSE_NO":"１４號","E_COORD97":168043.23999999999,"N_COORD97":2543898.2999999998,"ADDRESS":"民生路一段１５６巷１４號","OBJECTID":397034},"geometry":{"x":168043.24000000115,"y":2543898.3000000026}},{"attributes":{"ID":397059,"DIS_CODE":0,"TOWNNAME":"中西區","LI":"建國里","LIN":"16鄰","STREET":"民生路","SECT":"一段","MAREA":" ","LANE":"１５６巷","ALLEY":" ","HOUSE_NO":"１６號","E_COORD97":168045.54000000001,"N_COORD97":2543905.6200000001,"ADDRESS":"民生路一段１５６巷１６號","OBJECTID":397035},"geometry":{"x":168045.54000000097,"y":2543905.6199999992}},{"attributes":{"ID":397060,"DIS_CODE":0,"TOWNNAME":"中西區","LI":"建國里","LIN":"16鄰","STREET":"民生路","SECT":"一段","MAREA":" ","LANE":"１５６巷","ALLEY":" ","HOUSE_NO":"１８號","E_COORD97":168047.98000000001,"N_COORD97":2543910.5,"ADDRESS":"民生路一段１５６巷１８號","OBJECTID":397036},"geometry":{"x":168047.98000000138,"y":2543910.5000000019}},{"attributes":{"ID":397061,"DIS_CODE":0,"TOWNNAME":"東區","LI":"富裕里","LIN":"6鄰","STREET":"裕農路","SECT":" ","MAREA":" ","LANE":"２８８巷","ALLEY":" ","HOUSE_NO":"２２號","E_COORD97":170855.64000000001,"N_COORD97":2542935.2799999998,"ADDRESS":"裕農路２８８巷２２號","OBJECTID":397037},"geometry":{"x":170855.6400000006,"y":2542935.2799999993}},{"attributes":{"ID":397062,"DIS_CODE":0,"TOWNNAME":"東區","LI":"富強里","LIN":"10鄰","STREET":"東門路","SECT":"二段","MAREA":" ","LANE":"３０１巷","ALLEY":" ","HOUSE_NO":"１５２號","E_COORD97":171145.12,"N_COORD97":2542731.0899999999,"ADDRESS":"東門路二段３０１巷１５２號","OBJECTID":397038},"geometry":{"x":171145.12000000011,"y":2542731.0899999999}},{"attributes":{"ID":397063,"DIS_CODE":0,"TOWNNAME":"東區","LI":"富強里","LIN":"10鄰","STREET":"東門路","SECT":"二段","MAREA":" ","LANE":"３０１巷","ALLEY":" ","HOUSE_NO":"１５４號","E_COORD97":171149.20000000001,"N_COORD97":2542732.0699999998,"ADDRESS":"東門路二段３０１巷１５４號","OBJECTID":397039},"geometry":{"x":171149.20000000019,"y":2542732.0700000003}},{"attributes":{"ID":397064,"DIS_CODE":0,"TOWNNAME":"東區","LI":"富強里","LIN":"28鄰","STREET":"東門路","SECT":"二段","MAREA":" ","LANE":"３０１巷","ALLEY":" ","HOUSE_NO":"５２號","E_COORD97":170872.51999999999,"N_COORD97":2542707.73,"ADDRESS":"東門路二段３０１巷５２號","OBJECTID":397040},"geometry":{"x":170872.52000000142,"y":2542707.7300000042}},{"attributes":{"ID":397065,"DIS_CODE":0,"TOWNNAME":"東區","LI":"富強里","LIN":"28鄰","STREET":"東門路","SECT":"二段","MAREA":" ","LANE":"３０１巷","ALLEY":" ","HOUSE_NO":"５４號","E_COORD97":170876.29000000001,"N_COORD97":2542706.6800000002,"ADDRESS":"東門路二段３０１巷５４號","OBJECTID":397041},"geometry":{"x":170876.2900000019,"y":2542706.6799999997}},{"attributes":{"ID":397066,"DIS_CODE":0,"TOWNNAME":"東區","LI":"富強里","LIN":"28鄰","STREET":"東門路","SECT":"二段","MAREA":" ","LANE":"３０１巷","ALLEY":" ","HOUSE_NO":"５６號","E_COORD97":170880.07000000001,"N_COORD97":2542708.79,"ADDRESS":"東門路二段３０１巷５６號","OBJECTID":397042},"geometry":{"x":170880.07000000123,"y":2542708.7899999991}},{"attributes":{"ID":397067,"DIS_CODE":0,"TOWNNAME":"東區","LI":"富強里","LIN":"28鄰","STREET":"東門路","SECT":"二段","MAREA":" ","LANE":"３０１巷","ALLEY":" ","HOUSE_NO":"５８號","E_COORD97":170884.45000000001,"N_COORD97":2542707.1299999999,"ADDRESS":"東門路二段３０１巷５８號","OBJECTID":397043},"geometry":{"x":170884.45000000112,"y":2542707.1300000008}},{"attributes":{"ID":397068,"DIS_CODE":0,"TOWNNAME":"東區","LI":"富強里","LIN":"28鄰","STREET":"東門路","SECT":"二段","MAREA":" ","LANE":"３０１巷","ALLEY":" ","HOUSE_NO":"６２號","E_COORD97":170892.60999999999,"N_COORD97":2542706.8300000001,"ADDRESS":"東門路二段３０１巷６２號","OBJECTID":397044},"geometry":{"x":170892.61000000034,"y":2542706.8300000038}},{"attributes":{"ID":397069,"DIS_CODE":0,"TOWNNAME":"東區","LI":"富強里","LIN":"28鄰","STREET":"東門路","SECT":"二段","MAREA":" ","LANE":"３０１巷","ALLEY":" ","HOUSE_NO":"６４號","E_COORD97":170896.53,"N_COORD97":2542708.79,"ADDRESS":"東門路二段３０１巷６４號","OBJECTID":397045},"geometry":{"x":170896.53000000026,"y":2542708.7899999991}},{"attributes":{"ID":397070,"DIS_CODE":0,"TOWNNAME":"東區","LI":"富強里","LIN":"28鄰","STREET":"東門路","SECT":"二段","MAREA":" ","LANE":"３０１巷","ALLEY":" ","HOUSE_NO":"６６號","E_COORD97":170900.16,"N_COORD97":2542706.6800000002,"ADDRESS":"東門路二段３０１巷６６號","OBJECTID":397046},"geometry":{"x":170900.16000000015,"y":2542706.6799999997}},{"attributes":{"ID":397071,"DIS_CODE":0,"TOWNNAME":"東區","LI":"富強里","LIN":"28鄰","STREET":"東門路","SECT":"二段","MAREA":" ","LANE":"３０１巷","ALLEY":" ","HOUSE_NO":"６８號","E_COORD97":170904.23999999999,"N_COORD97":2542708.6400000001,"ADDRESS":"東門路二段３０１巷６８號","OBJECTID":397047},"geometry":{"x":170904.24000000115,"y":2542708.6400000043}},{"attributes":{"ID":397072,"DIS_CODE":0,"TOWNNAME":"東區","LI":"富強里","LIN":"28鄰","STREET":"東門路","SECT":"二段","MAREA":" ","LANE":"３０１巷","ALLEY":" ","HOUSE_NO":"７０號","E_COORD97":170908.76999999999,"N_COORD97":2542708.3399999999,"ADDRESS":"東門路二段３０１巷７０號","OBJECTID":397048},"geometry":{"x":170908.77000000048,"y":2542708.3399999999}},{"attributes":{"ID":397073,"DIS_CODE":0,"TOWNNAME":"東區","LI":"富強里","LIN":"28鄰","STREET":"東門路","SECT":"二段","MAREA":" ","LANE":"３０１巷","ALLEY":" ","HOUSE_NO":"７２號","E_COORD97":170912.39000000001,"N_COORD97":2542710.8999999999,"ADDRESS":"東門路二段３０１巷７２號","OBJECTID":397049},"geometry":{"x":170912.39000000153,"y":2542710.9000000022}},{"attributes":{"ID":397074,"DIS_CODE":0,"TOWNNAME":"東區","LI":"富強里","LIN":"28鄰","STREET":"東門路","SECT":"二段","MAREA":" ","LANE":"３０１巷","ALLEY":" ","HOUSE_NO":"７４號","E_COORD97":170916.17000000001,"N_COORD97":2542707.8900000001,"ADDRESS":"東門路二段３０１巷７４號","OBJECTID":397050},"geometry":{"x":170916.17000000086,"y":2542707.8900000025}},{"attributes":{"ID":397075,"DIS_CODE":0,"TOWNNAME":"中西區","LI":"建國里","LIN":"16鄰","STREET":"民生路","SECT":"一段","MAREA":" ","LANE":"１５６巷","ALLEY":" ","HOUSE_NO":"２０號","E_COORD97":168058.17999999999,"N_COORD97":2543905.9100000001,"ADDRESS":"民生路一段１５６巷２０號","OBJECTID":397051},"geometry":{"x":168058.18000000063,"y":2543905.9100000001}},{"attributes":{"ID":397076,"DIS_CODE":0,"TOWNNAME":"中西區","LI":"建國里","LIN":"16鄰","STREET":"民生路","SECT":"一段","MAREA":" ","LANE":"１５６巷","ALLEY":" ","HOUSE_NO":"２２號","E_COORD97":168060.19,"N_COORD97":2543911.54,"ADDRESS":"民生路一段１５６巷２２號","OBJECTID":397052},"geometry":{"x":168060.19000000134,"y":2543911.540000001}},{"attributes":{"ID":397077,"DIS_CODE":0,"TOWNNAME":"中西區","LI":"建國里","LIN":"16鄰","STREET":"民生路","SECT":"一段","MAREA":" ","LANE":"１５６巷","ALLEY":" ","HOUSE_NO":"２４號","E_COORD97":168049.70999999999,"N_COORD97":2543916.4199999999,"ADDRESS":"民生路一段１５６巷２４號","OBJECTID":397053},"geometry":{"x":168049.71000000089,"y":2543916.4200000037}},{"attributes":{"ID":397078,"DIS_CODE":0,"TOWNNAME":"中西區","LI":"建國里","LIN":"16鄰","STREET":"民生路","SECT":"一段","MAREA":" ","LANE":"１５６巷","ALLEY":" ","HOUSE_NO":"２６號","E_COORD97":168050.70999999999,"N_COORD97":2543920.8700000001,"ADDRESS":"民生路一段１５６巷２６號","OBJECTID":397054},"geometry":{"x":168050.70999999903,"y":2543920.8699999992}},{"attributes":{"ID":397079,"DIS_CODE":0,"TOWNNAME":"中西區","LI":"建國里","LIN":"16鄰","STREET":"民生路","SECT":"一段","MAREA":" ","LANE":"１５６巷","ALLEY":" ","HOUSE_NO":"２８號","E_COORD97":168052.72,"N_COORD97":2543924.3100000001,"ADDRESS":"民生路一段１５６巷２８號","OBJECTID":397055},"geometry":{"x":168052.72000000067,"y":2543924.3100000042}},{"attributes":{"ID":397080,"DIS_CODE":0,"TOWNNAME":"中西區","LI":"萬昌里","LIN":"16鄰","STREET":"青年路","SECT":" ","MAREA":" ","LANE":"１３２巷","ALLEY":" ","HOUSE_NO":"４２號","E_COORD97":168916.59,"N_COORD97":2543501.1600000001,"ADDRESS":"青年路１３２巷４２號","OBJECTID":397056},"geometry":{"x":168916.59000000078,"y":2543501.1600000039}},{"attributes":{"ID":397081,"DIS_CODE":0,"TOWNNAME":"中西區","LI":"萬昌里","LIN":"16鄰","STREET":"青年路","SECT":" ","MAREA":" ","LANE":"１３２巷","ALLEY":" ","HOUSE_NO":"４４號","E_COORD97":168918.12,"N_COORD97":2543493.52,"ADDRESS":"青年路１３２巷４４號","OBJECTID":397057},"geometry":{"x":168918.12000000104,"y":2543493.5199999996}},{"attributes":{"ID":397082,"DIS_CODE":0,"TOWNNAME":"中西區","LI":"萬昌里","LIN":"16鄰","STREET":"青年路","SECT":" ","MAREA":" ","LANE":"１３２巷","ALLEY":" ","HOUSE_NO":"４６號","E_COORD97":168918.5,"N_COORD97":2543489.1800000002,"ADDRESS":"青年路１３２巷４６號","OBJECTID":397058},"geometry":{"x":168918.50000000186,"y":2543489.1799999997}},{"attributes":{"ID":397083,"DIS_CODE":0,"TOWNNAME":"東區","LI":"東安里","LIN":"19鄰","STREET":"長榮路","SECT":"二段","MAREA":" ","LANE":"３２巷","ALLEY":" ","HOUSE_NO":"１５８號","E_COORD97":170167.87,"N_COORD97":2543104.9900000002,"ADDRESS":"長榮路二段３２巷１５８號","OBJECTID":397059},"geometry":{"x":170167.87000000104,"y":2543104.9900000002}},{"attributes":{"ID":397084,"DIS_CODE":0,"TOWNNAME":"東區","LI":"東安里","LIN":"19鄰","STREET":"長榮路","SECT":"二段","MAREA":" ","LANE":"３２巷","ALLEY":" ","HOUSE_NO":"１６０號","E_COORD97":170156.89000000001,"N_COORD97":2543112.3399999999,"ADDRESS":"長榮路二段３２巷１６０號","OBJECTID":397060},"geometry":{"x":170156.8900000006,"y":2543112.3399999999}},{"attributes":{"ID":397085,"DIS_CODE":0,"TOWNNAME":"東區","LI":"東安里","LIN":"19鄰","STREET":"長榮路","SECT":"二段","MAREA":" ","LANE":"３２巷","ALLEY":" ","HOUSE_NO":"１６０號之１","E_COORD97":170148.76000000001,"N_COORD97":2543109.4399999999,"ADDRESS":"長榮路二段３２巷１６０號之１","OBJECTID":397061},"geometry":{"x":170148.75999999978,"y":2543109.4400000013}},{"attributes":{"ID":397086,"DIS_CODE":0,"TOWNNAME":"東區","LI":"富強里","LIN":"28鄰","STREET":"東門路","SECT":"二段","MAREA":" ","LANE":"３０１巷","ALLEY":" ","HOUSE_NO":"６０號","E_COORD97":170888.38,"N_COORD97":2542708.79,"ADDRESS":"東門路二段３０１巷６０號","OBJECTID":397062},"geometry":{"x":170888.37999999989,"y":2542708.7899999991}},{"attributes":{"ID":397087,"DIS_CODE":0,"TOWNNAME":"中西區","LI":"萬昌里","LIN":"16鄰","STREET":"青年路","SECT":" ","MAREA":" ","LANE":"１３２巷","ALLEY":" ","HOUSE_NO":"１０號","E_COORD97":168913.39999999999,"N_COORD97":2543564.2400000002,"ADDRESS":"青年路１３２巷１０號","OBJECTID":397063},"geometry":{"x":168913.4000000013,"y":2543564.2400000002}},{"attributes":{"ID":397088,"DIS_CODE":0,"TOWNNAME":"中西區","LI":"萬昌里","LIN":"16鄰","STREET":"青年路","SECT":" ","MAREA":" ","LANE":"１３２巷","ALLEY":" ","HOUSE_NO":"１６號","E_COORD97":168913.91,"N_COORD97":2543560.1600000001,"ADDRESS":"青年路１３２巷１６號","OBJECTID":397064},"geometry":{"x":168913.91000000015,"y":2543560.160000002}},{"attributes":{"ID":397089,"DIS_CODE":0,"TOWNNAME":"中西區","LI":"萬昌里","LIN":"16鄰","STREET":"青年路","SECT":" ","MAREA":" ","LANE":"１３２巷","ALLEY":" ","HOUSE_NO":"１８號","E_COORD97":168914.42000000001,"N_COORD97":2543555.5600000001,"ADDRESS":"青年路１３２巷１８號","OBJECTID":397065},"geometry":{"x":168914.42000000086,"y":2543555.5600000005}},{"attributes":{"ID":397090,"DIS_CODE":0,"TOWNNAME":"中西區","LI":"萬昌里","LIN":"16鄰","STREET":"青年路","SECT":" ","MAREA":" ","LANE":"１３２巷","ALLEY":" ","HOUSE_NO":"２０號","E_COORD97":168914.42000000001,"N_COORD97":2543550.6099999999,"ADDRESS":"青年路１３２巷２０號","OBJECTID":397066},"geometry":{"x":168914.42000000086,"y":2543550.6099999994}},{"attributes":{"ID":397091,"DIS_CODE":0,"TOWNNAME":"東區","LI":"東安里","LIN":"19鄰","STREET":"長榮路","SECT":"二段","MAREA":" ","LANE":"３２巷","ALLEY":" ","HOUSE_NO":"１６０號之３","E_COORD97":170143.59,"N_COORD97":2543098.1499999999,"ADDRESS":"長榮路二段３２巷１６０號之３","OBJECTID":397067},"geometry":{"x":170143.59000000078,"y":2543098.1500000041}},{"attributes":{"ID":397092,"DIS_CODE":0,"TOWNNAME":"東區","LI":"東安里","LIN":"19鄰","STREET":"長榮路","SECT":"二段","MAREA":" ","LANE":"３２巷","ALLEY":" ","HOUSE_NO":"１６０號之４","E_COORD97":170158.76999999999,"N_COORD97":2543091.5699999998,"ADDRESS":"長榮路二段３２巷１６０號之４","OBJECTID":397068},"geometry":{"x":170158.77000000142,"y":2543091.5699999984}},{"attributes":{"ID":397093,"DIS_CODE":0,"TOWNNAME":"東區","LI":"東安里","LIN":"19鄰","STREET":"長榮路","SECT":"二段","MAREA":" ","LANE":"３２巷","ALLEY":" ","HOUSE_NO":"１６０號之２","E_COORD97":170139.70999999999,"N_COORD97":2543105.4399999999,"ADDRESS":"長榮路二段３２巷１６０號之２","OBJECTID":397069},"geometry":{"x":170139.71000000089,"y":2543105.4400000032}},{"attributes":{"ID":397094,"DIS_CODE":0,"TOWNNAME":"東區","LI":"東安里","LIN":"19鄰","STREET":"長榮路","SECT":"二段","MAREA":" ","LANE":"３２巷","ALLEY":" ","HOUSE_NO":"１６０號之５","E_COORD97":170166.13,"N_COORD97":2543094.3399999999,"ADDRESS":"長榮路二段３２巷１６０號之５","OBJECTID":397070},"geometry":{"x":170166.12999999989,"y":2543094.3400000017}},{"attributes":{"ID":397095,"DIS_CODE":0,"TOWNNAME":"中西區","LI":"萬昌里","LIN":"16鄰","STREET":"青年路","SECT":" ","MAREA":" ","LANE":"１３２巷","ALLEY":" ","HOUSE_NO":"２２號","E_COORD97":168915.70000000001,"N_COORD97":2543546.02,"ADDRESS":"青年路１３２巷２２號","OBJECTID":397071},"geometry":{"x":168915.70000000205,"y":2543546.0200000014}},{"attributes":{"ID":397096,"DIS_CODE":0,"TOWNNAME":"中西區","LI":"萬昌里","LIN":"16鄰","STREET":"青年路","SECT":" ","MAREA":" ","LANE":"１３２巷","ALLEY":" ","HOUSE_NO":"４號","E_COORD97":168912.76999999999,"N_COORD97":2543581.4199999999,"ADDRESS":"青年路１３２巷４號","OBJECTID":397072},"geometry":{"x":168912.77000000142,"y":2543581.4200000018}},{"attributes":{"ID":397097,"DIS_CODE":0,"TOWNNAME":"中西區","LI":"萬昌里","LIN":"16鄰","STREET":"青年路","SECT":" ","MAREA":" ","LANE":"１３２巷","ALLEY":" ","HOUSE_NO":"６號","E_COORD97":168913.39999999999,"N_COORD97":2543576.8300000001,"ADDRESS":"青年路１３２巷６號","OBJECTID":397073},"geometry":{"x":168913.4000000013,"y":2543576.8300000001}},{"attributes":{"ID":397098,"DIS_CODE":0,"TOWNNAME":"中西區","LI":"萬昌里","LIN":"16鄰","STREET":"青年路","SECT":" ","MAREA":" ","LANE":"１３２巷","ALLEY":" ","HOUSE_NO":"８號","E_COORD97":168912.76000000001,"N_COORD97":2543572.5,"ADDRESS":"青年路１３２巷８號","OBJECTID":397074},"geometry":{"x":168912.75999999978,"y":2543572.5}},{"attributes":{"ID":397099,"DIS_CODE":0,"TOWNNAME":"安南區","LI":"海西里","LIN":"16鄰","STREET":"海中街","SECT":" ","MAREA":" ","LANE":"１２１巷","ALLEY":" ","HOUSE_NO":"４０號","E_COORD97":166309.22,"N_COORD97":2549033.2400000002,"ADDRESS":"海中街１２１巷４０號","OBJECTID":397075},"geometry":{"x":166309.21999999974,"y":2549033.2400000002}},{"attributes":{"ID":397100,"DIS_CODE":0,"TOWNNAME":"安南區","LI":"海西里","LIN":"16鄰","STREET":"海中街","SECT":" ","MAREA":" ","LANE":"１２１巷","ALLEY":" ","HOUSE_NO":"２２號","E_COORD97":166339.79999999999,"N_COORD97":2548984.0899999999,"ADDRESS":"海中街１２１巷２２號","OBJECTID":397076},"geometry":{"x":166339.80000000075,"y":2548984.0900000017}},{"attributes":{"ID":397101,"DIS_CODE":0,"TOWNNAME":"安南區","LI":"海南里","LIN":"16鄰","STREET":"府安路","SECT":"七段","MAREA":" ","LANE":"１０２巷","ALLEY":" ","HOUSE_NO":"２７號","E_COORD97":165706.57000000001,"N_COORD97":2545900.46,"ADDRESS":"府安路七段１０２巷２７號","OBJECTID":397077},"geometry":{"x":165706.57000000123,"y":2545900.4600000046}},{"attributes":{"ID":397102,"DIS_CODE":0,"TOWNNAME":"安南區","LI":"海南里","LIN":"16鄰","STREET":"府安路","SECT":"七段","MAREA":" ","LANE":"９３巷","ALLEY":" ","HOUSE_NO":"３號","E_COORD97":165808.31,"N_COORD97":2545827.2999999998,"ADDRESS":"府安路七段９３巷３號","OBJECTID":397078},"geometry":{"x":165808.30999999959,"y":2545827.3000000026}},{"attributes":{"ID":397103,"DIS_CODE":0,"TOWNNAME":"安南區","LI":"海南里","LIN":"16鄰","STREET":"府安路","SECT":"七段","MAREA":" ","LANE":"９３巷","ALLEY":" ","HOUSE_NO":"８號","E_COORD97":165813.81,"N_COORD97":2545857.1000000001,"ADDRESS":"府安路七段９３巷８號","OBJECTID":397079},"geometry":{"x":165813.81000000145,"y":2545857.0999999978}},{"attributes":{"ID":397104,"DIS_CODE":0,"TOWNNAME":"安南區","LI":"海南里","LIN":"16鄰","STREET":"府安路","SECT":"七段","MAREA":" ","LANE":"８４巷","ALLEY":" ","HOUSE_NO":"２６號","E_COORD97":165793.88,"N_COORD97":2545952.3199999998,"ADDRESS":"府安路七段８４巷２６號","OBJECTID":397080},"geometry":{"x":165793.88000000082,"y":2545952.3200000022}},{"attributes":{"ID":397105,"DIS_CODE":0,"TOWNNAME":"安南區","LI":"海南里","LIN":"16鄰","STREET":"府安路","SECT":"七段","MAREA":" ","LANE":"１０２巷","ALLEY":" ","HOUSE_NO":"８號","E_COORD97":165781.29999999999,"N_COORD97":2545837.6000000001,"ADDRESS":"府安路七段１０２巷８號","OBJECTID":397081},"geometry":{"x":165781.29999999981,"y":2545837.6000000015}},{"attributes":{"ID":397106,"DIS_CODE":0,"TOWNNAME":"安南區","LI":"海南里","LIN":"16鄰","STREET":"府安路","SECT":"七段","MAREA":" ","LANE":"１０２巷","ALLEY":" ","HOUSE_NO":"３２號","E_COORD97":165724.23999999999,"N_COORD97":2545911.0800000001,"ADDRESS":"府安路七段１０２巷３２號","OBJECTID":397082},"geometry":{"x":165724.24000000022,"y":2545911.0800000001}},{"attributes":{"ID":397107,"DIS_CODE":0,"TOWNNAME":"安南區","LI":"海南里","LIN":"16鄰","STREET":"府安路","SECT":"七段","MAREA":" ","LANE":"９３巷","ALLEY":" ","HOUSE_NO":"１３號","E_COORD97":165783.34,"N_COORD97":2545859.8199999998,"ADDRESS":"府安路七段９３巷１３號","OBJECTID":397083},"geometry":{"x":165783.34000000171,"y":2545859.8199999984}},{"attributes":{"ID":397108,"DIS_CODE":0,"TOWNNAME":"安南區","LI":"海南里","LIN":"16鄰","STREET":"府安路","SECT":"七段","MAREA":" ","LANE":"９３巷","ALLEY":" ","HOUSE_NO":"１６號","E_COORD97":165792.57000000001,"N_COORD97":2545886.5499999998,"ADDRESS":"府安路七段９３巷１６號","OBJECTID":397084},"geometry":{"x":165792.57000000123,"y":2545886.5500000026}},{"attributes":{"ID":397109,"DIS_CODE":0,"TOWNNAME":"安南區","LI":"海南里","LIN":"16鄰","STREET":"府安路","SECT":"七段","MAREA":" ","LANE":"９３巷","ALLEY":" ","HOUSE_NO":"１６之１號","E_COORD97":165789.42999999999,"N_COORD97":2545890.8399999999,"ADDRESS":"府安路七段９３巷１６之１號","OBJECTID":397085},"geometry":{"x":165789.43000000156,"y":2545890.8400000017}},{"attributes":{"ID":397110,"DIS_CODE":0,"TOWNNAME":"安南區","LI":"淵西里","LIN":"16鄰","STREET":"安中路","SECT":"四段","MAREA":" ","LANE":"２１８巷","ALLEY":" ","HOUSE_NO":"２２號","E_COORD97":164771.42999999999,"N_COORD97":2550170.77,"ADDRESS":"安中路四段２１８巷２２號","OBJECTID":397086},"geometry":{"x":164771.4299999997,"y":2550170.7699999996}},{"attributes":{"ID":397111,"DIS_CODE":0,"TOWNNAME":"東區","LI":"東安里","LIN":"19鄰","STREET":"長榮路","SECT":"二段","MAREA":" ","LANE":"３２巷","ALLEY":" ","HOUSE_NO":"１５８號地下層","E_COORD97":170167.87,"N_COORD97":2543104.9900000002,"ADDRESS":"長榮路二段３２巷１５８號地下層","OBJECTID":397087},"geometry":{"x":170167.87000000104,"y":2543104.9900000002}},{"attributes":{"ID":397112,"DIS_CODE":0,"TOWNNAME":"安南區","LI":"淵東里","LIN":"16鄰","STREET":"智安一街","SECT":" ","MAREA":" ","LANE":"１３巷","ALLEY":" ","HOUSE_NO":"７號","E_COORD97":165619.5,"N_COORD97":2549947.6499999999,"ADDRESS":"智安一街１３巷７號","OBJECTID":397088},"geometry":{"x":165619.5,"y":2549947.6500000022}},{"attributes":{"ID":397113,"DIS_CODE":0,"TOWNNAME":"安南區","LI":"淵東里","LIN":"16鄰","STREET":"智安一街","SECT":" ","MAREA":" ","LANE":"１３巷","ALLEY":" ","HOUSE_NO":"５號","E_COORD97":165621.13,"N_COORD97":2549954.6200000001,"ADDRESS":"智安一街１３巷５號","OBJECTID":397089},"geometry":{"x":165621.13000000082,"y":2549954.6200000029}},{"attributes":{"ID":397114,"DIS_CODE":0,"TOWNNAME":"安南區","LI":"淵東里","LIN":"16鄰","STREET":"智安一街","SECT":" ","MAREA":" ","LANE":"１３巷","ALLEY":" ","HOUSE_NO":"８號","E_COORD97":165620.32000000001,"N_COORD97":2549979.0800000001,"ADDRESS":"智安一街１３巷８號","OBJECTID":397090},"geometry":{"x":165620.32000000123,"y":2549979.0800000001}},{"attributes":{"ID":397115,"DIS_CODE":0,"TOWNNAME":"安南區","LI":"淵東里","LIN":"16鄰","STREET":"智安一街","SECT":" ","MAREA":" ","LANE":"１３巷","ALLEY":" ","HOUSE_NO":"１０號","E_COORD97":165615.85000000001,"N_COORD97":2549975.5099999998,"ADDRESS":"智安一街１３巷１０號","OBJECTID":397091},"geometry":{"x":165615.85000000056,"y":2549975.5100000016}},{"attributes":{"ID":397116,"DIS_CODE":0,"TOWNNAME":"安南區","LI":"淵東里","LIN":"16鄰","STREET":"智安一街","SECT":" ","MAREA":" ","LANE":"１３巷","ALLEY":" ","HOUSE_NO":"１２號","E_COORD97":165610.79000000001,"N_COORD97":2549971.6499999999,"ADDRESS":"智安一街１３巷１２號","OBJECTID":397092},"geometry":{"x":165610.79000000004,"y":2549971.6500000022}},{"attributes":{"ID":397117,"DIS_CODE":0,"TOWNNAME":"安南區","LI":"淵東里","LIN":"16鄰","STREET":"智安一街","SECT":" ","MAREA":" ","LANE":"１３巷","ALLEY":" ","HOUSE_NO":"１６號","E_COORD97":165597.95999999999,"N_COORD97":2549959.0699999998,"ADDRESS":"智安一街１３巷１６號","OBJECTID":397093},"geometry":{"x":165597.96000000183,"y":2549959.0700000003}},{"attributes":{"ID":397118,"DIS_CODE":0,"TOWNNAME":"安南區","LI":"淵東里","LIN":"16鄰","STREET":"智安一街","SECT":" ","MAREA":" ","LANE":"１３巷","ALLEY":" ","HOUSE_NO":"１８號","E_COORD97":165597.07000000001,"N_COORD97":2549953.29,"ADDRESS":"智安一街１３巷１８號","OBJECTID":397094},"geometry":{"x":165597.0700000003,"y":2549953.2899999991}},{"attributes":{"ID":397119,"DIS_CODE":0,"TOWNNAME":"安南區","LI":"理想里","LIN":"16鄰","STREET":"大安街","SECT":" ","MAREA":" ","LANE":"１７３巷","ALLEY":" ","HOUSE_NO":"７號","E_COORD97":167307.04000000001,"N_COORD97":2548264.8700000001,"ADDRESS":"大安街１７３巷７號","OBJECTID":397095},"geometry":{"x":167307.04000000004,"y":2548264.8700000029}},{"attributes":{"ID":397120,"DIS_CODE":0,"TOWNNAME":"安南區","LI":"理想里","LIN":"16鄰","STREET":"大安街","SECT":" ","MAREA":" ","LANE":"１７３巷","ALLEY":" ","HOUSE_NO":"１０號","E_COORD97":167311.37,"N_COORD97":2548288.6200000001,"ADDRESS":"大安街１７３巷１０號","OBJECTID":397096},"geometry":{"x":167311.37000000104,"y":2548288.620000001}},{"attributes":{"ID":397121,"DIS_CODE":0,"TOWNNAME":"安南區","LI":"理想里","LIN":"16鄰","STREET":"大安街","SECT":" ","MAREA":" ","LANE":"１７３巷","ALLEY":" ","HOUSE_NO":"１２號","E_COORD97":167306.56,"N_COORD97":2548292.4500000002,"ADDRESS":"大安街１７３巷１２號","OBJECTID":397097},"geometry":{"x":167306.55999999959,"y":2548292.450000003}},{"attributes":{"ID":397122,"DIS_CODE":0,"TOWNNAME":"東區","LI":"泉南里","LIN":"32鄰","STREET":"林森路","SECT":"一段","MAREA":" ","LANE":"１５３巷","ALLEY":" ","HOUSE_NO":"４８號","E_COORD97":169532.56,"N_COORD97":2542646.5699999998,"ADDRESS":"林森路一段１５３巷４８號","OBJECTID":397098},"geometry":{"x":169532.55999999959,"y":2542646.5700000003}},{"attributes":{"ID":397123,"DIS_CODE":0,"TOWNNAME":"東區","LI":"大學里","LIN":"14鄰","STREET":"長榮路","SECT":"三段","MAREA":" ","LANE":"３０巷","ALLEY":" ","HOUSE_NO":"１４號","E_COORD97":170265.14999999999,"N_COORD97":2543694.0099999998,"ADDRESS":"長榮路三段３０巷１４號","OBJECTID":397099},"geometry":{"x":170265.15000000037,"y":2543694.0099999998}},{"attributes":{"ID":397124,"DIS_CODE":0,"TOWNNAME":"東區","LI":"大學里","LIN":"14鄰","STREET":"長榮路","SECT":"三段","MAREA":" ","LANE":"３０巷","ALLEY":" ","HOUSE_NO":"１５號","E_COORD97":170267.38,"N_COORD97":2543732.29,"ADDRESS":"長榮路三段３０巷１５號","OBJECTID":397100},"geometry":{"x":170267.38000000082,"y":2543732.2899999991}},{"attributes":{"ID":397125,"DIS_CODE":0,"TOWNNAME":"東區","LI":"富強里","LIN":"10鄰","STREET":"中華東路","SECT":"二段","MAREA":" ","LANE":"２２６巷","ALLEY":" ","HOUSE_NO":"４９號","E_COORD97":171092.51999999999,"N_COORD97":2542678.2400000002,"ADDRESS":"中華東路二段２２６巷４９號","OBJECTID":397101},"geometry":{"x":171092.51999999955,"y":2542678.2400000021}},{"attributes":{"ID":397126,"DIS_CODE":0,"TOWNNAME":"安南區","LI":"理想里","LIN":"16鄰","STREET":"大安街","SECT":" ","MAREA":" ","LANE":"１８７巷","ALLEY":" ","HOUSE_NO":"１號","E_COORD97":167347.22,"N_COORD97":2548287.1000000001,"ADDRESS":"大安街１８７巷１號","OBJECTID":397102},"geometry":{"x":167347.22000000067,"y":2548287.0999999996}},{"attributes":{"ID":397127,"DIS_CODE":0,"TOWNNAME":"安南區","LI":"理想里","LIN":"16鄰","STREET":"大安街","SECT":" ","MAREA":" ","LANE":"１８７巷","ALLEY":" ","HOUSE_NO":"２號","E_COORD97":167359.82000000001,"N_COORD97":2548305.46,"ADDRESS":"大安街１８７巷２號","OBJECTID":397103},"geometry":{"x":167359.8200000003,"y":2548305.4600000028}},{"attributes":{"ID":397128,"DIS_CODE":0,"TOWNNAME":"安南區","LI":"理想里","LIN":"16鄰","STREET":"大安街","SECT":" ","MAREA":" ","LANE":"１８７巷","ALLEY":" ","HOUSE_NO":"１９號","E_COORD97":167314.72,"N_COORD97":2548308.02,"ADDRESS":"大安街１８７巷１９號","OBJECTID":397104},"geometry":{"x":167314.7200000016,"y":2548308.0199999996}},{"attributes":{"ID":397129,"DIS_CODE":0,"TOWNNAME":"安南區","LI":"溪北里","LIN":"16鄰","STREET":"府安路","SECT":"四段","MAREA":" ","LANE":"９１巷","ALLEY":" ","HOUSE_NO":"４號","E_COORD97":169122.92000000001,"N_COORD97":2547297.8700000001,"ADDRESS":"府安路四段９１巷４號","OBJECTID":397105},"geometry":{"x":169122.92000000086,"y":2547297.8700000048}},{"attributes":{"ID":397130,"DIS_CODE":0,"TOWNNAME":"永康區","LI":"烏竹里","LIN":"16鄰","STREET":"龍橋街","SECT":" ","MAREA":" ","LANE":"１８６巷","ALLEY":" ","HOUSE_NO":"６８號","E_COORD97":174742.88,"N_COORD97":2548833.5,"ADDRESS":"龍橋街１８６巷６８號","OBJECTID":397106},"geometry":{"x":174742.88000000082,"y":2548833.5}},{"attributes":{"ID":397131,"DIS_CODE":0,"TOWNNAME":"永康區","LI":"勝利里","LIN":"16鄰","STREET":"勝利街","SECT":" ","MAREA":" ","LANE":"１１３巷","ALLEY":" ","HOUSE_NO":"２９號","E_COORD97":171285.84,"N_COORD97":2544920.5,"ADDRESS":"勝利街１１３巷２９號","OBJECTID":397107},"geometry":{"x":171285.83999999892,"y":2544920.5000000019}},{"attributes":{"ID":397132,"DIS_CODE":0,"TOWNNAME":"永康區","LI":"勝利里","LIN":"16鄰","STREET":"勝利街","SECT":" ","MAREA":" ","LANE":"１０７巷","ALLEY":" ","HOUSE_NO":"４６號","E_COORD97":171229.22,"N_COORD97":2544938,"ADDRESS":"勝利街１０７巷４６號","OBJECTID":397108},"geometry":{"x":171229.22000000067,"y":2544938}},{"attributes":{"ID":397133,"DIS_CODE":0,"TOWNNAME":"永康區","LI":"勝利里","LIN":"16鄰","STREET":"勝利街","SECT":" ","MAREA":" ","LANE":"１１３巷","ALLEY":" ","HOUSE_NO":"２３號","E_COORD97":171297.42999999999,"N_COORD97":2544919.75,"ADDRESS":"勝利街１１３巷２３號","OBJECTID":397109},"geometry":{"x":171297.43000000063,"y":2544919.75}},{"attributes":{"ID":397134,"DIS_CODE":0,"TOWNNAME":"安南區","LI":"新順里","LIN":"16鄰","STREET":"頂安街","SECT":" ","MAREA":" ","LANE":"４０巷","ALLEY":" ","HOUSE_NO":"１０號","E_COORD97":169629.35999999999,"N_COORD97":2549371.5299999998,"ADDRESS":"頂安街４０巷１０號","OBJECTID":397110},"geometry":{"x":169629.36000000034,"y":2549371.5300000012}},{"attributes":{"ID":397135,"DIS_CODE":0,"TOWNNAME":"安南區","LI":"新順里","LIN":"16鄰","STREET":"頂安街","SECT":" ","MAREA":" ","LANE":"４０巷","ALLEY":" ","HOUSE_NO":"１２號","E_COORD97":169631.14999999999,"N_COORD97":2549376.3900000001,"ADDRESS":"頂安街４０巷１２號","OBJECTID":397111},"geometry":{"x":169631.15000000037,"y":2549376.3900000025}},{"attributes":{"ID":397136,"DIS_CODE":0,"TOWNNAME":"安南區","LI":"新順里","LIN":"16鄰","STREET":"頂安街","SECT":" ","MAREA":" ","LANE":"４０巷","ALLEY":" ","HOUSE_NO":"１６號","E_COORD97":169632.81,"N_COORD97":2549381.2400000002,"ADDRESS":"頂安街４０巷１６號","OBJECTID":397112},"geometry":{"x":169632.80999999959,"y":2549381.2400000021}},{"attributes":{"ID":397137,"DIS_CODE":0,"TOWNNAME":"安南區","LI":"新順里","LIN":"16鄰","STREET":"頂安街","SECT":" ","MAREA":" ","LANE":"４０巷","ALLEY":" ","HOUSE_NO":"１８號","E_COORD97":169634.85000000001,"N_COORD97":2549386.0899999999,"ADDRESS":"頂安街４０巷１８號","OBJECTID":397113},"geometry":{"x":169634.85000000056,"y":2549386.0899999999}},{"attributes":{"ID":397138,"DIS_CODE":0,"TOWNNAME":"安南區","LI":"新順里","LIN":"16鄰","STREET":"頂安街","SECT":" ","MAREA":" ","LANE":"４０巷","ALLEY":" ","HOUSE_NO":"２０號","E_COORD97":169638.29999999999,"N_COORD97":2549391.3199999998,"ADDRESS":"頂安街４０巷２０號","OBJECTID":397114},"geometry":{"x":169638.29999999888,"y":2549391.3200000003}},{"attributes":{"ID":397139,"DIS_CODE":0,"TOWNNAME":"東區","LI":"中西里","LIN":"15鄰","STREET":"長榮路","SECT":"二段","MAREA":" ","LANE":"７１巷","ALLEY":" ","HOUSE_NO":"１４號","E_COORD97":170033.42999999999,"N_COORD97":2543415.6099999999,"ADDRESS":"長榮路二段７１巷１４號","OBJECTID":397115},"geometry":{"x":170033.4299999997,"y":2543415.6099999994}},{"attributes":{"ID":397140,"DIS_CODE":0,"TOWNNAME":"東區","LI":"中西里","LIN":"15鄰","STREET":"長榮路","SECT":"二段","MAREA":" ","LANE":"７１巷","ALLEY":" ","HOUSE_NO":"１６號","E_COORD97":170026.64999999999,"N_COORD97":2543412.0899999999,"ADDRESS":"長榮路二段７１巷１６號","OBJECTID":397116},"geometry":{"x":170026.65000000224,"y":2543412.0899999999}},{"attributes":{"ID":397141,"DIS_CODE":0,"TOWNNAME":"東區","LI":"中西里","LIN":"15鄰","STREET":"長榮路","SECT":"二段","MAREA":" ","LANE":"７１巷","ALLEY":" ","HOUSE_NO":"１８號","E_COORD97":170022.70999999999,"N_COORD97":2543410.1200000001,"ADDRESS":"長榮路二段７１巷１８號","OBJECTID":397117},"geometry":{"x":170022.71000000089,"y":2543410.120000001}},{"attributes":{"ID":397142,"DIS_CODE":0,"TOWNNAME":"東區","LI":"中西里","LIN":"6鄰","STREET":"勝利路","SECT":" ","MAREA":" ","LANE":"５２巷","ALLEY":" ","HOUSE_NO":"８６號","E_COORD97":169965.78,"N_COORD97":2543409.3599999999,"ADDRESS":"勝利路５２巷８６號","OBJECTID":397118},"geometry":{"x":169965.78000000026,"y":2543409.3599999994}},{"attributes":{"ID":397143,"DIS_CODE":0,"TOWNNAME":"東區","LI":"中西里","LIN":"6鄰","STREET":"勝利路","SECT":" ","MAREA":" ","LANE":"５２巷","ALLEY":" ","HOUSE_NO":"８８號","E_COORD97":169967.25,"N_COORD97":2543404.04,"ADDRESS":"勝利路５２巷８８號","OBJECTID":397119},"geometry":{"x":169967.25,"y":2543404.040000001}},{"attributes":{"ID":397144,"DIS_CODE":0,"TOWNNAME":"東區","LI":"中西里","LIN":"6鄰","STREET":"勝利路","SECT":" ","MAREA":" ","LANE":"５２巷","ALLEY":" ","HOUSE_NO":"９０號","E_COORD97":169968.17000000001,"N_COORD97":2543399.6499999999,"ADDRESS":"勝利路５２巷９０號","OBJECTID":397120},"geometry":{"x":169968.16999999899,"y":2543399.6499999985}},{"attributes":{"ID":397145,"DIS_CODE":0,"TOWNNAME":"東區","LI":"中西里","LIN":"6鄰","STREET":"勝利路","SECT":" ","MAREA":" ","LANE":"５２巷","ALLEY":" ","HOUSE_NO":"９４號","E_COORD97":169969.82000000001,"N_COORD97":2543391.7599999998,"ADDRESS":"勝利路５２巷９４號","OBJECTID":397121},"geometry":{"x":169969.82000000123,"y":2543391.7600000035}},{"attributes":{"ID":397146,"DIS_CODE":0,"TOWNNAME":"東區","LI":"中西里","LIN":"6鄰","STREET":"勝利路","SECT":" ","MAREA":" ","LANE":"５２巷","ALLEY":" ","HOUSE_NO":"９６號","E_COORD97":169972.39000000001,"N_COORD97":2543387.5499999998,"ADDRESS":"勝利路５２巷９６號","OBJECTID":397122},"geometry":{"x":169972.3900000006,"y":2543387.5500000045}},{"attributes":{"ID":397147,"DIS_CODE":0,"TOWNNAME":"東區","LI":"中西里","LIN":"6鄰","STREET":"勝利路","SECT":" ","MAREA":" ","LANE":"５２巷","ALLEY":" ","HOUSE_NO":"９８號","E_COORD97":169972.94,"N_COORD97":2543383.8799999999,"ADDRESS":"勝利路５２巷９８號","OBJECTID":397123},"geometry":{"x":169972.94000000041,"y":2543383.8800000008}},{"attributes":{"ID":397148,"DIS_CODE":0,"TOWNNAME":"東區","LI":"中西里","LIN":"6鄰","STREET":"勝利路","SECT":" ","MAREA":" ","LANE":"５２巷","ALLEY":" ","HOUSE_NO":"９２號","E_COORD97":169969.45999999999,"N_COORD97":2543395.6099999999,"ADDRESS":"勝利路５２巷９２號","OBJECTID":397124},"geometry":{"x":169969.45999999996,"y":2543395.6100000031}},{"attributes":{"ID":397149,"DIS_CODE":0,"TOWNNAME":"東區","LI":"中西里","LIN":"15鄰","STREET":"長榮路","SECT":"二段","MAREA":" ","LANE":"７１巷","ALLEY":" ","HOUSE_NO":"２０號","E_COORD97":170019.20000000001,"N_COORD97":2543408.3700000001,"ADDRESS":"長榮路二段７１巷２０號","OBJECTID":397125},"geometry":{"x":170019.20000000205,"y":2543408.370000001}},{"attributes":{"ID":397150,"DIS_CODE":0,"TOWNNAME":"東區","LI":"中西里","LIN":"15鄰","STREET":"長榮路","SECT":"二段","MAREA":" ","LANE":"７１巷","ALLEY":" ","HOUSE_NO":"２２號","E_COORD97":170015.48000000001,"N_COORD97":2543406.6200000001,"ADDRESS":"長榮路二段７１巷２２號","OBJECTID":397126},"geometry":{"x":170015.48000000045,"y":2543406.620000001}},{"attributes":{"ID":397151,"DIS_CODE":0,"TOWNNAME":"東區","LI":"中西里","LIN":"15鄰","STREET":"長榮路","SECT":"二段","MAREA":" ","LANE":"７１巷","ALLEY":" ","HOUSE_NO":"２４號","E_COORD97":170012.42000000001,"N_COORD97":2543404.21,"ADDRESS":"長榮路二段７１巷２４號","OBJECTID":397127},"geometry":{"x":170012.42000000179,"y":2543404.2100000028}},{"attributes":{"ID":397152,"DIS_CODE":0,"TOWNNAME":"東區","LI":"中西里","LIN":"15鄰","STREET":"長榮路","SECT":"二段","MAREA":" ","LANE":"７１巷","ALLEY":" ","HOUSE_NO":"２６號","E_COORD97":170008.69,"N_COORD97":2543402.8999999999,"ADDRESS":"長榮路二段７１巷２６號","OBJECTID":397128},"geometry":{"x":170008.69000000041,"y":2543402.9000000022}},{"attributes":{"ID":397153,"DIS_CODE":0,"TOWNNAME":"東區","LI":"中西里","LIN":"15鄰","STREET":"長榮路","SECT":"二段","MAREA":" ","LANE":"７１巷","ALLEY":" ","HOUSE_NO":"１２號底層","E_COORD97":170042.95000000001,"N_COORD97":2543421.3100000001,"ADDRESS":"長榮路二段７１巷１２號底層","OBJECTID":397129},"geometry":{"x":170042.95000000205,"y":2543421.3100000005}},{"attributes":{"ID":397154,"DIS_CODE":0,"TOWNNAME":"東區","LI":"自強里","LIN":"1鄰","STREET":"東成街","SECT":" ","MAREA":" ","LANE":"７１巷","ALLEY":" ","HOUSE_NO":"１５號","E_COORD97":171414.94,"N_COORD97":2542329.6499999999,"ADDRESS":"東成街７１巷１５號","OBJECTID":397130},"geometry":{"x":171414.94000000134,"y":2542329.6500000022}},{"attributes":{"ID":397155,"DIS_CODE":0,"TOWNNAME":"東區","LI":"自強里","LIN":"1鄰","STREET":"東成街","SECT":" ","MAREA":" ","LANE":"７１巷","ALLEY":" ","HOUSE_NO":"１５號之１","E_COORD97":171414.94,"N_COORD97":2542336.0699999998,"ADDRESS":"東成街７１巷１５號之１","OBJECTID":397131},"geometry":{"x":171414.94000000134,"y":2542336.0700000022}},{"attributes":{"ID":397156,"DIS_CODE":0,"TOWNNAME":"東區","LI":"崇誨里","LIN":"30鄰","STREET":"林森路","SECT":"二段","MAREA":" ","LANE":"１９２巷","ALLEY":" ","HOUSE_NO":"１３９號","E_COORD97":170809.70000000001,"N_COORD97":2543372.0600000001,"ADDRESS":"林森路二段１９２巷１３９號","OBJECTID":397132},"geometry":{"x":170809.70000000112,"y":2543372.0600000005}},{"attributes":{"ID":397157,"DIS_CODE":0,"TOWNNAME":"東區","LI":"崇學里","LIN":"12鄰","STREET":"崇明十街","SECT":" ","MAREA":" ","LANE":"７０巷","ALLEY":" ","HOUSE_NO":"１１號","E_COORD97":170239.79999999999,"N_COORD97":2541874.6899999999,"ADDRESS":"崇明十街７０巷１１號","OBJECTID":397133},"geometry":{"x":170239.79999999981,"y":2541874.6899999995}},{"attributes":{"ID":397158,"DIS_CODE":0,"TOWNNAME":"東區","LI":"崇學里","LIN":"12鄰","STREET":"崇明十街","SECT":" ","MAREA":" ","LANE":"７０巷","ALLEY":" ","HOUSE_NO":"１３號","E_COORD97":170242.5,"N_COORD97":2541870.3100000001,"ADDRESS":"崇明十街７０巷１３號","OBJECTID":397134},"geometry":{"x":170242.50000000186,"y":2541870.3100000024}},{"attributes":{"ID":397159,"DIS_CODE":0,"TOWNNAME":"東區","LI":"中西里","LIN":"9鄰","STREET":"勝利路","SECT":" ","MAREA":" ","LANE":"５２巷","ALLEY":" ","HOUSE_NO":"１號之５","E_COORD97":169858.63,"N_COORD97":2543573.0499999998,"ADDRESS":"勝利路５２巷１號之５","OBJECTID":397135},"geometry":{"x":169858.63000000082,"y":2543573.0500000007}},{"attributes":{"ID":397160,"DIS_CODE":0,"TOWNNAME":"仁德區","LI":"成功里","LIN":"16鄰","STREET":"全福路","SECT":" ","MAREA":" ","LANE":"７５巷","ALLEY":" ","HOUSE_NO":"９號","E_COORD97":171021.42999999999,"N_COORD97":2539338.7400000002,"ADDRESS":"全福路７５巷９號","OBJECTID":397136},"geometry":{"x":171021.43000000063,"y":2539338.7400000021}},{"attributes":{"ID":397161,"DIS_CODE":0,"TOWNNAME":"仁德區","LI":"保安里","LIN":"16鄰","STREET":"中正路","SECT":"一段","MAREA":" ","LANE":"１８２巷","ALLEY":" ","HOUSE_NO":"１６號","E_COORD97":171592.09,"N_COORD97":2535709.52,"ADDRESS":"中正路一段１８２巷１６號","OBJECTID":397137},"geometry":{"x":171592.08999999985,"y":2535709.5199999996}},{"attributes":{"ID":397162,"DIS_CODE":0,"TOWNNAME":"仁德區","LI":"成功里","LIN":"16鄰","STREET":"全福路","SECT":" ","MAREA":" ","LANE":"７５巷","ALLEY":" ","HOUSE_NO":"１１號","E_COORD97":171022.76000000001,"N_COORD97":2539343.9900000002,"ADDRESS":"全福路７５巷１１號","OBJECTID":397138},"geometry":{"x":171022.76000000071,"y":2539343.9900000021}},{"attributes":{"ID":397163,"DIS_CODE":0,"TOWNNAME":"仁德區","LI":"保安里","LIN":"16鄰","STREET":"中正路","SECT":"一段","MAREA":" ","LANE":"１６４巷","ALLEY":" ","HOUSE_NO":"１１號","E_COORD97":171568.13,"N_COORD97":2535693.27,"ADDRESS":"中正路一段１６４巷１１號","OBJECTID":397139},"geometry":{"x":171568.12999999989,"y":2535693.2700000014}},{"attributes":{"ID":397164,"DIS_CODE":0,"TOWNNAME":"仁德區","LI":"保安里","LIN":"16鄰","STREET":"中正路","SECT":"一段","MAREA":" ","LANE":"１６４巷","ALLEY":" ","HOUSE_NO":"１５號","E_COORD97":171574.09,"N_COORD97":2535687.27,"ADDRESS":"中正路一段１６４巷１５號","OBJECTID":397140},"geometry":{"x":171574.09000000171,"y":2535687.2699999996}},{"attributes":{"ID":397165,"DIS_CODE":0,"TOWNNAME":"仁德區","LI":"成功里","LIN":"16鄰","STREET":"全福路","SECT":" ","MAREA":" ","LANE":"７５巷","ALLEY":" ","HOUSE_NO":"１５號","E_COORD97":171024.06,"N_COORD97":2539360.4900000002,"ADDRESS":"全福路７５巷１５號","OBJECTID":397141},"geometry":{"x":171024.05999999959,"y":2539360.4900000021}},{"attributes":{"ID":397166,"DIS_CODE":0,"TOWNNAME":"仁德區","LI":"保安里","LIN":"16鄰","STREET":"中正路","SECT":"一段","MAREA":" ","LANE":"１６４巷","ALLEY":" ","HOUSE_NO":"１０號","E_COORD97":171557.01999999999,"N_COORD97":2535688.02,"ADDRESS":"中正路一段１６４巷１０號","OBJECTID":397142},"geometry":{"x":171557.01999999955,"y":2535688.0200000014}},{"attributes":{"ID":397167,"DIS_CODE":0,"TOWNNAME":"東區","LI":"後甲里","LIN":"4鄰","STREET":"裕農路","SECT":" ","MAREA":" ","LANE":"６２１巷","ALLEY":" ","HOUSE_NO":"２８號","E_COORD97":171634.20999999999,"N_COORD97":2543297.5,"ADDRESS":"裕農路６２１巷２８號","OBJECTID":397143},"geometry":{"x":171634.20999999996,"y":2543297.5}},{"attributes":{"ID":397168,"DIS_CODE":0,"TOWNNAME":"東區","LI":"忠孝里","LIN":"8鄰","STREET":"榮譽街","SECT":" ","MAREA":" ","LANE":"８４巷","ALLEY":" ","HOUSE_NO":"１３３號","E_COORD97":169865.23999999999,"N_COORD97":2541593.3799999999,"ADDRESS":"榮譽街８４巷１３３號","OBJECTID":397144},"geometry":{"x":169865.24000000115,"y":2541593.3800000008}},{"attributes":{"ID":397169,"DIS_CODE":0,"TOWNNAME":"東區","LI":"崇學里","LIN":"12鄰","STREET":"崇明十街","SECT":" ","MAREA":" ","LANE":"７０巷","ALLEY":" ","HOUSE_NO":"１５號","E_COORD97":170247.39000000001,"N_COORD97":2541867.6200000001,"ADDRESS":"崇明十街７０巷１５號","OBJECTID":397145},"geometry":{"x":170247.38999999966,"y":2541867.620000001}},{"attributes":{"ID":397170,"DIS_CODE":0,"TOWNNAME":"仁德區","LI":"成功里","LIN":"16鄰","STREET":"全福路","SECT":" ","MAREA":" ","LANE":"７５巷","ALLEY":" ","HOUSE_NO":"１６號","E_COORD97":171040.92000000001,"N_COORD97":2539358.9900000002,"ADDRESS":"全福路７５巷１６號","OBJECTID":397146},"geometry":{"x":171040.91999999993,"y":2539358.9900000002}},{"attributes":{"ID":397171,"DIS_CODE":0,"TOWNNAME":"仁德區","LI":"保安里","LIN":"16鄰","STREET":"中正路","SECT":"一段","MAREA":" ","LANE":"１８２巷","ALLEY":" ","HOUSE_NO":"１２號","E_COORD97":171586.04000000001,"N_COORD97":2535715.02,"ADDRESS":"中正路一段１８２巷１２號","OBJECTID":397147},"geometry":{"x":171586.04000000004,"y":2535715.0200000014}},{"attributes":{"ID":397172,"DIS_CODE":0,"TOWNNAME":"東區","LI":"新東里","LIN":"13鄰","STREET":"裕農路","SECT":" ","MAREA":" ","LANE":"２９巷","ALLEY":" ","HOUSE_NO":"５號","E_COORD97":170569.20999999999,"N_COORD97":2542893.48,"ADDRESS":"裕農路２９巷５號","OBJECTID":397148},"geometry":{"x":170569.20999999996,"y":2542893.4800000023}},{"attributes":{"ID":397173,"DIS_CODE":0,"TOWNNAME":"永康區","LI":"東橋里","LIN":"16鄰","STREET":"東橋三路","SECT":" ","MAREA":" ","LANE":"７７巷","ALLEY":" ","HOUSE_NO":"１０號","E_COORD97":171548.88,"N_COORD97":2546615.1600000001,"ADDRESS":"東橋三路７７巷１０號","OBJECTID":397149},"geometry":{"x":171548.88000000082,"y":2546615.160000002}},{"attributes":{"ID":397174,"DIS_CODE":0,"TOWNNAME":"永康區","LI":"東橋里","LIN":"16鄰","STREET":"東橋三路","SECT":" ","MAREA":" ","LANE":"７７巷","ALLEY":" ","HOUSE_NO":"１１號","E_COORD97":171544.10000000001,"N_COORD97":2546604.1099999999,"ADDRESS":"東橋三路７７巷１１號","OBJECTID":397150},"geometry":{"x":171544.10000000056,"y":2546604.1100000013}},{"attributes":{"ID":397175,"DIS_CODE":0,"TOWNNAME":"永康區","LI":"東橋里","LIN":"16鄰","STREET":"東橋三路","SECT":" ","MAREA":" ","LANE":"７７巷","ALLEY":" ","HOUSE_NO":"１２號","E_COORD97":171544.70999999999,"N_COORD97":2546612.4100000001,"ADDRESS":"東橋三路７７巷１２號","OBJECTID":397151},"geometry":{"x":171544.71000000183,"y":2546612.410000002}},{"attributes":{"ID":397176,"DIS_CODE":0,"TOWNNAME":"永康區","LI":"東橋里","LIN":"16鄰","STREET":"東橋三路","SECT":" ","MAREA":" ","LANE":"７７巷","ALLEY":" ","HOUSE_NO":"１３號","E_COORD97":171539.60999999999,"N_COORD97":2546601.3300000001,"ADDRESS":"東橋三路７７巷１３號","OBJECTID":397152},"geometry":{"x":171539.61000000127,"y":2546601.3300000001}},{"attributes":{"ID":397177,"DIS_CODE":0,"TOWNNAME":"永康區","LI":"東橋里","LIN":"16鄰","STREET":"東橋三路","SECT":" ","MAREA":" ","LANE":"７７巷","ALLEY":" ","HOUSE_NO":"１５號","E_COORD97":171535.35999999999,"N_COORD97":2546598.3999999999,"ADDRESS":"東橋三路７７巷１５號","OBJECTID":397153},"geometry":{"x":171535.3599999994,"y":2546598.3999999985}},{"attributes":{"ID":397178,"DIS_CODE":0,"TOWNNAME":"永康區","LI":"東橋里","LIN":"16鄰","STREET":"東橋三路","SECT":" ","MAREA":" ","LANE":"７７巷","ALLEY":" ","HOUSE_NO":"１６號","E_COORD97":171539.98000000001,"N_COORD97":2546609.7599999998,"ADDRESS":"東橋三路７７巷１６號","OBJECTID":397154},"geometry":{"x":171539.98000000231,"y":2546609.7600000016}},{"attributes":{"ID":397179,"DIS_CODE":0,"TOWNNAME":"永康區","LI":"東橋里","LIN":"16鄰","STREET":"東橋三路","SECT":" ","MAREA":" ","LANE":"７７巷","ALLEY":" ","HOUSE_NO":"１７號","E_COORD97":171530.82999999999,"N_COORD97":2546595.3100000001,"ADDRESS":"東橋三路７７巷１７號","OBJECTID":397155},"geometry":{"x":171530.83000000101,"y":2546595.3100000005}},{"attributes":{"ID":397180,"DIS_CODE":0,"TOWNNAME":"永康區","LI":"東橋里","LIN":"16鄰","STREET":"東橋三路","SECT":" ","MAREA":" ","LANE":"７７巷","ALLEY":" ","HOUSE_NO":"１８號","E_COORD97":171535.60999999999,"N_COORD97":2546607.0099999998,"ADDRESS":"東橋三路７７巷１８號","OBJECTID":397156},"geometry":{"x":171535.6100000022,"y":2546607.0099999998}},{"attributes":{"ID":397181,"DIS_CODE":0,"TOWNNAME":"永康區","LI":"東橋里","LIN":"16鄰","STREET":"東橋三路","SECT":" ","MAREA":" ","LANE":"７７巷","ALLEY":" ","HOUSE_NO":"１９號","E_COORD97":171526.54999999999,"N_COORD97":2546592.3199999998,"ADDRESS":"東橋三路７７巷１９號","OBJECTID":397157},"geometry":{"x":171526.54999999981,"y":2546592.320000004}},{"attributes":{"ID":397182,"DIS_CODE":0,"TOWNNAME":"永康區","LI":"東橋里","LIN":"16鄰","STREET":"東橋三路","SECT":" ","MAREA":" ","LANE":"７７巷","ALLEY":" ","HOUSE_NO":"１號","E_COORD97":171564.45999999999,"N_COORD97":2546618.29,"ADDRESS":"東橋三路７７巷１號","OBJECTID":397158},"geometry":{"x":171564.45999999996,"y":2546618.2900000028}},{"attributes":{"ID":397183,"DIS_CODE":0,"TOWNNAME":"永康區","LI":"東橋里","LIN":"16鄰","STREET":"東橋三路","SECT":" ","MAREA":" ","LANE":"７７巷","ALLEY":" ","HOUSE_NO":"２０號","E_COORD97":171531.32000000001,"N_COORD97":2546603.8199999998,"ADDRESS":"東橋三路７７巷２０號","OBJECTID":397159},"geometry":{"x":171531.32000000123,"y":2546603.8200000022}},{"attributes":{"ID":397184,"DIS_CODE":0,"TOWNNAME":"永康區","LI":"東橋里","LIN":"16鄰","STREET":"東橋三路","SECT":" ","MAREA":" ","LANE":"７７巷","ALLEY":" ","HOUSE_NO":"２１號","E_COORD97":171522.48999999999,"N_COORD97":2546589.6699999999,"ADDRESS":"東橋三路７７巷２１號","OBJECTID":397160},"geometry":{"x":171522.48999999929,"y":2546589.6700000037}},{"attributes":{"ID":397185,"DIS_CODE":0,"TOWNNAME":"永康區","LI":"東橋里","LIN":"16鄰","STREET":"東橋三路","SECT":" ","MAREA":" ","LANE":"７７巷","ALLEY":" ","HOUSE_NO":"２２號","E_COORD97":171527.04999999999,"N_COORD97":2546601.1200000001,"ADDRESS":"東橋三路７７巷２２號","OBJECTID":397161},"geometry":{"x":171527.05000000075,"y":2546601.1200000048}},{"attributes":{"ID":397186,"DIS_CODE":0,"TOWNNAME":"永康區","LI":"東橋里","LIN":"16鄰","STREET":"東橋三路","SECT":" ","MAREA":" ","LANE":"７７巷","ALLEY":" ","HOUSE_NO":"２３號","E_COORD97":171517.92000000001,"N_COORD97":2546586.5699999998,"ADDRESS":"東橋三路７７巷２３號","OBJECTID":397162},"geometry":{"x":171517.92000000086,"y":2546586.5700000003}},{"attributes":{"ID":397187,"DIS_CODE":0,"TOWNNAME":"永康區","LI":"東橋里","LIN":"16鄰","STREET":"東橋三路","SECT":" ","MAREA":" ","LANE":"７７巷","ALLEY":" ","HOUSE_NO":"２５號","E_COORD97":171513.48000000001,"N_COORD97":2546583.6699999999,"ADDRESS":"東橋三路７７巷２５號","OBJECTID":397163},"geometry":{"x":171513.48000000138,"y":2546583.6700000018}},{"attributes":{"ID":397188,"DIS_CODE":0,"TOWNNAME":"永康區","LI":"東橋里","LIN":"16鄰","STREET":"東橋三路","SECT":" ","MAREA":" ","LANE":"７７巷","ALLEY":" ","HOUSE_NO":"２６號","E_COORD97":171522.42999999999,"N_COORD97":2546598.1600000001,"ADDRESS":"東橋三路７７巷２６號","OBJECTID":397164},"geometry":{"x":171522.43000000156,"y":2546598.160000002}},{"attributes":{"ID":397189,"DIS_CODE":0,"TOWNNAME":"永康區","LI":"東橋里","LIN":"16鄰","STREET":"東橋三路","SECT":" ","MAREA":" ","LANE":"７７巷","ALLEY":" ","HOUSE_NO":"２７號","E_COORD97":171508.95999999999,"N_COORD97":2546580.7999999998,"ADDRESS":"東橋三路７７巷２７號","OBJECTID":397165},"geometry":{"x":171508.96000000183,"y":2546580.8000000026}},{"attributes":{"ID":397190,"DIS_CODE":0,"TOWNNAME":"永康區","LI":"東橋里","LIN":"16鄰","STREET":"東橋三路","SECT":" ","MAREA":" ","LANE":"７７巷","ALLEY":" ","HOUSE_NO":"２８號","E_COORD97":171517.81,"N_COORD97":2546595.3700000001,"ADDRESS":"東橋三路７７巷２８號","OBJECTID":397166},"geometry":{"x":171517.80999999959,"y":2546595.370000001}},{"attributes":{"ID":397191,"DIS_CODE":0,"TOWNNAME":"永康區","LI":"東橋里","LIN":"16鄰","STREET":"東橋三路","SECT":" ","MAREA":" ","LANE":"７７巷","ALLEY":" ","HOUSE_NO":"２９號","E_COORD97":171504.79000000001,"N_COORD97":2546577.8500000001,"ADDRESS":"東橋三路７７巷２９號","OBJECTID":397167},"geometry":{"x":171504.79000000004,"y":2546577.8500000034}},{"attributes":{"ID":397192,"DIS_CODE":0,"TOWNNAME":"永康區","LI":"東橋里","LIN":"16鄰","STREET":"東橋三路","SECT":" ","MAREA":" ","LANE":"７７巷","ALLEY":" ","HOUSE_NO":"２號","E_COORD97":171561.28,"N_COORD97":2546623.79,"ADDRESS":"東橋三路７７巷２號","OBJECTID":397168},"geometry":{"x":171561.27999999933,"y":2546623.7899999991}},{"attributes":{"ID":397193,"DIS_CODE":0,"TOWNNAME":"永康區","LI":"東橋里","LIN":"16鄰","STREET":"東橋三路","SECT":" ","MAREA":" ","LANE":"７７巷","ALLEY":" ","HOUSE_NO":"３０號","E_COORD97":171513.63,"N_COORD97":2546592.4100000001,"ADDRESS":"東橋三路７７巷３０號","OBJECTID":397169},"geometry":{"x":171513.63000000082,"y":2546592.410000002}},{"attributes":{"ID":397194,"DIS_CODE":0,"TOWNNAME":"永康區","LI":"東橋里","LIN":"16鄰","STREET":"東橋三路","SECT":" ","MAREA":" ","LANE":"７７巷","ALLEY":" ","HOUSE_NO":"３１號","E_COORD97":171500.26000000001,"N_COORD97":2546575.2000000002,"ADDRESS":"東橋三路７７巷３１號","OBJECTID":397170},"geometry":{"x":171500.26000000071,"y":2546575.200000003}},{"attributes":{"ID":397195,"DIS_CODE":0,"TOWNNAME":"永康區","LI":"東橋里","LIN":"16鄰","STREET":"東橋三路","SECT":" ","MAREA":" ","LANE":"７７巷","ALLEY":" ","HOUSE_NO":"３２號","E_COORD97":171509.10000000001,"N_COORD97":2546589.4500000002,"ADDRESS":"東橋三路７７巷３２號","OBJECTID":397171},"geometry":{"x":171509.09999999963,"y":2546589.4499999993}},{"attributes":{"ID":397196,"DIS_CODE":0,"TOWNNAME":"永康區","LI":"東橋里","LIN":"16鄰","STREET":"東橋三路","SECT":" ","MAREA":" ","LANE":"７７巷","ALLEY":" ","HOUSE_NO":"３３號","E_COORD97":171495.88,"N_COORD97":2546572.1800000002,"ADDRESS":"東橋三路７７巷３３號","OBJECTID":397172},"geometry":{"x":171495.88000000175,"y":2546572.1800000034}},{"attributes":{"ID":397197,"DIS_CODE":0,"TOWNNAME":"永康區","LI":"東橋里","LIN":"16鄰","STREET":"東橋三路","SECT":" ","MAREA":" ","LANE":"７７巷","ALLEY":" ","HOUSE_NO":"３５號","E_COORD97":171490.92999999999,"N_COORD97":2546569.02,"ADDRESS":"東橋三路７７巷３５號","OBJECTID":397173},"geometry":{"x":171490.93000000063,"y":2546569.0199999996}},{"attributes":{"ID":397198,"DIS_CODE":0,"TOWNNAME":"永康區","LI":"東橋里","LIN":"16鄰","STREET":"東橋三路","SECT":" ","MAREA":" ","LANE":"７７巷","ALLEY":" ","HOUSE_NO":"３６號","E_COORD97":171504.73999999999,"N_COORD97":2546586.4900000002,"ADDRESS":"東橋三路７７巷３６號","OBJECTID":397174},"geometry":{"x":171504.74000000115,"y":2546586.4900000002}},{"attributes":{"ID":397199,"DIS_CODE":0,"TOWNNAME":"永康區","LI":"東橋里","LIN":"16鄰","STREET":"東橋三路","SECT":" ","MAREA":" ","LANE":"７７巷","ALLEY":" ","HOUSE_NO":"３７號","E_COORD97":171486.76000000001,"N_COORD97":2546566.5099999998,"ADDRESS":"東橋三路７７巷３７號","OBJECTID":397175},"geometry":{"x":171486.76000000071,"y":2546566.5099999979}},{"attributes":{"ID":397200,"DIS_CODE":0,"TOWNNAME":"永康區","LI":"東橋里","LIN":"16鄰","STREET":"東橋三路","SECT":" ","MAREA":" ","LANE":"７７巷","ALLEY":" ","HOUSE_NO":"３８號","E_COORD97":171500.20999999999,"N_COORD97":2546583.6099999999,"ADDRESS":"東橋三路７７巷３８號","OBJECTID":397176},"geometry":{"x":171500.20999999996,"y":2546583.6100000013}},{"attributes":{"ID":397201,"DIS_CODE":0,"TOWNNAME":"永康區","LI":"東橋里","LIN":"16鄰","STREET":"東橋三路","SECT":" ","MAREA":" ","LANE":"７７巷","ALLEY":" ","HOUSE_NO":"３號","E_COORD97":171560.20000000001,"N_COORD97":2546615.5099999998,"ADDRESS":"東橋三路７７巷３號","OBJECTID":397177},"geometry":{"x":171560.20000000205,"y":2546615.5100000016}},{"attributes":{"ID":397202,"DIS_CODE":0,"TOWNNAME":"永康區","LI":"東橋里","LIN":"16鄰","STREET":"東橋三路","SECT":" ","MAREA":" ","LANE":"７７巷","ALLEY":" ","HOUSE_NO":"４０號","E_COORD97":171496.10999999999,"N_COORD97":2546580.9100000001,"ADDRESS":"東橋三路７７巷４０號","OBJECTID":397178},"geometry":{"x":171496.11000000034,"y":2546580.9100000001}},{"attributes":{"ID":397203,"DIS_CODE":0,"TOWNNAME":"永康區","LI":"東橋里","LIN":"16鄰","STREET":"東橋三路","SECT":" ","MAREA":" ","LANE":"７７巷","ALLEY":" ","HOUSE_NO":"４２號","E_COORD97":171491.53,"N_COORD97":2546578.0099999998,"ADDRESS":"東橋三路７７巷４２號","OBJECTID":397179},"geometry":{"x":171491.53000000026,"y":2546578.0100000016}},{"attributes":{"ID":397204,"DIS_CODE":0,"TOWNNAME":"永康區","LI":"東橋里","LIN":"16鄰","STREET":"東橋三路","SECT":" ","MAREA":" ","LANE":"７７巷","ALLEY":" ","HOUSE_NO":"４６號","E_COORD97":171487.03,"N_COORD97":2546575.1899999999,"ADDRESS":"東橋三路７７巷４６號","OBJECTID":397180},"geometry":{"x":171487.03000000119,"y":2546575.1899999976}},{"attributes":{"ID":397205,"DIS_CODE":0,"TOWNNAME":"永康區","LI":"東橋里","LIN":"16鄰","STREET":"東橋三路","SECT":" ","MAREA":" ","LANE":"７７巷","ALLEY":" ","HOUSE_NO":"４８號","E_COORD97":171482.72,"N_COORD97":2546572.1099999999,"ADDRESS":"東橋三路７７巷４８號","OBJECTID":397181},"geometry":{"x":171482.71999999974,"y":2546572.1099999994}},{"attributes":{"ID":397206,"DIS_CODE":0,"TOWNNAME":"永康區","LI":"東橋里","LIN":"16鄰","STREET":"東橋三路","SECT":" ","MAREA":" ","LANE":"７７巷","ALLEY":" ","HOUSE_NO":"５號","E_COORD97":171555.82999999999,"N_COORD97":2546612.7799999998,"ADDRESS":"東橋三路７７巷５號","OBJECTID":397182},"geometry":{"x":171555.83000000194,"y":2546612.7800000012}},{"attributes":{"ID":397207,"DIS_CODE":0,"TOWNNAME":"永康區","LI":"東橋里","LIN":"16鄰","STREET":"東橋三路","SECT":" ","MAREA":" ","LANE":"７７巷","ALLEY":" ","HOUSE_NO":"７號","E_COORD97":171551.57000000001,"N_COORD97":2546610.1600000001,"ADDRESS":"東橋三路７７巷７號","OBJECTID":397183},"geometry":{"x":171551.57000000123,"y":2546610.1600000039}},{"attributes":{"ID":397208,"DIS_CODE":0,"TOWNNAME":"永康區","LI":"東橋里","LIN":"16鄰","STREET":"東橋三路","SECT":" ","MAREA":" ","LANE":"７７巷","ALLEY":" ","HOUSE_NO":"８號","E_COORD97":171552.28,"N_COORD97":2546617.9100000001,"ADDRESS":"東橋三路７７巷８號","OBJECTID":397184},"geometry":{"x":171552.28000000026,"y":2546617.9100000001}},{"attributes":{"ID":397209,"DIS_CODE":0,"TOWNNAME":"永康區","LI":"東橋里","LIN":"16鄰","STREET":"東橋三路","SECT":" ","MAREA":" ","LANE":"７７巷","ALLEY":" ","HOUSE_NO":"９號","E_COORD97":171547.32999999999,"N_COORD97":2546606.9700000002,"ADDRESS":"東橋三路７７巷９號","OBJECTID":397185},"geometry":{"x":171547.33000000194,"y":2546606.9700000007}},{"attributes":{"ID":397210,"DIS_CODE":0,"TOWNNAME":"永康區","LI":"六合里","LIN":"16鄰","STREET":"中華二路","SECT":" ","MAREA":" ","LANE":"２６６巷","ALLEY":" ","HOUSE_NO":"３１號","E_COORD97":171336.76000000001,"N_COORD97":2545537.2400000002,"ADDRESS":"中華二路２６６巷３１號","OBJECTID":397186},"geometry":{"x":171336.75999999978,"y":2545537.2400000002}},{"attributes":{"ID":397211,"DIS_CODE":0,"TOWNNAME":"永康區","LI":"六合里","LIN":"16鄰","STREET":"中華二路","SECT":" ","MAREA":" ","LANE":"２６６巷","ALLEY":" ","HOUSE_NO":"３３號","E_COORD97":171334.14999999999,"N_COORD97":2545540.7400000002,"ADDRESS":"中華二路２６６巷３３號","OBJECTID":397187},"geometry":{"x":171334.1500000013,"y":2545540.7400000002}},{"attributes":{"ID":397212,"DIS_CODE":0,"TOWNNAME":"永康區","LI":"六合里","LIN":"16鄰","STREET":"中華二路","SECT":" ","MAREA":" ","LANE":"２６６巷","ALLEY":" ","HOUSE_NO":"３５號","E_COORD97":171332.04000000001,"N_COORD97":2545544.7400000002,"ADDRESS":"中華二路２６６巷３５號","OBJECTID":397188},"geometry":{"x":171332.04000000004,"y":2545544.7400000002}},{"attributes":{"ID":397213,"DIS_CODE":0,"TOWNNAME":"永康區","LI":"六合里","LIN":"16鄰","STREET":"中華二路","SECT":" ","MAREA":" ","LANE":"２６６巷","ALLEY":" ","HOUSE_NO":"３７號","E_COORD97":171329.95999999999,"N_COORD97":2545548.2400000002,"ADDRESS":"中華二路２６６巷３７號","OBJECTID":397189},"geometry":{"x":171329.96000000089,"y":2545548.2400000002}},{"attributes":{"ID":397214,"DIS_CODE":0,"TOWNNAME":"永康區","LI":"六合里","LIN":"16鄰","STREET":"中華二路","SECT":" ","MAREA":" ","LANE":"２６６巷","ALLEY":" ","HOUSE_NO":"４６號","E_COORD97":171357.73000000001,"N_COORD97":2545528.2400000002,"ADDRESS":"中華二路２６６巷４６號","OBJECTID":397190},"geometry":{"x":171357.73000000045,"y":2545528.2400000039}},{"attributes":{"ID":397215,"DIS_CODE":0,"TOWNNAME":"永康區","LI":"六合里","LIN":"16鄰","STREET":"中華二路","SECT":" ","MAREA":" ","LANE":"２６６巷","ALLEY":" ","HOUSE_NO":"４８號","E_COORD97":171355.54000000001,"N_COORD97":2545531.7400000002,"ADDRESS":"中華二路２６６巷４８號","OBJECTID":397191},"geometry":{"x":171355.54000000004,"y":2545531.7400000039}},{"attributes":{"ID":397216,"DIS_CODE":0,"TOWNNAME":"永康區","LI":"六合里","LIN":"16鄰","STREET":"中華二路","SECT":" ","MAREA":" ","LANE":"２６６巷","ALLEY":" ","HOUSE_NO":"５０號","E_COORD97":171353.42999999999,"N_COORD97":2545535.2400000002,"ADDRESS":"中華二路２６６巷５０號","OBJECTID":397192},"geometry":{"x":171353.43000000063,"y":2545535.2400000021}},{"attributes":{"ID":397217,"DIS_CODE":0,"TOWNNAME":"永康區","LI":"六合里","LIN":"16鄰","STREET":"中華二路","SECT":" ","MAREA":" ","LANE":"２６６巷","ALLEY":" ","HOUSE_NO":"５２號","E_COORD97":171351.23999999999,"N_COORD97":2545539.2400000002,"ADDRESS":"中華二路２６６巷５２號","OBJECTID":397193},"geometry":{"x":171351.24000000022,"y":2545539.2400000021}},{"attributes":{"ID":397218,"DIS_CODE":0,"TOWNNAME":"永康區","LI":"六合里","LIN":"16鄰","STREET":"中華二路","SECT":" ","MAREA":" ","LANE":"２６６巷","ALLEY":" ","HOUSE_NO":"５６號","E_COORD97":171349.39000000001,"N_COORD97":2545542.2400000002,"ADDRESS":"中華二路２６６巷５６號","OBJECTID":397194},"geometry":{"x":171349.38999999966,"y":2545542.2400000021}},{"attributes":{"ID":397219,"DIS_CODE":0,"TOWNNAME":"永康區","LI":"六合里","LIN":"16鄰","STREET":"六合路","SECT":" ","MAREA":" ","LANE":"４２巷","ALLEY":" ","HOUSE_NO":"１１號","E_COORD97":171254.45999999999,"N_COORD97":2545526.2400000002,"ADDRESS":"六合路４２巷１１號","OBJECTID":397195},"geometry":{"x":171254.45999999996,"y":2545526.2400000021}},{"attributes":{"ID":397220,"DIS_CODE":0,"TOWNNAME":"永康區","LI":"六合里","LIN":"16鄰","STREET":"六合路","SECT":" ","MAREA":" ","LANE":"４２巷","ALLEY":" ","HOUSE_NO":"１３號","E_COORD97":171265.10000000001,"N_COORD97":2545523.9900000002,"ADDRESS":"六合路４２巷１３號","OBJECTID":397196},"geometry":{"x":171265.09999999963,"y":2545523.9900000021}},{"attributes":{"ID":397221,"DIS_CODE":0,"TOWNNAME":"永康區","LI":"六合里","LIN":"16鄰","STREET":"六合路","SECT":" ","MAREA":" ","LANE":"４２巷","ALLEY":" ","HOUSE_NO":"１５號","E_COORD97":171269.14999999999,"N_COORD97":2545523,"ADDRESS":"六合路４２巷１５號","OBJECTID":397197},"geometry":{"x":171269.15000000224,"y":2545523.0000000037}},{"attributes":{"ID":397222,"DIS_CODE":0,"TOWNNAME":"永康區","LI":"六合里","LIN":"16鄰","STREET":"六合路","SECT":" ","MAREA":" ","LANE":"４２巷","ALLEY":" ","HOUSE_NO":"１７號","E_COORD97":171283.73999999999,"N_COORD97":2545521.25,"ADDRESS":"六合路４２巷１７號","OBJECTID":397198},"geometry":{"x":171283.74000000115,"y":2545521.2500000037}},{"attributes":{"ID":397223,"DIS_CODE":0,"TOWNNAME":"永康區","LI":"六合里","LIN":"16鄰","STREET":"六合路","SECT":" ","MAREA":" ","LANE":"４２巷","ALLEY":" ","HOUSE_NO":"１９號","E_COORD97":171309.39999999999,"N_COORD97":2545519.5,"ADDRESS":"六合路４２巷１９號","OBJECTID":397199},"geometry":{"x":171309.40000000037,"y":2545519.5000000037}},{"attributes":{"ID":397224,"DIS_CODE":0,"TOWNNAME":"永康區","LI":"六合里","LIN":"16鄰","STREET":"六合路","SECT":" ","MAREA":" ","LANE":"４２巷","ALLEY":" ","HOUSE_NO":"１號","E_COORD97":171213.70000000001,"N_COORD97":2545534.9900000002,"ADDRESS":"六合路４２巷１號","OBJECTID":397200},"geometry":{"x":171213.70000000019,"y":2545534.9900000002}}]}