{"displayFieldName":"TOWNNAME","fieldAliases":{"ID":"ID","DIS_CODE":"DIS_CODE","TOWNNAME":"TOWNNAME","LI":"LI","LIN":"LIN","STREET":"STREET","SECT":"SECT","MAREA":"MAREA","LANE":"LANE","ALLEY":"ALLEY","HOUSE_NO":"HOUSE_NO","E_COORD97":"E_COORD97","N_COORD97":"N_COORD97","ADDRESS":"ADDRESS","OBJECTID":"OBJECTID"},"geometryType":"esriGeometryPoint","spatialReference":{"wkid":102443,"latestWkid":3826},"fields":[{"name":"ID","type":"esriFieldTypeDouble","alias":"ID"},{"name":"DIS_CODE","type":"esriFieldTypeInteger","alias":"DIS_CODE"},{"name":"TOWNNAME","type":"esriFieldTypeString","alias":"TOWNNAME","length":8},{"name":"LI","type":"esriFieldTypeString","alias":"LI","length":8},{"name":"LIN","type":"esriFieldTypeString","alias":"LIN","length":12},{"name":"STREET","type":"esriFieldTypeString","alias":"STREET","length":20},{"name":"SECT","type":"esriFieldTypeString","alias":"SECT","length":8},{"name":"MAREA","type":"esriFieldTypeString","alias":"MAREA","length":12},{"name":"LANE","type":"esriFieldTypeString","alias":"LANE","length":10},{"name":"ALLEY","type":"esriFieldTypeString","alias":"ALLEY","length":10},{"name":"HOUSE_NO","type":"esriFieldTypeString","alias":"HOUSE_NO","length":20},{"name":"E_COORD97","type":"esriFieldTypeDouble","alias":"E_COORD97"},{"name":"N_COORD97","type":"esriFieldTypeDouble","alias":"N_COORD97"},{"name":"ADDRESS","type":"esriFieldTypeString","alias":"ADDRESS","length":50},{"name":"OBJECTID","type":"esriFieldTypeOID","alias":"OBJECTID"}],"features":[{"attributes":{"ID":167802,"DIS_CODE":0,"TOWNNAME":"南區","LI":"建南里","LIN":"23鄰","STREET":"永成路","SECT":"二段","MAREA":" ","LANE":"８２７巷","ALLEY":"２５弄","HOUSE_NO":"４０號","E_COORD97":167410.87138699999,"N_COORD97":2540014.1138599999,"ADDRESS":"永成路二段８２７巷２５弄４０號","OBJECTID":167801},"geometry":{"x":167410.8713870002,"y":2540014.1138630025}},{"attributes":{"ID":167803,"DIS_CODE":0,"TOWNNAME":"永康區","LI":"復華里","LIN":"21鄰","STREET":"國華街","SECT":" ","MAREA":" ","LANE":"１３２巷","ALLEY":"１０弄","HOUSE_NO":"２０號","E_COORD97":172901.03576599999,"N_COORD97":2546350.7885599998,"ADDRESS":"國華街１３２巷１０弄２０號","OBJECTID":167802},"geometry":{"x":172901.03576600179,"y":2546350.7885630019}},{"attributes":{"ID":167804,"DIS_CODE":0,"TOWNNAME":"南區","LI":"建南里","LIN":"23鄰","STREET":"永成路","SECT":"二段","MAREA":" ","LANE":"８２７巷","ALLEY":"２５弄","HOUSE_NO":"５２號","E_COORD97":167415.95396499999,"N_COORD97":2540003.1072,"ADDRESS":"永成路二段８２７巷２５弄５２號","OBJECTID":167803},"geometry":{"x":167415.95396500174,"y":2540003.1072020028}},{"attributes":{"ID":167805,"DIS_CODE":0,"TOWNNAME":"後壁區","LI":"竹新里","LIN":"13鄰","STREET":" ","SECT":" ","MAREA":"新厝","LANE":" ","ALLEY":" ","HOUSE_NO":"９號之１０","E_COORD97":179205.85999999999,"N_COORD97":2582027.46,"ADDRESS":"新厝９號之１０","OBJECTID":167804},"geometry":{"x":179205.86000000034,"y":2582027.4600000009}},{"attributes":{"ID":167806,"DIS_CODE":0,"TOWNNAME":"後壁區","LI":"竹新里","LIN":"13鄰","STREET":" ","SECT":" ","MAREA":"新厝","LANE":" ","ALLEY":" ","HOUSE_NO":"９號之１１","E_COORD97":179205.81,"N_COORD97":2582032.4300000002,"ADDRESS":"新厝９號之１１","OBJECTID":167805},"geometry":{"x":179205.81000000145,"y":2582032.4299999997}},{"attributes":{"ID":167807,"DIS_CODE":0,"TOWNNAME":"後壁區","LI":"竹新里","LIN":"13鄰","STREET":" ","SECT":" ","MAREA":"新厝","LANE":" ","ALLEY":" ","HOUSE_NO":"９號之１２０","E_COORD97":179217.91,"N_COORD97":2581479.0499999998,"ADDRESS":"新厝９號之１２０","OBJECTID":167806},"geometry":{"x":179217.91000000108,"y":2581479.0500000026}},{"attributes":{"ID":167808,"DIS_CODE":0,"TOWNNAME":"後壁區","LI":"竹新里","LIN":"13鄰","STREET":" ","SECT":" ","MAREA":"新厝","LANE":" ","ALLEY":" ","HOUSE_NO":"９號之１２","E_COORD97":179205.26999999999,"N_COORD97":2582037.5699999998,"ADDRESS":"新厝９號之１２","OBJECTID":167807},"geometry":{"x":179205.26999999955,"y":2582037.5700000022}},{"attributes":{"ID":167809,"DIS_CODE":0,"TOWNNAME":"仁德區","LI":"後壁里","LIN":"18鄰","STREET":"德南路","SECT":" ","MAREA":" ","LANE":" ","ALLEY":" ","HOUSE_NO":"２號","E_COORD97":173254.92000000001,"N_COORD97":2538791.7599999998,"ADDRESS":"德南路２號","OBJECTID":167808},"geometry":{"x":173254.91999999993,"y":2538791.7600000016}},{"attributes":{"ID":167810,"DIS_CODE":0,"TOWNNAME":"中西區","LI":"光賢里","LIN":"19鄰","STREET":"武聖路","SECT":" ","MAREA":" ","LANE":"１９７巷","ALLEY":"１０弄","HOUSE_NO":"１７號","E_COORD97":166846.79000000001,"N_COORD97":2545221.25,"ADDRESS":"武聖路１９７巷１０弄１７號","OBJECTID":167809},"geometry":{"x":166846.7900000019,"y":2545221.25}},{"attributes":{"ID":167811,"DIS_CODE":0,"TOWNNAME":"中西區","LI":"光賢里","LIN":"19鄰","STREET":"武聖路","SECT":" ","MAREA":" ","LANE":"１９７巷","ALLEY":"１０弄","HOUSE_NO":"１８號","E_COORD97":166858.31,"N_COORD97":2545244.8900000001,"ADDRESS":"武聖路１９７巷１０弄１８號","OBJECTID":167810},"geometry":{"x":166858.31000000052,"y":2545244.8900000006}},{"attributes":{"ID":167812,"DIS_CODE":0,"TOWNNAME":"仁德區","LI":"二行里","LIN":"6鄰","STREET":"二行一路","SECT":" ","MAREA":" ","LANE":" ","ALLEY":" ","HOUSE_NO":"８８號","E_COORD97":170493.95999999999,"N_COORD97":2535426.75,"ADDRESS":"二行一路８８號","OBJECTID":167811},"geometry":{"x":170493.96000000089,"y":2535426.75}},{"attributes":{"ID":167813,"DIS_CODE":0,"TOWNNAME":"南區","LI":"郡南里","LIN":"12鄰","STREET":"永吉街","SECT":" ","MAREA":" ","LANE":" ","ALLEY":" ","HOUSE_NO":"４２號","E_COORD97":167321.29999999999,"N_COORD97":2540663.3199999998,"ADDRESS":"永吉街４２號","OBJECTID":167812},"geometry":{"x":167321.30000000075,"y":2540663.3200000022}},{"attributes":{"ID":167814,"DIS_CODE":0,"TOWNNAME":"南區","LI":"郡南里","LIN":"12鄰","STREET":"永吉街","SECT":" ","MAREA":" ","LANE":" ","ALLEY":" ","HOUSE_NO":"７０號","E_COORD97":167326.32000000001,"N_COORD97":2540737.9100000001,"ADDRESS":"永吉街７０號","OBJECTID":167813},"geometry":{"x":167326.3200000003,"y":2540737.910000002}},{"attributes":{"ID":167815,"DIS_CODE":0,"TOWNNAME":"南區","LI":"郡南里","LIN":"13鄰","STREET":"永興三街","SECT":" ","MAREA":" ","LANE":" ","ALLEY":" ","HOUSE_NO":"４號","E_COORD97":167471.39000000001,"N_COORD97":2540618.8799999999,"ADDRESS":"永興三街４號","OBJECTID":167814},"geometry":{"x":167471.3900000006,"y":2540618.879999999}},{"attributes":{"ID":167816,"DIS_CODE":0,"TOWNNAME":"安南區","LI":"\u25A0南里","LIN":"21鄰","STREET":"環福街","SECT":" ","MAREA":" ","LANE":"１７０巷","ALLEY":"１５弄","HOUSE_NO":"１２號","E_COORD97":170357.778704,"N_COORD97":2552628.2051499998,"ADDRESS":"環福街１７０巷１５弄１２號","OBJECTID":167815},"geometry":{"x":170357.77870400064,"y":2552628.2051480003}},{"attributes":{"ID":167817,"DIS_CODE":0,"TOWNNAME":"中西區","LI":"光賢里","LIN":"21鄰","STREET":"武聖路","SECT":" ","MAREA":" ","LANE":"１９７巷","ALLEY":"３０弄","HOUSE_NO":"１０號","E_COORD97":166852.38,"N_COORD97":2545190.9399999999,"ADDRESS":"武聖路１９７巷３０弄１０號","OBJECTID":167816},"geometry":{"x":166852.37999999989,"y":2545190.9400000013}},{"attributes":{"ID":167818,"DIS_CODE":0,"TOWNNAME":"歸仁區","LI":"七甲里","LIN":"18鄰","STREET":"南潭三街","SECT":" ","MAREA":" ","LANE":"１６２巷","ALLEY":"７弄","HOUSE_NO":"２號","E_COORD97":176447.69128299999,"N_COORD97":2543142.52201,"ADDRESS":"南潭三街１６２巷７弄２號","OBJECTID":167817},"geometry":{"x":176447.69128300156,"y":2543142.5220100023}},{"attributes":{"ID":167819,"DIS_CODE":0,"TOWNNAME":"關廟區","LI":"新埔里","LIN":"6鄰","STREET":"新埔三街","SECT":" ","MAREA":" ","LANE":"２９巷","ALLEY":"１１弄","HOUSE_NO":"１８號","E_COORD97":181062.37199799999,"N_COORD97":2540968.6627000002,"ADDRESS":"新埔三街２９巷１１弄１８號","OBJECTID":167818},"geometry":{"x":181062.37199800089,"y":2540968.662698999}},{"attributes":{"ID":167820,"DIS_CODE":0,"TOWNNAME":"歸仁區","LI":"西埔里","LIN":"15鄰","STREET":"大埔路","SECT":"二段","MAREA":" ","LANE":"８巷","ALLEY":"２５弄","HOUSE_NO":"７１號","E_COORD97":176107.58853899999,"N_COORD97":2545432.1191099999,"ADDRESS":"大埔路二段８巷２５弄７１號","OBJECTID":167819},"geometry":{"x":176107.58853899967,"y":2545432.1191070024}},{"attributes":{"ID":167821,"DIS_CODE":0,"TOWNNAME":"歸仁區","LI":"西埔里","LIN":"15鄰","STREET":"西埔二街","SECT":" ","MAREA":" ","LANE":"１１０巷","ALLEY":"８０弄","HOUSE_NO":"５１號","E_COORD97":176605.02060799999,"N_COORD97":2544973.6493500001,"ADDRESS":"西埔二街１１０巷８０弄５１號","OBJECTID":167820},"geometry":{"x":176605.02060800046,"y":2544973.6493550036}},{"attributes":{"ID":167822,"DIS_CODE":0,"TOWNNAME":"安南區","LI":"總頭里","LIN":"12鄰","STREET":"長溪路","SECT":"二段","MAREA":" ","LANE":"５２３巷","ALLEY":"１５弄","HOUSE_NO":"６號","E_COORD97":168184.44785299999,"N_COORD97":2550479.65234,"ADDRESS":"長溪路二段５２３巷１５弄６號","OBJECTID":167821},"geometry":{"x":168184.44785300177,"y":2550479.6523350012}},{"attributes":{"ID":167823,"DIS_CODE":0,"TOWNNAME":"新營區","LI":"民榮里","LIN":"39鄰","STREET":"太子路","SECT":" ","MAREA":" ","LANE":"５３巷","ALLEY":"８弄","HOUSE_NO":"３２號","E_COORD97":178305.041964,"N_COORD97":2577860.64065,"ADDRESS":"太子路５３巷８弄３２號","OBJECTID":167822},"geometry":{"x":178305.04196400195,"y":2577860.6406479999}},{"attributes":{"ID":167824,"DIS_CODE":0,"TOWNNAME":"新營區","LI":"民榮里","LIN":"39鄰","STREET":"太子路","SECT":" ","MAREA":" ","LANE":"５３巷","ALLEY":"８弄","HOUSE_NO":"４０號","E_COORD97":178291.69431699999,"N_COORD97":2577856.4073200002,"ADDRESS":"太子路５３巷８弄４０號","OBJECTID":167823},"geometry":{"x":178291.69431699999,"y":2577856.4073170032}},{"attributes":{"ID":167825,"DIS_CODE":0,"TOWNNAME":"新營區","LI":"民榮里","LIN":"39鄰","STREET":"太子路","SECT":" ","MAREA":" ","LANE":"５３巷","ALLEY":"８弄","HOUSE_NO":"４２號","E_COORD97":178286.82136599999,"N_COORD97":2577854.9256500001,"ADDRESS":"太子路５３巷８弄４２號","OBJECTID":167824},"geometry":{"x":178286.82136600092,"y":2577854.9256510008}},{"attributes":{"ID":167826,"DIS_CODE":0,"TOWNNAME":"新營區","LI":"民榮里","LIN":"39鄰","STREET":"太子路","SECT":" ","MAREA":" ","LANE":"５３巷","ALLEY":"８弄","HOUSE_NO":"４６號","E_COORD97":178281.948416,"N_COORD97":2577853.4439900001,"ADDRESS":"太子路５３巷８弄４６號","OBJECTID":167825},"geometry":{"x":178281.94841600023,"y":2577853.4439859986}},{"attributes":{"ID":167827,"DIS_CODE":0,"TOWNNAME":"新營區","LI":"民榮里","LIN":"39鄰","STREET":"太子路","SECT":" ","MAREA":" ","LANE":"５３巷","ALLEY":"８弄","HOUSE_NO":"４８號","E_COORD97":178277.49919999999,"N_COORD97":2577852.17399,"ADDRESS":"太子路５３巷８弄４８號","OBJECTID":167826},"geometry":{"x":178277.49920000043,"y":2577852.1739860009}},{"attributes":{"ID":167828,"DIS_CODE":0,"TOWNNAME":"新營區","LI":"民榮里","LIN":"39鄰","STREET":"太子路","SECT":" ","MAREA":" ","LANE":"５３巷","ALLEY":"８弄","HOUSE_NO":"３８號","E_COORD97":178296.14353299999,"N_COORD97":2577858.0477300002,"ADDRESS":"太子路５３巷８弄３８號","OBJECTID":167827},"geometry":{"x":178296.14353300072,"y":2577858.0477330014}},{"attributes":{"ID":167829,"DIS_CODE":0,"TOWNNAME":"安南區","LI":"安東里","LIN":"13鄰","STREET":"安和路","SECT":"一段","MAREA":" ","LANE":"２２０巷","ALLEY":"９４弄","HOUSE_NO":"７號","E_COORD97":169595.24601,"N_COORD97":2548027.15937,"ADDRESS":"安和路一段２２０巷９４弄７號","OBJECTID":167828},"geometry":{"x":169595.24600999989,"y":2548027.1593660004}},{"attributes":{"ID":167830,"DIS_CODE":0,"TOWNNAME":"安南區","LI":"安東里","LIN":"13鄰","STREET":"安和路","SECT":"一段","MAREA":" ","LANE":"２２０巷","ALLEY":"９４弄","HOUSE_NO":"９號","E_COORD97":169598.63566999999,"N_COORD97":2548022.0793699999,"ADDRESS":"安和路一段２２０巷９４弄９號","OBJECTID":167829},"geometry":{"x":169598.63566999976,"y":2548022.0793690011}},{"attributes":{"ID":167831,"DIS_CODE":0,"TOWNNAME":"安南區","LI":"安東里","LIN":"13鄰","STREET":"安和路","SECT":"一段","MAREA":" ","LANE":"２２０巷","ALLEY":"９４弄","HOUSE_NO":"１１號","E_COORD97":169600.754208,"N_COORD97":2548016.9993699999,"ADDRESS":"安和路一段２２０巷９４弄１１號","OBJECTID":167830},"geometry":{"x":169600.75420800038,"y":2548016.9993720017}},{"attributes":{"ID":167832,"DIS_CODE":0,"TOWNNAME":"新營區","LI":"民榮里","LIN":"39鄰","STREET":"太子路","SECT":" ","MAREA":" ","LANE":"５３巷","ALLEY":"８弄","HOUSE_NO":"３６號","E_COORD97":178300.69868199999,"N_COORD97":2577859.1854400001,"ADDRESS":"太子路５３巷８弄３６號","OBJECTID":167831},"geometry":{"x":178300.69868200179,"y":2577859.1854410004}},{"attributes":{"ID":167833,"DIS_CODE":0,"TOWNNAME":"安南區","LI":"安東里","LIN":"13鄰","STREET":"安和路","SECT":"一段","MAREA":" ","LANE":"２２０巷","ALLEY":"９４弄","HOUSE_NO":"１３號","E_COORD97":169602.237184,"N_COORD97":2548011.4960400001,"ADDRESS":"安和路一段２２０巷９４弄１３號","OBJECTID":167832},"geometry":{"x":169602.23718400206,"y":2548011.4960420001}},{"attributes":{"ID":167834,"DIS_CODE":0,"TOWNNAME":"安南區","LI":"安東里","LIN":"13鄰","STREET":"安和路","SECT":"一段","MAREA":" ","LANE":"２２０巷","ALLEY":"９４弄","HOUSE_NO":"１５號","E_COORD97":169604.355721,"N_COORD97":2548007.6860400001,"ADDRESS":"安和路一段２２０巷９４弄１５號","OBJECTID":167833},"geometry":{"x":169604.35572100058,"y":2548007.6860440001}},{"attributes":{"ID":167835,"DIS_CODE":0,"TOWNNAME":"仁德區","LI":"新田里","LIN":"4鄰","STREET":"勝利路","SECT":" ","MAREA":" ","LANE":"１７７巷","ALLEY":"６弄","HOUSE_NO":"１號","E_COORD97":174399.85486799999,"N_COORD97":2539617.36736,"ADDRESS":"勝利路１７７巷６弄１號","OBJECTID":167834},"geometry":{"x":174399.85486800037,"y":2539617.3673590012}},{"attributes":{"ID":167836,"DIS_CODE":0,"TOWNNAME":"仁德區","LI":"新田里","LIN":"4鄰","STREET":"勝利路","SECT":" ","MAREA":" ","LANE":"１７７巷","ALLEY":"６弄","HOUSE_NO":"３號","E_COORD97":174423.794444,"N_COORD97":2539613.55736,"ADDRESS":"勝利路１７７巷６弄３號","OBJECTID":167835},"geometry":{"x":174423.79444400128,"y":2539613.5573610011}},{"attributes":{"ID":167837,"DIS_CODE":0,"TOWNNAME":"安南區","LI":"安東里","LIN":"5鄰","STREET":"安和路","SECT":"一段","MAREA":" ","LANE":"２２０巷","ALLEY":"９３弄","HOUSE_NO":"７號","E_COORD97":169477.98496500001,"N_COORD97":2548110.5559899998,"ADDRESS":"安和路一段２２０巷９３弄７號","OBJECTID":167836},"geometry":{"x":169477.9849650003,"y":2548110.5559880007}},{"attributes":{"ID":167838,"DIS_CODE":0,"TOWNNAME":"安南區","LI":"安東里","LIN":"5鄰","STREET":"安和路","SECT":"一段","MAREA":" ","LANE":"２２０巷","ALLEY":"９３弄","HOUSE_NO":"２１號","E_COORD97":169511.45785599999,"N_COORD97":2548146.7509699999,"ADDRESS":"安和路一段２２０巷９３弄２１號","OBJECTID":167837},"geometry":{"x":169511.45785600133,"y":2548146.7509690002}},{"attributes":{"ID":167839,"DIS_CODE":0,"TOWNNAME":"仁德區","LI":"仁愛里","LIN":"18鄰","STREET":"保仁路","SECT":" ","MAREA":" ","LANE":"１２０巷","ALLEY":"９０弄","HOUSE_NO":"３０號","E_COORD97":170238.41,"N_COORD97":2540255.67618,"ADDRESS":"保仁路１２０巷９０弄３０號","OBJECTID":167838},"geometry":{"x":170238.41000000108,"y":2540255.6761799976}},{"attributes":{"ID":167840,"DIS_CODE":0,"TOWNNAME":"仁德區","LI":"仁愛里","LIN":"18鄰","STREET":"保仁路","SECT":" ","MAREA":" ","LANE":"１２０巷","ALLEY":"９０弄","HOUSE_NO":"２８號","E_COORD97":170238.39999999999,"N_COORD97":2540251.1253499999,"ADDRESS":"保仁路１２０巷９０弄２８號","OBJECTID":167839},"geometry":{"x":170238.40000000224,"y":2540251.1253500022}},{"attributes":{"ID":167841,"DIS_CODE":0,"TOWNNAME":"仁德區","LI":"仁愛里","LIN":"18鄰","STREET":"保仁路","SECT":" ","MAREA":" ","LANE":"１２０巷","ALLEY":"９０弄","HOUSE_NO":"２０號","E_COORD97":170238.37,"N_COORD97":2540237.9500000002,"ADDRESS":"保仁路１２０巷９０弄２０號","OBJECTID":167840},"geometry":{"x":170238.37000000197,"y":2540237.9500000011}},{"attributes":{"ID":167842,"DIS_CODE":0,"TOWNNAME":"後壁區","LI":"竹新里","LIN":"13鄰","STREET":" ","SECT":" ","MAREA":"新厝","LANE":" ","ALLEY":" ","HOUSE_NO":"９號之１３","E_COORD97":179204.98000000001,"N_COORD97":2582043.0499999998,"ADDRESS":"新厝９號之１３","OBJECTID":167841},"geometry":{"x":179204.98000000045,"y":2582043.0500000007}},{"attributes":{"ID":167843,"DIS_CODE":0,"TOWNNAME":"後壁區","LI":"竹新里","LIN":"13鄰","STREET":" ","SECT":" ","MAREA":"新厝","LANE":" ","ALLEY":" ","HOUSE_NO":"９號之１４","E_COORD97":179204.5,"N_COORD97":2582047.6000000001,"ADDRESS":"新厝９號之１４","OBJECTID":167842},"geometry":{"x":179204.5,"y":2582047.6000000015}},{"attributes":{"ID":167844,"DIS_CODE":0,"TOWNNAME":"安定區","LI":"蘇厝里","LIN":"12鄰","STREET":" ","SECT":" ","MAREA":"蘇厝","LANE":" ","ALLEY":" ","HOUSE_NO":"３９１號","E_COORD97":173161.32000000001,"N_COORD97":2558855.25,"ADDRESS":"蘇厝３９１號","OBJECTID":167843},"geometry":{"x":173161.31999999937,"y":2558855.2499999981}},{"attributes":{"ID":167845,"DIS_CODE":0,"TOWNNAME":"仁德區","LI":"三甲里","LIN":"5鄰","STREET":" ","SECT":" ","MAREA":"三甲子","LANE":" ","ALLEY":" ","HOUSE_NO":"４７號之２","E_COORD97":171910.54000000001,"N_COORD97":2536714.7999999998,"ADDRESS":"三甲子４７號之２","OBJECTID":167844},"geometry":{"x":171910.54000000097,"y":2536714.8000000026}},{"attributes":{"ID":167846,"DIS_CODE":0,"TOWNNAME":"安定區","LI":"港尾里","LIN":"12鄰","STREET":" ","SECT":" ","MAREA":"港子尾","LANE":" ","ALLEY":" ","HOUSE_NO":"７２號之４","E_COORD97":171455.45000000001,"N_COORD97":2555936.2999999998,"ADDRESS":"港子尾７２號之４","OBJECTID":167845},"geometry":{"x":171455.45000000112,"y":2555936.3000000007}},{"attributes":{"ID":167847,"DIS_CODE":0,"TOWNNAME":"安定區","LI":"蘇厝里","LIN":"12鄰","STREET":" ","SECT":" ","MAREA":"蘇厝","LANE":" ","ALLEY":" ","HOUSE_NO":"３９４之５號","E_COORD97":173176.92000000001,"N_COORD97":2558789.2999999998,"ADDRESS":"蘇厝３９４之５號","OBJECTID":167846},"geometry":{"x":173176.91999999993,"y":2558789.3000000026}},{"attributes":{"ID":167848,"DIS_CODE":0,"TOWNNAME":"後壁區","LI":"竹新里","LIN":"13鄰","STREET":" ","SECT":" ","MAREA":"新厝","LANE":" ","ALLEY":" ","HOUSE_NO":"９號之１５","E_COORD97":179206.17999999999,"N_COORD97":2582052.79,"ADDRESS":"新厝９號之１５","OBJECTID":167847},"geometry":{"x":179206.1799999997,"y":2582052.790000001}},{"attributes":{"ID":167849,"DIS_CODE":0,"TOWNNAME":"安南區","LI":"海西里","LIN":"12鄰","STREET":"海環街","SECT":" ","MAREA":" ","LANE":" ","ALLEY":" ","HOUSE_NO":"２１３號","E_COORD97":166296.84,"N_COORD97":2548631.0299999998,"ADDRESS":"海環街２１３號","OBJECTID":167848},"geometry":{"x":166296.83999999892,"y":2548631.0300000031}},{"attributes":{"ID":167850,"DIS_CODE":0,"TOWNNAME":"仁德區","LI":"太子里","LIN":"24鄰","STREET":"長興五街","SECT":" ","MAREA":" ","LANE":"４２巷","ALLEY":"１０弄","HOUSE_NO":"３號","E_COORD97":173698.29796699999,"N_COORD97":2543694.8467000001,"ADDRESS":"長興五街４２巷１０弄３號","OBJECTID":167849},"geometry":{"x":173698.29796699993,"y":2543694.8467009999}},{"attributes":{"ID":167851,"DIS_CODE":0,"TOWNNAME":"仁德區","LI":"太子里","LIN":"24鄰","STREET":"長興五街","SECT":" ","MAREA":" ","LANE":"４２巷","ALLEY":"１０弄","HOUSE_NO":"５號","E_COORD97":173699.56859899999,"N_COORD97":2543673.46838,"ADDRESS":"長興五街４２巷１０弄５號","OBJECTID":167850},"geometry":{"x":173699.56859900057,"y":2543673.4683790002}},{"attributes":{"ID":167852,"DIS_CODE":0,"TOWNNAME":"永康區","LI":"復華里","LIN":"25鄰","STREET":"國華街","SECT":" ","MAREA":" ","LANE":"１３２巷","ALLEY":"７弄","HOUSE_NO":"１１號","E_COORD97":172830.33193399999,"N_COORD97":2546395.33243,"ADDRESS":"國華街１３２巷７弄１１號","OBJECTID":167851},"geometry":{"x":172830.3319340013,"y":2546395.3324310016}},{"attributes":{"ID":167853,"DIS_CODE":0,"TOWNNAME":"永康區","LI":"復華里","LIN":"25鄰","STREET":"國華街","SECT":" ","MAREA":" ","LANE":"１３２巷","ALLEY":"７弄","HOUSE_NO":"１號","E_COORD97":172852.154278,"N_COORD97":2546395.1207699999,"ADDRESS":"國華街１３２巷７弄１號","OBJECTID":167852},"geometry":{"x":172852.15427799989,"y":2546395.1207650006}},{"attributes":{"ID":167854,"DIS_CODE":0,"TOWNNAME":"後壁區","LI":"竹新里","LIN":"13鄰","STREET":" ","SECT":" ","MAREA":"新厝","LANE":" ","ALLEY":" ","HOUSE_NO":"９號之１６","E_COORD97":179206.34,"N_COORD97":2582057.9199999999,"ADDRESS":"新厝９號之１６","OBJECTID":167853},"geometry":{"x":179206.34000000078,"y":2582057.9200000037}},{"attributes":{"ID":167855,"DIS_CODE":0,"TOWNNAME":"後壁區","LI":"竹新里","LIN":"13鄰","STREET":" ","SECT":" ","MAREA":"新厝","LANE":" ","ALLEY":" ","HOUSE_NO":"９號之１７","E_COORD97":179228.89999999999,"N_COORD97":2582023.6400000001,"ADDRESS":"新厝９號之１７","OBJECTID":167854},"geometry":{"x":179228.90000000037,"y":2582023.6400000025}},{"attributes":{"ID":167856,"DIS_CODE":0,"TOWNNAME":"永康區","LI":"復華里","LIN":"25鄰","STREET":"國華街","SECT":" ","MAREA":" ","LANE":"１３２巷","ALLEY":"７弄","HOUSE_NO":"３號","E_COORD97":172847.06946,"N_COORD97":2546395.1207699999,"ADDRESS":"國華街１３２巷７弄３號","OBJECTID":167855},"geometry":{"x":172847.06945999991,"y":2546395.1207650006}},{"attributes":{"ID":167857,"DIS_CODE":0,"TOWNNAME":"永康區","LI":"復華里","LIN":"25鄰","STREET":"國華街","SECT":" ","MAREA":" ","LANE":"１３２巷","ALLEY":"７弄","HOUSE_NO":"６號","E_COORD97":172844.10331599999,"N_COORD97":2546402.1057600002,"ADDRESS":"國華街１３２巷７弄６號","OBJECTID":167856},"geometry":{"x":172844.10331599973,"y":2546402.105760999}},{"attributes":{"ID":167858,"DIS_CODE":0,"TOWNNAME":"後壁區","LI":"竹新里","LIN":"13鄰","STREET":" ","SECT":" ","MAREA":"新厝","LANE":" ","ALLEY":" ","HOUSE_NO":"９號之１８","E_COORD97":179228.73999999999,"N_COORD97":2582028.7000000002,"ADDRESS":"新厝９號之１８","OBJECTID":167857},"geometry":{"x":179228.74000000022,"y":2582028.7000000011}},{"attributes":{"ID":167859,"DIS_CODE":0,"TOWNNAME":"後壁區","LI":"竹新里","LIN":"13鄰","STREET":" ","SECT":" ","MAREA":"新厝","LANE":" ","ALLEY":" ","HOUSE_NO":"９號之１９","E_COORD97":179227.14000000001,"N_COORD97":2582036.5699999998,"ADDRESS":"新厝９號之１９","OBJECTID":167858},"geometry":{"x":179227.13999999966,"y":2582036.5700000003}},{"attributes":{"ID":167860,"DIS_CODE":0,"TOWNNAME":"後壁區","LI":"竹新里","LIN":"13鄰","STREET":" ","SECT":" ","MAREA":"新厝","LANE":" ","ALLEY":" ","HOUSE_NO":"９號之１","E_COORD97":179233.31,"N_COORD97":2582051.8500000001,"ADDRESS":"新厝９號之１","OBJECTID":167859},"geometry":{"x":179233.31000000052,"y":2582051.8500000015}},{"attributes":{"ID":167861,"DIS_CODE":0,"TOWNNAME":"後壁區","LI":"竹新里","LIN":"13鄰","STREET":" ","SECT":" ","MAREA":"新厝","LANE":" ","ALLEY":" ","HOUSE_NO":"９號之５","E_COORD97":179201.70999999999,"N_COORD97":2582014.4500000002,"ADDRESS":"新厝９號之５","OBJECTID":167860},"geometry":{"x":179201.71000000183,"y":2582014.4500000011}},{"attributes":{"ID":167862,"DIS_CODE":0,"TOWNNAME":"永康區","LI":"復華里","LIN":"22鄰","STREET":"國華街","SECT":" ","MAREA":" ","LANE":"１３２巷","ALLEY":"６弄","HOUSE_NO":"１號","E_COORD97":172855.33228999999,"N_COORD97":2546326.5408000001,"ADDRESS":"國華街１３２巷６弄１號","OBJECTID":167861},"geometry":{"x":172855.33229000028,"y":2546326.540802002}},{"attributes":{"ID":167863,"DIS_CODE":0,"TOWNNAME":"永康區","LI":"復華里","LIN":"22鄰","STREET":"國華街","SECT":" ","MAREA":" ","LANE":"１３２巷","ALLEY":"６弄","HOUSE_NO":"３號","E_COORD97":172860.20524000001,"N_COORD97":2546326.5408000001,"ADDRESS":"國華街１３２巷６弄３號","OBJECTID":167862},"geometry":{"x":172860.20524000097,"y":2546326.540802002}},{"attributes":{"ID":167864,"DIS_CODE":0,"TOWNNAME":"永康區","LI":"復華里","LIN":"22鄰","STREET":"國華街","SECT":" ","MAREA":" ","LANE":"１３２巷","ALLEY":"６弄","HOUSE_NO":"９號","E_COORD97":172874.824092,"N_COORD97":2546325.9057999998,"ADDRESS":"國華街１３２巷６弄９號","OBJECTID":167863},"geometry":{"x":172874.82409200165,"y":2546325.9058020022}},{"attributes":{"ID":167865,"DIS_CODE":0,"TOWNNAME":"中西區","LI":"開山里","LIN":"4鄰","STREET":"府前路","SECT":"一段","MAREA":" ","LANE":"８５巷","ALLEY":"３４弄","HOUSE_NO":"５號","E_COORD97":168902.54999999999,"N_COORD97":2543184.6000000001,"ADDRESS":"府前路一段８５巷３４弄５號","OBJECTID":167864},"geometry":{"x":168902.54999999981,"y":2543184.5999999996}},{"attributes":{"ID":167866,"DIS_CODE":0,"TOWNNAME":"中西區","LI":"開山里","LIN":"6鄰","STREET":"府前路","SECT":"一段","MAREA":" ","LANE":"８５巷","ALLEY":"１４弄","HOUSE_NO":"１０號","E_COORD97":168913.98999999999,"N_COORD97":2543240.3700000001,"ADDRESS":"府前路一段８５巷１４弄１０號","OBJECTID":167865},"geometry":{"x":168913.99000000115,"y":2543240.3700000029}},{"attributes":{"ID":167867,"DIS_CODE":0,"TOWNNAME":"新市區","LI":"新和里","LIN":"39鄰","STREET":"中正路","SECT":" ","MAREA":" ","LANE":"２６８巷","ALLEY":"１２弄","HOUSE_NO":"７號","E_COORD97":177511.29000000001,"N_COORD97":2553008,"ADDRESS":"中正路２６８巷１２弄７號","OBJECTID":167866},"geometry":{"x":177511.2900000019,"y":2553008}},{"attributes":{"ID":167868,"DIS_CODE":0,"TOWNNAME":"仁德區","LI":"保安里","LIN":"21鄰","STREET":"文賢一街","SECT":" ","MAREA":" ","LANE":"１０巷","ALLEY":"１弄","HOUSE_NO":"５號","E_COORD97":171063.94283099999,"N_COORD97":2536730.0120899999,"ADDRESS":"文賢一街１０巷１弄５號","OBJECTID":167867},"geometry":{"x":171063.94283100031,"y":2536730.0120870005}},{"attributes":{"ID":167869,"DIS_CODE":0,"TOWNNAME":"仁德區","LI":"仁愛里","LIN":"18鄰","STREET":"保仁路","SECT":" ","MAREA":" ","LANE":"１２０巷","ALLEY":"１１８弄","HOUSE_NO":"２２號","E_COORD97":170203.37,"N_COORD97":2540280.2650000001,"ADDRESS":"保仁路１２０巷１１８弄２２號","OBJECTID":167868},"geometry":{"x":170203.37000000104,"y":2540280.2650000006}},{"attributes":{"ID":167870,"DIS_CODE":0,"TOWNNAME":"後壁區","LI":"竹新里","LIN":"13鄰","STREET":" ","SECT":" ","MAREA":"新厝","LANE":" ","ALLEY":" ","HOUSE_NO":"９號之６０","E_COORD97":179413.85000000001,"N_COORD97":2581494.2799999998,"ADDRESS":"新厝９號之６０","OBJECTID":167869},"geometry":{"x":179413.84999999963,"y":2581494.2799999993}},{"attributes":{"ID":167871,"DIS_CODE":0,"TOWNNAME":"南區","LI":"郡南里","LIN":"4鄰","STREET":"德興路","SECT":" ","MAREA":" ","LANE":" ","ALLEY":" ","HOUSE_NO":"２７號","E_COORD97":167191,"N_COORD97":2540803.6699999999,"ADDRESS":"德興路２７號","OBJECTID":167870},"geometry":{"x":167190.99999999907,"y":2540803.6700000018}},{"attributes":{"ID":167872,"DIS_CODE":0,"TOWNNAME":"南區","LI":"郡南里","LIN":"4鄰","STREET":"德興路","SECT":" ","MAREA":" ","LANE":" ","ALLEY":" ","HOUSE_NO":"５９號","E_COORD97":167183.5,"N_COORD97":2540744.21,"ADDRESS":"德興路５９號","OBJECTID":167871},"geometry":{"x":167183.5,"y":2540744.2100000009}},{"attributes":{"ID":167873,"DIS_CODE":0,"TOWNNAME":"新市區","LI":"新和里","LIN":"39鄰","STREET":"中正路","SECT":" ","MAREA":" ","LANE":"２６８巷","ALLEY":"１２弄","HOUSE_NO":"１號","E_COORD97":177516.29000000001,"N_COORD97":2552995.25,"ADDRESS":"中正路２６８巷１２弄１號","OBJECTID":167872},"geometry":{"x":177516.2900000019,"y":2552995.25}},{"attributes":{"ID":167874,"DIS_CODE":0,"TOWNNAME":"仁德區","LI":"仁愛里","LIN":"18鄰","STREET":"保仁路","SECT":" ","MAREA":" ","LANE":"１２０巷","ALLEY":"１１６弄","HOUSE_NO":"２６號","E_COORD97":170224.25049000001,"N_COORD97":2540243.0550000002,"ADDRESS":"保仁路１２０巷１１６弄２６號","OBJECTID":167873},"geometry":{"x":170224.25049000047,"y":2540243.0550000016}},{"attributes":{"ID":167875,"DIS_CODE":0,"TOWNNAME":"安南區","LI":"四草里","LIN":"6鄰","STREET":"四草大道","SECT":" ","MAREA":" ","LANE":"６８１巷","ALLEY":"１７弄","HOUSE_NO":"１號","E_COORD97":160968.17780999999,"N_COORD97":2546148.7142699999,"ADDRESS":"四草大道６８１巷１７弄１號","OBJECTID":167874},"geometry":{"x":160968.17781000119,"y":2546148.7142650001}},{"attributes":{"ID":167876,"DIS_CODE":0,"TOWNNAME":"安南區","LI":"四草里","LIN":"6鄰","STREET":"四草大道","SECT":" ","MAREA":" ","LANE":"６８１巷","ALLEY":"１７弄","HOUSE_NO":"２２號","E_COORD97":160998.46401,"N_COORD97":2546103.2059599999,"ADDRESS":"四草大道６８１巷１７弄２２號","OBJECTID":167875},"geometry":{"x":160998.46401000023,"y":2546103.2059560008}},{"attributes":{"ID":167877,"DIS_CODE":0,"TOWNNAME":"安南區","LI":"四草里","LIN":"7鄰","STREET":"四草大道","SECT":" ","MAREA":" ","LANE":"８１巷","ALLEY":"６弄","HOUSE_NO":"３號","E_COORD97":161332.300766,"N_COORD97":2544866.45946,"ADDRESS":"四草大道８１巷６弄３號","OBJECTID":167876},"geometry":{"x":161332.30076599959,"y":2544866.4594640005}},{"attributes":{"ID":167878,"DIS_CODE":0,"TOWNNAME":"安南區","LI":"四草里","LIN":"8鄰","STREET":"四草大道","SECT":" ","MAREA":" ","LANE":"８１巷","ALLEY":"４０１弄","HOUSE_NO":"２號","E_COORD97":160791.80858899999,"N_COORD97":2545129.9843199998,"ADDRESS":"四草大道８１巷４０１弄２號","OBJECTID":167877},"geometry":{"x":160791.80858900025,"y":2545129.9843220003}},{"attributes":{"ID":167879,"DIS_CODE":0,"TOWNNAME":"安南區","LI":"四草里","LIN":"8鄰","STREET":"四草大道","SECT":" ","MAREA":" ","LANE":"８１巷","ALLEY":"４０１弄","HOUSE_NO":"２８號","E_COORD97":160747.63433599999,"N_COORD97":2545079.7597699999,"ADDRESS":"四草大道８１巷４０１弄２８號","OBJECTID":167878},"geometry":{"x":160747.63433600031,"y":2545079.7597710006}},{"attributes":{"ID":167880,"DIS_CODE":0,"TOWNNAME":"南區","LI":"郡南里","LIN":" ","STREET":"永吉街","SECT":" ","MAREA":" ","LANE":" ","ALLEY":" ","HOUSE_NO":"９２號","E_COORD97":167379.04000000001,"N_COORD97":2540761.9199999999,"ADDRESS":"永吉街９２號","OBJECTID":167879},"geometry":{"x":167379.0400000019,"y":2540761.9199999999}},{"attributes":{"ID":167881,"DIS_CODE":0,"TOWNNAME":"安南區","LI":"四草里","LIN":"8鄰","STREET":"四草大道","SECT":" ","MAREA":" ","LANE":"８１巷","ALLEY":"４０１弄","HOUSE_NO":"１０號","E_COORD97":160774.32007799999,"N_COORD97":2545110.87476,"ADDRESS":"四草大道８１巷４０１弄１０號","OBJECTID":167880},"geometry":{"x":160774.32007800229,"y":2545110.8747550007}},{"attributes":{"ID":167882,"DIS_CODE":0,"TOWNNAME":"下營區","LI":"仁里里","LIN":"12鄰","STREET":"蚵寮街","SECT":" ","MAREA":" ","LANE":" ","ALLEY":" ","HOUSE_NO":"３２號","E_COORD97":174110.57999999999,"N_COORD97":2570339.04,"ADDRESS":"蚵寮街３２號","OBJECTID":167881},"geometry":{"x":174110.58000000101,"y":2570339.0400000028}},{"attributes":{"ID":167883,"DIS_CODE":0,"TOWNNAME":"安南區","LI":"四草里","LIN":"8鄰","STREET":"四草大道","SECT":" ","MAREA":" ","LANE":"８１巷","ALLEY":"４０１弄","HOUSE_NO":"１２號","E_COORD97":160769.23707999999,"N_COORD97":2545106.6414200002,"ADDRESS":"四草大道８１巷４０１弄１２號","OBJECTID":167882},"geometry":{"x":160769.23708000127,"y":2545106.6414240021}},{"attributes":{"ID":167884,"DIS_CODE":0,"TOWNNAME":"安定區","LI":"港南里","LIN":"12鄰","STREET":" ","SECT":" ","MAREA":"港口","LANE":" ","ALLEY":" ","HOUSE_NO":"８８號","E_COORD97":171342.94045600001,"N_COORD97":2554441.5992700001,"ADDRESS":"港口８８號","OBJECTID":167883},"geometry":{"x":171342.94045600109,"y":2554441.5992690008}},{"attributes":{"ID":167885,"DIS_CODE":0,"TOWNNAME":"新市區","LI":"永就里","LIN":"12鄰","STREET":"永華二街","SECT":" ","MAREA":" ","LANE":" ","ALLEY":" ","HOUSE_NO":"２３號","E_COORD97":177789.35999999999,"N_COORD97":2551063.75,"ADDRESS":"永華二街２３號","OBJECTID":167884},"geometry":{"x":177789.36000000127,"y":2551063.75}},{"attributes":{"ID":167886,"DIS_CODE":0,"TOWNNAME":"新市區","LI":"永就里","LIN":"12鄰","STREET":"永華二街","SECT":" ","MAREA":" ","LANE":" ","ALLEY":" ","HOUSE_NO":"１３號","E_COORD97":177747.01000000001,"N_COORD97":2551048.5,"ADDRESS":"永華二街１３號","OBJECTID":167885},"geometry":{"x":177747.01000000071,"y":2551048.5}},{"attributes":{"ID":167887,"DIS_CODE":0,"TOWNNAME":"永康區","LI":"中華里","LIN":"12鄰","STREET":"忠勇街","SECT":" ","MAREA":" ","LANE":" ","ALLEY":" ","HOUSE_NO":"３９號","E_COORD97":171878.42999999999,"N_COORD97":2544433.9100000001,"ADDRESS":"忠勇街３９號","OBJECTID":167886},"geometry":{"x":171878.43000000156,"y":2544433.9100000001}},{"attributes":{"ID":167888,"DIS_CODE":0,"TOWNNAME":"新市區","LI":"新和里","LIN":"20鄰","STREET":"中正路","SECT":" ","MAREA":" ","LANE":"１１６巷","ALLEY":"２弄","HOUSE_NO":"１號","E_COORD97":177464.91,"N_COORD97":2552564.25,"ADDRESS":"中正路１１６巷２弄１號","OBJECTID":167887},"geometry":{"x":177464.91000000108,"y":2552564.2500000019}},{"attributes":{"ID":167889,"DIS_CODE":0,"TOWNNAME":"新市區","LI":"大營里","LIN":"12鄰","STREET":" ","SECT":" ","MAREA":"大營","LANE":" ","ALLEY":" ","HOUSE_NO":"２４６號","E_COORD97":179198.92999999999,"N_COORD97":2555583.5,"ADDRESS":"大營２４６號","OBJECTID":167888},"geometry":{"x":179198.93000000063,"y":2555583.5000000019}},{"attributes":{"ID":167890,"DIS_CODE":0,"TOWNNAME":"安南區","LI":"四草里","LIN":"8鄰","STREET":"四草大道","SECT":" ","MAREA":" ","LANE":"８１巷","ALLEY":"４５７弄","HOUSE_NO":"５號","E_COORD97":160394.789521,"N_COORD97":2545441.0745799998,"ADDRESS":"四草大道８１巷４５７弄５號","OBJECTID":167889},"geometry":{"x":160394.78952100128,"y":2545441.0745760035}},{"attributes":{"ID":167891,"DIS_CODE":0,"TOWNNAME":"安南區","LI":"四草里","LIN":"7鄰","STREET":"四草大道","SECT":" ","MAREA":" ","LANE":"４３８巷","ALLEY":"６０弄","HOUSE_NO":"３２３號","E_COORD97":161464.47395499999,"N_COORD97":2545187.0747099998,"ADDRESS":"四草大道４３８巷６０弄３２３號","OBJECTID":167890},"geometry":{"x":161464.47395499982,"y":2545187.0747139994}},{"attributes":{"ID":167892,"DIS_CODE":0,"TOWNNAME":"安南區","LI":"四草里","LIN":"7鄰","STREET":"四草大道","SECT":" ","MAREA":" ","LANE":"４３８巷","ALLEY":"６０弄","HOUSE_NO":"３２５號","E_COORD97":161468.49799599999,"N_COORD97":2545181.7830500002,"ADDRESS":"四草大道４３８巷６０弄３２５號","OBJECTID":167891},"geometry":{"x":161468.49799599871,"y":2545181.7830500007}},{"attributes":{"ID":167893,"DIS_CODE":0,"TOWNNAME":"安南區","LI":"四草里","LIN":"1鄰","STREET":"大眾六街","SECT":" ","MAREA":" ","LANE":"１２６巷","ALLEY":"２弄","HOUSE_NO":"３號","E_COORD97":160477.71343100001,"N_COORD97":2546623.22572,"ADDRESS":"大眾六街１２６巷２弄３號","OBJECTID":167892},"geometry":{"x":160477.71343099978,"y":2546623.225723004}},{"attributes":{"ID":167894,"DIS_CODE":0,"TOWNNAME":"安南區","LI":"四草里","LIN":"1鄰","STREET":"大眾六街","SECT":" ","MAREA":" ","LANE":"１４８巷","ALLEY":"３９弄","HOUSE_NO":"１號","E_COORD97":160573.86682,"N_COORD97":2546742.2881499999,"ADDRESS":"大眾六街１４８巷３９弄１號","OBJECTID":167893},"geometry":{"x":160573.86682000011,"y":2546742.2881500013}},{"attributes":{"ID":167895,"DIS_CODE":0,"TOWNNAME":"安南區","LI":"四草里","LIN":"1鄰","STREET":"大眾六街","SECT":" ","MAREA":" ","LANE":"１４８巷","ALLEY":"３９弄","HOUSE_NO":"１號","E_COORD97":160542.52166299999,"N_COORD97":2546746.4156599999,"ADDRESS":"大眾六街１４８巷３９弄１號","OBJECTID":167894},"geometry":{"x":160542.52166299988,"y":2546746.4156560004}},{"attributes":{"ID":167896,"DIS_CODE":0,"TOWNNAME":"安南區","LI":"四草里","LIN":"6鄰","STREET":"四草大道","SECT":" ","MAREA":" ","LANE":"６８１巷","ALLEY":"１７弄","HOUSE_NO":"１８號","E_COORD97":160985.121139,"N_COORD97":2546102.0417900002,"ADDRESS":"四草大道６８１巷１７弄１８號","OBJECTID":167895},"geometry":{"x":160985.12113900203,"y":2546102.041790003}},{"attributes":{"ID":167897,"DIS_CODE":0,"TOWNNAME":"安南區","LI":"四草里","LIN":"6鄰","STREET":"四草大道","SECT":" ","MAREA":" ","LANE":"６８１巷","ALLEY":"１７弄","HOUSE_NO":"２８號","E_COORD97":161014.34838000001,"N_COORD97":2546089.7651300002,"ADDRESS":"四草大道６８１巷１７弄２８號","OBJECTID":167896},"geometry":{"x":161014.34838000126,"y":2546089.7651300021}},{"attributes":{"ID":167898,"DIS_CODE":0,"TOWNNAME":"安南區","LI":"四草里","LIN":"8鄰","STREET":"四草大道","SECT":" ","MAREA":" ","LANE":"８１巷","ALLEY":"４５７弄","HOUSE_NO":"２８號","E_COORD97":160333.79353900001,"N_COORD97":2545458.5295799999,"ADDRESS":"四草大道８１巷４５７弄２８號","OBJECTID":167897},"geometry":{"x":160333.79353900068,"y":2545458.5295750014}},{"attributes":{"ID":167899,"DIS_CODE":0,"TOWNNAME":"安南區","LI":"四草里","LIN":"6鄰","STREET":"四草大道","SECT":" ","MAREA":" ","LANE":"６８１巷","ALLEY":"１７弄","HOUSE_NO":"２３號","E_COORD97":161020.490337,"N_COORD97":2546111.7784500001,"ADDRESS":"四草大道６８１巷１７弄２３號","OBJECTID":167898},"geometry":{"x":161020.49033700116,"y":2546111.7784520015}},{"attributes":{"ID":167900,"DIS_CODE":0,"TOWNNAME":"新市區","LI":"港墘里","LIN":"24鄰","STREET":"南昌街","SECT":" ","MAREA":" ","LANE":"３９巷","ALLEY":"２弄","HOUSE_NO":"３８號","E_COORD97":177977.32000000001,"N_COORD97":2553041.25,"ADDRESS":"南昌街３９巷２弄３８號","OBJECTID":167899},"geometry":{"x":177977.31999999937,"y":2553041.2500000019}},{"attributes":{"ID":167901,"DIS_CODE":0,"TOWNNAME":"白河區","LI":"外角里","LIN":" ","STREET":"開明街","SECT":" ","MAREA":" ","LANE":"１２７巷","ALLEY":"３１弄","HOUSE_NO":"１４號","E_COORD97":190652.97,"N_COORD97":2583160.79,"ADDRESS":"開明街１２７巷３１弄１４號","OBJECTID":167900},"geometry":{"x":190652.97000000067,"y":2583160.790000001}},{"attributes":{"ID":167902,"DIS_CODE":0,"TOWNNAME":"新市區","LI":"大社里","LIN":"12鄰","STREET":" ","SECT":" ","MAREA":"大社","LANE":" ","ALLEY":" ","HOUSE_NO":"４０２號之１８","E_COORD97":180318.76999999999,"N_COORD97":2554673.2999999998,"ADDRESS":"大社４０２號之１８","OBJECTID":167901},"geometry":{"x":180318.77000000048,"y":2554673.3000000026}},{"attributes":{"ID":167903,"DIS_CODE":0,"TOWNNAME":"新市區","LI":"大營里","LIN":"12鄰","STREET":" ","SECT":" ","MAREA":"大營","LANE":" ","ALLEY":" ","HOUSE_NO":"２４１號","E_COORD97":179235.92999999999,"N_COORD97":2555575.25,"ADDRESS":"大營２４１號","OBJECTID":167902},"geometry":{"x":179235.93000000063,"y":2555575.2500000019}},{"attributes":{"ID":167904,"DIS_CODE":0,"TOWNNAME":"白河區","LI":"外角里","LIN":" ","STREET":"開明街","SECT":" ","MAREA":" ","LANE":"１２７巷","ALLEY":"３１弄","HOUSE_NO":"１７號","E_COORD97":190656.51000000001,"N_COORD97":2583181.6499999999,"ADDRESS":"開明街１２７巷３１弄１７號","OBJECTID":167903},"geometry":{"x":190656.50999999978,"y":2583181.6500000004}},{"attributes":{"ID":167905,"DIS_CODE":0,"TOWNNAME":"仁德區","LI":"保安里","LIN":"20鄰","STREET":"保安路","SECT":"一段","MAREA":" ","LANE":" ","ALLEY":" ","HOUSE_NO":"５號","E_COORD97":170430.07999999999,"N_COORD97":2536003.3100000001,"ADDRESS":"保安路一段５號","OBJECTID":167904},"geometry":{"x":170430.08000000194,"y":2536003.3100000005}},{"attributes":{"ID":167906,"DIS_CODE":0,"TOWNNAME":"關廟區","LI":"龜洞里","LIN":"2鄰","STREET":"南雄南路","SECT":" ","MAREA":" ","LANE":"６２２巷","ALLEY":"８弄","HOUSE_NO":"２０號","E_COORD97":183359.64416200001,"N_COORD97":2533738.98177,"ADDRESS":"南雄南路６２２巷８弄２０號","OBJECTID":167905},"geometry":{"x":183359.64416200016,"y":2533738.9817680009}},{"attributes":{"ID":167907,"DIS_CODE":0,"TOWNNAME":"新市區","LI":"大社里","LIN":"12鄰","STREET":" ","SECT":" ","MAREA":"大社","LANE":" ","ALLEY":" ","HOUSE_NO":"４０２之３２號","E_COORD97":180332.73999999999,"N_COORD97":2554689.5499999998,"ADDRESS":"大社４０２之３２號","OBJECTID":167906},"geometry":{"x":180332.74000000115,"y":2554689.5500000007}},{"attributes":{"ID":167908,"DIS_CODE":0,"TOWNNAME":"南區","LI":"府南里","LIN":"20鄰","STREET":"大成路","SECT":"二段","MAREA":" ","LANE":"８１巷","ALLEY":"４３弄","HOUSE_NO":"５０號","E_COORD97":167430.24871399999,"N_COORD97":2541528.7600500002,"ADDRESS":"大成路二段８１巷４３弄５０號","OBJECTID":167907},"geometry":{"x":167430.24871399999,"y":2541528.7600490022}},{"attributes":{"ID":167909,"DIS_CODE":0,"TOWNNAME":"仁德區","LI":"仁義里","LIN":"32鄰","STREET":"中清二街","SECT":" ","MAREA":" ","LANE":" ","ALLEY":" ","HOUSE_NO":"４５號","E_COORD97":173565.79999999999,"N_COORD97":2541511.04,"ADDRESS":"中清二街４５號","OBJECTID":167908},"geometry":{"x":173565.79999999981,"y":2541511.040000001}},{"attributes":{"ID":167910,"DIS_CODE":0,"TOWNNAME":"新市區","LI":"大社里","LIN":"12鄰","STREET":" ","SECT":" ","MAREA":"大社","LANE":" ","ALLEY":" ","HOUSE_NO":"４０２之２２號","E_COORD97":180314.85000000001,"N_COORD97":2554651.5499999998,"ADDRESS":"大社４０２之２２號","OBJECTID":167909},"geometry":{"x":180314.85000000056,"y":2554651.5500000026}},{"attributes":{"ID":167911,"DIS_CODE":0,"TOWNNAME":"仁德區","LI":"三甲里","LIN":"1鄰","STREET":" ","SECT":" ","MAREA":"三甲子","LANE":" ","ALLEY":" ","HOUSE_NO":"６號之２０","E_COORD97":171721.76999999999,"N_COORD97":2537548.54,"ADDRESS":"三甲子６號之２０","OBJECTID":167910},"geometry":{"x":171721.77000000142,"y":2537548.540000001}},{"attributes":{"ID":167912,"DIS_CODE":0,"TOWNNAME":"後壁區","LI":"竹新里","LIN":"13鄰","STREET":" ","SECT":" ","MAREA":"新厝","LANE":" ","ALLEY":" ","HOUSE_NO":"９號之６","E_COORD97":179208.95000000001,"N_COORD97":2582014.8399999999,"ADDRESS":"新厝９號之６","OBJECTID":167911},"geometry":{"x":179208.95000000205,"y":2582014.8400000017}},{"attributes":{"ID":167913,"DIS_CODE":0,"TOWNNAME":"南區","LI":"府南里","LIN":"20鄰","STREET":"永成路","SECT":"三段","MAREA":" ","LANE":"４６１巷","ALLEY":"２１弄","HOUSE_NO":"１號","E_COORD97":167433.21355099999,"N_COORD97":2541502.8308999999,"ADDRESS":"永成路三段４６１巷２１弄１號","OBJECTID":167912},"geometry":{"x":167433.21355099883,"y":2541502.8308970034}},{"attributes":{"ID":167914,"DIS_CODE":0,"TOWNNAME":"南區","LI":"府南里","LIN":"20鄰","STREET":"永成路","SECT":"三段","MAREA":" ","LANE":"４６１巷","ALLEY":"２１弄","HOUSE_NO":"３號","E_COORD97":167438.50790200001,"N_COORD97":2541499.44423,"ADDRESS":"永成路三段４６１巷２１弄３號","OBJECTID":167913},"geometry":{"x":167438.50790200196,"y":2541499.4442320019}},{"attributes":{"ID":167915,"DIS_CODE":0,"TOWNNAME":"南區","LI":"府南里","LIN":"20鄰","STREET":"永成路","SECT":"三段","MAREA":" ","LANE":"４６１巷","ALLEY":"２１弄","HOUSE_NO":"５號","E_COORD97":167442.531609,"N_COORD97":2541494.7875700002,"ADDRESS":"永成路三段４６１巷２１弄５號","OBJECTID":167914},"geometry":{"x":167442.53160899971,"y":2541494.7875680011}},{"attributes":{"ID":167916,"DIS_CODE":0,"TOWNNAME":"南區","LI":"府南里","LIN":"20鄰","STREET":"永成路","SECT":"三段","MAREA":" ","LANE":"４６１巷","ALLEY":"２１弄","HOUSE_NO":"７號","E_COORD97":167447.614187,"N_COORD97":2541491.1892400002,"ADDRESS":"永成路三段４６１巷２１弄７號","OBJECTID":167915},"geometry":{"x":167447.61418700125,"y":2541491.1892360039}},{"attributes":{"ID":167917,"DIS_CODE":0,"TOWNNAME":"安南區","LI":"安慶里","LIN":"12鄰","STREET":"安中路","SECT":"一段","MAREA":" ","LANE":" ","ALLEY":" ","HOUSE_NO":"５２號","E_COORD97":169132.04999999999,"N_COORD97":2548287.3199999998,"ADDRESS":"安中路一段５２號","OBJECTID":167916},"geometry":{"x":169132.05000000075,"y":2548287.3199999984}},{"attributes":{"ID":167918,"DIS_CODE":0,"TOWNNAME":"安南區","LI":"安慶里","LIN":"12鄰","STREET":"安中路","SECT":"一段","MAREA":" ","LANE":" ","ALLEY":" ","HOUSE_NO":"５４號","E_COORD97":169126.60000000001,"N_COORD97":2548291.9100000001,"ADDRESS":"安中路一段５４號","OBJECTID":167917},"geometry":{"x":169126.60000000056,"y":2548291.9100000001}},{"attributes":{"ID":167919,"DIS_CODE":0,"TOWNNAME":"安南區","LI":"安慶里","LIN":"12鄰","STREET":"安中路","SECT":"一段","MAREA":" ","LANE":" ","ALLEY":" ","HOUSE_NO":"５８號","E_COORD97":169120.92999999999,"N_COORD97":2548297.1499999999,"ADDRESS":"安中路一段５８號","OBJECTID":167918},"geometry":{"x":169120.93000000063,"y":2548297.1500000022}},{"attributes":{"ID":167920,"DIS_CODE":0,"TOWNNAME":"安南區","LI":"安慶里","LIN":"12鄰","STREET":"安中路","SECT":"一段","MAREA":" ","LANE":" ","ALLEY":" ","HOUSE_NO":"６０號","E_COORD97":169116.12,"N_COORD97":2548300.46,"ADDRESS":"安中路一段６０號","OBJECTID":167919},"geometry":{"x":169116.12000000197,"y":2548300.459999999}},{"attributes":{"ID":167921,"DIS_CODE":0,"TOWNNAME":"安南區","LI":"安慶里","LIN":"12鄰","STREET":"安中路","SECT":"一段","MAREA":" ","LANE":" ","ALLEY":" ","HOUSE_NO":"６２號","E_COORD97":169112.06,"N_COORD97":2548302.1699999999,"ADDRESS":"安中路一段６２號","OBJECTID":167920},"geometry":{"x":169112.05999999959,"y":2548302.1700000018}},{"attributes":{"ID":167922,"DIS_CODE":0,"TOWNNAME":"南區","LI":"府南里","LIN":"20鄰","STREET":"永成路","SECT":"三段","MAREA":" ","LANE":"４６１巷","ALLEY":"２１弄","HOUSE_NO":"９號","E_COORD97":167452.06144200001,"N_COORD97":2541487.5909099998,"ADDRESS":"永成路三段４６１巷２１弄９號","OBJECTID":167921},"geometry":{"x":167452.06144200079,"y":2541487.5909050014}},{"attributes":{"ID":167923,"DIS_CODE":0,"TOWNNAME":"南區","LI":"府南里","LIN":"20鄰","STREET":"永成路","SECT":"三段","MAREA":" ","LANE":"４６１巷","ALLEY":"２１弄","HOUSE_NO":"１１號","E_COORD97":167457.144019,"N_COORD97":2541484.62757,"ADDRESS":"永成路三段４６１巷２１弄１１號","OBJECTID":167922},"geometry":{"x":167457.14401900023,"y":2541484.6275730021}},{"attributes":{"ID":167924,"DIS_CODE":0,"TOWNNAME":"南區","LI":"府南里","LIN":"20鄰","STREET":"永成路","SECT":"三段","MAREA":" ","LANE":"４６１巷","ALLEY":"２１弄","HOUSE_NO":"１３號","E_COORD97":167462.438371,"N_COORD97":2541481.4525799998,"ADDRESS":"永成路三段４６１巷２１弄１３號","OBJECTID":167923},"geometry":{"x":167462.43837099988,"y":2541481.4525750037}},{"attributes":{"ID":167925,"DIS_CODE":0,"TOWNNAME":"南區","LI":"府南里","LIN":"20鄰","STREET":"永成路","SECT":"三段","MAREA":" ","LANE":"４６１巷","ALLEY":"２１弄","HOUSE_NO":"１５號","E_COORD97":167467.52094799999,"N_COORD97":2541477.6425800002,"ADDRESS":"永成路三段４６１巷２１弄１５號","OBJECTID":167924},"geometry":{"x":167467.52094800211,"y":2541477.642577}},{"attributes":{"ID":167926,"DIS_CODE":0,"TOWNNAME":"南區","LI":"府南里","LIN":"20鄰","STREET":"永成路","SECT":"三段","MAREA":" ","LANE":"４６１巷","ALLEY":"２１弄","HOUSE_NO":"１７號","E_COORD97":167460.532404,"N_COORD97":2541469.07008,"ADDRESS":"永成路三段４６１巷２１弄１７號","OBJECTID":167925},"geometry":{"x":167460.5324040018,"y":2541469.0700819977}},{"attributes":{"ID":167927,"DIS_CODE":0,"TOWNNAME":"南區","LI":"府南里","LIN":"21鄰","STREET":"永成路","SECT":"三段","MAREA":" ","LANE":"４６１巷","ALLEY":"２１弄","HOUSE_NO":"１９號","E_COORD97":167456.50869700001,"N_COORD97":2541472.4567499999,"ADDRESS":"永成路三段４６１巷２１弄１９號","OBJECTID":167926},"geometry":{"x":167456.50869700033,"y":2541472.4567460008}},{"attributes":{"ID":167928,"DIS_CODE":0,"TOWNNAME":"南區","LI":"府南里","LIN":"20鄰","STREET":"永成路","SECT":"三段","MAREA":" ","LANE":"４６１巷","ALLEY":"２０弄","HOUSE_NO":"２１號","E_COORD97":167451.63789400001,"N_COORD97":2541477.1134100002,"ADDRESS":"永成路三段４６１巷２０弄２１號","OBJECTID":167927},"geometry":{"x":167451.63789399993,"y":2541477.113411}},{"attributes":{"ID":167929,"DIS_CODE":0,"TOWNNAME":"安南區","LI":"安慶里","LIN":"12鄰","STREET":"安中路","SECT":"一段","MAREA":" ","LANE":" ","ALLEY":" ","HOUSE_NO":"６６號","E_COORD97":169103.60999999999,"N_COORD97":2548306.3399999999,"ADDRESS":"安中路一段６６號","OBJECTID":167928},"geometry":{"x":169103.61000000127,"y":2548306.3399999999}},{"attributes":{"ID":167930,"DIS_CODE":0,"TOWNNAME":"北區","LI":"振興里","LIN":"12鄰","STREET":"長榮路","SECT":"四段","MAREA":" ","LANE":" ","ALLEY":" ","HOUSE_NO":"８９號","E_COORD97":170288.89000000001,"N_COORD97":2545044.25,"ADDRESS":"長榮路四段８９號","OBJECTID":167929},"geometry":{"x":170288.8900000006,"y":2545044.2500000019}},{"attributes":{"ID":167931,"DIS_CODE":0,"TOWNNAME":"南區","LI":"郡南里","LIN":" ","STREET":"永興三街","SECT":" ","MAREA":" ","LANE":" ","ALLEY":" ","HOUSE_NO":"９０號","E_COORD97":167229.04000000001,"N_COORD97":2540620.7200000002,"ADDRESS":"永興三街９０號","OBJECTID":167930},"geometry":{"x":167229.04000000004,"y":2540620.7200000025}},{"attributes":{"ID":167932,"DIS_CODE":0,"TOWNNAME":"南區","LI":"郡南里","LIN":" ","STREET":"永興二街","SECT":" ","MAREA":" ","LANE":" ","ALLEY":" ","HOUSE_NO":"４４號","E_COORD97":167209.26000000001,"N_COORD97":2540679.04,"ADDRESS":"永興二街４４號","OBJECTID":167931},"geometry":{"x":167209.25999999978,"y":2540679.0399999991}},{"attributes":{"ID":167933,"DIS_CODE":0,"TOWNNAME":"南區","LI":"府南里","LIN":"20鄰","STREET":"永成路","SECT":"三段","MAREA":" ","LANE":"４６１巷","ALLEY":"２１弄","HOUSE_NO":"２３號","E_COORD97":167446.34354199999,"N_COORD97":2541480.9234099998,"ADDRESS":"永成路三段４６１巷２１弄２３號","OBJECTID":167932},"geometry":{"x":167446.34354200028,"y":2541480.923409}},{"attributes":{"ID":167934,"DIS_CODE":0,"TOWNNAME":"南區","LI":"府南里","LIN":"20鄰","STREET":"永成路","SECT":"三段","MAREA":" ","LANE":"４６１巷","ALLEY":"２１弄","HOUSE_NO":"２５號","E_COORD97":167441.47273899999,"N_COORD97":2541485.3684100001,"ADDRESS":"永成路三段４６１巷２１弄２５號","OBJECTID":167933},"geometry":{"x":167441.47273900174,"y":2541485.3684059996}},{"attributes":{"ID":167935,"DIS_CODE":0,"TOWNNAME":"南區","LI":"府南里","LIN":"20鄰","STREET":"永成路","SECT":"三段","MAREA":" ","LANE":"４６１巷","ALLEY":"２１弄","HOUSE_NO":"２７號","E_COORD97":167436.60193599999,"N_COORD97":2541489.3900700002,"ADDRESS":"永成路三段４６１巷２１弄２７號","OBJECTID":167934},"geometry":{"x":167436.6019360004,"y":2541489.3900710046}},{"attributes":{"ID":167936,"DIS_CODE":0,"TOWNNAME":"南區","LI":"府南里","LIN":"20鄰","STREET":"永成路","SECT":"三段","MAREA":" ","LANE":"４６１巷","ALLEY":"２１弄","HOUSE_NO":"２９號","E_COORD97":167432.366454,"N_COORD97":2541492.9884000001,"ADDRESS":"永成路三段４６１巷２１弄２９號","OBJECTID":167935},"geometry":{"x":167432.36645399965,"y":2541492.9884020016}},{"attributes":{"ID":167937,"DIS_CODE":0,"TOWNNAME":"南區","LI":"府南里","LIN":"20鄰","STREET":"永成路","SECT":"三段","MAREA":" ","LANE":"４６１巷","ALLEY":"２１弄","HOUSE_NO":"６１號","E_COORD97":167430.56637499999,"N_COORD97":2541472.9687199998,"ADDRESS":"永成路三段４６１巷２１弄６１號","OBJECTID":167936},"geometry":{"x":167430.56637500133,"y":2541472.9687169995}},{"attributes":{"ID":167938,"DIS_CODE":0,"TOWNNAME":"南區","LI":"府南里","LIN":"20鄰","STREET":"永成路","SECT":"三段","MAREA":" ","LANE":"４６１巷","ALLEY":"２１弄","HOUSE_NO":"６３號","E_COORD97":167426.33089400001,"N_COORD97":2541477.94288,"ADDRESS":"永成路三段４６１巷２１弄６３號","OBJECTID":167937},"geometry":{"x":167426.33089400083,"y":2541477.9428810012}},{"attributes":{"ID":167939,"DIS_CODE":0,"TOWNNAME":"南區","LI":"府南里","LIN":"20鄰","STREET":"永成路","SECT":"三段","MAREA":" ","LANE":"４６１巷","ALLEY":"２１弄","HOUSE_NO":"６５號","E_COORD97":167421.46009000001,"N_COORD97":2541481.6470499998,"ADDRESS":"永成路三段４６１巷２１弄６５號","OBJECTID":167938},"geometry":{"x":167421.46009000018,"y":2541481.6470459998}},{"attributes":{"ID":167940,"DIS_CODE":0,"TOWNNAME":"南區","LI":"郡南里","LIN":" ","STREET":"德興路","SECT":" ","MAREA":" ","LANE":" ","ALLEY":" ","HOUSE_NO":"１２７號","E_COORD97":167215.75,"N_COORD97":2540479.2200000002,"ADDRESS":"德興路１２７號","OBJECTID":167939},"geometry":{"x":167215.75,"y":2540479.2200000007}},{"attributes":{"ID":167941,"DIS_CODE":0,"TOWNNAME":"安南區","LI":"安東里","LIN":"12鄰","STREET":"安和路","SECT":"一段","MAREA":" ","LANE":"２２０巷","ALLEY":" ","HOUSE_NO":"１１１號","E_COORD97":169563.37,"N_COORD97":2548094.1400000001,"ADDRESS":"安和路一段２２０巷１１１號","OBJECTID":167940},"geometry":{"x":169563.37000000011,"y":2548094.1400000006}},{"attributes":{"ID":167942,"DIS_CODE":0,"TOWNNAME":"南區","LI":"郡南里","LIN":" ","STREET":"德興路","SECT":" ","MAREA":" ","LANE":" ","ALLEY":" ","HOUSE_NO":"１３５號","E_COORD97":167219.44,"N_COORD97":2540461.79,"ADDRESS":"德興路１３５號","OBJECTID":167941},"geometry":{"x":167219.44000000134,"y":2540461.790000001}},{"attributes":{"ID":167943,"DIS_CODE":0,"TOWNNAME":"後壁區","LI":"竹新里","LIN":"13鄰","STREET":" ","SECT":" ","MAREA":"新厝","LANE":" ","ALLEY":" ","HOUSE_NO":"９號之７０","E_COORD97":179489.31,"N_COORD97":2581479.0899999999,"ADDRESS":"新厝９號之７０","OBJECTID":167942},"geometry":{"x":179489.31000000052,"y":2581479.0899999999}},{"attributes":{"ID":167944,"DIS_CODE":0,"TOWNNAME":"後壁區","LI":"竹新里","LIN":"13鄰","STREET":" ","SECT":" ","MAREA":"新厝","LANE":" ","ALLEY":" ","HOUSE_NO":"９號之７","E_COORD97":179224.92000000001,"N_COORD97":2582015.75,"ADDRESS":"新厝９號之７","OBJECTID":167943},"geometry":{"x":179224.91999999993,"y":2582015.7500000019}},{"attributes":{"ID":167945,"DIS_CODE":0,"TOWNNAME":"後壁區","LI":"竹新里","LIN":"13鄰","STREET":" ","SECT":" ","MAREA":"新厝","LANE":" ","ALLEY":" ","HOUSE_NO":"９號之８０","E_COORD97":179644.31,"N_COORD97":2581480.0699999998,"ADDRESS":"新厝９號之８０","OBJECTID":167944},"geometry":{"x":179644.30999999959,"y":2581480.0700000003}},{"attributes":{"ID":167946,"DIS_CODE":0,"TOWNNAME":"後壁區","LI":"竹新里","LIN":"13鄰","STREET":" ","SECT":" ","MAREA":"新厝","LANE":" ","ALLEY":" ","HOUSE_NO":"９號之９","E_COORD97":179206.04000000001,"N_COORD97":2582022.4300000002,"ADDRESS":"新厝９號之９","OBJECTID":167945},"geometry":{"x":179206.04000000004,"y":2582022.4299999997}},{"attributes":{"ID":167947,"DIS_CODE":0,"TOWNNAME":"後壁區","LI":"新東里","LIN":"13鄰","STREET":" ","SECT":" ","MAREA":"新港東","LANE":" ","ALLEY":" ","HOUSE_NO":"１３１號","E_COORD97":181450.25,"N_COORD97":2582038.9900000002,"ADDRESS":"新港東１３１號","OBJECTID":167946},"geometry":{"x":181450.25,"y":2582038.9900000021}},{"attributes":{"ID":167948,"DIS_CODE":0,"TOWNNAME":"後壁區","LI":"新東里","LIN":"13鄰","STREET":" ","SECT":" ","MAREA":"新港東","LANE":" ","ALLEY":" ","HOUSE_NO":"１３２號","E_COORD97":181442.79999999999,"N_COORD97":2582012.21,"ADDRESS":"新港東１３２號","OBJECTID":167947},"geometry":{"x":181442.80000000075,"y":2582012.2100000009}},{"attributes":{"ID":167949,"DIS_CODE":0,"TOWNNAME":"後壁區","LI":"新東里","LIN":"13鄰","STREET":" ","SECT":" ","MAREA":"新港東","LANE":" ","ALLEY":" ","HOUSE_NO":"１３３號","E_COORD97":181419.56,"N_COORD97":2582003.71,"ADDRESS":"新港東１３３號","OBJECTID":167948},"geometry":{"x":181419.55999999866,"y":2582003.7100000028}},{"attributes":{"ID":167950,"DIS_CODE":0,"TOWNNAME":"南區","LI":"府南里","LIN":"20鄰","STREET":"永成路","SECT":"三段","MAREA":" ","LANE":"４６１巷","ALLEY":"２１弄","HOUSE_NO":"６７號","E_COORD97":167417.965818,"N_COORD97":2541486.3037100001,"ADDRESS":"永成路三段４６１巷２１弄６７號","OBJECTID":167949},"geometry":{"x":167417.96581800003,"y":2541486.3037100006}},{"attributes":{"ID":167951,"DIS_CODE":0,"TOWNNAME":"後壁區","LI":"新東里","LIN":"13鄰","STREET":" ","SECT":" ","MAREA":"新港東","LANE":" ","ALLEY":" ","HOUSE_NO":"１３４號","E_COORD97":181426.14999999999,"N_COORD97":2582013.6899999999,"ADDRESS":"新港東１３４號","OBJECTID":167950},"geometry":{"x":181426.15000000037,"y":2582013.6899999995}},{"attributes":{"ID":167952,"DIS_CODE":0,"TOWNNAME":"南區","LI":"府南里","LIN":"20鄰","STREET":"永成路","SECT":"三段","MAREA":" ","LANE":"４６１巷","ALLEY":"２１弄","HOUSE_NO":"６９號","E_COORD97":167414.47154599999,"N_COORD97":2541489.69037,"ADDRESS":"永成路三段４６１巷２１弄６９號","OBJECTID":167951},"geometry":{"x":167414.47154599987,"y":2541489.6903750021}},{"attributes":{"ID":167953,"DIS_CODE":0,"TOWNNAME":"南區","LI":"府南里","LIN":"20鄰","STREET":"永成路","SECT":"三段","MAREA":" ","LANE":"４６１巷","ALLEY":"２１弄","HOUSE_NO":"２號","E_COORD97":167408.224212,"N_COORD97":2541505.3536999999,"ADDRESS":"永成路三段４６１巷２１弄２號","OBJECTID":167952},"geometry":{"x":167408.22421200015,"y":2541505.3537000027}},{"attributes":{"ID":167954,"DIS_CODE":0,"TOWNNAME":"安南區","LI":"安富里","LIN":"31鄰","STREET":"海佃路","SECT":"一段","MAREA":" ","LANE":"１５８巷","ALLEY":"９０弄","HOUSE_NO":"２之１號","E_COORD97":167399.34,"N_COORD97":2547202.6400000001,"ADDRESS":"海佃路一段１５８巷９０弄２之１號","OBJECTID":167953},"geometry":{"x":167399.34000000078,"y":2547202.6400000006}},{"attributes":{"ID":167955,"DIS_CODE":0,"TOWNNAME":"南區","LI":"府南里","LIN":"30鄰","STREET":"永成路","SECT":"三段","MAREA":" ","LANE":"４６１巷","ALLEY":"２弄","HOUSE_NO":"２０號","E_COORD97":167457.24990600001,"N_COORD97":2541549.11576,"ADDRESS":"永成路三段４６１巷２弄２０號","OBJECTID":167954},"geometry":{"x":167457.24990599975,"y":2541549.1157600004}},{"attributes":{"ID":167956,"DIS_CODE":0,"TOWNNAME":"南區","LI":"府南里","LIN":"30鄰","STREET":"永成路","SECT":"三段","MAREA":" ","LANE":"４６１巷","ALLEY":"２弄","HOUSE_NO":"２２號","E_COORD97":167457.24990600001,"N_COORD97":2541554.0899200002,"ADDRESS":"永成路三段４６１巷２弄２２號","OBJECTID":167955},"geometry":{"x":167457.24990599975,"y":2541554.0899239983}},{"attributes":{"ID":167957,"DIS_CODE":0,"TOWNNAME":"後壁區","LI":"新東里","LIN":"13鄰","STREET":" ","SECT":" ","MAREA":"新港東","LANE":" ","ALLEY":" ","HOUSE_NO":"１３５號","E_COORD97":181428.92999999999,"N_COORD97":2582031.3700000001,"ADDRESS":"新港東１３５號","OBJECTID":167956},"geometry":{"x":181428.9299999997,"y":2582031.370000001}},{"attributes":{"ID":167958,"DIS_CODE":0,"TOWNNAME":"後壁區","LI":"新東里","LIN":"13鄰","STREET":" ","SECT":" ","MAREA":"新港東","LANE":" ","ALLEY":" ","HOUSE_NO":"１３６號之１","E_COORD97":181440.51000000001,"N_COORD97":2582071.3999999999,"ADDRESS":"新港東１３６號之１","OBJECTID":167957},"geometry":{"x":181440.51000000164,"y":2582071.4000000004}},{"attributes":{"ID":167959,"DIS_CODE":0,"TOWNNAME":"後壁區","LI":"新東里","LIN":"13鄰","STREET":" ","SECT":" ","MAREA":"新港東","LANE":" ","ALLEY":" ","HOUSE_NO":"１３６號之２","E_COORD97":181436.03,"N_COORD97":2582072.6600000001,"ADDRESS":"新港東１３６號之２","OBJECTID":167958},"geometry":{"x":181436.03000000119,"y":2582072.6600000001}},{"attributes":{"ID":167960,"DIS_CODE":0,"TOWNNAME":"後壁區","LI":"新東里","LIN":"13鄰","STREET":" ","SECT":" ","MAREA":"新港東","LANE":" ","ALLEY":" ","HOUSE_NO":"１３６號之４","E_COORD97":181419.67999999999,"N_COORD97":2582077.9399999999,"ADDRESS":"新港東１３６號之４","OBJECTID":167959},"geometry":{"x":181419.68000000063,"y":2582077.9400000032}},{"attributes":{"ID":167961,"DIS_CODE":0,"TOWNNAME":"南區","LI":"府南里","LIN":"30鄰","STREET":"永成路","SECT":"三段","MAREA":" ","LANE":"４６１巷","ALLEY":"２弄","HOUSE_NO":"２６號","E_COORD97":167457.46168000001,"N_COORD97":2541558.53492,"ADDRESS":"永成路三段４６１巷２弄２６號","OBJECTID":167960},"geometry":{"x":167457.46168000065,"y":2541558.5349209998}},{"attributes":{"ID":167962,"DIS_CODE":0,"TOWNNAME":"關廟區","LI":"東勢里","LIN":"20鄰","STREET":"東榮街","SECT":" ","MAREA":" ","LANE":"７２巷","ALLEY":"６弄","HOUSE_NO":"１２號","E_COORD97":182015.298423,"N_COORD97":2539312.3100999999,"ADDRESS":"東榮街７２巷６弄１２號","OBJECTID":167961},"geometry":{"x":182015.29842299968,"y":2539312.3101030011}},{"attributes":{"ID":167963,"DIS_CODE":0,"TOWNNAME":"南區","LI":"府南里","LIN":"30鄰","STREET":"永成路","SECT":"三段","MAREA":" ","LANE":"４６１巷","ALLEY":"３０弄","HOUSE_NO":"２８號","E_COORD97":167457.46168000001,"N_COORD97":2541564.0382500002,"ADDRESS":"永成路三段４６１巷３０弄２８號","OBJECTID":167962},"geometry":{"x":167457.46168000065,"y":2541564.0382519998}},{"attributes":{"ID":167964,"DIS_CODE":0,"TOWNNAME":"後壁區","LI":"竹新里","LIN":"16鄰","STREET":" ","SECT":" ","MAREA":"新厝","LANE":" ","ALLEY":" ","HOUSE_NO":"７１號","E_COORD97":179557.76000000001,"N_COORD97":2582058.3599999999,"ADDRESS":"新厝７１號","OBJECTID":167963},"geometry":{"x":179557.76000000071,"y":2582058.3600000013}},{"attributes":{"ID":167965,"DIS_CODE":0,"TOWNNAME":"南區","LI":"府南里","LIN":"30鄰","STREET":"永成路","SECT":"三段","MAREA":" ","LANE":"４６１巷","ALLEY":"３０弄","HOUSE_NO":"３０號","E_COORD97":167457.567568,"N_COORD97":2541567.90117,"ADDRESS":"永成路三段４６１巷３０弄３０號","OBJECTID":167964},"geometry":{"x":167457.56756800134,"y":2541567.9011659976}},{"attributes":{"ID":167966,"DIS_CODE":0,"TOWNNAME":"南區","LI":"府南里","LIN":"30鄰","STREET":"永成路","SECT":"三段","MAREA":" ","LANE":"４６１巷","ALLEY":"２弄","HOUSE_NO":"３２號","E_COORD97":167457.355793,"N_COORD97":2541572.3461600002,"ADDRESS":"永成路三段４６１巷２弄３２號","OBJECTID":167965},"geometry":{"x":167457.35579300113,"y":2541572.3461640012}},{"attributes":{"ID":167967,"DIS_CODE":0,"TOWNNAME":"南區","LI":"府南里","LIN":"30鄰","STREET":"永成路","SECT":"三段","MAREA":" ","LANE":"４６１巷","ALLEY":"２弄","HOUSE_NO":"３６號","E_COORD97":167457.567568,"N_COORD97":2541576.5795,"ADDRESS":"永成路三段４６１巷２弄３６號","OBJECTID":167966},"geometry":{"x":167457.56756800134,"y":2541576.5794949997}},{"attributes":{"ID":167968,"DIS_CODE":0,"TOWNNAME":"南區","LI":"府南里","LIN":"30鄰","STREET":"永成路","SECT":"三段","MAREA":" ","LANE":"４６１巷","ALLEY":"２弄","HOUSE_NO":"３８號","E_COORD97":167457.144019,"N_COORD97":2541581.44783,"ADDRESS":"永成路三段４６１巷２弄３８號","OBJECTID":167967},"geometry":{"x":167457.14401900023,"y":2541581.4478260018}},{"attributes":{"ID":167969,"DIS_CODE":0,"TOWNNAME":"南區","LI":"府南里","LIN":"30鄰","STREET":"永成路","SECT":"三段","MAREA":" ","LANE":"４６１巷","ALLEY":"２弄","HOUSE_NO":"４２號","E_COORD97":167457.67345500001,"N_COORD97":2541591.5548999999,"ADDRESS":"永成路三段４６１巷２弄４２號","OBJECTID":167968},"geometry":{"x":167457.67345499992,"y":2541591.5549030025}},{"attributes":{"ID":167970,"DIS_CODE":0,"TOWNNAME":"仁德區","LI":"保安里","LIN":"21鄰","STREET":"文賢一街","SECT":" ","MAREA":" ","LANE":"１０巷","ALLEY":"２弄","HOUSE_NO":"８號","E_COORD97":171099.10596099999,"N_COORD97":2536743.3470800002,"ADDRESS":"文賢一街１０巷２弄８號","OBJECTID":167969},"geometry":{"x":171099.10596100055,"y":2536743.3470800016}},{"attributes":{"ID":167971,"DIS_CODE":0,"TOWNNAME":"仁德區","LI":"保安里","LIN":"21鄰","STREET":"文賢一街","SECT":" ","MAREA":" ","LANE":"１０巷","ALLEY":"２弄","HOUSE_NO":"２號","E_COORD97":171085.33726500001,"N_COORD97":2536742.0770800002,"ADDRESS":"文賢一街１０巷２弄２號","OBJECTID":167970},"geometry":{"x":171085.33726499975,"y":2536742.0770810023}},{"attributes":{"ID":167972,"DIS_CODE":0,"TOWNNAME":"仁德區","LI":"保安里","LIN":"21鄰","STREET":"文賢一街","SECT":" ","MAREA":" ","LANE":"１０巷","ALLEY":"１弄","HOUSE_NO":"１號","E_COORD97":171074.74596100001,"N_COORD97":2536732.7637499999,"ADDRESS":"文賢一街１０巷１弄１號","OBJECTID":167971},"geometry":{"x":171074.74596100114,"y":2536732.7637520023}},{"attributes":{"ID":167973,"DIS_CODE":0,"TOWNNAME":"安南區","LI":"布袋里","LIN":"4鄰","STREET":"長和路","SECT":"四段","MAREA":" ","LANE":"２３１巷","ALLEY":"６０弄","HOUSE_NO":"２３號","E_COORD97":168764.94,"N_COORD97":2551562.6099999999,"ADDRESS":"長和路四段２３１巷６０弄２３號","OBJECTID":167972},"geometry":{"x":168764.94000000041,"y":2551562.6099999994}},{"attributes":{"ID":167974,"DIS_CODE":0,"TOWNNAME":"安南區","LI":"布袋里","LIN":"3鄰","STREET":"長和路","SECT":"四段","MAREA":" ","LANE":"２３１巷","ALLEY":"６０弄","HOUSE_NO":"４７號","E_COORD97":168788.82000000001,"N_COORD97":2551511.1099999999,"ADDRESS":"長和路四段２３１巷６０弄４７號","OBJECTID":167973},"geometry":{"x":168788.8200000003,"y":2551511.1099999994}},{"attributes":{"ID":167975,"DIS_CODE":0,"TOWNNAME":"安南區","LI":"布袋里","LIN":"3鄰","STREET":"長和路","SECT":"四段","MAREA":" ","LANE":"２３１巷","ALLEY":"１２８弄","HOUSE_NO":"２０號","E_COORD97":168758.17999999999,"N_COORD97":2551437.0299999998,"ADDRESS":"長和路四段２３１巷１２８弄２０號","OBJECTID":167974},"geometry":{"x":168758.18000000063,"y":2551437.0299999993}},{"attributes":{"ID":167976,"DIS_CODE":0,"TOWNNAME":"永康區","LI":"復華里","LIN":"31鄰","STREET":"忠孝路","SECT":" ","MAREA":" ","LANE":"３８０巷","ALLEY":"２０弄","HOUSE_NO":"２號","E_COORD97":172513.51247099999,"N_COORD97":2546429.7082000002,"ADDRESS":"忠孝路３８０巷２０弄２號","OBJECTID":167975},"geometry":{"x":172513.5124709988,"y":2546429.7081950027}},{"attributes":{"ID":167977,"DIS_CODE":0,"TOWNNAME":"永康區","LI":"復華里","LIN":"31鄰","STREET":"忠孝路","SECT":" ","MAREA":" ","LANE":"３８０巷","ALLEY":"２０弄","HOUSE_NO":"６號","E_COORD97":172513.51247099999,"N_COORD97":2546424.8398600002,"ADDRESS":"忠孝路３８０巷２０弄６號","OBJECTID":167976},"geometry":{"x":172513.5124709988,"y":2546424.8398640007}},{"attributes":{"ID":167978,"DIS_CODE":0,"TOWNNAME":"永康區","LI":"復華里","LIN":"31鄰","STREET":"忠孝路","SECT":" ","MAREA":" ","LANE":"３８０巷","ALLEY":"２０弄","HOUSE_NO":"８號","E_COORD97":172513.300571,"N_COORD97":2546419.7598700002,"ADDRESS":"忠孝路３８０巷２０弄８號","OBJECTID":167977},"geometry":{"x":172513.30057100113,"y":2546419.7598670013}},{"attributes":{"ID":167979,"DIS_CODE":0,"TOWNNAME":"永康區","LI":"復華里","LIN":"31鄰","STREET":"忠孝路","SECT":" ","MAREA":" ","LANE":"３８０巷","ALLEY":"２０弄","HOUSE_NO":"１２號","E_COORD97":172511.817266,"N_COORD97":2546407.6948699998,"ADDRESS":"忠孝路３８０巷２０弄１２號","OBJECTID":167978},"geometry":{"x":172511.81726600137,"y":2546407.6948740017}},{"attributes":{"ID":167980,"DIS_CODE":0,"TOWNNAME":"永康區","LI":"復華里","LIN":"31鄰","STREET":"忠孝路","SECT":" ","MAREA":" ","LANE":"３８０巷","ALLEY":"２０弄","HOUSE_NO":"１０號","E_COORD97":172512.87676899999,"N_COORD97":2546414.25654,"ADDRESS":"忠孝路３８０巷２０弄１０號","OBJECTID":167979},"geometry":{"x":172512.87676899973,"y":2546414.2565370034}},{"attributes":{"ID":167981,"DIS_CODE":0,"TOWNNAME":"永康區","LI":"復華里","LIN":"31鄰","STREET":"忠孝路","SECT":" ","MAREA":" ","LANE":"３８０巷","ALLEY":"２０弄","HOUSE_NO":"１６號","E_COORD97":172514.995776,"N_COORD97":2546393.9365500002,"ADDRESS":"忠孝路３８０巷２０弄１６號","OBJECTID":167980},"geometry":{"x":172514.99577600043,"y":2546393.9365480021}},{"attributes":{"ID":167982,"DIS_CODE":0,"TOWNNAME":"永康區","LI":"復華里","LIN":"31鄰","STREET":"復國一路","SECT":" ","MAREA":" ","LANE":"５８６巷","ALLEY":"５弄","HOUSE_NO":"１號","E_COORD97":172486.38919099999,"N_COORD97":2546364.3032300002,"ADDRESS":"復國一路５８６巷５弄１號","OBJECTID":167981},"geometry":{"x":172486.38919100072,"y":2546364.3032300007}},{"attributes":{"ID":167983,"DIS_CODE":0,"TOWNNAME":"永康區","LI":"復華里","LIN":"31鄰","STREET":"復國一路","SECT":" ","MAREA":" ","LANE":"５８６巷","ALLEY":"５弄","HOUSE_NO":"７號","E_COORD97":172481.091675,"N_COORD97":2546377.8498900002,"ADDRESS":"復國一路５８６巷５弄７號","OBJECTID":167982},"geometry":{"x":172481.0916750012,"y":2546377.849890003}},{"attributes":{"ID":167984,"DIS_CODE":0,"TOWNNAME":"永康區","LI":"復華里","LIN":"31鄰","STREET":"復國一路","SECT":" ","MAREA":" ","LANE":"５８６巷","ALLEY":"５弄","HOUSE_NO":"３號","E_COORD97":172482.99877999999,"N_COORD97":2546369.1715600002,"ADDRESS":"復國一路５８６巷５弄３號","OBJECTID":167983},"geometry":{"x":172482.99878000189,"y":2546369.1715600025}},{"attributes":{"ID":167985,"DIS_CODE":0,"TOWNNAME":"永康區","LI":"復華里","LIN":"31鄰","STREET":"復國一路","SECT":" ","MAREA":" ","LANE":"５８６巷","ALLEY":"５弄","HOUSE_NO":"５號","E_COORD97":172488.08439,"N_COORD97":2546374.2515500002,"ADDRESS":"復國一路５８６巷５弄５號","OBJECTID":167984},"geometry":{"x":172488.08438999951,"y":2546374.251550002}},{"attributes":{"ID":167986,"DIS_CODE":0,"TOWNNAME":"永康區","LI":"復華里","LIN":"31鄰","STREET":"復國一路","SECT":" ","MAREA":" ","LANE":"５８６巷","ALLEY":"５弄","HOUSE_NO":"９號","E_COORD97":172485.753489,"N_COORD97":2546384.4115499998,"ADDRESS":"復國一路５８６巷５弄９號","OBJECTID":167985},"geometry":{"x":172485.75348900072,"y":2546384.4115529992}},{"attributes":{"ID":167987,"DIS_CODE":0,"TOWNNAME":"永康區","LI":"復華里","LIN":"31鄰","STREET":"復國一路","SECT":" ","MAREA":" ","LANE":"５８６巷","ALLEY":"５弄","HOUSE_NO":"１１號","E_COORD97":172479.60837100001,"N_COORD97":2546388.2215499999,"ADDRESS":"復國一路５８６巷５弄１１號","OBJECTID":167986},"geometry":{"x":172479.60837100167,"y":2546388.2215510029}},{"attributes":{"ID":167988,"DIS_CODE":0,"TOWNNAME":"永康區","LI":"復華里","LIN":"31鄰","STREET":"復國一路","SECT":" ","MAREA":" ","LANE":"５８６巷","ALLEY":"５弄","HOUSE_NO":"１３號","E_COORD97":172477.27746400001,"N_COORD97":2546393.0898799999,"ADDRESS":"復國一路５８６巷５弄１３號","OBJECTID":167987},"geometry":{"x":172477.27746399958,"y":2546393.089881001}},{"attributes":{"ID":167989,"DIS_CODE":0,"TOWNNAME":"永康區","LI":"復華里","LIN":"31鄰","STREET":"復國一路","SECT":" ","MAREA":" ","LANE":"５８６巷","ALLEY":"５弄","HOUSE_NO":"１３號","E_COORD97":172481.727377,"N_COORD97":2546399.8632100001,"ADDRESS":"復國一路５８６巷５弄１３號","OBJECTID":167988},"geometry":{"x":172481.7273770012,"y":2546399.8632110022}},{"attributes":{"ID":167990,"DIS_CODE":0,"TOWNNAME":"永康區","LI":"復華里","LIN":"31鄰","STREET":"復國一路","SECT":" ","MAREA":" ","LANE":"５８６巷","ALLEY":"５弄","HOUSE_NO":"２號","E_COORD97":172500.162732,"N_COORD97":2546371.07656,"ADDRESS":"復國一路５８６巷５弄２號","OBJECTID":167989},"geometry":{"x":172500.16273200046,"y":2546371.0765600018}},{"attributes":{"ID":167991,"DIS_CODE":0,"TOWNNAME":"永康區","LI":"復華里","LIN":"31鄰","STREET":"復國一路","SECT":" ","MAREA":" ","LANE":"５８６巷","ALLEY":"５弄","HOUSE_NO":"６號","E_COORD97":172497.831825,"N_COORD97":2546378.2732199999,"ADDRESS":"復國一路５８６巷５弄６號","OBJECTID":167990},"geometry":{"x":172497.83182500117,"y":2546378.2732230015}},{"attributes":{"ID":167992,"DIS_CODE":0,"TOWNNAME":"安南區","LI":"安東里","LIN":"12鄰","STREET":"安和路","SECT":"一段","MAREA":" ","LANE":"２８８巷","ALLEY":"１８２弄","HOUSE_NO":"１３號","E_COORD97":169800.862888,"N_COORD97":2548169.8226200002,"ADDRESS":"安和路一段２８８巷１８２弄１３號","OBJECTID":167991},"geometry":{"x":169800.86288800091,"y":2548169.8226230014}},{"attributes":{"ID":167993,"DIS_CODE":0,"TOWNNAME":"安南區","LI":"州南里","LIN":"16鄰","STREET":"安和路","SECT":"五段","MAREA":" ","LANE":"８４巷","ALLEY":"１６弄","HOUSE_NO":"１０之１號","E_COORD97":169980.418642,"N_COORD97":2551682.4352699998,"ADDRESS":"安和路五段８４巷１６弄１０之１號","OBJECTID":167992},"geometry":{"x":169980.4186420003,"y":2551682.4352730028}},{"attributes":{"ID":167994,"DIS_CODE":0,"TOWNNAME":"將軍區","LI":"長榮里","LIN":"12鄰","STREET":" ","SECT":" ","MAREA":"長榮","LANE":" ","ALLEY":" ","HOUSE_NO":"１６５之１６號","E_COORD97":164086.34,"N_COORD97":2565347.1600000001,"ADDRESS":"長榮１６５之１６號","OBJECTID":167993},"geometry":{"x":164086.33999999892,"y":2565347.1600000001}},{"attributes":{"ID":167995,"DIS_CODE":0,"TOWNNAME":"將軍區","LI":"長榮里","LIN":"12鄰","STREET":" ","SECT":" ","MAREA":"長榮","LANE":" ","ALLEY":" ","HOUSE_NO":"１６５之８０號","E_COORD97":164266.89999999999,"N_COORD97":2565513.21,"ADDRESS":"長榮１６５之８０號","OBJECTID":167994},"geometry":{"x":164266.9000000013,"y":2565513.2100000028}},{"attributes":{"ID":167996,"DIS_CODE":0,"TOWNNAME":"將軍區","LI":"長榮里","LIN":"12鄰","STREET":" ","SECT":" ","MAREA":"長榮","LANE":" ","ALLEY":" ","HOUSE_NO":"１６５號","E_COORD97":163898.95000000001,"N_COORD97":2565547.0699999998,"ADDRESS":"長榮１６５號","OBJECTID":167995},"geometry":{"x":163898.95000000019,"y":2565547.0700000022}},{"attributes":{"ID":167997,"DIS_CODE":0,"TOWNNAME":"將軍區","LI":"長榮里","LIN":"12鄰","STREET":" ","SECT":" ","MAREA":"長榮","LANE":" ","ALLEY":" ","HOUSE_NO":"１６６之１號","E_COORD97":164038.44,"N_COORD97":2565155.3199999998,"ADDRESS":"長榮１６６之１號","OBJECTID":167996},"geometry":{"x":164038.44000000041,"y":2565155.3200000022}},{"attributes":{"ID":167998,"DIS_CODE":0,"TOWNNAME":"將軍區","LI":"長榮里","LIN":"12鄰","STREET":" ","SECT":" ","MAREA":"長榮","LANE":" ","ALLEY":" ","HOUSE_NO":"１６６號","E_COORD97":164037.48999999999,"N_COORD97":2565159.8399999999,"ADDRESS":"長榮１６６號","OBJECTID":167997},"geometry":{"x":164037.49000000115,"y":2565159.8399999999}},{"attributes":{"ID":167999,"DIS_CODE":0,"TOWNNAME":"安南區","LI":"州南里","LIN":"1鄰","STREET":"安和路","SECT":"四段","MAREA":" ","LANE":"２７４巷","ALLEY":"１３弄","HOUSE_NO":"１０之１號","E_COORD97":170015.99800299999,"N_COORD97":2550811.8507400001,"ADDRESS":"安和路四段２７４巷１３弄１０之１號","OBJECTID":167998},"geometry":{"x":170015.99800300039,"y":2550811.8507430013}},{"attributes":{"ID":168000,"DIS_CODE":0,"TOWNNAME":"安南區","LI":"州南里","LIN":"1鄰","STREET":"安和路","SECT":"四段","MAREA":" ","LANE":"２７４巷","ALLEY":"１３弄","HOUSE_NO":"６號","E_COORD97":170000.537924,"N_COORD97":2550812.2740799999,"ADDRESS":"安和路四段２７４巷１３弄６號","OBJECTID":167999},"geometry":{"x":170000.53792400192,"y":2550812.2740759999}},{"attributes":{"ID":168001,"DIS_CODE":0,"TOWNNAME":"新市區","LI":"新市里","LIN":"25鄰","STREET":"復興路","SECT":" ","MAREA":" ","LANE":"６巷","ALLEY":"２２弄","HOUSE_NO":"６號","E_COORD97":177890.17999999999,"N_COORD97":2553315.5299999998,"ADDRESS":"復興路６巷２２弄６號","OBJECTID":168000},"geometry":{"x":177890.18000000063,"y":2553315.5299999993}}]}