{"displayFieldName":"TOWNNAME","fieldAliases":{"ID":"ID","DIS_CODE":"DIS_CODE","TOWNNAME":"TOWNNAME","LI":"LI","LIN":"LIN","STREET":"STREET","SECT":"SECT","MAREA":"MAREA","LANE":"LANE","ALLEY":"ALLEY","HOUSE_NO":"HOUSE_NO","E_COORD97":"E_COORD97","N_COORD97":"N_COORD97","ADDRESS":"ADDRESS","OBJECTID":"OBJECTID"},"geometryType":"esriGeometryPoint","spatialReference":{"wkid":102443,"latestWkid":3826},"fields":[{"name":"ID","type":"esriFieldTypeDouble","alias":"ID"},{"name":"DIS_CODE","type":"esriFieldTypeInteger","alias":"DIS_CODE"},{"name":"TOWNNAME","type":"esriFieldTypeString","alias":"TOWNNAME","length":8},{"name":"LI","type":"esriFieldTypeString","alias":"LI","length":8},{"name":"LIN","type":"esriFieldTypeString","alias":"LIN","length":12},{"name":"STREET","type":"esriFieldTypeString","alias":"STREET","length":20},{"name":"SECT","type":"esriFieldTypeString","alias":"SECT","length":8},{"name":"MAREA","type":"esriFieldTypeString","alias":"MAREA","length":12},{"name":"LANE","type":"esriFieldTypeString","alias":"LANE","length":10},{"name":"ALLEY","type":"esriFieldTypeString","alias":"ALLEY","length":10},{"name":"HOUSE_NO","type":"esriFieldTypeString","alias":"HOUSE_NO","length":20},{"name":"E_COORD97","type":"esriFieldTypeDouble","alias":"E_COORD97"},{"name":"N_COORD97","type":"esriFieldTypeDouble","alias":"N_COORD97"},{"name":"ADDRESS","type":"esriFieldTypeString","alias":"ADDRESS","length":50},{"name":"OBJECTID","type":"esriFieldTypeOID","alias":"OBJECTID"}],"features":[{"attributes":{"ID":188802,"DIS_CODE":0,"TOWNNAME":"北區","LI":"文元里","LIN":"5鄰","STREET":"文賢路","SECT":" ","MAREA":" ","LANE":"１１２２巷","ALLEY":"５９弄","HOUSE_NO":"３９號","E_COORD97":167486.23000000001,"N_COORD97":2546475.02,"ADDRESS":"文賢路１１２２巷５９弄３９號","OBJECTID":188801},"geometry":{"x":167486.23000000045,"y":2546475.0200000033}},{"attributes":{"ID":188803,"DIS_CODE":0,"TOWNNAME":"北區","LI":"文元里","LIN":"5鄰","STREET":"文賢路","SECT":" ","MAREA":" ","LANE":"１１２２巷","ALLEY":"５９弄","HOUSE_NO":"４１號","E_COORD97":167482,"N_COORD97":2546478.98,"ADDRESS":"文賢路１１２２巷５９弄４１號","OBJECTID":188802},"geometry":{"x":167482,"y":2546478.9800000004}},{"attributes":{"ID":188804,"DIS_CODE":0,"TOWNNAME":"新營區","LI":"大宏里","LIN":"24鄰","STREET":"民治路","SECT":" ","MAREA":" ","LANE":" ","ALLEY":" ","HOUSE_NO":"３之１４號","E_COORD97":180560.13,"N_COORD97":2578843.6800000002,"ADDRESS":"民治路３之１４號","OBJECTID":188803},"geometry":{"x":180560.13000000175,"y":2578843.6799999997}},{"attributes":{"ID":188805,"DIS_CODE":0,"TOWNNAME":"新市區","LI":"大營里","LIN":"21鄰","STREET":" ","SECT":" ","MAREA":"豐榮","LANE":" ","ALLEY":" ","HOUSE_NO":"１１１號","E_COORD97":178893.35000000001,"N_COORD97":2554274,"ADDRESS":"豐榮１１１號","OBJECTID":188804},"geometry":{"x":178893.34999999963,"y":2554274.0000000019}},{"attributes":{"ID":188806,"DIS_CODE":0,"TOWNNAME":"新市區","LI":"大營里","LIN":"21鄰","STREET":" ","SECT":" ","MAREA":"豐榮","LANE":" ","ALLEY":" ","HOUSE_NO":"１６０號","E_COORD97":178952.82000000001,"N_COORD97":2554084.5,"ADDRESS":"豐榮１６０號","OBJECTID":188805},"geometry":{"x":178952.82000000123,"y":2554084.5000000019}},{"attributes":{"ID":188807,"DIS_CODE":0,"TOWNNAME":"新市區","LI":"大營里","LIN":"21鄰","STREET":" ","SECT":" ","MAREA":"豐榮","LANE":" ","ALLEY":" ","HOUSE_NO":"１４３號","E_COORD97":178894.14999999999,"N_COORD97":2554231.75,"ADDRESS":"豐榮１４３號","OBJECTID":188806},"geometry":{"x":178894.15000000224,"y":2554231.7500000019}},{"attributes":{"ID":188808,"DIS_CODE":0,"TOWNNAME":"新市區","LI":"大營里","LIN":"21鄰","STREET":" ","SECT":" ","MAREA":"豐榮","LANE":" ","ALLEY":" ","HOUSE_NO":"１０４號","E_COORD97":178841.39999999999,"N_COORD97":2554279,"ADDRESS":"豐榮１０４號","OBJECTID":188807},"geometry":{"x":178841.39999999944,"y":2554279}},{"attributes":{"ID":188809,"DIS_CODE":0,"TOWNNAME":"六甲區","LI":"中社里","LIN":"11鄰","STREET":" ","SECT":" ","MAREA":"中社","LANE":" ","ALLEY":" ","HOUSE_NO":"４７９號","E_COORD97":180766.03,"N_COORD97":2570472.9300000002,"ADDRESS":"中社４７９號","OBJECTID":188808},"geometry":{"x":180766.03000000026,"y":2570472.9300000034}},{"attributes":{"ID":188810,"DIS_CODE":0,"TOWNNAME":"六甲區","LI":"中社里","LIN":"11鄰","STREET":" ","SECT":" ","MAREA":"中社","LANE":" ","ALLEY":" ","HOUSE_NO":"４８１號","E_COORD97":180789.60000000001,"N_COORD97":2570452.0499999998,"ADDRESS":"中社４８１號","OBJECTID":188809},"geometry":{"x":180789.60000000056,"y":2570452.0500000007}},{"attributes":{"ID":188811,"DIS_CODE":0,"TOWNNAME":"六甲區","LI":"中社里","LIN":"11鄰","STREET":" ","SECT":" ","MAREA":"中社","LANE":" ","ALLEY":" ","HOUSE_NO":"４８９之１０號","E_COORD97":180847.01999999999,"N_COORD97":2570638.1499999999,"ADDRESS":"中社４８９之１０號","OBJECTID":188810},"geometry":{"x":180847.02000000142,"y":2570638.1500000041}},{"attributes":{"ID":188812,"DIS_CODE":0,"TOWNNAME":"六甲區","LI":"中社里","LIN":"11鄰","STREET":" ","SECT":" ","MAREA":"中社","LANE":" ","ALLEY":" ","HOUSE_NO":"４８９號之１","E_COORD97":180896.94,"N_COORD97":2570640.3700000001,"ADDRESS":"中社４８９號之１","OBJECTID":188811},"geometry":{"x":180896.94000000041,"y":2570640.370000001}},{"attributes":{"ID":188813,"DIS_CODE":0,"TOWNNAME":"六甲區","LI":"中社里","LIN":"11鄰","STREET":" ","SECT":" ","MAREA":"中社","LANE":" ","ALLEY":" ","HOUSE_NO":"４８９號之２","E_COORD97":180901.92000000001,"N_COORD97":2570639.3799999999,"ADDRESS":"中社４８９號之２","OBJECTID":188812},"geometry":{"x":180901.91999999993,"y":2570639.3800000008}},{"attributes":{"ID":188814,"DIS_CODE":0,"TOWNNAME":"六甲區","LI":"中社里","LIN":"11鄰","STREET":" ","SECT":" ","MAREA":"中社","LANE":" ","ALLEY":" ","HOUSE_NO":"４８９之９號","E_COORD97":180858.16,"N_COORD97":2570636.5699999998,"ADDRESS":"中社４８９之９號","OBJECTID":188813},"geometry":{"x":180858.16000000015,"y":2570636.5700000022}},{"attributes":{"ID":188815,"DIS_CODE":0,"TOWNNAME":"六甲區","LI":"中社里","LIN":"11鄰","STREET":" ","SECT":" ","MAREA":"中社","LANE":" ","ALLEY":" ","HOUSE_NO":"４９１號之１","E_COORD97":180953.01999999999,"N_COORD97":2570629.1499999999,"ADDRESS":"中社４９１號之１","OBJECTID":188814},"geometry":{"x":180953.01999999955,"y":2570629.1500000022}},{"attributes":{"ID":188816,"DIS_CODE":0,"TOWNNAME":"六甲區","LI":"中社里","LIN":"11鄰","STREET":" ","SECT":" ","MAREA":"中社","LANE":" ","ALLEY":" ","HOUSE_NO":"４９１號","E_COORD97":180971.45999999999,"N_COORD97":2570632.6699999999,"ADDRESS":"中社４９１號","OBJECTID":188815},"geometry":{"x":180971.45999999903,"y":2570632.6699999999}},{"attributes":{"ID":188817,"DIS_CODE":0,"TOWNNAME":"新市區","LI":"大營里","LIN":"21鄰","STREET":" ","SECT":" ","MAREA":"豐榮","LANE":" ","ALLEY":" ","HOUSE_NO":"８４號","E_COORD97":178850.29000000001,"N_COORD97":2554278.75,"ADDRESS":"豐榮８４號","OBJECTID":188816},"geometry":{"x":178850.28999999911,"y":2554278.7500000019}},{"attributes":{"ID":188818,"DIS_CODE":0,"TOWNNAME":"新市區","LI":"大營里","LIN":"21鄰","STREET":" ","SECT":" ","MAREA":"豐榮","LANE":" ","ALLEY":" ","HOUSE_NO":"１３３號","E_COORD97":178874.54000000001,"N_COORD97":2554163.25,"ADDRESS":"豐榮１３３號","OBJECTID":188817},"geometry":{"x":178874.54000000097,"y":2554163.2500000037}},{"attributes":{"ID":188819,"DIS_CODE":0,"TOWNNAME":"新市區","LI":"大營里","LIN":"21鄰","STREET":" ","SECT":" ","MAREA":"豐榮","LANE":" ","ALLEY":" ","HOUSE_NO":"１３５號","E_COORD97":178877.76999999999,"N_COORD97":2554173.75,"ADDRESS":"豐榮１３５號","OBJECTID":188818},"geometry":{"x":178877.77000000048,"y":2554173.7500000019}},{"attributes":{"ID":188820,"DIS_CODE":0,"TOWNNAME":"六甲區","LI":"中社里","LIN":"11鄰","STREET":" ","SECT":" ","MAREA":"中社","LANE":" ","ALLEY":" ","HOUSE_NO":"４９３號","E_COORD97":181017.87,"N_COORD97":2570623.2799999998,"ADDRESS":"中社４９３號","OBJECTID":188819},"geometry":{"x":181017.87000000011,"y":2570623.2800000012}},{"attributes":{"ID":188821,"DIS_CODE":0,"TOWNNAME":"六甲區","LI":"中社里","LIN":"11鄰","STREET":" ","SECT":" ","MAREA":"中社","LANE":" ","ALLEY":" ","HOUSE_NO":"４９５之１號","E_COORD97":181066,"N_COORD97":2570594.8700000001,"ADDRESS":"中社４９５之１號","OBJECTID":188820},"geometry":{"x":181066,"y":2570594.8700000029}},{"attributes":{"ID":188822,"DIS_CODE":0,"TOWNNAME":"北區","LI":"文元里","LIN":"5鄰","STREET":"文賢路","SECT":" ","MAREA":" ","LANE":"１１２２巷","ALLEY":"５９弄","HOUSE_NO":"４５號","E_COORD97":167480.94,"N_COORD97":2546488.2200000002,"ADDRESS":"文賢路１１２２巷５９弄４５號","OBJECTID":188821},"geometry":{"x":167480.94000000134,"y":2546488.2200000044}},{"attributes":{"ID":188823,"DIS_CODE":0,"TOWNNAME":"北區","LI":"文元里","LIN":"5鄰","STREET":"文賢路","SECT":" ","MAREA":" ","LANE":"１１２２巷","ALLEY":"５９弄","HOUSE_NO":"４７號","E_COORD97":167480.14999999999,"N_COORD97":2546492.1899999999,"ADDRESS":"文賢路１１２２巷５９弄４７號","OBJECTID":188822},"geometry":{"x":167480.15000000037,"y":2546492.1900000013}},{"attributes":{"ID":188824,"DIS_CODE":0,"TOWNNAME":"北區","LI":"文元里","LIN":"5鄰","STREET":"文賢路","SECT":" ","MAREA":" ","LANE":"１１２２巷","ALLEY":"５９弄","HOUSE_NO":"５１號","E_COORD97":167479.39999999999,"N_COORD97":2546501.71,"ADDRESS":"文賢路１１２２巷５９弄５１號","OBJECTID":188823},"geometry":{"x":167479.4000000013,"y":2546501.7100000009}},{"attributes":{"ID":188825,"DIS_CODE":0,"TOWNNAME":"北區","LI":"正覺里","LIN":"5鄰","STREET":"北安路","SECT":"一段","MAREA":" ","LANE":"５１巷","ALLEY":"４弄","HOUSE_NO":"１１號","E_COORD97":169089.44,"N_COORD97":2546144.6000000001,"ADDRESS":"北安路一段５１巷４弄１１號","OBJECTID":188824},"geometry":{"x":169089.44000000134,"y":2546144.5999999996}},{"attributes":{"ID":188826,"DIS_CODE":0,"TOWNNAME":"北區","LI":"正覺里","LIN":"5鄰","STREET":"北安路","SECT":"一段","MAREA":" ","LANE":"５１巷","ALLEY":"４弄","HOUSE_NO":"１３號","E_COORD97":169093.26000000001,"N_COORD97":2546148.8100000001,"ADDRESS":"北安路一段５１巷４弄１３號","OBJECTID":188825},"geometry":{"x":169093.26000000071,"y":2546148.8100000024}},{"attributes":{"ID":188827,"DIS_CODE":0,"TOWNNAME":"北區","LI":"正覺里","LIN":"5鄰","STREET":"北安路","SECT":"一段","MAREA":" ","LANE":"５１巷","ALLEY":"４弄","HOUSE_NO":"１５號","E_COORD97":169096.39000000001,"N_COORD97":2546154.1000000001,"ADDRESS":"北安路一段５１巷４弄１５號","OBJECTID":188826},"geometry":{"x":169096.38999999966,"y":2546154.0999999996}},{"attributes":{"ID":188828,"DIS_CODE":0,"TOWNNAME":"北區","LI":"正覺里","LIN":"5鄰","STREET":"北安路","SECT":"一段","MAREA":" ","LANE":"５１巷","ALLEY":"４弄","HOUSE_NO":"１７號","E_COORD97":169099.23000000001,"N_COORD97":2546159.3799999999,"ADDRESS":"北安路一段５１巷４弄１７號","OBJECTID":188827},"geometry":{"x":169099.23000000138,"y":2546159.379999999}},{"attributes":{"ID":188829,"DIS_CODE":0,"TOWNNAME":"六甲區","LI":"中社里","LIN":"11鄰","STREET":" ","SECT":" ","MAREA":"中社","LANE":" ","ALLEY":" ","HOUSE_NO":"４９５號","E_COORD97":181045.12,"N_COORD97":2570608.1099999999,"ADDRESS":"中社４９５號","OBJECTID":188828},"geometry":{"x":181045.11999999918,"y":2570608.1100000013}},{"attributes":{"ID":188830,"DIS_CODE":0,"TOWNNAME":"六甲區","LI":"中社里","LIN":"11鄰","STREET":" ","SECT":" ","MAREA":"中社","LANE":" ","ALLEY":" ","HOUSE_NO":"４９７號之１","E_COORD97":181131.79999999999,"N_COORD97":2570588.4100000001,"ADDRESS":"中社４９７號之１","OBJECTID":188829},"geometry":{"x":181131.80000000168,"y":2570588.4099999983}},{"attributes":{"ID":188831,"DIS_CODE":0,"TOWNNAME":"六甲區","LI":"中社里","LIN":"11鄰","STREET":" ","SECT":" ","MAREA":"中社","LANE":" ","ALLEY":" ","HOUSE_NO":"４９７號之２","E_COORD97":181140.79000000001,"N_COORD97":2570583.8399999999,"ADDRESS":"中社４９７號之２","OBJECTID":188830},"geometry":{"x":181140.79000000097,"y":2570583.8399999999}},{"attributes":{"ID":188832,"DIS_CODE":0,"TOWNNAME":"六甲區","LI":"中社里","LIN":"11鄰","STREET":" ","SECT":" ","MAREA":"中社","LANE":" ","ALLEY":" ","HOUSE_NO":"４９７號之３","E_COORD97":181146.20999999999,"N_COORD97":2570583.3300000001,"ADDRESS":"中社４９７號之３","OBJECTID":188831},"geometry":{"x":181146.21000000183,"y":2570583.3300000019}},{"attributes":{"ID":188833,"DIS_CODE":0,"TOWNNAME":"六甲區","LI":"中社里","LIN":"11鄰","STREET":" ","SECT":" ","MAREA":"中社","LANE":" ","ALLEY":" ","HOUSE_NO":"４９７號","E_COORD97":181121.25,"N_COORD97":2570590.98,"ADDRESS":"中社４９７號","OBJECTID":188832},"geometry":{"x":181121.25000000093,"y":2570590.9800000004}},{"attributes":{"ID":188834,"DIS_CODE":0,"TOWNNAME":"六甲區","LI":"中社里","LIN":"11鄰","STREET":" ","SECT":" ","MAREA":"中社","LANE":" ","ALLEY":" ","HOUSE_NO":"４９９號之１","E_COORD97":181160.32000000001,"N_COORD97":2570565.0899999999,"ADDRESS":"中社４９９號之１","OBJECTID":188833},"geometry":{"x":181160.3200000003,"y":2570565.0899999999}},{"attributes":{"ID":188835,"DIS_CODE":0,"TOWNNAME":"六甲區","LI":"中社里","LIN":"11鄰","STREET":" ","SECT":" ","MAREA":"中社","LANE":" ","ALLEY":" ","HOUSE_NO":"４９９號之２","E_COORD97":181167.41,"N_COORD97":2570563.9399999999,"ADDRESS":"中社４９９號之２","OBJECTID":188834},"geometry":{"x":181167.41000000108,"y":2570563.9400000032}},{"attributes":{"ID":188836,"DIS_CODE":0,"TOWNNAME":"六甲區","LI":"中社里","LIN":"11鄰","STREET":" ","SECT":" ","MAREA":"中社","LANE":" ","ALLEY":" ","HOUSE_NO":"５０１號","E_COORD97":181187.85000000001,"N_COORD97":2570567.98,"ADDRESS":"中社５０１號","OBJECTID":188835},"geometry":{"x":181187.85000000056,"y":2570567.9799999986}},{"attributes":{"ID":188837,"DIS_CODE":0,"TOWNNAME":"六甲區","LI":"中社里","LIN":"11鄰","STREET":" ","SECT":" ","MAREA":"中社","LANE":" ","ALLEY":" ","HOUSE_NO":"５０３號","E_COORD97":181235.63,"N_COORD97":2570538.8199999998,"ADDRESS":"中社５０３號","OBJECTID":188836},"geometry":{"x":181235.62999999989,"y":2570538.8200000022}},{"attributes":{"ID":188838,"DIS_CODE":0,"TOWNNAME":"六甲區","LI":"中社里","LIN":"11鄰","STREET":" ","SECT":" ","MAREA":"中社","LANE":" ","ALLEY":" ","HOUSE_NO":"５０５號","E_COORD97":181013.45999999999,"N_COORD97":2569827.3900000001,"ADDRESS":"中社５０５號","OBJECTID":188837},"geometry":{"x":181013.45999999996,"y":2569827.3900000025}},{"attributes":{"ID":188839,"DIS_CODE":0,"TOWNNAME":"六甲區","LI":"中社里","LIN":"11鄰","STREET":" ","SECT":" ","MAREA":"中社","LANE":" ","ALLEY":" ","HOUSE_NO":"５０９之３號","E_COORD97":180914.54000000001,"N_COORD97":2570158.6200000001,"ADDRESS":"中社５０９之３號","OBJECTID":188838},"geometry":{"x":180914.54000000004,"y":2570158.6200000029}},{"attributes":{"ID":188840,"DIS_CODE":0,"TOWNNAME":"六甲區","LI":"中社里","LIN":"11鄰","STREET":" ","SECT":" ","MAREA":"中社","LANE":" ","ALLEY":" ","HOUSE_NO":"５０９號","E_COORD97":180992.78,"N_COORD97":2570122.6000000001,"ADDRESS":"中社５０９號","OBJECTID":188839},"geometry":{"x":180992.78000000026,"y":2570122.6000000015}},{"attributes":{"ID":188841,"DIS_CODE":0,"TOWNNAME":"六甲區","LI":"中社里","LIN":"11鄰","STREET":" ","SECT":" ","MAREA":"中社","LANE":" ","ALLEY":" ","HOUSE_NO":"５１１號","E_COORD97":180901.67000000001,"N_COORD97":2570058.21,"ADDRESS":"中社５１１號","OBJECTID":188840},"geometry":{"x":180901.66999999993,"y":2570058.2100000009}},{"attributes":{"ID":188842,"DIS_CODE":0,"TOWNNAME":"六甲區","LI":"中社里","LIN":"11鄰","STREET":" ","SECT":" ","MAREA":"中社","LANE":" ","ALLEY":" ","HOUSE_NO":"５１５號","E_COORD97":181127.89000000001,"N_COORD97":2570111.4399999999,"ADDRESS":"中社５１５號","OBJECTID":188841},"geometry":{"x":181127.8900000006,"y":2570111.4399999995}},{"attributes":{"ID":188843,"DIS_CODE":0,"TOWNNAME":"學甲區","LI":"秀昌里","LIN":"27鄰","STREET":" ","SECT":" ","MAREA":"煥昌","LANE":" ","ALLEY":" ","HOUSE_NO":"５１號之１","E_COORD97":166137.73999999999,"N_COORD97":2570761.5099999998,"ADDRESS":"煥昌５１號之１","OBJECTID":188842},"geometry":{"x":166137.74000000115,"y":2570761.5100000016}},{"attributes":{"ID":188844,"DIS_CODE":0,"TOWNNAME":"學甲區","LI":"秀昌里","LIN":"27鄰","STREET":" ","SECT":" ","MAREA":"煥昌","LANE":" ","ALLEY":" ","HOUSE_NO":"５２號","E_COORD97":166129.57000000001,"N_COORD97":2570776.6200000001,"ADDRESS":"煥昌５２號","OBJECTID":188843},"geometry":{"x":166129.5700000003,"y":2570776.620000001}},{"attributes":{"ID":188845,"DIS_CODE":0,"TOWNNAME":"柳營區","LI":"光福里","LIN":"27鄰","STREET":" ","SECT":" ","MAREA":"柳營","LANE":" ","ALLEY":" ","HOUSE_NO":"２７６號之１１８","E_COORD97":180100.39000000001,"N_COORD97":2575591.8999999999,"ADDRESS":"柳營２７６號之１１８","OBJECTID":188844},"geometry":{"x":180100.39000000153,"y":2575591.9000000004}},{"attributes":{"ID":188846,"DIS_CODE":0,"TOWNNAME":"柳營區","LI":"光福里","LIN":"27鄰","STREET":" ","SECT":" ","MAREA":"柳營","LANE":" ","ALLEY":" ","HOUSE_NO":"２７６號之１１９","E_COORD97":180104.54999999999,"N_COORD97":2575591.8100000001,"ADDRESS":"柳營２７６號之１１９","OBJECTID":188845},"geometry":{"x":180104.55000000168,"y":2575591.8100000024}},{"attributes":{"ID":188847,"DIS_CODE":0,"TOWNNAME":"柳營區","LI":"光福里","LIN":"27鄰","STREET":" ","SECT":" ","MAREA":"柳營","LANE":" ","ALLEY":" ","HOUSE_NO":"２７６號之１２０","E_COORD97":180108.70999999999,"N_COORD97":2575591.73,"ADDRESS":"柳營２７６號之１２０","OBJECTID":188846},"geometry":{"x":180108.71000000183,"y":2575591.7300000023}},{"attributes":{"ID":188848,"DIS_CODE":0,"TOWNNAME":"東區","LI":"裕聖里","LIN":"21鄰","STREET":"裕忠一街","SECT":" ","MAREA":" ","LANE":" ","ALLEY":" ","HOUSE_NO":"６８號","E_COORD97":172391.35000000001,"N_COORD97":2542383.6099999999,"ADDRESS":"裕忠一街６８號","OBJECTID":188847},"geometry":{"x":172391.35000000056,"y":2542383.6100000013}},{"attributes":{"ID":188849,"DIS_CODE":0,"TOWNNAME":"東區","LI":"裕聖里","LIN":"21鄰","STREET":"裕忠一街","SECT":" ","MAREA":" ","LANE":" ","ALLEY":" ","HOUSE_NO":"７０號","E_COORD97":172389.85999999999,"N_COORD97":2542378.54,"ADDRESS":"裕忠一街７０號","OBJECTID":188848},"geometry":{"x":172389.8600000022,"y":2542378.5399999972}},{"attributes":{"ID":188850,"DIS_CODE":0,"TOWNNAME":"東區","LI":"裕聖里","LIN":"21鄰","STREET":"裕忠一街","SECT":" ","MAREA":" ","LANE":" ","ALLEY":" ","HOUSE_NO":"７２號","E_COORD97":172406.85000000001,"N_COORD97":2542378.54,"ADDRESS":"裕忠一街７２號","OBJECTID":188849},"geometry":{"x":172406.85000000056,"y":2542378.5399999972}},{"attributes":{"ID":188851,"DIS_CODE":0,"TOWNNAME":"東區","LI":"裕聖里","LIN":"21鄰","STREET":"裕忠一街","SECT":" ","MAREA":" ","LANE":" ","ALLEY":" ","HOUSE_NO":"７６號","E_COORD97":172406.26000000001,"N_COORD97":2542384.2000000002,"ADDRESS":"裕忠一街７６號","OBJECTID":188850},"geometry":{"x":172406.25999999978,"y":2542384.1999999993}},{"attributes":{"ID":188852,"DIS_CODE":0,"TOWNNAME":"東區","LI":"裕聖里","LIN":"21鄰","STREET":"裕忠一街","SECT":" ","MAREA":" ","LANE":" ","ALLEY":" ","HOUSE_NO":"７８號","E_COORD97":172406.26000000001,"N_COORD97":2542391.0499999998,"ADDRESS":"裕忠一街７８號","OBJECTID":188851},"geometry":{"x":172406.25999999978,"y":2542391.0500000026}},{"attributes":{"ID":188853,"DIS_CODE":0,"TOWNNAME":"東區","LI":"裕聖里","LIN":"21鄰","STREET":"裕忠一街","SECT":" ","MAREA":" ","LANE":" ","ALLEY":" ","HOUSE_NO":"８０號","E_COORD97":172406.26000000001,"N_COORD97":2542397.8999999999,"ADDRESS":"裕忠一街８０號","OBJECTID":188852},"geometry":{"x":172406.25999999978,"y":2542397.9000000041}},{"attributes":{"ID":188854,"DIS_CODE":0,"TOWNNAME":"佳里區","LI":"安西里","LIN":"21鄰","STREET":"公園路","SECT":" ","MAREA":" ","LANE":" ","ALLEY":" ","HOUSE_NO":"４６５號","E_COORD97":165301.51999999999,"N_COORD97":2562867.3599999999,"ADDRESS":"公園路４６５號","OBJECTID":188853},"geometry":{"x":165301.51999999955,"y":2562867.3599999994}},{"attributes":{"ID":188855,"DIS_CODE":0,"TOWNNAME":"仁德區","LI":"二行里","LIN":"8鄰","STREET":"行大一街","SECT":" ","MAREA":" ","LANE":" ","ALLEY":" ","HOUSE_NO":"２２號","E_COORD97":170169.88,"N_COORD97":2535104.4900000002,"ADDRESS":"行大一街２２號","OBJECTID":188854},"geometry":{"x":170169.87999999989,"y":2535104.4900000039}},{"attributes":{"ID":188856,"DIS_CODE":0,"TOWNNAME":"仁德區","LI":"上崙里","LIN":"4鄰","STREET":"德崙路","SECT":" ","MAREA":" ","LANE":" ","ALLEY":" ","HOUSE_NO":"２４９號","E_COORD97":173775.95000000001,"N_COORD97":2538183.2599999998,"ADDRESS":"德崙路２４９號","OBJECTID":188855},"geometry":{"x":173775.95000000112,"y":2538183.2599999998}},{"attributes":{"ID":188857,"DIS_CODE":0,"TOWNNAME":"仁德區","LI":"上崙里","LIN":"20鄰","STREET":"上崙一街","SECT":" ","MAREA":" ","LANE":" ","ALLEY":" ","HOUSE_NO":"４０號","E_COORD97":173773.17000000001,"N_COORD97":2538026.75,"ADDRESS":"上崙一街４０號","OBJECTID":188856},"geometry":{"x":173773.16999999993,"y":2538026.75}},{"attributes":{"ID":188858,"DIS_CODE":0,"TOWNNAME":"仁德區","LI":"一甲里","LIN":"20鄰","STREET":"太乙七街","SECT":" ","MAREA":" ","LANE":" ","ALLEY":" ","HOUSE_NO":"７７號","E_COORD97":173076.73999999999,"N_COORD97":2542033.75,"ADDRESS":"太乙七街７７號","OBJECTID":188857},"geometry":{"x":173076.74000000022,"y":2542033.7500000019}},{"attributes":{"ID":188859,"DIS_CODE":0,"TOWNNAME":"仁德區","LI":"一甲里","LIN":"20鄰","STREET":"太乙七街","SECT":" ","MAREA":" ","LANE":" ","ALLEY":" ","HOUSE_NO":"８４號","E_COORD97":173044.01000000001,"N_COORD97":2541945.75,"ADDRESS":"太乙七街８４號","OBJECTID":188858},"geometry":{"x":173044.00999999978,"y":2541945.7500000019}},{"attributes":{"ID":188860,"DIS_CODE":0,"TOWNNAME":"北區","LI":"正覺里","LIN":"5鄰","STREET":"北安路","SECT":"一段","MAREA":" ","LANE":"５１巷","ALLEY":"４弄","HOUSE_NO":"１號","E_COORD97":169115.79999999999,"N_COORD97":2546147.04,"ADDRESS":"北安路一段５１巷４弄１號","OBJECTID":188859},"geometry":{"x":169115.79999999981,"y":2546147.040000001}},{"attributes":{"ID":188861,"DIS_CODE":0,"TOWNNAME":"北區","LI":"正覺里","LIN":"5鄰","STREET":"北安路","SECT":"一段","MAREA":" ","LANE":"５１巷","ALLEY":"４弄","HOUSE_NO":"３號","E_COORD97":169113.25,"N_COORD97":2546142.73,"ADDRESS":"北安路一段５１巷４弄３號","OBJECTID":188860},"geometry":{"x":169113.25,"y":2546142.7300000023}},{"attributes":{"ID":188862,"DIS_CODE":0,"TOWNNAME":"北區","LI":"正覺里","LIN":"5鄰","STREET":"北安路","SECT":"一段","MAREA":" ","LANE":"５１巷","ALLEY":"４弄","HOUSE_NO":"５號","E_COORD97":169109.53,"N_COORD97":2546139.0099999998,"ADDRESS":"北安路一段５１巷４弄５號","OBJECTID":188861},"geometry":{"x":169109.53000000026,"y":2546139.0099999998}},{"attributes":{"ID":188863,"DIS_CODE":0,"TOWNNAME":"北區","LI":"正覺里","LIN":"5鄰","STREET":"北安路","SECT":"一段","MAREA":" ","LANE":"５１巷","ALLEY":"４弄","HOUSE_NO":"７號","E_COORD97":169105.12,"N_COORD97":2546135.98,"ADDRESS":"北安路一段５１巷４弄７號","OBJECTID":188862},"geometry":{"x":169105.12000000104,"y":2546135.9800000004}},{"attributes":{"ID":188864,"DIS_CODE":0,"TOWNNAME":"北區","LI":"正覺里","LIN":"5鄰","STREET":"北安路","SECT":"一段","MAREA":" ","LANE":"５１巷","ALLEY":"４弄","HOUSE_NO":"９號","E_COORD97":169083.66,"N_COORD97":2546140.1000000001,"ADDRESS":"北安路一段５１巷４弄９號","OBJECTID":188863},"geometry":{"x":169083.66000000201,"y":2546140.1000000015}},{"attributes":{"ID":188865,"DIS_CODE":0,"TOWNNAME":"北區","LI":"正覺里","LIN":"5鄰","STREET":"北安路","SECT":"一段","MAREA":" ","LANE":"５１巷","ALLEY":"５弄","HOUSE_NO":"１０號","E_COORD97":169142.88,"N_COORD97":2546102.2400000002,"ADDRESS":"北安路一段５１巷５弄１０號","OBJECTID":188864},"geometry":{"x":169142.87999999896,"y":2546102.2400000021}},{"attributes":{"ID":188866,"DIS_CODE":0,"TOWNNAME":"北區","LI":"正覺里","LIN":"5鄰","STREET":"北安路","SECT":"一段","MAREA":" ","LANE":"５１巷","ALLEY":"５弄","HOUSE_NO":"１２號","E_COORD97":169138.98000000001,"N_COORD97":2546094.71,"ADDRESS":"北安路一段５１巷５弄１２號","OBJECTID":188865},"geometry":{"x":169138.98000000045,"y":2546094.7100000009}},{"attributes":{"ID":188867,"DIS_CODE":0,"TOWNNAME":"北區","LI":"正覺里","LIN":"5鄰","STREET":"北安路","SECT":"一段","MAREA":" ","LANE":"５１巷","ALLEY":"５弄","HOUSE_NO":"１４號","E_COORD97":169159.84,"N_COORD97":2546092.0600000001,"ADDRESS":"北安路一段５１巷５弄１４號","OBJECTID":188866},"geometry":{"x":169159.83999999985,"y":2546092.0600000005}},{"attributes":{"ID":188868,"DIS_CODE":0,"TOWNNAME":"北區","LI":"正覺里","LIN":"5鄰","STREET":"北安路","SECT":"一段","MAREA":" ","LANE":"５１巷","ALLEY":"５弄","HOUSE_NO":"１６號","E_COORD97":169163.07000000001,"N_COORD97":2546096.1699999999,"ADDRESS":"北安路一段５１巷５弄１６號","OBJECTID":188867},"geometry":{"x":169163.07000000123,"y":2546096.1700000018}},{"attributes":{"ID":188869,"DIS_CODE":0,"TOWNNAME":"北區","LI":"正覺里","LIN":"5鄰","STREET":"北安路","SECT":"一段","MAREA":" ","LANE":"５１巷","ALLEY":"５弄","HOUSE_NO":"１８號","E_COORD97":169167.87,"N_COORD97":2546100.77,"ADDRESS":"北安路一段５１巷５弄１８號","OBJECTID":188868},"geometry":{"x":169167.87000000011,"y":2546100.7700000014}},{"attributes":{"ID":188870,"DIS_CODE":0,"TOWNNAME":"北區","LI":"正覺里","LIN":"5鄰","STREET":"北安路","SECT":"一段","MAREA":" ","LANE":"５１巷","ALLEY":"５弄","HOUSE_NO":"２０號","E_COORD97":169171.10000000001,"N_COORD97":2546104.98,"ADDRESS":"北安路一段５１巷５弄２０號","OBJECTID":188869},"geometry":{"x":169171.09999999963,"y":2546104.9800000004}},{"attributes":{"ID":188871,"DIS_CODE":0,"TOWNNAME":"北區","LI":"正覺里","LIN":"5鄰","STREET":"北安路","SECT":"一段","MAREA":" ","LANE":"５１巷","ALLEY":"５弄","HOUSE_NO":"２２號","E_COORD97":169179.42999999999,"N_COORD97":2546097.25,"ADDRESS":"北安路一段５１巷５弄２２號","OBJECTID":188870},"geometry":{"x":169179.4299999997,"y":2546097.2499999981}},{"attributes":{"ID":188872,"DIS_CODE":0,"TOWNNAME":"北區","LI":"正覺里","LIN":"5鄰","STREET":"北安路","SECT":"一段","MAREA":" ","LANE":"５１巷","ALLEY":"５弄","HOUSE_NO":"２號","E_COORD97":169154.44,"N_COORD97":2546118,"ADDRESS":"北安路一段５１巷５弄２號","OBJECTID":188871},"geometry":{"x":169154.44000000041,"y":2546118}},{"attributes":{"ID":188873,"DIS_CODE":0,"TOWNNAME":"仁德區","LI":"一甲里","LIN":"17鄰","STREET":"中清路","SECT":" ","MAREA":" ","LANE":" ","ALLEY":" ","HOUSE_NO":"２７２號","E_COORD97":173756.45999999999,"N_COORD97":2541797.29,"ADDRESS":"中清路２７２號","OBJECTID":188872},"geometry":{"x":173756.45999999996,"y":2541797.2900000028}},{"attributes":{"ID":188874,"DIS_CODE":0,"TOWNNAME":"仁德區","LI":"上崙里","LIN":"4鄰","STREET":"德崙路","SECT":" ","MAREA":" ","LANE":" ","ALLEY":" ","HOUSE_NO":"２５１號","E_COORD97":173792.09,"N_COORD97":2538191.7599999998,"ADDRESS":"德崙路２５１號","OBJECTID":188873},"geometry":{"x":173792.09000000078,"y":2538191.7600000016}},{"attributes":{"ID":188875,"DIS_CODE":0,"TOWNNAME":"仁德區","LI":"一甲里","LIN":"20鄰","STREET":"太乙六街","SECT":" ","MAREA":" ","LANE":" ","ALLEY":" ","HOUSE_NO":"６９號","E_COORD97":173199.98000000001,"N_COORD97":2542212.25,"ADDRESS":"太乙六街６９號","OBJECTID":188874},"geometry":{"x":173199.98000000138,"y":2542212.2500000037}},{"attributes":{"ID":188876,"DIS_CODE":0,"TOWNNAME":"柳營區","LI":"光福里","LIN":"27鄰","STREET":" ","SECT":" ","MAREA":"柳營","LANE":" ","ALLEY":" ","HOUSE_NO":"２７６號之１２１","E_COORD97":180088.56,"N_COORD97":2575615.9300000002,"ADDRESS":"柳營２７６號之１２１","OBJECTID":188875},"geometry":{"x":180088.55999999959,"y":2575615.9300000034}},{"attributes":{"ID":188877,"DIS_CODE":0,"TOWNNAME":"柳營區","LI":"光福里","LIN":"27鄰","STREET":" ","SECT":" ","MAREA":"柳營","LANE":" ","ALLEY":" ","HOUSE_NO":"２７６號之１２２","E_COORD97":180092.92999999999,"N_COORD97":2575615.8199999998,"ADDRESS":"柳營２７６號之１２２","OBJECTID":188876},"geometry":{"x":180092.9299999997,"y":2575615.8200000003}},{"attributes":{"ID":188878,"DIS_CODE":0,"TOWNNAME":"柳營區","LI":"光福里","LIN":"27鄰","STREET":" ","SECT":" ","MAREA":"柳營","LANE":" ","ALLEY":" ","HOUSE_NO":"２７６號之１２３","E_COORD97":180097.29000000001,"N_COORD97":2575615.7000000002,"ADDRESS":"柳營２７６號之１２３","OBJECTID":188877},"geometry":{"x":180097.29000000004,"y":2575615.6999999993}},{"attributes":{"ID":188879,"DIS_CODE":0,"TOWNNAME":"柳營區","LI":"光福里","LIN":"27鄰","STREET":" ","SECT":" ","MAREA":"柳營","LANE":" ","ALLEY":" ","HOUSE_NO":"２７６號之１２４","E_COORD97":180101.66,"N_COORD97":2575615.5800000001,"ADDRESS":"柳營２７６號之１２４","OBJECTID":188878},"geometry":{"x":180101.66000000015,"y":2575615.5800000038}},{"attributes":{"ID":188880,"DIS_CODE":0,"TOWNNAME":"柳營區","LI":"光福里","LIN":"27鄰","STREET":" ","SECT":" ","MAREA":"柳營","LANE":" ","ALLEY":" ","HOUSE_NO":"２７６號之１２５","E_COORD97":180106.01999999999,"N_COORD97":2575615.4700000002,"ADDRESS":"柳營２７６號之１２５","OBJECTID":188879},"geometry":{"x":180106.01999999862,"y":2575615.4700000007}},{"attributes":{"ID":188881,"DIS_CODE":0,"TOWNNAME":"北區","LI":"正覺里","LIN":"5鄰","STREET":"北安路","SECT":"一段","MAREA":" ","LANE":"５１巷","ALLEY":"５弄","HOUSE_NO":"４號","E_COORD97":169150.91,"N_COORD97":2546112.5099999998,"ADDRESS":"北安路一段５１巷５弄４號","OBJECTID":188880},"geometry":{"x":169150.91000000015,"y":2546112.5100000035}},{"attributes":{"ID":188882,"DIS_CODE":0,"TOWNNAME":"永康區","LI":"西勢里","LIN":"21鄰","STREET":"富強路","SECT":"一段","MAREA":" ","LANE":" ","ALLEY":" ","HOUSE_NO":"９４號","E_COORD97":175486.37,"N_COORD97":2546154.02,"ADDRESS":"富強路一段９４號","OBJECTID":188881},"geometry":{"x":175486.37000000011,"y":2546154.0200000014}},{"attributes":{"ID":188883,"DIS_CODE":0,"TOWNNAME":"北區","LI":"正覺里","LIN":"5鄰","STREET":"北安路","SECT":"一段","MAREA":" ","LANE":"５１巷","ALLEY":"５弄","HOUSE_NO":"６號","E_COORD97":169148.85000000001,"N_COORD97":2546108.7999999998,"ADDRESS":"北安路一段５１巷５弄６號","OBJECTID":188882},"geometry":{"x":169148.84999999963,"y":2546108.8000000026}},{"attributes":{"ID":188884,"DIS_CODE":0,"TOWNNAME":"佳里區","LI":"安西里","LIN":"21鄰","STREET":"公園路","SECT":" ","MAREA":" ","LANE":" ","ALLEY":" ","HOUSE_NO":"４４９號","E_COORD97":165288.60999999999,"N_COORD97":2562829.02,"ADDRESS":"公園路４４９號","OBJECTID":188883},"geometry":{"x":165288.6099999994,"y":2562829.0199999996}},{"attributes":{"ID":188885,"DIS_CODE":0,"TOWNNAME":"佳里區","LI":"安西里","LIN":"21鄰","STREET":"公園路","SECT":" ","MAREA":" ","LANE":" ","ALLEY":" ","HOUSE_NO":"４５１號","E_COORD97":165289.42000000001,"N_COORD97":2562833.7799999998,"ADDRESS":"公園路４５１號","OBJECTID":188884},"geometry":{"x":165289.41999999993,"y":2562833.7799999993}},{"attributes":{"ID":188886,"DIS_CODE":0,"TOWNNAME":"北區","LI":"正覺里","LIN":"5鄰","STREET":"北安路","SECT":"一段","MAREA":" ","LANE":"５１巷","ALLEY":"５弄","HOUSE_NO":"８號","E_COORD97":169146.20999999999,"N_COORD97":2546105.6600000001,"ADDRESS":"北安路一段５１巷５弄８號","OBJECTID":188885},"geometry":{"x":169146.21000000089,"y":2546105.660000002}},{"attributes":{"ID":188887,"DIS_CODE":0,"TOWNNAME":"北區","LI":"正覺里","LIN":"5鄰","STREET":"北安路","SECT":"一段","MAREA":" ","LANE":"５１巷","ALLEY":"５弄","HOUSE_NO":"１２號之１","E_COORD97":169141.03,"N_COORD97":2546087.52,"ADDRESS":"北安路一段５１巷５弄１２號之１","OBJECTID":188886},"geometry":{"x":169141.03000000119,"y":2546087.5199999996}},{"attributes":{"ID":188888,"DIS_CODE":0,"TOWNNAME":"北區","LI":"正覺里","LIN":"5鄰","STREET":"北安路","SECT":"一段","MAREA":" ","LANE":"５１巷","ALLEY":"５弄","HOUSE_NO":"１２號之２","E_COORD97":169141.42000000001,"N_COORD97":2546082.1299999999,"ADDRESS":"北安路一段５１巷５弄１２號之２","OBJECTID":188887},"geometry":{"x":169141.42000000086,"y":2546082.129999999}},{"attributes":{"ID":188889,"DIS_CODE":0,"TOWNNAME":"北區","LI":"正覺里","LIN":"5鄰","STREET":"北安路","SECT":"一段","MAREA":" ","LANE":"５１巷","ALLEY":"５弄","HOUSE_NO":"１２號之３","E_COORD97":169142.28,"N_COORD97":2546078.5099999998,"ADDRESS":"北安路一段５１巷５弄１２號之３","OBJECTID":188888},"geometry":{"x":169142.28000000212,"y":2546078.5100000035}},{"attributes":{"ID":188890,"DIS_CODE":0,"TOWNNAME":"柳營區","LI":"光福里","LIN":"27鄰","STREET":" ","SECT":" ","MAREA":"柳營","LANE":" ","ALLEY":" ","HOUSE_NO":"２７６號之１２６","E_COORD97":180110.39000000001,"N_COORD97":2575615.3500000001,"ADDRESS":"柳營２７６號之１２６","OBJECTID":188889},"geometry":{"x":180110.38999999966,"y":2575615.3499999996}},{"attributes":{"ID":188891,"DIS_CODE":0,"TOWNNAME":"柳營區","LI":"光福里","LIN":"27鄰","STREET":" ","SECT":" ","MAREA":"柳營","LANE":" ","ALLEY":" ","HOUSE_NO":"２７６之１２７號","E_COORD97":180093.85000000001,"N_COORD97":2575631.4399999999,"ADDRESS":"柳營２７６之１２７號","OBJECTID":188890},"geometry":{"x":180093.85000000149,"y":2575631.4399999995}},{"attributes":{"ID":188892,"DIS_CODE":0,"TOWNNAME":"柳營區","LI":"光福里","LIN":"27鄰","STREET":" ","SECT":" ","MAREA":"柳營","LANE":" ","ALLEY":" ","HOUSE_NO":"２７６號之１２８","E_COORD97":180094.04000000001,"N_COORD97":2575635.7599999998,"ADDRESS":"柳營２７６號之１２８","OBJECTID":188891},"geometry":{"x":180094.04000000004,"y":2575635.7600000016}},{"attributes":{"ID":188893,"DIS_CODE":0,"TOWNNAME":"柳營區","LI":"光福里","LIN":"27鄰","STREET":" ","SECT":" ","MAREA":"柳營","LANE":" ","ALLEY":" ","HOUSE_NO":"２７６號之１２９","E_COORD97":180094.26999999999,"N_COORD97":2575640.27,"ADDRESS":"柳營２７６號之１２９","OBJECTID":188892},"geometry":{"x":180094.27000000142,"y":2575640.2699999996}},{"attributes":{"ID":188894,"DIS_CODE":0,"TOWNNAME":"柳營區","LI":"光福里","LIN":"27鄰","STREET":" ","SECT":" ","MAREA":"柳營","LANE":" ","ALLEY":" ","HOUSE_NO":"２７６號之１３０","E_COORD97":180094.07000000001,"N_COORD97":2575644.3900000001,"ADDRESS":"柳營２７６號之１３０","OBJECTID":188893},"geometry":{"x":180094.0700000003,"y":2575644.3900000043}},{"attributes":{"ID":188895,"DIS_CODE":0,"TOWNNAME":"柳營區","LI":"光福里","LIN":"27鄰","STREET":" ","SECT":" ","MAREA":"柳營","LANE":" ","ALLEY":" ","HOUSE_NO":"２７６之１３１號","E_COORD97":180072.69,"N_COORD97":2575629.3900000001,"ADDRESS":"柳營２７６之１３１號","OBJECTID":188894},"geometry":{"x":180072.69000000134,"y":2575629.3900000006}},{"attributes":{"ID":188896,"DIS_CODE":0,"TOWNNAME":"北區","LI":"正覺里","LIN":"5鄰","STREET":"北安路","SECT":"一段","MAREA":" ","LANE":"５１巷","ALLEY":"５弄","HOUSE_NO":"１４號之１","E_COORD97":169154.64000000001,"N_COORD97":2546088.5899999999,"ADDRESS":"北安路一段５１巷５弄１４號之１","OBJECTID":188895},"geometry":{"x":169154.64000000153,"y":2546088.5900000017}},{"attributes":{"ID":188897,"DIS_CODE":0,"TOWNNAME":"北區","LI":"正覺里","LIN":"5鄰","STREET":"北安路","SECT":"一段","MAREA":" ","LANE":"５１巷","ALLEY":"５弄","HOUSE_NO":"１４號之２","E_COORD97":169153.59,"N_COORD97":2546085.1600000001,"ADDRESS":"北安路一段５１巷５弄１４號之２","OBJECTID":188896},"geometry":{"x":169153.59000000078,"y":2546085.160000002}},{"attributes":{"ID":188898,"DIS_CODE":0,"TOWNNAME":"北區","LI":"正覺里","LIN":"5鄰","STREET":"北安路","SECT":"一段","MAREA":" ","LANE":"５１巷","ALLEY":"５弄","HOUSE_NO":"１４號之３","E_COORD97":169153.39999999999,"N_COORD97":2546080.98,"ADDRESS":"北安路一段５１巷５弄１４號之３","OBJECTID":188897},"geometry":{"x":169153.39999999944,"y":2546080.9800000023}},{"attributes":{"ID":188899,"DIS_CODE":0,"TOWNNAME":"北區","LI":"文元里","LIN":"5鄰","STREET":"文賢路","SECT":" ","MAREA":" ","LANE":"１１２２巷","ALLEY":"５９弄","HOUSE_NO":"２６號","E_COORD97":167507.70999999999,"N_COORD97":2546448.9300000002,"ADDRESS":"文賢路１１２２巷５９弄２６號","OBJECTID":188898},"geometry":{"x":167507.70999999996,"y":2546448.9300000016}},{"attributes":{"ID":188900,"DIS_CODE":0,"TOWNNAME":"北區","LI":"文元里","LIN":"5鄰","STREET":"文賢路","SECT":" ","MAREA":" ","LANE":"１１２２巷","ALLEY":"５９弄","HOUSE_NO":"２８號","E_COORD97":167508.01999999999,"N_COORD97":2546453.2799999998,"ADDRESS":"文賢路１１２２巷５９弄２８號","OBJECTID":188899},"geometry":{"x":167508.02000000048,"y":2546453.2800000012}},{"attributes":{"ID":188901,"DIS_CODE":0,"TOWNNAME":"北區","LI":"文元里","LIN":"5鄰","STREET":"文賢路","SECT":" ","MAREA":" ","LANE":"１１２２巷","ALLEY":"５９弄","HOUSE_NO":"３０號","E_COORD97":167508.01999999999,"N_COORD97":2546457.3100000001,"ADDRESS":"文賢路１１２２巷５９弄３０號","OBJECTID":188900},"geometry":{"x":167508.02000000048,"y":2546457.3100000024}},{"attributes":{"ID":188902,"DIS_CODE":0,"TOWNNAME":"北區","LI":"文元里","LIN":"5鄰","STREET":"文賢路","SECT":" ","MAREA":" ","LANE":"１１２２巷","ALLEY":"５９弄","HOUSE_NO":"３２號","E_COORD97":167508.01999999999,"N_COORD97":2546461.6600000001,"ADDRESS":"文賢路１１２２巷５９弄３２號","OBJECTID":188901},"geometry":{"x":167508.02000000048,"y":2546461.660000002}},{"attributes":{"ID":188903,"DIS_CODE":0,"TOWNNAME":"北區","LI":"文元里","LIN":"5鄰","STREET":"文賢路","SECT":" ","MAREA":" ","LANE":"１１２２巷","ALLEY":"５９弄","HOUSE_NO":"３４號","E_COORD97":167508.01999999999,"N_COORD97":2546465.3799999999,"ADDRESS":"文賢路１１２２巷５９弄３４號","OBJECTID":188902},"geometry":{"x":167508.02000000048,"y":2546465.3800000008}},{"attributes":{"ID":188904,"DIS_CODE":0,"TOWNNAME":"北區","LI":"文元里","LIN":"5鄰","STREET":"文賢路","SECT":" ","MAREA":" ","LANE":"１１２２巷","ALLEY":"５９弄","HOUSE_NO":"３６號","E_COORD97":167508.01999999999,"N_COORD97":2546469.7200000002,"ADDRESS":"文賢路１１２２巷５９弄３６號","OBJECTID":188903},"geometry":{"x":167508.02000000048,"y":2546469.7200000007}},{"attributes":{"ID":188905,"DIS_CODE":0,"TOWNNAME":"官田區","LI":"渡頭里","LIN":"27鄰","STREET":" ","SECT":" ","MAREA":"三塊厝","LANE":" ","ALLEY":" ","HOUSE_NO":"４２號","E_COORD97":182577.78,"N_COORD97":2562034.5299999998,"ADDRESS":"三塊厝４２號","OBJECTID":188904},"geometry":{"x":182577.78000000026,"y":2562034.5300000012}},{"attributes":{"ID":188906,"DIS_CODE":0,"TOWNNAME":"北區","LI":"文元里","LIN":"5鄰","STREET":"文賢路","SECT":" ","MAREA":" ","LANE":"１１２２巷","ALLEY":"５９弄","HOUSE_NO":"３８號","E_COORD97":167508.01999999999,"N_COORD97":2546473.7599999998,"ADDRESS":"文賢路１１２２巷５９弄３８號","OBJECTID":188905},"geometry":{"x":167508.02000000048,"y":2546473.7600000035}},{"attributes":{"ID":188907,"DIS_CODE":0,"TOWNNAME":"北區","LI":"文元里","LIN":"5鄰","STREET":"文賢路","SECT":" ","MAREA":" ","LANE":"１１２２巷","ALLEY":"５９弄","HOUSE_NO":"４０號","E_COORD97":167508.01999999999,"N_COORD97":2546478.1000000001,"ADDRESS":"文賢路１１２２巷５９弄４０號","OBJECTID":188906},"geometry":{"x":167508.02000000048,"y":2546478.1000000015}},{"attributes":{"ID":188908,"DIS_CODE":0,"TOWNNAME":"北區","LI":"文元里","LIN":"5鄰","STREET":"文賢路","SECT":" ","MAREA":" ","LANE":"１１２２巷","ALLEY":"５９弄","HOUSE_NO":"４２號","E_COORD97":167507.39999999999,"N_COORD97":2546482.1400000001,"ADDRESS":"文賢路１１２２巷５９弄４２號","OBJECTID":188907},"geometry":{"x":167507.39999999944,"y":2546482.1400000043}},{"attributes":{"ID":188909,"DIS_CODE":0,"TOWNNAME":"北區","LI":"文元里","LIN":"5鄰","STREET":"文賢路","SECT":" ","MAREA":" ","LANE":"１１２２巷","ALLEY":"５９弄","HOUSE_NO":"４４號","E_COORD97":167507.70999999999,"N_COORD97":2546486.48,"ADDRESS":"文賢路１１２２巷５９弄４４號","OBJECTID":188908},"geometry":{"x":167507.70999999996,"y":2546486.4800000042}},{"attributes":{"ID":188910,"DIS_CODE":0,"TOWNNAME":"北區","LI":"文元里","LIN":"5鄰","STREET":"文賢路","SECT":" ","MAREA":" ","LANE":"１１２２巷","ALLEY":"５９弄","HOUSE_NO":"６０號","E_COORD97":167490.75,"N_COORD97":2546532.3799999999,"ADDRESS":"文賢路１１２２巷５９弄６０號","OBJECTID":188909},"geometry":{"x":167490.75,"y":2546532.379999999}},{"attributes":{"ID":188911,"DIS_CODE":0,"TOWNNAME":"北區","LI":"文元里","LIN":"5鄰","STREET":"文賢路","SECT":" ","MAREA":" ","LANE":"１１２２巷","ALLEY":"５９弄","HOUSE_NO":"１２號","E_COORD97":167513.5,"N_COORD97":2546405.73,"ADDRESS":"文賢路１１２２巷５９弄１２號","OBJECTID":188910},"geometry":{"x":167513.50000000093,"y":2546405.7300000004}},{"attributes":{"ID":188912,"DIS_CODE":0,"TOWNNAME":"南區","LI":"省躬里","LIN":"5鄰","STREET":"灣裡路","SECT":" ","MAREA":" ","LANE":"８８巷","ALLEY":"３弄","HOUSE_NO":"２６號","E_COORD97":165920.20999999999,"N_COORD97":2536821.6899999999,"ADDRESS":"灣裡路８８巷３弄２６號","OBJECTID":188911},"geometry":{"x":165920.21000000089,"y":2536821.6900000013}},{"attributes":{"ID":188913,"DIS_CODE":0,"TOWNNAME":"北區","LI":"文元里","LIN":"5鄰","STREET":"文賢路","SECT":" ","MAREA":" ","LANE":"１１２２巷","ALLEY":"５９弄","HOUSE_NO":"１４號","E_COORD97":167513.19,"N_COORD97":2546412.5800000001,"ADDRESS":"文賢路１１２２巷５９弄１４號","OBJECTID":188912},"geometry":{"x":167513.19000000041,"y":2546412.5800000001}},{"attributes":{"ID":188914,"DIS_CODE":0,"TOWNNAME":"北區","LI":"文元里","LIN":"5鄰","STREET":"文賢路","SECT":" ","MAREA":" ","LANE":"１１２２巷","ALLEY":"５９弄","HOUSE_NO":"１６號","E_COORD97":167513.5,"N_COORD97":2546419.1299999999,"ADDRESS":"文賢路１１２２巷５９弄１６號","OBJECTID":188913},"geometry":{"x":167513.50000000093,"y":2546419.1300000027}},{"attributes":{"ID":188915,"DIS_CODE":0,"TOWNNAME":"北區","LI":"文元里","LIN":"5鄰","STREET":"文賢路","SECT":" ","MAREA":" ","LANE":"１１２２巷","ALLEY":"５９弄","HOUSE_NO":"１８號","E_COORD97":167513.29999999999,"N_COORD97":2546427.21,"ADDRESS":"文賢路１１２２巷５９弄１８號","OBJECTID":188914},"geometry":{"x":167513.30000000075,"y":2546427.2100000009}},{"attributes":{"ID":188916,"DIS_CODE":0,"TOWNNAME":"北區","LI":"文元里","LIN":"5鄰","STREET":"文賢路","SECT":" ","MAREA":" ","LANE":"１１２２巷","ALLEY":"５９弄","HOUSE_NO":"２０號","E_COORD97":167513.29999999999,"N_COORD97":2546431.2400000002,"ADDRESS":"文賢路１１２２巷５９弄２０號","OBJECTID":188915},"geometry":{"x":167513.30000000075,"y":2546431.2400000021}},{"attributes":{"ID":188917,"DIS_CODE":0,"TOWNNAME":"北區","LI":"文元里","LIN":"5鄰","STREET":"文賢路","SECT":" ","MAREA":" ","LANE":"１１２２巷","ALLEY":"５９弄","HOUSE_NO":"２０號之１","E_COORD97":167512.67999999999,"N_COORD97":2546435.5899999999,"ADDRESS":"文賢路１１２２巷５９弄２０號之１","OBJECTID":188916},"geometry":{"x":167512.6799999997,"y":2546435.5900000017}},{"attributes":{"ID":188918,"DIS_CODE":0,"TOWNNAME":"歸仁區","LI":"大廟里","LIN":"5鄰","STREET":"和順路","SECT":"二段","MAREA":" ","LANE":"１５１巷","ALLEY":"４２弄","HOUSE_NO":"９號","E_COORD97":176156.95000000001,"N_COORD97":2543460.98,"ADDRESS":"和順路二段１５１巷４２弄９號","OBJECTID":188917},"geometry":{"x":176156.95000000019,"y":2543460.9800000004}},{"attributes":{"ID":188919,"DIS_CODE":0,"TOWNNAME":"歸仁區","LI":"大廟里","LIN":"5鄰","STREET":"和順路","SECT":"二段","MAREA":" ","LANE":"１５１巷","ALLEY":"４２弄","HOUSE_NO":"８號","E_COORD97":176163.14999999999,"N_COORD97":2543476.98,"ADDRESS":"和順路二段１５１巷４２弄８號","OBJECTID":188918},"geometry":{"x":176163.15000000224,"y":2543476.9800000023}},{"attributes":{"ID":188920,"DIS_CODE":0,"TOWNNAME":"歸仁區","LI":"大廟里","LIN":"5鄰","STREET":"和順路","SECT":"二段","MAREA":" ","LANE":"１５１巷","ALLEY":"４２弄","HOUSE_NO":"６號","E_COORD97":176166.25,"N_COORD97":2543478.98,"ADDRESS":"和順路二段１５１巷４２弄６號","OBJECTID":188919},"geometry":{"x":176166.25000000093,"y":2543478.9800000042}},{"attributes":{"ID":188921,"DIS_CODE":0,"TOWNNAME":"南區","LI":"永寧里","LIN":"5鄰","STREET":"灣裡路","SECT":" ","MAREA":" ","LANE":"８８巷","ALLEY":"１１１弄","HOUSE_NO":"８號","E_COORD97":165923.84,"N_COORD97":2536642.1699999999,"ADDRESS":"灣裡路８８巷１１１弄８號","OBJECTID":188920},"geometry":{"x":165923.83999999985,"y":2536642.1700000037}},{"attributes":{"ID":188922,"DIS_CODE":0,"TOWNNAME":"南區","LI":"永寧里","LIN":"5鄰","STREET":"灣裡路","SECT":" ","MAREA":" ","LANE":"８８巷","ALLEY":"１２９弄","HOUSE_NO":"９號","E_COORD97":165914.07000000001,"N_COORD97":2536594.2000000002,"ADDRESS":"灣裡路８８巷１２９弄９號","OBJECTID":188921},"geometry":{"x":165914.0700000003,"y":2536594.2000000011}},{"attributes":{"ID":188923,"DIS_CODE":0,"TOWNNAME":"南區","LI":"永寧里","LIN":"5鄰","STREET":"灣裡路","SECT":" ","MAREA":" ","LANE":"８８巷","ALLEY":"９３弄","HOUSE_NO":"１９號","E_COORD97":165935.98999999999,"N_COORD97":2536662.8799999999,"ADDRESS":"灣裡路８８巷９３弄１９號","OBJECTID":188922},"geometry":{"x":165935.99000000115,"y":2536662.879999999}},{"attributes":{"ID":188924,"DIS_CODE":0,"TOWNNAME":"南區","LI":"永寧里","LIN":"5鄰","STREET":"灣裡路","SECT":" ","MAREA":" ","LANE":"８８巷","ALLEY":"９３弄","HOUSE_NO":"２１號","E_COORD97":165939.31,"N_COORD97":2536644.6800000002,"ADDRESS":"灣裡路８８巷９３弄２１號","OBJECTID":188923},"geometry":{"x":165939.31000000145,"y":2536644.6799999997}},{"attributes":{"ID":188925,"DIS_CODE":0,"TOWNNAME":"南區","LI":"永寧里","LIN":"5鄰","STREET":"灣裡路","SECT":" ","MAREA":" ","LANE":"８８巷","ALLEY":"９３弄","HOUSE_NO":"２５號","E_COORD97":165944.28,"N_COORD97":2536627.8700000001,"ADDRESS":"灣裡路８８巷９３弄２５號","OBJECTID":188924},"geometry":{"x":165944.28000000119,"y":2536627.870000001}},{"attributes":{"ID":188926,"DIS_CODE":0,"TOWNNAME":"南區","LI":"永寧里","LIN":"5鄰","STREET":"灣裡路","SECT":" ","MAREA":" ","LANE":"８８巷","ALLEY":"９３弄","HOUSE_NO":"２６號","E_COORD97":165932.82999999999,"N_COORD97":2536625.73,"ADDRESS":"灣裡路８８巷９３弄２６號","OBJECTID":188925},"geometry":{"x":165932.83000000194,"y":2536625.7300000023}},{"attributes":{"ID":188927,"DIS_CODE":0,"TOWNNAME":"南區","LI":"永寧里","LIN":"5鄰","STREET":"灣裡路","SECT":" ","MAREA":" ","LANE":"８８巷","ALLEY":"９３弄","HOUSE_NO":"２８號","E_COORD97":165938.13,"N_COORD97":2536618.9199999999,"ADDRESS":"灣裡路８８巷９３弄２８號","OBJECTID":188926},"geometry":{"x":165938.13000000082,"y":2536618.9199999999}},{"attributes":{"ID":188928,"DIS_CODE":0,"TOWNNAME":"南區","LI":"永寧里","LIN":"5鄰","STREET":"灣裡路","SECT":" ","MAREA":" ","LANE":"８８巷","ALLEY":"１１１弄","HOUSE_NO":"１０號","E_COORD97":165928.57999999999,"N_COORD97":2536633.7200000002,"ADDRESS":"灣裡路８８巷１１１弄１０號","OBJECTID":188927},"geometry":{"x":165928.58000000007,"y":2536633.7200000025}},{"attributes":{"ID":188929,"DIS_CODE":0,"TOWNNAME":"南區","LI":"永寧里","LIN":"5鄰","STREET":"灣裡路","SECT":" ","MAREA":" ","LANE":"８８巷","ALLEY":"１１１弄","HOUSE_NO":"２號","E_COORD97":165907.26000000001,"N_COORD97":2536636.4199999999,"ADDRESS":"灣裡路８８巷１１１弄２號","OBJECTID":188928},"geometry":{"x":165907.25999999978,"y":2536636.4199999999}},{"attributes":{"ID":188930,"DIS_CODE":0,"TOWNNAME":"南區","LI":"永寧里","LIN":"5鄰","STREET":"灣裡路","SECT":" ","MAREA":" ","LANE":"８８巷","ALLEY":"１１１弄","HOUSE_NO":"４號","E_COORD97":165904.48999999999,"N_COORD97":2536631.3599999999,"ADDRESS":"灣裡路８８巷１１１弄４號","OBJECTID":188929},"geometry":{"x":165904.49000000022,"y":2536631.3600000013}},{"attributes":{"ID":188931,"DIS_CODE":0,"TOWNNAME":"南區","LI":"永寧里","LIN":"5鄰","STREET":"灣裡路","SECT":" ","MAREA":" ","LANE":"８８巷","ALLEY":"１１１弄","HOUSE_NO":"５號","E_COORD97":165897.29999999999,"N_COORD97":2536639.3500000001,"ADDRESS":"灣裡路８８巷１１１弄５號","OBJECTID":188930},"geometry":{"x":165897.30000000075,"y":2536639.3499999996}},{"attributes":{"ID":188932,"DIS_CODE":0,"TOWNNAME":"南區","LI":"永寧里","LIN":"5鄰","STREET":"灣裡路","SECT":" ","MAREA":" ","LANE":"８８巷","ALLEY":"９３弄","HOUSE_NO":"１０號","E_COORD97":165904.98000000001,"N_COORD97":2536683.6099999999,"ADDRESS":"灣裡路８８巷９３弄１０號","OBJECTID":188931},"geometry":{"x":165904.97999999952,"y":2536683.6100000013}},{"attributes":{"ID":188933,"DIS_CODE":0,"TOWNNAME":"南區","LI":"永寧里","LIN":"5鄰","STREET":"灣裡路","SECT":" ","MAREA":" ","LANE":"８８巷","ALLEY":"９３弄","HOUSE_NO":"１２號","E_COORD97":165906.04000000001,"N_COORD97":2536679.04,"ADDRESS":"灣裡路８８巷９３弄１２號","OBJECTID":188932},"geometry":{"x":165906.0400000019,"y":2536679.0399999991}},{"attributes":{"ID":188934,"DIS_CODE":0,"TOWNNAME":"南區","LI":"永寧里","LIN":"5鄰","STREET":"灣裡路","SECT":" ","MAREA":" ","LANE":"８８巷","ALLEY":"９３弄","HOUSE_NO":"１４號","E_COORD97":165914.04000000001,"N_COORD97":2536665.54,"ADDRESS":"灣裡路８８巷９３弄１４號","OBJECTID":188933},"geometry":{"x":165914.04000000004,"y":2536665.5399999991}},{"attributes":{"ID":188935,"DIS_CODE":0,"TOWNNAME":"東區","LI":"崇信里","LIN":"26鄰","STREET":"崇善路","SECT":" ","MAREA":" ","LANE":"２０５巷","ALLEY":"６弄","HOUSE_NO":"１９號","E_COORD97":170585.5,"N_COORD97":2542238.3300000001,"ADDRESS":"崇善路２０５巷６弄１９號","OBJECTID":188934},"geometry":{"x":170585.50000000093,"y":2542238.3300000001}},{"attributes":{"ID":188936,"DIS_CODE":0,"TOWNNAME":"新營區","LI":"南紙里","LIN":"5鄰","STREET":"南紙街","SECT":" ","MAREA":" ","LANE":"２９巷","ALLEY":"６弄","HOUSE_NO":"２３號","E_COORD97":177902.85000000001,"N_COORD97":2577692.3900000001,"ADDRESS":"南紙街２９巷６弄２３號","OBJECTID":188935},"geometry":{"x":177902.84999999963,"y":2577692.3900000025}},{"attributes":{"ID":188937,"DIS_CODE":0,"TOWNNAME":"新營區","LI":"南紙里","LIN":"5鄰","STREET":"南紙街","SECT":" ","MAREA":" ","LANE":"２９巷","ALLEY":"６弄","HOUSE_NO":"８號","E_COORD97":177874.81,"N_COORD97":2577650.4300000002,"ADDRESS":"南紙街２９巷６弄８號","OBJECTID":188936},"geometry":{"x":177874.80999999959,"y":2577650.4300000034}},{"attributes":{"ID":188938,"DIS_CODE":0,"TOWNNAME":"新營區","LI":"南紙里","LIN":"5鄰","STREET":"南紙街","SECT":" ","MAREA":" ","LANE":"２９巷","ALLEY":"６弄","HOUSE_NO":"２５號","E_COORD97":177906.95000000001,"N_COORD97":2577693.4700000002,"ADDRESS":"南紙街２９巷６弄２５號","OBJECTID":188937},"geometry":{"x":177906.95000000205,"y":2577693.4700000007}},{"attributes":{"ID":188939,"DIS_CODE":0,"TOWNNAME":"南區","LI":"省躬里","LIN":"5鄰","STREET":"灣裡路","SECT":" ","MAREA":" ","LANE":"８８巷","ALLEY":"３弄","HOUSE_NO":"１０號","E_COORD97":165926.20000000001,"N_COORD97":2536861.5299999998,"ADDRESS":"灣裡路８８巷３弄１０號","OBJECTID":188938},"geometry":{"x":165926.20000000019,"y":2536861.5299999993}},{"attributes":{"ID":188940,"DIS_CODE":0,"TOWNNAME":"南區","LI":"省躬里","LIN":"5鄰","STREET":"灣裡路","SECT":" ","MAREA":" ","LANE":"８８巷","ALLEY":"３弄","HOUSE_NO":"１２號","E_COORD97":165924.29999999999,"N_COORD97":2536856.3700000001,"ADDRESS":"灣裡路８８巷３弄１２號","OBJECTID":188939},"geometry":{"x":165924.30000000168,"y":2536856.3700000029}},{"attributes":{"ID":188941,"DIS_CODE":0,"TOWNNAME":"南區","LI":"省躬里","LIN":"5鄰","STREET":"灣裡路","SECT":" ","MAREA":" ","LANE":"８８巷","ALLEY":"３弄","HOUSE_NO":"１４號","E_COORD97":165923.20999999999,"N_COORD97":2536850.3799999999,"ADDRESS":"灣裡路８８巷３弄１４號","OBJECTID":188940},"geometry":{"x":165923.20999999903,"y":2536850.3800000008}},{"attributes":{"ID":188942,"DIS_CODE":0,"TOWNNAME":"南區","LI":"省躬里","LIN":"5鄰","STREET":"灣裡路","SECT":" ","MAREA":" ","LANE":"８８巷","ALLEY":"３弄","HOUSE_NO":"１６號","E_COORD97":165921.57000000001,"N_COORD97":2536845.7599999998,"ADDRESS":"灣裡路８８巷３弄１６號","OBJECTID":188941},"geometry":{"x":165921.57000000123,"y":2536845.7600000016}},{"attributes":{"ID":188943,"DIS_CODE":0,"TOWNNAME":"新營區","LI":"三仙里","LIN":"24鄰","STREET":"育德一街","SECT":" ","MAREA":" ","LANE":" ","ALLEY":" ","HOUSE_NO":"４５號","E_COORD97":179482.94,"N_COORD97":2578909.6200000001,"ADDRESS":"育德一街４５號","OBJECTID":188942},"geometry":{"x":179482.94000000041,"y":2578909.6200000029}},{"attributes":{"ID":188944,"DIS_CODE":0,"TOWNNAME":"南區","LI":"省躬里","LIN":"5鄰","STREET":"灣裡路","SECT":" ","MAREA":" ","LANE":"８８巷","ALLEY":"３弄","HOUSE_NO":"３０號","E_COORD97":165914.22,"N_COORD97":2536801.25,"ADDRESS":"灣裡路８８巷３弄３０號","OBJECTID":188943},"geometry":{"x":165914.21999999974,"y":2536801.2500000037}},{"attributes":{"ID":188945,"DIS_CODE":0,"TOWNNAME":"南區","LI":"省躬里","LIN":"5鄰","STREET":"灣裡路","SECT":" ","MAREA":" ","LANE":"８８巷","ALLEY":"３弄","HOUSE_NO":"３０號之１","E_COORD97":165923.48000000001,"N_COORD97":2536813.7599999998,"ADDRESS":"灣裡路８８巷３弄３０號之１","OBJECTID":188944},"geometry":{"x":165923.48000000045,"y":2536813.7599999998}},{"attributes":{"ID":188946,"DIS_CODE":0,"TOWNNAME":"南區","LI":"省躬里","LIN":"5鄰","STREET":"灣裡路","SECT":" ","MAREA":" ","LANE":"８８巷","ALLEY":"３弄","HOUSE_NO":"３２號","E_COORD97":165926.47,"N_COORD97":2536808.5899999999,"ADDRESS":"灣裡路８８巷３弄３２號","OBJECTID":188945},"geometry":{"x":165926.4700000016,"y":2536808.589999998}},{"attributes":{"ID":188947,"DIS_CODE":0,"TOWNNAME":"南區","LI":"省躬里","LIN":"5鄰","STREET":"灣裡路","SECT":" ","MAREA":" ","LANE":"８８巷","ALLEY":"３弄","HOUSE_NO":"３４號","E_COORD97":165927.84,"N_COORD97":2536805.8700000001,"ADDRESS":"灣裡路８８巷３弄３４號","OBJECTID":188946},"geometry":{"x":165927.84000000078,"y":2536805.8700000029}},{"attributes":{"ID":188948,"DIS_CODE":0,"TOWNNAME":"南區","LI":"省躬里","LIN":"5鄰","STREET":"灣裡路","SECT":" ","MAREA":" ","LANE":"８８巷","ALLEY":"３弄","HOUSE_NO":"３６號","E_COORD97":165928.38,"N_COORD97":2536801.52,"ADDRESS":"灣裡路８８巷３弄３６號","OBJECTID":188947},"geometry":{"x":165928.37999999989,"y":2536801.5199999996}},{"attributes":{"ID":188949,"DIS_CODE":0,"TOWNNAME":"南區","LI":"省躬里","LIN":"5鄰","STREET":"灣裡路","SECT":" ","MAREA":" ","LANE":"８８巷","ALLEY":"３弄","HOUSE_NO":"３８號","E_COORD97":165913.95000000001,"N_COORD97":2536793.3700000001,"ADDRESS":"灣裡路８８巷３弄３８號","OBJECTID":188948},"geometry":{"x":165913.95000000112,"y":2536793.370000001}},{"attributes":{"ID":188950,"DIS_CODE":0,"TOWNNAME":"南區","LI":"省躬里","LIN":"5鄰","STREET":"灣裡路","SECT":" ","MAREA":" ","LANE":"８８巷","ALLEY":"３弄","HOUSE_NO":"３８號之１","E_COORD97":165924.84,"N_COORD97":2536795.54,"ADDRESS":"灣裡路８８巷３弄３８號之１","OBJECTID":188949},"geometry":{"x":165924.84000000078,"y":2536795.540000001}},{"attributes":{"ID":188951,"DIS_CODE":0,"TOWNNAME":"柳營區","LI":"光福里","LIN":"27鄰","STREET":" ","SECT":" ","MAREA":"柳營","LANE":" ","ALLEY":" ","HOUSE_NO":"２７６之１３２號","E_COORD97":180073.10999999999,"N_COORD97":2575634.5099999998,"ADDRESS":"柳營２７６之１３２號","OBJECTID":188950},"geometry":{"x":180073.11000000127,"y":2575634.5099999998}},{"attributes":{"ID":188952,"DIS_CODE":0,"TOWNNAME":"柳營區","LI":"光福里","LIN":"27鄰","STREET":" ","SECT":" ","MAREA":"柳營","LANE":" ","ALLEY":" ","HOUSE_NO":"２７６號之１３３","E_COORD97":180073.35999999999,"N_COORD97":2575639.2000000002,"ADDRESS":"柳營２７６號之１３３","OBJECTID":188951},"geometry":{"x":180073.36000000034,"y":2575639.1999999993}},{"attributes":{"ID":188953,"DIS_CODE":0,"TOWNNAME":"柳營區","LI":"光福里","LIN":"27鄰","STREET":" ","SECT":" ","MAREA":"柳營","LANE":" ","ALLEY":" ","HOUSE_NO":"２７６號之１３４","E_COORD97":180073.70999999999,"N_COORD97":2575644.7400000002,"ADDRESS":"柳營２７６號之１３４","OBJECTID":188952},"geometry":{"x":180073.71000000089,"y":2575644.7399999984}},{"attributes":{"ID":188954,"DIS_CODE":0,"TOWNNAME":"柳營區","LI":"東昇里","LIN":"27鄰","STREET":" ","SECT":" ","MAREA":"柳營","LANE":" ","ALLEY":" ","HOUSE_NO":"５１２號之２","E_COORD97":180603.25,"N_COORD97":2575272.9100000001,"ADDRESS":"柳營５１２號之２","OBJECTID":188953},"geometry":{"x":180603.25,"y":2575272.9100000001}},{"attributes":{"ID":188955,"DIS_CODE":0,"TOWNNAME":"柳營區","LI":"東昇里","LIN":"27鄰","STREET":" ","SECT":" ","MAREA":"柳營","LANE":" ","ALLEY":" ","HOUSE_NO":"５１２號之３","E_COORD97":180603.25,"N_COORD97":2575268.96,"ADDRESS":"柳營５１２號之３","OBJECTID":188954},"geometry":{"x":180603.25,"y":2575268.9600000028}},{"attributes":{"ID":188956,"DIS_CODE":0,"TOWNNAME":"柳營區","LI":"東昇里","LIN":"27鄰","STREET":" ","SECT":" ","MAREA":"柳營","LANE":" ","ALLEY":" ","HOUSE_NO":"５１２號之４７","E_COORD97":180602.92000000001,"N_COORD97":2575214.4700000002,"ADDRESS":"柳營５１２號之４７","OBJECTID":188955},"geometry":{"x":180602.92000000086,"y":2575214.4700000025}},{"attributes":{"ID":188957,"DIS_CODE":0,"TOWNNAME":"柳營區","LI":"東昇里","LIN":"27鄰","STREET":" ","SECT":" ","MAREA":"柳營","LANE":" ","ALLEY":" ","HOUSE_NO":"５１２號之４８","E_COORD97":180602.88,"N_COORD97":2575210.1800000002,"ADDRESS":"柳營５１２號之４８","OBJECTID":188956},"geometry":{"x":180602.88000000082,"y":2575210.1799999997}},{"attributes":{"ID":188958,"DIS_CODE":0,"TOWNNAME":"柳營區","LI":"東昇里","LIN":"27鄰","STREET":" ","SECT":" ","MAREA":"柳營","LANE":" ","ALLEY":" ","HOUSE_NO":"５１２之４９號","E_COORD97":180602.85000000001,"N_COORD97":2575205.8900000001,"ADDRESS":"柳營５１２之４９號","OBJECTID":188957},"geometry":{"x":180602.85000000056,"y":2575205.8900000006}},{"attributes":{"ID":188959,"DIS_CODE":0,"TOWNNAME":"柳營區","LI":"東昇里","LIN":"27鄰","STREET":" ","SECT":" ","MAREA":"柳營","LANE":" ","ALLEY":" ","HOUSE_NO":"５１２之４號","E_COORD97":180603.25,"N_COORD97":2575265.0099999998,"ADDRESS":"柳營５１２之４號","OBJECTID":188958},"geometry":{"x":180603.25,"y":2575265.0099999998}},{"attributes":{"ID":188960,"DIS_CODE":0,"TOWNNAME":"柳營區","LI":"東昇里","LIN":"27鄰","STREET":" ","SECT":" ","MAREA":"柳營","LANE":" ","ALLEY":" ","HOUSE_NO":"５１２之５０號","E_COORD97":180602.81,"N_COORD97":2575201.6000000001,"ADDRESS":"柳營５１２之５０號","OBJECTID":188959},"geometry":{"x":180602.81000000052,"y":2575201.6000000015}},{"attributes":{"ID":188961,"DIS_CODE":0,"TOWNNAME":"柳營區","LI":"東昇里","LIN":"27鄰","STREET":" ","SECT":" ","MAREA":"柳營","LANE":" ","ALLEY":" ","HOUSE_NO":"５１２之５１號","E_COORD97":180602.76999999999,"N_COORD97":2575197.3100000001,"ADDRESS":"柳營５１２之５１號","OBJECTID":188960},"geometry":{"x":180602.77000000142,"y":2575197.3100000042}},{"attributes":{"ID":188962,"DIS_CODE":0,"TOWNNAME":"柳營區","LI":"東昇里","LIN":"27鄰","STREET":" ","SECT":" ","MAREA":"柳營","LANE":" ","ALLEY":" ","HOUSE_NO":"５１２號之５１","E_COORD97":180602.76999999999,"N_COORD97":2575197.3100000001,"ADDRESS":"柳營５１２號之５１","OBJECTID":188961},"geometry":{"x":180602.77000000142,"y":2575197.3100000042}},{"attributes":{"ID":188963,"DIS_CODE":0,"TOWNNAME":"柳營區","LI":"東昇里","LIN":"27鄰","STREET":" ","SECT":" ","MAREA":"柳營","LANE":" ","ALLEY":" ","HOUSE_NO":"５１２號之５","E_COORD97":180603.25,"N_COORD97":2575261.0499999998,"ADDRESS":"柳營５１２號之５","OBJECTID":188962},"geometry":{"x":180603.25,"y":2575261.0500000026}},{"attributes":{"ID":188964,"DIS_CODE":0,"TOWNNAME":"南區","LI":"省躬里","LIN":"5鄰","STREET":"灣裡路","SECT":" ","MAREA":" ","LANE":"８８巷","ALLEY":"３弄","HOUSE_NO":"４０號","E_COORD97":165901.42000000001,"N_COORD97":2536787.9300000002,"ADDRESS":"灣裡路８８巷３弄４０號","OBJECTID":188963},"geometry":{"x":165901.41999999899,"y":2536787.9299999997}},{"attributes":{"ID":188965,"DIS_CODE":0,"TOWNNAME":"南區","LI":"省躬里","LIN":"5鄰","STREET":"灣裡路","SECT":" ","MAREA":" ","LANE":"８８巷","ALLEY":"３弄","HOUSE_NO":"４２號","E_COORD97":165924.29999999999,"N_COORD97":2536787.9199999999,"ADDRESS":"灣裡路８８巷３弄４２號","OBJECTID":188964},"geometry":{"x":165924.30000000168,"y":2536787.9200000018}},{"attributes":{"ID":188966,"DIS_CODE":0,"TOWNNAME":"南區","LI":"省躬里","LIN":"5鄰","STREET":"灣裡路","SECT":" ","MAREA":" ","LANE":"８８巷","ALLEY":"３弄","HOUSE_NO":"４４號","E_COORD97":165922.92999999999,"N_COORD97":2536781.3900000001,"ADDRESS":"灣裡路８８巷３弄４４號","OBJECTID":188965},"geometry":{"x":165922.9299999997,"y":2536781.3900000025}},{"attributes":{"ID":188967,"DIS_CODE":0,"TOWNNAME":"南區","LI":"省躬里","LIN":"5鄰","STREET":"灣裡路","SECT":" ","MAREA":" ","LANE":"８８巷","ALLEY":"３弄","HOUSE_NO":"４８號","E_COORD97":165924.57000000001,"N_COORD97":2536774.0499999998,"ADDRESS":"灣裡路８８巷３弄４８號","OBJECTID":188966},"geometry":{"x":165924.57000000216,"y":2536774.0500000026}},{"attributes":{"ID":188968,"DIS_CODE":0,"TOWNNAME":"南區","LI":"省躬里","LIN":"5鄰","STREET":"灣裡路","SECT":" ","MAREA":" ","LANE":"８８巷","ALLEY":"３弄","HOUSE_NO":"４號","E_COORD97":165932.47,"N_COORD97":2536878.6600000001,"ADDRESS":"灣裡路８８巷３弄４號","OBJECTID":188967},"geometry":{"x":165932.46999999974,"y":2536878.6600000001}},{"attributes":{"ID":188969,"DIS_CODE":0,"TOWNNAME":"南區","LI":"省躬里","LIN":"5鄰","STREET":"灣裡路","SECT":" ","MAREA":" ","LANE":"８８巷","ALLEY":"３弄","HOUSE_NO":"６號","E_COORD97":165928.38,"N_COORD97":2536866.9700000002,"ADDRESS":"灣裡路８８巷３弄６號","OBJECTID":188968},"geometry":{"x":165928.37999999989,"y":2536866.9700000007}},{"attributes":{"ID":188970,"DIS_CODE":0,"TOWNNAME":"南區","LI":"鯤鯓里","LIN":"5鄰","STREET":"鯤鯓路","SECT":" ","MAREA":" ","LANE":"１１５巷","ALLEY":"２４弄","HOUSE_NO":"１０號","E_COORD97":165025.10999999999,"N_COORD97":2539927.3799999999,"ADDRESS":"鯤鯓路１１５巷２４弄１０號","OBJECTID":188969},"geometry":{"x":165025.11000000034,"y":2539927.379999999}},{"attributes":{"ID":188971,"DIS_CODE":0,"TOWNNAME":"南區","LI":"鯤鯓里","LIN":"5鄰","STREET":"鯤鯓路","SECT":" ","MAREA":" ","LANE":"１１５巷","ALLEY":"２４弄","HOUSE_NO":"１２號","E_COORD97":165020.88,"N_COORD97":2539927.5,"ADDRESS":"鯤鯓路１１５巷２４弄１２號","OBJECTID":188970},"geometry":{"x":165020.88000000082,"y":2539927.5}},{"attributes":{"ID":188972,"DIS_CODE":0,"TOWNNAME":"南區","LI":"鯤鯓里","LIN":"5鄰","STREET":"鯤鯓路","SECT":" ","MAREA":" ","LANE":"１１５巷","ALLEY":"２４弄","HOUSE_NO":"１４號","E_COORD97":165016.89000000001,"N_COORD97":2539927.7400000002,"ADDRESS":"鯤鯓路１１５巷２４弄１４號","OBJECTID":188971},"geometry":{"x":165016.8900000006,"y":2539927.7400000021}},{"attributes":{"ID":188973,"DIS_CODE":0,"TOWNNAME":"南區","LI":"鯤鯓里","LIN":"5鄰","STREET":"鯤鯓路","SECT":" ","MAREA":" ","LANE":"１１５巷","ALLEY":"２４弄","HOUSE_NO":"１６號","E_COORD97":165012.79000000001,"N_COORD97":2539927.8599999999,"ADDRESS":"鯤鯓路１１５巷２４弄１６號","OBJECTID":188972},"geometry":{"x":165012.79000000097,"y":2539927.8599999994}},{"attributes":{"ID":188974,"DIS_CODE":0,"TOWNNAME":"南區","LI":"鯤鯓里","LIN":"5鄰","STREET":"鯤鯓路","SECT":" ","MAREA":" ","LANE":"１１５巷","ALLEY":"２４弄","HOUSE_NO":"１８號","E_COORD97":165007.10999999999,"N_COORD97":2539927.98,"ADDRESS":"鯤鯓路１１５巷２４弄１８號","OBJECTID":188973},"geometry":{"x":165007.11000000034,"y":2539927.9800000004}},{"attributes":{"ID":188975,"DIS_CODE":0,"TOWNNAME":"下營區","LI":"下營里","LIN":"7鄰","STREET":"民生街","SECT":" ","MAREA":" ","LANE":" ","ALLEY":" ","HOUSE_NO":"３８號","E_COORD97":174470.654346,"N_COORD97":2570423.2403299999,"ADDRESS":"民生街３８號","OBJECTID":188974},"geometry":{"x":174470.6543460004,"y":2570423.240325002}},{"attributes":{"ID":188976,"DIS_CODE":0,"TOWNNAME":"南區","LI":"鯤鯓里","LIN":"5鄰","STREET":"鯤鯓路","SECT":" ","MAREA":" ","LANE":"１１５巷","ALLEY":"２４弄","HOUSE_NO":"２號","E_COORD97":165041.53,"N_COORD97":2539926.8999999999,"ADDRESS":"鯤鯓路１１５巷２４弄２號","OBJECTID":188975},"geometry":{"x":165041.53000000026,"y":2539926.9000000022}},{"attributes":{"ID":188977,"DIS_CODE":0,"TOWNNAME":"柳營區","LI":"東昇里","LIN":"27鄰","STREET":" ","SECT":" ","MAREA":"柳營","LANE":" ","ALLEY":" ","HOUSE_NO":"５１２之６２號","E_COORD97":180628.26999999999,"N_COORD97":2575204.5099999998,"ADDRESS":"柳營５１２之６２號","OBJECTID":188976},"geometry":{"x":180628.27000000142,"y":2575204.5099999998}},{"attributes":{"ID":188978,"DIS_CODE":0,"TOWNNAME":"柳營區","LI":"東昇里","LIN":"27鄰","STREET":" ","SECT":" ","MAREA":"柳營","LANE":" ","ALLEY":" ","HOUSE_NO":"５１２號之６３","E_COORD97":180628.38,"N_COORD97":2575208.5699999998,"ADDRESS":"柳營５１２號之６３","OBJECTID":188977},"geometry":{"x":180628.38000000082,"y":2575208.5699999984}},{"attributes":{"ID":188979,"DIS_CODE":0,"TOWNNAME":"柳營區","LI":"東昇里","LIN":"27鄰","STREET":" ","SECT":" ","MAREA":"柳營","LANE":" ","ALLEY":" ","HOUSE_NO":"５１２號之６４","E_COORD97":180628.5,"N_COORD97":2575212.6299999999,"ADDRESS":"柳營５１２號之６４","OBJECTID":188978},"geometry":{"x":180628.5,"y":2575212.629999999}},{"attributes":{"ID":188980,"DIS_CODE":0,"TOWNNAME":"柳營區","LI":"東昇里","LIN":"27鄰","STREET":" ","SECT":" ","MAREA":"柳營","LANE":" ","ALLEY":" ","HOUSE_NO":"５１２號之６５","E_COORD97":180628.62,"N_COORD97":2575216.6899999999,"ADDRESS":"柳營５１２號之６５","OBJECTID":188979},"geometry":{"x":180628.62000000104,"y":2575216.6899999995}},{"attributes":{"ID":188981,"DIS_CODE":0,"TOWNNAME":"永康區","LI":"尚頂里","LIN":"21鄰","STREET":"南台街","SECT":" ","MAREA":" ","LANE":" ","ALLEY":" ","HOUSE_NO":"７號","E_COORD97":170462.32000000001,"N_COORD97":2546947.25,"ADDRESS":"南台街７號","OBJECTID":188980},"geometry":{"x":170462.3200000003,"y":2546947.25}},{"attributes":{"ID":188982,"DIS_CODE":0,"TOWNNAME":"柳營區","LI":"東昇里","LIN":"27鄰","STREET":" ","SECT":" ","MAREA":"柳營","LANE":" ","ALLEY":" ","HOUSE_NO":"５１２之６６號","E_COORD97":180628.73999999999,"N_COORD97":2575220.75,"ADDRESS":"柳營５１２之６６號","OBJECTID":188981},"geometry":{"x":180628.74000000022,"y":2575220.7500000037}},{"attributes":{"ID":188983,"DIS_CODE":0,"TOWNNAME":"柳營區","LI":"東昇里","LIN":"27鄰","STREET":" ","SECT":" ","MAREA":"柳營","LANE":" ","ALLEY":" ","HOUSE_NO":"５１２之６７號","E_COORD97":180628.85000000001,"N_COORD97":2575224.7999999998,"ADDRESS":"柳營５１２之６７號","OBJECTID":188982},"geometry":{"x":180628.84999999963,"y":2575224.8000000045}},{"attributes":{"ID":188984,"DIS_CODE":0,"TOWNNAME":"柳營區","LI":"東昇里","LIN":"27鄰","STREET":" ","SECT":" ","MAREA":"柳營","LANE":" ","ALLEY":" ","HOUSE_NO":"５１２號之６８","E_COORD97":180628.97,"N_COORD97":2575228.8599999999,"ADDRESS":"柳營５１２號之６８","OBJECTID":188983},"geometry":{"x":180628.97000000067,"y":2575228.8599999994}},{"attributes":{"ID":188985,"DIS_CODE":0,"TOWNNAME":"南區","LI":"鯤鯓里","LIN":"5鄰","STREET":"鯤鯓路","SECT":" ","MAREA":" ","LANE":"１１５巷","ALLEY":"２４弄","HOUSE_NO":"４號","E_COORD97":165036.94,"N_COORD97":2539926.8999999999,"ADDRESS":"鯤鯓路１１５巷２４弄４號","OBJECTID":188984},"geometry":{"x":165036.94000000041,"y":2539926.9000000022}},{"attributes":{"ID":188986,"DIS_CODE":0,"TOWNNAME":"南區","LI":"鯤鯓里","LIN":"5鄰","STREET":"鯤鯓路","SECT":" ","MAREA":" ","LANE":"１１５巷","ALLEY":"２４弄","HOUSE_NO":"６號","E_COORD97":165032.82999999999,"N_COORD97":2539927.02,"ADDRESS":"鯤鯓路１１５巷２４弄６號","OBJECTID":188985},"geometry":{"x":165032.83000000101,"y":2539927.0199999996}},{"attributes":{"ID":188987,"DIS_CODE":0,"TOWNNAME":"南區","LI":"鯤鯓里","LIN":"5鄰","STREET":"鯤鯓路","SECT":" ","MAREA":" ","LANE":"１１５巷","ALLEY":"２４弄","HOUSE_NO":"８號","E_COORD97":165028.73000000001,"N_COORD97":2539927.2599999998,"ADDRESS":"鯤鯓路１１５巷２４弄８號","OBJECTID":188986},"geometry":{"x":165028.73000000231,"y":2539927.2600000016}},{"attributes":{"ID":188988,"DIS_CODE":0,"TOWNNAME":"南區","LI":"鯤鯓里","LIN":"5鄰","STREET":"鯤鯓路","SECT":" ","MAREA":" ","LANE":"１１５巷","ALLEY":"８弄","HOUSE_NO":"１１號","E_COORD97":165013.03,"N_COORD97":2539942.5899999999,"ADDRESS":"鯤鯓路１１５巷８弄１１號","OBJECTID":188987},"geometry":{"x":165013.03000000119,"y":2539942.5900000017}},{"attributes":{"ID":188989,"DIS_CODE":0,"TOWNNAME":"南區","LI":"鯤鯓里","LIN":"5鄰","STREET":"鯤鯓路","SECT":" ","MAREA":" ","LANE":"１１５巷","ALLEY":"８弄","HOUSE_NO":"１３號","E_COORD97":165009.16,"N_COORD97":2539942.4700000002,"ADDRESS":"鯤鯓路１１５巷８弄１３號","OBJECTID":188988},"geometry":{"x":165009.16000000108,"y":2539942.4700000007}},{"attributes":{"ID":188990,"DIS_CODE":0,"TOWNNAME":"南區","LI":"鯤鯓里","LIN":"5鄰","STREET":"鯤鯓路","SECT":" ","MAREA":" ","LANE":"１１５巷","ALLEY":"８弄","HOUSE_NO":"１５號","E_COORD97":165004.20999999999,"N_COORD97":2539943.3100000001,"ADDRESS":"鯤鯓路１１５巷８弄１５號","OBJECTID":188989},"geometry":{"x":165004.20999999996,"y":2539943.3100000005}},{"attributes":{"ID":188991,"DIS_CODE":0,"TOWNNAME":"南區","LI":"鯤鯓里","LIN":"5鄰","STREET":"鯤鯓路","SECT":" ","MAREA":" ","LANE":"１１５巷","ALLEY":"８弄","HOUSE_NO":"１號","E_COORD97":165033.67999999999,"N_COORD97":2539943.0699999998,"ADDRESS":"鯤鯓路１１５巷８弄１號","OBJECTID":188990},"geometry":{"x":165033.68000000063,"y":2539943.0700000022}},{"attributes":{"ID":188992,"DIS_CODE":0,"TOWNNAME":"南區","LI":"鯤鯓里","LIN":"5鄰","STREET":"鯤鯓路","SECT":" ","MAREA":" ","LANE":"１１５巷","ALLEY":"８弄","HOUSE_NO":"３號","E_COORD97":165029.45000000001,"N_COORD97":2539942.71,"ADDRESS":"鯤鯓路１１５巷８弄３號","OBJECTID":188991},"geometry":{"x":165029.45000000019,"y":2539942.7100000028}},{"attributes":{"ID":188993,"DIS_CODE":0,"TOWNNAME":"南區","LI":"鯤鯓里","LIN":"5鄰","STREET":"鯤鯓路","SECT":" ","MAREA":" ","LANE":"１１５巷","ALLEY":"８弄","HOUSE_NO":"５號","E_COORD97":165025.47,"N_COORD97":2539942.4700000002,"ADDRESS":"鯤鯓路１１５巷８弄５號","OBJECTID":188992},"geometry":{"x":165025.46999999974,"y":2539942.4700000007}},{"attributes":{"ID":188994,"DIS_CODE":0,"TOWNNAME":"南區","LI":"鯤鯓里","LIN":"5鄰","STREET":"鯤鯓路","SECT":" ","MAREA":" ","LANE":"１１５巷","ALLEY":"８弄","HOUSE_NO":"７號","E_COORD97":165021.23999999999,"N_COORD97":2539942.2200000002,"ADDRESS":"鯤鯓路１１５巷８弄７號","OBJECTID":188993},"geometry":{"x":165021.24000000022,"y":2539942.2200000025}},{"attributes":{"ID":188995,"DIS_CODE":0,"TOWNNAME":"南區","LI":"鯤鯓里","LIN":"5鄰","STREET":"鯤鯓路","SECT":" ","MAREA":" ","LANE":"１１５巷","ALLEY":"８弄","HOUSE_NO":"９號","E_COORD97":165017.13,"N_COORD97":2539942.2200000002,"ADDRESS":"鯤鯓路１１５巷８弄９號","OBJECTID":188994},"geometry":{"x":165017.13000000082,"y":2539942.2200000025}},{"attributes":{"ID":188996,"DIS_CODE":0,"TOWNNAME":"北區","LI":"文成里","LIN":"5鄰","STREET":"文賢路","SECT":" ","MAREA":" ","LANE":"５７２巷","ALLEY":"５２弄","HOUSE_NO":"１號","E_COORD97":167524.32000000001,"N_COORD97":2545462.6099999999,"ADDRESS":"文賢路５７２巷５２弄１號","OBJECTID":188995},"geometry":{"x":167524.3200000003,"y":2545462.6099999994}},{"attributes":{"ID":188997,"DIS_CODE":0,"TOWNNAME":"北區","LI":"文成里","LIN":"5鄰","STREET":"文賢路","SECT":" ","MAREA":" ","LANE":"５７２巷","ALLEY":"５２弄","HOUSE_NO":"３號","E_COORD97":167529.14999999999,"N_COORD97":2545462.6099999999,"ADDRESS":"文賢路５７２巷５２弄３號","OBJECTID":188996},"geometry":{"x":167529.15000000037,"y":2545462.6099999994}},{"attributes":{"ID":188998,"DIS_CODE":0,"TOWNNAME":"北區","LI":"文成里","LIN":"5鄰","STREET":"文賢路","SECT":" ","MAREA":" ","LANE":"５７２巷","ALLEY":"５２弄","HOUSE_NO":"５號","E_COORD97":167533.98000000001,"N_COORD97":2545463,"ADDRESS":"文賢路５７２巷５２弄５號","OBJECTID":188997},"geometry":{"x":167533.98000000045,"y":2545463.0000000019}},{"attributes":{"ID":188999,"DIS_CODE":0,"TOWNNAME":"北區","LI":"文成里","LIN":"5鄰","STREET":"文賢路","SECT":" ","MAREA":" ","LANE":"５７２巷","ALLEY":"５２弄","HOUSE_NO":"１５號","E_COORD97":167559.5,"N_COORD97":2545463.6899999999,"ADDRESS":"文賢路５７２巷５２弄１５號","OBJECTID":188998},"geometry":{"x":167559.50000000093,"y":2545463.6900000013}},{"attributes":{"ID":189000,"DIS_CODE":0,"TOWNNAME":"北區","LI":"文成里","LIN":"5鄰","STREET":"文賢路","SECT":" ","MAREA":" ","LANE":"５７２巷","ALLEY":"５２弄","HOUSE_NO":"１３號","E_COORD97":167554.42000000001,"N_COORD97":2545463.6899999999,"ADDRESS":"文賢路５７２巷５２弄１３號","OBJECTID":188999},"geometry":{"x":167554.42000000179,"y":2545463.6900000013}},{"attributes":{"ID":189001,"DIS_CODE":0,"TOWNNAME":"北區","LI":"文成里","LIN":"5鄰","STREET":"文賢路","SECT":" ","MAREA":" ","LANE":"５７２巷","ALLEY":"５２弄","HOUSE_NO":"１１號","E_COORD97":167549.22,"N_COORD97":2545463.6899999999,"ADDRESS":"文賢路５７２巷５２弄１１號","OBJECTID":189000},"geometry":{"x":167549.22000000067,"y":2545463.6900000013}}]}