{"displayFieldName":"TOWNNAME","fieldAliases":{"ID":"ID","DIS_CODE":"DIS_CODE","TOWNNAME":"TOWNNAME","LI":"LI","LIN":"LIN","STREET":"STREET","SECT":"SECT","MAREA":"MAREA","LANE":"LANE","ALLEY":"ALLEY","HOUSE_NO":"HOUSE_NO","E_COORD97":"E_COORD97","N_COORD97":"N_COORD97","ADDRESS":"ADDRESS","OBJECTID":"OBJECTID"},"geometryType":"esriGeometryPoint","spatialReference":{"wkid":102443,"latestWkid":3826},"fields":[{"name":"ID","type":"esriFieldTypeDouble","alias":"ID"},{"name":"DIS_CODE","type":"esriFieldTypeInteger","alias":"DIS_CODE"},{"name":"TOWNNAME","type":"esriFieldTypeString","alias":"TOWNNAME","length":8},{"name":"LI","type":"esriFieldTypeString","alias":"LI","length":8},{"name":"LIN","type":"esriFieldTypeString","alias":"LIN","length":12},{"name":"STREET","type":"esriFieldTypeString","alias":"STREET","length":20},{"name":"SECT","type":"esriFieldTypeString","alias":"SECT","length":8},{"name":"MAREA","type":"esriFieldTypeString","alias":"MAREA","length":12},{"name":"LANE","type":"esriFieldTypeString","alias":"LANE","length":10},{"name":"ALLEY","type":"esriFieldTypeString","alias":"ALLEY","length":10},{"name":"HOUSE_NO","type":"esriFieldTypeString","alias":"HOUSE_NO","length":20},{"name":"E_COORD97","type":"esriFieldTypeDouble","alias":"E_COORD97"},{"name":"N_COORD97","type":"esriFieldTypeDouble","alias":"N_COORD97"},{"name":"ADDRESS","type":"esriFieldTypeString","alias":"ADDRESS","length":50},{"name":"OBJECTID","type":"esriFieldTypeOID","alias":"OBJECTID"}],"features":[{"attributes":{"ID":321610,"DIS_CODE":0,"TOWNNAME":"新市區","LI":"大社里","LIN":" ","STREET":" ","SECT":" ","MAREA":"大社","LANE":" ","ALLEY":" ","HOUSE_NO":"６２９號","E_COORD97":180056.23000000001,"N_COORD97":2554409.75,"ADDRESS":"大社６２９號","OBJECTID":321601},"geometry":{"x":180056.23000000045,"y":2554409.75}},{"attributes":{"ID":321611,"DIS_CODE":0,"TOWNNAME":"新市區","LI":"永就里","LIN":" ","STREET":" ","SECT":" ","MAREA":"永就","LANE":" ","ALLEY":" ","HOUSE_NO":"７９號","E_COORD97":177638.06,"N_COORD97":2551528.25,"ADDRESS":"永就７９號","OBJECTID":321602},"geometry":{"x":177638.06000000052,"y":2551528.25}},{"attributes":{"ID":321612,"DIS_CODE":0,"TOWNNAME":"新市區","LI":"大營里","LIN":" ","STREET":" ","SECT":" ","MAREA":"大營","LANE":" ","ALLEY":" ","HOUSE_NO":"１３７之３８號","E_COORD97":180028.42000000001,"N_COORD97":2554520.5499999998,"ADDRESS":"大營１３７之３８號","OBJECTID":321603},"geometry":{"x":180028.41999999993,"y":2554520.5500000007}},{"attributes":{"ID":321613,"DIS_CODE":0,"TOWNNAME":"新市區","LI":"新市里","LIN":" ","STREET":"復興路","SECT":" ","MAREA":" ","LANE":"６２巷","ALLEY":" ","HOUSE_NO":"９之２號","E_COORD97":177889.73999999999,"N_COORD97":2553488.7999999998,"ADDRESS":"復興路６２巷９之２號","OBJECTID":321604},"geometry":{"x":177889.74000000209,"y":2553488.7999999989}},{"attributes":{"ID":321614,"DIS_CODE":0,"TOWNNAME":"新市區","LI":"永就里","LIN":" ","STREET":" ","SECT":" ","MAREA":"永就","LANE":" ","ALLEY":" ","HOUSE_NO":"１５之１號","E_COORD97":178279.17999999999,"N_COORD97":2551310.0499999998,"ADDRESS":"永就１５之１號","OBJECTID":321605},"geometry":{"x":178279.1799999997,"y":2551310.0500000007}},{"attributes":{"ID":321615,"DIS_CODE":0,"TOWNNAME":"新市區","LI":"新和里","LIN":" ","STREET":"忠孝街","SECT":" ","MAREA":" ","LANE":"２２７巷","ALLEY":" ","HOUSE_NO":"２之３號","E_COORD97":177675.23999999999,"N_COORD97":2552932.0499999998,"ADDRESS":"忠孝街２２７巷２之３號","OBJECTID":321606},"geometry":{"x":177675.24000000115,"y":2552932.0500000026}},{"attributes":{"ID":321616,"DIS_CODE":0,"TOWNNAME":"永康區","LI":"中華里","LIN":"15鄰","STREET":"忠義街","SECT":" ","MAREA":" ","LANE":"６０巷","ALLEY":" ","HOUSE_NO":"１號六樓之１０","E_COORD97":171786.42999999999,"N_COORD97":2544541.1200000001,"ADDRESS":"忠義街６０巷１號六樓之１０","OBJECTID":321607},"geometry":{"x":171786.4299999997,"y":2544541.1200000029}},{"attributes":{"ID":321617,"DIS_CODE":0,"TOWNNAME":"新市區","LI":"永就里","LIN":" ","STREET":" ","SECT":" ","MAREA":"永就","LANE":" ","ALLEY":" ","HOUSE_NO":"９４號","E_COORD97":177546.04000000001,"N_COORD97":2551420.25,"ADDRESS":"永就９４號","OBJECTID":321608},"geometry":{"x":177546.04000000004,"y":2551420.2500000037}},{"attributes":{"ID":321618,"DIS_CODE":0,"TOWNNAME":"新市區","LI":"社內里","LIN":" ","STREET":" ","SECT":" ","MAREA":"社內","LANE":" ","ALLEY":" ","HOUSE_NO":"１９８號","E_COORD97":176010.25,"N_COORD97":2553095.25,"ADDRESS":"社內１９８號","OBJECTID":321609},"geometry":{"x":176010.25000000093,"y":2553095.2500000037}},{"attributes":{"ID":321619,"DIS_CODE":0,"TOWNNAME":"新市區","LI":"潭頂里","LIN":"12鄰","STREET":" ","SECT":" ","MAREA":"潭頂","LANE":" ","ALLEY":" ","HOUSE_NO":"３９８號之２","E_COORD97":180553.60000000001,"N_COORD97":2552994.7999999998,"ADDRESS":"潭頂３９８號之２","OBJECTID":321610},"geometry":{"x":180553.60000000056,"y":2552994.8000000026}},{"attributes":{"ID":321620,"DIS_CODE":0,"TOWNNAME":"永康區","LI":"中華里","LIN":"15鄰","STREET":"忠義街","SECT":" ","MAREA":" ","LANE":"６０巷","ALLEY":" ","HOUSE_NO":"１號十樓之１２","E_COORD97":171786.51000000001,"N_COORD97":2544541.1200000001,"ADDRESS":"忠義街６０巷１號十樓之１２","OBJECTID":321611},"geometry":{"x":171786.51000000164,"y":2544541.1200000029}},{"attributes":{"ID":321621,"DIS_CODE":0,"TOWNNAME":"永康區","LI":"中華里","LIN":"15鄰","STREET":"忠義街","SECT":" ","MAREA":" ","LANE":"６０巷","ALLEY":" ","HOUSE_NO":"１號八樓之１４","E_COORD97":171786.39999999999,"N_COORD97":2544541.1200000001,"ADDRESS":"忠義街６０巷１號八樓之１４","OBJECTID":321612},"geometry":{"x":171786.4000000013,"y":2544541.1200000029}},{"attributes":{"ID":321622,"DIS_CODE":0,"TOWNNAME":"永康區","LI":"中華里","LIN":"15鄰","STREET":"忠義街","SECT":" ","MAREA":" ","LANE":"６０巷","ALLEY":" ","HOUSE_NO":"３號十二樓之７","E_COORD97":171786.45000000001,"N_COORD97":2544541.1200000001,"ADDRESS":"忠義街６０巷３號十二樓之７","OBJECTID":321613},"geometry":{"x":171786.45000000112,"y":2544541.1200000029}},{"attributes":{"ID":321623,"DIS_CODE":0,"TOWNNAME":"永康區","LI":"中華里","LIN":"15鄰","STREET":"忠義街","SECT":" ","MAREA":" ","LANE":"６０巷","ALLEY":" ","HOUSE_NO":"３號十三樓之１３","E_COORD97":171787.72,"N_COORD97":2544541.1200000001,"ADDRESS":"忠義街６０巷３號十三樓之１３","OBJECTID":321614},"geometry":{"x":171787.71999999974,"y":2544541.1200000029}},{"attributes":{"ID":321624,"DIS_CODE":0,"TOWNNAME":"永康區","LI":"中華里","LIN":"15鄰","STREET":"忠義街","SECT":" ","MAREA":" ","LANE":"６０巷","ALLEY":" ","HOUSE_NO":"３號十一樓之２","E_COORD97":171786.51000000001,"N_COORD97":2544541.1200000001,"ADDRESS":"忠義街６０巷３號十一樓之２","OBJECTID":321615},"geometry":{"x":171786.51000000164,"y":2544541.1200000029}},{"attributes":{"ID":321625,"DIS_CODE":0,"TOWNNAME":"新營區","LI":"民榮里","LIN":"17鄰","STREET":"富強街","SECT":" ","MAREA":" ","LANE":" ","ALLEY":" ","HOUSE_NO":"３０號七樓","E_COORD97":178988.16,"N_COORD97":2577803.4500000002,"ADDRESS":"富強街３０號七樓","OBJECTID":321616},"geometry":{"x":178988.16000000015,"y":2577803.4500000011}},{"attributes":{"ID":321626,"DIS_CODE":0,"TOWNNAME":"新營區","LI":"民榮里","LIN":"17鄰","STREET":"富強街","SECT":" ","MAREA":" ","LANE":" ","ALLEY":" ","HOUSE_NO":"３２號六樓","E_COORD97":178988.16,"N_COORD97":2577803.4500000002,"ADDRESS":"富強街３２號六樓","OBJECTID":321617},"geometry":{"x":178988.16000000015,"y":2577803.4500000011}},{"attributes":{"ID":321627,"DIS_CODE":0,"TOWNNAME":"將軍區","LI":"平沙里","LIN":"10鄰","STREET":" ","SECT":" ","MAREA":"平沙","LANE":" ","ALLEY":" ","HOUSE_NO":"８７之１４號","E_COORD97":157225.412285,"N_COORD97":2568440.0747199999,"ADDRESS":"平沙８７之１４號","OBJECTID":321618},"geometry":{"x":157225.41228500195,"y":2568440.0747190043}},{"attributes":{"ID":321628,"DIS_CODE":0,"TOWNNAME":"安南區","LI":"海東里","LIN":"21鄰","STREET":"海東三街","SECT":" ","MAREA":" ","LANE":" ","ALLEY":" ","HOUSE_NO":"５５號","E_COORD97":166866.09571699999,"N_COORD97":2547949.58605,"ADDRESS":"海東三街５５號","OBJECTID":321619},"geometry":{"x":166866.09571700078,"y":2547949.5860510021}},{"attributes":{"ID":321629,"DIS_CODE":0,"TOWNNAME":"將軍區","LI":"平沙里","LIN":"10鄰","STREET":" ","SECT":" ","MAREA":"平沙","LANE":" ","ALLEY":" ","HOUSE_NO":"８７之１７號","E_COORD97":157220.962474,"N_COORD97":2568439.8630499998,"ADDRESS":"平沙８７之１７號","OBJECTID":321620},"geometry":{"x":157220.96247400064,"y":2568439.8630520031}},{"attributes":{"ID":321630,"DIS_CODE":0,"TOWNNAME":"新市區","LI":"豐華里","LIN":"18鄰","STREET":" ","SECT":" ","MAREA":"豐華","LANE":" ","ALLEY":" ","HOUSE_NO":"２７之１０號","E_COORD97":173783.60999999999,"N_COORD97":2554065.9100000001,"ADDRESS":"豐華２７之１０號","OBJECTID":321621},"geometry":{"x":173783.61000000127,"y":2554065.9100000001}},{"attributes":{"ID":321631,"DIS_CODE":0,"TOWNNAME":"新市區","LI":"社內里","LIN":"1鄰","STREET":" ","SECT":" ","MAREA":"社內","LANE":" ","ALLEY":" ","HOUSE_NO":"１４之３０號","E_COORD97":176831.97,"N_COORD97":2552983.04,"ADDRESS":"社內１４之３０號","OBJECTID":321622},"geometry":{"x":176831.97000000067,"y":2552983.0399999991}},{"attributes":{"ID":321632,"DIS_CODE":0,"TOWNNAME":"東區","LI":"龍山里","LIN":"4鄰","STREET":"德光街","SECT":" ","MAREA":" ","LANE":"１５巷","ALLEY":" ","HOUSE_NO":"３７號","E_COORD97":170591.98000000001,"N_COORD97":2542587.8599999999,"ADDRESS":"德光街１５巷３７號","OBJECTID":321623},"geometry":{"x":170591.98000000045,"y":2542587.8600000013}},{"attributes":{"ID":321633,"DIS_CODE":0,"TOWNNAME":"東區","LI":"崇明里","LIN":"19鄰","STREET":"中華東路","SECT":"三段","MAREA":" ","LANE":"３５７巷","ALLEY":" ","HOUSE_NO":"６１號","E_COORD97":170397.13,"N_COORD97":2541539.3100000001,"ADDRESS":"中華東路三段３５７巷６１號","OBJECTID":321624},"geometry":{"x":170397.12999999989,"y":2541539.3100000005}},{"attributes":{"ID":321634,"DIS_CODE":0,"TOWNNAME":"東區","LI":"崇信里","LIN":"21鄰","STREET":"中華東路","SECT":"三段","MAREA":" ","LANE":"４４巷","ALLEY":" ","HOUSE_NO":"６８號","E_COORD97":170818.64999999999,"N_COORD97":2542468.8700000001,"ADDRESS":"中華東路三段４４巷６８號","OBJECTID":321625},"geometry":{"x":170818.6500000013,"y":2542468.870000001}},{"attributes":{"ID":321635,"DIS_CODE":0,"TOWNNAME":"東區","LI":"路東里","LIN":"17鄰","STREET":"大同路","SECT":"二段","MAREA":" ","LANE":"６１巷","ALLEY":" ","HOUSE_NO":"１８０號","E_COORD97":169495.70000000001,"N_COORD97":2542346.7000000002,"ADDRESS":"大同路二段６１巷１８０號","OBJECTID":321626},"geometry":{"x":169495.70000000112,"y":2542346.6999999993}},{"attributes":{"ID":321636,"DIS_CODE":0,"TOWNNAME":"東區","LI":"路東里","LIN":"18鄰","STREET":"大同路","SECT":"二段","MAREA":" ","LANE":"６１巷","ALLEY":" ","HOUSE_NO":"３６號","E_COORD97":169406.70000000001,"N_COORD97":2542179.8599999999,"ADDRESS":"大同路二段６１巷３６號","OBJECTID":321627},"geometry":{"x":169406.70000000019,"y":2542179.8599999994}},{"attributes":{"ID":321637,"DIS_CODE":0,"TOWNNAME":"東區","LI":"路東里","LIN":"18鄰","STREET":"大同路","SECT":"二段","MAREA":" ","LANE":"６１巷","ALLEY":" ","HOUSE_NO":"３８號","E_COORD97":169406.70000000001,"N_COORD97":2542175.8300000001,"ADDRESS":"大同路二段６１巷３８號","OBJECTID":321628},"geometry":{"x":169406.70000000019,"y":2542175.8300000019}},{"attributes":{"ID":321638,"DIS_CODE":0,"TOWNNAME":"東區","LI":"路東里","LIN":"18鄰","STREET":"大同路","SECT":"二段","MAREA":" ","LANE":"６１巷","ALLEY":" ","HOUSE_NO":"４０號","E_COORD97":169405.69,"N_COORD97":2542171.1299999999,"ADDRESS":"大同路二段６１巷４０號","OBJECTID":321629},"geometry":{"x":169405.69000000041,"y":2542171.1300000027}},{"attributes":{"ID":321639,"DIS_CODE":0,"TOWNNAME":"東區","LI":"路東里","LIN":"18鄰","STREET":"大同路","SECT":"二段","MAREA":" ","LANE":"６１巷","ALLEY":" ","HOUSE_NO":"４２號","E_COORD97":169405.01999999999,"N_COORD97":2542166.4300000002,"ADDRESS":"大同路二段６１巷４２號","OBJECTID":321630},"geometry":{"x":169405.02000000048,"y":2542166.4300000034}},{"attributes":{"ID":321640,"DIS_CODE":0,"TOWNNAME":"新市區","LI":"潭頂里","LIN":"2鄰","STREET":" ","SECT":" ","MAREA":"潭頂","LANE":" ","ALLEY":" ","HOUSE_NO":"９０號之６６","E_COORD97":181716.14999999999,"N_COORD97":2553510.1099999999,"ADDRESS":"潭頂９０號之６６","OBJECTID":321631},"geometry":{"x":181716.15000000037,"y":2553510.1100000013}},{"attributes":{"ID":321641,"DIS_CODE":0,"TOWNNAME":"永康區","LI":"中華里","LIN":"15鄰","STREET":"忠義街","SECT":" ","MAREA":" ","LANE":"６０巷","ALLEY":" ","HOUSE_NO":"３號十三樓之５","E_COORD97":171786.53,"N_COORD97":2544541.1200000001,"ADDRESS":"忠義街６０巷３號十三樓之５","OBJECTID":321632},"geometry":{"x":171786.53000000026,"y":2544541.1200000029}},{"attributes":{"ID":321642,"DIS_CODE":0,"TOWNNAME":"永康區","LI":"中華里","LIN":"15鄰","STREET":"忠義街","SECT":" ","MAREA":" ","LANE":"６０巷","ALLEY":" ","HOUSE_NO":"１號十樓之１","E_COORD97":171785.13,"N_COORD97":2544541.1200000001,"ADDRESS":"忠義街６０巷１號十樓之１","OBJECTID":321633},"geometry":{"x":171785.12999999989,"y":2544541.1200000029}},{"attributes":{"ID":321643,"DIS_CODE":0,"TOWNNAME":"新營區","LI":"民榮里","LIN":"17鄰","STREET":"富強街","SECT":" ","MAREA":" ","LANE":" ","ALLEY":" ","HOUSE_NO":"３４號四樓","E_COORD97":178988.16,"N_COORD97":2577803.4500000002,"ADDRESS":"富強街３４號四樓","OBJECTID":321634},"geometry":{"x":178988.16000000015,"y":2577803.4500000011}},{"attributes":{"ID":321644,"DIS_CODE":0,"TOWNNAME":"南區","LI":"金華里","LIN":"17鄰","STREET":"惠南街","SECT":" ","MAREA":" ","LANE":" ","ALLEY":" ","HOUSE_NO":"４８號二樓","E_COORD97":166775.64999999999,"N_COORD97":2542176.9300000002,"ADDRESS":"惠南街４８號二樓","OBJECTID":321635},"geometry":{"x":166775.6500000013,"y":2542176.9300000016}},{"attributes":{"ID":321645,"DIS_CODE":0,"TOWNNAME":"南區","LI":"金華里","LIN":"17鄰","STREET":"惠南街","SECT":" ","MAREA":" ","LANE":" ","ALLEY":" ","HOUSE_NO":"４８號三樓","E_COORD97":166775.64999999999,"N_COORD97":2542176.9300000002,"ADDRESS":"惠南街４８號三樓","OBJECTID":321636},"geometry":{"x":166775.6500000013,"y":2542176.9300000016}},{"attributes":{"ID":321646,"DIS_CODE":0,"TOWNNAME":"南區","LI":"金華里","LIN":"17鄰","STREET":"惠南街","SECT":" ","MAREA":" ","LANE":" ","ALLEY":" ","HOUSE_NO":"４８號四樓","E_COORD97":166775.64999999999,"N_COORD97":2542176.9300000002,"ADDRESS":"惠南街４８號四樓","OBJECTID":321637},"geometry":{"x":166775.6500000013,"y":2542176.9300000016}},{"attributes":{"ID":321647,"DIS_CODE":0,"TOWNNAME":"新營區","LI":"民榮里","LIN":"17鄰","STREET":"富強街","SECT":" ","MAREA":" ","LANE":" ","ALLEY":" ","HOUSE_NO":"３０號五樓","E_COORD97":178988.16,"N_COORD97":2577803.4500000002,"ADDRESS":"富強街３０號五樓","OBJECTID":321638},"geometry":{"x":178988.16000000015,"y":2577803.4500000011}},{"attributes":{"ID":321648,"DIS_CODE":0,"TOWNNAME":"新營區","LI":"民榮里","LIN":"17鄰","STREET":"富強街","SECT":" ","MAREA":" ","LANE":" ","ALLEY":" ","HOUSE_NO":"６１號二樓之３","E_COORD97":178881.26000000001,"N_COORD97":2577887.0600000001,"ADDRESS":"富強街６１號二樓之３","OBJECTID":321639},"geometry":{"x":178881.26000000071,"y":2577887.0600000005}},{"attributes":{"ID":321649,"DIS_CODE":0,"TOWNNAME":"新營區","LI":"民榮里","LIN":"17鄰","STREET":"富強街","SECT":" ","MAREA":" ","LANE":" ","ALLEY":" ","HOUSE_NO":"６號四樓","E_COORD97":178986.82999999999,"N_COORD97":2577803.4500000002,"ADDRESS":"富強街６號四樓","OBJECTID":321640},"geometry":{"x":178986.83000000007,"y":2577803.4500000011}},{"attributes":{"ID":321650,"DIS_CODE":0,"TOWNNAME":"新營區","LI":"民榮里","LIN":"17鄰","STREET":"富強街","SECT":" ","MAREA":" ","LANE":" ","ALLEY":" ","HOUSE_NO":"３２號七樓","E_COORD97":178988.16,"N_COORD97":2577803.4500000002,"ADDRESS":"富強街３２號七樓","OBJECTID":321641},"geometry":{"x":178988.16000000015,"y":2577803.4500000011}},{"attributes":{"ID":321651,"DIS_CODE":0,"TOWNNAME":"新營區","LI":"民榮里","LIN":"17鄰","STREET":"富強街","SECT":" ","MAREA":" ","LANE":" ","ALLEY":" ","HOUSE_NO":"３６號五樓","E_COORD97":178988.16,"N_COORD97":2577803.4500000002,"ADDRESS":"富強街３６號五樓","OBJECTID":321642},"geometry":{"x":178988.16000000015,"y":2577803.4500000011}},{"attributes":{"ID":321652,"DIS_CODE":0,"TOWNNAME":"新營區","LI":"民榮里","LIN":"17鄰","STREET":"富強街","SECT":" ","MAREA":" ","LANE":" ","ALLEY":" ","HOUSE_NO":"２６號二樓","E_COORD97":178988.14000000001,"N_COORD97":2577803.4500000002,"ADDRESS":"富強街２６號二樓","OBJECTID":321643},"geometry":{"x":178988.13999999966,"y":2577803.4500000011}},{"attributes":{"ID":321653,"DIS_CODE":0,"TOWNNAME":"永康區","LI":"中華里","LIN":"15鄰","STREET":"忠義街","SECT":" ","MAREA":" ","LANE":"６０巷","ALLEY":" ","HOUSE_NO":"１號十五樓之１２","E_COORD97":171787.76000000001,"N_COORD97":2544541.1200000001,"ADDRESS":"忠義街６０巷１號十五樓之１２","OBJECTID":321644},"geometry":{"x":171787.75999999978,"y":2544541.1200000029}},{"attributes":{"ID":321654,"DIS_CODE":0,"TOWNNAME":"永康區","LI":"中華里","LIN":"15鄰","STREET":"忠義街","SECT":" ","MAREA":" ","LANE":"６０巷","ALLEY":" ","HOUSE_NO":"３號十二樓之１３","E_COORD97":171787.72,"N_COORD97":2544541.1200000001,"ADDRESS":"忠義街６０巷３號十二樓之１３","OBJECTID":321645},"geometry":{"x":171787.71999999974,"y":2544541.1200000029}},{"attributes":{"ID":321655,"DIS_CODE":0,"TOWNNAME":"永康區","LI":"中華里","LIN":"15鄰","STREET":"忠義街","SECT":" ","MAREA":" ","LANE":"６０巷","ALLEY":" ","HOUSE_NO":"３號十二樓之１４","E_COORD97":171787.64999999999,"N_COORD97":2544541.1200000001,"ADDRESS":"忠義街６０巷３號十二樓之１４","OBJECTID":321646},"geometry":{"x":171787.65000000037,"y":2544541.1200000029}},{"attributes":{"ID":321656,"DIS_CODE":0,"TOWNNAME":"永康區","LI":"中華里","LIN":"15鄰","STREET":"忠義街","SECT":" ","MAREA":" ","LANE":"６０巷","ALLEY":" ","HOUSE_NO":"１號十三樓之１１","E_COORD97":171787.63,"N_COORD97":2544541.1200000001,"ADDRESS":"忠義街６０巷１號十三樓之１１","OBJECTID":321647},"geometry":{"x":171787.63000000082,"y":2544541.1200000029}},{"attributes":{"ID":321657,"DIS_CODE":0,"TOWNNAME":"永康區","LI":"中華里","LIN":"15鄰","STREET":"忠義街","SECT":" ","MAREA":" ","LANE":"６０巷","ALLEY":" ","HOUSE_NO":"３號十三樓之１２","E_COORD97":171787.76000000001,"N_COORD97":2544541.1200000001,"ADDRESS":"忠義街６０巷３號十三樓之１２","OBJECTID":321648},"geometry":{"x":171787.75999999978,"y":2544541.1200000029}},{"attributes":{"ID":321658,"DIS_CODE":0,"TOWNNAME":"永康區","LI":"中華里","LIN":"15鄰","STREET":"忠義街","SECT":" ","MAREA":" ","LANE":"６０巷","ALLEY":" ","HOUSE_NO":"１號十五樓之８","E_COORD97":171786.51999999999,"N_COORD97":2544541.1200000001,"ADDRESS":"忠義街６０巷１號十五樓之８","OBJECTID":321649},"geometry":{"x":171786.52000000048,"y":2544541.1200000029}},{"attributes":{"ID":321659,"DIS_CODE":0,"TOWNNAME":"永康區","LI":"中華里","LIN":"15鄰","STREET":"忠義街","SECT":" ","MAREA":" ","LANE":"６０巷","ALLEY":" ","HOUSE_NO":"１號九樓之７","E_COORD97":171785.20000000001,"N_COORD97":2544541.1200000001,"ADDRESS":"忠義街６０巷１號九樓之７","OBJECTID":321650},"geometry":{"x":171785.20000000019,"y":2544541.1200000029}},{"attributes":{"ID":321660,"DIS_CODE":0,"TOWNNAME":"永康區","LI":"中華里","LIN":"15鄰","STREET":"忠義街","SECT":" ","MAREA":" ","LANE":"６０巷","ALLEY":" ","HOUSE_NO":"３號十二樓之４","E_COORD97":171786.39999999999,"N_COORD97":2544541.1200000001,"ADDRESS":"忠義街６０巷３號十二樓之４","OBJECTID":321651},"geometry":{"x":171786.4000000013,"y":2544541.1200000029}},{"attributes":{"ID":321661,"DIS_CODE":0,"TOWNNAME":"永康區","LI":"中華里","LIN":"15鄰","STREET":"忠義街","SECT":" ","MAREA":" ","LANE":"６０巷","ALLEY":" ","HOUSE_NO":"１號十五樓之３","E_COORD97":171786.47,"N_COORD97":2544541.1200000001,"ADDRESS":"忠義街６０巷１號十五樓之３","OBJECTID":321652},"geometry":{"x":171786.46999999974,"y":2544541.1200000029}},{"attributes":{"ID":321662,"DIS_CODE":0,"TOWNNAME":"永康區","LI":"中華里","LIN":"15鄰","STREET":"忠義街","SECT":" ","MAREA":" ","LANE":"６０巷","ALLEY":" ","HOUSE_NO":"１號十樓之１１","E_COORD97":171786.38,"N_COORD97":2544541.1200000001,"ADDRESS":"忠義街６０巷１號十樓之１１","OBJECTID":321653},"geometry":{"x":171786.38000000082,"y":2544541.1200000029}},{"attributes":{"ID":321663,"DIS_CODE":0,"TOWNNAME":"永康區","LI":"中華里","LIN":"15鄰","STREET":"忠義街","SECT":" ","MAREA":" ","LANE":"６０巷","ALLEY":" ","HOUSE_NO":"３號八樓之８","E_COORD97":171785.26999999999,"N_COORD97":2544541.1200000001,"ADDRESS":"忠義街６０巷３號八樓之８","OBJECTID":321654},"geometry":{"x":171785.27000000048,"y":2544541.1200000029}},{"attributes":{"ID":321664,"DIS_CODE":0,"TOWNNAME":"永康區","LI":"中華里","LIN":"15鄰","STREET":"忠義街","SECT":" ","MAREA":" ","LANE":"６０巷","ALLEY":" ","HOUSE_NO":"３號十一樓之１６","E_COORD97":171787.73000000001,"N_COORD97":2544541.1200000001,"ADDRESS":"忠義街６０巷３號十一樓之１６","OBJECTID":321655},"geometry":{"x":171787.73000000138,"y":2544541.1200000029}},{"attributes":{"ID":321665,"DIS_CODE":0,"TOWNNAME":"永康區","LI":"中華里","LIN":"15鄰","STREET":"忠義街","SECT":" ","MAREA":" ","LANE":"６０巷","ALLEY":" ","HOUSE_NO":"１號十三樓之１２","E_COORD97":171787.76000000001,"N_COORD97":2544541.1200000001,"ADDRESS":"忠義街６０巷１號十三樓之１２","OBJECTID":321656},"geometry":{"x":171787.75999999978,"y":2544541.1200000029}},{"attributes":{"ID":321666,"DIS_CODE":0,"TOWNNAME":"新營區","LI":"民榮里","LIN":"17鄰","STREET":"富強街","SECT":" ","MAREA":" ","LANE":" ","ALLEY":" ","HOUSE_NO":"２６號六樓","E_COORD97":178988.14000000001,"N_COORD97":2577803.4500000002,"ADDRESS":"富強街２６號六樓","OBJECTID":321657},"geometry":{"x":178988.13999999966,"y":2577803.4500000011}},{"attributes":{"ID":321667,"DIS_CODE":0,"TOWNNAME":"南區","LI":"日新里","LIN":"1鄰","STREET":"金華路","SECT":"一段","MAREA":" ","LANE":"３９３巷","ALLEY":" ","HOUSE_NO":"２號","E_COORD97":166962.82000000001,"N_COORD97":2541205.3300000001,"ADDRESS":"金華路一段３９３巷２號","OBJECTID":321658},"geometry":{"x":166962.82000000123,"y":2541205.3300000019}},{"attributes":{"ID":321668,"DIS_CODE":0,"TOWNNAME":"永康區","LI":"中華里","LIN":"15鄰","STREET":"忠義街","SECT":" ","MAREA":" ","LANE":"６０巷","ALLEY":" ","HOUSE_NO":"３號十三樓之９","E_COORD97":171786.45999999999,"N_COORD97":2544541.1200000001,"ADDRESS":"忠義街６０巷３號十三樓之９","OBJECTID":321659},"geometry":{"x":171786.45999999996,"y":2544541.1200000029}},{"attributes":{"ID":321669,"DIS_CODE":0,"TOWNNAME":"永康區","LI":"中華里","LIN":"15鄰","STREET":"忠義街","SECT":" ","MAREA":" ","LANE":"６０巷","ALLEY":" ","HOUSE_NO":"１號十五樓之２","E_COORD97":171786.51000000001,"N_COORD97":2544541.1200000001,"ADDRESS":"忠義街６０巷１號十五樓之２","OBJECTID":321660},"geometry":{"x":171786.51000000164,"y":2544541.1200000029}},{"attributes":{"ID":321670,"DIS_CODE":0,"TOWNNAME":"永康區","LI":"中華里","LIN":"15鄰","STREET":"忠義街","SECT":" ","MAREA":" ","LANE":"６０巷","ALLEY":" ","HOUSE_NO":"１號十四樓之１３","E_COORD97":171787.72,"N_COORD97":2544541.1200000001,"ADDRESS":"忠義街６０巷１號十四樓之１３","OBJECTID":321661},"geometry":{"x":171787.71999999974,"y":2544541.1200000029}},{"attributes":{"ID":321671,"DIS_CODE":0,"TOWNNAME":"永康區","LI":"中華里","LIN":"15鄰","STREET":"忠義街","SECT":" ","MAREA":" ","LANE":"６０巷","ALLEY":" ","HOUSE_NO":"１號十五樓之１３","E_COORD97":171787.72,"N_COORD97":2544541.1200000001,"ADDRESS":"忠義街６０巷１號十五樓之１３","OBJECTID":321662},"geometry":{"x":171787.71999999974,"y":2544541.1200000029}},{"attributes":{"ID":321672,"DIS_CODE":0,"TOWNNAME":"永康區","LI":"中華里","LIN":"15鄰","STREET":"忠義街","SECT":" ","MAREA":" ","LANE":"６０巷","ALLEY":" ","HOUSE_NO":"１號十一樓之１５","E_COORD97":171787.78,"N_COORD97":2544541.1200000001,"ADDRESS":"忠義街６０巷１號十一樓之１５","OBJECTID":321663},"geometry":{"x":171787.78000000026,"y":2544541.1200000029}},{"attributes":{"ID":321673,"DIS_CODE":0,"TOWNNAME":"歸仁區","LI":"崙頂里","LIN":"21鄰","STREET":"大成路","SECT":" ","MAREA":" ","LANE":" ","ALLEY":" ","HOUSE_NO":"１９６號","E_COORD97":177769.195018,"N_COORD97":2540148.1767600002,"ADDRESS":"大成路１９６號","OBJECTID":321664},"geometry":{"x":177769.1950180009,"y":2540148.1767610013}},{"attributes":{"ID":321674,"DIS_CODE":0,"TOWNNAME":"永康區","LI":"中華里","LIN":"15鄰","STREET":"忠義街","SECT":" ","MAREA":" ","LANE":"６０巷","ALLEY":" ","HOUSE_NO":"３號十三樓之１４","E_COORD97":171787.64999999999,"N_COORD97":2544541.1200000001,"ADDRESS":"忠義街６０巷３號十三樓之１４","OBJECTID":321665},"geometry":{"x":171787.65000000037,"y":2544541.1200000029}},{"attributes":{"ID":321675,"DIS_CODE":0,"TOWNNAME":"永康區","LI":"中華里","LIN":"15鄰","STREET":"忠義街","SECT":" ","MAREA":" ","LANE":"６０巷","ALLEY":" ","HOUSE_NO":"１號六樓之３","E_COORD97":171785.22,"N_COORD97":2544541.1200000001,"ADDRESS":"忠義街６０巷１號六樓之３","OBJECTID":321666},"geometry":{"x":171785.22000000067,"y":2544541.1200000029}},{"attributes":{"ID":321676,"DIS_CODE":0,"TOWNNAME":"新營區","LI":"民榮里","LIN":"17鄰","STREET":"富強街","SECT":" ","MAREA":" ","LANE":" ","ALLEY":" ","HOUSE_NO":"５７之１號六樓","E_COORD97":178911.06,"N_COORD97":2577857.02,"ADDRESS":"富強街５７之１號六樓","OBJECTID":321667},"geometry":{"x":178911.06000000052,"y":2577857.0200000014}},{"attributes":{"ID":321677,"DIS_CODE":0,"TOWNNAME":"永康區","LI":"中華里","LIN":"15鄰","STREET":"忠義街","SECT":" ","MAREA":" ","LANE":"６０巷","ALLEY":" ","HOUSE_NO":"１號十樓之９","E_COORD97":171785.20999999999,"N_COORD97":2544541.1200000001,"ADDRESS":"忠義街６０巷１號十樓之９","OBJECTID":321668},"geometry":{"x":171785.20999999903,"y":2544541.1200000029}},{"attributes":{"ID":321678,"DIS_CODE":0,"TOWNNAME":"永康區","LI":"中華里","LIN":"15鄰","STREET":"忠義街","SECT":" ","MAREA":" ","LANE":"６０巷","ALLEY":" ","HOUSE_NO":"３號八樓之１６","E_COORD97":171786.48000000001,"N_COORD97":2544541.1200000001,"ADDRESS":"忠義街６０巷３號八樓之１６","OBJECTID":321669},"geometry":{"x":171786.48000000138,"y":2544541.1200000029}},{"attributes":{"ID":321679,"DIS_CODE":0,"TOWNNAME":"永康區","LI":"中華里","LIN":"15鄰","STREET":"忠義街","SECT":" ","MAREA":" ","LANE":"６０巷","ALLEY":" ","HOUSE_NO":"３號十二樓之６","E_COORD97":171786.48000000001,"N_COORD97":2544541.1200000001,"ADDRESS":"忠義街６０巷３號十二樓之６","OBJECTID":321670},"geometry":{"x":171786.48000000138,"y":2544541.1200000029}},{"attributes":{"ID":321680,"DIS_CODE":0,"TOWNNAME":"永康區","LI":"中華里","LIN":"15鄰","STREET":"忠義街","SECT":" ","MAREA":" ","LANE":"６０巷","ALLEY":" ","HOUSE_NO":"１號十三樓之４","E_COORD97":171786.39999999999,"N_COORD97":2544541.1200000001,"ADDRESS":"忠義街６０巷１號十三樓之４","OBJECTID":321671},"geometry":{"x":171786.4000000013,"y":2544541.1200000029}},{"attributes":{"ID":321681,"DIS_CODE":0,"TOWNNAME":"永康區","LI":"中華里","LIN":"15鄰","STREET":"忠義街","SECT":" ","MAREA":" ","LANE":"６０巷","ALLEY":" ","HOUSE_NO":"３號十五樓之４","E_COORD97":171786.39999999999,"N_COORD97":2544541.1200000001,"ADDRESS":"忠義街６０巷３號十五樓之４","OBJECTID":321672},"geometry":{"x":171786.4000000013,"y":2544541.1200000029}},{"attributes":{"ID":321682,"DIS_CODE":0,"TOWNNAME":"永康區","LI":"中華里","LIN":"15鄰","STREET":"忠義街","SECT":" ","MAREA":" ","LANE":"６０巷","ALLEY":" ","HOUSE_NO":"３號十三樓之４","E_COORD97":171786.39999999999,"N_COORD97":2544541.1200000001,"ADDRESS":"忠義街６０巷３號十三樓之４","OBJECTID":321673},"geometry":{"x":171786.4000000013,"y":2544541.1200000029}},{"attributes":{"ID":321683,"DIS_CODE":0,"TOWNNAME":"安平區","LI":"西門里","LIN":"18鄰","STREET":"安北路","SECT":" ","MAREA":" ","LANE":"４２６巷","ALLEY":" ","HOUSE_NO":"１０號","E_COORD97":163092.92999999999,"N_COORD97":2544557.9700000002,"ADDRESS":"安北路４２６巷１０號","OBJECTID":321674},"geometry":{"x":163092.93000000063,"y":2544557.9700000025}},{"attributes":{"ID":321684,"DIS_CODE":0,"TOWNNAME":"安平區","LI":"西門里","LIN":"18鄰","STREET":"安北路","SECT":" ","MAREA":" ","LANE":"４２６巷","ALLEY":" ","HOUSE_NO":"１１號","E_COORD97":163091.79999999999,"N_COORD97":2544562,"ADDRESS":"安北路４２６巷１１號","OBJECTID":321675},"geometry":{"x":163091.80000000075,"y":2544562}},{"attributes":{"ID":321685,"DIS_CODE":0,"TOWNNAME":"安平區","LI":"西門里","LIN":"18鄰","STREET":"安北路","SECT":" ","MAREA":" ","LANE":"４２６巷","ALLEY":" ","HOUSE_NO":"１２號","E_COORD97":163089.62,"N_COORD97":2544564.8999999999,"ADDRESS":"安北路４２６巷１２號","OBJECTID":321676},"geometry":{"x":163089.61999999918,"y":2544564.9000000022}},{"attributes":{"ID":321686,"DIS_CODE":0,"TOWNNAME":"安平區","LI":"西門里","LIN":"18鄰","STREET":"安北路","SECT":" ","MAREA":" ","LANE":"４２６巷","ALLEY":" ","HOUSE_NO":"１３號","E_COORD97":163087.92999999999,"N_COORD97":2544568.3599999999,"ADDRESS":"安北路４２６巷１３號","OBJECTID":321677},"geometry":{"x":163087.93000000063,"y":2544568.3600000013}},{"attributes":{"ID":321687,"DIS_CODE":0,"TOWNNAME":"安平區","LI":"西門里","LIN":"18鄰","STREET":"安北路","SECT":" ","MAREA":" ","LANE":"４２６巷","ALLEY":" ","HOUSE_NO":"１４號","E_COORD97":163086.54999999999,"N_COORD97":2544572.3300000001,"ADDRESS":"安北路４２６巷１４號","OBJECTID":321678},"geometry":{"x":163086.55000000168,"y":2544572.3300000019}},{"attributes":{"ID":321688,"DIS_CODE":0,"TOWNNAME":"安平區","LI":"西門里","LIN":"18鄰","STREET":"安北路","SECT":" ","MAREA":" ","LANE":"４２６巷","ALLEY":" ","HOUSE_NO":"１５號","E_COORD97":163085.69,"N_COORD97":2544576.52,"ADDRESS":"安北路４２６巷１５號","OBJECTID":321679},"geometry":{"x":163085.69000000041,"y":2544576.5200000033}},{"attributes":{"ID":321689,"DIS_CODE":0,"TOWNNAME":"安平區","LI":"西門里","LIN":"18鄰","STREET":"安北路","SECT":" ","MAREA":" ","LANE":"４２６巷","ALLEY":" ","HOUSE_NO":"１６號","E_COORD97":163083.89000000001,"N_COORD97":2544579.98,"ADDRESS":"安北路４２６巷１６號","OBJECTID":321680},"geometry":{"x":163083.88999999966,"y":2544579.9800000004}},{"attributes":{"ID":321690,"DIS_CODE":0,"TOWNNAME":"安平區","LI":"西門里","LIN":"18鄰","STREET":"安北路","SECT":" ","MAREA":" ","LANE":"４２６巷","ALLEY":" ","HOUSE_NO":"１７號","E_COORD97":163081.95999999999,"N_COORD97":2544584.9700000002,"ADDRESS":"安北路４２６巷１７號","OBJECTID":321681},"geometry":{"x":163081.95999999996,"y":2544584.9700000025}},{"attributes":{"ID":321691,"DIS_CODE":0,"TOWNNAME":"歸仁區","LI":"崙頂里","LIN":"12鄰","STREET":"凱旋路","SECT":"一段","MAREA":" ","LANE":" ","ALLEY":" ","HOUSE_NO":"５８８號","E_COORD97":177807.129801,"N_COORD97":2539546.6204200001,"ADDRESS":"凱旋路一段５８８號","OBJECTID":321682},"geometry":{"x":177807.12980100047,"y":2539546.6204200014}},{"attributes":{"ID":321692,"DIS_CODE":0,"TOWNNAME":"南區","LI":"日新里","LIN":" ","STREET":"鹽埕路","SECT":" ","MAREA":" ","LANE":"２９１巷","ALLEY":" ","HOUSE_NO":"１１號","E_COORD97":166904.69,"N_COORD97":2541311.77,"ADDRESS":"鹽埕路２９１巷１１號","OBJECTID":321683},"geometry":{"x":166904.69000000041,"y":2541311.7699999996}},{"attributes":{"ID":321693,"DIS_CODE":0,"TOWNNAME":"南區","LI":"日新里","LIN":" ","STREET":"鹽埕路","SECT":" ","MAREA":" ","LANE":"２９１巷","ALLEY":" ","HOUSE_NO":"１５號","E_COORD97":166879.82999999999,"N_COORD97":2541328.1099999999,"ADDRESS":"鹽埕路２９１巷１５號","OBJECTID":321684},"geometry":{"x":166879.83000000007,"y":2541328.1100000013}},{"attributes":{"ID":321694,"DIS_CODE":0,"TOWNNAME":"南區","LI":"日新里","LIN":" ","STREET":"鹽埕路","SECT":" ","MAREA":" ","LANE":"２９１巷","ALLEY":" ","HOUSE_NO":"１７號","E_COORD97":166875.66,"N_COORD97":2541341.4100000001,"ADDRESS":"鹽埕路２９１巷１７號","OBJECTID":321685},"geometry":{"x":166875.66000000108,"y":2541341.410000002}},{"attributes":{"ID":321695,"DIS_CODE":0,"TOWNNAME":"南區","LI":"日新里","LIN":" ","STREET":"鹽埕路","SECT":" ","MAREA":" ","LANE":"２９１巷","ALLEY":" ","HOUSE_NO":"１９號","E_COORD97":166863.70000000001,"N_COORD97":2541346.3799999999,"ADDRESS":"鹽埕路２９１巷１９號","OBJECTID":321686},"geometry":{"x":166863.70000000019,"y":2541346.3800000008}},{"attributes":{"ID":321696,"DIS_CODE":0,"TOWNNAME":"南區","LI":"日新里","LIN":" ","STREET":"鹽埕路","SECT":" ","MAREA":" ","LANE":"２９１巷","ALLEY":" ","HOUSE_NO":"２１號","E_COORD97":166858.85999999999,"N_COORD97":2541350.0099999998,"ADDRESS":"鹽埕路２９１巷２１號","OBJECTID":321687},"geometry":{"x":166858.86000000127,"y":2541350.0100000016}},{"attributes":{"ID":321697,"DIS_CODE":0,"TOWNNAME":"南區","LI":"日新里","LIN":" ","STREET":"鹽埕路","SECT":" ","MAREA":" ","LANE":"２９１巷","ALLEY":" ","HOUSE_NO":"２３號","E_COORD97":166851.37,"N_COORD97":2541353.0699999998,"ADDRESS":"鹽埕路２９１巷２３號","OBJECTID":321688},"geometry":{"x":166851.37000000197,"y":2541353.0700000022}},{"attributes":{"ID":321698,"DIS_CODE":0,"TOWNNAME":"南區","LI":"日新里","LIN":" ","STREET":"鹽埕路","SECT":" ","MAREA":" ","LANE":"２９１巷","ALLEY":" ","HOUSE_NO":"２５號","E_COORD97":166842.25,"N_COORD97":2541355.3900000001,"ADDRESS":"鹽埕路２９１巷２５號","OBJECTID":321689},"geometry":{"x":166842.25000000093,"y":2541355.3900000025}},{"attributes":{"ID":321699,"DIS_CODE":0,"TOWNNAME":"安平區","LI":"西門里","LIN":"18鄰","STREET":"安北路","SECT":" ","MAREA":" ","LANE":"４２６巷","ALLEY":" ","HOUSE_NO":"１８號","E_COORD97":163081.01999999999,"N_COORD97":2544587.8999999999,"ADDRESS":"安北路４２６巷１８號","OBJECTID":321690},"geometry":{"x":163081.01999999955,"y":2544587.8999999985}},{"attributes":{"ID":321700,"DIS_CODE":0,"TOWNNAME":"安平區","LI":"西門里","LIN":"18鄰","STREET":"安北路","SECT":" ","MAREA":" ","LANE":"４２６巷","ALLEY":" ","HOUSE_NO":"１９號","E_COORD97":163079.70000000001,"N_COORD97":2544591.2599999998,"ADDRESS":"安北路４２６巷１９號","OBJECTID":321691},"geometry":{"x":163079.70000000112,"y":2544591.2599999998}},{"attributes":{"ID":321701,"DIS_CODE":0,"TOWNNAME":"安平區","LI":"西門里","LIN":"18鄰","STREET":"安北路","SECT":" ","MAREA":" ","LANE":"４２６巷","ALLEY":" ","HOUSE_NO":"１號","E_COORD97":163108,"N_COORD97":2544519.9199999999,"ADDRESS":"安北路４２６巷１號","OBJECTID":321692},"geometry":{"x":163108.00000000093,"y":2544519.9200000037}},{"attributes":{"ID":321702,"DIS_CODE":0,"TOWNNAME":"安平區","LI":"西門里","LIN":"18鄰","STREET":"安北路","SECT":" ","MAREA":" ","LANE":"４２６巷","ALLEY":" ","HOUSE_NO":"２０號","E_COORD97":163077.63,"N_COORD97":2544595.8599999999,"ADDRESS":"安北路４２６巷２０號","OBJECTID":321693},"geometry":{"x":163077.63000000175,"y":2544595.8599999994}},{"attributes":{"ID":321703,"DIS_CODE":0,"TOWNNAME":"安平區","LI":"西門里","LIN":"18鄰","STREET":"安北路","SECT":" ","MAREA":" ","LANE":"４２６巷","ALLEY":" ","HOUSE_NO":"２１號","E_COORD97":163076.10999999999,"N_COORD97":2544598.46,"ADDRESS":"安北路４２６巷２１號","OBJECTID":321694},"geometry":{"x":163076.11000000034,"y":2544598.4600000046}},{"attributes":{"ID":321704,"DIS_CODE":0,"TOWNNAME":"安平區","LI":"西門里","LIN":"18鄰","STREET":"安北路","SECT":" ","MAREA":" ","LANE":"４２６巷","ALLEY":" ","HOUSE_NO":"２２號","E_COORD97":163076.56,"N_COORD97":2544604.52,"ADDRESS":"安北路４２６巷２２號","OBJECTID":321695},"geometry":{"x":163076.56000000052,"y":2544604.5200000014}},{"attributes":{"ID":321705,"DIS_CODE":0,"TOWNNAME":"安平區","LI":"西門里","LIN":"17鄰","STREET":"安北路","SECT":" ","MAREA":" ","LANE":"３７０巷","ALLEY":" ","HOUSE_NO":"３號","E_COORD97":163200.60000000001,"N_COORD97":2544609.9100000001,"ADDRESS":"安北路３７０巷３號","OBJECTID":321696},"geometry":{"x":163200.59999999963,"y":2544609.9100000001}},{"attributes":{"ID":321706,"DIS_CODE":0,"TOWNNAME":"安平區","LI":"西門里","LIN":"17鄰","STREET":"安北路","SECT":" ","MAREA":" ","LANE":"３７０巷","ALLEY":" ","HOUSE_NO":"５號","E_COORD97":163198.95000000001,"N_COORD97":2544613.73,"ADDRESS":"安北路３７０巷５號","OBJECTID":321697},"geometry":{"x":163198.95000000019,"y":2544613.7300000023}},{"attributes":{"ID":321707,"DIS_CODE":0,"TOWNNAME":"安平區","LI":"西門里","LIN":"17鄰","STREET":"安北路","SECT":" ","MAREA":" ","LANE":"３７０巷","ALLEY":" ","HOUSE_NO":"７號","E_COORD97":163197.04000000001,"N_COORD97":2544617.1600000001,"ADDRESS":"安北路３７０巷７號","OBJECTID":321698},"geometry":{"x":163197.0400000019,"y":2544617.160000002}},{"attributes":{"ID":321708,"DIS_CODE":0,"TOWNNAME":"安平區","LI":"西門里","LIN":"17鄰","STREET":"安北路","SECT":" ","MAREA":" ","LANE":"３７０巷","ALLEY":" ","HOUSE_NO":"９號","E_COORD97":163195.26000000001,"N_COORD97":2544620.6499999999,"ADDRESS":"安北路３７０巷９號","OBJECTID":321699},"geometry":{"x":163195.26000000164,"y":2544620.6500000022}},{"attributes":{"ID":321709,"DIS_CODE":0,"TOWNNAME":"永康區","LI":"中華里","LIN":"15鄰","STREET":"忠義街","SECT":" ","MAREA":" ","LANE":"６０巷","ALLEY":" ","HOUSE_NO":"３號七樓之６","E_COORD97":171785.23000000001,"N_COORD97":2544541.1200000001,"ADDRESS":"忠義街６０巷３號七樓之６","OBJECTID":321700},"geometry":{"x":171785.23000000045,"y":2544541.1200000029}},{"attributes":{"ID":321710,"DIS_CODE":0,"TOWNNAME":"永康區","LI":"中華里","LIN":"15鄰","STREET":"忠義街","SECT":" ","MAREA":" ","LANE":"６０巷","ALLEY":" ","HOUSE_NO":"３號十二樓之１２","E_COORD97":171787.76000000001,"N_COORD97":2544541.1200000001,"ADDRESS":"忠義街６０巷３號十二樓之１２","OBJECTID":321701},"geometry":{"x":171787.75999999978,"y":2544541.1200000029}},{"attributes":{"ID":321711,"DIS_CODE":0,"TOWNNAME":"永康區","LI":"中華里","LIN":"15鄰","STREET":"忠義街","SECT":" ","MAREA":" ","LANE":"６０巷","ALLEY":" ","HOUSE_NO":"１號十樓之２","E_COORD97":171785.26000000001,"N_COORD97":2544541.1200000001,"ADDRESS":"忠義街６０巷１號十樓之２","OBJECTID":321702},"geometry":{"x":171785.26000000071,"y":2544541.1200000029}},{"attributes":{"ID":321712,"DIS_CODE":0,"TOWNNAME":"永康區","LI":"中華里","LIN":"15鄰","STREET":"忠義街","SECT":" ","MAREA":" ","LANE":"６０巷","ALLEY":" ","HOUSE_NO":"３號十樓之１３","E_COORD97":171786.47,"N_COORD97":2544541.1200000001,"ADDRESS":"忠義街６０巷３號十樓之１３","OBJECTID":321703},"geometry":{"x":171786.46999999974,"y":2544541.1200000029}},{"attributes":{"ID":321713,"DIS_CODE":0,"TOWNNAME":"永康區","LI":"中華里","LIN":"15鄰","STREET":"忠義街","SECT":" ","MAREA":" ","LANE":"６０巷","ALLEY":" ","HOUSE_NO":"３號十三樓之６","E_COORD97":171786.48000000001,"N_COORD97":2544541.1200000001,"ADDRESS":"忠義街６０巷３號十三樓之６","OBJECTID":321704},"geometry":{"x":171786.48000000138,"y":2544541.1200000029}},{"attributes":{"ID":321714,"DIS_CODE":0,"TOWNNAME":"新營區","LI":"民榮里","LIN":"17鄰","STREET":"富強街","SECT":" ","MAREA":" ","LANE":" ","ALLEY":" ","HOUSE_NO":"３８號二樓","E_COORD97":178988.16,"N_COORD97":2577803.4500000002,"ADDRESS":"富強街３８號二樓","OBJECTID":321705},"geometry":{"x":178988.16000000015,"y":2577803.4500000011}},{"attributes":{"ID":321715,"DIS_CODE":0,"TOWNNAME":"新營區","LI":"民榮里","LIN":"17鄰","STREET":"富強街","SECT":" ","MAREA":" ","LANE":" ","ALLEY":" ","HOUSE_NO":"３４號七樓","E_COORD97":178988.16,"N_COORD97":2577803.4500000002,"ADDRESS":"富強街３４號七樓","OBJECTID":321706},"geometry":{"x":178988.16000000015,"y":2577803.4500000011}},{"attributes":{"ID":321716,"DIS_CODE":0,"TOWNNAME":"新營區","LI":"民榮里","LIN":"17鄰","STREET":"富強街","SECT":" ","MAREA":" ","LANE":" ","ALLEY":" ","HOUSE_NO":"２８號六樓","E_COORD97":178988.14000000001,"N_COORD97":2577803.4500000002,"ADDRESS":"富強街２８號六樓","OBJECTID":321707},"geometry":{"x":178988.13999999966,"y":2577803.4500000011}},{"attributes":{"ID":321717,"DIS_CODE":0,"TOWNNAME":"新營區","LI":"民榮里","LIN":"17鄰","STREET":"富強街","SECT":" ","MAREA":" ","LANE":" ","ALLEY":" ","HOUSE_NO":"１０號五樓","E_COORD97":178988.07000000001,"N_COORD97":2577803.4500000002,"ADDRESS":"富強街１０號五樓","OBJECTID":321708},"geometry":{"x":178988.07000000123,"y":2577803.4500000011}},{"attributes":{"ID":321718,"DIS_CODE":0,"TOWNNAME":"新營區","LI":"民榮里","LIN":"17鄰","STREET":"富強街","SECT":" ","MAREA":" ","LANE":" ","ALLEY":" ","HOUSE_NO":"１８號四樓","E_COORD97":178988.07000000001,"N_COORD97":2577803.4500000002,"ADDRESS":"富強街１８號四樓","OBJECTID":321709},"geometry":{"x":178988.07000000123,"y":2577803.4500000011}},{"attributes":{"ID":321719,"DIS_CODE":0,"TOWNNAME":"新營區","LI":"民榮里","LIN":"17鄰","STREET":"富強街","SECT":" ","MAREA":" ","LANE":" ","ALLEY":" ","HOUSE_NO":"２４號五樓","E_COORD97":178988.14000000001,"N_COORD97":2577803.4500000002,"ADDRESS":"富強街２４號五樓","OBJECTID":321710},"geometry":{"x":178988.13999999966,"y":2577803.4500000011}},{"attributes":{"ID":321720,"DIS_CODE":0,"TOWNNAME":"新營區","LI":"民榮里","LIN":"17鄰","STREET":"富強街","SECT":" ","MAREA":" ","LANE":" ","ALLEY":" ","HOUSE_NO":"５７之１號七樓","E_COORD97":178911.06,"N_COORD97":2577857.02,"ADDRESS":"富強街５７之１號七樓","OBJECTID":321711},"geometry":{"x":178911.06000000052,"y":2577857.0200000014}},{"attributes":{"ID":321721,"DIS_CODE":0,"TOWNNAME":"南區","LI":"日新里","LIN":" ","STREET":"鹽埕路","SECT":" ","MAREA":" ","LANE":"２９１巷","ALLEY":" ","HOUSE_NO":"３５號","E_COORD97":166799.56,"N_COORD97":2541334.46,"ADDRESS":"鹽埕路２９１巷３５號","OBJECTID":321712},"geometry":{"x":166799.55999999959,"y":2541334.4600000028}},{"attributes":{"ID":321722,"DIS_CODE":0,"TOWNNAME":"南區","LI":"日新里","LIN":" ","STREET":"鹽埕路","SECT":" ","MAREA":" ","LANE":"２９１巷","ALLEY":" ","HOUSE_NO":"３號","E_COORD97":166931.81,"N_COORD97":2541318.3300000001,"ADDRESS":"鹽埕路２９１巷３號","OBJECTID":321713},"geometry":{"x":166931.80999999959,"y":2541318.3300000001}},{"attributes":{"ID":321723,"DIS_CODE":0,"TOWNNAME":"南區","LI":"日新里","LIN":" ","STREET":"鹽埕路","SECT":" ","MAREA":" ","LANE":"２９１巷","ALLEY":" ","HOUSE_NO":"３號之１","E_COORD97":166926.89999999999,"N_COORD97":2541318.6499999999,"ADDRESS":"鹽埕路２９１巷３號之１","OBJECTID":321714},"geometry":{"x":166926.90000000037,"y":2541318.6500000022}},{"attributes":{"ID":321724,"DIS_CODE":0,"TOWNNAME":"南區","LI":"日新里","LIN":" ","STREET":"鹽埕路","SECT":" ","MAREA":" ","LANE":"２９１巷","ALLEY":" ","HOUSE_NO":"３號之２","E_COORD97":166921.57999999999,"N_COORD97":2541318.8500000001,"ADDRESS":"鹽埕路２９１巷３號之２","OBJECTID":321715},"geometry":{"x":166921.58000000101,"y":2541318.8499999996}},{"attributes":{"ID":321725,"DIS_CODE":0,"TOWNNAME":"下營區","LI":"新興里","LIN":"4鄰","STREET":"中山路","SECT":"一段","MAREA":" ","LANE":" ","ALLEY":" ","HOUSE_NO":"４３９號","E_COORD97":175473.08834700001,"N_COORD97":2571030.00147,"ADDRESS":"中山路一段４３９號","OBJECTID":321716},"geometry":{"x":175473.08834700193,"y":2571030.0014680028}},{"attributes":{"ID":321726,"DIS_CODE":0,"TOWNNAME":"永康區","LI":"中華里","LIN":"15鄰","STREET":"忠義街","SECT":" ","MAREA":" ","LANE":"６０巷","ALLEY":" ","HOUSE_NO":"３號八樓之５","E_COORD97":171785.28,"N_COORD97":2544541.1200000001,"ADDRESS":"忠義街６０巷３號八樓之５","OBJECTID":321717},"geometry":{"x":171785.28000000119,"y":2544541.1200000029}},{"attributes":{"ID":321727,"DIS_CODE":0,"TOWNNAME":"永康區","LI":"中華里","LIN":"15鄰","STREET":"忠義街","SECT":" ","MAREA":" ","LANE":"６０巷","ALLEY":" ","HOUSE_NO":"１號十四樓之１４","E_COORD97":171787.64999999999,"N_COORD97":2544541.1200000001,"ADDRESS":"忠義街６０巷１號十四樓之１４","OBJECTID":321718},"geometry":{"x":171787.65000000037,"y":2544541.1200000029}},{"attributes":{"ID":321728,"DIS_CODE":0,"TOWNNAME":"永康區","LI":"中華里","LIN":"15鄰","STREET":"忠義街","SECT":" ","MAREA":" ","LANE":"６０巷","ALLEY":" ","HOUSE_NO":"３號十一樓之１５","E_COORD97":171787.78,"N_COORD97":2544541.1200000001,"ADDRESS":"忠義街６０巷３號十一樓之１５","OBJECTID":321719},"geometry":{"x":171787.78000000026,"y":2544541.1200000029}},{"attributes":{"ID":321729,"DIS_CODE":0,"TOWNNAME":"永康區","LI":"中華里","LIN":"15鄰","STREET":"忠義街","SECT":" ","MAREA":" ","LANE":"６０巷","ALLEY":" ","HOUSE_NO":"１號十四樓之１６","E_COORD97":171787.73000000001,"N_COORD97":2544541.1200000001,"ADDRESS":"忠義街６０巷１號十四樓之１６","OBJECTID":321720},"geometry":{"x":171787.73000000138,"y":2544541.1200000029}},{"attributes":{"ID":321730,"DIS_CODE":0,"TOWNNAME":"永康區","LI":"中華里","LIN":"15鄰","STREET":"忠義街","SECT":" ","MAREA":" ","LANE":"６０巷","ALLEY":" ","HOUSE_NO":"１號十四樓之１１","E_COORD97":171787.63,"N_COORD97":2544541.1200000001,"ADDRESS":"忠義街６０巷１號十四樓之１１","OBJECTID":321721},"geometry":{"x":171787.63000000082,"y":2544541.1200000029}},{"attributes":{"ID":321731,"DIS_CODE":0,"TOWNNAME":"永康區","LI":"中華里","LIN":"15鄰","STREET":"忠義街","SECT":" ","MAREA":" ","LANE":"６０巷","ALLEY":" ","HOUSE_NO":"１號十四樓之２","E_COORD97":171786.51000000001,"N_COORD97":2544541.1200000001,"ADDRESS":"忠義街６０巷１號十四樓之２","OBJECTID":321722},"geometry":{"x":171786.51000000164,"y":2544541.1200000029}},{"attributes":{"ID":321732,"DIS_CODE":0,"TOWNNAME":"永康區","LI":"中華里","LIN":"15鄰","STREET":"忠義街","SECT":" ","MAREA":" ","LANE":"６０巷","ALLEY":" ","HOUSE_NO":"３號十三樓之１０","E_COORD97":171787.67999999999,"N_COORD97":2544541.1200000001,"ADDRESS":"忠義街６０巷３號十三樓之１０","OBJECTID":321723},"geometry":{"x":171787.68000000063,"y":2544541.1200000029}},{"attributes":{"ID":321733,"DIS_CODE":0,"TOWNNAME":"永康區","LI":"中華里","LIN":"15鄰","STREET":"忠義街","SECT":" ","MAREA":" ","LANE":"６０巷","ALLEY":" ","HOUSE_NO":"３號十一樓之１","E_COORD97":171786.38,"N_COORD97":2544541.1200000001,"ADDRESS":"忠義街６０巷３號十一樓之１","OBJECTID":321724},"geometry":{"x":171786.38000000082,"y":2544541.1200000029}},{"attributes":{"ID":321734,"DIS_CODE":0,"TOWNNAME":"安平區","LI":"西門里","LIN":"18鄰","STREET":"安北路","SECT":" ","MAREA":" ","LANE":"４２６巷","ALLEY":" ","HOUSE_NO":"２３號","E_COORD97":163075.39000000001,"N_COORD97":2544608.7400000002,"ADDRESS":"安北路４２６巷２３號","OBJECTID":321725},"geometry":{"x":163075.38999999966,"y":2544608.7400000002}},{"attributes":{"ID":321735,"DIS_CODE":0,"TOWNNAME":"安平區","LI":"西門里","LIN":"18鄰","STREET":"安北路","SECT":" ","MAREA":" ","LANE":"４２６巷","ALLEY":" ","HOUSE_NO":"２４號","E_COORD97":163073.23000000001,"N_COORD97":2544612.79,"ADDRESS":"安北路４２６巷２４號","OBJECTID":321726},"geometry":{"x":163073.23000000138,"y":2544612.790000001}},{"attributes":{"ID":321736,"DIS_CODE":0,"TOWNNAME":"安平區","LI":"西門里","LIN":"18鄰","STREET":"安北路","SECT":" ","MAREA":" ","LANE":"４２６巷","ALLEY":" ","HOUSE_NO":"２５號","E_COORD97":163065.57999999999,"N_COORD97":2544605.6899999999,"ADDRESS":"安北路４２６巷２５號","OBJECTID":321727},"geometry":{"x":163065.58000000007,"y":2544605.6900000032}},{"attributes":{"ID":321737,"DIS_CODE":0,"TOWNNAME":"安平區","LI":"西門里","LIN":"18鄰","STREET":"安北路","SECT":" ","MAREA":" ","LANE":"４２６巷","ALLEY":" ","HOUSE_NO":"２６號","E_COORD97":163060.73000000001,"N_COORD97":2544604.25,"ADDRESS":"安北路４２６巷２６號","OBJECTID":321728},"geometry":{"x":163060.73000000138,"y":2544604.25}},{"attributes":{"ID":321738,"DIS_CODE":0,"TOWNNAME":"安平區","LI":"西門里","LIN":"18鄰","STREET":"安北路","SECT":" ","MAREA":" ","LANE":"４２６巷","ALLEY":" ","HOUSE_NO":"２７號","E_COORD97":163055.60000000001,"N_COORD97":2544602.27,"ADDRESS":"安北路４２６巷２７號","OBJECTID":321729},"geometry":{"x":163055.60000000149,"y":2544602.2700000014}},{"attributes":{"ID":321739,"DIS_CODE":0,"TOWNNAME":"安平區","LI":"西門里","LIN":"18鄰","STREET":"安北路","SECT":" ","MAREA":" ","LANE":"４２６巷","ALLEY":" ","HOUSE_NO":"２８號","E_COORD97":163050.48000000001,"N_COORD97":2544600.21,"ADDRESS":"安北路４２６巷２８號","OBJECTID":321730},"geometry":{"x":163050.48000000231,"y":2544600.2100000046}},{"attributes":{"ID":321740,"DIS_CODE":0,"TOWNNAME":"安平區","LI":"西門里","LIN":"18鄰","STREET":"安北路","SECT":" ","MAREA":" ","LANE":"４２６巷","ALLEY":" ","HOUSE_NO":"２９號","E_COORD97":163045.98000000001,"N_COORD97":2544597.96,"ADDRESS":"安北路４２６巷２９號","OBJECTID":321731},"geometry":{"x":163045.98000000138,"y":2544597.9600000009}},{"attributes":{"ID":321741,"DIS_CODE":0,"TOWNNAME":"佳里區","LI":"建南里","LIN":"15鄰","STREET":"光復路","SECT":" ","MAREA":" ","LANE":" ","ALLEY":" ","HOUSE_NO":"８１號","E_COORD97":165516.134869,"N_COORD97":2561938.9681600002,"ADDRESS":"光復路８１號","OBJECTID":321732},"geometry":{"x":165516.13486900181,"y":2561938.9681580011}},{"attributes":{"ID":321742,"DIS_CODE":0,"TOWNNAME":"安平區","LI":"西門里","LIN":"18鄰","STREET":"安北路","SECT":" ","MAREA":" ","LANE":"４２６巷","ALLEY":" ","HOUSE_NO":"２號","E_COORD97":163106.54999999999,"N_COORD97":2544524.1899999999,"ADDRESS":"安北路４２６巷２號","OBJECTID":321733},"geometry":{"x":163106.54999999981,"y":2544524.1900000032}},{"attributes":{"ID":321743,"DIS_CODE":0,"TOWNNAME":"安平區","LI":"西門里","LIN":"18鄰","STREET":"安北路","SECT":" ","MAREA":" ","LANE":"４２６巷","ALLEY":" ","HOUSE_NO":"３０號","E_COORD97":163038.16,"N_COORD97":2544617.6000000001,"ADDRESS":"安北路４２６巷３０號","OBJECTID":321734},"geometry":{"x":163038.16000000015,"y":2544617.6000000015}},{"attributes":{"ID":321744,"DIS_CODE":0,"TOWNNAME":"安平區","LI":"西門里","LIN":"18鄰","STREET":"安北路","SECT":" ","MAREA":" ","LANE":"４２６巷","ALLEY":" ","HOUSE_NO":"３１號","E_COORD97":163043.19,"N_COORD97":2544619.2200000002,"ADDRESS":"安北路４２６巷３１號","OBJECTID":321735},"geometry":{"x":163043.19000000041,"y":2544619.2200000007}},{"attributes":{"ID":321745,"DIS_CODE":0,"TOWNNAME":"安平區","LI":"育平里","LIN":"39鄰","STREET":"平豐路","SECT":" ","MAREA":" ","LANE":"４４巷","ALLEY":" ","HOUSE_NO":"２２號","E_COORD97":164403.73999999999,"N_COORD97":2542997.4300000002,"ADDRESS":"平豐路４４巷２２號","OBJECTID":321736},"geometry":{"x":164403.74000000022,"y":2542997.4300000016}},{"attributes":{"ID":321746,"DIS_CODE":0,"TOWNNAME":"安平區","LI":"育平里","LIN":"39鄰","STREET":"平豐路","SECT":" ","MAREA":" ","LANE":"４４巷","ALLEY":" ","HOUSE_NO":"２４號","E_COORD97":164408.34,"N_COORD97":2542995.9700000002,"ADDRESS":"平豐路４４巷２４號","OBJECTID":321737},"geometry":{"x":164408.33999999985,"y":2542995.9700000025}},{"attributes":{"ID":321747,"DIS_CODE":0,"TOWNNAME":"安平區","LI":"育平里","LIN":"39鄰","STREET":"平豐路","SECT":" ","MAREA":" ","LANE":"４４巷","ALLEY":" ","HOUSE_NO":"２６號","E_COORD97":164413.23999999999,"N_COORD97":2542994.7000000002,"ADDRESS":"平豐路４４巷２６號","OBJECTID":321738},"geometry":{"x":164413.24000000115,"y":2542994.700000003}},{"attributes":{"ID":321748,"DIS_CODE":0,"TOWNNAME":"安平區","LI":"育平里","LIN":"39鄰","STREET":"平豐路","SECT":" ","MAREA":" ","LANE":"４４巷","ALLEY":" ","HOUSE_NO":"３０號","E_COORD97":164418.32999999999,"N_COORD97":2542993.52,"ADDRESS":"平豐路４４巷３０號","OBJECTID":321739},"geometry":{"x":164418.33000000007,"y":2542993.5200000014}},{"attributes":{"ID":321749,"DIS_CODE":0,"TOWNNAME":"永康區","LI":"中華里","LIN":"15鄰","STREET":"忠義街","SECT":" ","MAREA":" ","LANE":"６０巷","ALLEY":" ","HOUSE_NO":"３號十一樓之７","E_COORD97":171786.45000000001,"N_COORD97":2544541.1200000001,"ADDRESS":"忠義街６０巷３號十一樓之７","OBJECTID":321740},"geometry":{"x":171786.45000000112,"y":2544541.1200000029}},{"attributes":{"ID":321750,"DIS_CODE":0,"TOWNNAME":"永康區","LI":"中華里","LIN":"15鄰","STREET":"忠義街","SECT":" ","MAREA":" ","LANE":"６０巷","ALLEY":" ","HOUSE_NO":"１號十四樓之５","E_COORD97":171786.53,"N_COORD97":2544541.1200000001,"ADDRESS":"忠義街６０巷１號十四樓之５","OBJECTID":321741},"geometry":{"x":171786.53000000026,"y":2544541.1200000029}},{"attributes":{"ID":321751,"DIS_CODE":0,"TOWNNAME":"新營區","LI":"民榮里","LIN":"17鄰","STREET":"富強街","SECT":" ","MAREA":" ","LANE":" ","ALLEY":" ","HOUSE_NO":"５７之１號四樓","E_COORD97":178911.06,"N_COORD97":2577857.02,"ADDRESS":"富強街５７之１號四樓","OBJECTID":321742},"geometry":{"x":178911.06000000052,"y":2577857.0200000014}},{"attributes":{"ID":321752,"DIS_CODE":0,"TOWNNAME":"新營區","LI":"民榮里","LIN":"17鄰","STREET":"富強街","SECT":" ","MAREA":" ","LANE":" ","ALLEY":" ","HOUSE_NO":"２６號三樓","E_COORD97":178988.14000000001,"N_COORD97":2577803.4500000002,"ADDRESS":"富強街２６號三樓","OBJECTID":321743},"geometry":{"x":178988.13999999966,"y":2577803.4500000011}},{"attributes":{"ID":321753,"DIS_CODE":0,"TOWNNAME":"新營區","LI":"民榮里","LIN":"17鄰","STREET":"富強街","SECT":" ","MAREA":" ","LANE":" ","ALLEY":" ","HOUSE_NO":"２６號八樓","E_COORD97":178988.14000000001,"N_COORD97":2577803.4500000002,"ADDRESS":"富強街２６號八樓","OBJECTID":321744},"geometry":{"x":178988.13999999966,"y":2577803.4500000011}},{"attributes":{"ID":321754,"DIS_CODE":0,"TOWNNAME":"新營區","LI":"民榮里","LIN":"17鄰","STREET":"富強街","SECT":" ","MAREA":" ","LANE":" ","ALLEY":" ","HOUSE_NO":"５７號三樓","E_COORD97":178908.56,"N_COORD97":2577856.98,"ADDRESS":"富強街５７號三樓","OBJECTID":321745},"geometry":{"x":178908.55999999959,"y":2577856.9800000004}},{"attributes":{"ID":321755,"DIS_CODE":0,"TOWNNAME":"南區","LI":"日新里","LIN":" ","STREET":"鹽埕路","SECT":" ","MAREA":" ","LANE":"２９１巷","ALLEY":" ","HOUSE_NO":"５號","E_COORD97":166917.09,"N_COORD97":2541304.4199999999,"ADDRESS":"鹽埕路２９１巷５號","OBJECTID":321746},"geometry":{"x":166917.08999999985,"y":2541304.4199999999}},{"attributes":{"ID":321756,"DIS_CODE":0,"TOWNNAME":"南區","LI":"日新里","LIN":" ","STREET":"鹽埕路","SECT":" ","MAREA":" ","LANE":"２９１巷","ALLEY":" ","HOUSE_NO":"７號","E_COORD97":166916.04999999999,"N_COORD97":2541299.3100000001,"ADDRESS":"鹽埕路２９１巷７號","OBJECTID":321747},"geometry":{"x":166916.05000000168,"y":2541299.3100000005}},{"attributes":{"ID":321757,"DIS_CODE":0,"TOWNNAME":"南區","LI":"日新里","LIN":" ","STREET":"鹽埕路","SECT":" ","MAREA":" ","LANE":"２９１巷","ALLEY":" ","HOUSE_NO":"９號","E_COORD97":166910.73999999999,"N_COORD97":2541310.52,"ADDRESS":"鹽埕路２９１巷９號","OBJECTID":321748},"geometry":{"x":166910.74000000115,"y":2541310.5199999996}},{"attributes":{"ID":321758,"DIS_CODE":0,"TOWNNAME":"南區","LI":"田寮里","LIN":" ","STREET":"西門路","SECT":"一段","MAREA":" ","LANE":"３３３巷","ALLEY":" ","HOUSE_NO":"３號","E_COORD97":167688.56,"N_COORD97":2542051.75,"ADDRESS":"西門路一段３３３巷３號","OBJECTID":321749},"geometry":{"x":167688.55999999866,"y":2542051.75}},{"attributes":{"ID":321759,"DIS_CODE":0,"TOWNNAME":"南區","LI":"田寮里","LIN":"7鄰","STREET":"新興路","SECT":" ","MAREA":" ","LANE":"２１７巷","ALLEY":" ","HOUSE_NO":"１號","E_COORD97":167341.64000000001,"N_COORD97":2541953.7599999998,"ADDRESS":"新興路２１７巷１號","OBJECTID":321750},"geometry":{"x":167341.63999999966,"y":2541953.7599999998}},{"attributes":{"ID":321760,"DIS_CODE":0,"TOWNNAME":"永康區","LI":"中華里","LIN":"15鄰","STREET":"忠義街","SECT":" ","MAREA":" ","LANE":"６０巷","ALLEY":" ","HOUSE_NO":"３號十五樓之１","E_COORD97":171786.38,"N_COORD97":2544541.1200000001,"ADDRESS":"忠義街６０巷３號十五樓之１","OBJECTID":321751},"geometry":{"x":171786.38000000082,"y":2544541.1200000029}},{"attributes":{"ID":321761,"DIS_CODE":0,"TOWNNAME":"永康區","LI":"中華里","LIN":"15鄰","STREET":"忠義街","SECT":" ","MAREA":" ","LANE":"６０巷","ALLEY":" ","HOUSE_NO":"１號十三樓之１６","E_COORD97":171787.73000000001,"N_COORD97":2544541.1200000001,"ADDRESS":"忠義街６０巷１號十三樓之１６","OBJECTID":321752},"geometry":{"x":171787.73000000138,"y":2544541.1200000029}},{"attributes":{"ID":321762,"DIS_CODE":0,"TOWNNAME":"永康區","LI":"中華里","LIN":"15鄰","STREET":"忠義街","SECT":" ","MAREA":" ","LANE":"６０巷","ALLEY":" ","HOUSE_NO":"３號十二樓之１５","E_COORD97":171787.78,"N_COORD97":2544541.1200000001,"ADDRESS":"忠義街６０巷３號十二樓之１５","OBJECTID":321753},"geometry":{"x":171787.78000000026,"y":2544541.1200000029}},{"attributes":{"ID":321763,"DIS_CODE":0,"TOWNNAME":"新營區","LI":"民榮里","LIN":"17鄰","STREET":"富強街","SECT":" ","MAREA":" ","LANE":" ","ALLEY":" ","HOUSE_NO":"２２號四樓","E_COORD97":178988.14000000001,"N_COORD97":2577803.4500000002,"ADDRESS":"富強街２２號四樓","OBJECTID":321754},"geometry":{"x":178988.13999999966,"y":2577803.4500000011}},{"attributes":{"ID":321764,"DIS_CODE":0,"TOWNNAME":"新營區","LI":"民榮里","LIN":"17鄰","STREET":"富強街","SECT":" ","MAREA":" ","LANE":" ","ALLEY":" ","HOUSE_NO":"１０號六樓","E_COORD97":178988.07000000001,"N_COORD97":2577803.4500000002,"ADDRESS":"富強街１０號六樓","OBJECTID":321755},"geometry":{"x":178988.07000000123,"y":2577803.4500000011}},{"attributes":{"ID":321765,"DIS_CODE":0,"TOWNNAME":"新營區","LI":"民榮里","LIN":"17鄰","STREET":"富強街","SECT":" ","MAREA":" ","LANE":" ","ALLEY":" ","HOUSE_NO":"２４號四樓","E_COORD97":178988.14000000001,"N_COORD97":2577803.4500000002,"ADDRESS":"富強街２４號四樓","OBJECTID":321756},"geometry":{"x":178988.13999999966,"y":2577803.4500000011}},{"attributes":{"ID":321766,"DIS_CODE":0,"TOWNNAME":"新營區","LI":"民榮里","LIN":"17鄰","STREET":"富強街","SECT":" ","MAREA":" ","LANE":" ","ALLEY":" ","HOUSE_NO":"２６號四樓","E_COORD97":178988.14000000001,"N_COORD97":2577803.4500000002,"ADDRESS":"富強街２６號四樓","OBJECTID":321757},"geometry":{"x":178988.13999999966,"y":2577803.4500000011}},{"attributes":{"ID":321767,"DIS_CODE":0,"TOWNNAME":"新營區","LI":"民榮里","LIN":"17鄰","STREET":"富強街","SECT":" ","MAREA":" ","LANE":" ","ALLEY":" ","HOUSE_NO":"２２號七樓","E_COORD97":178988.14000000001,"N_COORD97":2577803.4500000002,"ADDRESS":"富強街２２號七樓","OBJECTID":321758},"geometry":{"x":178988.13999999966,"y":2577803.4500000011}},{"attributes":{"ID":321768,"DIS_CODE":0,"TOWNNAME":"南區","LI":"田寮里","LIN":"6鄰","STREET":"新興路","SECT":" ","MAREA":" ","LANE":"２１７巷","ALLEY":" ","HOUSE_NO":"２號","E_COORD97":167330.07000000001,"N_COORD97":2541942,"ADDRESS":"新興路２１７巷２號","OBJECTID":321759},"geometry":{"x":167330.07000000216,"y":2541942}},{"attributes":{"ID":321769,"DIS_CODE":0,"TOWNNAME":"南區","LI":"田寮里","LIN":"14鄰","STREET":"西門路","SECT":"一段","MAREA":" ","LANE":"３６１巷","ALLEY":" ","HOUSE_NO":"２號","E_COORD97":167713.10999999999,"N_COORD97":2542123.75,"ADDRESS":"西門路一段３６１巷２號","OBJECTID":321760},"geometry":{"x":167713.11000000127,"y":2542123.7499999981}},{"attributes":{"ID":321770,"DIS_CODE":0,"TOWNNAME":"南區","LI":"田寮里","LIN":"14鄰","STREET":"西門路","SECT":"一段","MAREA":" ","LANE":"３６１巷","ALLEY":" ","HOUSE_NO":"４號","E_COORD97":167709.16,"N_COORD97":2542123.6000000001,"ADDRESS":"西門路一段３６１巷４號","OBJECTID":321761},"geometry":{"x":167709.16000000108,"y":2542123.5999999996}},{"attributes":{"ID":321771,"DIS_CODE":0,"TOWNNAME":"南區","LI":"田寮里","LIN":"14鄰","STREET":"西門路","SECT":"一段","MAREA":" ","LANE":"３６１巷","ALLEY":" ","HOUSE_NO":"６號","E_COORD97":167705.20999999999,"N_COORD97":2542123.75,"ADDRESS":"西門路一段３６１巷６號","OBJECTID":321762},"geometry":{"x":167705.21000000089,"y":2542123.7499999981}},{"attributes":{"ID":321772,"DIS_CODE":0,"TOWNNAME":"南區","LI":"田寮里","LIN":"14鄰","STREET":"西門路","SECT":"一段","MAREA":" ","LANE":"３６１巷","ALLEY":" ","HOUSE_NO":"８號","E_COORD97":167695.91,"N_COORD97":2542123.8900000001,"ADDRESS":"西門路一段３６１巷８號","OBJECTID":321763},"geometry":{"x":167695.91000000108,"y":2542123.8900000043}},{"attributes":{"ID":321773,"DIS_CODE":0,"TOWNNAME":"南區","LI":"田寮里","LIN":"15鄰","STREET":"新興路","SECT":" ","MAREA":" ","LANE":"９３巷","ALLEY":" ","HOUSE_NO":"７號","E_COORD97":167606.73999999999,"N_COORD97":2542132.2000000002,"ADDRESS":"新興路９３巷７號","OBJECTID":321764},"geometry":{"x":167606.74000000209,"y":2542132.1999999993}},{"attributes":{"ID":321774,"DIS_CODE":0,"TOWNNAME":"南區","LI":"白雪里","LIN":" ","STREET":"鹽埕路","SECT":" ","MAREA":" ","LANE":"１５９巷","ALLEY":" ","HOUSE_NO":"７０號","E_COORD97":166649.98999999999,"N_COORD97":2541157.4300000002,"ADDRESS":"鹽埕路１５９巷７０號","OBJECTID":321765},"geometry":{"x":166649.99000000022,"y":2541157.4300000016}},{"attributes":{"ID":321775,"DIS_CODE":0,"TOWNNAME":"永康區","LI":"中華里","LIN":"15鄰","STREET":"忠義街","SECT":" ","MAREA":" ","LANE":"６０巷","ALLEY":" ","HOUSE_NO":"１號八樓之１","E_COORD97":171785.13,"N_COORD97":2544541.1200000001,"ADDRESS":"忠義街６０巷１號八樓之１","OBJECTID":321766},"geometry":{"x":171785.12999999989,"y":2544541.1200000029}},{"attributes":{"ID":321776,"DIS_CODE":0,"TOWNNAME":"永康區","LI":"中華里","LIN":"15鄰","STREET":"忠義街","SECT":" ","MAREA":" ","LANE":"６０巷","ALLEY":" ","HOUSE_NO":"１號十四樓之１５","E_COORD97":171787.78,"N_COORD97":2544541.1200000001,"ADDRESS":"忠義街６０巷１號十四樓之１５","OBJECTID":321767},"geometry":{"x":171787.78000000026,"y":2544541.1200000029}},{"attributes":{"ID":321777,"DIS_CODE":0,"TOWNNAME":"永康區","LI":"中華里","LIN":"15鄰","STREET":"忠義街","SECT":" ","MAREA":" ","LANE":"６０巷","ALLEY":" ","HOUSE_NO":"１號八樓之５","E_COORD97":171785.28,"N_COORD97":2544541.1200000001,"ADDRESS":"忠義街６０巷１號八樓之５","OBJECTID":321768},"geometry":{"x":171785.28000000119,"y":2544541.1200000029}},{"attributes":{"ID":321778,"DIS_CODE":0,"TOWNNAME":"新營區","LI":"民榮里","LIN":"17鄰","STREET":"富強街","SECT":" ","MAREA":" ","LANE":" ","ALLEY":" ","HOUSE_NO":"５７號四樓","E_COORD97":178908.56,"N_COORD97":2577856.98,"ADDRESS":"富強街５７號四樓","OBJECTID":321769},"geometry":{"x":178908.55999999959,"y":2577856.9800000004}},{"attributes":{"ID":321779,"DIS_CODE":0,"TOWNNAME":"新營區","LI":"民榮里","LIN":"17鄰","STREET":"富強街","SECT":" ","MAREA":" ","LANE":" ","ALLEY":" ","HOUSE_NO":"２６號七樓","E_COORD97":178988.14000000001,"N_COORD97":2577803.4500000002,"ADDRESS":"富強街２６號七樓","OBJECTID":321770},"geometry":{"x":178988.13999999966,"y":2577803.4500000011}},{"attributes":{"ID":321780,"DIS_CODE":0,"TOWNNAME":"新營區","LI":"民榮里","LIN":"17鄰","STREET":"富強街","SECT":" ","MAREA":" ","LANE":" ","ALLEY":" ","HOUSE_NO":"１８號五樓","E_COORD97":178988.07000000001,"N_COORD97":2577803.4500000002,"ADDRESS":"富強街１８號五樓","OBJECTID":321771},"geometry":{"x":178988.07000000123,"y":2577803.4500000011}},{"attributes":{"ID":321781,"DIS_CODE":0,"TOWNNAME":"新營區","LI":"民榮里","LIN":"17鄰","STREET":"富強街","SECT":" ","MAREA":" ","LANE":" ","ALLEY":" ","HOUSE_NO":"１８號七樓","E_COORD97":178988.07000000001,"N_COORD97":2577803.4500000002,"ADDRESS":"富強街１８號七樓","OBJECTID":321772},"geometry":{"x":178988.07000000123,"y":2577803.4500000011}},{"attributes":{"ID":321782,"DIS_CODE":0,"TOWNNAME":"新營區","LI":"民榮里","LIN":"17鄰","STREET":"富強街","SECT":" ","MAREA":" ","LANE":" ","ALLEY":" ","HOUSE_NO":"１４號五樓","E_COORD97":178988.07000000001,"N_COORD97":2577803.4500000002,"ADDRESS":"富強街１４號五樓","OBJECTID":321773},"geometry":{"x":178988.07000000123,"y":2577803.4500000011}},{"attributes":{"ID":321783,"DIS_CODE":0,"TOWNNAME":"新營區","LI":"民榮里","LIN":"17鄰","STREET":"富強街","SECT":" ","MAREA":" ","LANE":" ","ALLEY":" ","HOUSE_NO":"５７號六樓","E_COORD97":178908.56,"N_COORD97":2577856.98,"ADDRESS":"富強街５７號六樓","OBJECTID":321774},"geometry":{"x":178908.55999999959,"y":2577856.9800000004}},{"attributes":{"ID":321784,"DIS_CODE":0,"TOWNNAME":"新營區","LI":"民榮里","LIN":"17鄰","STREET":"富強街","SECT":" ","MAREA":" ","LANE":" ","ALLEY":" ","HOUSE_NO":"５７之１號二樓","E_COORD97":178911.06,"N_COORD97":2577857.02,"ADDRESS":"富強街５７之１號二樓","OBJECTID":321775},"geometry":{"x":178911.06000000052,"y":2577857.0200000014}},{"attributes":{"ID":321785,"DIS_CODE":0,"TOWNNAME":"南區","LI":"白雪里","LIN":" ","STREET":"鹽埕路","SECT":" ","MAREA":" ","LANE":" ","ALLEY":" ","HOUSE_NO":"８１號","E_COORD97":166832.78,"N_COORD97":2540818.71,"ADDRESS":"鹽埕路８１號","OBJECTID":321776},"geometry":{"x":166832.78000000026,"y":2540818.7100000009}},{"attributes":{"ID":321786,"DIS_CODE":0,"TOWNNAME":"南區","LI":"白雪里","LIN":" ","STREET":"鹽埕路","SECT":" ","MAREA":" ","LANE":"２９１巷","ALLEY":" ","HOUSE_NO":"９６號","E_COORD97":166678.79000000001,"N_COORD97":2541196.5299999998,"ADDRESS":"鹽埕路２９１巷９６號","OBJECTID":321777},"geometry":{"x":166678.78999999911,"y":2541196.5300000012}},{"attributes":{"ID":321787,"DIS_CODE":0,"TOWNNAME":"南區","LI":"白雪里","LIN":" ","STREET":"鹽埕路","SECT":" ","MAREA":" ","LANE":"２９１巷","ALLEY":" ","HOUSE_NO":"９８號","E_COORD97":166676.29999999999,"N_COORD97":2541192.0299999998,"ADDRESS":"鹽埕路２９１巷９８號","OBJECTID":321778},"geometry":{"x":166676.29999999981,"y":2541192.0299999993}},{"attributes":{"ID":321788,"DIS_CODE":0,"TOWNNAME":"南區","LI":"白雪里","LIN":" ","STREET":"鹽埕路","SECT":" ","MAREA":" ","LANE":"２９１巷","ALLEY":" ","HOUSE_NO":"１００號","E_COORD97":166675.26000000001,"N_COORD97":2541188.9100000001,"ADDRESS":"鹽埕路２９１巷１００號","OBJECTID":321779},"geometry":{"x":166675.25999999978,"y":2541188.910000002}},{"attributes":{"ID":321789,"DIS_CODE":0,"TOWNNAME":"南區","LI":"白雪里","LIN":" ","STREET":"鹽埕路","SECT":" ","MAREA":" ","LANE":"２９１巷","ALLEY":" ","HOUSE_NO":"１０２號","E_COORD97":166673.17999999999,"N_COORD97":2541185.0099999998,"ADDRESS":"鹽埕路２９１巷１０２號","OBJECTID":321780},"geometry":{"x":166673.18000000063,"y":2541185.0099999998}},{"attributes":{"ID":321790,"DIS_CODE":0,"TOWNNAME":"南區","LI":"白雪里","LIN":" ","STREET":"鹽埕路","SECT":" ","MAREA":" ","LANE":"２９１巷","ALLEY":" ","HOUSE_NO":"１０４號","E_COORD97":166669.26999999999,"N_COORD97":2541181.8900000001,"ADDRESS":"鹽埕路２９１巷１０４號","OBJECTID":321781},"geometry":{"x":166669.26999999955,"y":2541181.8900000025}},{"attributes":{"ID":321791,"DIS_CODE":0,"TOWNNAME":"南區","LI":"白雪里","LIN":" ","STREET":"鹽埕路","SECT":" ","MAREA":" ","LANE":"２９１巷","ALLEY":" ","HOUSE_NO":"１０６號","E_COORD97":166667.97,"N_COORD97":2541177.7400000002,"ADDRESS":"鹽埕路２９１巷１０６號","OBJECTID":321782},"geometry":{"x":166667.97000000067,"y":2541177.7400000002}},{"attributes":{"ID":321792,"DIS_CODE":0,"TOWNNAME":"下營區","LI":"下營里","LIN":"14鄰","STREET":"民權一街","SECT":" ","MAREA":" ","LANE":" ","ALLEY":" ","HOUSE_NO":"３０號","E_COORD97":174558.77767099999,"N_COORD97":2570410.1254199999,"ADDRESS":"民權一街３０號","OBJECTID":321783},"geometry":{"x":174558.77767100185,"y":2570410.125419002}},{"attributes":{"ID":321793,"DIS_CODE":0,"TOWNNAME":"南區","LI":"白雪里","LIN":" ","STREET":"鹽埕路","SECT":" ","MAREA":" ","LANE":"２９１巷","ALLEY":" ","HOUSE_NO":"１０８號","E_COORD97":166664.59,"N_COORD97":2541174.6200000001,"ADDRESS":"鹽埕路２９１巷１０８號","OBJECTID":321784},"geometry":{"x":166664.58999999985,"y":2541174.6200000029}},{"attributes":{"ID":321794,"DIS_CODE":0,"TOWNNAME":"南區","LI":"白雪里","LIN":" ","STREET":"鹽埕路","SECT":" ","MAREA":" ","LANE":"２９１巷","ALLEY":" ","HOUSE_NO":"１１０號","E_COORD97":166663.03,"N_COORD97":2541169.1600000001,"ADDRESS":"鹽埕路２９１巷１１０號","OBJECTID":321785},"geometry":{"x":166663.03000000119,"y":2541169.160000002}},{"attributes":{"ID":321795,"DIS_CODE":0,"TOWNNAME":"永康區","LI":"中華里","LIN":"15鄰","STREET":"忠義街","SECT":" ","MAREA":" ","LANE":"６０巷","ALLEY":" ","HOUSE_NO":"１號十四樓之１０","E_COORD97":171787.67999999999,"N_COORD97":2544541.1200000001,"ADDRESS":"忠義街６０巷１號十四樓之１０","OBJECTID":321786},"geometry":{"x":171787.68000000063,"y":2544541.1200000029}},{"attributes":{"ID":321796,"DIS_CODE":0,"TOWNNAME":"永康區","LI":"中華里","LIN":"15鄰","STREET":"忠義街","SECT":" ","MAREA":" ","LANE":"６０巷","ALLEY":" ","HOUSE_NO":"１號十五樓之１４","E_COORD97":171787.64999999999,"N_COORD97":2544541.1200000001,"ADDRESS":"忠義街６０巷１號十五樓之１４","OBJECTID":321787},"geometry":{"x":171787.65000000037,"y":2544541.1200000029}},{"attributes":{"ID":321797,"DIS_CODE":0,"TOWNNAME":"永康區","LI":"中華里","LIN":"15鄰","STREET":"忠義街","SECT":" ","MAREA":" ","LANE":"６０巷","ALLEY":" ","HOUSE_NO":"１號十四樓之６","E_COORD97":171786.48000000001,"N_COORD97":2544541.1200000001,"ADDRESS":"忠義街６０巷１號十四樓之６","OBJECTID":321788},"geometry":{"x":171786.48000000138,"y":2544541.1200000029}},{"attributes":{"ID":321798,"DIS_CODE":0,"TOWNNAME":"永康區","LI":"中華里","LIN":"15鄰","STREET":"忠義街","SECT":" ","MAREA":" ","LANE":"６０巷","ALLEY":" ","HOUSE_NO":"３號十一樓之１０","E_COORD97":171787.67999999999,"N_COORD97":2544541.1200000001,"ADDRESS":"忠義街６０巷３號十一樓之１０","OBJECTID":321789},"geometry":{"x":171787.68000000063,"y":2544541.1200000029}},{"attributes":{"ID":321799,"DIS_CODE":0,"TOWNNAME":"永康區","LI":"中華里","LIN":"15鄰","STREET":"忠義街","SECT":" ","MAREA":" ","LANE":"６０巷","ALLEY":" ","HOUSE_NO":"３號十三樓之１６","E_COORD97":171787.73000000001,"N_COORD97":2544541.1200000001,"ADDRESS":"忠義街６０巷３號十三樓之１６","OBJECTID":321790},"geometry":{"x":171787.73000000138,"y":2544541.1200000029}},{"attributes":{"ID":321800,"DIS_CODE":0,"TOWNNAME":"永康區","LI":"中華里","LIN":"15鄰","STREET":"忠義街","SECT":" ","MAREA":" ","LANE":"６０巷","ALLEY":" ","HOUSE_NO":"１號十四樓之８","E_COORD97":171786.51999999999,"N_COORD97":2544541.1200000001,"ADDRESS":"忠義街６０巷１號十四樓之８","OBJECTID":321791},"geometry":{"x":171786.52000000048,"y":2544541.1200000029}},{"attributes":{"ID":321801,"DIS_CODE":0,"TOWNNAME":"永康區","LI":"中華里","LIN":"15鄰","STREET":"忠義街","SECT":" ","MAREA":" ","LANE":"６０巷","ALLEY":" ","HOUSE_NO":"３號八樓之２","E_COORD97":171785.26000000001,"N_COORD97":2544541.1200000001,"ADDRESS":"忠義街６０巷３號八樓之２","OBJECTID":321792},"geometry":{"x":171785.26000000071,"y":2544541.1200000029}},{"attributes":{"ID":321802,"DIS_CODE":0,"TOWNNAME":"永康區","LI":"復華里","LIN":"15鄰","STREET":"國華街","SECT":" ","MAREA":" ","LANE":"９３巷","ALLEY":" ","HOUSE_NO":"１號","E_COORD97":172811.42999999999,"N_COORD97":2546003.75,"ADDRESS":"國華街９３巷１號","OBJECTID":321793},"geometry":{"x":172811.43000000063,"y":2546003.7500000019}},{"attributes":{"ID":321803,"DIS_CODE":0,"TOWNNAME":"永康區","LI":"中華里","LIN":"15鄰","STREET":"忠義街","SECT":" ","MAREA":" ","LANE":"６０巷","ALLEY":" ","HOUSE_NO":"１號十樓之８","E_COORD97":171785.26999999999,"N_COORD97":2544541.1200000001,"ADDRESS":"忠義街６０巷１號十樓之８","OBJECTID":321794},"geometry":{"x":171785.27000000048,"y":2544541.1200000029}},{"attributes":{"ID":321804,"DIS_CODE":0,"TOWNNAME":"永康區","LI":"中華里","LIN":"15鄰","STREET":"忠義街","SECT":" ","MAREA":" ","LANE":"６０巷","ALLEY":" ","HOUSE_NO":"１號九樓之１２","E_COORD97":171786.51000000001,"N_COORD97":2544541.1200000001,"ADDRESS":"忠義街６０巷１號九樓之１２","OBJECTID":321795},"geometry":{"x":171786.51000000164,"y":2544541.1200000029}},{"attributes":{"ID":321805,"DIS_CODE":0,"TOWNNAME":"永康區","LI":"中華里","LIN":"15鄰","STREET":"忠義街","SECT":" ","MAREA":" ","LANE":"６０巷","ALLEY":" ","HOUSE_NO":"１號十五樓之９","E_COORD97":171786.45999999999,"N_COORD97":2544541.1200000001,"ADDRESS":"忠義街６０巷１號十五樓之９","OBJECTID":321796},"geometry":{"x":171786.45999999996,"y":2544541.1200000029}},{"attributes":{"ID":321806,"DIS_CODE":0,"TOWNNAME":"永康區","LI":"中華里","LIN":"15鄰","STREET":"忠義街","SECT":" ","MAREA":" ","LANE":"６０巷","ALLEY":" ","HOUSE_NO":"３號十二樓之８","E_COORD97":171786.51999999999,"N_COORD97":2544541.1200000001,"ADDRESS":"忠義街６０巷３號十二樓之８","OBJECTID":321797},"geometry":{"x":171786.52000000048,"y":2544541.1200000029}},{"attributes":{"ID":321807,"DIS_CODE":0,"TOWNNAME":"永康區","LI":"中華里","LIN":"15鄰","STREET":"忠義街","SECT":" ","MAREA":" ","LANE":"６０巷","ALLEY":" ","HOUSE_NO":"３號十五樓之１３","E_COORD97":171787.72,"N_COORD97":2544541.1200000001,"ADDRESS":"忠義街６０巷３號十五樓之１３","OBJECTID":321798},"geometry":{"x":171787.71999999974,"y":2544541.1200000029}},{"attributes":{"ID":321808,"DIS_CODE":0,"TOWNNAME":"永康區","LI":"中華里","LIN":"15鄰","STREET":"忠義街","SECT":" ","MAREA":" ","LANE":"６０巷","ALLEY":" ","HOUSE_NO":"３號六樓之４","E_COORD97":171785.14999999999,"N_COORD97":2544541.1200000001,"ADDRESS":"忠義街６０巷３號六樓之４","OBJECTID":321799},"geometry":{"x":171785.1500000013,"y":2544541.1200000029}},{"attributes":{"ID":321809,"DIS_CODE":0,"TOWNNAME":"永康區","LI":"中華里","LIN":"15鄰","STREET":"忠義街","SECT":" ","MAREA":" ","LANE":"６０巷","ALLEY":" ","HOUSE_NO":"３號十四樓之１０","E_COORD97":171787.67999999999,"N_COORD97":2544541.1200000001,"ADDRESS":"忠義街６０巷３號十四樓之１０","OBJECTID":321800},"geometry":{"x":171787.68000000063,"y":2544541.1200000029}}]}