{"displayFieldName":"TOWNNAME","fieldAliases":{"ID":"ID","DIS_CODE":"DIS_CODE","TOWNNAME":"TOWNNAME","LI":"LI","LIN":"LIN","STREET":"STREET","SECT":"SECT","MAREA":"MAREA","LANE":"LANE","ALLEY":"ALLEY","HOUSE_NO":"HOUSE_NO","E_COORD97":"E_COORD97","N_COORD97":"N_COORD97","ADDRESS":"ADDRESS","OBJECTID":"OBJECTID"},"geometryType":"esriGeometryPoint","spatialReference":{"wkid":102443,"latestWkid":3826},"fields":[{"name":"ID","type":"esriFieldTypeDouble","alias":"ID"},{"name":"DIS_CODE","type":"esriFieldTypeInteger","alias":"DIS_CODE"},{"name":"TOWNNAME","type":"esriFieldTypeString","alias":"TOWNNAME","length":8},{"name":"LI","type":"esriFieldTypeString","alias":"LI","length":8},{"name":"LIN","type":"esriFieldTypeString","alias":"LIN","length":12},{"name":"STREET","type":"esriFieldTypeString","alias":"STREET","length":20},{"name":"SECT","type":"esriFieldTypeString","alias":"SECT","length":8},{"name":"MAREA","type":"esriFieldTypeString","alias":"MAREA","length":12},{"name":"LANE","type":"esriFieldTypeString","alias":"LANE","length":10},{"name":"ALLEY","type":"esriFieldTypeString","alias":"ALLEY","length":10},{"name":"HOUSE_NO","type":"esriFieldTypeString","alias":"HOUSE_NO","length":20},{"name":"E_COORD97","type":"esriFieldTypeDouble","alias":"E_COORD97"},{"name":"N_COORD97","type":"esriFieldTypeDouble","alias":"N_COORD97"},{"name":"ADDRESS","type":"esriFieldTypeString","alias":"ADDRESS","length":50},{"name":"OBJECTID","type":"esriFieldTypeOID","alias":"OBJECTID"}],"features":[{"attributes":{"ID":111201,"DIS_CODE":0,"TOWNNAME":"麻豆區","LI":"油車里","LIN":"9鄰","STREET":" ","SECT":" ","MAREA":"油車","LANE":" ","ALLEY":" ","HOUSE_NO":"４４號之５","E_COORD97":172524.97,"N_COORD97":2565704.8100000001,"ADDRESS":"油車４４號之５","OBJECTID":111201},"geometry":{"x":172524.96999999974,"y":2565704.8100000024}},{"attributes":{"ID":111202,"DIS_CODE":0,"TOWNNAME":"麻豆區","LI":"油車里","LIN":"9鄰","STREET":" ","SECT":" ","MAREA":"油車","LANE":" ","ALLEY":" ","HOUSE_NO":"４４號","E_COORD97":172542.78,"N_COORD97":2565679.4500000002,"ADDRESS":"油車４４號","OBJECTID":111202},"geometry":{"x":172542.77999999933,"y":2565679.4500000011}},{"attributes":{"ID":111203,"DIS_CODE":0,"TOWNNAME":"麻豆區","LI":"油車里","LIN":"9鄰","STREET":" ","SECT":" ","MAREA":"油車","LANE":" ","ALLEY":" ","HOUSE_NO":"４５號","E_COORD97":172620.20000000001,"N_COORD97":2565645.1499999999,"ADDRESS":"油車４５號","OBJECTID":111203},"geometry":{"x":172620.20000000112,"y":2565645.1500000022}},{"attributes":{"ID":111204,"DIS_CODE":0,"TOWNNAME":"麻豆區","LI":"油車里","LIN":"9鄰","STREET":" ","SECT":" ","MAREA":"油車","LANE":" ","ALLEY":" ","HOUSE_NO":"４６號之１","E_COORD97":172602.79999999999,"N_COORD97":2565622.98,"ADDRESS":"油車４６號之１","OBJECTID":111204},"geometry":{"x":172602.79999999981,"y":2565622.9800000023}},{"attributes":{"ID":111205,"DIS_CODE":0,"TOWNNAME":"麻豆區","LI":"油車里","LIN":"9鄰","STREET":" ","SECT":" ","MAREA":"油車","LANE":" ","ALLEY":" ","HOUSE_NO":"４６號","E_COORD97":172624.47,"N_COORD97":2565632.5499999998,"ADDRESS":"油車４６號","OBJECTID":111205},"geometry":{"x":172624.47000000067,"y":2565632.5500000026}},{"attributes":{"ID":111206,"DIS_CODE":0,"TOWNNAME":"麻豆區","LI":"油車里","LIN":"9鄰","STREET":" ","SECT":" ","MAREA":"油車","LANE":" ","ALLEY":" ","HOUSE_NO":"４７號","E_COORD97":172644.54000000001,"N_COORD97":2565589.6899999999,"ADDRESS":"油車４７號","OBJECTID":111206},"geometry":{"x":172644.54000000097,"y":2565589.6900000013}},{"attributes":{"ID":111207,"DIS_CODE":0,"TOWNNAME":"麻豆區","LI":"油車里","LIN":"9鄰","STREET":" ","SECT":" ","MAREA":"油車","LANE":" ","ALLEY":" ","HOUSE_NO":"５２號之２","E_COORD97":172734.91,"N_COORD97":2565591.0299999998,"ADDRESS":"油車５２號之２","OBJECTID":111207},"geometry":{"x":172734.91000000015,"y":2565591.0300000012}},{"attributes":{"ID":111208,"DIS_CODE":0,"TOWNNAME":"麻豆區","LI":"油車里","LIN":"9鄰","STREET":" ","SECT":" ","MAREA":"油車","LANE":" ","ALLEY":" ","HOUSE_NO":"５４號之１","E_COORD97":172734.54999999999,"N_COORD97":2565595.71,"ADDRESS":"油車５４號之１","OBJECTID":111208},"geometry":{"x":172734.55000000075,"y":2565595.7100000009}},{"attributes":{"ID":111209,"DIS_CODE":0,"TOWNNAME":"麻豆區","LI":"油車里","LIN":"9鄰","STREET":" ","SECT":" ","MAREA":"油車","LANE":" ","ALLEY":" ","HOUSE_NO":"５４號之２","E_COORD97":172734.20000000001,"N_COORD97":2565600.5299999998,"ADDRESS":"油車５４號之２","OBJECTID":111209},"geometry":{"x":172734.20000000019,"y":2565600.5300000012}},{"attributes":{"ID":111210,"DIS_CODE":0,"TOWNNAME":"麻豆區","LI":"油車里","LIN":"9鄰","STREET":" ","SECT":" ","MAREA":"油車","LANE":" ","ALLEY":" ","HOUSE_NO":"５４號之３","E_COORD97":172731.03,"N_COORD97":2565612.5600000001,"ADDRESS":"油車５４號之３","OBJECTID":111210},"geometry":{"x":172731.03000000212,"y":2565612.5600000024}},{"attributes":{"ID":111211,"DIS_CODE":0,"TOWNNAME":"麻豆區","LI":"油車里","LIN":"9鄰","STREET":" ","SECT":" ","MAREA":"油車","LANE":" ","ALLEY":" ","HOUSE_NO":"５４號之６","E_COORD97":172729.60999999999,"N_COORD97":2565631.8199999998,"ADDRESS":"油車５４號之６","OBJECTID":111211},"geometry":{"x":172729.61000000127,"y":2565631.8200000003}},{"attributes":{"ID":111212,"DIS_CODE":0,"TOWNNAME":"麻豆區","LI":"油車里","LIN":"9鄰","STREET":" ","SECT":" ","MAREA":"油車","LANE":" ","ALLEY":" ","HOUSE_NO":"５５號之１","E_COORD97":172723.82000000001,"N_COORD97":2565655.0600000001,"ADDRESS":"油車５５號之１","OBJECTID":111212},"geometry":{"x":172723.8200000003,"y":2565655.0600000042}},{"attributes":{"ID":111213,"DIS_CODE":0,"TOWNNAME":"安南區","LI":"頂安里","LIN":"9鄰","STREET":"頂安街","SECT":" ","MAREA":" ","LANE":"２６０巷","ALLEY":"４５弄","HOUSE_NO":"３７號","E_COORD97":169111.37,"N_COORD97":2549489.5800000001,"ADDRESS":"頂安街２６０巷４５弄３７號","OBJECTID":111213},"geometry":{"x":169111.37000000104,"y":2549489.5800000019}},{"attributes":{"ID":111214,"DIS_CODE":0,"TOWNNAME":"安南區","LI":"頂安里","LIN":"9鄰","STREET":"頂安街","SECT":" ","MAREA":" ","LANE":"２６０巷","ALLEY":"４５弄","HOUSE_NO":"３９號","E_COORD97":169114.72,"N_COORD97":2549492.1400000001,"ADDRESS":"頂安街２６０巷４５弄３９號","OBJECTID":111214},"geometry":{"x":169114.71999999974,"y":2549492.1400000006}},{"attributes":{"ID":111215,"DIS_CODE":0,"TOWNNAME":"安南區","LI":"頂安里","LIN":"9鄰","STREET":"頂安街","SECT":" ","MAREA":" ","LANE":"２６０巷","ALLEY":"４５弄","HOUSE_NO":"４１號","E_COORD97":169118.07999999999,"N_COORD97":2549494.7000000002,"ADDRESS":"頂安街２６０巷４５弄４１號","OBJECTID":111215},"geometry":{"x":169118.08000000194,"y":2549494.7000000011}},{"attributes":{"ID":111216,"DIS_CODE":0,"TOWNNAME":"安南區","LI":"頂安里","LIN":"9鄰","STREET":"頂安街","SECT":" ","MAREA":" ","LANE":"２６０巷","ALLEY":"４５弄","HOUSE_NO":"４３號","E_COORD97":169123.51999999999,"N_COORD97":2549495.6400000001,"ADDRESS":"頂安街２６０巷４５弄４３號","OBJECTID":111216},"geometry":{"x":169123.52000000048,"y":2549495.6400000006}},{"attributes":{"ID":111217,"DIS_CODE":0,"TOWNNAME":"東區","LI":"大智里","LIN":"9鄰","STREET":"長東街","SECT":" ","MAREA":" ","LANE":"１０３巷","ALLEY":"３３弄","HOUSE_NO":"１０號","E_COORD97":171122.81,"N_COORD97":2540293.8100000001,"ADDRESS":"長東街１０３巷３３弄１０號","OBJECTID":111217},"geometry":{"x":171122.80999999959,"y":2540293.8100000024}},{"attributes":{"ID":111218,"DIS_CODE":0,"TOWNNAME":"北區","LI":"賢北里","LIN":"1鄰","STREET":"賢北街","SECT":" ","MAREA":" ","LANE":" ","ALLEY":" ","HOUSE_NO":"３０號","E_COORD97":166340.20999999999,"N_COORD97":2545277.73,"ADDRESS":"賢北街３０號","OBJECTID":111218},"geometry":{"x":166340.20999999996,"y":2545277.7300000042}},{"attributes":{"ID":111219,"DIS_CODE":0,"TOWNNAME":"東區","LI":"大智里","LIN":"9鄰","STREET":"長東街","SECT":" ","MAREA":" ","LANE":"１０３巷","ALLEY":"３３弄","HOUSE_NO":"１１號","E_COORD97":171125.85000000001,"N_COORD97":2540310.27,"ADDRESS":"長東街１０３巷３３弄１１號","OBJECTID":111219},"geometry":{"x":171125.84999999963,"y":2540310.2700000014}},{"attributes":{"ID":111220,"DIS_CODE":0,"TOWNNAME":"東區","LI":"大智里","LIN":"9鄰","STREET":"長東街","SECT":" ","MAREA":" ","LANE":"１０３巷","ALLEY":"３３弄","HOUSE_NO":"１２號","E_COORD97":171126.73999999999,"N_COORD97":2540294.4399999999,"ADDRESS":"長東街１０３巷３３弄１２號","OBJECTID":111220},"geometry":{"x":171126.74000000115,"y":2540294.4399999976}},{"attributes":{"ID":111221,"DIS_CODE":0,"TOWNNAME":"東區","LI":"大智里","LIN":"9鄰","STREET":"長東街","SECT":" ","MAREA":" ","LANE":"１０３巷","ALLEY":"３３弄","HOUSE_NO":"１３號","E_COORD97":171129.73999999999,"N_COORD97":2540312.3500000001,"ADDRESS":"長東街１０３巷３３弄１３號","OBJECTID":111221},"geometry":{"x":171129.74000000115,"y":2540312.3500000034}},{"attributes":{"ID":111222,"DIS_CODE":0,"TOWNNAME":"東區","LI":"大智里","LIN":"9鄰","STREET":"長東街","SECT":" ","MAREA":" ","LANE":"１０３巷","ALLEY":"３３弄","HOUSE_NO":"１４號","E_COORD97":171130.5,"N_COORD97":2540294.9500000002,"ADDRESS":"長東街１０３巷３３弄１４號","OBJECTID":111222},"geometry":{"x":171130.5,"y":2540294.9500000011}},{"attributes":{"ID":111223,"DIS_CODE":0,"TOWNNAME":"東區","LI":"大智里","LIN":"9鄰","STREET":"長東街","SECT":" ","MAREA":" ","LANE":"１０３巷","ALLEY":"３３弄","HOUSE_NO":"１５號","E_COORD97":171133.62,"N_COORD97":2540311.1200000001,"ADDRESS":"長東街１０３巷３３弄１５號","OBJECTID":111223},"geometry":{"x":171133.62000000104,"y":2540311.120000001}},{"attributes":{"ID":111224,"DIS_CODE":0,"TOWNNAME":"東區","LI":"大智里","LIN":"9鄰","STREET":"長東街","SECT":" ","MAREA":" ","LANE":"１０３巷","ALLEY":"３３弄","HOUSE_NO":"１７號","E_COORD97":171141.48999999999,"N_COORD97":2540312.73,"ADDRESS":"長東街１０３巷３３弄１７號","OBJECTID":111224},"geometry":{"x":171141.49000000115,"y":2540312.7300000004}},{"attributes":{"ID":111225,"DIS_CODE":0,"TOWNNAME":"東區","LI":"大智里","LIN":"9鄰","STREET":"長東街","SECT":" ","MAREA":" ","LANE":"１０３巷","ALLEY":"３３弄","HOUSE_NO":"１８號","E_COORD97":171141.81,"N_COORD97":2540295.9700000002,"ADDRESS":"長東街１０３巷３３弄１８號","OBJECTID":111225},"geometry":{"x":171141.81000000145,"y":2540295.9700000044}},{"attributes":{"ID":111226,"DIS_CODE":0,"TOWNNAME":"東區","LI":"大智里","LIN":"9鄰","STREET":"長東街","SECT":" ","MAREA":" ","LANE":"１０３巷","ALLEY":"３３弄","HOUSE_NO":"２０號","E_COORD97":171146.39000000001,"N_COORD97":2540296.48,"ADDRESS":"長東街１０３巷３３弄２０號","OBJECTID":111226},"geometry":{"x":171146.39000000153,"y":2540296.4800000023}},{"attributes":{"ID":111227,"DIS_CODE":0,"TOWNNAME":"東區","LI":"大智里","LIN":"9鄰","STREET":"長東街","SECT":" ","MAREA":" ","LANE":"１０３巷","ALLEY":"３３弄","HOUSE_NO":"２１號","E_COORD97":171150.20999999999,"N_COORD97":2540313.2000000002,"ADDRESS":"長東街１０３巷３３弄２１號","OBJECTID":111227},"geometry":{"x":171150.21000000089,"y":2540313.200000003}},{"attributes":{"ID":111228,"DIS_CODE":0,"TOWNNAME":"東區","LI":"大智里","LIN":"9鄰","STREET":"長東街","SECT":" ","MAREA":" ","LANE":"１０３巷","ALLEY":"３３弄","HOUSE_NO":"２２號","E_COORD97":171150.67000000001,"N_COORD97":2540295.9700000002,"ADDRESS":"長東街１０３巷３３弄２２號","OBJECTID":111228},"geometry":{"x":171150.67000000086,"y":2540295.9700000044}},{"attributes":{"ID":111229,"DIS_CODE":0,"TOWNNAME":"東區","LI":"大智里","LIN":"9鄰","STREET":"長東街","SECT":" ","MAREA":" ","LANE":"１０３巷","ALLEY":"３３弄","HOUSE_NO":"２３號","E_COORD97":171154.38,"N_COORD97":2540314.8100000001,"ADDRESS":"長東街１０３巷３３弄２３號","OBJECTID":111229},"geometry":{"x":171154.37999999989,"y":2540314.8100000024}},{"attributes":{"ID":111230,"DIS_CODE":0,"TOWNNAME":"東區","LI":"大智里","LIN":"9鄰","STREET":"長東街","SECT":" ","MAREA":" ","LANE":"１０３巷","ALLEY":"３３弄","HOUSE_NO":"２４號","E_COORD97":171154.73999999999,"N_COORD97":2540296.48,"ADDRESS":"長東街１０３巷３３弄２４號","OBJECTID":111230},"geometry":{"x":171154.74000000209,"y":2540296.4800000023}},{"attributes":{"ID":111231,"DIS_CODE":0,"TOWNNAME":"東區","LI":"大智里","LIN":"9鄰","STREET":"長東街","SECT":" ","MAREA":" ","LANE":"１０３巷","ALLEY":"３３弄","HOUSE_NO":"２６號","E_COORD97":171159.63,"N_COORD97":2540295.9700000002,"ADDRESS":"長東街１０３巷３３弄２６號","OBJECTID":111231},"geometry":{"x":171159.62999999989,"y":2540295.9700000044}},{"attributes":{"ID":111232,"DIS_CODE":0,"TOWNNAME":"東區","LI":"大智里","LIN":"9鄰","STREET":"長東街","SECT":" ","MAREA":" ","LANE":"１０３巷","ALLEY":"３３弄","HOUSE_NO":"２７號","E_COORD97":171163.57000000001,"N_COORD97":2540315.3799999999,"ADDRESS":"長東街１０３巷３３弄２７號","OBJECTID":111232},"geometry":{"x":171163.57000000123,"y":2540315.3800000008}},{"attributes":{"ID":111233,"DIS_CODE":0,"TOWNNAME":"東區","LI":"大智里","LIN":"9鄰","STREET":"長東街","SECT":" ","MAREA":" ","LANE":"１０３巷","ALLEY":"３３弄","HOUSE_NO":"２８號","E_COORD97":171164.92999999999,"N_COORD97":2540295.9700000002,"ADDRESS":"長東街１０３巷３３弄２８號","OBJECTID":111233},"geometry":{"x":171164.93000000063,"y":2540295.9700000044}},{"attributes":{"ID":111234,"DIS_CODE":0,"TOWNNAME":"東區","LI":"大智里","LIN":"9鄰","STREET":"長東街","SECT":" ","MAREA":" ","LANE":"１０３巷","ALLEY":"３３弄","HOUSE_NO":"２號","E_COORD97":171108.60999999999,"N_COORD97":2540293.6299999999,"ADDRESS":"長東街１０３巷３３弄２號","OBJECTID":111234},"geometry":{"x":171108.61000000127,"y":2540293.6300000008}},{"attributes":{"ID":111235,"DIS_CODE":0,"TOWNNAME":"麻豆區","LI":"油車里","LIN":"9鄰","STREET":" ","SECT":" ","MAREA":"油車","LANE":" ","ALLEY":" ","HOUSE_NO":"５５號之２","E_COORD97":172714.5,"N_COORD97":2565676.8399999999,"ADDRESS":"油車５５號之２","OBJECTID":111235},"geometry":{"x":172714.50000000093,"y":2565676.8400000017}},{"attributes":{"ID":111236,"DIS_CODE":0,"TOWNNAME":"善化區","LI":"嘉北里","LIN":"9鄰","STREET":" ","SECT":" ","MAREA":"茄拔","LANE":" ","ALLEY":" ","HOUSE_NO":"１９１號之６","E_COORD97":180950.67999999999,"N_COORD97":2559967.02,"ADDRESS":"茄拔１９１號之６","OBJECTID":111236},"geometry":{"x":180950.6799999997,"y":2559967.0199999996}},{"attributes":{"ID":111237,"DIS_CODE":0,"TOWNNAME":"東區","LI":"大智里","LIN":"9鄰","STREET":"長東街","SECT":" ","MAREA":" ","LANE":"１０３巷","ALLEY":"３３弄","HOUSE_NO":"３號","E_COORD97":171111.73000000001,"N_COORD97":2540309.23,"ADDRESS":"長東街１０３巷３３弄３號","OBJECTID":111237},"geometry":{"x":171111.73000000138,"y":2540309.2300000004}},{"attributes":{"ID":111238,"DIS_CODE":0,"TOWNNAME":"善化區","LI":"東隆里","LIN":"9鄰","STREET":" ","SECT":" ","MAREA":"東勢寮","LANE":" ","ALLEY":" ","HOUSE_NO":"２１３號","E_COORD97":179954.22,"N_COORD97":2561403.2599999998,"ADDRESS":"東勢寮２１３號","OBJECTID":111238},"geometry":{"x":179954.2200000016,"y":2561403.2599999998}},{"attributes":{"ID":111239,"DIS_CODE":0,"TOWNNAME":"善化區","LI":"胡厝里","LIN":"9鄰","STREET":" ","SECT":" ","MAREA":"胡厝寮","LANE":" ","ALLEY":" ","HOUSE_NO":"２１７號","E_COORD97":175149.85999999999,"N_COORD97":2560363.25,"ADDRESS":"胡厝寮２１７號","OBJECTID":111239},"geometry":{"x":175149.86000000127,"y":2560363.25}},{"attributes":{"ID":111240,"DIS_CODE":0,"TOWNNAME":"善化區","LI":"東隆里","LIN":"9鄰","STREET":" ","SECT":" ","MAREA":"東勢寮","LANE":" ","ALLEY":" ","HOUSE_NO":"２３５之１號","E_COORD97":179883.94,"N_COORD97":2561381.27,"ADDRESS":"東勢寮２３５之１號","OBJECTID":111240},"geometry":{"x":179883.94000000227,"y":2561381.2700000014}},{"attributes":{"ID":111241,"DIS_CODE":0,"TOWNNAME":"善化區","LI":"胡厝里","LIN":"9鄰","STREET":" ","SECT":" ","MAREA":"胡厝寮","LANE":" ","ALLEY":" ","HOUSE_NO":"２１８號之２６","E_COORD97":175263.32999999999,"N_COORD97":2560203.27,"ADDRESS":"胡厝寮２１８號之２６","OBJECTID":111241},"geometry":{"x":175263.33000000101,"y":2560203.2699999996}},{"attributes":{"ID":111242,"DIS_CODE":0,"TOWNNAME":"善化區","LI":"嘉北里","LIN":"9鄰","STREET":" ","SECT":" ","MAREA":"茄拔","LANE":" ","ALLEY":" ","HOUSE_NO":"１９１之７號","E_COORD97":180943.64999999999,"N_COORD97":2559968.27,"ADDRESS":"茄拔１９１之７號","OBJECTID":111242},"geometry":{"x":180943.65000000224,"y":2559968.2700000014}},{"attributes":{"ID":111243,"DIS_CODE":0,"TOWNNAME":"善化區","LI":"東昌里","LIN":"9鄰","STREET":" ","SECT":" ","MAREA":"東勢寮","LANE":" ","ALLEY":" ","HOUSE_NO":"１２２號","E_COORD97":180364.14999999999,"N_COORD97":2561838.7599999998,"ADDRESS":"東勢寮１２２號","OBJECTID":111243},"geometry":{"x":180364.1500000013,"y":2561838.7600000035}},{"attributes":{"ID":111244,"DIS_CODE":0,"TOWNNAME":"善化區","LI":"東隆里","LIN":"9鄰","STREET":" ","SECT":" ","MAREA":"東勢寮","LANE":" ","ALLEY":" ","HOUSE_NO":"２１２號","E_COORD97":179968.95999999999,"N_COORD97":2561387.5099999998,"ADDRESS":"東勢寮２１２號","OBJECTID":111244},"geometry":{"x":179968.95999999996,"y":2561387.5100000016}},{"attributes":{"ID":111245,"DIS_CODE":0,"TOWNNAME":"善化區","LI":"東隆里","LIN":"9鄰","STREET":" ","SECT":" ","MAREA":"東勢寮","LANE":" ","ALLEY":" ","HOUSE_NO":"２１７號","E_COORD97":179930.14999999999,"N_COORD97":2561417.2599999998,"ADDRESS":"東勢寮２１７號","OBJECTID":111245},"geometry":{"x":179930.1500000013,"y":2561417.2599999998}},{"attributes":{"ID":111246,"DIS_CODE":0,"TOWNNAME":"東區","LI":"大智里","LIN":"9鄰","STREET":"長東街","SECT":" ","MAREA":" ","LANE":"１０３巷","ALLEY":"３３弄","HOUSE_NO":"５號","E_COORD97":171115.32999999999,"N_COORD97":2540311.5899999999,"ADDRESS":"長東街１０３巷３３弄５號","OBJECTID":111246},"geometry":{"x":171115.33000000101,"y":2540311.5900000017}},{"attributes":{"ID":111247,"DIS_CODE":0,"TOWNNAME":"東區","LI":"大智里","LIN":"9鄰","STREET":"長東街","SECT":" ","MAREA":" ","LANE":"１０３巷","ALLEY":"３３弄","HOUSE_NO":"７號","E_COORD97":171118.73999999999,"N_COORD97":2540310.0800000001,"ADDRESS":"長東街１０３巷３３弄７號","OBJECTID":111247},"geometry":{"x":171118.74000000022,"y":2540310.0800000001}},{"attributes":{"ID":111248,"DIS_CODE":0,"TOWNNAME":"東區","LI":"大智里","LIN":"9鄰","STREET":"長東街","SECT":" ","MAREA":" ","LANE":"１０３巷","ALLEY":"３３弄","HOUSE_NO":"８號","E_COORD97":171119.39999999999,"N_COORD97":2540294.6400000001,"ADDRESS":"長東街１０３巷３３弄８號","OBJECTID":111248},"geometry":{"x":171119.40000000037,"y":2540294.6400000043}},{"attributes":{"ID":111249,"DIS_CODE":0,"TOWNNAME":"東區","LI":"大智里","LIN":"9鄰","STREET":"長東街","SECT":" ","MAREA":" ","LANE":"１０３巷","ALLEY":"３３弄","HOUSE_NO":"１９號","E_COORD97":171145.47,"N_COORD97":2540314.25,"ADDRESS":"長東街１０３巷３３弄１９號","OBJECTID":111249},"geometry":{"x":171145.46999999974,"y":2540314.2500000019}},{"attributes":{"ID":111250,"DIS_CODE":0,"TOWNNAME":"歸仁區","LI":"歸仁里","LIN":"8鄰","STREET":"大通一街","SECT":" ","MAREA":" ","LANE":" ","ALLEY":" ","HOUSE_NO":"６３號","E_COORD97":177892.70999999999,"N_COORD97":2540937.4900000002,"ADDRESS":"大通一街６３號","OBJECTID":111250},"geometry":{"x":177892.70999999996,"y":2540937.4900000021}},{"attributes":{"ID":111251,"DIS_CODE":0,"TOWNNAME":"東區","LI":"大智里","LIN":"9鄰","STREET":"長東街","SECT":" ","MAREA":" ","LANE":"１０３巷","ALLEY":"３３弄","HOUSE_NO":"２５號","E_COORD97":171159.01999999999,"N_COORD97":2540314.4399999999,"ADDRESS":"長東街１０３巷３３弄２５號","OBJECTID":111251},"geometry":{"x":171159.02000000142,"y":2540314.4399999995}},{"attributes":{"ID":111252,"DIS_CODE":0,"TOWNNAME":"東區","LI":"大智里","LIN":"9鄰","STREET":"長東街","SECT":" ","MAREA":" ","LANE":"１０３巷","ALLEY":"３３弄","HOUSE_NO":"４號","E_COORD97":171111.97,"N_COORD97":2540293.73,"ADDRESS":"長東街１０３巷３３弄４號","OBJECTID":111252},"geometry":{"x":171111.9700000016,"y":2540293.7300000042}},{"attributes":{"ID":111253,"DIS_CODE":0,"TOWNNAME":"東區","LI":"大智里","LIN":"9鄰","STREET":"長東街","SECT":" ","MAREA":" ","LANE":"１０３巷","ALLEY":"３３弄","HOUSE_NO":"６號","E_COORD97":171116.54999999999,"N_COORD97":2540293.9300000002,"ADDRESS":"長東街１０３巷３３弄６號","OBJECTID":111253},"geometry":{"x":171116.54999999888,"y":2540293.9299999997}},{"attributes":{"ID":111254,"DIS_CODE":0,"TOWNNAME":"東區","LI":"大智里","LIN":"9鄰","STREET":"長東街","SECT":" ","MAREA":" ","LANE":"１０３巷","ALLEY":"３３弄","HOUSE_NO":"９號","E_COORD97":171122.53,"N_COORD97":2540311.7799999998,"ADDRESS":"長東街１０３巷３３弄９號","OBJECTID":111254},"geometry":{"x":171122.53000000119,"y":2540311.7799999993}},{"attributes":{"ID":111255,"DIS_CODE":0,"TOWNNAME":"永康區","LI":"西橋里","LIN":"9鄰","STREET":"中華西街","SECT":" ","MAREA":" ","LANE":"８５巷","ALLEY":"１２弄","HOUSE_NO":"３９號","E_COORD97":170621.67999999999,"N_COORD97":2546142.3199999998,"ADDRESS":"中華西街８５巷１２弄３９號","OBJECTID":111255},"geometry":{"x":170621.6799999997,"y":2546142.3200000022}},{"attributes":{"ID":111256,"DIS_CODE":0,"TOWNNAME":"安南區","LI":"城南里","LIN":"9鄰","STREET":"城西街","SECT":"一段","MAREA":" ","LANE":"２４９巷","ALLEY":"８５弄","HOUSE_NO":"３號","E_COORD97":160363.73999999999,"N_COORD97":2551055.5899999999,"ADDRESS":"城西街一段２４９巷８５弄３號","OBJECTID":111256},"geometry":{"x":160363.74000000115,"y":2551055.5900000017}},{"attributes":{"ID":111257,"DIS_CODE":0,"TOWNNAME":"永康區","LI":"網寮里","LIN":"9鄰","STREET":"永二街","SECT":" ","MAREA":" ","LANE":"２４４巷","ALLEY":"８弄","HOUSE_NO":"２號","E_COORD97":173281.73000000001,"N_COORD97":2546412.1299999999,"ADDRESS":"永二街２４４巷８弄２號","OBJECTID":111257},"geometry":{"x":173281.73000000045,"y":2546412.129999999}},{"attributes":{"ID":111258,"DIS_CODE":0,"TOWNNAME":"永康區","LI":"網寮里","LIN":"9鄰","STREET":"永二街","SECT":" ","MAREA":" ","LANE":"２４４巷","ALLEY":"８弄","HOUSE_NO":"２８號","E_COORD97":173338.51000000001,"N_COORD97":2546376.6200000001,"ADDRESS":"永二街２４４巷８弄２８號","OBJECTID":111258},"geometry":{"x":173338.50999999978,"y":2546376.620000001}},{"attributes":{"ID":111259,"DIS_CODE":0,"TOWNNAME":"永康區","LI":"網寮里","LIN":"9鄰","STREET":"永二街","SECT":" ","MAREA":" ","LANE":"２４４巷","ALLEY":"６弄","HOUSE_NO":"２９號","E_COORD97":173338,"N_COORD97":2546353.4199999999,"ADDRESS":"永二街２４４巷６弄２９號","OBJECTID":111259},"geometry":{"x":173338.00000000093,"y":2546353.4199999999}},{"attributes":{"ID":111260,"DIS_CODE":0,"TOWNNAME":"永康區","LI":"網寮里","LIN":"9鄰","STREET":"永二街","SECT":" ","MAREA":" ","LANE":"２４４巷","ALLEY":"８弄","HOUSE_NO":"１２號","E_COORD97":173304.57000000001,"N_COORD97":2546398.1200000001,"ADDRESS":"永二街２４４巷８弄１２號","OBJECTID":111260},"geometry":{"x":173304.57000000123,"y":2546398.1200000029}},{"attributes":{"ID":111261,"DIS_CODE":0,"TOWNNAME":"永康區","LI":"龍潭里","LIN":"9鄰","STREET":"龍橋街","SECT":" ","MAREA":" ","LANE":"５３巷","ALLEY":"２１弄","HOUSE_NO":"７號","E_COORD97":174765.73000000001,"N_COORD97":2548297.6200000001,"ADDRESS":"龍橋街５３巷２１弄７號","OBJECTID":111261},"geometry":{"x":174765.72999999952,"y":2548297.6200000029}},{"attributes":{"ID":111262,"DIS_CODE":0,"TOWNNAME":"永康區","LI":"網寮里","LIN":"9鄰","STREET":"永二街","SECT":" ","MAREA":" ","LANE":"２４４巷","ALLEY":"６弄","HOUSE_NO":"２５號","E_COORD97":173329.29000000001,"N_COORD97":2546358.9199999999,"ADDRESS":"永二街２４４巷６弄２５號","OBJECTID":111262},"geometry":{"x":173329.29000000097,"y":2546358.9200000018}},{"attributes":{"ID":111263,"DIS_CODE":0,"TOWNNAME":"永康區","LI":"網寮里","LIN":"9鄰","STREET":"永二街","SECT":" ","MAREA":" ","LANE":"２４４巷","ALLEY":"６弄","HOUSE_NO":"１７號","E_COORD97":173311.04999999999,"N_COORD97":2546370.9199999999,"ADDRESS":"永二街２４４巷６弄１７號","OBJECTID":111263},"geometry":{"x":173311.04999999981,"y":2546370.9200000037}},{"attributes":{"ID":111264,"DIS_CODE":0,"TOWNNAME":"永康區","LI":"網寮里","LIN":"9鄰","STREET":"永二街","SECT":" ","MAREA":" ","LANE":"２４４巷","ALLEY":"６弄","HOUSE_NO":"２３號","E_COORD97":173324.20000000001,"N_COORD97":2546362.9199999999,"ADDRESS":"永二街２４４巷６弄２３號","OBJECTID":111264},"geometry":{"x":173324.20000000019,"y":2546362.9199999999}},{"attributes":{"ID":111265,"DIS_CODE":0,"TOWNNAME":"永康區","LI":"網寮里","LIN":"9鄰","STREET":"永二街","SECT":" ","MAREA":" ","LANE":"２４４巷","ALLEY":"６弄","HOUSE_NO":"２７號","E_COORD97":173333.10000000001,"N_COORD97":2546356.6699999999,"ADDRESS":"永二街２４４巷６弄２７號","OBJECTID":111265},"geometry":{"x":173333.09999999963,"y":2546356.6700000018}},{"attributes":{"ID":111266,"DIS_CODE":0,"TOWNNAME":"東區","LI":"富強里","LIN":"9鄰","STREET":"裕農路","SECT":" ","MAREA":" ","LANE":"４４６巷","ALLEY":"７０弄","HOUSE_NO":"３１號之１","E_COORD97":171165.01999999999,"N_COORD97":2542918.7799999998,"ADDRESS":"裕農路４４６巷７０弄３１號之１","OBJECTID":111266},"geometry":{"x":171165.01999999955,"y":2542918.7799999993}},{"attributes":{"ID":111267,"DIS_CODE":0,"TOWNNAME":"東區","LI":"富強里","LIN":"9鄰","STREET":"裕農路","SECT":" ","MAREA":" ","LANE":"４４６巷","ALLEY":"７０弄","HOUSE_NO":"３１號之１０","E_COORD97":171138.39999999999,"N_COORD97":2542869.8799999999,"ADDRESS":"裕農路４４６巷７０弄３１號之１０","OBJECTID":111267},"geometry":{"x":171138.40000000037,"y":2542869.879999999}},{"attributes":{"ID":111268,"DIS_CODE":0,"TOWNNAME":"東區","LI":"富強里","LIN":"9鄰","STREET":"裕農路","SECT":" ","MAREA":" ","LANE":"４４６巷","ALLEY":"７０弄","HOUSE_NO":"３１號之１４","E_COORD97":171136.57000000001,"N_COORD97":2542889.73,"ADDRESS":"裕農路４４６巷７０弄３１號之１４","OBJECTID":111268},"geometry":{"x":171136.5700000003,"y":2542889.7300000004}},{"attributes":{"ID":111269,"DIS_CODE":0,"TOWNNAME":"東區","LI":"富強里","LIN":"9鄰","STREET":"裕農路","SECT":" ","MAREA":" ","LANE":"４４６巷","ALLEY":"７０弄","HOUSE_NO":"３１號之１５","E_COORD97":171137,"N_COORD97":2542894.2000000002,"ADDRESS":"裕農路４４６巷７０弄３１號之１５","OBJECTID":111269},"geometry":{"x":171137,"y":2542894.2000000011}},{"attributes":{"ID":111270,"DIS_CODE":0,"TOWNNAME":"東區","LI":"富強里","LIN":"9鄰","STREET":"裕農路","SECT":" ","MAREA":" ","LANE":"４４６巷","ALLEY":"７０弄","HOUSE_NO":"３１號之２","E_COORD97":171164.82000000001,"N_COORD97":2542910.1600000001,"ADDRESS":"裕農路４４６巷７０弄３１號之２","OBJECTID":111270},"geometry":{"x":171164.82000000123,"y":2542910.1600000001}},{"attributes":{"ID":111271,"DIS_CODE":0,"TOWNNAME":"善化區","LI":"東隆里","LIN":"9鄰","STREET":" ","SECT":" ","MAREA":"東勢寮","LANE":" ","ALLEY":" ","HOUSE_NO":"２３８之２號","E_COORD97":179751.51000000001,"N_COORD97":2561358.52,"ADDRESS":"東勢寮２３８之２號","OBJECTID":111271},"geometry":{"x":179751.50999999978,"y":2561358.5200000033}},{"attributes":{"ID":111272,"DIS_CODE":0,"TOWNNAME":"善化區","LI":"東昌里","LIN":"9鄰","STREET":" ","SECT":" ","MAREA":"東勢寮","LANE":" ","ALLEY":" ","HOUSE_NO":"１２１號（毀損）","E_COORD97":180341.09,"N_COORD97":2561843.5099999998,"ADDRESS":"東勢寮１２１號（毀損）","OBJECTID":111272},"geometry":{"x":180341.08999999985,"y":2561843.5099999979}},{"attributes":{"ID":111273,"DIS_CODE":0,"TOWNNAME":"善化區","LI":"牛庄里","LIN":"9鄰","STREET":" ","SECT":" ","MAREA":"牛庄","LANE":" ","ALLEY":" ","HOUSE_NO":"８２號之２","E_COORD97":180118.57000000001,"N_COORD97":2559944.27,"ADDRESS":"牛庄８２號之２","OBJECTID":111273},"geometry":{"x":180118.57000000216,"y":2559944.2700000014}},{"attributes":{"ID":111274,"DIS_CODE":0,"TOWNNAME":"善化區","LI":"胡厝里","LIN":"9鄰","STREET":" ","SECT":" ","MAREA":"胡厝寮","LANE":" ","ALLEY":" ","HOUSE_NO":"２１８號之２","E_COORD97":175126.85999999999,"N_COORD97":2560313.02,"ADDRESS":"胡厝寮２１８號之２","OBJECTID":111274},"geometry":{"x":175126.86000000034,"y":2560313.0199999996}},{"attributes":{"ID":111275,"DIS_CODE":0,"TOWNNAME":"善化區","LI":"嘉北里","LIN":"9鄰","STREET":" ","SECT":" ","MAREA":"茄拔","LANE":" ","ALLEY":" ","HOUSE_NO":"１９６號之２","E_COORD97":180979.04999999999,"N_COORD97":2560093.02,"ADDRESS":"茄拔１９６號之２","OBJECTID":111275},"geometry":{"x":180979.04999999981,"y":2560093.0199999996}},{"attributes":{"ID":111276,"DIS_CODE":0,"TOWNNAME":"善化區","LI":"東昌里","LIN":"9鄰","STREET":" ","SECT":" ","MAREA":"東勢寮","LANE":" ","ALLEY":" ","HOUSE_NO":"１１９號","E_COORD97":180302.14999999999,"N_COORD97":2561853.5099999998,"ADDRESS":"東勢寮１１９號","OBJECTID":111276},"geometry":{"x":180302.15000000037,"y":2561853.5099999998}},{"attributes":{"ID":111277,"DIS_CODE":0,"TOWNNAME":"善化區","LI":"胡厝里","LIN":"9鄰","STREET":" ","SECT":" ","MAREA":"胡厝寮","LANE":" ","ALLEY":" ","HOUSE_NO":"２１５號之１","E_COORD97":175184.60000000001,"N_COORD97":2560386.27,"ADDRESS":"胡厝寮２１５號之１","OBJECTID":111277},"geometry":{"x":175184.60000000149,"y":2560386.2699999996}},{"attributes":{"ID":111278,"DIS_CODE":0,"TOWNNAME":"善化區","LI":"胡厝里","LIN":"9鄰","STREET":" ","SECT":" ","MAREA":"胡厝寮","LANE":" ","ALLEY":" ","HOUSE_NO":"２１４號","E_COORD97":175205.56,"N_COORD97":2560334.5,"ADDRESS":"胡厝寮２１４號","OBJECTID":111278},"geometry":{"x":175205.56000000052,"y":2560334.5}},{"attributes":{"ID":111279,"DIS_CODE":0,"TOWNNAME":"善化區","LI":"東昌里","LIN":"9鄰","STREET":" ","SECT":" ","MAREA":"東勢寮","LANE":" ","ALLEY":" ","HOUSE_NO":"１２４號","E_COORD97":180373.35000000001,"N_COORD97":2561885.7599999998,"ADDRESS":"東勢寮１２４號","OBJECTID":111279},"geometry":{"x":180373.34999999963,"y":2561885.7599999998}},{"attributes":{"ID":111280,"DIS_CODE":0,"TOWNNAME":"善化區","LI":"胡厝里","LIN":"9鄰","STREET":" ","SECT":" ","MAREA":"胡厝寮","LANE":" ","ALLEY":" ","HOUSE_NO":"２１２號","E_COORD97":175219.94,"N_COORD97":2560342.75,"ADDRESS":"胡厝寮２１２號","OBJECTID":111280},"geometry":{"x":175219.94000000041,"y":2560342.75}},{"attributes":{"ID":111281,"DIS_CODE":0,"TOWNNAME":"善化區","LI":"嘉北里","LIN":"9鄰","STREET":" ","SECT":" ","MAREA":"茄拔","LANE":" ","ALLEY":" ","HOUSE_NO":"１９１之８號","E_COORD97":180960.95000000001,"N_COORD97":2559964.02,"ADDRESS":"茄拔１９１之８號","OBJECTID":111281},"geometry":{"x":180960.95000000019,"y":2559964.0199999996}},{"attributes":{"ID":111282,"DIS_CODE":0,"TOWNNAME":"新營區","LI":"太北里","LIN":"5鄰","STREET":" ","SECT":" ","MAREA":"太子宮","LANE":" ","ALLEY":" ","HOUSE_NO":"４２之８號","E_COORD97":175749.82000000001,"N_COORD97":2577234.6200000001,"ADDRESS":"太子宮４２之８號","OBJECTID":111282},"geometry":{"x":175749.81999999937,"y":2577234.6200000029}},{"attributes":{"ID":111283,"DIS_CODE":0,"TOWNNAME":"東區","LI":"富強里","LIN":"9鄰","STREET":"裕農路","SECT":" ","MAREA":" ","LANE":"４４６巷","ALLEY":"７０弄","HOUSE_NO":"３１號之３","E_COORD97":171160.98999999999,"N_COORD97":2542892.8199999998,"ADDRESS":"裕農路４４６巷７０弄３１號之３","OBJECTID":111283},"geometry":{"x":171160.99000000022,"y":2542892.8200000003}},{"attributes":{"ID":111284,"DIS_CODE":0,"TOWNNAME":"東區","LI":"富強里","LIN":"9鄰","STREET":"裕農路","SECT":" ","MAREA":" ","LANE":"４４６巷","ALLEY":"７０弄","HOUSE_NO":"３１號之４","E_COORD97":171162.59,"N_COORD97":2542887.6099999999,"ADDRESS":"裕農路４４６巷７０弄３１號之４","OBJECTID":111284},"geometry":{"x":171162.59000000078,"y":2542887.6100000013}},{"attributes":{"ID":111285,"DIS_CODE":0,"TOWNNAME":"東區","LI":"富強里","LIN":"9鄰","STREET":"裕農路","SECT":" ","MAREA":" ","LANE":"４４６巷","ALLEY":"７０弄","HOUSE_NO":"３１號之５","E_COORD97":171163.44,"N_COORD97":2542882.0800000001,"ADDRESS":"裕農路４４６巷７０弄３１號之５","OBJECTID":111285},"geometry":{"x":171163.44000000041,"y":2542882.0800000019}},{"attributes":{"ID":111286,"DIS_CODE":0,"TOWNNAME":"東區","LI":"富強里","LIN":"9鄰","STREET":"裕農路","SECT":" ","MAREA":" ","LANE":"４４６巷","ALLEY":"７０弄","HOUSE_NO":"３１號之６","E_COORD97":171163.85999999999,"N_COORD97":2542876.77,"ADDRESS":"裕農路４４６巷７０弄３１號之６","OBJECTID":111286},"geometry":{"x":171163.86000000034,"y":2542876.7700000014}},{"attributes":{"ID":111287,"DIS_CODE":0,"TOWNNAME":"東區","LI":"富強里","LIN":"9鄰","STREET":"裕農路","SECT":" ","MAREA":" ","LANE":"４４６巷","ALLEY":"７０弄","HOUSE_NO":"３１號之７","E_COORD97":171164.25,"N_COORD97":2542871.8999999999,"ADDRESS":"裕農路４４６巷７０弄３１號之７","OBJECTID":111287},"geometry":{"x":171164.25,"y":2542871.9000000004}},{"attributes":{"ID":111288,"DIS_CODE":0,"TOWNNAME":"新營區","LI":"土庫里","LIN":"15鄰","STREET":" ","SECT":" ","MAREA":"土庫","LANE":" ","ALLEY":" ","HOUSE_NO":"１３０之２號","E_COORD97":183272.54999999999,"N_COORD97":2579692.8100000001,"ADDRESS":"土庫１３０之２號","OBJECTID":111288},"geometry":{"x":183272.54999999981,"y":2579692.8100000042}},{"attributes":{"ID":111289,"DIS_CODE":0,"TOWNNAME":"東區","LI":"富強里","LIN":"9鄰","STREET":"裕農路","SECT":" ","MAREA":" ","LANE":"４４６巷","ALLEY":"７０弄","HOUSE_NO":"３１號之８","E_COORD97":171163.84,"N_COORD97":2542866.8799999999,"ADDRESS":"裕農路４４６巷７０弄３１號之８","OBJECTID":111289},"geometry":{"x":171163.84000000171,"y":2542866.879999999}},{"attributes":{"ID":111290,"DIS_CODE":0,"TOWNNAME":"南化區","LI":"北平里","LIN":"1鄰","STREET":" ","SECT":" ","MAREA":"北平","LANE":" ","ALLEY":" ","HOUSE_NO":"１０號之２","E_COORD97":196503.06,"N_COORD97":2551744.7999999998,"ADDRESS":"北平１０號之２","OBJECTID":111290},"geometry":{"x":196503.05999999959,"y":2551744.8000000007}},{"attributes":{"ID":111291,"DIS_CODE":0,"TOWNNAME":"南化區","LI":"北平里","LIN":"1鄰","STREET":" ","SECT":" ","MAREA":"北平","LANE":" ","ALLEY":" ","HOUSE_NO":"９之３號","E_COORD97":196416.14000000001,"N_COORD97":2551972.7999999998,"ADDRESS":"北平９之３號","OBJECTID":111291},"geometry":{"x":196416.13999999966,"y":2551972.8000000007}},{"attributes":{"ID":111292,"DIS_CODE":0,"TOWNNAME":"南化區","LI":"北平里","LIN":"1鄰","STREET":" ","SECT":" ","MAREA":"北平","LANE":" ","ALLEY":" ","HOUSE_NO":"６號之１","E_COORD97":196612.17999999999,"N_COORD97":2552307.7999999998,"ADDRESS":"北平６號之１","OBJECTID":111292},"geometry":{"x":196612.1799999997,"y":2552307.8000000007}},{"attributes":{"ID":111293,"DIS_CODE":0,"TOWNNAME":"南化區","LI":"北平里","LIN":"1鄰","STREET":" ","SECT":" ","MAREA":"北平","LANE":" ","ALLEY":" ","HOUSE_NO":"２號","E_COORD97":196665.34,"N_COORD97":2551699.75,"ADDRESS":"北平２號","OBJECTID":111293},"geometry":{"x":196665.34000000078,"y":2551699.7500000019}},{"attributes":{"ID":111294,"DIS_CODE":0,"TOWNNAME":"南化區","LI":"北平里","LIN":"1鄰","STREET":" ","SECT":" ","MAREA":"北平","LANE":" ","ALLEY":" ","HOUSE_NO":"４號","E_COORD97":196623.34,"N_COORD97":2551696.75,"ADDRESS":"北平４號","OBJECTID":111294},"geometry":{"x":196623.33999999985,"y":2551696.75}},{"attributes":{"ID":111295,"DIS_CODE":0,"TOWNNAME":"東區","LI":"富強里","LIN":"9鄰","STREET":"裕農路","SECT":" ","MAREA":" ","LANE":"４４６巷","ALLEY":"７０弄","HOUSE_NO":"３１號之９","E_COORD97":171138.23999999999,"N_COORD97":2542864.9199999999,"ADDRESS":"裕農路４４６巷７０弄３１號之９","OBJECTID":111295},"geometry":{"x":171138.24000000115,"y":2542864.9199999999}},{"attributes":{"ID":111296,"DIS_CODE":0,"TOWNNAME":"南化區","LI":"東和里","LIN":"1鄰","STREET":" ","SECT":" ","MAREA":"東和","LANE":" ","ALLEY":" ","HOUSE_NO":"４號之１","E_COORD97":196137.64999999999,"N_COORD97":2547582.7999999998,"ADDRESS":"東和４號之１","OBJECTID":111296},"geometry":{"x":196137.65000000224,"y":2547582.8000000045}},{"attributes":{"ID":111297,"DIS_CODE":0,"TOWNNAME":"善化區","LI":"胡厝里","LIN":"9鄰","STREET":" ","SECT":" ","MAREA":"胡厝寮","LANE":" ","ALLEY":" ","HOUSE_NO":"２１３號","E_COORD97":175218.29999999999,"N_COORD97":2560375.25,"ADDRESS":"胡厝寮２１３號","OBJECTID":111297},"geometry":{"x":175218.29999999981,"y":2560375.2500000019}},{"attributes":{"ID":111298,"DIS_CODE":0,"TOWNNAME":"善化區","LI":"胡厝里","LIN":"9鄰","STREET":" ","SECT":" ","MAREA":"胡厝寮","LANE":" ","ALLEY":" ","HOUSE_NO":"２１９號之１５","E_COORD97":175114.47,"N_COORD97":2560395.77,"ADDRESS":"胡厝寮２１９號之１５","OBJECTID":111298},"geometry":{"x":175114.4700000016,"y":2560395.7700000014}},{"attributes":{"ID":111299,"DIS_CODE":0,"TOWNNAME":"善化區","LI":"胡厝里","LIN":"9鄰","STREET":" ","SECT":" ","MAREA":"胡厝寮","LANE":" ","ALLEY":" ","HOUSE_NO":"２１８號","E_COORD97":175148.75,"N_COORD97":2560329.75,"ADDRESS":"胡厝寮２１８號","OBJECTID":111299},"geometry":{"x":175148.75000000093,"y":2560329.75}},{"attributes":{"ID":111300,"DIS_CODE":0,"TOWNNAME":"善化區","LI":"東隆里","LIN":"9鄰","STREET":" ","SECT":" ","MAREA":"東勢寮","LANE":" ","ALLEY":" ","HOUSE_NO":"２３５之２號","E_COORD97":179871.69,"N_COORD97":2561380.27,"ADDRESS":"東勢寮２３５之２號","OBJECTID":111300},"geometry":{"x":179871.69000000041,"y":2561380.2699999996}},{"attributes":{"ID":111301,"DIS_CODE":0,"TOWNNAME":"善化區","LI":"嘉北里","LIN":"9鄰","STREET":" ","SECT":" ","MAREA":"茄拔","LANE":" ","ALLEY":" ","HOUSE_NO":"１９１號之１","E_COORD97":180972.81,"N_COORD97":2560005.02,"ADDRESS":"茄拔１９１號之１","OBJECTID":111301},"geometry":{"x":180972.81000000052,"y":2560005.0199999996}},{"attributes":{"ID":111302,"DIS_CODE":0,"TOWNNAME":"善化區","LI":"胡厝里","LIN":"9鄰","STREET":" ","SECT":" ","MAREA":"胡厝寮","LANE":" ","ALLEY":" ","HOUSE_NO":"２１５之３號","E_COORD97":175197.88,"N_COORD97":2560381.02,"ADDRESS":"胡厝寮２１５之３號","OBJECTID":111302},"geometry":{"x":175197.87999999989,"y":2560381.0199999996}},{"attributes":{"ID":111303,"DIS_CODE":0,"TOWNNAME":"善化區","LI":"東隆里","LIN":"9鄰","STREET":" ","SECT":" ","MAREA":"東勢寮","LANE":" ","ALLEY":" ","HOUSE_NO":"２１２號之３","E_COORD97":179953.29999999999,"N_COORD97":2561377.02,"ADDRESS":"東勢寮２１２號之３","OBJECTID":111303},"geometry":{"x":179953.29999999981,"y":2561377.0200000014}},{"attributes":{"ID":111304,"DIS_CODE":0,"TOWNNAME":"善化區","LI":"嘉北里","LIN":"9鄰","STREET":" ","SECT":" ","MAREA":"茄拔","LANE":" ","ALLEY":" ","HOUSE_NO":"１９０號","E_COORD97":180989.25,"N_COORD97":2559997.7599999998,"ADDRESS":"茄拔１９０號","OBJECTID":111304},"geometry":{"x":180989.25,"y":2559997.7600000035}},{"attributes":{"ID":111305,"DIS_CODE":0,"TOWNNAME":"善化區","LI":"東隆里","LIN":"9鄰","STREET":" ","SECT":" ","MAREA":"東勢寮","LANE":" ","ALLEY":" ","HOUSE_NO":"２３３號之３","E_COORD97":179819.19,"N_COORD97":2561367.27,"ADDRESS":"東勢寮２３３號之３","OBJECTID":111305},"geometry":{"x":179819.19000000041,"y":2561367.2700000033}},{"attributes":{"ID":111306,"DIS_CODE":0,"TOWNNAME":"善化區","LI":"嘉北里","LIN":"9鄰","STREET":" ","SECT":" ","MAREA":"茄拔","LANE":" ","ALLEY":" ","HOUSE_NO":"１８８之２號","E_COORD97":181019.22,"N_COORD97":2560010.52,"ADDRESS":"茄拔１８８之２號","OBJECTID":111306},"geometry":{"x":181019.22000000067,"y":2560010.5200000014}},{"attributes":{"ID":111307,"DIS_CODE":0,"TOWNNAME":"新營區","LI":"太北里","LIN":"19鄰","STREET":" ","SECT":" ","MAREA":"太子宮","LANE":" ","ALLEY":" ","HOUSE_NO":"４３號之４","E_COORD97":175755.48999999999,"N_COORD97":2577209.1200000001,"ADDRESS":"太子宮４３號之４","OBJECTID":111307},"geometry":{"x":175755.49000000209,"y":2577209.120000001}},{"attributes":{"ID":111308,"DIS_CODE":0,"TOWNNAME":"東區","LI":"富強里","LIN":"9鄰","STREET":"裕農路","SECT":" ","MAREA":" ","LANE":"４４６巷","ALLEY":"９０弄","HOUSE_NO":"１８號","E_COORD97":171180.42999999999,"N_COORD97":2542912.1000000001,"ADDRESS":"裕農路４４６巷９０弄１８號","OBJECTID":111308},"geometry":{"x":171180.43000000063,"y":2542912.1000000015}},{"attributes":{"ID":111309,"DIS_CODE":0,"TOWNNAME":"南化區","LI":"北寮里","LIN":"1鄰","STREET":" ","SECT":" ","MAREA":"北寮","LANE":" ","ALLEY":" ","HOUSE_NO":"２之１３號","E_COORD97":197862.48999999999,"N_COORD97":2553008.7999999998,"ADDRESS":"北寮２之１３號","OBJECTID":111309},"geometry":{"x":197862.49000000209,"y":2553008.8000000026}},{"attributes":{"ID":111310,"DIS_CODE":0,"TOWNNAME":"南化區","LI":"小崙里","LIN":"1鄰","STREET":" ","SECT":" ","MAREA":"小崙","LANE":" ","ALLEY":" ","HOUSE_NO":"３之５號","E_COORD97":196749.82000000001,"N_COORD97":2549759.7999999998,"ADDRESS":"小崙３之５號","OBJECTID":111310},"geometry":{"x":196749.8200000003,"y":2549759.8000000026}},{"attributes":{"ID":111311,"DIS_CODE":0,"TOWNNAME":"南化區","LI":"中坑里","LIN":"1鄰","STREET":" ","SECT":" ","MAREA":"中坑","LANE":" ","ALLEY":" ","HOUSE_NO":"１０號","E_COORD97":195132.16,"N_COORD97":2549908.7799999998,"ADDRESS":"中坑１０號","OBJECTID":111311},"geometry":{"x":195132.16000000108,"y":2549908.7800000012}},{"attributes":{"ID":111312,"DIS_CODE":0,"TOWNNAME":"新營區","LI":"太南里","LIN":"14鄰","STREET":" ","SECT":" ","MAREA":"太子宮","LANE":" ","ALLEY":" ","HOUSE_NO":"２８３號","E_COORD97":176176.60000000001,"N_COORD97":2576707.5,"ADDRESS":"太子宮２８３號","OBJECTID":111312},"geometry":{"x":176176.60000000056,"y":2576707.5000000037}},{"attributes":{"ID":111313,"DIS_CODE":0,"TOWNNAME":"東區","LI":"富強里","LIN":"9鄰","STREET":"裕農路","SECT":" ","MAREA":" ","LANE":"４４６巷","ALLEY":"９０弄","HOUSE_NO":"３３號","E_COORD97":171185.39999999999,"N_COORD97":2542884.3100000001,"ADDRESS":"裕農路４４６巷９０弄３３號","OBJECTID":111313},"geometry":{"x":171185.40000000037,"y":2542884.3100000024}},{"attributes":{"ID":111314,"DIS_CODE":0,"TOWNNAME":"東區","LI":"富強里","LIN":"9鄰","STREET":"裕農路","SECT":" ","MAREA":" ","LANE":"４４６巷","ALLEY":"９０弄","HOUSE_NO":"３５號","E_COORD97":171181.14000000001,"N_COORD97":2542884.8500000001,"ADDRESS":"裕農路４４６巷９０弄３５號","OBJECTID":111314},"geometry":{"x":171181.13999999966,"y":2542884.8499999996}},{"attributes":{"ID":111315,"DIS_CODE":0,"TOWNNAME":"新營區","LI":"新東里","LIN":"1鄰","STREET":"開元路","SECT":" ","MAREA":" ","LANE":" ","ALLEY":" ","HOUSE_NO":"１５３號","E_COORD97":181323.23999999999,"N_COORD97":2579150.1600000001,"ADDRESS":"開元路１５３號","OBJECTID":111315},"geometry":{"x":181323.24000000115,"y":2579150.1600000001}},{"attributes":{"ID":111316,"DIS_CODE":0,"TOWNNAME":"南化區","LI":"南化里","LIN":"1鄰","STREET":" ","SECT":" ","MAREA":"南化","LANE":" ","ALLEY":" ","HOUSE_NO":"１５號","E_COORD97":195104.69,"N_COORD97":2549355.75,"ADDRESS":"南化１５號","OBJECTID":111316},"geometry":{"x":195104.69000000041,"y":2549355.7500000037}},{"attributes":{"ID":111317,"DIS_CODE":0,"TOWNNAME":"南化區","LI":"小崙里","LIN":"1鄰","STREET":" ","SECT":" ","MAREA":"小崙","LANE":" ","ALLEY":" ","HOUSE_NO":"１號之３４","E_COORD97":196875.82999999999,"N_COORD97":2549507.7999999998,"ADDRESS":"小崙１號之３４","OBJECTID":111317},"geometry":{"x":196875.83000000101,"y":2549507.8000000007}},{"attributes":{"ID":111318,"DIS_CODE":0,"TOWNNAME":"南化區","LI":"北平里","LIN":"1鄰","STREET":" ","SECT":" ","MAREA":"北平","LANE":" ","ALLEY":" ","HOUSE_NO":"６號","E_COORD97":196577.14000000001,"N_COORD97":2552244.75,"ADDRESS":"北平６號","OBJECTID":111318},"geometry":{"x":196577.13999999966,"y":2552244.7500000019}},{"attributes":{"ID":111319,"DIS_CODE":0,"TOWNNAME":"南化區","LI":"小崙里","LIN":"1鄰","STREET":" ","SECT":" ","MAREA":"小崙","LANE":" ","ALLEY":" ","HOUSE_NO":"１號之９","E_COORD97":196774.94,"N_COORD97":2549494.7999999998,"ADDRESS":"小崙１號之９","OBJECTID":111319},"geometry":{"x":196774.94000000134,"y":2549494.7999999989}},{"attributes":{"ID":111320,"DIS_CODE":0,"TOWNNAME":"南化區","LI":"小崙里","LIN":"1鄰","STREET":" ","SECT":" ","MAREA":"小崙","LANE":" ","ALLEY":" ","HOUSE_NO":"１號之１８","E_COORD97":196808.04999999999,"N_COORD97":2549494.7999999998,"ADDRESS":"小崙１號之１８","OBJECTID":111320},"geometry":{"x":196808.05000000075,"y":2549494.7999999989}},{"attributes":{"ID":111321,"DIS_CODE":0,"TOWNNAME":"東區","LI":"富強里","LIN":"9鄰","STREET":"裕農路","SECT":" ","MAREA":" ","LANE":"４４６巷","ALLEY":"９０弄","HOUSE_NO":"３７號","E_COORD97":171176.67000000001,"N_COORD97":2542885.27,"ADDRESS":"裕農路４４６巷９０弄３７號","OBJECTID":111321},"geometry":{"x":171176.66999999993,"y":2542885.2699999996}},{"attributes":{"ID":111322,"DIS_CODE":0,"TOWNNAME":"東區","LI":"富強里","LIN":"9鄰","STREET":"裕農路","SECT":" ","MAREA":" ","LANE":"４４６巷","ALLEY":"９０弄","HOUSE_NO":"３９號","E_COORD97":171172.63,"N_COORD97":2542883.6800000002,"ADDRESS":"裕農路４４６巷９０弄３９號","OBJECTID":111322},"geometry":{"x":171172.63000000082,"y":2542883.6800000034}},{"attributes":{"ID":111323,"DIS_CODE":0,"TOWNNAME":"東區","LI":"富強里","LIN":"9鄰","STREET":"中華東路","SECT":"二段","MAREA":" ","LANE":"９６巷","ALLEY":"１弄","HOUSE_NO":"３號","E_COORD97":171280.75,"N_COORD97":2542805.5800000001,"ADDRESS":"中華東路二段９６巷１弄３號","OBJECTID":111323},"geometry":{"x":171280.75,"y":2542805.5800000001}},{"attributes":{"ID":111324,"DIS_CODE":0,"TOWNNAME":"東區","LI":"富強里","LIN":"9鄰","STREET":"裕農路","SECT":" ","MAREA":" ","LANE":"４４６巷","ALLEY":"７０弄","HOUSE_NO":"４７號","E_COORD97":171116.41,"N_COORD97":2542937.8900000001,"ADDRESS":"裕農路４４６巷７０弄４７號","OBJECTID":111324},"geometry":{"x":171116.41000000108,"y":2542937.8900000025}},{"attributes":{"ID":111325,"DIS_CODE":0,"TOWNNAME":"東區","LI":"富強里","LIN":"9鄰","STREET":"裕農路","SECT":" ","MAREA":" ","LANE":"４４６巷","ALLEY":"９０弄","HOUSE_NO":"１１號","E_COORD97":171221.01999999999,"N_COORD97":2542876.8799999999,"ADDRESS":"裕農路４４６巷９０弄１１號","OBJECTID":111325},"geometry":{"x":171221.01999999955,"y":2542876.879999999}},{"attributes":{"ID":111326,"DIS_CODE":0,"TOWNNAME":"東區","LI":"富強里","LIN":"9鄰","STREET":"裕農路","SECT":" ","MAREA":" ","LANE":"４４６巷","ALLEY":"９０弄","HOUSE_NO":"１３號","E_COORD97":171220.32999999999,"N_COORD97":2542872.7200000002,"ADDRESS":"裕農路４４６巷９０弄１３號","OBJECTID":111326},"geometry":{"x":171220.33000000101,"y":2542872.7200000007}},{"attributes":{"ID":111327,"DIS_CODE":0,"TOWNNAME":"新營區","LI":"大宏里","LIN":"1鄰","STREET":"民治路","SECT":" ","MAREA":" ","LANE":" ","ALLEY":" ","HOUSE_NO":"２３號","E_COORD97":180400.10000000001,"N_COORD97":2578844.3700000001,"ADDRESS":"民治路２３號","OBJECTID":111327},"geometry":{"x":180400.09999999963,"y":2578844.370000001}},{"attributes":{"ID":111328,"DIS_CODE":0,"TOWNNAME":"南化區","LI":"北平里","LIN":"1鄰","STREET":" ","SECT":" ","MAREA":"北平","LANE":" ","ALLEY":" ","HOUSE_NO":"３號","E_COORD97":196646.54000000001,"N_COORD97":2551715.75,"ADDRESS":"北平３號","OBJECTID":111328},"geometry":{"x":196646.5400000019,"y":2551715.7500000019}},{"attributes":{"ID":111329,"DIS_CODE":0,"TOWNNAME":"新營區","LI":"中營里","LIN":"1鄰","STREET":"民族路","SECT":" ","MAREA":" ","LANE":" ","ALLEY":" ","HOUSE_NO":"３號","E_COORD97":180284.78,"N_COORD97":2578292.29,"ADDRESS":"民族路３號","OBJECTID":111329},"geometry":{"x":180284.78000000212,"y":2578292.290000001}},{"attributes":{"ID":111330,"DIS_CODE":0,"TOWNNAME":"南化區","LI":"小崙里","LIN":"1鄰","STREET":" ","SECT":" ","MAREA":"小崙","LANE":" ","ALLEY":" ","HOUSE_NO":"１號之１９","E_COORD97":196812.39000000001,"N_COORD97":2549495.7999999998,"ADDRESS":"小崙１號之１９","OBJECTID":111330},"geometry":{"x":196812.38999999966,"y":2549495.8000000026}},{"attributes":{"ID":111331,"DIS_CODE":0,"TOWNNAME":"南化區","LI":"北寮里","LIN":"1鄰","STREET":" ","SECT":" ","MAREA":"北寮","LANE":" ","ALLEY":" ","HOUSE_NO":"２４號","E_COORD97":197747.19,"N_COORD97":2553050.75,"ADDRESS":"北寮２４號","OBJECTID":111331},"geometry":{"x":197747.19000000041,"y":2553050.75}},{"attributes":{"ID":111332,"DIS_CODE":0,"TOWNNAME":"南化區","LI":"北平里","LIN":"1鄰","STREET":" ","SECT":" ","MAREA":"北平","LANE":" ","ALLEY":" ","HOUSE_NO":"１之２號","E_COORD97":196650.34,"N_COORD97":2551553.7999999998,"ADDRESS":"北平１之２號","OBJECTID":111332},"geometry":{"x":196650.33999999985,"y":2551553.8000000026}},{"attributes":{"ID":111333,"DIS_CODE":0,"TOWNNAME":"南化區","LI":"小崙里","LIN":"1鄰","STREET":" ","SECT":" ","MAREA":"小崙","LANE":" ","ALLEY":" ","HOUSE_NO":"１之１６號","E_COORD97":196798.76999999999,"N_COORD97":2549492.7999999998,"ADDRESS":"小崙１之１６號","OBJECTID":111333},"geometry":{"x":196798.77000000142,"y":2549492.8000000026}},{"attributes":{"ID":111334,"DIS_CODE":0,"TOWNNAME":"南化區","LI":"北平里","LIN":"1鄰","STREET":" ","SECT":" ","MAREA":"北平","LANE":" ","ALLEY":" ","HOUSE_NO":"３之４號","E_COORD97":196601.54000000001,"N_COORD97":2551857.7999999998,"ADDRESS":"北平３之４號","OBJECTID":111334},"geometry":{"x":196601.54000000097,"y":2551857.8000000007}},{"attributes":{"ID":111335,"DIS_CODE":0,"TOWNNAME":"南化區","LI":"中坑里","LIN":"1鄰","STREET":" ","SECT":" ","MAREA":"中坑","LANE":" ","ALLEY":" ","HOUSE_NO":"１０號之１","E_COORD97":195252.5,"N_COORD97":2549934.7999999998,"ADDRESS":"中坑１０號之１","OBJECTID":111335},"geometry":{"x":195252.5,"y":2549934.8000000007}},{"attributes":{"ID":111336,"DIS_CODE":0,"TOWNNAME":"南化區","LI":"中坑里","LIN":"1鄰","STREET":" ","SECT":" ","MAREA":"中坑","LANE":" ","ALLEY":" ","HOUSE_NO":"３之２號","E_COORD97":195603.10999999999,"N_COORD97":2550647.7999999998,"ADDRESS":"中坑３之２號","OBJECTID":111336},"geometry":{"x":195603.11000000034,"y":2550647.8000000045}},{"attributes":{"ID":111337,"DIS_CODE":0,"TOWNNAME":"新營區","LI":"角帶里","LIN":"1鄰","STREET":" ","SECT":" ","MAREA":"角帶圍","LANE":" ","ALLEY":" ","HOUSE_NO":"７號","E_COORD97":174790.64000000001,"N_COORD97":2576036.6899999999,"ADDRESS":"角帶圍７號","OBJECTID":111337},"geometry":{"x":174790.63999999966,"y":2576036.6899999995}},{"attributes":{"ID":111338,"DIS_CODE":0,"TOWNNAME":"新營區","LI":"鐵線里","LIN":"1鄰","STREET":" ","SECT":" ","MAREA":"鐵線橋","LANE":" ","ALLEY":" ","HOUSE_NO":"６之１５號","E_COORD97":176027.98999999999,"N_COORD97":2573952.9300000002,"ADDRESS":"鐵線橋６之１５號","OBJECTID":111338},"geometry":{"x":176027.99000000022,"y":2573952.9300000016}},{"attributes":{"ID":111339,"DIS_CODE":0,"TOWNNAME":"東區","LI":"富強里","LIN":"9鄰","STREET":"裕農路","SECT":" ","MAREA":" ","LANE":"４４６巷","ALLEY":"９０弄","HOUSE_NO":"１５號","E_COORD97":171220.76000000001,"N_COORD97":2542868.3700000001,"ADDRESS":"裕農路４４６巷９０弄１５號","OBJECTID":111339},"geometry":{"x":171220.76000000071,"y":2542868.3700000029}},{"attributes":{"ID":111340,"DIS_CODE":0,"TOWNNAME":"新營區","LI":"五興里","LIN":"1鄰","STREET":" ","SECT":" ","MAREA":"五間厝","LANE":" ","ALLEY":" ","HOUSE_NO":"１３號","E_COORD97":175816.29999999999,"N_COORD97":2574884.1899999999,"ADDRESS":"五間厝１３號","OBJECTID":111340},"geometry":{"x":175816.30000000075,"y":2574884.1899999995}},{"attributes":{"ID":111341,"DIS_CODE":0,"TOWNNAME":"新營區","LI":"鐵線里","LIN":"1鄰","STREET":" ","SECT":" ","MAREA":"鐵線橋","LANE":" ","ALLEY":" ","HOUSE_NO":"６號","E_COORD97":176000.97,"N_COORD97":2574003.9500000002,"ADDRESS":"鐵線橋６號","OBJECTID":111341},"geometry":{"x":176000.9700000016,"y":2574003.9499999993}},{"attributes":{"ID":111342,"DIS_CODE":0,"TOWNNAME":"新營區","LI":"五興里","LIN":"1鄰","STREET":" ","SECT":" ","MAREA":"五間厝","LANE":" ","ALLEY":" ","HOUSE_NO":"２之６號","E_COORD97":175852.07000000001,"N_COORD97":2574817.6299999999,"ADDRESS":"五間厝２之６號","OBJECTID":111342},"geometry":{"x":175852.07000000123,"y":2574817.6300000008}},{"attributes":{"ID":111343,"DIS_CODE":0,"TOWNNAME":"善化區","LI":"東隆里","LIN":"9鄰","STREET":" ","SECT":" ","MAREA":"東勢寮","LANE":" ","ALLEY":" ","HOUSE_NO":"２１７號之１","E_COORD97":179937.75,"N_COORD97":2561392.52,"ADDRESS":"東勢寮２１７號之１","OBJECTID":111343},"geometry":{"x":179937.75000000093,"y":2561392.5200000033}},{"attributes":{"ID":111344,"DIS_CODE":0,"TOWNNAME":"善化區","LI":"胡家里","LIN":"9鄰","STREET":" ","SECT":" ","MAREA":"胡厝寮","LANE":" ","ALLEY":" ","HOUSE_NO":"３５號之４","E_COORD97":175382.45000000001,"N_COORD97":2560469.77,"ADDRESS":"胡厝寮３５號之４","OBJECTID":111344},"geometry":{"x":175382.45000000019,"y":2560469.7700000014}},{"attributes":{"ID":111345,"DIS_CODE":0,"TOWNNAME":"東區","LI":"富強里","LIN":"9鄰","STREET":"裕農路","SECT":" ","MAREA":" ","LANE":"４４６巷","ALLEY":"９０弄","HOUSE_NO":"１６號","E_COORD97":171192,"N_COORD97":2542914.5899999999,"ADDRESS":"裕農路４４６巷９０弄１６號","OBJECTID":111345},"geometry":{"x":171192.00000000093,"y":2542914.589999998}},{"attributes":{"ID":111346,"DIS_CODE":0,"TOWNNAME":"善化區","LI":"田寮里","LIN":"9鄰","STREET":" ","SECT":" ","MAREA":"六分寮","LANE":" ","ALLEY":" ","HOUSE_NO":"９２號","E_COORD97":178629.26000000001,"N_COORD97":2561502.5,"ADDRESS":"六分寮９２號","OBJECTID":111346},"geometry":{"x":178629.25999999978,"y":2561502.5000000019}},{"attributes":{"ID":111347,"DIS_CODE":0,"TOWNNAME":"善化區","LI":"牛庄里","LIN":"9鄰","STREET":" ","SECT":" ","MAREA":"牛庄","LANE":" ","ALLEY":" ","HOUSE_NO":"１１１號之４","E_COORD97":180089.63,"N_COORD97":2559905.77,"ADDRESS":"牛庄１１１號之４","OBJECTID":111347},"geometry":{"x":180089.63000000082,"y":2559905.7700000033}},{"attributes":{"ID":111348,"DIS_CODE":0,"TOWNNAME":"善化區","LI":"胡家里","LIN":"9鄰","STREET":" ","SECT":" ","MAREA":"胡厝寮","LANE":" ","ALLEY":" ","HOUSE_NO":"３５號之２","E_COORD97":175383.34,"N_COORD97":2560463.02,"ADDRESS":"胡厝寮３５號之２","OBJECTID":111348},"geometry":{"x":175383.34000000078,"y":2560463.0199999996}},{"attributes":{"ID":111349,"DIS_CODE":0,"TOWNNAME":"善化區","LI":"六分里","LIN":"9鄰","STREET":" ","SECT":" ","MAREA":"溪底寮","LANE":" ","ALLEY":" ","HOUSE_NO":"２０號之２","E_COORD97":177647.45000000001,"N_COORD97":2561741.02,"ADDRESS":"溪底寮２０號之２","OBJECTID":111349},"geometry":{"x":177647.44999999925,"y":2561741.0199999996}},{"attributes":{"ID":111350,"DIS_CODE":0,"TOWNNAME":"佳里區","LI":"三協里","LIN":"9鄰","STREET":" ","SECT":" ","MAREA":"後庄","LANE":" ","ALLEY":" ","HOUSE_NO":"１０號之２９","E_COORD97":168314.73999999999,"N_COORD97":2564685.9700000002,"ADDRESS":"後庄１０號之２９","OBJECTID":111350},"geometry":{"x":168314.74000000022,"y":2564685.9699999988}},{"attributes":{"ID":111351,"DIS_CODE":0,"TOWNNAME":"佳里區","LI":"三協里","LIN":"9鄰","STREET":" ","SECT":" ","MAREA":"後庄","LANE":" ","ALLEY":" ","HOUSE_NO":"１０號之２","E_COORD97":168344.19,"N_COORD97":2564633.27,"ADDRESS":"後庄１０號之２","OBJECTID":111351},"geometry":{"x":168344.19000000041,"y":2564633.2700000014}},{"attributes":{"ID":111352,"DIS_CODE":0,"TOWNNAME":"佳里區","LI":"三協里","LIN":"9鄰","STREET":" ","SECT":" ","MAREA":"後庄","LANE":" ","ALLEY":" ","HOUSE_NO":"１０號之３","E_COORD97":168345.22,"N_COORD97":2564637.6899999999,"ADDRESS":"後庄１０號之３","OBJECTID":111352},"geometry":{"x":168345.21999999974,"y":2564637.6899999995}},{"attributes":{"ID":111353,"DIS_CODE":0,"TOWNNAME":"佳里區","LI":"三協里","LIN":"9鄰","STREET":" ","SECT":" ","MAREA":"後庄","LANE":" ","ALLEY":" ","HOUSE_NO":"１０號之４","E_COORD97":168345.79000000001,"N_COORD97":2564642.3100000001,"ADDRESS":"後庄１０號之４","OBJECTID":111353},"geometry":{"x":168345.79000000097,"y":2564642.3100000005}},{"attributes":{"ID":111354,"DIS_CODE":0,"TOWNNAME":"佳里區","LI":"三協里","LIN":"9鄰","STREET":" ","SECT":" ","MAREA":"後庄","LANE":" ","ALLEY":" ","HOUSE_NO":"１０號之５","E_COORD97":168346.44,"N_COORD97":2564646.3599999999,"ADDRESS":"後庄１０號之５","OBJECTID":111354},"geometry":{"x":168346.44000000227,"y":2564646.3600000013}},{"attributes":{"ID":111355,"DIS_CODE":0,"TOWNNAME":"佳里區","LI":"三協里","LIN":"9鄰","STREET":" ","SECT":" ","MAREA":"後庄","LANE":" ","ALLEY":" ","HOUSE_NO":"１０號之６","E_COORD97":168347.28,"N_COORD97":2564651.1000000001,"ADDRESS":"後庄１０號之６","OBJECTID":111355},"geometry":{"x":168347.28000000212,"y":2564651.1000000015}},{"attributes":{"ID":111356,"DIS_CODE":0,"TOWNNAME":"佳里區","LI":"三協里","LIN":"9鄰","STREET":" ","SECT":" ","MAREA":"後庄","LANE":" ","ALLEY":" ","HOUSE_NO":"１０號之７","E_COORD97":168348.20999999999,"N_COORD97":2564655.8199999998,"ADDRESS":"後庄１０號之７","OBJECTID":111356},"geometry":{"x":168348.21000000089,"y":2564655.8200000003}},{"attributes":{"ID":111357,"DIS_CODE":0,"TOWNNAME":"佳里區","LI":"三協里","LIN":"9鄰","STREET":" ","SECT":" ","MAREA":"後庄","LANE":" ","ALLEY":" ","HOUSE_NO":"１０號之８","E_COORD97":168348.89999999999,"N_COORD97":2564660.27,"ADDRESS":"後庄１０號之８","OBJECTID":111357},"geometry":{"x":168348.9000000013,"y":2564660.2700000014}},{"attributes":{"ID":111358,"DIS_CODE":0,"TOWNNAME":"新營區","LI":"中營里","LIN":"1鄰","STREET":"中山路","SECT":" ","MAREA":" ","LANE":" ","ALLEY":" ","HOUSE_NO":"１３６號","E_COORD97":180190.64000000001,"N_COORD97":2578207.4700000002,"ADDRESS":"中山路１３６號","OBJECTID":111358},"geometry":{"x":180190.6400000006,"y":2578207.4700000025}},{"attributes":{"ID":111359,"DIS_CODE":0,"TOWNNAME":"佳里區","LI":"三協里","LIN":"9鄰","STREET":" ","SECT":" ","MAREA":"後庄","LANE":" ","ALLEY":" ","HOUSE_NO":"１０號之９","E_COORD97":168349.95999999999,"N_COORD97":2564664.0499999998,"ADDRESS":"後庄１０號之９","OBJECTID":111359},"geometry":{"x":168349.96000000089,"y":2564664.0500000007}},{"attributes":{"ID":111360,"DIS_CODE":0,"TOWNNAME":"新營區","LI":"新東里","LIN":"1鄰","STREET":"開元路","SECT":" ","MAREA":" ","LANE":" ","ALLEY":" ","HOUSE_NO":"２０９之１號","E_COORD97":181663.13,"N_COORD97":2579546.21,"ADDRESS":"開元路２０９之１號","OBJECTID":111360},"geometry":{"x":181663.12999999989,"y":2579546.2100000028}},{"attributes":{"ID":111361,"DIS_CODE":0,"TOWNNAME":"佳里區","LI":"三協里","LIN":"9鄰","STREET":" ","SECT":" ","MAREA":"後庄","LANE":" ","ALLEY":" ","HOUSE_NO":"１４號之１","E_COORD97":168428.59,"N_COORD97":2564576.9700000002,"ADDRESS":"後庄１４號之１","OBJECTID":111361},"geometry":{"x":168428.59000000078,"y":2564576.9700000007}},{"attributes":{"ID":111362,"DIS_CODE":0,"TOWNNAME":"學甲區","LI":"中洲里","LIN":"9鄰","STREET":" ","SECT":" ","MAREA":"中洲","LANE":" ","ALLEY":" ","HOUSE_NO":"８５號","E_COORD97":163812.95000000001,"N_COORD97":2571272.48,"ADDRESS":"中洲８５號","OBJECTID":111362},"geometry":{"x":163812.95000000019,"y":2571272.4800000004}},{"attributes":{"ID":111363,"DIS_CODE":0,"TOWNNAME":"佳里區","LI":"嘉福里","LIN":"8鄰","STREET":" ","SECT":" ","MAREA":"下營","LANE":" ","ALLEY":" ","HOUSE_NO":"５８號","E_COORD97":163148.87,"N_COORD97":2563424.9399999999,"ADDRESS":"下營５８號","OBJECTID":111363},"geometry":{"x":163148.87000000011,"y":2563424.9400000013}},{"attributes":{"ID":111364,"DIS_CODE":0,"TOWNNAME":"佳里區","LI":"嘉福里","LIN":"8鄰","STREET":" ","SECT":" ","MAREA":"下營","LANE":" ","ALLEY":" ","HOUSE_NO":"５９號","E_COORD97":163198.07000000001,"N_COORD97":2563427.3700000001,"ADDRESS":"下營５９號","OBJECTID":111364},"geometry":{"x":163198.0700000003,"y":2563427.3700000029}},{"attributes":{"ID":111365,"DIS_CODE":0,"TOWNNAME":"佳里區","LI":"嘉福里","LIN":"8鄰","STREET":" ","SECT":" ","MAREA":"下營","LANE":" ","ALLEY":" ","HOUSE_NO":"７４號之１","E_COORD97":163181.14000000001,"N_COORD97":2563487.7999999998,"ADDRESS":"下營７４號之１","OBJECTID":111365},"geometry":{"x":163181.1400000006,"y":2563487.8000000026}},{"attributes":{"ID":111366,"DIS_CODE":0,"TOWNNAME":"佳里區","LI":"嘉福里","LIN":"8鄰","STREET":" ","SECT":" ","MAREA":"下營","LANE":" ","ALLEY":" ","HOUSE_NO":"７４號","E_COORD97":163190.09,"N_COORD97":2563465.3100000001,"ADDRESS":"下營７４號","OBJECTID":111366},"geometry":{"x":163190.09000000078,"y":2563465.3100000005}},{"attributes":{"ID":111367,"DIS_CODE":0,"TOWNNAME":"佳里區","LI":"嘉福里","LIN":"8鄰","STREET":" ","SECT":" ","MAREA":"下營","LANE":" ","ALLEY":" ","HOUSE_NO":"７５號","E_COORD97":163160.92000000001,"N_COORD97":2563466.8199999998,"ADDRESS":"下營７５號","OBJECTID":111367},"geometry":{"x":163160.92000000086,"y":2563466.8200000022}},{"attributes":{"ID":111368,"DIS_CODE":0,"TOWNNAME":"佳里區","LI":"嘉福里","LIN":"8鄰","STREET":" ","SECT":" ","MAREA":"下營","LANE":" ","ALLEY":" ","HOUSE_NO":"７７號","E_COORD97":163152.95000000001,"N_COORD97":2563495.5099999998,"ADDRESS":"下營７７號","OBJECTID":111368},"geometry":{"x":163152.95000000019,"y":2563495.5100000016}},{"attributes":{"ID":111369,"DIS_CODE":0,"TOWNNAME":"佳里區","LI":"嘉福里","LIN":"8鄰","STREET":" ","SECT":" ","MAREA":"下營","LANE":" ","ALLEY":" ","HOUSE_NO":"７８號","E_COORD97":163123.47,"N_COORD97":2563506.4500000002,"ADDRESS":"下營７８號","OBJECTID":111369},"geometry":{"x":163123.46999999974,"y":2563506.4500000011}},{"attributes":{"ID":111370,"DIS_CODE":0,"TOWNNAME":"新營區","LI":"姑爺里","LIN":"1鄰","STREET":" ","SECT":" ","MAREA":"姑爺","LANE":" ","ALLEY":" ","HOUSE_NO":"８號","E_COORD97":174393.17000000001,"N_COORD97":2574321.04,"ADDRESS":"姑爺８號","OBJECTID":111370},"geometry":{"x":174393.17000000086,"y":2574321.040000001}},{"attributes":{"ID":111371,"DIS_CODE":0,"TOWNNAME":"新化區","LI":"崙頂里","LIN":"1鄰","STREET":" ","SECT":" ","MAREA":"崙子頂","LANE":" ","ALLEY":" ","HOUSE_NO":"７號","E_COORD97":177022.42999999999,"N_COORD97":2546867.25,"ADDRESS":"崙子頂７號","OBJECTID":111371},"geometry":{"x":177022.43000000063,"y":2546867.2500000037}},{"attributes":{"ID":111372,"DIS_CODE":0,"TOWNNAME":"新化區","LI":"\u25A0拔里","LIN":"1鄰","STREET":" ","SECT":" ","MAREA":"\u25A0拔林","LANE":" ","ALLEY":" ","HOUSE_NO":"３７號","E_COORD97":183012.57000000001,"N_COORD97":2552030.25,"ADDRESS":"\u25A0拔林３７號","OBJECTID":111372},"geometry":{"x":183012.57000000123,"y":2552030.25}},{"attributes":{"ID":111373,"DIS_CODE":0,"TOWNNAME":"新化區","LI":"知義里","LIN":"1鄰","STREET":" ","SECT":" ","MAREA":"知母義","LANE":" ","ALLEY":" ","HOUSE_NO":"１０號之１","E_COORD97":179512.39999999999,"N_COORD97":2546977.25,"ADDRESS":"知母義１０號之１","OBJECTID":111373},"geometry":{"x":179512.40000000037,"y":2546977.2500000019}},{"attributes":{"ID":111374,"DIS_CODE":0,"TOWNNAME":"新化區","LI":"\u25A0拔里","LIN":"1鄰","STREET":" ","SECT":" ","MAREA":"\u25A0拔林","LANE":" ","ALLEY":" ","HOUSE_NO":"１７號","E_COORD97":183179.97,"N_COORD97":2551888.25,"ADDRESS":"\u25A0拔林１７號","OBJECTID":111374},"geometry":{"x":183179.96999999881,"y":2551888.2500000037}},{"attributes":{"ID":111375,"DIS_CODE":0,"TOWNNAME":"新營區","LI":"太南里","LIN":" ","STREET":" ","SECT":" ","MAREA":"太子宮","LANE":" ","ALLEY":" ","HOUSE_NO":"３０５之２號","E_COORD97":176006.23999999999,"N_COORD97":2576707.2999999998,"ADDRESS":"太子宮３０５之２號","OBJECTID":111375},"geometry":{"x":176006.24000000022,"y":2576707.3000000026}},{"attributes":{"ID":111376,"DIS_CODE":0,"TOWNNAME":"新化區","LI":"\u25A0拔里","LIN":"1鄰","STREET":" ","SECT":" ","MAREA":"\u25A0拔林","LANE":" ","ALLEY":" ","HOUSE_NO":"２９號之２","E_COORD97":183127.23000000001,"N_COORD97":2551968.2599999998,"ADDRESS":"\u25A0拔林２９號之２","OBJECTID":111376},"geometry":{"x":183127.23000000138,"y":2551968.2599999998}},{"attributes":{"ID":111377,"DIS_CODE":0,"TOWNNAME":"新化區","LI":"\u25A0拔里","LIN":"1鄰","STREET":" ","SECT":" ","MAREA":"\u25A0拔林","LANE":" ","ALLEY":" ","HOUSE_NO":"４６號","E_COORD97":183180.67000000001,"N_COORD97":2551978.25,"ADDRESS":"\u25A0拔林４６號","OBJECTID":111377},"geometry":{"x":183180.67000000179,"y":2551978.25}},{"attributes":{"ID":111378,"DIS_CODE":0,"TOWNNAME":"新化區","LI":"知義里","LIN":"1鄰","STREET":" ","SECT":" ","MAREA":"知母義","LANE":" ","ALLEY":" ","HOUSE_NO":"３號","E_COORD97":179605.62,"N_COORD97":2547157.25,"ADDRESS":"知母義３號","OBJECTID":111378},"geometry":{"x":179605.62000000011,"y":2547157.25}},{"attributes":{"ID":111379,"DIS_CODE":0,"TOWNNAME":"新化區","LI":"山\u25A0里","LIN":"1鄰","STREET":" ","SECT":" ","MAREA":"頂山\u25A0","LANE":" ","ALLEY":" ","HOUSE_NO":"８３號","E_COORD97":179669.98000000001,"N_COORD97":2546484.25,"ADDRESS":"頂山\u25A0８３號","OBJECTID":111379},"geometry":{"x":179669.98000000231,"y":2546484.2500000019}},{"attributes":{"ID":111380,"DIS_CODE":0,"TOWNNAME":"佳里區","LI":"嘉福里","LIN":"8鄰","STREET":" ","SECT":" ","MAREA":"下營","LANE":" ","ALLEY":" ","HOUSE_NO":"７９號","E_COORD97":163078.29000000001,"N_COORD97":2563494.0699999998,"ADDRESS":"下營７９號","OBJECTID":111380},"geometry":{"x":163078.2900000019,"y":2563494.0700000003}},{"attributes":{"ID":111381,"DIS_CODE":0,"TOWNNAME":"鹽水區","LI":"義稠里","LIN":"8鄰","STREET":" ","SECT":" ","MAREA":"義稠","LANE":" ","ALLEY":" ","HOUSE_NO":"１１０之２５號之１一","E_COORD97":173775.22,"N_COORD97":2580577.1800000002,"ADDRESS":"義稠１１０之２５號之１一樓","OBJECTID":111381},"geometry":{"x":173775.2200000016,"y":2580577.1799999997}},{"attributes":{"ID":111382,"DIS_CODE":0,"TOWNNAME":"麻豆區","LI":"莊禮里","LIN":"8鄰","STREET":" ","SECT":" ","MAREA":"\u25A0子寮","LANE":" ","ALLEY":" ","HOUSE_NO":"１０號","E_COORD97":169177.22,"N_COORD97":2565735.8399999999,"ADDRESS":"\u25A0子寮１０號","OBJECTID":111382},"geometry":{"x":169177.21999999974,"y":2565735.8399999999}},{"attributes":{"ID":111383,"DIS_CODE":0,"TOWNNAME":"東區","LI":"富強里","LIN":"9鄰","STREET":"裕農路","SECT":" ","MAREA":" ","LANE":"４４６巷","ALLEY":"９０弄","HOUSE_NO":"１７號","E_COORD97":171198.42000000001,"N_COORD97":2542867.25,"ADDRESS":"裕農路４４６巷９０弄１７號","OBJECTID":111383},"geometry":{"x":171198.41999999993,"y":2542867.2500000019}},{"attributes":{"ID":111384,"DIS_CODE":0,"TOWNNAME":"麻豆區","LI":"莊禮里","LIN":"8鄰","STREET":" ","SECT":" ","MAREA":"\u25A0子寮","LANE":" ","ALLEY":" ","HOUSE_NO":"１３號之５","E_COORD97":169201.22,"N_COORD97":2565564.9100000001,"ADDRESS":"\u25A0子寮１３號之５","OBJECTID":111384},"geometry":{"x":169201.21999999974,"y":2565564.910000002}},{"attributes":{"ID":111385,"DIS_CODE":0,"TOWNNAME":"麻豆區","LI":"莊禮里","LIN":"8鄰","STREET":" ","SECT":" ","MAREA":"\u25A0子寮","LANE":" ","ALLEY":" ","HOUSE_NO":"２號之１","E_COORD97":169169.51000000001,"N_COORD97":2565803.52,"ADDRESS":"\u25A0子寮２號之１","OBJECTID":111385},"geometry":{"x":169169.51000000071,"y":2565803.5200000033}},{"attributes":{"ID":111386,"DIS_CODE":0,"TOWNNAME":"麻豆區","LI":"莊禮里","LIN":"8鄰","STREET":" ","SECT":" ","MAREA":"\u25A0子寮","LANE":" ","ALLEY":" ","HOUSE_NO":"２號","E_COORD97":169136.95000000001,"N_COORD97":2565840.3100000001,"ADDRESS":"\u25A0子寮２號","OBJECTID":111386},"geometry":{"x":169136.95000000019,"y":2565840.3100000024}},{"attributes":{"ID":111387,"DIS_CODE":0,"TOWNNAME":"東區","LI":"富強里","LIN":"9鄰","STREET":"裕農路","SECT":" ","MAREA":" ","LANE":"４４６巷","ALLEY":"９０弄","HOUSE_NO":"１９號","E_COORD97":171197.85999999999,"N_COORD97":2542872.23,"ADDRESS":"裕農路４４６巷９０弄１９號","OBJECTID":111387},"geometry":{"x":171197.86000000034,"y":2542872.2300000004}},{"attributes":{"ID":111388,"DIS_CODE":0,"TOWNNAME":"鹽水區","LI":"義稠里","LIN":"8鄰","STREET":" ","SECT":" ","MAREA":"義稠","LANE":" ","ALLEY":" ","HOUSE_NO":"１１０之２５號之１七","E_COORD97":173775.22,"N_COORD97":2580577.1800000002,"ADDRESS":"義稠１１０之２５號之１七樓","OBJECTID":111388},"geometry":{"x":173775.2200000016,"y":2580577.1799999997}},{"attributes":{"ID":111389,"DIS_CODE":0,"TOWNNAME":"鹽水區","LI":"義稠里","LIN":"8鄰","STREET":" ","SECT":" ","MAREA":"義稠","LANE":" ","ALLEY":" ","HOUSE_NO":"１１０之２５號之１九","E_COORD97":173775.22,"N_COORD97":2580577.1800000002,"ADDRESS":"義稠１１０之２５號之１九樓","OBJECTID":111389},"geometry":{"x":173775.2200000016,"y":2580577.1799999997}},{"attributes":{"ID":111390,"DIS_CODE":0,"TOWNNAME":"鹽水區","LI":"義稠里","LIN":"8鄰","STREET":" ","SECT":" ","MAREA":"義稠","LANE":" ","ALLEY":" ","HOUSE_NO":"１１０之２５號之１二","E_COORD97":173775.22,"N_COORD97":2580577.1800000002,"ADDRESS":"義稠１１０之２５號之１二樓","OBJECTID":111390},"geometry":{"x":173775.2200000016,"y":2580577.1799999997}},{"attributes":{"ID":111391,"DIS_CODE":0,"TOWNNAME":"鹽水區","LI":"義稠里","LIN":"8鄰","STREET":" ","SECT":" ","MAREA":"義稠","LANE":" ","ALLEY":" ","HOUSE_NO":"１１０之２５號之１八","E_COORD97":173775.22,"N_COORD97":2580577.1800000002,"ADDRESS":"義稠１１０之２５號之１八樓","OBJECTID":111391},"geometry":{"x":173775.2200000016,"y":2580577.1799999997}},{"attributes":{"ID":111392,"DIS_CODE":0,"TOWNNAME":"東區","LI":"富強里","LIN":"9鄰","STREET":"裕農路","SECT":" ","MAREA":" ","LANE":"４４６巷","ALLEY":"９０弄","HOUSE_NO":"１號","E_COORD97":171229.04999999999,"N_COORD97":2542889.6099999999,"ADDRESS":"裕農路４４６巷９０弄１號","OBJECTID":111392},"geometry":{"x":171229.05000000075,"y":2542889.6099999994}},{"attributes":{"ID":111393,"DIS_CODE":0,"TOWNNAME":"鹽水區","LI":"義稠里","LIN":"8鄰","STREET":" ","SECT":" ","MAREA":"義稠","LANE":" ","ALLEY":" ","HOUSE_NO":"１１０之２５號之１十","E_COORD97":173775.22,"N_COORD97":2580577.1800000002,"ADDRESS":"義稠１１０之２５號之１十一樓","OBJECTID":111393},"geometry":{"x":173775.2200000016,"y":2580577.1799999997}},{"attributes":{"ID":111394,"DIS_CODE":0,"TOWNNAME":"新營區","LI":"中營里","LIN":"1鄰","STREET":"民族路","SECT":" ","MAREA":" ","LANE":" ","ALLEY":" ","HOUSE_NO":"１號","E_COORD97":180291.79999999999,"N_COORD97":2578281.1800000002,"ADDRESS":"民族路１號","OBJECTID":111394},"geometry":{"x":180291.80000000075,"y":2578281.1799999997}},{"attributes":{"ID":111395,"DIS_CODE":0,"TOWNNAME":"鹽水區","LI":"義稠里","LIN":"8鄰","STREET":" ","SECT":" ","MAREA":"義稠","LANE":" ","ALLEY":" ","HOUSE_NO":"１１０之２５號之１十","E_COORD97":173775.22,"N_COORD97":2580577.1800000002,"ADDRESS":"義稠１１０之２５號之１十二樓","OBJECTID":111395},"geometry":{"x":173775.2200000016,"y":2580577.1799999997}},{"attributes":{"ID":111396,"DIS_CODE":0,"TOWNNAME":"新營區","LI":"太南里","LIN":" ","STREET":" ","SECT":" ","MAREA":"太子宮","LANE":" ","ALLEY":" ","HOUSE_NO":"３０５之３０號","E_COORD97":175971.78,"N_COORD97":2576727.4100000001,"ADDRESS":"太子宮３０５之３０號","OBJECTID":111396},"geometry":{"x":175971.78000000026,"y":2576727.4100000001}},{"attributes":{"ID":111397,"DIS_CODE":0,"TOWNNAME":"鹽水區","LI":"義稠里","LIN":"8鄰","STREET":" ","SECT":" ","MAREA":"義稠","LANE":" ","ALLEY":" ","HOUSE_NO":"１１０之２５號之１十","E_COORD97":173775.22,"N_COORD97":2580577.1800000002,"ADDRESS":"義稠１１０之２５號之１十樓","OBJECTID":111397},"geometry":{"x":173775.2200000016,"y":2580577.1799999997}},{"attributes":{"ID":111398,"DIS_CODE":0,"TOWNNAME":"鹽水區","LI":"義稠里","LIN":"8鄰","STREET":" ","SECT":" ","MAREA":"義稠","LANE":" ","ALLEY":" ","HOUSE_NO":"１１０之２５號之１三","E_COORD97":173775.22,"N_COORD97":2580577.1800000002,"ADDRESS":"義稠１１０之２５號之１三樓","OBJECTID":111398},"geometry":{"x":173775.2200000016,"y":2580577.1799999997}},{"attributes":{"ID":111399,"DIS_CODE":0,"TOWNNAME":"鹽水區","LI":"義稠里","LIN":"8鄰","STREET":" ","SECT":" ","MAREA":"義稠","LANE":" ","ALLEY":" ","HOUSE_NO":"１１０之２５號之１五","E_COORD97":173775.22,"N_COORD97":2580577.1800000002,"ADDRESS":"義稠１１０之２５號之１五樓","OBJECTID":111399},"geometry":{"x":173775.2200000016,"y":2580577.1799999997}},{"attributes":{"ID":111400,"DIS_CODE":0,"TOWNNAME":"鹽水區","LI":"義稠里","LIN":"8鄰","STREET":" ","SECT":" ","MAREA":"義稠","LANE":" ","ALLEY":" ","HOUSE_NO":"１１０之２５號之１六","E_COORD97":173775.22,"N_COORD97":2580577.1800000002,"ADDRESS":"義稠１１０之２５號之１六樓","OBJECTID":111400},"geometry":{"x":173775.2200000016,"y":2580577.1799999997}}]}