{"displayFieldName":"TOWNNAME","fieldAliases":{"ID":"ID","DIS_CODE":"DIS_CODE","TOWNNAME":"TOWNNAME","LI":"LI","LIN":"LIN","STREET":"STREET","SECT":"SECT","MAREA":"MAREA","LANE":"LANE","ALLEY":"ALLEY","HOUSE_NO":"HOUSE_NO","E_COORD97":"E_COORD97","N_COORD97":"N_COORD97","ADDRESS":"ADDRESS","OBJECTID":"OBJECTID"},"geometryType":"esriGeometryPoint","spatialReference":{"wkid":102443,"latestWkid":3826},"fields":[{"name":"ID","type":"esriFieldTypeDouble","alias":"ID"},{"name":"DIS_CODE","type":"esriFieldTypeInteger","alias":"DIS_CODE"},{"name":"TOWNNAME","type":"esriFieldTypeString","alias":"TOWNNAME","length":8},{"name":"LI","type":"esriFieldTypeString","alias":"LI","length":8},{"name":"LIN","type":"esriFieldTypeString","alias":"LIN","length":12},{"name":"STREET","type":"esriFieldTypeString","alias":"STREET","length":20},{"name":"SECT","type":"esriFieldTypeString","alias":"SECT","length":8},{"name":"MAREA","type":"esriFieldTypeString","alias":"MAREA","length":12},{"name":"LANE","type":"esriFieldTypeString","alias":"LANE","length":10},{"name":"ALLEY","type":"esriFieldTypeString","alias":"ALLEY","length":10},{"name":"HOUSE_NO","type":"esriFieldTypeString","alias":"HOUSE_NO","length":20},{"name":"E_COORD97","type":"esriFieldTypeDouble","alias":"E_COORD97"},{"name":"N_COORD97","type":"esriFieldTypeDouble","alias":"N_COORD97"},{"name":"ADDRESS","type":"esriFieldTypeString","alias":"ADDRESS","length":50},{"name":"OBJECTID","type":"esriFieldTypeOID","alias":"OBJECTID"}],"features":[{"attributes":{"ID":617028,"DIS_CODE":0,"TOWNNAME":"仁德區","LI":"土庫里","LIN":"2鄰","STREET":"太乙八街","SECT":" ","MAREA":" ","LANE":" ","ALLEY":" ","HOUSE_NO":"１３號","E_COORD97":173494.16,"N_COORD97":2542628.75,"ADDRESS":"太乙八街１３號","OBJECTID":617001},"geometry":{"x":173494.16000000015,"y":2542628.75}},{"attributes":{"ID":617029,"DIS_CODE":0,"TOWNNAME":"仁德區","LI":"仁義里","LIN":"2鄰","STREET":"中山路","SECT":" ","MAREA":" ","LANE":" ","ALLEY":" ","HOUSE_NO":"３１３號","E_COORD97":174085.29000000001,"N_COORD97":2541217.7400000002,"ADDRESS":"中山路３１３號","OBJECTID":617002},"geometry":{"x":174085.2900000019,"y":2541217.7400000002}},{"attributes":{"ID":617030,"DIS_CODE":0,"TOWNNAME":"仁德區","LI":"仁義里","LIN":"2鄰","STREET":"中山路","SECT":" ","MAREA":" ","LANE":" ","ALLEY":" ","HOUSE_NO":"３３５號","E_COORD97":174010.67000000001,"N_COORD97":2541227.75,"ADDRESS":"中山路３３５號","OBJECTID":617003},"geometry":{"x":174010.66999999993,"y":2541227.75}},{"attributes":{"ID":617031,"DIS_CODE":0,"TOWNNAME":"仁德區","LI":"仁義里","LIN":"2鄰","STREET":"中山路","SECT":" ","MAREA":" ","LANE":" ","ALLEY":" ","HOUSE_NO":"３２７號","E_COORD97":174029.07000000001,"N_COORD97":2541224.7400000002,"ADDRESS":"中山路３２７號","OBJECTID":617004},"geometry":{"x":174029.0700000003,"y":2541224.7400000002}},{"attributes":{"ID":617032,"DIS_CODE":0,"TOWNNAME":"仁德區","LI":"大甲里","LIN":"2鄰","STREET":"行大一街","SECT":" ","MAREA":" ","LANE":" ","ALLEY":" ","HOUSE_NO":"１９５號","E_COORD97":169919.14999999999,"N_COORD97":2534979.2400000002,"ADDRESS":"行大一街１９５號","OBJECTID":617005},"geometry":{"x":169919.15000000037,"y":2534979.2400000002}},{"attributes":{"ID":617033,"DIS_CODE":0,"TOWNNAME":"仁德區","LI":"大甲里","LIN":"2鄰","STREET":"行大一街","SECT":" ","MAREA":" ","LANE":" ","ALLEY":" ","HOUSE_NO":"９８號","E_COORD97":169972.38,"N_COORD97":2534992.7400000002,"ADDRESS":"行大一街９８號","OBJECTID":617006},"geometry":{"x":169972.38000000082,"y":2534992.7400000002}},{"attributes":{"ID":617034,"DIS_CODE":0,"TOWNNAME":"仁德區","LI":"大甲里","LIN":"2鄰","STREET":"行大一街","SECT":" ","MAREA":" ","LANE":" ","ALLEY":" ","HOUSE_NO":"２５７號","E_COORD97":169773.98000000001,"N_COORD97":2534998.9900000002,"ADDRESS":"行大一街２５７號","OBJECTID":617007},"geometry":{"x":169773.98000000138,"y":2534998.9900000002}},{"attributes":{"ID":617035,"DIS_CODE":0,"TOWNNAME":"仁德區","LI":"土庫里","LIN":"2鄰","STREET":"太乙路","SECT":" ","MAREA":" ","LANE":" ","ALLEY":" ","HOUSE_NO":"３０號","E_COORD97":173563.31,"N_COORD97":2542523.5,"ADDRESS":"太乙路３０號","OBJECTID":617008},"geometry":{"x":173563.31000000052,"y":2542523.5000000019}},{"attributes":{"ID":617036,"DIS_CODE":0,"TOWNNAME":"仁德區","LI":"大甲里","LIN":"2鄰","STREET":"行大一街","SECT":" ","MAREA":" ","LANE":" ","ALLEY":" ","HOUSE_NO":"２５３號","E_COORD97":169753.38,"N_COORD97":2535022,"ADDRESS":"行大一街２５３號","OBJECTID":617009},"geometry":{"x":169753.38000000082,"y":2535022}},{"attributes":{"ID":617037,"DIS_CODE":0,"TOWNNAME":"仁德區","LI":"大甲里","LIN":"2鄰","STREET":"行大一街","SECT":" ","MAREA":" ","LANE":" ","ALLEY":" ","HOUSE_NO":"２７３號","E_COORD97":169743.60999999999,"N_COORD97":2534999.9900000002,"ADDRESS":"行大一街２７３號","OBJECTID":617010},"geometry":{"x":169743.6100000022,"y":2534999.9900000021}},{"attributes":{"ID":617038,"DIS_CODE":0,"TOWNNAME":"仁德區","LI":"一甲里","LIN":"2鄰","STREET":"中正路","SECT":"三段","MAREA":" ","LANE":" ","ALLEY":" ","HOUSE_NO":"１７３號","E_COORD97":173475.34,"N_COORD97":2541836.27,"ADDRESS":"中正路三段１７３號","OBJECTID":617011},"geometry":{"x":173475.33999999985,"y":2541836.2700000014}},{"attributes":{"ID":617039,"DIS_CODE":0,"TOWNNAME":"仁德區","LI":"一甲里","LIN":"2鄰","STREET":"中正路","SECT":"三段","MAREA":" ","LANE":" ","ALLEY":" ","HOUSE_NO":"１７９號","E_COORD97":173480.01999999999,"N_COORD97":2541847.5299999998,"ADDRESS":"中正路三段１７９號","OBJECTID":617012},"geometry":{"x":173480.02000000048,"y":2541847.5300000012}},{"attributes":{"ID":617040,"DIS_CODE":0,"TOWNNAME":"仁德區","LI":"大甲里","LIN":"2鄰","STREET":"行大一街","SECT":" ","MAREA":" ","LANE":" ","ALLEY":" ","HOUSE_NO":"１７７號","E_COORD97":169954.01999999999,"N_COORD97":2534968.7400000002,"ADDRESS":"行大一街１７７號","OBJECTID":617013},"geometry":{"x":169954.02000000048,"y":2534968.7400000021}},{"attributes":{"ID":617041,"DIS_CODE":0,"TOWNNAME":"仁德區","LI":"土庫里","LIN":"2鄰","STREET":"太乙九街","SECT":" ","MAREA":" ","LANE":" ","ALLEY":" ","HOUSE_NO":"１２號","E_COORD97":173338.72,"N_COORD97":2542640.25,"ADDRESS":"太乙九街１２號","OBJECTID":617014},"geometry":{"x":173338.71999999974,"y":2542640.2500000019}},{"attributes":{"ID":617042,"DIS_CODE":0,"TOWNNAME":"仁德區","LI":"大甲里","LIN":"2鄰","STREET":"行大一街","SECT":" ","MAREA":" ","LANE":" ","ALLEY":" ","HOUSE_NO":"１８３號","E_COORD97":169942.64999999999,"N_COORD97":2534972.2400000002,"ADDRESS":"行大一街１８３號","OBJECTID":617015},"geometry":{"x":169942.65000000037,"y":2534972.2400000021}},{"attributes":{"ID":617043,"DIS_CODE":0,"TOWNNAME":"仁德區","LI":"大甲里","LIN":"2鄰","STREET":"行大一街","SECT":" ","MAREA":" ","LANE":" ","ALLEY":" ","HOUSE_NO":"２５９號","E_COORD97":169773.14999999999,"N_COORD97":2534993.9900000002,"ADDRESS":"行大一街２５９號","OBJECTID":617016},"geometry":{"x":169773.15000000037,"y":2534993.9900000021}},{"attributes":{"ID":617044,"DIS_CODE":0,"TOWNNAME":"仁德區","LI":"土庫里","LIN":"2鄰","STREET":"太乙路","SECT":" ","MAREA":" ","LANE":" ","ALLEY":" ","HOUSE_NO":"１２號","E_COORD97":173768.79999999999,"N_COORD97":2542488.0099999998,"ADDRESS":"太乙路１２號","OBJECTID":617017},"geometry":{"x":173768.79999999981,"y":2542488.0100000035}},{"attributes":{"ID":617045,"DIS_CODE":0,"TOWNNAME":"仁德區","LI":"一甲里","LIN":"2鄰","STREET":"中正路","SECT":"三段","MAREA":" ","LANE":" ","ALLEY":" ","HOUSE_NO":"１４９號","E_COORD97":173450.32000000001,"N_COORD97":2541777.5299999998,"ADDRESS":"中正路三段１４９號","OBJECTID":617018},"geometry":{"x":173450.32000000123,"y":2541777.5299999993}},{"attributes":{"ID":617046,"DIS_CODE":0,"TOWNNAME":"仁德區","LI":"土庫里","LIN":"2鄰","STREET":"大順路","SECT":" ","MAREA":" ","LANE":" ","ALLEY":" ","HOUSE_NO":"１６號","E_COORD97":173838.01999999999,"N_COORD97":2542977.2400000002,"ADDRESS":"大順路１６號","OBJECTID":617019},"geometry":{"x":173838.02000000048,"y":2542977.2400000002}},{"attributes":{"ID":617047,"DIS_CODE":0,"TOWNNAME":"仁德區","LI":"土庫里","LIN":"2鄰","STREET":"太乙十街","SECT":" ","MAREA":" ","LANE":" ","ALLEY":" ","HOUSE_NO":"１８號","E_COORD97":173273.48000000001,"N_COORD97":2542666.5,"ADDRESS":"太乙十街１８號","OBJECTID":617020},"geometry":{"x":173273.48000000045,"y":2542666.5}},{"attributes":{"ID":617048,"DIS_CODE":0,"TOWNNAME":"中西區","LI":"三民里","LIN":"2鄰","STREET":"民權路","SECT":"二段","MAREA":" ","LANE":" ","ALLEY":" ","HOUSE_NO":"１１號","E_COORD97":168638.95999999999,"N_COORD97":2543813.3999999999,"ADDRESS":"民權路二段１１號","OBJECTID":617021},"geometry":{"x":168638.96000000183,"y":2543813.4000000022}},{"attributes":{"ID":617049,"DIS_CODE":0,"TOWNNAME":"中西區","LI":"三民里","LIN":"2鄰","STREET":"民權路","SECT":"二段","MAREA":" ","LANE":" ","ALLEY":" ","HOUSE_NO":"１３號","E_COORD97":168632.98999999999,"N_COORD97":2543817.8100000001,"ADDRESS":"民權路二段１３號","OBJECTID":617022},"geometry":{"x":168632.99000000115,"y":2543817.8100000005}},{"attributes":{"ID":617050,"DIS_CODE":0,"TOWNNAME":"中西區","LI":"三民里","LIN":"2鄰","STREET":"民權路","SECT":"二段","MAREA":" ","LANE":" ","ALLEY":" ","HOUSE_NO":"２３號","E_COORD97":168614.56,"N_COORD97":2543829.48,"ADDRESS":"民權路二段２３號","OBJECTID":617023},"geometry":{"x":168614.56000000052,"y":2543829.4800000023}},{"attributes":{"ID":617051,"DIS_CODE":0,"TOWNNAME":"中西區","LI":"三民里","LIN":"2鄰","STREET":"民權路","SECT":"二段","MAREA":" ","LANE":" ","ALLEY":" ","HOUSE_NO":"２５號","E_COORD97":168610.66,"N_COORD97":2543830.5099999998,"ADDRESS":"民權路二段２５號","OBJECTID":617024},"geometry":{"x":168610.65999999922,"y":2543830.5099999979}},{"attributes":{"ID":617052,"DIS_CODE":0,"TOWNNAME":"中西區","LI":"三民里","LIN":"2鄰","STREET":"民權路","SECT":"二段","MAREA":" ","LANE":" ","ALLEY":" ","HOUSE_NO":"２７號","E_COORD97":168607.29000000001,"N_COORD97":2543832.3300000001,"ADDRESS":"民權路二段２７號","OBJECTID":617025},"geometry":{"x":168607.29000000004,"y":2543832.3300000038}},{"attributes":{"ID":617053,"DIS_CODE":0,"TOWNNAME":"中西區","LI":"三民里","LIN":"2鄰","STREET":"民權路","SECT":"二段","MAREA":" ","LANE":" ","ALLEY":" ","HOUSE_NO":"２９號","E_COORD97":168603.64999999999,"N_COORD97":2543834.6600000001,"ADDRESS":"民權路二段２９號","OBJECTID":617026},"geometry":{"x":168603.65000000037,"y":2543834.660000002}},{"attributes":{"ID":617054,"DIS_CODE":0,"TOWNNAME":"中西區","LI":"三民里","LIN":"2鄰","STREET":"民權路","SECT":"二段","MAREA":" ","LANE":" ","ALLEY":" ","HOUSE_NO":"３１號","E_COORD97":168599.76000000001,"N_COORD97":2543836.7400000002,"ADDRESS":"民權路二段３１號","OBJECTID":617027},"geometry":{"x":168599.76000000071,"y":2543836.7400000021}},{"attributes":{"ID":617055,"DIS_CODE":0,"TOWNNAME":"中西區","LI":"三民里","LIN":"2鄰","STREET":"民權路","SECT":"二段","MAREA":" ","LANE":" ","ALLEY":" ","HOUSE_NO":"３號","E_COORD97":168654.01999999999,"N_COORD97":2543803.29,"ADDRESS":"民權路二段３號","OBJECTID":617028},"geometry":{"x":168654.02000000048,"y":2543803.2899999991}},{"attributes":{"ID":617056,"DIS_CODE":0,"TOWNNAME":"中西區","LI":"三民里","LIN":"2鄰","STREET":"民權路","SECT":"二段","MAREA":" ","LANE":" ","ALLEY":" ","HOUSE_NO":"５號","E_COORD97":168650.39000000001,"N_COORD97":2543805.8799999999,"ADDRESS":"民權路二段５號","OBJECTID":617029},"geometry":{"x":168650.38999999966,"y":2543805.879999999}},{"attributes":{"ID":617057,"DIS_CODE":0,"TOWNNAME":"中西區","LI":"三民里","LIN":"2鄰","STREET":"民權路","SECT":"二段","MAREA":" ","LANE":" ","ALLEY":" ","HOUSE_NO":"７號","E_COORD97":168646.48999999999,"N_COORD97":2543808.73,"ADDRESS":"民權路二段７號","OBJECTID":617030},"geometry":{"x":168646.49000000115,"y":2543808.7300000004}},{"attributes":{"ID":617058,"DIS_CODE":0,"TOWNNAME":"中西區","LI":"三民里","LIN":"2鄰","STREET":"民權路","SECT":"二段","MAREA":" ","LANE":" ","ALLEY":" ","HOUSE_NO":"９號","E_COORD97":168642.34,"N_COORD97":2543810.8100000001,"ADDRESS":"民權路二段９號","OBJECTID":617031},"geometry":{"x":168642.33999999985,"y":2543810.8100000005}},{"attributes":{"ID":617059,"DIS_CODE":0,"TOWNNAME":"中西區","LI":"三民里","LIN":"2鄰","STREET":"民權路","SECT":"二段","MAREA":" ","LANE":" ","ALLEY":" ","HOUSE_NO":"３３號","E_COORD97":168596.89999999999,"N_COORD97":2543838.29,"ADDRESS":"民權路二段３３號","OBJECTID":617032},"geometry":{"x":168596.90000000037,"y":2543838.2900000028}},{"attributes":{"ID":617060,"DIS_CODE":0,"TOWNNAME":"中西區","LI":"三民里","LIN":"2鄰","STREET":"民權路","SECT":"二段","MAREA":" ","LANE":" ","ALLEY":" ","HOUSE_NO":"３５號","E_COORD97":168592.23000000001,"N_COORD97":2543840.1099999999,"ADDRESS":"民權路二段３５號","OBJECTID":617033},"geometry":{"x":168592.23000000138,"y":2543840.1100000013}},{"attributes":{"ID":617061,"DIS_CODE":0,"TOWNNAME":"中西區","LI":"三民里","LIN":"2鄰","STREET":"民權路","SECT":"二段","MAREA":" ","LANE":" ","ALLEY":" ","HOUSE_NO":"３７號","E_COORD97":168589.37,"N_COORD97":2543841.6600000001,"ADDRESS":"民權路二段３７號","OBJECTID":617034},"geometry":{"x":168589.37000000104,"y":2543841.660000002}},{"attributes":{"ID":617062,"DIS_CODE":0,"TOWNNAME":"中西區","LI":"三民里","LIN":"2鄰","STREET":"民權路","SECT":"二段","MAREA":" ","LANE":" ","ALLEY":" ","HOUSE_NO":"３９號","E_COORD97":168585.22,"N_COORD97":2543843.7400000002,"ADDRESS":"民權路二段３９號","OBJECTID":617035},"geometry":{"x":168585.22000000067,"y":2543843.7400000021}},{"attributes":{"ID":617063,"DIS_CODE":0,"TOWNNAME":"中西區","LI":"三民里","LIN":"2鄰","STREET":"民權路","SECT":"二段","MAREA":" ","LANE":" ","ALLEY":" ","HOUSE_NO":"４１號","E_COORD97":168581.66,"N_COORD97":2543845.8500000001,"ADDRESS":"民權路二段４１號","OBJECTID":617036},"geometry":{"x":168581.66000000015,"y":2543845.8500000015}},{"attributes":{"ID":617064,"DIS_CODE":0,"TOWNNAME":"東區","LI":"成大里","LIN":"29鄰","STREET":"大學路","SECT":"西段","MAREA":" ","LANE":" ","ALLEY":" ","HOUSE_NO":"３７號","E_COORD97":169767.95000000001,"N_COORD97":2544084.5800000001,"ADDRESS":"大學路西段３７號","OBJECTID":617037},"geometry":{"x":169767.95000000019,"y":2544084.5799999982}},{"attributes":{"ID":617065,"DIS_CODE":0,"TOWNNAME":"中西區","LI":"三民里","LIN":"2鄰","STREET":"民權路","SECT":"二段","MAREA":" ","LANE":" ","ALLEY":" ","HOUSE_NO":"４３號","E_COORD97":168578.63,"N_COORD97":2543847.6299999999,"ADDRESS":"民權路二段４３號","OBJECTID":617038},"geometry":{"x":168578.63000000082,"y":2543847.6300000008}},{"attributes":{"ID":617066,"DIS_CODE":0,"TOWNNAME":"中西區","LI":"三民里","LIN":"2鄰","STREET":"民權路","SECT":"二段","MAREA":" ","LANE":" ","ALLEY":" ","HOUSE_NO":"４５號","E_COORD97":168575.60000000001,"N_COORD97":2543848.6899999999,"ADDRESS":"民權路二段４５號","OBJECTID":617039},"geometry":{"x":168575.60000000056,"y":2543848.6899999995}},{"attributes":{"ID":617067,"DIS_CODE":0,"TOWNNAME":"中西區","LI":"三民里","LIN":"2鄰","STREET":"民權路","SECT":"二段","MAREA":" ","LANE":" ","ALLEY":" ","HOUSE_NO":"４７號","E_COORD97":168572.39999999999,"N_COORD97":2543850.8300000001,"ADDRESS":"民權路二段４７號","OBJECTID":617040},"geometry":{"x":168572.4000000013,"y":2543850.8300000019}},{"attributes":{"ID":617068,"DIS_CODE":0,"TOWNNAME":"中西區","LI":"三民里","LIN":"2鄰","STREET":"民權路","SECT":"二段","MAREA":" ","LANE":" ","ALLEY":" ","HOUSE_NO":"４９號","E_COORD97":168568.12,"N_COORD97":2543852.0699999998,"ADDRESS":"民權路二段４９號","OBJECTID":617041},"geometry":{"x":168568.12000000011,"y":2543852.0700000022}},{"attributes":{"ID":617069,"DIS_CODE":0,"TOWNNAME":"中西區","LI":"三民里","LIN":"2鄰","STREET":"民權路","SECT":"二段","MAREA":" ","LANE":" ","ALLEY":" ","HOUSE_NO":"５１號","E_COORD97":168563.67000000001,"N_COORD97":2543854.21,"ADDRESS":"民權路二段５１號","OBJECTID":617042},"geometry":{"x":168563.67000000086,"y":2543854.2100000046}},{"attributes":{"ID":617070,"DIS_CODE":0,"TOWNNAME":"中西區","LI":"三民里","LIN":"2鄰","STREET":"民權路","SECT":"二段","MAREA":" ","LANE":" ","ALLEY":" ","HOUSE_NO":"５３號","E_COORD97":168561.35999999999,"N_COORD97":2543855.4500000002,"ADDRESS":"民權路二段５３號","OBJECTID":617043},"geometry":{"x":168561.36000000034,"y":2543855.4500000011}},{"attributes":{"ID":617071,"DIS_CODE":0,"TOWNNAME":"中西區","LI":"三民里","LIN":"2鄰","STREET":"民權路","SECT":"二段","MAREA":" ","LANE":" ","ALLEY":" ","HOUSE_NO":"５７號","E_COORD97":168553.69671399999,"N_COORD97":2543857.7363399998,"ADDRESS":"民權路二段５７號","OBJECTID":617044},"geometry":{"x":168553.69671400078,"y":2543857.7363410015}},{"attributes":{"ID":617072,"DIS_CODE":0,"TOWNNAME":"東區","LI":"裕農里","LIN":"2鄰","STREET":"裕豐街","SECT":" ","MAREA":" ","LANE":" ","ALLEY":" ","HOUSE_NO":"１２２號","E_COORD97":170757.79000000001,"N_COORD97":2542968.6499999999,"ADDRESS":"裕豐街１２２號","OBJECTID":617045},"geometry":{"x":170757.79000000097,"y":2542968.6500000004}},{"attributes":{"ID":617073,"DIS_CODE":0,"TOWNNAME":"東區","LI":"崇文里","LIN":"2鄰","STREET":"崇善路","SECT":" ","MAREA":" ","LANE":" ","ALLEY":" ","HOUSE_NO":"６０２號","E_COORD97":171115.41,"N_COORD97":2541124.6200000001,"ADDRESS":"崇善路６０２號","OBJECTID":617046},"geometry":{"x":171115.41000000015,"y":2541124.620000001}},{"attributes":{"ID":617074,"DIS_CODE":0,"TOWNNAME":"東區","LI":"崇文里","LIN":"2鄰","STREET":"崇善路","SECT":" ","MAREA":" ","LANE":" ","ALLEY":" ","HOUSE_NO":"６０６號","E_COORD97":171116.91,"N_COORD97":2541119.8799999999,"ADDRESS":"崇善路６０６號","OBJECTID":617047},"geometry":{"x":171116.91000000108,"y":2541119.8800000008}},{"attributes":{"ID":617075,"DIS_CODE":0,"TOWNNAME":"東區","LI":"崇德里","LIN":"2鄰","STREET":"中華東路","SECT":"三段","MAREA":" ","LANE":" ","ALLEY":" ","HOUSE_NO":"２０５之１號","E_COORD97":170585.78,"N_COORD97":2541861.8500000001,"ADDRESS":"中華東路三段２０５之１號","OBJECTID":617048},"geometry":{"x":170585.78000000119,"y":2541861.8500000034}},{"attributes":{"ID":617076,"DIS_CODE":0,"TOWNNAME":"東區","LI":"大德里","LIN":"2鄰","STREET":"立德八路","SECT":" ","MAREA":" ","LANE":" ","ALLEY":" ","HOUSE_NO":"３１號","E_COORD97":169490.60000000001,"N_COORD97":2541936.0699999998,"ADDRESS":"立德八路３１號","OBJECTID":617049},"geometry":{"x":169490.60000000056,"y":2541936.0700000022}},{"attributes":{"ID":617077,"DIS_CODE":0,"TOWNNAME":"東區","LI":"大德里","LIN":"2鄰","STREET":"立德八路","SECT":" ","MAREA":" ","LANE":" ","ALLEY":" ","HOUSE_NO":"３３號之２","E_COORD97":169494.26999999999,"N_COORD97":2541937.0499999998,"ADDRESS":"立德八路３３號之２","OBJECTID":617050},"geometry":{"x":169494.27000000142,"y":2541937.0500000026}},{"attributes":{"ID":617078,"DIS_CODE":0,"TOWNNAME":"東區","LI":"大德里","LIN":"2鄰","STREET":"立德九路","SECT":" ","MAREA":" ","LANE":" ","ALLEY":" ","HOUSE_NO":"３８號","E_COORD97":169499.16,"N_COORD97":2541949.75,"ADDRESS":"立德九路３８號","OBJECTID":617051},"geometry":{"x":169499.16000000201,"y":2541949.75}},{"attributes":{"ID":617079,"DIS_CODE":0,"TOWNNAME":"東區","LI":"大德里","LIN":"2鄰","STREET":"立德九路","SECT":" ","MAREA":" ","LANE":" ","ALLEY":" ","HOUSE_NO":"４０號之１","E_COORD97":169504.04999999999,"N_COORD97":2541949.9900000002,"ADDRESS":"立德九路４０號之１","OBJECTID":617052},"geometry":{"x":169504.04999999981,"y":2541949.9900000021}},{"attributes":{"ID":617080,"DIS_CODE":0,"TOWNNAME":"東區","LI":"大德里","LIN":"2鄰","STREET":"立德九路","SECT":" ","MAREA":" ","LANE":" ","ALLEY":" ","HOUSE_NO":"４２號","E_COORD97":169508.20999999999,"N_COORD97":2541950.9700000002,"ADDRESS":"立德九路４２號","OBJECTID":617053},"geometry":{"x":169508.20999999996,"y":2541950.9700000025}},{"attributes":{"ID":617081,"DIS_CODE":0,"TOWNNAME":"東區","LI":"大德里","LIN":"2鄰","STREET":"立德八路","SECT":" ","MAREA":" ","LANE":" ","ALLEY":" ","HOUSE_NO":"２９號","E_COORD97":169487.17999999999,"N_COORD97":2541935.5800000001,"ADDRESS":"立德八路２９號","OBJECTID":617054},"geometry":{"x":169487.18000000063,"y":2541935.5800000038}},{"attributes":{"ID":617082,"DIS_CODE":0,"TOWNNAME":"東區","LI":"大德里","LIN":"2鄰","STREET":"立德八路","SECT":" ","MAREA":" ","LANE":" ","ALLEY":" ","HOUSE_NO":"３５號","E_COORD97":169503.07999999999,"N_COORD97":2541938.27,"ADDRESS":"立德八路３５號","OBJECTID":617055},"geometry":{"x":169503.08000000101,"y":2541938.2700000014}},{"attributes":{"ID":617083,"DIS_CODE":0,"TOWNNAME":"東區","LI":"大德里","LIN":"2鄰","STREET":"立德八路","SECT":" ","MAREA":" ","LANE":" ","ALLEY":" ","HOUSE_NO":"３７號","E_COORD97":169506.98999999999,"N_COORD97":2541939,"ADDRESS":"立德八路３７號","OBJECTID":617056},"geometry":{"x":169506.99000000209,"y":2541938.9999999981}},{"attributes":{"ID":617084,"DIS_CODE":0,"TOWNNAME":"東區","LI":"大德里","LIN":"2鄰","STREET":"立德八路","SECT":" ","MAREA":" ","LANE":" ","ALLEY":" ","HOUSE_NO":"３９號","E_COORD97":169510.66,"N_COORD97":2541939.98,"ADDRESS":"立德八路３９號","OBJECTID":617057},"geometry":{"x":169510.66000000015,"y":2541939.9800000042}},{"attributes":{"ID":617085,"DIS_CODE":0,"TOWNNAME":"東區","LI":"大德里","LIN":"2鄰","STREET":"立德八路","SECT":" ","MAREA":" ","LANE":" ","ALLEY":" ","HOUSE_NO":"４１號","E_COORD97":169514.57000000001,"N_COORD97":2541940.96,"ADDRESS":"立德八路４１號","OBJECTID":617058},"geometry":{"x":169514.5700000003,"y":2541940.9600000028}},{"attributes":{"ID":617086,"DIS_CODE":0,"TOWNNAME":"東區","LI":"大德里","LIN":"2鄰","STREET":"立德八路","SECT":" ","MAREA":" ","LANE":" ","ALLEY":" ","HOUSE_NO":"４３號","E_COORD97":169518.73000000001,"N_COORD97":2541941.2000000002,"ADDRESS":"立德八路４３號","OBJECTID":617059},"geometry":{"x":169518.73000000045,"y":2541941.2000000011}},{"attributes":{"ID":617087,"DIS_CODE":0,"TOWNNAME":"東區","LI":"大德里","LIN":"2鄰","STREET":"立德八路","SECT":" ","MAREA":" ","LANE":" ","ALLEY":" ","HOUSE_NO":"４５號","E_COORD97":169527.78,"N_COORD97":2541943.3999999999,"ADDRESS":"立德八路４５號","OBJECTID":617060},"geometry":{"x":169527.78000000119,"y":2541943.3999999985}},{"attributes":{"ID":617088,"DIS_CODE":0,"TOWNNAME":"東區","LI":"大德里","LIN":"2鄰","STREET":"立德八路","SECT":" ","MAREA":" ","LANE":" ","ALLEY":" ","HOUSE_NO":"４７號","E_COORD97":169530.95999999999,"N_COORD97":2541943.6400000001,"ADDRESS":"立德八路４７號","OBJECTID":617061},"geometry":{"x":169530.96000000089,"y":2541943.6400000025}},{"attributes":{"ID":617089,"DIS_CODE":0,"TOWNNAME":"東區","LI":"大德里","LIN":"2鄰","STREET":"立德八路","SECT":" ","MAREA":" ","LANE":" ","ALLEY":" ","HOUSE_NO":"４９號","E_COORD97":169534.38,"N_COORD97":2541944.6200000001,"ADDRESS":"立德八路４９號","OBJECTID":617062},"geometry":{"x":169534.37999999989,"y":2541944.620000001}},{"attributes":{"ID":617090,"DIS_CODE":0,"TOWNNAME":"東區","LI":"大德里","LIN":"2鄰","STREET":"立德八路","SECT":" ","MAREA":" ","LANE":" ","ALLEY":" ","HOUSE_NO":"５１號","E_COORD97":169538.54000000001,"N_COORD97":2541945.6000000001,"ADDRESS":"立德八路５１號","OBJECTID":617063},"geometry":{"x":169538.54000000004,"y":2541945.6000000015}},{"attributes":{"ID":617091,"DIS_CODE":0,"TOWNNAME":"東區","LI":"富強里","LIN":"2鄰","STREET":"裕農路","SECT":" ","MAREA":" ","LANE":" ","ALLEY":" ","HOUSE_NO":"４６０號","E_COORD97":171313.95000000001,"N_COORD97":2543180.6899999999,"ADDRESS":"裕農路４６０號","OBJECTID":617064},"geometry":{"x":171313.95000000019,"y":2543180.6899999995}},{"attributes":{"ID":617092,"DIS_CODE":0,"TOWNNAME":"東區","LI":"富強里","LIN":"2鄰","STREET":"裕農路","SECT":" ","MAREA":" ","LANE":" ","ALLEY":" ","HOUSE_NO":"４６２號","E_COORD97":171317.5,"N_COORD97":2543183.0499999998,"ADDRESS":"裕農路４６２號","OBJECTID":617065},"geometry":{"x":171317.50000000093,"y":2543183.0500000007}},{"attributes":{"ID":617093,"DIS_CODE":0,"TOWNNAME":"東區","LI":"富強里","LIN":"2鄰","STREET":"裕農路","SECT":" ","MAREA":" ","LANE":" ","ALLEY":" ","HOUSE_NO":"４７０號","E_COORD97":171333.62,"N_COORD97":2543183.9100000001,"ADDRESS":"裕農路４７０號","OBJECTID":617066},"geometry":{"x":171333.62000000104,"y":2543183.9100000001}},{"attributes":{"ID":617094,"DIS_CODE":0,"TOWNNAME":"東區","LI":"富強里","LIN":"2鄰","STREET":"裕農路","SECT":" ","MAREA":" ","LANE":" ","ALLEY":" ","HOUSE_NO":"４５０號之１","E_COORD97":171298.04999999999,"N_COORD97":2543161.9900000002,"ADDRESS":"裕農路４５０號之１","OBJECTID":617067},"geometry":{"x":171298.05000000168,"y":2543161.9900000002}},{"attributes":{"ID":617095,"DIS_CODE":0,"TOWNNAME":"東區","LI":"富強里","LIN":"2鄰","STREET":"裕農路","SECT":" ","MAREA":" ","LANE":" ","ALLEY":" ","HOUSE_NO":"４５０號之１０","E_COORD97":171325.62,"N_COORD97":2543149.3199999998,"ADDRESS":"裕農路４５０號之１０","OBJECTID":617068},"geometry":{"x":171325.62000000104,"y":2543149.3200000022}},{"attributes":{"ID":617096,"DIS_CODE":0,"TOWNNAME":"東區","LI":"富強里","LIN":"2鄰","STREET":"裕農路","SECT":" ","MAREA":" ","LANE":" ","ALLEY":" ","HOUSE_NO":"４５０號之１３","E_COORD97":171312.64000000001,"N_COORD97":2543147.1299999999,"ADDRESS":"裕農路４５０號之１３","OBJECTID":617069},"geometry":{"x":171312.6400000006,"y":2543147.129999999}},{"attributes":{"ID":617097,"DIS_CODE":0,"TOWNNAME":"東區","LI":"富強里","LIN":"2鄰","STREET":"裕農路","SECT":" ","MAREA":" ","LANE":" ","ALLEY":" ","HOUSE_NO":"４５０號之１４","E_COORD97":171308.35000000001,"N_COORD97":2543145.3199999998,"ADDRESS":"裕農路４５０號之１４","OBJECTID":617070},"geometry":{"x":171308.35000000056,"y":2543145.3200000022}},{"attributes":{"ID":617098,"DIS_CODE":0,"TOWNNAME":"東區","LI":"富強里","LIN":"2鄰","STREET":"裕農路","SECT":" ","MAREA":" ","LANE":" ","ALLEY":" ","HOUSE_NO":"４５０號之１６","E_COORD97":171299.48000000001,"N_COORD97":2543145.8900000001,"ADDRESS":"裕農路４５０號之１６","OBJECTID":617071},"geometry":{"x":171299.48000000138,"y":2543145.8900000006}},{"attributes":{"ID":617099,"DIS_CODE":0,"TOWNNAME":"東區","LI":"富強里","LIN":"2鄰","STREET":"裕農路","SECT":" ","MAREA":" ","LANE":" ","ALLEY":" ","HOUSE_NO":"４５０號之３","E_COORD97":171306.44,"N_COORD97":2543162.6499999999,"ADDRESS":"裕農路４５０號之３","OBJECTID":617072},"geometry":{"x":171306.44000000134,"y":2543162.6500000041}},{"attributes":{"ID":617100,"DIS_CODE":0,"TOWNNAME":"東區","LI":"富強里","LIN":"2鄰","STREET":"裕農路","SECT":" ","MAREA":" ","LANE":" ","ALLEY":" ","HOUSE_NO":"４５０號之４","E_COORD97":171310.64000000001,"N_COORD97":2543162.46,"ADDRESS":"裕農路４５０號之４","OBJECTID":617073},"geometry":{"x":171310.63999999966,"y":2543162.4600000028}},{"attributes":{"ID":617101,"DIS_CODE":0,"TOWNNAME":"東區","LI":"富強里","LIN":"2鄰","STREET":"裕農路","SECT":" ","MAREA":" ","LANE":" ","ALLEY":" ","HOUSE_NO":"４５０號之５","E_COORD97":171315.12,"N_COORD97":2543163.23,"ADDRESS":"裕農路４５０號之５","OBJECTID":617074},"geometry":{"x":171315.12000000104,"y":2543163.2300000023}},{"attributes":{"ID":617102,"DIS_CODE":0,"TOWNNAME":"東區","LI":"富強里","LIN":"2鄰","STREET":"裕農路","SECT":" ","MAREA":" ","LANE":" ","ALLEY":" ","HOUSE_NO":"４５０號之６","E_COORD97":171318.94,"N_COORD97":2543163.9900000002,"ADDRESS":"裕農路４５０號之６","OBJECTID":617075},"geometry":{"x":171318.94000000041,"y":2543163.9900000021}},{"attributes":{"ID":617103,"DIS_CODE":0,"TOWNNAME":"東區","LI":"富強里","LIN":"2鄰","STREET":"裕農路","SECT":" ","MAREA":" ","LANE":" ","ALLEY":" ","HOUSE_NO":"４５０號之７","E_COORD97":171323.70999999999,"N_COORD97":2543163.9900000002,"ADDRESS":"裕農路４５０號之７","OBJECTID":617076},"geometry":{"x":171323.70999999996,"y":2543163.9900000021}},{"attributes":{"ID":617104,"DIS_CODE":0,"TOWNNAME":"東區","LI":"富強里","LIN":"2鄰","STREET":"裕農路","SECT":" ","MAREA":" ","LANE":" ","ALLEY":" ","HOUSE_NO":"４５０號之８","E_COORD97":171327.91,"N_COORD97":2543164.46,"ADDRESS":"裕農路４５０號之８","OBJECTID":617077},"geometry":{"x":171327.91000000015,"y":2543164.4600000046}},{"attributes":{"ID":617105,"DIS_CODE":0,"TOWNNAME":"東區","LI":"富強里","LIN":"2鄰","STREET":"裕農路","SECT":" ","MAREA":" ","LANE":" ","ALLEY":" ","HOUSE_NO":"４５０號之１５","E_COORD97":171303.87,"N_COORD97":2543147.1299999999,"ADDRESS":"裕農路４５０號之１５","OBJECTID":617078},"geometry":{"x":171303.87000000011,"y":2543147.129999999}},{"attributes":{"ID":617106,"DIS_CODE":0,"TOWNNAME":"東區","LI":"富強里","LIN":"2鄰","STREET":"裕農路","SECT":" ","MAREA":" ","LANE":" ","ALLEY":" ","HOUSE_NO":"４５０號之２","E_COORD97":171302.25,"N_COORD97":2543162.1800000002,"ADDRESS":"裕農路４５０號之２","OBJECTID":617079},"geometry":{"x":171302.25000000093,"y":2543162.1800000016}},{"attributes":{"ID":617107,"DIS_CODE":0,"TOWNNAME":"東區","LI":"富強里","LIN":"2鄰","STREET":"裕農路","SECT":" ","MAREA":" ","LANE":" ","ALLEY":" ","HOUSE_NO":"４５０號之９","E_COORD97":171330.10000000001,"N_COORD97":2543148.27,"ADDRESS":"裕農路４５０號之９","OBJECTID":617080},"geometry":{"x":171330.10000000056,"y":2543148.2700000014}},{"attributes":{"ID":617108,"DIS_CODE":0,"TOWNNAME":"東區","LI":"大智里","LIN":"2鄰","STREET":"生產路","SECT":" ","MAREA":" ","LANE":" ","ALLEY":" ","HOUSE_NO":"５４６號","E_COORD97":171112.41,"N_COORD97":2540662.8900000001,"ADDRESS":"生產路５４６號","OBJECTID":617081},"geometry":{"x":171112.41000000015,"y":2540662.8900000025}},{"attributes":{"ID":617109,"DIS_CODE":0,"TOWNNAME":"東區","LI":"大智里","LIN":"2鄰","STREET":"生產路","SECT":" ","MAREA":" ","LANE":" ","ALLEY":" ","HOUSE_NO":"５４８號","E_COORD97":171115.82999999999,"N_COORD97":2540666.2999999998,"ADDRESS":"生產路５４８號","OBJECTID":617082},"geometry":{"x":171115.83000000101,"y":2540666.2999999989}},{"attributes":{"ID":617110,"DIS_CODE":0,"TOWNNAME":"東區","LI":"大智里","LIN":"2鄰","STREET":"生產路","SECT":" ","MAREA":" ","LANE":" ","ALLEY":" ","HOUSE_NO":"５５２號","E_COORD97":171126.85000000001,"N_COORD97":2540669.1499999999,"ADDRESS":"生產路５５２號","OBJECTID":617083},"geometry":{"x":171126.85000000056,"y":2540669.1500000004}},{"attributes":{"ID":617111,"DIS_CODE":0,"TOWNNAME":"東區","LI":"大智里","LIN":"2鄰","STREET":"生產路","SECT":" ","MAREA":" ","LANE":" ","ALLEY":" ","HOUSE_NO":"５５６號","E_COORD97":171134.64000000001,"N_COORD97":2540672.3799999999,"ADDRESS":"生產路５５６號","OBJECTID":617084},"geometry":{"x":171134.64000000153,"y":2540672.3800000008}},{"attributes":{"ID":617112,"DIS_CODE":0,"TOWNNAME":"東區","LI":"大智里","LIN":"2鄰","STREET":"生產路","SECT":" ","MAREA":" ","LANE":" ","ALLEY":" ","HOUSE_NO":"５４４號","E_COORD97":171107.66,"N_COORD97":2540659.6600000001,"ADDRESS":"生產路５４４號","OBJECTID":617085},"geometry":{"x":171107.65999999922,"y":2540659.6600000001}},{"attributes":{"ID":617113,"DIS_CODE":0,"TOWNNAME":"東區","LI":"大智里","LIN":"2鄰","STREET":"生產路","SECT":" ","MAREA":" ","LANE":" ","ALLEY":" ","HOUSE_NO":"５５４號","E_COORD97":171129.13,"N_COORD97":2540674.0899999999,"ADDRESS":"生產路５５４號","OBJECTID":617086},"geometry":{"x":171129.12999999989,"y":2540674.0900000017}},{"attributes":{"ID":617114,"DIS_CODE":0,"TOWNNAME":"東區","LI":"大福里","LIN":"2鄰","STREET":"榮譽街","SECT":" ","MAREA":" ","LANE":" ","ALLEY":" ","HOUSE_NO":"１１號","E_COORD97":169528.89999999999,"N_COORD97":2541615.7200000002,"ADDRESS":"榮譽街１１號","OBJECTID":617087},"geometry":{"x":169528.9000000013,"y":2541615.7200000007}},{"attributes":{"ID":617115,"DIS_CODE":0,"TOWNNAME":"東區","LI":"大福里","LIN":"2鄰","STREET":"榮譽街","SECT":" ","MAREA":" ","LANE":" ","ALLEY":" ","HOUSE_NO":"１１號之１","E_COORD97":169534.67999999999,"N_COORD97":2541617.6400000001,"ADDRESS":"榮譽街１１號之１","OBJECTID":617088},"geometry":{"x":169534.68000000063,"y":2541617.6400000025}},{"attributes":{"ID":617116,"DIS_CODE":0,"TOWNNAME":"東區","LI":"大福里","LIN":"2鄰","STREET":"榮譽街","SECT":" ","MAREA":" ","LANE":" ","ALLEY":" ","HOUSE_NO":"１３號","E_COORD97":169538.51999999999,"N_COORD97":2541618.7400000002,"ADDRESS":"榮譽街１３號","OBJECTID":617089},"geometry":{"x":169538.52000000048,"y":2541618.7400000002}},{"attributes":{"ID":617117,"DIS_CODE":0,"TOWNNAME":"東區","LI":"富強里","LIN":"2鄰","STREET":"裕農路","SECT":" ","MAREA":" ","LANE":" ","ALLEY":" ","HOUSE_NO":"４６６號","E_COORD97":171325.13,"N_COORD97":2543184.8799999999,"ADDRESS":"裕農路４６６號","OBJECTID":617090},"geometry":{"x":171325.13000000082,"y":2543184.879999999}},{"attributes":{"ID":617118,"DIS_CODE":0,"TOWNNAME":"永康區","LI":"西勢里","LIN":"2鄰","STREET":"富強路","SECT":"二段","MAREA":" ","LANE":" ","ALLEY":" ","HOUSE_NO":"９號","E_COORD97":175692.62,"N_COORD97":2546816.79,"ADDRESS":"富強路二段９號","OBJECTID":617091},"geometry":{"x":175692.62000000104,"y":2546816.7899999991}},{"attributes":{"ID":617119,"DIS_CODE":0,"TOWNNAME":"永康區","LI":"西橋里","LIN":"2鄰","STREET":"中山南路","SECT":" ","MAREA":" ","LANE":" ","ALLEY":" ","HOUSE_NO":"４７號","E_COORD97":170776.23000000001,"N_COORD97":2545837.2400000002,"ADDRESS":"中山南路４７號","OBJECTID":617092},"geometry":{"x":170776.23000000045,"y":2545837.2400000021}},{"attributes":{"ID":617120,"DIS_CODE":0,"TOWNNAME":"永康區","LI":"西橋里","LIN":"2鄰","STREET":"中山南路","SECT":" ","MAREA":" ","LANE":" ","ALLEY":" ","HOUSE_NO":"５１號","E_COORD97":170782.42999999999,"N_COORD97":2545841.7400000002,"ADDRESS":"中山南路５１號","OBJECTID":617093},"geometry":{"x":170782.43000000063,"y":2545841.7400000021}},{"attributes":{"ID":617121,"DIS_CODE":0,"TOWNNAME":"永康區","LI":"\u25A0行里","LIN":"2鄰","STREET":"中正路","SECT":" ","MAREA":" ","LANE":" ","ALLEY":" ","HOUSE_NO":"９５４號","E_COORD97":171960.01999999999,"N_COORD97":2548945.23,"ADDRESS":"中正路９５４號","OBJECTID":617094},"geometry":{"x":171960.01999999955,"y":2548945.2300000004}},{"attributes":{"ID":617122,"DIS_CODE":0,"TOWNNAME":"永康區","LI":"西橋里","LIN":"2鄰","STREET":"中山南路","SECT":" ","MAREA":" ","LANE":" ","ALLEY":" ","HOUSE_NO":"７１號","E_COORD97":174446.5,"N_COORD97":2548940.3700000001,"ADDRESS":"中山南路７１號","OBJECTID":617095},"geometry":{"x":174446.50000000186,"y":2548940.3700000029}},{"attributes":{"ID":617123,"DIS_CODE":0,"TOWNNAME":"永康區","LI":"\u25A0行里","LIN":"2鄰","STREET":"中正路","SECT":" ","MAREA":" ","LANE":" ","ALLEY":" ","HOUSE_NO":"９４６號","E_COORD97":171983.66,"N_COORD97":2548956.2400000002,"ADDRESS":"中正路９４６號","OBJECTID":617096},"geometry":{"x":171983.66000000015,"y":2548956.2400000021}},{"attributes":{"ID":617124,"DIS_CODE":0,"TOWNNAME":"中西區","LI":"萬昌里","LIN":"2鄰","STREET":"萬昌街","SECT":" ","MAREA":" ","LANE":" ","ALLEY":" ","HOUSE_NO":"１６號","E_COORD97":169005.91,"N_COORD97":2543328.25,"ADDRESS":"萬昌街１６號","OBJECTID":617097},"geometry":{"x":169005.91000000108,"y":2543328.2500000019}},{"attributes":{"ID":617125,"DIS_CODE":0,"TOWNNAME":"中西區","LI":"萬昌里","LIN":"2鄰","STREET":"萬昌街","SECT":" ","MAREA":" ","LANE":" ","ALLEY":" ","HOUSE_NO":"１８號","E_COORD97":169009.97,"N_COORD97":2543338.29,"ADDRESS":"萬昌街１８號","OBJECTID":617098},"geometry":{"x":169009.9700000016,"y":2543338.2899999991}},{"attributes":{"ID":617126,"DIS_CODE":0,"TOWNNAME":"永康區","LI":"\u25A0行里","LIN":"2鄰","STREET":"中正路","SECT":" ","MAREA":" ","LANE":" ","ALLEY":" ","HOUSE_NO":"９３６號","E_COORD97":171990.76999999999,"N_COORD97":2548912.6099999999,"ADDRESS":"中正路９３６號","OBJECTID":617099},"geometry":{"x":171990.76999999955,"y":2548912.6100000013}},{"attributes":{"ID":617127,"DIS_CODE":0,"TOWNNAME":"永康區","LI":"\u25A0行里","LIN":"2鄰","STREET":"中正路","SECT":" ","MAREA":" ","LANE":" ","ALLEY":" ","HOUSE_NO":"９３４號","E_COORD97":171993.92000000001,"N_COORD97":2548909.6099999999,"ADDRESS":"中正路９３４號","OBJECTID":617100},"geometry":{"x":171993.91999999899,"y":2548909.6100000013}},{"attributes":{"ID":617128,"DIS_CODE":0,"TOWNNAME":"永康區","LI":"\u25A0行里","LIN":"2鄰","STREET":"中正路","SECT":" ","MAREA":" ","LANE":" ","ALLEY":" ","HOUSE_NO":"９４０號","E_COORD97":171984.47,"N_COORD97":2548918.6099999999,"ADDRESS":"中正路９４０號","OBJECTID":617101},"geometry":{"x":171984.46999999974,"y":2548918.6100000031}},{"attributes":{"ID":617129,"DIS_CODE":0,"TOWNNAME":"中西區","LI":"公正里","LIN":"2鄰","STREET":"北門路","SECT":"一段","MAREA":" ","LANE":" ","ALLEY":" ","HOUSE_NO":"１２５號","E_COORD97":169182.5,"N_COORD97":2543944.9700000002,"ADDRESS":"北門路一段１２５號","OBJECTID":617102},"geometry":{"x":169182.5,"y":2543944.9700000025}},{"attributes":{"ID":617130,"DIS_CODE":0,"TOWNNAME":"中西區","LI":"公正里","LIN":"2鄰","STREET":"北門路","SECT":"一段","MAREA":" ","LANE":" ","ALLEY":" ","HOUSE_NO":"１２７號","E_COORD97":169183.84,"N_COORD97":2543951.3500000001,"ADDRESS":"北門路一段１２７號","OBJECTID":617103},"geometry":{"x":169183.84000000171,"y":2543951.3500000015}},{"attributes":{"ID":617131,"DIS_CODE":0,"TOWNNAME":"中西區","LI":"公正里","LIN":"2鄰","STREET":"北門路","SECT":"一段","MAREA":" ","LANE":" ","ALLEY":" ","HOUSE_NO":"１２９號","E_COORD97":169181.14999999999,"N_COORD97":2543958.73,"ADDRESS":"北門路一段１２９號","OBJECTID":617104},"geometry":{"x":169181.1500000013,"y":2543958.7300000042}},{"attributes":{"ID":617132,"DIS_CODE":0,"TOWNNAME":"中西區","LI":"公正里","LIN":"2鄰","STREET":"北門路","SECT":"一段","MAREA":" ","LANE":" ","ALLEY":" ","HOUSE_NO":"１３１號","E_COORD97":169181.14999999999,"N_COORD97":2543963.7599999998,"ADDRESS":"北門路一段１３１號","OBJECTID":617105},"geometry":{"x":169181.1500000013,"y":2543963.7599999998}},{"attributes":{"ID":617133,"DIS_CODE":0,"TOWNNAME":"中西區","LI":"公正里","LIN":"2鄰","STREET":"北門路","SECT":"一段","MAREA":" ","LANE":" ","ALLEY":" ","HOUSE_NO":"１３３號","E_COORD97":169181.14999999999,"N_COORD97":2543966.77,"ADDRESS":"北門路一段１３３號","OBJECTID":617106},"geometry":{"x":169181.1500000013,"y":2543966.7699999996}},{"attributes":{"ID":617134,"DIS_CODE":0,"TOWNNAME":"中西區","LI":"公正里","LIN":"2鄰","STREET":"北門路","SECT":"一段","MAREA":" ","LANE":" ","ALLEY":" ","HOUSE_NO":"１３５號","E_COORD97":169180.82000000001,"N_COORD97":2543971.1299999999,"ADDRESS":"北門路一段１３５號","OBJECTID":617107},"geometry":{"x":169180.8200000003,"y":2543971.129999999}},{"attributes":{"ID":617135,"DIS_CODE":0,"TOWNNAME":"中西區","LI":"公正里","LIN":"2鄰","STREET":"北門路","SECT":"一段","MAREA":" ","LANE":" ","ALLEY":" ","HOUSE_NO":"１３７號","E_COORD97":169182.16,"N_COORD97":2543974.9900000002,"ADDRESS":"北門路一段１３７號","OBJECTID":617108},"geometry":{"x":169182.16000000201,"y":2543974.9900000021}},{"attributes":{"ID":617136,"DIS_CODE":0,"TOWNNAME":"中西區","LI":"公正里","LIN":"2鄰","STREET":"北門路","SECT":"一段","MAREA":" ","LANE":" ","ALLEY":" ","HOUSE_NO":"１３９號","E_COORD97":169182.16,"N_COORD97":2543979.3500000001,"ADDRESS":"北門路一段１３９號","OBJECTID":617109},"geometry":{"x":169182.16000000201,"y":2543979.3499999996}},{"attributes":{"ID":617137,"DIS_CODE":0,"TOWNNAME":"中西區","LI":"萬昌里","LIN":"2鄰","STREET":"府前路","SECT":"一段","MAREA":" ","LANE":" ","ALLEY":" ","HOUSE_NO":"６２號","E_COORD97":168959.13,"N_COORD97":2543289.8799999999,"ADDRESS":"府前路一段６２號","OBJECTID":617110},"geometry":{"x":168959.12999999989,"y":2543289.8800000008}},{"attributes":{"ID":617138,"DIS_CODE":0,"TOWNNAME":"中西區","LI":"萬昌里","LIN":"2鄰","STREET":"府前路","SECT":"一段","MAREA":" ","LANE":" ","ALLEY":" ","HOUSE_NO":"５６號","E_COORD97":168972.23999999999,"N_COORD97":2543297.9700000002,"ADDRESS":"府前路一段５６號","OBJECTID":617111},"geometry":{"x":168972.24000000022,"y":2543297.9700000007}},{"attributes":{"ID":617139,"DIS_CODE":0,"TOWNNAME":"中西區","LI":"萬昌里","LIN":"2鄰","STREET":"府前路","SECT":"一段","MAREA":" ","LANE":" ","ALLEY":" ","HOUSE_NO":"５８號","E_COORD97":168967.97,"N_COORD97":2543292.54,"ADDRESS":"府前路一段５８號","OBJECTID":617112},"geometry":{"x":168967.97000000067,"y":2543292.5399999991}},{"attributes":{"ID":617140,"DIS_CODE":0,"TOWNNAME":"中西區","LI":"萬昌里","LIN":"2鄰","STREET":"府前路","SECT":"一段","MAREA":" ","LANE":" ","ALLEY":" ","HOUSE_NO":"６０號","E_COORD97":168963.92999999999,"N_COORD97":2543291.5800000001,"ADDRESS":"府前路一段６０號","OBJECTID":617113},"geometry":{"x":168963.9299999997,"y":2543291.5800000038}},{"attributes":{"ID":617141,"DIS_CODE":0,"TOWNNAME":"中西區","LI":"萬昌里","LIN":"2鄰","STREET":"府前路","SECT":"一段","MAREA":" ","LANE":" ","ALLEY":" ","HOUSE_NO":"８８號底層","E_COORD97":168887.53,"N_COORD97":2543297.29,"ADDRESS":"府前路一段８８號底層","OBJECTID":617114},"geometry":{"x":168887.53000000026,"y":2543297.290000001}},{"attributes":{"ID":617142,"DIS_CODE":0,"TOWNNAME":"中西區","LI":"萬昌里","LIN":"2鄰","STREET":"萬昌街","SECT":" ","MAREA":" ","LANE":" ","ALLEY":" ","HOUSE_NO":"１號","E_COORD97":168973.64999999999,"N_COORD97":2543304.6400000001,"ADDRESS":"萬昌街１號","OBJECTID":617115},"geometry":{"x":168973.65000000037,"y":2543304.6400000006}},{"attributes":{"ID":617143,"DIS_CODE":0,"TOWNNAME":"中西區","LI":"萬昌里","LIN":"2鄰","STREET":"萬昌街","SECT":" ","MAREA":" ","LANE":" ","ALLEY":" ","HOUSE_NO":"３號","E_COORD97":168974.12,"N_COORD97":2543306.48,"ADDRESS":"萬昌街３號","OBJECTID":617116},"geometry":{"x":168974.12000000104,"y":2543306.4800000023}},{"attributes":{"ID":617144,"DIS_CODE":0,"TOWNNAME":"中西區","LI":"萬昌里","LIN":"2鄰","STREET":"萬昌街","SECT":" ","MAREA":" ","LANE":" ","ALLEY":" ","HOUSE_NO":"５號","E_COORD97":168965.45000000001,"N_COORD97":2543315.1899999999,"ADDRESS":"萬昌街５號","OBJECTID":617117},"geometry":{"x":168965.45000000112,"y":2543315.1900000013}},{"attributes":{"ID":617145,"DIS_CODE":0,"TOWNNAME":"佳里區","LI":"鎮山里","LIN":"1鄰","STREET":"四安街","SECT":" ","MAREA":" ","LANE":" ","ALLEY":" ","HOUSE_NO":"２０號","E_COORD97":165867.10999999999,"N_COORD97":2561865.02,"ADDRESS":"四安街２０號","OBJECTID":617118},"geometry":{"x":165867.11000000127,"y":2561865.0200000014}},{"attributes":{"ID":617146,"DIS_CODE":0,"TOWNNAME":"東區","LI":"成大里","LIN":"29鄰","STREET":"大學路","SECT":"西段","MAREA":" ","LANE":" ","ALLEY":" ","HOUSE_NO":"２１號","E_COORD97":169790.26999999999,"N_COORD97":2544081.3799999999,"ADDRESS":"大學路西段２１號","OBJECTID":617119},"geometry":{"x":169790.26999999955,"y":2544081.3799999971}},{"attributes":{"ID":617147,"DIS_CODE":0,"TOWNNAME":"中西區","LI":"萬昌里","LIN":"2鄰","STREET":"府前路","SECT":"一段","MAREA":" ","LANE":" ","ALLEY":" ","HOUSE_NO":"２２號","E_COORD97":169048.89000000001,"N_COORD97":2543289.8500000001,"ADDRESS":"府前路一段２２號","OBJECTID":617120},"geometry":{"x":169048.88999999966,"y":2543289.8500000015}},{"attributes":{"ID":617148,"DIS_CODE":0,"TOWNNAME":"中西區","LI":"萬昌里","LIN":"2鄰","STREET":"府前路","SECT":"一段","MAREA":" ","LANE":" ","ALLEY":" ","HOUSE_NO":"２４號","E_COORD97":169044.67000000001,"N_COORD97":2543288.1200000001,"ADDRESS":"府前路一段２４號","OBJECTID":617121},"geometry":{"x":169044.67000000086,"y":2543288.120000001}},{"attributes":{"ID":617149,"DIS_CODE":0,"TOWNNAME":"中西區","LI":"萬昌里","LIN":"2鄰","STREET":"府前路","SECT":"一段","MAREA":" ","LANE":" ","ALLEY":" ","HOUSE_NO":"２６號","E_COORD97":169042.37,"N_COORD97":2543290.4199999999,"ADDRESS":"府前路一段２６號","OBJECTID":617122},"geometry":{"x":169042.37000000104,"y":2543290.4200000018}},{"attributes":{"ID":617150,"DIS_CODE":0,"TOWNNAME":"中西區","LI":"萬昌里","LIN":"2鄰","STREET":"府前路","SECT":"一段","MAREA":" ","LANE":" ","ALLEY":" ","HOUSE_NO":"２８號","E_COORD97":169032.01000000001,"N_COORD97":2543291.3799999999,"ADDRESS":"府前路一段２８號","OBJECTID":617123},"geometry":{"x":169032.01000000071,"y":2543291.3799999971}},{"attributes":{"ID":617151,"DIS_CODE":0,"TOWNNAME":"中西區","LI":"萬昌里","LIN":"2鄰","STREET":"府前路","SECT":"一段","MAREA":" ","LANE":" ","ALLEY":" ","HOUSE_NO":"３０號","E_COORD97":169024.39000000001,"N_COORD97":2543288.25,"ADDRESS":"府前路一段３０號","OBJECTID":617124},"geometry":{"x":169024.3900000006,"y":2543288.2500000019}},{"attributes":{"ID":617152,"DIS_CODE":0,"TOWNNAME":"中西區","LI":"萬昌里","LIN":"2鄰","STREET":"府前路","SECT":"一段","MAREA":" ","LANE":" ","ALLEY":" ","HOUSE_NO":"３２號","E_COORD97":169019.32000000001,"N_COORD97":2543288.46,"ADDRESS":"府前路一段３２號","OBJECTID":617125},"geometry":{"x":169019.3200000003,"y":2543288.4600000009}},{"attributes":{"ID":617153,"DIS_CODE":0,"TOWNNAME":"中西區","LI":"萬昌里","LIN":"2鄰","STREET":"府前路","SECT":"一段","MAREA":" ","LANE":" ","ALLEY":" ","HOUSE_NO":"３４號","E_COORD97":169015.20999999999,"N_COORD97":2543289.9300000002,"ADDRESS":"府前路一段３４號","OBJECTID":617126},"geometry":{"x":169015.20999999996,"y":2543289.9300000016}},{"attributes":{"ID":617154,"DIS_CODE":0,"TOWNNAME":"中西區","LI":"萬昌里","LIN":"2鄰","STREET":"府前路","SECT":"一段","MAREA":" ","LANE":" ","ALLEY":" ","HOUSE_NO":"３６號","E_COORD97":169011.41,"N_COORD97":2543288.6699999999,"ADDRESS":"府前路一段３６號","OBJECTID":617127},"geometry":{"x":169011.41000000108,"y":2543288.6700000018}},{"attributes":{"ID":617155,"DIS_CODE":0,"TOWNNAME":"中西區","LI":"萬昌里","LIN":"2鄰","STREET":"府前路","SECT":"一段","MAREA":" ","LANE":" ","ALLEY":" ","HOUSE_NO":"３８號","E_COORD97":169006.76999999999,"N_COORD97":2543290.9900000002,"ADDRESS":"府前路一段３８號","OBJECTID":617128},"geometry":{"x":169006.77000000048,"y":2543290.9900000002}},{"attributes":{"ID":617156,"DIS_CODE":0,"TOWNNAME":"中西區","LI":"萬昌里","LIN":"2鄰","STREET":"府前路","SECT":"一段","MAREA":" ","LANE":" ","ALLEY":" ","HOUSE_NO":"４０號","E_COORD97":168998.54000000001,"N_COORD97":2543290.9900000002,"ADDRESS":"府前路一段４０號","OBJECTID":617129},"geometry":{"x":168998.54000000097,"y":2543290.9900000002}},{"attributes":{"ID":617157,"DIS_CODE":0,"TOWNNAME":"中西區","LI":"萬昌里","LIN":"2鄰","STREET":"府前路","SECT":"一段","MAREA":" ","LANE":" ","ALLEY":" ","HOUSE_NO":"４２號","E_COORD97":168994.95999999999,"N_COORD97":2543292.46,"ADDRESS":"府前路一段４２號","OBJECTID":617130},"geometry":{"x":168994.96000000183,"y":2543292.4600000009}},{"attributes":{"ID":617158,"DIS_CODE":0,"TOWNNAME":"中西區","LI":"萬昌里","LIN":"2鄰","STREET":"府前路","SECT":"一段","MAREA":" ","LANE":" ","ALLEY":" ","HOUSE_NO":"４６號","E_COORD97":168990.88,"N_COORD97":2543290.6400000001,"ADDRESS":"府前路一段４６號","OBJECTID":617131},"geometry":{"x":168990.88000000082,"y":2543290.6400000006}},{"attributes":{"ID":617159,"DIS_CODE":0,"TOWNNAME":"中西區","LI":"萬昌里","LIN":"2鄰","STREET":"府前路","SECT":"一段","MAREA":" ","LANE":" ","ALLEY":" ","HOUSE_NO":"４８號","E_COORD97":168983.76000000001,"N_COORD97":2543291.1200000001,"ADDRESS":"府前路一段４８號","OBJECTID":617132},"geometry":{"x":168983.75999999978,"y":2543291.120000001}},{"attributes":{"ID":617160,"DIS_CODE":0,"TOWNNAME":"中西區","LI":"萬昌里","LIN":"2鄰","STREET":"萬昌街","SECT":" ","MAREA":" ","LANE":" ","ALLEY":" ","HOUSE_NO":"１４號","E_COORD97":169003.14000000001,"N_COORD97":2543322.98,"ADDRESS":"萬昌街１４號","OBJECTID":617133},"geometry":{"x":169003.13999999966,"y":2543322.9800000042}},{"attributes":{"ID":617161,"DIS_CODE":0,"TOWNNAME":"中西區","LI":"萬昌里","LIN":"2鄰","STREET":"萬昌街","SECT":" ","MAREA":" ","LANE":" ","ALLEY":" ","HOUSE_NO":"８號","E_COORD97":168996.79000000001,"N_COORD97":2543311.0099999998,"ADDRESS":"萬昌街８號","OBJECTID":617134},"geometry":{"x":168996.79000000097,"y":2543311.0099999998}},{"attributes":{"ID":617162,"DIS_CODE":0,"TOWNNAME":"東區","LI":"自強里","LIN":"30鄰","STREET":"中華東路","SECT":"二段","MAREA":" ","LANE":" ","ALLEY":" ","HOUSE_NO":"１９５號","E_COORD97":171320.10999999999,"N_COORD97":2542771.5099999998,"ADDRESS":"中華東路二段１９５號","OBJECTID":617135},"geometry":{"x":171320.1099999994,"y":2542771.5099999998}},{"attributes":{"ID":617163,"DIS_CODE":0,"TOWNNAME":"東區","LI":"自強里","LIN":"30鄰","STREET":"中華東路","SECT":"二段","MAREA":" ","LANE":" ","ALLEY":" ","HOUSE_NO":"１８７號","E_COORD97":171336.89000000001,"N_COORD97":2542787.8999999999,"ADDRESS":"中華東路二段１８７號","OBJECTID":617136},"geometry":{"x":171336.8900000006,"y":2542787.9000000041}},{"attributes":{"ID":617164,"DIS_CODE":0,"TOWNNAME":"東區","LI":"自強里","LIN":"30鄰","STREET":"中華東路","SECT":"二段","MAREA":" ","LANE":" ","ALLEY":" ","HOUSE_NO":"１８９號","E_COORD97":171332.23000000001,"N_COORD97":2542787.3399999999,"ADDRESS":"中華東路二段１８９號","OBJECTID":617137},"geometry":{"x":171332.23000000045,"y":2542787.3399999999}},{"attributes":{"ID":617165,"DIS_CODE":0,"TOWNNAME":"東區","LI":"自強里","LIN":"30鄰","STREET":"中華東路","SECT":"二段","MAREA":" ","LANE":" ","ALLEY":" ","HOUSE_NO":"１９１號","E_COORD97":171328.5,"N_COORD97":2542779.8900000001,"ADDRESS":"中華東路二段１９１號","OBJECTID":617138},"geometry":{"x":171328.5,"y":2542779.8900000006}},{"attributes":{"ID":617166,"DIS_CODE":0,"TOWNNAME":"東區","LI":"自強里","LIN":"30鄰","STREET":"中華東路","SECT":"二段","MAREA":" ","LANE":" ","ALLEY":" ","HOUSE_NO":"１９３號","E_COORD97":171323.84,"N_COORD97":2542775.98,"ADDRESS":"中華東路二段１９３號","OBJECTID":617139},"geometry":{"x":171323.84000000078,"y":2542775.9800000004}},{"attributes":{"ID":617167,"DIS_CODE":0,"TOWNNAME":"新化區","LI":"太平里","LIN":"2鄰","STREET":"忠孝路","SECT":" ","MAREA":" ","LANE":" ","ALLEY":" ","HOUSE_NO":"１４號","E_COORD97":179190.17000000001,"N_COORD97":2548742.25,"ADDRESS":"忠孝路１４號","OBJECTID":617140},"geometry":{"x":179190.17000000179,"y":2548742.2500000019}},{"attributes":{"ID":617168,"DIS_CODE":0,"TOWNNAME":"新化區","LI":"竹林里","LIN":"2鄰","STREET":"民權街","SECT":" ","MAREA":" ","LANE":" ","ALLEY":" ","HOUSE_NO":"４６號","E_COORD97":178772.26000000001,"N_COORD97":2548547.25,"ADDRESS":"民權街４６號","OBJECTID":617141},"geometry":{"x":178772.25999999885,"y":2548547.25}},{"attributes":{"ID":617169,"DIS_CODE":0,"TOWNNAME":"新化區","LI":"竹林里","LIN":"2鄰","STREET":"民權街","SECT":" ","MAREA":" ","LANE":" ","ALLEY":" ","HOUSE_NO":"４２號之１","E_COORD97":178763.19,"N_COORD97":2548519.2599999998,"ADDRESS":"民權街４２號之１","OBJECTID":617142},"geometry":{"x":178763.18999999948,"y":2548519.2600000016}},{"attributes":{"ID":617170,"DIS_CODE":0,"TOWNNAME":"新化區","LI":"東榮里","LIN":"2鄰","STREET":"中興路","SECT":" ","MAREA":" ","LANE":" ","ALLEY":" ","HOUSE_NO":"７４號","E_COORD97":181942.35999999999,"N_COORD97":2547321.5499999998,"ADDRESS":"中興路７４號","OBJECTID":617143},"geometry":{"x":181942.3600000022,"y":2547321.5500000026}},{"attributes":{"ID":617171,"DIS_CODE":0,"TOWNNAME":"新化區","LI":"護國里","LIN":"2鄰","STREET":"中正路","SECT":" ","MAREA":" ","LANE":" ","ALLEY":" ","HOUSE_NO":"４４０號之１","E_COORD97":179055.37,"N_COORD97":2548524.1899999999,"ADDRESS":"中正路４４０號之１","OBJECTID":617144},"geometry":{"x":179055.37000000104,"y":2548524.1899999995}},{"attributes":{"ID":617172,"DIS_CODE":0,"TOWNNAME":"安南區","LI":"城中里","LIN":"2鄰","STREET":"安中路","SECT":"六段","MAREA":" ","LANE":" ","ALLEY":" ","HOUSE_NO":"５６５號","E_COORD97":160870.28,"N_COORD97":2551391.4900000002,"ADDRESS":"安中路六段５６５號","OBJECTID":617145},"geometry":{"x":160870.28000000119,"y":2551391.4900000002}},{"attributes":{"ID":617173,"DIS_CODE":0,"TOWNNAME":"安南區","LI":"城中里","LIN":"2鄰","STREET":"安中路","SECT":"六段","MAREA":" ","LANE":" ","ALLEY":" ","HOUSE_NO":"５７９號","E_COORD97":160847.48000000001,"N_COORD97":2551419.9100000001,"ADDRESS":"安中路六段５７９號","OBJECTID":617146},"geometry":{"x":160847.48000000045,"y":2551419.910000002}},{"attributes":{"ID":617174,"DIS_CODE":0,"TOWNNAME":"安南區","LI":"城中里","LIN":"2鄰","STREET":"安中路","SECT":"六段","MAREA":" ","LANE":" ","ALLEY":" ","HOUSE_NO":"５８７號","E_COORD97":160835.26999999999,"N_COORD97":2551427.4500000002,"ADDRESS":"安中路六段５８７號","OBJECTID":617147},"geometry":{"x":160835.27000000142,"y":2551427.4499999993}},{"attributes":{"ID":617175,"DIS_CODE":0,"TOWNNAME":"安南區","LI":"城西里","LIN":"2鄰","STREET":"城西街","SECT":"三段","MAREA":" ","LANE":" ","ALLEY":" ","HOUSE_NO":"４４８號","E_COORD97":157282.31,"N_COORD97":2550905.48,"ADDRESS":"城西街三段４４８號","OBJECTID":617148},"geometry":{"x":157282.31000000052,"y":2550905.4800000023}},{"attributes":{"ID":617176,"DIS_CODE":0,"TOWNNAME":"安南區","LI":"青草里","LIN":"2鄰","STREET":"青砂街","SECT":"二段","MAREA":" ","LANE":" ","ALLEY":" ","HOUSE_NO":"３５０號","E_COORD97":159061.85999999999,"N_COORD97":2553094.0499999998,"ADDRESS":"青砂街二段３５０號","OBJECTID":617149},"geometry":{"x":159061.86000000034,"y":2553094.0500000045}},{"attributes":{"ID":617177,"DIS_CODE":0,"TOWNNAME":"安南區","LI":"青草里","LIN":"2鄰","STREET":"青砂街","SECT":"二段","MAREA":" ","LANE":" ","ALLEY":" ","HOUSE_NO":"３５２號","E_COORD97":159055.57000000001,"N_COORD97":2553095.1200000001,"ADDRESS":"青砂街二段３５２號","OBJECTID":617150},"geometry":{"x":159055.5700000003,"y":2553095.1200000029}},{"attributes":{"ID":617178,"DIS_CODE":0,"TOWNNAME":"安南區","LI":"青草里","LIN":"2鄰","STREET":"青砂街","SECT":"二段","MAREA":" ","LANE":" ","ALLEY":" ","HOUSE_NO":"３５４號","E_COORD97":159051.12,"N_COORD97":2553093.8100000001,"ADDRESS":"青砂街二段３５４號","OBJECTID":617151},"geometry":{"x":159051.12000000011,"y":2553093.8100000005}},{"attributes":{"ID":617179,"DIS_CODE":0,"TOWNNAME":"安南區","LI":"青草里","LIN":"2鄰","STREET":"青砂街","SECT":"二段","MAREA":" ","LANE":" ","ALLEY":" ","HOUSE_NO":"３６６號","E_COORD97":159024.76000000001,"N_COORD97":2553076.4199999999,"ADDRESS":"青砂街二段３６６號","OBJECTID":617152},"geometry":{"x":159024.75999999978,"y":2553076.4199999999}},{"attributes":{"ID":617180,"DIS_CODE":0,"TOWNNAME":"安南區","LI":"青草里","LIN":"2鄰","STREET":"青砂街","SECT":"二段","MAREA":" ","LANE":" ","ALLEY":" ","HOUSE_NO":"３６８號","E_COORD97":159016.38,"N_COORD97":2553079.2999999998,"ADDRESS":"青砂街二段３６８號","OBJECTID":617153},"geometry":{"x":159016.38000000082,"y":2553079.3000000026}},{"attributes":{"ID":617181,"DIS_CODE":0,"TOWNNAME":"安南區","LI":"青草里","LIN":"2鄰","STREET":"青砂街","SECT":"二段","MAREA":" ","LANE":" ","ALLEY":" ","HOUSE_NO":"３７４號","E_COORD97":159000.78,"N_COORD97":2553066.48,"ADDRESS":"青砂街二段３７４號","OBJECTID":617154},"geometry":{"x":159000.78000000119,"y":2553066.4800000004}},{"attributes":{"ID":617182,"DIS_CODE":0,"TOWNNAME":"安南區","LI":"淵中里","LIN":"2鄰","STREET":"安中路","SECT":"三段","MAREA":" ","LANE":" ","ALLEY":" ","HOUSE_NO":"３８９號","E_COORD97":165390,"N_COORD97":2549994.96,"ADDRESS":"安中路三段３８９號","OBJECTID":617155},"geometry":{"x":165390,"y":2549994.9600000009}},{"attributes":{"ID":617183,"DIS_CODE":0,"TOWNNAME":"安南區","LI":"淵中里","LIN":"2鄰","STREET":"安中路","SECT":"三段","MAREA":" ","LANE":" ","ALLEY":" ","HOUSE_NO":"３９５號","E_COORD97":165381.10000000001,"N_COORD97":2550004.27,"ADDRESS":"安中路三段３９５號","OBJECTID":617156},"geometry":{"x":165381.09999999963,"y":2550004.2699999996}},{"attributes":{"ID":617184,"DIS_CODE":0,"TOWNNAME":"安南區","LI":"淵中里","LIN":"2鄰","STREET":"安中路","SECT":"三段","MAREA":" ","LANE":" ","ALLEY":" ","HOUSE_NO":"３９９號","E_COORD97":165374.07000000001,"N_COORD97":2550010.3599999999,"ADDRESS":"安中路三段３９９號","OBJECTID":617157},"geometry":{"x":165374.07000000123,"y":2550010.3599999994}},{"attributes":{"ID":617185,"DIS_CODE":0,"TOWNNAME":"安南區","LI":"淵中里","LIN":"2鄰","STREET":"安中路","SECT":"三段","MAREA":" ","LANE":" ","ALLEY":" ","HOUSE_NO":"４０３號","E_COORD97":165368.22,"N_COORD97":2550015.8700000001,"ADDRESS":"安中路三段４０３號","OBJECTID":617158},"geometry":{"x":165368.21999999974,"y":2550015.870000001}},{"attributes":{"ID":617186,"DIS_CODE":0,"TOWNNAME":"安南區","LI":"淵中里","LIN":"2鄰","STREET":"安中路","SECT":"三段","MAREA":" ","LANE":" ","ALLEY":" ","HOUSE_NO":"４１３號","E_COORD97":165352.38,"N_COORD97":2550029.02,"ADDRESS":"安中路三段４１３號","OBJECTID":617159},"geometry":{"x":165352.37999999989,"y":2550029.0200000014}},{"attributes":{"ID":617187,"DIS_CODE":0,"TOWNNAME":"安南區","LI":"淵中里","LIN":"2鄰","STREET":"安中路","SECT":"三段","MAREA":" ","LANE":" ","ALLEY":" ","HOUSE_NO":"４１５號","E_COORD97":165350.76999999999,"N_COORD97":2550032.7400000002,"ADDRESS":"安中路三段４１５號","OBJECTID":617160},"geometry":{"x":165350.76999999955,"y":2550032.7400000002}},{"attributes":{"ID":617188,"DIS_CODE":0,"TOWNNAME":"安南區","LI":"淵中里","LIN":"2鄰","STREET":"安中路","SECT":"三段","MAREA":" ","LANE":" ","ALLEY":" ","HOUSE_NO":"４１７號","E_COORD97":165345.70000000001,"N_COORD97":2550035.2000000002,"ADDRESS":"安中路三段４１７號","OBJECTID":617161},"geometry":{"x":165345.70000000205,"y":2550035.1999999993}},{"attributes":{"ID":617189,"DIS_CODE":0,"TOWNNAME":"安南區","LI":"淵中里","LIN":"2鄰","STREET":"安中路","SECT":"三段","MAREA":" ","LANE":" ","ALLEY":" ","HOUSE_NO":"４２１號","E_COORD97":165338.16,"N_COORD97":2550042.3999999999,"ADDRESS":"安中路三段４２１號","OBJECTID":617162},"geometry":{"x":165338.16000000108,"y":2550042.4000000004}},{"attributes":{"ID":617190,"DIS_CODE":0,"TOWNNAME":"安南區","LI":"淵中里","LIN":"2鄰","STREET":"安中路","SECT":"三段","MAREA":" ","LANE":" ","ALLEY":" ","HOUSE_NO":"４２３號","E_COORD97":165334.94,"N_COORD97":2550046.29,"ADDRESS":"安中路三段４２３號","OBJECTID":617163},"geometry":{"x":165334.94000000041,"y":2550046.2900000028}},{"attributes":{"ID":617191,"DIS_CODE":0,"TOWNNAME":"東區","LI":"成大里","LIN":"31鄰","STREET":"北門路","SECT":"二段","MAREA":" ","LANE":" ","ALLEY":" ","HOUSE_NO":"３４號","E_COORD97":169332.10999999999,"N_COORD97":2544604.1200000001,"ADDRESS":"北門路二段３４號","OBJECTID":617164},"geometry":{"x":169332.11000000127,"y":2544604.1199999992}},{"attributes":{"ID":617192,"DIS_CODE":0,"TOWNNAME":"善化區","LI":"小新里","LIN":"2鄰","STREET":"成功路","SECT":" ","MAREA":" ","LANE":" ","ALLEY":" ","HOUSE_NO":"１０５號","E_COORD97":179879.95000000001,"N_COORD97":2558616.75,"ADDRESS":"成功路１０５號","OBJECTID":617165},"geometry":{"x":179879.95000000019,"y":2558616.75}},{"attributes":{"ID":617193,"DIS_CODE":0,"TOWNNAME":"善化區","LI":"文昌里","LIN":"2鄰","STREET":"平等路","SECT":" ","MAREA":" ","LANE":" ","ALLEY":" ","HOUSE_NO":"２０號","E_COORD97":177289.59,"N_COORD97":2558970,"ADDRESS":"平等路２０號","OBJECTID":617166},"geometry":{"x":177289.58999999985,"y":2558970.0000000019}},{"attributes":{"ID":617194,"DIS_CODE":0,"TOWNNAME":"善化區","LI":"文昌里","LIN":"2鄰","STREET":"平等路","SECT":" ","MAREA":" ","LANE":" ","ALLEY":" ","HOUSE_NO":"１２號","E_COORD97":177297.10000000001,"N_COORD97":2558996.75,"ADDRESS":"平等路１２號","OBJECTID":617167},"geometry":{"x":177297.10000000056,"y":2558996.75}},{"attributes":{"ID":617195,"DIS_CODE":0,"TOWNNAME":"善化區","LI":"坐駕里","LIN":"2鄰","STREET":"中興路","SECT":" ","MAREA":" ","LANE":" ","ALLEY":" ","HOUSE_NO":"２號","E_COORD97":177791.92000000001,"N_COORD97":2559007.25,"ADDRESS":"中興路２號","OBJECTID":617168},"geometry":{"x":177791.92000000086,"y":2559007.25}},{"attributes":{"ID":617196,"DIS_CODE":0,"TOWNNAME":"善化區","LI":"北關里","LIN":"2鄰","STREET":"三民路","SECT":" ","MAREA":" ","LANE":" ","ALLEY":" ","HOUSE_NO":"８５號","E_COORD97":177116.54999999999,"N_COORD97":2559182.5099999998,"ADDRESS":"三民路８５號","OBJECTID":617169},"geometry":{"x":177116.55000000075,"y":2559182.5100000035}},{"attributes":{"ID":617197,"DIS_CODE":0,"TOWNNAME":"善化區","LI":"北關里","LIN":"2鄰","STREET":"中山路","SECT":" ","MAREA":" ","LANE":" ","ALLEY":" ","HOUSE_NO":"５２０號之２","E_COORD97":177087.53,"N_COORD97":2559169.02,"ADDRESS":"中山路５２０號之２","OBJECTID":617170},"geometry":{"x":177087.53000000026,"y":2559169.0200000014}},{"attributes":{"ID":617198,"DIS_CODE":0,"TOWNNAME":"善化區","LI":"北關里","LIN":"2鄰","STREET":"中山路","SECT":" ","MAREA":" ","LANE":" ","ALLEY":" ","HOUSE_NO":"５２０號之１","E_COORD97":177092.42000000001,"N_COORD97":2559168.02,"ADDRESS":"中山路５２０號之１","OBJECTID":617171},"geometry":{"x":177092.41999999993,"y":2559168.0199999996}},{"attributes":{"ID":617199,"DIS_CODE":0,"TOWNNAME":"善化區","LI":"東關里","LIN":"2鄰","STREET":"中山路","SECT":" ","MAREA":" ","LANE":" ","ALLEY":" ","HOUSE_NO":"３９４號","E_COORD97":177466.23000000001,"N_COORD97":2559116,"ADDRESS":"中山路３９４號","OBJECTID":617172},"geometry":{"x":177466.23000000231,"y":2559116.0000000019}},{"attributes":{"ID":617200,"DIS_CODE":0,"TOWNNAME":"善化區","LI":"坐駕里","LIN":"2鄰","STREET":"中山路","SECT":" ","MAREA":" ","LANE":" ","ALLEY":" ","HOUSE_NO":"３１１號","E_COORD97":177800.37,"N_COORD97":2559070,"ADDRESS":"中山路３１１號","OBJECTID":617173},"geometry":{"x":177800.37000000011,"y":2559070}},{"attributes":{"ID":617201,"DIS_CODE":0,"TOWNNAME":"東區","LI":"後甲里","LIN":"2鄰","STREET":"裕農路","SECT":" ","MAREA":" ","LANE":" ","ALLEY":" ","HOUSE_NO":"７６７號之１","E_COORD97":171888.07000000001,"N_COORD97":2543269.8799999999,"ADDRESS":"裕農路７６７號之１","OBJECTID":617174},"geometry":{"x":171888.0700000003,"y":2543269.879999999}},{"attributes":{"ID":617202,"DIS_CODE":0,"TOWNNAME":"東區","LI":"龍山里","LIN":"2鄰","STREET":"崇仁街","SECT":" ","MAREA":" ","LANE":" ","ALLEY":" ","HOUSE_NO":"２３號","E_COORD97":170354.06,"N_COORD97":2542764.02,"ADDRESS":"崇仁街２３號","OBJECTID":617175},"geometry":{"x":170354.06000000052,"y":2542764.0200000014}},{"attributes":{"ID":617203,"DIS_CODE":0,"TOWNNAME":"東區","LI":"裕農里","LIN":"2鄰","STREET":"裕豐街","SECT":" ","MAREA":" ","LANE":" ","ALLEY":" ","HOUSE_NO":"１３４號","E_COORD97":170768.03,"N_COORD97":2543003.5,"ADDRESS":"裕豐街１３４號","OBJECTID":617176},"geometry":{"x":170768.03000000212,"y":2543003.4999999981}},{"attributes":{"ID":617204,"DIS_CODE":0,"TOWNNAME":"東區","LI":"裕農里","LIN":"2鄰","STREET":"裕豐街","SECT":" ","MAREA":" ","LANE":" ","ALLEY":" ","HOUSE_NO":"１３８號","E_COORD97":170769.26000000001,"N_COORD97":2543014.6299999999,"ADDRESS":"裕豐街１３８號","OBJECTID":617177},"geometry":{"x":170769.25999999885,"y":2543014.629999999}},{"attributes":{"ID":617205,"DIS_CODE":0,"TOWNNAME":"東區","LI":"裕農里","LIN":"2鄰","STREET":"裕豐街","SECT":" ","MAREA":" ","LANE":" ","ALLEY":" ","HOUSE_NO":"１４０號","E_COORD97":170769.57000000001,"N_COORD97":2543019.27,"ADDRESS":"裕豐街１４０號","OBJECTID":617178},"geometry":{"x":170769.57000000216,"y":2543019.2700000014}},{"attributes":{"ID":617206,"DIS_CODE":0,"TOWNNAME":"東區","LI":"裕農里","LIN":"2鄰","STREET":"裕豐街","SECT":" ","MAREA":" ","LANE":" ","ALLEY":" ","HOUSE_NO":"１２８號","E_COORD97":170765.54999999999,"N_COORD97":2542986.5,"ADDRESS":"裕豐街１２８號","OBJECTID":617179},"geometry":{"x":170765.54999999981,"y":2542986.5}},{"attributes":{"ID":617207,"DIS_CODE":0,"TOWNNAME":"東區","LI":"裕農里","LIN":"2鄰","STREET":"裕豐街","SECT":" ","MAREA":" ","LANE":" ","ALLEY":" ","HOUSE_NO":"１３６號","E_COORD97":170767.72,"N_COORD97":2543009.3799999999,"ADDRESS":"裕豐街１３６號","OBJECTID":617180},"geometry":{"x":170767.71999999974,"y":2543009.379999999}},{"attributes":{"ID":617208,"DIS_CODE":0,"TOWNNAME":"東區","LI":"自強里","LIN":"2鄰","STREET":"富農街","SECT":"一段","MAREA":" ","LANE":" ","ALLEY":" ","HOUSE_NO":"１１３號","E_COORD97":171514.98000000001,"N_COORD97":2542434.0600000001,"ADDRESS":"富農街一段１１３號","OBJECTID":617181},"geometry":{"x":171514.98000000138,"y":2542434.0599999987}},{"attributes":{"ID":617209,"DIS_CODE":0,"TOWNNAME":"東區","LI":"自強里","LIN":"2鄰","STREET":"富農街","SECT":"一段","MAREA":" ","LANE":" ","ALLEY":" ","HOUSE_NO":"１１９號","E_COORD97":171519.85999999999,"N_COORD97":2542449.2400000002,"ADDRESS":"富農街一段１１９號","OBJECTID":617182},"geometry":{"x":171519.86000000034,"y":2542449.2400000002}},{"attributes":{"ID":617210,"DIS_CODE":0,"TOWNNAME":"東區","LI":"自強里","LIN":"2鄰","STREET":"富農街","SECT":"一段","MAREA":" ","LANE":" ","ALLEY":" ","HOUSE_NO":"１２３號","E_COORD97":171521.57999999999,"N_COORD97":2542457.1200000001,"ADDRESS":"富農街一段１２３號","OBJECTID":617183},"geometry":{"x":171521.58000000007,"y":2542457.120000001}},{"attributes":{"ID":617211,"DIS_CODE":0,"TOWNNAME":"東區","LI":"自強里","LIN":"2鄰","STREET":"富農街","SECT":"一段","MAREA":" ","LANE":" ","ALLEY":" ","HOUSE_NO":"１２５號","E_COORD97":171522.73000000001,"N_COORD97":2542462.2799999998,"ADDRESS":"富農街一段１２５號","OBJECTID":617184},"geometry":{"x":171522.73000000045,"y":2542462.2800000031}},{"attributes":{"ID":617212,"DIS_CODE":0,"TOWNNAME":"東區","LI":"自強里","LIN":"2鄰","STREET":"富農街","SECT":"一段","MAREA":" ","LANE":" ","ALLEY":" ","HOUSE_NO":"１２７號","E_COORD97":171524.88,"N_COORD97":2542467.4399999999,"ADDRESS":"富農街一段１２７號","OBJECTID":617185},"geometry":{"x":171524.88000000082,"y":2542467.4399999995}},{"attributes":{"ID":617213,"DIS_CODE":0,"TOWNNAME":"東區","LI":"南聖里","LIN":"2鄰","STREET":"富農街","SECT":"二段","MAREA":" ","LANE":" ","ALLEY":" ","HOUSE_NO":"１３６號","E_COORD97":171638.63,"N_COORD97":2543168.9100000001,"ADDRESS":"富農街二段１３６號","OBJECTID":617186},"geometry":{"x":171638.63000000082,"y":2543168.910000002}},{"attributes":{"ID":617214,"DIS_CODE":0,"TOWNNAME":"東區","LI":"南聖里","LIN":"2鄰","STREET":"富農街","SECT":"二段","MAREA":" ","LANE":" ","ALLEY":" ","HOUSE_NO":"１３６之１號","E_COORD97":171635.47,"N_COORD97":2543176.3300000001,"ADDRESS":"富農街二段１３６之１號","OBJECTID":617187},"geometry":{"x":171635.46999999974,"y":2543176.3300000001}},{"attributes":{"ID":617215,"DIS_CODE":0,"TOWNNAME":"東區","LI":"南聖里","LIN":"2鄰","STREET":"富農街","SECT":"二段","MAREA":" ","LANE":" ","ALLEY":" ","HOUSE_NO":"１５２號","E_COORD97":171635.98999999999,"N_COORD97":2543187.1899999999,"ADDRESS":"富農街二段１５２號","OBJECTID":617188},"geometry":{"x":171635.99000000022,"y":2543187.1899999995}},{"attributes":{"ID":617216,"DIS_CODE":0,"TOWNNAME":"東區","LI":"南聖里","LIN":"2鄰","STREET":"富農街","SECT":"二段","MAREA":" ","LANE":" ","ALLEY":" ","HOUSE_NO":"１５４號","E_COORD97":171635.32999999999,"N_COORD97":2543191.3100000001,"ADDRESS":"富農街二段１５４號","OBJECTID":617189},"geometry":{"x":171635.32999999914,"y":2543191.3100000005}},{"attributes":{"ID":617217,"DIS_CODE":0,"TOWNNAME":"東區","LI":"南聖里","LIN":"2鄰","STREET":"富農街","SECT":"二段","MAREA":" ","LANE":" ","ALLEY":" ","HOUSE_NO":"１５８號","E_COORD97":171634.41,"N_COORD97":2543199.25,"ADDRESS":"富農街二段１５８號","OBJECTID":617190},"geometry":{"x":171634.41000000015,"y":2543199.2500000019}},{"attributes":{"ID":617218,"DIS_CODE":0,"TOWNNAME":"東區","LI":"圍下里","LIN":"2鄰","STREET":"勝利路","SECT":" ","MAREA":" ","LANE":" ","ALLEY":" ","HOUSE_NO":"７３號","E_COORD97":169790.59,"N_COORD97":2543501.7599999998,"ADDRESS":"勝利路７３號","OBJECTID":617191},"geometry":{"x":169790.58999999985,"y":2543501.7600000016}},{"attributes":{"ID":617219,"DIS_CODE":0,"TOWNNAME":"東區","LI":"圍下里","LIN":"2鄰","STREET":"青年路","SECT":" ","MAREA":" ","LANE":" ","ALLEY":" ","HOUSE_NO":"３６６號","E_COORD97":169574.23000000001,"N_COORD97":2543525.4500000002,"ADDRESS":"青年路３６６號","OBJECTID":617192},"geometry":{"x":169574.23000000138,"y":2543525.450000003}},{"attributes":{"ID":617220,"DIS_CODE":0,"TOWNNAME":"東區","LI":"圍下里","LIN":"2鄰","STREET":"青年路","SECT":" ","MAREA":" ","LANE":" ","ALLEY":" ","HOUSE_NO":"３７０號","E_COORD97":169583.22,"N_COORD97":2543524.4199999999,"ADDRESS":"青年路３７０號","OBJECTID":617193},"geometry":{"x":169583.22000000067,"y":2543524.4200000018}},{"attributes":{"ID":617221,"DIS_CODE":0,"TOWNNAME":"東區","LI":"圍下里","LIN":"2鄰","STREET":"青年路","SECT":" ","MAREA":" ","LANE":" ","ALLEY":" ","HOUSE_NO":"３７２號","E_COORD97":169587.85000000001,"N_COORD97":2543523.6499999999,"ADDRESS":"青年路３７２號","OBJECTID":617194},"geometry":{"x":169587.85000000056,"y":2543523.6500000004}},{"attributes":{"ID":617222,"DIS_CODE":0,"TOWNNAME":"東區","LI":"圍下里","LIN":"2鄰","STREET":"青年路","SECT":" ","MAREA":" ","LANE":" ","ALLEY":" ","HOUSE_NO":"３７４號","E_COORD97":169591.70000000001,"N_COORD97":2543522.8799999999,"ADDRESS":"青年路３７４號","OBJECTID":617195},"geometry":{"x":169591.70000000019,"y":2543522.8800000008}},{"attributes":{"ID":617223,"DIS_CODE":0,"TOWNNAME":"東區","LI":"圍下里","LIN":"2鄰","STREET":"青年路","SECT":" ","MAREA":" ","LANE":" ","ALLEY":" ","HOUSE_NO":"３７８號","E_COORD97":169600.70000000001,"N_COORD97":2543522.1099999999,"ADDRESS":"青年路３７８號","OBJECTID":617196},"geometry":{"x":169600.70000000112,"y":2543522.1100000013}},{"attributes":{"ID":617224,"DIS_CODE":0,"TOWNNAME":"東區","LI":"圍下里","LIN":"2鄰","STREET":"青年路","SECT":" ","MAREA":" ","LANE":" ","ALLEY":" ","HOUSE_NO":"３８２號","E_COORD97":169608.67000000001,"N_COORD97":2543521.6000000001,"ADDRESS":"青年路３８２號","OBJECTID":617197},"geometry":{"x":169608.66999999993,"y":2543521.6000000034}},{"attributes":{"ID":617225,"DIS_CODE":0,"TOWNNAME":"東區","LI":"圍下里","LIN":"2鄰","STREET":"青年路","SECT":" ","MAREA":" ","LANE":" ","ALLEY":" ","HOUSE_NO":"３８４號","E_COORD97":169612.26000000001,"N_COORD97":2543521.3399999999,"ADDRESS":"青年路３８４號","OBJECTID":617198},"geometry":{"x":169612.26000000071,"y":2543521.3400000017}},{"attributes":{"ID":617226,"DIS_CODE":0,"TOWNNAME":"東區","LI":"圍下里","LIN":"2鄰","STREET":"青年路","SECT":" ","MAREA":" ","LANE":" ","ALLEY":" ","HOUSE_NO":"３８６號","E_COORD97":169616.63,"N_COORD97":2543520.5699999998,"ADDRESS":"青年路３８６號","OBJECTID":617199},"geometry":{"x":169616.63000000082,"y":2543520.5700000022}},{"attributes":{"ID":617227,"DIS_CODE":0,"TOWNNAME":"東區","LI":"圍下里","LIN":"2鄰","STREET":"青年路","SECT":" ","MAREA":" ","LANE":" ","ALLEY":" ","HOUSE_NO":"３８８號","E_COORD97":169620.23000000001,"N_COORD97":2543520.5699999998,"ADDRESS":"青年路３８８號","OBJECTID":617200},"geometry":{"x":169620.23000000045,"y":2543520.5700000022}}]}