{"displayFieldName":"TOWNNAME","fieldAliases":{"ID":"ID","DIS_CODE":"DIS_CODE","TOWNNAME":"TOWNNAME","LI":"LI","LIN":"LIN","STREET":"STREET","SECT":"SECT","MAREA":"MAREA","LANE":"LANE","ALLEY":"ALLEY","HOUSE_NO":"HOUSE_NO","E_COORD97":"E_COORD97","N_COORD97":"N_COORD97","ADDRESS":"ADDRESS","OBJECTID":"OBJECTID"},"geometryType":"esriGeometryPoint","spatialReference":{"wkid":102443,"latestWkid":3826},"fields":[{"name":"ID","type":"esriFieldTypeDouble","alias":"ID"},{"name":"DIS_CODE","type":"esriFieldTypeInteger","alias":"DIS_CODE"},{"name":"TOWNNAME","type":"esriFieldTypeString","alias":"TOWNNAME","length":8},{"name":"LI","type":"esriFieldTypeString","alias":"LI","length":8},{"name":"LIN","type":"esriFieldTypeString","alias":"LIN","length":12},{"name":"STREET","type":"esriFieldTypeString","alias":"STREET","length":20},{"name":"SECT","type":"esriFieldTypeString","alias":"SECT","length":8},{"name":"MAREA","type":"esriFieldTypeString","alias":"MAREA","length":12},{"name":"LANE","type":"esriFieldTypeString","alias":"LANE","length":10},{"name":"ALLEY","type":"esriFieldTypeString","alias":"ALLEY","length":10},{"name":"HOUSE_NO","type":"esriFieldTypeString","alias":"HOUSE_NO","length":20},{"name":"E_COORD97","type":"esriFieldTypeDouble","alias":"E_COORD97"},{"name":"N_COORD97","type":"esriFieldTypeDouble","alias":"N_COORD97"},{"name":"ADDRESS","type":"esriFieldTypeString","alias":"ADDRESS","length":50},{"name":"OBJECTID","type":"esriFieldTypeOID","alias":"OBJECTID"}],"features":[{"attributes":{"ID":112601,"DIS_CODE":0,"TOWNNAME":"永康區","LI":"龍潭里","LIN":"26鄰","STREET":"中山北路","SECT":" ","MAREA":" ","LANE":"４６１巷","ALLEY":"８弄","HOUSE_NO":"１５號","E_COORD97":175148.01999999999,"N_COORD97":2547806.5699999998,"ADDRESS":"中山北路４６１巷８弄１５號","OBJECTID":112601},"geometry":{"x":175148.02000000048,"y":2547806.5700000003}},{"attributes":{"ID":112602,"DIS_CODE":0,"TOWNNAME":"永康區","LI":"勝利里","LIN":"37鄰","STREET":"勝利街","SECT":" ","MAREA":" ","LANE":"１９７巷","ALLEY":"９弄","HOUSE_NO":"１號五樓之２","E_COORD97":171332.79999999999,"N_COORD97":2545108.0499999998,"ADDRESS":"勝利街１９７巷９弄１號五樓之２","OBJECTID":112602},"geometry":{"x":171332.79999999981,"y":2545108.0500000007}},{"attributes":{"ID":112603,"DIS_CODE":0,"TOWNNAME":"官田區","LI":"南\u25A0里","LIN":"1鄰","STREET":" ","SECT":" ","MAREA":"南\u25A0","LANE":" ","ALLEY":" ","HOUSE_NO":"１４號","E_COORD97":179162.85000000001,"N_COORD97":2567782.5099999998,"ADDRESS":"南\u25A0１４號","OBJECTID":112603},"geometry":{"x":179162.84999999963,"y":2567782.5099999998}},{"attributes":{"ID":112604,"DIS_CODE":0,"TOWNNAME":"將軍區","LI":"平沙里","LIN":"1鄰","STREET":" ","SECT":" ","MAREA":"平沙","LANE":" ","ALLEY":" ","HOUSE_NO":"３號","E_COORD97":157390.47,"N_COORD97":2568604.23,"ADDRESS":"平沙３號","OBJECTID":112604},"geometry":{"x":157390.46999999974,"y":2568604.2300000023}},{"attributes":{"ID":112605,"DIS_CODE":0,"TOWNNAME":"將軍區","LI":"西華里","LIN":"1鄰","STREET":" ","SECT":" ","MAREA":"西華","LANE":" ","ALLEY":" ","HOUSE_NO":"１４號","E_COORD97":163834.85999999999,"N_COORD97":2566496.0899999999,"ADDRESS":"西華１４號","OBJECTID":112605},"geometry":{"x":163834.86000000127,"y":2566496.0900000017}},{"attributes":{"ID":112606,"DIS_CODE":0,"TOWNNAME":"關廟區","LI":"深坑里","LIN":"1鄰","STREET":"南雄路","SECT":"一段","MAREA":" ","LANE":" ","ALLEY":" ","HOUSE_NO":"２６２號","E_COORD97":181919.62,"N_COORD97":2537374.2999999998,"ADDRESS":"南雄路一段２６２號","OBJECTID":112606},"geometry":{"x":181919.62000000011,"y":2537374.2999999989}},{"attributes":{"ID":112607,"DIS_CODE":0,"TOWNNAME":"永康區","LI":"埔園里","LIN":"37鄰","STREET":"永大路","SECT":"三段","MAREA":" ","LANE":"３６０巷","ALLEY":"３０弄","HOUSE_NO":"１號五樓之３","E_COORD97":174207.54000000001,"N_COORD97":2548163.8300000001,"ADDRESS":"永大路三段３６０巷３０弄１號五樓之３","OBJECTID":112607},"geometry":{"x":174207.54000000097,"y":2548163.8300000001}},{"attributes":{"ID":112608,"DIS_CODE":0,"TOWNNAME":"永康區","LI":"勝利里","LIN":"37鄰","STREET":"勝利街","SECT":" ","MAREA":" ","LANE":"１９７巷","ALLEY":"９弄","HOUSE_NO":"４號三樓","E_COORD97":171319.59,"N_COORD97":2545093.5099999998,"ADDRESS":"勝利街１９７巷９弄４號三樓","OBJECTID":112608},"geometry":{"x":171319.58999999985,"y":2545093.5100000016}},{"attributes":{"ID":112609,"DIS_CODE":0,"TOWNNAME":"永康區","LI":"埔園里","LIN":"37鄰","STREET":"永大路","SECT":"三段","MAREA":" ","LANE":"３６０巷","ALLEY":"３０弄","HOUSE_NO":"１號三樓之１","E_COORD97":174207.44,"N_COORD97":2548163.8300000001,"ADDRESS":"永大路三段３６０巷３０弄１號三樓之１","OBJECTID":112609},"geometry":{"x":174207.44000000134,"y":2548163.8300000001}},{"attributes":{"ID":112610,"DIS_CODE":0,"TOWNNAME":"將軍區","LI":"西華里","LIN":"1鄰","STREET":" ","SECT":" ","MAREA":"西華","LANE":" ","ALLEY":" ","HOUSE_NO":"２號","E_COORD97":163793.48999999999,"N_COORD97":2566539.04,"ADDRESS":"西華２號","OBJECTID":112610},"geometry":{"x":163793.49000000022,"y":2566539.040000001}},{"attributes":{"ID":112611,"DIS_CODE":0,"TOWNNAME":"北門區","LI":"三光里","LIN":"1鄰","STREET":" ","SECT":" ","MAREA":"三寮灣","LANE":" ","ALLEY":" ","HOUSE_NO":"６號","E_COORD97":160100.10999999999,"N_COORD97":2570315.4100000001,"ADDRESS":"三寮灣６號","OBJECTID":112611},"geometry":{"x":160100.11000000127,"y":2570315.410000002}},{"attributes":{"ID":112612,"DIS_CODE":0,"TOWNNAME":"將軍區","LI":"西華里","LIN":"1鄰","STREET":" ","SECT":" ","MAREA":"西華","LANE":" ","ALLEY":" ","HOUSE_NO":"１６之１號","E_COORD97":163839.73000000001,"N_COORD97":2566490.1699999999,"ADDRESS":"西華１６之１號","OBJECTID":112612},"geometry":{"x":163839.73000000045,"y":2566490.1699999999}},{"attributes":{"ID":112613,"DIS_CODE":0,"TOWNNAME":"官田區","LI":"渡頭里","LIN":"29鄰","STREET":" ","SECT":" ","MAREA":"三塊厝","LANE":" ","ALLEY":" ","HOUSE_NO":"１５８號","E_COORD97":182773.98999999999,"N_COORD97":2561961.2200000002,"ADDRESS":"三塊厝１５８號","OBJECTID":112613},"geometry":{"x":182773.99000000115,"y":2561961.2200000007}},{"attributes":{"ID":112614,"DIS_CODE":0,"TOWNNAME":"永康區","LI":"\u25A0行里","LIN":"28鄰","STREET":"竹林街","SECT":" ","MAREA":" ","LANE":"２８巷","ALLEY":"１３弄","HOUSE_NO":"２號","E_COORD97":172645.89999999999,"N_COORD97":2548804.0699999998,"ADDRESS":"竹林街２８巷１３弄２號","OBJECTID":112614},"geometry":{"x":172645.9000000013,"y":2548804.0700000003}},{"attributes":{"ID":112615,"DIS_CODE":0,"TOWNNAME":"永康區","LI":"龍潭里","LIN":"45鄰","STREET":"中山北路","SECT":" ","MAREA":" ","LANE":"２６４巷","ALLEY":"２８６弄","HOUSE_NO":"１７號之３","E_COORD97":174609.07000000001,"N_COORD97":2546875.1099999999,"ADDRESS":"中山北路２６４巷２８６弄１７號之３","OBJECTID":112615},"geometry":{"x":174609.07000000216,"y":2546875.1100000013}},{"attributes":{"ID":112616,"DIS_CODE":0,"TOWNNAME":"官田區","LI":"渡頭里","LIN":"29鄰","STREET":" ","SECT":" ","MAREA":"三塊厝","LANE":" ","ALLEY":" ","HOUSE_NO":"１５９號","E_COORD97":182775.84,"N_COORD97":2561952.2200000002,"ADDRESS":"三塊厝１５９號","OBJECTID":112616},"geometry":{"x":182775.84000000171,"y":2561952.2200000025}},{"attributes":{"ID":112617,"DIS_CODE":0,"TOWNNAME":"永康區","LI":"網寮里","LIN":"7鄰","STREET":"永二街","SECT":" ","MAREA":" ","LANE":"２４４巷","ALLEY":"２弄","HOUSE_NO":"２號","E_COORD97":173263.63,"N_COORD97":2546316.3399999999,"ADDRESS":"永二街２４４巷２弄２號","OBJECTID":112617},"geometry":{"x":173263.62999999989,"y":2546316.3399999999}},{"attributes":{"ID":112618,"DIS_CODE":0,"TOWNNAME":"永康區","LI":"\u25A0行里","LIN":"15鄰","STREET":"中正路","SECT":" ","MAREA":" ","LANE":"６３５巷","ALLEY":"７弄","HOUSE_NO":"２號","E_COORD97":171787.25,"N_COORD97":2548955.5299999998,"ADDRESS":"中正路６３５巷７弄２號","OBJECTID":112618},"geometry":{"x":171787.25000000093,"y":2548955.5299999993}},{"attributes":{"ID":112619,"DIS_CODE":0,"TOWNNAME":"永康區","LI":"\u25A0洲里","LIN":"1鄰","STREET":"三村一街","SECT":" ","MAREA":" ","LANE":" ","ALLEY":" ","HOUSE_NO":"１６２號","E_COORD97":171941.97,"N_COORD97":2549287.1899999999,"ADDRESS":"三村一街１６２號","OBJECTID":112619},"geometry":{"x":171941.96999999974,"y":2549287.1899999995}},{"attributes":{"ID":112620,"DIS_CODE":0,"TOWNNAME":"東區","LI":"東智里","LIN":"1鄰","STREET":"東智街","SECT":" ","MAREA":" ","LANE":" ","ALLEY":" ","HOUSE_NO":"３６號","E_COORD97":170925.98999999999,"N_COORD97":2540393.7200000002,"ADDRESS":"東智街３６號","OBJECTID":112620},"geometry":{"x":170925.99000000209,"y":2540393.7200000025}},{"attributes":{"ID":112621,"DIS_CODE":0,"TOWNNAME":"永康區","LI":"\u25A0洲里","LIN":"1鄰","STREET":"三村一街","SECT":" ","MAREA":" ","LANE":" ","ALLEY":" ","HOUSE_NO":"１６０號","E_COORD97":171948.95999999999,"N_COORD97":2549287.4900000002,"ADDRESS":"三村一街１６０號","OBJECTID":112621},"geometry":{"x":171948.95999999996,"y":2549287.4900000021}},{"attributes":{"ID":112622,"DIS_CODE":0,"TOWNNAME":"官田區","LI":"渡頭里","LIN":"29鄰","STREET":" ","SECT":" ","MAREA":"三塊厝","LANE":" ","ALLEY":" ","HOUSE_NO":"１６０號","E_COORD97":182781.82000000001,"N_COORD97":2561945.8399999999,"ADDRESS":"三塊厝１６０號","OBJECTID":112622},"geometry":{"x":182781.82000000123,"y":2561945.8399999999}},{"attributes":{"ID":112623,"DIS_CODE":0,"TOWNNAME":"永康區","LI":"\u25A0洲里","LIN":"1鄰","STREET":"三村一街","SECT":" ","MAREA":" ","LANE":" ","ALLEY":" ","HOUSE_NO":"１６６號","E_COORD97":171935.51000000001,"N_COORD97":2549289.8399999999,"ADDRESS":"三村一街１６６號","OBJECTID":112623},"geometry":{"x":171935.50999999885,"y":2549289.8399999999}},{"attributes":{"ID":112624,"DIS_CODE":0,"TOWNNAME":"官田區","LI":"渡頭里","LIN":"29鄰","STREET":" ","SECT":" ","MAREA":"三塊厝","LANE":" ","ALLEY":" ","HOUSE_NO":"１６１號","E_COORD97":182783.23999999999,"N_COORD97":2561942,"ADDRESS":"三塊厝１６１號","OBJECTID":112624},"geometry":{"x":182783.24000000022,"y":2561942}},{"attributes":{"ID":112625,"DIS_CODE":0,"TOWNNAME":"官田區","LI":"渡頭里","LIN":"29鄰","STREET":" ","SECT":" ","MAREA":"三塊厝","LANE":" ","ALLEY":" ","HOUSE_NO":"１６２號","E_COORD97":182785.60000000001,"N_COORD97":2561937.1899999999,"ADDRESS":"三塊厝１６２號","OBJECTID":112625},"geometry":{"x":182785.59999999963,"y":2561937.1900000032}},{"attributes":{"ID":112626,"DIS_CODE":0,"TOWNNAME":"官田區","LI":"渡頭里","LIN":"29鄰","STREET":" ","SECT":" ","MAREA":"三塊厝","LANE":" ","ALLEY":" ","HOUSE_NO":"１６４號","E_COORD97":182789.32999999999,"N_COORD97":2561927.5600000001,"ADDRESS":"三塊厝１６４號","OBJECTID":112626},"geometry":{"x":182789.33000000007,"y":2561927.5600000005}},{"attributes":{"ID":112627,"DIS_CODE":0,"TOWNNAME":"永康區","LI":"埔園里","LIN":"37鄰","STREET":"永大路","SECT":"三段","MAREA":" ","LANE":"３６０巷","ALLEY":"３０弄","HOUSE_NO":"３號七樓之１","E_COORD97":174205.10999999999,"N_COORD97":2548147.8300000001,"ADDRESS":"永大路三段３６０巷３０弄３號七樓之１","OBJECTID":112627},"geometry":{"x":174205.11000000034,"y":2548147.8300000001}},{"attributes":{"ID":112628,"DIS_CODE":0,"TOWNNAME":"永康區","LI":"復興里","LIN":"14鄰","STREET":"復興路","SECT":" ","MAREA":" ","LANE":"２９６巷","ALLEY":"１１弄","HOUSE_NO":"１３號","E_COORD97":172342.39999999999,"N_COORD97":2544398.77,"ADDRESS":"復興路２９６巷１１弄１３號","OBJECTID":112628},"geometry":{"x":172342.4000000013,"y":2544398.7700000014}},{"attributes":{"ID":112629,"DIS_CODE":0,"TOWNNAME":"永康區","LI":"埔園里","LIN":"37鄰","STREET":"永大路","SECT":"三段","MAREA":" ","LANE":"３６０巷","ALLEY":"３０弄","HOUSE_NO":"３號四樓之１","E_COORD97":174205.10999999999,"N_COORD97":2548147.8300000001,"ADDRESS":"永大路三段３６０巷３０弄３號四樓之１","OBJECTID":112629},"geometry":{"x":174205.11000000034,"y":2548147.8300000001}},{"attributes":{"ID":112630,"DIS_CODE":0,"TOWNNAME":"永康區","LI":"埔園里","LIN":"37鄰","STREET":"永大路","SECT":"三段","MAREA":" ","LANE":"３６０巷","ALLEY":"３０弄","HOUSE_NO":"３號七樓之３","E_COORD97":174205.20999999999,"N_COORD97":2548147.8300000001,"ADDRESS":"永大路三段３６０巷３０弄３號七樓之３","OBJECTID":112630},"geometry":{"x":174205.20999999996,"y":2548147.8300000001}},{"attributes":{"ID":112631,"DIS_CODE":0,"TOWNNAME":"東區","LI":"德光里","LIN":"1鄰","STREET":"崇德路","SECT":" ","MAREA":" ","LANE":" ","ALLEY":" ","HOUSE_NO":"１６號","E_COORD97":169755.44,"N_COORD97":2542508.3799999999,"ADDRESS":"崇德路１６號","OBJECTID":112631},"geometry":{"x":169755.44000000134,"y":2542508.3800000027}},{"attributes":{"ID":112632,"DIS_CODE":0,"TOWNNAME":"東區","LI":"大福里","LIN":"1鄰","STREET":"榮譽街","SECT":" ","MAREA":" ","LANE":"７巷","ALLEY":" ","HOUSE_NO":"１號之１","E_COORD97":169491.53,"N_COORD97":2541613.3100000001,"ADDRESS":"榮譽街７巷１號之１","OBJECTID":112632},"geometry":{"x":169491.53000000212,"y":2541613.3100000024}},{"attributes":{"ID":112633,"DIS_CODE":0,"TOWNNAME":"南區","LI":"佛壇里","LIN":" ","STREET":"興南街","SECT":" ","MAREA":" ","LANE":" ","ALLEY":" ","HOUSE_NO":"６２號","E_COORD97":165672.01000000001,"N_COORD97":2535941.3700000001,"ADDRESS":"興南街６２號","OBJECTID":112633},"geometry":{"x":165672.01000000164,"y":2535941.3700000029}},{"attributes":{"ID":112634,"DIS_CODE":0,"TOWNNAME":"南區","LI":"佛壇里","LIN":" ","STREET":"明興路","SECT":" ","MAREA":" ","LANE":" ","ALLEY":" ","HOUSE_NO":"１２７８之１號","E_COORD97":166391.19,"N_COORD97":2536138.23,"ADDRESS":"明興路１２７８之１號","OBJECTID":112634},"geometry":{"x":166391.19000000041,"y":2536138.2300000023}},{"attributes":{"ID":112635,"DIS_CODE":0,"TOWNNAME":"東區","LI":"大福里","LIN":"1鄰","STREET":"榮譽街","SECT":" ","MAREA":" ","LANE":"７巷","ALLEY":" ","HOUSE_NO":"７號之１","E_COORD97":169492.59,"N_COORD97":2541625.48,"ADDRESS":"榮譽街７巷７號之１","OBJECTID":112635},"geometry":{"x":169492.59000000078,"y":2541625.4800000023}},{"attributes":{"ID":112636,"DIS_CODE":0,"TOWNNAME":"大內區","LI":"大內里","LIN":"1鄰","STREET":" ","SECT":" ","MAREA":"內庄","LANE":" ","ALLEY":" ","HOUSE_NO":"１０號","E_COORD97":184473.85000000001,"N_COORD97":2557514.8900000001,"ADDRESS":"內庄１０號","OBJECTID":112636},"geometry":{"x":184473.84999999963,"y":2557514.8900000006}},{"attributes":{"ID":112637,"DIS_CODE":0,"TOWNNAME":"永康區","LI":"三合里","LIN":"1鄰","STREET":"南工街","SECT":" ","MAREA":" ","LANE":" ","ALLEY":" ","HOUSE_NO":"３０號","E_COORD97":172115.63,"N_COORD97":2545548.0800000001,"ADDRESS":"南工街３０號","OBJECTID":112637},"geometry":{"x":172115.62999999989,"y":2545548.0800000001}},{"attributes":{"ID":112638,"DIS_CODE":0,"TOWNNAME":"南區","LI":"佛壇里","LIN":" ","STREET":"興南街","SECT":" ","MAREA":" ","LANE":" ","ALLEY":" ","HOUSE_NO":"５３之１號","E_COORD97":166314.41,"N_COORD97":2536099.54,"ADDRESS":"興南街５３之１號","OBJECTID":112638},"geometry":{"x":166314.41000000108,"y":2536099.5399999972}},{"attributes":{"ID":112639,"DIS_CODE":0,"TOWNNAME":"南區","LI":"佛壇里","LIN":"4鄰","STREET":"興南街","SECT":" ","MAREA":" ","LANE":" ","ALLEY":" ","HOUSE_NO":"１３４號","E_COORD97":166153.37,"N_COORD97":2535906.52,"ADDRESS":"興南街１３４號","OBJECTID":112639},"geometry":{"x":166153.37000000104,"y":2535906.5199999996}},{"attributes":{"ID":112640,"DIS_CODE":0,"TOWNNAME":"南區","LI":"佛壇里","LIN":" ","STREET":"灣裡路","SECT":" ","MAREA":" ","LANE":" ","ALLEY":" ","HOUSE_NO":"５２２號","E_COORD97":166259.84,"N_COORD97":2535813.8999999999,"ADDRESS":"灣裡路５２２號","OBJECTID":112640},"geometry":{"x":166259.84000000078,"y":2535813.9000000041}},{"attributes":{"ID":112641,"DIS_CODE":0,"TOWNNAME":"新市區","LI":"大營里","LIN":"1鄰","STREET":" ","SECT":" ","MAREA":"大營","LANE":" ","ALLEY":" ","HOUSE_NO":"１１之９號","E_COORD97":179788.10000000001,"N_COORD97":2555666.5499999998,"ADDRESS":"大營１１之９號","OBJECTID":112641},"geometry":{"x":179788.09999999963,"y":2555666.5500000007}},{"attributes":{"ID":112642,"DIS_CODE":0,"TOWNNAME":"新市區","LI":"三舍里","LIN":"1鄰","STREET":" ","SECT":" ","MAREA":"三舍","LANE":" ","ALLEY":" ","HOUSE_NO":"２８之５號","E_COORD97":177816.92999999999,"N_COORD97":2554351.5499999998,"ADDRESS":"三舍２８之５號","OBJECTID":112642},"geometry":{"x":177816.93000000063,"y":2554351.5499999989}},{"attributes":{"ID":112643,"DIS_CODE":0,"TOWNNAME":"新市區","LI":"永就里","LIN":"1鄰","STREET":" ","SECT":" ","MAREA":"永就","LANE":" ","ALLEY":" ","HOUSE_NO":"３之３號","E_COORD97":178437.29000000001,"N_COORD97":2551269.5499999998,"ADDRESS":"永就３之３號","OBJECTID":112643},"geometry":{"x":178437.29000000097,"y":2551269.5500000007}},{"attributes":{"ID":112644,"DIS_CODE":0,"TOWNNAME":"新市區","LI":"永就里","LIN":"1鄰","STREET":" ","SECT":" ","MAREA":"永就","LANE":" ","ALLEY":" ","HOUSE_NO":"８之１號","E_COORD97":178421.17000000001,"N_COORD97":2551288.7999999998,"ADDRESS":"永就８之１號","OBJECTID":112644},"geometry":{"x":178421.17000000086,"y":2551288.8000000045}},{"attributes":{"ID":112645,"DIS_CODE":0,"TOWNNAME":"新市區","LI":"永就里","LIN":"1鄰","STREET":" ","SECT":" ","MAREA":"永就","LANE":" ","ALLEY":" ","HOUSE_NO":"７之１８號","E_COORD97":178451.56,"N_COORD97":2551318.5499999998,"ADDRESS":"永就７之１８號","OBJECTID":112645},"geometry":{"x":178451.56000000052,"y":2551318.5500000026}},{"attributes":{"ID":112646,"DIS_CODE":0,"TOWNNAME":"新市區","LI":"永就里","LIN":"1鄰","STREET":" ","SECT":" ","MAREA":"永就","LANE":" ","ALLEY":" ","HOUSE_NO":"１之４號","E_COORD97":178392.70000000001,"N_COORD97":2551224.7999999998,"ADDRESS":"永就１之４號","OBJECTID":112646},"geometry":{"x":178392.70000000019,"y":2551224.8000000026}},{"attributes":{"ID":112647,"DIS_CODE":0,"TOWNNAME":"新市區","LI":"永就里","LIN":"1鄰","STREET":" ","SECT":" ","MAREA":"永就","LANE":" ","ALLEY":" ","HOUSE_NO":"７之２０號","E_COORD97":178443.37,"N_COORD97":2551319.5499999998,"ADDRESS":"永就７之２０號","OBJECTID":112647},"geometry":{"x":178443.37000000104,"y":2551319.5500000007}},{"attributes":{"ID":112648,"DIS_CODE":0,"TOWNNAME":"新市區","LI":"永就里","LIN":"1鄰","STREET":" ","SECT":" ","MAREA":"永就","LANE":" ","ALLEY":" ","HOUSE_NO":"７之１０號","E_COORD97":178487.87,"N_COORD97":2551266.7999999998,"ADDRESS":"永就７之１０號","OBJECTID":112648},"geometry":{"x":178487.87000000104,"y":2551266.8000000007}},{"attributes":{"ID":112649,"DIS_CODE":0,"TOWNNAME":"新市區","LI":"永就里","LIN":"1鄰","STREET":" ","SECT":" ","MAREA":"永就","LANE":" ","ALLEY":" ","HOUSE_NO":"７之３號","E_COORD97":178493.20000000001,"N_COORD97":2551293.2999999998,"ADDRESS":"永就７之３號","OBJECTID":112649},"geometry":{"x":178493.20000000019,"y":2551293.3000000026}},{"attributes":{"ID":112650,"DIS_CODE":0,"TOWNNAME":"官田區","LI":"渡頭里","LIN":"29鄰","STREET":" ","SECT":" ","MAREA":"三塊厝","LANE":" ","ALLEY":" ","HOUSE_NO":"１６８號","E_COORD97":182800.23000000001,"N_COORD97":2562067.6299999999,"ADDRESS":"三塊厝１６８號","OBJECTID":112650},"geometry":{"x":182800.23000000045,"y":2562067.629999999}},{"attributes":{"ID":112651,"DIS_CODE":0,"TOWNNAME":"官田區","LI":"渡頭里","LIN":"29鄰","STREET":" ","SECT":" ","MAREA":"三塊厝","LANE":" ","ALLEY":" ","HOUSE_NO":"１６９號","E_COORD97":182811.62,"N_COORD97":2562070.5499999998,"ADDRESS":"三塊厝１６９號","OBJECTID":112651},"geometry":{"x":182811.62000000197,"y":2562070.5500000007}},{"attributes":{"ID":112652,"DIS_CODE":0,"TOWNNAME":"官田區","LI":"渡頭里","LIN":"29鄰","STREET":" ","SECT":" ","MAREA":"三塊厝","LANE":" ","ALLEY":" ","HOUSE_NO":"１７２號","E_COORD97":182845.92999999999,"N_COORD97":2562077.79,"ADDRESS":"三塊厝１７２號","OBJECTID":112652},"geometry":{"x":182845.9299999997,"y":2562077.7899999991}},{"attributes":{"ID":112653,"DIS_CODE":0,"TOWNNAME":"官田區","LI":"渡頭里","LIN":"29鄰","STREET":" ","SECT":" ","MAREA":"三塊厝","LANE":" ","ALLEY":" ","HOUSE_NO":"１７３號","E_COORD97":182803.51000000001,"N_COORD97":2562113.3799999999,"ADDRESS":"三塊厝１７３號","OBJECTID":112653},"geometry":{"x":182803.51000000164,"y":2562113.379999999}},{"attributes":{"ID":112654,"DIS_CODE":0,"TOWNNAME":"官田區","LI":"渡頭里","LIN":"29鄰","STREET":" ","SECT":" ","MAREA":"三塊厝","LANE":" ","ALLEY":" ","HOUSE_NO":"１７５號","E_COORD97":182889.92999999999,"N_COORD97":2562073.5600000001,"ADDRESS":"三塊厝１７５號","OBJECTID":112654},"geometry":{"x":182889.9299999997,"y":2562073.5600000005}},{"attributes":{"ID":112655,"DIS_CODE":0,"TOWNNAME":"官田區","LI":"渡頭里","LIN":"29鄰","STREET":" ","SECT":" ","MAREA":"三塊厝","LANE":" ","ALLEY":" ","HOUSE_NO":"１７７號之１１","E_COORD97":182923.67999999999,"N_COORD97":2561707.0600000001,"ADDRESS":"三塊厝１７７號之１１","OBJECTID":112655},"geometry":{"x":182923.6799999997,"y":2561707.0600000005}},{"attributes":{"ID":112656,"DIS_CODE":0,"TOWNNAME":"新市區","LI":"大社里","LIN":"29鄰","STREET":" ","SECT":" ","MAREA":"大社","LANE":" ","ALLEY":" ","HOUSE_NO":"９６０號","E_COORD97":180163.98999999999,"N_COORD97":2554148.75,"ADDRESS":"大社９６０號","OBJECTID":112656},"geometry":{"x":180163.99000000022,"y":2554148.75}},{"attributes":{"ID":112657,"DIS_CODE":0,"TOWNNAME":"新市區","LI":"大社里","LIN":"29鄰","STREET":" ","SECT":" ","MAREA":"大社","LANE":" ","ALLEY":" ","HOUSE_NO":"９７１號","E_COORD97":180179.76000000001,"N_COORD97":2554016.5,"ADDRESS":"大社９７１號","OBJECTID":112657},"geometry":{"x":180179.76000000071,"y":2554016.5000000019}},{"attributes":{"ID":112658,"DIS_CODE":0,"TOWNNAME":"新市區","LI":"大社里","LIN":"29鄰","STREET":" ","SECT":" ","MAREA":"大社","LANE":" ","ALLEY":" ","HOUSE_NO":"９７６之２號","E_COORD97":180208.62,"N_COORD97":2553981.7999999998,"ADDRESS":"大社９７６之２號","OBJECTID":112658},"geometry":{"x":180208.62000000011,"y":2553981.8000000026}},{"attributes":{"ID":112659,"DIS_CODE":0,"TOWNNAME":"新市區","LI":"大社里","LIN":"29鄰","STREET":" ","SECT":" ","MAREA":"大社","LANE":" ","ALLEY":" ","HOUSE_NO":"９７４號","E_COORD97":180199.06,"N_COORD97":2554000.75,"ADDRESS":"大社９７４號","OBJECTID":112659},"geometry":{"x":180199.05999999866,"y":2554000.7500000019}},{"attributes":{"ID":112660,"DIS_CODE":0,"TOWNNAME":"學甲區","LI":"光華里","LIN":"29鄰","STREET":" ","SECT":" ","MAREA":"筏子頭","LANE":" ","ALLEY":" ","HOUSE_NO":"１４號之４０","E_COORD97":163487.26999999999,"N_COORD97":2574739.6299999999,"ADDRESS":"筏子頭１４號之４０","OBJECTID":112660},"geometry":{"x":163487.27000000048,"y":2574739.6300000008}},{"attributes":{"ID":112661,"DIS_CODE":0,"TOWNNAME":"學甲區","LI":"光華里","LIN":"29鄰","STREET":" ","SECT":" ","MAREA":"筏子頭","LANE":" ","ALLEY":" ","HOUSE_NO":"１４號之４２","E_COORD97":163490.04000000001,"N_COORD97":2574655.8900000001,"ADDRESS":"筏子頭１４號之４２","OBJECTID":112661},"geometry":{"x":163490.04000000004,"y":2574655.8900000025}},{"attributes":{"ID":112662,"DIS_CODE":0,"TOWNNAME":"學甲區","LI":"光華里","LIN":"29鄰","STREET":" ","SECT":" ","MAREA":"筏子頭","LANE":" ","ALLEY":" ","HOUSE_NO":"１４號之４６","E_COORD97":164579.67999999999,"N_COORD97":2574568.5499999998,"ADDRESS":"筏子頭１４號之４６","OBJECTID":112662},"geometry":{"x":164579.68000000063,"y":2574568.5500000045}},{"attributes":{"ID":112663,"DIS_CODE":0,"TOWNNAME":"學甲區","LI":"光華里","LIN":"29鄰","STREET":" ","SECT":" ","MAREA":"筏子頭","LANE":" ","ALLEY":" ","HOUSE_NO":"１４號之５０","E_COORD97":163488.98000000001,"N_COORD97":2574415.6000000001,"ADDRESS":"筏子頭１４號之５０","OBJECTID":112663},"geometry":{"x":163488.98000000045,"y":2574415.6000000015}},{"attributes":{"ID":112664,"DIS_CODE":0,"TOWNNAME":"學甲區","LI":"光華里","LIN":"29鄰","STREET":" ","SECT":" ","MAREA":"筏子頭","LANE":" ","ALLEY":" ","HOUSE_NO":"１５號之１","E_COORD97":164287.20999999999,"N_COORD97":2574787,"ADDRESS":"筏子頭１５號之１","OBJECTID":112664},"geometry":{"x":164287.20999999996,"y":2574787}},{"attributes":{"ID":112665,"DIS_CODE":0,"TOWNNAME":"學甲區","LI":"光華里","LIN":"29鄰","STREET":" ","SECT":" ","MAREA":"筏子頭","LANE":" ","ALLEY":" ","HOUSE_NO":"１５號","E_COORD97":164267.75,"N_COORD97":2574793.7200000002,"ADDRESS":"筏子頭１５號","OBJECTID":112665},"geometry":{"x":164267.75,"y":2574793.7200000007}},{"attributes":{"ID":112666,"DIS_CODE":0,"TOWNNAME":"學甲區","LI":"光華里","LIN":"29鄰","STREET":" ","SECT":" ","MAREA":"筏子頭","LANE":" ","ALLEY":" ","HOUSE_NO":"１６號之１","E_COORD97":164291.10999999999,"N_COORD97":2574958.0899999999,"ADDRESS":"筏子頭１６號之１","OBJECTID":112666},"geometry":{"x":164291.11000000034,"y":2574958.0900000017}},{"attributes":{"ID":112667,"DIS_CODE":0,"TOWNNAME":"學甲區","LI":"光華里","LIN":"29鄰","STREET":" ","SECT":" ","MAREA":"筏子頭","LANE":" ","ALLEY":" ","HOUSE_NO":"１７號","E_COORD97":164169.73000000001,"N_COORD97":2574996.5499999998,"ADDRESS":"筏子頭１７號","OBJECTID":112667},"geometry":{"x":164169.73000000138,"y":2574996.5500000026}},{"attributes":{"ID":112668,"DIS_CODE":0,"TOWNNAME":"學甲區","LI":"光華里","LIN":"29鄰","STREET":" ","SECT":" ","MAREA":"筏子頭","LANE":" ","ALLEY":" ","HOUSE_NO":"１８號之１","E_COORD97":164132.09,"N_COORD97":2575009.46,"ADDRESS":"筏子頭１８號之１","OBJECTID":112668},"geometry":{"x":164132.08999999892,"y":2575009.4600000009}},{"attributes":{"ID":112669,"DIS_CODE":0,"TOWNNAME":"學甲區","LI":"光華里","LIN":"29鄰","STREET":" ","SECT":" ","MAREA":"筏子頭","LANE":" ","ALLEY":" ","HOUSE_NO":"１８號","E_COORD97":164159.34,"N_COORD97":2574988.3700000001,"ADDRESS":"筏子頭１８號","OBJECTID":112669},"geometry":{"x":164159.34000000171,"y":2574988.3700000029}},{"attributes":{"ID":112670,"DIS_CODE":0,"TOWNNAME":"學甲區","LI":"光華里","LIN":"29鄰","STREET":" ","SECT":" ","MAREA":"筏子頭","LANE":" ","ALLEY":" ","HOUSE_NO":"１９號之１２","E_COORD97":163506.07999999999,"N_COORD97":2575294.4900000002,"ADDRESS":"筏子頭１９號之１２","OBJECTID":112670},"geometry":{"x":163506.08000000101,"y":2575294.4900000021}},{"attributes":{"ID":112671,"DIS_CODE":0,"TOWNNAME":"學甲區","LI":"光華里","LIN":"29鄰","STREET":" ","SECT":" ","MAREA":"筏子頭","LANE":" ","ALLEY":" ","HOUSE_NO":"１９號之１","E_COORD97":164066.38,"N_COORD97":2575030.3100000001,"ADDRESS":"筏子頭１９號之１","OBJECTID":112671},"geometry":{"x":164066.38000000082,"y":2575030.3100000005}},{"attributes":{"ID":112672,"DIS_CODE":0,"TOWNNAME":"學甲區","LI":"光華里","LIN":"29鄰","STREET":" ","SECT":" ","MAREA":"筏子頭","LANE":" ","ALLEY":" ","HOUSE_NO":"１９號之６","E_COORD97":163780.95000000001,"N_COORD97":2575097.5899999999,"ADDRESS":"筏子頭１９號之６","OBJECTID":112672},"geometry":{"x":163780.95000000205,"y":2575097.5900000017}},{"attributes":{"ID":112673,"DIS_CODE":0,"TOWNNAME":"學甲區","LI":"光華里","LIN":"29鄰","STREET":" ","SECT":" ","MAREA":"筏子頭","LANE":" ","ALLEY":" ","HOUSE_NO":"１９號","E_COORD97":163967.07000000001,"N_COORD97":2575093.8500000001,"ADDRESS":"筏子頭１９號","OBJECTID":112673},"geometry":{"x":163967.07000000123,"y":2575093.8499999996}},{"attributes":{"ID":112674,"DIS_CODE":0,"TOWNNAME":"永康區","LI":"勝利里","LIN":"37鄰","STREET":"勝利街","SECT":" ","MAREA":" ","LANE":"１９７巷","ALLEY":"９弄","HOUSE_NO":"２號二樓","E_COORD97":171330.42999999999,"N_COORD97":2545099.7599999998,"ADDRESS":"勝利街１９７巷９弄２號二樓","OBJECTID":112674},"geometry":{"x":171330.4299999997,"y":2545099.7599999998}},{"attributes":{"ID":112675,"DIS_CODE":0,"TOWNNAME":"永康區","LI":"復興里","LIN":"14鄰","STREET":"復興路","SECT":" ","MAREA":" ","LANE":"２９６巷","ALLEY":"１１弄","HOUSE_NO":"１２號","E_COORD97":172347.01000000001,"N_COORD97":2544397.1200000001,"ADDRESS":"復興路２９６巷１１弄１２號","OBJECTID":112675},"geometry":{"x":172347.00999999978,"y":2544397.120000001}},{"attributes":{"ID":112676,"DIS_CODE":0,"TOWNNAME":"永康區","LI":"龍潭里","LIN":"23鄰","STREET":"自強路","SECT":" ","MAREA":" ","LANE":"７５０巷","ALLEY":"６８弄","HOUSE_NO":"１６號","E_COORD97":174554.82000000001,"N_COORD97":2548407.04,"ADDRESS":"自強路７５０巷６８弄１６號","OBJECTID":112676},"geometry":{"x":174554.82000000216,"y":2548407.0400000028}},{"attributes":{"ID":112677,"DIS_CODE":0,"TOWNNAME":"學甲區","LI":"光華里","LIN":"29鄰","STREET":" ","SECT":" ","MAREA":"筏子頭","LANE":" ","ALLEY":" ","HOUSE_NO":"２０號","E_COORD97":163790.92999999999,"N_COORD97":2575098.1600000001,"ADDRESS":"筏子頭２０號","OBJECTID":112677},"geometry":{"x":163790.93000000063,"y":2575098.1600000001}},{"attributes":{"ID":112678,"DIS_CODE":0,"TOWNNAME":"學甲區","LI":"光華里","LIN":"29鄰","STREET":" ","SECT":" ","MAREA":"筏子頭","LANE":" ","ALLEY":" ","HOUSE_NO":"２１號之３","E_COORD97":163357.70999999999,"N_COORD97":2575343.8999999999,"ADDRESS":"筏子頭２１號之３","OBJECTID":112678},"geometry":{"x":163357.70999999996,"y":2575343.9000000022}},{"attributes":{"ID":112679,"DIS_CODE":0,"TOWNNAME":"永康區","LI":"\u25A0行里","LIN":"10鄰","STREET":"中正路","SECT":" ","MAREA":" ","LANE":"４９５巷","ALLEY":"３弄","HOUSE_NO":"４號","E_COORD97":172203.42999999999,"N_COORD97":2548592.6499999999,"ADDRESS":"中正路４９５巷３弄４號","OBJECTID":112679},"geometry":{"x":172203.4299999997,"y":2548592.6500000004}},{"attributes":{"ID":112680,"DIS_CODE":0,"TOWNNAME":"永康區","LI":"復興里","LIN":"27鄰","STREET":"復興路","SECT":" ","MAREA":" ","LANE":"２７７巷","ALLEY":"２２弄","HOUSE_NO":"４號","E_COORD97":172313.38,"N_COORD97":2544212.2799999998,"ADDRESS":"復興路２７７巷２２弄４號","OBJECTID":112680},"geometry":{"x":172313.38000000082,"y":2544212.2800000012}},{"attributes":{"ID":112681,"DIS_CODE":0,"TOWNNAME":"永康區","LI":"龍潭里","LIN":"23鄰","STREET":"自強路","SECT":" ","MAREA":" ","LANE":"７５０巷","ALLEY":"６８弄","HOUSE_NO":"５號","E_COORD97":174573.66,"N_COORD97":2548443.96,"ADDRESS":"自強路７５０巷６８弄５號","OBJECTID":112681},"geometry":{"x":174573.66000000015,"y":2548443.9600000028}},{"attributes":{"ID":112682,"DIS_CODE":0,"TOWNNAME":"學甲區","LI":"光華里","LIN":"29鄰","STREET":" ","SECT":" ","MAREA":"筏子頭","LANE":" ","ALLEY":" ","HOUSE_NO":"２１號之６","E_COORD97":163179.88,"N_COORD97":2575369.2799999998,"ADDRESS":"筏子頭２１號之６","OBJECTID":112682},"geometry":{"x":163179.88000000082,"y":2575369.2800000031}},{"attributes":{"ID":112683,"DIS_CODE":0,"TOWNNAME":"學甲區","LI":"光華里","LIN":"29鄰","STREET":" ","SECT":" ","MAREA":"筏子頭","LANE":" ","ALLEY":" ","HOUSE_NO":"２１號","E_COORD97":163297.57000000001,"N_COORD97":2575133.8199999998,"ADDRESS":"筏子頭２１號","OBJECTID":112683},"geometry":{"x":163297.57000000123,"y":2575133.8200000022}},{"attributes":{"ID":112684,"DIS_CODE":0,"TOWNNAME":"學甲區","LI":"三慶里","LIN":"29鄰","STREET":" ","SECT":" ","MAREA":"新芳","LANE":" ","ALLEY":" ","HOUSE_NO":"４６號","E_COORD97":167297,"N_COORD97":2575220.0099999998,"ADDRESS":"新芳４６號","OBJECTID":112684},"geometry":{"x":167297.00000000093,"y":2575220.0100000016}},{"attributes":{"ID":112685,"DIS_CODE":0,"TOWNNAME":"佳里區","LI":"三協里","LIN":"1鄰","STREET":" ","SECT":" ","MAREA":"菜寮","LANE":" ","ALLEY":" ","HOUSE_NO":"８號之３","E_COORD97":167905.64999999999,"N_COORD97":2563804.1899999999,"ADDRESS":"菜寮８號之３","OBJECTID":112685},"geometry":{"x":167905.65000000037,"y":2563804.1899999995}},{"attributes":{"ID":112686,"DIS_CODE":0,"TOWNNAME":"佳里區","LI":"三協里","LIN":"1鄰","STREET":" ","SECT":" ","MAREA":"菜寮","LANE":" ","ALLEY":" ","HOUSE_NO":"８號之４","E_COORD97":167890.54999999999,"N_COORD97":2563799.8199999998,"ADDRESS":"菜寮８號之４","OBJECTID":112686},"geometry":{"x":167890.54999999888,"y":2563799.8200000022}},{"attributes":{"ID":112687,"DIS_CODE":0,"TOWNNAME":"佳里區","LI":"三協里","LIN":"1鄰","STREET":" ","SECT":" ","MAREA":"菜寮","LANE":" ","ALLEY":" ","HOUSE_NO":"８號之６","E_COORD97":167826.26000000001,"N_COORD97":2563788.1499999999,"ADDRESS":"菜寮８號之６","OBJECTID":112687},"geometry":{"x":167826.25999999978,"y":2563788.1500000004}},{"attributes":{"ID":112688,"DIS_CODE":0,"TOWNNAME":"學甲區","LI":"三慶里","LIN":"29鄰","STREET":" ","SECT":" ","MAREA":"新芳","LANE":" ","ALLEY":" ","HOUSE_NO":"４５號之３","E_COORD97":167321.23000000001,"N_COORD97":2575210.98,"ADDRESS":"新芳４５號之３","OBJECTID":112688},"geometry":{"x":167321.23000000138,"y":2575210.9800000023}},{"attributes":{"ID":112689,"DIS_CODE":0,"TOWNNAME":"學甲區","LI":"三慶里","LIN":"29鄰","STREET":" ","SECT":" ","MAREA":"新芳","LANE":" ","ALLEY":" ","HOUSE_NO":"４５號","E_COORD97":167335.39000000001,"N_COORD97":2575212.0099999998,"ADDRESS":"新芳４５號","OBJECTID":112689},"geometry":{"x":167335.38999999966,"y":2575212.0100000035}},{"attributes":{"ID":112690,"DIS_CODE":0,"TOWNNAME":"學甲區","LI":"三慶里","LIN":"29鄰","STREET":" ","SECT":" ","MAREA":"新芳","LANE":" ","ALLEY":" ","HOUSE_NO":"４６號之１","E_COORD97":167308.44,"N_COORD97":2575217.0299999998,"ADDRESS":"新芳４６號之１","OBJECTID":112690},"geometry":{"x":167308.44000000041,"y":2575217.0299999993}},{"attributes":{"ID":112691,"DIS_CODE":0,"TOWNNAME":"學甲區","LI":"三慶里","LIN":"29鄰","STREET":" ","SECT":" ","MAREA":"新芳","LANE":" ","ALLEY":" ","HOUSE_NO":"４７號","E_COORD97":167284.76000000001,"N_COORD97":2575245.8399999999,"ADDRESS":"新芳４７號","OBJECTID":112691},"geometry":{"x":167284.76000000071,"y":2575245.8399999999}},{"attributes":{"ID":112692,"DIS_CODE":0,"TOWNNAME":"永康區","LI":"龍潭里","LIN":"38鄰","STREET":"永明街","SECT":" ","MAREA":" ","LANE":"１７９巷","ALLEY":"１６弄","HOUSE_NO":"３號","E_COORD97":174463.72,"N_COORD97":2547311.54,"ADDRESS":"永明街１７９巷１６弄３號","OBJECTID":112692},"geometry":{"x":174463.72000000067,"y":2547311.5399999972}},{"attributes":{"ID":112693,"DIS_CODE":0,"TOWNNAME":"永康區","LI":"\u25A0行里","LIN":"10鄰","STREET":"中正路","SECT":" ","MAREA":" ","LANE":"４９５巷","ALLEY":"１弄","HOUSE_NO":"８號","E_COORD97":172231.73000000001,"N_COORD97":2548601.7000000002,"ADDRESS":"中正路４９５巷１弄８號","OBJECTID":112693},"geometry":{"x":172231.73000000138,"y":2548601.6999999993}},{"attributes":{"ID":112694,"DIS_CODE":0,"TOWNNAME":"永康區","LI":"北灣里","LIN":"37鄰","STREET":"大同街","SECT":" ","MAREA":" ","LANE":"３８０巷","ALLEY":"１１弄","HOUSE_NO":"２５號","E_COORD97":174813.82999999999,"N_COORD97":2546179.4100000001,"ADDRESS":"大同街３８０巷１１弄２５號","OBJECTID":112694},"geometry":{"x":174813.82999999914,"y":2546179.410000002}},{"attributes":{"ID":112695,"DIS_CODE":0,"TOWNNAME":"學甲區","LI":"三慶里","LIN":"29鄰","STREET":" ","SECT":" ","MAREA":"新芳","LANE":" ","ALLEY":" ","HOUSE_NO":"４９號","E_COORD97":167257.16,"N_COORD97":2575232.5899999999,"ADDRESS":"新芳４９號","OBJECTID":112695},"geometry":{"x":167257.16000000015,"y":2575232.5900000017}},{"attributes":{"ID":112696,"DIS_CODE":0,"TOWNNAME":"學甲區","LI":"三慶里","LIN":"29鄰","STREET":" ","SECT":" ","MAREA":"新芳","LANE":" ","ALLEY":" ","HOUSE_NO":"５０號","E_COORD97":167279.28,"N_COORD97":2575224.1200000001,"ADDRESS":"新芳５０號","OBJECTID":112696},"geometry":{"x":167279.28000000212,"y":2575224.1200000029}},{"attributes":{"ID":112697,"DIS_CODE":0,"TOWNNAME":"學甲區","LI":"三慶里","LIN":"29鄰","STREET":" ","SECT":" ","MAREA":"新芳","LANE":" ","ALLEY":" ","HOUSE_NO":"５１號","E_COORD97":167272.95999999999,"N_COORD97":2575204.9500000002,"ADDRESS":"新芳５１號","OBJECTID":112697},"geometry":{"x":167272.96000000089,"y":2575204.9499999974}},{"attributes":{"ID":112698,"DIS_CODE":0,"TOWNNAME":"學甲區","LI":"三慶里","LIN":"29鄰","STREET":" ","SECT":" ","MAREA":"新芳","LANE":" ","ALLEY":" ","HOUSE_NO":"５３號之１２","E_COORD97":166766.5,"N_COORD97":2575009.4900000002,"ADDRESS":"新芳５３號之１２","OBJECTID":112698},"geometry":{"x":166766.5,"y":2575009.4900000039}},{"attributes":{"ID":112699,"DIS_CODE":0,"TOWNNAME":"學甲區","LI":"三慶里","LIN":"29鄰","STREET":" ","SECT":" ","MAREA":"新芳","LANE":" ","ALLEY":" ","HOUSE_NO":"５３號之１","E_COORD97":167238.89999999999,"N_COORD97":2575178.2200000002,"ADDRESS":"新芳５３號之１","OBJECTID":112699},"geometry":{"x":167238.90000000037,"y":2575178.2200000025}},{"attributes":{"ID":112700,"DIS_CODE":0,"TOWNNAME":"學甲區","LI":"三慶里","LIN":"29鄰","STREET":" ","SECT":" ","MAREA":"新芳","LANE":" ","ALLEY":" ","HOUSE_NO":"５３號之３","E_COORD97":167142.54000000001,"N_COORD97":2575091.1099999999,"ADDRESS":"新芳５３號之３","OBJECTID":112700},"geometry":{"x":167142.54000000097,"y":2575091.1099999994}},{"attributes":{"ID":112701,"DIS_CODE":0,"TOWNNAME":"永康區","LI":"北灣里","LIN":"37鄰","STREET":"大同街","SECT":" ","MAREA":" ","LANE":"３６９巷","ALLEY":"５弄","HOUSE_NO":"１５號","E_COORD97":174667.32000000001,"N_COORD97":2546117.25,"ADDRESS":"大同街３６９巷５弄１５號","OBJECTID":112701},"geometry":{"x":174667.32000000123,"y":2546117.25}},{"attributes":{"ID":112702,"DIS_CODE":0,"TOWNNAME":"永康區","LI":"埔園里","LIN":"37鄰","STREET":"永大路","SECT":"三段","MAREA":" ","LANE":"３６０巷","ALLEY":"３０弄","HOUSE_NO":"１號","E_COORD97":174202.79999999999,"N_COORD97":2548163.8100000001,"ADDRESS":"永大路三段３６０巷３０弄１號","OBJECTID":112702},"geometry":{"x":174202.79999999981,"y":2548163.8100000024}},{"attributes":{"ID":112703,"DIS_CODE":0,"TOWNNAME":"永康區","LI":"埔園里","LIN":"37鄰","STREET":"龍國街","SECT":" ","MAREA":" ","LANE":"１３１巷","ALLEY":"１１弄","HOUSE_NO":"５號","E_COORD97":174309.23999999999,"N_COORD97":2548156.54,"ADDRESS":"龍國街１３１巷１１弄５號","OBJECTID":112703},"geometry":{"x":174309.24000000022,"y":2548156.540000001}},{"attributes":{"ID":112704,"DIS_CODE":0,"TOWNNAME":"永康區","LI":"埔園里","LIN":"37鄰","STREET":"龍國街","SECT":" ","MAREA":" ","LANE":"１３１巷","ALLEY":"５弄","HOUSE_NO":"８號","E_COORD97":174304.82000000001,"N_COORD97":2548127.8300000001,"ADDRESS":"龍國街１３１巷５弄８號","OBJECTID":112704},"geometry":{"x":174304.8200000003,"y":2548127.8300000038}},{"attributes":{"ID":112705,"DIS_CODE":0,"TOWNNAME":"永康區","LI":"埔園里","LIN":"37鄰","STREET":"龍國街","SECT":" ","MAREA":" ","LANE":"１３１巷","ALLEY":"１２弄","HOUSE_NO":"１０號","E_COORD97":174342.79000000001,"N_COORD97":2548152.4100000001,"ADDRESS":"龍國街１３１巷１２弄１０號","OBJECTID":112705},"geometry":{"x":174342.78999999911,"y":2548152.410000002}},{"attributes":{"ID":112706,"DIS_CODE":0,"TOWNNAME":"永康區","LI":"龍潭里","LIN":"23鄰","STREET":"自強路","SECT":" ","MAREA":" ","LANE":"７５０巷","ALLEY":"１８弄","HOUSE_NO":"３８之８號","E_COORD97":174429.06,"N_COORD97":2548391.29,"ADDRESS":"自強路７５０巷１８弄３８之８號","OBJECTID":112706},"geometry":{"x":174429.06000000052,"y":2548391.2899999972}},{"attributes":{"ID":112707,"DIS_CODE":0,"TOWNNAME":"永康區","LI":"龍潭里","LIN":"39鄰","STREET":"永明街","SECT":" ","MAREA":" ","LANE":"１７９巷","ALLEY":"１２弄","HOUSE_NO":"１２號","E_COORD97":174484.17000000001,"N_COORD97":2547233.5600000001,"ADDRESS":"永明街１７９巷１２弄１２號","OBJECTID":112707},"geometry":{"x":174484.16999999899,"y":2547233.5600000005}},{"attributes":{"ID":112708,"DIS_CODE":0,"TOWNNAME":"永康區","LI":"\u25A0行里","LIN":"10鄰","STREET":"中正路","SECT":" ","MAREA":" ","LANE":"４９５巷","ALLEY":"２弄","HOUSE_NO":"３號","E_COORD97":172195.35000000001,"N_COORD97":2548615.1400000001,"ADDRESS":"中正路４９５巷２弄３號","OBJECTID":112708},"geometry":{"x":172195.34999999963,"y":2548615.1400000025}},{"attributes":{"ID":112709,"DIS_CODE":0,"TOWNNAME":"永康區","LI":"龍潭里","LIN":"45鄰","STREET":"中山北路","SECT":" ","MAREA":" ","LANE":"２６４巷","ALLEY":"２８６弄","HOUSE_NO":"１７號之４","E_COORD97":174608.98999999999,"N_COORD97":2546875.1099999999,"ADDRESS":"中山北路２６４巷２８６弄１７號之４","OBJECTID":112709},"geometry":{"x":174608.99000000022,"y":2546875.1100000013}},{"attributes":{"ID":112710,"DIS_CODE":0,"TOWNNAME":"學甲區","LI":"三慶里","LIN":"29鄰","STREET":" ","SECT":" ","MAREA":"新芳","LANE":" ","ALLEY":" ","HOUSE_NO":"５３號之４","E_COORD97":167157.66,"N_COORD97":2575063.6600000001,"ADDRESS":"新芳５３號之４","OBJECTID":112710},"geometry":{"x":167157.66000000015,"y":2575063.660000002}},{"attributes":{"ID":112711,"DIS_CODE":0,"TOWNNAME":"學甲區","LI":"三慶里","LIN":"29鄰","STREET":" ","SECT":" ","MAREA":"新芳","LANE":" ","ALLEY":" ","HOUSE_NO":"５３號之８","E_COORD97":167049.47,"N_COORD97":2575007.6299999999,"ADDRESS":"新芳５３號之８","OBJECTID":112711},"geometry":{"x":167049.47000000067,"y":2575007.6300000008}},{"attributes":{"ID":112712,"DIS_CODE":0,"TOWNNAME":"學甲區","LI":"三慶里","LIN":"29鄰","STREET":" ","SECT":" ","MAREA":"新芳","LANE":" ","ALLEY":" ","HOUSE_NO":"５４號之２","E_COORD97":167310.23999999999,"N_COORD97":2575133.2200000002,"ADDRESS":"新芳５４號之２","OBJECTID":112712},"geometry":{"x":167310.24000000115,"y":2575133.2200000007}},{"attributes":{"ID":112713,"DIS_CODE":0,"TOWNNAME":"永康區","LI":"\u25A0行里","LIN":"10鄰","STREET":"中正路","SECT":" ","MAREA":" ","LANE":"４９５巷","ALLEY":"２弄","HOUSE_NO":"１１號","E_COORD97":172185.56,"N_COORD97":2548629.3900000001,"ADDRESS":"中正路４９５巷２弄１１號","OBJECTID":112713},"geometry":{"x":172185.55999999959,"y":2548629.3900000006}},{"attributes":{"ID":112714,"DIS_CODE":0,"TOWNNAME":"永康區","LI":"成功里","LIN":"37鄰","STREET":"中華路","SECT":" ","MAREA":" ","LANE":"１５４巷","ALLEY":"８７弄","HOUSE_NO":"２１號","E_COORD97":171805.48000000001,"N_COORD97":2544925.4900000002,"ADDRESS":"中華路１５４巷８７弄２１號","OBJECTID":112714},"geometry":{"x":171805.48000000045,"y":2544925.4900000002}},{"attributes":{"ID":112715,"DIS_CODE":0,"TOWNNAME":"永康區","LI":"成功里","LIN":"37鄰","STREET":"中華路","SECT":" ","MAREA":" ","LANE":"１５４巷","ALLEY":"８７弄","HOUSE_NO":"１８號","E_COORD97":171818.54000000001,"N_COORD97":2544922.7400000002,"ADDRESS":"中華路１５４巷８７弄１８號","OBJECTID":112715},"geometry":{"x":171818.54000000004,"y":2544922.7400000021}},{"attributes":{"ID":112716,"DIS_CODE":0,"TOWNNAME":"永康區","LI":"龍潭里","LIN":"26鄰","STREET":"中山北路","SECT":" ","MAREA":" ","LANE":"４６１巷","ALLEY":"８弄","HOUSE_NO":"２３號","E_COORD97":175146.48999999999,"N_COORD97":2547822.7400000002,"ADDRESS":"中山北路４６１巷８弄２３號","OBJECTID":112716},"geometry":{"x":175146.49000000022,"y":2547822.7400000002}},{"attributes":{"ID":112717,"DIS_CODE":0,"TOWNNAME":"仁德區","LI":"仁義里","LIN":"37鄰","STREET":"中正路","SECT":"二段","MAREA":" ","LANE":"７４４巷","ALLEY":"６弄","HOUSE_NO":"１號","E_COORD97":173489.13,"N_COORD97":2540067.77,"ADDRESS":"中正路二段７４４巷６弄１號","OBJECTID":112717},"geometry":{"x":173489.12999999989,"y":2540067.7699999996}},{"attributes":{"ID":112718,"DIS_CODE":0,"TOWNNAME":"佳里區","LI":"三協里","LIN":"1鄰","STREET":" ","SECT":" ","MAREA":"菜寮","LANE":" ","ALLEY":" ","HOUSE_NO":"１號之２９","E_COORD97":167745.28,"N_COORD97":2563588.6400000001,"ADDRESS":"菜寮１號之２９","OBJECTID":112718},"geometry":{"x":167745.28000000026,"y":2563588.6400000006}},{"attributes":{"ID":112719,"DIS_CODE":0,"TOWNNAME":"佳里區","LI":"三協里","LIN":"1鄰","STREET":" ","SECT":" ","MAREA":"菜寮","LANE":" ","ALLEY":" ","HOUSE_NO":"２號之１０","E_COORD97":167803.16,"N_COORD97":2563629.8199999998,"ADDRESS":"菜寮２號之１０","OBJECTID":112719},"geometry":{"x":167803.16000000015,"y":2563629.8200000022}},{"attributes":{"ID":112720,"DIS_CODE":0,"TOWNNAME":"佳里區","LI":"三協里","LIN":"1鄰","STREET":" ","SECT":" ","MAREA":"菜寮","LANE":" ","ALLEY":" ","HOUSE_NO":"２號之１１","E_COORD97":167767.63,"N_COORD97":2563631.3199999998,"ADDRESS":"菜寮２號之１１","OBJECTID":112720},"geometry":{"x":167767.62999999989,"y":2563631.3200000003}},{"attributes":{"ID":112721,"DIS_CODE":0,"TOWNNAME":"佳里區","LI":"三協里","LIN":"1鄰","STREET":" ","SECT":" ","MAREA":"菜寮","LANE":" ","ALLEY":" ","HOUSE_NO":"２號之１２","E_COORD97":167766.51999999999,"N_COORD97":2563635.6699999999,"ADDRESS":"菜寮２號之１２","OBJECTID":112721},"geometry":{"x":167766.51999999955,"y":2563635.6699999999}},{"attributes":{"ID":112722,"DIS_CODE":0,"TOWNNAME":"佳里區","LI":"三協里","LIN":"1鄰","STREET":" ","SECT":" ","MAREA":"菜寮","LANE":" ","ALLEY":" ","HOUSE_NO":"２號之１３","E_COORD97":167790.81,"N_COORD97":2563636.1800000002,"ADDRESS":"菜寮２號之１３","OBJECTID":112722},"geometry":{"x":167790.81000000052,"y":2563636.1800000034}},{"attributes":{"ID":112723,"DIS_CODE":0,"TOWNNAME":"佳里區","LI":"三協里","LIN":"1鄰","STREET":" ","SECT":" ","MAREA":"菜寮","LANE":" ","ALLEY":" ","HOUSE_NO":"２號之１５","E_COORD97":167789.70000000001,"N_COORD97":2563640.25,"ADDRESS":"菜寮２號之１５","OBJECTID":112723},"geometry":{"x":167789.70000000019,"y":2563640.2500000019}},{"attributes":{"ID":112724,"DIS_CODE":0,"TOWNNAME":"學甲區","LI":"三慶里","LIN":"29鄰","STREET":" ","SECT":" ","MAREA":"新芳","LANE":" ","ALLEY":" ","HOUSE_NO":"５４號之５","E_COORD97":167303.82999999999,"N_COORD97":2575117.4900000002,"ADDRESS":"新芳５４號之５","OBJECTID":112724},"geometry":{"x":167303.83000000007,"y":2575117.4899999984}},{"attributes":{"ID":112725,"DIS_CODE":0,"TOWNNAME":"佳里區","LI":"安西里","LIN":"51鄰","STREET":" ","SECT":" ","MAREA":"安西","LANE":" ","ALLEY":" ","HOUSE_NO":"１３０號之２８","E_COORD97":164219.28,"N_COORD97":2562010,"ADDRESS":"安西１３０號之２８","OBJECTID":112725},"geometry":{"x":164219.28000000026,"y":2562009.9999999981}},{"attributes":{"ID":112726,"DIS_CODE":0,"TOWNNAME":"佳里區","LI":"安西里","LIN":"51鄰","STREET":" ","SECT":" ","MAREA":"安西","LANE":" ","ALLEY":" ","HOUSE_NO":"１３０號之２９","E_COORD97":164212.25,"N_COORD97":2562010.79,"ADDRESS":"安西１３０號之２９","OBJECTID":112726},"geometry":{"x":164212.25,"y":2562010.7900000028}},{"attributes":{"ID":112727,"DIS_CODE":0,"TOWNNAME":"佳里區","LI":"安西里","LIN":"51鄰","STREET":" ","SECT":" ","MAREA":"安西","LANE":" ","ALLEY":" ","HOUSE_NO":"１３０號之３０","E_COORD97":164196.56,"N_COORD97":2562010.3700000001,"ADDRESS":"安西１３０號之３０","OBJECTID":112727},"geometry":{"x":164196.56000000145,"y":2562010.3700000029}},{"attributes":{"ID":112728,"DIS_CODE":0,"TOWNNAME":"佳里區","LI":"安西里","LIN":"51鄰","STREET":" ","SECT":" ","MAREA":"安西","LANE":" ","ALLEY":" ","HOUSE_NO":"１３０號之３１","E_COORD97":164190.20999999999,"N_COORD97":2562010.1600000001,"ADDRESS":"安西１３０號之３１","OBJECTID":112728},"geometry":{"x":164190.20999999996,"y":2562010.160000002}},{"attributes":{"ID":112729,"DIS_CODE":0,"TOWNNAME":"佳里區","LI":"安西里","LIN":"51鄰","STREET":" ","SECT":" ","MAREA":"安西","LANE":" ","ALLEY":" ","HOUSE_NO":"１３０號之３２","E_COORD97":164185.67000000001,"N_COORD97":2562010.1600000001,"ADDRESS":"安西１３０號之３２","OBJECTID":112729},"geometry":{"x":164185.66999999993,"y":2562010.160000002}},{"attributes":{"ID":112730,"DIS_CODE":0,"TOWNNAME":"佳里區","LI":"安西里","LIN":"51鄰","STREET":" ","SECT":" ","MAREA":"安西","LANE":" ","ALLEY":" ","HOUSE_NO":"１３０號之３３","E_COORD97":164181.06,"N_COORD97":2562010.3799999999,"ADDRESS":"安西１３０號之３３","OBJECTID":112730},"geometry":{"x":164181.05999999959,"y":2562010.3800000008}},{"attributes":{"ID":112731,"DIS_CODE":0,"TOWNNAME":"佳里區","LI":"安西里","LIN":"51鄰","STREET":" ","SECT":" ","MAREA":"安西","LANE":" ","ALLEY":" ","HOUSE_NO":"１３０號之３４","E_COORD97":164176.17000000001,"N_COORD97":2562010.5,"ADDRESS":"安西１３０號之３４","OBJECTID":112731},"geometry":{"x":164176.17000000086,"y":2562010.5000000019}},{"attributes":{"ID":112732,"DIS_CODE":0,"TOWNNAME":"佳里區","LI":"安西里","LIN":"51鄰","STREET":" ","SECT":" ","MAREA":"安西","LANE":" ","ALLEY":" ","HOUSE_NO":"１３０號之３５","E_COORD97":164169.48999999999,"N_COORD97":2562010.8700000001,"ADDRESS":"安西１３０號之３５","OBJECTID":112732},"geometry":{"x":164169.49000000115,"y":2562010.870000001}},{"attributes":{"ID":112733,"DIS_CODE":0,"TOWNNAME":"佳里區","LI":"安西里","LIN":"51鄰","STREET":" ","SECT":" ","MAREA":"安西","LANE":" ","ALLEY":" ","HOUSE_NO":"１３０號之３６","E_COORD97":164155.19,"N_COORD97":2562013,"ADDRESS":"安西１３０號之３６","OBJECTID":112733},"geometry":{"x":164155.19000000041,"y":2562013}},{"attributes":{"ID":112734,"DIS_CODE":0,"TOWNNAME":"佳里區","LI":"安西里","LIN":"51鄰","STREET":" ","SECT":" ","MAREA":"安西","LANE":" ","ALLEY":" ","HOUSE_NO":"１３０號之３７","E_COORD97":164149.57000000001,"N_COORD97":2562013.1800000002,"ADDRESS":"安西１３０號之３７","OBJECTID":112734},"geometry":{"x":164149.5700000003,"y":2562013.1800000016}},{"attributes":{"ID":112735,"DIS_CODE":0,"TOWNNAME":"佳里區","LI":"六安里","LIN":"1鄰","STREET":"進學路","SECT":" ","MAREA":" ","LANE":" ","ALLEY":" ","HOUSE_NO":"１３６號","E_COORD97":166048.59,"N_COORD97":2562683.1699999999,"ADDRESS":"進學路１３６號","OBJECTID":112735},"geometry":{"x":166048.59000000078,"y":2562683.1699999999}},{"attributes":{"ID":112736,"DIS_CODE":0,"TOWNNAME":"佳里區","LI":"六安里","LIN":"1鄰","STREET":"進學路","SECT":" ","MAREA":" ","LANE":" ","ALLEY":" ","HOUSE_NO":"１３８號","E_COORD97":166044.28,"N_COORD97":2562683.4399999999,"ADDRESS":"進學路１３８號","OBJECTID":112736},"geometry":{"x":166044.28000000119,"y":2562683.4399999995}},{"attributes":{"ID":112737,"DIS_CODE":0,"TOWNNAME":"仁德區","LI":"太子里","LIN":"37鄰","STREET":"長興一街","SECT":" ","MAREA":" ","LANE":"４０巷","ALLEY":"２２弄","HOUSE_NO":"１號","E_COORD97":174503.79000000001,"N_COORD97":2543928.0099999998,"ADDRESS":"長興一街４０巷２２弄１號","OBJECTID":112737},"geometry":{"x":174503.78999999911,"y":2543928.0099999998}},{"attributes":{"ID":112738,"DIS_CODE":0,"TOWNNAME":"永康區","LI":"\u25A0行里","LIN":"27鄰","STREET":"中正南路","SECT":" ","MAREA":" ","LANE":"３６０巷","ALLEY":"１１弄","HOUSE_NO":"２號","E_COORD97":171118.25,"N_COORD97":2548178.25,"ADDRESS":"中正南路３６０巷１１弄２號","OBJECTID":112738},"geometry":{"x":171118.25,"y":2548178.25}},{"attributes":{"ID":112739,"DIS_CODE":0,"TOWNNAME":"永康區","LI":"龍潭里","LIN":"38鄰","STREET":"中山北路","SECT":" ","MAREA":" ","LANE":"１６４巷","ALLEY":"７８弄","HOUSE_NO":"３０號","E_COORD97":174429.76000000001,"N_COORD97":2547315.7999999998,"ADDRESS":"中山北路１６４巷７８弄３０號","OBJECTID":112739},"geometry":{"x":174429.76000000071,"y":2547315.8000000026}},{"attributes":{"ID":112740,"DIS_CODE":0,"TOWNNAME":"永康區","LI":"網寮里","LIN":"7鄰","STREET":"永二街","SECT":" ","MAREA":" ","LANE":"２４４巷","ALLEY":"２弄","HOUSE_NO":"１２號","E_COORD97":173287.67999999999,"N_COORD97":2546302.3399999999,"ADDRESS":"永二街２４４巷２弄１２號","OBJECTID":112740},"geometry":{"x":173287.68000000063,"y":2546302.3399999999}},{"attributes":{"ID":112741,"DIS_CODE":0,"TOWNNAME":"永康區","LI":"北灣里","LIN":"37鄰","STREET":"大同街","SECT":" ","MAREA":" ","LANE":"３８０巷","ALLEY":"１１弄","HOUSE_NO":"８號","E_COORD97":174784.17999999999,"N_COORD97":2546138.02,"ADDRESS":"大同街３８０巷１１弄８號","OBJECTID":112741},"geometry":{"x":174784.18000000063,"y":2546138.0199999996}},{"attributes":{"ID":112742,"DIS_CODE":0,"TOWNNAME":"永康區","LI":"埔園里","LIN":"37鄰","STREET":"龍國街","SECT":" ","MAREA":" ","LANE":"１３１巷","ALLEY":"５弄","HOUSE_NO":"１號","E_COORD97":174311.73999999999,"N_COORD97":2548108.4199999999,"ADDRESS":"龍國街１３１巷５弄１號","OBJECTID":112742},"geometry":{"x":174311.74000000115,"y":2548108.4200000018}},{"attributes":{"ID":112743,"DIS_CODE":0,"TOWNNAME":"永康區","LI":"二王里","LIN":"37鄰","STREET":"中山南路","SECT":" ","MAREA":" ","LANE":"４９０巷","ALLEY":"１２弄","HOUSE_NO":"１號","E_COORD97":172196.95999999999,"N_COORD97":2546323.6499999999,"ADDRESS":"中山南路４９０巷１２弄１號","OBJECTID":112743},"geometry":{"x":172196.95999999996,"y":2546323.6500000022}},{"attributes":{"ID":112744,"DIS_CODE":0,"TOWNNAME":"永康區","LI":"網寮里","LIN":"16鄰","STREET":"永勝街","SECT":" ","MAREA":" ","LANE":"２２５巷","ALLEY":"８弄","HOUSE_NO":"１１號","E_COORD97":173377.37,"N_COORD97":2546737.2799999998,"ADDRESS":"永勝街２２５巷８弄１１號","OBJECTID":112744},"geometry":{"x":173377.37000000011,"y":2546737.2800000031}},{"attributes":{"ID":112745,"DIS_CODE":0,"TOWNNAME":"新化區","LI":"武安里","LIN":"1鄰","STREET":"中正路","SECT":" ","MAREA":" ","LANE":" ","ALLEY":" ","HOUSE_NO":"２２７號","E_COORD97":179093.31,"N_COORD97":2547715.25,"ADDRESS":"中正路２２７號","OBJECTID":112745},"geometry":{"x":179093.30999999959,"y":2547715.2500000019}},{"attributes":{"ID":112746,"DIS_CODE":0,"TOWNNAME":"永康區","LI":"龍潭里","LIN":"2鄰","STREET":"龍潭街","SECT":" ","MAREA":" ","LANE":"８９巷","ALLEY":"６弄","HOUSE_NO":"２６號","E_COORD97":174791.45000000001,"N_COORD97":2548161.0600000001,"ADDRESS":"龍潭街８９巷６弄２６號","OBJECTID":112746},"geometry":{"x":174791.45000000112,"y":2548161.0600000024}},{"attributes":{"ID":112747,"DIS_CODE":0,"TOWNNAME":"永康區","LI":"二王里","LIN":"37鄰","STREET":"中山南路","SECT":" ","MAREA":" ","LANE":"４９０巷","ALLEY":"１２弄","HOUSE_NO":"４１號","E_COORD97":172251.14000000001,"N_COORD97":2546308.1699999999,"ADDRESS":"中山南路４９０巷１２弄４１號","OBJECTID":112747},"geometry":{"x":172251.13999999966,"y":2546308.1700000037}},{"attributes":{"ID":112748,"DIS_CODE":0,"TOWNNAME":"永康區","LI":"埔園里","LIN":"37鄰","STREET":"龍國街","SECT":" ","MAREA":" ","LANE":"１３１巷","ALLEY":"８弄","HOUSE_NO":"１號","E_COORD97":174322.48999999999,"N_COORD97":2548126.7799999998,"ADDRESS":"龍國街１３１巷８弄１號","OBJECTID":112748},"geometry":{"x":174322.49000000022,"y":2548126.7799999993}},{"attributes":{"ID":112749,"DIS_CODE":0,"TOWNNAME":"佳里區","LI":"安西里","LIN":"51鄰","STREET":" ","SECT":" ","MAREA":"安西","LANE":" ","ALLEY":" ","HOUSE_NO":"１３０號之３８","E_COORD97":164144.98999999999,"N_COORD97":2562013.7400000002,"ADDRESS":"安西１３０號之３８","OBJECTID":112749},"geometry":{"x":164144.99000000022,"y":2562013.7400000021}},{"attributes":{"ID":112750,"DIS_CODE":0,"TOWNNAME":"佳里區","LI":"安西里","LIN":"51鄰","STREET":" ","SECT":" ","MAREA":"安西","LANE":" ","ALLEY":" ","HOUSE_NO":"１３０號之３９","E_COORD97":164140.31,"N_COORD97":2562013.8500000001,"ADDRESS":"安西１３０號之３９","OBJECTID":112750},"geometry":{"x":164140.30999999959,"y":2562013.8499999996}},{"attributes":{"ID":112751,"DIS_CODE":0,"TOWNNAME":"佳里區","LI":"安西里","LIN":"51鄰","STREET":" ","SECT":" ","MAREA":"安西","LANE":" ","ALLEY":" ","HOUSE_NO":"１３０號之４０","E_COORD97":164211.82999999999,"N_COORD97":2562029.6499999999,"ADDRESS":"安西１３０號之４０","OBJECTID":112751},"geometry":{"x":164211.83000000007,"y":2562029.6500000004}},{"attributes":{"ID":112752,"DIS_CODE":0,"TOWNNAME":"佳里區","LI":"安西里","LIN":"51鄰","STREET":" ","SECT":" ","MAREA":"安西","LANE":" ","ALLEY":" ","HOUSE_NO":"１３０號之４１","E_COORD97":164211.66,"N_COORD97":2562036.2599999998,"ADDRESS":"安西１３０號之４１","OBJECTID":112752},"geometry":{"x":164211.65999999922,"y":2562036.2600000016}},{"attributes":{"ID":112753,"DIS_CODE":0,"TOWNNAME":"佳里區","LI":"安西里","LIN":"51鄰","STREET":" ","SECT":" ","MAREA":"安西","LANE":" ","ALLEY":" ","HOUSE_NO":"１３０號之２４","E_COORD97":164236.75,"N_COORD97":2562011.52,"ADDRESS":"安西１３０號之２４","OBJECTID":112753},"geometry":{"x":164236.75000000093,"y":2562011.5199999996}},{"attributes":{"ID":112754,"DIS_CODE":0,"TOWNNAME":"佳里區","LI":"安西里","LIN":"51鄰","STREET":" ","SECT":" ","MAREA":"安西","LANE":" ","ALLEY":" ","HOUSE_NO":"１３０號之２５","E_COORD97":164232.14000000001,"N_COORD97":2562011.1800000002,"ADDRESS":"安西１３０號之２５","OBJECTID":112754},"geometry":{"x":164232.1400000006,"y":2562011.1799999997}},{"attributes":{"ID":112755,"DIS_CODE":0,"TOWNNAME":"佳里區","LI":"安西里","LIN":"51鄰","STREET":" ","SECT":" ","MAREA":"安西","LANE":" ","ALLEY":" ","HOUSE_NO":"１３０號之２６","E_COORD97":164228.20000000001,"N_COORD97":2562010.1099999999,"ADDRESS":"安西１３０號之２６","OBJECTID":112755},"geometry":{"x":164228.20000000019,"y":2562010.1100000013}},{"attributes":{"ID":112756,"DIS_CODE":0,"TOWNNAME":"佳里區","LI":"安西里","LIN":"51鄰","STREET":" ","SECT":" ","MAREA":"安西","LANE":" ","ALLEY":" ","HOUSE_NO":"１３０號之２７","E_COORD97":164223.48999999999,"N_COORD97":2562009.9199999999,"ADDRESS":"安西１３０號之２７","OBJECTID":112756},"geometry":{"x":164223.49000000115,"y":2562009.9199999999}},{"attributes":{"ID":112757,"DIS_CODE":0,"TOWNNAME":"佳里區","LI":"安西里","LIN":"51鄰","STREET":" ","SECT":" ","MAREA":"安西","LANE":" ","ALLEY":" ","HOUSE_NO":"１３０號之４２","E_COORD97":164212.26999999999,"N_COORD97":2562042.8900000001,"ADDRESS":"安西１３０號之４２","OBJECTID":112757},"geometry":{"x":164212.27000000048,"y":2562042.8900000025}},{"attributes":{"ID":112758,"DIS_CODE":0,"TOWNNAME":"佳里區","LI":"安西里","LIN":"51鄰","STREET":" ","SECT":" ","MAREA":"安西","LANE":" ","ALLEY":" ","HOUSE_NO":"１３０號之４３","E_COORD97":164212.59,"N_COORD97":2562049.3900000001,"ADDRESS":"安西１３０號之４３","OBJECTID":112758},"geometry":{"x":164212.59000000078,"y":2562049.3900000025}},{"attributes":{"ID":112759,"DIS_CODE":0,"TOWNNAME":"佳里區","LI":"安西里","LIN":"51鄰","STREET":" ","SECT":" ","MAREA":"安西","LANE":" ","ALLEY":" ","HOUSE_NO":"１３０號之４４","E_COORD97":164212.97,"N_COORD97":2562055.6899999999,"ADDRESS":"安西１３０號之４４","OBJECTID":112759},"geometry":{"x":164212.97000000067,"y":2562055.6899999976}},{"attributes":{"ID":112760,"DIS_CODE":0,"TOWNNAME":"佳里區","LI":"安西里","LIN":"51鄰","STREET":" ","SECT":" ","MAREA":"安西","LANE":" ","ALLEY":" ","HOUSE_NO":"１３０號之４５","E_COORD97":164213.26000000001,"N_COORD97":2562062.4100000001,"ADDRESS":"安西１３０號之４５","OBJECTID":112760},"geometry":{"x":164213.25999999978,"y":2562062.410000002}},{"attributes":{"ID":112761,"DIS_CODE":0,"TOWNNAME":"佳里區","LI":"安西里","LIN":"51鄰","STREET":" ","SECT":" ","MAREA":"安西","LANE":" ","ALLEY":" ","HOUSE_NO":"１３０號之４６","E_COORD97":164213.51000000001,"N_COORD97":2562068.73,"ADDRESS":"安西１３０號之４６","OBJECTID":112761},"geometry":{"x":164213.50999999978,"y":2562068.7300000004}},{"attributes":{"ID":112762,"DIS_CODE":0,"TOWNNAME":"佳里區","LI":"安西里","LIN":"51鄰","STREET":" ","SECT":" ","MAREA":"安西","LANE":" ","ALLEY":" ","HOUSE_NO":"１３０號之４７","E_COORD97":164213.79000000001,"N_COORD97":2562075.23,"ADDRESS":"安西１３０號之４７","OBJECTID":112762},"geometry":{"x":164213.79000000004,"y":2562075.2300000023}},{"attributes":{"ID":112763,"DIS_CODE":0,"TOWNNAME":"佳里區","LI":"安西里","LIN":"51鄰","STREET":" ","SECT":" ","MAREA":"安西","LANE":" ","ALLEY":" ","HOUSE_NO":"１３０號之５２","E_COORD97":164215.07000000001,"N_COORD97":2562107.9300000002,"ADDRESS":"安西１３０號之５２","OBJECTID":112763},"geometry":{"x":164215.0700000003,"y":2562107.9299999997}},{"attributes":{"ID":112764,"DIS_CODE":0,"TOWNNAME":"佳里區","LI":"安西里","LIN":"51鄰","STREET":" ","SECT":" ","MAREA":"安西","LANE":" ","ALLEY":" ","HOUSE_NO":"１３０號之５３","E_COORD97":164215.29000000001,"N_COORD97":2562114.6600000001,"ADDRESS":"安西１３０號之５３","OBJECTID":112764},"geometry":{"x":164215.29000000004,"y":2562114.660000002}},{"attributes":{"ID":112765,"DIS_CODE":0,"TOWNNAME":"佳里區","LI":"安西里","LIN":"51鄰","STREET":" ","SECT":" ","MAREA":"安西","LANE":" ","ALLEY":" ","HOUSE_NO":"１３０號之５４","E_COORD97":164215.60000000001,"N_COORD97":2562121.29,"ADDRESS":"安西１３０號之５４","OBJECTID":112765},"geometry":{"x":164215.60000000056,"y":2562121.2899999991}},{"attributes":{"ID":112766,"DIS_CODE":0,"TOWNNAME":"佳里區","LI":"安西里","LIN":"51鄰","STREET":" ","SECT":" ","MAREA":"安西","LANE":" ","ALLEY":" ","HOUSE_NO":"１３０號之５５","E_COORD97":164216,"N_COORD97":2562127.6099999999,"ADDRESS":"安西１３０號之５５","OBJECTID":112766},"geometry":{"x":164216.00000000186,"y":2562127.6100000031}},{"attributes":{"ID":112767,"DIS_CODE":0,"TOWNNAME":"佳里區","LI":"安西里","LIN":"51鄰","STREET":" ","SECT":" ","MAREA":"安西","LANE":" ","ALLEY":" ","HOUSE_NO":"１３０號之５６","E_COORD97":164216.29000000001,"N_COORD97":2562133.9100000001,"ADDRESS":"安西１３０號之５６","OBJECTID":112767},"geometry":{"x":164216.29000000097,"y":2562133.910000002}},{"attributes":{"ID":112768,"DIS_CODE":0,"TOWNNAME":"佳里區","LI":"安西里","LIN":"51鄰","STREET":" ","SECT":" ","MAREA":"安西","LANE":" ","ALLEY":" ","HOUSE_NO":"１３０號之５７","E_COORD97":164216.42000000001,"N_COORD97":2562140.5299999998,"ADDRESS":"安西１３０號之５７","OBJECTID":112768},"geometry":{"x":164216.41999999899,"y":2562140.5299999993}},{"attributes":{"ID":112769,"DIS_CODE":0,"TOWNNAME":"佳里區","LI":"安西里","LIN":"51鄰","STREET":" ","SECT":" ","MAREA":"安西","LANE":" ","ALLEY":" ","HOUSE_NO":"１３０號之５８","E_COORD97":164189.28,"N_COORD97":2562030.3799999999,"ADDRESS":"安西１３０號之５８","OBJECTID":112769},"geometry":{"x":164189.28000000119,"y":2562030.3800000027}},{"attributes":{"ID":112770,"DIS_CODE":0,"TOWNNAME":"佳里區","LI":"安西里","LIN":"51鄰","STREET":" ","SECT":" ","MAREA":"安西","LANE":" ","ALLEY":" ","HOUSE_NO":"１３０號之５９","E_COORD97":164189.54999999999,"N_COORD97":2562036.8399999999,"ADDRESS":"安西１３０號之５９","OBJECTID":112770},"geometry":{"x":164189.54999999981,"y":2562036.8399999999}},{"attributes":{"ID":112771,"DIS_CODE":0,"TOWNNAME":"佳里區","LI":"安西里","LIN":"51鄰","STREET":" ","SECT":" ","MAREA":"安西","LANE":" ","ALLEY":" ","HOUSE_NO":"１３０號之６０","E_COORD97":164189.82999999999,"N_COORD97":2562043.8100000001,"ADDRESS":"安西１３０號之６０","OBJECTID":112771},"geometry":{"x":164189.83000000007,"y":2562043.8100000024}},{"attributes":{"ID":112772,"DIS_CODE":0,"TOWNNAME":"佳里區","LI":"安西里","LIN":"51鄰","STREET":" ","SECT":" ","MAREA":"安西","LANE":" ","ALLEY":" ","HOUSE_NO":"１３０號之６１","E_COORD97":164189.92999999999,"N_COORD97":2562049.9700000002,"ADDRESS":"安西１３０號之６１","OBJECTID":112772},"geometry":{"x":164189.93000000063,"y":2562049.9700000025}},{"attributes":{"ID":112773,"DIS_CODE":0,"TOWNNAME":"佳里區","LI":"安西里","LIN":"51鄰","STREET":" ","SECT":" ","MAREA":"安西","LANE":" ","ALLEY":" ","HOUSE_NO":"１３０號之６２","E_COORD97":164190.22,"N_COORD97":2562056.6200000001,"ADDRESS":"安西１３０號之６２","OBJECTID":112773},"geometry":{"x":164190.21999999974,"y":2562056.620000001}},{"attributes":{"ID":112774,"DIS_CODE":0,"TOWNNAME":"佳里區","LI":"安西里","LIN":"51鄰","STREET":" ","SECT":" ","MAREA":"安西","LANE":" ","ALLEY":" ","HOUSE_NO":"１３０號之６３","E_COORD97":164190.42000000001,"N_COORD97":2562063.0600000001,"ADDRESS":"安西１３０號之６３","OBJECTID":112774},"geometry":{"x":164190.41999999993,"y":2562063.0600000005}},{"attributes":{"ID":112775,"DIS_CODE":0,"TOWNNAME":"佳里區","LI":"安西里","LIN":"51鄰","STREET":" ","SECT":" ","MAREA":"安西","LANE":" ","ALLEY":" ","HOUSE_NO":"１３０號之６４","E_COORD97":164190.82000000001,"N_COORD97":2562069.29,"ADDRESS":"安西１３０號之６４","OBJECTID":112775},"geometry":{"x":164190.82000000123,"y":2562069.290000001}},{"attributes":{"ID":112776,"DIS_CODE":0,"TOWNNAME":"佳里區","LI":"安西里","LIN":"51鄰","STREET":" ","SECT":" ","MAREA":"安西","LANE":" ","ALLEY":" ","HOUSE_NO":"１３０號之６５","E_COORD97":164191.19,"N_COORD97":2562076.21,"ADDRESS":"安西１３０號之６５","OBJECTID":112776},"geometry":{"x":164191.19000000041,"y":2562076.2100000009}},{"attributes":{"ID":112777,"DIS_CODE":0,"TOWNNAME":"佳里區","LI":"安西里","LIN":"51鄰","STREET":" ","SECT":" ","MAREA":"安西","LANE":" ","ALLEY":" ","HOUSE_NO":"１３０號之６６","E_COORD97":164191.60000000001,"N_COORD97":2562082.6800000002,"ADDRESS":"安西１３０號之６６","OBJECTID":112777},"geometry":{"x":164191.60000000056,"y":2562082.6799999997}},{"attributes":{"ID":112778,"DIS_CODE":0,"TOWNNAME":"佳里區","LI":"安西里","LIN":"51鄰","STREET":" ","SECT":" ","MAREA":"安西","LANE":" ","ALLEY":" ","HOUSE_NO":"１３０號之６７","E_COORD97":164191.79000000001,"N_COORD97":2562089.3300000001,"ADDRESS":"安西１３０號之６７","OBJECTID":112778},"geometry":{"x":164191.79000000004,"y":2562089.3300000038}},{"attributes":{"ID":112779,"DIS_CODE":0,"TOWNNAME":"佳里區","LI":"安西里","LIN":"51鄰","STREET":" ","SECT":" ","MAREA":"安西","LANE":" ","ALLEY":" ","HOUSE_NO":"１３０號之６８","E_COORD97":164192.13,"N_COORD97":2562095.7999999998,"ADDRESS":"安西１３０號之６８","OBJECTID":112779},"geometry":{"x":164192.13000000082,"y":2562095.8000000007}},{"attributes":{"ID":112780,"DIS_CODE":0,"TOWNNAME":"佳里區","LI":"安西里","LIN":"51鄰","STREET":" ","SECT":" ","MAREA":"安西","LANE":" ","ALLEY":" ","HOUSE_NO":"１３０號之６９","E_COORD97":164192.44,"N_COORD97":2562102.3999999999,"ADDRESS":"安西１３０號之６９","OBJECTID":112780},"geometry":{"x":164192.44000000041,"y":2562102.4000000004}},{"attributes":{"ID":112781,"DIS_CODE":0,"TOWNNAME":"佳里區","LI":"安西里","LIN":"51鄰","STREET":" ","SECT":" ","MAREA":"安西","LANE":" ","ALLEY":" ","HOUSE_NO":"１３０號之７０","E_COORD97":164192.91,"N_COORD97":2562109.1200000001,"ADDRESS":"安西１３０號之７０","OBJECTID":112781},"geometry":{"x":164192.91000000015,"y":2562109.1200000029}},{"attributes":{"ID":112782,"DIS_CODE":0,"TOWNNAME":"佳里區","LI":"安西里","LIN":"51鄰","STREET":" ","SECT":" ","MAREA":"安西","LANE":" ","ALLEY":" ","HOUSE_NO":"１３０號之７１","E_COORD97":164193.22,"N_COORD97":2562115.1800000002,"ADDRESS":"安西１３０號之７１","OBJECTID":112782},"geometry":{"x":164193.21999999974,"y":2562115.1800000016}},{"attributes":{"ID":112783,"DIS_CODE":0,"TOWNNAME":"佳里區","LI":"安西里","LIN":"51鄰","STREET":" ","SECT":" ","MAREA":"安西","LANE":" ","ALLEY":" ","HOUSE_NO":"１３０號之７２","E_COORD97":164193.59,"N_COORD97":2562121.9399999999,"ADDRESS":"安西１３０號之７２","OBJECTID":112783},"geometry":{"x":164193.59000000078,"y":2562121.9400000032}},{"attributes":{"ID":112784,"DIS_CODE":0,"TOWNNAME":"佳里區","LI":"安西里","LIN":"51鄰","STREET":" ","SECT":" ","MAREA":"安西","LANE":" ","ALLEY":" ","HOUSE_NO":"１３０號之７３","E_COORD97":164193.56,"N_COORD97":2562128.5299999998,"ADDRESS":"安西１３０號之７３","OBJECTID":112784},"geometry":{"x":164193.56000000052,"y":2562128.5300000012}},{"attributes":{"ID":112785,"DIS_CODE":0,"TOWNNAME":"佳里區","LI":"安西里","LIN":"51鄰","STREET":" ","SECT":" ","MAREA":"安西","LANE":" ","ALLEY":" ","HOUSE_NO":"１３０號之７４","E_COORD97":164194.04999999999,"N_COORD97":2562134.79,"ADDRESS":"安西１３０號之７４","OBJECTID":112785},"geometry":{"x":164194.05000000075,"y":2562134.7899999991}},{"attributes":{"ID":112786,"DIS_CODE":0,"TOWNNAME":"佳里區","LI":"安西里","LIN":"51鄰","STREET":" ","SECT":" ","MAREA":"安西","LANE":" ","ALLEY":" ","HOUSE_NO":"１３０號之７５","E_COORD97":164194.32999999999,"N_COORD97":2562141.5899999999,"ADDRESS":"安西１３０號之７５","OBJECTID":112786},"geometry":{"x":164194.33000000101,"y":2562141.5900000036}},{"attributes":{"ID":112787,"DIS_CODE":0,"TOWNNAME":"佳里區","LI":"安西里","LIN":"51鄰","STREET":" ","SECT":" ","MAREA":"安西","LANE":" ","ALLEY":" ","HOUSE_NO":"１３０號之７６","E_COORD97":164169.01000000001,"N_COORD97":2562030.8900000001,"ADDRESS":"安西１３０號之７６","OBJECTID":112787},"geometry":{"x":164169.01000000071,"y":2562030.8900000006}},{"attributes":{"ID":112788,"DIS_CODE":0,"TOWNNAME":"佳里區","LI":"安西里","LIN":"51鄰","STREET":" ","SECT":" ","MAREA":"安西","LANE":" ","ALLEY":" ","HOUSE_NO":"１３０號之７７","E_COORD97":164169.25,"N_COORD97":2562036.7400000002,"ADDRESS":"安西１３０號之７７","OBJECTID":112788},"geometry":{"x":164169.25000000093,"y":2562036.7400000021}},{"attributes":{"ID":112789,"DIS_CODE":0,"TOWNNAME":"佳里區","LI":"安西里","LIN":"51鄰","STREET":" ","SECT":" ","MAREA":"安西","LANE":" ","ALLEY":" ","HOUSE_NO":"１３０號之７８","E_COORD97":164169.59,"N_COORD97":2562042.77,"ADDRESS":"安西１３０號之７８","OBJECTID":112789},"geometry":{"x":164169.59000000171,"y":2562042.7700000014}},{"attributes":{"ID":112790,"DIS_CODE":0,"TOWNNAME":"佳里區","LI":"安西里","LIN":"51鄰","STREET":" ","SECT":" ","MAREA":"安西","LANE":" ","ALLEY":" ","HOUSE_NO":"１３０號之７９","E_COORD97":164169.85999999999,"N_COORD97":2562048.6099999999,"ADDRESS":"安西１３０號之７９","OBJECTID":112790},"geometry":{"x":164169.8600000022,"y":2562048.6099999994}},{"attributes":{"ID":112791,"DIS_CODE":0,"TOWNNAME":"佳里區","LI":"安西里","LIN":"51鄰","STREET":" ","SECT":" ","MAREA":"安西","LANE":" ","ALLEY":" ","HOUSE_NO":"１２７號二樓之１２","E_COORD97":164161.25,"N_COORD97":2562159.1000000001,"ADDRESS":"安西１２７號二樓之１２","OBJECTID":112791},"geometry":{"x":164161.25,"y":2562159.1000000015}},{"attributes":{"ID":112792,"DIS_CODE":0,"TOWNNAME":"佳里區","LI":"安西里","LIN":"51鄰","STREET":" ","SECT":" ","MAREA":"安西","LANE":" ","ALLEY":" ","HOUSE_NO":"１２７號二樓之１３","E_COORD97":164161.25,"N_COORD97":2562159.1000000001,"ADDRESS":"安西１２７號二樓之１３","OBJECTID":112792},"geometry":{"x":164161.25,"y":2562159.1000000015}},{"attributes":{"ID":112793,"DIS_CODE":0,"TOWNNAME":"佳里區","LI":"安西里","LIN":"51鄰","STREET":" ","SECT":" ","MAREA":"安西","LANE":" ","ALLEY":" ","HOUSE_NO":"１２７號二樓之１４","E_COORD97":164161.25,"N_COORD97":2562159.1000000001,"ADDRESS":"安西１２７號二樓之１４","OBJECTID":112793},"geometry":{"x":164161.25,"y":2562159.1000000015}},{"attributes":{"ID":112794,"DIS_CODE":0,"TOWNNAME":"佳里區","LI":"安西里","LIN":"51鄰","STREET":" ","SECT":" ","MAREA":"安西","LANE":" ","ALLEY":" ","HOUSE_NO":"１２７號二樓之２","E_COORD97":164161.25,"N_COORD97":2562159.1000000001,"ADDRESS":"安西１２７號二樓之２","OBJECTID":112794},"geometry":{"x":164161.25,"y":2562159.1000000015}},{"attributes":{"ID":112795,"DIS_CODE":0,"TOWNNAME":"佳里區","LI":"安西里","LIN":"51鄰","STREET":" ","SECT":" ","MAREA":"安西","LANE":" ","ALLEY":" ","HOUSE_NO":"１２７號二樓之３","E_COORD97":164161.25,"N_COORD97":2562159.1000000001,"ADDRESS":"安西１２７號二樓之３","OBJECTID":112795},"geometry":{"x":164161.25,"y":2562159.1000000015}},{"attributes":{"ID":112796,"DIS_CODE":0,"TOWNNAME":"佳里區","LI":"安西里","LIN":"51鄰","STREET":" ","SECT":" ","MAREA":"安西","LANE":" ","ALLEY":" ","HOUSE_NO":"１２７號二樓之４","E_COORD97":164161.25,"N_COORD97":2562159.1000000001,"ADDRESS":"安西１２７號二樓之４","OBJECTID":112796},"geometry":{"x":164161.25,"y":2562159.1000000015}},{"attributes":{"ID":112797,"DIS_CODE":0,"TOWNNAME":"佳里區","LI":"安西里","LIN":"51鄰","STREET":" ","SECT":" ","MAREA":"安西","LANE":" ","ALLEY":" ","HOUSE_NO":"１２７號二樓之５","E_COORD97":164161.25,"N_COORD97":2562159.1000000001,"ADDRESS":"安西１２７號二樓之５","OBJECTID":112797},"geometry":{"x":164161.25,"y":2562159.1000000015}},{"attributes":{"ID":112798,"DIS_CODE":0,"TOWNNAME":"佳里區","LI":"安西里","LIN":"51鄰","STREET":" ","SECT":" ","MAREA":"安西","LANE":" ","ALLEY":" ","HOUSE_NO":"１２７號二樓之６","E_COORD97":164161.25,"N_COORD97":2562159.1000000001,"ADDRESS":"安西１２７號二樓之６","OBJECTID":112798},"geometry":{"x":164161.25,"y":2562159.1000000015}},{"attributes":{"ID":112799,"DIS_CODE":0,"TOWNNAME":"佳里區","LI":"安西里","LIN":"51鄰","STREET":" ","SECT":" ","MAREA":"安西","LANE":" ","ALLEY":" ","HOUSE_NO":"１２７號二樓之７","E_COORD97":164161.25,"N_COORD97":2562159.1000000001,"ADDRESS":"安西１２７號二樓之７","OBJECTID":112799},"geometry":{"x":164161.25,"y":2562159.1000000015}},{"attributes":{"ID":112800,"DIS_CODE":0,"TOWNNAME":"佳里區","LI":"安西里","LIN":"51鄰","STREET":" ","SECT":" ","MAREA":"安西","LANE":" ","ALLEY":" ","HOUSE_NO":"１２７號二樓之８","E_COORD97":164161.25,"N_COORD97":2562159.1000000001,"ADDRESS":"安西１２７號二樓之８","OBJECTID":112800},"geometry":{"x":164161.25,"y":2562159.1000000015}}]}