{"displayFieldName":"TOWNNAME","fieldAliases":{"ID":"ID","DIS_CODE":"DIS_CODE","TOWNNAME":"TOWNNAME","LI":"LI","LIN":"LIN","STREET":"STREET","SECT":"SECT","MAREA":"MAREA","LANE":"LANE","ALLEY":"ALLEY","HOUSE_NO":"HOUSE_NO","E_COORD97":"E_COORD97","N_COORD97":"N_COORD97","ADDRESS":"ADDRESS","OBJECTID":"OBJECTID"},"geometryType":"esriGeometryPoint","spatialReference":{"wkid":102443,"latestWkid":3826},"fields":[{"name":"ID","type":"esriFieldTypeDouble","alias":"ID"},{"name":"DIS_CODE","type":"esriFieldTypeInteger","alias":"DIS_CODE"},{"name":"TOWNNAME","type":"esriFieldTypeString","alias":"TOWNNAME","length":8},{"name":"LI","type":"esriFieldTypeString","alias":"LI","length":8},{"name":"LIN","type":"esriFieldTypeString","alias":"LIN","length":12},{"name":"STREET","type":"esriFieldTypeString","alias":"STREET","length":20},{"name":"SECT","type":"esriFieldTypeString","alias":"SECT","length":8},{"name":"MAREA","type":"esriFieldTypeString","alias":"MAREA","length":12},{"name":"LANE","type":"esriFieldTypeString","alias":"LANE","length":10},{"name":"ALLEY","type":"esriFieldTypeString","alias":"ALLEY","length":10},{"name":"HOUSE_NO","type":"esriFieldTypeString","alias":"HOUSE_NO","length":20},{"name":"E_COORD97","type":"esriFieldTypeDouble","alias":"E_COORD97"},{"name":"N_COORD97","type":"esriFieldTypeDouble","alias":"N_COORD97"},{"name":"ADDRESS","type":"esriFieldTypeString","alias":"ADDRESS","length":50},{"name":"OBJECTID","type":"esriFieldTypeOID","alias":"OBJECTID"}],"features":[{"attributes":{"ID":240805,"DIS_CODE":0,"TOWNNAME":"西港區","LI":"竹林里","LIN":"16鄰","STREET":" ","SECT":" ","MAREA":"大竹林","LANE":" ","ALLEY":" ","HOUSE_NO":"１３５號之１２","E_COORD97":166859.76999999999,"N_COORD97":2558074.3999999999,"ADDRESS":"大竹林１３５號之１２","OBJECTID":240801},"geometry":{"x":166859.76999999955,"y":2558074.4000000004}},{"attributes":{"ID":240806,"DIS_CODE":0,"TOWNNAME":"西港區","LI":"竹林里","LIN":"16鄰","STREET":" ","SECT":" ","MAREA":"大竹林","LANE":" ","ALLEY":" ","HOUSE_NO":"１３５號之１３","E_COORD97":166860.32000000001,"N_COORD97":2558070.1400000001,"ADDRESS":"大竹林１３５號之１３","OBJECTID":240802},"geometry":{"x":166860.32000000216,"y":2558070.1400000043}},{"attributes":{"ID":240807,"DIS_CODE":0,"TOWNNAME":"西港區","LI":"竹林里","LIN":"16鄰","STREET":" ","SECT":" ","MAREA":"大竹林","LANE":" ","ALLEY":" ","HOUSE_NO":"１３５號之１４","E_COORD97":166860.85999999999,"N_COORD97":2558065.9100000001,"ADDRESS":"大竹林１３５號之１４","OBJECTID":240803},"geometry":{"x":166860.86000000127,"y":2558065.910000002}},{"attributes":{"ID":240808,"DIS_CODE":0,"TOWNNAME":"西港區","LI":"竹林里","LIN":"16鄰","STREET":" ","SECT":" ","MAREA":"大竹林","LANE":" ","ALLEY":" ","HOUSE_NO":"１３５號之１５","E_COORD97":166857.67000000001,"N_COORD97":2558058.7799999998,"ADDRESS":"大竹林１３５號之１５","OBJECTID":240804},"geometry":{"x":166857.67000000179,"y":2558058.7800000012}},{"attributes":{"ID":240809,"DIS_CODE":0,"TOWNNAME":"北區","LI":"成德里","LIN":"40鄰","STREET":"育德三街","SECT":" ","MAREA":" ","LANE":"２２７巷","ALLEY":" ","HOUSE_NO":"１３號","E_COORD97":168100.56,"N_COORD97":2546438.75,"ADDRESS":"育德三街２２７巷１３號","OBJECTID":240805},"geometry":{"x":168100.56000000145,"y":2546438.75}},{"attributes":{"ID":240810,"DIS_CODE":0,"TOWNNAME":"北區","LI":"成德里","LIN":"40鄰","STREET":"育德三街","SECT":" ","MAREA":" ","LANE":"２２７巷","ALLEY":" ","HOUSE_NO":"１５號","E_COORD97":168096.63,"N_COORD97":2546438.5600000001,"ADDRESS":"育德三街２２７巷１５號","OBJECTID":240806},"geometry":{"x":168096.62999999989,"y":2546438.5600000042}},{"attributes":{"ID":240811,"DIS_CODE":0,"TOWNNAME":"北區","LI":"成德里","LIN":"40鄰","STREET":"育德三街","SECT":" ","MAREA":" ","LANE":"２２７巷","ALLEY":" ","HOUSE_NO":"１７號","E_COORD97":168091.57000000001,"N_COORD97":2546438.1899999999,"ADDRESS":"育德三街２２７巷１７號","OBJECTID":240807},"geometry":{"x":168091.57000000123,"y":2546438.1899999995}},{"attributes":{"ID":240812,"DIS_CODE":0,"TOWNNAME":"東區","LI":"崇德里","LIN":"14鄰","STREET":"崇明路","SECT":" ","MAREA":" ","LANE":" ","ALLEY":" ","HOUSE_NO":"４７３號七樓","E_COORD97":170534.31,"N_COORD97":2541488.1800000002,"ADDRESS":"崇明路４７３號七樓","OBJECTID":240808},"geometry":{"x":170534.30999999959,"y":2541488.1800000016}},{"attributes":{"ID":240813,"DIS_CODE":0,"TOWNNAME":"東區","LI":"崇德里","LIN":"14鄰","STREET":"崇明路","SECT":" ","MAREA":" ","LANE":" ","ALLEY":" ","HOUSE_NO":"４７３號七樓之１","E_COORD97":170534.31,"N_COORD97":2541488.1800000002,"ADDRESS":"崇明路４７３號七樓之１","OBJECTID":240809},"geometry":{"x":170534.30999999959,"y":2541488.1800000016}},{"attributes":{"ID":240814,"DIS_CODE":0,"TOWNNAME":"東區","LI":"崇德里","LIN":"14鄰","STREET":"崇明路","SECT":" ","MAREA":" ","LANE":" ","ALLEY":" ","HOUSE_NO":"４７９號六樓之１","E_COORD97":170540.07999999999,"N_COORD97":2541473.7599999998,"ADDRESS":"崇明路４７９號六樓之１","OBJECTID":240810},"geometry":{"x":170540.08000000007,"y":2541473.7600000016}},{"attributes":{"ID":240815,"DIS_CODE":0,"TOWNNAME":"西港區","LI":"竹林里","LIN":"16鄰","STREET":" ","SECT":" ","MAREA":"大竹林","LANE":" ","ALLEY":" ","HOUSE_NO":"１３５號之１６","E_COORD97":166858.01000000001,"N_COORD97":2558054.0899999999,"ADDRESS":"大竹林１３５號之１６","OBJECTID":240811},"geometry":{"x":166858.00999999978,"y":2558054.0900000017}},{"attributes":{"ID":240816,"DIS_CODE":0,"TOWNNAME":"西港區","LI":"竹林里","LIN":"16鄰","STREET":" ","SECT":" ","MAREA":"大竹林","LANE":" ","ALLEY":" ","HOUSE_NO":"１３５號之５","E_COORD97":166835.22,"N_COORD97":2558082.7000000002,"ADDRESS":"大竹林１３５號之５","OBJECTID":240812},"geometry":{"x":166835.22000000067,"y":2558082.7000000011}},{"attributes":{"ID":240817,"DIS_CODE":0,"TOWNNAME":"西港區","LI":"竹林里","LIN":"16鄰","STREET":" ","SECT":" ","MAREA":"大竹林","LANE":" ","ALLEY":" ","HOUSE_NO":"１３５號之６","E_COORD97":166839.59,"N_COORD97":2558083.23,"ADDRESS":"大竹林１３５號之６","OBJECTID":240813},"geometry":{"x":166839.59000000078,"y":2558083.2300000042}},{"attributes":{"ID":240818,"DIS_CODE":0,"TOWNNAME":"西港區","LI":"竹林里","LIN":"16鄰","STREET":" ","SECT":" ","MAREA":"大竹林","LANE":" ","ALLEY":" ","HOUSE_NO":"１３５號之７","E_COORD97":166844.19,"N_COORD97":2558083.3500000001,"ADDRESS":"大竹林１３５號之７","OBJECTID":240814},"geometry":{"x":166844.19000000041,"y":2558083.3499999996}},{"attributes":{"ID":240819,"DIS_CODE":0,"TOWNNAME":"北區","LI":"成德里","LIN":"40鄰","STREET":"育德三街","SECT":" ","MAREA":" ","LANE":"２２７巷","ALLEY":" ","HOUSE_NO":"１９號","E_COORD97":168087.26000000001,"N_COORD97":2546437.6299999999,"ADDRESS":"育德三街２２７巷１９號","OBJECTID":240815},"geometry":{"x":168087.25999999978,"y":2546437.6300000008}},{"attributes":{"ID":240820,"DIS_CODE":0,"TOWNNAME":"北區","LI":"成德里","LIN":"40鄰","STREET":"育德三街","SECT":" ","MAREA":" ","LANE":"２２７巷","ALLEY":" ","HOUSE_NO":"１號","E_COORD97":168128.84,"N_COORD97":2546442.8700000001,"ADDRESS":"育德三街２２７巷１號","OBJECTID":240816},"geometry":{"x":168128.83999999985,"y":2546442.870000001}},{"attributes":{"ID":240821,"DIS_CODE":0,"TOWNNAME":"北區","LI":"成德里","LIN":"40鄰","STREET":"育德三街","SECT":" ","MAREA":" ","LANE":"２２７巷","ALLEY":" ","HOUSE_NO":"５號","E_COORD97":168119.29000000001,"N_COORD97":2546441.1800000002,"ADDRESS":"育德三街２２７巷５號","OBJECTID":240817},"geometry":{"x":168119.29000000004,"y":2546441.1800000016}},{"attributes":{"ID":240822,"DIS_CODE":0,"TOWNNAME":"西港區","LI":"\u25A0林里","LIN":"16鄰","STREET":" ","SECT":" ","MAREA":"三合寮","LANE":" ","ALLEY":" ","HOUSE_NO":"７之１號","E_COORD97":170850.04000000001,"N_COORD97":2559603.9399999999,"ADDRESS":"三合寮７之１號","OBJECTID":240818},"geometry":{"x":170850.04000000004,"y":2559603.9400000013}},{"attributes":{"ID":240823,"DIS_CODE":0,"TOWNNAME":"北區","LI":"成德里","LIN":"40鄰","STREET":"育德三街","SECT":" ","MAREA":" ","LANE":"２２７巷","ALLEY":" ","HOUSE_NO":"７號","E_COORD97":168114.79999999999,"N_COORD97":2546440.25,"ADDRESS":"育德三街２２７巷７號","OBJECTID":240819},"geometry":{"x":168114.80000000075,"y":2546440.2500000019}},{"attributes":{"ID":240824,"DIS_CODE":0,"TOWNNAME":"西港區","LI":"\u25A0林里","LIN":"16鄰","STREET":" ","SECT":" ","MAREA":"三合寮","LANE":" ","ALLEY":" ","HOUSE_NO":"７之２號","E_COORD97":170845.95000000001,"N_COORD97":2559603.8999999999,"ADDRESS":"三合寮７之２號","OBJECTID":240820},"geometry":{"x":170845.95000000019,"y":2559603.8999999985}},{"attributes":{"ID":240825,"DIS_CODE":0,"TOWNNAME":"北區","LI":"成德里","LIN":"40鄰","STREET":"育德三街","SECT":" ","MAREA":" ","LANE":"２２７巷","ALLEY":" ","HOUSE_NO":"９號","E_COORD97":168110.10999999999,"N_COORD97":2546440.0600000001,"ADDRESS":"育德三街２２７巷９號","OBJECTID":240821},"geometry":{"x":168110.11000000127,"y":2546440.0600000005}},{"attributes":{"ID":240826,"DIS_CODE":0,"TOWNNAME":"西港區","LI":"\u25A0林里","LIN":"16鄰","STREET":" ","SECT":" ","MAREA":"三合寮","LANE":" ","ALLEY":" ","HOUSE_NO":"７之３號","E_COORD97":170841.87,"N_COORD97":2559603.8500000001,"ADDRESS":"三合寮７之３號","OBJECTID":240822},"geometry":{"x":170841.87000000197,"y":2559603.8500000034}},{"attributes":{"ID":240827,"DIS_CODE":0,"TOWNNAME":"西港區","LI":"\u25A0林里","LIN":"16鄰","STREET":" ","SECT":" ","MAREA":"三合寮","LANE":" ","ALLEY":" ","HOUSE_NO":"７之５號","E_COORD97":170837.78,"N_COORD97":2559603.8100000001,"ADDRESS":"三合寮７之５號","OBJECTID":240823},"geometry":{"x":170837.78000000119,"y":2559603.8100000005}},{"attributes":{"ID":240828,"DIS_CODE":0,"TOWNNAME":"西港區","LI":"\u25A0林里","LIN":"16鄰","STREET":" ","SECT":" ","MAREA":"三合寮","LANE":" ","ALLEY":" ","HOUSE_NO":"７之６號","E_COORD97":170833.69,"N_COORD97":2559603.77,"ADDRESS":"三合寮７之６號","OBJECTID":240824},"geometry":{"x":170833.69000000134,"y":2559603.7699999996}},{"attributes":{"ID":240829,"DIS_CODE":0,"TOWNNAME":"西港區","LI":"\u25A0林里","LIN":"16鄰","STREET":" ","SECT":" ","MAREA":"三合寮","LANE":" ","ALLEY":" ","HOUSE_NO":"７之７號","E_COORD97":170829.60000000001,"N_COORD97":2559603.7200000002,"ADDRESS":"三合寮７之７號","OBJECTID":240825},"geometry":{"x":170829.60000000149,"y":2559603.7200000025}},{"attributes":{"ID":240830,"DIS_CODE":0,"TOWNNAME":"歸仁區","LI":"南保里","LIN":"40鄰","STREET":"民權六街","SECT":" ","MAREA":" ","LANE":"１８１巷","ALLEY":" ","HOUSE_NO":"１４號","E_COORD97":176587.89000000001,"N_COORD97":2541064.29,"ADDRESS":"民權六街１８１巷１４號","OBJECTID":240826},"geometry":{"x":176587.89000000153,"y":2541064.2899999991}},{"attributes":{"ID":240831,"DIS_CODE":0,"TOWNNAME":"歸仁區","LI":"辜厝里","LIN":"40鄰","STREET":"中正南路","SECT":"一段","MAREA":" ","LANE":"２１８巷","ALLEY":" ","HOUSE_NO":"７號","E_COORD97":177270.06,"N_COORD97":2540343.25,"ADDRESS":"中正南路一段２１８巷７號","OBJECTID":240827},"geometry":{"x":177270.06000000052,"y":2540343.25}},{"attributes":{"ID":240832,"DIS_CODE":0,"TOWNNAME":"西港區","LI":"\u25A0林里","LIN":"16鄰","STREET":" ","SECT":" ","MAREA":"三合寮","LANE":" ","ALLEY":" ","HOUSE_NO":"７之８號","E_COORD97":170825.51000000001,"N_COORD97":2559603.6800000002,"ADDRESS":"三合寮７之８號","OBJECTID":240828},"geometry":{"x":170825.51000000071,"y":2559603.6799999997}},{"attributes":{"ID":240833,"DIS_CODE":0,"TOWNNAME":"西港區","LI":"\u25A0林里","LIN":"16鄰","STREET":" ","SECT":" ","MAREA":"三合寮","LANE":" ","ALLEY":" ","HOUSE_NO":"７之９號","E_COORD97":170821.42000000001,"N_COORD97":2559603.6400000001,"ADDRESS":"三合寮７之９號","OBJECTID":240829},"geometry":{"x":170821.42000000086,"y":2559603.6400000025}},{"attributes":{"ID":240834,"DIS_CODE":0,"TOWNNAME":"西港區","LI":"\u25A0林里","LIN":"16鄰","STREET":" ","SECT":" ","MAREA":"三合寮","LANE":" ","ALLEY":" ","HOUSE_NO":"７號","E_COORD97":170854.13,"N_COORD97":2559603.9900000002,"ADDRESS":"三合寮７號","OBJECTID":240830},"geometry":{"x":170854.13000000082,"y":2559603.9900000021}},{"attributes":{"ID":240835,"DIS_CODE":0,"TOWNNAME":"西港區","LI":"\u25A0林里","LIN":"16鄰","STREET":" ","SECT":" ","MAREA":"三合寮","LANE":" ","ALLEY":" ","HOUSE_NO":"８號","E_COORD97":170870.81,"N_COORD97":2559574.8799999999,"ADDRESS":"三合寮８號","OBJECTID":240831},"geometry":{"x":170870.81000000052,"y":2559574.879999999}},{"attributes":{"ID":240836,"DIS_CODE":0,"TOWNNAME":"西港區","LI":"竹林里","LIN":"16鄰","STREET":" ","SECT":" ","MAREA":"大竹林","LANE":" ","ALLEY":" ","HOUSE_NO":"１３４號","E_COORD97":166785.81,"N_COORD97":2558057.25,"ADDRESS":"大竹林１３４號","OBJECTID":240832},"geometry":{"x":166785.81000000052,"y":2558057.25}},{"attributes":{"ID":240837,"DIS_CODE":0,"TOWNNAME":"西港區","LI":"竹林里","LIN":"16鄰","STREET":" ","SECT":" ","MAREA":"大竹林","LANE":" ","ALLEY":" ","HOUSE_NO":"１３５號之１０","E_COORD97":166858.37,"N_COORD97":2558082.8199999998,"ADDRESS":"大竹林１３５號之１０","OBJECTID":240833},"geometry":{"x":166858.37000000104,"y":2558082.8200000022}},{"attributes":{"ID":240838,"DIS_CODE":0,"TOWNNAME":"西港區","LI":"竹林里","LIN":"16鄰","STREET":" ","SECT":" ","MAREA":"大竹林","LANE":" ","ALLEY":" ","HOUSE_NO":"１３５號之１１","E_COORD97":166859.14999999999,"N_COORD97":2558078.5600000001,"ADDRESS":"大竹林１３５號之１１","OBJECTID":240834},"geometry":{"x":166859.15000000037,"y":2558078.5600000024}},{"attributes":{"ID":240839,"DIS_CODE":0,"TOWNNAME":"西港區","LI":"竹林里","LIN":"16鄰","STREET":" ","SECT":" ","MAREA":"大竹林","LANE":" ","ALLEY":" ","HOUSE_NO":"１４０號","E_COORD97":166843.98000000001,"N_COORD97":2558043.5099999998,"ADDRESS":"大竹林１４０號","OBJECTID":240835},"geometry":{"x":166843.98000000045,"y":2558043.5100000016}},{"attributes":{"ID":240840,"DIS_CODE":0,"TOWNNAME":"安定區","LI":"港口里","LIN":"16鄰","STREET":" ","SECT":" ","MAREA":"港口","LANE":" ","ALLEY":" ","HOUSE_NO":"３６０號","E_COORD97":171349.59,"N_COORD97":2554801.25,"ADDRESS":"港口３６０號","OBJECTID":240836},"geometry":{"x":171349.58999999985,"y":2554801.2500000019}},{"attributes":{"ID":240841,"DIS_CODE":0,"TOWNNAME":"佳里區","LI":"海澄里","LIN":"16鄰","STREET":" ","SECT":" ","MAREA":"番子寮","LANE":" ","ALLEY":" ","HOUSE_NO":"１２６號之１","E_COORD97":163838.87,"N_COORD97":2564617.1699999999,"ADDRESS":"番子寮１２６號之１","OBJECTID":240837},"geometry":{"x":163838.87000000011,"y":2564617.1700000018}},{"attributes":{"ID":240842,"DIS_CODE":0,"TOWNNAME":"歸仁區","LI":"南保里","LIN":"40鄰","STREET":"民權六街","SECT":" ","MAREA":" ","LANE":"１８１巷","ALLEY":" ","HOUSE_NO":"８號","E_COORD97":176603.04000000001,"N_COORD97":2541067.29,"ADDRESS":"民權六街１８１巷８號","OBJECTID":240838},"geometry":{"x":176603.04000000097,"y":2541067.2899999991}},{"attributes":{"ID":240843,"DIS_CODE":0,"TOWNNAME":"歸仁區","LI":"辜厝里","LIN":"40鄰","STREET":"中正南路","SECT":"一段","MAREA":" ","LANE":"２１８巷","ALLEY":" ","HOUSE_NO":"５號","E_COORD97":177273.16,"N_COORD97":2540342.25,"ADDRESS":"中正南路一段２１８巷５號","OBJECTID":240839},"geometry":{"x":177273.16000000201,"y":2540342.2500000019}},{"attributes":{"ID":240844,"DIS_CODE":0,"TOWNNAME":"歸仁區","LI":"南保里","LIN":"40鄰","STREET":"保興街","SECT":" ","MAREA":" ","LANE":"３６巷","ALLEY":" ","HOUSE_NO":"１５號","E_COORD97":176568.97,"N_COORD97":2541051.25,"ADDRESS":"保興街３６巷１５號","OBJECTID":240840},"geometry":{"x":176568.97000000067,"y":2541051.25}},{"attributes":{"ID":240845,"DIS_CODE":0,"TOWNNAME":"歸仁區","LI":"南保里","LIN":"40鄰","STREET":"民權六街","SECT":" ","MAREA":" ","LANE":"１８１巷","ALLEY":" ","HOUSE_NO":"１２號","E_COORD97":176591.98999999999,"N_COORD97":2541064.29,"ADDRESS":"民權六街１８１巷１２號","OBJECTID":240841},"geometry":{"x":176591.99000000115,"y":2541064.2899999991}},{"attributes":{"ID":240846,"DIS_CODE":0,"TOWNNAME":"歸仁區","LI":"南保里","LIN":"40鄰","STREET":"保興街","SECT":" ","MAREA":" ","LANE":"３６巷","ALLEY":" ","HOUSE_NO":"１號","E_COORD97":176531.82000000001,"N_COORD97":2541045.25,"ADDRESS":"保興街３６巷１號","OBJECTID":240842},"geometry":{"x":176531.82000000123,"y":2541045.25}},{"attributes":{"ID":240847,"DIS_CODE":0,"TOWNNAME":"歸仁區","LI":"南保里","LIN":"40鄰","STREET":"保興街","SECT":" ","MAREA":" ","LANE":"３６巷","ALLEY":" ","HOUSE_NO":"５號","E_COORD97":176547.22,"N_COORD97":2541043.25,"ADDRESS":"保興街３６巷５號","OBJECTID":240843},"geometry":{"x":176547.22000000067,"y":2541043.2500000019}},{"attributes":{"ID":240848,"DIS_CODE":0,"TOWNNAME":"歸仁區","LI":"六甲里","LIN":"40鄰","STREET":"民生南街","SECT":"二段","MAREA":" ","LANE":"８１２巷","ALLEY":" ","HOUSE_NO":"２號","E_COORD97":176070.45000000001,"N_COORD97":2539324.29,"ADDRESS":"民生南街二段８１２巷２號","OBJECTID":240844},"geometry":{"x":176070.45000000019,"y":2539324.2899999991}},{"attributes":{"ID":240849,"DIS_CODE":0,"TOWNNAME":"歸仁區","LI":"南保里","LIN":"40鄰","STREET":"保興街","SECT":" ","MAREA":" ","LANE":"３６巷","ALLEY":" ","HOUSE_NO":"３號","E_COORD97":176539.01999999999,"N_COORD97":2541044.25,"ADDRESS":"保興街３６巷３號","OBJECTID":240845},"geometry":{"x":176539.01999999955,"y":2541044.25}},{"attributes":{"ID":240850,"DIS_CODE":0,"TOWNNAME":"歸仁區","LI":"六甲里","LIN":"40鄰","STREET":"民生南街","SECT":"二段","MAREA":" ","LANE":"８３８巷","ALLEY":" ","HOUSE_NO":"２２號","E_COORD97":176025.373731,"N_COORD97":2539317.92661,"ADDRESS":"民生南街二段８３８巷２２號","OBJECTID":240846},"geometry":{"x":176025.37373100128,"y":2539317.9266060032}},{"attributes":{"ID":240851,"DIS_CODE":0,"TOWNNAME":"北區","LI":"大道里","LIN":"13鄰","STREET":"北門路","SECT":"二段","MAREA":" ","LANE":"５２７巷","ALLEY":" ","HOUSE_NO":"１７號","E_COORD97":169525.20000000001,"N_COORD97":2545588.4500000002,"ADDRESS":"北門路二段５２７巷１７號","OBJECTID":240847},"geometry":{"x":169525.20000000019,"y":2545588.4500000011}},{"attributes":{"ID":240852,"DIS_CODE":0,"TOWNNAME":"北區","LI":"成德里","LIN":"40鄰","STREET":"育德二路","SECT":" ","MAREA":" ","LANE":"４２１巷","ALLEY":" ","HOUSE_NO":"１２號","E_COORD97":168202.17999999999,"N_COORD97":2546388.52,"ADDRESS":"育德二路４２１巷１２號","OBJECTID":240848},"geometry":{"x":168202.18000000063,"y":2546388.5199999996}},{"attributes":{"ID":240853,"DIS_CODE":0,"TOWNNAME":"北區","LI":"成德里","LIN":"40鄰","STREET":"育德二路","SECT":" ","MAREA":" ","LANE":"４２１巷","ALLEY":" ","HOUSE_NO":"１６號","E_COORD97":168197.73000000001,"N_COORD97":2546387.4100000001,"ADDRESS":"育德二路４２１巷１６號","OBJECTID":240849},"geometry":{"x":168197.73000000138,"y":2546387.4100000001}},{"attributes":{"ID":240854,"DIS_CODE":0,"TOWNNAME":"北區","LI":"成德里","LIN":"40鄰","STREET":"育德二路","SECT":" ","MAREA":" ","LANE":"４２１巷","ALLEY":" ","HOUSE_NO":"１８號","E_COORD97":168193.45000000001,"N_COORD97":2546386.1400000001,"ADDRESS":"育德二路４２１巷１８號","OBJECTID":240850},"geometry":{"x":168193.45000000205,"y":2546386.1400000006}},{"attributes":{"ID":240855,"DIS_CODE":0,"TOWNNAME":"佳里區","LI":"海澄里","LIN":"16鄰","STREET":" ","SECT":" ","MAREA":"番子寮","LANE":" ","ALLEY":" ","HOUSE_NO":"１２７號","E_COORD97":163876.53,"N_COORD97":2564621.2799999998,"ADDRESS":"番子寮１２７號","OBJECTID":240851},"geometry":{"x":163876.53000000026,"y":2564621.2799999993}},{"attributes":{"ID":240856,"DIS_CODE":0,"TOWNNAME":"北區","LI":"成德里","LIN":"40鄰","STREET":"育德二路","SECT":" ","MAREA":" ","LANE":"４２１巷","ALLEY":" ","HOUSE_NO":"２０號","E_COORD97":168189.16,"N_COORD97":2546385.0299999998,"ADDRESS":"育德二路４２１巷２０號","OBJECTID":240852},"geometry":{"x":168189.16000000108,"y":2546385.0299999993}},{"attributes":{"ID":240857,"DIS_CODE":0,"TOWNNAME":"永康區","LI":"崑山里","LIN":"40鄰","STREET":"崑山街","SECT":" ","MAREA":" ","LANE":"２２２巷","ALLEY":" ","HOUSE_NO":"２５號","E_COORD97":174216.16,"N_COORD97":2545017.1600000001,"ADDRESS":"崑山街２２２巷２５號","OBJECTID":240853},"geometry":{"x":174216.16000000015,"y":2545017.160000002}},{"attributes":{"ID":240858,"DIS_CODE":0,"TOWNNAME":"永康區","LI":"\u25A0洲里","LIN":"40鄰","STREET":"洲工街","SECT":" ","MAREA":" ","LANE":"１４５巷","ALLEY":" ","HOUSE_NO":"２２號","E_COORD97":170623.92999999999,"N_COORD97":2548651.25,"ADDRESS":"洲工街１４５巷２２號","OBJECTID":240854},"geometry":{"x":170623.92999999877,"y":2548651.2500000019}},{"attributes":{"ID":240859,"DIS_CODE":0,"TOWNNAME":"學甲區","LI":"新達里","LIN":"16鄰","STREET":" ","SECT":" ","MAREA":"山寮","LANE":" ","ALLEY":" ","HOUSE_NO":"４號之８","E_COORD97":167829.87,"N_COORD97":2570670.0699999998,"ADDRESS":"山寮４號之８","OBJECTID":240855},"geometry":{"x":167829.87000000104,"y":2570670.0700000022}},{"attributes":{"ID":240860,"DIS_CODE":0,"TOWNNAME":"北區","LI":" ","LIN":" ","STREET":"北門路","SECT":"二段","MAREA":" ","LANE":"５２７巷","ALLEY":" ","HOUSE_NO":"１５號","E_COORD97":169532.03,"N_COORD97":2545570.48,"ADDRESS":"北門路二段５２７巷１５號","OBJECTID":240856},"geometry":{"x":169532.03000000026,"y":2545570.4800000004}},{"attributes":{"ID":240861,"DIS_CODE":0,"TOWNNAME":"永康區","LI":"崑山里","LIN":"40鄰","STREET":"崑山街","SECT":" ","MAREA":" ","LANE":"２２２巷","ALLEY":" ","HOUSE_NO":"２３號","E_COORD97":174209.87,"N_COORD97":2545014.3999999999,"ADDRESS":"崑山街２２２巷２３號","OBJECTID":240857},"geometry":{"x":174209.87000000011,"y":2545014.4000000004}},{"attributes":{"ID":240862,"DIS_CODE":0,"TOWNNAME":"永康區","LI":"\u25A0洲里","LIN":"40鄰","STREET":"洲工街","SECT":" ","MAREA":" ","LANE":"１４５巷","ALLEY":" ","HOUSE_NO":"１８號","E_COORD97":170643.28,"N_COORD97":2548655.73,"ADDRESS":"洲工街１４５巷１８號","OBJECTID":240858},"geometry":{"x":170643.28000000119,"y":2548655.7300000023}},{"attributes":{"ID":240863,"DIS_CODE":0,"TOWNNAME":"永康區","LI":"\u25A0洲里","LIN":"40鄰","STREET":"洲工街","SECT":" ","MAREA":" ","LANE":"１４５巷","ALLEY":" ","HOUSE_NO":"２０號","E_COORD97":170637.32999999999,"N_COORD97":2548665,"ADDRESS":"洲工街１４５巷２０號","OBJECTID":240859},"geometry":{"x":170637.33000000101,"y":2548665}},{"attributes":{"ID":240864,"DIS_CODE":0,"TOWNNAME":"永康區","LI":"北灣里","LIN":"40鄰","STREET":"大同街","SECT":" ","MAREA":" ","LANE":"３６９巷","ALLEY":" ","HOUSE_NO":"３０號","E_COORD97":174652.64999999999,"N_COORD97":2546231.25,"ADDRESS":"大同街３６９巷３０號","OBJECTID":240860},"geometry":{"x":174652.65000000224,"y":2546231.2500000019}},{"attributes":{"ID":240865,"DIS_CODE":0,"TOWNNAME":"永康區","LI":"西灣里","LIN":"40鄰","STREET":"大勇路","SECT":" ","MAREA":" ","LANE":"２３巷","ALLEY":" ","HOUSE_NO":"１５號","E_COORD97":174155.89999999999,"N_COORD97":2545392.5099999998,"ADDRESS":"大勇路２３巷１５號","OBJECTID":240861},"geometry":{"x":174155.89999999944,"y":2545392.5099999998}},{"attributes":{"ID":240866,"DIS_CODE":0,"TOWNNAME":"永康區","LI":"西灣里","LIN":"40鄰","STREET":"大勇路","SECT":" ","MAREA":" ","LANE":"５巷","ALLEY":" ","HOUSE_NO":"１３號","E_COORD97":174147.47,"N_COORD97":2545349.2400000002,"ADDRESS":"大勇路５巷１３號","OBJECTID":240862},"geometry":{"x":174147.46999999974,"y":2545349.2400000021}},{"attributes":{"ID":240867,"DIS_CODE":0,"TOWNNAME":"北區","LI":"大道里","LIN":"10鄰","STREET":"北門路","SECT":"二段","MAREA":" ","LANE":"５２７巷","ALLEY":" ","HOUSE_NO":"１號","E_COORD97":169606.60999999999,"N_COORD97":2545628.52,"ADDRESS":"北門路二段５２７巷１號","OBJECTID":240863},"geometry":{"x":169606.61000000127,"y":2545628.5200000014}},{"attributes":{"ID":240868,"DIS_CODE":0,"TOWNNAME":"永康區","LI":"\u25A0洲里","LIN":"40鄰","STREET":"洲工街","SECT":" ","MAREA":" ","LANE":"１７５巷","ALLEY":" ","HOUSE_NO":"１號","E_COORD97":170718.73999999999,"N_COORD97":2548712.25,"ADDRESS":"洲工街１７５巷１號","OBJECTID":240864},"geometry":{"x":170718.74000000022,"y":2548712.2500000019}},{"attributes":{"ID":240869,"DIS_CODE":0,"TOWNNAME":"永康區","LI":"\u25A0洲里","LIN":"40鄰","STREET":"洲工街","SECT":" ","MAREA":" ","LANE":"１７５巷","ALLEY":" ","HOUSE_NO":"６號","E_COORD97":170738.62,"N_COORD97":2548725,"ADDRESS":"洲工街１７５巷６號","OBJECTID":240865},"geometry":{"x":170738.62000000104,"y":2548725.0000000019}},{"attributes":{"ID":240870,"DIS_CODE":0,"TOWNNAME":"佳里區","LI":"海澄里","LIN":"16鄰","STREET":" ","SECT":" ","MAREA":"番子寮","LANE":" ","ALLEY":" ","HOUSE_NO":"１２９號之１０","E_COORD97":163949.57999999999,"N_COORD97":2564595.5899999999,"ADDRESS":"番子寮１２９號之１０","OBJECTID":240866},"geometry":{"x":163949.58000000101,"y":2564595.5899999999}},{"attributes":{"ID":240871,"DIS_CODE":0,"TOWNNAME":"永康區","LI":"\u25A0洲里","LIN":"40鄰","STREET":"洲工街","SECT":" ","MAREA":" ","LANE":"１７５巷","ALLEY":" ","HOUSE_NO":"８號","E_COORD97":170730.26999999999,"N_COORD97":2548727,"ADDRESS":"洲工街１７５巷８號","OBJECTID":240867},"geometry":{"x":170730.27000000048,"y":2548727.0000000019}},{"attributes":{"ID":240872,"DIS_CODE":0,"TOWNNAME":"永康區","LI":"龍潭里","LIN":"40鄰","STREET":"永明街","SECT":" ","MAREA":" ","LANE":"３０２巷","ALLEY":" ","HOUSE_NO":"９號","E_COORD97":174544.53,"N_COORD97":2547125.4900000002,"ADDRESS":"永明街３０２巷９號","OBJECTID":240868},"geometry":{"x":174544.53000000026,"y":2547125.4900000002}},{"attributes":{"ID":240873,"DIS_CODE":0,"TOWNNAME":"永康區","LI":"\u25A0洲里","LIN":"40鄰","STREET":"正南六街","SECT":" ","MAREA":" ","LANE":"１０５巷","ALLEY":" ","HOUSE_NO":"５號","E_COORD97":170811.01999999999,"N_COORD97":2548622.3300000001,"ADDRESS":"正南六街１０５巷５號","OBJECTID":240869},"geometry":{"x":170811.01999999955,"y":2548622.3300000001}},{"attributes":{"ID":240874,"DIS_CODE":0,"TOWNNAME":"仁德區","LI":"仁義里","LIN":"40鄰","STREET":"中正路","SECT":"二段","MAREA":" ","LANE":"８６２巷","ALLEY":" ","HOUSE_NO":"２８號","E_COORD97":173557.51000000001,"N_COORD97":2540503.2999999998,"ADDRESS":"中正路二段８６２巷２８號","OBJECTID":240870},"geometry":{"x":173557.50999999978,"y":2540503.3000000007}},{"attributes":{"ID":240875,"DIS_CODE":0,"TOWNNAME":"仁德區","LI":"仁義里","LIN":"40鄰","STREET":"中正路","SECT":"二段","MAREA":" ","LANE":"８６２巷","ALLEY":" ","HOUSE_NO":"３２號","E_COORD97":173548.84,"N_COORD97":2540501.7999999998,"ADDRESS":"中正路二段８６２巷３２號","OBJECTID":240871},"geometry":{"x":173548.83999999985,"y":2540501.8000000026}},{"attributes":{"ID":240876,"DIS_CODE":0,"TOWNNAME":"永康區","LI":"\u25A0洲里","LIN":"40鄰","STREET":"國聖街","SECT":" ","MAREA":" ","LANE":"２９３巷","ALLEY":" ","HOUSE_NO":"６號","E_COORD97":171013.75,"N_COORD97":2548632.7400000002,"ADDRESS":"國聖街２９３巷６號","OBJECTID":240872},"geometry":{"x":171013.75000000186,"y":2548632.7400000002}},{"attributes":{"ID":240877,"DIS_CODE":0,"TOWNNAME":"佳里區","LI":"海澄里","LIN":"16鄰","STREET":" ","SECT":" ","MAREA":"番子寮","LANE":" ","ALLEY":" ","HOUSE_NO":"１２９號之１１","E_COORD97":163949.95999999999,"N_COORD97":2564591.1200000001,"ADDRESS":"番子寮１２９號之１１","OBJECTID":240873},"geometry":{"x":163949.95999999996,"y":2564591.1200000029}},{"attributes":{"ID":240878,"DIS_CODE":0,"TOWNNAME":"仁德區","LI":"太子里","LIN":"40鄰","STREET":"太子路","SECT":" ","MAREA":" ","LANE":"６６巷","ALLEY":" ","HOUSE_NO":"１６號","E_COORD97":175266.17999999999,"N_COORD97":2543705.75,"ADDRESS":"太子路６６巷１６號","OBJECTID":240874},"geometry":{"x":175266.18000000063,"y":2543705.75}},{"attributes":{"ID":240879,"DIS_CODE":0,"TOWNNAME":"佳里區","LI":"海澄里","LIN":"16鄰","STREET":" ","SECT":" ","MAREA":"番子寮","LANE":" ","ALLEY":" ","HOUSE_NO":"１２９號之６","E_COORD97":163949.57000000001,"N_COORD97":2564613.6099999999,"ADDRESS":"番子寮１２９號之６","OBJECTID":240875},"geometry":{"x":163949.5700000003,"y":2564613.6100000013}},{"attributes":{"ID":240880,"DIS_CODE":0,"TOWNNAME":"佳里區","LI":"海澄里","LIN":"16鄰","STREET":" ","SECT":" ","MAREA":"番子寮","LANE":" ","ALLEY":" ","HOUSE_NO":"１２９號之７","E_COORD97":163949.53,"N_COORD97":2564609.1000000001,"ADDRESS":"番子寮１２９號之７","OBJECTID":240876},"geometry":{"x":163949.53000000026,"y":2564609.0999999996}},{"attributes":{"ID":240881,"DIS_CODE":0,"TOWNNAME":"佳里區","LI":"海澄里","LIN":"16鄰","STREET":" ","SECT":" ","MAREA":"番子寮","LANE":" ","ALLEY":" ","HOUSE_NO":"１２９號之８","E_COORD97":163949.5,"N_COORD97":2564604.73,"ADDRESS":"番子寮１２９號之８","OBJECTID":240877},"geometry":{"x":163949.5,"y":2564604.7300000004}},{"attributes":{"ID":240882,"DIS_CODE":0,"TOWNNAME":"佳里區","LI":"海澄里","LIN":"16鄰","STREET":" ","SECT":" ","MAREA":"番子寮","LANE":" ","ALLEY":" ","HOUSE_NO":"１２９號之９","E_COORD97":163949.60999999999,"N_COORD97":2564600.4500000002,"ADDRESS":"番子寮１２９號之９","OBJECTID":240878},"geometry":{"x":163949.6100000022,"y":2564600.4500000011}},{"attributes":{"ID":240883,"DIS_CODE":0,"TOWNNAME":"仁德區","LI":"太子里","LIN":"40鄰","STREET":"太子路","SECT":" ","MAREA":" ","LANE":"６６巷","ALLEY":" ","HOUSE_NO":"３２號","E_COORD97":175258.20000000001,"N_COORD97":2543736.7599999998,"ADDRESS":"太子路６６巷３２號","OBJECTID":240879},"geometry":{"x":175258.20000000019,"y":2543736.7599999998}},{"attributes":{"ID":240884,"DIS_CODE":0,"TOWNNAME":"學甲區","LI":"大灣里","LIN":"16鄰","STREET":" ","SECT":" ","MAREA":"大灣","LANE":" ","ALLEY":" ","HOUSE_NO":"１６１號","E_COORD97":166666.39000000001,"N_COORD97":2567621.6200000001,"ADDRESS":"大灣１６１號","OBJECTID":240880},"geometry":{"x":166666.3900000006,"y":2567621.6200000048}},{"attributes":{"ID":240885,"DIS_CODE":0,"TOWNNAME":"學甲區","LI":"大灣里","LIN":"16鄰","STREET":" ","SECT":" ","MAREA":"大灣","LANE":" ","ALLEY":" ","HOUSE_NO":"１６２號","E_COORD97":166665.42999999999,"N_COORD97":2567610.8500000001,"ADDRESS":"大灣１６２號","OBJECTID":240881},"geometry":{"x":166665.4299999997,"y":2567610.8499999996}},{"attributes":{"ID":240886,"DIS_CODE":0,"TOWNNAME":"學甲區","LI":"大灣里","LIN":"16鄰","STREET":" ","SECT":" ","MAREA":"大灣","LANE":" ","ALLEY":" ","HOUSE_NO":"１６４號之１","E_COORD97":166634.07999999999,"N_COORD97":2567610.7400000002,"ADDRESS":"大灣１６４號之１","OBJECTID":240882},"geometry":{"x":166634.08000000007,"y":2567610.7400000021}},{"attributes":{"ID":240887,"DIS_CODE":0,"TOWNNAME":"學甲區","LI":"大灣里","LIN":"16鄰","STREET":" ","SECT":" ","MAREA":"大灣","LANE":" ","ALLEY":" ","HOUSE_NO":"１６５號","E_COORD97":166609.01000000001,"N_COORD97":2567611.04,"ADDRESS":"大灣１６５號","OBJECTID":240883},"geometry":{"x":166609.00999999978,"y":2567611.040000001}},{"attributes":{"ID":240888,"DIS_CODE":0,"TOWNNAME":"學甲區","LI":"大灣里","LIN":"16鄰","STREET":" ","SECT":" ","MAREA":"大灣","LANE":" ","ALLEY":" ","HOUSE_NO":"１６６號之１","E_COORD97":166652.98000000001,"N_COORD97":2567607.25,"ADDRESS":"大灣１６６號之１","OBJECTID":240884},"geometry":{"x":166652.98000000138,"y":2567607.2500000019}},{"attributes":{"ID":240889,"DIS_CODE":0,"TOWNNAME":"學甲區","LI":"大灣里","LIN":"16鄰","STREET":" ","SECT":" ","MAREA":"大灣","LANE":" ","ALLEY":" ","HOUSE_NO":"１６６號之２","E_COORD97":166575.62,"N_COORD97":2567583.77,"ADDRESS":"大灣１６６號之２","OBJECTID":240885},"geometry":{"x":166575.62000000104,"y":2567583.7699999996}},{"attributes":{"ID":240890,"DIS_CODE":0,"TOWNNAME":"學甲區","LI":"大灣里","LIN":"16鄰","STREET":" ","SECT":" ","MAREA":"大灣","LANE":" ","ALLEY":" ","HOUSE_NO":"１６７號","E_COORD97":166615.79999999999,"N_COORD97":2567633.4100000001,"ADDRESS":"大灣１６７號","OBJECTID":240886},"geometry":{"x":166615.79999999888,"y":2567633.410000002}},{"attributes":{"ID":240891,"DIS_CODE":0,"TOWNNAME":"學甲區","LI":"大灣里","LIN":"16鄰","STREET":" ","SECT":" ","MAREA":"大灣","LANE":" ","ALLEY":" ","HOUSE_NO":"１６８號","E_COORD97":166589.64999999999,"N_COORD97":2567624.6000000001,"ADDRESS":"大灣１６８號","OBJECTID":240887},"geometry":{"x":166589.65000000037,"y":2567624.6000000015}},{"attributes":{"ID":240892,"DIS_CODE":0,"TOWNNAME":"學甲區","LI":"中洲里","LIN":"16鄰","STREET":" ","SECT":" ","MAREA":"中洲","LANE":" ","ALLEY":" ","HOUSE_NO":"１６３號之１","E_COORD97":163551.19,"N_COORD97":2571005.0299999998,"ADDRESS":"中洲１６３號之１","OBJECTID":240888},"geometry":{"x":163551.19000000134,"y":2571005.0300000012}},{"attributes":{"ID":240893,"DIS_CODE":0,"TOWNNAME":"學甲區","LI":"中洲里","LIN":"16鄰","STREET":" ","SECT":" ","MAREA":"中洲","LANE":" ","ALLEY":" ","HOUSE_NO":"１６３號之４","E_COORD97":163526.59,"N_COORD97":2570979.8599999999,"ADDRESS":"中洲１６３號之４","OBJECTID":240889},"geometry":{"x":163526.58999999985,"y":2570979.8599999994}},{"attributes":{"ID":240894,"DIS_CODE":0,"TOWNNAME":"學甲區","LI":"中洲里","LIN":"16鄰","STREET":" ","SECT":" ","MAREA":"中洲","LANE":" ","ALLEY":" ","HOUSE_NO":"１６３號之８","E_COORD97":163513.85999999999,"N_COORD97":2571070.3399999999,"ADDRESS":"中洲１６３號之８","OBJECTID":240890},"geometry":{"x":163513.8600000022,"y":2571070.3400000036}},{"attributes":{"ID":240895,"DIS_CODE":0,"TOWNNAME":"學甲區","LI":"中洲里","LIN":"16鄰","STREET":" ","SECT":" ","MAREA":"中洲","LANE":" ","ALLEY":" ","HOUSE_NO":"１６４號之２","E_COORD97":163613.89999999999,"N_COORD97":2570983.8300000001,"ADDRESS":"中洲１６４號之２","OBJECTID":240891},"geometry":{"x":163613.9000000013,"y":2570983.8300000019}},{"attributes":{"ID":240896,"DIS_CODE":0,"TOWNNAME":"學甲區","LI":"中洲里","LIN":"16鄰","STREET":" ","SECT":" ","MAREA":"中洲","LANE":" ","ALLEY":" ","HOUSE_NO":"１６４號","E_COORD97":163590.26000000001,"N_COORD97":2570978.0699999998,"ADDRESS":"中洲１６４號","OBJECTID":240892},"geometry":{"x":163590.26000000164,"y":2570978.0700000022}},{"attributes":{"ID":240897,"DIS_CODE":0,"TOWNNAME":"學甲區","LI":"中洲里","LIN":"16鄰","STREET":" ","SECT":" ","MAREA":"中洲","LANE":" ","ALLEY":" ","HOUSE_NO":"１６５號","E_COORD97":163591.51000000001,"N_COORD97":2570968.8100000001,"ADDRESS":"中洲１６５號","OBJECTID":240893},"geometry":{"x":163591.50999999978,"y":2570968.8100000005}},{"attributes":{"ID":240898,"DIS_CODE":0,"TOWNNAME":"學甲區","LI":"中洲里","LIN":"16鄰","STREET":" ","SECT":" ","MAREA":"中洲","LANE":" ","ALLEY":" ","HOUSE_NO":"１６６號","E_COORD97":163582.31,"N_COORD97":2570961.79,"ADDRESS":"中洲１６６號","OBJECTID":240894},"geometry":{"x":163582.30999999959,"y":2570961.790000001}},{"attributes":{"ID":240899,"DIS_CODE":0,"TOWNNAME":"學甲區","LI":"中洲里","LIN":"16鄰","STREET":" ","SECT":" ","MAREA":"中洲","LANE":" ","ALLEY":" ","HOUSE_NO":"１６７號","E_COORD97":163588.84,"N_COORD97":2570945.7599999998,"ADDRESS":"中洲１６７號","OBJECTID":240895},"geometry":{"x":163588.84000000078,"y":2570945.7600000016}},{"attributes":{"ID":240900,"DIS_CODE":0,"TOWNNAME":"南區","LI":"府南里","LIN":"11鄰","STREET":"永成路","SECT":"三段","MAREA":" ","LANE":"４３２巷","ALLEY":" ","HOUSE_NO":"１０號","E_COORD97":167545.344098,"N_COORD97":2541097.0435199998,"ADDRESS":"永成路三段４３２巷１０號","OBJECTID":240896},"geometry":{"x":167545.34409799986,"y":2541097.0435240027}},{"attributes":{"ID":240901,"DIS_CODE":0,"TOWNNAME":"學甲區","LI":"中洲里","LIN":"16鄰","STREET":" ","SECT":" ","MAREA":"中洲","LANE":" ","ALLEY":" ","HOUSE_NO":"１６８號","E_COORD97":163589.67000000001,"N_COORD97":2570925.9300000002,"ADDRESS":"中洲１６８號","OBJECTID":240897},"geometry":{"x":163589.67000000086,"y":2570925.9299999997}},{"attributes":{"ID":240902,"DIS_CODE":0,"TOWNNAME":"學甲區","LI":"中洲里","LIN":"16鄰","STREET":" ","SECT":" ","MAREA":"中洲","LANE":" ","ALLEY":" ","HOUSE_NO":"１６９號之１","E_COORD97":163602.51000000001,"N_COORD97":2570897.6200000001,"ADDRESS":"中洲１６９號之１","OBJECTID":240898},"geometry":{"x":163602.51000000071,"y":2570897.6200000029}},{"attributes":{"ID":240903,"DIS_CODE":0,"TOWNNAME":"學甲區","LI":"中洲里","LIN":"16鄰","STREET":" ","SECT":" ","MAREA":"中洲","LANE":" ","ALLEY":" ","HOUSE_NO":"１６９號","E_COORD97":163590.79000000001,"N_COORD97":2570903.3900000001,"ADDRESS":"中洲１６９號","OBJECTID":240899},"geometry":{"x":163590.79000000097,"y":2570903.3900000006}},{"attributes":{"ID":240904,"DIS_CODE":0,"TOWNNAME":"學甲區","LI":"中洲里","LIN":"16鄰","STREET":" ","SECT":" ","MAREA":"中洲","LANE":" ","ALLEY":" ","HOUSE_NO":"１７０號","E_COORD97":163574.07999999999,"N_COORD97":2570911.2599999998,"ADDRESS":"中洲１７０號","OBJECTID":240900},"geometry":{"x":163574.08000000007,"y":2570911.2600000035}},{"attributes":{"ID":240905,"DIS_CODE":0,"TOWNNAME":"學甲區","LI":"中洲里","LIN":"16鄰","STREET":" ","SECT":" ","MAREA":"中洲","LANE":" ","ALLEY":" ","HOUSE_NO":"１７２號","E_COORD97":163568.32999999999,"N_COORD97":2570940.8300000001,"ADDRESS":"中洲１７２號","OBJECTID":240901},"geometry":{"x":163568.33000000101,"y":2570940.8300000001}},{"attributes":{"ID":240906,"DIS_CODE":0,"TOWNNAME":"學甲區","LI":"中洲里","LIN":"16鄰","STREET":" ","SECT":" ","MAREA":"中洲","LANE":" ","ALLEY":" ","HOUSE_NO":"１７３號","E_COORD97":163567.85000000001,"N_COORD97":2570966.5600000001,"ADDRESS":"中洲１７３號","OBJECTID":240902},"geometry":{"x":163567.85000000056,"y":2570966.5600000005}},{"attributes":{"ID":240907,"DIS_CODE":0,"TOWNNAME":"學甲區","LI":"光華里","LIN":"16鄰","STREET":" ","SECT":" ","MAREA":"中洲","LANE":" ","ALLEY":" ","HOUSE_NO":"６２２號之６","E_COORD97":164411.87,"N_COORD97":2571506.1800000002,"ADDRESS":"中洲６２２號之６","OBJECTID":240903},"geometry":{"x":164411.86999999918,"y":2571506.1800000016}},{"attributes":{"ID":240908,"DIS_CODE":0,"TOWNNAME":"學甲區","LI":"光華里","LIN":"16鄰","STREET":" ","SECT":" ","MAREA":"中洲","LANE":" ","ALLEY":" ","HOUSE_NO":"６２２號","E_COORD97":164347.32000000001,"N_COORD97":2571499.6200000001,"ADDRESS":"中洲６２２號","OBJECTID":240904},"geometry":{"x":164347.3200000003,"y":2571499.620000001}},{"attributes":{"ID":240909,"DIS_CODE":0,"TOWNNAME":"學甲區","LI":"光華里","LIN":"16鄰","STREET":" ","SECT":" ","MAREA":"中洲","LANE":" ","ALLEY":" ","HOUSE_NO":"６２３號","E_COORD97":164278.97,"N_COORD97":2571480.1499999999,"ADDRESS":"中洲６２３號","OBJECTID":240905},"geometry":{"x":164278.97000000067,"y":2571480.1500000022}},{"attributes":{"ID":240910,"DIS_CODE":0,"TOWNNAME":"學甲區","LI":"光華里","LIN":"16鄰","STREET":" ","SECT":" ","MAREA":"中洲","LANE":" ","ALLEY":" ","HOUSE_NO":"６２５號之１","E_COORD97":164263.14000000001,"N_COORD97":2571530.73,"ADDRESS":"中洲６２５號之１","OBJECTID":240906},"geometry":{"x":164263.13999999966,"y":2571530.7300000023}},{"attributes":{"ID":240911,"DIS_CODE":0,"TOWNNAME":"學甲區","LI":"光華里","LIN":"16鄰","STREET":" ","SECT":" ","MAREA":"中洲","LANE":" ","ALLEY":" ","HOUSE_NO":"６２５號之２","E_COORD97":164258.07999999999,"N_COORD97":2571532.3300000001,"ADDRESS":"中洲６２５號之２","OBJECTID":240907},"geometry":{"x":164258.08000000194,"y":2571532.3300000019}},{"attributes":{"ID":240912,"DIS_CODE":0,"TOWNNAME":"學甲區","LI":"光華里","LIN":"16鄰","STREET":" ","SECT":" ","MAREA":"中洲","LANE":" ","ALLEY":" ","HOUSE_NO":"６２５號之３","E_COORD97":164246.35000000001,"N_COORD97":2571535.1299999999,"ADDRESS":"中洲６２５號之３","OBJECTID":240908},"geometry":{"x":164246.34999999963,"y":2571535.1300000027}},{"attributes":{"ID":240913,"DIS_CODE":0,"TOWNNAME":"學甲區","LI":"光華里","LIN":"16鄰","STREET":" ","SECT":" ","MAREA":"中洲","LANE":" ","ALLEY":" ","HOUSE_NO":"６２６號之１","E_COORD97":164254.01000000001,"N_COORD97":2571584.79,"ADDRESS":"中洲６２６號之１","OBJECTID":240909},"geometry":{"x":164254.00999999978,"y":2571584.7899999991}},{"attributes":{"ID":240914,"DIS_CODE":0,"TOWNNAME":"學甲區","LI":"光華里","LIN":"16鄰","STREET":" ","SECT":" ","MAREA":"中洲","LANE":" ","ALLEY":" ","HOUSE_NO":"６２７號","E_COORD97":164262.84,"N_COORD97":2571614.4700000002,"ADDRESS":"中洲６２７號","OBJECTID":240910},"geometry":{"x":164262.84000000171,"y":2571614.4700000007}},{"attributes":{"ID":240915,"DIS_CODE":0,"TOWNNAME":"學甲區","LI":"光華里","LIN":"16鄰","STREET":" ","SECT":" ","MAREA":"中洲","LANE":" ","ALLEY":" ","HOUSE_NO":"６２９號之６","E_COORD97":164379.14999999999,"N_COORD97":2571658.46,"ADDRESS":"中洲６２９號之６","OBJECTID":240911},"geometry":{"x":164379.15000000037,"y":2571658.4600000028}},{"attributes":{"ID":240916,"DIS_CODE":0,"TOWNNAME":"學甲區","LI":"光華里","LIN":"16鄰","STREET":" ","SECT":" ","MAREA":"中洲","LANE":" ","ALLEY":" ","HOUSE_NO":"６２９號之８","E_COORD97":164428.47,"N_COORD97":2571648.8999999999,"ADDRESS":"中洲６２９號之８","OBJECTID":240912},"geometry":{"x":164428.47000000067,"y":2571648.9000000004}},{"attributes":{"ID":240917,"DIS_CODE":0,"TOWNNAME":"學甲區","LI":"光華里","LIN":"16鄰","STREET":" ","SECT":" ","MAREA":"中洲","LANE":" ","ALLEY":" ","HOUSE_NO":"６２９號","E_COORD97":164305.67000000001,"N_COORD97":2571645.4399999999,"ADDRESS":"中洲６２９號","OBJECTID":240913},"geometry":{"x":164305.66999999993,"y":2571645.4400000032}},{"attributes":{"ID":240918,"DIS_CODE":0,"TOWNNAME":"歸仁區","LI":"崙頂里","LIN":"16鄰","STREET":"崙頂街","SECT":" ","MAREA":" ","LANE":"１７巷","ALLEY":" ","HOUSE_NO":"２１號","E_COORD97":177919.13,"N_COORD97":2540060.25,"ADDRESS":"崙頂街１７巷２１號","OBJECTID":240914},"geometry":{"x":177919.13000000082,"y":2540060.2500000019}},{"attributes":{"ID":240919,"DIS_CODE":0,"TOWNNAME":"歸仁區","LI":"崙頂里","LIN":"16鄰","STREET":"崙頂一街","SECT":" ","MAREA":" ","LANE":"２３巷","ALLEY":" ","HOUSE_NO":"６號","E_COORD97":177961.07000000001,"N_COORD97":2540006.6800000002,"ADDRESS":"崙頂一街２３巷６號","OBJECTID":240915},"geometry":{"x":177961.07000000123,"y":2540006.6800000016}},{"attributes":{"ID":240920,"DIS_CODE":0,"TOWNNAME":"歸仁區","LI":"崙頂里","LIN":"16鄰","STREET":"崙頂一街","SECT":" ","MAREA":" ","LANE":"２３巷","ALLEY":" ","HOUSE_NO":"１３號","E_COORD97":177944.78,"N_COORD97":2540020.25,"ADDRESS":"崙頂一街２３巷１３號","OBJECTID":240916},"geometry":{"x":177944.78000000026,"y":2540020.25}},{"attributes":{"ID":240921,"DIS_CODE":0,"TOWNNAME":"仁德區","LI":"太子里","LIN":"40鄰","STREET":"太子路","SECT":" ","MAREA":" ","LANE":"６６巷","ALLEY":" ","HOUSE_NO":"３４號","E_COORD97":175279.67999999999,"N_COORD97":2543731.5099999998,"ADDRESS":"太子路６６巷３４號","OBJECTID":240917},"geometry":{"x":175279.68000000063,"y":2543731.5099999998}},{"attributes":{"ID":240922,"DIS_CODE":0,"TOWNNAME":"永康區","LI":"\u25A0行里","LIN":"40鄰","STREET":"永安路","SECT":" ","MAREA":" ","LANE":"１０５巷","ALLEY":" ","HOUSE_NO":"３６號","E_COORD97":172644.60999999999,"N_COORD97":2549298.7000000002,"ADDRESS":"永安路１０５巷３６號","OBJECTID":240918},"geometry":{"x":172644.61000000127,"y":2549298.7000000011}},{"attributes":{"ID":240923,"DIS_CODE":0,"TOWNNAME":"永康區","LI":"\u25A0行里","LIN":"40鄰","STREET":"永安路","SECT":" ","MAREA":" ","LANE":"１０５巷","ALLEY":" ","HOUSE_NO":"２６號","E_COORD97":172667.35999999999,"N_COORD97":2549298.9500000002,"ADDRESS":"永安路１０５巷２６號","OBJECTID":240919},"geometry":{"x":172667.36000000034,"y":2549298.9499999993}},{"attributes":{"ID":240924,"DIS_CODE":0,"TOWNNAME":"永康區","LI":"\u25A0行里","LIN":"40鄰","STREET":"永安路","SECT":" ","MAREA":" ","LANE":"１０５巷","ALLEY":" ","HOUSE_NO":"５０號","E_COORD97":172572.88,"N_COORD97":2549294.6099999999,"ADDRESS":"永安路１０５巷５０號","OBJECTID":240920},"geometry":{"x":172572.88000000082,"y":2549294.6099999994}},{"attributes":{"ID":240925,"DIS_CODE":0,"TOWNNAME":"永康區","LI":"\u25A0行里","LIN":"40鄰","STREET":"永安路","SECT":" ","MAREA":" ","LANE":"１０５巷","ALLEY":" ","HOUSE_NO":"３０號","E_COORD97":172657.85999999999,"N_COORD97":2549298.9500000002,"ADDRESS":"永安路１０５巷３０號","OBJECTID":240921},"geometry":{"x":172657.86000000127,"y":2549298.9499999993}},{"attributes":{"ID":240926,"DIS_CODE":0,"TOWNNAME":"東區","LI":"崇德里","LIN":"14鄰","STREET":"崇明路","SECT":" ","MAREA":" ","LANE":" ","ALLEY":" ","HOUSE_NO":"４７９號四樓","E_COORD97":170540.07999999999,"N_COORD97":2541473.7599999998,"ADDRESS":"崇明路４７９號四樓","OBJECTID":240922},"geometry":{"x":170540.08000000007,"y":2541473.7600000016}},{"attributes":{"ID":240927,"DIS_CODE":0,"TOWNNAME":"東區","LI":"崇德里","LIN":"14鄰","STREET":"崇明路","SECT":" ","MAREA":" ","LANE":" ","ALLEY":" ","HOUSE_NO":"４７９號四樓之１","E_COORD97":170540.07999999999,"N_COORD97":2541473.7599999998,"ADDRESS":"崇明路４７９號四樓之１","OBJECTID":240923},"geometry":{"x":170540.08000000007,"y":2541473.7600000016}},{"attributes":{"ID":240928,"DIS_CODE":0,"TOWNNAME":"東區","LI":"崇德里","LIN":"14鄰","STREET":"崇明路","SECT":" ","MAREA":" ","LANE":" ","ALLEY":" ","HOUSE_NO":"４７３號三樓之１","E_COORD97":170534.31,"N_COORD97":2541488.1800000002,"ADDRESS":"崇明路４７３號三樓之１","OBJECTID":240924},"geometry":{"x":170534.30999999959,"y":2541488.1800000016}},{"attributes":{"ID":240929,"DIS_CODE":0,"TOWNNAME":"東區","LI":"裕農里","LIN":"14鄰","STREET":"裕豐街","SECT":" ","MAREA":" ","LANE":"２１４巷","ALLEY":" ","HOUSE_NO":"５號","E_COORD97":170829.32000000001,"N_COORD97":2543181.6899999999,"ADDRESS":"裕豐街２１４巷５號","OBJECTID":240925},"geometry":{"x":170829.32000000123,"y":2543181.6900000032}},{"attributes":{"ID":240930,"DIS_CODE":0,"TOWNNAME":"東區","LI":"裕農里","LIN":"14鄰","STREET":"裕豐街","SECT":" ","MAREA":" ","LANE":"２１４巷","ALLEY":" ","HOUSE_NO":"７號","E_COORD97":170835.07999999999,"N_COORD97":2543183.2400000002,"ADDRESS":"裕豐街２１４巷７號","OBJECTID":240926},"geometry":{"x":170835.08000000007,"y":2543183.2400000021}},{"attributes":{"ID":240931,"DIS_CODE":0,"TOWNNAME":"東區","LI":"崇德里","LIN":"8鄰","STREET":"崇德七街","SECT":" ","MAREA":" ","LANE":"２０巷","ALLEY":" ","HOUSE_NO":"３４號","E_COORD97":170888,"N_COORD97":2541684.7000000002,"ADDRESS":"崇德七街２０巷３４號","OBJECTID":240927},"geometry":{"x":170888,"y":2541684.6999999993}},{"attributes":{"ID":240932,"DIS_CODE":0,"TOWNNAME":"東區","LI":"崇德里","LIN":"8鄰","STREET":"崇德七街","SECT":" ","MAREA":" ","LANE":"２０巷","ALLEY":" ","HOUSE_NO":"３０號","E_COORD97":170872.42999999999,"N_COORD97":2541683.27,"ADDRESS":"崇德七街２０巷３０號","OBJECTID":240928},"geometry":{"x":170872.4299999997,"y":2541683.2700000014}},{"attributes":{"ID":240933,"DIS_CODE":0,"TOWNNAME":"東區","LI":"崇德里","LIN":"8鄰","STREET":"崇德七街","SECT":" ","MAREA":" ","LANE":"２０巷","ALLEY":" ","HOUSE_NO":"３２號","E_COORD97":170881.39999999999,"N_COORD97":2541706.0699999998,"ADDRESS":"崇德七街２０巷３２號","OBJECTID":240929},"geometry":{"x":170881.4000000013,"y":2541706.0700000022}},{"attributes":{"ID":240934,"DIS_CODE":0,"TOWNNAME":"東區","LI":"崇德里","LIN":"8鄰","STREET":"崇德七街","SECT":" ","MAREA":" ","LANE":"２０巷","ALLEY":" ","HOUSE_NO":"２８號","E_COORD97":170866.51999999999,"N_COORD97":2541705.4700000002,"ADDRESS":"崇德七街２０巷２８號","OBJECTID":240930},"geometry":{"x":170866.51999999955,"y":2541705.4700000007}},{"attributes":{"ID":240935,"DIS_CODE":0,"TOWNNAME":"永康區","LI":"\u25A0行里","LIN":"40鄰","STREET":"永安路","SECT":" ","MAREA":" ","LANE":"１０５巷","ALLEY":" ","HOUSE_NO":"１２號","E_COORD97":172698.14000000001,"N_COORD97":2549300.2000000002,"ADDRESS":"永安路１０５巷１２號","OBJECTID":240931},"geometry":{"x":172698.1400000006,"y":2549300.1999999993}},{"attributes":{"ID":240936,"DIS_CODE":0,"TOWNNAME":"永康區","LI":"\u25A0洲里","LIN":"40鄰","STREET":"國聖街","SECT":" ","MAREA":" ","LANE":"２９３巷","ALLEY":" ","HOUSE_NO":"２號","E_COORD97":171020.17999999999,"N_COORD97":2548628.5,"ADDRESS":"國聖街２９３巷２號","OBJECTID":240932},"geometry":{"x":171020.1799999997,"y":2548628.5000000037}},{"attributes":{"ID":240937,"DIS_CODE":0,"TOWNNAME":"永康區","LI":"\u25A0洲里","LIN":"40鄰","STREET":"洲尾街","SECT":" ","MAREA":" ","LANE":"１１５巷","ALLEY":" ","HOUSE_NO":"２２號","E_COORD97":170910.73000000001,"N_COORD97":2548658,"ADDRESS":"洲尾街１１５巷２２號","OBJECTID":240933},"geometry":{"x":170910.73000000045,"y":2548658}},{"attributes":{"ID":240938,"DIS_CODE":0,"TOWNNAME":"仁德區","LI":"太子里","LIN":"40鄰","STREET":"太子路","SECT":" ","MAREA":" ","LANE":"２８巷","ALLEY":" ","HOUSE_NO":"３３之１號","E_COORD97":175349.34,"N_COORD97":2543709.04,"ADDRESS":"太子路２８巷３３之１號","OBJECTID":240934},"geometry":{"x":175349.34000000171,"y":2543709.040000001}},{"attributes":{"ID":240939,"DIS_CODE":0,"TOWNNAME":"仁德區","LI":"太子里","LIN":"40鄰","STREET":"太子路","SECT":" ","MAREA":" ","LANE":"２８巷","ALLEY":" ","HOUSE_NO":"２９號","E_COORD97":175342.20999999999,"N_COORD97":2543688.5,"ADDRESS":"太子路２８巷２９號","OBJECTID":240935},"geometry":{"x":175342.21000000089,"y":2543688.5000000037}},{"attributes":{"ID":240940,"DIS_CODE":0,"TOWNNAME":"仁德區","LI":"太子里","LIN":"40鄰","STREET":"太子路","SECT":" ","MAREA":" ","LANE":"６６巷","ALLEY":" ","HOUSE_NO":"２６號","E_COORD97":175265.31,"N_COORD97":2543724.5099999998,"ADDRESS":"太子路６６巷２６號","OBJECTID":240936},"geometry":{"x":175265.30999999959,"y":2543724.5099999998}},{"attributes":{"ID":240941,"DIS_CODE":0,"TOWNNAME":"仁德區","LI":"太子里","LIN":"40鄰","STREET":"太子路","SECT":" ","MAREA":" ","LANE":"６６巷","ALLEY":" ","HOUSE_NO":"３８號","E_COORD97":175284.51000000001,"N_COORD97":2543755.7599999998,"ADDRESS":"太子路６６巷３８號","OBJECTID":240937},"geometry":{"x":175284.50999999978,"y":2543755.7600000016}},{"attributes":{"ID":240942,"DIS_CODE":0,"TOWNNAME":"仁德區","LI":"太子里","LIN":"40鄰","STREET":"太子路","SECT":" ","MAREA":" ","LANE":"６６巷","ALLEY":" ","HOUSE_NO":"３６號","E_COORD97":175301.64000000001,"N_COORD97":2543738.7599999998,"ADDRESS":"太子路６６巷３６號","OBJECTID":240938},"geometry":{"x":175301.6400000006,"y":2543738.7600000016}},{"attributes":{"ID":240943,"DIS_CODE":0,"TOWNNAME":"仁德區","LI":"太子里","LIN":"40鄰","STREET":"太子路","SECT":" ","MAREA":" ","LANE":"２８巷","ALLEY":" ","HOUSE_NO":"５４號","E_COORD97":175335.32000000001,"N_COORD97":2543775,"ADDRESS":"太子路２８巷５４號","OBJECTID":240939},"geometry":{"x":175335.32000000123,"y":2543775.0000000019}},{"attributes":{"ID":240944,"DIS_CODE":0,"TOWNNAME":"新市區","LI":"新和里","LIN":"40鄰","STREET":"勝利街","SECT":" ","MAREA":" ","LANE":"３５巷","ALLEY":" ","HOUSE_NO":"６號","E_COORD97":177299.10000000001,"N_COORD97":2552919.2599999998,"ADDRESS":"勝利街３５巷６號","OBJECTID":240940},"geometry":{"x":177299.10000000056,"y":2552919.2600000016}},{"attributes":{"ID":240945,"DIS_CODE":0,"TOWNNAME":"永康區","LI":"北灣里","LIN":"40鄰","STREET":"大同街","SECT":" ","MAREA":" ","LANE":"４１３巷","ALLEY":" ","HOUSE_NO":"２６號","E_COORD97":174607.89000000001,"N_COORD97":2546192.8900000001,"ADDRESS":"大同街４１３巷２６號","OBJECTID":240941},"geometry":{"x":174607.89000000153,"y":2546192.8900000025}},{"attributes":{"ID":240946,"DIS_CODE":0,"TOWNNAME":"北區","LI":"大道里","LIN":"18鄰","STREET":"北門路","SECT":"二段","MAREA":" ","LANE":"５４７巷","ALLEY":" ","HOUSE_NO":"１９號","E_COORD97":169610.13,"N_COORD97":2545677.8799999999,"ADDRESS":"北門路二段５４７巷１９號","OBJECTID":240942},"geometry":{"x":169610.12999999989,"y":2545677.879999999}},{"attributes":{"ID":240947,"DIS_CODE":0,"TOWNNAME":"東區","LI":"崇德里","LIN":"14鄰","STREET":"崇明路","SECT":" ","MAREA":" ","LANE":" ","ALLEY":" ","HOUSE_NO":"４７９號五樓之１","E_COORD97":170540.07999999999,"N_COORD97":2541473.7599999998,"ADDRESS":"崇明路４７９號五樓之１","OBJECTID":240943},"geometry":{"x":170540.08000000007,"y":2541473.7600000016}},{"attributes":{"ID":240948,"DIS_CODE":0,"TOWNNAME":"東區","LI":"崇德里","LIN":"14鄰","STREET":"崇明路","SECT":" ","MAREA":" ","LANE":" ","ALLEY":" ","HOUSE_NO":"４７９號五樓","E_COORD97":170540.07999999999,"N_COORD97":2541473.7599999998,"ADDRESS":"崇明路４７９號五樓","OBJECTID":240944},"geometry":{"x":170540.08000000007,"y":2541473.7600000016}},{"attributes":{"ID":240949,"DIS_CODE":0,"TOWNNAME":"東區","LI":"崇德里","LIN":"14鄰","STREET":"崇明路","SECT":" ","MAREA":" ","LANE":" ","ALLEY":" ","HOUSE_NO":"４７３號三樓","E_COORD97":170534.31,"N_COORD97":2541488.1800000002,"ADDRESS":"崇明路４７３號三樓","OBJECTID":240945},"geometry":{"x":170534.30999999959,"y":2541488.1800000016}},{"attributes":{"ID":240950,"DIS_CODE":0,"TOWNNAME":"東區","LI":"崇德里","LIN":"14鄰","STREET":"崇明路","SECT":" ","MAREA":" ","LANE":" ","ALLEY":" ","HOUSE_NO":"４７３號四樓之１","E_COORD97":170534.31,"N_COORD97":2541488.1800000002,"ADDRESS":"崇明路４７３號四樓之１","OBJECTID":240946},"geometry":{"x":170534.30999999959,"y":2541488.1800000016}},{"attributes":{"ID":240951,"DIS_CODE":0,"TOWNNAME":"永康區","LI":"大橋里","LIN":"14鄰","STREET":"大橋一街","SECT":" ","MAREA":" ","LANE":" ","ALLEY":" ","HOUSE_NO":"６１號八樓之２","E_COORD97":170895.84,"N_COORD97":2546426.5499999998,"ADDRESS":"大橋一街６１號八樓之２","OBJECTID":240947},"geometry":{"x":170895.83999999985,"y":2546426.5500000026}},{"attributes":{"ID":240952,"DIS_CODE":0,"TOWNNAME":"永康區","LI":"大橋里","LIN":"14鄰","STREET":"大橋一街","SECT":" ","MAREA":" ","LANE":" ","ALLEY":" ","HOUSE_NO":"６１號四樓之３","E_COORD97":170895.79999999999,"N_COORD97":2546426.5499999998,"ADDRESS":"大橋一街６１號四樓之３","OBJECTID":240948},"geometry":{"x":170895.79999999981,"y":2546426.5500000026}},{"attributes":{"ID":240953,"DIS_CODE":0,"TOWNNAME":"北區","LI":"永祥里","LIN":"16鄰","STREET":"大武街","SECT":" ","MAREA":" ","LANE":"５０２巷","ALLEY":" ","HOUSE_NO":"１０號","E_COORD97":170138.60000000001,"N_COORD97":2546284.0299999998,"ADDRESS":"大武街５０２巷１０號","OBJECTID":240949},"geometry":{"x":170138.60000000056,"y":2546284.0299999993}},{"attributes":{"ID":240954,"DIS_CODE":0,"TOWNNAME":"北區","LI":"永祥里","LIN":"16鄰","STREET":"大武街","SECT":" ","MAREA":" ","LANE":"５０２巷","ALLEY":" ","HOUSE_NO":"１２號","E_COORD97":170138.76000000001,"N_COORD97":2546278.4500000002,"ADDRESS":"大武街５０２巷１２號","OBJECTID":240950},"geometry":{"x":170138.76000000164,"y":2546278.450000003}},{"attributes":{"ID":240955,"DIS_CODE":0,"TOWNNAME":"北區","LI":"永祥里","LIN":"16鄰","STREET":"大武街","SECT":" ","MAREA":" ","LANE":"５０２巷","ALLEY":" ","HOUSE_NO":"１號","E_COORD97":170123.09,"N_COORD97":2546380.25,"ADDRESS":"大武街５０２巷１號","OBJECTID":240951},"geometry":{"x":170123.09000000171,"y":2546380.2500000019}},{"attributes":{"ID":240956,"DIS_CODE":0,"TOWNNAME":"北區","LI":"永祥里","LIN":"16鄰","STREET":"大武街","SECT":" ","MAREA":" ","LANE":"５０２巷","ALLEY":" ","HOUSE_NO":"２１號","E_COORD97":170125.28,"N_COORD97":2546343.48,"ADDRESS":"大武街５０２巷２１號","OBJECTID":240952},"geometry":{"x":170125.28000000026,"y":2546343.4800000004}},{"attributes":{"ID":240957,"DIS_CODE":0,"TOWNNAME":"北區","LI":"永祥里","LIN":"16鄰","STREET":"大武街","SECT":" ","MAREA":" ","LANE":"５０２巷","ALLEY":" ","HOUSE_NO":"２３號","E_COORD97":170123.23999999999,"N_COORD97":2546335.1699999999,"ADDRESS":"大武街５０２巷２３號","OBJECTID":240953},"geometry":{"x":170123.24000000022,"y":2546335.1700000037}},{"attributes":{"ID":240958,"DIS_CODE":0,"TOWNNAME":"北區","LI":"永祥里","LIN":"16鄰","STREET":"大武街","SECT":" ","MAREA":" ","LANE":"５０２巷","ALLEY":" ","HOUSE_NO":"２５號","E_COORD97":170123.07999999999,"N_COORD97":2546328.1800000002,"ADDRESS":"大武街５０２巷２５號","OBJECTID":240954},"geometry":{"x":170123.08000000007,"y":2546328.1800000034}},{"attributes":{"ID":240959,"DIS_CODE":0,"TOWNNAME":"新市區","LI":"新和里","LIN":"40鄰","STREET":"勝利街","SECT":" ","MAREA":" ","LANE":"１１巷","ALLEY":" ","HOUSE_NO":"１號","E_COORD97":177374.29000000001,"N_COORD97":2552944.7599999998,"ADDRESS":"勝利街１１巷１號","OBJECTID":240955},"geometry":{"x":177374.29000000097,"y":2552944.7599999998}},{"attributes":{"ID":240960,"DIS_CODE":0,"TOWNNAME":"永康區","LI":"西灣里","LIN":"40鄰","STREET":"大勇路","SECT":" ","MAREA":" ","LANE":"２３巷","ALLEY":" ","HOUSE_NO":"１３號","E_COORD97":174164.14999999999,"N_COORD97":2545389.7599999998,"ADDRESS":"大勇路２３巷１３號","OBJECTID":240956},"geometry":{"x":174164.15000000037,"y":2545389.7600000016}},{"attributes":{"ID":240961,"DIS_CODE":0,"TOWNNAME":"永康區","LI":"正強里","LIN":"40鄰","STREET":"四維街","SECT":" ","MAREA":" ","LANE":"１８１巷","ALLEY":" ","HOUSE_NO":"２號","E_COORD97":173249.48999999999,"N_COORD97":2548439.02,"ADDRESS":"四維街１８１巷２號","OBJECTID":240957},"geometry":{"x":173249.49000000022,"y":2548439.0200000014}},{"attributes":{"ID":240962,"DIS_CODE":0,"TOWNNAME":"北區","LI":"大道里","LIN":"9鄰","STREET":"北門路","SECT":"二段","MAREA":" ","LANE":"５４７巷","ALLEY":" ","HOUSE_NO":"１５號","E_COORD97":169603.78,"N_COORD97":2545689.6299999999,"ADDRESS":"北門路二段５４７巷１５號","OBJECTID":240958},"geometry":{"x":169603.78000000119,"y":2545689.629999999}},{"attributes":{"ID":240963,"DIS_CODE":0,"TOWNNAME":"永康區","LI":"南灣里","LIN":"40鄰","STREET":"南灣街","SECT":" ","MAREA":" ","LANE":"１２０巷","ALLEY":" ","HOUSE_NO":"７號","E_COORD97":174345.94,"N_COORD97":2545023.1499999999,"ADDRESS":"南灣街１２０巷７號","OBJECTID":240959},"geometry":{"x":174345.94000000134,"y":2545023.1500000004}},{"attributes":{"ID":240964,"DIS_CODE":0,"TOWNNAME":"永康區","LI":"復華里","LIN":"40鄰","STREET":"復華七街","SECT":" ","MAREA":" ","LANE":"３２巷","ALLEY":" ","HOUSE_NO":"２號","E_COORD97":172658.89999999999,"N_COORD97":2545967.8199999998,"ADDRESS":"復華七街３２巷２號","OBJECTID":240960},"geometry":{"x":172658.90000000037,"y":2545967.8200000003}},{"attributes":{"ID":240965,"DIS_CODE":0,"TOWNNAME":"永康區","LI":"西灣里","LIN":"40鄰","STREET":"大勇路","SECT":" ","MAREA":" ","LANE":"５巷","ALLEY":" ","HOUSE_NO":"１８號","E_COORD97":174133.34,"N_COORD97":2545372.8599999999,"ADDRESS":"大勇路５巷１８號","OBJECTID":240961},"geometry":{"x":174133.33999999985,"y":2545372.8599999994}},{"attributes":{"ID":240966,"DIS_CODE":0,"TOWNNAME":"北區","LI":"大道里","LIN":"18鄰","STREET":"北門路","SECT":"二段","MAREA":" ","LANE":"５４７巷","ALLEY":" ","HOUSE_NO":"２１號","E_COORD97":169598.23000000001,"N_COORD97":2545681.0499999998,"ADDRESS":"北門路二段５４７巷２１號","OBJECTID":240962},"geometry":{"x":169598.23000000045,"y":2545681.0500000007}},{"attributes":{"ID":240967,"DIS_CODE":0,"TOWNNAME":"永康區","LI":"西灣里","LIN":"40鄰","STREET":"大勇路","SECT":" ","MAREA":" ","LANE":"５巷","ALLEY":" ","HOUSE_NO":"１１號","E_COORD97":174151.34,"N_COORD97":2545347.7400000002,"ADDRESS":"大勇路５巷１１號","OBJECTID":240963},"geometry":{"x":174151.34000000078,"y":2545347.7400000002}},{"attributes":{"ID":240968,"DIS_CODE":0,"TOWNNAME":"佳里區","LI":"建南里","LIN":"37鄰","STREET":"祥和三街","SECT":" ","MAREA":" ","LANE":"２２２巷","ALLEY":" ","HOUSE_NO":"２號","E_COORD97":165592.48009900001,"N_COORD97":2561249.1760399998,"ADDRESS":"祥和三街２２２巷２號","OBJECTID":240964},"geometry":{"x":165592.48009900097,"y":2561249.1760430001}},{"attributes":{"ID":240969,"DIS_CODE":0,"TOWNNAME":"仁德區","LI":"後壁里","LIN":"40鄰","STREET":"德善二街","SECT":" ","MAREA":" ","LANE":"１７巷","ALLEY":" ","HOUSE_NO":"４號","E_COORD97":173536.23000000001,"N_COORD97":2538923.2599999998,"ADDRESS":"德善二街１７巷４號","OBJECTID":240965},"geometry":{"x":173536.23000000045,"y":2538923.2600000035}},{"attributes":{"ID":240970,"DIS_CODE":0,"TOWNNAME":"仁德區","LI":"後壁里","LIN":"40鄰","STREET":"德善二街","SECT":" ","MAREA":" ","LANE":"１７巷","ALLEY":" ","HOUSE_NO":"２７號","E_COORD97":173494.10000000001,"N_COORD97":2538957.27,"ADDRESS":"德善二街１７巷２７號","OBJECTID":240966},"geometry":{"x":173494.09999999963,"y":2538957.2700000014}},{"attributes":{"ID":240971,"DIS_CODE":0,"TOWNNAME":"仁德區","LI":"後壁里","LIN":"40鄰","STREET":"德善二街","SECT":" ","MAREA":" ","LANE":"１７巷","ALLEY":" ","HOUSE_NO":"８號","E_COORD97":173531.44,"N_COORD97":2538930.0099999998,"ADDRESS":"德善二街１７巷８號","OBJECTID":240967},"geometry":{"x":173531.44000000041,"y":2538930.0099999998}},{"attributes":{"ID":240972,"DIS_CODE":0,"TOWNNAME":"永康區","LI":"大橋里","LIN":"14鄰","STREET":"大橋一街","SECT":" ","MAREA":" ","LANE":" ","ALLEY":" ","HOUSE_NO":"６３號七樓之３","E_COORD97":170898.88,"N_COORD97":2546429.5499999998,"ADDRESS":"大橋一街６３號七樓之３","OBJECTID":240968},"geometry":{"x":170898.87999999989,"y":2546429.5500000026}},{"attributes":{"ID":240973,"DIS_CODE":0,"TOWNNAME":"永康區","LI":"大橋里","LIN":"14鄰","STREET":"大橋二街","SECT":" ","MAREA":" ","LANE":" ","ALLEY":" ","HOUSE_NO":"２４號五樓之２","E_COORD97":170777.62,"N_COORD97":2546536,"ADDRESS":"大橋二街２４號五樓之２","OBJECTID":240969},"geometry":{"x":170777.62000000104,"y":2546536}},{"attributes":{"ID":240974,"DIS_CODE":0,"TOWNNAME":"永康區","LI":"大橋里","LIN":"14鄰","STREET":"大橋二街","SECT":" ","MAREA":" ","LANE":" ","ALLEY":" ","HOUSE_NO":"２４號六樓之２","E_COORD97":170777.62,"N_COORD97":2546536,"ADDRESS":"大橋二街２４號六樓之２","OBJECTID":240970},"geometry":{"x":170777.62000000104,"y":2546536}},{"attributes":{"ID":240975,"DIS_CODE":0,"TOWNNAME":"永康區","LI":"大橋里","LIN":"14鄰","STREET":"大橋一街","SECT":" ","MAREA":" ","LANE":" ","ALLEY":" ","HOUSE_NO":"６１號十一樓之３","E_COORD97":170897.04999999999,"N_COORD97":2546426.5499999998,"ADDRESS":"大橋一街６１號十一樓之３","OBJECTID":240971},"geometry":{"x":170897.05000000075,"y":2546426.5500000026}},{"attributes":{"ID":240976,"DIS_CODE":0,"TOWNNAME":"永康區","LI":"大橋里","LIN":"14鄰","STREET":"大橋一街","SECT":" ","MAREA":" ","LANE":" ","ALLEY":" ","HOUSE_NO":"６１號八樓之１","E_COORD97":170895.70000000001,"N_COORD97":2546426.5499999998,"ADDRESS":"大橋一街６１號八樓之１","OBJECTID":240972},"geometry":{"x":170895.70000000205,"y":2546426.5500000026}},{"attributes":{"ID":240977,"DIS_CODE":0,"TOWNNAME":"永康區","LI":"大橋里","LIN":"14鄰","STREET":"大橋一街","SECT":" ","MAREA":" ","LANE":" ","ALLEY":" ","HOUSE_NO":"６３號十二樓之２","E_COORD97":170900.17000000001,"N_COORD97":2546429.5499999998,"ADDRESS":"大橋一街６３號十二樓之２","OBJECTID":240973},"geometry":{"x":170900.16999999993,"y":2546429.5500000026}},{"attributes":{"ID":240978,"DIS_CODE":0,"TOWNNAME":"北區","LI":"永祥里","LIN":"16鄰","STREET":"大武街","SECT":" ","MAREA":" ","LANE":"５０２巷","ALLEY":" ","HOUSE_NO":"２７號","E_COORD97":170123.47,"N_COORD97":2546321.3199999998,"ADDRESS":"大武街５０２巷２７號","OBJECTID":240974},"geometry":{"x":170123.46999999974,"y":2546321.320000004}},{"attributes":{"ID":240979,"DIS_CODE":0,"TOWNNAME":"北區","LI":"永祥里","LIN":"16鄰","STREET":"大武街","SECT":" ","MAREA":" ","LANE":"５０２巷","ALLEY":" ","HOUSE_NO":"２９號","E_COORD97":170123.39999999999,"N_COORD97":2546315.4300000002,"ADDRESS":"大武街５０２巷２９號","OBJECTID":240975},"geometry":{"x":170123.4000000013,"y":2546315.4299999997}},{"attributes":{"ID":240980,"DIS_CODE":0,"TOWNNAME":"北區","LI":"永祥里","LIN":"16鄰","STREET":"大武街","SECT":" ","MAREA":" ","LANE":"５０２巷","ALLEY":" ","HOUSE_NO":"３１號","E_COORD97":170123.25,"N_COORD97":2546309.02,"ADDRESS":"大武街５０２巷３１號","OBJECTID":240976},"geometry":{"x":170123.25,"y":2546309.0200000033}},{"attributes":{"ID":240981,"DIS_CODE":0,"TOWNNAME":"北區","LI":"永祥里","LIN":"16鄰","STREET":"大武街","SECT":" ","MAREA":" ","LANE":"５０２巷","ALLEY":" ","HOUSE_NO":"３３號","E_COORD97":170122.88,"N_COORD97":2546301.9300000002,"ADDRESS":"大武街５０２巷３３號","OBJECTID":240977},"geometry":{"x":170122.88000000175,"y":2546301.9299999997}},{"attributes":{"ID":240982,"DIS_CODE":0,"TOWNNAME":"北區","LI":"永祥里","LIN":"16鄰","STREET":"大武街","SECT":" ","MAREA":" ","LANE":"５０２巷","ALLEY":" ","HOUSE_NO":"３５號","E_COORD97":170125.26000000001,"N_COORD97":2546289.2200000002,"ADDRESS":"大武街５０２巷３５號","OBJECTID":240978},"geometry":{"x":170125.26000000164,"y":2546289.2200000025}},{"attributes":{"ID":240983,"DIS_CODE":0,"TOWNNAME":"仁德區","LI":"後壁里","LIN":"40鄰","STREET":"德善二街","SECT":" ","MAREA":" ","LANE":"１７巷","ALLEY":" ","HOUSE_NO":"２４號","E_COORD97":173514.04999999999,"N_COORD97":2538956.27,"ADDRESS":"德善二街１７巷２４號","OBJECTID":240979},"geometry":{"x":173514.05000000075,"y":2538956.2699999996}},{"attributes":{"ID":240984,"DIS_CODE":0,"TOWNNAME":"仁德區","LI":"後壁里","LIN":"40鄰","STREET":"德善二街","SECT":" ","MAREA":" ","LANE":"１７巷","ALLEY":" ","HOUSE_NO":"１１號","E_COORD97":173513.01000000001,"N_COORD97":2538930.7599999998,"ADDRESS":"德善二街１７巷１１號","OBJECTID":240980},"geometry":{"x":173513.00999999978,"y":2538930.7600000016}},{"attributes":{"ID":240985,"DIS_CODE":0,"TOWNNAME":"仁德區","LI":"後壁里","LIN":"40鄰","STREET":"德善二街","SECT":" ","MAREA":" ","LANE":"１７巷","ALLEY":" ","HOUSE_NO":"２５號","E_COORD97":173496.25,"N_COORD97":2538953.77,"ADDRESS":"德善二街１７巷２５號","OBJECTID":240981},"geometry":{"x":173496.25000000093,"y":2538953.7700000014}},{"attributes":{"ID":240986,"DIS_CODE":0,"TOWNNAME":"仁德區","LI":"後壁里","LIN":"40鄰","STREET":"德善二街","SECT":" ","MAREA":" ","LANE":"１７巷","ALLEY":" ","HOUSE_NO":"３２號","E_COORD97":173504.84,"N_COORD97":2538969.27,"ADDRESS":"德善二街１７巷３２號","OBJECTID":240982},"geometry":{"x":173504.83999999892,"y":2538969.2699999996}},{"attributes":{"ID":240987,"DIS_CODE":0,"TOWNNAME":"仁德區","LI":"後壁里","LIN":"40鄰","STREET":"德善二街","SECT":" ","MAREA":" ","LANE":"１７巷","ALLEY":" ","HOUSE_NO":"２３號","E_COORD97":173498.85000000001,"N_COORD97":2538950.52,"ADDRESS":"德善二街１７巷２３號","OBJECTID":240983},"geometry":{"x":173498.84999999963,"y":2538950.5199999996}},{"attributes":{"ID":240988,"DIS_CODE":0,"TOWNNAME":"仁德區","LI":"後壁里","LIN":"40鄰","STREET":"德善二街","SECT":" ","MAREA":" ","LANE":"１７巷","ALLEY":" ","HOUSE_NO":"３６號","E_COORD97":173500.23000000001,"N_COORD97":2538975.77,"ADDRESS":"德善二街１７巷３６號","OBJECTID":240984},"geometry":{"x":173500.23000000138,"y":2538975.7699999996}},{"attributes":{"ID":240989,"DIS_CODE":0,"TOWNNAME":"仁德區","LI":"後壁里","LIN":"40鄰","STREET":"德善二街","SECT":" ","MAREA":" ","LANE":"１７巷","ALLEY":" ","HOUSE_NO":"１０號","E_COORD97":173530.14999999999,"N_COORD97":2538933.2599999998,"ADDRESS":"德善二街１７巷１０號","OBJECTID":240985},"geometry":{"x":173530.15000000037,"y":2538933.2600000035}},{"attributes":{"ID":240990,"DIS_CODE":0,"TOWNNAME":"仁德區","LI":"後壁里","LIN":"40鄰","STREET":"德善二街","SECT":" ","MAREA":" ","LANE":"１７巷","ALLEY":" ","HOUSE_NO":"５號","E_COORD97":173518.64000000001,"N_COORD97":2538921.0099999998,"ADDRESS":"德善二街１７巷５號","OBJECTID":240986},"geometry":{"x":173518.6400000006,"y":2538921.0099999998}},{"attributes":{"ID":240991,"DIS_CODE":0,"TOWNNAME":"北區","LI":"大道里","LIN":"9鄰","STREET":"北門路","SECT":"二段","MAREA":" ","LANE":"５４７巷","ALLEY":" ","HOUSE_NO":"２３號","E_COORD97":169592.04000000001,"N_COORD97":2545682.7999999998,"ADDRESS":"北門路二段５４７巷２３號","OBJECTID":240987},"geometry":{"x":169592.04000000097,"y":2545682.8000000007}},{"attributes":{"ID":240992,"DIS_CODE":0,"TOWNNAME":"新市區","LI":"新和里","LIN":"40鄰","STREET":"勝利街","SECT":" ","MAREA":" ","LANE":"３５巷","ALLEY":" ","HOUSE_NO":"８號","E_COORD97":177299.29000000001,"N_COORD97":2552915.0099999998,"ADDRESS":"勝利街３５巷８號","OBJECTID":240988},"geometry":{"x":177299.2900000019,"y":2552915.0100000016}},{"attributes":{"ID":240993,"DIS_CODE":0,"TOWNNAME":"新市區","LI":"新和里","LIN":"40鄰","STREET":"勝利街","SECT":" ","MAREA":" ","LANE":"６９巷","ALLEY":" ","HOUSE_NO":"３號","E_COORD97":177173.17999999999,"N_COORD97":2552916.5099999998,"ADDRESS":"勝利街６９巷３號","OBJECTID":240989},"geometry":{"x":177173.18000000063,"y":2552916.5099999998}},{"attributes":{"ID":240994,"DIS_CODE":0,"TOWNNAME":"新市區","LI":"新和里","LIN":"40鄰","STREET":"勝利街","SECT":" ","MAREA":" ","LANE":"３５巷","ALLEY":" ","HOUSE_NO":"３號","E_COORD97":177308.39999999999,"N_COORD97":2552919.5099999998,"ADDRESS":"勝利街３５巷３號","OBJECTID":240990},"geometry":{"x":177308.40000000037,"y":2552919.5099999998}},{"attributes":{"ID":240995,"DIS_CODE":0,"TOWNNAME":"新市區","LI":"新和里","LIN":"40鄰","STREET":"勝利街","SECT":" ","MAREA":" ","LANE":"１１巷","ALLEY":" ","HOUSE_NO":"３號","E_COORD97":177373.14999999999,"N_COORD97":2552938.2599999998,"ADDRESS":"勝利街１１巷３號","OBJECTID":240991},"geometry":{"x":177373.15000000037,"y":2552938.2599999998}},{"attributes":{"ID":240996,"DIS_CODE":0,"TOWNNAME":"新市區","LI":"新和里","LIN":"40鄰","STREET":"勝利街","SECT":" ","MAREA":" ","LANE":"１１巷","ALLEY":" ","HOUSE_NO":"４號","E_COORD97":177358.10000000001,"N_COORD97":2552920.7599999998,"ADDRESS":"勝利街１１巷４號","OBJECTID":240992},"geometry":{"x":177358.10000000056,"y":2552920.7599999998}},{"attributes":{"ID":240997,"DIS_CODE":0,"TOWNNAME":"永康區","LI":"南灣里","LIN":"40鄰","STREET":"南灣街","SECT":" ","MAREA":" ","LANE":"１２０巷","ALLEY":" ","HOUSE_NO":"８號","E_COORD97":174371.62,"N_COORD97":2545049.7400000002,"ADDRESS":"南灣街１２０巷８號","OBJECTID":240993},"geometry":{"x":174371.62000000104,"y":2545049.7400000002}},{"attributes":{"ID":240998,"DIS_CODE":0,"TOWNNAME":"永康區","LI":"南灣里","LIN":"40鄰","STREET":"南灣街","SECT":" ","MAREA":" ","LANE":"１３８巷","ALLEY":" ","HOUSE_NO":"１７號","E_COORD97":174335.56,"N_COORD97":2545091.3700000001,"ADDRESS":"南灣街１３８巷１７號","OBJECTID":240994},"geometry":{"x":174335.56000000145,"y":2545091.3700000029}},{"attributes":{"ID":240999,"DIS_CODE":0,"TOWNNAME":"永康區","LI":"南灣里","LIN":"40鄰","STREET":"南灣街","SECT":" ","MAREA":" ","LANE":"１３８巷","ALLEY":" ","HOUSE_NO":"３１號","E_COORD97":174358.22,"N_COORD97":2545133.0899999999,"ADDRESS":"南灣街１３８巷３１號","OBJECTID":240995},"geometry":{"x":174358.21999999881,"y":2545133.0900000017}},{"attributes":{"ID":241000,"DIS_CODE":0,"TOWNNAME":"佳里區","LI":"建南里","LIN":"37鄰","STREET":"祥和三街","SECT":" ","MAREA":" ","LANE":"２２２巷","ALLEY":" ","HOUSE_NO":"６號","E_COORD97":165592.48009900001,"N_COORD97":2561255.2826999999,"ADDRESS":"祥和三街２２２巷６號","OBJECTID":240996},"geometry":{"x":165592.48009900097,"y":2561255.2827039994}},{"attributes":{"ID":241001,"DIS_CODE":0,"TOWNNAME":"仁德區","LI":"太子里","LIN":"40鄰","STREET":"太子路","SECT":" ","MAREA":" ","LANE":"２８巷","ALLEY":" ","HOUSE_NO":"４６之３號","E_COORD97":175378.285691,"N_COORD97":2543801.94998,"ADDRESS":"太子路２８巷４６之３號","OBJECTID":240997},"geometry":{"x":175378.28569099866,"y":2543801.9499760028}},{"attributes":{"ID":241002,"DIS_CODE":0,"TOWNNAME":"永康區","LI":"南灣里","LIN":"40鄰","STREET":"南灣街","SECT":" ","MAREA":" ","LANE":"１３８巷","ALLEY":" ","HOUSE_NO":"２８號","E_COORD97":174355.64000000001,"N_COORD97":2545095.25,"ADDRESS":"南灣街１３８巷２８號","OBJECTID":240998},"geometry":{"x":174355.6400000006,"y":2545095.2500000019}},{"attributes":{"ID":241003,"DIS_CODE":0,"TOWNNAME":"永康區","LI":"南灣里","LIN":"40鄰","STREET":"南灣街","SECT":" ","MAREA":" ","LANE":"１３８巷","ALLEY":" ","HOUSE_NO":"１１號","E_COORD97":174328.91,"N_COORD97":2545080.8700000001,"ADDRESS":"南灣街１３８巷１１號","OBJECTID":240999},"geometry":{"x":174328.91000000108,"y":2545080.8700000048}},{"attributes":{"ID":241004,"DIS_CODE":0,"TOWNNAME":"永康區","LI":"南灣里","LIN":"40鄰","STREET":"南灣街","SECT":" ","MAREA":" ","LANE":"１３８巷","ALLEY":" ","HOUSE_NO":"３９號","E_COORD97":174370.47,"N_COORD97":2545146.9300000002,"ADDRESS":"南灣街１３８巷３９號","OBJECTID":241000},"geometry":{"x":174370.47000000067,"y":2545146.9300000016}}]}