{"displayFieldName":"TOWNNAME","fieldAliases":{"ID":"ID","DIS_CODE":"DIS_CODE","TOWNNAME":"TOWNNAME","LI":"LI","LIN":"LIN","STREET":"STREET","SECT":"SECT","MAREA":"MAREA","LANE":"LANE","ALLEY":"ALLEY","HOUSE_NO":"HOUSE_NO","E_COORD97":"E_COORD97","N_COORD97":"N_COORD97","ADDRESS":"ADDRESS","OBJECTID":"OBJECTID"},"geometryType":"esriGeometryPoint","spatialReference":{"wkid":102443,"latestWkid":3826},"fields":[{"name":"ID","type":"esriFieldTypeDouble","alias":"ID"},{"name":"DIS_CODE","type":"esriFieldTypeInteger","alias":"DIS_CODE"},{"name":"TOWNNAME","type":"esriFieldTypeString","alias":"TOWNNAME","length":8},{"name":"LI","type":"esriFieldTypeString","alias":"LI","length":8},{"name":"LIN","type":"esriFieldTypeString","alias":"LIN","length":12},{"name":"STREET","type":"esriFieldTypeString","alias":"STREET","length":20},{"name":"SECT","type":"esriFieldTypeString","alias":"SECT","length":8},{"name":"MAREA","type":"esriFieldTypeString","alias":"MAREA","length":12},{"name":"LANE","type":"esriFieldTypeString","alias":"LANE","length":10},{"name":"ALLEY","type":"esriFieldTypeString","alias":"ALLEY","length":10},{"name":"HOUSE_NO","type":"esriFieldTypeString","alias":"HOUSE_NO","length":20},{"name":"E_COORD97","type":"esriFieldTypeDouble","alias":"E_COORD97"},{"name":"N_COORD97","type":"esriFieldTypeDouble","alias":"N_COORD97"},{"name":"ADDRESS","type":"esriFieldTypeString","alias":"ADDRESS","length":50},{"name":"OBJECTID","type":"esriFieldTypeOID","alias":"OBJECTID"}],"features":[{"attributes":{"ID":608028,"DIS_CODE":0,"TOWNNAME":"新化區","LI":"協興里","LIN":"3鄰","STREET":"忠孝路","SECT":" ","MAREA":" ","LANE":" ","ALLEY":" ","HOUSE_NO":"２０３號","E_COORD97":178536.51999999999,"N_COORD97":2548553.25,"ADDRESS":"忠孝路２０３號","OBJECTID":608001},"geometry":{"x":178536.52000000142,"y":2548553.2500000019}},{"attributes":{"ID":608029,"DIS_CODE":0,"TOWNNAME":"新化區","LI":"協興里","LIN":"3鄰","STREET":"忠孝路","SECT":" ","MAREA":" ","LANE":" ","ALLEY":" ","HOUSE_NO":"１８７號","E_COORD97":178552.72,"N_COORD97":2548600.25,"ADDRESS":"忠孝路１８７號","OBJECTID":608002},"geometry":{"x":178552.72000000067,"y":2548600.2500000019}},{"attributes":{"ID":608030,"DIS_CODE":0,"TOWNNAME":"新化區","LI":"護國里","LIN":"3鄰","STREET":"建國街","SECT":" ","MAREA":" ","LANE":" ","ALLEY":" ","HOUSE_NO":"１１號","E_COORD97":179220.78,"N_COORD97":2548507.2599999998,"ADDRESS":"建國街１１號","OBJECTID":608003},"geometry":{"x":179220.78000000119,"y":2548507.2599999998}},{"attributes":{"ID":608031,"DIS_CODE":0,"TOWNNAME":"新化區","LI":"護國里","LIN":"3鄰","STREET":"建國街","SECT":" ","MAREA":" ","LANE":" ","ALLEY":" ","HOUSE_NO":"２５號之１","E_COORD97":179202.51000000001,"N_COORD97":2548585.2599999998,"ADDRESS":"建國街２５號之１","OBJECTID":608004},"geometry":{"x":179202.50999999978,"y":2548585.2599999998}},{"attributes":{"ID":608032,"DIS_CODE":0,"TOWNNAME":"新化區","LI":"護國里","LIN":"3鄰","STREET":"建國街","SECT":" ","MAREA":" ","LANE":" ","ALLEY":" ","HOUSE_NO":"２９號","E_COORD97":179196.48000000001,"N_COORD97":2548593.2599999998,"ADDRESS":"建國街２９號","OBJECTID":608005},"geometry":{"x":179196.48000000045,"y":2548593.2600000016}},{"attributes":{"ID":608033,"DIS_CODE":0,"TOWNNAME":"新化區","LI":"清水里","LIN":"3鄰","STREET":"信義路","SECT":" ","MAREA":" ","LANE":" ","ALLEY":" ","HOUSE_NO":"４４６號之２","E_COORD97":178636.78,"N_COORD97":2548307.2599999998,"ADDRESS":"信義路４４６號之２","OBJECTID":608006},"geometry":{"x":178636.78000000026,"y":2548307.2599999998}},{"attributes":{"ID":608034,"DIS_CODE":0,"TOWNNAME":"新化區","LI":"唪口里","LIN":"3鄰","STREET":"大德路","SECT":" ","MAREA":" ","LANE":" ","ALLEY":" ","HOUSE_NO":"８２號之１８","E_COORD97":178213.89000000001,"N_COORD97":2549484.2599999998,"ADDRESS":"大德路８２號之１８","OBJECTID":608007},"geometry":{"x":178213.8900000006,"y":2549484.2600000035}},{"attributes":{"ID":608035,"DIS_CODE":0,"TOWNNAME":"新化區","LI":"唪口里","LIN":"3鄰","STREET":"大德路","SECT":" ","MAREA":" ","LANE":" ","ALLEY":" ","HOUSE_NO":"８４號之３０","E_COORD97":178263.97,"N_COORD97":2549513.2599999998,"ADDRESS":"大德路８４號之３０","OBJECTID":608008},"geometry":{"x":178263.9700000016,"y":2549513.2599999998}},{"attributes":{"ID":608036,"DIS_CODE":0,"TOWNNAME":"新化區","LI":"協興里","LIN":"3鄰","STREET":"忠孝路","SECT":" ","MAREA":" ","LANE":" ","ALLEY":" ","HOUSE_NO":"２２３號","E_COORD97":178514.92000000001,"N_COORD97":2548550.25,"ADDRESS":"忠孝路２２３號","OBJECTID":608009},"geometry":{"x":178514.91999999993,"y":2548550.2500000019}},{"attributes":{"ID":608037,"DIS_CODE":0,"TOWNNAME":"新化區","LI":"武安里","LIN":"3鄰","STREET":"和平街","SECT":" ","MAREA":" ","LANE":" ","ALLEY":" ","HOUSE_NO":"６３號","E_COORD97":179090.26999999999,"N_COORD97":2548144.25,"ADDRESS":"和平街６３號","OBJECTID":608010},"geometry":{"x":179090.26999999955,"y":2548144.25}},{"attributes":{"ID":608038,"DIS_CODE":0,"TOWNNAME":"新化區","LI":"護國里","LIN":"3鄰","STREET":"仁愛街","SECT":" ","MAREA":" ","LANE":" ","ALLEY":" ","HOUSE_NO":"３７號","E_COORD97":179125.38,"N_COORD97":2548595.25,"ADDRESS":"仁愛街３７號","OBJECTID":608011},"geometry":{"x":179125.37999999989,"y":2548595.25}},{"attributes":{"ID":608039,"DIS_CODE":0,"TOWNNAME":"新化區","LI":"唪口里","LIN":"3鄰","STREET":"大德路","SECT":" ","MAREA":" ","LANE":" ","ALLEY":" ","HOUSE_NO":"８２號之２２","E_COORD97":178231.57999999999,"N_COORD97":2549484.2599999998,"ADDRESS":"大德路８２號之２２","OBJECTID":608012},"geometry":{"x":178231.58000000101,"y":2549484.2600000035}},{"attributes":{"ID":608040,"DIS_CODE":0,"TOWNNAME":"新化區","LI":"唪口里","LIN":"3鄰","STREET":"大德路","SECT":" ","MAREA":" ","LANE":" ","ALLEY":" ","HOUSE_NO":"８２號之２７","E_COORD97":178248.57000000001,"N_COORD97":2549483.2599999998,"ADDRESS":"大德路８２號之２７","OBJECTID":608013},"geometry":{"x":178248.56999999937,"y":2549483.2599999998}},{"attributes":{"ID":608041,"DIS_CODE":0,"TOWNNAME":"新化區","LI":"協興里","LIN":"3鄰","STREET":"忠孝路","SECT":" ","MAREA":" ","LANE":" ","ALLEY":" ","HOUSE_NO":"１８９號","E_COORD97":178548.22,"N_COORD97":2548599.25,"ADDRESS":"忠孝路１８９號","OBJECTID":608014},"geometry":{"x":178548.21999999974,"y":2548599.25}},{"attributes":{"ID":608042,"DIS_CODE":0,"TOWNNAME":"新化區","LI":"協興里","LIN":"3鄰","STREET":"忠孝路","SECT":" ","MAREA":" ","LANE":" ","ALLEY":" ","HOUSE_NO":"２１５號","E_COORD97":178523.42000000001,"N_COORD97":2548542.25,"ADDRESS":"忠孝路２１５號","OBJECTID":608015},"geometry":{"x":178523.41999999993,"y":2548542.2500000019}},{"attributes":{"ID":608043,"DIS_CODE":0,"TOWNNAME":"新化區","LI":"唪口里","LIN":"3鄰","STREET":"大德路","SECT":" ","MAREA":" ","LANE":" ","ALLEY":" ","HOUSE_NO":"８２號之３","E_COORD97":178220.32999999999,"N_COORD97":2549463.2599999998,"ADDRESS":"大德路８２號之３","OBJECTID":608016},"geometry":{"x":178220.33000000101,"y":2549463.2599999998}},{"attributes":{"ID":608044,"DIS_CODE":0,"TOWNNAME":"新化區","LI":"護國里","LIN":"3鄰","STREET":"建國街","SECT":" ","MAREA":" ","LANE":" ","ALLEY":" ","HOUSE_NO":"１３號","E_COORD97":179217.28,"N_COORD97":2548520.2599999998,"ADDRESS":"建國街１３號","OBJECTID":608017},"geometry":{"x":179217.28000000119,"y":2548520.2599999998}},{"attributes":{"ID":608045,"DIS_CODE":0,"TOWNNAME":"新化區","LI":"唪口里","LIN":"3鄰","STREET":"大德路","SECT":" ","MAREA":" ","LANE":" ","ALLEY":" ","HOUSE_NO":"８２號之８","E_COORD97":178237.73999999999,"N_COORD97":2549463.2599999998,"ADDRESS":"大德路８２號之８","OBJECTID":608018},"geometry":{"x":178237.74000000115,"y":2549463.2599999998}},{"attributes":{"ID":608046,"DIS_CODE":0,"TOWNNAME":"新化區","LI":"武安里","LIN":"3鄰","STREET":"和平街","SECT":" ","MAREA":" ","LANE":" ","ALLEY":" ","HOUSE_NO":"６５號","E_COORD97":179085.47,"N_COORD97":2548143.25,"ADDRESS":"和平街６５號","OBJECTID":608019},"geometry":{"x":179085.46999999974,"y":2548143.2500000019}},{"attributes":{"ID":608047,"DIS_CODE":0,"TOWNNAME":"新化區","LI":"竹林里","LIN":"3鄰","STREET":"民權街","SECT":" ","MAREA":" ","LANE":" ","ALLEY":" ","HOUSE_NO":"２４號之１","E_COORD97":178767.59,"N_COORD97":2548470.2599999998,"ADDRESS":"民權街２４號之１","OBJECTID":608020},"geometry":{"x":178767.59000000078,"y":2548470.2599999979}},{"attributes":{"ID":608048,"DIS_CODE":0,"TOWNNAME":"永康區","LI":"北灣里","LIN":"12鄰","STREET":"大民街","SECT":" ","MAREA":" ","LANE":" ","ALLEY":" ","HOUSE_NO":"１４６號","E_COORD97":174947.92000000001,"N_COORD97":2545620.3300000001,"ADDRESS":"大民街１４６號","OBJECTID":608021},"geometry":{"x":174947.91999999993,"y":2545620.3300000019}},{"attributes":{"ID":608049,"DIS_CODE":0,"TOWNNAME":"新化區","LI":"護國里","LIN":"3鄰","STREET":"仁愛街","SECT":" ","MAREA":" ","LANE":" ","ALLEY":" ","HOUSE_NO":"２５號","E_COORD97":179188.78,"N_COORD97":2548602.25,"ADDRESS":"仁愛街２５號","OBJECTID":608022},"geometry":{"x":179188.78000000119,"y":2548602.25}},{"attributes":{"ID":608050,"DIS_CODE":0,"TOWNNAME":"新化區","LI":"清水里","LIN":"3鄰","STREET":"民治路","SECT":" ","MAREA":" ","LANE":" ","ALLEY":" ","HOUSE_NO":"１４９號","E_COORD97":178654.60999999999,"N_COORD97":2548368.25,"ADDRESS":"民治路１４９號","OBJECTID":608023},"geometry":{"x":178654.61000000034,"y":2548368.25}},{"attributes":{"ID":608051,"DIS_CODE":0,"TOWNNAME":"新化區","LI":"清水里","LIN":"3鄰","STREET":"民治路","SECT":" ","MAREA":" ","LANE":" ","ALLEY":" ","HOUSE_NO":"１２３號","E_COORD97":178673.31,"N_COORD97":2548320.2400000002,"ADDRESS":"民治路１２３號","OBJECTID":608024},"geometry":{"x":178673.30999999959,"y":2548320.2400000002}},{"attributes":{"ID":608052,"DIS_CODE":0,"TOWNNAME":"新化區","LI":"護國里","LIN":"3鄰","STREET":"建國街","SECT":" ","MAREA":" ","LANE":" ","ALLEY":" ","HOUSE_NO":"２７號","E_COORD97":179198.48000000001,"N_COORD97":2548589.2599999998,"ADDRESS":"建國街２７號","OBJECTID":608025},"geometry":{"x":179198.48000000045,"y":2548589.2600000035}},{"attributes":{"ID":608053,"DIS_CODE":0,"TOWNNAME":"新化區","LI":"護國里","LIN":"3鄰","STREET":"建國街","SECT":" ","MAREA":" ","LANE":" ","ALLEY":" ","HOUSE_NO":"１９號","E_COORD97":179207.67999999999,"N_COORD97":2548561.2599999998,"ADDRESS":"建國街１９號","OBJECTID":608026},"geometry":{"x":179207.6799999997,"y":2548561.2599999998}},{"attributes":{"ID":608054,"DIS_CODE":0,"TOWNNAME":"新化區","LI":"清水里","LIN":"3鄰","STREET":"正新路","SECT":" ","MAREA":" ","LANE":" ","ALLEY":" ","HOUSE_NO":"１９２號","E_COORD97":178568.92000000001,"N_COORD97":2548363.25,"ADDRESS":"正新路１９２號","OBJECTID":608027},"geometry":{"x":178568.91999999993,"y":2548363.2500000019}},{"attributes":{"ID":608055,"DIS_CODE":0,"TOWNNAME":"新化區","LI":"清水里","LIN":"3鄰","STREET":"民治路","SECT":" ","MAREA":" ","LANE":" ","ALLEY":" ","HOUSE_NO":"１１３號","E_COORD97":178669.41,"N_COORD97":2548303.25,"ADDRESS":"民治路１１３號","OBJECTID":608028},"geometry":{"x":178669.41000000015,"y":2548303.25}},{"attributes":{"ID":608056,"DIS_CODE":0,"TOWNNAME":"新化區","LI":"清水里","LIN":"3鄰","STREET":"正新路","SECT":" ","MAREA":" ","LANE":" ","ALLEY":" ","HOUSE_NO":"２０６號","E_COORD97":178568.22,"N_COORD97":2548380.25,"ADDRESS":"正新路２０６號","OBJECTID":608029},"geometry":{"x":178568.22000000067,"y":2548380.2500000019}},{"attributes":{"ID":608057,"DIS_CODE":0,"TOWNNAME":"新化區","LI":"清水里","LIN":"3鄰","STREET":"民治路","SECT":" ","MAREA":" ","LANE":" ","ALLEY":" ","HOUSE_NO":"１２９號","E_COORD97":178673.41,"N_COORD97":2548338.25,"ADDRESS":"民治路１２９號","OBJECTID":608030},"geometry":{"x":178673.41000000201,"y":2548338.2499999981}},{"attributes":{"ID":608058,"DIS_CODE":0,"TOWNNAME":"新化區","LI":"太平里","LIN":"3鄰","STREET":"中正路","SECT":" ","MAREA":" ","LANE":" ","ALLEY":" ","HOUSE_NO":"５２０號","E_COORD97":178985.91,"N_COORD97":2548770.25,"ADDRESS":"中正路５２０號","OBJECTID":608031},"geometry":{"x":178985.91000000108,"y":2548770.2500000019}},{"attributes":{"ID":608059,"DIS_CODE":0,"TOWNNAME":"新化區","LI":"唪口里","LIN":"3鄰","STREET":"大德路","SECT":" ","MAREA":" ","LANE":" ","ALLEY":" ","HOUSE_NO":"８２號之３３","E_COORD97":178274.88,"N_COORD97":2549482.2599999998,"ADDRESS":"大德路８２號之３３","OBJECTID":608032},"geometry":{"x":178274.88000000175,"y":2549482.2600000016}},{"attributes":{"ID":608060,"DIS_CODE":0,"TOWNNAME":"新化區","LI":"清水里","LIN":"3鄰","STREET":"正新路","SECT":" ","MAREA":" ","LANE":" ","ALLEY":" ","HOUSE_NO":"１９６號","E_COORD97":178568.72,"N_COORD97":2548367.25,"ADDRESS":"正新路１９６號","OBJECTID":608033},"geometry":{"x":178568.71999999974,"y":2548367.2500000019}},{"attributes":{"ID":608061,"DIS_CODE":0,"TOWNNAME":"新化區","LI":"清水里","LIN":"3鄰","STREET":"民治路","SECT":" ","MAREA":" ","LANE":" ","ALLEY":" ","HOUSE_NO":"１５３號","E_COORD97":178654.01000000001,"N_COORD97":2548376.25,"ADDRESS":"民治路１５３號","OBJECTID":608034},"geometry":{"x":178654.01000000071,"y":2548376.2500000019}},{"attributes":{"ID":608062,"DIS_CODE":0,"TOWNNAME":"新化區","LI":"太平里","LIN":"3鄰","STREET":"中正路","SECT":" ","MAREA":" ","LANE":" ","ALLEY":" ","HOUSE_NO":"５３０號","E_COORD97":178977.31,"N_COORD97":2548802.25,"ADDRESS":"中正路５３０號","OBJECTID":608035},"geometry":{"x":178977.31000000052,"y":2548802.25}},{"attributes":{"ID":608063,"DIS_CODE":0,"TOWNNAME":"新化區","LI":"太平里","LIN":"3鄰","STREET":"中正路","SECT":" ","MAREA":" ","LANE":" ","ALLEY":" ","HOUSE_NO":"５２２號之１","E_COORD97":178981.23999999999,"N_COORD97":2548789.2599999998,"ADDRESS":"中正路５２２號之１","OBJECTID":608036},"geometry":{"x":178981.24000000022,"y":2548789.2600000035}},{"attributes":{"ID":608064,"DIS_CODE":0,"TOWNNAME":"新化區","LI":"唪口里","LIN":"3鄰","STREET":"大德路","SECT":" ","MAREA":" ","LANE":" ","ALLEY":" ","HOUSE_NO":"８２號之１２","E_COORD97":178255.17999999999,"N_COORD97":2549461.2599999998,"ADDRESS":"大德路８２號之１２","OBJECTID":608037},"geometry":{"x":178255.1799999997,"y":2549461.2600000016}},{"attributes":{"ID":608065,"DIS_CODE":0,"TOWNNAME":"新化區","LI":"清水里","LIN":"3鄰","STREET":"民治路","SECT":" ","MAREA":" ","LANE":" ","ALLEY":" ","HOUSE_NO":"１５７號","E_COORD97":178656.70999999999,"N_COORD97":2548387.25,"ADDRESS":"民治路１５７號","OBJECTID":608038},"geometry":{"x":178656.71000000089,"y":2548387.2500000019}},{"attributes":{"ID":608066,"DIS_CODE":0,"TOWNNAME":"新化區","LI":"竹林里","LIN":"3鄰","STREET":"民權街","SECT":" ","MAREA":" ","LANE":" ","ALLEY":" ","HOUSE_NO":"２４號之３","E_COORD97":178767.81,"N_COORD97":2548478.2599999998,"ADDRESS":"民權街２４號之３","OBJECTID":608039},"geometry":{"x":178767.80999999959,"y":2548478.2600000016}},{"attributes":{"ID":608067,"DIS_CODE":0,"TOWNNAME":"永康區","LI":"正強里","LIN":"21鄰","STREET":"中正路","SECT":" ","MAREA":" ","LANE":" ","ALLEY":" ","HOUSE_NO":"１２５號之５","E_COORD97":173394.98000000001,"N_COORD97":2547866.7999999998,"ADDRESS":"中正路１２５號之５","OBJECTID":608040},"geometry":{"x":173394.98000000138,"y":2547866.8000000007}},{"attributes":{"ID":608068,"DIS_CODE":0,"TOWNNAME":"新化區","LI":"唪口里","LIN":"3鄰","STREET":"大德路","SECT":" ","MAREA":" ","LANE":" ","ALLEY":" ","HOUSE_NO":"８２號之１３","E_COORD97":178259.17999999999,"N_COORD97":2549461.2599999998,"ADDRESS":"大德路８２號之１３","OBJECTID":608041},"geometry":{"x":178259.18000000156,"y":2549461.2600000016}},{"attributes":{"ID":608069,"DIS_CODE":0,"TOWNNAME":"新化區","LI":"護國里","LIN":"3鄰","STREET":"仁愛街","SECT":" ","MAREA":" ","LANE":" ","ALLEY":" ","HOUSE_NO":"３１號","E_COORD97":179157.98000000001,"N_COORD97":2548600.25,"ADDRESS":"仁愛街３１號","OBJECTID":608042},"geometry":{"x":179157.97999999952,"y":2548600.2500000019}},{"attributes":{"ID":608070,"DIS_CODE":0,"TOWNNAME":"新化區","LI":"唪口里","LIN":"3鄰","STREET":"大德路","SECT":" ","MAREA":" ","LANE":" ","ALLEY":" ","HOUSE_NO":"８２號之１５","E_COORD97":178263.39000000001,"N_COORD97":2549461.2599999998,"ADDRESS":"大德路８２號之１５","OBJECTID":608043},"geometry":{"x":178263.3900000006,"y":2549461.2600000016}},{"attributes":{"ID":608071,"DIS_CODE":0,"TOWNNAME":"新化區","LI":"唪口里","LIN":"3鄰","STREET":"大德路","SECT":" ","MAREA":" ","LANE":" ","ALLEY":" ","HOUSE_NO":"８２號之２８","E_COORD97":178252.79000000001,"N_COORD97":2549483.2599999998,"ADDRESS":"大德路８２號之２８","OBJECTID":608044},"geometry":{"x":178252.79000000097,"y":2549483.2599999998}},{"attributes":{"ID":608072,"DIS_CODE":0,"TOWNNAME":"新化區","LI":"武安里","LIN":"3鄰","STREET":"正新南路","SECT":" ","MAREA":" ","LANE":" ","ALLEY":" ","HOUSE_NO":"３６號","E_COORD97":179051.42000000001,"N_COORD97":2548025.25,"ADDRESS":"正新南路３６號","OBJECTID":608045},"geometry":{"x":179051.42000000086,"y":2548025.25}},{"attributes":{"ID":608073,"DIS_CODE":0,"TOWNNAME":"新化區","LI":"清水里","LIN":"3鄰","STREET":"民治路","SECT":" ","MAREA":" ","LANE":" ","ALLEY":" ","HOUSE_NO":"１４７號","E_COORD97":178655.01000000001,"N_COORD97":2548364.25,"ADDRESS":"民治路１４７號","OBJECTID":608046},"geometry":{"x":178655.00999999978,"y":2548364.25}},{"attributes":{"ID":608074,"DIS_CODE":0,"TOWNNAME":"新化區","LI":"清水里","LIN":"3鄰","STREET":"民治路","SECT":" ","MAREA":" ","LANE":" ","ALLEY":" ","HOUSE_NO":"１４１號","E_COORD97":178670.01000000001,"N_COORD97":2548363.25,"ADDRESS":"民治路１４１號","OBJECTID":608047},"geometry":{"x":178670.00999999978,"y":2548363.2500000019}},{"attributes":{"ID":608075,"DIS_CODE":0,"TOWNNAME":"新化區","LI":"清水里","LIN":"3鄰","STREET":"民治路","SECT":" ","MAREA":" ","LANE":" ","ALLEY":" ","HOUSE_NO":"１５５號","E_COORD97":178654.01000000001,"N_COORD97":2548379.25,"ADDRESS":"民治路１５５號","OBJECTID":608048},"geometry":{"x":178654.01000000071,"y":2548379.2500000037}},{"attributes":{"ID":608076,"DIS_CODE":0,"TOWNNAME":"新化區","LI":"護國里","LIN":"3鄰","STREET":"建國街","SECT":" ","MAREA":" ","LANE":" ","ALLEY":" ","HOUSE_NO":"２１號","E_COORD97":179206.98000000001,"N_COORD97":2548564.2599999998,"ADDRESS":"建國街２１號","OBJECTID":608049},"geometry":{"x":179206.98000000045,"y":2548564.2599999998}},{"attributes":{"ID":608077,"DIS_CODE":0,"TOWNNAME":"新化區","LI":"太平里","LIN":"3鄰","STREET":"中正路","SECT":" ","MAREA":" ","LANE":" ","ALLEY":" ","HOUSE_NO":"５３２號","E_COORD97":178976.20999999999,"N_COORD97":2548805.25,"ADDRESS":"中正路５３２號","OBJECTID":608050},"geometry":{"x":178976.20999999903,"y":2548805.25}},{"attributes":{"ID":608078,"DIS_CODE":0,"TOWNNAME":"新化區","LI":"清水里","LIN":"3鄰","STREET":"正新路","SECT":" ","MAREA":" ","LANE":" ","ALLEY":" ","HOUSE_NO":"１９８號","E_COORD97":178568.62,"N_COORD97":2548371.25,"ADDRESS":"正新路１９８號","OBJECTID":608051},"geometry":{"x":178568.62000000197,"y":2548371.25}},{"attributes":{"ID":608079,"DIS_CODE":0,"TOWNNAME":"永康區","LI":"正強里","LIN":"27鄰","STREET":"中正路","SECT":" ","MAREA":" ","LANE":" ","ALLEY":" ","HOUSE_NO":"１８９號","E_COORD97":173182.70000000001,"N_COORD97":2547909.9900000002,"ADDRESS":"中正路１８９號","OBJECTID":608052},"geometry":{"x":173182.70000000112,"y":2547909.9900000039}},{"attributes":{"ID":608080,"DIS_CODE":0,"TOWNNAME":"新化區","LI":"清水里","LIN":"3鄰","STREET":"民治路","SECT":" ","MAREA":" ","LANE":" ","ALLEY":" ","HOUSE_NO":"１３９號","E_COORD97":178671.41,"N_COORD97":2548357.25,"ADDRESS":"民治路１３９號","OBJECTID":608053},"geometry":{"x":178671.41000000015,"y":2548357.25}},{"attributes":{"ID":608081,"DIS_CODE":0,"TOWNNAME":"新化區","LI":"觀音里","LIN":"3鄰","STREET":"中山路","SECT":" ","MAREA":" ","LANE":" ","ALLEY":" ","HOUSE_NO":"３３０號","E_COORD97":178945.70999999999,"N_COORD97":2548431.25,"ADDRESS":"中山路３３０號","OBJECTID":608054},"geometry":{"x":178945.70999999903,"y":2548431.2500000019}},{"attributes":{"ID":608082,"DIS_CODE":0,"TOWNNAME":"新化區","LI":"觀音里","LIN":"3鄰","STREET":"中山路","SECT":" ","MAREA":" ","LANE":" ","ALLEY":" ","HOUSE_NO":"３２８號","E_COORD97":178948.91,"N_COORD97":2548431.25,"ADDRESS":"中山路３２８號","OBJECTID":608055},"geometry":{"x":178948.91000000015,"y":2548431.2500000019}},{"attributes":{"ID":608083,"DIS_CODE":0,"TOWNNAME":"新化區","LI":"豐榮里","LIN":"3鄰","STREET":"大智路","SECT":" ","MAREA":" ","LANE":" ","ALLEY":" ","HOUSE_NO":"１６３號之１","E_COORD97":178064.26000000001,"N_COORD97":2548104.2599999998,"ADDRESS":"大智路１６３號之１","OBJECTID":608056},"geometry":{"x":178064.26000000071,"y":2548104.2600000035}},{"attributes":{"ID":608084,"DIS_CODE":0,"TOWNNAME":"新化區","LI":"協興里","LIN":"3鄰","STREET":"忠孝路","SECT":" ","MAREA":" ","LANE":" ","ALLEY":" ","HOUSE_NO":"２４１號","E_COORD97":178498.62,"N_COORD97":2548587.25,"ADDRESS":"忠孝路２４１號","OBJECTID":608057},"geometry":{"x":178498.62000000011,"y":2548587.2500000019}},{"attributes":{"ID":608085,"DIS_CODE":0,"TOWNNAME":"新化區","LI":"唪口里","LIN":"3鄰","STREET":"大德路","SECT":" ","MAREA":" ","LANE":" ","ALLEY":" ","HOUSE_NO":"８４號之２５","E_COORD97":178242.48999999999,"N_COORD97":2549514.2599999998,"ADDRESS":"大德路８４號之２５","OBJECTID":608058},"geometry":{"x":178242.49000000115,"y":2549514.2599999998}},{"attributes":{"ID":608086,"DIS_CODE":0,"TOWNNAME":"新化區","LI":"協興里","LIN":"3鄰","STREET":"忠孝路","SECT":" ","MAREA":" ","LANE":" ","ALLEY":" ","HOUSE_NO":"２３９號","E_COORD97":178504.22,"N_COORD97":2548588.25,"ADDRESS":"忠孝路２３９號","OBJECTID":608059},"geometry":{"x":178504.21999999974,"y":2548588.25}},{"attributes":{"ID":608087,"DIS_CODE":0,"TOWNNAME":"新化區","LI":"協興里","LIN":"3鄰","STREET":"忠孝路","SECT":" ","MAREA":" ","LANE":" ","ALLEY":" ","HOUSE_NO":"２１７號","E_COORD97":178519.01999999999,"N_COORD97":2548542.25,"ADDRESS":"忠孝路２１７號","OBJECTID":608060},"geometry":{"x":178519.01999999955,"y":2548542.2500000019}},{"attributes":{"ID":608088,"DIS_CODE":0,"TOWNNAME":"新化區","LI":"太平里","LIN":"3鄰","STREET":"中正路","SECT":" ","MAREA":" ","LANE":" ","ALLEY":" ","HOUSE_NO":"５２２號","E_COORD97":178981.60999999999,"N_COORD97":2548784.25,"ADDRESS":"中正路５２２號","OBJECTID":608061},"geometry":{"x":178981.61000000034,"y":2548784.2500000019}},{"attributes":{"ID":608089,"DIS_CODE":0,"TOWNNAME":"永康區","LI":"王行里","LIN":"14鄰","STREET":"環工路","SECT":" ","MAREA":" ","LANE":" ","ALLEY":" ","HOUSE_NO":"２４號","E_COORD97":175380.26999999999,"N_COORD97":2549436.8399999999,"ADDRESS":"環工路２４號","OBJECTID":608062},"geometry":{"x":175380.27000000048,"y":2549436.8400000017}},{"attributes":{"ID":608090,"DIS_CODE":0,"TOWNNAME":"永康區","LI":"北灣里","LIN":"29鄰","STREET":"文賢街","SECT":" ","MAREA":" ","LANE":" ","ALLEY":" ","HOUSE_NO":"９２號","E_COORD97":175373.79000000001,"N_COORD97":2545418.0499999998,"ADDRESS":"文賢街９２號","OBJECTID":608063},"geometry":{"x":175373.79000000097,"y":2545418.0500000045}},{"attributes":{"ID":608091,"DIS_CODE":0,"TOWNNAME":"新化區","LI":"武安里","LIN":"3鄰","STREET":"中正路","SECT":" ","MAREA":" ","LANE":" ","ALLEY":" ","HOUSE_NO":"２９９號","E_COORD97":179135.074425,"N_COORD97":2548094.5248500002,"ADDRESS":"中正路２９９號","OBJECTID":608064},"geometry":{"x":179135.0744250007,"y":2548094.5248540025}},{"attributes":{"ID":608092,"DIS_CODE":0,"TOWNNAME":"新化區","LI":"唪口里","LIN":"3鄰","STREET":"大德路","SECT":" ","MAREA":" ","LANE":" ","ALLEY":" ","HOUSE_NO":"８４號之２７","E_COORD97":178250.97,"N_COORD97":2549514.2599999998,"ADDRESS":"大德路８４號之２７","OBJECTID":608065},"geometry":{"x":178250.97000000067,"y":2549514.2599999998}},{"attributes":{"ID":608093,"DIS_CODE":0,"TOWNNAME":"新化區","LI":"武安里","LIN":"3鄰","STREET":"大同街","SECT":" ","MAREA":" ","LANE":" ","ALLEY":" ","HOUSE_NO":"１４號","E_COORD97":179043.98000000001,"N_COORD97":2548069.25,"ADDRESS":"大同街１４號","OBJECTID":608066},"geometry":{"x":179043.98000000045,"y":2548069.25}},{"attributes":{"ID":608094,"DIS_CODE":0,"TOWNNAME":"新化區","LI":"協興里","LIN":"3鄰","STREET":"忠孝路","SECT":" ","MAREA":" ","LANE":" ","ALLEY":" ","HOUSE_NO":"２３５號","E_COORD97":178513.62,"N_COORD97":2548591.25,"ADDRESS":"忠孝路２３５號","OBJECTID":608067},"geometry":{"x":178513.62000000011,"y":2548591.25}},{"attributes":{"ID":608095,"DIS_CODE":0,"TOWNNAME":"新化區","LI":"協興里","LIN":"3鄰","STREET":"忠孝路","SECT":" ","MAREA":" ","LANE":" ","ALLEY":" ","HOUSE_NO":"２０１號","E_COORD97":178536.62,"N_COORD97":2548558.25,"ADDRESS":"忠孝路２０１號","OBJECTID":608068},"geometry":{"x":178536.62000000104,"y":2548558.25}},{"attributes":{"ID":608096,"DIS_CODE":0,"TOWNNAME":"新化區","LI":"協興里","LIN":"3鄰","STREET":"忠孝路","SECT":" ","MAREA":" ","LANE":" ","ALLEY":" ","HOUSE_NO":"２２７號","E_COORD97":178515.01999999999,"N_COORD97":2548561.25,"ADDRESS":"忠孝路２２７號","OBJECTID":608069},"geometry":{"x":178515.02000000048,"y":2548561.25}},{"attributes":{"ID":608097,"DIS_CODE":0,"TOWNNAME":"新化區","LI":"豐榮里","LIN":"3鄰","STREET":"大智路","SECT":" ","MAREA":" ","LANE":" ","ALLEY":" ","HOUSE_NO":"１５９號","E_COORD97":178072.53,"N_COORD97":2548116.25,"ADDRESS":"大智路１５９號","OBJECTID":608070},"geometry":{"x":178072.53000000212,"y":2548116.2500000019}},{"attributes":{"ID":608098,"DIS_CODE":0,"TOWNNAME":"新化區","LI":"中央里","LIN":"3鄰","STREET":"中正路","SECT":" ","MAREA":" ","LANE":" ","ALLEY":" ","HOUSE_NO":"４３３號","E_COORD97":179079.01000000001,"N_COORD97":2548395.25,"ADDRESS":"中正路４３３號","OBJECTID":608071},"geometry":{"x":179079.00999999978,"y":2548395.25}},{"attributes":{"ID":608099,"DIS_CODE":0,"TOWNNAME":"新化區","LI":"豐榮里","LIN":"3鄰","STREET":"大智路","SECT":" ","MAREA":" ","LANE":" ","ALLEY":" ","HOUSE_NO":"１６３號","E_COORD97":178067.73000000001,"N_COORD97":2548106.25,"ADDRESS":"大智路１６３號","OBJECTID":608072},"geometry":{"x":178067.73000000045,"y":2548106.2500000019}},{"attributes":{"ID":608100,"DIS_CODE":0,"TOWNNAME":"新化區","LI":"武安里","LIN":"3鄰","STREET":"中正路","SECT":" ","MAREA":" ","LANE":" ","ALLEY":" ","HOUSE_NO":"２８５號","E_COORD97":179132.70999999999,"N_COORD97":2548058.25,"ADDRESS":"中正路２８５號","OBJECTID":608073},"geometry":{"x":179132.71000000089,"y":2548058.2500000019}},{"attributes":{"ID":608101,"DIS_CODE":0,"TOWNNAME":"新化區","LI":"武安里","LIN":"3鄰","STREET":"和平街","SECT":" ","MAREA":" ","LANE":" ","ALLEY":" ","HOUSE_NO":"７７號","E_COORD97":179059.87,"N_COORD97":2548141.25,"ADDRESS":"和平街７７號","OBJECTID":608074},"geometry":{"x":179059.87000000011,"y":2548141.25}},{"attributes":{"ID":608102,"DIS_CODE":0,"TOWNNAME":"新化區","LI":"協興里","LIN":"3鄰","STREET":"忠孝路","SECT":" ","MAREA":" ","LANE":" ","ALLEY":" ","HOUSE_NO":"２４５號","E_COORD97":178480.51999999999,"N_COORD97":2548580.25,"ADDRESS":"忠孝路２４５號","OBJECTID":608075},"geometry":{"x":178480.52000000142,"y":2548580.2500000019}},{"attributes":{"ID":608103,"DIS_CODE":0,"TOWNNAME":"新化區","LI":"唪口里","LIN":"3鄰","STREET":"大德路","SECT":" ","MAREA":" ","LANE":" ","ALLEY":" ","HOUSE_NO":"８４號之１８","E_COORD97":178215.69,"N_COORD97":2549515.2599999998,"ADDRESS":"大德路８４號之１８","OBJECTID":608076},"geometry":{"x":178215.68999999948,"y":2549515.2600000016}},{"attributes":{"ID":608104,"DIS_CODE":0,"TOWNNAME":"新化區","LI":"豐榮里","LIN":"3鄰","STREET":"大智路","SECT":" ","MAREA":" ","LANE":" ","ALLEY":" ","HOUSE_NO":"１５７號","E_COORD97":178075.23000000001,"N_COORD97":2548120.25,"ADDRESS":"大智路１５７號","OBJECTID":608077},"geometry":{"x":178075.23000000138,"y":2548120.25}},{"attributes":{"ID":608105,"DIS_CODE":0,"TOWNNAME":"新化區","LI":"唪口里","LIN":"3鄰","STREET":"大德路","SECT":" ","MAREA":" ","LANE":" ","ALLEY":" ","HOUSE_NO":"８４號之２３","E_COORD97":178238.28,"N_COORD97":2549514.2599999998,"ADDRESS":"大德路８４號之２３","OBJECTID":608078},"geometry":{"x":178238.28000000026,"y":2549514.2599999998}},{"attributes":{"ID":608106,"DIS_CODE":0,"TOWNNAME":"新化區","LI":"唪口里","LIN":"3鄰","STREET":"大德路","SECT":" ","MAREA":" ","LANE":" ","ALLEY":" ","HOUSE_NO":"８４號之５","E_COORD97":178228.64000000001,"N_COORD97":2549495.2599999998,"ADDRESS":"大德路８４號之５","OBJECTID":608079},"geometry":{"x":178228.63999999966,"y":2549495.2600000016}},{"attributes":{"ID":608107,"DIS_CODE":0,"TOWNNAME":"新化區","LI":"唪口里","LIN":"3鄰","STREET":"大德路","SECT":" ","MAREA":" ","LANE":" ","ALLEY":" ","HOUSE_NO":"８４號之２","E_COORD97":178220.03,"N_COORD97":2549495.2599999998,"ADDRESS":"大德路８４號之２","OBJECTID":608080},"geometry":{"x":178220.03000000212,"y":2549495.2600000016}},{"attributes":{"ID":608108,"DIS_CODE":0,"TOWNNAME":"永康區","LI":"北灣里","LIN":"41鄰","STREET":"大灣七街","SECT":" ","MAREA":" ","LANE":" ","ALLEY":" ","HOUSE_NO":"５２號","E_COORD97":175089.39000000001,"N_COORD97":2545682.9900000002,"ADDRESS":"大灣七街５２號","OBJECTID":608081},"geometry":{"x":175089.39000000153,"y":2545682.9900000021}},{"attributes":{"ID":608109,"DIS_CODE":0,"TOWNNAME":"永康區","LI":"北灣里","LIN":"29鄰","STREET":"文賢街","SECT":" ","MAREA":" ","LANE":" ","ALLEY":" ","HOUSE_NO":"１０２號","E_COORD97":175377.17999999999,"N_COORD97":2545439.79,"ADDRESS":"文賢街１０２號","OBJECTID":608082},"geometry":{"x":175377.1799999997,"y":2545439.790000001}},{"attributes":{"ID":608110,"DIS_CODE":0,"TOWNNAME":"新化區","LI":"唪口里","LIN":"3鄰","STREET":"大德路","SECT":" ","MAREA":" ","LANE":" ","ALLEY":" ","HOUSE_NO":"８４號之２８","E_COORD97":178255.29000000001,"N_COORD97":2549514.2599999998,"ADDRESS":"大德路８４號之２８","OBJECTID":608083},"geometry":{"x":178255.28999999911,"y":2549514.2599999998}},{"attributes":{"ID":608111,"DIS_CODE":0,"TOWNNAME":"新化區","LI":"協興里","LIN":"3鄰","STREET":"忠孝路","SECT":" ","MAREA":" ","LANE":" ","ALLEY":" ","HOUSE_NO":"２０９號","E_COORD97":178536.22,"N_COORD97":2548541.25,"ADDRESS":"忠孝路２０９號","OBJECTID":608084},"geometry":{"x":178536.21999999974,"y":2548541.25}},{"attributes":{"ID":608112,"DIS_CODE":0,"TOWNNAME":"新化區","LI":"武安里","LIN":"3鄰","STREET":"和平街","SECT":" ","MAREA":" ","LANE":" ","ALLEY":" ","HOUSE_NO":"８１號","E_COORD97":179051.76999999999,"N_COORD97":2548140.25,"ADDRESS":"和平街８１號","OBJECTID":608085},"geometry":{"x":179051.77000000142,"y":2548140.25}},{"attributes":{"ID":608113,"DIS_CODE":0,"TOWNNAME":"新化區","LI":"竹林里","LIN":"3鄰","STREET":"民權街","SECT":" ","MAREA":" ","LANE":" ","ALLEY":" ","HOUSE_NO":"１０號","E_COORD97":178769.26000000001,"N_COORD97":2548449.25,"ADDRESS":"民權街１０號","OBJECTID":608086},"geometry":{"x":178769.26000000071,"y":2548449.25}},{"attributes":{"ID":608114,"DIS_CODE":0,"TOWNNAME":"新化區","LI":"唪口里","LIN":"3鄰","STREET":"大德路","SECT":" ","MAREA":" ","LANE":" ","ALLEY":" ","HOUSE_NO":"８４號之７","E_COORD97":178237.42000000001,"N_COORD97":2549494.2599999998,"ADDRESS":"大德路８４號之７","OBJECTID":608087},"geometry":{"x":178237.42000000179,"y":2549494.2600000035}},{"attributes":{"ID":608115,"DIS_CODE":0,"TOWNNAME":"新化區","LI":"協興里","LIN":"3鄰","STREET":"忠孝路","SECT":" ","MAREA":" ","LANE":" ","ALLEY":" ","HOUSE_NO":"２３１號","E_COORD97":178523.22,"N_COORD97":2548593.25,"ADDRESS":"忠孝路２３１號","OBJECTID":608088},"geometry":{"x":178523.21999999974,"y":2548593.2500000019}},{"attributes":{"ID":608116,"DIS_CODE":0,"TOWNNAME":"永康區","LI":"正強里","LIN":"26鄰","STREET":"中正路","SECT":" ","MAREA":" ","LANE":" ","ALLEY":" ","HOUSE_NO":"１６１號","E_COORD97":173254.25,"N_COORD97":2547888.8900000001,"ADDRESS":"中正路１６１號","OBJECTID":608089},"geometry":{"x":173254.25,"y":2547888.8900000025}},{"attributes":{"ID":608117,"DIS_CODE":0,"TOWNNAME":"永康區","LI":"正強里","LIN":"25鄰","STREET":"中正路","SECT":" ","MAREA":" ","LANE":" ","ALLEY":" ","HOUSE_NO":"１４５號","E_COORD97":173314.70000000001,"N_COORD97":2547879,"ADDRESS":"中正路１４５號","OBJECTID":608090},"geometry":{"x":173314.70000000205,"y":2547879.0000000037}},{"attributes":{"ID":608118,"DIS_CODE":0,"TOWNNAME":"永康區","LI":"北灣里","LIN":"41鄰","STREET":"大灣七街","SECT":" ","MAREA":" ","LANE":" ","ALLEY":" ","HOUSE_NO":"５０號","E_COORD97":175090.23000000001,"N_COORD97":2545678.98,"ADDRESS":"大灣七街５０號","OBJECTID":608091},"geometry":{"x":175090.23000000138,"y":2545678.9800000004}},{"attributes":{"ID":608119,"DIS_CODE":0,"TOWNNAME":"永康區","LI":"北灣里","LIN":"33鄰","STREET":"文賢街","SECT":" ","MAREA":" ","LANE":" ","ALLEY":" ","HOUSE_NO":"２１６號","E_COORD97":175321.29999999999,"N_COORD97":2545771.8199999998,"ADDRESS":"文賢街２１６號","OBJECTID":608092},"geometry":{"x":175321.30000000075,"y":2545771.820000004}},{"attributes":{"ID":608120,"DIS_CODE":0,"TOWNNAME":"永康區","LI":"北灣里","LIN":"29鄰","STREET":"文賢街","SECT":" ","MAREA":" ","LANE":" ","ALLEY":" ","HOUSE_NO":"９６號","E_COORD97":175373.88,"N_COORD97":2545422.54,"ADDRESS":"文賢街９６號","OBJECTID":608093},"geometry":{"x":175373.87999999989,"y":2545422.5399999991}},{"attributes":{"ID":608121,"DIS_CODE":0,"TOWNNAME":"新化區","LI":"中央里","LIN":"3鄰","STREET":"中正路","SECT":" ","MAREA":" ","LANE":" ","ALLEY":" ","HOUSE_NO":"４３９號","E_COORD97":179076.41,"N_COORD97":2548407.25,"ADDRESS":"中正路４３９號","OBJECTID":608094},"geometry":{"x":179076.41000000015,"y":2548407.2500000019}},{"attributes":{"ID":608122,"DIS_CODE":0,"TOWNNAME":"新化區","LI":"唪口里","LIN":"3鄰","STREET":"大德路","SECT":" ","MAREA":" ","LANE":" ","ALLEY":" ","HOUSE_NO":"８４號之９","E_COORD97":178245.82000000001,"N_COORD97":2549494.2599999998,"ADDRESS":"大德路８４號之９","OBJECTID":608095},"geometry":{"x":178245.82000000123,"y":2549494.2600000035}},{"attributes":{"ID":608123,"DIS_CODE":0,"TOWNNAME":"新化區","LI":"竹林里","LIN":"3鄰","STREET":"中山路","SECT":" ","MAREA":" ","LANE":" ","ALLEY":" ","HOUSE_NO":"３８６號","E_COORD97":178816.31,"N_COORD97":2548421.25,"ADDRESS":"中山路３８６號","OBJECTID":608096},"geometry":{"x":178816.31000000052,"y":2548421.2500000019}},{"attributes":{"ID":608124,"DIS_CODE":0,"TOWNNAME":"新化區","LI":"中央里","LIN":"3鄰","STREET":"中正路","SECT":" ","MAREA":" ","LANE":" ","ALLEY":" ","HOUSE_NO":"４４１號","E_COORD97":179075.20999999999,"N_COORD97":2548410.25,"ADDRESS":"中正路４４１號","OBJECTID":608097},"geometry":{"x":179075.21000000089,"y":2548410.2500000019}},{"attributes":{"ID":608125,"DIS_CODE":0,"TOWNNAME":"新化區","LI":"竹林里","LIN":"3鄰","STREET":"中山路","SECT":" ","MAREA":" ","LANE":" ","ALLEY":" ","HOUSE_NO":"３８２號","E_COORD97":178831.70999999999,"N_COORD97":2548422.25,"ADDRESS":"中山路３８２號","OBJECTID":608098},"geometry":{"x":178831.70999999996,"y":2548422.25}},{"attributes":{"ID":608126,"DIS_CODE":0,"TOWNNAME":"新化區","LI":"竹林里","LIN":"3鄰","STREET":"中山路","SECT":" ","MAREA":" ","LANE":" ","ALLEY":" ","HOUSE_NO":"４０４號","E_COORD97":178763.81,"N_COORD97":2548367.25,"ADDRESS":"中山路４０４號","OBJECTID":608099},"geometry":{"x":178763.81000000052,"y":2548367.2500000019}},{"attributes":{"ID":608127,"DIS_CODE":0,"TOWNNAME":"新化區","LI":"護國里","LIN":"3鄰","STREET":"建國街","SECT":" ","MAREA":" ","LANE":" ","ALLEY":" ","HOUSE_NO":"２９號之１","E_COORD97":179196.41,"N_COORD97":2548596.2599999998,"ADDRESS":"建國街２９號之１","OBJECTID":608100},"geometry":{"x":179196.41000000015,"y":2548596.2600000016}},{"attributes":{"ID":608128,"DIS_CODE":0,"TOWNNAME":"新化區","LI":"太平里","LIN":"3鄰","STREET":"太平街","SECT":" ","MAREA":" ","LANE":" ","ALLEY":" ","HOUSE_NO":"１５號之５","E_COORD97":179016.32999999999,"N_COORD97":2548799.2599999998,"ADDRESS":"太平街１５號之５","OBJECTID":608101},"geometry":{"x":179016.33000000194,"y":2548799.2600000035}},{"attributes":{"ID":608129,"DIS_CODE":0,"TOWNNAME":"新化區","LI":"協興里","LIN":"3鄰","STREET":"正新路","SECT":" ","MAREA":" ","LANE":" ","ALLEY":" ","HOUSE_NO":"２５５號","E_COORD97":178557.01999999999,"N_COORD97":2548539.25,"ADDRESS":"正新路２５５號","OBJECTID":608102},"geometry":{"x":178557.02000000048,"y":2548539.2500000019}},{"attributes":{"ID":608130,"DIS_CODE":0,"TOWNNAME":"永康區","LI":"北灣里","LIN":"18鄰","STREET":"文賢街","SECT":" ","MAREA":" ","LANE":" ","ALLEY":" ","HOUSE_NO":"４５６號","E_COORD97":174634.73999999999,"N_COORD97":2545837.6699999999,"ADDRESS":"文賢街４５６號","OBJECTID":608103},"geometry":{"x":174634.74000000022,"y":2545837.6700000018}},{"attributes":{"ID":608131,"DIS_CODE":0,"TOWNNAME":"永康區","LI":"正強里","LIN":"39鄰","STREET":"中正路","SECT":" ","MAREA":" ","LANE":" ","ALLEY":" ","HOUSE_NO":"２３２號","E_COORD97":173256.95999999999,"N_COORD97":2547907.4900000002,"ADDRESS":"中正路２３２號","OBJECTID":608104},"geometry":{"x":173256.96000000089,"y":2547907.4900000021}},{"attributes":{"ID":608132,"DIS_CODE":0,"TOWNNAME":"永康區","LI":"正強里","LIN":"32鄰","STREET":"中正路","SECT":" ","MAREA":" ","LANE":" ","ALLEY":" ","HOUSE_NO":"２１４號","E_COORD97":173341.16,"N_COORD97":2547891.75,"ADDRESS":"中正路２１４號","OBJECTID":608105},"geometry":{"x":173341.16000000108,"y":2547891.7500000019}},{"attributes":{"ID":608133,"DIS_CODE":0,"TOWNNAME":"新化區","LI":"清水里","LIN":"3鄰","STREET":"中山路","SECT":" ","MAREA":" ","LANE":" ","ALLEY":" ","HOUSE_NO":"４６９號之２","E_COORD97":178630.16,"N_COORD97":2548383.2599999998,"ADDRESS":"中山路４６９號之２","OBJECTID":608106},"geometry":{"x":178630.16000000108,"y":2548383.2600000016}},{"attributes":{"ID":608134,"DIS_CODE":0,"TOWNNAME":"新化區","LI":"協興里","LIN":"3鄰","STREET":"正新路","SECT":" ","MAREA":" ","LANE":" ","ALLEY":" ","HOUSE_NO":"２５３號","E_COORD97":178553.01999999999,"N_COORD97":2548519.25,"ADDRESS":"正新路２５３號","OBJECTID":608107},"geometry":{"x":178553.01999999955,"y":2548519.2500000019}},{"attributes":{"ID":608135,"DIS_CODE":0,"TOWNNAME":"新化區","LI":"協興里","LIN":"3鄰","STREET":"正新路","SECT":" ","MAREA":" ","LANE":" ","ALLEY":" ","HOUSE_NO":"２６３號","E_COORD97":178558.42000000001,"N_COORD97":2548554.25,"ADDRESS":"正新路２６３號","OBJECTID":608108},"geometry":{"x":178558.42000000086,"y":2548554.25}},{"attributes":{"ID":608136,"DIS_CODE":0,"TOWNNAME":"新化區","LI":"協興里","LIN":"3鄰","STREET":"正新路","SECT":" ","MAREA":" ","LANE":" ","ALLEY":" ","HOUSE_NO":"２７７號","E_COORD97":178559.92000000001,"N_COORD97":2548584.25,"ADDRESS":"正新路２７７號","OBJECTID":608109},"geometry":{"x":178559.92000000086,"y":2548584.2500000019}},{"attributes":{"ID":608137,"DIS_CODE":0,"TOWNNAME":"新化區","LI":"協興里","LIN":"3鄰","STREET":"正新路","SECT":" ","MAREA":" ","LANE":" ","ALLEY":" ","HOUSE_NO":"２６１號","E_COORD97":178558.01999999999,"N_COORD97":2548550.25,"ADDRESS":"正新路２６１號","OBJECTID":608110},"geometry":{"x":178558.01999999955,"y":2548550.2500000019}},{"attributes":{"ID":608138,"DIS_CODE":0,"TOWNNAME":"新化區","LI":"協興里","LIN":"3鄰","STREET":"正新路","SECT":" ","MAREA":" ","LANE":" ","ALLEY":" ","HOUSE_NO":"２５９號","E_COORD97":178557.42000000001,"N_COORD97":2548547.25,"ADDRESS":"正新路２５９號","OBJECTID":608111},"geometry":{"x":178557.41999999993,"y":2548547.25}},{"attributes":{"ID":608139,"DIS_CODE":0,"TOWNNAME":"新化區","LI":"清水里","LIN":"3鄰","STREET":"信義路","SECT":" ","MAREA":" ","LANE":" ","ALLEY":" ","HOUSE_NO":"４４８號","E_COORD97":178612.63,"N_COORD97":2548292.25,"ADDRESS":"信義路４４８號","OBJECTID":608112},"geometry":{"x":178612.63000000082,"y":2548292.2500000019}},{"attributes":{"ID":608140,"DIS_CODE":0,"TOWNNAME":"永康區","LI":"北灣里","LIN":"29鄰","STREET":"文賢街","SECT":" ","MAREA":" ","LANE":" ","ALLEY":" ","HOUSE_NO":"１２０號","E_COORD97":175376.67999999999,"N_COORD97":2545510.8300000001,"ADDRESS":"文賢街１２０號","OBJECTID":608113},"geometry":{"x":175376.6799999997,"y":2545510.8300000019}},{"attributes":{"ID":608141,"DIS_CODE":0,"TOWNNAME":"永康區","LI":"北灣里","LIN":"11鄰","STREET":"大灣七街","SECT":" ","MAREA":" ","LANE":" ","ALLEY":" ","HOUSE_NO":"６５號","E_COORD97":175065.06,"N_COORD97":2545708.1800000002,"ADDRESS":"大灣七街６５號","OBJECTID":608114},"geometry":{"x":175065.06000000052,"y":2545708.1800000016}},{"attributes":{"ID":608142,"DIS_CODE":0,"TOWNNAME":"新化區","LI":"協興里","LIN":"3鄰","STREET":"正新路","SECT":" ","MAREA":" ","LANE":" ","ALLEY":" ","HOUSE_NO":"２７５號","E_COORD97":178559.72,"N_COORD97":2548579.25,"ADDRESS":"正新路２７５號","OBJECTID":608115},"geometry":{"x":178559.72000000067,"y":2548579.2500000037}},{"attributes":{"ID":608143,"DIS_CODE":0,"TOWNNAME":"永康區","LI":"正強里","LIN":"25鄰","STREET":"中正路","SECT":" ","MAREA":" ","LANE":" ","ALLEY":" ","HOUSE_NO":"１３５號","E_COORD97":173337.34,"N_COORD97":2547877,"ADDRESS":"中正路１３５號","OBJECTID":608116},"geometry":{"x":173337.34000000078,"y":2547877.0000000019}},{"attributes":{"ID":608144,"DIS_CODE":0,"TOWNNAME":"永康區","LI":"正強里","LIN":"32鄰","STREET":"中正路","SECT":" ","MAREA":" ","LANE":" ","ALLEY":" ","HOUSE_NO":"２２６號","E_COORD97":173310.89999999999,"N_COORD97":2547902.25,"ADDRESS":"中正路２２６號","OBJECTID":608117},"geometry":{"x":173310.9000000013,"y":2547902.2500000019}},{"attributes":{"ID":608145,"DIS_CODE":0,"TOWNNAME":"新化區","LI":"太平里","LIN":"3鄰","STREET":"中正路","SECT":" ","MAREA":" ","LANE":" ","ALLEY":" ","HOUSE_NO":"５１６號","E_COORD97":179023.60999999999,"N_COORD97":2548778.25,"ADDRESS":"中正路５１６號","OBJECTID":608118},"geometry":{"x":179023.61000000127,"y":2548778.25}},{"attributes":{"ID":608146,"DIS_CODE":0,"TOWNNAME":"新化區","LI":"協興里","LIN":"3鄰","STREET":"正新路","SECT":" ","MAREA":" ","LANE":" ","ALLEY":" ","HOUSE_NO":"２６５號","E_COORD97":178558.72,"N_COORD97":2548560.25,"ADDRESS":"正新路２６５號","OBJECTID":608119},"geometry":{"x":178558.71999999974,"y":2548560.2500000019}},{"attributes":{"ID":608147,"DIS_CODE":0,"TOWNNAME":"新化區","LI":"護國里","LIN":"3鄰","STREET":"仁愛街","SECT":" ","MAREA":" ","LANE":" ","ALLEY":" ","HOUSE_NO":"２９號之１","E_COORD97":179166.51000000001,"N_COORD97":2548601.2599999998,"ADDRESS":"仁愛街２９號之１","OBJECTID":608120},"geometry":{"x":179166.50999999978,"y":2548601.2599999998}},{"attributes":{"ID":608148,"DIS_CODE":0,"TOWNNAME":"新化區","LI":"清水里","LIN":"3鄰","STREET":"民治路","SECT":" ","MAREA":" ","LANE":" ","ALLEY":" ","HOUSE_NO":"１４５號","E_COORD97":178669.41,"N_COORD97":2548374.25,"ADDRESS":"民治路１４５號","OBJECTID":608121},"geometry":{"x":178669.41000000015,"y":2548374.25}},{"attributes":{"ID":608149,"DIS_CODE":0,"TOWNNAME":"新化區","LI":"唪口里","LIN":"3鄰","STREET":"大德路","SECT":" ","MAREA":" ","LANE":" ","ALLEY":" ","HOUSE_NO":"８４號之１","E_COORD97":178214.91,"N_COORD97":2549495.2599999998,"ADDRESS":"大德路８４號之１","OBJECTID":608122},"geometry":{"x":178214.91000000015,"y":2549495.2600000016}},{"attributes":{"ID":608150,"DIS_CODE":0,"TOWNNAME":"新化區","LI":"清水里","LIN":"3鄰","STREET":"正新路","SECT":" ","MAREA":" ","LANE":" ","ALLEY":" ","HOUSE_NO":"２００號","E_COORD97":178568.51999999999,"N_COORD97":2548376.25,"ADDRESS":"正新路２００號","OBJECTID":608123},"geometry":{"x":178568.51999999862,"y":2548376.2500000019}},{"attributes":{"ID":608151,"DIS_CODE":0,"TOWNNAME":"新化區","LI":"太平里","LIN":"3鄰","STREET":"太平街","SECT":" ","MAREA":" ","LANE":" ","ALLEY":" ","HOUSE_NO":"５號","E_COORD97":179077.62,"N_COORD97":2548836.25,"ADDRESS":"太平街５號","OBJECTID":608124},"geometry":{"x":179077.62000000104,"y":2548836.25}},{"attributes":{"ID":608152,"DIS_CODE":0,"TOWNNAME":"新化區","LI":"武安里","LIN":"3鄰","STREET":"和平街","SECT":" ","MAREA":" ","LANE":" ","ALLEY":" ","HOUSE_NO":"６１號之１","E_COORD97":179108.13,"N_COORD97":2548141.3900000001,"ADDRESS":"和平街６１號之１","OBJECTID":608125},"geometry":{"x":179108.13000000082,"y":2548141.3899999987}},{"attributes":{"ID":608153,"DIS_CODE":0,"TOWNNAME":"北區","LI":"仁愛里","LIN":"3鄰","STREET":"勝利路","SECT":" ","MAREA":" ","LANE":" ","ALLEY":" ","HOUSE_NO":"１９４號","E_COORD97":169931.70999999999,"N_COORD97":2544935.9100000001,"ADDRESS":"勝利路１９４號","OBJECTID":608126},"geometry":{"x":169931.70999999996,"y":2544935.9100000001}},{"attributes":{"ID":608154,"DIS_CODE":0,"TOWNNAME":"永康區","LI":"北灣里","LIN":"20鄰","STREET":"北興路","SECT":" ","MAREA":" ","LANE":" ","ALLEY":" ","HOUSE_NO":"６號","E_COORD97":174600.57999999999,"N_COORD97":2546023.0099999998,"ADDRESS":"北興路６號","OBJECTID":608127},"geometry":{"x":174600.58000000101,"y":2546023.0099999998}},{"attributes":{"ID":608155,"DIS_CODE":0,"TOWNNAME":"永康區","LI":"北灣里","LIN":"7鄰","STREET":"大灣七街","SECT":" ","MAREA":" ","LANE":" ","ALLEY":" ","HOUSE_NO":"１２號","E_COORD97":175094.32999999999,"N_COORD97":2545581.5800000001,"ADDRESS":"大灣七街１２號","OBJECTID":608128},"geometry":{"x":175094.33000000101,"y":2545581.5800000019}},{"attributes":{"ID":608156,"DIS_CODE":0,"TOWNNAME":"永康區","LI":"六合里","LIN":"1鄰","STREET":"新興街","SECT":" ","MAREA":" ","LANE":" ","ALLEY":" ","HOUSE_NO":"１２之２號","E_COORD97":170938.06,"N_COORD97":2545782.4900000002,"ADDRESS":"新興街１２之２號","OBJECTID":608129},"geometry":{"x":170938.05999999959,"y":2545782.4900000002}},{"attributes":{"ID":608157,"DIS_CODE":0,"TOWNNAME":"南區","LI":"日新里","LIN":"3鄰","STREET":"利南街","SECT":" ","MAREA":" ","LANE":" ","ALLEY":" ","HOUSE_NO":"７６號","E_COORD97":166766.54000000001,"N_COORD97":2541233.1600000001,"ADDRESS":"利南街７６號","OBJECTID":608130},"geometry":{"x":166766.54000000004,"y":2541233.1600000039}},{"attributes":{"ID":608158,"DIS_CODE":0,"TOWNNAME":"歸仁區","LI":"崙頂里","LIN":"3鄰","STREET":"成功八街","SECT":" ","MAREA":" ","LANE":" ","ALLEY":" ","HOUSE_NO":"８６號","E_COORD97":178140.75,"N_COORD97":2539974.7999999998,"ADDRESS":"成功八街８６號","OBJECTID":608131},"geometry":{"x":178140.75000000093,"y":2539974.8000000045}},{"attributes":{"ID":608159,"DIS_CODE":0,"TOWNNAME":"歸仁區","LI":"大廟里","LIN":"3鄰","STREET":"大廟三街","SECT":" ","MAREA":" ","LANE":" ","ALLEY":" ","HOUSE_NO":"９６號","E_COORD97":176165.01000000001,"N_COORD97":2543892.3300000001,"ADDRESS":"大廟三街９６號","OBJECTID":608132},"geometry":{"x":176165.00999999885,"y":2543892.3300000001}},{"attributes":{"ID":608160,"DIS_CODE":0,"TOWNNAME":"永康區","LI":"永康里","LIN":"3鄰","STREET":"中山路","SECT":" ","MAREA":" ","LANE":" ","ALLEY":" ","HOUSE_NO":"５８號","E_COORD97":173865.51000000001,"N_COORD97":2547526.6299999999,"ADDRESS":"中山路５８號","OBJECTID":608133},"geometry":{"x":173865.51000000071,"y":2547526.629999999}},{"attributes":{"ID":608161,"DIS_CODE":0,"TOWNNAME":"永康區","LI":"甲頂里","LIN":"3鄰","STREET":"中華路","SECT":" ","MAREA":" ","LANE":" ","ALLEY":" ","HOUSE_NO":"１０２２之１號","E_COORD97":169485.85999999999,"N_COORD97":2547080.4700000002,"ADDRESS":"中華路１０２２之１號","OBJECTID":608134},"geometry":{"x":169485.86000000034,"y":2547080.4700000025}},{"attributes":{"ID":608162,"DIS_CODE":0,"TOWNNAME":"歸仁區","LI":"大廟里","LIN":"3鄰","STREET":"大廟三街","SECT":" ","MAREA":" ","LANE":" ","ALLEY":" ","HOUSE_NO":"１２９號","E_COORD97":176296.12,"N_COORD97":2543715.6899999999,"ADDRESS":"大廟三街１２９號","OBJECTID":608135},"geometry":{"x":176296.12000000011,"y":2543715.6899999995}},{"attributes":{"ID":608163,"DIS_CODE":0,"TOWNNAME":"歸仁區","LI":"大廟里","LIN":"3鄰","STREET":"大廟三街","SECT":" ","MAREA":" ","LANE":" ","ALLEY":" ","HOUSE_NO":"１２９之１號","E_COORD97":176361.78,"N_COORD97":2543777.5,"ADDRESS":"大廟三街１２９之１號","OBJECTID":608136},"geometry":{"x":176361.78000000026,"y":2543777.5000000019}},{"attributes":{"ID":608164,"DIS_CODE":0,"TOWNNAME":"永康區","LI":"北灣里","LIN":"13鄰","STREET":"文賢街","SECT":" ","MAREA":" ","LANE":" ","ALLEY":" ","HOUSE_NO":"２８９號","E_COORD97":175170.92999999999,"N_COORD97":2545812.5600000001,"ADDRESS":"文賢街２８９號","OBJECTID":608137},"geometry":{"x":175170.93000000063,"y":2545812.5600000024}},{"attributes":{"ID":608165,"DIS_CODE":0,"TOWNNAME":"安南區","LI":"幸福里","LIN":"3鄰","STREET":"國安街","SECT":" ","MAREA":" ","LANE":" ","ALLEY":" ","HOUSE_NO":"７７號","E_COORD97":166946.85999999999,"N_COORD97":2546985.8900000001,"ADDRESS":"國安街７７號","OBJECTID":608138},"geometry":{"x":166946.86000000127,"y":2546985.8900000025}},{"attributes":{"ID":608166,"DIS_CODE":0,"TOWNNAME":"新市區","LI":"新和里","LIN":"3鄰","STREET":"仁愛街","SECT":" ","MAREA":" ","LANE":" ","ALLEY":" ","HOUSE_NO":"２３之２號","E_COORD97":177421.59,"N_COORD97":2552127.2999999998,"ADDRESS":"仁愛街２３之２號","OBJECTID":608139},"geometry":{"x":177421.59000000078,"y":2552127.3000000026}},{"attributes":{"ID":608167,"DIS_CODE":0,"TOWNNAME":"安南區","LI":"幸福里","LIN":"3鄰","STREET":"國安街","SECT":" ","MAREA":" ","LANE":" ","ALLEY":" ","HOUSE_NO":"７９號","E_COORD97":166942.29999999999,"N_COORD97":2546984.9300000002,"ADDRESS":"國安街７９號","OBJECTID":608140},"geometry":{"x":166942.29999999981,"y":2546984.9300000016}},{"attributes":{"ID":608168,"DIS_CODE":0,"TOWNNAME":"永康區","LI":"北灣里","LIN":"9鄰","STREET":"大灣七街","SECT":" ","MAREA":" ","LANE":" ","ALLEY":" ","HOUSE_NO":"３７號","E_COORD97":175081.82000000001,"N_COORD97":2545638.9399999999,"ADDRESS":"大灣七街３７號","OBJECTID":608141},"geometry":{"x":175081.8200000003,"y":2545638.9400000013}},{"attributes":{"ID":608169,"DIS_CODE":0,"TOWNNAME":"仁德區","LI":"土庫里","LIN":"3鄰","STREET":"土庫路","SECT":" ","MAREA":" ","LANE":" ","ALLEY":" ","HOUSE_NO":"１７０號","E_COORD97":174262.29999999999,"N_COORD97":2542954.2400000002,"ADDRESS":"土庫路１７０號","OBJECTID":608142},"geometry":{"x":174262.29999999981,"y":2542954.2400000002}},{"attributes":{"ID":608170,"DIS_CODE":0,"TOWNNAME":"東區","LI":"龍山里","LIN":"3鄰","STREET":"東門路","SECT":"二段","MAREA":" ","LANE":" ","ALLEY":" ","HOUSE_NO":"１８０號","E_COORD97":170321.37,"N_COORD97":2542857.3300000001,"ADDRESS":"東門路二段１８０號","OBJECTID":608143},"geometry":{"x":170321.37000000197,"y":2542857.3300000019}},{"attributes":{"ID":608171,"DIS_CODE":0,"TOWNNAME":"東區","LI":"龍山里","LIN":"3鄰","STREET":"東門路","SECT":"二段","MAREA":" ","LANE":" ","ALLEY":" ","HOUSE_NO":"１８２號","E_COORD97":170325.76000000001,"N_COORD97":2542854.8599999999,"ADDRESS":"東門路二段１８２號","OBJECTID":608144},"geometry":{"x":170325.76000000071,"y":2542854.8600000031}},{"attributes":{"ID":608172,"DIS_CODE":0,"TOWNNAME":"東區","LI":"龍山里","LIN":"3鄰","STREET":"東門路","SECT":"二段","MAREA":" ","LANE":" ","ALLEY":" ","HOUSE_NO":"１８４號","E_COORD97":170329.03,"N_COORD97":2542851.1000000001,"ADDRESS":"東門路二段１８４號","OBJECTID":608145},"geometry":{"x":170329.03000000212,"y":2542851.1000000015}},{"attributes":{"ID":608173,"DIS_CODE":0,"TOWNNAME":"東區","LI":"龍山里","LIN":"3鄰","STREET":"東門路","SECT":"二段","MAREA":" ","LANE":" ","ALLEY":" ","HOUSE_NO":"１８６號","E_COORD97":170336.41,"N_COORD97":2542843.73,"ADDRESS":"東門路二段１８６號","OBJECTID":608146},"geometry":{"x":170336.41000000201,"y":2542843.7300000023}},{"attributes":{"ID":608174,"DIS_CODE":0,"TOWNNAME":"東區","LI":"龍山里","LIN":"3鄰","STREET":"富德街","SECT":" ","MAREA":" ","LANE":" ","ALLEY":" ","HOUSE_NO":"２３號之２","E_COORD97":170385.78,"N_COORD97":2542763.5699999998,"ADDRESS":"富德街２３號之２","OBJECTID":608147},"geometry":{"x":170385.78000000026,"y":2542763.5700000022}},{"attributes":{"ID":608175,"DIS_CODE":0,"TOWNNAME":"東區","LI":"龍山里","LIN":"3鄰","STREET":"富德街","SECT":" ","MAREA":" ","LANE":" ","ALLEY":" ","HOUSE_NO":"２３號之３","E_COORD97":170381.73000000001,"N_COORD97":2542765.8500000001,"ADDRESS":"富德街２３號之３","OBJECTID":608148},"geometry":{"x":170381.73000000045,"y":2542765.8499999996}},{"attributes":{"ID":608176,"DIS_CODE":0,"TOWNNAME":"東區","LI":"龍山里","LIN":"3鄰","STREET":"富德街","SECT":" ","MAREA":" ","LANE":" ","ALLEY":" ","HOUSE_NO":"２３號之４","E_COORD97":170377.60000000001,"N_COORD97":2542768.4900000002,"ADDRESS":"富德街２３號之４","OBJECTID":608149},"geometry":{"x":170377.60000000056,"y":2542768.4900000002}},{"attributes":{"ID":608177,"DIS_CODE":0,"TOWNNAME":"東區","LI":"龍山里","LIN":"3鄰","STREET":"富德街","SECT":" ","MAREA":" ","LANE":" ","ALLEY":" ","HOUSE_NO":"２３號之５","E_COORD97":170379.35999999999,"N_COORD97":2542772.7999999998,"ADDRESS":"富德街２３號之５","OBJECTID":608150},"geometry":{"x":170379.3600000022,"y":2542772.8000000026}},{"attributes":{"ID":608178,"DIS_CODE":0,"TOWNNAME":"東區","LI":"龍山里","LIN":"3鄰","STREET":"富德街","SECT":" ","MAREA":" ","LANE":" ","ALLEY":" ","HOUSE_NO":"２３號之６","E_COORD97":170381.73000000001,"N_COORD97":2542777.46,"ADDRESS":"富德街２３號之６","OBJECTID":608151},"geometry":{"x":170381.73000000045,"y":2542777.4600000009}},{"attributes":{"ID":608179,"DIS_CODE":0,"TOWNNAME":"東區","LI":"龍山里","LIN":"3鄰","STREET":"富德街","SECT":" ","MAREA":" ","LANE":" ","ALLEY":" ","HOUSE_NO":"２３號之７","E_COORD97":170382.88,"N_COORD97":2542780.98,"ADDRESS":"富德街２３號之７","OBJECTID":608152},"geometry":{"x":170382.88000000082,"y":2542780.9800000023}},{"attributes":{"ID":608180,"DIS_CODE":0,"TOWNNAME":"東區","LI":"龍山里","LIN":"3鄰","STREET":"富德街","SECT":" ","MAREA":" ","LANE":" ","ALLEY":" ","HOUSE_NO":"２３號之８","E_COORD97":170360.28,"N_COORD97":2542789.1499999999,"ADDRESS":"富德街２３號之８","OBJECTID":608153},"geometry":{"x":170360.28000000119,"y":2542789.1500000004}},{"attributes":{"ID":608181,"DIS_CODE":0,"TOWNNAME":"東區","LI":"龍山里","LIN":"3鄰","STREET":"富德街","SECT":" ","MAREA":" ","LANE":" ","ALLEY":" ","HOUSE_NO":"２７號","E_COORD97":170369.82999999999,"N_COORD97":2542807.2000000002,"ADDRESS":"富德街２７號","OBJECTID":608154},"geometry":{"x":170369.83000000101,"y":2542807.1999999993}},{"attributes":{"ID":608182,"DIS_CODE":0,"TOWNNAME":"東區","LI":"龍山里","LIN":"3鄰","STREET":"富德街","SECT":" ","MAREA":" ","LANE":" ","ALLEY":" ","HOUSE_NO":"２９號","E_COORD97":170366.66,"N_COORD97":2542811.5,"ADDRESS":"富德街２９號","OBJECTID":608155},"geometry":{"x":170366.66000000015,"y":2542811.5000000019}},{"attributes":{"ID":608183,"DIS_CODE":0,"TOWNNAME":"東區","LI":"龍山里","LIN":"3鄰","STREET":"富德街","SECT":" ","MAREA":" ","LANE":" ","ALLEY":" ","HOUSE_NO":"３１號","E_COORD97":170361.69,"N_COORD97":2542812.8500000001,"ADDRESS":"富德街３１號","OBJECTID":608156},"geometry":{"x":170361.69000000041,"y":2542812.8499999996}},{"attributes":{"ID":608184,"DIS_CODE":0,"TOWNNAME":"東區","LI":"龍山里","LIN":"3鄰","STREET":"富德街","SECT":" ","MAREA":" ","LANE":" ","ALLEY":" ","HOUSE_NO":"３５號","E_COORD97":170358.97,"N_COORD97":2542818.5099999998,"ADDRESS":"富德街３５號","OBJECTID":608157},"geometry":{"x":170358.96999999974,"y":2542818.5100000016}},{"attributes":{"ID":608185,"DIS_CODE":0,"TOWNNAME":"東區","LI":"龍山里","LIN":"3鄰","STREET":"富德街","SECT":" ","MAREA":" ","LANE":" ","ALLEY":" ","HOUSE_NO":"３７號","E_COORD97":170356.48000000001,"N_COORD97":2542821.6699999999,"ADDRESS":"富德街３７號","OBJECTID":608158},"geometry":{"x":170356.48000000045,"y":2542821.6699999999}},{"attributes":{"ID":608186,"DIS_CODE":0,"TOWNNAME":"東區","LI":"龍山里","LIN":"3鄰","STREET":"富德街","SECT":" ","MAREA":" ","LANE":" ","ALLEY":" ","HOUSE_NO":"３９號","E_COORD97":170355.79999999999,"N_COORD97":2542824.1600000001,"ADDRESS":"富德街３９號","OBJECTID":608159},"geometry":{"x":170355.80000000075,"y":2542824.160000002}},{"attributes":{"ID":608187,"DIS_CODE":0,"TOWNNAME":"東區","LI":"龍山里","LIN":"3鄰","STREET":"富德街","SECT":" ","MAREA":" ","LANE":" ","ALLEY":" ","HOUSE_NO":"４１號","E_COORD97":170354.97,"N_COORD97":2542825.79,"ADDRESS":"富德街４１號","OBJECTID":608160},"geometry":{"x":170354.97000000067,"y":2542825.790000001}},{"attributes":{"ID":608188,"DIS_CODE":0,"TOWNNAME":"東區","LI":"龍山里","LIN":"3鄰","STREET":"富德街","SECT":" ","MAREA":" ","LANE":" ","ALLEY":" ","HOUSE_NO":"４３號","E_COORD97":170351.06,"N_COORD97":2542828.5099999998,"ADDRESS":"富德街４３號","OBJECTID":608161},"geometry":{"x":170351.05999999959,"y":2542828.5100000016}},{"attributes":{"ID":608189,"DIS_CODE":0,"TOWNNAME":"東區","LI":"龍山里","LIN":"3鄰","STREET":"富德街","SECT":" ","MAREA":" ","LANE":" ","ALLEY":" ","HOUSE_NO":"４７號","E_COORD97":170344.94,"N_COORD97":2542832.2999999998,"ADDRESS":"富德街４７號","OBJECTID":608162},"geometry":{"x":170344.94000000227,"y":2542832.3000000007}},{"attributes":{"ID":608190,"DIS_CODE":0,"TOWNNAME":"東區","LI":"龍山里","LIN":"3鄰","STREET":"富德街","SECT":" ","MAREA":" ","LANE":" ","ALLEY":" ","HOUSE_NO":"４９號","E_COORD97":170343.57999999999,"N_COORD97":2542841.3500000001,"ADDRESS":"富德街４９號","OBJECTID":608163},"geometry":{"x":170343.57999999914,"y":2542841.3499999996}},{"attributes":{"ID":608191,"DIS_CODE":0,"TOWNNAME":"永康區","LI":"北灣里","LIN":"41鄰","STREET":"信義二街","SECT":" ","MAREA":" ","LANE":" ","ALLEY":" ","HOUSE_NO":"６０號","E_COORD97":175103.67000000001,"N_COORD97":2545757.7799999998,"ADDRESS":"信義二街６０號","OBJECTID":608164},"geometry":{"x":175103.67000000086,"y":2545757.7800000031}},{"attributes":{"ID":608192,"DIS_CODE":0,"TOWNNAME":"永康區","LI":"六合里","LIN":"1鄰","STREET":"新興街","SECT":" ","MAREA":" ","LANE":" ","ALLEY":" ","HOUSE_NO":"１２號","E_COORD97":170927.72,"N_COORD97":2545779.1899999999,"ADDRESS":"新興街１２號","OBJECTID":608165},"geometry":{"x":170927.72000000067,"y":2545779.1900000013}},{"attributes":{"ID":608193,"DIS_CODE":0,"TOWNNAME":"永康區","LI":"北灣里","LIN":"9鄰","STREET":"大灣七街","SECT":" ","MAREA":" ","LANE":" ","ALLEY":" ","HOUSE_NO":"２１號","E_COORD97":175082.01000000001,"N_COORD97":2545599.3199999998,"ADDRESS":"大灣七街２１號","OBJECTID":608166},"geometry":{"x":175082.01000000164,"y":2545599.3200000022}},{"attributes":{"ID":608194,"DIS_CODE":0,"TOWNNAME":"南區","LI":"文華里","LIN":"3鄰","STREET":"文南路","SECT":" ","MAREA":" ","LANE":" ","ALLEY":" ","HOUSE_NO":"３４６號","E_COORD97":166985.16,"N_COORD97":2543177.8100000001,"ADDRESS":"文南路３４６號","OBJECTID":608167},"geometry":{"x":166985.16000000201,"y":2543177.8100000005}},{"attributes":{"ID":608195,"DIS_CODE":0,"TOWNNAME":"南區","LI":"文華里","LIN":"3鄰","STREET":"文南路","SECT":" ","MAREA":" ","LANE":" ","ALLEY":" ","HOUSE_NO":"３４６號之１","E_COORD97":166984.89000000001,"N_COORD97":2543173.5899999999,"ADDRESS":"文南路３４６號之１","OBJECTID":608168},"geometry":{"x":166984.8900000006,"y":2543173.5900000017}},{"attributes":{"ID":608196,"DIS_CODE":0,"TOWNNAME":"南區","LI":"文華里","LIN":"3鄰","STREET":"文南路","SECT":" ","MAREA":" ","LANE":" ","ALLEY":" ","HOUSE_NO":"３４８號","E_COORD97":166985.25,"N_COORD97":2543182.1200000001,"ADDRESS":"文南路３４８號","OBJECTID":608169},"geometry":{"x":166985.25,"y":2543182.120000001}},{"attributes":{"ID":608197,"DIS_CODE":0,"TOWNNAME":"南區","LI":"文華里","LIN":"3鄰","STREET":"文南路","SECT":" ","MAREA":" ","LANE":" ","ALLEY":" ","HOUSE_NO":"３５０號","E_COORD97":166985.34,"N_COORD97":2543186.2400000002,"ADDRESS":"文南路３５０號","OBJECTID":608170},"geometry":{"x":166985.34000000171,"y":2543186.2400000021}},{"attributes":{"ID":608198,"DIS_CODE":0,"TOWNNAME":"南區","LI":"文華里","LIN":"3鄰","STREET":"文南路","SECT":" ","MAREA":" ","LANE":" ","ALLEY":" ","HOUSE_NO":"３５２號","E_COORD97":166985.88,"N_COORD97":2543190.6400000001,"ADDRESS":"文南路３５２號","OBJECTID":608171},"geometry":{"x":166985.87999999989,"y":2543190.6400000025}},{"attributes":{"ID":608199,"DIS_CODE":0,"TOWNNAME":"永康區","LI":"正強里","LIN":"42鄰","STREET":"中正路","SECT":" ","MAREA":" ","LANE":" ","ALLEY":" ","HOUSE_NO":"２５８號底一層","E_COORD97":173166.98000000001,"N_COORD97":2547933.6099999999,"ADDRESS":"中正路２５８號底一層","OBJECTID":608172},"geometry":{"x":173166.98000000045,"y":2547933.6100000013}},{"attributes":{"ID":608200,"DIS_CODE":0,"TOWNNAME":"永康區","LI":"北灣里","LIN":"41鄰","STREET":"大灣七街","SECT":" ","MAREA":" ","LANE":" ","ALLEY":" ","HOUSE_NO":"８３號","E_COORD97":175059.92000000001,"N_COORD97":2545777.23,"ADDRESS":"大灣七街８３號","OBJECTID":608173},"geometry":{"x":175059.91999999993,"y":2545777.2300000023}},{"attributes":{"ID":608201,"DIS_CODE":0,"TOWNNAME":"永康區","LI":"北灣里","LIN":"13鄰","STREET":"大灣七街","SECT":" ","MAREA":" ","LANE":" ","ALLEY":" ","HOUSE_NO":"１０２號","E_COORD97":175076.26000000001,"N_COORD97":2545844.9700000002,"ADDRESS":"大灣七街１０２號","OBJECTID":608174},"geometry":{"x":175076.25999999978,"y":2545844.9700000007}},{"attributes":{"ID":608202,"DIS_CODE":0,"TOWNNAME":"永康區","LI":"王行里","LIN":"14鄰","STREET":"環工路","SECT":" ","MAREA":" ","LANE":" ","ALLEY":" ","HOUSE_NO":"１０號","E_COORD97":175611.04000000001,"N_COORD97":2549799.4900000002,"ADDRESS":"環工路１０號","OBJECTID":608175},"geometry":{"x":175611.04000000097,"y":2549799.4900000021}},{"attributes":{"ID":608203,"DIS_CODE":0,"TOWNNAME":"永康區","LI":"王行里","LIN":"14鄰","STREET":"環工路","SECT":" ","MAREA":" ","LANE":" ","ALLEY":" ","HOUSE_NO":"８３號","E_COORD97":174822.35000000001,"N_COORD97":2549621.5,"ADDRESS":"環工路８３號","OBJECTID":608176},"geometry":{"x":174822.35000000056,"y":2549621.4999999981}},{"attributes":{"ID":608204,"DIS_CODE":0,"TOWNNAME":"永康區","LI":"北灣里","LIN":"33鄰","STREET":"文賢街","SECT":" ","MAREA":" ","LANE":" ","ALLEY":" ","HOUSE_NO":"２２０號","E_COORD97":175304.34,"N_COORD97":2545784.98,"ADDRESS":"文賢街２２０號","OBJECTID":608177},"geometry":{"x":175304.34000000078,"y":2545784.9800000023}},{"attributes":{"ID":608205,"DIS_CODE":0,"TOWNNAME":"永康區","LI":"北灣里","LIN":"11鄰","STREET":"信義二街","SECT":" ","MAREA":" ","LANE":" ","ALLEY":" ","HOUSE_NO":"４９號","E_COORD97":175048.89999999999,"N_COORD97":2545734.1800000002,"ADDRESS":"信義二街４９號","OBJECTID":608178},"geometry":{"x":175048.90000000037,"y":2545734.1799999997}},{"attributes":{"ID":608206,"DIS_CODE":0,"TOWNNAME":"南區","LI":"文華里","LIN":"3鄰","STREET":"文南路","SECT":" ","MAREA":" ","LANE":" ","ALLEY":" ","HOUSE_NO":"３５４號","E_COORD97":166986.92999999999,"N_COORD97":2543195.02,"ADDRESS":"文南路３５４號","OBJECTID":608179},"geometry":{"x":166986.93000000063,"y":2543195.0199999996}},{"attributes":{"ID":608207,"DIS_CODE":0,"TOWNNAME":"南區","LI":"文華里","LIN":"3鄰","STREET":"文南路","SECT":" ","MAREA":" ","LANE":" ","ALLEY":" ","HOUSE_NO":"３５６號","E_COORD97":166986.92999999999,"N_COORD97":2543200.0699999998,"ADDRESS":"文南路３５６號","OBJECTID":608180},"geometry":{"x":166986.93000000063,"y":2543200.0699999984}},{"attributes":{"ID":608208,"DIS_CODE":0,"TOWNNAME":"南區","LI":"文華里","LIN":"3鄰","STREET":"文南路","SECT":" ","MAREA":" ","LANE":" ","ALLEY":" ","HOUSE_NO":"３５８號","E_COORD97":166987.01999999999,"N_COORD97":2543204.3799999999,"ADDRESS":"文南路３５８號","OBJECTID":608181},"geometry":{"x":166987.02000000142,"y":2543204.3800000008}},{"attributes":{"ID":608209,"DIS_CODE":0,"TOWNNAME":"南區","LI":"文華里","LIN":"3鄰","STREET":"文南路","SECT":" ","MAREA":" ","LANE":" ","ALLEY":" ","HOUSE_NO":"３６０號","E_COORD97":166987.29000000001,"N_COORD97":2543207.8799999999,"ADDRESS":"文南路３６０號","OBJECTID":608182},"geometry":{"x":166987.29000000004,"y":2543207.8800000008}},{"attributes":{"ID":608210,"DIS_CODE":0,"TOWNNAME":"南區","LI":"日新里","LIN":"3鄰","STREET":"利南街","SECT":" ","MAREA":" ","LANE":" ","ALLEY":" ","HOUSE_NO":"７４號","E_COORD97":166773.60999999999,"N_COORD97":2541225.2999999998,"ADDRESS":"利南街７４號","OBJECTID":608183},"geometry":{"x":166773.6099999994,"y":2541225.3000000007}},{"attributes":{"ID":608211,"DIS_CODE":0,"TOWNNAME":"永康區","LI":"正強里","LIN":"32鄰","STREET":"四維街","SECT":" ","MAREA":" ","LANE":" ","ALLEY":" ","HOUSE_NO":"４３號","E_COORD97":173400.75,"N_COORD97":2548041.5,"ADDRESS":"四維街４３號","OBJECTID":608184},"geometry":{"x":173400.75000000093,"y":2548041.5}},{"attributes":{"ID":608212,"DIS_CODE":0,"TOWNNAME":"永康區","LI":"北灣里","LIN":"41鄰","STREET":"信義二街","SECT":" ","MAREA":" ","LANE":" ","ALLEY":" ","HOUSE_NO":"５２號","E_COORD97":175118.23000000001,"N_COORD97":2545754.9900000002,"ADDRESS":"信義二街５２號","OBJECTID":608185},"geometry":{"x":175118.23000000045,"y":2545754.9900000021}},{"attributes":{"ID":608213,"DIS_CODE":0,"TOWNNAME":"永康區","LI":"正強里","LIN":"12鄰","STREET":"正強街","SECT":" ","MAREA":" ","LANE":" ","ALLEY":" ","HOUSE_NO":"１０６號","E_COORD97":173352.48999999999,"N_COORD97":2547379.52,"ADDRESS":"正強街１０６號","OBJECTID":608186},"geometry":{"x":173352.49000000115,"y":2547379.5199999996}},{"attributes":{"ID":608214,"DIS_CODE":0,"TOWNNAME":"新市區","LI":"新和里","LIN":"44鄰","STREET":"民權路","SECT":" ","MAREA":" ","LANE":" ","ALLEY":" ","HOUSE_NO":"８號","E_COORD97":177364.17999999999,"N_COORD97":2553093.29,"ADDRESS":"民權路８號","OBJECTID":608187},"geometry":{"x":177364.18000000156,"y":2553093.2899999991}},{"attributes":{"ID":608215,"DIS_CODE":0,"TOWNNAME":"永康區","LI":"北灣里","LIN":"9鄰","STREET":"大灣七街","SECT":" ","MAREA":" ","LANE":" ","ALLEY":" ","HOUSE_NO":"４２號","E_COORD97":175096.44,"N_COORD97":2545653.29,"ADDRESS":"大灣七街４２號","OBJECTID":608188},"geometry":{"x":175096.44000000041,"y":2545653.290000001}},{"attributes":{"ID":608216,"DIS_CODE":0,"TOWNNAME":"佳里區","LI":"六安里","LIN":"3鄰","STREET":"進學路","SECT":" ","MAREA":" ","LANE":" ","ALLEY":" ","HOUSE_NO":"２８號","E_COORD97":166377.98000000001,"N_COORD97":2562700.5699999998,"ADDRESS":"進學路２８號","OBJECTID":608189},"geometry":{"x":166377.98000000231,"y":2562700.5700000003}},{"attributes":{"ID":608217,"DIS_CODE":0,"TOWNNAME":"佳里區","LI":"六安里","LIN":"3鄰","STREET":"進學路","SECT":" ","MAREA":" ","LANE":" ","ALLEY":" ","HOUSE_NO":"３０號","E_COORD97":166373.39999999999,"N_COORD97":2562700.1499999999,"ADDRESS":"進學路３０號","OBJECTID":608190},"geometry":{"x":166373.40000000224,"y":2562700.1500000004}},{"attributes":{"ID":608218,"DIS_CODE":0,"TOWNNAME":"永康區","LI":"永康里","LIN":"3鄰","STREET":"中山路","SECT":" ","MAREA":" ","LANE":" ","ALLEY":" ","HOUSE_NO":"５號","E_COORD97":173842.10000000001,"N_COORD97":2547426.4900000002,"ADDRESS":"中山路５號","OBJECTID":608191},"geometry":{"x":173842.10000000056,"y":2547426.4900000021}},{"attributes":{"ID":608219,"DIS_CODE":0,"TOWNNAME":"永康區","LI":"永康里","LIN":"38鄰","STREET":"大同街","SECT":" ","MAREA":" ","LANE":" ","ALLEY":" ","HOUSE_NO":"７７２號","E_COORD97":174527.20000000001,"N_COORD97":2546710.8399999999,"ADDRESS":"大同街７７２號","OBJECTID":608192},"geometry":{"x":174527.20000000112,"y":2546710.8400000017}},{"attributes":{"ID":608220,"DIS_CODE":0,"TOWNNAME":"永康區","LI":"北灣里","LIN":"41鄰","STREET":"大灣七街","SECT":" ","MAREA":" ","LANE":" ","ALLEY":" ","HOUSE_NO":"６２號","E_COORD97":175084.29000000001,"N_COORD97":2545703.02,"ADDRESS":"大灣七街６２號","OBJECTID":608193},"geometry":{"x":175084.29000000097,"y":2545703.0200000014}},{"attributes":{"ID":608221,"DIS_CODE":0,"TOWNNAME":"永康區","LI":"五王里","LIN":"21鄰","STREET":"振興路","SECT":" ","MAREA":" ","LANE":" ","ALLEY":" ","HOUSE_NO":"５７號","E_COORD97":171488.37,"N_COORD97":2545828.75,"ADDRESS":"振興路５７號","OBJECTID":608194},"geometry":{"x":171488.37000000104,"y":2545828.75}},{"attributes":{"ID":608222,"DIS_CODE":0,"TOWNNAME":"永康區","LI":"北灣里","LIN":"1鄰","STREET":"文賢街","SECT":" ","MAREA":" ","LANE":" ","ALLEY":" ","HOUSE_NO":"１８３號","E_COORD97":175354.10000000001,"N_COORD97":2545466.2999999998,"ADDRESS":"文賢街１８３號","OBJECTID":608195},"geometry":{"x":175354.10000000149,"y":2545466.3000000007}},{"attributes":{"ID":608223,"DIS_CODE":0,"TOWNNAME":"佳里區","LI":"六安里","LIN":"3鄰","STREET":"進學路","SECT":" ","MAREA":" ","LANE":" ","ALLEY":" ","HOUSE_NO":"１０號","E_COORD97":166428.04000000001,"N_COORD97":2562715.23,"ADDRESS":"進學路１０號","OBJECTID":608196},"geometry":{"x":166428.0400000019,"y":2562715.2300000023}},{"attributes":{"ID":608224,"DIS_CODE":0,"TOWNNAME":"佳里區","LI":"六安里","LIN":"3鄰","STREET":"進學路","SECT":" ","MAREA":" ","LANE":" ","ALLEY":" ","HOUSE_NO":"１２０號","E_COORD97":166116.35999999999,"N_COORD97":2562684.48,"ADDRESS":"進學路１２０號","OBJECTID":608197},"geometry":{"x":166116.36000000127,"y":2562684.4800000004}},{"attributes":{"ID":608225,"DIS_CODE":0,"TOWNNAME":"佳里區","LI":"六安里","LIN":"3鄰","STREET":"進學路","SECT":" ","MAREA":" ","LANE":" ","ALLEY":" ","HOUSE_NO":"１４號","E_COORD97":166418.42000000001,"N_COORD97":2562710.3999999999,"ADDRESS":"進學路１４號","OBJECTID":608198},"geometry":{"x":166418.41999999993,"y":2562710.4000000022}},{"attributes":{"ID":608226,"DIS_CODE":0,"TOWNNAME":"佳里區","LI":"六安里","LIN":"3鄰","STREET":"進學路","SECT":" ","MAREA":" ","LANE":" ","ALLEY":" ","HOUSE_NO":"１６號","E_COORD97":166412.66,"N_COORD97":2562708.1600000001,"ADDRESS":"進學路１６號","OBJECTID":608199},"geometry":{"x":166412.66000000108,"y":2562708.160000002}},{"attributes":{"ID":608227,"DIS_CODE":0,"TOWNNAME":"佳里區","LI":"安西里","LIN":"3鄰","STREET":"進學路","SECT":" ","MAREA":" ","LANE":" ","ALLEY":" ","HOUSE_NO":"１９７號","E_COORD97":165619.13,"N_COORD97":2562677.75,"ADDRESS":"進學路１９７號","OBJECTID":608200},"geometry":{"x":165619.13000000082,"y":2562677.7500000019}}]}