{"displayFieldName":"TOWNNAME","fieldAliases":{"ID":"ID","DIS_CODE":"DIS_CODE","TOWNNAME":"TOWNNAME","LI":"LI","LIN":"LIN","STREET":"STREET","SECT":"SECT","MAREA":"MAREA","LANE":"LANE","ALLEY":"ALLEY","HOUSE_NO":"HOUSE_NO","E_COORD97":"E_COORD97","N_COORD97":"N_COORD97","ADDRESS":"ADDRESS","OBJECTID":"OBJECTID"},"geometryType":"esriGeometryPoint","spatialReference":{"wkid":102443,"latestWkid":3826},"fields":[{"name":"ID","type":"esriFieldTypeDouble","alias":"ID"},{"name":"DIS_CODE","type":"esriFieldTypeInteger","alias":"DIS_CODE"},{"name":"TOWNNAME","type":"esriFieldTypeString","alias":"TOWNNAME","length":8},{"name":"LI","type":"esriFieldTypeString","alias":"LI","length":8},{"name":"LIN","type":"esriFieldTypeString","alias":"LIN","length":12},{"name":"STREET","type":"esriFieldTypeString","alias":"STREET","length":20},{"name":"SECT","type":"esriFieldTypeString","alias":"SECT","length":8},{"name":"MAREA","type":"esriFieldTypeString","alias":"MAREA","length":12},{"name":"LANE","type":"esriFieldTypeString","alias":"LANE","length":10},{"name":"ALLEY","type":"esriFieldTypeString","alias":"ALLEY","length":10},{"name":"HOUSE_NO","type":"esriFieldTypeString","alias":"HOUSE_NO","length":20},{"name":"E_COORD97","type":"esriFieldTypeDouble","alias":"E_COORD97"},{"name":"N_COORD97","type":"esriFieldTypeDouble","alias":"N_COORD97"},{"name":"ADDRESS","type":"esriFieldTypeString","alias":"ADDRESS","length":50},{"name":"OBJECTID","type":"esriFieldTypeOID","alias":"OBJECTID"}],"features":[{"attributes":{"ID":214802,"DIS_CODE":0,"TOWNNAME":"北區","LI":"大豐里","LIN":"28鄰","STREET":"文賢路","SECT":" ","MAREA":" ","LANE":"３１３巷","ALLEY":"３４弄","HOUSE_NO":"３３號","E_COORD97":167217.76000000001,"N_COORD97":2545360.2200000002,"ADDRESS":"文賢路３１３巷３４弄３３號","OBJECTID":214801},"geometry":{"x":167217.75999999978,"y":2545360.2200000025}},{"attributes":{"ID":214803,"DIS_CODE":0,"TOWNNAME":"北區","LI":"大豐里","LIN":"28鄰","STREET":"文賢路","SECT":" ","MAREA":" ","LANE":"３１３巷","ALLEY":"３４弄","HOUSE_NO":"３號","E_COORD97":167212.34,"N_COORD97":2545292.5800000001,"ADDRESS":"文賢路３１３巷３４弄３號","OBJECTID":214802},"geometry":{"x":167212.34000000171,"y":2545292.5800000019}},{"attributes":{"ID":214804,"DIS_CODE":0,"TOWNNAME":"北區","LI":"大豐里","LIN":"28鄰","STREET":"文賢路","SECT":" ","MAREA":" ","LANE":"３１３巷","ALLEY":"３４弄","HOUSE_NO":"５號","E_COORD97":167212.89000000001,"N_COORD97":2545296.5499999998,"ADDRESS":"文賢路３１３巷３４弄５號","OBJECTID":214803},"geometry":{"x":167212.88999999966,"y":2545296.5500000026}},{"attributes":{"ID":214805,"DIS_CODE":0,"TOWNNAME":"北區","LI":"大豐里","LIN":"28鄰","STREET":"文賢路","SECT":" ","MAREA":" ","LANE":"３１３巷","ALLEY":"３４弄","HOUSE_NO":"７號","E_COORD97":167214.06,"N_COORD97":2545300.8199999998,"ADDRESS":"文賢路３１３巷３４弄７號","OBJECTID":214804},"geometry":{"x":167214.06000000145,"y":2545300.820000004}},{"attributes":{"ID":214806,"DIS_CODE":0,"TOWNNAME":"東區","LI":"崇善里","LIN":"9鄰","STREET":"仁和路","SECT":" ","MAREA":" ","LANE":"７０巷","ALLEY":" ","HOUSE_NO":"２５號","E_COORD97":170977.48999999999,"N_COORD97":2541796.6099999999,"ADDRESS":"仁和路７０巷２５號","OBJECTID":214805},"geometry":{"x":170977.49000000115,"y":2541796.6100000013}},{"attributes":{"ID":214807,"DIS_CODE":0,"TOWNNAME":"中西區","LI":"仙草里","LIN":"9鄰","STREET":"府緯街","SECT":" ","MAREA":" ","LANE":" ","ALLEY":" ","HOUSE_NO":"５４號","E_COORD97":167834.32000000001,"N_COORD97":2542730.4900000002,"ADDRESS":"府緯街５４號","OBJECTID":214806},"geometry":{"x":167834.3200000003,"y":2542730.4900000021}},{"attributes":{"ID":214808,"DIS_CODE":0,"TOWNNAME":"東區","LI":"關聖里","LIN":"16鄰","STREET":"裕英街","SECT":" ","MAREA":" ","LANE":" ","ALLEY":" ","HOUSE_NO":"１００號","E_COORD97":172315.76000000001,"N_COORD97":2543004.0800000001,"ADDRESS":"裕英街１００號","OBJECTID":214807},"geometry":{"x":172315.76000000071,"y":2543004.0800000019}},{"attributes":{"ID":214809,"DIS_CODE":0,"TOWNNAME":"東區","LI":"關聖里","LIN":"16鄰","STREET":"裕英街","SECT":" ","MAREA":" ","LANE":" ","ALLEY":" ","HOUSE_NO":"１０２號","E_COORD97":172319.91,"N_COORD97":2543004.8199999998,"ADDRESS":"裕英街１０２號","OBJECTID":214808},"geometry":{"x":172319.91000000201,"y":2543004.8200000003}},{"attributes":{"ID":214810,"DIS_CODE":0,"TOWNNAME":"東區","LI":"關聖里","LIN":"16鄰","STREET":"裕英街","SECT":" ","MAREA":" ","LANE":" ","ALLEY":" ","HOUSE_NO":"１０６號","E_COORD97":172325.67000000001,"N_COORD97":2543004.5099999998,"ADDRESS":"裕英街１０６號","OBJECTID":214809},"geometry":{"x":172325.66999999993,"y":2543004.5100000016}},{"attributes":{"ID":214811,"DIS_CODE":0,"TOWNNAME":"東區","LI":"關聖里","LIN":"16鄰","STREET":"裕英街","SECT":" ","MAREA":" ","LANE":" ","ALLEY":" ","HOUSE_NO":"１０８號","E_COORD97":172331,"N_COORD97":2543003.9500000002,"ADDRESS":"裕英街１０８號","OBJECTID":214810},"geometry":{"x":172331.00000000186,"y":2543003.9500000011}},{"attributes":{"ID":214812,"DIS_CODE":0,"TOWNNAME":"東區","LI":"關聖里","LIN":"16鄰","STREET":"裕英街","SECT":" ","MAREA":" ","LANE":" ","ALLEY":" ","HOUSE_NO":"１１０號","E_COORD97":172335.64999999999,"N_COORD97":2543004.46,"ADDRESS":"裕英街１１０號","OBJECTID":214811},"geometry":{"x":172335.6500000013,"y":2543004.4600000009}},{"attributes":{"ID":214813,"DIS_CODE":0,"TOWNNAME":"東區","LI":"關聖里","LIN":"16鄰","STREET":"裕英街","SECT":" ","MAREA":" ","LANE":" ","ALLEY":" ","HOUSE_NO":"１１２號","E_COORD97":172340.69,"N_COORD97":2543004.46,"ADDRESS":"裕英街１１２號","OBJECTID":214812},"geometry":{"x":172340.69000000134,"y":2543004.4600000009}},{"attributes":{"ID":214814,"DIS_CODE":0,"TOWNNAME":"東區","LI":"關聖里","LIN":"16鄰","STREET":"裕英街","SECT":" ","MAREA":" ","LANE":" ","ALLEY":" ","HOUSE_NO":"１１６號","E_COORD97":172345.85000000001,"N_COORD97":2543004.46,"ADDRESS":"裕英街１１６號","OBJECTID":214813},"geometry":{"x":172345.85000000056,"y":2543004.4600000009}},{"attributes":{"ID":214815,"DIS_CODE":0,"TOWNNAME":"東區","LI":"裕聖里","LIN":"14鄰","STREET":"裕敬三街","SECT":" ","MAREA":" ","LANE":" ","ALLEY":" ","HOUSE_NO":"２６號","E_COORD97":172781.89000000001,"N_COORD97":2542338.04,"ADDRESS":"裕敬三街２６號","OBJECTID":214814},"geometry":{"x":172781.88999999966,"y":2542338.0400000028}},{"attributes":{"ID":214816,"DIS_CODE":0,"TOWNNAME":"東區","LI":"裕聖里","LIN":"14鄰","STREET":"裕敬三街","SECT":" ","MAREA":" ","LANE":" ","ALLEY":" ","HOUSE_NO":"２８號","E_COORD97":172781.89000000001,"N_COORD97":2542344.9199999999,"ADDRESS":"裕敬三街２８號","OBJECTID":214815},"geometry":{"x":172781.88999999966,"y":2542344.9199999999}},{"attributes":{"ID":214817,"DIS_CODE":0,"TOWNNAME":"東區","LI":"裕聖里","LIN":"14鄰","STREET":"裕敬三街","SECT":" ","MAREA":" ","LANE":" ","ALLEY":" ","HOUSE_NO":"７６號","E_COORD97":172782.38,"N_COORD97":2542409.2599999998,"ADDRESS":"裕敬三街７６號","OBJECTID":214816},"geometry":{"x":172782.37999999989,"y":2542409.2600000016}},{"attributes":{"ID":214818,"DIS_CODE":0,"TOWNNAME":"東區","LI":"裕聖里","LIN":"14鄰","STREET":"裕敬三街","SECT":" ","MAREA":" ","LANE":" ","ALLEY":" ","HOUSE_NO":"７２號","E_COORD97":172782.54000000001,"N_COORD97":2542405,"ADDRESS":"裕敬三街７２號","OBJECTID":214817},"geometry":{"x":172782.54000000004,"y":2542405.0000000019}},{"attributes":{"ID":214819,"DIS_CODE":0,"TOWNNAME":"東區","LI":"裕聖里","LIN":"14鄰","STREET":"裕敬三街","SECT":" ","MAREA":" ","LANE":" ","ALLEY":" ","HOUSE_NO":"７０號","E_COORD97":172782.70999999999,"N_COORD97":2542400.0899999999,"ADDRESS":"裕敬三街７０號","OBJECTID":214818},"geometry":{"x":172782.71000000089,"y":2542400.0900000017}},{"attributes":{"ID":214820,"DIS_CODE":0,"TOWNNAME":"東區","LI":"裕聖里","LIN":"14鄰","STREET":"裕敬三街","SECT":" ","MAREA":" ","LANE":" ","ALLEY":" ","HOUSE_NO":"６８號","E_COORD97":172782.70999999999,"N_COORD97":2542396,"ADDRESS":"裕敬三街６８號","OBJECTID":214819},"geometry":{"x":172782.71000000089,"y":2542396}},{"attributes":{"ID":214821,"DIS_CODE":0,"TOWNNAME":"東區","LI":"裕聖里","LIN":"14鄰","STREET":"裕敬三街","SECT":" ","MAREA":" ","LANE":" ","ALLEY":" ","HOUSE_NO":"６６號","E_COORD97":172782.87,"N_COORD97":2542392.23,"ADDRESS":"裕敬三街６６號","OBJECTID":214820},"geometry":{"x":172782.87000000197,"y":2542392.2299999986}},{"attributes":{"ID":214822,"DIS_CODE":0,"TOWNNAME":"東區","LI":"裕聖里","LIN":"14鄰","STREET":"裕敬三街","SECT":" ","MAREA":" ","LANE":" ","ALLEY":" ","HOUSE_NO":"６２號","E_COORD97":172782.87,"N_COORD97":2542387.98,"ADDRESS":"裕敬三街６２號","OBJECTID":214821},"geometry":{"x":172782.87000000197,"y":2542387.9800000023}},{"attributes":{"ID":214823,"DIS_CODE":0,"TOWNNAME":"東區","LI":"文聖里","LIN":"20鄰","STREET":"裕義路","SECT":" ","MAREA":" ","LANE":" ","ALLEY":" ","HOUSE_NO":"３１８號","E_COORD97":172872.47,"N_COORD97":2542555.8900000001,"ADDRESS":"裕義路３１８號","OBJECTID":214822},"geometry":{"x":172872.46999999974,"y":2542555.8900000025}},{"attributes":{"ID":214824,"DIS_CODE":0,"TOWNNAME":"北門區","LI":"慈安里","LIN":"2鄰","STREET":" ","SECT":" ","MAREA":"三寮灣","LANE":" ","ALLEY":" ","HOUSE_NO":"３９３號","E_COORD97":158881.64999999999,"N_COORD97":2571269.1099999999,"ADDRESS":"三寮灣３９３號","OBJECTID":214823},"geometry":{"x":158881.65000000037,"y":2571269.1100000013}},{"attributes":{"ID":214825,"DIS_CODE":0,"TOWNNAME":"中西區","LI":"仙草里","LIN":"9鄰","STREET":"南寧街","SECT":" ","MAREA":" ","LANE":" ","ALLEY":" ","HOUSE_NO":"６９號","E_COORD97":167851.70999999999,"N_COORD97":2542845.4100000001,"ADDRESS":"南寧街６９號","OBJECTID":214824},"geometry":{"x":167851.70999999996,"y":2542845.4100000039}},{"attributes":{"ID":214826,"DIS_CODE":0,"TOWNNAME":"永康區","LI":"安康里","LIN":"9鄰","STREET":"中華西街","SECT":" ","MAREA":" ","LANE":" ","ALLEY":" ","HOUSE_NO":"２６號","E_COORD97":170820.85000000001,"N_COORD97":2545956.2400000002,"ADDRESS":"中華西街２６號","OBJECTID":214825},"geometry":{"x":170820.84999999963,"y":2545956.2400000021}},{"attributes":{"ID":214827,"DIS_CODE":0,"TOWNNAME":"永康區","LI":"安康里","LIN":"9鄰","STREET":"中華西街","SECT":" ","MAREA":" ","LANE":" ","ALLEY":" ","HOUSE_NO":"１２號","E_COORD97":170834.81,"N_COORD97":2545929.5,"ADDRESS":"中華西街１２號","OBJECTID":214826},"geometry":{"x":170834.80999999866,"y":2545929.4999999981}},{"attributes":{"ID":214828,"DIS_CODE":0,"TOWNNAME":"永康區","LI":"安康里","LIN":"9鄰","STREET":"中華西街","SECT":" ","MAREA":" ","LANE":" ","ALLEY":" ","HOUSE_NO":"１４號","E_COORD97":170833.17999999999,"N_COORD97":2545933.5,"ADDRESS":"中華西街１４號","OBJECTID":214827},"geometry":{"x":170833.18000000063,"y":2545933.5000000019}},{"attributes":{"ID":214829,"DIS_CODE":0,"TOWNNAME":"永康區","LI":"安康里","LIN":"9鄰","STREET":"中華西街","SECT":" ","MAREA":" ","LANE":" ","ALLEY":" ","HOUSE_NO":"２０號","E_COORD97":170826.82000000001,"N_COORD97":2545945.2400000002,"ADDRESS":"中華西街２０號","OBJECTID":214828},"geometry":{"x":170826.8200000003,"y":2545945.2400000039}},{"attributes":{"ID":214830,"DIS_CODE":0,"TOWNNAME":"永康區","LI":"西勢里","LIN":"9鄰","STREET":"富強路","SECT":"一段","MAREA":" ","LANE":" ","ALLEY":" ","HOUSE_NO":"３６０號","E_COORD97":175724.31,"N_COORD97":2546774.7200000002,"ADDRESS":"富強路一段３６０號","OBJECTID":214829},"geometry":{"x":175724.31000000052,"y":2546774.7200000025}},{"attributes":{"ID":214831,"DIS_CODE":0,"TOWNNAME":"官田區","LI":"官田里","LIN":"9鄰","STREET":" ","SECT":" ","MAREA":"官田","LANE":" ","ALLEY":" ","HOUSE_NO":"７７號","E_COORD97":182395.62,"N_COORD97":2565220.9900000002,"ADDRESS":"官田７７號","OBJECTID":214830},"geometry":{"x":182395.62000000011,"y":2565220.9899999984}},{"attributes":{"ID":214832,"DIS_CODE":0,"TOWNNAME":"北區","LI":"大豐里","LIN":"28鄰","STREET":"文賢路","SECT":" ","MAREA":" ","LANE":"３１３巷","ALLEY":"３４弄","HOUSE_NO":"９號","E_COORD97":167214.32999999999,"N_COORD97":2545305.4100000001,"ADDRESS":"文賢路３１３巷３４弄９號","OBJECTID":214831},"geometry":{"x":167214.33000000194,"y":2545305.4100000001}},{"attributes":{"ID":214833,"DIS_CODE":0,"TOWNNAME":"北區","LI":"大豐里","LIN":"28鄰","STREET":"文賢路","SECT":" ","MAREA":" ","LANE":"３１３巷","ALLEY":"５６弄","HOUSE_NO":"１２號","E_COORD97":167177.04999999999,"N_COORD97":2545313.4300000002,"ADDRESS":"文賢路３１３巷５６弄１２號","OBJECTID":214832},"geometry":{"x":167177.05000000168,"y":2545313.4300000016}},{"attributes":{"ID":214834,"DIS_CODE":0,"TOWNNAME":"北區","LI":"大豐里","LIN":"28鄰","STREET":"文賢路","SECT":" ","MAREA":" ","LANE":"３１３巷","ALLEY":"５６弄","HOUSE_NO":"１４號","E_COORD97":167178.44,"N_COORD97":2545317.9700000002,"ADDRESS":"文賢路３１３巷５６弄１４號","OBJECTID":214833},"geometry":{"x":167178.44000000227,"y":2545317.9700000025}},{"attributes":{"ID":214835,"DIS_CODE":0,"TOWNNAME":"善化區","LI":"六分里","LIN":"9鄰","STREET":" ","SECT":" ","MAREA":"溪底寮","LANE":" ","ALLEY":" ","HOUSE_NO":"１８號","E_COORD97":177592.67000000001,"N_COORD97":2561831.52,"ADDRESS":"溪底寮１８號","OBJECTID":214834},"geometry":{"x":177592.66999999993,"y":2561831.5200000014}},{"attributes":{"ID":214836,"DIS_CODE":0,"TOWNNAME":"北區","LI":"大豐里","LIN":"28鄰","STREET":"文賢路","SECT":" ","MAREA":" ","LANE":"３１３巷","ALLEY":"５６弄","HOUSE_NO":"１６號","E_COORD97":167177.88,"N_COORD97":2545322.0600000001,"ADDRESS":"文賢路３１３巷５６弄１６號","OBJECTID":214835},"geometry":{"x":167177.87999999989,"y":2545322.0600000005}},{"attributes":{"ID":214837,"DIS_CODE":0,"TOWNNAME":"北區","LI":"大豐里","LIN":"28鄰","STREET":"文賢路","SECT":" ","MAREA":" ","LANE":"３１３巷","ALLEY":"５６弄","HOUSE_NO":"１８號","E_COORD97":167177.88,"N_COORD97":2545326.7599999998,"ADDRESS":"文賢路３１３巷５６弄１８號","OBJECTID":214836},"geometry":{"x":167177.87999999989,"y":2545326.7599999998}},{"attributes":{"ID":214838,"DIS_CODE":0,"TOWNNAME":"北區","LI":"大豐里","LIN":"28鄰","STREET":"文賢路","SECT":" ","MAREA":" ","LANE":"３１３巷","ALLEY":"５６弄","HOUSE_NO":"２０號","E_COORD97":167178.26000000001,"N_COORD97":2545330.8399999999,"ADDRESS":"文賢路３１３巷５６弄２０號","OBJECTID":214837},"geometry":{"x":167178.25999999978,"y":2545330.8400000017}},{"attributes":{"ID":214839,"DIS_CODE":0,"TOWNNAME":"北區","LI":"大豐里","LIN":"28鄰","STREET":"文賢路","SECT":" ","MAREA":" ","LANE":"３１３巷","ALLEY":"５６弄","HOUSE_NO":"２４號","E_COORD97":167179.25,"N_COORD97":2545340.52,"ADDRESS":"文賢路３１３巷５６弄２４號","OBJECTID":214838},"geometry":{"x":167179.25000000186,"y":2545340.5200000014}},{"attributes":{"ID":214840,"DIS_CODE":0,"TOWNNAME":"北區","LI":"大豐里","LIN":"28鄰","STREET":"文賢路","SECT":" ","MAREA":" ","LANE":"３１３巷","ALLEY":"５６弄","HOUSE_NO":"２６號","E_COORD97":167179.57999999999,"N_COORD97":2545344.6600000001,"ADDRESS":"文賢路３１３巷５６弄２６號","OBJECTID":214839},"geometry":{"x":167179.58000000101,"y":2545344.6600000001}},{"attributes":{"ID":214841,"DIS_CODE":0,"TOWNNAME":"北區","LI":"大豐里","LIN":"28鄰","STREET":"文賢路","SECT":" ","MAREA":" ","LANE":"３１３巷","ALLEY":"５６弄","HOUSE_NO":"２８號","E_COORD97":167179.47,"N_COORD97":2545349.4700000002,"ADDRESS":"文賢路３１３巷５６弄２８號","OBJECTID":214840},"geometry":{"x":167179.47000000067,"y":2545349.4700000007}},{"attributes":{"ID":214842,"DIS_CODE":0,"TOWNNAME":"北區","LI":"大豐里","LIN":"28鄰","STREET":"文賢路","SECT":" ","MAREA":" ","LANE":"３１３巷","ALLEY":"５６弄","HOUSE_NO":"２號","E_COORD97":167173.41,"N_COORD97":2545290.4900000002,"ADDRESS":"文賢路３１３巷５６弄２號","OBJECTID":214841},"geometry":{"x":167173.41000000108,"y":2545290.4900000021}},{"attributes":{"ID":214843,"DIS_CODE":0,"TOWNNAME":"北區","LI":"大豐里","LIN":"28鄰","STREET":"文賢路","SECT":" ","MAREA":" ","LANE":"３１３巷","ALLEY":"５６弄","HOUSE_NO":"３０號","E_COORD97":167179.97,"N_COORD97":2545354.1000000001,"ADDRESS":"文賢路３１３巷５６弄３０號","OBJECTID":214842},"geometry":{"x":167179.97000000067,"y":2545354.0999999996}},{"attributes":{"ID":214844,"DIS_CODE":0,"TOWNNAME":"北區","LI":"大豐里","LIN":"28鄰","STREET":"文賢路","SECT":" ","MAREA":" ","LANE":"３１３巷","ALLEY":"５６弄","HOUSE_NO":"３２號","E_COORD97":167180.19,"N_COORD97":2545358.8999999999,"ADDRESS":"文賢路３１３巷５６弄３２號","OBJECTID":214843},"geometry":{"x":167180.19000000227,"y":2545358.9000000022}},{"attributes":{"ID":214845,"DIS_CODE":0,"TOWNNAME":"新營區","LI":"王公里","LIN":"28鄰","STREET":"大公街","SECT":" ","MAREA":" ","LANE":"４６巷","ALLEY":"４弄","HOUSE_NO":"１７號","E_COORD97":180188.76999999999,"N_COORD97":2579594,"ADDRESS":"大公街４６巷４弄１７號","OBJECTID":214844},"geometry":{"x":180188.76999999955,"y":2579594.0000000019}},{"attributes":{"ID":214846,"DIS_CODE":0,"TOWNNAME":"新營區","LI":"王公里","LIN":"28鄰","STREET":"大公街","SECT":" ","MAREA":" ","LANE":"４６巷","ALLEY":"４弄","HOUSE_NO":"１８號","E_COORD97":180189.85000000001,"N_COORD97":2579605.0699999998,"ADDRESS":"大公街４６巷４弄１８號","OBJECTID":214845},"geometry":{"x":180189.84999999963,"y":2579605.0700000003}},{"attributes":{"ID":214847,"DIS_CODE":0,"TOWNNAME":"新營區","LI":"王公里","LIN":"28鄰","STREET":"大公街","SECT":" ","MAREA":" ","LANE":"４６巷","ALLEY":"２弄","HOUSE_NO":"１號","E_COORD97":180227.54000000001,"N_COORD97":2579623.71,"ADDRESS":"大公街４６巷２弄１號","OBJECTID":214846},"geometry":{"x":180227.54000000097,"y":2579623.7100000028}},{"attributes":{"ID":214848,"DIS_CODE":0,"TOWNNAME":"新營區","LI":"王公里","LIN":"28鄰","STREET":"大公街","SECT":" ","MAREA":" ","LANE":"４６巷","ALLEY":"４弄","HOUSE_NO":"１５號","E_COORD97":180193.88,"N_COORD97":2579592.8700000001,"ADDRESS":"大公街４６巷４弄１５號","OBJECTID":214847},"geometry":{"x":180193.88000000175,"y":2579592.8700000029}},{"attributes":{"ID":214849,"DIS_CODE":0,"TOWNNAME":"新營區","LI":"王公里","LIN":"28鄰","STREET":"大公街","SECT":" ","MAREA":" ","LANE":"４６巷","ALLEY":"４弄","HOUSE_NO":"９號","E_COORD97":180204.85999999999,"N_COORD97":2579591.71,"ADDRESS":"大公街４６巷４弄９號","OBJECTID":214848},"geometry":{"x":180204.86000000127,"y":2579591.7100000009}},{"attributes":{"ID":214850,"DIS_CODE":0,"TOWNNAME":"南區","LI":"大忠里","LIN":"28鄰","STREET":"大同路","SECT":"二段","MAREA":" ","LANE":"４８２巷","ALLEY":"１３３弄","HOUSE_NO":"６４號","E_COORD97":169176.51999999999,"N_COORD97":2541425.7200000002,"ADDRESS":"大同路二段４８２巷１３３弄６４號","OBJECTID":214849},"geometry":{"x":169176.51999999955,"y":2541425.7200000007}},{"attributes":{"ID":214851,"DIS_CODE":0,"TOWNNAME":"南區","LI":"大忠里","LIN":"28鄰","STREET":"大同路","SECT":"二段","MAREA":" ","LANE":"４８２巷","ALLEY":"１３３弄","HOUSE_NO":"６６號","E_COORD97":169181.41,"N_COORD97":2541420.21,"ADDRESS":"大同路二段４８２巷１３３弄６６號","OBJECTID":214850},"geometry":{"x":169181.41000000015,"y":2541420.2100000046}},{"attributes":{"ID":214852,"DIS_CODE":0,"TOWNNAME":"南區","LI":"大忠里","LIN":"28鄰","STREET":"大同路","SECT":"二段","MAREA":" ","LANE":"４８２巷","ALLEY":"１３３弄","HOUSE_NO":"６８號","E_COORD97":169185.66,"N_COORD97":2541415.5499999998,"ADDRESS":"大同路二段４８２巷１３３弄６８號","OBJECTID":214851},"geometry":{"x":169185.66000000108,"y":2541415.5500000026}},{"attributes":{"ID":214853,"DIS_CODE":0,"TOWNNAME":"東區","LI":"文聖里","LIN":"20鄰","STREET":"裕義路","SECT":" ","MAREA":" ","LANE":" ","ALLEY":" ","HOUSE_NO":"３００號","E_COORD97":172870.45999999999,"N_COORD97":2542600.3900000001,"ADDRESS":"裕義路３００號","OBJECTID":214852},"geometry":{"x":172870.46000000089,"y":2542600.3900000006}},{"attributes":{"ID":214854,"DIS_CODE":0,"TOWNNAME":"北門區","LI":"慈安里","LIN":"2鄰","STREET":" ","SECT":" ","MAREA":"三寮灣","LANE":" ","ALLEY":" ","HOUSE_NO":"３９４號","E_COORD97":158888.92000000001,"N_COORD97":2571264.3199999998,"ADDRESS":"三寮灣３９４號","OBJECTID":214853},"geometry":{"x":158888.92000000086,"y":2571264.320000004}},{"attributes":{"ID":214855,"DIS_CODE":0,"TOWNNAME":"北門區","LI":"慈安里","LIN":"2鄰","STREET":" ","SECT":" ","MAREA":"三寮灣","LANE":" ","ALLEY":" ","HOUSE_NO":"３９６號","E_COORD97":158902.97,"N_COORD97":2571260.21,"ADDRESS":"三寮灣３９６號","OBJECTID":214854},"geometry":{"x":158902.96999999974,"y":2571260.2100000028}},{"attributes":{"ID":214856,"DIS_CODE":0,"TOWNNAME":"北門區","LI":"慈安里","LIN":"2鄰","STREET":" ","SECT":" ","MAREA":"三寮灣","LANE":" ","ALLEY":" ","HOUSE_NO":"３９７號","E_COORD97":158924.70999999999,"N_COORD97":2571256.5800000001,"ADDRESS":"三寮灣３９７號","OBJECTID":214855},"geometry":{"x":158924.71000000089,"y":2571256.5800000019}},{"attributes":{"ID":214857,"DIS_CODE":0,"TOWNNAME":"北門區","LI":"三光里","LIN":"2鄰","STREET":" ","SECT":" ","MAREA":"三寮灣","LANE":" ","ALLEY":" ","HOUSE_NO":"４３號","E_COORD97":159301.19,"N_COORD97":2570984.3300000001,"ADDRESS":"三寮灣４３號","OBJECTID":214856},"geometry":{"x":159301.19000000134,"y":2570984.3300000001}},{"attributes":{"ID":214858,"DIS_CODE":0,"TOWNNAME":"北門區","LI":"三光里","LIN":"2鄰","STREET":" ","SECT":" ","MAREA":"三寮灣","LANE":" ","ALLEY":" ","HOUSE_NO":"４５之１號","E_COORD97":159262.76999999999,"N_COORD97":2570976.6899999999,"ADDRESS":"三寮灣４５之１號","OBJECTID":214857},"geometry":{"x":159262.77000000048,"y":2570976.6900000013}},{"attributes":{"ID":214859,"DIS_CODE":0,"TOWNNAME":"南區","LI":"明亮里","LIN":"28鄰","STREET":"金華路","SECT":"一段","MAREA":" ","LANE":"４８４巷","ALLEY":"２４０弄","HOUSE_NO":"４號","E_COORD97":167449.66,"N_COORD97":2541058.1699999999,"ADDRESS":"金華路一段４８４巷２４０弄４號","OBJECTID":214858},"geometry":{"x":167449.66000000201,"y":2541058.1699999999}},{"attributes":{"ID":214860,"DIS_CODE":0,"TOWNNAME":"中西區","LI":"萬昌里","LIN":"9鄰","STREET":"城隍街","SECT":" ","MAREA":" ","LANE":" ","ALLEY":" ","HOUSE_NO":"７９號","E_COORD97":168858.56,"N_COORD97":2543461.8100000001,"ADDRESS":"城隍街７９號","OBJECTID":214859},"geometry":{"x":168858.56000000052,"y":2543461.8100000005}},{"attributes":{"ID":214861,"DIS_CODE":0,"TOWNNAME":"中西區","LI":"仙草里","LIN":"9鄰","STREET":"南寧街","SECT":" ","MAREA":" ","LANE":" ","ALLEY":" ","HOUSE_NO":"７９號","E_COORD97":167827.57999999999,"N_COORD97":2542843.6800000002,"ADDRESS":"南寧街７９號","OBJECTID":214860},"geometry":{"x":167827.58000000007,"y":2542843.6800000016}},{"attributes":{"ID":214862,"DIS_CODE":0,"TOWNNAME":"中西區","LI":"仙草里","LIN":"9鄰","STREET":"南寧街","SECT":" ","MAREA":" ","LANE":" ","ALLEY":" ","HOUSE_NO":"８１號","E_COORD97":167822.72,"N_COORD97":2542844.5499999998,"ADDRESS":"南寧街８１號","OBJECTID":214861},"geometry":{"x":167822.71999999974,"y":2542844.5500000007}},{"attributes":{"ID":214863,"DIS_CODE":0,"TOWNNAME":"中西區","LI":"萬昌里","LIN":"9鄰","STREET":"城隍街","SECT":" ","MAREA":" ","LANE":" ","ALLEY":" ","HOUSE_NO":"７７號","E_COORD97":168856.10999999999,"N_COORD97":2543457.4199999999,"ADDRESS":"城隍街７７號","OBJECTID":214862},"geometry":{"x":168856.11000000127,"y":2543457.4199999999}},{"attributes":{"ID":214864,"DIS_CODE":0,"TOWNNAME":"中西區","LI":"萬昌里","LIN":"9鄰","STREET":"民權路","SECT":"一段","MAREA":" ","LANE":" ","ALLEY":" ","HOUSE_NO":"１１７號","E_COORD97":168898.32999999999,"N_COORD97":2543451.75,"ADDRESS":"民權路一段１１７號","OBJECTID":214863},"geometry":{"x":168898.33000000101,"y":2543451.75}},{"attributes":{"ID":214865,"DIS_CODE":0,"TOWNNAME":"歸仁區","LI":"崙頂里","LIN":"28鄰","STREET":"崙頂街","SECT":" ","MAREA":" ","LANE":"１５０巷","ALLEY":"１弄","HOUSE_NO":"１１０號","E_COORD97":177835.42000000001,"N_COORD97":2539698.1099999999,"ADDRESS":"崙頂街１５０巷１弄１１０號","OBJECTID":214864},"geometry":{"x":177835.41999999993,"y":2539698.1100000013}},{"attributes":{"ID":214866,"DIS_CODE":0,"TOWNNAME":"官田區","LI":"官田里","LIN":"9鄰","STREET":" ","SECT":" ","MAREA":"官田","LANE":" ","ALLEY":" ","HOUSE_NO":"８３號","E_COORD97":182375.5,"N_COORD97":2565165.2000000002,"ADDRESS":"官田８３號","OBJECTID":214865},"geometry":{"x":182375.50000000093,"y":2565165.2000000011}},{"attributes":{"ID":214867,"DIS_CODE":0,"TOWNNAME":"北門區","LI":"三光里","LIN":"2鄰","STREET":" ","SECT":" ","MAREA":"三寮灣","LANE":" ","ALLEY":" ","HOUSE_NO":"４５號之１","E_COORD97":159262.76999999999,"N_COORD97":2570976.6899999999,"ADDRESS":"三寮灣４５號之１","OBJECTID":214866},"geometry":{"x":159262.77000000048,"y":2570976.6900000013}},{"attributes":{"ID":214868,"DIS_CODE":0,"TOWNNAME":"新市區","LI":"永就里","LIN":"2鄰","STREET":" ","SECT":" ","MAREA":"永就","LANE":" ","ALLEY":" ","HOUSE_NO":"２０號","E_COORD97":178421.45999999999,"N_COORD97":2551349.5,"ADDRESS":"永就２０號","OBJECTID":214867},"geometry":{"x":178421.45999999996,"y":2551349.5}},{"attributes":{"ID":214869,"DIS_CODE":0,"TOWNNAME":"北門區","LI":"三光里","LIN":"2鄰","STREET":" ","SECT":" ","MAREA":"三寮灣","LANE":" ","ALLEY":" ","HOUSE_NO":"４５之５號","E_COORD97":159244.16,"N_COORD97":2570973.1800000002,"ADDRESS":"三寮灣４５之５號","OBJECTID":214868},"geometry":{"x":159244.16000000015,"y":2570973.1800000016}},{"attributes":{"ID":214870,"DIS_CODE":0,"TOWNNAME":"北門區","LI":"三光里","LIN":"2鄰","STREET":" ","SECT":" ","MAREA":"三寮灣","LANE":" ","ALLEY":" ","HOUSE_NO":"４５號之６","E_COORD97":159236.06,"N_COORD97":2570971.9500000002,"ADDRESS":"三寮灣４５號之６","OBJECTID":214869},"geometry":{"x":159236.05999999959,"y":2570971.9500000011}},{"attributes":{"ID":214871,"DIS_CODE":0,"TOWNNAME":"北門區","LI":"三光里","LIN":"2鄰","STREET":" ","SECT":" ","MAREA":"三寮灣","LANE":" ","ALLEY":" ","HOUSE_NO":"４５之７號","E_COORD97":159227.73000000001,"N_COORD97":2570970.3900000001,"ADDRESS":"三寮灣４５之７號","OBJECTID":214870},"geometry":{"x":159227.73000000231,"y":2570970.3900000025}},{"attributes":{"ID":214872,"DIS_CODE":0,"TOWNNAME":"中西區","LI":"萬昌里","LIN":"9鄰","STREET":"民權路","SECT":"一段","MAREA":" ","LANE":" ","ALLEY":" ","HOUSE_NO":"１１９號","E_COORD97":168894.82000000001,"N_COORD97":2543454.1899999999,"ADDRESS":"民權路一段１１９號","OBJECTID":214871},"geometry":{"x":168894.82000000123,"y":2543454.1900000013}},{"attributes":{"ID":214873,"DIS_CODE":0,"TOWNNAME":"中西區","LI":"萬昌里","LIN":"9鄰","STREET":"民權路","SECT":"一段","MAREA":" ","LANE":" ","ALLEY":" ","HOUSE_NO":"１２１號","E_COORD97":168891.47,"N_COORD97":2543457.1099999999,"ADDRESS":"民權路一段１２１號","OBJECTID":214872},"geometry":{"x":168891.47000000067,"y":2543457.1100000013}},{"attributes":{"ID":214874,"DIS_CODE":0,"TOWNNAME":"北門區","LI":"三光里","LIN":"2鄰","STREET":" ","SECT":" ","MAREA":"三寮灣","LANE":" ","ALLEY":" ","HOUSE_NO":"４５號","E_COORD97":159276.42000000001,"N_COORD97":2570955.3100000001,"ADDRESS":"三寮灣４５號","OBJECTID":214873},"geometry":{"x":159276.41999999993,"y":2570955.3100000005}},{"attributes":{"ID":214875,"DIS_CODE":0,"TOWNNAME":"北門區","LI":"三光里","LIN":"2鄰","STREET":" ","SECT":" ","MAREA":"三寮灣","LANE":" ","ALLEY":" ","HOUSE_NO":"４６號","E_COORD97":159265.81,"N_COORD97":2570942.7400000002,"ADDRESS":"三寮灣４６號","OBJECTID":214874},"geometry":{"x":159265.81000000052,"y":2570942.7400000021}},{"attributes":{"ID":214876,"DIS_CODE":0,"TOWNNAME":"北門區","LI":"三光里","LIN":"2鄰","STREET":" ","SECT":" ","MAREA":"三寮灣","LANE":" ","ALLEY":" ","HOUSE_NO":"４７號","E_COORD97":159258.67999999999,"N_COORD97":2570941.5699999998,"ADDRESS":"三寮灣４７號","OBJECTID":214875},"geometry":{"x":159258.6799999997,"y":2570941.5700000022}},{"attributes":{"ID":214877,"DIS_CODE":0,"TOWNNAME":"歸仁區","LI":"崙頂里","LIN":"28鄰","STREET":"崙頂街","SECT":" ","MAREA":" ","LANE":"１５０巷","ALLEY":"１弄","HOUSE_NO":"５０號","E_COORD97":177832.22,"N_COORD97":2539717.9700000002,"ADDRESS":"崙頂街１５０巷１弄５０號","OBJECTID":214876},"geometry":{"x":177832.22000000067,"y":2539717.9700000007}},{"attributes":{"ID":214878,"DIS_CODE":0,"TOWNNAME":"北區","LI":"文元里","LIN":"28鄰","STREET":"文賢一路","SECT":" ","MAREA":" ","LANE":"１８２巷","ALLEY":"１３弄","HOUSE_NO":"１號","E_COORD97":167558.5,"N_COORD97":2545701.1499999999,"ADDRESS":"文賢一路１８２巷１３弄１號","OBJECTID":214877},"geometry":{"x":167558.5,"y":2545701.1500000004}},{"attributes":{"ID":214879,"DIS_CODE":0,"TOWNNAME":"北區","LI":"文元里","LIN":"28鄰","STREET":"文賢一路","SECT":" ","MAREA":" ","LANE":"１８２巷","ALLEY":"１３弄","HOUSE_NO":"２號","E_COORD97":167573.73999999999,"N_COORD97":2545706.23,"ADDRESS":"文賢一路１８２巷１３弄２號","OBJECTID":214878},"geometry":{"x":167573.74000000022,"y":2545706.2300000023}},{"attributes":{"ID":214880,"DIS_CODE":0,"TOWNNAME":"北區","LI":"文元里","LIN":"28鄰","STREET":"文賢一路","SECT":" ","MAREA":" ","LANE":"１８２巷","ALLEY":"１３弄","HOUSE_NO":"３號","E_COORD97":167557.87,"N_COORD97":2545706.5499999998,"ADDRESS":"文賢一路１８２巷１３弄３號","OBJECTID":214879},"geometry":{"x":167557.87000000011,"y":2545706.5500000045}},{"attributes":{"ID":214881,"DIS_CODE":0,"TOWNNAME":"北區","LI":"文元里","LIN":"28鄰","STREET":"文賢一路","SECT":" ","MAREA":" ","LANE":"１８２巷","ALLEY":"１３弄","HOUSE_NO":"５號","E_COORD97":167557.23000000001,"N_COORD97":2545712.5800000001,"ADDRESS":"文賢一路１８２巷１３弄５號","OBJECTID":214880},"geometry":{"x":167557.23000000045,"y":2545712.5800000019}},{"attributes":{"ID":214882,"DIS_CODE":0,"TOWNNAME":"中西區","LI":"萬昌里","LIN":"9鄰","STREET":"民權路","SECT":"一段","MAREA":" ","LANE":" ","ALLEY":" ","HOUSE_NO":"１２３號","E_COORD97":168888.54999999999,"N_COORD97":2543461.0299999998,"ADDRESS":"民權路一段１２３號","OBJECTID":214881},"geometry":{"x":168888.54999999981,"y":2543461.0300000012}},{"attributes":{"ID":214883,"DIS_CODE":0,"TOWNNAME":"中西區","LI":"萬昌里","LIN":"9鄰","STREET":"民權路","SECT":"一段","MAREA":" ","LANE":" ","ALLEY":" ","HOUSE_NO":"１２５號","E_COORD97":168884.29000000001,"N_COORD97":2543462.2000000002,"ADDRESS":"民權路一段１２５號","OBJECTID":214882},"geometry":{"x":168884.28999999911,"y":2543462.1999999993}},{"attributes":{"ID":214884,"DIS_CODE":0,"TOWNNAME":"中西區","LI":"萬昌里","LIN":"9鄰","STREET":"民權路","SECT":"一段","MAREA":" ","LANE":" ","ALLEY":" ","HOUSE_NO":"１３１號","E_COORD97":168870.73999999999,"N_COORD97":2543474.1200000001,"ADDRESS":"民權路一段１３１號","OBJECTID":214883},"geometry":{"x":168870.74000000022,"y":2543474.120000001}},{"attributes":{"ID":214885,"DIS_CODE":0,"TOWNNAME":"北門區","LI":"三光里","LIN":"2鄰","STREET":" ","SECT":" ","MAREA":"三寮灣","LANE":" ","ALLEY":" ","HOUSE_NO":"４８號","E_COORD97":159245.10000000001,"N_COORD97":2570936.4300000002,"ADDRESS":"三寮灣４８號","OBJECTID":214884},"geometry":{"x":159245.10000000056,"y":2570936.4299999997}},{"attributes":{"ID":214886,"DIS_CODE":0,"TOWNNAME":"北門區","LI":"三光里","LIN":"2鄰","STREET":" ","SECT":" ","MAREA":"三寮灣","LANE":" ","ALLEY":" ","HOUSE_NO":"５０號","E_COORD97":159278.97,"N_COORD97":2570926.0699999998,"ADDRESS":"三寮灣５０號","OBJECTID":214885},"geometry":{"x":159278.96999999974,"y":2570926.0700000003}},{"attributes":{"ID":214887,"DIS_CODE":0,"TOWNNAME":"北門區","LI":"三光里","LIN":"2鄰","STREET":" ","SECT":" ","MAREA":"三寮灣","LANE":" ","ALLEY":" ","HOUSE_NO":"５１號","E_COORD97":159308.89000000001,"N_COORD97":2570934.1800000002,"ADDRESS":"三寮灣５１號","OBJECTID":214886},"geometry":{"x":159308.89000000153,"y":2570934.1799999997}},{"attributes":{"ID":214888,"DIS_CODE":0,"TOWNNAME":"北門區","LI":"三光里","LIN":"2鄰","STREET":" ","SECT":" ","MAREA":"三寮灣","LANE":" ","ALLEY":" ","HOUSE_NO":"５２號","E_COORD97":159313.25,"N_COORD97":2570934.4700000002,"ADDRESS":"三寮灣５２號","OBJECTID":214887},"geometry":{"x":159313.25,"y":2570934.4700000044}},{"attributes":{"ID":214889,"DIS_CODE":0,"TOWNNAME":"北門區","LI":"三光里","LIN":"2鄰","STREET":" ","SECT":" ","MAREA":"三寮灣","LANE":" ","ALLEY":" ","HOUSE_NO":"５３號","E_COORD97":159317.13,"N_COORD97":2570934.77,"ADDRESS":"三寮灣５３號","OBJECTID":214888},"geometry":{"x":159317.12999999989,"y":2570934.7700000033}},{"attributes":{"ID":214890,"DIS_CODE":0,"TOWNNAME":"北門區","LI":"三光里","LIN":"2鄰","STREET":" ","SECT":" ","MAREA":"三寮灣","LANE":" ","ALLEY":" ","HOUSE_NO":"５４號","E_COORD97":159321.20999999999,"N_COORD97":2570935.1499999999,"ADDRESS":"三寮灣５４號","OBJECTID":214889},"geometry":{"x":159321.21000000089,"y":2570935.1500000004}},{"attributes":{"ID":214891,"DIS_CODE":0,"TOWNNAME":"北門區","LI":"三光里","LIN":"2鄰","STREET":" ","SECT":" ","MAREA":"三寮灣","LANE":" ","ALLEY":" ","HOUSE_NO":"５５號","E_COORD97":159318.64000000001,"N_COORD97":2570917.02,"ADDRESS":"三寮灣５５號","OBJECTID":214890},"geometry":{"x":159318.63999999966,"y":2570917.0200000014}},{"attributes":{"ID":214892,"DIS_CODE":0,"TOWNNAME":"北門區","LI":"三光里","LIN":"2鄰","STREET":" ","SECT":" ","MAREA":"三寮灣","LANE":" ","ALLEY":" ","HOUSE_NO":"５６號","E_COORD97":159318.16,"N_COORD97":2570913.23,"ADDRESS":"三寮灣５６號","OBJECTID":214891},"geometry":{"x":159318.16000000108,"y":2570913.2300000023}},{"attributes":{"ID":214893,"DIS_CODE":0,"TOWNNAME":"北門區","LI":"三光里","LIN":"2鄰","STREET":" ","SECT":" ","MAREA":"三寮灣","LANE":" ","ALLEY":" ","HOUSE_NO":"５７號","E_COORD97":159321.35000000001,"N_COORD97":2570900.2000000002,"ADDRESS":"三寮灣５７號","OBJECTID":214892},"geometry":{"x":159321.35000000056,"y":2570900.1999999993}},{"attributes":{"ID":214894,"DIS_CODE":0,"TOWNNAME":"北區","LI":"文元里","LIN":"28鄰","STREET":"文賢一路","SECT":" ","MAREA":" ","LANE":"１８２巷","ALLEY":"１３弄","HOUSE_NO":"６號","E_COORD97":167573.42000000001,"N_COORD97":2545711.6299999999,"ADDRESS":"文賢一路１８２巷１３弄６號","OBJECTID":214893},"geometry":{"x":167573.42000000086,"y":2545711.6300000008}},{"attributes":{"ID":214895,"DIS_CODE":0,"TOWNNAME":"北區","LI":"文元里","LIN":"28鄰","STREET":"文賢一路","SECT":" ","MAREA":" ","LANE":"１８２巷","ALLEY":"１３弄","HOUSE_NO":"７號","E_COORD97":167556.91,"N_COORD97":2545717.98,"ADDRESS":"文賢一路１８２巷１３弄７號","OBJECTID":214894},"geometry":{"x":167556.91000000108,"y":2545717.9800000023}},{"attributes":{"ID":214896,"DIS_CODE":0,"TOWNNAME":"北區","LI":"文元里","LIN":"28鄰","STREET":"文賢一路","SECT":" ","MAREA":" ","LANE":"１８２巷","ALLEY":"１３弄","HOUSE_NO":"８號","E_COORD97":167572.98999999999,"N_COORD97":2545717.1899999999,"ADDRESS":"文賢一路１８２巷１３弄８號","OBJECTID":214895},"geometry":{"x":167572.99000000115,"y":2545717.1899999995}},{"attributes":{"ID":214897,"DIS_CODE":0,"TOWNNAME":"北區","LI":"文元里","LIN":"28鄰","STREET":"文賢一路","SECT":" ","MAREA":" ","LANE":"１８２巷","ALLEY":"１３弄","HOUSE_NO":"９號","E_COORD97":167556.28,"N_COORD97":2545724.3300000001,"ADDRESS":"文賢一路１８２巷１３弄９號","OBJECTID":214896},"geometry":{"x":167556.28000000119,"y":2545724.3300000038}},{"attributes":{"ID":214898,"DIS_CODE":0,"TOWNNAME":"官田區","LI":"官田里","LIN":"9鄰","STREET":" ","SECT":" ","MAREA":"官田","LANE":" ","ALLEY":" ","HOUSE_NO":"７６號","E_COORD97":182405.45000000001,"N_COORD97":2565218.77,"ADDRESS":"官田７６號","OBJECTID":214897},"geometry":{"x":182405.45000000019,"y":2565218.7700000033}},{"attributes":{"ID":214899,"DIS_CODE":0,"TOWNNAME":"官田區","LI":"官田里","LIN":"9鄰","STREET":" ","SECT":" ","MAREA":"官田","LANE":" ","ALLEY":" ","HOUSE_NO":"７９號","E_COORD97":182375.14000000001,"N_COORD97":2565206.6400000001,"ADDRESS":"官田７９號","OBJECTID":214898},"geometry":{"x":182375.13999999966,"y":2565206.6400000006}},{"attributes":{"ID":214900,"DIS_CODE":0,"TOWNNAME":"官田區","LI":"官田里","LIN":"9鄰","STREET":" ","SECT":" ","MAREA":"官田","LANE":" ","ALLEY":" ","HOUSE_NO":"８０號","E_COORD97":182369.85000000001,"N_COORD97":2565178.4300000002,"ADDRESS":"官田８０號","OBJECTID":214899},"geometry":{"x":182369.84999999963,"y":2565178.4300000016}},{"attributes":{"ID":214901,"DIS_CODE":0,"TOWNNAME":"官田區","LI":"官田里","LIN":"9鄰","STREET":" ","SECT":" ","MAREA":"官田","LANE":" ","ALLEY":" ","HOUSE_NO":"８１號之１","E_COORD97":182396.89000000001,"N_COORD97":2565202.0899999999,"ADDRESS":"官田８１號之１","OBJECTID":214900},"geometry":{"x":182396.88999999966,"y":2565202.0899999999}},{"attributes":{"ID":214902,"DIS_CODE":0,"TOWNNAME":"官田區","LI":"官田里","LIN":"9鄰","STREET":" ","SECT":" ","MAREA":"官田","LANE":" ","ALLEY":" ","HOUSE_NO":"８１號之２","E_COORD97":182402.45000000001,"N_COORD97":2565200.5800000001,"ADDRESS":"官田８１號之２","OBJECTID":214901},"geometry":{"x":182402.44999999925,"y":2565200.5800000019}},{"attributes":{"ID":214903,"DIS_CODE":0,"TOWNNAME":"北區","LI":"文元里","LIN":"28鄰","STREET":"文賢一路","SECT":" ","MAREA":" ","LANE":"１８２巷","ALLEY":"１３弄","HOUSE_NO":"１０號","E_COORD97":167572.67000000001,"N_COORD97":2545722.5899999999,"ADDRESS":"文賢一路１８２巷１３弄１０號","OBJECTID":214902},"geometry":{"x":167572.66999999993,"y":2545722.5900000017}},{"attributes":{"ID":214904,"DIS_CODE":0,"TOWNNAME":"北區","LI":"文元里","LIN":"28鄰","STREET":"文賢一路","SECT":" ","MAREA":" ","LANE":"１８２巷","ALLEY":"１３弄","HOUSE_NO":"１１號","E_COORD97":167555.95999999999,"N_COORD97":2545730.3599999999,"ADDRESS":"文賢一路１８２巷１３弄１１號","OBJECTID":214903},"geometry":{"x":167555.96000000089,"y":2545730.3600000013}},{"attributes":{"ID":214905,"DIS_CODE":0,"TOWNNAME":"北區","LI":"文元里","LIN":"28鄰","STREET":"文賢一路","SECT":" ","MAREA":" ","LANE":"１８２巷","ALLEY":"１３弄","HOUSE_NO":"１２號","E_COORD97":167572.20000000001,"N_COORD97":2545727.9100000001,"ADDRESS":"文賢一路１８２巷１３弄１２號","OBJECTID":214904},"geometry":{"x":167572.20000000112,"y":2545727.910000002}},{"attributes":{"ID":214906,"DIS_CODE":0,"TOWNNAME":"官田區","LI":"官田里","LIN":"9鄰","STREET":" ","SECT":" ","MAREA":"官田","LANE":" ","ALLEY":" ","HOUSE_NO":"８２號","E_COORD97":182389.67000000001,"N_COORD97":2565170.2799999998,"ADDRESS":"官田８２號","OBJECTID":214905},"geometry":{"x":182389.67000000086,"y":2565170.2799999993}},{"attributes":{"ID":214907,"DIS_CODE":0,"TOWNNAME":"官田區","LI":"官田里","LIN":"9鄰","STREET":" ","SECT":" ","MAREA":"官田","LANE":" ","ALLEY":" ","HOUSE_NO":"９０號之３","E_COORD97":182390.26000000001,"N_COORD97":2565123.79,"ADDRESS":"官田９０號之３","OBJECTID":214906},"geometry":{"x":182390.26000000071,"y":2565123.790000001}},{"attributes":{"ID":214908,"DIS_CODE":0,"TOWNNAME":"北門區","LI":"三光里","LIN":"2鄰","STREET":" ","SECT":" ","MAREA":"三寮灣","LANE":" ","ALLEY":" ","HOUSE_NO":"５８號","E_COORD97":159317.48999999999,"N_COORD97":2570900.54,"ADDRESS":"三寮灣５８號","OBJECTID":214907},"geometry":{"x":159317.49000000115,"y":2570900.5399999991}},{"attributes":{"ID":214909,"DIS_CODE":0,"TOWNNAME":"北門區","LI":"三光里","LIN":"2鄰","STREET":" ","SECT":" ","MAREA":"三寮灣","LANE":" ","ALLEY":" ","HOUSE_NO":"５９號","E_COORD97":159313.35000000001,"N_COORD97":2570900.8500000001,"ADDRESS":"三寮灣５９號","OBJECTID":214908},"geometry":{"x":159313.34999999963,"y":2570900.8500000015}},{"attributes":{"ID":214910,"DIS_CODE":0,"TOWNNAME":"北門區","LI":"三光里","LIN":"2鄰","STREET":" ","SECT":" ","MAREA":"三寮灣","LANE":" ","ALLEY":" ","HOUSE_NO":"６０號","E_COORD97":159299.78,"N_COORD97":2570893.7799999998,"ADDRESS":"三寮灣６０號","OBJECTID":214909},"geometry":{"x":159299.78000000026,"y":2570893.7800000031}},{"attributes":{"ID":214911,"DIS_CODE":0,"TOWNNAME":"北區","LI":"文元里","LIN":"28鄰","STREET":"文賢一路","SECT":" ","MAREA":" ","LANE":"１８２巷","ALLEY":"１３弄","HOUSE_NO":"１３號","E_COORD97":167555.32999999999,"N_COORD97":2545737.0299999998,"ADDRESS":"文賢一路１８２巷１３弄１３號","OBJECTID":214910},"geometry":{"x":167555.33000000101,"y":2545737.0300000012}},{"attributes":{"ID":214912,"DIS_CODE":0,"TOWNNAME":"北區","LI":"文元里","LIN":"28鄰","STREET":"文賢一路","SECT":" ","MAREA":" ","LANE":"１８２巷","ALLEY":"１３弄","HOUSE_NO":"１５號","E_COORD97":167554.69,"N_COORD97":2545743.3799999999,"ADDRESS":"文賢一路１８２巷１３弄１５號","OBJECTID":214911},"geometry":{"x":167554.69000000227,"y":2545743.3800000008}},{"attributes":{"ID":214913,"DIS_CODE":0,"TOWNNAME":"北區","LI":"文元里","LIN":"28鄰","STREET":"文賢一路","SECT":" ","MAREA":" ","LANE":"１８２巷","ALLEY":"１３弄","HOUSE_NO":"１６號","E_COORD97":167572.04000000001,"N_COORD97":2545732.9900000002,"ADDRESS":"文賢一路１８２巷１３弄１６號","OBJECTID":214912},"geometry":{"x":167572.04000000004,"y":2545732.9900000002}},{"attributes":{"ID":214914,"DIS_CODE":0,"TOWNNAME":"北區","LI":"文元里","LIN":"28鄰","STREET":"文賢一路","SECT":" ","MAREA":" ","LANE":"１８２巷","ALLEY":"１３弄","HOUSE_NO":"１７號","E_COORD97":167554.37,"N_COORD97":2545748.7799999998,"ADDRESS":"文賢一路１８２巷１３弄１７號","OBJECTID":214913},"geometry":{"x":167554.37000000011,"y":2545748.7800000012}},{"attributes":{"ID":214915,"DIS_CODE":0,"TOWNNAME":"北區","LI":"文元里","LIN":"28鄰","STREET":"文賢一路","SECT":" ","MAREA":" ","LANE":"１８２巷","ALLEY":"１３弄","HOUSE_NO":"２２號","E_COORD97":167571.07999999999,"N_COORD97":2545750.6099999999,"ADDRESS":"文賢一路１８２巷１３弄２２號","OBJECTID":214914},"geometry":{"x":167571.08000000101,"y":2545750.6099999994}},{"attributes":{"ID":214916,"DIS_CODE":0,"TOWNNAME":"北區","LI":"文元里","LIN":"28鄰","STREET":"文賢一路","SECT":" ","MAREA":" ","LANE":"１８２巷","ALLEY":"１３弄","HOUSE_NO":"２６號","E_COORD97":167570.92999999999,"N_COORD97":2545755.5299999998,"ADDRESS":"文賢一路１８２巷１３弄２６號","OBJECTID":214915},"geometry":{"x":167570.93000000156,"y":2545755.5299999993}},{"attributes":{"ID":214917,"DIS_CODE":0,"TOWNNAME":"北門區","LI":"三光里","LIN":"2鄰","STREET":" ","SECT":" ","MAREA":"三寮灣","LANE":" ","ALLEY":" ","HOUSE_NO":"６１號","E_COORD97":159297.95999999999,"N_COORD97":2570923.1400000001,"ADDRESS":"三寮灣６１號","OBJECTID":214916},"geometry":{"x":159297.95999999996,"y":2570923.1400000043}},{"attributes":{"ID":214918,"DIS_CODE":0,"TOWNNAME":"北門區","LI":"三光里","LIN":"2鄰","STREET":" ","SECT":" ","MAREA":"三寮灣","LANE":" ","ALLEY":" ","HOUSE_NO":"６２號","E_COORD97":159288.64000000001,"N_COORD97":2570903.2599999998,"ADDRESS":"三寮灣６２號","OBJECTID":214917},"geometry":{"x":159288.64000000153,"y":2570903.2599999998}},{"attributes":{"ID":214919,"DIS_CODE":0,"TOWNNAME":"官田區","LI":"官田里","LIN":"9鄰","STREET":" ","SECT":" ","MAREA":"官田","LANE":" ","ALLEY":" ","HOUSE_NO":"９０號","E_COORD97":182377.39000000001,"N_COORD97":2565110.5699999998,"ADDRESS":"官田９０號","OBJECTID":214918},"geometry":{"x":182377.3900000006,"y":2565110.5700000003}},{"attributes":{"ID":214920,"DIS_CODE":0,"TOWNNAME":"官田區","LI":"官田里","LIN":"9鄰","STREET":" ","SECT":" ","MAREA":"官田","LANE":" ","ALLEY":" ","HOUSE_NO":"９１號之１","E_COORD97":182406.72,"N_COORD97":2565135.46,"ADDRESS":"官田９１號之１","OBJECTID":214919},"geometry":{"x":182406.71999999974,"y":2565135.4600000028}},{"attributes":{"ID":214921,"DIS_CODE":0,"TOWNNAME":"官田區","LI":"官田里","LIN":"9鄰","STREET":" ","SECT":" ","MAREA":"官田","LANE":" ","ALLEY":" ","HOUSE_NO":"９１號之２","E_COORD97":182401.82000000001,"N_COORD97":2565135.6400000001,"ADDRESS":"官田９１號之２","OBJECTID":214920},"geometry":{"x":182401.82000000216,"y":2565135.6399999987}},{"attributes":{"ID":214922,"DIS_CODE":0,"TOWNNAME":"官田區","LI":"官田里","LIN":"9鄰","STREET":" ","SECT":" ","MAREA":"官田","LANE":" ","ALLEY":" ","HOUSE_NO":"９１號","E_COORD97":182414.63,"N_COORD97":2565136.7599999998,"ADDRESS":"官田９１號","OBJECTID":214921},"geometry":{"x":182414.63000000175,"y":2565136.7599999998}},{"attributes":{"ID":214923,"DIS_CODE":0,"TOWNNAME":"官田區","LI":"拔林里","LIN":"9鄰","STREET":" ","SECT":" ","MAREA":"拔子林","LANE":" ","ALLEY":" ","HOUSE_NO":"６６號","E_COORD97":180765.91,"N_COORD97":2563521.4399999999,"ADDRESS":"拔子林６６號","OBJECTID":214922},"geometry":{"x":180765.91000000108,"y":2563521.4399999995}},{"attributes":{"ID":214924,"DIS_CODE":0,"TOWNNAME":"官田區","LI":"拔林里","LIN":"9鄰","STREET":" ","SECT":" ","MAREA":"拔子林","LANE":" ","ALLEY":" ","HOUSE_NO":"６７號之１","E_COORD97":180746.54000000001,"N_COORD97":2563515.2000000002,"ADDRESS":"拔子林６７號之１","OBJECTID":214923},"geometry":{"x":180746.54000000004,"y":2563515.1999999993}},{"attributes":{"ID":214925,"DIS_CODE":0,"TOWNNAME":"官田區","LI":"拔林里","LIN":"9鄰","STREET":" ","SECT":" ","MAREA":"拔子林","LANE":" ","ALLEY":" ","HOUSE_NO":"６７號之２","E_COORD97":180740.06,"N_COORD97":2563515.98,"ADDRESS":"拔子林６７號之２","OBJECTID":214924},"geometry":{"x":180740.06000000052,"y":2563515.9799999986}},{"attributes":{"ID":214926,"DIS_CODE":0,"TOWNNAME":"官田區","LI":"拔林里","LIN":"9鄰","STREET":" ","SECT":" ","MAREA":"拔子林","LANE":" ","ALLEY":" ","HOUSE_NO":"６７號","E_COORD97":180756.56,"N_COORD97":2563518.71,"ADDRESS":"拔子林６７號","OBJECTID":214925},"geometry":{"x":180756.55999999959,"y":2563518.7100000046}},{"attributes":{"ID":214927,"DIS_CODE":0,"TOWNNAME":"官田區","LI":"拔林里","LIN":"9鄰","STREET":" ","SECT":" ","MAREA":"拔子林","LANE":" ","ALLEY":" ","HOUSE_NO":"６８號","E_COORD97":180774.54000000001,"N_COORD97":2563521.6499999999,"ADDRESS":"拔子林６８號","OBJECTID":214926},"geometry":{"x":180774.5400000019,"y":2563521.6500000041}},{"attributes":{"ID":214928,"DIS_CODE":0,"TOWNNAME":"官田區","LI":"拔林里","LIN":"9鄰","STREET":" ","SECT":" ","MAREA":"拔子林","LANE":" ","ALLEY":" ","HOUSE_NO":"６９號之１","E_COORD97":180765.98000000001,"N_COORD97":2563588.0299999998,"ADDRESS":"拔子林６９號之１","OBJECTID":214927},"geometry":{"x":180765.98000000045,"y":2563588.0299999993}},{"attributes":{"ID":214929,"DIS_CODE":0,"TOWNNAME":"官田區","LI":"拔林里","LIN":"9鄰","STREET":" ","SECT":" ","MAREA":"拔子林","LANE":" ","ALLEY":" ","HOUSE_NO":"６９號","E_COORD97":180758.64999999999,"N_COORD97":2563563.6899999999,"ADDRESS":"拔子林６９號","OBJECTID":214928},"geometry":{"x":180758.64999999944,"y":2563563.6899999995}},{"attributes":{"ID":214930,"DIS_CODE":0,"TOWNNAME":"安南區","LI":"城北里","LIN":"9鄰","STREET":"城北路","SECT":" ","MAREA":" ","LANE":" ","ALLEY":" ","HOUSE_NO":"８３號","E_COORD97":160973.59,"N_COORD97":2551582.2400000002,"ADDRESS":"城北路８３號","OBJECTID":214929},"geometry":{"x":160973.58999999985,"y":2551582.2400000002}},{"attributes":{"ID":214931,"DIS_CODE":0,"TOWNNAME":"北區","LI":"文元里","LIN":"28鄰","STREET":"文賢一路","SECT":" ","MAREA":" ","LANE":"３００巷","ALLEY":"４０弄","HOUSE_NO":"２０號","E_COORD97":167602.32000000001,"N_COORD97":2545757.0299999998,"ADDRESS":"文賢一路３００巷４０弄２０號","OBJECTID":214930},"geometry":{"x":167602.3200000003,"y":2545757.0300000012}},{"attributes":{"ID":214932,"DIS_CODE":0,"TOWNNAME":"北區","LI":"文元里","LIN":"28鄰","STREET":"文賢一路","SECT":" ","MAREA":" ","LANE":"３００巷","ALLEY":"４０弄","HOUSE_NO":"２２號","E_COORD97":167602.63,"N_COORD97":2545751.3199999998,"ADDRESS":"文賢一路３００巷４０弄２２號","OBJECTID":214931},"geometry":{"x":167602.63000000082,"y":2545751.3199999984}},{"attributes":{"ID":214933,"DIS_CODE":0,"TOWNNAME":"北門區","LI":"永隆里","LIN":"2鄰","STREET":" ","SECT":" ","MAREA":"北門","LANE":" ","ALLEY":" ","HOUSE_NO":"２０號","E_COORD97":160330.5,"N_COORD97":2574363.52,"ADDRESS":"北門２０號","OBJECTID":214932},"geometry":{"x":160330.5,"y":2574363.5199999996}},{"attributes":{"ID":214934,"DIS_CODE":0,"TOWNNAME":"北區","LI":"文元里","LIN":"28鄰","STREET":"文賢一路","SECT":" ","MAREA":" ","LANE":"３００巷","ALLEY":"４０弄","HOUSE_NO":"２６號","E_COORD97":167602.63,"N_COORD97":2545745.2799999998,"ADDRESS":"文賢一路３００巷４０弄２６號","OBJECTID":214933},"geometry":{"x":167602.63000000082,"y":2545745.2800000012}},{"attributes":{"ID":214935,"DIS_CODE":0,"TOWNNAME":"北區","LI":"文元里","LIN":"28鄰","STREET":"文賢一路","SECT":" ","MAREA":" ","LANE":"３００巷","ALLEY":"４０弄","HOUSE_NO":"２８號","E_COORD97":167602.95000000001,"N_COORD97":2545739.25,"ADDRESS":"文賢一路３００巷４０弄２８號","OBJECTID":214934},"geometry":{"x":167602.95000000019,"y":2545739.2500000019}},{"attributes":{"ID":214936,"DIS_CODE":0,"TOWNNAME":"北區","LI":"文元里","LIN":"28鄰","STREET":"文賢一路","SECT":" ","MAREA":" ","LANE":"３００巷","ALLEY":"４０弄","HOUSE_NO":"３０號","E_COORD97":167602.95000000001,"N_COORD97":2545734.4900000002,"ADDRESS":"文賢一路３００巷４０弄３０號","OBJECTID":214935},"geometry":{"x":167602.95000000019,"y":2545734.4900000021}},{"attributes":{"ID":214937,"DIS_CODE":0,"TOWNNAME":"北區","LI":"文元里","LIN":"28鄰","STREET":"文賢一路","SECT":" ","MAREA":" ","LANE":"３００巷","ALLEY":"４０弄","HOUSE_NO":"３２號","E_COORD97":167603.26999999999,"N_COORD97":2545728.77,"ADDRESS":"文賢一路３００巷４０弄３２號","OBJECTID":214936},"geometry":{"x":167603.27000000048,"y":2545728.7700000014}},{"attributes":{"ID":214938,"DIS_CODE":0,"TOWNNAME":"北區","LI":"文元里","LIN":"28鄰","STREET":"文賢一路","SECT":" ","MAREA":" ","LANE":"３００巷","ALLEY":"４０弄","HOUSE_NO":"３６號","E_COORD97":167603.26999999999,"N_COORD97":2545723.3700000001,"ADDRESS":"文賢一路３００巷４０弄３６號","OBJECTID":214937},"geometry":{"x":167603.27000000048,"y":2545723.370000001}},{"attributes":{"ID":214939,"DIS_CODE":0,"TOWNNAME":"善化區","LI":"六分里","LIN":"9鄰","STREET":" ","SECT":" ","MAREA":"溪底寮","LANE":" ","ALLEY":" ","HOUSE_NO":"２２號","E_COORD97":177560.26000000001,"N_COORD97":2561810.02,"ADDRESS":"溪底寮２２號","OBJECTID":214938},"geometry":{"x":177560.26000000164,"y":2561810.0200000014}},{"attributes":{"ID":214940,"DIS_CODE":0,"TOWNNAME":"北門區","LI":"永華里","LIN":"2鄰","STREET":" ","SECT":" ","MAREA":"井子\u25A0","LANE":" ","ALLEY":" ","HOUSE_NO":"１３號之８","E_COORD97":159992.51000000001,"N_COORD97":2572796.5499999998,"ADDRESS":"井子\u25A0１３號之８","OBJECTID":214939},"geometry":{"x":159992.50999999978,"y":2572796.5500000026}},{"attributes":{"ID":214941,"DIS_CODE":0,"TOWNNAME":"北門區","LI":"永華里","LIN":"2鄰","STREET":" ","SECT":" ","MAREA":"井子\u25A0","LANE":" ","ALLEY":" ","HOUSE_NO":"２２號","E_COORD97":159904.07999999999,"N_COORD97":2572931.2000000002,"ADDRESS":"井子\u25A0２２號","OBJECTID":214940},"geometry":{"x":159904.08000000007,"y":2572931.1999999993}},{"attributes":{"ID":214942,"DIS_CODE":0,"TOWNNAME":"北門區","LI":"北門里","LIN":"2鄰","STREET":" ","SECT":" ","MAREA":"北門","LANE":" ","ALLEY":" ","HOUSE_NO":"１５３號","E_COORD97":160165.07999999999,"N_COORD97":2574405.7200000002,"ADDRESS":"北門１５３號","OBJECTID":214941},"geometry":{"x":160165.08000000007,"y":2574405.7200000025}},{"attributes":{"ID":214943,"DIS_CODE":0,"TOWNNAME":"北門區","LI":"北門里","LIN":"2鄰","STREET":" ","SECT":" ","MAREA":"北門","LANE":" ","ALLEY":" ","HOUSE_NO":"１５４號","E_COORD97":160171.60999999999,"N_COORD97":2574401.3399999999,"ADDRESS":"北門１５４號","OBJECTID":214942},"geometry":{"x":160171.61000000127,"y":2574401.3399999999}},{"attributes":{"ID":214944,"DIS_CODE":0,"TOWNNAME":"北門區","LI":"北門里","LIN":"2鄰","STREET":" ","SECT":" ","MAREA":"北門","LANE":" ","ALLEY":" ","HOUSE_NO":"１５５號","E_COORD97":160178.07000000001,"N_COORD97":2574396.6899999999,"ADDRESS":"北門１５５號","OBJECTID":214943},"geometry":{"x":160178.07000000216,"y":2574396.6900000032}},{"attributes":{"ID":214945,"DIS_CODE":0,"TOWNNAME":"北門區","LI":"北門里","LIN":"2鄰","STREET":" ","SECT":" ","MAREA":"北門","LANE":" ","ALLEY":" ","HOUSE_NO":"１５６之３號","E_COORD97":160190.26999999999,"N_COORD97":2574378.2400000002,"ADDRESS":"北門１５６之３號","OBJECTID":214944},"geometry":{"x":160190.26999999955,"y":2574378.2400000021}},{"attributes":{"ID":214946,"DIS_CODE":0,"TOWNNAME":"北區","LI":"文元里","LIN":"28鄰","STREET":"文賢一路","SECT":" ","MAREA":" ","LANE":"３００巷","ALLEY":"４０弄","HOUSE_NO":"３８號","E_COORD97":167603.59,"N_COORD97":2545717.98,"ADDRESS":"文賢一路３００巷４０弄３８號","OBJECTID":214945},"geometry":{"x":167603.58999999985,"y":2545717.9800000023}},{"attributes":{"ID":214947,"DIS_CODE":0,"TOWNNAME":"永康區","LI":"西灣里","LIN":"28鄰","STREET":"公園路","SECT":" ","MAREA":" ","LANE":"７巷","ALLEY":"４３弄","HOUSE_NO":"３號","E_COORD97":174486.95999999999,"N_COORD97":2545915.1699999999,"ADDRESS":"公園路７巷４３弄３號","OBJECTID":214946},"geometry":{"x":174486.95999999996,"y":2545915.1700000018}},{"attributes":{"ID":214948,"DIS_CODE":0,"TOWNNAME":"永康區","LI":"西灣里","LIN":"28鄰","STREET":"公園路","SECT":" ","MAREA":" ","LANE":"７巷","ALLEY":"４４弄","HOUSE_NO":"３２號","E_COORD97":174370.94,"N_COORD97":2545865.5600000001,"ADDRESS":"公園路７巷４４弄３２號","OBJECTID":214947},"geometry":{"x":174370.93999999948,"y":2545865.5600000042}},{"attributes":{"ID":214949,"DIS_CODE":0,"TOWNNAME":"北門區","LI":"北門里","LIN":"2鄰","STREET":" ","SECT":" ","MAREA":"北門","LANE":" ","ALLEY":" ","HOUSE_NO":"１５６號之３","E_COORD97":160190.26999999999,"N_COORD97":2574378.2400000002,"ADDRESS":"北門１５６號之３","OBJECTID":214948},"geometry":{"x":160190.26999999955,"y":2574378.2400000021}},{"attributes":{"ID":214950,"DIS_CODE":0,"TOWNNAME":"北門區","LI":"北門里","LIN":"2鄰","STREET":" ","SECT":" ","MAREA":"北門","LANE":" ","ALLEY":" ","HOUSE_NO":"１５６之５號","E_COORD97":160193.10999999999,"N_COORD97":2574375.1699999999,"ADDRESS":"北門１５６之５號","OBJECTID":214949},"geometry":{"x":160193.11000000127,"y":2574375.1700000018}},{"attributes":{"ID":214951,"DIS_CODE":0,"TOWNNAME":"永康區","LI":"西灣里","LIN":"28鄰","STREET":"公園路","SECT":" ","MAREA":" ","LANE":"７巷","ALLEY":"４３弄","HOUSE_NO":"１號","E_COORD97":174477.69,"N_COORD97":2545918.3300000001,"ADDRESS":"公園路７巷４３弄１號","OBJECTID":214950},"geometry":{"x":174477.69000000041,"y":2545918.3300000019}},{"attributes":{"ID":214952,"DIS_CODE":0,"TOWNNAME":"歸仁區","LI":"歸仁里","LIN":"28鄰","STREET":"忠孝北路","SECT":" ","MAREA":" ","LANE":"８巷","ALLEY":"６６弄","HOUSE_NO":"１２號","E_COORD97":179191.28,"N_COORD97":2540801.2999999998,"ADDRESS":"忠孝北路８巷６６弄１２號","OBJECTID":214951},"geometry":{"x":179191.28000000026,"y":2540801.3000000007}},{"attributes":{"ID":214953,"DIS_CODE":0,"TOWNNAME":"北門區","LI":"北門里","LIN":"2鄰","STREET":" ","SECT":" ","MAREA":"北門","LANE":" ","ALLEY":" ","HOUSE_NO":"１５６號之５","E_COORD97":160193.10999999999,"N_COORD97":2574375.1699999999,"ADDRESS":"北門１５６號之５","OBJECTID":214952},"geometry":{"x":160193.11000000127,"y":2574375.1700000018}},{"attributes":{"ID":214954,"DIS_CODE":0,"TOWNNAME":"北門區","LI":"北門里","LIN":"2鄰","STREET":" ","SECT":" ","MAREA":"北門","LANE":" ","ALLEY":" ","HOUSE_NO":"１５６之６號","E_COORD97":160195.13,"N_COORD97":2574371.79,"ADDRESS":"北門１５６之６號","OBJECTID":214953},"geometry":{"x":160195.12999999989,"y":2574371.7899999972}},{"attributes":{"ID":214955,"DIS_CODE":0,"TOWNNAME":"北門區","LI":"北門里","LIN":"2鄰","STREET":" ","SECT":" ","MAREA":"北門","LANE":" ","ALLEY":" ","HOUSE_NO":"１５６號之６","E_COORD97":160195.13,"N_COORD97":2574371.79,"ADDRESS":"北門１５６號之６","OBJECTID":214954},"geometry":{"x":160195.12999999989,"y":2574371.7899999972}},{"attributes":{"ID":214956,"DIS_CODE":0,"TOWNNAME":"北門區","LI":"北門里","LIN":"2鄰","STREET":" ","SECT":" ","MAREA":"北門","LANE":" ","ALLEY":" ","HOUSE_NO":"１５６之７號","E_COORD97":160197.35999999999,"N_COORD97":2574367.04,"ADDRESS":"北門１５６之７號","OBJECTID":214955},"geometry":{"x":160197.36000000034,"y":2574367.0400000028}},{"attributes":{"ID":214957,"DIS_CODE":0,"TOWNNAME":"北門區","LI":"北門里","LIN":"2鄰","STREET":" ","SECT":" ","MAREA":"北門","LANE":" ","ALLEY":" ","HOUSE_NO":"１５６號之７","E_COORD97":160197.35999999999,"N_COORD97":2574367.04,"ADDRESS":"北門１５６號之７","OBJECTID":214956},"geometry":{"x":160197.36000000034,"y":2574367.0400000028}},{"attributes":{"ID":214958,"DIS_CODE":0,"TOWNNAME":"北門區","LI":"北門里","LIN":"2鄰","STREET":" ","SECT":" ","MAREA":"北門","LANE":" ","ALLEY":" ","HOUSE_NO":"１５６號","E_COORD97":160178.16,"N_COORD97":2574385.73,"ADDRESS":"北門１５６號","OBJECTID":214957},"geometry":{"x":160178.16000000015,"y":2574385.7300000004}},{"attributes":{"ID":214959,"DIS_CODE":0,"TOWNNAME":"北門區","LI":"北門里","LIN":"2鄰","STREET":" ","SECT":" ","MAREA":"北門","LANE":" ","ALLEY":" ","HOUSE_NO":"１６０號","E_COORD97":160203.12,"N_COORD97":2574359.79,"ADDRESS":"北門１６０號","OBJECTID":214958},"geometry":{"x":160203.12000000104,"y":2574359.790000001}},{"attributes":{"ID":214960,"DIS_CODE":0,"TOWNNAME":"永康區","LI":"甲頂里","LIN":"28鄰","STREET":"中央路","SECT":" ","MAREA":" ","LANE":"２３巷","ALLEY":"５８弄","HOUSE_NO":"３號","E_COORD97":169409.10000000001,"N_COORD97":2546962.0499999998,"ADDRESS":"中央路２３巷５８弄３號","OBJECTID":214959},"geometry":{"x":169409.10000000149,"y":2546962.0500000026}},{"attributes":{"ID":214961,"DIS_CODE":0,"TOWNNAME":"永康區","LI":"永康里","LIN":"28鄰","STREET":"永康街","SECT":" ","MAREA":" ","LANE":"２７２巷","ALLEY":"１弄","HOUSE_NO":"９號","E_COORD97":174164.85000000001,"N_COORD97":2546979.2799999998,"ADDRESS":"永康街２７２巷１弄９號","OBJECTID":214960},"geometry":{"x":174164.85000000056,"y":2546979.2800000012}},{"attributes":{"ID":214962,"DIS_CODE":0,"TOWNNAME":"安南區","LI":"城北里","LIN":"9鄰","STREET":"城北路","SECT":" ","MAREA":" ","LANE":" ","ALLEY":" ","HOUSE_NO":"９號","E_COORD97":160841.98999999999,"N_COORD97":2551499.6000000001,"ADDRESS":"城北路９號","OBJECTID":214961},"geometry":{"x":160841.99000000115,"y":2551499.6000000015}},{"attributes":{"ID":214963,"DIS_CODE":0,"TOWNNAME":"永康區","LI":"甲頂里","LIN":"28鄰","STREET":"中央路","SECT":" ","MAREA":" ","LANE":"２３巷","ALLEY":"５８弄","HOUSE_NO":"５號之１","E_COORD97":169388.67000000001,"N_COORD97":2546978.0699999998,"ADDRESS":"中央路２３巷５８弄５號之１","OBJECTID":214962},"geometry":{"x":169388.67000000086,"y":2546978.0700000022}},{"attributes":{"ID":214964,"DIS_CODE":0,"TOWNNAME":"安南區","LI":"州南里","LIN":"28鄰","STREET":"安和路","SECT":"五段","MAREA":" ","LANE":"８４巷","ALLEY":"３８弄","HOUSE_NO":"４０號","E_COORD97":170161.60217200001,"N_COORD97":2551749.3039099998,"ADDRESS":"安和路五段８４巷３８弄４０號","OBJECTID":214963},"geometry":{"x":170161.60217200033,"y":2551749.3039090019}},{"attributes":{"ID":214965,"DIS_CODE":0,"TOWNNAME":"安南區","LI":"州南里","LIN":"28鄰","STREET":"安和路","SECT":"五段","MAREA":" ","LANE":"８４巷","ALLEY":"３８弄","HOUSE_NO":"４２號","E_COORD97":170189.12746799999,"N_COORD97":2551756.07724,"ADDRESS":"安和路五段８４巷３８弄４２號","OBJECTID":214964},"geometry":{"x":170189.1274680011,"y":2551756.0772389974}},{"attributes":{"ID":214966,"DIS_CODE":0,"TOWNNAME":"北門區","LI":"永隆里","LIN":"2鄰","STREET":" ","SECT":" ","MAREA":"北門","LANE":" ","ALLEY":" ","HOUSE_NO":"２１號","E_COORD97":160332.60999999999,"N_COORD97":2574365.9900000002,"ADDRESS":"北門２１號","OBJECTID":214965},"geometry":{"x":160332.61000000127,"y":2574365.9900000021}},{"attributes":{"ID":214967,"DIS_CODE":0,"TOWNNAME":"安南區","LI":"州南里","LIN":"28鄰","STREET":"安和路","SECT":"五段","MAREA":" ","LANE":"８４巷","ALLEY":"３８弄","HOUSE_NO":"４６號","E_COORD97":170198.02025599999,"N_COORD97":2551758.8289000001,"ADDRESS":"安和路五段８４巷３８弄４６號","OBJECTID":214966},"geometry":{"x":170198.02025599964,"y":2551758.8289039992}},{"attributes":{"ID":214968,"DIS_CODE":0,"TOWNNAME":"安南區","LI":"州南里","LIN":"28鄰","STREET":"安和路","SECT":"五段","MAREA":" ","LANE":"８４巷","ALLEY":"３８弄","HOUSE_NO":"４８號","E_COORD97":170201.40798399999,"N_COORD97":2551760.94557,"ADDRESS":"安和路五段８４巷３８弄４８號","OBJECTID":214967},"geometry":{"x":170201.40798400063,"y":2551760.9455690011}},{"attributes":{"ID":214969,"DIS_CODE":0,"TOWNNAME":"安南區","LI":"州南里","LIN":"28鄰","STREET":"安和路","SECT":"五段","MAREA":" ","LANE":"８４巷","ALLEY":"３８弄","HOUSE_NO":"５０號","E_COORD97":170206.277844,"N_COORD97":2551762.6389000001,"ADDRESS":"安和路五段８４巷３８弄５０號","OBJECTID":214968},"geometry":{"x":170206.27784400154,"y":2551762.6389020029}},{"attributes":{"ID":214970,"DIS_CODE":0,"TOWNNAME":"安南區","LI":"州南里","LIN":"28鄰","STREET":"安和路","SECT":"五段","MAREA":" ","LANE":"８４巷","ALLEY":"３８弄","HOUSE_NO":"５２號","E_COORD97":170209.87730600001,"N_COORD97":2551764.9672300001,"ADDRESS":"安和路五段８４巷３８弄５２號","OBJECTID":214969},"geometry":{"x":170209.87730600126,"y":2551764.9672340006}},{"attributes":{"ID":214971,"DIS_CODE":0,"TOWNNAME":"安南區","LI":"州南里","LIN":"28鄰","STREET":"安和路","SECT":"五段","MAREA":" ","LANE":"８４巷","ALLEY":"３８弄","HOUSE_NO":"５４號","E_COORD97":170214.95889899999,"N_COORD97":2551767.0839,"ADDRESS":"安和路五段８４巷３８弄５４號","OBJECTID":214970},"geometry":{"x":170214.95889899973,"y":2551767.0838990025}},{"attributes":{"ID":214972,"DIS_CODE":0,"TOWNNAME":"安南區","LI":"州南里","LIN":"28鄰","STREET":"安和路","SECT":"五段","MAREA":" ","LANE":"８４巷","ALLEY":"３８弄","HOUSE_NO":"５６號","E_COORD97":170219.40529299999,"N_COORD97":2551769.6239,"ADDRESS":"安和路五段８４巷３８弄５６號","OBJECTID":214971},"geometry":{"x":170219.40529299993,"y":2551769.6238980014}},{"attributes":{"ID":214973,"DIS_CODE":0,"TOWNNAME":"安南區","LI":"學東里","LIN":"9鄰","STREET":"公學路","SECT":"六段","MAREA":" ","LANE":" ","ALLEY":" ","HOUSE_NO":"６１０號","E_COORD97":162361.42999999999,"N_COORD97":2553245.8399999999,"ADDRESS":"公學路六段６１０號","OBJECTID":214972},"geometry":{"x":162361.4299999997,"y":2553245.8399999999}},{"attributes":{"ID":214974,"DIS_CODE":0,"TOWNNAME":"安南區","LI":"城東里","LIN":"9鄰","STREET":"城北路","SECT":" ","MAREA":" ","LANE":" ","ALLEY":" ","HOUSE_NO":"１２８號","E_COORD97":161030.51999999999,"N_COORD97":2551644.6099999999,"ADDRESS":"城北路１２８號","OBJECTID":214973},"geometry":{"x":161030.52000000048,"y":2551644.6100000031}},{"attributes":{"ID":214975,"DIS_CODE":0,"TOWNNAME":"安南區","LI":"海東里","LIN":"9鄰","STREET":"海佃路","SECT":"二段","MAREA":" ","LANE":" ","ALLEY":" ","HOUSE_NO":"４９３號","E_COORD97":166687.75,"N_COORD97":2549181.9300000002,"ADDRESS":"海佃路二段４９３號","OBJECTID":214974},"geometry":{"x":166687.75000000186,"y":2549181.9300000016}},{"attributes":{"ID":214976,"DIS_CODE":0,"TOWNNAME":"東區","LI":"裕聖里","LIN":"13鄰","STREET":"裕義路","SECT":" ","MAREA":" ","LANE":" ","ALLEY":" ","HOUSE_NO":"５５２號","E_COORD97":172878.03,"N_COORD97":2542275.6000000001,"ADDRESS":"裕義路５５２號","OBJECTID":214975},"geometry":{"x":172878.03000000026,"y":2542275.5999999996}},{"attributes":{"ID":214977,"DIS_CODE":0,"TOWNNAME":"仁德區","LI":"後壁里","LIN":"28鄰","STREET":"德洋路","SECT":" ","MAREA":" ","LANE":"２５巷","ALLEY":"３２弄","HOUSE_NO":"２號","E_COORD97":173096.88,"N_COORD97":2538917.7599999998,"ADDRESS":"德洋路２５巷３２弄２號","OBJECTID":214976},"geometry":{"x":173096.88000000082,"y":2538917.7600000016}},{"attributes":{"ID":214978,"DIS_CODE":0,"TOWNNAME":"東區","LI":"裕聖里","LIN":"13鄰","STREET":"裕義路","SECT":" ","MAREA":" ","LANE":" ","ALLEY":" ","HOUSE_NO":"３７６號","E_COORD97":172878.19,"N_COORD97":2542433.3599999999,"ADDRESS":"裕義路３７６號","OBJECTID":214977},"geometry":{"x":172878.19000000134,"y":2542433.3599999994}},{"attributes":{"ID":214979,"DIS_CODE":0,"TOWNNAME":"東區","LI":"裕聖里","LIN":"13鄰","STREET":"裕義路","SECT":" ","MAREA":" ","LANE":" ","ALLEY":" ","HOUSE_NO":"３６２號","E_COORD97":172877.72,"N_COORD97":2542453.1400000001,"ADDRESS":"裕義路３６２號","OBJECTID":214978},"geometry":{"x":172877.71999999974,"y":2542453.1400000006}},{"attributes":{"ID":214980,"DIS_CODE":0,"TOWNNAME":"東區","LI":"南聖里","LIN":"14鄰","STREET":"裕誠街","SECT":" ","MAREA":" ","LANE":" ","ALLEY":" ","HOUSE_NO":"１９５號","E_COORD97":172640.60000000001,"N_COORD97":2543341.52,"ADDRESS":"裕誠街１９５號","OBJECTID":214979},"geometry":{"x":172640.60000000056,"y":2543341.5199999996}},{"attributes":{"ID":214981,"DIS_CODE":0,"TOWNNAME":"東區","LI":"南聖里","LIN":"14鄰","STREET":"裕誠街","SECT":" ","MAREA":" ","LANE":" ","ALLEY":" ","HOUSE_NO":"１９９號","E_COORD97":172648.13,"N_COORD97":2543343.1499999999,"ADDRESS":"裕誠街１９９號","OBJECTID":214980},"geometry":{"x":172648.12999999989,"y":2543343.1500000022}},{"attributes":{"ID":214982,"DIS_CODE":0,"TOWNNAME":"東區","LI":"南聖里","LIN":"14鄰","STREET":"裕農路","SECT":" ","MAREA":" ","LANE":" ","ALLEY":" ","HOUSE_NO":"１０３６號","E_COORD97":172769.82999999999,"N_COORD97":2543401.6000000001,"ADDRESS":"裕農路１０３６號","OBJECTID":214981},"geometry":{"x":172769.83000000101,"y":2543401.5999999996}},{"attributes":{"ID":214983,"DIS_CODE":0,"TOWNNAME":"東區","LI":"崇德里","LIN":"10鄰","STREET":"崇德路","SECT":" ","MAREA":" ","LANE":" ","ALLEY":" ","HOUSE_NO":"５５３號","E_COORD97":170805.06,"N_COORD97":2541533.8300000001,"ADDRESS":"崇德路５５３號","OBJECTID":214982},"geometry":{"x":170805.06000000052,"y":2541533.8300000019}},{"attributes":{"ID":214984,"DIS_CODE":0,"TOWNNAME":"東區","LI":"崇德里","LIN":"10鄰","STREET":"崇德路","SECT":" ","MAREA":" ","LANE":" ","ALLEY":" ","HOUSE_NO":"５５５號","E_COORD97":170804.89000000001,"N_COORD97":2541529.5699999998,"ADDRESS":"崇德路５５５號","OBJECTID":214983},"geometry":{"x":170804.88999999966,"y":2541529.5700000022}},{"attributes":{"ID":214985,"DIS_CODE":0,"TOWNNAME":"東區","LI":"崇德里","LIN":"10鄰","STREET":"崇德路","SECT":" ","MAREA":" ","LANE":" ","ALLEY":" ","HOUSE_NO":"５５７號","E_COORD97":170805.38,"N_COORD97":2541524.5,"ADDRESS":"崇德路５５７號","OBJECTID":214984},"geometry":{"x":170805.37999999989,"y":2541524.5}},{"attributes":{"ID":214986,"DIS_CODE":0,"TOWNNAME":"永康區","LI":"永康里","LIN":"28鄰","STREET":"永康街","SECT":" ","MAREA":" ","LANE":"２７２巷","ALLEY":"１弄","HOUSE_NO":"７號","E_COORD97":174160.03,"N_COORD97":2546978.7799999998,"ADDRESS":"永康街２７２巷１弄７號","OBJECTID":214985},"geometry":{"x":174160.02999999933,"y":2546978.7800000012}},{"attributes":{"ID":214987,"DIS_CODE":0,"TOWNNAME":"永康區","LI":"甲頂里","LIN":"28鄰","STREET":"中央路","SECT":" ","MAREA":" ","LANE":"２３巷","ALLEY":"２弄","HOUSE_NO":"１號","E_COORD97":169588.91,"N_COORD97":2547021.6099999999,"ADDRESS":"中央路２３巷２弄１號","OBJECTID":214986},"geometry":{"x":169588.91000000201,"y":2547021.6100000013}},{"attributes":{"ID":214988,"DIS_CODE":0,"TOWNNAME":"永康區","LI":"永康里","LIN":"28鄰","STREET":"永康街","SECT":" ","MAREA":" ","LANE":"３１０巷","ALLEY":"２８弄","HOUSE_NO":"５號","E_COORD97":174198.47,"N_COORD97":2546970.4700000002,"ADDRESS":"永康街３１０巷２８弄５號","OBJECTID":214987},"geometry":{"x":174198.46999999974,"y":2546970.4700000007}},{"attributes":{"ID":214989,"DIS_CODE":0,"TOWNNAME":"永康區","LI":"永康里","LIN":"28鄰","STREET":"永康街","SECT":" ","MAREA":" ","LANE":"２７２巷","ALLEY":"１弄","HOUSE_NO":"５號","E_COORD97":174154.89999999999,"N_COORD97":2546978.5299999998,"ADDRESS":"永康街２７２巷１弄５號","OBJECTID":214988},"geometry":{"x":174154.9000000013,"y":2546978.5299999993}},{"attributes":{"ID":214990,"DIS_CODE":0,"TOWNNAME":"永康區","LI":"甲頂里","LIN":"28鄰","STREET":"中央路","SECT":" ","MAREA":" ","LANE":"２３巷","ALLEY":"５８弄","HOUSE_NO":"３號之１","E_COORD97":169409.92000000001,"N_COORD97":2546971.8999999999,"ADDRESS":"中央路２３巷５８弄３號之１","OBJECTID":214989},"geometry":{"x":169409.91999999993,"y":2546971.9000000022}},{"attributes":{"ID":214991,"DIS_CODE":0,"TOWNNAME":"永康區","LI":"二王里","LIN":"28鄰","STREET":"中山南路","SECT":" ","MAREA":" ","LANE":"５４４巷","ALLEY":"５２弄","HOUSE_NO":"１２號","E_COORD97":172271.78,"N_COORD97":2546458.7400000002,"ADDRESS":"中山南路５４４巷５２弄１２號","OBJECTID":214990},"geometry":{"x":172271.78000000212,"y":2546458.7400000021}},{"attributes":{"ID":214992,"DIS_CODE":0,"TOWNNAME":"東區","LI":"崇德里","LIN":"10鄰","STREET":"崇德路","SECT":" ","MAREA":" ","LANE":" ","ALLEY":" ","HOUSE_NO":"５５９號","E_COORD97":170805.06,"N_COORD97":2541520.2400000002,"ADDRESS":"崇德路５５９號","OBJECTID":214991},"geometry":{"x":170805.06000000052,"y":2541520.2400000002}},{"attributes":{"ID":214993,"DIS_CODE":0,"TOWNNAME":"北門區","LI":"北門里","LIN":"2鄰","STREET":" ","SECT":" ","MAREA":"北門","LANE":" ","ALLEY":" ","HOUSE_NO":"１６１號","E_COORD97":160210.42999999999,"N_COORD97":2574351.27,"ADDRESS":"北門１６１號","OBJECTID":214992},"geometry":{"x":160210.43000000156,"y":2574351.2699999996}},{"attributes":{"ID":214994,"DIS_CODE":0,"TOWNNAME":"北門區","LI":"北門里","LIN":"2鄰","STREET":" ","SECT":" ","MAREA":"北門","LANE":" ","ALLEY":" ","HOUSE_NO":"１６２號","E_COORD97":160217.45999999999,"N_COORD97":2574358.5800000001,"ADDRESS":"北門１６２號","OBJECTID":214993},"geometry":{"x":160217.46000000183,"y":2574358.5800000019}},{"attributes":{"ID":214995,"DIS_CODE":0,"TOWNNAME":"北門區","LI":"永隆里","LIN":"2鄰","STREET":" ","SECT":" ","MAREA":"北門","LANE":" ","ALLEY":" ","HOUSE_NO":"１８號","E_COORD97":160324.06,"N_COORD97":2574356.6099999999,"ADDRESS":"北門１８號","OBJECTID":214994},"geometry":{"x":160324.05999999959,"y":2574356.6100000031}},{"attributes":{"ID":214996,"DIS_CODE":0,"TOWNNAME":"永康區","LI":"復國里","LIN":"28鄰","STREET":"復國一路","SECT":" ","MAREA":" ","LANE":"２３７巷","ALLEY":"９弄","HOUSE_NO":"７號","E_COORD97":172714.53,"N_COORD97":2545391.7799999998,"ADDRESS":"復國一路２３７巷９弄７號","OBJECTID":214995},"geometry":{"x":172714.53000000119,"y":2545391.7800000012}},{"attributes":{"ID":214997,"DIS_CODE":0,"TOWNNAME":"永康區","LI":"正強里","LIN":"28鄰","STREET":"中正路","SECT":" ","MAREA":" ","LANE":"１５５巷","ALLEY":"６弄","HOUSE_NO":"５號","E_COORD97":173210.85000000001,"N_COORD97":2547821.7400000002,"ADDRESS":"中正路１５５巷６弄５號","OBJECTID":214996},"geometry":{"x":173210.84999999963,"y":2547821.7400000021}},{"attributes":{"ID":214998,"DIS_CODE":0,"TOWNNAME":"永康區","LI":"正強里","LIN":"28鄰","STREET":"中正路","SECT":" ","MAREA":" ","LANE":"１５５巷","ALLEY":"６弄","HOUSE_NO":"２７號","E_COORD97":173153.37,"N_COORD97":2547816.2400000002,"ADDRESS":"中正路１５５巷６弄２７號","OBJECTID":214997},"geometry":{"x":173153.37000000011,"y":2547816.2400000002}},{"attributes":{"ID":214999,"DIS_CODE":0,"TOWNNAME":"北門區","LI":"永隆里","LIN":"2鄰","STREET":" ","SECT":" ","MAREA":"北門","LANE":" ","ALLEY":" ","HOUSE_NO":"１９號","E_COORD97":160327.22,"N_COORD97":2574360.4900000002,"ADDRESS":"北門１９號","OBJECTID":214998},"geometry":{"x":160327.2200000016,"y":2574360.4900000002}},{"attributes":{"ID":215000,"DIS_CODE":0,"TOWNNAME":"永康區","LI":"北灣里","LIN":"28鄰","STREET":"文賢街","SECT":" ","MAREA":" ","LANE":"７８巷","ALLEY":"１９弄","HOUSE_NO":"８６號","E_COORD97":175468.70000000001,"N_COORD97":2545479.1600000001,"ADDRESS":"文賢街７８巷１９弄８６號","OBJECTID":214999},"geometry":{"x":175468.70000000019,"y":2545479.160000002}},{"attributes":{"ID":215001,"DIS_CODE":0,"TOWNNAME":"永康區","LI":"甲頂里","LIN":"28鄰","STREET":"中央路","SECT":" ","MAREA":" ","LANE":"２３巷","ALLEY":"５８弄","HOUSE_NO":"１號","E_COORD97":169409.47,"N_COORD97":2546957.2999999998,"ADDRESS":"中央路２３巷５８弄１號","OBJECTID":215000},"geometry":{"x":169409.46999999974,"y":2546957.3000000026}}]}