{"displayFieldName":"TOWNNAME","fieldAliases":{"ID":"ID","DIS_CODE":"DIS_CODE","TOWNNAME":"TOWNNAME","LI":"LI","LIN":"LIN","STREET":"STREET","SECT":"SECT","MAREA":"MAREA","LANE":"LANE","ALLEY":"ALLEY","HOUSE_NO":"HOUSE_NO","E_COORD97":"E_COORD97","N_COORD97":"N_COORD97","ADDRESS":"ADDRESS","OBJECTID":"OBJECTID"},"geometryType":"esriGeometryPoint","spatialReference":{"wkid":102443,"latestWkid":3826},"fields":[{"name":"ID","type":"esriFieldTypeDouble","alias":"ID"},{"name":"DIS_CODE","type":"esriFieldTypeInteger","alias":"DIS_CODE"},{"name":"TOWNNAME","type":"esriFieldTypeString","alias":"TOWNNAME","length":8},{"name":"LI","type":"esriFieldTypeString","alias":"LI","length":8},{"name":"LIN","type":"esriFieldTypeString","alias":"LIN","length":12},{"name":"STREET","type":"esriFieldTypeString","alias":"STREET","length":20},{"name":"SECT","type":"esriFieldTypeString","alias":"SECT","length":8},{"name":"MAREA","type":"esriFieldTypeString","alias":"MAREA","length":12},{"name":"LANE","type":"esriFieldTypeString","alias":"LANE","length":10},{"name":"ALLEY","type":"esriFieldTypeString","alias":"ALLEY","length":10},{"name":"HOUSE_NO","type":"esriFieldTypeString","alias":"HOUSE_NO","length":20},{"name":"E_COORD97","type":"esriFieldTypeDouble","alias":"E_COORD97"},{"name":"N_COORD97","type":"esriFieldTypeDouble","alias":"N_COORD97"},{"name":"ADDRESS","type":"esriFieldTypeString","alias":"ADDRESS","length":50},{"name":"OBJECTID","type":"esriFieldTypeOID","alias":"OBJECTID"}],"features":[{"attributes":{"ID":446626,"DIS_CODE":0,"TOWNNAME":"楠西區","LI":"楠西里","LIN":"5鄰","STREET":"中興路","SECT":" ","MAREA":" ","LANE":"９５巷","ALLEY":" ","HOUSE_NO":"２２號","E_COORD97":197199.16,"N_COORD97":2564492.25,"ADDRESS":"中興路９５巷２２號","OBJECTID":446601},"geometry":{"x":197199.16000000108,"y":2564492.25}},{"attributes":{"ID":446627,"DIS_CODE":0,"TOWNNAME":"楠西區","LI":"楠西里","LIN":"5鄰","STREET":"中興路","SECT":" ","MAREA":" ","LANE":"９５巷","ALLEY":" ","HOUSE_NO":"１６號","E_COORD97":197212.85999999999,"N_COORD97":2564493.25,"ADDRESS":"中興路９５巷１６號","OBJECTID":446602},"geometry":{"x":197212.86000000127,"y":2564493.25}},{"attributes":{"ID":446628,"DIS_CODE":0,"TOWNNAME":"楠西區","LI":"楠西里","LIN":"5鄰","STREET":"中興路","SECT":" ","MAREA":" ","LANE":"９５巷","ALLEY":" ","HOUSE_NO":"２０號","E_COORD97":197203.76000000001,"N_COORD97":2564491.25,"ADDRESS":"中興路９５巷２０號","OBJECTID":446603},"geometry":{"x":197203.75999999978,"y":2564491.2500000019}},{"attributes":{"ID":446629,"DIS_CODE":0,"TOWNNAME":"新化區","LI":"太平里","LIN":"5鄰","STREET":"民生路","SECT":" ","MAREA":" ","LANE":"２５２巷","ALLEY":" ","HOUSE_NO":"１８號","E_COORD97":179074.66,"N_COORD97":2549104.25,"ADDRESS":"民生路２５２巷１８號","OBJECTID":446604},"geometry":{"x":179074.66000000015,"y":2549104.25}},{"attributes":{"ID":446630,"DIS_CODE":0,"TOWNNAME":"新化區","LI":"東榮里","LIN":"5鄰","STREET":"信義路","SECT":" ","MAREA":" ","LANE":"９３巷","ALLEY":" ","HOUSE_NO":"１６號","E_COORD97":179847.23000000001,"N_COORD97":2548625.25,"ADDRESS":"信義路９３巷１６號","OBJECTID":446605},"geometry":{"x":179847.23000000045,"y":2548625.25}},{"attributes":{"ID":446631,"DIS_CODE":0,"TOWNNAME":"新化區","LI":"協興里","LIN":"5鄰","STREET":"忠孝路","SECT":" ","MAREA":" ","LANE":"２６９巷","ALLEY":" ","HOUSE_NO":"２號","E_COORD97":178409.22,"N_COORD97":2548536.25,"ADDRESS":"忠孝路２６９巷２號","OBJECTID":446606},"geometry":{"x":178409.21999999974,"y":2548536.2500000019}},{"attributes":{"ID":446632,"DIS_CODE":0,"TOWNNAME":"新化區","LI":"太平里","LIN":"5鄰","STREET":"民生路","SECT":" ","MAREA":" ","LANE":"２３４巷","ALLEY":" ","HOUSE_NO":"２５號","E_COORD97":179090.76000000001,"N_COORD97":2549078.25,"ADDRESS":"民生路２３４巷２５號","OBJECTID":446607},"geometry":{"x":179090.75999999978,"y":2549078.2500000019}},{"attributes":{"ID":446633,"DIS_CODE":0,"TOWNNAME":"新化區","LI":"太平里","LIN":"5鄰","STREET":"民生路","SECT":" ","MAREA":" ","LANE":"２３４巷","ALLEY":" ","HOUSE_NO":"３４號","E_COORD97":179139.66,"N_COORD97":2549016.25,"ADDRESS":"民生路２３４巷３４號","OBJECTID":446608},"geometry":{"x":179139.66000000201,"y":2549016.25}},{"attributes":{"ID":446634,"DIS_CODE":0,"TOWNNAME":"新化區","LI":"太平里","LIN":"5鄰","STREET":"民生路","SECT":" ","MAREA":" ","LANE":"２３４巷","ALLEY":" ","HOUSE_NO":"１號","E_COORD97":179070.41,"N_COORD97":2549026.25,"ADDRESS":"民生路２３４巷１號","OBJECTID":446609},"geometry":{"x":179070.41000000108,"y":2549026.25}},{"attributes":{"ID":446635,"DIS_CODE":0,"TOWNNAME":"新化區","LI":"太平里","LIN":"5鄰","STREET":"民生路","SECT":" ","MAREA":" ","LANE":"２３４巷","ALLEY":" ","HOUSE_NO":"５１號","E_COORD97":179104.35999999999,"N_COORD97":2549128.25,"ADDRESS":"民生路２３４巷５１號","OBJECTID":446610},"geometry":{"x":179104.36000000034,"y":2549128.2499999981}},{"attributes":{"ID":446636,"DIS_CODE":0,"TOWNNAME":"新化區","LI":"太平里","LIN":"5鄰","STREET":"民生路","SECT":" ","MAREA":" ","LANE":"２３４巷","ALLEY":" ","HOUSE_NO":"８號","E_COORD97":179083.20999999999,"N_COORD97":2549020.25,"ADDRESS":"民生路２３４巷８號","OBJECTID":446611},"geometry":{"x":179083.21000000183,"y":2549020.2500000019}},{"attributes":{"ID":446637,"DIS_CODE":0,"TOWNNAME":"新化區","LI":"協興里","LIN":"5鄰","STREET":"中山路","SECT":" ","MAREA":" ","LANE":"５４８巷","ALLEY":" ","HOUSE_NO":"７號","E_COORD97":178422.60999999999,"N_COORD97":2548509.25,"ADDRESS":"中山路５４８巷７號","OBJECTID":446612},"geometry":{"x":178422.61000000034,"y":2548509.2500000019}},{"attributes":{"ID":446638,"DIS_CODE":0,"TOWNNAME":"新化區","LI":"東榮里","LIN":"5鄰","STREET":"信義路","SECT":" ","MAREA":" ","LANE":"９３巷","ALLEY":" ","HOUSE_NO":"２０號","E_COORD97":179847.03,"N_COORD97":2548616.25,"ADDRESS":"信義路９３巷２０號","OBJECTID":446613},"geometry":{"x":179847.03000000026,"y":2548616.2499999981}},{"attributes":{"ID":446639,"DIS_CODE":0,"TOWNNAME":"新化區","LI":"太平里","LIN":"5鄰","STREET":"民生路","SECT":" ","MAREA":" ","LANE":"２３４巷","ALLEY":" ","HOUSE_NO":"３號","E_COORD97":179073.91,"N_COORD97":2549031.25,"ADDRESS":"民生路２３４巷３號","OBJECTID":446614},"geometry":{"x":179073.91000000108,"y":2549031.2500000019}},{"attributes":{"ID":446640,"DIS_CODE":0,"TOWNNAME":"新化區","LI":"觀音里","LIN":"5鄰","STREET":"仁愛街","SECT":" ","MAREA":" ","LANE":"６５巷","ALLEY":" ","HOUSE_NO":"６號","E_COORD97":178959.67999999999,"N_COORD97":2548541.25,"ADDRESS":"仁愛街６５巷６號","OBJECTID":446615},"geometry":{"x":178959.68000000063,"y":2548541.25}},{"attributes":{"ID":446641,"DIS_CODE":0,"TOWNNAME":"新化區","LI":"觀音里","LIN":"5鄰","STREET":"仁愛街","SECT":" ","MAREA":" ","LANE":"６５巷","ALLEY":" ","HOUSE_NO":"１６號","E_COORD97":178932.53,"N_COORD97":2548533.25,"ADDRESS":"仁愛街６５巷１６號","OBJECTID":446616},"geometry":{"x":178932.53000000119,"y":2548533.2500000019}},{"attributes":{"ID":446642,"DIS_CODE":0,"TOWNNAME":"新化區","LI":"東榮里","LIN":"5鄰","STREET":"信義路","SECT":" ","MAREA":" ","LANE":"１１１巷","ALLEY":" ","HOUSE_NO":"２３號","E_COORD97":179884.78,"N_COORD97":2548613.25,"ADDRESS":"信義路１１１巷２３號","OBJECTID":446617},"geometry":{"x":179884.78000000212,"y":2548613.2500000037}},{"attributes":{"ID":446643,"DIS_CODE":0,"TOWNNAME":"新化區","LI":"太平里","LIN":"5鄰","STREET":"民生路","SECT":" ","MAREA":" ","LANE":"２３４巷","ALLEY":" ","HOUSE_NO":"４５號","E_COORD97":179100.66,"N_COORD97":2549115.25,"ADDRESS":"民生路２３４巷４５號","OBJECTID":446618},"geometry":{"x":179100.66000000201,"y":2549115.2500000019}},{"attributes":{"ID":446644,"DIS_CODE":0,"TOWNNAME":"新化區","LI":"太平里","LIN":"5鄰","STREET":"民生路","SECT":" ","MAREA":" ","LANE":"２３４巷","ALLEY":" ","HOUSE_NO":"９號","E_COORD97":179081.10999999999,"N_COORD97":2549047.25,"ADDRESS":"民生路２３４巷９號","OBJECTID":446619},"geometry":{"x":179081.11000000127,"y":2549047.2500000037}},{"attributes":{"ID":446645,"DIS_CODE":0,"TOWNNAME":"新化區","LI":"太平里","LIN":"5鄰","STREET":"民生路","SECT":" ","MAREA":" ","LANE":"２３４巷","ALLEY":" ","HOUSE_NO":"３５號","E_COORD97":179094.95999999999,"N_COORD97":2549095.25,"ADDRESS":"民生路２３４巷３５號","OBJECTID":446620},"geometry":{"x":179094.96000000183,"y":2549095.2500000019}},{"attributes":{"ID":446646,"DIS_CODE":0,"TOWNNAME":"新化區","LI":"護國里","LIN":"5鄰","STREET":"中山路","SECT":" ","MAREA":" ","LANE":"２０９巷","ALLEY":" ","HOUSE_NO":"６號","E_COORD97":179259.01000000001,"N_COORD97":2548399.25,"ADDRESS":"中山路２０９巷６號","OBJECTID":446621},"geometry":{"x":179259.01000000071,"y":2548399.25}},{"attributes":{"ID":446647,"DIS_CODE":0,"TOWNNAME":"六甲區","LI":"中社里","LIN":"4鄰","STREET":" ","SECT":" ","MAREA":"中社","LANE":" ","ALLEY":" ","HOUSE_NO":"１６２號","E_COORD97":180986.111878,"N_COORD97":2571001.1898500002,"ADDRESS":"中社１６２號","OBJECTID":446622},"geometry":{"x":180986.1118780002,"y":2571001.1898480039}},{"attributes":{"ID":446648,"DIS_CODE":0,"TOWNNAME":"新化區","LI":"武安里","LIN":"5鄰","STREET":"中正路","SECT":" ","MAREA":" ","LANE":"３６９巷","ALLEY":" ","HOUSE_NO":"３５號","E_COORD97":179042.95999999999,"N_COORD97":2548262.25,"ADDRESS":"中正路３６９巷３５號","OBJECTID":446623},"geometry":{"x":179042.96000000089,"y":2548262.25}},{"attributes":{"ID":446649,"DIS_CODE":0,"TOWNNAME":"新化區","LI":"東榮里","LIN":"5鄰","STREET":"信義路","SECT":" ","MAREA":" ","LANE":"１１１巷","ALLEY":" ","HOUSE_NO":"２１號之１","E_COORD97":179870.91,"N_COORD97":2548582.2599999998,"ADDRESS":"信義路１１１巷２１號之１","OBJECTID":446624},"geometry":{"x":179870.91000000108,"y":2548582.2600000035}},{"attributes":{"ID":446650,"DIS_CODE":0,"TOWNNAME":"新化區","LI":"武安里","LIN":"5鄰","STREET":"中正路","SECT":" ","MAREA":" ","LANE":"３４１巷","ALLEY":" ","HOUSE_NO":"２５號","E_COORD97":179049.35999999999,"N_COORD97":2548191.25,"ADDRESS":"中正路３４１巷２５號","OBJECTID":446625},"geometry":{"x":179049.36000000127,"y":2548191.25}},{"attributes":{"ID":446651,"DIS_CODE":0,"TOWNNAME":"新化區","LI":"太平里","LIN":"5鄰","STREET":"民生路","SECT":" ","MAREA":" ","LANE":"２３４巷","ALLEY":" ","HOUSE_NO":"１７號","E_COORD97":179087.76000000001,"N_COORD97":2549064.25,"ADDRESS":"民生路２３４巷１７號","OBJECTID":446626},"geometry":{"x":179087.76000000164,"y":2549064.2500000037}},{"attributes":{"ID":446652,"DIS_CODE":0,"TOWNNAME":"新化區","LI":"中央里","LIN":"5鄰","STREET":"大同街","SECT":" ","MAREA":" ","LANE":"１２９巷","ALLEY":" ","HOUSE_NO":"２８號","E_COORD97":178906.78,"N_COORD97":2548382.25,"ADDRESS":"大同街１２９巷２８號","OBJECTID":446627},"geometry":{"x":178906.78000000119,"y":2548382.25}},{"attributes":{"ID":446653,"DIS_CODE":0,"TOWNNAME":"新化區","LI":"太平里","LIN":"5鄰","STREET":"民生路","SECT":" ","MAREA":" ","LANE":"２３４巷","ALLEY":" ","HOUSE_NO":"４８號","E_COORD97":179123.06,"N_COORD97":2549057.25,"ADDRESS":"民生路２３４巷４８號","OBJECTID":446628},"geometry":{"x":179123.06000000052,"y":2549057.2500000037}},{"attributes":{"ID":446654,"DIS_CODE":0,"TOWNNAME":"新化區","LI":"清水里","LIN":"5鄰","STREET":"中山路","SECT":" ","MAREA":" ","LANE":"５０６巷","ALLEY":" ","HOUSE_NO":"２號之１","E_COORD97":178579.54000000001,"N_COORD97":2548445.2599999998,"ADDRESS":"中山路５０６巷２號之１","OBJECTID":446629},"geometry":{"x":178579.54000000097,"y":2548445.2599999998}},{"attributes":{"ID":446655,"DIS_CODE":0,"TOWNNAME":"新化區","LI":"唪口里","LIN":"5鄰","STREET":"中正路","SECT":" ","MAREA":" ","LANE":"７０７巷","ALLEY":" ","HOUSE_NO":"１６號","E_COORD97":178428.95999999999,"N_COORD97":2549316.25,"ADDRESS":"中正路７０７巷１６號","OBJECTID":446630},"geometry":{"x":178428.96000000089,"y":2549316.2500000019}},{"attributes":{"ID":446656,"DIS_CODE":0,"TOWNNAME":"新化區","LI":"太平里","LIN":"5鄰","STREET":"民生路","SECT":" ","MAREA":" ","LANE":"２３４巷","ALLEY":" ","HOUSE_NO":"３１號","E_COORD97":179093.06,"N_COORD97":2549087.25,"ADDRESS":"民生路２３４巷３１號","OBJECTID":446631},"geometry":{"x":179093.05999999959,"y":2549087.25}},{"attributes":{"ID":446657,"DIS_CODE":0,"TOWNNAME":"新化區","LI":"武安里","LIN":"5鄰","STREET":"中正路","SECT":" ","MAREA":" ","LANE":"３６９巷","ALLEY":" ","HOUSE_NO":"７號","E_COORD97":179088.01000000001,"N_COORD97":2548269.25,"ADDRESS":"中正路３６９巷７號","OBJECTID":446632},"geometry":{"x":179088.01000000071,"y":2548269.25}},{"attributes":{"ID":446658,"DIS_CODE":0,"TOWNNAME":"新化區","LI":"東榮里","LIN":"5鄰","STREET":"信義路","SECT":" ","MAREA":" ","LANE":"９３巷","ALLEY":" ","HOUSE_NO":"２號之１","E_COORD97":179794.60999999999,"N_COORD97":2548649.2599999998,"ADDRESS":"信義路９３巷２號之１","OBJECTID":446633},"geometry":{"x":179794.61000000127,"y":2548649.2599999998}},{"attributes":{"ID":446659,"DIS_CODE":0,"TOWNNAME":"新化區","LI":"東榮里","LIN":"5鄰","STREET":"信義路","SECT":" ","MAREA":" ","LANE":"１１１巷","ALLEY":" ","HOUSE_NO":"２９號之３","E_COORD97":179909.63,"N_COORD97":2548572.2599999998,"ADDRESS":"信義路１１１巷２９號之３","OBJECTID":446634},"geometry":{"x":179909.63000000082,"y":2548572.2600000035}},{"attributes":{"ID":446660,"DIS_CODE":0,"TOWNNAME":"新化區","LI":"東榮里","LIN":"5鄰","STREET":"信義路","SECT":" ","MAREA":" ","LANE":"１１１巷","ALLEY":" ","HOUSE_NO":"１號","E_COORD97":179794.53,"N_COORD97":2548599.25,"ADDRESS":"信義路１１１巷１號","OBJECTID":446635},"geometry":{"x":179794.53000000026,"y":2548599.25}},{"attributes":{"ID":446661,"DIS_CODE":0,"TOWNNAME":"新化區","LI":"觀音里","LIN":"5鄰","STREET":"仁愛街","SECT":" ","MAREA":" ","LANE":"６５巷","ALLEY":" ","HOUSE_NO":"２２號之１","E_COORD97":178955.66,"N_COORD97":2548513.2599999998,"ADDRESS":"仁愛街６５巷２２號之１","OBJECTID":446636},"geometry":{"x":178955.66000000015,"y":2548513.2599999998}},{"attributes":{"ID":446662,"DIS_CODE":0,"TOWNNAME":"新化區","LI":"東榮里","LIN":"5鄰","STREET":"信義路","SECT":" ","MAREA":" ","LANE":"１１１巷","ALLEY":" ","HOUSE_NO":"１號之３","E_COORD97":179780.78,"N_COORD97":2548602.2599999998,"ADDRESS":"信義路１１１巷１號之３","OBJECTID":446637},"geometry":{"x":179780.78000000026,"y":2548602.2599999998}},{"attributes":{"ID":446663,"DIS_CODE":0,"TOWNNAME":"新化區","LI":"武安里","LIN":"5鄰","STREET":"中正路","SECT":" ","MAREA":" ","LANE":"３６９巷","ALLEY":" ","HOUSE_NO":"１１號","E_COORD97":179082.16,"N_COORD97":2548268.25,"ADDRESS":"中正路３６９巷１１號","OBJECTID":446638},"geometry":{"x":179082.16000000108,"y":2548268.2500000019}},{"attributes":{"ID":446664,"DIS_CODE":0,"TOWNNAME":"新化區","LI":"觀音里","LIN":"5鄰","STREET":"仁愛街","SECT":" ","MAREA":" ","LANE":"６５巷","ALLEY":" ","HOUSE_NO":"１４號","E_COORD97":178932.82999999999,"N_COORD97":2548538.25,"ADDRESS":"仁愛街６５巷１４號","OBJECTID":446639},"geometry":{"x":178932.83000000007,"y":2548538.25}},{"attributes":{"ID":446665,"DIS_CODE":0,"TOWNNAME":"新化區","LI":"中央里","LIN":"5鄰","STREET":"大同街","SECT":" ","MAREA":" ","LANE":"１２９巷","ALLEY":" ","HOUSE_NO":"１２號","E_COORD97":178931.48000000001,"N_COORD97":2548390.25,"ADDRESS":"大同街１２９巷１２號","OBJECTID":446640},"geometry":{"x":178931.48000000138,"y":2548390.2500000019}},{"attributes":{"ID":446666,"DIS_CODE":0,"TOWNNAME":"新化區","LI":"中央里","LIN":"5鄰","STREET":"大同街","SECT":" ","MAREA":" ","LANE":"１２９巷","ALLEY":" ","HOUSE_NO":"１６號","E_COORD97":178941.67999999999,"N_COORD97":2548397.25,"ADDRESS":"大同街１２９巷１６號","OBJECTID":446641},"geometry":{"x":178941.6799999997,"y":2548397.2500000019}},{"attributes":{"ID":446667,"DIS_CODE":0,"TOWNNAME":"新化區","LI":"中央里","LIN":"5鄰","STREET":"大同街","SECT":" ","MAREA":" ","LANE":"１２９巷","ALLEY":" ","HOUSE_NO":"４２號","E_COORD97":178906.48000000001,"N_COORD97":2548377.25,"ADDRESS":"大同街１２９巷４２號","OBJECTID":446642},"geometry":{"x":178906.48000000045,"y":2548377.2500000019}},{"attributes":{"ID":446668,"DIS_CODE":0,"TOWNNAME":"新化區","LI":"中央里","LIN":"5鄰","STREET":"大同街","SECT":" ","MAREA":" ","LANE":"１２９巷","ALLEY":" ","HOUSE_NO":"２２號","E_COORD97":178894.38,"N_COORD97":2548392.25,"ADDRESS":"大同街１２９巷２２號","OBJECTID":446643},"geometry":{"x":178894.38000000082,"y":2548392.25}},{"attributes":{"ID":446669,"DIS_CODE":0,"TOWNNAME":"新化區","LI":"觀音里","LIN":"5鄰","STREET":"仁愛街","SECT":" ","MAREA":" ","LANE":"６５巷","ALLEY":" ","HOUSE_NO":"１８號","E_COORD97":178934.32999999999,"N_COORD97":2548526.25,"ADDRESS":"仁愛街６５巷１８號","OBJECTID":446644},"geometry":{"x":178934.33000000007,"y":2548526.2500000019}},{"attributes":{"ID":446670,"DIS_CODE":0,"TOWNNAME":"新化區","LI":"中央里","LIN":"5鄰","STREET":"大同街","SECT":" ","MAREA":" ","LANE":"１２９巷","ALLEY":" ","HOUSE_NO":"３０號","E_COORD97":178925.28,"N_COORD97":2548378.25,"ADDRESS":"大同街１２９巷３０號","OBJECTID":446645},"geometry":{"x":178925.28000000212,"y":2548378.25}},{"attributes":{"ID":446671,"DIS_CODE":0,"TOWNNAME":"新化區","LI":"協興里","LIN":"5鄰","STREET":"忠孝路","SECT":" ","MAREA":" ","LANE":"２６９巷","ALLEY":" ","HOUSE_NO":"４號","E_COORD97":178410.32000000001,"N_COORD97":2548532.25,"ADDRESS":"忠孝路２６９巷４號","OBJECTID":446646},"geometry":{"x":178410.32000000123,"y":2548532.2500000019}},{"attributes":{"ID":446672,"DIS_CODE":0,"TOWNNAME":"新化區","LI":"觀音里","LIN":"5鄰","STREET":"仁愛街","SECT":" ","MAREA":" ","LANE":"６５巷","ALLEY":" ","HOUSE_NO":"４號","E_COORD97":178958.67999999999,"N_COORD97":2548550.25,"ADDRESS":"仁愛街６５巷４號","OBJECTID":446647},"geometry":{"x":178958.6799999997,"y":2548550.2500000019}},{"attributes":{"ID":446673,"DIS_CODE":0,"TOWNNAME":"新化區","LI":"中央里","LIN":"5鄰","STREET":"大同街","SECT":" ","MAREA":" ","LANE":"１２９巷","ALLEY":" ","HOUSE_NO":"３２號","E_COORD97":178928.17999999999,"N_COORD97":2548372.25,"ADDRESS":"大同街１２９巷３２號","OBJECTID":446648},"geometry":{"x":178928.1799999997,"y":2548372.2499999981}},{"attributes":{"ID":446674,"DIS_CODE":0,"TOWNNAME":"新化區","LI":"觀音里","LIN":"5鄰","STREET":"仁愛街","SECT":" ","MAREA":" ","LANE":"６５巷","ALLEY":" ","HOUSE_NO":"１０號","E_COORD97":178938.92999999999,"N_COORD97":2548565.25,"ADDRESS":"仁愛街６５巷１０號","OBJECTID":446649},"geometry":{"x":178938.93000000156,"y":2548565.25}},{"attributes":{"ID":446675,"DIS_CODE":0,"TOWNNAME":"新化區","LI":"武安里","LIN":"5鄰","STREET":"中正路","SECT":" ","MAREA":" ","LANE":"３４１巷","ALLEY":" ","HOUSE_NO":"１６號","E_COORD97":179055.85999999999,"N_COORD97":2548233.25,"ADDRESS":"中正路３４１巷１６號","OBJECTID":446650},"geometry":{"x":179055.86000000127,"y":2548233.2499999981}},{"attributes":{"ID":446676,"DIS_CODE":0,"TOWNNAME":"新化區","LI":"東榮里","LIN":"5鄰","STREET":"信義路","SECT":" ","MAREA":" ","LANE":"９３巷","ALLEY":" ","HOUSE_NO":"２號之２","E_COORD97":179799.23000000001,"N_COORD97":2548649.2599999998,"ADDRESS":"信義路９３巷２號之２","OBJECTID":446651},"geometry":{"x":179799.23000000138,"y":2548649.2599999998}},{"attributes":{"ID":446677,"DIS_CODE":0,"TOWNNAME":"新化區","LI":"協興里","LIN":"5鄰","STREET":"忠孝路","SECT":" ","MAREA":" ","LANE":"２６９巷","ALLEY":" ","HOUSE_NO":"６號","E_COORD97":178411.32000000001,"N_COORD97":2548528.25,"ADDRESS":"忠孝路２６９巷６號","OBJECTID":446652},"geometry":{"x":178411.31999999937,"y":2548528.2500000037}},{"attributes":{"ID":446678,"DIS_CODE":0,"TOWNNAME":"新化區","LI":"太平里","LIN":"5鄰","STREET":"民生路","SECT":" ","MAREA":" ","LANE":"２３４巷","ALLEY":" ","HOUSE_NO":"３７號","E_COORD97":179096.26000000001,"N_COORD97":2549099.25,"ADDRESS":"民生路２３４巷３７號","OBJECTID":446653},"geometry":{"x":179096.26000000071,"y":2549099.2500000019}},{"attributes":{"ID":446679,"DIS_CODE":0,"TOWNNAME":"新化區","LI":"太平里","LIN":"5鄰","STREET":"民生路","SECT":" ","MAREA":" ","LANE":"２３４巷","ALLEY":" ","HOUSE_NO":"２９號","E_COORD97":179092.16,"N_COORD97":2549083.25,"ADDRESS":"民生路２３４巷２９號","OBJECTID":446654},"geometry":{"x":179092.16000000201,"y":2549083.25}},{"attributes":{"ID":446680,"DIS_CODE":0,"TOWNNAME":"歸仁區","LI":"沙崙里","LIN":"9鄰","STREET":" ","SECT":" ","MAREA":"沙崙","LANE":" ","ALLEY":" ","HOUSE_NO":"２０３號","E_COORD97":179987.90578299999,"N_COORD97":2534568.8808200001,"ADDRESS":"沙崙２０３號","OBJECTID":446655},"geometry":{"x":179987.90578300133,"y":2534568.8808230031}},{"attributes":{"ID":446681,"DIS_CODE":0,"TOWNNAME":"新化區","LI":"武安里","LIN":"5鄰","STREET":"中正路","SECT":" ","MAREA":" ","LANE":"３６９巷","ALLEY":" ","HOUSE_NO":"１３號","E_COORD97":179078.45999999999,"N_COORD97":2548267.25,"ADDRESS":"中正路３６９巷１３號","OBJECTID":446656},"geometry":{"x":179078.46000000089,"y":2548267.2500000037}},{"attributes":{"ID":446682,"DIS_CODE":0,"TOWNNAME":"新化區","LI":"護國里","LIN":"5鄰","STREET":"建國街","SECT":" ","MAREA":" ","LANE":"９巷","ALLEY":" ","HOUSE_NO":"１號之２","E_COORD97":179193.17999999999,"N_COORD97":2548503.2599999998,"ADDRESS":"建國街９巷１號之２","OBJECTID":446657},"geometry":{"x":179193.18000000156,"y":2548503.2599999998}},{"attributes":{"ID":446683,"DIS_CODE":0,"TOWNNAME":"新化區","LI":"護國里","LIN":"5鄰","STREET":"建國街","SECT":" ","MAREA":" ","LANE":"９巷","ALLEY":" ","HOUSE_NO":"１號","E_COORD97":179207.92999999999,"N_COORD97":2548499.2599999998,"ADDRESS":"建國街９巷１號","OBJECTID":446658},"geometry":{"x":179207.9299999997,"y":2548499.2599999998}},{"attributes":{"ID":446684,"DIS_CODE":0,"TOWNNAME":"新化區","LI":"清水里","LIN":"5鄰","STREET":"忠孝路","SECT":" ","MAREA":" ","LANE":"１６１巷","ALLEY":" ","HOUSE_NO":"５１號","E_COORD97":178622.97,"N_COORD97":2548487.25,"ADDRESS":"忠孝路１６１巷５１號","OBJECTID":446659},"geometry":{"x":178622.96999999974,"y":2548487.25}},{"attributes":{"ID":446685,"DIS_CODE":0,"TOWNNAME":"新化區","LI":"觀音里","LIN":"5鄰","STREET":"仁愛街","SECT":" ","MAREA":" ","LANE":"６５巷","ALLEY":" ","HOUSE_NO":"２０號","E_COORD97":178939.82999999999,"N_COORD97":2548509.25,"ADDRESS":"仁愛街６５巷２０號","OBJECTID":446660},"geometry":{"x":178939.83000000007,"y":2548509.2500000019}},{"attributes":{"ID":446686,"DIS_CODE":0,"TOWNNAME":"新化區","LI":"太平里","LIN":"5鄰","STREET":"民生路","SECT":" ","MAREA":" ","LANE":"２３４巷","ALLEY":" ","HOUSE_NO":"３３號","E_COORD97":179094.26000000001,"N_COORD97":2549091.25,"ADDRESS":"民生路２３４巷３３號","OBJECTID":446661},"geometry":{"x":179094.25999999978,"y":2549091.2500000037}},{"attributes":{"ID":446687,"DIS_CODE":0,"TOWNNAME":"新化區","LI":"東榮里","LIN":"5鄰","STREET":"信義路","SECT":" ","MAREA":" ","LANE":"１１１巷","ALLEY":" ","HOUSE_NO":"２９號","E_COORD97":179896.38,"N_COORD97":2548596.25,"ADDRESS":"信義路１１１巷２９號","OBJECTID":446662},"geometry":{"x":179896.38000000082,"y":2548596.2500000037}},{"attributes":{"ID":446688,"DIS_CODE":0,"TOWNNAME":"新化區","LI":"東榮里","LIN":"5鄰","STREET":"信義路","SECT":" ","MAREA":" ","LANE":"１１１巷","ALLEY":" ","HOUSE_NO":"１９號","E_COORD97":179859.17999999999,"N_COORD97":2548617.25,"ADDRESS":"信義路１１１巷１９號","OBJECTID":446663},"geometry":{"x":179859.1799999997,"y":2548617.2500000019}},{"attributes":{"ID":446689,"DIS_CODE":0,"TOWNNAME":"新化區","LI":"太平里","LIN":"5鄰","STREET":"民生路","SECT":" ","MAREA":" ","LANE":"２３４巷","ALLEY":" ","HOUSE_NO":"６號","E_COORD97":179081.81,"N_COORD97":2549017.25,"ADDRESS":"民生路２３４巷６號","OBJECTID":446664},"geometry":{"x":179081.80999999959,"y":2549017.2500000019}},{"attributes":{"ID":446690,"DIS_CODE":0,"TOWNNAME":"新化區","LI":"協興里","LIN":"5鄰","STREET":"中山路","SECT":" ","MAREA":" ","LANE":"５４８巷","ALLEY":" ","HOUSE_NO":"３號","E_COORD97":178422.81,"N_COORD97":2548491.25,"ADDRESS":"中山路５４８巷３號","OBJECTID":446665},"geometry":{"x":178422.81000000052,"y":2548491.2500000037}},{"attributes":{"ID":446691,"DIS_CODE":0,"TOWNNAME":"新營區","LI":"王公里","LIN":"5鄰","STREET":"民治路","SECT":" ","MAREA":" ","LANE":"１８巷","ALLEY":" ","HOUSE_NO":"２號之７","E_COORD97":180404.51999999999,"N_COORD97":2578934.0899999999,"ADDRESS":"民治路１８巷２號之７","OBJECTID":446666},"geometry":{"x":180404.52000000142,"y":2578934.0900000036}},{"attributes":{"ID":446692,"DIS_CODE":0,"TOWNNAME":"歸仁區","LI":"歸仁里","LIN":"5鄰","STREET":"和平三街","SECT":" ","MAREA":" ","LANE":"１１巷","ALLEY":" ","HOUSE_NO":"２號","E_COORD97":177790.82999999999,"N_COORD97":2540977.8999999999,"ADDRESS":"和平三街１１巷２號","OBJECTID":446667},"geometry":{"x":177790.83000000101,"y":2540977.9000000022}},{"attributes":{"ID":446693,"DIS_CODE":0,"TOWNNAME":"歸仁區","LI":"歸仁里","LIN":"5鄰","STREET":"和平三街","SECT":" ","MAREA":" ","LANE":"１１巷","ALLEY":" ","HOUSE_NO":"６號","E_COORD97":177790.20000000001,"N_COORD97":2540973.7799999998,"ADDRESS":"和平三街１１巷６號","OBJECTID":446668},"geometry":{"x":177790.20000000112,"y":2540973.7800000031}},{"attributes":{"ID":446694,"DIS_CODE":0,"TOWNNAME":"玉井區","LI":"玉田里","LIN":"5鄰","STREET":"神農街","SECT":" ","MAREA":" ","LANE":"６巷","ALLEY":" ","HOUSE_NO":"２號","E_COORD97":194959.04000000001,"N_COORD97":2557957.27,"ADDRESS":"神農街６巷２號","OBJECTID":446669},"geometry":{"x":194959.04000000004,"y":2557957.2700000014}},{"attributes":{"ID":446695,"DIS_CODE":0,"TOWNNAME":"玉井區","LI":"玉田里","LIN":"5鄰","STREET":"中華路","SECT":" ","MAREA":" ","LANE":"８２巷","ALLEY":" ","HOUSE_NO":"１６號","E_COORD97":194916.04999999999,"N_COORD97":2557972.2400000002,"ADDRESS":"中華路８２巷１６號","OBJECTID":446670},"geometry":{"x":194916.05000000075,"y":2557972.2400000021}},{"attributes":{"ID":446696,"DIS_CODE":0,"TOWNNAME":"東區","LI":"德高里","LIN":"5鄰","STREET":"仁和路","SECT":" ","MAREA":" ","LANE":"２５２巷","ALLEY":" ","HOUSE_NO":"１５號","E_COORD97":171549.95000000001,"N_COORD97":2540823.2999999998,"ADDRESS":"仁和路２５２巷１５號","OBJECTID":446671},"geometry":{"x":171549.95000000205,"y":2540823.3000000026}},{"attributes":{"ID":446697,"DIS_CODE":0,"TOWNNAME":"東區","LI":"德高里","LIN":"5鄰","STREET":"仁和路","SECT":" ","MAREA":" ","LANE":"２５２巷","ALLEY":" ","HOUSE_NO":"１７號","E_COORD97":171562.26999999999,"N_COORD97":2540817.4100000001,"ADDRESS":"仁和路２５２巷１７號","OBJECTID":446672},"geometry":{"x":171562.26999999862,"y":2540817.4100000001}},{"attributes":{"ID":446698,"DIS_CODE":0,"TOWNNAME":"東區","LI":"德高里","LIN":"5鄰","STREET":"仁和路","SECT":" ","MAREA":" ","LANE":"２５２巷","ALLEY":" ","HOUSE_NO":"１９號","E_COORD97":171558.89999999999,"N_COORD97":2540812.3599999999,"ADDRESS":"仁和路２５２巷１９號","OBJECTID":446673},"geometry":{"x":171558.89999999944,"y":2540812.3599999994}},{"attributes":{"ID":446699,"DIS_CODE":0,"TOWNNAME":"東區","LI":"德高里","LIN":"5鄰","STREET":"仁和路","SECT":" ","MAREA":" ","LANE":"２５２巷","ALLEY":" ","HOUSE_NO":"２１號","E_COORD97":171538.51999999999,"N_COORD97":2540826.4700000002,"ADDRESS":"仁和路２５２巷２１號","OBJECTID":446674},"geometry":{"x":171538.51999999862,"y":2540826.4700000007}},{"attributes":{"ID":446700,"DIS_CODE":0,"TOWNNAME":"南區","LI":"田寮里","LIN":"5鄰","STREET":"新興路","SECT":" ","MAREA":" ","LANE":"２２９巷","ALLEY":" ","HOUSE_NO":"１３號","E_COORD97":167336.92000000001,"N_COORD97":2541926.4100000001,"ADDRESS":"新興路２２９巷１３號","OBJECTID":446675},"geometry":{"x":167336.91999999993,"y":2541926.4100000039}},{"attributes":{"ID":446701,"DIS_CODE":0,"TOWNNAME":"南區","LI":"田寮里","LIN":"5鄰","STREET":"新興路","SECT":" ","MAREA":" ","LANE":"２２９巷","ALLEY":" ","HOUSE_NO":"１９號","E_COORD97":167343.98000000001,"N_COORD97":2541923.2000000002,"ADDRESS":"新興路２２９巷１９號","OBJECTID":446676},"geometry":{"x":167343.98000000045,"y":2541923.1999999974}},{"attributes":{"ID":446702,"DIS_CODE":0,"TOWNNAME":"南區","LI":"田寮里","LIN":"5鄰","STREET":"新興路","SECT":" ","MAREA":" ","LANE":"２２９巷","ALLEY":" ","HOUSE_NO":"２１號","E_COORD97":167345.91,"N_COORD97":2541922.1299999999,"ADDRESS":"新興路２２９巷２１號","OBJECTID":446677},"geometry":{"x":167345.91000000015,"y":2541922.129999999}},{"attributes":{"ID":446703,"DIS_CODE":0,"TOWNNAME":"南區","LI":"田寮里","LIN":"5鄰","STREET":"新興路","SECT":" ","MAREA":" ","LANE":"２２９巷","ALLEY":" ","HOUSE_NO":"２３號","E_COORD97":167348.47,"N_COORD97":2541920.8500000001,"ADDRESS":"新興路２２９巷２３號","OBJECTID":446678},"geometry":{"x":167348.46999999974,"y":2541920.8500000015}},{"attributes":{"ID":446704,"DIS_CODE":0,"TOWNNAME":"南區","LI":"田寮里","LIN":"5鄰","STREET":"新興路","SECT":" ","MAREA":" ","LANE":"２２９巷","ALLEY":" ","HOUSE_NO":"２５號","E_COORD97":167353.17999999999,"N_COORD97":2541918.9300000002,"ADDRESS":"新興路２２９巷２５號","OBJECTID":446679},"geometry":{"x":167353.1799999997,"y":2541918.9300000034}},{"attributes":{"ID":446705,"DIS_CODE":0,"TOWNNAME":"南區","LI":"田寮里","LIN":"5鄰","STREET":"新興路","SECT":" ","MAREA":" ","LANE":"２２９巷","ALLEY":" ","HOUSE_NO":"１５號","E_COORD97":167341.41,"N_COORD97":2541925.1299999999,"ADDRESS":"新興路２２９巷１５號","OBJECTID":446680},"geometry":{"x":167341.41000000108,"y":2541925.1300000008}},{"attributes":{"ID":446706,"DIS_CODE":0,"TOWNNAME":"南區","LI":"田寮里","LIN":"5鄰","STREET":"新興路","SECT":" ","MAREA":" ","LANE":"２２９巷","ALLEY":" ","HOUSE_NO":"２０號","E_COORD97":167348.47,"N_COORD97":2541901.8399999999,"ADDRESS":"新興路２２９巷２０號","OBJECTID":446681},"geometry":{"x":167348.46999999974,"y":2541901.8399999999}},{"attributes":{"ID":446707,"DIS_CODE":0,"TOWNNAME":"南區","LI":"田寮里","LIN":"5鄰","STREET":"新興路","SECT":" ","MAREA":" ","LANE":"２２９巷","ALLEY":" ","HOUSE_NO":"１８號","E_COORD97":167344.20000000001,"N_COORD97":2541903.1200000001,"ADDRESS":"新興路２２９巷１８號","OBJECTID":446682},"geometry":{"x":167344.20000000205,"y":2541903.1200000029}},{"attributes":{"ID":446708,"DIS_CODE":0,"TOWNNAME":"南區","LI":"田寮里","LIN":"5鄰","STREET":"新興路","SECT":" ","MAREA":" ","LANE":"２２９巷","ALLEY":" ","HOUSE_NO":"１６號","E_COORD97":167340.13,"N_COORD97":2541905.04,"ADDRESS":"新興路２２９巷１６號","OBJECTID":446683},"geometry":{"x":167340.12999999989,"y":2541905.040000001}},{"attributes":{"ID":446709,"DIS_CODE":0,"TOWNNAME":"南區","LI":"田寮里","LIN":"5鄰","STREET":"新興路","SECT":" ","MAREA":" ","LANE":"２２９巷","ALLEY":" ","HOUSE_NO":"１４號","E_COORD97":167336.07000000001,"N_COORD97":2541906.54,"ADDRESS":"新興路２２９巷１４號","OBJECTID":446684},"geometry":{"x":167336.0700000003,"y":2541906.5399999991}},{"attributes":{"ID":446710,"DIS_CODE":0,"TOWNNAME":"南區","LI":"田寮里","LIN":"5鄰","STREET":"新興路","SECT":" ","MAREA":" ","LANE":"２２９巷","ALLEY":" ","HOUSE_NO":"１０號","E_COORD97":167331.14000000001,"N_COORD97":2541907.8199999998,"ADDRESS":"新興路２２９巷１０號","OBJECTID":446685},"geometry":{"x":167331.1400000006,"y":2541907.8200000022}},{"attributes":{"ID":446711,"DIS_CODE":0,"TOWNNAME":"南區","LI":"田寮里","LIN":"5鄰","STREET":"新興路","SECT":" ","MAREA":" ","LANE":"２２９巷","ALLEY":" ","HOUSE_NO":"８號","E_COORD97":167327.29000000001,"N_COORD97":2541909.96,"ADDRESS":"新興路２２９巷８號","OBJECTID":446686},"geometry":{"x":167327.29000000097,"y":2541909.9600000046}},{"attributes":{"ID":446712,"DIS_CODE":0,"TOWNNAME":"南區","LI":"田寮里","LIN":"5鄰","STREET":"新興路","SECT":" ","MAREA":" ","LANE":"２２９巷","ALLEY":" ","HOUSE_NO":"６號","E_COORD97":167321.29999999999,"N_COORD97":2541912.0899999999,"ADDRESS":"新興路２２９巷６號","OBJECTID":446687},"geometry":{"x":167321.30000000075,"y":2541912.0900000017}},{"attributes":{"ID":446713,"DIS_CODE":0,"TOWNNAME":"南區","LI":"田寮里","LIN":"5鄰","STREET":"新興路","SECT":" ","MAREA":" ","LANE":"２２９巷","ALLEY":" ","HOUSE_NO":"４號","E_COORD97":167317.66,"N_COORD97":2541913.5899999999,"ADDRESS":"新興路２２９巷４號","OBJECTID":446688},"geometry":{"x":167317.66000000108,"y":2541913.5899999999}},{"attributes":{"ID":446714,"DIS_CODE":0,"TOWNNAME":"南區","LI":"田寮里","LIN":"5鄰","STREET":"新興路","SECT":" ","MAREA":" ","LANE":"２２９巷","ALLEY":" ","HOUSE_NO":"２號之２","E_COORD97":167313.81,"N_COORD97":2541916.3599999999,"ADDRESS":"新興路２２９巷２號之２","OBJECTID":446689},"geometry":{"x":167313.80999999959,"y":2541916.3600000013}},{"attributes":{"ID":446715,"DIS_CODE":0,"TOWNNAME":"南區","LI":"田寮里","LIN":"5鄰","STREET":"新興路","SECT":" ","MAREA":" ","LANE":"２２９巷","ALLEY":" ","HOUSE_NO":"２號之１","E_COORD97":167309.53,"N_COORD97":2541917.4300000002,"ADDRESS":"新興路２２９巷２號之１","OBJECTID":446690},"geometry":{"x":167309.53000000026,"y":2541917.4299999997}},{"attributes":{"ID":446716,"DIS_CODE":0,"TOWNNAME":"南區","LI":"田寮里","LIN":"5鄰","STREET":"新興路","SECT":" ","MAREA":" ","LANE":"２２９巷","ALLEY":" ","HOUSE_NO":"２號","E_COORD97":167304.60999999999,"N_COORD97":2541920.21,"ADDRESS":"新興路２２９巷２號","OBJECTID":446691},"geometry":{"x":167304.61000000127,"y":2541920.2100000009}},{"attributes":{"ID":446717,"DIS_CODE":0,"TOWNNAME":"中西區","LI":"三合里","LIN":"5鄰","STREET":"忠孝街","SECT":" ","MAREA":" ","LANE":"１１６巷","ALLEY":" ","HOUSE_NO":"１４號","E_COORD97":167797.23000000001,"N_COORD97":2544539.4300000002,"ADDRESS":"忠孝街１１６巷１４號","OBJECTID":446692},"geometry":{"x":167797.23000000138,"y":2544539.4299999997}},{"attributes":{"ID":446718,"DIS_CODE":0,"TOWNNAME":"中西區","LI":"三合里","LIN":"5鄰","STREET":"忠孝街","SECT":" ","MAREA":" ","LANE":"１１６巷","ALLEY":" ","HOUSE_NO":"１６號","E_COORD97":167800.51000000001,"N_COORD97":2544540.29,"ADDRESS":"忠孝街１１６巷１６號","OBJECTID":446693},"geometry":{"x":167800.50999999978,"y":2544540.2900000028}},{"attributes":{"ID":446719,"DIS_CODE":0,"TOWNNAME":"中西區","LI":"三合里","LIN":"5鄰","STREET":"忠孝街","SECT":" ","MAREA":" ","LANE":"１１６巷","ALLEY":" ","HOUSE_NO":"１８號","E_COORD97":167804.5,"N_COORD97":2544541.0699999998,"ADDRESS":"忠孝街１１６巷１８號","OBJECTID":446694},"geometry":{"x":167804.5,"y":2544541.0700000022}},{"attributes":{"ID":446720,"DIS_CODE":0,"TOWNNAME":"中西區","LI":"三合里","LIN":"5鄰","STREET":"忠孝街","SECT":" ","MAREA":" ","LANE":"１１６巷","ALLEY":" ","HOUSE_NO":"２０號","E_COORD97":167808.56,"N_COORD97":2544541.54,"ADDRESS":"忠孝街１１６巷２０號","OBJECTID":446695},"geometry":{"x":167808.55999999959,"y":2544541.5399999972}},{"attributes":{"ID":446721,"DIS_CODE":0,"TOWNNAME":"中西區","LI":"三合里","LIN":"5鄰","STREET":"忠孝街","SECT":" ","MAREA":" ","LANE":"１１６巷","ALLEY":" ","HOUSE_NO":"２２號","E_COORD97":167812.07999999999,"N_COORD97":2544542.1699999999,"ADDRESS":"忠孝街１１６巷２２號","OBJECTID":446696},"geometry":{"x":167812.08000000007,"y":2544542.1700000018}},{"attributes":{"ID":446722,"DIS_CODE":0,"TOWNNAME":"中西區","LI":"三合里","LIN":"5鄰","STREET":"忠孝街","SECT":" ","MAREA":" ","LANE":"１１６巷","ALLEY":" ","HOUSE_NO":"１１號","E_COORD97":167775.04000000001,"N_COORD97":2544543.4100000001,"ADDRESS":"忠孝街１１６巷１１號","OBJECTID":446697},"geometry":{"x":167775.04000000004,"y":2544543.4100000001}},{"attributes":{"ID":446723,"DIS_CODE":0,"TOWNNAME":"中西區","LI":"三合里","LIN":"5鄰","STREET":"忠孝街","SECT":" ","MAREA":" ","LANE":"１１６巷","ALLEY":" ","HOUSE_NO":"１３號","E_COORD97":167779.94,"N_COORD97":2544546.9199999999,"ADDRESS":"忠孝街１１６巷１３號","OBJECTID":446698},"geometry":{"x":167779.94000000041,"y":2544546.9200000037}},{"attributes":{"ID":446724,"DIS_CODE":0,"TOWNNAME":"中西區","LI":"三合里","LIN":"5鄰","STREET":"忠孝街","SECT":" ","MAREA":" ","LANE":"１１６巷","ALLEY":" ","HOUSE_NO":"１５號","E_COORD97":167786.88,"N_COORD97":2544550.9300000002,"ADDRESS":"忠孝街１１６巷１５號","OBJECTID":446699},"geometry":{"x":167786.88000000175,"y":2544550.9300000016}},{"attributes":{"ID":446725,"DIS_CODE":0,"TOWNNAME":"中西區","LI":"三合里","LIN":"5鄰","STREET":"忠孝街","SECT":" ","MAREA":" ","LANE":"１１６巷","ALLEY":" ","HOUSE_NO":"１７號","E_COORD97":167794.85000000001,"N_COORD97":2544553.79,"ADDRESS":"忠孝街１１６巷１７號","OBJECTID":446700},"geometry":{"x":167794.84999999963,"y":2544553.7900000028}},{"attributes":{"ID":446726,"DIS_CODE":0,"TOWNNAME":"中西區","LI":"三合里","LIN":"5鄰","STREET":"忠孝街","SECT":" ","MAREA":" ","LANE":"１１６巷","ALLEY":" ","HOUSE_NO":"１號","E_COORD97":167742.22,"N_COORD97":2544551.73,"ADDRESS":"忠孝街１１６巷１號","OBJECTID":446701},"geometry":{"x":167742.22000000067,"y":2544551.7300000004}},{"attributes":{"ID":446727,"DIS_CODE":0,"TOWNNAME":"中西區","LI":"三合里","LIN":"5鄰","STREET":"忠孝街","SECT":" ","MAREA":" ","LANE":"１１６巷","ALLEY":" ","HOUSE_NO":"３號","E_COORD97":167745.64000000001,"N_COORD97":2544550.8999999999,"ADDRESS":"忠孝街１１６巷３號","OBJECTID":446702},"geometry":{"x":167745.63999999966,"y":2544550.9000000041}},{"attributes":{"ID":446728,"DIS_CODE":0,"TOWNNAME":"中西區","LI":"三合里","LIN":"5鄰","STREET":"忠孝街","SECT":" ","MAREA":" ","LANE":"１１６巷","ALLEY":" ","HOUSE_NO":"５號","E_COORD97":167749.98000000001,"N_COORD97":2544549.1400000001,"ADDRESS":"忠孝街１１６巷５號","OBJECTID":446703},"geometry":{"x":167749.98000000138,"y":2544549.1400000006}},{"attributes":{"ID":446729,"DIS_CODE":0,"TOWNNAME":"中西區","LI":"三合里","LIN":"5鄰","STREET":"忠孝街","SECT":" ","MAREA":" ","LANE":"１１６巷","ALLEY":" ","HOUSE_NO":"５號之３","E_COORD97":167750.95999999999,"N_COORD97":2544556.4399999999,"ADDRESS":"忠孝街１１６巷５號之３","OBJECTID":446704},"geometry":{"x":167750.96000000089,"y":2544556.4400000032}},{"attributes":{"ID":446730,"DIS_CODE":0,"TOWNNAME":"中西區","LI":"三合里","LIN":"5鄰","STREET":"忠孝街","SECT":" ","MAREA":" ","LANE":"１１６巷","ALLEY":" ","HOUSE_NO":"５號之４","E_COORD97":167756.88,"N_COORD97":2544557.5899999999,"ADDRESS":"忠孝街１１６巷５號之４","OBJECTID":446705},"geometry":{"x":167756.88000000082,"y":2544557.5899999999}},{"attributes":{"ID":446731,"DIS_CODE":0,"TOWNNAME":"中西區","LI":"三合里","LIN":"5鄰","STREET":"忠孝街","SECT":" ","MAREA":" ","LANE":"１１６巷","ALLEY":" ","HOUSE_NO":"５號之５","E_COORD97":167753.10999999999,"N_COORD97":2544558.46,"ADDRESS":"忠孝街１１６巷５號之５","OBJECTID":446706},"geometry":{"x":167753.11000000034,"y":2544558.4600000028}},{"attributes":{"ID":446732,"DIS_CODE":0,"TOWNNAME":"中西區","LI":"三合里","LIN":"5鄰","STREET":"忠孝街","SECT":" ","MAREA":" ","LANE":"１１６巷","ALLEY":" ","HOUSE_NO":"７號","E_COORD97":167764.41,"N_COORD97":2544540,"ADDRESS":"忠孝街１１６巷７號","OBJECTID":446707},"geometry":{"x":167764.41000000015,"y":2544540.0000000019}},{"attributes":{"ID":446733,"DIS_CODE":0,"TOWNNAME":"中西區","LI":"三合里","LIN":"5鄰","STREET":"忠孝街","SECT":" ","MAREA":" ","LANE":"１１６巷","ALLEY":" ","HOUSE_NO":"７號之１","E_COORD97":167764.78,"N_COORD97":2544544.1499999999,"ADDRESS":"忠孝街１１６巷７號之１","OBJECTID":446708},"geometry":{"x":167764.78000000119,"y":2544544.1500000004}},{"attributes":{"ID":446734,"DIS_CODE":0,"TOWNNAME":"中西區","LI":"三合里","LIN":"5鄰","STREET":"忠孝街","SECT":" ","MAREA":" ","LANE":"１１６巷","ALLEY":" ","HOUSE_NO":"７號之１０","E_COORD97":167757.85000000001,"N_COORD97":2544570.8700000001,"ADDRESS":"忠孝街１１６巷７號之１０","OBJECTID":446709},"geometry":{"x":167757.8499999987,"y":2544570.870000001}},{"attributes":{"ID":446735,"DIS_CODE":0,"TOWNNAME":"中西區","LI":"三合里","LIN":"5鄰","STREET":"忠孝街","SECT":" ","MAREA":" ","LANE":"１１６巷","ALLEY":" ","HOUSE_NO":"７號之２","E_COORD97":167767.72,"N_COORD97":2544556.3799999999,"ADDRESS":"忠孝街１１６巷７號之２","OBJECTID":446710},"geometry":{"x":167767.72000000067,"y":2544556.3800000027}},{"attributes":{"ID":446736,"DIS_CODE":0,"TOWNNAME":"南區","LI":"同安里","LIN":"5鄰","STREET":"興南街","SECT":" ","MAREA":" ","LANE":"２巷","ALLEY":" ","HOUSE_NO":"１５號","E_COORD97":166319.47,"N_COORD97":2536179.5,"ADDRESS":"興南街２巷１５號","OBJECTID":446711},"geometry":{"x":166319.46999999974,"y":2536179.5000000019}},{"attributes":{"ID":446737,"DIS_CODE":0,"TOWNNAME":"中西區","LI":"三合里","LIN":"5鄰","STREET":"忠孝街","SECT":" ","MAREA":" ","LANE":"１１６巷","ALLEY":" ","HOUSE_NO":"７號之３","E_COORD97":167784.29000000001,"N_COORD97":2544556.4399999999,"ADDRESS":"忠孝街１１６巷７號之３","OBJECTID":446712},"geometry":{"x":167784.2900000019,"y":2544556.4400000032}},{"attributes":{"ID":446738,"DIS_CODE":0,"TOWNNAME":"中西區","LI":"三合里","LIN":"5鄰","STREET":"忠孝街","SECT":" ","MAREA":" ","LANE":"１１６巷","ALLEY":" ","HOUSE_NO":"７號之４","E_COORD97":167780.53,"N_COORD97":2544562.1099999999,"ADDRESS":"忠孝街１１６巷７號之４","OBJECTID":446713},"geometry":{"x":167780.53000000026,"y":2544562.1100000031}},{"attributes":{"ID":446739,"DIS_CODE":0,"TOWNNAME":"中西區","LI":"三合里","LIN":"5鄰","STREET":"忠孝街","SECT":" ","MAREA":" ","LANE":"１１６巷","ALLEY":" ","HOUSE_NO":"７號之５","E_COORD97":167775.67999999999,"N_COORD97":2544564.2999999998,"ADDRESS":"忠孝街１１６巷７號之５","OBJECTID":446714},"geometry":{"x":167775.6799999997,"y":2544564.3000000007}},{"attributes":{"ID":446740,"DIS_CODE":0,"TOWNNAME":"中西區","LI":"三合里","LIN":"5鄰","STREET":"忠孝街","SECT":" ","MAREA":" ","LANE":"１１６巷","ALLEY":" ","HOUSE_NO":"７號之６","E_COORD97":167772.54999999999,"N_COORD97":2544565.71,"ADDRESS":"忠孝街１１６巷７號之６","OBJECTID":446715},"geometry":{"x":167772.55000000075,"y":2544565.7100000009}},{"attributes":{"ID":446741,"DIS_CODE":0,"TOWNNAME":"中西區","LI":"三合里","LIN":"5鄰","STREET":"忠孝街","SECT":" ","MAREA":" ","LANE":"１１６巷","ALLEY":" ","HOUSE_NO":"７號之７","E_COORD97":167768.88,"N_COORD97":2544566.8799999999,"ADDRESS":"忠孝街１１６巷７號之７","OBJECTID":446716},"geometry":{"x":167768.88000000082,"y":2544566.8800000008}},{"attributes":{"ID":446742,"DIS_CODE":0,"TOWNNAME":"中西區","LI":"三合里","LIN":"5鄰","STREET":"忠孝街","SECT":" ","MAREA":" ","LANE":"１１６巷","ALLEY":" ","HOUSE_NO":"７號之８","E_COORD97":167765.12,"N_COORD97":2544567.9700000002,"ADDRESS":"忠孝街１１６巷７號之８","OBJECTID":446717},"geometry":{"x":167765.12000000197,"y":2544567.9700000025}},{"attributes":{"ID":446743,"DIS_CODE":0,"TOWNNAME":"中西區","LI":"三合里","LIN":"5鄰","STREET":"忠孝街","SECT":" ","MAREA":" ","LANE":"１１６巷","ALLEY":" ","HOUSE_NO":"７號之９","E_COORD97":167761.53,"N_COORD97":2544569.6899999999,"ADDRESS":"忠孝街１１６巷７號之９","OBJECTID":446718},"geometry":{"x":167761.53000000119,"y":2544569.6900000013}},{"attributes":{"ID":446744,"DIS_CODE":0,"TOWNNAME":"中西區","LI":"三合里","LIN":"5鄰","STREET":"忠孝街","SECT":" ","MAREA":" ","LANE":"１１６巷","ALLEY":" ","HOUSE_NO":"９號","E_COORD97":167771.07000000001,"N_COORD97":2544543.3199999998,"ADDRESS":"忠孝街１１６巷９號","OBJECTID":446719},"geometry":{"x":167771.07000000123,"y":2544543.3200000003}},{"attributes":{"ID":446745,"DIS_CODE":0,"TOWNNAME":"中西區","LI":"三合里","LIN":"5鄰","STREET":"忠孝街","SECT":" ","MAREA":" ","LANE":"９７巷","ALLEY":" ","HOUSE_NO":"２號","E_COORD97":167741.85000000001,"N_COORD97":2544579.04,"ADDRESS":"忠孝街９７巷２號","OBJECTID":446720},"geometry":{"x":167741.84999999963,"y":2544579.0400000028}},{"attributes":{"ID":446746,"DIS_CODE":0,"TOWNNAME":"中西區","LI":"三合里","LIN":"5鄰","STREET":"忠孝街","SECT":" ","MAREA":" ","LANE":"１１６巷","ALLEY":" ","HOUSE_NO":"１０號","E_COORD97":167759.79000000001,"N_COORD97":2544530.21,"ADDRESS":"忠孝街１１６巷１０號","OBJECTID":446721},"geometry":{"x":167759.79000000004,"y":2544530.2100000028}},{"attributes":{"ID":446747,"DIS_CODE":0,"TOWNNAME":"中西區","LI":"三合里","LIN":"5鄰","STREET":"忠孝街","SECT":" ","MAREA":" ","LANE":"１１６巷","ALLEY":" ","HOUSE_NO":"２號","E_COORD97":167744.89000000001,"N_COORD97":2544539.73,"ADDRESS":"忠孝街１１６巷２號","OBJECTID":446722},"geometry":{"x":167744.8900000006,"y":2544539.7300000023}},{"attributes":{"ID":446748,"DIS_CODE":0,"TOWNNAME":"中西區","LI":"三合里","LIN":"5鄰","STREET":"忠孝街","SECT":" ","MAREA":" ","LANE":"１１６巷","ALLEY":" ","HOUSE_NO":"４號","E_COORD97":167748.32999999999,"N_COORD97":2544537.5299999998,"ADDRESS":"忠孝街１１６巷４號","OBJECTID":446723},"geometry":{"x":167748.33000000194,"y":2544537.5299999993}},{"attributes":{"ID":446749,"DIS_CODE":0,"TOWNNAME":"中西區","LI":"三合里","LIN":"5鄰","STREET":"忠孝街","SECT":" ","MAREA":" ","LANE":"１１６巷","ALLEY":" ","HOUSE_NO":"６號","E_COORD97":167751.59,"N_COORD97":2544535.0600000001,"ADDRESS":"忠孝街１１６巷６號","OBJECTID":446724},"geometry":{"x":167751.59000000078,"y":2544535.0600000005}},{"attributes":{"ID":446750,"DIS_CODE":0,"TOWNNAME":"中西區","LI":"三合里","LIN":"5鄰","STREET":"忠孝街","SECT":" ","MAREA":" ","LANE":"１１６巷","ALLEY":" ","HOUSE_NO":"８號","E_COORD97":167755.47,"N_COORD97":2544533.21,"ADDRESS":"忠孝街１１６巷８號","OBJECTID":446725},"geometry":{"x":167755.4700000016,"y":2544533.2100000028}},{"attributes":{"ID":446751,"DIS_CODE":0,"TOWNNAME":"中西區","LI":"元安里","LIN":"5鄰","STREET":"大德街","SECT":" ","MAREA":" ","LANE":"７３巷","ALLEY":" ","HOUSE_NO":"１４號","E_COORD97":167563.04000000001,"N_COORD97":2543195.1299999999,"ADDRESS":"大德街７３巷１４號","OBJECTID":446726},"geometry":{"x":167563.04000000004,"y":2543195.1300000027}},{"attributes":{"ID":446752,"DIS_CODE":0,"TOWNNAME":"中西區","LI":"元安里","LIN":"5鄰","STREET":"大德街","SECT":" ","MAREA":" ","LANE":"７３巷","ALLEY":" ","HOUSE_NO":"１６號","E_COORD97":167562.39000000001,"N_COORD97":2543190.0499999998,"ADDRESS":"大德街７３巷１６號","OBJECTID":446727},"geometry":{"x":167562.38999999966,"y":2543190.0500000007}},{"attributes":{"ID":446753,"DIS_CODE":0,"TOWNNAME":"中西區","LI":"元安里","LIN":"5鄰","STREET":"大德街","SECT":" ","MAREA":" ","LANE":"７３巷","ALLEY":" ","HOUSE_NO":"１８號","E_COORD97":167562.67999999999,"N_COORD97":2543186.3399999999,"ADDRESS":"大德街７３巷１８號","OBJECTID":446728},"geometry":{"x":167562.68000000063,"y":2543186.3399999999}},{"attributes":{"ID":446754,"DIS_CODE":0,"TOWNNAME":"中西區","LI":"元安里","LIN":"5鄰","STREET":"大德街","SECT":" ","MAREA":" ","LANE":"７３巷","ALLEY":" ","HOUSE_NO":"１號","E_COORD97":167560.23000000001,"N_COORD97":2543216.6200000001,"ADDRESS":"大德街７３巷１號","OBJECTID":446729},"geometry":{"x":167560.23000000138,"y":2543216.620000001}},{"attributes":{"ID":446755,"DIS_CODE":0,"TOWNNAME":"中西區","LI":"元安里","LIN":"5鄰","STREET":"大德街","SECT":" ","MAREA":" ","LANE":"７３巷","ALLEY":" ","HOUSE_NO":"２０號","E_COORD97":167562.95999999999,"N_COORD97":2543183.1099999999,"ADDRESS":"大德街７３巷２０號","OBJECTID":446730},"geometry":{"x":167562.96000000089,"y":2543183.1100000013}},{"attributes":{"ID":446756,"DIS_CODE":0,"TOWNNAME":"中西區","LI":"元安里","LIN":"5鄰","STREET":"大德街","SECT":" ","MAREA":" ","LANE":"７３巷","ALLEY":" ","HOUSE_NO":"２２號","E_COORD97":167567.82000000001,"N_COORD97":2543174.27,"ADDRESS":"大德街７３巷２２號","OBJECTID":446731},"geometry":{"x":167567.82000000123,"y":2543174.2700000033}},{"attributes":{"ID":446757,"DIS_CODE":0,"TOWNNAME":"中西區","LI":"元安里","LIN":"5鄰","STREET":"大德街","SECT":" ","MAREA":" ","LANE":"７３巷","ALLEY":" ","HOUSE_NO":"２４號","E_COORD97":167559.25,"N_COORD97":2543175.5099999998,"ADDRESS":"大德街７３巷２４號","OBJECTID":446732},"geometry":{"x":167559.25000000093,"y":2543175.5099999998}},{"attributes":{"ID":446758,"DIS_CODE":0,"TOWNNAME":"中西區","LI":"元安里","LIN":"5鄰","STREET":"大德街","SECT":" ","MAREA":" ","LANE":"７３巷","ALLEY":" ","HOUSE_NO":"２５號","E_COORD97":167567.92999999999,"N_COORD97":2543168.21,"ADDRESS":"大德街７３巷２５號","OBJECTID":446733},"geometry":{"x":167567.93000000063,"y":2543168.2100000009}},{"attributes":{"ID":446759,"DIS_CODE":0,"TOWNNAME":"中西區","LI":"安海里","LIN":"14鄰","STREET":"河中街","SECT":" ","MAREA":" ","LANE":"４３巷","ALLEY":" ","HOUSE_NO":"４號","E_COORD97":167281.79999999999,"N_COORD97":2544052.6699999999,"ADDRESS":"河中街４３巷４號","OBJECTID":446734},"geometry":{"x":167281.79999999981,"y":2544052.6699999999}},{"attributes":{"ID":446760,"DIS_CODE":0,"TOWNNAME":"中西區","LI":"元安里","LIN":"5鄰","STREET":"大德街","SECT":" ","MAREA":" ","LANE":"７３巷","ALLEY":" ","HOUSE_NO":"２號","E_COORD97":167563.12,"N_COORD97":2543212.3700000001,"ADDRESS":"大德街７３巷２號","OBJECTID":446735},"geometry":{"x":167563.12000000011,"y":2543212.3699999992}},{"attributes":{"ID":446761,"DIS_CODE":0,"TOWNNAME":"中西區","LI":"元安里","LIN":"5鄰","STREET":"大德街","SECT":" ","MAREA":" ","LANE":"７３巷","ALLEY":" ","HOUSE_NO":"３號","E_COORD97":167565.69,"N_COORD97":2543217.1499999999,"ADDRESS":"大德街７３巷３號","OBJECTID":446736},"geometry":{"x":167565.69000000134,"y":2543217.1500000022}},{"attributes":{"ID":446762,"DIS_CODE":0,"TOWNNAME":"中西區","LI":"元安里","LIN":"5鄰","STREET":"大德街","SECT":" ","MAREA":" ","LANE":"７３巷","ALLEY":" ","HOUSE_NO":"４號","E_COORD97":167563.10999999999,"N_COORD97":2543209.3799999999,"ADDRESS":"大德街７３巷４號","OBJECTID":446737},"geometry":{"x":167563.11000000034,"y":2543209.379999999}},{"attributes":{"ID":446763,"DIS_CODE":0,"TOWNNAME":"中西區","LI":"元安里","LIN":"5鄰","STREET":"大德街","SECT":" ","MAREA":" ","LANE":"７３巷","ALLEY":" ","HOUSE_NO":"６號","E_COORD97":167562.95999999999,"N_COORD97":2543206.0499999998,"ADDRESS":"大德街７３巷６號","OBJECTID":446738},"geometry":{"x":167562.96000000089,"y":2543206.0500000007}},{"attributes":{"ID":446764,"DIS_CODE":0,"TOWNNAME":"中西區","LI":"元安里","LIN":"5鄰","STREET":"大德街","SECT":" ","MAREA":" ","LANE":"７３巷","ALLEY":" ","HOUSE_NO":"８號","E_COORD97":167562.81,"N_COORD97":2543201.04,"ADDRESS":"大德街７３巷８號","OBJECTID":446739},"geometry":{"x":167562.80999999959,"y":2543201.0399999991}},{"attributes":{"ID":446765,"DIS_CODE":0,"TOWNNAME":"中西區","LI":"西湖里","LIN":"5鄰","STREET":"頂美一街","SECT":" ","MAREA":" ","LANE":"４８巷","ALLEY":" ","HOUSE_NO":"１９號","E_COORD97":166400.92999999999,"N_COORD97":2544574.5899999999,"ADDRESS":"頂美一街４８巷１９號","OBJECTID":446740},"geometry":{"x":166400.9299999997,"y":2544574.5899999999}},{"attributes":{"ID":446766,"DIS_CODE":0,"TOWNNAME":"新化區","LI":"太平里","LIN":"5鄰","STREET":"民生路","SECT":" ","MAREA":" ","LANE":"２５２巷","ALLEY":" ","HOUSE_NO":"１０號","E_COORD97":179067.66,"N_COORD97":2549077.25,"ADDRESS":"民生路２５２巷１０號","OBJECTID":446741},"geometry":{"x":179067.66000000015,"y":2549077.25}},{"attributes":{"ID":446767,"DIS_CODE":0,"TOWNNAME":"新化區","LI":"太平里","LIN":"5鄰","STREET":"民生路","SECT":" ","MAREA":" ","LANE":"２３４巷","ALLEY":" ","HOUSE_NO":"４１號","E_COORD97":179098.35999999999,"N_COORD97":2549108.25,"ADDRESS":"民生路２３４巷４１號","OBJECTID":446742},"geometry":{"x":179098.36000000127,"y":2549108.2500000037}},{"attributes":{"ID":446768,"DIS_CODE":0,"TOWNNAME":"新化區","LI":"太平里","LIN":"5鄰","STREET":"民生路","SECT":" ","MAREA":" ","LANE":"２３４巷","ALLEY":" ","HOUSE_NO":"１３號","E_COORD97":179085.45999999999,"N_COORD97":2549055.25,"ADDRESS":"民生路２３４巷１３號","OBJECTID":446743},"geometry":{"x":179085.46000000089,"y":2549055.2500000019}},{"attributes":{"ID":446769,"DIS_CODE":0,"TOWNNAME":"新化區","LI":"太平里","LIN":"5鄰","STREET":"民生路","SECT":" ","MAREA":" ","LANE":"２５２巷","ALLEY":" ","HOUSE_NO":"１６號","E_COORD97":179072.76000000001,"N_COORD97":2549098.25,"ADDRESS":"民生路２５２巷１６號","OBJECTID":446744},"geometry":{"x":179072.76000000071,"y":2549098.2500000019}},{"attributes":{"ID":446770,"DIS_CODE":0,"TOWNNAME":"新化區","LI":"太平里","LIN":"5鄰","STREET":"民生路","SECT":" ","MAREA":" ","LANE":"２３４巷","ALLEY":" ","HOUSE_NO":"５２號","E_COORD97":179110.35999999999,"N_COORD97":2549072.25,"ADDRESS":"民生路２３４巷５２號","OBJECTID":446745},"geometry":{"x":179110.36000000127,"y":2549072.2500000019}},{"attributes":{"ID":446771,"DIS_CODE":0,"TOWNNAME":"新化區","LI":"太平里","LIN":"5鄰","STREET":"民生路","SECT":" ","MAREA":" ","LANE":"２５２巷","ALLEY":" ","HOUSE_NO":"２２號","E_COORD97":179077.06,"N_COORD97":2549118.25,"ADDRESS":"民生路２５２巷２２號","OBJECTID":446746},"geometry":{"x":179077.06000000145,"y":2549118.2500000037}},{"attributes":{"ID":446772,"DIS_CODE":0,"TOWNNAME":"安南區","LI":"安順里","LIN":"5鄰","STREET":"安和路","SECT":"四段","MAREA":" ","LANE":"６７巷","ALLEY":" ","HOUSE_NO":"３０號","E_COORD97":169830.85999999999,"N_COORD97":2550282.8900000001,"ADDRESS":"安和路四段６７巷３０號","OBJECTID":446747},"geometry":{"x":169830.86000000127,"y":2550282.8900000006}},{"attributes":{"ID":446773,"DIS_CODE":0,"TOWNNAME":"新化區","LI":"中央里","LIN":"5鄰","STREET":"大同街","SECT":" ","MAREA":" ","LANE":"１２９巷","ALLEY":" ","HOUSE_NO":"２０號","E_COORD97":178919.57999999999,"N_COORD97":2548395.25,"ADDRESS":"大同街１２９巷２０號","OBJECTID":446748},"geometry":{"x":178919.57999999914,"y":2548395.25}},{"attributes":{"ID":446774,"DIS_CODE":0,"TOWNNAME":"新化區","LI":"武安里","LIN":"5鄰","STREET":"中正路","SECT":" ","MAREA":" ","LANE":"３４１巷","ALLEY":" ","HOUSE_NO":"３１號","E_COORD97":179038.26000000001,"N_COORD97":2548241.25,"ADDRESS":"中正路３４１巷３１號","OBJECTID":446749},"geometry":{"x":179038.25999999978,"y":2548241.2500000019}},{"attributes":{"ID":446775,"DIS_CODE":0,"TOWNNAME":"新化區","LI":"太平里","LIN":"5鄰","STREET":"民生路","SECT":" ","MAREA":" ","LANE":"２３４巷","ALLEY":" ","HOUSE_NO":"４２號","E_COORD97":179140.16,"N_COORD97":2549041.25,"ADDRESS":"民生路２３４巷４２號","OBJECTID":446750},"geometry":{"x":179140.16000000108,"y":2549041.2500000019}},{"attributes":{"ID":446776,"DIS_CODE":0,"TOWNNAME":"新化區","LI":"太平里","LIN":"5鄰","STREET":"民生路","SECT":" ","MAREA":" ","LANE":"２５２巷","ALLEY":" ","HOUSE_NO":"２號","E_COORD97":179054.01000000001,"N_COORD97":2549047.25,"ADDRESS":"民生路２５２巷２號","OBJECTID":446751},"geometry":{"x":179054.01000000071,"y":2549047.2500000037}},{"attributes":{"ID":446777,"DIS_CODE":0,"TOWNNAME":"新化區","LI":"太平里","LIN":"5鄰","STREET":"民生路","SECT":" ","MAREA":" ","LANE":"２３４巷","ALLEY":" ","HOUSE_NO":"７號","E_COORD97":179079.81,"N_COORD97":2549043.25,"ADDRESS":"民生路２３４巷７號","OBJECTID":446752},"geometry":{"x":179079.80999999959,"y":2549043.25}},{"attributes":{"ID":446778,"DIS_CODE":0,"TOWNNAME":"新化區","LI":"太平里","LIN":"5鄰","STREET":"民生路","SECT":" ","MAREA":" ","LANE":"２３４巷","ALLEY":" ","HOUSE_NO":"３８號","E_COORD97":179144.85999999999,"N_COORD97":2549034.25,"ADDRESS":"民生路２３４巷３８號","OBJECTID":446753},"geometry":{"x":179144.86000000034,"y":2549034.2500000019}},{"attributes":{"ID":446779,"DIS_CODE":0,"TOWNNAME":"新化區","LI":"太平里","LIN":"5鄰","STREET":"民生路","SECT":" ","MAREA":" ","LANE":"２３４巷","ALLEY":" ","HOUSE_NO":"２４號","E_COORD97":179120.16,"N_COORD97":2549044.25,"ADDRESS":"民生路２３４巷２４號","OBJECTID":446754},"geometry":{"x":179120.16000000015,"y":2549044.2500000019}},{"attributes":{"ID":446780,"DIS_CODE":0,"TOWNNAME":"新化區","LI":"太平里","LIN":"5鄰","STREET":"民生路","SECT":" ","MAREA":" ","LANE":"２３４巷","ALLEY":" ","HOUSE_NO":"３０號","E_COORD97":179130.76000000001,"N_COORD97":2549029.25,"ADDRESS":"民生路２３４巷３０號","OBJECTID":446755},"geometry":{"x":179130.76000000071,"y":2549029.25}},{"attributes":{"ID":446781,"DIS_CODE":0,"TOWNNAME":"新化區","LI":"太平里","LIN":"5鄰","STREET":"民生路","SECT":" ","MAREA":" ","LANE":"２３４巷","ALLEY":" ","HOUSE_NO":"２３號","E_COORD97":179090.16,"N_COORD97":2549075.2400000002,"ADDRESS":"民生路２３４巷２３號","OBJECTID":446756},"geometry":{"x":179090.16000000015,"y":2549075.2400000021}},{"attributes":{"ID":446782,"DIS_CODE":0,"TOWNNAME":"新化區","LI":"太平里","LIN":"5鄰","STREET":"民生路","SECT":" ","MAREA":" ","LANE":"２３４巷","ALLEY":" ","HOUSE_NO":"２２號","E_COORD97":179115.85999999999,"N_COORD97":2549049.25,"ADDRESS":"民生路２３４巷２２號","OBJECTID":446757},"geometry":{"x":179115.86000000034,"y":2549049.25}},{"attributes":{"ID":446783,"DIS_CODE":0,"TOWNNAME":"新化區","LI":"太平里","LIN":"5鄰","STREET":"民生路","SECT":" ","MAREA":" ","LANE":"２３４巷","ALLEY":" ","HOUSE_NO":"５號","E_COORD97":179077.01000000001,"N_COORD97":2549036.25,"ADDRESS":"民生路２３４巷５號","OBJECTID":446758},"geometry":{"x":179077.00999999978,"y":2549036.25}},{"attributes":{"ID":446784,"DIS_CODE":0,"TOWNNAME":"新化區","LI":"太平里","LIN":"5鄰","STREET":"民生路","SECT":" ","MAREA":" ","LANE":"２３４巷","ALLEY":" ","HOUSE_NO":"１１號","E_COORD97":179084.45999999999,"N_COORD97":2549052.25,"ADDRESS":"民生路２３４巷１１號","OBJECTID":446759},"geometry":{"x":179084.45999999996,"y":2549052.25}},{"attributes":{"ID":446785,"DIS_CODE":0,"TOWNNAME":"新化區","LI":"太平里","LIN":"5鄰","STREET":"民生路","SECT":" ","MAREA":" ","LANE":"２３４巷","ALLEY":" ","HOUSE_NO":"３２號","E_COORD97":179135.76000000001,"N_COORD97":2549022.25,"ADDRESS":"民生路２３４巷３２號","OBJECTID":446760},"geometry":{"x":179135.76000000071,"y":2549022.25}},{"attributes":{"ID":446786,"DIS_CODE":0,"TOWNNAME":"新化區","LI":"太平里","LIN":"5鄰","STREET":"民生路","SECT":" ","MAREA":" ","LANE":"２３４巷","ALLEY":" ","HOUSE_NO":"２６號","E_COORD97":179124.16,"N_COORD97":2549039.25,"ADDRESS":"民生路２３４巷２６號","OBJECTID":446761},"geometry":{"x":179124.16000000015,"y":2549039.25}},{"attributes":{"ID":446787,"DIS_CODE":0,"TOWNNAME":"新化區","LI":"太平里","LIN":"5鄰","STREET":"民生路","SECT":" ","MAREA":" ","LANE":"２３４巷","ALLEY":" ","HOUSE_NO":"３６號","E_COORD97":179147.85999999999,"N_COORD97":2549029.25,"ADDRESS":"民生路２３４巷３６號","OBJECTID":446762},"geometry":{"x":179147.86000000034,"y":2549029.25}},{"attributes":{"ID":446788,"DIS_CODE":0,"TOWNNAME":"新化區","LI":"太平里","LIN":"5鄰","STREET":"民生路","SECT":" ","MAREA":" ","LANE":"２３４巷","ALLEY":" ","HOUSE_NO":"４６號","E_COORD97":179128.95999999999,"N_COORD97":2549054.25,"ADDRESS":"民生路２３４巷４６號","OBJECTID":446763},"geometry":{"x":179128.96000000183,"y":2549054.2500000019}},{"attributes":{"ID":446789,"DIS_CODE":0,"TOWNNAME":"新化區","LI":"太平里","LIN":"5鄰","STREET":"民生路","SECT":" ","MAREA":" ","LANE":"２３４巷","ALLEY":" ","HOUSE_NO":"２１號","E_COORD97":179089.35999999999,"N_COORD97":2549072.25,"ADDRESS":"民生路２３４巷２１號","OBJECTID":446764},"geometry":{"x":179089.3600000022,"y":2549072.2500000019}},{"attributes":{"ID":446790,"DIS_CODE":0,"TOWNNAME":"新化區","LI":"太平里","LIN":"5鄰","STREET":"民生路","SECT":" ","MAREA":" ","LANE":"２３４巷","ALLEY":" ","HOUSE_NO":"３９號","E_COORD97":179097.16,"N_COORD97":2549103.25,"ADDRESS":"民生路２３４巷３９號","OBJECTID":446765},"geometry":{"x":179097.16000000201,"y":2549103.25}},{"attributes":{"ID":446791,"DIS_CODE":0,"TOWNNAME":"新化區","LI":"武安里","LIN":"5鄰","STREET":"中正路","SECT":" ","MAREA":" ","LANE":"３４１巷","ALLEY":" ","HOUSE_NO":"３３號","E_COORD97":179023.85999999999,"N_COORD97":2548241.25,"ADDRESS":"中正路３４１巷３３號","OBJECTID":446766},"geometry":{"x":179023.86000000127,"y":2548241.2500000019}},{"attributes":{"ID":446792,"DIS_CODE":0,"TOWNNAME":"東區","LI":"崇文里","LIN":"40鄰","STREET":"生產路","SECT":" ","MAREA":" ","LANE":" ","ALLEY":" ","HOUSE_NO":"２７１號十樓","E_COORD97":170892.67999999999,"N_COORD97":2540617.9100000001,"ADDRESS":"生產路２７１號十樓","OBJECTID":446767},"geometry":{"x":170892.68000000063,"y":2540617.9100000039}},{"attributes":{"ID":446793,"DIS_CODE":0,"TOWNNAME":"新化區","LI":"中央里","LIN":"5鄰","STREET":"大同街","SECT":" ","MAREA":" ","LANE":"１２９巷","ALLEY":" ","HOUSE_NO":"３８號","E_COORD97":178911.48000000001,"N_COORD97":2548363.25,"ADDRESS":"大同街１２９巷３８號","OBJECTID":446768},"geometry":{"x":178911.48000000045,"y":2548363.2500000019}},{"attributes":{"ID":446794,"DIS_CODE":0,"TOWNNAME":"新化區","LI":"觀音里","LIN":"5鄰","STREET":"仁愛街","SECT":" ","MAREA":" ","LANE":"６５巷","ALLEY":" ","HOUSE_NO":"１２號","E_COORD97":178933.42999999999,"N_COORD97":2548542.25,"ADDRESS":"仁愛街６５巷１２號","OBJECTID":446769},"geometry":{"x":178933.4299999997,"y":2548542.2500000019}},{"attributes":{"ID":446795,"DIS_CODE":0,"TOWNNAME":"安南區","LI":"新順里","LIN":"5鄰","STREET":"安豐六街","SECT":" ","MAREA":" ","LANE":"１０巷","ALLEY":" ","HOUSE_NO":"５５號","E_COORD97":169273.84,"N_COORD97":2549483.8199999998,"ADDRESS":"安豐六街１０巷５５號","OBJECTID":446770},"geometry":{"x":169273.84000000171,"y":2549483.8200000003}},{"attributes":{"ID":446796,"DIS_CODE":0,"TOWNNAME":"安南區","LI":"新順里","LIN":"5鄰","STREET":"安豐六街","SECT":" ","MAREA":" ","LANE":"１０巷","ALLEY":" ","HOUSE_NO":"５７號","E_COORD97":169273.25,"N_COORD97":2549480.71,"ADDRESS":"安豐六街１０巷５７號","OBJECTID":446771},"geometry":{"x":169273.25000000093,"y":2549480.7100000009}},{"attributes":{"ID":446797,"DIS_CODE":0,"TOWNNAME":"安南區","LI":"新順里","LIN":"5鄰","STREET":"安豐六街","SECT":" ","MAREA":" ","LANE":"１０巷","ALLEY":" ","HOUSE_NO":"５９號","E_COORD97":169273.10000000001,"N_COORD97":2549477.4500000002,"ADDRESS":"安豐六街１０巷５９號","OBJECTID":446772},"geometry":{"x":169273.09999999963,"y":2549477.4499999993}},{"attributes":{"ID":446798,"DIS_CODE":0,"TOWNNAME":"安南區","LI":"新順里","LIN":"5鄰","STREET":"安豐六街","SECT":" ","MAREA":" ","LANE":"１０巷","ALLEY":" ","HOUSE_NO":"６１號","E_COORD97":169272.64999999999,"N_COORD97":2549473.8900000001,"ADDRESS":"安豐六街１０巷６１號","OBJECTID":446773},"geometry":{"x":169272.6500000013,"y":2549473.8900000043}},{"attributes":{"ID":446799,"DIS_CODE":0,"TOWNNAME":"南區","LI":"再興里","LIN":"5鄰","STREET":"新城街","SECT":" ","MAREA":" ","LANE":"７１巷","ALLEY":" ","HOUSE_NO":"７號","E_COORD97":167139.01999999999,"N_COORD97":2542343.04,"ADDRESS":"新城街７１巷７號","OBJECTID":446774},"geometry":{"x":167139.01999999955,"y":2542343.040000001}},{"attributes":{"ID":446800,"DIS_CODE":0,"TOWNNAME":"南區","LI":"再興里","LIN":"5鄰","STREET":"新城街","SECT":" ","MAREA":" ","LANE":"７１巷","ALLEY":" ","HOUSE_NO":"８號","E_COORD97":167135.5,"N_COORD97":2542351.6899999999,"ADDRESS":"新城街７１巷８號","OBJECTID":446775},"geometry":{"x":167135.50000000093,"y":2542351.6900000013}},{"attributes":{"ID":446801,"DIS_CODE":0,"TOWNNAME":"南區","LI":"再興里","LIN":"5鄰","STREET":"新城街","SECT":" ","MAREA":" ","LANE":"７１巷","ALLEY":" ","HOUSE_NO":"９號","E_COORD97":167134.91,"N_COORD97":2542343.3300000001,"ADDRESS":"新城街７１巷９號","OBJECTID":446776},"geometry":{"x":167134.91000000108,"y":2542343.3300000001}},{"attributes":{"ID":446802,"DIS_CODE":0,"TOWNNAME":"南區","LI":"再興里","LIN":"5鄰","STREET":"新城街","SECT":" ","MAREA":" ","LANE":"７１巷","ALLEY":" ","HOUSE_NO":"１０號","E_COORD97":167131.25,"N_COORD97":2542352.1699999999,"ADDRESS":"新城街７１巷１０號","OBJECTID":446777},"geometry":{"x":167131.25,"y":2542352.1700000018}},{"attributes":{"ID":446803,"DIS_CODE":0,"TOWNNAME":"南區","LI":"再興里","LIN":"5鄰","STREET":"新城街","SECT":" ","MAREA":" ","LANE":"７１巷","ALLEY":" ","HOUSE_NO":"１１號","E_COORD97":167131.10999999999,"N_COORD97":2542343.6600000001,"ADDRESS":"新城街７１巷１１號","OBJECTID":446778},"geometry":{"x":167131.11000000034,"y":2542343.6600000001}},{"attributes":{"ID":446804,"DIS_CODE":0,"TOWNNAME":"南區","LI":"同安里","LIN":"5鄰","STREET":"興南街","SECT":" ","MAREA":" ","LANE":"２巷","ALLEY":" ","HOUSE_NO":"１３號","E_COORD97":166317.79999999999,"N_COORD97":2536181.5,"ADDRESS":"興南街２巷１３號","OBJECTID":446779},"geometry":{"x":166317.80000000075,"y":2536181.5}},{"attributes":{"ID":446805,"DIS_CODE":0,"TOWNNAME":"南區","LI":"同安里","LIN":"5鄰","STREET":"興南街","SECT":" ","MAREA":" ","LANE":"２巷","ALLEY":" ","HOUSE_NO":"１７號","E_COORD97":166298.76000000001,"N_COORD97":2536184.4300000002,"ADDRESS":"興南街２巷１７號","OBJECTID":446780},"geometry":{"x":166298.75999999978,"y":2536184.4299999997}},{"attributes":{"ID":446806,"DIS_CODE":0,"TOWNNAME":"南區","LI":"同安里","LIN":"5鄰","STREET":"興南街","SECT":" ","MAREA":" ","LANE":"２巷","ALLEY":" ","HOUSE_NO":"１９號","E_COORD97":166314.72,"N_COORD97":2536184.77,"ADDRESS":"興南街２巷１９號","OBJECTID":446781},"geometry":{"x":166314.7200000016,"y":2536184.7700000014}},{"attributes":{"ID":446807,"DIS_CODE":0,"TOWNNAME":"南區","LI":"同安里","LIN":"5鄰","STREET":"灣裡路","SECT":" ","MAREA":" ","LANE":"３５１巷","ALLEY":" ","HOUSE_NO":"１０號","E_COORD97":166241.73999999999,"N_COORD97":2536185.2400000002,"ADDRESS":"灣裡路３５１巷１０號","OBJECTID":446782},"geometry":{"x":166241.74000000022,"y":2536185.2400000021}},{"attributes":{"ID":446808,"DIS_CODE":0,"TOWNNAME":"東區","LI":"大福里","LIN":"5鄰","STREET":"立德二路","SECT":" ","MAREA":" ","LANE":"５４巷","ALLEY":" ","HOUSE_NO":"１７號","E_COORD97":169604.01999999999,"N_COORD97":2541726.1499999999,"ADDRESS":"立德二路５４巷１７號","OBJECTID":446783},"geometry":{"x":169604.01999999955,"y":2541726.1500000022}},{"attributes":{"ID":446809,"DIS_CODE":0,"TOWNNAME":"東區","LI":"大福里","LIN":"5鄰","STREET":"立德二路","SECT":" ","MAREA":" ","LANE":"５４巷","ALLEY":" ","HOUSE_NO":"１９號","E_COORD97":169599.14000000001,"N_COORD97":2541726.8500000001,"ADDRESS":"立德二路５４巷１９號","OBJECTID":446784},"geometry":{"x":169599.1400000006,"y":2541726.8500000015}},{"attributes":{"ID":446810,"DIS_CODE":0,"TOWNNAME":"東區","LI":"大福里","LIN":"5鄰","STREET":"立德二路","SECT":" ","MAREA":" ","LANE":"５４巷","ALLEY":" ","HOUSE_NO":"２１號","E_COORD97":169593.91,"N_COORD97":2541725.46,"ADDRESS":"立德二路５４巷２１號","OBJECTID":446785},"geometry":{"x":169593.91000000201,"y":2541725.4600000009}},{"attributes":{"ID":446811,"DIS_CODE":0,"TOWNNAME":"仁德區","LI":"新田里","LIN":"5鄰","STREET":"勝利二街","SECT":" ","MAREA":" ","LANE":"２９巷","ALLEY":" ","HOUSE_NO":"６號","E_COORD97":174898.17999999999,"N_COORD97":2539305.7599999998,"ADDRESS":"勝利二街２９巷６號","OBJECTID":446786},"geometry":{"x":174898.18000000063,"y":2539305.7599999998}},{"attributes":{"ID":446812,"DIS_CODE":0,"TOWNNAME":"仁德區","LI":"一甲里","LIN":"5鄰","STREET":"中正路","SECT":"三段","MAREA":" ","LANE":"１６２巷","ALLEY":" ","HOUSE_NO":"８８號","E_COORD97":173682.41,"N_COORD97":2541705.5600000001,"ADDRESS":"中正路三段１６２巷８８號","OBJECTID":446787},"geometry":{"x":173682.41000000015,"y":2541705.5600000042}},{"attributes":{"ID":446813,"DIS_CODE":0,"TOWNNAME":"仁德區","LI":"土庫里","LIN":"5鄰","STREET":"土庫六街","SECT":" ","MAREA":" ","LANE":"７５巷","ALLEY":" ","HOUSE_NO":"７０號","E_COORD97":174103.53,"N_COORD97":2543170.5,"ADDRESS":"土庫六街７５巷７０號","OBJECTID":446788},"geometry":{"x":174103.53000000026,"y":2543170.5000000019}},{"attributes":{"ID":446814,"DIS_CODE":0,"TOWNNAME":"仁德區","LI":"一甲里","LIN":"5鄰","STREET":"中正路","SECT":"三段","MAREA":" ","LANE":"１６２巷","ALLEY":" ","HOUSE_NO":"９６號","E_COORD97":173700.20999999999,"N_COORD97":2541704.3100000001,"ADDRESS":"中正路三段１６２巷９６號","OBJECTID":446789},"geometry":{"x":173700.20999999996,"y":2541704.3100000024}},{"attributes":{"ID":446815,"DIS_CODE":0,"TOWNNAME":"仁德區","LI":"上崙里","LIN":"5鄰","STREET":"德崙路","SECT":" ","MAREA":" ","LANE":"３２３巷","ALLEY":" ","HOUSE_NO":"１之２號","E_COORD97":173966.34,"N_COORD97":2538163.0499999998,"ADDRESS":"德崙路３２３巷１之２號","OBJECTID":446790},"geometry":{"x":173966.34000000078,"y":2538163.0500000026}},{"attributes":{"ID":446816,"DIS_CODE":0,"TOWNNAME":"仁德區","LI":"大甲里","LIN":"5鄰","STREET":"行大街","SECT":" ","MAREA":" ","LANE":"２８５巷","ALLEY":" ","HOUSE_NO":"２６號","E_COORD97":169721.14999999999,"N_COORD97":2535082.7400000002,"ADDRESS":"行大街２８５巷２６號","OBJECTID":446791},"geometry":{"x":169721.15000000037,"y":2535082.7400000021}},{"attributes":{"ID":446817,"DIS_CODE":0,"TOWNNAME":"永康區","LI":"中興里","LIN":"5鄰","STREET":"中華一路","SECT":" ","MAREA":" ","LANE":"５８巷","ALLEY":" ","HOUSE_NO":"１５號","E_COORD97":171848.19,"N_COORD97":2545035.4900000002,"ADDRESS":"中華一路５８巷１５號","OBJECTID":446792},"geometry":{"x":171848.19000000041,"y":2545035.4900000021}},{"attributes":{"ID":446818,"DIS_CODE":0,"TOWNNAME":"永康區","LI":"正強里","LIN":"5鄰","STREET":"中正路","SECT":" ","MAREA":" ","LANE":"５５巷","ALLEY":" ","HOUSE_NO":"２８號","E_COORD97":173541.29000000001,"N_COORD97":2547748.04,"ADDRESS":"中正路５５巷２８號","OBJECTID":446793},"geometry":{"x":173541.29000000097,"y":2547748.0399999991}},{"attributes":{"ID":446819,"DIS_CODE":0,"TOWNNAME":"永康區","LI":"復國里","LIN":"5鄰","STREET":"復國二路","SECT":" ","MAREA":" ","LANE":"４０巷","ALLEY":" ","HOUSE_NO":"１號","E_COORD97":172846.23000000001,"N_COORD97":2544995.0299999998,"ADDRESS":"復國二路４０巷１號","OBJECTID":446794},"geometry":{"x":172846.23000000045,"y":2544995.0299999993}},{"attributes":{"ID":446820,"DIS_CODE":0,"TOWNNAME":"永康區","LI":"中興里","LIN":"5鄰","STREET":"中華路","SECT":" ","MAREA":" ","LANE":"２１４巷","ALLEY":" ","HOUSE_NO":"７２號","E_COORD97":171889,"N_COORD97":2545060.02,"ADDRESS":"中華路２１４巷７２號","OBJECTID":446795},"geometry":{"x":171889.00000000093,"y":2545060.0199999996}},{"attributes":{"ID":446821,"DIS_CODE":0,"TOWNNAME":"永康區","LI":"中興里","LIN":"5鄰","STREET":"中華路","SECT":" ","MAREA":" ","LANE":"２１４巷","ALLEY":" ","HOUSE_NO":"７８號","E_COORD97":171903.69,"N_COORD97":2545061.77,"ADDRESS":"中華路２１４巷７８號","OBJECTID":446796},"geometry":{"x":171903.69000000134,"y":2545061.7699999996}},{"attributes":{"ID":446822,"DIS_CODE":0,"TOWNNAME":"永康區","LI":"復國里","LIN":"5鄰","STREET":"復國一路","SECT":" ","MAREA":" ","LANE":"９０巷","ALLEY":" ","HOUSE_NO":"４號","E_COORD97":172738.60999999999,"N_COORD97":2544921.02,"ADDRESS":"復國一路９０巷４號","OBJECTID":446797},"geometry":{"x":172738.61000000034,"y":2544921.0199999996}},{"attributes":{"ID":446823,"DIS_CODE":0,"TOWNNAME":"永康區","LI":"大橋里","LIN":"5鄰","STREET":"大橋三街","SECT":" ","MAREA":" ","LANE":"１９９巷","ALLEY":" ","HOUSE_NO":"７號","E_COORD97":170829.14000000001,"N_COORD97":2546817.0699999998,"ADDRESS":"大橋三街１９９巷７號","OBJECTID":446798},"geometry":{"x":170829.13999999966,"y":2546817.0700000003}},{"attributes":{"ID":446824,"DIS_CODE":0,"TOWNNAME":"永康區","LI":"埔園里","LIN":"5鄰","STREET":"中山路","SECT":" ","MAREA":" ","LANE":"１５８巷","ALLEY":" ","HOUSE_NO":"２６號之２","E_COORD97":173854.35999999999,"N_COORD97":2547832.3300000001,"ADDRESS":"中山路１５８巷２６號之２","OBJECTID":446799},"geometry":{"x":173854.36000000034,"y":2547832.3300000001}},{"attributes":{"ID":446825,"DIS_CODE":0,"TOWNNAME":"永康區","LI":"東橋里","LIN":"5鄰","STREET":"中山南路","SECT":" ","MAREA":" ","LANE":"１９５巷","ALLEY":" ","HOUSE_NO":"３９號","E_COORD97":171427.45000000001,"N_COORD97":2546450.2400000002,"ADDRESS":"中山南路１９５巷３９號","OBJECTID":446800},"geometry":{"x":171427.45000000019,"y":2546450.2400000039}}]}