{"displayFieldName":"TOWNNAME","fieldAliases":{"ID":"ID","DIS_CODE":"DIS_CODE","TOWNNAME":"TOWNNAME","LI":"LI","LIN":"LIN","STREET":"STREET","SECT":"SECT","MAREA":"MAREA","LANE":"LANE","ALLEY":"ALLEY","HOUSE_NO":"HOUSE_NO","E_COORD97":"E_COORD97","N_COORD97":"N_COORD97","ADDRESS":"ADDRESS","OBJECTID":"OBJECTID"},"geometryType":"esriGeometryPoint","spatialReference":{"wkid":102443,"latestWkid":3826},"fields":[{"name":"ID","type":"esriFieldTypeDouble","alias":"ID"},{"name":"DIS_CODE","type":"esriFieldTypeInteger","alias":"DIS_CODE"},{"name":"TOWNNAME","type":"esriFieldTypeString","alias":"TOWNNAME","length":8},{"name":"LI","type":"esriFieldTypeString","alias":"LI","length":8},{"name":"LIN","type":"esriFieldTypeString","alias":"LIN","length":12},{"name":"STREET","type":"esriFieldTypeString","alias":"STREET","length":20},{"name":"SECT","type":"esriFieldTypeString","alias":"SECT","length":8},{"name":"MAREA","type":"esriFieldTypeString","alias":"MAREA","length":12},{"name":"LANE","type":"esriFieldTypeString","alias":"LANE","length":10},{"name":"ALLEY","type":"esriFieldTypeString","alias":"ALLEY","length":10},{"name":"HOUSE_NO","type":"esriFieldTypeString","alias":"HOUSE_NO","length":20},{"name":"E_COORD97","type":"esriFieldTypeDouble","alias":"E_COORD97"},{"name":"N_COORD97","type":"esriFieldTypeDouble","alias":"N_COORD97"},{"name":"ADDRESS","type":"esriFieldTypeString","alias":"ADDRESS","length":50},{"name":"OBJECTID","type":"esriFieldTypeOID","alias":"OBJECTID"}],"features":[{"attributes":{"ID":90001,"DIS_CODE":0,"TOWNNAME":"北區","LI":"仁愛里","LIN":"10鄰","STREET":"東豐路","SECT":" ","MAREA":" ","LANE":"２２７巷","ALLEY":"２４弄","HOUSE_NO":"１５號二樓之２０","E_COORD97":170217.23000000001,"N_COORD97":2544981.3199999998,"ADDRESS":"東豐路２２７巷２４弄１５號二樓之２０","OBJECTID":90001},"geometry":{"x":170217.23000000045,"y":2544981.3200000003}},{"attributes":{"ID":90002,"DIS_CODE":0,"TOWNNAME":"關廟區","LI":"南花里","LIN":"8鄰","STREET":"四維街","SECT":" ","MAREA":" ","LANE":" ","ALLEY":" ","HOUSE_NO":"２５９號","E_COORD97":181856.95999999999,"N_COORD97":2540252.25,"ADDRESS":"四維街２５９號","OBJECTID":90002},"geometry":{"x":181856.96000000089,"y":2540252.2499999981}},{"attributes":{"ID":90003,"DIS_CODE":0,"TOWNNAME":"北區","LI":"仁愛里","LIN":"10鄰","STREET":"東豐路","SECT":" ","MAREA":" ","LANE":"２２７巷","ALLEY":"２４弄","HOUSE_NO":"１５號二樓之２１","E_COORD97":170217.23000000001,"N_COORD97":2544981.3199999998,"ADDRESS":"東豐路２２７巷２４弄１５號二樓之２１","OBJECTID":90003},"geometry":{"x":170217.23000000045,"y":2544981.3200000003}},{"attributes":{"ID":90004,"DIS_CODE":0,"TOWNNAME":"北區","LI":"仁愛里","LIN":"10鄰","STREET":"東豐路","SECT":" ","MAREA":" ","LANE":"２２７巷","ALLEY":"２４弄","HOUSE_NO":"１５號二樓之２２","E_COORD97":170217.23000000001,"N_COORD97":2544981.3199999998,"ADDRESS":"東豐路２２７巷２４弄１５號二樓之２２","OBJECTID":90004},"geometry":{"x":170217.23000000045,"y":2544981.3200000003}},{"attributes":{"ID":90005,"DIS_CODE":0,"TOWNNAME":"北區","LI":"仁愛里","LIN":"10鄰","STREET":"東豐路","SECT":" ","MAREA":" ","LANE":"２２７巷","ALLEY":"２４弄","HOUSE_NO":"１５號二樓之２３","E_COORD97":170217.23000000001,"N_COORD97":2544981.3199999998,"ADDRESS":"東豐路２２７巷２４弄１５號二樓之２３","OBJECTID":90005},"geometry":{"x":170217.23000000045,"y":2544981.3200000003}},{"attributes":{"ID":90006,"DIS_CODE":0,"TOWNNAME":"北區","LI":"仁愛里","LIN":"10鄰","STREET":"東豐路","SECT":" ","MAREA":" ","LANE":"２２７巷","ALLEY":"２４弄","HOUSE_NO":"１５號二樓之２４","E_COORD97":170217.23000000001,"N_COORD97":2544981.3199999998,"ADDRESS":"東豐路２２７巷２４弄１５號二樓之２４","OBJECTID":90006},"geometry":{"x":170217.23000000045,"y":2544981.3200000003}},{"attributes":{"ID":90007,"DIS_CODE":0,"TOWNNAME":"北區","LI":"仁愛里","LIN":"10鄰","STREET":"東豐路","SECT":" ","MAREA":" ","LANE":"２２７巷","ALLEY":"２４弄","HOUSE_NO":"１５號二樓之２５","E_COORD97":170217.23000000001,"N_COORD97":2544981.3199999998,"ADDRESS":"東豐路２２７巷２４弄１５號二樓之２５","OBJECTID":90007},"geometry":{"x":170217.23000000045,"y":2544981.3200000003}},{"attributes":{"ID":90008,"DIS_CODE":0,"TOWNNAME":"北區","LI":"仁愛里","LIN":"10鄰","STREET":"東豐路","SECT":" ","MAREA":" ","LANE":"２２７巷","ALLEY":"２４弄","HOUSE_NO":"１５號二樓之２６","E_COORD97":170217.23000000001,"N_COORD97":2544981.3199999998,"ADDRESS":"東豐路２２７巷２４弄１５號二樓之２６","OBJECTID":90008},"geometry":{"x":170217.23000000045,"y":2544981.3200000003}},{"attributes":{"ID":90009,"DIS_CODE":0,"TOWNNAME":"北區","LI":"仁愛里","LIN":"10鄰","STREET":"東豐路","SECT":" ","MAREA":" ","LANE":"２２７巷","ALLEY":"２４弄","HOUSE_NO":"１５號二樓之２７","E_COORD97":170217.23000000001,"N_COORD97":2544981.3199999998,"ADDRESS":"東豐路２２７巷２４弄１５號二樓之２７","OBJECTID":90009},"geometry":{"x":170217.23000000045,"y":2544981.3200000003}},{"attributes":{"ID":90010,"DIS_CODE":0,"TOWNNAME":"北區","LI":"仁愛里","LIN":"10鄰","STREET":"東豐路","SECT":" ","MAREA":" ","LANE":"２２７巷","ALLEY":"２４弄","HOUSE_NO":"１５號二樓之２８","E_COORD97":170217.23000000001,"N_COORD97":2544981.3199999998,"ADDRESS":"東豐路２２７巷２４弄１５號二樓之２８","OBJECTID":90010},"geometry":{"x":170217.23000000045,"y":2544981.3200000003}},{"attributes":{"ID":90011,"DIS_CODE":0,"TOWNNAME":"北區","LI":"仁愛里","LIN":"10鄰","STREET":"東豐路","SECT":" ","MAREA":" ","LANE":"２２７巷","ALLEY":"２４弄","HOUSE_NO":"１５號二樓之３","E_COORD97":170217.23000000001,"N_COORD97":2544981.3199999998,"ADDRESS":"東豐路２２７巷２４弄１５號二樓之３","OBJECTID":90011},"geometry":{"x":170217.23000000045,"y":2544981.3200000003}},{"attributes":{"ID":90012,"DIS_CODE":0,"TOWNNAME":"安南區","LI":"梅花里","LIN":"20鄰","STREET":"安中路","SECT":"一段","MAREA":" ","LANE":"７５７巷","ALLEY":"６８弄","HOUSE_NO":"２號","E_COORD97":167315.89000000001,"N_COORD97":2549196.8700000001,"ADDRESS":"安中路一段７５７巷６８弄２號","OBJECTID":90012},"geometry":{"x":167315.8900000006,"y":2549196.8700000029}},{"attributes":{"ID":90013,"DIS_CODE":0,"TOWNNAME":"安南區","LI":"州北里","LIN":"26鄰","STREET":"北安路","SECT":"四段","MAREA":" ","LANE":"５４８巷","ALLEY":"８０弄","HOUSE_NO":"９號","E_COORD97":169737.87,"N_COORD97":2551852.77,"ADDRESS":"北安路四段５４８巷８０弄９號","OBJECTID":90013},"geometry":{"x":169737.87000000011,"y":2551852.7699999996}},{"attributes":{"ID":90014,"DIS_CODE":0,"TOWNNAME":"北區","LI":"仁愛里","LIN":"10鄰","STREET":"東豐路","SECT":" ","MAREA":" ","LANE":"２２７巷","ALLEY":"２４弄","HOUSE_NO":"１５號二樓之４","E_COORD97":170217.23000000001,"N_COORD97":2544981.3199999998,"ADDRESS":"東豐路２２７巷２４弄１５號二樓之４","OBJECTID":90014},"geometry":{"x":170217.23000000045,"y":2544981.3200000003}},{"attributes":{"ID":90015,"DIS_CODE":0,"TOWNNAME":"北區","LI":"仁愛里","LIN":"10鄰","STREET":"東豐路","SECT":" ","MAREA":" ","LANE":"２２７巷","ALLEY":"２４弄","HOUSE_NO":"１５號二樓之５","E_COORD97":170217.23000000001,"N_COORD97":2544981.3199999998,"ADDRESS":"東豐路２２７巷２４弄１５號二樓之５","OBJECTID":90015},"geometry":{"x":170217.23000000045,"y":2544981.3200000003}},{"attributes":{"ID":90016,"DIS_CODE":0,"TOWNNAME":"北區","LI":"仁愛里","LIN":"10鄰","STREET":"東豐路","SECT":" ","MAREA":" ","LANE":"２２７巷","ALLEY":"２４弄","HOUSE_NO":"１５號二樓之６","E_COORD97":170217.23000000001,"N_COORD97":2544981.3199999998,"ADDRESS":"東豐路２２７巷２４弄１５號二樓之６","OBJECTID":90016},"geometry":{"x":170217.23000000045,"y":2544981.3200000003}},{"attributes":{"ID":90017,"DIS_CODE":0,"TOWNNAME":"北區","LI":"仁愛里","LIN":"10鄰","STREET":"東豐路","SECT":" ","MAREA":" ","LANE":"２２７巷","ALLEY":"２４弄","HOUSE_NO":"１５號二樓之７","E_COORD97":170217.23000000001,"N_COORD97":2544981.3199999998,"ADDRESS":"東豐路２２７巷２４弄１５號二樓之７","OBJECTID":90017},"geometry":{"x":170217.23000000045,"y":2544981.3200000003}},{"attributes":{"ID":90018,"DIS_CODE":0,"TOWNNAME":"北區","LI":"仁愛里","LIN":"10鄰","STREET":"東豐路","SECT":" ","MAREA":" ","LANE":"２２７巷","ALLEY":"２４弄","HOUSE_NO":"１５號二樓之８","E_COORD97":170217.23000000001,"N_COORD97":2544981.3199999998,"ADDRESS":"東豐路２２７巷２４弄１５號二樓之８","OBJECTID":90018},"geometry":{"x":170217.23000000045,"y":2544981.3200000003}},{"attributes":{"ID":90019,"DIS_CODE":0,"TOWNNAME":"北區","LI":"仁愛里","LIN":"10鄰","STREET":"東豐路","SECT":" ","MAREA":" ","LANE":"２２７巷","ALLEY":"２４弄","HOUSE_NO":"１５號二樓之９","E_COORD97":170217.23000000001,"N_COORD97":2544981.3199999998,"ADDRESS":"東豐路２２７巷２４弄１５號二樓之９","OBJECTID":90019},"geometry":{"x":170217.23000000045,"y":2544981.3200000003}},{"attributes":{"ID":90020,"DIS_CODE":0,"TOWNNAME":"新市區","LI":"社內里","LIN":"12鄰","STREET":" ","SECT":" ","MAREA":"社內","LANE":" ","ALLEY":" ","HOUSE_NO":"１２５之３號","E_COORD97":176474.67000000001,"N_COORD97":2552736.0499999998,"ADDRESS":"社內１２５之３號","OBJECTID":90020},"geometry":{"x":176474.67000000086,"y":2552736.0500000026}},{"attributes":{"ID":90021,"DIS_CODE":0,"TOWNNAME":"柳營區","LI":"太康里","LIN":"12鄰","STREET":" ","SECT":" ","MAREA":"太康","LANE":" ","ALLEY":" ","HOUSE_NO":"１１７號","E_COORD97":181702.47,"N_COORD97":2576364.9199999999,"ADDRESS":"太康１１７號","OBJECTID":90021},"geometry":{"x":181702.47000000067,"y":2576364.9199999999}},{"attributes":{"ID":90022,"DIS_CODE":0,"TOWNNAME":"北區","LI":"仁愛里","LIN":"10鄰","STREET":"東豐路","SECT":" ","MAREA":" ","LANE":"２２７巷","ALLEY":"２４弄","HOUSE_NO":"１５號三樓之１","E_COORD97":170217.23000000001,"N_COORD97":2544981.3199999998,"ADDRESS":"東豐路２２７巷２４弄１５號三樓之１","OBJECTID":90022},"geometry":{"x":170217.23000000045,"y":2544981.3200000003}},{"attributes":{"ID":90023,"DIS_CODE":0,"TOWNNAME":"北區","LI":"仁愛里","LIN":"10鄰","STREET":"東豐路","SECT":" ","MAREA":" ","LANE":"２２７巷","ALLEY":"２４弄","HOUSE_NO":"１５號三樓之１０","E_COORD97":170217.23000000001,"N_COORD97":2544981.3199999998,"ADDRESS":"東豐路２２７巷２４弄１５號三樓之１０","OBJECTID":90023},"geometry":{"x":170217.23000000045,"y":2544981.3200000003}},{"attributes":{"ID":90024,"DIS_CODE":0,"TOWNNAME":"關廟區","LI":"北勢里","LIN":"8鄰","STREET":"成功路","SECT":" ","MAREA":" ","LANE":" ","ALLEY":" ","HOUSE_NO":"１１６號","E_COORD97":181656.76999999999,"N_COORD97":2540439.27,"ADDRESS":"成功路１１６號","OBJECTID":90024},"geometry":{"x":181656.76999999955,"y":2540439.2700000014}},{"attributes":{"ID":90025,"DIS_CODE":0,"TOWNNAME":"新市區","LI":"大社里","LIN":"12鄰","STREET":" ","SECT":" ","MAREA":"大社","LANE":" ","ALLEY":" ","HOUSE_NO":"３０２之１號","E_COORD97":180204.09,"N_COORD97":2554634.5499999998,"ADDRESS":"大社３０２之１號","OBJECTID":90025},"geometry":{"x":180204.08999999985,"y":2554634.5500000026}},{"attributes":{"ID":90026,"DIS_CODE":0,"TOWNNAME":"新市區","LI":"大社里","LIN":"12鄰","STREET":" ","SECT":" ","MAREA":"大社","LANE":" ","ALLEY":" ","HOUSE_NO":"３００號","E_COORD97":180254.63,"N_COORD97":2554615.5,"ADDRESS":"大社３００號","OBJECTID":90026},"geometry":{"x":180254.62999999989,"y":2554615.5}},{"attributes":{"ID":90027,"DIS_CODE":0,"TOWNNAME":"將軍區","LI":"長榮里","LIN":"12鄰","STREET":" ","SECT":" ","MAREA":"長榮","LANE":" ","ALLEY":" ","HOUSE_NO":"１６９號","E_COORD97":164185.82999999999,"N_COORD97":2564907.8100000001,"ADDRESS":"長榮１６９號","OBJECTID":90027},"geometry":{"x":164185.83000000101,"y":2564907.8100000024}},{"attributes":{"ID":90028,"DIS_CODE":0,"TOWNNAME":"將軍區","LI":"長榮里","LIN":"12鄰","STREET":" ","SECT":" ","MAREA":"長榮","LANE":" ","ALLEY":" ","HOUSE_NO":"１７０號","E_COORD97":164162.64999999999,"N_COORD97":2564899.0600000001,"ADDRESS":"長榮１７０號","OBJECTID":90028},"geometry":{"x":164162.65000000037,"y":2564899.0600000042}},{"attributes":{"ID":90029,"DIS_CODE":0,"TOWNNAME":"將軍區","LI":"長榮里","LIN":"12鄰","STREET":" ","SECT":" ","MAREA":"長榮","LANE":" ","ALLEY":" ","HOUSE_NO":"１７２號","E_COORD97":164196.79999999999,"N_COORD97":2564888.9700000002,"ADDRESS":"長榮１７２號","OBJECTID":90029},"geometry":{"x":164196.80000000168,"y":2564888.9700000007}},{"attributes":{"ID":90030,"DIS_CODE":0,"TOWNNAME":"將軍區","LI":"長榮里","LIN":"12鄰","STREET":" ","SECT":" ","MAREA":"長榮","LANE":" ","ALLEY":" ","HOUSE_NO":"１７３號","E_COORD97":163932.35000000001,"N_COORD97":2565272.23,"ADDRESS":"長榮１７３號","OBJECTID":90030},"geometry":{"x":163932.35000000056,"y":2565272.2300000023}},{"attributes":{"ID":90031,"DIS_CODE":0,"TOWNNAME":"將軍區","LI":"長榮里","LIN":"12鄰","STREET":" ","SECT":" ","MAREA":"長榮","LANE":" ","ALLEY":" ","HOUSE_NO":"１７７之１號","E_COORD97":163731.64000000001,"N_COORD97":2565307.02,"ADDRESS":"長榮１７７之１號","OBJECTID":90031},"geometry":{"x":163731.64000000153,"y":2565307.0199999996}},{"attributes":{"ID":90032,"DIS_CODE":0,"TOWNNAME":"將軍區","LI":"長榮里","LIN":"12鄰","STREET":" ","SECT":" ","MAREA":"長榮","LANE":" ","ALLEY":" ","HOUSE_NO":"１７７號","E_COORD97":163768.34,"N_COORD97":2565315.0800000001,"ADDRESS":"長榮１７７號","OBJECTID":90032},"geometry":{"x":163768.34000000078,"y":2565315.0800000001}},{"attributes":{"ID":90033,"DIS_CODE":0,"TOWNNAME":"將軍區","LI":"長榮里","LIN":"12鄰","STREET":" ","SECT":" ","MAREA":"長榮","LANE":" ","ALLEY":" ","HOUSE_NO":"１７８號","E_COORD97":163799.87,"N_COORD97":2565382.9500000002,"ADDRESS":"長榮１７８號","OBJECTID":90033},"geometry":{"x":163799.87000000011,"y":2565382.9499999974}},{"attributes":{"ID":90034,"DIS_CODE":0,"TOWNNAME":"將軍區","LI":"長榮里","LIN":"12鄰","STREET":" ","SECT":" ","MAREA":"長榮","LANE":" ","ALLEY":" ","HOUSE_NO":"１７９之１６號","E_COORD97":163585.70999999999,"N_COORD97":2565549.3399999999,"ADDRESS":"長榮１７９之１６號","OBJECTID":90034},"geometry":{"x":163585.71000000183,"y":2565549.3399999999}},{"attributes":{"ID":90035,"DIS_CODE":0,"TOWNNAME":"將軍區","LI":"長榮里","LIN":"12鄰","STREET":" ","SECT":" ","MAREA":"長榮","LANE":" ","ALLEY":" ","HOUSE_NO":"１７９之２６號","E_COORD97":163464.54000000001,"N_COORD97":2565538.1600000001,"ADDRESS":"長榮１７９之２６號","OBJECTID":90035},"geometry":{"x":163464.54000000004,"y":2565538.1600000001}},{"attributes":{"ID":90036,"DIS_CODE":0,"TOWNNAME":"將軍區","LI":"長榮里","LIN":"12鄰","STREET":" ","SECT":" ","MAREA":"長榮","LANE":" ","ALLEY":" ","HOUSE_NO":"１７９號","E_COORD97":163815.57999999999,"N_COORD97":2565574.27,"ADDRESS":"長榮１７９號","OBJECTID":90036},"geometry":{"x":163815.58000000194,"y":2565574.2699999996}},{"attributes":{"ID":90037,"DIS_CODE":0,"TOWNNAME":"將軍區","LI":"長榮里","LIN":"12鄰","STREET":" ","SECT":" ","MAREA":"長榮","LANE":" ","ALLEY":" ","HOUSE_NO":"１８０之２６號","E_COORD97":163775.64999999999,"N_COORD97":2565767.52,"ADDRESS":"長榮１８０之２６號","OBJECTID":90037},"geometry":{"x":163775.65000000037,"y":2565767.5200000014}},{"attributes":{"ID":90038,"DIS_CODE":0,"TOWNNAME":"北區","LI":"仁愛里","LIN":"10鄰","STREET":"東豐路","SECT":" ","MAREA":" ","LANE":"２２７巷","ALLEY":"２４弄","HOUSE_NO":"１５號三樓之１１","E_COORD97":170217.23000000001,"N_COORD97":2544981.3199999998,"ADDRESS":"東豐路２２７巷２４弄１５號三樓之１１","OBJECTID":90038},"geometry":{"x":170217.23000000045,"y":2544981.3200000003}},{"attributes":{"ID":90039,"DIS_CODE":0,"TOWNNAME":"北區","LI":"仁愛里","LIN":"10鄰","STREET":"東豐路","SECT":" ","MAREA":" ","LANE":"２２７巷","ALLEY":"２４弄","HOUSE_NO":"１５號三樓之１２","E_COORD97":170217.23000000001,"N_COORD97":2544981.3199999998,"ADDRESS":"東豐路２２７巷２４弄１５號三樓之１２","OBJECTID":90039},"geometry":{"x":170217.23000000045,"y":2544981.3200000003}},{"attributes":{"ID":90040,"DIS_CODE":0,"TOWNNAME":"北區","LI":"仁愛里","LIN":"10鄰","STREET":"東豐路","SECT":" ","MAREA":" ","LANE":"２２７巷","ALLEY":"２４弄","HOUSE_NO":"１５號三樓之１３","E_COORD97":170217.23000000001,"N_COORD97":2544981.3199999998,"ADDRESS":"東豐路２２７巷２４弄１５號三樓之１３","OBJECTID":90040},"geometry":{"x":170217.23000000045,"y":2544981.3200000003}},{"attributes":{"ID":90041,"DIS_CODE":0,"TOWNNAME":"北區","LI":"仁愛里","LIN":"10鄰","STREET":"東豐路","SECT":" ","MAREA":" ","LANE":"２２７巷","ALLEY":"２４弄","HOUSE_NO":"１５號三樓之１４","E_COORD97":170217.23000000001,"N_COORD97":2544981.3199999998,"ADDRESS":"東豐路２２７巷２４弄１５號三樓之１４","OBJECTID":90041},"geometry":{"x":170217.23000000045,"y":2544981.3200000003}},{"attributes":{"ID":90042,"DIS_CODE":0,"TOWNNAME":"安南區","LI":"幸福里","LIN":"21鄰","STREET":"國安街","SECT":" ","MAREA":" ","LANE":"１５５巷","ALLEY":"４０弄","HOUSE_NO":"１２號","E_COORD97":166729.45000000001,"N_COORD97":2546854.0899999999,"ADDRESS":"國安街１５５巷４０弄１２號","OBJECTID":90042},"geometry":{"x":166729.45000000112,"y":2546854.0899999999}},{"attributes":{"ID":90043,"DIS_CODE":0,"TOWNNAME":"北區","LI":"仁愛里","LIN":"10鄰","STREET":"東豐路","SECT":" ","MAREA":" ","LANE":"２２７巷","ALLEY":"２４弄","HOUSE_NO":"１５號三樓之１５","E_COORD97":170217.23000000001,"N_COORD97":2544981.3199999998,"ADDRESS":"東豐路２２７巷２４弄１５號三樓之１５","OBJECTID":90043},"geometry":{"x":170217.23000000045,"y":2544981.3200000003}},{"attributes":{"ID":90044,"DIS_CODE":0,"TOWNNAME":"北區","LI":"仁愛里","LIN":"10鄰","STREET":"東豐路","SECT":" ","MAREA":" ","LANE":"２２７巷","ALLEY":"２４弄","HOUSE_NO":"１５號三樓之１６","E_COORD97":170217.23000000001,"N_COORD97":2544981.3199999998,"ADDRESS":"東豐路２２７巷２４弄１５號三樓之１６","OBJECTID":90044},"geometry":{"x":170217.23000000045,"y":2544981.3200000003}},{"attributes":{"ID":90045,"DIS_CODE":0,"TOWNNAME":"北區","LI":"仁愛里","LIN":"10鄰","STREET":"東豐路","SECT":" ","MAREA":" ","LANE":"２２７巷","ALLEY":"２４弄","HOUSE_NO":"１５號三樓之１７","E_COORD97":170217.23000000001,"N_COORD97":2544981.3199999998,"ADDRESS":"東豐路２２７巷２４弄１５號三樓之１７","OBJECTID":90045},"geometry":{"x":170217.23000000045,"y":2544981.3200000003}},{"attributes":{"ID":90046,"DIS_CODE":0,"TOWNNAME":"北區","LI":"仁愛里","LIN":"10鄰","STREET":"東豐路","SECT":" ","MAREA":" ","LANE":"２２７巷","ALLEY":"２４弄","HOUSE_NO":"１５號三樓之１８","E_COORD97":170217.23000000001,"N_COORD97":2544981.3199999998,"ADDRESS":"東豐路２２７巷２４弄１５號三樓之１８","OBJECTID":90046},"geometry":{"x":170217.23000000045,"y":2544981.3200000003}},{"attributes":{"ID":90047,"DIS_CODE":0,"TOWNNAME":"北區","LI":"仁愛里","LIN":"10鄰","STREET":"東豐路","SECT":" ","MAREA":" ","LANE":"２２７巷","ALLEY":"２４弄","HOUSE_NO":"１５號三樓之１９","E_COORD97":170217.23000000001,"N_COORD97":2544981.3199999998,"ADDRESS":"東豐路２２７巷２４弄１５號三樓之１９","OBJECTID":90047},"geometry":{"x":170217.23000000045,"y":2544981.3200000003}},{"attributes":{"ID":90048,"DIS_CODE":0,"TOWNNAME":"北區","LI":"仁愛里","LIN":"10鄰","STREET":"東豐路","SECT":" ","MAREA":" ","LANE":"２２７巷","ALLEY":"２４弄","HOUSE_NO":"１５號三樓之２","E_COORD97":170217.23000000001,"N_COORD97":2544981.3199999998,"ADDRESS":"東豐路２２７巷２４弄１５號三樓之２","OBJECTID":90048},"geometry":{"x":170217.23000000045,"y":2544981.3200000003}},{"attributes":{"ID":90049,"DIS_CODE":0,"TOWNNAME":"北區","LI":"仁愛里","LIN":"10鄰","STREET":"東豐路","SECT":" ","MAREA":" ","LANE":"２２７巷","ALLEY":"２４弄","HOUSE_NO":"１５號三樓之２０","E_COORD97":170217.23000000001,"N_COORD97":2544981.3199999998,"ADDRESS":"東豐路２２７巷２４弄１５號三樓之２０","OBJECTID":90049},"geometry":{"x":170217.23000000045,"y":2544981.3200000003}},{"attributes":{"ID":90050,"DIS_CODE":0,"TOWNNAME":"北區","LI":"仁愛里","LIN":"10鄰","STREET":"東豐路","SECT":" ","MAREA":" ","LANE":"２２７巷","ALLEY":"２４弄","HOUSE_NO":"１５號三樓之２１","E_COORD97":170217.23000000001,"N_COORD97":2544981.3199999998,"ADDRESS":"東豐路２２７巷２４弄１５號三樓之２１","OBJECTID":90050},"geometry":{"x":170217.23000000045,"y":2544981.3200000003}},{"attributes":{"ID":90051,"DIS_CODE":0,"TOWNNAME":"將軍區","LI":"廣山里","LIN":"10鄰","STREET":" ","SECT":" ","MAREA":"廣山","LANE":" ","ALLEY":" ","HOUSE_NO":"９１號","E_COORD97":159509.85999999999,"N_COORD97":2568955.1499999999,"ADDRESS":"廣山９１號","OBJECTID":90051},"geometry":{"x":159509.8600000022,"y":2568955.1500000004}},{"attributes":{"ID":90052,"DIS_CODE":0,"TOWNNAME":"北區","LI":"仁愛里","LIN":"10鄰","STREET":"東豐路","SECT":" ","MAREA":" ","LANE":"２２７巷","ALLEY":"２４弄","HOUSE_NO":"１５號三樓之２２","E_COORD97":170217.23000000001,"N_COORD97":2544981.3199999998,"ADDRESS":"東豐路２２７巷２４弄１５號三樓之２２","OBJECTID":90052},"geometry":{"x":170217.23000000045,"y":2544981.3200000003}},{"attributes":{"ID":90053,"DIS_CODE":0,"TOWNNAME":"北區","LI":"仁愛里","LIN":"10鄰","STREET":"東豐路","SECT":" ","MAREA":" ","LANE":"２２７巷","ALLEY":"２４弄","HOUSE_NO":"１５號三樓之２３","E_COORD97":170217.23000000001,"N_COORD97":2544981.3199999998,"ADDRESS":"東豐路２２７巷２４弄１５號三樓之２３","OBJECTID":90053},"geometry":{"x":170217.23000000045,"y":2544981.3200000003}},{"attributes":{"ID":90054,"DIS_CODE":0,"TOWNNAME":"北區","LI":"仁愛里","LIN":"10鄰","STREET":"東豐路","SECT":" ","MAREA":" ","LANE":"２２７巷","ALLEY":"２４弄","HOUSE_NO":"１５號三樓之２４","E_COORD97":170217.23000000001,"N_COORD97":2544981.3199999998,"ADDRESS":"東豐路２２７巷２４弄１５號三樓之２４","OBJECTID":90054},"geometry":{"x":170217.23000000045,"y":2544981.3200000003}},{"attributes":{"ID":90055,"DIS_CODE":0,"TOWNNAME":"北區","LI":"仁愛里","LIN":"10鄰","STREET":"東豐路","SECT":" ","MAREA":" ","LANE":"２２７巷","ALLEY":"２４弄","HOUSE_NO":"１５號三樓之２５","E_COORD97":170217.23000000001,"N_COORD97":2544981.3199999998,"ADDRESS":"東豐路２２７巷２４弄１５號三樓之２５","OBJECTID":90055},"geometry":{"x":170217.23000000045,"y":2544981.3200000003}},{"attributes":{"ID":90056,"DIS_CODE":0,"TOWNNAME":"北區","LI":"仁愛里","LIN":"10鄰","STREET":"東豐路","SECT":" ","MAREA":" ","LANE":"２２７巷","ALLEY":"２４弄","HOUSE_NO":"１５號三樓之２６","E_COORD97":170217.23000000001,"N_COORD97":2544981.3199999998,"ADDRESS":"東豐路２２７巷２４弄１５號三樓之２６","OBJECTID":90056},"geometry":{"x":170217.23000000045,"y":2544981.3200000003}},{"attributes":{"ID":90057,"DIS_CODE":0,"TOWNNAME":"北區","LI":"仁愛里","LIN":"10鄰","STREET":"東豐路","SECT":" ","MAREA":" ","LANE":"２２７巷","ALLEY":"２４弄","HOUSE_NO":"１５號三樓之２７","E_COORD97":170217.23000000001,"N_COORD97":2544981.3199999998,"ADDRESS":"東豐路２２７巷２４弄１５號三樓之２７","OBJECTID":90057},"geometry":{"x":170217.23000000045,"y":2544981.3200000003}},{"attributes":{"ID":90058,"DIS_CODE":0,"TOWNNAME":"北區","LI":"仁愛里","LIN":"10鄰","STREET":"東豐路","SECT":" ","MAREA":" ","LANE":"２２７巷","ALLEY":"２４弄","HOUSE_NO":"１５號三樓之２８","E_COORD97":170217.23000000001,"N_COORD97":2544981.3199999998,"ADDRESS":"東豐路２２７巷２４弄１５號三樓之２８","OBJECTID":90058},"geometry":{"x":170217.23000000045,"y":2544981.3200000003}},{"attributes":{"ID":90059,"DIS_CODE":0,"TOWNNAME":"北區","LI":"仁愛里","LIN":"10鄰","STREET":"東豐路","SECT":" ","MAREA":" ","LANE":"２２７巷","ALLEY":"２４弄","HOUSE_NO":"１５號三樓之３","E_COORD97":170217.23000000001,"N_COORD97":2544981.3199999998,"ADDRESS":"東豐路２２７巷２４弄１５號三樓之３","OBJECTID":90059},"geometry":{"x":170217.23000000045,"y":2544981.3200000003}},{"attributes":{"ID":90060,"DIS_CODE":0,"TOWNNAME":"關廟區","LI":"五甲里","LIN":"8鄰","STREET":"大富街","SECT":" ","MAREA":" ","LANE":" ","ALLEY":" ","HOUSE_NO":"１５３號","E_COORD97":181063.26999999999,"N_COORD97":2539282.25,"ADDRESS":"大富街１５３號","OBJECTID":90060},"geometry":{"x":181063.26999999955,"y":2539282.25}},{"attributes":{"ID":90061,"DIS_CODE":0,"TOWNNAME":"北區","LI":"仁愛里","LIN":"10鄰","STREET":"東豐路","SECT":" ","MAREA":" ","LANE":"２２７巷","ALLEY":"２４弄","HOUSE_NO":"１５號三樓之４","E_COORD97":170217.23000000001,"N_COORD97":2544981.3199999998,"ADDRESS":"東豐路２２７巷２４弄１５號三樓之４","OBJECTID":90061},"geometry":{"x":170217.23000000045,"y":2544981.3200000003}},{"attributes":{"ID":90062,"DIS_CODE":0,"TOWNNAME":"北區","LI":"仁愛里","LIN":"10鄰","STREET":"東豐路","SECT":" ","MAREA":" ","LANE":"２２７巷","ALLEY":"２４弄","HOUSE_NO":"１５號三樓之５","E_COORD97":170217.23000000001,"N_COORD97":2544981.3199999998,"ADDRESS":"東豐路２２７巷２４弄１５號三樓之５","OBJECTID":90062},"geometry":{"x":170217.23000000045,"y":2544981.3200000003}},{"attributes":{"ID":90063,"DIS_CODE":0,"TOWNNAME":"北區","LI":"仁愛里","LIN":"10鄰","STREET":"東豐路","SECT":" ","MAREA":" ","LANE":"２２７巷","ALLEY":"２４弄","HOUSE_NO":"１５號三樓之６","E_COORD97":170217.23000000001,"N_COORD97":2544981.3199999998,"ADDRESS":"東豐路２２７巷２４弄１５號三樓之６","OBJECTID":90063},"geometry":{"x":170217.23000000045,"y":2544981.3200000003}},{"attributes":{"ID":90064,"DIS_CODE":0,"TOWNNAME":"北區","LI":"仁愛里","LIN":"10鄰","STREET":"東豐路","SECT":" ","MAREA":" ","LANE":"２２７巷","ALLEY":"２４弄","HOUSE_NO":"１５號三樓之７","E_COORD97":170217.23000000001,"N_COORD97":2544981.3199999998,"ADDRESS":"東豐路２２７巷２４弄１５號三樓之７","OBJECTID":90064},"geometry":{"x":170217.23000000045,"y":2544981.3200000003}},{"attributes":{"ID":90065,"DIS_CODE":0,"TOWNNAME":"北區","LI":"仁愛里","LIN":"10鄰","STREET":"東豐路","SECT":" ","MAREA":" ","LANE":"２２７巷","ALLEY":"２４弄","HOUSE_NO":"１５號三樓之８","E_COORD97":170217.23000000001,"N_COORD97":2544981.3199999998,"ADDRESS":"東豐路２２７巷２４弄１５號三樓之８","OBJECTID":90065},"geometry":{"x":170217.23000000045,"y":2544981.3200000003}},{"attributes":{"ID":90066,"DIS_CODE":0,"TOWNNAME":"北區","LI":"仁愛里","LIN":"10鄰","STREET":"東豐路","SECT":" ","MAREA":" ","LANE":"２２７巷","ALLEY":"２４弄","HOUSE_NO":"１５號三樓之９","E_COORD97":170217.23000000001,"N_COORD97":2544981.3199999998,"ADDRESS":"東豐路２２７巷２４弄１５號三樓之９","OBJECTID":90066},"geometry":{"x":170217.23000000045,"y":2544981.3200000003}},{"attributes":{"ID":90067,"DIS_CODE":0,"TOWNNAME":"北區","LI":"仁愛里","LIN":"10鄰","STREET":"東豐路","SECT":" ","MAREA":" ","LANE":"２２７巷","ALLEY":"２４弄","HOUSE_NO":"１５號五樓之１","E_COORD97":170217.23000000001,"N_COORD97":2544981.3199999998,"ADDRESS":"東豐路２２７巷２４弄１５號五樓之１","OBJECTID":90067},"geometry":{"x":170217.23000000045,"y":2544981.3200000003}},{"attributes":{"ID":90068,"DIS_CODE":0,"TOWNNAME":"北區","LI":"仁愛里","LIN":"10鄰","STREET":"東豐路","SECT":" ","MAREA":" ","LANE":"２２７巷","ALLEY":"２４弄","HOUSE_NO":"１５號五樓之１０","E_COORD97":170217.23000000001,"N_COORD97":2544981.3199999998,"ADDRESS":"東豐路２２７巷２４弄１５號五樓之１０","OBJECTID":90068},"geometry":{"x":170217.23000000045,"y":2544981.3200000003}},{"attributes":{"ID":90069,"DIS_CODE":0,"TOWNNAME":"北區","LI":"仁愛里","LIN":"10鄰","STREET":"東豐路","SECT":" ","MAREA":" ","LANE":"２２７巷","ALLEY":"２４弄","HOUSE_NO":"１５號五樓之１１","E_COORD97":170217.23000000001,"N_COORD97":2544981.3199999998,"ADDRESS":"東豐路２２７巷２４弄１５號五樓之１１","OBJECTID":90069},"geometry":{"x":170217.23000000045,"y":2544981.3200000003}},{"attributes":{"ID":90070,"DIS_CODE":0,"TOWNNAME":"北區","LI":"仁愛里","LIN":"10鄰","STREET":"東豐路","SECT":" ","MAREA":" ","LANE":"２２７巷","ALLEY":"２４弄","HOUSE_NO":"１５號五樓之１２","E_COORD97":170217.23000000001,"N_COORD97":2544981.3199999998,"ADDRESS":"東豐路２２７巷２４弄１５號五樓之１２","OBJECTID":90070},"geometry":{"x":170217.23000000045,"y":2544981.3200000003}},{"attributes":{"ID":90071,"DIS_CODE":0,"TOWNNAME":"北區","LI":"仁愛里","LIN":"10鄰","STREET":"東豐路","SECT":" ","MAREA":" ","LANE":"２２７巷","ALLEY":"２４弄","HOUSE_NO":"１５號五樓之１３","E_COORD97":170217.23000000001,"N_COORD97":2544981.3199999998,"ADDRESS":"東豐路２２７巷２４弄１５號五樓之１３","OBJECTID":90071},"geometry":{"x":170217.23000000045,"y":2544981.3200000003}},{"attributes":{"ID":90072,"DIS_CODE":0,"TOWNNAME":"北區","LI":"仁愛里","LIN":"10鄰","STREET":"東豐路","SECT":" ","MAREA":" ","LANE":"２２７巷","ALLEY":"２４弄","HOUSE_NO":"１５號五樓之１４","E_COORD97":170217.23000000001,"N_COORD97":2544981.3199999998,"ADDRESS":"東豐路２２７巷２４弄１５號五樓之１４","OBJECTID":90072},"geometry":{"x":170217.23000000045,"y":2544981.3200000003}},{"attributes":{"ID":90073,"DIS_CODE":0,"TOWNNAME":"北區","LI":"仁愛里","LIN":"10鄰","STREET":"東豐路","SECT":" ","MAREA":" ","LANE":"２２７巷","ALLEY":"２４弄","HOUSE_NO":"１５號五樓之１５","E_COORD97":170217.23000000001,"N_COORD97":2544981.3199999998,"ADDRESS":"東豐路２２７巷２４弄１５號五樓之１５","OBJECTID":90073},"geometry":{"x":170217.23000000045,"y":2544981.3200000003}},{"attributes":{"ID":90074,"DIS_CODE":0,"TOWNNAME":"北區","LI":"仁愛里","LIN":"10鄰","STREET":"東豐路","SECT":" ","MAREA":" ","LANE":"２２７巷","ALLEY":"２４弄","HOUSE_NO":"１５號五樓之１６","E_COORD97":170217.23000000001,"N_COORD97":2544981.3199999998,"ADDRESS":"東豐路２２７巷２４弄１５號五樓之１６","OBJECTID":90074},"geometry":{"x":170217.23000000045,"y":2544981.3200000003}},{"attributes":{"ID":90075,"DIS_CODE":0,"TOWNNAME":"北區","LI":"仁愛里","LIN":"10鄰","STREET":"東豐路","SECT":" ","MAREA":" ","LANE":"２２７巷","ALLEY":"２４弄","HOUSE_NO":"１５號五樓之１７","E_COORD97":170217.23000000001,"N_COORD97":2544981.3199999998,"ADDRESS":"東豐路２２７巷２４弄１５號五樓之１７","OBJECTID":90075},"geometry":{"x":170217.23000000045,"y":2544981.3200000003}},{"attributes":{"ID":90076,"DIS_CODE":0,"TOWNNAME":"北區","LI":"仁愛里","LIN":"10鄰","STREET":"東豐路","SECT":" ","MAREA":" ","LANE":"２２７巷","ALLEY":"２４弄","HOUSE_NO":"１５號五樓之１８","E_COORD97":170217.23000000001,"N_COORD97":2544981.3199999998,"ADDRESS":"東豐路２２７巷２４弄１５號五樓之１８","OBJECTID":90076},"geometry":{"x":170217.23000000045,"y":2544981.3200000003}},{"attributes":{"ID":90077,"DIS_CODE":0,"TOWNNAME":"北區","LI":"仁愛里","LIN":"10鄰","STREET":"東豐路","SECT":" ","MAREA":" ","LANE":"２２７巷","ALLEY":"２４弄","HOUSE_NO":"１５號五樓之１９","E_COORD97":170217.23000000001,"N_COORD97":2544981.3199999998,"ADDRESS":"東豐路２２７巷２４弄１５號五樓之１９","OBJECTID":90077},"geometry":{"x":170217.23000000045,"y":2544981.3200000003}},{"attributes":{"ID":90078,"DIS_CODE":0,"TOWNNAME":"北區","LI":"仁愛里","LIN":"10鄰","STREET":"東豐路","SECT":" ","MAREA":" ","LANE":"２２７巷","ALLEY":"２４弄","HOUSE_NO":"１５號五樓之２","E_COORD97":170217.23000000001,"N_COORD97":2544981.3199999998,"ADDRESS":"東豐路２２７巷２４弄１５號五樓之２","OBJECTID":90078},"geometry":{"x":170217.23000000045,"y":2544981.3200000003}},{"attributes":{"ID":90079,"DIS_CODE":0,"TOWNNAME":"北區","LI":"仁愛里","LIN":"10鄰","STREET":"東豐路","SECT":" ","MAREA":" ","LANE":"２２７巷","ALLEY":"２４弄","HOUSE_NO":"１５號五樓之２０","E_COORD97":170217.23000000001,"N_COORD97":2544981.3199999998,"ADDRESS":"東豐路２２７巷２４弄１５號五樓之２０","OBJECTID":90079},"geometry":{"x":170217.23000000045,"y":2544981.3200000003}},{"attributes":{"ID":90080,"DIS_CODE":0,"TOWNNAME":"北區","LI":"仁愛里","LIN":"10鄰","STREET":"東豐路","SECT":" ","MAREA":" ","LANE":"２２７巷","ALLEY":"２４弄","HOUSE_NO":"１５號五樓之２１","E_COORD97":170217.23000000001,"N_COORD97":2544981.3199999998,"ADDRESS":"東豐路２２７巷２４弄１５號五樓之２１","OBJECTID":90080},"geometry":{"x":170217.23000000045,"y":2544981.3200000003}},{"attributes":{"ID":90081,"DIS_CODE":0,"TOWNNAME":"北區","LI":"仁愛里","LIN":"10鄰","STREET":"東豐路","SECT":" ","MAREA":" ","LANE":"２２７巷","ALLEY":"２４弄","HOUSE_NO":"１５號五樓之２２","E_COORD97":170217.23000000001,"N_COORD97":2544981.3199999998,"ADDRESS":"東豐路２２７巷２４弄１５號五樓之２２","OBJECTID":90081},"geometry":{"x":170217.23000000045,"y":2544981.3200000003}},{"attributes":{"ID":90082,"DIS_CODE":0,"TOWNNAME":"將軍區","LI":"長榮里","LIN":"12鄰","STREET":" ","SECT":" ","MAREA":"長榮","LANE":" ","ALLEY":" ","HOUSE_NO":"１８０之２９號","E_COORD97":163805.78,"N_COORD97":2565727.0299999998,"ADDRESS":"長榮１８０之２９號","OBJECTID":90082},"geometry":{"x":163805.77999999933,"y":2565727.0299999993}},{"attributes":{"ID":90083,"DIS_CODE":0,"TOWNNAME":"將軍區","LI":"長榮里","LIN":"12鄰","STREET":" ","SECT":" ","MAREA":"長榮","LANE":" ","ALLEY":" ","HOUSE_NO":"１８０之３０號","E_COORD97":163820.42000000001,"N_COORD97":2565774.25,"ADDRESS":"長榮１８０之３０號","OBJECTID":90083},"geometry":{"x":163820.42000000086,"y":2565774.25}},{"attributes":{"ID":90084,"DIS_CODE":0,"TOWNNAME":"將軍區","LI":"長榮里","LIN":"12鄰","STREET":" ","SECT":" ","MAREA":"長榮","LANE":" ","ALLEY":" ","HOUSE_NO":"１８４號","E_COORD97":163802.51000000001,"N_COORD97":2565943.21,"ADDRESS":"長榮１８４號","OBJECTID":90084},"geometry":{"x":163802.51000000071,"y":2565943.2100000028}},{"attributes":{"ID":90085,"DIS_CODE":0,"TOWNNAME":"將軍區","LI":"長榮里","LIN":"12鄰","STREET":" ","SECT":" ","MAREA":"長榮","LANE":" ","ALLEY":" ","HOUSE_NO":"１８５號","E_COORD97":163743.47,"N_COORD97":2565933.6699999999,"ADDRESS":"長榮１８５號","OBJECTID":90085},"geometry":{"x":163743.47000000067,"y":2565933.6699999999}},{"attributes":{"ID":90086,"DIS_CODE":0,"TOWNNAME":"將軍區","LI":"長榮里","LIN":"12鄰","STREET":" ","SECT":" ","MAREA":"長榮","LANE":" ","ALLEY":" ","HOUSE_NO":"１８９之１０號","E_COORD97":163575.17999999999,"N_COORD97":2566102.5800000001,"ADDRESS":"長榮１８９之１０號","OBJECTID":90086},"geometry":{"x":163575.1799999997,"y":2566102.5800000019}},{"attributes":{"ID":90087,"DIS_CODE":0,"TOWNNAME":"將軍區","LI":"長榮里","LIN":"12鄰","STREET":" ","SECT":" ","MAREA":"長榮","LANE":" ","ALLEY":" ","HOUSE_NO":"１８９之１１號","E_COORD97":163577.72,"N_COORD97":2566097.79,"ADDRESS":"長榮１８９之１１號","OBJECTID":90087},"geometry":{"x":163577.72000000067,"y":2566097.7899999991}},{"attributes":{"ID":90088,"DIS_CODE":0,"TOWNNAME":"將軍區","LI":"長榮里","LIN":"12鄰","STREET":" ","SECT":" ","MAREA":"長榮","LANE":" ","ALLEY":" ","HOUSE_NO":"１８９之１２號","E_COORD97":163580.26000000001,"N_COORD97":2566093.0099999998,"ADDRESS":"長榮１８９之１２號","OBJECTID":90088},"geometry":{"x":163580.26000000071,"y":2566093.0100000016}},{"attributes":{"ID":90089,"DIS_CODE":0,"TOWNNAME":"將軍區","LI":"長榮里","LIN":"12鄰","STREET":" ","SECT":" ","MAREA":"長榮","LANE":" ","ALLEY":" ","HOUSE_NO":"１８９之１３號","E_COORD97":163582.79999999999,"N_COORD97":2566088.2200000002,"ADDRESS":"長榮１８９之１３號","OBJECTID":90089},"geometry":{"x":163582.79999999981,"y":2566088.2200000044}},{"attributes":{"ID":90090,"DIS_CODE":0,"TOWNNAME":"將軍區","LI":"長榮里","LIN":"12鄰","STREET":" ","SECT":" ","MAREA":"長榮","LANE":" ","ALLEY":" ","HOUSE_NO":"１８９之１５號","E_COORD97":163585.37,"N_COORD97":2566083.3799999999,"ADDRESS":"長榮１８９之１５號","OBJECTID":90090},"geometry":{"x":163585.37000000104,"y":2566083.3800000008}},{"attributes":{"ID":90091,"DIS_CODE":0,"TOWNNAME":"將軍區","LI":"長榮里","LIN":"12鄰","STREET":" ","SECT":" ","MAREA":"長榮","LANE":" ","ALLEY":" ","HOUSE_NO":"１８９之１６號","E_COORD97":163587.85000000001,"N_COORD97":2566078.5699999998,"ADDRESS":"長榮１８９之１６號","OBJECTID":90091},"geometry":{"x":163587.85000000149,"y":2566078.570000004}},{"attributes":{"ID":90092,"DIS_CODE":0,"TOWNNAME":"將軍區","LI":"長榮里","LIN":"12鄰","STREET":" ","SECT":" ","MAREA":"長榮","LANE":" ","ALLEY":" ","HOUSE_NO":"１８９之１７號","E_COORD97":163587.28,"N_COORD97":2566072.1499999999,"ADDRESS":"長榮１８９之１７號","OBJECTID":90092},"geometry":{"x":163587.28000000212,"y":2566072.1500000022}},{"attributes":{"ID":90093,"DIS_CODE":0,"TOWNNAME":"將軍區","LI":"長榮里","LIN":"12鄰","STREET":" ","SECT":" ","MAREA":"長榮","LANE":" ","ALLEY":" ","HOUSE_NO":"１８９之１號","E_COORD97":163603.26000000001,"N_COORD97":2566069.8700000001,"ADDRESS":"長榮１８９之１號","OBJECTID":90093},"geometry":{"x":163603.25999999978,"y":2566069.870000001}},{"attributes":{"ID":90094,"DIS_CODE":0,"TOWNNAME":"將軍區","LI":"長榮里","LIN":"12鄰","STREET":" ","SECT":" ","MAREA":"長榮","LANE":" ","ALLEY":" ","HOUSE_NO":"１８９之２號","E_COORD97":163603.01000000001,"N_COORD97":2566075.52,"ADDRESS":"長榮１８９之２號","OBJECTID":90094},"geometry":{"x":163603.00999999978,"y":2566075.5200000014}},{"attributes":{"ID":90095,"DIS_CODE":0,"TOWNNAME":"將軍區","LI":"長榮里","LIN":"12鄰","STREET":" ","SECT":" ","MAREA":"長榮","LANE":" ","ALLEY":" ","HOUSE_NO":"１８９之３號","E_COORD97":163602.73999999999,"N_COORD97":2566080.71,"ADDRESS":"長榮１８９之３號","OBJECTID":90095},"geometry":{"x":163602.74000000209,"y":2566080.7100000009}},{"attributes":{"ID":90096,"DIS_CODE":0,"TOWNNAME":"將軍區","LI":"長榮里","LIN":"12鄰","STREET":" ","SECT":" ","MAREA":"長榮","LANE":" ","ALLEY":" ","HOUSE_NO":"１８９之５號","E_COORD97":163602.45000000001,"N_COORD97":2566086.8500000001,"ADDRESS":"長榮１８９之５號","OBJECTID":90096},"geometry":{"x":163602.45000000019,"y":2566086.8500000015}},{"attributes":{"ID":90097,"DIS_CODE":0,"TOWNNAME":"將軍區","LI":"長榮里","LIN":"12鄰","STREET":" ","SECT":" ","MAREA":"長榮","LANE":" ","ALLEY":" ","HOUSE_NO":"１８９之６號","E_COORD97":163601.88,"N_COORD97":2566092.5899999999,"ADDRESS":"長榮１８９之６號","OBJECTID":90097},"geometry":{"x":163601.88000000082,"y":2566092.5900000017}},{"attributes":{"ID":90098,"DIS_CODE":0,"TOWNNAME":"將軍區","LI":"長榮里","LIN":"12鄰","STREET":" ","SECT":" ","MAREA":"長榮","LANE":" ","ALLEY":" ","HOUSE_NO":"１８９之７號","E_COORD97":163601.82000000001,"N_COORD97":2566097.8300000001,"ADDRESS":"長榮１８９之７號","OBJECTID":90098},"geometry":{"x":163601.8200000003,"y":2566097.8300000019}},{"attributes":{"ID":90099,"DIS_CODE":0,"TOWNNAME":"將軍區","LI":"長榮里","LIN":"12鄰","STREET":" ","SECT":" ","MAREA":"長榮","LANE":" ","ALLEY":" ","HOUSE_NO":"１８９之８號","E_COORD97":163601.34,"N_COORD97":2566105.7599999998,"ADDRESS":"長榮１８９之８號","OBJECTID":90099},"geometry":{"x":163601.33999999985,"y":2566105.7599999998}},{"attributes":{"ID":90100,"DIS_CODE":0,"TOWNNAME":"將軍區","LI":"長榮里","LIN":"12鄰","STREET":" ","SECT":" ","MAREA":"長榮","LANE":" ","ALLEY":" ","HOUSE_NO":"１８９之９號","E_COORD97":163601.59,"N_COORD97":2566108.6299999999,"ADDRESS":"長榮１８９之９號","OBJECTID":90100},"geometry":{"x":163601.59000000171,"y":2566108.6300000008}},{"attributes":{"ID":90101,"DIS_CODE":0,"TOWNNAME":"將軍區","LI":"長榮里","LIN":"12鄰","STREET":" ","SECT":" ","MAREA":"長榮","LANE":" ","ALLEY":" ","HOUSE_NO":"１８９號","E_COORD97":163598.97,"N_COORD97":2566032.2599999998,"ADDRESS":"長榮１８９號","OBJECTID":90101},"geometry":{"x":163598.9700000016,"y":2566032.2599999998}},{"attributes":{"ID":90102,"DIS_CODE":0,"TOWNNAME":"北區","LI":"仁愛里","LIN":"10鄰","STREET":"東豐路","SECT":" ","MAREA":" ","LANE":"２２７巷","ALLEY":"２４弄","HOUSE_NO":"１５號五樓之２３","E_COORD97":170217.23000000001,"N_COORD97":2544981.3199999998,"ADDRESS":"東豐路２２７巷２４弄１５號五樓之２３","OBJECTID":90102},"geometry":{"x":170217.23000000045,"y":2544981.3200000003}},{"attributes":{"ID":90103,"DIS_CODE":0,"TOWNNAME":"將軍區","LI":"長榮里","LIN":"12鄰","STREET":" ","SECT":" ","MAREA":"長榮","LANE":" ","ALLEY":" ","HOUSE_NO":"１９０號","E_COORD97":163681.17999999999,"N_COORD97":2565994.5699999998,"ADDRESS":"長榮１９０號","OBJECTID":90103},"geometry":{"x":163681.18000000063,"y":2565994.5700000022}},{"attributes":{"ID":90104,"DIS_CODE":0,"TOWNNAME":"將軍區","LI":"長榮里","LIN":"12鄰","STREET":" ","SECT":" ","MAREA":"長榮","LANE":" ","ALLEY":" ","HOUSE_NO":"１９１號","E_COORD97":163683.53,"N_COORD97":2566026.9100000001,"ADDRESS":"長榮１９１號","OBJECTID":90104},"geometry":{"x":163683.53000000026,"y":2566026.9100000001}},{"attributes":{"ID":90105,"DIS_CODE":0,"TOWNNAME":"將軍區","LI":"長榮里","LIN":"12鄰","STREET":" ","SECT":" ","MAREA":"長榮","LANE":" ","ALLEY":" ","HOUSE_NO":"１９２之２號","E_COORD97":163633.26000000001,"N_COORD97":2566054.96,"ADDRESS":"長榮１９２之２號","OBJECTID":90105},"geometry":{"x":163633.26000000071,"y":2566054.9600000009}},{"attributes":{"ID":90106,"DIS_CODE":0,"TOWNNAME":"將軍區","LI":"長榮里","LIN":"12鄰","STREET":" ","SECT":" ","MAREA":"長榮","LANE":" ","ALLEY":" ","HOUSE_NO":"１９２號","E_COORD97":163662.88,"N_COORD97":2566023.8199999998,"ADDRESS":"長榮１９２號","OBJECTID":90106},"geometry":{"x":163662.88000000082,"y":2566023.8200000022}},{"attributes":{"ID":90107,"DIS_CODE":0,"TOWNNAME":"將軍區","LI":"長榮里","LIN":"12鄰","STREET":" ","SECT":" ","MAREA":"長榮","LANE":" ","ALLEY":" ","HOUSE_NO":"１９３號","E_COORD97":163680.42999999999,"N_COORD97":2566060.96,"ADDRESS":"長榮１９３號","OBJECTID":90107},"geometry":{"x":163680.42999999877,"y":2566060.9600000028}},{"attributes":{"ID":90108,"DIS_CODE":0,"TOWNNAME":"柳營區","LI":"太康里","LIN":"12鄰","STREET":" ","SECT":" ","MAREA":"太康","LANE":" ","ALLEY":" ","HOUSE_NO":"１１７號之３","E_COORD97":181698.03,"N_COORD97":2576383.5299999998,"ADDRESS":"太康１１７號之３","OBJECTID":90108},"geometry":{"x":181698.03000000026,"y":2576383.5299999993}},{"attributes":{"ID":90109,"DIS_CODE":0,"TOWNNAME":"將軍區","LI":"廣山里","LIN":"10鄰","STREET":" ","SECT":" ","MAREA":"廣山","LANE":" ","ALLEY":" ","HOUSE_NO":"９２號","E_COORD97":159483.07000000001,"N_COORD97":2568967.6000000001,"ADDRESS":"廣山９２號","OBJECTID":90109},"geometry":{"x":159483.07000000123,"y":2568967.6000000015}},{"attributes":{"ID":90110,"DIS_CODE":0,"TOWNNAME":"柳營區","LI":"太康里","LIN":"12鄰","STREET":" ","SECT":" ","MAREA":"太康","LANE":" ","ALLEY":" ","HOUSE_NO":"１１８號","E_COORD97":181701.57999999999,"N_COORD97":2576403.5899999999,"ADDRESS":"太康１１８號","OBJECTID":90110},"geometry":{"x":181701.58000000194,"y":2576403.5899999999}},{"attributes":{"ID":90111,"DIS_CODE":0,"TOWNNAME":"柳營區","LI":"太康里","LIN":"12鄰","STREET":" ","SECT":" ","MAREA":"太康","LANE":" ","ALLEY":" ","HOUSE_NO":"１１９號","E_COORD97":181701.73999999999,"N_COORD97":2576434.7200000002,"ADDRESS":"太康１１９號","OBJECTID":90111},"geometry":{"x":181701.74000000022,"y":2576434.7200000007}},{"attributes":{"ID":90112,"DIS_CODE":0,"TOWNNAME":"柳營區","LI":"太康里","LIN":"12鄰","STREET":" ","SECT":" ","MAREA":"太康","LANE":" ","ALLEY":" ","HOUSE_NO":"１２０號","E_COORD97":181720.38,"N_COORD97":2576422.6099999999,"ADDRESS":"太康１２０號","OBJECTID":90112},"geometry":{"x":181720.38000000082,"y":2576422.6100000013}},{"attributes":{"ID":90113,"DIS_CODE":0,"TOWNNAME":"柳營區","LI":"太康里","LIN":"12鄰","STREET":" ","SECT":" ","MAREA":"太康","LANE":" ","ALLEY":" ","HOUSE_NO":"１２１號","E_COORD97":181721.57000000001,"N_COORD97":2576408.3199999998,"ADDRESS":"太康１２１號","OBJECTID":90113},"geometry":{"x":181721.5700000003,"y":2576408.3200000022}},{"attributes":{"ID":90114,"DIS_CODE":0,"TOWNNAME":"柳營區","LI":"太康里","LIN":"12鄰","STREET":" ","SECT":" ","MAREA":"太康","LANE":" ","ALLEY":" ","HOUSE_NO":"１２２之１０號","E_COORD97":181750.10999999999,"N_COORD97":2576385.5899999999,"ADDRESS":"太康１２２之１０號","OBJECTID":90114},"geometry":{"x":181750.11000000034,"y":2576385.5900000017}},{"attributes":{"ID":90115,"DIS_CODE":0,"TOWNNAME":"柳營區","LI":"太康里","LIN":"12鄰","STREET":" ","SECT":" ","MAREA":"太康","LANE":" ","ALLEY":" ","HOUSE_NO":"１２２之１１號","E_COORD97":181745.44,"N_COORD97":2576384.96,"ADDRESS":"太康１２２之１１號","OBJECTID":90115},"geometry":{"x":181745.44000000134,"y":2576384.9600000009}},{"attributes":{"ID":90116,"DIS_CODE":0,"TOWNNAME":"柳營區","LI":"太康里","LIN":"12鄰","STREET":" ","SECT":" ","MAREA":"太康","LANE":" ","ALLEY":" ","HOUSE_NO":"１２２號之１","E_COORD97":181759.19,"N_COORD97":2576361.4199999999,"ADDRESS":"太康１２２號之１","OBJECTID":90116},"geometry":{"x":181759.19000000134,"y":2576361.4199999999}},{"attributes":{"ID":90117,"DIS_CODE":0,"TOWNNAME":"柳營區","LI":"太康里","LIN":"12鄰","STREET":" ","SECT":" ","MAREA":"太康","LANE":" ","ALLEY":" ","HOUSE_NO":"１２２之２號","E_COORD97":181755.01999999999,"N_COORD97":2576360.0699999998,"ADDRESS":"太康１２２之２號","OBJECTID":90117},"geometry":{"x":181755.01999999955,"y":2576360.0700000003}},{"attributes":{"ID":90118,"DIS_CODE":0,"TOWNNAME":"柳營區","LI":"太康里","LIN":"12鄰","STREET":" ","SECT":" ","MAREA":"太康","LANE":" ","ALLEY":" ","HOUSE_NO":"１２２號之２","E_COORD97":181755.01999999999,"N_COORD97":2576360.0699999998,"ADDRESS":"太康１２２號之２","OBJECTID":90118},"geometry":{"x":181755.01999999955,"y":2576360.0700000003}},{"attributes":{"ID":90119,"DIS_CODE":0,"TOWNNAME":"柳營區","LI":"太康里","LIN":"12鄰","STREET":" ","SECT":" ","MAREA":"太康","LANE":" ","ALLEY":" ","HOUSE_NO":"１２２之５號","E_COORD97":181730.22,"N_COORD97":2576354.8999999999,"ADDRESS":"太康１２２之５號","OBJECTID":90119},"geometry":{"x":181730.21999999974,"y":2576354.9000000004}},{"attributes":{"ID":90120,"DIS_CODE":0,"TOWNNAME":"柳營區","LI":"太康里","LIN":"12鄰","STREET":" ","SECT":" ","MAREA":"太康","LANE":" ","ALLEY":" ","HOUSE_NO":"１２２之６號","E_COORD97":181735.60999999999,"N_COORD97":2576356.25,"ADDRESS":"太康１２２之６號","OBJECTID":90120},"geometry":{"x":181735.61000000127,"y":2576356.25}},{"attributes":{"ID":90121,"DIS_CODE":0,"TOWNNAME":"柳營區","LI":"太康里","LIN":"12鄰","STREET":" ","SECT":" ","MAREA":"太康","LANE":" ","ALLEY":" ","HOUSE_NO":"１２２之７號","E_COORD97":181740.39000000001,"N_COORD97":2576356.7599999998,"ADDRESS":"太康１２２之７號","OBJECTID":90121},"geometry":{"x":181740.3900000006,"y":2576356.7600000016}},{"attributes":{"ID":90122,"DIS_CODE":0,"TOWNNAME":"柳營區","LI":"太康里","LIN":"12鄰","STREET":" ","SECT":" ","MAREA":"太康","LANE":" ","ALLEY":" ","HOUSE_NO":"１２２之８號","E_COORD97":181746.89000000001,"N_COORD97":2576351.0299999998,"ADDRESS":"太康１２２之８號","OBJECTID":90122},"geometry":{"x":181746.8900000006,"y":2576351.0300000012}},{"attributes":{"ID":90123,"DIS_CODE":0,"TOWNNAME":"柳營區","LI":"太康里","LIN":"12鄰","STREET":" ","SECT":" ","MAREA":"太康","LANE":" ","ALLEY":" ","HOUSE_NO":"１２２之９號","E_COORD97":181749.79999999999,"N_COORD97":2576358.9700000002,"ADDRESS":"太康１２２之９號","OBJECTID":90123},"geometry":{"x":181749.79999999981,"y":2576358.9699999988}},{"attributes":{"ID":90124,"DIS_CODE":0,"TOWNNAME":"柳營區","LI":"太康里","LIN":"12鄰","STREET":" ","SECT":" ","MAREA":"太康","LANE":" ","ALLEY":" ","HOUSE_NO":"１２２號","E_COORD97":181724.53,"N_COORD97":2576353.5899999999,"ADDRESS":"太康１２２號","OBJECTID":90124},"geometry":{"x":181724.53000000119,"y":2576353.5899999999}},{"attributes":{"ID":90125,"DIS_CODE":0,"TOWNNAME":"柳營區","LI":"果毅里","LIN":"12鄰","STREET":" ","SECT":" ","MAREA":"果毅後","LANE":" ","ALLEY":" ","HOUSE_NO":"１４３號","E_COORD97":185578.76000000001,"N_COORD97":2572912.6800000002,"ADDRESS":"果毅後１４３號","OBJECTID":90125},"geometry":{"x":185578.76000000071,"y":2572912.6800000016}},{"attributes":{"ID":90126,"DIS_CODE":0,"TOWNNAME":"柳營區","LI":"果毅里","LIN":"12鄰","STREET":" ","SECT":" ","MAREA":"果毅後","LANE":" ","ALLEY":" ","HOUSE_NO":"１４５號","E_COORD97":185583.75,"N_COORD97":2572892.4500000002,"ADDRESS":"果毅後１４５號","OBJECTID":90126},"geometry":{"x":185583.75,"y":2572892.4499999993}},{"attributes":{"ID":90127,"DIS_CODE":0,"TOWNNAME":"柳營區","LI":"果毅里","LIN":"12鄰","STREET":" ","SECT":" ","MAREA":"果毅後","LANE":" ","ALLEY":" ","HOUSE_NO":"１４６號之２","E_COORD97":185571.98000000001,"N_COORD97":2572878.6099999999,"ADDRESS":"果毅後１４６號之２","OBJECTID":90127},"geometry":{"x":185571.98000000045,"y":2572878.6100000031}},{"attributes":{"ID":90128,"DIS_CODE":0,"TOWNNAME":"柳營區","LI":"果毅里","LIN":"12鄰","STREET":" ","SECT":" ","MAREA":"果毅後","LANE":" ","ALLEY":" ","HOUSE_NO":"１４６號","E_COORD97":185572.22,"N_COORD97":2572887.6099999999,"ADDRESS":"果毅後１４６號","OBJECTID":90128},"geometry":{"x":185572.22000000067,"y":2572887.6099999994}},{"attributes":{"ID":90129,"DIS_CODE":0,"TOWNNAME":"柳營區","LI":"果毅里","LIN":"12鄰","STREET":" ","SECT":" ","MAREA":"果毅後","LANE":" ","ALLEY":" ","HOUSE_NO":"１４７號","E_COORD97":185570.51999999999,"N_COORD97":2572868.8900000001,"ADDRESS":"果毅後１４７號","OBJECTID":90129},"geometry":{"x":185570.52000000048,"y":2572868.8900000025}},{"attributes":{"ID":90130,"DIS_CODE":0,"TOWNNAME":"柳營區","LI":"果毅里","LIN":"12鄰","STREET":" ","SECT":" ","MAREA":"果毅後","LANE":" ","ALLEY":" ","HOUSE_NO":"１４８號","E_COORD97":185442,"N_COORD97":2573464.27,"ADDRESS":"果毅後１４８號","OBJECTID":90130},"geometry":{"x":185442.00000000093,"y":2573464.2700000014}},{"attributes":{"ID":90131,"DIS_CODE":0,"TOWNNAME":"柳營區","LI":"果毅里","LIN":"12鄰","STREET":" ","SECT":" ","MAREA":"果毅後","LANE":" ","ALLEY":" ","HOUSE_NO":"１４９號之１","E_COORD97":185551.29000000001,"N_COORD97":2572860.8900000001,"ADDRESS":"果毅後１４９號之１","OBJECTID":90131},"geometry":{"x":185551.29000000004,"y":2572860.8900000043}},{"attributes":{"ID":90132,"DIS_CODE":0,"TOWNNAME":"柳營區","LI":"神農里","LIN":"12鄰","STREET":" ","SECT":" ","MAREA":"果毅後","LANE":" ","ALLEY":" ","HOUSE_NO":"３５２之１號","E_COORD97":185408.12,"N_COORD97":2573053.4700000002,"ADDRESS":"果毅後３５２之１號","OBJECTID":90132},"geometry":{"x":185408.12000000011,"y":2573053.4700000044}},{"attributes":{"ID":90133,"DIS_CODE":0,"TOWNNAME":"柳營區","LI":"神農里","LIN":"12鄰","STREET":" ","SECT":" ","MAREA":"果毅後","LANE":" ","ALLEY":" ","HOUSE_NO":"３５２號之１","E_COORD97":185408.12,"N_COORD97":2573053.4700000002,"ADDRESS":"果毅後３５２號之１","OBJECTID":90133},"geometry":{"x":185408.12000000011,"y":2573053.4700000044}},{"attributes":{"ID":90134,"DIS_CODE":0,"TOWNNAME":"柳營區","LI":"神農里","LIN":"12鄰","STREET":" ","SECT":" ","MAREA":"果毅後","LANE":" ","ALLEY":" ","HOUSE_NO":"３５２號","E_COORD97":185413.42999999999,"N_COORD97":2573053.77,"ADDRESS":"果毅後３５２號","OBJECTID":90134},"geometry":{"x":185413.43000000063,"y":2573053.7700000033}},{"attributes":{"ID":90135,"DIS_CODE":0,"TOWNNAME":"柳營區","LI":"神農里","LIN":"12鄰","STREET":" ","SECT":" ","MAREA":"果毅後","LANE":" ","ALLEY":" ","HOUSE_NO":"３５３號之１","E_COORD97":185425.60000000001,"N_COORD97":2573074.5899999999,"ADDRESS":"果毅後３５３號之１","OBJECTID":90135},"geometry":{"x":185425.60000000056,"y":2573074.5899999999}},{"attributes":{"ID":90136,"DIS_CODE":0,"TOWNNAME":"柳營區","LI":"神農里","LIN":"12鄰","STREET":" ","SECT":" ","MAREA":"果毅後","LANE":" ","ALLEY":" ","HOUSE_NO":"３５３號之３","E_COORD97":185432.48000000001,"N_COORD97":2573084.6200000001,"ADDRESS":"果毅後３５３號之３","OBJECTID":90136},"geometry":{"x":185432.48000000138,"y":2573084.6200000029}},{"attributes":{"ID":90137,"DIS_CODE":0,"TOWNNAME":"柳營區","LI":"神農里","LIN":"12鄰","STREET":" ","SECT":" ","MAREA":"果毅後","LANE":" ","ALLEY":" ","HOUSE_NO":"３５３號","E_COORD97":185429.53,"N_COORD97":2573079.6200000001,"ADDRESS":"果毅後３５３號","OBJECTID":90137},"geometry":{"x":185429.53000000026,"y":2573079.620000001}},{"attributes":{"ID":90138,"DIS_CODE":0,"TOWNNAME":"柳營區","LI":"神農里","LIN":"12鄰","STREET":" ","SECT":" ","MAREA":"果毅後","LANE":" ","ALLEY":" ","HOUSE_NO":"３５７號之１８","E_COORD97":185408.39999999999,"N_COORD97":2573337.7400000002,"ADDRESS":"果毅後３５７號之１８","OBJECTID":90138},"geometry":{"x":185408.40000000037,"y":2573337.7400000021}},{"attributes":{"ID":90139,"DIS_CODE":0,"TOWNNAME":"柳營區","LI":"神農里","LIN":"12鄰","STREET":" ","SECT":" ","MAREA":"果毅後","LANE":" ","ALLEY":" ","HOUSE_NO":"３５７號","E_COORD97":185409.29000000001,"N_COORD97":2573087.98,"ADDRESS":"果毅後３５７號","OBJECTID":90139},"geometry":{"x":185409.29000000097,"y":2573087.9800000023}},{"attributes":{"ID":90140,"DIS_CODE":0,"TOWNNAME":"柳營區","LI":"神農里","LIN":"12鄰","STREET":" ","SECT":" ","MAREA":"果毅後","LANE":" ","ALLEY":" ","HOUSE_NO":"３５８號之１","E_COORD97":185387.07000000001,"N_COORD97":2573054.6000000001,"ADDRESS":"果毅後３５８號之１","OBJECTID":90140},"geometry":{"x":185387.07000000216,"y":2573054.5999999996}},{"attributes":{"ID":90141,"DIS_CODE":0,"TOWNNAME":"柳營區","LI":"神農里","LIN":"12鄰","STREET":" ","SECT":" ","MAREA":"果毅後","LANE":" ","ALLEY":" ","HOUSE_NO":"３５８號之２","E_COORD97":185391.64999999999,"N_COORD97":2573054.8399999999,"ADDRESS":"果毅後３５８號之２","OBJECTID":90141},"geometry":{"x":185391.64999999944,"y":2573054.8400000017}},{"attributes":{"ID":90142,"DIS_CODE":0,"TOWNNAME":"柳營區","LI":"神農里","LIN":"12鄰","STREET":" ","SECT":" ","MAREA":"果毅後","LANE":" ","ALLEY":" ","HOUSE_NO":"３５８號","E_COORD97":185239,"N_COORD97":2573061.6400000001,"ADDRESS":"果毅後３５８號","OBJECTID":90142},"geometry":{"x":185239,"y":2573061.6400000006}},{"attributes":{"ID":90143,"DIS_CODE":0,"TOWNNAME":"柳營區","LI":"神農里","LIN":"12鄰","STREET":" ","SECT":" ","MAREA":"果毅後","LANE":" ","ALLEY":" ","HOUSE_NO":"３５９號之１","E_COORD97":185364.67999999999,"N_COORD97":2573055.3399999999,"ADDRESS":"果毅後３５９號之１","OBJECTID":90143},"geometry":{"x":185364.6799999997,"y":2573055.3399999999}},{"attributes":{"ID":90144,"DIS_CODE":0,"TOWNNAME":"柳營區","LI":"神農里","LIN":"12鄰","STREET":" ","SECT":" ","MAREA":"果毅後","LANE":" ","ALLEY":" ","HOUSE_NO":"３５９號之２","E_COORD97":185368.66,"N_COORD97":2573054.3900000001,"ADDRESS":"果毅後３５９號之２","OBJECTID":90144},"geometry":{"x":185368.66000000015,"y":2573054.3900000025}},{"attributes":{"ID":90145,"DIS_CODE":0,"TOWNNAME":"柳營區","LI":"神農里","LIN":"12鄰","STREET":" ","SECT":" ","MAREA":"果毅後","LANE":" ","ALLEY":" ","HOUSE_NO":"３５９號之５","E_COORD97":185372.64999999999,"N_COORD97":2573053.3199999998,"ADDRESS":"果毅後３５９號之５","OBJECTID":90145},"geometry":{"x":185372.65000000037,"y":2573053.3200000003}},{"attributes":{"ID":90146,"DIS_CODE":0,"TOWNNAME":"柳營區","LI":"神農里","LIN":"12鄰","STREET":" ","SECT":" ","MAREA":"果毅後","LANE":" ","ALLEY":" ","HOUSE_NO":"３５９號","E_COORD97":185360.81,"N_COORD97":2573056.2799999998,"ADDRESS":"果毅後３５９號","OBJECTID":90146},"geometry":{"x":185360.80999999959,"y":2573056.2799999993}},{"attributes":{"ID":90147,"DIS_CODE":0,"TOWNNAME":"柳營區","LI":"神農里","LIN":"12鄰","STREET":" ","SECT":" ","MAREA":"果毅後","LANE":" ","ALLEY":" ","HOUSE_NO":"３６０號","E_COORD97":185386.44,"N_COORD97":2573093.3300000001,"ADDRESS":"果毅後３６０號","OBJECTID":90147},"geometry":{"x":185386.44000000227,"y":2573093.3300000001}},{"attributes":{"ID":90148,"DIS_CODE":0,"TOWNNAME":"柳營區","LI":"神農里","LIN":"12鄰","STREET":" ","SECT":" ","MAREA":"果毅後","LANE":" ","ALLEY":" ","HOUSE_NO":"３６５號之１","E_COORD97":185359.79999999999,"N_COORD97":2573093.0600000001,"ADDRESS":"果毅後３６５號之１","OBJECTID":90148},"geometry":{"x":185359.80000000075,"y":2573093.0600000005}},{"attributes":{"ID":90149,"DIS_CODE":0,"TOWNNAME":"柳營區","LI":"神農里","LIN":"12鄰","STREET":" ","SECT":" ","MAREA":"果毅後","LANE":" ","ALLEY":" ","HOUSE_NO":"３６５號之２","E_COORD97":185331.35999999999,"N_COORD97":2573107.0299999998,"ADDRESS":"果毅後３６５號之２","OBJECTID":90149},"geometry":{"x":185331.36000000127,"y":2573107.0300000012}},{"attributes":{"ID":90150,"DIS_CODE":0,"TOWNNAME":"柳營區","LI":"神農里","LIN":"12鄰","STREET":" ","SECT":" ","MAREA":"果毅後","LANE":" ","ALLEY":" ","HOUSE_NO":"３６５號之３","E_COORD97":185327.84,"N_COORD97":2573095.2599999998,"ADDRESS":"果毅後３６５號之３","OBJECTID":90150},"geometry":{"x":185327.84000000078,"y":2573095.2600000016}},{"attributes":{"ID":90151,"DIS_CODE":0,"TOWNNAME":"柳營區","LI":"神農里","LIN":"12鄰","STREET":" ","SECT":" ","MAREA":"果毅後","LANE":" ","ALLEY":" ","HOUSE_NO":"３６５號之４","E_COORD97":185329.16,"N_COORD97":2573099.46,"ADDRESS":"果毅後３６５號之４","OBJECTID":90151},"geometry":{"x":185329.16000000108,"y":2573099.4600000028}},{"attributes":{"ID":90152,"DIS_CODE":0,"TOWNNAME":"柳營區","LI":"神農里","LIN":"12鄰","STREET":" ","SECT":" ","MAREA":"果毅後","LANE":" ","ALLEY":" ","HOUSE_NO":"３６５號之５","E_COORD97":185325.51000000001,"N_COORD97":2573086.9300000002,"ADDRESS":"果毅後３６５號之５","OBJECTID":90152},"geometry":{"x":185325.50999999978,"y":2573086.9300000034}},{"attributes":{"ID":90153,"DIS_CODE":0,"TOWNNAME":"柳營區","LI":"神農里","LIN":"12鄰","STREET":" ","SECT":" ","MAREA":"果毅後","LANE":" ","ALLEY":" ","HOUSE_NO":"３６５號","E_COORD97":185353.38,"N_COORD97":2573102,"ADDRESS":"果毅後３６５號","OBJECTID":90153},"geometry":{"x":185353.37999999989,"y":2573102}},{"attributes":{"ID":90154,"DIS_CODE":0,"TOWNNAME":"柳營區","LI":"神農里","LIN":"12鄰","STREET":" ","SECT":" ","MAREA":"果毅後","LANE":" ","ALLEY":" ","HOUSE_NO":"３６６號","E_COORD97":185348.67999999999,"N_COORD97":2573085.6299999999,"ADDRESS":"果毅後３６６號","OBJECTID":90154},"geometry":{"x":185348.68000000063,"y":2573085.6300000008}},{"attributes":{"ID":90155,"DIS_CODE":0,"TOWNNAME":"柳營區","LI":"神農里","LIN":"12鄰","STREET":" ","SECT":" ","MAREA":"果毅後","LANE":" ","ALLEY":" ","HOUSE_NO":"３６７號之１０","E_COORD97":185330.54999999999,"N_COORD97":2573047.29,"ADDRESS":"果毅後３６７號之１０","OBJECTID":90155},"geometry":{"x":185330.54999999981,"y":2573047.290000001}},{"attributes":{"ID":90156,"DIS_CODE":0,"TOWNNAME":"柳營區","LI":"神農里","LIN":"12鄰","STREET":" ","SECT":" ","MAREA":"果毅後","LANE":" ","ALLEY":" ","HOUSE_NO":"３６７號之１１","E_COORD97":185326.01000000001,"N_COORD97":2573047.0600000001,"ADDRESS":"果毅後３６７號之１１","OBJECTID":90156},"geometry":{"x":185326.01000000164,"y":2573047.0600000024}},{"attributes":{"ID":90157,"DIS_CODE":0,"TOWNNAME":"北區","LI":"仁愛里","LIN":"10鄰","STREET":"東豐路","SECT":" ","MAREA":" ","LANE":"２２７巷","ALLEY":"２４弄","HOUSE_NO":"１５號五樓之２４","E_COORD97":170217.23000000001,"N_COORD97":2544981.3199999998,"ADDRESS":"東豐路２２７巷２４弄１５號五樓之２４","OBJECTID":90157},"geometry":{"x":170217.23000000045,"y":2544981.3200000003}},{"attributes":{"ID":90158,"DIS_CODE":0,"TOWNNAME":"北區","LI":"仁愛里","LIN":"10鄰","STREET":"東豐路","SECT":" ","MAREA":" ","LANE":"２２７巷","ALLEY":"２４弄","HOUSE_NO":"１５號五樓之２５","E_COORD97":170217.23000000001,"N_COORD97":2544981.3199999998,"ADDRESS":"東豐路２２７巷２４弄１５號五樓之２５","OBJECTID":90158},"geometry":{"x":170217.23000000045,"y":2544981.3200000003}},{"attributes":{"ID":90159,"DIS_CODE":0,"TOWNNAME":"北區","LI":"仁愛里","LIN":"10鄰","STREET":"東豐路","SECT":" ","MAREA":" ","LANE":"２２７巷","ALLEY":"２４弄","HOUSE_NO":"１５號五樓之２６","E_COORD97":170217.23000000001,"N_COORD97":2544981.3199999998,"ADDRESS":"東豐路２２７巷２４弄１５號五樓之２６","OBJECTID":90159},"geometry":{"x":170217.23000000045,"y":2544981.3200000003}},{"attributes":{"ID":90160,"DIS_CODE":0,"TOWNNAME":"北區","LI":"仁愛里","LIN":"10鄰","STREET":"東豐路","SECT":" ","MAREA":" ","LANE":"２２７巷","ALLEY":"２４弄","HOUSE_NO":"１５號五樓之２７","E_COORD97":170217.23000000001,"N_COORD97":2544981.3199999998,"ADDRESS":"東豐路２２７巷２４弄１５號五樓之２７","OBJECTID":90160},"geometry":{"x":170217.23000000045,"y":2544981.3200000003}},{"attributes":{"ID":90161,"DIS_CODE":0,"TOWNNAME":"北區","LI":"仁愛里","LIN":"10鄰","STREET":"東豐路","SECT":" ","MAREA":" ","LANE":"２２７巷","ALLEY":"２４弄","HOUSE_NO":"１５號五樓之２８","E_COORD97":170217.23000000001,"N_COORD97":2544981.3199999998,"ADDRESS":"東豐路２２７巷２４弄１５號五樓之２８","OBJECTID":90161},"geometry":{"x":170217.23000000045,"y":2544981.3200000003}},{"attributes":{"ID":90162,"DIS_CODE":0,"TOWNNAME":"北區","LI":"仁愛里","LIN":"10鄰","STREET":"東豐路","SECT":" ","MAREA":" ","LANE":"２２７巷","ALLEY":"２４弄","HOUSE_NO":"１５號五樓之３","E_COORD97":170217.23000000001,"N_COORD97":2544981.3199999998,"ADDRESS":"東豐路２２７巷２４弄１５號五樓之３","OBJECTID":90162},"geometry":{"x":170217.23000000045,"y":2544981.3200000003}},{"attributes":{"ID":90163,"DIS_CODE":0,"TOWNNAME":"北區","LI":"仁愛里","LIN":"10鄰","STREET":"東豐路","SECT":" ","MAREA":" ","LANE":"２２７巷","ALLEY":"２４弄","HOUSE_NO":"１５號五樓之４","E_COORD97":170217.23000000001,"N_COORD97":2544981.3199999998,"ADDRESS":"東豐路２２７巷２４弄１５號五樓之４","OBJECTID":90163},"geometry":{"x":170217.23000000045,"y":2544981.3200000003}},{"attributes":{"ID":90164,"DIS_CODE":0,"TOWNNAME":"北區","LI":"仁愛里","LIN":"10鄰","STREET":"東豐路","SECT":" ","MAREA":" ","LANE":"２２７巷","ALLEY":"２４弄","HOUSE_NO":"１５號五樓之５","E_COORD97":170217.23000000001,"N_COORD97":2544981.3199999998,"ADDRESS":"東豐路２２７巷２４弄１５號五樓之５","OBJECTID":90164},"geometry":{"x":170217.23000000045,"y":2544981.3200000003}},{"attributes":{"ID":90165,"DIS_CODE":0,"TOWNNAME":"北區","LI":"仁愛里","LIN":"10鄰","STREET":"東豐路","SECT":" ","MAREA":" ","LANE":"２２７巷","ALLEY":"２４弄","HOUSE_NO":"１５號五樓之６","E_COORD97":170217.23000000001,"N_COORD97":2544981.3199999998,"ADDRESS":"東豐路２２７巷２４弄１５號五樓之６","OBJECTID":90165},"geometry":{"x":170217.23000000045,"y":2544981.3200000003}},{"attributes":{"ID":90166,"DIS_CODE":0,"TOWNNAME":"北區","LI":"仁愛里","LIN":"10鄰","STREET":"東豐路","SECT":" ","MAREA":" ","LANE":"２２７巷","ALLEY":"２４弄","HOUSE_NO":"１５號五樓之７","E_COORD97":170217.23000000001,"N_COORD97":2544981.3199999998,"ADDRESS":"東豐路２２７巷２４弄１５號五樓之７","OBJECTID":90166},"geometry":{"x":170217.23000000045,"y":2544981.3200000003}},{"attributes":{"ID":90167,"DIS_CODE":0,"TOWNNAME":"北區","LI":"仁愛里","LIN":"10鄰","STREET":"東豐路","SECT":" ","MAREA":" ","LANE":"２２７巷","ALLEY":"２４弄","HOUSE_NO":"１５號五樓之８","E_COORD97":170217.23000000001,"N_COORD97":2544981.3199999998,"ADDRESS":"東豐路２２７巷２４弄１５號五樓之８","OBJECTID":90167},"geometry":{"x":170217.23000000045,"y":2544981.3200000003}},{"attributes":{"ID":90168,"DIS_CODE":0,"TOWNNAME":"北區","LI":"仁愛里","LIN":"10鄰","STREET":"東豐路","SECT":" ","MAREA":" ","LANE":"２２７巷","ALLEY":"２４弄","HOUSE_NO":"１５號五樓之９","E_COORD97":170217.23000000001,"N_COORD97":2544981.3199999998,"ADDRESS":"東豐路２２７巷２４弄１５號五樓之９","OBJECTID":90168},"geometry":{"x":170217.23000000045,"y":2544981.3200000003}},{"attributes":{"ID":90169,"DIS_CODE":0,"TOWNNAME":"北區","LI":"仁愛里","LIN":"10鄰","STREET":"東豐路","SECT":" ","MAREA":" ","LANE":"２２７巷","ALLEY":"２４弄","HOUSE_NO":"１５號四樓之１","E_COORD97":170217.23000000001,"N_COORD97":2544981.3199999998,"ADDRESS":"東豐路２２７巷２４弄１５號四樓之１","OBJECTID":90169},"geometry":{"x":170217.23000000045,"y":2544981.3200000003}},{"attributes":{"ID":90170,"DIS_CODE":0,"TOWNNAME":"北區","LI":"仁愛里","LIN":"10鄰","STREET":"東豐路","SECT":" ","MAREA":" ","LANE":"２２７巷","ALLEY":"２４弄","HOUSE_NO":"１５號四樓之１０","E_COORD97":170217.23000000001,"N_COORD97":2544981.3199999998,"ADDRESS":"東豐路２２７巷２４弄１５號四樓之１０","OBJECTID":90170},"geometry":{"x":170217.23000000045,"y":2544981.3200000003}},{"attributes":{"ID":90171,"DIS_CODE":0,"TOWNNAME":"北區","LI":"仁愛里","LIN":"10鄰","STREET":"東豐路","SECT":" ","MAREA":" ","LANE":"２２７巷","ALLEY":"２４弄","HOUSE_NO":"１５號四樓之１１","E_COORD97":170217.23000000001,"N_COORD97":2544981.3199999998,"ADDRESS":"東豐路２２７巷２４弄１５號四樓之１１","OBJECTID":90171},"geometry":{"x":170217.23000000045,"y":2544981.3200000003}},{"attributes":{"ID":90172,"DIS_CODE":0,"TOWNNAME":"北區","LI":"仁愛里","LIN":"10鄰","STREET":"東豐路","SECT":" ","MAREA":" ","LANE":"２２７巷","ALLEY":"２４弄","HOUSE_NO":"１５號四樓之１２","E_COORD97":170217.23000000001,"N_COORD97":2544981.3199999998,"ADDRESS":"東豐路２２７巷２４弄１５號四樓之１２","OBJECTID":90172},"geometry":{"x":170217.23000000045,"y":2544981.3200000003}},{"attributes":{"ID":90173,"DIS_CODE":0,"TOWNNAME":"柳營區","LI":"神農里","LIN":"12鄰","STREET":" ","SECT":" ","MAREA":"果毅後","LANE":" ","ALLEY":" ","HOUSE_NO":"３６７號之１２","E_COORD97":185334.28,"N_COORD97":2573070.1899999999,"ADDRESS":"果毅後３６７號之１２","OBJECTID":90173},"geometry":{"x":185334.28000000026,"y":2573070.1899999995}},{"attributes":{"ID":90174,"DIS_CODE":0,"TOWNNAME":"北區","LI":"仁愛里","LIN":"10鄰","STREET":"東豐路","SECT":" ","MAREA":" ","LANE":"２２７巷","ALLEY":"２４弄","HOUSE_NO":"１５號四樓之１３","E_COORD97":170217.23000000001,"N_COORD97":2544981.3199999998,"ADDRESS":"東豐路２２７巷２４弄１５號四樓之１３","OBJECTID":90174},"geometry":{"x":170217.23000000045,"y":2544981.3200000003}},{"attributes":{"ID":90175,"DIS_CODE":0,"TOWNNAME":"柳營區","LI":"神農里","LIN":"12鄰","STREET":" ","SECT":" ","MAREA":"果毅後","LANE":" ","ALLEY":" ","HOUSE_NO":"３６７號之１３","E_COORD97":185337.14000000001,"N_COORD97":2573076.7000000002,"ADDRESS":"果毅後３６７號之１３","OBJECTID":90175},"geometry":{"x":185337.1400000006,"y":2573076.6999999993}},{"attributes":{"ID":90176,"DIS_CODE":0,"TOWNNAME":"北區","LI":"仁愛里","LIN":"10鄰","STREET":"東豐路","SECT":" ","MAREA":" ","LANE":"２２７巷","ALLEY":"２４弄","HOUSE_NO":"１５號四樓之１４","E_COORD97":170217.23000000001,"N_COORD97":2544981.3199999998,"ADDRESS":"東豐路２２７巷２４弄１５號四樓之１４","OBJECTID":90176},"geometry":{"x":170217.23000000045,"y":2544981.3200000003}},{"attributes":{"ID":90177,"DIS_CODE":0,"TOWNNAME":"北區","LI":"仁愛里","LIN":"10鄰","STREET":"東豐路","SECT":" ","MAREA":" ","LANE":"２２７巷","ALLEY":"２４弄","HOUSE_NO":"１５號四樓之１５","E_COORD97":170217.23000000001,"N_COORD97":2544981.3199999998,"ADDRESS":"東豐路２２７巷２４弄１５號四樓之１５","OBJECTID":90177},"geometry":{"x":170217.23000000045,"y":2544981.3200000003}},{"attributes":{"ID":90178,"DIS_CODE":0,"TOWNNAME":"柳營區","LI":"神農里","LIN":"12鄰","STREET":" ","SECT":" ","MAREA":"果毅後","LANE":" ","ALLEY":" ","HOUSE_NO":"３６７號之１","E_COORD97":185315.60000000001,"N_COORD97":2573056.4700000002,"ADDRESS":"果毅後３６７號之１","OBJECTID":90178},"geometry":{"x":185315.60000000056,"y":2573056.4700000007}},{"attributes":{"ID":90179,"DIS_CODE":0,"TOWNNAME":"柳營區","LI":"神農里","LIN":"12鄰","STREET":" ","SECT":" ","MAREA":"果毅後","LANE":" ","ALLEY":" ","HOUSE_NO":"３６７號之６","E_COORD97":185349.67999999999,"N_COORD97":2573050.73,"ADDRESS":"果毅後３６７號之６","OBJECTID":90179},"geometry":{"x":185349.6799999997,"y":2573050.7300000004}},{"attributes":{"ID":90180,"DIS_CODE":0,"TOWNNAME":"北區","LI":"仁愛里","LIN":"10鄰","STREET":"東豐路","SECT":" ","MAREA":" ","LANE":"２２７巷","ALLEY":"２４弄","HOUSE_NO":"１５號四樓之１６","E_COORD97":170217.23000000001,"N_COORD97":2544981.3199999998,"ADDRESS":"東豐路２２７巷２４弄１５號四樓之１６","OBJECTID":90180},"geometry":{"x":170217.23000000045,"y":2544981.3200000003}},{"attributes":{"ID":90181,"DIS_CODE":0,"TOWNNAME":"北區","LI":"仁愛里","LIN":"10鄰","STREET":"東豐路","SECT":" ","MAREA":" ","LANE":"２２７巷","ALLEY":"２４弄","HOUSE_NO":"１５號四樓之１７","E_COORD97":170217.23000000001,"N_COORD97":2544981.3199999998,"ADDRESS":"東豐路２２７巷２４弄１５號四樓之１７","OBJECTID":90181},"geometry":{"x":170217.23000000045,"y":2544981.3200000003}},{"attributes":{"ID":90182,"DIS_CODE":0,"TOWNNAME":"柳營區","LI":"神農里","LIN":"12鄰","STREET":" ","SECT":" ","MAREA":"果毅後","LANE":" ","ALLEY":" ","HOUSE_NO":"３６７號之７","E_COORD97":185344.76000000001,"N_COORD97":2573049.1200000001,"ADDRESS":"果毅後３６７號之７","OBJECTID":90182},"geometry":{"x":185344.76000000071,"y":2573049.120000001}},{"attributes":{"ID":90183,"DIS_CODE":0,"TOWNNAME":"柳營區","LI":"神農里","LIN":"12鄰","STREET":" ","SECT":" ","MAREA":"果毅後","LANE":" ","ALLEY":" ","HOUSE_NO":"３６７號之８","E_COORD97":185339.45000000001,"N_COORD97":2573047.9300000002,"ADDRESS":"果毅後３６７號之８","OBJECTID":90183},"geometry":{"x":185339.45000000112,"y":2573047.9299999997}},{"attributes":{"ID":90184,"DIS_CODE":0,"TOWNNAME":"北區","LI":"仁愛里","LIN":"10鄰","STREET":"東豐路","SECT":" ","MAREA":" ","LANE":"２２７巷","ALLEY":"２４弄","HOUSE_NO":"１５號四樓之１８","E_COORD97":170217.23000000001,"N_COORD97":2544981.3199999998,"ADDRESS":"東豐路２２７巷２４弄１５號四樓之１８","OBJECTID":90184},"geometry":{"x":170217.23000000045,"y":2544981.3200000003}},{"attributes":{"ID":90185,"DIS_CODE":0,"TOWNNAME":"北區","LI":"仁愛里","LIN":"10鄰","STREET":"東豐路","SECT":" ","MAREA":" ","LANE":"２２７巷","ALLEY":"２４弄","HOUSE_NO":"１５號四樓之１９","E_COORD97":170217.23000000001,"N_COORD97":2544981.3199999998,"ADDRESS":"東豐路２２７巷２４弄１５號四樓之１９","OBJECTID":90185},"geometry":{"x":170217.23000000045,"y":2544981.3200000003}},{"attributes":{"ID":90186,"DIS_CODE":0,"TOWNNAME":"北區","LI":"仁愛里","LIN":"10鄰","STREET":"東豐路","SECT":" ","MAREA":" ","LANE":"２２７巷","ALLEY":"２４弄","HOUSE_NO":"１５號四樓之２","E_COORD97":170217.23000000001,"N_COORD97":2544981.3199999998,"ADDRESS":"東豐路２２７巷２４弄１５號四樓之２","OBJECTID":90186},"geometry":{"x":170217.23000000045,"y":2544981.3200000003}},{"attributes":{"ID":90187,"DIS_CODE":0,"TOWNNAME":"北區","LI":"仁愛里","LIN":"10鄰","STREET":"東豐路","SECT":" ","MAREA":" ","LANE":"２２７巷","ALLEY":"２４弄","HOUSE_NO":"１５號四樓之２０","E_COORD97":170217.23000000001,"N_COORD97":2544981.3199999998,"ADDRESS":"東豐路２２７巷２４弄１５號四樓之２０","OBJECTID":90187},"geometry":{"x":170217.23000000045,"y":2544981.3200000003}},{"attributes":{"ID":90188,"DIS_CODE":0,"TOWNNAME":"北區","LI":"仁愛里","LIN":"10鄰","STREET":"東豐路","SECT":" ","MAREA":" ","LANE":"２２７巷","ALLEY":"２４弄","HOUSE_NO":"１５號四樓之２１","E_COORD97":170217.23000000001,"N_COORD97":2544981.3199999998,"ADDRESS":"東豐路２２７巷２４弄１５號四樓之２１","OBJECTID":90188},"geometry":{"x":170217.23000000045,"y":2544981.3200000003}},{"attributes":{"ID":90189,"DIS_CODE":0,"TOWNNAME":"北區","LI":"仁愛里","LIN":"10鄰","STREET":"東豐路","SECT":" ","MAREA":" ","LANE":"２２７巷","ALLEY":"２４弄","HOUSE_NO":"１５號四樓之２２","E_COORD97":170217.23000000001,"N_COORD97":2544981.3199999998,"ADDRESS":"東豐路２２７巷２４弄１５號四樓之２２","OBJECTID":90189},"geometry":{"x":170217.23000000045,"y":2544981.3200000003}},{"attributes":{"ID":90190,"DIS_CODE":0,"TOWNNAME":"柳營區","LI":"神農里","LIN":"12鄰","STREET":" ","SECT":" ","MAREA":"果毅後","LANE":" ","ALLEY":" ","HOUSE_NO":"３６７號之９","E_COORD97":185334.79999999999,"N_COORD97":2573047.3599999999,"ADDRESS":"果毅後３６７號之９","OBJECTID":90190},"geometry":{"x":185334.80000000075,"y":2573047.3600000013}},{"attributes":{"ID":90191,"DIS_CODE":0,"TOWNNAME":"仁德區","LI":"三甲里","LIN":"5鄰","STREET":" ","SECT":" ","MAREA":"三甲子","LANE":" ","ALLEY":" ","HOUSE_NO":"４６號之６","E_COORD97":171844.42000000001,"N_COORD97":2536686.0499999998,"ADDRESS":"三甲子４６號之６","OBJECTID":90191},"geometry":{"x":171844.41999999993,"y":2536686.0500000026}},{"attributes":{"ID":90192,"DIS_CODE":0,"TOWNNAME":"歸仁區","LI":"武東里","LIN":"12鄰","STREET":" ","SECT":" ","MAREA":"明德新村","LANE":" ","ALLEY":" ","HOUSE_NO":"３號","E_COORD97":175333.04000000001,"N_COORD97":2536177.27,"ADDRESS":"明德新村３號","OBJECTID":90192},"geometry":{"x":175333.04000000097,"y":2536177.2700000014}},{"attributes":{"ID":90193,"DIS_CODE":0,"TOWNNAME":"歸仁區","LI":"武東里","LIN":"12鄰","STREET":" ","SECT":" ","MAREA":"明德新村","LANE":" ","ALLEY":" ","HOUSE_NO":"８７號","E_COORD97":175255.09,"N_COORD97":2536134.27,"ADDRESS":"明德新村８７號","OBJECTID":90193},"geometry":{"x":175255.09000000078,"y":2536134.2699999996}},{"attributes":{"ID":90194,"DIS_CODE":0,"TOWNNAME":"北區","LI":"仁愛里","LIN":"10鄰","STREET":"東豐路","SECT":" ","MAREA":" ","LANE":"２２７巷","ALLEY":"２４弄","HOUSE_NO":"１５號四樓之２３","E_COORD97":170217.23000000001,"N_COORD97":2544981.3199999998,"ADDRESS":"東豐路２２７巷２４弄１５號四樓之２３","OBJECTID":90194},"geometry":{"x":170217.23000000045,"y":2544981.3200000003}},{"attributes":{"ID":90195,"DIS_CODE":0,"TOWNNAME":"歸仁區","LI":"武東里","LIN":"12鄰","STREET":" ","SECT":" ","MAREA":"明德新村","LANE":" ","ALLEY":" ","HOUSE_NO":"５７號","E_COORD97":175123.89000000001,"N_COORD97":2536163.27,"ADDRESS":"明德新村５７號","OBJECTID":90195},"geometry":{"x":175123.8900000006,"y":2536163.2700000033}},{"attributes":{"ID":90196,"DIS_CODE":0,"TOWNNAME":"歸仁區","LI":"武東里","LIN":"12鄰","STREET":" ","SECT":" ","MAREA":"明德新村","LANE":" ","ALLEY":" ","HOUSE_NO":"２９號","E_COORD97":175322.89000000001,"N_COORD97":2536143.27,"ADDRESS":"明德新村２９號","OBJECTID":90196},"geometry":{"x":175322.88999999966,"y":2536143.2700000014}},{"attributes":{"ID":90197,"DIS_CODE":0,"TOWNNAME":"玉井區","LI":"層林里","LIN":"12鄰","STREET":" ","SECT":" ","MAREA":"層林","LANE":" ","ALLEY":" ","HOUSE_NO":"１４６號","E_COORD97":191063.20999999999,"N_COORD97":2553810.2400000002,"ADDRESS":"層林１４６號","OBJECTID":90197},"geometry":{"x":191063.21000000089,"y":2553810.2400000002}},{"attributes":{"ID":90198,"DIS_CODE":0,"TOWNNAME":"北區","LI":"仁愛里","LIN":"10鄰","STREET":"東豐路","SECT":" ","MAREA":" ","LANE":"２２７巷","ALLEY":"２４弄","HOUSE_NO":"１５號四樓之２４","E_COORD97":170217.23000000001,"N_COORD97":2544981.3199999998,"ADDRESS":"東豐路２２７巷２４弄１５號四樓之２４","OBJECTID":90198},"geometry":{"x":170217.23000000045,"y":2544981.3200000003}},{"attributes":{"ID":90199,"DIS_CODE":0,"TOWNNAME":"玉井區","LI":"層林里","LIN":"12鄰","STREET":" ","SECT":" ","MAREA":"層林","LANE":" ","ALLEY":" ","HOUSE_NO":"１４０之２號","E_COORD97":191428.01000000001,"N_COORD97":2554115.2999999998,"ADDRESS":"層林１４０之２號","OBJECTID":90199},"geometry":{"x":191428.00999999978,"y":2554115.3000000007}},{"attributes":{"ID":90200,"DIS_CODE":0,"TOWNNAME":"北區","LI":"仁愛里","LIN":"10鄰","STREET":"東豐路","SECT":" ","MAREA":" ","LANE":"２２７巷","ALLEY":"２４弄","HOUSE_NO":"１５號四樓之２５","E_COORD97":170217.23000000001,"N_COORD97":2544981.3199999998,"ADDRESS":"東豐路２２７巷２４弄１５號四樓之２５","OBJECTID":90200},"geometry":{"x":170217.23000000045,"y":2544981.3200000003}}]}