{"displayFieldName":"TOWNNAME","fieldAliases":{"ID":"ID","DIS_CODE":"DIS_CODE","TOWNNAME":"TOWNNAME","LI":"LI","LIN":"LIN","STREET":"STREET","SECT":"SECT","MAREA":"MAREA","LANE":"LANE","ALLEY":"ALLEY","HOUSE_NO":"HOUSE_NO","E_COORD97":"E_COORD97","N_COORD97":"N_COORD97","ADDRESS":"ADDRESS","OBJECTID":"OBJECTID"},"geometryType":"esriGeometryPoint","spatialReference":{"wkid":102443,"latestWkid":3826},"fields":[{"name":"ID","type":"esriFieldTypeDouble","alias":"ID"},{"name":"DIS_CODE","type":"esriFieldTypeInteger","alias":"DIS_CODE"},{"name":"TOWNNAME","type":"esriFieldTypeString","alias":"TOWNNAME","length":8},{"name":"LI","type":"esriFieldTypeString","alias":"LI","length":8},{"name":"LIN","type":"esriFieldTypeString","alias":"LIN","length":12},{"name":"STREET","type":"esriFieldTypeString","alias":"STREET","length":20},{"name":"SECT","type":"esriFieldTypeString","alias":"SECT","length":8},{"name":"MAREA","type":"esriFieldTypeString","alias":"MAREA","length":12},{"name":"LANE","type":"esriFieldTypeString","alias":"LANE","length":10},{"name":"ALLEY","type":"esriFieldTypeString","alias":"ALLEY","length":10},{"name":"HOUSE_NO","type":"esriFieldTypeString","alias":"HOUSE_NO","length":20},{"name":"E_COORD97","type":"esriFieldTypeDouble","alias":"E_COORD97"},{"name":"N_COORD97","type":"esriFieldTypeDouble","alias":"N_COORD97"},{"name":"ADDRESS","type":"esriFieldTypeString","alias":"ADDRESS","length":50},{"name":"OBJECTID","type":"esriFieldTypeOID","alias":"OBJECTID"}],"features":[{"attributes":{"ID":349210,"DIS_CODE":0,"TOWNNAME":"安南區","LI":"溪心里","LIN":"8鄰","STREET":"安中路","SECT":"二段","MAREA":" ","LANE":" ","ALLEY":" ","HOUSE_NO":"９３號","E_COORD97":166640.23999999999,"N_COORD97":2549662.5099999998,"ADDRESS":"安中路二段９３號","OBJECTID":349201},"geometry":{"x":166640.24000000022,"y":2549662.5100000016}},{"attributes":{"ID":349211,"DIS_CODE":0,"TOWNNAME":"安南區","LI":"溪心里","LIN":"8鄰","STREET":"安中路","SECT":"二段","MAREA":" ","LANE":" ","ALLEY":" ","HOUSE_NO":"９１號","E_COORD97":166643.25,"N_COORD97":2549661.5600000001,"ADDRESS":"安中路二段９１號","OBJECTID":349202},"geometry":{"x":166643.25,"y":2549661.5600000005}},{"attributes":{"ID":349212,"DIS_CODE":0,"TOWNNAME":"安南區","LI":"溪心里","LIN":"8鄰","STREET":"安中路","SECT":"二段","MAREA":" ","LANE":" ","ALLEY":" ","HOUSE_NO":"１０３號","E_COORD97":166624.51999999999,"N_COORD97":2549665.6899999999,"ADDRESS":"安中路二段１０３號","OBJECTID":349203},"geometry":{"x":166624.52000000048,"y":2549665.6900000013}},{"attributes":{"ID":349213,"DIS_CODE":0,"TOWNNAME":"安南區","LI":"溪心里","LIN":"8鄰","STREET":"安中路","SECT":"二段","MAREA":" ","LANE":" ","ALLEY":" ","HOUSE_NO":"１０５號","E_COORD97":166620.39000000001,"N_COORD97":2549666.1600000001,"ADDRESS":"安中路二段１０５號","OBJECTID":349204},"geometry":{"x":166620.3900000006,"y":2549666.160000002}},{"attributes":{"ID":349214,"DIS_CODE":0,"TOWNNAME":"安南區","LI":"溪心里","LIN":"8鄰","STREET":"安中路","SECT":"二段","MAREA":" ","LANE":" ","ALLEY":" ","HOUSE_NO":"１０７號","E_COORD97":166617.06,"N_COORD97":2549667.27,"ADDRESS":"安中路二段１０７號","OBJECTID":349205},"geometry":{"x":166617.05999999959,"y":2549667.2700000014}},{"attributes":{"ID":349215,"DIS_CODE":0,"TOWNNAME":"安南區","LI":"溪心里","LIN":"8鄰","STREET":"安中路","SECT":"二段","MAREA":" ","LANE":" ","ALLEY":" ","HOUSE_NO":"１０９號","E_COORD97":166613.57000000001,"N_COORD97":2549668.0699999998,"ADDRESS":"安中路二段１０９號","OBJECTID":349206},"geometry":{"x":166613.57000000123,"y":2549668.0700000003}},{"attributes":{"ID":349216,"DIS_CODE":0,"TOWNNAME":"北區","LI":"仁愛里","LIN":"6鄰","STREET":"開元路","SECT":" ","MAREA":" ","LANE":"１４８巷","ALLEY":" ","HOUSE_NO":"１５４號","E_COORD97":170064.44,"N_COORD97":2545048.25,"ADDRESS":"開元路１４８巷１５４號","OBJECTID":349207},"geometry":{"x":170064.44000000134,"y":2545048.25}},{"attributes":{"ID":349217,"DIS_CODE":0,"TOWNNAME":"北區","LI":"仁愛里","LIN":"6鄰","STREET":"開元路","SECT":" ","MAREA":" ","LANE":"１４８巷","ALLEY":" ","HOUSE_NO":"１５６號","E_COORD97":170069.5,"N_COORD97":2545045.0800000001,"ADDRESS":"開元路１４８巷１５６號","OBJECTID":349208},"geometry":{"x":170069.50000000186,"y":2545045.0800000019}},{"attributes":{"ID":349218,"DIS_CODE":0,"TOWNNAME":"北區","LI":"仁愛里","LIN":"6鄰","STREET":"開元路","SECT":" ","MAREA":" ","LANE":"１４８巷","ALLEY":" ","HOUSE_NO":"１５８號","E_COORD97":170070.32000000001,"N_COORD97":2545041.1699999999,"ADDRESS":"開元路１４８巷１５８號","OBJECTID":349209},"geometry":{"x":170070.3200000003,"y":2545041.1700000018}},{"attributes":{"ID":349219,"DIS_CODE":0,"TOWNNAME":"北區","LI":"仁愛里","LIN":"6鄰","STREET":"開元路","SECT":" ","MAREA":" ","LANE":"１４８巷","ALLEY":" ","HOUSE_NO":"１６０號","E_COORD97":170071.45999999999,"N_COORD97":2545037.7400000002,"ADDRESS":"開元路１４８巷１６０號","OBJECTID":349210},"geometry":{"x":170071.46000000183,"y":2545037.7400000021}},{"attributes":{"ID":349220,"DIS_CODE":0,"TOWNNAME":"將軍區","LI":"保源里","LIN":"18鄰","STREET":" ","SECT":" ","MAREA":"源頭","LANE":" ","ALLEY":" ","HOUSE_NO":"７０號","E_COORD97":164633.95000000001,"N_COORD97":2568012.4900000002,"ADDRESS":"源頭７０號","OBJECTID":349211},"geometry":{"x":164633.95000000112,"y":2568012.4900000021}},{"attributes":{"ID":349221,"DIS_CODE":0,"TOWNNAME":"將軍區","LI":"鯤鯓里","LIN":"18鄰","STREET":" ","SECT":" ","MAREA":"鯤鯓","LANE":" ","ALLEY":" ","HOUSE_NO":"２３５之２６號","E_COORD97":156985.07999999999,"N_COORD97":2565516.5600000001,"ADDRESS":"鯤鯓２３５之２６號","OBJECTID":349212},"geometry":{"x":156985.08000000007,"y":2565516.5600000024}},{"attributes":{"ID":349222,"DIS_CODE":0,"TOWNNAME":"仁德區","LI":"大甲里","LIN":"18鄰","STREET":"行大街","SECT":" ","MAREA":" ","LANE":"５２１巷","ALLEY":" ","HOUSE_NO":"３號","E_COORD97":169248.20999999999,"N_COORD97":2535356.75,"ADDRESS":"行大街５２１巷３號","OBJECTID":349213},"geometry":{"x":169248.21000000089,"y":2535356.7500000037}},{"attributes":{"ID":349223,"DIS_CODE":0,"TOWNNAME":"北區","LI":"仁愛里","LIN":"6鄰","STREET":"開元路","SECT":" ","MAREA":" ","LANE":"１４８巷","ALLEY":" ","HOUSE_NO":"１６２號","E_COORD97":170073.25,"N_COORD97":2545033.0099999998,"ADDRESS":"開元路１４８巷１６２號","OBJECTID":349214},"geometry":{"x":170073.25000000093,"y":2545033.0099999998}},{"attributes":{"ID":349224,"DIS_CODE":0,"TOWNNAME":"將軍區","LI":"鯤鯓里","LIN":"18鄰","STREET":" ","SECT":" ","MAREA":"鯤鯓","LANE":" ","ALLEY":" ","HOUSE_NO":"２３５之２７號","E_COORD97":156990.56,"N_COORD97":2565517.0299999998,"ADDRESS":"鯤鯓２３５之２７號","OBJECTID":349215},"geometry":{"x":156990.56000000052,"y":2565517.0299999993}},{"attributes":{"ID":349225,"DIS_CODE":0,"TOWNNAME":"將軍區","LI":"鯤鯓里","LIN":"18鄰","STREET":" ","SECT":" ","MAREA":"鯤鯓","LANE":" ","ALLEY":" ","HOUSE_NO":"２３５之３１號","E_COORD97":156979.73000000001,"N_COORD97":2565534.0499999998,"ADDRESS":"鯤鯓２３５之３１號","OBJECTID":349216},"geometry":{"x":156979.73000000045,"y":2565534.0500000026}},{"attributes":{"ID":349226,"DIS_CODE":0,"TOWNNAME":"將軍區","LI":"鯤鯓里","LIN":"18鄰","STREET":" ","SECT":" ","MAREA":"鯤鯓","LANE":" ","ALLEY":" ","HOUSE_NO":"２３５之３２號","E_COORD97":156979.06,"N_COORD97":2565540.1000000001,"ADDRESS":"鯤鯓２３５之３２號","OBJECTID":349217},"geometry":{"x":156979.06000000052,"y":2565540.1000000015}},{"attributes":{"ID":349227,"DIS_CODE":0,"TOWNNAME":"將軍區","LI":"鯤鯓里","LIN":"18鄰","STREET":" ","SECT":" ","MAREA":"鯤鯓","LANE":" ","ALLEY":" ","HOUSE_NO":"２３５之３９號","E_COORD97":156956.20999999999,"N_COORD97":2565573.6800000002,"ADDRESS":"鯤鯓２３５之３９號","OBJECTID":349218},"geometry":{"x":156956.21000000089,"y":2565573.6799999997}},{"attributes":{"ID":349228,"DIS_CODE":0,"TOWNNAME":"將軍區","LI":"鯤鯓里","LIN":"18鄰","STREET":" ","SECT":" ","MAREA":"鯤鯓","LANE":" ","ALLEY":" ","HOUSE_NO":"２３５之４２號","E_COORD97":156959.42000000001,"N_COORD97":2565550.1000000001,"ADDRESS":"鯤鯓２３５之４２號","OBJECTID":349219},"geometry":{"x":156959.42000000179,"y":2565550.1000000015}},{"attributes":{"ID":349229,"DIS_CODE":0,"TOWNNAME":"將軍區","LI":"鯤鯓里","LIN":"18鄰","STREET":" ","SECT":" ","MAREA":"鯤鯓","LANE":" ","ALLEY":" ","HOUSE_NO":"２３５之４３號","E_COORD97":156959.66,"N_COORD97":2565544.6099999999,"ADDRESS":"鯤鯓２３５之４３號","OBJECTID":349220},"geometry":{"x":156959.66000000201,"y":2565544.6099999994}},{"attributes":{"ID":349230,"DIS_CODE":0,"TOWNNAME":"將軍區","LI":"鯤鯓里","LIN":"18鄰","STREET":" ","SECT":" ","MAREA":"鯤鯓","LANE":" ","ALLEY":" ","HOUSE_NO":"２３５之５號","E_COORD97":156943.10000000001,"N_COORD97":2565548.4399999999,"ADDRESS":"鯤鯓２３５之５號","OBJECTID":349221},"geometry":{"x":156943.10000000056,"y":2565548.4399999995}},{"attributes":{"ID":349231,"DIS_CODE":0,"TOWNNAME":"將軍區","LI":"鯤鯓里","LIN":"18鄰","STREET":" ","SECT":" ","MAREA":"鯤鯓","LANE":" ","ALLEY":" ","HOUSE_NO":"２３５之６號","E_COORD97":156943.57999999999,"N_COORD97":2565543.8999999999,"ADDRESS":"鯤鯓２３５之６號","OBJECTID":349222},"geometry":{"x":156943.58000000101,"y":2565543.8999999985}},{"attributes":{"ID":349232,"DIS_CODE":0,"TOWNNAME":"將軍區","LI":"鯤鯓里","LIN":"18鄰","STREET":" ","SECT":" ","MAREA":"鯤鯓","LANE":" ","ALLEY":" ","HOUSE_NO":"２３５號","E_COORD97":156940.07000000001,"N_COORD97":2565579.3500000001,"ADDRESS":"鯤鯓２３５號","OBJECTID":349223},"geometry":{"x":156940.07000000216,"y":2565579.3499999996}},{"attributes":{"ID":349233,"DIS_CODE":0,"TOWNNAME":"將軍區","LI":"鯤鯓里","LIN":"18鄰","STREET":" ","SECT":" ","MAREA":"鯤鯓","LANE":" ","ALLEY":" ","HOUSE_NO":"２３６號","E_COORD97":156951.89000000001,"N_COORD97":2565630.6600000001,"ADDRESS":"鯤鯓２３６號","OBJECTID":349224},"geometry":{"x":156951.88999999966,"y":2565630.660000002}},{"attributes":{"ID":349234,"DIS_CODE":0,"TOWNNAME":"西港區","LI":"港東里","LIN":"18鄰","STREET":" ","SECT":" ","MAREA":"八份","LANE":" ","ALLEY":" ","HOUSE_NO":"６１號","E_COORD97":170085.57999999999,"N_COORD97":2558629.1000000001,"ADDRESS":"八份６１號","OBJECTID":349225},"geometry":{"x":170085.58000000007,"y":2558629.1000000034}},{"attributes":{"ID":349235,"DIS_CODE":0,"TOWNNAME":"西港區","LI":"港東里","LIN":"18鄰","STREET":" ","SECT":" ","MAREA":"八份","LANE":" ","ALLEY":" ","HOUSE_NO":"６４號","E_COORD97":170089.26000000001,"N_COORD97":2558567.6299999999,"ADDRESS":"八份６４號","OBJECTID":349226},"geometry":{"x":170089.25999999978,"y":2558567.6300000008}},{"attributes":{"ID":349236,"DIS_CODE":0,"TOWNNAME":"西港區","LI":"港東里","LIN":"18鄰","STREET":" ","SECT":" ","MAREA":"八份","LANE":" ","ALLEY":" ","HOUSE_NO":"６６號","E_COORD97":170116.31,"N_COORD97":2558610.4399999999,"ADDRESS":"八份６６號","OBJECTID":349227},"geometry":{"x":170116.31000000052,"y":2558610.4400000013}},{"attributes":{"ID":349237,"DIS_CODE":0,"TOWNNAME":"安南區","LI":"溪心里","LIN":"8鄰","STREET":"安中路","SECT":"二段","MAREA":" ","LANE":" ","ALLEY":" ","HOUSE_NO":"１１１號","E_COORD97":166610.70999999999,"N_COORD97":2549669.1800000002,"ADDRESS":"安中路二段１１１號","OBJECTID":349228},"geometry":{"x":166610.71000000089,"y":2549669.1800000016}},{"attributes":{"ID":349238,"DIS_CODE":0,"TOWNNAME":"西港區","LI":"竹林里","LIN":"18鄰","STREET":" ","SECT":" ","MAREA":"大竹林","LANE":" ","ALLEY":" ","HOUSE_NO":"１６４號","E_COORD97":166911.81,"N_COORD97":2557765.2599999998,"ADDRESS":"大竹林１６４號","OBJECTID":349229},"geometry":{"x":166911.80999999959,"y":2557765.2599999998}},{"attributes":{"ID":349239,"DIS_CODE":0,"TOWNNAME":"西港區","LI":"竹林里","LIN":"18鄰","STREET":" ","SECT":" ","MAREA":"大竹林","LANE":" ","ALLEY":" ","HOUSE_NO":"１６５號之１","E_COORD97":166910.91,"N_COORD97":2557808.6099999999,"ADDRESS":"大竹林１６５號之１","OBJECTID":349230},"geometry":{"x":166910.91000000108,"y":2557808.6100000013}},{"attributes":{"ID":349240,"DIS_CODE":0,"TOWNNAME":"西港區","LI":"竹林里","LIN":"18鄰","STREET":" ","SECT":" ","MAREA":"大竹林","LANE":" ","ALLEY":" ","HOUSE_NO":"１６５號之２","E_COORD97":166912.29999999999,"N_COORD97":2557803.6099999999,"ADDRESS":"大竹林１６５號之２","OBJECTID":349231},"geometry":{"x":166912.29999999981,"y":2557803.6099999994}},{"attributes":{"ID":349241,"DIS_CODE":0,"TOWNNAME":"西港區","LI":"竹林里","LIN":"18鄰","STREET":" ","SECT":" ","MAREA":"大竹林","LANE":" ","ALLEY":" ","HOUSE_NO":"１６５號之３","E_COORD97":166913.37,"N_COORD97":2557799.1800000002,"ADDRESS":"大竹林１６５號之３","OBJECTID":349232},"geometry":{"x":166913.37000000011,"y":2557799.1800000016}},{"attributes":{"ID":349242,"DIS_CODE":0,"TOWNNAME":"西港區","LI":"竹林里","LIN":"18鄰","STREET":" ","SECT":" ","MAREA":"大竹林","LANE":" ","ALLEY":" ","HOUSE_NO":"１６５號","E_COORD97":166923.82999999999,"N_COORD97":2557820.5099999998,"ADDRESS":"大竹林１６５號","OBJECTID":349233},"geometry":{"x":166923.83000000007,"y":2557820.5100000016}},{"attributes":{"ID":349243,"DIS_CODE":0,"TOWNNAME":"西港區","LI":"竹林里","LIN":"18鄰","STREET":" ","SECT":" ","MAREA":"大竹林","LANE":" ","ALLEY":" ","HOUSE_NO":"１６６號之１","E_COORD97":166973.10999999999,"N_COORD97":2557691.2200000002,"ADDRESS":"大竹林１６６號之１","OBJECTID":349234},"geometry":{"x":166973.11000000034,"y":2557691.2200000025}},{"attributes":{"ID":349244,"DIS_CODE":0,"TOWNNAME":"西港區","LI":"竹林里","LIN":"18鄰","STREET":" ","SECT":" ","MAREA":"大竹林","LANE":" ","ALLEY":" ","HOUSE_NO":"１６６號之３","E_COORD97":167106.89000000001,"N_COORD97":2557703.1299999999,"ADDRESS":"大竹林１６６號之３","OBJECTID":349235},"geometry":{"x":167106.8900000006,"y":2557703.1300000008}},{"attributes":{"ID":349245,"DIS_CODE":0,"TOWNNAME":"西港區","LI":"竹林里","LIN":"18鄰","STREET":" ","SECT":" ","MAREA":"大竹林","LANE":" ","ALLEY":" ","HOUSE_NO":"１６６之５號","E_COORD97":167115.48000000001,"N_COORD97":2557734.0699999998,"ADDRESS":"大竹林１６６之５號","OBJECTID":349236},"geometry":{"x":167115.48000000231,"y":2557734.0700000003}},{"attributes":{"ID":349246,"DIS_CODE":0,"TOWNNAME":"西港區","LI":"竹林里","LIN":"18鄰","STREET":" ","SECT":" ","MAREA":"大竹林","LANE":" ","ALLEY":" ","HOUSE_NO":"１６６之７號","E_COORD97":167202.91,"N_COORD97":2557708.7000000002,"ADDRESS":"大竹林１６６之７號","OBJECTID":349237},"geometry":{"x":167202.91000000015,"y":2557708.6999999993}},{"attributes":{"ID":349247,"DIS_CODE":0,"TOWNNAME":"西港區","LI":"竹林里","LIN":"18鄰","STREET":" ","SECT":" ","MAREA":"大竹林","LANE":" ","ALLEY":" ","HOUSE_NO":"１６６號","E_COORD97":166931.76000000001,"N_COORD97":2557661.79,"ADDRESS":"大竹林１６６號","OBJECTID":349238},"geometry":{"x":166931.76000000071,"y":2557661.790000001}},{"attributes":{"ID":349248,"DIS_CODE":0,"TOWNNAME":"西港區","LI":"竹林里","LIN":"18鄰","STREET":" ","SECT":" ","MAREA":"大竹林","LANE":" ","ALLEY":" ","HOUSE_NO":"１號之１１","E_COORD97":166885.76999999999,"N_COORD97":2557492.7000000002,"ADDRESS":"大竹林１號之１１","OBJECTID":349239},"geometry":{"x":166885.77000000048,"y":2557492.7000000011}},{"attributes":{"ID":349249,"DIS_CODE":0,"TOWNNAME":"西港區","LI":"竹林里","LIN":"18鄰","STREET":" ","SECT":" ","MAREA":"大竹林","LANE":" ","ALLEY":" ","HOUSE_NO":"１７０號","E_COORD97":166916.20000000001,"N_COORD97":2557381.9900000002,"ADDRESS":"大竹林１７０號","OBJECTID":349240},"geometry":{"x":166916.20000000019,"y":2557381.9900000002}},{"attributes":{"ID":349250,"DIS_CODE":0,"TOWNNAME":"西港區","LI":"竹林里","LIN":"18鄰","STREET":" ","SECT":" ","MAREA":"大竹林","LANE":" ","ALLEY":" ","HOUSE_NO":"１７１號","E_COORD97":166998.23000000001,"N_COORD97":2557432.21,"ADDRESS":"大竹林１７１號","OBJECTID":349241},"geometry":{"x":166998.23000000045,"y":2557432.2100000009}},{"attributes":{"ID":349251,"DIS_CODE":0,"TOWNNAME":"西港區","LI":"竹林里","LIN":"18鄰","STREET":" ","SECT":" ","MAREA":"大竹林","LANE":" ","ALLEY":" ","HOUSE_NO":"１８３號","E_COORD97":166899.31,"N_COORD97":2557337.02,"ADDRESS":"大竹林１８３號","OBJECTID":349242},"geometry":{"x":166899.31000000052,"y":2557337.0199999996}},{"attributes":{"ID":349252,"DIS_CODE":0,"TOWNNAME":"新化區","LI":"全興里","LIN":"18鄰","STREET":" ","SECT":" ","MAREA":"竹子\u25A0","LANE":" ","ALLEY":" ","HOUSE_NO":"２４７號之１６９","E_COORD97":178539.38,"N_COORD97":2546740.2599999998,"ADDRESS":"竹子\u25A0２４７號之１６９","OBJECTID":349243},"geometry":{"x":178539.38000000175,"y":2546740.2599999998}},{"attributes":{"ID":349253,"DIS_CODE":0,"TOWNNAME":"北區","LI":"仁愛里","LIN":"6鄰","STREET":"開元路","SECT":" ","MAREA":" ","LANE":"１４８巷","ALLEY":" ","HOUSE_NO":"１６４號","E_COORD97":170076.51999999999,"N_COORD97":2545027.7999999998,"ADDRESS":"開元路１４８巷１６４號","OBJECTID":349244},"geometry":{"x":170076.52000000048,"y":2545027.8000000026}},{"attributes":{"ID":349254,"DIS_CODE":0,"TOWNNAME":"北區","LI":"仁愛里","LIN":"6鄰","STREET":"開元路","SECT":" ","MAREA":" ","LANE":"１４８巷","ALLEY":" ","HOUSE_NO":"１６６號","E_COORD97":170077.17000000001,"N_COORD97":2545023.0699999998,"ADDRESS":"開元路１４８巷１６６號","OBJECTID":349245},"geometry":{"x":170077.17000000086,"y":2545023.0700000003}},{"attributes":{"ID":349255,"DIS_CODE":0,"TOWNNAME":"北區","LI":"仁愛里","LIN":"6鄰","STREET":"開元路","SECT":" ","MAREA":" ","LANE":"１４８巷","ALLEY":" ","HOUSE_NO":"１００號","E_COORD97":170043.85999999999,"N_COORD97":2545022.8199999998,"ADDRESS":"開元路１４８巷１００號","OBJECTID":349246},"geometry":{"x":170043.86000000127,"y":2545022.820000004}},{"attributes":{"ID":349256,"DIS_CODE":0,"TOWNNAME":"北區","LI":"仁愛里","LIN":"6鄰","STREET":"開元路","SECT":" ","MAREA":" ","LANE":"１４８巷","ALLEY":" ","HOUSE_NO":"５８號","E_COORD97":170028.07999999999,"N_COORD97":2545106.1200000001,"ADDRESS":"開元路１４８巷５８號","OBJECTID":349247},"geometry":{"x":170028.08000000007,"y":2545106.1200000048}},{"attributes":{"ID":349257,"DIS_CODE":0,"TOWNNAME":"北區","LI":"仁愛里","LIN":"6鄰","STREET":"開元路","SECT":" ","MAREA":" ","LANE":"１４８巷","ALLEY":" ","HOUSE_NO":"６０號","E_COORD97":170032.42000000001,"N_COORD97":2545107.04,"ADDRESS":"開元路１４８巷６０號","OBJECTID":349248},"geometry":{"x":170032.41999999993,"y":2545107.0399999991}},{"attributes":{"ID":349258,"DIS_CODE":0,"TOWNNAME":"北區","LI":"仁愛里","LIN":"6鄰","STREET":"開元路","SECT":" ","MAREA":" ","LANE":"１４８巷","ALLEY":" ","HOUSE_NO":"６２號","E_COORD97":170037.41,"N_COORD97":2545107.4100000001,"ADDRESS":"開元路１４８巷６２號","OBJECTID":349249},"geometry":{"x":170037.41000000015,"y":2545107.410000002}},{"attributes":{"ID":349259,"DIS_CODE":0,"TOWNNAME":"北區","LI":"仁愛里","LIN":"6鄰","STREET":"開元路","SECT":" ","MAREA":" ","LANE":"１４８巷","ALLEY":" ","HOUSE_NO":"６４號","E_COORD97":170034.10000000001,"N_COORD97":2545098.3599999999,"ADDRESS":"開元路１４８巷６４號","OBJECTID":349250},"geometry":{"x":170034.09999999963,"y":2545098.3599999994}},{"attributes":{"ID":349260,"DIS_CODE":0,"TOWNNAME":"北區","LI":"仁愛里","LIN":"6鄰","STREET":"開元路","SECT":" ","MAREA":" ","LANE":"１４８巷","ALLEY":" ","HOUSE_NO":"６６號","E_COORD97":170035.42999999999,"N_COORD97":2545093.8199999998,"ADDRESS":"開元路１４８巷６６號","OBJECTID":349251},"geometry":{"x":170035.4299999997,"y":2545093.820000004}},{"attributes":{"ID":349261,"DIS_CODE":0,"TOWNNAME":"北區","LI":"仁愛里","LIN":"6鄰","STREET":"開元路","SECT":" ","MAREA":" ","LANE":"１４８巷","ALLEY":" ","HOUSE_NO":"６８號","E_COORD97":170036.37,"N_COORD97":2545090.3199999998,"ADDRESS":"開元路１４８巷６８號","OBJECTID":349252},"geometry":{"x":170036.37000000011,"y":2545090.320000004}},{"attributes":{"ID":349262,"DIS_CODE":0,"TOWNNAME":"北區","LI":"仁愛里","LIN":"6鄰","STREET":"開元路","SECT":" ","MAREA":" ","LANE":"１４８巷","ALLEY":" ","HOUSE_NO":"７０號","E_COORD97":170037.13,"N_COORD97":2545085.4900000002,"ADDRESS":"開元路１４８巷７０號","OBJECTID":349253},"geometry":{"x":170037.13000000082,"y":2545085.4899999984}},{"attributes":{"ID":349263,"DIS_CODE":0,"TOWNNAME":"北區","LI":"仁愛里","LIN":"6鄰","STREET":"開元路","SECT":" ","MAREA":" ","LANE":"１４８巷","ALLEY":" ","HOUSE_NO":"７２號","E_COORD97":170038.07999999999,"N_COORD97":2545080.7599999998,"ADDRESS":"開元路１４８巷７２號","OBJECTID":349254},"geometry":{"x":170038.08000000007,"y":2545080.7600000016}},{"attributes":{"ID":349264,"DIS_CODE":0,"TOWNNAME":"北區","LI":"仁愛里","LIN":"6鄰","STREET":"開元路","SECT":" ","MAREA":" ","LANE":"１４８巷","ALLEY":" ","HOUSE_NO":"７４號","E_COORD97":170039.12,"N_COORD97":2545076.5299999998,"ADDRESS":"開元路１４８巷７４號","OBJECTID":349255},"geometry":{"x":170039.12000000104,"y":2545076.5299999993}},{"attributes":{"ID":349265,"DIS_CODE":0,"TOWNNAME":"北區","LI":"仁愛里","LIN":"6鄰","STREET":"開元路","SECT":" ","MAREA":" ","LANE":"１４８巷","ALLEY":" ","HOUSE_NO":"７６號","E_COORD97":170037.79999999999,"N_COORD97":2545072.6499999999,"ADDRESS":"開元路１４８巷７６號","OBJECTID":349256},"geometry":{"x":170037.79999999981,"y":2545072.6500000022}},{"attributes":{"ID":349266,"DIS_CODE":0,"TOWNNAME":"北區","LI":"仁愛里","LIN":"6鄰","STREET":"開元路","SECT":" ","MAREA":" ","LANE":"１４８巷","ALLEY":" ","HOUSE_NO":"７８號","E_COORD97":170038.54999999999,"N_COORD97":2545068.2000000002,"ADDRESS":"開元路１４８巷７８號","OBJECTID":349257},"geometry":{"x":170038.55000000168,"y":2545068.1999999993}},{"attributes":{"ID":349267,"DIS_CODE":0,"TOWNNAME":"北區","LI":"仁愛里","LIN":"6鄰","STREET":"開元路","SECT":" ","MAREA":" ","LANE":"１４８巷","ALLEY":" ","HOUSE_NO":"８０號","E_COORD97":170039.5,"N_COORD97":2545063.75,"ADDRESS":"開元路１４８巷８０號","OBJECTID":349258},"geometry":{"x":170039.50000000093,"y":2545063.7500000019}},{"attributes":{"ID":349268,"DIS_CODE":0,"TOWNNAME":"北區","LI":"仁愛里","LIN":"6鄰","STREET":"開元路","SECT":" ","MAREA":" ","LANE":"１４８巷","ALLEY":" ","HOUSE_NO":"８２號","E_COORD97":170039.88,"N_COORD97":2545059.3100000001,"ADDRESS":"開元路１４８巷８２號","OBJECTID":349259},"geometry":{"x":170039.88000000082,"y":2545059.3100000005}},{"attributes":{"ID":349269,"DIS_CODE":0,"TOWNNAME":"北區","LI":"仁愛里","LIN":"6鄰","STREET":"開元路","SECT":" ","MAREA":" ","LANE":"１４８巷","ALLEY":" ","HOUSE_NO":"８４號","E_COORD97":170042.06,"N_COORD97":2545055.6200000001,"ADDRESS":"開元路１４８巷８４號","OBJECTID":349260},"geometry":{"x":170042.06000000052,"y":2545055.6200000029}},{"attributes":{"ID":349270,"DIS_CODE":0,"TOWNNAME":"北區","LI":"仁愛里","LIN":"6鄰","STREET":"開元路","SECT":" ","MAREA":" ","LANE":"１４８巷","ALLEY":" ","HOUSE_NO":"８６號","E_COORD97":170041.95999999999,"N_COORD97":2545051.9199999999,"ADDRESS":"開元路１４８巷８６號","OBJECTID":349261},"geometry":{"x":170041.95999999996,"y":2545051.9200000037}},{"attributes":{"ID":349271,"DIS_CODE":0,"TOWNNAME":"佳里區","LI":"鎮山里","LIN":"18鄰","STREET":"勝利路","SECT":" ","MAREA":" ","LANE":"１５９巷","ALLEY":" ","HOUSE_NO":"７號","E_COORD97":166047.32999999999,"N_COORD97":2561095.48,"ADDRESS":"勝利路１５９巷７號","OBJECTID":349262},"geometry":{"x":166047.33000000007,"y":2561095.4800000042}},{"attributes":{"ID":349272,"DIS_CODE":0,"TOWNNAME":"佳里區","LI":"鎮山里","LIN":"18鄰","STREET":"勝利路","SECT":" ","MAREA":" ","LANE":"９７巷","ALLEY":" ","HOUSE_NO":"１１號","E_COORD97":166016.17999999999,"N_COORD97":2561216.1600000001,"ADDRESS":"勝利路９７巷１１號","OBJECTID":349263},"geometry":{"x":166016.1799999997,"y":2561216.1600000039}},{"attributes":{"ID":349273,"DIS_CODE":0,"TOWNNAME":"佳里區","LI":"鎮山里","LIN":"18鄰","STREET":"勝利路","SECT":" ","MAREA":" ","LANE":"９７巷","ALLEY":" ","HOUSE_NO":"１３號","E_COORD97":166021.57000000001,"N_COORD97":2561215.9500000002,"ADDRESS":"勝利路９７巷１３號","OBJECTID":349264},"geometry":{"x":166021.57000000123,"y":2561215.9499999993}},{"attributes":{"ID":349274,"DIS_CODE":0,"TOWNNAME":"佳里區","LI":"鎮山里","LIN":"18鄰","STREET":"勝利路","SECT":" ","MAREA":" ","LANE":"９７巷","ALLEY":" ","HOUSE_NO":"１５號","E_COORD97":166028.16,"N_COORD97":2561216.0099999998,"ADDRESS":"勝利路９７巷１５號","OBJECTID":349265},"geometry":{"x":166028.16000000015,"y":2561216.0099999998}},{"attributes":{"ID":349275,"DIS_CODE":0,"TOWNNAME":"佳里區","LI":"鎮山里","LIN":"18鄰","STREET":"勝利路","SECT":" ","MAREA":" ","LANE":"９７巷","ALLEY":" ","HOUSE_NO":"１７號","E_COORD97":166033.92000000001,"N_COORD97":2561215.98,"ADDRESS":"勝利路９７巷１７號","OBJECTID":349266},"geometry":{"x":166033.92000000086,"y":2561215.9800000004}},{"attributes":{"ID":349276,"DIS_CODE":0,"TOWNNAME":"北區","LI":"仁愛里","LIN":"6鄰","STREET":"開元路","SECT":" ","MAREA":" ","LANE":"１４８巷","ALLEY":" ","HOUSE_NO":"８８號","E_COORD97":170042.53,"N_COORD97":2545047.8500000001,"ADDRESS":"開元路１４８巷８８號","OBJECTID":349267},"geometry":{"x":170042.53000000212,"y":2545047.8499999996}},{"attributes":{"ID":349277,"DIS_CODE":0,"TOWNNAME":"北區","LI":"仁愛里","LIN":"6鄰","STREET":"開元路","SECT":" ","MAREA":" ","LANE":"１４８巷","ALLEY":" ","HOUSE_NO":"９０號","E_COORD97":170043.20000000001,"N_COORD97":2545044.3500000001,"ADDRESS":"開元路１４８巷９０號","OBJECTID":349268},"geometry":{"x":170043.20000000112,"y":2545044.3499999996}},{"attributes":{"ID":349278,"DIS_CODE":0,"TOWNNAME":"北區","LI":"仁愛里","LIN":"6鄰","STREET":"開元路","SECT":" ","MAREA":" ","LANE":"１４８巷","ALLEY":" ","HOUSE_NO":"９２號","E_COORD97":170042.82000000001,"N_COORD97":2545040.23,"ADDRESS":"開元路１４８巷９２號","OBJECTID":349269},"geometry":{"x":170042.82000000123,"y":2545040.2300000042}},{"attributes":{"ID":349279,"DIS_CODE":0,"TOWNNAME":"北區","LI":"仁愛里","LIN":"6鄰","STREET":"開元路","SECT":" ","MAREA":" ","LANE":"１４８巷","ALLEY":" ","HOUSE_NO":"９４號","E_COORD97":170044.14000000001,"N_COORD97":2545036.4500000002,"ADDRESS":"開元路１４８巷９４號","OBJECTID":349270},"geometry":{"x":170044.13999999966,"y":2545036.4499999993}},{"attributes":{"ID":349280,"DIS_CODE":0,"TOWNNAME":"北區","LI":"仁愛里","LIN":"6鄰","STREET":"開元路","SECT":" ","MAREA":" ","LANE":"１４８巷","ALLEY":" ","HOUSE_NO":"９６號","E_COORD97":170044.89999999999,"N_COORD97":2545032.4700000002,"ADDRESS":"開元路１４８巷９６號","OBJECTID":349271},"geometry":{"x":170044.90000000037,"y":2545032.4700000025}},{"attributes":{"ID":349281,"DIS_CODE":0,"TOWNNAME":"北區","LI":"仁愛里","LIN":"6鄰","STREET":"開元路","SECT":" ","MAREA":" ","LANE":"１４８巷","ALLEY":" ","HOUSE_NO":"９８號","E_COORD97":170044.62,"N_COORD97":2545028.5899999999,"ADDRESS":"開元路１４８巷９８號","OBJECTID":349272},"geometry":{"x":170044.62000000011,"y":2545028.5900000017}},{"attributes":{"ID":349282,"DIS_CODE":0,"TOWNNAME":"北區","LI":"五福里","LIN":"6鄰","STREET":"自強街","SECT":" ","MAREA":" ","LANE":"８５巷","ALLEY":" ","HOUSE_NO":"２號","E_COORD97":168291.34,"N_COORD97":2544606.3300000001,"ADDRESS":"自強街８５巷２號","OBJECTID":349273},"geometry":{"x":168291.34000000078,"y":2544606.3300000019}},{"attributes":{"ID":349283,"DIS_CODE":0,"TOWNNAME":"北區","LI":"五福里","LIN":"6鄰","STREET":"自強街","SECT":" ","MAREA":" ","LANE":"８５巷","ALLEY":" ","HOUSE_NO":"４號","E_COORD97":168277.95000000001,"N_COORD97":2544615.5499999998,"ADDRESS":"自強街８５巷４號","OBJECTID":349274},"geometry":{"x":168277.95000000019,"y":2544615.5500000026}},{"attributes":{"ID":349284,"DIS_CODE":0,"TOWNNAME":"北區","LI":"五福里","LIN":"6鄰","STREET":"自強街","SECT":" ","MAREA":" ","LANE":"８５巷","ALLEY":" ","HOUSE_NO":"６號","E_COORD97":168261.42999999999,"N_COORD97":2544631.9900000002,"ADDRESS":"自強街８５巷６號","OBJECTID":349275},"geometry":{"x":168261.43000000063,"y":2544631.9900000021}},{"attributes":{"ID":349285,"DIS_CODE":0,"TOWNNAME":"北區","LI":"文成里","LIN":"6鄰","STREET":"文賢路","SECT":" ","MAREA":" ","LANE":"５４６巷","ALLEY":" ","HOUSE_NO":"３５號","E_COORD97":167488.10999999999,"N_COORD97":2545360.5600000001,"ADDRESS":"文賢路５４６巷３５號","OBJECTID":349276},"geometry":{"x":167488.11000000127,"y":2545360.5600000024}},{"attributes":{"ID":349286,"DIS_CODE":0,"TOWNNAME":"北區","LI":"文成里","LIN":"6鄰","STREET":"文賢路","SECT":" ","MAREA":" ","LANE":"５４６巷","ALLEY":" ","HOUSE_NO":"３７號","E_COORD97":167494.59,"N_COORD97":2545359.9900000002,"ADDRESS":"文賢路５４６巷３７號","OBJECTID":349277},"geometry":{"x":167494.59000000078,"y":2545359.9900000002}},{"attributes":{"ID":349287,"DIS_CODE":0,"TOWNNAME":"北區","LI":"文成里","LIN":"6鄰","STREET":"文賢路","SECT":" ","MAREA":" ","LANE":"５４６巷","ALLEY":" ","HOUSE_NO":"３９號","E_COORD97":167498.98000000001,"N_COORD97":2545359.9900000002,"ADDRESS":"文賢路５４６巷３９號","OBJECTID":349278},"geometry":{"x":167498.98000000138,"y":2545359.9900000002}},{"attributes":{"ID":349288,"DIS_CODE":0,"TOWNNAME":"北區","LI":"文成里","LIN":"6鄰","STREET":"文賢路","SECT":" ","MAREA":" ","LANE":"５４６巷","ALLEY":" ","HOUSE_NO":"３９號之１","E_COORD97":167503.94,"N_COORD97":2545360.1800000002,"ADDRESS":"文賢路５４６巷３９號之１","OBJECTID":349279},"geometry":{"x":167503.94000000227,"y":2545360.1800000016}},{"attributes":{"ID":349289,"DIS_CODE":0,"TOWNNAME":"北區","LI":"文成里","LIN":"6鄰","STREET":"文賢路","SECT":" ","MAREA":" ","LANE":"５４６巷","ALLEY":" ","HOUSE_NO":"３９號之２","E_COORD97":167508.70999999999,"N_COORD97":2545360.3700000001,"ADDRESS":"文賢路５４６巷３９號之２","OBJECTID":349280},"geometry":{"x":167508.71000000089,"y":2545360.370000001}},{"attributes":{"ID":349290,"DIS_CODE":0,"TOWNNAME":"北區","LI":"文成里","LIN":"6鄰","STREET":"文賢路","SECT":" ","MAREA":" ","LANE":"５４６巷","ALLEY":" ","HOUSE_NO":"３號","E_COORD97":167408.53,"N_COORD97":2545363.04,"ADDRESS":"文賢路５４６巷３號","OBJECTID":349281},"geometry":{"x":167408.53000000119,"y":2545363.040000001}},{"attributes":{"ID":349291,"DIS_CODE":0,"TOWNNAME":"北區","LI":"文成里","LIN":"6鄰","STREET":"文賢路","SECT":" ","MAREA":" ","LANE":"５４６巷","ALLEY":" ","HOUSE_NO":"４１號","E_COORD97":167532.88,"N_COORD97":2545379.9100000001,"ADDRESS":"文賢路５４６巷４１號","OBJECTID":349282},"geometry":{"x":167532.88000000082,"y":2545379.9100000001}},{"attributes":{"ID":349292,"DIS_CODE":0,"TOWNNAME":"北區","LI":"文成里","LIN":"6鄰","STREET":"文賢路","SECT":" ","MAREA":" ","LANE":"５４６巷","ALLEY":" ","HOUSE_NO":"４１號之１","E_COORD97":167526.07000000001,"N_COORD97":2545396.8900000001,"ADDRESS":"文賢路５４６巷４１號之１","OBJECTID":349283},"geometry":{"x":167526.0700000003,"y":2545396.8900000025}},{"attributes":{"ID":349293,"DIS_CODE":0,"TOWNNAME":"安南區","LI":"溪心里","LIN":"8鄰","STREET":"安中路","SECT":"二段","MAREA":" ","LANE":" ","ALLEY":" ","HOUSE_NO":"１１３號","E_COORD97":166606.57999999999,"N_COORD97":2549669.02,"ADDRESS":"安中路二段１１３號","OBJECTID":349284},"geometry":{"x":166606.58000000101,"y":2549669.0200000014}},{"attributes":{"ID":349294,"DIS_CODE":0,"TOWNNAME":"白河區","LI":"庄內里","LIN":"8鄰","STREET":"仁德街","SECT":" ","MAREA":" ","LANE":" ","ALLEY":" ","HOUSE_NO":"１７號","E_COORD97":190925.45999999999,"N_COORD97":2583617.3900000001,"ADDRESS":"仁德街１７號","OBJECTID":349285},"geometry":{"x":190925.45999999996,"y":2583617.3900000006}},{"attributes":{"ID":349295,"DIS_CODE":0,"TOWNNAME":"白河區","LI":"庄內里","LIN":"8鄰","STREET":"仁德街","SECT":" ","MAREA":" ","LANE":" ","ALLEY":" ","HOUSE_NO":"１９號","E_COORD97":190920.79999999999,"N_COORD97":2583617.5800000001,"ADDRESS":"仁德街１９號","OBJECTID":349286},"geometry":{"x":190920.79999999981,"y":2583617.5800000019}},{"attributes":{"ID":349296,"DIS_CODE":0,"TOWNNAME":"東區","LI":"龍山里","LIN":"8鄰","STREET":"光華街","SECT":" ","MAREA":" ","LANE":" ","ALLEY":" ","HOUSE_NO":"８號","E_COORD97":169977.35000000001,"N_COORD97":2542766.75,"ADDRESS":"光華街８號","OBJECTID":349287},"geometry":{"x":169977.35000000056,"y":2542766.75}},{"attributes":{"ID":349297,"DIS_CODE":0,"TOWNNAME":"白河區","LI":"外角里","LIN":"8鄰","STREET":"文化街","SECT":" ","MAREA":" ","LANE":" ","ALLEY":" ","HOUSE_NO":"９號","E_COORD97":190510.94,"N_COORD97":2583412.8399999999,"ADDRESS":"文化街９號","OBJECTID":349288},"geometry":{"x":190510.94000000227,"y":2583412.8400000017}},{"attributes":{"ID":349298,"DIS_CODE":0,"TOWNNAME":"白河區","LI":"白河里","LIN":"8鄰","STREET":"文明街","SECT":" ","MAREA":" ","LANE":" ","ALLEY":" ","HOUSE_NO":"１２號","E_COORD97":190262.72,"N_COORD97":2582967.1400000001,"ADDRESS":"文明街１２號","OBJECTID":349289},"geometry":{"x":190262.72000000067,"y":2582967.1400000025}},{"attributes":{"ID":349299,"DIS_CODE":0,"TOWNNAME":"白河區","LI":"白河里","LIN":"8鄰","STREET":"文明街","SECT":" ","MAREA":" ","LANE":" ","ALLEY":" ","HOUSE_NO":"１４號","E_COORD97":190266.35999999999,"N_COORD97":2582969.3199999998,"ADDRESS":"文明街１４號","OBJECTID":349290},"geometry":{"x":190266.36000000127,"y":2582969.3200000022}},{"attributes":{"ID":349300,"DIS_CODE":0,"TOWNNAME":"白河區","LI":"白河里","LIN":"8鄰","STREET":"文明街","SECT":" ","MAREA":" ","LANE":" ","ALLEY":" ","HOUSE_NO":"１６號","E_COORD97":190269.95999999999,"N_COORD97":2582971.6699999999,"ADDRESS":"文明街１６號","OBJECTID":349291},"geometry":{"x":190269.96000000089,"y":2582971.6700000037}},{"attributes":{"ID":349301,"DIS_CODE":0,"TOWNNAME":"北區","LI":"文成里","LIN":"6鄰","STREET":"文賢路","SECT":" ","MAREA":" ","LANE":"５４６巷","ALLEY":" ","HOUSE_NO":"４３號","E_COORD97":167523.14999999999,"N_COORD97":2545359.1499999999,"ADDRESS":"文賢路５４６巷４３號","OBJECTID":349292},"geometry":{"x":167523.1500000013,"y":2545359.1500000004}},{"attributes":{"ID":349302,"DIS_CODE":0,"TOWNNAME":"北區","LI":"文成里","LIN":"6鄰","STREET":"文賢路","SECT":" ","MAREA":" ","LANE":"５４６巷","ALLEY":" ","HOUSE_NO":"４５號","E_COORD97":167529.07000000001,"N_COORD97":2545358.5800000001,"ADDRESS":"文賢路５４６巷４５號","OBJECTID":349293},"geometry":{"x":167529.07000000123,"y":2545358.5800000001}},{"attributes":{"ID":349303,"DIS_CODE":0,"TOWNNAME":"北區","LI":"文成里","LIN":"6鄰","STREET":"文賢路","SECT":" ","MAREA":" ","LANE":"５４６巷","ALLEY":" ","HOUSE_NO":"４７號","E_COORD97":167533.82999999999,"N_COORD97":2545358.2000000002,"ADDRESS":"文賢路５４６巷４７號","OBJECTID":349294},"geometry":{"x":167533.83000000101,"y":2545358.2000000011}},{"attributes":{"ID":349304,"DIS_CODE":0,"TOWNNAME":"學甲區","LI":"大灣里","LIN":"18鄰","STREET":" ","SECT":" ","MAREA":"大灣","LANE":" ","ALLEY":" ","HOUSE_NO":"１７８號","E_COORD97":166617.45999999999,"N_COORD97":2567550.1099999999,"ADDRESS":"大灣１７８號","OBJECTID":349295},"geometry":{"x":166617.46000000089,"y":2567550.1100000013}},{"attributes":{"ID":349305,"DIS_CODE":0,"TOWNNAME":"學甲區","LI":"大灣里","LIN":"18鄰","STREET":" ","SECT":" ","MAREA":"大灣","LANE":" ","ALLEY":" ","HOUSE_NO":"１７９號","E_COORD97":166625.14000000001,"N_COORD97":2567584.04,"ADDRESS":"大灣１７９號","OBJECTID":349296},"geometry":{"x":166625.13999999966,"y":2567584.040000001}},{"attributes":{"ID":349306,"DIS_CODE":0,"TOWNNAME":"學甲區","LI":"大灣里","LIN":"18鄰","STREET":" ","SECT":" ","MAREA":"大灣","LANE":" ","ALLEY":" ","HOUSE_NO":"１８０號","E_COORD97":166639.64000000001,"N_COORD97":2567589,"ADDRESS":"大灣１８０號","OBJECTID":349297},"geometry":{"x":166639.6400000006,"y":2567589.0000000019}},{"attributes":{"ID":349307,"DIS_CODE":0,"TOWNNAME":"學甲區","LI":"大灣里","LIN":"18鄰","STREET":" ","SECT":" ","MAREA":"大灣","LANE":" ","ALLEY":" ","HOUSE_NO":"１８１號之１","E_COORD97":166668.44,"N_COORD97":2567589.3700000001,"ADDRESS":"大灣１８１號之１","OBJECTID":349298},"geometry":{"x":166668.44000000134,"y":2567589.3700000048}},{"attributes":{"ID":349308,"DIS_CODE":0,"TOWNNAME":"學甲區","LI":"大灣里","LIN":"18鄰","STREET":" ","SECT":" ","MAREA":"大灣","LANE":" ","ALLEY":" ","HOUSE_NO":"１８１號","E_COORD97":166668.04999999999,"N_COORD97":2567594.21,"ADDRESS":"大灣１８１號","OBJECTID":349299},"geometry":{"x":166668.04999999981,"y":2567594.2100000028}},{"attributes":{"ID":349309,"DIS_CODE":0,"TOWNNAME":"學甲區","LI":"大灣里","LIN":"18鄰","STREET":" ","SECT":" ","MAREA":"大灣","LANE":" ","ALLEY":" ","HOUSE_NO":"１８２號之１","E_COORD97":166669.98999999999,"N_COORD97":2567580.7599999998,"ADDRESS":"大灣１８２號之１","OBJECTID":349300},"geometry":{"x":166669.99000000115,"y":2567580.7599999998}},{"attributes":{"ID":349310,"DIS_CODE":0,"TOWNNAME":"北區","LI":"文成里","LIN":"6鄰","STREET":"文賢路","SECT":" ","MAREA":" ","LANE":"５４６巷","ALLEY":" ","HOUSE_NO":"４９號","E_COORD97":167539.94,"N_COORD97":2545358.2000000002,"ADDRESS":"文賢路５４６巷４９號","OBJECTID":349301},"geometry":{"x":167539.94000000134,"y":2545358.2000000011}},{"attributes":{"ID":349311,"DIS_CODE":0,"TOWNNAME":"佳里區","LI":"建南里","LIN":"18鄰","STREET":"博愛街","SECT":" ","MAREA":" ","LANE":" ","ALLEY":" ","HOUSE_NO":"１４５號","E_COORD97":165703.48000000001,"N_COORD97":2561965.9100000001,"ADDRESS":"博愛街１４５號","OBJECTID":349302},"geometry":{"x":165703.48000000138,"y":2561965.9100000001}},{"attributes":{"ID":349312,"DIS_CODE":0,"TOWNNAME":"學甲區","LI":"大灣里","LIN":"18鄰","STREET":" ","SECT":" ","MAREA":"大灣","LANE":" ","ALLEY":" ","HOUSE_NO":"１８２號","E_COORD97":166669.04000000001,"N_COORD97":2567585.7200000002,"ADDRESS":"大灣１８２號","OBJECTID":349303},"geometry":{"x":166669.04000000097,"y":2567585.7200000007}},{"attributes":{"ID":349313,"DIS_CODE":0,"TOWNNAME":"學甲區","LI":"大灣里","LIN":"18鄰","STREET":" ","SECT":" ","MAREA":"大灣","LANE":" ","ALLEY":" ","HOUSE_NO":"１８３號","E_COORD97":166648.32000000001,"N_COORD97":2567574.4100000001,"ADDRESS":"大灣１８３號","OBJECTID":349304},"geometry":{"x":166648.3200000003,"y":2567574.4099999983}},{"attributes":{"ID":349314,"DIS_CODE":0,"TOWNNAME":"學甲區","LI":"新達里","LIN":"18鄰","STREET":" ","SECT":" ","MAREA":"山寮","LANE":" ","ALLEY":" ","HOUSE_NO":"２２號","E_COORD97":167783.64999999999,"N_COORD97":2570499.79,"ADDRESS":"山寮２２號","OBJECTID":349305},"geometry":{"x":167783.65000000037,"y":2570499.7899999991}},{"attributes":{"ID":349315,"DIS_CODE":0,"TOWNNAME":"學甲區","LI":"豐和里","LIN":"18鄰","STREET":" ","SECT":" ","MAREA":"美和","LANE":" ","ALLEY":" ","HOUSE_NO":"２４號之２","E_COORD97":167990.04000000001,"N_COORD97":2569325.0699999998,"ADDRESS":"美和２４號之２","OBJECTID":349306},"geometry":{"x":167990.04000000097,"y":2569325.0700000003}},{"attributes":{"ID":349316,"DIS_CODE":0,"TOWNNAME":"歸仁區","LI":"南興里","LIN":"18鄰","STREET":"南興街","SECT":" ","MAREA":" ","LANE":"２３１巷","ALLEY":" ","HOUSE_NO":"５號","E_COORD97":175646.91,"N_COORD97":2541360.25,"ADDRESS":"南興街２３１巷５號","OBJECTID":349307},"geometry":{"x":175646.91000000015,"y":2541360.25}},{"attributes":{"ID":349317,"DIS_CODE":0,"TOWNNAME":"歸仁區","LI":"看西里","LIN":"18鄰","STREET":"成功五街","SECT":" ","MAREA":" ","LANE":"９５巷","ALLEY":" ","HOUSE_NO":"３號","E_COORD97":178410.76000000001,"N_COORD97":2539933.3599999999,"ADDRESS":"成功五街９５巷３號","OBJECTID":349308},"geometry":{"x":178410.75999999978,"y":2539933.3600000013}},{"attributes":{"ID":349318,"DIS_CODE":0,"TOWNNAME":"歸仁區","LI":"看西里","LIN":"18鄰","STREET":"成功五街","SECT":" ","MAREA":" ","LANE":"８８巷","ALLEY":" ","HOUSE_NO":"１０號","E_COORD97":178403.60999999999,"N_COORD97":2539880.3599999999,"ADDRESS":"成功五街８８巷１０號","OBJECTID":349309},"geometry":{"x":178403.61000000034,"y":2539880.3599999994}},{"attributes":{"ID":349319,"DIS_CODE":0,"TOWNNAME":"北區","LI":"文成里","LIN":"6鄰","STREET":"文賢路","SECT":" ","MAREA":" ","LANE":"５４６巷","ALLEY":" ","HOUSE_NO":"５１號","E_COORD97":167544.70999999999,"N_COORD97":2545358.3900000001,"ADDRESS":"文賢路５４６巷５１號","OBJECTID":349310},"geometry":{"x":167544.71000000089,"y":2545358.3900000025}},{"attributes":{"ID":349320,"DIS_CODE":0,"TOWNNAME":"北區","LI":"文成里","LIN":"6鄰","STREET":"文賢路","SECT":" ","MAREA":" ","LANE":"５４６巷","ALLEY":" ","HOUSE_NO":"５３號","E_COORD97":167550.04999999999,"N_COORD97":2545358.2000000002,"ADDRESS":"文賢路５４６巷５３號","OBJECTID":349311},"geometry":{"x":167550.05000000168,"y":2545358.2000000011}},{"attributes":{"ID":349321,"DIS_CODE":0,"TOWNNAME":"北區","LI":"文成里","LIN":"6鄰","STREET":"文賢路","SECT":" ","MAREA":" ","LANE":"５４６巷","ALLEY":" ","HOUSE_NO":"５５號","E_COORD97":167556.34,"N_COORD97":2545358.2000000002,"ADDRESS":"文賢路５４６巷５５號","OBJECTID":349312},"geometry":{"x":167556.33999999985,"y":2545358.2000000011}},{"attributes":{"ID":349322,"DIS_CODE":0,"TOWNNAME":"北區","LI":"文成里","LIN":"6鄰","STREET":"文賢路","SECT":" ","MAREA":" ","LANE":"５４６巷","ALLEY":" ","HOUSE_NO":"５７號","E_COORD97":167562.06,"N_COORD97":2545358.0099999998,"ADDRESS":"文賢路５４６巷５７號","OBJECTID":349313},"geometry":{"x":167562.06000000052,"y":2545358.0100000016}},{"attributes":{"ID":349323,"DIS_CODE":0,"TOWNNAME":"北區","LI":"文成里","LIN":"6鄰","STREET":"文賢路","SECT":" ","MAREA":" ","LANE":"５４６巷","ALLEY":" ","HOUSE_NO":"５９號","E_COORD97":167567.20999999999,"N_COORD97":2545357.4399999999,"ADDRESS":"文賢路５４６巷５９號","OBJECTID":349314},"geometry":{"x":167567.20999999996,"y":2545357.4400000013}},{"attributes":{"ID":349324,"DIS_CODE":0,"TOWNNAME":"北區","LI":"文成里","LIN":"6鄰","STREET":"文賢路","SECT":" ","MAREA":" ","LANE":"５４６巷","ALLEY":" ","HOUSE_NO":"６１號","E_COORD97":167572.54999999999,"N_COORD97":2545357.0600000001,"ADDRESS":"文賢路５４６巷６１號","OBJECTID":349315},"geometry":{"x":167572.55000000075,"y":2545357.0600000042}},{"attributes":{"ID":349325,"DIS_CODE":0,"TOWNNAME":"北區","LI":"文成里","LIN":"6鄰","STREET":"文賢路","SECT":" ","MAREA":" ","LANE":"５４６巷","ALLEY":" ","HOUSE_NO":"６３號","E_COORD97":167578.45999999999,"N_COORD97":2545356.8599999999,"ADDRESS":"文賢路５４６巷６３號","OBJECTID":349316},"geometry":{"x":167578.46000000089,"y":2545356.8600000031}},{"attributes":{"ID":349326,"DIS_CODE":0,"TOWNNAME":"北區","LI":"文成里","LIN":"6鄰","STREET":"文賢路","SECT":" ","MAREA":" ","LANE":"５４６巷","ALLEY":" ","HOUSE_NO":"６５號","E_COORD97":167583.98999999999,"N_COORD97":2545356.8599999999,"ADDRESS":"文賢路５４６巷６５號","OBJECTID":349317},"geometry":{"x":167583.99000000022,"y":2545356.8600000031}},{"attributes":{"ID":349327,"DIS_CODE":0,"TOWNNAME":"北區","LI":"文成里","LIN":"6鄰","STREET":"文賢路","SECT":" ","MAREA":" ","LANE":"５４６巷","ALLEY":" ","HOUSE_NO":"７號","E_COORD97":167413.67999999999,"N_COORD97":2545362.46,"ADDRESS":"文賢路５４６巷７號","OBJECTID":349318},"geometry":{"x":167413.68000000063,"y":2545362.4600000028}},{"attributes":{"ID":349328,"DIS_CODE":0,"TOWNNAME":"北區","LI":"文成里","LIN":"6鄰","STREET":"文賢路","SECT":" ","MAREA":" ","LANE":"５４６巷","ALLEY":" ","HOUSE_NO":"９號","E_COORD97":167420.35999999999,"N_COORD97":2545363.23,"ADDRESS":"文賢路５４６巷９號","OBJECTID":349319},"geometry":{"x":167420.36000000127,"y":2545363.2300000023}},{"attributes":{"ID":349329,"DIS_CODE":0,"TOWNNAME":"北區","LI":"文成里","LIN":"6鄰","STREET":"文賢路","SECT":" ","MAREA":" ","LANE":"５７２巷","ALLEY":" ","HOUSE_NO":"１０號","E_COORD97":167410.64000000001,"N_COORD97":2545410.6800000002,"ADDRESS":"文賢路５７２巷１０號","OBJECTID":349320},"geometry":{"x":167410.6400000006,"y":2545410.6800000016}},{"attributes":{"ID":349330,"DIS_CODE":0,"TOWNNAME":"北區","LI":"文成里","LIN":"6鄰","STREET":"文賢路","SECT":" ","MAREA":" ","LANE":"５７２巷","ALLEY":" ","HOUSE_NO":"１２號","E_COORD97":167414.82999999999,"N_COORD97":2545410.2999999998,"ADDRESS":"文賢路５７２巷１２號","OBJECTID":349321},"geometry":{"x":167414.83000000101,"y":2545410.3000000026}},{"attributes":{"ID":349331,"DIS_CODE":0,"TOWNNAME":"北區","LI":"文成里","LIN":"6鄰","STREET":"文賢路","SECT":" ","MAREA":" ","LANE":"５７２巷","ALLEY":" ","HOUSE_NO":"１３號","E_COORD97":167424.76000000001,"N_COORD97":2545423.9500000002,"ADDRESS":"文賢路５７２巷１３號","OBJECTID":349322},"geometry":{"x":167424.76000000164,"y":2545423.950000003}},{"attributes":{"ID":349332,"DIS_CODE":0,"TOWNNAME":"北區","LI":"文成里","LIN":"6鄰","STREET":"文賢路","SECT":" ","MAREA":" ","LANE":"５７２巷","ALLEY":" ","HOUSE_NO":"１４號","E_COORD97":167419.60000000001,"N_COORD97":2545410.2999999998,"ADDRESS":"文賢路５７２巷１４號","OBJECTID":349323},"geometry":{"x":167419.60000000056,"y":2545410.3000000026}},{"attributes":{"ID":349333,"DIS_CODE":0,"TOWNNAME":"北區","LI":"文成里","LIN":"6鄰","STREET":"文賢路","SECT":" ","MAREA":" ","LANE":"５７２巷","ALLEY":" ","HOUSE_NO":"１５號","E_COORD97":167431.42999999999,"N_COORD97":2545427.1899999999,"ADDRESS":"文賢路５７２巷１５號","OBJECTID":349324},"geometry":{"x":167431.4299999997,"y":2545427.1900000013}},{"attributes":{"ID":349334,"DIS_CODE":0,"TOWNNAME":"北區","LI":"文成里","LIN":"6鄰","STREET":"文賢路","SECT":" ","MAREA":" ","LANE":"５７２巷","ALLEY":" ","HOUSE_NO":"１６號","E_COORD97":167426.28,"N_COORD97":2545409.5299999998,"ADDRESS":"文賢路５７２巷１６號","OBJECTID":349325},"geometry":{"x":167426.28000000026,"y":2545409.5299999993}},{"attributes":{"ID":349335,"DIS_CODE":0,"TOWNNAME":"北區","LI":"文成里","LIN":"6鄰","STREET":"文賢路","SECT":" ","MAREA":" ","LANE":"５７２巷","ALLEY":" ","HOUSE_NO":"１７號","E_COORD97":167438.10999999999,"N_COORD97":2545425.6600000001,"ADDRESS":"文賢路５７２巷１７號","OBJECTID":349326},"geometry":{"x":167438.1099999994,"y":2545425.6600000001}},{"attributes":{"ID":349336,"DIS_CODE":0,"TOWNNAME":"北區","LI":"文成里","LIN":"6鄰","STREET":"文賢路","SECT":" ","MAREA":" ","LANE":"５７２巷","ALLEY":" ","HOUSE_NO":"１號","E_COORD97":167392.91,"N_COORD97":2545424.3300000001,"ADDRESS":"文賢路５７２巷１號","OBJECTID":349327},"geometry":{"x":167392.91000000015,"y":2545424.3300000001}},{"attributes":{"ID":349337,"DIS_CODE":0,"TOWNNAME":"北區","LI":"文成里","LIN":"6鄰","STREET":"文賢路","SECT":" ","MAREA":" ","LANE":"５７２巷","ALLEY":" ","HOUSE_NO":"２０號","E_COORD97":167433.32999999999,"N_COORD97":2545408.3900000001,"ADDRESS":"文賢路５７２巷２０號","OBJECTID":349328},"geometry":{"x":167433.33000000101,"y":2545408.3900000006}},{"attributes":{"ID":349338,"DIS_CODE":0,"TOWNNAME":"白河區","LI":"白河里","LIN":"8鄰","STREET":"文明街","SECT":" ","MAREA":" ","LANE":" ","ALLEY":" ","HOUSE_NO":"１８號","E_COORD97":190274.01999999999,"N_COORD97":2582974.1899999999,"ADDRESS":"文明街１８號","OBJECTID":349329},"geometry":{"x":190274.02000000142,"y":2582974.1899999995}},{"attributes":{"ID":349339,"DIS_CODE":0,"TOWNNAME":"白河區","LI":"白河里","LIN":"8鄰","STREET":"文明街","SECT":" ","MAREA":" ","LANE":" ","ALLEY":" ","HOUSE_NO":"２０號","E_COORD97":190278.10000000001,"N_COORD97":2582976.8199999998,"ADDRESS":"文明街２０號","OBJECTID":349330},"geometry":{"x":190278.09999999963,"y":2582976.8200000003}},{"attributes":{"ID":349340,"DIS_CODE":0,"TOWNNAME":"白河區","LI":"白河里","LIN":"8鄰","STREET":"文明街","SECT":" ","MAREA":" ","LANE":" ","ALLEY":" ","HOUSE_NO":"２４號","E_COORD97":190286.81,"N_COORD97":2582982.7200000002,"ADDRESS":"文明街２４號","OBJECTID":349331},"geometry":{"x":190286.80999999959,"y":2582982.7200000025}},{"attributes":{"ID":349341,"DIS_CODE":0,"TOWNNAME":"白河區","LI":"白河里","LIN":"8鄰","STREET":"文明街","SECT":" ","MAREA":" ","LANE":" ","ALLEY":" ","HOUSE_NO":"２６號","E_COORD97":190291.82999999999,"N_COORD97":2582985.29,"ADDRESS":"文明街２６號","OBJECTID":349332},"geometry":{"x":190291.83000000101,"y":2582985.2899999991}},{"attributes":{"ID":349342,"DIS_CODE":0,"TOWNNAME":"北區","LI":"文成里","LIN":"6鄰","STREET":"文賢路","SECT":" ","MAREA":" ","LANE":"５７２巷","ALLEY":" ","HOUSE_NO":"２１號","E_COORD97":167447.64000000001,"N_COORD97":2545423.7599999998,"ADDRESS":"文賢路５７２巷２１號","OBJECTID":349333},"geometry":{"x":167447.6400000006,"y":2545423.7600000016}},{"attributes":{"ID":349343,"DIS_CODE":0,"TOWNNAME":"北區","LI":"文成里","LIN":"6鄰","STREET":"文賢路","SECT":" ","MAREA":" ","LANE":"５７２巷","ALLEY":" ","HOUSE_NO":"２２號","E_COORD97":167437.34,"N_COORD97":2545408.2000000002,"ADDRESS":"文賢路５７２巷２２號","OBJECTID":349334},"geometry":{"x":167437.33999999985,"y":2545408.1999999993}},{"attributes":{"ID":349344,"DIS_CODE":0,"TOWNNAME":"北區","LI":"文成里","LIN":"6鄰","STREET":"文賢路","SECT":" ","MAREA":" ","LANE":"５７２巷","ALLEY":" ","HOUSE_NO":"２３號","E_COORD97":167451.64999999999,"N_COORD97":2545423.9500000002,"ADDRESS":"文賢路５７２巷２３號","OBJECTID":349335},"geometry":{"x":167451.65000000224,"y":2545423.950000003}},{"attributes":{"ID":349345,"DIS_CODE":0,"TOWNNAME":"北區","LI":"文成里","LIN":"6鄰","STREET":"文賢路","SECT":" ","MAREA":" ","LANE":"５７２巷","ALLEY":" ","HOUSE_NO":"２４號","E_COORD97":167442.67999999999,"N_COORD97":2545408.0099999998,"ADDRESS":"文賢路５７２巷２４號","OBJECTID":349336},"geometry":{"x":167442.68000000063,"y":2545408.0100000016}},{"attributes":{"ID":349346,"DIS_CODE":0,"TOWNNAME":"北區","LI":"文成里","LIN":"6鄰","STREET":"文賢路","SECT":" ","MAREA":" ","LANE":"５７２巷","ALLEY":" ","HOUSE_NO":"２５號","E_COORD97":167458.51000000001,"N_COORD97":2545426.8100000001,"ADDRESS":"文賢路５７２巷２５號","OBJECTID":349337},"geometry":{"x":167458.50999999885,"y":2545426.8100000024}},{"attributes":{"ID":349347,"DIS_CODE":0,"TOWNNAME":"北區","LI":"文成里","LIN":"6鄰","STREET":"文賢路","SECT":" ","MAREA":" ","LANE":"５７２巷","ALLEY":" ","HOUSE_NO":"２６號","E_COORD97":167446.87,"N_COORD97":2545407.25,"ADDRESS":"文賢路５７２巷２６號","OBJECTID":349338},"geometry":{"x":167446.87000000104,"y":2545407.2500000019}},{"attributes":{"ID":349348,"DIS_CODE":0,"TOWNNAME":"北區","LI":"文成里","LIN":"6鄰","STREET":"文賢路","SECT":" ","MAREA":" ","LANE":"５７２巷","ALLEY":" ","HOUSE_NO":"２８號","E_COORD97":167451.07000000001,"N_COORD97":2545408.77,"ADDRESS":"文賢路５７２巷２８號","OBJECTID":349339},"geometry":{"x":167451.07000000123,"y":2545408.7700000033}},{"attributes":{"ID":349349,"DIS_CODE":0,"TOWNNAME":"北區","LI":"文成里","LIN":"6鄰","STREET":"文賢路","SECT":" ","MAREA":" ","LANE":"５７２巷","ALLEY":" ","HOUSE_NO":"２號","E_COORD97":167392.14000000001,"N_COORD97":2545411.4399999999,"ADDRESS":"文賢路５７２巷２號","OBJECTID":349340},"geometry":{"x":167392.1400000006,"y":2545411.4400000013}},{"attributes":{"ID":349350,"DIS_CODE":0,"TOWNNAME":"北區","LI":"文成里","LIN":"6鄰","STREET":"文賢路","SECT":" ","MAREA":" ","LANE":"５７２巷","ALLEY":" ","HOUSE_NO":"３０號","E_COORD97":167455.64999999999,"N_COORD97":2545408.77,"ADDRESS":"文賢路５７２巷３０號","OBJECTID":349341},"geometry":{"x":167455.6500000013,"y":2545408.7700000033}},{"attributes":{"ID":349351,"DIS_CODE":0,"TOWNNAME":"北區","LI":"文成里","LIN":"6鄰","STREET":"文賢路","SECT":" ","MAREA":" ","LANE":"５７２巷","ALLEY":" ","HOUSE_NO":"３２號","E_COORD97":167460.42000000001,"N_COORD97":2545409.9100000001,"ADDRESS":"文賢路５７２巷３２號","OBJECTID":349342},"geometry":{"x":167460.41999999993,"y":2545409.910000002}},{"attributes":{"ID":349352,"DIS_CODE":0,"TOWNNAME":"北區","LI":"文成里","LIN":"6鄰","STREET":"文賢路","SECT":" ","MAREA":" ","LANE":"５７２巷","ALLEY":" ","HOUSE_NO":"３３號","E_COORD97":167479.35000000001,"N_COORD97":2545422.7999999998,"ADDRESS":"文賢路５７２巷３３號","OBJECTID":349343},"geometry":{"x":167479.34999999963,"y":2545422.8000000007}},{"attributes":{"ID":349353,"DIS_CODE":0,"TOWNNAME":"北區","LI":"文成里","LIN":"6鄰","STREET":"文賢路","SECT":" ","MAREA":" ","LANE":"５７２巷","ALLEY":" ","HOUSE_NO":"３４號","E_COORD97":167467.47,"N_COORD97":2545407.25,"ADDRESS":"文賢路５７２巷３４號","OBJECTID":349344},"geometry":{"x":167467.4700000016,"y":2545407.2500000019}},{"attributes":{"ID":349354,"DIS_CODE":0,"TOWNNAME":"北區","LI":"成德里","LIN":"6鄰","STREET":"民德路","SECT":" ","MAREA":" ","LANE":"５８巷","ALLEY":" ","HOUSE_NO":"７６號","E_COORD97":168306.35000000001,"N_COORD97":2545449.27,"ADDRESS":"民德路５８巷７６號","OBJECTID":349345},"geometry":{"x":168306.34999999963,"y":2545449.2700000033}},{"attributes":{"ID":349355,"DIS_CODE":0,"TOWNNAME":"北區","LI":"三德里","LIN":"6鄰","STREET":"忠義路","SECT":"三段","MAREA":" ","LANE":"３９巷","ALLEY":" ","HOUSE_NO":"２１號","E_COORD97":168499.19,"N_COORD97":2544432.5,"ADDRESS":"忠義路三段３９巷２１號","OBJECTID":349346},"geometry":{"x":168499.19000000134,"y":2544432.5000000019}},{"attributes":{"ID":349356,"DIS_CODE":0,"TOWNNAME":"北區","LI":"三德里","LIN":"6鄰","STREET":"忠義路","SECT":"三段","MAREA":" ","LANE":"３９巷","ALLEY":" ","HOUSE_NO":"２５號","E_COORD97":168502.42999999999,"N_COORD97":2544437.8799999999,"ADDRESS":"忠義路三段３９巷２５號","OBJECTID":349347},"geometry":{"x":168502.43000000063,"y":2544437.8800000008}},{"attributes":{"ID":349357,"DIS_CODE":0,"TOWNNAME":"北區","LI":"三德里","LIN":"6鄰","STREET":"忠義路","SECT":"三段","MAREA":" ","LANE":"３９巷","ALLEY":" ","HOUSE_NO":"２７號","E_COORD97":168491.12,"N_COORD97":2544445.2200000002,"ADDRESS":"忠義路三段３９巷２７號","OBJECTID":349348},"geometry":{"x":168491.12000000104,"y":2544445.2200000025}},{"attributes":{"ID":349358,"DIS_CODE":0,"TOWNNAME":"北區","LI":"三德里","LIN":"6鄰","STREET":"忠義路","SECT":"三段","MAREA":" ","LANE":"３９巷","ALLEY":" ","HOUSE_NO":"２９號","E_COORD97":168489.07999999999,"N_COORD97":2544441.4100000001,"ADDRESS":"忠義路三段３９巷２９號","OBJECTID":349349},"geometry":{"x":168489.07999999914,"y":2544441.4100000001}},{"attributes":{"ID":349359,"DIS_CODE":0,"TOWNNAME":"北區","LI":"三德里","LIN":"6鄰","STREET":"忠義路","SECT":"三段","MAREA":" ","LANE":"３９巷","ALLEY":" ","HOUSE_NO":"３１號","E_COORD97":168486.76000000001,"N_COORD97":2544446.04,"ADDRESS":"忠義路三段３９巷３１號","OBJECTID":349350},"geometry":{"x":168486.76000000071,"y":2544446.0399999991}},{"attributes":{"ID":349360,"DIS_CODE":0,"TOWNNAME":"北區","LI":"三德里","LIN":"6鄰","STREET":"忠義路","SECT":"三段","MAREA":" ","LANE":"３９巷","ALLEY":" ","HOUSE_NO":"７號","E_COORD97":168488.13,"N_COORD97":2544428.2000000002,"ADDRESS":"忠義路三段３９巷７號","OBJECTID":349351},"geometry":{"x":168488.12999999989,"y":2544428.1999999993}},{"attributes":{"ID":349361,"DIS_CODE":0,"TOWNNAME":"北區","LI":"三德里","LIN":"6鄰","STREET":"忠義路","SECT":"三段","MAREA":" ","LANE":"３９巷","ALLEY":" ","HOUSE_NO":"９號","E_COORD97":168487.72,"N_COORD97":2544423.1600000001,"ADDRESS":"忠義路三段３９巷９號","OBJECTID":349352},"geometry":{"x":168487.71999999881,"y":2544423.1599999983}},{"attributes":{"ID":349362,"DIS_CODE":0,"TOWNNAME":"北區","LI":"安民里","LIN":"6鄰","STREET":"海安路","SECT":"三段","MAREA":" ","LANE":"５３巷","ALLEY":" ","HOUSE_NO":"１３號","E_COORD97":167852.82999999999,"N_COORD97":2544748.5800000001,"ADDRESS":"海安路三段５３巷１３號","OBJECTID":349353},"geometry":{"x":167852.83000000007,"y":2544748.5800000001}},{"attributes":{"ID":349363,"DIS_CODE":0,"TOWNNAME":"北區","LI":"安民里","LIN":"6鄰","STREET":"海安路","SECT":"三段","MAREA":" ","LANE":"５３巷","ALLEY":" ","HOUSE_NO":"１５號","E_COORD97":167847.70999999999,"N_COORD97":2544750.5,"ADDRESS":"海安路三段５３巷１５號","OBJECTID":349354},"geometry":{"x":167847.71000000089,"y":2544750.5000000019}},{"attributes":{"ID":349364,"DIS_CODE":0,"TOWNNAME":"北區","LI":"安民里","LIN":"6鄰","STREET":"海安路","SECT":"三段","MAREA":" ","LANE":"５３巷","ALLEY":" ","HOUSE_NO":"１７號","E_COORD97":167843.85999999999,"N_COORD97":2544750.8199999998,"ADDRESS":"海安路三段５３巷１７號","OBJECTID":349355},"geometry":{"x":167843.86000000127,"y":2544750.8200000003}},{"attributes":{"ID":349365,"DIS_CODE":0,"TOWNNAME":"北區","LI":"安民里","LIN":"6鄰","STREET":"海安路","SECT":"三段","MAREA":" ","LANE":"５３巷","ALLEY":" ","HOUSE_NO":"１號","E_COORD97":167877.19,"N_COORD97":2544735.77,"ADDRESS":"海安路三段５３巷１號","OBJECTID":349356},"geometry":{"x":167877.19000000134,"y":2544735.7699999996}},{"attributes":{"ID":349366,"DIS_CODE":0,"TOWNNAME":"北區","LI":"安民里","LIN":"6鄰","STREET":"海安路","SECT":"三段","MAREA":" ","LANE":"５３巷","ALLEY":" ","HOUSE_NO":"３號","E_COORD97":167873.67000000001,"N_COORD97":2544738.6499999999,"ADDRESS":"海安路三段５３巷３號","OBJECTID":349357},"geometry":{"x":167873.67000000086,"y":2544738.6500000004}},{"attributes":{"ID":349367,"DIS_CODE":0,"TOWNNAME":"北區","LI":"安民里","LIN":"6鄰","STREET":"海安路","SECT":"三段","MAREA":" ","LANE":"５３巷","ALLEY":" ","HOUSE_NO":"５號","E_COORD97":167869.5,"N_COORD97":2544739.9300000002,"ADDRESS":"海安路三段５３巷５號","OBJECTID":349358},"geometry":{"x":167869.50000000093,"y":2544739.9300000034}},{"attributes":{"ID":349368,"DIS_CODE":0,"TOWNNAME":"北區","LI":"安民里","LIN":"6鄰","STREET":"海安路","SECT":"三段","MAREA":" ","LANE":"５３巷","ALLEY":" ","HOUSE_NO":"７號","E_COORD97":167865.64999999999,"N_COORD97":2544741.21,"ADDRESS":"海安路三段５３巷７號","OBJECTID":349359},"geometry":{"x":167865.6500000013,"y":2544741.2100000009}},{"attributes":{"ID":349369,"DIS_CODE":0,"TOWNNAME":"北區","LI":"安民里","LIN":"6鄰","STREET":"海安路","SECT":"三段","MAREA":" ","LANE":"５３巷","ALLEY":" ","HOUSE_NO":"９號","E_COORD97":167861.81,"N_COORD97":2544742.1800000002,"ADDRESS":"海安路三段５３巷９號","OBJECTID":349360},"geometry":{"x":167861.81000000052,"y":2544742.1800000016}},{"attributes":{"ID":349370,"DIS_CODE":0,"TOWNNAME":"北區","LI":"永祥里","LIN":"18鄰","STREET":"大武街","SECT":" ","MAREA":" ","LANE":"５４２巷","ALLEY":" ","HOUSE_NO":"４１號","E_COORD97":170221.81,"N_COORD97":2546319.2599999998,"ADDRESS":"大武街５４２巷４１號","OBJECTID":349361},"geometry":{"x":170221.81000000052,"y":2546319.2599999998}},{"attributes":{"ID":349371,"DIS_CODE":0,"TOWNNAME":"永康區","LI":"復華里","LIN":"6鄰","STREET":"國華街","SECT":" ","MAREA":" ","LANE":"１０２巷","ALLEY":" ","HOUSE_NO":"９０號六樓之２","E_COORD97":173008.87,"N_COORD97":2546144.3799999999,"ADDRESS":"國華街１０２巷９０號六樓之２","OBJECTID":349362},"geometry":{"x":173008.87000000104,"y":2546144.3800000008}},{"attributes":{"ID":349372,"DIS_CODE":0,"TOWNNAME":"白河區","LI":"白河里","LIN":"8鄰","STREET":"文明街","SECT":" ","MAREA":" ","LANE":" ","ALLEY":" ","HOUSE_NO":"２號","E_COORD97":190283.32000000001,"N_COORD97":2582934.8399999999,"ADDRESS":"文明街２號","OBJECTID":349363},"geometry":{"x":190283.32000000123,"y":2582934.8400000017}},{"attributes":{"ID":349373,"DIS_CODE":0,"TOWNNAME":"北區","LI":"永祥里","LIN":"18鄰","STREET":"大武街","SECT":" ","MAREA":" ","LANE":"５４２巷","ALLEY":" ","HOUSE_NO":"１３號","E_COORD97":170223.35999999999,"N_COORD97":2546388.6400000001,"ADDRESS":"大武街５４２巷１３號","OBJECTID":349364},"geometry":{"x":170223.3600000022,"y":2546388.6400000025}},{"attributes":{"ID":349374,"DIS_CODE":0,"TOWNNAME":"永康區","LI":"復華里","LIN":"6鄰","STREET":"國華街","SECT":" ","MAREA":" ","LANE":"１０２巷","ALLEY":" ","HOUSE_NO":"９６號八樓之１","E_COORD97":173016.94,"N_COORD97":2546176.0800000001,"ADDRESS":"國華街１０２巷９６號八樓之１","OBJECTID":349365},"geometry":{"x":173016.94000000134,"y":2546176.0800000001}},{"attributes":{"ID":349375,"DIS_CODE":0,"TOWNNAME":"永康區","LI":"復華里","LIN":"6鄰","STREET":"國華街","SECT":" ","MAREA":" ","LANE":"１０２巷","ALLEY":" ","HOUSE_NO":"９２號四樓之１","E_COORD97":173003.64000000001,"N_COORD97":2546148.5499999998,"ADDRESS":"國華街１０２巷９２號四樓之１","OBJECTID":349366},"geometry":{"x":173003.63999999966,"y":2546148.5500000026}},{"attributes":{"ID":349376,"DIS_CODE":0,"TOWNNAME":"永康區","LI":"復華里","LIN":"6鄰","STREET":"國華街","SECT":" ","MAREA":" ","LANE":"１０２巷","ALLEY":" ","HOUSE_NO":"９６號三樓之２","E_COORD97":173017.07000000001,"N_COORD97":2546176.0800000001,"ADDRESS":"國華街１０２巷９６號三樓之２","OBJECTID":349367},"geometry":{"x":173017.0700000003,"y":2546176.0800000001}},{"attributes":{"ID":349377,"DIS_CODE":0,"TOWNNAME":"永康區","LI":"復華里","LIN":"6鄰","STREET":"國華街","SECT":" ","MAREA":" ","LANE":"１０２巷","ALLEY":" ","HOUSE_NO":"９２號十二樓之２","E_COORD97":173005.01999999999,"N_COORD97":2546148.5499999998,"ADDRESS":"國華街１０２巷９２號十二樓之２","OBJECTID":349368},"geometry":{"x":173005.02000000142,"y":2546148.5500000026}},{"attributes":{"ID":349378,"DIS_CODE":0,"TOWNNAME":"永康區","LI":"復華里","LIN":"6鄰","STREET":"國華街","SECT":" ","MAREA":" ","LANE":"１０２巷","ALLEY":" ","HOUSE_NO":"９４號三樓之１","E_COORD97":173023.67999999999,"N_COORD97":2546167.79,"ADDRESS":"國華街１０２巷９４號三樓之１","OBJECTID":349369},"geometry":{"x":173023.6799999997,"y":2546167.790000001}},{"attributes":{"ID":349379,"DIS_CODE":0,"TOWNNAME":"永康區","LI":"復華里","LIN":"6鄰","STREET":"國華街","SECT":" ","MAREA":" ","LANE":"１０２巷","ALLEY":" ","HOUSE_NO":"９０號三樓之２","E_COORD97":173008.87,"N_COORD97":2546144.3799999999,"ADDRESS":"國華街１０２巷９０號三樓之２","OBJECTID":349370},"geometry":{"x":173008.87000000104,"y":2546144.3800000008}},{"attributes":{"ID":349380,"DIS_CODE":0,"TOWNNAME":"東區","LI":"崇德里","LIN":"6鄰","STREET":"崇德五街","SECT":" ","MAREA":" ","LANE":"２巷","ALLEY":" ","HOUSE_NO":"１號五樓","E_COORD97":170668.54000000001,"N_COORD97":2541782.52,"ADDRESS":"崇德五街２巷１號五樓","OBJECTID":349371},"geometry":{"x":170668.54000000097,"y":2541782.5200000033}},{"attributes":{"ID":349381,"DIS_CODE":0,"TOWNNAME":"東區","LI":"崇德里","LIN":"6鄰","STREET":"崇德五街","SECT":" ","MAREA":" ","LANE":"２巷","ALLEY":" ","HOUSE_NO":"１號二樓","E_COORD97":170668.54000000001,"N_COORD97":2541782.52,"ADDRESS":"崇德五街２巷１號二樓","OBJECTID":349372},"geometry":{"x":170668.54000000097,"y":2541782.5200000033}},{"attributes":{"ID":349382,"DIS_CODE":0,"TOWNNAME":"東區","LI":"崇德里","LIN":"6鄰","STREET":"崇德五街","SECT":" ","MAREA":" ","LANE":"２巷","ALLEY":" ","HOUSE_NO":"１號三樓","E_COORD97":170668.54000000001,"N_COORD97":2541782.52,"ADDRESS":"崇德五街２巷１號三樓","OBJECTID":349373},"geometry":{"x":170668.54000000097,"y":2541782.5200000033}},{"attributes":{"ID":349383,"DIS_CODE":0,"TOWNNAME":"東區","LI":"崇德里","LIN":"6鄰","STREET":"崇德五街","SECT":" ","MAREA":" ","LANE":"２巷","ALLEY":" ","HOUSE_NO":"１號六樓","E_COORD97":170668.54000000001,"N_COORD97":2541782.52,"ADDRESS":"崇德五街２巷１號六樓","OBJECTID":349374},"geometry":{"x":170668.54000000097,"y":2541782.5200000033}},{"attributes":{"ID":349384,"DIS_CODE":0,"TOWNNAME":"東區","LI":"崇德里","LIN":"6鄰","STREET":"崇德五街","SECT":" ","MAREA":" ","LANE":"２巷","ALLEY":" ","HOUSE_NO":"１號四樓","E_COORD97":170668.54000000001,"N_COORD97":2541782.52,"ADDRESS":"崇德五街２巷１號四樓","OBJECTID":349375},"geometry":{"x":170668.54000000097,"y":2541782.5200000033}},{"attributes":{"ID":349385,"DIS_CODE":0,"TOWNNAME":"東區","LI":"崇德里","LIN":"6鄰","STREET":"崇德五街","SECT":" ","MAREA":" ","LANE":"２巷","ALLEY":" ","HOUSE_NO":"３號二樓","E_COORD97":170681.81,"N_COORD97":2541781.0099999998,"ADDRESS":"崇德五街２巷３號二樓","OBJECTID":349376},"geometry":{"x":170681.80999999959,"y":2541781.0100000016}},{"attributes":{"ID":349386,"DIS_CODE":0,"TOWNNAME":"東區","LI":"崇德里","LIN":"6鄰","STREET":"崇德五街","SECT":" ","MAREA":" ","LANE":"２巷","ALLEY":" ","HOUSE_NO":"３號二樓之１","E_COORD97":170681.81,"N_COORD97":2541781.0099999998,"ADDRESS":"崇德五街２巷３號二樓之１","OBJECTID":349377},"geometry":{"x":170681.80999999959,"y":2541781.0100000016}},{"attributes":{"ID":349387,"DIS_CODE":0,"TOWNNAME":"東區","LI":"崇德里","LIN":"6鄰","STREET":"崇德五街","SECT":" ","MAREA":" ","LANE":"２巷","ALLEY":" ","HOUSE_NO":"３號三樓","E_COORD97":170681.81,"N_COORD97":2541781.0099999998,"ADDRESS":"崇德五街２巷３號三樓","OBJECTID":349378},"geometry":{"x":170681.80999999959,"y":2541781.0100000016}},{"attributes":{"ID":349388,"DIS_CODE":0,"TOWNNAME":"東區","LI":"崇德里","LIN":"6鄰","STREET":"崇德五街","SECT":" ","MAREA":" ","LANE":"２巷","ALLEY":" ","HOUSE_NO":"３號三樓之１","E_COORD97":170681.81,"N_COORD97":2541781.0099999998,"ADDRESS":"崇德五街２巷３號三樓之１","OBJECTID":349379},"geometry":{"x":170681.80999999959,"y":2541781.0100000016}},{"attributes":{"ID":349389,"DIS_CODE":0,"TOWNNAME":"東區","LI":"崇德里","LIN":"6鄰","STREET":"崇德五街","SECT":" ","MAREA":" ","LANE":"２巷","ALLEY":" ","HOUSE_NO":"３號五樓","E_COORD97":170681.81,"N_COORD97":2541781.0099999998,"ADDRESS":"崇德五街２巷３號五樓","OBJECTID":349380},"geometry":{"x":170681.80999999959,"y":2541781.0100000016}},{"attributes":{"ID":349390,"DIS_CODE":0,"TOWNNAME":"東區","LI":"崇德里","LIN":"6鄰","STREET":"崇德五街","SECT":" ","MAREA":" ","LANE":"２巷","ALLEY":" ","HOUSE_NO":"３號五樓之１","E_COORD97":170681.81,"N_COORD97":2541781.0099999998,"ADDRESS":"崇德五街２巷３號五樓之１","OBJECTID":349381},"geometry":{"x":170681.80999999959,"y":2541781.0100000016}},{"attributes":{"ID":349391,"DIS_CODE":0,"TOWNNAME":"白河區","LI":"白河里","LIN":"8鄰","STREET":"文明街","SECT":" ","MAREA":" ","LANE":" ","ALLEY":" ","HOUSE_NO":"６號","E_COORD97":190278.73999999999,"N_COORD97":2582942.0499999998,"ADDRESS":"文明街６號","OBJECTID":349382},"geometry":{"x":190278.74000000115,"y":2582942.0500000007}},{"attributes":{"ID":349392,"DIS_CODE":0,"TOWNNAME":"北區","LI":"永祥里","LIN":"18鄰","STREET":"大武街","SECT":" ","MAREA":" ","LANE":"５４２巷","ALLEY":" ","HOUSE_NO":"１７號","E_COORD97":170224.03,"N_COORD97":2546376.23,"ADDRESS":"大武街５４２巷１７號","OBJECTID":349383},"geometry":{"x":170224.03000000119,"y":2546376.2300000042}},{"attributes":{"ID":349393,"DIS_CODE":0,"TOWNNAME":"北區","LI":"永祥里","LIN":"18鄰","STREET":"大武街","SECT":" ","MAREA":" ","LANE":"５４２巷","ALLEY":" ","HOUSE_NO":"１９號","E_COORD97":170223.26999999999,"N_COORD97":2546372.4900000002,"ADDRESS":"大武街５４２巷１９號","OBJECTID":349384},"geometry":{"x":170223.27000000142,"y":2546372.4900000002}},{"attributes":{"ID":349394,"DIS_CODE":0,"TOWNNAME":"北區","LI":"永祥里","LIN":"18鄰","STREET":"大武街","SECT":" ","MAREA":" ","LANE":"５４２巷","ALLEY":" ","HOUSE_NO":"１號","E_COORD97":170224.79000000001,"N_COORD97":2546414.3700000001,"ADDRESS":"大武街５４２巷１號","OBJECTID":349385},"geometry":{"x":170224.79000000004,"y":2546414.3700000029}},{"attributes":{"ID":349395,"DIS_CODE":0,"TOWNNAME":"北區","LI":"永祥里","LIN":"18鄰","STREET":"大武街","SECT":" ","MAREA":" ","LANE":"５４２巷","ALLEY":" ","HOUSE_NO":"２１號","E_COORD97":170223.44,"N_COORD97":2546367.8500000001,"ADDRESS":"大武街５４２巷２１號","OBJECTID":349386},"geometry":{"x":170223.44000000134,"y":2546367.8500000034}},{"attributes":{"ID":349396,"DIS_CODE":0,"TOWNNAME":"北區","LI":"永祥里","LIN":"18鄰","STREET":"大武街","SECT":" ","MAREA":" ","LANE":"５４２巷","ALLEY":" ","HOUSE_NO":"２３號","E_COORD97":170223.35999999999,"N_COORD97":2546362.6299999999,"ADDRESS":"大武街５４２巷２３號","OBJECTID":349387},"geometry":{"x":170223.3600000022,"y":2546362.6300000008}},{"attributes":{"ID":349397,"DIS_CODE":0,"TOWNNAME":"北區","LI":"永祥里","LIN":"18鄰","STREET":"大武街","SECT":" ","MAREA":" ","LANE":"５４２巷","ALLEY":" ","HOUSE_NO":"２５號","E_COORD97":170223.19,"N_COORD97":2546358.1699999999,"ADDRESS":"大武街５４２巷２５號","OBJECTID":349388},"geometry":{"x":170223.19000000134,"y":2546358.1699999999}},{"attributes":{"ID":349398,"DIS_CODE":0,"TOWNNAME":"北區","LI":"永祥里","LIN":"18鄰","STREET":"大武街","SECT":" ","MAREA":" ","LANE":"５４２巷","ALLEY":" ","HOUSE_NO":"２７號","E_COORD97":170223.78,"N_COORD97":2546353.7000000002,"ADDRESS":"大武街５４２巷２７號","OBJECTID":349389},"geometry":{"x":170223.77999999933,"y":2546353.6999999993}},{"attributes":{"ID":349399,"DIS_CODE":0,"TOWNNAME":"北區","LI":"永祥里","LIN":"18鄰","STREET":"大武街","SECT":" ","MAREA":" ","LANE":"５４２巷","ALLEY":" ","HOUSE_NO":"３１號","E_COORD97":170223.57999999999,"N_COORD97":2546341.6000000001,"ADDRESS":"大武街５４２巷３１號","OBJECTID":349390},"geometry":{"x":170223.58000000101,"y":2546341.5999999996}},{"attributes":{"ID":349400,"DIS_CODE":0,"TOWNNAME":"北區","LI":"永祥里","LIN":"18鄰","STREET":"大武街","SECT":" ","MAREA":" ","LANE":"５４２巷","ALLEY":" ","HOUSE_NO":"３３號","E_COORD97":170222.39999999999,"N_COORD97":2546337.48,"ADDRESS":"大武街５４２巷３３號","OBJECTID":349391},"geometry":{"x":170222.40000000037,"y":2546337.4800000023}},{"attributes":{"ID":349401,"DIS_CODE":0,"TOWNNAME":"北區","LI":"永祥里","LIN":"18鄰","STREET":"大武街","SECT":" ","MAREA":" ","LANE":"５４２巷","ALLEY":" ","HOUSE_NO":"３５號","E_COORD97":170221.97,"N_COORD97":2546332.8399999999,"ADDRESS":"大武街５４２巷３５號","OBJECTID":349392},"geometry":{"x":170221.9700000016,"y":2546332.8399999999}},{"attributes":{"ID":349402,"DIS_CODE":0,"TOWNNAME":"北區","LI":"永祥里","LIN":"18鄰","STREET":"大武街","SECT":" ","MAREA":" ","LANE":"５４２巷","ALLEY":" ","HOUSE_NO":"３７號","E_COORD97":170221.89999999999,"N_COORD97":2546327.3500000001,"ADDRESS":"大武街５４２巷３７號","OBJECTID":349393},"geometry":{"x":170221.9000000013,"y":2546327.3500000015}},{"attributes":{"ID":349403,"DIS_CODE":0,"TOWNNAME":"北區","LI":"永祥里","LIN":"18鄰","STREET":"大武街","SECT":" ","MAREA":" ","LANE":"５４２巷","ALLEY":" ","HOUSE_NO":"３９號","E_COORD97":170221.81,"N_COORD97":2546323.0499999998,"ADDRESS":"大武街５４２巷３９號","OBJECTID":349394},"geometry":{"x":170221.81000000052,"y":2546323.0500000007}},{"attributes":{"ID":349404,"DIS_CODE":0,"TOWNNAME":"北區","LI":"永祥里","LIN":"18鄰","STREET":"大武街","SECT":" ","MAREA":" ","LANE":"５４２巷","ALLEY":" ","HOUSE_NO":"４５號","E_COORD97":170225.34,"N_COORD97":2546306.4100000001,"ADDRESS":"大武街５４２巷４５號","OBJECTID":349395},"geometry":{"x":170225.34000000078,"y":2546306.4100000001}},{"attributes":{"ID":349405,"DIS_CODE":0,"TOWNNAME":"東區","LI":"崇德里","LIN":"6鄰","STREET":"崇德五街","SECT":" ","MAREA":" ","LANE":"２巷","ALLEY":" ","HOUSE_NO":"３號六樓","E_COORD97":170681.81,"N_COORD97":2541781.0099999998,"ADDRESS":"崇德五街２巷３號六樓","OBJECTID":349396},"geometry":{"x":170681.80999999959,"y":2541781.0100000016}},{"attributes":{"ID":349406,"DIS_CODE":0,"TOWNNAME":"東區","LI":"崇德里","LIN":"6鄰","STREET":"崇德五街","SECT":" ","MAREA":" ","LANE":"２巷","ALLEY":" ","HOUSE_NO":"３號四樓","E_COORD97":170681.81,"N_COORD97":2541781.0099999998,"ADDRESS":"崇德五街２巷３號四樓","OBJECTID":349397},"geometry":{"x":170681.80999999959,"y":2541781.0100000016}},{"attributes":{"ID":349407,"DIS_CODE":0,"TOWNNAME":"東區","LI":"崇德里","LIN":"6鄰","STREET":"崇德五街","SECT":" ","MAREA":" ","LANE":"２巷","ALLEY":" ","HOUSE_NO":"３號四樓之１","E_COORD97":170681.81,"N_COORD97":2541781.0099999998,"ADDRESS":"崇德五街２巷３號四樓之１","OBJECTID":349398},"geometry":{"x":170681.80999999959,"y":2541781.0100000016}},{"attributes":{"ID":349408,"DIS_CODE":0,"TOWNNAME":"永康區","LI":"復華里","LIN":"6鄰","STREET":"國華街","SECT":" ","MAREA":" ","LANE":"１０２巷","ALLEY":" ","HOUSE_NO":"１００號五樓之２","E_COORD97":172985.82000000001,"N_COORD97":2546184.3300000001,"ADDRESS":"國華街１０２巷１００號五樓之２","OBJECTID":349399},"geometry":{"x":172985.82000000123,"y":2546184.3300000001}},{"attributes":{"ID":349409,"DIS_CODE":0,"TOWNNAME":"仁德區","LI":"後壁里","LIN":"8鄰","STREET":"德善二街","SECT":" ","MAREA":" ","LANE":" ","ALLEY":" ","HOUSE_NO":"７７號","E_COORD97":173697.94,"N_COORD97":2538997.02,"ADDRESS":"德善二街７７號","OBJECTID":349400},"geometry":{"x":173697.94000000041,"y":2538997.0200000014}}]}