{"displayFieldName":"TOWNNAME","fieldAliases":{"ID":"ID","DIS_CODE":"DIS_CODE","TOWNNAME":"TOWNNAME","LI":"LI","LIN":"LIN","STREET":"STREET","SECT":"SECT","MAREA":"MAREA","LANE":"LANE","ALLEY":"ALLEY","HOUSE_NO":"HOUSE_NO","E_COORD97":"E_COORD97","N_COORD97":"N_COORD97","ADDRESS":"ADDRESS","OBJECTID":"OBJECTID"},"geometryType":"esriGeometryPoint","spatialReference":{"wkid":102443,"latestWkid":3826},"fields":[{"name":"ID","type":"esriFieldTypeDouble","alias":"ID"},{"name":"DIS_CODE","type":"esriFieldTypeInteger","alias":"DIS_CODE"},{"name":"TOWNNAME","type":"esriFieldTypeString","alias":"TOWNNAME","length":8},{"name":"LI","type":"esriFieldTypeString","alias":"LI","length":8},{"name":"LIN","type":"esriFieldTypeString","alias":"LIN","length":12},{"name":"STREET","type":"esriFieldTypeString","alias":"STREET","length":20},{"name":"SECT","type":"esriFieldTypeString","alias":"SECT","length":8},{"name":"MAREA","type":"esriFieldTypeString","alias":"MAREA","length":12},{"name":"LANE","type":"esriFieldTypeString","alias":"LANE","length":10},{"name":"ALLEY","type":"esriFieldTypeString","alias":"ALLEY","length":10},{"name":"HOUSE_NO","type":"esriFieldTypeString","alias":"HOUSE_NO","length":20},{"name":"E_COORD97","type":"esriFieldTypeDouble","alias":"E_COORD97"},{"name":"N_COORD97","type":"esriFieldTypeDouble","alias":"N_COORD97"},{"name":"ADDRESS","type":"esriFieldTypeString","alias":"ADDRESS","length":50},{"name":"OBJECTID","type":"esriFieldTypeOID","alias":"OBJECTID"}],"features":[{"attributes":{"ID":375811,"DIS_CODE":0,"TOWNNAME":"新營區","LI":"大宏里","LIN":"10鄰","STREET":"民治路","SECT":" ","MAREA":" ","LANE":"２９巷","ALLEY":" ","HOUSE_NO":"２１號","E_COORD97":180189.16,"N_COORD97":2578793.3100000001,"ADDRESS":"民治路２９巷２１號","OBJECTID":375801},"geometry":{"x":180189.16000000108,"y":2578793.3100000005}},{"attributes":{"ID":375812,"DIS_CODE":0,"TOWNNAME":"新營區","LI":"大宏里","LIN":"10鄰","STREET":"民治路","SECT":" ","MAREA":" ","LANE":"２９巷","ALLEY":" ","HOUSE_NO":"２６之１１號","E_COORD97":180119,"N_COORD97":2578738.3399999999,"ADDRESS":"民治路２９巷２６之１１號","OBJECTID":375802},"geometry":{"x":180119.00000000093,"y":2578738.3399999999}},{"attributes":{"ID":375813,"DIS_CODE":0,"TOWNNAME":"新營區","LI":"新南里","LIN":"10鄰","STREET":"新北五街","SECT":" ","MAREA":" ","LANE":"１４３巷","ALLEY":" ","HOUSE_NO":"２５號","E_COORD97":178511.04999999999,"N_COORD97":2579083.7200000002,"ADDRESS":"新北五街１４３巷２５號","OBJECTID":375803},"geometry":{"x":178511.05000000168,"y":2579083.7200000025}},{"attributes":{"ID":375814,"DIS_CODE":0,"TOWNNAME":"新營區","LI":"興業里","LIN":"10鄰","STREET":"公誠街","SECT":" ","MAREA":" ","LANE":"６巷","ALLEY":" ","HOUSE_NO":"５號","E_COORD97":180258.79999999999,"N_COORD97":2578003.3700000001,"ADDRESS":"公誠街６巷５號","OBJECTID":375804},"geometry":{"x":180258.80000000168,"y":2578003.370000001}},{"attributes":{"ID":375815,"DIS_CODE":0,"TOWNNAME":"新營區","LI":"南興里","LIN":"10鄰","STREET":"和平路","SECT":" ","MAREA":" ","LANE":"１０２巷","ALLEY":" ","HOUSE_NO":"１７號","E_COORD97":179355.87,"N_COORD97":2577592.3599999999,"ADDRESS":"和平路１０２巷１７號","OBJECTID":375805},"geometry":{"x":179355.87000000104,"y":2577592.3599999994}},{"attributes":{"ID":375816,"DIS_CODE":0,"TOWNNAME":"新營區","LI":"南興里","LIN":"10鄰","STREET":"和平路","SECT":" ","MAREA":" ","LANE":"１０２巷","ALLEY":" ","HOUSE_NO":"２１之１號","E_COORD97":179351.29000000001,"N_COORD97":2577593.5499999998,"ADDRESS":"和平路１０２巷２１之１號","OBJECTID":375806},"geometry":{"x":179351.29000000097,"y":2577593.5500000026}},{"attributes":{"ID":375817,"DIS_CODE":0,"TOWNNAME":"新營區","LI":"興業里","LIN":"10鄰","STREET":"公誠街","SECT":" ","MAREA":" ","LANE":"６巷","ALLEY":" ","HOUSE_NO":"７號","E_COORD97":180251.64999999999,"N_COORD97":2578003.3999999999,"ADDRESS":"公誠街６巷７號","OBJECTID":375807},"geometry":{"x":180251.65000000037,"y":2578003.4000000004}},{"attributes":{"ID":375818,"DIS_CODE":0,"TOWNNAME":"新營區","LI":"興業里","LIN":"10鄰","STREET":"公誠街","SECT":" ","MAREA":" ","LANE":"６巷","ALLEY":" ","HOUSE_NO":"９號","E_COORD97":180244.42999999999,"N_COORD97":2578003.4399999999,"ADDRESS":"公誠街６巷９號","OBJECTID":375808},"geometry":{"x":180244.43000000063,"y":2578003.4400000013}},{"attributes":{"ID":375819,"DIS_CODE":0,"TOWNNAME":"新營區","LI":"南興里","LIN":"10鄰","STREET":"和平路","SECT":" ","MAREA":" ","LANE":"１０２巷","ALLEY":" ","HOUSE_NO":"１９之１號","E_COORD97":179354.29000000001,"N_COORD97":2577593.54,"ADDRESS":"和平路１０２巷１９之１號","OBJECTID":375809},"geometry":{"x":179354.29000000097,"y":2577593.5399999991}},{"attributes":{"ID":375820,"DIS_CODE":0,"TOWNNAME":"新營區","LI":"南興里","LIN":"10鄰","STREET":"和平路","SECT":" ","MAREA":" ","LANE":"１０２巷","ALLEY":" ","HOUSE_NO":"１９之２號","E_COORD97":179354.29000000001,"N_COORD97":2577593.54,"ADDRESS":"和平路１０２巷１９之２號","OBJECTID":375810},"geometry":{"x":179354.29000000097,"y":2577593.5399999991}},{"attributes":{"ID":375821,"DIS_CODE":0,"TOWNNAME":"新營區","LI":"南興里","LIN":"10鄰","STREET":"和平路","SECT":" ","MAREA":" ","LANE":"１０２巷","ALLEY":" ","HOUSE_NO":"２１號","E_COORD97":179346.75,"N_COORD97":2577593.5099999998,"ADDRESS":"和平路１０２巷２１號","OBJECTID":375811},"geometry":{"x":179346.75,"y":2577593.5100000016}},{"attributes":{"ID":375822,"DIS_CODE":0,"TOWNNAME":"新營區","LI":"南興里","LIN":"10鄰","STREET":"和平路","SECT":" ","MAREA":" ","LANE":"１０２巷","ALLEY":" ","HOUSE_NO":"３號","E_COORD97":179390.51000000001,"N_COORD97":2577591.0800000001,"ADDRESS":"和平路１０２巷３號","OBJECTID":375812},"geometry":{"x":179390.50999999978,"y":2577591.0800000001}},{"attributes":{"ID":375823,"DIS_CODE":0,"TOWNNAME":"新營區","LI":"興業里","LIN":"10鄰","STREET":"公誠街","SECT":" ","MAREA":" ","LANE":"６巷","ALLEY":" ","HOUSE_NO":"２號","E_COORD97":180226.22,"N_COORD97":2578025.6699999999,"ADDRESS":"公誠街６巷２號","OBJECTID":375813},"geometry":{"x":180226.21999999974,"y":2578025.6700000018}},{"attributes":{"ID":375824,"DIS_CODE":0,"TOWNNAME":"新營區","LI":"南興里","LIN":"10鄰","STREET":"和平路","SECT":" ","MAREA":" ","LANE":"１０２巷","ALLEY":" ","HOUSE_NO":"１５號","E_COORD97":179362.01999999999,"N_COORD97":2577592.3300000001,"ADDRESS":"和平路１０２巷１５號","OBJECTID":375814},"geometry":{"x":179362.02000000142,"y":2577592.3300000001}},{"attributes":{"ID":375825,"DIS_CODE":0,"TOWNNAME":"新營區","LI":"南興里","LIN":"10鄰","STREET":"和平路","SECT":" ","MAREA":" ","LANE":"１０２巷","ALLEY":" ","HOUSE_NO":"２３號","E_COORD97":179342.64999999999,"N_COORD97":2577592.4199999999,"ADDRESS":"和平路１０２巷２３號","OBJECTID":375815},"geometry":{"x":179342.65000000037,"y":2577592.4199999999}},{"attributes":{"ID":375826,"DIS_CODE":0,"TOWNNAME":"新營區","LI":"南紙里","LIN":"10鄰","STREET":"南紙街","SECT":" ","MAREA":" ","LANE":"８２巷","ALLEY":" ","HOUSE_NO":"１４號","E_COORD97":177708.98999999999,"N_COORD97":2577596.98,"ADDRESS":"南紙街８２巷１４號","OBJECTID":375816},"geometry":{"x":177708.99000000115,"y":2577596.9800000023}},{"attributes":{"ID":375827,"DIS_CODE":0,"TOWNNAME":"新營區","LI":"南紙里","LIN":"10鄰","STREET":"南紙街","SECT":" ","MAREA":" ","LANE":"５４巷","ALLEY":" ","HOUSE_NO":"１１號","E_COORD97":177765.60000000001,"N_COORD97":2577668.6800000002,"ADDRESS":"南紙街５４巷１１號","OBJECTID":375817},"geometry":{"x":177765.59999999963,"y":2577668.6799999978}},{"attributes":{"ID":375828,"DIS_CODE":0,"TOWNNAME":"新營區","LI":"南紙里","LIN":"10鄰","STREET":"南紙街","SECT":" ","MAREA":" ","LANE":"８２巷","ALLEY":" ","HOUSE_NO":"４號","E_COORD97":177756.92000000001,"N_COORD97":2577597.8500000001,"ADDRESS":"南紙街８２巷４號","OBJECTID":375818},"geometry":{"x":177756.91999999993,"y":2577597.8500000015}},{"attributes":{"ID":375829,"DIS_CODE":0,"TOWNNAME":"北區","LI":"成德里","LIN":"10鄰","STREET":"西門路","SECT":"四段","MAREA":" ","LANE":"１７１巷","ALLEY":" ","HOUSE_NO":"２４號","E_COORD97":168720.64999999999,"N_COORD97":2545700.1800000002,"ADDRESS":"西門路四段１７１巷２４號","OBJECTID":375819},"geometry":{"x":168720.65000000037,"y":2545700.1799999997}},{"attributes":{"ID":375830,"DIS_CODE":0,"TOWNNAME":"北區","LI":"成德里","LIN":"10鄰","STREET":"西門路","SECT":"四段","MAREA":" ","LANE":"１７１巷","ALLEY":" ","HOUSE_NO":"２６號","E_COORD97":168715.98999999999,"N_COORD97":2545701.6299999999,"ADDRESS":"西門路四段１７１巷２６號","OBJECTID":375820},"geometry":{"x":168715.99000000115,"y":2545701.6300000008}},{"attributes":{"ID":375831,"DIS_CODE":0,"TOWNNAME":"北區","LI":"成德里","LIN":"10鄰","STREET":"西門路","SECT":"四段","MAREA":" ","LANE":"１７１巷","ALLEY":" ","HOUSE_NO":"２８號","E_COORD97":168711.92000000001,"N_COORD97":2545703.0899999999,"ADDRESS":"西門路四段１７１巷２８號","OBJECTID":375821},"geometry":{"x":168711.91999999993,"y":2545703.0900000017}},{"attributes":{"ID":375832,"DIS_CODE":0,"TOWNNAME":"北區","LI":"成德里","LIN":"10鄰","STREET":"西門路","SECT":"四段","MAREA":" ","LANE":"１７１巷","ALLEY":" ","HOUSE_NO":"２號","E_COORD97":168806.79000000001,"N_COORD97":2545672.7799999998,"ADDRESS":"西門路四段１７１巷２號","OBJECTID":375822},"geometry":{"x":168806.79000000097,"y":2545672.7800000031}},{"attributes":{"ID":375833,"DIS_CODE":0,"TOWNNAME":"北區","LI":"成德里","LIN":"10鄰","STREET":"西門路","SECT":"四段","MAREA":" ","LANE":"１７１巷","ALLEY":" ","HOUSE_NO":"３０號","E_COORD97":168707.70000000001,"N_COORD97":2545704.8300000001,"ADDRESS":"西門路四段１７１巷３０號","OBJECTID":375823},"geometry":{"x":168707.70000000112,"y":2545704.8300000019}},{"attributes":{"ID":375834,"DIS_CODE":0,"TOWNNAME":"北區","LI":"成德里","LIN":"10鄰","STREET":"西門路","SECT":"四段","MAREA":" ","LANE":"１７１巷","ALLEY":" ","HOUSE_NO":"３２號","E_COORD97":168702.91,"N_COORD97":2545705.9900000002,"ADDRESS":"西門路四段１７１巷３２號","OBJECTID":375824},"geometry":{"x":168702.91000000108,"y":2545705.9899999984}},{"attributes":{"ID":375835,"DIS_CODE":0,"TOWNNAME":"北區","LI":"成德里","LIN":"10鄰","STREET":"西門路","SECT":"四段","MAREA":" ","LANE":"１７１巷","ALLEY":" ","HOUSE_NO":"３４號","E_COORD97":168699.26999999999,"N_COORD97":2545708.1699999999,"ADDRESS":"西門路四段１７１巷３４號","OBJECTID":375825},"geometry":{"x":168699.27000000142,"y":2545708.1700000037}},{"attributes":{"ID":375836,"DIS_CODE":0,"TOWNNAME":"北區","LI":"成德里","LIN":"10鄰","STREET":"西門路","SECT":"四段","MAREA":" ","LANE":"１７１巷","ALLEY":" ","HOUSE_NO":"３８號","E_COORD97":168690.98000000001,"N_COORD97":2545711.3700000001,"ADDRESS":"西門路四段１７１巷３８號","OBJECTID":375826},"geometry":{"x":168690.98000000138,"y":2545711.3700000048}},{"attributes":{"ID":375837,"DIS_CODE":0,"TOWNNAME":"北區","LI":"成德里","LIN":"10鄰","STREET":"西門路","SECT":"四段","MAREA":" ","LANE":"１７１巷","ALLEY":" ","HOUSE_NO":"４０號","E_COORD97":168686.76999999999,"N_COORD97":2545712.5299999998,"ADDRESS":"西門路四段１７１巷４０號","OBJECTID":375827},"geometry":{"x":168686.76999999955,"y":2545712.5300000012}},{"attributes":{"ID":375838,"DIS_CODE":0,"TOWNNAME":"北區","LI":"成德里","LIN":"10鄰","STREET":"西門路","SECT":"四段","MAREA":" ","LANE":"１７１巷","ALLEY":" ","HOUSE_NO":"４２號","E_COORD97":168682.39999999999,"N_COORD97":2545713.25,"ADDRESS":"西門路四段１７１巷４２號","OBJECTID":375828},"geometry":{"x":168682.4000000013,"y":2545713.25}},{"attributes":{"ID":375839,"DIS_CODE":0,"TOWNNAME":"北區","LI":"成德里","LIN":"10鄰","STREET":"西門路","SECT":"四段","MAREA":" ","LANE":"１７１巷","ALLEY":" ","HOUSE_NO":"４４號","E_COORD97":168677.89999999999,"N_COORD97":2545714.5600000001,"ADDRESS":"西門路四段１７１巷４４號","OBJECTID":375829},"geometry":{"x":168677.9000000013,"y":2545714.5600000005}},{"attributes":{"ID":375840,"DIS_CODE":0,"TOWNNAME":"北區","LI":"成德里","LIN":"10鄰","STREET":"西門路","SECT":"四段","MAREA":" ","LANE":"１７１巷","ALLEY":" ","HOUSE_NO":"４６號","E_COORD97":168673.67999999999,"N_COORD97":2545716.0099999998,"ADDRESS":"西門路四段１７１巷４６號","OBJECTID":375830},"geometry":{"x":168673.68000000063,"y":2545716.0100000035}},{"attributes":{"ID":375841,"DIS_CODE":0,"TOWNNAME":"北區","LI":"成德里","LIN":"10鄰","STREET":"西門路","SECT":"四段","MAREA":" ","LANE":"１７１巷","ALLEY":" ","HOUSE_NO":"４８號","E_COORD97":168669.75,"N_COORD97":2545717.0299999998,"ADDRESS":"西門路四段１７１巷４８號","OBJECTID":375831},"geometry":{"x":168669.75000000093,"y":2545717.0299999993}},{"attributes":{"ID":375842,"DIS_CODE":0,"TOWNNAME":"北區","LI":"成德里","LIN":"10鄰","STREET":"西門路","SECT":"四段","MAREA":" ","LANE":"１７１巷","ALLEY":" ","HOUSE_NO":"５０號","E_COORD97":168665.67999999999,"N_COORD97":2545718.77,"ADDRESS":"西門路四段１７１巷５０號","OBJECTID":375832},"geometry":{"x":168665.6799999997,"y":2545718.7700000014}},{"attributes":{"ID":375843,"DIS_CODE":0,"TOWNNAME":"北區","LI":"成德里","LIN":"10鄰","STREET":"西門路","SECT":"四段","MAREA":" ","LANE":"１７１巷","ALLEY":" ","HOUSE_NO":"５２號","E_COORD97":168661.03,"N_COORD97":2545719.9399999999,"ADDRESS":"西門路四段１７１巷５２號","OBJECTID":375833},"geometry":{"x":168661.03000000212,"y":2545719.9400000013}},{"attributes":{"ID":375844,"DIS_CODE":0,"TOWNNAME":"北區","LI":"成德里","LIN":"10鄰","STREET":"西門路","SECT":"四段","MAREA":" ","LANE":"１７１巷","ALLEY":" ","HOUSE_NO":"５４號","E_COORD97":168656.51999999999,"N_COORD97":2545721.2400000002,"ADDRESS":"西門路四段１７１巷５４號","OBJECTID":375834},"geometry":{"x":168656.51999999955,"y":2545721.2399999984}},{"attributes":{"ID":375845,"DIS_CODE":0,"TOWNNAME":"北區","LI":"成德里","LIN":"10鄰","STREET":"西門路","SECT":"四段","MAREA":" ","LANE":"１７１巷","ALLEY":" ","HOUSE_NO":"５６號","E_COORD97":168652.01000000001,"N_COORD97":2545722.3999999999,"ADDRESS":"西門路四段１７１巷５６號","OBJECTID":375835},"geometry":{"x":168652.01000000164,"y":2545722.4000000004}},{"attributes":{"ID":375846,"DIS_CODE":0,"TOWNNAME":"北區","LI":"成德里","LIN":"10鄰","STREET":"西門路","SECT":"四段","MAREA":" ","LANE":"１７１巷","ALLEY":" ","HOUSE_NO":"５８號","E_COORD97":168647.94,"N_COORD97":2545724,"ADDRESS":"西門路四段１７１巷５８號","OBJECTID":375836},"geometry":{"x":168647.94000000041,"y":2545724.0000000019}},{"attributes":{"ID":375847,"DIS_CODE":0,"TOWNNAME":"北區","LI":"成德里","LIN":"10鄰","STREET":"西門路","SECT":"四段","MAREA":" ","LANE":"１７１巷","ALLEY":" ","HOUSE_NO":"６０號","E_COORD97":168643,"N_COORD97":2545725.46,"ADDRESS":"西門路四段１７１巷６０號","OBJECTID":375837},"geometry":{"x":168643.00000000093,"y":2545725.4600000028}},{"attributes":{"ID":375848,"DIS_CODE":0,"TOWNNAME":"北區","LI":"成功里","LIN":"10鄰","STREET":"西門路","SECT":"四段","MAREA":" ","LANE":"５３３巷","ALLEY":" ","HOUSE_NO":"１４號","E_COORD97":169072.87,"N_COORD97":2546812.4700000002,"ADDRESS":"西門路四段５３３巷１４號","OBJECTID":375838},"geometry":{"x":169072.87000000104,"y":2546812.4700000025}},{"attributes":{"ID":375849,"DIS_CODE":0,"TOWNNAME":"北區","LI":"成功里","LIN":"10鄰","STREET":"西門路","SECT":"四段","MAREA":" ","LANE":"５３３巷","ALLEY":" ","HOUSE_NO":"１號","E_COORD97":169313.34,"N_COORD97":2546652.8999999999,"ADDRESS":"西門路四段５３３巷１號","OBJECTID":375839},"geometry":{"x":169313.34000000078,"y":2546652.9000000041}},{"attributes":{"ID":375850,"DIS_CODE":0,"TOWNNAME":"北區","LI":"成功里","LIN":"10鄰","STREET":"西門路","SECT":"四段","MAREA":" ","LANE":"５３３巷","ALLEY":" ","HOUSE_NO":"２號","E_COORD97":169306.60999999999,"N_COORD97":2546664.5499999998,"ADDRESS":"西門路四段５３３巷２號","OBJECTID":375840},"geometry":{"x":169306.61000000127,"y":2546664.5500000007}},{"attributes":{"ID":375851,"DIS_CODE":0,"TOWNNAME":"北區","LI":"成功里","LIN":"10鄰","STREET":"西門路","SECT":"四段","MAREA":" ","LANE":"５３３巷","ALLEY":" ","HOUSE_NO":"３號","E_COORD97":169302.13,"N_COORD97":2546679.3399999999,"ADDRESS":"西門路四段５３３巷３號","OBJECTID":375841},"geometry":{"x":169302.12999999989,"y":2546679.3399999999}},{"attributes":{"ID":375852,"DIS_CODE":0,"TOWNNAME":"關廟區","LI":"北勢里","LIN":"10鄰","STREET":"成功路","SECT":" ","MAREA":" ","LANE":"１８０巷","ALLEY":" ","HOUSE_NO":"７號","E_COORD97":181567.87,"N_COORD97":2540520.27,"ADDRESS":"成功路１８０巷７號","OBJECTID":375842},"geometry":{"x":181567.87000000104,"y":2540520.2700000014}},{"attributes":{"ID":375853,"DIS_CODE":0,"TOWNNAME":"關廟區","LI":"北勢里","LIN":"10鄰","STREET":"成功路","SECT":" ","MAREA":" ","LANE":"１８０巷","ALLEY":" ","HOUSE_NO":"９號","E_COORD97":181563.67000000001,"N_COORD97":2540520.27,"ADDRESS":"成功路１８０巷９號","OBJECTID":375843},"geometry":{"x":181563.67000000086,"y":2540520.2700000014}},{"attributes":{"ID":375854,"DIS_CODE":0,"TOWNNAME":"關廟區","LI":"山西里","LIN":"10鄰","STREET":"文衡路","SECT":" ","MAREA":" ","LANE":"２３８巷","ALLEY":" ","HOUSE_NO":"１８號","E_COORD97":180955.69,"N_COORD97":2540662.3300000001,"ADDRESS":"文衡路２３８巷１８號","OBJECTID":375844},"geometry":{"x":180955.69000000134,"y":2540662.3300000038}},{"attributes":{"ID":375855,"DIS_CODE":0,"TOWNNAME":"關廟區","LI":"五甲里","LIN":"10鄰","STREET":"五甲路","SECT":" ","MAREA":" ","LANE":"２１１巷","ALLEY":" ","HOUSE_NO":"５２號","E_COORD97":180910.12,"N_COORD97":2538513.25,"ADDRESS":"五甲路２１１巷５２號","OBJECTID":375845},"geometry":{"x":180910.12000000104,"y":2538513.2500000037}},{"attributes":{"ID":375856,"DIS_CODE":0,"TOWNNAME":"關廟區","LI":"山西里","LIN":"10鄰","STREET":"文衡路","SECT":" ","MAREA":" ","LANE":"２３８巷","ALLEY":" ","HOUSE_NO":"１７號","E_COORD97":180957.69,"N_COORD97":2540687.3300000001,"ADDRESS":"文衡路２３８巷１７號","OBJECTID":375846},"geometry":{"x":180957.69000000134,"y":2540687.3300000019}},{"attributes":{"ID":375857,"DIS_CODE":0,"TOWNNAME":"關廟區","LI":"東勢里","LIN":"10鄰","STREET":"旺萊路","SECT":" ","MAREA":" ","LANE":"３０６巷","ALLEY":" ","HOUSE_NO":"６號","E_COORD97":182016.14000000001,"N_COORD97":2539438.25,"ADDRESS":"旺萊路３０６巷６號","OBJECTID":375847},"geometry":{"x":182016.1400000006,"y":2539438.25}},{"attributes":{"ID":375858,"DIS_CODE":0,"TOWNNAME":"關廟區","LI":"東勢里","LIN":"10鄰","STREET":"旺萊路","SECT":" ","MAREA":" ","LANE":"３０６巷","ALLEY":" ","HOUSE_NO":"１６號","E_COORD97":182033.59,"N_COORD97":2539441.25,"ADDRESS":"旺萊路３０６巷１６號","OBJECTID":375848},"geometry":{"x":182033.59000000078,"y":2539441.25}},{"attributes":{"ID":375859,"DIS_CODE":0,"TOWNNAME":"關廟區","LI":"五甲里","LIN":"10鄰","STREET":"五甲路","SECT":" ","MAREA":" ","LANE":"２８０巷","ALLEY":" ","HOUSE_NO":"８８號","E_COORD97":180666.32000000001,"N_COORD97":2538793.25,"ADDRESS":"五甲路２８０巷８８號","OBJECTID":375849},"geometry":{"x":180666.32000000123,"y":2538793.25}},{"attributes":{"ID":375860,"DIS_CODE":0,"TOWNNAME":"關廟區","LI":"松腳里","LIN":"10鄰","STREET":"勝利街","SECT":" ","MAREA":" ","LANE":"２７巷","ALLEY":" ","HOUSE_NO":"２號","E_COORD97":181791.22,"N_COORD97":2539712.2599999998,"ADDRESS":"勝利街２７巷２號","OBJECTID":375850},"geometry":{"x":181791.21999999974,"y":2539712.2599999998}},{"attributes":{"ID":375861,"DIS_CODE":0,"TOWNNAME":"關廟區","LI":"南花里","LIN":"10鄰","STREET":"花園一街","SECT":" ","MAREA":" ","LANE":"１２１巷","ALLEY":" ","HOUSE_NO":"１６號","E_COORD97":181797.276358,"N_COORD97":2540145.7981799999,"ADDRESS":"花園一街１２１巷１６號","OBJECTID":375851},"geometry":{"x":181797.276358,"y":2540145.7981790006}},{"attributes":{"ID":375862,"DIS_CODE":0,"TOWNNAME":"關廟區","LI":"關廟里","LIN":"10鄰","STREET":"大仁街","SECT":" ","MAREA":" ","LANE":"２３５巷","ALLEY":" ","HOUSE_NO":"２５號","E_COORD97":180760.42000000001,"N_COORD97":2539436.25,"ADDRESS":"大仁街２３５巷２５號","OBJECTID":375852},"geometry":{"x":180760.42000000086,"y":2539436.2500000019}},{"attributes":{"ID":375863,"DIS_CODE":0,"TOWNNAME":"關廟區","LI":"新光里","LIN":"10鄰","STREET":"新光街","SECT":" ","MAREA":" ","LANE":"２０６巷","ALLEY":" ","HOUSE_NO":"２３號","E_COORD97":184328.87,"N_COORD97":2541832.25,"ADDRESS":"新光街２０６巷２３號","OBJECTID":375853},"geometry":{"x":184328.87000000197,"y":2541832.2500000037}},{"attributes":{"ID":375864,"DIS_CODE":0,"TOWNNAME":"關廟區","LI":"南花里","LIN":"10鄰","STREET":"花園一街","SECT":" ","MAREA":" ","LANE":"１２１巷","ALLEY":" ","HOUSE_NO":"８號","E_COORD97":181798.75994399999,"N_COORD97":2540159.8740099999,"ADDRESS":"花園一街１２１巷８號","OBJECTID":375854},"geometry":{"x":181798.75994400121,"y":2540159.8740050029}},{"attributes":{"ID":375865,"DIS_CODE":0,"TOWNNAME":"關廟區","LI":"松腳里","LIN":"10鄰","STREET":"勝利街","SECT":" ","MAREA":" ","LANE":"４７巷","ALLEY":" ","HOUSE_NO":"６號","E_COORD97":181741.72,"N_COORD97":2539709.2599999998,"ADDRESS":"勝利街４７巷６號","OBJECTID":375855},"geometry":{"x":181741.71999999974,"y":2539709.2599999998}},{"attributes":{"ID":375866,"DIS_CODE":0,"TOWNNAME":"關廟區","LI":"南花里","LIN":"10鄰","STREET":"花園一街","SECT":" ","MAREA":" ","LANE":"１２１巷","ALLEY":" ","HOUSE_NO":"１８號","E_COORD97":181796.85247700001,"N_COORD97":2540139.7656800002,"ADDRESS":"花園一街１２１巷１８號","OBJECTID":375856},"geometry":{"x":181796.85247700009,"y":2540139.765682999}},{"attributes":{"ID":375867,"DIS_CODE":0,"TOWNNAME":"安平區","LI":"平安里","LIN":"10鄰","STREET":"安平路","SECT":" ","MAREA":" ","LANE":"４４６巷","ALLEY":" ","HOUSE_NO":"２２號","E_COORD97":165292,"N_COORD97":2544386.0600000001,"ADDRESS":"安平路４４６巷２２號","OBJECTID":375857},"geometry":{"x":165292,"y":2544386.0600000005}},{"attributes":{"ID":375868,"DIS_CODE":0,"TOWNNAME":"安平區","LI":"平安里","LIN":"10鄰","STREET":"安平路","SECT":" ","MAREA":" ","LANE":"４４６巷","ALLEY":" ","HOUSE_NO":"２４號","E_COORD97":165293.67999999999,"N_COORD97":2544389.4199999999,"ADDRESS":"安平路４４６巷２４號","OBJECTID":375858},"geometry":{"x":165293.6799999997,"y":2544389.4199999999}},{"attributes":{"ID":375869,"DIS_CODE":0,"TOWNNAME":"安平區","LI":"平安里","LIN":"10鄰","STREET":"安平路","SECT":" ","MAREA":" ","LANE":"４４６巷","ALLEY":" ","HOUSE_NO":"２６號","E_COORD97":165293.67999999999,"N_COORD97":2544394.5800000001,"ADDRESS":"安平路４４６巷２６號","OBJECTID":375859},"geometry":{"x":165293.6799999997,"y":2544394.5800000019}},{"attributes":{"ID":375870,"DIS_CODE":0,"TOWNNAME":"安平區","LI":"平安里","LIN":"10鄰","STREET":"安平路","SECT":" ","MAREA":" ","LANE":"４４６巷","ALLEY":" ","HOUSE_NO":"６號","E_COORD97":165285.63,"N_COORD97":2544352.1499999999,"ADDRESS":"安平路４４６巷６號","OBJECTID":375860},"geometry":{"x":165285.62999999989,"y":2544352.1500000004}},{"attributes":{"ID":375871,"DIS_CODE":0,"TOWNNAME":"安平區","LI":"平安里","LIN":"10鄰","STREET":"安平路","SECT":" ","MAREA":" ","LANE":"４４６巷","ALLEY":" ","HOUSE_NO":"８號","E_COORD97":165286.26999999999,"N_COORD97":2544357.3100000001,"ADDRESS":"安平路４４６巷８號","OBJECTID":375861},"geometry":{"x":165286.26999999955,"y":2544357.3100000005}},{"attributes":{"ID":375872,"DIS_CODE":0,"TOWNNAME":"安平區","LI":"平安里","LIN":"10鄰","STREET":"安平路","SECT":" ","MAREA":" ","LANE":"５００巷","ALLEY":" ","HOUSE_NO":"１２號","E_COORD97":165159.23000000001,"N_COORD97":2544401.71,"ADDRESS":"安平路５００巷１２號","OBJECTID":375862},"geometry":{"x":165159.23000000231,"y":2544401.7100000028}},{"attributes":{"ID":375873,"DIS_CODE":0,"TOWNNAME":"安平區","LI":"平安里","LIN":"10鄰","STREET":"安平路","SECT":" ","MAREA":" ","LANE":"５００巷","ALLEY":" ","HOUSE_NO":"１４號","E_COORD97":165158.97,"N_COORD97":2544404.6600000001,"ADDRESS":"安平路５００巷１４號","OBJECTID":375863},"geometry":{"x":165158.97000000067,"y":2544404.660000002}},{"attributes":{"ID":375874,"DIS_CODE":0,"TOWNNAME":"安平區","LI":"平安里","LIN":"10鄰","STREET":"安平路","SECT":" ","MAREA":" ","LANE":"５００巷","ALLEY":" ","HOUSE_NO":"１６號","E_COORD97":165158.32999999999,"N_COORD97":2544408.7599999998,"ADDRESS":"安平路５００巷１６號","OBJECTID":375864},"geometry":{"x":165158.33000000101,"y":2544408.7600000035}},{"attributes":{"ID":375875,"DIS_CODE":0,"TOWNNAME":"安平區","LI":"平安里","LIN":"10鄰","STREET":"安平路","SECT":" ","MAREA":" ","LANE":"５００巷","ALLEY":" ","HOUSE_NO":"１８號","E_COORD97":165159.87,"N_COORD97":2544413,"ADDRESS":"安平路５００巷１８號","OBJECTID":375865},"geometry":{"x":165159.87000000104,"y":2544413}},{"attributes":{"ID":375876,"DIS_CODE":0,"TOWNNAME":"安平區","LI":"平安里","LIN":"10鄰","STREET":"安平路","SECT":" ","MAREA":" ","LANE":"５００巷","ALLEY":" ","HOUSE_NO":"２０號","E_COORD97":165159.87,"N_COORD97":2544418.1299999999,"ADDRESS":"安平路５００巷２０號","OBJECTID":375866},"geometry":{"x":165159.87000000104,"y":2544418.129999999}},{"attributes":{"ID":375877,"DIS_CODE":0,"TOWNNAME":"安平區","LI":"平安里","LIN":"10鄰","STREET":"安平路","SECT":" ","MAREA":" ","LANE":"５００巷","ALLEY":" ","HOUSE_NO":"２２號","E_COORD97":165161.67000000001,"N_COORD97":2544423.6400000001,"ADDRESS":"安平路５００巷２２號","OBJECTID":375867},"geometry":{"x":165161.66999999993,"y":2544423.6400000006}},{"attributes":{"ID":375878,"DIS_CODE":0,"TOWNNAME":"安平區","LI":"平安里","LIN":"10鄰","STREET":"安平路","SECT":" ","MAREA":" ","LANE":"５００巷","ALLEY":" ","HOUSE_NO":"２４號","E_COORD97":165162.44,"N_COORD97":2544426.3300000001,"ADDRESS":"安平路５００巷２４號","OBJECTID":375868},"geometry":{"x":165162.44000000041,"y":2544426.3300000019}},{"attributes":{"ID":375879,"DIS_CODE":0,"TOWNNAME":"安平區","LI":"平安里","LIN":"10鄰","STREET":"安平路","SECT":" ","MAREA":" ","LANE":"５００巷","ALLEY":" ","HOUSE_NO":"２６號","E_COORD97":165162.31,"N_COORD97":2544429.4100000001,"ADDRESS":"安平路５００巷２６號","OBJECTID":375869},"geometry":{"x":165162.30999999959,"y":2544429.410000002}},{"attributes":{"ID":375880,"DIS_CODE":0,"TOWNNAME":"安平區","LI":"平安里","LIN":"10鄰","STREET":"安平路","SECT":" ","MAREA":" ","LANE":"５００巷","ALLEY":" ","HOUSE_NO":"２８號","E_COORD97":165163.57999999999,"N_COORD97":2544431.8700000001,"ADDRESS":"安平路５００巷２８號","OBJECTID":375870},"geometry":{"x":165163.58000000101,"y":2544431.870000001}},{"attributes":{"ID":375881,"DIS_CODE":0,"TOWNNAME":"安平區","LI":"平安里","LIN":"10鄰","STREET":"安平路","SECT":" ","MAREA":" ","LANE":"５００巷","ALLEY":" ","HOUSE_NO":"２號","E_COORD97":165149.98000000001,"N_COORD97":2544366.5699999998,"ADDRESS":"安平路５００巷２號","OBJECTID":375871},"geometry":{"x":165149.98000000045,"y":2544366.570000004}},{"attributes":{"ID":375882,"DIS_CODE":0,"TOWNNAME":"安平區","LI":"平安里","LIN":"10鄰","STREET":"安平路","SECT":" ","MAREA":" ","LANE":"５００巷","ALLEY":" ","HOUSE_NO":"３０號","E_COORD97":165164.39999999999,"N_COORD97":2544435.2599999998,"ADDRESS":"安平路５００巷３０號","OBJECTID":375872},"geometry":{"x":165164.40000000037,"y":2544435.2599999998}},{"attributes":{"ID":375883,"DIS_CODE":0,"TOWNNAME":"安平區","LI":"平安里","LIN":"10鄰","STREET":"安平路","SECT":" ","MAREA":" ","LANE":"５００巷","ALLEY":" ","HOUSE_NO":"４８號","E_COORD97":165171.70999999999,"N_COORD97":2544474.5699999998,"ADDRESS":"安平路５００巷４８號","OBJECTID":375873},"geometry":{"x":165171.70999999996,"y":2544474.5700000003}},{"attributes":{"ID":375884,"DIS_CODE":0,"TOWNNAME":"安平區","LI":"平安里","LIN":"10鄰","STREET":"安平路","SECT":" ","MAREA":" ","LANE":"５００巷","ALLEY":" ","HOUSE_NO":"５０號","E_COORD97":165172.47,"N_COORD97":2544478.0899999999,"ADDRESS":"安平路５００巷５０號","OBJECTID":375874},"geometry":{"x":165172.47000000067,"y":2544478.0900000017}},{"attributes":{"ID":375885,"DIS_CODE":0,"TOWNNAME":"安平區","LI":"平安里","LIN":"10鄰","STREET":"安平路","SECT":" ","MAREA":" ","LANE":"５００巷","ALLEY":" ","HOUSE_NO":"５２號","E_COORD97":165173.09,"N_COORD97":2544481.3100000001,"ADDRESS":"安平路５００巷５２號","OBJECTID":375875},"geometry":{"x":165173.09000000171,"y":2544481.3100000024}},{"attributes":{"ID":375886,"DIS_CODE":0,"TOWNNAME":"安平區","LI":"石門里","LIN":"10鄰","STREET":"安北路","SECT":" ","MAREA":" ","LANE":"３１巷","ALLEY":" ","HOUSE_NO":"９號","E_COORD97":164577.92999999999,"N_COORD97":2544502.6499999999,"ADDRESS":"安北路３１巷９號","OBJECTID":375876},"geometry":{"x":164577.93000000063,"y":2544502.6500000022}},{"attributes":{"ID":375887,"DIS_CODE":0,"TOWNNAME":"安平區","LI":"石門里","LIN":"10鄰","STREET":"安北路","SECT":" ","MAREA":" ","LANE":"３５巷","ALLEY":" ","HOUSE_NO":"６號","E_COORD97":164555.66,"N_COORD97":2544565.7200000002,"ADDRESS":"安北路３５巷６號","OBJECTID":375877},"geometry":{"x":164555.66000000015,"y":2544565.7199999988}},{"attributes":{"ID":375888,"DIS_CODE":0,"TOWNNAME":"安平區","LI":"石門里","LIN":"10鄰","STREET":"安北路","SECT":" ","MAREA":" ","LANE":"４１巷","ALLEY":" ","HOUSE_NO":"２號","E_COORD97":164548.17999999999,"N_COORD97":2544580.6200000001,"ADDRESS":"安北路４１巷２號","OBJECTID":375878},"geometry":{"x":164548.1799999997,"y":2544580.6200000048}},{"attributes":{"ID":375889,"DIS_CODE":0,"TOWNNAME":"安平區","LI":"石門里","LIN":"10鄰","STREET":"安北路","SECT":" ","MAREA":" ","LANE":"４１巷","ALLEY":" ","HOUSE_NO":"３號","E_COORD97":164545.35000000001,"N_COORD97":2544561.6000000001,"ADDRESS":"安北路４１巷３號","OBJECTID":375879},"geometry":{"x":164545.34999999963,"y":2544561.5999999996}},{"attributes":{"ID":375890,"DIS_CODE":0,"TOWNNAME":"安平區","LI":"石門里","LIN":"10鄰","STREET":"安北路","SECT":" ","MAREA":" ","LANE":"４１巷","ALLEY":" ","HOUSE_NO":"５號","E_COORD97":164540.19,"N_COORD97":2544561.8500000001,"ADDRESS":"安北路４１巷５號","OBJECTID":375880},"geometry":{"x":164540.19000000041,"y":2544561.8500000015}},{"attributes":{"ID":375891,"DIS_CODE":0,"TOWNNAME":"北區","LI":"大和里","LIN":"10鄰","STREET":"大港街","SECT":" ","MAREA":" ","LANE":"３８巷","ALLEY":" ","HOUSE_NO":"１２號","E_COORD97":167169.85000000001,"N_COORD97":2546137.1499999999,"ADDRESS":"大港街３８巷１２號","OBJECTID":375881},"geometry":{"x":167169.85000000056,"y":2546137.1500000022}},{"attributes":{"ID":375892,"DIS_CODE":0,"TOWNNAME":"北區","LI":"大和里","LIN":"10鄰","STREET":"文賢路","SECT":" ","MAREA":" ","LANE":"７３５巷","ALLEY":" ","HOUSE_NO":"１２號","E_COORD97":167289.14999999999,"N_COORD97":2546160,"ADDRESS":"文賢路７３５巷１２號","OBJECTID":375882},"geometry":{"x":167289.1500000013,"y":2546159.9999999981}},{"attributes":{"ID":375893,"DIS_CODE":0,"TOWNNAME":"北區","LI":"大和里","LIN":"10鄰","STREET":"文賢路","SECT":" ","MAREA":" ","LANE":"７３５巷","ALLEY":" ","HOUSE_NO":"１３號","E_COORD97":167296.38,"N_COORD97":2546144.1899999999,"ADDRESS":"文賢路７３５巷１３號","OBJECTID":375883},"geometry":{"x":167296.37999999989,"y":2546144.1899999995}},{"attributes":{"ID":375894,"DIS_CODE":0,"TOWNNAME":"北區","LI":"大和里","LIN":"10鄰","STREET":"文賢路","SECT":" ","MAREA":" ","LANE":"７３５巷","ALLEY":" ","HOUSE_NO":"１４號","E_COORD97":167284.79999999999,"N_COORD97":2546157.96,"ADDRESS":"文賢路７３５巷１４號","OBJECTID":375884},"geometry":{"x":167284.79999999981,"y":2546157.9600000046}},{"attributes":{"ID":375895,"DIS_CODE":0,"TOWNNAME":"北區","LI":"大和里","LIN":"10鄰","STREET":"文賢路","SECT":" ","MAREA":" ","LANE":"７３５巷","ALLEY":" ","HOUSE_NO":"１５號","E_COORD97":167291.47,"N_COORD97":2546142.9300000002,"ADDRESS":"文賢路７３５巷１５號","OBJECTID":375885},"geometry":{"x":167291.47000000067,"y":2546142.9299999997}},{"attributes":{"ID":375896,"DIS_CODE":0,"TOWNNAME":"北區","LI":"大和里","LIN":"10鄰","STREET":"文賢路","SECT":" ","MAREA":" ","LANE":"７３５巷","ALLEY":" ","HOUSE_NO":"１６號","E_COORD97":167280.66,"N_COORD97":2546156.1400000001,"ADDRESS":"文賢路７３５巷１６號","OBJECTID":375886},"geometry":{"x":167280.66000000108,"y":2546156.1400000006}},{"attributes":{"ID":375897,"DIS_CODE":0,"TOWNNAME":"北區","LI":"大和里","LIN":"10鄰","STREET":"文賢路","SECT":" ","MAREA":" ","LANE":"７３５巷","ALLEY":" ","HOUSE_NO":"１７號","E_COORD97":167286.34,"N_COORD97":2546141.6600000001,"ADDRESS":"文賢路７３５巷１７號","OBJECTID":375887},"geometry":{"x":167286.33999999985,"y":2546141.6600000001}},{"attributes":{"ID":375898,"DIS_CODE":0,"TOWNNAME":"北區","LI":"大和里","LIN":"10鄰","STREET":"文賢路","SECT":" ","MAREA":" ","LANE":"７３５巷","ALLEY":" ","HOUSE_NO":"１８號","E_COORD97":167275.95000000001,"N_COORD97":2546154.3199999998,"ADDRESS":"文賢路７３５巷１８號","OBJECTID":375888},"geometry":{"x":167275.95000000019,"y":2546154.3200000003}},{"attributes":{"ID":375899,"DIS_CODE":0,"TOWNNAME":"北區","LI":"大和里","LIN":"10鄰","STREET":"文賢路","SECT":" ","MAREA":" ","LANE":"７３５巷","ALLEY":" ","HOUSE_NO":"１９號","E_COORD97":167279.45999999999,"N_COORD97":2546138.7200000002,"ADDRESS":"文賢路７３５巷１９號","OBJECTID":375889},"geometry":{"x":167279.46000000183,"y":2546138.7200000007}},{"attributes":{"ID":375900,"DIS_CODE":0,"TOWNNAME":"北區","LI":"大和里","LIN":"10鄰","STREET":"文賢路","SECT":" ","MAREA":" ","LANE":"７３５巷","ALLEY":" ","HOUSE_NO":"２１號","E_COORD97":167276.23000000001,"N_COORD97":2546136.6099999999,"ADDRESS":"文賢路７３５巷２１號","OBJECTID":375890},"geometry":{"x":167276.23000000045,"y":2546136.6100000013}},{"attributes":{"ID":375901,"DIS_CODE":0,"TOWNNAME":"北區","LI":"大和里","LIN":"10鄰","STREET":"文賢路","SECT":" ","MAREA":" ","LANE":"７３５巷","ALLEY":" ","HOUSE_NO":"２２號","E_COORD97":167266.59,"N_COORD97":2546151.7599999998,"ADDRESS":"文賢路７３５巷２２號","OBJECTID":375891},"geometry":{"x":167266.59000000171,"y":2546151.7600000016}},{"attributes":{"ID":375902,"DIS_CODE":0,"TOWNNAME":"北區","LI":"大和里","LIN":"10鄰","STREET":"文賢路","SECT":" ","MAREA":" ","LANE":"７３５巷","ALLEY":" ","HOUSE_NO":"２３號","E_COORD97":167272.29999999999,"N_COORD97":2546134.6499999999,"ADDRESS":"文賢路７３５巷２３號","OBJECTID":375892},"geometry":{"x":167272.30000000075,"y":2546134.6500000004}},{"attributes":{"ID":375903,"DIS_CODE":0,"TOWNNAME":"北區","LI":"大和里","LIN":"10鄰","STREET":"文賢路","SECT":" ","MAREA":" ","LANE":"７３５巷","ALLEY":" ","HOUSE_NO":"２３號之１","E_COORD97":167267.73999999999,"N_COORD97":2546133.04,"ADDRESS":"文賢路７３５巷２３號之１","OBJECTID":375893},"geometry":{"x":167267.74000000209,"y":2546133.040000001}},{"attributes":{"ID":375904,"DIS_CODE":0,"TOWNNAME":"北區","LI":"大和里","LIN":"10鄰","STREET":"文賢路","SECT":" ","MAREA":" ","LANE":"７３５巷","ALLEY":" ","HOUSE_NO":"２４號","E_COORD97":167259.09,"N_COORD97":2546150.3799999999,"ADDRESS":"文賢路７３５巷２４號","OBJECTID":375894},"geometry":{"x":167259.08999999985,"y":2546150.3800000008}},{"attributes":{"ID":375905,"DIS_CODE":0,"TOWNNAME":"北區","LI":"大和里","LIN":"10鄰","STREET":"文賢路","SECT":" ","MAREA":" ","LANE":"７３５巷","ALLEY":" ","HOUSE_NO":"２６號","E_COORD97":167252.48999999999,"N_COORD97":2546149.4700000002,"ADDRESS":"文賢路７３５巷２６號","OBJECTID":375895},"geometry":{"x":167252.49000000209,"y":2546149.4700000007}},{"attributes":{"ID":375906,"DIS_CODE":0,"TOWNNAME":"北區","LI":"大和里","LIN":"10鄰","STREET":"文賢路","SECT":" ","MAREA":" ","LANE":"７３５巷","ALLEY":" ","HOUSE_NO":"２８號","E_COORD97":167244.20000000001,"N_COORD97":2546174.2599999998,"ADDRESS":"文賢路７３５巷２８號","OBJECTID":375896},"geometry":{"x":167244.20000000205,"y":2546174.2599999998}},{"attributes":{"ID":375907,"DIS_CODE":0,"TOWNNAME":"北區","LI":"大和里","LIN":"10鄰","STREET":"文賢路","SECT":" ","MAREA":" ","LANE":"７３５巷","ALLEY":" ","HOUSE_NO":"２９號","E_COORD97":167258.23999999999,"N_COORD97":2546132.1800000002,"ADDRESS":"文賢路７３５巷２９號","OBJECTID":375897},"geometry":{"x":167258.24000000115,"y":2546132.1800000016}},{"attributes":{"ID":375908,"DIS_CODE":0,"TOWNNAME":"北區","LI":"大和里","LIN":"10鄰","STREET":"文賢路","SECT":" ","MAREA":" ","LANE":"７３５巷","ALLEY":" ","HOUSE_NO":"３０號","E_COORD97":167242.79000000001,"N_COORD97":2546145.1200000001,"ADDRESS":"文賢路７３５巷３０號","OBJECTID":375898},"geometry":{"x":167242.79000000004,"y":2546145.1200000029}},{"attributes":{"ID":375909,"DIS_CODE":0,"TOWNNAME":"北區","LI":"大和里","LIN":"10鄰","STREET":"文賢路","SECT":" ","MAREA":" ","LANE":"７３５巷","ALLEY":" ","HOUSE_NO":"３１號","E_COORD97":167254.23000000001,"N_COORD97":2546127.7400000002,"ADDRESS":"文賢路７３５巷３１號","OBJECTID":375899},"geometry":{"x":167254.23000000045,"y":2546127.7400000002}},{"attributes":{"ID":375910,"DIS_CODE":0,"TOWNNAME":"北區","LI":"大和里","LIN":"10鄰","STREET":"文賢路","SECT":" ","MAREA":" ","LANE":"７３５巷","ALLEY":" ","HOUSE_NO":"３２號","E_COORD97":167236.04000000001,"N_COORD97":2546142.1099999999,"ADDRESS":"文賢路７３５巷３２號","OBJECTID":375900},"geometry":{"x":167236.04000000004,"y":2546142.1100000031}},{"attributes":{"ID":375911,"DIS_CODE":0,"TOWNNAME":"北區","LI":"大和里","LIN":"10鄰","STREET":"文賢路","SECT":" ","MAREA":" ","LANE":"７３５巷","ALLEY":" ","HOUSE_NO":"３３號","E_COORD97":167250.37,"N_COORD97":2546126.3399999999,"ADDRESS":"文賢路７３５巷３３號","OBJECTID":375901},"geometry":{"x":167250.37000000104,"y":2546126.3399999999}},{"attributes":{"ID":375912,"DIS_CODE":0,"TOWNNAME":"北區","LI":"大和里","LIN":"10鄰","STREET":"文賢路","SECT":" ","MAREA":" ","LANE":"７３５巷","ALLEY":" ","HOUSE_NO":"３４號","E_COORD97":167228.94,"N_COORD97":2546140.77,"ADDRESS":"文賢路７３５巷３４號","OBJECTID":375902},"geometry":{"x":167228.94000000041,"y":2546140.7699999977}},{"attributes":{"ID":375913,"DIS_CODE":0,"TOWNNAME":"北區","LI":"大和里","LIN":"10鄰","STREET":"文賢路","SECT":" ","MAREA":" ","LANE":"７３５巷","ALLEY":" ","HOUSE_NO":"３５號","E_COORD97":167255.51999999999,"N_COORD97":2546115.4399999999,"ADDRESS":"文賢路７３５巷３５號","OBJECTID":375903},"geometry":{"x":167255.52000000048,"y":2546115.4399999995}},{"attributes":{"ID":375914,"DIS_CODE":0,"TOWNNAME":"北區","LI":"大和里","LIN":"10鄰","STREET":"文賢路","SECT":" ","MAREA":" ","LANE":"７３５巷","ALLEY":" ","HOUSE_NO":"３６號","E_COORD97":167224.92000000001,"N_COORD97":2546137.2200000002,"ADDRESS":"文賢路７３５巷３６號","OBJECTID":375904},"geometry":{"x":167224.91999999993,"y":2546137.2200000025}},{"attributes":{"ID":375915,"DIS_CODE":0,"TOWNNAME":"北區","LI":"大和里","LIN":"10鄰","STREET":"文賢路","SECT":" ","MAREA":" ","LANE":"７３５巷","ALLEY":" ","HOUSE_NO":"３７號","E_COORD97":167256.14999999999,"N_COORD97":2546111.9300000002,"ADDRESS":"文賢路７３５巷３７號","OBJECTID":375905},"geometry":{"x":167256.15000000037,"y":2546111.9299999997}},{"attributes":{"ID":375916,"DIS_CODE":0,"TOWNNAME":"北區","LI":"大和里","LIN":"10鄰","STREET":"文賢路","SECT":" ","MAREA":" ","LANE":"７３５巷","ALLEY":" ","HOUSE_NO":"３８號","E_COORD97":167220.23999999999,"N_COORD97":2546135.6600000001,"ADDRESS":"文賢路７３５巷３８號","OBJECTID":375906},"geometry":{"x":167220.24000000209,"y":2546135.6600000039}},{"attributes":{"ID":375917,"DIS_CODE":0,"TOWNNAME":"北區","LI":"大和里","LIN":"10鄰","STREET":"文賢路","SECT":" ","MAREA":" ","LANE":"７３５巷","ALLEY":" ","HOUSE_NO":"４０號","E_COORD97":167216.14000000001,"N_COORD97":2546134.4199999999,"ADDRESS":"文賢路７３５巷４０號","OBJECTID":375907},"geometry":{"x":167216.13999999966,"y":2546134.4200000018}},{"attributes":{"ID":375918,"DIS_CODE":0,"TOWNNAME":"北區","LI":"大和里","LIN":"10鄰","STREET":"文賢路","SECT":" ","MAREA":" ","LANE":"７３５巷","ALLEY":" ","HOUSE_NO":"４２號","E_COORD97":167208.85000000001,"N_COORD97":2546131.9500000002,"ADDRESS":"文賢路７３５巷４２號","OBJECTID":375908},"geometry":{"x":167208.85000000056,"y":2546131.9499999993}},{"attributes":{"ID":375919,"DIS_CODE":0,"TOWNNAME":"北區","LI":"大和里","LIN":"10鄰","STREET":"文賢路","SECT":" ","MAREA":" ","LANE":"７３５巷","ALLEY":" ","HOUSE_NO":"４２號之１","E_COORD97":167202.48000000001,"N_COORD97":2546130.8500000001,"ADDRESS":"文賢路７３５巷４２號之１","OBJECTID":375909},"geometry":{"x":167202.48000000138,"y":2546130.8500000015}},{"attributes":{"ID":375920,"DIS_CODE":0,"TOWNNAME":"北區","LI":"大和里","LIN":"10鄰","STREET":"文賢路","SECT":" ","MAREA":" ","LANE":"７３５巷","ALLEY":" ","HOUSE_NO":"４３號","E_COORD97":167239.92000000001,"N_COORD97":2546106.46,"ADDRESS":"文賢路７３５巷４３號","OBJECTID":375910},"geometry":{"x":167239.91999999993,"y":2546106.4600000009}},{"attributes":{"ID":375921,"DIS_CODE":0,"TOWNNAME":"北區","LI":"大和里","LIN":"10鄰","STREET":"文賢路","SECT":" ","MAREA":" ","LANE":"７３５巷","ALLEY":" ","HOUSE_NO":"４５號","E_COORD97":167239.48999999999,"N_COORD97":2546110.5299999998,"ADDRESS":"文賢路７３５巷４５號","OBJECTID":375911},"geometry":{"x":167239.49000000115,"y":2546110.5299999993}},{"attributes":{"ID":375922,"DIS_CODE":0,"TOWNNAME":"北區","LI":"大和里","LIN":"10鄰","STREET":"文賢路","SECT":" ","MAREA":" ","LANE":"７３５巷","ALLEY":" ","HOUSE_NO":"４６號","E_COORD97":167198.23999999999,"N_COORD97":2546128.7000000002,"ADDRESS":"文賢路７３５巷４６號","OBJECTID":375912},"geometry":{"x":167198.24000000209,"y":2546128.7000000011}},{"attributes":{"ID":375923,"DIS_CODE":0,"TOWNNAME":"北區","LI":"大和里","LIN":"10鄰","STREET":"文賢路","SECT":" ","MAREA":" ","LANE":"７３５巷","ALLEY":" ","HOUSE_NO":"４７號","E_COORD97":167238.84,"N_COORD97":2546122.3999999999,"ADDRESS":"文賢路７３５巷４７號","OBJECTID":375913},"geometry":{"x":167238.83999999985,"y":2546122.4000000004}},{"attributes":{"ID":375924,"DIS_CODE":0,"TOWNNAME":"北區","LI":"大和里","LIN":"10鄰","STREET":"文賢路","SECT":" ","MAREA":" ","LANE":"７３５巷","ALLEY":" ","HOUSE_NO":"４８號","E_COORD97":167194.39999999999,"N_COORD97":2546127.98,"ADDRESS":"文賢路７３５巷４８號","OBJECTID":375914},"geometry":{"x":167194.4000000013,"y":2546127.9800000023}},{"attributes":{"ID":375925,"DIS_CODE":0,"TOWNNAME":"北區","LI":"大和里","LIN":"10鄰","STREET":"文賢路","SECT":" ","MAREA":" ","LANE":"７３５巷","ALLEY":" ","HOUSE_NO":"４９號","E_COORD97":167234.63,"N_COORD97":2546122.1200000001,"ADDRESS":"文賢路７３５巷４９號","OBJECTID":375915},"geometry":{"x":167234.63000000082,"y":2546122.120000001}},{"attributes":{"ID":375926,"DIS_CODE":0,"TOWNNAME":"北區","LI":"大和里","LIN":"10鄰","STREET":"文賢路","SECT":" ","MAREA":" ","LANE":"７３５巷","ALLEY":" ","HOUSE_NO":"５０號","E_COORD97":167190.04000000001,"N_COORD97":2546127.3300000001,"ADDRESS":"文賢路７３５巷５０號","OBJECTID":375916},"geometry":{"x":167190.04000000004,"y":2546127.3299999982}},{"attributes":{"ID":375927,"DIS_CODE":0,"TOWNNAME":"北區","LI":"大和里","LIN":"10鄰","STREET":"文賢路","SECT":" ","MAREA":" ","LANE":"７３５巷","ALLEY":" ","HOUSE_NO":"５１號","E_COORD97":167230.63,"N_COORD97":2546120.9300000002,"ADDRESS":"文賢路７３５巷５１號","OBJECTID":375917},"geometry":{"x":167230.62999999989,"y":2546120.9300000016}},{"attributes":{"ID":375928,"DIS_CODE":0,"TOWNNAME":"北區","LI":"大和里","LIN":"10鄰","STREET":"文賢路","SECT":" ","MAREA":" ","LANE":"７３５巷","ALLEY":" ","HOUSE_NO":"５２號","E_COORD97":167186.07000000001,"N_COORD97":2546126.5499999998,"ADDRESS":"文賢路７３５巷５２號","OBJECTID":375918},"geometry":{"x":167186.07000000123,"y":2546126.5499999989}},{"attributes":{"ID":375929,"DIS_CODE":0,"TOWNNAME":"北區","LI":"大和里","LIN":"10鄰","STREET":"文賢路","SECT":" ","MAREA":" ","LANE":"７３５巷","ALLEY":" ","HOUSE_NO":"５３號","E_COORD97":167226.76999999999,"N_COORD97":2546120.5099999998,"ADDRESS":"文賢路７３５巷５３號","OBJECTID":375919},"geometry":{"x":167226.77000000048,"y":2546120.5100000016}},{"attributes":{"ID":375930,"DIS_CODE":0,"TOWNNAME":"北區","LI":"大和里","LIN":"10鄰","STREET":"文賢路","SECT":" ","MAREA":" ","LANE":"７３５巷","ALLEY":" ","HOUSE_NO":"５４號","E_COORD97":167182.42000000001,"N_COORD97":2546123.9500000002,"ADDRESS":"文賢路７３５巷５４號","OBJECTID":375920},"geometry":{"x":167182.41999999993,"y":2546123.9500000011}},{"attributes":{"ID":375931,"DIS_CODE":0,"TOWNNAME":"北區","LI":"大和里","LIN":"10鄰","STREET":"文賢路","SECT":" ","MAREA":" ","LANE":"７３５巷","ALLEY":" ","HOUSE_NO":"５５號","E_COORD97":167222.51000000001,"N_COORD97":2546120.23,"ADDRESS":"文賢路７３５巷５５號","OBJECTID":375921},"geometry":{"x":167222.50999999978,"y":2546120.2300000004}},{"attributes":{"ID":375932,"DIS_CODE":0,"TOWNNAME":"北區","LI":"大和里","LIN":"10鄰","STREET":"文賢路","SECT":" ","MAREA":" ","LANE":"７３５巷","ALLEY":" ","HOUSE_NO":"５６號","E_COORD97":167178.12,"N_COORD97":2546123.4199999999,"ADDRESS":"文賢路７３５巷５６號","OBJECTID":375922},"geometry":{"x":167178.12000000011,"y":2546123.4200000037}},{"attributes":{"ID":375933,"DIS_CODE":0,"TOWNNAME":"北區","LI":"大和里","LIN":"10鄰","STREET":"文賢路","SECT":" ","MAREA":" ","LANE":"７３５巷","ALLEY":" ","HOUSE_NO":"５８號","E_COORD97":167173.70000000001,"N_COORD97":2546121.9900000002,"ADDRESS":"文賢路７３５巷５８號","OBJECTID":375923},"geometry":{"x":167173.70000000112,"y":2546121.9900000002}},{"attributes":{"ID":375934,"DIS_CODE":0,"TOWNNAME":"北區","LI":"大和里","LIN":"10鄰","STREET":"文賢路","SECT":" ","MAREA":" ","LANE":"７３５巷","ALLEY":" ","HOUSE_NO":"６０號","E_COORD97":167168.67999999999,"N_COORD97":2546120.8900000001,"ADDRESS":"文賢路７３５巷６０號","OBJECTID":375924},"geometry":{"x":167168.6799999997,"y":2546120.8900000043}},{"attributes":{"ID":375935,"DIS_CODE":0,"TOWNNAME":"北區","LI":"大和里","LIN":"10鄰","STREET":"文賢路","SECT":" ","MAREA":" ","LANE":"７３５巷","ALLEY":" ","HOUSE_NO":"６９號","E_COORD97":167200.23000000001,"N_COORD97":2546112.5899999999,"ADDRESS":"文賢路７３５巷６９號","OBJECTID":375925},"geometry":{"x":167200.23000000231,"y":2546112.5900000017}},{"attributes":{"ID":375936,"DIS_CODE":0,"TOWNNAME":"北區","LI":"大和里","LIN":"10鄰","STREET":"文賢路","SECT":" ","MAREA":" ","LANE":"７３５巷","ALLEY":" ","HOUSE_NO":"７７號","E_COORD97":167178.19,"N_COORD97":2546104.6099999999,"ADDRESS":"文賢路７３５巷７７號","OBJECTID":375926},"geometry":{"x":167178.19000000041,"y":2546104.6100000031}},{"attributes":{"ID":375937,"DIS_CODE":0,"TOWNNAME":"麻豆區","LI":"興農里","LIN":"10鄰","STREET":"新生南路","SECT":" ","MAREA":" ","LANE":"１１４巷","ALLEY":" ","HOUSE_NO":"１０５號","E_COORD97":172243.81,"N_COORD97":2564636.3199999998,"ADDRESS":"新生南路１１４巷１０５號","OBJECTID":375927},"geometry":{"x":172243.81000000052,"y":2564636.3200000022}},{"attributes":{"ID":375938,"DIS_CODE":0,"TOWNNAME":"麻豆區","LI":"興農里","LIN":"10鄰","STREET":"新生南路","SECT":" ","MAREA":" ","LANE":"１１４巷","ALLEY":" ","HOUSE_NO":"１２３號","E_COORD97":172201.64999999999,"N_COORD97":2564661.8999999999,"ADDRESS":"新生南路１１４巷１２３號","OBJECTID":375928},"geometry":{"x":172201.6500000013,"y":2564661.9000000004}},{"attributes":{"ID":375939,"DIS_CODE":0,"TOWNNAME":"麻豆區","LI":"興農里","LIN":"10鄰","STREET":"新生南路","SECT":" ","MAREA":" ","LANE":"１１４巷","ALLEY":" ","HOUSE_NO":"１２５號","E_COORD97":172196.79000000001,"N_COORD97":2564661.75,"ADDRESS":"新生南路１１４巷１２５號","OBJECTID":375929},"geometry":{"x":172196.7900000019,"y":2564661.75}},{"attributes":{"ID":375940,"DIS_CODE":0,"TOWNNAME":"麻豆區","LI":"興農里","LIN":"10鄰","STREET":"新生南路","SECT":" ","MAREA":" ","LANE":"１１４巷","ALLEY":" ","HOUSE_NO":"１２７號","E_COORD97":172192.28,"N_COORD97":2564661.7000000002,"ADDRESS":"新生南路１１４巷１２７號","OBJECTID":375930},"geometry":{"x":172192.28000000119,"y":2564661.6999999993}},{"attributes":{"ID":375941,"DIS_CODE":0,"TOWNNAME":"麻豆區","LI":"興農里","LIN":"10鄰","STREET":"新生南路","SECT":" ","MAREA":" ","LANE":"１１４巷","ALLEY":" ","HOUSE_NO":"１５１號","E_COORD97":172120.17999999999,"N_COORD97":2564660.3199999998,"ADDRESS":"新生南路１１４巷１５１號","OBJECTID":375931},"geometry":{"x":172120.1799999997,"y":2564660.3200000022}},{"attributes":{"ID":375942,"DIS_CODE":0,"TOWNNAME":"麻豆區","LI":"興農里","LIN":"10鄰","STREET":"新生南路","SECT":" ","MAREA":" ","LANE":"１１４巷","ALLEY":" ","HOUSE_NO":"１５號","E_COORD97":172284.29000000001,"N_COORD97":2564641.8100000001,"ADDRESS":"新生南路１１４巷１５號","OBJECTID":375932},"geometry":{"x":172284.29000000004,"y":2564641.8100000005}},{"attributes":{"ID":375943,"DIS_CODE":0,"TOWNNAME":"麻豆區","LI":"興農里","LIN":"10鄰","STREET":"新生南路","SECT":" ","MAREA":" ","LANE":"１１４巷","ALLEY":" ","HOUSE_NO":"１７號","E_COORD97":172282.95999999999,"N_COORD97":2564635.25,"ADDRESS":"新生南路１１４巷１７號","OBJECTID":375933},"geometry":{"x":172282.95999999996,"y":2564635.25}},{"attributes":{"ID":375944,"DIS_CODE":0,"TOWNNAME":"麻豆區","LI":"興農里","LIN":"10鄰","STREET":"新生南路","SECT":" ","MAREA":" ","LANE":"１１４巷","ALLEY":" ","HOUSE_NO":"１號","E_COORD97":172294.45000000001,"N_COORD97":2564660.0699999998,"ADDRESS":"新生南路１１４巷１號","OBJECTID":375934},"geometry":{"x":172294.45000000112,"y":2564660.0700000003}},{"attributes":{"ID":375945,"DIS_CODE":0,"TOWNNAME":"麻豆區","LI":"興農里","LIN":"10鄰","STREET":"新生南路","SECT":" ","MAREA":" ","LANE":"１１４巷","ALLEY":" ","HOUSE_NO":"２１號","E_COORD97":172274.51999999999,"N_COORD97":2564624.25,"ADDRESS":"新生南路１１４巷２１號","OBJECTID":375935},"geometry":{"x":172274.52000000048,"y":2564624.25}},{"attributes":{"ID":375946,"DIS_CODE":0,"TOWNNAME":"麻豆區","LI":"興農里","LIN":"10鄰","STREET":"新生南路","SECT":" ","MAREA":" ","LANE":"１１４巷","ALLEY":" ","HOUSE_NO":"２５號","E_COORD97":172276.5,"N_COORD97":2564616.4199999999,"ADDRESS":"新生南路１１４巷２５號","OBJECTID":375936},"geometry":{"x":172276.5,"y":2564616.4199999999}},{"attributes":{"ID":375947,"DIS_CODE":0,"TOWNNAME":"麻豆區","LI":"興農里","LIN":"10鄰","STREET":"新生南路","SECT":" ","MAREA":" ","LANE":"１１４巷","ALLEY":" ","HOUSE_NO":"３５號","E_COORD97":172278.06,"N_COORD97":2564585.04,"ADDRESS":"新生南路１１４巷３５號","OBJECTID":375937},"geometry":{"x":172278.06000000052,"y":2564585.0399999991}},{"attributes":{"ID":375948,"DIS_CODE":0,"TOWNNAME":"麻豆區","LI":"興農里","LIN":"10鄰","STREET":"新生南路","SECT":" ","MAREA":" ","LANE":"１１４巷","ALLEY":" ","HOUSE_NO":"５９號","E_COORD97":172244.95000000001,"N_COORD97":2564569.1800000002,"ADDRESS":"新生南路１１４巷５９號","OBJECTID":375938},"geometry":{"x":172244.95000000205,"y":2564569.1800000016}},{"attributes":{"ID":375949,"DIS_CODE":0,"TOWNNAME":"麻豆區","LI":"興農里","LIN":"10鄰","STREET":"新生南路","SECT":" ","MAREA":" ","LANE":"１１４巷","ALLEY":" ","HOUSE_NO":"７１號","E_COORD97":172245.04999999999,"N_COORD97":2564595.4500000002,"ADDRESS":"新生南路１１４巷７１號","OBJECTID":375939},"geometry":{"x":172245.04999999981,"y":2564595.4499999993}},{"attributes":{"ID":375950,"DIS_CODE":0,"TOWNNAME":"麻豆區","LI":"興農里","LIN":"10鄰","STREET":"新生南路","SECT":" ","MAREA":" ","LANE":"１１４巷","ALLEY":" ","HOUSE_NO":"７３號","E_COORD97":172245.67999999999,"N_COORD97":2564599.3900000001,"ADDRESS":"新生南路１１４巷７３號","OBJECTID":375940},"geometry":{"x":172245.6799999997,"y":2564599.3900000025}},{"attributes":{"ID":375951,"DIS_CODE":0,"TOWNNAME":"麻豆區","LI":"興農里","LIN":"10鄰","STREET":"新生南路","SECT":" ","MAREA":" ","LANE":"１１４巷","ALLEY":" ","HOUSE_NO":"８１號","E_COORD97":172246.5,"N_COORD97":2564617.54,"ADDRESS":"新生南路１１４巷８１號","OBJECTID":375941},"geometry":{"x":172246.50000000093,"y":2564617.540000001}},{"attributes":{"ID":375952,"DIS_CODE":0,"TOWNNAME":"麻豆區","LI":"興農里","LIN":"10鄰","STREET":"新生南路","SECT":" ","MAREA":" ","LANE":"１１４巷","ALLEY":" ","HOUSE_NO":"８３號","E_COORD97":172246.64000000001,"N_COORD97":2564621.8100000001,"ADDRESS":"新生南路１１４巷８３號","OBJECTID":375942},"geometry":{"x":172246.64000000153,"y":2564621.8100000005}},{"attributes":{"ID":375953,"DIS_CODE":0,"TOWNNAME":"麻豆區","LI":"興農里","LIN":"10鄰","STREET":"新生南路","SECT":" ","MAREA":" ","LANE":"１１４巷","ALLEY":" ","HOUSE_NO":"８５號","E_COORD97":172246.73000000001,"N_COORD97":2564625.3900000001,"ADDRESS":"新生南路１１４巷８５號","OBJECTID":375943},"geometry":{"x":172246.73000000231,"y":2564625.3899999987}},{"attributes":{"ID":375954,"DIS_CODE":0,"TOWNNAME":"麻豆區","LI":"興農里","LIN":"10鄰","STREET":"新生南路","SECT":" ","MAREA":" ","LANE":"１１４巷","ALLEY":" ","HOUSE_NO":"８９號","E_COORD97":172262.59,"N_COORD97":2564641.9500000002,"ADDRESS":"新生南路１１４巷８９號","OBJECTID":375944},"geometry":{"x":172262.59000000078,"y":2564641.9500000011}},{"attributes":{"ID":375955,"DIS_CODE":0,"TOWNNAME":"麻豆區","LI":"興農里","LIN":"10鄰","STREET":"新生南路","SECT":" ","MAREA":" ","LANE":"１１４巷","ALLEY":" ","HOUSE_NO":"９１號","E_COORD97":172262.85000000001,"N_COORD97":2564646.5800000001,"ADDRESS":"新生南路１１４巷９１號","OBJECTID":375945},"geometry":{"x":172262.85000000056,"y":2564646.5800000001}},{"attributes":{"ID":375956,"DIS_CODE":0,"TOWNNAME":"麻豆區","LI":"興農里","LIN":"10鄰","STREET":"新生南路","SECT":" ","MAREA":" ","LANE":"１１４巷","ALLEY":" ","HOUSE_NO":"９３號","E_COORD97":172262.79999999999,"N_COORD97":2564651.5800000001,"ADDRESS":"新生南路１１４巷９３號","OBJECTID":375946},"geometry":{"x":172262.80000000075,"y":2564651.5800000019}},{"attributes":{"ID":375957,"DIS_CODE":0,"TOWNNAME":"麻豆區","LI":"新建里","LIN":"10鄰","STREET":"新生南路","SECT":" ","MAREA":" ","LANE":"１４巷","ALLEY":" ","HOUSE_NO":"６號","E_COORD97":172275.37,"N_COORD97":2564918.4399999999,"ADDRESS":"新生南路１４巷６號","OBJECTID":375947},"geometry":{"x":172275.37000000011,"y":2564918.4399999995}},{"attributes":{"ID":375958,"DIS_CODE":0,"TOWNNAME":"麻豆區","LI":"興農里","LIN":"10鄰","STREET":"新生南路","SECT":" ","MAREA":" ","LANE":"１７６巷","ALLEY":" ","HOUSE_NO":"１６號","E_COORD97":172276.54000000001,"N_COORD97":2564560.8799999999,"ADDRESS":"新生南路１７６巷１６號","OBJECTID":375948},"geometry":{"x":172276.5400000019,"y":2564560.8800000008}},{"attributes":{"ID":375959,"DIS_CODE":0,"TOWNNAME":"麻豆區","LI":"興農里","LIN":"10鄰","STREET":"新生南路","SECT":" ","MAREA":" ","LANE":"１７６巷","ALLEY":" ","HOUSE_NO":"１８號","E_COORD97":172276.95999999999,"N_COORD97":2564570.3900000001,"ADDRESS":"新生南路１７６巷１８號","OBJECTID":375949},"geometry":{"x":172276.96000000183,"y":2564570.3900000006}},{"attributes":{"ID":375960,"DIS_CODE":0,"TOWNNAME":"麻豆區","LI":"興農里","LIN":"10鄰","STREET":"新生南路","SECT":" ","MAREA":" ","LANE":"１７６巷","ALLEY":" ","HOUSE_NO":"２０號","E_COORD97":172262.81,"N_COORD97":2564568.9300000002,"ADDRESS":"新生南路１７６巷２０號","OBJECTID":375950},"geometry":{"x":172262.81000000052,"y":2564568.9299999997}},{"attributes":{"ID":375961,"DIS_CODE":0,"TOWNNAME":"麻豆區","LI":"興農里","LIN":"10鄰","STREET":"新生南路","SECT":" ","MAREA":" ","LANE":"１７６巷","ALLEY":" ","HOUSE_NO":"２２號","E_COORD97":172262.81,"N_COORD97":2564561.77,"ADDRESS":"新生南路１７６巷２２號","OBJECTID":375951},"geometry":{"x":172262.81000000052,"y":2564561.7700000014}},{"attributes":{"ID":375962,"DIS_CODE":0,"TOWNNAME":"麻豆區","LI":"興農里","LIN":"10鄰","STREET":"新生南路","SECT":" ","MAREA":" ","LANE":"１７６巷","ALLEY":" ","HOUSE_NO":"２號","E_COORD97":172276.56,"N_COORD97":2564532.8900000001,"ADDRESS":"新生南路１７６巷２號","OBJECTID":375952},"geometry":{"x":172276.56000000052,"y":2564532.8900000006}},{"attributes":{"ID":375963,"DIS_CODE":0,"TOWNNAME":"麻豆區","LI":"興農里","LIN":"10鄰","STREET":"新生南路","SECT":" ","MAREA":" ","LANE":"１７６巷","ALLEY":" ","HOUSE_NO":"３２號","E_COORD97":172261.01000000001,"N_COORD97":2564539.21,"ADDRESS":"新生南路１７６巷３２號","OBJECTID":375953},"geometry":{"x":172261.00999999885,"y":2564539.2100000046}},{"attributes":{"ID":375964,"DIS_CODE":0,"TOWNNAME":"麻豆區","LI":"興農里","LIN":"10鄰","STREET":"新生南路","SECT":" ","MAREA":" ","LANE":"１７６巷","ALLEY":" ","HOUSE_NO":"３４號","E_COORD97":172260.76999999999,"N_COORD97":2564534.5699999998,"ADDRESS":"新生南路１７６巷３４號","OBJECTID":375954},"geometry":{"x":172260.77000000142,"y":2564534.5700000003}},{"attributes":{"ID":375965,"DIS_CODE":0,"TOWNNAME":"麻豆區","LI":"興農里","LIN":"10鄰","STREET":"新生南路","SECT":" ","MAREA":" ","LANE":"１７６巷","ALLEY":" ","HOUSE_NO":"６號","E_COORD97":172276.88,"N_COORD97":2564536.8599999999,"ADDRESS":"新生南路１７６巷６號","OBJECTID":375955},"geometry":{"x":172276.87999999989,"y":2564536.8600000013}},{"attributes":{"ID":375966,"DIS_CODE":0,"TOWNNAME":"麻豆區","LI":"新建里","LIN":"10鄰","STREET":"新生南路","SECT":" ","MAREA":" ","LANE":"２２巷","ALLEY":" ","HOUSE_NO":"１１號","E_COORD97":172243.12,"N_COORD97":2564849.8799999999,"ADDRESS":"新生南路２２巷１１號","OBJECTID":375956},"geometry":{"x":172243.12000000011,"y":2564849.879999999}},{"attributes":{"ID":375967,"DIS_CODE":0,"TOWNNAME":"麻豆區","LI":"新建里","LIN":"10鄰","STREET":"新生南路","SECT":" ","MAREA":" ","LANE":"２２巷","ALLEY":" ","HOUSE_NO":"１９號","E_COORD97":172250.54999999999,"N_COORD97":2564868.6499999999,"ADDRESS":"新生南路２２巷１９號","OBJECTID":375957},"geometry":{"x":172250.54999999981,"y":2564868.6500000022}},{"attributes":{"ID":375968,"DIS_CODE":0,"TOWNNAME":"麻豆區","LI":"新建里","LIN":"10鄰","STREET":"新生南路","SECT":" ","MAREA":" ","LANE":"２２巷","ALLEY":" ","HOUSE_NO":"２１號","E_COORD97":172258.42000000001,"N_COORD97":2564880.2000000002,"ADDRESS":"新生南路２２巷２１號","OBJECTID":375958},"geometry":{"x":172258.41999999899,"y":2564880.2000000011}},{"attributes":{"ID":375969,"DIS_CODE":0,"TOWNNAME":"麻豆區","LI":"新建里","LIN":"10鄰","STREET":"新生南路","SECT":" ","MAREA":" ","LANE":"２２巷","ALLEY":" ","HOUSE_NO":"２３號","E_COORD97":172252.67999999999,"N_COORD97":2564880.1200000001,"ADDRESS":"新生南路２２巷２３號","OBJECTID":375959},"geometry":{"x":172252.6799999997,"y":2564880.1200000029}},{"attributes":{"ID":375970,"DIS_CODE":0,"TOWNNAME":"麻豆區","LI":"新建里","LIN":"10鄰","STREET":"新生南路","SECT":" ","MAREA":" ","LANE":"２２巷","ALLEY":" ","HOUSE_NO":"２５號","E_COORD97":172246.66,"N_COORD97":2564879.9100000001,"ADDRESS":"新生南路２２巷２５號","OBJECTID":375960},"geometry":{"x":172246.66000000015,"y":2564879.910000002}},{"attributes":{"ID":375971,"DIS_CODE":0,"TOWNNAME":"麻豆區","LI":"新建里","LIN":"10鄰","STREET":"新生南路","SECT":" ","MAREA":" ","LANE":"２２巷","ALLEY":" ","HOUSE_NO":"２７號","E_COORD97":172240.53,"N_COORD97":2564878.4399999999,"ADDRESS":"新生南路２２巷２７號","OBJECTID":375961},"geometry":{"x":172240.53000000026,"y":2564878.4400000032}},{"attributes":{"ID":375972,"DIS_CODE":0,"TOWNNAME":"麻豆區","LI":"新建里","LIN":"10鄰","STREET":"新生南路","SECT":" ","MAREA":" ","LANE":"２２巷","ALLEY":" ","HOUSE_NO":"２９號","E_COORD97":172236.22,"N_COORD97":2564878.6200000001,"ADDRESS":"新生南路２２巷２９號","OBJECTID":375962},"geometry":{"x":172236.22000000067,"y":2564878.6200000048}},{"attributes":{"ID":375973,"DIS_CODE":0,"TOWNNAME":"麻豆區","LI":"新建里","LIN":"10鄰","STREET":"新生南路","SECT":" ","MAREA":" ","LANE":"２２巷","ALLEY":" ","HOUSE_NO":"３１號","E_COORD97":172231.10000000001,"N_COORD97":2564878.4300000002,"ADDRESS":"新生南路２２巷３１號","OBJECTID":375963},"geometry":{"x":172231.09999999963,"y":2564878.4299999978}},{"attributes":{"ID":375974,"DIS_CODE":0,"TOWNNAME":"麻豆區","LI":"新建里","LIN":"10鄰","STREET":"新生南路","SECT":" ","MAREA":" ","LANE":"２２巷","ALLEY":" ","HOUSE_NO":"３３號","E_COORD97":172226.32999999999,"N_COORD97":2564877.1800000002,"ADDRESS":"新生南路２２巷３３號","OBJECTID":375964},"geometry":{"x":172226.33000000007,"y":2564877.1800000034}},{"attributes":{"ID":375975,"DIS_CODE":0,"TOWNNAME":"麻豆區","LI":"新建里","LIN":"10鄰","STREET":"新生南路","SECT":" ","MAREA":" ","LANE":"２２巷","ALLEY":" ","HOUSE_NO":"５５號","E_COORD97":172212.42999999999,"N_COORD97":2564847.2599999998,"ADDRESS":"新生南路２２巷５５號","OBJECTID":375965},"geometry":{"x":172212.43000000156,"y":2564847.2600000016}},{"attributes":{"ID":375976,"DIS_CODE":0,"TOWNNAME":"麻豆區","LI":"新建里","LIN":"10鄰","STREET":"新生南路","SECT":" ","MAREA":" ","LANE":"２２巷","ALLEY":" ","HOUSE_NO":"５號","E_COORD97":172243.32000000001,"N_COORD97":2564834.6899999999,"ADDRESS":"新生南路２２巷５號","OBJECTID":375966},"geometry":{"x":172243.32000000123,"y":2564834.6899999995}},{"attributes":{"ID":375977,"DIS_CODE":0,"TOWNNAME":"麻豆區","LI":"新建里","LIN":"10鄰","STREET":"新生南路","SECT":" ","MAREA":" ","LANE":"２２巷","ALLEY":" ","HOUSE_NO":"７號","E_COORD97":172243.26000000001,"N_COORD97":2564839.75,"ADDRESS":"新生南路２２巷７號","OBJECTID":375967},"geometry":{"x":172243.26000000071,"y":2564839.7500000037}},{"attributes":{"ID":375978,"DIS_CODE":0,"TOWNNAME":"麻豆區","LI":"新建里","LIN":"10鄰","STREET":"新生南路","SECT":" ","MAREA":" ","LANE":"２２巷","ALLEY":" ","HOUSE_NO":"９號","E_COORD97":172243.19,"N_COORD97":2564844.8199999998,"ADDRESS":"新生南路２２巷９號","OBJECTID":375968},"geometry":{"x":172243.19000000041,"y":2564844.8200000003}},{"attributes":{"ID":375979,"DIS_CODE":0,"TOWNNAME":"麻豆區","LI":"新建里","LIN":"10鄰","STREET":"新生南路","SECT":" ","MAREA":" ","LANE":"４６巷","ALLEY":" ","HOUSE_NO":"７號","E_COORD97":172247.14999999999,"N_COORD97":2564809.7799999998,"ADDRESS":"新生南路４６巷７號","OBJECTID":375969},"geometry":{"x":172247.14999999944,"y":2564809.7799999993}},{"attributes":{"ID":375980,"DIS_CODE":0,"TOWNNAME":"麻豆區","LI":"新建里","LIN":"10鄰","STREET":"新生南路","SECT":" ","MAREA":" ","LANE":"６０巷","ALLEY":" ","HOUSE_NO":"１０號","E_COORD97":172264.56,"N_COORD97":2564791.6899999999,"ADDRESS":"新生南路６０巷１０號","OBJECTID":375970},"geometry":{"x":172264.56000000052,"y":2564791.6899999976}},{"attributes":{"ID":375981,"DIS_CODE":0,"TOWNNAME":"麻豆區","LI":"新建里","LIN":"10鄰","STREET":"新生南路","SECT":" ","MAREA":" ","LANE":"６０巷","ALLEY":" ","HOUSE_NO":"１２號之１","E_COORD97":172246.29000000001,"N_COORD97":2564793.3799999999,"ADDRESS":"新生南路６０巷１２號之１","OBJECTID":375971},"geometry":{"x":172246.29000000097,"y":2564793.3800000027}},{"attributes":{"ID":375982,"DIS_CODE":0,"TOWNNAME":"麻豆區","LI":"新建里","LIN":"10鄰","STREET":"新生南路","SECT":" ","MAREA":" ","LANE":"６０巷","ALLEY":" ","HOUSE_NO":"１２號","E_COORD97":172247.51000000001,"N_COORD97":2564789.2799999998,"ADDRESS":"新生南路６０巷１２號","OBJECTID":375972},"geometry":{"x":172247.51000000164,"y":2564789.2800000012}},{"attributes":{"ID":375983,"DIS_CODE":0,"TOWNNAME":"麻豆區","LI":"新建里","LIN":"10鄰","STREET":"新生南路","SECT":" ","MAREA":" ","LANE":"６０巷","ALLEY":" ","HOUSE_NO":"２號","E_COORD97":172278.64000000001,"N_COORD97":2564791.98,"ADDRESS":"新生南路６０巷２號","OBJECTID":375973},"geometry":{"x":172278.63999999873,"y":2564791.9800000023}},{"attributes":{"ID":375984,"DIS_CODE":0,"TOWNNAME":"麻豆區","LI":"新建里","LIN":"10鄰","STREET":"新生南路","SECT":" ","MAREA":" ","LANE":"６０巷","ALLEY":" ","HOUSE_NO":"６號","E_COORD97":172273.94,"N_COORD97":2564791.8900000001,"ADDRESS":"新生南路６０巷６號","OBJECTID":375974},"geometry":{"x":172273.94000000041,"y":2564791.8900000043}},{"attributes":{"ID":375985,"DIS_CODE":0,"TOWNNAME":"麻豆區","LI":"新建里","LIN":"10鄰","STREET":"新生南路","SECT":" ","MAREA":" ","LANE":"６０巷","ALLEY":" ","HOUSE_NO":"８號","E_COORD97":172269.25,"N_COORD97":2564791.79,"ADDRESS":"新生南路６０巷８號","OBJECTID":375975},"geometry":{"x":172269.25,"y":2564791.790000001}},{"attributes":{"ID":375986,"DIS_CODE":0,"TOWNNAME":"歸仁區","LI":"西埔里","LIN":"10鄰","STREET":"西埔一街","SECT":" ","MAREA":" ","LANE":"３００巷","ALLEY":" ","HOUSE_NO":"５６號","E_COORD97":177260.59,"N_COORD97":2544763.4199999999,"ADDRESS":"西埔一街３００巷５６號","OBJECTID":375976},"geometry":{"x":177260.59000000078,"y":2544763.4199999999}},{"attributes":{"ID":375987,"DIS_CODE":0,"TOWNNAME":"歸仁區","LI":"南保里","LIN":"10鄰","STREET":"文化十街","SECT":" ","MAREA":" ","LANE":"２８巷","ALLEY":" ","HOUSE_NO":"１０號","E_COORD97":176714.09,"N_COORD97":2541322.3300000001,"ADDRESS":"文化十街２８巷１０號","OBJECTID":375977},"geometry":{"x":176714.09000000078,"y":2541322.3300000001}},{"attributes":{"ID":375988,"DIS_CODE":0,"TOWNNAME":"歸仁區","LI":"西埔里","LIN":"10鄰","STREET":"西埔一街","SECT":" ","MAREA":" ","LANE":"３００巷","ALLEY":" ","HOUSE_NO":"６２號","E_COORD97":177273.89000000001,"N_COORD97":2544766.4199999999,"ADDRESS":"西埔一街３００巷６２號","OBJECTID":375978},"geometry":{"x":177273.88999999966,"y":2544766.4199999999}},{"attributes":{"ID":375989,"DIS_CODE":0,"TOWNNAME":"歸仁區","LI":"西埔里","LIN":"10鄰","STREET":"西埔一街","SECT":" ","MAREA":" ","LANE":"３００巷","ALLEY":" ","HOUSE_NO":"２０號","E_COORD97":177196.73999999999,"N_COORD97":2544776.9500000002,"ADDRESS":"西埔一街３００巷２０號","OBJECTID":375979},"geometry":{"x":177196.74000000115,"y":2544776.9500000011}},{"attributes":{"ID":375990,"DIS_CODE":0,"TOWNNAME":"歸仁區","LI":"許厝里","LIN":"10鄰","STREET":"公園路","SECT":" ","MAREA":" ","LANE":"３９巷","ALLEY":" ","HOUSE_NO":"６號","E_COORD97":178166.76999999999,"N_COORD97":2540522.1000000001,"ADDRESS":"公園路３９巷６號","OBJECTID":375980},"geometry":{"x":178166.76999999862,"y":2540522.1000000015}},{"attributes":{"ID":375991,"DIS_CODE":0,"TOWNNAME":"歸仁區","LI":"看東里","LIN":"10鄰","STREET":"忠孝南路","SECT":" ","MAREA":" ","LANE":"１３９巷","ALLEY":" ","HOUSE_NO":"２８號","E_COORD97":178604.47,"N_COORD97":2540264.6800000002,"ADDRESS":"忠孝南路１３９巷２８號","OBJECTID":375981},"geometry":{"x":178604.46999999974,"y":2540264.6799999997}},{"attributes":{"ID":375992,"DIS_CODE":0,"TOWNNAME":"歸仁區","LI":"大廟里","LIN":"10鄰","STREET":"保大路","SECT":"三段","MAREA":" ","LANE":"２０３巷","ALLEY":" ","HOUSE_NO":"７號","E_COORD97":175894.63,"N_COORD97":2544098.25,"ADDRESS":"保大路三段２０３巷７號","OBJECTID":375982},"geometry":{"x":175894.62999999989,"y":2544098.2500000019}},{"attributes":{"ID":375993,"DIS_CODE":0,"TOWNNAME":"歸仁區","LI":"歸南里","LIN":"10鄰","STREET":"民生九街","SECT":" ","MAREA":" ","LANE":"１３３巷","ALLEY":" ","HOUSE_NO":"６０號","E_COORD97":176314.41,"N_COORD97":2540007.25,"ADDRESS":"民生九街１３３巷６０號","OBJECTID":375983},"geometry":{"x":176314.41000000108,"y":2540007.25}},{"attributes":{"ID":375994,"DIS_CODE":0,"TOWNNAME":"歸仁區","LI":"歸南里","LIN":"10鄰","STREET":"民生九街","SECT":" ","MAREA":" ","LANE":"１６５巷","ALLEY":" ","HOUSE_NO":"５號","E_COORD97":176254.56,"N_COORD97":2539976.25,"ADDRESS":"民生九街１６５巷５號","OBJECTID":375984},"geometry":{"x":176254.56000000145,"y":2539976.25}},{"attributes":{"ID":375995,"DIS_CODE":0,"TOWNNAME":"歸仁區","LI":"歸南里","LIN":"10鄰","STREET":"民生九街","SECT":" ","MAREA":" ","LANE":"１３３巷","ALLEY":" ","HOUSE_NO":"１５號","E_COORD97":176246.01000000001,"N_COORD97":2540070.25,"ADDRESS":"民生九街１３３巷１５號","OBJECTID":375985},"geometry":{"x":176246.00999999978,"y":2540070.2500000019}},{"attributes":{"ID":375996,"DIS_CODE":0,"TOWNNAME":"歸仁區","LI":"新厝里","LIN":"10鄰","STREET":"中正三街","SECT":" ","MAREA":" ","LANE":"５６巷","ALLEY":" ","HOUSE_NO":"５１號","E_COORD97":177710.60999999999,"N_COORD97":2540461.5,"ADDRESS":"中正三街５６巷５１號","OBJECTID":375986},"geometry":{"x":177710.61000000034,"y":2540461.5000000019}},{"attributes":{"ID":375997,"DIS_CODE":0,"TOWNNAME":"歸仁區","LI":"新厝里","LIN":"10鄰","STREET":"中正三街","SECT":" ","MAREA":" ","LANE":"５６巷","ALLEY":" ","HOUSE_NO":"２６號","E_COORD97":177729.76000000001,"N_COORD97":2540502.25,"ADDRESS":"中正三街５６巷２６號","OBJECTID":375987},"geometry":{"x":177729.76000000164,"y":2540502.25}},{"attributes":{"ID":375998,"DIS_CODE":0,"TOWNNAME":"歸仁區","LI":"大廟里","LIN":"10鄰","STREET":"保大路","SECT":"三段","MAREA":" ","LANE":"２０３巷","ALLEY":" ","HOUSE_NO":"１號","E_COORD97":175907.13,"N_COORD97":2544122.25,"ADDRESS":"保大路三段２０３巷１號","OBJECTID":375988},"geometry":{"x":175907.13000000082,"y":2544122.2500000019}},{"attributes":{"ID":375999,"DIS_CODE":0,"TOWNNAME":"歸仁區","LI":"大廟里","LIN":"10鄰","STREET":"保大路","SECT":"三段","MAREA":" ","LANE":"２０３巷","ALLEY":" ","HOUSE_NO":"５號","E_COORD97":175898.82999999999,"N_COORD97":2544105.25,"ADDRESS":"保大路三段２０３巷５號","OBJECTID":375989},"geometry":{"x":175898.83000000194,"y":2544105.2500000019}},{"attributes":{"ID":376000,"DIS_CODE":0,"TOWNNAME":"歸仁區","LI":"大廟里","LIN":"10鄰","STREET":"保大路","SECT":"三段","MAREA":" ","LANE":"２０３巷","ALLEY":" ","HOUSE_NO":"３號","E_COORD97":175902.92999999999,"N_COORD97":2544114.25,"ADDRESS":"保大路三段２０３巷３號","OBJECTID":375990},"geometry":{"x":175902.93000000156,"y":2544114.2500000037}},{"attributes":{"ID":376001,"DIS_CODE":0,"TOWNNAME":"新營區","LI":"南紙里","LIN":"10鄰","STREET":"南紙街","SECT":" ","MAREA":" ","LANE":"８２巷","ALLEY":" ","HOUSE_NO":"８號","E_COORD97":177739.53,"N_COORD97":2577597.9300000002,"ADDRESS":"南紙街８２巷８號","OBJECTID":375991},"geometry":{"x":177739.53000000026,"y":2577597.9299999997}},{"attributes":{"ID":376002,"DIS_CODE":0,"TOWNNAME":"歸仁區","LI":"媽廟里","LIN":"10鄰","STREET":"中正北路","SECT":"三段","MAREA":" ","LANE":"２０５巷","ALLEY":" ","HOUSE_NO":"６號","E_COORD97":177581.85999999999,"N_COORD97":2543866.7200000002,"ADDRESS":"中正北路三段２０５巷６號","OBJECTID":375992},"geometry":{"x":177581.86000000034,"y":2543866.7200000007}},{"attributes":{"ID":376003,"DIS_CODE":0,"TOWNNAME":"歸仁區","LI":"看東里","LIN":"10鄰","STREET":"忠孝南路","SECT":" ","MAREA":" ","LANE":"１３９巷","ALLEY":" ","HOUSE_NO":"２９號","E_COORD97":178618.97,"N_COORD97":2540279.6800000002,"ADDRESS":"忠孝南路１３９巷２９號","OBJECTID":375993},"geometry":{"x":178618.97000000067,"y":2540279.6800000034}},{"attributes":{"ID":376004,"DIS_CODE":0,"TOWNNAME":"歸仁區","LI":"看東里","LIN":"10鄰","STREET":"忠孝南路","SECT":" ","MAREA":" ","LANE":"１３９巷","ALLEY":" ","HOUSE_NO":"２４號","E_COORD97":178602.57000000001,"N_COORD97":2540279.6800000002,"ADDRESS":"忠孝南路１３９巷２４號","OBJECTID":375994},"geometry":{"x":178602.5700000003,"y":2540279.6800000034}},{"attributes":{"ID":376005,"DIS_CODE":0,"TOWNNAME":"新營區","LI":"南紙里","LIN":"10鄰","STREET":"南紙街","SECT":" ","MAREA":" ","LANE":"５４巷","ALLEY":" ","HOUSE_NO":"３號","E_COORD97":177782.87,"N_COORD97":2577671.9100000001,"ADDRESS":"南紙街５４巷３號","OBJECTID":375995},"geometry":{"x":177782.87000000011,"y":2577671.910000002}},{"attributes":{"ID":376006,"DIS_CODE":0,"TOWNNAME":"歸仁區","LI":"西埔里","LIN":"10鄰","STREET":"西埔一街","SECT":" ","MAREA":" ","LANE":"３００巷","ALLEY":" ","HOUSE_NO":"３４號","E_COORD97":177230.54000000001,"N_COORD97":2544775.9500000002,"ADDRESS":"西埔一街３００巷３４號","OBJECTID":375996},"geometry":{"x":177230.54000000097,"y":2544775.9499999993}},{"attributes":{"ID":376007,"DIS_CODE":0,"TOWNNAME":"歸仁區","LI":"西埔里","LIN":"10鄰","STREET":"西埔一街","SECT":" ","MAREA":" ","LANE":"３００巷","ALLEY":" ","HOUSE_NO":"２６號","E_COORD97":177210.14000000001,"N_COORD97":2544780.9500000002,"ADDRESS":"西埔一街３００巷２６號","OBJECTID":375997},"geometry":{"x":177210.14000000153,"y":2544780.9500000011}},{"attributes":{"ID":376008,"DIS_CODE":0,"TOWNNAME":"歸仁區","LI":"西埔里","LIN":"10鄰","STREET":"西埔一街","SECT":" ","MAREA":" ","LANE":"３００巷","ALLEY":" ","HOUSE_NO":"７８號","E_COORD97":177243.31,"N_COORD97":2544691.9700000002,"ADDRESS":"西埔一街３００巷７８號","OBJECTID":375998},"geometry":{"x":177243.31000000052,"y":2544691.9700000007}},{"attributes":{"ID":376009,"DIS_CODE":0,"TOWNNAME":"歸仁區","LI":"南保里","LIN":"10鄰","STREET":"文化十街","SECT":" ","MAREA":" ","LANE":"２８巷","ALLEY":" ","HOUSE_NO":"６號","E_COORD97":176705.64000000001,"N_COORD97":2541324.3300000001,"ADDRESS":"文化十街２８巷６號","OBJECTID":375999},"geometry":{"x":176705.6400000006,"y":2541324.3300000019}},{"attributes":{"ID":376010,"DIS_CODE":0,"TOWNNAME":"歸仁區","LI":"西埔里","LIN":"10鄰","STREET":"西埔一街","SECT":" ","MAREA":" ","LANE":"３００巷","ALLEY":" ","HOUSE_NO":"８１號","E_COORD97":177300.70999999999,"N_COORD97":2544705.9700000002,"ADDRESS":"西埔一街３００巷８１號","OBJECTID":376000},"geometry":{"x":177300.70999999996,"y":2544705.9700000007}}]}