{"displayFieldName":"TOWNNAME","fieldAliases":{"ID":"ID","DIS_CODE":"DIS_CODE","TOWNNAME":"TOWNNAME","LI":"LI","LIN":"LIN","STREET":"STREET","SECT":"SECT","MAREA":"MAREA","LANE":"LANE","ALLEY":"ALLEY","HOUSE_NO":"HOUSE_NO","E_COORD97":"E_COORD97","N_COORD97":"N_COORD97","ADDRESS":"ADDRESS","OBJECTID":"OBJECTID"},"geometryType":"esriGeometryPoint","spatialReference":{"wkid":102443,"latestWkid":3826},"fields":[{"name":"ID","type":"esriFieldTypeDouble","alias":"ID"},{"name":"DIS_CODE","type":"esriFieldTypeInteger","alias":"DIS_CODE"},{"name":"TOWNNAME","type":"esriFieldTypeString","alias":"TOWNNAME","length":8},{"name":"LI","type":"esriFieldTypeString","alias":"LI","length":8},{"name":"LIN","type":"esriFieldTypeString","alias":"LIN","length":12},{"name":"STREET","type":"esriFieldTypeString","alias":"STREET","length":20},{"name":"SECT","type":"esriFieldTypeString","alias":"SECT","length":8},{"name":"MAREA","type":"esriFieldTypeString","alias":"MAREA","length":12},{"name":"LANE","type":"esriFieldTypeString","alias":"LANE","length":10},{"name":"ALLEY","type":"esriFieldTypeString","alias":"ALLEY","length":10},{"name":"HOUSE_NO","type":"esriFieldTypeString","alias":"HOUSE_NO","length":20},{"name":"E_COORD97","type":"esriFieldTypeDouble","alias":"E_COORD97"},{"name":"N_COORD97","type":"esriFieldTypeDouble","alias":"N_COORD97"},{"name":"ADDRESS","type":"esriFieldTypeString","alias":"ADDRESS","length":50},{"name":"OBJECTID","type":"esriFieldTypeOID","alias":"OBJECTID"}],"features":[{"attributes":{"ID":252205,"DIS_CODE":0,"TOWNNAME":"學甲區","LI":"明宜里","LIN":"11鄰","STREET":"宮西路","SECT":" ","MAREA":" ","LANE":" ","ALLEY":" ","HOUSE_NO":"２４號","E_COORD97":165957.62,"N_COORD97":2570480.73,"ADDRESS":"宮西路２４號","OBJECTID":252201},"geometry":{"x":165957.62000000011,"y":2570480.7300000004}},{"attributes":{"ID":252206,"DIS_CODE":0,"TOWNNAME":"學甲區","LI":"明宜里","LIN":"11鄰","STREET":"宮西路","SECT":" ","MAREA":" ","LANE":" ","ALLEY":" ","HOUSE_NO":"３０號","E_COORD97":165942.63,"N_COORD97":2570451.8500000001,"ADDRESS":"宮西路３０號","OBJECTID":252202},"geometry":{"x":165942.63000000082,"y":2570451.8499999996}},{"attributes":{"ID":252207,"DIS_CODE":0,"TOWNNAME":"學甲區","LI":"明宜里","LIN":"11鄰","STREET":"宮西路","SECT":" ","MAREA":" ","LANE":" ","ALLEY":" ","HOUSE_NO":"３２號","E_COORD97":165938.64000000001,"N_COORD97":2570453,"ADDRESS":"宮西路３２號","OBJECTID":252203},"geometry":{"x":165938.63999999873,"y":2570453.0000000019}},{"attributes":{"ID":252208,"DIS_CODE":0,"TOWNNAME":"學甲區","LI":"明宜里","LIN":"11鄰","STREET":"宮西路","SECT":" ","MAREA":" ","LANE":" ","ALLEY":" ","HOUSE_NO":"３４號","E_COORD97":165934.82999999999,"N_COORD97":2570453.6499999999,"ADDRESS":"宮西路３４號","OBJECTID":252204},"geometry":{"x":165934.83000000101,"y":2570453.6500000004}},{"attributes":{"ID":252209,"DIS_CODE":0,"TOWNNAME":"學甲區","LI":"豐和里","LIN":"11鄰","STREET":" ","SECT":" ","MAREA":"美豐","LANE":" ","ALLEY":" ","HOUSE_NO":"９０號之１","E_COORD97":168062.64000000001,"N_COORD97":2568663.5299999998,"ADDRESS":"美豐９０號之１","OBJECTID":252205},"geometry":{"x":168062.63999999966,"y":2568663.5299999993}},{"attributes":{"ID":252210,"DIS_CODE":0,"TOWNNAME":"學甲區","LI":"豐和里","LIN":"11鄰","STREET":" ","SECT":" ","MAREA":"美豐","LANE":" ","ALLEY":" ","HOUSE_NO":"９０號之２","E_COORD97":168063.78,"N_COORD97":2568655.8300000001,"ADDRESS":"美豐９０號之２","OBJECTID":252206},"geometry":{"x":168063.78000000026,"y":2568655.8300000001}},{"attributes":{"ID":252211,"DIS_CODE":0,"TOWNNAME":"學甲區","LI":"豐和里","LIN":"11鄰","STREET":" ","SECT":" ","MAREA":"美豐","LANE":" ","ALLEY":" ","HOUSE_NO":"９０號","E_COORD97":168062.66,"N_COORD97":2568676.71,"ADDRESS":"美豐９０號","OBJECTID":252207},"geometry":{"x":168062.66000000015,"y":2568676.7100000028}},{"attributes":{"ID":252212,"DIS_CODE":0,"TOWNNAME":"楠西區","LI":"鹿田里","LIN":"11鄰","STREET":" ","SECT":" ","MAREA":"油車","LANE":" ","ALLEY":" ","HOUSE_NO":"６１號之６","E_COORD97":197724.17999999999,"N_COORD97":2562787.2999999998,"ADDRESS":"油車６１號之６","OBJECTID":252208},"geometry":{"x":197724.1799999997,"y":2562787.3000000007}},{"attributes":{"ID":252213,"DIS_CODE":0,"TOWNNAME":"北區","LI":"長榮里","LIN":"14鄰","STREET":"長榮路","SECT":"五段","MAREA":" ","LANE":"４１巷","ALLEY":" ","HOUSE_NO":"７２號十一樓之３","E_COORD97":169847.92000000001,"N_COORD97":2545621.7200000002,"ADDRESS":"長榮路五段４１巷７２號十一樓之３","OBJECTID":252209},"geometry":{"x":169847.92000000179,"y":2545621.7200000025}},{"attributes":{"ID":252214,"DIS_CODE":0,"TOWNNAME":"北區","LI":"長榮里","LIN":"14鄰","STREET":"長榮路","SECT":"五段","MAREA":" ","LANE":"４１巷","ALLEY":" ","HOUSE_NO":"７２號十一樓之５","E_COORD97":169847.92000000001,"N_COORD97":2545621.7200000002,"ADDRESS":"長榮路五段４１巷７２號十一樓之５","OBJECTID":252210},"geometry":{"x":169847.92000000179,"y":2545621.7200000025}},{"attributes":{"ID":252215,"DIS_CODE":0,"TOWNNAME":"北區","LI":"長榮里","LIN":"14鄰","STREET":"長榮路","SECT":"五段","MAREA":" ","LANE":"４１巷","ALLEY":" ","HOUSE_NO":"７２號十二樓之１","E_COORD97":169847.92000000001,"N_COORD97":2545621.7200000002,"ADDRESS":"長榮路五段４１巷７２號十二樓之１","OBJECTID":252211},"geometry":{"x":169847.92000000179,"y":2545621.7200000025}},{"attributes":{"ID":252216,"DIS_CODE":0,"TOWNNAME":"北區","LI":"長榮里","LIN":"14鄰","STREET":"長榮路","SECT":"五段","MAREA":" ","LANE":"４１巷","ALLEY":" ","HOUSE_NO":"７２號十二樓之２","E_COORD97":169847.92000000001,"N_COORD97":2545621.7200000002,"ADDRESS":"長榮路五段４１巷７２號十二樓之２","OBJECTID":252212},"geometry":{"x":169847.92000000179,"y":2545621.7200000025}},{"attributes":{"ID":252217,"DIS_CODE":0,"TOWNNAME":"六甲區","LI":"甲南里","LIN":"14鄰","STREET":"永安街","SECT":" ","MAREA":" ","LANE":"３巷","ALLEY":" ","HOUSE_NO":"２３號","E_COORD97":183935.31,"N_COORD97":2569759.0600000001,"ADDRESS":"永安街３巷２３號","OBJECTID":252213},"geometry":{"x":183935.31000000145,"y":2569759.0600000024}},{"attributes":{"ID":252218,"DIS_CODE":0,"TOWNNAME":"北區","LI":"長榮里","LIN":"14鄰","STREET":"長榮路","SECT":"五段","MAREA":" ","LANE":"４１巷","ALLEY":" ","HOUSE_NO":"７２號十二樓之３","E_COORD97":169847.92000000001,"N_COORD97":2545621.7200000002,"ADDRESS":"長榮路五段４１巷７２號十二樓之３","OBJECTID":252214},"geometry":{"x":169847.92000000179,"y":2545621.7200000025}},{"attributes":{"ID":252219,"DIS_CODE":0,"TOWNNAME":"北區","LI":"長榮里","LIN":"14鄰","STREET":"長榮路","SECT":"五段","MAREA":" ","LANE":"４１巷","ALLEY":" ","HOUSE_NO":"７２號十二樓之５","E_COORD97":169847.92000000001,"N_COORD97":2545621.7200000002,"ADDRESS":"長榮路五段４１巷７２號十二樓之５","OBJECTID":252215},"geometry":{"x":169847.92000000179,"y":2545621.7200000025}},{"attributes":{"ID":252220,"DIS_CODE":0,"TOWNNAME":"北區","LI":"長榮里","LIN":"14鄰","STREET":"長榮路","SECT":"五段","MAREA":" ","LANE":"４１巷","ALLEY":" ","HOUSE_NO":"７２號十三樓之１","E_COORD97":169847.92000000001,"N_COORD97":2545621.7200000002,"ADDRESS":"長榮路五段４１巷７２號十三樓之１","OBJECTID":252216},"geometry":{"x":169847.92000000179,"y":2545621.7200000025}},{"attributes":{"ID":252221,"DIS_CODE":0,"TOWNNAME":"北區","LI":"長榮里","LIN":"14鄰","STREET":"長榮路","SECT":"五段","MAREA":" ","LANE":"４１巷","ALLEY":" ","HOUSE_NO":"７２號十三樓之２","E_COORD97":169847.92000000001,"N_COORD97":2545621.7200000002,"ADDRESS":"長榮路五段４１巷７２號十三樓之２","OBJECTID":252217},"geometry":{"x":169847.92000000179,"y":2545621.7200000025}},{"attributes":{"ID":252222,"DIS_CODE":0,"TOWNNAME":"北區","LI":"長榮里","LIN":"14鄰","STREET":"長榮路","SECT":"五段","MAREA":" ","LANE":"４１巷","ALLEY":" ","HOUSE_NO":"７２號十三樓之３","E_COORD97":169847.92000000001,"N_COORD97":2545621.7200000002,"ADDRESS":"長榮路五段４１巷７２號十三樓之３","OBJECTID":252218},"geometry":{"x":169847.92000000179,"y":2545621.7200000025}},{"attributes":{"ID":252223,"DIS_CODE":0,"TOWNNAME":"北區","LI":"長榮里","LIN":"14鄰","STREET":"長榮路","SECT":"五段","MAREA":" ","LANE":"４１巷","ALLEY":" ","HOUSE_NO":"７２號十三樓之５","E_COORD97":169847.92000000001,"N_COORD97":2545621.7200000002,"ADDRESS":"長榮路五段４１巷７２號十三樓之５","OBJECTID":252219},"geometry":{"x":169847.92000000179,"y":2545621.7200000025}},{"attributes":{"ID":252224,"DIS_CODE":0,"TOWNNAME":"北區","LI":"長榮里","LIN":"14鄰","STREET":"長榮路","SECT":"五段","MAREA":" ","LANE":"４１巷","ALLEY":" ","HOUSE_NO":"７２號十四樓之１","E_COORD97":169847.92000000001,"N_COORD97":2545621.7200000002,"ADDRESS":"長榮路五段４１巷７２號十四樓之１","OBJECTID":252220},"geometry":{"x":169847.92000000179,"y":2545621.7200000025}},{"attributes":{"ID":252225,"DIS_CODE":0,"TOWNNAME":"北區","LI":"長榮里","LIN":"14鄰","STREET":"長榮路","SECT":"五段","MAREA":" ","LANE":"４１巷","ALLEY":" ","HOUSE_NO":"７２號十四樓之２","E_COORD97":169847.92000000001,"N_COORD97":2545621.7200000002,"ADDRESS":"長榮路五段４１巷７２號十四樓之２","OBJECTID":252221},"geometry":{"x":169847.92000000179,"y":2545621.7200000025}},{"attributes":{"ID":252226,"DIS_CODE":0,"TOWNNAME":"北區","LI":"長榮里","LIN":"14鄰","STREET":"長榮路","SECT":"五段","MAREA":" ","LANE":"４１巷","ALLEY":" ","HOUSE_NO":"７２號十四樓之３","E_COORD97":169847.92000000001,"N_COORD97":2545621.7200000002,"ADDRESS":"長榮路五段４１巷７２號十四樓之３","OBJECTID":252222},"geometry":{"x":169847.92000000179,"y":2545621.7200000025}},{"attributes":{"ID":252227,"DIS_CODE":0,"TOWNNAME":"北區","LI":"長榮里","LIN":"14鄰","STREET":"長榮路","SECT":"五段","MAREA":" ","LANE":"４１巷","ALLEY":" ","HOUSE_NO":"７２號十四樓之５","E_COORD97":169847.92000000001,"N_COORD97":2545621.7200000002,"ADDRESS":"長榮路五段４１巷７２號十四樓之５","OBJECTID":252223},"geometry":{"x":169847.92000000179,"y":2545621.7200000025}},{"attributes":{"ID":252228,"DIS_CODE":0,"TOWNNAME":"北區","LI":"大山里","LIN":"14鄰","STREET":"旭日街","SECT":" ","MAREA":" ","LANE":"１４３巷","ALLEY":" ","HOUSE_NO":"２０號二樓之５","E_COORD97":169377.10000000001,"N_COORD97":2545742.1200000001,"ADDRESS":"旭日街１４３巷２０號二樓之５","OBJECTID":252224},"geometry":{"x":169377.10000000056,"y":2545742.120000001}},{"attributes":{"ID":252229,"DIS_CODE":0,"TOWNNAME":"北區","LI":"大山里","LIN":"14鄰","STREET":"旭日街","SECT":" ","MAREA":" ","LANE":"１４３巷","ALLEY":" ","HOUSE_NO":"２０號二樓之６","E_COORD97":169377.10000000001,"N_COORD97":2545742.1200000001,"ADDRESS":"旭日街１４３巷２０號二樓之６","OBJECTID":252225},"geometry":{"x":169377.10000000056,"y":2545742.120000001}},{"attributes":{"ID":252230,"DIS_CODE":0,"TOWNNAME":"北區","LI":"大山里","LIN":"14鄰","STREET":"旭日街","SECT":" ","MAREA":" ","LANE":"１４３巷","ALLEY":" ","HOUSE_NO":"２０號三樓之１","E_COORD97":169377.10000000001,"N_COORD97":2545742.1200000001,"ADDRESS":"旭日街１４３巷２０號三樓之１","OBJECTID":252226},"geometry":{"x":169377.10000000056,"y":2545742.120000001}},{"attributes":{"ID":252231,"DIS_CODE":0,"TOWNNAME":"北區","LI":"大山里","LIN":"14鄰","STREET":"旭日街","SECT":" ","MAREA":" ","LANE":"１４３巷","ALLEY":" ","HOUSE_NO":"２０號三樓之２","E_COORD97":169377.10000000001,"N_COORD97":2545742.1200000001,"ADDRESS":"旭日街１４３巷２０號三樓之２","OBJECTID":252227},"geometry":{"x":169377.10000000056,"y":2545742.120000001}},{"attributes":{"ID":252232,"DIS_CODE":0,"TOWNNAME":"北區","LI":"大山里","LIN":"14鄰","STREET":"旭日街","SECT":" ","MAREA":" ","LANE":"１４３巷","ALLEY":" ","HOUSE_NO":"２０號三樓之３","E_COORD97":169377.10000000001,"N_COORD97":2545742.1200000001,"ADDRESS":"旭日街１４３巷２０號三樓之３","OBJECTID":252228},"geometry":{"x":169377.10000000056,"y":2545742.120000001}},{"attributes":{"ID":252233,"DIS_CODE":0,"TOWNNAME":"北區","LI":"大山里","LIN":"14鄰","STREET":"旭日街","SECT":" ","MAREA":" ","LANE":"１４３巷","ALLEY":" ","HOUSE_NO":"２０號三樓之４","E_COORD97":169377.10000000001,"N_COORD97":2545742.1200000001,"ADDRESS":"旭日街１４３巷２０號三樓之４","OBJECTID":252229},"geometry":{"x":169377.10000000056,"y":2545742.120000001}},{"attributes":{"ID":252234,"DIS_CODE":0,"TOWNNAME":"北區","LI":"大山里","LIN":"14鄰","STREET":"旭日街","SECT":" ","MAREA":" ","LANE":"１４３巷","ALLEY":" ","HOUSE_NO":"２０號四樓之１","E_COORD97":169377.10000000001,"N_COORD97":2545742.1200000001,"ADDRESS":"旭日街１４３巷２０號四樓之１","OBJECTID":252230},"geometry":{"x":169377.10000000056,"y":2545742.120000001}},{"attributes":{"ID":252235,"DIS_CODE":0,"TOWNNAME":"北區","LI":"大山里","LIN":"14鄰","STREET":"旭日街","SECT":" ","MAREA":" ","LANE":"１４３巷","ALLEY":" ","HOUSE_NO":"２０號四樓之２","E_COORD97":169377.10000000001,"N_COORD97":2545742.1200000001,"ADDRESS":"旭日街１４３巷２０號四樓之２","OBJECTID":252231},"geometry":{"x":169377.10000000056,"y":2545742.120000001}},{"attributes":{"ID":252236,"DIS_CODE":0,"TOWNNAME":"歸仁區","LI":"歸南里","LIN":"1鄰","STREET":"民權南路","SECT":" ","MAREA":" ","LANE":"１９６巷","ALLEY":" ","HOUSE_NO":"５號","E_COORD97":176927.10999999999,"N_COORD97":2540348.5,"ADDRESS":"民權南路１９６巷５號","OBJECTID":252232},"geometry":{"x":176927.11000000034,"y":2540348.5}},{"attributes":{"ID":252237,"DIS_CODE":0,"TOWNNAME":"歸仁區","LI":"新厝里","LIN":"12鄰","STREET":"中正南路","SECT":"一段","MAREA":" ","LANE":"７３巷","ALLEY":" ","HOUSE_NO":"５號","E_COORD97":177618.70000000001,"N_COORD97":2540540.5899999999,"ADDRESS":"中正南路一段７３巷５號","OBJECTID":252233},"geometry":{"x":177618.70000000205,"y":2540540.5899999999}},{"attributes":{"ID":252238,"DIS_CODE":0,"TOWNNAME":"歸仁區","LI":"文化里","LIN":"5鄰","STREET":"民權一街","SECT":" ","MAREA":" ","LANE":"３８巷","ALLEY":" ","HOUSE_NO":"１號","E_COORD97":177303.45000000001,"N_COORD97":2541327.3300000001,"ADDRESS":"民權一街３８巷１號","OBJECTID":252234},"geometry":{"x":177303.45000000205,"y":2541327.3300000019}},{"attributes":{"ID":252239,"DIS_CODE":0,"TOWNNAME":"歸仁區","LI":"大廟里","LIN":"4鄰","STREET":"和順路","SECT":"二段","MAREA":" ","LANE":"８７巷","ALLEY":" ","HOUSE_NO":"９０號","E_COORD97":176190.48000000001,"N_COORD97":2543471.9500000002,"ADDRESS":"和順路二段８７巷９０號","OBJECTID":252235},"geometry":{"x":176190.48000000138,"y":2543471.9500000011}},{"attributes":{"ID":252240,"DIS_CODE":0,"TOWNNAME":"安南區","LI":"長安里","LIN":"14鄰","STREET":"長溪路","SECT":"三段","MAREA":" ","LANE":"３８０巷","ALLEY":" ","HOUSE_NO":"１０７號","E_COORD97":167975.42999999999,"N_COORD97":2552190,"ADDRESS":"長溪路三段３８０巷１０７號","OBJECTID":252236},"geometry":{"x":167975.4299999997,"y":2552190}},{"attributes":{"ID":252241,"DIS_CODE":0,"TOWNNAME":"安南區","LI":"長安里","LIN":"14鄰","STREET":"長溪路","SECT":"三段","MAREA":" ","LANE":"３８０巷","ALLEY":" ","HOUSE_NO":"１２０號","E_COORD97":168008.60000000001,"N_COORD97":2552226.4700000002,"ADDRESS":"長溪路三段３８０巷１２０號","OBJECTID":252237},"geometry":{"x":168008.59999999963,"y":2552226.4700000044}},{"attributes":{"ID":252242,"DIS_CODE":0,"TOWNNAME":"安南區","LI":"長安里","LIN":"14鄰","STREET":"長溪路","SECT":"三段","MAREA":" ","LANE":"３８０巷","ALLEY":" ","HOUSE_NO":"１１１號","E_COORD97":167974.59,"N_COORD97":2552214.9199999999,"ADDRESS":"長溪路三段３８０巷１１１號","OBJECTID":252238},"geometry":{"x":167974.58999999985,"y":2552214.9199999999}},{"attributes":{"ID":252243,"DIS_CODE":0,"TOWNNAME":"安南區","LI":"海南里","LIN":"14鄰","STREET":"府安路","SECT":"七段","MAREA":" ","LANE":"６６巷","ALLEY":" ","HOUSE_NO":"２４號","E_COORD97":165872.32999999999,"N_COORD97":2545976.7999999998,"ADDRESS":"府安路七段６６巷２４號","OBJECTID":252239},"geometry":{"x":165872.33000000101,"y":2545976.8000000026}},{"attributes":{"ID":252244,"DIS_CODE":0,"TOWNNAME":"安南區","LI":"海南里","LIN":"14鄰","STREET":"府安路","SECT":"七段","MAREA":" ","LANE":"６６巷","ALLEY":" ","HOUSE_NO":"２４號之１","E_COORD97":165870.23000000001,"N_COORD97":2545980.3100000001,"ADDRESS":"府安路七段６６巷２４號之１","OBJECTID":252240},"geometry":{"x":165870.23000000138,"y":2545980.3100000024}},{"attributes":{"ID":252245,"DIS_CODE":0,"TOWNNAME":"安南區","LI":"長安里","LIN":"14鄰","STREET":"長溪路","SECT":"三段","MAREA":" ","LANE":"３８０巷","ALLEY":" ","HOUSE_NO":"９５號","E_COORD97":167948.60000000001,"N_COORD97":2552167.7200000002,"ADDRESS":"長溪路三段３８０巷９５號","OBJECTID":252241},"geometry":{"x":167948.60000000056,"y":2552167.7200000025}},{"attributes":{"ID":252246,"DIS_CODE":0,"TOWNNAME":"安南區","LI":"長安里","LIN":"14鄰","STREET":"長溪路","SECT":"三段","MAREA":" ","LANE":"３８０巷","ALLEY":" ","HOUSE_NO":"９７號","E_COORD97":167949.98000000001,"N_COORD97":2552156.5,"ADDRESS":"長溪路三段３８０巷９７號","OBJECTID":252242},"geometry":{"x":167949.98000000138,"y":2552156.5}},{"attributes":{"ID":252247,"DIS_CODE":0,"TOWNNAME":"安南區","LI":"長安里","LIN":"14鄰","STREET":"長溪路","SECT":"三段","MAREA":" ","LANE":"３８０巷","ALLEY":" ","HOUSE_NO":"９９號","E_COORD97":167952.85999999999,"N_COORD97":2552159.3700000001,"ADDRESS":"長溪路三段３８０巷９９號","OBJECTID":252243},"geometry":{"x":167952.86000000034,"y":2552159.370000001}},{"attributes":{"ID":252248,"DIS_CODE":0,"TOWNNAME":"安南區","LI":"長安里","LIN":"14鄰","STREET":"長溪路","SECT":"三段","MAREA":" ","LANE":"３８０巷","ALLEY":" ","HOUSE_NO":"９９號之１","E_COORD97":167955.97,"N_COORD97":2552162.54,"ADDRESS":"長溪路三段３８０巷９９號之１","OBJECTID":252244},"geometry":{"x":167955.97000000067,"y":2552162.5399999991}},{"attributes":{"ID":252249,"DIS_CODE":0,"TOWNNAME":"安南區","LI":"長安里","LIN":"14鄰","STREET":"長溪路","SECT":"三段","MAREA":" ","LANE":"３８０巷","ALLEY":" ","HOUSE_NO":"９９號之２","E_COORD97":167959.13,"N_COORD97":2552164.5699999998,"ADDRESS":"長溪路三段３８０巷９９號之２","OBJECTID":252245},"geometry":{"x":167959.12999999989,"y":2552164.570000004}},{"attributes":{"ID":252250,"DIS_CODE":0,"TOWNNAME":"中西區","LI":"三合里","LIN":"14鄰","STREET":"信義街","SECT":" ","MAREA":" ","LANE":"１０８巷","ALLEY":" ","HOUSE_NO":"１０號","E_COORD97":167485.51999999999,"N_COORD97":2544606.5099999998,"ADDRESS":"信義街１０８巷１０號","OBJECTID":252246},"geometry":{"x":167485.52000000142,"y":2544606.5099999998}},{"attributes":{"ID":252251,"DIS_CODE":0,"TOWNNAME":"中西區","LI":"三合里","LIN":"14鄰","STREET":"信義街","SECT":" ","MAREA":" ","LANE":"１０８巷","ALLEY":" ","HOUSE_NO":"１２號","E_COORD97":167487.97,"N_COORD97":2544609.3799999999,"ADDRESS":"信義街１０８巷１２號","OBJECTID":252247},"geometry":{"x":167487.97000000067,"y":2544609.379999999}},{"attributes":{"ID":252252,"DIS_CODE":0,"TOWNNAME":"中西區","LI":"三合里","LIN":"14鄰","STREET":"信義街","SECT":" ","MAREA":" ","LANE":"１０８巷","ALLEY":" ","HOUSE_NO":"１４號","E_COORD97":167489.82999999999,"N_COORD97":2544611.5299999998,"ADDRESS":"信義街１０８巷１４號","OBJECTID":252248},"geometry":{"x":167489.83000000101,"y":2544611.5300000012}},{"attributes":{"ID":252253,"DIS_CODE":0,"TOWNNAME":"中西區","LI":"三合里","LIN":"14鄰","STREET":"信義街","SECT":" ","MAREA":" ","LANE":"１０８巷","ALLEY":" ","HOUSE_NO":"１８號","E_COORD97":167496.29999999999,"N_COORD97":2544618.5699999998,"ADDRESS":"信義街１０８巷１８號","OBJECTID":252249},"geometry":{"x":167496.30000000075,"y":2544618.5700000022}},{"attributes":{"ID":252254,"DIS_CODE":0,"TOWNNAME":"中西區","LI":"三合里","LIN":"14鄰","STREET":"信義街","SECT":" ","MAREA":" ","LANE":"１０８巷","ALLEY":" ","HOUSE_NO":"８號","E_COORD97":167482.92999999999,"N_COORD97":2544603.3500000001,"ADDRESS":"信義街１０８巷８號","OBJECTID":252250},"geometry":{"x":167482.93000000156,"y":2544603.3499999996}},{"attributes":{"ID":252255,"DIS_CODE":0,"TOWNNAME":"中西區","LI":"三合里","LIN":"14鄰","STREET":"信義街","SECT":" ","MAREA":" ","LANE":"６０巷","ALLEY":" ","HOUSE_NO":"２２號","E_COORD97":167526.59,"N_COORD97":2544576.6299999999,"ADDRESS":"信義街６０巷２２號","OBJECTID":252251},"geometry":{"x":167526.59000000078,"y":2544576.629999999}},{"attributes":{"ID":252256,"DIS_CODE":0,"TOWNNAME":"中西區","LI":"三合里","LIN":"14鄰","STREET":"信義街","SECT":" ","MAREA":" ","LANE":"６０巷","ALLEY":" ","HOUSE_NO":"２４號","E_COORD97":167521.75,"N_COORD97":2544578.3500000001,"ADDRESS":"信義街６０巷２４號","OBJECTID":252252},"geometry":{"x":167521.75000000186,"y":2544578.3500000015}},{"attributes":{"ID":252257,"DIS_CODE":0,"TOWNNAME":"中西區","LI":"三合里","LIN":"14鄰","STREET":"信義街","SECT":" ","MAREA":" ","LANE":"６０巷","ALLEY":" ","HOUSE_NO":"２６號","E_COORD97":167519.45000000001,"N_COORD97":2544578.9300000002,"ADDRESS":"信義街６０巷２６號","OBJECTID":252253},"geometry":{"x":167519.45000000112,"y":2544578.9299999997}},{"attributes":{"ID":252258,"DIS_CODE":0,"TOWNNAME":"後壁區","LI":"嘉苳里","LIN":"7鄰","STREET":" ","SECT":" ","MAREA":"下茄苳","LANE":" ","ALLEY":" ","HOUSE_NO":"８３號","E_COORD97":184910.23999999999,"N_COORD97":2583281.73,"ADDRESS":"下茄苳８３號","OBJECTID":252254},"geometry":{"x":184910.24000000115,"y":2583281.7300000023}},{"attributes":{"ID":252259,"DIS_CODE":0,"TOWNNAME":"歸仁區","LI":"七甲里","LIN":"11鄰","STREET":"南丁路","SECT":" ","MAREA":" ","LANE":"７３巷","ALLEY":" ","HOUSE_NO":"１５６號","E_COORD97":175537.84,"N_COORD97":2541739.25,"ADDRESS":"南丁路７３巷１５６號","OBJECTID":252255},"geometry":{"x":175537.84000000078,"y":2541739.25}},{"attributes":{"ID":252260,"DIS_CODE":0,"TOWNNAME":"歸仁區","LI":"六甲里","LIN":"11鄰","STREET":"中正南路","SECT":"一段","MAREA":" ","LANE":"１０６７巷","ALLEY":" ","HOUSE_NO":"１５號","E_COORD97":176036.29999999999,"N_COORD97":2539078.2799999998,"ADDRESS":"中正南路一段１０６７巷１５號","OBJECTID":252256},"geometry":{"x":176036.30000000075,"y":2539078.2799999975}},{"attributes":{"ID":252261,"DIS_CODE":0,"TOWNNAME":"歸仁區","LI":"七甲里","LIN":"11鄰","STREET":"南丁路","SECT":" ","MAREA":" ","LANE":"７３巷","ALLEY":" ","HOUSE_NO":"２３號","E_COORD97":176073.89000000001,"N_COORD97":2541731.25,"ADDRESS":"南丁路７３巷２３號","OBJECTID":252257},"geometry":{"x":176073.88999999966,"y":2541731.2500000019}},{"attributes":{"ID":252262,"DIS_CODE":0,"TOWNNAME":"歸仁區","LI":"七甲里","LIN":"11鄰","STREET":"南丁路","SECT":" ","MAREA":" ","LANE":"７３巷","ALLEY":" ","HOUSE_NO":"１０８號","E_COORD97":175790.14000000001,"N_COORD97":2541741.25,"ADDRESS":"南丁路７３巷１０８號","OBJECTID":252258},"geometry":{"x":175790.1400000006,"y":2541741.2500000019}},{"attributes":{"ID":252263,"DIS_CODE":0,"TOWNNAME":"中西區","LI":"三合里","LIN":"14鄰","STREET":"信義街","SECT":" ","MAREA":" ","LANE":"６０巷","ALLEY":" ","HOUSE_NO":"２８號","E_COORD97":167523.47,"N_COORD97":2544586.6800000002,"ADDRESS":"信義街６０巷２８號","OBJECTID":252259},"geometry":{"x":167523.47000000067,"y":2544586.6800000016}},{"attributes":{"ID":252264,"DIS_CODE":0,"TOWNNAME":"中西區","LI":"三合里","LIN":"14鄰","STREET":"信義街","SECT":" ","MAREA":" ","LANE":"６０巷","ALLEY":" ","HOUSE_NO":"３０號","E_COORD97":167524.62,"N_COORD97":2544592.1400000001,"ADDRESS":"信義街６０巷３０號","OBJECTID":252260},"geometry":{"x":167524.62000000104,"y":2544592.1400000006}},{"attributes":{"ID":252265,"DIS_CODE":0,"TOWNNAME":"中西區","LI":"三合里","LIN":"14鄰","STREET":"信義街","SECT":" ","MAREA":" ","LANE":"６０巷","ALLEY":" ","HOUSE_NO":"３２號","E_COORD97":167518.14999999999,"N_COORD97":2544585.6800000002,"ADDRESS":"信義街６０巷３２號","OBJECTID":252261},"geometry":{"x":167518.1500000013,"y":2544585.6800000034}},{"attributes":{"ID":252266,"DIS_CODE":0,"TOWNNAME":"中西區","LI":"三合里","LIN":"14鄰","STREET":"信義街","SECT":" ","MAREA":" ","LANE":"６０巷","ALLEY":" ","HOUSE_NO":"３４號","E_COORD97":167514.70000000001,"N_COORD97":2544586.9700000002,"ADDRESS":"信義街６０巷３４號","OBJECTID":252262},"geometry":{"x":167514.70000000019,"y":2544586.9700000007}},{"attributes":{"ID":252267,"DIS_CODE":0,"TOWNNAME":"中西區","LI":"三合里","LIN":"14鄰","STREET":"信義街","SECT":" ","MAREA":" ","LANE":"６０巷","ALLEY":" ","HOUSE_NO":"３６號","E_COORD97":167510.53,"N_COORD97":2544587.8300000001,"ADDRESS":"信義街６０巷３６號","OBJECTID":252263},"geometry":{"x":167510.53000000119,"y":2544587.8300000001}},{"attributes":{"ID":252268,"DIS_CODE":0,"TOWNNAME":"中西區","LI":"三合里","LIN":"14鄰","STREET":"信義街","SECT":" ","MAREA":" ","LANE":"６０巷","ALLEY":" ","HOUSE_NO":"４０號","E_COORD97":167505.20999999999,"N_COORD97":2544589.5600000001,"ADDRESS":"信義街６０巷４０號","OBJECTID":252264},"geometry":{"x":167505.21000000089,"y":2544589.5600000005}},{"attributes":{"ID":252269,"DIS_CODE":0,"TOWNNAME":"中西區","LI":"三合里","LIN":"14鄰","STREET":"忠孝街","SECT":" ","MAREA":" ","LANE":"９３巷","ALLEY":" ","HOUSE_NO":"７５號","E_COORD97":167522.17999999999,"N_COORD97":2544625.75,"ADDRESS":"忠孝街９３巷７５號","OBJECTID":252265},"geometry":{"x":167522.18000000063,"y":2544625.75}},{"attributes":{"ID":252270,"DIS_CODE":0,"TOWNNAME":"中西區","LI":"三合里","LIN":"14鄰","STREET":"忠孝街","SECT":" ","MAREA":" ","LANE":"９３巷","ALLEY":" ","HOUSE_NO":"７７號","E_COORD97":167519.01000000001,"N_COORD97":2544628.3399999999,"ADDRESS":"忠孝街９３巷７７號","OBJECTID":252266},"geometry":{"x":167519.00999999978,"y":2544628.3399999999}},{"attributes":{"ID":252271,"DIS_CODE":0,"TOWNNAME":"中西區","LI":"三合里","LIN":"14鄰","STREET":"忠孝街","SECT":" ","MAREA":" ","LANE":"９３巷","ALLEY":" ","HOUSE_NO":"７９號","E_COORD97":167514.26999999999,"N_COORD97":2544628.9100000001,"ADDRESS":"忠孝街９３巷７９號","OBJECTID":252267},"geometry":{"x":167514.27000000142,"y":2544628.910000002}},{"attributes":{"ID":252272,"DIS_CODE":0,"TOWNNAME":"中西區","LI":"三合里","LIN":"14鄰","STREET":"信義街","SECT":" ","MAREA":" ","LANE":"１０８巷","ALLEY":" ","HOUSE_NO":"２０號","E_COORD97":167503.06,"N_COORD97":2544626.3300000001,"ADDRESS":"信義街１０８巷２０號","OBJECTID":252268},"geometry":{"x":167503.05999999959,"y":2544626.3300000019}},{"attributes":{"ID":252273,"DIS_CODE":0,"TOWNNAME":"中西區","LI":"三合里","LIN":"14鄰","STREET":"信義街","SECT":" ","MAREA":" ","LANE":"１０８巷","ALLEY":" ","HOUSE_NO":"２２號","E_COORD97":167506.22,"N_COORD97":2544631.9300000002,"ADDRESS":"信義街１０８巷２２號","OBJECTID":252269},"geometry":{"x":167506.21999999881,"y":2544631.9300000016}},{"attributes":{"ID":252274,"DIS_CODE":0,"TOWNNAME":"歸仁區","LI":"歸南里","LIN":"4鄰","STREET":"民權十六街","SECT":" ","MAREA":" ","LANE":"３０巷","ALLEY":" ","HOUSE_NO":"６號","E_COORD97":176873.14000000001,"N_COORD97":2540168.25,"ADDRESS":"民權十六街３０巷６號","OBJECTID":252270},"geometry":{"x":176873.1400000006,"y":2540168.2500000019}},{"attributes":{"ID":252275,"DIS_CODE":0,"TOWNNAME":"歸仁區","LI":"辜厝里","LIN":"24鄰","STREET":"大順街","SECT":" ","MAREA":" ","LANE":" ","ALLEY":" ","HOUSE_NO":"４７號","E_COORD97":177403.07999999999,"N_COORD97":2540591.1499999999,"ADDRESS":"大順街４７號","OBJECTID":252271},"geometry":{"x":177403.08000000101,"y":2540591.1500000004}},{"attributes":{"ID":252276,"DIS_CODE":0,"TOWNNAME":"歸仁區","LI":"南興里","LIN":"24鄰","STREET":"文化二十街","SECT":" ","MAREA":" ","LANE":" ","ALLEY":" ","HOUSE_NO":"７８號","E_COORD97":175503.59,"N_COORD97":2541313.3300000001,"ADDRESS":"文化二十街７８號","OBJECTID":252272},"geometry":{"x":175503.59000000171,"y":2541313.3300000038}},{"attributes":{"ID":252277,"DIS_CODE":0,"TOWNNAME":"歸仁區","LI":"南興里","LIN":"24鄰","STREET":"文化二十街","SECT":" ","MAREA":" ","LANE":" ","ALLEY":" ","HOUSE_NO":"６４號","E_COORD97":175479.89000000001,"N_COORD97":2541293.3300000001,"ADDRESS":"文化二十街６４號","OBJECTID":252273},"geometry":{"x":175479.8900000006,"y":2541293.3300000019}},{"attributes":{"ID":252278,"DIS_CODE":0,"TOWNNAME":"歸仁區","LI":"南興里","LIN":"24鄰","STREET":"文化二十街","SECT":" ","MAREA":" ","LANE":" ","ALLEY":" ","HOUSE_NO":"８２號","E_COORD97":175512.79000000001,"N_COORD97":2541312.3300000001,"ADDRESS":"文化二十街８２號","OBJECTID":252274},"geometry":{"x":175512.79000000097,"y":2541312.3300000001}},{"attributes":{"ID":252279,"DIS_CODE":0,"TOWNNAME":"歸仁區","LI":"南興里","LIN":"24鄰","STREET":"南興街","SECT":" ","MAREA":" ","LANE":" ","ALLEY":" ","HOUSE_NO":"２９８號","E_COORD97":175539.09,"N_COORD97":2541298.25,"ADDRESS":"南興街２９８號","OBJECTID":252275},"geometry":{"x":175539.09000000171,"y":2541298.2500000019}},{"attributes":{"ID":252280,"DIS_CODE":0,"TOWNNAME":"歸仁區","LI":"七甲里","LIN":"11鄰","STREET":"南丁路","SECT":" ","MAREA":" ","LANE":"７３巷","ALLEY":" ","HOUSE_NO":"８２號","E_COORD97":175856.59,"N_COORD97":2541753.25,"ADDRESS":"南丁路７３巷８２號","OBJECTID":252276},"geometry":{"x":175856.59000000078,"y":2541753.25}},{"attributes":{"ID":252281,"DIS_CODE":0,"TOWNNAME":"楠西區","LI":"照興里","LIN":"11鄰","STREET":" ","SECT":" ","MAREA":"興南","LANE":" ","ALLEY":" ","HOUSE_NO":"２２號之１","E_COORD97":195889.79999999999,"N_COORD97":2564374.2999999998,"ADDRESS":"興南２２號之１","OBJECTID":252277},"geometry":{"x":195889.79999999981,"y":2564374.3000000007}},{"attributes":{"ID":252282,"DIS_CODE":0,"TOWNNAME":"楠西區","LI":"鹿田里","LIN":"11鄰","STREET":" ","SECT":" ","MAREA":"油車","LANE":" ","ALLEY":" ","HOUSE_NO":"７７號","E_COORD97":197690.94,"N_COORD97":2562613.25,"ADDRESS":"油車７７號","OBJECTID":252278},"geometry":{"x":197690.94000000134,"y":2562613.2500000019}},{"attributes":{"ID":252283,"DIS_CODE":0,"TOWNNAME":"楠西區","LI":"鹿田里","LIN":"11鄰","STREET":" ","SECT":" ","MAREA":"油車","LANE":" ","ALLEY":" ","HOUSE_NO":"６２號","E_COORD97":197841.64000000001,"N_COORD97":2562814.25,"ADDRESS":"油車６２號","OBJECTID":252279},"geometry":{"x":197841.63999999966,"y":2562814.25}},{"attributes":{"ID":252284,"DIS_CODE":0,"TOWNNAME":"歸仁區","LI":"武東里","LIN":"11鄰","STREET":"中正南路","SECT":"二段","MAREA":" ","LANE":"２１４巷","ALLEY":" ","HOUSE_NO":"２０號","E_COORD97":175308.76000000001,"N_COORD97":2535523.2799999998,"ADDRESS":"中正南路二段２１４巷２０號","OBJECTID":252280},"geometry":{"x":175308.75999999978,"y":2535523.2800000012}},{"attributes":{"ID":252285,"DIS_CODE":0,"TOWNNAME":"歸仁區","LI":"大廟里","LIN":"11鄰","STREET":"大廟五街","SECT":" ","MAREA":" ","LANE":"２６巷","ALLEY":" ","HOUSE_NO":"３號","E_COORD97":175970.98000000001,"N_COORD97":2544199.9900000002,"ADDRESS":"大廟五街２６巷３號","OBJECTID":252281},"geometry":{"x":175970.97999999952,"y":2544199.9900000002}},{"attributes":{"ID":252286,"DIS_CODE":0,"TOWNNAME":"楠西區","LI":"密枝里","LIN":"11鄰","STREET":" ","SECT":" ","MAREA":"密枝","LANE":" ","ALLEY":" ","HOUSE_NO":"５８號之２０","E_COORD97":202405.70000000001,"N_COORD97":2567601.2999999998,"ADDRESS":"密枝５８號之２０","OBJECTID":252282},"geometry":{"x":202405.69999999925,"y":2567601.3000000026}},{"attributes":{"ID":252287,"DIS_CODE":0,"TOWNNAME":"楠西區","LI":"鹿田里","LIN":"11鄰","STREET":" ","SECT":" ","MAREA":"油車","LANE":" ","ALLEY":" ","HOUSE_NO":"６４號","E_COORD97":197809.44,"N_COORD97":2562818.25,"ADDRESS":"油車６４號","OBJECTID":252283},"geometry":{"x":197809.44000000134,"y":2562818.25}},{"attributes":{"ID":252288,"DIS_CODE":0,"TOWNNAME":"歸仁區","LI":"大廟里","LIN":"11鄰","STREET":"大廟五街","SECT":" ","MAREA":" ","LANE":"２６巷","ALLEY":" ","HOUSE_NO":"１０號","E_COORD97":175972.13,"N_COORD97":2544184.9900000002,"ADDRESS":"大廟五街２６巷１０號","OBJECTID":252284},"geometry":{"x":175972.12999999989,"y":2544184.9900000021}},{"attributes":{"ID":252289,"DIS_CODE":0,"TOWNNAME":"楠西區","LI":"鹿田里","LIN":"11鄰","STREET":" ","SECT":" ","MAREA":"油車","LANE":" ","ALLEY":" ","HOUSE_NO":"６０號之２","E_COORD97":197752.70999999999,"N_COORD97":2562651.2999999998,"ADDRESS":"油車６０號之２","OBJECTID":252285},"geometry":{"x":197752.71000000089,"y":2562651.3000000026}},{"attributes":{"ID":252290,"DIS_CODE":0,"TOWNNAME":"歸仁區","LI":"歸南里","LIN":"5鄰","STREET":"中正南路","SECT":"一段","MAREA":" ","LANE":"４９２巷","ALLEY":" ","HOUSE_NO":"１１號","E_COORD97":176872.59,"N_COORD97":2540095.25,"ADDRESS":"中正南路一段４９２巷１１號","OBJECTID":252286},"geometry":{"x":176872.58999999985,"y":2540095.25}},{"attributes":{"ID":252291,"DIS_CODE":0,"TOWNNAME":"中西區","LI":"安海里","LIN":"14鄰","STREET":"河中街","SECT":" ","MAREA":" ","LANE":"４９巷","ALLEY":" ","HOUSE_NO":"２號之１","E_COORD97":167294.03,"N_COORD97":2544071.98,"ADDRESS":"河中街４９巷２號之１","OBJECTID":252287},"geometry":{"x":167294.03000000026,"y":2544071.9800000004}},{"attributes":{"ID":252292,"DIS_CODE":0,"TOWNNAME":"中西區","LI":"安海里","LIN":"14鄰","STREET":"河中街","SECT":" ","MAREA":" ","LANE":"４９巷","ALLEY":" ","HOUSE_NO":"３號","E_COORD97":167281.20999999999,"N_COORD97":2544067.0600000001,"ADDRESS":"河中街４９巷３號","OBJECTID":252288},"geometry":{"x":167281.21000000183,"y":2544067.0600000005}},{"attributes":{"ID":252293,"DIS_CODE":0,"TOWNNAME":"中西區","LI":"安海里","LIN":"14鄰","STREET":"河中街","SECT":" ","MAREA":" ","LANE":"４９巷","ALLEY":" ","HOUSE_NO":"４號","E_COORD97":167277.66,"N_COORD97":2544077.1099999999,"ADDRESS":"河中街４９巷４號","OBJECTID":252289},"geometry":{"x":167277.66000000015,"y":2544077.1100000031}},{"attributes":{"ID":252294,"DIS_CODE":0,"TOWNNAME":"中西區","LI":"安海里","LIN":"14鄰","STREET":"河中街","SECT":" ","MAREA":" ","LANE":"４９巷","ALLEY":" ","HOUSE_NO":"５號","E_COORD97":167274.89000000001,"N_COORD97":2544068.04,"ADDRESS":"河中街４９巷５號","OBJECTID":252290},"geometry":{"x":167274.8900000006,"y":2544068.040000001}},{"attributes":{"ID":252295,"DIS_CODE":0,"TOWNNAME":"中西區","LI":"安海里","LIN":"14鄰","STREET":"河中街","SECT":" ","MAREA":" ","LANE":"４９巷","ALLEY":" ","HOUSE_NO":"６號","E_COORD97":167273.31,"N_COORD97":2544078.4900000002,"ADDRESS":"河中街４９巷６號","OBJECTID":252291},"geometry":{"x":167273.31000000145,"y":2544078.4900000002}},{"attributes":{"ID":252296,"DIS_CODE":0,"TOWNNAME":"中西區","LI":"安海里","LIN":"14鄰","STREET":"河中街","SECT":" ","MAREA":" ","LANE":"４９巷","ALLEY":" ","HOUSE_NO":"７號","E_COORD97":167267.59,"N_COORD97":2544068.4399999999,"ADDRESS":"河中街４９巷７號","OBJECTID":252292},"geometry":{"x":167267.58999999985,"y":2544068.4400000032}},{"attributes":{"ID":252297,"DIS_CODE":0,"TOWNNAME":"中西區","LI":"安海里","LIN":"14鄰","STREET":"河中街","SECT":" ","MAREA":" ","LANE":"４９巷","ALLEY":" ","HOUSE_NO":"８號","E_COORD97":167269.37,"N_COORD97":2544080.0600000001,"ADDRESS":"河中街４９巷８號","OBJECTID":252293},"geometry":{"x":167269.37000000011,"y":2544080.0600000024}},{"attributes":{"ID":252298,"DIS_CODE":0,"TOWNNAME":"中西區","LI":"安海里","LIN":"14鄰","STREET":"河中街","SECT":" ","MAREA":" ","LANE":"４９巷","ALLEY":" ","HOUSE_NO":"９號","E_COORD97":167265.42000000001,"N_COORD97":2544075.9300000002,"ADDRESS":"河中街４９巷９號","OBJECTID":252294},"geometry":{"x":167265.41999999993,"y":2544075.9300000016}},{"attributes":{"ID":252299,"DIS_CODE":0,"TOWNNAME":"歸仁區","LI":"南興里","LIN":"24鄰","STREET":"南興街","SECT":" ","MAREA":" ","LANE":" ","ALLEY":" ","HOUSE_NO":"２９０號","E_COORD97":175540.19,"N_COORD97":2541315.25,"ADDRESS":"南興街２９０號","OBJECTID":252295},"geometry":{"x":175540.19000000041,"y":2541315.2500000019}},{"attributes":{"ID":252300,"DIS_CODE":0,"TOWNNAME":"歸仁區","LI":"南興里","LIN":"24鄰","STREET":"文化二十街","SECT":" ","MAREA":" ","LANE":" ","ALLEY":" ","HOUSE_NO":"１０４號","E_COORD97":175486.44,"N_COORD97":2541324.3300000001,"ADDRESS":"文化二十街１０４號","OBJECTID":252296},"geometry":{"x":175486.44000000227,"y":2541324.3300000019}},{"attributes":{"ID":252301,"DIS_CODE":0,"TOWNNAME":"歸仁區","LI":"南興里","LIN":"24鄰","STREET":"南興街","SECT":" ","MAREA":" ","LANE":" ","ALLEY":" ","HOUSE_NO":"２７６號","E_COORD97":175540.39000000001,"N_COORD97":2541347.25,"ADDRESS":"南興街２７６號","OBJECTID":252297},"geometry":{"x":175540.39000000153,"y":2541347.25}},{"attributes":{"ID":252302,"DIS_CODE":0,"TOWNNAME":"歸仁區","LI":"南興里","LIN":"24鄰","STREET":"南興街","SECT":" ","MAREA":" ","LANE":" ","ALLEY":" ","HOUSE_NO":"２８０號","E_COORD97":175541.39000000001,"N_COORD97":2541338.25,"ADDRESS":"南興街２８０號","OBJECTID":252298},"geometry":{"x":175541.38999999966,"y":2541338.2500000019}},{"attributes":{"ID":252303,"DIS_CODE":0,"TOWNNAME":"歸仁區","LI":"南興里","LIN":"24鄰","STREET":"南興街","SECT":" ","MAREA":" ","LANE":" ","ALLEY":" ","HOUSE_NO":"３００號","E_COORD97":175539.09,"N_COORD97":2541293.25,"ADDRESS":"南興街３００號","OBJECTID":252299},"geometry":{"x":175539.09000000171,"y":2541293.2500000037}},{"attributes":{"ID":252304,"DIS_CODE":0,"TOWNNAME":"中西區","LI":"普濟里","LIN":"14鄰","STREET":"國華街","SECT":"三段","MAREA":" ","LANE":"２６９巷","ALLEY":" ","HOUSE_NO":"１１號","E_COORD97":167933.26000000001,"N_COORD97":2544462.52,"ADDRESS":"國華街三段２６９巷１１號","OBJECTID":252300},"geometry":{"x":167933.26000000164,"y":2544462.5200000014}},{"attributes":{"ID":252305,"DIS_CODE":0,"TOWNNAME":"楠西區","LI":"鹿田里","LIN":"11鄰","STREET":" ","SECT":" ","MAREA":"油車","LANE":" ","ALLEY":" ","HOUSE_NO":"６０號之６","E_COORD97":197770.67999999999,"N_COORD97":2562454.2999999998,"ADDRESS":"油車６０號之６","OBJECTID":252301},"geometry":{"x":197770.67999999877,"y":2562454.3000000026}},{"attributes":{"ID":252306,"DIS_CODE":0,"TOWNNAME":"楠西區","LI":"密枝里","LIN":"11鄰","STREET":" ","SECT":" ","MAREA":"密枝","LANE":" ","ALLEY":" ","HOUSE_NO":"５９號之１４","E_COORD97":203446.38,"N_COORD97":2567668.2999999998,"ADDRESS":"密枝５９號之１４","OBJECTID":252302},"geometry":{"x":203446.37999999989,"y":2567668.3000000026}},{"attributes":{"ID":252307,"DIS_CODE":0,"TOWNNAME":"楠西區","LI":"照興里","LIN":"11鄰","STREET":" ","SECT":" ","MAREA":"興南","LANE":" ","ALLEY":" ","HOUSE_NO":"１９號","E_COORD97":196115.76999999999,"N_COORD97":2564442.25,"ADDRESS":"興南１９號","OBJECTID":252303},"geometry":{"x":196115.77000000048,"y":2564442.25}},{"attributes":{"ID":252308,"DIS_CODE":0,"TOWNNAME":"楠西區","LI":"鹿田里","LIN":"11鄰","STREET":" ","SECT":" ","MAREA":"油車","LANE":" ","ALLEY":" ","HOUSE_NO":"７２號","E_COORD97":197645.04000000001,"N_COORD97":2562758.25,"ADDRESS":"油車７２號","OBJECTID":252304},"geometry":{"x":197645.0400000019,"y":2562758.2500000019}},{"attributes":{"ID":252309,"DIS_CODE":0,"TOWNNAME":"楠西區","LI":"灣丘里","LIN":"11鄰","STREET":" ","SECT":" ","MAREA":"香蕉山","LANE":" ","ALLEY":" ","HOUSE_NO":"３８號之３","E_COORD97":204052.22,"N_COORD97":2563970.2999999998,"ADDRESS":"香蕉山３８號之３","OBJECTID":252305},"geometry":{"x":204052.21999999974,"y":2563970.3000000007}},{"attributes":{"ID":252310,"DIS_CODE":0,"TOWNNAME":"楠西區","LI":"灣丘里","LIN":"11鄰","STREET":" ","SECT":" ","MAREA":"香蕉山","LANE":" ","ALLEY":" ","HOUSE_NO":"３８號之１","E_COORD97":203787.03,"N_COORD97":2564290.2999999998,"ADDRESS":"香蕉山３８號之１","OBJECTID":252306},"geometry":{"x":203787.03000000212,"y":2564290.3000000007}},{"attributes":{"ID":252311,"DIS_CODE":0,"TOWNNAME":"楠西區","LI":"灣丘里","LIN":"11鄰","STREET":" ","SECT":" ","MAREA":"香蕉山","LANE":" ","ALLEY":" ","HOUSE_NO":"３４號","E_COORD97":203475.48999999999,"N_COORD97":2564200.25,"ADDRESS":"香蕉山３４號","OBJECTID":252307},"geometry":{"x":203475.49000000115,"y":2564200.2500000019}},{"attributes":{"ID":252312,"DIS_CODE":0,"TOWNNAME":"中西區","LI":"普濟里","LIN":"14鄰","STREET":"國華街","SECT":"三段","MAREA":" ","LANE":"２６９巷","ALLEY":" ","HOUSE_NO":"７號","E_COORD97":167946.22,"N_COORD97":2544470.2999999998,"ADDRESS":"國華街三段２６９巷７號","OBJECTID":252308},"geometry":{"x":167946.22000000067,"y":2544470.2999999989}},{"attributes":{"ID":252313,"DIS_CODE":0,"TOWNNAME":"楠西區","LI":"鹿田里","LIN":"11鄰","STREET":" ","SECT":" ","MAREA":"油車","LANE":" ","ALLEY":" ","HOUSE_NO":"７０號","E_COORD97":197685.23999999999,"N_COORD97":2562753.25,"ADDRESS":"油車７０號","OBJECTID":252309},"geometry":{"x":197685.24000000115,"y":2562753.25}},{"attributes":{"ID":252314,"DIS_CODE":0,"TOWNNAME":"楠西區","LI":"照興里","LIN":"11鄰","STREET":" ","SECT":" ","MAREA":"興南","LANE":" ","ALLEY":" ","HOUSE_NO":"２３號","E_COORD97":196037.87,"N_COORD97":2564380.25,"ADDRESS":"興南２３號","OBJECTID":252310},"geometry":{"x":196037.87000000104,"y":2564380.25}},{"attributes":{"ID":252315,"DIS_CODE":0,"TOWNNAME":"楠西區","LI":"照興里","LIN":"11鄰","STREET":" ","SECT":" ","MAREA":"興南","LANE":" ","ALLEY":" ","HOUSE_NO":"１８號","E_COORD97":196147.97,"N_COORD97":2564654.25,"ADDRESS":"興南１８號","OBJECTID":252311},"geometry":{"x":196147.96999999974,"y":2564654.2500000019}},{"attributes":{"ID":252316,"DIS_CODE":0,"TOWNNAME":"楠西區","LI":"照興里","LIN":"11鄰","STREET":" ","SECT":" ","MAREA":"興南","LANE":" ","ALLEY":" ","HOUSE_NO":"２２號","E_COORD97":196027.37,"N_COORD97":2564409.25,"ADDRESS":"興南２２號","OBJECTID":252312},"geometry":{"x":196027.37000000197,"y":2564409.2500000019}},{"attributes":{"ID":252317,"DIS_CODE":0,"TOWNNAME":"楠西區","LI":"照興里","LIN":"11鄰","STREET":" ","SECT":" ","MAREA":"興南","LANE":" ","ALLEY":" ","HOUSE_NO":"１７號","E_COORD97":196196.17000000001,"N_COORD97":2564752.25,"ADDRESS":"興南１７號","OBJECTID":252313},"geometry":{"x":196196.16999999899,"y":2564752.2500000019}},{"attributes":{"ID":252318,"DIS_CODE":0,"TOWNNAME":"楠西區","LI":"鹿田里","LIN":"11鄰","STREET":" ","SECT":" ","MAREA":"油車","LANE":" ","ALLEY":" ","HOUSE_NO":"６０號之８","E_COORD97":197944.51999999999,"N_COORD97":2562545.2999999998,"ADDRESS":"油車６０號之８","OBJECTID":252314},"geometry":{"x":197944.51999999862,"y":2562545.3000000026}},{"attributes":{"ID":252319,"DIS_CODE":0,"TOWNNAME":"楠西區","LI":"鹿田里","LIN":"11鄰","STREET":" ","SECT":" ","MAREA":"油車","LANE":" ","ALLEY":" ","HOUSE_NO":"６１號之５","E_COORD97":197723.13,"N_COORD97":2562792.2999999998,"ADDRESS":"油車６１號之５","OBJECTID":252315},"geometry":{"x":197723.12999999989,"y":2562792.3000000045}},{"attributes":{"ID":252320,"DIS_CODE":0,"TOWNNAME":"楠西區","LI":"鹿田里","LIN":"11鄰","STREET":" ","SECT":" ","MAREA":"油車","LANE":" ","ALLEY":" ","HOUSE_NO":"７６號之１","E_COORD97":197702.57999999999,"N_COORD97":2562682.2999999998,"ADDRESS":"油車７６號之１","OBJECTID":252316},"geometry":{"x":197702.58000000101,"y":2562682.3000000007}},{"attributes":{"ID":252321,"DIS_CODE":0,"TOWNNAME":"楠西區","LI":"鹿田里","LIN":"11鄰","STREET":" ","SECT":" ","MAREA":"油車","LANE":" ","ALLEY":" ","HOUSE_NO":"６１號之８","E_COORD97":197720.51999999999,"N_COORD97":2562806.2999999998,"ADDRESS":"油車６１號之８","OBJECTID":252317},"geometry":{"x":197720.51999999955,"y":2562806.3000000026}},{"attributes":{"ID":252322,"DIS_CODE":0,"TOWNNAME":"中西區","LI":"普濟里","LIN":"14鄰","STREET":"國華街","SECT":"三段","MAREA":" ","LANE":"２６９巷","ALLEY":" ","HOUSE_NO":"９號","E_COORD97":167940.66,"N_COORD97":2544469.1099999999,"ADDRESS":"國華街三段２６９巷９號","OBJECTID":252318},"geometry":{"x":167940.66000000015,"y":2544469.1099999994}},{"attributes":{"ID":252323,"DIS_CODE":0,"TOWNNAME":"楠西區","LI":"灣丘里","LIN":"11鄰","STREET":" ","SECT":" ","MAREA":"香蕉山","LANE":" ","ALLEY":" ","HOUSE_NO":"３６號","E_COORD97":203255.89000000001,"N_COORD97":2564103.25,"ADDRESS":"香蕉山３６號","OBJECTID":252319},"geometry":{"x":203255.88999999966,"y":2564103.25}},{"attributes":{"ID":252324,"DIS_CODE":0,"TOWNNAME":"楠西區","LI":"灣丘里","LIN":"11鄰","STREET":" ","SECT":" ","MAREA":"香蕉山","LANE":" ","ALLEY":" ","HOUSE_NO":"４５號","E_COORD97":204647.59,"N_COORD97":2563746.25,"ADDRESS":"香蕉山４５號","OBJECTID":252320},"geometry":{"x":204647.59000000078,"y":2563746.25}},{"attributes":{"ID":252325,"DIS_CODE":0,"TOWNNAME":"南區","LI":"大恩里","LIN":"11鄰","STREET":"大同路","SECT":"二段","MAREA":" ","LANE":"７５０巷","ALLEY":" ","HOUSE_NO":"８８號","E_COORD97":169280.70000000001,"N_COORD97":2540715.3199999998,"ADDRESS":"大同路二段７５０巷８８號","OBJECTID":252321},"geometry":{"x":169280.70000000112,"y":2540715.3200000003}},{"attributes":{"ID":252326,"DIS_CODE":0,"TOWNNAME":"楠西區","LI":"灣丘里","LIN":"11鄰","STREET":" ","SECT":" ","MAREA":"香蕉山","LANE":" ","ALLEY":" ","HOUSE_NO":"３５號","E_COORD97":203337.69,"N_COORD97":2564105.25,"ADDRESS":"香蕉山３５號","OBJECTID":252322},"geometry":{"x":203337.69000000041,"y":2564105.2500000019}},{"attributes":{"ID":252327,"DIS_CODE":0,"TOWNNAME":"南區","LI":"大恩里","LIN":"11鄰","STREET":"大同路","SECT":"二段","MAREA":" ","LANE":"７５０巷","ALLEY":" ","HOUSE_NO":"９０號","E_COORD97":169279.20000000001,"N_COORD97":2540725.8300000001,"ADDRESS":"大同路二段７５０巷９０號","OBJECTID":252323},"geometry":{"x":169279.20000000112,"y":2540725.8300000001}},{"attributes":{"ID":252328,"DIS_CODE":0,"TOWNNAME":"南區","LI":"大恩里","LIN":"11鄰","STREET":"大同路","SECT":"二段","MAREA":" ","LANE":"７５０巷","ALLEY":" ","HOUSE_NO":"９２號","E_COORD97":169279.95000000001,"N_COORD97":2540729.2599999998,"ADDRESS":"大同路二段７５０巷９２號","OBJECTID":252324},"geometry":{"x":169279.95000000019,"y":2540729.2599999998}},{"attributes":{"ID":252329,"DIS_CODE":0,"TOWNNAME":"南區","LI":"大恩里","LIN":"11鄰","STREET":"大同路","SECT":"二段","MAREA":" ","LANE":"７５０巷","ALLEY":" ","HOUSE_NO":"９４號","E_COORD97":169270.17999999999,"N_COORD97":2540717.46,"ADDRESS":"大同路二段７５０巷９４號","OBJECTID":252325},"geometry":{"x":169270.18000000063,"y":2540717.4600000028}},{"attributes":{"ID":252330,"DIS_CODE":0,"TOWNNAME":"南區","LI":"大恩里","LIN":"11鄰","STREET":"大同路","SECT":"二段","MAREA":" ","LANE":"７５０巷","ALLEY":" ","HOUSE_NO":"９６號","E_COORD97":169265.35000000001,"N_COORD97":2540717.25,"ADDRESS":"大同路二段７５０巷９６號","OBJECTID":252326},"geometry":{"x":169265.35000000056,"y":2540717.2500000019}},{"attributes":{"ID":252331,"DIS_CODE":0,"TOWNNAME":"南區","LI":"大恩里","LIN":"11鄰","STREET":"大同路","SECT":"二段","MAREA":" ","LANE":"７５０巷","ALLEY":" ","HOUSE_NO":"９８號","E_COORD97":169260.29999999999,"N_COORD97":2540717.25,"ADDRESS":"大同路二段７５０巷９８號","OBJECTID":252327},"geometry":{"x":169260.29999999888,"y":2540717.2500000019}},{"attributes":{"ID":252332,"DIS_CODE":0,"TOWNNAME":"下營區","LI":"仁里里","LIN":"14鄰","STREET":"友愛街","SECT":" ","MAREA":" ","LANE":"６２巷","ALLEY":" ","HOUSE_NO":"１０號","E_COORD97":174235.76000000001,"N_COORD97":2570437.6699999999,"ADDRESS":"友愛街６２巷１０號","OBJECTID":252328},"geometry":{"x":174235.75999999978,"y":2570437.6700000037}},{"attributes":{"ID":252333,"DIS_CODE":0,"TOWNNAME":"下營區","LI":"仁里里","LIN":"14鄰","STREET":"友愛街","SECT":" ","MAREA":" ","LANE":"６２巷","ALLEY":" ","HOUSE_NO":"１２號","E_COORD97":174244.29000000001,"N_COORD97":2570434.9100000001,"ADDRESS":"友愛街６２巷１２號","OBJECTID":252329},"geometry":{"x":174244.29000000004,"y":2570434.9100000001}},{"attributes":{"ID":252334,"DIS_CODE":0,"TOWNNAME":"下營區","LI":"仁里里","LIN":"14鄰","STREET":"友愛街","SECT":" ","MAREA":" ","LANE":"６２巷","ALLEY":" ","HOUSE_NO":"２０號","E_COORD97":174264.85000000001,"N_COORD97":2570426.3900000001,"ADDRESS":"友愛街６２巷２０號","OBJECTID":252330},"geometry":{"x":174264.85000000056,"y":2570426.3900000043}},{"attributes":{"ID":252335,"DIS_CODE":0,"TOWNNAME":"下營區","LI":"仁里里","LIN":"14鄰","STREET":"友愛街","SECT":" ","MAREA":" ","LANE":"６２巷","ALLEY":" ","HOUSE_NO":"２８號","E_COORD97":174280.60999999999,"N_COORD97":2570424.3799999999,"ADDRESS":"友愛街６２巷２８號","OBJECTID":252331},"geometry":{"x":174280.61000000127,"y":2570424.379999999}},{"attributes":{"ID":252336,"DIS_CODE":0,"TOWNNAME":"下營區","LI":"仁里里","LIN":"14鄰","STREET":"友愛街","SECT":" ","MAREA":" ","LANE":"６２巷","ALLEY":" ","HOUSE_NO":"３０號","E_COORD97":174281.26000000001,"N_COORD97":2570434.5699999998,"ADDRESS":"友愛街６２巷３０號","OBJECTID":252332},"geometry":{"x":174281.25999999978,"y":2570434.5700000003}},{"attributes":{"ID":252337,"DIS_CODE":0,"TOWNNAME":"下營區","LI":"仁里里","LIN":"14鄰","STREET":"友愛街","SECT":" ","MAREA":" ","LANE":"６２巷","ALLEY":" ","HOUSE_NO":"３２號","E_COORD97":174279.57000000001,"N_COORD97":2570443.8700000001,"ADDRESS":"友愛街６２巷３２號","OBJECTID":252333},"geometry":{"x":174279.5700000003,"y":2570443.8699999992}},{"attributes":{"ID":252338,"DIS_CODE":0,"TOWNNAME":"下營區","LI":"仁里里","LIN":"14鄰","STREET":"友愛街","SECT":" ","MAREA":" ","LANE":"６２巷","ALLEY":" ","HOUSE_NO":"３８號","E_COORD97":174286.82999999999,"N_COORD97":2570440.3799999999,"ADDRESS":"友愛街６２巷３８號","OBJECTID":252334},"geometry":{"x":174286.83000000194,"y":2570440.379999999}},{"attributes":{"ID":252339,"DIS_CODE":0,"TOWNNAME":"歸仁區","LI":"歸仁里","LIN":"13鄰","STREET":"文化街","SECT":"一段","MAREA":" ","LANE":"１２５巷","ALLEY":" ","HOUSE_NO":"２號","E_COORD97":177890.79000000001,"N_COORD97":2541100.0499999998,"ADDRESS":"文化街一段１２５巷２號","OBJECTID":252335},"geometry":{"x":177890.78999999911,"y":2541100.0500000026}},{"attributes":{"ID":252340,"DIS_CODE":0,"TOWNNAME":"歸仁區","LI":"崙頂里","LIN":"24鄰","STREET":"崙頂街","SECT":" ","MAREA":" ","LANE":" ","ALLEY":" ","HOUSE_NO":"７２號","E_COORD97":177848.07999999999,"N_COORD97":2539937.25,"ADDRESS":"崙頂街７２號","OBJECTID":252336},"geometry":{"x":177848.08000000007,"y":2539937.2500000037}},{"attributes":{"ID":252341,"DIS_CODE":0,"TOWNNAME":"歸仁區","LI":"新厝里","LIN":"13鄰","STREET":"中正南路","SECT":"一段","MAREA":" ","LANE":"８５巷","ALLEY":" ","HOUSE_NO":"２號","E_COORD97":177589.89999999999,"N_COORD97":2540515.5899999999,"ADDRESS":"中正南路一段８５巷２號","OBJECTID":252337},"geometry":{"x":177589.90000000037,"y":2540515.5900000017}},{"attributes":{"ID":252342,"DIS_CODE":0,"TOWNNAME":"歸仁區","LI":"媽廟里","LIN":"17鄰","STREET":"中正北路","SECT":"三段","MAREA":" ","LANE":"１６０巷","ALLEY":" ","HOUSE_NO":"６號","E_COORD97":177659.85999999999,"N_COORD97":2543877.7200000002,"ADDRESS":"中正北路三段１６０巷６號","OBJECTID":252338},"geometry":{"x":177659.86000000034,"y":2543877.7200000044}},{"attributes":{"ID":252343,"DIS_CODE":0,"TOWNNAME":"歸仁區","LI":"歸南里","LIN":"20鄰","STREET":"民生八街","SECT":" ","MAREA":" ","LANE":"２８巷","ALLEY":" ","HOUSE_NO":"７號","E_COORD97":176110.70999999999,"N_COORD97":2540396.25,"ADDRESS":"民生八街２８巷７號","OBJECTID":252339},"geometry":{"x":176110.70999999996,"y":2540396.2500000019}},{"attributes":{"ID":252344,"DIS_CODE":0,"TOWNNAME":"南區","LI":"田寮里","LIN":"20鄰","STREET":"西門路","SECT":"一段","MAREA":" ","LANE":"２７９巷","ALLEY":" ","HOUSE_NO":"７號","E_COORD97":167675.88,"N_COORD97":2541917.0600000001,"ADDRESS":"西門路一段２７９巷７號","OBJECTID":252340},"geometry":{"x":167675.87999999989,"y":2541917.0600000024}},{"attributes":{"ID":252345,"DIS_CODE":0,"TOWNNAME":"南區","LI":"田寮里","LIN":"20鄰","STREET":"西門路","SECT":"一段","MAREA":" ","LANE":"２７９巷","ALLEY":" ","HOUSE_NO":"８號","E_COORD97":167698.89999999999,"N_COORD97":2541961.7799999998,"ADDRESS":"西門路一段２７９巷８號","OBJECTID":252341},"geometry":{"x":167698.90000000037,"y":2541961.7800000012}},{"attributes":{"ID":252346,"DIS_CODE":0,"TOWNNAME":"永康區","LI":"復華里","LIN":"14鄰","STREET":"國華街","SECT":" ","MAREA":" ","LANE":"９２巷","ALLEY":" ","HOUSE_NO":"５號","E_COORD97":172877.42000000001,"N_COORD97":2545871.4900000002,"ADDRESS":"國華街９２巷５號","OBJECTID":252342},"geometry":{"x":172877.42000000086,"y":2545871.4900000002}},{"attributes":{"ID":252347,"DIS_CODE":0,"TOWNNAME":"歸仁區","LI":"南興里","LIN":"24鄰","STREET":"文化二十街","SECT":" ","MAREA":" ","LANE":" ","ALLEY":" ","HOUSE_NO":"６０號","E_COORD97":175489.09,"N_COORD97":2541293.3300000001,"ADDRESS":"文化二十街６０號","OBJECTID":252343},"geometry":{"x":175489.09000000078,"y":2541293.3300000019}},{"attributes":{"ID":252348,"DIS_CODE":0,"TOWNNAME":"歸仁區","LI":"南興里","LIN":"24鄰","STREET":"南興街","SECT":" ","MAREA":" ","LANE":" ","ALLEY":" ","HOUSE_NO":"２８８號","E_COORD97":175540.29000000001,"N_COORD97":2541320.25,"ADDRESS":"南興街２８８號","OBJECTID":252344},"geometry":{"x":175540.29000000097,"y":2541320.2499999981}},{"attributes":{"ID":252349,"DIS_CODE":0,"TOWNNAME":"歸仁區","LI":"南興里","LIN":"24鄰","STREET":"文化二十街","SECT":" ","MAREA":" ","LANE":" ","ALLEY":" ","HOUSE_NO":"７２號","E_COORD97":175490.29000000001,"N_COORD97":2541313.3300000001,"ADDRESS":"文化二十街７２號","OBJECTID":252345},"geometry":{"x":175490.29000000004,"y":2541313.3300000038}},{"attributes":{"ID":252350,"DIS_CODE":0,"TOWNNAME":"歸仁區","LI":"南興里","LIN":"24鄰","STREET":"南興街","SECT":" ","MAREA":" ","LANE":" ","ALLEY":" ","HOUSE_NO":"２８６號","E_COORD97":175541.29000000001,"N_COORD97":2541324.25,"ADDRESS":"南興街２８６號","OBJECTID":252346},"geometry":{"x":175541.28999999911,"y":2541324.2500000019}},{"attributes":{"ID":252351,"DIS_CODE":0,"TOWNNAME":"歸仁區","LI":"南興里","LIN":"24鄰","STREET":"南興街","SECT":" ","MAREA":" ","LANE":" ","ALLEY":" ","HOUSE_NO":"２９２號","E_COORD97":175540.19,"N_COORD97":2541310.25,"ADDRESS":"南興街２９２號","OBJECTID":252347},"geometry":{"x":175540.19000000041,"y":2541310.2500000037}},{"attributes":{"ID":252352,"DIS_CODE":0,"TOWNNAME":"歸仁區","LI":"南興里","LIN":"24鄰","STREET":"文化二十街","SECT":" ","MAREA":" ","LANE":" ","ALLEY":" ","HOUSE_NO":"３２號","E_COORD97":175493.19,"N_COORD97":2541281.3300000001,"ADDRESS":"文化二十街３２號","OBJECTID":252348},"geometry":{"x":175493.18999999948,"y":2541281.3300000001}},{"attributes":{"ID":252353,"DIS_CODE":0,"TOWNNAME":"新營區","LI":"民榮里","LIN":"24鄰","STREET":"裕民路","SECT":" ","MAREA":" ","LANE":" ","ALLEY":" ","HOUSE_NO":"８號","E_COORD97":179132.48000000001,"N_COORD97":2577967.73,"ADDRESS":"裕民路８號","OBJECTID":252349},"geometry":{"x":179132.48000000045,"y":2577967.7300000042}},{"attributes":{"ID":252354,"DIS_CODE":0,"TOWNNAME":"新營區","LI":"民權里","LIN":"24鄰","STREET":"信義街","SECT":" ","MAREA":" ","LANE":" ","ALLEY":" ","HOUSE_NO":"８１之３號","E_COORD97":179742.64000000001,"N_COORD97":2578796.5899999999,"ADDRESS":"信義街８１之３號","OBJECTID":252350},"geometry":{"x":179742.64000000153,"y":2578796.5900000017}},{"attributes":{"ID":252355,"DIS_CODE":0,"TOWNNAME":"關廟區","LI":"埤頭里","LIN":"5鄰","STREET":"關新路","SECT":"二段","MAREA":" ","LANE":" ","ALLEY":" ","HOUSE_NO":"３６之７號","E_COORD97":179214.43027300001,"N_COORD97":2543989.31745,"ADDRESS":"關新路二段３６之７號","OBJECTID":252351},"geometry":{"x":179214.43027300108,"y":2543989.3174500018}},{"attributes":{"ID":252356,"DIS_CODE":0,"TOWNNAME":"新營區","LI":"新北里","LIN":"11鄰","STREET":"長榮路","SECT":"二段","MAREA":" ","LANE":"２９３巷","ALLEY":" ","HOUSE_NO":"６號","E_COORD97":179200.28,"N_COORD97":2579753.73,"ADDRESS":"長榮路二段２９３巷６號","OBJECTID":252352},"geometry":{"x":179200.28000000119,"y":2579753.7300000004}},{"attributes":{"ID":252357,"DIS_CODE":0,"TOWNNAME":"新營區","LI":"姑爺里","LIN":"11鄰","STREET":" ","SECT":" ","MAREA":"挖仔","LANE":" ","ALLEY":" ","HOUSE_NO":"４３之５０號","E_COORD97":173932.07999999999,"N_COORD97":2575607.0099999998,"ADDRESS":"挖仔４３之５０號","OBJECTID":252353},"geometry":{"x":173932.08000000007,"y":2575607.0100000016}},{"attributes":{"ID":252358,"DIS_CODE":0,"TOWNNAME":"新營區","LI":"太南里","LIN":"11鄰","STREET":" ","SECT":" ","MAREA":"太子宮","LANE":" ","ALLEY":" ","HOUSE_NO":"２５４之９號","E_COORD97":176077.09,"N_COORD97":2576766.75,"ADDRESS":"太子宮２５４之９號","OBJECTID":252354},"geometry":{"x":176077.09000000078,"y":2576766.7500000037}},{"attributes":{"ID":252359,"DIS_CODE":0,"TOWNNAME":"新營區","LI":"南興里","LIN":"11鄰","STREET":"和平路","SECT":" ","MAREA":" ","LANE":"１０４巷","ALLEY":" ","HOUSE_NO":"４６之１號","E_COORD97":179282.64999999999,"N_COORD97":2577569.5099999998,"ADDRESS":"和平路１０４巷４６之１號","OBJECTID":252355},"geometry":{"x":179282.6500000013,"y":2577569.5100000016}},{"attributes":{"ID":252360,"DIS_CODE":0,"TOWNNAME":"新營區","LI":"太北里","LIN":"11鄰","STREET":" ","SECT":" ","MAREA":"太子宮","LANE":" ","ALLEY":" ","HOUSE_NO":"８７號","E_COORD97":176046.17999999999,"N_COORD97":2577062.52,"ADDRESS":"太子宮８７號","OBJECTID":252356},"geometry":{"x":176046.1799999997,"y":2577062.5199999996}},{"attributes":{"ID":252361,"DIS_CODE":0,"TOWNNAME":"新營區","LI":"民權里","LIN":"11鄰","STREET":"信義街","SECT":" ","MAREA":" ","LANE":"５３巷","ALLEY":" ","HOUSE_NO":"２１號","E_COORD97":179823.60999999999,"N_COORD97":2578278.9700000002,"ADDRESS":"信義街５３巷２１號","OBJECTID":252357},"geometry":{"x":179823.61000000127,"y":2578278.9700000025}},{"attributes":{"ID":252362,"DIS_CODE":0,"TOWNNAME":"新營區","LI":"大宏里","LIN":"11鄰","STREET":"三民路","SECT":" ","MAREA":" ","LANE":"８巷","ALLEY":" ","HOUSE_NO":"３７號","E_COORD97":180481.76999999999,"N_COORD97":2578589.27,"ADDRESS":"三民路８巷３７號","OBJECTID":252358},"geometry":{"x":180481.76999999955,"y":2578589.2699999996}},{"attributes":{"ID":252363,"DIS_CODE":0,"TOWNNAME":"新營區","LI":"南興里","LIN":"11鄰","STREET":"和平路","SECT":" ","MAREA":" ","LANE":"１０４巷","ALLEY":" ","HOUSE_NO":"２６號","E_COORD97":179326.17000000001,"N_COORD97":2577568.1299999999,"ADDRESS":"和平路１０４巷２６號","OBJECTID":252359},"geometry":{"x":179326.17000000086,"y":2577568.1300000008}},{"attributes":{"ID":252364,"DIS_CODE":0,"TOWNNAME":"新營區","LI":"新東里","LIN":"11鄰","STREET":"東泰八街","SECT":" ","MAREA":" ","LANE":"９巷","ALLEY":" ","HOUSE_NO":"３２號","E_COORD97":181209.45999999999,"N_COORD97":2579785.25,"ADDRESS":"東泰八街９巷３２號","OBJECTID":252360},"geometry":{"x":181209.46000000089,"y":2579785.2500000019}},{"attributes":{"ID":252365,"DIS_CODE":0,"TOWNNAME":"新營區","LI":"興安里","LIN":"11鄰","STREET":"新進路","SECT":" ","MAREA":" ","LANE":"３４５巷","ALLEY":" ","HOUSE_NO":"６號","E_COORD97":179873.89000000001,"N_COORD97":2577726.1099999999,"ADDRESS":"新進路３４５巷６號","OBJECTID":252361},"geometry":{"x":179873.8900000006,"y":2577726.1099999994}},{"attributes":{"ID":252366,"DIS_CODE":0,"TOWNNAME":"新營區","LI":"延平里","LIN":"11鄰","STREET":"成功街","SECT":" ","MAREA":" ","LANE":"５７巷","ALLEY":" ","HOUSE_NO":"３號","E_COORD97":179608.71651900001,"N_COORD97":2577909.8506900002,"ADDRESS":"成功街５７巷３號","OBJECTID":252362},"geometry":{"x":179608.71651900001,"y":2577909.8506860025}},{"attributes":{"ID":252367,"DIS_CODE":0,"TOWNNAME":"新營區","LI":"忠政里","LIN":"24鄰","STREET":"健康路","SECT":" ","MAREA":" ","LANE":" ","ALLEY":" ","HOUSE_NO":"１８號","E_COORD97":179691.53,"N_COORD97":2578914.1600000001,"ADDRESS":"健康路１８號","OBJECTID":252363},"geometry":{"x":179691.53000000212,"y":2578914.160000002}},{"attributes":{"ID":252368,"DIS_CODE":0,"TOWNNAME":"新營區","LI":"忠政里","LIN":"24鄰","STREET":"健康路","SECT":" ","MAREA":" ","LANE":" ","ALLEY":" ","HOUSE_NO":"１９８號","E_COORD97":179671.51000000001,"N_COORD97":2579388.2599999998,"ADDRESS":"健康路１９８號","OBJECTID":252364},"geometry":{"x":179671.51000000071,"y":2579388.2600000016}},{"attributes":{"ID":252369,"DIS_CODE":0,"TOWNNAME":"新營區","LI":"忠政里","LIN":"24鄰","STREET":"健康路","SECT":" ","MAREA":" ","LANE":" ","ALLEY":" ","HOUSE_NO":"１９６號","E_COORD97":179671.48999999999,"N_COORD97":2579383.8300000001,"ADDRESS":"健康路１９６號","OBJECTID":252365},"geometry":{"x":179671.49000000209,"y":2579383.8300000038}},{"attributes":{"ID":252370,"DIS_CODE":0,"TOWNNAME":"新營區","LI":"忠政里","LIN":"24鄰","STREET":"健康路","SECT":" ","MAREA":" ","LANE":" ","ALLEY":" ","HOUSE_NO":"２６４號","E_COORD97":179671.29999999999,"N_COORD97":2579544.3999999999,"ADDRESS":"健康路２６４號","OBJECTID":252366},"geometry":{"x":179671.30000000075,"y":2579544.4000000022}},{"attributes":{"ID":252371,"DIS_CODE":0,"TOWNNAME":"歸仁區","LI":"大廟里","LIN":"24鄰","STREET":"和順路","SECT":"二段","MAREA":" ","LANE":" ","ALLEY":" ","HOUSE_NO":"３６２號","E_COORD97":175558.14000000001,"N_COORD97":2543587.2799999998,"ADDRESS":"和順路二段３６２號","OBJECTID":252367},"geometry":{"x":175558.13999999966,"y":2543587.2799999993}},{"attributes":{"ID":252372,"DIS_CODE":0,"TOWNNAME":"歸仁區","LI":"六甲里","LIN":"24鄰","STREET":"中正十八街","SECT":" ","MAREA":" ","LANE":" ","ALLEY":" ","HOUSE_NO":"３８號","E_COORD97":176314.334634,"N_COORD97":2539601.9437299999,"ADDRESS":"中正十八街３８號","OBJECTID":252368},"geometry":{"x":176314.33463400044,"y":2539601.9437340014}},{"attributes":{"ID":252373,"DIS_CODE":0,"TOWNNAME":"歸仁區","LI":"大廟里","LIN":"24鄰","STREET":"和順路","SECT":"二段","MAREA":" ","LANE":" ","ALLEY":" ","HOUSE_NO":"３７０號","E_COORD97":175540.64000000001,"N_COORD97":2543584.2799999998,"ADDRESS":"和順路二段３７０號","OBJECTID":252369},"geometry":{"x":175540.6400000006,"y":2543584.2800000031}},{"attributes":{"ID":252374,"DIS_CODE":0,"TOWNNAME":"歸仁區","LI":"六甲里","LIN":"24鄰","STREET":"中正十八街","SECT":" ","MAREA":" ","LANE":" ","ALLEY":" ","HOUSE_NO":"３３號","E_COORD97":176329.91,"N_COORD97":2539614.25,"ADDRESS":"中正十八街３３號","OBJECTID":252370},"geometry":{"x":176329.91000000015,"y":2539614.25}},{"attributes":{"ID":252375,"DIS_CODE":0,"TOWNNAME":"歸仁區","LI":"南興里","LIN":"24鄰","STREET":"南興街","SECT":" ","MAREA":" ","LANE":" ","ALLEY":" ","HOUSE_NO":"２９４號","E_COORD97":175539.19,"N_COORD97":2541306.25,"ADDRESS":"南興街２９４號","OBJECTID":252371},"geometry":{"x":175539.19000000227,"y":2541306.25}},{"attributes":{"ID":252376,"DIS_CODE":0,"TOWNNAME":"新營區","LI":"大宏里","LIN":"11鄰","STREET":"三民路","SECT":" ","MAREA":" ","LANE":"８巷","ALLEY":" ","HOUSE_NO":"２５號","E_COORD97":180500.06,"N_COORD97":2578568.1499999999,"ADDRESS":"三民路８巷２５號","OBJECTID":252372},"geometry":{"x":180500.05999999959,"y":2578568.1500000041}},{"attributes":{"ID":252377,"DIS_CODE":0,"TOWNNAME":"新營區","LI":"太南里","LIN":"11鄰","STREET":" ","SECT":" ","MAREA":"太子宮","LANE":" ","ALLEY":" ","HOUSE_NO":"２６３號","E_COORD97":176142.45000000001,"N_COORD97":2576835.02,"ADDRESS":"太子宮２６３號","OBJECTID":252373},"geometry":{"x":176142.45000000112,"y":2576835.0199999996}},{"attributes":{"ID":252378,"DIS_CODE":0,"TOWNNAME":"新營區","LI":"新東里","LIN":"11鄰","STREET":"東泰八街","SECT":" ","MAREA":" ","LANE":"９巷","ALLEY":" ","HOUSE_NO":"２０號","E_COORD97":181177.73000000001,"N_COORD97":2579785.3900000001,"ADDRESS":"東泰八街９巷２０號","OBJECTID":252374},"geometry":{"x":181177.73000000138,"y":2579785.3900000025}},{"attributes":{"ID":252379,"DIS_CODE":0,"TOWNNAME":"新營區","LI":"埤寮里","LIN":"11鄰","STREET":" ","SECT":" ","MAREA":"埤寮","LANE":" ","ALLEY":" ","HOUSE_NO":"８５號","E_COORD97":180481.85999999999,"N_COORD97":2580791.9900000002,"ADDRESS":"埤寮８５號","OBJECTID":252375},"geometry":{"x":180481.86000000034,"y":2580791.9900000002}},{"attributes":{"ID":252380,"DIS_CODE":0,"TOWNNAME":"新營區","LI":"姑爺里","LIN":"11鄰","STREET":" ","SECT":" ","MAREA":"挖仔","LANE":" ","ALLEY":" ","HOUSE_NO":"３８號","E_COORD97":173881.32000000001,"N_COORD97":2575415.6200000001,"ADDRESS":"挖仔３８號","OBJECTID":252376},"geometry":{"x":173881.3200000003,"y":2575415.620000001}},{"attributes":{"ID":252381,"DIS_CODE":0,"TOWNNAME":"新營區","LI":"姑爺里","LIN":"11鄰","STREET":" ","SECT":" ","MAREA":"挖仔","LANE":" ","ALLEY":" ","HOUSE_NO":"４０之６號","E_COORD97":174003.29000000001,"N_COORD97":2575371.8599999999,"ADDRESS":"挖仔４０之６號","OBJECTID":252377},"geometry":{"x":174003.29000000004,"y":2575371.8599999975}},{"attributes":{"ID":252382,"DIS_CODE":0,"TOWNNAME":"新營區","LI":"姑爺里","LIN":"11鄰","STREET":" ","SECT":" ","MAREA":"挖仔","LANE":" ","ALLEY":" ","HOUSE_NO":"４３之４３號","E_COORD97":173952.57999999999,"N_COORD97":2575615.7799999998,"ADDRESS":"挖仔４３之４３號","OBJECTID":252378},"geometry":{"x":173952.58000000007,"y":2575615.7799999993}},{"attributes":{"ID":252383,"DIS_CODE":0,"TOWNNAME":"新營區","LI":"新東里","LIN":"11鄰","STREET":"東泰八街","SECT":" ","MAREA":" ","LANE":"２巷","ALLEY":" ","HOUSE_NO":"１１號","E_COORD97":181155.87,"N_COORD97":2579717.9399999999,"ADDRESS":"東泰八街２巷１１號","OBJECTID":252379},"geometry":{"x":181155.87000000104,"y":2579717.9400000032}},{"attributes":{"ID":252384,"DIS_CODE":0,"TOWNNAME":"新營區","LI":"三仙里","LIN":"11鄰","STREET":"民權路","SECT":" ","MAREA":" ","LANE":"４１巷","ALLEY":" ","HOUSE_NO":"５號之３","E_COORD97":179660.79999999999,"N_COORD97":2578263.1800000002,"ADDRESS":"民權路４１巷５號之３","OBJECTID":252380},"geometry":{"x":179660.80000000075,"y":2578263.1800000016}},{"attributes":{"ID":252385,"DIS_CODE":0,"TOWNNAME":"新營區","LI":"興業里","LIN":"11鄰","STREET":"中興路","SECT":" ","MAREA":" ","LANE":"１３巷","ALLEY":" ","HOUSE_NO":"２３之３號","E_COORD97":180248.16,"N_COORD97":2577978.0099999998,"ADDRESS":"中興路１３巷２３之３號","OBJECTID":252381},"geometry":{"x":180248.16000000201,"y":2577978.0099999998}},{"attributes":{"ID":252386,"DIS_CODE":0,"TOWNNAME":"新營區","LI":"永生里","LIN":"11鄰","STREET":"新進路","SECT":" ","MAREA":" ","LANE":"３１８巷","ALLEY":" ","HOUSE_NO":"１１號","E_COORD97":179999.62,"N_COORD97":2577877.23,"ADDRESS":"新進路３１８巷１１號","OBJECTID":252382},"geometry":{"x":179999.62000000104,"y":2577877.2300000023}},{"attributes":{"ID":252387,"DIS_CODE":0,"TOWNNAME":"新營區","LI":"三仙里","LIN":"11鄰","STREET":"民權路","SECT":" ","MAREA":" ","LANE":"４１巷","ALLEY":" ","HOUSE_NO":"１號","E_COORD97":179681.07999999999,"N_COORD97":2578267.4500000002,"ADDRESS":"民權路４１巷１號","OBJECTID":252383},"geometry":{"x":179681.08000000101,"y":2578267.4500000011}},{"attributes":{"ID":252388,"DIS_CODE":0,"TOWNNAME":"南區","LI":"喜南里","LIN":"11鄰","STREET":"喜樹路","SECT":" ","MAREA":" ","LANE":"２５４巷","ALLEY":" ","HOUSE_NO":"１號","E_COORD97":165676.04999999999,"N_COORD97":2537915.8399999999,"ADDRESS":"喜樹路２５４巷１號","OBJECTID":252384},"geometry":{"x":165676.04999999981,"y":2537915.8400000036}},{"attributes":{"ID":252389,"DIS_CODE":0,"TOWNNAME":"永康區","LI":"中華里","LIN":"14鄰","STREET":"忠義街","SECT":" ","MAREA":" ","LANE":"４４巷","ALLEY":" ","HOUSE_NO":"１２號","E_COORD97":171755.92000000001,"N_COORD97":2544463.27,"ADDRESS":"忠義街４４巷１２號","OBJECTID":252385},"geometry":{"x":171755.91999999993,"y":2544463.2700000014}},{"attributes":{"ID":252390,"DIS_CODE":0,"TOWNNAME":"永康區","LI":"復華里","LIN":"14鄰","STREET":"國華街","SECT":" ","MAREA":" ","LANE":"９４巷","ALLEY":" ","HOUSE_NO":"２０號","E_COORD97":172912.20999999999,"N_COORD97":2545889.25,"ADDRESS":"國華街９４巷２０號","OBJECTID":252386},"geometry":{"x":172912.20999999996,"y":2545889.25}},{"attributes":{"ID":252391,"DIS_CODE":0,"TOWNNAME":"永康區","LI":"復華里","LIN":"14鄰","STREET":"國華街","SECT":" ","MAREA":" ","LANE":"９４巷","ALLEY":" ","HOUSE_NO":"１１號","E_COORD97":172889.57000000001,"N_COORD97":2545900.25,"ADDRESS":"國華街９４巷１１號","OBJECTID":252387},"geometry":{"x":172889.5700000003,"y":2545900.25}},{"attributes":{"ID":252392,"DIS_CODE":0,"TOWNNAME":"關廟區","LI":"東勢里","LIN":"24鄰","STREET":"東安街","SECT":" ","MAREA":" ","LANE":" ","ALLEY":" ","HOUSE_NO":"２３８號","E_COORD97":181587.67000000001,"N_COORD97":2539358.3199999998,"ADDRESS":"東安街２３８號","OBJECTID":252388},"geometry":{"x":181587.67000000086,"y":2539358.3200000022}},{"attributes":{"ID":252393,"DIS_CODE":0,"TOWNNAME":"關廟區","LI":"香洋里","LIN":"24鄰","STREET":"民族街","SECT":" ","MAREA":" ","LANE":" ","ALLEY":" ","HOUSE_NO":"１６７號","E_COORD97":181210.29000000001,"N_COORD97":2539888.29,"ADDRESS":"民族街１６７號","OBJECTID":252389},"geometry":{"x":181210.29000000097,"y":2539888.2899999972}},{"attributes":{"ID":252394,"DIS_CODE":0,"TOWNNAME":"關廟區","LI":"香洋里","LIN":"24鄰","STREET":"民族街","SECT":" ","MAREA":" ","LANE":" ","ALLEY":" ","HOUSE_NO":"２３２號","E_COORD97":181214.09,"N_COORD97":2539902.29,"ADDRESS":"民族街２３２號","OBJECTID":252390},"geometry":{"x":181214.08999999985,"y":2539902.2900000028}},{"attributes":{"ID":252395,"DIS_CODE":0,"TOWNNAME":"關廟區","LI":"香洋里","LIN":"24鄰","STREET":"中山路","SECT":"一段","MAREA":" ","LANE":" ","ALLEY":" ","HOUSE_NO":"２８１號","E_COORD97":181277.56,"N_COORD97":2539924.2799999998,"ADDRESS":"中山路一段２８１號","OBJECTID":252391},"geometry":{"x":181277.56000000052,"y":2539924.2800000012}},{"attributes":{"ID":252396,"DIS_CODE":0,"TOWNNAME":"關廟區","LI":"東勢里","LIN":"24鄰","STREET":"東安街","SECT":" ","MAREA":" ","LANE":" ","ALLEY":" ","HOUSE_NO":"２３１號","E_COORD97":181600.67000000001,"N_COORD97":2539371.3199999998,"ADDRESS":"東安街２３１號","OBJECTID":252392},"geometry":{"x":181600.67000000179,"y":2539371.3200000022}},{"attributes":{"ID":252397,"DIS_CODE":0,"TOWNNAME":"關廟區","LI":"香洋里","LIN":"24鄰","STREET":"中山路","SECT":"一段","MAREA":" ","LANE":" ","ALLEY":" ","HOUSE_NO":"４０３號","E_COORD97":181091.04999999999,"N_COORD97":2539980.9399999999,"ADDRESS":"中山路一段４０３號","OBJECTID":252393},"geometry":{"x":181091.04999999888,"y":2539980.9400000013}},{"attributes":{"ID":252398,"DIS_CODE":0,"TOWNNAME":"關廟區","LI":"香洋里","LIN":"24鄰","STREET":"民族街","SECT":" ","MAREA":" ","LANE":" ","ALLEY":" ","HOUSE_NO":"２５０號","E_COORD97":181178.79000000001,"N_COORD97":2539908.29,"ADDRESS":"民族街２５０號","OBJECTID":252394},"geometry":{"x":181178.79000000004,"y":2539908.2899999991}},{"attributes":{"ID":252399,"DIS_CODE":0,"TOWNNAME":"關廟區","LI":"香洋里","LIN":"24鄰","STREET":"民族街","SECT":" ","MAREA":" ","LANE":" ","ALLEY":" ","HOUSE_NO":"１５３號","E_COORD97":181242.89000000001,"N_COORD97":2539881.29,"ADDRESS":"民族街１５３號","OBJECTID":252395},"geometry":{"x":181242.89000000153,"y":2539881.2899999991}},{"attributes":{"ID":252400,"DIS_CODE":0,"TOWNNAME":"新營區","LI":"新東里","LIN":"11鄰","STREET":"東泰八街","SECT":" ","MAREA":" ","LANE":" ","ALLEY":" ","HOUSE_NO":"３３號","E_COORD97":181210.34,"N_COORD97":2579755.3300000001,"ADDRESS":"東泰八街３３號","OBJECTID":252396},"geometry":{"x":181210.34000000078,"y":2579755.3300000001}},{"attributes":{"ID":252401,"DIS_CODE":0,"TOWNNAME":"安平區","LI":"華平里","LIN":"11鄰","STREET":"怡平路","SECT":" ","MAREA":" ","LANE":"４４２巷","ALLEY":" ","HOUSE_NO":"１０２號","E_COORD97":165325.15427999999,"N_COORD97":2544069.1205799999,"ADDRESS":"怡平路４４２巷１０２號","OBJECTID":252397},"geometry":{"x":165325.1542800013,"y":2544069.1205830015}},{"attributes":{"ID":252402,"DIS_CODE":0,"TOWNNAME":"安平區","LI":"華平里","LIN":"11鄰","STREET":"怡平路","SECT":" ","MAREA":" ","LANE":"４４２巷","ALLEY":" ","HOUSE_NO":"１０４號","E_COORD97":165325.789976,"N_COORD97":2544073.67141,"ADDRESS":"怡平路４４２巷１０４號","OBJECTID":252398},"geometry":{"x":165325.78997600079,"y":2544073.6714140009}},{"attributes":{"ID":252403,"DIS_CODE":0,"TOWNNAME":"安平區","LI":"華平里","LIN":"11鄰","STREET":"怡平路","SECT":" ","MAREA":" ","LANE":"４４２巷","ALLEY":" ","HOUSE_NO":"１１２號","E_COORD97":165328.12086,"N_COORD97":2544094.7322399998,"ADDRESS":"怡平路４４２巷１１２號","OBJECTID":252399},"geometry":{"x":165328.12086000107,"y":2544094.7322360035}},{"attributes":{"ID":252404,"DIS_CODE":0,"TOWNNAME":"安平區","LI":"華平里","LIN":"11鄰","STREET":"怡平路","SECT":" ","MAREA":" ","LANE":"４４２巷","ALLEY":" ","HOUSE_NO":"８０號","E_COORD97":165317.20999999999,"N_COORD97":2544015.96,"ADDRESS":"怡平路４４２巷８０號","OBJECTID":252400},"geometry":{"x":165317.21000000089,"y":2544015.9600000028}}]}