{"displayFieldName":"TOWNNAME","fieldAliases":{"ID":"ID","DIS_CODE":"DIS_CODE","TOWNNAME":"TOWNNAME","LI":"LI","LIN":"LIN","STREET":"STREET","SECT":"SECT","MAREA":"MAREA","LANE":"LANE","ALLEY":"ALLEY","HOUSE_NO":"HOUSE_NO","E_COORD97":"E_COORD97","N_COORD97":"N_COORD97","ADDRESS":"ADDRESS","OBJECTID":"OBJECTID"},"geometryType":"esriGeometryPoint","spatialReference":{"wkid":102443,"latestWkid":3826},"fields":[{"name":"ID","type":"esriFieldTypeDouble","alias":"ID"},{"name":"DIS_CODE","type":"esriFieldTypeInteger","alias":"DIS_CODE"},{"name":"TOWNNAME","type":"esriFieldTypeString","alias":"TOWNNAME","length":8},{"name":"LI","type":"esriFieldTypeString","alias":"LI","length":8},{"name":"LIN","type":"esriFieldTypeString","alias":"LIN","length":12},{"name":"STREET","type":"esriFieldTypeString","alias":"STREET","length":20},{"name":"SECT","type":"esriFieldTypeString","alias":"SECT","length":8},{"name":"MAREA","type":"esriFieldTypeString","alias":"MAREA","length":12},{"name":"LANE","type":"esriFieldTypeString","alias":"LANE","length":10},{"name":"ALLEY","type":"esriFieldTypeString","alias":"ALLEY","length":10},{"name":"HOUSE_NO","type":"esriFieldTypeString","alias":"HOUSE_NO","length":20},{"name":"E_COORD97","type":"esriFieldTypeDouble","alias":"E_COORD97"},{"name":"N_COORD97","type":"esriFieldTypeDouble","alias":"N_COORD97"},{"name":"ADDRESS","type":"esriFieldTypeString","alias":"ADDRESS","length":50},{"name":"OBJECTID","type":"esriFieldTypeOID","alias":"OBJECTID"}],"features":[{"attributes":{"ID":75001,"DIS_CODE":0,"TOWNNAME":"安定區","LI":"港尾里","LIN":"7鄰","STREET":" ","SECT":" ","MAREA":"港子尾","LANE":" ","ALLEY":" ","HOUSE_NO":"３９之１號","E_COORD97":171615.98999999999,"N_COORD97":2556013.21,"ADDRESS":"港子尾３９之１號","OBJECTID":75001},"geometry":{"x":171615.99000000115,"y":2556013.2100000028}},{"attributes":{"ID":75002,"DIS_CODE":0,"TOWNNAME":"安定區","LI":"新吉里","LIN":"7鄰","STREET":" ","SECT":" ","MAREA":"新吉","LANE":" ","ALLEY":" ","HOUSE_NO":"５８之１６號","E_COORD97":168788.75,"N_COORD97":2553726.1299999999,"ADDRESS":"新吉５８之１６號","OBJECTID":75002},"geometry":{"x":168788.75000000093,"y":2553726.1300000008}},{"attributes":{"ID":75003,"DIS_CODE":0,"TOWNNAME":"永康區","LI":"永康里","LIN":"30鄰","STREET":"永華路","SECT":" ","MAREA":" ","LANE":"７０２巷","ALLEY":"３５弄","HOUSE_NO":"１５號","E_COORD97":174155.98000000001,"N_COORD97":2547100.4900000002,"ADDRESS":"永華路７０２巷３５弄１５號","OBJECTID":75003},"geometry":{"x":174155.98000000138,"y":2547100.4900000021}},{"attributes":{"ID":75004,"DIS_CODE":0,"TOWNNAME":"永康區","LI":"北灣里","LIN":"30鄰","STREET":"大同街","SECT":" ","MAREA":" ","LANE":"３３巷","ALLEY":"１１弄","HOUSE_NO":"１３號","E_COORD97":175309.87,"N_COORD97":2545367.3500000001,"ADDRESS":"大同街３３巷１１弄１３號","OBJECTID":75004},"geometry":{"x":175309.87000000011,"y":2545367.3500000034}},{"attributes":{"ID":75005,"DIS_CODE":0,"TOWNNAME":"永康區","LI":"尚頂里","LIN":"30鄰","STREET":"中正南路","SECT":" ","MAREA":" ","LANE":"２３５巷","ALLEY":"３弄","HOUSE_NO":"２號","E_COORD97":169957.45000000001,"N_COORD97":2547300.1600000001,"ADDRESS":"中正南路２３５巷３弄２號","OBJECTID":75005},"geometry":{"x":169957.45000000019,"y":2547300.1600000001}},{"attributes":{"ID":75006,"DIS_CODE":0,"TOWNNAME":"永康區","LI":"復興里","LIN":"30鄰","STREET":"復興路","SECT":" ","MAREA":" ","LANE":"３５６巷","ALLEY":"８０弄","HOUSE_NO":"１１３號","E_COORD97":172483.35000000001,"N_COORD97":2544647.2799999998,"ADDRESS":"復興路３５６巷８０弄１１３號","OBJECTID":75006},"geometry":{"x":172483.34999999963,"y":2544647.2799999993}},{"attributes":{"ID":75007,"DIS_CODE":0,"TOWNNAME":"永康區","LI":"復國里","LIN":"30鄰","STREET":"復國一路","SECT":" ","MAREA":" ","LANE":"１７３巷","ALLEY":"６２弄","HOUSE_NO":"６號之２","E_COORD97":172582.81,"N_COORD97":2545247.52,"ADDRESS":"復國一路１７３巷６２弄６號之２","OBJECTID":75007},"geometry":{"x":172582.81000000052,"y":2545247.5200000033}},{"attributes":{"ID":75008,"DIS_CODE":0,"TOWNNAME":"永康區","LI":"成功里","LIN":"30鄰","STREET":"中華路","SECT":" ","MAREA":" ","LANE":"１３４巷","ALLEY":"５８弄","HOUSE_NO":"５號","E_COORD97":171828.26000000001,"N_COORD97":2544778.25,"ADDRESS":"中華路１３４巷５８弄５號","OBJECTID":75008},"geometry":{"x":171828.25999999978,"y":2544778.25}},{"attributes":{"ID":75009,"DIS_CODE":0,"TOWNNAME":"永康區","LI":"復國里","LIN":"30鄰","STREET":"復國一路","SECT":" ","MAREA":" ","LANE":"１７３巷","ALLEY":"６２弄","HOUSE_NO":"１４號","E_COORD97":172554.84,"N_COORD97":2545269.02,"ADDRESS":"復國一路１７３巷６２弄１４號","OBJECTID":75009},"geometry":{"x":172554.83999999985,"y":2545269.0200000014}},{"attributes":{"ID":75010,"DIS_CODE":0,"TOWNNAME":"永康區","LI":"埔園里","LIN":"30鄰","STREET":"龍埔街","SECT":" ","MAREA":" ","LANE":"４３０巷","ALLEY":"３５弄","HOUSE_NO":"４６號","E_COORD97":173904.07999999999,"N_COORD97":2548517,"ADDRESS":"龍埔街４３０巷３５弄４６號","OBJECTID":75010},"geometry":{"x":173904.08000000101,"y":2548517.0000000019}},{"attributes":{"ID":75011,"DIS_CODE":0,"TOWNNAME":"永康區","LI":"埔園里","LIN":"30鄰","STREET":"龍埔街","SECT":" ","MAREA":" ","LANE":"４８６巷","ALLEY":"６弄","HOUSE_NO":"２３號","E_COORD97":173832.04000000001,"N_COORD97":2548439.7400000002,"ADDRESS":"龍埔街４８６巷６弄２３號","OBJECTID":75011},"geometry":{"x":173832.04000000004,"y":2548439.7400000002}},{"attributes":{"ID":75012,"DIS_CODE":0,"TOWNNAME":"永康區","LI":"復興里","LIN":"30鄰","STREET":"復興路","SECT":" ","MAREA":" ","LANE":"３５６巷","ALLEY":"８０弄","HOUSE_NO":"１４５號","E_COORD97":172562.42999999999,"N_COORD97":2544629.02,"ADDRESS":"復興路３５６巷８０弄１４５號","OBJECTID":75012},"geometry":{"x":172562.43000000063,"y":2544629.0199999996}},{"attributes":{"ID":75013,"DIS_CODE":0,"TOWNNAME":"新市區","LI":"新和里","LIN":"7鄰","STREET":"富強路","SECT":" ","MAREA":" ","LANE":" ","ALLEY":" ","HOUSE_NO":"４３號","E_COORD97":177294.01000000001,"N_COORD97":2552426,"ADDRESS":"富強路４３號","OBJECTID":75013},"geometry":{"x":177294.00999999885,"y":2552426.0000000019}},{"attributes":{"ID":75014,"DIS_CODE":0,"TOWNNAME":"安定區","LI":"新吉里","LIN":"7鄰","STREET":" ","SECT":" ","MAREA":"新吉","LANE":" ","ALLEY":" ","HOUSE_NO":"５５之３９號","E_COORD97":168770.73999999999,"N_COORD97":2553977.1499999999,"ADDRESS":"新吉５５之３９號","OBJECTID":75014},"geometry":{"x":168770.74000000022,"y":2553977.1500000004}},{"attributes":{"ID":75015,"DIS_CODE":0,"TOWNNAME":"新市區","LI":"潭頂里","LIN":"7鄰","STREET":" ","SECT":" ","MAREA":"潭頂","LANE":" ","ALLEY":" ","HOUSE_NO":"２８５號","E_COORD97":180723.87,"N_COORD97":2552843.5,"ADDRESS":"潭頂２８５號","OBJECTID":75015},"geometry":{"x":180723.87000000104,"y":2552843.5000000019}},{"attributes":{"ID":75016,"DIS_CODE":0,"TOWNNAME":"南化區","LI":"關山里","LIN":"6鄰","STREET":" ","SECT":" ","MAREA":"西阿里關","LANE":" ","ALLEY":" ","HOUSE_NO":"１３５號之１","E_COORD97":209840.53,"N_COORD97":2566830.7999999998,"ADDRESS":"西阿里關１３５號之１","OBJECTID":75016},"geometry":{"x":209840.53000000212,"y":2566830.8000000026}},{"attributes":{"ID":75017,"DIS_CODE":0,"TOWNNAME":"南化區","LI":"關山里","LIN":"6鄰","STREET":" ","SECT":" ","MAREA":"西阿里關","LANE":" ","ALLEY":" ","HOUSE_NO":"１３２號","E_COORD97":209698.69,"N_COORD97":2566413.75,"ADDRESS":"西阿里關１３２號","OBJECTID":75017},"geometry":{"x":209698.68999999948,"y":2566413.7500000019}},{"attributes":{"ID":75018,"DIS_CODE":0,"TOWNNAME":"南化區","LI":"關山里","LIN":"6鄰","STREET":" ","SECT":" ","MAREA":"西阿里關","LANE":" ","ALLEY":" ","HOUSE_NO":"１２６號","E_COORD97":209889.39000000001,"N_COORD97":2565965.75,"ADDRESS":"西阿里關１２６號","OBJECTID":75018},"geometry":{"x":209889.38999999966,"y":2565965.7500000019}},{"attributes":{"ID":75019,"DIS_CODE":0,"TOWNNAME":"南化區","LI":"關山里","LIN":"6鄰","STREET":" ","SECT":" ","MAREA":"西阿里關","LANE":" ","ALLEY":" ","HOUSE_NO":"１３３號","E_COORD97":209776.98999999999,"N_COORD97":2566350.75,"ADDRESS":"西阿里關１３３號","OBJECTID":75019},"geometry":{"x":209776.99000000115,"y":2566350.75}},{"attributes":{"ID":75020,"DIS_CODE":0,"TOWNNAME":"南化區","LI":"關山里","LIN":"6鄰","STREET":" ","SECT":" ","MAREA":"西阿里關","LANE":" ","ALLEY":" ","HOUSE_NO":"１２３號","E_COORD97":209823.89000000001,"N_COORD97":2565760.75,"ADDRESS":"西阿里關１２３號","OBJECTID":75020},"geometry":{"x":209823.89000000153,"y":2565760.75}},{"attributes":{"ID":75021,"DIS_CODE":0,"TOWNNAME":"南化區","LI":"關山里","LIN":"6鄰","STREET":" ","SECT":" ","MAREA":"西阿里關","LANE":" ","ALLEY":" ","HOUSE_NO":"１３８號","E_COORD97":209826.19,"N_COORD97":2567229.75,"ADDRESS":"西阿里關１３８號","OBJECTID":75021},"geometry":{"x":209826.19000000134,"y":2567229.7500000037}},{"attributes":{"ID":75022,"DIS_CODE":0,"TOWNNAME":"南化區","LI":"關山里","LIN":"6鄰","STREET":" ","SECT":" ","MAREA":"西阿里關","LANE":" ","ALLEY":" ","HOUSE_NO":"１３４號","E_COORD97":209869.59,"N_COORD97":2566355.75,"ADDRESS":"西阿里關１３４號","OBJECTID":75022},"geometry":{"x":209869.58999999985,"y":2566355.7500000019}},{"attributes":{"ID":75023,"DIS_CODE":0,"TOWNNAME":"南化區","LI":"關山里","LIN":"6鄰","STREET":" ","SECT":" ","MAREA":"西阿里關","LANE":" ","ALLEY":" ","HOUSE_NO":"１２５號","E_COORD97":209902.39000000001,"N_COORD97":2565864.75,"ADDRESS":"西阿里關１２５號","OBJECTID":75023},"geometry":{"x":209902.3900000006,"y":2565864.7500000019}},{"attributes":{"ID":75024,"DIS_CODE":0,"TOWNNAME":"南化區","LI":"關山里","LIN":"6鄰","STREET":" ","SECT":" ","MAREA":"西阿里關","LANE":" ","ALLEY":" ","HOUSE_NO":"１３２號之２","E_COORD97":209722.35999999999,"N_COORD97":2566560.79,"ADDRESS":"西阿里關１３２號之２","OBJECTID":75024},"geometry":{"x":209722.36000000034,"y":2566560.7900000028}},{"attributes":{"ID":75025,"DIS_CODE":0,"TOWNNAME":"南化區","LI":"關山里","LIN":"6鄰","STREET":" ","SECT":" ","MAREA":"西阿里關","LANE":" ","ALLEY":" ","HOUSE_NO":"１３６號","E_COORD97":209989.89000000001,"N_COORD97":2567096.75,"ADDRESS":"西阿里關１３６號","OBJECTID":75025},"geometry":{"x":209989.89000000153,"y":2567096.75}},{"attributes":{"ID":75026,"DIS_CODE":0,"TOWNNAME":"南化區","LI":"關山里","LIN":"6鄰","STREET":" ","SECT":" ","MAREA":"西阿里關","LANE":" ","ALLEY":" ","HOUSE_NO":"１４０號","E_COORD97":209582.59,"N_COORD97":2567021.75,"ADDRESS":"西阿里關１４０號","OBJECTID":75026},"geometry":{"x":209582.59000000078,"y":2567021.75}},{"attributes":{"ID":75027,"DIS_CODE":0,"TOWNNAME":"南化區","LI":"關山里","LIN":"6鄰","STREET":" ","SECT":" ","MAREA":"西阿里關","LANE":" ","ALLEY":" ","HOUSE_NO":"１３３號之１","E_COORD97":209789.42999999999,"N_COORD97":2566487.7999999998,"ADDRESS":"西阿里關１３３號之１","OBJECTID":75027},"geometry":{"x":209789.4299999997,"y":2566487.8000000045}},{"attributes":{"ID":75028,"DIS_CODE":0,"TOWNNAME":"南化區","LI":"關山里","LIN":"6鄰","STREET":" ","SECT":" ","MAREA":"西阿里關","LANE":" ","ALLEY":" ","HOUSE_NO":"１３２之１號","E_COORD97":209740.89000000001,"N_COORD97":2566446.79,"ADDRESS":"西阿里關１３２之１號","OBJECTID":75028},"geometry":{"x":209740.8900000006,"y":2566446.790000001}},{"attributes":{"ID":75029,"DIS_CODE":0,"TOWNNAME":"南化區","LI":"西埔里","LIN":"6鄰","STREET":" ","SECT":" ","MAREA":"西埔","LANE":" ","ALLEY":" ","HOUSE_NO":"４３號","E_COORD97":194567.23999999999,"N_COORD97":2548320.75,"ADDRESS":"西埔４３號","OBJECTID":75029},"geometry":{"x":194567.24000000115,"y":2548320.75}},{"attributes":{"ID":75030,"DIS_CODE":0,"TOWNNAME":"南化區","LI":"玉山里","LIN":"6鄰","STREET":" ","SECT":" ","MAREA":"玉山","LANE":" ","ALLEY":" ","HOUSE_NO":"５７號之６","E_COORD97":200759.70999999999,"N_COORD97":2552747.7999999998,"ADDRESS":"玉山５７號之６","OBJECTID":75030},"geometry":{"x":200759.71000000089,"y":2552747.8000000026}},{"attributes":{"ID":75031,"DIS_CODE":0,"TOWNNAME":"南化區","LI":"玉山里","LIN":"6鄰","STREET":" ","SECT":" ","MAREA":"玉山","LANE":" ","ALLEY":" ","HOUSE_NO":"５５號之１","E_COORD97":200774.70000000001,"N_COORD97":2552714.7999999998,"ADDRESS":"玉山５５號之１","OBJECTID":75031},"geometry":{"x":200774.70000000019,"y":2552714.8000000007}},{"attributes":{"ID":75032,"DIS_CODE":0,"TOWNNAME":"南化區","LI":"小崙里","LIN":"6鄰","STREET":" ","SECT":" ","MAREA":"小崙","LANE":" ","ALLEY":" ","HOUSE_NO":"５９號","E_COORD97":197351.37,"N_COORD97":2549965.75,"ADDRESS":"小崙５９號","OBJECTID":75032},"geometry":{"x":197351.37000000104,"y":2549965.7500000037}},{"attributes":{"ID":75033,"DIS_CODE":0,"TOWNNAME":"南化區","LI":"玉山里","LIN":"6鄰","STREET":" ","SECT":" ","MAREA":"玉山","LANE":" ","ALLEY":" ","HOUSE_NO":"５７號之１","E_COORD97":200755,"N_COORD97":2552710.7999999998,"ADDRESS":"玉山５７號之１","OBJECTID":75033},"geometry":{"x":200755.00000000093,"y":2552710.8000000026}},{"attributes":{"ID":75034,"DIS_CODE":0,"TOWNNAME":"南化區","LI":"北寮里","LIN":"6鄰","STREET":" ","SECT":" ","MAREA":"北寮","LANE":" ","ALLEY":" ","HOUSE_NO":"８５號","E_COORD97":197797.48999999999,"N_COORD97":2553100.75,"ADDRESS":"北寮８５號","OBJECTID":75034},"geometry":{"x":197797.49000000022,"y":2553100.75}},{"attributes":{"ID":75035,"DIS_CODE":0,"TOWNNAME":"南化區","LI":"西埔里","LIN":"6鄰","STREET":" ","SECT":" ","MAREA":"西埔","LANE":" ","ALLEY":" ","HOUSE_NO":"４８號","E_COORD97":194522.64000000001,"N_COORD97":2548244.75,"ADDRESS":"西埔４８號","OBJECTID":75035},"geometry":{"x":194522.63999999966,"y":2548244.7500000019}},{"attributes":{"ID":75036,"DIS_CODE":0,"TOWNNAME":"南化區","LI":"玉山里","LIN":"6鄰","STREET":" ","SECT":" ","MAREA":"玉山","LANE":" ","ALLEY":" ","HOUSE_NO":"６５號","E_COORD97":200815.76999999999,"N_COORD97":2552776.75,"ADDRESS":"玉山６５號","OBJECTID":75036},"geometry":{"x":200815.76999999955,"y":2552776.7500000037}},{"attributes":{"ID":75037,"DIS_CODE":0,"TOWNNAME":"永康區","LI":"勝利里","LIN":"30鄰","STREET":"勝利街","SECT":" ","MAREA":" ","LANE":"３０巷","ALLEY":"７弄","HOUSE_NO":"３２號","E_COORD97":171467.64999999999,"N_COORD97":2544563.7400000002,"ADDRESS":"勝利街３０巷７弄３２號","OBJECTID":75037},"geometry":{"x":171467.6500000013,"y":2544563.7400000002}},{"attributes":{"ID":75038,"DIS_CODE":0,"TOWNNAME":"永康區","LI":"埔園里","LIN":"30鄰","STREET":"龍埔街","SECT":" ","MAREA":" ","LANE":"４３０巷","ALLEY":"３５弄","HOUSE_NO":"２號","E_COORD97":173967.79000000001,"N_COORD97":2548503.5,"ADDRESS":"龍埔街４３０巷３５弄２號","OBJECTID":75038},"geometry":{"x":173967.79000000004,"y":2548503.5000000019}},{"attributes":{"ID":75039,"DIS_CODE":0,"TOWNNAME":"永康區","LI":"埔園里","LIN":"30鄰","STREET":"龍埔街","SECT":" ","MAREA":" ","LANE":"４３０巷","ALLEY":"３５弄","HOUSE_NO":"２０號","E_COORD97":173942.72,"N_COORD97":2548509.6000000001,"ADDRESS":"龍埔街４３０巷３５弄２０號","OBJECTID":75039},"geometry":{"x":173942.71999999974,"y":2548509.6000000015}},{"attributes":{"ID":75040,"DIS_CODE":0,"TOWNNAME":"永康區","LI":"復興里","LIN":"30鄰","STREET":"復興路","SECT":" ","MAREA":" ","LANE":"３５６巷","ALLEY":"８０弄","HOUSE_NO":"１１２號","E_COORD97":172487.64999999999,"N_COORD97":2544596.77,"ADDRESS":"復興路３５６巷８０弄１１２號","OBJECTID":75040},"geometry":{"x":172487.65000000037,"y":2544596.7699999996}},{"attributes":{"ID":75041,"DIS_CODE":0,"TOWNNAME":"永康區","LI":"建國里","LIN":"30鄰","STREET":"復興路","SECT":" ","MAREA":" ","LANE":"７１巷","ALLEY":"８８弄","HOUSE_NO":"１４號之３","E_COORD97":172613.73999999999,"N_COORD97":2543686.9399999999,"ADDRESS":"復興路７１巷８８弄１４號之３","OBJECTID":75041},"geometry":{"x":172613.74000000022,"y":2543686.9399999995}},{"attributes":{"ID":75042,"DIS_CODE":0,"TOWNNAME":"永康區","LI":"埔園里","LIN":"30鄰","STREET":"龍埔街","SECT":" ","MAREA":" ","LANE":"４３０巷","ALLEY":"３３弄","HOUSE_NO":"１６號","E_COORD97":173929.89000000001,"N_COORD97":2548461.6099999999,"ADDRESS":"龍埔街４３０巷３３弄１６號","OBJECTID":75042},"geometry":{"x":173929.89000000153,"y":2548461.6100000013}},{"attributes":{"ID":75043,"DIS_CODE":0,"TOWNNAME":"永康區","LI":"建國里","LIN":"30鄰","STREET":"復興路","SECT":" ","MAREA":" ","LANE":"７１巷","ALLEY":"８８弄","HOUSE_NO":"３１號","E_COORD97":172752.75,"N_COORD97":2543699.3500000001,"ADDRESS":"復興路７１巷８８弄３１號","OBJECTID":75043},"geometry":{"x":172752.75,"y":2543699.3500000034}},{"attributes":{"ID":75044,"DIS_CODE":0,"TOWNNAME":"東區","LI":"崇學里","LIN":"7鄰","STREET":"崇德四街","SECT":" ","MAREA":" ","LANE":" ","ALLEY":" ","HOUSE_NO":"２１號","E_COORD97":170581.10000000001,"N_COORD97":2542021.4500000002,"ADDRESS":"崇德四街２１號","OBJECTID":75044},"geometry":{"x":170581.10000000056,"y":2542021.4500000011}},{"attributes":{"ID":75045,"DIS_CODE":0,"TOWNNAME":"東區","LI":"崇學里","LIN":"7鄰","STREET":"崇德四街","SECT":" ","MAREA":" ","LANE":" ","ALLEY":" ","HOUSE_NO":"２３號","E_COORD97":170583.79999999999,"N_COORD97":2542025.5699999998,"ADDRESS":"崇德四街２３號","OBJECTID":75045},"geometry":{"x":170583.79999999981,"y":2542025.5700000003}},{"attributes":{"ID":75046,"DIS_CODE":0,"TOWNNAME":"東區","LI":"崇學里","LIN":"7鄰","STREET":"崇善路","SECT":" ","MAREA":" ","LANE":" ","ALLEY":" ","HOUSE_NO":"１８４號","E_COORD97":170576.89000000001,"N_COORD97":2542148.48,"ADDRESS":"崇善路１８４號","OBJECTID":75046},"geometry":{"x":170576.89000000153,"y":2542148.4800000004}},{"attributes":{"ID":75047,"DIS_CODE":0,"TOWNNAME":"東區","LI":"崇學里","LIN":"7鄰","STREET":"崇善路","SECT":" ","MAREA":" ","LANE":" ","ALLEY":" ","HOUSE_NO":"１８６號","E_COORD97":170580.16,"N_COORD97":2542146.3100000001,"ADDRESS":"崇善路１８６號","OBJECTID":75047},"geometry":{"x":170580.16000000015,"y":2542146.3100000005}},{"attributes":{"ID":75048,"DIS_CODE":0,"TOWNNAME":"東區","LI":"崇學里","LIN":"7鄰","STREET":"崇善路","SECT":" ","MAREA":" ","LANE":" ","ALLEY":" ","HOUSE_NO":"１８８號","E_COORD97":170582.76999999999,"N_COORD97":2542142.1800000002,"ADDRESS":"崇善路１８８號","OBJECTID":75048},"geometry":{"x":170582.77000000048,"y":2542142.1800000016}},{"attributes":{"ID":75049,"DIS_CODE":0,"TOWNNAME":"東區","LI":"崇學里","LIN":"7鄰","STREET":"崇善路","SECT":" ","MAREA":" ","LANE":" ","ALLEY":" ","HOUSE_NO":"１９０號","E_COORD97":170586.67999999999,"N_COORD97":2542139.5699999998,"ADDRESS":"崇善路１９０號","OBJECTID":75049},"geometry":{"x":170586.68000000156,"y":2542139.5700000022}},{"attributes":{"ID":75050,"DIS_CODE":0,"TOWNNAME":"東區","LI":"崇學里","LIN":"7鄰","STREET":"崇善路","SECT":" ","MAREA":" ","LANE":" ","ALLEY":" ","HOUSE_NO":"１９２號","E_COORD97":170588.85000000001,"N_COORD97":2542135.8799999999,"ADDRESS":"崇善路１９２號","OBJECTID":75050},"geometry":{"x":170588.85000000149,"y":2542135.8800000008}},{"attributes":{"ID":75051,"DIS_CODE":0,"TOWNNAME":"六甲區","LI":"中社里","LIN":"7鄰","STREET":" ","SECT":" ","MAREA":"中社","LANE":" ","ALLEY":" ","HOUSE_NO":"２８４號","E_COORD97":180928.70999999999,"N_COORD97":2570947.8700000001,"ADDRESS":"中社２８４號","OBJECTID":75051},"geometry":{"x":180928.70999999996,"y":2570947.870000001}},{"attributes":{"ID":75052,"DIS_CODE":0,"TOWNNAME":"南化區","LI":"玉山里","LIN":"6鄰","STREET":" ","SECT":" ","MAREA":"玉山","LANE":" ","ALLEY":" ","HOUSE_NO":"５５號","E_COORD97":200789.17000000001,"N_COORD97":2552696.75,"ADDRESS":"玉山５５號","OBJECTID":75052},"geometry":{"x":200789.17000000086,"y":2552696.7500000019}},{"attributes":{"ID":75053,"DIS_CODE":0,"TOWNNAME":"南化區","LI":"北寮里","LIN":"6鄰","STREET":" ","SECT":" ","MAREA":"北寮","LANE":" ","ALLEY":" ","HOUSE_NO":"７７號","E_COORD97":197766.79000000001,"N_COORD97":2553130.75,"ADDRESS":"北寮７７號","OBJECTID":75053},"geometry":{"x":197766.79000000004,"y":2553130.7500000019}},{"attributes":{"ID":75054,"DIS_CODE":0,"TOWNNAME":"南化區","LI":"北寮里","LIN":"6鄰","STREET":" ","SECT":" ","MAREA":"北寮","LANE":" ","ALLEY":" ","HOUSE_NO":"８０號","E_COORD97":197776.89000000001,"N_COORD97":2553120.75,"ADDRESS":"北寮８０號","OBJECTID":75054},"geometry":{"x":197776.8900000006,"y":2553120.75}},{"attributes":{"ID":75055,"DIS_CODE":0,"TOWNNAME":"南化區","LI":"玉山里","LIN":"6鄰","STREET":" ","SECT":" ","MAREA":"玉山","LANE":" ","ALLEY":" ","HOUSE_NO":"６３號","E_COORD97":200827.87,"N_COORD97":2552737.75,"ADDRESS":"玉山６３號","OBJECTID":75055},"geometry":{"x":200827.87000000011,"y":2552737.75}},{"attributes":{"ID":75056,"DIS_CODE":0,"TOWNNAME":"南化區","LI":"玉山里","LIN":"6鄰","STREET":" ","SECT":" ","MAREA":"玉山","LANE":" ","ALLEY":" ","HOUSE_NO":"５６號之１","E_COORD97":200777.39999999999,"N_COORD97":2552734.7999999998,"ADDRESS":"玉山５６號之１","OBJECTID":75056},"geometry":{"x":200777.40000000224,"y":2552734.8000000007}},{"attributes":{"ID":75057,"DIS_CODE":0,"TOWNNAME":"南化區","LI":"北寮里","LIN":"6鄰","STREET":" ","SECT":" ","MAREA":"北寮","LANE":" ","ALLEY":" ","HOUSE_NO":"９１號","E_COORD97":197810.69,"N_COORD97":2553086.75,"ADDRESS":"北寮９１號","OBJECTID":75057},"geometry":{"x":197810.69000000134,"y":2553086.75}},{"attributes":{"ID":75058,"DIS_CODE":0,"TOWNNAME":"南化區","LI":"西埔里","LIN":"6鄰","STREET":" ","SECT":" ","MAREA":"西埔","LANE":" ","ALLEY":" ","HOUSE_NO":"４２號之４","E_COORD97":194613.79999999999,"N_COORD97":2548205.7999999998,"ADDRESS":"西埔４２號之４","OBJECTID":75058},"geometry":{"x":194613.80000000075,"y":2548205.8000000007}},{"attributes":{"ID":75059,"DIS_CODE":0,"TOWNNAME":"永康區","LI":"建國里","LIN":"30鄰","STREET":"復興路","SECT":" ","MAREA":" ","LANE":"７１巷","ALLEY":"１１２弄","HOUSE_NO":"２號","E_COORD97":172813.51000000001,"N_COORD97":2543664.5,"ADDRESS":"復興路７１巷１１２弄２號","OBJECTID":75059},"geometry":{"x":172813.50999999978,"y":2543664.5}},{"attributes":{"ID":75060,"DIS_CODE":0,"TOWNNAME":"南化區","LI":"北寮里","LIN":"6鄰","STREET":" ","SECT":" ","MAREA":"北寮","LANE":" ","ALLEY":" ","HOUSE_NO":"８２號","E_COORD97":197784.29000000001,"N_COORD97":2553113.75,"ADDRESS":"北寮８２號","OBJECTID":75060},"geometry":{"x":197784.29000000097,"y":2553113.7500000019}},{"attributes":{"ID":75061,"DIS_CODE":0,"TOWNNAME":"永康區","LI":"埔園里","LIN":"30鄰","STREET":"龍埔街","SECT":" ","MAREA":" ","LANE":"４３０巷","ALLEY":"３５弄","HOUSE_NO":"１０號","E_COORD97":173961.54000000001,"N_COORD97":2548519,"ADDRESS":"龍埔街４３０巷３５弄１０號","OBJECTID":75061},"geometry":{"x":173961.5400000019,"y":2548519}},{"attributes":{"ID":75062,"DIS_CODE":0,"TOWNNAME":"永康區","LI":"埔園里","LIN":"30鄰","STREET":"龍埔街","SECT":" ","MAREA":" ","LANE":"４３０巷","ALLEY":"３５弄","HOUSE_NO":"３號","E_COORD97":173968.35000000001,"N_COORD97":2548484.1600000001,"ADDRESS":"龍埔街４３０巷３５弄３號","OBJECTID":75062},"geometry":{"x":173968.34999999963,"y":2548484.1600000001}},{"attributes":{"ID":75063,"DIS_CODE":0,"TOWNNAME":"永康區","LI":"埔園里","LIN":"30鄰","STREET":"龍埔街","SECT":" ","MAREA":" ","LANE":"４３０巷","ALLEY":"３５弄","HOUSE_NO":"１４號","E_COORD97":173960.20000000001,"N_COORD97":2548508.75,"ADDRESS":"龍埔街４３０巷３５弄１４號","OBJECTID":75063},"geometry":{"x":173960.20000000019,"y":2548508.7500000019}},{"attributes":{"ID":75064,"DIS_CODE":0,"TOWNNAME":"永康區","LI":"埔園里","LIN":"30鄰","STREET":"龍埔街","SECT":" ","MAREA":" ","LANE":"４３０巷","ALLEY":"３５弄","HOUSE_NO":"２３號","E_COORD97":173948.44,"N_COORD97":2548476.5,"ADDRESS":"龍埔街４３０巷３５弄２３號","OBJECTID":75064},"geometry":{"x":173948.44000000041,"y":2548476.5000000019}},{"attributes":{"ID":75065,"DIS_CODE":0,"TOWNNAME":"永康區","LI":"埔園里","LIN":"30鄰","STREET":"龍埔街","SECT":" ","MAREA":" ","LANE":"４３０巷","ALLEY":"３３弄","HOUSE_NO":"１２號","E_COORD97":173934.70000000001,"N_COORD97":2548460.8599999999,"ADDRESS":"龍埔街４３０巷３３弄１２號","OBJECTID":75065},"geometry":{"x":173934.70000000019,"y":2548460.8600000013}},{"attributes":{"ID":75066,"DIS_CODE":0,"TOWNNAME":"永康區","LI":"建國里","LIN":"30鄰","STREET":"復興路","SECT":" ","MAREA":" ","LANE":"７１巷","ALLEY":"１１２弄","HOUSE_NO":"１２號","E_COORD97":172792.26000000001,"N_COORD97":2543667.25,"ADDRESS":"復興路７１巷１１２弄１２號","OBJECTID":75066},"geometry":{"x":172792.26000000071,"y":2543667.2500000019}},{"attributes":{"ID":75067,"DIS_CODE":0,"TOWNNAME":"永康區","LI":"埔園里","LIN":"30鄰","STREET":"龍埔街","SECT":" ","MAREA":" ","LANE":"４３０巷","ALLEY":"３５弄","HOUSE_NO":"２８號","E_COORD97":173928.10000000001,"N_COORD97":2548516.6000000001,"ADDRESS":"龍埔街４３０巷３５弄２８號","OBJECTID":75067},"geometry":{"x":173928.09999999963,"y":2548516.6000000015}},{"attributes":{"ID":75068,"DIS_CODE":0,"TOWNNAME":"西港區","LI":"慶安里","LIN":"30鄰","STREET":"中山路","SECT":" ","MAREA":" ","LANE":"２２９巷","ALLEY":"６弄","HOUSE_NO":"３１號","E_COORD97":168353.87,"N_COORD97":2557696.8799999999,"ADDRESS":"中山路２２９巷６弄３１號","OBJECTID":75068},"geometry":{"x":168353.87000000104,"y":2557696.879999999}},{"attributes":{"ID":75069,"DIS_CODE":0,"TOWNNAME":"西港區","LI":"慶安里","LIN":"30鄰","STREET":"中山路","SECT":" ","MAREA":" ","LANE":"２２９巷","ALLEY":"６弄","HOUSE_NO":"３３號","E_COORD97":168358.47,"N_COORD97":2557697.7200000002,"ADDRESS":"中山路２２９巷６弄３３號","OBJECTID":75069},"geometry":{"x":168358.46999999974,"y":2557697.7200000025}},{"attributes":{"ID":75070,"DIS_CODE":0,"TOWNNAME":"西港區","LI":"慶安里","LIN":"30鄰","STREET":"中山路","SECT":" ","MAREA":" ","LANE":"２２９巷","ALLEY":"６弄","HOUSE_NO":"３５號","E_COORD97":168363.10000000001,"N_COORD97":2557698.1800000002,"ADDRESS":"中山路２２９巷６弄３５號","OBJECTID":75070},"geometry":{"x":168363.10000000149,"y":2557698.1799999997}},{"attributes":{"ID":75071,"DIS_CODE":0,"TOWNNAME":"西港區","LI":"慶安里","LIN":"30鄰","STREET":"中山路","SECT":" ","MAREA":" ","LANE":"２２９巷","ALLEY":"６弄","HOUSE_NO":"３７號","E_COORD97":168367.20000000001,"N_COORD97":2557699.3199999998,"ADDRESS":"中山路２２９巷６弄３７號","OBJECTID":75071},"geometry":{"x":168367.20000000112,"y":2557699.320000004}},{"attributes":{"ID":75072,"DIS_CODE":0,"TOWNNAME":"西港區","LI":"慶安里","LIN":"30鄰","STREET":"中山路","SECT":" ","MAREA":" ","LANE":"２２９巷","ALLEY":"６弄","HOUSE_NO":"３９號","E_COORD97":168371.79999999999,"N_COORD97":2557700.2599999998,"ADDRESS":"中山路２２９巷６弄３９號","OBJECTID":75072},"geometry":{"x":168371.79999999981,"y":2557700.2600000016}},{"attributes":{"ID":75073,"DIS_CODE":0,"TOWNNAME":"南化區","LI":"玉山里","LIN":"6鄰","STREET":" ","SECT":" ","MAREA":"玉山","LANE":" ","ALLEY":" ","HOUSE_NO":"５７號之７","E_COORD97":200759.48000000001,"N_COORD97":2552742.7999999998,"ADDRESS":"玉山５７號之７","OBJECTID":75073},"geometry":{"x":200759.48000000045,"y":2552742.7999999989}},{"attributes":{"ID":75074,"DIS_CODE":0,"TOWNNAME":"南化區","LI":"北寮里","LIN":"6鄰","STREET":" ","SECT":" ","MAREA":"北寮","LANE":" ","ALLEY":" ","HOUSE_NO":"７８號","E_COORD97":197769.98999999999,"N_COORD97":2553127.75,"ADDRESS":"北寮７８號","OBJECTID":75074},"geometry":{"x":197769.99000000115,"y":2553127.75}},{"attributes":{"ID":75075,"DIS_CODE":0,"TOWNNAME":"西港區","LI":"慶安里","LIN":"30鄰","STREET":"中山路","SECT":" ","MAREA":" ","LANE":"２２９巷","ALLEY":"６弄","HOUSE_NO":"４１號","E_COORD97":168376.59,"N_COORD97":2557701.0699999998,"ADDRESS":"中山路２２９巷６弄４１號","OBJECTID":75075},"geometry":{"x":168376.58999999985,"y":2557701.070000004}},{"attributes":{"ID":75076,"DIS_CODE":0,"TOWNNAME":"西港區","LI":"慶安里","LIN":"30鄰","STREET":"中山路","SECT":" ","MAREA":" ","LANE":"２２９巷","ALLEY":"６弄","HOUSE_NO":"４３號","E_COORD97":168381.10999999999,"N_COORD97":2557702.3300000001,"ADDRESS":"中山路２２９巷６弄４３號","OBJECTID":75076},"geometry":{"x":168381.11000000127,"y":2557702.3300000038}},{"attributes":{"ID":75077,"DIS_CODE":0,"TOWNNAME":"西港區","LI":"慶安里","LIN":"30鄰","STREET":"中山路","SECT":" ","MAREA":" ","LANE":"２２９巷","ALLEY":"６弄","HOUSE_NO":"４５號","E_COORD97":168385.67999999999,"N_COORD97":2557703.1400000001,"ADDRESS":"中山路２２９巷６弄４５號","OBJECTID":75077},"geometry":{"x":168385.6799999997,"y":2557703.1400000006}},{"attributes":{"ID":75078,"DIS_CODE":0,"TOWNNAME":"西港區","LI":"慶安里","LIN":"30鄰","STREET":"中山路","SECT":" ","MAREA":" ","LANE":"２２９巷","ALLEY":"６弄","HOUSE_NO":"４７號","E_COORD97":168390.12,"N_COORD97":2557703.79,"ADDRESS":"中山路２２９巷６弄４７號","OBJECTID":75078},"geometry":{"x":168390.12000000011,"y":2557703.7899999991}},{"attributes":{"ID":75079,"DIS_CODE":0,"TOWNNAME":"安南區","LI":"安東里","LIN":"7鄰","STREET":"安和路","SECT":"一段","MAREA":" ","LANE":" ","ALLEY":" ","HOUSE_NO":"２９０號","E_COORD97":169306.72,"N_COORD97":2548055.4500000002,"ADDRESS":"安和路一段２９０號","OBJECTID":75079},"geometry":{"x":169306.7200000016,"y":2548055.4500000011}},{"attributes":{"ID":75080,"DIS_CODE":0,"TOWNNAME":"安南區","LI":"安東里","LIN":"7鄰","STREET":"安和路","SECT":"一段","MAREA":" ","LANE":" ","ALLEY":" ","HOUSE_NO":"２９４號","E_COORD97":169304.89999999999,"N_COORD97":2548060.6000000001,"ADDRESS":"安和路一段２９４號","OBJECTID":75080},"geometry":{"x":169304.9000000013,"y":2548060.5999999996}},{"attributes":{"ID":75081,"DIS_CODE":0,"TOWNNAME":"安南區","LI":"安東里","LIN":"7鄰","STREET":"安和路","SECT":"一段","MAREA":" ","LANE":" ","ALLEY":" ","HOUSE_NO":"３００號","E_COORD97":169301.42000000001,"N_COORD97":2548072.1099999999,"ADDRESS":"安和路一段３００號","OBJECTID":75081},"geometry":{"x":169301.41999999993,"y":2548072.1100000013}},{"attributes":{"ID":75082,"DIS_CODE":0,"TOWNNAME":"安南區","LI":"安東里","LIN":"7鄰","STREET":"安和路","SECT":"一段","MAREA":" ","LANE":" ","ALLEY":" ","HOUSE_NO":"３０２號","E_COORD97":169301.26000000001,"N_COORD97":2548074.9900000002,"ADDRESS":"安和路一段３０２號","OBJECTID":75082},"geometry":{"x":169301.26000000164,"y":2548074.9900000002}},{"attributes":{"ID":75083,"DIS_CODE":0,"TOWNNAME":"南化區","LI":"玉山里","LIN":"6鄰","STREET":" ","SECT":" ","MAREA":"玉山","LANE":" ","ALLEY":" ","HOUSE_NO":"５６號","E_COORD97":200773.26999999999,"N_COORD97":2552720.75,"ADDRESS":"玉山５６號","OBJECTID":75083},"geometry":{"x":200773.26999999955,"y":2552720.75}},{"attributes":{"ID":75084,"DIS_CODE":0,"TOWNNAME":"西港區","LI":"慶安里","LIN":"30鄰","STREET":"中山路","SECT":" ","MAREA":" ","LANE":"２２９巷","ALLEY":"６弄","HOUSE_NO":"４９號","E_COORD97":168347.51999999999,"N_COORD97":2557723.8500000001,"ADDRESS":"中山路２２９巷６弄４９號","OBJECTID":75084},"geometry":{"x":168347.51999999955,"y":2557723.8499999996}},{"attributes":{"ID":75085,"DIS_CODE":0,"TOWNNAME":"仁德區","LI":"仁義里","LIN":" ","STREET":"仁義六街","SECT":" ","MAREA":" ","LANE":" ","ALLEY":" ","HOUSE_NO":"１０７號","E_COORD97":173782.98000000001,"N_COORD97":2539895.52,"ADDRESS":"仁義六街１０７號","OBJECTID":75085},"geometry":{"x":173782.98000000138,"y":2539895.5200000014}},{"attributes":{"ID":75086,"DIS_CODE":0,"TOWNNAME":"西港區","LI":"慶安里","LIN":"30鄰","STREET":"中山路","SECT":" ","MAREA":" ","LANE":"２２９巷","ALLEY":"６弄","HOUSE_NO":"５１號","E_COORD97":168352.57999999999,"N_COORD97":2557724.9300000002,"ADDRESS":"中山路２２９巷６弄５１號","OBJECTID":75086},"geometry":{"x":168352.58000000101,"y":2557724.9300000034}},{"attributes":{"ID":75087,"DIS_CODE":0,"TOWNNAME":"西港區","LI":"慶安里","LIN":"30鄰","STREET":"中山路","SECT":" ","MAREA":" ","LANE":"２２９巷","ALLEY":"６弄","HOUSE_NO":"５３號","E_COORD97":168357.14000000001,"N_COORD97":2557725.9500000002,"ADDRESS":"中山路２２９巷６弄５３號","OBJECTID":75087},"geometry":{"x":168357.13999999966,"y":2557725.9500000011}},{"attributes":{"ID":75088,"DIS_CODE":0,"TOWNNAME":"西港區","LI":"慶安里","LIN":"30鄰","STREET":"中山路","SECT":" ","MAREA":" ","LANE":"２２９巷","ALLEY":"６弄","HOUSE_NO":"５５號","E_COORD97":168361.16,"N_COORD97":2557726.75,"ADDRESS":"中山路２２９巷６弄５５號","OBJECTID":75088},"geometry":{"x":168361.16000000015,"y":2557726.7500000019}},{"attributes":{"ID":75089,"DIS_CODE":0,"TOWNNAME":"仁德區","LI":"二行里","LIN":" ","STREET":"二行一路","SECT":" ","MAREA":" ","LANE":" ","ALLEY":" ","HOUSE_NO":"５７號","E_COORD97":170392.51999999999,"N_COORD97":2535277.7400000002,"ADDRESS":"二行一路５７號","OBJECTID":75089},"geometry":{"x":170392.51999999955,"y":2535277.7400000002}},{"attributes":{"ID":75090,"DIS_CODE":0,"TOWNNAME":"仁德區","LI":"二行里","LIN":" ","STREET":"行大街","SECT":" ","MAREA":" ","LANE":" ","ALLEY":" ","HOUSE_NO":"８６號","E_COORD97":170138.95999999999,"N_COORD97":2535204.4900000002,"ADDRESS":"行大街８６號","OBJECTID":75090},"geometry":{"x":170138.95999999996,"y":2535204.4900000002}},{"attributes":{"ID":75091,"DIS_CODE":0,"TOWNNAME":"仁德區","LI":"保安里","LIN":" ","STREET":"中正路","SECT":"一段","MAREA":" ","LANE":" ","ALLEY":" ","HOUSE_NO":"１９８號","E_COORD97":171579.98999999999,"N_COORD97":2535769.0299999998,"ADDRESS":"中正路一段１９８號","OBJECTID":75091},"geometry":{"x":171579.99000000022,"y":2535769.0300000012}},{"attributes":{"ID":75092,"DIS_CODE":0,"TOWNNAME":"南化區","LI":"南化里","LIN":"6鄰","STREET":" ","SECT":" ","MAREA":"南化","LANE":" ","ALLEY":" ","HOUSE_NO":"１１５號","E_COORD97":196319.73999999999,"N_COORD97":2549105.75,"ADDRESS":"南化１１５號","OBJECTID":75092},"geometry":{"x":196319.73999999929,"y":2549105.7500000019}},{"attributes":{"ID":75093,"DIS_CODE":0,"TOWNNAME":"西港區","LI":"慶安里","LIN":"30鄰","STREET":"中山路","SECT":" ","MAREA":" ","LANE":"２２９巷","ALLEY":"６弄","HOUSE_NO":"５７號","E_COORD97":168365.76000000001,"N_COORD97":2557727.5699999998,"ADDRESS":"中山路２２９巷６弄５７號","OBJECTID":75093},"geometry":{"x":168365.76000000071,"y":2557727.5700000003}},{"attributes":{"ID":75094,"DIS_CODE":0,"TOWNNAME":"西港區","LI":"慶安里","LIN":"30鄰","STREET":"中山路","SECT":" ","MAREA":" ","LANE":"２２９巷","ALLEY":"６弄","HOUSE_NO":"５９號","E_COORD97":168369.76999999999,"N_COORD97":2557728.46,"ADDRESS":"中山路２２９巷６弄５９號","OBJECTID":75094},"geometry":{"x":168369.76999999955,"y":2557728.4600000009}},{"attributes":{"ID":75095,"DIS_CODE":0,"TOWNNAME":"西港區","LI":"慶安里","LIN":"30鄰","STREET":"中山路","SECT":" ","MAREA":" ","LANE":"２２９巷","ALLEY":"６弄","HOUSE_NO":"６１號","E_COORD97":168374.84,"N_COORD97":2557729.5299999998,"ADDRESS":"中山路２２９巷６弄６１號","OBJECTID":75095},"geometry":{"x":168374.83999999985,"y":2557729.5299999993}},{"attributes":{"ID":75096,"DIS_CODE":0,"TOWNNAME":"官田區","LI":"二鎮里","LIN":" ","STREET":"力行街","SECT":" ","MAREA":" ","LANE":" ","ALLEY":" ","HOUSE_NO":"６之２號","E_COORD97":181120.04999999999,"N_COORD97":2567127.4100000001,"ADDRESS":"力行街６之２號","OBJECTID":75096},"geometry":{"x":181120.05000000168,"y":2567127.410000002}},{"attributes":{"ID":75097,"DIS_CODE":0,"TOWNNAME":"官田區","LI":"隆田里","LIN":" ","STREET":"大同街","SECT":" ","MAREA":" ","LANE":" ","ALLEY":" ","HOUSE_NO":"２７號","E_COORD97":180123.84,"N_COORD97":2565906.2799999998,"ADDRESS":"大同街２７號","OBJECTID":75097},"geometry":{"x":180123.83999999985,"y":2565906.2799999975}},{"attributes":{"ID":75098,"DIS_CODE":0,"TOWNNAME":"官田區","LI":"隆田里","LIN":" ","STREET":"大同街","SECT":" ","MAREA":" ","LANE":" ","ALLEY":" ","HOUSE_NO":"２９號","E_COORD97":180120.45000000001,"N_COORD97":2565906.21,"ADDRESS":"大同街２９號","OBJECTID":75098},"geometry":{"x":180120.45000000019,"y":2565906.2100000028}},{"attributes":{"ID":75099,"DIS_CODE":0,"TOWNNAME":"官田區","LI":"隆田里","LIN":" ","STREET":"大同街","SECT":" ","MAREA":" ","LANE":" ","ALLEY":" ","HOUSE_NO":"３１號","E_COORD97":180117.25,"N_COORD97":2565905.9399999999,"ADDRESS":"大同街３１號","OBJECTID":75099},"geometry":{"x":180117.25000000093,"y":2565905.9400000013}},{"attributes":{"ID":75100,"DIS_CODE":0,"TOWNNAME":"官田區","LI":"隆田里","LIN":" ","STREET":"大同街","SECT":" ","MAREA":" ","LANE":" ","ALLEY":" ","HOUSE_NO":"３３號","E_COORD97":180112.41,"N_COORD97":2565906.0099999998,"ADDRESS":"大同街３３號","OBJECTID":75100},"geometry":{"x":180112.41000000015,"y":2565906.0100000016}},{"attributes":{"ID":75101,"DIS_CODE":0,"TOWNNAME":"官田區","LI":"二鎮里","LIN":" ","STREET":"工社中街","SECT":" ","MAREA":" ","LANE":" ","ALLEY":" ","HOUSE_NO":"４０號","E_COORD97":180575.88,"N_COORD97":2567904.3799999999,"ADDRESS":"工社中街４０號","OBJECTID":75101},"geometry":{"x":180575.88000000082,"y":2567904.379999999}},{"attributes":{"ID":75102,"DIS_CODE":0,"TOWNNAME":"南化區","LI":"南化里","LIN":"6鄰","STREET":" ","SECT":" ","MAREA":"南化","LANE":" ","ALLEY":" ","HOUSE_NO":"７９號","E_COORD97":196373.59,"N_COORD97":2549090.75,"ADDRESS":"南化７９號","OBJECTID":75102},"geometry":{"x":196373.59000000078,"y":2549090.75}},{"attributes":{"ID":75103,"DIS_CODE":0,"TOWNNAME":"南化區","LI":"北平里","LIN":"6鄰","STREET":" ","SECT":" ","MAREA":"北平","LANE":" ","ALLEY":" ","HOUSE_NO":"６６之１號","E_COORD97":194736.89000000001,"N_COORD97":2551513.7999999998,"ADDRESS":"北平６６之１號","OBJECTID":75103},"geometry":{"x":194736.8900000006,"y":2551513.8000000026}},{"attributes":{"ID":75104,"DIS_CODE":0,"TOWNNAME":"南化區","LI":"北平里","LIN":"6鄰","STREET":" ","SECT":" ","MAREA":"北平","LANE":" ","ALLEY":" ","HOUSE_NO":"７６號","E_COORD97":194024.29000000001,"N_COORD97":2551117.75,"ADDRESS":"北平７６號","OBJECTID":75104},"geometry":{"x":194024.29000000097,"y":2551117.75}},{"attributes":{"ID":75105,"DIS_CODE":0,"TOWNNAME":"西港區","LI":"慶安里","LIN":"30鄰","STREET":"中山路","SECT":" ","MAREA":" ","LANE":"２２９巷","ALLEY":"６弄","HOUSE_NO":"６３號","E_COORD97":168379.91,"N_COORD97":2557730.6099999999,"ADDRESS":"中山路２２９巷６弄６３號","OBJECTID":75105},"geometry":{"x":168379.91000000015,"y":2557730.6100000013}},{"attributes":{"ID":75106,"DIS_CODE":0,"TOWNNAME":"西港區","LI":"慶安里","LIN":"30鄰","STREET":"中山路","SECT":" ","MAREA":" ","LANE":"２２９巷","ALLEY":"６弄","HOUSE_NO":"６５號","E_COORD97":168383.87,"N_COORD97":2557731.54,"ADDRESS":"中山路２２９巷６弄６５號","OBJECTID":75106},"geometry":{"x":168383.87000000197,"y":2557731.540000001}},{"attributes":{"ID":75107,"DIS_CODE":0,"TOWNNAME":"永康區","LI":"埔園里","LIN":"30鄰","STREET":"龍埔街","SECT":" ","MAREA":" ","LANE":"４３０巷","ALLEY":"３５弄","HOUSE_NO":"４５號","E_COORD97":173907.73999999999,"N_COORD97":2548489.6600000001,"ADDRESS":"龍埔街４３０巷３５弄４５號","OBJECTID":75107},"geometry":{"x":173907.74000000209,"y":2548489.660000002}},{"attributes":{"ID":75108,"DIS_CODE":0,"TOWNNAME":"永康區","LI":"埔園里","LIN":"30鄰","STREET":"龍埔街","SECT":" ","MAREA":" ","LANE":"４８６巷","ALLEY":"６弄","HOUSE_NO":"４２號","E_COORD97":173863.45000000001,"N_COORD97":2548393.5,"ADDRESS":"龍埔街４８６巷６弄４２號","OBJECTID":75108},"geometry":{"x":173863.45000000019,"y":2548393.5}},{"attributes":{"ID":75109,"DIS_CODE":0,"TOWNNAME":"永康區","LI":"埔園里","LIN":"30鄰","STREET":"龍埔街","SECT":" ","MAREA":" ","LANE":"４３０巷","ALLEY":"３５弄","HOUSE_NO":"１２號","E_COORD97":173960.79000000001,"N_COORD97":2548513.75,"ADDRESS":"龍埔街４３０巷３５弄１２號","OBJECTID":75109},"geometry":{"x":173960.79000000004,"y":2548513.75}},{"attributes":{"ID":75110,"DIS_CODE":0,"TOWNNAME":"永康區","LI":"埔園里","LIN":"30鄰","STREET":"龍埔街","SECT":" ","MAREA":" ","LANE":"４３０巷","ALLEY":"３５弄","HOUSE_NO":"３３號","E_COORD97":173922.35000000001,"N_COORD97":2548492.98,"ADDRESS":"龍埔街４３０巷３５弄３３號","OBJECTID":75110},"geometry":{"x":173922.35000000056,"y":2548492.9800000004}},{"attributes":{"ID":75111,"DIS_CODE":0,"TOWNNAME":"歸仁區","LI":"歸仁里","LIN":"5鄰","STREET":"大通路","SECT":" ","MAREA":" ","LANE":" ","ALLEY":" ","HOUSE_NO":"６８號","E_COORD97":177748.17999999999,"N_COORD97":2540897.3399999999,"ADDRESS":"大通路６８號","OBJECTID":75111},"geometry":{"x":177748.1799999997,"y":2540897.3400000017}},{"attributes":{"ID":75112,"DIS_CODE":0,"TOWNNAME":"歸仁區","LI":"新厝里","LIN":"13鄰","STREET":"中正南路","SECT":"一段","MAREA":" ","LANE":" ","ALLEY":" ","HOUSE_NO":"９９號","E_COORD97":177554.5,"N_COORD97":2540509.5899999999,"ADDRESS":"中正南路一段９９號","OBJECTID":75112},"geometry":{"x":177554.50000000093,"y":2540509.5899999999}},{"attributes":{"ID":75113,"DIS_CODE":0,"TOWNNAME":"安南區","LI":"安東里","LIN":"7鄰","STREET":"安和路","SECT":"一段","MAREA":" ","LANE":" ","ALLEY":" ","HOUSE_NO":"３１４號","E_COORD97":169302.95999999999,"N_COORD97":2548098.96,"ADDRESS":"安和路一段３１４號","OBJECTID":75113},"geometry":{"x":169302.95999999996,"y":2548098.9600000028}},{"attributes":{"ID":75114,"DIS_CODE":0,"TOWNNAME":"安南區","LI":"安東里","LIN":"7鄰","STREET":"安和路","SECT":"一段","MAREA":" ","LANE":" ","ALLEY":" ","HOUSE_NO":"３１６號","E_COORD97":169302.67999999999,"N_COORD97":2548103.9900000002,"ADDRESS":"安和路一段３１６號","OBJECTID":75114},"geometry":{"x":169302.6799999997,"y":2548103.9900000021}},{"attributes":{"ID":75115,"DIS_CODE":0,"TOWNNAME":"新營區","LI":"興安里","LIN":"7鄰","STREET":"新進路","SECT":" ","MAREA":" ","LANE":" ","ALLEY":" ","HOUSE_NO":"２１１號","E_COORD97":180092.79999999999,"N_COORD97":2577834.7200000002,"ADDRESS":"新進路２１１號","OBJECTID":75115},"geometry":{"x":180092.80000000075,"y":2577834.7200000007}},{"attributes":{"ID":75116,"DIS_CODE":0,"TOWNNAME":"南化區","LI":"東和里","LIN":"6鄰","STREET":" ","SECT":" ","MAREA":"東和","LANE":" ","ALLEY":" ","HOUSE_NO":"５５號","E_COORD97":196289.17000000001,"N_COORD97":2546025.75,"ADDRESS":"東和５５號","OBJECTID":75116},"geometry":{"x":196289.16999999993,"y":2546025.75}},{"attributes":{"ID":75117,"DIS_CODE":0,"TOWNNAME":"南化區","LI":"中坑里","LIN":"6鄰","STREET":" ","SECT":" ","MAREA":"中坑","LANE":" ","ALLEY":" ","HOUSE_NO":"４８號之２","E_COORD97":193729.53,"N_COORD97":2549874.7999999998,"ADDRESS":"中坑４８號之２","OBJECTID":75117},"geometry":{"x":193729.53000000119,"y":2549874.8000000045}},{"attributes":{"ID":75118,"DIS_CODE":0,"TOWNNAME":"永康區","LI":"埔園里","LIN":"30鄰","STREET":"龍埔街","SECT":" ","MAREA":" ","LANE":"４３０巷","ALLEY":"３５弄","HOUSE_NO":"５１號","E_COORD97":173896.31,"N_COORD97":2548490.3300000001,"ADDRESS":"龍埔街４３０巷３５弄５１號","OBJECTID":75118},"geometry":{"x":173896.30999999866,"y":2548490.3300000001}},{"attributes":{"ID":75119,"DIS_CODE":0,"TOWNNAME":"新營區","LI":"太北里","LIN":"7鄰","STREET":" ","SECT":" ","MAREA":"太子宮","LANE":" ","ALLEY":" ","HOUSE_NO":"５６號","E_COORD97":175952.23000000001,"N_COORD97":2577105.0800000001,"ADDRESS":"太子宮５６號","OBJECTID":75119},"geometry":{"x":175952.23000000045,"y":2577105.0800000019}},{"attributes":{"ID":75120,"DIS_CODE":0,"TOWNNAME":"永康區","LI":"建國里","LIN":"30鄰","STREET":"復興路","SECT":" ","MAREA":" ","LANE":"７１巷","ALLEY":"１１２弄","HOUSE_NO":"１３號","E_COORD97":172793.17000000001,"N_COORD97":2543658.8900000001,"ADDRESS":"復興路７１巷１１２弄１３號","OBJECTID":75120},"geometry":{"x":172793.17000000086,"y":2543658.8900000006}},{"attributes":{"ID":75121,"DIS_CODE":0,"TOWNNAME":"永康區","LI":"埔園里","LIN":"30鄰","STREET":"龍埔街","SECT":" ","MAREA":" ","LANE":"４３０巷","ALLEY":"３５弄","HOUSE_NO":"１３號","E_COORD97":173960.57999999999,"N_COORD97":2548484.4399999999,"ADDRESS":"龍埔街４３０巷３５弄１３號","OBJECTID":75121},"geometry":{"x":173960.58000000007,"y":2548484.4399999995}},{"attributes":{"ID":75122,"DIS_CODE":0,"TOWNNAME":"官田區","LI":"二鎮里","LIN":" ","STREET":"工業北路","SECT":" ","MAREA":" ","LANE":" ","ALLEY":" ","HOUSE_NO":"１２６號","E_COORD97":181245.48000000001,"N_COORD97":2568641.21,"ADDRESS":"工業北路１２６號","OBJECTID":75122},"geometry":{"x":181245.48000000138,"y":2568641.2100000046}},{"attributes":{"ID":75123,"DIS_CODE":0,"TOWNNAME":"永康區","LI":"埔園里","LIN":"30鄰","STREET":"龍埔街","SECT":" ","MAREA":" ","LANE":"４３０巷","ALLEY":"３５弄","HOUSE_NO":"７號","E_COORD97":173967.12,"N_COORD97":2548474.6499999999,"ADDRESS":"龍埔街４３０巷３５弄７號","OBJECTID":75123},"geometry":{"x":173967.12000000011,"y":2548474.6500000004}},{"attributes":{"ID":75124,"DIS_CODE":0,"TOWNNAME":"永康區","LI":"埔園里","LIN":"30鄰","STREET":"龍埔街","SECT":" ","MAREA":" ","LANE":"４３０巷","ALLEY":"３５弄","HOUSE_NO":"１１號","E_COORD97":173959.97,"N_COORD97":2548479.9399999999,"ADDRESS":"龍埔街４３０巷３５弄１１號","OBJECTID":75124},"geometry":{"x":173959.9700000016,"y":2548479.9400000013}},{"attributes":{"ID":75125,"DIS_CODE":0,"TOWNNAME":"永康區","LI":"埔園里","LIN":"30鄰","STREET":"龍埔街","SECT":" ","MAREA":" ","LANE":"４３０巷","ALLEY":"３５弄","HOUSE_NO":"２９號","E_COORD97":173934.82999999999,"N_COORD97":2548486.75,"ADDRESS":"龍埔街４３０巷３５弄２９號","OBJECTID":75125},"geometry":{"x":173934.83000000101,"y":2548486.75}},{"attributes":{"ID":75126,"DIS_CODE":0,"TOWNNAME":"永康區","LI":"埔園里","LIN":"30鄰","STREET":"龍埔街","SECT":" ","MAREA":" ","LANE":"４３０巷","ALLEY":"３５弄","HOUSE_NO":"４７號","E_COORD97":173908.32999999999,"N_COORD97":2548494.4100000001,"ADDRESS":"龍埔街４３０巷３５弄４７號","OBJECTID":75126},"geometry":{"x":173908.33000000007,"y":2548494.410000002}},{"attributes":{"ID":75127,"DIS_CODE":0,"TOWNNAME":"永康區","LI":"埔園里","LIN":"30鄰","STREET":"龍埔街","SECT":" ","MAREA":" ","LANE":"４８６巷","ALLEY":"６弄","HOUSE_NO":"３２號","E_COORD97":173849.35999999999,"N_COORD97":2548378.25,"ADDRESS":"龍埔街４８６巷６弄３２號","OBJECTID":75127},"geometry":{"x":173849.3600000022,"y":2548378.25}},{"attributes":{"ID":75128,"DIS_CODE":0,"TOWNNAME":"永康區","LI":"埔園里","LIN":"30鄰","STREET":"龍埔街","SECT":" ","MAREA":" ","LANE":"４３０巷","ALLEY":"３５弄","HOUSE_NO":"１８號","E_COORD97":173942.01999999999,"N_COORD97":2548504.8500000001,"ADDRESS":"龍埔街４３０巷３５弄１８號","OBJECTID":75128},"geometry":{"x":173942.01999999955,"y":2548504.8500000015}},{"attributes":{"ID":75129,"DIS_CODE":0,"TOWNNAME":"永康區","LI":"埔園里","LIN":"30鄰","STREET":"龍埔街","SECT":" ","MAREA":" ","LANE":"４３０巷","ALLEY":"３５弄","HOUSE_NO":"３７號","E_COORD97":173921.29999999999,"N_COORD97":2548483.48,"ADDRESS":"龍埔街４３０巷３５弄３７號","OBJECTID":75129},"geometry":{"x":173921.30000000075,"y":2548483.4800000023}},{"attributes":{"ID":75130,"DIS_CODE":0,"TOWNNAME":"永康區","LI":"埔園里","LIN":"30鄰","STREET":"龍埔街","SECT":" ","MAREA":" ","LANE":"４３０巷","ALLEY":"３５弄","HOUSE_NO":"２２號","E_COORD97":173943.42999999999,"N_COORD97":2548514.6000000001,"ADDRESS":"龍埔街４３０巷３５弄２２號","OBJECTID":75130},"geometry":{"x":173943.43000000063,"y":2548514.5999999996}},{"attributes":{"ID":75131,"DIS_CODE":0,"TOWNNAME":"永康區","LI":"埔園里","LIN":"30鄰","STREET":"龍埔街","SECT":" ","MAREA":" ","LANE":"４８６巷","ALLEY":"６弄","HOUSE_NO":"２號","E_COORD97":173795.85999999999,"N_COORD97":2548387.25,"ADDRESS":"龍埔街４８６巷６弄２號","OBJECTID":75131},"geometry":{"x":173795.86000000127,"y":2548387.2500000019}},{"attributes":{"ID":75132,"DIS_CODE":0,"TOWNNAME":"永康區","LI":"埔園里","LIN":"30鄰","STREET":"龍埔街","SECT":" ","MAREA":" ","LANE":"４３０巷","ALLEY":"３５弄","HOUSE_NO":"３２號","E_COORD97":173926.45999999999,"N_COORD97":2548506.1000000001,"ADDRESS":"龍埔街４３０巷３５弄３２號","OBJECTID":75132},"geometry":{"x":173926.46000000089,"y":2548506.1000000015}},{"attributes":{"ID":75133,"DIS_CODE":0,"TOWNNAME":"永康區","LI":"建國里","LIN":"30鄰","STREET":"復興路","SECT":" ","MAREA":" ","LANE":"７１巷","ALLEY":"１１２弄","HOUSE_NO":"１２號之１","E_COORD97":172795.78,"N_COORD97":2543684.5800000001,"ADDRESS":"復興路７１巷１１２弄１２號之１","OBJECTID":75133},"geometry":{"x":172795.78000000119,"y":2543684.5799999982}},{"attributes":{"ID":75134,"DIS_CODE":0,"TOWNNAME":"永康區","LI":"埔園里","LIN":"30鄰","STREET":"龍埔街","SECT":" ","MAREA":" ","LANE":"４８６巷","ALLEY":"６弄","HOUSE_NO":"４０號","E_COORD97":173857.85999999999,"N_COORD97":2548396.5099999998,"ADDRESS":"龍埔街４８６巷６弄４０號","OBJECTID":75134},"geometry":{"x":173857.8600000022,"y":2548396.5099999998}},{"attributes":{"ID":75135,"DIS_CODE":0,"TOWNNAME":"永康區","LI":"埔園里","LIN":"30鄰","STREET":"龍埔街","SECT":" ","MAREA":" ","LANE":"４３０巷","ALLEY":"３５弄","HOUSE_NO":"４３號","E_COORD97":173907.29000000001,"N_COORD97":2548485.1600000001,"ADDRESS":"龍埔街４３０巷３５弄４３號","OBJECTID":75135},"geometry":{"x":173907.2900000019,"y":2548485.1600000039}},{"attributes":{"ID":75136,"DIS_CODE":0,"TOWNNAME":"永康區","LI":"埔園里","LIN":"30鄰","STREET":"龍埔街","SECT":" ","MAREA":" ","LANE":"４８６巷","ALLEY":"６弄","HOUSE_NO":"２８號","E_COORD97":173839.91,"N_COORD97":2548373.75,"ADDRESS":"龍埔街４８６巷６弄２８號","OBJECTID":75136},"geometry":{"x":173839.91000000015,"y":2548373.7500000019}},{"attributes":{"ID":75137,"DIS_CODE":0,"TOWNNAME":"歸仁區","LI":"新厝里","LIN":"5鄰","STREET":"中正南路","SECT":"一段","MAREA":" ","LANE":" ","ALLEY":" ","HOUSE_NO":"５５號","E_COORD97":177617.07999999999,"N_COORD97":2540588.9300000002,"ADDRESS":"中正南路一段５５號","OBJECTID":75137},"geometry":{"x":177617.08000000007,"y":2540588.9299999997}},{"attributes":{"ID":75138,"DIS_CODE":0,"TOWNNAME":"歸仁區","LI":"歸仁里","LIN":"26鄰","STREET":"文化一街","SECT":" ","MAREA":" ","LANE":" ","ALLEY":" ","HOUSE_NO":"２１號","E_COORD97":178249.76999999999,"N_COORD97":2541197.1299999999,"ADDRESS":"文化一街２１號","OBJECTID":75138},"geometry":{"x":178249.76999999955,"y":2541197.129999999}},{"attributes":{"ID":75139,"DIS_CODE":0,"TOWNNAME":"歸仁區","LI":"辜厝里","LIN":"53鄰","STREET":"民權南路","SECT":" ","MAREA":" ","LANE":" ","ALLEY":" ","HOUSE_NO":"３２３號","E_COORD97":176966.82000000001,"N_COORD97":2540218.5899999999,"ADDRESS":"民權南路３２３號","OBJECTID":75139},"geometry":{"x":176966.8200000003,"y":2540218.5899999999}},{"attributes":{"ID":75140,"DIS_CODE":0,"TOWNNAME":"官田區","LI":"二鎮里","LIN":" ","STREET":"工業北路","SECT":" ","MAREA":" ","LANE":" ","ALLEY":" ","HOUSE_NO":"１２８之１號","E_COORD97":181253.85000000001,"N_COORD97":2568643.96,"ADDRESS":"工業北路１２８之１號","OBJECTID":75140},"geometry":{"x":181253.85000000056,"y":2568643.9600000028}},{"attributes":{"ID":75141,"DIS_CODE":0,"TOWNNAME":"官田區","LI":"二鎮里","LIN":" ","STREET":"工業北路","SECT":" ","MAREA":" ","LANE":" ","ALLEY":" ","HOUSE_NO":"１２８號","E_COORD97":181249.97,"N_COORD97":2568642.6499999999,"ADDRESS":"工業北路１２８號","OBJECTID":75141},"geometry":{"x":181249.97000000067,"y":2568642.6500000022}},{"attributes":{"ID":75142,"DIS_CODE":0,"TOWNNAME":"官田區","LI":"隆田里","LIN":" ","STREET":"中山路","SECT":"一段","MAREA":" ","LANE":" ","ALLEY":" ","HOUSE_NO":"１４６號","E_COORD97":179862.95000000001,"N_COORD97":2565813.3599999999,"ADDRESS":"中山路一段１４６號","OBJECTID":75142},"geometry":{"x":179862.95000000019,"y":2565813.3599999994}},{"attributes":{"ID":75143,"DIS_CODE":0,"TOWNNAME":"官田區","LI":"隆田里","LIN":" ","STREET":"中山路","SECT":"一段","MAREA":" ","LANE":" ","ALLEY":" ","HOUSE_NO":"３５號","E_COORD97":180219.88,"N_COORD97":2565762.5800000001,"ADDRESS":"中山路一段３５號","OBJECTID":75143},"geometry":{"x":180219.88000000082,"y":2565762.5800000001}},{"attributes":{"ID":75144,"DIS_CODE":0,"TOWNNAME":"官田區","LI":"隆田里","LIN":" ","STREET":"中山路","SECT":"一段","MAREA":" ","LANE":" ","ALLEY":" ","HOUSE_NO":"４１號","E_COORD97":180174.92999999999,"N_COORD97":2565771.0800000001,"ADDRESS":"中山路一段４１號","OBJECTID":75144},"geometry":{"x":180174.93000000063,"y":2565771.0800000019}},{"attributes":{"ID":75145,"DIS_CODE":0,"TOWNNAME":"下營區","LI":"賀建里","LIN":"7鄰","STREET":" ","SECT":" ","MAREA":"麻豆寮","LANE":" ","ALLEY":" ","HOUSE_NO":"７１號","E_COORD97":178012.13,"N_COORD97":2572575.0699999998,"ADDRESS":"麻豆寮７１號","OBJECTID":75145},"geometry":{"x":178012.13000000175,"y":2572575.0700000022}},{"attributes":{"ID":75146,"DIS_CODE":0,"TOWNNAME":"下營區","LI":"賀建里","LIN":"7鄰","STREET":" ","SECT":" ","MAREA":"麻豆寮","LANE":" ","ALLEY":" ","HOUSE_NO":"７３號","E_COORD97":178040.22,"N_COORD97":2572564.1299999999,"ADDRESS":"麻豆寮７３號","OBJECTID":75146},"geometry":{"x":178040.2200000016,"y":2572564.1300000008}},{"attributes":{"ID":75147,"DIS_CODE":0,"TOWNNAME":"下營區","LI":"賀建里","LIN":"7鄰","STREET":" ","SECT":" ","MAREA":"麻豆寮","LANE":" ","ALLEY":" ","HOUSE_NO":"７８號之１２","E_COORD97":178146.51999999999,"N_COORD97":2572672,"ADDRESS":"麻豆寮７８號之１２","OBJECTID":75147},"geometry":{"x":178146.52000000142,"y":2572672}},{"attributes":{"ID":75148,"DIS_CODE":0,"TOWNNAME":"下營區","LI":"賀建里","LIN":"7鄰","STREET":" ","SECT":" ","MAREA":"麻豆寮","LANE":" ","ALLEY":" ","HOUSE_NO":"７８號之１３","E_COORD97":178133.95999999999,"N_COORD97":2572671.4399999999,"ADDRESS":"麻豆寮７８號之１３","OBJECTID":75148},"geometry":{"x":178133.96000000089,"y":2572671.4399999995}},{"attributes":{"ID":75149,"DIS_CODE":0,"TOWNNAME":"永康區","LI":"埔園里","LIN":"30鄰","STREET":"龍埔街","SECT":" ","MAREA":" ","LANE":"４３０巷","ALLEY":"３５弄","HOUSE_NO":"３０號","E_COORD97":173927.35000000001,"N_COORD97":2548511.3500000001,"ADDRESS":"龍埔街４３０巷３５弄３０號","OBJECTID":75149},"geometry":{"x":173927.35000000056,"y":2548511.3500000015}},{"attributes":{"ID":75150,"DIS_CODE":0,"TOWNNAME":"新營區","LI":"興安里","LIN":"8鄰","STREET":"新進路","SECT":" ","MAREA":" ","LANE":" ","ALLEY":" ","HOUSE_NO":"２６３號","E_COORD97":180003.72,"N_COORD97":2577817.4199999999,"ADDRESS":"新進路２６３號","OBJECTID":75150},"geometry":{"x":180003.72000000067,"y":2577817.4200000018}},{"attributes":{"ID":75151,"DIS_CODE":0,"TOWNNAME":"新營區","LI":"大宏里","LIN":"8鄰","STREET":"文昌街","SECT":" ","MAREA":" ","LANE":" ","ALLEY":" ","HOUSE_NO":"２８號","E_COORD97":180376.41,"N_COORD97":2578373.8100000001,"ADDRESS":"文昌街２８號","OBJECTID":75151},"geometry":{"x":180376.41000000015,"y":2578373.8099999987}},{"attributes":{"ID":75152,"DIS_CODE":0,"TOWNNAME":"永康區","LI":"埔園里","LIN":"30鄰","STREET":"龍埔街","SECT":" ","MAREA":" ","LANE":"４８６巷","ALLEY":"６弄","HOUSE_NO":"１７號","E_COORD97":173829.89999999999,"N_COORD97":2548423.5,"ADDRESS":"龍埔街４８６巷６弄１７號","OBJECTID":75152},"geometry":{"x":173829.90000000037,"y":2548423.5}},{"attributes":{"ID":75153,"DIS_CODE":0,"TOWNNAME":"南化區","LI":"南化里","LIN":"6鄰","STREET":" ","SECT":" ","MAREA":"南化","LANE":" ","ALLEY":" ","HOUSE_NO":"１１２之１號","E_COORD97":196328.14000000001,"N_COORD97":2549089.7999999998,"ADDRESS":"南化１１２之１號","OBJECTID":75153},"geometry":{"x":196328.13999999966,"y":2549089.8000000026}},{"attributes":{"ID":75154,"DIS_CODE":0,"TOWNNAME":"南化區","LI":"南化里","LIN":"6鄰","STREET":" ","SECT":" ","MAREA":"南化","LANE":" ","ALLEY":" ","HOUSE_NO":"１１７之２號","E_COORD97":196340.64000000001,"N_COORD97":2549092.7999999998,"ADDRESS":"南化１１７之２號","OBJECTID":75154},"geometry":{"x":196340.6400000006,"y":2549092.8000000026}},{"attributes":{"ID":75155,"DIS_CODE":0,"TOWNNAME":"南化區","LI":"東和里","LIN":"6鄰","STREET":" ","SECT":" ","MAREA":"東和","LANE":" ","ALLEY":" ","HOUSE_NO":"５９之２號","E_COORD97":196292.47,"N_COORD97":2546442.7999999998,"ADDRESS":"東和５９之２號","OBJECTID":75155},"geometry":{"x":196292.4700000016,"y":2546442.8000000007}},{"attributes":{"ID":75156,"DIS_CODE":0,"TOWNNAME":"南化區","LI":"東和里","LIN":"6鄰","STREET":" ","SECT":" ","MAREA":"東和","LANE":" ","ALLEY":" ","HOUSE_NO":"５８號","E_COORD97":196465.87,"N_COORD97":2546368.75,"ADDRESS":"東和５８號","OBJECTID":75156},"geometry":{"x":196465.87000000011,"y":2546368.7500000037}},{"attributes":{"ID":75157,"DIS_CODE":0,"TOWNNAME":"南化區","LI":"東和里","LIN":"6鄰","STREET":" ","SECT":" ","MAREA":"東和","LANE":" ","ALLEY":" ","HOUSE_NO":"５９號之１","E_COORD97":196348.60000000001,"N_COORD97":2546659.7999999998,"ADDRESS":"東和５９號之１","OBJECTID":75157},"geometry":{"x":196348.59999999963,"y":2546659.8000000007}},{"attributes":{"ID":75158,"DIS_CODE":0,"TOWNNAME":"南化區","LI":"南化里","LIN":"6鄰","STREET":" ","SECT":" ","MAREA":"南化","LANE":" ","ALLEY":" ","HOUSE_NO":"１１０號","E_COORD97":196330.34,"N_COORD97":2549077.75,"ADDRESS":"南化１１０號","OBJECTID":75158},"geometry":{"x":196330.33999999985,"y":2549077.7500000037}},{"attributes":{"ID":75159,"DIS_CODE":0,"TOWNNAME":"南化區","LI":"南化里","LIN":"6鄰","STREET":" ","SECT":" ","MAREA":"南化","LANE":" ","ALLEY":" ","HOUSE_NO":"１１７號","E_COORD97":196342.84,"N_COORD97":2549080.75,"ADDRESS":"南化１１７號","OBJECTID":75159},"geometry":{"x":196342.84000000078,"y":2549080.7499999981}},{"attributes":{"ID":75160,"DIS_CODE":0,"TOWNNAME":"南化區","LI":"南化里","LIN":"6鄰","STREET":" ","SECT":" ","MAREA":"南化","LANE":" ","ALLEY":" ","HOUSE_NO":"１１３號","E_COORD97":196324.23999999999,"N_COORD97":2549093.75,"ADDRESS":"南化１１３號","OBJECTID":75160},"geometry":{"x":196324.24000000022,"y":2549093.75}},{"attributes":{"ID":75161,"DIS_CODE":0,"TOWNNAME":"南化區","LI":"南化里","LIN":"6鄰","STREET":" ","SECT":" ","MAREA":"南化","LANE":" ","ALLEY":" ","HOUSE_NO":"１１８號","E_COORD97":196332.94,"N_COORD97":2549109.75,"ADDRESS":"南化１１８號","OBJECTID":75161},"geometry":{"x":196332.94000000134,"y":2549109.7500000019}},{"attributes":{"ID":75162,"DIS_CODE":0,"TOWNNAME":"南化區","LI":"南化里","LIN":"6鄰","STREET":" ","SECT":" ","MAREA":"南化","LANE":" ","ALLEY":" ","HOUSE_NO":"１１３號之１","E_COORD97":196324.97,"N_COORD97":2549097.7999999998,"ADDRESS":"南化１１３號之１","OBJECTID":75162},"geometry":{"x":196324.97000000067,"y":2549097.8000000007}},{"attributes":{"ID":75163,"DIS_CODE":0,"TOWNNAME":"南化區","LI":"東和里","LIN":"6鄰","STREET":" ","SECT":" ","MAREA":"東和","LANE":" ","ALLEY":" ","HOUSE_NO":"５９號","E_COORD97":196384.47,"N_COORD97":2546490.75,"ADDRESS":"東和５９號","OBJECTID":75163},"geometry":{"x":196384.47000000067,"y":2546490.7500000037}},{"attributes":{"ID":75164,"DIS_CODE":0,"TOWNNAME":"南化區","LI":"南化里","LIN":"6鄰","STREET":" ","SECT":" ","MAREA":"南化","LANE":" ","ALLEY":" ","HOUSE_NO":"１０２號","E_COORD97":196352.73999999999,"N_COORD97":2549068.75,"ADDRESS":"南化１０２號","OBJECTID":75164},"geometry":{"x":196352.74000000115,"y":2549068.7500000019}},{"attributes":{"ID":75165,"DIS_CODE":0,"TOWNNAME":"南化區","LI":"南化里","LIN":"6鄰","STREET":" ","SECT":" ","MAREA":"南化","LANE":" ","ALLEY":" ","HOUSE_NO":"１１１號","E_COORD97":196328.44,"N_COORD97":2549081.75,"ADDRESS":"南化１１１號","OBJECTID":75165},"geometry":{"x":196328.44000000041,"y":2549081.7500000019}},{"attributes":{"ID":75166,"DIS_CODE":0,"TOWNNAME":"永康區","LI":"埔園里","LIN":"30鄰","STREET":"龍埔街","SECT":" ","MAREA":" ","LANE":"４３０巷","ALLEY":"３５弄","HOUSE_NO":"２１號","E_COORD97":173949.10000000001,"N_COORD97":2548480.75,"ADDRESS":"龍埔街４３０巷３５弄２１號","OBJECTID":75166},"geometry":{"x":173949.10000000056,"y":2548480.7499999981}},{"attributes":{"ID":75167,"DIS_CODE":0,"TOWNNAME":"永康區","LI":"埔園里","LIN":"30鄰","STREET":"龍埔街","SECT":" ","MAREA":" ","LANE":"４８６巷","ALLEY":"６弄","HOUSE_NO":"２０號","E_COORD97":173842.35999999999,"N_COORD97":2548394,"ADDRESS":"龍埔街４８６巷６弄２０號","OBJECTID":75167},"geometry":{"x":173842.36000000034,"y":2548394}},{"attributes":{"ID":75168,"DIS_CODE":0,"TOWNNAME":"永康區","LI":"埔園里","LIN":"30鄰","STREET":"龍埔街","SECT":" ","MAREA":" ","LANE":"４３０巷","ALLEY":"３５弄","HOUSE_NO":"３９號","E_COORD97":173920.60000000001,"N_COORD97":2548478.23,"ADDRESS":"龍埔街４３０巷３５弄３９號","OBJECTID":75168},"geometry":{"x":173920.60000000056,"y":2548478.2300000042}},{"attributes":{"ID":75169,"DIS_CODE":0,"TOWNNAME":"永康區","LI":"埔園里","LIN":"30鄰","STREET":"龍埔街","SECT":" ","MAREA":" ","LANE":"４３０巷","ALLEY":"３５弄","HOUSE_NO":"２４號","E_COORD97":173944.17999999999,"N_COORD97":2548519.3500000001,"ADDRESS":"龍埔街４３０巷３５弄２４號","OBJECTID":75169},"geometry":{"x":173944.1799999997,"y":2548519.3499999996}},{"attributes":{"ID":75170,"DIS_CODE":0,"TOWNNAME":"永康區","LI":"埔園里","LIN":"30鄰","STREET":"龍埔街","SECT":" ","MAREA":" ","LANE":"４８６巷","ALLEY":"６弄","HOUSE_NO":"２４號","E_COORD97":173841.26000000001,"N_COORD97":2548384.25,"ADDRESS":"龍埔街４８６巷６弄２４號","OBJECTID":75170},"geometry":{"x":173841.26000000071,"y":2548384.2500000019}},{"attributes":{"ID":75171,"DIS_CODE":0,"TOWNNAME":"永康區","LI":"埔園里","LIN":"30鄰","STREET":"龍埔街","SECT":" ","MAREA":" ","LANE":"４８６巷","ALLEY":"６弄","HOUSE_NO":"１５號","E_COORD97":173828.76000000001,"N_COORD97":2548419.5,"ADDRESS":"龍埔街４８６巷６弄１５號","OBJECTID":75171},"geometry":{"x":173828.75999999978,"y":2548419.5000000019}},{"attributes":{"ID":75172,"DIS_CODE":0,"TOWNNAME":"永康區","LI":"埔園里","LIN":"30鄰","STREET":"龍埔街","SECT":" ","MAREA":" ","LANE":"４８６巷","ALLEY":"６弄","HOUSE_NO":"３６號","E_COORD97":173850.35999999999,"N_COORD97":2548388,"ADDRESS":"龍埔街４８６巷６弄３６號","OBJECTID":75172},"geometry":{"x":173850.36000000034,"y":2548388.0000000019}},{"attributes":{"ID":75173,"DIS_CODE":0,"TOWNNAME":"永康區","LI":"埔園里","LIN":"30鄰","STREET":"龍埔街","SECT":" ","MAREA":" ","LANE":"４８６巷","ALLEY":"６弄","HOUSE_NO":"１８號","E_COORD97":173829.41,"N_COORD97":2548391,"ADDRESS":"龍埔街４８６巷６弄１８號","OBJECTID":75173},"geometry":{"x":173829.41000000015,"y":2548391.0000000037}},{"attributes":{"ID":75174,"DIS_CODE":0,"TOWNNAME":"永康區","LI":"埔園里","LIN":"30鄰","STREET":"龍埔街","SECT":" ","MAREA":" ","LANE":"４８６巷","ALLEY":"６弄","HOUSE_NO":"１２號","E_COORD97":173815.75,"N_COORD97":2548389.25,"ADDRESS":"龍埔街４８６巷６弄１２號","OBJECTID":75174},"geometry":{"x":173815.75,"y":2548389.2500000037}},{"attributes":{"ID":75175,"DIS_CODE":0,"TOWNNAME":"永康區","LI":"埔園里","LIN":"30鄰","STREET":"龍埔街","SECT":" ","MAREA":" ","LANE":"４８６巷","ALLEY":"６弄","HOUSE_NO":"３８號","E_COORD97":173852.25,"N_COORD97":2548397.5099999998,"ADDRESS":"龍埔街４８６巷６弄３８號","OBJECTID":75175},"geometry":{"x":173852.25000000093,"y":2548397.5100000035}},{"attributes":{"ID":75176,"DIS_CODE":0,"TOWNNAME":"永康區","LI":"埔園里","LIN":"30鄰","STREET":"龍埔街","SECT":" ","MAREA":" ","LANE":"４８６巷","ALLEY":"６弄","HOUSE_NO":"１４號","E_COORD97":173820.31,"N_COORD97":2548391,"ADDRESS":"龍埔街４８６巷６弄１４號","OBJECTID":75176},"geometry":{"x":173820.31000000052,"y":2548391.0000000037}},{"attributes":{"ID":75177,"DIS_CODE":0,"TOWNNAME":"永康區","LI":"建國里","LIN":"30鄰","STREET":"復興路","SECT":" ","MAREA":" ","LANE":"７１巷","ALLEY":"８８弄","HOUSE_NO":"１２號之１","E_COORD97":172587.78,"N_COORD97":2543763.0899999999,"ADDRESS":"復興路７１巷８８弄１２號之１","OBJECTID":75177},"geometry":{"x":172587.78000000119,"y":2543763.0900000017}},{"attributes":{"ID":75178,"DIS_CODE":0,"TOWNNAME":"新營區","LI":"永生里","LIN":"7鄰","STREET":"中興路","SECT":" ","MAREA":" ","LANE":"３０巷","ALLEY":" ","HOUSE_NO":"２號","E_COORD97":180080.75,"N_COORD97":2577979.8399999999,"ADDRESS":"中興路３０巷２號","OBJECTID":75178},"geometry":{"x":180080.75,"y":2577979.8400000036}},{"attributes":{"ID":75179,"DIS_CODE":0,"TOWNNAME":"新營區","LI":"民生里","LIN":"8鄰","STREET":"民生路","SECT":" ","MAREA":" ","LANE":" ","ALLEY":" ","HOUSE_NO":"７號","E_COORD97":179378.62,"N_COORD97":2578112.75,"ADDRESS":"民生路７號","OBJECTID":75179},"geometry":{"x":179378.62000000011,"y":2578112.7500000037}},{"attributes":{"ID":75180,"DIS_CODE":0,"TOWNNAME":"新營區","LI":"民權里","LIN":"14鄰","STREET":"三民路","SECT":" ","MAREA":" ","LANE":" ","ALLEY":" ","HOUSE_NO":"８９之５號","E_COORD97":179776.70000000001,"N_COORD97":2578429.8700000001,"ADDRESS":"三民路８９之５號","OBJECTID":75180},"geometry":{"x":179776.70000000205,"y":2578429.8700000029}},{"attributes":{"ID":75181,"DIS_CODE":0,"TOWNNAME":"新營區","LI":"興安里","LIN":"8鄰","STREET":"新進路","SECT":" ","MAREA":" ","LANE":" ","ALLEY":" ","HOUSE_NO":"２６９號","E_COORD97":179989.37,"N_COORD97":2577810.8500000001,"ADDRESS":"新進路２６９號","OBJECTID":75181},"geometry":{"x":179989.37000000104,"y":2577810.8500000015}},{"attributes":{"ID":75182,"DIS_CODE":0,"TOWNNAME":"新營區","LI":"新東里","LIN":"8鄰","STREET":"東學路","SECT":" ","MAREA":" ","LANE":" ","ALLEY":" ","HOUSE_NO":"１２１號","E_COORD97":181243.59,"N_COORD97":2579397.48,"ADDRESS":"東學路１２１號","OBJECTID":75182},"geometry":{"x":181243.59000000171,"y":2579397.4800000023}},{"attributes":{"ID":75183,"DIS_CODE":0,"TOWNNAME":"永康區","LI":"建國里","LIN":"30鄰","STREET":"復興路","SECT":" ","MAREA":" ","LANE":"７１巷","ALLEY":"８８弄","HOUSE_NO":"３號","E_COORD97":172770.03,"N_COORD97":2543747.5899999999,"ADDRESS":"復興路７１巷８８弄３號","OBJECTID":75183},"geometry":{"x":172770.03000000212,"y":2543747.5899999999}},{"attributes":{"ID":75184,"DIS_CODE":0,"TOWNNAME":"永康區","LI":"建國里","LIN":"30鄰","STREET":"復興路","SECT":" ","MAREA":" ","LANE":"７１巷","ALLEY":"８８弄","HOUSE_NO":"８號","E_COORD97":172696.92999999999,"N_COORD97":2543793.8599999999,"ADDRESS":"復興路７１巷８８弄８號","OBJECTID":75184},"geometry":{"x":172696.9299999997,"y":2543793.8599999975}},{"attributes":{"ID":75185,"DIS_CODE":0,"TOWNNAME":"永康區","LI":"埔園里","LIN":"30鄰","STREET":"龍埔街","SECT":" ","MAREA":" ","LANE":"４３０巷","ALLEY":"３５弄","HOUSE_NO":"１９號","E_COORD97":173949.75,"N_COORD97":2548485.5,"ADDRESS":"龍埔街４３０巷３５弄１９號","OBJECTID":75185},"geometry":{"x":173949.74999999907,"y":2548485.5}},{"attributes":{"ID":75186,"DIS_CODE":0,"TOWNNAME":"永康區","LI":"埔園里","LIN":"30鄰","STREET":"龍埔街","SECT":" ","MAREA":" ","LANE":"４３０巷","ALLEY":"３３弄","HOUSE_NO":"２２號","E_COORD97":173917.09,"N_COORD97":2548463.1099999999,"ADDRESS":"龍埔街４３０巷３３弄２２號","OBJECTID":75186},"geometry":{"x":173917.09000000078,"y":2548463.1099999994}},{"attributes":{"ID":75187,"DIS_CODE":0,"TOWNNAME":"永康區","LI":"建國里","LIN":"30鄰","STREET":"復興路","SECT":" ","MAREA":" ","LANE":"７１巷","ALLEY":"８８弄","HOUSE_NO":"２５號","E_COORD97":172782.64000000001,"N_COORD97":2543699.96,"ADDRESS":"復興路７１巷８８弄２５號","OBJECTID":75187},"geometry":{"x":172782.6400000006,"y":2543699.9600000046}},{"attributes":{"ID":75188,"DIS_CODE":0,"TOWNNAME":"永康區","LI":"建國里","LIN":"30鄰","STREET":"復興路","SECT":" ","MAREA":" ","LANE":"７１巷","ALLEY":"８８弄","HOUSE_NO":"６號","E_COORD97":172703.48999999999,"N_COORD97":2543819.6200000001,"ADDRESS":"復興路７１巷８８弄６號","OBJECTID":75188},"geometry":{"x":172703.49000000022,"y":2543819.620000001}},{"attributes":{"ID":75189,"DIS_CODE":0,"TOWNNAME":"永康區","LI":"建國里","LIN":"30鄰","STREET":"復興路","SECT":" ","MAREA":" ","LANE":"７１巷","ALLEY":"１１２弄","HOUSE_NO":"１號","E_COORD97":172814.13,"N_COORD97":2543656.3900000001,"ADDRESS":"復興路７１巷１１２弄１號","OBJECTID":75189},"geometry":{"x":172814.12999999989,"y":2543656.3900000025}},{"attributes":{"ID":75190,"DIS_CODE":0,"TOWNNAME":"永康區","LI":"埔園里","LIN":"30鄰","STREET":"龍埔街","SECT":" ","MAREA":" ","LANE":"４３０巷","ALLEY":"３５弄","HOUSE_NO":"６號","E_COORD97":173969.04000000001,"N_COORD97":2548513.25,"ADDRESS":"龍埔街４３０巷３５弄６號","OBJECTID":75190},"geometry":{"x":173969.04000000097,"y":2548513.25}},{"attributes":{"ID":75191,"DIS_CODE":0,"TOWNNAME":"永康區","LI":"建國里","LIN":"30鄰","STREET":"復興路","SECT":" ","MAREA":" ","LANE":"７１巷","ALLEY":"８８弄","HOUSE_NO":"１４號之４","E_COORD97":172600.70000000001,"N_COORD97":2543727.5,"ADDRESS":"復興路７１巷８８弄１４號之４","OBJECTID":75191},"geometry":{"x":172600.70000000019,"y":2543727.5000000019}},{"attributes":{"ID":75192,"DIS_CODE":0,"TOWNNAME":"永康區","LI":"埔園里","LIN":"30鄰","STREET":"龍埔街","SECT":" ","MAREA":" ","LANE":"４３０巷","ALLEY":"３３弄","HOUSE_NO":"２號","E_COORD97":173955,"N_COORD97":2548464.9900000002,"ADDRESS":"龍埔街４３０巷３３弄２號","OBJECTID":75192},"geometry":{"x":173955.00000000186,"y":2548464.9900000002}},{"attributes":{"ID":75193,"DIS_CODE":0,"TOWNNAME":"新營區","LI":"姑爺里","LIN":"6鄰","STREET":" ","SECT":" ","MAREA":"姑爺","LANE":" ","ALLEY":" ","HOUSE_NO":"５０號","E_COORD97":174238.51000000001,"N_COORD97":2574853.4100000001,"ADDRESS":"姑爺５０號","OBJECTID":75193},"geometry":{"x":174238.51000000071,"y":2574853.4100000001}},{"attributes":{"ID":75194,"DIS_CODE":0,"TOWNNAME":"永康區","LI":"建國里","LIN":"30鄰","STREET":"復興路","SECT":" ","MAREA":" ","LANE":"７１巷","ALLEY":"８８弄","HOUSE_NO":"１０號","E_COORD97":172656.42000000001,"N_COORD97":2543807.5699999998,"ADDRESS":"復興路７１巷８８弄１０號","OBJECTID":75194},"geometry":{"x":172656.41999999993,"y":2543807.5700000022}},{"attributes":{"ID":75195,"DIS_CODE":0,"TOWNNAME":"永康區","LI":"埔園里","LIN":"30鄰","STREET":"龍埔街","SECT":" ","MAREA":" ","LANE":"４３０巷","ALLEY":"３５弄","HOUSE_NO":"１號","E_COORD97":173968.87,"N_COORD97":2548488.9100000001,"ADDRESS":"龍埔街４３０巷３５弄１號","OBJECTID":75195},"geometry":{"x":173968.87000000011,"y":2548488.9100000001}},{"attributes":{"ID":75196,"DIS_CODE":0,"TOWNNAME":"安平區","LI":"建平里","LIN":"7鄰","STREET":"府前四街","SECT":" ","MAREA":" ","LANE":" ","ALLEY":" ","HOUSE_NO":"１００號","E_COORD97":166468.85000000001,"N_COORD97":2543984.73,"ADDRESS":"府前四街１００號","OBJECTID":75196},"geometry":{"x":166468.84999999963,"y":2543984.7300000004}},{"attributes":{"ID":75197,"DIS_CODE":0,"TOWNNAME":"安平區","LI":"建平里","LIN":"7鄰","STREET":"府前四街","SECT":" ","MAREA":" ","LANE":" ","ALLEY":" ","HOUSE_NO":"１０２號","E_COORD97":166468.94,"N_COORD97":2543989.1499999999,"ADDRESS":"府前四街１０２號","OBJECTID":75197},"geometry":{"x":166468.94000000134,"y":2543989.1500000004}},{"attributes":{"ID":75198,"DIS_CODE":0,"TOWNNAME":"安平區","LI":"建平里","LIN":"7鄰","STREET":"府前四街","SECT":" ","MAREA":" ","LANE":" ","ALLEY":" ","HOUSE_NO":"１０４號","E_COORD97":166470.10000000001,"N_COORD97":2543993.8100000001,"ADDRESS":"府前四街１０４號","OBJECTID":75198},"geometry":{"x":166470.10000000056,"y":2543993.8100000024}},{"attributes":{"ID":75199,"DIS_CODE":0,"TOWNNAME":"南化區","LI":"南化里","LIN":"6鄰","STREET":" ","SECT":" ","MAREA":"南化","LANE":" ","ALLEY":" ","HOUSE_NO":"１１４號","E_COORD97":196321.14000000001,"N_COORD97":2549101.75,"ADDRESS":"南化１１４號","OBJECTID":75199},"geometry":{"x":196321.13999999966,"y":2549101.7500000019}},{"attributes":{"ID":75200,"DIS_CODE":0,"TOWNNAME":"南化區","LI":"南化里","LIN":"6鄰","STREET":" ","SECT":" ","MAREA":"南化","LANE":" ","ALLEY":" ","HOUSE_NO":"１１５號之５","E_COORD97":196313.63,"N_COORD97":2549130.7999999998,"ADDRESS":"南化１１５號之５","OBJECTID":75200},"geometry":{"x":196313.63000000082,"y":2549130.8000000007}}]}