{"displayFieldName":"TOWNNAME","fieldAliases":{"ID":"ID","DIS_CODE":"DIS_CODE","TOWNNAME":"TOWNNAME","LI":"LI","LIN":"LIN","STREET":"STREET","SECT":"SECT","MAREA":"MAREA","LANE":"LANE","ALLEY":"ALLEY","HOUSE_NO":"HOUSE_NO","E_COORD97":"E_COORD97","N_COORD97":"N_COORD97","ADDRESS":"ADDRESS","OBJECTID":"OBJECTID"},"geometryType":"esriGeometryPoint","spatialReference":{"wkid":102443,"latestWkid":3826},"fields":[{"name":"ID","type":"esriFieldTypeDouble","alias":"ID"},{"name":"DIS_CODE","type":"esriFieldTypeInteger","alias":"DIS_CODE"},{"name":"TOWNNAME","type":"esriFieldTypeString","alias":"TOWNNAME","length":8},{"name":"LI","type":"esriFieldTypeString","alias":"LI","length":8},{"name":"LIN","type":"esriFieldTypeString","alias":"LIN","length":12},{"name":"STREET","type":"esriFieldTypeString","alias":"STREET","length":20},{"name":"SECT","type":"esriFieldTypeString","alias":"SECT","length":8},{"name":"MAREA","type":"esriFieldTypeString","alias":"MAREA","length":12},{"name":"LANE","type":"esriFieldTypeString","alias":"LANE","length":10},{"name":"ALLEY","type":"esriFieldTypeString","alias":"ALLEY","length":10},{"name":"HOUSE_NO","type":"esriFieldTypeString","alias":"HOUSE_NO","length":20},{"name":"E_COORD97","type":"esriFieldTypeDouble","alias":"E_COORD97"},{"name":"N_COORD97","type":"esriFieldTypeDouble","alias":"N_COORD97"},{"name":"ADDRESS","type":"esriFieldTypeString","alias":"ADDRESS","length":50},{"name":"OBJECTID","type":"esriFieldTypeOID","alias":"OBJECTID"}],"features":[{"attributes":{"ID":197602,"DIS_CODE":0,"TOWNNAME":"六甲區","LI":"二甲里","LIN":"18鄰","STREET":"和平街","SECT":" ","MAREA":" ","LANE":"３４７巷","ALLEY":"４７弄","HOUSE_NO":"１７號","E_COORD97":182660.45000000001,"N_COORD97":2569814.2200000002,"ADDRESS":"和平街３４７巷４７弄１７號","OBJECTID":197601},"geometry":{"x":182660.45000000112,"y":2569814.2200000044}},{"attributes":{"ID":197603,"DIS_CODE":0,"TOWNNAME":"善化區","LI":"田寮里","LIN":"3鄰","STREET":" ","SECT":" ","MAREA":"六分寮","LANE":" ","ALLEY":" ","HOUSE_NO":"３６號之３","E_COORD97":178336.13,"N_COORD97":2561215.52,"ADDRESS":"六分寮３６號之３","OBJECTID":197602},"geometry":{"x":178336.13000000082,"y":2561215.5199999996}},{"attributes":{"ID":197604,"DIS_CODE":0,"TOWNNAME":"善化區","LI":"小新里","LIN":"3鄰","STREET":" ","SECT":" ","MAREA":"小新營","LANE":" ","ALLEY":" ","HOUSE_NO":"２２號之２","E_COORD97":179845.37,"N_COORD97":2558303.77,"ADDRESS":"小新營２２號之２","OBJECTID":197603},"geometry":{"x":179845.37000000104,"y":2558303.7700000014}},{"attributes":{"ID":197605,"DIS_CODE":0,"TOWNNAME":"善化區","LI":"田寮里","LIN":"3鄰","STREET":" ","SECT":" ","MAREA":"六分寮","LANE":" ","ALLEY":" ","HOUSE_NO":"４０之１８號","E_COORD97":178303.16,"N_COORD97":2561105.77,"ADDRESS":"六分寮４０之１８號","OBJECTID":197604},"geometry":{"x":178303.16000000015,"y":2561105.7699999996}},{"attributes":{"ID":197606,"DIS_CODE":0,"TOWNNAME":"善化區","LI":"六分里","LIN":"3鄰","STREET":" ","SECT":" ","MAREA":"東勢宅","LANE":" ","ALLEY":" ","HOUSE_NO":"１６６號","E_COORD97":177763.35999999999,"N_COORD97":2560365.2599999998,"ADDRESS":"東勢宅１６６號","OBJECTID":197605},"geometry":{"x":177763.36000000034,"y":2560365.2600000016}},{"attributes":{"ID":197607,"DIS_CODE":0,"TOWNNAME":"善化區","LI":"胡家里","LIN":"3鄰","STREET":" ","SECT":" ","MAREA":"胡厝寮","LANE":" ","ALLEY":" ","HOUSE_NO":"２０號之６","E_COORD97":175488.57000000001,"N_COORD97":2560653.02,"ADDRESS":"胡厝寮２０號之６","OBJECTID":197606},"geometry":{"x":175488.5700000003,"y":2560653.0199999996}},{"attributes":{"ID":197608,"DIS_CODE":0,"TOWNNAME":"善化區","LI":"小新里","LIN":"3鄰","STREET":" ","SECT":" ","MAREA":"小新營","LANE":" ","ALLEY":" ","HOUSE_NO":"２２號之６","E_COORD97":179842.41,"N_COORD97":2558321.77,"ADDRESS":"小新營２２號之６","OBJECTID":197607},"geometry":{"x":179842.41000000015,"y":2558321.7699999996}},{"attributes":{"ID":197609,"DIS_CODE":0,"TOWNNAME":"善化區","LI":"六分里","LIN":"3鄰","STREET":" ","SECT":" ","MAREA":"東勢宅","LANE":" ","ALLEY":" ","HOUSE_NO":"１之１號","E_COORD97":178007.63,"N_COORD97":2561322.27,"ADDRESS":"東勢宅１之１號","OBJECTID":197608},"geometry":{"x":178007.63000000082,"y":2561322.2699999996}},{"attributes":{"ID":197610,"DIS_CODE":0,"TOWNNAME":"六甲區","LI":"二甲里","LIN":"18鄰","STREET":"和平街","SECT":" ","MAREA":" ","LANE":"３４７巷","ALLEY":"４７弄","HOUSE_NO":"１８號","E_COORD97":182650.31,"N_COORD97":2569828.4399999999,"ADDRESS":"和平街３４７巷４７弄１８號","OBJECTID":197609},"geometry":{"x":182650.30999999866,"y":2569828.4400000032}},{"attributes":{"ID":197611,"DIS_CODE":0,"TOWNNAME":"六甲區","LI":"二甲里","LIN":"18鄰","STREET":"和平街","SECT":" ","MAREA":" ","LANE":"３４７巷","ALLEY":"４７弄","HOUSE_NO":"１號","E_COORD97":182671.89000000001,"N_COORD97":2569849.5899999999,"ADDRESS":"和平街３４７巷４７弄１號","OBJECTID":197610},"geometry":{"x":182671.88999999873,"y":2569849.5900000017}},{"attributes":{"ID":197612,"DIS_CODE":0,"TOWNNAME":"六甲區","LI":"二甲里","LIN":"18鄰","STREET":"和平街","SECT":" ","MAREA":" ","LANE":"３４７巷","ALLEY":"４７弄","HOUSE_NO":"２０號","E_COORD97":182648.82999999999,"N_COORD97":2569823.8999999999,"ADDRESS":"和平街３４７巷４７弄２０號","OBJECTID":197611},"geometry":{"x":182648.83000000007,"y":2569823.9000000022}},{"attributes":{"ID":197613,"DIS_CODE":0,"TOWNNAME":"六甲區","LI":"二甲里","LIN":"18鄰","STREET":"和平街","SECT":" ","MAREA":" ","LANE":"３４７巷","ALLEY":"４７弄","HOUSE_NO":"２２號","E_COORD97":182646.97,"N_COORD97":2569819.21,"ADDRESS":"和平街３４７巷４７弄２２號","OBJECTID":197612},"geometry":{"x":182646.96999999974,"y":2569819.2100000028}},{"attributes":{"ID":197614,"DIS_CODE":0,"TOWNNAME":"六甲區","LI":"二甲里","LIN":"18鄰","STREET":"和平街","SECT":" ","MAREA":" ","LANE":"３４７巷","ALLEY":"４７弄","HOUSE_NO":"２號","E_COORD97":182659.47,"N_COORD97":2569853.8199999998,"ADDRESS":"和平街３４７巷４７弄２號","OBJECTID":197613},"geometry":{"x":182659.46999999974,"y":2569853.820000004}},{"attributes":{"ID":197615,"DIS_CODE":0,"TOWNNAME":"六甲區","LI":"二甲里","LIN":"18鄰","STREET":"和平街","SECT":" ","MAREA":" ","LANE":"３４７巷","ALLEY":"４７弄","HOUSE_NO":"３號","E_COORD97":182670.32000000001,"N_COORD97":2569844.77,"ADDRESS":"和平街３４７巷４７弄３號","OBJECTID":197614},"geometry":{"x":182670.32000000123,"y":2569844.7699999996}},{"attributes":{"ID":197616,"DIS_CODE":0,"TOWNNAME":"六甲區","LI":"二甲里","LIN":"18鄰","STREET":"和平街","SECT":" ","MAREA":" ","LANE":"３４７巷","ALLEY":"４７弄","HOUSE_NO":"５號","E_COORD97":182669.28,"N_COORD97":2569840.75,"ADDRESS":"和平街３４７巷４７弄５號","OBJECTID":197615},"geometry":{"x":182669.28000000026,"y":2569840.7500000019}},{"attributes":{"ID":197617,"DIS_CODE":0,"TOWNNAME":"六甲區","LI":"二甲里","LIN":"18鄰","STREET":"和平街","SECT":" ","MAREA":" ","LANE":"３４７巷","ALLEY":"４７弄","HOUSE_NO":"６號","E_COORD97":182658.14000000001,"N_COORD97":2569849.2400000002,"ADDRESS":"和平街３４７巷４７弄６號","OBJECTID":197616},"geometry":{"x":182658.13999999966,"y":2569849.2400000002}},{"attributes":{"ID":197618,"DIS_CODE":0,"TOWNNAME":"六甲區","LI":"二甲里","LIN":"18鄰","STREET":"和平街","SECT":" ","MAREA":" ","LANE":"３４７巷","ALLEY":"４７弄","HOUSE_NO":"７號","E_COORD97":182667.95999999999,"N_COORD97":2569835.8300000001,"ADDRESS":"和平街３４７巷４７弄７號","OBJECTID":197617},"geometry":{"x":182667.95999999996,"y":2569835.8300000001}},{"attributes":{"ID":197619,"DIS_CODE":0,"TOWNNAME":"六甲區","LI":"二甲里","LIN":"18鄰","STREET":"和平街","SECT":" ","MAREA":" ","LANE":"３４７巷","ALLEY":"４７弄","HOUSE_NO":"８號","E_COORD97":182656.07000000001,"N_COORD97":2569845.3599999999,"ADDRESS":"和平街３４７巷４７弄８號","OBJECTID":197618},"geometry":{"x":182656.06999999937,"y":2569845.3599999994}},{"attributes":{"ID":197620,"DIS_CODE":0,"TOWNNAME":"六甲區","LI":"二甲里","LIN":"18鄰","STREET":"和平街","SECT":" ","MAREA":" ","LANE":"３４７巷","ALLEY":"４７弄","HOUSE_NO":"９號","E_COORD97":182666.45000000001,"N_COORD97":2569831.4100000001,"ADDRESS":"和平街３４７巷４７弄９號","OBJECTID":197619},"geometry":{"x":182666.45000000019,"y":2569831.4100000001}},{"attributes":{"ID":197621,"DIS_CODE":0,"TOWNNAME":"安南區","LI":"幸福里","LIN":"21鄰","STREET":"國安街","SECT":" ","MAREA":" ","LANE":"１７３巷","ALLEY":" ","HOUSE_NO":"１８號","E_COORD97":166705.60999999999,"N_COORD97":2546899.8300000001,"ADDRESS":"國安街１７３巷１８號","OBJECTID":197620},"geometry":{"x":166705.61000000034,"y":2546899.8300000001}},{"attributes":{"ID":197622,"DIS_CODE":0,"TOWNNAME":"永康區","LI":"永康里","LIN":"40鄰","STREET":"永大二路","SECT":" ","MAREA":" ","LANE":" ","ALLEY":" ","HOUSE_NO":"３１號","E_COORD97":174286.82000000001,"N_COORD97":2546547.1499999999,"ADDRESS":"永大二路３１號","OBJECTID":197621},"geometry":{"x":174286.8200000003,"y":2546547.1500000022}},{"attributes":{"ID":197623,"DIS_CODE":0,"TOWNNAME":"新市區","LI":"新和里","LIN":"40鄰","STREET":"勝利街","SECT":" ","MAREA":" ","LANE":" ","ALLEY":" ","HOUSE_NO":"６３號","E_COORD97":177183.45000000001,"N_COORD97":2552940.7599999998,"ADDRESS":"勝利街６３號","OBJECTID":197622},"geometry":{"x":177183.45000000112,"y":2552940.7599999998}},{"attributes":{"ID":197624,"DIS_CODE":0,"TOWNNAME":"仁德區","LI":"仁義里","LIN":"40鄰","STREET":"中正路","SECT":"二段","MAREA":" ","LANE":" ","ALLEY":" ","HOUSE_NO":"８５４號","E_COORD97":173462.98999999999,"N_COORD97":2540475.02,"ADDRESS":"中正路二段８５４號","OBJECTID":197623},"geometry":{"x":173462.99000000022,"y":2540475.0200000014}},{"attributes":{"ID":197625,"DIS_CODE":0,"TOWNNAME":"善化區","LI":"六分里","LIN":"3鄰","STREET":" ","SECT":" ","MAREA":"東勢宅","LANE":" ","ALLEY":" ","HOUSE_NO":"２之７號","E_COORD97":177877.20999999999,"N_COORD97":2561183.27,"ADDRESS":"東勢宅２之７號","OBJECTID":197624},"geometry":{"x":177877.20999999996,"y":2561183.2699999996}},{"attributes":{"ID":197626,"DIS_CODE":0,"TOWNNAME":"永康區","LI":"\u25A0洲里","LIN":"40鄰","STREET":"洲工街","SECT":" ","MAREA":" ","LANE":" ","ALLEY":" ","HOUSE_NO":"１４８號","E_COORD97":170705.39000000001,"N_COORD97":2548602.5800000001,"ADDRESS":"洲工街１４８號","OBJECTID":197625},"geometry":{"x":170705.38999999966,"y":2548602.5800000001}},{"attributes":{"ID":197627,"DIS_CODE":0,"TOWNNAME":"仁德區","LI":"仁義里","LIN":"40鄰","STREET":"仁義五街","SECT":" ","MAREA":" ","LANE":" ","ALLEY":" ","HOUSE_NO":"３號","E_COORD97":173490.04000000001,"N_COORD97":2540437.52,"ADDRESS":"仁義五街３號","OBJECTID":197626},"geometry":{"x":173490.04000000004,"y":2540437.5200000014}},{"attributes":{"ID":197628,"DIS_CODE":0,"TOWNNAME":"仁德區","LI":"仁義里","LIN":"40鄰","STREET":"仁義五街","SECT":" ","MAREA":" ","LANE":" ","ALLEY":" ","HOUSE_NO":"１１號","E_COORD97":173511.17999999999,"N_COORD97":2540439.52,"ADDRESS":"仁義五街１１號","OBJECTID":197627},"geometry":{"x":173511.18000000063,"y":2540439.5199999996}},{"attributes":{"ID":197629,"DIS_CODE":0,"TOWNNAME":"仁德區","LI":"仁義里","LIN":"40鄰","STREET":"仁義五街","SECT":" ","MAREA":" ","LANE":" ","ALLEY":" ","HOUSE_NO":"１７號","E_COORD97":173525.98000000001,"N_COORD97":2540441.27,"ADDRESS":"仁義五街１７號","OBJECTID":197628},"geometry":{"x":173525.98000000045,"y":2540441.2699999996}},{"attributes":{"ID":197630,"DIS_CODE":0,"TOWNNAME":"永康區","LI":"\u25A0洲里","LIN":"40鄰","STREET":"洲工街","SECT":" ","MAREA":" ","LANE":" ","ALLEY":" ","HOUSE_NO":"１７１號","E_COORD97":170742.70000000001,"N_COORD97":2548688.7799999998,"ADDRESS":"洲工街１７１號","OBJECTID":197629},"geometry":{"x":170742.70000000019,"y":2548688.7799999993}},{"attributes":{"ID":197631,"DIS_CODE":0,"TOWNNAME":"永康區","LI":"\u25A0洲里","LIN":"40鄰","STREET":"正南六街","SECT":" ","MAREA":" ","LANE":" ","ALLEY":" ","HOUSE_NO":"９８號","E_COORD97":170925.59,"N_COORD97":2548593.25,"ADDRESS":"正南六街９８號","OBJECTID":197630},"geometry":{"x":170925.59000000078,"y":2548593.2500000019}},{"attributes":{"ID":197632,"DIS_CODE":0,"TOWNNAME":"永康區","LI":"\u25A0洲里","LIN":"40鄰","STREET":"洲工街","SECT":" ","MAREA":" ","LANE":" ","ALLEY":" ","HOUSE_NO":"１６６號","E_COORD97":170749.64999999999,"N_COORD97":2548674.4900000002,"ADDRESS":"洲工街１６６號","OBJECTID":197631},"geometry":{"x":170749.65000000037,"y":2548674.4900000002}},{"attributes":{"ID":197633,"DIS_CODE":0,"TOWNNAME":"永康區","LI":"\u25A0洲里","LIN":"40鄰","STREET":"正南六街","SECT":" ","MAREA":" ","LANE":" ","ALLEY":" ","HOUSE_NO":"１０２號","E_COORD97":170912.17999999999,"N_COORD97":2548607.75,"ADDRESS":"正南六街１０２號","OBJECTID":197632},"geometry":{"x":170912.18000000156,"y":2548607.7500000019}},{"attributes":{"ID":197634,"DIS_CODE":0,"TOWNNAME":"永康區","LI":"\u25A0洲里","LIN":"40鄰","STREET":"正南六街","SECT":" ","MAREA":" ","LANE":" ","ALLEY":" ","HOUSE_NO":"８８號","E_COORD97":170936.67999999999,"N_COORD97":2548582.25,"ADDRESS":"正南六街８８號","OBJECTID":197633},"geometry":{"x":170936.68000000063,"y":2548582.25}},{"attributes":{"ID":197635,"DIS_CODE":0,"TOWNNAME":"永康區","LI":"\u25A0洲里","LIN":"40鄰","STREET":"正南六街","SECT":" ","MAREA":" ","LANE":" ","ALLEY":" ","HOUSE_NO":"６７號","E_COORD97":170929.59,"N_COORD97":2548555.9900000002,"ADDRESS":"正南六街６７號","OBJECTID":197634},"geometry":{"x":170929.58999999985,"y":2548555.9900000002}},{"attributes":{"ID":197636,"DIS_CODE":0,"TOWNNAME":"永康區","LI":"\u25A0洲里","LIN":"40鄰","STREET":"洲工街","SECT":" ","MAREA":" ","LANE":" ","ALLEY":" ","HOUSE_NO":"１７４號","E_COORD97":170823,"N_COORD97":2548741.4199999999,"ADDRESS":"洲工街１７４號","OBJECTID":197635},"geometry":{"x":170823.00000000093,"y":2548741.4200000018}},{"attributes":{"ID":197637,"DIS_CODE":0,"TOWNNAME":"新營區","LI":"新南里","LIN":"18鄰","STREET":"隋唐街","SECT":" ","MAREA":" ","LANE":"３１巷","ALLEY":"１０弄","HOUSE_NO":"２３號","E_COORD97":178632.69,"N_COORD97":2578430.8500000001,"ADDRESS":"隋唐街３１巷１０弄２３號","OBJECTID":197636},"geometry":{"x":178632.68999999948,"y":2578430.8500000015}},{"attributes":{"ID":197638,"DIS_CODE":0,"TOWNNAME":"新營區","LI":"新南里","LIN":"18鄰","STREET":"隋唐街","SECT":" ","MAREA":" ","LANE":"３１巷","ALLEY":"２８弄","HOUSE_NO":"１６號","E_COORD97":178643.70999999999,"N_COORD97":2578398.6699999999,"ADDRESS":"隋唐街３１巷２８弄１６號","OBJECTID":197637},"geometry":{"x":178643.70999999996,"y":2578398.6700000018}},{"attributes":{"ID":197639,"DIS_CODE":0,"TOWNNAME":"新營區","LI":"新南里","LIN":"18鄰","STREET":"隋唐街","SECT":" ","MAREA":" ","LANE":"３１巷","ALLEY":"１０弄","HOUSE_NO":"７號","E_COORD97":178667.17000000001,"N_COORD97":2578424.0299999998,"ADDRESS":"隋唐街３１巷１０弄７號","OBJECTID":197638},"geometry":{"x":178667.16999999993,"y":2578424.0299999993}},{"attributes":{"ID":197640,"DIS_CODE":0,"TOWNNAME":"安南區","LI":"幸福里","LIN":"21鄰","STREET":"國安街","SECT":" ","MAREA":" ","LANE":" ","ALLEY":" ","HOUSE_NO":"１９７號","E_COORD97":166659.10999999999,"N_COORD97":2546931.7000000002,"ADDRESS":"國安街１９７號","OBJECTID":197639},"geometry":{"x":166659.11000000127,"y":2546931.7000000011}},{"attributes":{"ID":197641,"DIS_CODE":0,"TOWNNAME":"安南區","LI":"梅花里","LIN":"21鄰","STREET":"同安路","SECT":" ","MAREA":" ","LANE":" ","ALLEY":" ","HOUSE_NO":"２６４號","E_COORD97":167183.73999999999,"N_COORD97":2549147.77,"ADDRESS":"同安路２６４號","OBJECTID":197640},"geometry":{"x":167183.74000000115,"y":2549147.7699999996}},{"attributes":{"ID":197642,"DIS_CODE":0,"TOWNNAME":"安南區","LI":"梅花里","LIN":"21鄰","STREET":"同安路","SECT":" ","MAREA":" ","LANE":" ","ALLEY":" ","HOUSE_NO":"２６６號","E_COORD97":167188.04999999999,"N_COORD97":2549152.27,"ADDRESS":"同安路２６６號","OBJECTID":197641},"geometry":{"x":167188.04999999981,"y":2549152.2700000014}},{"attributes":{"ID":197643,"DIS_CODE":0,"TOWNNAME":"安南區","LI":"梅花里","LIN":"21鄰","STREET":"同安路","SECT":" ","MAREA":" ","LANE":" ","ALLEY":" ","HOUSE_NO":"２６８號","E_COORD97":167190.60000000001,"N_COORD97":2549155.0099999998,"ADDRESS":"同安路２６８號","OBJECTID":197642},"geometry":{"x":167190.60000000056,"y":2549155.0100000016}},{"attributes":{"ID":197644,"DIS_CODE":0,"TOWNNAME":"新營區","LI":"新南里","LIN":"18鄰","STREET":"隋唐街","SECT":" ","MAREA":" ","LANE":"３１巷","ALLEY":"２８弄","HOUSE_NO":"６號","E_COORD97":178662.88,"N_COORD97":2578388.6000000001,"ADDRESS":"隋唐街３１巷２８弄６號","OBJECTID":197643},"geometry":{"x":178662.87999999989,"y":2578388.6000000015}},{"attributes":{"ID":197645,"DIS_CODE":0,"TOWNNAME":"善化區","LI":"溪美里","LIN":"19鄰","STREET":" ","SECT":" ","MAREA":"溪尾","LANE":" ","ALLEY":" ","HOUSE_NO":"２２７號之８","E_COORD97":177277.04000000001,"N_COORD97":2561509.77,"ADDRESS":"溪尾２２７號之８","OBJECTID":197644},"geometry":{"x":177277.04000000004,"y":2561509.7700000033}},{"attributes":{"ID":197646,"DIS_CODE":0,"TOWNNAME":"善化區","LI":"六分里","LIN":"3鄰","STREET":" ","SECT":" ","MAREA":"東勢宅","LANE":" ","ALLEY":" ","HOUSE_NO":"４號","E_COORD97":177876.01000000001,"N_COORD97":2561112.0099999998,"ADDRESS":"東勢宅４號","OBJECTID":197645},"geometry":{"x":177876.01000000071,"y":2561112.0100000016}},{"attributes":{"ID":197647,"DIS_CODE":0,"TOWNNAME":"善化區","LI":"小新里","LIN":"3鄰","STREET":" ","SECT":" ","MAREA":"小新營","LANE":" ","ALLEY":" ","HOUSE_NO":"１８號","E_COORD97":179849.99217799999,"N_COORD97":2558287.7083000001,"ADDRESS":"小新營１８號","OBJECTID":197646},"geometry":{"x":179849.99217800051,"y":2558287.7083030008}},{"attributes":{"ID":197648,"DIS_CODE":0,"TOWNNAME":"善化區","LI":"小新里","LIN":"3鄰","STREET":" ","SECT":" ","MAREA":"小新營","LANE":" ","ALLEY":" ","HOUSE_NO":"２２號之７","E_COORD97":179842.03,"N_COORD97":2558326.52,"ADDRESS":"小新營２２號之７","OBJECTID":197647},"geometry":{"x":179842.03000000026,"y":2558326.5199999996}},{"attributes":{"ID":197649,"DIS_CODE":0,"TOWNNAME":"善化區","LI":"六分里","LIN":"3鄰","STREET":" ","SECT":" ","MAREA":"東勢宅","LANE":" ","ALLEY":" ","HOUSE_NO":"１４０號","E_COORD97":177921.89999999999,"N_COORD97":2560541.0099999998,"ADDRESS":"東勢宅１４０號","OBJECTID":197648},"geometry":{"x":177921.90000000037,"y":2560541.0099999998}},{"attributes":{"ID":197650,"DIS_CODE":0,"TOWNNAME":"善化區","LI":"小新里","LIN":"3鄰","STREET":" ","SECT":" ","MAREA":"小新營","LANE":" ","ALLEY":" ","HOUSE_NO":"２０號之６","E_COORD97":179810.594989,"N_COORD97":2558268.4466499998,"ADDRESS":"小新營２０號之６","OBJECTID":197649},"geometry":{"x":179810.59498900082,"y":2558268.4466459975}},{"attributes":{"ID":197651,"DIS_CODE":0,"TOWNNAME":"善化區","LI":"六分里","LIN":"3鄰","STREET":" ","SECT":" ","MAREA":"東勢宅","LANE":" ","ALLEY":" ","HOUSE_NO":"２３０號","E_COORD97":177599.95999999999,"N_COORD97":2560263.5099999998,"ADDRESS":"東勢宅２３０號","OBJECTID":197650},"geometry":{"x":177599.96000000089,"y":2560263.5099999998}},{"attributes":{"ID":197652,"DIS_CODE":0,"TOWNNAME":"善化區","LI":"小新里","LIN":"3鄰","STREET":" ","SECT":" ","MAREA":"小新營","LANE":" ","ALLEY":" ","HOUSE_NO":"１９號之１","E_COORD97":179837.35000000001,"N_COORD97":2558279.27,"ADDRESS":"小新營１９號之１","OBJECTID":197651},"geometry":{"x":179837.34999999963,"y":2558279.2700000014}},{"attributes":{"ID":197653,"DIS_CODE":0,"TOWNNAME":"善化區","LI":"什乃里","LIN":"3鄰","STREET":" ","SECT":" ","MAREA":"什乃","LANE":" ","ALLEY":" ","HOUSE_NO":"３０號","E_COORD97":176168.67999999999,"N_COORD97":2560567.25,"ADDRESS":"什乃３０號","OBJECTID":197652},"geometry":{"x":176168.6799999997,"y":2560567.25}},{"attributes":{"ID":197654,"DIS_CODE":0,"TOWNNAME":"歸仁區","LI":"七甲里","LIN":"18鄰","STREET":"南潭三街","SECT":" ","MAREA":" ","LANE":"１６２巷","ALLEY":"１１弄","HOUSE_NO":"１９號","E_COORD97":176488.67999999999,"N_COORD97":2543121.0299999998,"ADDRESS":"南潭三街１６２巷１１弄１９號","OBJECTID":197653},"geometry":{"x":176488.6799999997,"y":2543121.0299999993}},{"attributes":{"ID":197655,"DIS_CODE":0,"TOWNNAME":"歸仁區","LI":"七甲里","LIN":"18鄰","STREET":"南潭三街","SECT":" ","MAREA":" ","LANE":"１６２巷","ALLEY":"８弄","HOUSE_NO":"２號","E_COORD97":176432.98000000001,"N_COORD97":2543151.0299999998,"ADDRESS":"南潭三街１６２巷８弄２號","OBJECTID":197654},"geometry":{"x":176432.98000000138,"y":2543151.0299999993}},{"attributes":{"ID":197656,"DIS_CODE":0,"TOWNNAME":"善化區","LI":"什乃里","LIN":"3鄰","STREET":" ","SECT":" ","MAREA":"什乃","LANE":" ","ALLEY":" ","HOUSE_NO":"３１號","E_COORD97":176152.29000000001,"N_COORD97":2560534.75,"ADDRESS":"什乃３１號","OBJECTID":197655},"geometry":{"x":176152.29000000097,"y":2560534.7500000019}},{"attributes":{"ID":197657,"DIS_CODE":0,"TOWNNAME":"善化區","LI":"小新里","LIN":"3鄰","STREET":" ","SECT":" ","MAREA":"小新營","LANE":" ","ALLEY":" ","HOUSE_NO":"２０之５號","E_COORD97":179812.51000000001,"N_COORD97":2558270.02,"ADDRESS":"小新營２０之５號","OBJECTID":197656},"geometry":{"x":179812.50999999978,"y":2558270.0200000033}},{"attributes":{"ID":197658,"DIS_CODE":0,"TOWNNAME":"善化區","LI":"六分里","LIN":"3鄰","STREET":" ","SECT":" ","MAREA":"東勢宅","LANE":" ","ALLEY":" ","HOUSE_NO":"１５５號","E_COORD97":177881.5,"N_COORD97":2560351.0099999998,"ADDRESS":"東勢宅１５５號","OBJECTID":197657},"geometry":{"x":177881.50000000093,"y":2560351.0099999998}},{"attributes":{"ID":197659,"DIS_CODE":0,"TOWNNAME":"善化區","LI":"六分里","LIN":"3鄰","STREET":" ","SECT":" ","MAREA":"東勢宅","LANE":" ","ALLEY":" ","HOUSE_NO":"２４０號","E_COORD97":177384.14999999999,"N_COORD97":2560495.0099999998,"ADDRESS":"東勢宅２４０號","OBJECTID":197658},"geometry":{"x":177384.1500000013,"y":2560495.0100000016}},{"attributes":{"ID":197660,"DIS_CODE":0,"TOWNNAME":"善化區","LI":"小新里","LIN":"3鄰","STREET":" ","SECT":" ","MAREA":"小新營","LANE":" ","ALLEY":" ","HOUSE_NO":"１８號之１","E_COORD97":179841.096039,"N_COORD97":2558279.2416400001,"ADDRESS":"小新營１８號之１","OBJECTID":197659},"geometry":{"x":179841.0960390009,"y":2558279.2416409999}},{"attributes":{"ID":197661,"DIS_CODE":0,"TOWNNAME":"善化區","LI":"小新里","LIN":"3鄰","STREET":" ","SECT":" ","MAREA":"小新營","LANE":" ","ALLEY":" ","HOUSE_NO":"２２號之９","E_COORD97":179842.51999999999,"N_COORD97":2558335.02,"ADDRESS":"小新營２２號之９","OBJECTID":197660},"geometry":{"x":179842.52000000048,"y":2558335.0200000014}},{"attributes":{"ID":197662,"DIS_CODE":0,"TOWNNAME":"善化區","LI":"小新里","LIN":"3鄰","STREET":" ","SECT":" ","MAREA":"小新營","LANE":" ","ALLEY":" ","HOUSE_NO":"１５號之１","E_COORD97":179883.98000000001,"N_COORD97":2558316.27,"ADDRESS":"小新營１５號之１","OBJECTID":197661},"geometry":{"x":179883.98000000138,"y":2558316.2700000014}},{"attributes":{"ID":197663,"DIS_CODE":0,"TOWNNAME":"善化區","LI":"小新里","LIN":"3鄰","STREET":" ","SECT":" ","MAREA":"小新營","LANE":" ","ALLEY":" ","HOUSE_NO":"１５號","E_COORD97":179862.17999999999,"N_COORD97":2558303.75,"ADDRESS":"小新營１５號","OBJECTID":197662},"geometry":{"x":179862.1799999997,"y":2558303.7500000019}},{"attributes":{"ID":197664,"DIS_CODE":0,"TOWNNAME":"善化區","LI":"小新里","LIN":"3鄰","STREET":" ","SECT":" ","MAREA":"小新營","LANE":" ","ALLEY":" ","HOUSE_NO":"２２號之１","E_COORD97":179844.81,"N_COORD97":2558299.27,"ADDRESS":"小新營２２號之１","OBJECTID":197663},"geometry":{"x":179844.81000000145,"y":2558299.2700000014}},{"attributes":{"ID":197665,"DIS_CODE":0,"TOWNNAME":"善化區","LI":"什乃里","LIN":"3鄰","STREET":" ","SECT":" ","MAREA":"什乃","LANE":" ","ALLEY":" ","HOUSE_NO":"３２號","E_COORD97":176155.76999999999,"N_COORD97":2560518.75,"ADDRESS":"什乃３２號","OBJECTID":197664},"geometry":{"x":176155.76999999955,"y":2560518.75}},{"attributes":{"ID":197666,"DIS_CODE":0,"TOWNNAME":"官田區","LI":"東庄里","LIN":"3鄰","STREET":" ","SECT":" ","MAREA":"西庄","LANE":" ","ALLEY":" ","HOUSE_NO":"１２５號之６","E_COORD97":177933.04999999999,"N_COORD97":2565321.0600000001,"ADDRESS":"西庄１２５號之６","OBJECTID":197665},"geometry":{"x":177933.05000000168,"y":2565321.0600000005}},{"attributes":{"ID":197667,"DIS_CODE":0,"TOWNNAME":"官田區","LI":"東庄里","LIN":"3鄰","STREET":" ","SECT":" ","MAREA":"西庄","LANE":" ","ALLEY":" ","HOUSE_NO":"１２５號","E_COORD97":177953.45999999999,"N_COORD97":2565272.52,"ADDRESS":"西庄１２５號","OBJECTID":197666},"geometry":{"x":177953.45999999996,"y":2565272.5200000014}},{"attributes":{"ID":197668,"DIS_CODE":0,"TOWNNAME":"官田區","LI":"東庄里","LIN":"3鄰","STREET":" ","SECT":" ","MAREA":"西庄","LANE":" ","ALLEY":" ","HOUSE_NO":"１２６號之２","E_COORD97":178066.38,"N_COORD97":2565280.3999999999,"ADDRESS":"西庄１２６號之２","OBJECTID":197667},"geometry":{"x":178066.38000000175,"y":2565280.4000000022}},{"attributes":{"ID":197669,"DIS_CODE":0,"TOWNNAME":"善化區","LI":"坐駕里","LIN":"21鄰","STREET":" ","SECT":" ","MAREA":"坐駕","LANE":" ","ALLEY":" ","HOUSE_NO":"１５號之２","E_COORD97":178222.45000000001,"N_COORD97":2558350.77,"ADDRESS":"坐駕１５號之２","OBJECTID":197668},"geometry":{"x":178222.45000000112,"y":2558350.7700000014}},{"attributes":{"ID":197670,"DIS_CODE":0,"TOWNNAME":"善化區","LI":"溪美里","LIN":"19鄰","STREET":" ","SECT":" ","MAREA":"溪尾","LANE":" ","ALLEY":" ","HOUSE_NO":"２２７號之３","E_COORD97":177295.16,"N_COORD97":2561489.02,"ADDRESS":"溪尾２２７號之３","OBJECTID":197669},"geometry":{"x":177295.16000000201,"y":2561489.0200000014}},{"attributes":{"ID":197671,"DIS_CODE":0,"TOWNNAME":"歸仁區","LI":"七甲里","LIN":"18鄰","STREET":"南潭三街","SECT":" ","MAREA":" ","LANE":"１６２巷","ALLEY":"１１弄","HOUSE_NO":"１３號","E_COORD97":176476.38,"N_COORD97":2543121.0299999998,"ADDRESS":"南潭三街１６２巷１１弄１３號","OBJECTID":197670},"geometry":{"x":176476.38000000175,"y":2543121.0299999993}},{"attributes":{"ID":197672,"DIS_CODE":0,"TOWNNAME":"善化區","LI":"胡厝里","LIN":"19鄰","STREET":" ","SECT":" ","MAREA":"西衛","LANE":" ","ALLEY":" ","HOUSE_NO":"２３號之１３","E_COORD97":174341.31,"N_COORD97":2559390.27,"ADDRESS":"西衛２３號之１３","OBJECTID":197671},"geometry":{"x":174341.31000000052,"y":2559390.2699999977}},{"attributes":{"ID":197673,"DIS_CODE":0,"TOWNNAME":"歸仁區","LI":"七甲里","LIN":"18鄰","STREET":"南潭三街","SECT":" ","MAREA":" ","LANE":"１６２巷","ALLEY":"８弄","HOUSE_NO":"５號","E_COORD97":176423.78,"N_COORD97":2543141.02,"ADDRESS":"南潭三街１６２巷８弄５號","OBJECTID":197672},"geometry":{"x":176423.78000000119,"y":2543141.0199999996}},{"attributes":{"ID":197674,"DIS_CODE":0,"TOWNNAME":"歸仁區","LI":"大廟里","LIN":"18鄰","STREET":"大廟五街","SECT":" ","MAREA":" ","LANE":"２７巷","ALLEY":"２弄","HOUSE_NO":"１５號","E_COORD97":175917.73000000001,"N_COORD97":2544262.0899999999,"ADDRESS":"大廟五街２７巷２弄１５號","OBJECTID":197673},"geometry":{"x":175917.73000000045,"y":2544262.0900000017}},{"attributes":{"ID":197675,"DIS_CODE":0,"TOWNNAME":"善化區","LI":"小新里","LIN":"22鄰","STREET":"成功路","SECT":" ","MAREA":" ","LANE":" ","ALLEY":" ","HOUSE_NO":"１號之１","E_COORD97":180381.69766999999,"N_COORD97":2558451.2118199999,"ADDRESS":"成功路１號之１","OBJECTID":197674},"geometry":{"x":180381.69767000061,"y":2558451.2118200008}},{"attributes":{"ID":197676,"DIS_CODE":0,"TOWNNAME":"善化區","LI":"小新里","LIN":"21鄰","STREET":" ","SECT":" ","MAREA":"小新營","LANE":" ","ALLEY":" ","HOUSE_NO":"３０７號","E_COORD97":180198.12,"N_COORD97":2558508.5,"ADDRESS":"小新營３０７號","OBJECTID":197675},"geometry":{"x":180198.12000000104,"y":2558508.5000000019}},{"attributes":{"ID":197677,"DIS_CODE":0,"TOWNNAME":"官田區","LI":"東庄里","LIN":"3鄰","STREET":" ","SECT":" ","MAREA":"西庄","LANE":" ","ALLEY":" ","HOUSE_NO":"１２６號之３","E_COORD97":178037.07000000001,"N_COORD97":2565296.4100000001,"ADDRESS":"西庄１２６號之３","OBJECTID":197676},"geometry":{"x":178037.07000000123,"y":2565296.4100000039}},{"attributes":{"ID":197678,"DIS_CODE":0,"TOWNNAME":"歸仁區","LI":"大廟里","LIN":"18鄰","STREET":"大廟五街","SECT":" ","MAREA":" ","LANE":"２７巷","ALLEY":"６弄","HOUSE_NO":"３號","E_COORD97":175875.38,"N_COORD97":2544245.0899999999,"ADDRESS":"大廟五街２７巷６弄３號","OBJECTID":197677},"geometry":{"x":175875.38000000082,"y":2544245.0900000017}},{"attributes":{"ID":197679,"DIS_CODE":0,"TOWNNAME":"柳營區","LI":"人和里","LIN":"18鄰","STREET":"柳營路","SECT":"三段","MAREA":" ","LANE":"４２０巷","ALLEY":"１９弄","HOUSE_NO":"１０號","E_COORD97":179774.59,"N_COORD97":2577066.6000000001,"ADDRESS":"柳營路三段４２０巷１９弄１０號","OBJECTID":197678},"geometry":{"x":179774.58999999985,"y":2577066.6000000015}},{"attributes":{"ID":197680,"DIS_CODE":0,"TOWNNAME":"柳營區","LI":"人和里","LIN":"18鄰","STREET":"柳營路","SECT":"三段","MAREA":" ","LANE":"４２０巷","ALLEY":"１９弄","HOUSE_NO":"１２號","E_COORD97":179768.78,"N_COORD97":2577066.7999999998,"ADDRESS":"柳營路三段４２０巷１９弄１２號","OBJECTID":197679},"geometry":{"x":179768.78000000026,"y":2577066.8000000026}},{"attributes":{"ID":197681,"DIS_CODE":0,"TOWNNAME":"柳營區","LI":"人和里","LIN":"18鄰","STREET":"柳營路","SECT":"三段","MAREA":" ","LANE":"４２０巷","ALLEY":"１９弄","HOUSE_NO":"１號","E_COORD97":179751.81,"N_COORD97":2577062.77,"ADDRESS":"柳營路三段４２０巷１９弄１號","OBJECTID":197680},"geometry":{"x":179751.81000000052,"y":2577062.7700000014}},{"attributes":{"ID":197682,"DIS_CODE":0,"TOWNNAME":"柳營區","LI":"人和里","LIN":"18鄰","STREET":"柳營路","SECT":"三段","MAREA":" ","LANE":"４２０巷","ALLEY":"１９弄","HOUSE_NO":"２號","E_COORD97":179792.03,"N_COORD97":2577066.0099999998,"ADDRESS":"柳營路三段４２０巷１９弄２號","OBJECTID":197681},"geometry":{"x":179792.03000000119,"y":2577066.0099999998}},{"attributes":{"ID":197683,"DIS_CODE":0,"TOWNNAME":"柳營區","LI":"人和里","LIN":"18鄰","STREET":"柳營路","SECT":"三段","MAREA":" ","LANE":"４２０巷","ALLEY":"１９弄","HOUSE_NO":"３號","E_COORD97":179752.29999999999,"N_COORD97":2577068.6800000002,"ADDRESS":"柳營路三段４２０巷１９弄３號","OBJECTID":197682},"geometry":{"x":179752.30000000075,"y":2577068.6800000034}},{"attributes":{"ID":197684,"DIS_CODE":0,"TOWNNAME":"柳營區","LI":"人和里","LIN":"18鄰","STREET":"柳營路","SECT":"三段","MAREA":" ","LANE":"４２０巷","ALLEY":"１９弄","HOUSE_NO":"６號","E_COORD97":179786.22,"N_COORD97":2577066.21,"ADDRESS":"柳營路三段４２０巷１９弄６號","OBJECTID":197683},"geometry":{"x":179786.21999999881,"y":2577066.209999999}},{"attributes":{"ID":197685,"DIS_CODE":0,"TOWNNAME":"柳營區","LI":"人和里","LIN":"18鄰","STREET":"柳營路","SECT":"三段","MAREA":" ","LANE":"４２０巷","ALLEY":"１９弄","HOUSE_NO":"８號","E_COORD97":179780.39999999999,"N_COORD97":2577066.3999999999,"ADDRESS":"柳營路三段４２０巷１９弄８號","OBJECTID":197684},"geometry":{"x":179780.40000000037,"y":2577066.4000000004}},{"attributes":{"ID":197686,"DIS_CODE":0,"TOWNNAME":"柳營區","LI":"人和里","LIN":"18鄰","STREET":"柳營路","SECT":"三段","MAREA":" ","LANE":"４２０巷","ALLEY":"１弄","HOUSE_NO":"２號","E_COORD97":179736.84,"N_COORD97":2577068.7599999998,"ADDRESS":"柳營路三段４２０巷１弄２號","OBJECTID":197685},"geometry":{"x":179736.84000000078,"y":2577068.7600000016}},{"attributes":{"ID":197687,"DIS_CODE":0,"TOWNNAME":"柳營區","LI":"人和里","LIN":"18鄰","STREET":"柳營路","SECT":"三段","MAREA":" ","LANE":"４２０巷","ALLEY":"２７弄","HOUSE_NO":"２號","E_COORD97":179821.25,"N_COORD97":2577068.8300000001,"ADDRESS":"柳營路三段４２０巷２７弄２號","OBJECTID":197686},"geometry":{"x":179821.25,"y":2577068.8300000019}},{"attributes":{"ID":197688,"DIS_CODE":0,"TOWNNAME":"柳營區","LI":"人和里","LIN":"18鄰","STREET":"柳營路","SECT":"三段","MAREA":" ","LANE":"４２０巷","ALLEY":"２７弄","HOUSE_NO":"６號","E_COORD97":179812.17999999999,"N_COORD97":2577071.77,"ADDRESS":"柳營路三段４２０巷２７弄６號","OBJECTID":197687},"geometry":{"x":179812.18000000063,"y":2577071.7700000014}},{"attributes":{"ID":197689,"DIS_CODE":0,"TOWNNAME":"官田區","LI":"東庄里","LIN":"3鄰","STREET":" ","SECT":" ","MAREA":"西庄","LANE":" ","ALLEY":" ","HOUSE_NO":"１２６號之４","E_COORD97":177995.35000000001,"N_COORD97":2565280.7599999998,"ADDRESS":"西庄１２６號之４","OBJECTID":197688},"geometry":{"x":177995.35000000056,"y":2565280.7600000016}},{"attributes":{"ID":197690,"DIS_CODE":0,"TOWNNAME":"柳營區","LI":"人和里","LIN":"18鄰","STREET":"柳營路","SECT":"三段","MAREA":" ","LANE":"４２０巷","ALLEY":"２７弄","HOUSE_NO":"８號","E_COORD97":179805.98000000001,"N_COORD97":2577073.2599999998,"ADDRESS":"柳營路三段４２０巷２７弄８號","OBJECTID":197689},"geometry":{"x":179805.98000000138,"y":2577073.2600000016}},{"attributes":{"ID":197691,"DIS_CODE":0,"TOWNNAME":"官田區","LI":"東庄里","LIN":"3鄰","STREET":" ","SECT":" ","MAREA":"西庄","LANE":" ","ALLEY":" ","HOUSE_NO":"１２６號之８","E_COORD97":178022.45999999999,"N_COORD97":2565244.21,"ADDRESS":"西庄１２６號之８","OBJECTID":197690},"geometry":{"x":178022.46000000089,"y":2565244.2100000046}},{"attributes":{"ID":197692,"DIS_CODE":0,"TOWNNAME":"歸仁區","LI":"大廟里","LIN":"18鄰","STREET":"大廟五街","SECT":" ","MAREA":" ","LANE":"２７巷","ALLEY":"６弄","HOUSE_NO":"１１號","E_COORD97":175883.92999999999,"N_COORD97":2544262.0899999999,"ADDRESS":"大廟五街２７巷６弄１１號","OBJECTID":197691},"geometry":{"x":175883.9299999997,"y":2544262.0900000017}},{"attributes":{"ID":197693,"DIS_CODE":0,"TOWNNAME":"官田區","LI":"東庄里","LIN":"3鄰","STREET":" ","SECT":" ","MAREA":"西庄","LANE":" ","ALLEY":" ","HOUSE_NO":"１２６號","E_COORD97":177973.14999999999,"N_COORD97":2565274.3799999999,"ADDRESS":"西庄１２６號","OBJECTID":197692},"geometry":{"x":177973.15000000037,"y":2565274.379999999}},{"attributes":{"ID":197694,"DIS_CODE":0,"TOWNNAME":"歸仁區","LI":"大廟里","LIN":"18鄰","STREET":"大廟五街","SECT":" ","MAREA":" ","LANE":"２７巷","ALLEY":"２弄","HOUSE_NO":"６號","E_COORD97":175916.28,"N_COORD97":2544231.0899999999,"ADDRESS":"大廟五街２７巷２弄６號","OBJECTID":197693},"geometry":{"x":175916.28000000212,"y":2544231.0900000017}},{"attributes":{"ID":197695,"DIS_CODE":0,"TOWNNAME":"官田區","LI":"官田里","LIN":"3鄰","STREET":" ","SECT":" ","MAREA":"官田","LANE":" ","ALLEY":" ","HOUSE_NO":"２３號之３","E_COORD97":182568.35999999999,"N_COORD97":2565277.8399999999,"ADDRESS":"官田２３號之３","OBJECTID":197694},"geometry":{"x":182568.36000000127,"y":2565277.8399999999}},{"attributes":{"ID":197696,"DIS_CODE":0,"TOWNNAME":"官田區","LI":"官田里","LIN":"3鄰","STREET":" ","SECT":" ","MAREA":"官田","LANE":" ","ALLEY":" ","HOUSE_NO":"２３號","E_COORD97":182555.5,"N_COORD97":2565280.71,"ADDRESS":"官田２３號","OBJECTID":197695},"geometry":{"x":182555.5,"y":2565280.7100000009}},{"attributes":{"ID":197697,"DIS_CODE":0,"TOWNNAME":"歸仁區","LI":"大廟里","LIN":"18鄰","STREET":"大廟五街","SECT":" ","MAREA":" ","LANE":"２７巷","ALLEY":"２弄","HOUSE_NO":"１４號","E_COORD97":175922.82999999999,"N_COORD97":2544249.0899999999,"ADDRESS":"大廟五街２７巷２弄１４號","OBJECTID":197696},"geometry":{"x":175922.83000000101,"y":2544249.0899999999}},{"attributes":{"ID":197698,"DIS_CODE":0,"TOWNNAME":"歸仁區","LI":"七甲里","LIN":"18鄰","STREET":"南潭三街","SECT":" ","MAREA":" ","LANE":"１６２巷","ALLEY":"７弄","HOUSE_NO":"２２號","E_COORD97":176494.73000000001,"N_COORD97":2543144.0299999998,"ADDRESS":"南潭三街１６２巷７弄２２號","OBJECTID":197697},"geometry":{"x":176494.73000000045,"y":2543144.0299999993}},{"attributes":{"ID":197699,"DIS_CODE":0,"TOWNNAME":"歸仁區","LI":"七甲里","LIN":"18鄰","STREET":"南潭三街","SECT":" ","MAREA":" ","LANE":"１６２巷","ALLEY":"７弄","HOUSE_NO":"２４號","E_COORD97":176498.82999999999,"N_COORD97":2543143.0299999998,"ADDRESS":"南潭三街１６２巷７弄２４號","OBJECTID":197698},"geometry":{"x":176498.82999999914,"y":2543143.0300000012}},{"attributes":{"ID":197700,"DIS_CODE":0,"TOWNNAME":"歸仁區","LI":"七甲里","LIN":"18鄰","STREET":"南潭三街","SECT":" ","MAREA":" ","LANE":"１６２巷","ALLEY":"７弄","HOUSE_NO":"８號","E_COORD97":176457.57999999999,"N_COORD97":2543142.0299999998,"ADDRESS":"南潭三街１６２巷７弄８號","OBJECTID":197699},"geometry":{"x":176457.58000000007,"y":2543142.0300000031}},{"attributes":{"ID":197701,"DIS_CODE":0,"TOWNNAME":"關廟區","LI":"北花里","LIN":"18鄰","STREET":"中正路","SECT":" ","MAREA":" ","LANE":"５６７巷","ALLEY":"８弄","HOUSE_NO":"２９號","E_COORD97":182330.41,"N_COORD97":2540363.25,"ADDRESS":"中正路５６７巷８弄２９號","OBJECTID":197700},"geometry":{"x":182330.41000000108,"y":2540363.25}},{"attributes":{"ID":197702,"DIS_CODE":0,"TOWNNAME":"關廟區","LI":"松腳里","LIN":"18鄰","STREET":"中山路","SECT":"一段","MAREA":" ","LANE":"８９巷","ALLEY":"３７弄","HOUSE_NO":"２９號","E_COORD97":181977.10999999999,"N_COORD97":2539909.2799999998,"ADDRESS":"中山路一段８９巷３７弄２９號","OBJECTID":197701},"geometry":{"x":181977.11000000034,"y":2539909.2800000031}},{"attributes":{"ID":197703,"DIS_CODE":0,"TOWNNAME":"關廟區","LI":"五甲里","LIN":"18鄰","STREET":"大富街","SECT":" ","MAREA":" ","LANE":"３９巷","ALLEY":"１弄","HOUSE_NO":"１６號","E_COORD97":180971.17000000001,"N_COORD97":2539091.25,"ADDRESS":"大富街３９巷１弄１６號","OBJECTID":197702},"geometry":{"x":180971.16999999993,"y":2539091.25}},{"attributes":{"ID":197704,"DIS_CODE":0,"TOWNNAME":"關廟區","LI":"北勢里","LIN":"18鄰","STREET":"成功路","SECT":" ","MAREA":" ","LANE":"３５３巷","ALLEY":"２弄","HOUSE_NO":"６號","E_COORD97":181252.57000000001,"N_COORD97":2540476.27,"ADDRESS":"成功路３５３巷２弄６號","OBJECTID":197703},"geometry":{"x":181252.57000000216,"y":2540476.2700000014}},{"attributes":{"ID":197705,"DIS_CODE":0,"TOWNNAME":"善化區","LI":"文昌里","LIN":"21鄰","STREET":"中正路","SECT":" ","MAREA":" ","LANE":" ","ALLEY":" ","HOUSE_NO":"６２號","E_COORD97":177757.75,"N_COORD97":2557757.75,"ADDRESS":"中正路６２號","OBJECTID":197704},"geometry":{"x":177757.75000000093,"y":2557757.7500000019}},{"attributes":{"ID":197706,"DIS_CODE":0,"TOWNNAME":"善化區","LI":"光文里","LIN":"21鄰","STREET":"建國路","SECT":" ","MAREA":" ","LANE":" ","ALLEY":" ","HOUSE_NO":"１８４號","E_COORD97":178027.14000000001,"N_COORD97":2559021.0299999998,"ADDRESS":"建國路１８４號","OBJECTID":197705},"geometry":{"x":178027.14000000153,"y":2559021.0299999993}},{"attributes":{"ID":197707,"DIS_CODE":0,"TOWNNAME":"安南區","LI":"大安里","LIN":"1鄰","STREET":"大安街","SECT":" ","MAREA":" ","LANE":" ","ALLEY":" ","HOUSE_NO":"３６號","E_COORD97":167137.59,"N_COORD97":2547958.5299999998,"ADDRESS":"大安街３６號","OBJECTID":197706},"geometry":{"x":167137.58999999985,"y":2547958.5299999993}},{"attributes":{"ID":197708,"DIS_CODE":0,"TOWNNAME":"南區","LI":"彰南里","LIN":"12鄰","STREET":"新樂路","SECT":" ","MAREA":" ","LANE":" ","ALLEY":" ","HOUSE_NO":"１５號","E_COORD97":165761.14000000001,"N_COORD97":2541935.7200000002,"ADDRESS":"新樂路１５號","OBJECTID":197707},"geometry":{"x":165761.1400000006,"y":2541935.7200000025}},{"attributes":{"ID":197709,"DIS_CODE":0,"TOWNNAME":"南區","LI":"彰南里","LIN":"11鄰","STREET":"新忠路","SECT":" ","MAREA":" ","LANE":" ","ALLEY":" ","HOUSE_NO":"１３號","E_COORD97":166151.95000000001,"N_COORD97":2542200.5600000001,"ADDRESS":"新忠路１３號","OBJECTID":197708},"geometry":{"x":166151.95000000019,"y":2542200.5600000042}},{"attributes":{"ID":197710,"DIS_CODE":0,"TOWNNAME":"南區","LI":"新昌里","LIN":"4鄰","STREET":"夏林路","SECT":" ","MAREA":" ","LANE":" ","ALLEY":" ","HOUSE_NO":"１３號","E_COORD97":167482.92000000001,"N_COORD97":2542833.5499999998,"ADDRESS":"夏林路１３號","OBJECTID":197709},"geometry":{"x":167482.91999999993,"y":2542833.5500000007}},{"attributes":{"ID":197711,"DIS_CODE":0,"TOWNNAME":"南區","LI":"彰南里","LIN":"13鄰","STREET":"新愛路","SECT":" ","MAREA":" ","LANE":" ","ALLEY":" ","HOUSE_NO":"１８號","E_COORD97":166039.57999999999,"N_COORD97":2541778.3100000001,"ADDRESS":"新愛路１８號","OBJECTID":197710},"geometry":{"x":166039.58000000194,"y":2541778.3100000042}},{"attributes":{"ID":197712,"DIS_CODE":0,"TOWNNAME":"關廟區","LI":"五甲里","LIN":"18鄰","STREET":"大富街","SECT":" ","MAREA":" ","LANE":"３９巷","ALLEY":"１弄","HOUSE_NO":"１８號","E_COORD97":180970.07000000001,"N_COORD97":2539094.25,"ADDRESS":"大富街３９巷１弄１８號","OBJECTID":197711},"geometry":{"x":180970.07000000123,"y":2539094.2500000019}},{"attributes":{"ID":197713,"DIS_CODE":0,"TOWNNAME":"仁德區","LI":"三甲里","LIN":"3鄰","STREET":" ","SECT":" ","MAREA":"三甲子","LANE":" ","ALLEY":" ","HOUSE_NO":"２６號之６","E_COORD97":171835.03,"N_COORD97":2536878.5499999998,"ADDRESS":"三甲子２６號之６","OBJECTID":197712},"geometry":{"x":171835.03000000119,"y":2536878.5500000026}},{"attributes":{"ID":197714,"DIS_CODE":0,"TOWNNAME":"關廟區","LI":"五甲里","LIN":"18鄰","STREET":"大富街","SECT":" ","MAREA":" ","LANE":"３９巷","ALLEY":"１弄","HOUSE_NO":"１０號","E_COORD97":180974.26999999999,"N_COORD97":2539083.25,"ADDRESS":"大富街３９巷１弄１０號","OBJECTID":197713},"geometry":{"x":180974.27000000048,"y":2539083.2500000019}},{"attributes":{"ID":197715,"DIS_CODE":0,"TOWNNAME":"關廟區","LI":"五甲里","LIN":"18鄰","STREET":"大富街","SECT":" ","MAREA":" ","LANE":"３９巷","ALLEY":"１弄","HOUSE_NO":"１３號","E_COORD97":180951.67000000001,"N_COORD97":2539085.25,"ADDRESS":"大富街３９巷１弄１３號","OBJECTID":197714},"geometry":{"x":180951.67000000086,"y":2539085.25}},{"attributes":{"ID":197716,"DIS_CODE":0,"TOWNNAME":"關廟區","LI":"五甲里","LIN":"18鄰","STREET":"大富街","SECT":" ","MAREA":" ","LANE":"３９巷","ALLEY":"１弄","HOUSE_NO":"９號","E_COORD97":180953.01999999999,"N_COORD97":2539078.25,"ADDRESS":"大富街３９巷１弄９號","OBJECTID":197715},"geometry":{"x":180953.01999999955,"y":2539078.25}},{"attributes":{"ID":197717,"DIS_CODE":0,"TOWNNAME":"關廟區","LI":"五甲里","LIN":"18鄰","STREET":"大富街","SECT":" ","MAREA":" ","LANE":"３９巷","ALLEY":"１弄","HOUSE_NO":"２號","E_COORD97":180977.22,"N_COORD97":2539072.25,"ADDRESS":"大富街３９巷１弄２號","OBJECTID":197716},"geometry":{"x":180977.21999999974,"y":2539072.25}},{"attributes":{"ID":197718,"DIS_CODE":0,"TOWNNAME":"關廟區","LI":"五甲里","LIN":"18鄰","STREET":"大富街","SECT":" ","MAREA":" ","LANE":"３９巷","ALLEY":"１弄","HOUSE_NO":"１５號","E_COORD97":180950.87,"N_COORD97":2539088.25,"ADDRESS":"大富街３９巷１弄１５號","OBJECTID":197717},"geometry":{"x":180950.87000000104,"y":2539088.25}},{"attributes":{"ID":197719,"DIS_CODE":0,"TOWNNAME":"北區","LI":"開元里","LIN":"18鄰","STREET":"北園街","SECT":" ","MAREA":" ","LANE":"８７巷","ALLEY":"１１９弄","HOUSE_NO":"１０號","E_COORD97":170116.94,"N_COORD97":2545824.5800000001,"ADDRESS":"北園街８７巷１１９弄１０號","OBJECTID":197718},"geometry":{"x":170116.94000000134,"y":2545824.5800000019}},{"attributes":{"ID":197720,"DIS_CODE":0,"TOWNNAME":"北區","LI":"開元里","LIN":"18鄰","STREET":"北園街","SECT":" ","MAREA":" ","LANE":"８７巷","ALLEY":"１１９弄","HOUSE_NO":"１１號","E_COORD97":170110.51999999999,"N_COORD97":2545818.7799999998,"ADDRESS":"北園街８７巷１１９弄１１號","OBJECTID":197719},"geometry":{"x":170110.51999999955,"y":2545818.7800000031}},{"attributes":{"ID":197721,"DIS_CODE":0,"TOWNNAME":"北區","LI":"開元里","LIN":"18鄰","STREET":"北園街","SECT":" ","MAREA":" ","LANE":"８７巷","ALLEY":"１１９弄","HOUSE_NO":"１２號","E_COORD97":170111.48000000001,"N_COORD97":2545825.3399999999,"ADDRESS":"北園街８７巷１１９弄１２號","OBJECTID":197720},"geometry":{"x":170111.48000000138,"y":2545825.3400000036}},{"attributes":{"ID":197722,"DIS_CODE":0,"TOWNNAME":"北區","LI":"開元里","LIN":"18鄰","STREET":"北園街","SECT":" ","MAREA":" ","LANE":"８７巷","ALLEY":"１１９弄","HOUSE_NO":"１３號","E_COORD97":170106.59,"N_COORD97":2545818.6699999999,"ADDRESS":"北園街８７巷１１９弄１３號","OBJECTID":197721},"geometry":{"x":170106.59000000078,"y":2545818.6699999999}},{"attributes":{"ID":197723,"DIS_CODE":0,"TOWNNAME":"北區","LI":"開元里","LIN":"18鄰","STREET":"北園街","SECT":" ","MAREA":" ","LANE":"８７巷","ALLEY":"１１９弄","HOUSE_NO":"１４號","E_COORD97":170107.78,"N_COORD97":2545824.6899999999,"ADDRESS":"北園街８７巷１１９弄１４號","OBJECTID":197722},"geometry":{"x":170107.78000000026,"y":2545824.6899999995}},{"attributes":{"ID":197724,"DIS_CODE":0,"TOWNNAME":"北區","LI":"開元里","LIN":"18鄰","STREET":"北園街","SECT":" ","MAREA":" ","LANE":"８７巷","ALLEY":"１１９弄","HOUSE_NO":"１５號","E_COORD97":170102.45000000001,"N_COORD97":2545818.1299999999,"ADDRESS":"北園街８７巷１１９弄１５號","OBJECTID":197723},"geometry":{"x":170102.45000000112,"y":2545818.129999999}},{"attributes":{"ID":197725,"DIS_CODE":0,"TOWNNAME":"北區","LI":"開元里","LIN":"18鄰","STREET":"北園街","SECT":" ","MAREA":" ","LANE":"８７巷","ALLEY":"１１９弄","HOUSE_NO":"１６號","E_COORD97":170103.53,"N_COORD97":2545825.2400000002,"ADDRESS":"北園街８７巷１１９弄１６號","OBJECTID":197724},"geometry":{"x":170103.53000000212,"y":2545825.2400000002}},{"attributes":{"ID":197726,"DIS_CODE":0,"TOWNNAME":"北區","LI":"開元里","LIN":"18鄰","STREET":"北園街","SECT":" ","MAREA":" ","LANE":"８７巷","ALLEY":"１１９弄","HOUSE_NO":"１７號","E_COORD97":170097.10999999999,"N_COORD97":2545817.6899999999,"ADDRESS":"北園街８７巷１１９弄１７號","OBJECTID":197725},"geometry":{"x":170097.11000000127,"y":2545817.6899999995}},{"attributes":{"ID":197727,"DIS_CODE":0,"TOWNNAME":"南區","LI":"新昌里","LIN":"1鄰","STREET":"西門路","SECT":"一段","MAREA":" ","LANE":" ","ALLEY":" ","HOUSE_NO":"６１３號","E_COORD97":167707.85000000001,"N_COORD97":2542886.8399999999,"ADDRESS":"西門路一段６１３號","OBJECTID":197726},"geometry":{"x":167707.85000000056,"y":2542886.8400000017}},{"attributes":{"ID":197728,"DIS_CODE":0,"TOWNNAME":"善化區","LI":"小新里","LIN":"21鄰","STREET":" ","SECT":" ","MAREA":"小新營","LANE":" ","ALLEY":" ","HOUSE_NO":"３２１號","E_COORD97":180196.41,"N_COORD97":2558470,"ADDRESS":"小新營３２１號","OBJECTID":197727},"geometry":{"x":180196.41000000108,"y":2558470}},{"attributes":{"ID":197729,"DIS_CODE":0,"TOWNNAME":"官田區","LI":"官田里","LIN":"3鄰","STREET":" ","SECT":" ","MAREA":"官田","LANE":" ","ALLEY":" ","HOUSE_NO":"２４號","E_COORD97":182573.91,"N_COORD97":2565285.9300000002,"ADDRESS":"官田２４號","OBJECTID":197728},"geometry":{"x":182573.90999999922,"y":2565285.9300000016}},{"attributes":{"ID":197730,"DIS_CODE":0,"TOWNNAME":"安南區","LI":"州北里","LIN":"21鄰","STREET":"北安路","SECT":"四段","MAREA":" ","LANE":" ","ALLEY":" ","HOUSE_NO":"５８８號","E_COORD97":169575.70999999999,"N_COORD97":2552000.6400000001,"ADDRESS":"北安路四段５８８號","OBJECTID":197729},"geometry":{"x":169575.70999999996,"y":2552000.6400000006}},{"attributes":{"ID":197731,"DIS_CODE":0,"TOWNNAME":"安南區","LI":"州北里","LIN":"21鄰","STREET":"北安路","SECT":"四段","MAREA":" ","LANE":" ","ALLEY":" ","HOUSE_NO":"５９０號","E_COORD97":169575.07000000001,"N_COORD97":2552005.7200000002,"ADDRESS":"北安路四段５９０號","OBJECTID":197730},"geometry":{"x":169575.07000000123,"y":2552005.7200000025}},{"attributes":{"ID":197732,"DIS_CODE":0,"TOWNNAME":"安南區","LI":"安順里","LIN":"21鄰","STREET":"育安三街","SECT":" ","MAREA":" ","LANE":" ","ALLEY":" ","HOUSE_NO":"２１０號","E_COORD97":169449.95000000001,"N_COORD97":2550087.79,"ADDRESS":"育安三街２１０號","OBJECTID":197731},"geometry":{"x":169449.95000000112,"y":2550087.790000001}},{"attributes":{"ID":197733,"DIS_CODE":0,"TOWNNAME":"安南區","LI":"安順里","LIN":"21鄰","STREET":"北安路","SECT":"三段","MAREA":" ","LANE":" ","ALLEY":" ","HOUSE_NO":"５７８號","E_COORD97":169406.23000000001,"N_COORD97":2550173.0899999999,"ADDRESS":"北安路三段５７８號","OBJECTID":197732},"geometry":{"x":169406.23000000138,"y":2550173.0899999999}},{"attributes":{"ID":197734,"DIS_CODE":0,"TOWNNAME":"白河區","LI":"永安里","LIN":"21鄰","STREET":"西安街","SECT":" ","MAREA":" ","LANE":" ","ALLEY":" ","HOUSE_NO":"２９號","E_COORD97":189856.63,"N_COORD97":2582725.6899999999,"ADDRESS":"西安街２９號","OBJECTID":197733},"geometry":{"x":189856.63000000082,"y":2582725.6899999995}},{"attributes":{"ID":197735,"DIS_CODE":0,"TOWNNAME":"北區","LI":"開元里","LIN":"18鄰","STREET":"北園街","SECT":" ","MAREA":" ","LANE":"８７巷","ALLEY":"１１９弄","HOUSE_NO":"１８號","E_COORD97":170098.73000000001,"N_COORD97":2545825.2400000002,"ADDRESS":"北園街８７巷１１９弄１８號","OBJECTID":197734},"geometry":{"x":170098.73000000045,"y":2545825.2400000002}},{"attributes":{"ID":197736,"DIS_CODE":0,"TOWNNAME":"北區","LI":"開元里","LIN":"18鄰","STREET":"北園街","SECT":" ","MAREA":" ","LANE":"８７巷","ALLEY":"１１９弄","HOUSE_NO":"１號","E_COORD97":170139.51000000001,"N_COORD97":2545820.2999999998,"ADDRESS":"北園街８７巷１１９弄１號","OBJECTID":197735},"geometry":{"x":170139.51000000071,"y":2545820.3000000026}},{"attributes":{"ID":197737,"DIS_CODE":0,"TOWNNAME":"北區","LI":"開元里","LIN":"18鄰","STREET":"北園街","SECT":" ","MAREA":" ","LANE":"８７巷","ALLEY":"１１９弄","HOUSE_NO":"２０號","E_COORD97":170093.5,"N_COORD97":2545825.1299999999,"ADDRESS":"北園街８７巷１１９弄２０號","OBJECTID":197736},"geometry":{"x":170093.50000000093,"y":2545825.129999999}},{"attributes":{"ID":197738,"DIS_CODE":0,"TOWNNAME":"北區","LI":"開元里","LIN":"18鄰","STREET":"北園街","SECT":" ","MAREA":" ","LANE":"８７巷","ALLEY":"１１９弄","HOUSE_NO":"２號","E_COORD97":170141.91,"N_COORD97":2545826,"ADDRESS":"北園街８７巷１１９弄２號","OBJECTID":197737},"geometry":{"x":170141.91000000108,"y":2545826.0000000019}},{"attributes":{"ID":197739,"DIS_CODE":0,"TOWNNAME":"北區","LI":"開元里","LIN":"18鄰","STREET":"北園街","SECT":" ","MAREA":" ","LANE":"８７巷","ALLEY":"１１９弄","HOUSE_NO":"３號","E_COORD97":170134.06,"N_COORD97":2545819.8700000001,"ADDRESS":"北園街８７巷１１９弄３號","OBJECTID":197738},"geometry":{"x":170134.05999999959,"y":2545819.8700000048}},{"attributes":{"ID":197740,"DIS_CODE":0,"TOWNNAME":"北區","LI":"開元里","LIN":"18鄰","STREET":"北園街","SECT":" ","MAREA":" ","LANE":"８７巷","ALLEY":"１１９弄","HOUSE_NO":"４號","E_COORD97":170136.23999999999,"N_COORD97":2545826,"ADDRESS":"北園街８７巷１１９弄４號","OBJECTID":197739},"geometry":{"x":170136.24000000115,"y":2545826.0000000019}},{"attributes":{"ID":197741,"DIS_CODE":0,"TOWNNAME":"北區","LI":"開元里","LIN":"18鄰","STREET":"北園街","SECT":" ","MAREA":" ","LANE":"８７巷","ALLEY":"１１９弄","HOUSE_NO":"５號","E_COORD97":170127.85000000001,"N_COORD97":2545819.6499999999,"ADDRESS":"北園街８７巷１１９弄５號","OBJECTID":197740},"geometry":{"x":170127.85000000149,"y":2545819.6500000004}},{"attributes":{"ID":197742,"DIS_CODE":0,"TOWNNAME":"北區","LI":"開元里","LIN":"18鄰","STREET":"北園街","SECT":" ","MAREA":" ","LANE":"８７巷","ALLEY":"１１９弄","HOUSE_NO":"６號","E_COORD97":170129.59,"N_COORD97":2545825.46,"ADDRESS":"北園街８７巷１１９弄６號","OBJECTID":197741},"geometry":{"x":170129.58999999985,"y":2545825.4600000009}},{"attributes":{"ID":197743,"DIS_CODE":0,"TOWNNAME":"北區","LI":"開元里","LIN":"18鄰","STREET":"北園街","SECT":" ","MAREA":" ","LANE":"８７巷","ALLEY":"１１９弄","HOUSE_NO":"７號","E_COORD97":170121.09,"N_COORD97":2545819.6499999999,"ADDRESS":"北園街８７巷１１９弄７號","OBJECTID":197742},"geometry":{"x":170121.08999999985,"y":2545819.6500000004}},{"attributes":{"ID":197744,"DIS_CODE":0,"TOWNNAME":"北區","LI":"開元里","LIN":"18鄰","STREET":"北園街","SECT":" ","MAREA":" ","LANE":"８７巷","ALLEY":"１１９弄","HOUSE_NO":"８號","E_COORD97":170123.48000000001,"N_COORD97":2545824.9100000001,"ADDRESS":"北園街８７巷１１９弄８號","OBJECTID":197743},"geometry":{"x":170123.48000000138,"y":2545824.9100000001}},{"attributes":{"ID":197745,"DIS_CODE":0,"TOWNNAME":"北區","LI":"開元里","LIN":"18鄰","STREET":"北園街","SECT":" ","MAREA":" ","LANE":"８７巷","ALLEY":"１１９弄","HOUSE_NO":"９號","E_COORD97":170115.20999999999,"N_COORD97":2545819.21,"ADDRESS":"北園街８７巷１１９弄９號","OBJECTID":197744},"geometry":{"x":170115.20999999996,"y":2545819.2100000009}},{"attributes":{"ID":197746,"DIS_CODE":0,"TOWNNAME":"安平區","LI":"海頭里","LIN":"18鄰","STREET":"古堡街","SECT":" ","MAREA":" ","LANE":"１１８巷","ALLEY":"２５弄","HOUSE_NO":"２６號","E_COORD97":163761.54000000001,"N_COORD97":2545028.6899999999,"ADDRESS":"古堡街１１８巷２５弄２６號","OBJECTID":197745},"geometry":{"x":163761.5400000019,"y":2545028.6899999995}},{"attributes":{"ID":197747,"DIS_CODE":0,"TOWNNAME":"仁德區","LI":"大甲里","LIN":"21鄰","STREET":"行大街","SECT":" ","MAREA":" ","LANE":" ","ALLEY":" ","HOUSE_NO":"４０８之２號","E_COORD97":169466.16,"N_COORD97":2535285.04,"ADDRESS":"行大街４０８之２號","OBJECTID":197746},"geometry":{"x":169466.16000000015,"y":2535285.0399999991}},{"attributes":{"ID":197748,"DIS_CODE":0,"TOWNNAME":"仁德區","LI":"土庫里","LIN":"21鄰","STREET":"太子二街","SECT":" ","MAREA":" ","LANE":" ","ALLEY":" ","HOUSE_NO":"１６９號","E_COORD97":174520.07000000001,"N_COORD97":2543244.5099999998,"ADDRESS":"太子二街１６９號","OBJECTID":197747},"geometry":{"x":174520.07000000123,"y":2543244.5100000016}},{"attributes":{"ID":197749,"DIS_CODE":0,"TOWNNAME":"仁德區","LI":"土庫里","LIN":"21鄰","STREET":"太子二街","SECT":" ","MAREA":" ","LANE":" ","ALLEY":" ","HOUSE_NO":"１１２號","E_COORD97":174452.47,"N_COORD97":2543312.2599999998,"ADDRESS":"太子二街１１２號","OBJECTID":197748},"geometry":{"x":174452.46999999974,"y":2543312.2599999998}},{"attributes":{"ID":197750,"DIS_CODE":0,"TOWNNAME":"仁德區","LI":"土庫里","LIN":"21鄰","STREET":"太子二街","SECT":" ","MAREA":" ","LANE":" ","ALLEY":" ","HOUSE_NO":"７３號","E_COORD97":174330.76000000001,"N_COORD97":2543316.5099999998,"ADDRESS":"太子二街７３號","OBJECTID":197749},"geometry":{"x":174330.75999999978,"y":2543316.5100000016}},{"attributes":{"ID":197751,"DIS_CODE":0,"TOWNNAME":"仁德區","LI":"土庫里","LIN":"21鄰","STREET":"太子二街","SECT":" ","MAREA":" ","LANE":" ","ALLEY":" ","HOUSE_NO":"７８之１號","E_COORD97":174328.01000000001,"N_COORD97":2543293.29,"ADDRESS":"太子二街７８之１號","OBJECTID":197750},"geometry":{"x":174328.01000000071,"y":2543293.290000001}},{"attributes":{"ID":197752,"DIS_CODE":0,"TOWNNAME":"南區","LI":"新昌里","LIN":"1鄰","STREET":"西門路","SECT":"一段","MAREA":" ","LANE":" ","ALLEY":" ","HOUSE_NO":"６１７號","E_COORD97":167707.85000000001,"N_COORD97":2542894.23,"ADDRESS":"西門路一段６１７號","OBJECTID":197751},"geometry":{"x":167707.85000000056,"y":2542894.2300000042}},{"attributes":{"ID":197753,"DIS_CODE":0,"TOWNNAME":"官田區","LI":"官田里","LIN":"3鄰","STREET":" ","SECT":" ","MAREA":"官田","LANE":" ","ALLEY":" ","HOUSE_NO":"２７號之１","E_COORD97":182547.73000000001,"N_COORD97":2565274.1400000001,"ADDRESS":"官田２７號之１","OBJECTID":197752},"geometry":{"x":182547.73000000045,"y":2565274.1400000006}},{"attributes":{"ID":197754,"DIS_CODE":0,"TOWNNAME":"官田區","LI":"東庄里","LIN":"3鄰","STREET":" ","SECT":" ","MAREA":"西庄","LANE":" ","ALLEY":" ","HOUSE_NO":"１１９號之１","E_COORD97":177828.29999999999,"N_COORD97":2565283.5499999998,"ADDRESS":"西庄１１９號之１","OBJECTID":197753},"geometry":{"x":177828.30000000075,"y":2565283.5500000026}},{"attributes":{"ID":197755,"DIS_CODE":0,"TOWNNAME":"官田區","LI":"東庄里","LIN":"3鄰","STREET":" ","SECT":" ","MAREA":"西庄","LANE":" ","ALLEY":" ","HOUSE_NO":"１１９號之２","E_COORD97":177832.84,"N_COORD97":2565313.3799999999,"ADDRESS":"西庄１１９號之２","OBJECTID":197754},"geometry":{"x":177832.84000000171,"y":2565313.3800000008}},{"attributes":{"ID":197756,"DIS_CODE":0,"TOWNNAME":"官田區","LI":"東庄里","LIN":"3鄰","STREET":" ","SECT":" ","MAREA":"西庄","LANE":" ","ALLEY":" ","HOUSE_NO":"１１９號之４０","E_COORD97":177640.98000000001,"N_COORD97":2566187.6200000001,"ADDRESS":"西庄１１９號之４０","OBJECTID":197755},"geometry":{"x":177640.98000000231,"y":2566187.6200000048}},{"attributes":{"ID":197757,"DIS_CODE":0,"TOWNNAME":"官田區","LI":"東庄里","LIN":"3鄰","STREET":" ","SECT":" ","MAREA":"西庄","LANE":" ","ALLEY":" ","HOUSE_NO":"１１９號","E_COORD97":177852.53,"N_COORD97":2565293.6499999999,"ADDRESS":"西庄１１９號","OBJECTID":197756},"geometry":{"x":177852.53000000119,"y":2565293.6500000004}},{"attributes":{"ID":197758,"DIS_CODE":0,"TOWNNAME":"官田區","LI":"東庄里","LIN":"3鄰","STREET":" ","SECT":" ","MAREA":"西庄","LANE":" ","ALLEY":" ","HOUSE_NO":"１２０號之２","E_COORD97":177882.07000000001,"N_COORD97":2565315.0800000001,"ADDRESS":"西庄１２０號之２","OBJECTID":197757},"geometry":{"x":177882.0700000003,"y":2565315.0800000001}},{"attributes":{"ID":197759,"DIS_CODE":0,"TOWNNAME":"官田區","LI":"東庄里","LIN":"3鄰","STREET":" ","SECT":" ","MAREA":"西庄","LANE":" ","ALLEY":" ","HOUSE_NO":"１２０號之３","E_COORD97":177918.48999999999,"N_COORD97":2565304.8599999999,"ADDRESS":"西庄１２０號之３","OBJECTID":197758},"geometry":{"x":177918.48999999929,"y":2565304.8599999994}},{"attributes":{"ID":197760,"DIS_CODE":0,"TOWNNAME":"官田區","LI":"東庄里","LIN":"3鄰","STREET":" ","SECT":" ","MAREA":"西庄","LANE":" ","ALLEY":" ","HOUSE_NO":"１２１號之１","E_COORD97":177906.5,"N_COORD97":2565270.1000000001,"ADDRESS":"西庄１２１號之１","OBJECTID":197759},"geometry":{"x":177906.50000000186,"y":2565270.0999999996}},{"attributes":{"ID":197761,"DIS_CODE":0,"TOWNNAME":"仁德區","LI":"土庫里","LIN":"21鄰","STREET":"太子二街","SECT":" ","MAREA":" ","LANE":" ","ALLEY":" ","HOUSE_NO":"７７號","E_COORD97":174360.72,"N_COORD97":2543311.7599999998,"ADDRESS":"太子二街７７號","OBJECTID":197760},"geometry":{"x":174360.72000000067,"y":2543311.7600000016}},{"attributes":{"ID":197762,"DIS_CODE":0,"TOWNNAME":"安平區","LI":"海頭里","LIN":"18鄰","STREET":"古堡街","SECT":" ","MAREA":" ","LANE":"１１８巷","ALLEY":"２５弄","HOUSE_NO":"２７號","E_COORD97":163758.62,"N_COORD97":2545036.2000000002,"ADDRESS":"古堡街１１８巷２５弄２７號","OBJECTID":197761},"geometry":{"x":163758.62000000011,"y":2545036.2000000011}},{"attributes":{"ID":197763,"DIS_CODE":0,"TOWNNAME":"仁德區","LI":"仁愛里","LIN":"21鄰","STREET":" ","SECT":" ","MAREA":"仁愛","LANE":" ","ALLEY":" ","HOUSE_NO":"４３５號","E_COORD97":170115.98028399999,"N_COORD97":2540124.3300800002,"ADDRESS":"仁愛４３５號","OBJECTID":197762},"geometry":{"x":170115.98028399982,"y":2540124.3300800007}},{"attributes":{"ID":197764,"DIS_CODE":0,"TOWNNAME":"仁德區","LI":"仁愛里","LIN":"21鄰","STREET":" ","SECT":" ","MAREA":"仁愛","LANE":" ","ALLEY":" ","HOUSE_NO":"４３３號","E_COORD97":170108.24686000001,"N_COORD97":2540124.3300899998,"ADDRESS":"仁愛４３３號","OBJECTID":197763},"geometry":{"x":170108.24686000124,"y":2540124.3300889973}},{"attributes":{"ID":197765,"DIS_CODE":0,"TOWNNAME":"仁德區","LI":"仁愛里","LIN":"21鄰","STREET":" ","SECT":" ","MAREA":"仁愛","LANE":" ","ALLEY":" ","HOUSE_NO":"４４４號","E_COORD97":170149.44491300001,"N_COORD97":2540107.8500000001,"ADDRESS":"仁愛４４４號","OBJECTID":197764},"geometry":{"x":170149.44491299987,"y":2540107.8499999996}},{"attributes":{"ID":197766,"DIS_CODE":0,"TOWNNAME":"仁德區","LI":"仁愛里","LIN":"21鄰","STREET":" ","SECT":" ","MAREA":"仁愛","LANE":" ","ALLEY":" ","HOUSE_NO":"４４６號","E_COORD97":170143.35351700001,"N_COORD97":2540107.8500000001,"ADDRESS":"仁愛４４６號","OBJECTID":197765},"geometry":{"x":170143.3535169987,"y":2540107.8499999996}},{"attributes":{"ID":197767,"DIS_CODE":0,"TOWNNAME":"安平區","LI":"海頭里","LIN":"18鄰","STREET":"古堡街","SECT":" ","MAREA":" ","LANE":"１１８巷","ALLEY":"２５弄","HOUSE_NO":"２８號","E_COORD97":163757.20999999999,"N_COORD97":2545043.3500000001,"ADDRESS":"古堡街１１８巷２５弄２８號","OBJECTID":197766},"geometry":{"x":163757.21000000089,"y":2545043.3500000015}},{"attributes":{"ID":197768,"DIS_CODE":0,"TOWNNAME":"仁德區","LI":"仁愛里","LIN":"21鄰","STREET":" ","SECT":" ","MAREA":"仁愛","LANE":" ","ALLEY":" ","HOUSE_NO":"４４９號","E_COORD97":170134.189938,"N_COORD97":2540107.8500000001,"ADDRESS":"仁愛４４９號","OBJECTID":197767},"geometry":{"x":170134.18993800133,"y":2540107.8499999996}},{"attributes":{"ID":197769,"DIS_CODE":0,"TOWNNAME":"安平區","LI":"海頭里","LIN":"18鄰","STREET":"古堡街","SECT":" ","MAREA":" ","LANE":"１１８巷","ALLEY":"２５弄","HOUSE_NO":"２９號","E_COORD97":163757.03,"N_COORD97":2545051.9900000002,"ADDRESS":"古堡街１１８巷２５弄２９號","OBJECTID":197768},"geometry":{"x":163757.03000000119,"y":2545051.9900000039}},{"attributes":{"ID":197770,"DIS_CODE":0,"TOWNNAME":"安平區","LI":"海頭里","LIN":"18鄰","STREET":"古堡街","SECT":" ","MAREA":" ","LANE":"１１８巷","ALLEY":"２５弄","HOUSE_NO":"３０號","E_COORD97":163740.17000000001,"N_COORD97":2545045.4100000001,"ADDRESS":"古堡街１１８巷２５弄３０號","OBJECTID":197769},"geometry":{"x":163740.17000000179,"y":2545045.4100000039}},{"attributes":{"ID":197771,"DIS_CODE":0,"TOWNNAME":"安平區","LI":"海頭里","LIN":"18鄰","STREET":"古堡街","SECT":" ","MAREA":" ","LANE":"１１８巷","ALLEY":"２５弄","HOUSE_NO":"３１號","E_COORD97":163741.20000000001,"N_COORD97":2545035.0800000001,"ADDRESS":"古堡街１１８巷２５弄３１號","OBJECTID":197770},"geometry":{"x":163741.20000000019,"y":2545035.0800000019}},{"attributes":{"ID":197772,"DIS_CODE":0,"TOWNNAME":"安平區","LI":"海頭里","LIN":"18鄰","STREET":"古堡街","SECT":" ","MAREA":" ","LANE":"１１８巷","ALLEY":"２５弄","HOUSE_NO":"３２號","E_COORD97":163742.98999999999,"N_COORD97":2545027.2799999998,"ADDRESS":"古堡街１１８巷２５弄３２號","OBJECTID":197771},"geometry":{"x":163742.99000000022,"y":2545027.2799999993}},{"attributes":{"ID":197773,"DIS_CODE":0,"TOWNNAME":"安平區","LI":"海頭里","LIN":"18鄰","STREET":"古堡街","SECT":" ","MAREA":" ","LANE":"１１８巷","ALLEY":"２５弄","HOUSE_NO":"３６號","E_COORD97":163724.54999999999,"N_COORD97":2545036.2999999998,"ADDRESS":"古堡街１１８巷２５弄３６號","OBJECTID":197772},"geometry":{"x":163724.55000000075,"y":2545036.3000000007}},{"attributes":{"ID":197774,"DIS_CODE":0,"TOWNNAME":"仁德區","LI":"仁愛里","LIN":"21鄰","STREET":" ","SECT":" ","MAREA":"仁愛","LANE":" ","ALLEY":" ","HOUSE_NO":"４４８號","E_COORD97":170137.26212100001,"N_COORD97":2540107.8500000001,"ADDRESS":"仁愛４４８號","OBJECTID":197773},"geometry":{"x":170137.26212100033,"y":2540107.8499999996}},{"attributes":{"ID":197775,"DIS_CODE":0,"TOWNNAME":"鹽水區","LI":"岸內里","LIN":"18鄰","STREET":"北門路","SECT":" ","MAREA":" ","LANE":"１巷","ALLEY":"６弄","HOUSE_NO":"１０號","E_COORD97":175077.10000000001,"N_COORD97":2580392.1800000002,"ADDRESS":"北門路１巷６弄１０號","OBJECTID":197774},"geometry":{"x":175077.09999999963,"y":2580392.1800000016}},{"attributes":{"ID":197776,"DIS_CODE":0,"TOWNNAME":"鹽水區","LI":"岸內里","LIN":"18鄰","STREET":"北門路","SECT":" ","MAREA":" ","LANE":"１巷","ALLEY":"６弄","HOUSE_NO":"１１號","E_COORD97":175100.75,"N_COORD97":2580382.5800000001,"ADDRESS":"北門路１巷６弄１１號","OBJECTID":197775},"geometry":{"x":175100.74999999907,"y":2580382.5800000019}},{"attributes":{"ID":197777,"DIS_CODE":0,"TOWNNAME":"仁德區","LI":"仁愛里","LIN":"21鄰","STREET":" ","SECT":" ","MAREA":"仁愛","LANE":" ","ALLEY":" ","HOUSE_NO":"４４３號","E_COORD97":170152.46412600001,"N_COORD97":2540107.8500000001,"ADDRESS":"仁愛４４３號","OBJECTID":197776},"geometry":{"x":170152.46412600018,"y":2540107.8499999996}},{"attributes":{"ID":197778,"DIS_CODE":0,"TOWNNAME":"鹽水區","LI":"岸內里","LIN":"18鄰","STREET":"北門路","SECT":" ","MAREA":" ","LANE":"１巷","ALLEY":"６弄","HOUSE_NO":"１２號","E_COORD97":175077.23000000001,"N_COORD97":2580388.2599999998,"ADDRESS":"北門路１巷６弄１２號","OBJECTID":197777},"geometry":{"x":175077.23000000045,"y":2580388.2600000016}},{"attributes":{"ID":197779,"DIS_CODE":0,"TOWNNAME":"仁德區","LI":"仁愛里","LIN":"21鄰","STREET":" ","SECT":" ","MAREA":"仁愛","LANE":" ","ALLEY":" ","HOUSE_NO":"４３０之１號","E_COORD97":170130.38776000001,"N_COORD97":2540149.3067399999,"ADDRESS":"仁愛４３０之１號","OBJECTID":197778},"geometry":{"x":170130.3877600003,"y":2540149.3067419995}},{"attributes":{"ID":197780,"DIS_CODE":0,"TOWNNAME":"鹽水區","LI":"岸內里","LIN":"18鄰","STREET":"北門路","SECT":" ","MAREA":" ","LANE":"１巷","ALLEY":"６弄","HOUSE_NO":"１３號","E_COORD97":175100.92000000001,"N_COORD97":2580378.21,"ADDRESS":"北門路１巷６弄１３號","OBJECTID":197779},"geometry":{"x":175100.91999999993,"y":2580378.2100000009}},{"attributes":{"ID":197781,"DIS_CODE":0,"TOWNNAME":"鹽水區","LI":"岸內里","LIN":"18鄰","STREET":"北門路","SECT":" ","MAREA":" ","LANE":"１巷","ALLEY":"６弄","HOUSE_NO":"１４號","E_COORD97":175077.37,"N_COORD97":2580384.3300000001,"ADDRESS":"北門路１巷６弄１４號","OBJECTID":197780},"geometry":{"x":175077.37000000011,"y":2580384.3300000019}},{"attributes":{"ID":197782,"DIS_CODE":0,"TOWNNAME":"鹽水區","LI":"岸內里","LIN":"18鄰","STREET":"北門路","SECT":" ","MAREA":" ","LANE":"１巷","ALLEY":"６弄","HOUSE_NO":"１５號","E_COORD97":175100.85999999999,"N_COORD97":2580374.25,"ADDRESS":"北門路１巷６弄１５號","OBJECTID":197781},"geometry":{"x":175100.86000000127,"y":2580374.2500000037}},{"attributes":{"ID":197783,"DIS_CODE":0,"TOWNNAME":"鹽水區","LI":"岸內里","LIN":"18鄰","STREET":"北門路","SECT":" ","MAREA":" ","LANE":"１巷","ALLEY":"６弄","HOUSE_NO":"１６號","E_COORD97":175077.5,"N_COORD97":2580380.3999999999,"ADDRESS":"北門路１巷６弄１６號","OBJECTID":197782},"geometry":{"x":175077.50000000093,"y":2580380.4000000041}},{"attributes":{"ID":197784,"DIS_CODE":0,"TOWNNAME":"官田區","LI":"官田里","LIN":"21鄰","STREET":" ","SECT":" ","MAREA":"官田","LANE":" ","ALLEY":" ","HOUSE_NO":"３３７號之７","E_COORD97":182269.95999999999,"N_COORD97":2565021.8500000001,"ADDRESS":"官田３３７號之７","OBJECTID":197783},"geometry":{"x":182269.95999999903,"y":2565021.8500000015}},{"attributes":{"ID":197785,"DIS_CODE":0,"TOWNNAME":"官田區","LI":"官田里","LIN":"21鄰","STREET":" ","SECT":" ","MAREA":"官田","LANE":" ","ALLEY":" ","HOUSE_NO":"３３７號之８","E_COORD97":182272.95000000001,"N_COORD97":2565044.25,"ADDRESS":"官田３３７號之８","OBJECTID":197784},"geometry":{"x":182272.95000000019,"y":2565044.2500000019}},{"attributes":{"ID":197786,"DIS_CODE":0,"TOWNNAME":"官田區","LI":"官田里","LIN":"21鄰","STREET":" ","SECT":" ","MAREA":"官田","LANE":" ","ALLEY":" ","HOUSE_NO":"３３７號之９","E_COORD97":182277.51000000001,"N_COORD97":2565045.2799999998,"ADDRESS":"官田３３７號之９","OBJECTID":197785},"geometry":{"x":182277.50999999978,"y":2565045.2800000031}},{"attributes":{"ID":197787,"DIS_CODE":0,"TOWNNAME":"官田區","LI":"官田里","LIN":"21鄰","STREET":" ","SECT":" ","MAREA":"官田","LANE":" ","ALLEY":" ","HOUSE_NO":"３３７號","E_COORD97":182220.01000000001,"N_COORD97":2565028.3799999999,"ADDRESS":"官田３３７號","OBJECTID":197786},"geometry":{"x":182220.00999999978,"y":2565028.3800000008}},{"attributes":{"ID":197788,"DIS_CODE":0,"TOWNNAME":"官田區","LI":"東庄里","LIN":"3鄰","STREET":" ","SECT":" ","MAREA":"西庄","LANE":" ","ALLEY":" ","HOUSE_NO":"１２１號之２","E_COORD97":177940.39999999999,"N_COORD97":2565298.1099999999,"ADDRESS":"西庄１２１號之２","OBJECTID":197787},"geometry":{"x":177940.4000000013,"y":2565298.1100000013}},{"attributes":{"ID":197789,"DIS_CODE":0,"TOWNNAME":"官田區","LI":"東庄里","LIN":"3鄰","STREET":" ","SECT":" ","MAREA":"西庄","LANE":" ","ALLEY":" ","HOUSE_NO":"１２１號之３","E_COORD97":177933.26000000001,"N_COORD97":2565290.3799999999,"ADDRESS":"西庄１２１號之３","OBJECTID":197788},"geometry":{"x":177933.26000000164,"y":2565290.379999999}},{"attributes":{"ID":197790,"DIS_CODE":0,"TOWNNAME":"官田區","LI":"東庄里","LIN":"3鄰","STREET":" ","SECT":" ","MAREA":"西庄","LANE":" ","ALLEY":" ","HOUSE_NO":"１２１號","E_COORD97":177917.73999999999,"N_COORD97":2565265.4300000002,"ADDRESS":"西庄１２１號","OBJECTID":197789},"geometry":{"x":177917.74000000022,"y":2565265.4300000016}},{"attributes":{"ID":197791,"DIS_CODE":0,"TOWNNAME":"官田區","LI":"東庄里","LIN":"3鄰","STREET":" ","SECT":" ","MAREA":"西庄","LANE":" ","ALLEY":" ","HOUSE_NO":"１２２號之１","E_COORD97":177923.23999999999,"N_COORD97":2565258.5800000001,"ADDRESS":"西庄１２２號之１","OBJECTID":197790},"geometry":{"x":177923.24000000022,"y":2565258.5800000019}},{"attributes":{"ID":197792,"DIS_CODE":0,"TOWNNAME":"官田區","LI":"東庄里","LIN":"3鄰","STREET":" ","SECT":" ","MAREA":"西庄","LANE":" ","ALLEY":" ","HOUSE_NO":"１２２號","E_COORD97":177921.64999999999,"N_COORD97":2565251.1099999999,"ADDRESS":"西庄１２２號","OBJECTID":197791},"geometry":{"x":177921.6500000013,"y":2565251.1100000013}},{"attributes":{"ID":197793,"DIS_CODE":0,"TOWNNAME":"官田區","LI":"東庄里","LIN":"3鄰","STREET":" ","SECT":" ","MAREA":"西庄","LANE":" ","ALLEY":" ","HOUSE_NO":"１２３號","E_COORD97":177941.85000000001,"N_COORD97":2565248.3100000001,"ADDRESS":"西庄１２３號","OBJECTID":197792},"geometry":{"x":177941.84999999963,"y":2565248.3100000005}},{"attributes":{"ID":197794,"DIS_CODE":0,"TOWNNAME":"官田區","LI":"東庄里","LIN":"3鄰","STREET":" ","SECT":" ","MAREA":"西庄","LANE":" ","ALLEY":" ","HOUSE_NO":"１２５號之１","E_COORD97":177952.42000000001,"N_COORD97":2565298.3999999999,"ADDRESS":"西庄１２５號之１","OBJECTID":197793},"geometry":{"x":177952.41999999993,"y":2565298.4000000004}},{"attributes":{"ID":197795,"DIS_CODE":0,"TOWNNAME":"官田區","LI":"東庄里","LIN":"3鄰","STREET":" ","SECT":" ","MAREA":"西庄","LANE":" ","ALLEY":" ","HOUSE_NO":"１２５號之２","E_COORD97":177967.92999999999,"N_COORD97":2565317.3999999999,"ADDRESS":"西庄１２５號之２","OBJECTID":197794},"geometry":{"x":177967.93000000063,"y":2565317.4000000022}},{"attributes":{"ID":197796,"DIS_CODE":0,"TOWNNAME":"官田區","LI":"東庄里","LIN":"3鄰","STREET":" ","SECT":" ","MAREA":"西庄","LANE":" ","ALLEY":" ","HOUSE_NO":"１２５號之３","E_COORD97":178004.97,"N_COORD97":2565327.8599999999,"ADDRESS":"西庄１２５號之３","OBJECTID":197795},"geometry":{"x":178004.97000000067,"y":2565327.8600000013}},{"attributes":{"ID":197797,"DIS_CODE":0,"TOWNNAME":"官田區","LI":"西庄里","LIN":"3鄰","STREET":" ","SECT":" ","MAREA":"西庄","LANE":" ","ALLEY":" ","HOUSE_NO":"１７號","E_COORD97":177845.54000000001,"N_COORD97":2565115.7000000002,"ADDRESS":"西庄１７號","OBJECTID":197796},"geometry":{"x":177845.54000000097,"y":2565115.6999999993}},{"attributes":{"ID":197798,"DIS_CODE":0,"TOWNNAME":"官田區","LI":"西庄里","LIN":"3鄰","STREET":" ","SECT":" ","MAREA":"西庄","LANE":" ","ALLEY":" ","HOUSE_NO":"１８號","E_COORD97":177835.06,"N_COORD97":2565096.4500000002,"ADDRESS":"西庄１８號","OBJECTID":197797},"geometry":{"x":177835.06000000052,"y":2565096.4500000011}},{"attributes":{"ID":197799,"DIS_CODE":0,"TOWNNAME":"官田區","LI":"官田里","LIN":"3鄰","STREET":" ","SECT":" ","MAREA":"官田","LANE":" ","ALLEY":" ","HOUSE_NO":"２１號之１","E_COORD97":182592.01000000001,"N_COORD97":2565225.1699999999,"ADDRESS":"官田２１號之１","OBJECTID":197798},"geometry":{"x":182592.01000000071,"y":2565225.1699999999}},{"attributes":{"ID":197800,"DIS_CODE":0,"TOWNNAME":"官田區","LI":"官田里","LIN":"3鄰","STREET":" ","SECT":" ","MAREA":"官田","LANE":" ","ALLEY":" ","HOUSE_NO":"２１號之２","E_COORD97":182586.91,"N_COORD97":2565222.3700000001,"ADDRESS":"官田２１號之２","OBJECTID":197799},"geometry":{"x":182586.91000000015,"y":2565222.370000001}},{"attributes":{"ID":197801,"DIS_CODE":0,"TOWNNAME":"鹽水區","LI":"岸內里","LIN":"18鄰","STREET":"北門路","SECT":" ","MAREA":" ","LANE":"１巷","ALLEY":"６弄","HOUSE_NO":"１７號","E_COORD97":175093.07000000001,"N_COORD97":2580359.98,"ADDRESS":"北門路１巷６弄１７號","OBJECTID":197800},"geometry":{"x":175093.0700000003,"y":2580359.9800000023}}]}