{"displayFieldName":"TOWNNAME","fieldAliases":{"ID":"ID","DIS_CODE":"DIS_CODE","TOWNNAME":"TOWNNAME","LI":"LI","LIN":"LIN","STREET":"STREET","SECT":"SECT","MAREA":"MAREA","LANE":"LANE","ALLEY":"ALLEY","HOUSE_NO":"HOUSE_NO","E_COORD97":"E_COORD97","N_COORD97":"N_COORD97","ADDRESS":"ADDRESS","OBJECTID":"OBJECTID"},"geometryType":"esriGeometryPoint","spatialReference":{"wkid":102443,"latestWkid":3826},"fields":[{"name":"ID","type":"esriFieldTypeDouble","alias":"ID"},{"name":"DIS_CODE","type":"esriFieldTypeInteger","alias":"DIS_CODE"},{"name":"TOWNNAME","type":"esriFieldTypeString","alias":"TOWNNAME","length":8},{"name":"LI","type":"esriFieldTypeString","alias":"LI","length":8},{"name":"LIN","type":"esriFieldTypeString","alias":"LIN","length":12},{"name":"STREET","type":"esriFieldTypeString","alias":"STREET","length":20},{"name":"SECT","type":"esriFieldTypeString","alias":"SECT","length":8},{"name":"MAREA","type":"esriFieldTypeString","alias":"MAREA","length":12},{"name":"LANE","type":"esriFieldTypeString","alias":"LANE","length":10},{"name":"ALLEY","type":"esriFieldTypeString","alias":"ALLEY","length":10},{"name":"HOUSE_NO","type":"esriFieldTypeString","alias":"HOUSE_NO","length":20},{"name":"E_COORD97","type":"esriFieldTypeDouble","alias":"E_COORD97"},{"name":"N_COORD97","type":"esriFieldTypeDouble","alias":"N_COORD97"},{"name":"ADDRESS","type":"esriFieldTypeString","alias":"ADDRESS","length":50},{"name":"OBJECTID","type":"esriFieldTypeOID","alias":"OBJECTID"}],"features":[{"attributes":{"ID":606828,"DIS_CODE":0,"TOWNNAME":"新營區","LI":"中營里","LIN":"3鄰","STREET":"中山路","SECT":" ","MAREA":" ","LANE":" ","ALLEY":" ","HOUSE_NO":"４２號","E_COORD97":180581.04000000001,"N_COORD97":2578383.9300000002,"ADDRESS":"中山路４２號","OBJECTID":606801},"geometry":{"x":180581.03999999911,"y":2578383.9300000016}},{"attributes":{"ID":606829,"DIS_CODE":0,"TOWNNAME":"新營區","LI":"王公里","LIN":"3鄰","STREET":"民族路","SECT":" ","MAREA":" ","LANE":" ","ALLEY":" ","HOUSE_NO":"６１號","E_COORD97":180285.19,"N_COORD97":2578999.9500000002,"ADDRESS":"民族路６１號","OBJECTID":606802},"geometry":{"x":180285.19000000041,"y":2578999.9500000011}},{"attributes":{"ID":606830,"DIS_CODE":0,"TOWNNAME":"新營區","LI":"延平里","LIN":"3鄰","STREET":"長春街","SECT":" ","MAREA":" ","LANE":" ","ALLEY":" ","HOUSE_NO":"１５號","E_COORD97":179760.70687299999,"N_COORD97":2577911.71441,"ADDRESS":"長春街１５號","OBJECTID":606803},"geometry":{"x":179760.70687299967,"y":2577911.7144130021}},{"attributes":{"ID":606831,"DIS_CODE":0,"TOWNNAME":"中西區","LI":"協和里","LIN":"3鄰","STREET":"文賢路","SECT":" ","MAREA":" ","LANE":" ","ALLEY":" ","HOUSE_NO":"３９號","E_COORD97":167383.85999999999,"N_COORD97":2544514.7400000002,"ADDRESS":"文賢路３９號","OBJECTID":606804},"geometry":{"x":167383.8599999994,"y":2544514.7400000021}},{"attributes":{"ID":606832,"DIS_CODE":0,"TOWNNAME":"新營區","LI":"民生里","LIN":"3鄰","STREET":"中華路","SECT":" ","MAREA":" ","LANE":" ","ALLEY":" ","HOUSE_NO":"７２號之３","E_COORD97":179467.35000000001,"N_COORD97":2578186.5800000001,"ADDRESS":"中華路７２號之３","OBJECTID":606805},"geometry":{"x":179467.35000000056,"y":2578186.5800000019}},{"attributes":{"ID":606833,"DIS_CODE":0,"TOWNNAME":"六甲區","LI":"六甲里","LIN":"3鄰","STREET":"中正路","SECT":" ","MAREA":" ","LANE":" ","ALLEY":" ","HOUSE_NO":"３１９號","E_COORD97":183506.32000000001,"N_COORD97":2569446.1299999999,"ADDRESS":"中正路３１９號","OBJECTID":606806},"geometry":{"x":183506.3200000003,"y":2569446.129999999}},{"attributes":{"ID":606834,"DIS_CODE":0,"TOWNNAME":"六甲區","LI":"六甲里","LIN":"3鄰","STREET":"中正路","SECT":" ","MAREA":" ","LANE":" ","ALLEY":" ","HOUSE_NO":"３２１號","E_COORD97":183593.79000000001,"N_COORD97":2569507.3900000001,"ADDRESS":"中正路３２１號","OBJECTID":606807},"geometry":{"x":183593.79000000097,"y":2569507.3900000006}},{"attributes":{"ID":606835,"DIS_CODE":0,"TOWNNAME":"六甲區","LI":"六甲里","LIN":"3鄰","STREET":"中正路","SECT":" ","MAREA":" ","LANE":" ","ALLEY":" ","HOUSE_NO":"３２３號","E_COORD97":183595.26999999999,"N_COORD97":2569512.3799999999,"ADDRESS":"中正路３２３號","OBJECTID":606808},"geometry":{"x":183595.27000000048,"y":2569512.379999999}},{"attributes":{"ID":606836,"DIS_CODE":0,"TOWNNAME":"六甲區","LI":"六甲里","LIN":"3鄰","STREET":"中正路","SECT":" ","MAREA":" ","LANE":" ","ALLEY":" ","HOUSE_NO":"３２５號","E_COORD97":183596.88,"N_COORD97":2569516.3700000001,"ADDRESS":"中正路３２５號","OBJECTID":606809},"geometry":{"x":183596.88000000082,"y":2569516.3700000029}},{"attributes":{"ID":606837,"DIS_CODE":0,"TOWNNAME":"六甲區","LI":"六甲里","LIN":"3鄰","STREET":"中正路","SECT":" ","MAREA":" ","LANE":" ","ALLEY":" ","HOUSE_NO":"３２７號","E_COORD97":183598.26000000001,"N_COORD97":2569520.1400000001,"ADDRESS":"中正路３２７號","OBJECTID":606810},"geometry":{"x":183598.25999999978,"y":2569520.1400000025}},{"attributes":{"ID":606838,"DIS_CODE":0,"TOWNNAME":"六甲區","LI":"六甲里","LIN":"3鄰","STREET":"中正路","SECT":" ","MAREA":" ","LANE":" ","ALLEY":" ","HOUSE_NO":"３２９號","E_COORD97":183599.73000000001,"N_COORD97":2569524.1400000001,"ADDRESS":"中正路３２９號","OBJECTID":606811},"geometry":{"x":183599.73000000138,"y":2569524.1400000025}},{"attributes":{"ID":606839,"DIS_CODE":0,"TOWNNAME":"六甲區","LI":"六甲里","LIN":"3鄰","STREET":"中正路","SECT":" ","MAREA":" ","LANE":" ","ALLEY":" ","HOUSE_NO":"３３１號","E_COORD97":183601.62,"N_COORD97":2569528.25,"ADDRESS":"中正路３３１號","OBJECTID":606812},"geometry":{"x":183601.62000000197,"y":2569528.2500000037}},{"attributes":{"ID":606840,"DIS_CODE":0,"TOWNNAME":"六甲區","LI":"六甲里","LIN":"3鄰","STREET":"中正路","SECT":" ","MAREA":" ","LANE":" ","ALLEY":" ","HOUSE_NO":"３３３號","E_COORD97":183603.85999999999,"N_COORD97":2569532.96,"ADDRESS":"中正路３３３號","OBJECTID":606813},"geometry":{"x":183603.86000000127,"y":2569532.9600000028}},{"attributes":{"ID":606841,"DIS_CODE":0,"TOWNNAME":"六甲區","LI":"六甲里","LIN":"3鄰","STREET":"中正路","SECT":" ","MAREA":" ","LANE":" ","ALLEY":" ","HOUSE_NO":"３３５號","E_COORD97":183605.85000000001,"N_COORD97":2569537.5600000001,"ADDRESS":"中正路３３５號","OBJECTID":606814},"geometry":{"x":183605.84999999963,"y":2569537.5600000024}},{"attributes":{"ID":606842,"DIS_CODE":0,"TOWNNAME":"六甲區","LI":"六甲里","LIN":"3鄰","STREET":"中正路","SECT":" ","MAREA":" ","LANE":" ","ALLEY":" ","HOUSE_NO":"３３７號","E_COORD97":183607,"N_COORD97":2569540.9500000002,"ADDRESS":"中正路３３７號","OBJECTID":606815},"geometry":{"x":183607,"y":2569540.9500000011}},{"attributes":{"ID":606843,"DIS_CODE":0,"TOWNNAME":"六甲區","LI":"六甲里","LIN":"3鄰","STREET":"中正路","SECT":" ","MAREA":" ","LANE":" ","ALLEY":" ","HOUSE_NO":"３３９號","E_COORD97":183608.29999999999,"N_COORD97":2569544.7000000002,"ADDRESS":"中正路３３９號","OBJECTID":606816},"geometry":{"x":183608.29999999981,"y":2569544.6999999974}},{"attributes":{"ID":606844,"DIS_CODE":0,"TOWNNAME":"六甲區","LI":"六甲里","LIN":"3鄰","STREET":"中正路","SECT":" ","MAREA":" ","LANE":" ","ALLEY":" ","HOUSE_NO":"３４５號","E_COORD97":183578.57999999999,"N_COORD97":2569545.5899999999,"ADDRESS":"中正路３４５號","OBJECTID":606817},"geometry":{"x":183578.58000000101,"y":2569545.5899999999}},{"attributes":{"ID":606845,"DIS_CODE":0,"TOWNNAME":"六甲區","LI":"六甲里","LIN":"3鄰","STREET":"中正路","SECT":" ","MAREA":" ","LANE":" ","ALLEY":" ","HOUSE_NO":"３５３號","E_COORD97":183573.23999999999,"N_COORD97":2569551.5,"ADDRESS":"中正路３５３號","OBJECTID":606818},"geometry":{"x":183573.24000000022,"y":2569551.5000000019}},{"attributes":{"ID":606846,"DIS_CODE":0,"TOWNNAME":"六甲區","LI":"六甲里","LIN":"3鄰","STREET":"中正路","SECT":" ","MAREA":" ","LANE":" ","ALLEY":" ","HOUSE_NO":"３５７號","E_COORD97":183569.03,"N_COORD97":2569555.3599999999,"ADDRESS":"中正路３５７號","OBJECTID":606819},"geometry":{"x":183569.03000000119,"y":2569555.3600000013}},{"attributes":{"ID":606847,"DIS_CODE":0,"TOWNNAME":"六甲區","LI":"六甲里","LIN":"3鄰","STREET":"中正路","SECT":" ","MAREA":" ","LANE":" ","ALLEY":" ","HOUSE_NO":"３５９號","E_COORD97":183564.60999999999,"N_COORD97":2569556.8700000001,"ADDRESS":"中正路３５９號","OBJECTID":606820},"geometry":{"x":183564.6100000022,"y":2569556.8700000029}},{"attributes":{"ID":606848,"DIS_CODE":0,"TOWNNAME":"六甲區","LI":"六甲里","LIN":"3鄰","STREET":"中正路","SECT":" ","MAREA":" ","LANE":" ","ALLEY":" ","HOUSE_NO":"３６１號","E_COORD97":183560.35000000001,"N_COORD97":2569558.0800000001,"ADDRESS":"中正路３６１號","OBJECTID":606821},"geometry":{"x":183560.3499999987,"y":2569558.0800000019}},{"attributes":{"ID":606849,"DIS_CODE":0,"TOWNNAME":"六甲區","LI":"六甲里","LIN":"3鄰","STREET":"中正路","SECT":" ","MAREA":" ","LANE":" ","ALLEY":" ","HOUSE_NO":"３６３號","E_COORD97":183554.67000000001,"N_COORD97":2569557.6400000001,"ADDRESS":"中正路３６３號","OBJECTID":606822},"geometry":{"x":183554.66999999993,"y":2569557.6400000025}},{"attributes":{"ID":606850,"DIS_CODE":0,"TOWNNAME":"六甲區","LI":"六甲里","LIN":"3鄰","STREET":"中正路","SECT":" ","MAREA":" ","LANE":" ","ALLEY":" ","HOUSE_NO":"３６５號","E_COORD97":183550.20000000001,"N_COORD97":2569558.8999999999,"ADDRESS":"中正路３６５號","OBJECTID":606823},"geometry":{"x":183550.20000000205,"y":2569558.9000000022}},{"attributes":{"ID":606851,"DIS_CODE":0,"TOWNNAME":"六甲區","LI":"六甲里","LIN":"3鄰","STREET":"中正路","SECT":" ","MAREA":" ","LANE":" ","ALLEY":" ","HOUSE_NO":"３６７號","E_COORD97":183546.19,"N_COORD97":2569560.6200000001,"ADDRESS":"中正路３６７號","OBJECTID":606824},"geometry":{"x":183546.19000000134,"y":2569560.6199999992}},{"attributes":{"ID":606852,"DIS_CODE":0,"TOWNNAME":"六甲區","LI":"六甲里","LIN":"3鄰","STREET":"中正路","SECT":" ","MAREA":" ","LANE":" ","ALLEY":" ","HOUSE_NO":"３６９號","E_COORD97":183542.64000000001,"N_COORD97":2569561.6099999999,"ADDRESS":"中正路３６９號","OBJECTID":606825},"geometry":{"x":183542.63999999966,"y":2569561.6099999994}},{"attributes":{"ID":606853,"DIS_CODE":0,"TOWNNAME":"六甲區","LI":"六甲里","LIN":"3鄰","STREET":"中正路","SECT":" ","MAREA":" ","LANE":" ","ALLEY":" ","HOUSE_NO":"３７１號","E_COORD97":183539.48000000001,"N_COORD97":2569562.48,"ADDRESS":"中正路３７１號","OBJECTID":606826},"geometry":{"x":183539.48000000045,"y":2569562.4800000023}},{"attributes":{"ID":606854,"DIS_CODE":0,"TOWNNAME":"中西區","LI":"協和里","LIN":"3鄰","STREET":"文賢路","SECT":" ","MAREA":" ","LANE":" ","ALLEY":" ","HOUSE_NO":"４５號","E_COORD97":167382,"N_COORD97":2544530.6600000001,"ADDRESS":"文賢路４５號","OBJECTID":606827},"geometry":{"x":167382,"y":2544530.6600000001}},{"attributes":{"ID":606855,"DIS_CODE":0,"TOWNNAME":"六甲區","LI":"六甲里","LIN":"3鄰","STREET":"中正路","SECT":" ","MAREA":" ","LANE":" ","ALLEY":" ","HOUSE_NO":"３７７號","E_COORD97":183525.17999999999,"N_COORD97":2569588.2799999998,"ADDRESS":"中正路３７７號","OBJECTID":606828},"geometry":{"x":183525.18000000063,"y":2569588.2799999975}},{"attributes":{"ID":606856,"DIS_CODE":0,"TOWNNAME":"中西區","LI":"協和里","LIN":"3鄰","STREET":"文賢路","SECT":" ","MAREA":" ","LANE":" ","ALLEY":" ","HOUSE_NO":"４７號","E_COORD97":167381.19,"N_COORD97":2544536.3999999999,"ADDRESS":"文賢路４７號","OBJECTID":606829},"geometry":{"x":167381.19000000041,"y":2544536.4000000004}},{"attributes":{"ID":606857,"DIS_CODE":0,"TOWNNAME":"六甲區","LI":"七甲里","LIN":"3鄰","STREET":"中華路","SECT":" ","MAREA":" ","LANE":" ","ALLEY":" ","HOUSE_NO":"２９９號","E_COORD97":182834.81,"N_COORD97":2569160.54,"ADDRESS":"中華路２９９號","OBJECTID":606830},"geometry":{"x":182834.80999999959,"y":2569160.540000001}},{"attributes":{"ID":606858,"DIS_CODE":0,"TOWNNAME":"六甲區","LI":"七甲里","LIN":"3鄰","STREET":"中華路","SECT":" ","MAREA":" ","LANE":" ","ALLEY":" ","HOUSE_NO":"３０１號之２","E_COORD97":182824.62,"N_COORD97":2569158.5600000001,"ADDRESS":"中華路３０１號之２","OBJECTID":606831},"geometry":{"x":182824.62000000011,"y":2569158.5600000024}},{"attributes":{"ID":606859,"DIS_CODE":0,"TOWNNAME":"六甲區","LI":"七甲里","LIN":"3鄰","STREET":"中華路","SECT":" ","MAREA":" ","LANE":" ","ALLEY":" ","HOUSE_NO":"３０１號","E_COORD97":182828.73000000001,"N_COORD97":2569159.1600000001,"ADDRESS":"中華路３０１號","OBJECTID":606832},"geometry":{"x":182828.73000000138,"y":2569159.1600000001}},{"attributes":{"ID":606860,"DIS_CODE":0,"TOWNNAME":"永康區","LI":"\u25A0洲里","LIN":"25鄰","STREET":"洲工街","SECT":" ","MAREA":" ","LANE":" ","ALLEY":" ","HOUSE_NO":"９８號","E_COORD97":170630.59,"N_COORD97":2548376.8199999998,"ADDRESS":"洲工街９８號","OBJECTID":606833},"geometry":{"x":170630.59000000078,"y":2548376.8200000022}},{"attributes":{"ID":606861,"DIS_CODE":0,"TOWNNAME":"永康區","LI":"\u25A0洲里","LIN":"25鄰","STREET":"洲工街","SECT":" ","MAREA":" ","LANE":" ","ALLEY":" ","HOUSE_NO":"１００號","E_COORD97":170628.51999999999,"N_COORD97":2548384.1000000001,"ADDRESS":"洲工街１００號","OBJECTID":606834},"geometry":{"x":170628.52000000048,"y":2548384.1000000015}},{"attributes":{"ID":606862,"DIS_CODE":0,"TOWNNAME":"永康區","LI":"\u25A0洲里","LIN":"32鄰","STREET":"正南八街","SECT":" ","MAREA":" ","LANE":" ","ALLEY":" ","HOUSE_NO":"９３號","E_COORD97":171131.53,"N_COORD97":2548932.0800000001,"ADDRESS":"正南八街９３號","OBJECTID":606835},"geometry":{"x":171131.53000000119,"y":2548932.0800000001}},{"attributes":{"ID":606863,"DIS_CODE":0,"TOWNNAME":"永康區","LI":"\u25A0行里","LIN":"7鄰","STREET":"中正三街","SECT":" ","MAREA":" ","LANE":" ","ALLEY":" ","HOUSE_NO":"２１號","E_COORD97":172384.67999999999,"N_COORD97":2548558.48,"ADDRESS":"中正三街２１號","OBJECTID":606836},"geometry":{"x":172384.6799999997,"y":2548558.4800000023}},{"attributes":{"ID":606864,"DIS_CODE":0,"TOWNNAME":"六甲區","LI":"七甲里","LIN":"3鄰","STREET":"中華路","SECT":" ","MAREA":" ","LANE":" ","ALLEY":" ","HOUSE_NO":"３０３號","E_COORD97":182787.73000000001,"N_COORD97":2569136.1200000001,"ADDRESS":"中華路３０３號","OBJECTID":606837},"geometry":{"x":182787.73000000138,"y":2569136.120000001}},{"attributes":{"ID":606865,"DIS_CODE":0,"TOWNNAME":"六甲區","LI":"七甲里","LIN":"3鄰","STREET":"中華路","SECT":" ","MAREA":" ","LANE":" ","ALLEY":" ","HOUSE_NO":"３０７號","E_COORD97":182777.53,"N_COORD97":2569132.3100000001,"ADDRESS":"中華路３０７號","OBJECTID":606838},"geometry":{"x":182777.53000000119,"y":2569132.3100000024}},{"attributes":{"ID":606866,"DIS_CODE":0,"TOWNNAME":"六甲區","LI":"七甲里","LIN":"3鄰","STREET":"中華路","SECT":" ","MAREA":" ","LANE":" ","ALLEY":" ","HOUSE_NO":"３０９號","E_COORD97":182773.38,"N_COORD97":2569131.7599999998,"ADDRESS":"中華路３０９號","OBJECTID":606839},"geometry":{"x":182773.37999999989,"y":2569131.7600000016}},{"attributes":{"ID":606867,"DIS_CODE":0,"TOWNNAME":"六甲區","LI":"七甲里","LIN":"3鄰","STREET":"中華路","SECT":" ","MAREA":" ","LANE":" ","ALLEY":" ","HOUSE_NO":"３１１號","E_COORD97":182768.97,"N_COORD97":2569131.23,"ADDRESS":"中華路３１１號","OBJECTID":606840},"geometry":{"x":182768.97000000067,"y":2569131.2300000004}},{"attributes":{"ID":606868,"DIS_CODE":0,"TOWNNAME":"六甲區","LI":"七甲里","LIN":"3鄰","STREET":"中華路","SECT":" ","MAREA":" ","LANE":" ","ALLEY":" ","HOUSE_NO":"３１３號","E_COORD97":182764.70000000001,"N_COORD97":2569130.6299999999,"ADDRESS":"中華路３１３號","OBJECTID":606841},"geometry":{"x":182764.70000000019,"y":2569130.629999999}},{"attributes":{"ID":606869,"DIS_CODE":0,"TOWNNAME":"六甲區","LI":"七甲里","LIN":"3鄰","STREET":"中華路","SECT":" ","MAREA":" ","LANE":" ","ALLEY":" ","HOUSE_NO":"３１７號","E_COORD97":182755.94,"N_COORD97":2569132.6899999999,"ADDRESS":"中華路３１７號","OBJECTID":606842},"geometry":{"x":182755.94000000134,"y":2569132.6900000013}},{"attributes":{"ID":606870,"DIS_CODE":0,"TOWNNAME":"六甲區","LI":"七甲里","LIN":"3鄰","STREET":"中華路","SECT":" ","MAREA":" ","LANE":" ","ALLEY":" ","HOUSE_NO":"３１９號","E_COORD97":182750.76000000001,"N_COORD97":2569125.2000000002,"ADDRESS":"中華路３１９號","OBJECTID":606843},"geometry":{"x":182750.75999999978,"y":2569125.2000000011}},{"attributes":{"ID":606871,"DIS_CODE":0,"TOWNNAME":"六甲區","LI":"七甲里","LIN":"3鄰","STREET":"中華路","SECT":" ","MAREA":" ","LANE":" ","ALLEY":" ","HOUSE_NO":"４１７號","E_COORD97":182719.03,"N_COORD97":2569140.0699999998,"ADDRESS":"中華路４１７號","OBJECTID":606844},"geometry":{"x":182719.02999999933,"y":2569140.070000004}},{"attributes":{"ID":606872,"DIS_CODE":0,"TOWNNAME":"六甲區","LI":"七甲里","LIN":"3鄰","STREET":"中華路","SECT":" ","MAREA":" ","LANE":" ","ALLEY":" ","HOUSE_NO":"４１９號","E_COORD97":182686.70999999999,"N_COORD97":2569127.8700000001,"ADDRESS":"中華路４１９號","OBJECTID":606845},"geometry":{"x":182686.70999999996,"y":2569127.870000001}},{"attributes":{"ID":606873,"DIS_CODE":0,"TOWNNAME":"六甲區","LI":"七甲里","LIN":"3鄰","STREET":"中華路","SECT":" ","MAREA":" ","LANE":" ","ALLEY":" ","HOUSE_NO":"４２７號","E_COORD97":182569.56,"N_COORD97":2569053.6600000001,"ADDRESS":"中華路４２７號","OBJECTID":606846},"geometry":{"x":182569.56000000052,"y":2569053.6600000001}},{"attributes":{"ID":606874,"DIS_CODE":0,"TOWNNAME":"六甲區","LI":"甲東里","LIN":"3鄰","STREET":"仁愛街","SECT":" ","MAREA":" ","LANE":" ","ALLEY":" ","HOUSE_NO":"６２號","E_COORD97":183880.29000000001,"N_COORD97":2570032.6499999999,"ADDRESS":"仁愛街６２號","OBJECTID":606847},"geometry":{"x":183880.29000000097,"y":2570032.6500000022}},{"attributes":{"ID":606875,"DIS_CODE":0,"TOWNNAME":"六甲區","LI":"甲東里","LIN":"3鄰","STREET":"仁愛街","SECT":" ","MAREA":" ","LANE":" ","ALLEY":" ","HOUSE_NO":"６６號","E_COORD97":183880.81,"N_COORD97":2570038.5,"ADDRESS":"仁愛街６６號","OBJECTID":606848},"geometry":{"x":183880.80999999959,"y":2570038.5000000037}},{"attributes":{"ID":606876,"DIS_CODE":0,"TOWNNAME":"六甲區","LI":"甲東里","LIN":"3鄰","STREET":"仁愛街","SECT":" ","MAREA":" ","LANE":" ","ALLEY":" ","HOUSE_NO":"６８號","E_COORD97":183880.42000000001,"N_COORD97":2570045.0699999998,"ADDRESS":"仁愛街６８號","OBJECTID":606849},"geometry":{"x":183880.41999999993,"y":2570045.0699999984}},{"attributes":{"ID":606877,"DIS_CODE":0,"TOWNNAME":"六甲區","LI":"甲南里","LIN":"3鄰","STREET":"民生街","SECT":" ","MAREA":" ","LANE":" ","ALLEY":" ","HOUSE_NO":"１００號","E_COORD97":183749.10999999999,"N_COORD97":2569780.3900000001,"ADDRESS":"民生街１００號","OBJECTID":606850},"geometry":{"x":183749.11000000034,"y":2569780.3900000025}},{"attributes":{"ID":606878,"DIS_CODE":0,"TOWNNAME":"六甲區","LI":"甲南里","LIN":"3鄰","STREET":"民生街","SECT":" ","MAREA":" ","LANE":" ","ALLEY":" ","HOUSE_NO":"１０２號","E_COORD97":183750.57999999999,"N_COORD97":2569784.04,"ADDRESS":"民生街１０２號","OBJECTID":606851},"geometry":{"x":183750.58000000007,"y":2569784.040000001}},{"attributes":{"ID":606879,"DIS_CODE":0,"TOWNNAME":"六甲區","LI":"甲南里","LIN":"3鄰","STREET":"民生街","SECT":" ","MAREA":" ","LANE":" ","ALLEY":" ","HOUSE_NO":"１０４號","E_COORD97":183752.14000000001,"N_COORD97":2569787.4700000002,"ADDRESS":"民生街１０４號","OBJECTID":606852},"geometry":{"x":183752.1400000006,"y":2569787.4700000007}},{"attributes":{"ID":606880,"DIS_CODE":0,"TOWNNAME":"六甲區","LI":"甲南里","LIN":"3鄰","STREET":"民生街","SECT":" ","MAREA":" ","LANE":" ","ALLEY":" ","HOUSE_NO":"１０６號","E_COORD97":183753.87,"N_COORD97":2569791.5099999998,"ADDRESS":"民生街１０６號","OBJECTID":606853},"geometry":{"x":183753.87000000011,"y":2569791.5100000016}},{"attributes":{"ID":606881,"DIS_CODE":0,"TOWNNAME":"六甲區","LI":"甲南里","LIN":"3鄰","STREET":"民生街","SECT":" ","MAREA":" ","LANE":" ","ALLEY":" ","HOUSE_NO":"１０８號","E_COORD97":183755.59,"N_COORD97":2569794.8799999999,"ADDRESS":"民生街１０８號","OBJECTID":606854},"geometry":{"x":183755.58999999892,"y":2569794.8800000008}},{"attributes":{"ID":606882,"DIS_CODE":0,"TOWNNAME":"六甲區","LI":"甲南里","LIN":"3鄰","STREET":"民生街","SECT":" ","MAREA":" ","LANE":" ","ALLEY":" ","HOUSE_NO":"１１０號","E_COORD97":183757.32000000001,"N_COORD97":2569798.3100000001,"ADDRESS":"民生街１１０號","OBJECTID":606855},"geometry":{"x":183757.3200000003,"y":2569798.3100000005}},{"attributes":{"ID":606883,"DIS_CODE":0,"TOWNNAME":"六甲區","LI":"甲南里","LIN":"3鄰","STREET":"民生街","SECT":" ","MAREA":" ","LANE":" ","ALLEY":" ","HOUSE_NO":"１１２號","E_COORD97":183758.91,"N_COORD97":2569802.25,"ADDRESS":"民生街１１２號","OBJECTID":606856},"geometry":{"x":183758.91000000201,"y":2569802.25}},{"attributes":{"ID":606884,"DIS_CODE":0,"TOWNNAME":"六甲區","LI":"甲南里","LIN":"3鄰","STREET":"民生街","SECT":" ","MAREA":" ","LANE":" ","ALLEY":" ","HOUSE_NO":"１１４號","E_COORD97":183760.38,"N_COORD97":2569806.1600000001,"ADDRESS":"民生街１１４號","OBJECTID":606857},"geometry":{"x":183760.37999999989,"y":2569806.1600000001}},{"attributes":{"ID":606885,"DIS_CODE":0,"TOWNNAME":"六甲區","LI":"甲南里","LIN":"3鄰","STREET":"民生街","SECT":" ","MAREA":" ","LANE":" ","ALLEY":" ","HOUSE_NO":"１１６號","E_COORD97":183762.29000000001,"N_COORD97":2569810.27,"ADDRESS":"民生街１１６號","OBJECTID":606858},"geometry":{"x":183762.29000000004,"y":2569810.2700000014}},{"attributes":{"ID":606886,"DIS_CODE":0,"TOWNNAME":"六甲區","LI":"甲南里","LIN":"3鄰","STREET":"民生街","SECT":" ","MAREA":" ","LANE":" ","ALLEY":" ","HOUSE_NO":"１１８號","E_COORD97":183764.04000000001,"N_COORD97":2569813.9500000002,"ADDRESS":"民生街１１８號","OBJECTID":606859},"geometry":{"x":183764.04000000004,"y":2569813.9499999993}},{"attributes":{"ID":606887,"DIS_CODE":0,"TOWNNAME":"六甲區","LI":"甲南里","LIN":"3鄰","STREET":"民生街","SECT":" ","MAREA":" ","LANE":" ","ALLEY":" ","HOUSE_NO":"１２２號","E_COORD97":183767.25,"N_COORD97":2569821.5899999999,"ADDRESS":"民生街１２２號","OBJECTID":606860},"geometry":{"x":183767.25000000093,"y":2569821.5900000017}},{"attributes":{"ID":606888,"DIS_CODE":0,"TOWNNAME":"六甲區","LI":"甲南里","LIN":"3鄰","STREET":"民生街","SECT":" ","MAREA":" ","LANE":" ","ALLEY":" ","HOUSE_NO":"１２４號","E_COORD97":183769.03,"N_COORD97":2569824.5699999998,"ADDRESS":"民生街１２４號","OBJECTID":606861},"geometry":{"x":183769.03000000119,"y":2569824.5700000003}},{"attributes":{"ID":606889,"DIS_CODE":0,"TOWNNAME":"六甲區","LI":"甲南里","LIN":"3鄰","STREET":"民生街","SECT":" ","MAREA":" ","LANE":" ","ALLEY":" ","HOUSE_NO":"１２６號","E_COORD97":183770.42000000001,"N_COORD97":2569828.1800000002,"ADDRESS":"民生街１２６號","OBJECTID":606862},"geometry":{"x":183770.41999999899,"y":2569828.1800000016}},{"attributes":{"ID":606890,"DIS_CODE":0,"TOWNNAME":"六甲區","LI":"甲南里","LIN":"3鄰","STREET":"民生街","SECT":" ","MAREA":" ","LANE":" ","ALLEY":" ","HOUSE_NO":"９０號","E_COORD97":183736.89999999999,"N_COORD97":2569758.0299999998,"ADDRESS":"民生街９０號","OBJECTID":606863},"geometry":{"x":183736.90000000037,"y":2569758.0299999993}},{"attributes":{"ID":606891,"DIS_CODE":0,"TOWNNAME":"六甲區","LI":"甲南里","LIN":"3鄰","STREET":"民生街","SECT":" ","MAREA":" ","LANE":" ","ALLEY":" ","HOUSE_NO":"９２號","E_COORD97":183758.48000000001,"N_COORD97":2569753.6499999999,"ADDRESS":"民生街９２號","OBJECTID":606864},"geometry":{"x":183758.48000000045,"y":2569753.6500000022}},{"attributes":{"ID":606892,"DIS_CODE":0,"TOWNNAME":"六甲區","LI":"甲南里","LIN":"3鄰","STREET":"民生街","SECT":" ","MAREA":" ","LANE":" ","ALLEY":" ","HOUSE_NO":"９４號","E_COORD97":183743.06,"N_COORD97":2569767.8799999999,"ADDRESS":"民生街９４號","OBJECTID":606865},"geometry":{"x":183743.05999999959,"y":2569767.8800000008}},{"attributes":{"ID":606893,"DIS_CODE":0,"TOWNNAME":"六甲區","LI":"甲南里","LIN":"3鄰","STREET":"民生街","SECT":" ","MAREA":" ","LANE":" ","ALLEY":" ","HOUSE_NO":"９６號","E_COORD97":183745.38,"N_COORD97":2569773.2799999998,"ADDRESS":"民生街９６號","OBJECTID":606866},"geometry":{"x":183745.38000000175,"y":2569773.2799999993}},{"attributes":{"ID":606894,"DIS_CODE":0,"TOWNNAME":"六甲區","LI":"甲南里","LIN":"3鄰","STREET":"民生街","SECT":" ","MAREA":" ","LANE":" ","ALLEY":" ","HOUSE_NO":"９８號","E_COORD97":183747.14000000001,"N_COORD97":2569777.04,"ADDRESS":"民生街９８號","OBJECTID":606867},"geometry":{"x":183747.1400000006,"y":2569777.040000001}},{"attributes":{"ID":606895,"DIS_CODE":0,"TOWNNAME":"中西區","LI":"協和里","LIN":"3鄰","STREET":"文賢路","SECT":" ","MAREA":" ","LANE":" ","ALLEY":" ","HOUSE_NO":"４９號","E_COORD97":167380.72,"N_COORD97":2544541.75,"ADDRESS":"文賢路４９號","OBJECTID":606868},"geometry":{"x":167380.71999999974,"y":2544541.7500000019}},{"attributes":{"ID":606896,"DIS_CODE":0,"TOWNNAME":"六甲區","LI":"六甲里","LIN":"3鄰","STREET":"民權街","SECT":" ","MAREA":" ","LANE":" ","ALLEY":" ","HOUSE_NO":"１５號","E_COORD97":183510.72,"N_COORD97":2569610,"ADDRESS":"民權街１５號","OBJECTID":606869},"geometry":{"x":183510.7200000016,"y":2569610}},{"attributes":{"ID":606897,"DIS_CODE":0,"TOWNNAME":"新營區","LI":"中營里","LIN":"3鄰","STREET":"中山路","SECT":" ","MAREA":" ","LANE":" ","ALLEY":" ","HOUSE_NO":"３６號","E_COORD97":180607.70000000001,"N_COORD97":2578398.2000000002,"ADDRESS":"中山路３６號","OBJECTID":606870},"geometry":{"x":180607.70000000112,"y":2578398.2000000011}},{"attributes":{"ID":606898,"DIS_CODE":0,"TOWNNAME":"新營區","LI":"南興里","LIN":"3鄰","STREET":"南昌街","SECT":" ","MAREA":" ","LANE":" ","ALLEY":" ","HOUSE_NO":"３３號","E_COORD97":179584.37,"N_COORD97":2577652.1800000002,"ADDRESS":"南昌街３３號","OBJECTID":606871},"geometry":{"x":179584.37000000104,"y":2577652.1800000016}},{"attributes":{"ID":606899,"DIS_CODE":0,"TOWNNAME":"新營區","LI":"新南里","LIN":"3鄰","STREET":"新北街","SECT":" ","MAREA":" ","LANE":" ","ALLEY":" ","HOUSE_NO":"９７之３號","E_COORD97":178736.94,"N_COORD97":2578765.96,"ADDRESS":"新北街９７之３號","OBJECTID":606872},"geometry":{"x":178736.94000000134,"y":2578765.9600000009}},{"attributes":{"ID":606900,"DIS_CODE":0,"TOWNNAME":"中西區","LI":"協和里","LIN":"3鄰","STREET":"文賢路","SECT":" ","MAREA":" ","LANE":" ","ALLEY":" ","HOUSE_NO":"５１號","E_COORD97":167380.26000000001,"N_COORD97":2544545.1200000001,"ADDRESS":"文賢路５１號","OBJECTID":606873},"geometry":{"x":167380.25999999978,"y":2544545.120000001}},{"attributes":{"ID":606901,"DIS_CODE":0,"TOWNNAME":"中西區","LI":"協和里","LIN":"3鄰","STREET":"文賢路","SECT":" ","MAREA":" ","LANE":" ","ALLEY":" ","HOUSE_NO":"５３號","E_COORD97":167378.28,"N_COORD97":2544550.8199999998,"ADDRESS":"文賢路５３號","OBJECTID":606874},"geometry":{"x":167378.28000000119,"y":2544550.8200000003}},{"attributes":{"ID":606902,"DIS_CODE":0,"TOWNNAME":"中西區","LI":"協和里","LIN":"3鄰","STREET":"文賢路","SECT":" ","MAREA":" ","LANE":" ","ALLEY":" ","HOUSE_NO":"５５號","E_COORD97":167385.62,"N_COORD97":2544559.5,"ADDRESS":"文賢路５５號","OBJECTID":606875},"geometry":{"x":167385.62000000104,"y":2544559.5}},{"attributes":{"ID":606903,"DIS_CODE":0,"TOWNNAME":"新營區","LI":"新南里","LIN":"3鄰","STREET":"新北街","SECT":" ","MAREA":" ","LANE":" ","ALLEY":" ","HOUSE_NO":"３３號","E_COORD97":178849.73999999999,"N_COORD97":2578682.2999999998,"ADDRESS":"新北街３３號","OBJECTID":606876},"geometry":{"x":178849.74000000115,"y":2578682.3000000007}},{"attributes":{"ID":606904,"DIS_CODE":0,"TOWNNAME":"新營區","LI":"新東里","LIN":"3鄰","STREET":"東大街","SECT":" ","MAREA":" ","LANE":" ","ALLEY":" ","HOUSE_NO":"２９號","E_COORD97":180995.64000000001,"N_COORD97":2579117.3399999999,"ADDRESS":"東大街２９號","OBJECTID":606877},"geometry":{"x":180995.6400000006,"y":2579117.3399999999}},{"attributes":{"ID":606905,"DIS_CODE":0,"TOWNNAME":"中西區","LI":"協和里","LIN":"3鄰","STREET":"文賢路","SECT":" ","MAREA":" ","LANE":" ","ALLEY":" ","HOUSE_NO":"５７號","E_COORD97":167387.13,"N_COORD97":2544563.5699999998,"ADDRESS":"文賢路５７號","OBJECTID":606878},"geometry":{"x":167387.13000000082,"y":2544563.5700000022}},{"attributes":{"ID":606906,"DIS_CODE":0,"TOWNNAME":"柳營區","LI":"光福里","LIN":"3鄰","STREET":"中山西路","SECT":"二段","MAREA":" ","LANE":" ","ALLEY":" ","HOUSE_NO":"１３３號","E_COORD97":179808.64999999999,"N_COORD97":2575081.4100000001,"ADDRESS":"中山西路二段１３３號","OBJECTID":606879},"geometry":{"x":179808.65000000037,"y":2575081.410000002}},{"attributes":{"ID":606907,"DIS_CODE":0,"TOWNNAME":"柳營區","LI":"光福里","LIN":"3鄰","STREET":"中山西路","SECT":"二段","MAREA":" ","LANE":" ","ALLEY":" ","HOUSE_NO":"１３５號","E_COORD97":179803.47,"N_COORD97":2575080.1200000001,"ADDRESS":"中山西路二段１３５號","OBJECTID":606880},"geometry":{"x":179803.47000000067,"y":2575080.120000001}},{"attributes":{"ID":606908,"DIS_CODE":0,"TOWNNAME":"柳營區","LI":"光福里","LIN":"3鄰","STREET":"中山西路","SECT":"二段","MAREA":" ","LANE":" ","ALLEY":" ","HOUSE_NO":"１３７號","E_COORD97":179799.39999999999,"N_COORD97":2575078.9300000002,"ADDRESS":"中山西路二段１３７號","OBJECTID":606881},"geometry":{"x":179799.40000000224,"y":2575078.9299999997}},{"attributes":{"ID":606909,"DIS_CODE":0,"TOWNNAME":"柳營區","LI":"光福里","LIN":"3鄰","STREET":"中山西路","SECT":"二段","MAREA":" ","LANE":" ","ALLEY":" ","HOUSE_NO":"１３９號","E_COORD97":179795.5,"N_COORD97":2575078.3399999999,"ADDRESS":"中山西路二段１３９號","OBJECTID":606882},"geometry":{"x":179795.50000000093,"y":2575078.3400000017}},{"attributes":{"ID":606910,"DIS_CODE":0,"TOWNNAME":"柳營區","LI":"光福里","LIN":"3鄰","STREET":"中山西路","SECT":"二段","MAREA":" ","LANE":" ","ALLEY":" ","HOUSE_NO":"１４１號","E_COORD97":179792.48999999999,"N_COORD97":2575077.5299999998,"ADDRESS":"中山西路二段１４１號","OBJECTID":606883},"geometry":{"x":179792.49000000115,"y":2575077.5299999993}},{"attributes":{"ID":606911,"DIS_CODE":0,"TOWNNAME":"柳營區","LI":"光福里","LIN":"3鄰","STREET":"中山西路","SECT":"二段","MAREA":" ","LANE":" ","ALLEY":" ","HOUSE_NO":"１４３號","E_COORD97":179788.75,"N_COORD97":2575076.6000000001,"ADDRESS":"中山西路二段１４３號","OBJECTID":606884},"geometry":{"x":179788.75000000093,"y":2575076.6000000015}},{"attributes":{"ID":606912,"DIS_CODE":0,"TOWNNAME":"柳營區","LI":"光福里","LIN":"3鄰","STREET":"中山西路","SECT":"二段","MAREA":" ","LANE":" ","ALLEY":" ","HOUSE_NO":"１４５號","E_COORD97":179784.92999999999,"N_COORD97":2575076.0299999998,"ADDRESS":"中山西路二段１４５號","OBJECTID":606885},"geometry":{"x":179784.93000000156,"y":2575076.0300000031}},{"attributes":{"ID":606913,"DIS_CODE":0,"TOWNNAME":"柳營區","LI":"光福里","LIN":"3鄰","STREET":"中山西路","SECT":"二段","MAREA":" ","LANE":" ","ALLEY":" ","HOUSE_NO":"１４７號","E_COORD97":179781.54000000001,"N_COORD97":2575074.9700000002,"ADDRESS":"中山西路二段１４７號","OBJECTID":606886},"geometry":{"x":179781.54000000097,"y":2575074.9700000025}},{"attributes":{"ID":606914,"DIS_CODE":0,"TOWNNAME":"柳營區","LI":"光福里","LIN":"3鄰","STREET":"中山西路","SECT":"二段","MAREA":" ","LANE":" ","ALLEY":" ","HOUSE_NO":"１４９號","E_COORD97":179777.64999999999,"N_COORD97":2575074.0600000001,"ADDRESS":"中山西路二段１４９號","OBJECTID":606887},"geometry":{"x":179777.6500000013,"y":2575074.0600000024}},{"attributes":{"ID":606915,"DIS_CODE":0,"TOWNNAME":"柳營區","LI":"光福里","LIN":"3鄰","STREET":"中山西路","SECT":"二段","MAREA":" ","LANE":" ","ALLEY":" ","HOUSE_NO":"１５１號","E_COORD97":179774.29000000001,"N_COORD97":2575073.7200000002,"ADDRESS":"中山西路二段１５１號","OBJECTID":606888},"geometry":{"x":179774.2900000019,"y":2575073.7200000025}},{"attributes":{"ID":606916,"DIS_CODE":0,"TOWNNAME":"柳營區","LI":"光福里","LIN":"3鄰","STREET":"中山西路","SECT":"二段","MAREA":" ","LANE":" ","ALLEY":" ","HOUSE_NO":"１５３號","E_COORD97":179770.85999999999,"N_COORD97":2575073.1499999999,"ADDRESS":"中山西路二段１５３號","OBJECTID":606889},"geometry":{"x":179770.86000000127,"y":2575073.1500000022}},{"attributes":{"ID":606917,"DIS_CODE":0,"TOWNNAME":"柳營區","LI":"光福里","LIN":"3鄰","STREET":"中山西路","SECT":"二段","MAREA":" ","LANE":" ","ALLEY":" ","HOUSE_NO":"１５５號","E_COORD97":179767.60000000001,"N_COORD97":2575072.6299999999,"ADDRESS":"中山西路二段１５５號","OBJECTID":606890},"geometry":{"x":179767.59999999963,"y":2575072.6300000008}},{"attributes":{"ID":606918,"DIS_CODE":0,"TOWNNAME":"柳營區","LI":"光福里","LIN":"3鄰","STREET":"中山西路","SECT":"二段","MAREA":" ","LANE":" ","ALLEY":" ","HOUSE_NO":"１５７號","E_COORD97":179763.67000000001,"N_COORD97":2575071.96,"ADDRESS":"中山西路二段１５７號","OBJECTID":606891},"geometry":{"x":179763.67000000086,"y":2575071.9600000028}},{"attributes":{"ID":606919,"DIS_CODE":0,"TOWNNAME":"中西區","LI":"協和里","LIN":"3鄰","STREET":"文賢路","SECT":" ","MAREA":" ","LANE":" ","ALLEY":" ","HOUSE_NO":"５９號","E_COORD97":167388.29000000001,"N_COORD97":2544569.96,"ADDRESS":"文賢路５９號","OBJECTID":606892},"geometry":{"x":167388.29000000097,"y":2544569.9600000009}},{"attributes":{"ID":606920,"DIS_CODE":0,"TOWNNAME":"柳營區","LI":"中埕里","LIN":"3鄰","STREET":"中興街","SECT":" ","MAREA":" ","LANE":" ","ALLEY":" ","HOUSE_NO":"４１號","E_COORD97":179949.39999999999,"N_COORD97":2575248.8300000001,"ADDRESS":"中興街４１號","OBJECTID":606893},"geometry":{"x":179949.40000000037,"y":2575248.8300000019}},{"attributes":{"ID":606921,"DIS_CODE":0,"TOWNNAME":"柳營區","LI":"中埕里","LIN":"3鄰","STREET":"中興街","SECT":" ","MAREA":" ","LANE":" ","ALLEY":" ","HOUSE_NO":"４７號","E_COORD97":179923.04000000001,"N_COORD97":2575275.5099999998,"ADDRESS":"中興街４７號","OBJECTID":606894},"geometry":{"x":179923.04000000004,"y":2575275.5099999998}},{"attributes":{"ID":606922,"DIS_CODE":0,"TOWNNAME":"柳營區","LI":"東昇里","LIN":"3鄰","STREET":"成功街","SECT":" ","MAREA":" ","LANE":" ","ALLEY":" ","HOUSE_NO":"１２０號","E_COORD97":179934.44,"N_COORD97":2575354.2799999998,"ADDRESS":"成功街１２０號","OBJECTID":606895},"geometry":{"x":179934.44000000041,"y":2575354.2799999993}},{"attributes":{"ID":606923,"DIS_CODE":0,"TOWNNAME":"柳營區","LI":"東昇里","LIN":"3鄰","STREET":"成功街","SECT":" ","MAREA":" ","LANE":" ","ALLEY":" ","HOUSE_NO":"１２２號","E_COORD97":179930.07000000001,"N_COORD97":2575352.98,"ADDRESS":"成功街１２２號","OBJECTID":606896},"geometry":{"x":179930.0700000003,"y":2575352.9800000023}},{"attributes":{"ID":606924,"DIS_CODE":0,"TOWNNAME":"柳營區","LI":"東昇里","LIN":"3鄰","STREET":"成功街","SECT":" ","MAREA":" ","LANE":" ","ALLEY":" ","HOUSE_NO":"１２６號","E_COORD97":179925.70000000001,"N_COORD97":2575351.6899999999,"ADDRESS":"成功街１２６號","OBJECTID":606897},"geometry":{"x":179925.70000000019,"y":2575351.6899999995}},{"attributes":{"ID":606925,"DIS_CODE":0,"TOWNNAME":"柳營區","LI":"東昇里","LIN":"3鄰","STREET":"成功街","SECT":" ","MAREA":" ","LANE":" ","ALLEY":" ","HOUSE_NO":"１２８號","E_COORD97":179921.32999999999,"N_COORD97":2575350.3900000001,"ADDRESS":"成功街１２８號","OBJECTID":606898},"geometry":{"x":179921.33000000007,"y":2575350.3900000025}},{"attributes":{"ID":606926,"DIS_CODE":0,"TOWNNAME":"柳營區","LI":"東昇里","LIN":"3鄰","STREET":"成功街","SECT":" ","MAREA":" ","LANE":" ","ALLEY":" ","HOUSE_NO":"１３０號","E_COORD97":179914.79999999999,"N_COORD97":2575346.4399999999,"ADDRESS":"成功街１３０號","OBJECTID":606899},"geometry":{"x":179914.80000000075,"y":2575346.4399999995}},{"attributes":{"ID":606927,"DIS_CODE":0,"TOWNNAME":"柳營區","LI":"東昇里","LIN":"3鄰","STREET":"成功街","SECT":" ","MAREA":" ","LANE":" ","ALLEY":" ","HOUSE_NO":"１３２號","E_COORD97":179909.10000000001,"N_COORD97":2575345.1600000001,"ADDRESS":"成功街１３２號","OBJECTID":606900},"geometry":{"x":179909.10000000149,"y":2575345.160000002}},{"attributes":{"ID":606928,"DIS_CODE":0,"TOWNNAME":"永康區","LI":"西勢里","LIN":"11鄰","STREET":"廣興街","SECT":" ","MAREA":" ","LANE":" ","ALLEY":" ","HOUSE_NO":"２９號","E_COORD97":175815.39999999999,"N_COORD97":2546596.29,"ADDRESS":"廣興街２９號","OBJECTID":606901},"geometry":{"x":175815.40000000037,"y":2546596.290000001}},{"attributes":{"ID":606929,"DIS_CODE":0,"TOWNNAME":"永康區","LI":"西勢里","LIN":"11鄰","STREET":"廣興街","SECT":" ","MAREA":" ","LANE":" ","ALLEY":" ","HOUSE_NO":"３１號","E_COORD97":175821.42000000001,"N_COORD97":2546595.6699999999,"ADDRESS":"廣興街３１號","OBJECTID":606902},"geometry":{"x":175821.41999999993,"y":2546595.6699999999}},{"attributes":{"ID":606930,"DIS_CODE":0,"TOWNNAME":"永康區","LI":"西勢里","LIN":"11鄰","STREET":"廣興街","SECT":" ","MAREA":" ","LANE":" ","ALLEY":" ","HOUSE_NO":"３３號","E_COORD97":175825.95000000001,"N_COORD97":2546593.6400000001,"ADDRESS":"廣興街３３號","OBJECTID":606903},"geometry":{"x":175825.95000000112,"y":2546593.6399999987}},{"attributes":{"ID":606931,"DIS_CODE":0,"TOWNNAME":"永康區","LI":"西勢里","LIN":"11鄰","STREET":"廣興街","SECT":" ","MAREA":" ","LANE":" ","ALLEY":" ","HOUSE_NO":"３５號","E_COORD97":175830.44,"N_COORD97":2546593.46,"ADDRESS":"廣興街３５號","OBJECTID":606904},"geometry":{"x":175830.44000000041,"y":2546593.4600000028}},{"attributes":{"ID":606932,"DIS_CODE":0,"TOWNNAME":"中西區","LI":"協和里","LIN":"3鄰","STREET":"文賢路","SECT":" ","MAREA":" ","LANE":" ","ALLEY":" ","HOUSE_NO":"６１號","E_COORD97":167391.44,"N_COORD97":2544578.3300000001,"ADDRESS":"文賢路６１號","OBJECTID":606905},"geometry":{"x":167391.44000000041,"y":2544578.3300000038}},{"attributes":{"ID":606933,"DIS_CODE":0,"TOWNNAME":"南區","LI":"大恩里","LIN":"3鄰","STREET":"國民路","SECT":" ","MAREA":" ","LANE":" ","ALLEY":" ","HOUSE_NO":"１２８號","E_COORD97":169277.37,"N_COORD97":2540906.75,"ADDRESS":"國民路１２８號","OBJECTID":606906},"geometry":{"x":169277.37000000104,"y":2540906.7500000037}},{"attributes":{"ID":606934,"DIS_CODE":0,"TOWNNAME":"南區","LI":"大恩里","LIN":"3鄰","STREET":"國民路","SECT":" ","MAREA":" ","LANE":" ","ALLEY":" ","HOUSE_NO":"１０８號","E_COORD97":169329.45000000001,"N_COORD97":2540909.54,"ADDRESS":"國民路１０８號","OBJECTID":606907},"geometry":{"x":169329.45000000112,"y":2540909.5399999991}},{"attributes":{"ID":606935,"DIS_CODE":0,"TOWNNAME":"南區","LI":"大恩里","LIN":"3鄰","STREET":"國民路","SECT":" ","MAREA":" ","LANE":" ","ALLEY":" ","HOUSE_NO":"１１０號","E_COORD97":169324.64999999999,"N_COORD97":2540909.3100000001,"ADDRESS":"國民路１１０號","OBJECTID":606908},"geometry":{"x":169324.64999999944,"y":2540909.3100000005}},{"attributes":{"ID":606936,"DIS_CODE":0,"TOWNNAME":"南區","LI":"大恩里","LIN":"3鄰","STREET":"國民路","SECT":" ","MAREA":" ","LANE":" ","ALLEY":" ","HOUSE_NO":"１１４號","E_COORD97":169315.16,"N_COORD97":2540910.3399999999,"ADDRESS":"國民路１１４號","OBJECTID":606909},"geometry":{"x":169315.16000000015,"y":2540910.3400000017}},{"attributes":{"ID":606937,"DIS_CODE":0,"TOWNNAME":"南區","LI":"大恩里","LIN":"3鄰","STREET":"國民路","SECT":" ","MAREA":" ","LANE":" ","ALLEY":" ","HOUSE_NO":"１１８號","E_COORD97":169300.54999999999,"N_COORD97":2540907.7000000002,"ADDRESS":"國民路１１８號","OBJECTID":606910},"geometry":{"x":169300.54999999981,"y":2540907.7000000011}},{"attributes":{"ID":606938,"DIS_CODE":0,"TOWNNAME":"南區","LI":"大恩里","LIN":"3鄰","STREET":"國民路","SECT":" ","MAREA":" ","LANE":" ","ALLEY":" ","HOUSE_NO":"１２０號","E_COORD97":169294.51000000001,"N_COORD97":2540907.3900000001,"ADDRESS":"國民路１２０號","OBJECTID":606911},"geometry":{"x":169294.51000000164,"y":2540907.3900000025}},{"attributes":{"ID":606939,"DIS_CODE":0,"TOWNNAME":"南區","LI":"大恩里","LIN":"3鄰","STREET":"國民路","SECT":" ","MAREA":" ","LANE":" ","ALLEY":" ","HOUSE_NO":"１２２號","E_COORD97":169290.39000000001,"N_COORD97":2540907.0699999998,"ADDRESS":"國民路１２２號","OBJECTID":606912},"geometry":{"x":169290.3900000006,"y":2540907.0700000003}},{"attributes":{"ID":606940,"DIS_CODE":0,"TOWNNAME":"南區","LI":"大恩里","LIN":"3鄰","STREET":"國民路","SECT":" ","MAREA":" ","LANE":" ","ALLEY":" ","HOUSE_NO":"１２４號","E_COORD97":169286.26000000001,"N_COORD97":2540907.23,"ADDRESS":"國民路１２４號","OBJECTID":606913},"geometry":{"x":169286.26000000071,"y":2540907.2299999986}},{"attributes":{"ID":606941,"DIS_CODE":0,"TOWNNAME":"南區","LI":"大恩里","LIN":"3鄰","STREET":"國民路","SECT":" ","MAREA":" ","LANE":" ","ALLEY":" ","HOUSE_NO":"１２６號","E_COORD97":169281.66,"N_COORD97":2540906.9100000001,"ADDRESS":"國民路１２６號","OBJECTID":606914},"geometry":{"x":169281.66000000015,"y":2540906.910000002}},{"attributes":{"ID":606942,"DIS_CODE":0,"TOWNNAME":"南區","LI":"日新里","LIN":"3鄰","STREET":"利南街","SECT":" ","MAREA":" ","LANE":" ","ALLEY":" ","HOUSE_NO":"９６號","E_COORD97":166748.87,"N_COORD97":2541270.73,"ADDRESS":"利南街９６號","OBJECTID":606915},"geometry":{"x":166748.87000000011,"y":2541270.7300000023}},{"attributes":{"ID":606943,"DIS_CODE":0,"TOWNNAME":"南區","LI":"明興里","LIN":"3鄰","STREET":"金華路","SECT":"一段","MAREA":" ","LANE":" ","ALLEY":" ","HOUSE_NO":"２１８號","E_COORD97":166966.95999999999,"N_COORD97":2540820.6699999999,"ADDRESS":"金華路一段２１８號","OBJECTID":606916},"geometry":{"x":166966.95999999996,"y":2540820.6700000018}},{"attributes":{"ID":606944,"DIS_CODE":0,"TOWNNAME":"南區","LI":"建南里","LIN":"3鄰","STREET":"德興路","SECT":" ","MAREA":" ","LANE":" ","ALLEY":" ","HOUSE_NO":"２１７號","E_COORD97":167228.85999999999,"N_COORD97":2540152.6699999999,"ADDRESS":"德興路２１７號","OBJECTID":606917},"geometry":{"x":167228.86000000034,"y":2540152.6700000018}},{"attributes":{"ID":606945,"DIS_CODE":0,"TOWNNAME":"南區","LI":"建南里","LIN":"3鄰","STREET":"德興路","SECT":" ","MAREA":" ","LANE":" ","ALLEY":" ","HOUSE_NO":"２１９號","E_COORD97":167228.85999999999,"N_COORD97":2540147.8500000001,"ADDRESS":"德興路２１９號","OBJECTID":606918},"geometry":{"x":167228.86000000034,"y":2540147.8500000015}},{"attributes":{"ID":606946,"DIS_CODE":0,"TOWNNAME":"南區","LI":"建南里","LIN":"3鄰","STREET":"德興路","SECT":" ","MAREA":" ","LANE":" ","ALLEY":" ","HOUSE_NO":"２２１號","E_COORD97":167229.03,"N_COORD97":2540144.75,"ADDRESS":"德興路２２１號","OBJECTID":606919},"geometry":{"x":167229.03000000119,"y":2540144.7500000019}},{"attributes":{"ID":606947,"DIS_CODE":0,"TOWNNAME":"南區","LI":"建南里","LIN":"3鄰","STREET":"德興路","SECT":" ","MAREA":" ","LANE":" ","ALLEY":" ","HOUSE_NO":"２２３號","E_COORD97":167228.34,"N_COORD97":2540140.4500000002,"ADDRESS":"德興路２２３號","OBJECTID":606920},"geometry":{"x":167228.34000000078,"y":2540140.4499999993}},{"attributes":{"ID":606948,"DIS_CODE":0,"TOWNNAME":"南區","LI":"建南里","LIN":"3鄰","STREET":"德興路","SECT":" ","MAREA":" ","LANE":" ","ALLEY":" ","HOUSE_NO":"２２５號","E_COORD97":167229.20999999999,"N_COORD97":2540135.9700000002,"ADDRESS":"德興路２２５號","OBJECTID":606921},"geometry":{"x":167229.21000000089,"y":2540135.9700000007}},{"attributes":{"ID":606949,"DIS_CODE":0,"TOWNNAME":"南區","LI":"建南里","LIN":"3鄰","STREET":"德興路","SECT":" ","MAREA":" ","LANE":" ","ALLEY":" ","HOUSE_NO":"２２７號","E_COORD97":167228.85999999999,"N_COORD97":2540132.1899999999,"ADDRESS":"德興路２２７號","OBJECTID":606922},"geometry":{"x":167228.86000000034,"y":2540132.1899999995}},{"attributes":{"ID":606950,"DIS_CODE":0,"TOWNNAME":"南區","LI":"建南里","LIN":"3鄰","STREET":"德興路","SECT":" ","MAREA":" ","LANE":" ","ALLEY":" ","HOUSE_NO":"２２９號","E_COORD97":167229.03,"N_COORD97":2540128.23,"ADDRESS":"德興路２２９號","OBJECTID":606923},"geometry":{"x":167229.03000000119,"y":2540128.2300000023}},{"attributes":{"ID":606951,"DIS_CODE":0,"TOWNNAME":"南區","LI":"建南里","LIN":"3鄰","STREET":"德興路","SECT":" ","MAREA":" ","LANE":" ","ALLEY":" ","HOUSE_NO":"２３１號","E_COORD97":167228.34,"N_COORD97":2540124.1000000001,"ADDRESS":"德興路２３１號","OBJECTID":606924},"geometry":{"x":167228.34000000078,"y":2540124.0999999978}},{"attributes":{"ID":606952,"DIS_CODE":0,"TOWNNAME":"南區","LI":"建南里","LIN":"3鄰","STREET":"德興路","SECT":" ","MAREA":" ","LANE":" ","ALLEY":" ","HOUSE_NO":"２３３號","E_COORD97":167228.51999999999,"N_COORD97":2540120.6499999999,"ADDRESS":"德興路２３３號","OBJECTID":606925},"geometry":{"x":167228.52000000048,"y":2540120.6500000004}},{"attributes":{"ID":606953,"DIS_CODE":0,"TOWNNAME":"南區","LI":"建南里","LIN":"3鄰","STREET":"德興路","SECT":" ","MAREA":" ","LANE":" ","ALLEY":" ","HOUSE_NO":"２３５號","E_COORD97":167228.69,"N_COORD97":2540116.0099999998,"ADDRESS":"德興路２３５號","OBJECTID":606926},"geometry":{"x":167228.69000000041,"y":2540116.0100000016}},{"attributes":{"ID":606954,"DIS_CODE":0,"TOWNNAME":"玉井區","LI":"玉井里","LIN":"3鄰","STREET":"憲政街","SECT":" ","MAREA":" ","LANE":" ","ALLEY":" ","HOUSE_NO":"５０號","E_COORD97":194591.91,"N_COORD97":2558073.9399999999,"ADDRESS":"憲政街５０號","OBJECTID":606927},"geometry":{"x":194591.91000000108,"y":2558073.9400000032}},{"attributes":{"ID":606955,"DIS_CODE":0,"TOWNNAME":"南區","LI":"文南里","LIN":"3鄰","STREET":"金華路","SECT":"二段","MAREA":" ","LANE":" ","ALLEY":" ","HOUSE_NO":"２２７號","E_COORD97":167099.54999999999,"N_COORD97":2542619.52,"ADDRESS":"金華路二段２２７號","OBJECTID":606928},"geometry":{"x":167099.55000000075,"y":2542619.5199999996}},{"attributes":{"ID":606956,"DIS_CODE":0,"TOWNNAME":"南區","LI":"文南里","LIN":"3鄰","STREET":"金華路","SECT":"二段","MAREA":" ","LANE":" ","ALLEY":" ","HOUSE_NO":"２４７號","E_COORD97":167103.73000000001,"N_COORD97":2542663.3999999999,"ADDRESS":"金華路二段２４７號","OBJECTID":606929},"geometry":{"x":167103.73000000138,"y":2542663.4000000022}},{"attributes":{"ID":606957,"DIS_CODE":0,"TOWNNAME":"南區","LI":"文南里","LIN":"3鄰","STREET":"金華路","SECT":"二段","MAREA":" ","LANE":" ","ALLEY":" ","HOUSE_NO":"２４９號","E_COORD97":167104.10999999999,"N_COORD97":2542668.1499999999,"ADDRESS":"金華路二段２４９號","OBJECTID":606930},"geometry":{"x":167104.11000000034,"y":2542668.1500000022}},{"attributes":{"ID":606958,"DIS_CODE":0,"TOWNNAME":"永康區","LI":"\u25A0行里","LIN":"43鄰","STREET":"正南三路","SECT":" ","MAREA":" ","LANE":" ","ALLEY":" ","HOUSE_NO":"７６號","E_COORD97":171617.64999999999,"N_COORD97":2547565.96,"ADDRESS":"正南三路７６號","OBJECTID":606931},"geometry":{"x":171617.65000000037,"y":2547565.9600000028}},{"attributes":{"ID":606959,"DIS_CODE":0,"TOWNNAME":"永康區","LI":"北灣里","LIN":"13鄰","STREET":"文賢街","SECT":" ","MAREA":" ","LANE":" ","ALLEY":" ","HOUSE_NO":"２５０號","E_COORD97":175187.60000000001,"N_COORD97":2545832.1699999999,"ADDRESS":"文賢街２５０號","OBJECTID":606932},"geometry":{"x":175187.59999999963,"y":2545832.1699999999}},{"attributes":{"ID":606960,"DIS_CODE":0,"TOWNNAME":"永康區","LI":"東灣里","LIN":"30鄰","STREET":"大灣一街","SECT":" ","MAREA":" ","LANE":" ","ALLEY":" ","HOUSE_NO":"３７６號","E_COORD97":175154.06,"N_COORD97":2544829.27,"ADDRESS":"大灣一街３７６號","OBJECTID":606933},"geometry":{"x":175154.05999999959,"y":2544829.2700000014}},{"attributes":{"ID":606961,"DIS_CODE":0,"TOWNNAME":"永康區","LI":"東灣里","LIN":"30鄰","STREET":"大灣一街","SECT":" ","MAREA":" ","LANE":" ","ALLEY":" ","HOUSE_NO":"３７８號","E_COORD97":175157.63,"N_COORD97":2544831.9100000001,"ADDRESS":"大灣一街３７８號","OBJECTID":606934},"geometry":{"x":175157.63000000175,"y":2544831.9100000039}},{"attributes":{"ID":606962,"DIS_CODE":0,"TOWNNAME":"南區","LI":"同安里","LIN":"3鄰","STREET":"灣裡路","SECT":" ","MAREA":" ","LANE":" ","ALLEY":" ","HOUSE_NO":"３７７號","E_COORD97":166219.73000000001,"N_COORD97":2536121.25,"ADDRESS":"灣裡路３７７號","OBJECTID":606935},"geometry":{"x":166219.73000000045,"y":2536121.2500000019}},{"attributes":{"ID":606963,"DIS_CODE":0,"TOWNNAME":"歸仁區","LI":"歸仁里","LIN":"3鄰","STREET":"中正北路","SECT":"一段","MAREA":" ","LANE":" ","ALLEY":" ","HOUSE_NO":"１０６號","E_COORD97":177723.32999999999,"N_COORD97":2541103.04,"ADDRESS":"中正北路一段１０６號","OBJECTID":606936},"geometry":{"x":177723.33000000101,"y":2541103.0399999991}},{"attributes":{"ID":606964,"DIS_CODE":0,"TOWNNAME":"歸仁區","LI":"辜厝里","LIN":"3鄰","STREET":"中正二街","SECT":" ","MAREA":" ","LANE":" ","ALLEY":" ","HOUSE_NO":"３５號","E_COORD97":177533.06,"N_COORD97":2540718.1099999999,"ADDRESS":"中正二街３５號","OBJECTID":606937},"geometry":{"x":177533.06000000052,"y":2540718.1100000013}},{"attributes":{"ID":606965,"DIS_CODE":0,"TOWNNAME":"歸仁區","LI":"崙頂里","LIN":"3鄰","STREET":"成功八街","SECT":" ","MAREA":" ","LANE":" ","ALLEY":" ","HOUSE_NO":"６８號","E_COORD97":178129.57000000001,"N_COORD97":2539957.6800000002,"ADDRESS":"成功八街６８號","OBJECTID":606938},"geometry":{"x":178129.5700000003,"y":2539957.6800000034}},{"attributes":{"ID":606966,"DIS_CODE":0,"TOWNNAME":"歸仁區","LI":"歸仁里","LIN":"3鄰","STREET":"中正北路","SECT":"一段","MAREA":" ","LANE":" ","ALLEY":" ","HOUSE_NO":"７４號","E_COORD97":177698.07999999999,"N_COORD97":2541014.04,"ADDRESS":"中正北路一段７４號","OBJECTID":606939},"geometry":{"x":177698.08000000101,"y":2541014.040000001}},{"attributes":{"ID":606967,"DIS_CODE":0,"TOWNNAME":"歸仁區","LI":"歸南里","LIN":"3鄰","STREET":"民權南路","SECT":" ","MAREA":" ","LANE":" ","ALLEY":" ","HOUSE_NO":"２４０號","E_COORD97":176943.60999999999,"N_COORD97":2540249.5,"ADDRESS":"民權南路２４０號","OBJECTID":606940},"geometry":{"x":176943.61000000127,"y":2540249.5}},{"attributes":{"ID":606968,"DIS_CODE":0,"TOWNNAME":"歸仁區","LI":"許厝里","LIN":"3鄰","STREET":"仁愛南街","SECT":" ","MAREA":" ","LANE":" ","ALLEY":" ","HOUSE_NO":"２９號","E_COORD97":178287.81,"N_COORD97":2540592.8999999999,"ADDRESS":"仁愛南街２９號","OBJECTID":606941},"geometry":{"x":178287.81000000052,"y":2540592.9000000004}},{"attributes":{"ID":606969,"DIS_CODE":0,"TOWNNAME":"歸仁區","LI":"許厝里","LIN":"3鄰","STREET":"仁愛南街","SECT":" ","MAREA":" ","LANE":" ","ALLEY":" ","HOUSE_NO":"１９號","E_COORD97":178285.81,"N_COORD97":2540613.8999999999,"ADDRESS":"仁愛南街１９號","OBJECTID":606942},"geometry":{"x":178285.81000000052,"y":2540613.9000000004}},{"attributes":{"ID":606970,"DIS_CODE":0,"TOWNNAME":"歸仁區","LI":"南保里","LIN":"3鄰","STREET":"民權二街","SECT":" ","MAREA":" ","LANE":" ","ALLEY":" ","HOUSE_NO":"７９號","E_COORD97":176927.51000000001,"N_COORD97":2541438.25,"ADDRESS":"民權二街７９號","OBJECTID":606943},"geometry":{"x":176927.50999999978,"y":2541438.25}},{"attributes":{"ID":606971,"DIS_CODE":0,"TOWNNAME":"歸仁區","LI":"南興里","LIN":"3鄰","STREET":"文化十二街","SECT":" ","MAREA":" ","LANE":" ","ALLEY":" ","HOUSE_NO":"４９號","E_COORD97":176449.17000000001,"N_COORD97":2541289.2599999998,"ADDRESS":"文化十二街４９號","OBJECTID":606944},"geometry":{"x":176449.17000000086,"y":2541289.2599999998}},{"attributes":{"ID":606972,"DIS_CODE":0,"TOWNNAME":"歸仁區","LI":"南興里","LIN":"3鄰","STREET":"民生北街","SECT":" ","MAREA":" ","LANE":" ","ALLEY":" ","HOUSE_NO":"１３０號","E_COORD97":176303.34,"N_COORD97":2541318.29,"ADDRESS":"民生北街１３０號","OBJECTID":606945},"geometry":{"x":176303.33999999985,"y":2541318.2899999991}},{"attributes":{"ID":606973,"DIS_CODE":0,"TOWNNAME":"歸仁區","LI":"南興里","LIN":"3鄰","STREET":"文化十二街","SECT":" ","MAREA":" ","LANE":" ","ALLEY":" ","HOUSE_NO":"６９號","E_COORD97":176459.39000000001,"N_COORD97":2541332.3300000001,"ADDRESS":"文化十二街６９號","OBJECTID":606946},"geometry":{"x":176459.3900000006,"y":2541332.3300000001}},{"attributes":{"ID":606974,"DIS_CODE":0,"TOWNNAME":"歸仁區","LI":"大潭里","LIN":"3鄰","STREET":"長榮路","SECT":"一段","MAREA":" ","LANE":" ","ALLEY":" ","HOUSE_NO":"４０１號","E_COORD97":175547.17000000001,"N_COORD97":2534508.2799999998,"ADDRESS":"長榮路一段４０１號","OBJECTID":606947},"geometry":{"x":175547.17000000179,"y":2534508.2800000031}},{"attributes":{"ID":606975,"DIS_CODE":0,"TOWNNAME":"歸仁區","LI":"大潭里","LIN":"3鄰","STREET":"長榮路","SECT":"一段","MAREA":" ","LANE":" ","ALLEY":" ","HOUSE_NO":"３２１之２號","E_COORD97":175365.07000000001,"N_COORD97":2534535.2999999998,"ADDRESS":"長榮路一段３２１之２號","OBJECTID":606948},"geometry":{"x":175365.06999999937,"y":2534535.3000000007}},{"attributes":{"ID":606976,"DIS_CODE":0,"TOWNNAME":"歸仁區","LI":"大潭里","LIN":"3鄰","STREET":"長榮路","SECT":"一段","MAREA":" ","LANE":" ","ALLEY":" ","HOUSE_NO":"３２１之３號","E_COORD97":175359.87,"N_COORD97":2534505.2999999998,"ADDRESS":"長榮路一段３２１之３號","OBJECTID":606949},"geometry":{"x":175359.87000000104,"y":2534505.3000000007}},{"attributes":{"ID":606977,"DIS_CODE":0,"TOWNNAME":"歸仁區","LI":"大潭里","LIN":"3鄰","STREET":"長榮路","SECT":"一段","MAREA":" ","LANE":" ","ALLEY":" ","HOUSE_NO":"８５１號","E_COORD97":176583.57000000001,"N_COORD97":2534570.2799999998,"ADDRESS":"長榮路一段８５１號","OBJECTID":606950},"geometry":{"x":176583.5700000003,"y":2534570.2800000012}},{"attributes":{"ID":606978,"DIS_CODE":0,"TOWNNAME":"歸仁區","LI":"大潭里","LIN":"3鄰","STREET":"長榮路","SECT":"一段","MAREA":" ","LANE":" ","ALLEY":" ","HOUSE_NO":"７６５號","E_COORD97":176364.97,"N_COORD97":2534553.2799999998,"ADDRESS":"長榮路一段７６５號","OBJECTID":606951},"geometry":{"x":176364.96999999974,"y":2534553.2800000012}},{"attributes":{"ID":606979,"DIS_CODE":0,"TOWNNAME":"歸仁區","LI":"南興里","LIN":"3鄰","STREET":"文化十二街","SECT":" ","MAREA":" ","LANE":" ","ALLEY":" ","HOUSE_NO":"６５號","E_COORD97":176458.29000000001,"N_COORD97":2541323.3300000001,"ADDRESS":"文化十二街６５號","OBJECTID":606952},"geometry":{"x":176458.29000000004,"y":2541323.3300000038}},{"attributes":{"ID":606980,"DIS_CODE":0,"TOWNNAME":"歸仁區","LI":"大潭里","LIN":"3鄰","STREET":"長榮路","SECT":"一段","MAREA":" ","LANE":" ","ALLEY":" ","HOUSE_NO":"３４５號","E_COORD97":175431.26999999999,"N_COORD97":2534514.2799999998,"ADDRESS":"長榮路一段３４５號","OBJECTID":606953},"geometry":{"x":175431.27000000048,"y":2534514.2799999993}},{"attributes":{"ID":606981,"DIS_CODE":0,"TOWNNAME":"歸仁區","LI":"文化里","LIN":"3鄰","STREET":"文化街","SECT":"二段","MAREA":" ","LANE":" ","ALLEY":" ","HOUSE_NO":"７８號","E_COORD97":177334.10999999999,"N_COORD97":2541154.3399999999,"ADDRESS":"文化街二段７８號","OBJECTID":606954},"geometry":{"x":177334.11000000034,"y":2541154.3400000017}},{"attributes":{"ID":606982,"DIS_CODE":0,"TOWNNAME":"歸仁區","LI":"大潭里","LIN":"3鄰","STREET":"長榮路","SECT":"一段","MAREA":" ","LANE":" ","ALLEY":" ","HOUSE_NO":"５１１號","E_COORD97":175819.17000000001,"N_COORD97":2534549.2799999998,"ADDRESS":"長榮路一段５１１號","OBJECTID":606955},"geometry":{"x":175819.17000000086,"y":2534549.2800000012}},{"attributes":{"ID":606983,"DIS_CODE":0,"TOWNNAME":"歸仁區","LI":"大潭里","LIN":"3鄰","STREET":"長榮路","SECT":"一段","MAREA":" ","LANE":" ","ALLEY":" ","HOUSE_NO":"５５７號","E_COORD97":175892.87,"N_COORD97":2534508.2799999998,"ADDRESS":"長榮路一段５５７號","OBJECTID":606956},"geometry":{"x":175892.87000000011,"y":2534508.2800000031}},{"attributes":{"ID":606984,"DIS_CODE":0,"TOWNNAME":"歸仁區","LI":"大潭里","LIN":"3鄰","STREET":"長榮路","SECT":"一段","MAREA":" ","LANE":" ","ALLEY":" ","HOUSE_NO":"５７７號","E_COORD97":175933.87,"N_COORD97":2534507.2799999998,"ADDRESS":"長榮路一段５７７號","OBJECTID":606957},"geometry":{"x":175933.87000000011,"y":2534507.2799999993}},{"attributes":{"ID":606985,"DIS_CODE":0,"TOWNNAME":"歸仁區","LI":"大潭里","LIN":"3鄰","STREET":"長榮路","SECT":"一段","MAREA":" ","LANE":" ","ALLEY":" ","HOUSE_NO":"３４３號","E_COORD97":175424.07000000001,"N_COORD97":2534516.2799999998,"ADDRESS":"長榮路一段３４３號","OBJECTID":606958},"geometry":{"x":175424.0700000003,"y":2534516.2800000012}},{"attributes":{"ID":606986,"DIS_CODE":0,"TOWNNAME":"歸仁區","LI":"六甲里","LIN":"3鄰","STREET":"中正南路","SECT":"一段","MAREA":" ","LANE":" ","ALLEY":" ","HOUSE_NO":"６４９號","E_COORD97":176627.11288199999,"N_COORD97":2539836.4739100002,"ADDRESS":"中正南路一段６４９號","OBJECTID":606959},"geometry":{"x":176627.11288200133,"y":2539836.4739120007}},{"attributes":{"ID":606987,"DIS_CODE":0,"TOWNNAME":"歸仁區","LI":"大潭里","LIN":"3鄰","STREET":"長榮路","SECT":"一段","MAREA":" ","LANE":" ","ALLEY":" ","HOUSE_NO":"４６５號","E_COORD97":175670.26999999999,"N_COORD97":2534517.2799999998,"ADDRESS":"長榮路一段４６５號","OBJECTID":606960},"geometry":{"x":175670.27000000048,"y":2534517.2799999993}},{"attributes":{"ID":606988,"DIS_CODE":0,"TOWNNAME":"歸仁區","LI":"六甲里","LIN":"3鄰","STREET":"中正南路","SECT":"一段","MAREA":" ","LANE":" ","ALLEY":" ","HOUSE_NO":"６３５號","E_COORD97":176651.79543699999,"N_COORD97":2539854.3068200001,"ADDRESS":"中正南路一段６３５號","OBJECTID":606961},"geometry":{"x":176651.79543699976,"y":2539854.3068189994}},{"attributes":{"ID":606989,"DIS_CODE":0,"TOWNNAME":"歸仁區","LI":"文化里","LIN":"3鄰","STREET":"文化街","SECT":"二段","MAREA":" ","LANE":" ","ALLEY":" ","HOUSE_NO":"１０４號","E_COORD97":177279.16,"N_COORD97":2541176.3399999999,"ADDRESS":"文化街二段１０４號","OBJECTID":606962},"geometry":{"x":177279.16000000015,"y":2541176.3399999999}},{"attributes":{"ID":606990,"DIS_CODE":0,"TOWNNAME":"歸仁區","LI":"大潭里","LIN":"3鄰","STREET":"長榮路","SECT":"一段","MAREA":" ","LANE":" ","ALLEY":" ","HOUSE_NO":"３３９號","E_COORD97":175411.76999999999,"N_COORD97":2534517.2799999998,"ADDRESS":"長榮路一段３３９號","OBJECTID":606963},"geometry":{"x":175411.76999999955,"y":2534517.2799999993}},{"attributes":{"ID":606991,"DIS_CODE":0,"TOWNNAME":"歸仁區","LI":"大潭里","LIN":"3鄰","STREET":"長榮路","SECT":"一段","MAREA":" ","LANE":" ","ALLEY":" ","HOUSE_NO":"４６３號","E_COORD97":175652.87,"N_COORD97":2534516.2799999998,"ADDRESS":"長榮路一段４６３號","OBJECTID":606964},"geometry":{"x":175652.87000000197,"y":2534516.2800000012}},{"attributes":{"ID":606992,"DIS_CODE":0,"TOWNNAME":"歸仁區","LI":"看東里","LIN":"3鄰","STREET":"忠孝南路","SECT":" ","MAREA":" ","LANE":" ","ALLEY":" ","HOUSE_NO":"１９０號","E_COORD97":178526.07000000001,"N_COORD97":2540233.8300000001,"ADDRESS":"忠孝南路１９０號","OBJECTID":606965},"geometry":{"x":178526.0700000003,"y":2540233.8300000001}},{"attributes":{"ID":606993,"DIS_CODE":0,"TOWNNAME":"玉井區","LI":"玉田里","LIN":"3鄰","STREET":"民主街","SECT":" ","MAREA":" ","LANE":" ","ALLEY":" ","HOUSE_NO":"１４２號","E_COORD97":195096.17999999999,"N_COORD97":2558216.29,"ADDRESS":"民主街１４２號","OBJECTID":606966},"geometry":{"x":195096.18000000063,"y":2558216.2899999991}},{"attributes":{"ID":606994,"DIS_CODE":0,"TOWNNAME":"玉井區","LI":"玉田里","LIN":"3鄰","STREET":"民主街","SECT":" ","MAREA":" ","LANE":" ","ALLEY":" ","HOUSE_NO":"１３２號","E_COORD97":195099.38,"N_COORD97":2558192.2799999998,"ADDRESS":"民主街１３２號","OBJECTID":606967},"geometry":{"x":195099.37999999989,"y":2558192.2799999993}},{"attributes":{"ID":606995,"DIS_CODE":0,"TOWNNAME":"玉井區","LI":"玉田里","LIN":"3鄰","STREET":"民主街","SECT":" ","MAREA":" ","LANE":" ","ALLEY":" ","HOUSE_NO":"１３６號","E_COORD97":195097.38,"N_COORD97":2558200.2799999998,"ADDRESS":"民主街１３６號","OBJECTID":606968},"geometry":{"x":195097.37999999989,"y":2558200.2800000031}},{"attributes":{"ID":606996,"DIS_CODE":0,"TOWNNAME":"玉井區","LI":"玉田里","LIN":"3鄰","STREET":"民主街","SECT":" ","MAREA":" ","LANE":" ","ALLEY":" ","HOUSE_NO":"１４０號","E_COORD97":195096.29000000001,"N_COORD97":2558210.2799999998,"ADDRESS":"民主街１４０號","OBJECTID":606969},"geometry":{"x":195096.29000000004,"y":2558210.2800000031}},{"attributes":{"ID":606997,"DIS_CODE":0,"TOWNNAME":"玉井區","LI":"玉田里","LIN":"3鄰","STREET":"中正路","SECT":" ","MAREA":" ","LANE":" ","ALLEY":" ","HOUSE_NO":"２４０號","E_COORD97":195108.45999999999,"N_COORD97":2558247.25,"ADDRESS":"中正路２４０號","OBJECTID":606970},"geometry":{"x":195108.46000000089,"y":2558247.25}},{"attributes":{"ID":606998,"DIS_CODE":0,"TOWNNAME":"玉井區","LI":"中正里","LIN":"3鄰","STREET":"大成路","SECT":" ","MAREA":" ","LANE":" ","ALLEY":" ","HOUSE_NO":"４８７號","E_COORD97":195419.76000000001,"N_COORD97":2558684.2599999998,"ADDRESS":"大成路４８７號","OBJECTID":606971},"geometry":{"x":195419.76000000071,"y":2558684.2599999998}},{"attributes":{"ID":606999,"DIS_CODE":0,"TOWNNAME":"玉井區","LI":"玉井里","LIN":"3鄰","STREET":"憲政街","SECT":" ","MAREA":" ","LANE":" ","ALLEY":" ","HOUSE_NO":"５４號","E_COORD97":194577.70999999999,"N_COORD97":2558067.9300000002,"ADDRESS":"憲政街５４號","OBJECTID":606972},"geometry":{"x":194577.71000000089,"y":2558067.9300000016}},{"attributes":{"ID":607000,"DIS_CODE":0,"TOWNNAME":"玉井區","LI":"玉井里","LIN":"3鄰","STREET":"憲政街","SECT":" ","MAREA":" ","LANE":" ","ALLEY":" ","HOUSE_NO":"５６號","E_COORD97":194570.51000000001,"N_COORD97":2558064.9399999999,"ADDRESS":"憲政街５６號","OBJECTID":606973},"geometry":{"x":194570.51000000071,"y":2558064.9400000013}},{"attributes":{"ID":607001,"DIS_CODE":0,"TOWNNAME":"玉井區","LI":"玉井里","LIN":"3鄰","STREET":"憲政街","SECT":" ","MAREA":" ","LANE":" ","ALLEY":" ","HOUSE_NO":"５８號","E_COORD97":194562.01000000001,"N_COORD97":2558060.9399999999,"ADDRESS":"憲政街５８號","OBJECTID":606974},"geometry":{"x":194562.01000000071,"y":2558060.9400000013}},{"attributes":{"ID":607002,"DIS_CODE":0,"TOWNNAME":"玉井區","LI":"中正里","LIN":"3鄰","STREET":"大成路","SECT":" ","MAREA":" ","LANE":" ","ALLEY":" ","HOUSE_NO":"５０１號","E_COORD97":195401.87,"N_COORD97":2558691.2599999998,"ADDRESS":"大成路５０１號","OBJECTID":606975},"geometry":{"x":195401.87000000197,"y":2558691.2599999998}},{"attributes":{"ID":607003,"DIS_CODE":0,"TOWNNAME":"玉井區","LI":"玉田里","LIN":"3鄰","STREET":"中正路","SECT":" ","MAREA":" ","LANE":" ","ALLEY":" ","HOUSE_NO":"２３２號","E_COORD97":195094.06,"N_COORD97":2558240.25,"ADDRESS":"中正路２３２號","OBJECTID":606976},"geometry":{"x":195094.05999999959,"y":2558240.25}},{"attributes":{"ID":607004,"DIS_CODE":0,"TOWNNAME":"玉井區","LI":"中正里","LIN":"3鄰","STREET":"後旦街","SECT":" ","MAREA":" ","LANE":" ","ALLEY":" ","HOUSE_NO":"１２８號","E_COORD97":195369.26000000001,"N_COORD97":2558718.3100000001,"ADDRESS":"後旦街１２８號","OBJECTID":606977},"geometry":{"x":195369.25999999978,"y":2558718.3100000005}},{"attributes":{"ID":607005,"DIS_CODE":0,"TOWNNAME":"玉井區","LI":"中正里","LIN":"3鄰","STREET":"大成路","SECT":" ","MAREA":" ","LANE":" ","ALLEY":" ","HOUSE_NO":"５０３號","E_COORD97":195400.26000000001,"N_COORD97":2558701.2599999998,"ADDRESS":"大成路５０３號","OBJECTID":606978},"geometry":{"x":195400.25999999978,"y":2558701.2599999998}},{"attributes":{"ID":607006,"DIS_CODE":0,"TOWNNAME":"玉井區","LI":"竹圍里","LIN":"3鄰","STREET":"中正路","SECT":" ","MAREA":" ","LANE":" ","ALLEY":" ","HOUSE_NO":"３４０號","E_COORD97":195337.32000000001,"N_COORD97":2558449.8700000001,"ADDRESS":"中正路３４０號","OBJECTID":606979},"geometry":{"x":195337.3200000003,"y":2558449.8700000029}},{"attributes":{"ID":607007,"DIS_CODE":0,"TOWNNAME":"玉井區","LI":"竹圍里","LIN":"3鄰","STREET":"仁愛街","SECT":" ","MAREA":" ","LANE":" ","ALLEY":" ","HOUSE_NO":"２９３號","E_COORD97":195377.70000000001,"N_COORD97":2558435.0600000001,"ADDRESS":"仁愛街２９３號","OBJECTID":606980},"geometry":{"x":195377.70000000112,"y":2558435.0600000024}},{"attributes":{"ID":607008,"DIS_CODE":0,"TOWNNAME":"歸仁區","LI":"新厝里","LIN":"3鄰","STREET":"和平南街","SECT":" ","MAREA":" ","LANE":" ","ALLEY":" ","HOUSE_NO":"２０號","E_COORD97":177814.29999999999,"N_COORD97":2540694.6800000002,"ADDRESS":"和平南街２０號","OBJECTID":606981},"geometry":{"x":177814.30000000168,"y":2540694.6800000016}},{"attributes":{"ID":607009,"DIS_CODE":0,"TOWNNAME":"歸仁區","LI":"文化里","LIN":"3鄰","STREET":"文化街","SECT":"二段","MAREA":" ","LANE":" ","ALLEY":" ","HOUSE_NO":"１０６號","E_COORD97":177274.06,"N_COORD97":2541178.3399999999,"ADDRESS":"文化街二段１０６號","OBJECTID":606982},"geometry":{"x":177274.06000000052,"y":2541178.3400000017}},{"attributes":{"ID":607010,"DIS_CODE":0,"TOWNNAME":"歸仁區","LI":"辜厝里","LIN":"3鄰","STREET":"民族南街","SECT":" ","MAREA":" ","LANE":" ","ALLEY":" ","HOUSE_NO":"４１號","E_COORD97":177420.59,"N_COORD97":2540705.5499999998,"ADDRESS":"民族南街４１號","OBJECTID":606983},"geometry":{"x":177420.58999999985,"y":2540705.5500000045}},{"attributes":{"ID":607011,"DIS_CODE":0,"TOWNNAME":"歸仁區","LI":"歸仁里","LIN":"3鄰","STREET":"中正北路","SECT":"一段","MAREA":" ","LANE":" ","ALLEY":" ","HOUSE_NO":"３６號","E_COORD97":177681.28,"N_COORD97":2540941.04,"ADDRESS":"中正北路一段３６號","OBJECTID":606984},"geometry":{"x":177681.28000000119,"y":2540941.0399999972}},{"attributes":{"ID":607012,"DIS_CODE":0,"TOWNNAME":"歸仁區","LI":"歸仁里","LIN":"3鄰","STREET":"大通路","SECT":" ","MAREA":" ","LANE":" ","ALLEY":" ","HOUSE_NO":"８２號","E_COORD97":177707.17999999999,"N_COORD97":2540902.3399999999,"ADDRESS":"大通路８２號","OBJECTID":606985},"geometry":{"x":177707.18000000063,"y":2540902.3399999999}},{"attributes":{"ID":607013,"DIS_CODE":0,"TOWNNAME":"麻豆區","LI":"東角里","LIN":"3鄰","STREET":"民生路","SECT":" ","MAREA":" ","LANE":" ","ALLEY":" ","HOUSE_NO":"１５號之１","E_COORD97":173565.44,"N_COORD97":2564905.6699999999,"ADDRESS":"民生路１５號之１","OBJECTID":606986},"geometry":{"x":173565.44000000041,"y":2564905.6700000018}},{"attributes":{"ID":607014,"DIS_CODE":0,"TOWNNAME":"麻豆區","LI":"東角里","LIN":"3鄰","STREET":"民生路","SECT":" ","MAREA":" ","LANE":" ","ALLEY":" ","HOUSE_NO":"１５號之２","E_COORD97":173565.48999999999,"N_COORD97":2564901.4399999999,"ADDRESS":"民生路１５號之２","OBJECTID":606987},"geometry":{"x":173565.49000000115,"y":2564901.4399999995}},{"attributes":{"ID":607015,"DIS_CODE":0,"TOWNNAME":"麻豆區","LI":"東角里","LIN":"3鄰","STREET":"民生路","SECT":" ","MAREA":" ","LANE":" ","ALLEY":" ","HOUSE_NO":"１５號之５","E_COORD97":173568.31,"N_COORD97":2564887.75,"ADDRESS":"民生路１５號之５","OBJECTID":606988},"geometry":{"x":173568.31000000052,"y":2564887.7500000019}},{"attributes":{"ID":607016,"DIS_CODE":0,"TOWNNAME":"麻豆區","LI":"東角里","LIN":"3鄰","STREET":"民生路","SECT":" ","MAREA":" ","LANE":" ","ALLEY":" ","HOUSE_NO":"１５號之６","E_COORD97":173568.89999999999,"N_COORD97":2564882.25,"ADDRESS":"民生路１５號之６","OBJECTID":606989},"geometry":{"x":173568.90000000037,"y":2564882.25}},{"attributes":{"ID":607017,"DIS_CODE":0,"TOWNNAME":"麻豆區","LI":"東角里","LIN":"3鄰","STREET":"民生路","SECT":" ","MAREA":" ","LANE":" ","ALLEY":" ","HOUSE_NO":"１號之１０","E_COORD97":173590.70999999999,"N_COORD97":2564958.9100000001,"ADDRESS":"民生路１號之１０","OBJECTID":606990},"geometry":{"x":173590.71000000183,"y":2564958.9100000001}},{"attributes":{"ID":607018,"DIS_CODE":0,"TOWNNAME":"麻豆區","LI":"東角里","LIN":"3鄰","STREET":"民生路","SECT":" ","MAREA":" ","LANE":" ","ALLEY":" ","HOUSE_NO":"１號之１１","E_COORD97":173598.75,"N_COORD97":2564962.3700000001,"ADDRESS":"民生路１號之１１","OBJECTID":606991},"geometry":{"x":173598.75,"y":2564962.3700000029}},{"attributes":{"ID":607019,"DIS_CODE":0,"TOWNNAME":"麻豆區","LI":"東角里","LIN":"3鄰","STREET":"民生路","SECT":" ","MAREA":" ","LANE":" ","ALLEY":" ","HOUSE_NO":"１號之１２","E_COORD97":173602.04000000001,"N_COORD97":2564955.0600000001,"ADDRESS":"民生路１號之１２","OBJECTID":606992},"geometry":{"x":173602.0400000019,"y":2564955.0600000005}},{"attributes":{"ID":607020,"DIS_CODE":0,"TOWNNAME":"麻豆區","LI":"東角里","LIN":"3鄰","STREET":"民生路","SECT":" ","MAREA":" ","LANE":" ","ALLEY":" ","HOUSE_NO":"１號之１３","E_COORD97":173579.63,"N_COORD97":2564942.8100000001,"ADDRESS":"民生路１號之１３","OBJECTID":606993},"geometry":{"x":173579.63000000082,"y":2564942.8100000024}},{"attributes":{"ID":607021,"DIS_CODE":0,"TOWNNAME":"麻豆區","LI":"東角里","LIN":"3鄰","STREET":"民生路","SECT":" ","MAREA":" ","LANE":" ","ALLEY":" ","HOUSE_NO":"１號之１４","E_COORD97":173562.19,"N_COORD97":2564939.1000000001,"ADDRESS":"民生路１號之１４","OBJECTID":606994},"geometry":{"x":173562.19000000041,"y":2564939.1000000015}},{"attributes":{"ID":607022,"DIS_CODE":0,"TOWNNAME":"麻豆區","LI":"東角里","LIN":"3鄰","STREET":"民生路","SECT":" ","MAREA":" ","LANE":" ","ALLEY":" ","HOUSE_NO":"１號之１５","E_COORD97":173562.45999999999,"N_COORD97":2564934.8199999998,"ADDRESS":"民生路１號之１５","OBJECTID":606995},"geometry":{"x":173562.46000000089,"y":2564934.8200000022}},{"attributes":{"ID":607023,"DIS_CODE":0,"TOWNNAME":"麻豆區","LI":"東角里","LIN":"3鄰","STREET":"民生路","SECT":" ","MAREA":" ","LANE":" ","ALLEY":" ","HOUSE_NO":"１號之１","E_COORD97":173559.89999999999,"N_COORD97":2564976.79,"ADDRESS":"民生路１號之１","OBJECTID":606996},"geometry":{"x":173559.9000000013,"y":2564976.7899999991}},{"attributes":{"ID":607024,"DIS_CODE":0,"TOWNNAME":"麻豆區","LI":"東角里","LIN":"3鄰","STREET":"民生路","SECT":" ","MAREA":" ","LANE":" ","ALLEY":" ","HOUSE_NO":"１號之２","E_COORD97":173560.17999999999,"N_COORD97":2564970.1499999999,"ADDRESS":"民生路１號之２","OBJECTID":606997},"geometry":{"x":173560.18000000156,"y":2564970.1500000022}},{"attributes":{"ID":607025,"DIS_CODE":0,"TOWNNAME":"麻豆區","LI":"東角里","LIN":"3鄰","STREET":"民生路","SECT":" ","MAREA":" ","LANE":" ","ALLEY":" ","HOUSE_NO":"１號之３","E_COORD97":173560.39000000001,"N_COORD97":2564965.8500000001,"ADDRESS":"民生路１號之３","OBJECTID":606998},"geometry":{"x":173560.39000000153,"y":2564965.8499999996}},{"attributes":{"ID":607026,"DIS_CODE":0,"TOWNNAME":"麻豆區","LI":"東角里","LIN":"3鄰","STREET":"民生路","SECT":" ","MAREA":" ","LANE":" ","ALLEY":" ","HOUSE_NO":"１號之４","E_COORD97":173560.76000000001,"N_COORD97":2564961.3900000001,"ADDRESS":"民生路１號之４","OBJECTID":606999},"geometry":{"x":173560.75999999978,"y":2564961.3900000043}},{"attributes":{"ID":607027,"DIS_CODE":0,"TOWNNAME":"麻豆區","LI":"東角里","LIN":"3鄰","STREET":"民生路","SECT":" ","MAREA":" ","LANE":" ","ALLEY":" ","HOUSE_NO":"１號之５","E_COORD97":173561.13,"N_COORD97":2564952.7799999998,"ADDRESS":"民生路１號之５","OBJECTID":607000},"geometry":{"x":173561.13000000082,"y":2564952.7799999993}}]}