{"displayFieldName":"TOWNNAME","fieldAliases":{"ID":"ID","DIS_CODE":"DIS_CODE","TOWNNAME":"TOWNNAME","LI":"LI","LIN":"LIN","STREET":"STREET","SECT":"SECT","MAREA":"MAREA","LANE":"LANE","ALLEY":"ALLEY","HOUSE_NO":"HOUSE_NO","E_COORD97":"E_COORD97","N_COORD97":"N_COORD97","ADDRESS":"ADDRESS","OBJECTID":"OBJECTID"},"geometryType":"esriGeometryPoint","spatialReference":{"wkid":102443,"latestWkid":3826},"fields":[{"name":"ID","type":"esriFieldTypeDouble","alias":"ID"},{"name":"DIS_CODE","type":"esriFieldTypeInteger","alias":"DIS_CODE"},{"name":"TOWNNAME","type":"esriFieldTypeString","alias":"TOWNNAME","length":8},{"name":"LI","type":"esriFieldTypeString","alias":"LI","length":8},{"name":"LIN","type":"esriFieldTypeString","alias":"LIN","length":12},{"name":"STREET","type":"esriFieldTypeString","alias":"STREET","length":20},{"name":"SECT","type":"esriFieldTypeString","alias":"SECT","length":8},{"name":"MAREA","type":"esriFieldTypeString","alias":"MAREA","length":12},{"name":"LANE","type":"esriFieldTypeString","alias":"LANE","length":10},{"name":"ALLEY","type":"esriFieldTypeString","alias":"ALLEY","length":10},{"name":"HOUSE_NO","type":"esriFieldTypeString","alias":"HOUSE_NO","length":20},{"name":"E_COORD97","type":"esriFieldTypeDouble","alias":"E_COORD97"},{"name":"N_COORD97","type":"esriFieldTypeDouble","alias":"N_COORD97"},{"name":"ADDRESS","type":"esriFieldTypeString","alias":"ADDRESS","length":50},{"name":"OBJECTID","type":"esriFieldTypeOID","alias":"OBJECTID"}],"features":[{"attributes":{"ID":47801,"DIS_CODE":0,"TOWNNAME":"西港區","LI":"劉厝里","LIN":"15鄰","STREET":" ","SECT":" ","MAREA":"蚶西港","LANE":" ","ALLEY":" ","HOUSE_NO":"４號之３","E_COORD97":166081.66,"N_COORD97":2559037.3599999999,"ADDRESS":"蚶西港４號之３","OBJECTID":47801},"geometry":{"x":166081.66000000108,"y":2559037.3600000031}},{"attributes":{"ID":47802,"DIS_CODE":0,"TOWNNAME":"西港區","LI":"劉厝里","LIN":"15鄰","STREET":" ","SECT":" ","MAREA":"蚶西港","LANE":" ","ALLEY":" ","HOUSE_NO":"４號之４","E_COORD97":166082.12,"N_COORD97":2559041.46,"ADDRESS":"蚶西港４號之４","OBJECTID":47802},"geometry":{"x":166082.12000000104,"y":2559041.4600000046}},{"attributes":{"ID":47803,"DIS_CODE":0,"TOWNNAME":"西港區","LI":"劉厝里","LIN":"15鄰","STREET":" ","SECT":" ","MAREA":"蚶西港","LANE":" ","ALLEY":" ","HOUSE_NO":"４號之５","E_COORD97":166082.38,"N_COORD97":2559045.8100000001,"ADDRESS":"蚶西港４號之５","OBJECTID":47803},"geometry":{"x":166082.37999999989,"y":2559045.8100000024}},{"attributes":{"ID":47804,"DIS_CODE":0,"TOWNNAME":"西港區","LI":"劉厝里","LIN":"15鄰","STREET":" ","SECT":" ","MAREA":"蚶西港","LANE":" ","ALLEY":" ","HOUSE_NO":"４號之６","E_COORD97":166082.56,"N_COORD97":2559049.75,"ADDRESS":"蚶西港４號之６","OBJECTID":47804},"geometry":{"x":166082.55999999959,"y":2559049.7500000019}},{"attributes":{"ID":47805,"DIS_CODE":0,"TOWNNAME":"西港區","LI":"劉厝里","LIN":"15鄰","STREET":" ","SECT":" ","MAREA":"蚶西港","LANE":" ","ALLEY":" ","HOUSE_NO":"４號","E_COORD97":166095.09,"N_COORD97":2559011.96,"ADDRESS":"蚶西港４號","OBJECTID":47805},"geometry":{"x":166095.08999999985,"y":2559011.9600000028}},{"attributes":{"ID":47806,"DIS_CODE":0,"TOWNNAME":"西港區","LI":"劉厝里","LIN":"15鄰","STREET":" ","SECT":" ","MAREA":"蚶西港","LANE":" ","ALLEY":" ","HOUSE_NO":"６號之１０","E_COORD97":166080.03,"N_COORD97":2559065.0800000001,"ADDRESS":"蚶西港６號之１０","OBJECTID":47806},"geometry":{"x":166080.03000000026,"y":2559065.0800000019}},{"attributes":{"ID":47807,"DIS_CODE":0,"TOWNNAME":"西港區","LI":"劉厝里","LIN":"15鄰","STREET":" ","SECT":" ","MAREA":"蚶西港","LANE":" ","ALLEY":" ","HOUSE_NO":"６號之１６","E_COORD97":166050.51000000001,"N_COORD97":2559063.6699999999,"ADDRESS":"蚶西港６號之１６","OBJECTID":47807},"geometry":{"x":166050.51000000071,"y":2559063.6700000018}},{"attributes":{"ID":47808,"DIS_CODE":0,"TOWNNAME":"西港區","LI":"劉厝里","LIN":"15鄰","STREET":" ","SECT":" ","MAREA":"蚶西港","LANE":" ","ALLEY":" ","HOUSE_NO":"６號之１７","E_COORD97":166046.14999999999,"N_COORD97":2559063.7999999998,"ADDRESS":"蚶西港６號之１７","OBJECTID":47808},"geometry":{"x":166046.14999999944,"y":2559063.8000000026}},{"attributes":{"ID":47809,"DIS_CODE":0,"TOWNNAME":"西港區","LI":"劉厝里","LIN":"15鄰","STREET":" ","SECT":" ","MAREA":"蚶西港","LANE":" ","ALLEY":" ","HOUSE_NO":"６號之１８","E_COORD97":166042.01999999999,"N_COORD97":2559063.9900000002,"ADDRESS":"蚶西港６號之１８","OBJECTID":47809},"geometry":{"x":166042.01999999955,"y":2559063.9900000002}},{"attributes":{"ID":47810,"DIS_CODE":0,"TOWNNAME":"西港區","LI":"劉厝里","LIN":"15鄰","STREET":" ","SECT":" ","MAREA":"蚶西港","LANE":" ","ALLEY":" ","HOUSE_NO":"６號之１９","E_COORD97":166112.89999999999,"N_COORD97":2559003.9100000001,"ADDRESS":"蚶西港６號之１９","OBJECTID":47810},"geometry":{"x":166112.9000000013,"y":2559003.9100000039}},{"attributes":{"ID":47811,"DIS_CODE":0,"TOWNNAME":"西港區","LI":"劉厝里","LIN":"15鄰","STREET":" ","SECT":" ","MAREA":"蚶西港","LANE":" ","ALLEY":" ","HOUSE_NO":"６號之１","E_COORD97":166116.37,"N_COORD97":2559020.3300000001,"ADDRESS":"蚶西港６號之１","OBJECTID":47811},"geometry":{"x":166116.37000000104,"y":2559020.3300000001}},{"attributes":{"ID":47812,"DIS_CODE":0,"TOWNNAME":"西港區","LI":"劉厝里","LIN":"15鄰","STREET":" ","SECT":" ","MAREA":"蚶西港","LANE":" ","ALLEY":" ","HOUSE_NO":"６號之２０","E_COORD97":166117.12,"N_COORD97":2559003.71,"ADDRESS":"蚶西港６號之２０","OBJECTID":47812},"geometry":{"x":166117.12000000011,"y":2559003.7100000028}},{"attributes":{"ID":47813,"DIS_CODE":0,"TOWNNAME":"佳里區","LI":"興化里","LIN":"17鄰","STREET":" ","SECT":" ","MAREA":"佳里興","LANE":" ","ALLEY":" ","HOUSE_NO":"４８３號之６","E_COORD97":166904.42999999999,"N_COORD97":2565506.4100000001,"ADDRESS":"佳里興４８３號之６","OBJECTID":47813},"geometry":{"x":166904.4299999997,"y":2565506.4100000039}},{"attributes":{"ID":47814,"DIS_CODE":0,"TOWNNAME":"佳里區","LI":"興化里","LIN":"17鄰","STREET":" ","SECT":" ","MAREA":"佳里興","LANE":" ","ALLEY":" ","HOUSE_NO":"４８４號之２","E_COORD97":166942.5,"N_COORD97":2565486.8500000001,"ADDRESS":"佳里興４８４號之２","OBJECTID":47814},"geometry":{"x":166942.50000000093,"y":2565486.8500000015}},{"attributes":{"ID":47815,"DIS_CODE":0,"TOWNNAME":"西港區","LI":"劉厝里","LIN":"15鄰","STREET":" ","SECT":" ","MAREA":"蚶西港","LANE":" ","ALLEY":" ","HOUSE_NO":"６號之２１","E_COORD97":166121.41,"N_COORD97":2559003.4399999999,"ADDRESS":"蚶西港６號之２１","OBJECTID":47815},"geometry":{"x":166121.41000000015,"y":2559003.4400000013}},{"attributes":{"ID":47816,"DIS_CODE":0,"TOWNNAME":"南區","LI":"大林里","LIN":"20鄰","STREET":"大林路","SECT":" ","MAREA":" ","LANE":"１３５巷","ALLEY":"９弄","HOUSE_NO":"７號","E_COORD97":169087.97,"N_COORD97":2541751.8900000001,"ADDRESS":"大林路１３５巷９弄７號","OBJECTID":47816},"geometry":{"x":169087.9700000016,"y":2541751.8900000025}},{"attributes":{"ID":47817,"DIS_CODE":0,"TOWNNAME":"南區","LI":"大林里","LIN":"20鄰","STREET":"大林路","SECT":" ","MAREA":" ","LANE":"１３５巷","ALLEY":"９弄","HOUSE_NO":"９號","E_COORD97":169090.35000000001,"N_COORD97":2541752.6800000002,"ADDRESS":"大林路１３５巷９弄９號","OBJECTID":47817},"geometry":{"x":169090.35000000149,"y":2541752.6800000016}},{"attributes":{"ID":47818,"DIS_CODE":0,"TOWNNAME":"南區","LI":"大林里","LIN":"20鄰","STREET":"大林路","SECT":" ","MAREA":" ","LANE":"１３５巷","ALLEY":"９弄","HOUSE_NO":"１２號","E_COORD97":169091.78,"N_COORD97":2541749.0299999998,"ADDRESS":"大林路１３５巷９弄１２號","OBJECTID":47818},"geometry":{"x":169091.78000000119,"y":2541749.0300000012}},{"attributes":{"ID":47819,"DIS_CODE":0,"TOWNNAME":"南區","LI":"大林里","LIN":"20鄰","STREET":"大林路","SECT":" ","MAREA":" ","LANE":"１３５巷","ALLEY":"９弄","HOUSE_NO":"１０號","E_COORD97":169088.29000000001,"N_COORD97":2541748.5600000001,"ADDRESS":"大林路１３５巷９弄１０號","OBJECTID":47819},"geometry":{"x":169088.29000000097,"y":2541748.5600000005}},{"attributes":{"ID":47820,"DIS_CODE":0,"TOWNNAME":"南區","LI":"大林里","LIN":"20鄰","STREET":"大林路","SECT":" ","MAREA":" ","LANE":"１３５巷","ALLEY":"９弄","HOUSE_NO":"２號","E_COORD97":169079.56,"N_COORD97":2541745.2200000002,"ADDRESS":"大林路１３５巷９弄２號","OBJECTID":47820},"geometry":{"x":169079.55999999959,"y":2541745.2200000044}},{"attributes":{"ID":47821,"DIS_CODE":0,"TOWNNAME":"南區","LI":"大林里","LIN":"20鄰","STREET":"大林路","SECT":" ","MAREA":" ","LANE":"１３５巷","ALLEY":"９弄","HOUSE_NO":"６號","E_COORD97":169082.57999999999,"N_COORD97":2541746.1699999999,"ADDRESS":"大林路１３５巷９弄６號","OBJECTID":47821},"geometry":{"x":169082.58000000194,"y":2541746.1700000018}},{"attributes":{"ID":47822,"DIS_CODE":0,"TOWNNAME":"西港區","LI":"劉厝里","LIN":"15鄰","STREET":" ","SECT":" ","MAREA":"蚶西港","LANE":" ","ALLEY":" ","HOUSE_NO":"６號之２２","E_COORD97":166125.59,"N_COORD97":2559002.9900000002,"ADDRESS":"蚶西港６號之２２","OBJECTID":47822},"geometry":{"x":166125.58999999985,"y":2559002.9899999984}},{"attributes":{"ID":47823,"DIS_CODE":0,"TOWNNAME":"南區","LI":"大林里","LIN":"20鄰","STREET":"大林路","SECT":" ","MAREA":" ","LANE":"１３５巷","ALLEY":"９弄","HOUSE_NO":"８號","E_COORD97":169085.42999999999,"N_COORD97":2541746.9700000002,"ADDRESS":"大林路１３５巷９弄８號","OBJECTID":47823},"geometry":{"x":169085.43000000063,"y":2541746.9700000044}},{"attributes":{"ID":47824,"DIS_CODE":0,"TOWNNAME":"安南區","LI":"理想里","LIN":"20鄰","STREET":"同安路","SECT":" ","MAREA":" ","LANE":"８０巷","ALLEY":"５８弄","HOUSE_NO":"１１號","E_COORD97":167027.01999999999,"N_COORD97":2548792.2200000002,"ADDRESS":"同安路８０巷５８弄１１號","OBJECTID":47824},"geometry":{"x":167027.01999999955,"y":2548792.2200000007}},{"attributes":{"ID":47825,"DIS_CODE":0,"TOWNNAME":"安南區","LI":"理想里","LIN":"20鄰","STREET":"同安路","SECT":" ","MAREA":" ","LANE":"８０巷","ALLEY":"５８弄","HOUSE_NO":"１３號","E_COORD97":167024.07000000001,"N_COORD97":2548789.1299999999,"ADDRESS":"同安路８０巷５８弄１３號","OBJECTID":47825},"geometry":{"x":167024.0700000003,"y":2548789.1300000027}},{"attributes":{"ID":47826,"DIS_CODE":0,"TOWNNAME":"安南區","LI":"理想里","LIN":"20鄰","STREET":"同安路","SECT":" ","MAREA":" ","LANE":"８０巷","ALLEY":"５８弄","HOUSE_NO":"１５號","E_COORD97":167020.10000000001,"N_COORD97":2548787.3199999998,"ADDRESS":"同安路８０巷５８弄１５號","OBJECTID":47826},"geometry":{"x":167020.09999999963,"y":2548787.3200000022}},{"attributes":{"ID":47827,"DIS_CODE":0,"TOWNNAME":"安南區","LI":"理想里","LIN":"20鄰","STREET":"同安路","SECT":" ","MAREA":" ","LANE":"８０巷","ALLEY":"５８弄","HOUSE_NO":"１７號","E_COORD97":167017.26999999999,"N_COORD97":2548783.1699999999,"ADDRESS":"同安路８０巷５８弄１７號","OBJECTID":47827},"geometry":{"x":167017.26999999955,"y":2548783.1700000037}},{"attributes":{"ID":47828,"DIS_CODE":0,"TOWNNAME":"安南區","LI":"理想里","LIN":"20鄰","STREET":"同安路","SECT":" ","MAREA":" ","LANE":"８０巷","ALLEY":"５８弄","HOUSE_NO":"１９號","E_COORD97":167014.44,"N_COORD97":2548780.5299999998,"ADDRESS":"同安路８０巷５８弄１９號","OBJECTID":47828},"geometry":{"x":167014.44000000134,"y":2548780.5300000012}},{"attributes":{"ID":47829,"DIS_CODE":0,"TOWNNAME":"安南區","LI":"理想里","LIN":"20鄰","STREET":"同安路","SECT":" ","MAREA":" ","LANE":"８０巷","ALLEY":"５８弄","HOUSE_NO":"１號","E_COORD97":167042.64999999999,"N_COORD97":2548805.8799999999,"ADDRESS":"同安路８０巷５８弄１號","OBJECTID":47829},"geometry":{"x":167042.65000000037,"y":2548805.8800000008}},{"attributes":{"ID":47830,"DIS_CODE":0,"TOWNNAME":"安南區","LI":"理想里","LIN":"20鄰","STREET":"同安路","SECT":" ","MAREA":" ","LANE":"８０巷","ALLEY":"５８弄","HOUSE_NO":"３號","E_COORD97":167040.29999999999,"N_COORD97":2548802.7599999998,"ADDRESS":"同安路８０巷５８弄３號","OBJECTID":47830},"geometry":{"x":167040.30000000075,"y":2548802.7600000035}},{"attributes":{"ID":47831,"DIS_CODE":0,"TOWNNAME":"西港區","LI":"劉厝里","LIN":"15鄰","STREET":" ","SECT":" ","MAREA":"蚶西港","LANE":" ","ALLEY":" ","HOUSE_NO":"６號之２３","E_COORD97":166129.45999999999,"N_COORD97":2559002.6200000001,"ADDRESS":"蚶西港６號之２３","OBJECTID":47831},"geometry":{"x":166129.45999999996,"y":2559002.620000001}},{"attributes":{"ID":47832,"DIS_CODE":0,"TOWNNAME":"西港區","LI":"劉厝里","LIN":"15鄰","STREET":" ","SECT":" ","MAREA":"蚶西港","LANE":" ","ALLEY":" ","HOUSE_NO":"６號之２４","E_COORD97":166133.66,"N_COORD97":2559002.2400000002,"ADDRESS":"蚶西港６號之２４","OBJECTID":47832},"geometry":{"x":166133.66000000015,"y":2559002.2400000021}},{"attributes":{"ID":47833,"DIS_CODE":0,"TOWNNAME":"西港區","LI":"劉厝里","LIN":"15鄰","STREET":" ","SECT":" ","MAREA":"蚶西港","LANE":" ","ALLEY":" ","HOUSE_NO":"６號之２５","E_COORD97":166138.04000000001,"N_COORD97":2559001.77,"ADDRESS":"蚶西港６號之２５","OBJECTID":47833},"geometry":{"x":166138.03999999911,"y":2559001.7700000014}},{"attributes":{"ID":47834,"DIS_CODE":0,"TOWNNAME":"西港區","LI":"劉厝里","LIN":"15鄰","STREET":" ","SECT":" ","MAREA":"蚶西港","LANE":" ","ALLEY":" ","HOUSE_NO":"６號之２","E_COORD97":166117.06,"N_COORD97":2559024.5600000001,"ADDRESS":"蚶西港６號之２","OBJECTID":47834},"geometry":{"x":166117.05999999959,"y":2559024.5600000024}},{"attributes":{"ID":47835,"DIS_CODE":0,"TOWNNAME":"西港區","LI":"劉厝里","LIN":"15鄰","STREET":" ","SECT":" ","MAREA":"蚶西港","LANE":" ","ALLEY":" ","HOUSE_NO":"６號之３","E_COORD97":166117.14999999999,"N_COORD97":2559028.9199999999,"ADDRESS":"蚶西港６號之３","OBJECTID":47835},"geometry":{"x":166117.15000000037,"y":2559028.9199999999}},{"attributes":{"ID":47836,"DIS_CODE":0,"TOWNNAME":"西港區","LI":"劉厝里","LIN":"15鄰","STREET":" ","SECT":" ","MAREA":"蚶西港","LANE":" ","ALLEY":" ","HOUSE_NO":"６號之４","E_COORD97":166117.76000000001,"N_COORD97":2559033.3999999999,"ADDRESS":"蚶西港６號之４","OBJECTID":47836},"geometry":{"x":166117.76000000164,"y":2559033.4000000004}},{"attributes":{"ID":47837,"DIS_CODE":0,"TOWNNAME":"西港區","LI":"劉厝里","LIN":"15鄰","STREET":" ","SECT":" ","MAREA":"蚶西港","LANE":" ","ALLEY":" ","HOUSE_NO":"６號之５","E_COORD97":166118.29000000001,"N_COORD97":2559037.21,"ADDRESS":"蚶西港６號之５","OBJECTID":47837},"geometry":{"x":166118.29000000097,"y":2559037.2100000028}},{"attributes":{"ID":47838,"DIS_CODE":0,"TOWNNAME":"西港區","LI":"劉厝里","LIN":"15鄰","STREET":" ","SECT":" ","MAREA":"蚶西港","LANE":" ","ALLEY":" ","HOUSE_NO":"６號之６","E_COORD97":166096.95000000001,"N_COORD97":2559064.9100000001,"ADDRESS":"蚶西港６號之６","OBJECTID":47838},"geometry":{"x":166096.95000000112,"y":2559064.9100000039}},{"attributes":{"ID":47839,"DIS_CODE":0,"TOWNNAME":"西港區","LI":"劉厝里","LIN":"15鄰","STREET":" ","SECT":" ","MAREA":"蚶西港","LANE":" ","ALLEY":" ","HOUSE_NO":"６號之７","E_COORD97":166092.32999999999,"N_COORD97":2559065.1400000001,"ADDRESS":"蚶西港６號之７","OBJECTID":47839},"geometry":{"x":166092.33000000101,"y":2559065.1400000025}},{"attributes":{"ID":47840,"DIS_CODE":0,"TOWNNAME":"西港區","LI":"劉厝里","LIN":"15鄰","STREET":" ","SECT":" ","MAREA":"蚶西港","LANE":" ","ALLEY":" ","HOUSE_NO":"６號之８","E_COORD97":166088.26999999999,"N_COORD97":2559064.9199999999,"ADDRESS":"蚶西港６號之８","OBJECTID":47840},"geometry":{"x":166088.26999999955,"y":2559064.9200000018}},{"attributes":{"ID":47841,"DIS_CODE":0,"TOWNNAME":"西港區","LI":"劉厝里","LIN":"15鄰","STREET":" ","SECT":" ","MAREA":"蚶西港","LANE":" ","ALLEY":" ","HOUSE_NO":"６號之９","E_COORD97":166084.32999999999,"N_COORD97":2559065.1299999999,"ADDRESS":"蚶西港６號之９","OBJECTID":47841},"geometry":{"x":166084.33000000101,"y":2559065.1299999971}},{"attributes":{"ID":47842,"DIS_CODE":0,"TOWNNAME":"西港區","LI":"劉厝里","LIN":"15鄰","STREET":" ","SECT":" ","MAREA":"蚶西港","LANE":" ","ALLEY":" ","HOUSE_NO":"６號","E_COORD97":166108.89999999999,"N_COORD97":2559063.6699999999,"ADDRESS":"蚶西港６號","OBJECTID":47842},"geometry":{"x":166108.90000000224,"y":2559063.6700000018}},{"attributes":{"ID":47843,"DIS_CODE":0,"TOWNNAME":"西港區","LI":"劉厝里","LIN":"15鄰","STREET":" ","SECT":" ","MAREA":"蚶西港","LANE":" ","ALLEY":" ","HOUSE_NO":"７號","E_COORD97":166004.26000000001,"N_COORD97":2559096.6899999999,"ADDRESS":"蚶西港７號","OBJECTID":47843},"geometry":{"x":166004.26000000164,"y":2559096.6900000013}},{"attributes":{"ID":47844,"DIS_CODE":0,"TOWNNAME":"西港區","LI":"劉厝里","LIN":"15鄰","STREET":" ","SECT":" ","MAREA":"蚶西港","LANE":" ","ALLEY":" ","HOUSE_NO":"８號之１","E_COORD97":166019.76999999999,"N_COORD97":2559213.7999999998,"ADDRESS":"蚶西港８號之１","OBJECTID":47844},"geometry":{"x":166019.77000000048,"y":2559213.8000000007}},{"attributes":{"ID":47845,"DIS_CODE":0,"TOWNNAME":"西港區","LI":"劉厝里","LIN":"15鄰","STREET":" ","SECT":" ","MAREA":"蚶西港","LANE":" ","ALLEY":" ","HOUSE_NO":"８之２０號","E_COORD97":166241.39000000001,"N_COORD97":2559609.7799999998,"ADDRESS":"蚶西港８之２０號","OBJECTID":47845},"geometry":{"x":166241.38999999966,"y":2559609.7799999993}},{"attributes":{"ID":47846,"DIS_CODE":0,"TOWNNAME":"安南區","LI":"理想里","LIN":"20鄰","STREET":"同安路","SECT":" ","MAREA":" ","LANE":"８０巷","ALLEY":"５８弄","HOUSE_NO":"５號","E_COORD97":167036.20000000001,"N_COORD97":2548800.4199999999,"ADDRESS":"同安路８０巷５８弄５號","OBJECTID":47846},"geometry":{"x":167036.20000000112,"y":2548800.4199999999}},{"attributes":{"ID":47847,"DIS_CODE":0,"TOWNNAME":"安南區","LI":"理想里","LIN":"20鄰","STREET":"同安路","SECT":" ","MAREA":" ","LANE":"８０巷","ALLEY":"５８弄","HOUSE_NO":"７號","E_COORD97":167033.85999999999,"N_COORD97":2548796.8999999999,"ADDRESS":"同安路８０巷５８弄７號","OBJECTID":47847},"geometry":{"x":167033.86000000127,"y":2548796.9000000022}},{"attributes":{"ID":47848,"DIS_CODE":0,"TOWNNAME":"佳里區","LI":"興化里","LIN":"17鄰","STREET":" ","SECT":" ","MAREA":"佳里興","LANE":" ","ALLEY":" ","HOUSE_NO":"４８４號之３","E_COORD97":166933.62,"N_COORD97":2565489.8100000001,"ADDRESS":"佳里興４８４號之３","OBJECTID":47848},"geometry":{"x":166933.62000000011,"y":2565489.8100000005}},{"attributes":{"ID":47849,"DIS_CODE":0,"TOWNNAME":"西港區","LI":"劉厝里","LIN":"15鄰","STREET":" ","SECT":" ","MAREA":"蚶西港","LANE":" ","ALLEY":" ","HOUSE_NO":"８號之２","E_COORD97":166017.79000000001,"N_COORD97":2559231.4300000002,"ADDRESS":"蚶西港８號之２","OBJECTID":47849},"geometry":{"x":166017.7900000019,"y":2559231.4300000016}},{"attributes":{"ID":47850,"DIS_CODE":0,"TOWNNAME":"西港區","LI":"劉厝里","LIN":"15鄰","STREET":" ","SECT":" ","MAREA":"蚶西港","LANE":" ","ALLEY":" ","HOUSE_NO":"８之３０號","E_COORD97":166378.39999999999,"N_COORD97":2559632.2400000002,"ADDRESS":"蚶西港８之３０號","OBJECTID":47850},"geometry":{"x":166378.39999999944,"y":2559632.2400000039}},{"attributes":{"ID":47851,"DIS_CODE":0,"TOWNNAME":"西港區","LI":"劉厝里","LIN":"15鄰","STREET":" ","SECT":" ","MAREA":"蚶西港","LANE":" ","ALLEY":" ","HOUSE_NO":"８號之３","E_COORD97":166029.63,"N_COORD97":2559238.4300000002,"ADDRESS":"蚶西港８號之３","OBJECTID":47851},"geometry":{"x":166029.63000000082,"y":2559238.4300000016}},{"attributes":{"ID":47852,"DIS_CODE":0,"TOWNNAME":"安南區","LI":"理想里","LIN":"20鄰","STREET":"同安路","SECT":" ","MAREA":" ","LANE":"８０巷","ALLEY":"５８弄","HOUSE_NO":"９號","E_COORD97":167030.92999999999,"N_COORD97":2548793.98,"ADDRESS":"同安路８０巷５８弄９號","OBJECTID":47852},"geometry":{"x":167030.93000000063,"y":2548793.9800000004}},{"attributes":{"ID":47853,"DIS_CODE":0,"TOWNNAME":"關廟區","LI":"龜洞里","LIN":"7鄰","STREET":"南雄南路","SECT":" ","MAREA":" ","LANE":"７０１巷","ALLEY":"１６弄","HOUSE_NO":"１８號","E_COORD97":183323.20213300001,"N_COORD97":2533390.2985800002,"ADDRESS":"南雄南路７０１巷１６弄１８號","OBJECTID":47853},"geometry":{"x":183323.20213300083,"y":2533390.298582999}},{"attributes":{"ID":47854,"DIS_CODE":0,"TOWNNAME":"安南區","LI":"理想里","LIN":"20鄰","STREET":"同安路","SECT":" ","MAREA":" ","LANE":"８０巷","ALLEY":"６２弄","HOUSE_NO":"１１號","E_COORD97":167047.85999999999,"N_COORD97":2548774.6200000001,"ADDRESS":"同安路８０巷６２弄１１號","OBJECTID":47854},"geometry":{"x":167047.86000000034,"y":2548774.6200000048}},{"attributes":{"ID":47855,"DIS_CODE":0,"TOWNNAME":"安南區","LI":"理想里","LIN":"20鄰","STREET":"同安路","SECT":" ","MAREA":" ","LANE":"８０巷","ALLEY":"６２弄","HOUSE_NO":"１３號","E_COORD97":167044.45999999999,"N_COORD97":2548772.3599999999,"ADDRESS":"同安路８０巷６２弄１３號","OBJECTID":47855},"geometry":{"x":167044.46000000089,"y":2548772.3600000013}},{"attributes":{"ID":47856,"DIS_CODE":0,"TOWNNAME":"安南區","LI":"理想里","LIN":"20鄰","STREET":"同安路","SECT":" ","MAREA":" ","LANE":"８０巷","ALLEY":"６２弄","HOUSE_NO":"１５號","E_COORD97":167039.92999999999,"N_COORD97":2548770.4700000002,"ADDRESS":"同安路８０巷６２弄１５號","OBJECTID":47856},"geometry":{"x":167039.9299999997,"y":2548770.4700000007}},{"attributes":{"ID":47857,"DIS_CODE":0,"TOWNNAME":"南區","LI":"府南里","LIN":"20鄰","STREET":"永成路","SECT":"三段","MAREA":" ","LANE":"４６１巷","ALLEY":"６弄","HOUSE_NO":"２０號","E_COORD97":167423.47194399999,"N_COORD97":2541576.0331299999,"ADDRESS":"永成路三段４６１巷６弄２０號","OBJECTID":47857},"geometry":{"x":167423.47194399964,"y":2541576.0331330001}},{"attributes":{"ID":47858,"DIS_CODE":0,"TOWNNAME":"安南區","LI":"理想里","LIN":"20鄰","STREET":"同安路","SECT":" ","MAREA":" ","LANE":"８０巷","ALLEY":"６２弄","HOUSE_NO":"１７號","E_COORD97":167035.95999999999,"N_COORD97":2548768.7799999998,"ADDRESS":"同安路８０巷６２弄１７號","OBJECTID":47858},"geometry":{"x":167035.96000000089,"y":2548768.7800000012}},{"attributes":{"ID":47859,"DIS_CODE":0,"TOWNNAME":"安南區","LI":"理想里","LIN":"20鄰","STREET":"同安路","SECT":" ","MAREA":" ","LANE":"８０巷","ALLEY":"６２弄","HOUSE_NO":"１號","E_COORD97":167063.16,"N_COORD97":2548789.7200000002,"ADDRESS":"同安路８０巷６２弄１號","OBJECTID":47859},"geometry":{"x":167063.16000000201,"y":2548789.7200000007}},{"attributes":{"ID":47860,"DIS_CODE":0,"TOWNNAME":"安南區","LI":"理想里","LIN":"20鄰","STREET":"同安路","SECT":" ","MAREA":" ","LANE":"８０巷","ALLEY":"６２弄","HOUSE_NO":"３號","E_COORD97":167059.76000000001,"N_COORD97":2548785.7599999998,"ADDRESS":"同安路８０巷６２弄３號","OBJECTID":47860},"geometry":{"x":167059.75999999978,"y":2548785.7600000035}},{"attributes":{"ID":47861,"DIS_CODE":0,"TOWNNAME":"安南區","LI":"理想里","LIN":"20鄰","STREET":"同安路","SECT":" ","MAREA":" ","LANE":"８０巷","ALLEY":"６２弄","HOUSE_NO":"５號","E_COORD97":167057.48999999999,"N_COORD97":2548782.5499999998,"ADDRESS":"同安路８０巷６２弄５號","OBJECTID":47861},"geometry":{"x":167057.49000000209,"y":2548782.5500000026}},{"attributes":{"ID":47862,"DIS_CODE":0,"TOWNNAME":"安南區","LI":"理想里","LIN":"20鄰","STREET":"同安路","SECT":" ","MAREA":" ","LANE":"８０巷","ALLEY":"６２弄","HOUSE_NO":"７號","E_COORD97":167053.89999999999,"N_COORD97":2548780.6600000001,"ADDRESS":"同安路８０巷６２弄７號","OBJECTID":47862},"geometry":{"x":167053.9000000013,"y":2548780.660000002}},{"attributes":{"ID":47863,"DIS_CODE":0,"TOWNNAME":"安南區","LI":"理想里","LIN":"20鄰","STREET":"同安路","SECT":" ","MAREA":" ","LANE":"８０巷","ALLEY":"６２弄","HOUSE_NO":"９號","E_COORD97":167051.07000000001,"N_COORD97":2548777.4500000002,"ADDRESS":"同安路８０巷６２弄９號","OBJECTID":47863},"geometry":{"x":167051.07000000123,"y":2548777.4500000011}},{"attributes":{"ID":47864,"DIS_CODE":0,"TOWNNAME":"西港區","LI":"劉厝里","LIN":"15鄰","STREET":" ","SECT":" ","MAREA":"蚶西港","LANE":" ","ALLEY":" ","HOUSE_NO":"８之６１號","E_COORD97":166047.54999999999,"N_COORD97":2559789.6699999999,"ADDRESS":"蚶西港８之６１號","OBJECTID":47864},"geometry":{"x":166047.54999999981,"y":2559789.6700000018}},{"attributes":{"ID":47865,"DIS_CODE":0,"TOWNNAME":"西港區","LI":"劉厝里","LIN":"15鄰","STREET":" ","SECT":" ","MAREA":"蚶西港","LANE":" ","ALLEY":" ","HOUSE_NO":"８號之６","E_COORD97":166028.23999999999,"N_COORD97":2559260.7000000002,"ADDRESS":"蚶西港８號之６","OBJECTID":47865},"geometry":{"x":166028.24000000022,"y":2559260.6999999993}},{"attributes":{"ID":47866,"DIS_CODE":0,"TOWNNAME":"永康區","LI":"西勢里","LIN":"20鄰","STREET":"富強路","SECT":"一段","MAREA":" ","LANE":"１８５巷","ALLEY":"２弄","HOUSE_NO":"１０號","E_COORD97":175561.20000000001,"N_COORD97":2546436.3799999999,"ADDRESS":"富強路一段１８５巷２弄１０號","OBJECTID":47866},"geometry":{"x":175561.20000000112,"y":2546436.379999999}},{"attributes":{"ID":47867,"DIS_CODE":0,"TOWNNAME":"永康區","LI":"西勢里","LIN":"20鄰","STREET":"富強路","SECT":"一段","MAREA":" ","LANE":"１８５巷","ALLEY":"２弄","HOUSE_NO":"３３號","E_COORD97":175601.35000000001,"N_COORD97":2546470.52,"ADDRESS":"富強路一段１８５巷２弄３３號","OBJECTID":47867},"geometry":{"x":175601.34999999963,"y":2546470.5199999996}},{"attributes":{"ID":47868,"DIS_CODE":0,"TOWNNAME":"永康區","LI":"西橋里","LIN":"20鄰","STREET":"大橋三街","SECT":" ","MAREA":" ","LANE":"５７巷","ALLEY":"７弄","HOUSE_NO":"１５號","E_COORD97":170549.42000000001,"N_COORD97":2546521.0499999998,"ADDRESS":"大橋三街５７巷７弄１５號","OBJECTID":47868},"geometry":{"x":170549.41999999993,"y":2546521.0500000026}},{"attributes":{"ID":47869,"DIS_CODE":0,"TOWNNAME":"永康區","LI":"西橋里","LIN":"20鄰","STREET":"大橋三街","SECT":" ","MAREA":" ","LANE":"５７巷","ALLEY":"７弄","HOUSE_NO":"５號","E_COORD97":170558.06,"N_COORD97":2546539,"ADDRESS":"大橋三街５７巷７弄５號","OBJECTID":47869},"geometry":{"x":170558.05999999959,"y":2546539}},{"attributes":{"ID":47870,"DIS_CODE":0,"TOWNNAME":"白河區","LI":"外角里","LIN":"1鄰","STREET":" ","SECT":" ","MAREA":"崎子頭","LANE":" ","ALLEY":" ","HOUSE_NO":"３號","E_COORD97":190813.87,"N_COORD97":2583211.23,"ADDRESS":"崎子頭３號","OBJECTID":47870},"geometry":{"x":190813.87000000011,"y":2583211.2300000004}},{"attributes":{"ID":47871,"DIS_CODE":0,"TOWNNAME":"永康區","LI":"西橋里","LIN":"20鄰","STREET":"大橋三街","SECT":" ","MAREA":" ","LANE":"５７巷","ALLEY":"７弄","HOUSE_NO":"１７號","E_COORD97":170541.16,"N_COORD97":2546513.5,"ADDRESS":"大橋三街５７巷７弄１７號","OBJECTID":47871},"geometry":{"x":170541.16000000015,"y":2546513.5000000019}},{"attributes":{"ID":47872,"DIS_CODE":0,"TOWNNAME":"永康區","LI":"西勢里","LIN":"20鄰","STREET":"富強路","SECT":"一段","MAREA":" ","LANE":"１８５巷","ALLEY":"２弄","HOUSE_NO":"２２號","E_COORD97":175574.29000000001,"N_COORD97":2546459.3700000001,"ADDRESS":"富強路一段１８５巷２弄２２號","OBJECTID":47872},"geometry":{"x":175574.29000000097,"y":2546459.370000001}},{"attributes":{"ID":47873,"DIS_CODE":0,"TOWNNAME":"永康區","LI":"西勢里","LIN":"20鄰","STREET":"富強路","SECT":"一段","MAREA":" ","LANE":"１８５巷","ALLEY":"２弄","HOUSE_NO":"３５號","E_COORD97":175603.56,"N_COORD97":2546474.52,"ADDRESS":"富強路一段１８５巷２弄３５號","OBJECTID":47873},"geometry":{"x":175603.56000000145,"y":2546474.5199999996}},{"attributes":{"ID":47874,"DIS_CODE":0,"TOWNNAME":"西港區","LI":"劉厝里","LIN":"15鄰","STREET":" ","SECT":" ","MAREA":"蚶西港","LANE":" ","ALLEY":" ","HOUSE_NO":"８號","E_COORD97":166024.79999999999,"N_COORD97":2559129.4199999999,"ADDRESS":"蚶西港８號","OBJECTID":47874},"geometry":{"x":166024.80000000075,"y":2559129.4200000018}},{"attributes":{"ID":47875,"DIS_CODE":0,"TOWNNAME":"西港區","LI":"劉厝里","LIN":"15鄰","STREET":" ","SECT":" ","MAREA":"蚶西港","LANE":" ","ALLEY":" ","HOUSE_NO":"９號","E_COORD97":166055.31,"N_COORD97":2559185.0499999998,"ADDRESS":"蚶西港９號","OBJECTID":47875},"geometry":{"x":166055.31000000052,"y":2559185.0500000007}},{"attributes":{"ID":47876,"DIS_CODE":0,"TOWNNAME":"新營區","LI":"角帶里","LIN":" ","STREET":" ","SECT":" ","MAREA":"角帶圍","LANE":" ","ALLEY":" ","HOUSE_NO":"６之１號","E_COORD97":174820.76000000001,"N_COORD97":2576039.9199999999,"ADDRESS":"角帶圍６之１號","OBJECTID":47876},"geometry":{"x":174820.75999999885,"y":2576039.9199999981}},{"attributes":{"ID":47877,"DIS_CODE":0,"TOWNNAME":"善化區","LI":"小新里","LIN":"15鄰","STREET":" ","SECT":" ","MAREA":"小新營","LANE":" ","ALLEY":" ","HOUSE_NO":"１１６號","E_COORD97":179830.69224,"N_COORD97":2558146.2564900001,"ADDRESS":"小新營１１６號","OBJECTID":47877},"geometry":{"x":179830.69223999977,"y":2558146.2564889994}},{"attributes":{"ID":47878,"DIS_CODE":0,"TOWNNAME":"善化區","LI":"小新里","LIN":"15鄰","STREET":" ","SECT":" ","MAREA":"小新營","LANE":" ","ALLEY":" ","HOUSE_NO":"１１３之８號","E_COORD97":179844.45999999999,"N_COORD97":2558048.27,"ADDRESS":"小新營１１３之８號","OBJECTID":47878},"geometry":{"x":179844.46000000089,"y":2558048.2700000014}},{"attributes":{"ID":47879,"DIS_CODE":0,"TOWNNAME":"善化區","LI":"田寮里","LIN":"15鄰","STREET":" ","SECT":" ","MAREA":"六分寮","LANE":" ","ALLEY":" ","HOUSE_NO":"１６５號","E_COORD97":178709.10000000001,"N_COORD97":2561496,"ADDRESS":"六分寮１６５號","OBJECTID":47879},"geometry":{"x":178709.10000000056,"y":2561496.0000000019}},{"attributes":{"ID":47880,"DIS_CODE":0,"TOWNNAME":"善化區","LI":"小新里","LIN":"15鄰","STREET":" ","SECT":" ","MAREA":"小新營","LANE":" ","ALLEY":" ","HOUSE_NO":"１１３號之３２","E_COORD97":179827.48000000001,"N_COORD97":2558018.77,"ADDRESS":"小新營１１３號之３２","OBJECTID":47880},"geometry":{"x":179827.48000000045,"y":2558018.7700000014}},{"attributes":{"ID":47881,"DIS_CODE":0,"TOWNNAME":"善化區","LI":"小新里","LIN":"15鄰","STREET":" ","SECT":" ","MAREA":"小新營","LANE":" ","ALLEY":" ","HOUSE_NO":"１１３之４０號","E_COORD97":179827.38,"N_COORD97":2557968.02,"ADDRESS":"小新營１１３之４０號","OBJECTID":47881},"geometry":{"x":179827.37999999989,"y":2557968.0199999977}},{"attributes":{"ID":47882,"DIS_CODE":0,"TOWNNAME":"善化區","LI":"小新里","LIN":"15鄰","STREET":" ","SECT":" ","MAREA":"小新營","LANE":" ","ALLEY":" ","HOUSE_NO":"１１３之１８號","E_COORD97":179813.79000000001,"N_COORD97":2558076.77,"ADDRESS":"小新營１１３之１８號","OBJECTID":47882},"geometry":{"x":179813.79000000097,"y":2558076.7699999996}},{"attributes":{"ID":47883,"DIS_CODE":0,"TOWNNAME":"下營區","LI":"紅厝里","LIN":"17鄰","STREET":" ","SECT":" ","MAREA":"紅毛厝","LANE":" ","ALLEY":" ","HOUSE_NO":"１２５號之２","E_COORD97":175052,"N_COORD97":2571519.8399999999,"ADDRESS":"紅毛厝１２５號之２","OBJECTID":47883},"geometry":{"x":175052.00000000093,"y":2571519.8399999999}},{"attributes":{"ID":47884,"DIS_CODE":0,"TOWNNAME":"下營區","LI":"紅厝里","LIN":"17鄰","STREET":" ","SECT":" ","MAREA":"紅毛厝","LANE":" ","ALLEY":" ","HOUSE_NO":"１２６號","E_COORD97":175074.38,"N_COORD97":2571521.04,"ADDRESS":"紅毛厝１２６號","OBJECTID":47884},"geometry":{"x":175074.38000000175,"y":2571521.0399999991}},{"attributes":{"ID":47885,"DIS_CODE":0,"TOWNNAME":"永康區","LI":"西勢里","LIN":"20鄰","STREET":"富強路","SECT":"一段","MAREA":" ","LANE":"１８５巷","ALLEY":"２弄","HOUSE_NO":"７號","E_COORD97":175571.56,"N_COORD97":2546420.7799999998,"ADDRESS":"富強路一段１８５巷２弄７號","OBJECTID":47885},"geometry":{"x":175571.56000000052,"y":2546420.7799999993}},{"attributes":{"ID":47886,"DIS_CODE":0,"TOWNNAME":"永康區","LI":"西勢里","LIN":"20鄰","STREET":"富強路","SECT":"一段","MAREA":" ","LANE":"１８５巷","ALLEY":"２弄","HOUSE_NO":"２４號","E_COORD97":175576.54999999999,"N_COORD97":2546463.1200000001,"ADDRESS":"富強路一段１８５巷２弄２４號","OBJECTID":47886},"geometry":{"x":175576.54999999888,"y":2546463.1200000029}},{"attributes":{"ID":47887,"DIS_CODE":0,"TOWNNAME":"下營區","LI":"紅厝里","LIN":"17鄰","STREET":" ","SECT":" ","MAREA":"紅毛厝","LANE":" ","ALLEY":" ","HOUSE_NO":"１２７號","E_COORD97":175103.01999999999,"N_COORD97":2571518.75,"ADDRESS":"紅毛厝１２７號","OBJECTID":47887},"geometry":{"x":175103.01999999955,"y":2571518.7500000037}},{"attributes":{"ID":47888,"DIS_CODE":0,"TOWNNAME":"下營區","LI":"紅厝里","LIN":"17鄰","STREET":" ","SECT":" ","MAREA":"紅毛厝","LANE":" ","ALLEY":" ","HOUSE_NO":"１２８號","E_COORD97":175092.16,"N_COORD97":2571511.7200000002,"ADDRESS":"紅毛厝１２８號","OBJECTID":47888},"geometry":{"x":175092.16000000108,"y":2571511.7200000007}},{"attributes":{"ID":47889,"DIS_CODE":0,"TOWNNAME":"下營區","LI":"紅厝里","LIN":"17鄰","STREET":" ","SECT":" ","MAREA":"紅毛厝","LANE":" ","ALLEY":" ","HOUSE_NO":"１２９號之１","E_COORD97":175089.34,"N_COORD97":2571451.8300000001,"ADDRESS":"紅毛厝１２９號之１","OBJECTID":47889},"geometry":{"x":175089.33999999985,"y":2571451.8300000019}},{"attributes":{"ID":47890,"DIS_CODE":0,"TOWNNAME":"下營區","LI":"紅厝里","LIN":"17鄰","STREET":" ","SECT":" ","MAREA":"紅毛厝","LANE":" ","ALLEY":" ","HOUSE_NO":"１２９號","E_COORD97":175102.45999999999,"N_COORD97":2571471.2599999998,"ADDRESS":"紅毛厝１２９號","OBJECTID":47890},"geometry":{"x":175102.45999999996,"y":2571471.2600000016}},{"attributes":{"ID":47891,"DIS_CODE":0,"TOWNNAME":"下營區","LI":"紅厝里","LIN":"17鄰","STREET":" ","SECT":" ","MAREA":"紅毛厝","LANE":" ","ALLEY":" ","HOUSE_NO":"１３０號","E_COORD97":175117.81,"N_COORD97":2571501.04,"ADDRESS":"紅毛厝１３０號","OBJECTID":47891},"geometry":{"x":175117.81000000052,"y":2571501.0399999991}},{"attributes":{"ID":47892,"DIS_CODE":0,"TOWNNAME":"永康區","LI":"西勢里","LIN":"20鄰","STREET":"富強路","SECT":"一段","MAREA":" ","LANE":"１８５巷","ALLEY":"２弄","HOUSE_NO":"１７號","E_COORD97":175583.89999999999,"N_COORD97":2546439.7799999998,"ADDRESS":"富強路一段１８５巷２弄１７號","OBJECTID":47892},"geometry":{"x":175583.9000000013,"y":2546439.7800000012}},{"attributes":{"ID":47893,"DIS_CODE":0,"TOWNNAME":"永康區","LI":"西勢里","LIN":"20鄰","STREET":"富強路","SECT":"一段","MAREA":" ","LANE":"１８５巷","ALLEY":"２弄","HOUSE_NO":"３２號","E_COORD97":175585.64000000001,"N_COORD97":2546478.3700000001,"ADDRESS":"富強路一段１８５巷２弄３２號","OBJECTID":47893},"geometry":{"x":175585.63999999966,"y":2546478.3700000029}},{"attributes":{"ID":47894,"DIS_CODE":0,"TOWNNAME":"下營區","LI":"紅厝里","LIN":"17鄰","STREET":" ","SECT":" ","MAREA":"紅毛厝","LANE":" ","ALLEY":" ","HOUSE_NO":"１３１號","E_COORD97":175127.47,"N_COORD97":2571526.4300000002,"ADDRESS":"紅毛厝１３１號","OBJECTID":47894},"geometry":{"x":175127.46999999974,"y":2571526.4299999997}},{"attributes":{"ID":47895,"DIS_CODE":0,"TOWNNAME":"善化區","LI":"六德里","LIN":"15鄰","STREET":" ","SECT":" ","MAREA":"六分寮","LANE":" ","ALLEY":" ","HOUSE_NO":"３２５之１４號","E_COORD97":178412.98999999999,"N_COORD97":2561459.27,"ADDRESS":"六分寮３２５之１４號","OBJECTID":47895},"geometry":{"x":178412.99000000022,"y":2561459.2700000014}},{"attributes":{"ID":47896,"DIS_CODE":0,"TOWNNAME":"善化區","LI":"小新里","LIN":"15鄰","STREET":" ","SECT":" ","MAREA":"小新營","LANE":" ","ALLEY":" ","HOUSE_NO":"１１３之３７號","E_COORD97":179827.48000000001,"N_COORD97":2557986.02,"ADDRESS":"小新營１１３之３７號","OBJECTID":47896},"geometry":{"x":179827.48000000045,"y":2557986.0200000014}},{"attributes":{"ID":47897,"DIS_CODE":0,"TOWNNAME":"善化區","LI":"牛庄里","LIN":"15鄰","STREET":" ","SECT":" ","MAREA":"牛庄","LANE":" ","ALLEY":" ","HOUSE_NO":"６１０號","E_COORD97":179715.29999999999,"N_COORD97":2560647.2400000002,"ADDRESS":"牛庄６１０號","OBJECTID":47897},"geometry":{"x":179715.30000000075,"y":2560647.2400000021}},{"attributes":{"ID":47898,"DIS_CODE":0,"TOWNNAME":"善化區","LI":"田寮里","LIN":"15鄰","STREET":" ","SECT":" ","MAREA":"六分寮","LANE":" ","ALLEY":" ","HOUSE_NO":"１６２號之１","E_COORD97":178728.72,"N_COORD97":2561523.27,"ADDRESS":"六分寮１６２號之１","OBJECTID":47898},"geometry":{"x":178728.72000000067,"y":2561523.2700000033}},{"attributes":{"ID":47899,"DIS_CODE":0,"TOWNNAME":"善化區","LI":"小新里","LIN":"15鄰","STREET":" ","SECT":" ","MAREA":"小新營","LANE":" ","ALLEY":" ","HOUSE_NO":"１１３號之３１","E_COORD97":179827.31,"N_COORD97":2558027.27,"ADDRESS":"小新營１１３號之３１","OBJECTID":47899},"geometry":{"x":179827.30999999959,"y":2558027.2699999996}},{"attributes":{"ID":47900,"DIS_CODE":0,"TOWNNAME":"善化區","LI":"小新里","LIN":"15鄰","STREET":" ","SECT":" ","MAREA":"小新營","LANE":" ","ALLEY":" ","HOUSE_NO":"１１３號之１２","E_COORD97":179828.26510799999,"N_COORD97":2558056.7577,"ADDRESS":"小新營１１３號之１２","OBJECTID":47900},"geometry":{"x":179828.26510800049,"y":2558056.757695999}},{"attributes":{"ID":47901,"DIS_CODE":0,"TOWNNAME":"善化區","LI":"小新里","LIN":"15鄰","STREET":" ","SECT":" ","MAREA":"小新營","LANE":" ","ALLEY":" ","HOUSE_NO":"１１３之３９號","E_COORD97":179827.31,"N_COORD97":2557973.77,"ADDRESS":"小新營１１３之３９號","OBJECTID":47901},"geometry":{"x":179827.30999999959,"y":2557973.7700000014}},{"attributes":{"ID":47902,"DIS_CODE":0,"TOWNNAME":"新營區","LI":"五興里","LIN":" ","STREET":" ","SECT":" ","MAREA":"五間厝","LANE":" ","ALLEY":" ","HOUSE_NO":"９１之２號","E_COORD97":175687.07000000001,"N_COORD97":2574941.3900000001,"ADDRESS":"五間厝９１之２號","OBJECTID":47902},"geometry":{"x":175687.0700000003,"y":2574941.3900000006}},{"attributes":{"ID":47903,"DIS_CODE":0,"TOWNNAME":"善化區","LI":"小新里","LIN":"15鄰","STREET":" ","SECT":" ","MAREA":"小新營","LANE":" ","ALLEY":" ","HOUSE_NO":"１１３號之３","E_COORD97":179841.64000000001,"N_COORD97":2558079.27,"ADDRESS":"小新營１１３號之３","OBJECTID":47903},"geometry":{"x":179841.6400000006,"y":2558079.2700000014}},{"attributes":{"ID":47904,"DIS_CODE":0,"TOWNNAME":"善化區","LI":"六德里","LIN":"15鄰","STREET":" ","SECT":" ","MAREA":"六分寮","LANE":" ","ALLEY":" ","HOUSE_NO":"３２０號","E_COORD97":178492.23999999999,"N_COORD97":2561493,"ADDRESS":"六分寮３２０號","OBJECTID":47904},"geometry":{"x":178492.24000000115,"y":2561493.0000000019}},{"attributes":{"ID":47905,"DIS_CODE":0,"TOWNNAME":"善化區","LI":"小新里","LIN":"15鄰","STREET":" ","SECT":" ","MAREA":"小新營","LANE":" ","ALLEY":" ","HOUSE_NO":"１１３之３５號","E_COORD97":179827.79000000001,"N_COORD97":2557998.77,"ADDRESS":"小新營１１３之３５號","OBJECTID":47905},"geometry":{"x":179827.79000000004,"y":2557998.7700000014}},{"attributes":{"ID":47906,"DIS_CODE":0,"TOWNNAME":"善化區","LI":"牛庄里","LIN":"15鄰","STREET":" ","SECT":" ","MAREA":"牛庄","LANE":" ","ALLEY":" ","HOUSE_NO":"１３５號之２０","E_COORD97":179888.32999999999,"N_COORD97":2559999.77,"ADDRESS":"牛庄１３５號之２０","OBJECTID":47906},"geometry":{"x":179888.33000000101,"y":2559999.7699999996}},{"attributes":{"ID":47907,"DIS_CODE":0,"TOWNNAME":"永康區","LI":"西勢里","LIN":"20鄰","STREET":"富強路","SECT":"一段","MAREA":" ","LANE":"１８５巷","ALLEY":"２弄","HOUSE_NO":"１３號","E_COORD97":175579.85000000001,"N_COORD97":2546431.7799999998,"ADDRESS":"富強路一段１８５巷２弄１３號","OBJECTID":47907},"geometry":{"x":175579.85000000056,"y":2546431.7799999993}},{"attributes":{"ID":47908,"DIS_CODE":0,"TOWNNAME":"下營區","LI":"仁里里","LIN":"17鄰","STREET":"公園路","SECT":" ","MAREA":" ","LANE":" ","ALLEY":" ","HOUSE_NO":"７２號","E_COORD97":174260.54000000001,"N_COORD97":2570335.0099999998,"ADDRESS":"公園路７２號","OBJECTID":47908},"geometry":{"x":174260.54000000097,"y":2570335.0099999998}},{"attributes":{"ID":47909,"DIS_CODE":0,"TOWNNAME":"將軍區","LI":"玉山里","LIN":"17鄰","STREET":" ","SECT":" ","MAREA":"玉山","LANE":" ","ALLEY":" ","HOUSE_NO":"１４０之１號","E_COORD97":159780.38,"N_COORD97":2568317.1800000002,"ADDRESS":"玉山１４０之１號","OBJECTID":47909},"geometry":{"x":159780.38000000175,"y":2568317.1799999997}},{"attributes":{"ID":47910,"DIS_CODE":0,"TOWNNAME":"永康區","LI":"西勢里","LIN":"20鄰","STREET":"富強路","SECT":"一段","MAREA":" ","LANE":"１８５巷","ALLEY":"２弄","HOUSE_NO":"２７號","E_COORD97":175594.70000000001,"N_COORD97":2546458.77,"ADDRESS":"富強路一段１８５巷２弄２７號","OBJECTID":47910},"geometry":{"x":175594.70000000205,"y":2546458.7699999996}},{"attributes":{"ID":47911,"DIS_CODE":0,"TOWNNAME":"永康區","LI":"西勢里","LIN":"20鄰","STREET":"富強路","SECT":"一段","MAREA":" ","LANE":"１８５巷","ALLEY":"１０弄","HOUSE_NO":"１５號","E_COORD97":175529.14000000001,"N_COORD97":2546476.8199999998,"ADDRESS":"富強路一段１８５巷１０弄１５號","OBJECTID":47911},"geometry":{"x":175529.1400000006,"y":2546476.8199999984}},{"attributes":{"ID":47912,"DIS_CODE":0,"TOWNNAME":"永康區","LI":"西勢里","LIN":"20鄰","STREET":"富強路","SECT":"一段","MAREA":" ","LANE":"１８５巷","ALLEY":"１０弄","HOUSE_NO":"３８號","E_COORD97":175565.87,"N_COORD97":2546507.0699999998,"ADDRESS":"富強路一段１８５巷１０弄３８號","OBJECTID":47912},"geometry":{"x":175565.87000000011,"y":2546507.0700000022}},{"attributes":{"ID":47913,"DIS_CODE":0,"TOWNNAME":"永康區","LI":"西勢里","LIN":"20鄰","STREET":"富強路","SECT":"一段","MAREA":" ","LANE":"１８５巷","ALLEY":"１０弄","HOUSE_NO":"２９號","E_COORD97":175545.14000000001,"N_COORD97":2546501.8199999998,"ADDRESS":"富強路一段１８５巷１０弄２９號","OBJECTID":47913},"geometry":{"x":175545.13999999966,"y":2546501.8200000022}},{"attributes":{"ID":47914,"DIS_CODE":0,"TOWNNAME":"永康區","LI":"西勢里","LIN":"20鄰","STREET":"富強路","SECT":"一段","MAREA":" ","LANE":"１８５巷","ALLEY":"２弄","HOUSE_NO":"９號","E_COORD97":175573.64999999999,"N_COORD97":2546424.5299999998,"ADDRESS":"富強路一段１８５巷２弄９號","OBJECTID":47914},"geometry":{"x":175573.6500000013,"y":2546424.5300000012}},{"attributes":{"ID":47915,"DIS_CODE":0,"TOWNNAME":"永康區","LI":"北灣里","LIN":"17鄰","STREET":"信義二街","SECT":" ","MAREA":" ","LANE":" ","ALLEY":" ","HOUSE_NO":"１７０號","E_COORD97":174818.25,"N_COORD97":2545746.54,"ADDRESS":"信義二街１７０號","OBJECTID":47915},"geometry":{"x":174818.25000000093,"y":2545746.540000001}},{"attributes":{"ID":47916,"DIS_CODE":0,"TOWNNAME":"永康區","LI":"網寮里","LIN":"17鄰","STREET":"永勝街","SECT":" ","MAREA":" ","LANE":" ","ALLEY":" ","HOUSE_NO":"２６３號","E_COORD97":173419.98000000001,"N_COORD97":2546769,"ADDRESS":"永勝街２６３號","OBJECTID":47916},"geometry":{"x":173419.98000000138,"y":2546769}},{"attributes":{"ID":47917,"DIS_CODE":0,"TOWNNAME":"將軍區","LI":"玉山里","LIN":"17鄰","STREET":" ","SECT":" ","MAREA":"玉山","LANE":" ","ALLEY":" ","HOUSE_NO":"１４０之２號","E_COORD97":159820.45999999999,"N_COORD97":2568295.96,"ADDRESS":"玉山１４０之２號","OBJECTID":47917},"geometry":{"x":159820.45999999996,"y":2568295.9600000009}},{"attributes":{"ID":47918,"DIS_CODE":0,"TOWNNAME":"將軍區","LI":"仁和里","LIN":"17鄰","STREET":" ","SECT":" ","MAREA":"和巷","LANE":" ","ALLEY":" ","HOUSE_NO":"４７號","E_COORD97":163975.48000000001,"N_COORD97":2569412.2599999998,"ADDRESS":"和巷４７號","OBJECTID":47918},"geometry":{"x":163975.48000000045,"y":2569412.2599999998}},{"attributes":{"ID":47919,"DIS_CODE":0,"TOWNNAME":"將軍區","LI":"仁和里","LIN":"17鄰","STREET":" ","SECT":" ","MAREA":"和巷","LANE":" ","ALLEY":" ","HOUSE_NO":"４２號","E_COORD97":163950.10000000001,"N_COORD97":2569400.6600000001,"ADDRESS":"和巷４２號","OBJECTID":47919},"geometry":{"x":163950.09999999963,"y":2569400.660000002}},{"attributes":{"ID":47920,"DIS_CODE":0,"TOWNNAME":"將軍區","LI":"仁和里","LIN":"17鄰","STREET":" ","SECT":" ","MAREA":"和巷","LANE":" ","ALLEY":" ","HOUSE_NO":"４３號","E_COORD97":163961.54999999999,"N_COORD97":2569401.96,"ADDRESS":"和巷４３號","OBJECTID":47920},"geometry":{"x":163961.55000000075,"y":2569401.9600000009}},{"attributes":{"ID":47921,"DIS_CODE":0,"TOWNNAME":"將軍區","LI":"仁和里","LIN":"17鄰","STREET":" ","SECT":" ","MAREA":"和巷","LANE":" ","ALLEY":" ","HOUSE_NO":"４５之１號","E_COORD97":163953.42999999999,"N_COORD97":2569378.1699999999,"ADDRESS":"和巷４５之１號","OBJECTID":47921},"geometry":{"x":163953.43000000156,"y":2569378.1699999999}},{"attributes":{"ID":47922,"DIS_CODE":0,"TOWNNAME":"將軍區","LI":"仁和里","LIN":"17鄰","STREET":" ","SECT":" ","MAREA":"和巷","LANE":" ","ALLEY":" ","HOUSE_NO":"４５之２號","E_COORD97":163967.20000000001,"N_COORD97":2569365.75,"ADDRESS":"和巷４５之２號","OBJECTID":47922},"geometry":{"x":163967.20000000019,"y":2569365.7500000037}},{"attributes":{"ID":47923,"DIS_CODE":0,"TOWNNAME":"將軍區","LI":"仁和里","LIN":"17鄰","STREET":" ","SECT":" ","MAREA":"和巷","LANE":" ","ALLEY":" ","HOUSE_NO":"４６號","E_COORD97":163978.03,"N_COORD97":2569392.21,"ADDRESS":"和巷４６號","OBJECTID":47923},"geometry":{"x":163978.03000000026,"y":2569392.2100000028}},{"attributes":{"ID":47924,"DIS_CODE":0,"TOWNNAME":"將軍區","LI":"仁和里","LIN":"17鄰","STREET":" ","SECT":" ","MAREA":"和巷","LANE":" ","ALLEY":" ","HOUSE_NO":"４８之３號","E_COORD97":163802.10000000001,"N_COORD97":2570407.2200000002,"ADDRESS":"和巷４８之３號","OBJECTID":47924},"geometry":{"x":163802.10000000056,"y":2570407.2199999988}},{"attributes":{"ID":47925,"DIS_CODE":0,"TOWNNAME":"將軍區","LI":"仁和里","LIN":"17鄰","STREET":" ","SECT":" ","MAREA":"和巷","LANE":" ","ALLEY":" ","HOUSE_NO":"４８之４號","E_COORD97":164061.20999999999,"N_COORD97":2570855.4100000001,"ADDRESS":"和巷４８之４號","OBJECTID":47925},"geometry":{"x":164061.20999999996,"y":2570855.4100000001}},{"attributes":{"ID":47926,"DIS_CODE":0,"TOWNNAME":"將軍區","LI":"仁和里","LIN":"17鄰","STREET":" ","SECT":" ","MAREA":"和巷","LANE":" ","ALLEY":" ","HOUSE_NO":"４８號","E_COORD97":163989.70999999999,"N_COORD97":2569403.25,"ADDRESS":"和巷４８號","OBJECTID":47926},"geometry":{"x":163989.71000000089,"y":2569403.2500000019}},{"attributes":{"ID":47927,"DIS_CODE":0,"TOWNNAME":"將軍區","LI":"仁和里","LIN":"17鄰","STREET":" ","SECT":" ","MAREA":"和巷","LANE":" ","ALLEY":" ","HOUSE_NO":"４９之１３號","E_COORD97":164010.44,"N_COORD97":2569582.6499999999,"ADDRESS":"和巷４９之１３號","OBJECTID":47927},"geometry":{"x":164010.44000000134,"y":2569582.6500000004}},{"attributes":{"ID":47928,"DIS_CODE":0,"TOWNNAME":"將軍區","LI":"仁和里","LIN":"17鄰","STREET":" ","SECT":" ","MAREA":"和巷","LANE":" ","ALLEY":" ","HOUSE_NO":"４９之１號","E_COORD97":164000.63,"N_COORD97":2569428.23,"ADDRESS":"和巷４９之１號","OBJECTID":47928},"geometry":{"x":164000.62999999989,"y":2569428.2300000023}},{"attributes":{"ID":47929,"DIS_CODE":0,"TOWNNAME":"將軍區","LI":"仁和里","LIN":"17鄰","STREET":" ","SECT":" ","MAREA":"和巷","LANE":" ","ALLEY":" ","HOUSE_NO":"４９號","E_COORD97":163992.17000000001,"N_COORD97":2569388.6699999999,"ADDRESS":"和巷４９號","OBJECTID":47929},"geometry":{"x":163992.16999999993,"y":2569388.6699999999}},{"attributes":{"ID":47930,"DIS_CODE":0,"TOWNNAME":"將軍區","LI":"忠興里","LIN":"17鄰","STREET":" ","SECT":" ","MAREA":"忠興","LANE":" ","ALLEY":" ","HOUSE_NO":"１７２號","E_COORD97":163912.76999999999,"N_COORD97":2566932.1200000001,"ADDRESS":"忠興１７２號","OBJECTID":47930},"geometry":{"x":163912.77000000048,"y":2566932.120000001}},{"attributes":{"ID":47931,"DIS_CODE":0,"TOWNNAME":"永康區","LI":"西勢里","LIN":"20鄰","STREET":"富強路","SECT":"一段","MAREA":" ","LANE":"１８５巷","ALLEY":"１０弄","HOUSE_NO":"３５號","E_COORD97":175555.26999999999,"N_COORD97":2546515.8300000001,"ADDRESS":"富強路一段１８５巷１０弄３５號","OBJECTID":47931},"geometry":{"x":175555.27000000048,"y":2546515.8300000001}},{"attributes":{"ID":47932,"DIS_CODE":0,"TOWNNAME":"將軍區","LI":"嘉昌里","LIN":"17鄰","STREET":" ","SECT":" ","MAREA":"昌平","LANE":" ","ALLEY":" ","HOUSE_NO":"４１號","E_COORD97":163600.94,"N_COORD97":2567374.7799999998,"ADDRESS":"昌平４１號","OBJECTID":47932},"geometry":{"x":163600.94000000041,"y":2567374.7800000031}},{"attributes":{"ID":47933,"DIS_CODE":0,"TOWNNAME":"永康區","LI":"西橋里","LIN":"20鄰","STREET":"大橋三街","SECT":" ","MAREA":" ","LANE":"５７巷","ALLEY":"７弄","HOUSE_NO":"２９號","E_COORD97":170540.89999999999,"N_COORD97":2546502.7400000002,"ADDRESS":"大橋三街５７巷７弄２９號","OBJECTID":47933},"geometry":{"x":170540.9000000013,"y":2546502.7400000021}},{"attributes":{"ID":47934,"DIS_CODE":0,"TOWNNAME":"將軍區","LI":"嘉昌里","LIN":"17鄰","STREET":" ","SECT":" ","MAREA":"昌平","LANE":" ","ALLEY":" ","HOUSE_NO":"４３之１０號","E_COORD97":163553.5,"N_COORD97":2567242.8999999999,"ADDRESS":"昌平４３之１０號","OBJECTID":47934},"geometry":{"x":163553.50000000093,"y":2567242.9000000041}},{"attributes":{"ID":47935,"DIS_CODE":0,"TOWNNAME":"永康區","LI":"西勢里","LIN":"20鄰","STREET":"富強路","SECT":"一段","MAREA":" ","LANE":"１８５巷","ALLEY":"１０弄","HOUSE_NO":"１３號","E_COORD97":175527.17000000001,"N_COORD97":2546472.5699999998,"ADDRESS":"富強路一段１８５巷１０弄１３號","OBJECTID":47935},"geometry":{"x":175527.17000000086,"y":2546472.5700000022}},{"attributes":{"ID":47936,"DIS_CODE":0,"TOWNNAME":"永康區","LI":"西勢里","LIN":"20鄰","STREET":"富強路","SECT":"一段","MAREA":" ","LANE":"１８５巷","ALLEY":"２弄","HOUSE_NO":"１號","E_COORD97":175564.01000000001,"N_COORD97":2546408.2799999998,"ADDRESS":"富強路一段１８５巷２弄１號","OBJECTID":47936},"geometry":{"x":175564.01000000071,"y":2546408.2799999975}},{"attributes":{"ID":47937,"DIS_CODE":0,"TOWNNAME":"永康區","LI":"西勢里","LIN":"20鄰","STREET":"富強路","SECT":"一段","MAREA":" ","LANE":"１８５巷","ALLEY":"２弄","HOUSE_NO":"３４號","E_COORD97":175587.79999999999,"N_COORD97":2546481.8700000001,"ADDRESS":"富強路一段１８５巷２弄３４號","OBJECTID":47937},"geometry":{"x":175587.79999999981,"y":2546481.8700000029}},{"attributes":{"ID":47938,"DIS_CODE":0,"TOWNNAME":"永康區","LI":"西勢里","LIN":"20鄰","STREET":"富強路","SECT":"一段","MAREA":" ","LANE":"１８５巷","ALLEY":"１０弄","HOUSE_NO":"２５號","E_COORD97":175540.70000000001,"N_COORD97":2546495.0699999998,"ADDRESS":"富強路一段１８５巷１０弄２５號","OBJECTID":47938},"geometry":{"x":175540.70000000112,"y":2546495.0700000003}},{"attributes":{"ID":47939,"DIS_CODE":0,"TOWNNAME":"永康區","LI":"西勢里","LIN":"20鄰","STREET":"富強路","SECT":"一段","MAREA":" ","LANE":"１８５巷","ALLEY":"２弄","HOUSE_NO":"２３號","E_COORD97":175590.39999999999,"N_COORD97":2546451.2799999998,"ADDRESS":"富強路一段１８５巷２弄２３號","OBJECTID":47939},"geometry":{"x":175590.4000000013,"y":2546451.2799999993}},{"attributes":{"ID":47940,"DIS_CODE":0,"TOWNNAME":"南區","LI":"府南里","LIN":"20鄰","STREET":"永成路","SECT":"三段","MAREA":" ","LANE":"４６１巷","ALLEY":"６弄","HOUSE_NO":"２２號","E_COORD97":167423.577831,"N_COORD97":2541580.4781300002,"ADDRESS":"永成路三段４６１巷６弄２２號","OBJECTID":47940},"geometry":{"x":167423.57783100102,"y":2541580.478131}},{"attributes":{"ID":47941,"DIS_CODE":0,"TOWNNAME":"永康區","LI":"西勢里","LIN":"20鄰","STREET":"富強路","SECT":"一段","MAREA":" ","LANE":"１８５巷","ALLEY":"１０弄","HOUSE_NO":"２１號","E_COORD97":175535.64000000001,"N_COORD97":2546487.5699999998,"ADDRESS":"富強路一段１８５巷１０弄２１號","OBJECTID":47941},"geometry":{"x":175535.6400000006,"y":2546487.5700000003}},{"attributes":{"ID":47942,"DIS_CODE":0,"TOWNNAME":"永康區","LI":"西勢里","LIN":"20鄰","STREET":"富強路","SECT":"一段","MAREA":" ","LANE":"１８５巷","ALLEY":"２弄","HOUSE_NO":"２８號","E_COORD97":175581.14000000001,"N_COORD97":2546470.6200000001,"ADDRESS":"富強路一段１８５巷２弄２８號","OBJECTID":47942},"geometry":{"x":175581.1400000006,"y":2546470.6200000029}},{"attributes":{"ID":47943,"DIS_CODE":0,"TOWNNAME":"永康區","LI":"西勢里","LIN":"20鄰","STREET":"富強路","SECT":"一段","MAREA":" ","LANE":"１８５巷","ALLEY":"１０弄","HOUSE_NO":"２２號","E_COORD97":175555.09,"N_COORD97":2546481.5699999998,"ADDRESS":"富強路一段１８５巷１０弄２２號","OBJECTID":47943},"geometry":{"x":175555.09000000078,"y":2546481.5700000003}},{"attributes":{"ID":47944,"DIS_CODE":0,"TOWNNAME":"永康區","LI":"西勢里","LIN":"20鄰","STREET":"富強路","SECT":"一段","MAREA":" ","LANE":"１８５巷","ALLEY":"２弄","HOUSE_NO":"３８號","E_COORD97":175592.39000000001,"N_COORD97":2546488.8700000001,"ADDRESS":"富強路一段１８５巷２弄３８號","OBJECTID":47944},"geometry":{"x":175592.38999999966,"y":2546488.8700000029}},{"attributes":{"ID":47945,"DIS_CODE":0,"TOWNNAME":"永康區","LI":"西勢里","LIN":"20鄰","STREET":"富強路","SECT":"一段","MAREA":" ","LANE":"１８５巷","ALLEY":"２弄","HOUSE_NO":"２６號","E_COORD97":175579,"N_COORD97":2546466.6200000001,"ADDRESS":"富強路一段１８５巷２弄２６號","OBJECTID":47945},"geometry":{"x":175579.00000000186,"y":2546466.6200000029}},{"attributes":{"ID":47946,"DIS_CODE":0,"TOWNNAME":"永康區","LI":"西勢里","LIN":"20鄰","STREET":"富強路","SECT":"一段","MAREA":" ","LANE":"１８５巷","ALLEY":"２弄","HOUSE_NO":"１１號","E_COORD97":175577.81,"N_COORD97":2546428.0299999998,"ADDRESS":"富強路一段１８５巷２弄１１號","OBJECTID":47946},"geometry":{"x":175577.80999999959,"y":2546428.0300000012}},{"attributes":{"ID":47947,"DIS_CODE":0,"TOWNNAME":"永康區","LI":"西勢里","LIN":"20鄰","STREET":"富強路","SECT":"一段","MAREA":" ","LANE":"１８５巷","ALLEY":"２弄","HOUSE_NO":"３０號","E_COORD97":175583.25,"N_COORD97":2546474.3700000001,"ADDRESS":"富強路一段１８５巷２弄３０號","OBJECTID":47947},"geometry":{"x":175583.25,"y":2546474.3700000029}},{"attributes":{"ID":47948,"DIS_CODE":0,"TOWNNAME":"永康區","LI":"西勢里","LIN":"20鄰","STREET":"富強路","SECT":"一段","MAREA":" ","LANE":"１８５巷","ALLEY":"１０弄","HOUSE_NO":"２３號","E_COORD97":175537.20000000001,"N_COORD97":2546491.3199999998,"ADDRESS":"富強路一段１８５巷１０弄２３號","OBJECTID":47948},"geometry":{"x":175537.20000000112,"y":2546491.3200000022}},{"attributes":{"ID":47949,"DIS_CODE":0,"TOWNNAME":"永康區","LI":"西勢里","LIN":"20鄰","STREET":"富強路","SECT":"一段","MAREA":" ","LANE":"１８５巷","ALLEY":"２弄","HOUSE_NO":"３１號","E_COORD97":175599.19,"N_COORD97":2546466.52,"ADDRESS":"富強路一段１８５巷２弄３１號","OBJECTID":47949},"geometry":{"x":175599.19000000134,"y":2546466.5199999996}},{"attributes":{"ID":47950,"DIS_CODE":0,"TOWNNAME":"永康區","LI":"西勢里","LIN":"20鄰","STREET":"富強路","SECT":"一段","MAREA":" ","LANE":"１８５巷","ALLEY":"１０弄","HOUSE_NO":"１０號","E_COORD97":175544.54000000001,"N_COORD97":2546463.3199999998,"ADDRESS":"富強路一段１８５巷１０弄１０號","OBJECTID":47950},"geometry":{"x":175544.54000000004,"y":2546463.3199999984}},{"attributes":{"ID":47951,"DIS_CODE":0,"TOWNNAME":"永康區","LI":"西勢里","LIN":"20鄰","STREET":"富強路","SECT":"一段","MAREA":" ","LANE":"１８５巷","ALLEY":"１０弄","HOUSE_NO":"２７號","E_COORD97":175543.19,"N_COORD97":2546498.3199999998,"ADDRESS":"富強路一段１８５巷１０弄２７號","OBJECTID":47951},"geometry":{"x":175543.19000000134,"y":2546498.3200000022}},{"attributes":{"ID":47952,"DIS_CODE":0,"TOWNNAME":"永康區","LI":"勝利里","LIN":"17鄰","STREET":"中華一路","SECT":" ","MAREA":" ","LANE":" ","ALLEY":" ","HOUSE_NO":"３３２號","E_COORD97":171198.39999999999,"N_COORD97":2545000.75,"ADDRESS":"中華一路３３２號","OBJECTID":47952},"geometry":{"x":171198.4000000013,"y":2545000.75}},{"attributes":{"ID":47953,"DIS_CODE":0,"TOWNNAME":"永康區","LI":"埔園里","LIN":"17鄰","STREET":"八德街","SECT":" ","MAREA":" ","LANE":" ","ALLEY":" ","HOUSE_NO":"４２８號","E_COORD97":173372.67000000001,"N_COORD97":2548544.98,"ADDRESS":"八德街４２８號","OBJECTID":47953},"geometry":{"x":173372.67000000086,"y":2548544.9800000023}},{"attributes":{"ID":47954,"DIS_CODE":0,"TOWNNAME":"永康區","LI":"龍潭里","LIN":"17鄰","STREET":"龍潭街","SECT":" ","MAREA":" ","LANE":" ","ALLEY":" ","HOUSE_NO":"２０３號","E_COORD97":174952.75,"N_COORD97":2548392.9900000002,"ADDRESS":"龍潭街２０３號","OBJECTID":47954},"geometry":{"x":174952.75,"y":2548392.9900000021}},{"attributes":{"ID":47955,"DIS_CODE":0,"TOWNNAME":"仁德區","LI":"田厝里","LIN":" ","STREET":"保安路","SECT":"二段","MAREA":" ","LANE":" ","ALLEY":" ","HOUSE_NO":"６４６號","E_COORD97":172824.54000000001,"N_COORD97":2537593.0600000001,"ADDRESS":"保安路二段６４６號","OBJECTID":47955},"geometry":{"x":172824.54000000097,"y":2537593.0600000042}},{"attributes":{"ID":47956,"DIS_CODE":0,"TOWNNAME":"仁德區","LI":"田厝里","LIN":" ","STREET":"保安路","SECT":"二段","MAREA":" ","LANE":" ","ALLEY":" ","HOUSE_NO":"３７０之５號","E_COORD97":172128.23999999999,"N_COORD97":2537333.0699999998,"ADDRESS":"保安路二段３７０之５號","OBJECTID":47956},"geometry":{"x":172128.24000000115,"y":2537333.0700000022}},{"attributes":{"ID":47957,"DIS_CODE":0,"TOWNNAME":"仁德區","LI":"田厝里","LIN":" ","STREET":"保安路","SECT":"二段","MAREA":" ","LANE":" ","ALLEY":" ","HOUSE_NO":"６４７號","E_COORD97":172838.10000000001,"N_COORD97":2537609.8199999998,"ADDRESS":"保安路二段６４７號","OBJECTID":47957},"geometry":{"x":172838.09999999963,"y":2537609.8200000003}},{"attributes":{"ID":47958,"DIS_CODE":0,"TOWNNAME":"仁德區","LI":"仁義里","LIN":" ","STREET":"正義二街","SECT":" ","MAREA":" ","LANE":" ","ALLEY":" ","HOUSE_NO":"９０之９號","E_COORD97":173663.35999999999,"N_COORD97":2541553.5499999998,"ADDRESS":"正義二街９０之９號","OBJECTID":47958},"geometry":{"x":173663.36000000127,"y":2541553.5500000026}},{"attributes":{"ID":47959,"DIS_CODE":0,"TOWNNAME":"仁德區","LI":"田厝里","LIN":" ","STREET":"田厝二街","SECT":" ","MAREA":" ","LANE":" ","ALLEY":" ","HOUSE_NO":"１２號","E_COORD97":172495.10999999999,"N_COORD97":2537569.2400000002,"ADDRESS":"田厝二街１２號","OBJECTID":47959},"geometry":{"x":172495.11000000127,"y":2537569.2400000021}},{"attributes":{"ID":47960,"DIS_CODE":0,"TOWNNAME":"仁德區","LI":"保安里","LIN":" ","STREET":"保安路","SECT":"一段","MAREA":" ","LANE":" ","ALLEY":" ","HOUSE_NO":"９０之６號","E_COORD97":170933.81,"N_COORD97":2536507.3199999998,"ADDRESS":"保安路一段９０之６號","OBJECTID":47960},"geometry":{"x":170933.81000000052,"y":2536507.3200000022}},{"attributes":{"ID":47961,"DIS_CODE":0,"TOWNNAME":"仁德區","LI":"土庫里","LIN":" ","STREET":"中正路","SECT":"三段","MAREA":" ","LANE":" ","ALLEY":" ","HOUSE_NO":"４８１號","E_COORD97":173978.89999999999,"N_COORD97":2542915.0299999998,"ADDRESS":"中正路三段４８１號","OBJECTID":47961},"geometry":{"x":173978.90000000037,"y":2542915.0300000012}},{"attributes":{"ID":47962,"DIS_CODE":0,"TOWNNAME":"仁德區","LI":"田厝里","LIN":" ","STREET":"保安路","SECT":"二段","MAREA":" ","LANE":" ","ALLEY":" ","HOUSE_NO":"５７１號","E_COORD97":172643.85000000001,"N_COORD97":2537584.8100000001,"ADDRESS":"保安路二段５７１號","OBJECTID":47962},"geometry":{"x":172643.85000000056,"y":2537584.8100000024}},{"attributes":{"ID":47963,"DIS_CODE":0,"TOWNNAME":"仁德區","LI":"太子里","LIN":" ","STREET":"長興一街","SECT":" ","MAREA":" ","LANE":" ","ALLEY":" ","HOUSE_NO":"８６號","E_COORD97":174413.79000000001,"N_COORD97":2543849.7599999998,"ADDRESS":"長興一街８６號","OBJECTID":47963},"geometry":{"x":174413.79000000004,"y":2543849.7600000016}},{"attributes":{"ID":47964,"DIS_CODE":0,"TOWNNAME":"仁德區","LI":"太子里","LIN":"25鄰","STREET":"長興五街","SECT":" ","MAREA":" ","LANE":" ","ALLEY":" ","HOUSE_NO":"１６號","E_COORD97":173579.66,"N_COORD97":2543604.5,"ADDRESS":"長興五街１４號","OBJECTID":47964},"geometry":{"x":173579.66000000108,"y":2543604.5000000019}},{"attributes":{"ID":47965,"DIS_CODE":0,"TOWNNAME":"白河區","LI":"外角里","LIN":"1鄰","STREET":" ","SECT":" ","MAREA":"崎子頭","LANE":" ","ALLEY":" ","HOUSE_NO":"５號","E_COORD97":190794.75,"N_COORD97":2583237.52,"ADDRESS":"崎子頭５號","OBJECTID":47965},"geometry":{"x":190794.75,"y":2583237.5200000014}},{"attributes":{"ID":47966,"DIS_CODE":0,"TOWNNAME":"永康區","LI":"西勢里","LIN":"20鄰","STREET":"富強路","SECT":"一段","MAREA":" ","LANE":"１８５巷","ALLEY":"１０弄","HOUSE_NO":"８號","E_COORD97":175541.22,"N_COORD97":2546459.3199999998,"ADDRESS":"富強路一段１８５巷１０弄８號","OBJECTID":47966},"geometry":{"x":175541.21999999974,"y":2546459.3200000003}},{"attributes":{"ID":47967,"DIS_CODE":0,"TOWNNAME":"東區","LI":"富強里","LIN":"20鄰","STREET":"裕農路","SECT":" ","MAREA":" ","LANE":"２８８巷","ALLEY":"９６弄","HOUSE_NO":"７１號","E_COORD97":170996.79000000001,"N_COORD97":2542753.9100000001,"ADDRESS":"裕農路２８８巷９６弄７１號","OBJECTID":47967},"geometry":{"x":170996.79000000097,"y":2542753.910000002}},{"attributes":{"ID":47968,"DIS_CODE":0,"TOWNNAME":"東區","LI":"富強里","LIN":"20鄰","STREET":"裕農路","SECT":" ","MAREA":" ","LANE":"２８８巷","ALLEY":"９６弄","HOUSE_NO":"７３號","E_COORD97":170996.79000000001,"N_COORD97":2542748.3500000001,"ADDRESS":"裕農路２８８巷９６弄７３號","OBJECTID":47968},"geometry":{"x":170996.79000000097,"y":2542748.3500000015}},{"attributes":{"ID":47969,"DIS_CODE":0,"TOWNNAME":"仁德區","LI":"太子里","LIN":" ","STREET":"長興四街","SECT":" ","MAREA":" ","LANE":" ","ALLEY":" ","HOUSE_NO":"２４號","E_COORD97":174017.92999999999,"N_COORD97":2543646.2599999998,"ADDRESS":"長興四街２４號","OBJECTID":47969},"geometry":{"x":174017.93000000063,"y":2543646.2600000016}},{"attributes":{"ID":47970,"DIS_CODE":0,"TOWNNAME":"安南區","LI":"佃東里","LIN":"20鄰","STREET":"公學路","SECT":"四段","MAREA":" ","LANE":"５４巷","ALLEY":"４３弄","HOUSE_NO":"１７號","E_COORD97":165746.82000000001,"N_COORD97":2552172.0800000001,"ADDRESS":"公學路四段５４巷４３弄１７號","OBJECTID":47970},"geometry":{"x":165746.82000000123,"y":2552172.0800000019}},{"attributes":{"ID":47971,"DIS_CODE":0,"TOWNNAME":"安南區","LI":"佃東里","LIN":"20鄰","STREET":"公學路","SECT":"四段","MAREA":" ","LANE":"５４巷","ALLEY":"２３弄","HOUSE_NO":"１０號","E_COORD97":165764.63,"N_COORD97":2552141.0800000001,"ADDRESS":"公學路四段５４巷２３弄１０號","OBJECTID":47971},"geometry":{"x":165764.63000000082,"y":2552141.0800000019}},{"attributes":{"ID":47972,"DIS_CODE":0,"TOWNNAME":"安南區","LI":"佃東里","LIN":"20鄰","STREET":"公學路","SECT":"四段","MAREA":" ","LANE":"５４巷","ALLEY":"２３弄","HOUSE_NO":"１２號","E_COORD97":165759.78,"N_COORD97":2552136.6800000002,"ADDRESS":"公學路四段５４巷２３弄１２號","OBJECTID":47972},"geometry":{"x":165759.78000000026,"y":2552136.6800000016}},{"attributes":{"ID":47973,"DIS_CODE":0,"TOWNNAME":"安南區","LI":"佃東里","LIN":"20鄰","STREET":"公學路","SECT":"四段","MAREA":" ","LANE":"５４巷","ALLEY":"２３弄","HOUSE_NO":"１４號","E_COORD97":165755.72,"N_COORD97":2552142.23,"ADDRESS":"公學路四段５４巷２３弄１４號","OBJECTID":47973},"geometry":{"x":165755.72000000067,"y":2552142.2300000004}},{"attributes":{"ID":47974,"DIS_CODE":0,"TOWNNAME":"安南區","LI":"佃東里","LIN":"20鄰","STREET":"公學路","SECT":"四段","MAREA":" ","LANE":"５４巷","ALLEY":"２３弄","HOUSE_NO":"１６號","E_COORD97":165750.60999999999,"N_COORD97":2552136.7599999998,"ADDRESS":"公學路四段５４巷２３弄１６號","OBJECTID":47974},"geometry":{"x":165750.61000000127,"y":2552136.7600000016}},{"attributes":{"ID":47975,"DIS_CODE":0,"TOWNNAME":"安南區","LI":"佃東里","LIN":"20鄰","STREET":"公學路","SECT":"四段","MAREA":" ","LANE":"５４巷","ALLEY":"２３弄","HOUSE_NO":"１８號","E_COORD97":165746.37,"N_COORD97":2552142.6699999999,"ADDRESS":"公學路四段５４巷２３弄１８號","OBJECTID":47975},"geometry":{"x":165746.37000000104,"y":2552142.6699999999}},{"attributes":{"ID":47976,"DIS_CODE":0,"TOWNNAME":"安南區","LI":"佃東里","LIN":"20鄰","STREET":"公學路","SECT":"四段","MAREA":" ","LANE":"５４巷","ALLEY":"２３弄","HOUSE_NO":"２０號","E_COORD97":165741.35000000001,"N_COORD97":2552137.29,"ADDRESS":"公學路四段５４巷２３弄２０號","OBJECTID":47976},"geometry":{"x":165741.35000000056,"y":2552137.2899999991}},{"attributes":{"ID":47977,"DIS_CODE":0,"TOWNNAME":"安南區","LI":"佃東里","LIN":"20鄰","STREET":"公學路","SECT":"四段","MAREA":" ","LANE":"５４巷","ALLEY":"２３弄","HOUSE_NO":"２號","E_COORD97":165782.45000000001,"N_COORD97":2552136.6800000002,"ADDRESS":"公學路四段５４巷２３弄２號","OBJECTID":47977},"geometry":{"x":165782.45000000019,"y":2552136.6800000016}},{"attributes":{"ID":47978,"DIS_CODE":0,"TOWNNAME":"安南區","LI":"佃東里","LIN":"20鄰","STREET":"公學路","SECT":"四段","MAREA":" ","LANE":"５４巷","ALLEY":"２３弄","HOUSE_NO":"４號","E_COORD97":165777.95000000001,"N_COORD97":2552137.29,"ADDRESS":"公學路四段５４巷２３弄４號","OBJECTID":47978},"geometry":{"x":165777.95000000205,"y":2552137.2899999991}},{"attributes":{"ID":47979,"DIS_CODE":0,"TOWNNAME":"安南區","LI":"佃東里","LIN":"20鄰","STREET":"公學路","SECT":"四段","MAREA":" ","LANE":"５４巷","ALLEY":"２３弄","HOUSE_NO":"６號","E_COORD97":165773.89000000001,"N_COORD97":2552139.23,"ADDRESS":"公學路四段５４巷２３弄６號","OBJECTID":47979},"geometry":{"x":165773.88999999966,"y":2552139.2300000004}},{"attributes":{"ID":47980,"DIS_CODE":0,"TOWNNAME":"安南區","LI":"佃東里","LIN":"20鄰","STREET":"公學路","SECT":"四段","MAREA":" ","LANE":"５４巷","ALLEY":"２３弄","HOUSE_NO":"８號","E_COORD97":165768.78,"N_COORD97":2552136.3199999998,"ADDRESS":"公學路四段５４巷２３弄８號","OBJECTID":47980},"geometry":{"x":165768.77999999933,"y":2552136.3200000022}},{"attributes":{"ID":47981,"DIS_CODE":0,"TOWNNAME":"東區","LI":"崇善里","LIN":"17鄰","STREET":"崇善路","SECT":" ","MAREA":" ","LANE":" ","ALLEY":" ","HOUSE_NO":"８２９號","E_COORD97":171269.60999999999,"N_COORD97":2540860.7799999998,"ADDRESS":"崇善路８２９號","OBJECTID":47981},"geometry":{"x":171269.61000000127,"y":2540860.7799999993}},{"attributes":{"ID":47982,"DIS_CODE":0,"TOWNNAME":"東區","LI":"崇善里","LIN":"17鄰","STREET":"崇善路","SECT":" ","MAREA":" ","LANE":" ","ALLEY":" ","HOUSE_NO":"８３１號","E_COORD97":171273.04000000001,"N_COORD97":2540857.0499999998,"ADDRESS":"崇善路８３１號","OBJECTID":47982},"geometry":{"x":171273.04000000097,"y":2540857.0500000007}},{"attributes":{"ID":47983,"DIS_CODE":0,"TOWNNAME":"仁德區","LI":"土庫里","LIN":" ","STREET":"太乙路","SECT":" ","MAREA":" ","LANE":" ","ALLEY":" ","HOUSE_NO":"６６號","E_COORD97":173203.37,"N_COORD97":2542550,"ADDRESS":"太乙路６６號","OBJECTID":47983},"geometry":{"x":173203.37000000197,"y":2542550.0000000019}},{"attributes":{"ID":47984,"DIS_CODE":0,"TOWNNAME":"善化區","LI":"小新里","LIN":"15鄰","STREET":" ","SECT":" ","MAREA":"小新營","LANE":" ","ALLEY":" ","HOUSE_NO":"１１２號之５","E_COORD97":179833.95999999999,"N_COORD97":2558093.52,"ADDRESS":"小新營１１２號之５","OBJECTID":47984},"geometry":{"x":179833.95999999903,"y":2558093.5199999977}},{"attributes":{"ID":47985,"DIS_CODE":0,"TOWNNAME":"善化區","LI":"牛庄里","LIN":"15鄰","STREET":" ","SECT":" ","MAREA":"牛庄","LANE":" ","ALLEY":" ","HOUSE_NO":"１３５號之２５","E_COORD97":179886.82999999999,"N_COORD97":2560020.52,"ADDRESS":"牛庄１３５號之２５","OBJECTID":47985},"geometry":{"x":179886.83000000007,"y":2560020.5200000014}},{"attributes":{"ID":47986,"DIS_CODE":0,"TOWNNAME":"官田區","LI":"東庄里","LIN":"15鄰","STREET":" ","SECT":" ","MAREA":"西庄","LANE":" ","ALLEY":" ","HOUSE_NO":"１９３號之５","E_COORD97":177905,"N_COORD97":2564998.2799999998,"ADDRESS":"西庄１９３號之５","OBJECTID":47986},"geometry":{"x":177905.00000000093,"y":2564998.2800000012}},{"attributes":{"ID":47987,"DIS_CODE":0,"TOWNNAME":"官田區","LI":"東庄里","LIN":"15鄰","STREET":" ","SECT":" ","MAREA":"西庄","LANE":" ","ALLEY":" ","HOUSE_NO":"１９３號之６","E_COORD97":177905.85000000001,"N_COORD97":2565001.8300000001,"ADDRESS":"西庄１９３號之６","OBJECTID":47987},"geometry":{"x":177905.85000000056,"y":2565001.8300000038}},{"attributes":{"ID":47988,"DIS_CODE":0,"TOWNNAME":"官田區","LI":"東庄里","LIN":"15鄰","STREET":" ","SECT":" ","MAREA":"西庄","LANE":" ","ALLEY":" ","HOUSE_NO":"１９３號之７","E_COORD97":177913.59,"N_COORD97":2564966.6499999999,"ADDRESS":"西庄１９３號之７","OBJECTID":47988},"geometry":{"x":177913.58999999985,"y":2564966.6500000022}},{"attributes":{"ID":47989,"DIS_CODE":0,"TOWNNAME":"官田區","LI":"東庄里","LIN":"15鄰","STREET":" ","SECT":" ","MAREA":"西庄","LANE":" ","ALLEY":" ","HOUSE_NO":"１９３號之８","E_COORD97":177913.64000000001,"N_COORD97":2564971.8100000001,"ADDRESS":"西庄１９３號之８","OBJECTID":47989},"geometry":{"x":177913.64000000153,"y":2564971.8100000042}},{"attributes":{"ID":47990,"DIS_CODE":0,"TOWNNAME":"官田區","LI":"二鎮里","LIN":"15鄰","STREET":" ","SECT":" ","MAREA":"角秀","LANE":" ","ALLEY":" ","HOUSE_NO":"１０號","E_COORD97":182358.07000000001,"N_COORD97":2568018.2200000002,"ADDRESS":"角秀１０號","OBJECTID":47990},"geometry":{"x":182358.07000000123,"y":2568018.2200000025}},{"attributes":{"ID":47991,"DIS_CODE":0,"TOWNNAME":"官田區","LI":"二鎮里","LIN":"15鄰","STREET":" ","SECT":" ","MAREA":"角秀","LANE":" ","ALLEY":" ","HOUSE_NO":"１１號之１０","E_COORD97":181540.54000000001,"N_COORD97":2568209.1899999999,"ADDRESS":"角秀１１號之１０","OBJECTID":47991},"geometry":{"x":181540.53999999911,"y":2568209.1899999976}},{"attributes":{"ID":47992,"DIS_CODE":0,"TOWNNAME":"官田區","LI":"二鎮里","LIN":"15鄰","STREET":" ","SECT":" ","MAREA":"角秀","LANE":" ","ALLEY":" ","HOUSE_NO":"１１號之１１","E_COORD97":181531.51999999999,"N_COORD97":2568210.2799999998,"ADDRESS":"角秀１１號之１１","OBJECTID":47992},"geometry":{"x":181531.51999999955,"y":2568210.2800000012}},{"attributes":{"ID":47993,"DIS_CODE":0,"TOWNNAME":"官田區","LI":"二鎮里","LIN":"15鄰","STREET":" ","SECT":" ","MAREA":"角秀","LANE":" ","ALLEY":" ","HOUSE_NO":"１１號之１２","E_COORD97":181954.28,"N_COORD97":2568040.9300000002,"ADDRESS":"角秀１１號之１２","OBJECTID":47993},"geometry":{"x":181954.28000000026,"y":2568040.9299999997}},{"attributes":{"ID":47994,"DIS_CODE":0,"TOWNNAME":"官田區","LI":"二鎮里","LIN":"15鄰","STREET":" ","SECT":" ","MAREA":"角秀","LANE":" ","ALLEY":" ","HOUSE_NO":"１１號之１３","E_COORD97":181950.81,"N_COORD97":2568042.48,"ADDRESS":"角秀１１號之１３","OBJECTID":47994},"geometry":{"x":181950.81000000052,"y":2568042.4800000042}},{"attributes":{"ID":47995,"DIS_CODE":0,"TOWNNAME":"官田區","LI":"二鎮里","LIN":"15鄰","STREET":" ","SECT":" ","MAREA":"角秀","LANE":" ","ALLEY":" ","HOUSE_NO":"１１號之１４","E_COORD97":181946.25,"N_COORD97":2568044.0099999998,"ADDRESS":"角秀１１號之１４","OBJECTID":47995},"geometry":{"x":181946.25000000093,"y":2568044.0099999998}},{"attributes":{"ID":47996,"DIS_CODE":0,"TOWNNAME":"官田區","LI":"二鎮里","LIN":"15鄰","STREET":" ","SECT":" ","MAREA":"角秀","LANE":" ","ALLEY":" ","HOUSE_NO":"１１號之１５","E_COORD97":181942.62,"N_COORD97":2568045.1099999999,"ADDRESS":"角秀１１號之１５","OBJECTID":47996},"geometry":{"x":181942.62000000104,"y":2568045.1100000013}},{"attributes":{"ID":47997,"DIS_CODE":0,"TOWNNAME":"官田區","LI":"二鎮里","LIN":"15鄰","STREET":" ","SECT":" ","MAREA":"角秀","LANE":" ","ALLEY":" ","HOUSE_NO":"１１號之１６","E_COORD97":181938.67000000001,"N_COORD97":2568047.0099999998,"ADDRESS":"角秀１１號之１６","OBJECTID":47997},"geometry":{"x":181938.67000000086,"y":2568047.0099999998}},{"attributes":{"ID":47998,"DIS_CODE":0,"TOWNNAME":"官田區","LI":"二鎮里","LIN":"15鄰","STREET":" ","SECT":" ","MAREA":"角秀","LANE":" ","ALLEY":" ","HOUSE_NO":"１１號之１７","E_COORD97":181934.01000000001,"N_COORD97":2568048.5800000001,"ADDRESS":"角秀１１號之１７","OBJECTID":47998},"geometry":{"x":181934.01000000071,"y":2568048.5800000019}},{"attributes":{"ID":47999,"DIS_CODE":0,"TOWNNAME":"官田區","LI":"二鎮里","LIN":"15鄰","STREET":" ","SECT":" ","MAREA":"角秀","LANE":" ","ALLEY":" ","HOUSE_NO":"１１號之１","E_COORD97":181625.31,"N_COORD97":2568217.7400000002,"ADDRESS":"角秀１１號之１","OBJECTID":47999},"geometry":{"x":181625.31000000052,"y":2568217.7400000021}},{"attributes":{"ID":48000,"DIS_CODE":0,"TOWNNAME":"官田區","LI":"二鎮里","LIN":"15鄰","STREET":" ","SECT":" ","MAREA":"角秀","LANE":" ","ALLEY":" ","HOUSE_NO":"１１號之２５","E_COORD97":181841.54999999999,"N_COORD97":2568156.7799999998,"ADDRESS":"角秀１１號之２５","OBJECTID":48000},"geometry":{"x":181841.54999999981,"y":2568156.7799999993}}]}