{"displayFieldName":"TOWNNAME","fieldAliases":{"ID":"ID","DIS_CODE":"DIS_CODE","TOWNNAME":"TOWNNAME","LI":"LI","LIN":"LIN","STREET":"STREET","SECT":"SECT","MAREA":"MAREA","LANE":"LANE","ALLEY":"ALLEY","HOUSE_NO":"HOUSE_NO","E_COORD97":"E_COORD97","N_COORD97":"N_COORD97","ADDRESS":"ADDRESS","OBJECTID":"OBJECTID"},"geometryType":"esriGeometryPoint","spatialReference":{"wkid":102443,"latestWkid":3826},"fields":[{"name":"ID","type":"esriFieldTypeDouble","alias":"ID"},{"name":"DIS_CODE","type":"esriFieldTypeInteger","alias":"DIS_CODE"},{"name":"TOWNNAME","type":"esriFieldTypeString","alias":"TOWNNAME","length":8},{"name":"LI","type":"esriFieldTypeString","alias":"LI","length":8},{"name":"LIN","type":"esriFieldTypeString","alias":"LIN","length":12},{"name":"STREET","type":"esriFieldTypeString","alias":"STREET","length":20},{"name":"SECT","type":"esriFieldTypeString","alias":"SECT","length":8},{"name":"MAREA","type":"esriFieldTypeString","alias":"MAREA","length":12},{"name":"LANE","type":"esriFieldTypeString","alias":"LANE","length":10},{"name":"ALLEY","type":"esriFieldTypeString","alias":"ALLEY","length":10},{"name":"HOUSE_NO","type":"esriFieldTypeString","alias":"HOUSE_NO","length":20},{"name":"E_COORD97","type":"esriFieldTypeDouble","alias":"E_COORD97"},{"name":"N_COORD97","type":"esriFieldTypeDouble","alias":"N_COORD97"},{"name":"ADDRESS","type":"esriFieldTypeString","alias":"ADDRESS","length":50},{"name":"OBJECTID","type":"esriFieldTypeOID","alias":"OBJECTID"}],"features":[{"attributes":{"ID":392225,"DIS_CODE":0,"TOWNNAME":"歸仁區","LI":"南興里","LIN":"23鄰","STREET":"文化二十街","SECT":" ","MAREA":" ","LANE":"１２巷","ALLEY":" ","HOUSE_NO":"１４號","E_COORD97":175522.34,"N_COORD97":2541231.3300000001,"ADDRESS":"文化二十街１２巷１４號","OBJECTID":392201},"geometry":{"x":175522.34000000078,"y":2541231.3300000001}},{"attributes":{"ID":392226,"DIS_CODE":0,"TOWNNAME":"新營區","LI":"南紙里","LIN":"23鄰","STREET":"南紙街","SECT":" ","MAREA":" ","LANE":"１１７巷","ALLEY":" ","HOUSE_NO":"２０號","E_COORD97":177863.92999999999,"N_COORD97":2577469.9700000002,"ADDRESS":"南紙街１１７巷２０號","OBJECTID":392202},"geometry":{"x":177863.9299999997,"y":2577469.9700000007}},{"attributes":{"ID":392227,"DIS_CODE":0,"TOWNNAME":"新營區","LI":"忠政里","LIN":"23鄰","STREET":"府西路","SECT":" ","MAREA":" ","LANE":"２０１巷","ALLEY":" ","HOUSE_NO":"２７號","E_COORD97":179696.57999999999,"N_COORD97":2579529.8799999999,"ADDRESS":"府西路２０１巷２７號","OBJECTID":392203},"geometry":{"x":179696.58000000101,"y":2579529.879999999}},{"attributes":{"ID":392228,"DIS_CODE":0,"TOWNNAME":"新營區","LI":"民榮里","LIN":"23鄰","STREET":"裕民路","SECT":" ","MAREA":" ","LANE":"３４巷","ALLEY":" ","HOUSE_NO":"２４號","E_COORD97":179066.82000000001,"N_COORD97":2577881.6699999999,"ADDRESS":"裕民路３４巷２４號","OBJECTID":392204},"geometry":{"x":179066.8200000003,"y":2577881.6699999999}},{"attributes":{"ID":392229,"DIS_CODE":0,"TOWNNAME":"新營區","LI":"民榮里","LIN":"23鄰","STREET":"裕民路","SECT":" ","MAREA":" ","LANE":"３４巷","ALLEY":" ","HOUSE_NO":"１０號","E_COORD97":179097.44,"N_COORD97":2577881.52,"ADDRESS":"裕民路３４巷１０號","OBJECTID":392205},"geometry":{"x":179097.44000000134,"y":2577881.5200000014}},{"attributes":{"ID":392230,"DIS_CODE":0,"TOWNNAME":"新營區","LI":"南紙里","LIN":"23鄰","STREET":"南紙街","SECT":" ","MAREA":" ","LANE":"１１７巷","ALLEY":" ","HOUSE_NO":"６號","E_COORD97":177832.95999999999,"N_COORD97":2577471.2200000002,"ADDRESS":"南紙街１１７巷６號","OBJECTID":392206},"geometry":{"x":177832.95999999996,"y":2577471.2200000025}},{"attributes":{"ID":392231,"DIS_CODE":0,"TOWNNAME":"新營區","LI":"忠政里","LIN":"23鄰","STREET":"府西路","SECT":" ","MAREA":" ","LANE":"１８７巷","ALLEY":" ","HOUSE_NO":"２０號","E_COORD97":179732.10000000001,"N_COORD97":2579473.2400000002,"ADDRESS":"府西路１８７巷２０號","OBJECTID":392207},"geometry":{"x":179732.09999999963,"y":2579473.2400000021}},{"attributes":{"ID":392232,"DIS_CODE":0,"TOWNNAME":"永康區","LI":"復華里","LIN":"28鄰","STREET":"復華八街","SECT":" ","MAREA":" ","LANE":"４３巷","ALLEY":" ","HOUSE_NO":"１８號","E_COORD97":172716.98999999999,"N_COORD97":2546322.2799999998,"ADDRESS":"復華八街４３巷１８號","OBJECTID":392208},"geometry":{"x":172716.99000000022,"y":2546322.2799999993}},{"attributes":{"ID":392233,"DIS_CODE":0,"TOWNNAME":"新營區","LI":"民榮里","LIN":"23鄰","STREET":"裕民路","SECT":" ","MAREA":" ","LANE":"１６巷","ALLEY":" ","HOUSE_NO":"１３號","E_COORD97":179089.39999999999,"N_COORD97":2577911.4700000002,"ADDRESS":"裕民路１６巷１３號","OBJECTID":392209},"geometry":{"x":179089.4000000013,"y":2577911.4700000007}},{"attributes":{"ID":392234,"DIS_CODE":0,"TOWNNAME":"新營區","LI":"忠政里","LIN":"23鄰","STREET":"府西路","SECT":" ","MAREA":" ","LANE":"１８７巷","ALLEY":" ","HOUSE_NO":"１７號","E_COORD97":179738.07999999999,"N_COORD97":2579454.3900000001,"ADDRESS":"府西路１８７巷１７號","OBJECTID":392210},"geometry":{"x":179738.08000000007,"y":2579454.3900000006}},{"attributes":{"ID":392235,"DIS_CODE":0,"TOWNNAME":"鹽水區","LI":"橋南里","LIN":"23鄰","STREET":"新中路","SECT":" ","MAREA":" ","LANE":"８２巷","ALLEY":" ","HOUSE_NO":"１３９號","E_COORD97":175706.42000000001,"N_COORD97":2578680.8500000001,"ADDRESS":"新中路８２巷１３９號","OBJECTID":392211},"geometry":{"x":175706.41999999899,"y":2578680.8499999996}},{"attributes":{"ID":392236,"DIS_CODE":0,"TOWNNAME":"鹽水區","LI":"橋南里","LIN":"23鄰","STREET":"新中路","SECT":" ","MAREA":" ","LANE":"８２巷","ALLEY":" ","HOUSE_NO":"１４１號","E_COORD97":175702.82000000001,"N_COORD97":2578681.8599999999,"ADDRESS":"新中路８２巷１４１號","OBJECTID":392212},"geometry":{"x":175702.82000000123,"y":2578681.8600000013}},{"attributes":{"ID":392237,"DIS_CODE":0,"TOWNNAME":"鹽水區","LI":"橋南里","LIN":"23鄰","STREET":"新中路","SECT":" ","MAREA":" ","LANE":"８２巷","ALLEY":" ","HOUSE_NO":"１４３號","E_COORD97":175698.64000000001,"N_COORD97":2578683.0499999998,"ADDRESS":"新中路８２巷１４３號","OBJECTID":392213},"geometry":{"x":175698.6400000006,"y":2578683.0500000007}},{"attributes":{"ID":392238,"DIS_CODE":0,"TOWNNAME":"鹽水區","LI":"橋南里","LIN":"23鄰","STREET":"新中路","SECT":" ","MAREA":" ","LANE":"８２巷","ALLEY":" ","HOUSE_NO":"１４５號","E_COORD97":175694.41,"N_COORD97":2578684.3700000001,"ADDRESS":"新中路８２巷１４５號","OBJECTID":392214},"geometry":{"x":175694.41000000015,"y":2578684.3700000029}},{"attributes":{"ID":392239,"DIS_CODE":0,"TOWNNAME":"鹽水區","LI":"橋南里","LIN":"23鄰","STREET":"新中路","SECT":" ","MAREA":" ","LANE":"８２巷","ALLEY":" ","HOUSE_NO":"１４７號","E_COORD97":175689.98000000001,"N_COORD97":2578684.8199999998,"ADDRESS":"新中路８２巷１４７號","OBJECTID":392215},"geometry":{"x":175689.98000000138,"y":2578684.8200000003}},{"attributes":{"ID":392240,"DIS_CODE":0,"TOWNNAME":"鹽水區","LI":"橋南里","LIN":"23鄰","STREET":"新中路","SECT":" ","MAREA":" ","LANE":"８２巷","ALLEY":" ","HOUSE_NO":"１４９號","E_COORD97":175685.98000000001,"N_COORD97":2578685.9100000001,"ADDRESS":"新中路８２巷１４９號","OBJECTID":392216},"geometry":{"x":175685.98000000045,"y":2578685.910000002}},{"attributes":{"ID":392241,"DIS_CODE":0,"TOWNNAME":"鹽水區","LI":"橋南里","LIN":"23鄰","STREET":"新中路","SECT":" ","MAREA":" ","LANE":"８２巷","ALLEY":" ","HOUSE_NO":"１５１號","E_COORD97":175682.01999999999,"N_COORD97":2578687.2799999998,"ADDRESS":"新中路８２巷１５１號","OBJECTID":392217},"geometry":{"x":175682.02000000048,"y":2578687.2799999993}},{"attributes":{"ID":392242,"DIS_CODE":0,"TOWNNAME":"鹽水區","LI":"橋南里","LIN":"23鄰","STREET":"新中路","SECT":" ","MAREA":" ","LANE":"８２巷","ALLEY":" ","HOUSE_NO":"１５３號","E_COORD97":175678.10999999999,"N_COORD97":2578687.9700000002,"ADDRESS":"新中路８２巷１５３號","OBJECTID":392218},"geometry":{"x":175678.11000000034,"y":2578687.9700000007}},{"attributes":{"ID":392243,"DIS_CODE":0,"TOWNNAME":"鹽水區","LI":"橋南里","LIN":"23鄰","STREET":"新中路","SECT":" ","MAREA":" ","LANE":"８２巷","ALLEY":" ","HOUSE_NO":"１５５號","E_COORD97":175673.95999999999,"N_COORD97":2578689.2799999998,"ADDRESS":"新中路８２巷１５５號","OBJECTID":392219},"geometry":{"x":175673.95999999903,"y":2578689.2800000012}},{"attributes":{"ID":392244,"DIS_CODE":0,"TOWNNAME":"鹽水區","LI":"橋南里","LIN":"23鄰","STREET":"新中路","SECT":" ","MAREA":" ","LANE":"８２巷","ALLEY":" ","HOUSE_NO":"８９號","E_COORD97":175810.48000000001,"N_COORD97":2578655.5800000001,"ADDRESS":"新中路８２巷８９號","OBJECTID":392220},"geometry":{"x":175810.48000000138,"y":2578655.5800000001}},{"attributes":{"ID":392245,"DIS_CODE":0,"TOWNNAME":"鹽水區","LI":"橋南里","LIN":"23鄰","STREET":"新中路","SECT":" ","MAREA":" ","LANE":"８２巷","ALLEY":" ","HOUSE_NO":"８５號","E_COORD97":175818.78,"N_COORD97":2578653.5299999998,"ADDRESS":"新中路８２巷８５號","OBJECTID":392221},"geometry":{"x":175818.78000000119,"y":2578653.5300000012}},{"attributes":{"ID":392246,"DIS_CODE":0,"TOWNNAME":"鹽水區","LI":"橋南里","LIN":"23鄰","STREET":"新中路","SECT":" ","MAREA":" ","LANE":"８２巷","ALLEY":" ","HOUSE_NO":"８７號","E_COORD97":175814.63,"N_COORD97":2578654.5600000001,"ADDRESS":"新中路８２巷８７號","OBJECTID":392222},"geometry":{"x":175814.62999999989,"y":2578654.5600000024}},{"attributes":{"ID":392247,"DIS_CODE":0,"TOWNNAME":"鹽水區","LI":"橋南里","LIN":"23鄰","STREET":"新中路","SECT":" ","MAREA":" ","LANE":"８２巷","ALLEY":" ","HOUSE_NO":"９１號","E_COORD97":175806.32999999999,"N_COORD97":2578656.6099999999,"ADDRESS":"新中路８２巷９１號","OBJECTID":392223},"geometry":{"x":175806.33000000101,"y":2578656.6100000013}},{"attributes":{"ID":392248,"DIS_CODE":0,"TOWNNAME":"鹽水區","LI":"橋南里","LIN":"23鄰","STREET":"新中路","SECT":" ","MAREA":" ","LANE":"８２巷","ALLEY":" ","HOUSE_NO":"９３號","E_COORD97":175802.17999999999,"N_COORD97":2578657.6400000001,"ADDRESS":"新中路８２巷９３號","OBJECTID":392224},"geometry":{"x":175802.1799999997,"y":2578657.6400000025}},{"attributes":{"ID":392249,"DIS_CODE":0,"TOWNNAME":"永康區","LI":"網寮里","LIN":"23鄰","STREET":"永春街","SECT":" ","MAREA":" ","LANE":"２０巷","ALLEY":" ","HOUSE_NO":"１０號","E_COORD97":173801.47,"N_COORD97":2546288.4900000002,"ADDRESS":"永春街２０巷１０號","OBJECTID":392225},"geometry":{"x":173801.46999999974,"y":2546288.4900000002}},{"attributes":{"ID":392250,"DIS_CODE":0,"TOWNNAME":"永康區","LI":"復華里","LIN":"34鄰","STREET":"復國一路","SECT":" ","MAREA":" ","LANE":"４７５巷","ALLEY":" ","HOUSE_NO":"４２號","E_COORD97":172543.28,"N_COORD97":2546030.2799999998,"ADDRESS":"復國一路４７５巷４２號","OBJECTID":392226},"geometry":{"x":172543.28000000119,"y":2546030.2800000012}},{"attributes":{"ID":392251,"DIS_CODE":0,"TOWNNAME":"永康區","LI":"復國里","LIN":"30鄰","STREET":"復國一路","SECT":" ","MAREA":" ","LANE":"１７３巷","ALLEY":" ","HOUSE_NO":"３０號","E_COORD97":172670.89000000001,"N_COORD97":2545221.52,"ADDRESS":"復國一路１７３巷３０號","OBJECTID":392227},"geometry":{"x":172670.8900000006,"y":2545221.5200000014}},{"attributes":{"ID":392252,"DIS_CODE":0,"TOWNNAME":"永康區","LI":"勝利里","LIN":"29鄰","STREET":"勝利街","SECT":" ","MAREA":" ","LANE":"４２巷","ALLEY":" ","HOUSE_NO":"２號","E_COORD97":171356.98000000001,"N_COORD97":2544622,"ADDRESS":"勝利街４２巷２號","OBJECTID":392228},"geometry":{"x":171356.98000000138,"y":2544622.0000000019}},{"attributes":{"ID":392253,"DIS_CODE":0,"TOWNNAME":"歸仁區","LI":"看西里","LIN":"23鄰","STREET":"成功五街","SECT":" ","MAREA":" ","LANE":"８８巷","ALLEY":" ","HOUSE_NO":"３７號","E_COORD97":178417.60999999999,"N_COORD97":2539821.3599999999,"ADDRESS":"成功五街８８巷３７號","OBJECTID":392229},"geometry":{"x":178417.61000000034,"y":2539821.3600000013}},{"attributes":{"ID":392254,"DIS_CODE":0,"TOWNNAME":"永康區","LI":"復國里","LIN":"30鄰","STREET":"復國一路","SECT":" ","MAREA":" ","LANE":"１７３巷","ALLEY":" ","HOUSE_NO":"３２號","E_COORD97":172666.53,"N_COORD97":2545222.02,"ADDRESS":"復國一路１７３巷３２號","OBJECTID":392230},"geometry":{"x":172666.52999999933,"y":2545222.0200000014}},{"attributes":{"ID":392255,"DIS_CODE":0,"TOWNNAME":"永康區","LI":"安康里","LIN":"23鄰","STREET":"中華路","SECT":" ","MAREA":" ","LANE":"７０３巷","ALLEY":" ","HOUSE_NO":"５號","E_COORD97":170852.56,"N_COORD97":2546291.9900000002,"ADDRESS":"中華路７０３巷５號","OBJECTID":392231},"geometry":{"x":170852.56000000052,"y":2546291.9900000002}},{"attributes":{"ID":392256,"DIS_CODE":0,"TOWNNAME":"南區","LI":"永寧里","LIN":"23鄰","STREET":"灣裡路","SECT":" ","MAREA":" ","LANE":"３３３巷","ALLEY":" ","HOUSE_NO":"７號","E_COORD97":166173.47,"N_COORD97":2536260.29,"ADDRESS":"灣裡路３３３巷７號","OBJECTID":392232},"geometry":{"x":166173.46999999974,"y":2536260.2899999991}},{"attributes":{"ID":392257,"DIS_CODE":0,"TOWNNAME":"南區","LI":"府南里","LIN":"23鄰","STREET":"大成路","SECT":"二段","MAREA":" ","LANE":"１４３巷","ALLEY":" ","HOUSE_NO":"２３號","E_COORD97":167304.59,"N_COORD97":2541623.4500000002,"ADDRESS":"大成路二段１４３巷２３號","OBJECTID":392233},"geometry":{"x":167304.59000000078,"y":2541623.450000003}},{"attributes":{"ID":392258,"DIS_CODE":0,"TOWNNAME":"南區","LI":"府南里","LIN":"23鄰","STREET":"大成路","SECT":"二段","MAREA":" ","LANE":"１４３巷","ALLEY":" ","HOUSE_NO":"２３號之１","E_COORD97":167327.16,"N_COORD97":2541617.0600000001,"ADDRESS":"大成路二段１４３巷２３號之１","OBJECTID":392234},"geometry":{"x":167327.16000000015,"y":2541617.0599999987}},{"attributes":{"ID":392259,"DIS_CODE":0,"TOWNNAME":"仁德區","LI":"上崙里","LIN":"23鄰","STREET":"德崙路","SECT":" ","MAREA":" ","LANE":"１９６巷","ALLEY":" ","HOUSE_NO":"２０號","E_COORD97":173592.20000000001,"N_COORD97":2538230.02,"ADDRESS":"德崙路１９６巷２０號","OBJECTID":392235},"geometry":{"x":173592.20000000019,"y":2538230.0200000014}},{"attributes":{"ID":392260,"DIS_CODE":0,"TOWNNAME":"永康區","LI":"南灣里","LIN":"23鄰","STREET":"大灣路","SECT":" ","MAREA":" ","LANE":"７６４巷","ALLEY":" ","HOUSE_NO":"８５號","E_COORD97":174187.82000000001,"N_COORD97":2544738.2599999998,"ADDRESS":"大灣路７６４巷８５號","OBJECTID":392236},"geometry":{"x":174187.82000000123,"y":2544738.2600000016}},{"attributes":{"ID":392261,"DIS_CODE":0,"TOWNNAME":"永康區","LI":"西灣里","LIN":"23鄰","STREET":"大勇路","SECT":" ","MAREA":" ","LANE":"７６巷","ALLEY":" ","HOUSE_NO":"１４號","E_COORD97":174279.95999999999,"N_COORD97":2545466.75,"ADDRESS":"大勇路７６巷１４號","OBJECTID":392237},"geometry":{"x":174279.95999999996,"y":2545466.7500000037}},{"attributes":{"ID":392262,"DIS_CODE":0,"TOWNNAME":"永康區","LI":"復華里","LIN":"36鄰","STREET":"復國一路","SECT":" ","MAREA":" ","LANE":"４７５巷","ALLEY":" ","HOUSE_NO":"４１號","E_COORD97":172560.28,"N_COORD97":2546014.96,"ADDRESS":"復國一路４７５巷４１號","OBJECTID":392238},"geometry":{"x":172560.28000000119,"y":2546014.9600000009}},{"attributes":{"ID":392263,"DIS_CODE":0,"TOWNNAME":"永康區","LI":"網寮里","LIN":"20鄰","STREET":"文化路","SECT":" ","MAREA":" ","LANE":"３２３巷","ALLEY":" ","HOUSE_NO":"２號","E_COORD97":173408.01999999999,"N_COORD97":2546129.5800000001,"ADDRESS":"文化路３２３巷２號","OBJECTID":392239},"geometry":{"x":173408.01999999955,"y":2546129.5800000019}},{"attributes":{"ID":392264,"DIS_CODE":0,"TOWNNAME":"永康區","LI":"復國里","LIN":"14鄰","STREET":"復國二路","SECT":" ","MAREA":" ","LANE":"１７８巷","ALLEY":" ","HOUSE_NO":"８號之６","E_COORD97":172955.35999999999,"N_COORD97":2545660.6099999999,"ADDRESS":"復國二路１７８巷８號之６","OBJECTID":392240},"geometry":{"x":172955.36000000034,"y":2545660.6100000031}},{"attributes":{"ID":392265,"DIS_CODE":0,"TOWNNAME":"永康區","LI":"復華里","LIN":"28鄰","STREET":"復華八街","SECT":" ","MAREA":" ","LANE":"４３巷","ALLEY":" ","HOUSE_NO":"１１號","E_COORD97":172717.12,"N_COORD97":2546302.9900000002,"ADDRESS":"復華八街４３巷１１號","OBJECTID":392241},"geometry":{"x":172717.12000000104,"y":2546302.9900000039}},{"attributes":{"ID":392266,"DIS_CODE":0,"TOWNNAME":"永康區","LI":"網寮里","LIN":"22鄰","STREET":"永春街","SECT":" ","MAREA":" ","LANE":"１３巷","ALLEY":" ","HOUSE_NO":"２８號","E_COORD97":173700.32000000001,"N_COORD97":2546227.8700000001,"ADDRESS":"永春街１３巷２８號","OBJECTID":392242},"geometry":{"x":173700.3200000003,"y":2546227.8700000029}},{"attributes":{"ID":392267,"DIS_CODE":0,"TOWNNAME":"永康區","LI":"復國里","LIN":"18鄰","STREET":"復國一路","SECT":" ","MAREA":" ","LANE":"３６４巷","ALLEY":" ","HOUSE_NO":"１號","E_COORD97":172798.06,"N_COORD97":2545807.4900000002,"ADDRESS":"復國一路３６４巷１號","OBJECTID":392243},"geometry":{"x":172798.06000000145,"y":2545807.4900000002}},{"attributes":{"ID":392268,"DIS_CODE":0,"TOWNNAME":"永康區","LI":"復國里","LIN":"18鄰","STREET":"復國一路","SECT":" ","MAREA":" ","LANE":"３６２巷","ALLEY":" ","HOUSE_NO":"３號","E_COORD97":172789.78,"N_COORD97":2545785.7799999998,"ADDRESS":"復國一路３６２巷３號","OBJECTID":392244},"geometry":{"x":172789.78000000026,"y":2545785.7800000012}},{"attributes":{"ID":392269,"DIS_CODE":0,"TOWNNAME":"永康區","LI":"復國里","LIN":"14鄰","STREET":"復國二路","SECT":" ","MAREA":" ","LANE":"１７８巷","ALLEY":" ","HOUSE_NO":"８號之１","E_COORD97":172964.37,"N_COORD97":2545682.1200000001,"ADDRESS":"復國二路１７８巷８號之１","OBJECTID":392245},"geometry":{"x":172964.37000000104,"y":2545682.120000001}},{"attributes":{"ID":392270,"DIS_CODE":0,"TOWNNAME":"永康區","LI":"網寮里","LIN":"19鄰","STREET":"永大一路","SECT":" ","MAREA":" ","LANE":"３８０巷","ALLEY":" ","HOUSE_NO":"１３號","E_COORD97":173471.79999999999,"N_COORD97":2546189.6200000001,"ADDRESS":"永大一路３８０巷１３號","OBJECTID":392246},"geometry":{"x":173471.80000000075,"y":2546189.620000001}},{"attributes":{"ID":392271,"DIS_CODE":0,"TOWNNAME":"永康區","LI":"復國里","LIN":"29鄰","STREET":"復華二街","SECT":" ","MAREA":" ","LANE":"１巷","ALLEY":" ","HOUSE_NO":"１９號","E_COORD97":172684.42999999999,"N_COORD97":2545285.5299999998,"ADDRESS":"復華二街１巷１９號","OBJECTID":392247},"geometry":{"x":172684.43000000063,"y":2545285.5300000012}},{"attributes":{"ID":392272,"DIS_CODE":0,"TOWNNAME":"永康區","LI":"復國里","LIN":"29鄰","STREET":"復華二街","SECT":" ","MAREA":" ","LANE":"１巷","ALLEY":" ","HOUSE_NO":"２０號","E_COORD97":172673.29000000001,"N_COORD97":2545295.2400000002,"ADDRESS":"復華二街１巷２０號","OBJECTID":392248},"geometry":{"x":172673.29000000097,"y":2545295.2400000021}},{"attributes":{"ID":392273,"DIS_CODE":0,"TOWNNAME":"仁德區","LI":"仁德里","LIN":"23鄰","STREET":"文心路","SECT":" ","MAREA":" ","LANE":"５８巷","ALLEY":" ","HOUSE_NO":"５８號","E_COORD97":172243.17000000001,"N_COORD97":2541337.0800000001,"ADDRESS":"文心路５８巷５８號","OBJECTID":392249},"geometry":{"x":172243.17000000179,"y":2541337.0800000001}},{"attributes":{"ID":392274,"DIS_CODE":0,"TOWNNAME":"東區","LI":"小東里","LIN":"23鄰","STREET":"光明街","SECT":" ","MAREA":" ","LANE":"２０１巷","ALLEY":" ","HOUSE_NO":"２７號","E_COORD97":171023.73999999999,"N_COORD97":2544059.27,"ADDRESS":"光明街２０１巷２７號","OBJECTID":392250},"geometry":{"x":171023.74000000022,"y":2544059.2700000033}},{"attributes":{"ID":392275,"DIS_CODE":0,"TOWNNAME":"東區","LI":"後甲里","LIN":"23鄰","STREET":"中華東路","SECT":"一段","MAREA":" ","LANE":"２１７巷","ALLEY":" ","HOUSE_NO":"２６號","E_COORD97":171481.89000000001,"N_COORD97":2543315.7000000002,"ADDRESS":"中華東路一段２１７巷２６號","OBJECTID":392251},"geometry":{"x":171481.88999999873,"y":2543315.6999999993}},{"attributes":{"ID":392276,"DIS_CODE":0,"TOWNNAME":"東區","LI":"後甲里","LIN":"23鄰","STREET":"中華東路","SECT":"一段","MAREA":" ","LANE":"２１７巷","ALLEY":" ","HOUSE_NO":"２８號","E_COORD97":171469.35000000001,"N_COORD97":2543314.2599999998,"ADDRESS":"中華東路一段２１７巷２８號","OBJECTID":392252},"geometry":{"x":171469.35000000056,"y":2543314.2600000016}},{"attributes":{"ID":392277,"DIS_CODE":0,"TOWNNAME":"東區","LI":"富強里","LIN":"23鄰","STREET":"中華東路","SECT":"二段","MAREA":" ","LANE":"４８巷","ALLEY":" ","HOUSE_NO":"１２號","E_COORD97":171330.72,"N_COORD97":2543024.4100000001,"ADDRESS":"中華東路二段４８巷１２號","OBJECTID":392253},"geometry":{"x":171330.7200000016,"y":2543024.4100000001}},{"attributes":{"ID":392278,"DIS_CODE":0,"TOWNNAME":"東區","LI":"龍山里","LIN":"23鄰","STREET":"東門路","SECT":"二段","MAREA":" ","LANE":"１０４巷","ALLEY":" ","HOUSE_NO":"４號","E_COORD97":170032.73000000001,"N_COORD97":2542941.2200000002,"ADDRESS":"東門路二段１０４巷４號","OBJECTID":392254},"geometry":{"x":170032.72999999952,"y":2542941.2200000007}},{"attributes":{"ID":392279,"DIS_CODE":0,"TOWNNAME":"永康區","LI":"網寮里","LIN":"23鄰","STREET":"永春街","SECT":" ","MAREA":" ","LANE":"２０巷","ALLEY":" ","HOUSE_NO":"２７號","E_COORD97":173829.64000000001,"N_COORD97":2546314.8999999999,"ADDRESS":"永春街２０巷２７號","OBJECTID":392255},"geometry":{"x":173829.63999999966,"y":2546314.9000000022}},{"attributes":{"ID":392280,"DIS_CODE":0,"TOWNNAME":"永康區","LI":"中華里","LIN":"23鄰","STREET":"華興街","SECT":" ","MAREA":" ","LANE":"１２０巷","ALLEY":" ","HOUSE_NO":"３號","E_COORD97":171784.67000000001,"N_COORD97":2544605.2000000002,"ADDRESS":"華興街１２０巷３號","OBJECTID":392256},"geometry":{"x":171784.67000000086,"y":2544605.200000003}},{"attributes":{"ID":392281,"DIS_CODE":0,"TOWNNAME":"永康區","LI":"中華里","LIN":"23鄰","STREET":"忠勇街","SECT":" ","MAREA":" ","LANE":"６５巷","ALLEY":" ","HOUSE_NO":"１號","E_COORD97":171883.82000000001,"N_COORD97":2544649.1499999999,"ADDRESS":"忠勇街６５巷１號","OBJECTID":392257},"geometry":{"x":171883.82000000123,"y":2544649.1500000004}},{"attributes":{"ID":392282,"DIS_CODE":0,"TOWNNAME":"永康區","LI":"中華里","LIN":"23鄰","STREET":"忠勇街","SECT":" ","MAREA":" ","LANE":"６３巷","ALLEY":" ","HOUSE_NO":"２５號","E_COORD97":171767.32999999999,"N_COORD97":2544614.23,"ADDRESS":"忠勇街６３巷２５號","OBJECTID":392258},"geometry":{"x":171767.33000000007,"y":2544614.2300000023}},{"attributes":{"ID":392283,"DIS_CODE":0,"TOWNNAME":"永康區","LI":"三合里","LIN":"23鄰","STREET":"南工街","SECT":" ","MAREA":" ","LANE":"３２３巷","ALLEY":" ","HOUSE_NO":"２９號","E_COORD97":171787.37,"N_COORD97":2545966.4900000002,"ADDRESS":"南工街３２３巷２９號","OBJECTID":392259},"geometry":{"x":171787.37000000011,"y":2545966.4900000002}},{"attributes":{"ID":392284,"DIS_CODE":0,"TOWNNAME":"永康區","LI":"網寮里","LIN":"24鄰","STREET":"永大一路","SECT":" ","MAREA":" ","LANE":"１６０巷","ALLEY":" ","HOUSE_NO":"８號","E_COORD97":173861.23999999999,"N_COORD97":2546405.25,"ADDRESS":"永大一路１６０巷８號","OBJECTID":392260},"geometry":{"x":173861.24000000022,"y":2546405.25}},{"attributes":{"ID":392285,"DIS_CODE":0,"TOWNNAME":"永康區","LI":"復華里","LIN":"14鄰","STREET":"國華街","SECT":" ","MAREA":" ","LANE":"９６巷","ALLEY":" ","HOUSE_NO":"３８號","E_COORD97":172959.23999999999,"N_COORD97":2545918.5,"ADDRESS":"國華街９６巷３８號","OBJECTID":392261},"geometry":{"x":172959.24000000115,"y":2545918.5}},{"attributes":{"ID":392286,"DIS_CODE":0,"TOWNNAME":"永康區","LI":"復國里","LIN":"29鄰","STREET":"復華二街","SECT":" ","MAREA":" ","LANE":"３３巷","ALLEY":" ","HOUSE_NO":"３號","E_COORD97":172554.22,"N_COORD97":2545326.52,"ADDRESS":"復華二街３３巷３號","OBJECTID":392262},"geometry":{"x":172554.21999999974,"y":2545326.5200000014}},{"attributes":{"ID":392287,"DIS_CODE":0,"TOWNNAME":"永康區","LI":"復興里","LIN":"29鄰","STREET":"忠孝路","SECT":" ","MAREA":" ","LANE":"７６巷","ALLEY":" ","HOUSE_NO":"１４號","E_COORD97":172282.48000000001,"N_COORD97":2544933.2400000002,"ADDRESS":"忠孝路７６巷１４號","OBJECTID":392263},"geometry":{"x":172282.48000000231,"y":2544933.2400000002}},{"attributes":{"ID":392288,"DIS_CODE":0,"TOWNNAME":"東區","LI":"新東里","LIN":"23鄰","STREET":"裕豐街","SECT":" ","MAREA":" ","LANE":"９９巷","ALLEY":" ","HOUSE_NO":"２２號","E_COORD97":170689.26999999999,"N_COORD97":2542973.96,"ADDRESS":"裕豐街９９巷２２號","OBJECTID":392264},"geometry":{"x":170689.26999999862,"y":2542973.9600000009}},{"attributes":{"ID":392289,"DIS_CODE":0,"TOWNNAME":"東區","LI":"崇德里","LIN":"23鄰","STREET":"崇德路","SECT":" ","MAREA":" ","LANE":"５３０巷","ALLEY":" ","HOUSE_NO":"１號","E_COORD97":170761.07999999999,"N_COORD97":2541497.7599999998,"ADDRESS":"崇德路５３０巷１號","OBJECTID":392265},"geometry":{"x":170761.08000000101,"y":2541497.7600000016}},{"attributes":{"ID":392290,"DIS_CODE":0,"TOWNNAME":"東區","LI":"崇德里","LIN":"23鄰","STREET":"崇德路","SECT":" ","MAREA":" ","LANE":"５３０巷","ALLEY":" ","HOUSE_NO":"３號","E_COORD97":170757.64999999999,"N_COORD97":2541496.4500000002,"ADDRESS":"崇德路５３０巷３號","OBJECTID":392266},"geometry":{"x":170757.6500000013,"y":2541496.4499999993}},{"attributes":{"ID":392291,"DIS_CODE":0,"TOWNNAME":"東區","LI":"崇德里","LIN":"23鄰","STREET":"崇德路","SECT":" ","MAREA":" ","LANE":"５３０巷","ALLEY":" ","HOUSE_NO":"３８號","E_COORD97":170688.82000000001,"N_COORD97":2541528.0299999998,"ADDRESS":"崇德路５３０巷３８號","OBJECTID":392267},"geometry":{"x":170688.82000000123,"y":2541528.0300000031}},{"attributes":{"ID":392292,"DIS_CODE":0,"TOWNNAME":"永康區","LI":"復華里","LIN":"23鄰","STREET":"國華街","SECT":" ","MAREA":" ","LANE":"９９巷","ALLEY":" ","HOUSE_NO":"３號","E_COORD97":172711.76000000001,"N_COORD97":2546111.5,"ADDRESS":"國華街９９巷３號","OBJECTID":392268},"geometry":{"x":172711.75999999978,"y":2546111.5}},{"attributes":{"ID":392293,"DIS_CODE":0,"TOWNNAME":"永康區","LI":"網寮里","LIN":"23鄰","STREET":"文化路","SECT":" ","MAREA":" ","LANE":"１２８巷","ALLEY":" ","HOUSE_NO":"１６號","E_COORD97":173892.88,"N_COORD97":2546287.5,"ADDRESS":"文化路１２８巷１６號","OBJECTID":392269},"geometry":{"x":173892.88000000175,"y":2546287.5}},{"attributes":{"ID":392294,"DIS_CODE":0,"TOWNNAME":"永康區","LI":"復國里","LIN":"16鄰","STREET":"復國二路","SECT":" ","MAREA":" ","LANE":"１９０巷","ALLEY":" ","HOUSE_NO":"１２號","E_COORD97":172973.42000000001,"N_COORD97":2545747.3700000001,"ADDRESS":"復國二路１９０巷１２號","OBJECTID":392270},"geometry":{"x":172973.41999999993,"y":2545747.370000001}},{"attributes":{"ID":392295,"DIS_CODE":0,"TOWNNAME":"永康區","LI":"復國里","LIN":"2鄰","STREET":"復國一路","SECT":" ","MAREA":" ","LANE":"６巷","ALLEY":" ","HOUSE_NO":"２２號","E_COORD97":172794.03,"N_COORD97":2544733.6400000001,"ADDRESS":"復國一路６巷２２號","OBJECTID":392271},"geometry":{"x":172794.03000000119,"y":2544733.6400000025}},{"attributes":{"ID":392296,"DIS_CODE":0,"TOWNNAME":"永康區","LI":"復華里","LIN":"39鄰","STREET":"復華七街","SECT":" ","MAREA":" ","LANE":"３２巷","ALLEY":" ","HOUSE_NO":"５７號","E_COORD97":172701.91,"N_COORD97":2545895.0299999998,"ADDRESS":"復華七街３２巷５７號","OBJECTID":392272},"geometry":{"x":172701.91000000108,"y":2545895.0300000031}},{"attributes":{"ID":392297,"DIS_CODE":0,"TOWNNAME":"永康區","LI":"復華里","LIN":"28鄰","STREET":"復華八街","SECT":" ","MAREA":" ","LANE":"４１巷","ALLEY":" ","HOUSE_NO":"１５號","E_COORD97":172686.10000000001,"N_COORD97":2546280.0499999998,"ADDRESS":"復華八街４１巷１５號","OBJECTID":392273},"geometry":{"x":172686.10000000056,"y":2546280.0500000026}},{"attributes":{"ID":392298,"DIS_CODE":0,"TOWNNAME":"永康區","LI":"復華里","LIN":"28鄰","STREET":"復華八街","SECT":" ","MAREA":" ","LANE":"３９巷","ALLEY":" ","HOUSE_NO":"２６號","E_COORD97":172669.38,"N_COORD97":2546259.4500000002,"ADDRESS":"復華八街３９巷２６號","OBJECTID":392274},"geometry":{"x":172669.38000000082,"y":2546259.4500000011}},{"attributes":{"ID":392299,"DIS_CODE":0,"TOWNNAME":"永康區","LI":"復國里","LIN":"29鄰","STREET":"復華二街","SECT":" ","MAREA":" ","LANE":"１巷","ALLEY":" ","HOUSE_NO":"２２號","E_COORD97":172673.42999999999,"N_COORD97":2545290.2400000002,"ADDRESS":"復華二街１巷２２號","OBJECTID":392275},"geometry":{"x":172673.42999999877,"y":2545290.2400000002}},{"attributes":{"ID":392300,"DIS_CODE":0,"TOWNNAME":"永康區","LI":"勝利里","LIN":"5鄰","STREET":"勝學路","SECT":" ","MAREA":" ","LANE":"６１巷","ALLEY":" ","HOUSE_NO":"７號","E_COORD97":171114.32000000001,"N_COORD97":2544734.5,"ADDRESS":"勝學路６１巷７號","OBJECTID":392276},"geometry":{"x":171114.32000000123,"y":2544734.5000000019}},{"attributes":{"ID":392301,"DIS_CODE":0,"TOWNNAME":"永康區","LI":"復國里","LIN":"18鄰","STREET":"復國一路","SECT":" ","MAREA":" ","LANE":"３６４巷","ALLEY":" ","HOUSE_NO":"３號","E_COORD97":172802.45999999999,"N_COORD97":2545807.2400000002,"ADDRESS":"復國一路３６４巷３號","OBJECTID":392277},"geometry":{"x":172802.46000000183,"y":2545807.2400000021}},{"attributes":{"ID":392302,"DIS_CODE":0,"TOWNNAME":"永康區","LI":"勝利里","LIN":"39鄰","STREET":"勝華街","SECT":" ","MAREA":" ","LANE":"３７巷","ALLEY":" ","HOUSE_NO":"６號","E_COORD97":171441.26999999999,"N_COORD97":2545192.8599999999,"ADDRESS":"勝華街３７巷６號","OBJECTID":392278},"geometry":{"x":171441.26999999955,"y":2545192.8599999994}},{"attributes":{"ID":392303,"DIS_CODE":0,"TOWNNAME":"永康區","LI":"復國里","LIN":"29鄰","STREET":"復華二街","SECT":" ","MAREA":" ","LANE":"２３巷","ALLEY":" ","HOUSE_NO":"８號","E_COORD97":172579.31,"N_COORD97":2545316.52,"ADDRESS":"復華二街２３巷８號","OBJECTID":392279},"geometry":{"x":172579.31000000145,"y":2545316.5200000014}},{"attributes":{"ID":392304,"DIS_CODE":0,"TOWNNAME":"永康區","LI":"中華里","LIN":"23鄰","STREET":"華興街","SECT":" ","MAREA":" ","LANE":"１２０巷","ALLEY":" ","HOUSE_NO":"１５號","E_COORD97":171785.72,"N_COORD97":2544640.1600000001,"ADDRESS":"華興街１２０巷１５號","OBJECTID":392280},"geometry":{"x":171785.72000000067,"y":2544640.1599999983}},{"attributes":{"ID":392305,"DIS_CODE":0,"TOWNNAME":"永康區","LI":"中華里","LIN":"23鄰","STREET":"忠勇街","SECT":" ","MAREA":" ","LANE":"６５巷","ALLEY":" ","HOUSE_NO":"１３號","E_COORD97":171844.84,"N_COORD97":2544648.3900000001,"ADDRESS":"忠勇街６５巷１３號","OBJECTID":392281},"geometry":{"x":171844.83999999985,"y":2544648.3900000006}},{"attributes":{"ID":392306,"DIS_CODE":0,"TOWNNAME":"永康區","LI":"中華里","LIN":"23鄰","STREET":"忠勇街","SECT":" ","MAREA":" ","LANE":"６５巷","ALLEY":" ","HOUSE_NO":"２３號","E_COORD97":171811.59,"N_COORD97":2544645.8500000001,"ADDRESS":"忠勇街６５巷２３號","OBJECTID":392282},"geometry":{"x":171811.59000000078,"y":2544645.8500000015}},{"attributes":{"ID":392307,"DIS_CODE":0,"TOWNNAME":"永康區","LI":"中華里","LIN":"23鄰","STREET":"忠勇街","SECT":" ","MAREA":" ","LANE":"６３巷","ALLEY":" ","HOUSE_NO":"３２號","E_COORD97":171754.01000000001,"N_COORD97":2544625.02,"ADDRESS":"忠勇街６３巷３２號","OBJECTID":392283},"geometry":{"x":171754.00999999978,"y":2544625.0200000014}},{"attributes":{"ID":392308,"DIS_CODE":0,"TOWNNAME":"永康區","LI":"中華里","LIN":"23鄰","STREET":"忠勇街","SECT":" ","MAREA":" ","LANE":"６５巷","ALLEY":" ","HOUSE_NO":"９號","E_COORD97":171856.67000000001,"N_COORD97":2544648.6499999999,"ADDRESS":"忠勇街６５巷９號","OBJECTID":392284},"geometry":{"x":171856.67000000179,"y":2544648.6500000022}},{"attributes":{"ID":392309,"DIS_CODE":0,"TOWNNAME":"永康區","LI":"中華里","LIN":"23鄰","STREET":"忠勇街","SECT":" ","MAREA":" ","LANE":"６３巷","ALLEY":" ","HOUSE_NO":"１０號","E_COORD97":171857.64999999999,"N_COORD97":2544628.7000000002,"ADDRESS":"忠勇街６３巷１０號","OBJECTID":392285},"geometry":{"x":171857.6500000013,"y":2544628.6999999993}},{"attributes":{"ID":392310,"DIS_CODE":0,"TOWNNAME":"永康區","LI":"中華里","LIN":"23鄰","STREET":"忠勇街","SECT":" ","MAREA":" ","LANE":"６３巷","ALLEY":" ","HOUSE_NO":"１４號","E_COORD97":171845.47,"N_COORD97":2544629.0800000001,"ADDRESS":"忠勇街６３巷１４號","OBJECTID":392286},"geometry":{"x":171845.46999999974,"y":2544629.0800000001}},{"attributes":{"ID":392311,"DIS_CODE":0,"TOWNNAME":"永康區","LI":"中華里","LIN":"23鄰","STREET":"華興街","SECT":" ","MAREA":" ","LANE":"１２０巷","ALLEY":" ","HOUSE_NO":"１１號","E_COORD97":171785.57999999999,"N_COORD97":2544630.4900000002,"ADDRESS":"華興街１２０巷１１號","OBJECTID":392287},"geometry":{"x":171785.58000000007,"y":2544630.4900000002}},{"attributes":{"ID":392312,"DIS_CODE":0,"TOWNNAME":"永康區","LI":"中華里","LIN":"23鄰","STREET":"華興街","SECT":" ","MAREA":" ","LANE":"１２０巷","ALLEY":" ","HOUSE_NO":"１號","E_COORD97":171785.09,"N_COORD97":2544600.0099999998,"ADDRESS":"華興街１２０巷１號","OBJECTID":392288},"geometry":{"x":171785.09000000078,"y":2544600.0099999998}},{"attributes":{"ID":392313,"DIS_CODE":0,"TOWNNAME":"永康區","LI":"三合里","LIN":"23鄰","STREET":"南工街","SECT":" ","MAREA":" ","LANE":"３２３巷","ALLEY":" ","HOUSE_NO":"１１號","E_COORD97":171791.63,"N_COORD97":2546007.5,"ADDRESS":"南工街３２３巷１１號","OBJECTID":392289},"geometry":{"x":171791.63000000082,"y":2546007.5000000037}},{"attributes":{"ID":392314,"DIS_CODE":0,"TOWNNAME":"中西區","LI":"西湖里","LIN":"23鄰","STREET":"湖美街","SECT":" ","MAREA":" ","LANE":"４６巷","ALLEY":" ","HOUSE_NO":"７號","E_COORD97":165977.09,"N_COORD97":2544627.3199999998,"ADDRESS":"湖美街４６巷７號","OBJECTID":392290},"geometry":{"x":165977.09000000078,"y":2544627.3200000022}},{"attributes":{"ID":392315,"DIS_CODE":0,"TOWNNAME":"仁德區","LI":"仁德里","LIN":"23鄰","STREET":"文心路","SECT":" ","MAREA":" ","LANE":"５８巷","ALLEY":" ","HOUSE_NO":"２８號","E_COORD97":172225.01000000001,"N_COORD97":2541345.5800000001,"ADDRESS":"文心路５８巷２８號","OBJECTID":392291},"geometry":{"x":172225.00999999978,"y":2541345.5800000038}},{"attributes":{"ID":392316,"DIS_CODE":0,"TOWNNAME":"仁德區","LI":"仁德里","LIN":"23鄰","STREET":"文心路","SECT":" ","MAREA":" ","LANE":"５８巷","ALLEY":" ","HOUSE_NO":"１２號","E_COORD97":172205.76000000001,"N_COORD97":2541370.8300000001,"ADDRESS":"文心路５８巷１２號","OBJECTID":392292},"geometry":{"x":172205.76000000071,"y":2541370.8300000038}},{"attributes":{"ID":392317,"DIS_CODE":0,"TOWNNAME":"仁德區","LI":"仁德里","LIN":"23鄰","STREET":"文心路","SECT":" ","MAREA":" ","LANE":"５８巷","ALLEY":" ","HOUSE_NO":"３３號","E_COORD97":172266.28,"N_COORD97":2541373.3300000001,"ADDRESS":"文心路５８巷３３號","OBJECTID":392293},"geometry":{"x":172266.28000000026,"y":2541373.3300000001}},{"attributes":{"ID":392318,"DIS_CODE":0,"TOWNNAME":"永康區","LI":"復國里","LIN":"2鄰","STREET":"復國一路","SECT":" ","MAREA":" ","LANE":"６巷","ALLEY":" ","HOUSE_NO":"６號","E_COORD97":172750.16,"N_COORD97":2544731.2799999998,"ADDRESS":"復國一路６巷６號","OBJECTID":392294},"geometry":{"x":172750.16000000015,"y":2544731.2800000012}},{"attributes":{"ID":392319,"DIS_CODE":0,"TOWNNAME":"仁德區","LI":"仁義里","LIN":"23鄰","STREET":"中清路","SECT":" ","MAREA":" ","LANE":"１６０巷","ALLEY":" ","HOUSE_NO":"５號","E_COORD97":173768.48999999999,"N_COORD97":2541496.29,"ADDRESS":"中清路１６０巷５號","OBJECTID":392295},"geometry":{"x":173768.49000000022,"y":2541496.290000001}},{"attributes":{"ID":392320,"DIS_CODE":0,"TOWNNAME":"仁德區","LI":"仁義里","LIN":"23鄰","STREET":"中清路","SECT":" ","MAREA":" ","LANE":"１７２巷","ALLEY":" ","HOUSE_NO":"１３號","E_COORD97":173784.73000000001,"N_COORD97":2541517.04,"ADDRESS":"中清路１７２巷１３號","OBJECTID":392296},"geometry":{"x":173784.73000000138,"y":2541517.0399999991}},{"attributes":{"ID":392321,"DIS_CODE":0,"TOWNNAME":"仁德區","LI":"仁義里","LIN":"23鄰","STREET":"中清路","SECT":" ","MAREA":" ","LANE":"１７２巷","ALLEY":" ","HOUSE_NO":"５號","E_COORD97":173767.51000000001,"N_COORD97":2541519.29,"ADDRESS":"中清路１７２巷５號","OBJECTID":392297},"geometry":{"x":173767.50999999978,"y":2541519.2900000028}},{"attributes":{"ID":392322,"DIS_CODE":0,"TOWNNAME":"仁德區","LI":"仁義里","LIN":"23鄰","STREET":"中清路","SECT":" ","MAREA":" ","LANE":"１６０巷","ALLEY":" ","HOUSE_NO":"１號","E_COORD97":173759.92999999999,"N_COORD97":2541496.79,"ADDRESS":"中清路１６０巷１號","OBJECTID":392298},"geometry":{"x":173759.9299999997,"y":2541496.790000001}},{"attributes":{"ID":392323,"DIS_CODE":0,"TOWNNAME":"仁德區","LI":"仁義里","LIN":"23鄰","STREET":"中清路","SECT":" ","MAREA":" ","LANE":"１７２巷","ALLEY":" ","HOUSE_NO":"１號","E_COORD97":173759.04000000001,"N_COORD97":2541520.54,"ADDRESS":"中清路１７２巷１號","OBJECTID":392299},"geometry":{"x":173759.04000000004,"y":2541520.5399999991}},{"attributes":{"ID":392324,"DIS_CODE":0,"TOWNNAME":"仁德區","LI":"仁義里","LIN":"23鄰","STREET":"中清路","SECT":" ","MAREA":" ","LANE":"１６０巷","ALLEY":" ","HOUSE_NO":"９號","E_COORD97":173778.73999999999,"N_COORD97":2541498.54,"ADDRESS":"中清路１６０巷９號","OBJECTID":392300},"geometry":{"x":173778.74000000022,"y":2541498.540000001}},{"attributes":{"ID":392325,"DIS_CODE":0,"TOWNNAME":"仁德區","LI":"仁義里","LIN":"23鄰","STREET":"中清路","SECT":" ","MAREA":" ","LANE":"１７２巷","ALLEY":" ","HOUSE_NO":"３號","E_COORD97":173763.28,"N_COORD97":2541519.79,"ADDRESS":"中清路１７２巷３號","OBJECTID":392301},"geometry":{"x":173763.28000000026,"y":2541519.790000001}},{"attributes":{"ID":392326,"DIS_CODE":0,"TOWNNAME":"仁德區","LI":"仁義里","LIN":"23鄰","STREET":"中清路","SECT":" ","MAREA":" ","LANE":"１７２巷","ALLEY":" ","HOUSE_NO":"１５號","E_COORD97":173788.51999999999,"N_COORD97":2541516.54,"ADDRESS":"中清路１７２巷１５號","OBJECTID":392302},"geometry":{"x":173788.52000000048,"y":2541516.5399999991}},{"attributes":{"ID":392327,"DIS_CODE":0,"TOWNNAME":"仁德區","LI":"仁義里","LIN":"23鄰","STREET":"中清路","SECT":" ","MAREA":" ","LANE":"１７２巷","ALLEY":" ","HOUSE_NO":"２１號","E_COORD97":173807.85999999999,"N_COORD97":2541523.29,"ADDRESS":"中清路１７２巷２１號","OBJECTID":392303},"geometry":{"x":173807.86000000127,"y":2541523.290000001}},{"attributes":{"ID":392328,"DIS_CODE":0,"TOWNNAME":"仁德區","LI":"仁義里","LIN":"23鄰","STREET":"中清路","SECT":" ","MAREA":" ","LANE":"１７２巷","ALLEY":" ","HOUSE_NO":"１７號","E_COORD97":173797.57000000001,"N_COORD97":2541515.29,"ADDRESS":"中清路１７２巷１７號","OBJECTID":392304},"geometry":{"x":173797.57000000123,"y":2541515.2899999991}},{"attributes":{"ID":392329,"DIS_CODE":0,"TOWNNAME":"仁德區","LI":"仁義里","LIN":"23鄰","STREET":"中清路","SECT":" ","MAREA":" ","LANE":"１７２巷","ALLEY":" ","HOUSE_NO":"１１號","E_COORD97":173780.82999999999,"N_COORD97":2541517.79,"ADDRESS":"中清路１７２巷１１號","OBJECTID":392305},"geometry":{"x":173780.83000000007,"y":2541517.7899999991}},{"attributes":{"ID":392330,"DIS_CODE":0,"TOWNNAME":"仁德區","LI":"仁德里","LIN":"23鄰","STREET":"文心路","SECT":" ","MAREA":" ","LANE":"５８巷","ALLEY":" ","HOUSE_NO":"２２號","E_COORD97":172216.07000000001,"N_COORD97":2541357.3300000001,"ADDRESS":"文心路５８巷２２號","OBJECTID":392306},"geometry":{"x":172216.07000000123,"y":2541357.3300000038}},{"attributes":{"ID":392331,"DIS_CODE":0,"TOWNNAME":"永康區","LI":"復華里","LIN":"16鄰","STREET":"國華街","SECT":" ","MAREA":" ","LANE":"９５巷","ALLEY":" ","HOUSE_NO":"１４號","E_COORD97":172771.17999999999,"N_COORD97":2546035.5,"ADDRESS":"國華街９５巷１４號","OBJECTID":392307},"geometry":{"x":172771.1799999997,"y":2546035.5000000019}},{"attributes":{"ID":392332,"DIS_CODE":0,"TOWNNAME":"永康區","LI":"復國里","LIN":"5鄰","STREET":"復國一路","SECT":" ","MAREA":" ","LANE":"９０巷","ALLEY":" ","HOUSE_NO":"１１號","E_COORD97":172747.87,"N_COORD97":2544958.5299999998,"ADDRESS":"復國一路９０巷１１號","OBJECTID":392308},"geometry":{"x":172747.87000000104,"y":2544958.5299999993}},{"attributes":{"ID":392333,"DIS_CODE":0,"TOWNNAME":"東區","LI":"新東里","LIN":"23鄰","STREET":"裕豐街","SECT":" ","MAREA":" ","LANE":"９９巷","ALLEY":" ","HOUSE_NO":"１５號","E_COORD97":170703.48999999999,"N_COORD97":2542946.77,"ADDRESS":"裕豐街９９巷１５號","OBJECTID":392309},"geometry":{"x":170703.49000000022,"y":2542946.7699999996}},{"attributes":{"ID":392334,"DIS_CODE":0,"TOWNNAME":"東區","LI":"新東里","LIN":"23鄰","STREET":"裕豐街","SECT":" ","MAREA":" ","LANE":"９９巷","ALLEY":" ","HOUSE_NO":"１８號","E_COORD97":170699.66,"N_COORD97":2542976.4700000002,"ADDRESS":"裕豐街９９巷１８號","OBJECTID":392310},"geometry":{"x":170699.66000000108,"y":2542976.4700000007}},{"attributes":{"ID":392335,"DIS_CODE":0,"TOWNNAME":"東區","LI":"裕農里","LIN":"23鄰","STREET":"裕農路","SECT":" ","MAREA":" ","LANE":"３４５巷","ALLEY":" ","HOUSE_NO":"３４號","E_COORD97":170984.42000000001,"N_COORD97":2543155.75,"ADDRESS":"裕農路３４５巷３４號","OBJECTID":392311},"geometry":{"x":170984.42000000086,"y":2543155.7500000019}},{"attributes":{"ID":392336,"DIS_CODE":0,"TOWNNAME":"東區","LI":"裕農里","LIN":"23鄰","STREET":"裕農路","SECT":" ","MAREA":" ","LANE":"３４５巷","ALLEY":" ","HOUSE_NO":"３６號","E_COORD97":170983.59,"N_COORD97":2543160.1099999999,"ADDRESS":"裕農路３４５巷３６號","OBJECTID":392312},"geometry":{"x":170983.58999999985,"y":2543160.1099999994}},{"attributes":{"ID":392337,"DIS_CODE":0,"TOWNNAME":"東區","LI":"裕農里","LIN":"23鄰","STREET":"裕農路","SECT":" ","MAREA":" ","LANE":"３４５巷","ALLEY":" ","HOUSE_NO":"３８號","E_COORD97":170983.59,"N_COORD97":2543164.27,"ADDRESS":"裕農路３４５巷３８號","OBJECTID":392313},"geometry":{"x":170983.58999999985,"y":2543164.2700000033}},{"attributes":{"ID":392338,"DIS_CODE":0,"TOWNNAME":"東區","LI":"裕農里","LIN":"23鄰","STREET":"裕農路","SECT":" ","MAREA":" ","LANE":"３４５巷","ALLEY":" ","HOUSE_NO":"４０號","E_COORD97":170982.07000000001,"N_COORD97":2543168.8799999999,"ADDRESS":"裕農路３４５巷４０號","OBJECTID":392314},"geometry":{"x":170982.07000000123,"y":2543168.879999999}},{"attributes":{"ID":392339,"DIS_CODE":0,"TOWNNAME":"東區","LI":"裕農里","LIN":"23鄰","STREET":"裕農路","SECT":" ","MAREA":" ","LANE":"３４５巷","ALLEY":" ","HOUSE_NO":"４２號","E_COORD97":170981.42000000001,"N_COORD97":2543173.3700000001,"ADDRESS":"裕農路３４５巷４２號","OBJECTID":392315},"geometry":{"x":170981.41999999993,"y":2543173.3700000029}},{"attributes":{"ID":392340,"DIS_CODE":0,"TOWNNAME":"東區","LI":"裕農里","LIN":"23鄰","STREET":"裕農路","SECT":" ","MAREA":" ","LANE":"３４５巷","ALLEY":" ","HOUSE_NO":"４４號","E_COORD97":170980.42999999999,"N_COORD97":2543177.3300000001,"ADDRESS":"裕農路３４５巷４４號","OBJECTID":392316},"geometry":{"x":170980.43000000063,"y":2543177.3300000001}},{"attributes":{"ID":392341,"DIS_CODE":0,"TOWNNAME":"東區","LI":"裕農里","LIN":"23鄰","STREET":"裕農路","SECT":" ","MAREA":" ","LANE":"３４５巷","ALLEY":" ","HOUSE_NO":"４６號","E_COORD97":170979.10000000001,"N_COORD97":2543181.9500000002,"ADDRESS":"裕農路３４５巷４６號","OBJECTID":392317},"geometry":{"x":170979.10000000056,"y":2543181.9499999993}},{"attributes":{"ID":392342,"DIS_CODE":0,"TOWNNAME":"東區","LI":"裕農里","LIN":"23鄰","STREET":"裕農路","SECT":" ","MAREA":" ","LANE":"３４５巷","ALLEY":" ","HOUSE_NO":"４７號","E_COORD97":170944.29000000001,"N_COORD97":2543203.6299999999,"ADDRESS":"裕農路３４５巷４７號","OBJECTID":392318},"geometry":{"x":170944.29000000097,"y":2543203.629999999}},{"attributes":{"ID":392343,"DIS_CODE":0,"TOWNNAME":"東區","LI":"裕農里","LIN":"23鄰","STREET":"裕農路","SECT":" ","MAREA":" ","LANE":"３４５巷","ALLEY":" ","HOUSE_NO":"４８號","E_COORD97":170977.12,"N_COORD97":2543185.9100000001,"ADDRESS":"裕農路３４５巷４８號","OBJECTID":392319},"geometry":{"x":170977.12000000011,"y":2543185.9100000001}},{"attributes":{"ID":392344,"DIS_CODE":0,"TOWNNAME":"東區","LI":"裕農里","LIN":"23鄰","STREET":"裕農路","SECT":" ","MAREA":" ","LANE":"３４５巷","ALLEY":" ","HOUSE_NO":"４９號","E_COORD97":170944.62,"N_COORD97":2543208.5800000001,"ADDRESS":"裕農路３４５巷４９號","OBJECTID":392320},"geometry":{"x":170944.62000000011,"y":2543208.5800000001}},{"attributes":{"ID":392345,"DIS_CODE":0,"TOWNNAME":"永康區","LI":"復國里","LIN":"4鄰","STREET":"復國一路","SECT":" ","MAREA":" ","LANE":"６８巷","ALLEY":" ","HOUSE_NO":"３５號","E_COORD97":172805.42999999999,"N_COORD97":2544879.5299999998,"ADDRESS":"復國一路６８巷３５號","OBJECTID":392321},"geometry":{"x":172805.4299999997,"y":2544879.5299999993}},{"attributes":{"ID":392346,"DIS_CODE":0,"TOWNNAME":"永康區","LI":"網寮里","LIN":"22鄰","STREET":"永春街","SECT":" ","MAREA":" ","LANE":"１３巷","ALLEY":" ","HOUSE_NO":"２１號","E_COORD97":173724.13,"N_COORD97":2546215.3799999999,"ADDRESS":"永春街１３巷２１號","OBJECTID":392322},"geometry":{"x":173724.13000000082,"y":2546215.3800000008}},{"attributes":{"ID":392347,"DIS_CODE":0,"TOWNNAME":"永康區","LI":"網寮里","LIN":"22鄰","STREET":"永春街","SECT":" ","MAREA":" ","LANE":"１３巷","ALLEY":" ","HOUSE_NO":"１９號","E_COORD97":173727.82999999999,"N_COORD97":2546216.3799999999,"ADDRESS":"永春街１３巷１９號","OBJECTID":392323},"geometry":{"x":173727.83000000101,"y":2546216.379999999}},{"attributes":{"ID":392348,"DIS_CODE":0,"TOWNNAME":"東區","LI":"裕農里","LIN":"23鄰","STREET":"裕農路","SECT":" ","MAREA":" ","LANE":"３４５巷","ALLEY":" ","HOUSE_NO":"５０號","E_COORD97":170975.79999999999,"N_COORD97":2543190.5299999998,"ADDRESS":"裕農路３４５巷５０號","OBJECTID":392324},"geometry":{"x":170975.79999999888,"y":2543190.5300000012}},{"attributes":{"ID":392349,"DIS_CODE":0,"TOWNNAME":"永康區","LI":"網寮里","LIN":"24鄰","STREET":"永春街","SECT":" ","MAREA":" ","LANE":"３８巷","ALLEY":" ","HOUSE_NO":"１５號","E_COORD97":173772.57999999999,"N_COORD97":2546446.1600000001,"ADDRESS":"永春街３８巷１５號","OBJECTID":392325},"geometry":{"x":173772.58000000007,"y":2546446.1600000001}},{"attributes":{"ID":392350,"DIS_CODE":0,"TOWNNAME":"東區","LI":"裕農里","LIN":"23鄰","STREET":"裕農路","SECT":" ","MAREA":" ","LANE":"３４５巷","ALLEY":" ","HOUSE_NO":"６６號","E_COORD97":170962.92000000001,"N_COORD97":2543231.6800000002,"ADDRESS":"裕農路３４５巷６６號","OBJECTID":392326},"geometry":{"x":170962.91999999993,"y":2543231.6799999997}},{"attributes":{"ID":392351,"DIS_CODE":0,"TOWNNAME":"東區","LI":"崇德里","LIN":"23鄰","STREET":"崇德路","SECT":" ","MAREA":" ","LANE":"５３０巷","ALLEY":" ","HOUSE_NO":"７號","E_COORD97":170749.62,"N_COORD97":2541498.9199999999,"ADDRESS":"崇德路５３０巷７號","OBJECTID":392327},"geometry":{"x":170749.62000000011,"y":2541498.9200000037}},{"attributes":{"ID":392352,"DIS_CODE":0,"TOWNNAME":"東區","LI":"崇德里","LIN":"23鄰","STREET":"崇德路","SECT":" ","MAREA":" ","LANE":"５３０巷","ALLEY":" ","HOUSE_NO":"９號","E_COORD97":170745.04000000001,"N_COORD97":2541496.8900000001,"ADDRESS":"崇德路５３０巷９號","OBJECTID":392328},"geometry":{"x":170745.04000000004,"y":2541496.8900000025}},{"attributes":{"ID":392353,"DIS_CODE":0,"TOWNNAME":"東區","LI":"崇德里","LIN":"23鄰","STREET":"崇德路","SECT":" ","MAREA":" ","LANE":"５３０巷","ALLEY":" ","HOUSE_NO":"１１號","E_COORD97":170741.14000000001,"N_COORD97":2541499.2599999998,"ADDRESS":"崇德路５３０巷１１號","OBJECTID":392329},"geometry":{"x":170741.13999999873,"y":2541499.2599999998}},{"attributes":{"ID":392354,"DIS_CODE":0,"TOWNNAME":"東區","LI":"崇德里","LIN":"23鄰","STREET":"崇德路","SECT":" ","MAREA":" ","LANE":"５３０巷","ALLEY":" ","HOUSE_NO":"２號","E_COORD97":170762.16,"N_COORD97":2541520.4100000001,"ADDRESS":"崇德路５３０巷２號","OBJECTID":392330},"geometry":{"x":170762.16000000108,"y":2541520.410000002}},{"attributes":{"ID":392355,"DIS_CODE":0,"TOWNNAME":"東區","LI":"崇德里","LIN":"23鄰","STREET":"崇德路","SECT":" ","MAREA":" ","LANE":"５３０巷","ALLEY":" ","HOUSE_NO":"４號","E_COORD97":170758.06,"N_COORD97":2541522.9900000002,"ADDRESS":"崇德路５３０巷４號","OBJECTID":392331},"geometry":{"x":170758.05999999959,"y":2541522.9900000021}},{"attributes":{"ID":392356,"DIS_CODE":0,"TOWNNAME":"東區","LI":"崇德里","LIN":"23鄰","STREET":"崇德路","SECT":" ","MAREA":" ","LANE":"５３０巷","ALLEY":" ","HOUSE_NO":"６號","E_COORD97":170754.76999999999,"N_COORD97":2541519.8199999998,"ADDRESS":"崇德路５３０巷６號","OBJECTID":392332},"geometry":{"x":170754.76999999955,"y":2541519.8200000003}},{"attributes":{"ID":392357,"DIS_CODE":0,"TOWNNAME":"東區","LI":"崇德里","LIN":"23鄰","STREET":"崇德路","SECT":" ","MAREA":" ","LANE":"５３０巷","ALLEY":" ","HOUSE_NO":"８號","E_COORD97":170750.07999999999,"N_COORD97":2541522.9900000002,"ADDRESS":"崇德路５３０巷８號","OBJECTID":392333},"geometry":{"x":170750.08000000007,"y":2541522.9900000021}},{"attributes":{"ID":392358,"DIS_CODE":0,"TOWNNAME":"永康區","LI":"網寮里","LIN":"24鄰","STREET":"永春街","SECT":" ","MAREA":" ","LANE":"３８巷","ALLEY":" ","HOUSE_NO":"２號之１","E_COORD97":173753.60999999999,"N_COORD97":2546419.4500000002,"ADDRESS":"永春街３８巷２號之１","OBJECTID":392334},"geometry":{"x":173753.61000000127,"y":2546419.4499999993}},{"attributes":{"ID":392359,"DIS_CODE":0,"TOWNNAME":"永康區","LI":"\u25A0行里","LIN":"8鄰","STREET":"中正一街","SECT":" ","MAREA":" ","LANE":"３２巷","ALLEY":" ","HOUSE_NO":"１７號","E_COORD97":172947.39000000001,"N_COORD97":2548380.5,"ADDRESS":"中正一街３２巷１７號","OBJECTID":392335},"geometry":{"x":172947.3900000006,"y":2548380.5}},{"attributes":{"ID":392360,"DIS_CODE":0,"TOWNNAME":"東區","LI":"東明里","LIN":"23鄰","STREET":"東安路","SECT":" ","MAREA":" ","LANE":"３０巷","ALLEY":" ","HOUSE_NO":"１８號","E_COORD97":170750.67999999999,"N_COORD97":2543543.9399999999,"ADDRESS":"東安路３０巷１８號","OBJECTID":392336},"geometry":{"x":170750.6799999997,"y":2543543.9400000013}},{"attributes":{"ID":392361,"DIS_CODE":0,"TOWNNAME":"東區","LI":"東明里","LIN":"23鄰","STREET":"東安路","SECT":" ","MAREA":" ","LANE":"３０巷","ALLEY":" ","HOUSE_NO":"２２號","E_COORD97":170765.31,"N_COORD97":2543540.9300000002,"ADDRESS":"東安路３０巷２２號","OBJECTID":392337},"geometry":{"x":170765.30999999866,"y":2543540.9300000016}},{"attributes":{"ID":392362,"DIS_CODE":0,"TOWNNAME":"東區","LI":"東明里","LIN":"23鄰","STREET":"東安路","SECT":" ","MAREA":" ","LANE":"３０巷","ALLEY":" ","HOUSE_NO":"３０號","E_COORD97":170794.97,"N_COORD97":2543535.9300000002,"ADDRESS":"東安路３０巷３０號","OBJECTID":392338},"geometry":{"x":170794.9700000016,"y":2543535.9299999978}},{"attributes":{"ID":392363,"DIS_CODE":0,"TOWNNAME":"永康區","LI":"\u25A0行里","LIN":"8鄰","STREET":"中正一街","SECT":" ","MAREA":" ","LANE":"３２巷","ALLEY":" ","HOUSE_NO":"２９號","E_COORD97":173024.42999999999,"N_COORD97":2548411.25,"ADDRESS":"中正一街３２巷２９號","OBJECTID":392339},"geometry":{"x":173024.43000000156,"y":2548411.2500000019}},{"attributes":{"ID":392364,"DIS_CODE":0,"TOWNNAME":"永康區","LI":"龍潭里","LIN":"31鄰","STREET":"龍中街","SECT":" ","MAREA":" ","LANE":"３０巷","ALLEY":" ","HOUSE_NO":"１號","E_COORD97":174461.32999999999,"N_COORD97":2547841.4700000002,"ADDRESS":"龍中街３０巷１號","OBJECTID":392340},"geometry":{"x":174461.33000000194,"y":2547841.4700000007}},{"attributes":{"ID":392365,"DIS_CODE":0,"TOWNNAME":"永康區","LI":"新樹里","LIN":"12鄰","STREET":"富強路","SECT":"二段","MAREA":" ","LANE":"７７巷","ALLEY":" ","HOUSE_NO":"２９號之１","E_COORD97":175588.01999999999,"N_COORD97":2546911.9300000002,"ADDRESS":"富強路二段７７巷２９號之１","OBJECTID":392341},"geometry":{"x":175588.01999999955,"y":2546911.9299999997}},{"attributes":{"ID":392366,"DIS_CODE":0,"TOWNNAME":"永康區","LI":"網寮里","LIN":"23鄰","STREET":"文化路","SECT":" ","MAREA":" ","LANE":"１２８巷","ALLEY":" ","HOUSE_NO":"１０號","E_COORD97":173896.47,"N_COORD97":2546273,"ADDRESS":"文化路１２８巷１０號","OBJECTID":392342},"geometry":{"x":173896.46999999974,"y":2546273.0000000019}},{"attributes":{"ID":392367,"DIS_CODE":0,"TOWNNAME":"永康區","LI":"網寮里","LIN":"23鄰","STREET":"文化路","SECT":" ","MAREA":" ","LANE":"１２８巷","ALLEY":" ","HOUSE_NO":"６號","E_COORD97":173897.54000000001,"N_COORD97":2546264.5,"ADDRESS":"文化路１２８巷６號","OBJECTID":392343},"geometry":{"x":173897.54000000097,"y":2546264.5}},{"attributes":{"ID":392368,"DIS_CODE":0,"TOWNNAME":"永康區","LI":"網寮里","LIN":"23鄰","STREET":"永春街","SECT":" ","MAREA":" ","LANE":"１２巷","ALLEY":" ","HOUSE_NO":"２８號","E_COORD97":173857.54000000001,"N_COORD97":2546253.8900000001,"ADDRESS":"永春街１２巷２８號","OBJECTID":392344},"geometry":{"x":173857.54000000004,"y":2546253.8900000025}},{"attributes":{"ID":392369,"DIS_CODE":0,"TOWNNAME":"永康區","LI":"網寮里","LIN":"23鄰","STREET":"文化路","SECT":" ","MAREA":" ","LANE":"１２８巷","ALLEY":" ","HOUSE_NO":"８號","E_COORD97":173896.42000000001,"N_COORD97":2546268.75,"ADDRESS":"文化路１２８巷８號","OBJECTID":392345},"geometry":{"x":173896.42000000086,"y":2546268.75}},{"attributes":{"ID":392370,"DIS_CODE":0,"TOWNNAME":"永康區","LI":"網寮里","LIN":"23鄰","STREET":"文化路","SECT":" ","MAREA":" ","LANE":"１２８巷","ALLEY":" ","HOUSE_NO":"２０號","E_COORD97":173890.23000000001,"N_COORD97":2546300.0699999998,"ADDRESS":"文化路１２８巷２０號","OBJECTID":392346},"geometry":{"x":173890.23000000138,"y":2546300.0700000022}},{"attributes":{"ID":392371,"DIS_CODE":0,"TOWNNAME":"永康區","LI":"網寮里","LIN":"23鄰","STREET":"文化路","SECT":" ","MAREA":" ","LANE":"１２８巷","ALLEY":" ","HOUSE_NO":"２６號","E_COORD97":173879.76999999999,"N_COORD97":2546360.3199999998,"ADDRESS":"文化路１２８巷２６號","OBJECTID":392347},"geometry":{"x":173879.77000000142,"y":2546360.3200000003}},{"attributes":{"ID":392372,"DIS_CODE":0,"TOWNNAME":"永康區","LI":"復華里","LIN":"23鄰","STREET":"國華街","SECT":" ","MAREA":" ","LANE":"９９巷","ALLEY":" ","HOUSE_NO":"８號","E_COORD97":172696.42999999999,"N_COORD97":2546120.75,"ADDRESS":"國華街９９巷８號","OBJECTID":392348},"geometry":{"x":172696.4299999997,"y":2546120.75}},{"attributes":{"ID":392373,"DIS_CODE":0,"TOWNNAME":"永康區","LI":"復華里","LIN":"23鄰","STREET":"國華街","SECT":" ","MAREA":" ","LANE":"９９巷","ALLEY":" ","HOUSE_NO":"１３號","E_COORD97":172694.89999999999,"N_COORD97":2546094.5,"ADDRESS":"國華街９９巷１３號","OBJECTID":392349},"geometry":{"x":172694.9000000013,"y":2546094.5}},{"attributes":{"ID":392374,"DIS_CODE":0,"TOWNNAME":"永康區","LI":"網寮里","LIN":"23鄰","STREET":"永大一路","SECT":" ","MAREA":" ","LANE":"１０１巷","ALLEY":" ","HOUSE_NO":"２３號","E_COORD97":174076.16,"N_COORD97":2546324.25,"ADDRESS":"永大一路１０１巷２３號","OBJECTID":392350},"geometry":{"x":174076.16000000201,"y":2546324.25}},{"attributes":{"ID":392375,"DIS_CODE":0,"TOWNNAME":"關廟區","LI":"北勢里","LIN":"7鄰","STREET":"成功路","SECT":" ","MAREA":" ","LANE":"３６巷","ALLEY":" ","HOUSE_NO":"８號","E_COORD97":181776.62,"N_COORD97":2540418.27,"ADDRESS":"成功路３６巷８號","OBJECTID":392351},"geometry":{"x":181776.62000000104,"y":2540418.2700000014}},{"attributes":{"ID":392376,"DIS_CODE":0,"TOWNNAME":"永康區","LI":"網寮里","LIN":"23鄰","STREET":"文化路","SECT":" ","MAREA":" ","LANE":"１２８巷","ALLEY":" ","HOUSE_NO":"２２號","E_COORD97":173889.12,"N_COORD97":2546304.3300000001,"ADDRESS":"文化路１２８巷２２號","OBJECTID":392352},"geometry":{"x":173889.12000000011,"y":2546304.3300000019}},{"attributes":{"ID":392377,"DIS_CODE":0,"TOWNNAME":"永康區","LI":"復華里","LIN":"23鄰","STREET":"國華街","SECT":" ","MAREA":" ","LANE":"９９巷","ALLEY":" ","HOUSE_NO":"１４號","E_COORD97":172687.39000000001,"N_COORD97":2546110.5,"ADDRESS":"國華街９９巷１４號","OBJECTID":392353},"geometry":{"x":172687.39000000153,"y":2546110.5000000019}},{"attributes":{"ID":392378,"DIS_CODE":0,"TOWNNAME":"永康區","LI":"復興里","LIN":"18鄰","STREET":"復興路","SECT":" ","MAREA":" ","LANE":"３５６巷","ALLEY":" ","HOUSE_NO":"７７號","E_COORD97":172331.81,"N_COORD97":2544506.3300000001,"ADDRESS":"復興路３５６巷７７號","OBJECTID":392354},"geometry":{"x":172331.81000000145,"y":2544506.3300000001}},{"attributes":{"ID":392379,"DIS_CODE":0,"TOWNNAME":"永康區","LI":"復華里","LIN":"23鄰","STREET":"國華街","SECT":" ","MAREA":" ","LANE":"９９巷","ALLEY":" ","HOUSE_NO":"１２號","E_COORD97":172690.59,"N_COORD97":2546114,"ADDRESS":"國華街９９巷１２號","OBJECTID":392355},"geometry":{"x":172690.58999999985,"y":2546114.0000000019}},{"attributes":{"ID":392380,"DIS_CODE":0,"TOWNNAME":"永康區","LI":"網寮里","LIN":"23鄰","STREET":"永春街","SECT":" ","MAREA":" ","LANE":"２０巷","ALLEY":" ","HOUSE_NO":"２３號","E_COORD97":173821.17000000001,"N_COORD97":2546312.3999999999,"ADDRESS":"永春街２０巷２３號","OBJECTID":392356},"geometry":{"x":173821.16999999993,"y":2546312.4000000004}},{"attributes":{"ID":392381,"DIS_CODE":0,"TOWNNAME":"永康區","LI":"網寮里","LIN":"24鄰","STREET":"永春街","SECT":" ","MAREA":" ","LANE":"３８巷","ALLEY":" ","HOUSE_NO":"２９號","E_COORD97":173806.44,"N_COORD97":2546455.0899999999,"ADDRESS":"永春街３８巷２９號","OBJECTID":392357},"geometry":{"x":173806.43999999948,"y":2546455.0900000017}},{"attributes":{"ID":392382,"DIS_CODE":0,"TOWNNAME":"永康區","LI":"復興里","LIN":"17鄰","STREET":"復興路","SECT":" ","MAREA":" ","LANE":"３５６巷","ALLEY":" ","HOUSE_NO":"５３號","E_COORD97":172310.20999999999,"N_COORD97":2544467.27,"ADDRESS":"復興路３５６巷５３號","OBJECTID":392358},"geometry":{"x":172310.20999999996,"y":2544467.2700000014}},{"attributes":{"ID":392383,"DIS_CODE":0,"TOWNNAME":"永康區","LI":"復華里","LIN":"11鄰","STREET":"復國二路","SECT":" ","MAREA":" ","LANE":"２１５巷","ALLEY":" ","HOUSE_NO":"２號","E_COORD97":172996.14999999999,"N_COORD97":2546039.77,"ADDRESS":"復國二路２１５巷２號","OBJECTID":392359},"geometry":{"x":172996.15000000037,"y":2546039.7700000014}},{"attributes":{"ID":392384,"DIS_CODE":0,"TOWNNAME":"永康區","LI":"龍潭里","LIN":"3鄰","STREET":"龍安街","SECT":" ","MAREA":" ","LANE":"３９巷","ALLEY":" ","HOUSE_NO":"１號","E_COORD97":174551.42999999999,"N_COORD97":2548128.3700000001,"ADDRESS":"龍安街３９巷１號","OBJECTID":392360},"geometry":{"x":174551.4299999997,"y":2548128.3699999992}},{"attributes":{"ID":392385,"DIS_CODE":0,"TOWNNAME":"永康區","LI":"復興里","LIN":"19鄰","STREET":"復興路","SECT":" ","MAREA":" ","LANE":"３５６巷","ALLEY":" ","HOUSE_NO":"２８號","E_COORD97":172281.29000000001,"N_COORD97":2544415.77,"ADDRESS":"復興路３５６巷２８號","OBJECTID":392361},"geometry":{"x":172281.29000000004,"y":2544415.7700000014}},{"attributes":{"ID":392386,"DIS_CODE":0,"TOWNNAME":"永康區","LI":"復興里","LIN":"19鄰","STREET":"復興路","SECT":" ","MAREA":" ","LANE":"３５６巷","ALLEY":" ","HOUSE_NO":"２６號","E_COORD97":172278.87,"N_COORD97":2544412.27,"ADDRESS":"復興路３５６巷２６號","OBJECTID":392362},"geometry":{"x":172278.87000000011,"y":2544412.2700000014}},{"attributes":{"ID":392387,"DIS_CODE":0,"TOWNNAME":"永康區","LI":"網寮里","LIN":"21鄰","STREET":"文化路","SECT":" ","MAREA":" ","LANE":"２４２巷","ALLEY":" ","HOUSE_NO":"３０之１１號","E_COORD97":173572.53,"N_COORD97":2546192.0299999998,"ADDRESS":"文化路２４２巷３０之１１號","OBJECTID":392363},"geometry":{"x":173572.53000000119,"y":2546192.0299999993}},{"attributes":{"ID":392388,"DIS_CODE":0,"TOWNNAME":"永康區","LI":"三合里","LIN":"23鄰","STREET":"南工街","SECT":" ","MAREA":" ","LANE":"３２３巷","ALLEY":" ","HOUSE_NO":"２號","E_COORD97":171780.38,"N_COORD97":2546022,"ADDRESS":"南工街３２３巷２號","OBJECTID":392364},"geometry":{"x":171780.37999999989,"y":2546022.0000000019}},{"attributes":{"ID":392389,"DIS_CODE":0,"TOWNNAME":"永康區","LI":"三合里","LIN":"23鄰","STREET":"南工街","SECT":" ","MAREA":" ","LANE":"３２３巷","ALLEY":" ","HOUSE_NO":"３號","E_COORD97":171792.29000000001,"N_COORD97":2546024.5,"ADDRESS":"南工街３２３巷３號","OBJECTID":392365},"geometry":{"x":171792.29000000097,"y":2546024.5000000037}},{"attributes":{"ID":392390,"DIS_CODE":0,"TOWNNAME":"永康區","LI":"三合里","LIN":"23鄰","STREET":"南工街","SECT":" ","MAREA":" ","LANE":"３２３巷","ALLEY":" ","HOUSE_NO":"１３號","E_COORD97":171790.84,"N_COORD97":2546003.25,"ADDRESS":"南工街３２３巷１３號","OBJECTID":392366},"geometry":{"x":171790.83999999985,"y":2546003.2500000019}},{"attributes":{"ID":392391,"DIS_CODE":0,"TOWNNAME":"永康區","LI":"復華里","LIN":"23鄰","STREET":"國華街","SECT":" ","MAREA":" ","LANE":"９９巷","ALLEY":" ","HOUSE_NO":"５號","E_COORD97":172708.06,"N_COORD97":2546108.25,"ADDRESS":"國華街９９巷５號","OBJECTID":392367},"geometry":{"x":172708.06000000145,"y":2546108.2500000019}},{"attributes":{"ID":392392,"DIS_CODE":0,"TOWNNAME":"永康區","LI":"三合里","LIN":"23鄰","STREET":"南工街","SECT":" ","MAREA":" ","LANE":"３２３巷","ALLEY":" ","HOUSE_NO":"２８號","E_COORD97":171775.23999999999,"N_COORD97":2545963.2400000002,"ADDRESS":"南工街３２３巷２８號","OBJECTID":392368},"geometry":{"x":171775.24000000209,"y":2545963.2400000021}},{"attributes":{"ID":392393,"DIS_CODE":0,"TOWNNAME":"安南區","LI":"州南里","LIN":"23鄰","STREET":"安和路","SECT":"四段","MAREA":" ","LANE":"５３７巷","ALLEY":" ","HOUSE_NO":"２９號","E_COORD97":169870.60999999999,"N_COORD97":2551358.4500000002,"ADDRESS":"安和路四段５３７巷２９號","OBJECTID":392369},"geometry":{"x":169870.61000000034,"y":2551358.4500000011}},{"attributes":{"ID":392394,"DIS_CODE":0,"TOWNNAME":"東區","LI":"崇德里","LIN":"23鄰","STREET":"崇德路","SECT":" ","MAREA":" ","LANE":"５３０巷","ALLEY":" ","HOUSE_NO":"１００號","E_COORD97":170583.39999999999,"N_COORD97":2541504.8199999998,"ADDRESS":"崇德路５３０巷１００號","OBJECTID":392370},"geometry":{"x":170583.4000000013,"y":2541504.8200000022}},{"attributes":{"ID":392395,"DIS_CODE":0,"TOWNNAME":"東區","LI":"崇德里","LIN":"23鄰","STREET":"崇德路","SECT":" ","MAREA":" ","LANE":"５３０巷","ALLEY":" ","HOUSE_NO":"１０２號","E_COORD97":170578.76000000001,"N_COORD97":2541502.1899999999,"ADDRESS":"崇德路５３０巷１０２號","OBJECTID":392371},"geometry":{"x":170578.75999999978,"y":2541502.1899999995}},{"attributes":{"ID":392396,"DIS_CODE":0,"TOWNNAME":"東區","LI":"崇德里","LIN":"23鄰","STREET":"崇德路","SECT":" ","MAREA":" ","LANE":"５３０巷","ALLEY":" ","HOUSE_NO":"２３號","E_COORD97":170679.98999999999,"N_COORD97":2541497.1299999999,"ADDRESS":"崇德路５３０巷２３號","OBJECTID":392372},"geometry":{"x":170679.98999999929,"y":2541497.1300000008}},{"attributes":{"ID":392397,"DIS_CODE":0,"TOWNNAME":"東區","LI":"崇德里","LIN":"23鄰","STREET":"崇德路","SECT":" ","MAREA":" ","LANE":"５３０巷","ALLEY":" ","HOUSE_NO":"４０號","E_COORD97":170684.78,"N_COORD97":2541523.1699999999,"ADDRESS":"崇德路５３０巷４０號","OBJECTID":392373},"geometry":{"x":170684.78000000026,"y":2541523.1699999999}},{"attributes":{"ID":392398,"DIS_CODE":0,"TOWNNAME":"東區","LI":"崇德里","LIN":"23鄰","STREET":"崇德路","SECT":" ","MAREA":" ","LANE":"５３０巷","ALLEY":" ","HOUSE_NO":"４３號","E_COORD97":170614.63,"N_COORD97":2541500.96,"ADDRESS":"崇德路５３０巷４３號","OBJECTID":392374},"geometry":{"x":170614.63000000082,"y":2541500.9600000028}},{"attributes":{"ID":392399,"DIS_CODE":0,"TOWNNAME":"東區","LI":"崇德里","LIN":"23鄰","STREET":"崇德路","SECT":" ","MAREA":" ","LANE":"５３０巷","ALLEY":" ","HOUSE_NO":"４５號","E_COORD97":170611.69,"N_COORD97":2541496.48,"ADDRESS":"崇德路５３０巷４５號","OBJECTID":392375},"geometry":{"x":170611.69000000134,"y":2541496.4800000023}},{"attributes":{"ID":392400,"DIS_CODE":0,"TOWNNAME":"東區","LI":"崇德里","LIN":"23鄰","STREET":"崇德路","SECT":" ","MAREA":" ","LANE":"５３０巷","ALLEY":" ","HOUSE_NO":"４７號","E_COORD97":170608.91,"N_COORD97":2541492.9199999999,"ADDRESS":"崇德路５３０巷４７號","OBJECTID":392376},"geometry":{"x":170608.91000000015,"y":2541492.9200000018}},{"attributes":{"ID":392401,"DIS_CODE":0,"TOWNNAME":"東區","LI":"崇德里","LIN":"23鄰","STREET":"崇德路","SECT":" ","MAREA":" ","LANE":"５３０巷","ALLEY":" ","HOUSE_NO":"９２號","E_COORD97":170598.09,"N_COORD97":2541518.4100000001,"ADDRESS":"崇德路５３０巷９２號","OBJECTID":392377},"geometry":{"x":170598.09000000078,"y":2541518.4100000001}},{"attributes":{"ID":392402,"DIS_CODE":0,"TOWNNAME":"東區","LI":"崇德里","LIN":"23鄰","STREET":"崇德路","SECT":" ","MAREA":" ","LANE":"５３０巷","ALLEY":" ","HOUSE_NO":"９４號","E_COORD97":170594.53,"N_COORD97":2541515.6299999999,"ADDRESS":"崇德路５３０巷９４號","OBJECTID":392378},"geometry":{"x":170594.53000000026,"y":2541515.629999999}},{"attributes":{"ID":392403,"DIS_CODE":0,"TOWNNAME":"東區","LI":"崇德里","LIN":"23鄰","STREET":"崇德路","SECT":" ","MAREA":" ","LANE":"５３０巷","ALLEY":" ","HOUSE_NO":"９６號","E_COORD97":170591.13,"N_COORD97":2541513.0099999998,"ADDRESS":"崇德路５３０巷９６號","OBJECTID":392379},"geometry":{"x":170591.13000000082,"y":2541513.0100000016}},{"attributes":{"ID":392404,"DIS_CODE":0,"TOWNNAME":"東區","LI":"崇德里","LIN":"23鄰","STREET":"崇德路","SECT":" ","MAREA":" ","LANE":"５３０巷","ALLEY":" ","HOUSE_NO":"９８號","E_COORD97":170587.26999999999,"N_COORD97":2541509.1499999999,"ADDRESS":"崇德路５３０巷９８號","OBJECTID":392380},"geometry":{"x":170587.26999999955,"y":2541509.1500000022}},{"attributes":{"ID":392405,"DIS_CODE":0,"TOWNNAME":"東區","LI":"新東里","LIN":"23鄰","STREET":"裕豐街","SECT":" ","MAREA":" ","LANE":"９９巷","ALLEY":" ","HOUSE_NO":"１６號","E_COORD97":170706.92000000001,"N_COORD97":2542970.9900000002,"ADDRESS":"裕豐街９９巷１６號","OBJECTID":392381},"geometry":{"x":170706.91999999993,"y":2542970.9900000021}},{"attributes":{"ID":392406,"DIS_CODE":0,"TOWNNAME":"東區","LI":"東光里","LIN":"23鄰","STREET":"東安路","SECT":" ","MAREA":" ","LANE":"１５６巷","ALLEY":" ","HOUSE_NO":"１號","E_COORD97":170770.32000000001,"N_COORD97":2543900.4100000001,"ADDRESS":"東安路１５６巷１號","OBJECTID":392382},"geometry":{"x":170770.32000000123,"y":2543900.410000002}},{"attributes":{"ID":392407,"DIS_CODE":0,"TOWNNAME":"善化區","LI":"坐駕里","LIN":"13鄰","STREET":"自立路","SECT":" ","MAREA":" ","LANE":" ","ALLEY":" ","HOUSE_NO":"２８號","E_COORD97":178226.82999999999,"N_COORD97":2558674,"ADDRESS":"自立路２８號","OBJECTID":392383},"geometry":{"x":178226.83000000101,"y":2558674.0000000037}},{"attributes":{"ID":392408,"DIS_CODE":0,"TOWNNAME":"永康區","LI":"龍潭里","LIN":"13鄰","STREET":"龍橋街","SECT":" ","MAREA":" ","LANE":" ","ALLEY":" ","HOUSE_NO":"６７號","E_COORD97":174770.04999999999,"N_COORD97":2548412.9500000002,"ADDRESS":"龍橋街６７號","OBJECTID":392384},"geometry":{"x":174770.05000000075,"y":2548412.9499999993}},{"attributes":{"ID":392409,"DIS_CODE":0,"TOWNNAME":"東區","LI":"東光里","LIN":"23鄰","STREET":"東安路","SECT":" ","MAREA":" ","LANE":"１５６巷","ALLEY":" ","HOUSE_NO":"３號","E_COORD97":170777.14000000001,"N_COORD97":2543900.0499999998,"ADDRESS":"東安路１５６巷３號","OBJECTID":392385},"geometry":{"x":170777.1400000006,"y":2543900.0500000026}},{"attributes":{"ID":392410,"DIS_CODE":0,"TOWNNAME":"東區","LI":"東光里","LIN":"23鄰","STREET":"東安路","SECT":" ","MAREA":" ","LANE":"１５６巷","ALLEY":" ","HOUSE_NO":"５號","E_COORD97":170784.32999999999,"N_COORD97":2543898.9700000002,"ADDRESS":"東安路１５６巷５號","OBJECTID":392386},"geometry":{"x":170784.32999999914,"y":2543898.9700000007}},{"attributes":{"ID":392411,"DIS_CODE":0,"TOWNNAME":"東區","LI":"東光里","LIN":"23鄰","STREET":"東安路","SECT":" ","MAREA":" ","LANE":"１５６巷","ALLEY":" ","HOUSE_NO":"７號","E_COORD97":170791.51000000001,"N_COORD97":2543898.0800000001,"ADDRESS":"東安路１５６巷７號","OBJECTID":392387},"geometry":{"x":170791.51000000164,"y":2543898.0799999982}},{"attributes":{"ID":392412,"DIS_CODE":0,"TOWNNAME":"東區","LI":"東光里","LIN":"23鄰","STREET":"東安路","SECT":" ","MAREA":" ","LANE":"１５６巷","ALLEY":" ","HOUSE_NO":"９號","E_COORD97":170800.35000000001,"N_COORD97":2543897.5099999998,"ADDRESS":"東安路１５６巷９號","OBJECTID":392388},"geometry":{"x":170800.34999999963,"y":2543897.5099999998}},{"attributes":{"ID":392413,"DIS_CODE":0,"TOWNNAME":"東區","LI":"東光里","LIN":"23鄰","STREET":"東安路","SECT":" ","MAREA":" ","LANE":"１５６巷","ALLEY":" ","HOUSE_NO":"１１號","E_COORD97":170812.92000000001,"N_COORD97":2543896.75,"ADDRESS":"東安路１５６巷１１號","OBJECTID":392389},"geometry":{"x":170812.92000000086,"y":2543896.75}},{"attributes":{"ID":392414,"DIS_CODE":0,"TOWNNAME":"東區","LI":"東光里","LIN":"23鄰","STREET":"東安路","SECT":" ","MAREA":" ","LANE":"１５６巷","ALLEY":" ","HOUSE_NO":"１３號","E_COORD97":170821.44,"N_COORD97":2543895.1099999999,"ADDRESS":"東安路１５６巷１３號","OBJECTID":392390},"geometry":{"x":170821.44000000227,"y":2543895.1100000013}},{"attributes":{"ID":392415,"DIS_CODE":0,"TOWNNAME":"東區","LI":"東光里","LIN":"23鄰","STREET":"東安路","SECT":" ","MAREA":" ","LANE":"１５６巷","ALLEY":" ","HOUSE_NO":"１５號","E_COORD97":170827.98999999999,"N_COORD97":2543894.2400000002,"ADDRESS":"東安路１５６巷１５號","OBJECTID":392391},"geometry":{"x":170827.99000000115,"y":2543894.2400000039}},{"attributes":{"ID":392416,"DIS_CODE":0,"TOWNNAME":"東區","LI":"東光里","LIN":"23鄰","STREET":"東安路","SECT":" ","MAREA":" ","LANE":"１５６巷","ALLEY":" ","HOUSE_NO":"１７號","E_COORD97":170832.54999999999,"N_COORD97":2543892.6000000001,"ADDRESS":"東安路１５６巷１７號","OBJECTID":392392},"geometry":{"x":170832.55000000075,"y":2543892.6000000015}},{"attributes":{"ID":392417,"DIS_CODE":0,"TOWNNAME":"東區","LI":"東光里","LIN":"23鄰","STREET":"東安路","SECT":" ","MAREA":" ","LANE":"１５６巷","ALLEY":" ","HOUSE_NO":"１９號","E_COORD97":170839.37,"N_COORD97":2543892.6000000001,"ADDRESS":"東安路１５６巷１９號","OBJECTID":392393},"geometry":{"x":170839.37000000011,"y":2543892.6000000015}},{"attributes":{"ID":392418,"DIS_CODE":0,"TOWNNAME":"東區","LI":"東光里","LIN":"23鄰","STREET":"東安路","SECT":" ","MAREA":" ","LANE":"１５６巷","ALLEY":" ","HOUSE_NO":"２３號","E_COORD97":170850.75,"N_COORD97":2543892.3900000001,"ADDRESS":"東安路１５６巷２３號","OBJECTID":392394},"geometry":{"x":170850.75,"y":2543892.3900000006}},{"attributes":{"ID":392419,"DIS_CODE":0,"TOWNNAME":"東區","LI":"東光里","LIN":"23鄰","STREET":"東安路","SECT":" ","MAREA":" ","LANE":"１５６巷","ALLEY":" ","HOUSE_NO":"２５號","E_COORD97":170857.25,"N_COORD97":2543891.8399999999,"ADDRESS":"東安路１５６巷２５號","OBJECTID":392395},"geometry":{"x":170857.25,"y":2543891.8399999999}},{"attributes":{"ID":392420,"DIS_CODE":0,"TOWNNAME":"東區","LI":"東光里","LIN":"23鄰","STREET":"東安路","SECT":" ","MAREA":" ","LANE":"１５６巷","ALLEY":" ","HOUSE_NO":"２７號","E_COORD97":170863.42000000001,"N_COORD97":2543890.7599999998,"ADDRESS":"東安路１５６巷２７號","OBJECTID":392396},"geometry":{"x":170863.42000000179,"y":2543890.7600000016}},{"attributes":{"ID":392421,"DIS_CODE":0,"TOWNNAME":"東區","LI":"東光里","LIN":"23鄰","STREET":"東安路","SECT":" ","MAREA":" ","LANE":"１５６巷","ALLEY":" ","HOUSE_NO":"２９號","E_COORD97":170869.16,"N_COORD97":2543889.8999999999,"ADDRESS":"東安路１５６巷２９號","OBJECTID":392397},"geometry":{"x":170869.16000000108,"y":2543889.9000000041}},{"attributes":{"ID":392422,"DIS_CODE":0,"TOWNNAME":"東區","LI":"東光里","LIN":"23鄰","STREET":"東安路","SECT":" ","MAREA":" ","LANE":"１５６巷","ALLEY":" ","HOUSE_NO":"３１號","E_COORD97":170875.32999999999,"N_COORD97":2543890,"ADDRESS":"東安路１５６巷３１號","OBJECTID":392398},"geometry":{"x":170875.33000000007,"y":2543890.0000000019}},{"attributes":{"ID":392423,"DIS_CODE":0,"TOWNNAME":"東區","LI":"東光里","LIN":"23鄰","STREET":"東安路","SECT":" ","MAREA":" ","LANE":"１５６巷","ALLEY":" ","HOUSE_NO":"２號","E_COORD97":170765.35999999999,"N_COORD97":2543876.54,"ADDRESS":"東安路１５６巷２號","OBJECTID":392399},"geometry":{"x":170765.36000000034,"y":2543876.5399999991}},{"attributes":{"ID":392424,"DIS_CODE":0,"TOWNNAME":"東區","LI":"東光里","LIN":"23鄰","STREET":"東安路","SECT":" ","MAREA":" ","LANE":"１５６巷","ALLEY":" ","HOUSE_NO":"４號","E_COORD97":170768.48999999999,"N_COORD97":2543874.46,"ADDRESS":"東安路１５６巷４號","OBJECTID":392400},"geometry":{"x":170768.49000000115,"y":2543874.4600000028}}]}