{"displayFieldName":"TOWNNAME","fieldAliases":{"ID":"ID","DIS_CODE":"DIS_CODE","TOWNNAME":"TOWNNAME","LI":"LI","LIN":"LIN","STREET":"STREET","SECT":"SECT","MAREA":"MAREA","LANE":"LANE","ALLEY":"ALLEY","HOUSE_NO":"HOUSE_NO","E_COORD97":"E_COORD97","N_COORD97":"N_COORD97","ADDRESS":"ADDRESS","OBJECTID":"OBJECTID"},"geometryType":"esriGeometryPoint","spatialReference":{"wkid":102443,"latestWkid":3826},"fields":[{"name":"ID","type":"esriFieldTypeDouble","alias":"ID"},{"name":"DIS_CODE","type":"esriFieldTypeInteger","alias":"DIS_CODE"},{"name":"TOWNNAME","type":"esriFieldTypeString","alias":"TOWNNAME","length":8},{"name":"LI","type":"esriFieldTypeString","alias":"LI","length":8},{"name":"LIN","type":"esriFieldTypeString","alias":"LIN","length":12},{"name":"STREET","type":"esriFieldTypeString","alias":"STREET","length":20},{"name":"SECT","type":"esriFieldTypeString","alias":"SECT","length":8},{"name":"MAREA","type":"esriFieldTypeString","alias":"MAREA","length":12},{"name":"LANE","type":"esriFieldTypeString","alias":"LANE","length":10},{"name":"ALLEY","type":"esriFieldTypeString","alias":"ALLEY","length":10},{"name":"HOUSE_NO","type":"esriFieldTypeString","alias":"HOUSE_NO","length":20},{"name":"E_COORD97","type":"esriFieldTypeDouble","alias":"E_COORD97"},{"name":"N_COORD97","type":"esriFieldTypeDouble","alias":"N_COORD97"},{"name":"ADDRESS","type":"esriFieldTypeString","alias":"ADDRESS","length":50},{"name":"OBJECTID","type":"esriFieldTypeOID","alias":"OBJECTID"}],"features":[{"attributes":{"ID":661828,"DIS_CODE":0,"TOWNNAME":"後壁區","LI":"後壁里","LIN":"5鄰","STREET":" ","SECT":" ","MAREA":"後壁","LANE":" ","ALLEY":" ","HOUSE_NO":"９７號之１","E_COORD97":184794.85354700001,"N_COORD97":2585154.0915299999,"ADDRESS":"後壁９７號之１","OBJECTID":661801},"geometry":{"x":184794.85354700033,"y":2585154.0915299989}},{"attributes":{"ID":661829,"DIS_CODE":0,"TOWNNAME":"新化區","LI":"全興里","LIN":"11鄰","STREET":" ","SECT":" ","MAREA":"竹子\u25A0","LANE":" ","ALLEY":" ","HOUSE_NO":"２５５號之２６","E_COORD97":178760.270953,"N_COORD97":2547432.62781,"ADDRESS":"竹子\u25A0２５５號之２６","OBJECTID":661802},"geometry":{"x":178760.27095299959,"y":2547432.6278139986}},{"attributes":{"ID":661830,"DIS_CODE":0,"TOWNNAME":"安南區","LI":"總頭里","LIN":"8鄰","STREET":"長溪路","SECT":"二段","MAREA":" ","LANE":"６７１巷","ALLEY":" ","HOUSE_NO":"１３６號","E_COORD97":168020.19740899999,"N_COORD97":2550614.3782500001,"ADDRESS":"長溪路二段６７１巷１３６號","OBJECTID":661803},"geometry":{"x":168020.19740900118,"y":2550614.378246}},{"attributes":{"ID":661831,"DIS_CODE":0,"TOWNNAME":"安南區","LI":"總頭里","LIN":"10鄰","STREET":"長溪路","SECT":"二段","MAREA":" ","LANE":"６７１巷","ALLEY":" ","HOUSE_NO":"２５０號","E_COORD97":167953.459172,"N_COORD97":2550509.1799699999,"ADDRESS":"長溪路二段６７１巷２５０號","OBJECTID":661804},"geometry":{"x":167953.45917200018,"y":2550509.1799699999}},{"attributes":{"ID":661832,"DIS_CODE":0,"TOWNNAME":"安南區","LI":"總頭里","LIN":"10鄰","STREET":"長溪路","SECT":"二段","MAREA":" ","LANE":"６７１巷","ALLEY":" ","HOUSE_NO":"２５２號","E_COORD97":167940.74712700001,"N_COORD97":2550512.1433000001,"ADDRESS":"長溪路二段６７１巷２５２號","OBJECTID":661805},"geometry":{"x":167940.74712700117,"y":2550512.1433020029}},{"attributes":{"ID":661833,"DIS_CODE":0,"TOWNNAME":"安南區","LI":"總頭里","LIN":"10鄰","STREET":"長溪路","SECT":"二段","MAREA":" ","LANE":"６７１巷","ALLEY":" ","HOUSE_NO":"２５６號","E_COORD97":167930.15375600001,"N_COORD97":2550513.8366299998,"ADDRESS":"長溪路二段６７１巷２５６號","OBJECTID":661806},"geometry":{"x":167930.15375600103,"y":2550513.8366340008}},{"attributes":{"ID":661834,"DIS_CODE":0,"TOWNNAME":"安南區","LI":"總頭里","LIN":"10鄰","STREET":"長溪路","SECT":"二段","MAREA":" ","LANE":"６７１巷","ALLEY":" ","HOUSE_NO":"２５８號","E_COORD97":167921.67905899999,"N_COORD97":2550516.3766299998,"ADDRESS":"長溪路二段６７１巷２５８號","OBJECTID":661807},"geometry":{"x":167921.67905899975,"y":2550516.3766330015}},{"attributes":{"ID":661835,"DIS_CODE":0,"TOWNNAME":"安南區","LI":"總頭里","LIN":"10鄰","STREET":"長溪路","SECT":"二段","MAREA":" ","LANE":"６７１巷","ALLEY":" ","HOUSE_NO":"２６０號","E_COORD97":167913.04538600001,"N_COORD97":2550515.5828100001,"ADDRESS":"長溪路二段６７１巷２６０號","OBJECTID":661808},"geometry":{"x":167913.04538599961,"y":2550515.582808001}},{"attributes":{"ID":661836,"DIS_CODE":0,"TOWNNAME":"安南區","LI":"總頭里","LIN":"10鄰","STREET":"長溪路","SECT":"二段","MAREA":" ","LANE":"６７１巷","ALLEY":" ","HOUSE_NO":"２６２號","E_COORD97":167904.782557,"N_COORD97":2550517.0644700001,"ADDRESS":"長溪路二段６７１巷２６２號","OBJECTID":661809},"geometry":{"x":167904.78255700041,"y":2550517.0644740015}},{"attributes":{"ID":661837,"DIS_CODE":0,"TOWNNAME":"安南區","LI":"總頭里","LIN":"10鄰","STREET":"長溪路","SECT":"二段","MAREA":" ","LANE":"６７１巷","ALLEY":" ","HOUSE_NO":"２６６號","E_COORD97":167894.824788,"N_COORD97":2550520.2394699999,"ADDRESS":"長溪路二段６７１巷２６６號","OBJECTID":661810},"geometry":{"x":167894.82478800043,"y":2550520.2394720018}},{"attributes":{"ID":661838,"DIS_CODE":0,"TOWNNAME":"安南區","LI":"總頭里","LIN":"10鄰","STREET":"長溪路","SECT":"二段","MAREA":" ","LANE":"６７１巷","ALLEY":" ","HOUSE_NO":"２６８號","E_COORD97":167886.985694,"N_COORD97":2550522.1444700002,"ADDRESS":"長溪路二段６７１巷２６８號","OBJECTID":661811},"geometry":{"x":167886.9856940005,"y":2550522.1444710009}},{"attributes":{"ID":661839,"DIS_CODE":0,"TOWNNAME":"安南區","LI":"總頭里","LIN":"10鄰","STREET":"長溪路","SECT":"二段","MAREA":" ","LANE":"６７１巷","ALLEY":" ","HOUSE_NO":"２７０號","E_COORD97":167879.35846700001,"N_COORD97":2550524.04947,"ADDRESS":"長溪路二段６７１巷２７０號","OBJECTID":661812},"geometry":{"x":167879.35846700147,"y":2550524.04947}},{"attributes":{"ID":661840,"DIS_CODE":0,"TOWNNAME":"安南區","LI":"總頭里","LIN":"10鄰","STREET":"長溪路","SECT":"二段","MAREA":" ","LANE":"６７１巷","ALLEY":" ","HOUSE_NO":"２７２號","E_COORD97":167868.12949299999,"N_COORD97":2550526.1661399999,"ADDRESS":"長溪路二段６７１巷２７２號","OBJECTID":661813},"geometry":{"x":167868.12949299999,"y":2550526.1661350019}},{"attributes":{"ID":661841,"DIS_CODE":0,"TOWNNAME":"安南區","LI":"總頭里","LIN":"10鄰","STREET":"長溪路","SECT":"二段","MAREA":" ","LANE":"６７１巷","ALLEY":" ","HOUSE_NO":"２７６號","E_COORD97":167855.62931600001,"N_COORD97":2550527.6477999999,"ADDRESS":"長溪路二段６７１巷２７６號","OBJECTID":661814},"geometry":{"x":167855.6293160012,"y":2550527.6478010025}},{"attributes":{"ID":661842,"DIS_CODE":0,"TOWNNAME":"安南區","LI":"總頭里","LIN":"10鄰","STREET":"長溪路","SECT":"二段","MAREA":" ","LANE":"６７１巷","ALLEY":" ","HOUSE_NO":"２７８號","E_COORD97":167850.80925600001,"N_COORD97":2550496.21532,"ADDRESS":"長溪路二段６７１巷２７８號","OBJECTID":661815},"geometry":{"x":167850.80925600138,"y":2550496.2153180018}},{"attributes":{"ID":661843,"DIS_CODE":0,"TOWNNAME":"安南區","LI":"總頭里","LIN":"10鄰","STREET":"長溪路","SECT":"二段","MAREA":" ","LANE":"６７１巷","ALLEY":" ","HOUSE_NO":"２８０號","E_COORD97":167860.76702500001,"N_COORD97":2550495.3686500001,"ADDRESS":"長溪路二段６７１巷２８０號","OBJECTID":661816},"geometry":{"x":167860.76702500135,"y":2550495.368652001}},{"attributes":{"ID":661844,"DIS_CODE":0,"TOWNNAME":"安南區","LI":"總頭里","LIN":"10鄰","STREET":"長溪路","SECT":"二段","MAREA":" ","LANE":"６７１巷","ALLEY":" ","HOUSE_NO":"２８２號","E_COORD97":167869.45358900001,"N_COORD97":2550492.1936499998,"ADDRESS":"長溪路二段６７１巷２８２號","OBJECTID":661817},"geometry":{"x":167869.45358899981,"y":2550492.1936540008}},{"attributes":{"ID":661845,"DIS_CODE":0,"TOWNNAME":"安南區","LI":"總頭里","LIN":"10鄰","STREET":"長溪路","SECT":"二段","MAREA":" ","LANE":"６７１巷","ALLEY":" ","HOUSE_NO":"２８６號","E_COORD97":167877.08081700001,"N_COORD97":2550491.55865,"ADDRESS":"長溪路二段６７１巷２８６號","OBJECTID":661818},"geometry":{"x":167877.08081700001,"y":2550491.558654001}},{"attributes":{"ID":661846,"DIS_CODE":0,"TOWNNAME":"安南區","LI":"總頭里","LIN":"10鄰","STREET":"長溪路","SECT":"二段","MAREA":" ","LANE":"６７１巷","ALLEY":" ","HOUSE_NO":"２８８號","E_COORD97":167886.61485000001,"N_COORD97":2550488.5953199998,"ADDRESS":"長溪路二段６７１巷２８８號","OBJECTID":661819},"geometry":{"x":167886.61484999955,"y":2550488.595321998}},{"attributes":{"ID":661847,"DIS_CODE":0,"TOWNNAME":"安南區","LI":"總頭里","LIN":"10鄰","STREET":"長溪路","SECT":"二段","MAREA":" ","LANE":"６７１巷","ALLEY":" ","HOUSE_NO":"２９０號","E_COORD97":167896.996354,"N_COORD97":2550485.8436599998,"ADDRESS":"長溪路二段６７１巷２９０號","OBJECTID":661820},"geometry":{"x":167896.99635400064,"y":2550485.8436570019}},{"attributes":{"ID":661848,"DIS_CODE":0,"TOWNNAME":"安南區","LI":"總頭里","LIN":"10鄰","STREET":"長溪路","SECT":"二段","MAREA":" ","LANE":"６７１巷","ALLEY":" ","HOUSE_NO":"２９２號","E_COORD97":167905.68291800001,"N_COORD97":2550483.93866,"ADDRESS":"長溪路二段６７１巷２９２號","OBJECTID":661821},"geometry":{"x":167905.68291800097,"y":2550483.9386579972}},{"attributes":{"ID":661849,"DIS_CODE":0,"TOWNNAME":"安南區","LI":"總頭里","LIN":"10鄰","STREET":"長溪路","SECT":"二段","MAREA":" ","LANE":"６７１巷","ALLEY":" ","HOUSE_NO":"２９６號","E_COORD97":167914.157615,"N_COORD97":2550481.6103300001,"ADDRESS":"長溪路二段６７１巷２９６號","OBJECTID":661822},"geometry":{"x":167914.15761500038,"y":2550481.6103259996}},{"attributes":{"ID":661850,"DIS_CODE":0,"TOWNNAME":"安南區","LI":"總頭里","LIN":"10鄰","STREET":"長溪路","SECT":"二段","MAREA":" ","LANE":"６７１巷","ALLEY":" ","HOUSE_NO":"２９８號","E_COORD97":167923.90351599999,"N_COORD97":2550480.5519900001,"ADDRESS":"長溪路二段６７１巷２９８號","OBJECTID":661823},"geometry":{"x":167923.903516002,"y":2550480.5519930013}},{"attributes":{"ID":661851,"DIS_CODE":0,"TOWNNAME":"安南區","LI":"總頭里","LIN":"10鄰","STREET":"長溪路","SECT":"二段","MAREA":" ","LANE":"６７１巷","ALLEY":" ","HOUSE_NO":"３００號","E_COORD97":167932.59007999999,"N_COORD97":2550478.6469899998,"ADDRESS":"長溪路二段６７１巷３００號","OBJECTID":661824},"geometry":{"x":167932.59008000232,"y":2550478.6469940022}},{"attributes":{"ID":661852,"DIS_CODE":0,"TOWNNAME":"安南區","LI":"總頭里","LIN":"10鄰","STREET":"長溪路","SECT":"二段","MAREA":" ","LANE":"６７１巷","ALLEY":" ","HOUSE_NO":"３０２號","E_COORD97":167945.302126,"N_COORD97":2550476.1069999998,"ADDRESS":"長溪路二段６７１巷３０２號","OBJECTID":661825},"geometry":{"x":167945.30212600064,"y":2550476.1069960017}},{"attributes":{"ID":661853,"DIS_CODE":0,"TOWNNAME":"東區","LI":"虎尾里","LIN":"5鄰","STREET":"富農街","SECT":"一段","MAREA":" ","LANE":"４８巷","ALLEY":" ","HOUSE_NO":"２號之１","E_COORD97":171574.39948200001,"N_COORD97":2542131.01694,"ADDRESS":"富農街一段４８巷２號之１","OBJECTID":661826},"geometry":{"x":171574.39948200155,"y":2542131.0169420019}},{"attributes":{"ID":661854,"DIS_CODE":0,"TOWNNAME":"安定區","LI":"海寮里","LIN":"21鄰","STREET":" ","SECT":" ","MAREA":"海寮","LANE":" ","ALLEY":" ","HOUSE_NO":"２０１之２９號","E_COORD97":169349.034113,"N_COORD97":2556104.4394499999,"ADDRESS":"海寮２０１之２９號","OBJECTID":661827},"geometry":{"x":169349.03411300015,"y":2556104.4394470006}},{"attributes":{"ID":661855,"DIS_CODE":0,"TOWNNAME":"安定區","LI":"港口里","LIN":"2鄰","STREET":" ","SECT":" ","MAREA":"港口","LANE":" ","ALLEY":" ","HOUSE_NO":"２５１之５２號","E_COORD97":171734.888397,"N_COORD97":2554733.3164400002,"ADDRESS":"港口２５１之５２號","OBJECTID":661828},"geometry":{"x":171734.8883969998,"y":2554733.3164370023}},{"attributes":{"ID":661856,"DIS_CODE":0,"TOWNNAME":"安定區","LI":"中沙里","LIN":"5鄰","STREET":" ","SECT":" ","MAREA":"沙崙","LANE":" ","ALLEY":" ","HOUSE_NO":"４之１３號","E_COORD97":168909.61408100001,"N_COORD97":2552897.7440999998,"ADDRESS":"沙崙４之１３號","OBJECTID":661829},"geometry":{"x":168909.61408099998,"y":2552897.7440950014}},{"attributes":{"ID":661857,"DIS_CODE":0,"TOWNNAME":"東區","LI":"南聖里","LIN":"8鄰","STREET":"裕農一街","SECT":" ","MAREA":" ","LANE":" ","ALLEY":" ","HOUSE_NO":"１２號","E_COORD97":171898.701225,"N_COORD97":2543190.0618500002,"ADDRESS":"裕農一街１２號","OBJECTID":661830},"geometry":{"x":171898.70122500136,"y":2543190.0618479997}},{"attributes":{"ID":661858,"DIS_CODE":0,"TOWNNAME":"東區","LI":"南聖里","LIN":"8鄰","STREET":"裕農路","SECT":" ","MAREA":" ","LANE":"７２６巷","ALLEY":" ","HOUSE_NO":"１號","E_COORD97":171852.512758,"N_COORD97":2543211.9693399998,"ADDRESS":"裕農路７２６巷１號","OBJECTID":661831},"geometry":{"x":171852.51275800075,"y":2543211.9693359993}},{"attributes":{"ID":661859,"DIS_CODE":0,"TOWNNAME":"安定區","LI":"安加里","LIN":"10鄰","STREET":" ","SECT":" ","MAREA":"安定","LANE":" ","ALLEY":" ","HOUSE_NO":"２６２之１８號","E_COORD97":171278.49776299999,"N_COORD97":2556860.0960300001,"ADDRESS":"安定２６２之１８號","OBJECTID":661832},"geometry":{"x":171278.4977629995,"y":2556860.0960290022}},{"attributes":{"ID":661860,"DIS_CODE":0,"TOWNNAME":"東區","LI":"南聖里","LIN":"14鄰","STREET":"裕信路","SECT":" ","MAREA":" ","LANE":" ","ALLEY":" ","HOUSE_NO":"２號","E_COORD97":172583.953496,"N_COORD97":2543354.9630100001,"ADDRESS":"裕信路２號","OBJECTID":661833},"geometry":{"x":172583.95349600166,"y":2543354.9630139992}},{"attributes":{"ID":661861,"DIS_CODE":0,"TOWNNAME":"安定區","LI":"新吉里","LIN":"19鄰","STREET":" ","SECT":" ","MAREA":"公親寮","LANE":" ","ALLEY":" ","HOUSE_NO":"１之２０號","E_COORD97":167678.77013600001,"N_COORD97":2553406.06831,"ADDRESS":"公親寮１之２０號","OBJECTID":661834},"geometry":{"x":167678.77013600059,"y":2553406.068311004}},{"attributes":{"ID":661862,"DIS_CODE":0,"TOWNNAME":"東區","LI":"南聖里","LIN":"14鄰","STREET":"裕農路","SECT":" ","MAREA":" ","LANE":" ","ALLEY":" ","HOUSE_NO":"９６２號","E_COORD97":172579.08040100001,"N_COORD97":2543368.0863399999,"ADDRESS":"裕農路９６２號","OBJECTID":661835},"geometry":{"x":172579.0804009987,"y":2543368.0863400009}},{"attributes":{"ID":661863,"DIS_CODE":0,"TOWNNAME":"下營區","LI":"茅港里","LIN":"7鄰","STREET":" ","SECT":" ","MAREA":"茅港尾","LANE":" ","ALLEY":" ","HOUSE_NO":"１７１之２號","E_COORD97":176583.08618099999,"N_COORD97":2568341.6523899999,"ADDRESS":"茅港尾１７１之２號","OBJECTID":661836},"geometry":{"x":176583.08618100081,"y":2568341.652392}},{"attributes":{"ID":661864,"DIS_CODE":0,"TOWNNAME":"安定區","LI":"六嘉里","LIN":"4鄰","STREET":" ","SECT":" ","MAREA":"六塊寮","LANE":" ","ALLEY":" ","HOUSE_NO":"３０之６０號","E_COORD97":169307.22465300001,"N_COORD97":2553501.10659,"ADDRESS":"六塊寮３０之６０號","OBJECTID":661837},"geometry":{"x":169307.22465300001,"y":2553501.1065929998}},{"attributes":{"ID":661865,"DIS_CODE":0,"TOWNNAME":"安定區","LI":"蘇林里","LIN":"14鄰","STREET":" ","SECT":" ","MAREA":"蘇厝","LANE":" ","ALLEY":" ","HOUSE_NO":"１５５之２號","E_COORD97":173517.410879,"N_COORD97":2558820.73685,"ADDRESS":"蘇厝１５５之２號","OBJECTID":661838},"geometry":{"x":173517.41087900102,"y":2558820.7368449997}},{"attributes":{"ID":661866,"DIS_CODE":0,"TOWNNAME":"安定區","LI":"管寮里","LIN":"1鄰","STREET":" ","SECT":" ","MAREA":"管寮","LANE":" ","ALLEY":" ","HOUSE_NO":"１１之３號","E_COORD97":170025.83025699999,"N_COORD97":2556190.0920199999,"ADDRESS":"管寮１１之３號","OBJECTID":661839},"geometry":{"x":170025.83025700133,"y":2556190.0920160003}},{"attributes":{"ID":661867,"DIS_CODE":0,"TOWNNAME":"新市區","LI":"社內里","LIN":"18鄰","STREET":" ","SECT":" ","MAREA":"社內","LANE":" ","ALLEY":" ","HOUSE_NO":"１８８之２號","E_COORD97":176149.60855400001,"N_COORD97":2553080.8703899998,"ADDRESS":"社內１８８之２號","OBJECTID":661840},"geometry":{"x":176149.60855400003,"y":2553080.8703920022}},{"attributes":{"ID":661868,"DIS_CODE":0,"TOWNNAME":"安定區","LI":"安加里","LIN":"1鄰","STREET":" ","SECT":" ","MAREA":"安定","LANE":" ","ALLEY":" ","HOUSE_NO":"１５８之１２號","E_COORD97":172081.417781,"N_COORD97":2557626.9374899999,"ADDRESS":"安定１５８之１２號","OBJECTID":661841},"geometry":{"x":172081.41778100003,"y":2557626.9374899995}},{"attributes":{"ID":661869,"DIS_CODE":0,"TOWNNAME":"安定區","LI":"港南里","LIN":"3鄰","STREET":" ","SECT":" ","MAREA":"港口","LANE":" ","ALLEY":" ","HOUSE_NO":"１９之１０號","E_COORD97":171450.516114,"N_COORD97":2554205.1095500002,"ADDRESS":"港口１９之１０號","OBJECTID":661842},"geometry":{"x":171450.51611400209,"y":2554205.1095460039}},{"attributes":{"ID":661870,"DIS_CODE":0,"TOWNNAME":"安定區","LI":"港南里","LIN":"3鄰","STREET":" ","SECT":" ","MAREA":"港口","LANE":" ","ALLEY":" ","HOUSE_NO":"１９之９號","E_COORD97":171453.587871,"N_COORD97":2554201.82871,"ADDRESS":"港口１９之９號","OBJECTID":661843},"geometry":{"x":171453.5878710011,"y":2554201.8287150022}},{"attributes":{"ID":661871,"DIS_CODE":0,"TOWNNAME":"安定區","LI":"港南里","LIN":"3鄰","STREET":" ","SECT":" ","MAREA":"港口","LANE":" ","ALLEY":" ","HOUSE_NO":"１９之８號","E_COORD97":171456.23593600001,"N_COORD97":2554198.4420500002,"ADDRESS":"港口１９之８號","OBJECTID":661844},"geometry":{"x":171456.23593600094,"y":2554198.4420500025}},{"attributes":{"ID":661872,"DIS_CODE":0,"TOWNNAME":"安定區","LI":"港南里","LIN":"3鄰","STREET":" ","SECT":" ","MAREA":"港口","LANE":" ","ALLEY":" ","HOUSE_NO":"１９之７號","E_COORD97":171458.566234,"N_COORD97":2554195.69038,"ADDRESS":"港口１９之７號","OBJECTID":661845},"geometry":{"x":171458.56623400096,"y":2554195.6903850008}},{"attributes":{"ID":661873,"DIS_CODE":0,"TOWNNAME":"安定區","LI":"港南里","LIN":"3鄰","STREET":" ","SECT":" ","MAREA":"港口","LANE":" ","ALLEY":" ","HOUSE_NO":"１９號之１","E_COORD97":171461.63798999999,"N_COORD97":2554203.5220400002,"ADDRESS":"港口１９之１號","OBJECTID":661846},"geometry":{"x":171461.63799000159,"y":2554203.522040002}},{"attributes":{"ID":661874,"DIS_CODE":0,"TOWNNAME":"安定區","LI":"港南里","LIN":"3鄰","STREET":" ","SECT":" ","MAREA":"港口","LANE":" ","ALLEY":" ","HOUSE_NO":"１９之２號","E_COORD97":171451.25757300001,"N_COORD97":2554220.03204,"ADDRESS":"港口１９之２號","OBJECTID":661847},"geometry":{"x":171451.25757300202,"y":2554220.0320379995}},{"attributes":{"ID":661875,"DIS_CODE":0,"TOWNNAME":"安定區","LI":"南安里","LIN":"1鄰","STREET":" ","SECT":" ","MAREA":"油車","LANE":" ","ALLEY":" ","HOUSE_NO":"４之２０號","E_COORD97":170925.563559,"N_COORD97":2556739.4990099999,"ADDRESS":"油車４之２０號","OBJECTID":661848},"geometry":{"x":170925.56355900038,"y":2556739.4990110043}},{"attributes":{"ID":661876,"DIS_CODE":0,"TOWNNAME":"安定區","LI":"南安里","LIN":"1鄰","STREET":" ","SECT":" ","MAREA":"油車","LANE":" ","ALLEY":" ","HOUSE_NO":"４之１０號","E_COORD97":170913.06468800001,"N_COORD97":2556803.4223099998,"ADDRESS":"油車４之１０號","OBJECTID":661849},"geometry":{"x":170913.0646879999,"y":2556803.4223100003}},{"attributes":{"ID":661877,"DIS_CODE":0,"TOWNNAME":"東區","LI":"泉南里","LIN":"15鄰","STREET":"光華街","SECT":" ","MAREA":" ","LANE":" ","ALLEY":" ","HOUSE_NO":"１０５號","E_COORD97":169806.713024,"N_COORD97":2542823.4682999998,"ADDRESS":"光華街１０５號","OBJECTID":661850},"geometry":{"x":169806.71302400064,"y":2542823.4683010001}},{"attributes":{"ID":661878,"DIS_CODE":0,"TOWNNAME":"安定區","LI":"港尾里","LIN":"7鄰","STREET":" ","SECT":" ","MAREA":"港子尾","LANE":" ","ALLEY":" ","HOUSE_NO":"３７之３２號","E_COORD97":172419.39041299999,"N_COORD97":2555810.60035,"ADDRESS":"港子尾３７之３２號","OBJECTID":661851},"geometry":{"x":172419.39041300118,"y":2555810.6003460009}},{"attributes":{"ID":661879,"DIS_CODE":0,"TOWNNAME":"安定區","LI":"港尾里","LIN":"7鄰","STREET":" ","SECT":" ","MAREA":"港子尾","LANE":" ","ALLEY":" ","HOUSE_NO":"３７之２０號","E_COORD97":172395.66374399999,"N_COORD97":2555823.08867,"ADDRESS":"港子尾３７之２０號","OBJECTID":661852},"geometry":{"x":172395.66374399979,"y":2555823.0886720028}},{"attributes":{"ID":661880,"DIS_CODE":0,"TOWNNAME":"玉井區","LI":"玉井里","LIN":"15鄰","STREET":"中華路","SECT":" ","MAREA":" ","LANE":" ","ALLEY":" ","HOUSE_NO":"２４號","E_COORD97":194918.10490199999,"N_COORD97":2558137.9640899999,"ADDRESS":"中華路２４號","OBJECTID":661853},"geometry":{"x":194918.10490200017,"y":2558137.9640850015}},{"attributes":{"ID":661881,"DIS_CODE":0,"TOWNNAME":"玉井區","LI":"玉井里","LIN":"15鄰","STREET":"中正路","SECT":" ","MAREA":" ","LANE":" ","ALLEY":" ","HOUSE_NO":"１０６號","E_COORD97":194846.705582,"N_COORD97":2558144.8432499999,"ADDRESS":"中正路１０６號","OBJECTID":661854},"geometry":{"x":194846.70558200032,"y":2558144.8432480004}},{"attributes":{"ID":661882,"DIS_CODE":0,"TOWNNAME":"安定區","LI":"新吉里","LIN":"18鄰","STREET":" ","SECT":" ","MAREA":"新吉","LANE":" ","ALLEY":" ","HOUSE_NO":"２８２之５號","E_COORD97":168472.448404,"N_COORD97":2553974.0225900002,"ADDRESS":"新吉２８２之５號","OBJECTID":661855},"geometry":{"x":168472.44840400107,"y":2553974.0225879997}},{"attributes":{"ID":661883,"DIS_CODE":0,"TOWNNAME":"玉井區","LI":"玉井里","LIN":"17鄰","STREET":"民主街","SECT":" ","MAREA":" ","LANE":" ","ALLEY":" ","HOUSE_NO":"１７號","E_COORD97":194790.13698099999,"N_COORD97":2557998.4758299999,"ADDRESS":"民主街１７號","OBJECTID":661856},"geometry":{"x":194790.13698100019,"y":2557998.4758270048}},{"attributes":{"ID":661884,"DIS_CODE":0,"TOWNNAME":"玉井區","LI":"玉井里","LIN":"5鄰","STREET":"憲政街","SECT":" ","MAREA":" ","LANE":"９２巷","ALLEY":" ","HOUSE_NO":"２號","E_COORD97":194421.06393599999,"N_COORD97":2558042.1849699998,"ADDRESS":"憲政街９２巷２號","OBJECTID":661857},"geometry":{"x":194421.06393600069,"y":2558042.1849700008}},{"attributes":{"ID":661885,"DIS_CODE":0,"TOWNNAME":"玉井區","LI":"玉井里","LIN":"5鄰","STREET":"憲政街","SECT":" ","MAREA":" ","LANE":" ","ALLEY":" ","HOUSE_NO":"２７號","E_COORD97":194456.86953,"N_COORD97":2557992.02,"ADDRESS":"憲政街２７號","OBJECTID":661858},"geometry":{"x":194456.86952999979,"y":2557992.0199970007}},{"attributes":{"ID":661886,"DIS_CODE":0,"TOWNNAME":"玉井區","LI":"玉井里","LIN":"13鄰","STREET":"富強街","SECT":" ","MAREA":" ","LANE":" ","ALLEY":" ","HOUSE_NO":"１５號","E_COORD97":194886.960391,"N_COORD97":2558241.8923599999,"ADDRESS":"富強街１５號","OBJECTID":661859},"geometry":{"x":194886.96039100084,"y":2558241.8923620004}},{"attributes":{"ID":661887,"DIS_CODE":0,"TOWNNAME":"安定區","LI":"六嘉里","LIN":"4鄰","STREET":" ","SECT":" ","MAREA":"六塊寮","LANE":" ","ALLEY":" ","HOUSE_NO":"２７之１１號","E_COORD97":169948.63914000001,"N_COORD97":2553604.5057000001,"ADDRESS":"六塊寮２７之１１號","OBJECTID":661860},"geometry":{"x":169948.63914000057,"y":2553604.5057040025}},{"attributes":{"ID":661888,"DIS_CODE":0,"TOWNNAME":"玉井區","LI":"竹圍里","LIN":"2鄰","STREET":"中山路","SECT":" ","MAREA":" ","LANE":" ","ALLEY":" ","HOUSE_NO":"４４８號","E_COORD97":195320.70619200001,"N_COORD97":2558295.3911600001,"ADDRESS":"中山路４４８號","OBJECTID":661861},"geometry":{"x":195320.70619200077,"y":2558295.3911589999}},{"attributes":{"ID":661889,"DIS_CODE":0,"TOWNNAME":"安定區","LI":"港口里","LIN":"14鄰","STREET":" ","SECT":" ","MAREA":"港口","LANE":" ","ALLEY":" ","HOUSE_NO":"３３２之２９號","E_COORD97":170919.10227800001,"N_COORD97":2554634.36931,"ADDRESS":"港口３３２之２９號","OBJECTID":661862},"geometry":{"x":170919.10227800161,"y":2554634.3693140019}},{"attributes":{"ID":661890,"DIS_CODE":0,"TOWNNAME":"玉井區","LI":"竹圍里","LIN":"1鄰","STREET":"中山路","SECT":" ","MAREA":" ","LANE":" ","ALLEY":" ","HOUSE_NO":"３４９號","E_COORD97":195285.11246599999,"N_COORD97":2558362.8069600002,"ADDRESS":"中山路３４９號","OBJECTID":661863},"geometry":{"x":195285.11246600095,"y":2558362.8069560025}},{"attributes":{"ID":661891,"DIS_CODE":0,"TOWNNAME":"安定區","LI":"海寮里","LIN":"1鄰","STREET":" ","SECT":" ","MAREA":"海寮","LANE":" ","ALLEY":" ","HOUSE_NO":"７之８５號","E_COORD97":169203.42047499999,"N_COORD97":2554801.0038100001,"ADDRESS":"海寮７之８５號","OBJECTID":661864},"geometry":{"x":169203.42047500052,"y":2554801.0038079992}},{"attributes":{"ID":661892,"DIS_CODE":0,"TOWNNAME":"安定區","LI":"港南里","LIN":"18鄰","STREET":" ","SECT":" ","MAREA":"港口","LANE":" ","ALLEY":" ","HOUSE_NO":"２３８之８號","E_COORD97":171618.00627300001,"N_COORD97":2554525.7050000001,"ADDRESS":"港口２３８之８號","OBJECTID":661865},"geometry":{"x":171618.00627299957,"y":2554525.7049979996}},{"attributes":{"ID":661893,"DIS_CODE":0,"TOWNNAME":"安定區","LI":"港南里","LIN":"18鄰","STREET":" ","SECT":" ","MAREA":"港口","LANE":" ","ALLEY":" ","HOUSE_NO":"２３８之２號","E_COORD97":171615.94078199999,"N_COORD97":2554504.8558399999,"ADDRESS":"港口２３８之２號","OBJECTID":661866},"geometry":{"x":171615.94078200124,"y":2554504.855843002}},{"attributes":{"ID":661894,"DIS_CODE":0,"TOWNNAME":"安定區","LI":"港南里","LIN":"18鄰","STREET":" ","SECT":" ","MAREA":"港口","LANE":" ","ALLEY":" ","HOUSE_NO":"２３８之１號","E_COORD97":171611.174264,"N_COORD97":2554506.2316700001,"ADDRESS":"港口２３８之１號","OBJECTID":661867},"geometry":{"x":171611.1742639998,"y":2554506.231674999}},{"attributes":{"ID":661895,"DIS_CODE":0,"TOWNNAME":"安定區","LI":"新吉里","LIN":"18鄰","STREET":" ","SECT":" ","MAREA":"新吉","LANE":" ","ALLEY":" ","HOUSE_NO":"２８３之３號","E_COORD97":168764.715421,"N_COORD97":2554407.4892299999,"ADDRESS":"新吉２８３之３號","OBJECTID":661868},"geometry":{"x":168764.71542099956,"y":2554407.4892280009}},{"attributes":{"ID":661896,"DIS_CODE":0,"TOWNNAME":"安定區","LI":"港南里","LIN":"1鄰","STREET":" ","SECT":" ","MAREA":"港口","LANE":" ","ALLEY":" ","HOUSE_NO":"１之８１號","E_COORD97":170630.224785,"N_COORD97":2553856.5211900002,"ADDRESS":"港口１之８１號","OBJECTID":661869},"geometry":{"x":170630.22478500102,"y":2553856.5211930014}},{"attributes":{"ID":661897,"DIS_CODE":0,"TOWNNAME":"安定區","LI":"中沙里","LIN":"4鄰","STREET":" ","SECT":" ","MAREA":"中崙","LANE":" ","ALLEY":" ","HOUSE_NO":"１２５之１１號","E_COORD97":169058.862566,"N_COORD97":2553065.8407899998,"ADDRESS":"中崙１２５之１１號","OBJECTID":661870},"geometry":{"x":169058.86256600078,"y":2553065.8407860007}},{"attributes":{"ID":661898,"DIS_CODE":0,"TOWNNAME":"安定區","LI":"新吉里","LIN":"7鄰","STREET":" ","SECT":" ","MAREA":"新吉","LANE":" ","ALLEY":" ","HOUSE_NO":"５６之２５０號","E_COORD97":167532.199696,"N_COORD97":2553600.193,"ADDRESS":"新吉５６之２５０號","OBJECTID":661871},"geometry":{"x":167532.19969600067,"y":2553600.1929980014}},{"attributes":{"ID":661899,"DIS_CODE":0,"TOWNNAME":"善化區","LI":"牛庄里","LIN":"3鄰","STREET":" ","SECT":" ","MAREA":"牛庄","LANE":" ","ALLEY":" ","HOUSE_NO":"３３號","E_COORD97":180318.919432,"N_COORD97":2559911.30736,"ADDRESS":"牛庄３３號","OBJECTID":661872},"geometry":{"x":180318.91943200026,"y":2559911.3073650021}},{"attributes":{"ID":661900,"DIS_CODE":0,"TOWNNAME":"善化區","LI":"牛庄里","LIN":"3鄰","STREET":" ","SECT":" ","MAREA":"牛庄","LANE":" ","ALLEY":" ","HOUSE_NO":"４０號","E_COORD97":180253.00887600001,"N_COORD97":2560013.22481,"ADDRESS":"牛庄４０號","OBJECTID":661873},"geometry":{"x":180253.00887600053,"y":2560013.2248100005}},{"attributes":{"ID":661901,"DIS_CODE":0,"TOWNNAME":"善化區","LI":"牛庄里","LIN":"9鄰","STREET":" ","SECT":" ","MAREA":"牛庄","LANE":" ","ALLEY":" ","HOUSE_NO":"１０６號","E_COORD97":180075.304539,"N_COORD97":2559977.6649799999,"ADDRESS":"牛庄１０６號","OBJECTID":661874},"geometry":{"x":180075.30453899968,"y":2559977.6649799999}},{"attributes":{"ID":661902,"DIS_CODE":0,"TOWNNAME":"善化區","LI":"牛庄里","LIN":"9鄰","STREET":" ","SECT":" ","MAREA":"牛庄","LANE":" ","ALLEY":" ","HOUSE_NO":"１１１號之１","E_COORD97":180086.11301999999,"N_COORD97":2559923.3725000001,"ADDRESS":"牛庄１１１號之１","OBJECTID":661875},"geometry":{"x":180086.11302000098,"y":2559923.3725000005}},{"attributes":{"ID":661903,"DIS_CODE":0,"TOWNNAME":"善化區","LI":"牛庄里","LIN":"11鄰","STREET":" ","SECT":" ","MAREA":"牛庄","LANE":" ","ALLEY":" ","HOUSE_NO":"１３５號之１０","E_COORD97":179911.26990000001,"N_COORD97":2559931.3100000001,"ADDRESS":"牛庄１３５號之１０","OBJECTID":661876},"geometry":{"x":179911.26990000159,"y":2559931.3100000024}},{"attributes":{"ID":661904,"DIS_CODE":0,"TOWNNAME":"善化區","LI":"牛庄里","LIN":"11鄰","STREET":" ","SECT":" ","MAREA":"牛庄","LANE":" ","ALLEY":" ","HOUSE_NO":"１３５號之８","E_COORD97":179912.96535000001,"N_COORD97":2559945.5974900001,"ADDRESS":"牛庄１３５號之８","OBJECTID":661877},"geometry":{"x":179912.96535000112,"y":2559945.5974899996}},{"attributes":{"ID":661905,"DIS_CODE":0,"TOWNNAME":"善化區","LI":"牛庄里","LIN":"13鄰","STREET":" ","SECT":" ","MAREA":"牛庄","LANE":" ","ALLEY":" ","HOUSE_NO":"１６號之２２","E_COORD97":180086.69589999999,"N_COORD97":2559675.7753300001,"ADDRESS":"牛庄１６號之２２","OBJECTID":661878},"geometry":{"x":180086.6958999997,"y":2559675.7753300015}},{"attributes":{"ID":661906,"DIS_CODE":0,"TOWNNAME":"善化區","LI":"牛庄里","LIN":"13鄰","STREET":" ","SECT":" ","MAREA":"牛庄","LANE":" ","ALLEY":" ","HOUSE_NO":"１號","E_COORD97":180099.62370299999,"N_COORD97":2559732.07864,"ADDRESS":"牛庄１號","OBJECTID":661879},"geometry":{"x":180099.62370300014,"y":2559732.0786360018}},{"attributes":{"ID":661907,"DIS_CODE":0,"TOWNNAME":"善化區","LI":"牛庄里","LIN":"14鄰","STREET":" ","SECT":" ","MAREA":"牛庄","LANE":" ","ALLEY":" ","HOUSE_NO":"１４４號","E_COORD97":179901.25623900001,"N_COORD97":2559841.40441,"ADDRESS":"牛庄１４４號","OBJECTID":661880},"geometry":{"x":179901.25623900071,"y":2559841.4044110011}},{"attributes":{"ID":661908,"DIS_CODE":0,"TOWNNAME":"善化區","LI":"牛庄里","LIN":"1鄰","STREET":" ","SECT":" ","MAREA":"牛庄","LANE":" ","ALLEY":" ","HOUSE_NO":"１３號","E_COORD97":180232.50447099999,"N_COORD97":2559857.8085699999,"ADDRESS":"牛庄１３號","OBJECTID":661881},"geometry":{"x":180232.50447100122,"y":2559857.8085680027}},{"attributes":{"ID":661909,"DIS_CODE":0,"TOWNNAME":"善化區","LI":"牛庄里","LIN":"2鄰","STREET":" ","SECT":" ","MAREA":"牛庄","LANE":" ","ALLEY":" ","HOUSE_NO":"２４號之２","E_COORD97":180289.51392,"N_COORD97":2559875.9060499999,"ADDRESS":"牛庄２４號之２","OBJECTID":661882},"geometry":{"x":180289.51391999982,"y":2559875.9060500022}},{"attributes":{"ID":661910,"DIS_CODE":0,"TOWNNAME":"善化區","LI":"牛庄里","LIN":"5鄰","STREET":" ","SECT":" ","MAREA":"牛庄","LANE":" ","ALLEY":" ","HOUSE_NO":"４９號之１","E_COORD97":180229.11356999999,"N_COORD97":2559874.84772,"ADDRESS":"牛庄４９號之１","OBJECTID":661883},"geometry":{"x":180229.11357000005,"y":2559874.8477200028}},{"attributes":{"ID":661911,"DIS_CODE":0,"TOWNNAME":"善化區","LI":"牛庄里","LIN":"5鄰","STREET":" ","SECT":" ","MAREA":"牛庄","LANE":" ","ALLEY":" ","HOUSE_NO":"４９號之２","E_COORD97":180235.25956999999,"N_COORD97":2559872.9427200002,"ADDRESS":"牛庄４９號之２","OBJECTID":661884},"geometry":{"x":180235.25957000069,"y":2559872.9427199997}},{"attributes":{"ID":661912,"DIS_CODE":0,"TOWNNAME":"善化區","LI":"牛庄里","LIN":"7鄰","STREET":" ","SECT":" ","MAREA":"牛庄","LANE":" ","ALLEY":" ","HOUSE_NO":"７０號之１","E_COORD97":180123.57191,"N_COORD97":2560093.2875999999,"ADDRESS":"牛庄７０號之１","OBJECTID":661885},"geometry":{"x":180123.57191000227,"y":2560093.2876000032}},{"attributes":{"ID":661913,"DIS_CODE":0,"TOWNNAME":"善化區","LI":"牛庄里","LIN":"8鄰","STREET":" ","SECT":" ","MAREA":"牛庄","LANE":" ","ALLEY":" ","HOUSE_NO":"９８號之２","E_COORD97":180064.01928000001,"N_COORD97":2560079.0001099999,"ADDRESS":"牛庄９８號之２","OBJECTID":661886},"geometry":{"x":180064.01927999966,"y":2560079.0001100004}},{"attributes":{"ID":661914,"DIS_CODE":0,"TOWNNAME":"善化區","LI":"牛庄里","LIN":"8鄰","STREET":" ","SECT":" ","MAREA":"牛庄","LANE":" ","ALLEY":" ","HOUSE_NO":"１３０號之２","E_COORD97":179898.07727000001,"N_COORD97":2560170.4400599999,"ADDRESS":"牛庄１３０號之２","OBJECTID":661887},"geometry":{"x":179898.07727000024,"y":2560170.4400600046}},{"attributes":{"ID":661915,"DIS_CODE":0,"TOWNNAME":"善化區","LI":"牛庄里","LIN":"9鄰","STREET":" ","SECT":" ","MAREA":"牛庄","LANE":" ","ALLEY":" ","HOUSE_NO":"８３號","E_COORD97":180093.05384000001,"N_COORD97":2559972.5318399998,"ADDRESS":"牛庄８３號","OBJECTID":661888},"geometry":{"x":180093.05384000111,"y":2559972.531840004}},{"attributes":{"ID":661916,"DIS_CODE":0,"TOWNNAME":"善化區","LI":"牛庄里","LIN":"9鄰","STREET":" ","SECT":" ","MAREA":"牛庄","LANE":" ","ALLEY":" ","HOUSE_NO":"１１１號之３","E_COORD97":180103.65039,"N_COORD97":2559918.4510300001,"ADDRESS":"牛庄１１１號之３","OBJECTID":661889},"geometry":{"x":180103.65039000101,"y":2559918.4510300029}},{"attributes":{"ID":661917,"DIS_CODE":0,"TOWNNAME":"善化區","LI":"牛庄里","LIN":"14鄰","STREET":" ","SECT":" ","MAREA":"牛庄","LANE":" ","ALLEY":" ","HOUSE_NO":"１４５號之１０","E_COORD97":179883.98370000001,"N_COORD97":2559698.6353199999,"ADDRESS":"牛庄１４５號之１０","OBJECTID":661890},"geometry":{"x":179883.98370000068,"y":2559698.6353200004}},{"attributes":{"ID":661918,"DIS_CODE":0,"TOWNNAME":"善化區","LI":"牛庄里","LIN":"10鄰","STREET":" ","SECT":" ","MAREA":"牛庄","LANE":" ","ALLEY":" ","HOUSE_NO":"１０１號之１","E_COORD97":180045.68708999999,"N_COORD97":2559997.8259899998,"ADDRESS":"牛庄１０１號之１","OBJECTID":661891},"geometry":{"x":180045.687090002,"y":2559997.8259900007}},{"attributes":{"ID":661919,"DIS_CODE":0,"TOWNNAME":"善化區","LI":"牛庄里","LIN":"10鄰","STREET":" ","SECT":" ","MAREA":"牛庄","LANE":" ","ALLEY":" ","HOUSE_NO":"１０１號","E_COORD97":180039.117237,"N_COORD97":2560010.52599,"ADDRESS":"牛庄１０１號","OBJECTID":661892},"geometry":{"x":180039.11723699979,"y":2560010.5259860009}},{"attributes":{"ID":661920,"DIS_CODE":0,"TOWNNAME":"善化區","LI":"文昌里","LIN":"16鄰","STREET":"光復路","SECT":" ","MAREA":" ","LANE":" ","ALLEY":" ","HOUSE_NO":"１０５號","E_COORD97":177481.82240999999,"N_COORD97":2558652.0533799999,"ADDRESS":"光復路１０５號","OBJECTID":661893},"geometry":{"x":177481.82241000049,"y":2558652.0533799995}},{"attributes":{"ID":661921,"DIS_CODE":0,"TOWNNAME":"永康區","LI":"北灣里","LIN":"13鄰","STREET":"大灣路","SECT":" ","MAREA":" ","LANE":"４０巷","ALLEY":" ","HOUSE_NO":"３號","E_COORD97":175288.93489800001,"N_COORD97":2545891.9694699999,"ADDRESS":"大灣路４０巷３號","OBJECTID":661894},"geometry":{"x":175288.93489800021,"y":2545891.9694730006}},{"attributes":{"ID":661922,"DIS_CODE":0,"TOWNNAME":"永康區","LI":"北灣里","LIN":"21鄰","STREET":"大同街","SECT":" ","MAREA":" ","LANE":"３８０巷","ALLEY":"７７弄","HOUSE_NO":"３８號","E_COORD97":174955.95941499999,"N_COORD97":2546009.1269100001,"ADDRESS":"大同街３８０巷７７弄３８號","OBJECTID":661895},"geometry":{"x":174955.95941499993,"y":2546009.126910001}},{"attributes":{"ID":661923,"DIS_CODE":0,"TOWNNAME":"永康區","LI":"北灣里","LIN":"21鄰","STREET":"大同街","SECT":" ","MAREA":" ","LANE":"３８０巷","ALLEY":"７７弄","HOUSE_NO":"３８之１號","E_COORD97":174954.89965800001,"N_COORD97":2546007.0102499998,"ADDRESS":"大同街３８０巷７７弄３８之１號","OBJECTID":661896},"geometry":{"x":174954.89965800196,"y":2546007.0102449991}},{"attributes":{"ID":661924,"DIS_CODE":0,"TOWNNAME":"永康區","LI":"北灣里","LIN":"13鄰","STREET":"大灣路","SECT":" ","MAREA":" ","LANE":" ","ALLEY":" ","HOUSE_NO":"４２之１號","E_COORD97":175296.77709600001,"N_COORD97":2545879.6928099999,"ADDRESS":"大灣路４２之１號","OBJECTID":661897},"geometry":{"x":175296.77709599957,"y":2545879.6928130016}},{"attributes":{"ID":661925,"DIS_CODE":0,"TOWNNAME":"永康區","LI":"北灣里","LIN":"13鄰","STREET":"大灣路","SECT":" ","MAREA":" ","LANE":" ","ALLEY":" ","HOUSE_NO":"４２號","E_COORD97":175294.23368,"N_COORD97":2545875.0361500001,"ADDRESS":"大灣路４２號","OBJECTID":661898},"geometry":{"x":175294.2336799996,"y":2545875.0361490007}},{"attributes":{"ID":661926,"DIS_CODE":0,"TOWNNAME":"永康區","LI":"北灣里","LIN":"21鄰","STREET":"大同街","SECT":" ","MAREA":" ","LANE":"３８０巷","ALLEY":"７７弄","HOUSE_NO":"４２號","E_COORD97":174952.780145,"N_COORD97":2546004.6819099998,"ADDRESS":"大同街３８０巷７７弄４２號","OBJECTID":661899},"geometry":{"x":174952.78014500067,"y":2546004.6819130015}},{"attributes":{"ID":661927,"DIS_CODE":0,"TOWNNAME":"仁德區","LI":"新田里","LIN":"7鄰","STREET":"義林南路","SECT":" ","MAREA":" ","LANE":" ","ALLEY":" ","HOUSE_NO":"６３８號","E_COORD97":174261.292464,"N_COORD97":2539072.9934800002,"ADDRESS":"義林南路６３８號","OBJECTID":661900},"geometry":{"x":174261.29246400017,"y":2539072.993482003}},{"attributes":{"ID":661928,"DIS_CODE":0,"TOWNNAME":"善化區","LI":"田寮里","LIN":"5鄰","STREET":" ","SECT":" ","MAREA":"六分寮","LANE":" ","ALLEY":" ","HOUSE_NO":"５６號","E_COORD97":178461.23494900001,"N_COORD97":2561201.5678900001,"ADDRESS":"六分寮５６號","OBJECTID":661901},"geometry":{"x":178461.23494900111,"y":2561201.5678940006}},{"attributes":{"ID":661929,"DIS_CODE":0,"TOWNNAME":"善化區","LI":"田寮里","LIN":"4鄰","STREET":" ","SECT":" ","MAREA":"六分寮","LANE":" ","ALLEY":" ","HOUSE_NO":"４９號","E_COORD97":178419.699968,"N_COORD97":2561231.8362099999,"ADDRESS":"六分寮４９號","OBJECTID":661902},"geometry":{"x":178419.69996800087,"y":2561231.8362110034}},{"attributes":{"ID":661930,"DIS_CODE":0,"TOWNNAME":"北區","LI":"長德里","LIN":"4鄰","STREET":"長德街","SECT":" ","MAREA":" ","LANE":" ","ALLEY":" ","HOUSE_NO":"２０號","E_COORD97":168557.45500300001,"N_COORD97":2544761.2366200001,"ADDRESS":"長德街２０號","OBJECTID":661903},"geometry":{"x":168557.45500299986,"y":2544761.2366210017}},{"attributes":{"ID":661931,"DIS_CODE":0,"TOWNNAME":"北區","LI":"長德里","LIN":"4鄰","STREET":"長德街","SECT":" ","MAREA":" ","LANE":" ","ALLEY":" ","HOUSE_NO":"２２號","E_COORD97":168544.95611100001,"N_COORD97":2544761.2644799999,"ADDRESS":"長德街２２號","OBJECTID":661904},"geometry":{"x":168544.95611100085,"y":2544761.264475001}},{"attributes":{"ID":661932,"DIS_CODE":0,"TOWNNAME":"善化區","LI":"田寮里","LIN":"16鄰","STREET":" ","SECT":" ","MAREA":"六分寮","LANE":" ","ALLEY":" ","HOUSE_NO":"１９２號","E_COORD97":178960.191479,"N_COORD97":2561635.38546,"ADDRESS":"六分寮１９２號","OBJECTID":661905},"geometry":{"x":178960.19147900119,"y":2561635.3854569998}},{"attributes":{"ID":661933,"DIS_CODE":0,"TOWNNAME":"北區","LI":"和順里","LIN":"15鄰","STREET":"臨安路","SECT":"二段","MAREA":" ","LANE":"２４９巷","ALLEY":" ","HOUSE_NO":"２４號之２","E_COORD97":168067.66788600001,"N_COORD97":2545113.68928,"ADDRESS":"臨安路二段２４９巷２４號之２","OBJECTID":661906},"geometry":{"x":168067.66788600013,"y":2545113.6892840043}},{"attributes":{"ID":661934,"DIS_CODE":0,"TOWNNAME":"玉井區","LI":"沙田里","LIN":"3鄰","STREET":" ","SECT":" ","MAREA":"沙田","LANE":" ","ALLEY":" ","HOUSE_NO":"２２號之７","E_COORD97":196451.17845000001,"N_COORD97":2556824.20218,"ADDRESS":"沙田２２號之７","OBJECTID":661907},"geometry":{"x":196451.17845000047,"y":2556824.20218}},{"attributes":{"ID":661935,"DIS_CODE":0,"TOWNNAME":"北區","LI":"振興里","LIN":"17鄰","STREET":"開元路","SECT":" ","MAREA":" ","LANE":"２１２巷","ALLEY":" ","HOUSE_NO":"１２６號","E_COORD97":170465.86085699999,"N_COORD97":2545046.85836,"ADDRESS":"開元路２１２巷１２６號","OBJECTID":661908},"geometry":{"x":170465.86085699964,"y":2545046.8583600018}},{"attributes":{"ID":661936,"DIS_CODE":0,"TOWNNAME":"北區","LI":"三德里","LIN":"3鄰","STREET":"北華街","SECT":" ","MAREA":" ","LANE":" ","ALLEY":" ","HOUSE_NO":"２８１號","E_COORD97":168475.86655499999,"N_COORD97":2544601.18885,"ADDRESS":"北華街２８１號","OBJECTID":661909},"geometry":{"x":168475.86655499972,"y":2544601.1888539996}},{"attributes":{"ID":661937,"DIS_CODE":0,"TOWNNAME":"善化區","LI":"南關里","LIN":"8鄰","STREET":"自由路","SECT":" ","MAREA":" ","LANE":" ","ALLEY":" ","HOUSE_NO":"１３６號","E_COORD97":177038.53497000001,"N_COORD97":2558895.10849,"ADDRESS":"自由路１３６號","OBJECTID":661910},"geometry":{"x":177038.53497000039,"y":2558895.1084860004}},{"attributes":{"ID":661938,"DIS_CODE":0,"TOWNNAME":"善化區","LI":"南關里","LIN":"6鄰","STREET":"文昌路","SECT":" ","MAREA":" ","LANE":"１０７巷","ALLEY":" ","HOUSE_NO":"３０號之１","E_COORD97":177109.73779000001,"N_COORD97":2558494.6353600002,"ADDRESS":"文昌路１０７巷３０號之１","OBJECTID":661911},"geometry":{"x":177109.73778999969,"y":2558494.6353600044}},{"attributes":{"ID":661939,"DIS_CODE":0,"TOWNNAME":"北區","LI":"國姓里","LIN":"11鄰","STREET":"公園路","SECT":" ","MAREA":" ","LANE":"３７７巷","ALLEY":" ","HOUSE_NO":"４２之１號","E_COORD97":168829.19166000001,"N_COORD97":2545220.38038,"ADDRESS":"公園路３７７巷４２之１號","OBJECTID":661912},"geometry":{"x":168829.19165999908,"y":2545220.3803800028}},{"attributes":{"ID":661940,"DIS_CODE":0,"TOWNNAME":"善化區","LI":"南關里","LIN":"7鄰","STREET":"環西路","SECT":"二段","MAREA":" ","LANE":" ","ALLEY":" ","HOUSE_NO":"５號","E_COORD97":175132.37601099999,"N_COORD97":2556921.5295500001,"ADDRESS":"環西路二段５號","OBJECTID":661913},"geometry":{"x":175132.37601099908,"y":2556921.5295519996}},{"attributes":{"ID":661941,"DIS_CODE":0,"TOWNNAME":"北區","LI":"新勝里","LIN":"5鄰","STREET":"北園街","SECT":" ","MAREA":" ","LANE":"８７巷","ALLEY":" ","HOUSE_NO":"９號","E_COORD97":170318.46650800001,"N_COORD97":2545646.6768200002,"ADDRESS":"北園街８７巷９號","OBJECTID":661914},"geometry":{"x":170318.46650800202,"y":2545646.6768229995}},{"attributes":{"ID":661942,"DIS_CODE":0,"TOWNNAME":"北區","LI":"玉皇里","LIN":"12鄰","STREET":"成功路","SECT":" ","MAREA":" ","LANE":"６８巷","ALLEY":" ","HOUSE_NO":"６１號之８","E_COORD97":168702.201329,"N_COORD97":2544453.5848699999,"ADDRESS":"成功路６８巷６１號之８","OBJECTID":661915},"geometry":{"x":168702.20132900029,"y":2544453.5848680008}},{"attributes":{"ID":661943,"DIS_CODE":0,"TOWNNAME":"善化區","LI":"南關里","LIN":"7鄰","STREET":"南科七路","SECT":" ","MAREA":" ","LANE":" ","ALLEY":" ","HOUSE_NO":"１號之１","E_COORD97":176266.5404,"N_COORD97":2556860.8522600001,"ADDRESS":"南科七路１號之１","OBJECTID":661916},"geometry":{"x":176266.54040000215,"y":2556860.8522600029}},{"attributes":{"ID":661944,"DIS_CODE":0,"TOWNNAME":"北區","LI":"力行里","LIN":"15鄰","STREET":"力行一街","SECT":" ","MAREA":" ","LANE":"４０巷","ALLEY":" ","HOUSE_NO":"１號","E_COORD97":170968.018652,"N_COORD97":2545445.25936,"ADDRESS":"力行一街４０巷１號","OBJECTID":661917},"geometry":{"x":170968.01865199953,"y":2545445.2593590021}},{"attributes":{"ID":661945,"DIS_CODE":0,"TOWNNAME":"北區","LI":"力行里","LIN":"15鄰","STREET":"力行一街","SECT":" ","MAREA":" ","LANE":"４０巷","ALLEY":" ","HOUSE_NO":"９號","E_COORD97":170970.56080000001,"N_COORD97":2545458.5943499999,"ADDRESS":"力行一街４０巷９號","OBJECTID":661918},"geometry":{"x":170970.56080000009,"y":2545458.5943510011}},{"attributes":{"ID":661946,"DIS_CODE":0,"TOWNNAME":"善化區","LI":"嘉北里","LIN":"1鄰","STREET":" ","SECT":" ","MAREA":"茄拔","LANE":" ","ALLEY":" ","HOUSE_NO":"６號之１６","E_COORD97":182164.97046000001,"N_COORD97":2560090.5339899999,"ADDRESS":"茄拔６號之１６","OBJECTID":661919},"geometry":{"x":182164.97046000138,"y":2560090.5339900013}},{"attributes":{"ID":661947,"DIS_CODE":0,"TOWNNAME":"善化區","LI":"嘉北里","LIN":"2鄰","STREET":" ","SECT":" ","MAREA":"茄拔","LANE":" ","ALLEY":" ","HOUSE_NO":"１４號之３","E_COORD97":181153.9099,"N_COORD97":2560001.26315,"ADDRESS":"茄拔１４號之３","OBJECTID":661920},"geometry":{"x":181153.90990000125,"y":2560001.2631499991}},{"attributes":{"ID":661948,"DIS_CODE":0,"TOWNNAME":"善化區","LI":"嘉北里","LIN":"3鄰","STREET":" ","SECT":" ","MAREA":"茄拔","LANE":" ","ALLEY":" ","HOUSE_NO":"１７號","E_COORD97":181140.04066,"N_COORD97":2559940.7794300001,"ADDRESS":"茄拔１７號","OBJECTID":661921},"geometry":{"x":181140.04066000041,"y":2559940.7794330008}},{"attributes":{"ID":661949,"DIS_CODE":0,"TOWNNAME":"善化區","LI":"嘉北里","LIN":"3鄰","STREET":" ","SECT":" ","MAREA":"茄拔","LANE":" ","ALLEY":" ","HOUSE_NO":"１７號之２","E_COORD97":181144.64608999999,"N_COORD97":2559946.9177600001,"ADDRESS":"茄拔１７號之２","OBJECTID":661922},"geometry":{"x":181144.64608999994,"y":2559946.9177599996}},{"attributes":{"ID":661950,"DIS_CODE":0,"TOWNNAME":"北區","LI":"公園里","LIN":"1鄰","STREET":"富北街","SECT":" ","MAREA":" ","LANE":" ","ALLEY":" ","HOUSE_NO":"１８號四樓之１１","E_COORD97":169170.93216900001,"N_COORD97":2544329.4837099998,"ADDRESS":"富北街１８號四樓之１１","OBJECTID":661923},"geometry":{"x":169170.93216900062,"y":2544329.4837119989}},{"attributes":{"ID":661951,"DIS_CODE":0,"TOWNNAME":"北區","LI":"勝安里","LIN":"5鄰","STREET":"開元路","SECT":" ","MAREA":" ","LANE":" ","ALLEY":" ","HOUSE_NO":"１４９之１號","E_COORD97":169907.93140999999,"N_COORD97":2545273.0932,"ADDRESS":"開元路１４９之１號","OBJECTID":661924},"geometry":{"x":169907.93141000066,"y":2545273.0932000019}},{"attributes":{"ID":661952,"DIS_CODE":0,"TOWNNAME":"北區","LI":"公園里","LIN":"4鄰","STREET":"北門路","SECT":"二段","MAREA":" ","LANE":" ","ALLEY":" ","HOUSE_NO":"１０５號","E_COORD97":169274.06970699999,"N_COORD97":2544450.3453099998,"ADDRESS":"北門路二段１０５號","OBJECTID":661925},"geometry":{"x":169274.0697069997,"y":2544450.3453130033}},{"attributes":{"ID":661953,"DIS_CODE":0,"TOWNNAME":"北區","LI":"長德里","LIN":"4鄰","STREET":"長賢街","SECT":" ","MAREA":" ","LANE":" ","ALLEY":" ","HOUSE_NO":"５１號","E_COORD97":168527.963861,"N_COORD97":2544873.78425,"ADDRESS":"長賢街５１號","OBJECTID":661926},"geometry":{"x":168527.96386100166,"y":2544873.7842510026}},{"attributes":{"ID":661954,"DIS_CODE":0,"TOWNNAME":"北區","LI":"長德里","LIN":"5鄰","STREET":"長賢街","SECT":" ","MAREA":" ","LANE":" ","ALLEY":" ","HOUSE_NO":"６８號","E_COORD97":168563.54313500001,"N_COORD97":2544848.4901000001,"ADDRESS":"長賢街６８號","OBJECTID":661927},"geometry":{"x":168563.54313500132,"y":2544848.4900980014}},{"attributes":{"ID":661955,"DIS_CODE":0,"TOWNNAME":"北區","LI":"長德里","LIN":"4鄰","STREET":"長賢街","SECT":" ","MAREA":" ","LANE":" ","ALLEY":" ","HOUSE_NO":"６０號","E_COORD97":168549.56556300001,"N_COORD97":2544851.8767599999,"ADDRESS":"長賢街６０號","OBJECTID":661928},"geometry":{"x":168549.56556299981,"y":2544851.8767630029}},{"attributes":{"ID":661956,"DIS_CODE":0,"TOWNNAME":"北區","LI":"長德里","LIN":"4鄰","STREET":"長賢街","SECT":" ","MAREA":" ","LANE":" ","ALLEY":" ","HOUSE_NO":"６６號","E_COORD97":168557.18969299999,"N_COORD97":2544848.2784299999,"ADDRESS":"長賢街６６號","OBJECTID":661929},"geometry":{"x":168557.18969299924,"y":2544848.2784320004}},{"attributes":{"ID":661957,"DIS_CODE":0,"TOWNNAME":"北區","LI":"長德里","LIN":"4鄰","STREET":"長賢街","SECT":" ","MAREA":" ","LANE":" ","ALLEY":" ","HOUSE_NO":"３５號","E_COORD97":168509.750661,"N_COORD97":2544879.2875799998,"ADDRESS":"長賢街３５號","OBJECTID":661930},"geometry":{"x":168509.75066099875,"y":2544879.2875819989}},{"attributes":{"ID":661958,"DIS_CODE":0,"TOWNNAME":"北區","LI":"長德里","LIN":"4鄰","STREET":"長賢街","SECT":" ","MAREA":" ","LANE":" ","ALLEY":" ","HOUSE_NO":"４６號","E_COORD97":168511.656694,"N_COORD97":2544865.9525899999,"ADDRESS":"長賢街４６號","OBJECTID":661931},"geometry":{"x":168511.65669400152,"y":2544865.9525890015}},{"attributes":{"ID":661959,"DIS_CODE":0,"TOWNNAME":"北區","LI":"長德里","LIN":"5鄰","STREET":"長德街","SECT":" ","MAREA":" ","LANE":" ","ALLEY":" ","HOUSE_NO":"３５號","E_COORD97":168550.20090699999,"N_COORD97":2544804.8867899999,"ADDRESS":"長德街３５號","OBJECTID":661932},"geometry":{"x":168550.2009070022,"y":2544804.8867880031}},{"attributes":{"ID":661960,"DIS_CODE":0,"TOWNNAME":"北區","LI":"長德里","LIN":"5鄰","STREET":"長德街","SECT":" ","MAREA":" ","LANE":" ","ALLEY":" ","HOUSE_NO":"４１號","E_COORD97":168553.58940999999,"N_COORD97":2544812.9301200002,"ADDRESS":"長德街４１號","OBJECTID":661933},"geometry":{"x":168553.58940999955,"y":2544812.9301169999}},{"attributes":{"ID":661961,"DIS_CODE":0,"TOWNNAME":"北區","LI":"長德里","LIN":"5鄰","STREET":"長德街","SECT":" ","MAREA":" ","LANE":" ","ALLEY":" ","HOUSE_NO":"３７號","E_COORD97":168551.68337700001,"N_COORD97":2544808.69679,"ADDRESS":"長德街３７號","OBJECTID":661934},"geometry":{"x":168551.68337699957,"y":2544808.6967860013}},{"attributes":{"ID":661962,"DIS_CODE":0,"TOWNNAME":"北區","LI":"長德里","LIN":"5鄰","STREET":"長德街","SECT":" ","MAREA":" ","LANE":" ","ALLEY":" ","HOUSE_NO":"４０號","E_COORD97":168558.67216300001,"N_COORD97":2544804.6751199998,"ADDRESS":"長德街４０號","OBJECTID":661935},"geometry":{"x":168558.67216300126,"y":2544804.6751220003}},{"attributes":{"ID":661963,"DIS_CODE":0,"TOWNNAME":"北區","LI":"長德里","LIN":"10鄰","STREET":"長賢街","SECT":" ","MAREA":" ","LANE":"５５巷","ALLEY":" ","HOUSE_NO":"１號","E_COORD97":168550.836251,"N_COORD97":2544874.31342,"ADDRESS":"長賢街５５巷１號","OBJECTID":661936},"geometry":{"x":168550.83625099994,"y":2544874.3134180009}},{"attributes":{"ID":661964,"DIS_CODE":0,"TOWNNAME":"北區","LI":"長德里","LIN":"10鄰","STREET":"長賢街","SECT":" ","MAREA":" ","LANE":"５５巷","ALLEY":" ","HOUSE_NO":"５號","E_COORD97":168555.49544200001,"N_COORD97":2544884.8967499998,"ADDRESS":"長賢街５５巷５號","OBJECTID":661937},"geometry":{"x":168555.49544200208,"y":2544884.8967450019}},{"attributes":{"ID":661965,"DIS_CODE":0,"TOWNNAME":"北區","LI":"長德里","LIN":"10鄰","STREET":"長賢街","SECT":" ","MAREA":" ","LANE":"５５巷","ALLEY":" ","HOUSE_NO":"７號","E_COORD97":168557.40147499999,"N_COORD97":2544890.5059099998,"ADDRESS":"長賢街５５巷７號","OBJECTID":661938},"geometry":{"x":168557.40147500113,"y":2544890.5059089996}},{"attributes":{"ID":661966,"DIS_CODE":0,"TOWNNAME":"北區","LI":"長德里","LIN":"10鄰","STREET":"長賢街","SECT":" ","MAREA":" ","LANE":"５５巷","ALLEY":" ","HOUSE_NO":"９號","E_COORD97":168560.154633,"N_COORD97":2544897.1734099998,"ADDRESS":"長賢街５５巷９號","OBJECTID":661939},"geometry":{"x":168560.15463299956,"y":2544897.1734050009}},{"attributes":{"ID":661967,"DIS_CODE":0,"TOWNNAME":"北區","LI":"長德里","LIN":"10鄰","STREET":"長賢街","SECT":" ","MAREA":" ","LANE":"５５巷","ALLEY":" ","HOUSE_NO":"１９號","E_COORD97":168561.42532099999,"N_COORD97":2544903.7350699999,"ADDRESS":"長賢街５５巷１９號","OBJECTID":661940},"geometry":{"x":168561.4253209997,"y":2544903.7350680027}},{"attributes":{"ID":661968,"DIS_CODE":0,"TOWNNAME":"北區","LI":"長德里","LIN":"10鄰","STREET":"長賢街","SECT":" ","MAREA":" ","LANE":"５５巷","ALLEY":" ","HOUSE_NO":"２１號","E_COORD97":168562.69600900001,"N_COORD97":2544910.4025699999,"ADDRESS":"長賢街５５巷２１號","OBJECTID":661941},"geometry":{"x":168562.69600899983,"y":2544910.4025650024}},{"attributes":{"ID":661969,"DIS_CODE":0,"TOWNNAME":"北區","LI":"長德里","LIN":"10鄰","STREET":"長德街","SECT":" ","MAREA":" ","LANE":" ","ALLEY":" ","HOUSE_NO":"５９號","E_COORD97":168572.64973500001,"N_COORD97":2544866.90509,"ADDRESS":"長德街５９號","OBJECTID":661942},"geometry":{"x":168572.64973499998,"y":2544866.905088}},{"attributes":{"ID":661970,"DIS_CODE":0,"TOWNNAME":"北區","LI":"長德里","LIN":"10鄰","STREET":"長德街","SECT":" ","MAREA":" ","LANE":" ","ALLEY":" ","HOUSE_NO":"６１號","E_COORD97":168573.920423,"N_COORD97":2544873.25508,"ADDRESS":"長德街６１號","OBJECTID":661943},"geometry":{"x":168573.92042300012,"y":2544873.255084997}},{"attributes":{"ID":661971,"DIS_CODE":0,"TOWNNAME":"北區","LI":"長德里","LIN":"10鄰","STREET":"長德街","SECT":" ","MAREA":" ","LANE":" ","ALLEY":" ","HOUSE_NO":"６７號","E_COORD97":168574.132205,"N_COORD97":2544878.5467500002,"ADDRESS":"長德街６７號","OBJECTID":661944},"geometry":{"x":168574.13220500201,"y":2544878.5467490032}},{"attributes":{"ID":661972,"DIS_CODE":0,"TOWNNAME":"北區","LI":"長德里","LIN":"10鄰","STREET":"長德街","SECT":" ","MAREA":" ","LANE":" ","ALLEY":" ","HOUSE_NO":"６９號","E_COORD97":168576.88536300001,"N_COORD97":2544886.3784099999,"ADDRESS":"長德街６９號","OBJECTID":661945},"geometry":{"x":168576.88536300138,"y":2544886.3784110025}},{"attributes":{"ID":661973,"DIS_CODE":0,"TOWNNAME":"北區","LI":"長德里","LIN":"10鄰","STREET":"長德街","SECT":" ","MAREA":" ","LANE":" ","ALLEY":" ","HOUSE_NO":"７１號","E_COORD97":168576.88536300001,"N_COORD97":2544886.3784099999,"ADDRESS":"長德街７１號","OBJECTID":661946},"geometry":{"x":168576.88536300138,"y":2544886.3784110025}},{"attributes":{"ID":661974,"DIS_CODE":0,"TOWNNAME":"北區","LI":"長德里","LIN":"10鄰","STREET":"長德街","SECT":" ","MAREA":" ","LANE":" ","ALLEY":" ","HOUSE_NO":"７５號","E_COORD97":168578.36783199999,"N_COORD97":2544891.0350799998,"ADDRESS":"長德街７５號","OBJECTID":661947},"geometry":{"x":168578.36783200037,"y":2544891.0350749996}},{"attributes":{"ID":661975,"DIS_CODE":0,"TOWNNAME":"北區","LI":"長德里","LIN":"10鄰","STREET":"長德街","SECT":" ","MAREA":" ","LANE":" ","ALLEY":" ","HOUSE_NO":"７７號","E_COORD97":168581.33277199999,"N_COORD97":2544897.8084,"ADDRESS":"長德街７７號","OBJECTID":661948},"geometry":{"x":168581.33277199976,"y":2544897.8084050007}},{"attributes":{"ID":661976,"DIS_CODE":0,"TOWNNAME":"北區","LI":"長德里","LIN":"10鄰","STREET":"長德街","SECT":" ","MAREA":" ","LANE":" ","ALLEY":" ","HOUSE_NO":"７９號","E_COORD97":168584.08593,"N_COORD97":2544906.9100700002,"ADDRESS":"長德街７９號","OBJECTID":661949},"geometry":{"x":168584.08593000006,"y":2544906.9100670014}},{"attributes":{"ID":661977,"DIS_CODE":0,"TOWNNAME":"北區","LI":"長德里","LIN":"10鄰","STREET":"長德街","SECT":" ","MAREA":" ","LANE":" ","ALLEY":" ","HOUSE_NO":"６９號","E_COORD97":168575.191112,"N_COORD97":2544882.7800799999,"ADDRESS":"長德街６９號","OBJECTID":661950},"geometry":{"x":168575.19111199956,"y":2544882.7800799999}},{"attributes":{"ID":661978,"DIS_CODE":0,"TOWNNAME":"北區","LI":"長德里","LIN":"12鄰","STREET":"長德街","SECT":" ","MAREA":" ","LANE":" ","ALLEY":" ","HOUSE_NO":"１８８號","E_COORD97":168650.16172500001,"N_COORD97":2545043.0116599998,"ADDRESS":"長德街１８８號","OBJECTID":661951},"geometry":{"x":168650.16172500048,"y":2545043.0116600022}},{"attributes":{"ID":661979,"DIS_CODE":0,"TOWNNAME":"佳里區","LI":"蚶寮里","LIN":"11鄰","STREET":" ","SECT":" ","MAREA":"蚶寮","LANE":" ","ALLEY":" ","HOUSE_NO":"１０２號之３５","E_COORD97":162844.40419299999,"N_COORD97":2558855.0544599998,"ADDRESS":"蚶寮１０２號之３５","OBJECTID":661952},"geometry":{"x":162844.40419299994,"y":2558855.0544559993}},{"attributes":{"ID":661980,"DIS_CODE":0,"TOWNNAME":"善化區","LI":"南關里","LIN":"7鄰","STREET":"木柵港東路","SECT":" ","MAREA":" ","LANE":" ","ALLEY":" ","HOUSE_NO":"２１號","E_COORD97":174408.042854,"N_COORD97":2556377.3399499999,"ADDRESS":"木柵港東路２１號","OBJECTID":661953},"geometry":{"x":174408.04285400081,"y":2556377.339947002}},{"attributes":{"ID":661981,"DIS_CODE":0,"TOWNNAME":"善化區","LI":"南關里","LIN":"7鄰","STREET":"木柵港東路","SECT":" ","MAREA":" ","LANE":" ","ALLEY":" ","HOUSE_NO":"２１號","E_COORD97":174408.890507,"N_COORD97":2556371.41328,"ADDRESS":"木柵港東路２１號","OBJECTID":661954},"geometry":{"x":174408.89050699957,"y":2556371.4132830035}},{"attributes":{"ID":661982,"DIS_CODE":0,"TOWNNAME":"善化區","LI":"南關里","LIN":"7鄰","STREET":"木柵港西路","SECT":" ","MAREA":" ","LANE":" ","ALLEY":" ","HOUSE_NO":"２號之１","E_COORD97":174397.87101999999,"N_COORD97":2556520.0032000002,"ADDRESS":"木柵港西路２號之１","OBJECTID":661955},"geometry":{"x":174397.87102000136,"y":2556520.003200002}},{"attributes":{"ID":661983,"DIS_CODE":0,"TOWNNAME":"善化區","LI":"南關里","LIN":"7鄰","STREET":"木柵港西路","SECT":" ","MAREA":" ","LANE":" ","ALLEY":" ","HOUSE_NO":"１３號","E_COORD97":173944.800666,"N_COORD97":2556147.8933999999,"ADDRESS":"木柵港西路１３號","OBJECTID":661956},"geometry":{"x":173944.80066600163,"y":2556147.8934039995}},{"attributes":{"ID":661984,"DIS_CODE":0,"TOWNNAME":"北區","LI":"文成里","LIN":"22鄰","STREET":"立賢路","SECT":"二段","MAREA":" ","LANE":"６６巷","ALLEY":" ","HOUSE_NO":"２８號","E_COORD97":167885.34125200001,"N_COORD97":2545641.3294500001,"ADDRESS":"立賢路二段６６巷２８號","OBJECTID":661957},"geometry":{"x":167885.34125200007,"y":2545641.3294530008}},{"attributes":{"ID":661985,"DIS_CODE":0,"TOWNNAME":"善化區","LI":"南關里","LIN":"7鄰","STREET":"南科八路","SECT":" ","MAREA":" ","LANE":" ","ALLEY":" ","HOUSE_NO":"５號","E_COORD97":176359.763145,"N_COORD97":2557475.04269,"ADDRESS":"南科八路５號","OBJECTID":661958},"geometry":{"x":176359.76314500067,"y":2557475.0426869988}},{"attributes":{"ID":661986,"DIS_CODE":0,"TOWNNAME":"北區","LI":"大山里","LIN":"4鄰","STREET":"和緯路","SECT":"一段","MAREA":" ","LANE":"１２９巷","ALLEY":" ","HOUSE_NO":"１號","E_COORD97":169411.68908099999,"N_COORD97":2545561.3195000002,"ADDRESS":"和緯路一段１２９巷１號","OBJECTID":661959},"geometry":{"x":169411.68908100203,"y":2545561.3194960002}},{"attributes":{"ID":661987,"DIS_CODE":0,"TOWNNAME":"北區","LI":"大山里","LIN":"4鄰","STREET":"和緯路","SECT":"一段","MAREA":" ","LANE":"１２９巷","ALLEY":" ","HOUSE_NO":"３號","E_COORD97":169408.51139599999,"N_COORD97":2545562.16616,"ADDRESS":"和緯路一段１２９巷３號","OBJECTID":661960},"geometry":{"x":169408.51139600016,"y":2545562.1661620028}},{"attributes":{"ID":661988,"DIS_CODE":0,"TOWNNAME":"善化區","LI":"南關里","LIN":"7鄰","STREET":"環東路","SECT":"二段","MAREA":" ","LANE":" ","ALLEY":" ","HOUSE_NO":"２４號","E_COORD97":176185.14669299999,"N_COORD97":2557508.9093399998,"ADDRESS":"環東路二段２４號","OBJECTID":661961},"geometry":{"x":176185.1466930015,"y":2557508.9093360025}},{"attributes":{"ID":661989,"DIS_CODE":0,"TOWNNAME":"善化區","LI":"南關里","LIN":"7鄰","STREET":"環東路","SECT":"二段","MAREA":" ","LANE":" ","ALLEY":" ","HOUSE_NO":"２６號","E_COORD97":176118.605958,"N_COORD97":2557624.26761,"ADDRESS":"環東路二段２６號","OBJECTID":661962},"geometry":{"x":176118.60595799983,"y":2557624.2676069997}},{"attributes":{"ID":661990,"DIS_CODE":0,"TOWNNAME":"北區","LI":"永祥里","LIN":"21鄰","STREET":"大武街","SECT":" ","MAREA":" ","LANE":"５９７巷","ALLEY":"２６弄","HOUSE_NO":"２２號","E_COORD97":170273.332218,"N_COORD97":2546467.45285,"ADDRESS":"大武街５９７巷２６弄２２號","OBJECTID":661963},"geometry":{"x":170273.33221799973,"y":2546467.4528470002}},{"attributes":{"ID":661991,"DIS_CODE":0,"TOWNNAME":"北區","LI":"力行里","LIN":"15鄰","STREET":"力行一街","SECT":" ","MAREA":" ","LANE":"２６巷","ALLEY":" ","HOUSE_NO":"６號","E_COORD97":170966.70299399999,"N_COORD97":2545399.3834199999,"ADDRESS":"力行一街２６巷６號","OBJECTID":661964},"geometry":{"x":170966.7029940011,"y":2545399.3834230024}},{"attributes":{"ID":661992,"DIS_CODE":0,"TOWNNAME":"後壁區","LI":"嘉苳里","LIN":"10鄰","STREET":" ","SECT":" ","MAREA":"下茄苳","LANE":" ","ALLEY":" ","HOUSE_NO":"１１９號之６","E_COORD97":184516.99525499999,"N_COORD97":2583323.23269,"ADDRESS":"下茄苳１１９號之６","OBJECTID":661965},"geometry":{"x":184516.99525499996,"y":2583323.2326930016}},{"attributes":{"ID":661993,"DIS_CODE":0,"TOWNNAME":"鹽水區","LI":"舊營里","LIN":"6鄰","STREET":" ","SECT":" ","MAREA":"舊營","LANE":" ","ALLEY":" ","HOUSE_NO":"５０之２１號","E_COORD97":174225.161845,"N_COORD97":2577564.62482,"ADDRESS":"舊營５０之２１號","OBJECTID":661966},"geometry":{"x":174225.16184500046,"y":2577564.6248240024}},{"attributes":{"ID":661994,"DIS_CODE":0,"TOWNNAME":"北區","LI":"元寶里","LIN":"3鄰","STREET":"北園街","SECT":" ","MAREA":" ","LANE":"８０巷","ALLEY":" ","HOUSE_NO":"６８號之１０","E_COORD97":170403.82913,"N_COORD97":2545885.3698200001,"ADDRESS":"北園街８０巷６８號之１０","OBJECTID":661967},"geometry":{"x":170403.82913000043,"y":2545885.3698200025}},{"attributes":{"ID":661995,"DIS_CODE":0,"TOWNNAME":"北區","LI":"元寶里","LIN":"3鄰","STREET":"北園街","SECT":" ","MAREA":" ","LANE":"８０巷","ALLEY":" ","HOUSE_NO":"６８號之１５","E_COORD97":170403.82913,"N_COORD97":2545885.3698200001,"ADDRESS":"北園街８０巷６８號之１５","OBJECTID":661968},"geometry":{"x":170403.82913000043,"y":2545885.3698200025}},{"attributes":{"ID":661996,"DIS_CODE":0,"TOWNNAME":"善化區","LI":"南關里","LIN":"6鄰","STREET":"文昌路","SECT":" ","MAREA":" ","LANE":"５０巷","ALLEY":" ","HOUSE_NO":"１號之１","E_COORD97":177143.00816,"N_COORD97":2558721.60782,"ADDRESS":"文昌路５０巷１號之１","OBJECTID":661969},"geometry":{"x":177143.00815999974,"y":2558721.6078200024}},{"attributes":{"ID":661997,"DIS_CODE":0,"TOWNNAME":"後壁區","LI":"嘉民里","LIN":"1鄰","STREET":" ","SECT":" ","MAREA":"上茄苳","LANE":" ","ALLEY":" ","HOUSE_NO":"１２８號","E_COORD97":186717.59726800001,"N_COORD97":2587224.21331,"ADDRESS":"上茄苳１２８號","OBJECTID":661970},"geometry":{"x":186717.59726800025,"y":2587224.2133099996}},{"attributes":{"ID":661998,"DIS_CODE":0,"TOWNNAME":"後壁區","LI":"嘉民里","LIN":"1鄰","STREET":" ","SECT":" ","MAREA":"上茄苳","LANE":" ","ALLEY":" ","HOUSE_NO":"１２８號之１","E_COORD97":186691.75653099999,"N_COORD97":2587224.4249800001,"ADDRESS":"上茄苳１２８號之１","OBJECTID":661971},"geometry":{"x":186691.756531002,"y":2587224.4249770008}},{"attributes":{"ID":661999,"DIS_CODE":0,"TOWNNAME":"善化區","LI":"南關里","LIN":"5鄰","STREET":"三民路","SECT":" ","MAREA":" ","LANE":" ","ALLEY":" ","HOUSE_NO":"６號","E_COORD97":177070.957685,"N_COORD97":2558817.4927699999,"ADDRESS":"三民路６號","OBJECTID":661972},"geometry":{"x":177070.95768500026,"y":2558817.4927740004}},{"attributes":{"ID":662000,"DIS_CODE":0,"TOWNNAME":"善化區","LI":"南關里","LIN":"8鄰","STREET":"三民路","SECT":" ","MAREA":" ","LANE":" ","ALLEY":" ","HOUSE_NO":"１３號","E_COORD97":177013.95304299999,"N_COORD97":2558862.1214600001,"ADDRESS":"三民路１３號","OBJECTID":661973},"geometry":{"x":177013.95304299984,"y":2558862.121461004}},{"attributes":{"ID":662001,"DIS_CODE":0,"TOWNNAME":"善化區","LI":"嘉北里","LIN":"1鄰","STREET":" ","SECT":" ","MAREA":"茄拔","LANE":" ","ALLEY":" ","HOUSE_NO":"２號之３","E_COORD97":181215.52385999999,"N_COORD97":2560231.2393299998,"ADDRESS":"茄拔２號之３","OBJECTID":661974},"geometry":{"x":181215.52386000007,"y":2560231.2393299993}},{"attributes":{"ID":662002,"DIS_CODE":0,"TOWNNAME":"善化區","LI":"嘉北里","LIN":"2鄰","STREET":" ","SECT":" ","MAREA":"茄拔","LANE":" ","ALLEY":" ","HOUSE_NO":"１５號","E_COORD97":181142.034426,"N_COORD97":2559977.9641399998,"ADDRESS":"茄拔１５號","OBJECTID":661975},"geometry":{"x":181142.0344260009,"y":2559977.9641440026}},{"attributes":{"ID":662003,"DIS_CODE":0,"TOWNNAME":"善化區","LI":"嘉北里","LIN":"2鄰","STREET":" ","SECT":" ","MAREA":"茄拔","LANE":" ","ALLEY":" ","HOUSE_NO":"１５號之１","E_COORD97":181140.3934,"N_COORD97":2559973.8366399999,"ADDRESS":"茄拔１５號之１","OBJECTID":661976},"geometry":{"x":181140.39340000134,"y":2559973.8366400003}},{"attributes":{"ID":662004,"DIS_CODE":0,"TOWNNAME":"玉井區","LI":"沙田里","LIN":"3鄰","STREET":" ","SECT":" ","MAREA":"沙田","LANE":" ","ALLEY":" ","HOUSE_NO":"２２之２５號","E_COORD97":196172.62568999999,"N_COORD97":2557271.66512,"ADDRESS":"沙田２２之２５號","OBJECTID":661977},"geometry":{"x":196172.62569000106,"y":2557271.6651249975}},{"attributes":{"ID":662005,"DIS_CODE":0,"TOWNNAME":"玉井區","LI":"沙田里","LIN":"3鄰","STREET":" ","SECT":" ","MAREA":"沙田","LANE":" ","ALLEY":" ","HOUSE_NO":"２６之２６號","E_COORD97":196665.42930799999,"N_COORD97":2557263.0926299999,"ADDRESS":"沙田２６之２６號","OBJECTID":661978},"geometry":{"x":196665.42930800095,"y":2557263.0926290024}},{"attributes":{"ID":662006,"DIS_CODE":0,"TOWNNAME":"玉井區","LI":"沙田里","LIN":"4鄰","STREET":" ","SECT":" ","MAREA":"沙田","LANE":" ","ALLEY":" ","HOUSE_NO":"３１號之１","E_COORD97":196513.94410299999,"N_COORD97":2556647.2487900001,"ADDRESS":"沙田３１號之１","OBJECTID":661979},"geometry":{"x":196513.94410299975,"y":2556647.2487950008}},{"attributes":{"ID":662007,"DIS_CODE":0,"TOWNNAME":"玉井區","LI":"沙田里","LIN":"4鄰","STREET":" ","SECT":" ","MAREA":"沙田","LANE":" ","ALLEY":" ","HOUSE_NO":"３１號之１","E_COORD97":196513.94410299999,"N_COORD97":2556647.2487900001,"ADDRESS":"沙田３１號之１","OBJECTID":661980},"geometry":{"x":196513.94410299975,"y":2556647.2487950008}},{"attributes":{"ID":662008,"DIS_CODE":0,"TOWNNAME":"玉井區","LI":"沙田里","LIN":"5鄰","STREET":" ","SECT":" ","MAREA":"沙田","LANE":" ","ALLEY":" ","HOUSE_NO":"４５號之３","E_COORD97":197297.641688,"N_COORD97":2556648.3071300001,"ADDRESS":"沙田４５號之３","OBJECTID":661981},"geometry":{"x":197297.64168800134,"y":2556648.3071280029}},{"attributes":{"ID":662009,"DIS_CODE":0,"TOWNNAME":"玉井區","LI":"沙田里","LIN":"5鄰","STREET":" ","SECT":" ","MAREA":"沙田","LANE":" ","ALLEY":" ","HOUSE_NO":"５６號之４","E_COORD97":198004.233064,"N_COORD97":2556306.64904,"ADDRESS":"沙田５６號之４","OBJECTID":661982},"geometry":{"x":198004.23306400049,"y":2556306.6490449999}},{"attributes":{"ID":662010,"DIS_CODE":0,"TOWNNAME":"玉井區","LI":"沙田里","LIN":"6鄰","STREET":" ","SECT":" ","MAREA":"沙田","LANE":" ","ALLEY":" ","HOUSE_NO":"５８號","E_COORD97":198249.78740299999,"N_COORD97":2556365.3865100001,"ADDRESS":"沙田５８號","OBJECTID":661983},"geometry":{"x":198249.78740300052,"y":2556365.3865130022}},{"attributes":{"ID":662011,"DIS_CODE":0,"TOWNNAME":"玉井區","LI":"沙田里","LIN":"6鄰","STREET":" ","SECT":" ","MAREA":"沙田","LANE":" ","ALLEY":" ","HOUSE_NO":"６１號","E_COORD97":198462.92602700001,"N_COORD97":2556236.5874200002,"ADDRESS":"沙田６１號","OBJECTID":661984},"geometry":{"x":198462.92602700181,"y":2556236.5874160025}},{"attributes":{"ID":662012,"DIS_CODE":0,"TOWNNAME":"玉井區","LI":"沙田里","LIN":"6鄰","STREET":" ","SECT":" ","MAREA":"沙田","LANE":" ","ALLEY":" ","HOUSE_NO":"６１號之１","E_COORD97":198501.909632,"N_COORD97":2556244.10158,"ADDRESS":"沙田６１號之１","OBJECTID":661985},"geometry":{"x":198501.90963200014,"y":2556244.1015789993}},{"attributes":{"ID":662013,"DIS_CODE":0,"TOWNNAME":"玉井區","LI":"沙田里","LIN":"6鄰","STREET":" ","SECT":" ","MAREA":"沙田","LANE":" ","ALLEY":" ","HOUSE_NO":"６１號之５","E_COORD97":198511.44366600001,"N_COORD97":2556279.2382299998,"ADDRESS":"沙田６１號之５","OBJECTID":661986},"geometry":{"x":198511.44366600085,"y":2556279.2382270005}},{"attributes":{"ID":662014,"DIS_CODE":0,"TOWNNAME":"玉井區","LI":"沙田里","LIN":"6鄰","STREET":" ","SECT":" ","MAREA":"沙田","LANE":" ","ALLEY":" ","HOUSE_NO":"６２號","E_COORD97":198595.13129700001,"N_COORD97":2556240.0799099999,"ADDRESS":"沙田６２號","OBJECTID":661987},"geometry":{"x":198595.13129699975,"y":2556240.0799139999}},{"attributes":{"ID":662015,"DIS_CODE":0,"TOWNNAME":"玉井區","LI":"沙田里","LIN":"6鄰","STREET":" ","SECT":" ","MAREA":"沙田","LANE":" ","ALLEY":" ","HOUSE_NO":"６２號之１","E_COORD97":198598.73304299999,"N_COORD97":2556236.9049200001,"ADDRESS":"沙田６２號之１","OBJECTID":661988},"geometry":{"x":198598.7330430001,"y":2556236.9049159996}},{"attributes":{"ID":662016,"DIS_CODE":0,"TOWNNAME":"玉井區","LI":"沙田里","LIN":"6鄰","STREET":" ","SECT":" ","MAREA":"沙田","LANE":" ","ALLEY":" ","HOUSE_NO":"６２號之２","E_COORD97":198592.16515300001,"N_COORD97":2556237.5399199999,"ADDRESS":"沙田６２號之２","OBJECTID":661989},"geometry":{"x":198592.16515299957,"y":2556237.5399159994}},{"attributes":{"ID":662017,"DIS_CODE":0,"TOWNNAME":"官田區","LI":"東庄里","LIN":"3鄰","STREET":" ","SECT":" ","MAREA":"西庄","LANE":" ","ALLEY":" ","HOUSE_NO":"１２０號","E_COORD97":177887.358075,"N_COORD97":2565275.23685,"ADDRESS":"西庄１２０號","OBJECTID":661990},"geometry":{"x":177887.35807500128,"y":2565275.2368449997}},{"attributes":{"ID":662018,"DIS_CODE":0,"TOWNNAME":"官田區","LI":"東庄里","LIN":"3鄰","STREET":" ","SECT":" ","MAREA":"西庄","LANE":" ","ALLEY":" ","HOUSE_NO":"１２６號之１","E_COORD97":178041.46137599999,"N_COORD97":2565281.7985100001,"ADDRESS":"西庄１２６號之１","OBJECTID":661991},"geometry":{"x":178041.4613760002,"y":2565281.7985079996}},{"attributes":{"ID":662019,"DIS_CODE":0,"TOWNNAME":"官田區","LI":"西庄里","LIN":"4鄰","STREET":" ","SECT":" ","MAREA":"西庄","LANE":" ","ALLEY":" ","HOUSE_NO":"２４號之１","E_COORD97":177842.66282100001,"N_COORD97":2565137.6535899998,"ADDRESS":"西庄２４號之１","OBJECTID":661992},"geometry":{"x":177842.66282100044,"y":2565137.6535860021}},{"attributes":{"ID":662020,"DIS_CODE":0,"TOWNNAME":"官田區","LI":"西庄里","LIN":"4鄰","STREET":" ","SECT":" ","MAREA":"西庄","LANE":" ","ALLEY":" ","HOUSE_NO":"２６號","E_COORD97":177822.96301800001,"N_COORD97":2565134.69025,"ADDRESS":"西庄２６號","OBJECTID":661993},"geometry":{"x":177822.96301800013,"y":2565134.6902540009}},{"attributes":{"ID":662021,"DIS_CODE":0,"TOWNNAME":"官田區","LI":"西庄里","LIN":"5鄰","STREET":" ","SECT":" ","MAREA":"西庄","LANE":" ","ALLEY":" ","HOUSE_NO":"３７號","E_COORD97":177827.835012,"N_COORD97":2565165.8052400001,"ADDRESS":"西庄３７號","OBJECTID":661994},"geometry":{"x":177827.83501200005,"y":2565165.8052380029}},{"attributes":{"ID":662022,"DIS_CODE":0,"TOWNNAME":"官田區","LI":"西庄里","LIN":"6鄰","STREET":" ","SECT":" ","MAREA":"西庄","LANE":" ","ALLEY":" ","HOUSE_NO":"４３號","E_COORD97":177851.983159,"N_COORD97":2565161.9952400001,"ADDRESS":"西庄４３號","OBJECTID":661995},"geometry":{"x":177851.98315900192,"y":2565161.9952399991}},{"attributes":{"ID":662023,"DIS_CODE":0,"TOWNNAME":"安南區","LI":"學東里","LIN":"12鄰","STREET":"台江大道","SECT":"五段","MAREA":" ","LANE":"２２２巷","ALLEY":" ","HOUSE_NO":"１６８號","E_COORD97":161871.95441400001,"N_COORD97":2552047.5578100001,"ADDRESS":"台江大道五段２２２巷１６８號","OBJECTID":661996},"geometry":{"x":161871.95441399887,"y":2552047.5578090027}},{"attributes":{"ID":662024,"DIS_CODE":0,"TOWNNAME":"安南區","LI":"淵中里","LIN":"1鄰","STREET":"安中路","SECT":"三段","MAREA":" ","LANE":" ","ALLEY":" ","HOUSE_NO":"３２５號","E_COORD97":165661.876835,"N_COORD97":2549891.2910600002,"ADDRESS":"安中路三段３２５號","OBJECTID":661997},"geometry":{"x":165661.87683499884,"y":2549891.2910560016}},{"attributes":{"ID":662025,"DIS_CODE":0,"TOWNNAME":"安南區","LI":"淵中里","LIN":"1鄰","STREET":"安中路","SECT":"三段","MAREA":" ","LANE":" ","ALLEY":" ","HOUSE_NO":"３２３號","E_COORD97":165666.53614499999,"N_COORD97":2549890.0210600002,"ADDRESS":"安中路三段３２３號","OBJECTID":661998},"geometry":{"x":165666.53614500165,"y":2549890.0210570004}},{"attributes":{"ID":662026,"DIS_CODE":0,"TOWNNAME":"安南區","LI":"淵中里","LIN":"1鄰","STREET":"安中路","SECT":"三段","MAREA":" ","LANE":" ","ALLEY":" ","HOUSE_NO":"３３１之１號","E_COORD97":165644.72210300001,"N_COORD97":2549894.4660499999,"ADDRESS":"安中路三段３３１之１號","OBJECTID":661999},"geometry":{"x":165644.72210299969,"y":2549894.466054}},{"attributes":{"ID":662027,"DIS_CODE":0,"TOWNNAME":"安南區","LI":"淵中里","LIN":"1鄰","STREET":"安中路","SECT":"三段","MAREA":" ","LANE":" ","ALLEY":" ","HOUSE_NO":"３３１之３號","E_COORD97":165640.486367,"N_COORD97":2549895.1010500002,"ADDRESS":"安中路三段３３１之３號","OBJECTID":662000},"geometry":{"x":165640.4863670012,"y":2549895.1010539997}}]}