{"displayFieldName":"TOWNNAME","fieldAliases":{"ID":"ID","DIS_CODE":"DIS_CODE","TOWNNAME":"TOWNNAME","LI":"LI","LIN":"LIN","STREET":"STREET","SECT":"SECT","MAREA":"MAREA","LANE":"LANE","ALLEY":"ALLEY","HOUSE_NO":"HOUSE_NO","E_COORD97":"E_COORD97","N_COORD97":"N_COORD97","ADDRESS":"ADDRESS","OBJECTID":"OBJECTID"},"geometryType":"esriGeometryPoint","spatialReference":{"wkid":102443,"latestWkid":3826},"fields":[{"name":"ID","type":"esriFieldTypeDouble","alias":"ID"},{"name":"DIS_CODE","type":"esriFieldTypeInteger","alias":"DIS_CODE"},{"name":"TOWNNAME","type":"esriFieldTypeString","alias":"TOWNNAME","length":8},{"name":"LI","type":"esriFieldTypeString","alias":"LI","length":8},{"name":"LIN","type":"esriFieldTypeString","alias":"LIN","length":12},{"name":"STREET","type":"esriFieldTypeString","alias":"STREET","length":20},{"name":"SECT","type":"esriFieldTypeString","alias":"SECT","length":8},{"name":"MAREA","type":"esriFieldTypeString","alias":"MAREA","length":12},{"name":"LANE","type":"esriFieldTypeString","alias":"LANE","length":10},{"name":"ALLEY","type":"esriFieldTypeString","alias":"ALLEY","length":10},{"name":"HOUSE_NO","type":"esriFieldTypeString","alias":"HOUSE_NO","length":20},{"name":"E_COORD97","type":"esriFieldTypeDouble","alias":"E_COORD97"},{"name":"N_COORD97","type":"esriFieldTypeDouble","alias":"N_COORD97"},{"name":"ADDRESS","type":"esriFieldTypeString","alias":"ADDRESS","length":50},{"name":"OBJECTID","type":"esriFieldTypeOID","alias":"OBJECTID"}],"features":[{"attributes":{"ID":286607,"DIS_CODE":0,"TOWNNAME":"永康區","LI":"甲頂里","LIN":"12鄰","STREET":"中正南路","SECT":" ","MAREA":" ","LANE":"５２巷","ALLEY":" ","HOUSE_NO":"９６號","E_COORD97":170132.34,"N_COORD97":2546796.1000000001,"ADDRESS":"中正南路５２巷９６號","OBJECTID":286601},"geometry":{"x":170132.33999999985,"y":2546796.0999999996}},{"attributes":{"ID":286608,"DIS_CODE":0,"TOWNNAME":"永康區","LI":"甲頂里","LIN":"12鄰","STREET":"中正南路","SECT":" ","MAREA":" ","LANE":"５２巷","ALLEY":" ","HOUSE_NO":"９６號","E_COORD97":170132.44,"N_COORD97":2546796.1000000001,"ADDRESS":"中正南路５２巷９６號","OBJECTID":286602},"geometry":{"x":170132.44000000041,"y":2546796.0999999996}},{"attributes":{"ID":286609,"DIS_CODE":0,"TOWNNAME":"永康區","LI":"成功里","LIN":"12鄰","STREET":"忠孝路","SECT":" ","MAREA":" ","LANE":"２０３巷","ALLEY":" ","HOUSE_NO":"３７號","E_COORD97":171936.79000000001,"N_COORD97":2544853.75,"ADDRESS":"忠孝路２０３巷３７號","OBJECTID":286603},"geometry":{"x":171936.79000000004,"y":2544853.7500000019}},{"attributes":{"ID":286610,"DIS_CODE":0,"TOWNNAME":"永康區","LI":"成功里","LIN":"12鄰","STREET":"忠孝路","SECT":" ","MAREA":" ","LANE":"２０３巷","ALLEY":" ","HOUSE_NO":"３８號","E_COORD97":171985.87,"N_COORD97":2544884.5,"ADDRESS":"忠孝路２０３巷３８號","OBJECTID":286604},"geometry":{"x":171985.87000000011,"y":2544884.5}},{"attributes":{"ID":286611,"DIS_CODE":0,"TOWNNAME":"永康區","LI":"甲頂里","LIN":"12鄰","STREET":"中正南路","SECT":" ","MAREA":" ","LANE":"５２巷","ALLEY":" ","HOUSE_NO":"９６號","E_COORD97":170136.76999999999,"N_COORD97":2546762.77,"ADDRESS":"中正南路５２巷９６號","OBJECTID":286605},"geometry":{"x":170136.77000000142,"y":2546762.7700000014}},{"attributes":{"ID":286612,"DIS_CODE":0,"TOWNNAME":"永康區","LI":"成功里","LIN":"12鄰","STREET":"忠孝路","SECT":" ","MAREA":" ","LANE":"２０３巷","ALLEY":" ","HOUSE_NO":"５２號","E_COORD97":171950.29999999999,"N_COORD97":2544870.75,"ADDRESS":"忠孝路２０３巷５２號","OBJECTID":286606},"geometry":{"x":171950.29999999981,"y":2544870.7500000019}},{"attributes":{"ID":286613,"DIS_CODE":0,"TOWNNAME":"永康區","LI":"成功里","LIN":"12鄰","STREET":"忠孝路","SECT":" ","MAREA":" ","LANE":"２０３巷","ALLEY":" ","HOUSE_NO":"５０號","E_COORD97":171960.85999999999,"N_COORD97":2544874.9700000002,"ADDRESS":"忠孝路２０３巷５０號","OBJECTID":286607},"geometry":{"x":171960.8599999994,"y":2544874.9700000007}},{"attributes":{"ID":286614,"DIS_CODE":0,"TOWNNAME":"永康區","LI":"成功里","LIN":"12鄰","STREET":"忠孝路","SECT":" ","MAREA":" ","LANE":"２０３巷","ALLEY":" ","HOUSE_NO":"４０號","E_COORD97":171980.45999999999,"N_COORD97":2544883.5,"ADDRESS":"忠孝路２０３巷４０號","OBJECTID":286608},"geometry":{"x":171980.46000000089,"y":2544883.5000000019}},{"attributes":{"ID":286615,"DIS_CODE":0,"TOWNNAME":"新市區","LI":"三舍里","LIN":"2鄰","STREET":" ","SECT":" ","MAREA":"三舍","LANE":" ","ALLEY":" ","HOUSE_NO":"４１之１０號","E_COORD97":177939.01000000001,"N_COORD97":2554386.7999999998,"ADDRESS":"三舍４１之１０號","OBJECTID":286609},"geometry":{"x":177939.01000000071,"y":2554386.8000000007}},{"attributes":{"ID":286616,"DIS_CODE":0,"TOWNNAME":"新市區","LI":"大洲里","LIN":"2鄰","STREET":" ","SECT":" ","MAREA":"大洲","LANE":" ","ALLEY":" ","HOUSE_NO":"１３號","E_COORD97":174506.95999999999,"N_COORD97":2552554.5,"ADDRESS":"大洲１３號","OBJECTID":286610},"geometry":{"x":174506.95999999996,"y":2552554.5000000037}},{"attributes":{"ID":286617,"DIS_CODE":0,"TOWNNAME":"永康區","LI":"甲頂里","LIN":"12鄰","STREET":"中正南路","SECT":" ","MAREA":" ","LANE":"５２巷","ALLEY":" ","HOUSE_NO":"９６號","E_COORD97":170132.44,"N_COORD97":2546796.1000000001,"ADDRESS":"中正南路５２巷９６號","OBJECTID":286611},"geometry":{"x":170132.44000000041,"y":2546796.0999999996}},{"attributes":{"ID":286618,"DIS_CODE":0,"TOWNNAME":"永康區","LI":"西橋里","LIN":"12鄰","STREET":"中華西街","SECT":" ","MAREA":" ","LANE":"１２７巷","ALLEY":" ","HOUSE_NO":"２號","E_COORD97":170643.29999999999,"N_COORD97":2546185.9900000002,"ADDRESS":"中華西街１２７巷２號","OBJECTID":286612},"geometry":{"x":170643.29999999981,"y":2546185.9900000002}},{"attributes":{"ID":286619,"DIS_CODE":0,"TOWNNAME":"永康區","LI":"甲頂里","LIN":"12鄰","STREET":"中正南路","SECT":" ","MAREA":" ","LANE":"５２巷","ALLEY":" ","HOUSE_NO":"９６號","E_COORD97":170120.67000000001,"N_COORD97":2546794.6000000001,"ADDRESS":"中正南路５２巷９６號","OBJECTID":286613},"geometry":{"x":170120.66999999993,"y":2546794.6000000015}},{"attributes":{"ID":286620,"DIS_CODE":0,"TOWNNAME":"新市區","LI":"社內里","LIN":"2鄰","STREET":" ","SECT":" ","MAREA":"社內","LANE":" ","ALLEY":" ","HOUSE_NO":"２８之３５號","E_COORD97":176846.06,"N_COORD97":2552850.0499999998,"ADDRESS":"社內２８之３５號","OBJECTID":286614},"geometry":{"x":176846.06000000145,"y":2552850.0500000045}},{"attributes":{"ID":286621,"DIS_CODE":0,"TOWNNAME":"新市區","LI":"大營里","LIN":"2鄰","STREET":" ","SECT":" ","MAREA":"大營","LANE":" ","ALLEY":" ","HOUSE_NO":"２５號之１","E_COORD97":179662.31,"N_COORD97":2555616.7999999998,"ADDRESS":"大營２５號之１","OBJECTID":286615},"geometry":{"x":179662.31000000052,"y":2555616.8000000007}},{"attributes":{"ID":286622,"DIS_CODE":0,"TOWNNAME":"永康區","LI":"甲頂里","LIN":"12鄰","STREET":"中正南路","SECT":" ","MAREA":" ","LANE":"５２巷","ALLEY":" ","HOUSE_NO":"９６號","E_COORD97":170120.70999999999,"N_COORD97":2546794.6000000001,"ADDRESS":"中正南路５２巷９６號","OBJECTID":286616},"geometry":{"x":170120.71000000183,"y":2546794.6000000015}},{"attributes":{"ID":286623,"DIS_CODE":0,"TOWNNAME":"永康區","LI":"西橋里","LIN":"12鄰","STREET":"中華西街","SECT":" ","MAREA":" ","LANE":"１２７巷","ALLEY":" ","HOUSE_NO":"４號","E_COORD97":170637.51000000001,"N_COORD97":2546185.4900000002,"ADDRESS":"中華西街１２７巷４號","OBJECTID":286617},"geometry":{"x":170637.51000000071,"y":2546185.4900000021}},{"attributes":{"ID":286624,"DIS_CODE":0,"TOWNNAME":"永康區","LI":"甲頂里","LIN":"12鄰","STREET":"中正南路","SECT":" ","MAREA":" ","LANE":"５２巷","ALLEY":" ","HOUSE_NO":"８６號","E_COORD97":170095.54999999999,"N_COORD97":2546795.7799999998,"ADDRESS":"中正南路５２巷８６號","OBJECTID":286618},"geometry":{"x":170095.54999999981,"y":2546795.7800000012}},{"attributes":{"ID":286625,"DIS_CODE":0,"TOWNNAME":"永康區","LI":"西橋里","LIN":"12鄰","STREET":"中華西街","SECT":" ","MAREA":" ","LANE":"１２７巷","ALLEY":" ","HOUSE_NO":"４號之１","E_COORD97":170636.35000000001,"N_COORD97":2546176.79,"ADDRESS":"中華西街１２７巷４號之１","OBJECTID":286619},"geometry":{"x":170636.35000000149,"y":2546176.7899999991}},{"attributes":{"ID":286626,"DIS_CODE":0,"TOWNNAME":"永康區","LI":"甲頂里","LIN":"12鄰","STREET":"中正南路","SECT":" ","MAREA":" ","LANE":"５２巷","ALLEY":" ","HOUSE_NO":"９６號","E_COORD97":170132.20999999999,"N_COORD97":2546756.02,"ADDRESS":"中正南路５２巷９６號","OBJECTID":286620},"geometry":{"x":170132.20999999996,"y":2546756.0199999977}},{"attributes":{"ID":286627,"DIS_CODE":0,"TOWNNAME":"仁德區","LI":"保安里","LIN":"12鄰","STREET":"開發五路","SECT":" ","MAREA":" ","LANE":" ","ALLEY":" ","HOUSE_NO":"１９號","E_COORD97":173074.94203100001,"N_COORD97":2535957.77575,"ADDRESS":"開發五路１９號","OBJECTID":286621},"geometry":{"x":173074.94203099981,"y":2535957.7757489998}},{"attributes":{"ID":286628,"DIS_CODE":0,"TOWNNAME":"永康區","LI":"甲頂里","LIN":"12鄰","STREET":"中正南路","SECT":" ","MAREA":" ","LANE":"５２巷","ALLEY":" ","HOUSE_NO":"９６號","E_COORD97":170125.98999999999,"N_COORD97":2546796.6000000001,"ADDRESS":"中正南路５２巷９６號","OBJECTID":286622},"geometry":{"x":170125.99000000115,"y":2546796.6000000034}},{"attributes":{"ID":286629,"DIS_CODE":0,"TOWNNAME":"安南區","LI":"溪北里","LIN":"12鄰","STREET":"文安街","SECT":" ","MAREA":" ","LANE":"４５巷","ALLEY":" ","HOUSE_NO":"５號","E_COORD97":169404.26999999999,"N_COORD97":2547478.9900000002,"ADDRESS":"文安街４５巷５號","OBJECTID":286623},"geometry":{"x":169404.26999999955,"y":2547478.9900000002}},{"attributes":{"ID":286630,"DIS_CODE":0,"TOWNNAME":"安南區","LI":"溪北里","LIN":"12鄰","STREET":"文安街","SECT":" ","MAREA":" ","LANE":"４５巷","ALLEY":" ","HOUSE_NO":"６號","E_COORD97":169385.76000000001,"N_COORD97":2547465.5,"ADDRESS":"文安街４５巷６號","OBJECTID":286624},"geometry":{"x":169385.75999999978,"y":2547465.5000000037}},{"attributes":{"ID":286631,"DIS_CODE":0,"TOWNNAME":"安南區","LI":"溪北里","LIN":"12鄰","STREET":"文安街","SECT":" ","MAREA":" ","LANE":"４５巷","ALLEY":" ","HOUSE_NO":"８號","E_COORD97":169385.91,"N_COORD97":2547460.5600000001,"ADDRESS":"文安街４５巷８號","OBJECTID":286625},"geometry":{"x":169385.91000000108,"y":2547460.5600000005}},{"attributes":{"ID":286632,"DIS_CODE":0,"TOWNNAME":"安南區","LI":"總頭里","LIN":"12鄰","STREET":"長溪路","SECT":"二段","MAREA":" ","LANE":"５２３巷","ALLEY":" ","HOUSE_NO":"２７號之２","E_COORD97":168114.47,"N_COORD97":2550528.75,"ADDRESS":"長溪路二段５２３巷２７號之２","OBJECTID":286626},"geometry":{"x":168114.46999999974,"y":2550528.7500000037}},{"attributes":{"ID":286633,"DIS_CODE":0,"TOWNNAME":"安南區","LI":"學東里","LIN":"12鄰","STREET":"公學路","SECT":"六段","MAREA":" ","LANE":"７２１巷","ALLEY":" ","HOUSE_NO":"８１號之４","E_COORD97":162024.76000000001,"N_COORD97":2553064.1299999999,"ADDRESS":"公學路六段７２１巷８１號之４","OBJECTID":286627},"geometry":{"x":162024.75999999978,"y":2553064.129999999}},{"attributes":{"ID":286634,"DIS_CODE":0,"TOWNNAME":"安南區","LI":"新順里","LIN":"12鄰","STREET":"安生街","SECT":" ","MAREA":" ","LANE":"１０巷","ALLEY":" ","HOUSE_NO":"１０號","E_COORD97":169739.01999999999,"N_COORD97":2549499.3700000001,"ADDRESS":"安生街１０巷１０號","OBJECTID":286628},"geometry":{"x":169739.02000000048,"y":2549499.3700000029}},{"attributes":{"ID":286635,"DIS_CODE":0,"TOWNNAME":"安南區","LI":"新順里","LIN":"12鄰","STREET":"安生街","SECT":" ","MAREA":" ","LANE":"１０巷","ALLEY":" ","HOUSE_NO":"１１號","E_COORD97":169724.14999999999,"N_COORD97":2549508.5299999998,"ADDRESS":"安生街１０巷１１號","OBJECTID":286629},"geometry":{"x":169724.15000000037,"y":2549508.5299999993}},{"attributes":{"ID":286636,"DIS_CODE":0,"TOWNNAME":"安南區","LI":"新順里","LIN":"12鄰","STREET":"安生街","SECT":" ","MAREA":" ","LANE":"１０巷","ALLEY":" ","HOUSE_NO":"１２號","E_COORD97":169739.22,"N_COORD97":2549503.04,"ADDRESS":"安生街１０巷１２號","OBJECTID":286630},"geometry":{"x":169739.22000000067,"y":2549503.040000001}},{"attributes":{"ID":286637,"DIS_CODE":0,"TOWNNAME":"安南區","LI":"新順里","LIN":"12鄰","STREET":"安生街","SECT":" ","MAREA":" ","LANE":"１０巷","ALLEY":" ","HOUSE_NO":"１號","E_COORD97":169721.10000000001,"N_COORD97":2549487.98,"ADDRESS":"安生街１０巷１號","OBJECTID":286631},"geometry":{"x":169721.10000000056,"y":2549487.9800000023}},{"attributes":{"ID":286638,"DIS_CODE":0,"TOWNNAME":"安南區","LI":"新順里","LIN":"12鄰","STREET":"安生街","SECT":" ","MAREA":" ","LANE":"１０巷","ALLEY":" ","HOUSE_NO":"２號","E_COORD97":169736.98000000001,"N_COORD97":2549481.8799999999,"ADDRESS":"安生街１０巷２號","OBJECTID":286632},"geometry":{"x":169736.98000000138,"y":2549481.879999999}},{"attributes":{"ID":286639,"DIS_CODE":0,"TOWNNAME":"仁德區","LI":"仁德里","LIN":"2鄰","STREET":"中正路","SECT":"二段","MAREA":" ","LANE":" ","ALLEY":" ","HOUSE_NO":"７２７號","E_COORD97":173460.04000000001,"N_COORD97":2540172.52,"ADDRESS":"中正路二段７２７號","OBJECTID":286633},"geometry":{"x":173460.04000000097,"y":2540172.5200000014}},{"attributes":{"ID":286640,"DIS_CODE":0,"TOWNNAME":"安南區","LI":"新順里","LIN":"12鄰","STREET":"安生街","SECT":" ","MAREA":" ","LANE":"１０巷","ALLEY":" ","HOUSE_NO":"３號","E_COORD97":169722.51999999999,"N_COORD97":2549491.8500000001,"ADDRESS":"安生街１０巷３號","OBJECTID":286634},"geometry":{"x":169722.51999999955,"y":2549491.8500000015}},{"attributes":{"ID":286641,"DIS_CODE":0,"TOWNNAME":"安南區","LI":"新順里","LIN":"12鄰","STREET":"安和路","SECT":"三段","MAREA":" ","LANE":"７３巷","ALLEY":" ","HOUSE_NO":"２８號","E_COORD97":169720.87,"N_COORD97":2549537.73,"ADDRESS":"安和路三段７３巷２８號","OBJECTID":286635},"geometry":{"x":169720.87000000011,"y":2549537.7300000004}},{"attributes":{"ID":286642,"DIS_CODE":0,"TOWNNAME":"安南區","LI":"新順里","LIN":"12鄰","STREET":"安和路","SECT":"三段","MAREA":" ","LANE":"７３巷","ALLEY":" ","HOUSE_NO":"３０號","E_COORD97":169716.85999999999,"N_COORD97":2549539.4700000002,"ADDRESS":"安和路三段７３巷３０號","OBJECTID":286636},"geometry":{"x":169716.86000000127,"y":2549539.4700000025}},{"attributes":{"ID":286643,"DIS_CODE":0,"TOWNNAME":"安南區","LI":"新順里","LIN":"12鄰","STREET":"安和路","SECT":"三段","MAREA":" ","LANE":"７３巷","ALLEY":" ","HOUSE_NO":"３２號","E_COORD97":169712.85000000001,"N_COORD97":2549540.6899999999,"ADDRESS":"安和路三段７３巷３２號","OBJECTID":286637},"geometry":{"x":169712.85000000056,"y":2549540.6899999995}},{"attributes":{"ID":286644,"DIS_CODE":0,"TOWNNAME":"安南區","LI":"新順里","LIN":"12鄰","STREET":"安和路","SECT":"三段","MAREA":" ","LANE":"７３巷","ALLEY":" ","HOUSE_NO":"３４號","E_COORD97":169708.67000000001,"N_COORD97":2549542.4300000002,"ADDRESS":"安和路三段７３巷３４號","OBJECTID":286638},"geometry":{"x":169708.66999999993,"y":2549542.4299999997}},{"attributes":{"ID":286645,"DIS_CODE":0,"TOWNNAME":"新化區","LI":"協興里","LIN":"12鄰","STREET":"太平街","SECT":" ","MAREA":" ","LANE":"１５０巷","ALLEY":" ","HOUSE_NO":"１９１號","E_COORD97":178256.22,"N_COORD97":2548896.25,"ADDRESS":"太平街１５０巷１９１號","OBJECTID":286639},"geometry":{"x":178256.22000000067,"y":2548896.25}},{"attributes":{"ID":286646,"DIS_CODE":0,"TOWNNAME":"東區","LI":"大同里","LIN":"12鄰","STREET":"大同路","SECT":"一段","MAREA":" ","LANE":"１５５巷","ALLEY":" ","HOUSE_NO":"３１號","E_COORD97":169220.25,"N_COORD97":2542907.0499999998,"ADDRESS":"大同路一段１５５巷３１號","OBJECTID":286640},"geometry":{"x":169220.25000000186,"y":2542907.0500000026}},{"attributes":{"ID":286647,"DIS_CODE":0,"TOWNNAME":"安南區","LI":"海西里","LIN":"12鄰","STREET":"海環街","SECT":" ","MAREA":" ","LANE":"２２９巷","ALLEY":" ","HOUSE_NO":"２９號","E_COORD97":166201.95000000001,"N_COORD97":2548650.7400000002,"ADDRESS":"海環街２２９巷２９號","OBJECTID":286641},"geometry":{"x":166201.95000000112,"y":2548650.7400000039}},{"attributes":{"ID":286648,"DIS_CODE":0,"TOWNNAME":"佳里區","LI":"忠仁里","LIN":"12鄰","STREET":"新生路","SECT":" ","MAREA":" ","LANE":"２１巷","ALLEY":" ","HOUSE_NO":"７號","E_COORD97":166128.60999999999,"N_COORD97":2562362.6400000001,"ADDRESS":"新生路２１巷７號","OBJECTID":286642},"geometry":{"x":166128.61000000127,"y":2562362.6400000043}},{"attributes":{"ID":286649,"DIS_CODE":0,"TOWNNAME":"安南區","LI":"海西里","LIN":"12鄰","STREET":"海環街","SECT":" ","MAREA":" ","LANE":"２５７巷","ALLEY":" ","HOUSE_NO":"６之２號","E_COORD97":166179.04999999999,"N_COORD97":2548654.6800000002,"ADDRESS":"海環街２５７巷６之２號","OBJECTID":286643},"geometry":{"x":166179.05000000075,"y":2548654.6800000016}},{"attributes":{"ID":286650,"DIS_CODE":0,"TOWNNAME":"安南區","LI":"海西里","LIN":"12鄰","STREET":"海環街","SECT":" ","MAREA":" ","LANE":"２５７巷","ALLEY":" ","HOUSE_NO":"６之１號","E_COORD97":166179.04999999999,"N_COORD97":2548652.9399999999,"ADDRESS":"海環街２５７巷６之１號","OBJECTID":286644},"geometry":{"x":166179.05000000075,"y":2548652.9400000013}},{"attributes":{"ID":286651,"DIS_CODE":0,"TOWNNAME":"仁德區","LI":"田厝里","LIN":"12鄰","STREET":"田厝一街","SECT":" ","MAREA":" ","LANE":"２０２巷","ALLEY":" ","HOUSE_NO":"１５號","E_COORD97":172324.66,"N_COORD97":2537849.5,"ADDRESS":"田厝一街２０２巷１５號","OBJECTID":286645},"geometry":{"x":172324.66000000015,"y":2537849.5}},{"attributes":{"ID":286652,"DIS_CODE":0,"TOWNNAME":"仁德區","LI":"二行里","LIN":"12鄰","STREET":"行大街","SECT":" ","MAREA":" ","LANE":"１７２巷","ALLEY":" ","HOUSE_NO":"４６之２號","E_COORD97":169914.45999999999,"N_COORD97":2535161.0499999998,"ADDRESS":"行大街１７２巷４６之２號","OBJECTID":286646},"geometry":{"x":169914.46000000089,"y":2535161.0500000007}},{"attributes":{"ID":286653,"DIS_CODE":0,"TOWNNAME":"仁德區","LI":"土庫里","LIN":"12鄰","STREET":"土庫路","SECT":" ","MAREA":" ","LANE":"１３９巷","ALLEY":" ","HOUSE_NO":"３號","E_COORD97":174367.87,"N_COORD97":2543101.75,"ADDRESS":"土庫路１３９巷３號","OBJECTID":286647},"geometry":{"x":174367.87000000197,"y":2543101.7500000019}},{"attributes":{"ID":286654,"DIS_CODE":0,"TOWNNAME":"仁德區","LI":"二行里","LIN":"12鄰","STREET":"行大街","SECT":" ","MAREA":" ","LANE":"１７２巷","ALLEY":" ","HOUSE_NO":"５２號","E_COORD97":169881.10999999999,"N_COORD97":2535177.9900000002,"ADDRESS":"行大街１７２巷５２號","OBJECTID":286648},"geometry":{"x":169881.1100000022,"y":2535177.9900000002}},{"attributes":{"ID":286655,"DIS_CODE":0,"TOWNNAME":"仁德區","LI":"田厝里","LIN":"12鄰","STREET":"田厝二街","SECT":" ","MAREA":" ","LANE":"１７０巷","ALLEY":" ","HOUSE_NO":"１３９號","E_COORD97":172096.13,"N_COORD97":2538008.4900000002,"ADDRESS":"田厝二街１７０巷１３９號","OBJECTID":286649},"geometry":{"x":172096.13000000082,"y":2538008.4900000002}},{"attributes":{"ID":286656,"DIS_CODE":0,"TOWNNAME":"仁德區","LI":"田厝里","LIN":"12鄰","STREET":"田厝一街","SECT":" ","MAREA":" ","LANE":"２１６巷","ALLEY":" ","HOUSE_NO":"１３號","E_COORD97":172292.98999999999,"N_COORD97":2537794.9900000002,"ADDRESS":"田厝一街２１６巷１３號","OBJECTID":286650},"geometry":{"x":172292.99000000115,"y":2537794.9900000002}},{"attributes":{"ID":286657,"DIS_CODE":0,"TOWNNAME":"仁德區","LI":"仁義里","LIN":"12鄰","STREET":"中山路","SECT":" ","MAREA":" ","LANE":"４０巷","ALLEY":" ","HOUSE_NO":"６號","E_COORD97":174987.29000000001,"N_COORD97":2541207.2400000002,"ADDRESS":"中山路４０巷６號","OBJECTID":286651},"geometry":{"x":174987.29000000097,"y":2541207.2400000002}},{"attributes":{"ID":286658,"DIS_CODE":0,"TOWNNAME":"仁德區","LI":"後壁里","LIN":"12鄰","STREET":"德善路","SECT":" ","MAREA":" ","LANE":"２１２巷","ALLEY":" ","HOUSE_NO":"３３號","E_COORD97":173797.14999999999,"N_COORD97":2538621.0099999998,"ADDRESS":"德善路２１２巷３３號","OBJECTID":286652},"geometry":{"x":173797.1500000013,"y":2538621.0100000016}},{"attributes":{"ID":286659,"DIS_CODE":0,"TOWNNAME":"仁德區","LI":"成功里","LIN":"12鄰","STREET":"成功二街","SECT":" ","MAREA":" ","LANE":"６巷","ALLEY":" ","HOUSE_NO":"５號","E_COORD97":170880.26000000001,"N_COORD97":2539978.2599999998,"ADDRESS":"成功二街６巷５號","OBJECTID":286653},"geometry":{"x":170880.26000000071,"y":2539978.2600000016}},{"attributes":{"ID":286660,"DIS_CODE":0,"TOWNNAME":"仁德區","LI":"成功里","LIN":"12鄰","STREET":"成功二街","SECT":" ","MAREA":" ","LANE":"６巷","ALLEY":" ","HOUSE_NO":"１９號","E_COORD97":170853.01000000001,"N_COORD97":2539978.5099999998,"ADDRESS":"成功二街６巷１９號","OBJECTID":286654},"geometry":{"x":170853.01000000071,"y":2539978.5099999998}},{"attributes":{"ID":286661,"DIS_CODE":0,"TOWNNAME":"仁德區","LI":"成功里","LIN":"12鄰","STREET":"成功二街","SECT":" ","MAREA":" ","LANE":"６巷","ALLEY":" ","HOUSE_NO":"１４號","E_COORD97":170886.66,"N_COORD97":2539993.77,"ADDRESS":"成功二街６巷１４號","OBJECTID":286655},"geometry":{"x":170886.66000000015,"y":2539993.7699999996}},{"attributes":{"ID":286662,"DIS_CODE":0,"TOWNNAME":"仁德區","LI":"後壁里","LIN":"12鄰","STREET":"德善路","SECT":" ","MAREA":" ","LANE":"２１２巷","ALLEY":" ","HOUSE_NO":"８號","E_COORD97":173722.57000000001,"N_COORD97":2538652.52,"ADDRESS":"德善路２１２巷８號","OBJECTID":286656},"geometry":{"x":173722.57000000216,"y":2538652.5199999996}},{"attributes":{"ID":286663,"DIS_CODE":0,"TOWNNAME":"仁德區","LI":"成功里","LIN":"12鄰","STREET":"成功二街","SECT":" ","MAREA":" ","LANE":"６巷","ALLEY":" ","HOUSE_NO":"２８號","E_COORD97":170857.76000000001,"N_COORD97":2539994.27,"ADDRESS":"成功二街６巷２８號","OBJECTID":286657},"geometry":{"x":170857.76000000071,"y":2539994.2700000033}},{"attributes":{"ID":286664,"DIS_CODE":0,"TOWNNAME":"仁德區","LI":"仁德里","LIN":"2鄰","STREET":"仁德五街","SECT":" ","MAREA":" ","LANE":" ","ALLEY":" ","HOUSE_NO":"１５號","E_COORD97":173398.81,"N_COORD97":2540208.77,"ADDRESS":"仁德五街１５號","OBJECTID":286658},"geometry":{"x":173398.81000000052,"y":2540208.7700000014}},{"attributes":{"ID":286665,"DIS_CODE":0,"TOWNNAME":"仁德區","LI":"田厝里","LIN":"2鄰","STREET":"保安路","SECT":"二段","MAREA":" ","LANE":" ","ALLEY":" ","HOUSE_NO":"５３６號","E_COORD97":172563.03,"N_COORD97":2537551.3100000001,"ADDRESS":"保安路二段５３６號","OBJECTID":286659},"geometry":{"x":172563.03000000026,"y":2537551.3100000024}},{"attributes":{"ID":286666,"DIS_CODE":0,"TOWNNAME":"仁德區","LI":"後壁里","LIN":"2鄰","STREET":"德安路","SECT":" ","MAREA":" ","LANE":" ","ALLEY":" ","HOUSE_NO":"２８號","E_COORD97":173370.67999999999,"N_COORD97":2539224.0600000001,"ADDRESS":"德安路２８號","OBJECTID":286660},"geometry":{"x":173370.68000000063,"y":2539224.0600000024}},{"attributes":{"ID":286667,"DIS_CODE":0,"TOWNNAME":"仁德區","LI":"田厝里","LIN":"2鄰","STREET":"保安路","SECT":"二段","MAREA":" ","LANE":" ","ALLEY":" ","HOUSE_NO":"６０２號","E_COORD97":172711.92000000001,"N_COORD97":2537576.3100000001,"ADDRESS":"保安路二段６０２號","OBJECTID":286661},"geometry":{"x":172711.92000000086,"y":2537576.3100000005}},{"attributes":{"ID":286668,"DIS_CODE":0,"TOWNNAME":"仁德區","LI":"田厝里","LIN":"2鄰","STREET":"保安路","SECT":"二段","MAREA":" ","LANE":" ","ALLEY":" ","HOUSE_NO":"５４２號","E_COORD97":172577.76000000001,"N_COORD97":2537550.0600000001,"ADDRESS":"保安路二段５４２號","OBJECTID":286662},"geometry":{"x":172577.75999999978,"y":2537550.0600000024}},{"attributes":{"ID":286669,"DIS_CODE":0,"TOWNNAME":"仁德區","LI":"後壁里","LIN":"2鄰","STREET":"德安路","SECT":" ","MAREA":" ","LANE":" ","ALLEY":" ","HOUSE_NO":"２４號","E_COORD97":173365.29000000001,"N_COORD97":2539230.5600000001,"ADDRESS":"德安路２４號","OBJECTID":286663},"geometry":{"x":173365.29000000097,"y":2539230.5600000042}},{"attributes":{"ID":286670,"DIS_CODE":0,"TOWNNAME":"仁德區","LI":"後壁里","LIN":"2鄰","STREET":"德安路","SECT":" ","MAREA":" ","LANE":" ","ALLEY":" ","HOUSE_NO":"２６號","E_COORD97":173368.32000000001,"N_COORD97":2539227.5600000001,"ADDRESS":"德安路２６號","OBJECTID":286664},"geometry":{"x":173368.32000000216,"y":2539227.5600000024}},{"attributes":{"ID":286671,"DIS_CODE":0,"TOWNNAME":"仁德區","LI":"新田里","LIN":"2鄰","STREET":"新田二街","SECT":" ","MAREA":" ","LANE":" ","ALLEY":" ","HOUSE_NO":"１３６號","E_COORD97":174851.48000000001,"N_COORD97":2539951.7400000002,"ADDRESS":"新田二街１３６號","OBJECTID":286665},"geometry":{"x":174851.48000000045,"y":2539951.7400000021}},{"attributes":{"ID":286672,"DIS_CODE":0,"TOWNNAME":"新營區","LI":"南興里","LIN":"2鄰","STREET":"建業路","SECT":" ","MAREA":" ","LANE":" ","ALLEY":" ","HOUSE_NO":"２之９號","E_COORD97":179663.36627100001,"N_COORD97":2577583.9290700001,"ADDRESS":"建業路２之９號","OBJECTID":286666},"geometry":{"x":179663.36627100129,"y":2577583.9290739987}},{"attributes":{"ID":286673,"DIS_CODE":0,"TOWNNAME":"佳里區","LI":"忠仁里","LIN":"12鄰","STREET":"新生路","SECT":" ","MAREA":" ","LANE":"２１巷","ALLEY":" ","HOUSE_NO":"１１號","E_COORD97":166133.34,"N_COORD97":2562347.7000000002,"ADDRESS":"新生路２１巷１１號","OBJECTID":286667},"geometry":{"x":166133.34000000078,"y":2562347.7000000011}},{"attributes":{"ID":286674,"DIS_CODE":0,"TOWNNAME":"佳里區","LI":"忠仁里","LIN":"12鄰","STREET":"新生路","SECT":" ","MAREA":" ","LANE":"２１巷","ALLEY":" ","HOUSE_NO":"１號","E_COORD97":166127.04000000001,"N_COORD97":2562375.46,"ADDRESS":"新生路２１巷１號","OBJECTID":286668},"geometry":{"x":166127.04000000097,"y":2562375.4600000028}},{"attributes":{"ID":286675,"DIS_CODE":0,"TOWNNAME":"佳里區","LI":"忠仁里","LIN":"12鄰","STREET":"新生路","SECT":" ","MAREA":" ","LANE":"２１巷","ALLEY":" ","HOUSE_NO":"３號","E_COORD97":166127.45000000001,"N_COORD97":2562371.52,"ADDRESS":"新生路２１巷３號","OBJECTID":286669},"geometry":{"x":166127.45000000112,"y":2562371.5199999996}},{"attributes":{"ID":286676,"DIS_CODE":0,"TOWNNAME":"佳里區","LI":"忠仁里","LIN":"12鄰","STREET":"新生路","SECT":" ","MAREA":" ","LANE":"２１巷","ALLEY":" ","HOUSE_NO":"５號","E_COORD97":166128.22,"N_COORD97":2562367.04,"ADDRESS":"新生路２１巷５號","OBJECTID":286670},"geometry":{"x":166128.2200000016,"y":2562367.0399999991}},{"attributes":{"ID":286677,"DIS_CODE":0,"TOWNNAME":"佳里區","LI":"忠仁里","LIN":"12鄰","STREET":"新生路","SECT":" ","MAREA":" ","LANE":"２１巷","ALLEY":" ","HOUSE_NO":"９號","E_COORD97":166132.45999999999,"N_COORD97":2562352.8700000001,"ADDRESS":"新生路２１巷９號","OBJECTID":286671},"geometry":{"x":166132.46000000089,"y":2562352.8700000029}},{"attributes":{"ID":286678,"DIS_CODE":0,"TOWNNAME":"佳里區","LI":"建南里","LIN":"12鄰","STREET":"新生路","SECT":" ","MAREA":" ","LANE":"３９５巷","ALLEY":" ","HOUSE_NO":"１０號","E_COORD97":165310.16,"N_COORD97":2562158.8599999999,"ADDRESS":"新生路３９５巷１０號","OBJECTID":286672},"geometry":{"x":165310.16000000201,"y":2562158.8599999994}},{"attributes":{"ID":286679,"DIS_CODE":0,"TOWNNAME":"佳里區","LI":"建南里","LIN":"12鄰","STREET":"新生路","SECT":" ","MAREA":" ","LANE":"３９５巷","ALLEY":" ","HOUSE_NO":"１１號","E_COORD97":165308.32000000001,"N_COORD97":2562144.29,"ADDRESS":"新生路３９５巷１１號","OBJECTID":286673},"geometry":{"x":165308.32000000123,"y":2562144.290000001}},{"attributes":{"ID":286680,"DIS_CODE":0,"TOWNNAME":"佳里區","LI":"建南里","LIN":"12鄰","STREET":"新生路","SECT":" ","MAREA":" ","LANE":"３９５巷","ALLEY":" ","HOUSE_NO":"１２號","E_COORD97":165306.23999999999,"N_COORD97":2562158.21,"ADDRESS":"新生路３９５巷１２號","OBJECTID":286674},"geometry":{"x":165306.23999999929,"y":2562158.2100000009}},{"attributes":{"ID":286681,"DIS_CODE":0,"TOWNNAME":"佳里區","LI":"建南里","LIN":"12鄰","STREET":"新生路","SECT":" ","MAREA":" ","LANE":"３９５巷","ALLEY":" ","HOUSE_NO":"１３號","E_COORD97":165304.47,"N_COORD97":2562143.6899999999,"ADDRESS":"新生路３９５巷１３號","OBJECTID":286675},"geometry":{"x":165304.47000000067,"y":2562143.6899999995}},{"attributes":{"ID":286682,"DIS_CODE":0,"TOWNNAME":"佳里區","LI":"建南里","LIN":"12鄰","STREET":"新生路","SECT":" ","MAREA":" ","LANE":"３９５巷","ALLEY":" ","HOUSE_NO":"１４號","E_COORD97":165302.57000000001,"N_COORD97":2562157.5,"ADDRESS":"新生路３９５巷１４號","OBJECTID":286676},"geometry":{"x":165302.57000000216,"y":2562157.5000000019}},{"attributes":{"ID":286683,"DIS_CODE":0,"TOWNNAME":"佳里區","LI":"建南里","LIN":"12鄰","STREET":"新生路","SECT":" ","MAREA":" ","LANE":"３９５巷","ALLEY":" ","HOUSE_NO":"１５號","E_COORD97":165300.69,"N_COORD97":2562142.5099999998,"ADDRESS":"新生路３９５巷１５號","OBJECTID":286677},"geometry":{"x":165300.69000000134,"y":2562142.5100000016}},{"attributes":{"ID":286684,"DIS_CODE":0,"TOWNNAME":"佳里區","LI":"建南里","LIN":"12鄰","STREET":"新生路","SECT":" ","MAREA":" ","LANE":"３９５巷","ALLEY":" ","HOUSE_NO":"１６號","E_COORD97":165298.67999999999,"N_COORD97":2562156.8100000001,"ADDRESS":"新生路３９５巷１６號","OBJECTID":286678},"geometry":{"x":165298.6799999997,"y":2562156.8100000005}},{"attributes":{"ID":286685,"DIS_CODE":0,"TOWNNAME":"佳里區","LI":"建南里","LIN":"12鄰","STREET":"新生路","SECT":" ","MAREA":" ","LANE":"３９５巷","ALLEY":" ","HOUSE_NO":"１號","E_COORD97":165327.19,"N_COORD97":2562148.0899999999,"ADDRESS":"新生路３９５巷１號","OBJECTID":286679},"geometry":{"x":165327.19000000227,"y":2562148.0899999999}},{"attributes":{"ID":286686,"DIS_CODE":0,"TOWNNAME":"仁德區","LI":"太子里","LIN":"2鄰","STREET":"長興三街","SECT":" ","MAREA":" ","LANE":"２巷","ALLEY":" ","HOUSE_NO":"７號","E_COORD97":174261.14000000001,"N_COORD97":2543546.2599999998,"ADDRESS":"長興三街２巷７號","OBJECTID":286680},"geometry":{"x":174261.1400000006,"y":2543546.2599999998}},{"attributes":{"ID":286687,"DIS_CODE":0,"TOWNNAME":"仁德區","LI":"新田里","LIN":"2鄰","STREET":"義林路","SECT":" ","MAREA":" ","LANE":" ","ALLEY":" ","HOUSE_NO":"１１６號","E_COORD97":174358.51000000001,"N_COORD97":2540046.5099999998,"ADDRESS":"義林路１１６號","OBJECTID":286681},"geometry":{"x":174358.51000000071,"y":2540046.5099999998}},{"attributes":{"ID":286688,"DIS_CODE":0,"TOWNNAME":"仁德區","LI":"新田里","LIN":"2鄰","STREET":"義林路","SECT":" ","MAREA":" ","LANE":" ","ALLEY":" ","HOUSE_NO":"９９號","E_COORD97":174334.70999999999,"N_COORD97":2540154.2599999998,"ADDRESS":"義林路９９號","OBJECTID":286682},"geometry":{"x":174334.70999999996,"y":2540154.2600000016}},{"attributes":{"ID":286689,"DIS_CODE":0,"TOWNNAME":"白河區","LI":"仙草里","LIN":"2鄰","STREET":" ","SECT":" ","MAREA":"仙草","LANE":" ","ALLEY":" ","HOUSE_NO":"１２號","E_COORD97":196187.79000000001,"N_COORD97":2582730.6600000001,"ADDRESS":"仙草１２號","OBJECTID":286683},"geometry":{"x":196187.79000000097,"y":2582730.6600000001}},{"attributes":{"ID":286690,"DIS_CODE":0,"TOWNNAME":"白河區","LI":"仙草里","LIN":"2鄰","STREET":" ","SECT":" ","MAREA":"仙草","LANE":" ","ALLEY":" ","HOUSE_NO":"１３號","E_COORD97":196206.25,"N_COORD97":2582719.1000000001,"ADDRESS":"仙草１３號","OBJECTID":286684},"geometry":{"x":196206.25000000093,"y":2582719.1000000015}},{"attributes":{"ID":286691,"DIS_CODE":0,"TOWNNAME":"白河區","LI":"仙草里","LIN":"2鄰","STREET":" ","SECT":" ","MAREA":"仙草","LANE":" ","ALLEY":" ","HOUSE_NO":"１４號","E_COORD97":196223.13,"N_COORD97":2582714.5699999998,"ADDRESS":"仙草１４號","OBJECTID":286685},"geometry":{"x":196223.12999999989,"y":2582714.5700000003}},{"attributes":{"ID":286692,"DIS_CODE":0,"TOWNNAME":"白河區","LI":"仙草里","LIN":"2鄰","STREET":" ","SECT":" ","MAREA":"仙草","LANE":" ","ALLEY":" ","HOUSE_NO":"１６之１１號","E_COORD97":196220.07999999999,"N_COORD97":2582846.79,"ADDRESS":"仙草１６之１１號","OBJECTID":286686},"geometry":{"x":196220.08000000007,"y":2582846.7899999991}},{"attributes":{"ID":286693,"DIS_CODE":0,"TOWNNAME":"佳里區","LI":"建南里","LIN":"12鄰","STREET":"新生路","SECT":" ","MAREA":" ","LANE":"３９５巷","ALLEY":" ","HOUSE_NO":"２號","E_COORD97":165325.29999999999,"N_COORD97":2562161.6800000002,"ADDRESS":"新生路３９５巷２號","OBJECTID":286687},"geometry":{"x":165325.29999999981,"y":2562161.6800000016}},{"attributes":{"ID":286694,"DIS_CODE":0,"TOWNNAME":"白河區","LI":"仙草里","LIN":"2鄰","STREET":" ","SECT":" ","MAREA":"仙草","LANE":" ","ALLEY":" ","HOUSE_NO":"１６之１４號","E_COORD97":196251.89999999999,"N_COORD97":2582855.0800000001,"ADDRESS":"仙草１６之１４號","OBJECTID":286688},"geometry":{"x":196251.9000000013,"y":2582855.0800000019}},{"attributes":{"ID":286695,"DIS_CODE":0,"TOWNNAME":"白河區","LI":"仙草里","LIN":"2鄰","STREET":" ","SECT":" ","MAREA":"仙草","LANE":" ","ALLEY":" ","HOUSE_NO":"１６之１７號","E_COORD97":196296.14999999999,"N_COORD97":2582808,"ADDRESS":"仙草１６之１７號","OBJECTID":286689},"geometry":{"x":196296.15000000037,"y":2582808.0000000019}},{"attributes":{"ID":286696,"DIS_CODE":0,"TOWNNAME":"永康區","LI":"永康里","LIN":"12鄰","STREET":"永康街","SECT":" ","MAREA":" ","LANE":"１３６巷","ALLEY":" ","HOUSE_NO":"２６號","E_COORD97":173890.48000000001,"N_COORD97":2547029.1299999999,"ADDRESS":"永康街１３６巷２６號","OBJECTID":286690},"geometry":{"x":173890.48000000045,"y":2547029.129999999}},{"attributes":{"ID":286697,"DIS_CODE":0,"TOWNNAME":"仁德區","LI":"新田里","LIN":"2鄰","STREET":"義林路","SECT":" ","MAREA":" ","LANE":" ","ALLEY":" ","HOUSE_NO":"６５號","E_COORD97":174258.57000000001,"N_COORD97":2539737.0099999998,"ADDRESS":"義林路６５號","OBJECTID":286691},"geometry":{"x":174258.57000000123,"y":2539737.0099999998}},{"attributes":{"ID":286698,"DIS_CODE":0,"TOWNNAME":"白河區","LI":"仙草里","LIN":"2鄰","STREET":" ","SECT":" ","MAREA":"仙草","LANE":" ","ALLEY":" ","HOUSE_NO":"１６之１號","E_COORD97":196276.16,"N_COORD97":2582854.2000000002,"ADDRESS":"仙草１６之１號","OBJECTID":286692},"geometry":{"x":196276.15999999922,"y":2582854.1999999993}},{"attributes":{"ID":286699,"DIS_CODE":0,"TOWNNAME":"白河區","LI":"仙草里","LIN":"2鄰","STREET":" ","SECT":" ","MAREA":"仙草","LANE":" ","ALLEY":" ","HOUSE_NO":"１６之２０號","E_COORD97":196216.73000000001,"N_COORD97":2582767.5800000001,"ADDRESS":"仙草１６之２０號","OBJECTID":286693},"geometry":{"x":196216.73000000231,"y":2582767.5800000001}},{"attributes":{"ID":286700,"DIS_CODE":0,"TOWNNAME":"官田區","LI":"隆田里","LIN":"2鄰","STREET":"新生街","SECT":" ","MAREA":" ","LANE":" ","ALLEY":" ","HOUSE_NO":"１０２號","E_COORD97":180210.67999999999,"N_COORD97":2565682.0099999998,"ADDRESS":"新生街１０２號","OBJECTID":286694},"geometry":{"x":180210.68000000063,"y":2565682.0100000016}},{"attributes":{"ID":286701,"DIS_CODE":0,"TOWNNAME":"官田區","LI":"隆田里","LIN":"2鄰","STREET":"新生街","SECT":" ","MAREA":" ","LANE":" ","ALLEY":" ","HOUSE_NO":"１０４號","E_COORD97":180216.04000000001,"N_COORD97":2565682.5899999999,"ADDRESS":"新生街１０４號","OBJECTID":286695},"geometry":{"x":180216.04000000004,"y":2565682.5900000017}},{"attributes":{"ID":286702,"DIS_CODE":0,"TOWNNAME":"官田區","LI":"隆田里","LIN":"2鄰","STREET":"新生街","SECT":" ","MAREA":" ","LANE":" ","ALLEY":" ","HOUSE_NO":"１０６號","E_COORD97":180213,"N_COORD97":2565687.3100000001,"ADDRESS":"新生街１０６號","OBJECTID":286696},"geometry":{"x":180213,"y":2565687.3100000042}},{"attributes":{"ID":286703,"DIS_CODE":0,"TOWNNAME":"官田區","LI":"隆田里","LIN":"2鄰","STREET":"新生街","SECT":" ","MAREA":" ","LANE":" ","ALLEY":" ","HOUSE_NO":"１０８號","E_COORD97":180213.54000000001,"N_COORD97":2565692.5099999998,"ADDRESS":"新生街１０８號","OBJECTID":286697},"geometry":{"x":180213.54000000097,"y":2565692.5100000016}},{"attributes":{"ID":286704,"DIS_CODE":0,"TOWNNAME":"佳里區","LI":"建南里","LIN":"15鄰","STREET":"光復路","SECT":" ","MAREA":" ","LANE":" ","ALLEY":" ","HOUSE_NO":"１號","E_COORD97":165530.79999999999,"N_COORD97":2561729.7799999998,"ADDRESS":"光復路１號","OBJECTID":286698},"geometry":{"x":165530.79999999981,"y":2561729.7800000031}},{"attributes":{"ID":286705,"DIS_CODE":0,"TOWNNAME":"安南區","LI":"青草里","LIN":"7鄰","STREET":"青砂街","SECT":"二段","MAREA":" ","LANE":" ","ALLEY":" ","HOUSE_NO":"４３９號","E_COORD97":158870.23000000001,"N_COORD97":2552935.1200000001,"ADDRESS":"青砂街二段４３９號","OBJECTID":286699},"geometry":{"x":158870.23000000138,"y":2552935.1200000029}},{"attributes":{"ID":286706,"DIS_CODE":0,"TOWNNAME":"安南區","LI":"青草里","LIN":"6鄰","STREET":"青砂街","SECT":"二段","MAREA":" ","LANE":" ","ALLEY":" ","HOUSE_NO":"４００號","E_COORD97":158952.85000000001,"N_COORD97":2553033.5299999998,"ADDRESS":"青砂街二段４００號","OBJECTID":286700},"geometry":{"x":158952.84999999963,"y":2553033.5299999993}},{"attributes":{"ID":286707,"DIS_CODE":0,"TOWNNAME":"安南區","LI":"青草里","LIN":"6鄰","STREET":"青砂街","SECT":"二段","MAREA":" ","LANE":" ","ALLEY":" ","HOUSE_NO":"４０６號","E_COORD97":158940.28,"N_COORD97":2553033.5299999998,"ADDRESS":"青砂街二段４０６號","OBJECTID":286701},"geometry":{"x":158940.28000000026,"y":2553033.5299999993}},{"attributes":{"ID":286708,"DIS_CODE":0,"TOWNNAME":"永康區","LI":"尚頂里","LIN":"12鄰","STREET":"尚頂路","SECT":" ","MAREA":" ","LANE":"５９巷","ALLEY":" ","HOUSE_NO":"２３號","E_COORD97":171190.95999999999,"N_COORD97":2547399.9900000002,"ADDRESS":"尚頂路５９巷２３號","OBJECTID":286702},"geometry":{"x":171190.96000000089,"y":2547399.9900000002}},{"attributes":{"ID":286709,"DIS_CODE":0,"TOWNNAME":"永康區","LI":"復國里","LIN":"12鄰","STREET":"復國二路","SECT":" ","MAREA":" ","LANE":"１０４巷","ALLEY":" ","HOUSE_NO":"６號","E_COORD97":172879.60000000001,"N_COORD97":2545305.2799999998,"ADDRESS":"復國二路１０４巷６號","OBJECTID":286703},"geometry":{"x":172879.60000000056,"y":2545305.2799999993}},{"attributes":{"ID":286710,"DIS_CODE":0,"TOWNNAME":"永康區","LI":"二王里","LIN":"12鄰","STREET":"永二街","SECT":" ","MAREA":" ","LANE":"４４７巷","ALLEY":" ","HOUSE_NO":"５９號","E_COORD97":172823.14000000001,"N_COORD97":2546555.98,"ADDRESS":"永二街４４７巷５９號","OBJECTID":286704},"geometry":{"x":172823.1400000006,"y":2546555.9800000004}},{"attributes":{"ID":286711,"DIS_CODE":0,"TOWNNAME":"永康區","LI":"大灣里","LIN":"12鄰","STREET":"大民街","SECT":" ","MAREA":" ","LANE":"５８巷","ALLEY":" ","HOUSE_NO":"１０號","E_COORD97":174882.04999999999,"N_COORD97":2545364.5499999998,"ADDRESS":"大民街５８巷１０號","OBJECTID":286705},"geometry":{"x":174882.05000000075,"y":2545364.5500000026}},{"attributes":{"ID":286712,"DIS_CODE":0,"TOWNNAME":"永康區","LI":"成功里","LIN":"12鄰","STREET":"忠孝路","SECT":" ","MAREA":" ","LANE":"２０３巷","ALLEY":" ","HOUSE_NO":"３３號","E_COORD97":171949.09,"N_COORD97":2544861.75,"ADDRESS":"忠孝路２０３巷３３號","OBJECTID":286706},"geometry":{"x":171949.09000000078,"y":2544861.75}},{"attributes":{"ID":286713,"DIS_CODE":0,"TOWNNAME":"永康區","LI":"新樹里","LIN":"12鄰","STREET":"富強路","SECT":"二段","MAREA":" ","LANE":"１２１巷","ALLEY":" ","HOUSE_NO":"６１號","E_COORD97":175614.44,"N_COORD97":2547030.7799999998,"ADDRESS":"富強路二段１２１巷６１號","OBJECTID":286707},"geometry":{"x":175614.44000000134,"y":2547030.7799999993}},{"attributes":{"ID":286714,"DIS_CODE":0,"TOWNNAME":"南區","LI":"郡南里","LIN":"18鄰","STREET":"德興路","SECT":" ","MAREA":" ","LANE":"１６１巷","ALLEY":" ","HOUSE_NO":"４９號","E_COORD97":167310.82000000001,"N_COORD97":2540454.0800000001,"ADDRESS":"德興路１６１巷４９號","OBJECTID":286708},"geometry":{"x":167310.8200000003,"y":2540454.0800000019}},{"attributes":{"ID":286715,"DIS_CODE":0,"TOWNNAME":"永康區","LI":"二王里","LIN":"12鄰","STREET":"永二街","SECT":" ","MAREA":" ","LANE":"４３１巷","ALLEY":" ","HOUSE_NO":"６號","E_COORD97":172754.09,"N_COORD97":2546606.8500000001,"ADDRESS":"永二街４３１巷６號","OBJECTID":286709},"geometry":{"x":172754.09000000078,"y":2546606.8499999996}},{"attributes":{"ID":286716,"DIS_CODE":0,"TOWNNAME":"永康區","LI":"復華里","LIN":"12鄰","STREET":"國華街","SECT":" ","MAREA":" ","LANE":"１００巷","ALLEY":" ","HOUSE_NO":"１７號","E_COORD97":172909.26999999999,"N_COORD97":2546010.3599999999,"ADDRESS":"國華街１００巷１７號","OBJECTID":286710},"geometry":{"x":172909.26999999955,"y":2546010.3599999994}},{"attributes":{"ID":286717,"DIS_CODE":0,"TOWNNAME":"永康區","LI":"新樹里","LIN":"12鄰","STREET":"富強路","SECT":"二段","MAREA":" ","LANE":"７７巷","ALLEY":" ","HOUSE_NO":"２６號","E_COORD97":175604.70999999999,"N_COORD97":2546954,"ADDRESS":"富強路二段７７巷２６號","OBJECTID":286711},"geometry":{"x":175604.71000000089,"y":2546954.0000000019}},{"attributes":{"ID":286718,"DIS_CODE":0,"TOWNNAME":"永康區","LI":"三民里","LIN":"12鄰","STREET":"正北一路","SECT":" ","MAREA":" ","LANE":"１６０巷","ALLEY":" ","HOUSE_NO":"７號","E_COORD97":174102.38,"N_COORD97":2550161.3599999999,"ADDRESS":"正北一路１６０巷７號","OBJECTID":286712},"geometry":{"x":174102.37999999989,"y":2550161.3600000031}},{"attributes":{"ID":286719,"DIS_CODE":0,"TOWNNAME":"永康區","LI":"甲頂里","LIN":"12鄰","STREET":"中正南路","SECT":" ","MAREA":" ","LANE":"５２巷","ALLEY":" ","HOUSE_NO":"９６號","E_COORD97":170142.95999999999,"N_COORD97":2546773.7599999998,"ADDRESS":"中正南路５２巷９６號","OBJECTID":286713},"geometry":{"x":170142.96000000089,"y":2546773.7599999998}},{"attributes":{"ID":286720,"DIS_CODE":0,"TOWNNAME":"永康區","LI":"南灣里","LIN":"12鄰","STREET":"立興街","SECT":" ","MAREA":" ","LANE":"５７巷","ALLEY":" ","HOUSE_NO":"７號","E_COORD97":174611.97,"N_COORD97":2544833.4199999999,"ADDRESS":"立興街５７巷７號","OBJECTID":286714},"geometry":{"x":174611.96999999974,"y":2544833.4199999999}},{"attributes":{"ID":286721,"DIS_CODE":0,"TOWNNAME":"永康區","LI":"烏竹里","LIN":"12鄰","STREET":"竹園二街","SECT":" ","MAREA":" ","LANE":"１６０巷","ALLEY":" ","HOUSE_NO":"１６號","E_COORD97":174539.03,"N_COORD97":2549218.5600000001,"ADDRESS":"竹園二街１６０巷１６號","OBJECTID":286715},"geometry":{"x":174539.03000000026,"y":2549218.5600000042}},{"attributes":{"ID":286722,"DIS_CODE":0,"TOWNNAME":"官田區","LI":"渡頭里","LIN":"2鄰","STREET":" ","SECT":" ","MAREA":"渡子頭","LANE":" ","ALLEY":" ","HOUSE_NO":"１７號","E_COORD97":181428.70000000001,"N_COORD97":2563072.4199999999,"ADDRESS":"渡子頭１７號","OBJECTID":286716},"geometry":{"x":181428.70000000019,"y":2563072.4200000018}},{"attributes":{"ID":286723,"DIS_CODE":0,"TOWNNAME":"官田區","LI":"渡頭里","LIN":"2鄰","STREET":" ","SECT":" ","MAREA":"渡子頭","LANE":" ","ALLEY":" ","HOUSE_NO":"１８號","E_COORD97":181460.81,"N_COORD97":2563067.0499999998,"ADDRESS":"渡子頭１８號","OBJECTID":286717},"geometry":{"x":181460.81000000052,"y":2563067.0500000007}},{"attributes":{"ID":286724,"DIS_CODE":0,"TOWNNAME":"官田區","LI":"渡頭里","LIN":"2鄰","STREET":" ","SECT":" ","MAREA":"渡子頭","LANE":" ","ALLEY":" ","HOUSE_NO":"１９號之１","E_COORD97":181446.07000000001,"N_COORD97":2563020.8599999999,"ADDRESS":"渡子頭１９號之１","OBJECTID":286718},"geometry":{"x":181446.07000000123,"y":2563020.8600000031}},{"attributes":{"ID":286725,"DIS_CODE":0,"TOWNNAME":"官田區","LI":"渡頭里","LIN":"2鄰","STREET":" ","SECT":" ","MAREA":"渡子頭","LANE":" ","ALLEY":" ","HOUSE_NO":"１９號之４","E_COORD97":181432.19,"N_COORD97":2563002.6699999999,"ADDRESS":"渡子頭１９號之４","OBJECTID":286719},"geometry":{"x":181432.19000000134,"y":2563002.6700000018}},{"attributes":{"ID":286726,"DIS_CODE":0,"TOWNNAME":"新營區","LI":"永生里","LIN":"2鄰","STREET":"中山路","SECT":" ","MAREA":" ","LANE":" ","ALLEY":" ","HOUSE_NO":"１６３號","E_COORD97":180040.47031,"N_COORD97":2578091.2061800002,"ADDRESS":"中山路１６３號","OBJECTID":286720},"geometry":{"x":180040.4703100007,"y":2578091.2061829995}},{"attributes":{"ID":286727,"DIS_CODE":0,"TOWNNAME":"南區","LI":"明興里","LIN":"12鄰","STREET":"金華路","SECT":"一段","MAREA":" ","LANE":"１００巷","ALLEY":" ","HOUSE_NO":"３３號","E_COORD97":167095.92999999999,"N_COORD97":2540475.5299999998,"ADDRESS":"金華路一段１００巷３３號","OBJECTID":286721},"geometry":{"x":167095.9299999997,"y":2540475.5299999993}},{"attributes":{"ID":286728,"DIS_CODE":0,"TOWNNAME":"南區","LI":"明興里","LIN":"12鄰","STREET":"金華路","SECT":"一段","MAREA":" ","LANE":"１００巷","ALLEY":" ","HOUSE_NO":"３４號","E_COORD97":167101.28,"N_COORD97":2540475.7799999998,"ADDRESS":"金華路一段１００巷３４號","OBJECTID":286722},"geometry":{"x":167101.28000000212,"y":2540475.7800000012}},{"attributes":{"ID":286729,"DIS_CODE":0,"TOWNNAME":"南區","LI":"明興里","LIN":"12鄰","STREET":"金華路","SECT":"一段","MAREA":" ","LANE":"１００巷","ALLEY":" ","HOUSE_NO":"３５號","E_COORD97":167105.66,"N_COORD97":2540476.1099999999,"ADDRESS":"金華路一段１００巷３５號","OBJECTID":286723},"geometry":{"x":167105.66000000108,"y":2540476.1099999994}},{"attributes":{"ID":286730,"DIS_CODE":0,"TOWNNAME":"南區","LI":"建南里","LIN":"12鄰","STREET":"中華南路","SECT":"二段","MAREA":" ","LANE":"１７７巷","ALLEY":" ","HOUSE_NO":"４號","E_COORD97":167043.41,"N_COORD97":2540209.4500000002,"ADDRESS":"中華南路二段１７７巷４號","OBJECTID":286724},"geometry":{"x":167043.41000000108,"y":2540209.4499999974}},{"attributes":{"ID":286731,"DIS_CODE":0,"TOWNNAME":"新化區","LI":"東榮里","LIN":"12鄰","STREET":"中興路","SECT":" ","MAREA":" ","LANE":"５５４巷","ALLEY":" ","HOUSE_NO":"１０號","E_COORD97":179920.56,"N_COORD97":2547966.25,"ADDRESS":"中興路５５４巷１０號","OBJECTID":286725},"geometry":{"x":179920.55999999959,"y":2547966.2500000019}},{"attributes":{"ID":286732,"DIS_CODE":0,"TOWNNAME":"新化區","LI":"武安里","LIN":"12鄰","STREET":"正新南路","SECT":" ","MAREA":" ","LANE":"１２３巷","ALLEY":" ","HOUSE_NO":"１號","E_COORD97":178862.47,"N_COORD97":2547945.25,"ADDRESS":"正新南路１２３巷１號","OBJECTID":286726},"geometry":{"x":178862.4700000016,"y":2547945.2500000037}},{"attributes":{"ID":286733,"DIS_CODE":0,"TOWNNAME":"安南區","LI":"大安里","LIN":"7鄰","STREET":"大安街","SECT":" ","MAREA":" ","LANE":"１５２巷","ALLEY":" ","HOUSE_NO":"６號","E_COORD97":167343.22,"N_COORD97":2548162.2799999998,"ADDRESS":"大安街１５２巷６號","OBJECTID":286727},"geometry":{"x":167343.21999999974,"y":2548162.2800000012}},{"attributes":{"ID":286734,"DIS_CODE":0,"TOWNNAME":"安南區","LI":"大安里","LIN":"7鄰","STREET":"大安街","SECT":" ","MAREA":" ","LANE":"１５２巷","ALLEY":" ","HOUSE_NO":"７號","E_COORD97":167359.95999999999,"N_COORD97":2548175.79,"ADDRESS":"大安街１５２巷７號","OBJECTID":286728},"geometry":{"x":167359.96000000089,"y":2548175.790000001}},{"attributes":{"ID":286735,"DIS_CODE":0,"TOWNNAME":"安南區","LI":"大安里","LIN":"7鄰","STREET":"大安街","SECT":" ","MAREA":" ","LANE":"１５２巷","ALLEY":" ","HOUSE_NO":"８號","E_COORD97":167347.82999999999,"N_COORD97":2548159.98,"ADDRESS":"大安街１５２巷８號","OBJECTID":286729},"geometry":{"x":167347.83000000007,"y":2548159.9800000004}},{"attributes":{"ID":286736,"DIS_CODE":0,"TOWNNAME":"安南區","LI":"大安里","LIN":"7鄰","STREET":"大安街","SECT":" ","MAREA":" ","LANE":"１５２巷","ALLEY":" ","HOUSE_NO":"９號","E_COORD97":167363.60000000001,"N_COORD97":2548173.2999999998,"ADDRESS":"大安街１５２巷９號","OBJECTID":286730},"geometry":{"x":167363.60000000056,"y":2548173.3000000026}},{"attributes":{"ID":286737,"DIS_CODE":0,"TOWNNAME":"新市區","LI":"港墘里","LIN":"12鄰","STREET":"中山路","SECT":" ","MAREA":" ","LANE":"１０６巷","ALLEY":" ","HOUSE_NO":"９號","E_COORD97":178351.63,"N_COORD97":2552781.5,"ADDRESS":"中山路１０６巷９號","OBJECTID":286731},"geometry":{"x":178351.63000000082,"y":2552781.5000000037}},{"attributes":{"ID":286738,"DIS_CODE":0,"TOWNNAME":"新市區","LI":"港墘里","LIN":"12鄰","STREET":"中山路","SECT":" ","MAREA":" ","LANE":"１０６巷","ALLEY":" ","HOUSE_NO":"２號","E_COORD97":178373.95000000001,"N_COORD97":2552800.25,"ADDRESS":"中山路１０６巷２號","OBJECTID":286732},"geometry":{"x":178373.95000000112,"y":2552800.2500000037}},{"attributes":{"ID":286739,"DIS_CODE":0,"TOWNNAME":"新市區","LI":"港墘里","LIN":"12鄰","STREET":"中山路","SECT":" ","MAREA":" ","LANE":"１０６巷","ALLEY":" ","HOUSE_NO":"１６號","E_COORD97":178320.56,"N_COORD97":2552793.25,"ADDRESS":"中山路１０６巷１６號","OBJECTID":286733},"geometry":{"x":178320.55999999959,"y":2552793.2499999981}},{"attributes":{"ID":286740,"DIS_CODE":0,"TOWNNAME":"新市區","LI":"港墘里","LIN":"12鄰","STREET":"中山路","SECT":" ","MAREA":" ","LANE":"１０６巷","ALLEY":" ","HOUSE_NO":"１４號","E_COORD97":178325.01000000001,"N_COORD97":2552793.5,"ADDRESS":"中山路１０６巷１４號","OBJECTID":286734},"geometry":{"x":178325.01000000071,"y":2552793.5}},{"attributes":{"ID":286741,"DIS_CODE":0,"TOWNNAME":"新市區","LI":"新市里","LIN":"12鄰","STREET":"中正路","SECT":" ","MAREA":" ","LANE":"３０１巷","ALLEY":" ","HOUSE_NO":"７號","E_COORD97":177578.82000000001,"N_COORD97":2553274.5,"ADDRESS":"中正路３０１巷７號","OBJECTID":286735},"geometry":{"x":177578.8200000003,"y":2553274.5000000019}},{"attributes":{"ID":286742,"DIS_CODE":0,"TOWNNAME":"中西區","LI":"小西里","LIN":"12鄰","STREET":"府前路","SECT":"一段","MAREA":" ","LANE":"３７１巷","ALLEY":" ","HOUSE_NO":"６號","E_COORD97":167863.17999999999,"N_COORD97":2543389.6299999999,"ADDRESS":"府前路一段３７１巷６號","OBJECTID":286736},"geometry":{"x":167863.18000000063,"y":2543389.6300000008}},{"attributes":{"ID":286743,"DIS_CODE":0,"TOWNNAME":"中西區","LI":"開山里","LIN":"12鄰","STREET":"大同路","SECT":"一段","MAREA":" ","LANE":"２２巷","ALLEY":" ","HOUSE_NO":"１１號","E_COORD97":169102.39999999999,"N_COORD97":2543178.6099999999,"ADDRESS":"大同路一段２２巷１１號","OBJECTID":286737},"geometry":{"x":169102.40000000037,"y":2543178.6100000031}},{"attributes":{"ID":286744,"DIS_CODE":0,"TOWNNAME":"中西區","LI":"開山里","LIN":"12鄰","STREET":"大同路","SECT":"一段","MAREA":" ","LANE":"２２巷","ALLEY":" ","HOUSE_NO":"１３號","E_COORD97":169098.76999999999,"N_COORD97":2543181.0899999999,"ADDRESS":"大同路一段２２巷１３號","OBJECTID":286738},"geometry":{"x":169098.76999999955,"y":2543181.0899999999}},{"attributes":{"ID":286745,"DIS_CODE":0,"TOWNNAME":"中西區","LI":"開山里","LIN":"12鄰","STREET":"大同路","SECT":"一段","MAREA":" ","LANE":"２２巷","ALLEY":" ","HOUSE_NO":"１５號","E_COORD97":169096.20000000001,"N_COORD97":2543183.8500000001,"ADDRESS":"大同路一段２２巷１５號","OBJECTID":286739},"geometry":{"x":169096.20000000019,"y":2543183.8499999978}},{"attributes":{"ID":286746,"DIS_CODE":0,"TOWNNAME":"官田區","LI":"隆田里","LIN":"2鄰","STREET":"新生街","SECT":" ","MAREA":" ","LANE":" ","ALLEY":" ","HOUSE_NO":"４７號","E_COORD97":180291.60000000001,"N_COORD97":2565550.6899999999,"ADDRESS":"新生街４７號","OBJECTID":286740},"geometry":{"x":180291.59999999963,"y":2565550.6899999995}},{"attributes":{"ID":286747,"DIS_CODE":0,"TOWNNAME":"官田區","LI":"隆田里","LIN":"2鄰","STREET":"新生街","SECT":" ","MAREA":" ","LANE":" ","ALLEY":" ","HOUSE_NO":"４８號","E_COORD97":180276.66,"N_COORD97":2565570.0299999998,"ADDRESS":"新生街４８號","OBJECTID":286741},"geometry":{"x":180276.66000000015,"y":2565570.0300000012}},{"attributes":{"ID":286748,"DIS_CODE":0,"TOWNNAME":"官田區","LI":"隆田里","LIN":"2鄰","STREET":"新生街","SECT":" ","MAREA":" ","LANE":" ","ALLEY":" ","HOUSE_NO":"５０號","E_COORD97":180277.45000000001,"N_COORD97":2565562.6800000002,"ADDRESS":"新生街５０號","OBJECTID":286742},"geometry":{"x":180277.45000000112,"y":2565562.6800000016}},{"attributes":{"ID":286749,"DIS_CODE":0,"TOWNNAME":"官田區","LI":"隆田里","LIN":"2鄰","STREET":"新生街","SECT":" ","MAREA":" ","LANE":" ","ALLEY":" ","HOUSE_NO":"６號","E_COORD97":180270.95000000001,"N_COORD97":2565740.4700000002,"ADDRESS":"新生街６號","OBJECTID":286743},"geometry":{"x":180270.95000000019,"y":2565740.4700000044}},{"attributes":{"ID":286750,"DIS_CODE":0,"TOWNNAME":"官田區","LI":"隆田里","LIN":"2鄰","STREET":"新生街","SECT":" ","MAREA":" ","LANE":" ","ALLEY":" ","HOUSE_NO":"９１號","E_COORD97":180206.70000000001,"N_COORD97":2565681.6200000001,"ADDRESS":"新生街９１號","OBJECTID":286744},"geometry":{"x":180206.70000000019,"y":2565681.620000001}},{"attributes":{"ID":286751,"DIS_CODE":0,"TOWNNAME":"官田區","LI":"隆田里","LIN":"2鄰","STREET":"裕民街","SECT":" ","MAREA":" ","LANE":" ","ALLEY":" ","HOUSE_NO":"１１號","E_COORD97":180225.39000000001,"N_COORD97":2565683.8999999999,"ADDRESS":"裕民街１１號","OBJECTID":286745},"geometry":{"x":180225.38999999966,"y":2565683.9000000022}},{"attributes":{"ID":286752,"DIS_CODE":0,"TOWNNAME":"安南區","LI":"青草里","LIN":"6鄰","STREET":"青砂街","SECT":"二段","MAREA":" ","LANE":" ","ALLEY":" ","HOUSE_NO":"４０８號","E_COORD97":158923.78,"N_COORD97":2553026.73,"ADDRESS":"青砂街二段４０８號","OBJECTID":286746},"geometry":{"x":158923.78000000212,"y":2553026.7300000004}},{"attributes":{"ID":286753,"DIS_CODE":0,"TOWNNAME":"官田區","LI":"隆田里","LIN":"2鄰","STREET":"新生街","SECT":" ","MAREA":" ","LANE":"４６巷","ALLEY":" ","HOUSE_NO":"１號","E_COORD97":180277.85000000001,"N_COORD97":2565584.4100000001,"ADDRESS":"新生街４６巷１號","OBJECTID":286747},"geometry":{"x":180277.84999999963,"y":2565584.4100000039}},{"attributes":{"ID":286754,"DIS_CODE":0,"TOWNNAME":"安南區","LI":"青草里","LIN":"6鄰","STREET":"青砂街","SECT":"二段","MAREA":" ","LANE":" ","ALLEY":" ","HOUSE_NO":"４１６號","E_COORD97":158913.44,"N_COORD97":2552996.5899999999,"ADDRESS":"青砂街二段４１６號","OBJECTID":286748},"geometry":{"x":158913.44000000134,"y":2552996.5899999999}},{"attributes":{"ID":286755,"DIS_CODE":0,"TOWNNAME":"安南區","LI":"淵中里","LIN":"4鄰","STREET":"安中路","SECT":"三段","MAREA":" ","LANE":" ","ALLEY":" ","HOUSE_NO":"４４１號","E_COORD97":165309.85000000001,"N_COORD97":2550078.7599999998,"ADDRESS":"安中路三段４４１號","OBJECTID":286749},"geometry":{"x":165309.84999999963,"y":2550078.7600000016}},{"attributes":{"ID":286756,"DIS_CODE":0,"TOWNNAME":"安南區","LI":"海東里","LIN":"12鄰","STREET":"海中街","SECT":" ","MAREA":" ","LANE":"５４巷","ALLEY":" ","HOUSE_NO":"２８號","E_COORD97":166558.82000000001,"N_COORD97":2548947.5800000001,"ADDRESS":"海中街５４巷２８號","OBJECTID":286750},"geometry":{"x":166558.82000000123,"y":2548947.5800000019}},{"attributes":{"ID":286757,"DIS_CODE":0,"TOWNNAME":"安南區","LI":"海東里","LIN":"12鄰","STREET":"海中街","SECT":" ","MAREA":" ","LANE":"５４巷","ALLEY":" ","HOUSE_NO":"３０號","E_COORD97":166564.20000000001,"N_COORD97":2548950.2999999998,"ADDRESS":"海中街５４巷３０號","OBJECTID":286751},"geometry":{"x":166564.20000000019,"y":2548950.3000000026}},{"attributes":{"ID":286758,"DIS_CODE":0,"TOWNNAME":"安南區","LI":"海東里","LIN":"12鄰","STREET":"海中街","SECT":" ","MAREA":" ","LANE":"５４巷","ALLEY":" ","HOUSE_NO":"３２號","E_COORD97":166569.42999999999,"N_COORD97":2548952.8100000001,"ADDRESS":"海中街５４巷３２號","OBJECTID":286752},"geometry":{"x":166569.43000000063,"y":2548952.8100000024}},{"attributes":{"ID":286759,"DIS_CODE":0,"TOWNNAME":"官田區","LI":"嘉南里","LIN":"2鄰","STREET":" ","SECT":" ","MAREA":"嘉南","LANE":" ","ALLEY":" ","HOUSE_NO":"１１號","E_COORD97":184686.20999999999,"N_COORD97":2568009.4100000001,"ADDRESS":"嘉南１１號","OBJECTID":286753},"geometry":{"x":184686.21000000089,"y":2568009.410000002}},{"attributes":{"ID":286760,"DIS_CODE":0,"TOWNNAME":"官田區","LI":"嘉南里","LIN":"2鄰","STREET":" ","SECT":" ","MAREA":"嘉南","LANE":" ","ALLEY":" ","HOUSE_NO":"１２號","E_COORD97":184708.92000000001,"N_COORD97":2568018.4100000001,"ADDRESS":"嘉南１２號","OBJECTID":286754},"geometry":{"x":184708.91999999993,"y":2568018.4100000001}},{"attributes":{"ID":286761,"DIS_CODE":0,"TOWNNAME":"官田區","LI":"嘉南里","LIN":"2鄰","STREET":" ","SECT":" ","MAREA":"嘉南","LANE":" ","ALLEY":" ","HOUSE_NO":"１３號","E_COORD97":184704.51000000001,"N_COORD97":2568033.8900000001,"ADDRESS":"嘉南１３號","OBJECTID":286755},"geometry":{"x":184704.51000000071,"y":2568033.8900000025}},{"attributes":{"ID":286762,"DIS_CODE":0,"TOWNNAME":"新市區","LI":"潭頂里","LIN":"2鄰","STREET":" ","SECT":" ","MAREA":"潭頂","LANE":" ","ALLEY":" ","HOUSE_NO":"１５７之３號","E_COORD97":180932,"N_COORD97":2553064.5499999998,"ADDRESS":"潭頂１５７之３號","OBJECTID":286756},"geometry":{"x":180932,"y":2553064.5500000026}},{"attributes":{"ID":286763,"DIS_CODE":0,"TOWNNAME":"新市區","LI":"潭頂里","LIN":"2鄰","STREET":" ","SECT":" ","MAREA":"潭頂","LANE":" ","ALLEY":" ","HOUSE_NO":"９０之７４號","E_COORD97":181682.70000000001,"N_COORD97":2553507.5499999998,"ADDRESS":"潭頂９０之７４號","OBJECTID":286757},"geometry":{"x":181682.70000000112,"y":2553507.5500000045}},{"attributes":{"ID":286764,"DIS_CODE":0,"TOWNNAME":"新市區","LI":"潭頂里","LIN":"2鄰","STREET":" ","SECT":" ","MAREA":"潭頂","LANE":" ","ALLEY":" ","HOUSE_NO":"１４６號","E_COORD97":181062.14999999999,"N_COORD97":2552954.75,"ADDRESS":"潭頂１４６號","OBJECTID":286758},"geometry":{"x":181062.15000000224,"y":2552954.75}},{"attributes":{"ID":286765,"DIS_CODE":0,"TOWNNAME":"新市區","LI":"潭頂里","LIN":"2鄰","STREET":" ","SECT":" ","MAREA":"潭頂","LANE":" ","ALLEY":" ","HOUSE_NO":"１３４之１２號","E_COORD97":181200.44,"N_COORD97":2553213.0499999998,"ADDRESS":"潭頂１３４之１２號","OBJECTID":286759},"geometry":{"x":181200.44000000041,"y":2553213.0500000026}},{"attributes":{"ID":286766,"DIS_CODE":0,"TOWNNAME":"安南區","LI":"海東里","LIN":"12鄰","STREET":"海中街","SECT":" ","MAREA":" ","LANE":"５４巷","ALLEY":" ","HOUSE_NO":"３４號","E_COORD97":166575.13,"N_COORD97":2548955.4199999999,"ADDRESS":"海中街５４巷３４號","OBJECTID":286760},"geometry":{"x":166575.13000000082,"y":2548955.4200000018}},{"attributes":{"ID":286767,"DIS_CODE":0,"TOWNNAME":"安南區","LI":"海東里","LIN":"12鄰","STREET":"海中街","SECT":" ","MAREA":" ","LANE":"５４巷","ALLEY":" ","HOUSE_NO":"３６號","E_COORD97":166580.20999999999,"N_COORD97":2548958.6099999999,"ADDRESS":"海中街５４巷３６號","OBJECTID":286761},"geometry":{"x":166580.21000000089,"y":2548958.6099999994}},{"attributes":{"ID":286768,"DIS_CODE":0,"TOWNNAME":"安南區","LI":"海東里","LIN":"12鄰","STREET":"海環街","SECT":" ","MAREA":" ","LANE":"３２巷","ALLEY":" ","HOUSE_NO":"３９號","E_COORD97":166591.19,"N_COORD97":2548946.3500000001,"ADDRESS":"海環街３２巷３９號","OBJECTID":286762},"geometry":{"x":166591.19000000041,"y":2548946.3499999996}},{"attributes":{"ID":286769,"DIS_CODE":0,"TOWNNAME":"安南區","LI":"海東里","LIN":"12鄰","STREET":"海環街","SECT":" ","MAREA":" ","LANE":"３２巷","ALLEY":" ","HOUSE_NO":"４５號","E_COORD97":166563.70000000001,"N_COORD97":2548966.7999999998,"ADDRESS":"海環街３２巷４５號","OBJECTID":286763},"geometry":{"x":166563.70000000019,"y":2548966.8000000026}},{"attributes":{"ID":286770,"DIS_CODE":0,"TOWNNAME":"安南區","LI":"海東里","LIN":"12鄰","STREET":"海環街","SECT":" ","MAREA":" ","LANE":"３２巷","ALLEY":" ","HOUSE_NO":"４７號","E_COORD97":166560.87,"N_COORD97":2548969.8199999998,"ADDRESS":"海環街３２巷４７號","OBJECTID":286764},"geometry":{"x":166560.87000000011,"y":2548969.8200000022}},{"attributes":{"ID":286771,"DIS_CODE":0,"TOWNNAME":"安南區","LI":"佃東里","LIN":"12鄰","STREET":"海佃路","SECT":"四段","MAREA":" ","LANE":"３８８巷","ALLEY":" ","HOUSE_NO":"１２８號","E_COORD97":165613.20000000001,"N_COORD97":2551843.98,"ADDRESS":"海佃路四段３８８巷１２８號","OBJECTID":286765},"geometry":{"x":165613.20000000019,"y":2551843.9800000023}},{"attributes":{"ID":286772,"DIS_CODE":0,"TOWNNAME":"安南區","LI":"佃東里","LIN":"12鄰","STREET":"海佃路","SECT":"四段","MAREA":" ","LANE":"３８８巷","ALLEY":" ","HOUSE_NO":"１３０號","E_COORD97":165613.20000000001,"N_COORD97":2551848.5,"ADDRESS":"海佃路四段３８８巷１３０號","OBJECTID":286766},"geometry":{"x":165613.20000000019,"y":2551848.5}},{"attributes":{"ID":286773,"DIS_CODE":0,"TOWNNAME":"安南區","LI":"佃東里","LIN":"12鄰","STREET":"海佃路","SECT":"四段","MAREA":" ","LANE":"３８８巷","ALLEY":" ","HOUSE_NO":"１３２號","E_COORD97":165613.51999999999,"N_COORD97":2551852.7000000002,"ADDRESS":"海佃路四段３８８巷１３２號","OBJECTID":286767},"geometry":{"x":165613.51999999955,"y":2551852.6999999993}},{"attributes":{"ID":286774,"DIS_CODE":0,"TOWNNAME":"安南區","LI":"佃東里","LIN":"12鄰","STREET":"海佃路","SECT":"四段","MAREA":" ","LANE":"３８８巷","ALLEY":" ","HOUSE_NO":"１３６號","E_COORD97":165610.31,"N_COORD97":2551871.2999999998,"ADDRESS":"海佃路四段３８８巷１３６號","OBJECTID":286768},"geometry":{"x":165610.31000000145,"y":2551871.3000000007}},{"attributes":{"ID":286775,"DIS_CODE":0,"TOWNNAME":"安南區","LI":"佃東里","LIN":"12鄰","STREET":"海佃路","SECT":"四段","MAREA":" ","LANE":"３８８巷","ALLEY":" ","HOUSE_NO":"６４號","E_COORD97":165610.29999999999,"N_COORD97":2551670.6099999999,"ADDRESS":"海佃路四段３８８巷６４號","OBJECTID":286769},"geometry":{"x":165610.29999999981,"y":2551670.6099999994}},{"attributes":{"ID":286776,"DIS_CODE":0,"TOWNNAME":"安南區","LI":"佃東里","LIN":"12鄰","STREET":"海佃路","SECT":"四段","MAREA":" ","LANE":"３８８巷","ALLEY":" ","HOUSE_NO":"６８號","E_COORD97":165610.95000000001,"N_COORD97":2551680.6200000001,"ADDRESS":"海佃路四段３８８巷６８號","OBJECTID":286770},"geometry":{"x":165610.95000000019,"y":2551680.6200000029}},{"attributes":{"ID":286777,"DIS_CODE":0,"TOWNNAME":"安南區","LI":"佃東里","LIN":"12鄰","STREET":"海佃路","SECT":"四段","MAREA":" ","LANE":"３８８巷","ALLEY":" ","HOUSE_NO":"８８號","E_COORD97":165639.39999999999,"N_COORD97":2551718.0800000001,"ADDRESS":"海佃路四段３８８巷８８號","OBJECTID":286771},"geometry":{"x":165639.40000000224,"y":2551718.0800000019}},{"attributes":{"ID":286778,"DIS_CODE":0,"TOWNNAME":"安南區","LI":"佃東里","LIN":"12鄰","STREET":"海佃路","SECT":"四段","MAREA":" ","LANE":"３８８巷","ALLEY":" ","HOUSE_NO":"９２號","E_COORD97":165618.06,"N_COORD97":2551734.8700000001,"ADDRESS":"海佃路四段３８８巷９２號","OBJECTID":286772},"geometry":{"x":165618.05999999959,"y":2551734.870000001}},{"attributes":{"ID":286779,"DIS_CODE":0,"TOWNNAME":"安南區","LI":"佃西里","LIN":"12鄰","STREET":"公學路","SECT":"五段","MAREA":" ","LANE":"１７６巷","ALLEY":" ","HOUSE_NO":"５２號","E_COORD97":164886.04000000001,"N_COORD97":2552132.77,"ADDRESS":"公學路五段１７６巷５２號","OBJECTID":286773},"geometry":{"x":164886.04000000097,"y":2552132.7700000014}},{"attributes":{"ID":286780,"DIS_CODE":0,"TOWNNAME":"安南區","LI":"\u25A0南里","LIN":"12鄰","STREET":"安昌街","SECT":" ","MAREA":" ","LANE":"２２２巷","ALLEY":" ","HOUSE_NO":"６５號","E_COORD97":170227.03,"N_COORD97":2552627.0099999998,"ADDRESS":"安昌街２２２巷６５號","OBJECTID":286774},"geometry":{"x":170227.03000000026,"y":2552627.0100000016}},{"attributes":{"ID":286781,"DIS_CODE":0,"TOWNNAME":"安南區","LI":"\u25A0南里","LIN":"12鄰","STREET":"安昌街","SECT":" ","MAREA":" ","LANE":"２２２巷","ALLEY":" ","HOUSE_NO":"７３號","E_COORD97":170229.78,"N_COORD97":2552640.4500000002,"ADDRESS":"安昌街２２２巷７３號","OBJECTID":286775},"geometry":{"x":170229.78000000119,"y":2552640.4499999993}},{"attributes":{"ID":286782,"DIS_CODE":0,"TOWNNAME":"佳里區","LI":"安西里","LIN":"56鄰","STREET":"佳安北街","SECT":" ","MAREA":" ","LANE":" ","ALLEY":" ","HOUSE_NO":"３７號","E_COORD97":163982.59,"N_COORD97":2562412.1899999999,"ADDRESS":"佳安北街３７號","OBJECTID":286776},"geometry":{"x":163982.58999999985,"y":2562412.1900000013}},{"attributes":{"ID":286783,"DIS_CODE":0,"TOWNNAME":"佳里區","LI":"安西里","LIN":"56鄰","STREET":"佳安北街","SECT":" ","MAREA":" ","LANE":" ","ALLEY":" ","HOUSE_NO":"３９號","E_COORD97":163983.26000000001,"N_COORD97":2562408,"ADDRESS":"佳安北街３９號","OBJECTID":286777},"geometry":{"x":163983.25999999978,"y":2562408.0000000019}},{"attributes":{"ID":286784,"DIS_CODE":0,"TOWNNAME":"佳里區","LI":"安西里","LIN":"56鄰","STREET":"佳安北街","SECT":" ","MAREA":" ","LANE":" ","ALLEY":" ","HOUSE_NO":"３號","E_COORD97":164003.53,"N_COORD97":2562386.6299999999,"ADDRESS":"佳安北街３號","OBJECTID":286778},"geometry":{"x":164003.53000000026,"y":2562386.629999999}},{"attributes":{"ID":286785,"DIS_CODE":0,"TOWNNAME":"佳里區","LI":"安西里","LIN":"56鄰","STREET":"佳安北街","SECT":" ","MAREA":" ","LANE":" ","ALLEY":" ","HOUSE_NO":"４１號","E_COORD97":163983.20999999999,"N_COORD97":2562402.7799999998,"ADDRESS":"佳安北街４１號","OBJECTID":286779},"geometry":{"x":163983.20999999996,"y":2562402.7799999993}},{"attributes":{"ID":286786,"DIS_CODE":0,"TOWNNAME":"佳里區","LI":"安西里","LIN":"56鄰","STREET":"佳安北街","SECT":" ","MAREA":" ","LANE":" ","ALLEY":" ","HOUSE_NO":"４３號","E_COORD97":163983.95000000001,"N_COORD97":2562398.4199999999,"ADDRESS":"佳安北街４３號","OBJECTID":286780},"geometry":{"x":163983.95000000019,"y":2562398.4200000018}},{"attributes":{"ID":286787,"DIS_CODE":0,"TOWNNAME":"新市區","LI":"潭頂里","LIN":"2鄰","STREET":" ","SECT":" ","MAREA":"潭頂","LANE":" ","ALLEY":" ","HOUSE_NO":"１５５之３號","E_COORD97":180979.53,"N_COORD97":2553055.0499999998,"ADDRESS":"潭頂１５５之３號","OBJECTID":286781},"geometry":{"x":180979.53000000026,"y":2553055.0500000007}},{"attributes":{"ID":286788,"DIS_CODE":0,"TOWNNAME":"安南區","LI":"\u25A0南里","LIN":"12鄰","STREET":"安昌街","SECT":" ","MAREA":" ","LANE":"２７５巷","ALLEY":" ","HOUSE_NO":"２５號","E_COORD97":170067.64000000001,"N_COORD97":2552672.3399999999,"ADDRESS":"安昌街２７５巷２５號","OBJECTID":286782},"geometry":{"x":170067.63999999966,"y":2552672.3399999999}},{"attributes":{"ID":286789,"DIS_CODE":0,"TOWNNAME":"新市區","LI":"豐華里","LIN":"2鄰","STREET":" ","SECT":" ","MAREA":"豐華","LANE":" ","ALLEY":" ","HOUSE_NO":"９號","E_COORD97":173829.48000000001,"N_COORD97":2554028.5,"ADDRESS":"豐華９號","OBJECTID":286783},"geometry":{"x":173829.48000000045,"y":2554028.5}},{"attributes":{"ID":286790,"DIS_CODE":0,"TOWNNAME":"安南區","LI":"\u25A0南里","LIN":"12鄰","STREET":"安昌街","SECT":" ","MAREA":" ","LANE":"２７５巷","ALLEY":" ","HOUSE_NO":"２７號","E_COORD97":170062.06,"N_COORD97":2552672.3399999999,"ADDRESS":"安昌街２７５巷２７號","OBJECTID":286784},"geometry":{"x":170062.06000000052,"y":2552672.3399999999}},{"attributes":{"ID":286791,"DIS_CODE":0,"TOWNNAME":"安南區","LI":"\u25A0南里","LIN":"12鄰","STREET":"安昌街","SECT":" ","MAREA":" ","LANE":"２７５巷","ALLEY":" ","HOUSE_NO":"３３號","E_COORD97":170049.64000000001,"N_COORD97":2552664.0699999998,"ADDRESS":"安昌街２７５巷３３號","OBJECTID":286785},"geometry":{"x":170049.64000000153,"y":2552664.0700000022}},{"attributes":{"ID":286792,"DIS_CODE":0,"TOWNNAME":"南區","LI":"國宅里","LIN":"12鄰","STREET":"金華路","SECT":"二段","MAREA":" ","LANE":"２７巷","ALLEY":" ","HOUSE_NO":"６４號","E_COORD97":166836.10999999999,"N_COORD97":2541961.7000000002,"ADDRESS":"金華路二段２７巷６４號","OBJECTID":286786},"geometry":{"x":166836.11000000034,"y":2541961.7000000011}},{"attributes":{"ID":286793,"DIS_CODE":0,"TOWNNAME":"新市區","LI":"潭頂里","LIN":"2鄰","STREET":" ","SECT":" ","MAREA":"潭頂","LANE":" ","ALLEY":" ","HOUSE_NO":"１２７之１號","E_COORD97":181383.89000000001,"N_COORD97":2553191.7999999998,"ADDRESS":"潭頂１２７之１號","OBJECTID":286787},"geometry":{"x":181383.8900000006,"y":2553191.8000000026}},{"attributes":{"ID":286794,"DIS_CODE":0,"TOWNNAME":"佳里區","LI":"安西里","LIN":"56鄰","STREET":"佳安北街","SECT":" ","MAREA":" ","LANE":" ","ALLEY":" ","HOUSE_NO":"４５號","E_COORD97":163984.32000000001,"N_COORD97":2562394.6499999999,"ADDRESS":"佳安北街４５號","OBJECTID":286788},"geometry":{"x":163984.32000000123,"y":2562394.6500000004}},{"attributes":{"ID":286795,"DIS_CODE":0,"TOWNNAME":"佳里區","LI":"安西里","LIN":"56鄰","STREET":"佳安北街","SECT":" ","MAREA":" ","LANE":" ","ALLEY":" ","HOUSE_NO":"４７號","E_COORD97":163984.48000000001,"N_COORD97":2562389.6400000001,"ADDRESS":"佳安北街４７號","OBJECTID":286789},"geometry":{"x":163984.48000000231,"y":2562389.6400000043}},{"attributes":{"ID":286796,"DIS_CODE":0,"TOWNNAME":"佳里區","LI":"安西里","LIN":"56鄰","STREET":"佳安北街","SECT":" ","MAREA":" ","LANE":" ","ALLEY":" ","HOUSE_NO":"４９號","E_COORD97":163984.63,"N_COORD97":2562385.6699999999,"ADDRESS":"佳安北街４９號","OBJECTID":286790},"geometry":{"x":163984.63000000175,"y":2562385.6700000018}},{"attributes":{"ID":286797,"DIS_CODE":0,"TOWNNAME":"新市區","LI":"社內里","LIN":"2鄰","STREET":" ","SECT":" ","MAREA":"社內","LANE":" ","ALLEY":" ","HOUSE_NO":"１８號","E_COORD97":176931.42999999999,"N_COORD97":2552915.1299999999,"ADDRESS":"社內１８號","OBJECTID":286791},"geometry":{"x":176931.4299999997,"y":2552915.1300000027}},{"attributes":{"ID":286798,"DIS_CODE":0,"TOWNNAME":"新市區","LI":"潭頂里","LIN":"2鄰","STREET":" ","SECT":" ","MAREA":"潭頂","LANE":" ","ALLEY":" ","HOUSE_NO":"４３之１號","E_COORD97":181147.07999999999,"N_COORD97":2552907.3199999998,"ADDRESS":"潭頂４３之１號","OBJECTID":286792},"geometry":{"x":181147.08000000194,"y":2552907.3200000003}},{"attributes":{"ID":286799,"DIS_CODE":0,"TOWNNAME":"新市區","LI":"三舍里","LIN":"2鄰","STREET":" ","SECT":" ","MAREA":"三舍","LANE":" ","ALLEY":" ","HOUSE_NO":"４５之１號","E_COORD97":178014.29999999999,"N_COORD97":2554321.6400000001,"ADDRESS":"三舍４５之１號","OBJECTID":286793},"geometry":{"x":178014.30000000168,"y":2554321.6400000025}},{"attributes":{"ID":286800,"DIS_CODE":0,"TOWNNAME":"南區","LI":"國宅里","LIN":"12鄰","STREET":"金華路","SECT":"二段","MAREA":" ","LANE":"２７巷","ALLEY":" ","HOUSE_NO":"６５號","E_COORD97":166830.07000000001,"N_COORD97":2541947.21,"ADDRESS":"金華路二段２７巷６５號","OBJECTID":286794},"geometry":{"x":166830.07000000123,"y":2541947.2100000009}},{"attributes":{"ID":286801,"DIS_CODE":0,"TOWNNAME":"南區","LI":"國宅里","LIN":"12鄰","STREET":"金華路","SECT":"二段","MAREA":" ","LANE":"２７巷","ALLEY":" ","HOUSE_NO":"６６號","E_COORD97":166831.26000000001,"N_COORD97":2541962.1800000002,"ADDRESS":"金華路二段２７巷６６號","OBJECTID":286795},"geometry":{"x":166831.25999999978,"y":2541962.1800000016}},{"attributes":{"ID":286802,"DIS_CODE":0,"TOWNNAME":"新市區","LI":"三舍里","LIN":"2鄰","STREET":" ","SECT":" ","MAREA":"三舍","LANE":" ","ALLEY":" ","HOUSE_NO":"４５之２號","E_COORD97":178018.67999999999,"N_COORD97":2554326.6099999999,"ADDRESS":"三舍４５之２號","OBJECTID":286796},"geometry":{"x":178018.68000000063,"y":2554326.6100000013}},{"attributes":{"ID":286803,"DIS_CODE":0,"TOWNNAME":"新市區","LI":"三舍里","LIN":"2鄰","STREET":" ","SECT":" ","MAREA":"三舍","LANE":" ","ALLEY":" ","HOUSE_NO":"４５之３號","E_COORD97":178021.95999999999,"N_COORD97":2554330.4300000002,"ADDRESS":"三舍４５之３號","OBJECTID":286797},"geometry":{"x":178021.96000000183,"y":2554330.4299999997}},{"attributes":{"ID":286804,"DIS_CODE":0,"TOWNNAME":"新市區","LI":"三舍里","LIN":"2鄰","STREET":" ","SECT":" ","MAREA":"三舍","LANE":" ","ALLEY":" ","HOUSE_NO":"４５之５號","E_COORD97":178029.81,"N_COORD97":2554334.3500000001,"ADDRESS":"三舍４５之５號","OBJECTID":286798},"geometry":{"x":178029.81000000052,"y":2554334.3499999996}},{"attributes":{"ID":286805,"DIS_CODE":0,"TOWNNAME":"新市區","LI":"大洲里","LIN":"2鄰","STREET":" ","SECT":" ","MAREA":"大洲","LANE":" ","ALLEY":" ","HOUSE_NO":"８之７號","E_COORD97":174592.54000000001,"N_COORD97":2552532.3700000001,"ADDRESS":"大洲８之７號","OBJECTID":286799},"geometry":{"x":174592.54000000097,"y":2552532.370000001}},{"attributes":{"ID":286806,"DIS_CODE":0,"TOWNNAME":"新市區","LI":"潭頂里","LIN":"2鄰","STREET":" ","SECT":" ","MAREA":"潭頂","LANE":" ","ALLEY":" ","HOUSE_NO":"１００之７號","E_COORD97":181904.42999999999,"N_COORD97":2553548.1000000001,"ADDRESS":"潭頂１００之７號","OBJECTID":286800},"geometry":{"x":181904.43000000063,"y":2553548.1000000015}}]}