{"displayFieldName":"TOWNNAME","fieldAliases":{"ID":"ID","DIS_CODE":"DIS_CODE","TOWNNAME":"TOWNNAME","LI":"LI","LIN":"LIN","STREET":"STREET","SECT":"SECT","MAREA":"MAREA","LANE":"LANE","ALLEY":"ALLEY","HOUSE_NO":"HOUSE_NO","E_COORD97":"E_COORD97","N_COORD97":"N_COORD97","ADDRESS":"ADDRESS","OBJECTID":"OBJECTID"},"geometryType":"esriGeometryPoint","spatialReference":{"wkid":102443,"latestWkid":3826},"fields":[{"name":"ID","type":"esriFieldTypeDouble","alias":"ID"},{"name":"DIS_CODE","type":"esriFieldTypeInteger","alias":"DIS_CODE"},{"name":"TOWNNAME","type":"esriFieldTypeString","alias":"TOWNNAME","length":8},{"name":"LI","type":"esriFieldTypeString","alias":"LI","length":8},{"name":"LIN","type":"esriFieldTypeString","alias":"LIN","length":12},{"name":"STREET","type":"esriFieldTypeString","alias":"STREET","length":20},{"name":"SECT","type":"esriFieldTypeString","alias":"SECT","length":8},{"name":"MAREA","type":"esriFieldTypeString","alias":"MAREA","length":12},{"name":"LANE","type":"esriFieldTypeString","alias":"LANE","length":10},{"name":"ALLEY","type":"esriFieldTypeString","alias":"ALLEY","length":10},{"name":"HOUSE_NO","type":"esriFieldTypeString","alias":"HOUSE_NO","length":20},{"name":"E_COORD97","type":"esriFieldTypeDouble","alias":"E_COORD97"},{"name":"N_COORD97","type":"esriFieldTypeDouble","alias":"N_COORD97"},{"name":"ADDRESS","type":"esriFieldTypeString","alias":"ADDRESS","length":50},{"name":"OBJECTID","type":"esriFieldTypeOID","alias":"OBJECTID"}],"features":[{"attributes":{"ID":318209,"DIS_CODE":0,"TOWNNAME":"永康區","LI":"中華里","LIN":"15鄰","STREET":"小東路","SECT":" ","MAREA":" ","LANE":"５９１巷","ALLEY":" ","HOUSE_NO":"３３號","E_COORD97":171825.35000000001,"N_COORD97":2544483.5299999998,"ADDRESS":"小東路５９１巷３３號","OBJECTID":318201},"geometry":{"x":171825.35000000056,"y":2544483.5299999993}},{"attributes":{"ID":318210,"DIS_CODE":0,"TOWNNAME":"永康區","LI":"中華里","LIN":"15鄰","STREET":"忠義街","SECT":" ","MAREA":" ","LANE":"６０巷","ALLEY":" ","HOUSE_NO":"１號","E_COORD97":171780.48999999999,"N_COORD97":2544541.0899999999,"ADDRESS":"忠義街６０巷１號","OBJECTID":318202},"geometry":{"x":171780.49000000115,"y":2544541.0899999999}},{"attributes":{"ID":318211,"DIS_CODE":0,"TOWNNAME":"永康區","LI":"中華里","LIN":"15鄰","STREET":"忠義街","SECT":" ","MAREA":" ","LANE":"４４巷","ALLEY":" ","HOUSE_NO":"１３號","E_COORD97":171769.45000000001,"N_COORD97":2544481.79,"ADDRESS":"忠義街４４巷１３號","OBJECTID":318203},"geometry":{"x":171769.45000000112,"y":2544481.7899999991}},{"attributes":{"ID":318212,"DIS_CODE":0,"TOWNNAME":"東區","LI":"大同里","LIN":"17鄰","STREET":"府連路","SECT":" ","MAREA":" ","LANE":" ","ALLEY":" ","HOUSE_NO":"１９０號五樓之２","E_COORD97":169268.48999999999,"N_COORD97":2542827.48,"ADDRESS":"府連路１９０號五樓之２","OBJECTID":318204},"geometry":{"x":169268.49000000115,"y":2542827.4800000004}},{"attributes":{"ID":318213,"DIS_CODE":0,"TOWNNAME":"東區","LI":"大同里","LIN":"17鄰","STREET":"府連路","SECT":" ","MAREA":" ","LANE":" ","ALLEY":" ","HOUSE_NO":"１９０號五樓之３","E_COORD97":169268.48999999999,"N_COORD97":2542827.48,"ADDRESS":"府連路１９０號五樓之３","OBJECTID":318205},"geometry":{"x":169268.49000000115,"y":2542827.4800000004}},{"attributes":{"ID":318214,"DIS_CODE":0,"TOWNNAME":"東區","LI":"後甲里","LIN":"34鄰","STREET":" ","SECT":" ","MAREA":"精忠三村","LANE":" ","ALLEY":" ","HOUSE_NO":"１１５號","E_COORD97":171745.940286,"N_COORD97":2543553.7442399999,"ADDRESS":"精忠三村１１５號","OBJECTID":318206},"geometry":{"x":171745.94028600119,"y":2543553.7442419995}},{"attributes":{"ID":318215,"DIS_CODE":0,"TOWNNAME":"新營區","LI":"五興里","LIN":"4鄰","STREET":" ","SECT":" ","MAREA":"五間厝","LANE":" ","ALLEY":" ","HOUSE_NO":"４９號之５","E_COORD97":175761.28,"N_COORD97":2574824.7400000002,"ADDRESS":"五間厝４９之５號","OBJECTID":318207},"geometry":{"x":175761.28000000026,"y":2574824.7400000021}},{"attributes":{"ID":318216,"DIS_CODE":0,"TOWNNAME":"新營區","LI":"姑爺里","LIN":"9鄰","STREET":" ","SECT":" ","MAREA":"挖仔","LANE":" ","ALLEY":" ","HOUSE_NO":"２７號之１","E_COORD97":173849.14000000001,"N_COORD97":2575439.1000000001,"ADDRESS":"挖仔２７之１號","OBJECTID":318208},"geometry":{"x":173849.1400000006,"y":2575439.1000000015}},{"attributes":{"ID":318217,"DIS_CODE":0,"TOWNNAME":"新營區","LI":"王公里","LIN":"24鄰","STREET":"中正路","SECT":" ","MAREA":" ","LANE":" ","ALLEY":" ","HOUSE_NO":"１１０號之４","E_COORD97":180107.79999999999,"N_COORD97":2579412.8300000001,"ADDRESS":"中正路１１０號之４","OBJECTID":318209},"geometry":{"x":180107.79999999888,"y":2579412.8300000001}},{"attributes":{"ID":318218,"DIS_CODE":0,"TOWNNAME":"新營區","LI":"太南里","LIN":"18鄰","STREET":" ","SECT":" ","MAREA":"太子宮","LANE":" ","ALLEY":" ","HOUSE_NO":"３１１之１號","E_COORD97":176049.79999999999,"N_COORD97":2576624.02,"ADDRESS":"太子宮３１１之１號","OBJECTID":318210},"geometry":{"x":176049.80000000075,"y":2576624.0199999996}},{"attributes":{"ID":318219,"DIS_CODE":0,"TOWNNAME":"新營區","LI":"鐵線里","LIN":" ","STREET":" ","SECT":" ","MAREA":"鐵線橋","LANE":" ","ALLEY":" ","HOUSE_NO":"６之１２號","E_COORD97":176035.26000000001,"N_COORD97":2573973.9500000002,"ADDRESS":"鐵線橋６之１２號","OBJECTID":318211},"geometry":{"x":176035.26000000071,"y":2573973.9499999993}},{"attributes":{"ID":318220,"DIS_CODE":0,"TOWNNAME":"新營區","LI":"舊部里","LIN":" ","STREET":" ","SECT":" ","MAREA":"舊部","LANE":" ","ALLEY":" ","HOUSE_NO":"３３之２號","E_COORD97":177157.29000000001,"N_COORD97":2575335,"ADDRESS":"舊部３３之２號","OBJECTID":318212},"geometry":{"x":177157.29000000097,"y":2575335.0000000019}},{"attributes":{"ID":318221,"DIS_CODE":0,"TOWNNAME":"新營區","LI":"大宏里","LIN":"8鄰","STREET":"民族路","SECT":" ","MAREA":" ","LANE":" ","ALLEY":" ","HOUSE_NO":"４號之１","E_COORD97":180309.14000000001,"N_COORD97":2578375.29,"ADDRESS":"民族路４號之１","OBJECTID":318213},"geometry":{"x":180309.1400000006,"y":2578375.2899999991}},{"attributes":{"ID":318222,"DIS_CODE":0,"TOWNNAME":"新營區","LI":"民權里","LIN":"13鄰","STREET":"信義街","SECT":" ","MAREA":" ","LANE":"５９巷","ALLEY":" ","HOUSE_NO":"７號","E_COORD97":179876.01999999999,"N_COORD97":2578387.2400000002,"ADDRESS":"信義街５９巷７號","OBJECTID":318214},"geometry":{"x":179876.02000000048,"y":2578387.2400000002}},{"attributes":{"ID":318223,"DIS_CODE":0,"TOWNNAME":"新營區","LI":"大宏里","LIN":" ","STREET":"三民路","SECT":" ","MAREA":" ","LANE":"８巷","ALLEY":" ","HOUSE_NO":"２之２號","E_COORD97":180624.04999999999,"N_COORD97":2578567.6200000001,"ADDRESS":"三民路８巷２之２號","OBJECTID":318215},"geometry":{"x":180624.05000000075,"y":2578567.620000001}},{"attributes":{"ID":318224,"DIS_CODE":0,"TOWNNAME":"永康區","LI":"中華里","LIN":"15鄰","STREET":"忠義街","SECT":" ","MAREA":" ","LANE":"６０巷","ALLEY":" ","HOUSE_NO":"２８號","E_COORD97":171798.79000000001,"N_COORD97":2544512.1600000001,"ADDRESS":"忠義街６０巷２８號","OBJECTID":318216},"geometry":{"x":171798.79000000097,"y":2544512.160000002}},{"attributes":{"ID":318225,"DIS_CODE":0,"TOWNNAME":"中西區","LI":"西湖里","LIN":"15鄰","STREET":"湖美一街","SECT":" ","MAREA":" ","LANE":"１０２巷","ALLEY":" ","HOUSE_NO":"４號","E_COORD97":166074.48999999999,"N_COORD97":2544805.9199999999,"ADDRESS":"湖美一街１０２巷４號","OBJECTID":318217},"geometry":{"x":166074.49000000115,"y":2544805.9200000018}},{"attributes":{"ID":318226,"DIS_CODE":0,"TOWNNAME":"東區","LI":"大同里","LIN":"17鄰","STREET":"府連路","SECT":" ","MAREA":" ","LANE":" ","ALLEY":" ","HOUSE_NO":"１９０號五樓之４","E_COORD97":169268.48999999999,"N_COORD97":2542827.48,"ADDRESS":"府連路１９０號五樓之４","OBJECTID":318218},"geometry":{"x":169268.49000000115,"y":2542827.4800000004}},{"attributes":{"ID":318227,"DIS_CODE":0,"TOWNNAME":"東區","LI":"大同里","LIN":"17鄰","STREET":"府連路","SECT":" ","MAREA":" ","LANE":" ","ALLEY":" ","HOUSE_NO":"１９０號五樓之５","E_COORD97":169268.48999999999,"N_COORD97":2542827.48,"ADDRESS":"府連路１９０號五樓之５","OBJECTID":318219},"geometry":{"x":169268.49000000115,"y":2542827.4800000004}},{"attributes":{"ID":318228,"DIS_CODE":0,"TOWNNAME":"永康區","LI":"中華里","LIN":"15鄰","STREET":"忠義街","SECT":" ","MAREA":" ","LANE":"４４巷","ALLEY":" ","HOUSE_NO":"２１號","E_COORD97":171786.19,"N_COORD97":2544482.25,"ADDRESS":"忠義街４４巷２１號","OBJECTID":318220},"geometry":{"x":171786.19000000134,"y":2544482.25}},{"attributes":{"ID":318229,"DIS_CODE":0,"TOWNNAME":"歸仁區","LI":"沙崙里","LIN":"9鄰","STREET":" ","SECT":" ","MAREA":"五條寮","LANE":" ","ALLEY":" ","HOUSE_NO":"２００號","E_COORD97":180303.21769699999,"N_COORD97":2535473.3857499999,"ADDRESS":"五條寮２００號","OBJECTID":318221},"geometry":{"x":180303.21769700106,"y":2535473.3857460022}},{"attributes":{"ID":318230,"DIS_CODE":0,"TOWNNAME":"新營區","LI":"王公里","LIN":"24鄰","STREET":"中正路","SECT":" ","MAREA":" ","LANE":" ","ALLEY":" ","HOUSE_NO":"１１０號之１０","E_COORD97":180108.14999999999,"N_COORD97":2579439.4100000001,"ADDRESS":"中正路１１０號之１０","OBJECTID":318222},"geometry":{"x":180108.1500000013,"y":2579439.4100000001}},{"attributes":{"ID":318231,"DIS_CODE":0,"TOWNNAME":"新營區","LI":"五興里","LIN":"3鄰","STREET":" ","SECT":" ","MAREA":"五間厝","LANE":" ","ALLEY":" ","HOUSE_NO":"３１號之４","E_COORD97":175728.54000000001,"N_COORD97":2575027.5600000001,"ADDRESS":"五間厝３１之４號","OBJECTID":318223},"geometry":{"x":175728.54000000097,"y":2575027.5600000024}},{"attributes":{"ID":318232,"DIS_CODE":0,"TOWNNAME":"新化區","LI":"知義里","LIN":" ","STREET":" ","SECT":" ","MAREA":"新和庄","LANE":" ","ALLEY":" ","HOUSE_NO":"１８３號","E_COORD97":181667.39000000001,"N_COORD97":2547143.25,"ADDRESS":"新和庄１８３號","OBJECTID":318224},"geometry":{"x":181667.3900000006,"y":2547143.2500000019}},{"attributes":{"ID":318233,"DIS_CODE":0,"TOWNNAME":"新營區","LI":"王公里","LIN":"12鄰","STREET":"義和街","SECT":" ","MAREA":" ","LANE":" ","ALLEY":" ","HOUSE_NO":"３號之５","E_COORD97":180568.88,"N_COORD97":2579013.0699999998,"ADDRESS":"義和街３號之５","OBJECTID":318225},"geometry":{"x":180568.88000000082,"y":2579013.0700000022}},{"attributes":{"ID":318234,"DIS_CODE":0,"TOWNNAME":"新化區","LI":"\u25A0拔里","LIN":"4鄰","STREET":" ","SECT":" ","MAREA":"\u25A0拔林","LANE":" ","ALLEY":" ","HOUSE_NO":"２２２號之３","E_COORD97":183712.87,"N_COORD97":2551966.2599999998,"ADDRESS":"\u25A0拔林２２２號之３","OBJECTID":318226},"geometry":{"x":183712.87000000011,"y":2551966.2600000016}},{"attributes":{"ID":318235,"DIS_CODE":0,"TOWNNAME":"中西區","LI":"西湖里","LIN":"15鄰","STREET":"湖美一街","SECT":" ","MAREA":" ","LANE":"１０２巷","ALLEY":" ","HOUSE_NO":"１０號","E_COORD97":166087.39000000001,"N_COORD97":2544807.1400000001,"ADDRESS":"湖美一街１０２巷１０號","OBJECTID":318227},"geometry":{"x":166087.38999999966,"y":2544807.1400000043}},{"attributes":{"ID":318236,"DIS_CODE":0,"TOWNNAME":"新化區","LI":"知義里","LIN":"4鄰","STREET":" ","SECT":" ","MAREA":"知母義","LANE":" ","ALLEY":" ","HOUSE_NO":"１０４號","E_COORD97":179836.42000000001,"N_COORD97":2547197.25,"ADDRESS":"知母義１０４號","OBJECTID":318228},"geometry":{"x":179836.42000000086,"y":2547197.2500000019}},{"attributes":{"ID":318237,"DIS_CODE":0,"TOWNNAME":"新化區","LI":"知義里","LIN":" ","STREET":" ","SECT":" ","MAREA":"新和庄","LANE":" ","ALLEY":" ","HOUSE_NO":"３２號之６","E_COORD97":181265.89000000001,"N_COORD97":2546673.2599999998,"ADDRESS":"新和庄３２號之６","OBJECTID":318229},"geometry":{"x":181265.88999999966,"y":2546673.2599999979}},{"attributes":{"ID":318238,"DIS_CODE":0,"TOWNNAME":"新化區","LI":"\u25A0拔里","LIN":"4鄰","STREET":" ","SECT":" ","MAREA":"\u25A0拔林","LANE":" ","ALLEY":" ","HOUSE_NO":"２２２號","E_COORD97":183720.51999999999,"N_COORD97":2551982.25,"ADDRESS":"\u25A0拔林２２２號","OBJECTID":318230},"geometry":{"x":183720.52000000048,"y":2551982.25}},{"attributes":{"ID":318239,"DIS_CODE":0,"TOWNNAME":"新化區","LI":"\u25A0拔里","LIN":"4鄰","STREET":" ","SECT":" ","MAREA":"\u25A0拔林","LANE":" ","ALLEY":" ","HOUSE_NO":"２２３號之１","E_COORD97":183690.95000000001,"N_COORD97":2551945.2599999998,"ADDRESS":"\u25A0拔林２２３號之１","OBJECTID":318231},"geometry":{"x":183690.95000000205,"y":2551945.2599999998}},{"attributes":{"ID":318240,"DIS_CODE":0,"TOWNNAME":"新化區","LI":"知義里","LIN":" ","STREET":" ","SECT":" ","MAREA":"新和庄","LANE":" ","ALLEY":" ","HOUSE_NO":"１４９號","E_COORD97":181960.89000000001,"N_COORD97":2546555.25,"ADDRESS":"新和庄１４９號","OBJECTID":318232},"geometry":{"x":181960.88999999966,"y":2546555.2500000037}},{"attributes":{"ID":318241,"DIS_CODE":0,"TOWNNAME":"新化區","LI":"豐榮里","LIN":"4鄰","STREET":" ","SECT":" ","MAREA":"洋子","LANE":" ","ALLEY":" ","HOUSE_NO":"７６號之１","E_COORD97":178004.35999999999,"N_COORD97":2548257.2599999998,"ADDRESS":"洋子７６號之１","OBJECTID":318233},"geometry":{"x":178004.3600000022,"y":2548257.2600000016}},{"attributes":{"ID":318242,"DIS_CODE":0,"TOWNNAME":"新化區","LI":"羊林里","LIN":"4鄰","STREET":" ","SECT":" ","MAREA":"\u25A0拔林","LANE":" ","ALLEY":" ","HOUSE_NO":"５１４號之２","E_COORD97":183650.38,"N_COORD97":2551646.2599999998,"ADDRESS":"\u25A0拔林５１４號之２","OBJECTID":318234},"geometry":{"x":183650.38000000175,"y":2551646.2599999998}},{"attributes":{"ID":318243,"DIS_CODE":0,"TOWNNAME":"中西區","LI":"西湖里","LIN":"15鄰","STREET":"湖美一街","SECT":" ","MAREA":" ","LANE":"１０２巷","ALLEY":" ","HOUSE_NO":"１１號","E_COORD97":166090.79999999999,"N_COORD97":2544833.3799999999,"ADDRESS":"湖美一街１０２巷１１號","OBJECTID":318235},"geometry":{"x":166090.80000000075,"y":2544833.379999999}},{"attributes":{"ID":318244,"DIS_CODE":0,"TOWNNAME":"玉井區","LI":"豐里里","LIN":" ","STREET":" ","SECT":" ","MAREA":"豐里","LANE":" ","ALLEY":" ","HOUSE_NO":"３４號","E_COORD97":193100.66,"N_COORD97":2558167.2400000002,"ADDRESS":"豐里３４號","OBJECTID":318236},"geometry":{"x":193100.66000000015,"y":2558167.2400000002}},{"attributes":{"ID":318245,"DIS_CODE":0,"TOWNNAME":"中西區","LI":"西湖里","LIN":"15鄰","STREET":"湖美一街","SECT":" ","MAREA":" ","LANE":"１０２巷","ALLEY":" ","HOUSE_NO":"１２號","E_COORD97":166091.04000000001,"N_COORD97":2544806.8900000001,"ADDRESS":"湖美一街１０２巷１２號","OBJECTID":318237},"geometry":{"x":166091.04000000097,"y":2544806.8900000025}},{"attributes":{"ID":318246,"DIS_CODE":0,"TOWNNAME":"中西區","LI":"西湖里","LIN":"15鄰","STREET":"湖美一街","SECT":" ","MAREA":" ","LANE":"１０２巷","ALLEY":" ","HOUSE_NO":"１號","E_COORD97":166068.17000000001,"N_COORD97":2544833.1400000001,"ADDRESS":"湖美一街１０２巷１號","OBJECTID":318238},"geometry":{"x":166068.17000000086,"y":2544833.1400000006}},{"attributes":{"ID":318247,"DIS_CODE":0,"TOWNNAME":"東區","LI":"大同里","LIN":"17鄰","STREET":"府連路","SECT":" ","MAREA":" ","LANE":" ","ALLEY":" ","HOUSE_NO":"１９０號五樓之６","E_COORD97":169268.48999999999,"N_COORD97":2542827.48,"ADDRESS":"府連路１９０號五樓之６","OBJECTID":318239},"geometry":{"x":169268.49000000115,"y":2542827.4800000004}},{"attributes":{"ID":318248,"DIS_CODE":0,"TOWNNAME":"東區","LI":"大同里","LIN":"17鄰","STREET":"府連路","SECT":" ","MAREA":" ","LANE":" ","ALLEY":" ","HOUSE_NO":"１９０號五樓之７","E_COORD97":169268.48999999999,"N_COORD97":2542827.48,"ADDRESS":"府連路１９０號五樓之７","OBJECTID":318240},"geometry":{"x":169268.49000000115,"y":2542827.4800000004}},{"attributes":{"ID":318249,"DIS_CODE":0,"TOWNNAME":"東區","LI":"大同里","LIN":"17鄰","STREET":"府連路","SECT":" ","MAREA":" ","LANE":" ","ALLEY":" ","HOUSE_NO":"１９０號六樓之１","E_COORD97":169268.48999999999,"N_COORD97":2542827.48,"ADDRESS":"府連路１９０號六樓之１","OBJECTID":318241},"geometry":{"x":169268.49000000115,"y":2542827.4800000004}},{"attributes":{"ID":318250,"DIS_CODE":0,"TOWNNAME":"新化區","LI":"大坑里","LIN":" ","STREET":" ","SECT":" ","MAREA":"大坑尾","LANE":" ","ALLEY":" ","HOUSE_NO":"１９８號","E_COORD97":186867.53,"N_COORD97":2545413.25,"ADDRESS":"大坑尾１９８號","OBJECTID":318242},"geometry":{"x":186867.53000000119,"y":2545413.2500000019}},{"attributes":{"ID":318251,"DIS_CODE":0,"TOWNNAME":"歸仁區","LI":"看西里","LIN":"2鄰","STREET":"成功六街","SECT":" ","MAREA":" ","LANE":" ","ALLEY":" ","HOUSE_NO":"１００號","E_COORD97":178406.47356700001,"N_COORD97":2540322.11302,"ADDRESS":"成功六街１００號","OBJECTID":318243},"geometry":{"x":178406.47356700059,"y":2540322.1130210012}},{"attributes":{"ID":318252,"DIS_CODE":0,"TOWNNAME":"中西區","LI":"五妃里","LIN":"7鄰","STREET":"南門路","SECT":" ","MAREA":" ","LANE":" ","ALLEY":" ","HOUSE_NO":"２２９之２號","E_COORD97":168401.36279399999,"N_COORD97":2542726.91506,"ADDRESS":"南門路２２９之２號","OBJECTID":318244},"geometry":{"x":168401.36279400066,"y":2542726.9150549993}},{"attributes":{"ID":318253,"DIS_CODE":0,"TOWNNAME":"新化區","LI":"知義里","LIN":" ","STREET":" ","SECT":" ","MAREA":"新和庄","LANE":" ","ALLEY":" ","HOUSE_NO":"１４５號之１３","E_COORD97":182001.07999999999,"N_COORD97":2546581.2599999998,"ADDRESS":"新和庄１４５號之１３","OBJECTID":318245},"geometry":{"x":182001.08000000007,"y":2546581.2599999998}},{"attributes":{"ID":318254,"DIS_CODE":0,"TOWNNAME":"新化區","LI":"\u25A0拔里","LIN":"4鄰","STREET":" ","SECT":" ","MAREA":"\u25A0拔林","LANE":" ","ALLEY":" ","HOUSE_NO":"２１８號之１３","E_COORD97":183782.92000000001,"N_COORD97":2552072.2599999998,"ADDRESS":"\u25A0拔林２１８號之１３","OBJECTID":318246},"geometry":{"x":183782.92000000086,"y":2552072.2600000016}},{"attributes":{"ID":318255,"DIS_CODE":0,"TOWNNAME":"佳里區","LI":"忠仁里","LIN":"2鄰","STREET":"延平路","SECT":" ","MAREA":" ","LANE":" ","ALLEY":" ","HOUSE_NO":"２３１號","E_COORD97":165863.59773899999,"N_COORD97":2562212.2828199998,"ADDRESS":"延平路２３１號","OBJECTID":318247},"geometry":{"x":165863.59773899987,"y":2562212.2828200012}},{"attributes":{"ID":318256,"DIS_CODE":0,"TOWNNAME":"新化區","LI":"知義里","LIN":" ","STREET":" ","SECT":" ","MAREA":"新和庄","LANE":" ","ALLEY":" ","HOUSE_NO":"８０號","E_COORD97":181987.44,"N_COORD97":2546521.25,"ADDRESS":"新和庄８０號","OBJECTID":318248},"geometry":{"x":181987.43999999948,"y":2546521.2500000037}},{"attributes":{"ID":318257,"DIS_CODE":0,"TOWNNAME":"新化區","LI":"全興里","LIN":"20鄰","STREET":" ","SECT":" ","MAREA":"竹子\u25A0","LANE":" ","ALLEY":" ","HOUSE_NO":"２４７號之４２９","E_COORD97":178484.67999999999,"N_COORD97":2546657.2599999998,"ADDRESS":"竹子\u25A0２４７號之４２９","OBJECTID":318249},"geometry":{"x":178484.68000000156,"y":2546657.2600000016}},{"attributes":{"ID":318258,"DIS_CODE":0,"TOWNNAME":"新化區","LI":"全興里","LIN":"13鄰","STREET":" ","SECT":" ","MAREA":"竹子\u25A0","LANE":" ","ALLEY":" ","HOUSE_NO":"２４７號之２７７","E_COORD97":178131.38,"N_COORD97":2546749.2599999998,"ADDRESS":"竹子\u25A0２４７號之２７７","OBJECTID":318250},"geometry":{"x":178131.38000000082,"y":2546749.2600000016}},{"attributes":{"ID":318259,"DIS_CODE":0,"TOWNNAME":"中西區","LI":"西湖里","LIN":"15鄰","STREET":"湖美一街","SECT":" ","MAREA":" ","LANE":"１０２巷","ALLEY":" ","HOUSE_NO":"２號","E_COORD97":166069.87,"N_COORD97":2544806.6499999999,"ADDRESS":"湖美一街１０２巷２號","OBJECTID":318251},"geometry":{"x":166069.87000000197,"y":2544806.6499999985}},{"attributes":{"ID":318260,"DIS_CODE":0,"TOWNNAME":"中西區","LI":"西湖里","LIN":"15鄰","STREET":"湖美一街","SECT":" ","MAREA":" ","LANE":"１０２巷","ALLEY":" ","HOUSE_NO":"５號","E_COORD97":166077.66,"N_COORD97":2544832.6499999999,"ADDRESS":"湖美一街１０２巷５號","OBJECTID":318252},"geometry":{"x":166077.66000000015,"y":2544832.6500000004}},{"attributes":{"ID":318261,"DIS_CODE":0,"TOWNNAME":"新化區","LI":"\u25A0拔里","LIN":"4鄰","STREET":" ","SECT":" ","MAREA":"\u25A0拔林","LANE":" ","ALLEY":" ","HOUSE_NO":"２１９號之７","E_COORD97":183777.67000000001,"N_COORD97":2552003.2599999998,"ADDRESS":"\u25A0拔林２１９號之７","OBJECTID":318253},"geometry":{"x":183777.67000000086,"y":2552003.2600000035}},{"attributes":{"ID":318262,"DIS_CODE":0,"TOWNNAME":"新化區","LI":"\u25A0拔里","LIN":"4鄰","STREET":" ","SECT":" ","MAREA":"\u25A0拔林","LANE":" ","ALLEY":" ","HOUSE_NO":"２１９號之８","E_COORD97":183776.38,"N_COORD97":2551999.2599999998,"ADDRESS":"\u25A0拔林２１９號之８","OBJECTID":318254},"geometry":{"x":183776.38000000082,"y":2551999.2599999998}},{"attributes":{"ID":318263,"DIS_CODE":0,"TOWNNAME":"新化區","LI":"羊林里","LIN":"4鄰","STREET":" ","SECT":" ","MAREA":"\u25A0拔林","LANE":" ","ALLEY":" ","HOUSE_NO":"５１５號之３","E_COORD97":183655.97,"N_COORD97":2551693.2599999998,"ADDRESS":"\u25A0拔林５１５號之３","OBJECTID":318255},"geometry":{"x":183655.96999999974,"y":2551693.2599999998}},{"attributes":{"ID":318264,"DIS_CODE":0,"TOWNNAME":"中西區","LI":"西湖里","LIN":"15鄰","STREET":"湖美一街","SECT":" ","MAREA":" ","LANE":"１０２巷","ALLEY":" ","HOUSE_NO":"６號","E_COORD97":166078.63,"N_COORD97":2544806.8900000001,"ADDRESS":"湖美一街１０２巷６號","OBJECTID":318256},"geometry":{"x":166078.63000000082,"y":2544806.8900000025}},{"attributes":{"ID":318265,"DIS_CODE":0,"TOWNNAME":"佳里區","LI":"東寧里","LIN":"17鄰","STREET":"和平街","SECT":" ","MAREA":" ","LANE":" ","ALLEY":" ","HOUSE_NO":"２７號","E_COORD97":166022.04999999999,"N_COORD97":2562506.5099999998,"ADDRESS":"和平街２７號","OBJECTID":318257},"geometry":{"x":166022.04999999981,"y":2562506.5100000016}},{"attributes":{"ID":318266,"DIS_CODE":0,"TOWNNAME":"新化區","LI":"知義里","LIN":" ","STREET":" ","SECT":" ","MAREA":"新和庄","LANE":" ","ALLEY":" ","HOUSE_NO":"１７１號","E_COORD97":182019.09,"N_COORD97":2546756.25,"ADDRESS":"新和庄１７１號","OBJECTID":318258},"geometry":{"x":182019.08999999985,"y":2546756.2500000019}},{"attributes":{"ID":318267,"DIS_CODE":0,"TOWNNAME":"仁德區","LI":"仁愛里","LIN":" ","STREET":" ","SECT":" ","MAREA":"仁愛","LANE":" ","ALLEY":" ","HOUSE_NO":"２號","E_COORD97":170333.17000000001,"N_COORD97":2540209.2799999998,"ADDRESS":"仁愛２號","OBJECTID":318259},"geometry":{"x":170333.17000000086,"y":2540209.2799999993}},{"attributes":{"ID":318268,"DIS_CODE":0,"TOWNNAME":"東區","LI":"大同里","LIN":"17鄰","STREET":"府連路","SECT":" ","MAREA":" ","LANE":" ","ALLEY":" ","HOUSE_NO":"１９０號六樓之２","E_COORD97":169268.48999999999,"N_COORD97":2542827.48,"ADDRESS":"府連路１９０號六樓之２","OBJECTID":318260},"geometry":{"x":169268.49000000115,"y":2542827.4800000004}},{"attributes":{"ID":318269,"DIS_CODE":0,"TOWNNAME":"山上區","LI":"明和里","LIN":" ","STREET":" ","SECT":" ","MAREA":"明和","LANE":" ","ALLEY":" ","HOUSE_NO":"１９號","E_COORD97":183160.09,"N_COORD97":2556259.25,"ADDRESS":"明和１９號","OBJECTID":318261},"geometry":{"x":183160.08999999985,"y":2556259.2500000019}},{"attributes":{"ID":318270,"DIS_CODE":0,"TOWNNAME":"歸仁區","LI":"看西里","LIN":"2鄰","STREET":"成功六街","SECT":" ","MAREA":" ","LANE":"１１６巷","ALLEY":" ","HOUSE_NO":"２號","E_COORD97":178405.78499799999,"N_COORD97":2540339.1521800002,"ADDRESS":"成功六街１１６巷２號","OBJECTID":318262},"geometry":{"x":178405.78499799967,"y":2540339.1521790009}},{"attributes":{"ID":318271,"DIS_CODE":0,"TOWNNAME":"歸仁區","LI":"看西里","LIN":"2鄰","STREET":"成功六街","SECT":" ","MAREA":" ","LANE":"１１６巷","ALLEY":" ","HOUSE_NO":"６號","E_COORD97":178410.34014700001,"N_COORD97":2540338.9405100001,"ADDRESS":"成功六街１１６巷６號","OBJECTID":318263},"geometry":{"x":178410.34014700074,"y":2540338.9405119997}},{"attributes":{"ID":318272,"DIS_CODE":0,"TOWNNAME":"歸仁區","LI":"看西里","LIN":"2鄰","STREET":"成功六街","SECT":" ","MAREA":" ","LANE":"１１６巷","ALLEY":" ","HOUSE_NO":"８號","E_COORD97":178414.63046300001,"N_COORD97":2540338.5701000001,"ADDRESS":"成功六街１１６巷８號","OBJECTID":318264},"geometry":{"x":178414.63046300132,"y":2540338.5700960048}},{"attributes":{"ID":318273,"DIS_CODE":0,"TOWNNAME":"新營區","LI":"大宏里","LIN":"26鄰","STREET":"民族路","SECT":" ","MAREA":" ","LANE":" ","ALLEY":" ","HOUSE_NO":"５之９號","E_COORD97":180290.123422,"N_COORD97":2578384.5556399999,"ADDRESS":"民族路５之９號","OBJECTID":318265},"geometry":{"x":180290.12342199963,"y":2578384.555637002}},{"attributes":{"ID":318274,"DIS_CODE":0,"TOWNNAME":"關廟區","LI":"關廟里","LIN":"3鄰","STREET":"武聖路","SECT":" ","MAREA":" ","LANE":" ","ALLEY":" ","HOUSE_NO":"２３號","E_COORD97":180932.43166199999,"N_COORD97":2540184.0517600002,"ADDRESS":"武聖路２３號","OBJECTID":318266},"geometry":{"x":180932.43166199885,"y":2540184.0517580044}},{"attributes":{"ID":318275,"DIS_CODE":0,"TOWNNAME":"南區","LI":"明德里","LIN":"7鄰","STREET":"大成路","SECT":"一段","MAREA":" ","LANE":"１９３巷","ALLEY":" ","HOUSE_NO":"１５６號","E_COORD97":167964.45999999999,"N_COORD97":2541615.02,"ADDRESS":"大成路一段１９３巷１５６號","OBJECTID":318267},"geometry":{"x":167964.46000000183,"y":2541615.0199999996}},{"attributes":{"ID":318276,"DIS_CODE":0,"TOWNNAME":"南區","LI":"明德里","LIN":"7鄰","STREET":"大成路","SECT":"一段","MAREA":" ","LANE":"１９３巷","ALLEY":" ","HOUSE_NO":"１５７號","E_COORD97":167974.88,"N_COORD97":2541616.0499999998,"ADDRESS":"大成路一段１９３巷１５７號","OBJECTID":318268},"geometry":{"x":167974.87999999896,"y":2541616.0500000007}},{"attributes":{"ID":318277,"DIS_CODE":0,"TOWNNAME":"南區","LI":"明德里","LIN":"7鄰","STREET":"大成路","SECT":"一段","MAREA":" ","LANE":"１９３巷","ALLEY":" ","HOUSE_NO":"１５８號","E_COORD97":167983.95999999999,"N_COORD97":2541616.3599999999,"ADDRESS":"大成路一段１９３巷１５８號","OBJECTID":318269},"geometry":{"x":167983.95999999996,"y":2541616.3599999994}},{"attributes":{"ID":318278,"DIS_CODE":0,"TOWNNAME":"南區","LI":"明德里","LIN":"7鄰","STREET":"大成路","SECT":"一段","MAREA":" ","LANE":"１９３巷","ALLEY":" ","HOUSE_NO":"１５９號","E_COORD97":167987.67999999999,"N_COORD97":2541614.6099999999,"ADDRESS":"大成路一段１９３巷１５９號","OBJECTID":318270},"geometry":{"x":167987.6799999997,"y":2541614.6099999994}},{"attributes":{"ID":318279,"DIS_CODE":0,"TOWNNAME":"中西區","LI":"西湖里","LIN":"15鄰","STREET":"湖美一街","SECT":" ","MAREA":" ","LANE":"１０２巷","ALLEY":" ","HOUSE_NO":"７號","E_COORD97":166082.51999999999,"N_COORD97":2544833.3799999999,"ADDRESS":"湖美一街１０２巷７號","OBJECTID":318271},"geometry":{"x":166082.52000000048,"y":2544833.379999999}},{"attributes":{"ID":318280,"DIS_CODE":0,"TOWNNAME":"中西區","LI":"西湖里","LIN":"15鄰","STREET":"湖美一街","SECT":" ","MAREA":" ","LANE":"１０２巷","ALLEY":" ","HOUSE_NO":"８號","E_COORD97":166083.01000000001,"N_COORD97":2544806.8900000001,"ADDRESS":"湖美一街１０２巷８號","OBJECTID":318272},"geometry":{"x":166083.00999999978,"y":2544806.8900000025}},{"attributes":{"ID":318281,"DIS_CODE":0,"TOWNNAME":"東區","LI":"大同里","LIN":"17鄰","STREET":"府連路","SECT":" ","MAREA":" ","LANE":" ","ALLEY":" ","HOUSE_NO":"１９０號六樓之３","E_COORD97":169268.48999999999,"N_COORD97":2542827.48,"ADDRESS":"府連路１９０號六樓之３","OBJECTID":318273},"geometry":{"x":169268.49000000115,"y":2542827.4800000004}},{"attributes":{"ID":318282,"DIS_CODE":0,"TOWNNAME":"東區","LI":"大同里","LIN":"17鄰","STREET":"府連路","SECT":" ","MAREA":" ","LANE":" ","ALLEY":" ","HOUSE_NO":"１９０號六樓之４","E_COORD97":169268.48999999999,"N_COORD97":2542827.48,"ADDRESS":"府連路１９０號六樓之４","OBJECTID":318274},"geometry":{"x":169268.49000000115,"y":2542827.4800000004}},{"attributes":{"ID":318283,"DIS_CODE":0,"TOWNNAME":"東區","LI":"大同里","LIN":"17鄰","STREET":"府連路","SECT":" ","MAREA":" ","LANE":" ","ALLEY":" ","HOUSE_NO":"１９０號六樓之５","E_COORD97":169268.48999999999,"N_COORD97":2542827.48,"ADDRESS":"府連路１９０號六樓之５","OBJECTID":318275},"geometry":{"x":169268.49000000115,"y":2542827.4800000004}},{"attributes":{"ID":318284,"DIS_CODE":0,"TOWNNAME":"東區","LI":"大同里","LIN":"17鄰","STREET":"府連路","SECT":" ","MAREA":" ","LANE":" ","ALLEY":" ","HOUSE_NO":"１９０號六樓之６","E_COORD97":169268.48999999999,"N_COORD97":2542827.48,"ADDRESS":"府連路１９０號六樓之６","OBJECTID":318276},"geometry":{"x":169268.49000000115,"y":2542827.4800000004}},{"attributes":{"ID":318285,"DIS_CODE":0,"TOWNNAME":"東區","LI":"大同里","LIN":"17鄰","STREET":"府連路","SECT":" ","MAREA":" ","LANE":" ","ALLEY":" ","HOUSE_NO":"１９０號六樓之７","E_COORD97":169268.48999999999,"N_COORD97":2542827.48,"ADDRESS":"府連路１９０號六樓之７","OBJECTID":318277},"geometry":{"x":169268.49000000115,"y":2542827.4800000004}},{"attributes":{"ID":318286,"DIS_CODE":0,"TOWNNAME":"東區","LI":"大同里","LIN":"17鄰","STREET":"府連路","SECT":" ","MAREA":" ","LANE":" ","ALLEY":" ","HOUSE_NO":"１９０號四樓之１","E_COORD97":169268.48999999999,"N_COORD97":2542827.48,"ADDRESS":"府連路１９０號四樓之１","OBJECTID":318278},"geometry":{"x":169268.49000000115,"y":2542827.4800000004}},{"attributes":{"ID":318287,"DIS_CODE":0,"TOWNNAME":"東區","LI":"大同里","LIN":"17鄰","STREET":"府連路","SECT":" ","MAREA":" ","LANE":" ","ALLEY":" ","HOUSE_NO":"１９０號四樓之２","E_COORD97":169268.48999999999,"N_COORD97":2542827.48,"ADDRESS":"府連路１９０號四樓之２","OBJECTID":318279},"geometry":{"x":169268.49000000115,"y":2542827.4800000004}},{"attributes":{"ID":318288,"DIS_CODE":0,"TOWNNAME":"歸仁區","LI":"看西里","LIN":"2鄰","STREET":"成功六街","SECT":" ","MAREA":" ","LANE":"１１６巷","ALLEY":" ","HOUSE_NO":"１０號","E_COORD97":178418.973745,"N_COORD97":2540338.35843,"ADDRESS":"成功六街１１６巷１０號","OBJECTID":318280},"geometry":{"x":178418.97374499962,"y":2540338.3584290035}},{"attributes":{"ID":318289,"DIS_CODE":0,"TOWNNAME":"歸仁區","LI":"沙崙里","LIN":"4鄰","STREET":" ","SECT":" ","MAREA":"沙崙","LANE":" ","ALLEY":" ","HOUSE_NO":"３６３號","E_COORD97":179574.88,"N_COORD97":2538150.25,"ADDRESS":"沙崙３６３號","OBJECTID":318281},"geometry":{"x":179574.87999999989,"y":2538150.2499999981}},{"attributes":{"ID":318290,"DIS_CODE":0,"TOWNNAME":"山上區","LI":"新莊里","LIN":" ","STREET":" ","SECT":" ","MAREA":"大庄","LANE":" ","ALLEY":" ","HOUSE_NO":"５０號","E_COORD97":183538.26000000001,"N_COORD97":2554882.25,"ADDRESS":"大庄５０號","OBJECTID":318282},"geometry":{"x":183538.26000000071,"y":2554882.2500000019}},{"attributes":{"ID":318291,"DIS_CODE":0,"TOWNNAME":"新營區","LI":"大宏里","LIN":"26鄰","STREET":"民族路","SECT":" ","MAREA":" ","LANE":" ","ALLEY":" ","HOUSE_NO":"５之８號","E_COORD97":180290.44137700001,"N_COORD97":2578380.7456399999,"ADDRESS":"民族路５之８號","OBJECTID":318283},"geometry":{"x":180290.44137700088,"y":2578380.745639002}},{"attributes":{"ID":318292,"DIS_CODE":0,"TOWNNAME":"南區","LI":"府南里","LIN":"15鄰","STREET":"金華路","SECT":"一段","MAREA":" ","LANE":"５３０巷","ALLEY":" ","HOUSE_NO":"１９號","E_COORD97":167144.70000000001,"N_COORD97":2541636.48,"ADDRESS":"金華路一段５３０巷１９號","OBJECTID":318284},"geometry":{"x":167144.70000000112,"y":2541636.4800000004}},{"attributes":{"ID":318293,"DIS_CODE":0,"TOWNNAME":"中西區","LI":"西湖里","LIN":"15鄰","STREET":"湖美一街","SECT":" ","MAREA":" ","LANE":"１０２巷","ALLEY":" ","HOUSE_NO":"９號","E_COORD97":166086.66,"N_COORD97":2544832.4100000001,"ADDRESS":"湖美一街１０２巷９號","OBJECTID":318285},"geometry":{"x":166086.66000000201,"y":2544832.410000002}},{"attributes":{"ID":318294,"DIS_CODE":0,"TOWNNAME":"中西區","LI":"西湖里","LIN":"15鄰","STREET":"湖美一街","SECT":" ","MAREA":" ","LANE":"１０９巷","ALLEY":" ","HOUSE_NO":"１０號","E_COORD97":166033.13,"N_COORD97":2544817,"ADDRESS":"湖美一街１０９巷１０號","OBJECTID":318286},"geometry":{"x":166033.13000000082,"y":2544817}},{"attributes":{"ID":318295,"DIS_CODE":0,"TOWNNAME":"中西區","LI":"西湖里","LIN":"15鄰","STREET":"湖美一街","SECT":" ","MAREA":" ","LANE":"１０９巷","ALLEY":" ","HOUSE_NO":"１１號","E_COORD97":166029.72,"N_COORD97":2544788.3300000001,"ADDRESS":"湖美一街１０９巷１１號","OBJECTID":318287},"geometry":{"x":166029.71999999881,"y":2544788.3300000038}},{"attributes":{"ID":318296,"DIS_CODE":0,"TOWNNAME":"中西區","LI":"西湖里","LIN":"15鄰","STREET":"湖美一街","SECT":" ","MAREA":" ","LANE":"１０９巷","ALLEY":" ","HOUSE_NO":"１２號","E_COORD97":166028.98999999999,"N_COORD97":2544816.27,"ADDRESS":"湖美一街１０９巷１２號","OBJECTID":318288},"geometry":{"x":166028.99000000115,"y":2544816.2700000014}},{"attributes":{"ID":318297,"DIS_CODE":0,"TOWNNAME":"中西區","LI":"西湖里","LIN":"15鄰","STREET":"湖美一街","SECT":" ","MAREA":" ","LANE":"１０９巷","ALLEY":" ","HOUSE_NO":"１３號","E_COORD97":166025.57999999999,"N_COORD97":2544787.8399999999,"ADDRESS":"湖美一街１０９巷１３號","OBJECTID":318289},"geometry":{"x":166025.58000000007,"y":2544787.839999998}},{"attributes":{"ID":318298,"DIS_CODE":0,"TOWNNAME":"中西區","LI":"西湖里","LIN":"15鄰","STREET":"湖美一街","SECT":" ","MAREA":" ","LANE":"１０９巷","ALLEY":" ","HOUSE_NO":"１４號","E_COORD97":166024.85000000001,"N_COORD97":2544816.52,"ADDRESS":"湖美一街１０９巷１４號","OBJECTID":318290},"geometry":{"x":166024.84999999963,"y":2544816.5199999996}},{"attributes":{"ID":318299,"DIS_CODE":0,"TOWNNAME":"中西區","LI":"西湖里","LIN":"15鄰","STREET":"湖美一街","SECT":" ","MAREA":" ","LANE":"１０９巷","ALLEY":" ","HOUSE_NO":"１號","E_COORD97":166050.89000000001,"N_COORD97":2544788.5699999998,"ADDRESS":"湖美一街１０９巷１號","OBJECTID":318291},"geometry":{"x":166050.8900000006,"y":2544788.5700000022}},{"attributes":{"ID":318300,"DIS_CODE":0,"TOWNNAME":"中西區","LI":"西湖里","LIN":"15鄰","STREET":"湖美一街","SECT":" ","MAREA":" ","LANE":"１０９巷","ALLEY":" ","HOUSE_NO":"２號","E_COORD97":166050.39999999999,"N_COORD97":2544816.7599999998,"ADDRESS":"湖美一街１０９巷２號","OBJECTID":318292},"geometry":{"x":166050.4000000013,"y":2544816.7600000016}},{"attributes":{"ID":318301,"DIS_CODE":0,"TOWNNAME":"中西區","LI":"西湖里","LIN":"15鄰","STREET":"湖美一街","SECT":" ","MAREA":" ","LANE":"１０９巷","ALLEY":" ","HOUSE_NO":"３號","E_COORD97":166046.51000000001,"N_COORD97":2544788.5699999998,"ADDRESS":"湖美一街１０９巷３號","OBJECTID":318293},"geometry":{"x":166046.51000000164,"y":2544788.5700000022}},{"attributes":{"ID":318302,"DIS_CODE":0,"TOWNNAME":"東區","LI":"大同里","LIN":"17鄰","STREET":"府連路","SECT":" ","MAREA":" ","LANE":" ","ALLEY":" ","HOUSE_NO":"１９０號四樓之３","E_COORD97":169268.48999999999,"N_COORD97":2542827.48,"ADDRESS":"府連路１９０號四樓之３","OBJECTID":318294},"geometry":{"x":169268.49000000115,"y":2542827.4800000004}},{"attributes":{"ID":318303,"DIS_CODE":0,"TOWNNAME":"東區","LI":"大同里","LIN":"17鄰","STREET":"府連路","SECT":" ","MAREA":" ","LANE":" ","ALLEY":" ","HOUSE_NO":"１９０號四樓之４","E_COORD97":169268.48999999999,"N_COORD97":2542827.48,"ADDRESS":"府連路１９０號四樓之４","OBJECTID":318295},"geometry":{"x":169268.49000000115,"y":2542827.4800000004}},{"attributes":{"ID":318304,"DIS_CODE":0,"TOWNNAME":"歸仁區","LI":"文化里","LIN":"4鄰","STREET":"民權一街","SECT":" ","MAREA":" ","LANE":" ","ALLEY":" ","HOUSE_NO":"３４號","E_COORD97":177272.51000000001,"N_COORD97":2541333.25,"ADDRESS":"民權一街３４號","OBJECTID":318296},"geometry":{"x":177272.51000000071,"y":2541333.25}},{"attributes":{"ID":318305,"DIS_CODE":0,"TOWNNAME":"山上區","LI":"新莊里","LIN":" ","STREET":" ","SECT":" ","MAREA":"新庄","LANE":" ","ALLEY":" ","HOUSE_NO":"３８號","E_COORD97":184871.76000000001,"N_COORD97":2555320.25,"ADDRESS":"新庄３８號","OBJECTID":318297},"geometry":{"x":184871.76000000164,"y":2555320.2500000019}},{"attributes":{"ID":318306,"DIS_CODE":0,"TOWNNAME":"關廟區","LI":"五甲里","LIN":"5鄰","STREET":"五甲路","SECT":" ","MAREA":" ","LANE":" ","ALLEY":" ","HOUSE_NO":"３１號","E_COORD97":181231.30095800001,"N_COORD97":2539044.7104799999,"ADDRESS":"五甲路３１號","OBJECTID":318298},"geometry":{"x":181231.30095800105,"y":2539044.7104790006}},{"attributes":{"ID":318307,"DIS_CODE":0,"TOWNNAME":"新市區","LI":"新和里","LIN":"8鄰","STREET":"仁愛街","SECT":" ","MAREA":" ","LANE":" ","ALLEY":" ","HOUSE_NO":"１１３號","E_COORD97":177545.58645,"N_COORD97":2552567.0804900001,"ADDRESS":"仁愛街１１３號","OBJECTID":318299},"geometry":{"x":177545.58645000029,"y":2552567.0804949999}},{"attributes":{"ID":318308,"DIS_CODE":0,"TOWNNAME":"歸仁區","LI":"西埔里","LIN":"5鄰","STREET":"保大路","SECT":"二段","MAREA":" ","LANE":"１７０巷","ALLEY":" ","HOUSE_NO":"２８號","E_COORD97":176944.01999999999,"N_COORD97":2544230.2799999998,"ADDRESS":"保大路二段１７０巷２８號","OBJECTID":318300},"geometry":{"x":176944.01999999955,"y":2544230.2799999993}},{"attributes":{"ID":318309,"DIS_CODE":0,"TOWNNAME":"中西區","LI":"西湖里","LIN":"15鄰","STREET":"湖美一街","SECT":" ","MAREA":" ","LANE":"１０９巷","ALLEY":" ","HOUSE_NO":"４號","E_COORD97":166046.01999999999,"N_COORD97":2544816.7599999998,"ADDRESS":"湖美一街１０９巷４號","OBJECTID":318301},"geometry":{"x":166046.01999999955,"y":2544816.7600000016}},{"attributes":{"ID":318310,"DIS_CODE":0,"TOWNNAME":"中西區","LI":"西湖里","LIN":"15鄰","STREET":"湖美一街","SECT":" ","MAREA":" ","LANE":"１０９巷","ALLEY":" ","HOUSE_NO":"５號","E_COORD97":166042.37,"N_COORD97":2544788.5699999998,"ADDRESS":"湖美一街１０９巷５號","OBJECTID":318302},"geometry":{"x":166042.37000000011,"y":2544788.5700000022}},{"attributes":{"ID":318311,"DIS_CODE":0,"TOWNNAME":"中西區","LI":"西湖里","LIN":"15鄰","STREET":"湖美一街","SECT":" ","MAREA":" ","LANE":"１０９巷","ALLEY":" ","HOUSE_NO":"６號","E_COORD97":166041.39999999999,"N_COORD97":2544817.25,"ADDRESS":"湖美一街１０９巷６號","OBJECTID":318303},"geometry":{"x":166041.4000000013,"y":2544817.2500000019}},{"attributes":{"ID":318312,"DIS_CODE":0,"TOWNNAME":"中西區","LI":"西湖里","LIN":"15鄰","STREET":"湖美一街","SECT":" ","MAREA":" ","LANE":"９６巷","ALLEY":" ","HOUSE_NO":"１號","E_COORD97":166068.17000000001,"N_COORD97":2544790.6099999999,"ADDRESS":"湖美一街９６巷１號","OBJECTID":318304},"geometry":{"x":166068.17000000086,"y":2544790.6100000013}},{"attributes":{"ID":318313,"DIS_CODE":0,"TOWNNAME":"中西區","LI":"西湖里","LIN":"15鄰","STREET":"湖美一街","SECT":" ","MAREA":" ","LANE":"９６巷","ALLEY":" ","HOUSE_NO":"３號","E_COORD97":166074.73999999999,"N_COORD97":2544790.1200000001,"ADDRESS":"湖美一街９６巷３號","OBJECTID":318305},"geometry":{"x":166074.74000000115,"y":2544790.120000001}},{"attributes":{"ID":318314,"DIS_CODE":0,"TOWNNAME":"中西區","LI":"西湖里","LIN":"15鄰","STREET":"湖美一街","SECT":" ","MAREA":" ","LANE":"９６巷","ALLEY":" ","HOUSE_NO":"５號","E_COORD97":166079.35999999999,"N_COORD97":2544789.8799999999,"ADDRESS":"湖美一街９６巷５號","OBJECTID":318306},"geometry":{"x":166079.36000000127,"y":2544789.879999999}},{"attributes":{"ID":318315,"DIS_CODE":0,"TOWNNAME":"中西區","LI":"西湖里","LIN":"15鄰","STREET":"湖美一街","SECT":" ","MAREA":" ","LANE":"９６巷","ALLEY":" ","HOUSE_NO":"７號","E_COORD97":166083.73999999999,"N_COORD97":2544790.3700000001,"ADDRESS":"湖美一街９６巷７號","OBJECTID":318307},"geometry":{"x":166083.74000000022,"y":2544790.3700000029}},{"attributes":{"ID":318316,"DIS_CODE":0,"TOWNNAME":"中西區","LI":"西湖里","LIN":"15鄰","STREET":"湖美一街","SECT":" ","MAREA":" ","LANE":"９６巷","ALLEY":" ","HOUSE_NO":"９號","E_COORD97":166088.12,"N_COORD97":2544790.6099999999,"ADDRESS":"湖美一街９６巷９號","OBJECTID":318308},"geometry":{"x":166088.12000000011,"y":2544790.6100000013}},{"attributes":{"ID":318317,"DIS_CODE":0,"TOWNNAME":"中西區","LI":"西湖里","LIN":"15鄰","STREET":"湖美一街","SECT":" ","MAREA":" ","LANE":"１０２巷","ALLEY":" ","HOUSE_NO":"１３號","E_COORD97":166101.01999999999,"N_COORD97":2544831.4399999999,"ADDRESS":"湖美一街１０２巷１３號","OBJECTID":318309},"geometry":{"x":166101.02000000048,"y":2544831.4400000013}},{"attributes":{"ID":318318,"DIS_CODE":0,"TOWNNAME":"東區","LI":"大同里","LIN":"17鄰","STREET":"府連路","SECT":" ","MAREA":" ","LANE":" ","ALLEY":" ","HOUSE_NO":"１９０號四樓之５","E_COORD97":169268.48999999999,"N_COORD97":2542827.48,"ADDRESS":"府連路１９０號四樓之５","OBJECTID":318310},"geometry":{"x":169268.49000000115,"y":2542827.4800000004}},{"attributes":{"ID":318319,"DIS_CODE":0,"TOWNNAME":"東區","LI":"大同里","LIN":"17鄰","STREET":"府連路","SECT":" ","MAREA":" ","LANE":" ","ALLEY":" ","HOUSE_NO":"１９０號四樓之６","E_COORD97":169268.48999999999,"N_COORD97":2542827.48,"ADDRESS":"府連路１９０號四樓之６","OBJECTID":318311},"geometry":{"x":169268.49000000115,"y":2542827.4800000004}},{"attributes":{"ID":318320,"DIS_CODE":0,"TOWNNAME":"歸仁區","LI":"沙崙里","LIN":"4鄰","STREET":" ","SECT":" ","MAREA":"沙崙","LANE":" ","ALLEY":" ","HOUSE_NO":"３４５號","E_COORD97":179513.07999999999,"N_COORD97":2538093.25,"ADDRESS":"沙崙３４５號","OBJECTID":318312},"geometry":{"x":179513.08000000194,"y":2538093.2500000019}},{"attributes":{"ID":318321,"DIS_CODE":0,"TOWNNAME":"歸仁區","LI":"後市里","LIN":"20鄰","STREET":"民族北街","SECT":" ","MAREA":" ","LANE":"１２巷","ALLEY":" ","HOUSE_NO":"１０號","E_COORD97":177484.53,"N_COORD97":2540840.25,"ADDRESS":"民族北街１２巷１０號","OBJECTID":318313},"geometry":{"x":177484.53000000119,"y":2540840.2500000019}},{"attributes":{"ID":318322,"DIS_CODE":0,"TOWNNAME":"歸仁區","LI":"武東里","LIN":"4鄰","STREET":"武東二街","SECT":" ","MAREA":" ","LANE":"３６巷","ALLEY":" ","HOUSE_NO":"２６號","E_COORD97":175515.19,"N_COORD97":2535263.25,"ADDRESS":"武東二街３６巷２６號","OBJECTID":318314},"geometry":{"x":175515.18999999948,"y":2535263.2500000019}},{"attributes":{"ID":318323,"DIS_CODE":0,"TOWNNAME":"中西區","LI":"西湖里","LIN":"15鄰","STREET":"湖美一街","SECT":" ","MAREA":" ","LANE":"１０２巷","ALLEY":" ","HOUSE_NO":"１５號","E_COORD97":166096.14999999999,"N_COORD97":2544831.6800000002,"ADDRESS":"湖美一街１０２巷１５號","OBJECTID":318315},"geometry":{"x":166096.1500000013,"y":2544831.6799999997}},{"attributes":{"ID":318324,"DIS_CODE":0,"TOWNNAME":"中西區","LI":"西湖里","LIN":"15鄰","STREET":"湖美一街","SECT":" ","MAREA":" ","LANE":"１０２巷","ALLEY":" ","HOUSE_NO":"１９號","E_COORD97":166100.76999999999,"N_COORD97":2544847.7200000002,"ADDRESS":"湖美一街１０２巷１９號","OBJECTID":318316},"geometry":{"x":166100.77000000048,"y":2544847.7200000025}},{"attributes":{"ID":318325,"DIS_CODE":0,"TOWNNAME":"中西區","LI":"西湖里","LIN":"15鄰","STREET":"湖美一街","SECT":" ","MAREA":" ","LANE":"１０２巷","ALLEY":" ","HOUSE_NO":"１７號","E_COORD97":166095.66,"N_COORD97":2544847.7200000002,"ADDRESS":"湖美一街１０２巷１７號","OBJECTID":318317},"geometry":{"x":166095.66000000108,"y":2544847.7200000025}},{"attributes":{"ID":318326,"DIS_CODE":0,"TOWNNAME":"東區","LI":"大同里","LIN":"17鄰","STREET":"府連路","SECT":" ","MAREA":" ","LANE":" ","ALLEY":" ","HOUSE_NO":"１９０號四樓之７","E_COORD97":169268.48999999999,"N_COORD97":2542827.48,"ADDRESS":"府連路１９０號四樓之７","OBJECTID":318318},"geometry":{"x":169268.49000000115,"y":2542827.4800000004}},{"attributes":{"ID":318327,"DIS_CODE":0,"TOWNNAME":"東區","LI":"大同里","LIN":"17鄰","STREET":"府連路","SECT":" ","MAREA":" ","LANE":" ","ALLEY":" ","HOUSE_NO":"２２２號二樓之１","E_COORD97":169344.28,"N_COORD97":2542850.2200000002,"ADDRESS":"府連路２２２號二樓之１","OBJECTID":318319},"geometry":{"x":169344.28000000119,"y":2542850.2199999988}},{"attributes":{"ID":318328,"DIS_CODE":0,"TOWNNAME":"鹽水區","LI":"飯店里","LIN":"4鄰","STREET":" ","SECT":" ","MAREA":"飯店","LANE":" ","ALLEY":" ","HOUSE_NO":"７號","E_COORD97":170092.85999999999,"N_COORD97":2574240.1600000001,"ADDRESS":"飯店７號","OBJECTID":318320},"geometry":{"x":170092.8600000022,"y":2574240.1600000001}},{"attributes":{"ID":318329,"DIS_CODE":0,"TOWNNAME":"歸仁區","LI":"南興里","LIN":"13鄰","STREET":"文化十八街","SECT":" ","MAREA":" ","LANE":"１８巷","ALLEY":" ","HOUSE_NO":"１６號","E_COORD97":175907.88,"N_COORD97":2541254.5299999998,"ADDRESS":"文化十八街１８巷１６號","OBJECTID":318321},"geometry":{"x":175907.87999999989,"y":2541254.5300000012}},{"attributes":{"ID":318330,"DIS_CODE":0,"TOWNNAME":"歸仁區","LI":"南興里","LIN":"13鄰","STREET":"文化十八街","SECT":" ","MAREA":" ","LANE":"１８巷","ALLEY":" ","HOUSE_NO":"１８號","E_COORD97":175911.76999999999,"N_COORD97":2541254.79,"ADDRESS":"文化十八街１８巷１８號","OBJECTID":318322},"geometry":{"x":175911.76999999955,"y":2541254.7900000028}},{"attributes":{"ID":318331,"DIS_CODE":0,"TOWNNAME":"中西區","LI":"西湖里","LIN":"15鄰","STREET":"湖美一街","SECT":" ","MAREA":" ","LANE":"１０２巷","ALLEY":" ","HOUSE_NO":"２７號","E_COORD97":166108.79999999999,"N_COORD97":2544831.4399999999,"ADDRESS":"湖美一街１０２巷２７號","OBJECTID":318323},"geometry":{"x":166108.79999999981,"y":2544831.4400000013}},{"attributes":{"ID":318332,"DIS_CODE":0,"TOWNNAME":"中西區","LI":"西湖里","LIN":"15鄰","STREET":"湖美一街","SECT":" ","MAREA":" ","LANE":"１０２巷","ALLEY":" ","HOUSE_NO":"２１號","E_COORD97":166110.26000000001,"N_COORD97":2544848.6899999999,"ADDRESS":"湖美一街１０２巷２１號","OBJECTID":318324},"geometry":{"x":166110.25999999978,"y":2544848.6899999995}},{"attributes":{"ID":318333,"DIS_CODE":0,"TOWNNAME":"中西區","LI":"西湖里","LIN":"15鄰","STREET":"湖美一街","SECT":" ","MAREA":" ","LANE":"１０２巷","ALLEY":" ","HOUSE_NO":"２５號","E_COORD97":166113.91,"N_COORD97":2544831.9199999999,"ADDRESS":"湖美一街１０２巷２５號","OBJECTID":318325},"geometry":{"x":166113.91000000108,"y":2544831.9200000018}},{"attributes":{"ID":318334,"DIS_CODE":0,"TOWNNAME":"仁德區","LI":"保安里","LIN":"15鄰","STREET":"文賢路","SECT":"二段","MAREA":" ","LANE":"３６巷","ALLEY":" ","HOUSE_NO":"８號","E_COORD97":171717.51999999999,"N_COORD97":2535775.5800000001,"ADDRESS":"文賢路二段３６巷８號","OBJECTID":318326},"geometry":{"x":171717.51999999955,"y":2535775.5800000019}},{"attributes":{"ID":318335,"DIS_CODE":0,"TOWNNAME":"仁德區","LI":"土庫里","LIN":"15鄰","STREET":"土庫一街","SECT":" ","MAREA":" ","LANE":"８２巷","ALLEY":" ","HOUSE_NO":"６號","E_COORD97":174582.20999999999,"N_COORD97":2543016.25,"ADDRESS":"土庫一街８２巷６號","OBJECTID":318327},"geometry":{"x":174582.20999999996,"y":2543016.2500000019}},{"attributes":{"ID":318336,"DIS_CODE":0,"TOWNNAME":"仁德區","LI":"仁義里","LIN":"15鄰","STREET":"義林路","SECT":" ","MAREA":" ","LANE":"２００巷","ALLEY":" ","HOUSE_NO":"５號","E_COORD97":174578.76000000001,"N_COORD97":2541263.02,"ADDRESS":"義林路２００巷５號","OBJECTID":318328},"geometry":{"x":174578.76000000071,"y":2541263.0199999996}},{"attributes":{"ID":318337,"DIS_CODE":0,"TOWNNAME":"仁德區","LI":"仁義里","LIN":"15鄰","STREET":"義林路","SECT":" ","MAREA":" ","LANE":"２５６巷","ALLEY":" ","HOUSE_NO":"６２號","E_COORD97":174945.87,"N_COORD97":2541483.7599999998,"ADDRESS":"義林路２５６巷６２號","OBJECTID":318329},"geometry":{"x":174945.87000000197,"y":2541483.7600000016}},{"attributes":{"ID":318338,"DIS_CODE":0,"TOWNNAME":"仁德區","LI":"太子里","LIN":"15鄰","STREET":"太子北路","SECT":" ","MAREA":" ","LANE":"１１２巷","ALLEY":" ","HOUSE_NO":"２２號","E_COORD97":174105.35000000001,"N_COORD97":2543706.25,"ADDRESS":"太子北路１１２巷２２號","OBJECTID":318330},"geometry":{"x":174105.35000000056,"y":2543706.25}},{"attributes":{"ID":318339,"DIS_CODE":0,"TOWNNAME":"安南區","LI":"淵西里","LIN":"15鄰","STREET":"安中路","SECT":"四段","MAREA":" ","LANE":"２９０巷","ALLEY":" ","HOUSE_NO":"３７７號","E_COORD97":165281.34,"N_COORD97":2550416.52,"ADDRESS":"安中路四段２９０巷３７７號","OBJECTID":318331},"geometry":{"x":165281.33999999985,"y":2550416.5199999996}},{"attributes":{"ID":318340,"DIS_CODE":0,"TOWNNAME":"安南區","LI":"淵西里","LIN":"15鄰","STREET":"安中路","SECT":"四段","MAREA":" ","LANE":"２９０巷","ALLEY":" ","HOUSE_NO":"３７９號","E_COORD97":165285.64000000001,"N_COORD97":2550418.1000000001,"ADDRESS":"安中路四段２９０巷３７９號","OBJECTID":318332},"geometry":{"x":165285.63999999966,"y":2550418.1000000015}},{"attributes":{"ID":318341,"DIS_CODE":0,"TOWNNAME":"安南區","LI":"淵西里","LIN":"15鄰","STREET":"安中路","SECT":"四段","MAREA":" ","LANE":"２９０巷","ALLEY":" ","HOUSE_NO":"３８１號","E_COORD97":165289.26000000001,"N_COORD97":2550420.3599999999,"ADDRESS":"安中路四段２９０巷３８１號","OBJECTID":318333},"geometry":{"x":165289.26000000071,"y":2550420.3600000013}},{"attributes":{"ID":318342,"DIS_CODE":0,"TOWNNAME":"安南區","LI":"淵西里","LIN":"15鄰","STREET":"安中路","SECT":"四段","MAREA":" ","LANE":"２９０巷","ALLEY":" ","HOUSE_NO":"３８３號","E_COORD97":165293.54999999999,"N_COORD97":2550424.2000000002,"ADDRESS":"安中路四段２９０巷３８３號","OBJECTID":318334},"geometry":{"x":165293.54999999888,"y":2550424.2000000011}},{"attributes":{"ID":318343,"DIS_CODE":0,"TOWNNAME":"安南區","LI":"溪心里","LIN":"15鄰","STREET":"仁安一街","SECT":" ","MAREA":" ","LANE":"２０７巷","ALLEY":" ","HOUSE_NO":"１４號","E_COORD97":165918.89000000001,"N_COORD97":2550426.3199999998,"ADDRESS":"仁安一街２０７巷１４號","OBJECTID":318335},"geometry":{"x":165918.8900000006,"y":2550426.3200000003}},{"attributes":{"ID":318344,"DIS_CODE":0,"TOWNNAME":"東區","LI":"大同里","LIN":"17鄰","STREET":"府連路","SECT":" ","MAREA":" ","LANE":" ","ALLEY":" ","HOUSE_NO":"２２２號二樓之２","E_COORD97":169344.28,"N_COORD97":2542850.2200000002,"ADDRESS":"府連路２２２號二樓之２","OBJECTID":318336},"geometry":{"x":169344.28000000119,"y":2542850.2199999988}},{"attributes":{"ID":318345,"DIS_CODE":0,"TOWNNAME":"東區","LI":"大同里","LIN":"17鄰","STREET":"府連路","SECT":" ","MAREA":" ","LANE":" ","ALLEY":" ","HOUSE_NO":"２２２號二樓之３","E_COORD97":169344.28,"N_COORD97":2542850.2200000002,"ADDRESS":"府連路２２２號二樓之３","OBJECTID":318337},"geometry":{"x":169344.28000000119,"y":2542850.2199999988}},{"attributes":{"ID":318346,"DIS_CODE":0,"TOWNNAME":"鹽水區","LI":"飯店里","LIN":"4鄰","STREET":" ","SECT":" ","MAREA":"飯店","LANE":" ","ALLEY":" ","HOUSE_NO":"２２號","E_COORD97":169550.92999999999,"N_COORD97":2575158.7000000002,"ADDRESS":"飯店２２號","OBJECTID":318338},"geometry":{"x":169550.93000000156,"y":2575158.6999999993}},{"attributes":{"ID":318347,"DIS_CODE":0,"TOWNNAME":"歸仁區","LI":"看西里","LIN":"2鄰","STREET":"成功六街","SECT":" ","MAREA":" ","LANE":"１１６巷","ALLEY":" ","HOUSE_NO":"１６號","E_COORD97":178428.03107699999,"N_COORD97":2540337.5646799998,"ADDRESS":"成功六街１１６巷１６號","OBJECTID":318339},"geometry":{"x":178428.03107700218,"y":2540337.5646790005}},{"attributes":{"ID":318348,"DIS_CODE":0,"TOWNNAME":"南區","LI":"新興里","LIN":"22鄰","STREET":"灣裡路","SECT":" ","MAREA":" ","LANE":"４００巷","ALLEY":" ","HOUSE_NO":"３７號","E_COORD97":166036.78,"N_COORD97":2536137.3300000001,"ADDRESS":"灣裡路４００巷３７號","OBJECTID":318340},"geometry":{"x":166036.78000000212,"y":2536137.3300000019}},{"attributes":{"ID":318349,"DIS_CODE":0,"TOWNNAME":"歸仁區","LI":"後市里","LIN":"14鄰","STREET":"大吉一街","SECT":" ","MAREA":" ","LANE":"１２巷","ALLEY":" ","HOUSE_NO":"１號","E_COORD97":177149.51999999999,"N_COORD97":2540759.8599999999,"ADDRESS":"大吉一街１２巷１號","OBJECTID":318341},"geometry":{"x":177149.51999999955,"y":2540759.8600000031}},{"attributes":{"ID":318350,"DIS_CODE":0,"TOWNNAME":"南區","LI":"新興里","LIN":"22鄰","STREET":"國民路","SECT":" ","MAREA":" ","LANE":"５３２巷","ALLEY":" ","HOUSE_NO":"１號","E_COORD97":168508.94,"N_COORD97":2541633.3100000001,"ADDRESS":"國民路５３２巷１號","OBJECTID":318342},"geometry":{"x":168508.94000000041,"y":2541633.3100000024}},{"attributes":{"ID":318351,"DIS_CODE":0,"TOWNNAME":"南區","LI":"新興里","LIN":"22鄰","STREET":"國民路","SECT":" ","MAREA":" ","LANE":"５３２巷","ALLEY":" ","HOUSE_NO":"２號","E_COORD97":168522.12,"N_COORD97":2541615.0600000001,"ADDRESS":"國民路５３２巷２號","OBJECTID":318343},"geometry":{"x":168522.12000000011,"y":2541615.0600000024}},{"attributes":{"ID":318352,"DIS_CODE":0,"TOWNNAME":"南區","LI":"廣州里","LIN":"13鄰","STREET":"福吉二街","SECT":" ","MAREA":" ","LANE":"４８巷","ALLEY":" ","HOUSE_NO":"３號","E_COORD97":167310.44,"N_COORD97":2542767.9199999999,"ADDRESS":"福吉二街４８巷３號","OBJECTID":318344},"geometry":{"x":167310.44000000041,"y":2542767.9200000018}},{"attributes":{"ID":318353,"DIS_CODE":0,"TOWNNAME":"南區","LI":"竹溪里","LIN":"4鄰","STREET":"體育路","SECT":" ","MAREA":" ","LANE":"４１巷","ALLEY":" ","HOUSE_NO":"３６號","E_COORD97":168861.01999999999,"N_COORD97":2542237.5800000001,"ADDRESS":"體育路４１巷３６號","OBJECTID":318345},"geometry":{"x":168861.02000000048,"y":2542237.5800000019}},{"attributes":{"ID":318354,"DIS_CODE":0,"TOWNNAME":"安南區","LI":"溪心里","LIN":"15鄰","STREET":"仁安一街","SECT":" ","MAREA":" ","LANE":"２０７巷","ALLEY":" ","HOUSE_NO":"１５號","E_COORD97":165871.34,"N_COORD97":2550446.9199999999,"ADDRESS":"仁安一街２０７巷１５號","OBJECTID":318346},"geometry":{"x":165871.33999999985,"y":2550446.9200000018}},{"attributes":{"ID":318355,"DIS_CODE":0,"TOWNNAME":"安南區","LI":"溪心里","LIN":"15鄰","STREET":"仁安一街","SECT":" ","MAREA":" ","LANE":"２０７巷","ALLEY":" ","HOUSE_NO":"１６號","E_COORD97":165915.5,"N_COORD97":2550430.73,"ADDRESS":"仁安一街２０７巷１６號","OBJECTID":318347},"geometry":{"x":165915.5,"y":2550430.7299999986}},{"attributes":{"ID":318356,"DIS_CODE":0,"TOWNNAME":"安南區","LI":"溪心里","LIN":"15鄰","STREET":"仁安一街","SECT":" ","MAREA":" ","LANE":"２０７巷","ALLEY":" ","HOUSE_NO":"２０號","E_COORD97":165911.97,"N_COORD97":2550443.8100000001,"ADDRESS":"仁安一街２０７巷２０號","OBJECTID":318348},"geometry":{"x":165911.97000000067,"y":2550443.8099999987}},{"attributes":{"ID":318357,"DIS_CODE":0,"TOWNNAME":"安南區","LI":"溪心里","LIN":"15鄰","STREET":"仁安一街","SECT":" ","MAREA":" ","LANE":"２０７巷","ALLEY":" ","HOUSE_NO":"２２號","E_COORD97":165908.89000000001,"N_COORD97":2550446.7400000002,"ADDRESS":"仁安一街２０７巷２２號","OBJECTID":318349},"geometry":{"x":165908.8900000006,"y":2550446.7400000002}},{"attributes":{"ID":318358,"DIS_CODE":0,"TOWNNAME":"安南區","LI":"溪心里","LIN":"15鄰","STREET":"本原街","SECT":"二段","MAREA":" ","LANE":"５１３巷","ALLEY":" ","HOUSE_NO":"１０號","E_COORD97":165919.76999999999,"N_COORD97":2550480.3399999999,"ADDRESS":"本原街二段５１３巷１０號","OBJECTID":318350},"geometry":{"x":165919.77000000048,"y":2550480.3400000036}},{"attributes":{"ID":318359,"DIS_CODE":0,"TOWNNAME":"東區","LI":"大同里","LIN":"17鄰","STREET":"府連路","SECT":" ","MAREA":" ","LANE":" ","ALLEY":" ","HOUSE_NO":"２２２號二樓之４","E_COORD97":169344.28,"N_COORD97":2542850.2200000002,"ADDRESS":"府連路２２２號二樓之４","OBJECTID":318351},"geometry":{"x":169344.28000000119,"y":2542850.2199999988}},{"attributes":{"ID":318360,"DIS_CODE":0,"TOWNNAME":"東區","LI":"大同里","LIN":"17鄰","STREET":"府連路","SECT":" ","MAREA":" ","LANE":" ","ALLEY":" ","HOUSE_NO":"２２２號二樓之５","E_COORD97":169344.28,"N_COORD97":2542850.2200000002,"ADDRESS":"府連路２２２號二樓之５","OBJECTID":318352},"geometry":{"x":169344.28000000119,"y":2542850.2199999988}},{"attributes":{"ID":318361,"DIS_CODE":0,"TOWNNAME":"東區","LI":"大同里","LIN":"17鄰","STREET":"府連路","SECT":" ","MAREA":" ","LANE":" ","ALLEY":" ","HOUSE_NO":"２２２號二樓之６","E_COORD97":169344.28,"N_COORD97":2542850.2200000002,"ADDRESS":"府連路２２２號二樓之６","OBJECTID":318353},"geometry":{"x":169344.28000000119,"y":2542850.2199999988}},{"attributes":{"ID":318362,"DIS_CODE":0,"TOWNNAME":"東區","LI":"大同里","LIN":"17鄰","STREET":"府連路","SECT":" ","MAREA":" ","LANE":" ","ALLEY":" ","HOUSE_NO":"２２２號三樓之１","E_COORD97":169344.28,"N_COORD97":2542850.2200000002,"ADDRESS":"府連路２２２號三樓之１","OBJECTID":318354},"geometry":{"x":169344.28000000119,"y":2542850.2199999988}},{"attributes":{"ID":318363,"DIS_CODE":0,"TOWNNAME":"東區","LI":"大同里","LIN":"17鄰","STREET":"府連路","SECT":" ","MAREA":" ","LANE":" ","ALLEY":" ","HOUSE_NO":"２２２號三樓之２","E_COORD97":169344.28,"N_COORD97":2542850.2200000002,"ADDRESS":"府連路２２２號三樓之２","OBJECTID":318355},"geometry":{"x":169344.28000000119,"y":2542850.2199999988}},{"attributes":{"ID":318364,"DIS_CODE":0,"TOWNNAME":"東區","LI":"大同里","LIN":"17鄰","STREET":"府連路","SECT":" ","MAREA":" ","LANE":" ","ALLEY":" ","HOUSE_NO":"２２２號三樓之３","E_COORD97":169344.28,"N_COORD97":2542850.2200000002,"ADDRESS":"府連路２２２號三樓之３","OBJECTID":318356},"geometry":{"x":169344.28000000119,"y":2542850.2199999988}},{"attributes":{"ID":318365,"DIS_CODE":0,"TOWNNAME":"鹽水區","LI":"飯店里","LIN":"8鄰","STREET":" ","SECT":" ","MAREA":"麻油寮","LANE":" ","ALLEY":" ","HOUSE_NO":"１８號","E_COORD97":169358.76000000001,"N_COORD97":2573782.6400000001,"ADDRESS":"麻油寮１８號","OBJECTID":318357},"geometry":{"x":169358.75999999978,"y":2573782.6400000025}},{"attributes":{"ID":318366,"DIS_CODE":0,"TOWNNAME":"歸仁區","LI":"看東里","LIN":"14鄰","STREET":"中山一街","SECT":" ","MAREA":" ","LANE":"１２巷","ALLEY":" ","HOUSE_NO":"５號","E_COORD97":178588.87658499999,"N_COORD97":2540581.8390799998,"ADDRESS":"中山一街１２巷５號","OBJECTID":318358},"geometry":{"x":178588.87658500113,"y":2540581.8390800003}},{"attributes":{"ID":318367,"DIS_CODE":0,"TOWNNAME":"歸仁區","LI":"看西里","LIN":"2鄰","STREET":"成功六街","SECT":" ","MAREA":" ","LANE":"１１６巷","ALLEY":" ","HOUSE_NO":"１８號","E_COORD97":178432.58622600001,"N_COORD97":2540337.3530100002,"ADDRESS":"成功六街１１６巷１８號","OBJECTID":318359},"geometry":{"x":178432.58622600045,"y":2540337.3530130032}},{"attributes":{"ID":318368,"DIS_CODE":0,"TOWNNAME":"南區","LI":"田寮里","LIN":"7鄰","STREET":"新興路","SECT":" ","MAREA":" ","LANE":"２１７巷","ALLEY":" ","HOUSE_NO":"２１號","E_COORD97":167403.13,"N_COORD97":2541926.3700000001,"ADDRESS":"新興路２１７巷２１號","OBJECTID":318360},"geometry":{"x":167403.12999999989,"y":2541926.370000001}},{"attributes":{"ID":318369,"DIS_CODE":0,"TOWNNAME":"南區","LI":"田寮里","LIN":"8鄰","STREET":"新興路","SECT":" ","MAREA":" ","LANE":"１８３巷","ALLEY":" ","HOUSE_NO":"４號","E_COORD97":167397.45000000001,"N_COORD97":2541987.2999999998,"ADDRESS":"新興路１８３巷４號","OBJECTID":318361},"geometry":{"x":167397.45000000112,"y":2541987.3000000007}},{"attributes":{"ID":318370,"DIS_CODE":0,"TOWNNAME":"安南區","LI":"溪心里","LIN":"15鄰","STREET":"本原街","SECT":"二段","MAREA":" ","LANE":"５１３巷","ALLEY":" ","HOUSE_NO":"１２號","E_COORD97":165921.82999999999,"N_COORD97":2550476.0800000001,"ADDRESS":"本原街二段５１３巷１２號","OBJECTID":318362},"geometry":{"x":165921.83000000007,"y":2550476.0800000019}},{"attributes":{"ID":318371,"DIS_CODE":0,"TOWNNAME":"東區","LI":"大同里","LIN":"17鄰","STREET":"府連路","SECT":" ","MAREA":" ","LANE":" ","ALLEY":" ","HOUSE_NO":"２２２號三樓之４","E_COORD97":169344.28,"N_COORD97":2542850.2200000002,"ADDRESS":"府連路２２２號三樓之４","OBJECTID":318363},"geometry":{"x":169344.28000000119,"y":2542850.2199999988}},{"attributes":{"ID":318372,"DIS_CODE":0,"TOWNNAME":"東區","LI":"大同里","LIN":"17鄰","STREET":"府連路","SECT":" ","MAREA":" ","LANE":" ","ALLEY":" ","HOUSE_NO":"２２２號五樓之１","E_COORD97":169344.28,"N_COORD97":2542850.2200000002,"ADDRESS":"府連路２２２號五樓之１","OBJECTID":318364},"geometry":{"x":169344.28000000119,"y":2542850.2199999988}},{"attributes":{"ID":318373,"DIS_CODE":0,"TOWNNAME":"新市區","LI":"新和里","LIN":"8鄰","STREET":"仁愛街","SECT":" ","MAREA":" ","LANE":" ","ALLEY":" ","HOUSE_NO":"１１５號","E_COORD97":177546.43389499999,"N_COORD97":2552569.8321600002,"ADDRESS":"仁愛街１１５號","OBJECTID":318365},"geometry":{"x":177546.43389499933,"y":2552569.8321600016}},{"attributes":{"ID":318374,"DIS_CODE":0,"TOWNNAME":"南區","LI":"新昌里","LIN":"8鄰","STREET":"五妃街","SECT":" ","MAREA":" ","LANE":"３８６巷","ALLEY":" ","HOUSE_NO":"１１號","E_COORD97":167577.62,"N_COORD97":2542657.4700000002,"ADDRESS":"五妃街３８６巷１１號","OBJECTID":318366},"geometry":{"x":167577.62000000104,"y":2542657.4700000007}},{"attributes":{"ID":318375,"DIS_CODE":0,"TOWNNAME":"南區","LI":"新昌里","LIN":"8鄰","STREET":"五妃街","SECT":" ","MAREA":" ","LANE":"３８６巷","ALLEY":" ","HOUSE_NO":"２１號","E_COORD97":167581.35000000001,"N_COORD97":2542682.1099999999,"ADDRESS":"五妃街３８６巷２１號","OBJECTID":318367},"geometry":{"x":167581.34999999963,"y":2542682.1099999994}},{"attributes":{"ID":318376,"DIS_CODE":0,"TOWNNAME":"南區","LI":"新昌里","LIN":"8鄰","STREET":"五妃街","SECT":" ","MAREA":" ","LANE":"３８６巷","ALLEY":" ","HOUSE_NO":"３號","E_COORD97":167571.78,"N_COORD97":2542634.21,"ADDRESS":"五妃街３８６巷３號","OBJECTID":318368},"geometry":{"x":167571.78000000026,"y":2542634.2100000028}},{"attributes":{"ID":318377,"DIS_CODE":0,"TOWNNAME":"南區","LI":"新昌里","LIN":"8鄰","STREET":"五妃街","SECT":" ","MAREA":" ","LANE":"３８６巷","ALLEY":" ","HOUSE_NO":"５號","E_COORD97":167572.10000000001,"N_COORD97":2542639.7200000002,"ADDRESS":"五妃街３８６巷５號","OBJECTID":318369},"geometry":{"x":167572.10000000056,"y":2542639.7200000007}},{"attributes":{"ID":318378,"DIS_CODE":0,"TOWNNAME":"南區","LI":"田寮里","LIN":"15鄰","STREET":"新興路","SECT":" ","MAREA":" ","LANE":"４１巷","ALLEY":" ","HOUSE_NO":"２２號","E_COORD97":167657.23000000001,"N_COORD97":2542141.3999999999,"ADDRESS":"新興路４１巷２２號","OBJECTID":318370},"geometry":{"x":167657.23000000045,"y":2542141.4000000022}},{"attributes":{"ID":318379,"DIS_CODE":0,"TOWNNAME":"南區","LI":"白雪里","LIN":"17鄰","STREET":"鹽埕路","SECT":" ","MAREA":" ","LANE":"１６０巷","ALLEY":" ","HOUSE_NO":"２號","E_COORD97":166839.81,"N_COORD97":2541035,"ADDRESS":"鹽埕路１６０巷２號","OBJECTID":318371},"geometry":{"x":166839.81000000052,"y":2541035.0000000019}},{"attributes":{"ID":318380,"DIS_CODE":0,"TOWNNAME":"南區","LI":"竹溪里","LIN":"6鄰","STREET":"體育路","SECT":" ","MAREA":" ","LANE":"２１巷","ALLEY":" ","HOUSE_NO":"３８號","E_COORD97":168850.22,"N_COORD97":2542332.77,"ADDRESS":"體育路２１巷３８號","OBJECTID":318372},"geometry":{"x":168850.21999999974,"y":2542332.7699999996}},{"attributes":{"ID":318381,"DIS_CODE":0,"TOWNNAME":"南區","LI":"竹溪里","LIN":"4鄰","STREET":"體育路","SECT":" ","MAREA":" ","LANE":"４１巷","ALLEY":" ","HOUSE_NO":"３２號","E_COORD97":168833.41,"N_COORD97":2542237.04,"ADDRESS":"體育路４１巷３２號","OBJECTID":318373},"geometry":{"x":168833.41000000108,"y":2542237.040000001}},{"attributes":{"ID":318382,"DIS_CODE":0,"TOWNNAME":"安南區","LI":"溪心里","LIN":"15鄰","STREET":"本原街","SECT":"二段","MAREA":" ","LANE":"５１３巷","ALLEY":" ","HOUSE_NO":"１４號","E_COORD97":165925.20999999999,"N_COORD97":2550473.29,"ADDRESS":"本原街二段５１３巷１４號","OBJECTID":318374},"geometry":{"x":165925.21000000089,"y":2550473.2900000028}},{"attributes":{"ID":318383,"DIS_CODE":0,"TOWNNAME":"安南區","LI":"溪心里","LIN":"15鄰","STREET":"本原街","SECT":"二段","MAREA":" ","LANE":"５１３巷","ALLEY":" ","HOUSE_NO":"１６號","E_COORD97":165927.70999999999,"N_COORD97":2550469.4700000002,"ADDRESS":"本原街二段５１３巷１６號","OBJECTID":318375},"geometry":{"x":165927.70999999996,"y":2550469.4700000007}},{"attributes":{"ID":318384,"DIS_CODE":0,"TOWNNAME":"安南區","LI":"溪心里","LIN":"15鄰","STREET":"本原街","SECT":"二段","MAREA":" ","LANE":"５１３巷","ALLEY":" ","HOUSE_NO":"１８號","E_COORD97":165930.64999999999,"N_COORD97":2550466.2400000002,"ADDRESS":"本原街二段５１３巷１８號","OBJECTID":318376},"geometry":{"x":165930.65000000037,"y":2550466.2400000021}},{"attributes":{"ID":318385,"DIS_CODE":0,"TOWNNAME":"東區","LI":"大同里","LIN":"17鄰","STREET":"府連路","SECT":" ","MAREA":" ","LANE":" ","ALLEY":" ","HOUSE_NO":"２２２號五樓之２","E_COORD97":169344.28,"N_COORD97":2542850.2200000002,"ADDRESS":"府連路２２２號五樓之２","OBJECTID":318377},"geometry":{"x":169344.28000000119,"y":2542850.2199999988}},{"attributes":{"ID":318386,"DIS_CODE":0,"TOWNNAME":"東區","LI":"大同里","LIN":"17鄰","STREET":"府連路","SECT":" ","MAREA":" ","LANE":" ","ALLEY":" ","HOUSE_NO":"２２２號五樓之３","E_COORD97":169344.28,"N_COORD97":2542850.2200000002,"ADDRESS":"府連路２２２號五樓之３","OBJECTID":318378},"geometry":{"x":169344.28000000119,"y":2542850.2199999988}},{"attributes":{"ID":318387,"DIS_CODE":0,"TOWNNAME":"東區","LI":"大同里","LIN":"17鄰","STREET":"府連路","SECT":" ","MAREA":" ","LANE":" ","ALLEY":" ","HOUSE_NO":"２２２號五樓之４","E_COORD97":169344.28,"N_COORD97":2542850.2200000002,"ADDRESS":"府連路２２２號五樓之４","OBJECTID":318379},"geometry":{"x":169344.28000000119,"y":2542850.2199999988}},{"attributes":{"ID":318388,"DIS_CODE":0,"TOWNNAME":"東區","LI":"大同里","LIN":"17鄰","STREET":"府連路","SECT":" ","MAREA":" ","LANE":" ","ALLEY":" ","HOUSE_NO":"２２２號四樓之１","E_COORD97":169344.28,"N_COORD97":2542850.2200000002,"ADDRESS":"府連路２２２號四樓之１","OBJECTID":318380},"geometry":{"x":169344.28000000119,"y":2542850.2199999988}},{"attributes":{"ID":318389,"DIS_CODE":0,"TOWNNAME":"東區","LI":"大同里","LIN":"17鄰","STREET":"府連路","SECT":" ","MAREA":" ","LANE":" ","ALLEY":" ","HOUSE_NO":"２２２號四樓之２","E_COORD97":169344.28,"N_COORD97":2542850.2200000002,"ADDRESS":"府連路２２２號四樓之２","OBJECTID":318381},"geometry":{"x":169344.28000000119,"y":2542850.2199999988}},{"attributes":{"ID":318390,"DIS_CODE":0,"TOWNNAME":"東區","LI":"大同里","LIN":"17鄰","STREET":"府連路","SECT":" ","MAREA":" ","LANE":" ","ALLEY":" ","HOUSE_NO":"２２２號四樓之３","E_COORD97":169344.28,"N_COORD97":2542850.2200000002,"ADDRESS":"府連路２２２號四樓之３","OBJECTID":318382},"geometry":{"x":169344.28000000119,"y":2542850.2199999988}},{"attributes":{"ID":318391,"DIS_CODE":0,"TOWNNAME":"東區","LI":"大同里","LIN":"17鄰","STREET":"府連路","SECT":" ","MAREA":" ","LANE":" ","ALLEY":" ","HOUSE_NO":"２２２號四樓之５","E_COORD97":169344.28,"N_COORD97":2542850.2200000002,"ADDRESS":"府連路２２２號四樓之５","OBJECTID":318383},"geometry":{"x":169344.28000000119,"y":2542850.2199999988}},{"attributes":{"ID":318392,"DIS_CODE":0,"TOWNNAME":"歸仁區","LI":"看東里","LIN":"14鄰","STREET":"中山一街","SECT":" ","MAREA":" ","LANE":"１２巷","ALLEY":" ","HOUSE_NO":"７號","E_COORD97":178583.57861900001,"N_COORD97":2540580.7807499999,"ADDRESS":"中山一街１２巷７號","OBJECTID":318384},"geometry":{"x":178583.57861899957,"y":2540580.780747002}},{"attributes":{"ID":318393,"DIS_CODE":0,"TOWNNAME":"佳里區","LI":"忠仁里","LIN":"2鄰","STREET":"延平路","SECT":" ","MAREA":" ","LANE":" ","ALLEY":" ","HOUSE_NO":"２３５號","E_COORD97":165862.33977600001,"N_COORD97":2562222.3138299999,"ADDRESS":"延平路２３５號","OBJECTID":318385},"geometry":{"x":165862.33977600094,"y":2562222.3138300013}},{"attributes":{"ID":318394,"DIS_CODE":0,"TOWNNAME":"麻豆區","LI":"大埕里","LIN":"9鄰","STREET":" ","SECT":" ","MAREA":"大埕","LANE":" ","ALLEY":" ","HOUSE_NO":"４５號","E_COORD97":173072.73999999999,"N_COORD97":2565371.96,"ADDRESS":"大埕４５號","OBJECTID":318386},"geometry":{"x":173072.74000000115,"y":2565371.9600000028}},{"attributes":{"ID":318395,"DIS_CODE":0,"TOWNNAME":"南區","LI":"大忠里","LIN":"17鄰","STREET":"大同路","SECT":"二段","MAREA":" ","LANE":"６２０巷","ALLEY":" ","HOUSE_NO":"１４號","E_COORD97":169473.31,"N_COORD97":2541092.6099999999,"ADDRESS":"大同路二段６２０巷１４號","OBJECTID":318387},"geometry":{"x":169473.30999999959,"y":2541092.6099999994}},{"attributes":{"ID":318396,"DIS_CODE":0,"TOWNNAME":"南區","LI":"大忠里","LIN":"17鄰","STREET":"大同路","SECT":"二段","MAREA":" ","LANE":"６２０巷","ALLEY":" ","HOUSE_NO":"１６號","E_COORD97":169468.31,"N_COORD97":2541091.6499999999,"ADDRESS":"大同路二段６２０巷１６號","OBJECTID":318388},"geometry":{"x":169468.30999999959,"y":2541091.6500000022}},{"attributes":{"ID":318397,"DIS_CODE":0,"TOWNNAME":"南區","LI":"大忠里","LIN":"17鄰","STREET":"大同路","SECT":"二段","MAREA":" ","LANE":"６２０巷","ALLEY":" ","HOUSE_NO":"１８號","E_COORD97":169463.51000000001,"N_COORD97":2541089.9199999999,"ADDRESS":"大同路二段６２０巷１８號","OBJECTID":318389},"geometry":{"x":169463.50999999978,"y":2541089.9200000018}},{"attributes":{"ID":318398,"DIS_CODE":0,"TOWNNAME":"南區","LI":"建南里","LIN":"7鄰","STREET":"德興路","SECT":" ","MAREA":" ","LANE":"１９０巷","ALLEY":" ","HOUSE_NO":"１號","E_COORD97":167180.97,"N_COORD97":2540203.6600000001,"ADDRESS":"德興路１９０巷１號","OBJECTID":318390},"geometry":{"x":167180.9700000016,"y":2540203.660000002}},{"attributes":{"ID":318399,"DIS_CODE":0,"TOWNNAME":"安南區","LI":"溪心里","LIN":"15鄰","STREET":"本原街","SECT":"二段","MAREA":" ","LANE":"５１３巷","ALLEY":" ","HOUSE_NO":"２０號","E_COORD97":165934.03,"N_COORD97":2550463.2999999998,"ADDRESS":"本原街二段５１３巷２０號","OBJECTID":318391},"geometry":{"x":165934.03000000119,"y":2550463.3000000007}},{"attributes":{"ID":318400,"DIS_CODE":0,"TOWNNAME":"安南區","LI":"溪心里","LIN":"15鄰","STREET":"本原街","SECT":"二段","MAREA":" ","LANE":"５１３巷","ALLEY":" ","HOUSE_NO":"２２號","E_COORD97":165936.38,"N_COORD97":2550459.9199999999,"ADDRESS":"本原街二段５１３巷２２號","OBJECTID":318392},"geometry":{"x":165936.38000000082,"y":2550459.9200000037}},{"attributes":{"ID":318401,"DIS_CODE":0,"TOWNNAME":"安南區","LI":"溪心里","LIN":"15鄰","STREET":"本原街","SECT":"二段","MAREA":" ","LANE":"５１３巷","ALLEY":" ","HOUSE_NO":"２４號","E_COORD97":165939.03,"N_COORD97":2550455.6600000001,"ADDRESS":"本原街二段５１３巷２４號","OBJECTID":318393},"geometry":{"x":165939.03000000119,"y":2550455.660000002}},{"attributes":{"ID":318402,"DIS_CODE":0,"TOWNNAME":"安南區","LI":"溪心里","LIN":"15鄰","STREET":"本原街","SECT":"二段","MAREA":" ","LANE":"５１３巷","ALLEY":" ","HOUSE_NO":"２６號","E_COORD97":165941.45000000001,"N_COORD97":2550453.04,"ADDRESS":"本原街二段５１３巷２６號","OBJECTID":318394},"geometry":{"x":165941.45000000019,"y":2550453.0399999991}},{"attributes":{"ID":318403,"DIS_CODE":0,"TOWNNAME":"安南區","LI":"溪心里","LIN":"15鄰","STREET":"本原街","SECT":"二段","MAREA":" ","LANE":"５１３巷","ALLEY":" ","HOUSE_NO":"３０號","E_COORD97":165954.20000000001,"N_COORD97":2550451.0800000001,"ADDRESS":"本原街二段５１３巷３０號","OBJECTID":318395},"geometry":{"x":165954.20000000205,"y":2550451.0800000001}},{"attributes":{"ID":318404,"DIS_CODE":0,"TOWNNAME":"安南區","LI":"溪心里","LIN":"15鄰","STREET":"本原街","SECT":"二段","MAREA":" ","LANE":"５１３巷","ALLEY":" ","HOUSE_NO":"３２號","E_COORD97":165958.20000000001,"N_COORD97":2550447.27,"ADDRESS":"本原街二段５１３巷３２號","OBJECTID":318396},"geometry":{"x":165958.20000000112,"y":2550447.2700000014}},{"attributes":{"ID":318405,"DIS_CODE":0,"TOWNNAME":"東區","LI":"崇文里","LIN":"17鄰","STREET":"崇德二十街","SECT":" ","MAREA":" ","LANE":" ","ALLEY":" ","HOUSE_NO":"１９號二樓","E_COORD97":170871.89999999999,"N_COORD97":2540925.73,"ADDRESS":"崇德二十街１９號二樓","OBJECTID":318397},"geometry":{"x":170871.90000000037,"y":2540925.7300000023}},{"attributes":{"ID":318406,"DIS_CODE":0,"TOWNNAME":"東區","LI":"崇文里","LIN":"17鄰","STREET":"崇德二十街","SECT":" ","MAREA":" ","LANE":" ","ALLEY":" ","HOUSE_NO":"１９號三樓","E_COORD97":170871.89999999999,"N_COORD97":2540925.73,"ADDRESS":"崇德二十街１９號三樓","OBJECTID":318398},"geometry":{"x":170871.90000000037,"y":2540925.7300000023}},{"attributes":{"ID":318407,"DIS_CODE":0,"TOWNNAME":"東區","LI":"崇文里","LIN":"17鄰","STREET":"崇德二十街","SECT":" ","MAREA":" ","LANE":" ","ALLEY":" ","HOUSE_NO":"１９號五樓","E_COORD97":170871.89999999999,"N_COORD97":2540925.73,"ADDRESS":"崇德二十街１９號五樓","OBJECTID":318399},"geometry":{"x":170871.90000000037,"y":2540925.7300000023}},{"attributes":{"ID":318408,"DIS_CODE":0,"TOWNNAME":"東區","LI":"崇文里","LIN":"17鄰","STREET":"崇德二十街","SECT":" ","MAREA":" ","LANE":" ","ALLEY":" ","HOUSE_NO":"１９號六樓","E_COORD97":170871.89999999999,"N_COORD97":2540925.73,"ADDRESS":"崇德二十街１９號六樓","OBJECTID":318400},"geometry":{"x":170871.90000000037,"y":2540925.7300000023}}]}