{"displayFieldName":"TOWNNAME","fieldAliases":{"ID":"ID","DIS_CODE":"DIS_CODE","TOWNNAME":"TOWNNAME","LI":"LI","LIN":"LIN","STREET":"STREET","SECT":"SECT","MAREA":"MAREA","LANE":"LANE","ALLEY":"ALLEY","HOUSE_NO":"HOUSE_NO","E_COORD97":"E_COORD97","N_COORD97":"N_COORD97","ADDRESS":"ADDRESS","OBJECTID":"OBJECTID"},"geometryType":"esriGeometryPoint","spatialReference":{"wkid":102443,"latestWkid":3826},"fields":[{"name":"ID","type":"esriFieldTypeDouble","alias":"ID"},{"name":"DIS_CODE","type":"esriFieldTypeInteger","alias":"DIS_CODE"},{"name":"TOWNNAME","type":"esriFieldTypeString","alias":"TOWNNAME","length":8},{"name":"LI","type":"esriFieldTypeString","alias":"LI","length":8},{"name":"LIN","type":"esriFieldTypeString","alias":"LIN","length":12},{"name":"STREET","type":"esriFieldTypeString","alias":"STREET","length":20},{"name":"SECT","type":"esriFieldTypeString","alias":"SECT","length":8},{"name":"MAREA","type":"esriFieldTypeString","alias":"MAREA","length":12},{"name":"LANE","type":"esriFieldTypeString","alias":"LANE","length":10},{"name":"ALLEY","type":"esriFieldTypeString","alias":"ALLEY","length":10},{"name":"HOUSE_NO","type":"esriFieldTypeString","alias":"HOUSE_NO","length":20},{"name":"E_COORD97","type":"esriFieldTypeDouble","alias":"E_COORD97"},{"name":"N_COORD97","type":"esriFieldTypeDouble","alias":"N_COORD97"},{"name":"ADDRESS","type":"esriFieldTypeString","alias":"ADDRESS","length":50},{"name":"OBJECTID","type":"esriFieldTypeOID","alias":"OBJECTID"}],"features":[{"attributes":{"ID":302209,"DIS_CODE":0,"TOWNNAME":"仁德區","LI":"仁德里","LIN":"39鄰","STREET":"文宏路","SECT":" ","MAREA":" ","LANE":" ","ALLEY":" ","HOUSE_NO":"１９２號","E_COORD97":172452.404583,"N_COORD97":2541873.6228700001,"ADDRESS":"文宏路１９２號","OBJECTID":302201},"geometry":{"x":172452.40458300058,"y":2541873.6228730027}},{"attributes":{"ID":302210,"DIS_CODE":0,"TOWNNAME":"仁德區","LI":"仁德里","LIN":"39鄰","STREET":"文宏路","SECT":" ","MAREA":" ","LANE":" ","ALLEY":" ","HOUSE_NO":"１９６號","E_COORD97":172448.168061,"N_COORD97":2541873.8345400002,"ADDRESS":"文宏路１９６號","OBJECTID":302202},"geometry":{"x":172448.16806100123,"y":2541873.8345389999}},{"attributes":{"ID":302211,"DIS_CODE":0,"TOWNNAME":"新營區","LI":"新南里","LIN":"2鄰","STREET":"新北一街","SECT":" ","MAREA":" ","LANE":" ","ALLEY":" ","HOUSE_NO":"３號","E_COORD97":178849.955346,"N_COORD97":2578644.24462,"ADDRESS":"新北一街３號","OBJECTID":302203},"geometry":{"x":178849.95534599945,"y":2578644.2446180023}},{"attributes":{"ID":302212,"DIS_CODE":0,"TOWNNAME":"安南區","LI":"顯宮里","LIN":"8鄰","STREET":"媽祖宮五街","SECT":" ","MAREA":" ","LANE":" ","ALLEY":" ","HOUSE_NO":"１８０號","E_COORD97":160336.36214899999,"N_COORD97":2548930.7739499998,"ADDRESS":"媽祖宮五街１８０號","OBJECTID":302204},"geometry":{"x":160336.36214900017,"y":2548930.7739530001}},{"attributes":{"ID":302213,"DIS_CODE":0,"TOWNNAME":"歸仁區","LI":"武東里","LIN":"8鄰","STREET":"武東一街","SECT":" ","MAREA":" ","LANE":"４９巷","ALLEY":" ","HOUSE_NO":"７０號五樓之７","E_COORD97":175800.20000000001,"N_COORD97":2535538.2999999998,"ADDRESS":"武東一街４９巷７０號五樓之７","OBJECTID":302205},"geometry":{"x":175800.20000000112,"y":2535538.3000000026}},{"attributes":{"ID":302214,"DIS_CODE":0,"TOWNNAME":"歸仁區","LI":"武東里","LIN":"8鄰","STREET":"武東一街","SECT":" ","MAREA":" ","LANE":"４９巷","ALLEY":" ","HOUSE_NO":"７０號二樓之６","E_COORD97":175800.23000000001,"N_COORD97":2535538.2999999998,"ADDRESS":"武東一街４９巷７０號二樓之６","OBJECTID":302206},"geometry":{"x":175800.23000000138,"y":2535538.3000000026}},{"attributes":{"ID":302215,"DIS_CODE":0,"TOWNNAME":"歸仁區","LI":"武東里","LIN":"8鄰","STREET":"武東一街","SECT":" ","MAREA":" ","LANE":"４９巷","ALLEY":" ","HOUSE_NO":"６８號三樓之６","E_COORD97":175800.23000000001,"N_COORD97":2535538.2999999998,"ADDRESS":"武東一街４９巷６８號三樓之６","OBJECTID":302207},"geometry":{"x":175800.23000000138,"y":2535538.3000000026}},{"attributes":{"ID":302216,"DIS_CODE":0,"TOWNNAME":"歸仁區","LI":"武東里","LIN":"8鄰","STREET":"武東一街","SECT":" ","MAREA":" ","LANE":"４９巷","ALLEY":" ","HOUSE_NO":"６８號五樓之３","E_COORD97":175800.22,"N_COORD97":2535538.2999999998,"ADDRESS":"武東一街４９巷６８號五樓之３","OBJECTID":302208},"geometry":{"x":175800.21999999974,"y":2535538.3000000026}},{"attributes":{"ID":302217,"DIS_CODE":0,"TOWNNAME":"歸仁區","LI":"武東里","LIN":"8鄰","STREET":"武東一街","SECT":" ","MAREA":" ","LANE":"４９巷","ALLEY":" ","HOUSE_NO":"６６號二樓之４","E_COORD97":175786.51000000001,"N_COORD97":2535537.2599999998,"ADDRESS":"武東一街４９巷６６號二樓之４","OBJECTID":302209},"geometry":{"x":175786.50999999978,"y":2535537.2600000016}},{"attributes":{"ID":302218,"DIS_CODE":0,"TOWNNAME":"歸仁區","LI":"武東里","LIN":"8鄰","STREET":"武東一街","SECT":" ","MAREA":" ","LANE":"４９巷","ALLEY":" ","HOUSE_NO":"６８號五樓之５","E_COORD97":175786.53,"N_COORD97":2535537.2599999998,"ADDRESS":"武東一街４９巷６８號五樓之５","OBJECTID":302210},"geometry":{"x":175786.53000000119,"y":2535537.2600000016}},{"attributes":{"ID":302219,"DIS_CODE":0,"TOWNNAME":"歸仁區","LI":"武東里","LIN":"8鄰","STREET":"武東一街","SECT":" ","MAREA":" ","LANE":"４９巷","ALLEY":" ","HOUSE_NO":"７０號四樓之７","E_COORD97":175786.51999999999,"N_COORD97":2535537.2599999998,"ADDRESS":"武東一街４９巷７０號四樓之７","OBJECTID":302211},"geometry":{"x":175786.51999999955,"y":2535537.2600000016}},{"attributes":{"ID":302220,"DIS_CODE":0,"TOWNNAME":"北區","LI":"公園里","LIN":"8鄰","STREET":"北忠街","SECT":" ","MAREA":" ","LANE":"５８巷","ALLEY":" ","HOUSE_NO":"３１號二樓之１","E_COORD97":169144.51000000001,"N_COORD97":2544431.6000000001,"ADDRESS":"北忠街５８巷３１號二樓之１","OBJECTID":302212},"geometry":{"x":169144.50999999978,"y":2544431.6000000015}},{"attributes":{"ID":302221,"DIS_CODE":0,"TOWNNAME":"北區","LI":"公園里","LIN":"8鄰","STREET":"北忠街","SECT":" ","MAREA":" ","LANE":"５８巷","ALLEY":" ","HOUSE_NO":"３１號二樓之２","E_COORD97":169144.51000000001,"N_COORD97":2544431.6000000001,"ADDRESS":"北忠街５８巷３１號二樓之２","OBJECTID":302213},"geometry":{"x":169144.50999999978,"y":2544431.6000000015}},{"attributes":{"ID":302222,"DIS_CODE":0,"TOWNNAME":"北區","LI":"公園里","LIN":"8鄰","STREET":"北忠街","SECT":" ","MAREA":" ","LANE":"５８巷","ALLEY":" ","HOUSE_NO":"３１號三樓之１","E_COORD97":169144.51000000001,"N_COORD97":2544431.6000000001,"ADDRESS":"北忠街５８巷３１號三樓之１","OBJECTID":302214},"geometry":{"x":169144.50999999978,"y":2544431.6000000015}},{"attributes":{"ID":302223,"DIS_CODE":0,"TOWNNAME":"北區","LI":"公園里","LIN":"8鄰","STREET":"北忠街","SECT":" ","MAREA":" ","LANE":"５８巷","ALLEY":" ","HOUSE_NO":"３１號三樓之２","E_COORD97":169144.51000000001,"N_COORD97":2544431.6000000001,"ADDRESS":"北忠街５８巷３１號三樓之２","OBJECTID":302215},"geometry":{"x":169144.50999999978,"y":2544431.6000000015}},{"attributes":{"ID":302224,"DIS_CODE":0,"TOWNNAME":"北區","LI":"公園里","LIN":"8鄰","STREET":"北忠街","SECT":" ","MAREA":" ","LANE":"５８巷","ALLEY":" ","HOUSE_NO":"３１號五樓之１","E_COORD97":169144.51000000001,"N_COORD97":2544431.6000000001,"ADDRESS":"北忠街５８巷３１號五樓之１","OBJECTID":302216},"geometry":{"x":169144.50999999978,"y":2544431.6000000015}},{"attributes":{"ID":302225,"DIS_CODE":0,"TOWNNAME":"北門區","LI":"保吉里","LIN":"17鄰","STREET":" ","SECT":" ","MAREA":"蚵寮","LANE":" ","ALLEY":" ","HOUSE_NO":"３９５號","E_COORD97":161526.60999999999,"N_COORD97":2576288.8399999999,"ADDRESS":"蚵寮３９５號","OBJECTID":302217},"geometry":{"x":161526.61000000034,"y":2576288.8400000017}},{"attributes":{"ID":302226,"DIS_CODE":0,"TOWNNAME":"新營區","LI":"新南里","LIN":"3鄰","STREET":"新北街","SECT":" ","MAREA":" ","LANE":" ","ALLEY":" ","HOUSE_NO":"１０５之１號","E_COORD97":178730.665656,"N_COORD97":2578812.8370300001,"ADDRESS":"新北街１０５之１號","OBJECTID":302218},"geometry":{"x":178730.66565600038,"y":2578812.8370270021}},{"attributes":{"ID":302227,"DIS_CODE":0,"TOWNNAME":"新營區","LI":"新南里","LIN":"3鄰","STREET":"新北街","SECT":" ","MAREA":" ","LANE":" ","ALLEY":" ","HOUSE_NO":"１５號","E_COORD97":178873.686155,"N_COORD97":2578655.1454400001,"ADDRESS":"新北街１５號","OBJECTID":302219},"geometry":{"x":178873.6861550007,"y":2578655.1454450004}},{"attributes":{"ID":302228,"DIS_CODE":0,"TOWNNAME":"新營區","LI":"新南里","LIN":"3鄰","STREET":"新北街","SECT":" ","MAREA":" ","LANE":" ","ALLEY":" ","HOUSE_NO":"３７號","E_COORD97":178841.90382199999,"N_COORD97":2578689.22376,"ADDRESS":"新北街３７號","OBJECTID":302220},"geometry":{"x":178841.90382200014,"y":2578689.2237600014}},{"attributes":{"ID":302229,"DIS_CODE":0,"TOWNNAME":"新營區","LI":"新南里","LIN":"3鄰","STREET":"新北街","SECT":" ","MAREA":" ","LANE":" ","ALLEY":" ","HOUSE_NO":"９７之４號","E_COORD97":178735.962711,"N_COORD97":2578763.8362199999,"ADDRESS":"新北街９７之４號","OBJECTID":302221},"geometry":{"x":178735.96271099988,"y":2578763.8362199999}},{"attributes":{"ID":302230,"DIS_CODE":0,"TOWNNAME":"新營區","LI":"新南里","LIN":"3鄰","STREET":"新北街","SECT":" ","MAREA":" ","LANE":" ","ALLEY":" ","HOUSE_NO":"９號","E_COORD97":178882.373326,"N_COORD97":2578645.51462,"ADDRESS":"新北街９號","OBJECTID":302222},"geometry":{"x":178882.37332600076,"y":2578645.5146170016}},{"attributes":{"ID":302231,"DIS_CODE":0,"TOWNNAME":"新營區","LI":"新南里","LIN":"3鄰","STREET":"新北街","SECT":" ","MAREA":" ","LANE":" ","ALLEY":" ","HOUSE_NO":"１９號","E_COORD97":178866.48216000001,"N_COORD97":2578662.65961,"ADDRESS":"新北街１９號","OBJECTID":302223},"geometry":{"x":178866.48216000106,"y":2578662.659607999}},{"attributes":{"ID":302232,"DIS_CODE":0,"TOWNNAME":"佳里區","LI":"通興里","LIN":"1鄰","STREET":" ","SECT":" ","MAREA":"港墘","LANE":" ","ALLEY":" ","HOUSE_NO":"１號","E_COORD97":163943.59,"N_COORD97":2559687.6200000001,"ADDRESS":"港墘１號","OBJECTID":302224},"geometry":{"x":163943.58999999985,"y":2559687.620000001}},{"attributes":{"ID":302233,"DIS_CODE":0,"TOWNNAME":"新營區","LI":"新南里","LIN":"4鄰","STREET":"新北三街","SECT":" ","MAREA":" ","LANE":" ","ALLEY":" ","HOUSE_NO":"１６之１號","E_COORD97":178607.77396799999,"N_COORD97":2578848.39701,"ADDRESS":"新北三街１６之１號","OBJECTID":302225},"geometry":{"x":178607.77396800183,"y":2578848.3970070016}},{"attributes":{"ID":302234,"DIS_CODE":0,"TOWNNAME":"北區","LI":"公園里","LIN":"8鄰","STREET":"北忠街","SECT":" ","MAREA":" ","LANE":"５８巷","ALLEY":" ","HOUSE_NO":"３１號五樓之２","E_COORD97":169144.51000000001,"N_COORD97":2544431.6000000001,"ADDRESS":"北忠街５８巷３１號五樓之２","OBJECTID":302226},"geometry":{"x":169144.50999999978,"y":2544431.6000000015}},{"attributes":{"ID":302235,"DIS_CODE":0,"TOWNNAME":"北區","LI":"公園里","LIN":"8鄰","STREET":"北忠街","SECT":" ","MAREA":" ","LANE":"５８巷","ALLEY":" ","HOUSE_NO":"３１號四樓之１","E_COORD97":169144.51000000001,"N_COORD97":2544431.6000000001,"ADDRESS":"北忠街５８巷３１號四樓之１","OBJECTID":302227},"geometry":{"x":169144.50999999978,"y":2544431.6000000015}},{"attributes":{"ID":302236,"DIS_CODE":0,"TOWNNAME":"北區","LI":"公園里","LIN":"8鄰","STREET":"北忠街","SECT":" ","MAREA":" ","LANE":"５８巷","ALLEY":" ","HOUSE_NO":"３１號四樓之２","E_COORD97":169144.51000000001,"N_COORD97":2544431.6000000001,"ADDRESS":"北忠街５８巷３１號四樓之２","OBJECTID":302228},"geometry":{"x":169144.50999999978,"y":2544431.6000000015}},{"attributes":{"ID":302237,"DIS_CODE":0,"TOWNNAME":"北區","LI":"公園里","LIN":"8鄰","STREET":"北忠街","SECT":" ","MAREA":" ","LANE":"５８巷","ALLEY":" ","HOUSE_NO":"３７號二樓之１","E_COORD97":169147.70000000001,"N_COORD97":2544454.9399999999,"ADDRESS":"北忠街５８巷３７號二樓之１","OBJECTID":302229},"geometry":{"x":169147.70000000019,"y":2544454.9400000032}},{"attributes":{"ID":302238,"DIS_CODE":0,"TOWNNAME":"北區","LI":"公園里","LIN":"8鄰","STREET":"北忠街","SECT":" ","MAREA":" ","LANE":"５８巷","ALLEY":" ","HOUSE_NO":"３７號二樓之２","E_COORD97":169147.70000000001,"N_COORD97":2544454.9399999999,"ADDRESS":"北忠街５８巷３７號二樓之２","OBJECTID":302230},"geometry":{"x":169147.70000000019,"y":2544454.9400000032}},{"attributes":{"ID":302239,"DIS_CODE":0,"TOWNNAME":"北區","LI":"公園里","LIN":"8鄰","STREET":"北忠街","SECT":" ","MAREA":" ","LANE":"５８巷","ALLEY":" ","HOUSE_NO":"３７號二樓之３","E_COORD97":169147.70000000001,"N_COORD97":2544454.9399999999,"ADDRESS":"北忠街５８巷３７號二樓之３","OBJECTID":302231},"geometry":{"x":169147.70000000019,"y":2544454.9400000032}},{"attributes":{"ID":302240,"DIS_CODE":0,"TOWNNAME":"北區","LI":"公園里","LIN":"8鄰","STREET":"北忠街","SECT":" ","MAREA":" ","LANE":"５８巷","ALLEY":" ","HOUSE_NO":"３７號二樓之４","E_COORD97":169147.70000000001,"N_COORD97":2544454.9399999999,"ADDRESS":"北忠街５８巷３７號二樓之４","OBJECTID":302232},"geometry":{"x":169147.70000000019,"y":2544454.9400000032}},{"attributes":{"ID":302241,"DIS_CODE":0,"TOWNNAME":"北區","LI":"公園里","LIN":"8鄰","STREET":"北忠街","SECT":" ","MAREA":" ","LANE":"５８巷","ALLEY":" ","HOUSE_NO":"３７號三樓之１","E_COORD97":169147.70000000001,"N_COORD97":2544454.9399999999,"ADDRESS":"北忠街５８巷３７號三樓之１","OBJECTID":302233},"geometry":{"x":169147.70000000019,"y":2544454.9400000032}},{"attributes":{"ID":302242,"DIS_CODE":0,"TOWNNAME":"北區","LI":"公園里","LIN":"8鄰","STREET":"北忠街","SECT":" ","MAREA":" ","LANE":"５８巷","ALLEY":" ","HOUSE_NO":"３７號三樓之２","E_COORD97":169147.70000000001,"N_COORD97":2544454.9399999999,"ADDRESS":"北忠街５８巷３７號三樓之２","OBJECTID":302234},"geometry":{"x":169147.70000000019,"y":2544454.9400000032}},{"attributes":{"ID":302243,"DIS_CODE":0,"TOWNNAME":"北區","LI":"公園里","LIN":"8鄰","STREET":"北忠街","SECT":" ","MAREA":" ","LANE":"５８巷","ALLEY":" ","HOUSE_NO":"３７號三樓之３","E_COORD97":169147.70000000001,"N_COORD97":2544454.9399999999,"ADDRESS":"北忠街５８巷３７號三樓之３","OBJECTID":302235},"geometry":{"x":169147.70000000019,"y":2544454.9400000032}},{"attributes":{"ID":302244,"DIS_CODE":0,"TOWNNAME":"北區","LI":"公園里","LIN":"8鄰","STREET":"北忠街","SECT":" ","MAREA":" ","LANE":"５８巷","ALLEY":" ","HOUSE_NO":"３７號三樓之４","E_COORD97":169147.70000000001,"N_COORD97":2544454.9399999999,"ADDRESS":"北忠街５８巷３７號三樓之４","OBJECTID":302236},"geometry":{"x":169147.70000000019,"y":2544454.9400000032}},{"attributes":{"ID":302245,"DIS_CODE":0,"TOWNNAME":"新市區","LI":"大營里","LIN":"4鄰","STREET":" ","SECT":" ","MAREA":"大營","LANE":" ","ALLEY":" ","HOUSE_NO":"６１號","E_COORD97":179565.13,"N_COORD97":2555609,"ADDRESS":"大營６１號","OBJECTID":302237},"geometry":{"x":179565.13000000082,"y":2555608.9999999981}},{"attributes":{"ID":302246,"DIS_CODE":0,"TOWNNAME":"北區","LI":"公園里","LIN":"8鄰","STREET":"北忠街","SECT":" ","MAREA":" ","LANE":"５８巷","ALLEY":" ","HOUSE_NO":"３７號五樓之１","E_COORD97":169147.70000000001,"N_COORD97":2544454.9399999999,"ADDRESS":"北忠街５８巷３７號五樓之１","OBJECTID":302238},"geometry":{"x":169147.70000000019,"y":2544454.9400000032}},{"attributes":{"ID":302247,"DIS_CODE":0,"TOWNNAME":"北門區","LI":"保吉里","LIN":"1鄰","STREET":" ","SECT":" ","MAREA":"蚵寮","LANE":" ","ALLEY":" ","HOUSE_NO":"８號","E_COORD97":161452.69,"N_COORD97":2575708.6600000001,"ADDRESS":"蚵寮８號","OBJECTID":302239},"geometry":{"x":161452.69000000134,"y":2575708.6600000001}},{"attributes":{"ID":302248,"DIS_CODE":0,"TOWNNAME":"北門區","LI":"永隆里","LIN":"14鄰","STREET":" ","SECT":" ","MAREA":"港北","LANE":" ","ALLEY":" ","HOUSE_NO":"２０號之３６","E_COORD97":159952.03,"N_COORD97":2574681.6400000001,"ADDRESS":"港北２０號之３６","OBJECTID":302240},"geometry":{"x":159952.03000000026,"y":2574681.6400000006}},{"attributes":{"ID":302249,"DIS_CODE":0,"TOWNNAME":"歸仁區","LI":"媽廟里","LIN":"9鄰","STREET":"和順路","SECT":"一段","MAREA":" ","LANE":"１８８巷","ALLEY":" ","HOUSE_NO":"３６號","E_COORD97":177045.33276200001,"N_COORD97":2543827.1737700002,"ADDRESS":"和順路一段１８８巷３６號","OBJECTID":302241},"geometry":{"x":177045.33276200015,"y":2543827.1737690028}},{"attributes":{"ID":302250,"DIS_CODE":0,"TOWNNAME":"北區","LI":"公園里","LIN":"8鄰","STREET":"北忠街","SECT":" ","MAREA":" ","LANE":"５８巷","ALLEY":" ","HOUSE_NO":"３７號五樓之２","E_COORD97":169147.70000000001,"N_COORD97":2544454.9399999999,"ADDRESS":"北忠街５８巷３７號五樓之２","OBJECTID":302242},"geometry":{"x":169147.70000000019,"y":2544454.9400000032}},{"attributes":{"ID":302251,"DIS_CODE":0,"TOWNNAME":"北門區","LI":"永隆里","LIN":"14鄰","STREET":" ","SECT":" ","MAREA":"港北","LANE":" ","ALLEY":" ","HOUSE_NO":"２０號","E_COORD97":160195.54000000001,"N_COORD97":2574609.3399999999,"ADDRESS":"港北２０號","OBJECTID":302243},"geometry":{"x":160195.54000000097,"y":2574609.3399999999}},{"attributes":{"ID":302252,"DIS_CODE":0,"TOWNNAME":"新市區","LI":"大社里","LIN":"14鄰","STREET":" ","SECT":" ","MAREA":"大社","LANE":" ","ALLEY":" ","HOUSE_NO":"５３０號之９","E_COORD97":179863.42999999999,"N_COORD97":2554758.7999999998,"ADDRESS":"大社５３０號之９","OBJECTID":302244},"geometry":{"x":179863.43000000063,"y":2554758.8000000007}},{"attributes":{"ID":302253,"DIS_CODE":0,"TOWNNAME":"新市區","LI":"大營里","LIN":"17鄰","STREET":" ","SECT":" ","MAREA":"大營","LANE":" ","ALLEY":" ","HOUSE_NO":"３１５之１號","E_COORD97":179369.23000000001,"N_COORD97":2555365.7999999998,"ADDRESS":"大營３１５之１號","OBJECTID":302245},"geometry":{"x":179369.23000000045,"y":2555365.8000000007}},{"attributes":{"ID":302254,"DIS_CODE":0,"TOWNNAME":"北區","LI":"公園里","LIN":"8鄰","STREET":"北忠街","SECT":" ","MAREA":" ","LANE":"５８巷","ALLEY":" ","HOUSE_NO":"３７號五樓之３","E_COORD97":169147.70000000001,"N_COORD97":2544454.9399999999,"ADDRESS":"北忠街５８巷３７號五樓之３","OBJECTID":302246},"geometry":{"x":169147.70000000019,"y":2544454.9400000032}},{"attributes":{"ID":302255,"DIS_CODE":0,"TOWNNAME":"北區","LI":"公園里","LIN":"8鄰","STREET":"北忠街","SECT":" ","MAREA":" ","LANE":"５８巷","ALLEY":" ","HOUSE_NO":"３７號五樓之４","E_COORD97":169147.70000000001,"N_COORD97":2544454.9399999999,"ADDRESS":"北忠街５８巷３７號五樓之４","OBJECTID":302247},"geometry":{"x":169147.70000000019,"y":2544454.9400000032}},{"attributes":{"ID":302256,"DIS_CODE":0,"TOWNNAME":"新市區","LI":"社內里","LIN":"18鄰","STREET":" ","SECT":" ","MAREA":"社內","LANE":" ","ALLEY":" ","HOUSE_NO":"１８９號","E_COORD97":176158.399703,"N_COORD97":2553079.7591400002,"ADDRESS":"社內１８９號","OBJECTID":302248},"geometry":{"x":176158.39970299974,"y":2553079.7591430005}},{"attributes":{"ID":302257,"DIS_CODE":0,"TOWNNAME":"新市區","LI":"新市里","LIN":"25鄰","STREET":"復興路","SECT":" ","MAREA":" ","LANE":"６巷","ALLEY":" ","HOUSE_NO":"２４號","E_COORD97":177893.51000000001,"N_COORD97":2553345.0299999998,"ADDRESS":"復興路６巷２４號","OBJECTID":302249},"geometry":{"x":177893.50999999978,"y":2553345.0300000012}},{"attributes":{"ID":302258,"DIS_CODE":0,"TOWNNAME":"新市區","LI":"永就里","LIN":"4鄰","STREET":" ","SECT":" ","MAREA":"永就","LANE":" ","ALLEY":" ","HOUSE_NO":"３９之７號","E_COORD97":178519.20999999999,"N_COORD97":2551497.5499999998,"ADDRESS":"永就３９之７號","OBJECTID":302250},"geometry":{"x":178519.21000000089,"y":2551497.5500000026}},{"attributes":{"ID":302259,"DIS_CODE":0,"TOWNNAME":"佳里區","LI":"六安里","LIN":"8鄰","STREET":"延平路","SECT":" ","MAREA":" ","LANE":"４９８巷","ALLEY":" ","HOUSE_NO":"１號","E_COORD97":165901.82000000001,"N_COORD97":2562912.4100000001,"ADDRESS":"延平路４９８巷１號","OBJECTID":302251},"geometry":{"x":165901.8200000003,"y":2562912.4100000001}},{"attributes":{"ID":302260,"DIS_CODE":0,"TOWNNAME":"新市區","LI":"永就里","LIN":"4鄰","STREET":" ","SECT":" ","MAREA":"永就","LANE":" ","ALLEY":" ","HOUSE_NO":"４２之５號","E_COORD97":178452.20999999999,"N_COORD97":2551530.7999999998,"ADDRESS":"永就４２之５號","OBJECTID":302252},"geometry":{"x":178452.20999999996,"y":2551530.8000000026}},{"attributes":{"ID":302261,"DIS_CODE":0,"TOWNNAME":"北區","LI":"公園里","LIN":"8鄰","STREET":"北忠街","SECT":" ","MAREA":" ","LANE":"５８巷","ALLEY":" ","HOUSE_NO":"３７號四樓之１","E_COORD97":169147.70000000001,"N_COORD97":2544454.9399999999,"ADDRESS":"北忠街５８巷３７號四樓之１","OBJECTID":302253},"geometry":{"x":169147.70000000019,"y":2544454.9400000032}},{"attributes":{"ID":302262,"DIS_CODE":0,"TOWNNAME":"新市區","LI":"潭頂里","LIN":"4鄰","STREET":" ","SECT":" ","MAREA":"潭頂","LANE":" ","ALLEY":" ","HOUSE_NO":"２０１之１號","E_COORD97":180903.75,"N_COORD97":2553074.7999999998,"ADDRESS":"潭頂２０１之１號","OBJECTID":302254},"geometry":{"x":180903.75000000093,"y":2553074.8000000007}},{"attributes":{"ID":302263,"DIS_CODE":0,"TOWNNAME":"新市區","LI":"大洲里","LIN":"4鄰","STREET":" ","SECT":" ","MAREA":"大洲","LANE":" ","ALLEY":" ","HOUSE_NO":"３０號","E_COORD97":174313.20000000001,"N_COORD97":2552351,"ADDRESS":"大洲３０號","OBJECTID":302255},"geometry":{"x":174313.20000000205,"y":2552351.0000000037}},{"attributes":{"ID":302264,"DIS_CODE":0,"TOWNNAME":"北區","LI":"公園里","LIN":"8鄰","STREET":"北忠街","SECT":" ","MAREA":" ","LANE":"５８巷","ALLEY":" ","HOUSE_NO":"３７號四樓之２","E_COORD97":169147.70000000001,"N_COORD97":2544454.9399999999,"ADDRESS":"北忠街５８巷３７號四樓之２","OBJECTID":302256},"geometry":{"x":169147.70000000019,"y":2544454.9400000032}},{"attributes":{"ID":302265,"DIS_CODE":0,"TOWNNAME":"新市區","LI":"大洲里","LIN":"4鄰","STREET":" ","SECT":" ","MAREA":"大洲","LANE":" ","ALLEY":" ","HOUSE_NO":"３４號","E_COORD97":174253.79000000001,"N_COORD97":2552377,"ADDRESS":"大洲３４號","OBJECTID":302257},"geometry":{"x":174253.79000000097,"y":2552377}},{"attributes":{"ID":302266,"DIS_CODE":0,"TOWNNAME":"新市區","LI":"三舍里","LIN":"4鄰","STREET":" ","SECT":" ","MAREA":"三舍","LANE":" ","ALLEY":" ","HOUSE_NO":"１０２之１３號","E_COORD97":178101.92999999999,"N_COORD97":2554684.7999999998,"ADDRESS":"三舍１０２之１３號","OBJECTID":302258},"geometry":{"x":178101.93000000063,"y":2554684.8000000007}},{"attributes":{"ID":302267,"DIS_CODE":0,"TOWNNAME":"新市區","LI":"豐華里","LIN":"5鄰","STREET":" ","SECT":" ","MAREA":"豐華","LANE":" ","ALLEY":" ","HOUSE_NO":"３４號","E_COORD97":173789.79000000001,"N_COORD97":2554290.75,"ADDRESS":"豐華３４號","OBJECTID":302259},"geometry":{"x":173789.79000000004,"y":2554290.75}},{"attributes":{"ID":302268,"DIS_CODE":0,"TOWNNAME":"東區","LI":"裕農里","LIN":"14鄰","STREET":"裕豐街","SECT":" ","MAREA":" ","LANE":" ","ALLEY":" ","HOUSE_NO":"２４８號","E_COORD97":170811.59,"N_COORD97":2543274.98,"ADDRESS":"裕豐街２４８號","OBJECTID":302260},"geometry":{"x":170811.59000000078,"y":2543274.9800000004}},{"attributes":{"ID":302269,"DIS_CODE":0,"TOWNNAME":"新市區","LI":"大社里","LIN":"25鄰","STREET":" ","SECT":" ","MAREA":"大社","LANE":" ","ALLEY":" ","HOUSE_NO":"９１８之２１號","E_COORD97":179913.84,"N_COORD97":2554056.2999999998,"ADDRESS":"大社９１８之２１號","OBJECTID":302261},"geometry":{"x":179913.83999999985,"y":2554056.3000000026}},{"attributes":{"ID":302270,"DIS_CODE":0,"TOWNNAME":"新市區","LI":"港墘里","LIN":"9鄰","STREET":"長安街","SECT":" ","MAREA":" ","LANE":" ","ALLEY":" ","HOUSE_NO":"３號","E_COORD97":178489.82000000001,"N_COORD97":2552670.8100000001,"ADDRESS":"長安街３號","OBJECTID":302262},"geometry":{"x":178489.82000000123,"y":2552670.8100000005}},{"attributes":{"ID":302271,"DIS_CODE":0,"TOWNNAME":"新市區","LI":"大社里","LIN":"25鄰","STREET":" ","SECT":" ","MAREA":"大社","LANE":" ","ALLEY":" ","HOUSE_NO":"９１８之２２號","E_COORD97":179912.73000000001,"N_COORD97":2554060.0499999998,"ADDRESS":"大社９１８之２２號","OBJECTID":302263},"geometry":{"x":179912.73000000138,"y":2554060.0499999989}},{"attributes":{"ID":302272,"DIS_CODE":0,"TOWNNAME":"新市區","LI":"大營里","LIN":"13鄰","STREET":" ","SECT":" ","MAREA":"大營","LANE":" ","ALLEY":" ","HOUSE_NO":"２５３號","E_COORD97":179119.38,"N_COORD97":2555552.75,"ADDRESS":"大營２５３號","OBJECTID":302264},"geometry":{"x":179119.38000000082,"y":2555552.75}},{"attributes":{"ID":302273,"DIS_CODE":0,"TOWNNAME":"新市區","LI":"大營里","LIN":"24鄰","STREET":" ","SECT":" ","MAREA":"大營","LANE":" ","ALLEY":" ","HOUSE_NO":"１３１之２２號","E_COORD97":179191.39999999999,"N_COORD97":2554668.0499999998,"ADDRESS":"大營１３１之２２號","OBJECTID":302265},"geometry":{"x":179191.4000000013,"y":2554668.0500000026}},{"attributes":{"ID":302274,"DIS_CODE":0,"TOWNNAME":"新市區","LI":"大社里","LIN":"18鄰","STREET":" ","SECT":" ","MAREA":"大社","LANE":" ","ALLEY":" ","HOUSE_NO":"７５４號之２","E_COORD97":180070.34,"N_COORD97":2554198.7999999998,"ADDRESS":"大社７５４號之２","OBJECTID":302266},"geometry":{"x":180070.34000000171,"y":2554198.8000000026}},{"attributes":{"ID":302275,"DIS_CODE":0,"TOWNNAME":"新市區","LI":"大社里","LIN":"20鄰","STREET":" ","SECT":" ","MAREA":"大社","LANE":" ","ALLEY":" ","HOUSE_NO":"７８７號之１","E_COORD97":179901.53,"N_COORD97":2554144.2999999998,"ADDRESS":"大社７８７號之１","OBJECTID":302267},"geometry":{"x":179901.53000000026,"y":2554144.3000000026}},{"attributes":{"ID":302276,"DIS_CODE":0,"TOWNNAME":"新市區","LI":"大社里","LIN":"20鄰","STREET":" ","SECT":" ","MAREA":"大社","LANE":" ","ALLEY":" ","HOUSE_NO":"７９０之３號","E_COORD97":179895.12,"N_COORD97":2554202.7999999998,"ADDRESS":"大社７９０之３號","OBJECTID":302268},"geometry":{"x":179895.12000000011,"y":2554202.8000000007}},{"attributes":{"ID":302277,"DIS_CODE":0,"TOWNNAME":"新市區","LI":"大營里","LIN":"24鄰","STREET":" ","SECT":" ","MAREA":"大營","LANE":" ","ALLEY":" ","HOUSE_NO":"１３１之２７號","E_COORD97":179247.95999999999,"N_COORD97":2554768.0499999998,"ADDRESS":"大營１３１之２７號","OBJECTID":302269},"geometry":{"x":179247.96000000089,"y":2554768.0500000007}},{"attributes":{"ID":302278,"DIS_CODE":0,"TOWNNAME":"東區","LI":"莊敬里","LIN":"13鄰","STREET":"東光路","SECT":"二段","MAREA":" ","LANE":"５８巷","ALLEY":" ","HOUSE_NO":"２０號","E_COORD97":171290.28,"N_COORD97":2544101.8999999999,"ADDRESS":"東光路二段５８巷２０號","OBJECTID":302270},"geometry":{"x":171290.28000000212,"y":2544101.9000000004}},{"attributes":{"ID":302279,"DIS_CODE":0,"TOWNNAME":"東區","LI":"崇善里","LIN":"24鄰","STREET":"崇善十二街","SECT":" ","MAREA":" ","LANE":"５６巷","ALLEY":" ","HOUSE_NO":"８號之１","E_COORD97":171376.28,"N_COORD97":2541098.3900000001,"ADDRESS":"崇善十二街５６巷８號之１","OBJECTID":302271},"geometry":{"x":171376.28000000026,"y":2541098.3900000006}},{"attributes":{"ID":302280,"DIS_CODE":0,"TOWNNAME":"東區","LI":"仁和里","LIN":"8鄰","STREET":"仁和路","SECT":" ","MAREA":" ","LANE":"１０９巷","ALLEY":" ","HOUSE_NO":"１４４號","E_COORD97":171739.47,"N_COORD97":2541331.1899999999,"ADDRESS":"仁和路１０９巷１４４號","OBJECTID":302272},"geometry":{"x":171739.47000000067,"y":2541331.1900000013}},{"attributes":{"ID":302281,"DIS_CODE":0,"TOWNNAME":"北區","LI":"公園里","LIN":"8鄰","STREET":"北忠街","SECT":" ","MAREA":" ","LANE":"５８巷","ALLEY":" ","HOUSE_NO":"３７號四樓之３","E_COORD97":169147.70000000001,"N_COORD97":2544454.9399999999,"ADDRESS":"北忠街５８巷３７號四樓之３","OBJECTID":302273},"geometry":{"x":169147.70000000019,"y":2544454.9400000032}},{"attributes":{"ID":302282,"DIS_CODE":0,"TOWNNAME":"北區","LI":"公園里","LIN":"8鄰","STREET":"北忠街","SECT":" ","MAREA":" ","LANE":"５８巷","ALLEY":" ","HOUSE_NO":"３７號四樓之４","E_COORD97":169147.70000000001,"N_COORD97":2544454.9399999999,"ADDRESS":"北忠街５８巷３７號四樓之４","OBJECTID":302274},"geometry":{"x":169147.70000000019,"y":2544454.9400000032}},{"attributes":{"ID":302283,"DIS_CODE":0,"TOWNNAME":"北區","LI":"公園里","LIN":"8鄰","STREET":"北忠街","SECT":" ","MAREA":" ","LANE":"５８巷","ALLEY":" ","HOUSE_NO":"４３號二樓之１","E_COORD97":169132.57999999999,"N_COORD97":2544440.3300000001,"ADDRESS":"北忠街５８巷４３號二樓之１","OBJECTID":302275},"geometry":{"x":169132.58000000007,"y":2544440.3300000019}},{"attributes":{"ID":302284,"DIS_CODE":0,"TOWNNAME":"新市區","LI":"三舍里","LIN":"4鄰","STREET":" ","SECT":" ","MAREA":"三舍","LANE":" ","ALLEY":" ","HOUSE_NO":"１０８之２號","E_COORD97":178029.12,"N_COORD97":2554559.7999999998,"ADDRESS":"三舍１０８之２號","OBJECTID":302276},"geometry":{"x":178029.12000000011,"y":2554559.8000000007}},{"attributes":{"ID":302285,"DIS_CODE":0,"TOWNNAME":"北區","LI":"公園里","LIN":"8鄰","STREET":"北忠街","SECT":" ","MAREA":" ","LANE":"５８巷","ALLEY":" ","HOUSE_NO":"４３號二樓之２","E_COORD97":169132.57999999999,"N_COORD97":2544440.3300000001,"ADDRESS":"北忠街５８巷４３號二樓之２","OBJECTID":302277},"geometry":{"x":169132.58000000007,"y":2544440.3300000019}},{"attributes":{"ID":302286,"DIS_CODE":0,"TOWNNAME":"東區","LI":"裕農里","LIN":"14鄰","STREET":"裕豐街","SECT":" ","MAREA":" ","LANE":" ","ALLEY":" ","HOUSE_NO":"２５０號","E_COORD97":170812.89999999999,"N_COORD97":2543279.6899999999,"ADDRESS":"裕豐街２５０號","OBJECTID":302278},"geometry":{"x":170812.90000000037,"y":2543279.6899999976}},{"attributes":{"ID":302287,"DIS_CODE":0,"TOWNNAME":"東區","LI":"裕農里","LIN":"14鄰","STREET":"裕豐街","SECT":" ","MAREA":" ","LANE":" ","ALLEY":" ","HOUSE_NO":"２５４號","E_COORD97":170813.69,"N_COORD97":2543289.8900000001,"ADDRESS":"裕豐街２５４號","OBJECTID":302279},"geometry":{"x":170813.69000000134,"y":2543289.8900000043}},{"attributes":{"ID":302288,"DIS_CODE":0,"TOWNNAME":"東區","LI":"裕農里","LIN":"14鄰","STREET":"裕豐街","SECT":" ","MAREA":" ","LANE":" ","ALLEY":" ","HOUSE_NO":"２５６號","E_COORD97":170816.04999999999,"N_COORD97":2543293.8199999998,"ADDRESS":"裕豐街２５６號","OBJECTID":302280},"geometry":{"x":170816.04999999981,"y":2543293.8200000022}},{"attributes":{"ID":302289,"DIS_CODE":0,"TOWNNAME":"東區","LI":"大智里","LIN":"3鄰","STREET":"生產路","SECT":" ","MAREA":" ","LANE":"５５０巷","ALLEY":" ","HOUSE_NO":"３１號","E_COORD97":171144.26000000001,"N_COORD97":2540572.52,"ADDRESS":"生產路５５０巷３１號","OBJECTID":302281},"geometry":{"x":171144.26000000071,"y":2540572.5200000014}},{"attributes":{"ID":302290,"DIS_CODE":0,"TOWNNAME":"東區","LI":"大智里","LIN":"14鄰","STREET":"長東街","SECT":" ","MAREA":" ","LANE":"１４３巷","ALLEY":" ","HOUSE_NO":"４１號","E_COORD97":171138.59,"N_COORD97":2540113.6499999999,"ADDRESS":"長東街１４３巷４１號","OBJECTID":302282},"geometry":{"x":171138.59000000078,"y":2540113.6500000004}},{"attributes":{"ID":302291,"DIS_CODE":0,"TOWNNAME":"東區","LI":"大智里","LIN":"14鄰","STREET":"長東街","SECT":" ","MAREA":" ","LANE":"１４３巷","ALLEY":" ","HOUSE_NO":"４２號","E_COORD97":171126.64999999999,"N_COORD97":2540085.6899999999,"ADDRESS":"長東街１４３巷４２號","OBJECTID":302283},"geometry":{"x":171126.65000000224,"y":2540085.6899999995}},{"attributes":{"ID":302292,"DIS_CODE":0,"TOWNNAME":"官田區","LI":"南\u25A0里","LIN":"1鄰","STREET":" ","SECT":" ","MAREA":"南\u25A0","LANE":" ","ALLEY":" ","HOUSE_NO":"８號之１","E_COORD97":179433.38,"N_COORD97":2567513.5499999998,"ADDRESS":"南\u25A0８號之１","OBJECTID":302284},"geometry":{"x":179433.38000000082,"y":2567513.5500000026}},{"attributes":{"ID":302293,"DIS_CODE":0,"TOWNNAME":"官田區","LI":"南\u25A0里","LIN":"1鄰","STREET":" ","SECT":" ","MAREA":"南\u25A0","LANE":" ","ALLEY":" ","HOUSE_NO":"８號之２","E_COORD97":179430.82000000001,"N_COORD97":2567517.3900000001,"ADDRESS":"南\u25A0８號之２","OBJECTID":302285},"geometry":{"x":179430.82000000123,"y":2567517.3899999987}},{"attributes":{"ID":302294,"DIS_CODE":0,"TOWNNAME":"東區","LI":"大智里","LIN":"28鄰","STREET":"德東街","SECT":" ","MAREA":" ","LANE":" ","ALLEY":" ","HOUSE_NO":"２８５號","E_COORD97":171499.17999999999,"N_COORD97":2540263.9900000002,"ADDRESS":"德東街２８５號","OBJECTID":302286},"geometry":{"x":171499.18000000063,"y":2540263.9900000002}},{"attributes":{"ID":302295,"DIS_CODE":0,"TOWNNAME":"東區","LI":"大智里","LIN":"14鄰","STREET":"長東街","SECT":" ","MAREA":" ","LANE":"１４３巷","ALLEY":" ","HOUSE_NO":"４５號","E_COORD97":171146.87,"N_COORD97":2540113.3700000001,"ADDRESS":"長東街１４３巷４５號","OBJECTID":302287},"geometry":{"x":171146.86999999918,"y":2540113.370000001}},{"attributes":{"ID":302296,"DIS_CODE":0,"TOWNNAME":"東區","LI":"大智里","LIN":"14鄰","STREET":"長東街","SECT":" ","MAREA":" ","LANE":"１４３巷","ALLEY":" ","HOUSE_NO":"４６號","E_COORD97":171141.13,"N_COORD97":2540090.3900000001,"ADDRESS":"長東街１４３巷４６號","OBJECTID":302288},"geometry":{"x":171141.12999999989,"y":2540090.3900000025}},{"attributes":{"ID":302297,"DIS_CODE":0,"TOWNNAME":"東區","LI":"大智里","LIN":"23鄰","STREET":"德東街","SECT":" ","MAREA":" ","LANE":"１８０巷","ALLEY":" ","HOUSE_NO":"５號","E_COORD97":171303.35999999999,"N_COORD97":2540219.3799999999,"ADDRESS":"德東街１８０巷５號","OBJECTID":302289},"geometry":{"x":171303.3600000022,"y":2540219.379999999}},{"attributes":{"ID":302298,"DIS_CODE":0,"TOWNNAME":"東區","LI":"大智里","LIN":"23鄰","STREET":"德東街","SECT":" ","MAREA":" ","LANE":"１８０巷","ALLEY":" ","HOUSE_NO":"７號","E_COORD97":171304.22,"N_COORD97":2540214.9100000001,"ADDRESS":"德東街１８０巷７號","OBJECTID":302290},"geometry":{"x":171304.22000000067,"y":2540214.910000002}},{"attributes":{"ID":302299,"DIS_CODE":0,"TOWNNAME":"東區","LI":"大智里","LIN":"23鄰","STREET":"德東街","SECT":" ","MAREA":" ","LANE":"１８０巷","ALLEY":" ","HOUSE_NO":"８號","E_COORD97":171287.07000000001,"N_COORD97":2540213.1800000002,"ADDRESS":"德東街１８０巷８號","OBJECTID":302291},"geometry":{"x":171287.07000000123,"y":2540213.1800000016}},{"attributes":{"ID":302300,"DIS_CODE":0,"TOWNNAME":"東區","LI":"大智里","LIN":"28鄰","STREET":"德東街","SECT":" ","MAREA":" ","LANE":" ","ALLEY":" ","HOUSE_NO":"２４８號","E_COORD97":171450.29000000001,"N_COORD97":2540243.5499999998,"ADDRESS":"德東街２４８號","OBJECTID":302292},"geometry":{"x":171450.29000000004,"y":2540243.5500000007}},{"attributes":{"ID":302301,"DIS_CODE":0,"TOWNNAME":"東區","LI":"大智里","LIN":"8鄰","STREET":"長東街","SECT":" ","MAREA":" ","LANE":" ","ALLEY":" ","HOUSE_NO":"１０５號","E_COORD97":171025.44,"N_COORD97":2540332.2799999998,"ADDRESS":"長東街１０５號","OBJECTID":302293},"geometry":{"x":171025.44000000134,"y":2540332.2799999993}},{"attributes":{"ID":302302,"DIS_CODE":0,"TOWNNAME":"東區","LI":"大智里","LIN":"8鄰","STREET":"長東街","SECT":" ","MAREA":" ","LANE":" ","ALLEY":" ","HOUSE_NO":"１０７號","E_COORD97":171025.64000000001,"N_COORD97":2540327.7999999998,"ADDRESS":"長東街１０７號","OBJECTID":302294},"geometry":{"x":171025.63999999966,"y":2540327.8000000026}},{"attributes":{"ID":302303,"DIS_CODE":0,"TOWNNAME":"東區","LI":"大智里","LIN":"26鄰","STREET":"德東街","SECT":" ","MAREA":" ","LANE":" ","ALLEY":" ","HOUSE_NO":"１８２號","E_COORD97":171299.35999999999,"N_COORD97":2540246.9700000002,"ADDRESS":"德東街１８２號","OBJECTID":302295},"geometry":{"x":171299.36000000034,"y":2540246.9700000007}},{"attributes":{"ID":302304,"DIS_CODE":0,"TOWNNAME":"東區","LI":"大智里","LIN":"26鄰","STREET":"德東街","SECT":" ","MAREA":" ","LANE":" ","ALLEY":" ","HOUSE_NO":"１８３號","E_COORD97":171280.47,"N_COORD97":2540272.52,"ADDRESS":"德東街１８３號","OBJECTID":302296},"geometry":{"x":171280.47000000067,"y":2540272.5199999996}},{"attributes":{"ID":302305,"DIS_CODE":0,"TOWNNAME":"東區","LI":"大智里","LIN":"26鄰","STREET":"德東街","SECT":" ","MAREA":" ","LANE":" ","ALLEY":" ","HOUSE_NO":"１８４號","E_COORD97":171304.17999999999,"N_COORD97":2540244.8799999999,"ADDRESS":"德東街１８４號","OBJECTID":302297},"geometry":{"x":171304.18000000063,"y":2540244.8800000008}},{"attributes":{"ID":302306,"DIS_CODE":0,"TOWNNAME":"東區","LI":"大智里","LIN":"26鄰","STREET":"德東街","SECT":" ","MAREA":" ","LANE":" ","ALLEY":" ","HOUSE_NO":"１８６號","E_COORD97":171307.88,"N_COORD97":2540247.29,"ADDRESS":"德東街１８６號","OBJECTID":302298},"geometry":{"x":171307.88000000082,"y":2540247.2899999991}},{"attributes":{"ID":302307,"DIS_CODE":0,"TOWNNAME":"東區","LI":"大智里","LIN":"26鄰","STREET":"德東街","SECT":" ","MAREA":" ","LANE":" ","ALLEY":" ","HOUSE_NO":"１８８號","E_COORD97":171313.98999999999,"N_COORD97":2540245.8399999999,"ADDRESS":"德東街１８８號","OBJECTID":302299},"geometry":{"x":171313.98999999929,"y":2540245.8400000017}},{"attributes":{"ID":302308,"DIS_CODE":0,"TOWNNAME":"北區","LI":"公園里","LIN":"8鄰","STREET":"北忠街","SECT":" ","MAREA":" ","LANE":"５８巷","ALLEY":" ","HOUSE_NO":"４３號三樓之１","E_COORD97":169132.57999999999,"N_COORD97":2544440.3300000001,"ADDRESS":"北忠街５８巷４３號三樓之１","OBJECTID":302300},"geometry":{"x":169132.58000000007,"y":2544440.3300000019}},{"attributes":{"ID":302309,"DIS_CODE":0,"TOWNNAME":"北區","LI":"公園里","LIN":"8鄰","STREET":"北忠街","SECT":" ","MAREA":" ","LANE":"５８巷","ALLEY":" ","HOUSE_NO":"４３號三樓之２","E_COORD97":169132.57999999999,"N_COORD97":2544440.3300000001,"ADDRESS":"北忠街５８巷４３號三樓之２","OBJECTID":302301},"geometry":{"x":169132.58000000007,"y":2544440.3300000019}},{"attributes":{"ID":302310,"DIS_CODE":0,"TOWNNAME":"北區","LI":"公園里","LIN":"8鄰","STREET":"北忠街","SECT":" ","MAREA":" ","LANE":"５８巷","ALLEY":" ","HOUSE_NO":"４３號五樓之１","E_COORD97":169132.57999999999,"N_COORD97":2544440.3300000001,"ADDRESS":"北忠街５８巷４３號五樓之１","OBJECTID":302302},"geometry":{"x":169132.58000000007,"y":2544440.3300000019}},{"attributes":{"ID":302311,"DIS_CODE":0,"TOWNNAME":"北區","LI":"公園里","LIN":"8鄰","STREET":"北忠街","SECT":" ","MAREA":" ","LANE":"５８巷","ALLEY":" ","HOUSE_NO":"４３號五樓之２","E_COORD97":169132.57999999999,"N_COORD97":2544440.3300000001,"ADDRESS":"北忠街５８巷４３號五樓之２","OBJECTID":302303},"geometry":{"x":169132.58000000007,"y":2544440.3300000019}},{"attributes":{"ID":302312,"DIS_CODE":0,"TOWNNAME":"北區","LI":"公園里","LIN":"8鄰","STREET":"北忠街","SECT":" ","MAREA":" ","LANE":"５８巷","ALLEY":" ","HOUSE_NO":"４３號四樓之１","E_COORD97":169132.57999999999,"N_COORD97":2544440.3300000001,"ADDRESS":"北忠街５８巷４３號四樓之１","OBJECTID":302304},"geometry":{"x":169132.58000000007,"y":2544440.3300000019}},{"attributes":{"ID":302313,"DIS_CODE":0,"TOWNNAME":"北區","LI":"公園里","LIN":"8鄰","STREET":"北忠街","SECT":" ","MAREA":" ","LANE":"５８巷","ALLEY":" ","HOUSE_NO":"４３號四樓之２","E_COORD97":169132.57999999999,"N_COORD97":2544440.3300000001,"ADDRESS":"北忠街５８巷４３號四樓之２","OBJECTID":302305},"geometry":{"x":169132.58000000007,"y":2544440.3300000019}},{"attributes":{"ID":302314,"DIS_CODE":0,"TOWNNAME":"新市區","LI":"大社里","LIN":"4鄰","STREET":" ","SECT":" ","MAREA":"大社","LANE":" ","ALLEY":" ","HOUSE_NO":"１６１號","E_COORD97":180128.57000000001,"N_COORD97":2554289.75,"ADDRESS":"大社１６１號","OBJECTID":302306},"geometry":{"x":180128.57000000216,"y":2554289.7500000019}},{"attributes":{"ID":302315,"DIS_CODE":0,"TOWNNAME":"新市區","LI":"大營里","LIN":"5鄰","STREET":" ","SECT":" ","MAREA":"大營","LANE":" ","ALLEY":" ","HOUSE_NO":"７８之１５號","E_COORD97":179643.89999999999,"N_COORD97":2555488.7999999998,"ADDRESS":"大營７８之１５號","OBJECTID":302307},"geometry":{"x":179643.9000000013,"y":2555488.8000000007}},{"attributes":{"ID":302316,"DIS_CODE":0,"TOWNNAME":"新市區","LI":"大社里","LIN":"20鄰","STREET":" ","SECT":" ","MAREA":"大社","LANE":" ","ALLEY":" ","HOUSE_NO":"７９０之６號","E_COORD97":179891.39999999999,"N_COORD97":2554214.0499999998,"ADDRESS":"大社７９０之６號","OBJECTID":302308},"geometry":{"x":179891.4000000013,"y":2554214.0500000026}},{"attributes":{"ID":302317,"DIS_CODE":0,"TOWNNAME":"歸仁區","LI":"大廟里","LIN":"3鄰","STREET":"保大路","SECT":"三段","MAREA":" ","LANE":"５５巷","ALLEY":" ","HOUSE_NO":"５９號","E_COORD97":176455.34031100001,"N_COORD97":2543912.3004899998,"ADDRESS":"保大路三段５５巷５９號","OBJECTID":302309},"geometry":{"x":176455.34031100105,"y":2543912.3004860003}},{"attributes":{"ID":302318,"DIS_CODE":0,"TOWNNAME":"東區","LI":"虎尾里","LIN":"13鄰","STREET":"東成街","SECT":" ","MAREA":" ","LANE":"１３１巷","ALLEY":" ","HOUSE_NO":"２５號","E_COORD97":171677.92999999999,"N_COORD97":2542396.6099999999,"ADDRESS":"東成街１３１巷２５號","OBJECTID":302310},"geometry":{"x":171677.9299999997,"y":2542396.6100000013}},{"attributes":{"ID":302319,"DIS_CODE":0,"TOWNNAME":"東區","LI":"崇善里","LIN":"24鄰","STREET":"崇善十二街","SECT":" ","MAREA":" ","LANE":"６巷","ALLEY":" ","HOUSE_NO":"１７號","E_COORD97":171242.12,"N_COORD97":2541035.4700000002,"ADDRESS":"崇善十二街６巷１７號","OBJECTID":302311},"geometry":{"x":171242.12000000104,"y":2541035.4700000025}},{"attributes":{"ID":302320,"DIS_CODE":0,"TOWNNAME":"東區","LI":"崇善里","LIN":"24鄰","STREET":"崇善十二街","SECT":" ","MAREA":" ","LANE":"６巷","ALLEY":" ","HOUSE_NO":"１號","E_COORD97":171225.73999999999,"N_COORD97":2541076.5699999998,"ADDRESS":"崇善十二街６巷１號","OBJECTID":302312},"geometry":{"x":171225.74000000022,"y":2541076.5700000003}},{"attributes":{"ID":302321,"DIS_CODE":0,"TOWNNAME":"東區","LI":"崇善里","LIN":"24鄰","STREET":"崇善十二街","SECT":" ","MAREA":" ","LANE":"６巷","ALLEY":" ","HOUSE_NO":"３號","E_COORD97":171227.26999999999,"N_COORD97":2541071.9700000002,"ADDRESS":"崇善十二街６巷３號","OBJECTID":302313},"geometry":{"x":171227.27000000048,"y":2541071.9699999988}},{"attributes":{"ID":302322,"DIS_CODE":0,"TOWNNAME":"東區","LI":"崇善里","LIN":"24鄰","STREET":"崇善十二街","SECT":" ","MAREA":" ","LANE":"６巷","ALLEY":" ","HOUSE_NO":"５號","E_COORD97":171230.51000000001,"N_COORD97":2541064.4700000002,"ADDRESS":"崇善十二街６巷５號","OBJECTID":302314},"geometry":{"x":171230.51000000164,"y":2541064.4700000007}},{"attributes":{"ID":302323,"DIS_CODE":0,"TOWNNAME":"北區","LI":"正風里","LIN":"8鄰","STREET":"公園路","SECT":" ","MAREA":" ","LANE":"９９４巷","ALLEY":" ","HOUSE_NO":"３號二樓之１","E_COORD97":169553.51000000001,"N_COORD97":2546351.4199999999,"ADDRESS":"公園路９９４巷３號二樓之１","OBJECTID":302315},"geometry":{"x":169553.50999999978,"y":2546351.4200000018}},{"attributes":{"ID":302324,"DIS_CODE":0,"TOWNNAME":"北區","LI":"正風里","LIN":"8鄰","STREET":"公園路","SECT":" ","MAREA":" ","LANE":"９９４巷","ALLEY":" ","HOUSE_NO":"３號三樓之１","E_COORD97":169553.51000000001,"N_COORD97":2546351.4199999999,"ADDRESS":"公園路９９４巷３號三樓之１","OBJECTID":302316},"geometry":{"x":169553.50999999978,"y":2546351.4200000018}},{"attributes":{"ID":302325,"DIS_CODE":0,"TOWNNAME":"北區","LI":"正風里","LIN":"8鄰","STREET":"公園路","SECT":" ","MAREA":" ","LANE":"９９４巷","ALLEY":" ","HOUSE_NO":"３號三樓之２","E_COORD97":169553.51000000001,"N_COORD97":2546351.4199999999,"ADDRESS":"公園路９９４巷３號三樓之２","OBJECTID":302317},"geometry":{"x":169553.50999999978,"y":2546351.4200000018}},{"attributes":{"ID":302326,"DIS_CODE":0,"TOWNNAME":"北區","LI":"正風里","LIN":"8鄰","STREET":"公園路","SECT":" ","MAREA":" ","LANE":"９９４巷","ALLEY":" ","HOUSE_NO":"３號三樓之３","E_COORD97":169553.51000000001,"N_COORD97":2546351.4199999999,"ADDRESS":"公園路９９４巷３號三樓之３","OBJECTID":302318},"geometry":{"x":169553.50999999978,"y":2546351.4200000018}},{"attributes":{"ID":302327,"DIS_CODE":0,"TOWNNAME":"北區","LI":"正風里","LIN":"8鄰","STREET":"公園路","SECT":" ","MAREA":" ","LANE":"９９４巷","ALLEY":" ","HOUSE_NO":"３號三樓之４","E_COORD97":169553.51000000001,"N_COORD97":2546351.4199999999,"ADDRESS":"公園路９９４巷３號三樓之４","OBJECTID":302319},"geometry":{"x":169553.50999999978,"y":2546351.4200000018}},{"attributes":{"ID":302328,"DIS_CODE":0,"TOWNNAME":"北區","LI":"正風里","LIN":"8鄰","STREET":"公園路","SECT":" ","MAREA":" ","LANE":"９９４巷","ALLEY":" ","HOUSE_NO":"３號四樓之１","E_COORD97":169553.51000000001,"N_COORD97":2546351.4199999999,"ADDRESS":"公園路９９４巷３號四樓之１","OBJECTID":302320},"geometry":{"x":169553.50999999978,"y":2546351.4200000018}},{"attributes":{"ID":302329,"DIS_CODE":0,"TOWNNAME":"北區","LI":"正風里","LIN":"8鄰","STREET":"公園路","SECT":" ","MAREA":" ","LANE":"９９４巷","ALLEY":" ","HOUSE_NO":"３號四樓之２","E_COORD97":169553.51000000001,"N_COORD97":2546351.4199999999,"ADDRESS":"公園路９９４巷３號四樓之２","OBJECTID":302321},"geometry":{"x":169553.50999999978,"y":2546351.4200000018}},{"attributes":{"ID":302330,"DIS_CODE":0,"TOWNNAME":"北區","LI":"正風里","LIN":"8鄰","STREET":"公園路","SECT":" ","MAREA":" ","LANE":"９９４巷","ALLEY":" ","HOUSE_NO":"３號四樓之３","E_COORD97":169553.51000000001,"N_COORD97":2546351.4199999999,"ADDRESS":"公園路９９４巷３號四樓之３","OBJECTID":302322},"geometry":{"x":169553.50999999978,"y":2546351.4200000018}},{"attributes":{"ID":302331,"DIS_CODE":0,"TOWNNAME":"北區","LI":"正風里","LIN":"8鄰","STREET":"公園路","SECT":" ","MAREA":" ","LANE":"９９４巷","ALLEY":" ","HOUSE_NO":"３號四樓之４","E_COORD97":169553.51000000001,"N_COORD97":2546351.4199999999,"ADDRESS":"公園路９９４巷３號四樓之４","OBJECTID":302323},"geometry":{"x":169553.50999999978,"y":2546351.4200000018}},{"attributes":{"ID":302332,"DIS_CODE":0,"TOWNNAME":"新營區","LI":"南興里","LIN":"8鄰","STREET":"建業路","SECT":" ","MAREA":" ","LANE":"７８巷","ALLEY":" ","HOUSE_NO":"２１號四樓之３","E_COORD97":179331.81,"N_COORD97":2577544.9199999999,"ADDRESS":"建業路７８巷２１號四樓之３","OBJECTID":302324},"geometry":{"x":179331.81000000052,"y":2577544.9199999999}},{"attributes":{"ID":302333,"DIS_CODE":0,"TOWNNAME":"新營區","LI":"南興里","LIN":"8鄰","STREET":"建業路","SECT":" ","MAREA":" ","LANE":"７８巷","ALLEY":" ","HOUSE_NO":"２１號四樓之１","E_COORD97":179331.70999999999,"N_COORD97":2577544.9199999999,"ADDRESS":"建業路７８巷２１號四樓之１","OBJECTID":302325},"geometry":{"x":179331.70999999996,"y":2577544.9199999999}},{"attributes":{"ID":302334,"DIS_CODE":0,"TOWNNAME":"歸仁區","LI":"武東里","LIN":"8鄰","STREET":"武東一街","SECT":" ","MAREA":" ","LANE":"４９巷","ALLEY":" ","HOUSE_NO":"７０號六樓之７","E_COORD97":175800.20000000001,"N_COORD97":2535538.2999999998,"ADDRESS":"武東一街４９巷７０號六樓之７","OBJECTID":302326},"geometry":{"x":175800.20000000112,"y":2535538.3000000026}},{"attributes":{"ID":302335,"DIS_CODE":0,"TOWNNAME":"東區","LI":"裕農里","LIN":"14鄰","STREET":"裕豐街","SECT":" ","MAREA":" ","LANE":" ","ALLEY":" ","HOUSE_NO":"２５８號","E_COORD97":170817.35999999999,"N_COORD97":2543297.48,"ADDRESS":"裕豐街２５８號","OBJECTID":302327},"geometry":{"x":170817.36000000127,"y":2543297.4800000023}},{"attributes":{"ID":302336,"DIS_CODE":0,"TOWNNAME":"東區","LI":"裕農里","LIN":"14鄰","STREET":"裕豐街","SECT":" ","MAREA":" ","LANE":" ","ALLEY":" ","HOUSE_NO":"２６０號","E_COORD97":170817.88,"N_COORD97":2543301.3999999999,"ADDRESS":"裕豐街２６０號","OBJECTID":302328},"geometry":{"x":170817.88000000175,"y":2543301.4000000022}},{"attributes":{"ID":302337,"DIS_CODE":0,"TOWNNAME":"東區","LI":"裕農里","LIN":"14鄰","STREET":"裕豐街","SECT":" ","MAREA":" ","LANE":" ","ALLEY":" ","HOUSE_NO":"２６２號","E_COORD97":170817.09,"N_COORD97":2543306.3700000001,"ADDRESS":"裕豐街２６２號","OBJECTID":302329},"geometry":{"x":170817.09000000078,"y":2543306.370000001}},{"attributes":{"ID":302338,"DIS_CODE":0,"TOWNNAME":"東區","LI":"裕農里","LIN":"14鄰","STREET":"裕豐街","SECT":" ","MAREA":" ","LANE":" ","ALLEY":" ","HOUSE_NO":"２６４號","E_COORD97":170818.39999999999,"N_COORD97":2543310.2999999998,"ADDRESS":"裕豐街２６４號","OBJECTID":302330},"geometry":{"x":170818.4000000013,"y":2543310.3000000007}},{"attributes":{"ID":302339,"DIS_CODE":0,"TOWNNAME":"東區","LI":"裕農里","LIN":"14鄰","STREET":"裕豐街","SECT":" ","MAREA":" ","LANE":" ","ALLEY":" ","HOUSE_NO":"２６８號","E_COORD97":170818.92999999999,"N_COORD97":2543321.3199999998,"ADDRESS":"裕豐街２６８號","OBJECTID":302331},"geometry":{"x":170818.93000000156,"y":2543321.3200000022}},{"attributes":{"ID":302340,"DIS_CODE":0,"TOWNNAME":"東區","LI":"富裕里","LIN":"14鄰","STREET":"裕豐街","SECT":" ","MAREA":" ","LANE":" ","ALLEY":" ","HOUSE_NO":"９４號","E_COORD97":170737.38,"N_COORD97":2542856.5899999999,"ADDRESS":"裕豐街９４號","OBJECTID":302332},"geometry":{"x":170737.37999999989,"y":2542856.5899999999}},{"attributes":{"ID":302341,"DIS_CODE":0,"TOWNNAME":"新市區","LI":"大社里","LIN":"26鄰","STREET":" ","SECT":" ","MAREA":"大社","LANE":" ","ALLEY":" ","HOUSE_NO":"６７４之１號","E_COORD97":179919.14999999999,"N_COORD97":2554298.0499999998,"ADDRESS":"大社６７４之１號","OBJECTID":302333},"geometry":{"x":179919.15000000037,"y":2554298.0500000026}},{"attributes":{"ID":302342,"DIS_CODE":0,"TOWNNAME":"新市區","LI":"大社里","LIN":"25鄰","STREET":" ","SECT":" ","MAREA":"大社","LANE":" ","ALLEY":" ","HOUSE_NO":"９１８之１６號","E_COORD97":179932.42999999999,"N_COORD97":2554028.7999999998,"ADDRESS":"大社９１８之１６號","OBJECTID":302334},"geometry":{"x":179932.43000000156,"y":2554028.8000000026}},{"attributes":{"ID":302343,"DIS_CODE":0,"TOWNNAME":"新市區","LI":"三舍里","LIN":"4鄰","STREET":" ","SECT":" ","MAREA":"三舍","LANE":" ","ALLEY":" ","HOUSE_NO":"９２號","E_COORD97":178058.89999999999,"N_COORD97":2554411.5,"ADDRESS":"三舍９２號","OBJECTID":302335},"geometry":{"x":178058.9000000013,"y":2554411.5}},{"attributes":{"ID":302344,"DIS_CODE":0,"TOWNNAME":"歸仁區","LI":"看東里","LIN":"6鄰","STREET":"成功三街","SECT":" ","MAREA":" ","LANE":" ","ALLEY":" ","HOUSE_NO":"３９號","E_COORD97":178483.12918799999,"N_COORD97":2540013.5143900001,"ADDRESS":"成功三街３９號","OBJECTID":302336},"geometry":{"x":178483.12918800022,"y":2540013.5143870022}},{"attributes":{"ID":302345,"DIS_CODE":0,"TOWNNAME":"新市區","LI":"新市里","LIN":"25鄰","STREET":"復興路","SECT":" ","MAREA":" ","LANE":"６巷","ALLEY":" ","HOUSE_NO":"２６號","E_COORD97":177897.64999999999,"N_COORD97":2553346.7799999998,"ADDRESS":"復興路６巷２６號","OBJECTID":302337},"geometry":{"x":177897.6500000013,"y":2553346.7800000012}},{"attributes":{"ID":302346,"DIS_CODE":0,"TOWNNAME":"新市區","LI":"新和里","LIN":"18鄰","STREET":"銘傳街","SECT":" ","MAREA":" ","LANE":"３０巷","ALLEY":" ","HOUSE_NO":"１號","E_COORD97":177494.59,"N_COORD97":2552691.75,"ADDRESS":"銘傳街３０巷１號","OBJECTID":302338},"geometry":{"x":177494.58999999985,"y":2552691.7500000037}},{"attributes":{"ID":302347,"DIS_CODE":0,"TOWNNAME":"歸仁區","LI":"武東里","LIN":"8鄰","STREET":"武東一街","SECT":" ","MAREA":" ","LANE":"４９巷","ALLEY":" ","HOUSE_NO":"７０號六樓之４","E_COORD97":175800.14999999999,"N_COORD97":2535538.2999999998,"ADDRESS":"武東一街４９巷７０號六樓之４","OBJECTID":302339},"geometry":{"x":175800.15000000037,"y":2535538.3000000026}},{"attributes":{"ID":302348,"DIS_CODE":0,"TOWNNAME":"新市區","LI":"大營里","LIN":"5鄰","STREET":" ","SECT":" ","MAREA":"大營","LANE":" ","ALLEY":" ","HOUSE_NO":"７２號","E_COORD97":179530.95000000001,"N_COORD97":2555551.75,"ADDRESS":"大營７２號","OBJECTID":302340},"geometry":{"x":179530.95000000205,"y":2555551.75}},{"attributes":{"ID":302349,"DIS_CODE":0,"TOWNNAME":"新市區","LI":"三舍里","LIN":"5鄰","STREET":" ","SECT":" ","MAREA":"三舍","LANE":" ","ALLEY":" ","HOUSE_NO":"１２７號","E_COORD97":177856.03,"N_COORD97":2554557.5,"ADDRESS":"三舍１２７號","OBJECTID":302341},"geometry":{"x":177856.03000000119,"y":2554557.5}},{"attributes":{"ID":302350,"DIS_CODE":0,"TOWNNAME":"歸仁區","LI":"武東里","LIN":"8鄰","STREET":"武東一街","SECT":" ","MAREA":" ","LANE":"４９巷","ALLEY":" ","HOUSE_NO":"６８號三樓之４","E_COORD97":175800.14999999999,"N_COORD97":2535538.2999999998,"ADDRESS":"武東一街４９巷６８號三樓之４","OBJECTID":302342},"geometry":{"x":175800.15000000037,"y":2535538.3000000026}},{"attributes":{"ID":302351,"DIS_CODE":0,"TOWNNAME":"東區","LI":"新東里","LIN":"14鄰","STREET":"裕豐街","SECT":" ","MAREA":" ","LANE":" ","ALLEY":" ","HOUSE_NO":"１１７號","E_COORD97":170747.44,"N_COORD97":2543026.6699999999,"ADDRESS":"裕豐街１１７號","OBJECTID":302343},"geometry":{"x":170747.44000000134,"y":2543026.6700000018}},{"attributes":{"ID":302352,"DIS_CODE":0,"TOWNNAME":"東區","LI":"新東里","LIN":"14鄰","STREET":"裕豐街","SECT":" ","MAREA":" ","LANE":" ","ALLEY":" ","HOUSE_NO":"１１９號","E_COORD97":170747.28,"N_COORD97":2543031.3700000001,"ADDRESS":"裕豐街１１９號","OBJECTID":302344},"geometry":{"x":170747.28000000026,"y":2543031.370000001}},{"attributes":{"ID":302353,"DIS_CODE":0,"TOWNNAME":"新市區","LI":"大社里","LIN":"18鄰","STREET":" ","SECT":" ","MAREA":"大社","LANE":" ","ALLEY":" ","HOUSE_NO":"７６０號","E_COORD97":180045.35000000001,"N_COORD97":2554174.25,"ADDRESS":"大社７６０號","OBJECTID":302345},"geometry":{"x":180045.35000000056,"y":2554174.2500000019}},{"attributes":{"ID":302354,"DIS_CODE":0,"TOWNNAME":"新市區","LI":"潭頂里","LIN":"1鄰","STREET":" ","SECT":" ","MAREA":"潭頂","LANE":" ","ALLEY":" ","HOUSE_NO":"８號","E_COORD97":181888.70000000001,"N_COORD97":2552794,"ADDRESS":"潭頂８號","OBJECTID":302346},"geometry":{"x":181888.70000000019,"y":2552794}},{"attributes":{"ID":302355,"DIS_CODE":0,"TOWNNAME":"東區","LI":"新東里","LIN":"14鄰","STREET":"裕豐街","SECT":" ","MAREA":" ","LANE":" ","ALLEY":" ","HOUSE_NO":"１２１號","E_COORD97":170747.35999999999,"N_COORD97":2543035.8599999999,"ADDRESS":"裕豐街１２１號","OBJECTID":302347},"geometry":{"x":170747.36000000127,"y":2543035.8600000013}},{"attributes":{"ID":302356,"DIS_CODE":0,"TOWNNAME":"新市區","LI":"豐華里","LIN":"4鄰","STREET":" ","SECT":" ","MAREA":"豐華","LANE":" ","ALLEY":" ","HOUSE_NO":"２９之１號","E_COORD97":173735.85000000001,"N_COORD97":2554140.2999999998,"ADDRESS":"豐華２９之１號","OBJECTID":302348},"geometry":{"x":173735.85000000056,"y":2554140.3000000026}},{"attributes":{"ID":302357,"DIS_CODE":0,"TOWNNAME":"新市區","LI":"潭頂里","LIN":"13鄰","STREET":" ","SECT":" ","MAREA":"潭頂","LANE":" ","ALLEY":" ","HOUSE_NO":"４６７號","E_COORD97":180557.23000000001,"N_COORD97":2552833,"ADDRESS":"潭頂４６７號","OBJECTID":302349},"geometry":{"x":180557.23000000138,"y":2552833.0000000019}},{"attributes":{"ID":302358,"DIS_CODE":0,"TOWNNAME":"新市區","LI":"潭頂里","LIN":"13鄰","STREET":" ","SECT":" ","MAREA":"潭頂","LANE":" ","ALLEY":" ","HOUSE_NO":"４７３號","E_COORD97":180411.54000000001,"N_COORD97":2552832.75,"ADDRESS":"潭頂４７３號","OBJECTID":302350},"geometry":{"x":180411.53999999911,"y":2552832.75}},{"attributes":{"ID":302359,"DIS_CODE":0,"TOWNNAME":"新市區","LI":"豐華里","LIN":"4鄰","STREET":" ","SECT":" ","MAREA":"豐華","LANE":" ","ALLEY":" ","HOUSE_NO":"２７之３號","E_COORD97":173775.48000000001,"N_COORD97":2554083.8900000001,"ADDRESS":"豐華２７之３號","OBJECTID":302351},"geometry":{"x":173775.48000000045,"y":2554083.8900000006}},{"attributes":{"ID":302360,"DIS_CODE":0,"TOWNNAME":"新市區","LI":"豐華里","LIN":"4鄰","STREET":" ","SECT":" ","MAREA":"豐華","LANE":" ","ALLEY":" ","HOUSE_NO":"２５號","E_COORD97":173781.04000000001,"N_COORD97":2554163.25,"ADDRESS":"豐華２５號","OBJECTID":302352},"geometry":{"x":173781.04000000004,"y":2554163.2500000037}},{"attributes":{"ID":302361,"DIS_CODE":0,"TOWNNAME":"新市區","LI":"潭頂里","LIN":"14鄰","STREET":" ","SECT":" ","MAREA":"潭頂","LANE":" ","ALLEY":" ","HOUSE_NO":"５３１號","E_COORD97":180294.98000000001,"N_COORD97":2552918,"ADDRESS":"潭頂５３１號","OBJECTID":302353},"geometry":{"x":180294.98000000045,"y":2552918.0000000019}},{"attributes":{"ID":302362,"DIS_CODE":0,"TOWNNAME":"新市區","LI":"潭頂里","LIN":"13鄰","STREET":" ","SECT":" ","MAREA":"潭頂","LANE":" ","ALLEY":" ","HOUSE_NO":"４７３之４號","E_COORD97":180424.25,"N_COORD97":2552811.2999999998,"ADDRESS":"潭頂４７３之４號","OBJECTID":302354},"geometry":{"x":180424.25000000093,"y":2552811.3000000026}},{"attributes":{"ID":302363,"DIS_CODE":0,"TOWNNAME":"新市區","LI":"新和里","LIN":"20鄰","STREET":"成功街","SECT":" ","MAREA":" ","LANE":"１６巷","ALLEY":" ","HOUSE_NO":"６號","E_COORD97":177487.32000000001,"N_COORD97":2552608.27,"ADDRESS":"成功街１６巷６號","OBJECTID":302355},"geometry":{"x":177487.3200000003,"y":2552608.2699999996}},{"attributes":{"ID":302364,"DIS_CODE":0,"TOWNNAME":"新市區","LI":"新和里","LIN":"39鄰","STREET":"中正路","SECT":" ","MAREA":" ","LANE":"１９５巷","ALLEY":" ","HOUSE_NO":"２２號","E_COORD97":177272.39999999999,"N_COORD97":2552896.5,"ADDRESS":"中正路１９５巷２２號","OBJECTID":302356},"geometry":{"x":177272.4000000013,"y":2552896.5}},{"attributes":{"ID":302365,"DIS_CODE":0,"TOWNNAME":"新市區","LI":"潭頂里","LIN":"1鄰","STREET":" ","SECT":" ","MAREA":"潭頂","LANE":" ","ALLEY":" ","HOUSE_NO":"１１之２號","E_COORD97":181604.12,"N_COORD97":2552447.0499999998,"ADDRESS":"潭頂１１之２號","OBJECTID":302357},"geometry":{"x":181604.12000000011,"y":2552447.0500000026}},{"attributes":{"ID":302366,"DIS_CODE":0,"TOWNNAME":"新市區","LI":"潭頂里","LIN":"1鄰","STREET":" ","SECT":" ","MAREA":"潭頂","LANE":" ","ALLEY":" ","HOUSE_NO":"１２號","E_COORD97":181581.94,"N_COORD97":2552605,"ADDRESS":"潭頂１２號","OBJECTID":302358},"geometry":{"x":181581.94000000041,"y":2552605}},{"attributes":{"ID":302367,"DIS_CODE":0,"TOWNNAME":"新市區","LI":"新和里","LIN":"43鄰","STREET":"民權路","SECT":" ","MAREA":" ","LANE":"３１巷","ALLEY":" ","HOUSE_NO":"６號","E_COORD97":177369.95999999999,"N_COORD97":2553022.04,"ADDRESS":"民權路３１巷６號","OBJECTID":302359},"geometry":{"x":177369.96000000089,"y":2553022.040000001}},{"attributes":{"ID":302368,"DIS_CODE":0,"TOWNNAME":"新市區","LI":"新市里","LIN":"25鄰","STREET":"復興路","SECT":" ","MAREA":" ","LANE":"６巷","ALLEY":" ","HOUSE_NO":"２０號","E_COORD97":177876.32000000001,"N_COORD97":2553339.5299999998,"ADDRESS":"復興路６巷２０號","OBJECTID":302360},"geometry":{"x":177876.32000000123,"y":2553339.5299999993}},{"attributes":{"ID":302369,"DIS_CODE":0,"TOWNNAME":"歸仁區","LI":"武東里","LIN":"8鄰","STREET":"武東一街","SECT":" ","MAREA":" ","LANE":"４９巷","ALLEY":" ","HOUSE_NO":"６６號三樓之１","E_COORD97":175800.13,"N_COORD97":2535538.2999999998,"ADDRESS":"武東一街４９巷６６號三樓之１","OBJECTID":302361},"geometry":{"x":175800.13000000082,"y":2535538.3000000026}},{"attributes":{"ID":302370,"DIS_CODE":0,"TOWNNAME":"歸仁區","LI":"武東里","LIN":"8鄰","STREET":"武東一街","SECT":" ","MAREA":" ","LANE":"４９巷","ALLEY":" ","HOUSE_NO":"７０號六樓之５","E_COORD97":175800.28,"N_COORD97":2535538.2999999998,"ADDRESS":"武東一街４９巷７０號六樓之５","OBJECTID":302362},"geometry":{"x":175800.28000000026,"y":2535538.3000000026}},{"attributes":{"ID":302371,"DIS_CODE":0,"TOWNNAME":"北區","LI":"六甲里","LIN":"8鄰","STREET":"西門路","SECT":"四段","MAREA":" ","LANE":"２００巷","ALLEY":" ","HOUSE_NO":"１３號四樓","E_COORD97":168939.19,"N_COORD97":2545673.1200000001,"ADDRESS":"西門路四段２００巷１３號四樓","OBJECTID":302363},"geometry":{"x":168939.19000000041,"y":2545673.1200000029}},{"attributes":{"ID":302372,"DIS_CODE":0,"TOWNNAME":"北區","LI":"六甲里","LIN":"8鄰","STREET":"西門路","SECT":"四段","MAREA":" ","LANE":"２００巷","ALLEY":" ","HOUSE_NO":"１５號七樓","E_COORD97":168946.78,"N_COORD97":2545670.1699999999,"ADDRESS":"西門路四段２００巷１５號七樓","OBJECTID":302364},"geometry":{"x":168946.78000000026,"y":2545670.1699999999}},{"attributes":{"ID":302373,"DIS_CODE":0,"TOWNNAME":"北區","LI":"六甲里","LIN":"8鄰","STREET":"西門路","SECT":"四段","MAREA":" ","LANE":"２００巷","ALLEY":" ","HOUSE_NO":"１５號二樓","E_COORD97":168946.78,"N_COORD97":2545670.1699999999,"ADDRESS":"西門路四段２００巷１５號二樓","OBJECTID":302365},"geometry":{"x":168946.78000000026,"y":2545670.1699999999}},{"attributes":{"ID":302374,"DIS_CODE":0,"TOWNNAME":"東區","LI":"新東里","LIN":"14鄰","STREET":"裕豐街","SECT":" ","MAREA":" ","LANE":" ","ALLEY":" ","HOUSE_NO":"１２３號","E_COORD97":170748.01000000001,"N_COORD97":2543040.1899999999,"ADDRESS":"裕豐街１２３號","OBJECTID":302366},"geometry":{"x":170748.01000000071,"y":2543040.1900000013}},{"attributes":{"ID":302375,"DIS_CODE":0,"TOWNNAME":"東區","LI":"新東里","LIN":"14鄰","STREET":"裕豐街","SECT":" ","MAREA":" ","LANE":" ","ALLEY":" ","HOUSE_NO":"１２５號","E_COORD97":170751.04000000001,"N_COORD97":2543046.6499999999,"ADDRESS":"裕豐街１２５號","OBJECTID":302367},"geometry":{"x":170751.04000000097,"y":2543046.6500000004}},{"attributes":{"ID":302376,"DIS_CODE":0,"TOWNNAME":"東區","LI":"新東里","LIN":"14鄰","STREET":"裕豐街","SECT":" ","MAREA":" ","LANE":" ","ALLEY":" ","HOUSE_NO":"１２７號","E_COORD97":170750.79000000001,"N_COORD97":2543052.04,"ADDRESS":"裕豐街１２７號","OBJECTID":302368},"geometry":{"x":170750.7900000019,"y":2543052.0399999991}},{"attributes":{"ID":302377,"DIS_CODE":0,"TOWNNAME":"東區","LI":"新東里","LIN":"14鄰","STREET":"裕豐街","SECT":" ","MAREA":" ","LANE":" ","ALLEY":" ","HOUSE_NO":"１２９號","E_COORD97":170750.95999999999,"N_COORD97":2543056.6899999999,"ADDRESS":"裕豐街１２９號","OBJECTID":302369},"geometry":{"x":170750.95999999996,"y":2543056.6900000013}},{"attributes":{"ID":302378,"DIS_CODE":0,"TOWNNAME":"新營區","LI":"鐵線里","LIN":"13鄰","STREET":" ","SECT":" ","MAREA":"秀才","LANE":" ","ALLEY":" ","HOUSE_NO":"８號","E_COORD97":174873.51000000001,"N_COORD97":2573808.0600000001,"ADDRESS":"秀才８號","OBJECTID":302370},"geometry":{"x":174873.51000000164,"y":2573808.0600000005}},{"attributes":{"ID":302379,"DIS_CODE":0,"TOWNNAME":"新市區","LI":"新和里","LIN":"38鄰","STREET":"成功街","SECT":" ","MAREA":" ","LANE":"７７巷","ALLEY":" ","HOUSE_NO":"６號","E_COORD97":177465.67999999999,"N_COORD97":2552830.27,"ADDRESS":"成功街７７巷６號","OBJECTID":302371},"geometry":{"x":177465.67999999877,"y":2552830.2700000033}},{"attributes":{"ID":302380,"DIS_CODE":0,"TOWNNAME":"新市區","LI":"新和里","LIN":"46鄰","STREET":"和平街","SECT":" ","MAREA":" ","LANE":"２０８巷","ALLEY":" ","HOUSE_NO":"６之２號","E_COORD97":177362.60000000001,"N_COORD97":2553277.2999999998,"ADDRESS":"和平街２０８巷６之２號","OBJECTID":302372},"geometry":{"x":177362.59999999963,"y":2553277.3000000007}},{"attributes":{"ID":302381,"DIS_CODE":0,"TOWNNAME":"永康區","LI":"中興里","LIN":"26鄰","STREET":"中山東路","SECT":" ","MAREA":" ","LANE":"３８６巷","ALLEY":" ","HOUSE_NO":"６號","E_COORD97":171865.85000000001,"N_COORD97":2545256.2400000002,"ADDRESS":"中山東路３８６巷６號","OBJECTID":302373},"geometry":{"x":171865.85000000056,"y":2545256.2400000002}},{"attributes":{"ID":302382,"DIS_CODE":0,"TOWNNAME":"永康區","LI":"大橋里","LIN":"25鄰","STREET":"大橋一街","SECT":" ","MAREA":" ","LANE":"２４７巷","ALLEY":" ","HOUSE_NO":"２１號","E_COORD97":171260.62,"N_COORD97":2546700.2400000002,"ADDRESS":"大橋一街２４７巷２１號","OBJECTID":302374},"geometry":{"x":171260.62000000197,"y":2546700.2400000002}},{"attributes":{"ID":302383,"DIS_CODE":0,"TOWNNAME":"官田區","LI":"隆本里","LIN":"25鄰","STREET":"信義街","SECT":"二段","MAREA":" ","LANE":"４１巷","ALLEY":" ","HOUSE_NO":"１１號","E_COORD97":179677.76000000001,"N_COORD97":2565965.7400000002,"ADDRESS":"信義街二段４１巷１１號","OBJECTID":302375},"geometry":{"x":179677.76000000071,"y":2565965.7400000021}},{"attributes":{"ID":302384,"DIS_CODE":0,"TOWNNAME":"北區","LI":"六甲里","LIN":"8鄰","STREET":"西門路","SECT":"四段","MAREA":" ","LANE":"２００巷","ALLEY":" ","HOUSE_NO":"１５號八樓","E_COORD97":168946.78,"N_COORD97":2545670.1699999999,"ADDRESS":"西門路四段２００巷１５號八樓","OBJECTID":302376},"geometry":{"x":168946.78000000026,"y":2545670.1699999999}},{"attributes":{"ID":302385,"DIS_CODE":0,"TOWNNAME":"北區","LI":"六甲里","LIN":"8鄰","STREET":"西門路","SECT":"四段","MAREA":" ","LANE":"２００巷","ALLEY":" ","HOUSE_NO":"１５號三樓","E_COORD97":168946.78,"N_COORD97":2545670.1699999999,"ADDRESS":"西門路四段２００巷１５號三樓","OBJECTID":302377},"geometry":{"x":168946.78000000026,"y":2545670.1699999999}},{"attributes":{"ID":302386,"DIS_CODE":0,"TOWNNAME":"北區","LI":"六甲里","LIN":"8鄰","STREET":"西門路","SECT":"四段","MAREA":" ","LANE":"２００巷","ALLEY":" ","HOUSE_NO":"１５號五樓","E_COORD97":168946.78,"N_COORD97":2545670.1699999999,"ADDRESS":"西門路四段２００巷１５號五樓","OBJECTID":302378},"geometry":{"x":168946.78000000026,"y":2545670.1699999999}},{"attributes":{"ID":302387,"DIS_CODE":0,"TOWNNAME":"北區","LI":"六甲里","LIN":"8鄰","STREET":"西門路","SECT":"四段","MAREA":" ","LANE":"２００巷","ALLEY":" ","HOUSE_NO":"１５號六樓","E_COORD97":168946.78,"N_COORD97":2545670.1699999999,"ADDRESS":"西門路四段２００巷１５號六樓","OBJECTID":302379},"geometry":{"x":168946.78000000026,"y":2545670.1699999999}},{"attributes":{"ID":302388,"DIS_CODE":0,"TOWNNAME":"東區","LI":"新東里","LIN":"14鄰","STREET":"裕豐街","SECT":" ","MAREA":" ","LANE":" ","ALLEY":" ","HOUSE_NO":"１３１號","E_COORD97":170750.22,"N_COORD97":2543060.8599999999,"ADDRESS":"裕豐街１３１號","OBJECTID":302380},"geometry":{"x":170750.21999999974,"y":2543060.8599999994}},{"attributes":{"ID":302389,"DIS_CODE":0,"TOWNNAME":"東區","LI":"南聖里","LIN":"14鄰","STREET":"裕信路","SECT":" ","MAREA":" ","LANE":" ","ALLEY":" ","HOUSE_NO":"３號","E_COORD97":172621.72,"N_COORD97":2543347.8599999999,"ADDRESS":"裕信路３號","OBJECTID":302381},"geometry":{"x":172621.71999999974,"y":2543347.8600000013}},{"attributes":{"ID":302390,"DIS_CODE":0,"TOWNNAME":"東區","LI":"南聖里","LIN":"14鄰","STREET":"裕信路","SECT":" ","MAREA":" ","LANE":" ","ALLEY":" ","HOUSE_NO":"１號","E_COORD97":172622.67999999999,"N_COORD97":2543356.2000000002,"ADDRESS":"裕信路１號","OBJECTID":302382},"geometry":{"x":172622.68000000156,"y":2543356.1999999993}},{"attributes":{"ID":302391,"DIS_CODE":0,"TOWNNAME":"永康區","LI":"西灣里","LIN":"14鄰","STREET":"民族路","SECT":" ","MAREA":" ","LANE":" ","ALLEY":" ","HOUSE_NO":"４２５號","E_COORD97":174737.97,"N_COORD97":2545367.2799999998,"ADDRESS":"民族路４２５號","OBJECTID":302383},"geometry":{"x":174737.9700000016,"y":2545367.2799999993}},{"attributes":{"ID":302392,"DIS_CODE":0,"TOWNNAME":"仁德區","LI":"太子里","LIN":"14鄰","STREET":"太子北路","SECT":" ","MAREA":" ","LANE":" ","ALLEY":" ","HOUSE_NO":"１４８號","E_COORD97":174017.76999999999,"N_COORD97":2543710.5,"ADDRESS":"太子北路１４８號","OBJECTID":302384},"geometry":{"x":174017.77000000048,"y":2543710.5000000019}},{"attributes":{"ID":302393,"DIS_CODE":0,"TOWNNAME":"官田區","LI":"隆本里","LIN":"25鄰","STREET":"信義街","SECT":"二段","MAREA":" ","LANE":"４１巷","ALLEY":" ","HOUSE_NO":"３０號","E_COORD97":179671.31,"N_COORD97":2566021.6800000002,"ADDRESS":"信義街二段４１巷３０號","OBJECTID":302385},"geometry":{"x":179671.30999999959,"y":2566021.6799999997}},{"attributes":{"ID":302394,"DIS_CODE":0,"TOWNNAME":"官田區","LI":"隆本里","LIN":"25鄰","STREET":"信義街","SECT":"二段","MAREA":" ","LANE":"４１巷","ALLEY":" ","HOUSE_NO":"３１號","E_COORD97":179678.60999999999,"N_COORD97":2566010.6299999999,"ADDRESS":"信義街二段４１巷３１號","OBJECTID":302386},"geometry":{"x":179678.61000000034,"y":2566010.629999999}},{"attributes":{"ID":302395,"DIS_CODE":0,"TOWNNAME":"官田區","LI":"隆本里","LIN":"25鄰","STREET":"信義街","SECT":"二段","MAREA":" ","LANE":"４１巷","ALLEY":" ","HOUSE_NO":"３２號","E_COORD97":179665.5,"N_COORD97":2566023.8999999999,"ADDRESS":"信義街二段４１巷３２號","OBJECTID":302387},"geometry":{"x":179665.5,"y":2566023.9000000004}},{"attributes":{"ID":302396,"DIS_CODE":0,"TOWNNAME":"官田區","LI":"隆本里","LIN":"25鄰","STREET":"信義街","SECT":"二段","MAREA":" ","LANE":"４１巷","ALLEY":" ","HOUSE_NO":"３３號","E_COORD97":179664.91,"N_COORD97":2566003.96,"ADDRESS":"信義街二段４１巷３３號","OBJECTID":302388},"geometry":{"x":179664.91000000015,"y":2566003.9600000009}},{"attributes":{"ID":302397,"DIS_CODE":0,"TOWNNAME":"官田區","LI":"隆本里","LIN":"25鄰","STREET":"信義街","SECT":"二段","MAREA":" ","LANE":"４１巷","ALLEY":" ","HOUSE_NO":"３５號","E_COORD97":179660.95999999999,"N_COORD97":2566005.1000000001,"ADDRESS":"信義街二段４１巷３５號","OBJECTID":302389},"geometry":{"x":179660.95999999996,"y":2566005.0999999996}},{"attributes":{"ID":302398,"DIS_CODE":0,"TOWNNAME":"官田區","LI":"隆本里","LIN":"25鄰","STREET":"信義街","SECT":"二段","MAREA":" ","LANE":"４１巷","ALLEY":" ","HOUSE_NO":"３６號","E_COORD97":179661.16,"N_COORD97":2566024.9500000002,"ADDRESS":"信義街二段４１巷３６號","OBJECTID":302390},"geometry":{"x":179661.16000000015,"y":2566024.9500000011}},{"attributes":{"ID":302399,"DIS_CODE":0,"TOWNNAME":"官田區","LI":"隆本里","LIN":"25鄰","STREET":"信義街","SECT":"二段","MAREA":" ","LANE":"４１巷","ALLEY":" ","HOUSE_NO":"３７號","E_COORD97":179656.48000000001,"N_COORD97":2566006.8399999999,"ADDRESS":"信義街二段４１巷３７號","OBJECTID":302391},"geometry":{"x":179656.48000000231,"y":2566006.8399999999}},{"attributes":{"ID":302400,"DIS_CODE":0,"TOWNNAME":"官田區","LI":"隆本里","LIN":"25鄰","STREET":"信義街","SECT":"二段","MAREA":" ","LANE":"４１巷","ALLEY":" ","HOUSE_NO":"３８號","E_COORD97":179656.67000000001,"N_COORD97":2566030.3900000001,"ADDRESS":"信義街二段４１巷３８號","OBJECTID":302392},"geometry":{"x":179656.67000000086,"y":2566030.3900000025}},{"attributes":{"ID":302401,"DIS_CODE":0,"TOWNNAME":"官田區","LI":"隆本里","LIN":"25鄰","STREET":"信義街","SECT":"二段","MAREA":" ","LANE":"４１巷","ALLEY":" ","HOUSE_NO":"３９號","E_COORD97":179651.95999999999,"N_COORD97":2566009.5499999998,"ADDRESS":"信義街二段４１巷３９號","OBJECTID":302393},"geometry":{"x":179651.95999999996,"y":2566009.5500000026}},{"attributes":{"ID":302402,"DIS_CODE":0,"TOWNNAME":"北區","LI":"六甲里","LIN":"8鄰","STREET":"西門路","SECT":"四段","MAREA":" ","LANE":"２００巷","ALLEY":" ","HOUSE_NO":"１５號四樓","E_COORD97":168946.78,"N_COORD97":2545670.1699999999,"ADDRESS":"西門路四段２００巷１５號四樓","OBJECTID":302394},"geometry":{"x":168946.78000000026,"y":2545670.1699999999}},{"attributes":{"ID":302403,"DIS_CODE":0,"TOWNNAME":"北區","LI":"六甲里","LIN":"8鄰","STREET":"西門路","SECT":"四段","MAREA":" ","LANE":"２００巷","ALLEY":" ","HOUSE_NO":"１７號七樓","E_COORD97":168971.53,"N_COORD97":2545662.9700000002,"ADDRESS":"西門路四段２００巷１７號七樓","OBJECTID":302395},"geometry":{"x":168971.53000000119,"y":2545662.9700000044}},{"attributes":{"ID":302404,"DIS_CODE":0,"TOWNNAME":"北區","LI":"六甲里","LIN":"8鄰","STREET":"西門路","SECT":"四段","MAREA":" ","LANE":"２００巷","ALLEY":" ","HOUSE_NO":"１７號九樓","E_COORD97":168971.53,"N_COORD97":2545662.9700000002,"ADDRESS":"西門路四段２００巷１７號九樓","OBJECTID":302396},"geometry":{"x":168971.53000000119,"y":2545662.9700000044}},{"attributes":{"ID":302405,"DIS_CODE":0,"TOWNNAME":"北區","LI":"六甲里","LIN":"8鄰","STREET":"西門路","SECT":"四段","MAREA":" ","LANE":"２００巷","ALLEY":" ","HOUSE_NO":"１７號二樓","E_COORD97":168971.53,"N_COORD97":2545662.9700000002,"ADDRESS":"西門路四段２００巷１７號二樓","OBJECTID":302397},"geometry":{"x":168971.53000000119,"y":2545662.9700000044}},{"attributes":{"ID":302406,"DIS_CODE":0,"TOWNNAME":"北區","LI":"六甲里","LIN":"8鄰","STREET":"西門路","SECT":"四段","MAREA":" ","LANE":"２００巷","ALLEY":" ","HOUSE_NO":"１７號八樓","E_COORD97":168971.53,"N_COORD97":2545662.9700000002,"ADDRESS":"西門路四段２００巷１７號八樓","OBJECTID":302398},"geometry":{"x":168971.53000000119,"y":2545662.9700000044}},{"attributes":{"ID":302407,"DIS_CODE":0,"TOWNNAME":"北區","LI":"六甲里","LIN":"8鄰","STREET":"西門路","SECT":"四段","MAREA":" ","LANE":"２００巷","ALLEY":" ","HOUSE_NO":"１７號三樓","E_COORD97":168971.53,"N_COORD97":2545662.9700000002,"ADDRESS":"西門路四段２００巷１７號三樓","OBJECTID":302399},"geometry":{"x":168971.53000000119,"y":2545662.9700000044}},{"attributes":{"ID":302408,"DIS_CODE":0,"TOWNNAME":"北區","LI":"六甲里","LIN":"8鄰","STREET":"西門路","SECT":"四段","MAREA":" ","LANE":"２００巷","ALLEY":" ","HOUSE_NO":"１７號五樓","E_COORD97":168971.53,"N_COORD97":2545662.9700000002,"ADDRESS":"西門路四段２００巷１７號五樓","OBJECTID":302400},"geometry":{"x":168971.53000000119,"y":2545662.9700000044}}]}