{"displayFieldName":"TOWNNAME","fieldAliases":{"ID":"ID","DIS_CODE":"DIS_CODE","TOWNNAME":"TOWNNAME","LI":"LI","LIN":"LIN","STREET":"STREET","SECT":"SECT","MAREA":"MAREA","LANE":"LANE","ALLEY":"ALLEY","HOUSE_NO":"HOUSE_NO","E_COORD97":"E_COORD97","N_COORD97":"N_COORD97","ADDRESS":"ADDRESS","OBJECTID":"OBJECTID"},"geometryType":"esriGeometryPoint","spatialReference":{"wkid":102443,"latestWkid":3826},"fields":[{"name":"ID","type":"esriFieldTypeDouble","alias":"ID"},{"name":"DIS_CODE","type":"esriFieldTypeInteger","alias":"DIS_CODE"},{"name":"TOWNNAME","type":"esriFieldTypeString","alias":"TOWNNAME","length":8},{"name":"LI","type":"esriFieldTypeString","alias":"LI","length":8},{"name":"LIN","type":"esriFieldTypeString","alias":"LIN","length":12},{"name":"STREET","type":"esriFieldTypeString","alias":"STREET","length":20},{"name":"SECT","type":"esriFieldTypeString","alias":"SECT","length":8},{"name":"MAREA","type":"esriFieldTypeString","alias":"MAREA","length":12},{"name":"LANE","type":"esriFieldTypeString","alias":"LANE","length":10},{"name":"ALLEY","type":"esriFieldTypeString","alias":"ALLEY","length":10},{"name":"HOUSE_NO","type":"esriFieldTypeString","alias":"HOUSE_NO","length":20},{"name":"E_COORD97","type":"esriFieldTypeDouble","alias":"E_COORD97"},{"name":"N_COORD97","type":"esriFieldTypeDouble","alias":"N_COORD97"},{"name":"ADDRESS","type":"esriFieldTypeString","alias":"ADDRESS","length":50},{"name":"OBJECTID","type":"esriFieldTypeOID","alias":"OBJECTID"}],"features":[{"attributes":{"ID":271406,"DIS_CODE":0,"TOWNNAME":"新市區","LI":"社內里","LIN":"3鄰","STREET":" ","SECT":" ","MAREA":"社內","LANE":" ","ALLEY":" ","HOUSE_NO":"３１之１１號","E_COORD97":177024.48000000001,"N_COORD97":2552561.7999999998,"ADDRESS":"社內３１之１１號","OBJECTID":271401},"geometry":{"x":177024.48000000138,"y":2552561.8000000007}},{"attributes":{"ID":271407,"DIS_CODE":0,"TOWNNAME":"新市區","LI":"社內里","LIN":"3鄰","STREET":" ","SECT":" ","MAREA":"社內","LANE":" ","ALLEY":" ","HOUSE_NO":"３１之１０號","E_COORD97":177029.62,"N_COORD97":2552563.7999999998,"ADDRESS":"社內３１之１０號","OBJECTID":271402},"geometry":{"x":177029.62000000104,"y":2552563.8000000026}},{"attributes":{"ID":271408,"DIS_CODE":0,"TOWNNAME":"安南區","LI":"公\u25A0里","LIN":"8鄰","STREET":"安興街","SECT":" ","MAREA":" ","LANE":"１８１巷","ALLEY":" ","HOUSE_NO":"１１２號","E_COORD97":163824.67999999999,"N_COORD97":2551919.4300000002,"ADDRESS":"安興街１８１巷１１２號","OBJECTID":271403},"geometry":{"x":163824.68000000156,"y":2551919.4299999997}},{"attributes":{"ID":271409,"DIS_CODE":0,"TOWNNAME":"新市區","LI":"永就里","LIN":"3鄰","STREET":" ","SECT":" ","MAREA":"永就","LANE":" ","ALLEY":" ","HOUSE_NO":"３７號","E_COORD97":178501.87,"N_COORD97":2551442.25,"ADDRESS":"永就３７號","OBJECTID":271404},"geometry":{"x":178501.87000000011,"y":2551442.2500000019}},{"attributes":{"ID":271410,"DIS_CODE":0,"TOWNNAME":"東區","LI":"大學里","LIN":"8鄰","STREET":"大學路","SECT":" ","MAREA":" ","LANE":"１８巷","ALLEY":" ","HOUSE_NO":"１５號","E_COORD97":170138.88,"N_COORD97":2543934.1499999999,"ADDRESS":"大學路１８巷１５號","OBJECTID":271405},"geometry":{"x":170138.88000000082,"y":2543934.1500000004}},{"attributes":{"ID":271411,"DIS_CODE":0,"TOWNNAME":"東區","LI":"大學里","LIN":"8鄰","STREET":"大學路","SECT":" ","MAREA":" ","LANE":"１８巷","ALLEY":" ","HOUSE_NO":"１５號之２","E_COORD97":170139.79999999999,"N_COORD97":2543921.9399999999,"ADDRESS":"大學路１８巷１５號之２","OBJECTID":271406},"geometry":{"x":170139.79999999981,"y":2543921.9399999995}},{"attributes":{"ID":271412,"DIS_CODE":0,"TOWNNAME":"新市區","LI":"永就里","LIN":"3鄰","STREET":" ","SECT":" ","MAREA":"永就","LANE":" ","ALLEY":" ","HOUSE_NO":"３５號","E_COORD97":178404.12,"N_COORD97":2551442.75,"ADDRESS":"永就３５號","OBJECTID":271407},"geometry":{"x":178404.12000000197,"y":2551442.75}},{"attributes":{"ID":271413,"DIS_CODE":0,"TOWNNAME":"新市區","LI":"社內里","LIN":"3鄰","STREET":" ","SECT":" ","MAREA":"社內","LANE":" ","ALLEY":" ","HOUSE_NO":"３１之３號","E_COORD97":177011.97,"N_COORD97":2552568.2999999998,"ADDRESS":"社內３１之３號","OBJECTID":271408},"geometry":{"x":177011.97000000067,"y":2552568.3000000026}},{"attributes":{"ID":271414,"DIS_CODE":0,"TOWNNAME":"新市區","LI":"永就里","LIN":"3鄰","STREET":" ","SECT":" ","MAREA":"永就","LANE":" ","ALLEY":" ","HOUSE_NO":"３３號","E_COORD97":178394.53,"N_COORD97":2551419,"ADDRESS":"永就３３號","OBJECTID":271409},"geometry":{"x":178394.53000000026,"y":2551419.0000000019}},{"attributes":{"ID":271415,"DIS_CODE":0,"TOWNNAME":"新市區","LI":"永就里","LIN":"3鄰","STREET":" ","SECT":" ","MAREA":"永就","LANE":" ","ALLEY":" ","HOUSE_NO":"３４號","E_COORD97":178405.78,"N_COORD97":2551435,"ADDRESS":"永就３４號","OBJECTID":271410},"geometry":{"x":178405.78000000026,"y":2551435}},{"attributes":{"ID":271416,"DIS_CODE":0,"TOWNNAME":"新市區","LI":"永就里","LIN":"3鄰","STREET":" ","SECT":" ","MAREA":"永就","LANE":" ","ALLEY":" ","HOUSE_NO":"２８號","E_COORD97":178458.32000000001,"N_COORD97":2551400,"ADDRESS":"永就２８號","OBJECTID":271411},"geometry":{"x":178458.3200000003,"y":2551400.0000000019}},{"attributes":{"ID":271417,"DIS_CODE":0,"TOWNNAME":"東區","LI":"大學里","LIN":"8鄰","STREET":"大學路","SECT":" ","MAREA":" ","LANE":"１８巷","ALLEY":" ","HOUSE_NO":"１５號之３","E_COORD97":170139.53,"N_COORD97":2543914.6499999999,"ADDRESS":"大學路１８巷１５號之３","OBJECTID":271412},"geometry":{"x":170139.53000000119,"y":2543914.6500000004}},{"attributes":{"ID":271418,"DIS_CODE":0,"TOWNNAME":"東區","LI":"忠孝里","LIN":"8鄰","STREET":"榮譽街","SECT":" ","MAREA":" ","LANE":"８４巷","ALLEY":" ","HOUSE_NO":"１４５號","E_COORD97":169802.62,"N_COORD97":2541558.0099999998,"ADDRESS":"榮譽街８４巷１４５號","OBJECTID":271413},"geometry":{"x":169802.61999999918,"y":2541558.0099999998}},{"attributes":{"ID":271419,"DIS_CODE":0,"TOWNNAME":"東區","LI":"圍下里","LIN":"8鄰","STREET":"青年路","SECT":" ","MAREA":" ","LANE":"２９３巷","ALLEY":" ","HOUSE_NO":"７７號","E_COORD97":169443.70000000001,"N_COORD97":2543652.29,"ADDRESS":"青年路２９３巷７７號","OBJECTID":271414},"geometry":{"x":169443.70000000019,"y":2543652.290000001}},{"attributes":{"ID":271420,"DIS_CODE":0,"TOWNNAME":"東區","LI":"圍下里","LIN":"8鄰","STREET":"青年路","SECT":" ","MAREA":" ","LANE":"２９３巷","ALLEY":" ","HOUSE_NO":"９號","E_COORD97":169390.07999999999,"N_COORD97":2543611.73,"ADDRESS":"青年路２９３巷９號","OBJECTID":271415},"geometry":{"x":169390.08000000101,"y":2543611.7300000004}},{"attributes":{"ID":271421,"DIS_CODE":0,"TOWNNAME":"東區","LI":"圍下里","LIN":"8鄰","STREET":"青年路","SECT":" ","MAREA":" ","LANE":"２９３巷","ALLEY":" ","HOUSE_NO":"６９號","E_COORD97":169442.57000000001,"N_COORD97":2543635.7599999998,"ADDRESS":"青年路２９３巷６９號","OBJECTID":271416},"geometry":{"x":169442.57000000123,"y":2543635.7600000035}},{"attributes":{"ID":271422,"DIS_CODE":0,"TOWNNAME":"東區","LI":"圍下里","LIN":"8鄰","STREET":"青年路","SECT":" ","MAREA":" ","LANE":"２９３巷","ALLEY":" ","HOUSE_NO":"１１號","E_COORD97":169391.63,"N_COORD97":2543600.02,"ADDRESS":"青年路２９３巷１１號","OBJECTID":271417},"geometry":{"x":169391.62999999989,"y":2543600.0200000033}},{"attributes":{"ID":271423,"DIS_CODE":0,"TOWNNAME":"東區","LI":"圍下里","LIN":"8鄰","STREET":"青年路","SECT":" ","MAREA":" ","LANE":"２９３巷","ALLEY":" ","HOUSE_NO":"４７號","E_COORD97":169428.47,"N_COORD97":2543591.27,"ADDRESS":"青年路２９３巷４７號","OBJECTID":271418},"geometry":{"x":169428.46999999974,"y":2543591.2700000033}},{"attributes":{"ID":271424,"DIS_CODE":0,"TOWNNAME":"東區","LI":"圍下里","LIN":"8鄰","STREET":"青年路","SECT":" ","MAREA":" ","LANE":"２９３巷","ALLEY":" ","HOUSE_NO":"２３號","E_COORD97":169406.01999999999,"N_COORD97":2543604.3399999999,"ADDRESS":"青年路２９３巷２３號","OBJECTID":271419},"geometry":{"x":169406.01999999862,"y":2543604.3399999999}},{"attributes":{"ID":271425,"DIS_CODE":0,"TOWNNAME":"東區","LI":"圍下里","LIN":"8鄰","STREET":"青年路","SECT":" ","MAREA":" ","LANE":"２９３巷","ALLEY":" ","HOUSE_NO":"６５號","E_COORD97":169440.31,"N_COORD97":2543621.4500000002,"ADDRESS":"青年路２９３巷６５號","OBJECTID":271420},"geometry":{"x":169440.31000000052,"y":2543621.4500000011}},{"attributes":{"ID":271426,"DIS_CODE":0,"TOWNNAME":"東區","LI":"大學里","LIN":"8鄰","STREET":"大學路","SECT":" ","MAREA":" ","LANE":"１８巷","ALLEY":" ","HOUSE_NO":"２８號","E_COORD97":170119.78,"N_COORD97":2543826.77,"ADDRESS":"大學路１８巷２８號","OBJECTID":271421},"geometry":{"x":170119.78000000026,"y":2543826.7700000014}},{"attributes":{"ID":271427,"DIS_CODE":0,"TOWNNAME":"善化區","LI":"光文里","LIN":"15鄰","STREET":"大成路","SECT":" ","MAREA":" ","LANE":" ","ALLEY":" ","HOUSE_NO":"２０６號","E_COORD97":178366.69,"N_COORD97":2558875.25,"ADDRESS":"大成路２０６號","OBJECTID":271422},"geometry":{"x":178366.69000000227,"y":2558875.25}},{"attributes":{"ID":271428,"DIS_CODE":0,"TOWNNAME":"善化區","LI":"坐駕里","LIN":"15鄰","STREET":"大成路","SECT":" ","MAREA":" ","LANE":" ","ALLEY":" ","HOUSE_NO":"１９５號之３","E_COORD97":178298.45999999999,"N_COORD97":2558817.27,"ADDRESS":"大成路１９５號之３","OBJECTID":271423},"geometry":{"x":178298.46000000089,"y":2558817.2699999996}},{"attributes":{"ID":271429,"DIS_CODE":0,"TOWNNAME":"善化區","LI":"光文里","LIN":"15鄰","STREET":"民權路","SECT":" ","MAREA":" ","LANE":" ","ALLEY":" ","HOUSE_NO":"１３１號","E_COORD97":178345.35000000001,"N_COORD97":2559012.5099999998,"ADDRESS":"民權路１３１號","OBJECTID":271424},"geometry":{"x":178345.34999999963,"y":2559012.5099999998}},{"attributes":{"ID":271430,"DIS_CODE":0,"TOWNNAME":"新營區","LI":"忠政里","LIN":"24鄰","STREET":"健康路","SECT":" ","MAREA":" ","LANE":" ","ALLEY":" ","HOUSE_NO":"２９８號","E_COORD97":179669.70000000001,"N_COORD97":2579637.4399999999,"ADDRESS":"健康路２９８號","OBJECTID":271425},"geometry":{"x":179669.70000000019,"y":2579637.4400000013}},{"attributes":{"ID":271431,"DIS_CODE":0,"TOWNNAME":"善化區","LI":"光文里","LIN":"15鄰","STREET":"民權路","SECT":" ","MAREA":" ","LANE":" ","ALLEY":" ","HOUSE_NO":"１６６號","E_COORD97":178254.54000000001,"N_COORD97":2559023.7599999998,"ADDRESS":"民權路１６６號","OBJECTID":271426},"geometry":{"x":178254.54000000004,"y":2559023.7599999998}},{"attributes":{"ID":271432,"DIS_CODE":0,"TOWNNAME":"安南區","LI":"溪心里","LIN":"3鄰","STREET":"安中路","SECT":"二段","MAREA":" ","LANE":" ","ALLEY":" ","HOUSE_NO":"３３２號","E_COORD97":166384.85999999999,"N_COORD97":2549747.1899999999,"ADDRESS":"安中路二段３３２號","OBJECTID":271427},"geometry":{"x":166384.86000000034,"y":2549747.1899999995}},{"attributes":{"ID":271433,"DIS_CODE":0,"TOWNNAME":"東區","LI":"大學里","LIN":"8鄰","STREET":"大學路","SECT":" ","MAREA":" ","LANE":"１８巷","ALLEY":" ","HOUSE_NO":"２８號之１","E_COORD97":170120.20999999999,"N_COORD97":2543812.6000000001,"ADDRESS":"大學路１８巷２８號之１","OBJECTID":271428},"geometry":{"x":170120.20999999996,"y":2543812.5999999996}},{"attributes":{"ID":271434,"DIS_CODE":0,"TOWNNAME":"永康區","LI":"龍潭里","LIN":"8鄰","STREET":"龍埔街","SECT":" ","MAREA":" ","LANE":"４６巷","ALLEY":" ","HOUSE_NO":"１０號","E_COORD97":174773.59,"N_COORD97":2548279.6499999999,"ADDRESS":"龍埔街４６巷１０號","OBJECTID":271429},"geometry":{"x":174773.59000000078,"y":2548279.6500000022}},{"attributes":{"ID":271435,"DIS_CODE":0,"TOWNNAME":"安南區","LI":"原佃里","LIN":"3鄰","STREET":"本原街","SECT":"一段","MAREA":" ","LANE":" ","ALLEY":" ","HOUSE_NO":"１１９號","E_COORD97":167948.94,"N_COORD97":2550136.3700000001,"ADDRESS":"本原街一段１１９號","OBJECTID":271430},"geometry":{"x":167948.94000000041,"y":2550136.3700000029}},{"attributes":{"ID":271436,"DIS_CODE":0,"TOWNNAME":"永康區","LI":"\u25A0行里","LIN":"8鄰","STREET":"中正路","SECT":" ","MAREA":" ","LANE":"５４２巷","ALLEY":" ","HOUSE_NO":"２號之１","E_COORD97":172635.01999999999,"N_COORD97":2548375.7999999998,"ADDRESS":"中正路５４２巷２號之１","OBJECTID":271431},"geometry":{"x":172635.01999999955,"y":2548375.8000000007}},{"attributes":{"ID":271437,"DIS_CODE":0,"TOWNNAME":"永康區","LI":"龍潭里","LIN":"8鄰","STREET":"龍橋街","SECT":" ","MAREA":" ","LANE":"３７巷","ALLEY":" ","HOUSE_NO":"２６號","E_COORD97":174786.44,"N_COORD97":2548289.5800000001,"ADDRESS":"龍橋街３７巷２６號","OBJECTID":271432},"geometry":{"x":174786.44000000227,"y":2548289.5800000019}},{"attributes":{"ID":271438,"DIS_CODE":0,"TOWNNAME":"永康區","LI":"網寮里","LIN":"8鄰","STREET":"永二街","SECT":" ","MAREA":" ","LANE":"２４４巷","ALLEY":" ","HOUSE_NO":"１號","E_COORD97":173246.48000000001,"N_COORD97":2546323.8100000001,"ADDRESS":"永二街２４４巷１號","OBJECTID":271433},"geometry":{"x":173246.48000000045,"y":2546323.8100000005}},{"attributes":{"ID":271439,"DIS_CODE":0,"TOWNNAME":"永康區","LI":"蔦松里","LIN":"8鄰","STREET":"中正北路","SECT":" ","MAREA":" ","LANE":"４２９巷","ALLEY":" ","HOUSE_NO":"１７號","E_COORD97":173604.82000000001,"N_COORD97":2549211,"ADDRESS":"中正北路４２９巷１７號","OBJECTID":271434},"geometry":{"x":173604.8200000003,"y":2549211}},{"attributes":{"ID":271440,"DIS_CODE":0,"TOWNNAME":"永康區","LI":"蔦松里","LIN":"8鄰","STREET":"中正北路","SECT":" ","MAREA":" ","LANE":"４０１巷","ALLEY":" ","HOUSE_NO":"３５號","E_COORD97":173406.16,"N_COORD97":2549372.2400000002,"ADDRESS":"中正北路４０１巷３５號","OBJECTID":271435},"geometry":{"x":173406.16000000015,"y":2549372.2400000002}},{"attributes":{"ID":271441,"DIS_CODE":0,"TOWNNAME":"仁德區","LI":"上崙里","LIN":"8鄰","STREET":"德善路","SECT":" ","MAREA":" ","LANE":"２９０巷","ALLEY":" ","HOUSE_NO":"２６號","E_COORD97":173919.10000000001,"N_COORD97":2538446.02,"ADDRESS":"德善路２９０巷２６號","OBJECTID":271436},"geometry":{"x":173919.09999999963,"y":2538446.0199999996}},{"attributes":{"ID":271442,"DIS_CODE":0,"TOWNNAME":"仁德區","LI":"仁德里","LIN":"8鄰","STREET":"仁德三街","SECT":" ","MAREA":" ","LANE":"５０巷","ALLEY":" ","HOUSE_NO":"１７號","E_COORD97":173193.04000000001,"N_COORD97":2541060.27,"ADDRESS":"仁德三街５０巷１７號","OBJECTID":271437},"geometry":{"x":173193.04000000004,"y":2541060.2700000014}},{"attributes":{"ID":271443,"DIS_CODE":0,"TOWNNAME":"仁德區","LI":"仁德里","LIN":"8鄰","STREET":"仁德三街","SECT":" ","MAREA":" ","LANE":"５０巷","ALLEY":" ","HOUSE_NO":"４２號","E_COORD97":173215.25,"N_COORD97":2541112.5099999998,"ADDRESS":"仁德三街５０巷４２號","OBJECTID":271438},"geometry":{"x":173215.25,"y":2541112.5100000016}},{"attributes":{"ID":271444,"DIS_CODE":0,"TOWNNAME":"仁德區","LI":"仁德里","LIN":"8鄰","STREET":"仁德三街","SECT":" ","MAREA":" ","LANE":"５０巷","ALLEY":" ","HOUSE_NO":"４０號","E_COORD97":173209.06,"N_COORD97":2541112.2599999998,"ADDRESS":"仁德三街５０巷４０號","OBJECTID":271439},"geometry":{"x":173209.05999999959,"y":2541112.2599999998}},{"attributes":{"ID":271445,"DIS_CODE":0,"TOWNNAME":"仁德區","LI":"仁德里","LIN":"8鄰","STREET":"仁德三街","SECT":" ","MAREA":" ","LANE":"６０巷","ALLEY":" ","HOUSE_NO":"４號","E_COORD97":173172.17999999999,"N_COORD97":2541016.7599999998,"ADDRESS":"仁德三街６０巷４號","OBJECTID":271440},"geometry":{"x":173172.18000000063,"y":2541016.7599999998}},{"attributes":{"ID":271446,"DIS_CODE":0,"TOWNNAME":"安南區","LI":"原佃里","LIN":"3鄰","STREET":"本原街","SECT":"一段","MAREA":" ","LANE":" ","ALLEY":" ","HOUSE_NO":"１２１號","E_COORD97":167944.92999999999,"N_COORD97":2550136.3700000001,"ADDRESS":"本原街一段１２１號","OBJECTID":271441},"geometry":{"x":167944.9299999997,"y":2550136.3700000029}},{"attributes":{"ID":271447,"DIS_CODE":0,"TOWNNAME":"安南區","LI":"原佃里","LIN":"3鄰","STREET":"本原街","SECT":"一段","MAREA":" ","LANE":" ","ALLEY":" ","HOUSE_NO":"１２５號","E_COORD97":167936.32999999999,"N_COORD97":2550135.7999999998,"ADDRESS":"本原街一段１２５號","OBJECTID":271442},"geometry":{"x":167936.33000000007,"y":2550135.8000000045}},{"attributes":{"ID":271448,"DIS_CODE":0,"TOWNNAME":"安南區","LI":"原佃里","LIN":"3鄰","STREET":"本原街","SECT":"一段","MAREA":" ","LANE":" ","ALLEY":" ","HOUSE_NO":"１２７號","E_COORD97":167932.22,"N_COORD97":2550135.4100000001,"ADDRESS":"本原街一段１２７號","OBJECTID":271443},"geometry":{"x":167932.22000000067,"y":2550135.410000002}},{"attributes":{"ID":271449,"DIS_CODE":0,"TOWNNAME":"安南區","LI":"原佃里","LIN":"3鄰","STREET":"本原街","SECT":"一段","MAREA":" ","LANE":" ","ALLEY":" ","HOUSE_NO":"１３１號","E_COORD97":167923.23000000001,"N_COORD97":2550135.1299999999,"ADDRESS":"本原街一段１３１號","OBJECTID":271444},"geometry":{"x":167923.23000000045,"y":2550135.1300000027}},{"attributes":{"ID":271450,"DIS_CODE":0,"TOWNNAME":"安南區","LI":"原佃里","LIN":"3鄰","STREET":"本原街","SECT":"一段","MAREA":" ","LANE":" ","ALLEY":" ","HOUSE_NO":"１３５號","E_COORD97":167914.63,"N_COORD97":2550134.5600000001,"ADDRESS":"本原街一段１３５號","OBJECTID":271445},"geometry":{"x":167914.63000000082,"y":2550134.5600000024}},{"attributes":{"ID":271451,"DIS_CODE":0,"TOWNNAME":"安南區","LI":"總頭里","LIN":"3鄰","STREET":"總安街","SECT":"二段","MAREA":" ","LANE":" ","ALLEY":" ","HOUSE_NO":"３３６號","E_COORD97":168364.63,"N_COORD97":2550536.8999999999,"ADDRESS":"總安街二段３３６號","OBJECTID":271446},"geometry":{"x":168364.62999999989,"y":2550536.9000000004}},{"attributes":{"ID":271452,"DIS_CODE":0,"TOWNNAME":"安南區","LI":"總頭里","LIN":"3鄰","STREET":"總安街","SECT":"二段","MAREA":" ","LANE":" ","ALLEY":" ","HOUSE_NO":"３３８號","E_COORD97":168359.85000000001,"N_COORD97":2550537.21,"ADDRESS":"總安街二段３３８號","OBJECTID":271447},"geometry":{"x":168359.85000000056,"y":2550537.2100000028}},{"attributes":{"ID":271453,"DIS_CODE":0,"TOWNNAME":"安南區","LI":"總頭里","LIN":"3鄰","STREET":"總安街","SECT":"二段","MAREA":" ","LANE":" ","ALLEY":" ","HOUSE_NO":"３４４號","E_COORD97":168355.07000000001,"N_COORD97":2550513.23,"ADDRESS":"總安街二段３４４號","OBJECTID":271448},"geometry":{"x":168355.0700000003,"y":2550513.2300000023}},{"attributes":{"ID":271454,"DIS_CODE":0,"TOWNNAME":"中西區","LI":"保安里","LIN":"3鄰","STREET":"府前路","SECT":"二段","MAREA":" ","LANE":" ","ALLEY":" ","HOUSE_NO":"６７號","E_COORD97":167566.35000000001,"N_COORD97":2543482.3700000001,"ADDRESS":"府前路二段６７號","OBJECTID":271449},"geometry":{"x":167566.35000000149,"y":2543482.370000001}},{"attributes":{"ID":271455,"DIS_CODE":0,"TOWNNAME":"仁德區","LI":"仁義里","LIN":"8鄰","STREET":"中山路","SECT":" ","MAREA":" ","LANE":"４７７巷","ALLEY":" ","HOUSE_NO":"８號","E_COORD97":173637.57000000001,"N_COORD97":2541245.25,"ADDRESS":"中山路４７７巷８號","OBJECTID":271450},"geometry":{"x":173637.5700000003,"y":2541245.25}},{"attributes":{"ID":271456,"DIS_CODE":0,"TOWNNAME":"仁德區","LI":"仁德里","LIN":"8鄰","STREET":"仁德三街","SECT":" ","MAREA":" ","LANE":"６０巷","ALLEY":" ","HOUSE_NO":"６號","E_COORD97":173173.20000000001,"N_COORD97":2541046.77,"ADDRESS":"仁德三街６０巷６號","OBJECTID":271451},"geometry":{"x":173173.20000000019,"y":2541046.7700000014}},{"attributes":{"ID":271457,"DIS_CODE":0,"TOWNNAME":"仁德區","LI":"仁義里","LIN":"8鄰","STREET":"中山路","SECT":" ","MAREA":" ","LANE":"５０９巷","ALLEY":" ","HOUSE_NO":"１７號","E_COORD97":173546.16,"N_COORD97":2541219.9900000002,"ADDRESS":"中山路５０９巷１７號","OBJECTID":271452},"geometry":{"x":173546.16000000108,"y":2541219.9900000002}},{"attributes":{"ID":271458,"DIS_CODE":0,"TOWNNAME":"仁德區","LI":"仁義里","LIN":"8鄰","STREET":"中山路","SECT":" ","MAREA":" ","LANE":"４７７巷","ALLEY":" ","HOUSE_NO":"６號","E_COORD97":173637.91,"N_COORD97":2541249.25,"ADDRESS":"中山路４７７巷６號","OBJECTID":271453},"geometry":{"x":173637.91000000015,"y":2541249.2500000037}},{"attributes":{"ID":271459,"DIS_CODE":0,"TOWNNAME":"仁德區","LI":"仁義里","LIN":"8鄰","STREET":"中山路","SECT":" ","MAREA":" ","LANE":"５０９巷","ALLEY":" ","HOUSE_NO":"７號","E_COORD97":173546.81,"N_COORD97":2541240,"ADDRESS":"中山路５０９巷７號","OBJECTID":271454},"geometry":{"x":173546.80999999959,"y":2541240}},{"attributes":{"ID":271460,"DIS_CODE":0,"TOWNNAME":"仁德區","LI":"仁德里","LIN":"8鄰","STREET":"仁德三街","SECT":" ","MAREA":" ","LANE":"５０巷","ALLEY":" ","HOUSE_NO":"２２號","E_COORD97":173234.01000000001,"N_COORD97":2541037.02,"ADDRESS":"仁德三街５０巷２２號","OBJECTID":271455},"geometry":{"x":173234.00999999978,"y":2541037.0200000014}},{"attributes":{"ID":271461,"DIS_CODE":0,"TOWNNAME":"仁德區","LI":"仁義里","LIN":"8鄰","STREET":"中山路","SECT":" ","MAREA":" ","LANE":"４７７巷","ALLEY":" ","HOUSE_NO":"１２號","E_COORD97":173637.95000000001,"N_COORD97":2541237,"ADDRESS":"中山路４７７巷１２號","OBJECTID":271456},"geometry":{"x":173637.95000000019,"y":2541237}},{"attributes":{"ID":271462,"DIS_CODE":0,"TOWNNAME":"仁德區","LI":"仁義里","LIN":"8鄰","STREET":"中山路","SECT":" ","MAREA":" ","LANE":"４７７巷","ALLEY":" ","HOUSE_NO":"１６號","E_COORD97":173637.39999999999,"N_COORD97":2541228.5,"ADDRESS":"中山路４７７巷１６號","OBJECTID":271457},"geometry":{"x":173637.40000000224,"y":2541228.5000000019}},{"attributes":{"ID":271463,"DIS_CODE":0,"TOWNNAME":"仁德區","LI":"仁義里","LIN":"8鄰","STREET":"中山路","SECT":" ","MAREA":" ","LANE":"４７７巷","ALLEY":" ","HOUSE_NO":"１８號","E_COORD97":173637.20000000001,"N_COORD97":2541224.7400000002,"ADDRESS":"中山路４７７巷１８號","OBJECTID":271458},"geometry":{"x":173637.20000000112,"y":2541224.7400000002}},{"attributes":{"ID":271464,"DIS_CODE":0,"TOWNNAME":"仁德區","LI":"仁義里","LIN":"8鄰","STREET":"中山路","SECT":" ","MAREA":" ","LANE":"４７７巷","ALLEY":" ","HOUSE_NO":"２２號","E_COORD97":173640.70999999999,"N_COORD97":2541216.4900000002,"ADDRESS":"中山路４７７巷２２號","OBJECTID":271459},"geometry":{"x":173640.70999999996,"y":2541216.4900000002}},{"attributes":{"ID":271465,"DIS_CODE":0,"TOWNNAME":"仁德區","LI":"仁德里","LIN":"8鄰","STREET":"仁德三街","SECT":" ","MAREA":" ","LANE":"５０巷","ALLEY":" ","HOUSE_NO":"３６號","E_COORD97":173195.25,"N_COORD97":2541078.5099999998,"ADDRESS":"仁德三街５０巷３６號","OBJECTID":271460},"geometry":{"x":173195.25,"y":2541078.5100000016}},{"attributes":{"ID":271466,"DIS_CODE":0,"TOWNNAME":"東區","LI":"大智里","LIN":"8鄰","STREET":"長東街","SECT":" ","MAREA":" ","LANE":"１０３巷","ALLEY":" ","HOUSE_NO":"１１號","E_COORD97":171049.38,"N_COORD97":2540350.0899999999,"ADDRESS":"長東街１０３巷１１號","OBJECTID":271461},"geometry":{"x":171049.37999999989,"y":2540350.0899999999}},{"attributes":{"ID":271467,"DIS_CODE":0,"TOWNNAME":"中西區","LI":"大南里","LIN":"3鄰","STREET":"五妃街","SECT":" ","MAREA":" ","LANE":" ","ALLEY":" ","HOUSE_NO":"２２１號","E_COORD97":168343.20999999999,"N_COORD97":2542569.7599999998,"ADDRESS":"五妃街２２１號","OBJECTID":271462},"geometry":{"x":168343.21000000089,"y":2542569.7599999998}},{"attributes":{"ID":271468,"DIS_CODE":0,"TOWNNAME":"中西區","LI":"大南里","LIN":"3鄰","STREET":"五妃街","SECT":" ","MAREA":" ","LANE":" ","ALLEY":" ","HOUSE_NO":"２２３號","E_COORD97":168338.98000000001,"N_COORD97":2542569.4100000001,"ADDRESS":"五妃街２２３號","OBJECTID":271463},"geometry":{"x":168338.98000000045,"y":2542569.4100000001}},{"attributes":{"ID":271469,"DIS_CODE":0,"TOWNNAME":"中西區","LI":"大南里","LIN":"3鄰","STREET":"五妃街","SECT":" ","MAREA":" ","LANE":" ","ALLEY":" ","HOUSE_NO":"２２５號","E_COORD97":168334.39999999999,"N_COORD97":2542569.4100000001,"ADDRESS":"五妃街２２５號","OBJECTID":271464},"geometry":{"x":168334.40000000037,"y":2542569.4100000001}},{"attributes":{"ID":271470,"DIS_CODE":0,"TOWNNAME":"中西區","LI":"大南里","LIN":"3鄰","STREET":"南門路","SECT":" ","MAREA":" ","LANE":" ","ALLEY":" ","HOUSE_NO":"５０號","E_COORD97":168355.29000000001,"N_COORD97":2542625.2200000002,"ADDRESS":"南門路５０號","OBJECTID":271465},"geometry":{"x":168355.29000000004,"y":2542625.2200000007}},{"attributes":{"ID":271471,"DIS_CODE":0,"TOWNNAME":"安南區","LI":"海西里","LIN":"3鄰","STREET":"海中街","SECT":" ","MAREA":" ","LANE":" ","ALLEY":" ","HOUSE_NO":"１５９號","E_COORD97":166353.82000000001,"N_COORD97":2549116.0600000001,"ADDRESS":"海中街１５９號","OBJECTID":271466},"geometry":{"x":166353.82000000123,"y":2549116.0600000005}},{"attributes":{"ID":271472,"DIS_CODE":0,"TOWNNAME":"安南區","LI":"溪心里","LIN":"3鄰","STREET":"安中路","SECT":"二段","MAREA":" ","LANE":" ","ALLEY":" ","HOUSE_NO":"３２６號","E_COORD97":166391.76999999999,"N_COORD97":2549744.6200000001,"ADDRESS":"安中路二段３２６號","OBJECTID":271467},"geometry":{"x":166391.76999999955,"y":2549744.6200000029}},{"attributes":{"ID":271473,"DIS_CODE":0,"TOWNNAME":"安南區","LI":"溪心里","LIN":"3鄰","STREET":"安中路","SECT":"二段","MAREA":" ","LANE":" ","ALLEY":" ","HOUSE_NO":"３３０號","E_COORD97":166387.98000000001,"N_COORD97":2549745.9700000002,"ADDRESS":"安中路二段３３０號","OBJECTID":271468},"geometry":{"x":166387.98000000045,"y":2549745.9700000025}},{"attributes":{"ID":271474,"DIS_CODE":0,"TOWNNAME":"安南區","LI":"溪心里","LIN":"3鄰","STREET":"海佃路","SECT":"三段","MAREA":" ","LANE":" ","ALLEY":" ","HOUSE_NO":"１０號","E_COORD97":166367.70000000001,"N_COORD97":2549768.8399999999,"ADDRESS":"海佃路三段１０號","OBJECTID":271469},"geometry":{"x":166367.69999999925,"y":2549768.8400000017}},{"attributes":{"ID":271475,"DIS_CODE":0,"TOWNNAME":"東區","LI":"大智里","LIN":"8鄰","STREET":"長東街","SECT":" ","MAREA":" ","LANE":"１０３巷","ALLEY":" ","HOUSE_NO":"１２號","E_COORD97":171117.60000000001,"N_COORD97":2540327.98,"ADDRESS":"長東街１０３巷１２號","OBJECTID":271470},"geometry":{"x":171117.59999999963,"y":2540327.9800000004}},{"attributes":{"ID":271476,"DIS_CODE":0,"TOWNNAME":"東區","LI":"大智里","LIN":"8鄰","STREET":"長東街","SECT":" ","MAREA":" ","LANE":"１０３巷","ALLEY":" ","HOUSE_NO":"１３號","E_COORD97":171053.51999999999,"N_COORD97":2540351.6600000001,"ADDRESS":"長東街１０３巷１３號","OBJECTID":271471},"geometry":{"x":171053.51999999955,"y":2540351.6600000039}},{"attributes":{"ID":271477,"DIS_CODE":0,"TOWNNAME":"東區","LI":"大智里","LIN":"8鄰","STREET":"長東街","SECT":" ","MAREA":" ","LANE":"１０３巷","ALLEY":" ","HOUSE_NO":"１４號","E_COORD97":171121.10999999999,"N_COORD97":2540326.6499999999,"ADDRESS":"長東街１０３巷１４號","OBJECTID":271472},"geometry":{"x":171121.11000000034,"y":2540326.6500000004}},{"attributes":{"ID":271478,"DIS_CODE":0,"TOWNNAME":"東區","LI":"大智里","LIN":"8鄰","STREET":"長東街","SECT":" ","MAREA":" ","LANE":"１０３巷","ALLEY":" ","HOUSE_NO":"１６號","E_COORD97":171124.70999999999,"N_COORD97":2540328.4500000002,"ADDRESS":"長東街１０３巷１６號","OBJECTID":271473},"geometry":{"x":171124.71000000089,"y":2540328.450000003}},{"attributes":{"ID":271479,"DIS_CODE":0,"TOWNNAME":"東區","LI":"大智里","LIN":"8鄰","STREET":"長東街","SECT":" ","MAREA":" ","LANE":"１０３巷","ALLEY":" ","HOUSE_NO":"１７號","E_COORD97":171062.39000000001,"N_COORD97":2540351.1699999999,"ADDRESS":"長東街１０３巷１７號","OBJECTID":271474},"geometry":{"x":171062.3900000006,"y":2540351.1700000037}},{"attributes":{"ID":271480,"DIS_CODE":0,"TOWNNAME":"東區","LI":"大智里","LIN":"8鄰","STREET":"長東街","SECT":" ","MAREA":" ","LANE":"１０３巷","ALLEY":" ","HOUSE_NO":"１９號","E_COORD97":171066.23999999999,"N_COORD97":2540349.5,"ADDRESS":"長東街１０３巷１９號","OBJECTID":271475},"geometry":{"x":171066.24000000022,"y":2540349.5000000019}},{"attributes":{"ID":271481,"DIS_CODE":0,"TOWNNAME":"東區","LI":"大智里","LIN":"8鄰","STREET":"長東街","SECT":" ","MAREA":" ","LANE":"１０３巷","ALLEY":" ","HOUSE_NO":"１號","E_COORD97":171028.48999999999,"N_COORD97":2540349.79,"ADDRESS":"長東街１０３巷１號","OBJECTID":271476},"geometry":{"x":171028.49000000022,"y":2540349.7900000028}},{"attributes":{"ID":271482,"DIS_CODE":0,"TOWNNAME":"東區","LI":"大智里","LIN":"8鄰","STREET":"長東街","SECT":" ","MAREA":" ","LANE":"１０３巷","ALLEY":" ","HOUSE_NO":"２０號","E_COORD97":171132.10999999999,"N_COORD97":2540328.9300000002,"ADDRESS":"長東街１０３巷２０號","OBJECTID":271477},"geometry":{"x":171132.1100000022,"y":2540328.9300000034}},{"attributes":{"ID":271483,"DIS_CODE":0,"TOWNNAME":"東區","LI":"大智里","LIN":"8鄰","STREET":"長東街","SECT":" ","MAREA":" ","LANE":"１０３巷","ALLEY":" ","HOUSE_NO":"２１號","E_COORD97":171070.17999999999,"N_COORD97":2540351.4700000002,"ADDRESS":"長東街１０３巷２１號","OBJECTID":271478},"geometry":{"x":171070.18000000063,"y":2540351.4700000025}},{"attributes":{"ID":271484,"DIS_CODE":0,"TOWNNAME":"安南區","LI":"海西里","LIN":"3鄰","STREET":"海中街","SECT":" ","MAREA":" ","LANE":"１６９巷","ALLEY":" ","HOUSE_NO":"１１號","E_COORD97":166340.42000000001,"N_COORD97":2549112.29,"ADDRESS":"海中街１６９巷１１號","OBJECTID":271479},"geometry":{"x":166340.41999999993,"y":2549112.2899999991}},{"attributes":{"ID":271485,"DIS_CODE":0,"TOWNNAME":"永康區","LI":"\u25A0洲里","LIN":"8鄰","STREET":"中正南路","SECT":" ","MAREA":" ","LANE":"８４５巷","ALLEY":" ","HOUSE_NO":"４號","E_COORD97":171744.84,"N_COORD97":2549085.9900000002,"ADDRESS":"中正南路８４５巷４號","OBJECTID":271480},"geometry":{"x":171744.83999999985,"y":2549085.9900000002}},{"attributes":{"ID":271486,"DIS_CODE":0,"TOWNNAME":"永康區","LI":"\u25A0洲里","LIN":"8鄰","STREET":"中正南路","SECT":" ","MAREA":" ","LANE":"８４５巷","ALLEY":" ","HOUSE_NO":"３之３號","E_COORD97":171748,"N_COORD97":2549074.1400000001,"ADDRESS":"中正南路８４５巷３之３號","OBJECTID":271481},"geometry":{"x":171748.00000000093,"y":2549074.1400000006}},{"attributes":{"ID":271487,"DIS_CODE":0,"TOWNNAME":"善化區","LI":"南關里","LIN":"8鄰","STREET":"光復路","SECT":" ","MAREA":" ","LANE":"５３６巷","ALLEY":" ","HOUSE_NO":"６號","E_COORD97":176846.14000000001,"N_COORD97":2558911.7599999998,"ADDRESS":"光復路５３６巷６號","OBJECTID":271482},"geometry":{"x":176846.1400000006,"y":2558911.7599999998}},{"attributes":{"ID":271488,"DIS_CODE":0,"TOWNNAME":"安南區","LI":"\u25A0南里","LIN":"8鄰","STREET":"安昌街","SECT":" ","MAREA":" ","LANE":"２１９巷","ALLEY":" ","HOUSE_NO":"１６號","E_COORD97":170037.60999999999,"N_COORD97":2552521.5699999998,"ADDRESS":"安昌街２１９巷１６號","OBJECTID":271483},"geometry":{"x":170037.61000000127,"y":2552521.5700000022}},{"attributes":{"ID":271489,"DIS_CODE":0,"TOWNNAME":"安南區","LI":"\u25A0南里","LIN":"8鄰","STREET":"安昌街","SECT":" ","MAREA":" ","LANE":"２１９巷","ALLEY":" ","HOUSE_NO":"２號","E_COORD97":170103.07000000001,"N_COORD97":2552545.0899999999,"ADDRESS":"安昌街２１９巷２號","OBJECTID":271484},"geometry":{"x":170103.0700000003,"y":2552545.0900000017}},{"attributes":{"ID":271490,"DIS_CODE":0,"TOWNNAME":"安南區","LI":"\u25A0南里","LIN":"8鄰","STREET":"安昌街","SECT":" ","MAREA":" ","LANE":"２１９巷","ALLEY":" ","HOUSE_NO":"６號","E_COORD97":170098.92000000001,"N_COORD97":2552537.8300000001,"ADDRESS":"安昌街２１９巷６號","OBJECTID":271485},"geometry":{"x":170098.92000000179,"y":2552537.8300000001}},{"attributes":{"ID":271491,"DIS_CODE":0,"TOWNNAME":"安南區","LI":"\u25A0南里","LIN":"8鄰","STREET":"安昌街","SECT":" ","MAREA":" ","LANE":"２１９巷","ALLEY":" ","HOUSE_NO":"８號","E_COORD97":170095.92999999999,"N_COORD97":2552534.3300000001,"ADDRESS":"安昌街２１９巷８號","OBJECTID":271486},"geometry":{"x":170095.93000000063,"y":2552534.3300000001}},{"attributes":{"ID":271492,"DIS_CODE":0,"TOWNNAME":"安南區","LI":"大安里","LIN":"8鄰","STREET":"大安街","SECT":" ","MAREA":" ","LANE":"１９４巷","ALLEY":" ","HOUSE_NO":"８號","E_COORD97":167403.91,"N_COORD97":2548249.1099999999,"ADDRESS":"大安街１９４巷８號","OBJECTID":271487},"geometry":{"x":167403.91000000108,"y":2548249.1099999994}},{"attributes":{"ID":271493,"DIS_CODE":0,"TOWNNAME":"安南區","LI":"大安里","LIN":"8鄰","STREET":"大安街","SECT":" ","MAREA":" ","LANE":"１９４巷","ALLEY":" ","HOUSE_NO":"１５號","E_COORD97":167433.07999999999,"N_COORD97":2548259.54,"ADDRESS":"大安街１９４巷１５號","OBJECTID":271488},"geometry":{"x":167433.08000000194,"y":2548259.5399999991}},{"attributes":{"ID":271494,"DIS_CODE":0,"TOWNNAME":"安南區","LI":"大安里","LIN":"8鄰","STREET":"大安街","SECT":" ","MAREA":" ","LANE":"１９４巷","ALLEY":" ","HOUSE_NO":"１７號","E_COORD97":167437.29999999999,"N_COORD97":2548257.04,"ADDRESS":"大安街１９４巷１７號","OBJECTID":271489},"geometry":{"x":167437.29999999981,"y":2548257.0399999991}},{"attributes":{"ID":271495,"DIS_CODE":0,"TOWNNAME":"安南區","LI":"溪心里","LIN":"3鄰","STREET":"海佃路","SECT":"三段","MAREA":" ","LANE":" ","ALLEY":" ","HOUSE_NO":"４號","E_COORD97":166375.60999999999,"N_COORD97":2549759.29,"ADDRESS":"海佃路三段４號","OBJECTID":271490},"geometry":{"x":166375.61000000127,"y":2549759.290000001}},{"attributes":{"ID":271496,"DIS_CODE":0,"TOWNNAME":"安南區","LI":"溪心里","LIN":"3鄰","STREET":"海佃路","SECT":"三段","MAREA":" ","LANE":" ","ALLEY":" ","HOUSE_NO":"６號","E_COORD97":166373.22,"N_COORD97":2549761.6800000002,"ADDRESS":"海佃路三段６號","OBJECTID":271491},"geometry":{"x":166373.21999999974,"y":2549761.6799999997}},{"attributes":{"ID":271497,"DIS_CODE":0,"TOWNNAME":"安南區","LI":"溪心里","LIN":"3鄰","STREET":"海佃路","SECT":"三段","MAREA":" ","LANE":" ","ALLEY":" ","HOUSE_NO":"８號","E_COORD97":166370.38,"N_COORD97":2549765.4100000001,"ADDRESS":"海佃路三段８號","OBJECTID":271492},"geometry":{"x":166370.38000000082,"y":2549765.410000002}},{"attributes":{"ID":271498,"DIS_CODE":0,"TOWNNAME":"安南區","LI":"溪心里","LIN":"3鄰","STREET":"安中路","SECT":"二段","MAREA":" ","LANE":" ","ALLEY":" ","HOUSE_NO":"３０８號","E_COORD97":166460.13,"N_COORD97":2549744.79,"ADDRESS":"安中路二段３０８號","OBJECTID":271493},"geometry":{"x":166460.13000000082,"y":2549744.790000001}},{"attributes":{"ID":271499,"DIS_CODE":0,"TOWNNAME":"安南區","LI":"溪心里","LIN":"3鄰","STREET":"安中路","SECT":"二段","MAREA":" ","LANE":" ","ALLEY":" ","HOUSE_NO":"３１０號","E_COORD97":166447.51000000001,"N_COORD97":2549739.3399999999,"ADDRESS":"安中路二段３１０號","OBJECTID":271494},"geometry":{"x":166447.50999999978,"y":2549739.3400000017}},{"attributes":{"ID":271500,"DIS_CODE":0,"TOWNNAME":"安南區","LI":"原佃里","LIN":"3鄰","STREET":"本原街","SECT":"一段","MAREA":" ","LANE":" ","ALLEY":" ","HOUSE_NO":"１２９號","E_COORD97":167927.63,"N_COORD97":2550135.2200000002,"ADDRESS":"本原街一段１２９號","OBJECTID":271495},"geometry":{"x":167927.63000000175,"y":2550135.2200000007}},{"attributes":{"ID":271501,"DIS_CODE":0,"TOWNNAME":"安南區","LI":"原佃里","LIN":"3鄰","STREET":"本原街","SECT":"一段","MAREA":" ","LANE":" ","ALLEY":" ","HOUSE_NO":"１１５號","E_COORD97":167957.67999999999,"N_COORD97":2550137.4399999999,"ADDRESS":"本原街一段１１５號","OBJECTID":271496},"geometry":{"x":167957.68000000063,"y":2550137.4400000013}},{"attributes":{"ID":271502,"DIS_CODE":0,"TOWNNAME":"善化區","LI":"文正里","LIN":"13鄰","STREET":"中山路","SECT":" ","MAREA":" ","LANE":" ","ALLEY":" ","HOUSE_NO":"５７０號之４","E_COORD97":176736.82999999999,"N_COORD97":2559213.52,"ADDRESS":"中山路５７０號之４","OBJECTID":271497},"geometry":{"x":176736.83000000101,"y":2559213.5200000014}},{"attributes":{"ID":271503,"DIS_CODE":0,"TOWNNAME":"善化區","LI":"光文里","LIN":"13鄰","STREET":"仁愛路","SECT":" ","MAREA":" ","LANE":" ","ALLEY":" ","HOUSE_NO":"７５號","E_COORD97":178489.70999999999,"N_COORD97":2559076.2599999998,"ADDRESS":"仁愛路７５號","OBJECTID":271498},"geometry":{"x":178489.71000000183,"y":2559076.2600000016}},{"attributes":{"ID":271504,"DIS_CODE":0,"TOWNNAME":"善化區","LI":"文正里","LIN":"13鄰","STREET":"陽明路","SECT":" ","MAREA":" ","LANE":" ","ALLEY":" ","HOUSE_NO":"２４８號","E_COORD97":176132.78,"N_COORD97":2559696.5099999998,"ADDRESS":"陽明路２４８號","OBJECTID":271499},"geometry":{"x":176132.78000000026,"y":2559696.5099999998}},{"attributes":{"ID":271505,"DIS_CODE":0,"TOWNNAME":"善化區","LI":"坐駕里","LIN":"4鄰","STREET":"中正路","SECT":" ","MAREA":" ","LANE":" ","ALLEY":" ","HOUSE_NO":"４５２號","E_COORD97":177698.89000000001,"N_COORD97":2558970.75,"ADDRESS":"中正路４５２號","OBJECTID":271500},"geometry":{"x":177698.8900000006,"y":2558970.7500000037}},{"attributes":{"ID":271506,"DIS_CODE":0,"TOWNNAME":"安南區","LI":"大安里","LIN":"8鄰","STREET":"大安街","SECT":" ","MAREA":" ","LANE":"１９４巷","ALLEY":" ","HOUSE_NO":"２１號","E_COORD97":167444.20999999999,"N_COORD97":2548252.25,"ADDRESS":"大安街１９４巷２１號","OBJECTID":271501},"geometry":{"x":167444.21000000089,"y":2548252.25}},{"attributes":{"ID":271507,"DIS_CODE":0,"TOWNNAME":"安南區","LI":"大安里","LIN":"8鄰","STREET":"大安街","SECT":" ","MAREA":" ","LANE":"１９４巷","ALLEY":" ","HOUSE_NO":"２３號","E_COORD97":167448.23999999999,"N_COORD97":2548248.9900000002,"ADDRESS":"大安街１９４巷２３號","OBJECTID":271502},"geometry":{"x":167448.24000000022,"y":2548248.9900000039}},{"attributes":{"ID":271508,"DIS_CODE":0,"TOWNNAME":"安南區","LI":"公親里","LIN":"8鄰","STREET":"公學路","SECT":"一段","MAREA":" ","LANE":"１５７巷","ALLEY":" ","HOUSE_NO":"１號","E_COORD97":168174.89000000001,"N_COORD97":2553037.96,"ADDRESS":"公學路一段１５７巷１號","OBJECTID":271503},"geometry":{"x":168174.8900000006,"y":2553037.9600000028}},{"attributes":{"ID":271509,"DIS_CODE":0,"TOWNNAME":"安南區","LI":"公親里","LIN":"8鄰","STREET":"公學路","SECT":"一段","MAREA":" ","LANE":"２２６巷","ALLEY":" ","HOUSE_NO":"３０號","E_COORD97":168093.23000000001,"N_COORD97":2553110.3100000001,"ADDRESS":"公學路一段２２６巷３０號","OBJECTID":271504},"geometry":{"x":168093.23000000045,"y":2553110.3100000024}},{"attributes":{"ID":271510,"DIS_CODE":0,"TOWNNAME":"善化區","LI":"坐駕里","LIN":"4鄰","STREET":"中正路","SECT":" ","MAREA":" ","LANE":" ","ALLEY":" ","HOUSE_NO":"４４０之２號","E_COORD97":177699.60999999999,"N_COORD97":2558947.77,"ADDRESS":"中正路４４０之２號","OBJECTID":271505},"geometry":{"x":177699.61000000127,"y":2558947.7700000014}},{"attributes":{"ID":271511,"DIS_CODE":0,"TOWNNAME":"善化區","LI":"南關里","LIN":"4鄰","STREET":"平等路","SECT":" ","MAREA":" ","LANE":" ","ALLEY":" ","HOUSE_NO":"７５號","E_COORD97":177125.87,"N_COORD97":2558958.25,"ADDRESS":"平等路７５號","OBJECTID":271506},"geometry":{"x":177125.87000000197,"y":2558958.2500000019}},{"attributes":{"ID":271512,"DIS_CODE":0,"TOWNNAME":"善化區","LI":"光文里","LIN":"18鄰","STREET":"信義路","SECT":" ","MAREA":" ","LANE":" ","ALLEY":" ","HOUSE_NO":"１３５號","E_COORD97":178241.14999999999,"N_COORD97":2558970.75,"ADDRESS":"信義路１３５號","OBJECTID":271507},"geometry":{"x":178241.15000000037,"y":2558970.7500000037}},{"attributes":{"ID":271513,"DIS_CODE":0,"TOWNNAME":"安南區","LI":"安西里","LIN":"8鄰","STREET":"安中路","SECT":"一段","MAREA":" ","LANE":"２９巷","ALLEY":" ","HOUSE_NO":"１１號","E_COORD97":169157.37,"N_COORD97":2548197.5099999998,"ADDRESS":"安中路一段２９巷１１號","OBJECTID":271508},"geometry":{"x":169157.37000000104,"y":2548197.5100000035}},{"attributes":{"ID":271514,"DIS_CODE":0,"TOWNNAME":"安南區","LI":"安東里","LIN":"8鄰","STREET":"安和路","SECT":"一段","MAREA":" ","LANE":"２８８巷","ALLEY":" ","HOUSE_NO":"１８號","E_COORD97":169360.23999999999,"N_COORD97":2548057.04,"ADDRESS":"安和路一段２８８巷１８號","OBJECTID":271509},"geometry":{"x":169360.24000000115,"y":2548057.0399999991}},{"attributes":{"ID":271515,"DIS_CODE":0,"TOWNNAME":"永康區","LI":"\u25A0行里","LIN":"8鄰","STREET":"中正一街","SECT":" ","MAREA":" ","LANE":"３２巷","ALLEY":" ","HOUSE_NO":"１２號","E_COORD97":172850.57999999999,"N_COORD97":2548330.6099999999,"ADDRESS":"中正一街３２巷１２號","OBJECTID":271510},"geometry":{"x":172850.58000000007,"y":2548330.6099999994}},{"attributes":{"ID":271516,"DIS_CODE":0,"TOWNNAME":"永康區","LI":"蔦松里","LIN":"8鄰","STREET":"中正北路","SECT":" ","MAREA":" ","LANE":"４２９巷","ALLEY":" ","HOUSE_NO":"１６號","E_COORD97":173635.23000000001,"N_COORD97":2549208.5,"ADDRESS":"中正北路４２９巷１６號","OBJECTID":271511},"geometry":{"x":173635.23000000231,"y":2549208.5000000019}},{"attributes":{"ID":271517,"DIS_CODE":0,"TOWNNAME":"永康區","LI":"\u25A0行里","LIN":"8鄰","STREET":"中正一街","SECT":" ","MAREA":" ","LANE":"３２巷","ALLEY":" ","HOUSE_NO":"２１號","E_COORD97":172984.01000000001,"N_COORD97":2548394.46,"ADDRESS":"中正一街３２巷２１號","OBJECTID":271512},"geometry":{"x":172984.01000000071,"y":2548394.4600000009}},{"attributes":{"ID":271518,"DIS_CODE":0,"TOWNNAME":"永康區","LI":"\u25A0行里","LIN":"8鄰","STREET":"中正一街","SECT":" ","MAREA":" ","LANE":"３２巷","ALLEY":" ","HOUSE_NO":"３８號","E_COORD97":172998.67000000001,"N_COORD97":2548386.1800000002,"ADDRESS":"中正一街３２巷３８號","OBJECTID":271513},"geometry":{"x":172998.66999999993,"y":2548386.1800000034}},{"attributes":{"ID":271519,"DIS_CODE":0,"TOWNNAME":"永康區","LI":"\u25A0行里","LIN":"8鄰","STREET":"中正一街","SECT":" ","MAREA":" ","LANE":"３２巷","ALLEY":" ","HOUSE_NO":"１９號","E_COORD97":172968.04000000001,"N_COORD97":2548388.25,"ADDRESS":"中正一街３２巷１９號","OBJECTID":271514},"geometry":{"x":172968.0400000019,"y":2548388.25}},{"attributes":{"ID":271520,"DIS_CODE":0,"TOWNNAME":"永康區","LI":"\u25A0行里","LIN":"8鄰","STREET":"中正路","SECT":" ","MAREA":" ","LANE":"５４２巷","ALLEY":" ","HOUSE_NO":"１０號","E_COORD97":172700.63,"N_COORD97":2548386.5,"ADDRESS":"中正路５４２巷１０號","OBJECTID":271515},"geometry":{"x":172700.62999999989,"y":2548386.5}},{"attributes":{"ID":271521,"DIS_CODE":0,"TOWNNAME":"永康區","LI":"網寮里","LIN":"8鄰","STREET":"永二街","SECT":" ","MAREA":" ","LANE":"２４４巷","ALLEY":" ","HOUSE_NO":"１號之４","E_COORD97":173250.70999999999,"N_COORD97":2546344.3599999999,"ADDRESS":"永二街２４４巷１號之４","OBJECTID":271516},"geometry":{"x":173250.71000000089,"y":2546344.3600000013}},{"attributes":{"ID":271522,"DIS_CODE":0,"TOWNNAME":"永康區","LI":"網寮里","LIN":"8鄰","STREET":"永二街","SECT":" ","MAREA":" ","LANE":"２４４巷","ALLEY":" ","HOUSE_NO":"１號之１１","E_COORD97":173253.66,"N_COORD97":2546383.21,"ADDRESS":"永二街２４４巷１號之１１","OBJECTID":271517},"geometry":{"x":173253.66000000015,"y":2546383.209999999}},{"attributes":{"ID":271523,"DIS_CODE":0,"TOWNNAME":"永康區","LI":"網寮里","LIN":"8鄰","STREET":"永二街","SECT":" ","MAREA":" ","LANE":"２４４巷","ALLEY":" ","HOUSE_NO":"１號之３","E_COORD97":173250.35999999999,"N_COORD97":2546339.1099999999,"ADDRESS":"永二街２４４巷１號之３","OBJECTID":271518},"geometry":{"x":173250.36000000034,"y":2546339.1100000013}},{"attributes":{"ID":271524,"DIS_CODE":0,"TOWNNAME":"東區","LI":"莊敬里","LIN":"8鄰","STREET":"東光路","SECT":"二段","MAREA":" ","LANE":"１０９巷","ALLEY":" ","HOUSE_NO":"１１號","E_COORD97":171181.95999999999,"N_COORD97":2544182.8900000001,"ADDRESS":"東光路二段１０９巷１１號","OBJECTID":271519},"geometry":{"x":171181.96000000089,"y":2544182.8900000025}},{"attributes":{"ID":271525,"DIS_CODE":0,"TOWNNAME":"東區","LI":"莊敬里","LIN":"8鄰","STREET":"東光路","SECT":"二段","MAREA":" ","LANE":"７７巷","ALLEY":" ","HOUSE_NO":"１８號","E_COORD97":171147.82999999999,"N_COORD97":2544155.6099999999,"ADDRESS":"東光路二段７７巷１８號","OBJECTID":271520},"geometry":{"x":171147.83000000101,"y":2544155.6100000013}},{"attributes":{"ID":271526,"DIS_CODE":0,"TOWNNAME":"東區","LI":"莊敬里","LIN":"8鄰","STREET":"東光路","SECT":"二段","MAREA":" ","LANE":"７７巷","ALLEY":" ","HOUSE_NO":"１７號","E_COORD97":171151.47,"N_COORD97":2544137.9900000002,"ADDRESS":"東光路二段７７巷１７號","OBJECTID":271521},"geometry":{"x":171151.47000000067,"y":2544137.9900000021}},{"attributes":{"ID":271527,"DIS_CODE":0,"TOWNNAME":"東區","LI":"龍山里","LIN":"8鄰","STREET":"東門路","SECT":"二段","MAREA":" ","LANE":"１５８巷","ALLEY":" ","HOUSE_NO":"６８號","E_COORD97":170061.10000000001,"N_COORD97":2542811.04,"ADDRESS":"東門路二段１５８巷６８號","OBJECTID":271522},"geometry":{"x":170061.09999999963,"y":2542811.0399999991}},{"attributes":{"ID":271528,"DIS_CODE":0,"TOWNNAME":"東區","LI":"虎尾里","LIN":"8鄰","STREET":"東成街","SECT":" ","MAREA":" ","LANE":"１４２巷","ALLEY":" ","HOUSE_NO":"１０號","E_COORD97":171648.20999999999,"N_COORD97":2542266.0699999998,"ADDRESS":"東成街１４２巷１０號","OBJECTID":271523},"geometry":{"x":171648.21000000089,"y":2542266.0700000022}},{"attributes":{"ID":271529,"DIS_CODE":0,"TOWNNAME":"東區","LI":"虎尾里","LIN":"8鄰","STREET":"東成街","SECT":" ","MAREA":" ","LANE":"１４２巷","ALLEY":" ","HOUSE_NO":"１２號","E_COORD97":171648.89999999999,"N_COORD97":2542262.2000000002,"ADDRESS":"東成街１４２巷１２號","OBJECTID":271524},"geometry":{"x":171648.90000000224,"y":2542262.1999999993}},{"attributes":{"ID":271530,"DIS_CODE":0,"TOWNNAME":"東區","LI":"虎尾里","LIN":"8鄰","STREET":"東成街","SECT":" ","MAREA":" ","LANE":"１４２巷","ALLEY":" ","HOUSE_NO":"１４號","E_COORD97":171649.87,"N_COORD97":2542257.5099999998,"ADDRESS":"東成街１４２巷１４號","OBJECTID":271525},"geometry":{"x":171649.87000000011,"y":2542257.5100000035}},{"attributes":{"ID":271531,"DIS_CODE":0,"TOWNNAME":"東區","LI":"虎尾里","LIN":"8鄰","STREET":"東成街","SECT":" ","MAREA":" ","LANE":"１４２巷","ALLEY":" ","HOUSE_NO":"１６號","E_COORD97":171650.14000000001,"N_COORD97":2542253.1000000001,"ADDRESS":"東成街１４２巷１６號","OBJECTID":271526},"geometry":{"x":171650.1400000006,"y":2542253.0999999996}},{"attributes":{"ID":271532,"DIS_CODE":0,"TOWNNAME":"東區","LI":"虎尾里","LIN":"8鄰","STREET":"東成街","SECT":" ","MAREA":" ","LANE":"１４２巷","ALLEY":" ","HOUSE_NO":"１８號","E_COORD97":171651.10999999999,"N_COORD97":2542249.0899999999,"ADDRESS":"東成街１４２巷１８號","OBJECTID":271527},"geometry":{"x":171651.11000000127,"y":2542249.0899999999}},{"attributes":{"ID":271533,"DIS_CODE":0,"TOWNNAME":"東區","LI":"虎尾里","LIN":"8鄰","STREET":"東成街","SECT":" ","MAREA":" ","LANE":"１４２巷","ALLEY":" ","HOUSE_NO":"２０號","E_COORD97":171651.66,"N_COORD97":2542245.6400000001,"ADDRESS":"東成街１４２巷２０號","OBJECTID":271528},"geometry":{"x":171651.66000000015,"y":2542245.6400000025}},{"attributes":{"ID":271534,"DIS_CODE":0,"TOWNNAME":"東區","LI":"虎尾里","LIN":"8鄰","STREET":"東成街","SECT":" ","MAREA":" ","LANE":"１４２巷","ALLEY":" ","HOUSE_NO":"３８號","E_COORD97":171665.48000000001,"N_COORD97":2542161.8999999999,"ADDRESS":"東成街１４２巷３８號","OBJECTID":271529},"geometry":{"x":171665.48000000138,"y":2542161.9000000022}},{"attributes":{"ID":271535,"DIS_CODE":0,"TOWNNAME":"東區","LI":"虎尾里","LIN":"8鄰","STREET":"東成街","SECT":" ","MAREA":" ","LANE":"１４２巷","ALLEY":" ","HOUSE_NO":"４號","E_COORD97":171646,"N_COORD97":2542280.1400000001,"ADDRESS":"東成街１４２巷４號","OBJECTID":271530},"geometry":{"x":171646.00000000186,"y":2542280.1400000006}},{"attributes":{"ID":271536,"DIS_CODE":0,"TOWNNAME":"東區","LI":"虎尾里","LIN":"8鄰","STREET":"東成街","SECT":" ","MAREA":" ","LANE":"１４２巷","ALLEY":" ","HOUSE_NO":"６號","E_COORD97":171646.69,"N_COORD97":2542276.5499999998,"ADDRESS":"東成街１４２巷６號","OBJECTID":271531},"geometry":{"x":171646.69000000041,"y":2542276.5500000026}},{"attributes":{"ID":271537,"DIS_CODE":0,"TOWNNAME":"東區","LI":"虎尾里","LIN":"8鄰","STREET":"富農街","SECT":"一段","MAREA":" ","LANE":"４８巷","ALLEY":" ","HOUSE_NO":"２２號","E_COORD97":171629.22,"N_COORD97":2542132.1000000001,"ADDRESS":"富農街一段４８巷２２號","OBJECTID":271532},"geometry":{"x":171629.22000000067,"y":2542132.1000000015}},{"attributes":{"ID":271538,"DIS_CODE":0,"TOWNNAME":"善化區","LI":"光文里","LIN":"15鄰","STREET":"民生路","SECT":" ","MAREA":" ","LANE":" ","ALLEY":" ","HOUSE_NO":"２２３號","E_COORD97":178334.57000000001,"N_COORD97":2558932.7599999998,"ADDRESS":"民生路２２３號","OBJECTID":271533},"geometry":{"x":178334.5700000003,"y":2558932.7599999998}},{"attributes":{"ID":271539,"DIS_CODE":0,"TOWNNAME":"善化區","LI":"光文里","LIN":"15鄰","STREET":"民權路","SECT":" ","MAREA":" ","LANE":" ","ALLEY":" ","HOUSE_NO":"１６２號","E_COORD97":178264.48999999999,"N_COORD97":2559025.2599999998,"ADDRESS":"民權路１６２號","OBJECTID":271534},"geometry":{"x":178264.49000000209,"y":2559025.2600000016}},{"attributes":{"ID":271540,"DIS_CODE":0,"TOWNNAME":"善化區","LI":"光文里","LIN":"15鄰","STREET":"民權路","SECT":" ","MAREA":" ","LANE":" ","ALLEY":" ","HOUSE_NO":"１４５號","E_COORD97":178312.70999999999,"N_COORD97":2559010.0099999998,"ADDRESS":"民權路１４５號","OBJECTID":271535},"geometry":{"x":178312.70999999996,"y":2559010.0100000016}},{"attributes":{"ID":271541,"DIS_CODE":0,"TOWNNAME":"善化區","LI":"光文里","LIN":"15鄰","STREET":"樹人路","SECT":" ","MAREA":" ","LANE":" ","ALLEY":" ","HOUSE_NO":"４１號","E_COORD97":178369.39000000001,"N_COORD97":2558993.75,"ADDRESS":"樹人路４１號","OBJECTID":271536},"geometry":{"x":178369.38999999966,"y":2558993.75}},{"attributes":{"ID":271542,"DIS_CODE":0,"TOWNNAME":"善化區","LI":"光文里","LIN":"15鄰","STREET":"民權路","SECT":" ","MAREA":" ","LANE":" ","ALLEY":" ","HOUSE_NO":"１３９號","E_COORD97":178323.67999999999,"N_COORD97":2559012.2599999998,"ADDRESS":"民權路１３９號","OBJECTID":271537},"geometry":{"x":178323.68000000156,"y":2559012.2600000016}},{"attributes":{"ID":271543,"DIS_CODE":0,"TOWNNAME":"善化區","LI":"光文里","LIN":"15鄰","STREET":"民權路","SECT":" ","MAREA":" ","LANE":" ","ALLEY":" ","HOUSE_NO":"１４８號","E_COORD97":178302.20999999999,"N_COORD97":2559030.7599999998,"ADDRESS":"民權路１４８號","OBJECTID":271538},"geometry":{"x":178302.21000000089,"y":2559030.7599999998}},{"attributes":{"ID":271544,"DIS_CODE":0,"TOWNNAME":"善化區","LI":"光文里","LIN":"15鄰","STREET":"大成路","SECT":" ","MAREA":" ","LANE":" ","ALLEY":" ","HOUSE_NO":"２１２號","E_COORD97":178352.95999999999,"N_COORD97":2558873.25,"ADDRESS":"大成路２１２號","OBJECTID":271539},"geometry":{"x":178352.96000000089,"y":2558873.2500000019}},{"attributes":{"ID":271545,"DIS_CODE":0,"TOWNNAME":"東區","LI":"虎尾里","LIN":"8鄰","STREET":"富農街","SECT":"一段","MAREA":" ","LANE":"４８巷","ALLEY":" ","HOUSE_NO":"２４號","E_COORD97":171633.37,"N_COORD97":2542133.5899999999,"ADDRESS":"富農街一段４８巷２４號","OBJECTID":271540},"geometry":{"x":171633.36999999918,"y":2542133.5899999999}},{"attributes":{"ID":271546,"DIS_CODE":0,"TOWNNAME":"東區","LI":"虎尾里","LIN":"8鄰","STREET":"富農街","SECT":"一段","MAREA":" ","LANE":"４８巷","ALLEY":" ","HOUSE_NO":"２６號","E_COORD97":171637.35999999999,"N_COORD97":2542135.0899999999,"ADDRESS":"富農街一段４８巷２６號","OBJECTID":271541},"geometry":{"x":171637.36000000127,"y":2542135.0900000036}},{"attributes":{"ID":271547,"DIS_CODE":0,"TOWNNAME":"東區","LI":"虎尾里","LIN":"8鄰","STREET":"富農街","SECT":"一段","MAREA":" ","LANE":"４８巷","ALLEY":" ","HOUSE_NO":"２８號","E_COORD97":171641.51999999999,"N_COORD97":2542136.25,"ADDRESS":"富農街一段４８巷２８號","OBJECTID":271542},"geometry":{"x":171641.51999999955,"y":2542136.25}},{"attributes":{"ID":271548,"DIS_CODE":0,"TOWNNAME":"安南區","LI":"理想里","LIN":"8鄰","STREET":"海佃路","SECT":"二段","MAREA":" ","LANE":"１５０巷","ALLEY":" ","HOUSE_NO":"１２２之１５號","E_COORD97":167293.60585600001,"N_COORD97":2548577.7938700002,"ADDRESS":"海佃路二段１５０巷１２２之１５號","OBJECTID":271543},"geometry":{"x":167293.60585600138,"y":2548577.7938700002}},{"attributes":{"ID":271549,"DIS_CODE":0,"TOWNNAME":"安南區","LI":"理想里","LIN":"8鄰","STREET":"海佃路","SECT":"二段","MAREA":" ","LANE":"１５０巷","ALLEY":" ","HOUSE_NO":"１２２之１７號","E_COORD97":167302.08241,"N_COORD97":2548592.3988600001,"ADDRESS":"海佃路二段１５０巷１２２之１７號","OBJECTID":271544},"geometry":{"x":167302.08240999933,"y":2548592.3988620024}},{"attributes":{"ID":271550,"DIS_CODE":0,"TOWNNAME":"安南區","LI":"理想里","LIN":"8鄰","STREET":"海佃路","SECT":"二段","MAREA":" ","LANE":"１５０巷","ALLEY":" ","HOUSE_NO":"１２２之１８號","E_COORD97":167306.53260000001,"N_COORD97":2548599.8071900001,"ADDRESS":"海佃路二段１５０巷１２２之１８號","OBJECTID":271545},"geometry":{"x":167306.53259999957,"y":2548599.8071909994}},{"attributes":{"ID":271551,"DIS_CODE":0,"TOWNNAME":"安南區","LI":"理想里","LIN":"8鄰","STREET":"海佃路","SECT":"二段","MAREA":" ","LANE":"１５０巷","ALLEY":" ","HOUSE_NO":"１２２之２０號","E_COORD97":167315.43298099999,"N_COORD97":2548612.9305199999,"ADDRESS":"海佃路二段１５０巷１２２之２０號","OBJECTID":271546},"geometry":{"x":167315.43298100028,"y":2548612.9305179995}},{"attributes":{"ID":271552,"DIS_CODE":0,"TOWNNAME":"中西區","LI":"郡西里","LIN":"8鄰","STREET":"建安街","SECT":" ","MAREA":" ","LANE":"６６巷","ALLEY":" ","HOUSE_NO":"９號","E_COORD97":167431.23999999999,"N_COORD97":2543299.9199999999,"ADDRESS":"建安街６６巷９號","OBJECTID":271547},"geometry":{"x":167431.24000000115,"y":2543299.9200000018}},{"attributes":{"ID":271553,"DIS_CODE":0,"TOWNNAME":"永康區","LI":"\u25A0洲里","LIN":"8鄰","STREET":"中正南路","SECT":" ","MAREA":" ","LANE":"８４５巷","ALLEY":" ","HOUSE_NO":"３之２號","E_COORD97":171751.39000000001,"N_COORD97":2549071.6400000001,"ADDRESS":"中正南路８４５巷３之２號","OBJECTID":271548},"geometry":{"x":171751.38999999966,"y":2549071.6400000006}},{"attributes":{"ID":271554,"DIS_CODE":0,"TOWNNAME":"北區","LI":"中樓里","LIN":"8鄰","STREET":"東豐路","SECT":" ","MAREA":" ","LANE":"８５巷","ALLEY":" ","HOUSE_NO":"１３號","E_COORD97":169686.20000000001,"N_COORD97":2544963.77,"ADDRESS":"東豐路８５巷１３號","OBJECTID":271549},"geometry":{"x":169686.20000000019,"y":2544963.7699999996}},{"attributes":{"ID":271555,"DIS_CODE":0,"TOWNNAME":"北區","LI":"中樓里","LIN":"8鄰","STREET":"東豐路","SECT":" ","MAREA":" ","LANE":"８５巷","ALLEY":" ","HOUSE_NO":"３７號","E_COORD97":169708.92999999999,"N_COORD97":2544971.9399999999,"ADDRESS":"東豐路８５巷３７號","OBJECTID":271550},"geometry":{"x":169708.93000000063,"y":2544971.9399999995}},{"attributes":{"ID":271556,"DIS_CODE":0,"TOWNNAME":"北區","LI":"中樓里","LIN":"8鄰","STREET":"東豐路","SECT":" ","MAREA":" ","LANE":"８５巷","ALLEY":" ","HOUSE_NO":"３９號","E_COORD97":169711.98999999999,"N_COORD97":2544974.5699999998,"ADDRESS":"東豐路８５巷３９號","OBJECTID":271551},"geometry":{"x":169711.99000000022,"y":2544974.5700000022}},{"attributes":{"ID":271557,"DIS_CODE":0,"TOWNNAME":"北區","LI":"中樓里","LIN":"8鄰","STREET":"東豐路","SECT":" ","MAREA":" ","LANE":"８５巷","ALLEY":" ","HOUSE_NO":"４１號","E_COORD97":169707.98000000001,"N_COORD97":2544988.8599999999,"ADDRESS":"東豐路８５巷４１號","OBJECTID":271552},"geometry":{"x":169707.98000000138,"y":2544988.8600000013}},{"attributes":{"ID":271558,"DIS_CODE":0,"TOWNNAME":"北區","LI":"大豐里","LIN":"8鄰","STREET":"文賢路","SECT":" ","MAREA":" ","LANE":"３６５巷","ALLEY":" ","HOUSE_NO":"３１號","E_COORD97":167242.39000000001,"N_COORD97":2545374.1099999999,"ADDRESS":"文賢路３６５巷３１號","OBJECTID":271553},"geometry":{"x":167242.39000000153,"y":2545374.1099999994}},{"attributes":{"ID":271559,"DIS_CODE":0,"TOWNNAME":"北區","LI":"大豐里","LIN":"8鄰","STREET":"文賢路","SECT":" ","MAREA":" ","LANE":"３６５巷","ALLEY":" ","HOUSE_NO":"３３號","E_COORD97":167237.20000000001,"N_COORD97":2545373.6800000002,"ADDRESS":"文賢路３６５巷３３號","OBJECTID":271554},"geometry":{"x":167237.20000000019,"y":2545373.6800000016}},{"attributes":{"ID":271560,"DIS_CODE":0,"TOWNNAME":"北區","LI":"大豐里","LIN":"8鄰","STREET":"文賢路","SECT":" ","MAREA":" ","LANE":"３６５巷","ALLEY":" ","HOUSE_NO":"５號","E_COORD97":167309.94,"N_COORD97":2545369.25,"ADDRESS":"文賢路３６５巷５號","OBJECTID":271555},"geometry":{"x":167309.94000000041,"y":2545369.2500000019}},{"attributes":{"ID":271561,"DIS_CODE":0,"TOWNNAME":"北區","LI":"大豐里","LIN":"8鄰","STREET":"文賢路","SECT":" ","MAREA":" ","LANE":"３６５巷","ALLEY":" ","HOUSE_NO":"７號","E_COORD97":167305.54000000001,"N_COORD97":2545369.4199999999,"ADDRESS":"文賢路３６５巷７號","OBJECTID":271556},"geometry":{"x":167305.54000000004,"y":2545369.4199999999}},{"attributes":{"ID":271562,"DIS_CODE":0,"TOWNNAME":"北區","LI":"大豐里","LIN":"8鄰","STREET":"文賢路","SECT":" ","MAREA":" ","LANE":"３６５巷","ALLEY":" ","HOUSE_NO":"９號","E_COORD97":167300.78,"N_COORD97":2545369.8500000001,"ADDRESS":"文賢路３６５巷９號","OBJECTID":271557},"geometry":{"x":167300.78000000026,"y":2545369.8499999996}},{"attributes":{"ID":271563,"DIS_CODE":0,"TOWNNAME":"楠西區","LI":"楠西里","LIN":"8鄰","STREET":"民權路","SECT":" ","MAREA":" ","LANE":"３０巷","ALLEY":" ","HOUSE_NO":"１２號","E_COORD97":197313.09,"N_COORD97":2564208.29,"ADDRESS":"民權路３０巷１２號","OBJECTID":271558},"geometry":{"x":197313.08999999985,"y":2564208.290000001}},{"attributes":{"ID":271564,"DIS_CODE":0,"TOWNNAME":"新營區","LI":"民榮里","LIN":"8鄰","STREET":"興農街","SECT":" ","MAREA":" ","LANE":"４７巷","ALLEY":" ","HOUSE_NO":"３７號","E_COORD97":179304.69,"N_COORD97":2577779.7599999998,"ADDRESS":"興農街４７巷３７號","OBJECTID":271559},"geometry":{"x":179304.69000000134,"y":2577779.7599999998}},{"attributes":{"ID":271565,"DIS_CODE":0,"TOWNNAME":"新營區","LI":"民權里","LIN":"8鄰","STREET":"博愛街","SECT":" ","MAREA":" ","LANE":"６１巷","ALLEY":" ","HOUSE_NO":"１號之２","E_COORD97":179898.48000000001,"N_COORD97":2578120.3100000001,"ADDRESS":"博愛街６１巷１號之２","OBJECTID":271560},"geometry":{"x":179898.48000000045,"y":2578120.3100000024}},{"attributes":{"ID":271566,"DIS_CODE":0,"TOWNNAME":"新營區","LI":"南興里","LIN":"8鄰","STREET":"建業路","SECT":" ","MAREA":" ","LANE":"７８巷","ALLEY":" ","HOUSE_NO":"１３號","E_COORD97":179324.88,"N_COORD97":2577526.0600000001,"ADDRESS":"建業路７８巷１３號","OBJECTID":271561},"geometry":{"x":179324.88000000082,"y":2577526.0600000024}},{"attributes":{"ID":271567,"DIS_CODE":0,"TOWNNAME":"安平區","LI":"國平里","LIN":"8鄰","STREET":"建平一街","SECT":" ","MAREA":" ","LANE":"２２４巷","ALLEY":" ","HOUSE_NO":"２６號","E_COORD97":165465.28,"N_COORD97":2542920.79,"ADDRESS":"建平一街２２４巷２６號","OBJECTID":271562},"geometry":{"x":165465.28000000026,"y":2542920.790000001}},{"attributes":{"ID":271568,"DIS_CODE":0,"TOWNNAME":"安平區","LI":"國平里","LIN":"8鄰","STREET":"建平一街","SECT":" ","MAREA":" ","LANE":"２２４巷","ALLEY":" ","HOUSE_NO":"２７號","E_COORD97":165449.87,"N_COORD97":2542925.7599999998,"ADDRESS":"建平一街２２４巷２７號","OBJECTID":271563},"geometry":{"x":165449.87000000104,"y":2542925.7599999998}},{"attributes":{"ID":271569,"DIS_CODE":0,"TOWNNAME":"安平區","LI":"國平里","LIN":"8鄰","STREET":"建平一街","SECT":" ","MAREA":" ","LANE":"２２４巷","ALLEY":" ","HOUSE_NO":"２８號","E_COORD97":165465.28,"N_COORD97":2542925.6200000001,"ADDRESS":"建平一街２２４巷２８號","OBJECTID":271564},"geometry":{"x":165465.28000000026,"y":2542925.620000001}},{"attributes":{"ID":271570,"DIS_CODE":0,"TOWNNAME":"安平區","LI":"國平里","LIN":"8鄰","STREET":"建平一街","SECT":" ","MAREA":" ","LANE":"２２４巷","ALLEY":" ","HOUSE_NO":"２９號","E_COORD97":165450.29999999999,"N_COORD97":2542930.6800000002,"ADDRESS":"建平一街２２４巷２９號","OBJECTID":271565},"geometry":{"x":165450.30000000075,"y":2542930.6799999997}},{"attributes":{"ID":271571,"DIS_CODE":0,"TOWNNAME":"仁德區","LI":"仁義里","LIN":"14鄰","STREET":"林頂街","SECT":" ","MAREA":" ","LANE":" ","ALLEY":" ","HOUSE_NO":"３０２號","E_COORD97":174890.417247,"N_COORD97":2541339.4951300002,"ADDRESS":"林頂街３０２號","OBJECTID":271566},"geometry":{"x":174890.41724700201,"y":2541339.4951329995}},{"attributes":{"ID":271572,"DIS_CODE":0,"TOWNNAME":"新營區","LI":"新東里","LIN":"8鄰","STREET":"東泰路","SECT":" ","MAREA":" ","LANE":"６巷","ALLEY":" ","HOUSE_NO":"４５號","E_COORD97":181244.70000000001,"N_COORD97":2579447.3100000001,"ADDRESS":"東泰路６巷４５號","OBJECTID":271567},"geometry":{"x":181244.70000000205,"y":2579447.3100000005}},{"attributes":{"ID":271573,"DIS_CODE":0,"TOWNNAME":"玉井區","LI":"玉井里","LIN":"8鄰","STREET":"民生路","SECT":" ","MAREA":" ","LANE":"４２巷","ALLEY":" ","HOUSE_NO":"１３號","E_COORD97":194840.57999999999,"N_COORD97":2558290.2799999998,"ADDRESS":"民生路４２巷１３號","OBJECTID":271568},"geometry":{"x":194840.58000000007,"y":2558290.2799999993}},{"attributes":{"ID":271574,"DIS_CODE":0,"TOWNNAME":"北區","LI":"長榮里","LIN":"8鄰","STREET":"長榮路","SECT":"五段","MAREA":" ","LANE":"４１巷","ALLEY":" ","HOUSE_NO":"１０號","E_COORD97":170043.01999999999,"N_COORD97":2545529.3300000001,"ADDRESS":"長榮路五段４１巷１０號","OBJECTID":271569},"geometry":{"x":170043.01999999955,"y":2545529.3300000001}},{"attributes":{"ID":271575,"DIS_CODE":0,"TOWNNAME":"新營區","LI":"王公里","LIN":"8鄰","STREET":"民治路","SECT":" ","MAREA":" ","LANE":"２６巷","ALLEY":" ","HOUSE_NO":"１５號","E_COORD97":180229.67999999999,"N_COORD97":2578942.6299999999,"ADDRESS":"民治路２６巷１５號","OBJECTID":271570},"geometry":{"x":180229.68000000063,"y":2578942.629999999}},{"attributes":{"ID":271576,"DIS_CODE":0,"TOWNNAME":"新營區","LI":"民榮里","LIN":"8鄰","STREET":"和平路","SECT":" ","MAREA":" ","LANE":"３２巷","ALLEY":" ","HOUSE_NO":"７之６號","E_COORD97":179357.03,"N_COORD97":2577780.6699999999,"ADDRESS":"和平路３２巷７之６號","OBJECTID":271571},"geometry":{"x":179357.03000000026,"y":2577780.6699999999}},{"attributes":{"ID":271577,"DIS_CODE":0,"TOWNNAME":"新營區","LI":"興業里","LIN":"8鄰","STREET":"公誠街","SECT":" ","MAREA":" ","LANE":"９巷","ALLEY":" ","HOUSE_NO":"１３之４號","E_COORD97":180359.76999999999,"N_COORD97":2578017.3599999999,"ADDRESS":"公誠街９巷１３之４號","OBJECTID":271572},"geometry":{"x":180359.76999999955,"y":2578017.3600000013}},{"attributes":{"ID":271578,"DIS_CODE":0,"TOWNNAME":"鹽水區","LI":"義稠里","LIN":"8鄰","STREET":"金和路","SECT":" ","MAREA":" ","LANE":"３１１巷","ALLEY":" ","HOUSE_NO":"４１之２１號","E_COORD97":173906.10999999999,"N_COORD97":2580390.9300000002,"ADDRESS":"金和路３１１巷４１之２１號","OBJECTID":271573},"geometry":{"x":173906.11000000127,"y":2580390.9300000016}},{"attributes":{"ID":271579,"DIS_CODE":0,"TOWNNAME":"安南區","LI":"公\u25A0里","LIN":"3鄰","STREET":"安興街","SECT":" ","MAREA":" ","LANE":" ","ALLEY":" ","HOUSE_NO":"６８號","E_COORD97":164270.73999999999,"N_COORD97":2552239.6499999999,"ADDRESS":"安興街６８號","OBJECTID":271574},"geometry":{"x":164270.74000000115,"y":2552239.6500000022}},{"attributes":{"ID":271580,"DIS_CODE":0,"TOWNNAME":"東區","LI":"富強里","LIN":"7鄰","STREET":"裕農路","SECT":" ","MAREA":" ","LANE":"４４６巷","ALLEY":" ","HOUSE_NO":"１２５號之５","E_COORD97":171262.82999999999,"N_COORD97":2542913.4500000002,"ADDRESS":"裕農路４４６巷１２５號之５","OBJECTID":271575},"geometry":{"x":171262.83000000101,"y":2542913.4499999993}},{"attributes":{"ID":271581,"DIS_CODE":0,"TOWNNAME":"東區","LI":"富強里","LIN":"7鄰","STREET":"裕農路","SECT":" ","MAREA":" ","LANE":"４４６巷","ALLEY":" ","HOUSE_NO":"１２５號之８","E_COORD97":171261.51999999999,"N_COORD97":2542958.7200000002,"ADDRESS":"裕農路４４６巷１２５號之８","OBJECTID":271576},"geometry":{"x":171261.51999999955,"y":2542958.7199999988}},{"attributes":{"ID":271582,"DIS_CODE":0,"TOWNNAME":"東區","LI":"和平里","LIN":"7鄰","STREET":"東門路","SECT":"三段","MAREA":" ","LANE":"２２６巷","ALLEY":" ","HOUSE_NO":"８９號","E_COORD97":171490.03,"N_COORD97":2541858.5600000001,"ADDRESS":"東門路三段２２６巷８９號","OBJECTID":271577},"geometry":{"x":171490.03000000026,"y":2541858.5600000024}},{"attributes":{"ID":271583,"DIS_CODE":0,"TOWNNAME":"東區","LI":"和平里","LIN":"7鄰","STREET":"東門路","SECT":"三段","MAREA":" ","LANE":"２６２巷","ALLEY":" ","HOUSE_NO":"２５號","E_COORD97":171640.94,"N_COORD97":2541728.54,"ADDRESS":"東門路三段２６２巷２５號","OBJECTID":271578},"geometry":{"x":171640.94000000134,"y":2541728.540000001}},{"attributes":{"ID":271584,"DIS_CODE":0,"TOWNNAME":"東區","LI":"和平里","LIN":"7鄰","STREET":"東門路","SECT":"三段","MAREA":" ","LANE":"２６２巷","ALLEY":" ","HOUSE_NO":"２７號","E_COORD97":171640.94,"N_COORD97":2541721.7200000002,"ADDRESS":"東門路三段２６２巷２７號","OBJECTID":271579},"geometry":{"x":171640.94000000134,"y":2541721.7200000025}},{"attributes":{"ID":271585,"DIS_CODE":0,"TOWNNAME":"東區","LI":"和平里","LIN":"7鄰","STREET":"東門路","SECT":"三段","MAREA":" ","LANE":"２６２巷","ALLEY":" ","HOUSE_NO":"４７號","E_COORD97":171653.17000000001,"N_COORD97":2541695.1499999999,"ADDRESS":"東門路三段２６２巷４７號","OBJECTID":271580},"geometry":{"x":171653.16999999899,"y":2541695.1500000022}},{"attributes":{"ID":271586,"DIS_CODE":0,"TOWNNAME":"東區","LI":"虎尾里","LIN":"7鄰","STREET":"東成街","SECT":" ","MAREA":" ","LANE":"９８巷","ALLEY":" ","HOUSE_NO":"１５號","E_COORD97":171568.85999999999,"N_COORD97":2542243.0600000001,"ADDRESS":"東成街９８巷１５號","OBJECTID":271581},"geometry":{"x":171568.86000000034,"y":2542243.0600000005}},{"attributes":{"ID":271587,"DIS_CODE":0,"TOWNNAME":"中西區","LI":"天后里","LIN":"7鄰","STREET":"西門路","SECT":"二段","MAREA":" ","LANE":"３００巷","ALLEY":" ","HOUSE_NO":"９號","E_COORD97":168011.82000000001,"N_COORD97":2544144.6499999999,"ADDRESS":"西門路二段３００巷９號","OBJECTID":271582},"geometry":{"x":168011.82000000123,"y":2544144.6500000004}},{"attributes":{"ID":271588,"DIS_CODE":0,"TOWNNAME":"安南區","LI":"安順里","LIN":"7鄰","STREET":"總安街","SECT":"一段","MAREA":" ","LANE":"１１０巷","ALLEY":" ","HOUSE_NO":"３７號","E_COORD97":169706.54999999999,"N_COORD97":2550275.25,"ADDRESS":"總安街一段１１０巷３７號","OBJECTID":271583},"geometry":{"x":169706.55000000075,"y":2550275.2500000019}},{"attributes":{"ID":271589,"DIS_CODE":0,"TOWNNAME":"安南區","LI":"安慶里","LIN":"7鄰","STREET":"長溪路","SECT":"一段","MAREA":" ","LANE":"１６８巷","ALLEY":" ","HOUSE_NO":"２３４號","E_COORD97":168952.84,"N_COORD97":2548986.1200000001,"ADDRESS":"長溪路一段１６８巷２３４號","OBJECTID":271584},"geometry":{"x":168952.83999999985,"y":2548986.1200000029}},{"attributes":{"ID":271590,"DIS_CODE":0,"TOWNNAME":"安南區","LI":"幸福里","LIN":"7鄰","STREET":"國安街","SECT":" ","MAREA":" ","LANE":"１７３巷","ALLEY":" ","HOUSE_NO":"８號","E_COORD97":166702.73000000001,"N_COORD97":2546918.3599999999,"ADDRESS":"國安街１７３巷８號","OBJECTID":271585},"geometry":{"x":166702.73000000045,"y":2546918.3599999994}},{"attributes":{"ID":271591,"DIS_CODE":0,"TOWNNAME":"安南區","LI":"幸福里","LIN":"7鄰","STREET":"國安街","SECT":" ","MAREA":" ","LANE":"１７３巷","ALLEY":" ","HOUSE_NO":"１２號","E_COORD97":166704.03,"N_COORD97":2546910.5699999998,"ADDRESS":"國安街１７３巷１２號","OBJECTID":271586},"geometry":{"x":166704.03000000026,"y":2546910.5700000022}},{"attributes":{"ID":271592,"DIS_CODE":0,"TOWNNAME":"安南區","LI":"幸福里","LIN":"7鄰","STREET":"國安街","SECT":" ","MAREA":" ","LANE":"１５５巷","ALLEY":" ","HOUSE_NO":"２３號","E_COORD97":166767.06,"N_COORD97":2546887.4900000002,"ADDRESS":"國安街１５５巷２３號","OBJECTID":271587},"geometry":{"x":166767.06000000052,"y":2546887.4900000021}},{"attributes":{"ID":271593,"DIS_CODE":0,"TOWNNAME":"安南區","LI":"南興里","LIN":"7鄰","STREET":"安興街","SECT":" ","MAREA":" ","LANE":"６２４巷","ALLEY":" ","HOUSE_NO":"６５號","E_COORD97":163700.03,"N_COORD97":2552439,"ADDRESS":"安興街６２４巷６５號","OBJECTID":271588},"geometry":{"x":163700.03000000026,"y":2552438.9999999981}},{"attributes":{"ID":271594,"DIS_CODE":0,"TOWNNAME":"安南區","LI":"城東里","LIN":"7鄰","STREET":"城北路","SECT":" ","MAREA":" ","LANE":"９８巷","ALLEY":" ","HOUSE_NO":"５１號","E_COORD97":161112.32999999999,"N_COORD97":2551549.9900000002,"ADDRESS":"城北路９８巷５１號","OBJECTID":271589},"geometry":{"x":161112.33000000101,"y":2551549.9900000002}},{"attributes":{"ID":271595,"DIS_CODE":0,"TOWNNAME":"安南區","LI":"城東里","LIN":"7鄰","STREET":"城北路","SECT":" ","MAREA":" ","LANE":"９８巷","ALLEY":" ","HOUSE_NO":"５３號","E_COORD97":161120.09,"N_COORD97":2551550.2400000002,"ADDRESS":"城北路９８巷５３號","OBJECTID":271590},"geometry":{"x":161120.09000000078,"y":2551550.2400000021}},{"attributes":{"ID":271596,"DIS_CODE":0,"TOWNNAME":"善化區","LI":"光文里","LIN":"15鄰","STREET":"民生路","SECT":" ","MAREA":" ","LANE":" ","ALLEY":" ","HOUSE_NO":"２１１號","E_COORD97":178365.39999999999,"N_COORD97":2558936.5099999998,"ADDRESS":"民生路２１１號","OBJECTID":271591},"geometry":{"x":178365.4000000013,"y":2558936.5100000016}},{"attributes":{"ID":271597,"DIS_CODE":0,"TOWNNAME":"南區","LI":"喜東里","LIN":"3鄰","STREET":"明興路","SECT":" ","MAREA":" ","LANE":" ","ALLEY":" ","HOUSE_NO":"３４６號","E_COORD97":166334.42000000001,"N_COORD97":2538968.1499999999,"ADDRESS":"明興路３４６號","OBJECTID":271592},"geometry":{"x":166334.42000000086,"y":2538968.1500000004}},{"attributes":{"ID":271598,"DIS_CODE":0,"TOWNNAME":"南區","LI":"喜東里","LIN":"3鄰","STREET":"明興路","SECT":" ","MAREA":" ","LANE":" ","ALLEY":" ","HOUSE_NO":"３４８號","E_COORD97":166334.09,"N_COORD97":2538963.8799999999,"ADDRESS":"明興路３４８號","OBJECTID":271593},"geometry":{"x":166334.08999999985,"y":2538963.879999999}},{"attributes":{"ID":271599,"DIS_CODE":0,"TOWNNAME":"南區","LI":"喜東里","LIN":"3鄰","STREET":"明興路","SECT":" ","MAREA":" ","LANE":" ","ALLEY":" ","HOUSE_NO":"３５０號","E_COORD97":166332.45000000001,"N_COORD97":2538960.27,"ADDRESS":"明興路３５０號","OBJECTID":271594},"geometry":{"x":166332.45000000112,"y":2538960.2700000033}},{"attributes":{"ID":271600,"DIS_CODE":0,"TOWNNAME":"安南區","LI":"城東里","LIN":"7鄰","STREET":"城北路","SECT":" ","MAREA":" ","LANE":"９８巷","ALLEY":" ","HOUSE_NO":"６５號","E_COORD97":161139.19,"N_COORD97":2551574.96,"ADDRESS":"城北路９８巷６５號","OBJECTID":271595},"geometry":{"x":161139.19000000134,"y":2551574.9600000009}},{"attributes":{"ID":271601,"DIS_CODE":0,"TOWNNAME":"安南區","LI":"城東里","LIN":"7鄰","STREET":"城北路","SECT":" ","MAREA":" ","LANE":"９８巷","ALLEY":" ","HOUSE_NO":"１１８號","E_COORD97":161215.28,"N_COORD97":2551597.1699999999,"ADDRESS":"城北路９８巷１１８號","OBJECTID":271596},"geometry":{"x":161215.28000000026,"y":2551597.1700000037}},{"attributes":{"ID":271602,"DIS_CODE":0,"TOWNNAME":"安南區","LI":"國安里","LIN":"7鄰","STREET":"國安街","SECT":" ","MAREA":" ","LANE":"２１０巷","ALLEY":" ","HOUSE_NO":"１２０號","E_COORD97":166559.82999999999,"N_COORD97":2547282.8100000001,"ADDRESS":"國安街２１０巷１２０號","OBJECTID":271597},"geometry":{"x":166559.83000000007,"y":2547282.8100000005}},{"attributes":{"ID":271603,"DIS_CODE":0,"TOWNNAME":"中西區","LI":"文賢里","LIN":"7鄰","STREET":"和美街","SECT":" ","MAREA":" ","LANE":"５１巷","ALLEY":" ","HOUSE_NO":"１４號","E_COORD97":167055.64000000001,"N_COORD97":2544801.6600000001,"ADDRESS":"和美街５１巷１４號","OBJECTID":271598},"geometry":{"x":167055.63999999966,"y":2544801.6600000001}},{"attributes":{"ID":271604,"DIS_CODE":0,"TOWNNAME":"中西區","LI":"文賢里","LIN":"7鄰","STREET":"和美街","SECT":" ","MAREA":" ","LANE":"５１巷","ALLEY":" ","HOUSE_NO":"１５號","E_COORD97":167054.17999999999,"N_COORD97":2544783.96,"ADDRESS":"和美街５１巷１５號","OBJECTID":271599},"geometry":{"x":167054.18000000063,"y":2544783.9600000009}},{"attributes":{"ID":271605,"DIS_CODE":0,"TOWNNAME":"中西區","LI":"文賢里","LIN":"7鄰","STREET":"和美街","SECT":" ","MAREA":" ","LANE":"５１巷","ALLEY":" ","HOUSE_NO":"１６號","E_COORD97":167051.92999999999,"N_COORD97":2544799.0899999999,"ADDRESS":"和美街５１巷１６號","OBJECTID":271600},"geometry":{"x":167051.9299999997,"y":2544799.0899999999}}]}