{"displayFieldName":"TOWNNAME","fieldAliases":{"ID":"ID","DIS_CODE":"DIS_CODE","TOWNNAME":"TOWNNAME","LI":"LI","LIN":"LIN","STREET":"STREET","SECT":"SECT","MAREA":"MAREA","LANE":"LANE","ALLEY":"ALLEY","HOUSE_NO":"HOUSE_NO","E_COORD97":"E_COORD97","N_COORD97":"N_COORD97","ADDRESS":"ADDRESS","OBJECTID":"OBJECTID"},"geometryType":"esriGeometryPoint","spatialReference":{"wkid":102443,"latestWkid":3826},"fields":[{"name":"ID","type":"esriFieldTypeDouble","alias":"ID"},{"name":"DIS_CODE","type":"esriFieldTypeInteger","alias":"DIS_CODE"},{"name":"TOWNNAME","type":"esriFieldTypeString","alias":"TOWNNAME","length":8},{"name":"LI","type":"esriFieldTypeString","alias":"LI","length":8},{"name":"LIN","type":"esriFieldTypeString","alias":"LIN","length":12},{"name":"STREET","type":"esriFieldTypeString","alias":"STREET","length":20},{"name":"SECT","type":"esriFieldTypeString","alias":"SECT","length":8},{"name":"MAREA","type":"esriFieldTypeString","alias":"MAREA","length":12},{"name":"LANE","type":"esriFieldTypeString","alias":"LANE","length":10},{"name":"ALLEY","type":"esriFieldTypeString","alias":"ALLEY","length":10},{"name":"HOUSE_NO","type":"esriFieldTypeString","alias":"HOUSE_NO","length":20},{"name":"E_COORD97","type":"esriFieldTypeDouble","alias":"E_COORD97"},{"name":"N_COORD97","type":"esriFieldTypeDouble","alias":"N_COORD97"},{"name":"ADDRESS","type":"esriFieldTypeString","alias":"ADDRESS","length":50},{"name":"OBJECTID","type":"esriFieldTypeOID","alias":"OBJECTID"}],"features":[{"attributes":{"ID":450026,"DIS_CODE":0,"TOWNNAME":"六甲區","LI":"二甲里","LIN":"18鄰","STREET":"中山路","SECT":" ","MAREA":" ","LANE":"４２９巷","ALLEY":" ","HOUSE_NO":"３號","E_COORD97":182013.06,"N_COORD97":2570355.9100000001,"ADDRESS":"中山路４２９巷３號","OBJECTID":450001},"geometry":{"x":182013.06000000145,"y":2570355.910000002}},{"attributes":{"ID":450027,"DIS_CODE":0,"TOWNNAME":"六甲區","LI":"二甲里","LIN":"18鄰","STREET":"中山路","SECT":" ","MAREA":" ","LANE":"４２９巷","ALLEY":" ","HOUSE_NO":"４０號","E_COORD97":181944.89999999999,"N_COORD97":2570247.3799999999,"ADDRESS":"中山路４２９巷４０號","OBJECTID":450002},"geometry":{"x":181944.90000000037,"y":2570247.379999999}},{"attributes":{"ID":450028,"DIS_CODE":0,"TOWNNAME":"六甲區","LI":"二甲里","LIN":"18鄰","STREET":"中山路","SECT":" ","MAREA":" ","LANE":"４２９巷","ALLEY":" ","HOUSE_NO":"４１號","E_COORD97":181954.89000000001,"N_COORD97":2570220.9399999999,"ADDRESS":"中山路４２９巷４１號","OBJECTID":450003},"geometry":{"x":181954.89000000153,"y":2570220.9399999995}},{"attributes":{"ID":450029,"DIS_CODE":0,"TOWNNAME":"六甲區","LI":"二甲里","LIN":"18鄰","STREET":"中山路","SECT":" ","MAREA":" ","LANE":"４２９巷","ALLEY":" ","HOUSE_NO":"４２號","E_COORD97":181943.75,"N_COORD97":2570239.0099999998,"ADDRESS":"中山路４２９巷４２號","OBJECTID":450004},"geometry":{"x":181943.75,"y":2570239.0100000016}},{"attributes":{"ID":450030,"DIS_CODE":0,"TOWNNAME":"六甲區","LI":"二甲里","LIN":"18鄰","STREET":"中山路","SECT":" ","MAREA":" ","LANE":"４２９巷","ALLEY":" ","HOUSE_NO":"４３號","E_COORD97":181953.85000000001,"N_COORD97":2570212.4700000002,"ADDRESS":"中山路４２９巷４３號","OBJECTID":450005},"geometry":{"x":181953.85000000056,"y":2570212.4700000044}},{"attributes":{"ID":450031,"DIS_CODE":0,"TOWNNAME":"六甲區","LI":"二甲里","LIN":"18鄰","STREET":"中山路","SECT":" ","MAREA":" ","LANE":"４２９巷","ALLEY":" ","HOUSE_NO":"４６號","E_COORD97":181942.51000000001,"N_COORD97":2570231.0699999998,"ADDRESS":"中山路４２９巷４６號","OBJECTID":450006},"geometry":{"x":181942.51000000071,"y":2570231.0700000003}},{"attributes":{"ID":450032,"DIS_CODE":0,"TOWNNAME":"六甲區","LI":"二甲里","LIN":"18鄰","STREET":"中山路","SECT":" ","MAREA":" ","LANE":"４２９巷","ALLEY":" ","HOUSE_NO":"４８號","E_COORD97":181941.07999999999,"N_COORD97":2570222.8900000001,"ADDRESS":"中山路４２９巷４８號","OBJECTID":450007},"geometry":{"x":181941.08000000101,"y":2570222.8899999987}},{"attributes":{"ID":450033,"DIS_CODE":0,"TOWNNAME":"六甲區","LI":"二甲里","LIN":"18鄰","STREET":"中山路","SECT":" ","MAREA":" ","LANE":"４２９巷","ALLEY":" ","HOUSE_NO":"５０號","E_COORD97":181939.48000000001,"N_COORD97":2570214.46,"ADDRESS":"中山路４２９巷５０號","OBJECTID":450008},"geometry":{"x":181939.48000000045,"y":2570214.4600000009}},{"attributes":{"ID":450034,"DIS_CODE":0,"TOWNNAME":"六甲區","LI":"二甲里","LIN":"18鄰","STREET":"中山路","SECT":" ","MAREA":" ","LANE":"４２９巷","ALLEY":" ","HOUSE_NO":"５號","E_COORD97":182012.12,"N_COORD97":2570349.7000000002,"ADDRESS":"中山路４２９巷５號","OBJECTID":450009},"geometry":{"x":182012.12000000104,"y":2570349.7000000011}},{"attributes":{"ID":450035,"DIS_CODE":0,"TOWNNAME":"六甲區","LI":"二甲里","LIN":"18鄰","STREET":"中山路","SECT":" ","MAREA":" ","LANE":"４２９巷","ALLEY":" ","HOUSE_NO":"６號","E_COORD97":181994.37,"N_COORD97":2570363.6899999999,"ADDRESS":"中山路４２９巷６號","OBJECTID":450010},"geometry":{"x":181994.36999999918,"y":2570363.6900000013}},{"attributes":{"ID":450036,"DIS_CODE":0,"TOWNNAME":"六甲區","LI":"二甲里","LIN":"18鄰","STREET":"中山路","SECT":" ","MAREA":" ","LANE":"４２９巷","ALLEY":" ","HOUSE_NO":"７號","E_COORD97":182011.29000000001,"N_COORD97":2570343.3799999999,"ADDRESS":"中山路４２９巷７號","OBJECTID":450011},"geometry":{"x":182011.29000000004,"y":2570343.3800000027}},{"attributes":{"ID":450037,"DIS_CODE":0,"TOWNNAME":"六甲區","LI":"二甲里","LIN":"18鄰","STREET":"中山路","SECT":" ","MAREA":" ","LANE":"４２９巷","ALLEY":" ","HOUSE_NO":"８號","E_COORD97":181993.63,"N_COORD97":2570357.2799999998,"ADDRESS":"中山路４２９巷８號","OBJECTID":450012},"geometry":{"x":181993.62999999989,"y":2570357.2799999993}},{"attributes":{"ID":450038,"DIS_CODE":0,"TOWNNAME":"六甲區","LI":"二甲里","LIN":"18鄰","STREET":"中山路","SECT":" ","MAREA":" ","LANE":"４２９巷","ALLEY":" ","HOUSE_NO":"９號","E_COORD97":182010.79999999999,"N_COORD97":2570337.0600000001,"ADDRESS":"中山路４２９巷９號","OBJECTID":450013},"geometry":{"x":182010.79999999981,"y":2570337.0600000042}},{"attributes":{"ID":450039,"DIS_CODE":0,"TOWNNAME":"六甲區","LI":"二甲里","LIN":"18鄰","STREET":"中山路","SECT":" ","MAREA":" ","LANE":"４３５巷","ALLEY":" ","HOUSE_NO":"１６號","E_COORD97":181957.82999999999,"N_COORD97":2570334.8300000001,"ADDRESS":"中山路４３５巷１６號","OBJECTID":450014},"geometry":{"x":181957.83000000101,"y":2570334.8300000038}},{"attributes":{"ID":450040,"DIS_CODE":0,"TOWNNAME":"六甲區","LI":"二甲里","LIN":"18鄰","STREET":"中山路","SECT":" ","MAREA":" ","LANE":"４３５巷","ALLEY":" ","HOUSE_NO":"１７號","E_COORD97":181966.92000000001,"N_COORD97":2570310.27,"ADDRESS":"中山路４３５巷１７號","OBJECTID":450015},"geometry":{"x":181966.92000000179,"y":2570310.2699999996}},{"attributes":{"ID":450041,"DIS_CODE":0,"TOWNNAME":"安南區","LI":"新順里","LIN":"1鄰","STREET":"培安四街","SECT":" ","MAREA":" ","LANE":" ","ALLEY":" ","HOUSE_NO":"９２號","E_COORD97":169491.95999999999,"N_COORD97":2549773.52,"ADDRESS":"培安四街９２號","OBJECTID":450016},"geometry":{"x":169491.96000000089,"y":2549773.5199999977}},{"attributes":{"ID":450042,"DIS_CODE":0,"TOWNNAME":"佳里區","LI":"建南里","LIN":"17鄰","STREET":"建南街","SECT":" ","MAREA":" ","LANE":"１０７巷","ALLEY":" ","HOUSE_NO":"８號","E_COORD97":165630.51999999999,"N_COORD97":2562024.0899999999,"ADDRESS":"建南街１０７巷８號","OBJECTID":450017},"geometry":{"x":165630.51999999955,"y":2562024.0900000017}},{"attributes":{"ID":450043,"DIS_CODE":0,"TOWNNAME":"六甲區","LI":"二甲里","LIN":"18鄰","STREET":"中山路","SECT":" ","MAREA":" ","LANE":"４３５巷","ALLEY":" ","HOUSE_NO":"１８號","E_COORD97":181956.95000000001,"N_COORD97":2570327.75,"ADDRESS":"中山路４３５巷１８號","OBJECTID":450018},"geometry":{"x":181956.95000000112,"y":2570327.75}},{"attributes":{"ID":450044,"DIS_CODE":0,"TOWNNAME":"六甲區","LI":"二甲里","LIN":"18鄰","STREET":"中山路","SECT":" ","MAREA":" ","LANE":"４３５巷","ALLEY":" ","HOUSE_NO":"１９號","E_COORD97":181966.06,"N_COORD97":2570302.1800000002,"ADDRESS":"中山路４３５巷１９號","OBJECTID":450019},"geometry":{"x":181966.06000000052,"y":2570302.1800000016}},{"attributes":{"ID":450045,"DIS_CODE":0,"TOWNNAME":"六甲區","LI":"二甲里","LIN":"18鄰","STREET":"中山路","SECT":" ","MAREA":" ","LANE":"４３５巷","ALLEY":" ","HOUSE_NO":"１號","E_COORD97":181975.63,"N_COORD97":2570371.5600000001,"ADDRESS":"中山路４３５巷１號","OBJECTID":450020},"geometry":{"x":181975.63000000175,"y":2570371.5600000024}},{"attributes":{"ID":450046,"DIS_CODE":0,"TOWNNAME":"六甲區","LI":"二甲里","LIN":"18鄰","STREET":"中山路","SECT":" ","MAREA":" ","LANE":"４３５巷","ALLEY":" ","HOUSE_NO":"２０號","E_COORD97":181955.54999999999,"N_COORD97":2570318.98,"ADDRESS":"中山路４３５巷２０號","OBJECTID":450021},"geometry":{"x":181955.54999999888,"y":2570318.9800000004}},{"attributes":{"ID":450047,"DIS_CODE":0,"TOWNNAME":"六甲區","LI":"二甲里","LIN":"18鄰","STREET":"中山路","SECT":" ","MAREA":" ","LANE":"４３５巷","ALLEY":" ","HOUSE_NO":"２１號","E_COORD97":181964.91,"N_COORD97":2570294.23,"ADDRESS":"中山路４３５巷２１號","OBJECTID":450022},"geometry":{"x":181964.91000000015,"y":2570294.2300000004}},{"attributes":{"ID":450048,"DIS_CODE":0,"TOWNNAME":"六甲區","LI":"二甲里","LIN":"18鄰","STREET":"中山路","SECT":" ","MAREA":" ","LANE":"４３５巷","ALLEY":" ","HOUSE_NO":"２２號","E_COORD97":181954.29000000001,"N_COORD97":2570311.7400000002,"ADDRESS":"中山路４３５巷２２號","OBJECTID":450023},"geometry":{"x":181954.2900000019,"y":2570311.7400000039}},{"attributes":{"ID":450049,"DIS_CODE":0,"TOWNNAME":"六甲區","LI":"二甲里","LIN":"18鄰","STREET":"中山路","SECT":" ","MAREA":" ","LANE":"４３５巷","ALLEY":" ","HOUSE_NO":"２３號","E_COORD97":181963.73999999999,"N_COORD97":2570286.52,"ADDRESS":"中山路４３５巷２３號","OBJECTID":450024},"geometry":{"x":181963.74000000115,"y":2570286.5200000014}},{"attributes":{"ID":450050,"DIS_CODE":0,"TOWNNAME":"六甲區","LI":"二甲里","LIN":"18鄰","STREET":"中山路","SECT":" ","MAREA":" ","LANE":"４３５巷","ALLEY":" ","HOUSE_NO":"２６號","E_COORD97":181952.95000000001,"N_COORD97":2570303.0899999999,"ADDRESS":"中山路４３５巷２６號","OBJECTID":450025},"geometry":{"x":181952.95000000019,"y":2570303.0900000017}},{"attributes":{"ID":450051,"DIS_CODE":0,"TOWNNAME":"六甲區","LI":"二甲里","LIN":"18鄰","STREET":"中山路","SECT":" ","MAREA":" ","LANE":"４３５巷","ALLEY":" ","HOUSE_NO":"２８號","E_COORD97":181951.67999999999,"N_COORD97":2570295.5099999998,"ADDRESS":"中山路４３５巷２８號","OBJECTID":450026},"geometry":{"x":181951.68000000063,"y":2570295.5099999998}},{"attributes":{"ID":450052,"DIS_CODE":0,"TOWNNAME":"六甲區","LI":"二甲里","LIN":"18鄰","STREET":"中山路","SECT":" ","MAREA":" ","LANE":"４３５巷","ALLEY":" ","HOUSE_NO":"２號","E_COORD97":181963.26999999999,"N_COORD97":2570373.6899999999,"ADDRESS":"中山路４３５巷２號","OBJECTID":450027},"geometry":{"x":181963.26999999955,"y":2570373.6900000013}},{"attributes":{"ID":450053,"DIS_CODE":0,"TOWNNAME":"六甲區","LI":"二甲里","LIN":"18鄰","STREET":"中山路","SECT":" ","MAREA":" ","LANE":"４３５巷","ALLEY":" ","HOUSE_NO":"３０號","E_COORD97":181950.29000000001,"N_COORD97":2570288.1400000001,"ADDRESS":"中山路４３５巷３０號","OBJECTID":450028},"geometry":{"x":181950.29000000004,"y":2570288.1400000006}},{"attributes":{"ID":450054,"DIS_CODE":0,"TOWNNAME":"六甲區","LI":"二甲里","LIN":"18鄰","STREET":"中山路","SECT":" ","MAREA":" ","LANE":"４３５巷","ALLEY":" ","HOUSE_NO":"３號","E_COORD97":181975.04999999999,"N_COORD97":2570364.4300000002,"ADDRESS":"中山路４３５巷３號","OBJECTID":450029},"geometry":{"x":181975.05000000075,"y":2570364.4300000034}},{"attributes":{"ID":450055,"DIS_CODE":0,"TOWNNAME":"六甲區","LI":"二甲里","LIN":"18鄰","STREET":"中山路","SECT":" ","MAREA":" ","LANE":"４３５巷","ALLEY":" ","HOUSE_NO":"５號","E_COORD97":181973.82999999999,"N_COORD97":2570356.5099999998,"ADDRESS":"中山路４３５巷５號","OBJECTID":450030},"geometry":{"x":181973.83000000007,"y":2570356.5099999998}},{"attributes":{"ID":450056,"DIS_CODE":0,"TOWNNAME":"六甲區","LI":"二甲里","LIN":"18鄰","STREET":"中山路","SECT":" ","MAREA":" ","LANE":"４３５巷","ALLEY":" ","HOUSE_NO":"６號","E_COORD97":181962.04000000001,"N_COORD97":2570366.1000000001,"ADDRESS":"中山路４３５巷６號","OBJECTID":450031},"geometry":{"x":181962.04000000004,"y":2570366.0999999996}},{"attributes":{"ID":450057,"DIS_CODE":0,"TOWNNAME":"六甲區","LI":"二甲里","LIN":"18鄰","STREET":"中山路","SECT":" ","MAREA":" ","LANE":"４３５巷","ALLEY":" ","HOUSE_NO":"７號","E_COORD97":181972.45000000001,"N_COORD97":2570349.5800000001,"ADDRESS":"中山路４３５巷７號","OBJECTID":450032},"geometry":{"x":181972.45000000112,"y":2570349.5800000001}},{"attributes":{"ID":450058,"DIS_CODE":0,"TOWNNAME":"六甲區","LI":"二甲里","LIN":"18鄰","STREET":"中山路","SECT":" ","MAREA":" ","LANE":"４３５巷","ALLEY":" ","HOUSE_NO":"８號","E_COORD97":181961.26000000001,"N_COORD97":2570358.4900000002,"ADDRESS":"中山路４３５巷８號","OBJECTID":450033},"geometry":{"x":181961.26000000071,"y":2570358.4900000021}},{"attributes":{"ID":450059,"DIS_CODE":0,"TOWNNAME":"六甲區","LI":"二甲里","LIN":"18鄰","STREET":"中山路","SECT":" ","MAREA":" ","LANE":"４３５巷","ALLEY":" ","HOUSE_NO":"９號","E_COORD97":181971.31,"N_COORD97":2570341.75,"ADDRESS":"中山路４３５巷９號","OBJECTID":450034},"geometry":{"x":181971.31000000052,"y":2570341.75}},{"attributes":{"ID":450060,"DIS_CODE":0,"TOWNNAME":"六甲區","LI":"二甲里","LIN":"18鄰","STREET":"中山路","SECT":" ","MAREA":" ","LANE":"５０５巷","ALLEY":" ","HOUSE_NO":"５５號","E_COORD97":181787.67999999999,"N_COORD97":2570152.0600000001,"ADDRESS":"中山路５０５巷５５號","OBJECTID":450035},"geometry":{"x":181787.68000000063,"y":2570152.0600000024}},{"attributes":{"ID":450061,"DIS_CODE":0,"TOWNNAME":"六甲區","LI":"二甲里","LIN":"18鄰","STREET":"中山路","SECT":" ","MAREA":" ","LANE":"５０５巷","ALLEY":" ","HOUSE_NO":"９９號","E_COORD97":181693.09,"N_COORD97":2569773.9700000002,"ADDRESS":"中山路５０５巷９９號","OBJECTID":450036},"geometry":{"x":181693.09000000078,"y":2569773.9700000007}},{"attributes":{"ID":450062,"DIS_CODE":0,"TOWNNAME":"六甲區","LI":"水林里","LIN":"18鄰","STREET":"中正路","SECT":" ","MAREA":" ","LANE":"１２１３巷","ALLEY":" ","HOUSE_NO":"５６號","E_COORD97":183430.47,"N_COORD97":2571447.3999999999,"ADDRESS":"中正路１２１３巷５６號","OBJECTID":450037},"geometry":{"x":183430.46999999974,"y":2571447.4000000022}},{"attributes":{"ID":450063,"DIS_CODE":0,"TOWNNAME":"六甲區","LI":"水林里","LIN":"18鄰","STREET":"中正路","SECT":" ","MAREA":" ","LANE":"１２１３巷","ALLEY":" ","HOUSE_NO":"８６號","E_COORD97":183468.76000000001,"N_COORD97":2571449.2400000002,"ADDRESS":"中正路１２１３巷８６號","OBJECTID":450038},"geometry":{"x":183468.76000000071,"y":2571449.2400000021}},{"attributes":{"ID":450064,"DIS_CODE":0,"TOWNNAME":"六甲區","LI":"水林里","LIN":"18鄰","STREET":"中正路","SECT":" ","MAREA":" ","LANE":"６４９巷","ALLEY":" ","HOUSE_NO":"１３號","E_COORD97":183693.79000000001,"N_COORD97":2570327.8500000001,"ADDRESS":"中正路６４９巷１３號","OBJECTID":450039},"geometry":{"x":183693.79000000097,"y":2570327.8500000015}},{"attributes":{"ID":450065,"DIS_CODE":0,"TOWNNAME":"六甲區","LI":"水林里","LIN":"18鄰","STREET":"中正路","SECT":" ","MAREA":" ","LANE":"６４９巷","ALLEY":" ","HOUSE_NO":"１４號","E_COORD97":183710.32999999999,"N_COORD97":2570332.6099999999,"ADDRESS":"中正路６４９巷１４號","OBJECTID":450040},"geometry":{"x":183710.33000000194,"y":2570332.6100000013}},{"attributes":{"ID":450066,"DIS_CODE":0,"TOWNNAME":"六甲區","LI":"水林里","LIN":"18鄰","STREET":"中正路","SECT":" ","MAREA":" ","LANE":"６４９巷","ALLEY":" ","HOUSE_NO":"１５號","E_COORD97":183694.25,"N_COORD97":2570332.04,"ADDRESS":"中正路６４９巷１５號","OBJECTID":450041},"geometry":{"x":183694.25000000093,"y":2570332.0399999991}},{"attributes":{"ID":450067,"DIS_CODE":0,"TOWNNAME":"六甲區","LI":"水林里","LIN":"18鄰","STREET":"中正路","SECT":" ","MAREA":" ","LANE":"６４９巷","ALLEY":" ","HOUSE_NO":"１６號","E_COORD97":183711.44,"N_COORD97":2570337,"ADDRESS":"中正路６４９巷１６號","OBJECTID":450042},"geometry":{"x":183711.43999999948,"y":2570337.0000000037}},{"attributes":{"ID":450068,"DIS_CODE":0,"TOWNNAME":"六甲區","LI":"水林里","LIN":"18鄰","STREET":"中正路","SECT":" ","MAREA":" ","LANE":"６４９巷","ALLEY":" ","HOUSE_NO":"１７號","E_COORD97":183695.39999999999,"N_COORD97":2570336.8700000001,"ADDRESS":"中正路６４９巷１７號","OBJECTID":450043},"geometry":{"x":183695.4000000013,"y":2570336.8700000029}},{"attributes":{"ID":450069,"DIS_CODE":0,"TOWNNAME":"六甲區","LI":"水林里","LIN":"18鄰","STREET":"中正路","SECT":" ","MAREA":" ","LANE":"６４９巷","ALLEY":" ","HOUSE_NO":"１８號","E_COORD97":183712.16,"N_COORD97":2570341.2599999998,"ADDRESS":"中正路６４９巷１８號","OBJECTID":450044},"geometry":{"x":183712.16000000108,"y":2570341.2599999998}},{"attributes":{"ID":450070,"DIS_CODE":0,"TOWNNAME":"六甲區","LI":"水林里","LIN":"18鄰","STREET":"中正路","SECT":" ","MAREA":" ","LANE":"６４９巷","ALLEY":" ","HOUSE_NO":"１９號","E_COORD97":183696.26000000001,"N_COORD97":2570341.1299999999,"ADDRESS":"中正路６４９巷１９號","OBJECTID":450045},"geometry":{"x":183696.25999999978,"y":2570341.129999999}},{"attributes":{"ID":450071,"DIS_CODE":0,"TOWNNAME":"六甲區","LI":"水林里","LIN":"18鄰","STREET":"中正路","SECT":" ","MAREA":" ","LANE":"６４９巷","ALLEY":" ","HOUSE_NO":"１號","E_COORD97":183687.72,"N_COORD97":2570301.5699999998,"ADDRESS":"中正路６４９巷１號","OBJECTID":450046},"geometry":{"x":183687.72000000067,"y":2570301.5700000003}},{"attributes":{"ID":450072,"DIS_CODE":0,"TOWNNAME":"六甲區","LI":"水林里","LIN":"18鄰","STREET":"中正路","SECT":" ","MAREA":" ","LANE":"６４９巷","ALLEY":" ","HOUSE_NO":"２０號","E_COORD97":183713.20000000001,"N_COORD97":2570346.02,"ADDRESS":"中正路６４９巷２０號","OBJECTID":450047},"geometry":{"x":183713.20000000112,"y":2570346.0199999996}},{"attributes":{"ID":450073,"DIS_CODE":0,"TOWNNAME":"六甲區","LI":"水林里","LIN":"18鄰","STREET":"中正路","SECT":" ","MAREA":" ","LANE":"６４９巷","ALLEY":" ","HOUSE_NO":"２１號","E_COORD97":183697.16,"N_COORD97":2570345.46,"ADDRESS":"中正路６４９巷２１號","OBJECTID":450048},"geometry":{"x":183697.16000000015,"y":2570345.4600000028}},{"attributes":{"ID":450074,"DIS_CODE":0,"TOWNNAME":"六甲區","LI":"水林里","LIN":"18鄰","STREET":"中正路","SECT":" ","MAREA":" ","LANE":"６４９巷","ALLEY":" ","HOUSE_NO":"２２號","E_COORD97":183713.88,"N_COORD97":2570350.3599999999,"ADDRESS":"中正路６４９巷２２號","OBJECTID":450049},"geometry":{"x":183713.88000000082,"y":2570350.3599999994}},{"attributes":{"ID":450075,"DIS_CODE":0,"TOWNNAME":"安南區","LI":"新順里","LIN":"1鄰","STREET":"培安四街","SECT":" ","MAREA":" ","LANE":" ","ALLEY":" ","HOUSE_NO":"９０號","E_COORD97":169495.85000000001,"N_COORD97":2549775.8900000001,"ADDRESS":"培安四街９０號","OBJECTID":450050},"geometry":{"x":169495.85000000056,"y":2549775.8900000043}},{"attributes":{"ID":450076,"DIS_CODE":0,"TOWNNAME":"六甲區","LI":"水林里","LIN":"18鄰","STREET":"中正路","SECT":" ","MAREA":" ","LANE":"６４９巷","ALLEY":" ","HOUSE_NO":"２３號","E_COORD97":183698.01000000001,"N_COORD97":2570349.7200000002,"ADDRESS":"中正路６４９巷２３號","OBJECTID":450051},"geometry":{"x":183698.00999999978,"y":2570349.7200000044}},{"attributes":{"ID":450077,"DIS_CODE":0,"TOWNNAME":"六甲區","LI":"水林里","LIN":"18鄰","STREET":"中正路","SECT":" ","MAREA":" ","LANE":"６４９巷","ALLEY":" ","HOUSE_NO":"２４號","E_COORD97":183714.85999999999,"N_COORD97":2570354.52,"ADDRESS":"中正路６４９巷２４號","OBJECTID":450052},"geometry":{"x":183714.86000000034,"y":2570354.5200000014}},{"attributes":{"ID":450078,"DIS_CODE":0,"TOWNNAME":"六甲區","LI":"水林里","LIN":"18鄰","STREET":"中正路","SECT":" ","MAREA":" ","LANE":"６４９巷","ALLEY":" ","HOUSE_NO":"２５號","E_COORD97":183699.39999999999,"N_COORD97":2570354.1600000001,"ADDRESS":"中正路６４９巷２５號","OBJECTID":450053},"geometry":{"x":183699.40000000037,"y":2570354.160000002}},{"attributes":{"ID":450079,"DIS_CODE":0,"TOWNNAME":"六甲區","LI":"水林里","LIN":"18鄰","STREET":"中正路","SECT":" ","MAREA":" ","LANE":"６４９巷","ALLEY":" ","HOUSE_NO":"２７號","E_COORD97":183700.37,"N_COORD97":2570358.1699999999,"ADDRESS":"中正路６４９巷２７號","OBJECTID":450054},"geometry":{"x":183700.37000000104,"y":2570358.1699999999}},{"attributes":{"ID":450080,"DIS_CODE":0,"TOWNNAME":"六甲區","LI":"水林里","LIN":"18鄰","STREET":"中正路","SECT":" ","MAREA":" ","LANE":"６４９巷","ALLEY":" ","HOUSE_NO":"２號","E_COORD97":183704.82999999999,"N_COORD97":2570306.0899999999,"ADDRESS":"中正路６４９巷２號","OBJECTID":450055},"geometry":{"x":183704.83000000007,"y":2570306.0900000017}},{"attributes":{"ID":450081,"DIS_CODE":0,"TOWNNAME":"六甲區","LI":"水林里","LIN":"18鄰","STREET":"中正路","SECT":" ","MAREA":" ","LANE":"６４９巷","ALLEY":" ","HOUSE_NO":"３號","E_COORD97":183688.35999999999,"N_COORD97":2570305.8999999999,"ADDRESS":"中正路６４９巷３號","OBJECTID":450056},"geometry":{"x":183688.3600000022,"y":2570305.9000000004}},{"attributes":{"ID":450082,"DIS_CODE":0,"TOWNNAME":"六甲區","LI":"水林里","LIN":"18鄰","STREET":"中正路","SECT":" ","MAREA":" ","LANE":"６４９巷","ALLEY":" ","HOUSE_NO":"４號","E_COORD97":183705.95999999999,"N_COORD97":2570310.1800000002,"ADDRESS":"中正路６４９巷４號","OBJECTID":450057},"geometry":{"x":183705.96000000183,"y":2570310.1799999997}},{"attributes":{"ID":450083,"DIS_CODE":0,"TOWNNAME":"六甲區","LI":"水林里","LIN":"18鄰","STREET":"中正路","SECT":" ","MAREA":" ","LANE":"６４９巷","ALLEY":" ","HOUSE_NO":"５號","E_COORD97":183689.73999999999,"N_COORD97":2570310.4500000002,"ADDRESS":"中正路６４９巷５號","OBJECTID":450058},"geometry":{"x":183689.74000000115,"y":2570310.4500000011}},{"attributes":{"ID":450084,"DIS_CODE":0,"TOWNNAME":"六甲區","LI":"水林里","LIN":"18鄰","STREET":"中正路","SECT":" ","MAREA":" ","LANE":"６４９巷","ALLEY":" ","HOUSE_NO":"６號","E_COORD97":183706.91,"N_COORD97":2570315.1899999999,"ADDRESS":"中正路６４９巷６號","OBJECTID":450059},"geometry":{"x":183706.91000000108,"y":2570315.1900000013}},{"attributes":{"ID":450085,"DIS_CODE":0,"TOWNNAME":"六甲區","LI":"水林里","LIN":"18鄰","STREET":"中正路","SECT":" ","MAREA":" ","LANE":"６４９巷","ALLEY":" ","HOUSE_NO":"９號","E_COORD97":183691.63,"N_COORD97":2570318.8799999999,"ADDRESS":"中正路６４９巷９號","OBJECTID":450060},"geometry":{"x":183691.63000000082,"y":2570318.879999999}},{"attributes":{"ID":450086,"DIS_CODE":0,"TOWNNAME":"六甲區","LI":"水林里","LIN":"18鄰","STREET":"中正路","SECT":" ","MAREA":" ","LANE":"６７３巷","ALLEY":" ","HOUSE_NO":"１１號","E_COORD97":183725.13,"N_COORD97":2570317.6600000001,"ADDRESS":"中正路６７３巷１１號","OBJECTID":450061},"geometry":{"x":183725.13000000082,"y":2570317.6600000001}},{"attributes":{"ID":450087,"DIS_CODE":0,"TOWNNAME":"六甲區","LI":"水林里","LIN":"18鄰","STREET":"中正路","SECT":" ","MAREA":" ","LANE":"６７３巷","ALLEY":" ","HOUSE_NO":"１３號","E_COORD97":183729.82999999999,"N_COORD97":2570316.52,"ADDRESS":"中正路６７３巷１３號","OBJECTID":450062},"geometry":{"x":183729.83000000007,"y":2570316.5200000014}},{"attributes":{"ID":450088,"DIS_CODE":0,"TOWNNAME":"六甲區","LI":"水林里","LIN":"18鄰","STREET":"中正路","SECT":" ","MAREA":" ","LANE":"６７３巷","ALLEY":" ","HOUSE_NO":"１５號","E_COORD97":183728.76999999999,"N_COORD97":2570331.0800000001,"ADDRESS":"中正路６７３巷１５號","OBJECTID":450063},"geometry":{"x":183728.77000000142,"y":2570331.0800000019}},{"attributes":{"ID":450089,"DIS_CODE":0,"TOWNNAME":"六甲區","LI":"水林里","LIN":"18鄰","STREET":"中正路","SECT":" ","MAREA":" ","LANE":"６７３巷","ALLEY":" ","HOUSE_NO":"１７號","E_COORD97":183732.92999999999,"N_COORD97":2570329.8700000001,"ADDRESS":"中正路６７３巷１７號","OBJECTID":450064},"geometry":{"x":183732.93000000156,"y":2570329.8700000029}},{"attributes":{"ID":450090,"DIS_CODE":0,"TOWNNAME":"六甲區","LI":"水林里","LIN":"18鄰","STREET":"中正路","SECT":" ","MAREA":" ","LANE":"６７３巷","ALLEY":" ","HOUSE_NO":"１９號","E_COORD97":183748.47,"N_COORD97":2570323.4199999999,"ADDRESS":"中正路６７３巷１９號","OBJECTID":450065},"geometry":{"x":183748.47000000067,"y":2570323.4199999999}},{"attributes":{"ID":450091,"DIS_CODE":0,"TOWNNAME":"六甲區","LI":"水林里","LIN":"18鄰","STREET":"中正路","SECT":" ","MAREA":" ","LANE":"６７３巷","ALLEY":" ","HOUSE_NO":"１號","E_COORD97":183742.59,"N_COORD97":2570299.2799999998,"ADDRESS":"中正路６７３巷１號","OBJECTID":450066},"geometry":{"x":183742.59000000078,"y":2570299.2799999993}},{"attributes":{"ID":450092,"DIS_CODE":0,"TOWNNAME":"六甲區","LI":"水林里","LIN":"18鄰","STREET":"中正路","SECT":" ","MAREA":" ","LANE":"６７３巷","ALLEY":" ","HOUSE_NO":"２１號","E_COORD97":183749.07000000001,"N_COORD97":2570327.2400000002,"ADDRESS":"中正路６７３巷２１號","OBJECTID":450067},"geometry":{"x":183749.0700000003,"y":2570327.2400000002}},{"attributes":{"ID":450093,"DIS_CODE":0,"TOWNNAME":"六甲區","LI":"水林里","LIN":"18鄰","STREET":"中正路","SECT":" ","MAREA":" ","LANE":"６７３巷","ALLEY":" ","HOUSE_NO":"２３號","E_COORD97":183750.42000000001,"N_COORD97":2570331.7999999998,"ADDRESS":"中正路６７３巷２３號","OBJECTID":450068},"geometry":{"x":183750.42000000086,"y":2570331.8000000007}},{"attributes":{"ID":450094,"DIS_CODE":0,"TOWNNAME":"六甲區","LI":"水林里","LIN":"18鄰","STREET":"中正路","SECT":" ","MAREA":" ","LANE":"６７３巷","ALLEY":" ","HOUSE_NO":"２５號","E_COORD97":183751.47,"N_COORD97":2570335.9700000002,"ADDRESS":"中正路６７３巷２５號","OBJECTID":450069},"geometry":{"x":183751.4700000016,"y":2570335.9700000025}},{"attributes":{"ID":450095,"DIS_CODE":0,"TOWNNAME":"六甲區","LI":"水林里","LIN":"18鄰","STREET":"中正路","SECT":" ","MAREA":" ","LANE":"６７３巷","ALLEY":" ","HOUSE_NO":"２７號","E_COORD97":183752.60999999999,"N_COORD97":2570340.1299999999,"ADDRESS":"中正路６７３巷２７號","OBJECTID":450070},"geometry":{"x":183752.6099999994,"y":2570340.129999999}},{"attributes":{"ID":450096,"DIS_CODE":0,"TOWNNAME":"六甲區","LI":"水林里","LIN":"18鄰","STREET":"中正路","SECT":" ","MAREA":" ","LANE":"６７３巷","ALLEY":" ","HOUSE_NO":"２９號","E_COORD97":183753.64000000001,"N_COORD97":2570344.1099999999,"ADDRESS":"中正路６７３巷２９號","OBJECTID":450071},"geometry":{"x":183753.6400000006,"y":2570344.1099999994}},{"attributes":{"ID":450097,"DIS_CODE":0,"TOWNNAME":"六甲區","LI":"水林里","LIN":"18鄰","STREET":"中正路","SECT":" ","MAREA":" ","LANE":"６７３巷","ALLEY":" ","HOUSE_NO":"３號","E_COORD97":183743.10000000001,"N_COORD97":2570303.0600000001,"ADDRESS":"中正路６７３巷３號","OBJECTID":450072},"geometry":{"x":183743.09999999963,"y":2570303.0599999987}},{"attributes":{"ID":450098,"DIS_CODE":0,"TOWNNAME":"六甲區","LI":"水林里","LIN":"18鄰","STREET":"中正路","SECT":" ","MAREA":" ","LANE":"６７３巷","ALLEY":" ","HOUSE_NO":"５號","E_COORD97":183744.07000000001,"N_COORD97":2570307.21,"ADDRESS":"中正路６７３巷５號","OBJECTID":450073},"geometry":{"x":183744.0700000003,"y":2570307.2100000028}},{"attributes":{"ID":450099,"DIS_CODE":0,"TOWNNAME":"六甲區","LI":"水林里","LIN":"18鄰","STREET":"中正路","SECT":" ","MAREA":" ","LANE":"６７３巷","ALLEY":" ","HOUSE_NO":"７號","E_COORD97":183744.97,"N_COORD97":2570311.1400000001,"ADDRESS":"中正路６７３巷７號","OBJECTID":450074},"geometry":{"x":183744.97000000067,"y":2570311.1400000025}},{"attributes":{"ID":450100,"DIS_CODE":0,"TOWNNAME":"六甲區","LI":"水林里","LIN":"18鄰","STREET":"中正路","SECT":" ","MAREA":" ","LANE":"６７３巷","ALLEY":" ","HOUSE_NO":"９號","E_COORD97":183746.12,"N_COORD97":2570315.3399999999,"ADDRESS":"中正路６７３巷９號","OBJECTID":450075},"geometry":{"x":183746.12000000104,"y":2570315.3400000017}},{"attributes":{"ID":450101,"DIS_CODE":0,"TOWNNAME":"六甲區","LI":"六甲里","LIN":"18鄰","STREET":"仁愛街","SECT":" ","MAREA":" ","LANE":"４９巷","ALLEY":" ","HOUSE_NO":"１０號","E_COORD97":183831.95000000001,"N_COORD97":2570004.4900000002,"ADDRESS":"仁愛街４９巷１０號","OBJECTID":450076},"geometry":{"x":183831.95000000112,"y":2570004.4900000002}},{"attributes":{"ID":450102,"DIS_CODE":0,"TOWNNAME":"六甲區","LI":"六甲里","LIN":"18鄰","STREET":"仁愛街","SECT":" ","MAREA":" ","LANE":"４９巷","ALLEY":" ","HOUSE_NO":"２４號","E_COORD97":183820.34,"N_COORD97":2570021.0800000001,"ADDRESS":"仁愛街４９巷２４號","OBJECTID":450077},"geometry":{"x":183820.34000000078,"y":2570021.0800000038}},{"attributes":{"ID":450103,"DIS_CODE":0,"TOWNNAME":"六甲區","LI":"六甲里","LIN":"18鄰","STREET":"仁愛街","SECT":" ","MAREA":" ","LANE":"４９巷","ALLEY":" ","HOUSE_NO":"３０號","E_COORD97":183801.85000000001,"N_COORD97":2570001.3300000001,"ADDRESS":"仁愛街４９巷３０號","OBJECTID":450078},"geometry":{"x":183801.85000000056,"y":2570001.3300000001}},{"attributes":{"ID":450104,"DIS_CODE":0,"TOWNNAME":"六甲區","LI":"六甲里","LIN":"18鄰","STREET":"仁愛街","SECT":" ","MAREA":" ","LANE":"６９巷","ALLEY":" ","HOUSE_NO":"１號","E_COORD97":183825.87,"N_COORD97":2570030.8799999999,"ADDRESS":"仁愛街６９巷１號","OBJECTID":450079},"geometry":{"x":183825.87000000104,"y":2570030.879999999}},{"attributes":{"ID":450105,"DIS_CODE":0,"TOWNNAME":"六甲區","LI":"六甲里","LIN":"18鄰","STREET":"仁愛街","SECT":" ","MAREA":" ","LANE":"６９巷","ALLEY":" ","HOUSE_NO":"３號","E_COORD97":183813.51000000001,"N_COORD97":2570045.6099999999,"ADDRESS":"仁愛街６９巷３號","OBJECTID":450080},"geometry":{"x":183813.50999999978,"y":2570045.6100000013}},{"attributes":{"ID":450106,"DIS_CODE":0,"TOWNNAME":"六甲區","LI":"水林里","LIN":"18鄰","STREET":"民族街","SECT":" ","MAREA":" ","LANE":"１０巷","ALLEY":" ","HOUSE_NO":"１０號","E_COORD97":183659.79000000001,"N_COORD97":2570323.0299999998,"ADDRESS":"民族街１０巷１０號","OBJECTID":450081},"geometry":{"x":183659.79000000097,"y":2570323.0300000012}},{"attributes":{"ID":450107,"DIS_CODE":0,"TOWNNAME":"六甲區","LI":"水林里","LIN":"18鄰","STREET":"民族街","SECT":" ","MAREA":" ","LANE":"１０巷","ALLEY":" ","HOUSE_NO":"１２號","E_COORD97":183660.92000000001,"N_COORD97":2570327.4399999999,"ADDRESS":"民族街１０巷１２號","OBJECTID":450082},"geometry":{"x":183660.92000000086,"y":2570327.4400000013}},{"attributes":{"ID":450108,"DIS_CODE":0,"TOWNNAME":"六甲區","LI":"水林里","LIN":"18鄰","STREET":"民族街","SECT":" ","MAREA":" ","LANE":"１０巷","ALLEY":" ","HOUSE_NO":"１４號","E_COORD97":183661.98999999999,"N_COORD97":2570331.5,"ADDRESS":"民族街１０巷１４號","OBJECTID":450083},"geometry":{"x":183661.99000000209,"y":2570331.5000000019}},{"attributes":{"ID":450109,"DIS_CODE":0,"TOWNNAME":"六甲區","LI":"水林里","LIN":"18鄰","STREET":"民族街","SECT":" ","MAREA":" ","LANE":"１０巷","ALLEY":" ","HOUSE_NO":"１６號","E_COORD97":183663.10000000001,"N_COORD97":2570335.9100000001,"ADDRESS":"民族街１０巷１６號","OBJECTID":450084},"geometry":{"x":183663.09999999963,"y":2570335.910000002}},{"attributes":{"ID":450110,"DIS_CODE":0,"TOWNNAME":"六甲區","LI":"水林里","LIN":"18鄰","STREET":"民族街","SECT":" ","MAREA":" ","LANE":"１０巷","ALLEY":" ","HOUSE_NO":"１８號","E_COORD97":183664.29000000001,"N_COORD97":2570340.0499999998,"ADDRESS":"民族街１０巷１８號","OBJECTID":450085},"geometry":{"x":183664.29000000004,"y":2570340.0500000007}},{"attributes":{"ID":450111,"DIS_CODE":0,"TOWNNAME":"六甲區","LI":"水林里","LIN":"18鄰","STREET":"民族街","SECT":" ","MAREA":" ","LANE":"１０巷","ALLEY":" ","HOUSE_NO":"２０號","E_COORD97":183665.60999999999,"N_COORD97":2570344.4399999999,"ADDRESS":"民族街１０巷２０號","OBJECTID":450086},"geometry":{"x":183665.61000000034,"y":2570344.4400000013}},{"attributes":{"ID":450112,"DIS_CODE":0,"TOWNNAME":"六甲區","LI":"水林里","LIN":"18鄰","STREET":"民族街","SECT":" ","MAREA":" ","LANE":"１０巷","ALLEY":" ","HOUSE_NO":"２２號","E_COORD97":183666.26999999999,"N_COORD97":2570348.3399999999,"ADDRESS":"民族街１０巷２２號","OBJECTID":450087},"geometry":{"x":183666.27000000048,"y":2570348.3400000036}},{"attributes":{"ID":450113,"DIS_CODE":0,"TOWNNAME":"六甲區","LI":"水林里","LIN":"18鄰","STREET":"民族街","SECT":" ","MAREA":" ","LANE":"１０巷","ALLEY":" ","HOUSE_NO":"２４號","E_COORD97":183667.60000000001,"N_COORD97":2570352.8300000001,"ADDRESS":"民族街１０巷２４號","OBJECTID":450088},"geometry":{"x":183667.60000000056,"y":2570352.8300000019}},{"attributes":{"ID":450114,"DIS_CODE":0,"TOWNNAME":"六甲區","LI":"水林里","LIN":"18鄰","STREET":"民族街","SECT":" ","MAREA":" ","LANE":"１０巷","ALLEY":" ","HOUSE_NO":"２６號","E_COORD97":183668.51000000001,"N_COORD97":2570357.0499999998,"ADDRESS":"民族街１０巷２６號","OBJECTID":450089},"geometry":{"x":183668.51000000071,"y":2570357.0500000007}},{"attributes":{"ID":450115,"DIS_CODE":0,"TOWNNAME":"六甲區","LI":"水林里","LIN":"18鄰","STREET":"民族街","SECT":" ","MAREA":" ","LANE":"１０巷","ALLEY":" ","HOUSE_NO":"２８號","E_COORD97":183669.60999999999,"N_COORD97":2570361.6200000001,"ADDRESS":"民族街１０巷２８號","OBJECTID":450090},"geometry":{"x":183669.6100000022,"y":2570361.6200000029}},{"attributes":{"ID":450116,"DIS_CODE":0,"TOWNNAME":"六甲區","LI":"水林里","LIN":"18鄰","STREET":"民族街","SECT":" ","MAREA":" ","LANE":"１０巷","ALLEY":" ","HOUSE_NO":"２號","E_COORD97":183656.72,"N_COORD97":2570309.9700000002,"ADDRESS":"民族街１０巷２號","OBJECTID":450091},"geometry":{"x":183656.72000000067,"y":2570309.9700000007}},{"attributes":{"ID":450117,"DIS_CODE":0,"TOWNNAME":"六甲區","LI":"水林里","LIN":"18鄰","STREET":"民族街","SECT":" ","MAREA":" ","LANE":"１０巷","ALLEY":" ","HOUSE_NO":"３０號","E_COORD97":183670.67999999999,"N_COORD97":2570365.79,"ADDRESS":"民族街１０巷３０號","OBJECTID":450092},"geometry":{"x":183670.68000000063,"y":2570365.790000001}},{"attributes":{"ID":450118,"DIS_CODE":0,"TOWNNAME":"六甲區","LI":"水林里","LIN":"18鄰","STREET":"民族街","SECT":" ","MAREA":" ","LANE":"１０巷","ALLEY":" ","HOUSE_NO":"６號","E_COORD97":183657.57000000001,"N_COORD97":2570314.2599999998,"ADDRESS":"民族街１０巷６號","OBJECTID":450093},"geometry":{"x":183657.5700000003,"y":2570314.2599999998}},{"attributes":{"ID":450119,"DIS_CODE":0,"TOWNNAME":"六甲區","LI":"水林里","LIN":"18鄰","STREET":"民族街","SECT":" ","MAREA":" ","LANE":"１０巷","ALLEY":" ","HOUSE_NO":"８號","E_COORD97":183658.64999999999,"N_COORD97":2570318.6299999999,"ADDRESS":"民族街１０巷８號","OBJECTID":450094},"geometry":{"x":183658.65000000037,"y":2570318.6300000008}},{"attributes":{"ID":450120,"DIS_CODE":0,"TOWNNAME":"六甲區","LI":"中社里","LIN":"12鄰","STREET":" ","SECT":" ","MAREA":"港子頭","LANE":" ","ALLEY":" ","HOUSE_NO":"２６之１號","E_COORD97":180969.14401300001,"N_COORD97":2571410.0652600001,"ADDRESS":"港子頭２６之１號","OBJECTID":450095},"geometry":{"x":180969.14401300065,"y":2571410.0652620029}},{"attributes":{"ID":450121,"DIS_CODE":0,"TOWNNAME":"六甲區","LI":"水林里","LIN":"18鄰","STREET":"民族街","SECT":" ","MAREA":" ","LANE":"１６巷","ALLEY":" ","HOUSE_NO":"１０號","E_COORD97":183640.06,"N_COORD97":2570329.4900000002,"ADDRESS":"民族街１６巷１０號","OBJECTID":450096},"geometry":{"x":183640.05999999959,"y":2570329.4900000002}},{"attributes":{"ID":450122,"DIS_CODE":0,"TOWNNAME":"六甲區","LI":"二甲里","LIN":"18鄰","STREET":"和平街","SECT":" ","MAREA":" ","LANE":"３２１巷","ALLEY":" ","HOUSE_NO":"９號","E_COORD97":182684.66,"N_COORD97":2569713.1899999999,"ADDRESS":"和平街３２１巷９號","OBJECTID":450097},"geometry":{"x":182684.66000000108,"y":2569713.1899999995}},{"attributes":{"ID":450123,"DIS_CODE":0,"TOWNNAME":"六甲區","LI":"水林里","LIN":"18鄰","STREET":"民族街","SECT":" ","MAREA":" ","LANE":"１６巷","ALLEY":" ","HOUSE_NO":"１１號","E_COORD97":183615.67999999999,"N_COORD97":2570342.3599999999,"ADDRESS":"民族街１６巷１１號","OBJECTID":450098},"geometry":{"x":183615.6799999997,"y":2570342.3600000013}},{"attributes":{"ID":450124,"DIS_CODE":0,"TOWNNAME":"六甲區","LI":"水林里","LIN":"18鄰","STREET":"民族街","SECT":" ","MAREA":" ","LANE":"１６巷","ALLEY":" ","HOUSE_NO":"１２號","E_COORD97":183641.29000000001,"N_COORD97":2570335.0099999998,"ADDRESS":"民族街１６巷１２號","OBJECTID":450099},"geometry":{"x":183641.29000000097,"y":2570335.0099999998}},{"attributes":{"ID":450125,"DIS_CODE":0,"TOWNNAME":"六甲區","LI":"水林里","LIN":"18鄰","STREET":"民族街","SECT":" ","MAREA":" ","LANE":"１６巷","ALLEY":" ","HOUSE_NO":"１３號","E_COORD97":183611.28,"N_COORD97":2570342.7999999998,"ADDRESS":"民族街１６巷１３號","OBJECTID":450100},"geometry":{"x":183611.28000000119,"y":2570342.8000000026}},{"attributes":{"ID":450126,"DIS_CODE":0,"TOWNNAME":"六甲區","LI":"水林里","LIN":"18鄰","STREET":"民族街","SECT":" ","MAREA":" ","LANE":"１６巷","ALLEY":" ","HOUSE_NO":"１４號","E_COORD97":183642.29000000001,"N_COORD97":2570340.7799999998,"ADDRESS":"民族街１６巷１４號","OBJECTID":450101},"geometry":{"x":183642.29000000004,"y":2570340.7799999993}},{"attributes":{"ID":450127,"DIS_CODE":0,"TOWNNAME":"六甲區","LI":"水林里","LIN":"18鄰","STREET":"民族街","SECT":" ","MAREA":" ","LANE":"１６巷","ALLEY":" ","HOUSE_NO":"１５號","E_COORD97":183606.79999999999,"N_COORD97":2570343.4700000002,"ADDRESS":"民族街１６巷１５號","OBJECTID":450102},"geometry":{"x":183606.80000000168,"y":2570343.4700000007}},{"attributes":{"ID":450128,"DIS_CODE":0,"TOWNNAME":"六甲區","LI":"水林里","LIN":"18鄰","STREET":"民族街","SECT":" ","MAREA":" ","LANE":"１６巷","ALLEY":" ","HOUSE_NO":"１６號","E_COORD97":183654.42000000001,"N_COORD97":2570353.1699999999,"ADDRESS":"民族街１６巷１６號","OBJECTID":450103},"geometry":{"x":183654.41999999993,"y":2570353.1700000018}},{"attributes":{"ID":450129,"DIS_CODE":0,"TOWNNAME":"六甲區","LI":"水林里","LIN":"18鄰","STREET":"民族街","SECT":" ","MAREA":" ","LANE":"１６巷","ALLEY":" ","HOUSE_NO":"１７號","E_COORD97":183602.45000000001,"N_COORD97":2570344.1000000001,"ADDRESS":"民族街１６巷１７號","OBJECTID":450104},"geometry":{"x":183602.45000000019,"y":2570344.1000000015}},{"attributes":{"ID":450130,"DIS_CODE":0,"TOWNNAME":"六甲區","LI":"水林里","LIN":"18鄰","STREET":"民族街","SECT":" ","MAREA":" ","LANE":"１６巷","ALLEY":" ","HOUSE_NO":"１８號","E_COORD97":183649.48999999999,"N_COORD97":2570354.29,"ADDRESS":"民族街１６巷１８號","OBJECTID":450105},"geometry":{"x":183649.49000000022,"y":2570354.2900000028}},{"attributes":{"ID":450131,"DIS_CODE":0,"TOWNNAME":"六甲區","LI":"水林里","LIN":"18鄰","STREET":"民族街","SECT":" ","MAREA":" ","LANE":"１６巷","ALLEY":" ","HOUSE_NO":"１９號","E_COORD97":183598.35000000001,"N_COORD97":2570344.79,"ADDRESS":"民族街１６巷１９號","OBJECTID":450106},"geometry":{"x":183598.35000000056,"y":2570344.790000001}},{"attributes":{"ID":450132,"DIS_CODE":0,"TOWNNAME":"六甲區","LI":"水林里","LIN":"18鄰","STREET":"民族街","SECT":" ","MAREA":" ","LANE":"１６巷","ALLEY":" ","HOUSE_NO":"１號","E_COORD97":183620.63,"N_COORD97":2570325.5699999998,"ADDRESS":"民族街１６巷１號","OBJECTID":450107},"geometry":{"x":183620.63000000082,"y":2570325.5700000003}},{"attributes":{"ID":450133,"DIS_CODE":0,"TOWNNAME":"六甲區","LI":"水林里","LIN":"18鄰","STREET":"民族街","SECT":" ","MAREA":" ","LANE":"１６巷","ALLEY":" ","HOUSE_NO":"２０號","E_COORD97":183644.98999999999,"N_COORD97":2570355.1499999999,"ADDRESS":"民族街１６巷２０號","OBJECTID":450108},"geometry":{"x":183644.99000000209,"y":2570355.1500000004}},{"attributes":{"ID":450134,"DIS_CODE":0,"TOWNNAME":"六甲區","LI":"水林里","LIN":"18鄰","STREET":"民族街","SECT":" ","MAREA":" ","LANE":"１６巷","ALLEY":" ","HOUSE_NO":"２１號","E_COORD97":183593.91,"N_COORD97":2570345.75,"ADDRESS":"民族街１６巷２１號","OBJECTID":450109},"geometry":{"x":183593.91000000015,"y":2570345.7500000019}},{"attributes":{"ID":450135,"DIS_CODE":0,"TOWNNAME":"六甲區","LI":"水林里","LIN":"18鄰","STREET":"民族街","SECT":" ","MAREA":" ","LANE":"１６巷","ALLEY":" ","HOUSE_NO":"２２號","E_COORD97":183640.48999999999,"N_COORD97":2570355.9900000002,"ADDRESS":"民族街１６巷２２號","OBJECTID":450110},"geometry":{"x":183640.49000000115,"y":2570355.9900000002}},{"attributes":{"ID":450136,"DIS_CODE":0,"TOWNNAME":"六甲區","LI":"水林里","LIN":"18鄰","STREET":"民族街","SECT":" ","MAREA":" ","LANE":"１６巷","ALLEY":" ","HOUSE_NO":"２３號","E_COORD97":183589.98000000001,"N_COORD97":2570346.29,"ADDRESS":"民族街１６巷２３號","OBJECTID":450111},"geometry":{"x":183589.98000000138,"y":2570346.2899999991}},{"attributes":{"ID":450137,"DIS_CODE":0,"TOWNNAME":"六甲區","LI":"水林里","LIN":"18鄰","STREET":"民族街","SECT":" ","MAREA":" ","LANE":"１６巷","ALLEY":" ","HOUSE_NO":"２４號","E_COORD97":183635.76000000001,"N_COORD97":2570356.7400000002,"ADDRESS":"民族街１６巷２４號","OBJECTID":450112},"geometry":{"x":183635.75999999885,"y":2570356.7400000021}},{"attributes":{"ID":450138,"DIS_CODE":0,"TOWNNAME":"六甲區","LI":"水林里","LIN":"18鄰","STREET":"民族街","SECT":" ","MAREA":" ","LANE":"１６巷","ALLEY":" ","HOUSE_NO":"２５號","E_COORD97":183585.60999999999,"N_COORD97":2570346.98,"ADDRESS":"民族街１６巷２５號","OBJECTID":450113},"geometry":{"x":183585.61000000127,"y":2570346.9800000004}},{"attributes":{"ID":450139,"DIS_CODE":0,"TOWNNAME":"六甲區","LI":"水林里","LIN":"18鄰","STREET":"民族街","SECT":" ","MAREA":" ","LANE":"１６巷","ALLEY":" ","HOUSE_NO":"２６號","E_COORD97":183631.32999999999,"N_COORD97":2570357.7400000002,"ADDRESS":"民族街１６巷２６號","OBJECTID":450114},"geometry":{"x":183631.33000000101,"y":2570357.7400000002}},{"attributes":{"ID":450140,"DIS_CODE":0,"TOWNNAME":"六甲區","LI":"水林里","LIN":"18鄰","STREET":"民族街","SECT":" ","MAREA":" ","LANE":"１６巷","ALLEY":" ","HOUSE_NO":"２７號","E_COORD97":183581.16,"N_COORD97":2570347.5800000001,"ADDRESS":"民族街１６巷２７號","OBJECTID":450115},"geometry":{"x":183581.16000000108,"y":2570347.5800000019}},{"attributes":{"ID":450141,"DIS_CODE":0,"TOWNNAME":"六甲區","LI":"水林里","LIN":"18鄰","STREET":"民族街","SECT":" ","MAREA":" ","LANE":"１６巷","ALLEY":" ","HOUSE_NO":"２８號","E_COORD97":183626.95999999999,"N_COORD97":2570358.3199999998,"ADDRESS":"民族街１６巷２８號","OBJECTID":450116},"geometry":{"x":183626.96000000089,"y":2570358.3200000003}},{"attributes":{"ID":450142,"DIS_CODE":0,"TOWNNAME":"六甲區","LI":"水林里","LIN":"18鄰","STREET":"民族街","SECT":" ","MAREA":" ","LANE":"１６巷","ALLEY":" ","HOUSE_NO":"２號","E_COORD97":183636.82999999999,"N_COORD97":2570312.0699999998,"ADDRESS":"民族街１６巷２號","OBJECTID":450117},"geometry":{"x":183636.83000000007,"y":2570312.0700000003}},{"attributes":{"ID":450143,"DIS_CODE":0,"TOWNNAME":"六甲區","LI":"水林里","LIN":"18鄰","STREET":"民族街","SECT":" ","MAREA":" ","LANE":"１６巷","ALLEY":" ","HOUSE_NO":"３０號","E_COORD97":183622.45000000001,"N_COORD97":2570359.2799999998,"ADDRESS":"民族街１６巷３０號","OBJECTID":450118},"geometry":{"x":183622.45000000019,"y":2570359.2800000012}},{"attributes":{"ID":450144,"DIS_CODE":0,"TOWNNAME":"六甲區","LI":"水林里","LIN":"18鄰","STREET":"民族街","SECT":" ","MAREA":" ","LANE":"１６巷","ALLEY":" ","HOUSE_NO":"３２號","E_COORD97":183617.66,"N_COORD97":2570359.9100000001,"ADDRESS":"民族街１６巷３２號","OBJECTID":450119},"geometry":{"x":183617.66000000015,"y":2570359.9100000001}},{"attributes":{"ID":450145,"DIS_CODE":0,"TOWNNAME":"六甲區","LI":"水林里","LIN":"18鄰","STREET":"民族街","SECT":" ","MAREA":" ","LANE":"１６巷","ALLEY":" ","HOUSE_NO":"３４號","E_COORD97":183612.67000000001,"N_COORD97":2570360.54,"ADDRESS":"民族街１６巷３４號","OBJECTID":450120},"geometry":{"x":183612.66999999993,"y":2570360.540000001}},{"attributes":{"ID":450146,"DIS_CODE":0,"TOWNNAME":"六甲區","LI":"水林里","LIN":"18鄰","STREET":"民族街","SECT":" ","MAREA":" ","LANE":"１６巷","ALLEY":" ","HOUSE_NO":"３６號","E_COORD97":183608.06,"N_COORD97":2570361.5499999998,"ADDRESS":"民族街１６巷３６號","OBJECTID":450121},"geometry":{"x":183608.05999999866,"y":2570361.5500000026}},{"attributes":{"ID":450147,"DIS_CODE":0,"TOWNNAME":"六甲區","LI":"水林里","LIN":"18鄰","STREET":"民族街","SECT":" ","MAREA":" ","LANE":"１６巷","ALLEY":" ","HOUSE_NO":"３８號","E_COORD97":183603.03,"N_COORD97":2570361.96,"ADDRESS":"民族街１６巷３８號","OBJECTID":450122},"geometry":{"x":183603.03000000119,"y":2570361.9600000046}},{"attributes":{"ID":450148,"DIS_CODE":0,"TOWNNAME":"六甲區","LI":"水林里","LIN":"18鄰","STREET":"民族街","SECT":" ","MAREA":" ","LANE":"１６巷","ALLEY":" ","HOUSE_NO":"３號","E_COORD97":183620.01999999999,"N_COORD97":2570320.3700000001,"ADDRESS":"民族街１６巷３號","OBJECTID":450123},"geometry":{"x":183620.01999999955,"y":2570320.370000001}},{"attributes":{"ID":450149,"DIS_CODE":0,"TOWNNAME":"六甲區","LI":"水林里","LIN":"18鄰","STREET":"民族街","SECT":" ","MAREA":" ","LANE":"１６巷","ALLEY":" ","HOUSE_NO":"４０號","E_COORD97":183598.92999999999,"N_COORD97":2570363.1099999999,"ADDRESS":"民族街１６巷４０號","OBJECTID":450124},"geometry":{"x":183598.92999999877,"y":2570363.1100000013}},{"attributes":{"ID":450150,"DIS_CODE":0,"TOWNNAME":"六甲區","LI":"水林里","LIN":"18鄰","STREET":"民族街","SECT":" ","MAREA":" ","LANE":"１６巷","ALLEY":" ","HOUSE_NO":"４２號","E_COORD97":183594.54000000001,"N_COORD97":2570363.5299999998,"ADDRESS":"民族街１６巷４２號","OBJECTID":450125},"geometry":{"x":183594.54000000004,"y":2570363.5300000012}},{"attributes":{"ID":450151,"DIS_CODE":0,"TOWNNAME":"六甲區","LI":"水林里","LIN":"18鄰","STREET":"民族街","SECT":" ","MAREA":" ","LANE":"１６巷","ALLEY":" ","HOUSE_NO":"４６號","E_COORD97":183589.20999999999,"N_COORD97":2570364.1800000002,"ADDRESS":"民族街１６巷４６號","OBJECTID":450126},"geometry":{"x":183589.21000000089,"y":2570364.1800000016}},{"attributes":{"ID":450152,"DIS_CODE":0,"TOWNNAME":"六甲區","LI":"水林里","LIN":"18鄰","STREET":"民族街","SECT":" ","MAREA":" ","LANE":"１６巷","ALLEY":" ","HOUSE_NO":"４８號","E_COORD97":183584.85999999999,"N_COORD97":2570365.0099999998,"ADDRESS":"民族街１６巷４８號","OBJECTID":450127},"geometry":{"x":183584.8600000022,"y":2570365.0100000016}},{"attributes":{"ID":450153,"DIS_CODE":0,"TOWNNAME":"六甲區","LI":"水林里","LIN":"18鄰","STREET":"民族街","SECT":" ","MAREA":" ","LANE":"１６巷","ALLEY":" ","HOUSE_NO":"５０號","E_COORD97":183580.29999999999,"N_COORD97":2570365.48,"ADDRESS":"民族街１６巷５０號","OBJECTID":450128},"geometry":{"x":183580.30000000075,"y":2570365.4800000023}},{"attributes":{"ID":450154,"DIS_CODE":0,"TOWNNAME":"柳營區","LI":"八翁里","LIN":"18鄰","STREET":"中山西路","SECT":"三段","MAREA":" ","LANE":"７０１巷","ALLEY":" ","HOUSE_NO":"１３號","E_COORD97":178024.62,"N_COORD97":2575024.5,"ADDRESS":"中山西路三段７０１巷１３號","OBJECTID":450129},"geometry":{"x":178024.62000000104,"y":2575024.5}},{"attributes":{"ID":450155,"DIS_CODE":0,"TOWNNAME":"東山區","LI":"科里里","LIN":"1鄰","STREET":" ","SECT":" ","MAREA":"下庄子","LANE":" ","ALLEY":" ","HOUSE_NO":"３號","E_COORD97":189603.96878299999,"N_COORD97":2578490.9515900002,"ADDRESS":"下庄子３號","OBJECTID":450130},"geometry":{"x":189603.96878299955,"y":2578490.9515910018}},{"attributes":{"ID":450156,"DIS_CODE":0,"TOWNNAME":"柳營區","LI":"八翁里","LIN":"18鄰","STREET":"中山西路","SECT":"三段","MAREA":" ","LANE":"７０１巷","ALLEY":" ","HOUSE_NO":"１５號","E_COORD97":178025.23000000001,"N_COORD97":2575017.6099999999,"ADDRESS":"中山西路三段７０１巷１５號","OBJECTID":450131},"geometry":{"x":178025.23000000045,"y":2575017.6100000031}},{"attributes":{"ID":450157,"DIS_CODE":0,"TOWNNAME":"柳營區","LI":"八翁里","LIN":"18鄰","STREET":"中山西路","SECT":"三段","MAREA":" ","LANE":"７０１巷","ALLEY":" ","HOUSE_NO":"１６號","E_COORD97":178005.95999999999,"N_COORD97":2575019.1499999999,"ADDRESS":"中山西路三段７０１巷１６號","OBJECTID":450132},"geometry":{"x":178005.95999999996,"y":2575019.1500000022}},{"attributes":{"ID":450158,"DIS_CODE":0,"TOWNNAME":"柳營區","LI":"八翁里","LIN":"18鄰","STREET":"中山西路","SECT":"三段","MAREA":" ","LANE":"７０１巷","ALLEY":" ","HOUSE_NO":"１７號","E_COORD97":178025.84,"N_COORD97":2575010.71,"ADDRESS":"中山西路三段７０１巷１７號","OBJECTID":450133},"geometry":{"x":178025.83999999985,"y":2575010.7100000009}},{"attributes":{"ID":450159,"DIS_CODE":0,"TOWNNAME":"柳營區","LI":"八翁里","LIN":"18鄰","STREET":"中山西路","SECT":"三段","MAREA":" ","LANE":"７０１巷","ALLEY":" ","HOUSE_NO":"１８號","E_COORD97":178006.73999999999,"N_COORD97":2575011.5299999998,"ADDRESS":"中山西路三段７０１巷１８號","OBJECTID":450134},"geometry":{"x":178006.74000000209,"y":2575011.5300000031}},{"attributes":{"ID":450160,"DIS_CODE":0,"TOWNNAME":"柳營區","LI":"八翁里","LIN":"18鄰","STREET":"中山西路","SECT":"三段","MAREA":" ","LANE":"７０１巷","ALLEY":" ","HOUSE_NO":"１９號","E_COORD97":178026.45000000001,"N_COORD97":2575003.8199999998,"ADDRESS":"中山西路三段７０１巷１９號","OBJECTID":450135},"geometry":{"x":178026.45000000019,"y":2575003.820000004}},{"attributes":{"ID":450161,"DIS_CODE":0,"TOWNNAME":"柳營區","LI":"八翁里","LIN":"18鄰","STREET":"中山西路","SECT":"三段","MAREA":" ","LANE":"７０１巷","ALLEY":" ","HOUSE_NO":"１號","E_COORD97":178020.97,"N_COORD97":2575065.8500000001,"ADDRESS":"中山西路三段７０１巷１號","OBJECTID":450136},"geometry":{"x":178020.96999999974,"y":2575065.8499999996}},{"attributes":{"ID":450162,"DIS_CODE":0,"TOWNNAME":"柳營區","LI":"八翁里","LIN":"18鄰","STREET":"中山西路","SECT":"三段","MAREA":" ","LANE":"７０１巷","ALLEY":" ","HOUSE_NO":"２０號","E_COORD97":178007.51999999999,"N_COORD97":2575003.9100000001,"ADDRESS":"中山西路三段７０１巷２０號","OBJECTID":450137},"geometry":{"x":178007.52000000142,"y":2575003.910000002}},{"attributes":{"ID":450163,"DIS_CODE":0,"TOWNNAME":"柳營區","LI":"八翁里","LIN":"18鄰","STREET":"中山西路","SECT":"三段","MAREA":" ","LANE":"７０１巷","ALLEY":" ","HOUSE_NO":"２１號","E_COORD97":178027.06,"N_COORD97":2574996.9300000002,"ADDRESS":"中山西路三段７０１巷２１號","OBJECTID":450138},"geometry":{"x":178027.05999999959,"y":2574996.9300000016}},{"attributes":{"ID":450164,"DIS_CODE":0,"TOWNNAME":"柳營區","LI":"八翁里","LIN":"18鄰","STREET":"中山西路","SECT":"三段","MAREA":" ","LANE":"７０１巷","ALLEY":" ","HOUSE_NO":"２２號","E_COORD97":178008.29000000001,"N_COORD97":2574996.2999999998,"ADDRESS":"中山西路三段７０１巷２２號","OBJECTID":450139},"geometry":{"x":178008.29000000097,"y":2574996.3000000007}},{"attributes":{"ID":450165,"DIS_CODE":0,"TOWNNAME":"柳營區","LI":"八翁里","LIN":"18鄰","STREET":"中山西路","SECT":"三段","MAREA":" ","LANE":"７０１巷","ALLEY":" ","HOUSE_NO":"２３號","E_COORD97":178027.67000000001,"N_COORD97":2574990.04,"ADDRESS":"中山西路三段７０１巷２３號","OBJECTID":450140},"geometry":{"x":178027.67000000086,"y":2574990.0399999991}},{"attributes":{"ID":450166,"DIS_CODE":0,"TOWNNAME":"柳營區","LI":"八翁里","LIN":"18鄰","STREET":"中山西路","SECT":"三段","MAREA":" ","LANE":"７０１巷","ALLEY":" ","HOUSE_NO":"２５號","E_COORD97":178028.28,"N_COORD97":2574983.1499999999,"ADDRESS":"中山西路三段７０１巷２５號","OBJECTID":450141},"geometry":{"x":178028.28000000026,"y":2574983.1500000004}},{"attributes":{"ID":450167,"DIS_CODE":0,"TOWNNAME":"佳里區","LI":"鎮山里","LIN":"20鄰","STREET":"鎮山街","SECT":" ","MAREA":" ","LANE":"１６０巷","ALLEY":" ","HOUSE_NO":"４３號","E_COORD97":166162.04000000001,"N_COORD97":2560945.2000000002,"ADDRESS":"鎮山街１６０巷４３號","OBJECTID":450142},"geometry":{"x":166162.04000000097,"y":2560945.1999999993}},{"attributes":{"ID":450168,"DIS_CODE":0,"TOWNNAME":"柳營區","LI":"八翁里","LIN":"18鄰","STREET":"中山西路","SECT":"三段","MAREA":" ","LANE":"７０１巷","ALLEY":" ","HOUSE_NO":"３１號","E_COORD97":178030.10999999999,"N_COORD97":2574962.4700000002,"ADDRESS":"中山西路三段７０１巷３１號","OBJECTID":450143},"geometry":{"x":178030.11000000127,"y":2574962.4700000044}},{"attributes":{"ID":450169,"DIS_CODE":0,"TOWNNAME":"柳營區","LI":"八翁里","LIN":"18鄰","STREET":"中山西路","SECT":"三段","MAREA":" ","LANE":"７０１巷","ALLEY":" ","HOUSE_NO":"３３號","E_COORD97":178030.72,"N_COORD97":2574955.5800000001,"ADDRESS":"中山西路三段７０１巷３３號","OBJECTID":450144},"geometry":{"x":178030.72000000067,"y":2574955.5800000019}},{"attributes":{"ID":450170,"DIS_CODE":0,"TOWNNAME":"柳營區","LI":"八翁里","LIN":"18鄰","STREET":"中山西路","SECT":"三段","MAREA":" ","LANE":"７０１巷","ALLEY":" ","HOUSE_NO":"３號","E_COORD97":178021.57999999999,"N_COORD97":2575058.96,"ADDRESS":"中山西路三段７０１巷３號","OBJECTID":450145},"geometry":{"x":178021.58000000101,"y":2575058.9600000028}},{"attributes":{"ID":450171,"DIS_CODE":0,"TOWNNAME":"柳營區","LI":"八翁里","LIN":"18鄰","STREET":"中山西路","SECT":"三段","MAREA":" ","LANE":"７０１巷","ALLEY":" ","HOUSE_NO":"５號","E_COORD97":178022.17999999999,"N_COORD97":2575052.0699999998,"ADDRESS":"中山西路三段７０１巷５號","OBJECTID":450146},"geometry":{"x":178022.18000000063,"y":2575052.0700000003}},{"attributes":{"ID":450172,"DIS_CODE":0,"TOWNNAME":"柳營區","LI":"八翁里","LIN":"18鄰","STREET":"中山西路","SECT":"三段","MAREA":" ","LANE":"７０１巷","ALLEY":" ","HOUSE_NO":"６號","E_COORD97":178004.59,"N_COORD97":2575048.9199999999,"ADDRESS":"中山西路三段７０１巷６號","OBJECTID":450147},"geometry":{"x":178004.59000000078,"y":2575048.9199999999}},{"attributes":{"ID":450173,"DIS_CODE":0,"TOWNNAME":"柳營區","LI":"八翁里","LIN":"18鄰","STREET":"中山西路","SECT":"三段","MAREA":" ","LANE":"７０１巷","ALLEY":" ","HOUSE_NO":"７號","E_COORD97":178022.79000000001,"N_COORD97":2575045.1800000002,"ADDRESS":"中山西路三段７０１巷７號","OBJECTID":450148},"geometry":{"x":178022.79000000004,"y":2575045.1800000016}},{"attributes":{"ID":450174,"DIS_CODE":0,"TOWNNAME":"柳營區","LI":"八翁里","LIN":"18鄰","STREET":"中山西路","SECT":"三段","MAREA":" ","LANE":"７０１巷","ALLEY":" ","HOUSE_NO":"８號","E_COORD97":178005.23000000001,"N_COORD97":2575040.8999999999,"ADDRESS":"中山西路三段７０１巷８號","OBJECTID":450149},"geometry":{"x":178005.22999999952,"y":2575040.9000000022}},{"attributes":{"ID":450175,"DIS_CODE":0,"TOWNNAME":"柳營區","LI":"八翁里","LIN":"18鄰","STREET":"中山西路","SECT":"三段","MAREA":" ","LANE":"７０１巷","ALLEY":" ","HOUSE_NO":"９號","E_COORD97":178023.39999999999,"N_COORD97":2575038.2799999998,"ADDRESS":"中山西路三段７０１巷９號","OBJECTID":450150},"geometry":{"x":178023.4000000013,"y":2575038.2800000012}},{"attributes":{"ID":450176,"DIS_CODE":0,"TOWNNAME":"歸仁區","LI":"六甲里","LIN":"18鄰","STREET":"六甲三街","SECT":" ","MAREA":" ","LANE":"７巷","ALLEY":" ","HOUSE_NO":"２３號","E_COORD97":175572.69235500001,"N_COORD97":2539139.5315399999,"ADDRESS":"六甲三街７巷２３號","OBJECTID":450151},"geometry":{"x":175572.69235500041,"y":2539139.5315410029}},{"attributes":{"ID":450177,"DIS_CODE":0,"TOWNNAME":"歸仁區","LI":"六甲里","LIN":"18鄰","STREET":"六甲三街","SECT":" ","MAREA":" ","LANE":"７巷","ALLEY":" ","HOUSE_NO":"１７號","E_COORD97":175603.87,"N_COORD97":2539150.25,"ADDRESS":"六甲三街７巷１７號","OBJECTID":450152},"geometry":{"x":175603.87000000104,"y":2539150.25}},{"attributes":{"ID":450178,"DIS_CODE":0,"TOWNNAME":"東區","LI":"龍山里","LIN":"18鄰","STREET":"東門路","SECT":"一段","MAREA":" ","LANE":"２１２巷","ALLEY":" ","HOUSE_NO":"１號","E_COORD97":169678.54000000001,"N_COORD97":2543069.52,"ADDRESS":"東門路一段２１２巷１號","OBJECTID":450153},"geometry":{"x":169678.54000000097,"y":2543069.5199999996}},{"attributes":{"ID":450179,"DIS_CODE":0,"TOWNNAME":"玉井區","LI":"玉井里","LIN":"18鄰","STREET":"中正路","SECT":" ","MAREA":" ","LANE":"１００巷","ALLEY":" ","HOUSE_NO":"１６號","E_COORD97":194878.01000000001,"N_COORD97":2558114.25,"ADDRESS":"中正路１００巷１６號","OBJECTID":450154},"geometry":{"x":194878.00999999978,"y":2558114.2500000019}},{"attributes":{"ID":450180,"DIS_CODE":0,"TOWNNAME":"歸仁區","LI":"媽廟里","LIN":"18鄰","STREET":"媽廟二街","SECT":" ","MAREA":" ","LANE":"１５巷","ALLEY":" ","HOUSE_NO":"３９號","E_COORD97":177674.57999999999,"N_COORD97":2543855.7200000002,"ADDRESS":"媽廟二街１５巷３９號","OBJECTID":450155},"geometry":{"x":177674.58000000007,"y":2543855.7200000007}},{"attributes":{"ID":450181,"DIS_CODE":0,"TOWNNAME":"歸仁區","LI":"歸南里","LIN":"18鄰","STREET":"民生八街","SECT":" ","MAREA":" ","LANE":"２８巷","ALLEY":" ","HOUSE_NO":"８號","E_COORD97":176124.01000000001,"N_COORD97":2540391.25,"ADDRESS":"民生八街２８巷８號","OBJECTID":450156},"geometry":{"x":176124.00999999978,"y":2540391.2499999981}},{"attributes":{"ID":450182,"DIS_CODE":0,"TOWNNAME":"北區","LI":"中樓里","LIN":"18鄰","STREET":"東豐路","SECT":" ","MAREA":" ","LANE":"１４３巷","ALLEY":" ","HOUSE_NO":"１０號","E_COORD97":169856.82999999999,"N_COORD97":2544932.6099999999,"ADDRESS":"東豐路１４３巷１０號","OBJECTID":450157},"geometry":{"x":169856.83000000007,"y":2544932.6100000013}},{"attributes":{"ID":450183,"DIS_CODE":0,"TOWNNAME":"北區","LI":"中樓里","LIN":"18鄰","STREET":"東豐路","SECT":" ","MAREA":" ","LANE":"１４３巷","ALLEY":" ","HOUSE_NO":"１２號","E_COORD97":169852.72,"N_COORD97":2544932.3999999999,"ADDRESS":"東豐路１４３巷１２號","OBJECTID":450158},"geometry":{"x":169852.72000000067,"y":2544932.4000000004}},{"attributes":{"ID":450184,"DIS_CODE":0,"TOWNNAME":"北區","LI":"中樓里","LIN":"18鄰","STREET":"東豐路","SECT":" ","MAREA":" ","LANE":"１４３巷","ALLEY":" ","HOUSE_NO":"１４號","E_COORD97":169848.92000000001,"N_COORD97":2544929.6600000001,"ADDRESS":"東豐路１４３巷１４號","OBJECTID":450159},"geometry":{"x":169848.91999999993,"y":2544929.660000002}},{"attributes":{"ID":450185,"DIS_CODE":0,"TOWNNAME":"北區","LI":"中樓里","LIN":"18鄰","STREET":"東豐路","SECT":" ","MAREA":" ","LANE":"１４３巷","ALLEY":" ","HOUSE_NO":"１６號","E_COORD97":169843.85999999999,"N_COORD97":2544928.1800000002,"ADDRESS":"東豐路１４３巷１６號","OBJECTID":450160},"geometry":{"x":169843.86000000127,"y":2544928.1800000034}},{"attributes":{"ID":450186,"DIS_CODE":0,"TOWNNAME":"北區","LI":"中樓里","LIN":"18鄰","STREET":"東豐路","SECT":" ","MAREA":" ","LANE":"１４３巷","ALLEY":" ","HOUSE_NO":"１８號","E_COORD97":169840.91,"N_COORD97":2544941.4700000002,"ADDRESS":"東豐路１４３巷１８號","OBJECTID":450161},"geometry":{"x":169840.91000000015,"y":2544941.4700000025}},{"attributes":{"ID":450187,"DIS_CODE":0,"TOWNNAME":"北區","LI":"中樓里","LIN":"18鄰","STREET":"東豐路","SECT":" ","MAREA":" ","LANE":"１４３巷","ALLEY":" ","HOUSE_NO":"２２號","E_COORD97":169836.89999999999,"N_COORD97":2544954.8500000001,"ADDRESS":"東豐路１４３巷２２號","OBJECTID":450162},"geometry":{"x":169836.9000000013,"y":2544954.8500000015}},{"attributes":{"ID":450188,"DIS_CODE":0,"TOWNNAME":"北區","LI":"中樓里","LIN":"18鄰","STREET":"東豐路","SECT":" ","MAREA":" ","LANE":"１４３巷","ALLEY":" ","HOUSE_NO":"２４號","E_COORD97":169847.97,"N_COORD97":2544960.4300000002,"ADDRESS":"東豐路１４３巷２４號","OBJECTID":450163},"geometry":{"x":169847.97000000067,"y":2544960.4300000016}},{"attributes":{"ID":450189,"DIS_CODE":0,"TOWNNAME":"北區","LI":"中樓里","LIN":"18鄰","STREET":"東豐路","SECT":" ","MAREA":" ","LANE":"１４３巷","ALLEY":" ","HOUSE_NO":"２６號","E_COORD97":169859.89000000001,"N_COORD97":2544962.1099999999,"ADDRESS":"東豐路１４３巷２６號","OBJECTID":450164},"geometry":{"x":169859.8900000006,"y":2544962.1100000031}},{"attributes":{"ID":450190,"DIS_CODE":0,"TOWNNAME":"北區","LI":"中樓里","LIN":"18鄰","STREET":"東豐路","SECT":" ","MAREA":" ","LANE":"１４３巷","ALLEY":" ","HOUSE_NO":"２８號","E_COORD97":169862.31,"N_COORD97":2544958.8500000001,"ADDRESS":"東豐路１４３巷２８號","OBJECTID":450165},"geometry":{"x":169862.31000000052,"y":2544958.8500000015}},{"attributes":{"ID":450191,"DIS_CODE":0,"TOWNNAME":"北區","LI":"中樓里","LIN":"18鄰","STREET":"東豐路","SECT":" ","MAREA":" ","LANE":"１４３巷","ALLEY":" ","HOUSE_NO":"２號","E_COORD97":169850.25,"N_COORD97":2544925.3300000001,"ADDRESS":"東豐路１４３巷２號","OBJECTID":450166},"geometry":{"x":169850.25,"y":2544925.3300000019}},{"attributes":{"ID":450192,"DIS_CODE":0,"TOWNNAME":"北區","LI":"中樓里","LIN":"18鄰","STREET":"東豐路","SECT":" ","MAREA":" ","LANE":"１４３巷","ALLEY":" ","HOUSE_NO":"３０號","E_COORD97":169863.89000000001,"N_COORD97":2544955.0600000001,"ADDRESS":"東豐路１４３巷３０號","OBJECTID":450167},"geometry":{"x":169863.8900000006,"y":2544955.0600000005}},{"attributes":{"ID":450193,"DIS_CODE":0,"TOWNNAME":"北區","LI":"中樓里","LIN":"18鄰","STREET":"東豐路","SECT":" ","MAREA":" ","LANE":"１４３巷","ALLEY":" ","HOUSE_NO":"３２號","E_COORD97":169864.53,"N_COORD97":2544950.3199999998,"ADDRESS":"東豐路１４３巷３２號","OBJECTID":450168},"geometry":{"x":169864.53000000212,"y":2544950.3200000003}},{"attributes":{"ID":450194,"DIS_CODE":0,"TOWNNAME":"北區","LI":"中樓里","LIN":"18鄰","STREET":"東豐路","SECT":" ","MAREA":" ","LANE":"１４３巷","ALLEY":" ","HOUSE_NO":"３４號","E_COORD97":169869.45999999999,"N_COORD97":2544953.3100000001,"ADDRESS":"東豐路１４３巷３４號","OBJECTID":450169},"geometry":{"x":169869.45999999996,"y":2544953.3100000024}},{"attributes":{"ID":450195,"DIS_CODE":0,"TOWNNAME":"北區","LI":"中樓里","LIN":"18鄰","STREET":"東豐路","SECT":" ","MAREA":" ","LANE":"１４３巷","ALLEY":" ","HOUSE_NO":"３６號","E_COORD97":169868.62,"N_COORD97":2544957.1000000001,"ADDRESS":"東豐路１４３巷３６號","OBJECTID":450170},"geometry":{"x":169868.62000000011,"y":2544957.1000000015}},{"attributes":{"ID":450196,"DIS_CODE":0,"TOWNNAME":"北區","LI":"中樓里","LIN":"18鄰","STREET":"東豐路","SECT":" ","MAREA":" ","LANE":"１４３巷","ALLEY":" ","HOUSE_NO":"３８號","E_COORD97":169866.82000000001,"N_COORD97":2544960.79,"ADDRESS":"東豐路１４３巷３８號","OBJECTID":450171},"geometry":{"x":169866.8200000003,"y":2544960.790000001}},{"attributes":{"ID":450197,"DIS_CODE":0,"TOWNNAME":"北區","LI":"中樓里","LIN":"18鄰","STREET":"東豐路","SECT":" ","MAREA":" ","LANE":"１４３巷","ALLEY":" ","HOUSE_NO":"４０號","E_COORD97":169866.39999999999,"N_COORD97":2544964.3700000001,"ADDRESS":"東豐路１４３巷４０號","OBJECTID":450172},"geometry":{"x":169866.40000000037,"y":2544964.370000001}},{"attributes":{"ID":450198,"DIS_CODE":0,"TOWNNAME":"北區","LI":"中樓里","LIN":"18鄰","STREET":"東豐路","SECT":" ","MAREA":" ","LANE":"１４３巷","ALLEY":" ","HOUSE_NO":"４２號","E_COORD97":169874.85999999999,"N_COORD97":2544974.9900000002,"ADDRESS":"東豐路１４３巷４２號","OBJECTID":450173},"geometry":{"x":169874.86000000127,"y":2544974.9900000021}},{"attributes":{"ID":450199,"DIS_CODE":0,"TOWNNAME":"北區","LI":"中樓里","LIN":"18鄰","STREET":"東豐路","SECT":" ","MAREA":" ","LANE":"１４３巷","ALLEY":" ","HOUSE_NO":"４６號","E_COORD97":169863.16,"N_COORD97":2544974.8100000001,"ADDRESS":"東豐路１４３巷４６號","OBJECTID":450174},"geometry":{"x":169863.16000000015,"y":2544974.8100000005}},{"attributes":{"ID":450200,"DIS_CODE":0,"TOWNNAME":"北區","LI":"中樓里","LIN":"18鄰","STREET":"東豐路","SECT":" ","MAREA":" ","LANE":"１４３巷","ALLEY":" ","HOUSE_NO":"４８號","E_COORD97":169860.42000000001,"N_COORD97":2544986.29,"ADDRESS":"東豐路１４３巷４８號","OBJECTID":450175},"geometry":{"x":169860.42000000086,"y":2544986.2899999991}},{"attributes":{"ID":450201,"DIS_CODE":0,"TOWNNAME":"北區","LI":"中樓里","LIN":"18鄰","STREET":"東豐路","SECT":" ","MAREA":" ","LANE":"１４３巷","ALLEY":" ","HOUSE_NO":"５２號","E_COORD97":169873.92000000001,"N_COORD97":2544994.4700000002,"ADDRESS":"東豐路１４３巷５２號","OBJECTID":450176},"geometry":{"x":169873.92000000086,"y":2544994.4700000007}},{"attributes":{"ID":450202,"DIS_CODE":0,"TOWNNAME":"北區","LI":"中樓里","LIN":"18鄰","STREET":"東豐路","SECT":" ","MAREA":" ","LANE":"１４３巷","ALLEY":" ","HOUSE_NO":"５４號","E_COORD97":169881.13,"N_COORD97":2544999.75,"ADDRESS":"東豐路１４３巷５４號","OBJECTID":450177},"geometry":{"x":169881.13000000082,"y":2544999.7500000019}},{"attributes":{"ID":450203,"DIS_CODE":0,"TOWNNAME":"北區","LI":"中樓里","LIN":"18鄰","STREET":"東豐路","SECT":" ","MAREA":" ","LANE":"１４３巷","ALLEY":" ","HOUSE_NO":"５６號","E_COORD97":169885.78,"N_COORD97":2545000.8700000001,"ADDRESS":"東豐路１４３巷５６號","OBJECTID":450178},"geometry":{"x":169885.78000000026,"y":2545000.8700000029}},{"attributes":{"ID":450204,"DIS_CODE":0,"TOWNNAME":"北區","LI":"中樓里","LIN":"18鄰","STREET":"東豐路","SECT":" ","MAREA":" ","LANE":"１４３巷","ALLEY":" ","HOUSE_NO":"５８號","E_COORD97":169890.91,"N_COORD97":2545001.75,"ADDRESS":"東豐路１４３巷５８號","OBJECTID":450179},"geometry":{"x":169890.91000000108,"y":2545001.75}},{"attributes":{"ID":450205,"DIS_CODE":0,"TOWNNAME":"北區","LI":"中樓里","LIN":"18鄰","STREET":"東豐路","SECT":" ","MAREA":" ","LANE":"１４３巷","ALLEY":" ","HOUSE_NO":"６號","E_COORD97":169872.94,"N_COORD97":2544936.7799999998,"ADDRESS":"東豐路１４３巷６號","OBJECTID":450180},"geometry":{"x":169872.94000000041,"y":2544936.7799999975}},{"attributes":{"ID":450206,"DIS_CODE":0,"TOWNNAME":"北區","LI":"中樓里","LIN":"18鄰","STREET":"東豐路","SECT":" ","MAREA":" ","LANE":"１４３巷","ALLEY":" ","HOUSE_NO":"８號","E_COORD97":169862.51999999999,"N_COORD97":2544934.3999999999,"ADDRESS":"東豐路１４３巷８號","OBJECTID":450181},"geometry":{"x":169862.52000000048,"y":2544934.4000000022}},{"attributes":{"ID":450207,"DIS_CODE":0,"TOWNNAME":"北區","LI":"正覺里","LIN":"18鄰","STREET":"公園路","SECT":" ","MAREA":" ","LANE":"６６３巷","ALLEY":" ","HOUSE_NO":"７號","E_COORD97":169365.95999999999,"N_COORD97":2546275.6899999999,"ADDRESS":"公園路６６３巷７號","OBJECTID":450182},"geometry":{"x":169365.95999999996,"y":2546275.6899999995}},{"attributes":{"ID":450208,"DIS_CODE":0,"TOWNNAME":"北區","LI":"正覺里","LIN":"18鄰","STREET":"公園路","SECT":" ","MAREA":" ","LANE":"６８１巷","ALLEY":" ","HOUSE_NO":"１０號","E_COORD97":169431.84,"N_COORD97":2546349.98,"ADDRESS":"公園路６８１巷１０號","OBJECTID":450183},"geometry":{"x":169431.84000000078,"y":2546349.9800000004}},{"attributes":{"ID":450209,"DIS_CODE":0,"TOWNNAME":"北區","LI":"正覺里","LIN":"18鄰","STREET":"公園路","SECT":" ","MAREA":" ","LANE":"６８１巷","ALLEY":" ","HOUSE_NO":"１１號","E_COORD97":169366.88,"N_COORD97":2546372.6099999999,"ADDRESS":"公園路６８１巷１１號","OBJECTID":450184},"geometry":{"x":169366.88000000082,"y":2546372.6100000031}},{"attributes":{"ID":450210,"DIS_CODE":0,"TOWNNAME":"北區","LI":"正覺里","LIN":"18鄰","STREET":"公園路","SECT":" ","MAREA":" ","LANE":"６８１巷","ALLEY":" ","HOUSE_NO":"１２號","E_COORD97":169427.01000000001,"N_COORD97":2546351.8100000001,"ADDRESS":"公園路６８１巷１２號","OBJECTID":450185},"geometry":{"x":169427.01000000071,"y":2546351.8100000042}},{"attributes":{"ID":450211,"DIS_CODE":0,"TOWNNAME":"北區","LI":"正覺里","LIN":"18鄰","STREET":"公園路","SECT":" ","MAREA":" ","LANE":"６８１巷","ALLEY":" ","HOUSE_NO":"２２號","E_COORD97":169407.51000000001,"N_COORD97":2546363.1499999999,"ADDRESS":"公園路６８１巷２２號","OBJECTID":450186},"geometry":{"x":169407.50999999978,"y":2546363.1500000041}},{"attributes":{"ID":450212,"DIS_CODE":0,"TOWNNAME":"北區","LI":"正覺里","LIN":"18鄰","STREET":"公園路","SECT":" ","MAREA":" ","LANE":"６８１巷","ALLEY":" ","HOUSE_NO":"２４號","E_COORD97":169405.85000000001,"N_COORD97":2546364.8999999999,"ADDRESS":"公園路６８１巷２４號","OBJECTID":450187},"geometry":{"x":169405.85000000056,"y":2546364.9000000041}},{"attributes":{"ID":450213,"DIS_CODE":0,"TOWNNAME":"北區","LI":"正覺里","LIN":"18鄰","STREET":"公園路","SECT":" ","MAREA":" ","LANE":"６８１巷","ALLEY":" ","HOUSE_NO":"２６號","E_COORD97":169403.17999999999,"N_COORD97":2546367.3900000001,"ADDRESS":"公園路６８１巷２６號","OBJECTID":450188},"geometry":{"x":169403.1799999997,"y":2546367.3900000006}},{"attributes":{"ID":450214,"DIS_CODE":0,"TOWNNAME":"北區","LI":"正覺里","LIN":"18鄰","STREET":"公園路","SECT":" ","MAREA":" ","LANE":"６８１巷","ALLEY":" ","HOUSE_NO":"２號","E_COORD97":169447.42000000001,"N_COORD97":2546336.8399999999,"ADDRESS":"公園路６８１巷２號","OBJECTID":450189},"geometry":{"x":169447.41999999993,"y":2546336.8399999999}},{"attributes":{"ID":450215,"DIS_CODE":0,"TOWNNAME":"北區","LI":"正覺里","LIN":"18鄰","STREET":"公園路","SECT":" ","MAREA":" ","LANE":"６８１巷","ALLEY":" ","HOUSE_NO":"３２號","E_COORD97":169384.54000000001,"N_COORD97":2546380.1600000001,"ADDRESS":"公園路６８１巷３２號","OBJECTID":450190},"geometry":{"x":169384.5400000019,"y":2546380.160000002}},{"attributes":{"ID":450216,"DIS_CODE":0,"TOWNNAME":"北區","LI":"正覺里","LIN":"18鄰","STREET":"公園路","SECT":" ","MAREA":" ","LANE":"６８１巷","ALLEY":" ","HOUSE_NO":"３４號","E_COORD97":169380.95999999999,"N_COORD97":2546383.3199999998,"ADDRESS":"公園路６８１巷３４號","OBJECTID":450191},"geometry":{"x":169380.95999999996,"y":2546383.3200000022}},{"attributes":{"ID":450217,"DIS_CODE":0,"TOWNNAME":"北區","LI":"正覺里","LIN":"18鄰","STREET":"公園路","SECT":" ","MAREA":" ","LANE":"６８１巷","ALLEY":" ","HOUSE_NO":"３６號","E_COORD97":169375.39000000001,"N_COORD97":2546386.48,"ADDRESS":"公園路６８１巷３６號","OBJECTID":450192},"geometry":{"x":169375.3900000006,"y":2546386.4800000004}},{"attributes":{"ID":450218,"DIS_CODE":0,"TOWNNAME":"北區","LI":"正覺里","LIN":"18鄰","STREET":"公園路","SECT":" ","MAREA":" ","LANE":"６８１巷","ALLEY":" ","HOUSE_NO":"３８號","E_COORD97":169369.48000000001,"N_COORD97":2546402.52,"ADDRESS":"公園路６８１巷３８號","OBJECTID":450193},"geometry":{"x":169369.48000000045,"y":2546402.5199999996}},{"attributes":{"ID":450219,"DIS_CODE":0,"TOWNNAME":"北區","LI":"正覺里","LIN":"18鄰","STREET":"公園路","SECT":" ","MAREA":" ","LANE":"６８１巷","ALLEY":" ","HOUSE_NO":"３號","E_COORD97":169426.35000000001,"N_COORD97":2546330.7999999998,"ADDRESS":"公園路６８１巷３號","OBJECTID":450194},"geometry":{"x":169426.35000000056,"y":2546330.8000000007}},{"attributes":{"ID":450220,"DIS_CODE":0,"TOWNNAME":"北區","LI":"正覺里","LIN":"18鄰","STREET":"公園路","SECT":" ","MAREA":" ","LANE":"６８１巷","ALLEY":" ","HOUSE_NO":"４０號","E_COORD97":169357.26000000001,"N_COORD97":2546395.2799999998,"ADDRESS":"公園路６８１巷４０號","OBJECTID":450195},"geometry":{"x":169357.26000000164,"y":2546395.2800000012}},{"attributes":{"ID":450221,"DIS_CODE":0,"TOWNNAME":"佳里區","LI":"龍安里","LIN":"8鄰","STREET":" ","SECT":" ","MAREA":"塭子內","LANE":" ","ALLEY":" ","HOUSE_NO":"７８號","E_COORD97":164524.860128,"N_COORD97":2558279.5441000001,"ADDRESS":"塭子內７８號","OBJECTID":450196},"geometry":{"x":164524.86012800131,"y":2558279.5440960042}},{"attributes":{"ID":450222,"DIS_CODE":0,"TOWNNAME":"北區","LI":"正覺里","LIN":"18鄰","STREET":"公園路","SECT":" ","MAREA":" ","LANE":"６８１巷","ALLEY":" ","HOUSE_NO":"４２號","E_COORD97":169352.92000000001,"N_COORD97":2546396.73,"ADDRESS":"公園路６８１巷４２號","OBJECTID":450197},"geometry":{"x":169352.92000000179,"y":2546396.7300000023}},{"attributes":{"ID":450223,"DIS_CODE":0,"TOWNNAME":"北區","LI":"正覺里","LIN":"18鄰","STREET":"公園路","SECT":" ","MAREA":" ","LANE":"６８１巷","ALLEY":" ","HOUSE_NO":"４號","E_COORD97":169442.92999999999,"N_COORD97":2546338.5099999998,"ADDRESS":"公園路６８１巷４號","OBJECTID":450198},"geometry":{"x":169442.93000000063,"y":2546338.5099999998}},{"attributes":{"ID":450224,"DIS_CODE":0,"TOWNNAME":"北區","LI":"正覺里","LIN":"18鄰","STREET":"公園路","SECT":" ","MAREA":" ","LANE":"６８１巷","ALLEY":" ","HOUSE_NO":"５號","E_COORD97":169417.29999999999,"N_COORD97":2546341.1299999999,"ADDRESS":"公園路６８１巷５號","OBJECTID":450199},"geometry":{"x":169417.29999999981,"y":2546341.1299999971}},{"attributes":{"ID":450225,"DIS_CODE":0,"TOWNNAME":"北區","LI":"正覺里","LIN":"18鄰","STREET":"公園路","SECT":" ","MAREA":" ","LANE":"６８１巷","ALLEY":" ","HOUSE_NO":"５號之１","E_COORD97":169408.59,"N_COORD97":2546337.6299999999,"ADDRESS":"公園路６８１巷５號之１","OBJECTID":450200},"geometry":{"x":169408.58999999985,"y":2546337.6299999971}}]}