{"displayFieldName":"TOWNNAME","fieldAliases":{"ID":"ID","DIS_CODE":"DIS_CODE","TOWNNAME":"TOWNNAME","LI":"LI","LIN":"LIN","STREET":"STREET","SECT":"SECT","MAREA":"MAREA","LANE":"LANE","ALLEY":"ALLEY","HOUSE_NO":"HOUSE_NO","E_COORD97":"E_COORD97","N_COORD97":"N_COORD97","ADDRESS":"ADDRESS","OBJECTID":"OBJECTID"},"geometryType":"esriGeometryPoint","spatialReference":{"wkid":102443,"latestWkid":3826},"fields":[{"name":"ID","type":"esriFieldTypeDouble","alias":"ID"},{"name":"DIS_CODE","type":"esriFieldTypeInteger","alias":"DIS_CODE"},{"name":"TOWNNAME","type":"esriFieldTypeString","alias":"TOWNNAME","length":8},{"name":"LI","type":"esriFieldTypeString","alias":"LI","length":8},{"name":"LIN","type":"esriFieldTypeString","alias":"LIN","length":12},{"name":"STREET","type":"esriFieldTypeString","alias":"STREET","length":20},{"name":"SECT","type":"esriFieldTypeString","alias":"SECT","length":8},{"name":"MAREA","type":"esriFieldTypeString","alias":"MAREA","length":12},{"name":"LANE","type":"esriFieldTypeString","alias":"LANE","length":10},{"name":"ALLEY","type":"esriFieldTypeString","alias":"ALLEY","length":10},{"name":"HOUSE_NO","type":"esriFieldTypeString","alias":"HOUSE_NO","length":20},{"name":"E_COORD97","type":"esriFieldTypeDouble","alias":"E_COORD97"},{"name":"N_COORD97","type":"esriFieldTypeDouble","alias":"N_COORD97"},{"name":"ADDRESS","type":"esriFieldTypeString","alias":"ADDRESS","length":50},{"name":"OBJECTID","type":"esriFieldTypeOID","alias":"OBJECTID"}],"features":[{"attributes":{"ID":20001,"DIS_CODE":0,"TOWNNAME":"永康區","LI":"神洲里","LIN":"14鄰","STREET":"忠孝路","SECT":" ","MAREA":" ","LANE":"７６巷","ALLEY":"６３弄","HOUSE_NO":"２３號二樓","E_COORD97":172240.39999999999,"N_COORD97":2545020.75,"ADDRESS":"忠孝路７６巷６３弄２３號二樓","OBJECTID":20001},"geometry":{"x":172240.40000000224,"y":2545020.7500000019}},{"attributes":{"ID":20002,"DIS_CODE":0,"TOWNNAME":"永康區","LI":"神洲里","LIN":"14鄰","STREET":"忠孝路","SECT":" ","MAREA":" ","LANE":"７６巷","ALLEY":"６３弄","HOUSE_NO":"２１號二樓","E_COORD97":172239.70999999999,"N_COORD97":2545012.5,"ADDRESS":"忠孝路７６巷６３弄２１號二樓","OBJECTID":20002},"geometry":{"x":172239.71000000183,"y":2545012.5000000019}},{"attributes":{"ID":20003,"DIS_CODE":0,"TOWNNAME":"永康區","LI":"神洲里","LIN":"14鄰","STREET":"忠孝路","SECT":" ","MAREA":" ","LANE":"７６巷","ALLEY":"６３弄","HOUSE_NO":"１９號四樓","E_COORD97":172239.35000000001,"N_COORD97":2545006.25,"ADDRESS":"忠孝路７６巷６３弄１９號四樓","OBJECTID":20003},"geometry":{"x":172239.34999999963,"y":2545006.2500000019}},{"attributes":{"ID":20004,"DIS_CODE":0,"TOWNNAME":"永康區","LI":"神洲里","LIN":"14鄰","STREET":"忠孝路","SECT":" ","MAREA":" ","LANE":"７６巷","ALLEY":"６３弄","HOUSE_NO":"１９號二樓","E_COORD97":172239.35000000001,"N_COORD97":2545006.25,"ADDRESS":"忠孝路７６巷６３弄１９號二樓","OBJECTID":20004},"geometry":{"x":172239.34999999963,"y":2545006.2500000019}},{"attributes":{"ID":20005,"DIS_CODE":0,"TOWNNAME":"北區","LI":"延平里","LIN":"15鄰","STREET":"公園路","SECT":" ","MAREA":" ","LANE":" ","ALLEY":" ","HOUSE_NO":"８３０號","E_COORD97":169213.70999999999,"N_COORD97":2545943.6699999999,"ADDRESS":"公園路８３０號","OBJECTID":20005},"geometry":{"x":169213.71000000183,"y":2545943.6699999999}},{"attributes":{"ID":20006,"DIS_CODE":0,"TOWNNAME":"白河區","LI":"仙草里","LIN":"17鄰","STREET":" ","SECT":" ","MAREA":"仙草","LANE":" ","ALLEY":" ","HOUSE_NO":"６０之２號","E_COORD97":196388.57999999999,"N_COORD97":2582477.8599999999,"ADDRESS":"仙草６０之２號","OBJECTID":20006},"geometry":{"x":196388.58000000194,"y":2582477.8599999994}},{"attributes":{"ID":20007,"DIS_CODE":0,"TOWNNAME":"白河區","LI":"仙草里","LIN":"17鄰","STREET":" ","SECT":" ","MAREA":"仙草","LANE":" ","ALLEY":" ","HOUSE_NO":"６０之３號","E_COORD97":196394.79000000001,"N_COORD97":2582473.9300000002,"ADDRESS":"仙草６０之３號","OBJECTID":20007},"geometry":{"x":196394.79000000004,"y":2582473.9299999997}},{"attributes":{"ID":20008,"DIS_CODE":0,"TOWNNAME":"白河區","LI":"仙草里","LIN":"17鄰","STREET":" ","SECT":" ","MAREA":"仙草","LANE":" ","ALLEY":" ","HOUSE_NO":"６０之５號","E_COORD97":196372.64999999999,"N_COORD97":2582457.9199999999,"ADDRESS":"仙草６０之５號","OBJECTID":20008},"geometry":{"x":196372.65000000037,"y":2582457.9200000037}},{"attributes":{"ID":20009,"DIS_CODE":0,"TOWNNAME":"永康區","LI":"神洲里","LIN":"14鄰","STREET":"忠孝路","SECT":" ","MAREA":" ","LANE":"７６巷","ALLEY":"６３弄","HOUSE_NO":"２３號五樓","E_COORD97":172240.39999999999,"N_COORD97":2545020.75,"ADDRESS":"忠孝路７６巷６３弄２３號五樓","OBJECTID":20009},"geometry":{"x":172240.40000000224,"y":2545020.7500000019}},{"attributes":{"ID":20010,"DIS_CODE":0,"TOWNNAME":"永康區","LI":"神洲里","LIN":"14鄰","STREET":"忠孝路","SECT":" ","MAREA":" ","LANE":"７６巷","ALLEY":"６３弄","HOUSE_NO":"２１號三樓","E_COORD97":172239.70999999999,"N_COORD97":2545012.5,"ADDRESS":"忠孝路７６巷６３弄２１號三樓","OBJECTID":20010},"geometry":{"x":172239.71000000183,"y":2545012.5000000019}},{"attributes":{"ID":20011,"DIS_CODE":0,"TOWNNAME":"永康區","LI":"神洲里","LIN":"14鄰","STREET":"忠孝路","SECT":" ","MAREA":" ","LANE":"７６巷","ALLEY":"６３弄","HOUSE_NO":"１９號三樓","E_COORD97":172239.35000000001,"N_COORD97":2545006.25,"ADDRESS":"忠孝路７６巷６３弄１９號三樓","OBJECTID":20011},"geometry":{"x":172239.34999999963,"y":2545006.2500000019}},{"attributes":{"ID":20012,"DIS_CODE":0,"TOWNNAME":"六甲區","LI":"甲東里","LIN":"24鄰","STREET":"忠孝街","SECT":" ","MAREA":" ","LANE":" ","ALLEY":" ","HOUSE_NO":"７６號","E_COORD97":183887.79999999999,"N_COORD97":2569578.52,"ADDRESS":"忠孝街７６號","OBJECTID":20012},"geometry":{"x":183887.79999999981,"y":2569578.5200000014}},{"attributes":{"ID":20013,"DIS_CODE":0,"TOWNNAME":"六甲區","LI":"甲東里","LIN":"24鄰","STREET":"忠孝街","SECT":" ","MAREA":" ","LANE":" ","ALLEY":" ","HOUSE_NO":"７８號","E_COORD97":183890.84,"N_COORD97":2569583.9199999999,"ADDRESS":"忠孝街７８號","OBJECTID":20013},"geometry":{"x":183890.83999999985,"y":2569583.9199999999}},{"attributes":{"ID":20014,"DIS_CODE":0,"TOWNNAME":"六甲區","LI":"甲東里","LIN":"24鄰","STREET":"忠孝街","SECT":" ","MAREA":" ","LANE":" ","ALLEY":" ","HOUSE_NO":"８４號","E_COORD97":183896.97,"N_COORD97":2569600.9300000002,"ADDRESS":"忠孝街８４號","OBJECTID":20014},"geometry":{"x":183896.96999999974,"y":2569600.9299999997}},{"attributes":{"ID":20015,"DIS_CODE":0,"TOWNNAME":"永康區","LI":"神洲里","LIN":"14鄰","STREET":"忠孝路","SECT":" ","MAREA":" ","LANE":"７６巷","ALLEY":"６３弄","HOUSE_NO":"２３號三樓","E_COORD97":172240.39999999999,"N_COORD97":2545020.75,"ADDRESS":"忠孝路７６巷６３弄２３號三樓","OBJECTID":20015},"geometry":{"x":172240.40000000224,"y":2545020.7500000019}},{"attributes":{"ID":20016,"DIS_CODE":0,"TOWNNAME":"永康區","LI":"神洲里","LIN":"14鄰","STREET":"忠孝路","SECT":" ","MAREA":" ","LANE":"７６巷","ALLEY":"６３弄","HOUSE_NO":"２１號四樓","E_COORD97":172239.70999999999,"N_COORD97":2545012.5,"ADDRESS":"忠孝路７６巷６３弄２１號四樓","OBJECTID":20016},"geometry":{"x":172239.71000000183,"y":2545012.5000000019}},{"attributes":{"ID":20017,"DIS_CODE":0,"TOWNNAME":"永康區","LI":"崑山里","LIN":"14鄰","STREET":"大灣路","SECT":" ","MAREA":" ","LANE":"９４２巷","ALLEY":"７１弄","HOUSE_NO":"２１９號","E_COORD97":173443.88,"N_COORD97":2544614.9199999999,"ADDRESS":"大灣路９４２巷７１弄２１９號","OBJECTID":20017},"geometry":{"x":173443.88000000082,"y":2544614.9200000018}},{"attributes":{"ID":20018,"DIS_CODE":0,"TOWNNAME":"白河區","LI":"仙草里","LIN":"17鄰","STREET":" ","SECT":" ","MAREA":"仙草","LANE":" ","ALLEY":" ","HOUSE_NO":"６０之６號","E_COORD97":196394.79999999999,"N_COORD97":2582429.2799999998,"ADDRESS":"仙草６０之６號","OBJECTID":20018},"geometry":{"x":196394.79999999981,"y":2582429.2800000012}},{"attributes":{"ID":20019,"DIS_CODE":0,"TOWNNAME":"白河區","LI":"仙草里","LIN":"17鄰","STREET":" ","SECT":" ","MAREA":"仙草","LANE":" ","ALLEY":" ","HOUSE_NO":"６０號","E_COORD97":196361.20999999999,"N_COORD97":2582487.4199999999,"ADDRESS":"仙草６０號","OBJECTID":20019},"geometry":{"x":196361.21000000089,"y":2582487.4199999999}},{"attributes":{"ID":20020,"DIS_CODE":0,"TOWNNAME":"官田區","LI":"渡頭里","LIN":"17鄰","STREET":" ","SECT":" ","MAREA":"渡子頭","LANE":" ","ALLEY":" ","HOUSE_NO":"１２９號","E_COORD97":181212.26999999999,"N_COORD97":2563021.2799999998,"ADDRESS":"渡子頭１２９號","OBJECTID":20020},"geometry":{"x":181212.26999999955,"y":2563021.2800000031}},{"attributes":{"ID":20021,"DIS_CODE":0,"TOWNNAME":"下營區","LI":"甲中里","LIN":"17鄰","STREET":" ","SECT":" ","MAREA":"十六甲","LANE":" ","ALLEY":" ","HOUSE_NO":"７３號之２","E_COORD97":175618.92999999999,"N_COORD97":2572090.5,"ADDRESS":"十六甲７３號之２","OBJECTID":20021},"geometry":{"x":175618.9299999997,"y":2572090.5000000019}},{"attributes":{"ID":20022,"DIS_CODE":0,"TOWNNAME":"下營區","LI":"甲中里","LIN":"17鄰","STREET":" ","SECT":" ","MAREA":"十六甲","LANE":" ","ALLEY":" ","HOUSE_NO":"７３號之３","E_COORD97":175572.51999999999,"N_COORD97":2572064.7799999998,"ADDRESS":"十六甲７３號之３","OBJECTID":20022},"geometry":{"x":175572.51999999955,"y":2572064.7800000012}},{"attributes":{"ID":20023,"DIS_CODE":0,"TOWNNAME":"下營區","LI":"甲中里","LIN":"17鄰","STREET":" ","SECT":" ","MAREA":"十六甲","LANE":" ","ALLEY":" ","HOUSE_NO":"７３號之４","E_COORD97":175610.39999999999,"N_COORD97":2572057.9100000001,"ADDRESS":"十六甲７３號之４","OBJECTID":20023},"geometry":{"x":175610.39999999944,"y":2572057.910000002}},{"attributes":{"ID":20024,"DIS_CODE":0,"TOWNNAME":"下營區","LI":"甲中里","LIN":"17鄰","STREET":" ","SECT":" ","MAREA":"十六甲","LANE":" ","ALLEY":" ","HOUSE_NO":"７３號之５","E_COORD97":175525.19,"N_COORD97":2572027.5899999999,"ADDRESS":"十六甲７３號之５","OBJECTID":20024},"geometry":{"x":175525.19000000041,"y":2572027.5899999999}},{"attributes":{"ID":20025,"DIS_CODE":0,"TOWNNAME":"下營區","LI":"甲中里","LIN":"17鄰","STREET":" ","SECT":" ","MAREA":"十六甲","LANE":" ","ALLEY":" ","HOUSE_NO":"７３號之７","E_COORD97":175566.13,"N_COORD97":2572034.2200000002,"ADDRESS":"十六甲７３號之７","OBJECTID":20025},"geometry":{"x":175566.13000000175,"y":2572034.2200000007}},{"attributes":{"ID":20026,"DIS_CODE":0,"TOWNNAME":"下營區","LI":"甲中里","LIN":"17鄰","STREET":" ","SECT":" ","MAREA":"十六甲","LANE":" ","ALLEY":" ","HOUSE_NO":"７３號之８","E_COORD97":175593.84,"N_COORD97":2572029.25,"ADDRESS":"十六甲７３號之８","OBJECTID":20026},"geometry":{"x":175593.84000000078,"y":2572029.25}},{"attributes":{"ID":20027,"DIS_CODE":0,"TOWNNAME":"下營區","LI":"甲中里","LIN":"17鄰","STREET":" ","SECT":" ","MAREA":"十六甲","LANE":" ","ALLEY":" ","HOUSE_NO":"７５號","E_COORD97":175681.23999999999,"N_COORD97":2572054.4700000002,"ADDRESS":"十六甲７５號","OBJECTID":20027},"geometry":{"x":175681.24000000115,"y":2572054.4700000025}},{"attributes":{"ID":20028,"DIS_CODE":0,"TOWNNAME":"下營區","LI":"甲中里","LIN":"17鄰","STREET":" ","SECT":" ","MAREA":"十六甲","LANE":" ","ALLEY":" ","HOUSE_NO":"７６號之１","E_COORD97":175647.79999999999,"N_COORD97":2572023.6800000002,"ADDRESS":"十六甲７６號之１","OBJECTID":20028},"geometry":{"x":175647.80000000168,"y":2572023.6799999978}},{"attributes":{"ID":20029,"DIS_CODE":0,"TOWNNAME":"下營區","LI":"甲中里","LIN":"17鄰","STREET":" ","SECT":" ","MAREA":"十六甲","LANE":" ","ALLEY":" ","HOUSE_NO":"７６號","E_COORD97":175648.95999999999,"N_COORD97":2572034.0800000001,"ADDRESS":"十六甲７６號","OBJECTID":20029},"geometry":{"x":175648.96000000089,"y":2572034.0800000001}},{"attributes":{"ID":20030,"DIS_CODE":0,"TOWNNAME":"永康區","LI":"崑山里","LIN":"14鄰","STREET":"大灣路","SECT":" ","MAREA":" ","LANE":"９４２巷","ALLEY":"７１弄","HOUSE_NO":"１６９號","E_COORD97":173499.22,"N_COORD97":2544632.1400000001,"ADDRESS":"大灣路９４２巷７１弄１６９號","OBJECTID":20030},"geometry":{"x":173499.22000000067,"y":2544632.1400000025}},{"attributes":{"ID":20031,"DIS_CODE":0,"TOWNNAME":"下營區","LI":"甲中里","LIN":"17鄰","STREET":" ","SECT":" ","MAREA":"十六甲","LANE":" ","ALLEY":" ","HOUSE_NO":"７７號之１","E_COORD97":175751.48999999999,"N_COORD97":2572049.0600000001,"ADDRESS":"十六甲７７號之１","OBJECTID":20031},"geometry":{"x":175751.49000000022,"y":2572049.0599999987}},{"attributes":{"ID":20032,"DIS_CODE":0,"TOWNNAME":"下營區","LI":"甲中里","LIN":"17鄰","STREET":" ","SECT":" ","MAREA":"十六甲","LANE":" ","ALLEY":" ","HOUSE_NO":"７７號之２","E_COORD97":175740.54999999999,"N_COORD97":2572046.9199999999,"ADDRESS":"十六甲７７號之２","OBJECTID":20032},"geometry":{"x":175740.54999999981,"y":2572046.9200000018}},{"attributes":{"ID":20033,"DIS_CODE":0,"TOWNNAME":"下營區","LI":"甲中里","LIN":"17鄰","STREET":" ","SECT":" ","MAREA":"十六甲","LANE":" ","ALLEY":" ","HOUSE_NO":"７７號","E_COORD97":175729.51000000001,"N_COORD97":2572051.5899999999,"ADDRESS":"十六甲７７號","OBJECTID":20033},"geometry":{"x":175729.51000000164,"y":2572051.589999998}},{"attributes":{"ID":20034,"DIS_CODE":0,"TOWNNAME":"下營區","LI":"甲中里","LIN":"17鄰","STREET":" ","SECT":" ","MAREA":"十六甲","LANE":" ","ALLEY":" ","HOUSE_NO":"７８號","E_COORD97":175738.17000000001,"N_COORD97":2572033.1800000002,"ADDRESS":"十六甲７８號","OBJECTID":20034},"geometry":{"x":175738.16999999993,"y":2572033.1799999997}},{"attributes":{"ID":20035,"DIS_CODE":0,"TOWNNAME":"下營區","LI":"甲中里","LIN":"17鄰","STREET":" ","SECT":" ","MAREA":"十六甲","LANE":" ","ALLEY":" ","HOUSE_NO":"７９號","E_COORD97":175722.85999999999,"N_COORD97":2572019.3900000001,"ADDRESS":"十六甲７９號","OBJECTID":20035},"geometry":{"x":175722.86000000127,"y":2572019.3900000006}},{"attributes":{"ID":20036,"DIS_CODE":0,"TOWNNAME":"下營區","LI":"賀建里","LIN":"17鄰","STREET":" ","SECT":" ","MAREA":"下橋頭","LANE":" ","ALLEY":" ","HOUSE_NO":"１０號","E_COORD97":176640.25,"N_COORD97":2570246.0800000001,"ADDRESS":"下橋頭１０號","OBJECTID":20036},"geometry":{"x":176640.25000000093,"y":2570246.0800000019}},{"attributes":{"ID":20037,"DIS_CODE":0,"TOWNNAME":"下營區","LI":"賀建里","LIN":"17鄰","STREET":" ","SECT":" ","MAREA":"下橋頭","LANE":" ","ALLEY":" ","HOUSE_NO":"１１號","E_COORD97":176615.76000000001,"N_COORD97":2570247.5099999998,"ADDRESS":"下橋頭１１號","OBJECTID":20037},"geometry":{"x":176615.75999999978,"y":2570247.5099999998}},{"attributes":{"ID":20038,"DIS_CODE":0,"TOWNNAME":"下營區","LI":"賀建里","LIN":"17鄰","STREET":" ","SECT":" ","MAREA":"下橋頭","LANE":" ","ALLEY":" ","HOUSE_NO":"１２號之１","E_COORD97":176506.07999999999,"N_COORD97":2570232.3300000001,"ADDRESS":"下橋頭１２號之１","OBJECTID":20038},"geometry":{"x":176506.08000000101,"y":2570232.3300000001}},{"attributes":{"ID":20039,"DIS_CODE":0,"TOWNNAME":"下營區","LI":"賀建里","LIN":"17鄰","STREET":" ","SECT":" ","MAREA":"下橋頭","LANE":" ","ALLEY":" ","HOUSE_NO":"１２號之６","E_COORD97":176516.88,"N_COORD97":2570265.73,"ADDRESS":"下橋頭１２號之６","OBJECTID":20039},"geometry":{"x":176516.87999999989,"y":2570265.7300000023}},{"attributes":{"ID":20040,"DIS_CODE":0,"TOWNNAME":"下營區","LI":"賀建里","LIN":"17鄰","STREET":" ","SECT":" ","MAREA":"下橋頭","LANE":" ","ALLEY":" ","HOUSE_NO":"１２號之８","E_COORD97":176534.07999999999,"N_COORD97":2570286.1099999999,"ADDRESS":"下橋頭１２號之８","OBJECTID":20040},"geometry":{"x":176534.08000000007,"y":2570286.1100000013}},{"attributes":{"ID":20041,"DIS_CODE":0,"TOWNNAME":"下營區","LI":"賀建里","LIN":"17鄰","STREET":" ","SECT":" ","MAREA":"下橋頭","LANE":" ","ALLEY":" ","HOUSE_NO":"１２號","E_COORD97":176587.38,"N_COORD97":2570251.1699999999,"ADDRESS":"下橋頭１２號","OBJECTID":20041},"geometry":{"x":176587.38000000082,"y":2570251.1700000037}},{"attributes":{"ID":20042,"DIS_CODE":0,"TOWNNAME":"下營區","LI":"賀建里","LIN":"17鄰","STREET":" ","SECT":" ","MAREA":"下橋頭","LANE":" ","ALLEY":" ","HOUSE_NO":"１３號之１","E_COORD97":176598.82000000001,"N_COORD97":2570204.0899999999,"ADDRESS":"下橋頭１３號之１","OBJECTID":20042},"geometry":{"x":176598.8200000003,"y":2570204.0900000036}},{"attributes":{"ID":20043,"DIS_CODE":0,"TOWNNAME":"下營區","LI":"賀建里","LIN":"17鄰","STREET":" ","SECT":" ","MAREA":"下橋頭","LANE":" ","ALLEY":" ","HOUSE_NO":"１３號之２","E_COORD97":176603.13,"N_COORD97":2570202.5899999999,"ADDRESS":"下橋頭１３號之２","OBJECTID":20043},"geometry":{"x":176603.12999999989,"y":2570202.5899999999}},{"attributes":{"ID":20044,"DIS_CODE":0,"TOWNNAME":"下營區","LI":"賀建里","LIN":"17鄰","STREET":" ","SECT":" ","MAREA":"下橋頭","LANE":" ","ALLEY":" ","HOUSE_NO":"１３號","E_COORD97":176591.01999999999,"N_COORD97":2570218.2400000002,"ADDRESS":"下橋頭１３號","OBJECTID":20044},"geometry":{"x":176591.02000000048,"y":2570218.2400000021}},{"attributes":{"ID":20045,"DIS_CODE":0,"TOWNNAME":"下營區","LI":"賀建里","LIN":"17鄰","STREET":" ","SECT":" ","MAREA":"下橋頭","LANE":" ","ALLEY":" ","HOUSE_NO":"１５號","E_COORD97":176626.42000000001,"N_COORD97":2570285.1899999999,"ADDRESS":"下橋頭１５號","OBJECTID":20045},"geometry":{"x":176626.41999999993,"y":2570285.1900000013}},{"attributes":{"ID":20046,"DIS_CODE":0,"TOWNNAME":"六甲區","LI":"二甲里","LIN":"24鄰","STREET":"信義街","SECT":" ","MAREA":" ","LANE":" ","ALLEY":" ","HOUSE_NO":"２４０號","E_COORD97":183355.48999999999,"N_COORD97":2569803.1200000001,"ADDRESS":"信義街２４０號","OBJECTID":20046},"geometry":{"x":183355.49000000115,"y":2569803.1200000029}},{"attributes":{"ID":20047,"DIS_CODE":0,"TOWNNAME":"六甲區","LI":"二甲里","LIN":"24鄰","STREET":"信義街","SECT":" ","MAREA":" ","LANE":" ","ALLEY":" ","HOUSE_NO":"２４２號","E_COORD97":183356.64000000001,"N_COORD97":2569807.9700000002,"ADDRESS":"信義街２４２號","OBJECTID":20047},"geometry":{"x":183356.63999999966,"y":2569807.9700000007}},{"attributes":{"ID":20048,"DIS_CODE":0,"TOWNNAME":"六甲區","LI":"二甲里","LIN":"24鄰","STREET":"信義街","SECT":" ","MAREA":" ","LANE":" ","ALLEY":" ","HOUSE_NO":"２４４號","E_COORD97":183357.45999999999,"N_COORD97":2569812.52,"ADDRESS":"信義街２４４號","OBJECTID":20048},"geometry":{"x":183357.46000000089,"y":2569812.5200000014}},{"attributes":{"ID":20049,"DIS_CODE":0,"TOWNNAME":"六甲區","LI":"二甲里","LIN":"24鄰","STREET":"信義街","SECT":" ","MAREA":" ","LANE":" ","ALLEY":" ","HOUSE_NO":"２４６號","E_COORD97":183358.92999999999,"N_COORD97":2569817.04,"ADDRESS":"信義街２４６號","OBJECTID":20049},"geometry":{"x":183358.93000000063,"y":2569817.0400000028}},{"attributes":{"ID":20050,"DIS_CODE":0,"TOWNNAME":"永康區","LI":"崑山里","LIN":"14鄰","STREET":"大灣路","SECT":" ","MAREA":" ","LANE":"９４２巷","ALLEY":"７１弄","HOUSE_NO":"１３５號","E_COORD97":173564.63,"N_COORD97":2544608.3300000001,"ADDRESS":"大灣路９４２巷７１弄１３５號","OBJECTID":20050},"geometry":{"x":173564.63000000082,"y":2544608.3300000001}},{"attributes":{"ID":20051,"DIS_CODE":0,"TOWNNAME":"永康區","LI":"崑山里","LIN":"14鄰","STREET":"大灣路","SECT":" ","MAREA":" ","LANE":"９４２巷","ALLEY":"７１弄","HOUSE_NO":"１５３號","E_COORD97":173496.91,"N_COORD97":2544539.3999999999,"ADDRESS":"大灣路９４２巷７１弄１５３號","OBJECTID":20051},"geometry":{"x":173496.91000000108,"y":2544539.4000000004}},{"attributes":{"ID":20052,"DIS_CODE":0,"TOWNNAME":"下營區","LI":"開化里","LIN":"17鄰","STREET":" ","SECT":" ","MAREA":"中營","LANE":" ","ALLEY":" ","HOUSE_NO":"２１０號","E_COORD97":175790.56,"N_COORD97":2568150.2000000002,"ADDRESS":"中營２１０號","OBJECTID":20052},"geometry":{"x":175790.56000000052,"y":2568150.1999999993}},{"attributes":{"ID":20053,"DIS_CODE":0,"TOWNNAME":"下營區","LI":"開化里","LIN":"17鄰","STREET":" ","SECT":" ","MAREA":"中營","LANE":" ","ALLEY":" ","HOUSE_NO":"２１１號","E_COORD97":175771.54000000001,"N_COORD97":2568223.04,"ADDRESS":"中營２１１號","OBJECTID":20053},"geometry":{"x":175771.54000000004,"y":2568223.0399999991}},{"attributes":{"ID":20054,"DIS_CODE":0,"TOWNNAME":"下營區","LI":"開化里","LIN":"17鄰","STREET":" ","SECT":" ","MAREA":"中營","LANE":" ","ALLEY":" ","HOUSE_NO":"２１４號","E_COORD97":175772.23000000001,"N_COORD97":2568210.6899999999,"ADDRESS":"中營２１４號","OBJECTID":20054},"geometry":{"x":175772.23000000045,"y":2568210.6900000013}},{"attributes":{"ID":20055,"DIS_CODE":0,"TOWNNAME":"下營區","LI":"開化里","LIN":"17鄰","STREET":" ","SECT":" ","MAREA":"中營","LANE":" ","ALLEY":" ","HOUSE_NO":"２１５號","E_COORD97":175772.45000000001,"N_COORD97":2568205.1200000001,"ADDRESS":"中營２１５號","OBJECTID":20055},"geometry":{"x":175772.45000000019,"y":2568205.1200000029}},{"attributes":{"ID":20056,"DIS_CODE":0,"TOWNNAME":"永康區","LI":"崑山里","LIN":"14鄰","STREET":"大灣路","SECT":" ","MAREA":" ","LANE":"９４２巷","ALLEY":"７１弄","HOUSE_NO":"１９３號","E_COORD97":173450.92000000001,"N_COORD97":2544581.25,"ADDRESS":"大灣路９４２巷７１弄１９３號","OBJECTID":20056},"geometry":{"x":173450.92000000086,"y":2544581.25}},{"attributes":{"ID":20057,"DIS_CODE":0,"TOWNNAME":"下營區","LI":"開化里","LIN":"17鄰","STREET":" ","SECT":" ","MAREA":"中營","LANE":" ","ALLEY":" ","HOUSE_NO":"２１６號","E_COORD97":175772.42999999999,"N_COORD97":2568200.75,"ADDRESS":"中營２１６號","OBJECTID":20057},"geometry":{"x":175772.43000000156,"y":2568200.7500000019}},{"attributes":{"ID":20058,"DIS_CODE":0,"TOWNNAME":"下營區","LI":"開化里","LIN":"17鄰","STREET":" ","SECT":" ","MAREA":"中營","LANE":" ","ALLEY":" ","HOUSE_NO":"２１７號","E_COORD97":175772.66,"N_COORD97":2568195.1800000002,"ADDRESS":"中營２１７號","OBJECTID":20058},"geometry":{"x":175772.66000000015,"y":2568195.1799999997}},{"attributes":{"ID":20059,"DIS_CODE":0,"TOWNNAME":"下營區","LI":"開化里","LIN":"17鄰","STREET":" ","SECT":" ","MAREA":"中營","LANE":" ","ALLEY":" ","HOUSE_NO":"２１８號","E_COORD97":175786.94,"N_COORD97":2568227.3900000001,"ADDRESS":"中營２１８號","OBJECTID":20059},"geometry":{"x":175786.94000000134,"y":2568227.3900000025}},{"attributes":{"ID":20060,"DIS_CODE":0,"TOWNNAME":"下營區","LI":"開化里","LIN":"17鄰","STREET":" ","SECT":" ","MAREA":"中營","LANE":" ","ALLEY":" ","HOUSE_NO":"２１９號之１","E_COORD97":175796.39999999999,"N_COORD97":2568207.0899999999,"ADDRESS":"中營２１９號之１","OBJECTID":20060},"geometry":{"x":175796.40000000037,"y":2568207.0900000036}},{"attributes":{"ID":20061,"DIS_CODE":0,"TOWNNAME":"下營區","LI":"開化里","LIN":"17鄰","STREET":" ","SECT":" ","MAREA":"中營","LANE":" ","ALLEY":" ","HOUSE_NO":"２１９號","E_COORD97":175786.95999999999,"N_COORD97":2568206.6299999999,"ADDRESS":"中營２１９號","OBJECTID":20061},"geometry":{"x":175786.95999999996,"y":2568206.6300000008}},{"attributes":{"ID":20062,"DIS_CODE":0,"TOWNNAME":"永康區","LI":"崑山里","LIN":"14鄰","STREET":"大灣路","SECT":" ","MAREA":" ","LANE":"９４２巷","ALLEY":"７１弄","HOUSE_NO":"１４９號","E_COORD97":173502.03,"N_COORD97":2544558.25,"ADDRESS":"大灣路９４２巷７１弄１４９號","OBJECTID":20062},"geometry":{"x":173502.03000000026,"y":2544558.2500000037}},{"attributes":{"ID":20063,"DIS_CODE":0,"TOWNNAME":"下營區","LI":"開化里","LIN":"17鄰","STREET":" ","SECT":" ","MAREA":"中營","LANE":" ","ALLEY":" ","HOUSE_NO":"２２０號","E_COORD97":175808.78,"N_COORD97":2568224.4700000002,"ADDRESS":"中營２２０號","OBJECTID":20063},"geometry":{"x":175808.78000000026,"y":2568224.4700000007}},{"attributes":{"ID":20064,"DIS_CODE":0,"TOWNNAME":"下營區","LI":"開化里","LIN":"17鄰","STREET":" ","SECT":" ","MAREA":"中營","LANE":" ","ALLEY":" ","HOUSE_NO":"２２１號之３","E_COORD97":175828.23999999999,"N_COORD97":2568209.3999999999,"ADDRESS":"中營２２１號之３","OBJECTID":20064},"geometry":{"x":175828.24000000022,"y":2568209.4000000022}},{"attributes":{"ID":20065,"DIS_CODE":0,"TOWNNAME":"下營區","LI":"茅港里","LIN":"17鄰","STREET":" ","SECT":" ","MAREA":"中營","LANE":" ","ALLEY":" ","HOUSE_NO":"８１３號","E_COORD97":176078.54000000001,"N_COORD97":2568450.6699999999,"ADDRESS":"中營８１３號","OBJECTID":20065},"geometry":{"x":176078.54000000004,"y":2568450.6700000037}},{"attributes":{"ID":20066,"DIS_CODE":0,"TOWNNAME":"下營區","LI":"茅港里","LIN":"17鄰","STREET":" ","SECT":" ","MAREA":"中營","LANE":" ","ALLEY":" ","HOUSE_NO":"８１４號","E_COORD97":176074.60000000001,"N_COORD97":2568478.48,"ADDRESS":"中營８１４號","OBJECTID":20066},"geometry":{"x":176074.60000000149,"y":2568478.4800000004}},{"attributes":{"ID":20067,"DIS_CODE":0,"TOWNNAME":"下營區","LI":"茅港里","LIN":"17鄰","STREET":" ","SECT":" ","MAREA":"中營","LANE":" ","ALLEY":" ","HOUSE_NO":"８１５號","E_COORD97":176067.54000000001,"N_COORD97":2568492.7599999998,"ADDRESS":"中營８１５號","OBJECTID":20067},"geometry":{"x":176067.54000000097,"y":2568492.7599999998}},{"attributes":{"ID":20068,"DIS_CODE":0,"TOWNNAME":"下營區","LI":"茅港里","LIN":"17鄰","STREET":" ","SECT":" ","MAREA":"中營","LANE":" ","ALLEY":" ","HOUSE_NO":"８１７號","E_COORD97":176045.95000000001,"N_COORD97":2568489,"ADDRESS":"中營８１７號","OBJECTID":20068},"geometry":{"x":176045.95000000112,"y":2568488.9999999981}},{"attributes":{"ID":20069,"DIS_CODE":0,"TOWNNAME":"下營區","LI":"茅港里","LIN":"17鄰","STREET":" ","SECT":" ","MAREA":"中營","LANE":" ","ALLEY":" ","HOUSE_NO":"８１９號","E_COORD97":176045.16,"N_COORD97":2568472.75,"ADDRESS":"中營８１９號","OBJECTID":20069},"geometry":{"x":176045.16000000015,"y":2568472.75}},{"attributes":{"ID":20070,"DIS_CODE":0,"TOWNNAME":"下營區","LI":"茅港里","LIN":"17鄰","STREET":" ","SECT":" ","MAREA":"中營","LANE":" ","ALLEY":" ","HOUSE_NO":"８２０號","E_COORD97":176052.91,"N_COORD97":2568441.5,"ADDRESS":"中營８２０號","OBJECTID":20070},"geometry":{"x":176052.91000000108,"y":2568441.4999999981}},{"attributes":{"ID":20071,"DIS_CODE":0,"TOWNNAME":"永康區","LI":"崑山里","LIN":"14鄰","STREET":"大灣路","SECT":" ","MAREA":" ","LANE":"９４２巷","ALLEY":"７１弄","HOUSE_NO":"２２３號","E_COORD97":173451.78,"N_COORD97":2544637.9199999999,"ADDRESS":"大灣路９４２巷７１弄２２３號","OBJECTID":20071},"geometry":{"x":173451.78000000119,"y":2544637.9199999999}},{"attributes":{"ID":20072,"DIS_CODE":0,"TOWNNAME":"下營區","LI":"茅港里","LIN":"17鄰","STREET":" ","SECT":" ","MAREA":"中營","LANE":" ","ALLEY":" ","HOUSE_NO":"８２１號","E_COORD97":176048.86496499999,"N_COORD97":2568440.41763,"ADDRESS":"中營８２１號","OBJECTID":20072},"geometry":{"x":176048.86496500019,"y":2568440.4176290017}},{"attributes":{"ID":20073,"DIS_CODE":0,"TOWNNAME":"永康區","LI":"崑山里","LIN":"14鄰","STREET":"大灣路","SECT":" ","MAREA":" ","LANE":"９４２巷","ALLEY":"７１弄","HOUSE_NO":"２２５號","E_COORD97":173453.97,"N_COORD97":2544645.6800000002,"ADDRESS":"大灣路９４２巷７１弄２２５號","OBJECTID":20073},"geometry":{"x":173453.96999999974,"y":2544645.6799999997}},{"attributes":{"ID":20074,"DIS_CODE":0,"TOWNNAME":"永康區","LI":"崑山里","LIN":"14鄰","STREET":"大灣路","SECT":" ","MAREA":" ","LANE":"９４２巷","ALLEY":"７１弄","HOUSE_NO":"１４７號","E_COORD97":173505.17000000001,"N_COORD97":2544567.5,"ADDRESS":"大灣路９４２巷７１弄１４７號","OBJECTID":20074},"geometry":{"x":173505.17000000086,"y":2544567.5000000019}},{"attributes":{"ID":20075,"DIS_CODE":0,"TOWNNAME":"永康區","LI":"五王里","LIN":"14鄰","STREET":"中華二路","SECT":" ","MAREA":" ","LANE":"２０６巷","ALLEY":"６８弄","HOUSE_NO":"４７號","E_COORD97":171630.23000000001,"N_COORD97":2545725.54,"ADDRESS":"中華二路２０６巷６８弄４７號","OBJECTID":20075},"geometry":{"x":171630.23000000138,"y":2545725.540000001}},{"attributes":{"ID":20076,"DIS_CODE":0,"TOWNNAME":"永康區","LI":"五王里","LIN":"14鄰","STREET":"中華二路","SECT":" ","MAREA":" ","LANE":"２０６巷","ALLEY":"６８弄","HOUSE_NO":"５１號","E_COORD97":171633.04000000001,"N_COORD97":2545715.29,"ADDRESS":"中華二路２０６巷６８弄５１號","OBJECTID":20076},"geometry":{"x":171633.04000000097,"y":2545715.2899999991}},{"attributes":{"ID":20077,"DIS_CODE":0,"TOWNNAME":"永康區","LI":"五王里","LIN":"14鄰","STREET":"中華二路","SECT":" ","MAREA":" ","LANE":"２０６巷","ALLEY":"６８弄","HOUSE_NO":"５５號","E_COORD97":171634.97,"N_COORD97":2545707.54,"ADDRESS":"中華二路２０６巷６８弄５５號","OBJECTID":20077},"geometry":{"x":171634.97000000067,"y":2545707.5399999991}},{"attributes":{"ID":20078,"DIS_CODE":0,"TOWNNAME":"下營區","LI":"茅港里","LIN":"17鄰","STREET":" ","SECT":" ","MAREA":"中營","LANE":" ","ALLEY":" ","HOUSE_NO":"８２２號","E_COORD97":176044.41564799999,"N_COORD97":2568439.3593000001,"ADDRESS":"中營８２２號","OBJECTID":20078},"geometry":{"x":176044.41564800031,"y":2568439.3592970017}},{"attributes":{"ID":20079,"DIS_CODE":0,"TOWNNAME":"下營區","LI":"茅港里","LIN":"17鄰","STREET":" ","SECT":" ","MAREA":"中營","LANE":" ","ALLEY":" ","HOUSE_NO":"８２４號","E_COORD97":176021.09,"N_COORD97":2568436.8199999998,"ADDRESS":"中營８２４號","OBJECTID":20079},"geometry":{"x":176021.09000000078,"y":2568436.8200000022}},{"attributes":{"ID":20080,"DIS_CODE":0,"TOWNNAME":"新營區","LI":"大宏里","LIN":"24鄰","STREET":"民治路","SECT":" ","MAREA":" ","LANE":" ","ALLEY":" ","HOUSE_NO":"３號","E_COORD97":180584.17000000001,"N_COORD97":2578880.0499999998,"ADDRESS":"民治路３號","OBJECTID":20080},"geometry":{"x":180584.17000000086,"y":2578880.0500000007}},{"attributes":{"ID":20081,"DIS_CODE":0,"TOWNNAME":"下營區","LI":"茅港里","LIN":"17鄰","STREET":" ","SECT":" ","MAREA":"中營","LANE":" ","ALLEY":" ","HOUSE_NO":"８２７號","E_COORD97":176019.31,"N_COORD97":2568442.5800000001,"ADDRESS":"中營８２７號","OBJECTID":20081},"geometry":{"x":176019.31000000052,"y":2568442.5800000019}},{"attributes":{"ID":20082,"DIS_CODE":0,"TOWNNAME":"新營區","LI":"大宏里","LIN":"24鄰","STREET":"民治路","SECT":" ","MAREA":" ","LANE":" ","ALLEY":" ","HOUSE_NO":"３之１７號","E_COORD97":180582.60000000001,"N_COORD97":2578836.9300000002,"ADDRESS":"民治路３之１７號","OBJECTID":20082},"geometry":{"x":180582.60000000056,"y":2578836.9300000034}},{"attributes":{"ID":20083,"DIS_CODE":0,"TOWNNAME":"新營區","LI":"民榮里","LIN":"15鄰","STREET":"新進路","SECT":"二段","MAREA":" ","LANE":" ","ALLEY":" ","HOUSE_NO":"５２４號","E_COORD97":178684.45999999999,"N_COORD97":2578100.5800000001,"ADDRESS":"新進路二段５２４號","OBJECTID":20083},"geometry":{"x":178684.45999999996,"y":2578100.5800000038}},{"attributes":{"ID":20084,"DIS_CODE":0,"TOWNNAME":"下營區","LI":"茅港里","LIN":"17鄰","STREET":" ","SECT":" ","MAREA":"中營","LANE":" ","ALLEY":" ","HOUSE_NO":"８３０號","E_COORD97":176026.82999999999,"N_COORD97":2568464.0499999998,"ADDRESS":"中營８３０號","OBJECTID":20084},"geometry":{"x":176026.83000000007,"y":2568464.0500000026}},{"attributes":{"ID":20085,"DIS_CODE":0,"TOWNNAME":"七股區","LI":"大潭里","LIN":"17鄰","STREET":" ","SECT":" ","MAREA":"頂潭","LANE":" ","ALLEY":" ","HOUSE_NO":"２１號","E_COORD97":161023.12,"N_COORD97":2565918.5800000001,"ADDRESS":"頂潭２１號","OBJECTID":20085},"geometry":{"x":161023.12000000011,"y":2565918.5799999982}},{"attributes":{"ID":20086,"DIS_CODE":0,"TOWNNAME":"七股區","LI":"大潭里","LIN":"17鄰","STREET":" ","SECT":" ","MAREA":"頂潭","LANE":" ","ALLEY":" ","HOUSE_NO":"２２號","E_COORD97":160999.10999999999,"N_COORD97":2565920.6200000001,"ADDRESS":"頂潭２２號","OBJECTID":20086},"geometry":{"x":160999.11000000034,"y":2565920.6200000029}},{"attributes":{"ID":20087,"DIS_CODE":0,"TOWNNAME":"七股區","LI":"後港里","LIN":"17鄰","STREET":" ","SECT":" ","MAREA":"港西","LANE":" ","ALLEY":" ","HOUSE_NO":"７７號","E_COORD97":161754.01999999999,"N_COORD97":2565059.0699999998,"ADDRESS":"港西７７號","OBJECTID":20087},"geometry":{"x":161754.02000000142,"y":2565059.0700000022}},{"attributes":{"ID":20088,"DIS_CODE":0,"TOWNNAME":"關廟區","LI":"龜洞里","LIN":"7鄰","STREET":"南雄南路","SECT":" ","MAREA":" ","LANE":"７０１巷","ALLEY":"１６弄","HOUSE_NO":"７號","E_COORD97":183359.00854499999,"N_COORD97":2533398.7652400001,"ADDRESS":"南雄南路７０１巷１６弄７號","OBJECTID":20088},"geometry":{"x":183359.00854500104,"y":2533398.7652449999}},{"attributes":{"ID":20089,"DIS_CODE":0,"TOWNNAME":"永康區","LI":"五王里","LIN":"14鄰","STREET":"中華二路","SECT":" ","MAREA":" ","LANE":"２０６巷","ALLEY":"６８弄","HOUSE_NO":"４１號","E_COORD97":171626.82000000001,"N_COORD97":2545740.0299999998,"ADDRESS":"中華二路２０６巷６８弄４１號","OBJECTID":20089},"geometry":{"x":171626.8200000003,"y":2545740.0300000012}},{"attributes":{"ID":20090,"DIS_CODE":0,"TOWNNAME":"永康區","LI":"崑山里","LIN":"14鄰","STREET":"大灣路","SECT":" ","MAREA":" ","LANE":"９４２巷","ALLEY":"７１弄","HOUSE_NO":"１５５號","E_COORD97":173479.14000000001,"N_COORD97":2544551,"ADDRESS":"大灣路９４２巷７１弄１５５號","OBJECTID":20090},"geometry":{"x":173479.1400000006,"y":2544551.0000000019}},{"attributes":{"ID":20091,"DIS_CODE":0,"TOWNNAME":"中西區","LI":"光賢里","LIN":"14鄰","STREET":"武聖路","SECT":" ","MAREA":" ","LANE":"６９巷","ALLEY":"３０弄","HOUSE_NO":"１１號","E_COORD97":167087.97,"N_COORD97":2545073.1499999999,"ADDRESS":"武聖路６９巷３０弄１１號","OBJECTID":20091},"geometry":{"x":167087.97000000067,"y":2545073.1500000004}},{"attributes":{"ID":20092,"DIS_CODE":0,"TOWNNAME":"中西區","LI":"光賢里","LIN":"14鄰","STREET":"武聖路","SECT":" ","MAREA":" ","LANE":"６９巷","ALLEY":"３０弄","HOUSE_NO":"１３號","E_COORD97":167089.17000000001,"N_COORD97":2545067.5600000001,"ADDRESS":"武聖路６９巷３０弄１３號","OBJECTID":20092},"geometry":{"x":167089.16999999993,"y":2545067.5600000005}},{"attributes":{"ID":20093,"DIS_CODE":0,"TOWNNAME":"中西區","LI":"光賢里","LIN":"14鄰","STREET":"武聖路","SECT":" ","MAREA":" ","LANE":"６９巷","ALLEY":"３０弄","HOUSE_NO":"１５號","E_COORD97":167093.97,"N_COORD97":2545069.96,"ADDRESS":"武聖路６９巷３０弄１５號","OBJECTID":20093},"geometry":{"x":167093.96999999974,"y":2545069.9600000046}},{"attributes":{"ID":20094,"DIS_CODE":0,"TOWNNAME":"中西區","LI":"光賢里","LIN":"14鄰","STREET":"武聖路","SECT":" ","MAREA":" ","LANE":"６９巷","ALLEY":"３０弄","HOUSE_NO":"３號","E_COORD97":167067.57000000001,"N_COORD97":2545081.1400000001,"ADDRESS":"武聖路６９巷３０弄３號","OBJECTID":20094},"geometry":{"x":167067.57000000123,"y":2545081.1400000006}},{"attributes":{"ID":20095,"DIS_CODE":0,"TOWNNAME":"中西區","LI":"光賢里","LIN":"14鄰","STREET":"武聖路","SECT":" ","MAREA":" ","LANE":"６９巷","ALLEY":"３０弄","HOUSE_NO":"５號","E_COORD97":167072.76999999999,"N_COORD97":2545077.5499999998,"ADDRESS":"武聖路６９巷３０弄５號","OBJECTID":20095},"geometry":{"x":167072.76999999955,"y":2545077.5500000007}},{"attributes":{"ID":20096,"DIS_CODE":0,"TOWNNAME":"中西區","LI":"光賢里","LIN":"14鄰","STREET":"武聖路","SECT":" ","MAREA":" ","LANE":"６９巷","ALLEY":"３０弄","HOUSE_NO":"７號","E_COORD97":167079.97,"N_COORD97":2545077.1499999999,"ADDRESS":"武聖路６９巷３０弄７號","OBJECTID":20096},"geometry":{"x":167079.97000000067,"y":2545077.1500000004}},{"attributes":{"ID":20097,"DIS_CODE":0,"TOWNNAME":"中西區","LI":"光賢里","LIN":"14鄰","STREET":"武聖路","SECT":" ","MAREA":" ","LANE":"６９巷","ALLEY":"３０弄","HOUSE_NO":"９號","E_COORD97":167079.97,"N_COORD97":2545072.75,"ADDRESS":"武聖路６９巷３０弄９號","OBJECTID":20097},"geometry":{"x":167079.97000000067,"y":2545072.75}},{"attributes":{"ID":20098,"DIS_CODE":0,"TOWNNAME":"中西區","LI":"光賢里","LIN":"14鄰","STREET":"武聖路","SECT":" ","MAREA":" ","LANE":"６９巷","ALLEY":"４０弄","HOUSE_NO":"６號","E_COORD97":167055.17000000001,"N_COORD97":2545067.1600000001,"ADDRESS":"武聖路６９巷４０弄６號","OBJECTID":20098},"geometry":{"x":167055.16999999993,"y":2545067.1600000001}},{"attributes":{"ID":20099,"DIS_CODE":0,"TOWNNAME":"中西區","LI":"光賢里","LIN":"14鄰","STREET":"武聖路","SECT":" ","MAREA":" ","LANE":"６９巷","ALLEY":"４０弄","HOUSE_NO":"８號","E_COORD97":167053.17000000001,"N_COORD97":2545063.1699999999,"ADDRESS":"武聖路６９巷４０弄８號","OBJECTID":20099},"geometry":{"x":167053.17000000086,"y":2545063.1699999999}},{"attributes":{"ID":20100,"DIS_CODE":0,"TOWNNAME":"南區","LI":"興農里","LIN":"5鄰","STREET":"灣裡路","SECT":" ","MAREA":" ","LANE":"２６３巷","ALLEY":"６１弄","HOUSE_NO":"１２號","E_COORD97":166293.38,"N_COORD97":2536524.79,"ADDRESS":"灣裡路２６３巷６１弄１２號","OBJECTID":20100},"geometry":{"x":166293.38000000175,"y":2536524.7899999991}},{"attributes":{"ID":20101,"DIS_CODE":0,"TOWNNAME":"南區","LI":"喜北里","LIN":"13鄰","STREET":"喜樹路","SECT":" ","MAREA":" ","LANE":"２０６巷","ALLEY":"２９弄","HOUSE_NO":"２之１號","E_COORD97":165696.41,"N_COORD97":2538172.5099999998,"ADDRESS":"喜樹路２０６巷２９弄２之１號","OBJECTID":20101},"geometry":{"x":165696.41000000015,"y":2538172.5100000016}},{"attributes":{"ID":20102,"DIS_CODE":0,"TOWNNAME":"歸仁區","LI":"辜厝里","LIN":"5鄰","STREET":"大順街","SECT":" ","MAREA":" ","LANE":"７０巷","ALLEY":"２３弄","HOUSE_NO":"５號","E_COORD97":177310.51000000001,"N_COORD97":2540640.54,"ADDRESS":"大順街７０巷２３弄５號","OBJECTID":20102},"geometry":{"x":177310.50999999978,"y":2540640.540000001}},{"attributes":{"ID":20103,"DIS_CODE":0,"TOWNNAME":"永康區","LI":"五王里","LIN":"14鄰","STREET":"中華二路","SECT":" ","MAREA":" ","LANE":"２０６巷","ALLEY":"６８弄","HOUSE_NO":"４９號","E_COORD97":171631.32000000001,"N_COORD97":2545721.79,"ADDRESS":"中華二路２０６巷６８弄４９號","OBJECTID":20103},"geometry":{"x":171631.32000000123,"y":2545721.7899999991}},{"attributes":{"ID":20104,"DIS_CODE":0,"TOWNNAME":"永康區","LI":"崑山里","LIN":"14鄰","STREET":"大灣路","SECT":" ","MAREA":" ","LANE":"９４２巷","ALLEY":"７１弄","HOUSE_NO":"１２９號","E_COORD97":173567.42999999999,"N_COORD97":2544511.9900000002,"ADDRESS":"大灣路９４２巷７１弄１２９號","OBJECTID":20104},"geometry":{"x":173567.43000000063,"y":2544511.9900000002}},{"attributes":{"ID":20105,"DIS_CODE":0,"TOWNNAME":"永康區","LI":"神洲里","LIN":"14鄰","STREET":"忠孝路","SECT":" ","MAREA":" ","LANE":"７６巷","ALLEY":"６３弄","HOUSE_NO":"２７號","E_COORD97":172208.38,"N_COORD97":2545021.0899999999,"ADDRESS":"忠孝路７６巷６３弄２７號","OBJECTID":20105},"geometry":{"x":172208.38000000082,"y":2545021.0900000017}},{"attributes":{"ID":20106,"DIS_CODE":0,"TOWNNAME":"永康區","LI":"崑山里","LIN":"14鄰","STREET":"大灣路","SECT":" ","MAREA":" ","LANE":"９４２巷","ALLEY":"７１弄","HOUSE_NO":"１２３號","E_COORD97":173551.64000000001,"N_COORD97":2544531.7400000002,"ADDRESS":"大灣路９４２巷７１弄１２３號","OBJECTID":20106},"geometry":{"x":173551.63999999966,"y":2544531.7400000021}},{"attributes":{"ID":20107,"DIS_CODE":0,"TOWNNAME":"永康區","LI":"神洲里","LIN":"14鄰","STREET":"忠孝路","SECT":" ","MAREA":" ","LANE":"７６巷","ALLEY":"４９弄","HOUSE_NO":"４號","E_COORD97":172205.73000000001,"N_COORD97":2545008.0899999999,"ADDRESS":"忠孝路７６巷４９弄４號","OBJECTID":20107},"geometry":{"x":172205.73000000045,"y":2545008.0900000017}},{"attributes":{"ID":20108,"DIS_CODE":0,"TOWNNAME":"七股區","LI":"龍山里","LIN":"17鄰","STREET":" ","SECT":" ","MAREA":"龍山","LANE":" ","ALLEY":" ","HOUSE_NO":"１６４號","E_COORD97":159201.20999999999,"N_COORD97":2559921.29,"ADDRESS":"龍山１６４號","OBJECTID":20108},"geometry":{"x":159201.20999999996,"y":2559921.2899999991}},{"attributes":{"ID":20109,"DIS_CODE":0,"TOWNNAME":"永康區","LI":"崑山里","LIN":"14鄰","STREET":"大灣路","SECT":" ","MAREA":" ","LANE":"９４２巷","ALLEY":"７１弄","HOUSE_NO":"１１５號","E_COORD97":173561.73000000001,"N_COORD97":2544546.75,"ADDRESS":"大灣路９４２巷７１弄１１５號","OBJECTID":20109},"geometry":{"x":173561.73000000045,"y":2544546.75}},{"attributes":{"ID":20110,"DIS_CODE":0,"TOWNNAME":"永康區","LI":"崑山里","LIN":"14鄰","STREET":"大灣路","SECT":" ","MAREA":" ","LANE":"９４２巷","ALLEY":"７１弄","HOUSE_NO":"９３號","E_COORD97":173585.73000000001,"N_COORD97":2544586.5,"ADDRESS":"大灣路９４２巷７１弄９３號","OBJECTID":20110},"geometry":{"x":173585.73000000045,"y":2544586.5}},{"attributes":{"ID":20111,"DIS_CODE":0,"TOWNNAME":"永康區","LI":"神洲里","LIN":"14鄰","STREET":"忠孝路","SECT":" ","MAREA":" ","LANE":"７６巷","ALLEY":"６３弄","HOUSE_NO":"２５號","E_COORD97":172222.39000000001,"N_COORD97":2545020.8399999999,"ADDRESS":"忠孝路７６巷６３弄２５號","OBJECTID":20111},"geometry":{"x":172222.38999999966,"y":2545020.8399999999}},{"attributes":{"ID":20112,"DIS_CODE":0,"TOWNNAME":"歸仁區","LI":"大廟里","LIN":"24鄰","STREET":"大廟一街","SECT":" ","MAREA":" ","LANE":" ","ALLEY":" ","HOUSE_NO":"２１８號","E_COORD97":175580.72,"N_COORD97":2543626.25,"ADDRESS":"大廟一街２１８號","OBJECTID":20112},"geometry":{"x":175580.72000000067,"y":2543626.2500000019}},{"attributes":{"ID":20113,"DIS_CODE":0,"TOWNNAME":"歸仁區","LI":"大廟里","LIN":"24鄰","STREET":"大廟一街","SECT":" ","MAREA":" ","LANE":" ","ALLEY":" ","HOUSE_NO":"２２６號","E_COORD97":175575.42000000001,"N_COORD97":2543610.25,"ADDRESS":"大廟一街２２６號","OBJECTID":20113},"geometry":{"x":175575.41999999993,"y":2543610.2500000019}},{"attributes":{"ID":20114,"DIS_CODE":0,"TOWNNAME":"歸仁區","LI":"八甲里","LIN":"24鄰","STREET":"大德路","SECT":" ","MAREA":" ","LANE":" ","ALLEY":" ","HOUSE_NO":"１２２號","E_COORD97":178070.39000000001,"N_COORD97":2541336.25,"ADDRESS":"大德路１２２號","OBJECTID":20114},"geometry":{"x":178070.38999999966,"y":2541336.25}},{"attributes":{"ID":20115,"DIS_CODE":0,"TOWNNAME":"歸仁區","LI":"大廟里","LIN":"24鄰","STREET":"大廟一街","SECT":" ","MAREA":" ","LANE":" ","ALLEY":" ","HOUSE_NO":"２１６號","E_COORD97":175582.72,"N_COORD97":2543634.25,"ADDRESS":"大廟一街２１６號","OBJECTID":20115},"geometry":{"x":175582.72000000067,"y":2543634.2500000019}},{"attributes":{"ID":20116,"DIS_CODE":0,"TOWNNAME":"永康區","LI":"崑山里","LIN":"14鄰","STREET":"大灣路","SECT":" ","MAREA":" ","LANE":"９４２巷","ALLEY":"７１弄","HOUSE_NO":"１２１號","E_COORD97":173554.29000000001,"N_COORD97":2544535.7400000002,"ADDRESS":"大灣路９４２巷７１弄１２１號","OBJECTID":20116},"geometry":{"x":173554.29000000004,"y":2544535.7400000021}},{"attributes":{"ID":20117,"DIS_CODE":0,"TOWNNAME":"安南區","LI":"安富里","LIN":"14鄰","STREET":"安富街","SECT":" ","MAREA":" ","LANE":"２５１巷","ALLEY":"５６弄","HOUSE_NO":"１０號","E_COORD97":167513.03,"N_COORD97":2547305.3399999999,"ADDRESS":"安富街２５１巷５６弄１０號","OBJECTID":20117},"geometry":{"x":167513.03000000026,"y":2547305.3400000017}},{"attributes":{"ID":20118,"DIS_CODE":0,"TOWNNAME":"安南區","LI":"安富里","LIN":"14鄰","STREET":"安富街","SECT":" ","MAREA":" ","LANE":"２５１巷","ALLEY":"５６弄","HOUSE_NO":"１１號","E_COORD97":167512.70999999999,"N_COORD97":2547281.6200000001,"ADDRESS":"安富街２５１巷５６弄１１號","OBJECTID":20118},"geometry":{"x":167512.70999999996,"y":2547281.620000001}},{"attributes":{"ID":20119,"DIS_CODE":0,"TOWNNAME":"安南區","LI":"安富里","LIN":"14鄰","STREET":"安富街","SECT":" ","MAREA":" ","LANE":"２５１巷","ALLEY":"５６弄","HOUSE_NO":"１３號","E_COORD97":167506.69,"N_COORD97":2547282.8199999998,"ADDRESS":"安富街２５１巷５６弄１３號","OBJECTID":20119},"geometry":{"x":167506.69000000041,"y":2547282.8200000003}},{"attributes":{"ID":20120,"DIS_CODE":0,"TOWNNAME":"安南區","LI":"安富里","LIN":"14鄰","STREET":"安富街","SECT":" ","MAREA":" ","LANE":"２５１巷","ALLEY":"５６弄","HOUSE_NO":"１４號","E_COORD97":167503.10999999999,"N_COORD97":2547301.7400000002,"ADDRESS":"安富街２５１巷５６弄１４號","OBJECTID":20120},"geometry":{"x":167503.11000000127,"y":2547301.7400000021}},{"attributes":{"ID":20121,"DIS_CODE":0,"TOWNNAME":"安南區","LI":"安富里","LIN":"14鄰","STREET":"安富街","SECT":" ","MAREA":" ","LANE":"２５１巷","ALLEY":"５６弄","HOUSE_NO":"１５號","E_COORD97":167500.67999999999,"N_COORD97":2547281.02,"ADDRESS":"安富街２５１巷５６弄１５號","OBJECTID":20121},"geometry":{"x":167500.6799999997,"y":2547281.0199999996}},{"attributes":{"ID":20122,"DIS_CODE":0,"TOWNNAME":"柳營區","LI":"東昇里","LIN":"24鄰","STREET":" ","SECT":" ","MAREA":"柳營","LANE":" ","ALLEY":" ","HOUSE_NO":"４５２之１８號","E_COORD97":180232.42000000001,"N_COORD97":2575568.4300000002,"ADDRESS":"柳營４５２之１８號","OBJECTID":20122},"geometry":{"x":180232.41999999993,"y":2575568.4300000034}},{"attributes":{"ID":20123,"DIS_CODE":0,"TOWNNAME":"柳營區","LI":"東昇里","LIN":"24鄰","STREET":" ","SECT":" ","MAREA":"柳營","LANE":" ","ALLEY":" ","HOUSE_NO":"４５２號之２６","E_COORD97":180233.64999999999,"N_COORD97":2575601.6400000001,"ADDRESS":"柳營４５２號之２６","OBJECTID":20123},"geometry":{"x":180233.6500000013,"y":2575601.6400000006}},{"attributes":{"ID":20124,"DIS_CODE":0,"TOWNNAME":"柳營區","LI":"東昇里","LIN":"24鄰","STREET":" ","SECT":" ","MAREA":"柳營","LANE":" ","ALLEY":" ","HOUSE_NO":"４５２號之２７","E_COORD97":180233.57999999999,"N_COORD97":2575610.27,"ADDRESS":"柳營４５２號之２７","OBJECTID":20124},"geometry":{"x":180233.58000000101,"y":2575610.2700000033}},{"attributes":{"ID":20125,"DIS_CODE":0,"TOWNNAME":"柳營區","LI":"東昇里","LIN":"24鄰","STREET":" ","SECT":" ","MAREA":"柳營","LANE":" ","ALLEY":" ","HOUSE_NO":"４５２之２８號","E_COORD97":180233.63,"N_COORD97":2575613.8900000001,"ADDRESS":"柳營４５２之２８號","OBJECTID":20125},"geometry":{"x":180233.63000000082,"y":2575613.8900000043}},{"attributes":{"ID":20126,"DIS_CODE":0,"TOWNNAME":"柳營區","LI":"東昇里","LIN":"24鄰","STREET":" ","SECT":" ","MAREA":"柳營","LANE":" ","ALLEY":" ","HOUSE_NO":"４５２之２９號","E_COORD97":180233.73999999999,"N_COORD97":2575617.5099999998,"ADDRESS":"柳營４５２之２９號","OBJECTID":20126},"geometry":{"x":180233.74000000022,"y":2575617.5099999998}},{"attributes":{"ID":20127,"DIS_CODE":0,"TOWNNAME":"柳營區","LI":"東昇里","LIN":"24鄰","STREET":" ","SECT":" ","MAREA":"柳營","LANE":" ","ALLEY":" ","HOUSE_NO":"４５２之３０號","E_COORD97":180233.72,"N_COORD97":2575620.79,"ADDRESS":"柳營４５２之３０號","OBJECTID":20127},"geometry":{"x":180233.71999999881,"y":2575620.790000001}},{"attributes":{"ID":20128,"DIS_CODE":0,"TOWNNAME":"柳營區","LI":"東昇里","LIN":"24鄰","STREET":" ","SECT":" ","MAREA":"柳營","LANE":" ","ALLEY":" ","HOUSE_NO":"４５２號之３１","E_COORD97":180234.45000000001,"N_COORD97":2575631.25,"ADDRESS":"柳營４５２號之３１","OBJECTID":20128},"geometry":{"x":180234.45000000205,"y":2575631.2500000037}},{"attributes":{"ID":20129,"DIS_CODE":0,"TOWNNAME":"柳營區","LI":"東昇里","LIN":"24鄰","STREET":" ","SECT":" ","MAREA":"柳營","LANE":" ","ALLEY":" ","HOUSE_NO":"４５２號之３２","E_COORD97":180234.60000000001,"N_COORD97":2575635.79,"ADDRESS":"柳營４５２號之３２","OBJECTID":20129},"geometry":{"x":180234.60000000149,"y":2575635.7899999991}},{"attributes":{"ID":20130,"DIS_CODE":0,"TOWNNAME":"柳營區","LI":"東昇里","LIN":"24鄰","STREET":" ","SECT":" ","MAREA":"柳營","LANE":" ","ALLEY":" ","HOUSE_NO":"４５２之３３號","E_COORD97":180234.59,"N_COORD97":2575639.4100000001,"ADDRESS":"柳營４５２之３３號","OBJECTID":20130},"geometry":{"x":180234.58999999985,"y":2575639.4100000001}},{"attributes":{"ID":20131,"DIS_CODE":0,"TOWNNAME":"七股區","LI":"後港里","LIN":"17鄰","STREET":" ","SECT":" ","MAREA":"港西","LANE":" ","ALLEY":" ","HOUSE_NO":"８０號","E_COORD97":162019.70000000001,"N_COORD97":2564765.8799999999,"ADDRESS":"港西８０號","OBJECTID":20131},"geometry":{"x":162019.70000000205,"y":2564765.879999999}},{"attributes":{"ID":20132,"DIS_CODE":0,"TOWNNAME":"七股區","LI":"龍山里","LIN":"17鄰","STREET":" ","SECT":" ","MAREA":"龍山","LANE":" ","ALLEY":" ","HOUSE_NO":"１６０號之２","E_COORD97":159191.72,"N_COORD97":2559928.6200000001,"ADDRESS":"龍山１６０號之２","OBJECTID":20132},"geometry":{"x":159191.72000000067,"y":2559928.6199999992}},{"attributes":{"ID":20133,"DIS_CODE":0,"TOWNNAME":"七股區","LI":"龍山里","LIN":"17鄰","STREET":" ","SECT":" ","MAREA":"龍山","LANE":" ","ALLEY":" ","HOUSE_NO":"１６０號","E_COORD97":159189.20999999999,"N_COORD97":2559940.2000000002,"ADDRESS":"龍山１６０號","OBJECTID":20133},"geometry":{"x":159189.20999999996,"y":2559940.200000003}},{"attributes":{"ID":20134,"DIS_CODE":0,"TOWNNAME":"柳營區","LI":"光福里","LIN":"24鄰","STREET":"建安街","SECT":" ","MAREA":" ","LANE":" ","ALLEY":" ","HOUSE_NO":"２８號","E_COORD97":179773.67999999999,"N_COORD97":2574962.8399999999,"ADDRESS":"建安街２８號","OBJECTID":20134},"geometry":{"x":179773.68000000063,"y":2574962.8400000017}},{"attributes":{"ID":20135,"DIS_CODE":0,"TOWNNAME":"柳營區","LI":"光福里","LIN":"24鄰","STREET":"柳營路","SECT":"一段","MAREA":" ","LANE":" ","ALLEY":" ","HOUSE_NO":"８８６號","E_COORD97":179753.48000000001,"N_COORD97":2574850.8900000001,"ADDRESS":"柳營路一段８８６號","OBJECTID":20135},"geometry":{"x":179753.48000000138,"y":2574850.8900000043}},{"attributes":{"ID":20136,"DIS_CODE":0,"TOWNNAME":"柳營區","LI":"光福里","LIN":"24鄰","STREET":"柳營路","SECT":"一段","MAREA":" ","LANE":" ","ALLEY":" ","HOUSE_NO":"８８８號","E_COORD97":179752.14000000001,"N_COORD97":2574854.3999999999,"ADDRESS":"柳營路一段８８８號","OBJECTID":20136},"geometry":{"x":179752.13999999966,"y":2574854.4000000022}},{"attributes":{"ID":20137,"DIS_CODE":0,"TOWNNAME":"柳營區","LI":"光福里","LIN":"24鄰","STREET":"柳營路","SECT":"一段","MAREA":" ","LANE":" ","ALLEY":" ","HOUSE_NO":"８９０號","E_COORD97":179751.26000000001,"N_COORD97":2574858.48,"ADDRESS":"柳營路一段８９０號","OBJECTID":20137},"geometry":{"x":179751.26000000071,"y":2574858.4800000023}},{"attributes":{"ID":20138,"DIS_CODE":0,"TOWNNAME":"柳營區","LI":"光福里","LIN":"24鄰","STREET":"柳營路","SECT":"一段","MAREA":" ","LANE":" ","ALLEY":" ","HOUSE_NO":"８９２號","E_COORD97":179749.95999999999,"N_COORD97":2574862.4300000002,"ADDRESS":"柳營路一段８９２號","OBJECTID":20138},"geometry":{"x":179749.96000000089,"y":2574862.4299999997}},{"attributes":{"ID":20139,"DIS_CODE":0,"TOWNNAME":"柳營區","LI":"光福里","LIN":"24鄰","STREET":"柳營路","SECT":"一段","MAREA":" ","LANE":" ","ALLEY":" ","HOUSE_NO":"９０２號","E_COORD97":179755,"N_COORD97":2574880.5299999998,"ADDRESS":"柳營路一段９０２號","OBJECTID":20139},"geometry":{"x":179755,"y":2574880.5300000012}},{"attributes":{"ID":20140,"DIS_CODE":0,"TOWNNAME":"七股區","LI":"龍山里","LIN":"17鄰","STREET":" ","SECT":" ","MAREA":"龍山","LANE":" ","ALLEY":" ","HOUSE_NO":"１６３號","E_COORD97":159201.41,"N_COORD97":2559925.1899999999,"ADDRESS":"龍山１６３號","OBJECTID":20140},"geometry":{"x":159201.41000000108,"y":2559925.1899999995}},{"attributes":{"ID":20141,"DIS_CODE":0,"TOWNNAME":"七股區","LI":"龍山里","LIN":"17鄰","STREET":" ","SECT":" ","MAREA":"龍山","LANE":" ","ALLEY":" ","HOUSE_NO":"１６５號","E_COORD97":159155.20999999999,"N_COORD97":2560013,"ADDRESS":"龍山１６５號","OBJECTID":20141},"geometry":{"x":159155.21000000089,"y":2560012.9999999981}},{"attributes":{"ID":20142,"DIS_CODE":0,"TOWNNAME":"七股區","LI":"龍山里","LIN":"17鄰","STREET":" ","SECT":" ","MAREA":"龍山","LANE":" ","ALLEY":" ","HOUSE_NO":"１６６號之１","E_COORD97":159203.72,"N_COORD97":2559907.0099999998,"ADDRESS":"龍山１６６號之１","OBJECTID":20142},"geometry":{"x":159203.72000000067,"y":2559907.0099999998}},{"attributes":{"ID":20143,"DIS_CODE":0,"TOWNNAME":"七股區","LI":"龍山里","LIN":"17鄰","STREET":" ","SECT":" ","MAREA":"龍山","LANE":" ","ALLEY":" ","HOUSE_NO":"１６６號","E_COORD97":159203.60000000001,"N_COORD97":2559912.6699999999,"ADDRESS":"龍山１６６號","OBJECTID":20143},"geometry":{"x":159203.59999999963,"y":2559912.6699999999}},{"attributes":{"ID":20144,"DIS_CODE":0,"TOWNNAME":"七股區","LI":"龍山里","LIN":"17鄰","STREET":" ","SECT":" ","MAREA":"龍山","LANE":" ","ALLEY":" ","HOUSE_NO":"１６７號","E_COORD97":159172.26000000001,"N_COORD97":2559894.0499999998,"ADDRESS":"龍山１６７號","OBJECTID":20144},"geometry":{"x":159172.25999999978,"y":2559894.0500000007}},{"attributes":{"ID":20145,"DIS_CODE":0,"TOWNNAME":"七股區","LI":"龍山里","LIN":"17鄰","STREET":" ","SECT":" ","MAREA":"龍山","LANE":" ","ALLEY":" ","HOUSE_NO":"１６８號","E_COORD97":159170.28,"N_COORD97":2559904.5099999998,"ADDRESS":"龍山１６８號","OBJECTID":20145},"geometry":{"x":159170.28000000119,"y":2559904.5100000035}},{"attributes":{"ID":20146,"DIS_CODE":0,"TOWNNAME":"七股區","LI":"龍山里","LIN":"17鄰","STREET":" ","SECT":" ","MAREA":"龍山","LANE":" ","ALLEY":" ","HOUSE_NO":"１６９號之１","E_COORD97":159169.54000000001,"N_COORD97":2559928.2200000002,"ADDRESS":"龍山１６９號之１","OBJECTID":20146},"geometry":{"x":159169.54000000097,"y":2559928.2200000025}},{"attributes":{"ID":20147,"DIS_CODE":0,"TOWNNAME":"安南區","LI":"安富里","LIN":"14鄰","STREET":"安富街","SECT":" ","MAREA":" ","LANE":"２５１巷","ALLEY":"５６弄","HOUSE_NO":"１６號","E_COORD97":167497.09,"N_COORD97":2547300.5299999998,"ADDRESS":"安富街２５１巷５６弄１６號","OBJECTID":20147},"geometry":{"x":167497.08999999892,"y":2547300.5299999993}},{"attributes":{"ID":20148,"DIS_CODE":0,"TOWNNAME":"安南區","LI":"安富里","LIN":"14鄰","STREET":"安富街","SECT":" ","MAREA":" ","LANE":"２５１巷","ALLEY":"５６弄","HOUSE_NO":"１７號","E_COORD97":167491.04999999999,"N_COORD97":2547279.2200000002,"ADDRESS":"安富街２５１巷５６弄１７號","OBJECTID":20148},"geometry":{"x":167491.05000000075,"y":2547279.2200000025}},{"attributes":{"ID":20149,"DIS_CODE":0,"TOWNNAME":"七股區","LI":"龍山里","LIN":"17鄰","STREET":" ","SECT":" ","MAREA":"龍山","LANE":" ","ALLEY":" ","HOUSE_NO":"１６９號","E_COORD97":159174.95000000001,"N_COORD97":2559929.2599999998,"ADDRESS":"龍山１６９號","OBJECTID":20149},"geometry":{"x":159174.95000000019,"y":2559929.2599999998}},{"attributes":{"ID":20150,"DIS_CODE":0,"TOWNNAME":"七股區","LI":"龍山里","LIN":"17鄰","STREET":" ","SECT":" ","MAREA":"龍山","LANE":" ","ALLEY":" ","HOUSE_NO":"１７０號之１０","E_COORD97":159151.89000000001,"N_COORD97":2560017.9199999999,"ADDRESS":"龍山１７０號之１０","OBJECTID":20150},"geometry":{"x":159151.8900000006,"y":2560017.9200000018}},{"attributes":{"ID":20151,"DIS_CODE":0,"TOWNNAME":"安南區","LI":"安富里","LIN":"14鄰","STREET":"安富街","SECT":" ","MAREA":" ","LANE":"２５１巷","ALLEY":"５６弄","HOUSE_NO":"１８號","E_COORD97":167486.87,"N_COORD97":2547298.73,"ADDRESS":"安富街２５１巷５６弄１８號","OBJECTID":20151},"geometry":{"x":167486.87000000011,"y":2547298.7300000023}},{"attributes":{"ID":20152,"DIS_CODE":0,"TOWNNAME":"七股區","LI":"龍山里","LIN":"17鄰","STREET":" ","SECT":" ","MAREA":"龍山","LANE":" ","ALLEY":" ","HOUSE_NO":"１７０號之１３","E_COORD97":159136.92000000001,"N_COORD97":2560011.0600000001,"ADDRESS":"龍山１７０號之１３","OBJECTID":20152},"geometry":{"x":159136.91999999993,"y":2560011.0600000024}},{"attributes":{"ID":20153,"DIS_CODE":0,"TOWNNAME":"七股區","LI":"龍山里","LIN":"17鄰","STREET":" ","SECT":" ","MAREA":"龍山","LANE":" ","ALLEY":" ","HOUSE_NO":"１７０號之１４","E_COORD97":159130.20999999999,"N_COORD97":2560003.1899999999,"ADDRESS":"龍山１７０號之１４","OBJECTID":20153},"geometry":{"x":159130.20999999996,"y":2560003.1899999995}},{"attributes":{"ID":20154,"DIS_CODE":0,"TOWNNAME":"七股區","LI":"龍山里","LIN":"17鄰","STREET":" ","SECT":" ","MAREA":"龍山","LANE":" ","ALLEY":" ","HOUSE_NO":"１７０號之１５","E_COORD97":159124.75,"N_COORD97":2559997.0099999998,"ADDRESS":"龍山１７０號之１５","OBJECTID":20154},"geometry":{"x":159124.75,"y":2559997.0100000016}},{"attributes":{"ID":20155,"DIS_CODE":0,"TOWNNAME":"安南區","LI":"安富里","LIN":"14鄰","STREET":"安富街","SECT":" ","MAREA":" ","LANE":"２５１巷","ALLEY":"５６弄","HOUSE_NO":"１９號","E_COORD97":167485.34,"N_COORD97":2547277.4100000001,"ADDRESS":"安富街２５１巷５６弄１９號","OBJECTID":20155},"geometry":{"x":167485.34000000171,"y":2547277.410000002}},{"attributes":{"ID":20156,"DIS_CODE":0,"TOWNNAME":"七股區","LI":"龍山里","LIN":"17鄰","STREET":" ","SECT":" ","MAREA":"龍山","LANE":" ","ALLEY":" ","HOUSE_NO":"１７０號之１６","E_COORD97":159119.63,"N_COORD97":2559990.9900000002,"ADDRESS":"龍山１７０號之１６","OBJECTID":20156},"geometry":{"x":159119.63000000082,"y":2559990.9900000021}},{"attributes":{"ID":20157,"DIS_CODE":0,"TOWNNAME":"七股區","LI":"龍山里","LIN":"17鄰","STREET":" ","SECT":" ","MAREA":"龍山","LANE":" ","ALLEY":" ","HOUSE_NO":"１７０號之５","E_COORD97":159167.12,"N_COORD97":2559984.2799999998,"ADDRESS":"龍山１７０號之５","OBJECTID":20157},"geometry":{"x":159167.12000000197,"y":2559984.2800000012}},{"attributes":{"ID":20158,"DIS_CODE":0,"TOWNNAME":"七股區","LI":"龍山里","LIN":"17鄰","STREET":" ","SECT":" ","MAREA":"龍山","LANE":" ","ALLEY":" ","HOUSE_NO":"１７０號","E_COORD97":159186.60000000001,"N_COORD97":2559949.5499999998,"ADDRESS":"龍山１７０號","OBJECTID":20158},"geometry":{"x":159186.59999999963,"y":2559949.5500000045}},{"attributes":{"ID":20159,"DIS_CODE":0,"TOWNNAME":"七股區","LI":"龍山里","LIN":"17鄰","STREET":" ","SECT":" ","MAREA":"龍山","LANE":" ","ALLEY":" ","HOUSE_NO":"１７１號","E_COORD97":159162.75,"N_COORD97":2559955.0499999998,"ADDRESS":"龍山１７１號","OBJECTID":20159},"geometry":{"x":159162.75000000186,"y":2559955.0500000007}},{"attributes":{"ID":20160,"DIS_CODE":0,"TOWNNAME":"安南區","LI":"安富里","LIN":"14鄰","STREET":"安富街","SECT":" ","MAREA":" ","LANE":"２５１巷","ALLEY":"５６弄","HOUSE_NO":"１號","E_COORD97":167537.07000000001,"N_COORD97":2547288.2200000002,"ADDRESS":"安富街２５１巷５６弄１號","OBJECTID":20160},"geometry":{"x":167537.07000000123,"y":2547288.2199999988}},{"attributes":{"ID":20161,"DIS_CODE":0,"TOWNNAME":"安南區","LI":"安富里","LIN":"14鄰","STREET":"安富街","SECT":" ","MAREA":" ","LANE":"２５１巷","ALLEY":"５６弄","HOUSE_NO":"２０號","E_COORD97":167481.45000000001,"N_COORD97":2547297.8300000001,"ADDRESS":"安富街２５１巷５６弄２０號","OBJECTID":20161},"geometry":{"x":167481.45000000205,"y":2547297.8300000019}},{"attributes":{"ID":20162,"DIS_CODE":0,"TOWNNAME":"安南區","LI":"安富里","LIN":"14鄰","STREET":"安富街","SECT":" ","MAREA":" ","LANE":"２５１巷","ALLEY":"５６弄","HOUSE_NO":"２１號","E_COORD97":167480.22,"N_COORD97":2547276.5099999998,"ADDRESS":"安富街２５１巷５６弄２１號","OBJECTID":20162},"geometry":{"x":167480.21999999974,"y":2547276.5100000016}},{"attributes":{"ID":20163,"DIS_CODE":0,"TOWNNAME":"安南區","LI":"安富里","LIN":"14鄰","STREET":"安富街","SECT":" ","MAREA":" ","LANE":"２５１巷","ALLEY":"５６弄","HOUSE_NO":"２３號","E_COORD97":167475.41,"N_COORD97":2547274.71,"ADDRESS":"安富街２５１巷５６弄２３號","OBJECTID":20163},"geometry":{"x":167475.41000000108,"y":2547274.7100000009}},{"attributes":{"ID":20164,"DIS_CODE":0,"TOWNNAME":"安南區","LI":"安富里","LIN":"14鄰","STREET":"安富街","SECT":" ","MAREA":" ","LANE":"２５１巷","ALLEY":"５６弄","HOUSE_NO":"２４號","E_COORD97":167470.92000000001,"N_COORD97":2547296.0299999998,"ADDRESS":"安富街２５１巷５６弄２４號","OBJECTID":20164},"geometry":{"x":167470.91999999993,"y":2547296.0300000012}},{"attributes":{"ID":20165,"DIS_CODE":0,"TOWNNAME":"安南區","LI":"安富里","LIN":"14鄰","STREET":"安富街","SECT":" ","MAREA":" ","LANE":"２５１巷","ALLEY":"５６弄","HOUSE_NO":"２６號","E_COORD97":167466.41,"N_COORD97":2547293.9300000002,"ADDRESS":"安富街２５１巷５６弄２６號","OBJECTID":20165},"geometry":{"x":167466.40999999922,"y":2547293.9300000016}},{"attributes":{"ID":20166,"DIS_CODE":0,"TOWNNAME":"安南區","LI":"安富里","LIN":"14鄰","STREET":"安富街","SECT":" ","MAREA":" ","LANE":"２５１巷","ALLEY":"５６弄","HOUSE_NO":"２７號","E_COORD97":167464.57999999999,"N_COORD97":2547275.0099999998,"ADDRESS":"安富街２５１巷５６弄２７號","OBJECTID":20166},"geometry":{"x":167464.58000000007,"y":2547275.0099999998}},{"attributes":{"ID":20167,"DIS_CODE":0,"TOWNNAME":"安南區","LI":"安富里","LIN":"14鄰","STREET":"安富街","SECT":" ","MAREA":" ","LANE":"２５１巷","ALLEY":"５６弄","HOUSE_NO":"２８號","E_COORD97":167460.70000000001,"N_COORD97":2547294.23,"ADDRESS":"安富街２５１巷５６弄２８號","OBJECTID":20167},"geometry":{"x":167460.70000000019,"y":2547294.2300000004}},{"attributes":{"ID":20168,"DIS_CODE":0,"TOWNNAME":"安南區","LI":"安富里","LIN":"14鄰","STREET":"安富街","SECT":" ","MAREA":" ","LANE":"２５１巷","ALLEY":"５６弄","HOUSE_NO":"２９號","E_COORD97":167460.07000000001,"N_COORD97":2547272.3100000001,"ADDRESS":"安富街２５１巷５６弄２９號","OBJECTID":20168},"geometry":{"x":167460.0700000003,"y":2547272.3100000024}},{"attributes":{"ID":20169,"DIS_CODE":0,"TOWNNAME":"安南區","LI":"安富里","LIN":"14鄰","STREET":"安富街","SECT":" ","MAREA":" ","LANE":"２５１巷","ALLEY":"５６弄","HOUSE_NO":"３０號","E_COORD97":167455.29000000001,"N_COORD97":2547293.6299999999,"ADDRESS":"安富街２５１巷５６弄３０號","OBJECTID":20169},"geometry":{"x":167455.2900000019,"y":2547293.629999999}},{"attributes":{"ID":20170,"DIS_CODE":0,"TOWNNAME":"安南區","LI":"安富里","LIN":"14鄰","STREET":"安富街","SECT":" ","MAREA":" ","LANE":"２５１巷","ALLEY":"５６弄","HOUSE_NO":"３２號","E_COORD97":167450.47,"N_COORD97":2547292.1299999999,"ADDRESS":"安富街２５１巷５６弄３２號","OBJECTID":20170},"geometry":{"x":167450.4700000016,"y":2547292.1300000008}},{"attributes":{"ID":20171,"DIS_CODE":0,"TOWNNAME":"新營區","LI":"新東里","LIN":"15鄰","STREET":"東智街","SECT":" ","MAREA":" ","LANE":" ","ALLEY":" ","HOUSE_NO":"２８號","E_COORD97":180997.04999999999,"N_COORD97":2579641.1499999999,"ADDRESS":"東智街２８號","OBJECTID":20171},"geometry":{"x":180997.04999999981,"y":2579641.1500000022}},{"attributes":{"ID":20172,"DIS_CODE":0,"TOWNNAME":"新營區","LI":"大宏里","LIN":"15鄰","STREET":"綠川北街","SECT":" ","MAREA":" ","LANE":" ","ALLEY":" ","HOUSE_NO":"３１號","E_COORD97":180659.66,"N_COORD97":2578788.8900000001,"ADDRESS":"綠川北街３１號","OBJECTID":20172},"geometry":{"x":180659.66000000015,"y":2578788.8900000006}},{"attributes":{"ID":20173,"DIS_CODE":0,"TOWNNAME":"新營區","LI":"新東里","LIN":"15鄰","STREET":"東泰三街","SECT":" ","MAREA":" ","LANE":" ","ALLEY":" ","HOUSE_NO":"２７號","E_COORD97":181058.92000000001,"N_COORD97":2579594.5800000001,"ADDRESS":"東泰三街２７號","OBJECTID":20173},"geometry":{"x":181058.92000000086,"y":2579594.5800000001}},{"attributes":{"ID":20174,"DIS_CODE":0,"TOWNNAME":"新營區","LI":"延平里","LIN":"15鄰","STREET":"中原街","SECT":" ","MAREA":" ","LANE":" ","ALLEY":" ","HOUSE_NO":"１之３號","E_COORD97":179521.73999999999,"N_COORD97":2578004.71,"ADDRESS":"中原街１之３號","OBJECTID":20174},"geometry":{"x":179521.74000000022,"y":2578004.7100000009}},{"attributes":{"ID":20175,"DIS_CODE":0,"TOWNNAME":"新營區","LI":"中營里","LIN":"15鄰","STREET":"開元路","SECT":" ","MAREA":" ","LANE":" ","ALLEY":" ","HOUSE_NO":"１２４號","E_COORD97":181715.54000000001,"N_COORD97":2579492.75,"ADDRESS":"開元路１２４號","OBJECTID":20175},"geometry":{"x":181715.54000000097,"y":2579492.7500000037}},{"attributes":{"ID":20176,"DIS_CODE":0,"TOWNNAME":"北區","LI":"成功里","LIN":"5鄰","STREET":"北成路","SECT":" ","MAREA":" ","LANE":" ","ALLEY":" ","HOUSE_NO":"４３號","E_COORD97":169082.10000000001,"N_COORD97":2546569.3300000001,"ADDRESS":"北成路４３號","OBJECTID":20176},"geometry":{"x":169082.10000000056,"y":2546569.3300000019}},{"attributes":{"ID":20177,"DIS_CODE":0,"TOWNNAME":"安南區","LI":"安富里","LIN":"14鄰","STREET":"安富街","SECT":" ","MAREA":" ","LANE":"２５１巷","ALLEY":"５６弄","HOUSE_NO":"３４號","E_COORD97":167434.63,"N_COORD97":2547290.79,"ADDRESS":"安富街２５１巷５６弄３４號","OBJECTID":20177},"geometry":{"x":167434.63000000082,"y":2547290.790000001}},{"attributes":{"ID":20178,"DIS_CODE":0,"TOWNNAME":"安南區","LI":"安富里","LIN":"14鄰","STREET":"安富街","SECT":" ","MAREA":" ","LANE":"２５１巷","ALLEY":"５６弄","HOUSE_NO":"３６號","E_COORD97":167430.06,"N_COORD97":2547289.4199999999,"ADDRESS":"安富街２５１巷５６弄３６號","OBJECTID":20178},"geometry":{"x":167430.06000000052,"y":2547289.4199999981}},{"attributes":{"ID":20179,"DIS_CODE":0,"TOWNNAME":"安南區","LI":"安富里","LIN":"14鄰","STREET":"安富街","SECT":" ","MAREA":" ","LANE":"２５１巷","ALLEY":"５６弄","HOUSE_NO":"３７號","E_COORD97":167425.95000000001,"N_COORD97":2547268.8799999999,"ADDRESS":"安富街２５１巷５６弄３７號","OBJECTID":20179},"geometry":{"x":167425.95000000112,"y":2547268.8800000008}},{"attributes":{"ID":20180,"DIS_CODE":0,"TOWNNAME":"安南區","LI":"安富里","LIN":"14鄰","STREET":"安富街","SECT":" ","MAREA":" ","LANE":"２５１巷","ALLEY":"５６弄","HOUSE_NO":"３８號","E_COORD97":167424.79999999999,"N_COORD97":2547288.73,"ADDRESS":"安富街２５１巷５６弄３８號","OBJECTID":20180},"geometry":{"x":167424.80000000075,"y":2547288.7300000023}},{"attributes":{"ID":20181,"DIS_CODE":0,"TOWNNAME":"安南區","LI":"安富里","LIN":"14鄰","STREET":"安富街","SECT":" ","MAREA":" ","LANE":"２５１巷","ALLEY":"５６弄","HOUSE_NO":"３９號","E_COORD97":167417.26000000001,"N_COORD97":2547267.5099999998,"ADDRESS":"安富街２５１巷５６弄３９號","OBJECTID":20181},"geometry":{"x":167417.25999999978,"y":2547267.5099999998}},{"attributes":{"ID":20182,"DIS_CODE":0,"TOWNNAME":"安南區","LI":"安富里","LIN":"14鄰","STREET":"安富街","SECT":" ","MAREA":" ","LANE":"２５１巷","ALLEY":"５６弄","HOUSE_NO":"４０號","E_COORD97":167419.54999999999,"N_COORD97":2547287.8199999998,"ADDRESS":"安富街２５１巷５６弄４０號","OBJECTID":20182},"geometry":{"x":167419.55000000168,"y":2547287.8200000022}},{"attributes":{"ID":20183,"DIS_CODE":0,"TOWNNAME":"安南區","LI":"安富里","LIN":"14鄰","STREET":"安富街","SECT":" ","MAREA":" ","LANE":"２５１巷","ALLEY":"５６弄","HOUSE_NO":"４１號","E_COORD97":167409.03,"N_COORD97":2547266.1499999999,"ADDRESS":"安富街２５１巷５６弄４１號","OBJECTID":20183},"geometry":{"x":167409.03000000026,"y":2547266.1500000022}},{"attributes":{"ID":20184,"DIS_CODE":0,"TOWNNAME":"安南區","LI":"安富里","LIN":"14鄰","STREET":"安富街","SECT":" ","MAREA":" ","LANE":"２５１巷","ALLEY":"５６弄","HOUSE_NO":"４２號","E_COORD97":167414.98000000001,"N_COORD97":2547286.6800000002,"ADDRESS":"安富街２５１巷５６弄４２號","OBJECTID":20184},"geometry":{"x":167414.98000000045,"y":2547286.6799999997}},{"attributes":{"ID":20185,"DIS_CODE":0,"TOWNNAME":"安南區","LI":"安富里","LIN":"14鄰","STREET":"安富街","SECT":" ","MAREA":" ","LANE":"２５１巷","ALLEY":"５６弄","HOUSE_NO":"４３號","E_COORD97":167401.95000000001,"N_COORD97":2547264.3199999998,"ADDRESS":"安富街２５１巷５６弄４３號","OBJECTID":20185},"geometry":{"x":167401.95000000205,"y":2547264.3200000022}},{"attributes":{"ID":20186,"DIS_CODE":0,"TOWNNAME":"安南區","LI":"安富里","LIN":"14鄰","STREET":"安富街","SECT":" ","MAREA":" ","LANE":"２５１巷","ALLEY":"５６弄","HOUSE_NO":"４４號","E_COORD97":167409.72,"N_COORD97":2547285.77,"ADDRESS":"安富街２５１巷５６弄４４號","OBJECTID":20186},"geometry":{"x":167409.7200000016,"y":2547285.7699999996}},{"attributes":{"ID":20187,"DIS_CODE":0,"TOWNNAME":"安南區","LI":"安富里","LIN":"14鄰","STREET":"安富街","SECT":" ","MAREA":" ","LANE":"２５１巷","ALLEY":"５６弄","HOUSE_NO":"４６號","E_COORD97":167405.14999999999,"N_COORD97":2547283.9399999999,"ADDRESS":"安富街２５１巷５６弄４６號","OBJECTID":20187},"geometry":{"x":167405.15000000037,"y":2547283.9400000013}},{"attributes":{"ID":20188,"DIS_CODE":0,"TOWNNAME":"安南區","LI":"安富里","LIN":"14鄰","STREET":"安富街","SECT":" ","MAREA":" ","LANE":"２５１巷","ALLEY":"５６弄","HOUSE_NO":"４８號","E_COORD97":167399.66,"N_COORD97":2547282.3500000001,"ADDRESS":"安富街２５１巷５６弄４８號","OBJECTID":20188},"geometry":{"x":167399.66000000015,"y":2547282.3499999996}},{"attributes":{"ID":20189,"DIS_CODE":0,"TOWNNAME":"安南區","LI":"安富里","LIN":"14鄰","STREET":"安富街","SECT":" ","MAREA":" ","LANE":"２５１巷","ALLEY":"５６弄","HOUSE_NO":"４９號","E_COORD97":167375.89999999999,"N_COORD97":2547260.8999999999,"ADDRESS":"安富街２５１巷５６弄４９號","OBJECTID":20189},"geometry":{"x":167375.9000000013,"y":2547260.9000000022}},{"attributes":{"ID":20190,"DIS_CODE":0,"TOWNNAME":"安南區","LI":"安富里","LIN":"14鄰","STREET":"安富街","SECT":" ","MAREA":" ","LANE":"２５１巷","ALLEY":"５６弄","HOUSE_NO":"４號","E_COORD97":167528.07000000001,"N_COORD97":2547307.1400000001,"ADDRESS":"安富街２５１巷５６弄４號","OBJECTID":20190},"geometry":{"x":167528.0700000003,"y":2547307.1400000025}},{"attributes":{"ID":20191,"DIS_CODE":0,"TOWNNAME":"關廟區","LI":"龜洞里","LIN":"7鄰","STREET":"南雄南路","SECT":" ","MAREA":" ","LANE":"７０１巷","ALLEY":"１６弄","HOUSE_NO":"９號","E_COORD97":183355.406716,"N_COORD97":2533397.28358,"ADDRESS":"南雄南路７０１巷１６弄９號","OBJECTID":20191},"geometry":{"x":183355.40671600029,"y":2533397.2835800033}},{"attributes":{"ID":20192,"DIS_CODE":0,"TOWNNAME":"安南區","LI":"安富里","LIN":"14鄰","STREET":"安富街","SECT":" ","MAREA":" ","LANE":"２５１巷","ALLEY":"５６弄","HOUSE_NO":"５０號","E_COORD97":167388.92000000001,"N_COORD97":2547281.4300000002,"ADDRESS":"安富街２５１巷５６弄５０號","OBJECTID":20192},"geometry":{"x":167388.92000000086,"y":2547281.4299999997}},{"attributes":{"ID":20193,"DIS_CODE":0,"TOWNNAME":"安南區","LI":"安富里","LIN":"14鄰","STREET":"安富街","SECT":" ","MAREA":" ","LANE":"２５１巷","ALLEY":"５６弄","HOUSE_NO":"５１號","E_COORD97":167367.67000000001,"N_COORD97":2547259.9900000002,"ADDRESS":"安富街２５１巷５６弄５１號","OBJECTID":20193},"geometry":{"x":167367.66999999993,"y":2547259.9900000021}},{"attributes":{"ID":20194,"DIS_CODE":0,"TOWNNAME":"安南區","LI":"安富里","LIN":"14鄰","STREET":"安富街","SECT":" ","MAREA":" ","LANE":"２５１巷","ALLEY":"５６弄","HOUSE_NO":"５２號","E_COORD97":167383.44,"N_COORD97":2547279.8399999999,"ADDRESS":"安富街２５１巷５６弄５２號","OBJECTID":20194},"geometry":{"x":167383.44000000227,"y":2547279.8400000036}},{"attributes":{"ID":20195,"DIS_CODE":0,"TOWNNAME":"安南區","LI":"安富里","LIN":"14鄰","STREET":"安富街","SECT":" ","MAREA":" ","LANE":"２５１巷","ALLEY":"５６弄","HOUSE_NO":"５６號","E_COORD97":167372.47,"N_COORD97":2547278.7000000002,"ADDRESS":"安富街２５１巷５６弄５６號","OBJECTID":20195},"geometry":{"x":167372.4700000016,"y":2547278.6999999993}},{"attributes":{"ID":20196,"DIS_CODE":0,"TOWNNAME":"安南區","LI":"安富里","LIN":"14鄰","STREET":"安富街","SECT":" ","MAREA":" ","LANE":"２５１巷","ALLEY":"５６弄","HOUSE_NO":"５８號","E_COORD97":167368.13,"N_COORD97":2547277.7799999998,"ADDRESS":"安富街２５１巷５６弄５８號","OBJECTID":20196},"geometry":{"x":167368.13000000175,"y":2547277.7800000012}},{"attributes":{"ID":20197,"DIS_CODE":0,"TOWNNAME":"安南區","LI":"安富里","LIN":"14鄰","STREET":"安富街","SECT":" ","MAREA":" ","LANE":"２５１巷","ALLEY":"５６弄","HOUSE_NO":"５號","E_COORD97":167527.14000000001,"N_COORD97":2547284.6099999999,"ADDRESS":"安富街２５１巷５６弄５號","OBJECTID":20197},"geometry":{"x":167527.14000000153,"y":2547284.6100000031}},{"attributes":{"ID":20198,"DIS_CODE":0,"TOWNNAME":"安南區","LI":"安富里","LIN":"14鄰","STREET":"安富街","SECT":" ","MAREA":" ","LANE":"２５１巷","ALLEY":"５６弄","HOUSE_NO":"６０號","E_COORD97":167362.41,"N_COORD97":2547276.6400000001,"ADDRESS":"安富街２５１巷５６弄６０號","OBJECTID":20198},"geometry":{"x":167362.41000000015,"y":2547276.6400000025}},{"attributes":{"ID":20199,"DIS_CODE":0,"TOWNNAME":"安南區","LI":"安富里","LIN":"14鄰","STREET":"安富街","SECT":" ","MAREA":" ","LANE":"２５１巷","ALLEY":"５６弄","HOUSE_NO":"６號","E_COORD97":167523.26000000001,"N_COORD97":2547304.4399999999,"ADDRESS":"安富街２５１巷５６弄６號","OBJECTID":20199},"geometry":{"x":167523.26000000071,"y":2547304.4399999995}},{"attributes":{"ID":20200,"DIS_CODE":0,"TOWNNAME":"新營區","LI":"大宏里","LIN":"24鄰","STREET":"民治路","SECT":" ","MAREA":" ","LANE":" ","ALLEY":" ","HOUSE_NO":"３號之２６","E_COORD97":180593.34,"N_COORD97":2578783.7200000002,"ADDRESS":"民治路３號之２６","OBJECTID":20200},"geometry":{"x":180593.34000000078,"y":2578783.7200000007}}]}