{"displayFieldName":"TOWNNAME","fieldAliases":{"ID":"ID","DIS_CODE":"DIS_CODE","TOWNNAME":"TOWNNAME","LI":"LI","LIN":"LIN","STREET":"STREET","SECT":"SECT","MAREA":"MAREA","LANE":"LANE","ALLEY":"ALLEY","HOUSE_NO":"HOUSE_NO","E_COORD97":"E_COORD97","N_COORD97":"N_COORD97","ADDRESS":"ADDRESS","OBJECTID":"OBJECTID"},"geometryType":"esriGeometryPoint","spatialReference":{"wkid":102443,"latestWkid":3826},"fields":[{"name":"ID","type":"esriFieldTypeDouble","alias":"ID"},{"name":"DIS_CODE","type":"esriFieldTypeInteger","alias":"DIS_CODE"},{"name":"TOWNNAME","type":"esriFieldTypeString","alias":"TOWNNAME","length":8},{"name":"LI","type":"esriFieldTypeString","alias":"LI","length":8},{"name":"LIN","type":"esriFieldTypeString","alias":"LIN","length":12},{"name":"STREET","type":"esriFieldTypeString","alias":"STREET","length":20},{"name":"SECT","type":"esriFieldTypeString","alias":"SECT","length":8},{"name":"MAREA","type":"esriFieldTypeString","alias":"MAREA","length":12},{"name":"LANE","type":"esriFieldTypeString","alias":"LANE","length":10},{"name":"ALLEY","type":"esriFieldTypeString","alias":"ALLEY","length":10},{"name":"HOUSE_NO","type":"esriFieldTypeString","alias":"HOUSE_NO","length":20},{"name":"E_COORD97","type":"esriFieldTypeDouble","alias":"E_COORD97"},{"name":"N_COORD97","type":"esriFieldTypeDouble","alias":"N_COORD97"},{"name":"ADDRESS","type":"esriFieldTypeString","alias":"ADDRESS","length":50},{"name":"OBJECTID","type":"esriFieldTypeOID","alias":"OBJECTID"}],"features":[{"attributes":{"ID":412625,"DIS_CODE":0,"TOWNNAME":"南區","LI":"田寮里","LIN":"3鄰","STREET":"新興路","SECT":" ","MAREA":" ","LANE":"２６５巷","ALLEY":" ","HOUSE_NO":"７６號","E_COORD97":167428.57000000001,"N_COORD97":2541798.0699999998,"ADDRESS":"新興路２６５巷７６號","OBJECTID":412601},"geometry":{"x":167428.57000000123,"y":2541798.0700000022}},{"attributes":{"ID":412626,"DIS_CODE":0,"TOWNNAME":"南區","LI":"田寮里","LIN":"3鄰","STREET":"新興路","SECT":" ","MAREA":" ","LANE":"２６５巷","ALLEY":" ","HOUSE_NO":"７８號","E_COORD97":167431.82999999999,"N_COORD97":2541796.21,"ADDRESS":"新興路２６５巷７８號","OBJECTID":412602},"geometry":{"x":167431.83000000101,"y":2541796.2100000046}},{"attributes":{"ID":412627,"DIS_CODE":0,"TOWNNAME":"南區","LI":"田寮里","LIN":"3鄰","STREET":"新興路","SECT":" ","MAREA":" ","LANE":"２６５巷","ALLEY":" ","HOUSE_NO":"８０號","E_COORD97":167436.57000000001,"N_COORD97":2541795.2000000002,"ADDRESS":"新興路２６５巷８０號","OBJECTID":412603},"geometry":{"x":167436.5700000003,"y":2541795.2000000011}},{"attributes":{"ID":412628,"DIS_CODE":0,"TOWNNAME":"南區","LI":"田寮里","LIN":"3鄰","STREET":"新興路","SECT":" ","MAREA":" ","LANE":"２６５巷","ALLEY":" ","HOUSE_NO":"８２號","E_COORD97":167440.84,"N_COORD97":2541793.8100000001,"ADDRESS":"新興路２６５巷８２號","OBJECTID":412604},"geometry":{"x":167440.83999999985,"y":2541793.8100000005}},{"attributes":{"ID":412629,"DIS_CODE":0,"TOWNNAME":"南區","LI":"田寮里","LIN":"3鄰","STREET":"新興路","SECT":" ","MAREA":" ","LANE":"２６５巷","ALLEY":" ","HOUSE_NO":"８４號","E_COORD97":167445.26999999999,"N_COORD97":2541792.3300000001,"ADDRESS":"新興路２６５巷８４號","OBJECTID":412605},"geometry":{"x":167445.27000000048,"y":2541792.3300000019}},{"attributes":{"ID":412630,"DIS_CODE":0,"TOWNNAME":"南區","LI":"田寮里","LIN":"3鄰","STREET":"新興路","SECT":" ","MAREA":" ","LANE":"２６５巷","ALLEY":" ","HOUSE_NO":"８６號","E_COORD97":167449.62,"N_COORD97":2541791.3300000001,"ADDRESS":"新興路２６５巷８６號","OBJECTID":412606},"geometry":{"x":167449.62000000011,"y":2541791.3300000038}},{"attributes":{"ID":412631,"DIS_CODE":0,"TOWNNAME":"北區","LI":"玉皇里","LIN":"13鄰","STREET":"公園路","SECT":" ","MAREA":" ","LANE":" ","ALLEY":" ","HOUSE_NO":"２０９號","E_COORD97":168781.51000000001,"N_COORD97":2544451.71,"ADDRESS":"公園路２０９號","OBJECTID":412607},"geometry":{"x":168781.51000000071,"y":2544451.7100000028}},{"attributes":{"ID":412632,"DIS_CODE":0,"TOWNNAME":"永康區","LI":"崑山里","LIN":"40鄰","STREET":"國光五街","SECT":" ","MAREA":" ","LANE":"９巷","ALLEY":" ","HOUSE_NO":"４號","E_COORD97":174172.25,"N_COORD97":2545055.98,"ADDRESS":"國光五街９巷４號","OBJECTID":412608},"geometry":{"x":174172.25000000093,"y":2545055.9800000023}},{"attributes":{"ID":412633,"DIS_CODE":0,"TOWNNAME":"南區","LI":"田寮里","LIN":"3鄰","STREET":"夏林路","SECT":" ","MAREA":" ","LANE":"３１０巷","ALLEY":" ","HOUSE_NO":"１６號","E_COORD97":167451.85999999999,"N_COORD97":2541815.9500000002,"ADDRESS":"夏林路３１０巷１６號","OBJECTID":412609},"geometry":{"x":167451.8600000022,"y":2541815.9499999993}},{"attributes":{"ID":412634,"DIS_CODE":0,"TOWNNAME":"南區","LI":"田寮里","LIN":"3鄰","STREET":"夏林路","SECT":" ","MAREA":" ","LANE":"３１０巷","ALLEY":" ","HOUSE_NO":"１２號","E_COORD97":167452.69,"N_COORD97":2541819.6600000001,"ADDRESS":"夏林路３１０巷１２號","OBJECTID":412610},"geometry":{"x":167452.69000000041,"y":2541819.6600000039}},{"attributes":{"ID":412635,"DIS_CODE":0,"TOWNNAME":"南區","LI":"田寮里","LIN":"3鄰","STREET":"夏林路","SECT":" ","MAREA":" ","LANE":"３１０巷","ALLEY":" ","HOUSE_NO":"１８號","E_COORD97":167450.01000000001,"N_COORD97":2541810.5800000001,"ADDRESS":"夏林路３１０巷１８號","OBJECTID":412611},"geometry":{"x":167450.00999999978,"y":2541810.5800000019}},{"attributes":{"ID":412636,"DIS_CODE":0,"TOWNNAME":"永康區","LI":"北灣里","LIN":"2鄰","STREET":"大灣路","SECT":" ","MAREA":" ","LANE":"１１９巷","ALLEY":" ","HOUSE_NO":"５２號","E_COORD97":175289.42999999999,"N_COORD97":2545535.0899999999,"ADDRESS":"大灣路１１９巷５２號","OBJECTID":412612},"geometry":{"x":175289.43000000063,"y":2545535.0899999999}},{"attributes":{"ID":412637,"DIS_CODE":0,"TOWNNAME":"永康區","LI":"北灣里","LIN":"20鄰","STREET":"大同街","SECT":" ","MAREA":" ","LANE":"３１５巷","ALLEY":" ","HOUSE_NO":"３號","E_COORD97":174718.84,"N_COORD97":2546003.8799999999,"ADDRESS":"大同街３１５巷３號","OBJECTID":412613},"geometry":{"x":174718.84000000078,"y":2546003.8800000027}},{"attributes":{"ID":412638,"DIS_CODE":0,"TOWNNAME":"永康區","LI":"北灣里","LIN":"39鄰","STREET":"永大路","SECT":"二段","MAREA":" ","LANE":"９８６巷","ALLEY":" ","HOUSE_NO":"２２號","E_COORD97":174547.35000000001,"N_COORD97":2546357.0899999999,"ADDRESS":"永大路二段９８６巷２２號","OBJECTID":412614},"geometry":{"x":174547.35000000056,"y":2546357.0900000017}},{"attributes":{"ID":412639,"DIS_CODE":0,"TOWNNAME":"永康區","LI":"永康里","LIN":"1鄰","STREET":"永埔街","SECT":" ","MAREA":" ","LANE":"３３巷","ALLEY":" ","HOUSE_NO":"２號","E_COORD97":173998.98000000001,"N_COORD97":2547548.25,"ADDRESS":"永埔街３３巷２號","OBJECTID":412615},"geometry":{"x":173998.98000000045,"y":2547548.25}},{"attributes":{"ID":412640,"DIS_CODE":0,"TOWNNAME":"永康區","LI":"北灣里","LIN":"33鄰","STREET":"大灣路","SECT":" ","MAREA":" ","LANE":"５１巷","ALLEY":" ","HOUSE_NO":"７號","E_COORD97":175305.17999999999,"N_COORD97":2545800.1000000001,"ADDRESS":"大灣路５１巷７號","OBJECTID":412616},"geometry":{"x":175305.18000000063,"y":2545800.1000000015}},{"attributes":{"ID":412641,"DIS_CODE":0,"TOWNNAME":"南區","LI":"田寮里","LIN":"3鄰","STREET":"新興路","SECT":" ","MAREA":" ","LANE":"２６５巷","ALLEY":" ","HOUSE_NO":"２５號","E_COORD97":167303.76999999999,"N_COORD97":2541858.0699999998,"ADDRESS":"新興路２６５巷２５號","OBJECTID":412617},"geometry":{"x":167303.76999999955,"y":2541858.0700000022}},{"attributes":{"ID":412642,"DIS_CODE":0,"TOWNNAME":"南區","LI":"田寮里","LIN":"3鄰","STREET":"新興路","SECT":" ","MAREA":" ","LANE":"２６５巷","ALLEY":" ","HOUSE_NO":"２７號","E_COORD97":167305.89999999999,"N_COORD97":2541862.6400000001,"ADDRESS":"新興路２６５巷２７號","OBJECTID":412618},"geometry":{"x":167305.9000000013,"y":2541862.6400000006}},{"attributes":{"ID":412643,"DIS_CODE":0,"TOWNNAME":"南區","LI":"田寮里","LIN":"3鄰","STREET":"新興路","SECT":" ","MAREA":" ","LANE":"２６５巷","ALLEY":" ","HOUSE_NO":"２９號","E_COORD97":167306.72,"N_COORD97":2541867.2200000002,"ADDRESS":"新興路２６５巷２９號","OBJECTID":412619},"geometry":{"x":167306.72000000067,"y":2541867.2200000044}},{"attributes":{"ID":412644,"DIS_CODE":0,"TOWNNAME":"南區","LI":"田寮里","LIN":"3鄰","STREET":"新興路","SECT":" ","MAREA":" ","LANE":"２６５巷","ALLEY":" ","HOUSE_NO":"３１號","E_COORD97":167308.35999999999,"N_COORD97":2541872.4500000002,"ADDRESS":"新興路２６５巷３１號","OBJECTID":412620},"geometry":{"x":167308.36000000127,"y":2541872.4500000011}},{"attributes":{"ID":412645,"DIS_CODE":0,"TOWNNAME":"南區","LI":"田寮里","LIN":"3鄰","STREET":"新興路","SECT":" ","MAREA":" ","LANE":"２６５巷","ALLEY":" ","HOUSE_NO":"３３號","E_COORD97":167325.20999999999,"N_COORD97":2541866.5699999998,"ADDRESS":"新興路２６５巷３３號","OBJECTID":412621},"geometry":{"x":167325.21000000183,"y":2541866.5700000003}},{"attributes":{"ID":412646,"DIS_CODE":0,"TOWNNAME":"南區","LI":"田寮里","LIN":"3鄰","STREET":"新興路","SECT":" ","MAREA":" ","LANE":"２６５巷","ALLEY":" ","HOUSE_NO":"３５號","E_COORD97":167324.06,"N_COORD97":2541862.3199999998,"ADDRESS":"新興路２６５巷３５號","OBJECTID":412622},"geometry":{"x":167324.05999999866,"y":2541862.3200000003}},{"attributes":{"ID":412647,"DIS_CODE":0,"TOWNNAME":"南區","LI":"田寮里","LIN":"3鄰","STREET":"新興路","SECT":" ","MAREA":" ","LANE":"２６５巷","ALLEY":" ","HOUSE_NO":"３７號","E_COORD97":167322.59,"N_COORD97":2541857.4199999999,"ADDRESS":"新興路２６５巷３７號","OBJECTID":412623},"geometry":{"x":167322.59000000171,"y":2541857.4199999999}},{"attributes":{"ID":412648,"DIS_CODE":0,"TOWNNAME":"南區","LI":"田寮里","LIN":"3鄰","STREET":"新興路","SECT":" ","MAREA":" ","LANE":"２６５巷","ALLEY":" ","HOUSE_NO":"３９號","E_COORD97":167321.28,"N_COORD97":2541852.1899999999,"ADDRESS":"新興路２６５巷３９號","OBJECTID":412624},"geometry":{"x":167321.28000000026,"y":2541852.1899999995}},{"attributes":{"ID":412649,"DIS_CODE":0,"TOWNNAME":"南區","LI":"田寮里","LIN":"3鄰","STREET":"新興路","SECT":" ","MAREA":" ","LANE":"２６５巷","ALLEY":" ","HOUSE_NO":"２號","E_COORD97":167287.89999999999,"N_COORD97":2541847.73,"ADDRESS":"新興路２６５巷２號","OBJECTID":412625},"geometry":{"x":167287.9000000013,"y":2541847.7300000023}},{"attributes":{"ID":412650,"DIS_CODE":0,"TOWNNAME":"南區","LI":"田寮里","LIN":"3鄰","STREET":"新興路","SECT":" ","MAREA":" ","LANE":"２６５巷","ALLEY":" ","HOUSE_NO":"４號","E_COORD97":167286.22,"N_COORD97":2541842.71,"ADDRESS":"新興路２６５巷４號","OBJECTID":412626},"geometry":{"x":167286.22000000067,"y":2541842.7100000009}},{"attributes":{"ID":412651,"DIS_CODE":0,"TOWNNAME":"南區","LI":"田寮里","LIN":"3鄰","STREET":"新興路","SECT":" ","MAREA":" ","LANE":"２６５巷","ALLEY":" ","HOUSE_NO":"６號","E_COORD97":167285.5,"N_COORD97":2541839.1299999999,"ADDRESS":"新興路２６５巷６號","OBJECTID":412627},"geometry":{"x":167285.5,"y":2541839.1300000027}},{"attributes":{"ID":412652,"DIS_CODE":0,"TOWNNAME":"南區","LI":"田寮里","LIN":"3鄰","STREET":"新興路","SECT":" ","MAREA":" ","LANE":"２６５巷","ALLEY":" ","HOUSE_NO":"８號","E_COORD97":167284.79000000001,"N_COORD97":2541834.8300000001,"ADDRESS":"新興路２６５巷８號","OBJECTID":412628},"geometry":{"x":167284.79000000097,"y":2541834.8300000001}},{"attributes":{"ID":412653,"DIS_CODE":0,"TOWNNAME":"南區","LI":"田寮里","LIN":"3鄰","STREET":"新興路","SECT":" ","MAREA":" ","LANE":"２６５巷","ALLEY":" ","HOUSE_NO":"１０號","E_COORD97":167302.48999999999,"N_COORD97":2541830.77,"ADDRESS":"新興路２６５巷１０號","OBJECTID":412629},"geometry":{"x":167302.49000000022,"y":2541830.7699999996}},{"attributes":{"ID":412654,"DIS_CODE":0,"TOWNNAME":"南區","LI":"田寮里","LIN":"3鄰","STREET":"新興路","SECT":" ","MAREA":" ","LANE":"２６５巷","ALLEY":" ","HOUSE_NO":"１２號","E_COORD97":167303.20999999999,"N_COORD97":2541834.3500000001,"ADDRESS":"新興路２６５巷１２號","OBJECTID":412630},"geometry":{"x":167303.21000000183,"y":2541834.3499999996}},{"attributes":{"ID":412655,"DIS_CODE":0,"TOWNNAME":"南區","LI":"田寮里","LIN":"3鄰","STREET":"新興路","SECT":" ","MAREA":" ","LANE":"２６５巷","ALLEY":" ","HOUSE_NO":"１４號","E_COORD97":167303.92999999999,"N_COORD97":2541837.7000000002,"ADDRESS":"新興路２６５巷１４號","OBJECTID":412631},"geometry":{"x":167303.93000000063,"y":2541837.6999999993}},{"attributes":{"ID":412656,"DIS_CODE":0,"TOWNNAME":"南區","LI":"田寮里","LIN":"3鄰","STREET":"新興路","SECT":" ","MAREA":" ","LANE":"２６５巷","ALLEY":" ","HOUSE_NO":"１６號","E_COORD97":167304.89000000001,"N_COORD97":2541843.4300000002,"ADDRESS":"新興路２６５巷１６號","OBJECTID":412632},"geometry":{"x":167304.88999999966,"y":2541843.4299999997}},{"attributes":{"ID":412657,"DIS_CODE":0,"TOWNNAME":"南區","LI":"田寮里","LIN":"3鄰","STREET":"新興路","SECT":" ","MAREA":" ","LANE":"２６５巷","ALLEY":" ","HOUSE_NO":"９號","E_COORD97":167273.5,"N_COORD97":2541867.3799999999,"ADDRESS":"新興路２６５巷９號","OBJECTID":412633},"geometry":{"x":167273.5,"y":2541867.379999999}},{"attributes":{"ID":412658,"DIS_CODE":0,"TOWNNAME":"南區","LI":"田寮里","LIN":"3鄰","STREET":"新興路","SECT":" ","MAREA":" ","LANE":"２６５巷","ALLEY":" ","HOUSE_NO":"１１號","E_COORD97":167274.98000000001,"N_COORD97":2541872.6099999999,"ADDRESS":"新興路２６５巷１１號","OBJECTID":412634},"geometry":{"x":167274.98000000138,"y":2541872.6099999994}},{"attributes":{"ID":412659,"DIS_CODE":0,"TOWNNAME":"南區","LI":"田寮里","LIN":"3鄰","STREET":"新興路","SECT":" ","MAREA":" ","LANE":"２６５巷","ALLEY":" ","HOUSE_NO":"１３號","E_COORD97":167276.45000000001,"N_COORD97":2541876.8599999999,"ADDRESS":"新興路２６５巷１３號","OBJECTID":412635},"geometry":{"x":167276.45000000205,"y":2541876.8599999994}},{"attributes":{"ID":412660,"DIS_CODE":0,"TOWNNAME":"南區","LI":"田寮里","LIN":"3鄰","STREET":"新興路","SECT":" ","MAREA":" ","LANE":"２６５巷","ALLEY":" ","HOUSE_NO":"１５號","E_COORD97":167277.92000000001,"N_COORD97":2541881.9199999999,"ADDRESS":"新興路２６５巷１５號","OBJECTID":412636},"geometry":{"x":167277.91999999899,"y":2541881.9200000037}},{"attributes":{"ID":412661,"DIS_CODE":0,"TOWNNAME":"南區","LI":"田寮里","LIN":"3鄰","STREET":"新興路","SECT":" ","MAREA":" ","LANE":"２６５巷","ALLEY":" ","HOUSE_NO":"１７號","E_COORD97":167295.92000000001,"N_COORD97":2541876.3700000001,"ADDRESS":"新興路２６５巷１７號","OBJECTID":412637},"geometry":{"x":167295.91999999993,"y":2541876.370000001}},{"attributes":{"ID":412662,"DIS_CODE":0,"TOWNNAME":"南區","LI":"田寮里","LIN":"3鄰","STREET":"新興路","SECT":" ","MAREA":" ","LANE":"２６５巷","ALLEY":" ","HOUSE_NO":"１９號","E_COORD97":167294.28,"N_COORD97":2541871.6299999999,"ADDRESS":"新興路２６５巷１９號","OBJECTID":412638},"geometry":{"x":167294.28000000026,"y":2541871.629999999}},{"attributes":{"ID":412663,"DIS_CODE":0,"TOWNNAME":"南區","LI":"田寮里","LIN":"3鄰","STREET":"新興路","SECT":" ","MAREA":" ","LANE":"２６５巷","ALLEY":" ","HOUSE_NO":"２１號","E_COORD97":167292.48000000001,"N_COORD97":2541865.9100000001,"ADDRESS":"新興路２６５巷２１號","OBJECTID":412639},"geometry":{"x":167292.48000000138,"y":2541865.910000002}},{"attributes":{"ID":412664,"DIS_CODE":0,"TOWNNAME":"南區","LI":"田寮里","LIN":"3鄰","STREET":"新興路","SECT":" ","MAREA":" ","LANE":"２６５巷","ALLEY":" ","HOUSE_NO":"２３號","E_COORD97":167290.85000000001,"N_COORD97":2541861.8300000001,"ADDRESS":"新興路２６５巷２３號","OBJECTID":412640},"geometry":{"x":167290.85000000056,"y":2541861.8300000001}},{"attributes":{"ID":412665,"DIS_CODE":0,"TOWNNAME":"北區","LI":"玉皇里","LIN":"13鄰","STREET":"公園路","SECT":" ","MAREA":" ","LANE":" ","ALLEY":" ","HOUSE_NO":"２１１號","E_COORD97":168783.63,"N_COORD97":2544454.4500000002,"ADDRESS":"公園路２１１號","OBJECTID":412641},"geometry":{"x":168783.63000000175,"y":2544454.450000003}},{"attributes":{"ID":412666,"DIS_CODE":0,"TOWNNAME":"南區","LI":"田寮里","LIN":"3鄰","STREET":"新興路","SECT":" ","MAREA":" ","LANE":"２６５巷","ALLEY":" ","HOUSE_NO":"１號","E_COORD97":167265.32000000001,"N_COORD97":2541886.1699999999,"ADDRESS":"新興路２６５巷１號","OBJECTID":412642},"geometry":{"x":167265.3200000003,"y":2541886.1699999999}},{"attributes":{"ID":412667,"DIS_CODE":0,"TOWNNAME":"南區","LI":"田寮里","LIN":"3鄰","STREET":"新興路","SECT":" ","MAREA":" ","LANE":"２６５巷","ALLEY":" ","HOUSE_NO":"３號","E_COORD97":167263.51999999999,"N_COORD97":2541881.1099999999,"ADDRESS":"新興路２６５巷３號","OBJECTID":412643},"geometry":{"x":167263.52000000142,"y":2541881.1100000013}},{"attributes":{"ID":412668,"DIS_CODE":0,"TOWNNAME":"南區","LI":"田寮里","LIN":"3鄰","STREET":"新興路","SECT":" ","MAREA":" ","LANE":"２６５巷","ALLEY":" ","HOUSE_NO":"５號","E_COORD97":167262.38,"N_COORD97":2541876.8599999999,"ADDRESS":"新興路２６５巷５號","OBJECTID":412644},"geometry":{"x":167262.37999999989,"y":2541876.8599999994}},{"attributes":{"ID":412669,"DIS_CODE":0,"TOWNNAME":"南區","LI":"田寮里","LIN":"3鄰","STREET":"新興路","SECT":" ","MAREA":" ","LANE":"２６５巷","ALLEY":" ","HOUSE_NO":"７號","E_COORD97":167261.23000000001,"N_COORD97":2541871.6299999999,"ADDRESS":"新興路２６５巷７號","OBJECTID":412645},"geometry":{"x":167261.23000000231,"y":2541871.629999999}},{"attributes":{"ID":412670,"DIS_CODE":0,"TOWNNAME":"永康區","LI":"正強里","LIN":"24鄰","STREET":"中正路","SECT":" ","MAREA":" ","LANE":"１２７巷","ALLEY":" ","HOUSE_NO":"１５號","E_COORD97":173385.57000000001,"N_COORD97":2547829.2400000002,"ADDRESS":"中正路１２７巷１５號","OBJECTID":412646},"geometry":{"x":173385.57000000123,"y":2547829.2400000002}},{"attributes":{"ID":412671,"DIS_CODE":0,"TOWNNAME":"中西區","LI":"三合里","LIN":"3鄰","STREET":"忠孝街","SECT":" ","MAREA":" ","LANE":"７８巷","ALLEY":" ","HOUSE_NO":"１３號","E_COORD97":167734.19,"N_COORD97":2544465.1800000002,"ADDRESS":"忠孝街７８巷１３號","OBJECTID":412647},"geometry":{"x":167734.19000000041,"y":2544465.1799999997}},{"attributes":{"ID":412672,"DIS_CODE":0,"TOWNNAME":"中西區","LI":"三合里","LIN":"3鄰","STREET":"忠孝街","SECT":" ","MAREA":" ","LANE":"７８巷","ALLEY":" ","HOUSE_NO":"１４號","E_COORD97":167743.76999999999,"N_COORD97":2544460.5800000001,"ADDRESS":"忠孝街７８巷１４號","OBJECTID":412648},"geometry":{"x":167743.77000000048,"y":2544460.5800000001}},{"attributes":{"ID":412673,"DIS_CODE":0,"TOWNNAME":"中西區","LI":"三合里","LIN":"3鄰","STREET":"忠孝街","SECT":" ","MAREA":" ","LANE":"７８巷","ALLEY":" ","HOUSE_NO":"１５號","E_COORD97":167737.26000000001,"N_COORD97":2544466.8999999999,"ADDRESS":"忠孝街７８巷１５號","OBJECTID":412649},"geometry":{"x":167737.26000000071,"y":2544466.9000000022}},{"attributes":{"ID":412674,"DIS_CODE":0,"TOWNNAME":"中西區","LI":"三合里","LIN":"3鄰","STREET":"忠孝街","SECT":" ","MAREA":" ","LANE":"７８巷","ALLEY":" ","HOUSE_NO":"１６號","E_COORD97":167746.75,"N_COORD97":2544460.5800000001,"ADDRESS":"忠孝街７８巷１６號","OBJECTID":412650},"geometry":{"x":167746.75,"y":2544460.5800000001}},{"attributes":{"ID":412675,"DIS_CODE":0,"TOWNNAME":"中西區","LI":"三合里","LIN":"3鄰","STREET":"忠孝街","SECT":" ","MAREA":" ","LANE":"７８巷","ALLEY":" ","HOUSE_NO":"１７號","E_COORD97":167739.42999999999,"N_COORD97":2544469.2400000002,"ADDRESS":"忠孝街７８巷１７號","OBJECTID":412651},"geometry":{"x":167739.43000000063,"y":2544469.2400000002}},{"attributes":{"ID":412676,"DIS_CODE":0,"TOWNNAME":"中西區","LI":"三合里","LIN":"3鄰","STREET":"忠孝街","SECT":" ","MAREA":" ","LANE":"７８巷","ALLEY":" ","HOUSE_NO":"１８號","E_COORD97":167745.95999999999,"N_COORD97":2544450.4300000002,"ADDRESS":"忠孝街７８巷１８號","OBJECTID":412652},"geometry":{"x":167745.96000000089,"y":2544450.4299999997}},{"attributes":{"ID":412677,"DIS_CODE":0,"TOWNNAME":"中西區","LI":"三合里","LIN":"3鄰","STREET":"忠孝街","SECT":" ","MAREA":" ","LANE":"７８巷","ALLEY":" ","HOUSE_NO":"１９號","E_COORD97":167741.87,"N_COORD97":2544470.4199999999,"ADDRESS":"忠孝街７８巷１９號","OBJECTID":412653},"geometry":{"x":167741.87000000104,"y":2544470.4200000018}},{"attributes":{"ID":412678,"DIS_CODE":0,"TOWNNAME":"中西區","LI":"三合里","LIN":"3鄰","STREET":"忠孝街","SECT":" ","MAREA":" ","LANE":"７８巷","ALLEY":" ","HOUSE_NO":"２０號","E_COORD97":167743.88,"N_COORD97":2544444.3799999999,"ADDRESS":"忠孝街７８巷２０號","OBJECTID":412654},"geometry":{"x":167743.87999999989,"y":2544444.3800000027}},{"attributes":{"ID":412679,"DIS_CODE":0,"TOWNNAME":"中西區","LI":"三合里","LIN":"3鄰","STREET":"忠孝街","SECT":" ","MAREA":" ","LANE":"７８巷","ALLEY":" ","HOUSE_NO":"２１號","E_COORD97":167745.38,"N_COORD97":2544470.5099999998,"ADDRESS":"忠孝街７８巷２１號","OBJECTID":412655},"geometry":{"x":167745.37999999989,"y":2544470.5099999998}},{"attributes":{"ID":412680,"DIS_CODE":0,"TOWNNAME":"中西區","LI":"三合里","LIN":"3鄰","STREET":"忠孝街","SECT":" ","MAREA":" ","LANE":"７８巷","ALLEY":" ","HOUSE_NO":"２２號","E_COORD97":167746.13,"N_COORD97":2544441.1000000001,"ADDRESS":"忠孝街７８巷２２號","OBJECTID":412656},"geometry":{"x":167746.13000000175,"y":2544441.1000000015}},{"attributes":{"ID":412681,"DIS_CODE":0,"TOWNNAME":"中西區","LI":"三合里","LIN":"3鄰","STREET":"忠孝街","SECT":" ","MAREA":" ","LANE":"７８巷","ALLEY":" ","HOUSE_NO":"２３號","E_COORD97":167751.35000000001,"N_COORD97":2544480.4199999999,"ADDRESS":"忠孝街７８巷２３號","OBJECTID":412657},"geometry":{"x":167751.35000000056,"y":2544480.4200000018}},{"attributes":{"ID":412682,"DIS_CODE":0,"TOWNNAME":"中西區","LI":"三合里","LIN":"3鄰","STREET":"忠孝街","SECT":" ","MAREA":" ","LANE":"７８巷","ALLEY":" ","HOUSE_NO":"２５號","E_COORD97":167751.42000000001,"N_COORD97":2544477.77,"ADDRESS":"忠孝街７８巷２５號","OBJECTID":412658},"geometry":{"x":167751.42000000086,"y":2544477.7700000014}},{"attributes":{"ID":412683,"DIS_CODE":0,"TOWNNAME":"中西區","LI":"三合里","LIN":"3鄰","STREET":"忠孝街","SECT":" ","MAREA":" ","LANE":"７８巷","ALLEY":" ","HOUSE_NO":"２７號","E_COORD97":167751.34,"N_COORD97":2544474.71,"ADDRESS":"忠孝街７８巷２７號","OBJECTID":412659},"geometry":{"x":167751.33999999892,"y":2544474.7100000046}},{"attributes":{"ID":412684,"DIS_CODE":0,"TOWNNAME":"中西區","LI":"三合里","LIN":"3鄰","STREET":"忠孝街","SECT":" ","MAREA":" ","LANE":"７８巷","ALLEY":" ","HOUSE_NO":"２９號","E_COORD97":167751.76999999999,"N_COORD97":2544471.54,"ADDRESS":"忠孝街７８巷２９號","OBJECTID":412660},"geometry":{"x":167751.77000000048,"y":2544471.540000001}},{"attributes":{"ID":412685,"DIS_CODE":0,"TOWNNAME":"中西區","LI":"三合里","LIN":"3鄰","STREET":"忠孝街","SECT":" ","MAREA":" ","LANE":"７８巷","ALLEY":" ","HOUSE_NO":"３１號","E_COORD97":167751.98000000001,"N_COORD97":2544468.5899999999,"ADDRESS":"忠孝街７８巷３１號","OBJECTID":412661},"geometry":{"x":167751.98000000045,"y":2544468.5900000017}},{"attributes":{"ID":412686,"DIS_CODE":0,"TOWNNAME":"中西區","LI":"三合里","LIN":"3鄰","STREET":"忠孝街","SECT":" ","MAREA":" ","LANE":"７８巷","ALLEY":" ","HOUSE_NO":"３３號","E_COORD97":167752.39999999999,"N_COORD97":2544465.4300000002,"ADDRESS":"忠孝街７８巷３３號","OBJECTID":412662},"geometry":{"x":167752.4000000013,"y":2544465.4300000016}},{"attributes":{"ID":412687,"DIS_CODE":0,"TOWNNAME":"中西區","LI":"三合里","LIN":"3鄰","STREET":"忠孝街","SECT":" ","MAREA":" ","LANE":"７８巷","ALLEY":" ","HOUSE_NO":"３５號","E_COORD97":167753.23999999999,"N_COORD97":2544462.8900000001,"ADDRESS":"忠孝街７８巷３５號","OBJECTID":412663},"geometry":{"x":167753.24000000115,"y":2544462.8900000043}},{"attributes":{"ID":412688,"DIS_CODE":0,"TOWNNAME":"中西區","LI":"三合里","LIN":"3鄰","STREET":"忠孝街","SECT":" ","MAREA":" ","LANE":"７８巷","ALLEY":" ","HOUSE_NO":"３７號","E_COORD97":167755,"N_COORD97":2544460.0800000001,"ADDRESS":"忠孝街７８巷３７號","OBJECTID":412664},"geometry":{"x":167755,"y":2544460.0800000001}},{"attributes":{"ID":412689,"DIS_CODE":0,"TOWNNAME":"中西區","LI":"三合里","LIN":"3鄰","STREET":"忠孝街","SECT":" ","MAREA":" ","LANE":"７８巷","ALLEY":" ","HOUSE_NO":"４１號","E_COORD97":167755.60999999999,"N_COORD97":2544456.4700000002,"ADDRESS":"忠孝街７８巷４１號","OBJECTID":412665},"geometry":{"x":167755.61000000127,"y":2544456.4700000025}},{"attributes":{"ID":412690,"DIS_CODE":0,"TOWNNAME":"中西區","LI":"三合里","LIN":"3鄰","STREET":"忠孝街","SECT":" ","MAREA":" ","LANE":"７８巷","ALLEY":" ","HOUSE_NO":"４３號","E_COORD97":167757.54000000001,"N_COORD97":2544452.6699999999,"ADDRESS":"忠孝街７８巷４３號","OBJECTID":412666},"geometry":{"x":167757.54000000097,"y":2544452.6699999999}},{"attributes":{"ID":412691,"DIS_CODE":0,"TOWNNAME":"中西區","LI":"三合里","LIN":"3鄰","STREET":"忠孝街","SECT":" ","MAREA":" ","LANE":"７８巷","ALLEY":" ","HOUSE_NO":"４５號","E_COORD97":167758.04000000001,"N_COORD97":2544447.1899999999,"ADDRESS":"忠孝街７８巷４５號","OBJECTID":412667},"geometry":{"x":167758.04000000004,"y":2544447.1900000013}},{"attributes":{"ID":412692,"DIS_CODE":0,"TOWNNAME":"永康區","LI":"北灣里","LIN":"39鄰","STREET":"永大路","SECT":"二段","MAREA":" ","LANE":"９８６巷","ALLEY":" ","HOUSE_NO":"１８號","E_COORD97":174538.41,"N_COORD97":2546354.3399999999,"ADDRESS":"永大路二段９８６巷１８號","OBJECTID":412668},"geometry":{"x":174538.41000000015,"y":2546354.3400000036}},{"attributes":{"ID":412693,"DIS_CODE":0,"TOWNNAME":"永康區","LI":"北灣里","LIN":"41鄰","STREET":"大灣路","SECT":" ","MAREA":" ","LANE":"７４巷","ALLEY":" ","HOUSE_NO":"２８號","E_COORD97":175111.54999999999,"N_COORD97":2545794.5,"ADDRESS":"大灣路７４巷２８號","OBJECTID":412669},"geometry":{"x":175111.54999999981,"y":2545794.5000000019}},{"attributes":{"ID":412694,"DIS_CODE":0,"TOWNNAME":"中西區","LI":"中正里","LIN":"3鄰","STREET":"國華街","SECT":"三段","MAREA":" ","LANE":"１６巷","ALLEY":" ","HOUSE_NO":"１１號","E_COORD97":167744.88,"N_COORD97":2543772.6299999999,"ADDRESS":"國華街三段１６巷１１號","OBJECTID":412670},"geometry":{"x":167744.88000000082,"y":2543772.6300000008}},{"attributes":{"ID":412695,"DIS_CODE":0,"TOWNNAME":"中西區","LI":"中正里","LIN":"3鄰","STREET":"國華街","SECT":"三段","MAREA":" ","LANE":"１６巷","ALLEY":" ","HOUSE_NO":"１２號","E_COORD97":167749.28,"N_COORD97":2543752.9700000002,"ADDRESS":"國華街三段１６巷１２號","OBJECTID":412671},"geometry":{"x":167749.28000000119,"y":2543752.9700000007}},{"attributes":{"ID":412696,"DIS_CODE":0,"TOWNNAME":"中西區","LI":"中正里","LIN":"3鄰","STREET":"國華街","SECT":"三段","MAREA":" ","LANE":"１６巷","ALLEY":" ","HOUSE_NO":"１３號","E_COORD97":167748.67000000001,"N_COORD97":2543771.6299999999,"ADDRESS":"國華街三段１６巷１３號","OBJECTID":412672},"geometry":{"x":167748.66999999993,"y":2543771.6300000027}},{"attributes":{"ID":412697,"DIS_CODE":0,"TOWNNAME":"中西區","LI":"中正里","LIN":"3鄰","STREET":"國華街","SECT":"三段","MAREA":" ","LANE":"１６巷","ALLEY":" ","HOUSE_NO":"１４號","E_COORD97":167753.82999999999,"N_COORD97":2543755.8700000001,"ADDRESS":"國華街三段１６巷１４號","OBJECTID":412673},"geometry":{"x":167753.83000000101,"y":2543755.8700000029}},{"attributes":{"ID":412698,"DIS_CODE":0,"TOWNNAME":"中西區","LI":"中正里","LIN":"3鄰","STREET":"國華街","SECT":"三段","MAREA":" ","LANE":"１６巷","ALLEY":" ","HOUSE_NO":"１５號","E_COORD97":167751.35999999999,"N_COORD97":2543770.7400000002,"ADDRESS":"國華街三段１６巷１５號","OBJECTID":412674},"geometry":{"x":167751.36000000034,"y":2543770.7400000002}},{"attributes":{"ID":412699,"DIS_CODE":0,"TOWNNAME":"中西區","LI":"中正里","LIN":"3鄰","STREET":"國華街","SECT":"三段","MAREA":" ","LANE":"１６巷","ALLEY":" ","HOUSE_NO":"１６號","E_COORD97":167756.84,"N_COORD97":2543753.7999999998,"ADDRESS":"國華街三段１６巷１６號","OBJECTID":412675},"geometry":{"x":167756.84000000078,"y":2543753.8000000007}},{"attributes":{"ID":412700,"DIS_CODE":0,"TOWNNAME":"中西區","LI":"中正里","LIN":"3鄰","STREET":"國華街","SECT":"三段","MAREA":" ","LANE":"１６巷","ALLEY":" ","HOUSE_NO":"１７號","E_COORD97":167755.35000000001,"N_COORD97":2543769.9399999999,"ADDRESS":"國華街三段１６巷１７號","OBJECTID":412676},"geometry":{"x":167755.35000000056,"y":2543769.9400000032}},{"attributes":{"ID":412701,"DIS_CODE":0,"TOWNNAME":"中西區","LI":"中正里","LIN":"3鄰","STREET":"國華街","SECT":"三段","MAREA":" ","LANE":"１６巷","ALLEY":" ","HOUSE_NO":"１８號","E_COORD97":167758.48999999999,"N_COORD97":2543753.2799999998,"ADDRESS":"國華街三段１６巷１８號","OBJECTID":412677},"geometry":{"x":167758.49000000022,"y":2543753.2799999993}},{"attributes":{"ID":412702,"DIS_CODE":0,"TOWNNAME":"中西區","LI":"中正里","LIN":"3鄰","STREET":"國華街","SECT":"三段","MAREA":" ","LANE":"１６巷","ALLEY":" ","HOUSE_NO":"１９號","E_COORD97":167758.44,"N_COORD97":2543768.9399999999,"ADDRESS":"國華街三段１６巷１９號","OBJECTID":412678},"geometry":{"x":167758.44000000134,"y":2543768.9399999995}},{"attributes":{"ID":412703,"DIS_CODE":0,"TOWNNAME":"中西區","LI":"中正里","LIN":"3鄰","STREET":"國華街","SECT":"三段","MAREA":" ","LANE":"１６巷","ALLEY":" ","HOUSE_NO":"１號","E_COORD97":167732.42000000001,"N_COORD97":2543776.6099999999,"ADDRESS":"國華街三段１６巷１號","OBJECTID":412679},"geometry":{"x":167732.42000000179,"y":2543776.6100000013}},{"attributes":{"ID":412704,"DIS_CODE":0,"TOWNNAME":"中西區","LI":"中正里","LIN":"3鄰","STREET":"國華街","SECT":"三段","MAREA":" ","LANE":"１６巷","ALLEY":" ","HOUSE_NO":"２０號","E_COORD97":167761.60000000001,"N_COORD97":2543752.9700000002,"ADDRESS":"國華街三段１６巷２０號","OBJECTID":412680},"geometry":{"x":167761.60000000056,"y":2543752.9700000007}},{"attributes":{"ID":412705,"DIS_CODE":0,"TOWNNAME":"中西區","LI":"中正里","LIN":"3鄰","STREET":"國華街","SECT":"三段","MAREA":" ","LANE":"１６巷","ALLEY":" ","HOUSE_NO":"２１號","E_COORD97":167762.29999999999,"N_COORD97":2543767.8700000001,"ADDRESS":"國華街三段１６巷２１號","OBJECTID":412681},"geometry":{"x":167762.30000000075,"y":2543767.870000001}},{"attributes":{"ID":412706,"DIS_CODE":0,"TOWNNAME":"中西區","LI":"中正里","LIN":"3鄰","STREET":"國華街","SECT":"三段","MAREA":" ","LANE":"１６巷","ALLEY":" ","HOUSE_NO":"２２號","E_COORD97":167763.47,"N_COORD97":2543752.6600000001,"ADDRESS":"國華街三段１６巷２２號","OBJECTID":412682},"geometry":{"x":167763.46999999974,"y":2543752.660000002}},{"attributes":{"ID":412707,"DIS_CODE":0,"TOWNNAME":"中西區","LI":"中正里","LIN":"3鄰","STREET":"國華街","SECT":"三段","MAREA":" ","LANE":"１６巷","ALLEY":" ","HOUSE_NO":"２３號","E_COORD97":167765.42999999999,"N_COORD97":2543767.4199999999,"ADDRESS":"國華街三段１６巷２３號","OBJECTID":412683},"geometry":{"x":167765.4299999997,"y":2543767.4200000018}},{"attributes":{"ID":412708,"DIS_CODE":0,"TOWNNAME":"中西區","LI":"中正里","LIN":"3鄰","STREET":"國華街","SECT":"三段","MAREA":" ","LANE":"１６巷","ALLEY":" ","HOUSE_NO":"２４號","E_COORD97":167765.23000000001,"N_COORD97":2543750.4900000002,"ADDRESS":"國華街三段１６巷２４號","OBJECTID":412684},"geometry":{"x":167765.23000000138,"y":2543750.4900000021}},{"attributes":{"ID":412709,"DIS_CODE":0,"TOWNNAME":"中西區","LI":"中正里","LIN":"3鄰","STREET":"國華街","SECT":"三段","MAREA":" ","LANE":"１６巷","ALLEY":" ","HOUSE_NO":"２５號","E_COORD97":167766.67999999999,"N_COORD97":2543771.77,"ADDRESS":"國華街三段１６巷２５號","OBJECTID":412685},"geometry":{"x":167766.68000000063,"y":2543771.7700000014}},{"attributes":{"ID":412710,"DIS_CODE":0,"TOWNNAME":"中西區","LI":"中正里","LIN":"3鄰","STREET":"國華街","SECT":"三段","MAREA":" ","LANE":"１６巷","ALLEY":" ","HOUSE_NO":"２６號","E_COORD97":167766.78,"N_COORD97":2543750.0800000001,"ADDRESS":"國華街三段１６巷２６號","OBJECTID":412686},"geometry":{"x":167766.78000000026,"y":2543750.0800000019}},{"attributes":{"ID":412711,"DIS_CODE":0,"TOWNNAME":"中西區","LI":"中正里","LIN":"3鄰","STREET":"國華街","SECT":"三段","MAREA":" ","LANE":"１６巷","ALLEY":" ","HOUSE_NO":"２８號","E_COORD97":167771.44,"N_COORD97":2543749.3500000001,"ADDRESS":"國華街三段１６巷２８號","OBJECTID":412687},"geometry":{"x":167771.44000000041,"y":2543749.3499999996}},{"attributes":{"ID":412712,"DIS_CODE":0,"TOWNNAME":"中西區","LI":"中正里","LIN":"3鄰","STREET":"國華街","SECT":"三段","MAREA":" ","LANE":"１６巷","ALLEY":" ","HOUSE_NO":"２號","E_COORD97":167738.88,"N_COORD97":2543753.8900000001,"ADDRESS":"國華街三段１６巷２號","OBJECTID":412688},"geometry":{"x":167738.87999999989,"y":2543753.8900000006}},{"attributes":{"ID":412713,"DIS_CODE":0,"TOWNNAME":"中西區","LI":"中正里","LIN":"3鄰","STREET":"國華街","SECT":"三段","MAREA":" ","LANE":"１６巷","ALLEY":" ","HOUSE_NO":"３０號","E_COORD97":167774.48999999999,"N_COORD97":2543759.4399999999,"ADDRESS":"國華街三段１６巷３０號","OBJECTID":412689},"geometry":{"x":167774.49000000209,"y":2543759.4399999976}},{"attributes":{"ID":412714,"DIS_CODE":0,"TOWNNAME":"中西區","LI":"中正里","LIN":"3鄰","STREET":"國華街","SECT":"三段","MAREA":" ","LANE":"１６巷","ALLEY":" ","HOUSE_NO":"３２號","E_COORD97":167775.51999999999,"N_COORD97":2543764.29,"ADDRESS":"國華街三段１６巷３２號","OBJECTID":412690},"geometry":{"x":167775.52000000048,"y":2543764.290000001}},{"attributes":{"ID":412715,"DIS_CODE":0,"TOWNNAME":"中西區","LI":"中正里","LIN":"3鄰","STREET":"國華街","SECT":"三段","MAREA":" ","LANE":"１６巷","ALLEY":" ","HOUSE_NO":"３號","E_COORD97":167734.81,"N_COORD97":2543776.4100000001,"ADDRESS":"國華街三段１６巷３號","OBJECTID":412691},"geometry":{"x":167734.81000000052,"y":2543776.4100000001}},{"attributes":{"ID":412716,"DIS_CODE":0,"TOWNNAME":"中西區","LI":"中正里","LIN":"3鄰","STREET":"國華街","SECT":"三段","MAREA":" ","LANE":"１６巷","ALLEY":" ","HOUSE_NO":"５號","E_COORD97":167737.10999999999,"N_COORD97":2543775.2200000002,"ADDRESS":"國華街三段１６巷５號","OBJECTID":412692},"geometry":{"x":167737.11000000127,"y":2543775.2200000007}},{"attributes":{"ID":412717,"DIS_CODE":0,"TOWNNAME":"中西區","LI":"中正里","LIN":"3鄰","STREET":"國華街","SECT":"三段","MAREA":" ","LANE":"１６巷","ALLEY":" ","HOUSE_NO":"６號","E_COORD97":167741.01000000001,"N_COORD97":2543753.7999999998,"ADDRESS":"國華街三段１６巷６號","OBJECTID":412693},"geometry":{"x":167741.00999999978,"y":2543753.8000000007}},{"attributes":{"ID":412718,"DIS_CODE":0,"TOWNNAME":"中西區","LI":"中正里","LIN":"3鄰","STREET":"國華街","SECT":"三段","MAREA":" ","LANE":"１６巷","ALLEY":" ","HOUSE_NO":"７號","E_COORD97":167739.5,"N_COORD97":2543774.4199999999,"ADDRESS":"國華街三段１６巷７號","OBJECTID":412694},"geometry":{"x":167739.5,"y":2543774.4200000018}},{"attributes":{"ID":412719,"DIS_CODE":0,"TOWNNAME":"中西區","LI":"中正里","LIN":"3鄰","STREET":"國華街","SECT":"三段","MAREA":" ","LANE":"１６巷","ALLEY":" ","HOUSE_NO":"８號","E_COORD97":167742.75,"N_COORD97":2543753.3900000001,"ADDRESS":"國華街三段１６巷８號","OBJECTID":412695},"geometry":{"x":167742.75000000093,"y":2543753.3900000006}},{"attributes":{"ID":412720,"DIS_CODE":0,"TOWNNAME":"中西區","LI":"中正里","LIN":"3鄰","STREET":"國華街","SECT":"三段","MAREA":" ","LANE":"１６巷","ALLEY":" ","HOUSE_NO":"９號","E_COORD97":167741.89000000001,"N_COORD97":2543773.52,"ADDRESS":"國華街三段１６巷９號","OBJECTID":412696},"geometry":{"x":167741.88999999966,"y":2543773.5200000014}},{"attributes":{"ID":412721,"DIS_CODE":0,"TOWNNAME":"中西區","LI":"中正里","LIN":"3鄰","STREET":"國華街","SECT":"三段","MAREA":" ","LANE":"２０巷","ALLEY":" ","HOUSE_NO":"１０號","E_COORD97":167751.56,"N_COORD97":2543781.8999999999,"ADDRESS":"國華街三段２０巷１０號","OBJECTID":412697},"geometry":{"x":167751.56000000052,"y":2543781.9000000022}},{"attributes":{"ID":412722,"DIS_CODE":0,"TOWNNAME":"中西區","LI":"中正里","LIN":"3鄰","STREET":"國華街","SECT":"三段","MAREA":" ","LANE":"２０巷","ALLEY":" ","HOUSE_NO":"１１號","E_COORD97":167758.81,"N_COORD97":2543779.2200000002,"ADDRESS":"國華街三段２０巷１１號","OBJECTID":412698},"geometry":{"x":167758.81000000052,"y":2543779.2199999988}},{"attributes":{"ID":412723,"DIS_CODE":0,"TOWNNAME":"中西區","LI":"中正里","LIN":"3鄰","STREET":"國華街","SECT":"三段","MAREA":" ","LANE":"２０巷","ALLEY":" ","HOUSE_NO":"１２號","E_COORD97":167761.91,"N_COORD97":2543777.77,"ADDRESS":"國華街三段２０巷１２號","OBJECTID":412699},"geometry":{"x":167761.91000000108,"y":2543777.7700000033}},{"attributes":{"ID":412724,"DIS_CODE":0,"TOWNNAME":"中西區","LI":"中正里","LIN":"3鄰","STREET":"國華街","SECT":"三段","MAREA":" ","LANE":"２０巷","ALLEY":" ","HOUSE_NO":"１４號","E_COORD97":167776.66,"N_COORD97":2543780.6899999999,"ADDRESS":"國華街三段２０巷１４號","OBJECTID":412700},"geometry":{"x":167776.66000000201,"y":2543780.6899999995}},{"attributes":{"ID":412725,"DIS_CODE":0,"TOWNNAME":"永康區","LI":"北灣里","LIN":"2鄰","STREET":"大灣路","SECT":" ","MAREA":" ","LANE":"１１９巷","ALLEY":" ","HOUSE_NO":"３９號","E_COORD97":175255.01999999999,"N_COORD97":2545542.9900000002,"ADDRESS":"大灣路１１９巷３９號","OBJECTID":412701},"geometry":{"x":175255.02000000048,"y":2545542.9900000002}},{"attributes":{"ID":412726,"DIS_CODE":0,"TOWNNAME":"永康區","LI":"正強里","LIN":"24鄰","STREET":"中正路","SECT":" ","MAREA":" ","LANE":"１２７巷","ALLEY":" ","HOUSE_NO":"５號","E_COORD97":173378.57000000001,"N_COORD97":2547851.7400000002,"ADDRESS":"中正路１２７巷５號","OBJECTID":412702},"geometry":{"x":173378.57000000123,"y":2547851.7400000021}},{"attributes":{"ID":412727,"DIS_CODE":0,"TOWNNAME":"中西區","LI":"中正里","LIN":"3鄰","STREET":"國華街","SECT":"三段","MAREA":" ","LANE":"２０巷","ALLEY":" ","HOUSE_NO":"１５號","E_COORD97":167777.38,"N_COORD97":2543778.6299999999,"ADDRESS":"國華街三段２０巷１５號","OBJECTID":412703},"geometry":{"x":167777.38000000082,"y":2543778.6300000008}},{"attributes":{"ID":412728,"DIS_CODE":0,"TOWNNAME":"中西區","LI":"中正里","LIN":"3鄰","STREET":"國華街","SECT":"三段","MAREA":" ","LANE":"２０巷","ALLEY":" ","HOUSE_NO":"１６號","E_COORD97":167777.89999999999,"N_COORD97":2543773.6800000002,"ADDRESS":"國華街三段２０巷１６號","OBJECTID":412704},"geometry":{"x":167777.90000000037,"y":2543773.6799999997}},{"attributes":{"ID":412729,"DIS_CODE":0,"TOWNNAME":"中西區","LI":"中正里","LIN":"3鄰","STREET":"國華街","SECT":"三段","MAREA":" ","LANE":"２０巷","ALLEY":" ","HOUSE_NO":"９號","E_COORD97":167747.62,"N_COORD97":2543782.6299999999,"ADDRESS":"國華街三段２０巷９號","OBJECTID":412705},"geometry":{"x":167747.62000000011,"y":2543782.6300000008}},{"attributes":{"ID":412730,"DIS_CODE":0,"TOWNNAME":"永康區","LI":"西勢里","LIN":"3鄰","STREET":"富強路","SECT":"一段","MAREA":" ","LANE":"３２１巷","ALLEY":" ","HOUSE_NO":"８６號","E_COORD97":175538.44,"N_COORD97":2546745.7400000002,"ADDRESS":"富強路一段３２１巷８６號","OBJECTID":412706},"geometry":{"x":175538.44000000041,"y":2546745.7400000021}},{"attributes":{"ID":412731,"DIS_CODE":0,"TOWNNAME":"永康區","LI":"六合里","LIN":"3鄰","STREET":"新興街","SECT":" ","MAREA":" ","LANE":"３５巷","ALLEY":" ","HOUSE_NO":"１９號","E_COORD97":171011.87,"N_COORD97":2545840.2400000002,"ADDRESS":"新興街３５巷１９號","OBJECTID":412707},"geometry":{"x":171011.87000000104,"y":2545840.2400000039}},{"attributes":{"ID":412732,"DIS_CODE":0,"TOWNNAME":"永康區","LI":"六合里","LIN":"3鄰","STREET":"中山南路","SECT":" ","MAREA":" ","LANE":"１０４巷","ALLEY":" ","HOUSE_NO":"４號","E_COORD97":170999.62,"N_COORD97":2545890.75,"ADDRESS":"中山南路１０４巷４號","OBJECTID":412708},"geometry":{"x":170999.62000000197,"y":2545890.7500000037}},{"attributes":{"ID":412733,"DIS_CODE":0,"TOWNNAME":"永康區","LI":"六合里","LIN":"3鄰","STREET":"新興街","SECT":" ","MAREA":" ","LANE":"３５巷","ALLEY":" ","HOUSE_NO":"１７號","E_COORD97":171002.92000000001,"N_COORD97":2545835.2400000002,"ADDRESS":"新興街３５巷１７號","OBJECTID":412709},"geometry":{"x":171002.92000000086,"y":2545835.2400000002}},{"attributes":{"ID":412734,"DIS_CODE":0,"TOWNNAME":"永康區","LI":"六合里","LIN":"3鄰","STREET":"新興街","SECT":" ","MAREA":" ","LANE":"３５巷","ALLEY":" ","HOUSE_NO":"１６號","E_COORD97":170998.12,"N_COORD97":2545832.75,"ADDRESS":"新興街３５巷１６號","OBJECTID":412710},"geometry":{"x":170998.12000000104,"y":2545832.7499999981}},{"attributes":{"ID":412735,"DIS_CODE":0,"TOWNNAME":"永康區","LI":"六合里","LIN":"3鄰","STREET":"中山南路","SECT":" ","MAREA":" ","LANE":"１０４巷","ALLEY":" ","HOUSE_NO":"６號","E_COORD97":171001.85999999999,"N_COORD97":2545886.2400000002,"ADDRESS":"中山南路１０４巷６號","OBJECTID":412711},"geometry":{"x":171001.86000000127,"y":2545886.2400000002}},{"attributes":{"ID":412736,"DIS_CODE":0,"TOWNNAME":"永康區","LI":"西橋里","LIN":"3鄰","STREET":"中山南路","SECT":" ","MAREA":" ","LANE":"４３巷","ALLEY":" ","HOUSE_NO":"７號","E_COORD97":170724.47,"N_COORD97":2545874.6099999999,"ADDRESS":"中山南路４３巷７號","OBJECTID":412712},"geometry":{"x":170724.47000000067,"y":2545874.6100000013}},{"attributes":{"ID":412737,"DIS_CODE":0,"TOWNNAME":"永康區","LI":"西勢里","LIN":"3鄰","STREET":"富強路","SECT":"一段","MAREA":" ","LANE":"３２１巷","ALLEY":" ","HOUSE_NO":"９８號","E_COORD97":175538.14999999999,"N_COORD97":2546770.98,"ADDRESS":"富強路一段３２１巷９８號","OBJECTID":412713},"geometry":{"x":175538.1500000013,"y":2546770.9800000042}},{"attributes":{"ID":412738,"DIS_CODE":0,"TOWNNAME":"永康區","LI":"正強里","LIN":"46鄰","STREET":"中正路","SECT":" ","MAREA":" ","LANE":"２５６巷","ALLEY":" ","HOUSE_NO":"９號之５３","E_COORD97":173207.16,"N_COORD97":2547991.8799999999,"ADDRESS":"中正路２５６巷９號之５３","OBJECTID":412714},"geometry":{"x":173207.16000000108,"y":2547991.8800000008}},{"attributes":{"ID":412739,"DIS_CODE":0,"TOWNNAME":"永康區","LI":"北灣里","LIN":"9鄰","STREET":"大灣七街","SECT":" ","MAREA":" ","LANE":"４５巷","ALLEY":" ","HOUSE_NO":"３號","E_COORD97":175043.57999999999,"N_COORD97":2545648.8100000001,"ADDRESS":"大灣七街４５巷３號","OBJECTID":412715},"geometry":{"x":175043.58000000101,"y":2545648.8100000005}},{"attributes":{"ID":412740,"DIS_CODE":0,"TOWNNAME":"大內區","LI":"曲溪里","LIN":"10鄰","STREET":" ","SECT":" ","MAREA":"二重溪","LANE":" ","ALLEY":" ","HOUSE_NO":"１０１號之４","E_COORD97":187390.38477,"N_COORD97":2557716.6825000001,"ADDRESS":"二重溪１０１號之４","OBJECTID":412716},"geometry":{"x":187390.38477000128,"y":2557716.6824980043}},{"attributes":{"ID":412741,"DIS_CODE":0,"TOWNNAME":"永康區","LI":"六合里","LIN":"3鄰","STREET":"中山南路","SECT":" ","MAREA":" ","LANE":"１０４巷","ALLEY":" ","HOUSE_NO":"８號","E_COORD97":171004.06,"N_COORD97":2545880.7400000002,"ADDRESS":"中山南路１０４巷８號","OBJECTID":412717},"geometry":{"x":171004.05999999959,"y":2545880.7400000039}},{"attributes":{"ID":412742,"DIS_CODE":0,"TOWNNAME":"永康區","LI":"永康里","LIN":"3鄰","STREET":"中山北路","SECT":" ","MAREA":" ","LANE":"３５巷","ALLEY":" ","HOUSE_NO":"２７號","E_COORD97":173899.42000000001,"N_COORD97":2547502.4900000002,"ADDRESS":"中山北路３５巷２７號","OBJECTID":412718},"geometry":{"x":173899.42000000179,"y":2547502.4900000002}},{"attributes":{"ID":412743,"DIS_CODE":0,"TOWNNAME":"永康區","LI":"永康里","LIN":"3鄰","STREET":"中山北路","SECT":" ","MAREA":" ","LANE":"３５巷","ALLEY":" ","HOUSE_NO":"３７號","E_COORD97":173892.5,"N_COORD97":2547527.4900000002,"ADDRESS":"中山北路３５巷３７號","OBJECTID":412719},"geometry":{"x":173892.50000000093,"y":2547527.4900000021}},{"attributes":{"ID":412744,"DIS_CODE":0,"TOWNNAME":"中西區","LI":"元安里","LIN":"3鄰","STREET":"西門路","SECT":"一段","MAREA":" ","LANE":"７０３巷","ALLEY":" ","HOUSE_NO":"４號","E_COORD97":167685.57000000001,"N_COORD97":2543247.27,"ADDRESS":"西門路一段７０３巷４號","OBJECTID":412720},"geometry":{"x":167685.5700000003,"y":2543247.2699999996}},{"attributes":{"ID":412745,"DIS_CODE":0,"TOWNNAME":"中西區","LI":"元安里","LIN":"3鄰","STREET":"西門路","SECT":"一段","MAREA":" ","LANE":"７０３巷","ALLEY":" ","HOUSE_NO":"７號","E_COORD97":167640.01000000001,"N_COORD97":2543222.6200000001,"ADDRESS":"西門路一段７０３巷７號","OBJECTID":412721},"geometry":{"x":167640.01000000164,"y":2543222.6200000029}},{"attributes":{"ID":412746,"DIS_CODE":0,"TOWNNAME":"中西區","LI":"西賢里","LIN":"3鄰","STREET":"湖美街","SECT":" ","MAREA":" ","LANE":"１１３巷","ALLEY":" ","HOUSE_NO":"２２號","E_COORD97":165856.20999999999,"N_COORD97":2544761.3300000001,"ADDRESS":"湖美街１１３巷２２號","OBJECTID":412722},"geometry":{"x":165856.21000000089,"y":2544761.3300000038}},{"attributes":{"ID":412747,"DIS_CODE":0,"TOWNNAME":"中西區","LI":"西賢里","LIN":"3鄰","STREET":"湖美街","SECT":" ","MAREA":" ","LANE":"１１３巷","ALLEY":" ","HOUSE_NO":"２０號","E_COORD97":165865.51000000001,"N_COORD97":2544761.46,"ADDRESS":"湖美街１１３巷２０號","OBJECTID":412723},"geometry":{"x":165865.51000000071,"y":2544761.4600000028}},{"attributes":{"ID":412748,"DIS_CODE":0,"TOWNNAME":"永康區","LI":"永康里","LIN":"1鄰","STREET":"永埔街","SECT":" ","MAREA":" ","LANE":"３３巷","ALLEY":" ","HOUSE_NO":"１９號","E_COORD97":173945.01000000001,"N_COORD97":2547509.7400000002,"ADDRESS":"永埔街３３巷１９號","OBJECTID":412724},"geometry":{"x":173945.01000000071,"y":2547509.7400000021}},{"attributes":{"ID":412749,"DIS_CODE":0,"TOWNNAME":"永康區","LI":"正強里","LIN":"30鄰","STREET":"正強街","SECT":" ","MAREA":" ","LANE":"２１５巷","ALLEY":" ","HOUSE_NO":"６８號","E_COORD97":173195.88,"N_COORD97":2547705.4399999999,"ADDRESS":"正強街２１５巷６８號","OBJECTID":412725},"geometry":{"x":173195.87999999989,"y":2547705.4399999995}},{"attributes":{"ID":412750,"DIS_CODE":0,"TOWNNAME":"中西區","LI":"元安里","LIN":"3鄰","STREET":"西門路","SECT":"一段","MAREA":" ","LANE":"７０３巷","ALLEY":" ","HOUSE_NO":"１１號","E_COORD97":167631.54000000001,"N_COORD97":2543236.1600000001,"ADDRESS":"西門路一段７０３巷１１號","OBJECTID":412726},"geometry":{"x":167631.53999999911,"y":2543236.1600000001}},{"attributes":{"ID":412751,"DIS_CODE":0,"TOWNNAME":"中西區","LI":"元安里","LIN":"3鄰","STREET":"西門路","SECT":"一段","MAREA":" ","LANE":"７０３巷","ALLEY":" ","HOUSE_NO":"６號","E_COORD97":167683.64999999999,"N_COORD97":2543256.9300000002,"ADDRESS":"西門路一段７０３巷６號","OBJECTID":412727},"geometry":{"x":167683.64999999944,"y":2543256.9299999997}},{"attributes":{"ID":412752,"DIS_CODE":0,"TOWNNAME":"永康區","LI":"正強里","LIN":"33鄰","STREET":"埔園街","SECT":" ","MAREA":" ","LANE":"４２２巷","ALLEY":" ","HOUSE_NO":"３號","E_COORD97":173267.54999999999,"N_COORD97":2548159.7400000002,"ADDRESS":"埔園街４２２巷３號","OBJECTID":412728},"geometry":{"x":173267.54999999981,"y":2548159.7400000021}},{"attributes":{"ID":412753,"DIS_CODE":0,"TOWNNAME":"永康區","LI":"北灣里","LIN":"10鄰","STREET":"大灣路","SECT":" ","MAREA":" ","LANE":"１１２巷","ALLEY":" ","HOUSE_NO":"１２號","E_COORD97":175131.97,"N_COORD97":2545689.8700000001,"ADDRESS":"大灣路１１２巷１２號","OBJECTID":412729},"geometry":{"x":175131.97000000067,"y":2545689.870000001}},{"attributes":{"ID":412754,"DIS_CODE":0,"TOWNNAME":"永康區","LI":"正強里","LIN":"24鄰","STREET":"中正路","SECT":" ","MAREA":" ","LANE":"１２７巷","ALLEY":" ","HOUSE_NO":"１３號","E_COORD97":173384.32000000001,"N_COORD97":2547833.7400000002,"ADDRESS":"中正路１２７巷１３號","OBJECTID":412730},"geometry":{"x":173384.3200000003,"y":2547833.7400000039}},{"attributes":{"ID":412755,"DIS_CODE":0,"TOWNNAME":"永康區","LI":"正強里","LIN":"47鄰","STREET":"中正路","SECT":" ","MAREA":" ","LANE":"２５６巷","ALLEY":" ","HOUSE_NO":"１１號之１８","E_COORD97":173231.35999999999,"N_COORD97":2547996.2000000002,"ADDRESS":"中正路２５６巷１１號之１８","OBJECTID":412731},"geometry":{"x":173231.36000000127,"y":2547996.2000000011}},{"attributes":{"ID":412756,"DIS_CODE":0,"TOWNNAME":"永康區","LI":"中興里","LIN":"18鄰","STREET":"中華路","SECT":" ","MAREA":" ","LANE":"２８６巷","ALLEY":" ","HOUSE_NO":"８２號之１","E_COORD97":171737.54000000001,"N_COORD97":2545319.29,"ADDRESS":"中華路２８６巷８２號之１","OBJECTID":412732},"geometry":{"x":171737.54000000097,"y":2545319.2899999991}},{"attributes":{"ID":412757,"DIS_CODE":0,"TOWNNAME":"永康區","LI":"中興里","LIN":"11鄰","STREET":"中興街","SECT":" ","MAREA":" ","LANE":"１１巷","ALLEY":" ","HOUSE_NO":"１６號","E_COORD97":172040.69,"N_COORD97":2545123.4900000002,"ADDRESS":"中興街１１巷１６號","OBJECTID":412733},"geometry":{"x":172040.69000000134,"y":2545123.4900000021}},{"attributes":{"ID":412758,"DIS_CODE":0,"TOWNNAME":"永康區","LI":"中興里","LIN":"27鄰","STREET":"中興街","SECT":" ","MAREA":" ","LANE":"９１巷","ALLEY":" ","HOUSE_NO":"７號","E_COORD97":172041.28,"N_COORD97":2545341.7400000002,"ADDRESS":"中興街９１巷７號","OBJECTID":412734},"geometry":{"x":172041.28000000119,"y":2545341.7400000039}},{"attributes":{"ID":412759,"DIS_CODE":0,"TOWNNAME":"永康區","LI":"中興里","LIN":"27鄰","STREET":"中興街","SECT":" ","MAREA":" ","LANE":"９１巷","ALLEY":" ","HOUSE_NO":"１３號之１","E_COORD97":172028.82000000001,"N_COORD97":2545338.79,"ADDRESS":"中興街９１巷１３號之１","OBJECTID":412735},"geometry":{"x":172028.8200000003,"y":2545338.7899999991}},{"attributes":{"ID":412760,"DIS_CODE":0,"TOWNNAME":"新化區","LI":"竹林里","LIN":"3鄰","STREET":"中山路","SECT":" ","MAREA":" ","LANE":"３７６巷","ALLEY":" ","HOUSE_NO":"５號","E_COORD97":178828.10999999999,"N_COORD97":2548485.25,"ADDRESS":"中山路３７６巷５號","OBJECTID":412736},"geometry":{"x":178828.1099999994,"y":2548485.2500000019}},{"attributes":{"ID":412761,"DIS_CODE":0,"TOWNNAME":"永康區","LI":"中興里","LIN":"22鄰","STREET":"中華路","SECT":" ","MAREA":" ","LANE":"２１２巷","ALLEY":" ","HOUSE_NO":"３１號","E_COORD97":171779.10999999999,"N_COORD97":2545022.7999999998,"ADDRESS":"中華路２１２巷３１號","OBJECTID":412737},"geometry":{"x":171779.11000000034,"y":2545022.8000000007}},{"attributes":{"ID":412762,"DIS_CODE":0,"TOWNNAME":"永康區","LI":"北灣里","LIN":"14鄰","STREET":"大灣路","SECT":" ","MAREA":" ","LANE":"４４巷","ALLEY":" ","HOUSE_NO":"４８號","E_COORD97":175084.89000000001,"N_COORD97":2545896.79,"ADDRESS":"大灣路４４巷４８號","OBJECTID":412738},"geometry":{"x":175084.8900000006,"y":2545896.790000001}},{"attributes":{"ID":412763,"DIS_CODE":0,"TOWNNAME":"新化區","LI":"武安里","LIN":"3鄰","STREET":"中正路","SECT":" ","MAREA":" ","LANE":"３０７巷","ALLEY":" ","HOUSE_NO":"４號","E_COORD97":179105.41,"N_COORD97":2548131.25,"ADDRESS":"中正路３０７巷４號","OBJECTID":412739},"geometry":{"x":179105.41000000015,"y":2548131.25}},{"attributes":{"ID":412764,"DIS_CODE":0,"TOWNNAME":"新化區","LI":"觀音里","LIN":"3鄰","STREET":"仁愛街","SECT":" ","MAREA":" ","LANE":"６５巷","ALLEY":" ","HOUSE_NO":"３２號","E_COORD97":178960.13,"N_COORD97":2548484.25,"ADDRESS":"仁愛街６５巷３２號","OBJECTID":412740},"geometry":{"x":178960.13000000082,"y":2548484.2500000037}},{"attributes":{"ID":412765,"DIS_CODE":0,"TOWNNAME":"新化區","LI":"協興里","LIN":"3鄰","STREET":"忠孝路","SECT":" ","MAREA":" ","LANE":"２４３巷","ALLEY":" ","HOUSE_NO":"１９號","E_COORD97":178500.26999999999,"N_COORD97":2548522.25,"ADDRESS":"忠孝路２４３巷１９號","OBJECTID":412741},"geometry":{"x":178500.26999999955,"y":2548522.2500000019}},{"attributes":{"ID":412766,"DIS_CODE":0,"TOWNNAME":"永康區","LI":"正強里","LIN":"4鄰","STREET":"中正路","SECT":" ","MAREA":" ","LANE":"５５巷","ALLEY":" ","HOUSE_NO":"３７號","E_COORD97":173564.51000000001,"N_COORD97":2547698.9900000002,"ADDRESS":"中正路５５巷３７號","OBJECTID":412742},"geometry":{"x":173564.50999999978,"y":2547698.9900000002}},{"attributes":{"ID":412767,"DIS_CODE":0,"TOWNNAME":"南區","LI":"再興里","LIN":"3鄰","STREET":"金華路","SECT":"二段","MAREA":" ","LANE":"２２８巷","ALLEY":" ","HOUSE_NO":"２號","E_COORD97":167132.72,"N_COORD97":2542374.0699999998,"ADDRESS":"金華路二段２２８巷２號","OBJECTID":412743},"geometry":{"x":167132.71999999974,"y":2542374.0700000022}},{"attributes":{"ID":412768,"DIS_CODE":0,"TOWNNAME":"南區","LI":"再興里","LIN":"3鄰","STREET":"金華路","SECT":"二段","MAREA":" ","LANE":"２２８巷","ALLEY":" ","HOUSE_NO":"４號","E_COORD97":167137.54999999999,"N_COORD97":2542373.5499999998,"ADDRESS":"金華路二段２２８巷４號","OBJECTID":412744},"geometry":{"x":167137.54999999981,"y":2542373.5500000045}},{"attributes":{"ID":412769,"DIS_CODE":0,"TOWNNAME":"南區","LI":"同安里","LIN":"3鄰","STREET":"灣裡路","SECT":" ","MAREA":" ","LANE":"３５１巷","ALLEY":" ","HOUSE_NO":"２號","E_COORD97":166203.48999999999,"N_COORD97":2536178.3799999999,"ADDRESS":"灣裡路３５１巷２號","OBJECTID":412745},"geometry":{"x":166203.49000000115,"y":2536178.3799999971}},{"attributes":{"ID":412770,"DIS_CODE":0,"TOWNNAME":"南區","LI":"佛壇里","LIN":"3鄰","STREET":"興南街","SECT":" ","MAREA":" ","LANE":"１８４巷","ALLEY":" ","HOUSE_NO":"１４號","E_COORD97":166043.45000000001,"N_COORD97":2535880.2000000002,"ADDRESS":"興南街１８４巷１４號","OBJECTID":412746},"geometry":{"x":166043.45000000019,"y":2535880.1999999993}},{"attributes":{"ID":412771,"DIS_CODE":0,"TOWNNAME":"南區","LI":"佛壇里","LIN":"3鄰","STREET":"興南街","SECT":" ","MAREA":" ","LANE":"１８４巷","ALLEY":" ","HOUSE_NO":"１４號之１","E_COORD97":166043.44,"N_COORD97":2535881.9300000002,"ADDRESS":"興南街１８４巷１４號之１","OBJECTID":412747},"geometry":{"x":166043.44000000134,"y":2535881.9300000016}},{"attributes":{"ID":412772,"DIS_CODE":0,"TOWNNAME":"南區","LI":"佛壇里","LIN":"3鄰","STREET":"興南街","SECT":" ","MAREA":" ","LANE":"１８４巷","ALLEY":" ","HOUSE_NO":"１６號","E_COORD97":166040.88,"N_COORD97":2535884.7999999998,"ADDRESS":"興南街１８４巷１６號","OBJECTID":412748},"geometry":{"x":166040.88000000175,"y":2535884.8000000007}},{"attributes":{"ID":412773,"DIS_CODE":0,"TOWNNAME":"南區","LI":"佛壇里","LIN":"3鄰","STREET":"興南街","SECT":" ","MAREA":" ","LANE":"１６６巷","ALLEY":" ","HOUSE_NO":"１１號","E_COORD97":166054.48999999999,"N_COORD97":2535907.3900000001,"ADDRESS":"興南街１６６巷１１號","OBJECTID":412749},"geometry":{"x":166054.49000000115,"y":2535907.3900000006}},{"attributes":{"ID":412774,"DIS_CODE":0,"TOWNNAME":"南區","LI":"佛壇里","LIN":"3鄰","STREET":"興南街","SECT":" ","MAREA":" ","LANE":"１６６巷","ALLEY":" ","HOUSE_NO":"１３號","E_COORD97":166052.84,"N_COORD97":2535914.1899999999,"ADDRESS":"興南街１６６巷１３號","OBJECTID":412750},"geometry":{"x":166052.84000000171,"y":2535914.1900000013}},{"attributes":{"ID":412775,"DIS_CODE":0,"TOWNNAME":"南區","LI":"佛壇里","LIN":"3鄰","STREET":"興南街","SECT":" ","MAREA":" ","LANE":"１６６巷","ALLEY":" ","HOUSE_NO":"１７號","E_COORD97":166034.26000000001,"N_COORD97":2535932.6699999999,"ADDRESS":"興南街１６６巷１７號","OBJECTID":412751},"geometry":{"x":166034.25999999978,"y":2535932.6699999999}},{"attributes":{"ID":412776,"DIS_CODE":0,"TOWNNAME":"南區","LI":"佛壇里","LIN":"3鄰","STREET":"興南街","SECT":" ","MAREA":" ","LANE":"１６６巷","ALLEY":" ","HOUSE_NO":"１９號","E_COORD97":166048.42000000001,"N_COORD97":2535928.8100000001,"ADDRESS":"興南街１６６巷１９號","OBJECTID":412752},"geometry":{"x":166048.41999999993,"y":2535928.8100000005}},{"attributes":{"ID":412777,"DIS_CODE":0,"TOWNNAME":"南區","LI":"佛壇里","LIN":"3鄰","STREET":"興南街","SECT":" ","MAREA":" ","LANE":"１６６巷","ALLEY":" ","HOUSE_NO":"２１號","E_COORD97":166046.57999999999,"N_COORD97":2535937.52,"ADDRESS":"興南街１６６巷２１號","OBJECTID":412753},"geometry":{"x":166046.58000000101,"y":2535937.5200000033}},{"attributes":{"ID":412778,"DIS_CODE":0,"TOWNNAME":"南區","LI":"佛壇里","LIN":"3鄰","STREET":"興南街","SECT":" ","MAREA":" ","LANE":"１８４巷","ALLEY":" ","HOUSE_NO":"１８號","E_COORD97":166038.12,"N_COORD97":2535888.4700000002,"ADDRESS":"興南街１８４巷１８號","OBJECTID":412754},"geometry":{"x":166038.12000000104,"y":2535888.4700000044}},{"attributes":{"ID":412779,"DIS_CODE":0,"TOWNNAME":"南區","LI":"佛壇里","LIN":"3鄰","STREET":"興南街","SECT":" ","MAREA":" ","LANE":"１８４巷","ALLEY":" ","HOUSE_NO":"２４號","E_COORD97":166032.78,"N_COORD97":2535893.98,"ADDRESS":"興南街１８４巷２４號","OBJECTID":412755},"geometry":{"x":166032.78000000026,"y":2535893.9800000004}},{"attributes":{"ID":412780,"DIS_CODE":0,"TOWNNAME":"南區","LI":"佛壇里","LIN":"3鄰","STREET":"興南街","SECT":" ","MAREA":" ","LANE":"１８４巷","ALLEY":" ","HOUSE_NO":"２６號","E_COORD97":166045.48000000001,"N_COORD97":2535902.25,"ADDRESS":"興南街１８４巷２６號","OBJECTID":412756},"geometry":{"x":166045.48000000045,"y":2535902.25}},{"attributes":{"ID":412781,"DIS_CODE":0,"TOWNNAME":"南區","LI":"佛壇里","LIN":"3鄰","STREET":"興南街","SECT":" ","MAREA":" ","LANE":"１８４巷","ALLEY":" ","HOUSE_NO":"３０號","E_COORD97":166032.60000000001,"N_COORD97":2535910.7000000002,"ADDRESS":"興南街１８４巷３０號","OBJECTID":412757},"geometry":{"x":166032.60000000056,"y":2535910.6999999993}},{"attributes":{"ID":412782,"DIS_CODE":0,"TOWNNAME":"南區","LI":"佛壇里","LIN":"3鄰","STREET":"興南街","SECT":" ","MAREA":" ","LANE":"１８４巷","ALLEY":" ","HOUSE_NO":"３２號","E_COORD97":166015.5,"N_COORD97":2535907.21,"ADDRESS":"興南街１８４巷３２號","OBJECTID":412758},"geometry":{"x":166015.5,"y":2535907.2100000046}},{"attributes":{"ID":412783,"DIS_CODE":0,"TOWNNAME":"永康區","LI":"正強里","LIN":"5鄰","STREET":"中正路","SECT":" ","MAREA":" ","LANE":"５５巷","ALLEY":" ","HOUSE_NO":"３８號之２","E_COORD97":173557.41,"N_COORD97":2547698.79,"ADDRESS":"中正路５５巷３８號之２","OBJECTID":412759},"geometry":{"x":173557.41000000201,"y":2547698.7899999991}},{"attributes":{"ID":412784,"DIS_CODE":0,"TOWNNAME":"永康區","LI":"王行里","LIN":"13鄰","STREET":"王行路","SECT":" ","MAREA":" ","LANE":"１０３２巷","ALLEY":" ","HOUSE_NO":"２號","E_COORD97":175813.07000000001,"N_COORD97":2550155.7000000002,"ADDRESS":"王行路１０３２巷２號","OBJECTID":412760},"geometry":{"x":175813.07000000123,"y":2550155.7000000011}},{"attributes":{"ID":412785,"DIS_CODE":0,"TOWNNAME":"永康區","LI":"北灣里","LIN":"14鄰","STREET":"大灣七街","SECT":" ","MAREA":" ","LANE":"９３巷","ALLEY":" ","HOUSE_NO":"３號","E_COORD97":175035.76999999999,"N_COORD97":2545806.4500000002,"ADDRESS":"大灣七街９３巷３號","OBJECTID":412761},"geometry":{"x":175035.77000000142,"y":2545806.4499999993}},{"attributes":{"ID":412786,"DIS_CODE":0,"TOWNNAME":"永康區","LI":"王行里","LIN":"1鄰","STREET":"王行路","SECT":" ","MAREA":" ","LANE":"２０８巷","ALLEY":" ","HOUSE_NO":"７號","E_COORD97":175684.31,"N_COORD97":2548139.5600000001,"ADDRESS":"王行路２０８巷７號","OBJECTID":412762},"geometry":{"x":175684.30999999959,"y":2548139.5600000005}},{"attributes":{"ID":412787,"DIS_CODE":0,"TOWNNAME":"永康區","LI":"北灣里","LIN":"1鄰","STREET":"大同街","SECT":" ","MAREA":" ","LANE":"８巷","ALLEY":" ","HOUSE_NO":"８號","E_COORD97":175330.45999999999,"N_COORD97":2545444.7200000002,"ADDRESS":"大同街８巷８號","OBJECTID":412763},"geometry":{"x":175330.46000000089,"y":2545444.7200000025}},{"attributes":{"ID":412788,"DIS_CODE":0,"TOWNNAME":"永康區","LI":"五王里","LIN":"30鄰","STREET":"中山東路","SECT":" ","MAREA":" ","LANE":"６８巷","ALLEY":" ","HOUSE_NO":"２號","E_COORD97":171688.28,"N_COORD97":2546014.75,"ADDRESS":"中山東路６８巷２號","OBJECTID":412764},"geometry":{"x":171688.28000000026,"y":2546014.75}},{"attributes":{"ID":412789,"DIS_CODE":0,"TOWNNAME":"永康區","LI":"北灣里","LIN":"12鄰","STREET":"大民街","SECT":" ","MAREA":" ","LANE":"１５８巷","ALLEY":" ","HOUSE_NO":"１２號","E_COORD97":174993.16,"N_COORD97":2545668.8199999998,"ADDRESS":"大民街１５８巷１２號","OBJECTID":412765},"geometry":{"x":174993.16000000201,"y":2545668.8200000003}},{"attributes":{"ID":412790,"DIS_CODE":0,"TOWNNAME":"永康區","LI":"正強里","LIN":"23鄰","STREET":"中正路","SECT":" ","MAREA":" ","LANE":"１２７巷","ALLEY":" ","HOUSE_NO":"４４號","E_COORD97":173392.70999999999,"N_COORD97":2547752.75,"ADDRESS":"中正路１２７巷４４號","OBJECTID":412766},"geometry":{"x":173392.71000000089,"y":2547752.7500000019}},{"attributes":{"ID":412791,"DIS_CODE":0,"TOWNNAME":"南區","LI":"佛壇里","LIN":"3鄰","STREET":"興南街","SECT":" ","MAREA":" ","LANE":"１８４巷","ALLEY":" ","HOUSE_NO":"３４號","E_COORD97":166013.60000000001,"N_COORD97":2535909.4300000002,"ADDRESS":"興南街１８４巷３４號","OBJECTID":412767},"geometry":{"x":166013.60000000149,"y":2535909.4300000016}},{"attributes":{"ID":412792,"DIS_CODE":0,"TOWNNAME":"南區","LI":"佛壇里","LIN":"3鄰","STREET":"興南街","SECT":" ","MAREA":" ","LANE":"１８４巷","ALLEY":" ","HOUSE_NO":"３６號","E_COORD97":166012.95999999999,"N_COORD97":2535914.04,"ADDRESS":"興南街１８４巷３６號","OBJECTID":412768},"geometry":{"x":166012.95999999996,"y":2535914.040000001}},{"attributes":{"ID":412793,"DIS_CODE":0,"TOWNNAME":"南區","LI":"佛壇里","LIN":"3鄰","STREET":"興南街","SECT":" ","MAREA":" ","LANE":"１８４巷","ALLEY":" ","HOUSE_NO":"３７號","E_COORD97":165993.75,"N_COORD97":2535922.77,"ADDRESS":"興南街１８４巷３７號","OBJECTID":412769},"geometry":{"x":165993.75,"y":2535922.7700000014}},{"attributes":{"ID":412794,"DIS_CODE":0,"TOWNNAME":"南區","LI":"佛壇里","LIN":"3鄰","STREET":"興南街","SECT":" ","MAREA":" ","LANE":"１８４巷","ALLEY":" ","HOUSE_NO":"３８號","E_COORD97":166024.87,"N_COORD97":2535927.21,"ADDRESS":"興南街１８４巷３８號","OBJECTID":412770},"geometry":{"x":166024.87000000104,"y":2535927.2100000009}},{"attributes":{"ID":412795,"DIS_CODE":0,"TOWNNAME":"南區","LI":"佛壇里","LIN":"3鄰","STREET":"興南街","SECT":" ","MAREA":" ","LANE":"１８４巷","ALLEY":" ","HOUSE_NO":"３９號","E_COORD97":165994.23000000001,"N_COORD97":2535927.3700000001,"ADDRESS":"興南街１８４巷３９號","OBJECTID":412771},"geometry":{"x":165994.23000000045,"y":2535927.3700000029}},{"attributes":{"ID":412796,"DIS_CODE":0,"TOWNNAME":"南區","LI":"佛壇里","LIN":"3鄰","STREET":"興南街","SECT":" ","MAREA":" ","LANE":"１８４巷","ALLEY":" ","HOUSE_NO":"４８號","E_COORD97":166031.5,"N_COORD97":2535942.48,"ADDRESS":"興南街１８４巷４８號","OBJECTID":412772},"geometry":{"x":166031.49999999907,"y":2535942.4800000023}},{"attributes":{"ID":412797,"DIS_CODE":0,"TOWNNAME":"南區","LI":"佛壇里","LIN":"3鄰","STREET":"灣裡路","SECT":" ","MAREA":" ","LANE":"２８２巷","ALLEY":" ","HOUSE_NO":"１５０號","E_COORD97":166023.70999999999,"N_COORD97":2535981.2999999998,"ADDRESS":"灣裡路２８２巷１５０號","OBJECTID":412773},"geometry":{"x":166023.71000000089,"y":2535981.3000000026}},{"attributes":{"ID":412798,"DIS_CODE":0,"TOWNNAME":"南區","LI":"佛壇里","LIN":"3鄰","STREET":"灣裡路","SECT":" ","MAREA":" ","LANE":"２８２巷","ALLEY":" ","HOUSE_NO":"１５２號","E_COORD97":166025.98000000001,"N_COORD97":2535976.1899999999,"ADDRESS":"灣裡路２８２巷１５２號","OBJECTID":412774},"geometry":{"x":166025.98000000138,"y":2535976.1899999995}},{"attributes":{"ID":412799,"DIS_CODE":0,"TOWNNAME":"永康區","LI":"北灣里","LIN":"14鄰","STREET":"大灣路","SECT":" ","MAREA":" ","LANE":"４４巷","ALLEY":" ","HOUSE_NO":"４６號","E_COORD97":175089.31,"N_COORD97":2545895.54,"ADDRESS":"大灣路４４巷４６號","OBJECTID":412775},"geometry":{"x":175089.30999999959,"y":2545895.540000001}},{"attributes":{"ID":412800,"DIS_CODE":0,"TOWNNAME":"永康區","LI":"王行里","LIN":"15鄰","STREET":"龍昌街","SECT":" ","MAREA":" ","LANE":"８５巷","ALLEY":" ","HOUSE_NO":"１０號","E_COORD97":174944.22,"N_COORD97":2548128.7200000002,"ADDRESS":"龍昌街８５巷１０號","OBJECTID":412776},"geometry":{"x":174944.21999999974,"y":2548128.7200000007}},{"attributes":{"ID":412801,"DIS_CODE":0,"TOWNNAME":"東區","LI":"關聖里","LIN":"3鄰","STREET":"富農街","SECT":"二段","MAREA":" ","LANE":"１０８巷","ALLEY":" ","HOUSE_NO":"１２號","E_COORD97":171692.19,"N_COORD97":2543078.0800000001,"ADDRESS":"富農街二段１０８巷１２號","OBJECTID":412777},"geometry":{"x":171692.19000000041,"y":2543078.0800000038}},{"attributes":{"ID":412802,"DIS_CODE":0,"TOWNNAME":"東區","LI":"關聖里","LIN":"3鄰","STREET":"富農街","SECT":"二段","MAREA":" ","LANE":"１０８巷","ALLEY":" ","HOUSE_NO":"１２號之１","E_COORD97":171695.98000000001,"N_COORD97":2543080.0699999998,"ADDRESS":"富農街二段１０８巷１２號之１","OBJECTID":412778},"geometry":{"x":171695.98000000138,"y":2543080.0700000003}},{"attributes":{"ID":412803,"DIS_CODE":0,"TOWNNAME":"東區","LI":"關聖里","LIN":"3鄰","STREET":"富農街","SECT":"二段","MAREA":" ","LANE":"１０８巷","ALLEY":" ","HOUSE_NO":"１４號","E_COORD97":171700.60000000001,"N_COORD97":2543078.29,"ADDRESS":"富農街二段１０８巷１４號","OBJECTID":412779},"geometry":{"x":171700.59999999963,"y":2543078.2899999991}},{"attributes":{"ID":412804,"DIS_CODE":0,"TOWNNAME":"東區","LI":"關聖里","LIN":"3鄰","STREET":"富農街","SECT":"二段","MAREA":" ","LANE":"１０８巷","ALLEY":" ","HOUSE_NO":"１６號","E_COORD97":171710.51999999999,"N_COORD97":2543080.77,"ADDRESS":"富農街二段１０８巷１６號","OBJECTID":412780},"geometry":{"x":171710.52000000048,"y":2543080.7700000014}},{"attributes":{"ID":412805,"DIS_CODE":0,"TOWNNAME":"東區","LI":"關聖里","LIN":"3鄰","STREET":"富農街","SECT":"二段","MAREA":" ","LANE":"１０８巷","ALLEY":" ","HOUSE_NO":"１８號","E_COORD97":171716.03,"N_COORD97":2543081.8300000001,"ADDRESS":"富農街二段１０８巷１８號","OBJECTID":412781},"geometry":{"x":171716.03000000119,"y":2543081.8300000001}},{"attributes":{"ID":412806,"DIS_CODE":0,"TOWNNAME":"東區","LI":"關聖里","LIN":"3鄰","STREET":"富農街","SECT":"二段","MAREA":" ","LANE":"１０８巷","ALLEY":" ","HOUSE_NO":"２２號","E_COORD97":171723.25,"N_COORD97":2543084.6600000001,"ADDRESS":"富農街二段１０８巷２２號","OBJECTID":412782},"geometry":{"x":171723.25,"y":2543084.660000002}},{"attributes":{"ID":412807,"DIS_CODE":0,"TOWNNAME":"東區","LI":"關聖里","LIN":"3鄰","STREET":"富農街","SECT":"二段","MAREA":" ","LANE":"１０８巷","ALLEY":" ","HOUSE_NO":"２４號","E_COORD97":171729.06,"N_COORD97":2543086.54,"ADDRESS":"富農街二段１０８巷２４號","OBJECTID":412783},"geometry":{"x":171729.06000000052,"y":2543086.5399999991}},{"attributes":{"ID":412808,"DIS_CODE":0,"TOWNNAME":"東區","LI":"關聖里","LIN":"3鄰","STREET":"富農街","SECT":"二段","MAREA":" ","LANE":"１０８巷","ALLEY":" ","HOUSE_NO":"２６號","E_COORD97":171735.19,"N_COORD97":2543087.9500000002,"ADDRESS":"富農街二段１０８巷２６號","OBJECTID":412784},"geometry":{"x":171735.19000000134,"y":2543087.950000003}},{"attributes":{"ID":412809,"DIS_CODE":0,"TOWNNAME":"東區","LI":"關聖里","LIN":"3鄰","STREET":"富農街","SECT":"二段","MAREA":" ","LANE":"１０８巷","ALLEY":" ","HOUSE_NO":"２８號","E_COORD97":171741.31,"N_COORD97":2543088.5800000001,"ADDRESS":"富農街二段１０８巷２８號","OBJECTID":412785},"geometry":{"x":171741.30999999959,"y":2543088.5800000019}},{"attributes":{"ID":412810,"DIS_CODE":0,"TOWNNAME":"永康區","LI":"正強里","LIN":"22鄰","STREET":"中正路","SECT":" ","MAREA":" ","LANE":"１２７巷","ALLEY":" ","HOUSE_NO":"４５號","E_COORD97":173409.79999999999,"N_COORD97":2547734.9900000002,"ADDRESS":"中正路１２７巷４５號","OBJECTID":412786},"geometry":{"x":173409.79999999981,"y":2547734.9900000021}},{"attributes":{"ID":412811,"DIS_CODE":0,"TOWNNAME":"東區","LI":"關聖里","LIN":"3鄰","STREET":"富農街","SECT":"二段","MAREA":" ","LANE":"１０８巷","ALLEY":" ","HOUSE_NO":"２號","E_COORD97":171660.70999999999,"N_COORD97":2543082.9300000002,"ADDRESS":"富農街二段１０８巷２號","OBJECTID":412787},"geometry":{"x":171660.70999999996,"y":2543082.9300000016}},{"attributes":{"ID":412812,"DIS_CODE":0,"TOWNNAME":"仁德區","LI":"土庫里","LIN":"3鄰","STREET":"土庫路","SECT":" ","MAREA":" ","LANE":"２００巷","ALLEY":" ","HOUSE_NO":"１號","E_COORD97":174214.48000000001,"N_COORD97":2542863.2400000002,"ADDRESS":"土庫路２００巷１號","OBJECTID":412788},"geometry":{"x":174214.48000000045,"y":2542863.2400000039}},{"attributes":{"ID":412813,"DIS_CODE":0,"TOWNNAME":"安南區","LI":"溪心里","LIN":"3鄰","STREET":"安吉路","SECT":"一段","MAREA":" ","LANE":"４５７巷","ALLEY":" ","HOUSE_NO":"３３號","E_COORD97":166735,"N_COORD97":2549806.8599999999,"ADDRESS":"安吉路一段４５７巷３３號","OBJECTID":412789},"geometry":{"x":166734.99999999907,"y":2549806.8599999994}},{"attributes":{"ID":412814,"DIS_CODE":0,"TOWNNAME":"安南區","LI":"溪心里","LIN":"3鄰","STREET":"安吉路","SECT":"一段","MAREA":" ","LANE":"４５７巷","ALLEY":" ","HOUSE_NO":"３５號","E_COORD97":166730.39999999999,"N_COORD97":2549807.8100000001,"ADDRESS":"安吉路一段４５７巷３５號","OBJECTID":412790},"geometry":{"x":166730.40000000037,"y":2549807.8100000024}},{"attributes":{"ID":412815,"DIS_CODE":0,"TOWNNAME":"仁德區","LI":"一甲里","LIN":"3鄰","STREET":"中正路","SECT":"三段","MAREA":" ","LANE":"１１４巷","ALLEY":" ","HOUSE_NO":"５號","E_COORD97":173448.31,"N_COORD97":2541656.79,"ADDRESS":"中正路三段１１４巷５號","OBJECTID":412791},"geometry":{"x":173448.30999999959,"y":2541656.7899999991}},{"attributes":{"ID":412816,"DIS_CODE":0,"TOWNNAME":"安南區","LI":"溪心里","LIN":"3鄰","STREET":"安吉路","SECT":"一段","MAREA":" ","LANE":"４５７巷","ALLEY":" ","HOUSE_NO":"３７號","E_COORD97":166726.42999999999,"N_COORD97":2549809.0800000001,"ADDRESS":"安吉路一段４５７巷３７號","OBJECTID":412792},"geometry":{"x":166726.4299999997,"y":2549809.0800000019}},{"attributes":{"ID":412817,"DIS_CODE":0,"TOWNNAME":"安南區","LI":"溪心里","LIN":"3鄰","STREET":"安吉路","SECT":"一段","MAREA":" ","LANE":"４５７巷","ALLEY":" ","HOUSE_NO":"３９號","E_COORD97":166723.25,"N_COORD97":2549809.5600000001,"ADDRESS":"安吉路一段４５７巷３９號","OBJECTID":412793},"geometry":{"x":166723.25000000186,"y":2549809.5600000024}},{"attributes":{"ID":412818,"DIS_CODE":0,"TOWNNAME":"安南區","LI":"溪心里","LIN":"3鄰","STREET":"安吉路","SECT":"一段","MAREA":" ","LANE":"４５７巷","ALLEY":" ","HOUSE_NO":"４１號","E_COORD97":166719.92000000001,"N_COORD97":2549810.3500000001,"ADDRESS":"安吉路一段４５７巷４１號","OBJECTID":412794},"geometry":{"x":166719.91999999993,"y":2549810.3500000015}},{"attributes":{"ID":412819,"DIS_CODE":0,"TOWNNAME":"安南區","LI":"溪心里","LIN":"3鄰","STREET":"安吉路","SECT":"一段","MAREA":" ","LANE":"４５７巷","ALLEY":" ","HOUSE_NO":"４３號","E_COORD97":166716.73999999999,"N_COORD97":2549811.6200000001,"ADDRESS":"安吉路一段４５７巷４３號","OBJECTID":412795},"geometry":{"x":166716.74000000209,"y":2549811.620000001}},{"attributes":{"ID":412820,"DIS_CODE":0,"TOWNNAME":"安南區","LI":"溪心里","LIN":"3鄰","STREET":"安吉路","SECT":"一段","MAREA":" ","LANE":"４５７巷","ALLEY":" ","HOUSE_NO":"４５號","E_COORD97":166712.92999999999,"N_COORD97":2549812.1000000001,"ADDRESS":"安吉路一段４５７巷４５號","OBJECTID":412796},"geometry":{"x":166712.9299999997,"y":2549812.1000000015}},{"attributes":{"ID":412821,"DIS_CODE":0,"TOWNNAME":"永康區","LI":"北灣里","LIN":"14鄰","STREET":"大灣七街","SECT":" ","MAREA":" ","LANE":"９３巷","ALLEY":" ","HOUSE_NO":"１２號","E_COORD97":175033.23999999999,"N_COORD97":2545816.3999999999,"ADDRESS":"大灣七街９３巷１２號","OBJECTID":412797},"geometry":{"x":175033.23999999929,"y":2545816.4000000022}},{"attributes":{"ID":412822,"DIS_CODE":0,"TOWNNAME":"東區","LI":"關聖里","LIN":"3鄰","STREET":"富農街","SECT":"二段","MAREA":" ","LANE":"１０８巷","ALLEY":" ","HOUSE_NO":"８之１號","E_COORD97":171682.96063099999,"N_COORD97":2543080.5667500002,"ADDRESS":"富農街二段１０８巷８之１號","OBJECTID":412798},"geometry":{"x":171682.96063100081,"y":2543080.5667450018}},{"attributes":{"ID":412823,"DIS_CODE":0,"TOWNNAME":"東區","LI":"關聖里","LIN":"3鄰","STREET":"富農街","SECT":"二段","MAREA":" ","LANE":"１０８巷","ALLEY":" ","HOUSE_NO":"８號","E_COORD97":171677.23912799999,"N_COORD97":2543080.7784099998,"ADDRESS":"富農街二段１０８巷８號","OBJECTID":412799},"geometry":{"x":171677.23912800103,"y":2543080.7784120031}},{"attributes":{"ID":412824,"DIS_CODE":0,"TOWNNAME":"東區","LI":"關聖里","LIN":"3鄰","STREET":"富農街","SECT":"二段","MAREA":" ","LANE":"１０８巷","ALLEY":" ","HOUSE_NO":"６號","E_COORD97":171668.12710499999,"N_COORD97":2543082.0484099998,"ADDRESS":"富農街二段１０８巷６號","OBJECTID":412800},"geometry":{"x":171668.12710500136,"y":2543082.0484110024}}]}