{"displayFieldName":"TOWNNAME","fieldAliases":{"ID":"ID","DIS_CODE":"DIS_CODE","TOWNNAME":"TOWNNAME","LI":"LI","LIN":"LIN","STREET":"STREET","SECT":"SECT","MAREA":"MAREA","LANE":"LANE","ALLEY":"ALLEY","HOUSE_NO":"HOUSE_NO","E_COORD97":"E_COORD97","N_COORD97":"N_COORD97","ADDRESS":"ADDRESS","OBJECTID":"OBJECTID"},"geometryType":"esriGeometryPoint","spatialReference":{"wkid":102443,"latestWkid":3826},"fields":[{"name":"ID","type":"esriFieldTypeDouble","alias":"ID"},{"name":"DIS_CODE","type":"esriFieldTypeInteger","alias":"DIS_CODE"},{"name":"TOWNNAME","type":"esriFieldTypeString","alias":"TOWNNAME","length":8},{"name":"LI","type":"esriFieldTypeString","alias":"LI","length":8},{"name":"LIN","type":"esriFieldTypeString","alias":"LIN","length":12},{"name":"STREET","type":"esriFieldTypeString","alias":"STREET","length":20},{"name":"SECT","type":"esriFieldTypeString","alias":"SECT","length":8},{"name":"MAREA","type":"esriFieldTypeString","alias":"MAREA","length":12},{"name":"LANE","type":"esriFieldTypeString","alias":"LANE","length":10},{"name":"ALLEY","type":"esriFieldTypeString","alias":"ALLEY","length":10},{"name":"HOUSE_NO","type":"esriFieldTypeString","alias":"HOUSE_NO","length":20},{"name":"E_COORD97","type":"esriFieldTypeDouble","alias":"E_COORD97"},{"name":"N_COORD97","type":"esriFieldTypeDouble","alias":"N_COORD97"},{"name":"ADDRESS","type":"esriFieldTypeString","alias":"ADDRESS","length":50},{"name":"OBJECTID","type":"esriFieldTypeOID","alias":"OBJECTID"}],"features":[{"attributes":{"ID":33401,"DIS_CODE":0,"TOWNNAME":"安定區","LI":"新吉里","LIN":"7鄰","STREET":" ","SECT":" ","MAREA":"新吉","LANE":" ","ALLEY":" ","HOUSE_NO":"５６之６２號","E_COORD97":168484.01999999999,"N_COORD97":2553593.2999999998,"ADDRESS":"新吉５６之６２號","OBJECTID":33401},"geometry":{"x":168484.02000000142,"y":2553593.3000000007}},{"attributes":{"ID":33402,"DIS_CODE":0,"TOWNNAME":"安定區","LI":"新吉里","LIN":"7鄰","STREET":" ","SECT":" ","MAREA":"新吉","LANE":" ","ALLEY":" ","HOUSE_NO":"５９號之１１","E_COORD97":169003.95000000001,"N_COORD97":2553927.2999999998,"ADDRESS":"新吉５９號之１１","OBJECTID":33402},"geometry":{"x":169003.95000000112,"y":2553927.3000000026}},{"attributes":{"ID":33403,"DIS_CODE":0,"TOWNNAME":"安定區","LI":"新吉里","LIN":"7鄰","STREET":" ","SECT":" ","MAREA":"新吉","LANE":" ","ALLEY":" ","HOUSE_NO":"５６之４５號","E_COORD97":168626.51999999999,"N_COORD97":2553647.2999999998,"ADDRESS":"新吉５６之４５號","OBJECTID":33403},"geometry":{"x":168626.52000000048,"y":2553647.3000000007}},{"attributes":{"ID":33404,"DIS_CODE":0,"TOWNNAME":"北區","LI":"文元里","LIN":"8鄰","STREET":"中華北路","SECT":"二段","MAREA":" ","LANE":"５３巷","ALLEY":"３３弄","HOUSE_NO":"３號","E_COORD97":167595.92000000001,"N_COORD97":2546499.6800000002,"ADDRESS":"中華北路二段５３巷３３弄３號","OBJECTID":33404},"geometry":{"x":167595.91999999993,"y":2546499.6799999997}},{"attributes":{"ID":33405,"DIS_CODE":0,"TOWNNAME":"永康區","LI":"大橋里","LIN":"14鄰","STREET":"大橋一街","SECT":" ","MAREA":" ","LANE":" ","ALLEY":" ","HOUSE_NO":"６１號七樓之１","E_COORD97":170895.70000000001,"N_COORD97":2546426.5499999998,"ADDRESS":"大橋一街６１號七樓之１","OBJECTID":33405},"geometry":{"x":170895.70000000205,"y":2546426.5500000026}},{"attributes":{"ID":33406,"DIS_CODE":0,"TOWNNAME":"永康區","LI":"大橋里","LIN":"14鄰","STREET":"大橋一街","SECT":" ","MAREA":" ","LANE":" ","ALLEY":" ","HOUSE_NO":"６１號六樓之１","E_COORD97":170895.70000000001,"N_COORD97":2546426.5499999998,"ADDRESS":"大橋一街６１號六樓之１","OBJECTID":33406},"geometry":{"x":170895.70000000205,"y":2546426.5500000026}},{"attributes":{"ID":33407,"DIS_CODE":0,"TOWNNAME":"永康區","LI":"大橋里","LIN":"14鄰","STREET":"大橋一街","SECT":" ","MAREA":" ","LANE":" ","ALLEY":" ","HOUSE_NO":"６３號十二樓之１","E_COORD97":170900.03,"N_COORD97":2546429.5499999998,"ADDRESS":"大橋一街６３號十二樓之１","OBJECTID":33407},"geometry":{"x":170900.03000000026,"y":2546429.5500000026}},{"attributes":{"ID":33408,"DIS_CODE":0,"TOWNNAME":"北區","LI":"文元里","LIN":"8鄰","STREET":"中華北路","SECT":"二段","MAREA":" ","LANE":"５３巷","ALLEY":"３３弄","HOUSE_NO":"５號","E_COORD97":167601.38,"N_COORD97":2546498.0899999999,"ADDRESS":"中華北路二段５３巷３３弄５號","OBJECTID":33408},"geometry":{"x":167601.37999999989,"y":2546498.0899999999}},{"attributes":{"ID":33409,"DIS_CODE":0,"TOWNNAME":"北區","LI":"文元里","LIN":"8鄰","STREET":"中華北路","SECT":"二段","MAREA":" ","LANE":"５３巷","ALLEY":"３３弄","HOUSE_NO":"６號","E_COORD97":167598.35000000001,"N_COORD97":2546485.5299999998,"ADDRESS":"中華北路二段５３巷３３弄６號","OBJECTID":33409},"geometry":{"x":167598.34999999963,"y":2546485.5300000012}},{"attributes":{"ID":33410,"DIS_CODE":0,"TOWNNAME":"北區","LI":"文元里","LIN":"8鄰","STREET":"中華北路","SECT":"二段","MAREA":" ","LANE":"５３巷","ALLEY":"３３弄","HOUSE_NO":"７號","E_COORD97":167604.20000000001,"N_COORD97":2546500.1400000001,"ADDRESS":"中華北路二段５３巷３３弄７號","OBJECTID":33410},"geometry":{"x":167604.20000000112,"y":2546500.1400000025}},{"attributes":{"ID":33411,"DIS_CODE":0,"TOWNNAME":"北區","LI":"文元里","LIN":"8鄰","STREET":"中華北路","SECT":"二段","MAREA":" ","LANE":"５３巷","ALLEY":"３３弄","HOUSE_NO":"８號","E_COORD97":167602.14000000001,"N_COORD97":2546484.2000000002,"ADDRESS":"中華北路二段５３巷３３弄８號","OBJECTID":33411},"geometry":{"x":167602.1400000006,"y":2546484.2000000011}},{"attributes":{"ID":33412,"DIS_CODE":0,"TOWNNAME":"北區","LI":"文元里","LIN":"8鄰","STREET":"中華北路","SECT":"二段","MAREA":" ","LANE":"５３巷","ALLEY":"３３弄","HOUSE_NO":"９號","E_COORD97":167609.20999999999,"N_COORD97":2546499.1000000001,"ADDRESS":"中華北路二段５３巷３３弄９號","OBJECTID":33412},"geometry":{"x":167609.20999999996,"y":2546499.1000000015}},{"attributes":{"ID":33413,"DIS_CODE":0,"TOWNNAME":"北區","LI":"文元里","LIN":"8鄰","STREET":"中華北路","SECT":"二段","MAREA":" ","LANE":"５３巷","ALLEY":"３９弄","HOUSE_NO":"１號","E_COORD97":167596.60999999999,"N_COORD97":2546468.8799999999,"ADDRESS":"中華北路二段５３巷３９弄１號","OBJECTID":33413},"geometry":{"x":167596.61000000127,"y":2546468.8800000008}},{"attributes":{"ID":33414,"DIS_CODE":0,"TOWNNAME":"北區","LI":"文元里","LIN":"8鄰","STREET":"中華北路","SECT":"二段","MAREA":" ","LANE":"５３巷","ALLEY":"３９弄","HOUSE_NO":"３號","E_COORD97":167602.39999999999,"N_COORD97":2546469.27,"ADDRESS":"中華北路二段５３巷３９弄３號","OBJECTID":33414},"geometry":{"x":167602.40000000224,"y":2546469.2699999996}},{"attributes":{"ID":33415,"DIS_CODE":0,"TOWNNAME":"北區","LI":"文元里","LIN":"8鄰","STREET":"中華北路","SECT":"二段","MAREA":" ","LANE":"５３巷","ALLEY":"３９弄","HOUSE_NO":"５號","E_COORD97":167608.57000000001,"N_COORD97":2546470.23,"ADDRESS":"中華北路二段５３巷３９弄５號","OBJECTID":33415},"geometry":{"x":167608.57000000123,"y":2546470.2300000004}},{"attributes":{"ID":33416,"DIS_CODE":0,"TOWNNAME":"北區","LI":"文元里","LIN":"8鄰","STREET":"中華北路","SECT":"二段","MAREA":" ","LANE":"５３巷","ALLEY":"３９弄","HOUSE_NO":"７號","E_COORD97":167615.32000000001,"N_COORD97":2546470.6200000001,"ADDRESS":"中華北路二段５３巷３９弄７號","OBJECTID":33416},"geometry":{"x":167615.32000000123,"y":2546470.6200000029}},{"attributes":{"ID":33417,"DIS_CODE":0,"TOWNNAME":"北區","LI":"文元里","LIN":"8鄰","STREET":"中華北路","SECT":"二段","MAREA":" ","LANE":"５３巷","ALLEY":"３９弄","HOUSE_NO":"９號","E_COORD97":167622.84,"N_COORD97":2546480.2400000002,"ADDRESS":"中華北路二段５３巷３９弄９號","OBJECTID":33417},"geometry":{"x":167622.84000000078,"y":2546480.2400000002}},{"attributes":{"ID":33418,"DIS_CODE":0,"TOWNNAME":"北區","LI":"文元里","LIN":"8鄰","STREET":"中華北路","SECT":"二段","MAREA":" ","LANE":"５３巷","ALLEY":"４０弄","HOUSE_NO":"１號","E_COORD97":167580.60999999999,"N_COORD97":2546476.9500000002,"ADDRESS":"中華北路二段５３巷４０弄１號","OBJECTID":33418},"geometry":{"x":167580.6100000022,"y":2546476.9499999993}},{"attributes":{"ID":33419,"DIS_CODE":0,"TOWNNAME":"北區","LI":"文元里","LIN":"8鄰","STREET":"中華北路","SECT":"二段","MAREA":" ","LANE":"５３巷","ALLEY":"４０弄","HOUSE_NO":"２號","E_COORD97":167576.54999999999,"N_COORD97":2546476.3100000001,"ADDRESS":"中華北路二段５３巷４０弄２號","OBJECTID":33419},"geometry":{"x":167576.54999999981,"y":2546476.3100000005}},{"attributes":{"ID":33420,"DIS_CODE":0,"TOWNNAME":"北區","LI":"文元里","LIN":"8鄰","STREET":"中華北路","SECT":"二段","MAREA":" ","LANE":"５３巷","ALLEY":"４０弄","HOUSE_NO":"３號","E_COORD97":167572.23000000001,"N_COORD97":2546475.9300000002,"ADDRESS":"中華北路二段５３巷４０弄３號","OBJECTID":33420},"geometry":{"x":167572.23000000138,"y":2546475.9300000016}},{"attributes":{"ID":33421,"DIS_CODE":0,"TOWNNAME":"北區","LI":"文元里","LIN":"8鄰","STREET":"中華北路","SECT":"二段","MAREA":" ","LANE":"５３巷","ALLEY":"４０弄","HOUSE_NO":"５號","E_COORD97":167567.66,"N_COORD97":2546475.1699999999,"ADDRESS":"中華北路二段５３巷４０弄５號","OBJECTID":33421},"geometry":{"x":167567.66000000015,"y":2546475.1700000018}},{"attributes":{"ID":33422,"DIS_CODE":0,"TOWNNAME":"北區","LI":"文元里","LIN":"8鄰","STREET":"中華北路","SECT":"二段","MAREA":" ","LANE":"５３巷","ALLEY":"４０弄","HOUSE_NO":"６號","E_COORD97":167563.07999999999,"N_COORD97":2546474.4100000001,"ADDRESS":"中華北路二段５３巷４０弄６號","OBJECTID":33422},"geometry":{"x":167563.08000000007,"y":2546474.410000002}},{"attributes":{"ID":33423,"DIS_CODE":0,"TOWNNAME":"北區","LI":"文元里","LIN":"8鄰","STREET":"中華北路","SECT":"二段","MAREA":" ","LANE":"５３巷","ALLEY":"４０弄","HOUSE_NO":"７號","E_COORD97":167558,"N_COORD97":2546473.6499999999,"ADDRESS":"中華北路二段５３巷４０弄７號","OBJECTID":33423},"geometry":{"x":167558.00000000093,"y":2546473.6500000004}},{"attributes":{"ID":33424,"DIS_CODE":0,"TOWNNAME":"北區","LI":"文元里","LIN":"8鄰","STREET":"中華北路","SECT":"二段","MAREA":" ","LANE":"５３巷","ALLEY":"４０弄","HOUSE_NO":"８號","E_COORD97":167560.79999999999,"N_COORD97":2546465.1400000001,"ADDRESS":"中華北路二段５３巷４０弄８號","OBJECTID":33424},"geometry":{"x":167560.80000000075,"y":2546465.1400000043}},{"attributes":{"ID":33425,"DIS_CODE":0,"TOWNNAME":"中西區","LI":"藥王里","LIN":"14鄰","STREET":"臨安路","SECT":"一段","MAREA":" ","LANE":" ","ALLEY":" ","HOUSE_NO":"７３號三樓之４","E_COORD97":166995.17000000001,"N_COORD97":2544409.9300000002,"ADDRESS":"臨安路一段７３號三樓之４","OBJECTID":33425},"geometry":{"x":166995.17000000086,"y":2544409.9299999997}},{"attributes":{"ID":33426,"DIS_CODE":0,"TOWNNAME":"永康區","LI":"大橋里","LIN":"14鄰","STREET":"大橋一街","SECT":" ","MAREA":" ","LANE":" ","ALLEY":" ","HOUSE_NO":"６１號三樓之１","E_COORD97":170895.70000000001,"N_COORD97":2546426.5499999998,"ADDRESS":"大橋一街６１號三樓之１","OBJECTID":33426},"geometry":{"x":170895.70000000205,"y":2546426.5500000026}},{"attributes":{"ID":33427,"DIS_CODE":0,"TOWNNAME":"永康區","LI":"大橋里","LIN":"14鄰","STREET":"大橋一街","SECT":" ","MAREA":" ","LANE":" ","ALLEY":" ","HOUSE_NO":"６３號十樓之２","E_COORD97":170898.92000000001,"N_COORD97":2546429.5499999998,"ADDRESS":"大橋一街６３號十樓之２","OBJECTID":33427},"geometry":{"x":170898.92000000179,"y":2546429.5500000026}},{"attributes":{"ID":33428,"DIS_CODE":0,"TOWNNAME":"東山區","LI":"東中里","LIN":"19鄰","STREET":"達雲路","SECT":"一段","MAREA":" ","LANE":" ","ALLEY":" ","HOUSE_NO":"１２號","E_COORD97":189015.14999999999,"N_COORD97":2580075.0699999998,"ADDRESS":"達雲路一段１２號","OBJECTID":33428},"geometry":{"x":189015.1500000013,"y":2580075.0700000022}},{"attributes":{"ID":33429,"DIS_CODE":0,"TOWNNAME":"東山區","LI":"東中里","LIN":"9鄰","STREET":"新東路","SECT":"二段","MAREA":" ","LANE":" ","ALLEY":" ","HOUSE_NO":"１１號","E_COORD97":188575.47,"N_COORD97":2580006.7400000002,"ADDRESS":"新東路二段１１號","OBJECTID":33429},"geometry":{"x":188575.46999999974,"y":2580006.7400000002}},{"attributes":{"ID":33430,"DIS_CODE":0,"TOWNNAME":"東山區","LI":"東中里","LIN":"9鄰","STREET":"新東路","SECT":"二段","MAREA":" ","LANE":" ","ALLEY":" ","HOUSE_NO":"１２３號","E_COORD97":188128.23999999999,"N_COORD97":2579868.2799999998,"ADDRESS":"新東路二段１２３號","OBJECTID":33430},"geometry":{"x":188128.24000000022,"y":2579868.2800000031}},{"attributes":{"ID":33431,"DIS_CODE":0,"TOWNNAME":"東山區","LI":"東中里","LIN":"9鄰","STREET":"新東路","SECT":"二段","MAREA":" ","LANE":" ","ALLEY":" ","HOUSE_NO":"１２５號","E_COORD97":188073.64999999999,"N_COORD97":2579828.7799999998,"ADDRESS":"新東路二段１２５號","OBJECTID":33431},"geometry":{"x":188073.65000000224,"y":2579828.7800000012}},{"attributes":{"ID":33432,"DIS_CODE":0,"TOWNNAME":"東山區","LI":"東中里","LIN":"9鄰","STREET":"新東路","SECT":"二段","MAREA":" ","LANE":" ","ALLEY":" ","HOUSE_NO":"１３號","E_COORD97":188571.84,"N_COORD97":2580005.6499999999,"ADDRESS":"新東路二段１３號","OBJECTID":33432},"geometry":{"x":188571.84000000171,"y":2580005.6500000041}},{"attributes":{"ID":33433,"DIS_CODE":0,"TOWNNAME":"東山區","LI":"東中里","LIN":"9鄰","STREET":"新東路","SECT":"二段","MAREA":" ","LANE":" ","ALLEY":" ","HOUSE_NO":"１５號","E_COORD97":188567.89999999999,"N_COORD97":2580004.4500000002,"ADDRESS":"新東路二段１５號","OBJECTID":33433},"geometry":{"x":188567.90000000037,"y":2580004.4499999993}},{"attributes":{"ID":33434,"DIS_CODE":0,"TOWNNAME":"東山區","LI":"東中里","LIN":"9鄰","STREET":"新東路","SECT":"二段","MAREA":" ","LANE":" ","ALLEY":" ","HOUSE_NO":"１７號","E_COORD97":188564.04999999999,"N_COORD97":2580003.3500000001,"ADDRESS":"新東路二段１７號","OBJECTID":33434},"geometry":{"x":188564.05000000075,"y":2580003.3499999978}},{"attributes":{"ID":33435,"DIS_CODE":0,"TOWNNAME":"安定區","LI":"新吉里","LIN":"7鄰","STREET":" ","SECT":" ","MAREA":"新吉","LANE":" ","ALLEY":" ","HOUSE_NO":"５６之４９號","E_COORD97":168609.01999999999,"N_COORD97":2553646.2999999998,"ADDRESS":"新吉５６之４９號","OBJECTID":33435},"geometry":{"x":168609.01999999955,"y":2553646.3000000026}},{"attributes":{"ID":33436,"DIS_CODE":0,"TOWNNAME":"安定區","LI":"新吉里","LIN":"7鄰","STREET":" ","SECT":" ","MAREA":"新吉","LANE":" ","ALLEY":" ","HOUSE_NO":"６０號之６","E_COORD97":169090.690737,"N_COORD97":2553943.51064,"ADDRESS":"新吉６０號之６","OBJECTID":33436},"geometry":{"x":169090.69073699974,"y":2553943.5106420014}},{"attributes":{"ID":33437,"DIS_CODE":0,"TOWNNAME":"永康區","LI":"大橋里","LIN":"14鄰","STREET":"大橋一街","SECT":" ","MAREA":" ","LANE":" ","ALLEY":" ","HOUSE_NO":"６１號六樓之３","E_COORD97":170895.79999999999,"N_COORD97":2546426.5499999998,"ADDRESS":"大橋一街６１號六樓之３","OBJECTID":33437},"geometry":{"x":170895.79999999981,"y":2546426.5500000026}},{"attributes":{"ID":33438,"DIS_CODE":0,"TOWNNAME":"安定區","LI":"新吉里","LIN":"7鄰","STREET":" ","SECT":" ","MAREA":"新吉","LANE":" ","ALLEY":" ","HOUSE_NO":"５６之６５號","E_COORD97":168466.01999999999,"N_COORD97":2553603.2999999998,"ADDRESS":"新吉５６之６５號","OBJECTID":33438},"geometry":{"x":168466.02000000048,"y":2553603.3000000007}},{"attributes":{"ID":33439,"DIS_CODE":0,"TOWNNAME":"安定區","LI":"新吉里","LIN":"7鄰","STREET":" ","SECT":" ","MAREA":"新吉","LANE":" ","ALLEY":" ","HOUSE_NO":"５６之５９號","E_COORD97":168593.82000000001,"N_COORD97":2553853.2999999998,"ADDRESS":"新吉５６之５９號","OBJECTID":33439},"geometry":{"x":168593.8200000003,"y":2553853.3000000026}},{"attributes":{"ID":33440,"DIS_CODE":0,"TOWNNAME":"北區","LI":"文元里","LIN":"8鄰","STREET":"中華北路","SECT":"二段","MAREA":" ","LANE":"５３巷","ALLEY":"４０弄","HOUSE_NO":"９號","E_COORD97":167567.39999999999,"N_COORD97":2546465.8999999999,"ADDRESS":"中華北路二段５３巷４０弄９號","OBJECTID":33440},"geometry":{"x":167567.4000000013,"y":2546465.9000000004}},{"attributes":{"ID":33441,"DIS_CODE":0,"TOWNNAME":"北區","LI":"文元里","LIN":"8鄰","STREET":"中華北路","SECT":"二段","MAREA":" ","LANE":"５３巷","ALLEY":"４０弄","HOUSE_NO":"１０號","E_COORD97":167573.75,"N_COORD97":2546466.6600000001,"ADDRESS":"中華北路二段５３巷４０弄１０號","OBJECTID":33441},"geometry":{"x":167573.75,"y":2546466.6600000001}},{"attributes":{"ID":33442,"DIS_CODE":0,"TOWNNAME":"北區","LI":"文元里","LIN":"8鄰","STREET":"中華北路","SECT":"二段","MAREA":" ","LANE":"５３巷","ALLEY":"４０弄","HOUSE_NO":"１１號","E_COORD97":167580.60999999999,"N_COORD97":2546467.4199999999,"ADDRESS":"中華北路二段５３巷４０弄１１號","OBJECTID":33442},"geometry":{"x":167580.6100000022,"y":2546467.4200000018}},{"attributes":{"ID":33443,"DIS_CODE":0,"TOWNNAME":"北區","LI":"文元里","LIN":"8鄰","STREET":"中華北路","SECT":"二段","MAREA":" ","LANE":"５３巷","ALLEY":"１６弄","HOUSE_NO":"８號","E_COORD97":167556.45999999999,"N_COORD97":2546574.2000000002,"ADDRESS":"中華北路二段５３巷１６弄８號","OBJECTID":33443},"geometry":{"x":167556.46000000089,"y":2546574.1999999993}},{"attributes":{"ID":33444,"DIS_CODE":0,"TOWNNAME":"北區","LI":"文元里","LIN":"8鄰","STREET":"中華北路","SECT":"二段","MAREA":" ","LANE":"５３巷","ALLEY":"１６弄","HOUSE_NO":"６號","E_COORD97":167561.16,"N_COORD97":2546575.3500000001,"ADDRESS":"中華北路二段５３巷１６弄６號","OBJECTID":33444},"geometry":{"x":167561.16000000015,"y":2546575.3500000015}},{"attributes":{"ID":33445,"DIS_CODE":0,"TOWNNAME":"北區","LI":"文元里","LIN":"8鄰","STREET":"中華北路","SECT":"二段","MAREA":" ","LANE":"５３巷","ALLEY":"１６弄","HOUSE_NO":"２號","E_COORD97":167565.48000000001,"N_COORD97":2546575.8599999999,"ADDRESS":"中華北路二段５３巷１６弄２號","OBJECTID":33445},"geometry":{"x":167565.48000000138,"y":2546575.8599999994}},{"attributes":{"ID":33446,"DIS_CODE":0,"TOWNNAME":"北區","LI":"文元里","LIN":"8鄰","STREET":"中華北路","SECT":"二段","MAREA":" ","LANE":"５３巷","ALLEY":"１６弄","HOUSE_NO":"９號","E_COORD97":167548.32999999999,"N_COORD97":2546560.4900000002,"ADDRESS":"中華北路二段５３巷１６弄９號","OBJECTID":33446},"geometry":{"x":167548.33000000194,"y":2546560.4900000039}},{"attributes":{"ID":33447,"DIS_CODE":0,"TOWNNAME":"北區","LI":"文元里","LIN":"8鄰","STREET":"中華北路","SECT":"二段","MAREA":" ","LANE":"５３巷","ALLEY":"１８弄","HOUSE_NO":"１０號","E_COORD97":167555.70000000001,"N_COORD97":2546538.77,"ADDRESS":"中華北路二段５３巷１８弄１０號","OBJECTID":33447},"geometry":{"x":167555.70000000019,"y":2546538.7700000014}},{"attributes":{"ID":33448,"DIS_CODE":0,"TOWNNAME":"北區","LI":"文元里","LIN":"8鄰","STREET":"中華北路","SECT":"二段","MAREA":" ","LANE":"５３巷","ALLEY":"１８弄","HOUSE_NO":"６號","E_COORD97":167566.48999999999,"N_COORD97":2546539.79,"ADDRESS":"中華北路二段５３巷１８弄６號","OBJECTID":33448},"geometry":{"x":167566.49000000115,"y":2546539.7899999991}},{"attributes":{"ID":33449,"DIS_CODE":0,"TOWNNAME":"北區","LI":"文元里","LIN":"8鄰","STREET":"中華北路","SECT":"二段","MAREA":" ","LANE":"５３巷","ALLEY":"１８弄","HOUSE_NO":"１號","E_COORD97":167573.48000000001,"N_COORD97":2546528.9300000002,"ADDRESS":"中華北路二段５３巷１８弄１號","OBJECTID":33449},"geometry":{"x":167573.48000000138,"y":2546528.9299999997}},{"attributes":{"ID":33450,"DIS_CODE":0,"TOWNNAME":"北區","LI":"成德里","LIN":"8鄰","STREET":"西門路","SECT":"四段","MAREA":" ","LANE":"６５巷","ALLEY":"１３０弄","HOUSE_NO":"１０號","E_COORD97":168431.13,"N_COORD97":2545519,"ADDRESS":"西門路四段６５巷１３０弄１０號","OBJECTID":33450},"geometry":{"x":168431.13000000082,"y":2545519}},{"attributes":{"ID":33451,"DIS_CODE":0,"TOWNNAME":"北區","LI":"成德里","LIN":"8鄰","STREET":"西門路","SECT":"四段","MAREA":" ","LANE":"６５巷","ALLEY":"１３０弄","HOUSE_NO":"８號","E_COORD97":168435.89000000001,"N_COORD97":2545525.6699999999,"ADDRESS":"西門路四段６５巷１３０弄８號","OBJECTID":33451},"geometry":{"x":168435.89000000153,"y":2545525.6700000018}},{"attributes":{"ID":33452,"DIS_CODE":0,"TOWNNAME":"北區","LI":"成德里","LIN":"8鄰","STREET":"西門路","SECT":"四段","MAREA":" ","LANE":"６５巷","ALLEY":"１３０弄","HOUSE_NO":"６號","E_COORD97":168440.01999999999,"N_COORD97":2545532.3399999999,"ADDRESS":"西門路四段６５巷１３０弄６號","OBJECTID":33452},"geometry":{"x":168440.02000000048,"y":2545532.3399999999}},{"attributes":{"ID":33453,"DIS_CODE":0,"TOWNNAME":"北區","LI":"成德里","LIN":"8鄰","STREET":"西門路","SECT":"四段","MAREA":" ","LANE":"６５巷","ALLEY":"１３０弄","HOUSE_NO":"２號","E_COORD97":168443.82999999999,"N_COORD97":2545539,"ADDRESS":"西門路四段６５巷１３０弄２號","OBJECTID":33453},"geometry":{"x":168443.83000000101,"y":2545539}},{"attributes":{"ID":33454,"DIS_CODE":0,"TOWNNAME":"北區","LI":"成德里","LIN":"8鄰","STREET":"西門路","SECT":"四段","MAREA":" ","LANE":"６５巷","ALLEY":"１３０弄","HOUSE_NO":"１２號","E_COORD97":168439.07000000001,"N_COORD97":2545514.7200000002,"ADDRESS":"西門路四段６５巷１３０弄１２號","OBJECTID":33454},"geometry":{"x":168439.07000000123,"y":2545514.7200000007}},{"attributes":{"ID":33455,"DIS_CODE":0,"TOWNNAME":"北區","LI":"成德里","LIN":"8鄰","STREET":"西門路","SECT":"四段","MAREA":" ","LANE":"６５巷","ALLEY":"１３０弄","HOUSE_NO":"１６號","E_COORD97":168443.67000000001,"N_COORD97":2545522.02,"ADDRESS":"西門路四段６５巷１３０弄１６號","OBJECTID":33455},"geometry":{"x":168443.66999999993,"y":2545522.0199999977}},{"attributes":{"ID":33456,"DIS_CODE":0,"TOWNNAME":"北區","LI":"成德里","LIN":"8鄰","STREET":"西門路","SECT":"四段","MAREA":" ","LANE":"６５巷","ALLEY":"１３０弄","HOUSE_NO":"１８號","E_COORD97":168448.91,"N_COORD97":2545529,"ADDRESS":"西門路四段６５巷１３０弄１８號","OBJECTID":33456},"geometry":{"x":168448.91000000015,"y":2545529}},{"attributes":{"ID":33457,"DIS_CODE":0,"TOWNNAME":"北區","LI":"成德里","LIN":"8鄰","STREET":"西門路","SECT":"四段","MAREA":" ","LANE":"６５巷","ALLEY":"１３０弄","HOUSE_NO":"２０號","E_COORD97":168453.67000000001,"N_COORD97":2545536.46,"ADDRESS":"西門路四段６５巷１３０弄２０號","OBJECTID":33457},"geometry":{"x":168453.66999999993,"y":2545536.4600000009}},{"attributes":{"ID":33458,"DIS_CODE":0,"TOWNNAME":"北區","LI":"成德里","LIN":"8鄰","STREET":"西門路","SECT":"四段","MAREA":" ","LANE":"６５巷","ALLEY":"１３０弄","HOUSE_NO":"２２號","E_COORD97":168460.01999999999,"N_COORD97":2545545.9900000002,"ADDRESS":"西門路四段６５巷１３０弄２２號","OBJECTID":33458},"geometry":{"x":168460.01999999955,"y":2545545.9900000002}},{"attributes":{"ID":33459,"DIS_CODE":0,"TOWNNAME":"北區","LI":"成德里","LIN":"8鄰","STREET":"西門路","SECT":"四段","MAREA":" ","LANE":"６５巷","ALLEY":"１３０弄","HOUSE_NO":"２６號","E_COORD97":168462.56,"N_COORD97":2545550.75,"ADDRESS":"西門路四段６５巷１３０弄２６號","OBJECTID":33459},"geometry":{"x":168462.55999999959,"y":2545550.75}},{"attributes":{"ID":33460,"DIS_CODE":0,"TOWNNAME":"安定區","LI":"新吉里","LIN":"7鄰","STREET":" ","SECT":" ","MAREA":"新吉","LANE":" ","ALLEY":" ","HOUSE_NO":"５９之１號","E_COORD97":169059.26999999999,"N_COORD97":2553911.2999999998,"ADDRESS":"新吉５９之１號","OBJECTID":33460},"geometry":{"x":169059.27000000048,"y":2553911.3000000007}},{"attributes":{"ID":33461,"DIS_CODE":0,"TOWNNAME":"安定區","LI":"新吉里","LIN":"7鄰","STREET":" ","SECT":" ","MAREA":"新吉","LANE":" ","ALLEY":" ","HOUSE_NO":"５６之４３號","E_COORD97":168631.22,"N_COORD97":2553648.2999999998,"ADDRESS":"新吉５６之４３號","OBJECTID":33461},"geometry":{"x":168631.21999999974,"y":2553648.3000000045}},{"attributes":{"ID":33462,"DIS_CODE":0,"TOWNNAME":"安定區","LI":"新吉里","LIN":"7鄰","STREET":" ","SECT":" ","MAREA":"新吉","LANE":" ","ALLEY":" ","HOUSE_NO":"５６之５３號","E_COORD97":168592.72,"N_COORD97":2553643.2999999998,"ADDRESS":"新吉５６之５３號","OBJECTID":33462},"geometry":{"x":168592.71999999974,"y":2553643.3000000007}},{"attributes":{"ID":33463,"DIS_CODE":0,"TOWNNAME":"安定區","LI":"新吉里","LIN":"7鄰","STREET":" ","SECT":" ","MAREA":"新吉","LANE":" ","ALLEY":" ","HOUSE_NO":"５６之７０號","E_COORD97":168425.42000000001,"N_COORD97":2553619.2999999998,"ADDRESS":"新吉５６之７０號","OBJECTID":33463},"geometry":{"x":168425.41999999993,"y":2553619.3000000026}},{"attributes":{"ID":33464,"DIS_CODE":0,"TOWNNAME":"安定區","LI":"新吉里","LIN":"7鄰","STREET":" ","SECT":" ","MAREA":"新吉","LANE":" ","ALLEY":" ","HOUSE_NO":"５９之５６號","E_COORD97":168960.72,"N_COORD97":2553999.2999999998,"ADDRESS":"新吉５９之５６號","OBJECTID":33464},"geometry":{"x":168960.71999999881,"y":2553999.3000000007}},{"attributes":{"ID":33465,"DIS_CODE":0,"TOWNNAME":"安定區","LI":"新吉里","LIN":"7鄰","STREET":" ","SECT":" ","MAREA":"新吉","LANE":" ","ALLEY":" ","HOUSE_NO":"５６之４８號","E_COORD97":168613.72,"N_COORD97":2553646.2999999998,"ADDRESS":"新吉５６之４８號","OBJECTID":33465},"geometry":{"x":168613.72000000067,"y":2553646.3000000026}},{"attributes":{"ID":33466,"DIS_CODE":0,"TOWNNAME":"安定區","LI":"新吉里","LIN":"7鄰","STREET":" ","SECT":" ","MAREA":"新吉","LANE":" ","ALLEY":" ","HOUSE_NO":"５６之３１號","E_COORD97":168646.22,"N_COORD97":2553575.2999999998,"ADDRESS":"新吉５６之３１號","OBJECTID":33466},"geometry":{"x":168646.22000000067,"y":2553575.3000000026}},{"attributes":{"ID":33467,"DIS_CODE":0,"TOWNNAME":"安定區","LI":"新吉里","LIN":"7鄰","STREET":" ","SECT":" ","MAREA":"新吉","LANE":" ","ALLEY":" ","HOUSE_NO":"１２６之１３號","E_COORD97":169099.57000000001,"N_COORD97":2553869.2999999998,"ADDRESS":"新吉１２６之１３號","OBJECTID":33467},"geometry":{"x":169099.5700000003,"y":2553869.3000000026}},{"attributes":{"ID":33468,"DIS_CODE":0,"TOWNNAME":"安定區","LI":"新吉里","LIN":"7鄰","STREET":" ","SECT":" ","MAREA":"新吉","LANE":" ","ALLEY":" ","HOUSE_NO":"５６之７５號","E_COORD97":168393.01999999999,"N_COORD97":2553632.2999999998,"ADDRESS":"新吉５６之７５號","OBJECTID":33468},"geometry":{"x":168393.02000000048,"y":2553632.3000000026}},{"attributes":{"ID":33469,"DIS_CODE":0,"TOWNNAME":"安定區","LI":"新吉里","LIN":"7鄰","STREET":" ","SECT":" ","MAREA":"新吉","LANE":" ","ALLEY":" ","HOUSE_NO":"５６之７１號","E_COORD97":168417.42000000001,"N_COORD97":2553622.2999999998,"ADDRESS":"新吉５６之７１號","OBJECTID":33469},"geometry":{"x":168417.42000000086,"y":2553622.3000000026}},{"attributes":{"ID":33470,"DIS_CODE":0,"TOWNNAME":"安定區","LI":"新吉里","LIN":"7鄰","STREET":" ","SECT":" ","MAREA":"新吉","LANE":" ","ALLEY":" ","HOUSE_NO":"５６之６６號","E_COORD97":168457.92000000001,"N_COORD97":2553606.2999999998,"ADDRESS":"新吉５６之６６號","OBJECTID":33470},"geometry":{"x":168457.92000000179,"y":2553606.3000000007}},{"attributes":{"ID":33471,"DIS_CODE":0,"TOWNNAME":"安定區","LI":"新吉里","LIN":"7鄰","STREET":" ","SECT":" ","MAREA":"新吉","LANE":" ","ALLEY":" ","HOUSE_NO":"５６之７７號","E_COORD97":168377.12,"N_COORD97":2553638.2999999998,"ADDRESS":"新吉５６之７７號","OBJECTID":33471},"geometry":{"x":168377.12000000197,"y":2553638.3000000045}},{"attributes":{"ID":33472,"DIS_CODE":0,"TOWNNAME":"安定區","LI":"新吉里","LIN":"7鄰","STREET":" ","SECT":" ","MAREA":"新吉","LANE":" ","ALLEY":" ","HOUSE_NO":"５６之２９號","E_COORD97":168462.32000000001,"N_COORD97":2553768.2999999998,"ADDRESS":"新吉５６之２９號","OBJECTID":33472},"geometry":{"x":168462.32000000216,"y":2553768.3000000026}},{"attributes":{"ID":33473,"DIS_CODE":0,"TOWNNAME":"安定區","LI":"新吉里","LIN":"7鄰","STREET":" ","SECT":" ","MAREA":"新吉","LANE":" ","ALLEY":" ","HOUSE_NO":"５６之５５號","E_COORD97":168583.32000000001,"N_COORD97":2553642.2999999998,"ADDRESS":"新吉５６之５５號","OBJECTID":33473},"geometry":{"x":168583.32000000123,"y":2553642.3000000026}},{"attributes":{"ID":33474,"DIS_CODE":0,"TOWNNAME":"安定區","LI":"新吉里","LIN":"7鄰","STREET":" ","SECT":" ","MAREA":"新吉","LANE":" ","ALLEY":" ","HOUSE_NO":"１２７號","E_COORD97":169098.22,"N_COORD97":2553793.25,"ADDRESS":"新吉１２７號","OBJECTID":33474},"geometry":{"x":169098.2200000016,"y":2553793.25}},{"attributes":{"ID":33475,"DIS_CODE":0,"TOWNNAME":"安定區","LI":"新吉里","LIN":"7鄰","STREET":" ","SECT":" ","MAREA":"新吉","LANE":" ","ALLEY":" ","HOUSE_NO":"５６之６７號","E_COORD97":168449.72,"N_COORD97":2553609.2999999998,"ADDRESS":"新吉５６之６７號","OBJECTID":33475},"geometry":{"x":168449.71999999974,"y":2553609.3000000007}},{"attributes":{"ID":33476,"DIS_CODE":0,"TOWNNAME":"安定區","LI":"新吉里","LIN":"7鄰","STREET":" ","SECT":" ","MAREA":"新吉","LANE":" ","ALLEY":" ","HOUSE_NO":"５６之４０號","E_COORD97":168652.42000000001,"N_COORD97":2553645.2999999998,"ADDRESS":"新吉５６之４０號","OBJECTID":33476},"geometry":{"x":168652.41999999993,"y":2553645.3000000026}},{"attributes":{"ID":33477,"DIS_CODE":0,"TOWNNAME":"安定區","LI":"新吉里","LIN":"7鄰","STREET":" ","SECT":" ","MAREA":"新吉","LANE":" ","ALLEY":" ","HOUSE_NO":"１２９號","E_COORD97":169099.12,"N_COORD97":2553782.25,"ADDRESS":"新吉１２９號","OBJECTID":33477},"geometry":{"x":169099.11999999918,"y":2553782.25}},{"attributes":{"ID":33478,"DIS_CODE":0,"TOWNNAME":"安定區","LI":"中榮里","LIN":"7鄰","STREET":" ","SECT":" ","MAREA":"許中營","LANE":" ","ALLEY":" ","HOUSE_NO":"６６號之１","E_COORD97":172245.38,"N_COORD97":2555100.2999999998,"ADDRESS":"許中營６６號之１","OBJECTID":33478},"geometry":{"x":172245.38000000082,"y":2555100.3000000026}},{"attributes":{"ID":33479,"DIS_CODE":0,"TOWNNAME":"安定區","LI":"安定里","LIN":"7鄰","STREET":" ","SECT":" ","MAREA":"安定","LANE":" ","ALLEY":" ","HOUSE_NO":"５２之１９號","E_COORD97":172010.231718,"N_COORD97":2558059.9680499998,"ADDRESS":"安定５２之１９號","OBJECTID":33479},"geometry":{"x":172010.23171800002,"y":2558059.9680480007}},{"attributes":{"ID":33480,"DIS_CODE":0,"TOWNNAME":"安定區","LI":"海寮里","LIN":"7鄰","STREET":" ","SECT":" ","MAREA":"海寮","LANE":" ","ALLEY":" ","HOUSE_NO":"７１號","E_COORD97":169375.29000000001,"N_COORD97":2555320.25,"ADDRESS":"海寮７１號","OBJECTID":33480},"geometry":{"x":169375.29000000004,"y":2555320.2500000019}},{"attributes":{"ID":33481,"DIS_CODE":0,"TOWNNAME":"安定區","LI":"中榮里","LIN":"7鄰","STREET":" ","SECT":" ","MAREA":"許中營","LANE":" ","ALLEY":" ","HOUSE_NO":"５９之２號","E_COORD97":172265.28161000001,"N_COORD97":2555020.3184000002,"ADDRESS":"許中營５９之２號","OBJECTID":33481},"geometry":{"x":172265.28160999995,"y":2555020.3184000012}},{"attributes":{"ID":33482,"DIS_CODE":0,"TOWNNAME":"安定區","LI":"港尾里","LIN":"7鄰","STREET":" ","SECT":" ","MAREA":"港子尾","LANE":" ","ALLEY":" ","HOUSE_NO":"３５號之４","E_COORD97":171723.87,"N_COORD97":2556067.3500000001,"ADDRESS":"港子尾３５號之４","OBJECTID":33482},"geometry":{"x":171723.87000000104,"y":2556067.3499999978}},{"attributes":{"ID":33483,"DIS_CODE":0,"TOWNNAME":"安定區","LI":"安定里","LIN":"7鄰","STREET":" ","SECT":" ","MAREA":"安定","LANE":" ","ALLEY":" ","HOUSE_NO":"４７之１９號","E_COORD97":172009.82000000001,"N_COORD97":2557967.3199999998,"ADDRESS":"安定４７之１９號","OBJECTID":33483},"geometry":{"x":172009.8200000003,"y":2557967.3200000022}},{"attributes":{"ID":33484,"DIS_CODE":0,"TOWNNAME":"安定區","LI":"港尾里","LIN":"7鄰","STREET":" ","SECT":" ","MAREA":"港子尾","LANE":" ","ALLEY":" ","HOUSE_NO":"３５號之６","E_COORD97":171693.73000000001,"N_COORD97":2556070.2999999998,"ADDRESS":"港子尾３５號之６","OBJECTID":33484},"geometry":{"x":171693.73000000045,"y":2556070.3000000026}},{"attributes":{"ID":33485,"DIS_CODE":0,"TOWNNAME":"安定區","LI":"安定里","LIN":"7鄰","STREET":" ","SECT":" ","MAREA":"安定","LANE":" ","ALLEY":" ","HOUSE_NO":"５４之５號","E_COORD97":171946.17000000001,"N_COORD97":2557838.3199999998,"ADDRESS":"安定５４之５號","OBJECTID":33485},"geometry":{"x":171946.16999999993,"y":2557838.320000004}},{"attributes":{"ID":33486,"DIS_CODE":0,"TOWNNAME":"安定區","LI":"新吉里","LIN":"7鄰","STREET":" ","SECT":" ","MAREA":"新吉","LANE":" ","ALLEY":" ","HOUSE_NO":"５０號之１４","E_COORD97":169054.67999999999,"N_COORD97":2553974.2999999998,"ADDRESS":"新吉５０號之１４","OBJECTID":33486},"geometry":{"x":169054.68000000063,"y":2553974.3000000026}},{"attributes":{"ID":33487,"DIS_CODE":0,"TOWNNAME":"安定區","LI":"安加里","LIN":"7鄰","STREET":" ","SECT":" ","MAREA":"安定","LANE":" ","ALLEY":" ","HOUSE_NO":"２１７之３號","E_COORD97":171758.922586,"N_COORD97":2557467.5594500001,"ADDRESS":"安定２１７之３號","OBJECTID":33487},"geometry":{"x":171758.92258599866,"y":2557467.5594520029}},{"attributes":{"ID":33488,"DIS_CODE":0,"TOWNNAME":"安定區","LI":"港尾里","LIN":"7鄰","STREET":" ","SECT":" ","MAREA":"港子尾","LANE":" ","ALLEY":" ","HOUSE_NO":"３２號之２","E_COORD97":171621.95999999999,"N_COORD97":2556027.2999999998,"ADDRESS":"港子尾３２號之２","OBJECTID":33488},"geometry":{"x":171621.95999999996,"y":2556027.3000000007}},{"attributes":{"ID":33489,"DIS_CODE":0,"TOWNNAME":"安定區","LI":"安定里","LIN":"7鄰","STREET":" ","SECT":" ","MAREA":"安定","LANE":" ","ALLEY":" ","HOUSE_NO":"５２之２５號","E_COORD97":171933.22,"N_COORD97":2557918.3199999998,"ADDRESS":"安定５２之２５號","OBJECTID":33489},"geometry":{"x":171933.22000000067,"y":2557918.3200000003}},{"attributes":{"ID":33490,"DIS_CODE":0,"TOWNNAME":"安定區","LI":"新吉里","LIN":"7鄰","STREET":" ","SECT":" ","MAREA":"新吉","LANE":" ","ALLEY":" ","HOUSE_NO":"５５之３６號","E_COORD97":168784.82000000001,"N_COORD97":2553886.2999999998,"ADDRESS":"新吉５５之３６號","OBJECTID":33490},"geometry":{"x":168784.82000000123,"y":2553886.3000000026}},{"attributes":{"ID":33491,"DIS_CODE":0,"TOWNNAME":"安定區","LI":"蘇厝里","LIN":"7鄰","STREET":" ","SECT":" ","MAREA":"蘇厝","LANE":" ","ALLEY":" ","HOUSE_NO":"３３７號","E_COORD97":172987.72,"N_COORD97":2558565.25,"ADDRESS":"蘇厝３３７號","OBJECTID":33491},"geometry":{"x":172987.72000000067,"y":2558565.2500000019}},{"attributes":{"ID":33492,"DIS_CODE":0,"TOWNNAME":"安定區","LI":"新吉里","LIN":"7鄰","STREET":" ","SECT":" ","MAREA":"新吉","LANE":" ","ALLEY":" ","HOUSE_NO":"５５之１９號","E_COORD97":168751.01999999999,"N_COORD97":2553894.2999999998,"ADDRESS":"新吉５５之１９號","OBJECTID":33492},"geometry":{"x":168751.01999999955,"y":2553894.3000000007}},{"attributes":{"ID":33493,"DIS_CODE":0,"TOWNNAME":"安定區","LI":"安定里","LIN":"7鄰","STREET":" ","SECT":" ","MAREA":"安定","LANE":" ","ALLEY":" ","HOUSE_NO":"５５之１號","E_COORD97":171913.47,"N_COORD97":2557899.3199999998,"ADDRESS":"安定５５之１號","OBJECTID":33493},"geometry":{"x":171913.46999999974,"y":2557899.320000004}},{"attributes":{"ID":33494,"DIS_CODE":0,"TOWNNAME":"安定區","LI":"安定里","LIN":"7鄰","STREET":" ","SECT":" ","MAREA":"安定","LANE":" ","ALLEY":" ","HOUSE_NO":"５３號","E_COORD97":171931.17000000001,"N_COORD97":2557884.3199999998,"ADDRESS":"安定５３號","OBJECTID":33494},"geometry":{"x":171931.16999999993,"y":2557884.3200000003}},{"attributes":{"ID":33495,"DIS_CODE":0,"TOWNNAME":"安定區","LI":"安加里","LIN":"7鄰","STREET":" ","SECT":" ","MAREA":"安定","LANE":" ","ALLEY":" ","HOUSE_NO":"２１９之１號","E_COORD97":171748.38502300001,"N_COORD97":2557424.2207200001,"ADDRESS":"安定２１９之１號","OBJECTID":33495},"geometry":{"x":171748.38502300065,"y":2557424.220724998}},{"attributes":{"ID":33496,"DIS_CODE":0,"TOWNNAME":"安定區","LI":"安定里","LIN":"7鄰","STREET":" ","SECT":" ","MAREA":"安定","LANE":" ","ALLEY":" ","HOUSE_NO":"５２之２１號","E_COORD97":172002.12,"N_COORD97":2558081.3199999998,"ADDRESS":"安定５２之２１號","OBJECTID":33496},"geometry":{"x":172002.12000000104,"y":2558081.3200000003}},{"attributes":{"ID":33497,"DIS_CODE":0,"TOWNNAME":"安定區","LI":"安定里","LIN":"7鄰","STREET":" ","SECT":" ","MAREA":"安定","LANE":" ","ALLEY":" ","HOUSE_NO":"４７之１２號","E_COORD97":171985.22,"N_COORD97":2557905.3199999998,"ADDRESS":"安定４７之１２號","OBJECTID":33497},"geometry":{"x":171985.22000000067,"y":2557905.3200000003}},{"attributes":{"ID":33498,"DIS_CODE":0,"TOWNNAME":"安定區","LI":"安定里","LIN":"7鄰","STREET":" ","SECT":" ","MAREA":"安定","LANE":" ","ALLEY":" ","HOUSE_NO":"５４號之８","E_COORD97":171969.75,"N_COORD97":2557829.3199999998,"ADDRESS":"安定５４號之８","OBJECTID":33498},"geometry":{"x":171969.74999999907,"y":2557829.3200000022}},{"attributes":{"ID":33499,"DIS_CODE":0,"TOWNNAME":"安定區","LI":"港尾里","LIN":"7鄰","STREET":" ","SECT":" ","MAREA":"港子尾","LANE":" ","ALLEY":" ","HOUSE_NO":"３５號之１","E_COORD97":171693.03,"N_COORD97":2556066.2999999998,"ADDRESS":"港子尾３５號之１","OBJECTID":33499},"geometry":{"x":171693.03000000026,"y":2556066.3000000026}},{"attributes":{"ID":33500,"DIS_CODE":0,"TOWNNAME":"安定區","LI":"安定里","LIN":"7鄰","STREET":" ","SECT":" ","MAREA":"安定","LANE":" ","ALLEY":" ","HOUSE_NO":"５０號","E_COORD97":171965.47,"N_COORD97":2557900.3199999998,"ADDRESS":"安定５０號","OBJECTID":33500},"geometry":{"x":171965.47000000067,"y":2557900.3200000022}},{"attributes":{"ID":33501,"DIS_CODE":0,"TOWNNAME":"安定區","LI":"保西里","LIN":"7鄰","STREET":" ","SECT":" ","MAREA":"安定","LANE":" ","ALLEY":" ","HOUSE_NO":"３９１號之１","E_COORD97":171648.54999999999,"N_COORD97":2557753.3199999998,"ADDRESS":"安定３９１號之１","OBJECTID":33501},"geometry":{"x":171648.54999999981,"y":2557753.320000004}},{"attributes":{"ID":33502,"DIS_CODE":0,"TOWNNAME":"安定區","LI":"安定里","LIN":"7鄰","STREET":" ","SECT":" ","MAREA":"安定","LANE":" ","ALLEY":" ","HOUSE_NO":"５２之３號","E_COORD97":171994.47,"N_COORD97":2558000.3199999998,"ADDRESS":"安定５２之３號","OBJECTID":33502},"geometry":{"x":171994.46999999974,"y":2558000.3200000003}},{"attributes":{"ID":33503,"DIS_CODE":0,"TOWNNAME":"安定區","LI":"安定里","LIN":"7鄰","STREET":" ","SECT":" ","MAREA":"安定","LANE":" ","ALLEY":" ","HOUSE_NO":"５４之６號","E_COORD97":171957.65184400001,"N_COORD97":2557813.7877199999,"ADDRESS":"安定５４之６號","OBJECTID":33503},"geometry":{"x":171957.65184400044,"y":2557813.787723003}},{"attributes":{"ID":33504,"DIS_CODE":0,"TOWNNAME":"安定區","LI":"保西里","LIN":"7鄰","STREET":" ","SECT":" ","MAREA":"安定","LANE":" ","ALLEY":" ","HOUSE_NO":"３９５號","E_COORD97":171695.42000000001,"N_COORD97":2557754.3199999998,"ADDRESS":"安定３９５號","OBJECTID":33504},"geometry":{"x":171695.41999999993,"y":2557754.3200000022}},{"attributes":{"ID":33505,"DIS_CODE":0,"TOWNNAME":"安定區","LI":"海寮里","LIN":"7鄰","STREET":" ","SECT":" ","MAREA":"海寮","LANE":" ","ALLEY":" ","HOUSE_NO":"７１之１號","E_COORD97":169387.79000000001,"N_COORD97":2555287.2999999998,"ADDRESS":"海寮７１之１號","OBJECTID":33505},"geometry":{"x":169387.7900000019,"y":2555287.3000000026}},{"attributes":{"ID":33506,"DIS_CODE":0,"TOWNNAME":"安定區","LI":"安加里","LIN":"7鄰","STREET":" ","SECT":" ","MAREA":"安定","LANE":" ","ALLEY":" ","HOUSE_NO":"２１７之２號","E_COORD97":171760.03459,"N_COORD97":2557473.64487,"ADDRESS":"安定２１７之２號","OBJECTID":33506},"geometry":{"x":171760.03459000215,"y":2557473.6448650025}},{"attributes":{"ID":33507,"DIS_CODE":0,"TOWNNAME":"安定區","LI":"新吉里","LIN":"7鄰","STREET":" ","SECT":" ","MAREA":"新吉","LANE":" ","ALLEY":" ","HOUSE_NO":"５５之２６號","E_COORD97":168796.12,"N_COORD97":2553862.2999999998,"ADDRESS":"新吉５５之２６號","OBJECTID":33507},"geometry":{"x":168796.12000000104,"y":2553862.3000000026}},{"attributes":{"ID":33508,"DIS_CODE":0,"TOWNNAME":"安定區","LI":"新吉里","LIN":"7鄰","STREET":" ","SECT":" ","MAREA":"新吉","LANE":" ","ALLEY":" ","HOUSE_NO":"５５之１０號","E_COORD97":168764.42000000001,"N_COORD97":2553879.2999999998,"ADDRESS":"新吉５５之１０號","OBJECTID":33508},"geometry":{"x":168764.41999999993,"y":2553879.3000000026}},{"attributes":{"ID":33509,"DIS_CODE":0,"TOWNNAME":"安定區","LI":"保西里","LIN":"7鄰","STREET":" ","SECT":" ","MAREA":"安定","LANE":" ","ALLEY":" ","HOUSE_NO":"３９０號之２","E_COORD97":171630.89000000001,"N_COORD97":2557739.3199999998,"ADDRESS":"安定３９０號之２","OBJECTID":33509},"geometry":{"x":171630.88999999966,"y":2557739.3200000003}},{"attributes":{"ID":33510,"DIS_CODE":0,"TOWNNAME":"安定區","LI":"安定里","LIN":"7鄰","STREET":" ","SECT":" ","MAREA":"安定","LANE":" ","ALLEY":" ","HOUSE_NO":"５２號","E_COORD97":171946.56713700001,"N_COORD97":2557919.9923200002,"ADDRESS":"安定５２號","OBJECTID":33510},"geometry":{"x":171946.56713700015,"y":2557919.9923190009}},{"attributes":{"ID":33511,"DIS_CODE":0,"TOWNNAME":"安定區","LI":"港尾里","LIN":"7鄰","STREET":" ","SECT":" ","MAREA":"港子尾","LANE":" ","ALLEY":" ","HOUSE_NO":"３６號","E_COORD97":171694.79000000001,"N_COORD97":2555974.2599999998,"ADDRESS":"港子尾３６號","OBJECTID":33511},"geometry":{"x":171694.79000000004,"y":2555974.2600000016}},{"attributes":{"ID":33512,"DIS_CODE":0,"TOWNNAME":"安定區","LI":"港尾里","LIN":"7鄰","STREET":" ","SECT":" ","MAREA":"港子尾","LANE":" ","ALLEY":" ","HOUSE_NO":"３７號之９","E_COORD97":171725.51000000001,"N_COORD97":2556023.2999999998,"ADDRESS":"港子尾３７號之９","OBJECTID":33512},"geometry":{"x":171725.51000000164,"y":2556023.3000000007}},{"attributes":{"ID":33513,"DIS_CODE":0,"TOWNNAME":"安定區","LI":"港尾里","LIN":"7鄰","STREET":" ","SECT":" ","MAREA":"港子尾","LANE":" ","ALLEY":" ","HOUSE_NO":"３７號之５","E_COORD97":171816.17999999999,"N_COORD97":2555796.2999999998,"ADDRESS":"港子尾３７號之５","OBJECTID":33513},"geometry":{"x":171816.18000000063,"y":2555796.3000000007}},{"attributes":{"ID":33514,"DIS_CODE":0,"TOWNNAME":"安定區","LI":"港尾里","LIN":"7鄰","STREET":" ","SECT":" ","MAREA":"港子尾","LANE":" ","ALLEY":" ","HOUSE_NO":"３５號","E_COORD97":171661.09,"N_COORD97":2556061.2599999998,"ADDRESS":"港子尾３５號","OBJECTID":33514},"geometry":{"x":171661.09000000078,"y":2556061.2599999979}},{"attributes":{"ID":33515,"DIS_CODE":0,"TOWNNAME":"安定區","LI":"安定里","LIN":"7鄰","STREET":" ","SECT":" ","MAREA":"安定","LANE":" ","ALLEY":" ","HOUSE_NO":"５１號","E_COORD97":171943.17000000001,"N_COORD97":2557905.3199999998,"ADDRESS":"安定５１號","OBJECTID":33515},"geometry":{"x":171943.17000000179,"y":2557905.3200000003}},{"attributes":{"ID":33516,"DIS_CODE":0,"TOWNNAME":"安定區","LI":"保西里","LIN":"7鄰","STREET":" ","SECT":" ","MAREA":"安定","LANE":" ","ALLEY":" ","HOUSE_NO":"３９８之１號","E_COORD97":171743.92000000001,"N_COORD97":2557794.3199999998,"ADDRESS":"安定３９８之１號","OBJECTID":33516},"geometry":{"x":171743.92000000086,"y":2557794.320000004}},{"attributes":{"ID":33517,"DIS_CODE":0,"TOWNNAME":"新市區","LI":"港墘里","LIN":"7鄰","STREET":" ","SECT":" ","MAREA":"店頂","LANE":" ","ALLEY":" ","HOUSE_NO":"１之２號","E_COORD97":179053.98000000001,"N_COORD97":2553104.2999999998,"ADDRESS":"店頂１之２號","OBJECTID":33517},"geometry":{"x":179053.98000000045,"y":2553104.3000000007}},{"attributes":{"ID":33518,"DIS_CODE":0,"TOWNNAME":"白河區","LI":"仙草里","LIN":"7鄰","STREET":" ","SECT":" ","MAREA":"仙草","LANE":" ","ALLEY":" ","HOUSE_NO":"７８號","E_COORD97":196821.38,"N_COORD97":2582081.4100000001,"ADDRESS":"仙草７８號","OBJECTID":33518},"geometry":{"x":196821.37999999989,"y":2582081.4100000001}},{"attributes":{"ID":33519,"DIS_CODE":0,"TOWNNAME":"白河區","LI":"仙草里","LIN":"7鄰","STREET":" ","SECT":" ","MAREA":"仙草","LANE":" ","ALLEY":" ","HOUSE_NO":"８１之２號","E_COORD97":197339.32999999999,"N_COORD97":2581665.2599999998,"ADDRESS":"仙草８１之２號","OBJECTID":33519},"geometry":{"x":197339.33000000007,"y":2581665.2599999998}},{"attributes":{"ID":33520,"DIS_CODE":0,"TOWNNAME":"白河區","LI":"仙草里","LIN":"7鄰","STREET":" ","SECT":" ","MAREA":"仙草","LANE":" ","ALLEY":" ","HOUSE_NO":"８１之３號","E_COORD97":197351.60999999999,"N_COORD97":2581652.9500000002,"ADDRESS":"仙草８１之３號","OBJECTID":33520},"geometry":{"x":197351.6100000022,"y":2581652.9499999993}},{"attributes":{"ID":33521,"DIS_CODE":0,"TOWNNAME":"白河區","LI":"仙草里","LIN":"7鄰","STREET":" ","SECT":" ","MAREA":"仙草","LANE":" ","ALLEY":" ","HOUSE_NO":"８１之４號","E_COORD97":197365.88,"N_COORD97":2581646.6200000001,"ADDRESS":"仙草８１之４號","OBJECTID":33521},"geometry":{"x":197365.87999999989,"y":2581646.620000001}},{"attributes":{"ID":33522,"DIS_CODE":0,"TOWNNAME":"北區","LI":"成德里","LIN":"8鄰","STREET":"西門路","SECT":"四段","MAREA":" ","LANE":"６５巷","ALLEY":"１３０弄","HOUSE_NO":"２８號","E_COORD97":168465.26000000001,"N_COORD97":2545555.04,"ADDRESS":"西門路四段６５巷１３０弄２８號","OBJECTID":33522},"geometry":{"x":168465.25999999978,"y":2545555.0399999991}},{"attributes":{"ID":33523,"DIS_CODE":0,"TOWNNAME":"北區","LI":"成德里","LIN":"8鄰","STREET":"西門路","SECT":"四段","MAREA":" ","LANE":"６５巷","ALLEY":"１３０弄","HOUSE_NO":"３０號","E_COORD97":168467.48999999999,"N_COORD97":2545559.1699999999,"ADDRESS":"西門路四段６５巷１３０弄３０號","OBJECTID":33523},"geometry":{"x":168467.49000000022,"y":2545559.1700000018}},{"attributes":{"ID":33524,"DIS_CODE":0,"TOWNNAME":"白河區","LI":"仙草里","LIN":"7鄰","STREET":" ","SECT":" ","MAREA":"仙草","LANE":" ","ALLEY":" ","HOUSE_NO":"８４號","E_COORD97":196978.09,"N_COORD97":2582132.6899999999,"ADDRESS":"仙草８４號","OBJECTID":33524},"geometry":{"x":196978.08999999892,"y":2582132.6899999995}},{"attributes":{"ID":33525,"DIS_CODE":0,"TOWNNAME":"白河區","LI":"仙草里","LIN":"7鄰","STREET":" ","SECT":" ","MAREA":"仙草","LANE":" ","ALLEY":" ","HOUSE_NO":"８６號","E_COORD97":197059.62,"N_COORD97":2582164.4300000002,"ADDRESS":"仙草８６號","OBJECTID":33525},"geometry":{"x":197059.62000000197,"y":2582164.4300000016}},{"attributes":{"ID":33526,"DIS_CODE":0,"TOWNNAME":"白河區","LI":"仙草里","LIN":"7鄰","STREET":" ","SECT":" ","MAREA":"仙草","LANE":" ","ALLEY":" ","HOUSE_NO":"８７之１０號","E_COORD97":196996.87,"N_COORD97":2582277.77,"ADDRESS":"仙草８７之１０號","OBJECTID":33526},"geometry":{"x":196996.87000000197,"y":2582277.7699999996}},{"attributes":{"ID":33527,"DIS_CODE":0,"TOWNNAME":"白河區","LI":"仙草里","LIN":"7鄰","STREET":" ","SECT":" ","MAREA":"仙草","LANE":" ","ALLEY":" ","HOUSE_NO":"８７之１２號","E_COORD97":197005.16,"N_COORD97":2582262.4700000002,"ADDRESS":"仙草８７之１２號","OBJECTID":33527},"geometry":{"x":197005.16000000201,"y":2582262.4700000025}},{"attributes":{"ID":33528,"DIS_CODE":0,"TOWNNAME":"白河區","LI":"仙草里","LIN":"7鄰","STREET":" ","SECT":" ","MAREA":"仙草","LANE":" ","ALLEY":" ","HOUSE_NO":"８７之１號","E_COORD97":197065.04000000001,"N_COORD97":2582202.3100000001,"ADDRESS":"仙草８７之１號","OBJECTID":33528},"geometry":{"x":197065.04000000004,"y":2582202.3100000024}},{"attributes":{"ID":33529,"DIS_CODE":0,"TOWNNAME":"白河區","LI":"仙草里","LIN":"7鄰","STREET":" ","SECT":" ","MAREA":"仙草","LANE":" ","ALLEY":" ","HOUSE_NO":"８７之９號","E_COORD97":197019.69,"N_COORD97":2582191.48,"ADDRESS":"仙草８７之９號","OBJECTID":33529},"geometry":{"x":197019.69000000041,"y":2582191.4800000023}},{"attributes":{"ID":33530,"DIS_CODE":0,"TOWNNAME":"白河區","LI":"仙草里","LIN":"7鄰","STREET":" ","SECT":" ","MAREA":"仙草","LANE":" ","ALLEY":" ","HOUSE_NO":"８７號","E_COORD97":197091.73000000001,"N_COORD97":2582221.6699999999,"ADDRESS":"仙草８７號","OBJECTID":33530},"geometry":{"x":197091.73000000138,"y":2582221.6699999999}},{"attributes":{"ID":33531,"DIS_CODE":0,"TOWNNAME":"白河區","LI":"仙草里","LIN":"7鄰","STREET":" ","SECT":" ","MAREA":"仙草","LANE":" ","ALLEY":" ","HOUSE_NO":"８８之１號","E_COORD97":196971.98999999999,"N_COORD97":2582349.1499999999,"ADDRESS":"仙草８８之１號","OBJECTID":33531},"geometry":{"x":196971.99000000022,"y":2582349.1500000022}},{"attributes":{"ID":33532,"DIS_CODE":0,"TOWNNAME":"白河區","LI":"仙草里","LIN":"7鄰","STREET":" ","SECT":" ","MAREA":"仙草","LANE":" ","ALLEY":" ","HOUSE_NO":"８８號","E_COORD97":197010.26000000001,"N_COORD97":2582357.1400000001,"ADDRESS":"仙草８８號","OBJECTID":33532},"geometry":{"x":197010.25999999978,"y":2582357.1400000025}},{"attributes":{"ID":33533,"DIS_CODE":0,"TOWNNAME":"官田區","LI":"嘉南里","LIN":"7鄰","STREET":" ","SECT":" ","MAREA":"嘉南","LANE":" ","ALLEY":" ","HOUSE_NO":"７７號之４","E_COORD97":184495.29999999999,"N_COORD97":2567929.1099999999,"ADDRESS":"嘉南７７號之４","OBJECTID":33533},"geometry":{"x":184495.30000000075,"y":2567929.1100000013}},{"attributes":{"ID":33534,"DIS_CODE":0,"TOWNNAME":"官田區","LI":"嘉南里","LIN":"7鄰","STREET":" ","SECT":" ","MAREA":"嘉南","LANE":" ","ALLEY":" ","HOUSE_NO":"７７號之５８","E_COORD97":184458.92000000001,"N_COORD97":2568005.0899999999,"ADDRESS":"嘉南７７號之５８","OBJECTID":33534},"geometry":{"x":184458.92000000086,"y":2568005.0900000017}},{"attributes":{"ID":33535,"DIS_CODE":0,"TOWNNAME":"官田區","LI":"嘉南里","LIN":"7鄰","STREET":" ","SECT":" ","MAREA":"嘉南","LANE":" ","ALLEY":" ","HOUSE_NO":"７７號之５","E_COORD97":184495.98999999999,"N_COORD97":2567918.4199999999,"ADDRESS":"嘉南７７號之５","OBJECTID":33535},"geometry":{"x":184495.99000000209,"y":2567918.4199999999}},{"attributes":{"ID":33536,"DIS_CODE":0,"TOWNNAME":"官田區","LI":"嘉南里","LIN":"7鄰","STREET":" ","SECT":" ","MAREA":"嘉南","LANE":" ","ALLEY":" ","HOUSE_NO":"７７號之６","E_COORD97":184703.57999999999,"N_COORD97":2567970.8199999998,"ADDRESS":"嘉南７７號之６","OBJECTID":33536},"geometry":{"x":184703.58000000194,"y":2567970.8200000003}},{"attributes":{"ID":33537,"DIS_CODE":0,"TOWNNAME":"官田區","LI":"嘉南里","LIN":"7鄰","STREET":" ","SECT":" ","MAREA":"嘉南","LANE":" ","ALLEY":" ","HOUSE_NO":"７７號之７","E_COORD97":184659.04000000001,"N_COORD97":2567953.3700000001,"ADDRESS":"嘉南７７號之７","OBJECTID":33537},"geometry":{"x":184659.04000000004,"y":2567953.3700000029}},{"attributes":{"ID":33538,"DIS_CODE":0,"TOWNNAME":"官田區","LI":"嘉南里","LIN":"7鄰","STREET":" ","SECT":" ","MAREA":"嘉南","LANE":" ","ALLEY":" ","HOUSE_NO":"７７號之８","E_COORD97":184677.85000000001,"N_COORD97":2567933.4500000002,"ADDRESS":"嘉南７７號之８","OBJECTID":33538},"geometry":{"x":184677.85000000056,"y":2567933.4500000011}},{"attributes":{"ID":33539,"DIS_CODE":0,"TOWNNAME":"官田區","LI":"嘉南里","LIN":"7鄰","STREET":" ","SECT":" ","MAREA":"嘉南","LANE":" ","ALLEY":" ","HOUSE_NO":"７７號之９","E_COORD97":184676.47,"N_COORD97":2567956.0299999998,"ADDRESS":"嘉南７７號之９","OBJECTID":33539},"geometry":{"x":184676.46999999974,"y":2567956.0300000031}},{"attributes":{"ID":33540,"DIS_CODE":0,"TOWNNAME":"官田區","LI":"嘉南里","LIN":"7鄰","STREET":" ","SECT":" ","MAREA":"嘉南","LANE":" ","ALLEY":" ","HOUSE_NO":"７８號之１２","E_COORD97":183800.67000000001,"N_COORD97":2567906.7799999998,"ADDRESS":"嘉南７８號之１２","OBJECTID":33540},"geometry":{"x":183800.66999999993,"y":2567906.7800000031}},{"attributes":{"ID":33541,"DIS_CODE":0,"TOWNNAME":"官田區","LI":"嘉南里","LIN":"7鄰","STREET":" ","SECT":" ","MAREA":"嘉南","LANE":" ","ALLEY":" ","HOUSE_NO":"７８號之１５","E_COORD97":183841.95000000001,"N_COORD97":2567954.6699999999,"ADDRESS":"嘉南７８號之１５","OBJECTID":33541},"geometry":{"x":183841.95000000112,"y":2567954.6699999999}},{"attributes":{"ID":33542,"DIS_CODE":0,"TOWNNAME":"官田區","LI":"嘉南里","LIN":"7鄰","STREET":" ","SECT":" ","MAREA":"嘉南","LANE":" ","ALLEY":" ","HOUSE_NO":"７８號之１","E_COORD97":183706.66,"N_COORD97":2567801.54,"ADDRESS":"嘉南７８號之１","OBJECTID":33542},"geometry":{"x":183706.66000000108,"y":2567801.5399999991}},{"attributes":{"ID":33543,"DIS_CODE":0,"TOWNNAME":"官田區","LI":"嘉南里","LIN":"7鄰","STREET":" ","SECT":" ","MAREA":"嘉南","LANE":" ","ALLEY":" ","HOUSE_NO":"７８號之２２","E_COORD97":183916.64000000001,"N_COORD97":2567925.1800000002,"ADDRESS":"嘉南７８號之２２","OBJECTID":33543},"geometry":{"x":183916.6400000006,"y":2567925.1800000016}},{"attributes":{"ID":33544,"DIS_CODE":0,"TOWNNAME":"官田區","LI":"嘉南里","LIN":"7鄰","STREET":" ","SECT":" ","MAREA":"嘉南","LANE":" ","ALLEY":" ","HOUSE_NO":"７８號之２","E_COORD97":183731.97,"N_COORD97":2567804.4700000002,"ADDRESS":"嘉南７８號之２","OBJECTID":33544},"geometry":{"x":183731.96999999974,"y":2567804.4700000007}},{"attributes":{"ID":33545,"DIS_CODE":0,"TOWNNAME":"官田區","LI":"嘉南里","LIN":"7鄰","STREET":" ","SECT":" ","MAREA":"嘉南","LANE":" ","ALLEY":" ","HOUSE_NO":"７８號之５","E_COORD97":183783.91,"N_COORD97":2567964.7799999998,"ADDRESS":"嘉南７８號之５","OBJECTID":33545},"geometry":{"x":183783.91000000015,"y":2567964.7800000012}},{"attributes":{"ID":33546,"DIS_CODE":0,"TOWNNAME":"官田區","LI":"嘉南里","LIN":"7鄰","STREET":" ","SECT":" ","MAREA":"嘉南","LANE":" ","ALLEY":" ","HOUSE_NO":"７８號之８","E_COORD97":183668.47,"N_COORD97":2567486.98,"ADDRESS":"嘉南７８號之８","OBJECTID":33546},"geometry":{"x":183668.47000000067,"y":2567486.9800000023}},{"attributes":{"ID":33547,"DIS_CODE":0,"TOWNNAME":"官田區","LI":"嘉南里","LIN":"7鄰","STREET":" ","SECT":" ","MAREA":"嘉南","LANE":" ","ALLEY":" ","HOUSE_NO":"７８號","E_COORD97":183617.72,"N_COORD97":2567500.8900000001,"ADDRESS":"嘉南７８號","OBJECTID":33547},"geometry":{"x":183617.72000000067,"y":2567500.8900000025}},{"attributes":{"ID":33548,"DIS_CODE":0,"TOWNNAME":"官田區","LI":"渡頭里","LIN":"7鄰","STREET":" ","SECT":" ","MAREA":"渡子頭","LANE":" ","ALLEY":" ","HOUSE_NO":"５０號之１","E_COORD97":181220.73999999999,"N_COORD97":2562978.27,"ADDRESS":"渡子頭５０號之１","OBJECTID":33548},"geometry":{"x":181220.74000000209,"y":2562978.2700000014}},{"attributes":{"ID":33549,"DIS_CODE":0,"TOWNNAME":"官田區","LI":"渡頭里","LIN":"7鄰","STREET":" ","SECT":" ","MAREA":"渡子頭","LANE":" ","ALLEY":" ","HOUSE_NO":"５０號之２","E_COORD97":181216.64000000001,"N_COORD97":2562979.7200000002,"ADDRESS":"渡子頭５０號之２","OBJECTID":33549},"geometry":{"x":181216.6400000006,"y":2562979.7200000025}},{"attributes":{"ID":33550,"DIS_CODE":0,"TOWNNAME":"官田區","LI":"渡頭里","LIN":"7鄰","STREET":" ","SECT":" ","MAREA":"渡子頭","LANE":" ","ALLEY":" ","HOUSE_NO":"５０號之３","E_COORD97":181212.54999999999,"N_COORD97":2562981.1699999999,"ADDRESS":"渡子頭５０號之３","OBJECTID":33550},"geometry":{"x":181212.54999999981,"y":2562981.1699999999}},{"attributes":{"ID":33551,"DIS_CODE":0,"TOWNNAME":"官田區","LI":"渡頭里","LIN":"7鄰","STREET":" ","SECT":" ","MAREA":"渡子頭","LANE":" ","ALLEY":" ","HOUSE_NO":"５０號之４","E_COORD97":181208.45999999999,"N_COORD97":2562982.6299999999,"ADDRESS":"渡子頭５０號之４","OBJECTID":33551},"geometry":{"x":181208.45999999996,"y":2562982.6300000008}},{"attributes":{"ID":33552,"DIS_CODE":0,"TOWNNAME":"官田區","LI":"渡頭里","LIN":"7鄰","STREET":" ","SECT":" ","MAREA":"渡子頭","LANE":" ","ALLEY":" ","HOUSE_NO":"５０號之５","E_COORD97":181204.35999999999,"N_COORD97":2562984.0800000001,"ADDRESS":"渡子頭５０號之５","OBJECTID":33552},"geometry":{"x":181204.36000000034,"y":2562984.0800000019}},{"attributes":{"ID":33553,"DIS_CODE":0,"TOWNNAME":"官田區","LI":"渡頭里","LIN":"7鄰","STREET":" ","SECT":" ","MAREA":"渡子頭","LANE":" ","ALLEY":" ","HOUSE_NO":"５０號之６","E_COORD97":181200.26999999999,"N_COORD97":2562985.5299999998,"ADDRESS":"渡子頭５０號之６","OBJECTID":33553},"geometry":{"x":181200.27000000048,"y":2562985.5299999975}},{"attributes":{"ID":33554,"DIS_CODE":0,"TOWNNAME":"官田區","LI":"渡頭里","LIN":"7鄰","STREET":" ","SECT":" ","MAREA":"渡子頭","LANE":" ","ALLEY":" ","HOUSE_NO":"５０號之７","E_COORD97":181196.17999999999,"N_COORD97":2562986.98,"ADDRESS":"渡子頭５０號之７","OBJECTID":33554},"geometry":{"x":181196.1799999997,"y":2562986.9799999986}},{"attributes":{"ID":33555,"DIS_CODE":0,"TOWNNAME":"官田區","LI":"渡頭里","LIN":"7鄰","STREET":" ","SECT":" ","MAREA":"渡子頭","LANE":" ","ALLEY":" ","HOUSE_NO":"５０號之８","E_COORD97":181194.95999999999,"N_COORD97":2562965.5299999998,"ADDRESS":"渡子頭５０號之８","OBJECTID":33555},"geometry":{"x":181194.95999999996,"y":2562965.5300000031}},{"attributes":{"ID":33556,"DIS_CODE":0,"TOWNNAME":"官田區","LI":"渡頭里","LIN":"7鄰","STREET":" ","SECT":" ","MAREA":"渡子頭","LANE":" ","ALLEY":" ","HOUSE_NO":"５０號","E_COORD97":181212.07999999999,"N_COORD97":2562968.0499999998,"ADDRESS":"渡子頭５０號","OBJECTID":33556},"geometry":{"x":181212.08000000101,"y":2562968.0500000026}},{"attributes":{"ID":33557,"DIS_CODE":0,"TOWNNAME":"官田區","LI":"渡頭里","LIN":"7鄰","STREET":" ","SECT":" ","MAREA":"渡子頭","LANE":" ","ALLEY":" ","HOUSE_NO":"５１號之２","E_COORD97":181201.73999999999,"N_COORD97":2562922.3599999999,"ADDRESS":"渡子頭５１號之２","OBJECTID":33557},"geometry":{"x":181201.74000000022,"y":2562922.3599999975}},{"attributes":{"ID":33558,"DIS_CODE":0,"TOWNNAME":"官田區","LI":"渡頭里","LIN":"7鄰","STREET":" ","SECT":" ","MAREA":"渡子頭","LANE":" ","ALLEY":" ","HOUSE_NO":"５１號","E_COORD97":181210.57000000001,"N_COORD97":2562912.4500000002,"ADDRESS":"渡子頭５１號","OBJECTID":33558},"geometry":{"x":181210.57000000123,"y":2562912.4500000011}},{"attributes":{"ID":33559,"DIS_CODE":0,"TOWNNAME":"官田區","LI":"渡頭里","LIN":"7鄰","STREET":" ","SECT":" ","MAREA":"渡子頭","LANE":" ","ALLEY":" ","HOUSE_NO":"５２號之１","E_COORD97":181178.09,"N_COORD97":2562914.77,"ADDRESS":"渡子頭５２號之１","OBJECTID":33559},"geometry":{"x":181178.09000000078,"y":2562914.7700000014}},{"attributes":{"ID":33560,"DIS_CODE":0,"TOWNNAME":"官田區","LI":"渡頭里","LIN":"7鄰","STREET":" ","SECT":" ","MAREA":"渡子頭","LANE":" ","ALLEY":" ","HOUSE_NO":"５２號之２","E_COORD97":181194.48000000001,"N_COORD97":2562892.6699999999,"ADDRESS":"渡子頭５２號之２","OBJECTID":33560},"geometry":{"x":181194.48000000138,"y":2562892.6699999999}},{"attributes":{"ID":33561,"DIS_CODE":0,"TOWNNAME":"官田區","LI":"渡頭里","LIN":"7鄰","STREET":" ","SECT":" ","MAREA":"渡子頭","LANE":" ","ALLEY":" ","HOUSE_NO":"５２號之３","E_COORD97":181205.57999999999,"N_COORD97":2562894.5299999998,"ADDRESS":"渡子頭５２號之３","OBJECTID":33561},"geometry":{"x":181205.58000000101,"y":2562894.5300000012}},{"attributes":{"ID":33562,"DIS_CODE":0,"TOWNNAME":"官田區","LI":"渡頭里","LIN":"7鄰","STREET":" ","SECT":" ","MAREA":"渡子頭","LANE":" ","ALLEY":" ","HOUSE_NO":"５２號","E_COORD97":181207.37,"N_COORD97":2562947.23,"ADDRESS":"渡子頭５２號","OBJECTID":33562},"geometry":{"x":181207.37000000011,"y":2562947.2300000004}},{"attributes":{"ID":33563,"DIS_CODE":0,"TOWNNAME":"官田區","LI":"渡頭里","LIN":"7鄰","STREET":" ","SECT":" ","MAREA":"渡子頭","LANE":" ","ALLEY":" ","HOUSE_NO":"５３號之５","E_COORD97":181159.76999999999,"N_COORD97":2562920.4100000001,"ADDRESS":"渡子頭５３號之５","OBJECTID":33563},"geometry":{"x":181159.76999999955,"y":2562920.410000002}},{"attributes":{"ID":33564,"DIS_CODE":0,"TOWNNAME":"官田區","LI":"渡頭里","LIN":"7鄰","STREET":" ","SECT":" ","MAREA":"渡子頭","LANE":" ","ALLEY":" ","HOUSE_NO":"５３號","E_COORD97":181174.82999999999,"N_COORD97":2562965.3199999998,"ADDRESS":"渡子頭５３號","OBJECTID":33564},"geometry":{"x":181174.83000000101,"y":2562965.3200000022}},{"attributes":{"ID":33565,"DIS_CODE":0,"TOWNNAME":"官田區","LI":"嘉南里","LIN":"7鄰","STREET":" ","SECT":" ","MAREA":"嘉南","LANE":" ","ALLEY":" ","HOUSE_NO":"７１號","E_COORD97":184827.03,"N_COORD97":2568005.2000000002,"ADDRESS":"嘉南７１號","OBJECTID":33565},"geometry":{"x":184827.03000000119,"y":2568005.1999999993}},{"attributes":{"ID":33566,"DIS_CODE":0,"TOWNNAME":"官田區","LI":"嘉南里","LIN":"7鄰","STREET":" ","SECT":" ","MAREA":"嘉南","LANE":" ","ALLEY":" ","HOUSE_NO":"７３號","E_COORD97":184796.53,"N_COORD97":2568006.9700000002,"ADDRESS":"嘉南７３號","OBJECTID":33566},"geometry":{"x":184796.53000000119,"y":2568006.9700000025}},{"attributes":{"ID":33567,"DIS_CODE":0,"TOWNNAME":"官田區","LI":"嘉南里","LIN":"7鄰","STREET":" ","SECT":" ","MAREA":"嘉南","LANE":" ","ALLEY":" ","HOUSE_NO":"７４號","E_COORD97":184803.32999999999,"N_COORD97":2567985.52,"ADDRESS":"嘉南７４號","OBJECTID":33567},"geometry":{"x":184803.33000000007,"y":2567985.5199999996}},{"attributes":{"ID":33568,"DIS_CODE":0,"TOWNNAME":"官田區","LI":"嘉南里","LIN":"7鄰","STREET":" ","SECT":" ","MAREA":"嘉南","LANE":" ","ALLEY":" ","HOUSE_NO":"７５號","E_COORD97":184803.59,"N_COORD97":2567954.1899999999,"ADDRESS":"嘉南７５號","OBJECTID":33568},"geometry":{"x":184803.59000000078,"y":2567954.1899999995}},{"attributes":{"ID":33569,"DIS_CODE":0,"TOWNNAME":"官田區","LI":"嘉南里","LIN":"7鄰","STREET":" ","SECT":" ","MAREA":"嘉南","LANE":" ","ALLEY":" ","HOUSE_NO":"７６號之１０","E_COORD97":184600.29999999999,"N_COORD97":2567397.3199999998,"ADDRESS":"嘉南７６號之１０","OBJECTID":33569},"geometry":{"x":184600.30000000075,"y":2567397.3200000022}},{"attributes":{"ID":33570,"DIS_CODE":0,"TOWNNAME":"官田區","LI":"嘉南里","LIN":"7鄰","STREET":" ","SECT":" ","MAREA":"嘉南","LANE":" ","ALLEY":" ","HOUSE_NO":"７６號之１１","E_COORD97":184725.91,"N_COORD97":2567448.9199999999,"ADDRESS":"嘉南７６號之１１","OBJECTID":33570},"geometry":{"x":184725.91000000108,"y":2567448.9200000037}},{"attributes":{"ID":33571,"DIS_CODE":0,"TOWNNAME":"官田區","LI":"嘉南里","LIN":"7鄰","STREET":" ","SECT":" ","MAREA":"嘉南","LANE":" ","ALLEY":" ","HOUSE_NO":"７６號之１５","E_COORD97":184640.04999999999,"N_COORD97":2567435.9700000002,"ADDRESS":"嘉南７６號之１５","OBJECTID":33571},"geometry":{"x":184640.04999999981,"y":2567435.9700000044}},{"attributes":{"ID":33572,"DIS_CODE":0,"TOWNNAME":"官田區","LI":"嘉南里","LIN":"7鄰","STREET":" ","SECT":" ","MAREA":"嘉南","LANE":" ","ALLEY":" ","HOUSE_NO":"７６號之１６","E_COORD97":184771.79999999999,"N_COORD97":2567574.4900000002,"ADDRESS":"嘉南７６號之１６","OBJECTID":33572},"geometry":{"x":184771.80000000075,"y":2567574.4900000021}},{"attributes":{"ID":33573,"DIS_CODE":0,"TOWNNAME":"官田區","LI":"嘉南里","LIN":"7鄰","STREET":" ","SECT":" ","MAREA":"嘉南","LANE":" ","ALLEY":" ","HOUSE_NO":"７６號之１８","E_COORD97":184803.42999999999,"N_COORD97":2566893.96,"ADDRESS":"嘉南７６號之１８","OBJECTID":33573},"geometry":{"x":184803.43000000063,"y":2566893.9600000028}},{"attributes":{"ID":33574,"DIS_CODE":0,"TOWNNAME":"官田區","LI":"嘉南里","LIN":"7鄰","STREET":" ","SECT":" ","MAREA":"嘉南","LANE":" ","ALLEY":" ","HOUSE_NO":"７６號之１","E_COORD97":184767.88,"N_COORD97":2567544.8599999999,"ADDRESS":"嘉南７６號之１","OBJECTID":33574},"geometry":{"x":184767.88000000082,"y":2567544.8600000013}},{"attributes":{"ID":33575,"DIS_CODE":0,"TOWNNAME":"官田區","LI":"嘉南里","LIN":"7鄰","STREET":" ","SECT":" ","MAREA":"嘉南","LANE":" ","ALLEY":" ","HOUSE_NO":"７６號之２０","E_COORD97":184719.29999999999,"N_COORD97":2567689.3300000001,"ADDRESS":"嘉南７６號之２０","OBJECTID":33575},"geometry":{"x":184719.30000000075,"y":2567689.3300000001}},{"attributes":{"ID":33576,"DIS_CODE":0,"TOWNNAME":"官田區","LI":"嘉南里","LIN":"7鄰","STREET":" ","SECT":" ","MAREA":"嘉南","LANE":" ","ALLEY":" ","HOUSE_NO":"７６號之２１","E_COORD97":184635.28,"N_COORD97":2567035.75,"ADDRESS":"嘉南７６號之２１","OBJECTID":33576},"geometry":{"x":184635.28000000119,"y":2567035.75}},{"attributes":{"ID":33577,"DIS_CODE":0,"TOWNNAME":"官田區","LI":"嘉南里","LIN":"7鄰","STREET":" ","SECT":" ","MAREA":"嘉南","LANE":" ","ALLEY":" ","HOUSE_NO":"７６號之２２","E_COORD97":184637.98000000001,"N_COORD97":2567677.2400000002,"ADDRESS":"嘉南７６號之２２","OBJECTID":33577},"geometry":{"x":184637.98000000045,"y":2567677.2400000002}},{"attributes":{"ID":33578,"DIS_CODE":0,"TOWNNAME":"官田區","LI":"嘉南里","LIN":"7鄰","STREET":" ","SECT":" ","MAREA":"嘉南","LANE":" ","ALLEY":" ","HOUSE_NO":"７６號之２４","E_COORD97":183526.56,"N_COORD97":2567126.9100000001,"ADDRESS":"嘉南７６號之２４","OBJECTID":33578},"geometry":{"x":183526.55999999959,"y":2567126.9099999983}},{"attributes":{"ID":33579,"DIS_CODE":0,"TOWNNAME":"官田區","LI":"嘉南里","LIN":"7鄰","STREET":" ","SECT":" ","MAREA":"嘉南","LANE":" ","ALLEY":" ","HOUSE_NO":"７６號之２６","E_COORD97":184202.47,"N_COORD97":2567136.9199999999,"ADDRESS":"嘉南７６號之２６","OBJECTID":33579},"geometry":{"x":184202.47000000067,"y":2567136.9200000037}},{"attributes":{"ID":33580,"DIS_CODE":0,"TOWNNAME":"官田區","LI":"嘉南里","LIN":"7鄰","STREET":" ","SECT":" ","MAREA":"嘉南","LANE":" ","ALLEY":" ","HOUSE_NO":"７６號之２８","E_COORD97":184544.06,"N_COORD97":2567643.8399999999,"ADDRESS":"嘉南７６號之２８","OBJECTID":33580},"geometry":{"x":184544.06000000052,"y":2567643.8400000017}},{"attributes":{"ID":33581,"DIS_CODE":0,"TOWNNAME":"官田區","LI":"嘉南里","LIN":"7鄰","STREET":" ","SECT":" ","MAREA":"嘉南","LANE":" ","ALLEY":" ","HOUSE_NO":"７６號之２","E_COORD97":184782.95999999999,"N_COORD97":2567801.6499999999,"ADDRESS":"嘉南７６號之２","OBJECTID":33581},"geometry":{"x":184782.96000000089,"y":2567801.6500000022}},{"attributes":{"ID":33582,"DIS_CODE":0,"TOWNNAME":"官田區","LI":"嘉南里","LIN":"7鄰","STREET":" ","SECT":" ","MAREA":"嘉南","LANE":" ","ALLEY":" ","HOUSE_NO":"７６號之３０","E_COORD97":184159.42999999999,"N_COORD97":2567141.3399999999,"ADDRESS":"嘉南７６號之３０","OBJECTID":33582},"geometry":{"x":184159.4299999997,"y":2567141.3400000017}},{"attributes":{"ID":33583,"DIS_CODE":0,"TOWNNAME":"官田區","LI":"嘉南里","LIN":"7鄰","STREET":" ","SECT":" ","MAREA":"嘉南","LANE":" ","ALLEY":" ","HOUSE_NO":"７６號之３","E_COORD97":184782.25,"N_COORD97":2567769.4199999999,"ADDRESS":"嘉南７６號之３","OBJECTID":33583},"geometry":{"x":184782.25000000093,"y":2567769.4199999999}},{"attributes":{"ID":33584,"DIS_CODE":0,"TOWNNAME":"官田區","LI":"嘉南里","LIN":"7鄰","STREET":" ","SECT":" ","MAREA":"嘉南","LANE":" ","ALLEY":" ","HOUSE_NO":"７６號之４","E_COORD97":184783.73000000001,"N_COORD97":2567672.2400000002,"ADDRESS":"嘉南７６號之４","OBJECTID":33584},"geometry":{"x":184783.73000000045,"y":2567672.2400000021}},{"attributes":{"ID":33585,"DIS_CODE":0,"TOWNNAME":"官田區","LI":"嘉南里","LIN":"7鄰","STREET":" ","SECT":" ","MAREA":"嘉南","LANE":" ","ALLEY":" ","HOUSE_NO":"７６號之８","E_COORD97":184427.39999999999,"N_COORD97":2567413.4500000002,"ADDRESS":"嘉南７６號之８","OBJECTID":33585},"geometry":{"x":184427.4000000013,"y":2567413.4499999993}},{"attributes":{"ID":33586,"DIS_CODE":0,"TOWNNAME":"官田區","LI":"嘉南里","LIN":"7鄰","STREET":" ","SECT":" ","MAREA":"嘉南","LANE":" ","ALLEY":" ","HOUSE_NO":"７６號之９","E_COORD97":184548.87,"N_COORD97":2567410.6800000002,"ADDRESS":"嘉南７６號之９","OBJECTID":33586},"geometry":{"x":184548.87000000011,"y":2567410.6800000016}},{"attributes":{"ID":33587,"DIS_CODE":0,"TOWNNAME":"官田區","LI":"嘉南里","LIN":"7鄰","STREET":" ","SECT":" ","MAREA":"嘉南","LANE":" ","ALLEY":" ","HOUSE_NO":"７６號","E_COORD97":184750.39999999999,"N_COORD97":2567906.0699999998,"ADDRESS":"嘉南７６號","OBJECTID":33587},"geometry":{"x":184750.40000000037,"y":2567906.070000004}},{"attributes":{"ID":33588,"DIS_CODE":0,"TOWNNAME":"官田區","LI":"嘉南里","LIN":"7鄰","STREET":" ","SECT":" ","MAREA":"嘉南","LANE":" ","ALLEY":" ","HOUSE_NO":"７７號之１０","E_COORD97":184423.23000000001,"N_COORD97":2567947.4199999999,"ADDRESS":"嘉南７７號之１０","OBJECTID":33588},"geometry":{"x":184423.22999999952,"y":2567947.4200000037}},{"attributes":{"ID":33589,"DIS_CODE":0,"TOWNNAME":"官田區","LI":"嘉南里","LIN":"7鄰","STREET":" ","SECT":" ","MAREA":"嘉南","LANE":" ","ALLEY":" ","HOUSE_NO":"７７號之１１","E_COORD97":184390.51000000001,"N_COORD97":2567949.7200000002,"ADDRESS":"嘉南７７號之１１","OBJECTID":33589},"geometry":{"x":184390.51000000071,"y":2567949.7200000025}},{"attributes":{"ID":33590,"DIS_CODE":0,"TOWNNAME":"官田區","LI":"嘉南里","LIN":"7鄰","STREET":" ","SECT":" ","MAREA":"嘉南","LANE":" ","ALLEY":" ","HOUSE_NO":"７７號之１３","E_COORD97":184517.35999999999,"N_COORD97":2567838.96,"ADDRESS":"嘉南７７號之１３","OBJECTID":33590},"geometry":{"x":184517.3600000022,"y":2567838.9600000009}},{"attributes":{"ID":33591,"DIS_CODE":0,"TOWNNAME":"官田區","LI":"嘉南里","LIN":"7鄰","STREET":" ","SECT":" ","MAREA":"嘉南","LANE":" ","ALLEY":" ","HOUSE_NO":"７７號之１","E_COORD97":184646.76999999999,"N_COORD97":2567939.48,"ADDRESS":"嘉南７７號之１","OBJECTID":33591},"geometry":{"x":184646.76999999955,"y":2567939.4800000004}},{"attributes":{"ID":33592,"DIS_CODE":0,"TOWNNAME":"官田區","LI":"嘉南里","LIN":"7鄰","STREET":" ","SECT":" ","MAREA":"嘉南","LANE":" ","ALLEY":" ","HOUSE_NO":"７７號之２０","E_COORD97":184459.20999999999,"N_COORD97":2567923,"ADDRESS":"嘉南７７號之２０","OBJECTID":33592},"geometry":{"x":184459.21000000089,"y":2567923.0000000037}},{"attributes":{"ID":33593,"DIS_CODE":0,"TOWNNAME":"官田區","LI":"嘉南里","LIN":"7鄰","STREET":" ","SECT":" ","MAREA":"嘉南","LANE":" ","ALLEY":" ","HOUSE_NO":"７７號之２","E_COORD97":184660.92999999999,"N_COORD97":2567796.1600000001,"ADDRESS":"嘉南７７號之２","OBJECTID":33593},"geometry":{"x":184660.93000000063,"y":2567796.1600000001}},{"attributes":{"ID":33594,"DIS_CODE":0,"TOWNNAME":"官田區","LI":"嘉南里","LIN":"7鄰","STREET":" ","SECT":" ","MAREA":"嘉南","LANE":" ","ALLEY":" ","HOUSE_NO":"７７號之３０","E_COORD97":184368.98000000001,"N_COORD97":2567890.0899999999,"ADDRESS":"嘉南７７號之３０","OBJECTID":33594},"geometry":{"x":184368.97999999952,"y":2567890.0899999999}},{"attributes":{"ID":33595,"DIS_CODE":0,"TOWNNAME":"官田區","LI":"嘉南里","LIN":"7鄰","STREET":" ","SECT":" ","MAREA":"嘉南","LANE":" ","ALLEY":" ","HOUSE_NO":"７７號之３","E_COORD97":184667.45999999999,"N_COORD97":2567953.9500000002,"ADDRESS":"嘉南７７號之３","OBJECTID":33595},"geometry":{"x":184667.46000000089,"y":2567953.9500000011}},{"attributes":{"ID":33596,"DIS_CODE":0,"TOWNNAME":"安定區","LI":"蘇厝里","LIN":"7鄰","STREET":" ","SECT":" ","MAREA":"蘇厝","LANE":" ","ALLEY":" ","HOUSE_NO":"３４１之８號","E_COORD97":172937.12,"N_COORD97":2558530.2999999998,"ADDRESS":"蘇厝３４１之８號","OBJECTID":33596},"geometry":{"x":172937.12000000197,"y":2558530.3000000045}},{"attributes":{"ID":33597,"DIS_CODE":0,"TOWNNAME":"安定區","LI":"蘇厝里","LIN":"7鄰","STREET":" ","SECT":" ","MAREA":"蘇厝","LANE":" ","ALLEY":" ","HOUSE_NO":"３３７號之２","E_COORD97":173000.98999999999,"N_COORD97":2558528.2999999998,"ADDRESS":"蘇厝３３７號之２","OBJECTID":33597},"geometry":{"x":173000.99000000115,"y":2558528.3000000026}},{"attributes":{"ID":33598,"DIS_CODE":0,"TOWNNAME":"安定區","LI":"安定里","LIN":"7鄰","STREET":" ","SECT":" ","MAREA":"安定","LANE":" ","ALLEY":" ","HOUSE_NO":"５２之１０號","E_COORD97":171996.75532500001,"N_COORD97":2558045.8922199998,"ADDRESS":"安定５２之１０號","OBJECTID":33598},"geometry":{"x":171996.7553249998,"y":2558045.8922230024}},{"attributes":{"ID":33599,"DIS_CODE":0,"TOWNNAME":"安定區","LI":"港尾里","LIN":"7鄰","STREET":" ","SECT":" ","MAREA":"港子尾","LANE":" ","ALLEY":" ","HOUSE_NO":"３８號","E_COORD97":171664.027107,"N_COORD97":2556012.5088,"ADDRESS":"港子尾３８號","OBJECTID":33599},"geometry":{"x":171664.02710700035,"y":2556012.5088040009}},{"attributes":{"ID":33600,"DIS_CODE":0,"TOWNNAME":"安定區","LI":"保西里","LIN":"7鄰","STREET":" ","SECT":" ","MAREA":"安定","LANE":" ","ALLEY":" ","HOUSE_NO":"３８９之３號","E_COORD97":171614.82000000001,"N_COORD97":2557739.3199999998,"ADDRESS":"安定３８９之３號","OBJECTID":33600},"geometry":{"x":171614.8200000003,"y":2557739.3200000003}}]}