{"displayFieldName":"TOWNNAME","fieldAliases":{"ID":"ID","DIS_CODE":"DIS_CODE","TOWNNAME":"TOWNNAME","LI":"LI","LIN":"LIN","STREET":"STREET","SECT":"SECT","MAREA":"MAREA","LANE":"LANE","ALLEY":"ALLEY","HOUSE_NO":"HOUSE_NO","E_COORD97":"E_COORD97","N_COORD97":"N_COORD97","ADDRESS":"ADDRESS","OBJECTID":"OBJECTID"},"geometryType":"esriGeometryPoint","spatialReference":{"wkid":102443,"latestWkid":3826},"fields":[{"name":"ID","type":"esriFieldTypeDouble","alias":"ID"},{"name":"DIS_CODE","type":"esriFieldTypeInteger","alias":"DIS_CODE"},{"name":"TOWNNAME","type":"esriFieldTypeString","alias":"TOWNNAME","length":8},{"name":"LI","type":"esriFieldTypeString","alias":"LI","length":8},{"name":"LIN","type":"esriFieldTypeString","alias":"LIN","length":12},{"name":"STREET","type":"esriFieldTypeString","alias":"STREET","length":20},{"name":"SECT","type":"esriFieldTypeString","alias":"SECT","length":8},{"name":"MAREA","type":"esriFieldTypeString","alias":"MAREA","length":12},{"name":"LANE","type":"esriFieldTypeString","alias":"LANE","length":10},{"name":"ALLEY","type":"esriFieldTypeString","alias":"ALLEY","length":10},{"name":"HOUSE_NO","type":"esriFieldTypeString","alias":"HOUSE_NO","length":20},{"name":"E_COORD97","type":"esriFieldTypeDouble","alias":"E_COORD97"},{"name":"N_COORD97","type":"esriFieldTypeDouble","alias":"N_COORD97"},{"name":"ADDRESS","type":"esriFieldTypeString","alias":"ADDRESS","length":50},{"name":"OBJECTID","type":"esriFieldTypeOID","alias":"OBJECTID"}],"features":[{"attributes":{"ID":246805,"DIS_CODE":0,"TOWNNAME":"南區","LI":"新昌里","LIN":"14鄰","STREET":"府緯街","SECT":" ","MAREA":" ","LANE":" ","ALLEY":" ","HOUSE_NO":"１３２號八樓之１","E_COORD97":167547.5,"N_COORD97":2542734.75,"ADDRESS":"府緯街１３２號八樓之１","OBJECTID":246801},"geometry":{"x":167547.50000000093,"y":2542734.7500000019}},{"attributes":{"ID":246806,"DIS_CODE":0,"TOWNNAME":"南區","LI":"新昌里","LIN":"14鄰","STREET":"府緯街","SECT":" ","MAREA":" ","LANE":" ","ALLEY":" ","HOUSE_NO":"１３２號八樓之２","E_COORD97":167547.5,"N_COORD97":2542734.75,"ADDRESS":"府緯街１３２號八樓之２","OBJECTID":246802},"geometry":{"x":167547.50000000093,"y":2542734.7500000019}},{"attributes":{"ID":246807,"DIS_CODE":0,"TOWNNAME":"南區","LI":"新昌里","LIN":"14鄰","STREET":"府緯街","SECT":" ","MAREA":" ","LANE":" ","ALLEY":" ","HOUSE_NO":"１３２號八樓之３","E_COORD97":167547.5,"N_COORD97":2542734.75,"ADDRESS":"府緯街１３２號八樓之３","OBJECTID":246803},"geometry":{"x":167547.50000000093,"y":2542734.7500000019}},{"attributes":{"ID":246808,"DIS_CODE":0,"TOWNNAME":"南區","LI":"新昌里","LIN":"14鄰","STREET":"府緯街","SECT":" ","MAREA":" ","LANE":" ","ALLEY":" ","HOUSE_NO":"１３２號八樓之４","E_COORD97":167547.5,"N_COORD97":2542734.75,"ADDRESS":"府緯街１３２號八樓之４","OBJECTID":246804},"geometry":{"x":167547.50000000093,"y":2542734.7500000019}},{"attributes":{"ID":246809,"DIS_CODE":0,"TOWNNAME":"南區","LI":"新昌里","LIN":"14鄰","STREET":"府緯街","SECT":" ","MAREA":" ","LANE":" ","ALLEY":" ","HOUSE_NO":"１３２號八樓之５","E_COORD97":167547.5,"N_COORD97":2542734.75,"ADDRESS":"府緯街１３２號八樓之５","OBJECTID":246805},"geometry":{"x":167547.50000000093,"y":2542734.7500000019}},{"attributes":{"ID":246810,"DIS_CODE":0,"TOWNNAME":"南區","LI":"新昌里","LIN":"14鄰","STREET":"府緯街","SECT":" ","MAREA":" ","LANE":" ","ALLEY":" ","HOUSE_NO":"１３２號八樓之６","E_COORD97":167547.5,"N_COORD97":2542734.75,"ADDRESS":"府緯街１３２號八樓之６","OBJECTID":246806},"geometry":{"x":167547.50000000093,"y":2542734.7500000019}},{"attributes":{"ID":246811,"DIS_CODE":0,"TOWNNAME":"南區","LI":"新昌里","LIN":"14鄰","STREET":"府緯街","SECT":" ","MAREA":" ","LANE":" ","ALLEY":" ","HOUSE_NO":"１３２號八樓之７","E_COORD97":167547.5,"N_COORD97":2542734.75,"ADDRESS":"府緯街１３２號八樓之７","OBJECTID":246807},"geometry":{"x":167547.50000000093,"y":2542734.7500000019}},{"attributes":{"ID":246812,"DIS_CODE":0,"TOWNNAME":"南區","LI":"新昌里","LIN":"14鄰","STREET":"府緯街","SECT":" ","MAREA":" ","LANE":" ","ALLEY":" ","HOUSE_NO":"１３２號十一樓之１","E_COORD97":167547.5,"N_COORD97":2542734.75,"ADDRESS":"府緯街１３２號十一樓之１","OBJECTID":246808},"geometry":{"x":167547.50000000093,"y":2542734.7500000019}},{"attributes":{"ID":246813,"DIS_CODE":0,"TOWNNAME":"安南區","LI":"海南里","LIN":"11鄰","STREET":"府安路","SECT":"七段","MAREA":" ","LANE":"２８巷","ALLEY":" ","HOUSE_NO":"３０號","E_COORD97":165991.87,"N_COORD97":2546084.3599999999,"ADDRESS":"府安路七段２８巷３０號","OBJECTID":246809},"geometry":{"x":165991.87000000197,"y":2546084.3599999994}},{"attributes":{"ID":246814,"DIS_CODE":0,"TOWNNAME":"安南區","LI":"海南里","LIN":"11鄰","STREET":"府安路","SECT":"七段","MAREA":" ","LANE":"２８巷","ALLEY":" ","HOUSE_NO":"４號","E_COORD97":166054.82000000001,"N_COORD97":2546011.7599999998,"ADDRESS":"府安路七段２８巷４號","OBJECTID":246810},"geometry":{"x":166054.8200000003,"y":2546011.7599999998}},{"attributes":{"ID":246815,"DIS_CODE":0,"TOWNNAME":"南區","LI":"光明里","LIN":"34鄰","STREET":"新興路","SECT":" ","MAREA":" ","LANE":"５３７巷","ALLEY":" ","HOUSE_NO":"３號十樓之１","E_COORD97":166622.94,"N_COORD97":2541584.6099999999,"ADDRESS":"新興路５３７巷３號十樓之１","OBJECTID":246811},"geometry":{"x":166622.94000000134,"y":2541584.6099999994}},{"attributes":{"ID":246816,"DIS_CODE":0,"TOWNNAME":"南區","LI":"光明里","LIN":"34鄰","STREET":"新興路","SECT":" ","MAREA":" ","LANE":"５３７巷","ALLEY":" ","HOUSE_NO":"３號十樓之２","E_COORD97":166622.94,"N_COORD97":2541584.6099999999,"ADDRESS":"新興路５３７巷３號十樓之２","OBJECTID":246812},"geometry":{"x":166622.94000000134,"y":2541584.6099999994}},{"attributes":{"ID":246817,"DIS_CODE":0,"TOWNNAME":"南區","LI":"光明里","LIN":"34鄰","STREET":"新興路","SECT":" ","MAREA":" ","LANE":"５３７巷","ALLEY":" ","HOUSE_NO":"３號十樓之３","E_COORD97":166622.94,"N_COORD97":2541584.6099999999,"ADDRESS":"新興路５３７巷３號十樓之３","OBJECTID":246813},"geometry":{"x":166622.94000000134,"y":2541584.6099999994}},{"attributes":{"ID":246818,"DIS_CODE":0,"TOWNNAME":"南區","LI":"光明里","LIN":"34鄰","STREET":"新興路","SECT":" ","MAREA":" ","LANE":"５３７巷","ALLEY":" ","HOUSE_NO":"３號三樓","E_COORD97":166622.94,"N_COORD97":2541584.6099999999,"ADDRESS":"新興路５３７巷３號三樓","OBJECTID":246814},"geometry":{"x":166622.94000000134,"y":2541584.6099999994}},{"attributes":{"ID":246819,"DIS_CODE":0,"TOWNNAME":"南區","LI":"光明里","LIN":"34鄰","STREET":"新興路","SECT":" ","MAREA":" ","LANE":"５３７巷","ALLEY":" ","HOUSE_NO":"３號三樓之１","E_COORD97":166622.94,"N_COORD97":2541584.6099999999,"ADDRESS":"新興路５３７巷３號三樓之１","OBJECTID":246815},"geometry":{"x":166622.94000000134,"y":2541584.6099999994}},{"attributes":{"ID":246820,"DIS_CODE":0,"TOWNNAME":"南區","LI":"光明里","LIN":"34鄰","STREET":"新興路","SECT":" ","MAREA":" ","LANE":"５３７巷","ALLEY":" ","HOUSE_NO":"３號三樓之２","E_COORD97":166622.94,"N_COORD97":2541584.6099999999,"ADDRESS":"新興路５３７巷３號三樓之２","OBJECTID":246816},"geometry":{"x":166622.94000000134,"y":2541584.6099999994}},{"attributes":{"ID":246821,"DIS_CODE":0,"TOWNNAME":"南區","LI":"光明里","LIN":"34鄰","STREET":"新興路","SECT":" ","MAREA":" ","LANE":"５３７巷","ALLEY":" ","HOUSE_NO":"３號三樓之３","E_COORD97":166622.94,"N_COORD97":2541584.6099999999,"ADDRESS":"新興路５３７巷３號三樓之３","OBJECTID":246817},"geometry":{"x":166622.94000000134,"y":2541584.6099999994}},{"attributes":{"ID":246822,"DIS_CODE":0,"TOWNNAME":"南區","LI":"光明里","LIN":"34鄰","STREET":"新興路","SECT":" ","MAREA":" ","LANE":"５３７巷","ALLEY":" ","HOUSE_NO":"３號五樓之１","E_COORD97":166622.94,"N_COORD97":2541584.6099999999,"ADDRESS":"新興路５３７巷３號五樓之１","OBJECTID":246818},"geometry":{"x":166622.94000000134,"y":2541584.6099999994}},{"attributes":{"ID":246823,"DIS_CODE":0,"TOWNNAME":"南區","LI":"光明里","LIN":"34鄰","STREET":"新興路","SECT":" ","MAREA":" ","LANE":"５３７巷","ALLEY":" ","HOUSE_NO":"３號五樓之２","E_COORD97":166622.94,"N_COORD97":2541584.6099999999,"ADDRESS":"新興路５３７巷３號五樓之２","OBJECTID":246819},"geometry":{"x":166622.94000000134,"y":2541584.6099999994}},{"attributes":{"ID":246824,"DIS_CODE":0,"TOWNNAME":"南區","LI":"新昌里","LIN":"14鄰","STREET":"府緯街","SECT":" ","MAREA":" ","LANE":" ","ALLEY":" ","HOUSE_NO":"１３２號十一樓之２","E_COORD97":167547.5,"N_COORD97":2542734.75,"ADDRESS":"府緯街１３２號十一樓之２","OBJECTID":246820},"geometry":{"x":167547.50000000093,"y":2542734.7500000019}},{"attributes":{"ID":246825,"DIS_CODE":0,"TOWNNAME":"南區","LI":"新昌里","LIN":"14鄰","STREET":"府緯街","SECT":" ","MAREA":" ","LANE":" ","ALLEY":" ","HOUSE_NO":"１３２號十二樓之１","E_COORD97":167547.5,"N_COORD97":2542734.75,"ADDRESS":"府緯街１３２號十二樓之１","OBJECTID":246821},"geometry":{"x":167547.50000000093,"y":2542734.7500000019}},{"attributes":{"ID":246826,"DIS_CODE":0,"TOWNNAME":"南區","LI":"光明里","LIN":"34鄰","STREET":"新興路","SECT":" ","MAREA":" ","LANE":"５３７巷","ALLEY":" ","HOUSE_NO":"３號五樓之３","E_COORD97":166622.94,"N_COORD97":2541584.6099999999,"ADDRESS":"新興路５３７巷３號五樓之３","OBJECTID":246822},"geometry":{"x":166622.94000000134,"y":2541584.6099999994}},{"attributes":{"ID":246827,"DIS_CODE":0,"TOWNNAME":"善化區","LI":"牛庄里","LIN":"11鄰","STREET":" ","SECT":" ","MAREA":"牛庄","LANE":" ","ALLEY":" ","HOUSE_NO":"１３５號之７","E_COORD97":179923.38,"N_COORD97":2560017.77,"ADDRESS":"牛庄１３５號之７","OBJECTID":246823},"geometry":{"x":179923.38000000082,"y":2560017.7700000033}},{"attributes":{"ID":246828,"DIS_CODE":0,"TOWNNAME":"善化區","LI":"牛庄里","LIN":"11鄰","STREET":" ","SECT":" ","MAREA":"牛庄","LANE":" ","ALLEY":" ","HOUSE_NO":"１３３號之１","E_COORD97":179892.72,"N_COORD97":2560092.02,"ADDRESS":"牛庄１３３號之１","OBJECTID":246824},"geometry":{"x":179892.71999999974,"y":2560092.0200000014}},{"attributes":{"ID":246829,"DIS_CODE":0,"TOWNNAME":"南區","LI":"光明里","LIN":"34鄰","STREET":"新興路","SECT":" ","MAREA":" ","LANE":"５３７巷","ALLEY":" ","HOUSE_NO":"３號六樓","E_COORD97":166622.94,"N_COORD97":2541584.6099999999,"ADDRESS":"新興路５３７巷３號六樓","OBJECTID":246825},"geometry":{"x":166622.94000000134,"y":2541584.6099999994}},{"attributes":{"ID":246830,"DIS_CODE":0,"TOWNNAME":"南區","LI":"光明里","LIN":"34鄰","STREET":"新興路","SECT":" ","MAREA":" ","LANE":"５３７巷","ALLEY":" ","HOUSE_NO":"３號六樓之１","E_COORD97":166622.94,"N_COORD97":2541584.6099999999,"ADDRESS":"新興路５３７巷３號六樓之１","OBJECTID":246826},"geometry":{"x":166622.94000000134,"y":2541584.6099999994}},{"attributes":{"ID":246831,"DIS_CODE":0,"TOWNNAME":"南區","LI":"光明里","LIN":"34鄰","STREET":"新興路","SECT":" ","MAREA":" ","LANE":"５３７巷","ALLEY":" ","HOUSE_NO":"３號六樓之２","E_COORD97":166622.94,"N_COORD97":2541584.6099999999,"ADDRESS":"新興路５３７巷３號六樓之２","OBJECTID":246827},"geometry":{"x":166622.94000000134,"y":2541584.6099999994}},{"attributes":{"ID":246832,"DIS_CODE":0,"TOWNNAME":"南區","LI":"光明里","LIN":"34鄰","STREET":"新興路","SECT":" ","MAREA":" ","LANE":"５３７巷","ALLEY":" ","HOUSE_NO":"３號六樓之３","E_COORD97":166622.94,"N_COORD97":2541584.6099999999,"ADDRESS":"新興路５３７巷３號六樓之３","OBJECTID":246828},"geometry":{"x":166622.94000000134,"y":2541584.6099999994}},{"attributes":{"ID":246833,"DIS_CODE":0,"TOWNNAME":"南區","LI":"光明里","LIN":"34鄰","STREET":"新興路","SECT":" ","MAREA":" ","LANE":"５３７巷","ALLEY":" ","HOUSE_NO":"３號四樓","E_COORD97":166622.94,"N_COORD97":2541584.6099999999,"ADDRESS":"新興路５３７巷３號四樓","OBJECTID":246829},"geometry":{"x":166622.94000000134,"y":2541584.6099999994}},{"attributes":{"ID":246834,"DIS_CODE":0,"TOWNNAME":"南區","LI":"光明里","LIN":"34鄰","STREET":"新興路","SECT":" ","MAREA":" ","LANE":"５３７巷","ALLEY":" ","HOUSE_NO":"３號四樓之１","E_COORD97":166622.94,"N_COORD97":2541584.6099999999,"ADDRESS":"新興路５３７巷３號四樓之１","OBJECTID":246830},"geometry":{"x":166622.94000000134,"y":2541584.6099999994}},{"attributes":{"ID":246835,"DIS_CODE":0,"TOWNNAME":"南區","LI":"光明里","LIN":"34鄰","STREET":"新興路","SECT":" ","MAREA":" ","LANE":"５３７巷","ALLEY":" ","HOUSE_NO":"３號四樓之２","E_COORD97":166622.94,"N_COORD97":2541584.6099999999,"ADDRESS":"新興路５３７巷３號四樓之２","OBJECTID":246831},"geometry":{"x":166622.94000000134,"y":2541584.6099999994}},{"attributes":{"ID":246836,"DIS_CODE":0,"TOWNNAME":"南區","LI":"光明里","LIN":"34鄰","STREET":"新興路","SECT":" ","MAREA":" ","LANE":"５３７巷","ALLEY":" ","HOUSE_NO":"３號四樓之３","E_COORD97":166622.94,"N_COORD97":2541584.6099999999,"ADDRESS":"新興路５３７巷３號四樓之３","OBJECTID":246832},"geometry":{"x":166622.94000000134,"y":2541584.6099999994}},{"attributes":{"ID":246837,"DIS_CODE":0,"TOWNNAME":"永康區","LI":"勝利里","LIN":"34鄰","STREET":"勝利街","SECT":" ","MAREA":" ","LANE":"１巷","ALLEY":" ","HOUSE_NO":"１８號","E_COORD97":171066.67000000001,"N_COORD97":2544607.25,"ADDRESS":"勝利街１巷１８號","OBJECTID":246833},"geometry":{"x":171066.66999999899,"y":2544607.2500000019}},{"attributes":{"ID":246838,"DIS_CODE":0,"TOWNNAME":"善化區","LI":"田寮里","LIN":"11鄰","STREET":" ","SECT":" ","MAREA":"六分寮","LANE":" ","ALLEY":" ","HOUSE_NO":"１１４之４號","E_COORD97":178672.47938400001,"N_COORD97":2561422.09149,"ADDRESS":"六分寮１１４之４號","OBJECTID":246834},"geometry":{"x":178672.47938400134,"y":2561422.0914850011}},{"attributes":{"ID":246839,"DIS_CODE":0,"TOWNNAME":"善化區","LI":"田寮里","LIN":"11鄰","STREET":" ","SECT":" ","MAREA":"六分寮","LANE":" ","ALLEY":" ","HOUSE_NO":"１１９之４號","E_COORD97":178685.76999999999,"N_COORD97":2561348.27,"ADDRESS":"六分寮１１９之４號","OBJECTID":246835},"geometry":{"x":178685.77000000048,"y":2561348.2700000014}},{"attributes":{"ID":246840,"DIS_CODE":0,"TOWNNAME":"永康區","LI":"勝利里","LIN":"34鄰","STREET":"勝利街","SECT":" ","MAREA":" ","LANE":"１巷","ALLEY":" ","HOUSE_NO":"３２號","E_COORD97":171019.81,"N_COORD97":2544650.2599999998,"ADDRESS":"勝利街１巷３２號","OBJECTID":246836},"geometry":{"x":171019.81000000145,"y":2544650.2600000016}},{"attributes":{"ID":246841,"DIS_CODE":0,"TOWNNAME":"永康區","LI":"龍潭里","LIN":"34鄰","STREET":"龍埔街","SECT":" ","MAREA":" ","LANE":"１３９巷","ALLEY":" ","HOUSE_NO":"８號一樓之１","E_COORD97":174534.04999999999,"N_COORD97":2548201.3199999998,"ADDRESS":"龍埔街１３９巷８號一樓之１","OBJECTID":246837},"geometry":{"x":174534.04999999888,"y":2548201.3200000003}},{"attributes":{"ID":246842,"DIS_CODE":0,"TOWNNAME":"永康區","LI":"龍潭里","LIN":"34鄰","STREET":"龍埔街","SECT":" ","MAREA":" ","LANE":"１３９巷","ALLEY":" ","HOUSE_NO":"６號二樓之２","E_COORD97":174536.98999999999,"N_COORD97":2548220.8100000001,"ADDRESS":"龍埔街１３９巷６號二樓之２","OBJECTID":246838},"geometry":{"x":174536.99000000115,"y":2548220.8100000024}},{"attributes":{"ID":246843,"DIS_CODE":0,"TOWNNAME":"永康區","LI":"龍潭里","LIN":"34鄰","STREET":"龍埔街","SECT":" ","MAREA":" ","LANE":"１３９巷","ALLEY":" ","HOUSE_NO":"６號三樓之１","E_COORD97":174536.85000000001,"N_COORD97":2548220.8100000001,"ADDRESS":"龍埔街１３９巷６號三樓之１","OBJECTID":246839},"geometry":{"x":174536.8499999987,"y":2548220.8100000024}},{"attributes":{"ID":246844,"DIS_CODE":0,"TOWNNAME":"永康區","LI":"龍潭里","LIN":"34鄰","STREET":"龍埔街","SECT":" ","MAREA":" ","LANE":"１３９巷","ALLEY":" ","HOUSE_NO":"８號一樓之２","E_COORD97":174534.19,"N_COORD97":2548201.3199999998,"ADDRESS":"龍埔街１３９巷８號一樓之２","OBJECTID":246840},"geometry":{"x":174534.19000000134,"y":2548201.3200000003}},{"attributes":{"ID":246845,"DIS_CODE":0,"TOWNNAME":"仁德區","LI":"後壁里","LIN":"34鄰","STREET":"德洋路","SECT":" ","MAREA":" ","LANE":"１８３巷","ALLEY":" ","HOUSE_NO":"７號","E_COORD97":172458.92999999999,"N_COORD97":2539400.27,"ADDRESS":"德洋路１８３巷７號","OBJECTID":246841},"geometry":{"x":172458.93000000063,"y":2539400.2699999996}},{"attributes":{"ID":246846,"DIS_CODE":0,"TOWNNAME":"永康區","LI":"龍潭里","LIN":"34鄰","STREET":"龍埔街","SECT":" ","MAREA":" ","LANE":"１３９巷","ALLEY":" ","HOUSE_NO":"８號四樓之１","E_COORD97":174534.04999999999,"N_COORD97":2548201.3199999998,"ADDRESS":"龍埔街１３９巷８號四樓之１","OBJECTID":246842},"geometry":{"x":174534.04999999888,"y":2548201.3200000003}},{"attributes":{"ID":246847,"DIS_CODE":0,"TOWNNAME":"永康區","LI":"龍潭里","LIN":"34鄰","STREET":"龍埔街","SECT":" ","MAREA":" ","LANE":"１３９巷","ALLEY":" ","HOUSE_NO":"６號三樓之２","E_COORD97":174536.98999999999,"N_COORD97":2548220.8100000001,"ADDRESS":"龍埔街１３９巷６號三樓之２","OBJECTID":246843},"geometry":{"x":174536.99000000115,"y":2548220.8100000024}},{"attributes":{"ID":246848,"DIS_CODE":0,"TOWNNAME":"永康區","LI":"龍潭里","LIN":"34鄰","STREET":"龍埔街","SECT":" ","MAREA":" ","LANE":"１３９巷","ALLEY":" ","HOUSE_NO":"６號四樓之１","E_COORD97":174536.85000000001,"N_COORD97":2548220.8100000001,"ADDRESS":"龍埔街１３９巷６號四樓之１","OBJECTID":246844},"geometry":{"x":174536.8499999987,"y":2548220.8100000024}},{"attributes":{"ID":246849,"DIS_CODE":0,"TOWNNAME":"善化區","LI":"牛庄里","LIN":"11鄰","STREET":" ","SECT":" ","MAREA":"牛庄","LANE":" ","ALLEY":" ","HOUSE_NO":"１２５號之２","E_COORD97":179972.91,"N_COORD97":2560098.02,"ADDRESS":"牛庄１２５號之２","OBJECTID":246845},"geometry":{"x":179972.91000000015,"y":2560098.0200000014}},{"attributes":{"ID":246850,"DIS_CODE":0,"TOWNNAME":"善化區","LI":"牛庄里","LIN":"11鄰","STREET":" ","SECT":" ","MAREA":"牛庄","LANE":" ","ALLEY":" ","HOUSE_NO":"１３５號之２","E_COORD97":179923.73999999999,"N_COORD97":2559989.27,"ADDRESS":"牛庄１３５號之２","OBJECTID":246846},"geometry":{"x":179923.74000000022,"y":2559989.2699999996}},{"attributes":{"ID":246851,"DIS_CODE":0,"TOWNNAME":"善化區","LI":"田寮里","LIN":"11鄰","STREET":" ","SECT":" ","MAREA":"六分寮","LANE":" ","ALLEY":" ","HOUSE_NO":"１１４之８號","E_COORD97":178668.70999999999,"N_COORD97":2561395.52,"ADDRESS":"六分寮１１４之８號","OBJECTID":246847},"geometry":{"x":178668.70999999996,"y":2561395.5199999996}},{"attributes":{"ID":246852,"DIS_CODE":0,"TOWNNAME":"善化區","LI":"六德里","LIN":"11鄰","STREET":" ","SECT":" ","MAREA":"六分寮","LANE":" ","ALLEY":" ","HOUSE_NO":"２９４號之１２","E_COORD97":178486.60000000001,"N_COORD97":2561673.52,"ADDRESS":"六分寮２９４號之１２","OBJECTID":246848},"geometry":{"x":178486.59999999963,"y":2561673.5199999996}},{"attributes":{"ID":246853,"DIS_CODE":0,"TOWNNAME":"善化區","LI":"西關里","LIN":"11鄰","STREET":"自由路","SECT":" ","MAREA":" ","LANE":"２６２巷","ALLEY":" ","HOUSE_NO":"５號","E_COORD97":176896.66,"N_COORD97":2559089.25,"ADDRESS":"自由路２６２巷５號","OBJECTID":246849},"geometry":{"x":176896.66000000015,"y":2559089.2499999981}},{"attributes":{"ID":246854,"DIS_CODE":0,"TOWNNAME":"善化區","LI":"西關里","LIN":"11鄰","STREET":"自由路","SECT":" ","MAREA":" ","LANE":"２６２巷","ALLEY":" ","HOUSE_NO":"７號","E_COORD97":176901.69,"N_COORD97":2559089,"ADDRESS":"自由路２６２巷７號","OBJECTID":246850},"geometry":{"x":176901.69000000041,"y":2559089.0000000019}},{"attributes":{"ID":246855,"DIS_CODE":0,"TOWNNAME":"東區","LI":"忠孝里","LIN":"8鄰","STREET":"榮譽街","SECT":" ","MAREA":" ","LANE":"８４巷","ALLEY":" ","HOUSE_NO":"１２３號","E_COORD97":169825.57999999999,"N_COORD97":2541592.1499999999,"ADDRESS":"榮譽街８４巷１２３號","OBJECTID":246851},"geometry":{"x":169825.58000000101,"y":2541592.1500000004}},{"attributes":{"ID":246856,"DIS_CODE":0,"TOWNNAME":"東區","LI":"忠孝里","LIN":"8鄰","STREET":"榮譽街","SECT":" ","MAREA":" ","LANE":"８４巷","ALLEY":" ","HOUSE_NO":"１２３號之１","E_COORD97":169831.82000000001,"N_COORD97":2541595.5299999998,"ADDRESS":"榮譽街８４巷１２３號之１","OBJECTID":246852},"geometry":{"x":169831.8200000003,"y":2541595.5299999993}},{"attributes":{"ID":246857,"DIS_CODE":0,"TOWNNAME":"東區","LI":"忠孝里","LIN":"8鄰","STREET":"榮譽街","SECT":" ","MAREA":" ","LANE":"８４巷","ALLEY":" ","HOUSE_NO":"１２３號之２","E_COORD97":169837.51000000001,"N_COORD97":2541598.5600000001,"ADDRESS":"榮譽街８４巷１２３號之２","OBJECTID":246853},"geometry":{"x":169837.51000000071,"y":2541598.5600000024}},{"attributes":{"ID":246858,"DIS_CODE":0,"TOWNNAME":"永康區","LI":"龍潭里","LIN":"34鄰","STREET":"龍埔街","SECT":" ","MAREA":" ","LANE":"１３９巷","ALLEY":" ","HOUSE_NO":"６號一樓之２","E_COORD97":174536.98999999999,"N_COORD97":2548220.8100000001,"ADDRESS":"龍埔街１３９巷６號一樓之２","OBJECTID":246854},"geometry":{"x":174536.99000000115,"y":2548220.8100000024}},{"attributes":{"ID":246859,"DIS_CODE":0,"TOWNNAME":"永康區","LI":"龍潭里","LIN":"34鄰","STREET":"龍埔街","SECT":" ","MAREA":" ","LANE":"１３９巷","ALLEY":" ","HOUSE_NO":"８號三樓之２","E_COORD97":174534.19,"N_COORD97":2548201.3199999998,"ADDRESS":"龍埔街１３９巷８號三樓之２","OBJECTID":246855},"geometry":{"x":174534.19000000134,"y":2548201.3200000003}},{"attributes":{"ID":246860,"DIS_CODE":0,"TOWNNAME":"永康區","LI":"龍潭里","LIN":"34鄰","STREET":"龍埔街","SECT":" ","MAREA":" ","LANE":"１３９巷","ALLEY":" ","HOUSE_NO":"８號二樓之１","E_COORD97":174534.04999999999,"N_COORD97":2548201.3199999998,"ADDRESS":"龍埔街１３９巷８號二樓之１","OBJECTID":246856},"geometry":{"x":174534.04999999888,"y":2548201.3200000003}},{"attributes":{"ID":246861,"DIS_CODE":0,"TOWNNAME":"新營區","LI":"南興里","LIN":"8鄰","STREET":"建業路","SECT":" ","MAREA":" ","LANE":"７８巷","ALLEY":" ","HOUSE_NO":"３號","E_COORD97":179322.60999999999,"N_COORD97":2577509.4500000002,"ADDRESS":"建業路７８巷３號","OBJECTID":246857},"geometry":{"x":179322.61000000034,"y":2577509.4499999993}},{"attributes":{"ID":246862,"DIS_CODE":0,"TOWNNAME":"善化區","LI":"牛庄里","LIN":"11鄰","STREET":" ","SECT":" ","MAREA":"牛庄","LANE":" ","ALLEY":" ","HOUSE_NO":"１３５號之１","E_COORD97":179920.63,"N_COORD97":2559970.52,"ADDRESS":"牛庄１３５號之１","OBJECTID":246858},"geometry":{"x":179920.62999999989,"y":2559970.5199999996}},{"attributes":{"ID":246863,"DIS_CODE":0,"TOWNNAME":"永康區","LI":"龍潭里","LIN":"34鄰","STREET":"龍埔街","SECT":" ","MAREA":" ","LANE":"１３９巷","ALLEY":" ","HOUSE_NO":"６號五樓之１","E_COORD97":174536.85000000001,"N_COORD97":2548220.8100000001,"ADDRESS":"龍埔街１３９巷６號五樓之１","OBJECTID":246859},"geometry":{"x":174536.8499999987,"y":2548220.8100000024}},{"attributes":{"ID":246864,"DIS_CODE":0,"TOWNNAME":"永康區","LI":"龍潭里","LIN":"34鄰","STREET":"龍埔街","SECT":" ","MAREA":" ","LANE":"１３９巷","ALLEY":" ","HOUSE_NO":"６號六樓之２","E_COORD97":174536.98999999999,"N_COORD97":2548220.8100000001,"ADDRESS":"龍埔街１３９巷６號六樓之２","OBJECTID":246860},"geometry":{"x":174536.99000000115,"y":2548220.8100000024}},{"attributes":{"ID":246865,"DIS_CODE":0,"TOWNNAME":"仁德區","LI":"後壁里","LIN":"34鄰","STREET":"德洋二街","SECT":" ","MAREA":" ","LANE":"１１巷","ALLEY":" ","HOUSE_NO":"３號","E_COORD97":172477.79000000001,"N_COORD97":2539379.77,"ADDRESS":"德洋二街１１巷３號","OBJECTID":246861},"geometry":{"x":172477.79000000004,"y":2539379.7699999996}},{"attributes":{"ID":246866,"DIS_CODE":0,"TOWNNAME":"善化區","LI":"田寮里","LIN":"11鄰","STREET":" ","SECT":" ","MAREA":"六分寮","LANE":" ","ALLEY":" ","HOUSE_NO":"１１９號之２","E_COORD97":178698.98999999999,"N_COORD97":2561313.52,"ADDRESS":"六分寮１１９號之２","OBJECTID":246862},"geometry":{"x":178698.99000000115,"y":2561313.5199999996}},{"attributes":{"ID":246867,"DIS_CODE":0,"TOWNNAME":"善化區","LI":"牛庄里","LIN":"11鄰","STREET":" ","SECT":" ","MAREA":"牛庄","LANE":" ","ALLEY":" ","HOUSE_NO":"１３３之５號","E_COORD97":179912.60000000001,"N_COORD97":2560096.27,"ADDRESS":"牛庄１３３之５號","OBJECTID":246863},"geometry":{"x":179912.60000000056,"y":2560096.2700000014}},{"attributes":{"ID":246868,"DIS_CODE":0,"TOWNNAME":"仁德區","LI":"成功里","LIN":"34鄰","STREET":"成功一街","SECT":" ","MAREA":" ","LANE":"５７巷","ALLEY":" ","HOUSE_NO":"１８號","E_COORD97":170601.54000000001,"N_COORD97":2540077.7599999998,"ADDRESS":"成功一街５７巷１８號","OBJECTID":246864},"geometry":{"x":170601.5400000019,"y":2540077.7599999998}},{"attributes":{"ID":246869,"DIS_CODE":0,"TOWNNAME":"永康區","LI":"勝利里","LIN":"34鄰","STREET":"勝利街","SECT":" ","MAREA":" ","LANE":"１巷","ALLEY":" ","HOUSE_NO":"４３號五樓之３","E_COORD97":170974.35000000001,"N_COORD97":2544680.54,"ADDRESS":"勝利街１巷４３號五樓之３","OBJECTID":246865},"geometry":{"x":170974.35000000056,"y":2544680.5399999972}},{"attributes":{"ID":246870,"DIS_CODE":0,"TOWNNAME":"善化區","LI":"牛庄里","LIN":"11鄰","STREET":" ","SECT":" ","MAREA":"牛庄","LANE":" ","ALLEY":" ","HOUSE_NO":"１３５之１１號","E_COORD97":179896.76999999999,"N_COORD97":2559949.52,"ADDRESS":"牛庄１３５之１１號","OBJECTID":246866},"geometry":{"x":179896.77000000048,"y":2559949.5200000014}},{"attributes":{"ID":246871,"DIS_CODE":0,"TOWNNAME":"南區","LI":"新昌里","LIN":"14鄰","STREET":"府緯街","SECT":" ","MAREA":" ","LANE":" ","ALLEY":" ","HOUSE_NO":"１３２號十二樓之２","E_COORD97":167547.5,"N_COORD97":2542734.75,"ADDRESS":"府緯街１３２號十二樓之２","OBJECTID":246867},"geometry":{"x":167547.50000000093,"y":2542734.7500000019}},{"attributes":{"ID":246872,"DIS_CODE":0,"TOWNNAME":"南區","LI":"新昌里","LIN":"14鄰","STREET":"府緯街","SECT":" ","MAREA":" ","LANE":" ","ALLEY":" ","HOUSE_NO":"１３２號十樓之１","E_COORD97":167547.5,"N_COORD97":2542734.75,"ADDRESS":"府緯街１３２號十樓之１","OBJECTID":246868},"geometry":{"x":167547.50000000093,"y":2542734.7500000019}},{"attributes":{"ID":246873,"DIS_CODE":0,"TOWNNAME":"南區","LI":"新昌里","LIN":"14鄰","STREET":"府緯街","SECT":" ","MAREA":" ","LANE":" ","ALLEY":" ","HOUSE_NO":"１３２號十樓之２","E_COORD97":167547.5,"N_COORD97":2542734.75,"ADDRESS":"府緯街１３２號十樓之２","OBJECTID":246869},"geometry":{"x":167547.50000000093,"y":2542734.7500000019}},{"attributes":{"ID":246874,"DIS_CODE":0,"TOWNNAME":"南區","LI":"新昌里","LIN":"14鄰","STREET":"府緯街","SECT":" ","MAREA":" ","LANE":" ","ALLEY":" ","HOUSE_NO":"１３２號十樓之３","E_COORD97":167547.5,"N_COORD97":2542734.75,"ADDRESS":"府緯街１３２號十樓之３","OBJECTID":246870},"geometry":{"x":167547.50000000093,"y":2542734.7500000019}},{"attributes":{"ID":246875,"DIS_CODE":0,"TOWNNAME":"善化區","LI":"光文里","LIN":"11鄰","STREET":"民權路","SECT":" ","MAREA":" ","LANE":" ","ALLEY":" ","HOUSE_NO":"６７號","E_COORD97":178587.28,"N_COORD97":2559051.5099999998,"ADDRESS":"民權路６７號","OBJECTID":246871},"geometry":{"x":178587.28000000026,"y":2559051.5100000016}},{"attributes":{"ID":246876,"DIS_CODE":0,"TOWNNAME":"善化區","LI":"田寮里","LIN":"11鄰","STREET":" ","SECT":" ","MAREA":"六分寮","LANE":" ","ALLEY":" ","HOUSE_NO":"１１９號之１","E_COORD97":178692.60000000001,"N_COORD97":2561333.27,"ADDRESS":"六分寮１１９號之１","OBJECTID":246872},"geometry":{"x":178692.60000000056,"y":2561333.2700000033}},{"attributes":{"ID":246877,"DIS_CODE":0,"TOWNNAME":"善化區","LI":"牛庄里","LIN":"11鄰","STREET":" ","SECT":" ","MAREA":"牛庄","LANE":" ","ALLEY":" ","HOUSE_NO":"１３３號","E_COORD97":179917.79000000001,"N_COORD97":2560085,"ADDRESS":"牛庄１３３號","OBJECTID":246873},"geometry":{"x":179917.79000000004,"y":2560085.0000000019}},{"attributes":{"ID":246878,"DIS_CODE":0,"TOWNNAME":"善化區","LI":"牛庄里","LIN":"11鄰","STREET":" ","SECT":" ","MAREA":"牛庄","LANE":" ","ALLEY":" ","HOUSE_NO":"１２６號之２","E_COORD97":180025.70999999999,"N_COORD97":2560083.27,"ADDRESS":"牛庄１２６號之２","OBJECTID":246874},"geometry":{"x":180025.71000000183,"y":2560083.2700000014}},{"attributes":{"ID":246879,"DIS_CODE":0,"TOWNNAME":"善化區","LI":"牛庄里","LIN":"11鄰","STREET":" ","SECT":" ","MAREA":"牛庄","LANE":" ","ALLEY":" ","HOUSE_NO":"１３６號之１","E_COORD97":179915.22,"N_COORD97":2560033.27,"ADDRESS":"牛庄１３６號之１","OBJECTID":246875},"geometry":{"x":179915.2200000016,"y":2560033.2699999996}},{"attributes":{"ID":246880,"DIS_CODE":0,"TOWNNAME":"東區","LI":"裕農里","LIN":"10鄰","STREET":"東寧路","SECT":" ","MAREA":" ","LANE":"５３８巷","ALLEY":" ","HOUSE_NO":"１１號","E_COORD97":171223.39000000001,"N_COORD97":2543195.3799999999,"ADDRESS":"東寧路５３８巷１１號","OBJECTID":246876},"geometry":{"x":171223.3900000006,"y":2543195.379999999}},{"attributes":{"ID":246881,"DIS_CODE":0,"TOWNNAME":"善化區","LI":"六德里","LIN":"11鄰","STREET":" ","SECT":" ","MAREA":"六分寮","LANE":" ","ALLEY":" ","HOUSE_NO":"２９５號之２","E_COORD97":178460.57000000001,"N_COORD97":2561660.77,"ADDRESS":"六分寮２９５號之２","OBJECTID":246877},"geometry":{"x":178460.57000000216,"y":2561660.7699999996}},{"attributes":{"ID":246882,"DIS_CODE":0,"TOWNNAME":"善化區","LI":"牛庄里","LIN":"11鄰","STREET":" ","SECT":" ","MAREA":"牛庄","LANE":" ","ALLEY":" ","HOUSE_NO":"１２４號（已拆除）","E_COORD97":179968.98000000001,"N_COORD97":2560049.5,"ADDRESS":"牛庄１２４號（已拆除）","OBJECTID":246878},"geometry":{"x":179968.98000000138,"y":2560049.5}},{"attributes":{"ID":246883,"DIS_CODE":0,"TOWNNAME":"永康區","LI":"勝利里","LIN":"34鄰","STREET":"勝利街","SECT":" ","MAREA":" ","LANE":"１巷","ALLEY":" ","HOUSE_NO":"４３號十三樓之１","E_COORD97":170975.5,"N_COORD97":2544680.54,"ADDRESS":"勝利街１巷４３號十三樓之１","OBJECTID":246879},"geometry":{"x":170975.50000000093,"y":2544680.5399999972}},{"attributes":{"ID":246884,"DIS_CODE":0,"TOWNNAME":"善化區","LI":"牛庄里","LIN":"11鄰","STREET":" ","SECT":" ","MAREA":"牛庄","LANE":" ","ALLEY":" ","HOUSE_NO":"１２４號之１","E_COORD97":180023.17999999999,"N_COORD97":2560061.52,"ADDRESS":"牛庄１２４號之１","OBJECTID":246880},"geometry":{"x":180023.1799999997,"y":2560061.5200000014}},{"attributes":{"ID":246885,"DIS_CODE":0,"TOWNNAME":"永康區","LI":"勝利里","LIN":"34鄰","STREET":"勝利街","SECT":" ","MAREA":" ","LANE":"１巷","ALLEY":" ","HOUSE_NO":"３７號","E_COORD97":170998.81,"N_COORD97":2544655.0099999998,"ADDRESS":"勝利街１巷３７號","OBJECTID":246881},"geometry":{"x":170998.80999999959,"y":2544655.0100000016}},{"attributes":{"ID":246886,"DIS_CODE":0,"TOWNNAME":"永康區","LI":"勝利里","LIN":"34鄰","STREET":"勝利街","SECT":" ","MAREA":" ","LANE":"１巷","ALLEY":" ","HOUSE_NO":"４２號","E_COORD97":170978.26000000001,"N_COORD97":2544660.0099999998,"ADDRESS":"勝利街１巷４２號","OBJECTID":246882},"geometry":{"x":170978.26000000071,"y":2544660.0099999998}},{"attributes":{"ID":246887,"DIS_CODE":0,"TOWNNAME":"永康區","LI":"復華里","LIN":"34鄰","STREET":"復國一路","SECT":" ","MAREA":" ","LANE":"４７５巷","ALLEY":" ","HOUSE_NO":"６號","E_COORD97":172579.89000000001,"N_COORD97":2546126.7599999998,"ADDRESS":"復國一路４７５巷６號","OBJECTID":246883},"geometry":{"x":172579.88999999966,"y":2546126.7599999998}},{"attributes":{"ID":246888,"DIS_CODE":0,"TOWNNAME":"永康區","LI":"勝利里","LIN":"34鄰","STREET":"勝利街","SECT":" ","MAREA":" ","LANE":"１巷","ALLEY":" ","HOUSE_NO":"３９號","E_COORD97":170991.01000000001,"N_COORD97":2544657.0099999998,"ADDRESS":"勝利街１巷３９號","OBJECTID":246884},"geometry":{"x":170991.00999999978,"y":2544657.0099999998}},{"attributes":{"ID":246889,"DIS_CODE":0,"TOWNNAME":"永康區","LI":"二王里","LIN":"34鄰","STREET":"中山南路","SECT":" ","MAREA":" ","LANE":"４９０巷","ALLEY":" ","HOUSE_NO":"１０號之９","E_COORD97":172132.76999999999,"N_COORD97":2546364.29,"ADDRESS":"中山南路４９０巷１０號之９","OBJECTID":246885},"geometry":{"x":172132.77000000048,"y":2546364.2900000028}},{"attributes":{"ID":246890,"DIS_CODE":0,"TOWNNAME":"善化區","LI":"牛庄里","LIN":"11鄰","STREET":" ","SECT":" ","MAREA":"牛庄","LANE":" ","ALLEY":" ","HOUSE_NO":"１２７號","E_COORD97":179969.98999999999,"N_COORD97":2560074,"ADDRESS":"牛庄１２７號","OBJECTID":246886},"geometry":{"x":179969.99000000115,"y":2560074}},{"attributes":{"ID":246891,"DIS_CODE":0,"TOWNNAME":"善化區","LI":"六德里","LIN":"11鄰","STREET":" ","SECT":" ","MAREA":"六分寮","LANE":" ","ALLEY":" ","HOUSE_NO":"２９４之７號","E_COORD97":178491.44,"N_COORD97":2561652.02,"ADDRESS":"六分寮２９４之７號","OBJECTID":246887},"geometry":{"x":178491.44000000041,"y":2561652.0199999996}},{"attributes":{"ID":246892,"DIS_CODE":0,"TOWNNAME":"善化區","LI":"六德里","LIN":"11鄰","STREET":" ","SECT":" ","MAREA":"六分寮","LANE":" ","ALLEY":" ","HOUSE_NO":"２９２號","E_COORD97":178525.95999999999,"N_COORD97":2561652,"ADDRESS":"六分寮２９２號","OBJECTID":246888},"geometry":{"x":178525.96000000089,"y":2561652.0000000019}},{"attributes":{"ID":246893,"DIS_CODE":0,"TOWNNAME":"善化區","LI":"六德里","LIN":"11鄰","STREET":" ","SECT":" ","MAREA":"六分寮","LANE":" ","ALLEY":" ","HOUSE_NO":"２９４號","E_COORD97":178516.01000000001,"N_COORD97":2561633,"ADDRESS":"六分寮２９４號","OBJECTID":246889},"geometry":{"x":178516.00999999978,"y":2561633}},{"attributes":{"ID":246894,"DIS_CODE":0,"TOWNNAME":"永康區","LI":"六合里","LIN":"8鄰","STREET":"六合路","SECT":" ","MAREA":" ","LANE":"４７巷","ALLEY":" ","HOUSE_NO":"２號","E_COORD97":171148.73931999999,"N_COORD97":2545598.5132399998,"ADDRESS":"六合路４７巷２號","OBJECTID":246890},"geometry":{"x":171148.73932000063,"y":2545598.5132430047}},{"attributes":{"ID":246895,"DIS_CODE":0,"TOWNNAME":"善化區","LI":"六德里","LIN":"11鄰","STREET":" ","SECT":" ","MAREA":"六分寮","LANE":" ","ALLEY":" ","HOUSE_NO":"２９５號之５","E_COORD97":178441.85000000001,"N_COORD97":2561668.27,"ADDRESS":"六分寮２９５號之５","OBJECTID":246891},"geometry":{"x":178441.85000000056,"y":2561668.2699999996}},{"attributes":{"ID":246896,"DIS_CODE":0,"TOWNNAME":"永康區","LI":"五王里","LIN":"34鄰","STREET":"五福街","SECT":" ","MAREA":" ","LANE":"３３巷","ALLEY":" ","HOUSE_NO":"３號","E_COORD97":171312.76000000001,"N_COORD97":2545913.75,"ADDRESS":"五福街３３巷３號","OBJECTID":246892},"geometry":{"x":171312.75999999978,"y":2545913.75}},{"attributes":{"ID":246897,"DIS_CODE":0,"TOWNNAME":"善化區","LI":"六德里","LIN":"11鄰","STREET":" ","SECT":" ","MAREA":"六分寮","LANE":" ","ALLEY":" ","HOUSE_NO":"２９３號之６","E_COORD97":178484.26000000001,"N_COORD97":2561691.02,"ADDRESS":"六分寮２９３號之６","OBJECTID":246893},"geometry":{"x":178484.26000000164,"y":2561691.0200000033}},{"attributes":{"ID":246898,"DIS_CODE":0,"TOWNNAME":"新營區","LI":"嘉芳里","LIN":"14鄰","STREET":"五福路","SECT":" ","MAREA":" ","LANE":" ","ALLEY":" ","HOUSE_NO":"１０２之１號","E_COORD97":176701.51000000001,"N_COORD97":2578307.4500000002,"ADDRESS":"五福路１０２之１號","OBJECTID":246894},"geometry":{"x":176701.51000000071,"y":2578307.450000003}},{"attributes":{"ID":246899,"DIS_CODE":0,"TOWNNAME":"善化區","LI":"六德里","LIN":"11鄰","STREET":" ","SECT":" ","MAREA":"六分寮","LANE":" ","ALLEY":" ","HOUSE_NO":"２９０號","E_COORD97":178562.81,"N_COORD97":2561646.25,"ADDRESS":"六分寮２９０號","OBJECTID":246895},"geometry":{"x":178562.80999999959,"y":2561646.2500000019}},{"attributes":{"ID":246900,"DIS_CODE":0,"TOWNNAME":"善化區","LI":"六德里","LIN":"11鄰","STREET":" ","SECT":" ","MAREA":"六分寮","LANE":" ","ALLEY":" ","HOUSE_NO":"２９３號","E_COORD97":178510.26000000001,"N_COORD97":2561650,"ADDRESS":"六分寮２９３號","OBJECTID":246896},"geometry":{"x":178510.26000000071,"y":2561650}},{"attributes":{"ID":246901,"DIS_CODE":0,"TOWNNAME":"善化區","LI":"六德里","LIN":"11鄰","STREET":" ","SECT":" ","MAREA":"六分寮","LANE":" ","ALLEY":" ","HOUSE_NO":"２９４之５號","E_COORD97":178493.12,"N_COORD97":2561644.52,"ADDRESS":"六分寮２９４之５號","OBJECTID":246897},"geometry":{"x":178493.12000000011,"y":2561644.5200000014}},{"attributes":{"ID":246902,"DIS_CODE":0,"TOWNNAME":"善化區","LI":"六德里","LIN":"11鄰","STREET":" ","SECT":" ","MAREA":"六分寮","LANE":" ","ALLEY":" ","HOUSE_NO":"２９１號之１","E_COORD97":178565.88,"N_COORD97":2561596.77,"ADDRESS":"六分寮２９１號之１","OBJECTID":246898},"geometry":{"x":178565.87999999989,"y":2561596.7699999996}},{"attributes":{"ID":246903,"DIS_CODE":0,"TOWNNAME":"善化區","LI":"六德里","LIN":"11鄰","STREET":" ","SECT":" ","MAREA":"六分寮","LANE":" ","ALLEY":" ","HOUSE_NO":"２９０號之１","E_COORD97":178557.97,"N_COORD97":2561658.77,"ADDRESS":"六分寮２９０號之１","OBJECTID":246899},"geometry":{"x":178557.97000000067,"y":2561658.7700000033}},{"attributes":{"ID":246904,"DIS_CODE":0,"TOWNNAME":"善化區","LI":"文正里","LIN":"11鄰","STREET":"文正路","SECT":" ","MAREA":" ","LANE":"２５巷","ALLEY":" ","HOUSE_NO":"３之５號","E_COORD97":176928.42000000001,"N_COORD97":2559315.5299999998,"ADDRESS":"文正路２５巷３之５號","OBJECTID":246900},"geometry":{"x":176928.41999999993,"y":2559315.5300000012}},{"attributes":{"ID":246905,"DIS_CODE":0,"TOWNNAME":"善化區","LI":"文正里","LIN":"11鄰","STREET":"文正路","SECT":" ","MAREA":" ","LANE":"２５巷","ALLEY":" ","HOUSE_NO":"３之６號","E_COORD97":176923.20000000001,"N_COORD97":2559315.2799999998,"ADDRESS":"文正路２５巷３之６號","OBJECTID":246901},"geometry":{"x":176923.20000000019,"y":2559315.2799999993}},{"attributes":{"ID":246906,"DIS_CODE":0,"TOWNNAME":"善化區","LI":"文正里","LIN":"11鄰","STREET":"文正路","SECT":" ","MAREA":" ","LANE":"２５巷","ALLEY":" ","HOUSE_NO":"８號之１","E_COORD97":176937.45000000001,"N_COORD97":2559405.7799999998,"ADDRESS":"文正路２５巷８號之１","OBJECTID":246902},"geometry":{"x":176937.45000000112,"y":2559405.7799999993}},{"attributes":{"ID":246907,"DIS_CODE":0,"TOWNNAME":"善化區","LI":"六德里","LIN":"11鄰","STREET":" ","SECT":" ","MAREA":"六分寮","LANE":" ","ALLEY":" ","HOUSE_NO":"２９５號","E_COORD97":178472.62,"N_COORD97":2561646,"ADDRESS":"六分寮２９５號","OBJECTID":246903},"geometry":{"x":178472.62000000104,"y":2561646}},{"attributes":{"ID":246908,"DIS_CODE":0,"TOWNNAME":"善化區","LI":"六德里","LIN":"11鄰","STREET":" ","SECT":" ","MAREA":"六分寮","LANE":" ","ALLEY":" ","HOUSE_NO":"２９１之３號","E_COORD97":178561.5,"N_COORD97":2561634.52,"ADDRESS":"六分寮２９１之３號","OBJECTID":246904},"geometry":{"x":178561.50000000093,"y":2561634.5200000014}},{"attributes":{"ID":246909,"DIS_CODE":0,"TOWNNAME":"善化區","LI":"六德里","LIN":"11鄰","STREET":" ","SECT":" ","MAREA":"六分寮","LANE":" ","ALLEY":" ","HOUSE_NO":"２９５號之３","E_COORD97":178445.85000000001,"N_COORD97":2561654.27,"ADDRESS":"六分寮２９５號之３","OBJECTID":246905},"geometry":{"x":178445.84999999963,"y":2561654.2699999996}},{"attributes":{"ID":246910,"DIS_CODE":0,"TOWNNAME":"善化區","LI":"六德里","LIN":"11鄰","STREET":" ","SECT":" ","MAREA":"六分寮","LANE":" ","ALLEY":" ","HOUSE_NO":"２８７號之１","E_COORD97":178599.76000000001,"N_COORD97":2561588.77,"ADDRESS":"六分寮２８７號之１","OBJECTID":246906},"geometry":{"x":178599.76000000071,"y":2561588.7700000014}},{"attributes":{"ID":246911,"DIS_CODE":0,"TOWNNAME":"善化區","LI":"六德里","LIN":"11鄰","STREET":" ","SECT":" ","MAREA":"六分寮","LANE":" ","ALLEY":" ","HOUSE_NO":"２９３號之２","E_COORD97":178463.16,"N_COORD97":2561691.27,"ADDRESS":"六分寮２９３號之２","OBJECTID":246907},"geometry":{"x":178463.16000000201,"y":2561691.2699999996}},{"attributes":{"ID":246912,"DIS_CODE":0,"TOWNNAME":"善化區","LI":"小新里","LIN":"11鄰","STREET":" ","SECT":" ","MAREA":"小新營","LANE":" ","ALLEY":" ","HOUSE_NO":"７８號","E_COORD97":179554.88,"N_COORD97":2558198,"ADDRESS":"小新營７８號","OBJECTID":246908},"geometry":{"x":179554.88000000175,"y":2558198}},{"attributes":{"ID":246913,"DIS_CODE":0,"TOWNNAME":"善化區","LI":"六德里","LIN":"11鄰","STREET":" ","SECT":" ","MAREA":"六分寮","LANE":" ","ALLEY":" ","HOUSE_NO":"２９１號","E_COORD97":178552.10000000001,"N_COORD97":2561629,"ADDRESS":"六分寮２９１號","OBJECTID":246909},"geometry":{"x":178552.09999999963,"y":2561629}},{"attributes":{"ID":246914,"DIS_CODE":0,"TOWNNAME":"永康區","LI":"五王里","LIN":"34鄰","STREET":"五福街","SECT":" ","MAREA":" ","LANE":"３３巷","ALLEY":" ","HOUSE_NO":"１號","E_COORD97":171315.10000000001,"N_COORD97":2545909.75,"ADDRESS":"五福街３３巷１號","OBJECTID":246910},"geometry":{"x":171315.10000000056,"y":2545909.75}},{"attributes":{"ID":246915,"DIS_CODE":0,"TOWNNAME":"永康區","LI":"勝利里","LIN":"34鄰","STREET":"勝利街","SECT":" ","MAREA":" ","LANE":"１巷","ALLEY":" ","HOUSE_NO":"５２號","E_COORD97":170950.35999999999,"N_COORD97":2544667.0099999998,"ADDRESS":"勝利街１巷５２號","OBJECTID":246911},"geometry":{"x":170950.36000000034,"y":2544667.0099999998}},{"attributes":{"ID":246916,"DIS_CODE":0,"TOWNNAME":"永康區","LI":"勝利里","LIN":"34鄰","STREET":"勝利街","SECT":" ","MAREA":" ","LANE":"１巷","ALLEY":" ","HOUSE_NO":"４９號","E_COORD97":170962.35000000001,"N_COORD97":2544663.7599999998,"ADDRESS":"勝利街１巷４９號","OBJECTID":246912},"geometry":{"x":170962.35000000056,"y":2544663.7600000016}},{"attributes":{"ID":246917,"DIS_CODE":0,"TOWNNAME":"南區","LI":"新昌里","LIN":"14鄰","STREET":"府緯街","SECT":" ","MAREA":" ","LANE":" ","ALLEY":" ","HOUSE_NO":"１３２號十樓之４","E_COORD97":167547.5,"N_COORD97":2542734.75,"ADDRESS":"府緯街１３２號十樓之４","OBJECTID":246913},"geometry":{"x":167547.50000000093,"y":2542734.7500000019}},{"attributes":{"ID":246918,"DIS_CODE":0,"TOWNNAME":"永康區","LI":"勝利里","LIN":"34鄰","STREET":"勝利街","SECT":" ","MAREA":" ","LANE":"１巷","ALLEY":" ","HOUSE_NO":"５１號","E_COORD97":170954.23999999999,"N_COORD97":2544666.0099999998,"ADDRESS":"勝利街１巷５１號","OBJECTID":246914},"geometry":{"x":170954.24000000022,"y":2544666.0100000016}},{"attributes":{"ID":246919,"DIS_CODE":0,"TOWNNAME":"南區","LI":"新昌里","LIN":"14鄰","STREET":"府緯街","SECT":" ","MAREA":" ","LANE":" ","ALLEY":" ","HOUSE_NO":"１３２號十樓之５","E_COORD97":167547.5,"N_COORD97":2542734.75,"ADDRESS":"府緯街１３２號十樓之５","OBJECTID":246915},"geometry":{"x":167547.50000000093,"y":2542734.7500000019}},{"attributes":{"ID":246920,"DIS_CODE":0,"TOWNNAME":"南區","LI":"新昌里","LIN":"14鄰","STREET":"府緯街","SECT":" ","MAREA":" ","LANE":" ","ALLEY":" ","HOUSE_NO":"１３２號十樓之６","E_COORD97":167547.5,"N_COORD97":2542734.75,"ADDRESS":"府緯街１３２號十樓之６","OBJECTID":246916},"geometry":{"x":167547.50000000093,"y":2542734.7500000019}},{"attributes":{"ID":246921,"DIS_CODE":0,"TOWNNAME":"東區","LI":"莊敬里","LIN":"13鄰","STREET":"東光路","SECT":"二段","MAREA":" ","LANE":"５８巷","ALLEY":" ","HOUSE_NO":"１２號","E_COORD97":171269.97,"N_COORD97":2544104.7400000002,"ADDRESS":"東光路二段５８巷１２號","OBJECTID":246917},"geometry":{"x":171269.97000000067,"y":2544104.7400000021}},{"attributes":{"ID":246922,"DIS_CODE":0,"TOWNNAME":"東區","LI":"莊敬里","LIN":"13鄰","STREET":"東光路","SECT":"二段","MAREA":" ","LANE":"５８巷","ALLEY":" ","HOUSE_NO":"１４號","E_COORD97":171274.12,"N_COORD97":2544105.9100000001,"ADDRESS":"東光路二段５８巷１４號","OBJECTID":246918},"geometry":{"x":171274.12000000197,"y":2544105.9100000001}},{"attributes":{"ID":246923,"DIS_CODE":0,"TOWNNAME":"東區","LI":"莊敬里","LIN":"13鄰","STREET":"東光路","SECT":"二段","MAREA":" ","LANE":"５８巷","ALLEY":" ","HOUSE_NO":"１８號","E_COORD97":171285.48000000001,"N_COORD97":2544102.9199999999,"ADDRESS":"東光路二段５８巷１８號","OBJECTID":246919},"geometry":{"x":171285.47999999952,"y":2544102.9200000037}},{"attributes":{"ID":246924,"DIS_CODE":0,"TOWNNAME":"東區","LI":"莊敬里","LIN":"13鄰","STREET":"東光路","SECT":"二段","MAREA":" ","LANE":"５８巷","ALLEY":" ","HOUSE_NO":"１０號","E_COORD97":171265.81,"N_COORD97":2544106.27,"ADDRESS":"東光路二段５８巷１０號","OBJECTID":246920},"geometry":{"x":171265.81000000052,"y":2544106.2699999996}},{"attributes":{"ID":246925,"DIS_CODE":0,"TOWNNAME":"東區","LI":"莊敬里","LIN":"13鄰","STREET":"東光路","SECT":"二段","MAREA":" ","LANE":"５８巷","ALLEY":" ","HOUSE_NO":"８號","E_COORD97":171261.01000000001,"N_COORD97":2544107.7200000002,"ADDRESS":"東光路二段５８巷８號","OBJECTID":246921},"geometry":{"x":171261.01000000164,"y":2544107.7200000007}},{"attributes":{"ID":246926,"DIS_CODE":0,"TOWNNAME":"仁德區","LI":"成功里","LIN":"34鄰","STREET":"成功一街","SECT":" ","MAREA":" ","LANE":"５７巷","ALLEY":" ","HOUSE_NO":"１６號","E_COORD97":170595.72,"N_COORD97":2540077.5099999998,"ADDRESS":"成功一街５７巷１６號","OBJECTID":246922},"geometry":{"x":170595.72000000067,"y":2540077.5100000035}},{"attributes":{"ID":246927,"DIS_CODE":0,"TOWNNAME":"善化區","LI":"田寮里","LIN":"11鄰","STREET":" ","SECT":" ","MAREA":"六分寮","LANE":" ","ALLEY":" ","HOUSE_NO":"１１５號","E_COORD97":178653.79999999999,"N_COORD97":2561410.75,"ADDRESS":"六分寮１１５號","OBJECTID":246923},"geometry":{"x":178653.80000000075,"y":2561410.75}},{"attributes":{"ID":246928,"DIS_CODE":0,"TOWNNAME":"仁德區","LI":"成功里","LIN":"34鄰","STREET":"成功一街","SECT":" ","MAREA":" ","LANE":"５７巷","ALLEY":" ","HOUSE_NO":"２４號","E_COORD97":170620.39999999999,"N_COORD97":2540078.0099999998,"ADDRESS":"成功一街５７巷２４號","OBJECTID":246924},"geometry":{"x":170620.4000000013,"y":2540078.0100000016}},{"attributes":{"ID":246929,"DIS_CODE":0,"TOWNNAME":"善化區","LI":"牛庄里","LIN":"11鄰","STREET":" ","SECT":" ","MAREA":"牛庄","LANE":" ","ALLEY":" ","HOUSE_NO":"１３３號之３","E_COORD97":179903.26999999999,"N_COORD97":2560118.27,"ADDRESS":"牛庄１３３號之３","OBJECTID":246925},"geometry":{"x":179903.27000000048,"y":2560118.2699999996}},{"attributes":{"ID":246930,"DIS_CODE":0,"TOWNNAME":"善化區","LI":"東昌里","LIN":"11鄰","STREET":" ","SECT":" ","MAREA":"東勢寮","LANE":" ","ALLEY":" ","HOUSE_NO":"１０３號之２","E_COORD97":180144.07000000001,"N_COORD97":2561850.77,"ADDRESS":"東勢寮１０３號之２","OBJECTID":246926},"geometry":{"x":180144.07000000123,"y":2561850.7699999996}},{"attributes":{"ID":246931,"DIS_CODE":0,"TOWNNAME":"善化區","LI":"東昌里","LIN":"11鄰","STREET":" ","SECT":" ","MAREA":"東勢寮","LANE":" ","ALLEY":" ","HOUSE_NO":"１０７號之１","E_COORD97":180191.17000000001,"N_COORD97":2561826.02,"ADDRESS":"東勢寮１０７號之１","OBJECTID":246927},"geometry":{"x":180191.16999999993,"y":2561826.0199999996}},{"attributes":{"ID":246932,"DIS_CODE":0,"TOWNNAME":"仁德區","LI":"成功里","LIN":"34鄰","STREET":"成功一街","SECT":" ","MAREA":" ","LANE":"５７巷","ALLEY":" ","HOUSE_NO":"２號","E_COORD97":170553.60000000001,"N_COORD97":2540077.7599999998,"ADDRESS":"成功一街５７巷２號","OBJECTID":246928},"geometry":{"x":170553.60000000056,"y":2540077.7599999998}},{"attributes":{"ID":246933,"DIS_CODE":0,"TOWNNAME":"仁德區","LI":"成功里","LIN":"34鄰","STREET":"成功一街","SECT":" ","MAREA":" ","LANE":"５７巷","ALLEY":" ","HOUSE_NO":"１９號","E_COORD97":170612.10999999999,"N_COORD97":2540085.7599999998,"ADDRESS":"成功一街５７巷１９號","OBJECTID":246929},"geometry":{"x":170612.11000000127,"y":2540085.7599999979}},{"attributes":{"ID":246934,"DIS_CODE":0,"TOWNNAME":"仁德區","LI":"成功里","LIN":"34鄰","STREET":"成功一街","SECT":" ","MAREA":" ","LANE":"５７巷","ALLEY":" ","HOUSE_NO":"２１號","E_COORD97":170620.39999999999,"N_COORD97":2540087.02,"ADDRESS":"成功一街５７巷２１號","OBJECTID":246930},"geometry":{"x":170620.4000000013,"y":2540087.0199999996}},{"attributes":{"ID":246935,"DIS_CODE":0,"TOWNNAME":"善化區","LI":"東昌里","LIN":"11鄰","STREET":" ","SECT":" ","MAREA":"東勢寮","LANE":" ","ALLEY":" ","HOUSE_NO":"１０３號","E_COORD97":180131.66,"N_COORD97":2561849.7599999998,"ADDRESS":"東勢寮１０３號","OBJECTID":246931},"geometry":{"x":180131.66000000108,"y":2561849.7600000016}},{"attributes":{"ID":246936,"DIS_CODE":0,"TOWNNAME":"善化區","LI":"東昌里","LIN":"11鄰","STREET":" ","SECT":" ","MAREA":"東勢寮","LANE":" ","ALLEY":" ","HOUSE_NO":"１０２號之１３","E_COORD97":180096.89999999999,"N_COORD97":2561822.02,"ADDRESS":"東勢寮１０２號之１３","OBJECTID":246932},"geometry":{"x":180096.90000000037,"y":2561822.0199999996}},{"attributes":{"ID":246937,"DIS_CODE":0,"TOWNNAME":"南區","LI":"新昌里","LIN":"14鄰","STREET":"府緯街","SECT":" ","MAREA":" ","LANE":" ","ALLEY":" ","HOUSE_NO":"１３２號十樓之７","E_COORD97":167547.5,"N_COORD97":2542734.75,"ADDRESS":"府緯街１３２號十樓之７","OBJECTID":246933},"geometry":{"x":167547.50000000093,"y":2542734.7500000019}},{"attributes":{"ID":246938,"DIS_CODE":0,"TOWNNAME":"南區","LI":"新昌里","LIN":"14鄰","STREET":"府緯街","SECT":" ","MAREA":" ","LANE":" ","ALLEY":" ","HOUSE_NO":"１３２號三樓之１","E_COORD97":167547.5,"N_COORD97":2542734.75,"ADDRESS":"府緯街１３２號三樓之１","OBJECTID":246934},"geometry":{"x":167547.50000000093,"y":2542734.7500000019}},{"attributes":{"ID":246939,"DIS_CODE":0,"TOWNNAME":"南區","LI":"新昌里","LIN":"14鄰","STREET":"府緯街","SECT":" ","MAREA":" ","LANE":" ","ALLEY":" ","HOUSE_NO":"１３２號三樓之２","E_COORD97":167547.5,"N_COORD97":2542734.75,"ADDRESS":"府緯街１３２號三樓之２","OBJECTID":246935},"geometry":{"x":167547.50000000093,"y":2542734.7500000019}},{"attributes":{"ID":246940,"DIS_CODE":0,"TOWNNAME":"南區","LI":"新昌里","LIN":"14鄰","STREET":"府緯街","SECT":" ","MAREA":" ","LANE":" ","ALLEY":" ","HOUSE_NO":"１３２號五樓之１","E_COORD97":167547.5,"N_COORD97":2542734.75,"ADDRESS":"府緯街１３２號五樓之１","OBJECTID":246936},"geometry":{"x":167547.50000000093,"y":2542734.7500000019}},{"attributes":{"ID":246941,"DIS_CODE":0,"TOWNNAME":"南區","LI":"新昌里","LIN":"14鄰","STREET":"府緯街","SECT":" ","MAREA":" ","LANE":" ","ALLEY":" ","HOUSE_NO":"１３２號五樓之２","E_COORD97":167547.5,"N_COORD97":2542734.75,"ADDRESS":"府緯街１３２號五樓之２","OBJECTID":246937},"geometry":{"x":167547.50000000093,"y":2542734.7500000019}},{"attributes":{"ID":246942,"DIS_CODE":0,"TOWNNAME":"善化區","LI":"東昌里","LIN":"11鄰","STREET":" ","SECT":" ","MAREA":"東勢寮","LANE":" ","ALLEY":" ","HOUSE_NO":"１０５號","E_COORD97":180171.07000000001,"N_COORD97":2561838.5099999998,"ADDRESS":"東勢寮１０５號","OBJECTID":246938},"geometry":{"x":180171.07000000216,"y":2561838.5100000016}},{"attributes":{"ID":246943,"DIS_CODE":0,"TOWNNAME":"善化區","LI":"西關里","LIN":"11鄰","STREET":"復興街","SECT":" ","MAREA":" ","LANE":"４８巷","ALLEY":" ","HOUSE_NO":"２號","E_COORD97":176963.09,"N_COORD97":2559083.7599999998,"ADDRESS":"復興街４８巷２號","OBJECTID":246939},"geometry":{"x":176963.09000000171,"y":2559083.7600000016}},{"attributes":{"ID":246944,"DIS_CODE":0,"TOWNNAME":"善化區","LI":"東昌里","LIN":"11鄰","STREET":" ","SECT":" ","MAREA":"東勢寮","LANE":" ","ALLEY":" ","HOUSE_NO":"１０７號","E_COORD97":180183.60000000001,"N_COORD97":2561827.7599999998,"ADDRESS":"東勢寮１０７號","OBJECTID":246940},"geometry":{"x":180183.60000000149,"y":2561827.7599999998}},{"attributes":{"ID":246945,"DIS_CODE":0,"TOWNNAME":"善化區","LI":"東昌里","LIN":"11鄰","STREET":" ","SECT":" ","MAREA":"東勢寮","LANE":" ","ALLEY":" ","HOUSE_NO":"１０３號之６","E_COORD97":180152.35000000001,"N_COORD97":2561828.27,"ADDRESS":"東勢寮１０３號之６","OBJECTID":246941},"geometry":{"x":180152.34999999963,"y":2561828.2700000033}},{"attributes":{"ID":246946,"DIS_CODE":0,"TOWNNAME":"大內區","LI":"石湖里","LIN":"11鄰","STREET":" ","SECT":" ","MAREA":"石子瀨","LANE":" ","ALLEY":" ","HOUSE_NO":"３４０號之２","E_COORD97":183776.04000000001,"N_COORD97":2558233.2999999998,"ADDRESS":"石子瀨３４０號之２","OBJECTID":246942},"geometry":{"x":183776.04000000004,"y":2558233.3000000026}},{"attributes":{"ID":246947,"DIS_CODE":0,"TOWNNAME":"新營區","LI":"嘉芳里","LIN":"14鄰","STREET":"新芳街","SECT":" ","MAREA":" ","LANE":" ","ALLEY":" ","HOUSE_NO":"１６號","E_COORD97":176641.12,"N_COORD97":2578643.2400000002,"ADDRESS":"新芳街１６號","OBJECTID":246943},"geometry":{"x":176641.12000000197,"y":2578643.2400000021}},{"attributes":{"ID":246948,"DIS_CODE":0,"TOWNNAME":"仁德區","LI":"成功里","LIN":"34鄰","STREET":"成功一街","SECT":" ","MAREA":" ","LANE":"５７巷","ALLEY":" ","HOUSE_NO":"１號","E_COORD97":170555.23000000001,"N_COORD97":2540083.7599999998,"ADDRESS":"成功一街５７巷１號","OBJECTID":246944},"geometry":{"x":170555.23000000138,"y":2540083.7600000016}},{"attributes":{"ID":246949,"DIS_CODE":0,"TOWNNAME":"新市區","LI":"新和里","LIN":"34鄰","STREET":"仁愛街","SECT":" ","MAREA":" ","LANE":"１８９巷","ALLEY":" ","HOUSE_NO":"２６號","E_COORD97":177521.20000000001,"N_COORD97":2552765.7799999998,"ADDRESS":"仁愛街１８９巷２６號","OBJECTID":246945},"geometry":{"x":177521.20000000112,"y":2552765.7800000012}},{"attributes":{"ID":246950,"DIS_CODE":0,"TOWNNAME":"新市區","LI":"新和里","LIN":"34鄰","STREET":"仁愛街","SECT":" ","MAREA":" ","LANE":"２０５巷","ALLEY":" ","HOUSE_NO":"２５號","E_COORD97":177531.20000000001,"N_COORD97":2552808.2799999998,"ADDRESS":"仁愛街２０５巷２５號","OBJECTID":246946},"geometry":{"x":177531.20000000112,"y":2552808.2799999993}},{"attributes":{"ID":246951,"DIS_CODE":0,"TOWNNAME":"新市區","LI":"新和里","LIN":"34鄰","STREET":"仁愛街","SECT":" ","MAREA":" ","LANE":"２０５巷","ALLEY":" ","HOUSE_NO":"１７號","E_COORD97":177547.79000000001,"N_COORD97":2552807.5299999998,"ADDRESS":"仁愛街２０５巷１７號","OBJECTID":246947},"geometry":{"x":177547.79000000004,"y":2552807.5299999993}},{"attributes":{"ID":246952,"DIS_CODE":0,"TOWNNAME":"永康區","LI":"勝利里","LIN":"34鄰","STREET":"勝利街","SECT":" ","MAREA":" ","LANE":"１巷","ALLEY":" ","HOUSE_NO":"２５號","E_COORD97":171044.37,"N_COORD97":2544626,"ADDRESS":"勝利街１巷２５號","OBJECTID":246948},"geometry":{"x":171044.37000000104,"y":2544626.0000000019}},{"attributes":{"ID":246953,"DIS_CODE":0,"TOWNNAME":"永康區","LI":"崑山里","LIN":"34鄰","STREET":"大仁街","SECT":" ","MAREA":" ","LANE":"１２５巷","ALLEY":" ","HOUSE_NO":"３６號","E_COORD97":173773.03,"N_COORD97":2544885.6600000001,"ADDRESS":"大仁街１２５巷３６號","OBJECTID":246949},"geometry":{"x":173773.03000000026,"y":2544885.660000002}},{"attributes":{"ID":246954,"DIS_CODE":0,"TOWNNAME":"永康區","LI":"崑山里","LIN":"34鄰","STREET":"大仁街","SECT":" ","MAREA":" ","LANE":"１２５巷","ALLEY":" ","HOUSE_NO":"１２號","E_COORD97":173827.57999999999,"N_COORD97":2544866.4100000001,"ADDRESS":"大仁街１２５巷１２號","OBJECTID":246950},"geometry":{"x":173827.58000000101,"y":2544866.410000002}},{"attributes":{"ID":246955,"DIS_CODE":0,"TOWNNAME":"永康區","LI":"崑山里","LIN":"34鄰","STREET":"大仁街","SECT":" ","MAREA":" ","LANE":"１４３巷","ALLEY":" ","HOUSE_NO":"３號","E_COORD97":173856.84,"N_COORD97":2544895.8199999998,"ADDRESS":"大仁街１４３巷３號","OBJECTID":246951},"geometry":{"x":173856.83999999985,"y":2544895.8200000003}},{"attributes":{"ID":246956,"DIS_CODE":0,"TOWNNAME":"大內區","LI":"頭社里","LIN":"11鄰","STREET":" ","SECT":" ","MAREA":"頭社","LANE":" ","ALLEY":" ","HOUSE_NO":"１４２號之５","E_COORD97":186874.38,"N_COORD97":2561913.2999999998,"ADDRESS":"頭社１４２號之５","OBJECTID":246952},"geometry":{"x":186874.37999999989,"y":2561913.3000000007}},{"attributes":{"ID":246957,"DIS_CODE":0,"TOWNNAME":"大內區","LI":"石林里","LIN":"11鄰","STREET":" ","SECT":" ","MAREA":"石子瀨","LANE":" ","ALLEY":" ","HOUSE_NO":"２１９號之１１","E_COORD97":184079.35000000001,"N_COORD97":2558220.2999999998,"ADDRESS":"石子瀨２１９號之１１","OBJECTID":246953},"geometry":{"x":184079.35000000056,"y":2558220.3000000007}},{"attributes":{"ID":246958,"DIS_CODE":0,"TOWNNAME":"大內區","LI":"曲溪里","LIN":"11鄰","STREET":" ","SECT":" ","MAREA":"二重溪","LANE":" ","ALLEY":" ","HOUSE_NO":"１０５號之７","E_COORD97":187395.25,"N_COORD97":2557840.3100000001,"ADDRESS":"二重溪１０５號之７","OBJECTID":246954},"geometry":{"x":187395.25,"y":2557840.3100000005}},{"attributes":{"ID":246959,"DIS_CODE":0,"TOWNNAME":"大內區","LI":"曲溪里","LIN":"11鄰","STREET":" ","SECT":" ","MAREA":"二重溪","LANE":" ","ALLEY":" ","HOUSE_NO":"１０６號","E_COORD97":187424.34,"N_COORD97":2557811.3100000001,"ADDRESS":"二重溪１０６號","OBJECTID":246955},"geometry":{"x":187424.34000000078,"y":2557811.3100000042}},{"attributes":{"ID":246960,"DIS_CODE":0,"TOWNNAME":"大內區","LI":"曲溪里","LIN":"11鄰","STREET":" ","SECT":" ","MAREA":"二重溪","LANE":" ","ALLEY":" ","HOUSE_NO":"１０５號之１１","E_COORD97":187389.92999999999,"N_COORD97":2557820.3100000001,"ADDRESS":"二重溪１０５號之１１","OBJECTID":246956},"geometry":{"x":187389.93000000063,"y":2557820.3100000005}},{"attributes":{"ID":246961,"DIS_CODE":0,"TOWNNAME":"永康區","LI":"勝利里","LIN":"34鄰","STREET":"勝利街","SECT":" ","MAREA":" ","LANE":"１巷","ALLEY":" ","HOUSE_NO":"２４號","E_COORD97":171047.57000000001,"N_COORD97":2544623.5,"ADDRESS":"勝利街１巷２４號","OBJECTID":246957},"geometry":{"x":171047.57000000216,"y":2544623.5}},{"attributes":{"ID":246962,"DIS_CODE":0,"TOWNNAME":"仁德區","LI":"成功里","LIN":"34鄰","STREET":"成功一街","SECT":" ","MAREA":" ","LANE":"５７巷","ALLEY":" ","HOUSE_NO":"４號","E_COORD97":170558.17999999999,"N_COORD97":2540077.7599999998,"ADDRESS":"成功一街５７巷４號","OBJECTID":246958},"geometry":{"x":170558.18000000063,"y":2540077.7599999998}},{"attributes":{"ID":246963,"DIS_CODE":0,"TOWNNAME":"仁德區","LI":"成功里","LIN":"34鄰","STREET":"成功一街","SECT":" ","MAREA":" ","LANE":"５７巷","ALLEY":" ","HOUSE_NO":"２０號","E_COORD97":170608.14000000001,"N_COORD97":2540077.7599999998,"ADDRESS":"成功一街５７巷２０號","OBJECTID":246959},"geometry":{"x":170608.1400000006,"y":2540077.7599999998}},{"attributes":{"ID":246964,"DIS_CODE":0,"TOWNNAME":"大內區","LI":"環湖里","LIN":"11鄰","STREET":" ","SECT":" ","MAREA":"燒灰子","LANE":" ","ALLEY":" ","HOUSE_NO":"２２號之１","E_COORD97":189190.57999999999,"N_COORD97":2562582.2999999998,"ADDRESS":"燒灰子２２號之１","OBJECTID":246960},"geometry":{"x":189190.58000000007,"y":2562582.3000000026}},{"attributes":{"ID":246965,"DIS_CODE":0,"TOWNNAME":"仁德區","LI":"成功里","LIN":"34鄰","STREET":"成功一街","SECT":" ","MAREA":" ","LANE":"５７巷","ALLEY":" ","HOUSE_NO":"１７號","E_COORD97":170602.22,"N_COORD97":2540084.5,"ADDRESS":"成功一街５７巷１７號","OBJECTID":246961},"geometry":{"x":170602.22000000067,"y":2540084.5000000037}},{"attributes":{"ID":246966,"DIS_CODE":0,"TOWNNAME":"仁德區","LI":"成功里","LIN":"34鄰","STREET":"成功一街","SECT":" ","MAREA":" ","LANE":"５７巷","ALLEY":" ","HOUSE_NO":"６號","E_COORD97":170564.12,"N_COORD97":2540077.7599999998,"ADDRESS":"成功一街５７巷６號","OBJECTID":246962},"geometry":{"x":170564.12000000104,"y":2540077.7599999998}},{"attributes":{"ID":246967,"DIS_CODE":0,"TOWNNAME":"仁德區","LI":"成功里","LIN":"34鄰","STREET":"成功一街","SECT":" ","MAREA":" ","LANE":"５７巷","ALLEY":" ","HOUSE_NO":"１２號","E_COORD97":170583.67999999999,"N_COORD97":2540077.7599999998,"ADDRESS":"成功一街５７巷１２號","OBJECTID":246963},"geometry":{"x":170583.68000000063,"y":2540077.7599999998}},{"attributes":{"ID":246968,"DIS_CODE":0,"TOWNNAME":"仁德區","LI":"成功里","LIN":"34鄰","STREET":"成功一街","SECT":" ","MAREA":" ","LANE":"５７巷","ALLEY":" ","HOUSE_NO":"８號","E_COORD97":170570.23999999999,"N_COORD97":2540077.7599999998,"ADDRESS":"成功一街５７巷８號","OBJECTID":246964},"geometry":{"x":170570.24000000115,"y":2540077.7599999998}},{"attributes":{"ID":246969,"DIS_CODE":0,"TOWNNAME":"東區","LI":"大智里","LIN":"34鄰","STREET":"崇善十五街","SECT":" ","MAREA":" ","LANE":"３３巷","ALLEY":" ","HOUSE_NO":"２４號","E_COORD97":171325.51999999999,"N_COORD97":2540513.3500000001,"ADDRESS":"崇善十五街３３巷２４號","OBJECTID":246965},"geometry":{"x":171325.52000000048,"y":2540513.3500000015}},{"attributes":{"ID":246970,"DIS_CODE":0,"TOWNNAME":"大內區","LI":"石城里","LIN":"11鄰","STREET":" ","SECT":" ","MAREA":"石子瀨","LANE":" ","ALLEY":" ","HOUSE_NO":"９７號","E_COORD97":184129.12,"N_COORD97":2558041.25,"ADDRESS":"石子瀨９７號","OBJECTID":246966},"geometry":{"x":184129.12000000104,"y":2558041.25}},{"attributes":{"ID":246971,"DIS_CODE":0,"TOWNNAME":"東區","LI":"大智里","LIN":"34鄰","STREET":"崇善十五街","SECT":" ","MAREA":" ","LANE":"３３巷","ALLEY":" ","HOUSE_NO":"２８號","E_COORD97":171316.69,"N_COORD97":2540513.6200000001,"ADDRESS":"崇善十五街３３巷２８號","OBJECTID":246967},"geometry":{"x":171316.69000000134,"y":2540513.6200000029}},{"attributes":{"ID":246972,"DIS_CODE":0,"TOWNNAME":"東區","LI":"大智里","LIN":"34鄰","STREET":"崇善十五街","SECT":" ","MAREA":" ","LANE":"３３巷","ALLEY":" ","HOUSE_NO":"３０號","E_COORD97":171311.73999999999,"N_COORD97":2540513.6200000001,"ADDRESS":"崇善十五街３３巷３０號","OBJECTID":246968},"geometry":{"x":171311.74000000022,"y":2540513.6200000029}},{"attributes":{"ID":246973,"DIS_CODE":0,"TOWNNAME":"東區","LI":"大智里","LIN":"34鄰","STREET":"崇善十五街","SECT":" ","MAREA":" ","LANE":"３３巷","ALLEY":" ","HOUSE_NO":"３２號","E_COORD97":171307.04999999999,"N_COORD97":2540514.1499999999,"ADDRESS":"崇善十五街３３巷３２號","OBJECTID":246969},"geometry":{"x":171307.05000000075,"y":2540514.1500000004}},{"attributes":{"ID":246974,"DIS_CODE":0,"TOWNNAME":"仁德區","LI":"後壁里","LIN":"34鄰","STREET":"德洋二街","SECT":" ","MAREA":" ","LANE":"１９巷","ALLEY":" ","HOUSE_NO":"４號","E_COORD97":172442.72,"N_COORD97":2539382.52,"ADDRESS":"德洋二街１９巷４號","OBJECTID":246970},"geometry":{"x":172442.7200000016,"y":2539382.5200000014}},{"attributes":{"ID":246975,"DIS_CODE":0,"TOWNNAME":"仁德區","LI":"後壁里","LIN":"34鄰","STREET":"德洋二街","SECT":" ","MAREA":" ","LANE":"１１巷","ALLEY":" ","HOUSE_NO":"１３號","E_COORD97":172473.12,"N_COORD97":2539358.2599999998,"ADDRESS":"德洋二街１１巷１３號","OBJECTID":246971},"geometry":{"x":172473.12000000104,"y":2539358.2600000016}},{"attributes":{"ID":246976,"DIS_CODE":0,"TOWNNAME":"仁德區","LI":"後壁里","LIN":"34鄰","STREET":"德洋二街","SECT":" ","MAREA":" ","LANE":"３９巷","ALLEY":" ","HOUSE_NO":"１９號","E_COORD97":172321.39999999999,"N_COORD97":2539421.5099999998,"ADDRESS":"德洋二街３９巷１９號","OBJECTID":246972},"geometry":{"x":172321.40000000037,"y":2539421.5099999998}},{"attributes":{"ID":246977,"DIS_CODE":0,"TOWNNAME":"仁德區","LI":"後壁里","LIN":"34鄰","STREET":"德洋二街","SECT":" ","MAREA":" ","LANE":"１９巷","ALLEY":" ","HOUSE_NO":"１０號","E_COORD97":172440.42999999999,"N_COORD97":2539368.52,"ADDRESS":"德洋二街１９巷１０號","OBJECTID":246973},"geometry":{"x":172440.4299999997,"y":2539368.5200000033}},{"attributes":{"ID":246978,"DIS_CODE":0,"TOWNNAME":"仁德區","LI":"後壁里","LIN":"34鄰","STREET":"德洋二街","SECT":" ","MAREA":" ","LANE":"３１巷","ALLEY":" ","HOUSE_NO":"９號","E_COORD97":172400.79000000001,"N_COORD97":2539376.77,"ADDRESS":"德洋二街３１巷９號","OBJECTID":246974},"geometry":{"x":172400.79000000097,"y":2539376.7699999996}},{"attributes":{"ID":246979,"DIS_CODE":0,"TOWNNAME":"仁德區","LI":"後壁里","LIN":"34鄰","STREET":"德洋二街","SECT":" ","MAREA":" ","LANE":"５巷","ALLEY":" ","HOUSE_NO":"９之２號","E_COORD97":172500.10000000001,"N_COORD97":2539339.54,"ADDRESS":"德洋二街５巷９之２號","OBJECTID":246975},"geometry":{"x":172500.10000000056,"y":2539339.5399999991}},{"attributes":{"ID":246980,"DIS_CODE":0,"TOWNNAME":"仁德區","LI":"後壁里","LIN":"34鄰","STREET":"德洋二街","SECT":" ","MAREA":" ","LANE":"３９巷","ALLEY":" ","HOUSE_NO":"２１號","E_COORD97":172315.44,"N_COORD97":2539422.2599999998,"ADDRESS":"德洋二街３９巷２１號","OBJECTID":246976},"geometry":{"x":172315.44000000134,"y":2539422.2600000016}},{"attributes":{"ID":246981,"DIS_CODE":0,"TOWNNAME":"仁德區","LI":"後壁里","LIN":"34鄰","STREET":"德洋二街","SECT":" ","MAREA":" ","LANE":"３９巷","ALLEY":" ","HOUSE_NO":"１５號","E_COORD97":172332.76999999999,"N_COORD97":2539420.2599999998,"ADDRESS":"德洋二街３９巷１５號","OBJECTID":246977},"geometry":{"x":172332.77000000048,"y":2539420.2599999998}},{"attributes":{"ID":246982,"DIS_CODE":0,"TOWNNAME":"仁德區","LI":"後壁里","LIN":"34鄰","STREET":"德洋二街","SECT":" ","MAREA":" ","LANE":"５巷","ALLEY":" ","HOUSE_NO":"９之２號","E_COORD97":172499.87,"N_COORD97":2539339.54,"ADDRESS":"德洋二街５巷９之２號","OBJECTID":246978},"geometry":{"x":172499.87000000197,"y":2539339.5399999991}},{"attributes":{"ID":246983,"DIS_CODE":0,"TOWNNAME":"仁德區","LI":"後壁里","LIN":"34鄰","STREET":"德洋二街","SECT":" ","MAREA":" ","LANE":"５巷","ALLEY":" ","HOUSE_NO":"９之３號","E_COORD97":172497.73999999999,"N_COORD97":2539334.04,"ADDRESS":"德洋二街５巷９之３號","OBJECTID":246979},"geometry":{"x":172497.74000000115,"y":2539334.0400000028}},{"attributes":{"ID":246984,"DIS_CODE":0,"TOWNNAME":"仁德區","LI":"後壁里","LIN":"34鄰","STREET":"德洋二街","SECT":" ","MAREA":" ","LANE":"１９巷","ALLEY":" ","HOUSE_NO":"６號","E_COORD97":172441.87,"N_COORD97":2539378.02,"ADDRESS":"德洋二街１９巷６號","OBJECTID":246980},"geometry":{"x":172441.87000000011,"y":2539378.0199999996}},{"attributes":{"ID":246985,"DIS_CODE":0,"TOWNNAME":"仁德區","LI":"後壁里","LIN":"34鄰","STREET":"德洋二街","SECT":" ","MAREA":" ","LANE":"５巷","ALLEY":" ","HOUSE_NO":"９之４號","E_COORD97":172496.28,"N_COORD97":2539328.29,"ADDRESS":"德洋二街５巷９之４號","OBJECTID":246981},"geometry":{"x":172496.28000000026,"y":2539328.2899999991}},{"attributes":{"ID":246986,"DIS_CODE":0,"TOWNNAME":"仁德區","LI":"後壁里","LIN":"34鄰","STREET":"德洋二街","SECT":" ","MAREA":" ","LANE":"５巷","ALLEY":" ","HOUSE_NO":"９之３號","E_COORD97":172498.01000000001,"N_COORD97":2539334.04,"ADDRESS":"德洋二街５巷９之３號","OBJECTID":246982},"geometry":{"x":172498.00999999978,"y":2539334.0400000028}},{"attributes":{"ID":246987,"DIS_CODE":0,"TOWNNAME":"仁德區","LI":"後壁里","LIN":"34鄰","STREET":"德洋二街","SECT":" ","MAREA":" ","LANE":"５巷","ALLEY":" ","HOUSE_NO":"６號","E_COORD97":172492.19,"N_COORD97":2539359.5099999998,"ADDRESS":"德洋二街５巷６號","OBJECTID":246983},"geometry":{"x":172492.19000000041,"y":2539359.5100000016}},{"attributes":{"ID":246988,"DIS_CODE":0,"TOWNNAME":"大內區","LI":"環湖里","LIN":"11鄰","STREET":" ","SECT":" ","MAREA":"燒灰子","LANE":" ","ALLEY":" ","HOUSE_NO":"２３號","E_COORD97":189196.94,"N_COORD97":2562605.25,"ADDRESS":"燒灰子２３號","OBJECTID":246984},"geometry":{"x":189196.94000000041,"y":2562605.2500000037}},{"attributes":{"ID":246989,"DIS_CODE":0,"TOWNNAME":"東區","LI":"富裕里","LIN":"11鄰","STREET":"裕豐街","SECT":" ","MAREA":" ","LANE":"５４巷","ALLEY":" ","HOUSE_NO":"１號","E_COORD97":170738.78,"N_COORD97":2542771.4700000002,"ADDRESS":"裕豐街５４巷１號","OBJECTID":246985},"geometry":{"x":170738.78000000026,"y":2542771.4700000025}},{"attributes":{"ID":246990,"DIS_CODE":0,"TOWNNAME":"東區","LI":"富裕里","LIN":"11鄰","STREET":"裕豐街","SECT":" ","MAREA":" ","LANE":"５４巷","ALLEY":" ","HOUSE_NO":"９號","E_COORD97":170761.41,"N_COORD97":2542769.9900000002,"ADDRESS":"裕豐街５４巷９號","OBJECTID":246986},"geometry":{"x":170761.41000000015,"y":2542769.9900000039}},{"attributes":{"ID":246991,"DIS_CODE":0,"TOWNNAME":"東區","LI":"圍下里","LIN":"11鄰","STREET":"青年路","SECT":" ","MAREA":" ","LANE":"２２５巷","ALLEY":" ","HOUSE_NO":"１６號","E_COORD97":169245.23999999999,"N_COORD97":2543622.6099999999,"ADDRESS":"青年路２２５巷１６號","OBJECTID":246987},"geometry":{"x":169245.24000000022,"y":2543622.6099999975}},{"attributes":{"ID":246992,"DIS_CODE":0,"TOWNNAME":"東區","LI":"富裕里","LIN":"11鄰","STREET":"裕豐街","SECT":" ","MAREA":" ","LANE":"５４巷","ALLEY":" ","HOUSE_NO":"１７號","E_COORD97":170787.42000000001,"N_COORD97":2542772.79,"ADDRESS":"裕豐街５４巷１７號","OBJECTID":246988},"geometry":{"x":170787.42000000086,"y":2542772.7899999991}},{"attributes":{"ID":246993,"DIS_CODE":0,"TOWNNAME":"仁德區","LI":"後壁里","LIN":"34鄰","STREET":"德洋二街","SECT":" ","MAREA":" ","LANE":"３９巷","ALLEY":" ","HOUSE_NO":"２３號","E_COORD97":172310.20000000001,"N_COORD97":2539422.7599999998,"ADDRESS":"德洋二街３９巷２３號","OBJECTID":246989},"geometry":{"x":172310.20000000112,"y":2539422.7600000016}},{"attributes":{"ID":246994,"DIS_CODE":0,"TOWNNAME":"永康區","LI":"五王里","LIN":"34鄰","STREET":"五福街","SECT":" ","MAREA":" ","LANE":"３３巷","ALLEY":" ","HOUSE_NO":"６號","E_COORD97":171321.79999999999,"N_COORD97":2545918.75,"ADDRESS":"五福街３３巷６號","OBJECTID":246990},"geometry":{"x":171321.80000000168,"y":2545918.7500000019}},{"attributes":{"ID":246995,"DIS_CODE":0,"TOWNNAME":"永康區","LI":"埔園里","LIN":"34鄰","STREET":"八德街","SECT":" ","MAREA":" ","LANE":"８８巷","ALLEY":" ","HOUSE_NO":"３８號","E_COORD97":174201.98000000001,"N_COORD97":2548610.0299999998,"ADDRESS":"八德街８８巷３８號","OBJECTID":246991},"geometry":{"x":174201.98000000138,"y":2548610.0299999993}},{"attributes":{"ID":246996,"DIS_CODE":0,"TOWNNAME":"永康區","LI":"崑山里","LIN":"34鄰","STREET":"大仁街","SECT":" ","MAREA":" ","LANE":"１４３巷","ALLEY":" ","HOUSE_NO":"４２號","E_COORD97":173788.06,"N_COORD97":2544939.7200000002,"ADDRESS":"大仁街１４３巷４２號","OBJECTID":246992},"geometry":{"x":173788.06000000145,"y":2544939.7200000025}},{"attributes":{"ID":246997,"DIS_CODE":0,"TOWNNAME":"永康區","LI":"崑山里","LIN":"34鄰","STREET":"大仁街","SECT":" ","MAREA":" ","LANE":"１４３巷","ALLEY":" ","HOUSE_NO":"１７號","E_COORD97":173817.14000000001,"N_COORD97":2544907.8799999999,"ADDRESS":"大仁街１４３巷１７號","OBJECTID":246993},"geometry":{"x":173817.1400000006,"y":2544907.879999999}},{"attributes":{"ID":246998,"DIS_CODE":0,"TOWNNAME":"永康區","LI":"崑山里","LIN":"34鄰","STREET":"大仁街","SECT":" ","MAREA":" ","LANE":"１４３巷","ALLEY":" ","HOUSE_NO":"１５號","E_COORD97":173821,"N_COORD97":2544906.8799999999,"ADDRESS":"大仁街１４３巷１５號","OBJECTID":246994},"geometry":{"x":173821.00000000186,"y":2544906.8800000008}},{"attributes":{"ID":246999,"DIS_CODE":0,"TOWNNAME":"永康區","LI":"崑山里","LIN":"34鄰","STREET":"大仁街","SECT":" ","MAREA":" ","LANE":"１４３巷","ALLEY":" ","HOUSE_NO":"６號","E_COORD97":173861.09,"N_COORD97":2544913.6499999999,"ADDRESS":"大仁街１４３巷６號","OBJECTID":246995},"geometry":{"x":173861.09000000078,"y":2544913.6500000004}},{"attributes":{"ID":247000,"DIS_CODE":0,"TOWNNAME":"永康區","LI":"崑山里","LIN":"34鄰","STREET":"大仁街","SECT":" ","MAREA":" ","LANE":"１４３巷","ALLEY":" ","HOUSE_NO":"２６號","E_COORD97":173816.03,"N_COORD97":2544926.1200000001,"ADDRESS":"大仁街１４３巷２６號","OBJECTID":246996},"geometry":{"x":173816.03000000212,"y":2544926.1199999992}},{"attributes":{"ID":247001,"DIS_CODE":0,"TOWNNAME":"永康區","LI":"崑山里","LIN":"34鄰","STREET":"大仁街","SECT":" ","MAREA":" ","LANE":"１４３巷","ALLEY":" ","HOUSE_NO":"３６號","E_COORD97":173800.06,"N_COORD97":2544935.4700000002,"ADDRESS":"大仁街１４３巷３６號","OBJECTID":246997},"geometry":{"x":173800.06000000052,"y":2544935.4700000025}},{"attributes":{"ID":247002,"DIS_CODE":0,"TOWNNAME":"永康區","LI":"崑山里","LIN":"34鄰","STREET":"大仁街","SECT":" ","MAREA":" ","LANE":"１４３巷","ALLEY":" ","HOUSE_NO":"１６號","E_COORD97":173832.54000000001,"N_COORD97":2544920.3700000001,"ADDRESS":"大仁街１４３巷１６號","OBJECTID":246998},"geometry":{"x":173832.53999999911,"y":2544920.370000001}},{"attributes":{"ID":247003,"DIS_CODE":0,"TOWNNAME":"南區","LI":"新昌里","LIN":"14鄰","STREET":"府緯街","SECT":" ","MAREA":" ","LANE":" ","ALLEY":" ","HOUSE_NO":"１３２號五樓之３","E_COORD97":167547.5,"N_COORD97":2542734.75,"ADDRESS":"府緯街１３２號五樓之３","OBJECTID":246999},"geometry":{"x":167547.50000000093,"y":2542734.7500000019}},{"attributes":{"ID":247004,"DIS_CODE":0,"TOWNNAME":"南區","LI":"新昌里","LIN":"14鄰","STREET":"府緯街","SECT":" ","MAREA":" ","LANE":" ","ALLEY":" ","HOUSE_NO":"１３２號五樓之４","E_COORD97":167547.5,"N_COORD97":2542734.75,"ADDRESS":"府緯街１３２號五樓之４","OBJECTID":247000},"geometry":{"x":167547.50000000093,"y":2542734.7500000019}}]}