{"displayFieldName":"TOWNNAME","fieldAliases":{"ID":"ID","DIS_CODE":"DIS_CODE","TOWNNAME":"TOWNNAME","LI":"LI","LIN":"LIN","STREET":"STREET","SECT":"SECT","MAREA":"MAREA","LANE":"LANE","ALLEY":"ALLEY","HOUSE_NO":"HOUSE_NO","E_COORD97":"E_COORD97","N_COORD97":"N_COORD97","ADDRESS":"ADDRESS","OBJECTID":"OBJECTID"},"geometryType":"esriGeometryPoint","spatialReference":{"wkid":102443,"latestWkid":3826},"fields":[{"name":"ID","type":"esriFieldTypeDouble","alias":"ID"},{"name":"DIS_CODE","type":"esriFieldTypeInteger","alias":"DIS_CODE"},{"name":"TOWNNAME","type":"esriFieldTypeString","alias":"TOWNNAME","length":8},{"name":"LI","type":"esriFieldTypeString","alias":"LI","length":8},{"name":"LIN","type":"esriFieldTypeString","alias":"LIN","length":12},{"name":"STREET","type":"esriFieldTypeString","alias":"STREET","length":20},{"name":"SECT","type":"esriFieldTypeString","alias":"SECT","length":8},{"name":"MAREA","type":"esriFieldTypeString","alias":"MAREA","length":12},{"name":"LANE","type":"esriFieldTypeString","alias":"LANE","length":10},{"name":"ALLEY","type":"esriFieldTypeString","alias":"ALLEY","length":10},{"name":"HOUSE_NO","type":"esriFieldTypeString","alias":"HOUSE_NO","length":20},{"name":"E_COORD97","type":"esriFieldTypeDouble","alias":"E_COORD97"},{"name":"N_COORD97","type":"esriFieldTypeDouble","alias":"N_COORD97"},{"name":"ADDRESS","type":"esriFieldTypeString","alias":"ADDRESS","length":50},{"name":"OBJECTID","type":"esriFieldTypeOID","alias":"OBJECTID"}],"features":[{"attributes":{"ID":594828,"DIS_CODE":0,"TOWNNAME":"安平區","LI":"育平里","LIN":"11鄰","STREET":"育平五街","SECT":" ","MAREA":" ","LANE":" ","ALLEY":" ","HOUSE_NO":"７７號十樓之３","E_COORD97":164649.44,"N_COORD97":2543485.8900000001,"ADDRESS":"育平五街７７號十樓之３","OBJECTID":594801},"geometry":{"x":164649.44000000134,"y":2543485.8900000006}},{"attributes":{"ID":594829,"DIS_CODE":0,"TOWNNAME":"安平區","LI":"育平里","LIN":"11鄰","STREET":"育平五街","SECT":" ","MAREA":" ","LANE":" ","ALLEY":" ","HOUSE_NO":"７７號十樓之４","E_COORD97":164649.44,"N_COORD97":2543485.8900000001,"ADDRESS":"育平五街７７號十樓之４","OBJECTID":594802},"geometry":{"x":164649.44000000134,"y":2543485.8900000006}},{"attributes":{"ID":594830,"DIS_CODE":0,"TOWNNAME":"安平區","LI":"育平里","LIN":"11鄰","STREET":"育平五街","SECT":" ","MAREA":" ","LANE":" ","ALLEY":" ","HOUSE_NO":"７７號十樓之５","E_COORD97":164649.44,"N_COORD97":2543485.8900000001,"ADDRESS":"育平五街７７號十樓之５","OBJECTID":594803},"geometry":{"x":164649.44000000134,"y":2543485.8900000006}},{"attributes":{"ID":594831,"DIS_CODE":0,"TOWNNAME":"安平區","LI":"育平里","LIN":"11鄰","STREET":"育平五街","SECT":" ","MAREA":" ","LANE":" ","ALLEY":" ","HOUSE_NO":"７７號十樓之６","E_COORD97":164649.44,"N_COORD97":2543485.8900000001,"ADDRESS":"育平五街７７號十樓之６","OBJECTID":594804},"geometry":{"x":164649.44000000134,"y":2543485.8900000006}},{"attributes":{"ID":594832,"DIS_CODE":0,"TOWNNAME":"安平區","LI":"育平里","LIN":"11鄰","STREET":"育平五街","SECT":" ","MAREA":" ","LANE":" ","ALLEY":" ","HOUSE_NO":"７７號十樓之７","E_COORD97":164649.44,"N_COORD97":2543485.8900000001,"ADDRESS":"育平五街７７號十樓之７","OBJECTID":594805},"geometry":{"x":164649.44000000134,"y":2543485.8900000006}},{"attributes":{"ID":594833,"DIS_CODE":0,"TOWNNAME":"安平區","LI":"育平里","LIN":"11鄰","STREET":"育平五街","SECT":" ","MAREA":" ","LANE":" ","ALLEY":" ","HOUSE_NO":"７７號十樓之８","E_COORD97":164649.44,"N_COORD97":2543485.8900000001,"ADDRESS":"育平五街７７號十樓之８","OBJECTID":594806},"geometry":{"x":164649.44000000134,"y":2543485.8900000006}},{"attributes":{"ID":594834,"DIS_CODE":0,"TOWNNAME":"安平區","LI":"育平里","LIN":"11鄰","STREET":"育平五街","SECT":" ","MAREA":" ","LANE":" ","ALLEY":" ","HOUSE_NO":"７７號十樓之９","E_COORD97":164649.44,"N_COORD97":2543485.8900000001,"ADDRESS":"育平五街７７號十樓之９","OBJECTID":594807},"geometry":{"x":164649.44000000134,"y":2543485.8900000006}},{"attributes":{"ID":594835,"DIS_CODE":0,"TOWNNAME":"安平區","LI":"育平里","LIN":"11鄰","STREET":"育平五街","SECT":" ","MAREA":" ","LANE":" ","ALLEY":" ","HOUSE_NO":"７７號三樓之１","E_COORD97":164649.44,"N_COORD97":2543485.8900000001,"ADDRESS":"育平五街７７號三樓之１","OBJECTID":594808},"geometry":{"x":164649.44000000134,"y":2543485.8900000006}},{"attributes":{"ID":594836,"DIS_CODE":0,"TOWNNAME":"安平區","LI":"育平里","LIN":"11鄰","STREET":"育平五街","SECT":" ","MAREA":" ","LANE":" ","ALLEY":" ","HOUSE_NO":"７７號三樓之１０","E_COORD97":164649.44,"N_COORD97":2543485.8900000001,"ADDRESS":"育平五街７７號三樓之１０","OBJECTID":594809},"geometry":{"x":164649.44000000134,"y":2543485.8900000006}},{"attributes":{"ID":594837,"DIS_CODE":0,"TOWNNAME":"安平區","LI":"育平里","LIN":"11鄰","STREET":"育平五街","SECT":" ","MAREA":" ","LANE":" ","ALLEY":" ","HOUSE_NO":"７７號三樓之１１","E_COORD97":164649.44,"N_COORD97":2543485.8900000001,"ADDRESS":"育平五街７７號三樓之１１","OBJECTID":594810},"geometry":{"x":164649.44000000134,"y":2543485.8900000006}},{"attributes":{"ID":594838,"DIS_CODE":0,"TOWNNAME":"安平區","LI":"育平里","LIN":"11鄰","STREET":"育平五街","SECT":" ","MAREA":" ","LANE":" ","ALLEY":" ","HOUSE_NO":"７７號三樓之１２","E_COORD97":164649.44,"N_COORD97":2543485.8900000001,"ADDRESS":"育平五街７７號三樓之１２","OBJECTID":594811},"geometry":{"x":164649.44000000134,"y":2543485.8900000006}},{"attributes":{"ID":594839,"DIS_CODE":0,"TOWNNAME":"安平區","LI":"育平里","LIN":"11鄰","STREET":"育平五街","SECT":" ","MAREA":" ","LANE":" ","ALLEY":" ","HOUSE_NO":"７７號三樓之１３","E_COORD97":164649.44,"N_COORD97":2543485.8900000001,"ADDRESS":"育平五街７７號三樓之１３","OBJECTID":594812},"geometry":{"x":164649.44000000134,"y":2543485.8900000006}},{"attributes":{"ID":594840,"DIS_CODE":0,"TOWNNAME":"安平區","LI":"育平里","LIN":"11鄰","STREET":"育平五街","SECT":" ","MAREA":" ","LANE":" ","ALLEY":" ","HOUSE_NO":"７７號三樓之２","E_COORD97":164649.44,"N_COORD97":2543485.8900000001,"ADDRESS":"育平五街７７號三樓之２","OBJECTID":594813},"geometry":{"x":164649.44000000134,"y":2543485.8900000006}},{"attributes":{"ID":594841,"DIS_CODE":0,"TOWNNAME":"安平區","LI":"育平里","LIN":"11鄰","STREET":"育平五街","SECT":" ","MAREA":" ","LANE":" ","ALLEY":" ","HOUSE_NO":"７７號三樓之３","E_COORD97":164649.44,"N_COORD97":2543485.8900000001,"ADDRESS":"育平五街７７號三樓之３","OBJECTID":594814},"geometry":{"x":164649.44000000134,"y":2543485.8900000006}},{"attributes":{"ID":594842,"DIS_CODE":0,"TOWNNAME":"安平區","LI":"育平里","LIN":"11鄰","STREET":"育平五街","SECT":" ","MAREA":" ","LANE":" ","ALLEY":" ","HOUSE_NO":"７７號三樓之４","E_COORD97":164649.44,"N_COORD97":2543485.8900000001,"ADDRESS":"育平五街７７號三樓之４","OBJECTID":594815},"geometry":{"x":164649.44000000134,"y":2543485.8900000006}},{"attributes":{"ID":594843,"DIS_CODE":0,"TOWNNAME":"安平區","LI":"育平里","LIN":"11鄰","STREET":"育平五街","SECT":" ","MAREA":" ","LANE":" ","ALLEY":" ","HOUSE_NO":"７７號三樓之５","E_COORD97":164649.44,"N_COORD97":2543485.8900000001,"ADDRESS":"育平五街７７號三樓之５","OBJECTID":594816},"geometry":{"x":164649.44000000134,"y":2543485.8900000006}},{"attributes":{"ID":594844,"DIS_CODE":0,"TOWNNAME":"安平區","LI":"育平里","LIN":"11鄰","STREET":"育平五街","SECT":" ","MAREA":" ","LANE":" ","ALLEY":" ","HOUSE_NO":"７７號三樓之７","E_COORD97":164649.44,"N_COORD97":2543485.8900000001,"ADDRESS":"育平五街７７號三樓之７","OBJECTID":594817},"geometry":{"x":164649.44000000134,"y":2543485.8900000006}},{"attributes":{"ID":594845,"DIS_CODE":0,"TOWNNAME":"安平區","LI":"育平里","LIN":"11鄰","STREET":"育平五街","SECT":" ","MAREA":" ","LANE":" ","ALLEY":" ","HOUSE_NO":"７７號三樓之８","E_COORD97":164649.44,"N_COORD97":2543485.8900000001,"ADDRESS":"育平五街７７號三樓之８","OBJECTID":594818},"geometry":{"x":164649.44000000134,"y":2543485.8900000006}},{"attributes":{"ID":594846,"DIS_CODE":0,"TOWNNAME":"安平區","LI":"育平里","LIN":"11鄰","STREET":"育平五街","SECT":" ","MAREA":" ","LANE":" ","ALLEY":" ","HOUSE_NO":"７７號三樓之９","E_COORD97":164649.44,"N_COORD97":2543485.8900000001,"ADDRESS":"育平五街７７號三樓之９","OBJECTID":594819},"geometry":{"x":164649.44000000134,"y":2543485.8900000006}},{"attributes":{"ID":594847,"DIS_CODE":0,"TOWNNAME":"東區","LI":"中西里","LIN":"25鄰","STREET":"東寧路","SECT":" ","MAREA":" ","LANE":" ","ALLEY":" ","HOUSE_NO":"１２４號之１","E_COORD97":170237.45999999999,"N_COORD97":2543584.96,"ADDRESS":"東寧路１２４號之１","OBJECTID":594820},"geometry":{"x":170237.45999999903,"y":2543584.9600000046}},{"attributes":{"ID":594848,"DIS_CODE":0,"TOWNNAME":"安平區","LI":"育平里","LIN":"11鄰","STREET":"育平五街","SECT":" ","MAREA":" ","LANE":" ","ALLEY":" ","HOUSE_NO":"７７號五樓之１０","E_COORD97":164649.44,"N_COORD97":2543485.8900000001,"ADDRESS":"育平五街７７號五樓之１０","OBJECTID":594821},"geometry":{"x":164649.44000000134,"y":2543485.8900000006}},{"attributes":{"ID":594849,"DIS_CODE":0,"TOWNNAME":"安平區","LI":"育平里","LIN":"11鄰","STREET":"育平五街","SECT":" ","MAREA":" ","LANE":" ","ALLEY":" ","HOUSE_NO":"７７號五樓之１１","E_COORD97":164649.44,"N_COORD97":2543485.8900000001,"ADDRESS":"育平五街７７號五樓之１１","OBJECTID":594822},"geometry":{"x":164649.44000000134,"y":2543485.8900000006}},{"attributes":{"ID":594850,"DIS_CODE":0,"TOWNNAME":"安平區","LI":"育平里","LIN":"11鄰","STREET":"育平五街","SECT":" ","MAREA":" ","LANE":" ","ALLEY":" ","HOUSE_NO":"７７號五樓之１３","E_COORD97":164649.44,"N_COORD97":2543485.8900000001,"ADDRESS":"育平五街７７號五樓之１３","OBJECTID":594823},"geometry":{"x":164649.44000000134,"y":2543485.8900000006}},{"attributes":{"ID":594851,"DIS_CODE":0,"TOWNNAME":"安平區","LI":"育平里","LIN":"11鄰","STREET":"育平五街","SECT":" ","MAREA":" ","LANE":" ","ALLEY":" ","HOUSE_NO":"７７號五樓之２","E_COORD97":164649.44,"N_COORD97":2543485.8900000001,"ADDRESS":"育平五街７７號五樓之２","OBJECTID":594824},"geometry":{"x":164649.44000000134,"y":2543485.8900000006}},{"attributes":{"ID":594852,"DIS_CODE":0,"TOWNNAME":"安平區","LI":"育平里","LIN":"11鄰","STREET":"育平五街","SECT":" ","MAREA":" ","LANE":" ","ALLEY":" ","HOUSE_NO":"７７號五樓之３","E_COORD97":164649.44,"N_COORD97":2543485.8900000001,"ADDRESS":"育平五街７７號五樓之３","OBJECTID":594825},"geometry":{"x":164649.44000000134,"y":2543485.8900000006}},{"attributes":{"ID":594853,"DIS_CODE":0,"TOWNNAME":"安平區","LI":"育平里","LIN":"11鄰","STREET":"育平五街","SECT":" ","MAREA":" ","LANE":" ","ALLEY":" ","HOUSE_NO":"７７號五樓之４","E_COORD97":164649.44,"N_COORD97":2543485.8900000001,"ADDRESS":"育平五街７７號五樓之４","OBJECTID":594826},"geometry":{"x":164649.44000000134,"y":2543485.8900000006}},{"attributes":{"ID":594854,"DIS_CODE":0,"TOWNNAME":"安平區","LI":"育平里","LIN":"11鄰","STREET":"育平五街","SECT":" ","MAREA":" ","LANE":" ","ALLEY":" ","HOUSE_NO":"７７號五樓之５","E_COORD97":164649.44,"N_COORD97":2543485.8900000001,"ADDRESS":"育平五街７７號五樓之５","OBJECTID":594827},"geometry":{"x":164649.44000000134,"y":2543485.8900000006}},{"attributes":{"ID":594855,"DIS_CODE":0,"TOWNNAME":"安平區","LI":"育平里","LIN":"11鄰","STREET":"育平五街","SECT":" ","MAREA":" ","LANE":" ","ALLEY":" ","HOUSE_NO":"７７號五樓之６","E_COORD97":164649.44,"N_COORD97":2543485.8900000001,"ADDRESS":"育平五街７７號五樓之６","OBJECTID":594828},"geometry":{"x":164649.44000000134,"y":2543485.8900000006}},{"attributes":{"ID":594856,"DIS_CODE":0,"TOWNNAME":"安平區","LI":"育平里","LIN":"11鄰","STREET":"育平五街","SECT":" ","MAREA":" ","LANE":" ","ALLEY":" ","HOUSE_NO":"７７號五樓之７","E_COORD97":164649.44,"N_COORD97":2543485.8900000001,"ADDRESS":"育平五街７７號五樓之７","OBJECTID":594829},"geometry":{"x":164649.44000000134,"y":2543485.8900000006}},{"attributes":{"ID":594857,"DIS_CODE":0,"TOWNNAME":"安平區","LI":"育平里","LIN":"11鄰","STREET":"育平五街","SECT":" ","MAREA":" ","LANE":" ","ALLEY":" ","HOUSE_NO":"７７號五樓之８","E_COORD97":164649.44,"N_COORD97":2543485.8900000001,"ADDRESS":"育平五街７７號五樓之８","OBJECTID":594830},"geometry":{"x":164649.44000000134,"y":2543485.8900000006}},{"attributes":{"ID":594858,"DIS_CODE":0,"TOWNNAME":"安平區","LI":"育平里","LIN":"11鄰","STREET":"育平五街","SECT":" ","MAREA":" ","LANE":" ","ALLEY":" ","HOUSE_NO":"７７號五樓之９","E_COORD97":164649.44,"N_COORD97":2543485.8900000001,"ADDRESS":"育平五街７７號五樓之９","OBJECTID":594831},"geometry":{"x":164649.44000000134,"y":2543485.8900000006}},{"attributes":{"ID":594859,"DIS_CODE":0,"TOWNNAME":"安平區","LI":"育平里","LIN":"11鄰","STREET":"育平五街","SECT":" ","MAREA":" ","LANE":" ","ALLEY":" ","HOUSE_NO":"７７號六樓之１","E_COORD97":164649.44,"N_COORD97":2543485.8900000001,"ADDRESS":"育平五街７７號六樓之１","OBJECTID":594832},"geometry":{"x":164649.44000000134,"y":2543485.8900000006}},{"attributes":{"ID":594860,"DIS_CODE":0,"TOWNNAME":"安平區","LI":"育平里","LIN":"11鄰","STREET":"育平五街","SECT":" ","MAREA":" ","LANE":" ","ALLEY":" ","HOUSE_NO":"７７號六樓之１０","E_COORD97":164649.44,"N_COORD97":2543485.8900000001,"ADDRESS":"育平五街７７號六樓之１０","OBJECTID":594833},"geometry":{"x":164649.44000000134,"y":2543485.8900000006}},{"attributes":{"ID":594861,"DIS_CODE":0,"TOWNNAME":"安平區","LI":"育平里","LIN":"11鄰","STREET":"育平五街","SECT":" ","MAREA":" ","LANE":" ","ALLEY":" ","HOUSE_NO":"７７號六樓之１１","E_COORD97":164649.44,"N_COORD97":2543485.8900000001,"ADDRESS":"育平五街７７號六樓之１１","OBJECTID":594834},"geometry":{"x":164649.44000000134,"y":2543485.8900000006}},{"attributes":{"ID":594862,"DIS_CODE":0,"TOWNNAME":"安平區","LI":"育平里","LIN":"11鄰","STREET":"育平五街","SECT":" ","MAREA":" ","LANE":" ","ALLEY":" ","HOUSE_NO":"７７號六樓之１２","E_COORD97":164649.44,"N_COORD97":2543485.8900000001,"ADDRESS":"育平五街７７號六樓之１２","OBJECTID":594835},"geometry":{"x":164649.44000000134,"y":2543485.8900000006}},{"attributes":{"ID":594863,"DIS_CODE":0,"TOWNNAME":"安平區","LI":"育平里","LIN":"11鄰","STREET":"育平五街","SECT":" ","MAREA":" ","LANE":" ","ALLEY":" ","HOUSE_NO":"７７號六樓之１３","E_COORD97":164649.44,"N_COORD97":2543485.8900000001,"ADDRESS":"育平五街７７號六樓之１３","OBJECTID":594836},"geometry":{"x":164649.44000000134,"y":2543485.8900000006}},{"attributes":{"ID":594864,"DIS_CODE":0,"TOWNNAME":"安平區","LI":"育平里","LIN":"11鄰","STREET":"育平五街","SECT":" ","MAREA":" ","LANE":" ","ALLEY":" ","HOUSE_NO":"７７號六樓之２","E_COORD97":164649.44,"N_COORD97":2543485.8900000001,"ADDRESS":"育平五街７７號六樓之２","OBJECTID":594837},"geometry":{"x":164649.44000000134,"y":2543485.8900000006}},{"attributes":{"ID":594865,"DIS_CODE":0,"TOWNNAME":"東區","LI":"後甲里","LIN":"12鄰","STREET":"建東街","SECT":" ","MAREA":" ","LANE":" ","ALLEY":" ","HOUSE_NO":"１５號","E_COORD97":171781.12,"N_COORD97":2543309.4500000002,"ADDRESS":"建東街１５號","OBJECTID":594838},"geometry":{"x":171781.12000000104,"y":2543309.4500000011}},{"attributes":{"ID":594866,"DIS_CODE":0,"TOWNNAME":"安平區","LI":"育平里","LIN":"11鄰","STREET":"育平五街","SECT":" ","MAREA":" ","LANE":" ","ALLEY":" ","HOUSE_NO":"７７號六樓之３","E_COORD97":164649.44,"N_COORD97":2543485.8900000001,"ADDRESS":"育平五街７７號六樓之３","OBJECTID":594839},"geometry":{"x":164649.44000000134,"y":2543485.8900000006}},{"attributes":{"ID":594867,"DIS_CODE":0,"TOWNNAME":"安平區","LI":"育平里","LIN":"11鄰","STREET":"育平五街","SECT":" ","MAREA":" ","LANE":" ","ALLEY":" ","HOUSE_NO":"７７號六樓之４","E_COORD97":164649.44,"N_COORD97":2543485.8900000001,"ADDRESS":"育平五街７７號六樓之４","OBJECTID":594840},"geometry":{"x":164649.44000000134,"y":2543485.8900000006}},{"attributes":{"ID":594868,"DIS_CODE":0,"TOWNNAME":"安平區","LI":"育平里","LIN":"11鄰","STREET":"育平五街","SECT":" ","MAREA":" ","LANE":" ","ALLEY":" ","HOUSE_NO":"７７號六樓之５","E_COORD97":164649.44,"N_COORD97":2543485.8900000001,"ADDRESS":"育平五街７７號六樓之５","OBJECTID":594841},"geometry":{"x":164649.44000000134,"y":2543485.8900000006}},{"attributes":{"ID":594869,"DIS_CODE":0,"TOWNNAME":"安平區","LI":"育平里","LIN":"11鄰","STREET":"育平五街","SECT":" ","MAREA":" ","LANE":" ","ALLEY":" ","HOUSE_NO":"７７號六樓之６","E_COORD97":164649.44,"N_COORD97":2543485.8900000001,"ADDRESS":"育平五街７７號六樓之６","OBJECTID":594842},"geometry":{"x":164649.44000000134,"y":2543485.8900000006}},{"attributes":{"ID":594870,"DIS_CODE":0,"TOWNNAME":"安平區","LI":"育平里","LIN":"11鄰","STREET":"育平五街","SECT":" ","MAREA":" ","LANE":" ","ALLEY":" ","HOUSE_NO":"７７號六樓之７","E_COORD97":164649.44,"N_COORD97":2543485.8900000001,"ADDRESS":"育平五街７７號六樓之７","OBJECTID":594843},"geometry":{"x":164649.44000000134,"y":2543485.8900000006}},{"attributes":{"ID":594871,"DIS_CODE":0,"TOWNNAME":"安平區","LI":"育平里","LIN":"11鄰","STREET":"育平五街","SECT":" ","MAREA":" ","LANE":" ","ALLEY":" ","HOUSE_NO":"７７號六樓之８","E_COORD97":164649.44,"N_COORD97":2543485.8900000001,"ADDRESS":"育平五街７７號六樓之８","OBJECTID":594844},"geometry":{"x":164649.44000000134,"y":2543485.8900000006}},{"attributes":{"ID":594872,"DIS_CODE":0,"TOWNNAME":"安平區","LI":"育平里","LIN":"11鄰","STREET":"育平五街","SECT":" ","MAREA":" ","LANE":" ","ALLEY":" ","HOUSE_NO":"７７號六樓之９","E_COORD97":164649.44,"N_COORD97":2543485.8900000001,"ADDRESS":"育平五街７７號六樓之９","OBJECTID":594845},"geometry":{"x":164649.44000000134,"y":2543485.8900000006}},{"attributes":{"ID":594873,"DIS_CODE":0,"TOWNNAME":"安平區","LI":"育平里","LIN":"11鄰","STREET":"育平五街","SECT":" ","MAREA":" ","LANE":" ","ALLEY":" ","HOUSE_NO":"７７號四樓之１","E_COORD97":164649.44,"N_COORD97":2543485.8900000001,"ADDRESS":"育平五街７７號四樓之１","OBJECTID":594846},"geometry":{"x":164649.44000000134,"y":2543485.8900000006}},{"attributes":{"ID":594874,"DIS_CODE":0,"TOWNNAME":"安平區","LI":"育平里","LIN":"11鄰","STREET":"育平五街","SECT":" ","MAREA":" ","LANE":" ","ALLEY":" ","HOUSE_NO":"７７號四樓之１０","E_COORD97":164649.44,"N_COORD97":2543485.8900000001,"ADDRESS":"育平五街７７號四樓之１０","OBJECTID":594847},"geometry":{"x":164649.44000000134,"y":2543485.8900000006}},{"attributes":{"ID":594875,"DIS_CODE":0,"TOWNNAME":"安平區","LI":"育平里","LIN":"11鄰","STREET":"育平五街","SECT":" ","MAREA":" ","LANE":" ","ALLEY":" ","HOUSE_NO":"７７號四樓之１１","E_COORD97":164649.44,"N_COORD97":2543485.8900000001,"ADDRESS":"育平五街７７號四樓之１１","OBJECTID":594848},"geometry":{"x":164649.44000000134,"y":2543485.8900000006}},{"attributes":{"ID":594876,"DIS_CODE":0,"TOWNNAME":"安平區","LI":"育平里","LIN":"11鄰","STREET":"育平五街","SECT":" ","MAREA":" ","LANE":" ","ALLEY":" ","HOUSE_NO":"７７號四樓之１２","E_COORD97":164649.44,"N_COORD97":2543485.8900000001,"ADDRESS":"育平五街７７號四樓之１２","OBJECTID":594849},"geometry":{"x":164649.44000000134,"y":2543485.8900000006}},{"attributes":{"ID":594877,"DIS_CODE":0,"TOWNNAME":"安平區","LI":"育平里","LIN":"11鄰","STREET":"育平五街","SECT":" ","MAREA":" ","LANE":" ","ALLEY":" ","HOUSE_NO":"７７號四樓之１３","E_COORD97":164649.44,"N_COORD97":2543485.8900000001,"ADDRESS":"育平五街７７號四樓之１３","OBJECTID":594850},"geometry":{"x":164649.44000000134,"y":2543485.8900000006}},{"attributes":{"ID":594878,"DIS_CODE":0,"TOWNNAME":"佳里區","LI":"六安里","LIN":"11鄰","STREET":"佳北路","SECT":" ","MAREA":" ","LANE":" ","ALLEY":" ","HOUSE_NO":"８３號","E_COORD97":166118.57999999999,"N_COORD97":2563335.1000000001,"ADDRESS":"佳北路８３號","OBJECTID":594851},"geometry":{"x":166118.58000000007,"y":2563335.1000000015}},{"attributes":{"ID":594879,"DIS_CODE":0,"TOWNNAME":"安平區","LI":"育平里","LIN":"11鄰","STREET":"育平五街","SECT":" ","MAREA":" ","LANE":" ","ALLEY":" ","HOUSE_NO":"７７號四樓之１５","E_COORD97":164649.44,"N_COORD97":2543485.8900000001,"ADDRESS":"育平五街７７號四樓之１５","OBJECTID":594852},"geometry":{"x":164649.44000000134,"y":2543485.8900000006}},{"attributes":{"ID":594880,"DIS_CODE":0,"TOWNNAME":"安平區","LI":"育平里","LIN":"11鄰","STREET":"育平五街","SECT":" ","MAREA":" ","LANE":" ","ALLEY":" ","HOUSE_NO":"７７號四樓之２","E_COORD97":164649.44,"N_COORD97":2543485.8900000001,"ADDRESS":"育平五街７７號四樓之２","OBJECTID":594853},"geometry":{"x":164649.44000000134,"y":2543485.8900000006}},{"attributes":{"ID":594881,"DIS_CODE":0,"TOWNNAME":"安平區","LI":"育平里","LIN":"11鄰","STREET":"育平五街","SECT":" ","MAREA":" ","LANE":" ","ALLEY":" ","HOUSE_NO":"７７號四樓之３","E_COORD97":164649.44,"N_COORD97":2543485.8900000001,"ADDRESS":"育平五街７７號四樓之３","OBJECTID":594854},"geometry":{"x":164649.44000000134,"y":2543485.8900000006}},{"attributes":{"ID":594882,"DIS_CODE":0,"TOWNNAME":"安平區","LI":"育平里","LIN":"11鄰","STREET":"育平五街","SECT":" ","MAREA":" ","LANE":" ","ALLEY":" ","HOUSE_NO":"７７號四樓之４","E_COORD97":164649.44,"N_COORD97":2543485.8900000001,"ADDRESS":"育平五街７７號四樓之４","OBJECTID":594855},"geometry":{"x":164649.44000000134,"y":2543485.8900000006}},{"attributes":{"ID":594883,"DIS_CODE":0,"TOWNNAME":"安平區","LI":"育平里","LIN":"11鄰","STREET":"育平五街","SECT":" ","MAREA":" ","LANE":" ","ALLEY":" ","HOUSE_NO":"７７號四樓之５","E_COORD97":164649.44,"N_COORD97":2543485.8900000001,"ADDRESS":"育平五街７７號四樓之５","OBJECTID":594856},"geometry":{"x":164649.44000000134,"y":2543485.8900000006}},{"attributes":{"ID":594884,"DIS_CODE":0,"TOWNNAME":"安平區","LI":"平通里","LIN":"11鄰","STREET":"育平九街","SECT":" ","MAREA":" ","LANE":" ","ALLEY":" ","HOUSE_NO":"２４５號五樓之６","E_COORD97":164894.35000000001,"N_COORD97":2544007.5699999998,"ADDRESS":"育平九街２４５號五樓之６","OBJECTID":594857},"geometry":{"x":164894.34999999963,"y":2544007.5700000022}},{"attributes":{"ID":594885,"DIS_CODE":0,"TOWNNAME":"安平區","LI":"平通里","LIN":"11鄰","STREET":"育平九街","SECT":" ","MAREA":" ","LANE":" ","ALLEY":" ","HOUSE_NO":"２４５號五樓之７","E_COORD97":164894.35000000001,"N_COORD97":2544007.5699999998,"ADDRESS":"育平九街２４５號五樓之７","OBJECTID":594858},"geometry":{"x":164894.34999999963,"y":2544007.5700000022}},{"attributes":{"ID":594886,"DIS_CODE":0,"TOWNNAME":"安平區","LI":"平通里","LIN":"11鄰","STREET":"育平九街","SECT":" ","MAREA":" ","LANE":" ","ALLEY":" ","HOUSE_NO":"２４５號五樓之８","E_COORD97":164894.35000000001,"N_COORD97":2544007.5699999998,"ADDRESS":"育平九街２４５號五樓之８","OBJECTID":594859},"geometry":{"x":164894.34999999963,"y":2544007.5700000022}},{"attributes":{"ID":594887,"DIS_CODE":0,"TOWNNAME":"安平區","LI":"平通里","LIN":"11鄰","STREET":"育平九街","SECT":" ","MAREA":" ","LANE":" ","ALLEY":" ","HOUSE_NO":"２４５號六樓之１","E_COORD97":164894.35000000001,"N_COORD97":2544007.5699999998,"ADDRESS":"育平九街２４５號六樓之１","OBJECTID":594860},"geometry":{"x":164894.34999999963,"y":2544007.5700000022}},{"attributes":{"ID":594888,"DIS_CODE":0,"TOWNNAME":"安平區","LI":"平通里","LIN":"11鄰","STREET":"育平九街","SECT":" ","MAREA":" ","LANE":" ","ALLEY":" ","HOUSE_NO":"２４５號六樓之２","E_COORD97":164894.35000000001,"N_COORD97":2544007.5699999998,"ADDRESS":"育平九街２４５號六樓之２","OBJECTID":594861},"geometry":{"x":164894.34999999963,"y":2544007.5700000022}},{"attributes":{"ID":594889,"DIS_CODE":0,"TOWNNAME":"安平區","LI":"平通里","LIN":"11鄰","STREET":"育平九街","SECT":" ","MAREA":" ","LANE":" ","ALLEY":" ","HOUSE_NO":"２４５號六樓之３","E_COORD97":164894.35000000001,"N_COORD97":2544007.5699999998,"ADDRESS":"育平九街２４５號六樓之３","OBJECTID":594862},"geometry":{"x":164894.34999999963,"y":2544007.5700000022}},{"attributes":{"ID":594890,"DIS_CODE":0,"TOWNNAME":"安平區","LI":"平通里","LIN":"11鄰","STREET":"育平九街","SECT":" ","MAREA":" ","LANE":" ","ALLEY":" ","HOUSE_NO":"２４５號六樓之４","E_COORD97":164894.35000000001,"N_COORD97":2544007.5699999998,"ADDRESS":"育平九街２４５號六樓之４","OBJECTID":594863},"geometry":{"x":164894.34999999963,"y":2544007.5700000022}},{"attributes":{"ID":594891,"DIS_CODE":0,"TOWNNAME":"安平區","LI":"平通里","LIN":"11鄰","STREET":"育平九街","SECT":" ","MAREA":" ","LANE":" ","ALLEY":" ","HOUSE_NO":"２４５號六樓之５","E_COORD97":164894.35000000001,"N_COORD97":2544007.5699999998,"ADDRESS":"育平九街２４５號六樓之５","OBJECTID":594864},"geometry":{"x":164894.34999999963,"y":2544007.5700000022}},{"attributes":{"ID":594892,"DIS_CODE":0,"TOWNNAME":"安平區","LI":"平通里","LIN":"11鄰","STREET":"育平九街","SECT":" ","MAREA":" ","LANE":" ","ALLEY":" ","HOUSE_NO":"２４５號六樓之６","E_COORD97":164894.35000000001,"N_COORD97":2544007.5699999998,"ADDRESS":"育平九街２４５號六樓之６","OBJECTID":594865},"geometry":{"x":164894.34999999963,"y":2544007.5700000022}},{"attributes":{"ID":594893,"DIS_CODE":0,"TOWNNAME":"安平區","LI":"平通里","LIN":"11鄰","STREET":"育平九街","SECT":" ","MAREA":" ","LANE":" ","ALLEY":" ","HOUSE_NO":"２４５號六樓之７","E_COORD97":164894.35000000001,"N_COORD97":2544007.5699999998,"ADDRESS":"育平九街２４５號六樓之７","OBJECTID":594866},"geometry":{"x":164894.34999999963,"y":2544007.5700000022}},{"attributes":{"ID":594894,"DIS_CODE":0,"TOWNNAME":"安平區","LI":"平通里","LIN":"11鄰","STREET":"育平九街","SECT":" ","MAREA":" ","LANE":" ","ALLEY":" ","HOUSE_NO":"２４５號六樓之８","E_COORD97":164894.35000000001,"N_COORD97":2544007.5699999998,"ADDRESS":"育平九街２４５號六樓之８","OBJECTID":594867},"geometry":{"x":164894.34999999963,"y":2544007.5700000022}},{"attributes":{"ID":594895,"DIS_CODE":0,"TOWNNAME":"安平區","LI":"平通里","LIN":"11鄰","STREET":"育平九街","SECT":" ","MAREA":" ","LANE":" ","ALLEY":" ","HOUSE_NO":"２４５號四樓之１","E_COORD97":164894.35000000001,"N_COORD97":2544007.5699999998,"ADDRESS":"育平九街２４５號四樓之１","OBJECTID":594868},"geometry":{"x":164894.34999999963,"y":2544007.5700000022}},{"attributes":{"ID":594896,"DIS_CODE":0,"TOWNNAME":"東區","LI":"後甲里","LIN":"12鄰","STREET":"建東街","SECT":" ","MAREA":" ","LANE":" ","ALLEY":" ","HOUSE_NO":"１３號","E_COORD97":171780.06,"N_COORD97":2543303.8900000001,"ADDRESS":"建東街１３號","OBJECTID":594869},"geometry":{"x":171780.05999999959,"y":2543303.8900000025}},{"attributes":{"ID":594897,"DIS_CODE":0,"TOWNNAME":"東區","LI":"後甲里","LIN":"12鄰","STREET":"建東街","SECT":" ","MAREA":" ","LANE":" ","ALLEY":" ","HOUSE_NO":"４１號","E_COORD97":171768.92999999999,"N_COORD97":2543406.5,"ADDRESS":"建東街４１號","OBJECTID":594870},"geometry":{"x":171768.93000000063,"y":2543406.5}},{"attributes":{"ID":594898,"DIS_CODE":0,"TOWNNAME":"東區","LI":"後甲里","LIN":"10鄰","STREET":"建東街","SECT":" ","MAREA":" ","LANE":" ","ALLEY":" ","HOUSE_NO":"５３號","E_COORD97":171742.13,"N_COORD97":2543438.7000000002,"ADDRESS":"建東街５３號","OBJECTID":594871},"geometry":{"x":171742.13000000082,"y":2543438.6999999974}},{"attributes":{"ID":594899,"DIS_CODE":0,"TOWNNAME":"東區","LI":"後甲里","LIN":"10鄰","STREET":"建東街","SECT":" ","MAREA":" ","LANE":" ","ALLEY":" ","HOUSE_NO":"５５號","E_COORD97":171742.13,"N_COORD97":2543441.8799999999,"ADDRESS":"建東街５５號","OBJECTID":594872},"geometry":{"x":171742.13000000082,"y":2543441.8800000008}},{"attributes":{"ID":594900,"DIS_CODE":0,"TOWNNAME":"東區","LI":"後甲里","LIN":"10鄰","STREET":"建東街","SECT":" ","MAREA":" ","LANE":" ","ALLEY":" ","HOUSE_NO":"５７號","E_COORD97":171742.66,"N_COORD97":2543445.3199999998,"ADDRESS":"建東街５７號","OBJECTID":594873},"geometry":{"x":171742.66000000015,"y":2543445.3200000003}},{"attributes":{"ID":594901,"DIS_CODE":0,"TOWNNAME":"東區","LI":"後甲里","LIN":"10鄰","STREET":"建東街","SECT":" ","MAREA":" ","LANE":" ","ALLEY":" ","HOUSE_NO":"６１號","E_COORD97":171741.87,"N_COORD97":2543452.4700000002,"ADDRESS":"建東街６１號","OBJECTID":594874},"geometry":{"x":171741.86999999918,"y":2543452.4700000025}},{"attributes":{"ID":594902,"DIS_CODE":0,"TOWNNAME":"東區","LI":"後甲里","LIN":"10鄰","STREET":"建東街","SECT":" ","MAREA":" ","LANE":" ","ALLEY":" ","HOUSE_NO":"６９號","E_COORD97":171742,"N_COORD97":2543467.5299999998,"ADDRESS":"建東街６９號","OBJECTID":594875},"geometry":{"x":171742,"y":2543467.5300000031}},{"attributes":{"ID":594903,"DIS_CODE":0,"TOWNNAME":"東區","LI":"後甲里","LIN":"10鄰","STREET":"建東街","SECT":" ","MAREA":" ","LANE":" ","ALLEY":" ","HOUSE_NO":"７１號","E_COORD97":171741.87,"N_COORD97":2543470.2000000002,"ADDRESS":"建東街７１號","OBJECTID":594876},"geometry":{"x":171741.86999999918,"y":2543470.2000000011}},{"attributes":{"ID":594904,"DIS_CODE":0,"TOWNNAME":"東區","LI":"後甲里","LIN":"10鄰","STREET":"建東街","SECT":" ","MAREA":" ","LANE":" ","ALLEY":" ","HOUSE_NO":"７２號","E_COORD97":171759.62,"N_COORD97":2543470.9900000002,"ADDRESS":"建東街７２號","OBJECTID":594877},"geometry":{"x":171759.62000000104,"y":2543470.9900000002}},{"attributes":{"ID":594905,"DIS_CODE":0,"TOWNNAME":"東區","LI":"後甲里","LIN":"10鄰","STREET":"建東街","SECT":" ","MAREA":" ","LANE":" ","ALLEY":" ","HOUSE_NO":"７７號","E_COORD97":171741.34,"N_COORD97":2543484.23,"ADDRESS":"建東街７７號","OBJECTID":594878},"geometry":{"x":171741.33999999985,"y":2543484.2300000042}},{"attributes":{"ID":594906,"DIS_CODE":0,"TOWNNAME":"安平區","LI":"平通里","LIN":"11鄰","STREET":"育平九街","SECT":" ","MAREA":" ","LANE":" ","ALLEY":" ","HOUSE_NO":"２４５號四樓之２","E_COORD97":164894.35000000001,"N_COORD97":2544007.5699999998,"ADDRESS":"育平九街２４５號四樓之２","OBJECTID":594879},"geometry":{"x":164894.34999999963,"y":2544007.5700000022}},{"attributes":{"ID":594907,"DIS_CODE":0,"TOWNNAME":"安平區","LI":"平通里","LIN":"11鄰","STREET":"育平九街","SECT":" ","MAREA":" ","LANE":" ","ALLEY":" ","HOUSE_NO":"２４５號四樓之３","E_COORD97":164894.35000000001,"N_COORD97":2544007.5699999998,"ADDRESS":"育平九街２４５號四樓之３","OBJECTID":594880},"geometry":{"x":164894.34999999963,"y":2544007.5700000022}},{"attributes":{"ID":594908,"DIS_CODE":0,"TOWNNAME":"東區","LI":"後甲里","LIN":"18鄰","STREET":"建東街","SECT":" ","MAREA":" ","LANE":" ","ALLEY":" ","HOUSE_NO":"４４號","E_COORD97":171789.41,"N_COORD97":2543401.8900000001,"ADDRESS":"建東街４４號","OBJECTID":594881},"geometry":{"x":171789.41000000108,"y":2543401.8900000043}},{"attributes":{"ID":594909,"DIS_CODE":0,"TOWNNAME":"東區","LI":"後甲里","LIN":"18鄰","STREET":"建東街","SECT":" ","MAREA":" ","LANE":" ","ALLEY":" ","HOUSE_NO":"４６號","E_COORD97":171788.47,"N_COORD97":2543406.2999999998,"ADDRESS":"建東街４６號","OBJECTID":594882},"geometry":{"x":171788.4700000016,"y":2543406.3000000026}},{"attributes":{"ID":594910,"DIS_CODE":0,"TOWNNAME":"安平區","LI":"平通里","LIN":"11鄰","STREET":"育平九街","SECT":" ","MAREA":" ","LANE":" ","ALLEY":" ","HOUSE_NO":"２４５號四樓之４","E_COORD97":164894.35000000001,"N_COORD97":2544007.5699999998,"ADDRESS":"育平九街２４５號四樓之４","OBJECTID":594883},"geometry":{"x":164894.34999999963,"y":2544007.5700000022}},{"attributes":{"ID":594911,"DIS_CODE":0,"TOWNNAME":"安平區","LI":"平通里","LIN":"11鄰","STREET":"育平九街","SECT":" ","MAREA":" ","LANE":" ","ALLEY":" ","HOUSE_NO":"２４５號四樓之５","E_COORD97":164894.35000000001,"N_COORD97":2544007.5699999998,"ADDRESS":"育平九街２４５號四樓之５","OBJECTID":594884},"geometry":{"x":164894.34999999963,"y":2544007.5700000022}},{"attributes":{"ID":594912,"DIS_CODE":0,"TOWNNAME":"安平區","LI":"平通里","LIN":"11鄰","STREET":"育平九街","SECT":" ","MAREA":" ","LANE":" ","ALLEY":" ","HOUSE_NO":"２４５號四樓之６","E_COORD97":164894.35000000001,"N_COORD97":2544007.5699999998,"ADDRESS":"育平九街２４５號四樓之６","OBJECTID":594885},"geometry":{"x":164894.34999999963,"y":2544007.5700000022}},{"attributes":{"ID":594913,"DIS_CODE":0,"TOWNNAME":"安平區","LI":"平通里","LIN":"11鄰","STREET":"育平九街","SECT":" ","MAREA":" ","LANE":" ","ALLEY":" ","HOUSE_NO":"２４５號七樓之３","E_COORD97":164894.35000000001,"N_COORD97":2544007.5699999998,"ADDRESS":"育平九街２４５號七樓之３","OBJECTID":594886},"geometry":{"x":164894.34999999963,"y":2544007.5700000022}},{"attributes":{"ID":594914,"DIS_CODE":0,"TOWNNAME":"安平區","LI":"平通里","LIN":"11鄰","STREET":"育平九街","SECT":" ","MAREA":" ","LANE":" ","ALLEY":" ","HOUSE_NO":"２４５號七樓之４","E_COORD97":164894.35000000001,"N_COORD97":2544007.5699999998,"ADDRESS":"育平九街２４５號七樓之４","OBJECTID":594887},"geometry":{"x":164894.34999999963,"y":2544007.5700000022}},{"attributes":{"ID":594915,"DIS_CODE":0,"TOWNNAME":"安平區","LI":"平通里","LIN":"11鄰","STREET":"育平九街","SECT":" ","MAREA":" ","LANE":" ","ALLEY":" ","HOUSE_NO":"２４５號七樓之５","E_COORD97":164894.35000000001,"N_COORD97":2544007.5699999998,"ADDRESS":"育平九街２４５號七樓之５","OBJECTID":594888},"geometry":{"x":164894.34999999963,"y":2544007.5700000022}},{"attributes":{"ID":594916,"DIS_CODE":0,"TOWNNAME":"安平區","LI":"平通里","LIN":"11鄰","STREET":"育平九街","SECT":" ","MAREA":" ","LANE":" ","ALLEY":" ","HOUSE_NO":"２４５號七樓之７","E_COORD97":164894.35000000001,"N_COORD97":2544007.5699999998,"ADDRESS":"育平九街２４５號七樓之７","OBJECTID":594889},"geometry":{"x":164894.34999999963,"y":2544007.5700000022}},{"attributes":{"ID":594917,"DIS_CODE":0,"TOWNNAME":"安平區","LI":"平通里","LIN":"11鄰","STREET":"育平九街","SECT":" ","MAREA":" ","LANE":" ","ALLEY":" ","HOUSE_NO":"２４５號七樓之８","E_COORD97":164894.35000000001,"N_COORD97":2544007.5699999998,"ADDRESS":"育平九街２４５號七樓之８","OBJECTID":594890},"geometry":{"x":164894.34999999963,"y":2544007.5700000022}},{"attributes":{"ID":594918,"DIS_CODE":0,"TOWNNAME":"安平區","LI":"平通里","LIN":"11鄰","STREET":"育平九街","SECT":" ","MAREA":" ","LANE":" ","ALLEY":" ","HOUSE_NO":"２４５號二樓之１","E_COORD97":164894.35000000001,"N_COORD97":2544007.5699999998,"ADDRESS":"育平九街２４５號二樓之１","OBJECTID":594891},"geometry":{"x":164894.34999999963,"y":2544007.5700000022}},{"attributes":{"ID":594919,"DIS_CODE":0,"TOWNNAME":"安平區","LI":"平通里","LIN":"11鄰","STREET":"育平九街","SECT":" ","MAREA":" ","LANE":" ","ALLEY":" ","HOUSE_NO":"２４５號二樓之２","E_COORD97":164894.35000000001,"N_COORD97":2544007.5699999998,"ADDRESS":"育平九街２４５號二樓之２","OBJECTID":594892},"geometry":{"x":164894.34999999963,"y":2544007.5700000022}},{"attributes":{"ID":594920,"DIS_CODE":0,"TOWNNAME":"安平區","LI":"平通里","LIN":"11鄰","STREET":"育平九街","SECT":" ","MAREA":" ","LANE":" ","ALLEY":" ","HOUSE_NO":"２４５號八樓之１","E_COORD97":164894.35000000001,"N_COORD97":2544007.5699999998,"ADDRESS":"育平九街２４５號八樓之１","OBJECTID":594893},"geometry":{"x":164894.34999999963,"y":2544007.5700000022}},{"attributes":{"ID":594921,"DIS_CODE":0,"TOWNNAME":"安平區","LI":"平通里","LIN":"11鄰","STREET":"育平九街","SECT":" ","MAREA":" ","LANE":" ","ALLEY":" ","HOUSE_NO":"２４５號八樓之４","E_COORD97":164894.35000000001,"N_COORD97":2544007.5699999998,"ADDRESS":"育平九街２４５號八樓之４","OBJECTID":594894},"geometry":{"x":164894.34999999963,"y":2544007.5700000022}},{"attributes":{"ID":594922,"DIS_CODE":0,"TOWNNAME":"安平區","LI":"平通里","LIN":"11鄰","STREET":"育平九街","SECT":" ","MAREA":" ","LANE":" ","ALLEY":" ","HOUSE_NO":"２４５號八樓之５","E_COORD97":164894.35000000001,"N_COORD97":2544007.5699999998,"ADDRESS":"育平九街２４５號八樓之５","OBJECTID":594895},"geometry":{"x":164894.34999999963,"y":2544007.5700000022}},{"attributes":{"ID":594923,"DIS_CODE":0,"TOWNNAME":"安平區","LI":"平通里","LIN":"11鄰","STREET":"育平九街","SECT":" ","MAREA":" ","LANE":" ","ALLEY":" ","HOUSE_NO":"２４５號八樓之６","E_COORD97":164894.35000000001,"N_COORD97":2544007.5699999998,"ADDRESS":"育平九街２４５號八樓之６","OBJECTID":594896},"geometry":{"x":164894.34999999963,"y":2544007.5700000022}},{"attributes":{"ID":594924,"DIS_CODE":0,"TOWNNAME":"安平區","LI":"平通里","LIN":"11鄰","STREET":"育平九街","SECT":" ","MAREA":" ","LANE":" ","ALLEY":" ","HOUSE_NO":"２４５號五樓之４","E_COORD97":164894.35000000001,"N_COORD97":2544007.5699999998,"ADDRESS":"育平九街２４５號五樓之４","OBJECTID":594897},"geometry":{"x":164894.34999999963,"y":2544007.5700000022}},{"attributes":{"ID":594925,"DIS_CODE":0,"TOWNNAME":"安平區","LI":"平通里","LIN":"11鄰","STREET":"育平九街","SECT":" ","MAREA":" ","LANE":" ","ALLEY":" ","HOUSE_NO":"２４５號五樓之５","E_COORD97":164894.35000000001,"N_COORD97":2544007.5699999998,"ADDRESS":"育平九街２４５號五樓之５","OBJECTID":594898},"geometry":{"x":164894.34999999963,"y":2544007.5700000022}},{"attributes":{"ID":594926,"DIS_CODE":0,"TOWNNAME":"佳里區","LI":"六安里","LIN":"11鄰","STREET":"佳北路","SECT":" ","MAREA":" ","LANE":" ","ALLEY":" ","HOUSE_NO":"８５號","E_COORD97":166114.95000000001,"N_COORD97":2563338.8300000001,"ADDRESS":"佳北路８５號","OBJECTID":594899},"geometry":{"x":166114.95000000019,"y":2563338.8300000001}},{"attributes":{"ID":594927,"DIS_CODE":0,"TOWNNAME":"東區","LI":"小東里","LIN":"7鄰","STREET":"光明街","SECT":" ","MAREA":" ","LANE":" ","ALLEY":" ","HOUSE_NO":"１８１號","E_COORD97":170929.32999999999,"N_COORD97":2544142.3799999999,"ADDRESS":"光明街１８１號","OBJECTID":594900},"geometry":{"x":170929.33000000101,"y":2544142.3799999971}},{"attributes":{"ID":594928,"DIS_CODE":0,"TOWNNAME":"東區","LI":"東智里","LIN":"10鄰","STREET":"崇德路","SECT":" ","MAREA":" ","LANE":" ","ALLEY":" ","HOUSE_NO":"９１４號","E_COORD97":170771.98000000001,"N_COORD97":2540180.7400000002,"ADDRESS":"崇德路９１４號","OBJECTID":594901},"geometry":{"x":170771.98000000231,"y":2540180.7400000002}},{"attributes":{"ID":594929,"DIS_CODE":0,"TOWNNAME":"東區","LI":"東智里","LIN":"10鄰","STREET":"崇德路","SECT":" ","MAREA":" ","LANE":" ","ALLEY":" ","HOUSE_NO":"９１６號","E_COORD97":170772.25,"N_COORD97":2540185.2000000002,"ADDRESS":"崇德路９１６號","OBJECTID":594902},"geometry":{"x":170772.25,"y":2540185.2000000011}},{"attributes":{"ID":594930,"DIS_CODE":0,"TOWNNAME":"東區","LI":"東智里","LIN":"10鄰","STREET":"崇德路","SECT":" ","MAREA":" ","LANE":" ","ALLEY":" ","HOUSE_NO":"９１８號","E_COORD97":170771.84,"N_COORD97":2540189.3900000001,"ADDRESS":"崇德路９１８號","OBJECTID":594903},"geometry":{"x":170771.83999999985,"y":2540189.3900000025}},{"attributes":{"ID":594931,"DIS_CODE":0,"TOWNNAME":"東區","LI":"東智里","LIN":"10鄰","STREET":"崇德路","SECT":" ","MAREA":" ","LANE":" ","ALLEY":" ","HOUSE_NO":"９２０號","E_COORD97":170771.70000000001,"N_COORD97":2540194.9399999999,"ADDRESS":"崇德路９２０號","OBJECTID":594904},"geometry":{"x":170771.70000000019,"y":2540194.9399999995}},{"attributes":{"ID":594932,"DIS_CODE":0,"TOWNNAME":"東區","LI":"東智里","LIN":"10鄰","STREET":"崇德路","SECT":" ","MAREA":" ","LANE":" ","ALLEY":" ","HOUSE_NO":"９２２號","E_COORD97":170771.98000000001,"N_COORD97":2540199.5299999998,"ADDRESS":"崇德路９２２號","OBJECTID":594905},"geometry":{"x":170771.98000000231,"y":2540199.5300000012}},{"attributes":{"ID":594933,"DIS_CODE":0,"TOWNNAME":"東區","LI":"東智里","LIN":"10鄰","STREET":"崇德路","SECT":" ","MAREA":" ","LANE":" ","ALLEY":" ","HOUSE_NO":"９２４號","E_COORD97":170771.84,"N_COORD97":2540203.7200000002,"ADDRESS":"崇德路９２４號","OBJECTID":594906},"geometry":{"x":170771.83999999985,"y":2540203.7200000025}},{"attributes":{"ID":594934,"DIS_CODE":0,"TOWNNAME":"東區","LI":"東智里","LIN":"10鄰","STREET":"崇德路","SECT":" ","MAREA":" ","LANE":" ","ALLEY":" ","HOUSE_NO":"９２６號","E_COORD97":170772.10999999999,"N_COORD97":2540208.1800000002,"ADDRESS":"崇德路９２６號","OBJECTID":594907},"geometry":{"x":170772.11000000034,"y":2540208.1799999997}},{"attributes":{"ID":594935,"DIS_CODE":0,"TOWNNAME":"東區","LI":"東智里","LIN":"10鄰","STREET":"崇德路","SECT":" ","MAREA":" ","LANE":" ","ALLEY":" ","HOUSE_NO":"９２８號","E_COORD97":170769.13,"N_COORD97":2540168.5800000001,"ADDRESS":"崇德路９２８號","OBJECTID":594908},"geometry":{"x":170769.13000000082,"y":2540168.5800000001}},{"attributes":{"ID":594936,"DIS_CODE":0,"TOWNNAME":"東區","LI":"莊敬里","LIN":"11鄰","STREET":"中華東路","SECT":"一段","MAREA":" ","LANE":" ","ALLEY":" ","HOUSE_NO":"２２號","E_COORD97":171507.59,"N_COORD97":2544187.3900000001,"ADDRESS":"中華東路一段２２號","OBJECTID":594909},"geometry":{"x":171507.58999999985,"y":2544187.3900000006}},{"attributes":{"ID":594937,"DIS_CODE":0,"TOWNNAME":"東區","LI":"莊敬里","LIN":"11鄰","STREET":"中華東路","SECT":"一段","MAREA":" ","LANE":" ","ALLEY":" ","HOUSE_NO":"２４號","E_COORD97":171506.75,"N_COORD97":2544157.5899999999,"ADDRESS":"中華東路一段２４號","OBJECTID":594910},"geometry":{"x":171506.75,"y":2544157.5899999999}},{"attributes":{"ID":594938,"DIS_CODE":0,"TOWNNAME":"東區","LI":"莊敬里","LIN":"11鄰","STREET":"中華東路","SECT":"一段","MAREA":" ","LANE":" ","ALLEY":" ","HOUSE_NO":"２６號","E_COORD97":171496.62,"N_COORD97":2544147.3900000001,"ADDRESS":"中華東路一段２６號","OBJECTID":594911},"geometry":{"x":171496.62000000104,"y":2544147.3900000006}},{"attributes":{"ID":594939,"DIS_CODE":0,"TOWNNAME":"北區","LI":"安民里","LIN":"11鄰","STREET":"海成街","SECT":" ","MAREA":" ","LANE":" ","ALLEY":" ","HOUSE_NO":"１７號七樓之１","E_COORD97":167978.56,"N_COORD97":2544620.3199999998,"ADDRESS":"海成街１７號七樓之１","OBJECTID":594912},"geometry":{"x":167978.56000000145,"y":2544620.3200000022}},{"attributes":{"ID":594940,"DIS_CODE":0,"TOWNNAME":"北區","LI":"安民里","LIN":"11鄰","STREET":"海成街","SECT":" ","MAREA":" ","LANE":" ","ALLEY":" ","HOUSE_NO":"１７號五樓之１","E_COORD97":167978.56,"N_COORD97":2544620.3199999998,"ADDRESS":"海成街１７號五樓之１","OBJECTID":594913},"geometry":{"x":167978.56000000145,"y":2544620.3200000022}},{"attributes":{"ID":594941,"DIS_CODE":0,"TOWNNAME":"北區","LI":"安民里","LIN":"11鄰","STREET":"海成街","SECT":" ","MAREA":" ","LANE":" ","ALLEY":" ","HOUSE_NO":"１７號七樓之２","E_COORD97":167978.56,"N_COORD97":2544620.3199999998,"ADDRESS":"海成街１７號七樓之２","OBJECTID":594914},"geometry":{"x":167978.56000000145,"y":2544620.3200000022}},{"attributes":{"ID":594942,"DIS_CODE":0,"TOWNNAME":"東區","LI":"崇善里","LIN":"4鄰","STREET":"崇善路","SECT":" ","MAREA":" ","LANE":" ","ALLEY":" ","HOUSE_NO":"４３３號","E_COORD97":170910.54000000001,"N_COORD97":2541875.3999999999,"ADDRESS":"崇善路４３３號","OBJECTID":594915},"geometry":{"x":170910.54000000097,"y":2541875.4000000004}},{"attributes":{"ID":594943,"DIS_CODE":0,"TOWNNAME":"東區","LI":"大智里","LIN":"23鄰","STREET":"文東街","SECT":" ","MAREA":" ","LANE":" ","ALLEY":" ","HOUSE_NO":"４３號","E_COORD97":171295.72,"N_COORD97":2540184.5899999999,"ADDRESS":"文東街４３號","OBJECTID":594916},"geometry":{"x":171295.72000000067,"y":2540184.5899999999}},{"attributes":{"ID":594944,"DIS_CODE":0,"TOWNNAME":"東區","LI":"崇善里","LIN":"23鄰","STREET":"崇善十二街","SECT":" ","MAREA":" ","LANE":" ","ALLEY":" ","HOUSE_NO":"４１號","E_COORD97":171263.82000000001,"N_COORD97":2541117.8500000001,"ADDRESS":"崇善十二街４１號","OBJECTID":594917},"geometry":{"x":171263.8200000003,"y":2541117.8499999996}},{"attributes":{"ID":594945,"DIS_CODE":0,"TOWNNAME":"東區","LI":"崇善里","LIN":"23鄰","STREET":"崇善十二街","SECT":" ","MAREA":" ","LANE":" ","ALLEY":" ","HOUSE_NO":"４３號","E_COORD97":171258.26000000001,"N_COORD97":2541128.7000000002,"ADDRESS":"崇善十二街４３號","OBJECTID":594918},"geometry":{"x":171258.26000000071,"y":2541128.6999999993}},{"attributes":{"ID":594946,"DIS_CODE":0,"TOWNNAME":"東區","LI":"崇善里","LIN":"23鄰","STREET":"崇善十二街","SECT":" ","MAREA":" ","LANE":" ","ALLEY":" ","HOUSE_NO":"４５號","E_COORD97":171267.53,"N_COORD97":2541134.2599999998,"ADDRESS":"崇善十二街４５號","OBJECTID":594919},"geometry":{"x":171267.53000000026,"y":2541134.2600000016}},{"attributes":{"ID":594947,"DIS_CODE":0,"TOWNNAME":"東區","LI":"崇善里","LIN":"23鄰","STREET":"崇善十二街","SECT":" ","MAREA":" ","LANE":" ","ALLEY":" ","HOUSE_NO":"４７號","E_COORD97":171282.09,"N_COORD97":2541142.9900000002,"ADDRESS":"崇善十二街４７號","OBJECTID":594920},"geometry":{"x":171282.08999999985,"y":2541142.9900000039}},{"attributes":{"ID":594948,"DIS_CODE":0,"TOWNNAME":"東區","LI":"崇善里","LIN":"23鄰","STREET":"崇善十二街","SECT":" ","MAREA":" ","LANE":" ","ALLEY":" ","HOUSE_NO":"４９號","E_COORD97":171293.48000000001,"N_COORD97":2541148.2799999998,"ADDRESS":"崇善十二街４９號","OBJECTID":594921},"geometry":{"x":171293.48000000045,"y":2541148.2800000012}},{"attributes":{"ID":594949,"DIS_CODE":0,"TOWNNAME":"東區","LI":"崇善里","LIN":"23鄰","STREET":"崇善十二街","SECT":" ","MAREA":" ","LANE":" ","ALLEY":" ","HOUSE_NO":"５１號","E_COORD97":171299.31,"N_COORD97":2541151.98,"ADDRESS":"崇善十二街５１號","OBJECTID":594922},"geometry":{"x":171299.30999999866,"y":2541151.9800000004}},{"attributes":{"ID":594950,"DIS_CODE":0,"TOWNNAME":"東區","LI":"崇善里","LIN":"23鄰","STREET":"崇善十二街","SECT":" ","MAREA":" ","LANE":" ","ALLEY":" ","HOUSE_NO":"５３號","E_COORD97":171300.10000000001,"N_COORD97":2541137.4300000002,"ADDRESS":"崇善十二街５３號","OBJECTID":594923},"geometry":{"x":171300.09999999963,"y":2541137.4300000016}},{"attributes":{"ID":594951,"DIS_CODE":0,"TOWNNAME":"北區","LI":"安民里","LIN":"11鄰","STREET":"海成街","SECT":" ","MAREA":" ","LANE":" ","ALLEY":" ","HOUSE_NO":"１７號五樓之２","E_COORD97":167978.56,"N_COORD97":2544620.3199999998,"ADDRESS":"海成街１７號五樓之２","OBJECTID":594924},"geometry":{"x":167978.56000000145,"y":2544620.3200000022}},{"attributes":{"ID":594952,"DIS_CODE":0,"TOWNNAME":"北區","LI":"安民里","LIN":"11鄰","STREET":"海成街","SECT":" ","MAREA":" ","LANE":" ","ALLEY":" ","HOUSE_NO":"１７號六樓之１","E_COORD97":167978.56,"N_COORD97":2544620.3199999998,"ADDRESS":"海成街１７號六樓之１","OBJECTID":594925},"geometry":{"x":167978.56000000145,"y":2544620.3200000022}},{"attributes":{"ID":594953,"DIS_CODE":0,"TOWNNAME":"北區","LI":"安民里","LIN":"11鄰","STREET":"海成街","SECT":" ","MAREA":" ","LANE":" ","ALLEY":" ","HOUSE_NO":"１７號六樓之２","E_COORD97":167978.56,"N_COORD97":2544620.3199999998,"ADDRESS":"海成街１７號六樓之２","OBJECTID":594926},"geometry":{"x":167978.56000000145,"y":2544620.3200000022}},{"attributes":{"ID":594954,"DIS_CODE":0,"TOWNNAME":"北區","LI":"安民里","LIN":"11鄰","STREET":"海成街","SECT":" ","MAREA":" ","LANE":" ","ALLEY":" ","HOUSE_NO":"１７號二樓之１","E_COORD97":167978.56,"N_COORD97":2544620.3199999998,"ADDRESS":"海成街１７號二樓之１","OBJECTID":594927},"geometry":{"x":167978.56000000145,"y":2544620.3200000022}},{"attributes":{"ID":594955,"DIS_CODE":0,"TOWNNAME":"北區","LI":"安民里","LIN":"11鄰","STREET":"海成街","SECT":" ","MAREA":" ","LANE":" ","ALLEY":" ","HOUSE_NO":"１７號四樓之１","E_COORD97":167978.56,"N_COORD97":2544620.3199999998,"ADDRESS":"海成街１７號四樓之１","OBJECTID":594928},"geometry":{"x":167978.56000000145,"y":2544620.3200000022}},{"attributes":{"ID":594956,"DIS_CODE":0,"TOWNNAME":"北區","LI":"安民里","LIN":"11鄰","STREET":"海成街","SECT":" ","MAREA":" ","LANE":" ","ALLEY":" ","HOUSE_NO":"１７號四樓之２","E_COORD97":167978.56,"N_COORD97":2544620.3199999998,"ADDRESS":"海成街１７號四樓之２","OBJECTID":594929},"geometry":{"x":167978.56000000145,"y":2544620.3200000022}},{"attributes":{"ID":594957,"DIS_CODE":0,"TOWNNAME":"北區","LI":"安民里","LIN":"11鄰","STREET":"海成街","SECT":" ","MAREA":" ","LANE":" ","ALLEY":" ","HOUSE_NO":"１７號二樓之２","E_COORD97":167978.56,"N_COORD97":2544620.3199999998,"ADDRESS":"海成街１７號二樓之２","OBJECTID":594930},"geometry":{"x":167978.56000000145,"y":2544620.3200000022}},{"attributes":{"ID":594958,"DIS_CODE":0,"TOWNNAME":"北區","LI":"安民里","LIN":"11鄰","STREET":"海成街","SECT":" ","MAREA":" ","LANE":" ","ALLEY":" ","HOUSE_NO":"１７號三樓之１","E_COORD97":167978.56,"N_COORD97":2544620.3199999998,"ADDRESS":"海成街１７號三樓之１","OBJECTID":594931},"geometry":{"x":167978.56000000145,"y":2544620.3200000022}},{"attributes":{"ID":594959,"DIS_CODE":0,"TOWNNAME":"北區","LI":"安民里","LIN":"11鄰","STREET":"海成街","SECT":" ","MAREA":" ","LANE":" ","ALLEY":" ","HOUSE_NO":"１７號三樓之２","E_COORD97":167978.56,"N_COORD97":2544620.3199999998,"ADDRESS":"海成街１７號三樓之２","OBJECTID":594932},"geometry":{"x":167978.56000000145,"y":2544620.3200000022}},{"attributes":{"ID":594960,"DIS_CODE":0,"TOWNNAME":"北區","LI":"安民里","LIN":"11鄰","STREET":"海成街","SECT":" ","MAREA":" ","LANE":" ","ALLEY":" ","HOUSE_NO":"１７號七樓之３","E_COORD97":167978.56,"N_COORD97":2544620.3199999998,"ADDRESS":"海成街１７號七樓之３","OBJECTID":594933},"geometry":{"x":167978.56000000145,"y":2544620.3200000022}},{"attributes":{"ID":594961,"DIS_CODE":0,"TOWNNAME":"北區","LI":"實踐里","LIN":"11鄰","STREET":"大武街","SECT":" ","MAREA":" ","LANE":" ","ALLEY":" ","HOUSE_NO":"１４６號三樓之１","E_COORD97":169653.28,"N_COORD97":2545978.4100000001,"ADDRESS":"大武街１４６號三樓之１","OBJECTID":594934},"geometry":{"x":169653.28000000119,"y":2545978.410000002}},{"attributes":{"ID":594962,"DIS_CODE":0,"TOWNNAME":"北區","LI":"實踐里","LIN":"11鄰","STREET":"大武街","SECT":" ","MAREA":" ","LANE":" ","ALLEY":" ","HOUSE_NO":"１４６號三樓之２","E_COORD97":169653.28,"N_COORD97":2545978.4100000001,"ADDRESS":"大武街１４６號三樓之２","OBJECTID":594935},"geometry":{"x":169653.28000000119,"y":2545978.410000002}},{"attributes":{"ID":594963,"DIS_CODE":0,"TOWNNAME":"東區","LI":"大智里","LIN":"23鄰","STREET":"文東街","SECT":" ","MAREA":" ","LANE":" ","ALLEY":" ","HOUSE_NO":"１８號","E_COORD97":171315.5,"N_COORD97":2540131.8500000001,"ADDRESS":"文東街１８號","OBJECTID":594936},"geometry":{"x":171315.50000000186,"y":2540131.8499999996}},{"attributes":{"ID":594964,"DIS_CODE":0,"TOWNNAME":"北區","LI":"實踐里","LIN":"11鄰","STREET":"大武街","SECT":" ","MAREA":" ","LANE":" ","ALLEY":" ","HOUSE_NO":"１４８之５號三樓之１","E_COORD97":169654.42999999999,"N_COORD97":2546006.48,"ADDRESS":"大武街１４８之５號三樓之１","OBJECTID":594937},"geometry":{"x":169654.43000000156,"y":2546006.4800000023}},{"attributes":{"ID":594965,"DIS_CODE":0,"TOWNNAME":"北區","LI":"實踐里","LIN":"11鄰","STREET":"大武街","SECT":" ","MAREA":" ","LANE":" ","ALLEY":" ","HOUSE_NO":"１４８之５號三樓之２","E_COORD97":169654.42999999999,"N_COORD97":2546006.48,"ADDRESS":"大武街１４８之５號三樓之２","OBJECTID":594938},"geometry":{"x":169654.43000000156,"y":2546006.4800000023}},{"attributes":{"ID":594966,"DIS_CODE":0,"TOWNNAME":"北區","LI":"實踐里","LIN":"11鄰","STREET":"大武街","SECT":" ","MAREA":" ","LANE":" ","ALLEY":" ","HOUSE_NO":"１４６號四樓之１","E_COORD97":169653.28,"N_COORD97":2545978.4100000001,"ADDRESS":"大武街１４６號四樓之１","OBJECTID":594939},"geometry":{"x":169653.28000000119,"y":2545978.410000002}},{"attributes":{"ID":594967,"DIS_CODE":0,"TOWNNAME":"東區","LI":"大智里","LIN":"18鄰","STREET":"崇善十五街","SECT":" ","MAREA":" ","LANE":" ","ALLEY":" ","HOUSE_NO":"６０號","E_COORD97":171262.35000000001,"N_COORD97":2540561.73,"ADDRESS":"崇善十五街６０號","OBJECTID":594940},"geometry":{"x":171262.35000000056,"y":2540561.7300000042}},{"attributes":{"ID":594968,"DIS_CODE":0,"TOWNNAME":"北區","LI":"實踐里","LIN":"11鄰","STREET":"大武街","SECT":" ","MAREA":" ","LANE":" ","ALLEY":" ","HOUSE_NO":"１４６號四樓之２","E_COORD97":169653.28,"N_COORD97":2545978.4100000001,"ADDRESS":"大武街１４６號四樓之２","OBJECTID":594941},"geometry":{"x":169653.28000000119,"y":2545978.410000002}},{"attributes":{"ID":594969,"DIS_CODE":0,"TOWNNAME":"北區","LI":"實踐里","LIN":"11鄰","STREET":"大武街","SECT":" ","MAREA":" ","LANE":" ","ALLEY":" ","HOUSE_NO":"１４８之５號四樓之１","E_COORD97":169654.42999999999,"N_COORD97":2546006.48,"ADDRESS":"大武街１４８之５號四樓之１","OBJECTID":594942},"geometry":{"x":169654.43000000156,"y":2546006.4800000023}},{"attributes":{"ID":594970,"DIS_CODE":0,"TOWNNAME":"北區","LI":"實踐里","LIN":"11鄰","STREET":"大武街","SECT":" ","MAREA":" ","LANE":" ","ALLEY":" ","HOUSE_NO":"１４８之５號四樓之２","E_COORD97":169654.42999999999,"N_COORD97":2546006.48,"ADDRESS":"大武街１４８之５號四樓之２","OBJECTID":594943},"geometry":{"x":169654.43000000156,"y":2546006.4800000023}},{"attributes":{"ID":594971,"DIS_CODE":0,"TOWNNAME":"北區","LI":"實踐里","LIN":"11鄰","STREET":"大武街","SECT":" ","MAREA":" ","LANE":" ","ALLEY":" ","HOUSE_NO":"１４６號五樓之１","E_COORD97":169653.28,"N_COORD97":2545978.4100000001,"ADDRESS":"大武街１４６號五樓之１","OBJECTID":594944},"geometry":{"x":169653.28000000119,"y":2545978.410000002}},{"attributes":{"ID":594972,"DIS_CODE":0,"TOWNNAME":"北區","LI":"實踐里","LIN":"11鄰","STREET":"大武街","SECT":" ","MAREA":" ","LANE":" ","ALLEY":" ","HOUSE_NO":"１４６號五樓之２","E_COORD97":169653.28,"N_COORD97":2545978.4100000001,"ADDRESS":"大武街１４６號五樓之２","OBJECTID":594945},"geometry":{"x":169653.28000000119,"y":2545978.410000002}},{"attributes":{"ID":594973,"DIS_CODE":0,"TOWNNAME":"北區","LI":"實踐里","LIN":"11鄰","STREET":"大武街","SECT":" ","MAREA":" ","LANE":" ","ALLEY":" ","HOUSE_NO":"１４８之５號五樓之１","E_COORD97":169654.42999999999,"N_COORD97":2546006.48,"ADDRESS":"大武街１４８之５號五樓之１","OBJECTID":594946},"geometry":{"x":169654.43000000156,"y":2546006.4800000023}},{"attributes":{"ID":594974,"DIS_CODE":0,"TOWNNAME":"北區","LI":"實踐里","LIN":"11鄰","STREET":"大武街","SECT":" ","MAREA":" ","LANE":" ","ALLEY":" ","HOUSE_NO":"１４６號十二樓之２","E_COORD97":169653.28,"N_COORD97":2545978.4100000001,"ADDRESS":"大武街１４６號十二樓之２","OBJECTID":594947},"geometry":{"x":169653.28000000119,"y":2545978.410000002}},{"attributes":{"ID":594975,"DIS_CODE":0,"TOWNNAME":"北區","LI":"實踐里","LIN":"11鄰","STREET":"大武街","SECT":" ","MAREA":" ","LANE":" ","ALLEY":" ","HOUSE_NO":"１４８之５號五樓之２","E_COORD97":169654.42999999999,"N_COORD97":2546006.48,"ADDRESS":"大武街１４８之５號五樓之２","OBJECTID":594948},"geometry":{"x":169654.43000000156,"y":2546006.4800000023}},{"attributes":{"ID":594976,"DIS_CODE":0,"TOWNNAME":"北區","LI":"實踐里","LIN":"11鄰","STREET":"大武街","SECT":" ","MAREA":" ","LANE":" ","ALLEY":" ","HOUSE_NO":"１４６號六樓之１","E_COORD97":169653.28,"N_COORD97":2545978.4100000001,"ADDRESS":"大武街１４６號六樓之１","OBJECTID":594949},"geometry":{"x":169653.28000000119,"y":2545978.410000002}},{"attributes":{"ID":594977,"DIS_CODE":0,"TOWNNAME":"北區","LI":"實踐里","LIN":"11鄰","STREET":"大武街","SECT":" ","MAREA":" ","LANE":" ","ALLEY":" ","HOUSE_NO":"１４６號六樓之２","E_COORD97":169653.28,"N_COORD97":2545978.4100000001,"ADDRESS":"大武街１４６號六樓之２","OBJECTID":594950},"geometry":{"x":169653.28000000119,"y":2545978.410000002}},{"attributes":{"ID":594978,"DIS_CODE":0,"TOWNNAME":"北區","LI":"實踐里","LIN":"11鄰","STREET":"大武街","SECT":" ","MAREA":" ","LANE":" ","ALLEY":" ","HOUSE_NO":"１４８之５號六樓之１","E_COORD97":169654.42999999999,"N_COORD97":2546006.48,"ADDRESS":"大武街１４８之５號六樓之１","OBJECTID":594951},"geometry":{"x":169654.43000000156,"y":2546006.4800000023}},{"attributes":{"ID":594979,"DIS_CODE":0,"TOWNNAME":"北區","LI":"實踐里","LIN":"11鄰","STREET":"大武街","SECT":" ","MAREA":" ","LANE":" ","ALLEY":" ","HOUSE_NO":"１４８之５號六樓之２","E_COORD97":169654.42999999999,"N_COORD97":2546006.48,"ADDRESS":"大武街１４８之５號六樓之２","OBJECTID":594952},"geometry":{"x":169654.43000000156,"y":2546006.4800000023}},{"attributes":{"ID":594980,"DIS_CODE":0,"TOWNNAME":"北區","LI":"實踐里","LIN":"11鄰","STREET":"大武街","SECT":" ","MAREA":" ","LANE":" ","ALLEY":" ","HOUSE_NO":"１４６號八樓之２","E_COORD97":169653.28,"N_COORD97":2545978.4100000001,"ADDRESS":"大武街１４６號八樓之２","OBJECTID":594953},"geometry":{"x":169653.28000000119,"y":2545978.410000002}},{"attributes":{"ID":594981,"DIS_CODE":0,"TOWNNAME":"北區","LI":"實踐里","LIN":"11鄰","STREET":"大武街","SECT":" ","MAREA":" ","LANE":" ","ALLEY":" ","HOUSE_NO":"１４６號七樓之１","E_COORD97":169653.28,"N_COORD97":2545978.4100000001,"ADDRESS":"大武街１４６號七樓之１","OBJECTID":594954},"geometry":{"x":169653.28000000119,"y":2545978.410000002}},{"attributes":{"ID":594982,"DIS_CODE":0,"TOWNNAME":"北區","LI":"實踐里","LIN":"11鄰","STREET":"大武街","SECT":" ","MAREA":" ","LANE":" ","ALLEY":" ","HOUSE_NO":"１４６號七樓之２","E_COORD97":169653.28,"N_COORD97":2545978.4100000001,"ADDRESS":"大武街１４６號七樓之２","OBJECTID":594955},"geometry":{"x":169653.28000000119,"y":2545978.410000002}},{"attributes":{"ID":594983,"DIS_CODE":0,"TOWNNAME":"北區","LI":"實踐里","LIN":"11鄰","STREET":"大武街","SECT":" ","MAREA":" ","LANE":" ","ALLEY":" ","HOUSE_NO":"１４８之５號七樓之１","E_COORD97":169654.42999999999,"N_COORD97":2546006.48,"ADDRESS":"大武街１４８之５號七樓之１","OBJECTID":594956},"geometry":{"x":169654.43000000156,"y":2546006.4800000023}},{"attributes":{"ID":594984,"DIS_CODE":0,"TOWNNAME":"北區","LI":"實踐里","LIN":"11鄰","STREET":"大武街","SECT":" ","MAREA":" ","LANE":" ","ALLEY":" ","HOUSE_NO":"１４８之５號七樓之２","E_COORD97":169654.42999999999,"N_COORD97":2546006.48,"ADDRESS":"大武街１４８之５號七樓之２","OBJECTID":594957},"geometry":{"x":169654.43000000156,"y":2546006.4800000023}},{"attributes":{"ID":594985,"DIS_CODE":0,"TOWNNAME":"北區","LI":"實踐里","LIN":"11鄰","STREET":"大武街","SECT":" ","MAREA":" ","LANE":" ","ALLEY":" ","HOUSE_NO":"１４６號八樓之１","E_COORD97":169653.28,"N_COORD97":2545978.4100000001,"ADDRESS":"大武街１４６號八樓之１","OBJECTID":594958},"geometry":{"x":169653.28000000119,"y":2545978.410000002}},{"attributes":{"ID":594986,"DIS_CODE":0,"TOWNNAME":"北區","LI":"實踐里","LIN":"11鄰","STREET":"大武街","SECT":" ","MAREA":" ","LANE":" ","ALLEY":" ","HOUSE_NO":"１４８之５號八樓之１","E_COORD97":169654.42999999999,"N_COORD97":2546006.48,"ADDRESS":"大武街１４８之５號八樓之１","OBJECTID":594959},"geometry":{"x":169654.43000000156,"y":2546006.4800000023}},{"attributes":{"ID":594987,"DIS_CODE":0,"TOWNNAME":"北區","LI":"實踐里","LIN":"11鄰","STREET":"大武街","SECT":" ","MAREA":" ","LANE":" ","ALLEY":" ","HOUSE_NO":"１４８之５號八樓之２","E_COORD97":169654.42999999999,"N_COORD97":2546006.48,"ADDRESS":"大武街１４８之５號八樓之２","OBJECTID":594960},"geometry":{"x":169654.43000000156,"y":2546006.4800000023}},{"attributes":{"ID":594988,"DIS_CODE":0,"TOWNNAME":"北區","LI":"實踐里","LIN":"11鄰","STREET":"大武街","SECT":" ","MAREA":" ","LANE":" ","ALLEY":" ","HOUSE_NO":"１４６號九樓之１","E_COORD97":169653.28,"N_COORD97":2545978.4100000001,"ADDRESS":"大武街１４６號九樓之１","OBJECTID":594961},"geometry":{"x":169653.28000000119,"y":2545978.410000002}},{"attributes":{"ID":594989,"DIS_CODE":0,"TOWNNAME":"北區","LI":"實踐里","LIN":"11鄰","STREET":"大武街","SECT":" ","MAREA":" ","LANE":" ","ALLEY":" ","HOUSE_NO":"１４６號九樓之２","E_COORD97":169653.28,"N_COORD97":2545978.4100000001,"ADDRESS":"大武街１４６號九樓之２","OBJECTID":594962},"geometry":{"x":169653.28000000119,"y":2545978.410000002}},{"attributes":{"ID":594990,"DIS_CODE":0,"TOWNNAME":"北區","LI":"實踐里","LIN":"11鄰","STREET":"大武街","SECT":" ","MAREA":" ","LANE":" ","ALLEY":" ","HOUSE_NO":"１４８之５號九樓之１","E_COORD97":169654.42999999999,"N_COORD97":2546006.48,"ADDRESS":"大武街１４８之５號九樓之１","OBJECTID":594963},"geometry":{"x":169654.43000000156,"y":2546006.4800000023}},{"attributes":{"ID":594991,"DIS_CODE":0,"TOWNNAME":"北區","LI":"實踐里","LIN":"11鄰","STREET":"大武街","SECT":" ","MAREA":" ","LANE":" ","ALLEY":" ","HOUSE_NO":"１４８之５號九樓之２","E_COORD97":169654.42999999999,"N_COORD97":2546006.48,"ADDRESS":"大武街１４８之５號九樓之２","OBJECTID":594964},"geometry":{"x":169654.43000000156,"y":2546006.4800000023}},{"attributes":{"ID":594992,"DIS_CODE":0,"TOWNNAME":"北區","LI":"實踐里","LIN":"11鄰","STREET":"大武街","SECT":" ","MAREA":" ","LANE":" ","ALLEY":" ","HOUSE_NO":"１４６號十樓之１","E_COORD97":169653.28,"N_COORD97":2545978.4100000001,"ADDRESS":"大武街１４６號十樓之１","OBJECTID":594965},"geometry":{"x":169653.28000000119,"y":2545978.410000002}},{"attributes":{"ID":594993,"DIS_CODE":0,"TOWNNAME":"北區","LI":"實踐里","LIN":"11鄰","STREET":"大武街","SECT":" ","MAREA":" ","LANE":" ","ALLEY":" ","HOUSE_NO":"１４６號十樓之２","E_COORD97":169653.28,"N_COORD97":2545978.4100000001,"ADDRESS":"大武街１４６號十樓之２","OBJECTID":594966},"geometry":{"x":169653.28000000119,"y":2545978.410000002}},{"attributes":{"ID":594994,"DIS_CODE":0,"TOWNNAME":"北區","LI":"實踐里","LIN":"11鄰","STREET":"大武街","SECT":" ","MAREA":" ","LANE":" ","ALLEY":" ","HOUSE_NO":"１４８之５號十樓之１","E_COORD97":169654.42999999999,"N_COORD97":2546006.48,"ADDRESS":"大武街１４８之５號十樓之１","OBJECTID":594967},"geometry":{"x":169654.43000000156,"y":2546006.4800000023}},{"attributes":{"ID":594995,"DIS_CODE":0,"TOWNNAME":"東區","LI":"崇德里","LIN":"7鄰","STREET":"崇德六街","SECT":" ","MAREA":" ","LANE":" ","ALLEY":" ","HOUSE_NO":"６０號","E_COORD97":170799.19,"N_COORD97":2541809.1200000001,"ADDRESS":"崇德六街６０號","OBJECTID":594968},"geometry":{"x":170799.18999999948,"y":2541809.120000001}},{"attributes":{"ID":594996,"DIS_CODE":0,"TOWNNAME":"東區","LI":"崇德里","LIN":"7鄰","STREET":"崇德六街","SECT":" ","MAREA":" ","LANE":" ","ALLEY":" ","HOUSE_NO":"６２號","E_COORD97":170802.01000000001,"N_COORD97":2541811.7799999998,"ADDRESS":"崇德六街６２號","OBJECTID":594969},"geometry":{"x":170802.01000000071,"y":2541811.7800000012}},{"attributes":{"ID":594997,"DIS_CODE":0,"TOWNNAME":"東區","LI":"崇德里","LIN":"7鄰","STREET":"崇德六街","SECT":" ","MAREA":" ","LANE":" ","ALLEY":" ","HOUSE_NO":"５８號","E_COORD97":170797.31,"N_COORD97":2541805.52,"ADDRESS":"崇德六街５８號","OBJECTID":594970},"geometry":{"x":170797.30999999959,"y":2541805.5199999996}},{"attributes":{"ID":594998,"DIS_CODE":0,"TOWNNAME":"北區","LI":"實踐里","LIN":"11鄰","STREET":"大武街","SECT":" ","MAREA":" ","LANE":" ","ALLEY":" ","HOUSE_NO":"１４８之５號十樓之２","E_COORD97":169654.42999999999,"N_COORD97":2546006.48,"ADDRESS":"大武街１４８之５號十樓之２","OBJECTID":594971},"geometry":{"x":169654.43000000156,"y":2546006.4800000023}},{"attributes":{"ID":594999,"DIS_CODE":0,"TOWNNAME":"北區","LI":"實踐里","LIN":"11鄰","STREET":"大武街","SECT":" ","MAREA":" ","LANE":" ","ALLEY":" ","HOUSE_NO":"１４６號十一樓之１","E_COORD97":169653.28,"N_COORD97":2545978.4100000001,"ADDRESS":"大武街１４６號十一樓之１","OBJECTID":594972},"geometry":{"x":169653.28000000119,"y":2545978.410000002}},{"attributes":{"ID":595000,"DIS_CODE":0,"TOWNNAME":"北區","LI":"實踐里","LIN":"11鄰","STREET":"大武街","SECT":" ","MAREA":" ","LANE":" ","ALLEY":" ","HOUSE_NO":"１４６號十一樓之２","E_COORD97":169653.28,"N_COORD97":2545978.4100000001,"ADDRESS":"大武街１４６號十一樓之２","OBJECTID":594973},"geometry":{"x":169653.28000000119,"y":2545978.410000002}},{"attributes":{"ID":595001,"DIS_CODE":0,"TOWNNAME":"北區","LI":"實踐里","LIN":"11鄰","STREET":"大武街","SECT":" ","MAREA":" ","LANE":" ","ALLEY":" ","HOUSE_NO":"１４８之５號十一樓之","E_COORD97":169654.42999999999,"N_COORD97":2546006.48,"ADDRESS":"大武街１４８之５號十一樓之１","OBJECTID":594974},"geometry":{"x":169654.43000000156,"y":2546006.4800000023}},{"attributes":{"ID":595002,"DIS_CODE":0,"TOWNNAME":"北區","LI":"實踐里","LIN":"11鄰","STREET":"大武街","SECT":" ","MAREA":" ","LANE":" ","ALLEY":" ","HOUSE_NO":"１４８之５號十一樓之","E_COORD97":169654.42999999999,"N_COORD97":2546006.48,"ADDRESS":"大武街１４８之５號十一樓之２","OBJECTID":594975},"geometry":{"x":169654.43000000156,"y":2546006.4800000023}},{"attributes":{"ID":595003,"DIS_CODE":0,"TOWNNAME":"北區","LI":"實踐里","LIN":"11鄰","STREET":"大武街","SECT":" ","MAREA":" ","LANE":" ","ALLEY":" ","HOUSE_NO":"１４６號十二樓之１","E_COORD97":169653.28,"N_COORD97":2545978.4100000001,"ADDRESS":"大武街１４６號十二樓之１","OBJECTID":594976},"geometry":{"x":169653.28000000119,"y":2545978.410000002}},{"attributes":{"ID":595004,"DIS_CODE":0,"TOWNNAME":"東區","LI":"崇德里","LIN":"4鄰","STREET":"崇德五街","SECT":" ","MAREA":" ","LANE":" ","ALLEY":" ","HOUSE_NO":"１４號","E_COORD97":170676.5,"N_COORD97":2541808.8500000001,"ADDRESS":"崇德五街１４號","OBJECTID":594977},"geometry":{"x":170676.50000000186,"y":2541808.8500000015}},{"attributes":{"ID":595005,"DIS_CODE":0,"TOWNNAME":"東區","LI":"東智里","LIN":"1鄰","STREET":"生產路","SECT":" ","MAREA":" ","LANE":" ","ALLEY":" ","HOUSE_NO":"５００號","E_COORD97":170968.48999999999,"N_COORD97":2540591.8500000001,"ADDRESS":"生產路５００號","OBJECTID":594978},"geometry":{"x":170968.49000000115,"y":2540591.8500000015}},{"attributes":{"ID":595006,"DIS_CODE":0,"TOWNNAME":"東區","LI":"東智里","LIN":"1鄰","STREET":"生產路","SECT":" ","MAREA":" ","LANE":" ","ALLEY":" ","HOUSE_NO":"５０２號","E_COORD97":170973.35999999999,"N_COORD97":2540591.29,"ADDRESS":"生產路５０２號","OBJECTID":594979},"geometry":{"x":170973.36000000127,"y":2540591.290000001}},{"attributes":{"ID":595007,"DIS_CODE":0,"TOWNNAME":"東區","LI":"東智里","LIN":"1鄰","STREET":"生產路","SECT":" ","MAREA":" ","LANE":" ","ALLEY":" ","HOUSE_NO":"５０４號","E_COORD97":170978.04000000001,"N_COORD97":2540591.4700000002,"ADDRESS":"生產路５０４號","OBJECTID":594980},"geometry":{"x":170978.0400000019,"y":2540591.4700000025}},{"attributes":{"ID":595008,"DIS_CODE":0,"TOWNNAME":"東區","LI":"東智里","LIN":"1鄰","STREET":"長東街","SECT":" ","MAREA":" ","LANE":" ","ALLEY":" ","HOUSE_NO":"１６號","E_COORD97":170982.53,"N_COORD97":2540570.3399999999,"ADDRESS":"長東街１６號","OBJECTID":594981},"geometry":{"x":170982.53000000026,"y":2540570.3400000036}},{"attributes":{"ID":595009,"DIS_CODE":0,"TOWNNAME":"東區","LI":"東智里","LIN":"1鄰","STREET":"生產路","SECT":" ","MAREA":" ","LANE":" ","ALLEY":" ","HOUSE_NO":"４９８號","E_COORD97":170965.87,"N_COORD97":2540591.8500000001,"ADDRESS":"生產路４９８號","OBJECTID":594982},"geometry":{"x":170965.87000000104,"y":2540591.8500000015}},{"attributes":{"ID":595010,"DIS_CODE":0,"TOWNNAME":"東區","LI":"中西里","LIN":"23鄰","STREET":"長榮路","SECT":"二段","MAREA":" ","LANE":" ","ALLEY":" ","HOUSE_NO":"３０６號","E_COORD97":170203.14000000001,"N_COORD97":2543536.1600000001,"ADDRESS":"長榮路二段３０６號","OBJECTID":594983},"geometry":{"x":170203.13999999966,"y":2543536.160000002}},{"attributes":{"ID":595011,"DIS_CODE":0,"TOWNNAME":"北區","LI":"實踐里","LIN":"11鄰","STREET":"大武街","SECT":" ","MAREA":" ","LANE":" ","ALLEY":" ","HOUSE_NO":"１４８之５號十二樓之","E_COORD97":169654.42999999999,"N_COORD97":2546006.48,"ADDRESS":"大武街１４８之５號十二樓之１","OBJECTID":594984},"geometry":{"x":169654.43000000156,"y":2546006.4800000023}},{"attributes":{"ID":595012,"DIS_CODE":0,"TOWNNAME":"北區","LI":"實踐里","LIN":"11鄰","STREET":"大武街","SECT":" ","MAREA":" ","LANE":" ","ALLEY":" ","HOUSE_NO":"１４８之５號十二樓之","E_COORD97":169654.42999999999,"N_COORD97":2546006.48,"ADDRESS":"大武街１４８之５號十二樓之２","OBJECTID":594985},"geometry":{"x":169654.43000000156,"y":2546006.4800000023}},{"attributes":{"ID":595013,"DIS_CODE":0,"TOWNNAME":"北區","LI":"實踐里","LIN":"11鄰","STREET":"大武街","SECT":" ","MAREA":" ","LANE":" ","ALLEY":" ","HOUSE_NO":"１４８之５號十三樓之","E_COORD97":169654.42999999999,"N_COORD97":2546006.48,"ADDRESS":"大武街１４８之５號十三樓之１","OBJECTID":594986},"geometry":{"x":169654.43000000156,"y":2546006.4800000023}},{"attributes":{"ID":595014,"DIS_CODE":0,"TOWNNAME":"東區","LI":"忠孝里","LIN":"25鄰","STREET":"崇明四街","SECT":" ","MAREA":" ","LANE":" ","ALLEY":" ","HOUSE_NO":"３１號","E_COORD97":169648.95000000001,"N_COORD97":2542315.6699999999,"ADDRESS":"崇明四街３１號","OBJECTID":594987},"geometry":{"x":169648.95000000019,"y":2542315.6700000018}},{"attributes":{"ID":595015,"DIS_CODE":0,"TOWNNAME":"東區","LI":"裕農里","LIN":"14鄰","STREET":"裕豐街","SECT":" ","MAREA":" ","LANE":" ","ALLEY":" ","HOUSE_NO":"２２４號","E_COORD97":170799.01999999999,"N_COORD97":2543213.1400000001,"ADDRESS":"裕豐街２２４號","OBJECTID":594988},"geometry":{"x":170799.01999999955,"y":2543213.1400000006}},{"attributes":{"ID":595016,"DIS_CODE":0,"TOWNNAME":"東區","LI":"泉南里","LIN":"23鄰","STREET":"樹林街","SECT":"一段","MAREA":" ","LANE":" ","ALLEY":" ","HOUSE_NO":"１３３號","E_COORD97":169389.59,"N_COORD97":2542995.5099999998,"ADDRESS":"樹林街一段１３３號","OBJECTID":594989},"geometry":{"x":169389.59000000078,"y":2542995.5099999998}},{"attributes":{"ID":595017,"DIS_CODE":0,"TOWNNAME":"北區","LI":"實踐里","LIN":"11鄰","STREET":"大武街","SECT":" ","MAREA":" ","LANE":" ","ALLEY":" ","HOUSE_NO":"１４８之５號十三樓之","E_COORD97":169654.42999999999,"N_COORD97":2546006.48,"ADDRESS":"大武街１４８之５號十三樓之２","OBJECTID":594990},"geometry":{"x":169654.43000000156,"y":2546006.4800000023}},{"attributes":{"ID":595018,"DIS_CODE":0,"TOWNNAME":"北區","LI":"興北里","LIN":"11鄰","STREET":"公園路","SECT":" ","MAREA":" ","LANE":" ","ALLEY":" ","HOUSE_NO":"５２８號四樓","E_COORD97":169037.54000000001,"N_COORD97":2545243,"ADDRESS":"公園路５２８號四樓","OBJECTID":594991},"geometry":{"x":169037.54000000097,"y":2545243.0000000019}},{"attributes":{"ID":595019,"DIS_CODE":0,"TOWNNAME":"東區","LI":"大智里","LIN":"24鄰","STREET":"文東街","SECT":" ","MAREA":" ","LANE":" ","ALLEY":" ","HOUSE_NO":"９２號","E_COORD97":171434.47,"N_COORD97":2540171.3999999999,"ADDRESS":"文東街９２號","OBJECTID":594992},"geometry":{"x":171434.47000000067,"y":2540171.4000000022}},{"attributes":{"ID":595020,"DIS_CODE":0,"TOWNNAME":"東區","LI":"大智里","LIN":"8鄰","STREET":"德東街","SECT":" ","MAREA":" ","LANE":" ","ALLEY":" ","HOUSE_NO":"９７號","E_COORD97":171059.89000000001,"N_COORD97":2540265.3199999998,"ADDRESS":"德東街９７號","OBJECTID":594993},"geometry":{"x":171059.89000000153,"y":2540265.3200000003}},{"attributes":{"ID":595021,"DIS_CODE":0,"TOWNNAME":"東區","LI":"崇德里","LIN":"21鄰","STREET":"崇德路","SECT":" ","MAREA":" ","LANE":" ","ALLEY":" ","HOUSE_NO":"４６０號","E_COORD97":170700.95000000001,"N_COORD97":2541663.8100000001,"ADDRESS":"崇德路４６０號","OBJECTID":594994},"geometry":{"x":170700.95000000112,"y":2541663.8100000024}},{"attributes":{"ID":595022,"DIS_CODE":0,"TOWNNAME":"東區","LI":"大智里","LIN":"23鄰","STREET":"文東街","SECT":" ","MAREA":" ","LANE":" ","ALLEY":" ","HOUSE_NO":"２３號","E_COORD97":171298.32000000001,"N_COORD97":2540144.5099999998,"ADDRESS":"文東街２３號","OBJECTID":594995},"geometry":{"x":171298.32000000216,"y":2540144.5099999998}},{"attributes":{"ID":595023,"DIS_CODE":0,"TOWNNAME":"東區","LI":"大智里","LIN":"18鄰","STREET":"崇善十五街","SECT":" ","MAREA":" ","LANE":" ","ALLEY":" ","HOUSE_NO":"５１號","E_COORD97":171275.38,"N_COORD97":2540547.4100000001,"ADDRESS":"崇善十五街５１號","OBJECTID":594996},"geometry":{"x":171275.37999999896,"y":2540547.410000002}},{"attributes":{"ID":595024,"DIS_CODE":0,"TOWNNAME":"東區","LI":"大智里","LIN":"18鄰","STREET":"崇善十五街","SECT":" ","MAREA":" ","LANE":" ","ALLEY":" ","HOUSE_NO":"５３號","E_COORD97":171272.06,"N_COORD97":2540543.8500000001,"ADDRESS":"崇善十五街５３號","OBJECTID":594997},"geometry":{"x":171272.05999999959,"y":2540543.8500000015}},{"attributes":{"ID":595025,"DIS_CODE":0,"TOWNNAME":"東區","LI":"大智里","LIN":"18鄰","STREET":"崇善十五街","SECT":" ","MAREA":" ","LANE":" ","ALLEY":" ","HOUSE_NO":"５４號","E_COORD97":171273.76000000001,"N_COORD97":2540560.8999999999,"ADDRESS":"崇善十五街５４號","OBJECTID":594998},"geometry":{"x":171273.75999999978,"y":2540560.9000000022}},{"attributes":{"ID":595026,"DIS_CODE":0,"TOWNNAME":"東區","LI":"大智里","LIN":"18鄰","STREET":"崇善十五街","SECT":" ","MAREA":" ","LANE":" ","ALLEY":" ","HOUSE_NO":"５５號","E_COORD97":171267.63,"N_COORD97":2540546.4300000002,"ADDRESS":"崇善十五街５５號","OBJECTID":594999},"geometry":{"x":171267.63000000082,"y":2540546.4300000016}},{"attributes":{"ID":595027,"DIS_CODE":0,"TOWNNAME":"東區","LI":"大智里","LIN":"18鄰","STREET":"崇善十五街","SECT":" ","MAREA":" ","LANE":" ","ALLEY":" ","HOUSE_NO":"５７號","E_COORD97":171264.07000000001,"N_COORD97":2540544.0899999999,"ADDRESS":"崇善十五街５７號","OBJECTID":595000},"geometry":{"x":171264.0700000003,"y":2540544.0899999999}}]}