{"displayFieldName":"TOWNNAME","fieldAliases":{"ID":"ID","DIS_CODE":"DIS_CODE","TOWNNAME":"TOWNNAME","LI":"LI","LIN":"LIN","STREET":"STREET","SECT":"SECT","MAREA":"MAREA","LANE":"LANE","ALLEY":"ALLEY","HOUSE_NO":"HOUSE_NO","E_COORD97":"E_COORD97","N_COORD97":"N_COORD97","ADDRESS":"ADDRESS","OBJECTID":"OBJECTID"},"geometryType":"esriGeometryPoint","spatialReference":{"wkid":102443,"latestWkid":3826},"fields":[{"name":"ID","type":"esriFieldTypeDouble","alias":"ID"},{"name":"DIS_CODE","type":"esriFieldTypeInteger","alias":"DIS_CODE"},{"name":"TOWNNAME","type":"esriFieldTypeString","alias":"TOWNNAME","length":8},{"name":"LI","type":"esriFieldTypeString","alias":"LI","length":8},{"name":"LIN","type":"esriFieldTypeString","alias":"LIN","length":12},{"name":"STREET","type":"esriFieldTypeString","alias":"STREET","length":20},{"name":"SECT","type":"esriFieldTypeString","alias":"SECT","length":8},{"name":"MAREA","type":"esriFieldTypeString","alias":"MAREA","length":12},{"name":"LANE","type":"esriFieldTypeString","alias":"LANE","length":10},{"name":"ALLEY","type":"esriFieldTypeString","alias":"ALLEY","length":10},{"name":"HOUSE_NO","type":"esriFieldTypeString","alias":"HOUSE_NO","length":20},{"name":"E_COORD97","type":"esriFieldTypeDouble","alias":"E_COORD97"},{"name":"N_COORD97","type":"esriFieldTypeDouble","alias":"N_COORD97"},{"name":"ADDRESS","type":"esriFieldTypeString","alias":"ADDRESS","length":50},{"name":"OBJECTID","type":"esriFieldTypeOID","alias":"OBJECTID"}],"features":[{"attributes":{"ID":305609,"DIS_CODE":0,"TOWNNAME":"永康區","LI":"東橋里","LIN":"17鄰","STREET":"東橋三路","SECT":" ","MAREA":" ","LANE":" ","ALLEY":" ","HOUSE_NO":"４７０號","E_COORD97":171336.07999999999,"N_COORD97":2547157.21,"ADDRESS":"東橋三路４７０號","OBJECTID":305601},"geometry":{"x":171336.08000000101,"y":2547157.2100000028}},{"attributes":{"ID":305610,"DIS_CODE":0,"TOWNNAME":"永康區","LI":"東橋里","LIN":"17鄰","STREET":"東橋三路","SECT":" ","MAREA":" ","LANE":" ","ALLEY":" ","HOUSE_NO":"４７２號","E_COORD97":171333.73000000001,"N_COORD97":2547161.1699999999,"ADDRESS":"東橋三路４７２號","OBJECTID":305602},"geometry":{"x":171333.73000000138,"y":2547161.1699999999}},{"attributes":{"ID":305611,"DIS_CODE":0,"TOWNNAME":"永康區","LI":"東橋里","LIN":"17鄰","STREET":"東橋三路","SECT":" ","MAREA":" ","LANE":" ","ALLEY":" ","HOUSE_NO":"４７６號","E_COORD97":171332.64999999999,"N_COORD97":2547165.77,"ADDRESS":"東橋三路４７６號","OBJECTID":305603},"geometry":{"x":171332.6500000013,"y":2547165.7700000014}},{"attributes":{"ID":305612,"DIS_CODE":0,"TOWNNAME":"玉井區","LI":"三埔里","LIN":"4鄰","STREET":" ","SECT":" ","MAREA":"三埔","LANE":" ","ALLEY":" ","HOUSE_NO":"３７號之１","E_COORD97":197428.48000000001,"N_COORD97":2554671.2799999998,"ADDRESS":"三埔３７號之１","OBJECTID":305604},"geometry":{"x":197428.48000000045,"y":2554671.2800000012}},{"attributes":{"ID":305613,"DIS_CODE":0,"TOWNNAME":"玉井區","LI":"三埔里","LIN":"13鄰","STREET":" ","SECT":" ","MAREA":"三埔","LANE":" ","ALLEY":" ","HOUSE_NO":"３之８號","E_COORD97":196567.07999999999,"N_COORD97":2555588.29,"ADDRESS":"三埔３之８號","OBJECTID":305605},"geometry":{"x":196567.08000000101,"y":2555588.2899999991}},{"attributes":{"ID":305614,"DIS_CODE":0,"TOWNNAME":"歸仁區","LI":"六甲里","LIN":"18鄰","STREET":"六甲路","SECT":" ","MAREA":" ","LANE":"３４１巷","ALLEY":" ","HOUSE_NO":"２號","E_COORD97":175672.27004199999,"N_COORD97":2539196.68151,"ADDRESS":"六甲路３４１巷２號","OBJECTID":305606},"geometry":{"x":175672.27004200034,"y":2539196.6815099996}},{"attributes":{"ID":305615,"DIS_CODE":0,"TOWNNAME":"北區","LI":"成德里","LIN":"41鄰","STREET":"育德二路","SECT":" ","MAREA":" ","LANE":"３４５巷","ALLEY":" ","HOUSE_NO":"３０號","E_COORD97":168226.95000000001,"N_COORD97":2546220.6400000001,"ADDRESS":"育德二路３４５巷３０號","OBJECTID":305607},"geometry":{"x":168226.95000000019,"y":2546220.6399999987}},{"attributes":{"ID":305616,"DIS_CODE":0,"TOWNNAME":"北區","LI":"成德里","LIN":"41鄰","STREET":"育德二路","SECT":" ","MAREA":" ","LANE":"３４５巷","ALLEY":" ","HOUSE_NO":"２８號","E_COORD97":168231.78,"N_COORD97":2546221.3999999999,"ADDRESS":"育德二路３４５巷２８號","OBJECTID":305608},"geometry":{"x":168231.78000000026,"y":2546221.4000000004}},{"attributes":{"ID":305617,"DIS_CODE":0,"TOWNNAME":"北區","LI":"成德里","LIN":"41鄰","STREET":"育德二路","SECT":" ","MAREA":" ","LANE":"３４５巷","ALLEY":" ","HOUSE_NO":"２６號","E_COORD97":168237.87,"N_COORD97":2546221.5299999998,"ADDRESS":"育德二路３４５巷２６號","OBJECTID":305609},"geometry":{"x":168237.87000000011,"y":2546221.5300000012}},{"attributes":{"ID":305618,"DIS_CODE":0,"TOWNNAME":"北區","LI":"成德里","LIN":"41鄰","STREET":"育德二路","SECT":" ","MAREA":" ","LANE":"３４５巷","ALLEY":" ","HOUSE_NO":"１８號","E_COORD97":168255.01999999999,"N_COORD97":2546222.9300000002,"ADDRESS":"育德二路３４５巷１８號","OBJECTID":305610},"geometry":{"x":168255.02000000142,"y":2546222.9300000016}},{"attributes":{"ID":305619,"DIS_CODE":0,"TOWNNAME":"北區","LI":"大和里","LIN":"17鄰","STREET":"文賢路","SECT":" ","MAREA":" ","LANE":"８３３巷","ALLEY":" ","HOUSE_NO":"６號","E_COORD97":167273.62,"N_COORD97":2546386.5600000001,"ADDRESS":"文賢路８３３巷６號","OBJECTID":305611},"geometry":{"x":167273.62000000104,"y":2546386.5600000005}},{"attributes":{"ID":305620,"DIS_CODE":0,"TOWNNAME":"北區","LI":"大和里","LIN":"17鄰","STREET":"文賢路","SECT":" ","MAREA":" ","LANE":"８３３巷","ALLEY":" ","HOUSE_NO":"８號","E_COORD97":167269.54999999999,"N_COORD97":2546385.9300000002,"ADDRESS":"文賢路８３３巷８號","OBJECTID":305612},"geometry":{"x":167269.54999999981,"y":2546385.9299999997}},{"attributes":{"ID":305621,"DIS_CODE":0,"TOWNNAME":"北區","LI":"成德里","LIN":"12鄰","STREET":"海安路","SECT":"三段","MAREA":" ","LANE":"３３８巷","ALLEY":" ","HOUSE_NO":"７７號","E_COORD97":168201.37,"N_COORD97":2545510.0499999998,"ADDRESS":"海安路三段３３８巷７７號","OBJECTID":305613},"geometry":{"x":168201.37000000104,"y":2545510.0500000026}},{"attributes":{"ID":305622,"DIS_CODE":0,"TOWNNAME":"北區","LI":"國興里","LIN":"11鄰","STREET":"開元路","SECT":" ","MAREA":" ","LANE":"３９４巷","ALLEY":" ","HOUSE_NO":"５５號","E_COORD97":170659.28,"N_COORD97":2545529.8599999999,"ADDRESS":"開元路３９４巷５５號","OBJECTID":305614},"geometry":{"x":170659.28000000026,"y":2545529.8600000031}},{"attributes":{"ID":305623,"DIS_CODE":0,"TOWNNAME":"永康區","LI":"東橋里","LIN":"17鄰","STREET":"東橋三路","SECT":" ","MAREA":" ","LANE":" ","ALLEY":" ","HOUSE_NO":"４７８號","E_COORD97":171329.04000000001,"N_COORD97":2547169.0899999999,"ADDRESS":"東橋三路４７８號","OBJECTID":305615},"geometry":{"x":171329.04000000097,"y":2547169.0899999999}},{"attributes":{"ID":305624,"DIS_CODE":0,"TOWNNAME":"永康區","LI":"東橋里","LIN":"17鄰","STREET":"東橋三路","SECT":" ","MAREA":" ","LANE":" ","ALLEY":" ","HOUSE_NO":"４８０號","E_COORD97":171326.48000000001,"N_COORD97":2547173.4100000001,"ADDRESS":"東橋三路４８０號","OBJECTID":305616},"geometry":{"x":171326.48000000138,"y":2547173.4100000001}},{"attributes":{"ID":305625,"DIS_CODE":0,"TOWNNAME":"永康區","LI":"東橋里","LIN":"17鄰","STREET":"東橋三路","SECT":" ","MAREA":" ","LANE":" ","ALLEY":" ","HOUSE_NO":"４８６號","E_COORD97":171320.45999999999,"N_COORD97":2547183.5800000001,"ADDRESS":"東橋三路４８６號","OBJECTID":305617},"geometry":{"x":171320.45999999996,"y":2547183.5800000038}},{"attributes":{"ID":305626,"DIS_CODE":0,"TOWNNAME":"永康區","LI":"東橋里","LIN":"17鄰","STREET":"東橋三路","SECT":" ","MAREA":" ","LANE":" ","ALLEY":" ","HOUSE_NO":"４８８號","E_COORD97":171318.22,"N_COORD97":2547187.3500000001,"ADDRESS":"東橋三路４８８號","OBJECTID":305618},"geometry":{"x":171318.21999999974,"y":2547187.3499999996}},{"attributes":{"ID":305627,"DIS_CODE":0,"TOWNNAME":"永康區","LI":"東橋里","LIN":"17鄰","STREET":"東橋三路","SECT":" ","MAREA":" ","LANE":" ","ALLEY":" ","HOUSE_NO":"４９０號","E_COORD97":171317.04999999999,"N_COORD97":2547191.8999999999,"ADDRESS":"東橋三路４９０號","OBJECTID":305619},"geometry":{"x":171317.05000000075,"y":2547191.9000000041}},{"attributes":{"ID":305628,"DIS_CODE":0,"TOWNNAME":"永康區","LI":"東橋里","LIN":"17鄰","STREET":"東橋三路","SECT":" ","MAREA":" ","LANE":" ","ALLEY":" ","HOUSE_NO":"４９２號","E_COORD97":171313.84,"N_COORD97":2547194.75,"ADDRESS":"東橋三路４９２號","OBJECTID":305620},"geometry":{"x":171313.84000000078,"y":2547194.75}},{"attributes":{"ID":305629,"DIS_CODE":0,"TOWNNAME":"永康區","LI":"東橋里","LIN":"17鄰","STREET":"東橋三路","SECT":" ","MAREA":" ","LANE":" ","ALLEY":" ","HOUSE_NO":"４９６號","E_COORD97":171311.64999999999,"N_COORD97":2547198.4500000002,"ADDRESS":"東橋三路４９６號","OBJECTID":305621},"geometry":{"x":171311.6500000013,"y":2547198.4500000011}},{"attributes":{"ID":305630,"DIS_CODE":0,"TOWNNAME":"永康區","LI":"東橋里","LIN":"17鄰","STREET":"東橋三路","SECT":" ","MAREA":" ","LANE":" ","ALLEY":" ","HOUSE_NO":"４９８號","E_COORD97":171303.79999999999,"N_COORD97":2547201.6800000002,"ADDRESS":"東橋三路４９８號","OBJECTID":305622},"geometry":{"x":171303.80000000075,"y":2547201.6799999997}},{"attributes":{"ID":305631,"DIS_CODE":0,"TOWNNAME":"永康區","LI":"東橋里","LIN":"17鄰","STREET":"東橋五路","SECT":" ","MAREA":" ","LANE":" ","ALLEY":" ","HOUSE_NO":"３５１號","E_COORD97":171458.44,"N_COORD97":2547175.0800000001,"ADDRESS":"東橋五路３５１號","OBJECTID":305623},"geometry":{"x":171458.44000000041,"y":2547175.0800000019}},{"attributes":{"ID":305632,"DIS_CODE":0,"TOWNNAME":"北區","LI":"文元里","LIN":"26鄰","STREET":"文賢三街","SECT":" ","MAREA":" ","LANE":"２６５巷","ALLEY":" ","HOUSE_NO":"１號","E_COORD97":167792.64000000001,"N_COORD97":2546129.77,"ADDRESS":"文賢三街２６５巷１號","OBJECTID":305624},"geometry":{"x":167792.63999999966,"y":2546129.7699999996}},{"attributes":{"ID":305633,"DIS_CODE":0,"TOWNNAME":"玉井區","LI":"中正里","LIN":"13鄰","STREET":" ","SECT":" ","MAREA":"中正","LANE":" ","ALLEY":" ","HOUSE_NO":"１４０號","E_COORD97":195711.39999999999,"N_COORD97":2560796.2400000002,"ADDRESS":"中正１４０號","OBJECTID":305625},"geometry":{"x":195711.40000000037,"y":2560796.2400000021}},{"attributes":{"ID":305634,"DIS_CODE":0,"TOWNNAME":"玉井區","LI":"沙田里","LIN":"4鄰","STREET":" ","SECT":" ","MAREA":"沙田","LANE":" ","ALLEY":" ","HOUSE_NO":"３１號","E_COORD97":196511.56067000001,"N_COORD97":2556660.3722700002,"ADDRESS":"沙田３１號","OBJECTID":305626},"geometry":{"x":196511.56066999957,"y":2556660.3722719997}},{"attributes":{"ID":305635,"DIS_CODE":0,"TOWNNAME":"玉井區","LI":"望明里","LIN":"4鄰","STREET":" ","SECT":" ","MAREA":"望明","LANE":" ","ALLEY":" ","HOUSE_NO":"４６之５號","E_COORD97":194256.73000000001,"N_COORD97":2556015.29,"ADDRESS":"望明４６之５號","OBJECTID":305627},"geometry":{"x":194256.73000000045,"y":2556015.2899999991}},{"attributes":{"ID":305636,"DIS_CODE":0,"TOWNNAME":"北區","LI":"文元里","LIN":"26鄰","STREET":"文賢三街","SECT":" ","MAREA":" ","LANE":"２６５巷","ALLEY":" ","HOUSE_NO":"３號","E_COORD97":167786.92000000001,"N_COORD97":2546129.6099999999,"ADDRESS":"文賢三街２６５巷３號","OBJECTID":305628},"geometry":{"x":167786.92000000086,"y":2546129.6100000013}},{"attributes":{"ID":305637,"DIS_CODE":0,"TOWNNAME":"新營區","LI":"興業里","LIN":"8鄰","STREET":"公誠街","SECT":" ","MAREA":" ","LANE":"９巷","ALLEY":" ","HOUSE_NO":"１號","E_COORD97":180302.84,"N_COORD97":2578019.77,"ADDRESS":"公誠街９巷１號","OBJECTID":305629},"geometry":{"x":180302.84000000078,"y":2578019.7699999996}},{"attributes":{"ID":305638,"DIS_CODE":0,"TOWNNAME":"新營區","LI":"新北里","LIN":"8鄰","STREET":"三興街","SECT":" ","MAREA":" ","LANE":"２７５巷","ALLEY":" ","HOUSE_NO":"５４號","E_COORD97":179206.22,"N_COORD97":2579662.9100000001,"ADDRESS":"三興街２７５巷５４號","OBJECTID":305630},"geometry":{"x":179206.21999999974,"y":2579662.910000002}},{"attributes":{"ID":305639,"DIS_CODE":0,"TOWNNAME":"新營區","LI":"護鎮里","LIN":"8鄰","STREET":"中正路","SECT":" ","MAREA":" ","LANE":"４７９巷","ALLEY":" ","HOUSE_NO":"１２０號","E_COORD97":179330.09,"N_COORD97":2580500.6600000001,"ADDRESS":"中正路４７９巷１２０號","OBJECTID":305631},"geometry":{"x":179330.09000000078,"y":2580500.6600000039}},{"attributes":{"ID":305640,"DIS_CODE":0,"TOWNNAME":"新營區","LI":"民榮里","LIN":"8鄰","STREET":"興農街","SECT":" ","MAREA":" ","LANE":"４７巷","ALLEY":" ","HOUSE_NO":"４３號","E_COORD97":179306.63,"N_COORD97":2577758.71,"ADDRESS":"興農街４７巷４３號","OBJECTID":305632},"geometry":{"x":179306.62999999989,"y":2577758.7100000028}},{"attributes":{"ID":305641,"DIS_CODE":0,"TOWNNAME":"新營區","LI":"民榮里","LIN":"8鄰","STREET":"興農街","SECT":" ","MAREA":" ","LANE":"４７巷","ALLEY":" ","HOUSE_NO":"３９號","E_COORD97":179294.42999999999,"N_COORD97":2577773.1600000001,"ADDRESS":"興農街４７巷３９號","OBJECTID":305633},"geometry":{"x":179294.4299999997,"y":2577773.1600000001}},{"attributes":{"ID":305642,"DIS_CODE":0,"TOWNNAME":"新營區","LI":"民榮里","LIN":"8鄰","STREET":"興農街","SECT":" ","MAREA":" ","LANE":"４７巷","ALLEY":" ","HOUSE_NO":"４１號","E_COORD97":179301.57000000001,"N_COORD97":2577769.7999999998,"ADDRESS":"興農街４７巷４１號","OBJECTID":305634},"geometry":{"x":179301.57000000123,"y":2577769.8000000007}},{"attributes":{"ID":305643,"DIS_CODE":0,"TOWNNAME":"新營區","LI":"新東里","LIN":"8鄰","STREET":"東泰路","SECT":" ","MAREA":" ","LANE":"１６巷","ALLEY":" ","HOUSE_NO":"１８號","E_COORD97":181189.20000000001,"N_COORD97":2579474.3100000001,"ADDRESS":"東泰路１６巷１８號","OBJECTID":305635},"geometry":{"x":181189.20000000112,"y":2579474.3100000005}},{"attributes":{"ID":305644,"DIS_CODE":0,"TOWNNAME":"永康區","LI":"東橋里","LIN":"17鄰","STREET":"東橋五路","SECT":" ","MAREA":" ","LANE":" ","ALLEY":" ","HOUSE_NO":"３５３號","E_COORD97":171450.85999999999,"N_COORD97":2547181.8500000001,"ADDRESS":"東橋五路３５３號","OBJECTID":305636},"geometry":{"x":171450.86000000127,"y":2547181.8500000015}},{"attributes":{"ID":305645,"DIS_CODE":0,"TOWNNAME":"永康區","LI":"東橋里","LIN":"17鄰","STREET":"東橋五路","SECT":" ","MAREA":" ","LANE":" ","ALLEY":" ","HOUSE_NO":"３５５號","E_COORD97":171446.73999999999,"N_COORD97":2547185.5699999998,"ADDRESS":"東橋五路３５５號","OBJECTID":305637},"geometry":{"x":171446.74000000115,"y":2547185.5700000022}},{"attributes":{"ID":305646,"DIS_CODE":0,"TOWNNAME":"玉井區","LI":"玉井里","LIN":"4鄰","STREET":"憲政街","SECT":" ","MAREA":" ","LANE":"６６巷","ALLEY":" ","HOUSE_NO":"５號","E_COORD97":194506.79999999999,"N_COORD97":2558056.2200000002,"ADDRESS":"憲政街６６巷５號","OBJECTID":305638},"geometry":{"x":194506.80000000168,"y":2558056.2200000044}},{"attributes":{"ID":305647,"DIS_CODE":0,"TOWNNAME":"玉井區","LI":"望明里","LIN":"4鄰","STREET":" ","SECT":" ","MAREA":"望明","LANE":" ","ALLEY":" ","HOUSE_NO":"４６號之１５","E_COORD97":194280.17999999999,"N_COORD97":2555986.29,"ADDRESS":"望明４６號之１５","OBJECTID":305639},"geometry":{"x":194280.1799999997,"y":2555986.290000001}},{"attributes":{"ID":305648,"DIS_CODE":0,"TOWNNAME":"玉井區","LI":"玉井里","LIN":"4鄰","STREET":"憲政街","SECT":" ","MAREA":" ","LANE":"６６巷","ALLEY":" ","HOUSE_NO":"３３號","E_COORD97":194487.48999999999,"N_COORD97":2558104.23,"ADDRESS":"憲政街６６巷３３號","OBJECTID":305640},"geometry":{"x":194487.49000000115,"y":2558104.2300000023}},{"attributes":{"ID":305649,"DIS_CODE":0,"TOWNNAME":"玉井區","LI":"中正里","LIN":"14鄰","STREET":" ","SECT":" ","MAREA":"中正","LANE":" ","ALLEY":" ","HOUSE_NO":"１５３號","E_COORD97":196031.10000000001,"N_COORD97":2560903.2400000002,"ADDRESS":"中正１５３號","OBJECTID":305641},"geometry":{"x":196031.10000000056,"y":2560903.2400000002}},{"attributes":{"ID":305650,"DIS_CODE":0,"TOWNNAME":"玉井區","LI":"中正里","LIN":"14鄰","STREET":" ","SECT":" ","MAREA":"中正","LANE":" ","ALLEY":" ","HOUSE_NO":"１４７號之２","E_COORD97":195822.28,"N_COORD97":2560630.2999999998,"ADDRESS":"中正１４７號之２","OBJECTID":305642},"geometry":{"x":195822.28000000026,"y":2560630.3000000026}},{"attributes":{"ID":305651,"DIS_CODE":0,"TOWNNAME":"新營區","LI":"新東里","LIN":"8鄰","STREET":"東泰路","SECT":" ","MAREA":" ","LANE":"６巷","ALLEY":" ","HOUSE_NO":"１３號","E_COORD97":181176.14999999999,"N_COORD97":2579438.3199999998,"ADDRESS":"東泰路６巷１３號","OBJECTID":305643},"geometry":{"x":181176.1500000013,"y":2579438.320000004}},{"attributes":{"ID":305652,"DIS_CODE":0,"TOWNNAME":"新營區","LI":"新東里","LIN":"8鄰","STREET":"東泰路","SECT":" ","MAREA":" ","LANE":"６巷","ALLEY":" ","HOUSE_NO":"１７號","E_COORD97":181185.23999999999,"N_COORD97":2579438.7000000002,"ADDRESS":"東泰路６巷１７號","OBJECTID":305644},"geometry":{"x":181185.24000000209,"y":2579438.7000000011}},{"attributes":{"ID":305653,"DIS_CODE":0,"TOWNNAME":"新營區","LI":"新東里","LIN":"8鄰","STREET":"東泰路","SECT":" ","MAREA":" ","LANE":"６巷","ALLEY":" ","HOUSE_NO":"１９號","E_COORD97":181191.09,"N_COORD97":2579439.0099999998,"ADDRESS":"東泰路６巷１９號","OBJECTID":305645},"geometry":{"x":181191.09000000078,"y":2579439.0099999998}},{"attributes":{"ID":305654,"DIS_CODE":0,"TOWNNAME":"楠西區","LI":"東勢里","LIN":"8鄰","STREET":"忠孝路","SECT":" ","MAREA":" ","LANE":"５１巷","ALLEY":" ","HOUSE_NO":"３號","E_COORD97":197633.59,"N_COORD97":2564125.25,"ADDRESS":"忠孝路５１巷３號","OBJECTID":305646},"geometry":{"x":197633.58999999985,"y":2564125.2500000019}},{"attributes":{"ID":305655,"DIS_CODE":0,"TOWNNAME":"楠西區","LI":"東勢里","LIN":"8鄰","STREET":"忠孝路","SECT":" ","MAREA":" ","LANE":"５１巷","ALLEY":" ","HOUSE_NO":"１６號","E_COORD97":197639.44,"N_COORD97":2564107.25,"ADDRESS":"忠孝路５１巷１６號","OBJECTID":305647},"geometry":{"x":197639.44000000134,"y":2564107.2500000037}},{"attributes":{"ID":305656,"DIS_CODE":0,"TOWNNAME":"玉井區","LI":"望明里","LIN":"4鄰","STREET":" ","SECT":" ","MAREA":"望明","LANE":" ","ALLEY":" ","HOUSE_NO":"４１之１９號","E_COORD97":194324.29000000001,"N_COORD97":2555960.2999999998,"ADDRESS":"望明４１之１９號","OBJECTID":305648},"geometry":{"x":194324.29000000097,"y":2555960.2999999989}},{"attributes":{"ID":305657,"DIS_CODE":0,"TOWNNAME":"玉井區","LI":"望明里","LIN":"4鄰","STREET":" ","SECT":" ","MAREA":"望明","LANE":" ","ALLEY":" ","HOUSE_NO":"４１之５號","E_COORD97":194327.23000000001,"N_COORD97":2556027.29,"ADDRESS":"望明４１之５號","OBJECTID":305649},"geometry":{"x":194327.23000000138,"y":2556027.290000001}},{"attributes":{"ID":305658,"DIS_CODE":0,"TOWNNAME":"玉井區","LI":"望明里","LIN":"4鄰","STREET":" ","SECT":" ","MAREA":"望明","LANE":" ","ALLEY":" ","HOUSE_NO":"４１之１０號","E_COORD97":194317.29000000001,"N_COORD97":2556001.29,"ADDRESS":"望明４１之１０號","OBJECTID":305650},"geometry":{"x":194317.2900000019,"y":2556001.2899999991}},{"attributes":{"ID":305659,"DIS_CODE":0,"TOWNNAME":"玉井區","LI":"望明里","LIN":"4鄰","STREET":" ","SECT":" ","MAREA":"望明","LANE":" ","ALLEY":" ","HOUSE_NO":"４１號之１","E_COORD97":194341.07000000001,"N_COORD97":2555981.2999999998,"ADDRESS":"望明４１號之１","OBJECTID":305651},"geometry":{"x":194341.07000000216,"y":2555981.3000000026}},{"attributes":{"ID":305660,"DIS_CODE":0,"TOWNNAME":"楠西區","LI":"東勢里","LIN":"8鄰","STREET":"東勢路","SECT":" ","MAREA":" ","LANE":"１２６巷","ALLEY":" ","HOUSE_NO":"９號","E_COORD97":197511.67000000001,"N_COORD97":2564081.29,"ADDRESS":"東勢路１２６巷９號","OBJECTID":305652},"geometry":{"x":197511.67000000179,"y":2564081.2899999991}},{"attributes":{"ID":305661,"DIS_CODE":0,"TOWNNAME":"楠西區","LI":"楠西里","LIN":"8鄰","STREET":"中興路","SECT":" ","MAREA":" ","LANE":"４８巷","ALLEY":" ","HOUSE_NO":"１號","E_COORD97":197233.31,"N_COORD97":2564213.25,"ADDRESS":"中興路４８巷１號","OBJECTID":305653},"geometry":{"x":197233.30999999959,"y":2564213.2500000019}},{"attributes":{"ID":305662,"DIS_CODE":0,"TOWNNAME":"楠西區","LI":"楠西里","LIN":"8鄰","STREET":"中興路","SECT":" ","MAREA":" ","LANE":"４８巷","ALLEY":" ","HOUSE_NO":"５號","E_COORD97":197229.20999999999,"N_COORD97":2564198.25,"ADDRESS":"中興路４８巷５號","OBJECTID":305654},"geometry":{"x":197229.21000000089,"y":2564198.25}},{"attributes":{"ID":305663,"DIS_CODE":0,"TOWNNAME":"玉井區","LI":"層林里","LIN":"4鄰","STREET":" ","SECT":" ","MAREA":"層林","LANE":" ","ALLEY":" ","HOUSE_NO":"５１之１號","E_COORD97":191111.37,"N_COORD97":2551668.29,"ADDRESS":"層林５１之１號","OBJECTID":305655},"geometry":{"x":191111.37000000104,"y":2551668.290000001}},{"attributes":{"ID":305664,"DIS_CODE":0,"TOWNNAME":"玉井區","LI":"望明里","LIN":"4鄰","STREET":" ","SECT":" ","MAREA":"望明","LANE":" ","ALLEY":" ","HOUSE_NO":"４１號之１４","E_COORD97":194316.95000000001,"N_COORD97":2555981.2999999998,"ADDRESS":"望明４１號之１４","OBJECTID":305656},"geometry":{"x":194316.95000000112,"y":2555981.3000000026}},{"attributes":{"ID":305665,"DIS_CODE":0,"TOWNNAME":"玉井區","LI":"三和里","LIN":"4鄰","STREET":" ","SECT":" ","MAREA":"三和","LANE":" ","ALLEY":" ","HOUSE_NO":"４８之２４號","E_COORD97":194798.88,"N_COORD97":2555552.2999999998,"ADDRESS":"三和４８之２４號","OBJECTID":305657},"geometry":{"x":194798.87999999989,"y":2555552.3000000007}},{"attributes":{"ID":305666,"DIS_CODE":0,"TOWNNAME":"玉井區","LI":"三埔里","LIN":"4鄰","STREET":" ","SECT":" ","MAREA":"三埔","LANE":" ","ALLEY":" ","HOUSE_NO":"３８號之４","E_COORD97":197487.39000000001,"N_COORD97":2554771.2799999998,"ADDRESS":"三埔３８號之４","OBJECTID":305658},"geometry":{"x":197487.38999999966,"y":2554771.2799999993}},{"attributes":{"ID":305667,"DIS_CODE":0,"TOWNNAME":"新化區","LI":"東榮里","LIN":"8鄰","STREET":"信義路","SECT":" ","MAREA":" ","LANE":"１１７巷","ALLEY":" ","HOUSE_NO":"２８號之３５","E_COORD97":179731.19,"N_COORD97":2548295.2599999998,"ADDRESS":"信義路１１７巷２８號之３５","OBJECTID":305659},"geometry":{"x":179731.18999999948,"y":2548295.2600000016}},{"attributes":{"ID":305668,"DIS_CODE":0,"TOWNNAME":"新化區","LI":"太平里","LIN":"8鄰","STREET":"中正路","SECT":" ","MAREA":" ","LANE":"６６２巷","ALLEY":" ","HOUSE_NO":"５３號","E_COORD97":178755.16,"N_COORD97":2549429.25,"ADDRESS":"中正路６６２巷５３號","OBJECTID":305660},"geometry":{"x":178755.16000000108,"y":2549429.25}},{"attributes":{"ID":305669,"DIS_CODE":0,"TOWNNAME":"永康區","LI":"東橋里","LIN":"17鄰","STREET":"東橋五路","SECT":" ","MAREA":" ","LANE":" ","ALLEY":" ","HOUSE_NO":"３５７號","E_COORD97":171446.79000000001,"N_COORD97":2547191.0899999999,"ADDRESS":"東橋五路３５７號","OBJECTID":305661},"geometry":{"x":171446.79000000004,"y":2547191.0900000017}},{"attributes":{"ID":305670,"DIS_CODE":0,"TOWNNAME":"永康區","LI":"東橋里","LIN":"17鄰","STREET":"東橋五路","SECT":" ","MAREA":" ","LANE":" ","ALLEY":" ","HOUSE_NO":"３５９號","E_COORD97":171444.32000000001,"N_COORD97":2547195.4500000002,"ADDRESS":"東橋五路３５９號","OBJECTID":305662},"geometry":{"x":171444.32000000123,"y":2547195.4500000011}},{"attributes":{"ID":305671,"DIS_CODE":0,"TOWNNAME":"玉井區","LI":"望明里","LIN":"4鄰","STREET":" ","SECT":" ","MAREA":"望明","LANE":" ","ALLEY":" ","HOUSE_NO":"４６之１０號","E_COORD97":194279.79000000001,"N_COORD97":2556008.29,"ADDRESS":"望明４６之１０號","OBJECTID":305663},"geometry":{"x":194279.79000000004,"y":2556008.2899999991}},{"attributes":{"ID":305672,"DIS_CODE":0,"TOWNNAME":"玉井區","LI":"竹圍里","LIN":"13鄰","STREET":" ","SECT":" ","MAREA":"竹圍","LANE":" ","ALLEY":" ","HOUSE_NO":"１３４之２號","E_COORD97":196823.07999999999,"N_COORD97":2559209.8100000001,"ADDRESS":"竹圍１３４之２號","OBJECTID":305664},"geometry":{"x":196823.08000000101,"y":2559209.8100000024}},{"attributes":{"ID":305673,"DIS_CODE":0,"TOWNNAME":"玉井區","LI":"三埔里","LIN":"4鄰","STREET":" ","SECT":" ","MAREA":"三埔","LANE":" ","ALLEY":" ","HOUSE_NO":"３８之８號","E_COORD97":197563.73000000001,"N_COORD97":2554895.29,"ADDRESS":"三埔３８之８號","OBJECTID":305665},"geometry":{"x":197563.73000000045,"y":2554895.290000001}},{"attributes":{"ID":305674,"DIS_CODE":0,"TOWNNAME":"玉井區","LI":"豐里里","LIN":"4鄰","STREET":" ","SECT":" ","MAREA":"豐里","LANE":" ","ALLEY":" ","HOUSE_NO":"３５號之１","E_COORD97":193098.59,"N_COORD97":2558129.2999999998,"ADDRESS":"豐里３５號之１","OBJECTID":305666},"geometry":{"x":193098.59000000078,"y":2558129.3000000007}},{"attributes":{"ID":305675,"DIS_CODE":0,"TOWNNAME":"玉井區","LI":"望明里","LIN":"14鄰","STREET":" ","SECT":" ","MAREA":"望明","LANE":" ","ALLEY":" ","HOUSE_NO":"１５４號之２","E_COORD97":192542.95000000001,"N_COORD97":2555869.2999999998,"ADDRESS":"望明１５４號之２","OBJECTID":305667},"geometry":{"x":192542.95000000019,"y":2555869.3000000026}},{"attributes":{"ID":305676,"DIS_CODE":0,"TOWNNAME":"玉井區","LI":"望明里","LIN":"8鄰","STREET":" ","SECT":" ","MAREA":"望明","LANE":" ","ALLEY":" ","HOUSE_NO":"８９號之１５","E_COORD97":193542.67999999999,"N_COORD97":2556455.2999999998,"ADDRESS":"望明８９號之１５","OBJECTID":305668},"geometry":{"x":193542.6799999997,"y":2556455.2999999989}},{"attributes":{"ID":305677,"DIS_CODE":0,"TOWNNAME":"玉井區","LI":"竹圍里","LIN":"4鄰","STREET":" ","SECT":" ","MAREA":"竹圍","LANE":" ","ALLEY":" ","HOUSE_NO":"３０之３號","E_COORD97":196052.60999999999,"N_COORD97":2558396.4100000001,"ADDRESS":"竹圍３０之３號","OBJECTID":305669},"geometry":{"x":196052.61000000034,"y":2558396.4100000001}},{"attributes":{"ID":305678,"DIS_CODE":0,"TOWNNAME":"玉井區","LI":"玉田里","LIN":"43鄰","STREET":"大成路","SECT":" ","MAREA":" ","LANE":"１６１巷","ALLEY":" ","HOUSE_NO":"１號","E_COORD97":195632.26000000001,"N_COORD97":2557885.2599999998,"ADDRESS":"大成路１６１巷１號","OBJECTID":305670},"geometry":{"x":195632.25999999978,"y":2557885.2599999979}},{"attributes":{"ID":305679,"DIS_CODE":0,"TOWNNAME":"玉井區","LI":"望明里","LIN":"5鄰","STREET":" ","SECT":" ","MAREA":"望明","LANE":" ","ALLEY":" ","HOUSE_NO":"５１之１號","E_COORD97":194189.63,"N_COORD97":2556071.2999999998,"ADDRESS":"望明５１之１號","OBJECTID":305671},"geometry":{"x":194189.63000000082,"y":2556071.3000000007}},{"attributes":{"ID":305680,"DIS_CODE":0,"TOWNNAME":"玉井區","LI":"望明里","LIN":"4鄰","STREET":" ","SECT":" ","MAREA":"望明","LANE":" ","ALLEY":" ","HOUSE_NO":"４２號","E_COORD97":194304.14000000001,"N_COORD97":2556025.2400000002,"ADDRESS":"望明４２號","OBJECTID":305672},"geometry":{"x":194304.13999999966,"y":2556025.2400000021}},{"attributes":{"ID":305681,"DIS_CODE":0,"TOWNNAME":"玉井區","LI":"層林里","LIN":"4鄰","STREET":" ","SECT":" ","MAREA":"層林","LANE":" ","ALLEY":" ","HOUSE_NO":"４７號","E_COORD97":191618.17000000001,"N_COORD97":2552172.2400000002,"ADDRESS":"層林４７號","OBJECTID":305673},"geometry":{"x":191618.17000000086,"y":2552172.2400000002}},{"attributes":{"ID":305682,"DIS_CODE":0,"TOWNNAME":"新化區","LI":"東榮里","LIN":"8鄰","STREET":"信義路","SECT":" ","MAREA":" ","LANE":"１１７巷","ALLEY":" ","HOUSE_NO":"２８號之８１","E_COORD97":179840.45999999999,"N_COORD97":2548272.2599999998,"ADDRESS":"信義路１１７巷２８號之８１","OBJECTID":305674},"geometry":{"x":179840.45999999996,"y":2548272.2599999998}},{"attributes":{"ID":305683,"DIS_CODE":0,"TOWNNAME":"新化區","LI":"東榮里","LIN":"8鄰","STREET":"信義路","SECT":" ","MAREA":" ","LANE":"１１７巷","ALLEY":" ","HOUSE_NO":"７１號之５","E_COORD97":179732.14000000001,"N_COORD97":2548259.2599999998,"ADDRESS":"信義路１１７巷７１號之５","OBJECTID":305675},"geometry":{"x":179732.13999999966,"y":2548259.2599999998}},{"attributes":{"ID":305684,"DIS_CODE":0,"TOWNNAME":"新化區","LI":"東榮里","LIN":"8鄰","STREET":"信義路","SECT":" ","MAREA":" ","LANE":"１１７巷","ALLEY":" ","HOUSE_NO":"２８號之１４","E_COORD97":179784.16,"N_COORD97":2548305.2599999998,"ADDRESS":"信義路１１７巷２８號之１４","OBJECTID":305676},"geometry":{"x":179784.16000000108,"y":2548305.2600000016}},{"attributes":{"ID":305685,"DIS_CODE":0,"TOWNNAME":"永康區","LI":"東橋里","LIN":"17鄰","STREET":"東橋五路","SECT":" ","MAREA":" ","LANE":" ","ALLEY":" ","HOUSE_NO":"３６１號","E_COORD97":171441.42000000001,"N_COORD97":2547200.5899999999,"ADDRESS":"東橋五路３６１號","OBJECTID":305677},"geometry":{"x":171441.42000000179,"y":2547200.5900000017}},{"attributes":{"ID":305686,"DIS_CODE":0,"TOWNNAME":"玉井區","LI":"沙田里","LIN":"5鄰","STREET":" ","SECT":" ","MAREA":"沙田","LANE":" ","ALLEY":" ","HOUSE_NO":"４５之８號","E_COORD97":197308.87,"N_COORD97":2556614.29,"ADDRESS":"沙田４５之８號","OBJECTID":305678},"geometry":{"x":197308.87000000197,"y":2556614.290000001}},{"attributes":{"ID":305687,"DIS_CODE":0,"TOWNNAME":"玉井區","LI":"竹圍里","LIN":"4鄰","STREET":" ","SECT":" ","MAREA":"竹圍","LANE":" ","ALLEY":" ","HOUSE_NO":"３０號之２","E_COORD97":196176.35000000001,"N_COORD97":2558437.27,"ADDRESS":"竹圍３０號之２","OBJECTID":305679},"geometry":{"x":196176.35000000056,"y":2558437.2699999996}},{"attributes":{"ID":305688,"DIS_CODE":0,"TOWNNAME":"玉井區","LI":"竹圍里","LIN":"14鄰","STREET":" ","SECT":" ","MAREA":"竹圍","LANE":" ","ALLEY":" ","HOUSE_NO":"１４９號","E_COORD97":197208.20000000001,"N_COORD97":2560009.9500000002,"ADDRESS":"竹圍１４９號","OBJECTID":305680},"geometry":{"x":197208.20000000019,"y":2560009.9500000011}},{"attributes":{"ID":305689,"DIS_CODE":0,"TOWNNAME":"玉井區","LI":"竹圍里","LIN":"14鄰","STREET":" ","SECT":" ","MAREA":"竹圍","LANE":" ","ALLEY":" ","HOUSE_NO":"１４１之１號","E_COORD97":197045.35999999999,"N_COORD97":2559942.9199999999,"ADDRESS":"竹圍１４１之１號","OBJECTID":305681},"geometry":{"x":197045.36000000127,"y":2559942.9200000018}},{"attributes":{"ID":305690,"DIS_CODE":0,"TOWNNAME":"玉井區","LI":"竹圍里","LIN":"14鄰","STREET":" ","SECT":" ","MAREA":"竹圍","LANE":" ","ALLEY":" ","HOUSE_NO":"１４０號","E_COORD97":196955.63,"N_COORD97":2560063.8900000001,"ADDRESS":"竹圍１４０號","OBJECTID":305682},"geometry":{"x":196955.62999999989,"y":2560063.8900000006}},{"attributes":{"ID":305691,"DIS_CODE":0,"TOWNNAME":"玉井區","LI":"玉田里","LIN":"25鄰","STREET":"信義街","SECT":" ","MAREA":" ","LANE":"２２巷","ALLEY":" ","HOUSE_NO":"１１號","E_COORD97":195168.57000000001,"N_COORD97":2557605.27,"ADDRESS":"信義街２２巷１１號","OBJECTID":305683},"geometry":{"x":195168.57000000123,"y":2557605.2700000014}},{"attributes":{"ID":305692,"DIS_CODE":0,"TOWNNAME":"玉井區","LI":"竹圍里","LIN":"4鄰","STREET":"忠孝街","SECT":" ","MAREA":" ","LANE":"６６８巷","ALLEY":" ","HOUSE_NO":"２８號","E_COORD97":195715.91,"N_COORD97":2558380.1000000001,"ADDRESS":"忠孝街６６８巷２８號","OBJECTID":305684},"geometry":{"x":195715.91000000108,"y":2558380.0999999996}},{"attributes":{"ID":305693,"DIS_CODE":0,"TOWNNAME":"玉井區","LI":"竹圍里","LIN":"4鄰","STREET":"大成路","SECT":" ","MAREA":" ","LANE":"３０９巷","ALLEY":" ","HOUSE_NO":"２號","E_COORD97":195628.53,"N_COORD97":2558318.6400000001,"ADDRESS":"大成路３０９巷２號","OBJECTID":305685},"geometry":{"x":195628.53000000119,"y":2558318.6400000025}},{"attributes":{"ID":305694,"DIS_CODE":0,"TOWNNAME":"玉井區","LI":"竹圍里","LIN":"4鄰","STREET":"大成路","SECT":" ","MAREA":" ","LANE":"３０９巷","ALLEY":" ","HOUSE_NO":"５號","E_COORD97":195602.73999999999,"N_COORD97":2558296.4700000002,"ADDRESS":"大成路３０９巷５號","OBJECTID":305686},"geometry":{"x":195602.74000000209,"y":2558296.4700000025}},{"attributes":{"ID":305695,"DIS_CODE":0,"TOWNNAME":"玉井區","LI":"竹圍里","LIN":"4鄰","STREET":"忠孝街","SECT":" ","MAREA":" ","LANE":"６６８巷","ALLEY":" ","HOUSE_NO":"２６號","E_COORD97":195727.20000000001,"N_COORD97":2558387.8100000001,"ADDRESS":"忠孝街６６８巷２６號","OBJECTID":305687},"geometry":{"x":195727.20000000112,"y":2558387.8100000042}},{"attributes":{"ID":305696,"DIS_CODE":0,"TOWNNAME":"玉井區","LI":"竹圍里","LIN":"4鄰","STREET":"大成路","SECT":" ","MAREA":" ","LANE":"３３０巷","ALLEY":" ","HOUSE_NO":"２９號","E_COORD97":195674.98000000001,"N_COORD97":2558463.5600000001,"ADDRESS":"大成路３３０巷２９號","OBJECTID":305688},"geometry":{"x":195674.98000000138,"y":2558463.5600000005}},{"attributes":{"ID":305697,"DIS_CODE":0,"TOWNNAME":"永康區","LI":"埔園里","LIN":"17鄰","STREET":"龍埔街","SECT":" ","MAREA":" ","LANE":" ","ALLEY":" ","HOUSE_NO":"５６４號","E_COORD97":173432.10999999999,"N_COORD97":2548406.3399999999,"ADDRESS":"龍埔街５６４號","OBJECTID":305689},"geometry":{"x":173432.11000000034,"y":2548406.3400000017}},{"attributes":{"ID":305698,"DIS_CODE":0,"TOWNNAME":"永康區","LI":"烏竹里","LIN":"17鄰","STREET":"竹南街","SECT":" ","MAREA":" ","LANE":" ","ALLEY":" ","HOUSE_NO":"５８號","E_COORD97":174468.88,"N_COORD97":2548764.75,"ADDRESS":"竹南街５８號","OBJECTID":305690},"geometry":{"x":174468.87999999989,"y":2548764.75}},{"attributes":{"ID":305699,"DIS_CODE":0,"TOWNNAME":"永康區","LI":"烏竹里","LIN":"17鄰","STREET":"竹南街","SECT":" ","MAREA":" ","LANE":" ","ALLEY":" ","HOUSE_NO":"６０號","E_COORD97":174461.5,"N_COORD97":2548763.98,"ADDRESS":"竹南街６０號","OBJECTID":305691},"geometry":{"x":174461.5,"y":2548763.9800000004}},{"attributes":{"ID":305700,"DIS_CODE":0,"TOWNNAME":"永康區","LI":"烏竹里","LIN":"17鄰","STREET":"竹南街","SECT":" ","MAREA":" ","LANE":" ","ALLEY":" ","HOUSE_NO":"６２號","E_COORD97":174456.41,"N_COORD97":2548760.7599999998,"ADDRESS":"竹南街６２號","OBJECTID":305692},"geometry":{"x":174456.41000000108,"y":2548760.7599999998}},{"attributes":{"ID":305701,"DIS_CODE":0,"TOWNNAME":"永康區","LI":"東橋里","LIN":"17鄰","STREET":"東橋一路","SECT":" ","MAREA":" ","LANE":" ","ALLEY":" ","HOUSE_NO":"５３６號","E_COORD97":171368.10999999999,"N_COORD97":2547234.9500000002,"ADDRESS":"東橋一路５３６號","OBJECTID":305693},"geometry":{"x":171368.11000000127,"y":2547234.9500000011}},{"attributes":{"ID":305702,"DIS_CODE":0,"TOWNNAME":"永康區","LI":"東橋里","LIN":"17鄰","STREET":"東橋一路","SECT":" ","MAREA":" ","LANE":" ","ALLEY":" ","HOUSE_NO":"５３８號","E_COORD97":171371.82999999999,"N_COORD97":2547237.27,"ADDRESS":"東橋一路５３８號","OBJECTID":305694},"geometry":{"x":171371.83000000007,"y":2547237.2700000014}},{"attributes":{"ID":305703,"DIS_CODE":0,"TOWNNAME":"永康區","LI":"東橋里","LIN":"17鄰","STREET":"東橋一路","SECT":" ","MAREA":" ","LANE":" ","ALLEY":" ","HOUSE_NO":"５４０號","E_COORD97":171375.51000000001,"N_COORD97":2547239.5699999998,"ADDRESS":"東橋一路５４０號","OBJECTID":305695},"geometry":{"x":171375.50999999978,"y":2547239.5700000022}},{"attributes":{"ID":305704,"DIS_CODE":0,"TOWNNAME":"玉井區","LI":"竹圍里","LIN":"14鄰","STREET":" ","SECT":" ","MAREA":"竹圍","LANE":" ","ALLEY":" ","HOUSE_NO":"１４３之２號","E_COORD97":197074.79000000001,"N_COORD97":2560051.2799999998,"ADDRESS":"竹圍１４３之２號","OBJECTID":305696},"geometry":{"x":197074.79000000004,"y":2560051.2800000031}},{"attributes":{"ID":305705,"DIS_CODE":0,"TOWNNAME":"玉井區","LI":"竹圍里","LIN":"14鄰","STREET":" ","SECT":" ","MAREA":"竹圍","LANE":" ","ALLEY":" ","HOUSE_NO":"１４７號","E_COORD97":197144.35999999999,"N_COORD97":2560027.4500000002,"ADDRESS":"竹圍１４７號","OBJECTID":305697},"geometry":{"x":197144.36000000034,"y":2560027.4500000011}},{"attributes":{"ID":305706,"DIS_CODE":0,"TOWNNAME":"玉井區","LI":"竹圍里","LIN":"14鄰","STREET":" ","SECT":" ","MAREA":"竹圍","LANE":" ","ALLEY":" ","HOUSE_NO":"１４６號","E_COORD97":197112.98000000001,"N_COORD97":2559962,"ADDRESS":"竹圍１４６號","OBJECTID":305698},"geometry":{"x":197112.98000000045,"y":2559962}},{"attributes":{"ID":305707,"DIS_CODE":0,"TOWNNAME":"玉井區","LI":"竹圍里","LIN":"14鄰","STREET":" ","SECT":" ","MAREA":"竹圍","LANE":" ","ALLEY":" ","HOUSE_NO":"１８２號","E_COORD97":196204.34,"N_COORD97":2559522.6000000001,"ADDRESS":"竹圍１８２號","OBJECTID":305699},"geometry":{"x":196204.34000000078,"y":2559522.5999999996}},{"attributes":{"ID":305708,"DIS_CODE":0,"TOWNNAME":"玉井區","LI":"竹圍里","LIN":"14鄰","STREET":" ","SECT":" ","MAREA":"竹圍","LANE":" ","ALLEY":" ","HOUSE_NO":"１４５號","E_COORD97":197110.84,"N_COORD97":2559995.3399999999,"ADDRESS":"竹圍１４５號","OBJECTID":305700},"geometry":{"x":197110.84000000078,"y":2559995.3400000017}},{"attributes":{"ID":305709,"DIS_CODE":0,"TOWNNAME":"玉井區","LI":"竹圍里","LIN":"4鄰","STREET":"大成路","SECT":" ","MAREA":" ","LANE":"３０９巷","ALLEY":" ","HOUSE_NO":"１０號","E_COORD97":195600.17999999999,"N_COORD97":2558318.3100000001,"ADDRESS":"大成路３０９巷１０號","OBJECTID":305701},"geometry":{"x":195600.1799999997,"y":2558318.3100000005}},{"attributes":{"ID":305710,"DIS_CODE":0,"TOWNNAME":"玉井區","LI":"望明里","LIN":"4鄰","STREET":" ","SECT":" ","MAREA":"望明","LANE":" ","ALLEY":" ","HOUSE_NO":"４６號","E_COORD97":194259.13,"N_COORD97":2556034.2400000002,"ADDRESS":"望明４６號","OBJECTID":305702},"geometry":{"x":194259.13000000082,"y":2556034.2400000002}},{"attributes":{"ID":305711,"DIS_CODE":0,"TOWNNAME":"玉井區","LI":"竹圍里","LIN":"4鄰","STREET":"大成路","SECT":" ","MAREA":" ","LANE":"３０９巷","ALLEY":" ","HOUSE_NO":"６號","E_COORD97":195618.79999999999,"N_COORD97":2558318.1299999999,"ADDRESS":"大成路３０９巷６號","OBJECTID":305703},"geometry":{"x":195618.79999999888,"y":2558318.129999999}},{"attributes":{"ID":305712,"DIS_CODE":0,"TOWNNAME":"玉井區","LI":"望明里","LIN":"4鄰","STREET":" ","SECT":" ","MAREA":"望明","LANE":" ","ALLEY":" ","HOUSE_NO":"４１之８號","E_COORD97":194316.34,"N_COORD97":2556011.29,"ADDRESS":"望明４１之８號","OBJECTID":305704},"geometry":{"x":194316.33999999985,"y":2556011.290000001}},{"attributes":{"ID":305713,"DIS_CODE":0,"TOWNNAME":"玉井區","LI":"望明里","LIN":"4鄰","STREET":" ","SECT":" ","MAREA":"望明","LANE":" ","ALLEY":" ","HOUSE_NO":"４１之１８號","E_COORD97":194321.38,"N_COORD97":2555963.2999999998,"ADDRESS":"望明４１之１８號","OBJECTID":305705},"geometry":{"x":194321.37999999989,"y":2555963.3000000007}},{"attributes":{"ID":305714,"DIS_CODE":0,"TOWNNAME":"玉井區","LI":"竹圍里","LIN":"4鄰","STREET":"忠孝街","SECT":" ","MAREA":" ","LANE":"６６８巷","ALLEY":" ","HOUSE_NO":"６號","E_COORD97":195762.75,"N_COORD97":2558390.8500000001,"ADDRESS":"忠孝街６６８巷６號","OBJECTID":305706},"geometry":{"x":195762.75,"y":2558390.8500000015}},{"attributes":{"ID":305715,"DIS_CODE":0,"TOWNNAME":"新化區","LI":"豐榮里","LIN":"8鄰","STREET":"大智路","SECT":" ","MAREA":" ","LANE":"７７巷","ALLEY":" ","HOUSE_NO":"１５號","E_COORD97":178296.92999999999,"N_COORD97":2548286.25,"ADDRESS":"大智路７７巷１５號","OBJECTID":305707},"geometry":{"x":178296.93000000063,"y":2548286.25}},{"attributes":{"ID":305716,"DIS_CODE":0,"TOWNNAME":"新化區","LI":"護國里","LIN":"8鄰","STREET":"信義路","SECT":" ","MAREA":" ","LANE":"８６巷","ALLEY":" ","HOUSE_NO":"３１號","E_COORD97":179823.82999999999,"N_COORD97":2548775.25,"ADDRESS":"信義路８６巷３１號","OBJECTID":305708},"geometry":{"x":179823.83000000101,"y":2548775.25}},{"attributes":{"ID":305717,"DIS_CODE":0,"TOWNNAME":"新化區","LI":"東榮里","LIN":"8鄰","STREET":"信義路","SECT":" ","MAREA":" ","LANE":"１１７巷","ALLEY":" ","HOUSE_NO":"７１號之１","E_COORD97":179716.41,"N_COORD97":2548260.2599999998,"ADDRESS":"信義路１１７巷７１號之１","OBJECTID":305709},"geometry":{"x":179716.41000000108,"y":2548260.2600000035}},{"attributes":{"ID":305718,"DIS_CODE":0,"TOWNNAME":"永康區","LI":"東橋里","LIN":"17鄰","STREET":"東橋一路","SECT":" ","MAREA":" ","LANE":" ","ALLEY":" ","HOUSE_NO":"５４２號","E_COORD97":171379.20000000001,"N_COORD97":2547241.8599999999,"ADDRESS":"東橋一路５４２號","OBJECTID":305710},"geometry":{"x":171379.20000000112,"y":2547241.8599999975}},{"attributes":{"ID":305719,"DIS_CODE":0,"TOWNNAME":"永康區","LI":"東橋里","LIN":"17鄰","STREET":"東橋一路","SECT":" ","MAREA":" ","LANE":" ","ALLEY":" ","HOUSE_NO":"５４６號","E_COORD97":171382.89000000001,"N_COORD97":2547244.1600000001,"ADDRESS":"東橋一路５４６號","OBJECTID":305711},"geometry":{"x":171382.88999999966,"y":2547244.1600000039}},{"attributes":{"ID":305720,"DIS_CODE":0,"TOWNNAME":"永康區","LI":"東橋里","LIN":"17鄰","STREET":"東橋一路","SECT":" ","MAREA":" ","LANE":" ","ALLEY":" ","HOUSE_NO":"５５０號","E_COORD97":171386.57000000001,"N_COORD97":2547246.4500000002,"ADDRESS":"東橋一路５５０號","OBJECTID":305712},"geometry":{"x":171386.57000000216,"y":2547246.4499999993}},{"attributes":{"ID":305721,"DIS_CODE":0,"TOWNNAME":"大內區","LI":"石城里","LIN":"10鄰","STREET":" ","SECT":" ","MAREA":"石子瀨","LANE":" ","ALLEY":" ","HOUSE_NO":"８８號之３","E_COORD97":184154.780485,"N_COORD97":2557974.9110900001,"ADDRESS":"石子瀨８８號之３","OBJECTID":305713},"geometry":{"x":184154.78048500046,"y":2557974.9110870026}},{"attributes":{"ID":305722,"DIS_CODE":0,"TOWNNAME":"玉井區","LI":"層林里","LIN":"13鄰","STREET":" ","SECT":" ","MAREA":"層林","LANE":" ","ALLEY":" ","HOUSE_NO":"１６４號","E_COORD97":189456.82000000001,"N_COORD97":2553782.25,"ADDRESS":"層林１６４號","OBJECTID":305714},"geometry":{"x":189456.8200000003,"y":2553782.25}},{"attributes":{"ID":305723,"DIS_CODE":0,"TOWNNAME":"玉井區","LI":"沙田里","LIN":"7鄰","STREET":" ","SECT":" ","MAREA":"沙田","LANE":" ","ALLEY":" ","HOUSE_NO":"７３號","E_COORD97":199159.47,"N_COORD97":2556350.29,"ADDRESS":"沙田７３號","OBJECTID":305715},"geometry":{"x":199159.47000000067,"y":2556350.290000001}},{"attributes":{"ID":305724,"DIS_CODE":0,"TOWNNAME":"玉井區","LI":"望明里","LIN":"4鄰","STREET":" ","SECT":" ","MAREA":"望明","LANE":" ","ALLEY":" ","HOUSE_NO":"４６之７號","E_COORD97":194278.42999999999,"N_COORD97":2556021.29,"ADDRESS":"望明４６之７號","OBJECTID":305716},"geometry":{"x":194278.4299999997,"y":2556021.290000001}},{"attributes":{"ID":305725,"DIS_CODE":0,"TOWNNAME":"玉井區","LI":"望明里","LIN":"4鄰","STREET":" ","SECT":" ","MAREA":"望明","LANE":" ","ALLEY":" ","HOUSE_NO":"４６之１２號","E_COORD97":194279.97,"N_COORD97":2555999.29,"ADDRESS":"望明４６之１２號","OBJECTID":305717},"geometry":{"x":194279.96999999974,"y":2555999.2899999972}},{"attributes":{"ID":305726,"DIS_CODE":0,"TOWNNAME":"玉井區","LI":"望明里","LIN":"4鄰","STREET":" ","SECT":" ","MAREA":"望明","LANE":" ","ALLEY":" ","HOUSE_NO":"４１號之９","E_COORD97":194316.06,"N_COORD97":2556006.29,"ADDRESS":"望明４１號之９","OBJECTID":305718},"geometry":{"x":194316.05999999959,"y":2556006.2900000028}},{"attributes":{"ID":305727,"DIS_CODE":0,"TOWNNAME":"玉井區","LI":"望明里","LIN":"4鄰","STREET":" ","SECT":" ","MAREA":"望明","LANE":" ","ALLEY":" ","HOUSE_NO":"４１之１６號","E_COORD97":194316.89000000001,"N_COORD97":2555971.2999999998,"ADDRESS":"望明４１之１６號","OBJECTID":305719},"geometry":{"x":194316.8900000006,"y":2555971.3000000026}},{"attributes":{"ID":305728,"DIS_CODE":0,"TOWNNAME":"玉井區","LI":"望明里","LIN":"4鄰","STREET":" ","SECT":" ","MAREA":"望明","LANE":" ","ALLEY":" ","HOUSE_NO":"４１號之１１","E_COORD97":194316.82000000001,"N_COORD97":2555996.29,"ADDRESS":"望明４１號之１１","OBJECTID":305720},"geometry":{"x":194316.8200000003,"y":2555996.2900000028}},{"attributes":{"ID":305729,"DIS_CODE":0,"TOWNNAME":"玉井區","LI":"望明里","LIN":"4鄰","STREET":" ","SECT":" ","MAREA":"望明","LANE":" ","ALLEY":" ","HOUSE_NO":"４１之１７號","E_COORD97":194316.79000000001,"N_COORD97":2555966.2999999998,"ADDRESS":"望明４１之１７號","OBJECTID":305721},"geometry":{"x":194316.79000000004,"y":2555966.3000000007}},{"attributes":{"ID":305730,"DIS_CODE":0,"TOWNNAME":"玉井區","LI":"玉田里","LIN":"14鄰","STREET":"民權路","SECT":" ","MAREA":" ","LANE":"１１１巷","ALLEY":" ","HOUSE_NO":"１號","E_COORD97":194778.38,"N_COORD97":2557856.2799999998,"ADDRESS":"民權路１１１巷１號","OBJECTID":305722},"geometry":{"x":194778.38000000082,"y":2557856.2799999993}},{"attributes":{"ID":305731,"DIS_CODE":0,"TOWNNAME":"玉井區","LI":"望明里","LIN":"4鄰","STREET":" ","SECT":" ","MAREA":"望明","LANE":" ","ALLEY":" ","HOUSE_NO":"４６之１１號","E_COORD97":194279.48000000001,"N_COORD97":2556004.29,"ADDRESS":"望明４６之１１號","OBJECTID":305723},"geometry":{"x":194279.48000000138,"y":2556004.290000001}},{"attributes":{"ID":305732,"DIS_CODE":0,"TOWNNAME":"玉井區","LI":"沙田里","LIN":"4鄰","STREET":" ","SECT":" ","MAREA":"沙田","LANE":" ","ALLEY":" ","HOUSE_NO":"３７號之２","E_COORD97":196601.64000000001,"N_COORD97":2556179.2999999998,"ADDRESS":"沙田３７號之２","OBJECTID":305724},"geometry":{"x":196601.6400000006,"y":2556179.3000000007}},{"attributes":{"ID":305733,"DIS_CODE":0,"TOWNNAME":"玉井區","LI":"沙田里","LIN":"4鄰","STREET":" ","SECT":" ","MAREA":"沙田","LANE":" ","ALLEY":" ","HOUSE_NO":"３１之９號","E_COORD97":196607.76000000001,"N_COORD97":2556705.2999999998,"ADDRESS":"沙田３１之９號","OBJECTID":305725},"geometry":{"x":196607.76000000071,"y":2556705.3000000007}},{"attributes":{"ID":305734,"DIS_CODE":0,"TOWNNAME":"玉井區","LI":"望明里","LIN":"4鄰","STREET":" ","SECT":" ","MAREA":"望明","LANE":" ","ALLEY":" ","HOUSE_NO":"４６之１３號","E_COORD97":194279.97,"N_COORD97":2555995.29,"ADDRESS":"望明４６之１３號","OBJECTID":305726},"geometry":{"x":194279.96999999974,"y":2555995.2899999991}},{"attributes":{"ID":305735,"DIS_CODE":0,"TOWNNAME":"永康區","LI":"東橋里","LIN":"17鄰","STREET":"東橋一路","SECT":" ","MAREA":" ","LANE":" ","ALLEY":" ","HOUSE_NO":"５５２號","E_COORD97":171390.26000000001,"N_COORD97":2547248.75,"ADDRESS":"東橋一路５５２號","OBJECTID":305727},"geometry":{"x":171390.26000000071,"y":2547248.75}},{"attributes":{"ID":305736,"DIS_CODE":0,"TOWNNAME":"玉井區","LI":"望明里","LIN":"4鄰","STREET":" ","SECT":" ","MAREA":"望明","LANE":" ","ALLEY":" ","HOUSE_NO":"４１之１５號","E_COORD97":194317.07999999999,"N_COORD97":2555976.2999999998,"ADDRESS":"望明４１之１５號","OBJECTID":305728},"geometry":{"x":194317.08000000194,"y":2555976.3000000007}},{"attributes":{"ID":305737,"DIS_CODE":0,"TOWNNAME":"玉井區","LI":"望明里","LIN":"4鄰","STREET":" ","SECT":" ","MAREA":"望明","LANE":" ","ALLEY":" ","HOUSE_NO":"４１之１２號","E_COORD97":194317.07999999999,"N_COORD97":2555990.29,"ADDRESS":"望明４１之１２號","OBJECTID":305729},"geometry":{"x":194317.08000000194,"y":2555990.290000001}},{"attributes":{"ID":305738,"DIS_CODE":0,"TOWNNAME":"玉井區","LI":"沙田里","LIN":"5鄰","STREET":" ","SECT":" ","MAREA":"沙田","LANE":" ","ALLEY":" ","HOUSE_NO":"５１之２６號","E_COORD97":197883.70999999999,"N_COORD97":2557115.2999999998,"ADDRESS":"沙田５１之２６號","OBJECTID":305730},"geometry":{"x":197883.70999999996,"y":2557115.3000000007}},{"attributes":{"ID":305739,"DIS_CODE":0,"TOWNNAME":"玉井區","LI":"望明里","LIN":"4鄰","STREET":" ","SECT":" ","MAREA":"望明","LANE":" ","ALLEY":" ","HOUSE_NO":"４１之１３號","E_COORD97":194317.17999999999,"N_COORD97":2555986.29,"ADDRESS":"望明４１之１３號","OBJECTID":305731},"geometry":{"x":194317.1799999997,"y":2555986.290000001}},{"attributes":{"ID":305740,"DIS_CODE":0,"TOWNNAME":"玉井區","LI":"玉田里","LIN":"25鄰","STREET":"信義街","SECT":" ","MAREA":" ","LANE":"２２巷","ALLEY":" ","HOUSE_NO":"２１號","E_COORD97":195189.07000000001,"N_COORD97":2557596.27,"ADDRESS":"信義街２２巷２１號","OBJECTID":305732},"geometry":{"x":195189.07000000123,"y":2557596.2699999996}},{"attributes":{"ID":305741,"DIS_CODE":0,"TOWNNAME":"玉井區","LI":"沙田里","LIN":"4鄰","STREET":" ","SECT":" ","MAREA":"沙田","LANE":" ","ALLEY":" ","HOUSE_NO":"３６號","E_COORD97":196599.57000000001,"N_COORD97":2556527.2799999998,"ADDRESS":"沙田３６號","OBJECTID":305733},"geometry":{"x":196599.57000000123,"y":2556527.2799999993}},{"attributes":{"ID":305742,"DIS_CODE":0,"TOWNNAME":"玉井區","LI":"玉田里","LIN":"25鄰","STREET":"信義街","SECT":" ","MAREA":" ","LANE":"２２巷","ALLEY":" ","HOUSE_NO":"１７號","E_COORD97":195180.26000000001,"N_COORD97":2557600.27,"ADDRESS":"信義街２２巷１７號","OBJECTID":305734},"geometry":{"x":195180.26000000071,"y":2557600.2699999977}},{"attributes":{"ID":305743,"DIS_CODE":0,"TOWNNAME":"玉井區","LI":"沙田里","LIN":"4鄰","STREET":" ","SECT":" ","MAREA":"沙田","LANE":" ","ALLEY":" ","HOUSE_NO":"３１之８號","E_COORD97":196598.07999999999,"N_COORD97":2556701.2999999998,"ADDRESS":"沙田３１之８號","OBJECTID":305735},"geometry":{"x":196598.08000000007,"y":2556701.3000000026}},{"attributes":{"ID":305744,"DIS_CODE":0,"TOWNNAME":"玉井區","LI":"豐里里","LIN":"1鄰","STREET":" ","SECT":" ","MAREA":"豐里","LANE":" ","ALLEY":" ","HOUSE_NO":"５號之３","E_COORD97":193291.35000000001,"N_COORD97":2558015.2999999998,"ADDRESS":"豐里５號之３","OBJECTID":305736},"geometry":{"x":193291.35000000056,"y":2558015.3000000045}},{"attributes":{"ID":305745,"DIS_CODE":0,"TOWNNAME":"玉井區","LI":"玉田里","LIN":"25鄰","STREET":"和平街","SECT":" ","MAREA":" ","LANE":"１５６巷","ALLEY":" ","HOUSE_NO":"４０號","E_COORD97":195167.17999999999,"N_COORD97":2557505.25,"ADDRESS":"和平街１５６巷４０號","OBJECTID":305737},"geometry":{"x":195167.18000000063,"y":2557505.25}},{"attributes":{"ID":305746,"DIS_CODE":0,"TOWNNAME":"玉井區","LI":"沙田里","LIN":"4鄰","STREET":" ","SECT":" ","MAREA":"沙田","LANE":" ","ALLEY":" ","HOUSE_NO":"３１號之３","E_COORD97":196564.87,"N_COORD97":2556659.2999999998,"ADDRESS":"沙田３１號之３","OBJECTID":305738},"geometry":{"x":196564.87000000104,"y":2556659.3000000026}},{"attributes":{"ID":305747,"DIS_CODE":0,"TOWNNAME":"玉井區","LI":"沙田里","LIN":"4鄰","STREET":" ","SECT":" ","MAREA":"沙田","LANE":" ","ALLEY":" ","HOUSE_NO":"３３之１１號","E_COORD97":196639.41,"N_COORD97":2556610.29,"ADDRESS":"沙田３３之１１號","OBJECTID":305739},"geometry":{"x":196639.41000000108,"y":2556610.290000001}},{"attributes":{"ID":305748,"DIS_CODE":0,"TOWNNAME":"玉井區","LI":"沙田里","LIN":"4鄰","STREET":" ","SECT":" ","MAREA":"沙田","LANE":" ","ALLEY":" ","HOUSE_NO":"３６之２號","E_COORD97":196595.26000000001,"N_COORD97":2556534.29,"ADDRESS":"沙田３６之２號","OBJECTID":305740},"geometry":{"x":196595.25999999978,"y":2556534.2899999991}},{"attributes":{"ID":305749,"DIS_CODE":0,"TOWNNAME":"新化區","LI":"東榮里","LIN":"8鄰","STREET":"信義路","SECT":" ","MAREA":" ","LANE":"１１７巷","ALLEY":" ","HOUSE_NO":"３０號之７","E_COORD97":179731.42000000001,"N_COORD97":2548270.2599999998,"ADDRESS":"信義路１１７巷３０號之７","OBJECTID":305741},"geometry":{"x":179731.42000000086,"y":2548270.2600000035}},{"attributes":{"ID":305750,"DIS_CODE":0,"TOWNNAME":"新化區","LI":"東榮里","LIN":"8鄰","STREET":"信義路","SECT":" ","MAREA":" ","LANE":"１１７巷","ALLEY":" ","HOUSE_NO":"７３號之１３","E_COORD97":179798.17999999999,"N_COORD97":2548254.2599999998,"ADDRESS":"信義路１１７巷７３號之１３","OBJECTID":305742},"geometry":{"x":179798.1799999997,"y":2548254.2600000016}},{"attributes":{"ID":305751,"DIS_CODE":0,"TOWNNAME":"永康區","LI":"東橋里","LIN":"17鄰","STREET":"東橋一路","SECT":" ","MAREA":" ","LANE":" ","ALLEY":" ","HOUSE_NO":"５５６號","E_COORD97":171393.95000000001,"N_COORD97":2547251.0499999998,"ADDRESS":"東橋一路５５６號","OBJECTID":305743},"geometry":{"x":171393.95000000205,"y":2547251.0500000007}},{"attributes":{"ID":305752,"DIS_CODE":0,"TOWNNAME":"永康區","LI":"東橋里","LIN":"17鄰","STREET":"東橋一路","SECT":" ","MAREA":" ","LANE":" ","ALLEY":" ","HOUSE_NO":"５５８號","E_COORD97":171398.26999999999,"N_COORD97":2547253.3100000001,"ADDRESS":"東橋一路５５８號","OBJECTID":305744},"geometry":{"x":171398.27000000048,"y":2547253.3100000005}},{"attributes":{"ID":305753,"DIS_CODE":0,"TOWNNAME":"永康區","LI":"東橋里","LIN":"17鄰","STREET":"東橋五路","SECT":" ","MAREA":" ","LANE":" ","ALLEY":" ","HOUSE_NO":"３６３號","E_COORD97":171434.64000000001,"N_COORD97":2547212.6000000001,"ADDRESS":"東橋五路３６３號","OBJECTID":305745},"geometry":{"x":171434.64000000153,"y":2547212.5999999996}},{"attributes":{"ID":305754,"DIS_CODE":0,"TOWNNAME":"新化區","LI":"豐榮里","LIN":"8鄰","STREET":"大智路","SECT":" ","MAREA":" ","LANE":"７７巷","ALLEY":" ","HOUSE_NO":"６號","E_COORD97":178256.28,"N_COORD97":2548266.25,"ADDRESS":"大智路７７巷６號","OBJECTID":305746},"geometry":{"x":178256.28000000119,"y":2548266.25}},{"attributes":{"ID":305755,"DIS_CODE":0,"TOWNNAME":"新化區","LI":"東榮里","LIN":"8鄰","STREET":"信義路","SECT":" ","MAREA":" ","LANE":"１３１巷","ALLEY":" ","HOUSE_NO":"２９號","E_COORD97":179672.78,"N_COORD97":2548331.25,"ADDRESS":"信義路１３１巷２９號","OBJECTID":305747},"geometry":{"x":179672.77999999933,"y":2548331.25}},{"attributes":{"ID":305756,"DIS_CODE":0,"TOWNNAME":"玉井區","LI":"望明里","LIN":"4鄰","STREET":" ","SECT":" ","MAREA":"望明","LANE":" ","ALLEY":" ","HOUSE_NO":"４６之１號","E_COORD97":194242.04000000001,"N_COORD97":2555982.2999999998,"ADDRESS":"望明４６之１號","OBJECTID":305748},"geometry":{"x":194242.04000000004,"y":2555982.3000000026}},{"attributes":{"ID":305757,"DIS_CODE":0,"TOWNNAME":"玉井區","LI":"望明里","LIN":"4鄰","STREET":" ","SECT":" ","MAREA":"望明","LANE":" ","ALLEY":" ","HOUSE_NO":"４１之６號","E_COORD97":194316.84,"N_COORD97":2556019.29,"ADDRESS":"望明４１之６號","OBJECTID":305749},"geometry":{"x":194316.84000000171,"y":2556019.2899999991}},{"attributes":{"ID":305758,"DIS_CODE":0,"TOWNNAME":"玉井區","LI":"竹圍里","LIN":"13鄰","STREET":" ","SECT":" ","MAREA":"竹圍","LANE":" ","ALLEY":" ","HOUSE_NO":"１３４之１號","E_COORD97":196817.04000000001,"N_COORD97":2559209.8300000001,"ADDRESS":"竹圍１３４之１號","OBJECTID":305750},"geometry":{"x":196817.04000000004,"y":2559209.8300000001}},{"attributes":{"ID":305759,"DIS_CODE":0,"TOWNNAME":"玉井區","LI":"竹圍里","LIN":"13鄰","STREET":" ","SECT":" ","MAREA":"竹圍","LANE":" ","ALLEY":" ","HOUSE_NO":"１３４號","E_COORD97":196801.29999999999,"N_COORD97":2559174.2799999998,"ADDRESS":"竹圍１３４號","OBJECTID":305751},"geometry":{"x":196801.29999999981,"y":2559174.2800000012}},{"attributes":{"ID":305760,"DIS_CODE":0,"TOWNNAME":"新化區","LI":"東榮里","LIN":"8鄰","STREET":"信義路","SECT":" ","MAREA":" ","LANE":"１１７巷","ALLEY":" ","HOUSE_NO":"７３號之６","E_COORD97":179763.63,"N_COORD97":2548253.2599999998,"ADDRESS":"信義路１１７巷７３號之６","OBJECTID":305752},"geometry":{"x":179763.63000000082,"y":2548253.2599999979}},{"attributes":{"ID":305761,"DIS_CODE":0,"TOWNNAME":"玉井區","LI":"竹圍里","LIN":"14鄰","STREET":" ","SECT":" ","MAREA":"竹圍","LANE":" ","ALLEY":" ","HOUSE_NO":"１４０之６號","E_COORD97":196759.57999999999,"N_COORD97":2559725.21,"ADDRESS":"竹圍１４０之６號","OBJECTID":305753},"geometry":{"x":196759.58000000007,"y":2559725.2100000028}},{"attributes":{"ID":305762,"DIS_CODE":0,"TOWNNAME":"玉井區","LI":"竹圍里","LIN":"14鄰","STREET":" ","SECT":" ","MAREA":"竹圍","LANE":" ","ALLEY":" ","HOUSE_NO":"１３８號之２","E_COORD97":196517.64999999999,"N_COORD97":2559484.8399999999,"ADDRESS":"竹圍１３８號之２","OBJECTID":305754},"geometry":{"x":196517.6500000013,"y":2559484.8399999999}},{"attributes":{"ID":305763,"DIS_CODE":0,"TOWNNAME":"玉井區","LI":"竹圍里","LIN":"4鄰","STREET":" ","SECT":" ","MAREA":"竹圍","LANE":" ","ALLEY":" ","HOUSE_NO":"３０之６０號","E_COORD97":196412.26999999999,"N_COORD97":2558634.21,"ADDRESS":"竹圍３０之６０號","OBJECTID":305755},"geometry":{"x":196412.27000000142,"y":2558634.2100000028}},{"attributes":{"ID":305764,"DIS_CODE":0,"TOWNNAME":"玉井區","LI":"望明里","LIN":"4鄰","STREET":" ","SECT":" ","MAREA":"望明","LANE":" ","ALLEY":" ","HOUSE_NO":"４０號","E_COORD97":194362.84,"N_COORD97":2556041.25,"ADDRESS":"望明４０號","OBJECTID":305756},"geometry":{"x":194362.84000000078,"y":2556041.2499999981}},{"attributes":{"ID":305765,"DIS_CODE":0,"TOWNNAME":"玉井區","LI":"望明里","LIN":"4鄰","STREET":" ","SECT":" ","MAREA":"望明","LANE":" ","ALLEY":" ","HOUSE_NO":"４６之９號","E_COORD97":194278.42999999999,"N_COORD97":2556012.29,"ADDRESS":"望明４６之９號","OBJECTID":305757},"geometry":{"x":194278.4299999997,"y":2556012.2899999991}},{"attributes":{"ID":305766,"DIS_CODE":0,"TOWNNAME":"玉井區","LI":"竹圍里","LIN":"13鄰","STREET":" ","SECT":" ","MAREA":"竹圍","LANE":" ","ALLEY":" ","HOUSE_NO":"１３５號之１","E_COORD97":196885.42999999999,"N_COORD97":2559261.8199999998,"ADDRESS":"竹圍１３５號之１","OBJECTID":305758},"geometry":{"x":196885.4299999997,"y":2559261.8200000003}},{"attributes":{"ID":305767,"DIS_CODE":0,"TOWNNAME":"新化區","LI":"東榮里","LIN":"8鄰","STREET":"信義路","SECT":" ","MAREA":" ","LANE":"１１７巷","ALLEY":" ","HOUSE_NO":"２８號之４６","E_COORD97":179782.88,"N_COORD97":2548295.2599999998,"ADDRESS":"信義路１１７巷２８號之４６","OBJECTID":305759},"geometry":{"x":179782.87999999989,"y":2548295.2600000016}},{"attributes":{"ID":305768,"DIS_CODE":0,"TOWNNAME":"新化區","LI":"東榮里","LIN":"8鄰","STREET":"信義路","SECT":" ","MAREA":" ","LANE":"１１７巷","ALLEY":" ","HOUSE_NO":"７３號","E_COORD97":179737.98000000001,"N_COORD97":2548253.25,"ADDRESS":"信義路１１７巷７３號","OBJECTID":305760},"geometry":{"x":179737.98000000138,"y":2548253.25}},{"attributes":{"ID":305769,"DIS_CODE":0,"TOWNNAME":"玉井區","LI":"竹圍里","LIN":"14鄰","STREET":" ","SECT":" ","MAREA":"竹圍","LANE":" ","ALLEY":" ","HOUSE_NO":"１４０之１１號","E_COORD97":196863.70000000001,"N_COORD97":2559970.7000000002,"ADDRESS":"竹圍１４０之１１號","OBJECTID":305761},"geometry":{"x":196863.70000000019,"y":2559970.700000003}},{"attributes":{"ID":305770,"DIS_CODE":0,"TOWNNAME":"玉井區","LI":"竹圍里","LIN":"14鄰","STREET":" ","SECT":" ","MAREA":"竹圍","LANE":" ","ALLEY":" ","HOUSE_NO":"１４１號","E_COORD97":197050.42000000001,"N_COORD97":2559993.7799999998,"ADDRESS":"竹圍１４１號","OBJECTID":305762},"geometry":{"x":197050.41999999993,"y":2559993.7800000031}},{"attributes":{"ID":305771,"DIS_CODE":0,"TOWNNAME":"玉井區","LI":"望明里","LIN":"4鄰","STREET":" ","SECT":" ","MAREA":"望明","LANE":" ","ALLEY":" ","HOUSE_NO":"４６之１４號","E_COORD97":194279.88,"N_COORD97":2555991.29,"ADDRESS":"望明４６之１４號","OBJECTID":305763},"geometry":{"x":194279.88000000082,"y":2555991.2899999991}},{"attributes":{"ID":305772,"DIS_CODE":0,"TOWNNAME":"新化區","LI":"武安里","LIN":"8鄰","STREET":"和平街","SECT":" ","MAREA":" ","LANE":"１４０巷","ALLEY":" ","HOUSE_NO":"５號","E_COORD97":178934.82000000001,"N_COORD97":2548208.25,"ADDRESS":"和平街１４０巷５號","OBJECTID":305764},"geometry":{"x":178934.8200000003,"y":2548208.25}},{"attributes":{"ID":305773,"DIS_CODE":0,"TOWNNAME":"新化區","LI":"護國里","LIN":"8鄰","STREET":"信義路","SECT":" ","MAREA":" ","LANE":"８６巷","ALLEY":" ","HOUSE_NO":"２９號","E_COORD97":179827.13,"N_COORD97":2548775.25,"ADDRESS":"信義路８６巷２９號","OBJECTID":305765},"geometry":{"x":179827.12999999989,"y":2548775.25}},{"attributes":{"ID":305774,"DIS_CODE":0,"TOWNNAME":"玉井區","LI":"玉田里","LIN":"5鄰","STREET":"中華路","SECT":" ","MAREA":" ","LANE":" ","ALLEY":" ","HOUSE_NO":"７號","E_COORD97":194935.04999999999,"N_COORD97":2558187.2400000002,"ADDRESS":"中華路７號","OBJECTID":305766},"geometry":{"x":194935.04999999981,"y":2558187.2400000002}},{"attributes":{"ID":305775,"DIS_CODE":0,"TOWNNAME":"玉井區","LI":"望明里","LIN":" ","STREET":" ","SECT":" ","MAREA":"公\u25A0","LANE":" ","ALLEY":" ","HOUSE_NO":"６６號","E_COORD97":194018.67000000001,"N_COORD97":2556630.2400000002,"ADDRESS":"公\u25A0６６號","OBJECTID":305767},"geometry":{"x":194018.67000000086,"y":2556630.2400000002}},{"attributes":{"ID":305776,"DIS_CODE":0,"TOWNNAME":"玉井區","LI":"望明里","LIN":"4鄰","STREET":" ","SECT":" ","MAREA":"望明","LANE":" ","ALLEY":" ","HOUSE_NO":"４６之１９號","E_COORD97":194280.39000000001,"N_COORD97":2555970.2999999998,"ADDRESS":"望明４６之１９號","OBJECTID":305768},"geometry":{"x":194280.38999999966,"y":2555970.3000000007}},{"attributes":{"ID":305777,"DIS_CODE":0,"TOWNNAME":"玉井區","LI":"層林里","LIN":"4鄰","STREET":" ","SECT":" ","MAREA":"層林","LANE":" ","ALLEY":" ","HOUSE_NO":"５１之２號","E_COORD97":191141.76000000001,"N_COORD97":2551803.2999999998,"ADDRESS":"層林５１之２號","OBJECTID":305769},"geometry":{"x":191141.75999999978,"y":2551803.3000000007}},{"attributes":{"ID":305778,"DIS_CODE":0,"TOWNNAME":"玉井區","LI":"層林里","LIN":"4鄰","STREET":" ","SECT":" ","MAREA":"層林","LANE":" ","ALLEY":" ","HOUSE_NO":"５３之２號","E_COORD97":191209.26000000001,"N_COORD97":2551618.2999999998,"ADDRESS":"層林５３之２號","OBJECTID":305770},"geometry":{"x":191209.25999999978,"y":2551618.3000000026}},{"attributes":{"ID":305779,"DIS_CODE":0,"TOWNNAME":"玉井區","LI":"豐里里","LIN":"5鄰","STREET":" ","SECT":" ","MAREA":"豐里","LANE":" ","ALLEY":" ","HOUSE_NO":"４６號","E_COORD97":193194.95999999999,"N_COORD97":2558098.2400000002,"ADDRESS":"豐里４６號","OBJECTID":305771},"geometry":{"x":193194.95999999996,"y":2558098.2400000002}},{"attributes":{"ID":305780,"DIS_CODE":0,"TOWNNAME":"玉井區","LI":"豐里里","LIN":"4鄰","STREET":" ","SECT":" ","MAREA":"豐里","LANE":" ","ALLEY":" ","HOUSE_NO":"３７之２號","E_COORD97":193155.47,"N_COORD97":2558124.2999999998,"ADDRESS":"豐里３７之２號","OBJECTID":305772},"geometry":{"x":193155.46999999974,"y":2558124.3000000026}},{"attributes":{"ID":305781,"DIS_CODE":0,"TOWNNAME":"鹽水區","LI":"福得里","LIN":" ","STREET":" ","SECT":" ","MAREA":"後厝","LANE":" ","ALLEY":" ","HOUSE_NO":"１１８號","E_COORD97":175334.73999999999,"N_COORD97":2579903.3300000001,"ADDRESS":"後厝１１８號","OBJECTID":305773},"geometry":{"x":175334.74000000022,"y":2579903.3300000019}},{"attributes":{"ID":305782,"DIS_CODE":0,"TOWNNAME":"鹽水區","LI":"福得里","LIN":" ","STREET":" ","SECT":" ","MAREA":"後厝","LANE":" ","ALLEY":" ","HOUSE_NO":"１１９號","E_COORD97":175332.32000000001,"N_COORD97":2579907.2799999998,"ADDRESS":"後厝１１９號","OBJECTID":305774},"geometry":{"x":175332.3200000003,"y":2579907.2799999993}},{"attributes":{"ID":305783,"DIS_CODE":0,"TOWNNAME":"鹽水區","LI":"福得里","LIN":" ","STREET":" ","SECT":" ","MAREA":"後厝","LANE":" ","ALLEY":" ","HOUSE_NO":"２８之１號","E_COORD97":175411.10000000001,"N_COORD97":2579939.96,"ADDRESS":"後厝２８之１號","OBJECTID":305775},"geometry":{"x":175411.09999999963,"y":2579939.9600000046}},{"attributes":{"ID":305784,"DIS_CODE":0,"TOWNNAME":"鹽水區","LI":"福得里","LIN":" ","STREET":" ","SECT":" ","MAREA":"後厝","LANE":" ","ALLEY":" ","HOUSE_NO":"２９之１號","E_COORD97":175416.20000000001,"N_COORD97":2579970.46,"ADDRESS":"後厝２９之１號","OBJECTID":305776},"geometry":{"x":175416.20000000019,"y":2579970.4600000046}},{"attributes":{"ID":305785,"DIS_CODE":0,"TOWNNAME":"玉井區","LI":"玉田里","LIN":"43鄰","STREET":"大成路","SECT":" ","MAREA":" ","LANE":"１６１巷","ALLEY":" ","HOUSE_NO":"２號","E_COORD97":195649.07000000001,"N_COORD97":2557899.2599999998,"ADDRESS":"大成路１６１巷２號","OBJECTID":305777},"geometry":{"x":195649.0700000003,"y":2557899.2600000035}},{"attributes":{"ID":305786,"DIS_CODE":0,"TOWNNAME":"玉井區","LI":"玉田里","LIN":"41鄰","STREET":"民族路","SECT":" ","MAREA":" ","LANE":"１７９巷","ALLEY":" ","HOUSE_NO":"１２號","E_COORD97":195457.04000000001,"N_COORD97":2558135.29,"ADDRESS":"民族路１７９巷１２號","OBJECTID":305778},"geometry":{"x":195457.04000000097,"y":2558135.2899999972}},{"attributes":{"ID":305787,"DIS_CODE":0,"TOWNNAME":"新化區","LI":"護國里","LIN":"8鄰","STREET":"信義路","SECT":" ","MAREA":" ","LANE":"１４巷","ALLEY":" ","HOUSE_NO":"２１號","E_COORD97":180999.73000000001,"N_COORD97":2548935.25,"ADDRESS":"信義路１４巷２１號","OBJECTID":305779},"geometry":{"x":180999.73000000138,"y":2548935.2500000037}},{"attributes":{"ID":305788,"DIS_CODE":0,"TOWNNAME":"新化區","LI":"清水里","LIN":"8鄰","STREET":"民權街","SECT":" ","MAREA":" ","LANE":"６１巷","ALLEY":" ","HOUSE_NO":"５號之２","E_COORD97":178727.72,"N_COORD97":2548553.2599999998,"ADDRESS":"民權街６１巷５號之２","OBJECTID":305780},"geometry":{"x":178727.71999999974,"y":2548553.2600000016}},{"attributes":{"ID":305789,"DIS_CODE":0,"TOWNNAME":"南區","LI":"建南里","LIN":"8鄰","STREET":"德興路","SECT":" ","MAREA":" ","LANE":"２１０巷","ALLEY":" ","HOUSE_NO":"９號","E_COORD97":167171.69,"N_COORD97":2540150.9100000001,"ADDRESS":"德興路２１０巷９號","OBJECTID":305781},"geometry":{"x":167171.69000000227,"y":2540150.910000002}},{"attributes":{"ID":305790,"DIS_CODE":0,"TOWNNAME":"永康區","LI":"東橋里","LIN":"17鄰","STREET":"東橋五路","SECT":" ","MAREA":" ","LANE":" ","ALLEY":" ","HOUSE_NO":"３６５號","E_COORD97":171432.23000000001,"N_COORD97":2547216.8500000001,"ADDRESS":"東橋五路３６５號","OBJECTID":305782},"geometry":{"x":171432.23000000045,"y":2547216.8500000015}},{"attributes":{"ID":305791,"DIS_CODE":0,"TOWNNAME":"永康區","LI":"東橋里","LIN":"17鄰","STREET":"東橋五路","SECT":" ","MAREA":" ","LANE":" ","ALLEY":" ","HOUSE_NO":"３６７號","E_COORD97":171428.57000000001,"N_COORD97":2547220.3500000001,"ADDRESS":"東橋五路３６７號","OBJECTID":305783},"geometry":{"x":171428.5700000003,"y":2547220.3499999996}},{"attributes":{"ID":305792,"DIS_CODE":0,"TOWNNAME":"永康區","LI":"東橋里","LIN":"17鄰","STREET":"東橋五路","SECT":" ","MAREA":" ","LANE":" ","ALLEY":" ","HOUSE_NO":"３６９號","E_COORD97":171429.16,"N_COORD97":2547225.77,"ADDRESS":"東橋五路３６９號","OBJECTID":305784},"geometry":{"x":171429.16000000015,"y":2547225.7700000033}},{"attributes":{"ID":305793,"DIS_CODE":0,"TOWNNAME":"鹽水區","LI":"後宅里","LIN":" ","STREET":" ","SECT":" ","MAREA":"後寮","LANE":" ","ALLEY":" ","HOUSE_NO":"１０之３號","E_COORD97":173522.13,"N_COORD97":2578759.6800000002,"ADDRESS":"後寮１０之３號","OBJECTID":305785},"geometry":{"x":173522.13000000082,"y":2578759.6799999997}},{"attributes":{"ID":305794,"DIS_CODE":0,"TOWNNAME":"鹽水區","LI":"後宅里","LIN":" ","STREET":" ","SECT":" ","MAREA":"後寮","LANE":" ","ALLEY":" ","HOUSE_NO":"１２之２號","E_COORD97":173535.70000000001,"N_COORD97":2578596.0499999998,"ADDRESS":"後寮１２之２號","OBJECTID":305786},"geometry":{"x":173535.70000000112,"y":2578596.0500000007}},{"attributes":{"ID":305795,"DIS_CODE":0,"TOWNNAME":"鹽水區","LI":"後宅里","LIN":" ","STREET":" ","SECT":" ","MAREA":"後寮","LANE":" ","ALLEY":" ","HOUSE_NO":"１７之１１號","E_COORD97":173477.17999999999,"N_COORD97":2578547.1000000001,"ADDRESS":"後寮１７之１１號","OBJECTID":305787},"geometry":{"x":173477.18000000063,"y":2578547.0999999996}},{"attributes":{"ID":305796,"DIS_CODE":0,"TOWNNAME":"鹽水區","LI":"後宅里","LIN":" ","STREET":" ","SECT":" ","MAREA":"後寮","LANE":" ","ALLEY":" ","HOUSE_NO":"２之５號","E_COORD97":173848.20000000001,"N_COORD97":2578717.0899999999,"ADDRESS":"後寮２之５號","OBJECTID":305788},"geometry":{"x":173848.20000000019,"y":2578717.0900000036}},{"attributes":{"ID":305797,"DIS_CODE":0,"TOWNNAME":"鹽水區","LI":"後宅里","LIN":" ","STREET":" ","SECT":" ","MAREA":"後寮","LANE":" ","ALLEY":" ","HOUSE_NO":"２之９號","E_COORD97":173991.95999999999,"N_COORD97":2578688.29,"ADDRESS":"後寮２之９號","OBJECTID":305789},"geometry":{"x":173991.95999999996,"y":2578688.290000001}},{"attributes":{"ID":305798,"DIS_CODE":0,"TOWNNAME":"鹽水區","LI":"後宅里","LIN":" ","STREET":" ","SECT":" ","MAREA":"後寮","LANE":" ","ALLEY":" ","HOUSE_NO":"５８號","E_COORD97":173208.35000000001,"N_COORD97":2578706.8700000001,"ADDRESS":"後寮５８號","OBJECTID":305790},"geometry":{"x":173208.35000000056,"y":2578706.8700000029}},{"attributes":{"ID":305799,"DIS_CODE":0,"TOWNNAME":"鹽水區","LI":"後宅里","LIN":" ","STREET":" ","SECT":" ","MAREA":"後寮","LANE":" ","ALLEY":" ","HOUSE_NO":"５９之１號","E_COORD97":173126.64000000001,"N_COORD97":2578690.3300000001,"ADDRESS":"後寮５９之１號","OBJECTID":305791},"geometry":{"x":173126.6400000006,"y":2578690.3300000019}},{"attributes":{"ID":305800,"DIS_CODE":0,"TOWNNAME":"鹽水區","LI":"後宅里","LIN":" ","STREET":" ","SECT":" ","MAREA":"後寮","LANE":" ","ALLEY":" ","HOUSE_NO":"６５號","E_COORD97":172969.62,"N_COORD97":2578532.2400000002,"ADDRESS":"後寮６５號","OBJECTID":305792},"geometry":{"x":172969.62000000104,"y":2578532.2400000002}},{"attributes":{"ID":305801,"DIS_CODE":0,"TOWNNAME":"鹽水區","LI":"後宅里","LIN":" ","STREET":" ","SECT":" ","MAREA":"後寮","LANE":" ","ALLEY":" ","HOUSE_NO":"６６號","E_COORD97":172979.91,"N_COORD97":2578543.6600000001,"ADDRESS":"後寮６６號","OBJECTID":305793},"geometry":{"x":172979.91000000108,"y":2578543.6600000001}},{"attributes":{"ID":305802,"DIS_CODE":0,"TOWNNAME":"鹽水區","LI":"孫厝里","LIN":" ","STREET":" ","SECT":" ","MAREA":"孫厝寮","LANE":" ","ALLEY":" ","HOUSE_NO":"２號","E_COORD97":170538.48000000001,"N_COORD97":2577119.8900000001,"ADDRESS":"孫厝寮２號","OBJECTID":305794},"geometry":{"x":170538.48000000138,"y":2577119.8900000025}},{"attributes":{"ID":305803,"DIS_CODE":0,"TOWNNAME":"鹽水區","LI":"孫厝里","LIN":" ","STREET":" ","SECT":" ","MAREA":"孫厝寮","LANE":" ","ALLEY":" ","HOUSE_NO":"３７之１號","E_COORD97":170296.60999999999,"N_COORD97":2576790.02,"ADDRESS":"孫厝寮３７之１號","OBJECTID":305795},"geometry":{"x":170296.61000000127,"y":2576790.0199999996}},{"attributes":{"ID":305804,"DIS_CODE":0,"TOWNNAME":"鹽水區","LI":"孫厝里","LIN":" ","STREET":" ","SECT":" ","MAREA":"孫厝寮","LANE":" ","ALLEY":" ","HOUSE_NO":"７４之１號","E_COORD97":170424.26000000001,"N_COORD97":2576984.5,"ADDRESS":"孫厝寮７４之１號","OBJECTID":305796},"geometry":{"x":170424.26000000071,"y":2576984.5}},{"attributes":{"ID":305805,"DIS_CODE":0,"TOWNNAME":"鹽水區","LI":"孫厝里","LIN":" ","STREET":" ","SECT":" ","MAREA":"孫厝寮","LANE":" ","ALLEY":" ","HOUSE_NO":"８４之５號","E_COORD97":170897.14000000001,"N_COORD97":2576831.54,"ADDRESS":"孫厝寮８４之５號","OBJECTID":305797},"geometry":{"x":170897.14000000153,"y":2576831.5399999972}},{"attributes":{"ID":305806,"DIS_CODE":0,"TOWNNAME":"鹽水區","LI":"歡雅里","LIN":" ","STREET":" ","SECT":" ","MAREA":"頂寮","LANE":" ","ALLEY":" ","HOUSE_NO":"９０號","E_COORD97":172128.97,"N_COORD97":2575525.6800000002,"ADDRESS":"頂寮９０號","OBJECTID":305798},"geometry":{"x":172128.96999999974,"y":2575525.6799999997}},{"attributes":{"ID":305807,"DIS_CODE":0,"TOWNNAME":"鹽水區","LI":"飯店里","LIN":" ","STREET":" ","SECT":" ","MAREA":"飯店","LANE":" ","ALLEY":" ","HOUSE_NO":"５之１號","E_COORD97":169750.01000000001,"N_COORD97":2573948.1000000001,"ADDRESS":"飯店５之１號","OBJECTID":305799},"geometry":{"x":169750.00999999978,"y":2573948.1000000015}},{"attributes":{"ID":305808,"DIS_CODE":0,"TOWNNAME":"鹽水區","LI":"岸內里","LIN":" ","STREET":" ","SECT":" ","MAREA":"新岸內","LANE":" ","ALLEY":" ","HOUSE_NO":"１０１號","E_COORD97":174296.57999999999,"N_COORD97":2581075.3599999999,"ADDRESS":"新岸內１０１號","OBJECTID":305800},"geometry":{"x":174296.58000000007,"y":2581075.3600000013}}]}