{"displayFieldName":"TOWNNAME","fieldAliases":{"ID":"ID","DIS_CODE":"DIS_CODE","TOWNNAME":"TOWNNAME","LI":"LI","LIN":"LIN","STREET":"STREET","SECT":"SECT","MAREA":"MAREA","LANE":"LANE","ALLEY":"ALLEY","HOUSE_NO":"HOUSE_NO","E_COORD97":"E_COORD97","N_COORD97":"N_COORD97","ADDRESS":"ADDRESS","OBJECTID":"OBJECTID"},"geometryType":"esriGeometryPoint","spatialReference":{"wkid":102443,"latestWkid":3826},"fields":[{"name":"ID","type":"esriFieldTypeDouble","alias":"ID"},{"name":"DIS_CODE","type":"esriFieldTypeInteger","alias":"DIS_CODE"},{"name":"TOWNNAME","type":"esriFieldTypeString","alias":"TOWNNAME","length":8},{"name":"LI","type":"esriFieldTypeString","alias":"LI","length":8},{"name":"LIN","type":"esriFieldTypeString","alias":"LIN","length":12},{"name":"STREET","type":"esriFieldTypeString","alias":"STREET","length":20},{"name":"SECT","type":"esriFieldTypeString","alias":"SECT","length":8},{"name":"MAREA","type":"esriFieldTypeString","alias":"MAREA","length":12},{"name":"LANE","type":"esriFieldTypeString","alias":"LANE","length":10},{"name":"ALLEY","type":"esriFieldTypeString","alias":"ALLEY","length":10},{"name":"HOUSE_NO","type":"esriFieldTypeString","alias":"HOUSE_NO","length":20},{"name":"E_COORD97","type":"esriFieldTypeDouble","alias":"E_COORD97"},{"name":"N_COORD97","type":"esriFieldTypeDouble","alias":"N_COORD97"},{"name":"ADDRESS","type":"esriFieldTypeString","alias":"ADDRESS","length":50},{"name":"OBJECTID","type":"esriFieldTypeOID","alias":"OBJECTID"}],"features":[{"attributes":{"ID":209002,"DIS_CODE":0,"TOWNNAME":"仁德區","LI":"成功里","LIN":"32鄰","STREET":"成功一街","SECT":" ","MAREA":" ","LANE":"３５巷","ALLEY":"１弄","HOUSE_NO":"９號","E_COORD97":170572.44,"N_COORD97":2540152.54,"ADDRESS":"成功一街３５巷１弄９號","OBJECTID":209001},"geometry":{"x":170572.44000000134,"y":2540152.540000001}},{"attributes":{"ID":209003,"DIS_CODE":0,"TOWNNAME":"永康區","LI":"復國里","LIN":"32鄰","STREET":"復華一街","SECT":" ","MAREA":" ","LANE":"２８巷","ALLEY":"２５弄","HOUSE_NO":"２４號","E_COORD97":172597.42000000001,"N_COORD97":2545161.02,"ADDRESS":"復華一街２８巷２５弄２４號","OBJECTID":209002},"geometry":{"x":172597.41999999899,"y":2545161.0200000014}},{"attributes":{"ID":209004,"DIS_CODE":0,"TOWNNAME":"仁德區","LI":"成功里","LIN":"32鄰","STREET":"成功一街","SECT":" ","MAREA":" ","LANE":"３５巷","ALLEY":"１弄","HOUSE_NO":"１０號","E_COORD97":170593.75,"N_COORD97":2540150.5099999998,"ADDRESS":"成功一街３５巷１弄１０號","OBJECTID":209003},"geometry":{"x":170593.75000000093,"y":2540150.5099999998}},{"attributes":{"ID":209005,"DIS_CODE":0,"TOWNNAME":"永康區","LI":"復國里","LIN":"32鄰","STREET":"復華一街","SECT":" ","MAREA":" ","LANE":"２８巷","ALLEY":"２５弄","HOUSE_NO":"２０號","E_COORD97":172598.67999999999,"N_COORD97":2545185.96,"ADDRESS":"復華一街２８巷２５弄２０號","OBJECTID":209004},"geometry":{"x":172598.6799999997,"y":2545185.9600000028}},{"attributes":{"ID":209006,"DIS_CODE":0,"TOWNNAME":"永康區","LI":"復國里","LIN":"32鄰","STREET":"復華一街","SECT":" ","MAREA":" ","LANE":"２８巷","ALLEY":"２５弄","HOUSE_NO":"９號","E_COORD97":172602.35000000001,"N_COORD97":2545142.52,"ADDRESS":"復華一街２８巷２５弄９號","OBJECTID":209005},"geometry":{"x":172602.34999999963,"y":2545142.5200000033}},{"attributes":{"ID":209007,"DIS_CODE":0,"TOWNNAME":"永康區","LI":"復國里","LIN":"32鄰","STREET":"復華一街","SECT":" ","MAREA":" ","LANE":"２８巷","ALLEY":"２５弄","HOUSE_NO":"１８號","E_COORD97":172602.26000000001,"N_COORD97":2545195.46,"ADDRESS":"復華一街２８巷２５弄１８號","OBJECTID":209006},"geometry":{"x":172602.26000000071,"y":2545195.4600000028}},{"attributes":{"ID":209008,"DIS_CODE":0,"TOWNNAME":"東區","LI":"大智里","LIN":"12鄰","STREET":"長東街","SECT":" ","MAREA":" ","LANE":"１３３巷","ALLEY":" ","HOUSE_NO":"１號","E_COORD97":171032.34,"N_COORD97":2540179.9399999999,"ADDRESS":"長東街１３３巷１號","OBJECTID":209007},"geometry":{"x":171032.34000000078,"y":2540179.9400000013}},{"attributes":{"ID":209009,"DIS_CODE":0,"TOWNNAME":"安南區","LI":"海東里","LIN":"24鄰","STREET":"同安路","SECT":" ","MAREA":" ","LANE":" ","ALLEY":" ","HOUSE_NO":"２２１號","E_COORD97":167176.42000000001,"N_COORD97":2549184.8799999999,"ADDRESS":"同安路２２１號","OBJECTID":209008},"geometry":{"x":167176.42000000179,"y":2549184.8800000008}},{"attributes":{"ID":209010,"DIS_CODE":0,"TOWNNAME":"安南區","LI":"海東里","LIN":"24鄰","STREET":"同安路","SECT":" ","MAREA":" ","LANE":" ","ALLEY":" ","HOUSE_NO":"２２３號","E_COORD97":167178.31,"N_COORD97":2549187.5,"ADDRESS":"同安路２２３號","OBJECTID":209009},"geometry":{"x":167178.30999999866,"y":2549187.5}},{"attributes":{"ID":209011,"DIS_CODE":0,"TOWNNAME":"永康區","LI":"崑山里","LIN":"24鄰","STREET":"大仁街","SECT":" ","MAREA":" ","LANE":" ","ALLEY":" ","HOUSE_NO":"４４號","E_COORD97":173812.20999999999,"N_COORD97":2544663.8399999999,"ADDRESS":"大仁街４４號","OBJECTID":209010},"geometry":{"x":173812.20999999996,"y":2544663.8400000017}},{"attributes":{"ID":209012,"DIS_CODE":0,"TOWNNAME":"永康區","LI":"崑山里","LIN":"24鄰","STREET":"大仁街","SECT":" ","MAREA":" ","LANE":" ","ALLEY":" ","HOUSE_NO":"５４號","E_COORD97":173816.26000000001,"N_COORD97":2544683.8399999999,"ADDRESS":"大仁街５４號","OBJECTID":209011},"geometry":{"x":173816.26000000071,"y":2544683.8400000017}},{"attributes":{"ID":209013,"DIS_CODE":0,"TOWNNAME":"永康區","LI":"崑山里","LIN":"24鄰","STREET":"大仁街","SECT":" ","MAREA":" ","LANE":" ","ALLEY":" ","HOUSE_NO":"５６號","E_COORD97":173817.26000000001,"N_COORD97":2544687.8399999999,"ADDRESS":"大仁街５６號","OBJECTID":209012},"geometry":{"x":173817.26000000164,"y":2544687.8400000017}},{"attributes":{"ID":209014,"DIS_CODE":0,"TOWNNAME":"永康區","LI":"崑山里","LIN":"24鄰","STREET":"大仁街","SECT":" ","MAREA":" ","LANE":" ","ALLEY":" ","HOUSE_NO":"４６號","E_COORD97":173813.01000000001,"N_COORD97":2544667.8399999999,"ADDRESS":"大仁街４６號","OBJECTID":209013},"geometry":{"x":173813.01000000071,"y":2544667.8399999999}},{"attributes":{"ID":209015,"DIS_CODE":0,"TOWNNAME":"東區","LI":"忠孝里","LIN":"24鄰","STREET":"崇明四街","SECT":" ","MAREA":" ","LANE":" ","ALLEY":" ","HOUSE_NO":"２４號","E_COORD97":169635.37,"N_COORD97":2542295.7000000002,"ADDRESS":"崇明四街２４號","OBJECTID":209014},"geometry":{"x":169635.37000000104,"y":2542295.6999999993}},{"attributes":{"ID":209016,"DIS_CODE":0,"TOWNNAME":"仁德區","LI":"後壁里","LIN":"24鄰","STREET":"中正路","SECT":"二段","MAREA":" ","LANE":" ","ALLEY":" ","HOUSE_NO":"２７９號","E_COORD97":173228.10000000001,"N_COORD97":2539028.52,"ADDRESS":"中正路二段２７９號","OBJECTID":209015},"geometry":{"x":173228.09999999963,"y":2539028.5199999996}},{"attributes":{"ID":209017,"DIS_CODE":0,"TOWNNAME":"仁德區","LI":"後壁里","LIN":"24鄰","STREET":"中正路","SECT":"二段","MAREA":" ","LANE":" ","ALLEY":" ","HOUSE_NO":"２７７號","E_COORD97":173228.64999999999,"N_COORD97":2539024.52,"ADDRESS":"中正路二段２７７號","OBJECTID":209016},"geometry":{"x":173228.64999999944,"y":2539024.5200000014}},{"attributes":{"ID":209018,"DIS_CODE":0,"TOWNNAME":"仁德區","LI":"後壁里","LIN":"24鄰","STREET":"中正路","SECT":"二段","MAREA":" ","LANE":" ","ALLEY":" ","HOUSE_NO":"２５１號","E_COORD97":173225.32000000001,"N_COORD97":2538940.52,"ADDRESS":"中正路二段２５１號","OBJECTID":209017},"geometry":{"x":173225.3200000003,"y":2538940.5199999996}},{"attributes":{"ID":209019,"DIS_CODE":0,"TOWNNAME":"仁德區","LI":"後壁里","LIN":"24鄰","STREET":"中正路","SECT":"二段","MAREA":" ","LANE":" ","ALLEY":" ","HOUSE_NO":"２６１號","E_COORD97":173227.62,"N_COORD97":2538959.7799999998,"ADDRESS":"中正路二段２６１號","OBJECTID":209018},"geometry":{"x":173227.62000000104,"y":2538959.7800000031}},{"attributes":{"ID":209020,"DIS_CODE":0,"TOWNNAME":"永康區","LI":"勝利里","LIN":"24鄰","STREET":"勝利街","SECT":" ","MAREA":" ","LANE":" ","ALLEY":" ","HOUSE_NO":"９２之１號","E_COORD97":171368.25,"N_COORD97":2544767.2200000002,"ADDRESS":"勝利街９２之１號","OBJECTID":209019},"geometry":{"x":171368.25000000093,"y":2544767.2200000025}},{"attributes":{"ID":209021,"DIS_CODE":0,"TOWNNAME":"六甲區","LI":"中社里","LIN":"9鄰","STREET":" ","SECT":" ","MAREA":"中社","LANE":" ","ALLEY":" ","HOUSE_NO":"３２７號","E_COORD97":180995.20000000001,"N_COORD97":2570790.5499999998,"ADDRESS":"中社３２７號","OBJECTID":209020},"geometry":{"x":180995.20000000019,"y":2570790.5500000007}},{"attributes":{"ID":209022,"DIS_CODE":0,"TOWNNAME":"永康區","LI":"勝利里","LIN":"32鄰","STREET":"勝利街","SECT":" ","MAREA":" ","LANE":"３０巷","ALLEY":"７弄","HOUSE_NO":"６６號","E_COORD97":171489.12,"N_COORD97":2544513.3700000001,"ADDRESS":"勝利街３０巷７弄６６號","OBJECTID":209021},"geometry":{"x":171489.12000000011,"y":2544513.370000001}},{"attributes":{"ID":209023,"DIS_CODE":0,"TOWNNAME":"永康區","LI":"復國里","LIN":"32鄰","STREET":"復華一街","SECT":" ","MAREA":" ","LANE":"２８巷","ALLEY":"２５弄","HOUSE_NO":"７號","E_COORD97":172607.39999999999,"N_COORD97":2545143.02,"ADDRESS":"復華一街２８巷２５弄７號","OBJECTID":209022},"geometry":{"x":172607.4000000013,"y":2545143.0200000014}},{"attributes":{"ID":209024,"DIS_CODE":0,"TOWNNAME":"善化區","LI":"六分里","LIN":"2鄰","STREET":" ","SECT":" ","MAREA":"六分寮","LANE":" ","ALLEY":" ","HOUSE_NO":"３９７號","E_COORD97":178114.45999999999,"N_COORD97":2561322.75,"ADDRESS":"六分寮３９７號","OBJECTID":209023},"geometry":{"x":178114.45999999996,"y":2561322.75}},{"attributes":{"ID":209025,"DIS_CODE":0,"TOWNNAME":"善化區","LI":"六分里","LIN":"2鄰","STREET":" ","SECT":" ","MAREA":"六分寮","LANE":" ","ALLEY":" ","HOUSE_NO":"６之１號","E_COORD97":178250.29000000001,"N_COORD97":2561207.02,"ADDRESS":"六分寮６之１號","OBJECTID":209024},"geometry":{"x":178250.2900000019,"y":2561207.0200000014}},{"attributes":{"ID":209026,"DIS_CODE":0,"TOWNNAME":"善化區","LI":"六分里","LIN":"2鄰","STREET":" ","SECT":" ","MAREA":"六分寮","LANE":" ","ALLEY":" ","HOUSE_NO":"３９６之１號","E_COORD97":178142.47,"N_COORD97":2561300.52,"ADDRESS":"六分寮３９６之１號","OBJECTID":209025},"geometry":{"x":178142.47000000067,"y":2561300.5199999996}},{"attributes":{"ID":209027,"DIS_CODE":0,"TOWNNAME":"善化區","LI":"小新里","LIN":"2鄰","STREET":" ","SECT":" ","MAREA":"小新營","LANE":" ","ALLEY":" ","HOUSE_NO":"１３之３９號","E_COORD97":179811.54999999999,"N_COORD97":2558527.52,"ADDRESS":"小新營１３之３９號","OBJECTID":209026},"geometry":{"x":179811.55000000075,"y":2558527.5199999977}},{"attributes":{"ID":209028,"DIS_CODE":0,"TOWNNAME":"永康區","LI":"復國里","LIN":"32鄰","STREET":"復華一街","SECT":" ","MAREA":" ","LANE":"２８巷","ALLEY":"２５弄","HOUSE_NO":"２２號","E_COORD97":172598.14000000001,"N_COORD97":2545180.46,"ADDRESS":"復華一街２８巷２５弄２２號","OBJECTID":209027},"geometry":{"x":172598.1400000006,"y":2545180.4600000009}},{"attributes":{"ID":209029,"DIS_CODE":0,"TOWNNAME":"善化區","LI":"小新里","LIN":"2鄰","STREET":" ","SECT":" ","MAREA":"小新營","LANE":" ","ALLEY":" ","HOUSE_NO":"１３之４２號","E_COORD97":179820.04999999999,"N_COORD97":2558550.02,"ADDRESS":"小新營１３之４２號","OBJECTID":209028},"geometry":{"x":179820.05000000075,"y":2558550.0199999996}},{"attributes":{"ID":209030,"DIS_CODE":0,"TOWNNAME":"善化區","LI":"小新里","LIN":"2鄰","STREET":" ","SECT":" ","MAREA":"小新營","LANE":" ","ALLEY":" ","HOUSE_NO":"１３之５５號","E_COORD97":179800.44,"N_COORD97":2558520.02,"ADDRESS":"小新營１３之５５號","OBJECTID":209029},"geometry":{"x":179800.44000000041,"y":2558520.0199999996}},{"attributes":{"ID":209031,"DIS_CODE":0,"TOWNNAME":"麻豆區","LI":"北勢里","LIN":"2鄰","STREET":" ","SECT":" ","MAREA":"加輦邦","LANE":" ","ALLEY":" ","HOUSE_NO":"１５號之２","E_COORD97":173322.66,"N_COORD97":2566247.0699999998,"ADDRESS":"加輦邦１５號之２","OBJECTID":209030},"geometry":{"x":173322.66000000015,"y":2566247.0700000003}},{"attributes":{"ID":209032,"DIS_CODE":0,"TOWNNAME":"永康區","LI":"復國里","LIN":"32鄰","STREET":"復華一街","SECT":" ","MAREA":" ","LANE":"２８巷","ALLEY":"２５弄","HOUSE_NO":"８號","E_COORD97":172613.76999999999,"N_COORD97":2545160.3700000001,"ADDRESS":"復華一街２８巷２５弄８號","OBJECTID":209031},"geometry":{"x":172613.77000000048,"y":2545160.370000001}},{"attributes":{"ID":209033,"DIS_CODE":0,"TOWNNAME":"永康區","LI":"復國里","LIN":"32鄰","STREET":"復華一街","SECT":" ","MAREA":" ","LANE":"２８巷","ALLEY":"２５弄","HOUSE_NO":"３號","E_COORD97":172622.28,"N_COORD97":2545142.77,"ADDRESS":"復華一街２８巷２５弄３號","OBJECTID":209032},"geometry":{"x":172622.28000000026,"y":2545142.7699999996}},{"attributes":{"ID":209034,"DIS_CODE":0,"TOWNNAME":"永康區","LI":"復國里","LIN":"32鄰","STREET":"復華一街","SECT":" ","MAREA":" ","LANE":"２８巷","ALLEY":"２５弄","HOUSE_NO":"２６號","E_COORD97":172591.51000000001,"N_COORD97":2545161.5299999998,"ADDRESS":"復華一街２８巷２５弄２６號","OBJECTID":209033},"geometry":{"x":172591.50999999978,"y":2545161.5299999993}},{"attributes":{"ID":209035,"DIS_CODE":0,"TOWNNAME":"永康區","LI":"復國里","LIN":"32鄰","STREET":"復華一街","SECT":" ","MAREA":" ","LANE":"２８巷","ALLEY":"２５弄","HOUSE_NO":"１２號","E_COORD97":172611.07999999999,"N_COORD97":2545178.96,"ADDRESS":"復華一街２８巷２５弄１２號","OBJECTID":209034},"geometry":{"x":172611.08000000007,"y":2545178.9600000028}},{"attributes":{"ID":209036,"DIS_CODE":0,"TOWNNAME":"永康區","LI":"\u25A0行里","LIN":"32鄰","STREET":"仁愛街","SECT":" ","MAREA":" ","LANE":"１０８巷","ALLEY":"２１弄","HOUSE_NO":"３０號","E_COORD97":172180.44,"N_COORD97":2549474.4199999999,"ADDRESS":"仁愛街１０８巷２１弄３０號","OBJECTID":209035},"geometry":{"x":172180.44000000041,"y":2549474.4200000018}},{"attributes":{"ID":209037,"DIS_CODE":0,"TOWNNAME":"新營區","LI":"新北里","LIN":"15鄰","STREET":"南新街","SECT":" ","MAREA":" ","LANE":" ","ALLEY":" ","HOUSE_NO":"４７號","E_COORD97":179291.47,"N_COORD97":2578868.4500000002,"ADDRESS":"南新街４７號","OBJECTID":209036},"geometry":{"x":179291.47000000067,"y":2578868.4499999993}},{"attributes":{"ID":209038,"DIS_CODE":0,"TOWNNAME":"善化區","LI":"小新里","LIN":"2鄰","STREET":" ","SECT":" ","MAREA":"小新營","LANE":" ","ALLEY":" ","HOUSE_NO":"１３號之６","E_COORD97":179825.64999999999,"N_COORD97":2558496.27,"ADDRESS":"小新營１３號之６","OBJECTID":209037},"geometry":{"x":179825.65000000037,"y":2558496.2700000014}},{"attributes":{"ID":209039,"DIS_CODE":0,"TOWNNAME":"善化區","LI":"什乃里","LIN":"2鄰","STREET":" ","SECT":" ","MAREA":"什乃","LANE":" ","ALLEY":" ","HOUSE_NO":"２１之７號","E_COORD97":176144.45000000001,"N_COORD97":2560674.52,"ADDRESS":"什乃２１之７號","OBJECTID":209038},"geometry":{"x":176144.45000000112,"y":2560674.5200000014}},{"attributes":{"ID":209040,"DIS_CODE":0,"TOWNNAME":"善化區","LI":"六分里","LIN":"2鄰","STREET":" ","SECT":" ","MAREA":"六分寮","LANE":" ","ALLEY":" ","HOUSE_NO":"６號之１２","E_COORD97":178248.48999999999,"N_COORD97":2561227.02,"ADDRESS":"六分寮６號之１２","OBJECTID":209039},"geometry":{"x":178248.49000000022,"y":2561227.0200000014}},{"attributes":{"ID":209041,"DIS_CODE":0,"TOWNNAME":"善化區","LI":"六分里","LIN":"2鄰","STREET":" ","SECT":" ","MAREA":"六分寮","LANE":" ","ALLEY":" ","HOUSE_NO":"４００號","E_COORD97":178132.20999999999,"N_COORD97":2561349,"ADDRESS":"六分寮４００號","OBJECTID":209040},"geometry":{"x":178132.21000000183,"y":2561349.0000000037}},{"attributes":{"ID":209042,"DIS_CODE":0,"TOWNNAME":"善化區","LI":"什乃里","LIN":"2鄰","STREET":" ","SECT":" ","MAREA":"什乃","LANE":" ","ALLEY":" ","HOUSE_NO":"２１之１３號","E_COORD97":176125.63,"N_COORD97":2560676.77,"ADDRESS":"什乃２１之１３號","OBJECTID":209041},"geometry":{"x":176125.63000000082,"y":2560676.7700000014}},{"attributes":{"ID":209043,"DIS_CODE":0,"TOWNNAME":"善化區","LI":"小新里","LIN":"2鄰","STREET":" ","SECT":" ","MAREA":"小新營","LANE":" ","ALLEY":" ","HOUSE_NO":"１３號之２","E_COORD97":179841.95999999999,"N_COORD97":2558491.02,"ADDRESS":"小新營１３號之２","OBJECTID":209042},"geometry":{"x":179841.95999999996,"y":2558491.0200000014}},{"attributes":{"ID":209044,"DIS_CODE":0,"TOWNNAME":"善化區","LI":"六分里","LIN":"2鄰","STREET":" ","SECT":" ","MAREA":"六分寮","LANE":" ","ALLEY":" ","HOUSE_NO":"４０７號","E_COORD97":178167.51000000001,"N_COORD97":2561321,"ADDRESS":"六分寮４０７號","OBJECTID":209043},"geometry":{"x":178167.51000000071,"y":2561321}},{"attributes":{"ID":209045,"DIS_CODE":0,"TOWNNAME":"麻豆區","LI":"北勢里","LIN":"2鄰","STREET":" ","SECT":" ","MAREA":"加輦邦","LANE":" ","ALLEY":" ","HOUSE_NO":"１５號","E_COORD97":173335.17999999999,"N_COORD97":2566230.1499999999,"ADDRESS":"加輦邦１５號","OBJECTID":209044},"geometry":{"x":173335.18000000063,"y":2566230.1500000004}},{"attributes":{"ID":209046,"DIS_CODE":0,"TOWNNAME":"善化區","LI":"什乃里","LIN":"2鄰","STREET":" ","SECT":" ","MAREA":"什乃","LANE":" ","ALLEY":" ","HOUSE_NO":"２１之１１號","E_COORD97":176144.23999999999,"N_COORD97":2560656.27,"ADDRESS":"什乃２１之１１號","OBJECTID":209045},"geometry":{"x":176144.24000000115,"y":2560656.2700000014}},{"attributes":{"ID":209047,"DIS_CODE":0,"TOWNNAME":"善化區","LI":"什乃里","LIN":"2鄰","STREET":" ","SECT":" ","MAREA":"什乃","LANE":" ","ALLEY":" ","HOUSE_NO":"２１之１７號","E_COORD97":176126.32999999999,"N_COORD97":2560657.52,"ADDRESS":"什乃２１之１７號","OBJECTID":209046},"geometry":{"x":176126.33000000101,"y":2560657.5200000014}},{"attributes":{"ID":209048,"DIS_CODE":0,"TOWNNAME":"善化區","LI":"什乃里","LIN":"2鄰","STREET":" ","SECT":" ","MAREA":"什乃","LANE":" ","ALLEY":" ","HOUSE_NO":"２１之５號","E_COORD97":176165.19,"N_COORD97":2560655.52,"ADDRESS":"什乃２１之５號","OBJECTID":209047},"geometry":{"x":176165.19000000134,"y":2560655.5199999996}},{"attributes":{"ID":209049,"DIS_CODE":0,"TOWNNAME":"善化區","LI":"什乃里","LIN":"2鄰","STREET":" ","SECT":" ","MAREA":"什乃","LANE":" ","ALLEY":" ","HOUSE_NO":"１８號之６","E_COORD97":176307.41,"N_COORD97":2560647.2599999998,"ADDRESS":"什乃１８號之６","OBJECTID":209048},"geometry":{"x":176307.41000000108,"y":2560647.2599999998}},{"attributes":{"ID":209050,"DIS_CODE":0,"TOWNNAME":"善化區","LI":"什乃里","LIN":"2鄰","STREET":" ","SECT":" ","MAREA":"什乃","LANE":" ","ALLEY":" ","HOUSE_NO":"２１之１９號","E_COORD97":176125.82000000001,"N_COORD97":2560648.27,"ADDRESS":"什乃２１之１９號","OBJECTID":209049},"geometry":{"x":176125.8200000003,"y":2560648.2700000033}},{"attributes":{"ID":209051,"DIS_CODE":0,"TOWNNAME":"善化區","LI":"小新里","LIN":"2鄰","STREET":" ","SECT":" ","MAREA":"小新營","LANE":" ","ALLEY":" ","HOUSE_NO":"１３號之８","E_COORD97":179817.31,"N_COORD97":2558498.52,"ADDRESS":"小新營１３號之８","OBJECTID":209050},"geometry":{"x":179817.30999999959,"y":2558498.5200000014}},{"attributes":{"ID":209052,"DIS_CODE":0,"TOWNNAME":"善化區","LI":"六分里","LIN":"2鄰","STREET":" ","SECT":" ","MAREA":"六分寮","LANE":" ","ALLEY":" ","HOUSE_NO":"７號之３","E_COORD97":178242.20999999999,"N_COORD97":2561150.52,"ADDRESS":"六分寮７號之３","OBJECTID":209051},"geometry":{"x":178242.21000000183,"y":2561150.5199999996}},{"attributes":{"ID":209053,"DIS_CODE":0,"TOWNNAME":"安南區","LI":"\u25A0南里","LIN":"32鄰","STREET":"安昌街","SECT":" ","MAREA":" ","LANE":"１７４巷","ALLEY":"３９弄","HOUSE_NO":"２號","E_COORD97":170134.95999999999,"N_COORD97":2552332.4100000001,"ADDRESS":"安昌街１７４巷３９弄２號","OBJECTID":209052},"geometry":{"x":170134.96000000089,"y":2552332.410000002}},{"attributes":{"ID":209054,"DIS_CODE":0,"TOWNNAME":"安南區","LI":"\u25A0南里","LIN":"32鄰","STREET":"安昌街","SECT":" ","MAREA":" ","LANE":"１７４巷","ALLEY":"３９弄","HOUSE_NO":"４號","E_COORD97":170138.63,"N_COORD97":2552332.8199999998,"ADDRESS":"安昌街１７４巷３９弄４號","OBJECTID":209053},"geometry":{"x":170138.63000000082,"y":2552332.8200000022}},{"attributes":{"ID":209055,"DIS_CODE":0,"TOWNNAME":"安南區","LI":"\u25A0南里","LIN":"32鄰","STREET":"安昌街","SECT":" ","MAREA":" ","LANE":"１７４巷","ALLEY":"３９弄","HOUSE_NO":"６號","E_COORD97":170142.92000000001,"N_COORD97":2552332.8199999998,"ADDRESS":"安昌街１７４巷３９弄６號","OBJECTID":209054},"geometry":{"x":170142.92000000179,"y":2552332.8200000022}},{"attributes":{"ID":209056,"DIS_CODE":0,"TOWNNAME":"六甲區","LI":"中社里","LIN":"9鄰","STREET":" ","SECT":" ","MAREA":"中社","LANE":" ","ALLEY":" ","HOUSE_NO":"３３３號","E_COORD97":180999.09,"N_COORD97":2570778.3500000001,"ADDRESS":"中社３３３號","OBJECTID":209055},"geometry":{"x":180999.08999999985,"y":2570778.3500000034}},{"attributes":{"ID":209057,"DIS_CODE":0,"TOWNNAME":"新營區","LI":"護鎮里","LIN":"9鄰","STREET":" ","SECT":" ","MAREA":"後鎮","LANE":" ","ALLEY":" ","HOUSE_NO":"９６號之６","E_COORD97":179107.10000000001,"N_COORD97":2580932.5800000001,"ADDRESS":"後鎮９６號之６","OBJECTID":209056},"geometry":{"x":179107.0999999987,"y":2580932.5800000019}},{"attributes":{"ID":209058,"DIS_CODE":0,"TOWNNAME":"新營區","LI":"埤寮里","LIN":"9鄰","STREET":" ","SECT":" ","MAREA":"埤寮","LANE":" ","ALLEY":" ","HOUSE_NO":"５９之２２號","E_COORD97":180841.37,"N_COORD97":2580990.8199999998,"ADDRESS":"埤寮５９之２２號","OBJECTID":209057},"geometry":{"x":180841.37000000011,"y":2580990.8199999984}},{"attributes":{"ID":209059,"DIS_CODE":0,"TOWNNAME":"新營區","LI":"埤寮里","LIN":"9鄰","STREET":" ","SECT":" ","MAREA":"埤寮","LANE":" ","ALLEY":" ","HOUSE_NO":"５９之１號","E_COORD97":180525.62,"N_COORD97":2580876.0099999998,"ADDRESS":"埤寮５９之１號","OBJECTID":209058},"geometry":{"x":180525.62000000011,"y":2580876.0099999998}},{"attributes":{"ID":209060,"DIS_CODE":0,"TOWNNAME":"新營區","LI":"太南里","LIN":"9鄰","STREET":" ","SECT":" ","MAREA":"太子宮","LANE":" ","ALLEY":" ","HOUSE_NO":"２３２之１號","E_COORD97":176063.63,"N_COORD97":2576938.4700000002,"ADDRESS":"太子宮２３２之１號","OBJECTID":209059},"geometry":{"x":176063.62999999989,"y":2576938.4700000007}},{"attributes":{"ID":209061,"DIS_CODE":0,"TOWNNAME":"善化區","LI":"小新里","LIN":"2鄰","STREET":" ","SECT":" ","MAREA":"小新營","LANE":" ","ALLEY":" ","HOUSE_NO":"１３之３８號","E_COORD97":179810.29000000001,"N_COORD97":2558522.02,"ADDRESS":"小新營１３之３８號","OBJECTID":209060},"geometry":{"x":179810.29000000097,"y":2558522.0200000014}},{"attributes":{"ID":209062,"DIS_CODE":0,"TOWNNAME":"麻豆區","LI":"北勢里","LIN":"2鄰","STREET":" ","SECT":" ","MAREA":"加輦邦","LANE":" ","ALLEY":" ","HOUSE_NO":"１６號之２","E_COORD97":173270.14000000001,"N_COORD97":2566219.04,"ADDRESS":"加輦邦１６號之２","OBJECTID":209061},"geometry":{"x":173270.13999999966,"y":2566219.0399999991}},{"attributes":{"ID":209063,"DIS_CODE":0,"TOWNNAME":"善化區","LI":"小新里","LIN":"2鄰","STREET":" ","SECT":" ","MAREA":"小新營","LANE":" ","ALLEY":" ","HOUSE_NO":"１３之４８號","E_COORD97":179827.44,"N_COORD97":2558575.02,"ADDRESS":"小新營１３之４８號","OBJECTID":209062},"geometry":{"x":179827.44000000041,"y":2558575.0200000033}},{"attributes":{"ID":209064,"DIS_CODE":0,"TOWNNAME":"善化區","LI":"什乃里","LIN":"2鄰","STREET":" ","SECT":" ","MAREA":"什乃","LANE":" ","ALLEY":" ","HOUSE_NO":"２１之３１號","E_COORD97":176101.95999999999,"N_COORD97":2560624.77,"ADDRESS":"什乃２１之３１號","OBJECTID":209063},"geometry":{"x":176101.96000000089,"y":2560624.7700000033}},{"attributes":{"ID":209065,"DIS_CODE":0,"TOWNNAME":"善化區","LI":"牛庄里","LIN":"2鄰","STREET":" ","SECT":" ","MAREA":"牛庄","LANE":" ","ALLEY":" ","HOUSE_NO":"２６之１號","E_COORD97":180338.82000000001,"N_COORD97":2559777.77,"ADDRESS":"牛庄２６號之１","OBJECTID":209064},"geometry":{"x":180338.82000000216,"y":2559777.7700000014}},{"attributes":{"ID":209066,"DIS_CODE":0,"TOWNNAME":"善化區","LI":"什乃里","LIN":"2鄰","STREET":" ","SECT":" ","MAREA":"什乃","LANE":" ","ALLEY":" ","HOUSE_NO":"２１之１號","E_COORD97":176082.17999999999,"N_COORD97":2560838.77,"ADDRESS":"什乃２１之１號","OBJECTID":209065},"geometry":{"x":176082.1799999997,"y":2560838.7700000014}},{"attributes":{"ID":209067,"DIS_CODE":0,"TOWNNAME":"善化區","LI":"什乃里","LIN":"2鄰","STREET":" ","SECT":" ","MAREA":"什乃","LANE":" ","ALLEY":" ","HOUSE_NO":"２１之２９號","E_COORD97":176102.48999999999,"N_COORD97":2560634.52,"ADDRESS":"什乃２１之２９號","OBJECTID":209066},"geometry":{"x":176102.49000000022,"y":2560634.5200000014}},{"attributes":{"ID":209068,"DIS_CODE":0,"TOWNNAME":"安南區","LI":"\u25A0南里","LIN":"32鄰","STREET":"安昌街","SECT":" ","MAREA":" ","LANE":"１７４巷","ALLEY":"６１弄","HOUSE_NO":"１號","E_COORD97":170135.16,"N_COORD97":2552308.98,"ADDRESS":"安昌街１７４巷６１弄１號","OBJECTID":209067},"geometry":{"x":170135.16000000108,"y":2552308.9800000023}},{"attributes":{"ID":209069,"DIS_CODE":0,"TOWNNAME":"安南區","LI":"\u25A0南里","LIN":"32鄰","STREET":"安昌街","SECT":" ","MAREA":" ","LANE":"１７４巷","ALLEY":"６１弄","HOUSE_NO":"３號","E_COORD97":170139.45000000001,"N_COORD97":2552308.98,"ADDRESS":"安昌街１７４巷６１弄３號","OBJECTID":209068},"geometry":{"x":170139.44999999925,"y":2552308.9800000023}},{"attributes":{"ID":209070,"DIS_CODE":0,"TOWNNAME":"安南區","LI":"\u25A0南里","LIN":"32鄰","STREET":"安昌街","SECT":" ","MAREA":" ","LANE":"１７４巷","ALLEY":"６１弄","HOUSE_NO":"５號","E_COORD97":170143.32000000001,"N_COORD97":2552309.1899999999,"ADDRESS":"安昌街１７４巷６１弄５號","OBJECTID":209069},"geometry":{"x":170143.3200000003,"y":2552309.1900000013}},{"attributes":{"ID":209071,"DIS_CODE":0,"TOWNNAME":"仁德區","LI":"成功里","LIN":"32鄰","STREET":"成功一街","SECT":" ","MAREA":" ","LANE":"３５巷","ALLEY":"１弄","HOUSE_NO":"４號","E_COORD97":170589.98000000001,"N_COORD97":2540134.77,"ADDRESS":"成功一街３５巷１弄４號","OBJECTID":209070},"geometry":{"x":170589.98000000045,"y":2540134.7700000014}},{"attributes":{"ID":209072,"DIS_CODE":0,"TOWNNAME":"仁德區","LI":"後壁里","LIN":"32鄰","STREET":"德洋路","SECT":" ","MAREA":" ","LANE":"２２７巷","ALLEY":"２弄","HOUSE_NO":"６號","E_COORD97":172523.14999999999,"N_COORD97":2539577.77,"ADDRESS":"德洋路２２７巷２弄６號","OBJECTID":209071},"geometry":{"x":172523.15000000037,"y":2539577.7700000014}},{"attributes":{"ID":209073,"DIS_CODE":0,"TOWNNAME":"永康區","LI":"\u25A0行里","LIN":"32鄰","STREET":"仁愛街","SECT":" ","MAREA":" ","LANE":"１０８巷","ALLEY":"３２弄","HOUSE_NO":"２號","E_COORD97":172232.22,"N_COORD97":2549359.2999999998,"ADDRESS":"仁愛街１０８巷３２弄２號","OBJECTID":209072},"geometry":{"x":172232.21999999974,"y":2549359.2999999989}},{"attributes":{"ID":209074,"DIS_CODE":0,"TOWNNAME":"仁德區","LI":"成功里","LIN":"32鄰","STREET":"成功一街","SECT":" ","MAREA":" ","LANE":"３５巷","ALLEY":"１弄","HOUSE_NO":"１１號","E_COORD97":170574.92999999999,"N_COORD97":2540158.29,"ADDRESS":"成功一街３５巷１弄１１號","OBJECTID":209073},"geometry":{"x":170574.93000000156,"y":2540158.2899999991}},{"attributes":{"ID":209075,"DIS_CODE":0,"TOWNNAME":"仁德區","LI":"後壁里","LIN":"32鄰","STREET":"德洋路","SECT":" ","MAREA":" ","LANE":"２２７巷","ALLEY":"２弄","HOUSE_NO":"１６號","E_COORD97":172503.42999999999,"N_COORD97":2539586.77,"ADDRESS":"德洋路２２７巷２弄１６號","OBJECTID":209074},"geometry":{"x":172503.4299999997,"y":2539586.7699999996}},{"attributes":{"ID":209076,"DIS_CODE":0,"TOWNNAME":"東區","LI":"裕農里","LIN":"12鄰","STREET":"東寧路","SECT":" ","MAREA":" ","LANE":"４７２巷","ALLEY":" ","HOUSE_NO":"７號","E_COORD97":171048.81,"N_COORD97":2543276.46,"ADDRESS":"東寧路４７２巷７號","OBJECTID":209075},"geometry":{"x":171048.81000000052,"y":2543276.4600000046}},{"attributes":{"ID":209077,"DIS_CODE":0,"TOWNNAME":"新營區","LI":"新東里","LIN":"15鄰","STREET":"東泰一街","SECT":" ","MAREA":" ","LANE":" ","ALLEY":" ","HOUSE_NO":"６號","E_COORD97":181096.57000000001,"N_COORD97":2579549.8799999999,"ADDRESS":"東泰一街６號","OBJECTID":209076},"geometry":{"x":181096.57000000216,"y":2579549.8800000008}},{"attributes":{"ID":209078,"DIS_CODE":0,"TOWNNAME":"北區","LI":"文元里","LIN":"15鄰","STREET":"和緯路","SECT":"三段","MAREA":" ","LANE":" ","ALLEY":" ","HOUSE_NO":"３００號","E_COORD97":167606.51999999999,"N_COORD97":2545654.1299999999,"ADDRESS":"和緯路三段３００號","OBJECTID":209077},"geometry":{"x":167606.52000000048,"y":2545654.1300000008}},{"attributes":{"ID":209079,"DIS_CODE":0,"TOWNNAME":"北區","LI":"文元里","LIN":"15鄰","STREET":"和緯路","SECT":"三段","MAREA":" ","LANE":" ","ALLEY":" ","HOUSE_NO":"３０２號","E_COORD97":167601.59,"N_COORD97":2545653.1699999999,"ADDRESS":"和緯路三段３０２號","OBJECTID":209078},"geometry":{"x":167601.58999999985,"y":2545653.1699999999}},{"attributes":{"ID":209080,"DIS_CODE":0,"TOWNNAME":"北區","LI":"文元里","LIN":"15鄰","STREET":"和緯路","SECT":"三段","MAREA":" ","LANE":" ","ALLEY":" ","HOUSE_NO":"３１８號","E_COORD97":167576.82999999999,"N_COORD97":2545643.8100000001,"ADDRESS":"和緯路三段３１８號","OBJECTID":209079},"geometry":{"x":167576.83000000007,"y":2545643.8100000024}},{"attributes":{"ID":209081,"DIS_CODE":0,"TOWNNAME":"北區","LI":"文元里","LIN":"15鄰","STREET":"和緯路","SECT":"三段","MAREA":" ","LANE":" ","ALLEY":" ","HOUSE_NO":"３２０號","E_COORD97":167572.38,"N_COORD97":2545642.2200000002,"ADDRESS":"和緯路三段３２０號","OBJECTID":209080},"geometry":{"x":167572.37999999989,"y":2545642.2200000025}},{"attributes":{"ID":209082,"DIS_CODE":0,"TOWNNAME":"新營區","LI":"新東里","LIN":"9鄰","STREET":"東仁街","SECT":" ","MAREA":" ","LANE":" ","ALLEY":" ","HOUSE_NO":"１１號","E_COORD97":181250.16,"N_COORD97":2579538.0899999999,"ADDRESS":"東仁街１１號","OBJECTID":209081},"geometry":{"x":181250.16000000201,"y":2579538.0900000017}},{"attributes":{"ID":209083,"DIS_CODE":0,"TOWNNAME":"仁德區","LI":"後壁里","LIN":"32鄰","STREET":"德洋路","SECT":" ","MAREA":" ","LANE":"２２７巷","ALLEY":"２弄","HOUSE_NO":"３號","E_COORD97":172517.81,"N_COORD97":2539565.5099999998,"ADDRESS":"德洋路２２７巷２弄３號","OBJECTID":209082},"geometry":{"x":172517.80999999959,"y":2539565.5100000035}},{"attributes":{"ID":209084,"DIS_CODE":0,"TOWNNAME":"仁德區","LI":"後壁里","LIN":"32鄰","STREET":"德洋路","SECT":" ","MAREA":" ","LANE":"２０５巷","ALLEY":"３０弄","HOUSE_NO":"１４號","E_COORD97":172431.98000000001,"N_COORD97":2539553.2599999998,"ADDRESS":"德洋路２０５巷３０弄１４號","OBJECTID":209083},"geometry":{"x":172431.98000000138,"y":2539553.2599999998}},{"attributes":{"ID":209085,"DIS_CODE":0,"TOWNNAME":"新營區","LI":"三仙里","LIN":"9鄰","STREET":"博愛街","SECT":" ","MAREA":" ","LANE":" ","ALLEY":" ","HOUSE_NO":"９８之１號","E_COORD97":179628.89999999999,"N_COORD97":2578128.23,"ADDRESS":"博愛街９８之１號","OBJECTID":209084},"geometry":{"x":179628.9000000013,"y":2578128.2300000023}},{"attributes":{"ID":209086,"DIS_CODE":0,"TOWNNAME":"新營區","LI":"永生里","LIN":"9鄰","STREET":"新進路","SECT":" ","MAREA":" ","LANE":" ","ALLEY":" ","HOUSE_NO":"２７０號","E_COORD97":180098.12,"N_COORD97":2577878.9900000002,"ADDRESS":"新進路２７０號","OBJECTID":209085},"geometry":{"x":180098.12000000104,"y":2577878.9900000021}},{"attributes":{"ID":209087,"DIS_CODE":0,"TOWNNAME":"仁德區","LI":"後壁里","LIN":"32鄰","STREET":"德洋路","SECT":" ","MAREA":" ","LANE":"２２７巷","ALLEY":"２弄","HOUSE_NO":"１５號","E_COORD97":172494.82999999999,"N_COORD97":2539577.52,"ADDRESS":"德洋路２２７巷２弄１５號","OBJECTID":209086},"geometry":{"x":172494.83000000194,"y":2539577.5199999996}},{"attributes":{"ID":209088,"DIS_CODE":0,"TOWNNAME":"仁德區","LI":"後壁里","LIN":"32鄰","STREET":"德洋路","SECT":" ","MAREA":" ","LANE":"２２７巷","ALLEY":"２弄","HOUSE_NO":"１２號","E_COORD97":172512.14999999999,"N_COORD97":2539583.27,"ADDRESS":"德洋路２２７巷２弄１２號","OBJECTID":209087},"geometry":{"x":172512.1500000013,"y":2539583.2699999996}},{"attributes":{"ID":209089,"DIS_CODE":0,"TOWNNAME":"永康區","LI":"復國里","LIN":"32鄰","STREET":"復華一街","SECT":" ","MAREA":" ","LANE":"１９巷","ALLEY":"２８弄","HOUSE_NO":"８號","E_COORD97":172631.44,"N_COORD97":2545014.8799999999,"ADDRESS":"復華一街１９巷２８弄８號","OBJECTID":209088},"geometry":{"x":172631.44000000041,"y":2545014.8800000008}},{"attributes":{"ID":209090,"DIS_CODE":0,"TOWNNAME":"永康區","LI":"復國里","LIN":"32鄰","STREET":"復華一街","SECT":" ","MAREA":" ","LANE":"１９巷","ALLEY":"３０弄","HOUSE_NO":"１０號","E_COORD97":172627.47,"N_COORD97":2544992.1699999999,"ADDRESS":"復華一街１９巷３０弄１０號","OBJECTID":209089},"geometry":{"x":172627.4700000016,"y":2544992.1699999999}},{"attributes":{"ID":209091,"DIS_CODE":0,"TOWNNAME":"永康區","LI":"復國里","LIN":"32鄰","STREET":"復華一街","SECT":" ","MAREA":" ","LANE":"１９巷","ALLEY":"３０弄","HOUSE_NO":"１１號","E_COORD97":172618.89999999999,"N_COORD97":2544982.9100000001,"ADDRESS":"復華一街１９巷３０弄１１號","OBJECTID":209090},"geometry":{"x":172618.9000000013,"y":2544982.9100000001}},{"attributes":{"ID":209092,"DIS_CODE":0,"TOWNNAME":"永康區","LI":"復國里","LIN":"32鄰","STREET":"復華一街","SECT":" ","MAREA":" ","LANE":"１９巷","ALLEY":"３０弄","HOUSE_NO":"１２號","E_COORD97":172623.23000000001,"N_COORD97":2544992.5600000001,"ADDRESS":"復華一街１９巷３０弄１２號","OBJECTID":209091},"geometry":{"x":172623.23000000231,"y":2544992.5600000005}},{"attributes":{"ID":209093,"DIS_CODE":0,"TOWNNAME":"永康區","LI":"復國里","LIN":"32鄰","STREET":"復華一街","SECT":" ","MAREA":" ","LANE":"１９巷","ALLEY":"３０弄","HOUSE_NO":"１６號","E_COORD97":172619.13,"N_COORD97":2544992.71,"ADDRESS":"復華一街１９巷３０弄１６號","OBJECTID":209092},"geometry":{"x":172619.12999999989,"y":2544992.7100000009}},{"attributes":{"ID":209094,"DIS_CODE":0,"TOWNNAME":"永康區","LI":"復國里","LIN":"32鄰","STREET":"復華一街","SECT":" ","MAREA":" ","LANE":"１９巷","ALLEY":"３０弄","HOUSE_NO":"１號","E_COORD97":172638.28,"N_COORD97":2544982.1299999999,"ADDRESS":"復華一街１９巷３０弄１號","OBJECTID":209093},"geometry":{"x":172638.28000000119,"y":2544982.1300000008}},{"attributes":{"ID":209095,"DIS_CODE":0,"TOWNNAME":"永康區","LI":"復國里","LIN":"32鄰","STREET":"復華一街","SECT":" ","MAREA":" ","LANE":"１９巷","ALLEY":"３０弄","HOUSE_NO":"２號","E_COORD97":172638.51000000001,"N_COORD97":2544991.3999999999,"ADDRESS":"復華一街１９巷３０弄２號","OBJECTID":209094},"geometry":{"x":172638.50999999978,"y":2544991.3999999985}},{"attributes":{"ID":209096,"DIS_CODE":0,"TOWNNAME":"永康區","LI":"復國里","LIN":"32鄰","STREET":"復華一街","SECT":" ","MAREA":" ","LANE":"１９巷","ALLEY":"３０弄","HOUSE_NO":"３號","E_COORD97":172634.29000000001,"N_COORD97":2544982.1299999999,"ADDRESS":"復華一街１９巷３０弄３號","OBJECTID":209095},"geometry":{"x":172634.29000000097,"y":2544982.1300000008}},{"attributes":{"ID":209097,"DIS_CODE":0,"TOWNNAME":"仁德區","LI":"大甲里","LIN":"12鄰","STREET":"行大街","SECT":" ","MAREA":" ","LANE":"３４１巷","ALLEY":" ","HOUSE_NO":"８號","E_COORD97":169628.371683,"N_COORD97":2535163.7045100001,"ADDRESS":"行大街３４１巷８號","OBJECTID":209096},"geometry":{"x":169628.37168300059,"y":2535163.7045090031}},{"attributes":{"ID":209098,"DIS_CODE":0,"TOWNNAME":"永康區","LI":"復國里","LIN":"32鄰","STREET":"復華一街","SECT":" ","MAREA":" ","LANE":"１９巷","ALLEY":"３０弄","HOUSE_NO":"５號","E_COORD97":172630.12,"N_COORD97":2544982.5099999998,"ADDRESS":"復華一街１９巷３０弄５號","OBJECTID":209097},"geometry":{"x":172630.12000000011,"y":2544982.5099999998}},{"attributes":{"ID":209099,"DIS_CODE":0,"TOWNNAME":"永康區","LI":"復國里","LIN":"32鄰","STREET":"復華一街","SECT":" ","MAREA":" ","LANE":"１９巷","ALLEY":"３０弄","HOUSE_NO":"６號","E_COORD97":172634.57000000001,"N_COORD97":2544991.6299999999,"ADDRESS":"復華一街１９巷３０弄６號","OBJECTID":209098},"geometry":{"x":172634.57000000123,"y":2544991.629999999}},{"attributes":{"ID":209100,"DIS_CODE":0,"TOWNNAME":"永康區","LI":"復國里","LIN":"32鄰","STREET":"復華一街","SECT":" ","MAREA":" ","LANE":"１９巷","ALLEY":"３０弄","HOUSE_NO":"７號","E_COORD97":172625.56,"N_COORD97":2544982.7000000002,"ADDRESS":"復華一街１９巷３０弄７號","OBJECTID":209099},"geometry":{"x":172625.56000000052,"y":2544982.7000000011}},{"attributes":{"ID":209101,"DIS_CODE":0,"TOWNNAME":"永康區","LI":"復國里","LIN":"32鄰","STREET":"復華一街","SECT":" ","MAREA":" ","LANE":"１９巷","ALLEY":"３０弄","HOUSE_NO":"８號","E_COORD97":172630.23999999999,"N_COORD97":2544992.02,"ADDRESS":"復華一街１９巷３０弄８號","OBJECTID":209100},"geometry":{"x":172630.24000000115,"y":2544992.0199999996}},{"attributes":{"ID":209102,"DIS_CODE":0,"TOWNNAME":"永康區","LI":"復國里","LIN":"32鄰","STREET":"復華一街","SECT":" ","MAREA":" ","LANE":"１９巷","ALLEY":"３０弄","HOUSE_NO":"９號","E_COORD97":172621.85000000001,"N_COORD97":2544982.6099999999,"ADDRESS":"復華一街１９巷３０弄９號","OBJECTID":209101},"geometry":{"x":172621.85000000056,"y":2544982.6100000031}},{"attributes":{"ID":209103,"DIS_CODE":0,"TOWNNAME":"新營區","LI":"太南里","LIN":"9鄰","STREET":" ","SECT":" ","MAREA":"太子宮","LANE":" ","ALLEY":" ","HOUSE_NO":"２３８之５號","E_COORD97":176008.34,"N_COORD97":2576928.7799999998,"ADDRESS":"太子宮２３８之５號","OBJECTID":209102},"geometry":{"x":176008.33999999985,"y":2576928.7800000031}},{"attributes":{"ID":209104,"DIS_CODE":0,"TOWNNAME":"新營區","LI":"太南里","LIN":"9鄰","STREET":" ","SECT":" ","MAREA":"太子宮","LANE":" ","ALLEY":" ","HOUSE_NO":"２４１號","E_COORD97":176029.20999999999,"N_COORD97":2576897.6099999999,"ADDRESS":"太子宮２４１號","OBJECTID":209103},"geometry":{"x":176029.20999999996,"y":2576897.6100000013}},{"attributes":{"ID":209105,"DIS_CODE":0,"TOWNNAME":"新營區","LI":"太南里","LIN":"9鄰","STREET":" ","SECT":" ","MAREA":"太子宮","LANE":" ","ALLEY":" ","HOUSE_NO":"２３９之１１號","E_COORD97":175998.17999999999,"N_COORD97":2576896.73,"ADDRESS":"太子宮２３９之１１號","OBJECTID":209104},"geometry":{"x":175998.18000000063,"y":2576896.7300000023}},{"attributes":{"ID":209106,"DIS_CODE":0,"TOWNNAME":"善化區","LI":"嘉南里","LIN":"2鄰","STREET":" ","SECT":" ","MAREA":"茄拔","LANE":" ","ALLEY":" ","HOUSE_NO":"４９０號","E_COORD97":181247.81,"N_COORD97":2558142.7599999998,"ADDRESS":"茄拔４９０號","OBJECTID":209105},"geometry":{"x":181247.80999999959,"y":2558142.7599999998}},{"attributes":{"ID":209107,"DIS_CODE":0,"TOWNNAME":"白河區","LI":"外角里","LIN":"8鄰","STREET":"開明街","SECT":" ","MAREA":" ","LANE":" ","ALLEY":" ","HOUSE_NO":"１６號","E_COORD97":190738.45000000001,"N_COORD97":2583380.96,"ADDRESS":"開明街１６號","OBJECTID":209106},"geometry":{"x":190738.45000000112,"y":2583380.9600000046}},{"attributes":{"ID":209108,"DIS_CODE":0,"TOWNNAME":"六甲區","LI":"甲東里","LIN":"9鄰","STREET":"中正路","SECT":" ","MAREA":" ","LANE":" ","ALLEY":" ","HOUSE_NO":"１１００號","E_COORD97":183788.14999999999,"N_COORD97":2571060.4399999999,"ADDRESS":"中正路１１００號","OBJECTID":209107},"geometry":{"x":183788.15000000224,"y":2571060.4400000013}},{"attributes":{"ID":209109,"DIS_CODE":0,"TOWNNAME":"永康區","LI":"復國里","LIN":"32鄰","STREET":"復華一街","SECT":" ","MAREA":" ","LANE":"１９巷","ALLEY":"３２弄","HOUSE_NO":"１０號","E_COORD97":172625.81,"N_COORD97":2544951.8700000001,"ADDRESS":"復華一街１９巷３２弄１０號","OBJECTID":209108},"geometry":{"x":172625.81000000052,"y":2544951.8700000048}},{"attributes":{"ID":209110,"DIS_CODE":0,"TOWNNAME":"永康區","LI":"復國里","LIN":"32鄰","STREET":"復華一街","SECT":" ","MAREA":" ","LANE":"１９巷","ALLEY":"３２弄","HOUSE_NO":"１１號","E_COORD97":172617.32000000001,"N_COORD97":2544945.1600000001,"ADDRESS":"復華一街１９巷３２弄１１號","OBJECTID":209109},"geometry":{"x":172617.32000000216,"y":2544945.1600000001}},{"attributes":{"ID":209111,"DIS_CODE":0,"TOWNNAME":"永康區","LI":"復國里","LIN":"32鄰","STREET":"復華一街","SECT":" ","MAREA":" ","LANE":"１９巷","ALLEY":"３２弄","HOUSE_NO":"１２號","E_COORD97":172621.95999999999,"N_COORD97":2544951.8700000001,"ADDRESS":"復華一街１９巷３２弄１２號","OBJECTID":209110},"geometry":{"x":172621.95999999996,"y":2544951.8700000048}},{"attributes":{"ID":209112,"DIS_CODE":0,"TOWNNAME":"永康區","LI":"復國里","LIN":"32鄰","STREET":"復華一街","SECT":" ","MAREA":" ","LANE":"１９巷","ALLEY":"３２弄","HOUSE_NO":"１６號","E_COORD97":172617.85999999999,"N_COORD97":2544952.27,"ADDRESS":"復華一街１９巷３２弄１６號","OBJECTID":209111},"geometry":{"x":172617.86000000127,"y":2544952.2700000014}},{"attributes":{"ID":209113,"DIS_CODE":0,"TOWNNAME":"永康區","LI":"復國里","LIN":"32鄰","STREET":"復華一街","SECT":" ","MAREA":" ","LANE":"１９巷","ALLEY":"３２弄","HOUSE_NO":"１號","E_COORD97":172636.73999999999,"N_COORD97":2544943.1899999999,"ADDRESS":"復華一街１９巷３２弄１號","OBJECTID":209112},"geometry":{"x":172636.74000000115,"y":2544943.1899999995}},{"attributes":{"ID":209114,"DIS_CODE":0,"TOWNNAME":"永康區","LI":"復國里","LIN":"32鄰","STREET":"復華一街","SECT":" ","MAREA":" ","LANE":"１９巷","ALLEY":"３２弄","HOUSE_NO":"２號","E_COORD97":172636.85000000001,"N_COORD97":2544951.6400000001,"ADDRESS":"復華一街１９巷３２弄２號","OBJECTID":209113},"geometry":{"x":172636.85000000056,"y":2544951.6400000006}},{"attributes":{"ID":209115,"DIS_CODE":0,"TOWNNAME":"永康區","LI":"復國里","LIN":"32鄰","STREET":"復華一街","SECT":" ","MAREA":" ","LANE":"１９巷","ALLEY":"３２弄","HOUSE_NO":"１號","E_COORD97":172632.64000000001,"N_COORD97":2544943.6400000001,"ADDRESS":"復華一街１９巷３２弄１號","OBJECTID":209114},"geometry":{"x":172632.63999999966,"y":2544943.6400000025}},{"attributes":{"ID":209116,"DIS_CODE":0,"TOWNNAME":"永康區","LI":"復國里","LIN":"32鄰","STREET":"復華一街","SECT":" ","MAREA":" ","LANE":"１９巷","ALLEY":"３２弄","HOUSE_NO":"５號","E_COORD97":172628.34,"N_COORD97":2544944.0800000001,"ADDRESS":"復華一街１９巷３２弄５號","OBJECTID":209115},"geometry":{"x":172628.33999999985,"y":2544944.0800000019}},{"attributes":{"ID":209117,"DIS_CODE":0,"TOWNNAME":"善化區","LI":"六分里","LIN":"2鄰","STREET":" ","SECT":" ","MAREA":"六分寮","LANE":" ","ALLEY":" ","HOUSE_NO":"３９９號之５","E_COORD97":178121.82000000001,"N_COORD97":2561250.77,"ADDRESS":"六分寮３９９號之５","OBJECTID":209116},"geometry":{"x":178121.82000000123,"y":2561250.7699999996}},{"attributes":{"ID":209118,"DIS_CODE":0,"TOWNNAME":"善化區","LI":"小新里","LIN":"2鄰","STREET":" ","SECT":" ","MAREA":"小新營","LANE":" ","ALLEY":" ","HOUSE_NO":"１３號之５","E_COORD97":179830.39999999999,"N_COORD97":2558495.02,"ADDRESS":"小新營１３號之５","OBJECTID":209117},"geometry":{"x":179830.4000000013,"y":2558495.0200000014}},{"attributes":{"ID":209119,"DIS_CODE":0,"TOWNNAME":"善化區","LI":"小新里","LIN":"2鄰","STREET":" ","SECT":" ","MAREA":"小新營","LANE":" ","ALLEY":" ","HOUSE_NO":"１３之４９號","E_COORD97":179829.10000000001,"N_COORD97":2558580.27,"ADDRESS":"小新營１３之４９號","OBJECTID":209118},"geometry":{"x":179829.09999999963,"y":2558580.2700000033}},{"attributes":{"ID":209120,"DIS_CODE":0,"TOWNNAME":"永康區","LI":"復國里","LIN":"32鄰","STREET":"復華一街","SECT":" ","MAREA":" ","LANE":"１９巷","ALLEY":"３２弄","HOUSE_NO":"６號","E_COORD97":172633.01999999999,"N_COORD97":2544951.6400000001,"ADDRESS":"復華一街１９巷３２弄６號","OBJECTID":209119},"geometry":{"x":172633.01999999955,"y":2544951.6400000006}},{"attributes":{"ID":209121,"DIS_CODE":0,"TOWNNAME":"麻豆區","LI":"北勢里","LIN":"2鄰","STREET":" ","SECT":" ","MAREA":"加輦邦","LANE":" ","ALLEY":" ","HOUSE_NO":"１６號之６","E_COORD97":173263.70000000001,"N_COORD97":2566087.1499999999,"ADDRESS":"加輦邦１６號之６","OBJECTID":209120},"geometry":{"x":173263.69999999925,"y":2566087.1500000004}},{"attributes":{"ID":209122,"DIS_CODE":0,"TOWNNAME":"善化區","LI":"小新里","LIN":"2鄰","STREET":" ","SECT":" ","MAREA":"小新營","LANE":" ","ALLEY":" ","HOUSE_NO":"１３號之９","E_COORD97":179856.20999999999,"N_COORD97":2558522.27,"ADDRESS":"小新營１３號之９","OBJECTID":209121},"geometry":{"x":179856.21000000183,"y":2558522.2699999996}},{"attributes":{"ID":209123,"DIS_CODE":0,"TOWNNAME":"善化區","LI":"牛庄里","LIN":"2鄰","STREET":" ","SECT":" ","MAREA":"牛庄","LANE":" ","ALLEY":" ","HOUSE_NO":"２４號之３","E_COORD97":180291.73999999999,"N_COORD97":2559860.02,"ADDRESS":"牛庄２４號之３","OBJECTID":209122},"geometry":{"x":180291.73999999929,"y":2559860.0200000033}},{"attributes":{"ID":209124,"DIS_CODE":0,"TOWNNAME":"善化區","LI":"小新里","LIN":"2鄰","STREET":" ","SECT":" ","MAREA":"小新營","LANE":" ","ALLEY":" ","HOUSE_NO":"１３號之２３","E_COORD97":179838.10000000001,"N_COORD97":2558552.52,"ADDRESS":"小新營１３號之２３","OBJECTID":209123},"geometry":{"x":179838.10000000056,"y":2558552.5200000014}},{"attributes":{"ID":209125,"DIS_CODE":0,"TOWNNAME":"麻豆區","LI":"北勢里","LIN":"2鄰","STREET":" ","SECT":" ","MAREA":"加輦邦","LANE":" ","ALLEY":" ","HOUSE_NO":"１６號","E_COORD97":173293.78,"N_COORD97":2566228.2599999998,"ADDRESS":"加輦邦１６號","OBJECTID":209124},"geometry":{"x":173293.77999999933,"y":2566228.2599999998}},{"attributes":{"ID":209126,"DIS_CODE":0,"TOWNNAME":"善化區","LI":"六分里","LIN":"2鄰","STREET":" ","SECT":" ","MAREA":"六分寮","LANE":" ","ALLEY":" ","HOUSE_NO":"４０４號","E_COORD97":178099.98999999999,"N_COORD97":2561409,"ADDRESS":"六分寮４０４號","OBJECTID":209125},"geometry":{"x":178099.99000000209,"y":2561409}},{"attributes":{"ID":209127,"DIS_CODE":0,"TOWNNAME":"善化區","LI":"六分里","LIN":"2鄰","STREET":" ","SECT":" ","MAREA":"六分寮","LANE":" ","ALLEY":" ","HOUSE_NO":"３９９號之２","E_COORD97":178135.87,"N_COORD97":2561256.77,"ADDRESS":"六分寮３９９號之２","OBJECTID":209126},"geometry":{"x":178135.87000000011,"y":2561256.7700000014}},{"attributes":{"ID":209128,"DIS_CODE":0,"TOWNNAME":"善化區","LI":"小新里","LIN":"2鄰","STREET":" ","SECT":" ","MAREA":"小新營","LANE":" ","ALLEY":" ","HOUSE_NO":"１３之４１號","E_COORD97":179814.76999999999,"N_COORD97":2558537.27,"ADDRESS":"小新營１３之４１號","OBJECTID":209127},"geometry":{"x":179814.77000000048,"y":2558537.2700000014}},{"attributes":{"ID":209129,"DIS_CODE":0,"TOWNNAME":"善化區","LI":"六分里","LIN":"2鄰","STREET":" ","SECT":" ","MAREA":"六分寮","LANE":" ","ALLEY":" ","HOUSE_NO":"５之４號","E_COORD97":178244.78,"N_COORD97":2561276.27,"ADDRESS":"六分寮５之４號","OBJECTID":209128},"geometry":{"x":178244.78000000026,"y":2561276.2700000014}},{"attributes":{"ID":209130,"DIS_CODE":0,"TOWNNAME":"白河區","LI":"白河里","LIN":"14鄰","STREET":"新起街","SECT":" ","MAREA":" ","LANE":" ","ALLEY":" ","HOUSE_NO":"４３號","E_COORD97":190343.78,"N_COORD97":2583126.9199999999,"ADDRESS":"新起街４３號","OBJECTID":209129},"geometry":{"x":190343.78000000026,"y":2583126.9200000018}},{"attributes":{"ID":209131,"DIS_CODE":0,"TOWNNAME":"永康區","LI":"復國里","LIN":"32鄰","STREET":"復華一街","SECT":" ","MAREA":" ","LANE":"１９巷","ALLEY":"３２弄","HOUSE_NO":"７號","E_COORD97":172623.95000000001,"N_COORD97":2544944.6299999999,"ADDRESS":"復華一街１９巷３２弄７號","OBJECTID":209130},"geometry":{"x":172623.95000000019,"y":2544944.6300000027}},{"attributes":{"ID":209132,"DIS_CODE":0,"TOWNNAME":"永康區","LI":"復國里","LIN":"32鄰","STREET":"復華一街","SECT":" ","MAREA":" ","LANE":"１９巷","ALLEY":"３２弄","HOUSE_NO":"８號","E_COORD97":172628.64000000001,"N_COORD97":2544951.7000000002,"ADDRESS":"復華一街１９巷３２弄８號","OBJECTID":209131},"geometry":{"x":172628.6400000006,"y":2544951.7000000011}},{"attributes":{"ID":209133,"DIS_CODE":0,"TOWNNAME":"永康區","LI":"復國里","LIN":"32鄰","STREET":"復華一街","SECT":" ","MAREA":" ","LANE":"１９巷","ALLEY":"３２弄","HOUSE_NO":"９號","E_COORD97":172620.23999999999,"N_COORD97":2544945.1600000001,"ADDRESS":"復華一街１９巷３２弄９號","OBJECTID":209132},"geometry":{"x":172620.24000000115,"y":2544945.1600000001}},{"attributes":{"ID":209134,"DIS_CODE":0,"TOWNNAME":"永康區","LI":"\u25A0行里","LIN":"32鄰","STREET":"三村一街","SECT":" ","MAREA":" ","LANE":"１３８巷","ALLEY":"９２弄","HOUSE_NO":"１１號","E_COORD97":172133.42000000001,"N_COORD97":2549426.79,"ADDRESS":"三村一街１３８巷９２弄１１號","OBJECTID":209133},"geometry":{"x":172133.42000000086,"y":2549426.790000001}},{"attributes":{"ID":209135,"DIS_CODE":0,"TOWNNAME":"永康區","LI":"\u25A0行里","LIN":"32鄰","STREET":"三村一街","SECT":" ","MAREA":" ","LANE":"１３８巷","ALLEY":"９２弄","HOUSE_NO":"１３號","E_COORD97":172139,"N_COORD97":2549424.8799999999,"ADDRESS":"三村一街１３８巷９２弄１３號","OBJECTID":209134},"geometry":{"x":172139,"y":2549424.8800000027}},{"attributes":{"ID":209136,"DIS_CODE":0,"TOWNNAME":"永康區","LI":"\u25A0行里","LIN":"32鄰","STREET":"三村一街","SECT":" ","MAREA":" ","LANE":"１３８巷","ALLEY":"９２弄","HOUSE_NO":"１５號","E_COORD97":172141.79999999999,"N_COORD97":2549422.1600000001,"ADDRESS":"三村一街１３８巷９２弄１５號","OBJECTID":209135},"geometry":{"x":172141.79999999981,"y":2549422.160000002}},{"attributes":{"ID":209137,"DIS_CODE":0,"TOWNNAME":"永康區","LI":"\u25A0行里","LIN":"32鄰","STREET":"三村一街","SECT":" ","MAREA":" ","LANE":"１３８巷","ALLEY":"９２弄","HOUSE_NO":"１７號","E_COORD97":172144.44,"N_COORD97":2549416,"ADDRESS":"三村一街１３８巷９２弄１７號","OBJECTID":209136},"geometry":{"x":172144.44000000041,"y":2549416.0000000019}},{"attributes":{"ID":209138,"DIS_CODE":0,"TOWNNAME":"永康區","LI":"\u25A0行里","LIN":"32鄰","STREET":"三村一街","SECT":" ","MAREA":" ","LANE":"１３８巷","ALLEY":"９２弄","HOUSE_NO":"１９號","E_COORD97":172149.5,"N_COORD97":2549417.9100000001,"ADDRESS":"三村一街１３８巷９２弄１９號","OBJECTID":209137},"geometry":{"x":172149.50000000186,"y":2549417.9100000001}},{"attributes":{"ID":209139,"DIS_CODE":0,"TOWNNAME":"永康區","LI":"\u25A0行里","LIN":"32鄰","STREET":"三村一街","SECT":" ","MAREA":" ","LANE":"１３８巷","ALLEY":"９２弄","HOUSE_NO":"２１號","E_COORD97":172158.17999999999,"N_COORD97":2549409.6099999999,"ADDRESS":"三村一街１３８巷９２弄２１號","OBJECTID":209138},"geometry":{"x":172158.18000000156,"y":2549409.6099999994}},{"attributes":{"ID":209140,"DIS_CODE":0,"TOWNNAME":"白河區","LI":"外角里","LIN":"4鄰","STREET":"開明街","SECT":" ","MAREA":" ","LANE":" ","ALLEY":" ","HOUSE_NO":"１６７之２號","E_COORD97":190534,"N_COORD97":2583171.79,"ADDRESS":"開明街１６７之２號","OBJECTID":209139},"geometry":{"x":190534.00000000093,"y":2583171.7899999991}},{"attributes":{"ID":209141,"DIS_CODE":0,"TOWNNAME":"永康區","LI":"\u25A0行里","LIN":"32鄰","STREET":"三村一街","SECT":" ","MAREA":" ","LANE":"１３８巷","ALLEY":"９２弄","HOUSE_NO":"２３號","E_COORD97":172163.57999999999,"N_COORD97":2549410.1299999999,"ADDRESS":"三村一街１３８巷９２弄２３號","OBJECTID":209140},"geometry":{"x":172163.58000000007,"y":2549410.1300000008}},{"attributes":{"ID":209142,"DIS_CODE":0,"TOWNNAME":"永康區","LI":"\u25A0行里","LIN":"32鄰","STREET":"三村一街","SECT":" ","MAREA":" ","LANE":"１３８巷","ALLEY":"９２弄","HOUSE_NO":"２５號","E_COORD97":172168.48000000001,"N_COORD97":2549407.4300000002,"ADDRESS":"三村一街１３８巷９２弄２５號","OBJECTID":209141},"geometry":{"x":172168.48000000045,"y":2549407.4299999997}},{"attributes":{"ID":209143,"DIS_CODE":0,"TOWNNAME":"永康區","LI":"\u25A0行里","LIN":"32鄰","STREET":"三村一街","SECT":" ","MAREA":" ","LANE":"１３８巷","ALLEY":"９２弄","HOUSE_NO":"２７號","E_COORD97":172174.03,"N_COORD97":2549405.5299999998,"ADDRESS":"三村一街１３８巷９２弄２７號","OBJECTID":209142},"geometry":{"x":172174.03000000119,"y":2549405.5300000012}},{"attributes":{"ID":209144,"DIS_CODE":0,"TOWNNAME":"永康區","LI":"\u25A0行里","LIN":"32鄰","STREET":"三村一街","SECT":" ","MAREA":" ","LANE":"１３８巷","ALLEY":"９２弄","HOUSE_NO":"２９號","E_COORD97":172177.62,"N_COORD97":2549397.7400000002,"ADDRESS":"三村一街１３８巷９２弄２９號","OBJECTID":209143},"geometry":{"x":172177.62000000197,"y":2549397.7400000021}},{"attributes":{"ID":209145,"DIS_CODE":0,"TOWNNAME":"永康區","LI":"\u25A0行里","LIN":"32鄰","STREET":"三村一街","SECT":" ","MAREA":" ","LANE":"１３８巷","ALLEY":"９２弄","HOUSE_NO":"３１號","E_COORD97":172182.70999999999,"N_COORD97":2549396.1000000001,"ADDRESS":"三村一街１３８巷９２弄３１號","OBJECTID":209144},"geometry":{"x":172182.71000000089,"y":2549396.0999999996}},{"attributes":{"ID":209146,"DIS_CODE":0,"TOWNNAME":"永康區","LI":"\u25A0行里","LIN":"32鄰","STREET":"三村一街","SECT":" ","MAREA":" ","LANE":"１３８巷","ALLEY":"９２弄","HOUSE_NO":"３３號","E_COORD97":172188.09,"N_COORD97":2549396.6000000001,"ADDRESS":"三村一街１３８巷９２弄３３號","OBJECTID":209145},"geometry":{"x":172188.09000000078,"y":2549396.5999999996}},{"attributes":{"ID":209147,"DIS_CODE":0,"TOWNNAME":"永康區","LI":"\u25A0行里","LIN":"32鄰","STREET":"三村一街","SECT":" ","MAREA":" ","LANE":"１３８巷","ALLEY":"９２弄","HOUSE_NO":"３５號","E_COORD97":172192.98999999999,"N_COORD97":2549393.8900000001,"ADDRESS":"三村一街１３８巷９２弄３５號","OBJECTID":209146},"geometry":{"x":172192.99000000115,"y":2549393.8900000025}},{"attributes":{"ID":209148,"DIS_CODE":0,"TOWNNAME":"永康區","LI":"\u25A0行里","LIN":"32鄰","STREET":"三村一街","SECT":" ","MAREA":" ","LANE":"１３８巷","ALLEY":"９２弄","HOUSE_NO":"３７號","E_COORD97":172197.89000000001,"N_COORD97":2549391.1899999999,"ADDRESS":"三村一街１３８巷９２弄３７號","OBJECTID":209147},"geometry":{"x":172197.8900000006,"y":2549391.1899999995}},{"attributes":{"ID":209149,"DIS_CODE":0,"TOWNNAME":"東區","LI":"衛國里","LIN":"20鄰","STREET":"林森路","SECT":"二段","MAREA":" ","LANE":" ","ALLEY":" ","HOUSE_NO":"１６８號","E_COORD97":170440.42000000001,"N_COORD97":2543262.5499999998,"ADDRESS":"林森路二段１６８號","OBJECTID":209148},"geometry":{"x":170440.41999999993,"y":2543262.5500000026}},{"attributes":{"ID":209150,"DIS_CODE":0,"TOWNNAME":"東區","LI":"虎尾里","LIN":"17鄰","STREET":"富農街","SECT":"一段","MAREA":" ","LANE":" ","ALLEY":" ","HOUSE_NO":"４３號","E_COORD97":171495.64999999999,"N_COORD97":2542226.6800000002,"ADDRESS":"富農街一段４３號","OBJECTID":209149},"geometry":{"x":171495.65000000037,"y":2542226.6800000016}},{"attributes":{"ID":209151,"DIS_CODE":0,"TOWNNAME":"東區","LI":"虎尾里","LIN":"17鄰","STREET":"富農街","SECT":"一段","MAREA":" ","LANE":" ","ALLEY":" ","HOUSE_NO":"４５號","E_COORD97":171494.85000000001,"N_COORD97":2542230.9100000001,"ADDRESS":"富農街一段４５號","OBJECTID":209150},"geometry":{"x":171494.85000000056,"y":2542230.9100000001}},{"attributes":{"ID":209152,"DIS_CODE":0,"TOWNNAME":"東區","LI":"虎尾里","LIN":"17鄰","STREET":"富農街","SECT":"一段","MAREA":" ","LANE":" ","ALLEY":" ","HOUSE_NO":"４７號","E_COORD97":171494.04000000001,"N_COORD97":2542235.1299999999,"ADDRESS":"富農街一段４７號","OBJECTID":209151},"geometry":{"x":171494.04000000097,"y":2542235.129999999}},{"attributes":{"ID":209153,"DIS_CODE":0,"TOWNNAME":"東區","LI":"虎尾里","LIN":"17鄰","STREET":"富農街","SECT":"一段","MAREA":" ","LANE":" ","ALLEY":" ","HOUSE_NO":"４９號","E_COORD97":171493.84,"N_COORD97":2542239.3599999999,"ADDRESS":"富農街一段４９號","OBJECTID":209152},"geometry":{"x":171493.83999999985,"y":2542239.3600000013}},{"attributes":{"ID":209154,"DIS_CODE":0,"TOWNNAME":"東區","LI":"東光里","LIN":"1鄰","STREET":"東寧路","SECT":" ","MAREA":" ","LANE":" ","ALLEY":" ","HOUSE_NO":"４３７號","E_COORD97":171075.79000000001,"N_COORD97":2543330.6299999999,"ADDRESS":"東寧路４３７號","OBJECTID":209153},"geometry":{"x":171075.79000000004,"y":2543330.6300000027}},{"attributes":{"ID":209155,"DIS_CODE":0,"TOWNNAME":"東區","LI":"東光里","LIN":"1鄰","STREET":"東寧路","SECT":" ","MAREA":" ","LANE":" ","ALLEY":" ","HOUSE_NO":"４３９號","E_COORD97":171079.13,"N_COORD97":2543327.2999999998,"ADDRESS":"東寧路４３９號","OBJECTID":209154},"geometry":{"x":171079.13000000082,"y":2543327.3000000007}},{"attributes":{"ID":209156,"DIS_CODE":0,"TOWNNAME":"東區","LI":"東光里","LIN":"1鄰","STREET":"東寧路","SECT":" ","MAREA":" ","LANE":" ","ALLEY":" ","HOUSE_NO":"４４５號","E_COORD97":171092.14999999999,"N_COORD97":2543323.0600000001,"ADDRESS":"東寧路４４５號","OBJECTID":209155},"geometry":{"x":171092.15000000037,"y":2543323.0600000024}},{"attributes":{"ID":209157,"DIS_CODE":0,"TOWNNAME":"六甲區","LI":"六甲里","LIN":"9鄰","STREET":"中正路","SECT":" ","MAREA":" ","LANE":" ","ALLEY":" ","HOUSE_NO":"４２４號","E_COORD97":183573.10999999999,"N_COORD97":2569652.75,"ADDRESS":"中正路４２４號","OBJECTID":209156},"geometry":{"x":183573.1100000022,"y":2569652.75}},{"attributes":{"ID":209158,"DIS_CODE":0,"TOWNNAME":"永康區","LI":"\u25A0行里","LIN":"32鄰","STREET":"三村一街","SECT":" ","MAREA":" ","LANE":"１３８巷","ALLEY":"９２弄","HOUSE_NO":"３９號","E_COORD97":172202.51999999999,"N_COORD97":2549385.1899999999,"ADDRESS":"三村一街１３８巷９２弄３９號","OBJECTID":209157},"geometry":{"x":172202.51999999955,"y":2549385.1899999995}},{"attributes":{"ID":209159,"DIS_CODE":0,"TOWNNAME":"善化區","LI":"六分里","LIN":"2鄰","STREET":" ","SECT":" ","MAREA":"六分寮","LANE":" ","ALLEY":" ","HOUSE_NO":"４號","E_COORD97":178264.45999999999,"N_COORD97":2561274.25,"ADDRESS":"六分寮４號","OBJECTID":209158},"geometry":{"x":178264.46000000089,"y":2561274.2500000019}},{"attributes":{"ID":209160,"DIS_CODE":0,"TOWNNAME":"善化區","LI":"什乃里","LIN":"2鄰","STREET":" ","SECT":" ","MAREA":"什乃","LANE":" ","ALLEY":" ","HOUSE_NO":"２１之３３號","E_COORD97":176103.51000000001,"N_COORD97":2560649.52,"ADDRESS":"什乃２１之３３號","OBJECTID":209159},"geometry":{"x":176103.50999999978,"y":2560649.5199999996}},{"attributes":{"ID":209161,"DIS_CODE":0,"TOWNNAME":"善化區","LI":"什乃里","LIN":"2鄰","STREET":" ","SECT":" ","MAREA":"什乃","LANE":" ","ALLEY":" ","HOUSE_NO":"１８之２號","E_COORD97":176223.10999999999,"N_COORD97":2560634.52,"ADDRESS":"什乃１８之２號","OBJECTID":209160},"geometry":{"x":176223.11000000127,"y":2560634.5200000014}},{"attributes":{"ID":209162,"DIS_CODE":0,"TOWNNAME":"善化區","LI":"小新里","LIN":"2鄰","STREET":" ","SECT":" ","MAREA":"小新營","LANE":" ","ALLEY":" ","HOUSE_NO":"１３號之２８","E_COORD97":179858.20999999999,"N_COORD97":2558573.77,"ADDRESS":"小新營１３號之２８","OBJECTID":209161},"geometry":{"x":179858.21000000089,"y":2558573.7700000014}},{"attributes":{"ID":209163,"DIS_CODE":0,"TOWNNAME":"麻豆區","LI":"北勢里","LIN":"2鄰","STREET":" ","SECT":" ","MAREA":"加輦邦","LANE":" ","ALLEY":" ","HOUSE_NO":"１７號之１","E_COORD97":173292.64000000001,"N_COORD97":2566298.02,"ADDRESS":"加輦邦１７號之１","OBJECTID":209162},"geometry":{"x":173292.6400000006,"y":2566298.0199999996}},{"attributes":{"ID":209164,"DIS_CODE":0,"TOWNNAME":"善化區","LI":"小新里","LIN":"2鄰","STREET":" ","SECT":" ","MAREA":"小新營","LANE":" ","ALLEY":" ","HOUSE_NO":"１３之５６號","E_COORD97":179801.89999999999,"N_COORD97":2558524.52,"ADDRESS":"小新營１３之５６號","OBJECTID":209163},"geometry":{"x":179801.90000000037,"y":2558524.5200000033}},{"attributes":{"ID":209165,"DIS_CODE":0,"TOWNNAME":"善化區","LI":"小新里","LIN":"2鄰","STREET":" ","SECT":" ","MAREA":"小新營","LANE":" ","ALLEY":" ","HOUSE_NO":"１３之４６號","E_COORD97":179824.82999999999,"N_COORD97":2558565.52,"ADDRESS":"小新營１３之４６號","OBJECTID":209164},"geometry":{"x":179824.83000000194,"y":2558565.5200000014}},{"attributes":{"ID":209166,"DIS_CODE":0,"TOWNNAME":"善化區","LI":"小新里","LIN":"2鄰","STREET":" ","SECT":" ","MAREA":"小新營","LANE":" ","ALLEY":" ","HOUSE_NO":"１３之２６號","E_COORD97":179866.48999999999,"N_COORD97":2558571.27,"ADDRESS":"小新營１３之２６號","OBJECTID":209165},"geometry":{"x":179866.49000000115,"y":2558571.2700000014}},{"attributes":{"ID":209167,"DIS_CODE":0,"TOWNNAME":"善化區","LI":"牛庄里","LIN":"2鄰","STREET":" ","SECT":" ","MAREA":"牛庄","LANE":" ","ALLEY":" ","HOUSE_NO":"２７之８號","E_COORD97":180410.28,"N_COORD97":2559778.27,"ADDRESS":"牛庄２７之８號","OBJECTID":209166},"geometry":{"x":180410.28000000212,"y":2559778.2700000014}},{"attributes":{"ID":209168,"DIS_CODE":0,"TOWNNAME":"善化區","LI":"小新里","LIN":"2鄰","STREET":" ","SECT":" ","MAREA":"小新營","LANE":" ","ALLEY":" ","HOUSE_NO":"１３之６５號","E_COORD97":179816.97,"N_COORD97":2558572.52,"ADDRESS":"小新營１３之６５號","OBJECTID":209167},"geometry":{"x":179816.97000000067,"y":2558572.5200000014}},{"attributes":{"ID":209169,"DIS_CODE":0,"TOWNNAME":"善化區","LI":"小新里","LIN":"2鄰","STREET":" ","SECT":" ","MAREA":"小新營","LANE":" ","ALLEY":" ","HOUSE_NO":"１３號之１９","E_COORD97":179854.64999999999,"N_COORD97":2558547.52,"ADDRESS":"小新營１３號之１９","OBJECTID":209168},"geometry":{"x":179854.65000000037,"y":2558547.5199999996}},{"attributes":{"ID":209170,"DIS_CODE":0,"TOWNNAME":"善化區","LI":"牛庄里","LIN":"2鄰","STREET":" ","SECT":" ","MAREA":"牛庄","LANE":" ","ALLEY":" ","HOUSE_NO":"２７號之４４","E_COORD97":180647.32000000001,"N_COORD97":2559819.77,"ADDRESS":"牛庄２７號之４４","OBJECTID":209169},"geometry":{"x":180647.32000000216,"y":2559819.7699999996}},{"attributes":{"ID":209171,"DIS_CODE":0,"TOWNNAME":"善化區","LI":"什乃里","LIN":"2鄰","STREET":" ","SECT":" ","MAREA":"什乃","LANE":" ","ALLEY":" ","HOUSE_NO":"２１之２４號","E_COORD97":176104.04999999999,"N_COORD97":2560658.77,"ADDRESS":"什乃２１之２４號","OBJECTID":209170},"geometry":{"x":176104.05000000075,"y":2560658.7700000033}},{"attributes":{"ID":209172,"DIS_CODE":0,"TOWNNAME":"白河區","LI":"外角里","LIN":"4鄰","STREET":"開明街","SECT":" ","MAREA":" ","LANE":" ","ALLEY":" ","HOUSE_NO":"１６７號","E_COORD97":190547.32999999999,"N_COORD97":2583180.5299999998,"ADDRESS":"開明街１６７號","OBJECTID":209171},"geometry":{"x":190547.33000000101,"y":2583180.5299999993}},{"attributes":{"ID":209173,"DIS_CODE":0,"TOWNNAME":"永康區","LI":"\u25A0行里","LIN":"32鄰","STREET":"三村一街","SECT":" ","MAREA":" ","LANE":"１３８巷","ALLEY":"９２弄","HOUSE_NO":"４１號","E_COORD97":172201.67999999999,"N_COORD97":2549362.2599999998,"ADDRESS":"三村一街１３８巷９２弄４１號","OBJECTID":209172},"geometry":{"x":172201.6799999997,"y":2549362.2600000035}},{"attributes":{"ID":209174,"DIS_CODE":0,"TOWNNAME":"永康區","LI":"\u25A0行里","LIN":"32鄰","STREET":"三村一街","SECT":" ","MAREA":" ","LANE":"１３８巷","ALLEY":"９２弄","HOUSE_NO":"４３號","E_COORD97":172193.63,"N_COORD97":2549353.0899999999,"ADDRESS":"三村一街１３８巷９２弄４３號","OBJECTID":209173},"geometry":{"x":172193.62999999989,"y":2549353.0900000036}},{"attributes":{"ID":209175,"DIS_CODE":0,"TOWNNAME":"永康區","LI":"\u25A0行里","LIN":"32鄰","STREET":"三村一街","SECT":" ","MAREA":" ","LANE":"１３８巷","ALLEY":"９２弄","HOUSE_NO":"２６號","E_COORD97":172142.19,"N_COORD97":2549349.7000000002,"ADDRESS":"三村一街１３８巷９２弄２６號","OBJECTID":209174},"geometry":{"x":172142.19000000134,"y":2549349.7000000011}},{"attributes":{"ID":209176,"DIS_CODE":0,"TOWNNAME":"永康區","LI":"\u25A0行里","LIN":"32鄰","STREET":"三村一街","SECT":" ","MAREA":" ","LANE":"１３８巷","ALLEY":"９２弄","HOUSE_NO":"２８號","E_COORD97":172144.20000000001,"N_COORD97":2549353.8999999999,"ADDRESS":"三村一街１３８巷９２弄２８號","OBJECTID":209175},"geometry":{"x":172144.20000000019,"y":2549353.9000000004}},{"attributes":{"ID":209177,"DIS_CODE":0,"TOWNNAME":"白河區","LI":"外角里","LIN":"8鄰","STREET":"開明街","SECT":" ","MAREA":" ","LANE":" ","ALLEY":" ","HOUSE_NO":"１８號","E_COORD97":190738,"N_COORD97":2583377.1899999999,"ADDRESS":"開明街１８號","OBJECTID":209176},"geometry":{"x":190738.00000000093,"y":2583377.1899999995}},{"attributes":{"ID":209178,"DIS_CODE":0,"TOWNNAME":"永康區","LI":"\u25A0行里","LIN":"32鄰","STREET":"三村一街","SECT":" ","MAREA":" ","LANE":"１３８巷","ALLEY":"９２弄","HOUSE_NO":"３０號","E_COORD97":172149.13,"N_COORD97":2549359.4700000002,"ADDRESS":"三村一街１３８巷９２弄３０號","OBJECTID":209177},"geometry":{"x":172149.13000000082,"y":2549359.4700000025}},{"attributes":{"ID":209179,"DIS_CODE":0,"TOWNNAME":"永康區","LI":"\u25A0行里","LIN":"32鄰","STREET":"三村一街","SECT":" ","MAREA":" ","LANE":"１３８巷","ALLEY":"９２弄","HOUSE_NO":"３２號","E_COORD97":172146.54000000001,"N_COORD97":2549363.0600000001,"ADDRESS":"三村一街１３８巷９２弄３２號","OBJECTID":209178},"geometry":{"x":172146.54000000097,"y":2549363.0600000005}},{"attributes":{"ID":209180,"DIS_CODE":0,"TOWNNAME":"永康區","LI":"\u25A0行里","LIN":"32鄰","STREET":"三村一街","SECT":" ","MAREA":" ","LANE":"１３８巷","ALLEY":"９２弄","HOUSE_NO":"３８號","E_COORD97":172152.23000000001,"N_COORD97":2549372.6600000001,"ADDRESS":"三村一街１３８巷９２弄３８號","OBJECTID":209179},"geometry":{"x":172152.23000000138,"y":2549372.6600000001}},{"attributes":{"ID":209181,"DIS_CODE":0,"TOWNNAME":"永康區","LI":"\u25A0行里","LIN":"32鄰","STREET":"三村一街","SECT":" ","MAREA":" ","LANE":"１３８巷","ALLEY":"９２弄","HOUSE_NO":"４０號","E_COORD97":172143.48999999999,"N_COORD97":2549379.2200000002,"ADDRESS":"三村一街１３８巷９２弄４０號","OBJECTID":209180},"geometry":{"x":172143.49000000115,"y":2549379.2200000007}},{"attributes":{"ID":209182,"DIS_CODE":0,"TOWNNAME":"永康區","LI":"\u25A0行里","LIN":"32鄰","STREET":"三村一街","SECT":" ","MAREA":" ","LANE":"１３８巷","ALLEY":"９２弄","HOUSE_NO":"４２號","E_COORD97":172139.07999999999,"N_COORD97":2549395.48,"ADDRESS":"三村一街１３８巷９２弄４２號","OBJECTID":209181},"geometry":{"x":172139.08000000101,"y":2549395.4800000042}},{"attributes":{"ID":209183,"DIS_CODE":0,"TOWNNAME":"永康區","LI":"\u25A0行里","LIN":"32鄰","STREET":"三村一街","SECT":" ","MAREA":" ","LANE":"１３８巷","ALLEY":"９２弄","HOUSE_NO":"４６號","E_COORD97":172146.88,"N_COORD97":2549385.96,"ADDRESS":"三村一街１３８巷９２弄４６號","OBJECTID":209182},"geometry":{"x":172146.88000000175,"y":2549385.9600000028}},{"attributes":{"ID":209184,"DIS_CODE":0,"TOWNNAME":"永康區","LI":"\u25A0行里","LIN":"32鄰","STREET":"三村一街","SECT":" ","MAREA":" ","LANE":"１３８巷","ALLEY":"９２弄","HOUSE_NO":"４８號","E_COORD97":172151.79000000001,"N_COORD97":2549383.27,"ADDRESS":"三村一街１３８巷９２弄４８號","OBJECTID":209183},"geometry":{"x":172151.79000000097,"y":2549383.2700000014}},{"attributes":{"ID":209185,"DIS_CODE":0,"TOWNNAME":"佳里區","LI":"安西里","LIN":"42鄰","STREET":"安西路","SECT":" ","MAREA":" ","LANE":"９３巷","ALLEY":"８弄","HOUSE_NO":"１６號","E_COORD97":165075.82000000001,"N_COORD97":2562460.96,"ADDRESS":"安西路９３巷８弄１６號","OBJECTID":209184},"geometry":{"x":165075.82000000123,"y":2562460.9600000009}},{"attributes":{"ID":209186,"DIS_CODE":0,"TOWNNAME":"六甲區","LI":"龍湖里","LIN":"9鄰","STREET":"中華路","SECT":" ","MAREA":" ","LANE":" ","ALLEY":" ","HOUSE_NO":"２０２號","E_COORD97":182913.57999999999,"N_COORD97":2569208.8900000001,"ADDRESS":"中華路２０２號","OBJECTID":209185},"geometry":{"x":182913.58000000194,"y":2569208.8900000006}},{"attributes":{"ID":209187,"DIS_CODE":0,"TOWNNAME":"六甲區","LI":"龍湖里","LIN":"9鄰","STREET":"中華路","SECT":" ","MAREA":" ","LANE":" ","ALLEY":" ","HOUSE_NO":"２０４號","E_COORD97":182905.98999999999,"N_COORD97":2569221.1000000001,"ADDRESS":"中華路２０４號","OBJECTID":209186},"geometry":{"x":182905.99000000115,"y":2569221.1000000015}},{"attributes":{"ID":209188,"DIS_CODE":0,"TOWNNAME":"白河區","LI":"永安里","LIN":"19鄰","STREET":"新生路","SECT":" ","MAREA":" ","LANE":" ","ALLEY":" ","HOUSE_NO":"１２２號","E_COORD97":190213.84,"N_COORD97":2583470.2999999998,"ADDRESS":"新生路１２２號","OBJECTID":209187},"geometry":{"x":190213.83999999985,"y":2583470.3000000045}},{"attributes":{"ID":209189,"DIS_CODE":0,"TOWNNAME":"白河區","LI":"永安里","LIN":"19鄰","STREET":"新生路","SECT":" ","MAREA":" ","LANE":" ","ALLEY":" ","HOUSE_NO":"９６號","E_COORD97":190188.56,"N_COORD97":2583404.6899999999,"ADDRESS":"新生路９６號","OBJECTID":209188},"geometry":{"x":190188.55999999959,"y":2583404.6899999995}},{"attributes":{"ID":209190,"DIS_CODE":0,"TOWNNAME":"白河區","LI":"永安里","LIN":"9鄰","STREET":"新生路","SECT":" ","MAREA":" ","LANE":" ","ALLEY":" ","HOUSE_NO":"６號","E_COORD97":190105.07999999999,"N_COORD97":2583172.8900000001,"ADDRESS":"新生路６號","OBJECTID":209189},"geometry":{"x":190105.08000000101,"y":2583172.8900000006}},{"attributes":{"ID":209191,"DIS_CODE":0,"TOWNNAME":"白河區","LI":"白河里","LIN":"14鄰","STREET":"新起街","SECT":" ","MAREA":" ","LANE":" ","ALLEY":" ","HOUSE_NO":"６４號","E_COORD97":190376.23999999999,"N_COORD97":2583155.6299999999,"ADDRESS":"新起街６４號","OBJECTID":209190},"geometry":{"x":190376.24000000022,"y":2583155.6300000008}},{"attributes":{"ID":209192,"DIS_CODE":0,"TOWNNAME":"白河區","LI":"永安里","LIN":"6鄰","STREET":"新厝街","SECT":" ","MAREA":" ","LANE":" ","ALLEY":" ","HOUSE_NO":"１０號","E_COORD97":189812.92999999999,"N_COORD97":2583019.5800000001,"ADDRESS":"新厝街１０號","OBJECTID":209191},"geometry":{"x":189812.9299999997,"y":2583019.5800000001}},{"attributes":{"ID":209193,"DIS_CODE":0,"TOWNNAME":"白河區","LI":"白河里","LIN":"10鄰","STREET":"新起街","SECT":" ","MAREA":" ","LANE":" ","ALLEY":" ","HOUSE_NO":"１６號","E_COORD97":190331.20999999999,"N_COORD97":2582992.0600000001,"ADDRESS":"新起街１６號","OBJECTID":209192},"geometry":{"x":190331.21000000089,"y":2582992.0600000005}},{"attributes":{"ID":209194,"DIS_CODE":0,"TOWNNAME":"白河區","LI":"白河里","LIN":"14鄰","STREET":"新起街","SECT":" ","MAREA":" ","LANE":" ","ALLEY":" ","HOUSE_NO":"４５號","E_COORD97":190353.13,"N_COORD97":2583143.1200000001,"ADDRESS":"新起街４５號","OBJECTID":209193},"geometry":{"x":190353.13000000175,"y":2583143.1200000029}},{"attributes":{"ID":209195,"DIS_CODE":0,"TOWNNAME":"白河區","LI":"白河里","LIN":"14鄰","STREET":"新起街","SECT":" ","MAREA":" ","LANE":" ","ALLEY":" ","HOUSE_NO":"４７之１號","E_COORD97":190352.59,"N_COORD97":2583156.5600000001,"ADDRESS":"新起街４７之１號","OBJECTID":209194},"geometry":{"x":190352.58999999985,"y":2583156.5600000024}},{"attributes":{"ID":209196,"DIS_CODE":0,"TOWNNAME":"六甲區","LI":"王爺里","LIN":"9鄰","STREET":" ","SECT":" ","MAREA":"王爺宮","LANE":" ","ALLEY":" ","HOUSE_NO":"１號","E_COORD97":188491.20000000001,"N_COORD97":2569032.8999999999,"ADDRESS":"王爺宮１號","OBJECTID":209195},"geometry":{"x":188491.20000000019,"y":2569032.9000000041}},{"attributes":{"ID":209197,"DIS_CODE":0,"TOWNNAME":"六甲區","LI":"王爺里","LIN":"9鄰","STREET":" ","SECT":" ","MAREA":"王爺宮","LANE":" ","ALLEY":" ","HOUSE_NO":"１５號","E_COORD97":188541.97,"N_COORD97":2568938.48,"ADDRESS":"王爺宮１５號","OBJECTID":209196},"geometry":{"x":188541.9700000016,"y":2568938.4800000023}},{"attributes":{"ID":209198,"DIS_CODE":0,"TOWNNAME":"六甲區","LI":"六甲里","LIN":"9鄰","STREET":"中興街","SECT":" ","MAREA":" ","LANE":" ","ALLEY":" ","HOUSE_NO":"１１號","E_COORD97":183629.87,"N_COORD97":2569659.8900000001,"ADDRESS":"中興街１１號","OBJECTID":209197},"geometry":{"x":183629.87000000011,"y":2569659.8900000006}},{"attributes":{"ID":209199,"DIS_CODE":0,"TOWNNAME":"六甲區","LI":"六甲里","LIN":"9鄰","STREET":"中興街","SECT":" ","MAREA":" ","LANE":" ","ALLEY":" ","HOUSE_NO":"１３號","E_COORD97":183625.29999999999,"N_COORD97":2569660.6299999999,"ADDRESS":"中興街１３號","OBJECTID":209198},"geometry":{"x":183625.29999999888,"y":2569660.6300000008}},{"attributes":{"ID":209200,"DIS_CODE":0,"TOWNNAME":"永康區","LI":"\u25A0行里","LIN":"32鄰","STREET":"三村一街","SECT":" ","MAREA":" ","LANE":"１３８巷","ALLEY":"９２弄","HOUSE_NO":"５０號","E_COORD97":172156.26000000001,"N_COORD97":2549379.6400000001,"ADDRESS":"三村一街１３８巷９２弄５０號","OBJECTID":209199},"geometry":{"x":172156.26000000071,"y":2549379.6400000006}},{"attributes":{"ID":209201,"DIS_CODE":0,"TOWNNAME":"永康區","LI":"\u25A0行里","LIN":"32鄰","STREET":"三村一街","SECT":" ","MAREA":" ","LANE":"１３８巷","ALLEY":"９２弄","HOUSE_NO":"５２號","E_COORD97":172161.60999999999,"N_COORD97":2549377.8900000001,"ADDRESS":"三村一街１３８巷９２弄５２號","OBJECTID":209200},"geometry":{"x":172161.61000000127,"y":2549377.8900000006}}]}