{"displayFieldName":"TOWNNAME","fieldAliases":{"ID":"ID","DIS_CODE":"DIS_CODE","TOWNNAME":"TOWNNAME","LI":"LI","LIN":"LIN","STREET":"STREET","SECT":"SECT","MAREA":"MAREA","LANE":"LANE","ALLEY":"ALLEY","HOUSE_NO":"HOUSE_NO","E_COORD97":"E_COORD97","N_COORD97":"N_COORD97","ADDRESS":"ADDRESS","OBJECTID":"OBJECTID"},"geometryType":"esriGeometryPoint","spatialReference":{"wkid":102443,"latestWkid":3826},"fields":[{"name":"ID","type":"esriFieldTypeDouble","alias":"ID"},{"name":"DIS_CODE","type":"esriFieldTypeInteger","alias":"DIS_CODE"},{"name":"TOWNNAME","type":"esriFieldTypeString","alias":"TOWNNAME","length":8},{"name":"LI","type":"esriFieldTypeString","alias":"LI","length":8},{"name":"LIN","type":"esriFieldTypeString","alias":"LIN","length":12},{"name":"STREET","type":"esriFieldTypeString","alias":"STREET","length":20},{"name":"SECT","type":"esriFieldTypeString","alias":"SECT","length":8},{"name":"MAREA","type":"esriFieldTypeString","alias":"MAREA","length":12},{"name":"LANE","type":"esriFieldTypeString","alias":"LANE","length":10},{"name":"ALLEY","type":"esriFieldTypeString","alias":"ALLEY","length":10},{"name":"HOUSE_NO","type":"esriFieldTypeString","alias":"HOUSE_NO","length":20},{"name":"E_COORD97","type":"esriFieldTypeDouble","alias":"E_COORD97"},{"name":"N_COORD97","type":"esriFieldTypeDouble","alias":"N_COORD97"},{"name":"ADDRESS","type":"esriFieldTypeString","alias":"ADDRESS","length":50},{"name":"OBJECTID","type":"esriFieldTypeOID","alias":"OBJECTID"}],"features":[{"attributes":{"ID":627228,"DIS_CODE":0,"TOWNNAME":"永康區","LI":"復國里","LIN":"26鄰","STREET":"復華三街","SECT":" ","MAREA":" ","LANE":" ","ALLEY":" ","HOUSE_NO":"６４號十八樓之４","E_COORD97":172720.89999999999,"N_COORD97":2545600.2999999998,"ADDRESS":"復華三街６４號十八樓之４","OBJECTID":627201},"geometry":{"x":172720.9000000013,"y":2545600.3000000026}},{"attributes":{"ID":627229,"DIS_CODE":0,"TOWNNAME":"永康區","LI":"復國里","LIN":"26鄰","STREET":"復華三街","SECT":" ","MAREA":" ","LANE":" ","ALLEY":" ","HOUSE_NO":"６４號三樓之２","E_COORD97":172719.76000000001,"N_COORD97":2545600.2999999998,"ADDRESS":"復華三街６４號三樓之２","OBJECTID":627202},"geometry":{"x":172719.75999999978,"y":2545600.3000000026}},{"attributes":{"ID":627230,"DIS_CODE":0,"TOWNNAME":"永康區","LI":"復國里","LIN":"26鄰","STREET":"復華三街","SECT":" ","MAREA":" ","LANE":" ","ALLEY":" ","HOUSE_NO":"６２號六樓之１","E_COORD97":172710.47,"N_COORD97":2545562.9700000002,"ADDRESS":"復華三街６２號六樓之１","OBJECTID":627203},"geometry":{"x":172710.46999999881,"y":2545562.9700000007}},{"attributes":{"ID":627231,"DIS_CODE":0,"TOWNNAME":"永康區","LI":"網寮里","LIN":"26鄰","STREET":"永興路","SECT":" ","MAREA":" ","LANE":" ","ALLEY":" ","HOUSE_NO":"９１號二樓","E_COORD97":173980.37,"N_COORD97":2546562.8199999998,"ADDRESS":"永興路９１號二樓","OBJECTID":627204},"geometry":{"x":173980.37000000104,"y":2546562.8200000022}},{"attributes":{"ID":627232,"DIS_CODE":0,"TOWNNAME":"善化區","LI":"坐駕里","LIN":"17鄰","STREET":"文化路","SECT":" ","MAREA":" ","LANE":" ","ALLEY":" ","HOUSE_NO":"６號五樓之２","E_COORD97":177970.09,"N_COORD97":2558361.29,"ADDRESS":"文化路６號五樓之２","OBJECTID":627205},"geometry":{"x":177970.09000000171,"y":2558361.2899999991}},{"attributes":{"ID":627233,"DIS_CODE":0,"TOWNNAME":"永康區","LI":"網寮里","LIN":"26鄰","STREET":"永興路","SECT":" ","MAREA":" ","LANE":" ","ALLEY":" ","HOUSE_NO":"９１號九樓之１","E_COORD97":173982.51000000001,"N_COORD97":2546562.8599999999,"ADDRESS":"永興路９１號九樓之１","OBJECTID":627206},"geometry":{"x":173982.51000000071,"y":2546562.8599999994}},{"attributes":{"ID":627234,"DIS_CODE":0,"TOWNNAME":"永康區","LI":"復國里","LIN":"34鄰","STREET":"復華一街","SECT":" ","MAREA":" ","LANE":" ","ALLEY":" ","HOUSE_NO":"６５號七樓之２","E_COORD97":172536.5,"N_COORD97":2545071.5499999998,"ADDRESS":"復華一街６５號七樓之２","OBJECTID":627207},"geometry":{"x":172536.50000000093,"y":2545071.5500000007}},{"attributes":{"ID":627235,"DIS_CODE":0,"TOWNNAME":"永康區","LI":"復華里","LIN":"7鄰","STREET":"復國二路","SECT":" ","MAREA":" ","LANE":" ","ALLEY":" ","HOUSE_NO":"２１７號三樓之１","E_COORD97":173002.12,"N_COORD97":2546054.54,"ADDRESS":"復國二路２１７號三樓之１","OBJECTID":627208},"geometry":{"x":173002.12000000104,"y":2546054.540000001}},{"attributes":{"ID":627236,"DIS_CODE":0,"TOWNNAME":"永康區","LI":"復國里","LIN":"20鄰","STREET":"國華街","SECT":" ","MAREA":" ","LANE":" ","ALLEY":" ","HOUSE_NO":"６３號十三樓之１","E_COORD97":172820.54999999999,"N_COORD97":2545744.3100000001,"ADDRESS":"國華街６３號十三樓之１","OBJECTID":627209},"geometry":{"x":172820.55000000075,"y":2545744.3100000005}},{"attributes":{"ID":627237,"DIS_CODE":0,"TOWNNAME":"永康區","LI":"復國里","LIN":"20鄰","STREET":"國華街","SECT":" ","MAREA":" ","LANE":" ","ALLEY":" ","HOUSE_NO":"６３號十二樓之２","E_COORD97":172820.67999999999,"N_COORD97":2545744.3100000001,"ADDRESS":"國華街６３號十二樓之２","OBJECTID":627210},"geometry":{"x":172820.6799999997,"y":2545744.3100000005}},{"attributes":{"ID":627238,"DIS_CODE":0,"TOWNNAME":"永康區","LI":"復國里","LIN":"26鄰","STREET":"復華三街","SECT":" ","MAREA":" ","LANE":" ","ALLEY":" ","HOUSE_NO":"６４號四樓之１","E_COORD97":172719.63,"N_COORD97":2545600.2999999998,"ADDRESS":"復華三街６４號四樓之１","OBJECTID":627211},"geometry":{"x":172719.62999999989,"y":2545600.3000000026}},{"attributes":{"ID":627239,"DIS_CODE":0,"TOWNNAME":"永康區","LI":"復國里","LIN":"26鄰","STREET":"復華三街","SECT":" ","MAREA":" ","LANE":" ","ALLEY":" ","HOUSE_NO":"６４號十五樓之３","E_COORD97":172720.97,"N_COORD97":2545600.2999999998,"ADDRESS":"復華三街６４號十五樓之３","OBJECTID":627212},"geometry":{"x":172720.97000000067,"y":2545600.3000000026}},{"attributes":{"ID":627240,"DIS_CODE":0,"TOWNNAME":"永康區","LI":"復國里","LIN":"20鄰","STREET":"國華街","SECT":" ","MAREA":" ","LANE":" ","ALLEY":" ","HOUSE_NO":"５５號十二樓之４","E_COORD97":172800.70000000001,"N_COORD97":2545761.4199999999,"ADDRESS":"國華街５５號十二樓之４","OBJECTID":627213},"geometry":{"x":172800.70000000019,"y":2545761.4200000018}},{"attributes":{"ID":627241,"DIS_CODE":0,"TOWNNAME":"永康區","LI":"復國里","LIN":"20鄰","STREET":"國華街","SECT":" ","MAREA":" ","LANE":" ","ALLEY":" ","HOUSE_NO":"５５號四樓之５","E_COORD97":172799.57999999999,"N_COORD97":2545761.4199999999,"ADDRESS":"國華街５５號四樓之５","OBJECTID":627214},"geometry":{"x":172799.58000000007,"y":2545761.4200000018}},{"attributes":{"ID":627242,"DIS_CODE":0,"TOWNNAME":"永康區","LI":"復國里","LIN":"20鄰","STREET":"國華街","SECT":" ","MAREA":" ","LANE":" ","ALLEY":" ","HOUSE_NO":"５５號八樓之４","E_COORD97":172799.45000000001,"N_COORD97":2545761.4199999999,"ADDRESS":"國華街５５號八樓之４","OBJECTID":627215},"geometry":{"x":172799.45000000205,"y":2545761.4200000018}},{"attributes":{"ID":627243,"DIS_CODE":0,"TOWNNAME":"永康區","LI":"復國里","LIN":"20鄰","STREET":"國華街","SECT":" ","MAREA":" ","LANE":" ","ALLEY":" ","HOUSE_NO":"６３號五樓之２","E_COORD97":172819.42999999999,"N_COORD97":2545744.3100000001,"ADDRESS":"國華街６３號五樓之２","OBJECTID":627216},"geometry":{"x":172819.43000000063,"y":2545744.3100000005}},{"attributes":{"ID":627244,"DIS_CODE":0,"TOWNNAME":"永康區","LI":"復國里","LIN":"26鄰","STREET":"復華三街","SECT":" ","MAREA":" ","LANE":" ","ALLEY":" ","HOUSE_NO":"６４號十五樓之４","E_COORD97":172720.89999999999,"N_COORD97":2545600.2999999998,"ADDRESS":"復華三街６４號十五樓之４","OBJECTID":627217},"geometry":{"x":172720.9000000013,"y":2545600.3000000026}},{"attributes":{"ID":627245,"DIS_CODE":0,"TOWNNAME":"永康區","LI":"復國里","LIN":"26鄰","STREET":"復華三街","SECT":" ","MAREA":" ","LANE":" ","ALLEY":" ","HOUSE_NO":"６２號十一樓之５","E_COORD97":172711.87,"N_COORD97":2545562.9700000002,"ADDRESS":"復華三街６２號十一樓之５","OBJECTID":627218},"geometry":{"x":172711.87000000104,"y":2545562.9700000007}},{"attributes":{"ID":627246,"DIS_CODE":0,"TOWNNAME":"仁德區","LI":"土庫里","LIN":"1鄰","STREET":"太乙路","SECT":" ","MAREA":" ","LANE":" ","ALLEY":" ","HOUSE_NO":"７０號","E_COORD97":173124.14999999999,"N_COORD97":2542559.75,"ADDRESS":"太乙路７０號","OBJECTID":627219},"geometry":{"x":173124.1500000013,"y":2542559.75}},{"attributes":{"ID":627247,"DIS_CODE":0,"TOWNNAME":"北區","LI":"重興里","LIN":"4鄰","STREET":"林森路","SECT":"三段","MAREA":" ","LANE":" ","ALLEY":" ","HOUSE_NO":"１２２號","E_COORD97":170565.41,"N_COORD97":2544928.3999999999,"ADDRESS":"林森路三段１２２號","OBJECTID":627220},"geometry":{"x":170565.41000000201,"y":2544928.4000000022}},{"attributes":{"ID":627248,"DIS_CODE":0,"TOWNNAME":"北區","LI":"重興里","LIN":"4鄰","STREET":"林森路","SECT":"三段","MAREA":" ","LANE":" ","ALLEY":" ","HOUSE_NO":"１２６號","E_COORD97":170567.37,"N_COORD97":2544932.8799999999,"ADDRESS":"林森路三段１２６號","OBJECTID":627221},"geometry":{"x":170567.37000000104,"y":2544932.8800000008}},{"attributes":{"ID":627249,"DIS_CODE":0,"TOWNNAME":"北區","LI":"重興里","LIN":"4鄰","STREET":"林森路","SECT":"三段","MAREA":" ","LANE":" ","ALLEY":" ","HOUSE_NO":"１０８號","E_COORD97":170561.48000000001,"N_COORD97":2544896.8300000001,"ADDRESS":"林森路三段１０８號","OBJECTID":627222},"geometry":{"x":170561.48000000045,"y":2544896.8300000038}},{"attributes":{"ID":627250,"DIS_CODE":0,"TOWNNAME":"北區","LI":"重興里","LIN":"4鄰","STREET":"林森路","SECT":"三段","MAREA":" ","LANE":" ","ALLEY":" ","HOUSE_NO":"１２８號","E_COORD97":170566.85999999999,"N_COORD97":2544936.1200000001,"ADDRESS":"林森路三段１２８號","OBJECTID":627223},"geometry":{"x":170566.86000000034,"y":2544936.120000001}},{"attributes":{"ID":627251,"DIS_CODE":0,"TOWNNAME":"北區","LI":"重興里","LIN":"4鄰","STREET":"林森路","SECT":"三段","MAREA":" ","LANE":" ","ALLEY":" ","HOUSE_NO":"１２０號","E_COORD97":170564.20999999999,"N_COORD97":2544923.1099999999,"ADDRESS":"林森路三段１２０號","OBJECTID":627224},"geometry":{"x":170564.20999999996,"y":2544923.1099999994}},{"attributes":{"ID":627252,"DIS_CODE":0,"TOWNNAME":"北區","LI":"重興里","LIN":"4鄰","STREET":"林森路","SECT":"三段","MAREA":" ","LANE":" ","ALLEY":" ","HOUSE_NO":"１１０號","E_COORD97":170563.45000000001,"N_COORD97":2544902.54,"ADDRESS":"林森路三段１１０號","OBJECTID":627225},"geometry":{"x":170563.45000000205,"y":2544902.540000001}},{"attributes":{"ID":627253,"DIS_CODE":0,"TOWNNAME":"北區","LI":"重興里","LIN":"4鄰","STREET":"林森路","SECT":"三段","MAREA":" ","LANE":" ","ALLEY":" ","HOUSE_NO":"１１８號","E_COORD97":170562.85000000001,"N_COORD97":2544918.3399999999,"ADDRESS":"林森路三段１１８號","OBJECTID":627226},"geometry":{"x":170562.84999999963,"y":2544918.3400000017}},{"attributes":{"ID":627254,"DIS_CODE":0,"TOWNNAME":"麻豆區","LI":"興農里","LIN":"4鄰","STREET":"和平路","SECT":" ","MAREA":" ","LANE":" ","ALLEY":" ","HOUSE_NO":"３６號","E_COORD97":172461,"N_COORD97":2564293.5699999998,"ADDRESS":"和平路３６號","OBJECTID":627227},"geometry":{"x":172461,"y":2564293.5700000003}},{"attributes":{"ID":627255,"DIS_CODE":0,"TOWNNAME":"東山區","LI":"東中里","LIN":"4鄰","STREET":"中興路","SECT":" ","MAREA":" ","LANE":" ","ALLEY":" ","HOUSE_NO":"５７號","E_COORD97":188971.69,"N_COORD97":2580216.9700000002,"ADDRESS":"中興路５７號","OBJECTID":627228},"geometry":{"x":188971.69000000227,"y":2580216.9700000007}},{"attributes":{"ID":627256,"DIS_CODE":0,"TOWNNAME":"北區","LI":"長榮里","LIN":"4鄰","STREET":"長勝路","SECT":" ","MAREA":" ","LANE":" ","ALLEY":" ","HOUSE_NO":"５７號","E_COORD97":169931.73999999999,"N_COORD97":2545630.29,"ADDRESS":"長勝路５７號","OBJECTID":627229},"geometry":{"x":169931.74000000022,"y":2545630.2899999991}},{"attributes":{"ID":627257,"DIS_CODE":0,"TOWNNAME":"永康區","LI":"復國里","LIN":"20鄰","STREET":"國華街","SECT":" ","MAREA":" ","LANE":" ","ALLEY":" ","HOUSE_NO":"５５號七樓之３","E_COORD97":172799.51999999999,"N_COORD97":2545761.4199999999,"ADDRESS":"國華街５５號七樓之３","OBJECTID":627230},"geometry":{"x":172799.51999999955,"y":2545761.4200000018}},{"attributes":{"ID":627258,"DIS_CODE":0,"TOWNNAME":"永康區","LI":"復國里","LIN":"19鄰","STREET":"國華街","SECT":" ","MAREA":" ","LANE":" ","ALLEY":" ","HOUSE_NO":"５３號九樓之３","E_COORD97":172794.69,"N_COORD97":2545723.1800000002,"ADDRESS":"國華街５３號九樓之３","OBJECTID":627231},"geometry":{"x":172794.69000000134,"y":2545723.1799999997}},{"attributes":{"ID":627259,"DIS_CODE":0,"TOWNNAME":"安平區","LI":"平安里","LIN":"4鄰","STREET":"安平路","SECT":" ","MAREA":" ","LANE":" ","ALLEY":" ","HOUSE_NO":"１５０號","E_COORD97":166201.82999999999,"N_COORD97":2544347.96,"ADDRESS":"安平路１５０號","OBJECTID":627232},"geometry":{"x":166201.83000000007,"y":2544347.9600000028}},{"attributes":{"ID":627260,"DIS_CODE":0,"TOWNNAME":"安平區","LI":"平安里","LIN":"4鄰","STREET":"安平路","SECT":" ","MAREA":" ","LANE":" ","ALLEY":" ","HOUSE_NO":"１５２號","E_COORD97":166195.26000000001,"N_COORD97":2544347.8100000001,"ADDRESS":"安平路１５２號","OBJECTID":627233},"geometry":{"x":166195.25999999978,"y":2544347.8100000005}},{"attributes":{"ID":627261,"DIS_CODE":0,"TOWNNAME":"安平區","LI":"平安里","LIN":"4鄰","STREET":"安平路","SECT":" ","MAREA":" ","LANE":" ","ALLEY":" ","HOUSE_NO":"１５４號","E_COORD97":166191.20000000001,"N_COORD97":2544348.77,"ADDRESS":"安平路１５４號","OBJECTID":627234},"geometry":{"x":166191.20000000019,"y":2544348.7700000014}},{"attributes":{"ID":627262,"DIS_CODE":0,"TOWNNAME":"安平區","LI":"平安里","LIN":"4鄰","STREET":"安平路","SECT":" ","MAREA":" ","LANE":" ","ALLEY":" ","HOUSE_NO":"１５８號","E_COORD97":166181.98000000001,"N_COORD97":2544349.4399999999,"ADDRESS":"安平路１５８號","OBJECTID":627235},"geometry":{"x":166181.98000000138,"y":2544349.4399999976}},{"attributes":{"ID":627263,"DIS_CODE":0,"TOWNNAME":"安平區","LI":"平安里","LIN":"4鄰","STREET":"安平路","SECT":" ","MAREA":" ","LANE":" ","ALLEY":" ","HOUSE_NO":"１６０號","E_COORD97":166175.04000000001,"N_COORD97":2544350.3199999998,"ADDRESS":"安平路１６０號","OBJECTID":627236},"geometry":{"x":166175.04000000004,"y":2544350.3200000003}},{"attributes":{"ID":627264,"DIS_CODE":0,"TOWNNAME":"安平區","LI":"平安里","LIN":"4鄰","STREET":"安平路","SECT":" ","MAREA":" ","LANE":" ","ALLEY":" ","HOUSE_NO":"１６２號","E_COORD97":166165.51000000001,"N_COORD97":2544350.3999999999,"ADDRESS":"安平路１６２號","OBJECTID":627237},"geometry":{"x":166165.51000000071,"y":2544350.4000000004}},{"attributes":{"ID":627265,"DIS_CODE":0,"TOWNNAME":"安平區","LI":"平安里","LIN":"4鄰","STREET":"安平路","SECT":" ","MAREA":" ","LANE":" ","ALLEY":" ","HOUSE_NO":"１６８號","E_COORD97":166143.47,"N_COORD97":2544351.5800000001,"ADDRESS":"安平路１６８號","OBJECTID":627238},"geometry":{"x":166143.4700000016,"y":2544351.5800000001}},{"attributes":{"ID":627266,"DIS_CODE":0,"TOWNNAME":"安平區","LI":"平安里","LIN":"4鄰","STREET":"安平路","SECT":" ","MAREA":" ","LANE":" ","ALLEY":" ","HOUSE_NO":"１７０號","E_COORD97":166137.20000000001,"N_COORD97":2544351.5,"ADDRESS":"安平路１７０號","OBJECTID":627239},"geometry":{"x":166137.20000000205,"y":2544351.5}},{"attributes":{"ID":627267,"DIS_CODE":0,"TOWNNAME":"安平區","LI":"平安里","LIN":"4鄰","STREET":"安平路","SECT":" ","MAREA":" ","LANE":" ","ALLEY":" ","HOUSE_NO":"１７２號","E_COORD97":166126.26999999999,"N_COORD97":2544354.0099999998,"ADDRESS":"安平路１７２號","OBJECTID":627240},"geometry":{"x":166126.27000000048,"y":2544354.0100000016}},{"attributes":{"ID":627268,"DIS_CODE":0,"TOWNNAME":"安平區","LI":"平安里","LIN":"4鄰","STREET":"安平路","SECT":" ","MAREA":" ","LANE":" ","ALLEY":" ","HOUSE_NO":"１７４號","E_COORD97":166118.39999999999,"N_COORD97":2544354.75,"ADDRESS":"安平路１７４號","OBJECTID":627241},"geometry":{"x":166118.40000000037,"y":2544354.7500000037}},{"attributes":{"ID":627269,"DIS_CODE":0,"TOWNNAME":"北區","LI":"三德里","LIN":"4鄰","STREET":"裕民街","SECT":" ","MAREA":" ","LANE":" ","ALLEY":" ","HOUSE_NO":"７６號","E_COORD97":168501.88,"N_COORD97":2544504.3500000001,"ADDRESS":"裕民街７６號","OBJECTID":627242},"geometry":{"x":168501.87999999989,"y":2544504.3500000015}},{"attributes":{"ID":627270,"DIS_CODE":0,"TOWNNAME":"北區","LI":"三德里","LIN":"4鄰","STREET":"裕民街","SECT":" ","MAREA":" ","LANE":" ","ALLEY":" ","HOUSE_NO":"８６號","E_COORD97":168502.17999999999,"N_COORD97":2544521.8700000001,"ADDRESS":"裕民街８６號","OBJECTID":627243},"geometry":{"x":168502.18000000063,"y":2544521.8700000029}},{"attributes":{"ID":627271,"DIS_CODE":0,"TOWNNAME":"北區","LI":"三德里","LIN":"4鄰","STREET":"裕民街","SECT":" ","MAREA":" ","LANE":" ","ALLEY":" ","HOUSE_NO":"９０號","E_COORD97":168493.41,"N_COORD97":2544531.0499999998,"ADDRESS":"裕民街９０號","OBJECTID":627244},"geometry":{"x":168493.41000000015,"y":2544531.0500000026}},{"attributes":{"ID":627272,"DIS_CODE":0,"TOWNNAME":"永康區","LI":"復國里","LIN":"20鄰","STREET":"國華街","SECT":" ","MAREA":" ","LANE":" ","ALLEY":" ","HOUSE_NO":"５５號三樓之１","E_COORD97":172799.42000000001,"N_COORD97":2545761.4199999999,"ADDRESS":"國華街５５號三樓之１","OBJECTID":627245},"geometry":{"x":172799.42000000086,"y":2545761.4200000018}},{"attributes":{"ID":627273,"DIS_CODE":0,"TOWNNAME":"永康區","LI":"復國里","LIN":"26鄰","STREET":"復華三街","SECT":" ","MAREA":" ","LANE":" ","ALLEY":" ","HOUSE_NO":"６２號十九樓之３","E_COORD97":172711.81,"N_COORD97":2545562.9700000002,"ADDRESS":"復華三街６２號十九樓之３","OBJECTID":627246},"geometry":{"x":172711.81000000052,"y":2545562.9700000007}},{"attributes":{"ID":627274,"DIS_CODE":0,"TOWNNAME":"北區","LI":"大仁里","LIN":"4鄰","STREET":"北門路","SECT":"二段","MAREA":" ","LANE":" ","ALLEY":" ","HOUSE_NO":"３６８號","E_COORD97":169589.32999999999,"N_COORD97":2545429.4300000002,"ADDRESS":"北門路二段３６８號","OBJECTID":627247},"geometry":{"x":169589.33000000194,"y":2545429.4300000016}},{"attributes":{"ID":627275,"DIS_CODE":0,"TOWNNAME":"北區","LI":"大仁里","LIN":"4鄰","STREET":"精忠街","SECT":" ","MAREA":" ","LANE":" ","ALLEY":" ","HOUSE_NO":"２６號","E_COORD97":169523.79999999999,"N_COORD97":2545473.1899999999,"ADDRESS":"精忠街２６號","OBJECTID":627248},"geometry":{"x":169523.80000000075,"y":2545473.1899999995}},{"attributes":{"ID":627276,"DIS_CODE":0,"TOWNNAME":"歸仁區","LI":"新厝里","LIN":"4鄰","STREET":"復興路","SECT":" ","MAREA":" ","LANE":" ","ALLEY":" ","HOUSE_NO":"１０８號","E_COORD97":177747.23999999999,"N_COORD97":2540641.9399999999,"ADDRESS":"復興路１０８號","OBJECTID":627249},"geometry":{"x":177747.23999999929,"y":2540641.9400000013}},{"attributes":{"ID":627277,"DIS_CODE":0,"TOWNNAME":"關廟區","LI":"五甲里","LIN":"4鄰","STREET":"旺萊路","SECT":" ","MAREA":" ","LANE":" ","ALLEY":" ","HOUSE_NO":"７號","E_COORD97":181426.94,"N_COORD97":2539109.25,"ADDRESS":"旺萊路７號","OBJECTID":627250},"geometry":{"x":181426.94000000134,"y":2539109.25}},{"attributes":{"ID":627278,"DIS_CODE":0,"TOWNNAME":"北區","LI":"元寶里","LIN":"4鄰","STREET":"北園街","SECT":" ","MAREA":" ","LANE":" ","ALLEY":" ","HOUSE_NO":"４２之３號","E_COORD97":170366.70999999999,"N_COORD97":2545771.6800000002,"ADDRESS":"北園街４２之３號","OBJECTID":627251},"geometry":{"x":170366.71000000089,"y":2545771.6799999997}},{"attributes":{"ID":627279,"DIS_CODE":0,"TOWNNAME":"北區","LI":"元寶里","LIN":"4鄰","STREET":"北園街","SECT":" ","MAREA":" ","LANE":" ","ALLEY":" ","HOUSE_NO":"４２之５號","E_COORD97":170366.48000000001,"N_COORD97":2545775.73,"ADDRESS":"北園街４２之５號","OBJECTID":627252},"geometry":{"x":170366.48000000045,"y":2545775.7299999986}},{"attributes":{"ID":627280,"DIS_CODE":0,"TOWNNAME":"北區","LI":"元寶里","LIN":"4鄰","STREET":"北園街","SECT":" ","MAREA":" ","LANE":" ","ALLEY":" ","HOUSE_NO":"４２號","E_COORD97":170369.19,"N_COORD97":2545758.4199999999,"ADDRESS":"北園街４２號","OBJECTID":627253},"geometry":{"x":170369.19000000134,"y":2545758.4200000018}},{"attributes":{"ID":627281,"DIS_CODE":0,"TOWNNAME":"北區","LI":"振興里","LIN":"4鄰","STREET":"長榮路","SECT":"四段","MAREA":" ","LANE":" ","ALLEY":" ","HOUSE_NO":"２２３之１號","E_COORD97":170129.73999999999,"N_COORD97":2545304.8999999999,"ADDRESS":"長榮路四段２２３之１號","OBJECTID":627254},"geometry":{"x":170129.74000000115,"y":2545304.9000000022}},{"attributes":{"ID":627282,"DIS_CODE":0,"TOWNNAME":"新營區","LI":"民權里","LIN":"4鄰","STREET":"信義街","SECT":" ","MAREA":" ","LANE":" ","ALLEY":" ","HOUSE_NO":"５０號","E_COORD97":179926.51999999999,"N_COORD97":2578421.3500000001,"ADDRESS":"信義街５０號","OBJECTID":627255},"geometry":{"x":179926.52000000142,"y":2578421.3500000015}},{"attributes":{"ID":627283,"DIS_CODE":0,"TOWNNAME":"南區","LI":"田寮里","LIN":"4鄰","STREET":"新興路","SECT":" ","MAREA":" ","LANE":" ","ALLEY":" ","HOUSE_NO":"２４３號","E_COORD97":167265.38,"N_COORD97":2541922.7000000002,"ADDRESS":"新興路２４３號","OBJECTID":627256},"geometry":{"x":167265.38000000082,"y":2541922.6999999993}},{"attributes":{"ID":627284,"DIS_CODE":0,"TOWNNAME":"南區","LI":"田寮里","LIN":"4鄰","STREET":"新興路","SECT":" ","MAREA":" ","LANE":" ","ALLEY":" ","HOUSE_NO":"２４５號","E_COORD97":167262.84,"N_COORD97":2541920.5499999998,"ADDRESS":"新興路２４５號","OBJECTID":627257},"geometry":{"x":167262.83999999985,"y":2541920.5500000026}},{"attributes":{"ID":627285,"DIS_CODE":0,"TOWNNAME":"南區","LI":"田寮里","LIN":"4鄰","STREET":"新興路","SECT":" ","MAREA":" ","LANE":" ","ALLEY":" ","HOUSE_NO":"２４７號","E_COORD97":167259.51999999999,"N_COORD97":2541918.02,"ADDRESS":"新興路２４７號","OBJECTID":627258},"geometry":{"x":167259.51999999955,"y":2541918.0199999977}},{"attributes":{"ID":627286,"DIS_CODE":0,"TOWNNAME":"南區","LI":"田寮里","LIN":"4鄰","STREET":"新興路","SECT":" ","MAREA":" ","LANE":" ","ALLEY":" ","HOUSE_NO":"２４９號","E_COORD97":167256.39000000001,"N_COORD97":2541916.0699999998,"ADDRESS":"新興路２４９號","OBJECTID":627259},"geometry":{"x":167256.3900000006,"y":2541916.0700000022}},{"attributes":{"ID":627287,"DIS_CODE":0,"TOWNNAME":"永康區","LI":"勝利里","LIN":"20鄰","STREET":"勝學路","SECT":" ","MAREA":" ","LANE":" ","ALLEY":" ","HOUSE_NO":"２３７號七樓之１","E_COORD97":171181.29999999999,"N_COORD97":2545265.6699999999,"ADDRESS":"勝學路２３７號七樓之１","OBJECTID":627260},"geometry":{"x":171181.30000000075,"y":2545265.6699999999}},{"attributes":{"ID":627288,"DIS_CODE":0,"TOWNNAME":"永康區","LI":"復國里","LIN":"26鄰","STREET":"復華三街","SECT":" ","MAREA":" ","LANE":" ","ALLEY":" ","HOUSE_NO":"６４號十五樓之５","E_COORD97":172721.03,"N_COORD97":2545600.2999999998,"ADDRESS":"復華三街６４號十五樓之５","OBJECTID":627261},"geometry":{"x":172721.03000000119,"y":2545600.3000000026}},{"attributes":{"ID":627289,"DIS_CODE":0,"TOWNNAME":"南區","LI":"田寮里","LIN":"4鄰","STREET":"新興路","SECT":" ","MAREA":" ","LANE":" ","ALLEY":" ","HOUSE_NO":"２５１號","E_COORD97":167253.66,"N_COORD97":2541913.9199999999,"ADDRESS":"新興路２５１號","OBJECTID":627262},"geometry":{"x":167253.66000000108,"y":2541913.9200000018}},{"attributes":{"ID":627290,"DIS_CODE":0,"TOWNNAME":"南區","LI":"田寮里","LIN":"4鄰","STREET":"新興路","SECT":" ","MAREA":" ","LANE":" ","ALLEY":" ","HOUSE_NO":"２５３號","E_COORD97":167250.34,"N_COORD97":2541911.77,"ADDRESS":"新興路２５３號","OBJECTID":627263},"geometry":{"x":167250.34000000078,"y":2541911.7699999996}},{"attributes":{"ID":627291,"DIS_CODE":0,"TOWNNAME":"南區","LI":"田寮里","LIN":"4鄰","STREET":"新興路","SECT":" ","MAREA":" ","LANE":" ","ALLEY":" ","HOUSE_NO":"２５５號","E_COORD97":167246.82000000001,"N_COORD97":2541908.8500000001,"ADDRESS":"新興路２５５號","OBJECTID":627264},"geometry":{"x":167246.82000000216,"y":2541908.8499999996}},{"attributes":{"ID":627292,"DIS_CODE":0,"TOWNNAME":"南區","LI":"田寮里","LIN":"4鄰","STREET":"新興路","SECT":" ","MAREA":" ","LANE":" ","ALLEY":" ","HOUSE_NO":"２５７號","E_COORD97":167244.28,"N_COORD97":2541906.1200000001,"ADDRESS":"新興路２５７號","OBJECTID":627265},"geometry":{"x":167244.28000000119,"y":2541906.1200000029}},{"attributes":{"ID":627293,"DIS_CODE":0,"TOWNNAME":"南區","LI":"田寮里","LIN":"4鄰","STREET":"新興路","SECT":" ","MAREA":" ","LANE":" ","ALLEY":" ","HOUSE_NO":"２５９號","E_COORD97":167241.16,"N_COORD97":2541904.1699999999,"ADDRESS":"新興路２５９號","OBJECTID":627266},"geometry":{"x":167241.16000000201,"y":2541904.1700000037}},{"attributes":{"ID":627294,"DIS_CODE":0,"TOWNNAME":"安平區","LI":"建平里","LIN":"4鄰","STREET":"慶平路","SECT":" ","MAREA":" ","LANE":" ","ALLEY":" ","HOUSE_NO":"１６０號地下層","E_COORD97":166027.38,"N_COORD97":2544205.7000000002,"ADDRESS":"慶平路１６０號地下層","OBJECTID":627267},"geometry":{"x":166027.38000000082,"y":2544205.7000000011}},{"attributes":{"ID":627295,"DIS_CODE":0,"TOWNNAME":"安平區","LI":"建平里","LIN":"4鄰","STREET":"慶平路","SECT":" ","MAREA":" ","LANE":" ","ALLEY":" ","HOUSE_NO":"１６２號","E_COORD97":165978.53,"N_COORD97":2544208.6400000001,"ADDRESS":"慶平路１６２號","OBJECTID":627268},"geometry":{"x":165978.53000000026,"y":2544208.6400000025}},{"attributes":{"ID":627296,"DIS_CODE":0,"TOWNNAME":"新化區","LI":"協興里","LIN":"4鄰","STREET":"正新路","SECT":" ","MAREA":" ","LANE":" ","ALLEY":" ","HOUSE_NO":"２４５號","E_COORD97":178554.22,"N_COORD97":2548486.25,"ADDRESS":"正新路２４５號","OBJECTID":627269},"geometry":{"x":178554.22000000067,"y":2548486.25}},{"attributes":{"ID":627297,"DIS_CODE":0,"TOWNNAME":"中西區","LI":"中正里","LIN":"4鄰","STREET":"正興街","SECT":" ","MAREA":" ","LANE":" ","ALLEY":" ","HOUSE_NO":"２２號","E_COORD97":167820.64999999999,"N_COORD97":2543864.6099999999,"ADDRESS":"正興街２２號","OBJECTID":627270},"geometry":{"x":167820.65000000037,"y":2543864.6100000013}},{"attributes":{"ID":627298,"DIS_CODE":0,"TOWNNAME":"中西區","LI":"中正里","LIN":"4鄰","STREET":"正興街","SECT":" ","MAREA":" ","LANE":" ","ALLEY":" ","HOUSE_NO":"２４號","E_COORD97":167813.32999999999,"N_COORD97":2543872.8300000001,"ADDRESS":"正興街２４號","OBJECTID":627271},"geometry":{"x":167813.33000000101,"y":2543872.8300000038}},{"attributes":{"ID":627299,"DIS_CODE":0,"TOWNNAME":"中西區","LI":"中正里","LIN":"4鄰","STREET":"正興街","SECT":" ","MAREA":" ","LANE":" ","ALLEY":" ","HOUSE_NO":"２４號之１","E_COORD97":167815.35000000001,"N_COORD97":2543878.46,"ADDRESS":"正興街２４號之１","OBJECTID":627272},"geometry":{"x":167815.34999999963,"y":2543878.4600000009}},{"attributes":{"ID":627300,"DIS_CODE":0,"TOWNNAME":"中西區","LI":"中正里","LIN":"4鄰","STREET":"正興街","SECT":" ","MAREA":" ","LANE":" ","ALLEY":" ","HOUSE_NO":"２６號","E_COORD97":167811.04000000001,"N_COORD97":2543866.23,"ADDRESS":"正興街２６號","OBJECTID":627273},"geometry":{"x":167811.04000000004,"y":2543866.2300000004}},{"attributes":{"ID":627301,"DIS_CODE":0,"TOWNNAME":"中西區","LI":"中正里","LIN":"4鄰","STREET":"正興街","SECT":" ","MAREA":" ","LANE":" ","ALLEY":" ","HOUSE_NO":"２８號","E_COORD97":167808.16,"N_COORD97":2543867.1899999999,"ADDRESS":"正興街２８號","OBJECTID":627274},"geometry":{"x":167808.16000000015,"y":2543867.1900000013}},{"attributes":{"ID":627302,"DIS_CODE":0,"TOWNNAME":"中西區","LI":"中正里","LIN":"4鄰","STREET":"正興街","SECT":" ","MAREA":" ","LANE":" ","ALLEY":" ","HOUSE_NO":"４６號","E_COORD97":167775.01999999999,"N_COORD97":2543875.2200000002,"ADDRESS":"正興街４６號","OBJECTID":627275},"geometry":{"x":167775.01999999955,"y":2543875.2200000025}},{"attributes":{"ID":627303,"DIS_CODE":0,"TOWNNAME":"中西區","LI":"中正里","LIN":"4鄰","STREET":"正興街","SECT":" ","MAREA":" ","LANE":" ","ALLEY":" ","HOUSE_NO":"６號","E_COORD97":167860.76000000001,"N_COORD97":2543855.3399999999,"ADDRESS":"正興街６號","OBJECTID":627276},"geometry":{"x":167860.76000000071,"y":2543855.3399999999}},{"attributes":{"ID":627304,"DIS_CODE":0,"TOWNNAME":"中西區","LI":"中正里","LIN":"4鄰","STREET":"正興街","SECT":" ","MAREA":" ","LANE":" ","ALLEY":" ","HOUSE_NO":"８號","E_COORD97":167856.16,"N_COORD97":2543859.21,"ADDRESS":"正興街８號","OBJECTID":627277},"geometry":{"x":167856.16000000015,"y":2543859.2100000028}},{"attributes":{"ID":627305,"DIS_CODE":0,"TOWNNAME":"中西區","LI":"中正里","LIN":"4鄰","STREET":"正興街","SECT":" ","MAREA":" ","LANE":" ","ALLEY":" ","HOUSE_NO":"４８號之１","E_COORD97":167770.32999999999,"N_COORD97":2543881.9199999999,"ADDRESS":"正興街４８號之１","OBJECTID":627278},"geometry":{"x":167770.33000000194,"y":2543881.9199999999}},{"attributes":{"ID":627306,"DIS_CODE":0,"TOWNNAME":"永康區","LI":"復國里","LIN":"26鄰","STREET":"復華三街","SECT":" ","MAREA":" ","LANE":" ","ALLEY":" ","HOUSE_NO":"６４號十六樓之２","E_COORD97":172721.01000000001,"N_COORD97":2545600.2999999998,"ADDRESS":"復華三街６４號十六樓之２","OBJECTID":627279},"geometry":{"x":172721.01000000071,"y":2545600.3000000026}},{"attributes":{"ID":627307,"DIS_CODE":0,"TOWNNAME":"南區","LI":"佛壇里","LIN":"4鄰","STREET":"興南街","SECT":" ","MAREA":" ","LANE":" ","ALLEY":" ","HOUSE_NO":"１５０號","E_COORD97":166145.26999999999,"N_COORD97":2535881.1600000001,"ADDRESS":"興南街１５０號","OBJECTID":627280},"geometry":{"x":166145.27000000048,"y":2535881.160000002}},{"attributes":{"ID":627308,"DIS_CODE":0,"TOWNNAME":"南區","LI":"佛壇里","LIN":"4鄰","STREET":"興南街","SECT":" ","MAREA":" ","LANE":" ","ALLEY":" ","HOUSE_NO":"１５４號","E_COORD97":166135.14999999999,"N_COORD97":2535871.7999999998,"ADDRESS":"興南街１５４號","OBJECTID":627281},"geometry":{"x":166135.1500000013,"y":2535871.8000000007}},{"attributes":{"ID":627309,"DIS_CODE":0,"TOWNNAME":"南區","LI":"佛壇里","LIN":"4鄰","STREET":"興南街","SECT":" ","MAREA":" ","LANE":" ","ALLEY":" ","HOUSE_NO":"１５６號","E_COORD97":166120.81,"N_COORD97":2535887.8700000001,"ADDRESS":"興南街１５６號","OBJECTID":627282},"geometry":{"x":166120.81000000052,"y":2535887.870000001}},{"attributes":{"ID":627310,"DIS_CODE":0,"TOWNNAME":"南區","LI":"佛壇里","LIN":"4鄰","STREET":"興南街","SECT":" ","MAREA":" ","LANE":" ","ALLEY":" ","HOUSE_NO":"１６２號","E_COORD97":166117.20000000001,"N_COORD97":2535860.3399999999,"ADDRESS":"興南街１６２號","OBJECTID":627283},"geometry":{"x":166117.20000000112,"y":2535860.3399999999}},{"attributes":{"ID":627311,"DIS_CODE":0,"TOWNNAME":"南區","LI":"佛壇里","LIN":"4鄰","STREET":"興南街","SECT":" ","MAREA":" ","LANE":" ","ALLEY":" ","HOUSE_NO":"１６４號","E_COORD97":166112.51999999999,"N_COORD97":2535861.1400000001,"ADDRESS":"興南街１６４號","OBJECTID":627284},"geometry":{"x":166112.52000000048,"y":2535861.1400000025}},{"attributes":{"ID":627312,"DIS_CODE":0,"TOWNNAME":"東區","LI":"德光里","LIN":"4鄰","STREET":"崇明三街","SECT":" ","MAREA":" ","LANE":" ","ALLEY":" ","HOUSE_NO":"７２號","E_COORD97":169764.44,"N_COORD97":2542385.1200000001,"ADDRESS":"崇明三街７２號","OBJECTID":627285},"geometry":{"x":169764.44000000041,"y":2542385.1200000029}},{"attributes":{"ID":627313,"DIS_CODE":0,"TOWNNAME":"東區","LI":"德光里","LIN":"4鄰","STREET":"崇明五街","SECT":" ","MAREA":" ","LANE":" ","ALLEY":" ","HOUSE_NO":"１１５號","E_COORD97":169812.82000000001,"N_COORD97":2542317.6000000001,"ADDRESS":"崇明五街１１５號","OBJECTID":627286},"geometry":{"x":169812.8200000003,"y":2542317.5999999978}},{"attributes":{"ID":627314,"DIS_CODE":0,"TOWNNAME":"東區","LI":"德光里","LIN":"4鄰","STREET":"崇明五街","SECT":" ","MAREA":" ","LANE":" ","ALLEY":" ","HOUSE_NO":"１１７號","E_COORD97":169822.70000000001,"N_COORD97":2542318.6499999999,"ADDRESS":"崇明五街１１７號","OBJECTID":627287},"geometry":{"x":169822.70000000205,"y":2542318.6500000022}},{"attributes":{"ID":627315,"DIS_CODE":0,"TOWNNAME":"東區","LI":"德光里","LIN":"4鄰","STREET":"崇明五街","SECT":" ","MAREA":" ","LANE":" ","ALLEY":" ","HOUSE_NO":"１１９號","E_COORD97":169816.81,"N_COORD97":2542318.8599999999,"ADDRESS":"崇明五街１１９號","OBJECTID":627288},"geometry":{"x":169816.81000000052,"y":2542318.8599999994}},{"attributes":{"ID":627316,"DIS_CODE":0,"TOWNNAME":"永康區","LI":"復國里","LIN":"20鄰","STREET":"國華街","SECT":" ","MAREA":" ","LANE":" ","ALLEY":" ","HOUSE_NO":"５９號十一樓之１","E_COORD97":172824.67000000001,"N_COORD97":2545757.4199999999,"ADDRESS":"國華街５９號十一樓之１","OBJECTID":627289},"geometry":{"x":172824.67000000179,"y":2545757.4200000037}},{"attributes":{"ID":627317,"DIS_CODE":0,"TOWNNAME":"永康區","LI":"勝利里","LIN":"20鄰","STREET":"勝學路","SECT":" ","MAREA":" ","LANE":" ","ALLEY":" ","HOUSE_NO":"２３７號四樓之１","E_COORD97":171181.29999999999,"N_COORD97":2545265.6699999999,"ADDRESS":"勝學路２３７號四樓之１","OBJECTID":627290},"geometry":{"x":171181.30000000075,"y":2545265.6699999999}},{"attributes":{"ID":627318,"DIS_CODE":0,"TOWNNAME":"東區","LI":"德光里","LIN":"4鄰","STREET":"崇明五街","SECT":" ","MAREA":" ","LANE":" ","ALLEY":" ","HOUSE_NO":"８３號","E_COORD97":169783.59,"N_COORD97":2542308.1499999999,"ADDRESS":"崇明五街８３號","OBJECTID":627291},"geometry":{"x":169783.58999999985,"y":2542308.1500000041}},{"attributes":{"ID":627319,"DIS_CODE":0,"TOWNNAME":"東區","LI":"德光里","LIN":"4鄰","STREET":"崇明五街","SECT":" ","MAREA":" ","LANE":" ","ALLEY":" ","HOUSE_NO":"８５號","E_COORD97":169787.17000000001,"N_COORD97":2542309.4100000001,"ADDRESS":"崇明五街８５號","OBJECTID":627292},"geometry":{"x":169787.17000000086,"y":2542309.4100000039}},{"attributes":{"ID":627320,"DIS_CODE":0,"TOWNNAME":"東區","LI":"德光里","LIN":"4鄰","STREET":"崇明五街","SECT":" ","MAREA":" ","LANE":" ","ALLEY":" ","HOUSE_NO":"８７號","E_COORD97":169791.16,"N_COORD97":2542310.8799999999,"ADDRESS":"崇明五街８７號","OBJECTID":627293},"geometry":{"x":169791.16000000108,"y":2542310.879999999}},{"attributes":{"ID":627321,"DIS_CODE":0,"TOWNNAME":"東區","LI":"德光里","LIN":"4鄰","STREET":"崇明五街","SECT":" ","MAREA":" ","LANE":" ","ALLEY":" ","HOUSE_NO":"８９號","E_COORD97":169795.79000000001,"N_COORD97":2542312.5499999998,"ADDRESS":"崇明五街８９號","OBJECTID":627294},"geometry":{"x":169795.79000000004,"y":2542312.5500000045}},{"attributes":{"ID":627322,"DIS_CODE":0,"TOWNNAME":"東區","LI":"德光里","LIN":"4鄰","STREET":"崇明五街","SECT":" ","MAREA":" ","LANE":" ","ALLEY":" ","HOUSE_NO":"９１號","E_COORD97":169799.98999999999,"N_COORD97":2542313.8199999998,"ADDRESS":"崇明五街９１號","OBJECTID":627295},"geometry":{"x":169799.99000000022,"y":2542313.820000004}},{"attributes":{"ID":627323,"DIS_CODE":0,"TOWNNAME":"東區","LI":"德光里","LIN":"4鄰","STREET":"崇明五街","SECT":" ","MAREA":" ","LANE":" ","ALLEY":" ","HOUSE_NO":"９３號","E_COORD97":169803.98999999999,"N_COORD97":2542315.29,"ADDRESS":"崇明五街９３號","OBJECTID":627296},"geometry":{"x":169803.99000000115,"y":2542315.2899999991}},{"attributes":{"ID":627324,"DIS_CODE":0,"TOWNNAME":"東區","LI":"德光里","LIN":"4鄰","STREET":"崇明五街","SECT":" ","MAREA":" ","LANE":" ","ALLEY":" ","HOUSE_NO":"９５號","E_COORD97":169808.82000000001,"N_COORD97":2542316.1299999999,"ADDRESS":"崇明五街９５號","OBJECTID":627297},"geometry":{"x":169808.82000000123,"y":2542316.129999999}},{"attributes":{"ID":627325,"DIS_CODE":0,"TOWNNAME":"東區","LI":"德光里","LIN":"4鄰","STREET":"崇明四街","SECT":" ","MAREA":" ","LANE":" ","ALLEY":" ","HOUSE_NO":"６５號","E_COORD97":169754.13,"N_COORD97":2542354.8799999999,"ADDRESS":"崇明四街６５號","OBJECTID":627298},"geometry":{"x":169754.12999999989,"y":2542354.879999999}},{"attributes":{"ID":627326,"DIS_CODE":0,"TOWNNAME":"東區","LI":"德光里","LIN":"4鄰","STREET":"崇明四街","SECT":" ","MAREA":" ","LANE":" ","ALLEY":" ","HOUSE_NO":"７３號","E_COORD97":169770.53,"N_COORD97":2542360.3399999999,"ADDRESS":"崇明四街７３號","OBJECTID":627299},"geometry":{"x":169770.53000000026,"y":2542360.339999998}},{"attributes":{"ID":627327,"DIS_CODE":0,"TOWNNAME":"東區","LI":"德光里","LIN":"4鄰","STREET":"崇明四街","SECT":" ","MAREA":" ","LANE":" ","ALLEY":" ","HOUSE_NO":"８２號","E_COORD97":169764.07999999999,"N_COORD97":2542336.73,"ADDRESS":"崇明四街８２號","OBJECTID":627300},"geometry":{"x":169764.08000000101,"y":2542336.7300000004}},{"attributes":{"ID":627328,"DIS_CODE":0,"TOWNNAME":"東區","LI":"德光里","LIN":"4鄰","STREET":"崇明四街","SECT":" ","MAREA":" ","LANE":" ","ALLEY":" ","HOUSE_NO":"８２號之１","E_COORD97":169768.5,"N_COORD97":2542337.8900000001,"ADDRESS":"崇明四街８２號之１","OBJECTID":627301},"geometry":{"x":169768.50000000093,"y":2542337.8900000025}},{"attributes":{"ID":627329,"DIS_CODE":0,"TOWNNAME":"東區","LI":"德光里","LIN":"4鄰","STREET":"崇明四街","SECT":" ","MAREA":" ","LANE":" ","ALLEY":" ","HOUSE_NO":"８４號","E_COORD97":169774.76000000001,"N_COORD97":2542336.9199999999,"ADDRESS":"崇明四街８４號","OBJECTID":627302},"geometry":{"x":169774.76000000071,"y":2542336.9200000018}},{"attributes":{"ID":627330,"DIS_CODE":0,"TOWNNAME":"東區","LI":"德光里","LIN":"4鄰","STREET":"崇明四街","SECT":" ","MAREA":" ","LANE":" ","ALLEY":" ","HOUSE_NO":"８６號","E_COORD97":169779.81,"N_COORD97":2542339.4399999999,"ADDRESS":"崇明四街８６號","OBJECTID":627303},"geometry":{"x":169779.80999999959,"y":2542339.4400000013}},{"attributes":{"ID":627331,"DIS_CODE":0,"TOWNNAME":"東區","LI":"德光里","LIN":"4鄰","STREET":"崇明四街","SECT":" ","MAREA":" ","LANE":" ","ALLEY":" ","HOUSE_NO":"８８號","E_COORD97":169785.06,"N_COORD97":2542340.9100000001,"ADDRESS":"崇明四街８８號","OBJECTID":627304},"geometry":{"x":169785.05999999959,"y":2542340.910000002}},{"attributes":{"ID":627332,"DIS_CODE":0,"TOWNNAME":"東區","LI":"德光里","LIN":"4鄰","STREET":"崇德路","SECT":" ","MAREA":" ","LANE":" ","ALLEY":" ","HOUSE_NO":"７２號","E_COORD97":169822.92000000001,"N_COORD97":2542340.8100000001,"ADDRESS":"崇德路７２號","OBJECTID":627305},"geometry":{"x":169822.92000000086,"y":2542340.8099999987}},{"attributes":{"ID":627333,"DIS_CODE":0,"TOWNNAME":"東區","LI":"德光里","LIN":"4鄰","STREET":"崇德路","SECT":" ","MAREA":" ","LANE":" ","ALLEY":" ","HOUSE_NO":"７４號","E_COORD97":169825.70999999999,"N_COORD97":2542338.3999999999,"ADDRESS":"崇德路７４號","OBJECTID":627306},"geometry":{"x":169825.71000000183,"y":2542338.4000000022}},{"attributes":{"ID":627334,"DIS_CODE":0,"TOWNNAME":"東區","LI":"德光里","LIN":"4鄰","STREET":"崇德路","SECT":" ","MAREA":" ","LANE":" ","ALLEY":" ","HOUSE_NO":"７６號","E_COORD97":169828.5,"N_COORD97":2542335.6099999999,"ADDRESS":"崇德路７６號","OBJECTID":627307},"geometry":{"x":169828.5,"y":2542335.6100000013}},{"attributes":{"ID":627335,"DIS_CODE":0,"TOWNNAME":"東區","LI":"德光里","LIN":"4鄰","STREET":"崇德路","SECT":" ","MAREA":" ","LANE":" ","ALLEY":" ","HOUSE_NO":"７８號","E_COORD97":169831.67000000001,"N_COORD97":2542333.2000000002,"ADDRESS":"崇德路７８號","OBJECTID":627308},"geometry":{"x":169831.67000000086,"y":2542333.1999999993}},{"attributes":{"ID":627336,"DIS_CODE":0,"TOWNNAME":"東區","LI":"德光里","LIN":"4鄰","STREET":"崇德路","SECT":" ","MAREA":" ","LANE":" ","ALLEY":" ","HOUSE_NO":"８０號","E_COORD97":169834.64000000001,"N_COORD97":2542330.04,"ADDRESS":"崇德路８０號","OBJECTID":627309},"geometry":{"x":169834.6400000006,"y":2542330.0399999991}},{"attributes":{"ID":627337,"DIS_CODE":0,"TOWNNAME":"永康區","LI":"復國里","LIN":"20鄰","STREET":"國華街","SECT":" ","MAREA":" ","LANE":" ","ALLEY":" ","HOUSE_NO":"５５號九樓之２","E_COORD97":172799.54999999999,"N_COORD97":2545761.4199999999,"ADDRESS":"國華街５５號九樓之２","OBJECTID":627310},"geometry":{"x":172799.54999999981,"y":2545761.4200000018}},{"attributes":{"ID":627338,"DIS_CODE":0,"TOWNNAME":"永康區","LI":"勝利里","LIN":"20鄰","STREET":"勝學路","SECT":" ","MAREA":" ","LANE":" ","ALLEY":" ","HOUSE_NO":"２３７號十二樓之２","E_COORD97":171182.69,"N_COORD97":2545265.6699999999,"ADDRESS":"勝學路２３７號十二樓之２","OBJECTID":627311},"geometry":{"x":171182.69000000134,"y":2545265.6699999999}},{"attributes":{"ID":627339,"DIS_CODE":0,"TOWNNAME":"永康區","LI":"復國里","LIN":"26鄰","STREET":"復華三街","SECT":" ","MAREA":" ","LANE":" ","ALLEY":" ","HOUSE_NO":"６４號十六樓之１","E_COORD97":172720.88,"N_COORD97":2545600.2999999998,"ADDRESS":"復華三街６４號十六樓之１","OBJECTID":627312},"geometry":{"x":172720.87999999989,"y":2545600.3000000026}},{"attributes":{"ID":627340,"DIS_CODE":0,"TOWNNAME":"永康區","LI":"復國里","LIN":"26鄰","STREET":"復華三街","SECT":" ","MAREA":" ","LANE":" ","ALLEY":" ","HOUSE_NO":"６２號十七樓之３","E_COORD97":172711.81,"N_COORD97":2545562.9700000002,"ADDRESS":"復華三街６２號十七樓之３","OBJECTID":627313},"geometry":{"x":172711.81000000052,"y":2545562.9700000007}},{"attributes":{"ID":627341,"DIS_CODE":0,"TOWNNAME":"東區","LI":"德光里","LIN":"4鄰","STREET":"崇德路","SECT":" ","MAREA":" ","LANE":" ","ALLEY":" ","HOUSE_NO":"８２號","E_COORD97":169837.62,"N_COORD97":2542326.8799999999,"ADDRESS":"崇德路８２號","OBJECTID":627314},"geometry":{"x":169837.62000000011,"y":2542326.8800000008}},{"attributes":{"ID":627342,"DIS_CODE":0,"TOWNNAME":"中西區","LI":"法華里","LIN":"4鄰","STREET":"大同路","SECT":"一段","MAREA":" ","LANE":" ","ALLEY":" ","HOUSE_NO":"２４０號","E_COORD97":169155.10000000001,"N_COORD97":2542497.4500000002,"ADDRESS":"大同路一段２４０號","OBJECTID":627315},"geometry":{"x":169155.10000000056,"y":2542497.4499999993}},{"attributes":{"ID":627343,"DIS_CODE":0,"TOWNNAME":"中西區","LI":"法華里","LIN":"4鄰","STREET":"大同路","SECT":"一段","MAREA":" ","LANE":" ","ALLEY":" ","HOUSE_NO":"２４２號","E_COORD97":169166.23000000001,"N_COORD97":2542488.1800000002,"ADDRESS":"大同路一段２４２號","OBJECTID":627316},"geometry":{"x":169166.23000000045,"y":2542488.1800000016}},{"attributes":{"ID":627344,"DIS_CODE":0,"TOWNNAME":"永康區","LI":"勝利里","LIN":"20鄰","STREET":"勝學路","SECT":" ","MAREA":" ","LANE":" ","ALLEY":" ","HOUSE_NO":"２３７號八樓之１","E_COORD97":171181.29999999999,"N_COORD97":2545265.6699999999,"ADDRESS":"勝學路２３７號八樓之１","OBJECTID":627317},"geometry":{"x":171181.30000000075,"y":2545265.6699999999}},{"attributes":{"ID":627345,"DIS_CODE":0,"TOWNNAME":"永康區","LI":"勝利里","LIN":"20鄰","STREET":"勝學路","SECT":" ","MAREA":" ","LANE":" ","ALLEY":" ","HOUSE_NO":"２３７號十二樓之１","E_COORD97":171182.54999999999,"N_COORD97":2545265.6699999999,"ADDRESS":"勝學路２３７號十二樓之１","OBJECTID":627318},"geometry":{"x":171182.54999999981,"y":2545265.6699999999}},{"attributes":{"ID":627346,"DIS_CODE":0,"TOWNNAME":"永康區","LI":"復國里","LIN":"26鄰","STREET":"復華三街","SECT":" ","MAREA":" ","LANE":" ","ALLEY":" ","HOUSE_NO":"６４號十樓之６","E_COORD97":172719.73000000001,"N_COORD97":2545600.2999999998,"ADDRESS":"復華三街６４號十樓之６","OBJECTID":627319},"geometry":{"x":172719.73000000231,"y":2545600.3000000026}},{"attributes":{"ID":627347,"DIS_CODE":0,"TOWNNAME":"中西區","LI":"法華里","LIN":"4鄰","STREET":"大同路","SECT":"一段","MAREA":" ","LANE":" ","ALLEY":" ","HOUSE_NO":"２４４號","E_COORD97":169167.16,"N_COORD97":2542483.5499999998,"ADDRESS":"大同路一段２４４號","OBJECTID":627320},"geometry":{"x":169167.16000000108,"y":2542483.5500000026}},{"attributes":{"ID":627348,"DIS_CODE":0,"TOWNNAME":"中西區","LI":"法華里","LIN":"4鄰","STREET":"大同路","SECT":"一段","MAREA":" ","LANE":" ","ALLEY":" ","HOUSE_NO":"２４６號","E_COORD97":169169.48000000001,"N_COORD97":2542478.9199999999,"ADDRESS":"大同路一段２４６號","OBJECTID":627321},"geometry":{"x":169169.48000000045,"y":2542478.9200000037}},{"attributes":{"ID":627349,"DIS_CODE":0,"TOWNNAME":"中西區","LI":"法華里","LIN":"4鄰","STREET":"大同路","SECT":"一段","MAREA":" ","LANE":" ","ALLEY":" ","HOUSE_NO":"２４８號","E_COORD97":169170.41,"N_COORD97":2542475.21,"ADDRESS":"大同路一段２４８號","OBJECTID":627322},"geometry":{"x":169170.41000000108,"y":2542475.2100000028}},{"attributes":{"ID":627350,"DIS_CODE":0,"TOWNNAME":"中西區","LI":"小西里","LIN":"4鄰","STREET":"和意路","SECT":" ","MAREA":" ","LANE":" ","ALLEY":" ","HOUSE_NO":"４０號","E_COORD97":167862.47,"N_COORD97":2543242.96,"ADDRESS":"和意路４０號","OBJECTID":627323},"geometry":{"x":167862.47000000067,"y":2543242.9600000028}},{"attributes":{"ID":627351,"DIS_CODE":0,"TOWNNAME":"中西區","LI":"小西里","LIN":"4鄰","STREET":"和意路","SECT":" ","MAREA":" ","LANE":" ","ALLEY":" ","HOUSE_NO":"４２號","E_COORD97":167857.31,"N_COORD97":2543243.8199999998,"ADDRESS":"和意路４２號","OBJECTID":627324},"geometry":{"x":167857.31000000052,"y":2543243.8200000022}},{"attributes":{"ID":627352,"DIS_CODE":0,"TOWNNAME":"中西區","LI":"小西里","LIN":"4鄰","STREET":"和意路","SECT":" ","MAREA":" ","LANE":" ","ALLEY":" ","HOUSE_NO":"４６號","E_COORD97":167848.56,"N_COORD97":2543245.0899999999,"ADDRESS":"和意路４６號","OBJECTID":627325},"geometry":{"x":167848.56000000052,"y":2543245.0900000017}},{"attributes":{"ID":627353,"DIS_CODE":0,"TOWNNAME":"中西區","LI":"小西里","LIN":"4鄰","STREET":"和意路","SECT":" ","MAREA":" ","LANE":" ","ALLEY":" ","HOUSE_NO":"４８號","E_COORD97":167839.10000000001,"N_COORD97":2543245.3900000001,"ADDRESS":"和意路４８號","OBJECTID":627326},"geometry":{"x":167839.09999999963,"y":2543245.3900000006}},{"attributes":{"ID":627354,"DIS_CODE":0,"TOWNNAME":"中西區","LI":"小西里","LIN":"4鄰","STREET":"和意路","SECT":" ","MAREA":" ","LANE":" ","ALLEY":" ","HOUSE_NO":"５０號","E_COORD97":167834.22,"N_COORD97":2543245.96,"ADDRESS":"和意路５０號","OBJECTID":627327},"geometry":{"x":167834.22000000067,"y":2543245.9600000028}},{"attributes":{"ID":627355,"DIS_CODE":0,"TOWNNAME":"中西區","LI":"小西里","LIN":"4鄰","STREET":"和意路","SECT":" ","MAREA":" ","LANE":" ","ALLEY":" ","HOUSE_NO":"５８號","E_COORD97":167819.32999999999,"N_COORD97":2543243.3900000001,"ADDRESS":"和意路５８號","OBJECTID":627328},"geometry":{"x":167819.33000000007,"y":2543243.3900000025}},{"attributes":{"ID":627356,"DIS_CODE":0,"TOWNNAME":"中西區","LI":"小西里","LIN":"4鄰","STREET":"和意路","SECT":" ","MAREA":" ","LANE":" ","ALLEY":" ","HOUSE_NO":"６０號","E_COORD97":167814.01999999999,"N_COORD97":2543242.96,"ADDRESS":"和意路６０號","OBJECTID":627329},"geometry":{"x":167814.01999999955,"y":2543242.9600000028}},{"attributes":{"ID":627357,"DIS_CODE":0,"TOWNNAME":"中西區","LI":"小西里","LIN":"4鄰","STREET":"和意路","SECT":" ","MAREA":" ","LANE":" ","ALLEY":" ","HOUSE_NO":"６２號","E_COORD97":167808.14000000001,"N_COORD97":2543243.96,"ADDRESS":"和意路６２號","OBJECTID":627330},"geometry":{"x":167808.13999999966,"y":2543243.9600000028}},{"attributes":{"ID":627358,"DIS_CODE":0,"TOWNNAME":"中西區","LI":"小西里","LIN":"4鄰","STREET":"和意路","SECT":" ","MAREA":" ","LANE":" ","ALLEY":" ","HOUSE_NO":"６６號","E_COORD97":167801.67999999999,"N_COORD97":2543243.6699999999,"ADDRESS":"和意路６６號","OBJECTID":627331},"geometry":{"x":167801.68000000063,"y":2543243.6700000018}},{"attributes":{"ID":627359,"DIS_CODE":0,"TOWNNAME":"中西區","LI":"大南里","LIN":"4鄰","STREET":"五妃街","SECT":" ","MAREA":" ","LANE":" ","ALLEY":" ","HOUSE_NO":"２３１號","E_COORD97":168299.88,"N_COORD97":2542568.3500000001,"ADDRESS":"五妃街２３１號","OBJECTID":627332},"geometry":{"x":168299.87999999989,"y":2542568.3500000015}},{"attributes":{"ID":627360,"DIS_CODE":0,"TOWNNAME":"中西區","LI":"大南里","LIN":"4鄰","STREET":"五妃街","SECT":" ","MAREA":" ","LANE":" ","ALLEY":" ","HOUSE_NO":"２３３號","E_COORD97":168295.29999999999,"N_COORD97":2542568.3500000001,"ADDRESS":"五妃街２３３號","OBJECTID":627333},"geometry":{"x":168295.29999999981,"y":2542568.3500000015}},{"attributes":{"ID":627361,"DIS_CODE":0,"TOWNNAME":"中西區","LI":"大南里","LIN":"4鄰","STREET":"五妃街","SECT":" ","MAREA":" ","LANE":" ","ALLEY":" ","HOUSE_NO":"２３５號","E_COORD97":168291.42000000001,"N_COORD97":2542569.0600000001,"ADDRESS":"五妃街２３５號","OBJECTID":627334},"geometry":{"x":168291.41999999993,"y":2542569.0600000005}},{"attributes":{"ID":627362,"DIS_CODE":0,"TOWNNAME":"中西區","LI":"大南里","LIN":"4鄰","STREET":"五妃街","SECT":" ","MAREA":" ","LANE":" ","ALLEY":" ","HOUSE_NO":"２３７號","E_COORD97":168286.48999999999,"N_COORD97":2542568.3500000001,"ADDRESS":"五妃街２３７號","OBJECTID":627335},"geometry":{"x":168286.49000000209,"y":2542568.3500000015}},{"attributes":{"ID":627363,"DIS_CODE":0,"TOWNNAME":"中西區","LI":"大南里","LIN":"4鄰","STREET":"五妃街","SECT":" ","MAREA":" ","LANE":" ","ALLEY":" ","HOUSE_NO":"２３９號","E_COORD97":168280.85999999999,"N_COORD97":2542566.2400000002,"ADDRESS":"五妃街２３９號","OBJECTID":627336},"geometry":{"x":168280.86000000127,"y":2542566.2400000021}},{"attributes":{"ID":627364,"DIS_CODE":0,"TOWNNAME":"中西區","LI":"大南里","LIN":"4鄰","STREET":"五妃街","SECT":" ","MAREA":" ","LANE":" ","ALLEY":" ","HOUSE_NO":"２４１號","E_COORD97":168274.87,"N_COORD97":2542566.2400000002,"ADDRESS":"五妃街２４１號","OBJECTID":627337},"geometry":{"x":168274.87000000011,"y":2542566.2400000021}},{"attributes":{"ID":627365,"DIS_CODE":0,"TOWNNAME":"東區","LI":"崇善里","LIN":"4鄰","STREET":"崇善路","SECT":" ","MAREA":" ","LANE":" ","ALLEY":" ","HOUSE_NO":"４５９號","E_COORD97":170934.41,"N_COORD97":2541795.8199999998,"ADDRESS":"崇善路４５９號","OBJECTID":627338},"geometry":{"x":170934.41000000015,"y":2541795.8200000022}},{"attributes":{"ID":627366,"DIS_CODE":0,"TOWNNAME":"永康區","LI":"勝利里","LIN":"20鄰","STREET":"勝學路","SECT":" ","MAREA":" ","LANE":" ","ALLEY":" ","HOUSE_NO":"２３７號三樓之１","E_COORD97":171181.29999999999,"N_COORD97":2545265.6699999999,"ADDRESS":"勝學路２３７號三樓之１","OBJECTID":627339},"geometry":{"x":171181.30000000075,"y":2545265.6699999999}},{"attributes":{"ID":627367,"DIS_CODE":0,"TOWNNAME":"善化區","LI":"坐駕里","LIN":"17鄰","STREET":"文化路","SECT":" ","MAREA":" ","LANE":" ","ALLEY":" ","HOUSE_NO":"６號五樓之５","E_COORD97":177970.09,"N_COORD97":2558361.29,"ADDRESS":"文化路６號五樓之５","OBJECTID":627340},"geometry":{"x":177970.09000000171,"y":2558361.2899999991}},{"attributes":{"ID":627368,"DIS_CODE":0,"TOWNNAME":"東區","LI":"路東里","LIN":"4鄰","STREET":"大同路","SECT":"二段","MAREA":" ","LANE":" ","ALLEY":" ","HOUSE_NO":"１０５號","E_COORD97":169371.82000000001,"N_COORD97":2542107.71,"ADDRESS":"大同路二段１０５號","OBJECTID":627341},"geometry":{"x":169371.8200000003,"y":2542107.7100000009}},{"attributes":{"ID":627369,"DIS_CODE":0,"TOWNNAME":"中西區","LI":"三民里","LIN":"4鄰","STREET":"民生路","SECT":"一段","MAREA":" ","LANE":" ","ALLEY":" ","HOUSE_NO":"３４號","E_COORD97":168390.73999999999,"N_COORD97":2543753.7799999998,"ADDRESS":"民生路一段３４號","OBJECTID":627342},"geometry":{"x":168390.74000000115,"y":2543753.7800000031}},{"attributes":{"ID":627370,"DIS_CODE":0,"TOWNNAME":"中西區","LI":"三民里","LIN":"4鄰","STREET":"民生路","SECT":"一段","MAREA":" ","LANE":" ","ALLEY":" ","HOUSE_NO":"３６號","E_COORD97":168387.34,"N_COORD97":2543754.3999999999,"ADDRESS":"民生路一段３６號","OBJECTID":627343},"geometry":{"x":168387.34000000078,"y":2543754.4000000022}},{"attributes":{"ID":627371,"DIS_CODE":0,"TOWNNAME":"中西區","LI":"三民里","LIN":"4鄰","STREET":"民生路","SECT":"一段","MAREA":" ","LANE":" ","ALLEY":" ","HOUSE_NO":"３８號","E_COORD97":168382.70000000001,"N_COORD97":2543755.6299999999,"ADDRESS":"民生路一段３８號","OBJECTID":627344},"geometry":{"x":168382.70000000019,"y":2543755.6300000008}},{"attributes":{"ID":627372,"DIS_CODE":0,"TOWNNAME":"中西區","LI":"三民里","LIN":"4鄰","STREET":"民生路","SECT":"一段","MAREA":" ","LANE":" ","ALLEY":" ","HOUSE_NO":"４０號","E_COORD97":168378.38,"N_COORD97":2543757.1699999999,"ADDRESS":"民生路一段４０號","OBJECTID":627345},"geometry":{"x":168378.38000000175,"y":2543757.1699999999}},{"attributes":{"ID":627373,"DIS_CODE":0,"TOWNNAME":"中西區","LI":"三民里","LIN":"4鄰","STREET":"民生路","SECT":"一段","MAREA":" ","LANE":" ","ALLEY":" ","HOUSE_NO":"４２號","E_COORD97":168374.04999999999,"N_COORD97":2543758.4100000001,"ADDRESS":"民生路一段４２號","OBJECTID":627346},"geometry":{"x":168374.05000000075,"y":2543758.410000002}},{"attributes":{"ID":627374,"DIS_CODE":0,"TOWNNAME":"中西區","LI":"三民里","LIN":"4鄰","STREET":"民生路","SECT":"一段","MAREA":" ","LANE":" ","ALLEY":" ","HOUSE_NO":"４６號","E_COORD97":168370.95999999999,"N_COORD97":2543759.6400000001,"ADDRESS":"民生路一段４６號","OBJECTID":627347},"geometry":{"x":168370.95999999996,"y":2543759.6400000043}},{"attributes":{"ID":627375,"DIS_CODE":0,"TOWNNAME":"中西區","LI":"三民里","LIN":"4鄰","STREET":"民生路","SECT":"一段","MAREA":" ","LANE":" ","ALLEY":" ","HOUSE_NO":"４８號","E_COORD97":168365.70999999999,"N_COORD97":2543760.5699999998,"ADDRESS":"民生路一段４８號","OBJECTID":627348},"geometry":{"x":168365.70999999996,"y":2543760.5700000022}},{"attributes":{"ID":627376,"DIS_CODE":0,"TOWNNAME":"中西區","LI":"三民里","LIN":"4鄰","STREET":"民生路","SECT":"一段","MAREA":" ","LANE":" ","ALLEY":" ","HOUSE_NO":"５０號","E_COORD97":168361.69,"N_COORD97":2543762.1099999999,"ADDRESS":"民生路一段５０號","OBJECTID":627349},"geometry":{"x":168361.69000000227,"y":2543762.1100000013}},{"attributes":{"ID":627377,"DIS_CODE":0,"TOWNNAME":"中西區","LI":"三民里","LIN":"4鄰","STREET":"民生路","SECT":"一段","MAREA":" ","LANE":" ","ALLEY":" ","HOUSE_NO":"５２號","E_COORD97":168357.35999999999,"N_COORD97":2543763.96,"ADDRESS":"民生路一段５２號","OBJECTID":627350},"geometry":{"x":168357.36000000127,"y":2543763.9600000009}},{"attributes":{"ID":627378,"DIS_CODE":0,"TOWNNAME":"中西區","LI":"三民里","LIN":"4鄰","STREET":"民生路","SECT":"一段","MAREA":" ","LANE":" ","ALLEY":" ","HOUSE_NO":"５４號","E_COORD97":168353.04000000001,"N_COORD97":2543765.2000000002,"ADDRESS":"民生路一段５４號","OBJECTID":627351},"geometry":{"x":168353.04000000004,"y":2543765.2000000011}},{"attributes":{"ID":627379,"DIS_CODE":0,"TOWNNAME":"仁德區","LI":"仁德里","LIN":"5鄰","STREET":"仁德四街","SECT":" ","MAREA":" ","LANE":" ","ALLEY":" ","HOUSE_NO":"５號","E_COORD97":173348.31,"N_COORD97":2540844.52,"ADDRESS":"仁德四街５號","OBJECTID":627352},"geometry":{"x":173348.30999999959,"y":2540844.5200000014}},{"attributes":{"ID":627380,"DIS_CODE":0,"TOWNNAME":"仁德區","LI":"成功里","LIN":"18鄰","STREET":"全福路","SECT":" ","MAREA":" ","LANE":" ","ALLEY":" ","HOUSE_NO":"７７號","E_COORD97":171039.35000000001,"N_COORD97":2539315.7400000002,"ADDRESS":"全福路７７號","OBJECTID":627353},"geometry":{"x":171039.34999999963,"y":2539315.7400000002}},{"attributes":{"ID":627381,"DIS_CODE":0,"TOWNNAME":"仁德區","LI":"保安里","LIN":"18鄰","STREET":"中正路","SECT":"一段","MAREA":" ","LANE":" ","ALLEY":" ","HOUSE_NO":"４１號","E_COORD97":170795.04000000001,"N_COORD97":2535543.0299999998,"ADDRESS":"中正路一段４１號","OBJECTID":627354},"geometry":{"x":170795.04000000097,"y":2535543.0299999993}},{"attributes":{"ID":627382,"DIS_CODE":0,"TOWNNAME":"仁德區","LI":"後壁里","LIN":"20鄰","STREET":"中正路","SECT":"二段","MAREA":" ","LANE":" ","ALLEY":" ","HOUSE_NO":"１１０號","E_COORD97":173185,"N_COORD97":2538503.27,"ADDRESS":"中正路二段１１０號","OBJECTID":627355},"geometry":{"x":173185,"y":2538503.2700000014}},{"attributes":{"ID":627383,"DIS_CODE":0,"TOWNNAME":"仁德區","LI":"後壁里","LIN":"32鄰","STREET":"德洋路","SECT":" ","MAREA":" ","LANE":" ","ALLEY":" ","HOUSE_NO":"２３５號","E_COORD97":172525.95000000001,"N_COORD97":2539543.5099999998,"ADDRESS":"德洋路２３５號","OBJECTID":627356},"geometry":{"x":172525.95000000019,"y":2539543.5100000016}},{"attributes":{"ID":627384,"DIS_CODE":0,"TOWNNAME":"中西區","LI":"三民里","LIN":"4鄰","STREET":"民生路","SECT":"一段","MAREA":" ","LANE":" ","ALLEY":" ","HOUSE_NO":"５６號","E_COORD97":168349.01999999999,"N_COORD97":2543766.1200000001,"ADDRESS":"民生路一段５６號","OBJECTID":627357},"geometry":{"x":168349.02000000048,"y":2543766.120000001}},{"attributes":{"ID":627385,"DIS_CODE":0,"TOWNNAME":"中西區","LI":"三民里","LIN":"4鄰","STREET":"民生路","SECT":"一段","MAREA":" ","LANE":" ","ALLEY":" ","HOUSE_NO":"５８號","E_COORD97":168343.76999999999,"N_COORD97":2543769.52,"ADDRESS":"民生路一段５８號","OBJECTID":627358},"geometry":{"x":168343.77000000048,"y":2543769.5200000033}},{"attributes":{"ID":627386,"DIS_CODE":0,"TOWNNAME":"中西區","LI":"三民里","LIN":"4鄰","STREET":"民生路","SECT":"一段","MAREA":" ","LANE":" ","ALLEY":" ","HOUSE_NO":"６０號","E_COORD97":168337.59,"N_COORD97":2543770.75,"ADDRESS":"民生路一段６０號","OBJECTID":627359},"geometry":{"x":168337.58999999985,"y":2543770.75}},{"attributes":{"ID":627387,"DIS_CODE":0,"TOWNNAME":"中西區","LI":"三民里","LIN":"4鄰","STREET":"民生路","SECT":"一段","MAREA":" ","LANE":" ","ALLEY":" ","HOUSE_NO":"６２號","E_COORD97":168321.20999999999,"N_COORD97":2543777.54,"ADDRESS":"民生路一段６２號","OBJECTID":627360},"geometry":{"x":168321.20999999996,"y":2543777.5399999991}},{"attributes":{"ID":627388,"DIS_CODE":0,"TOWNNAME":"中西區","LI":"三民里","LIN":"4鄰","STREET":"民生路","SECT":"一段","MAREA":" ","LANE":" ","ALLEY":" ","HOUSE_NO":"６２號底一層","E_COORD97":168321.20999999999,"N_COORD97":2543777.54,"ADDRESS":"民生路一段６２號底一層","OBJECTID":627361},"geometry":{"x":168321.20999999996,"y":2543777.5399999991}},{"attributes":{"ID":627389,"DIS_CODE":0,"TOWNNAME":"仁德區","LI":"保安里","LIN":"18鄰","STREET":"中正路","SECT":"一段","MAREA":" ","LANE":" ","ALLEY":" ","HOUSE_NO":"４７號","E_COORD97":170807.06,"N_COORD97":2535542.5299999998,"ADDRESS":"中正路一段４７號","OBJECTID":627362},"geometry":{"x":170807.05999999959,"y":2535542.5299999993}},{"attributes":{"ID":627390,"DIS_CODE":0,"TOWNNAME":"東區","LI":"東明里","LIN":"4鄰","STREET":"東興路","SECT":" ","MAREA":" ","LANE":" ","ALLEY":" ","HOUSE_NO":"８３號","E_COORD97":170936.89999999999,"N_COORD97":2543583.8500000001,"ADDRESS":"東興路８３號","OBJECTID":627363},"geometry":{"x":170936.90000000224,"y":2543583.8499999978}},{"attributes":{"ID":627391,"DIS_CODE":0,"TOWNNAME":"東區","LI":"東明里","LIN":"4鄰","STREET":"東興路","SECT":" ","MAREA":" ","LANE":" ","ALLEY":" ","HOUSE_NO":"８５號","E_COORD97":170925.04999999999,"N_COORD97":2543585.52,"ADDRESS":"東興路８５號","OBJECTID":627364},"geometry":{"x":170925.05000000168,"y":2543585.5199999996}},{"attributes":{"ID":627392,"DIS_CODE":0,"TOWNNAME":"東區","LI":"東明里","LIN":"4鄰","STREET":"東興路","SECT":" ","MAREA":" ","LANE":" ","ALLEY":" ","HOUSE_NO":"８７號","E_COORD97":170925.82000000001,"N_COORD97":2543593.4399999999,"ADDRESS":"東興路８７號","OBJECTID":627365},"geometry":{"x":170925.82000000123,"y":2543593.4400000032}},{"attributes":{"ID":627393,"DIS_CODE":0,"TOWNNAME":"東區","LI":"東明里","LIN":"4鄰","STREET":"東興路","SECT":" ","MAREA":" ","LANE":" ","ALLEY":" ","HOUSE_NO":"９３號","E_COORD97":170947.35000000001,"N_COORD97":2543617.6800000002,"ADDRESS":"東興路９３號","OBJECTID":627366},"geometry":{"x":170947.35000000056,"y":2543617.6799999997}},{"attributes":{"ID":627394,"DIS_CODE":0,"TOWNNAME":"東區","LI":"東明里","LIN":"4鄰","STREET":"東興路","SECT":" ","MAREA":" ","LANE":" ","ALLEY":" ","HOUSE_NO":"９５號","E_COORD97":170946.23000000001,"N_COORD97":2543609.1899999999,"ADDRESS":"東興路９５號","OBJECTID":627367},"geometry":{"x":170946.23000000045,"y":2543609.1900000013}},{"attributes":{"ID":627395,"DIS_CODE":0,"TOWNNAME":"新市區","LI":"新市里","LIN":"4鄰","STREET":"華興街","SECT":" ","MAREA":" ","LANE":" ","ALLEY":" ","HOUSE_NO":"６２之１號","E_COORD97":177668.82000000001,"N_COORD97":2552997.5499999998,"ADDRESS":"華興街６２之１號","OBJECTID":627368},"geometry":{"x":177668.81999999937,"y":2552997.5500000007}},{"attributes":{"ID":627396,"DIS_CODE":0,"TOWNNAME":"中西區","LI":"永華里","LIN":"4鄰","STREET":"南門路","SECT":" ","MAREA":" ","LANE":" ","ALLEY":" ","HOUSE_NO":"５３號","E_COORD97":168476.79999999999,"N_COORD97":2543393.2200000002,"ADDRESS":"南門路５３號","OBJECTID":627369},"geometry":{"x":168476.79999999981,"y":2543393.2200000025}},{"attributes":{"ID":627397,"DIS_CODE":0,"TOWNNAME":"中西區","LI":"永華里","LIN":"4鄰","STREET":"南門路","SECT":" ","MAREA":" ","LANE":" ","ALLEY":" ","HOUSE_NO":"５５號","E_COORD97":168476.06,"N_COORD97":2543388.77,"ADDRESS":"南門路５５號","OBJECTID":627370},"geometry":{"x":168476.06000000052,"y":2543388.7700000014}},{"attributes":{"ID":627398,"DIS_CODE":0,"TOWNNAME":"中西區","LI":"永華里","LIN":"4鄰","STREET":"南門路","SECT":" ","MAREA":" ","LANE":" ","ALLEY":" ","HOUSE_NO":"５７號","E_COORD97":168476.06,"N_COORD97":2543384.5,"ADDRESS":"南門路５７號","OBJECTID":627371},"geometry":{"x":168476.06000000052,"y":2543384.5000000019}},{"attributes":{"ID":627399,"DIS_CODE":0,"TOWNNAME":"中西區","LI":"永華里","LIN":"4鄰","STREET":"南門路","SECT":" ","MAREA":" ","LANE":" ","ALLEY":" ","HOUSE_NO":"５９號","E_COORD97":168475.17000000001,"N_COORD97":2543380.2000000002,"ADDRESS":"南門路５９號","OBJECTID":627372},"geometry":{"x":168475.17000000086,"y":2543380.1999999993}},{"attributes":{"ID":627400,"DIS_CODE":0,"TOWNNAME":"中西區","LI":"永華里","LIN":"4鄰","STREET":"南門路","SECT":" ","MAREA":" ","LANE":" ","ALLEY":" ","HOUSE_NO":"６１號","E_COORD97":168474.87,"N_COORD97":2543376.9399999999,"ADDRESS":"南門路６１號","OBJECTID":627373},"geometry":{"x":168474.87000000011,"y":2543376.9400000013}},{"attributes":{"ID":627401,"DIS_CODE":0,"TOWNNAME":"中西區","LI":"永華里","LIN":"4鄰","STREET":"南門路","SECT":" ","MAREA":" ","LANE":" ","ALLEY":" ","HOUSE_NO":"６１號之１","E_COORD97":168474.72,"N_COORD97":2543374.04,"ADDRESS":"南門路６１號之１","OBJECTID":627374},"geometry":{"x":168474.72000000067,"y":2543374.0399999991}},{"attributes":{"ID":627402,"DIS_CODE":0,"TOWNNAME":"中西區","LI":"永華里","LIN":"4鄰","STREET":"南門路","SECT":" ","MAREA":" ","LANE":" ","ALLEY":" ","HOUSE_NO":"６３號","E_COORD97":168474.42000000001,"N_COORD97":2543368.9700000002,"ADDRESS":"南門路６３號","OBJECTID":627375},"geometry":{"x":168474.41999999993,"y":2543368.9700000025}},{"attributes":{"ID":627403,"DIS_CODE":0,"TOWNNAME":"中西區","LI":"永華里","LIN":"4鄰","STREET":"南門路","SECT":" ","MAREA":" ","LANE":" ","ALLEY":" ","HOUSE_NO":"６３號之１","E_COORD97":168473.53,"N_COORD97":2543363.7799999998,"ADDRESS":"南門路６３號之１","OBJECTID":627376},"geometry":{"x":168473.53000000119,"y":2543363.7800000031}},{"attributes":{"ID":627404,"DIS_CODE":0,"TOWNNAME":"中西區","LI":"永華里","LIN":"4鄰","STREET":"南門路","SECT":" ","MAREA":" ","LANE":" ","ALLEY":" ","HOUSE_NO":"６５號","E_COORD97":168473.31,"N_COORD97":2543358.8700000001,"ADDRESS":"南門路６５號","OBJECTID":627377},"geometry":{"x":168473.30999999959,"y":2543358.8700000029}},{"attributes":{"ID":627405,"DIS_CODE":0,"TOWNNAME":"中西區","LI":"青年里","LIN":"4鄰","STREET":"武德街","SECT":" ","MAREA":" ","LANE":" ","ALLEY":" ","HOUSE_NO":"８號","E_COORD97":168986.67000000001,"N_COORD97":2543641.1699999999,"ADDRESS":"武德街８號","OBJECTID":627378},"geometry":{"x":168986.66999999899,"y":2543641.1700000018}},{"attributes":{"ID":627406,"DIS_CODE":0,"TOWNNAME":"中西區","LI":"青年里","LIN":"4鄰","STREET":"萬昌街","SECT":" ","MAREA":" ","LANE":" ","ALLEY":" ","HOUSE_NO":"１０９號","E_COORD97":169059.20999999999,"N_COORD97":2543663.6200000001,"ADDRESS":"萬昌街１０９號","OBJECTID":627379},"geometry":{"x":169059.20999999996,"y":2543663.620000001}},{"attributes":{"ID":627407,"DIS_CODE":0,"TOWNNAME":"仁德區","LI":"太子里","LIN":"25鄰","STREET":"長興五街","SECT":" ","MAREA":" ","LANE":" ","ALLEY":" ","HOUSE_NO":"２５之３號","E_COORD97":173509.51631800001,"N_COORD97":2543612.1378799998,"ADDRESS":"長興五街２５之３號","OBJECTID":627380},"geometry":{"x":173509.51631799992,"y":2543612.137875}},{"attributes":{"ID":627408,"DIS_CODE":0,"TOWNNAME":"仁德區","LI":"太子里","LIN":"25鄰","STREET":"長興五街","SECT":" ","MAREA":" ","LANE":" ","ALLEY":" ","HOUSE_NO":"２７之５號","E_COORD97":173530.05820199999,"N_COORD97":2543625.1553699998,"ADDRESS":"長興五街２７之５號","OBJECTID":627381},"geometry":{"x":173530.0582020022,"y":2543625.1553680003}},{"attributes":{"ID":627409,"DIS_CODE":0,"TOWNNAME":"中西區","LI":"青年里","LIN":"4鄰","STREET":"萬昌街","SECT":" ","MAREA":" ","LANE":" ","ALLEY":" ","HOUSE_NO":"１１１號","E_COORD97":169060.39000000001,"N_COORD97":2543668.7400000002,"ADDRESS":"萬昌街１１１號","OBJECTID":627382},"geometry":{"x":169060.3900000006,"y":2543668.7400000002}},{"attributes":{"ID":627410,"DIS_CODE":0,"TOWNNAME":"中西區","LI":"青年里","LIN":"4鄰","STREET":"萬昌街","SECT":" ","MAREA":" ","LANE":" ","ALLEY":" ","HOUSE_NO":"１０７號","E_COORD97":169039.47,"N_COORD97":2543652.5800000001,"ADDRESS":"萬昌街１０７號","OBJECTID":627383},"geometry":{"x":169039.47000000067,"y":2543652.5800000001}},{"attributes":{"ID":627411,"DIS_CODE":0,"TOWNNAME":"中西區","LI":"普濟里","LIN":"4鄰","STREET":"普濟街","SECT":" ","MAREA":" ","LANE":" ","ALLEY":" ","HOUSE_NO":"７２號","E_COORD97":167870.10000000001,"N_COORD97":2544350.48,"ADDRESS":"普濟街７２號","OBJECTID":627384},"geometry":{"x":167870.10000000056,"y":2544350.4800000042}},{"attributes":{"ID":627412,"DIS_CODE":0,"TOWNNAME":"中西區","LI":"普濟里","LIN":"4鄰","STREET":"普濟街","SECT":" ","MAREA":" ","LANE":" ","ALLEY":" ","HOUSE_NO":"７４號","E_COORD97":167875.01999999999,"N_COORD97":2544354.54,"ADDRESS":"普濟街７４號","OBJECTID":627385},"geometry":{"x":167875.01999999955,"y":2544354.5399999991}},{"attributes":{"ID":627413,"DIS_CODE":0,"TOWNNAME":"中西區","LI":"普濟里","LIN":"4鄰","STREET":"普濟街","SECT":" ","MAREA":" ","LANE":" ","ALLEY":" ","HOUSE_NO":"７６號","E_COORD97":167879.29999999999,"N_COORD97":2544356.1499999999,"ADDRESS":"普濟街７６號","OBJECTID":627386},"geometry":{"x":167879.30000000075,"y":2544356.1500000041}},{"attributes":{"ID":627414,"DIS_CODE":0,"TOWNNAME":"中西區","LI":"普濟里","LIN":"4鄰","STREET":"普濟街","SECT":" ","MAREA":" ","LANE":" ","ALLEY":" ","HOUSE_NO":"７８號","E_COORD97":167882.19,"N_COORD97":2544358.2799999998,"ADDRESS":"普濟街７８號","OBJECTID":627387},"geometry":{"x":167882.19000000134,"y":2544358.2800000012}},{"attributes":{"ID":627415,"DIS_CODE":0,"TOWNNAME":"中西區","LI":"普濟里","LIN":"4鄰","STREET":"普濟街","SECT":" ","MAREA":" ","LANE":" ","ALLEY":" ","HOUSE_NO":"８０號","E_COORD97":167885.07999999999,"N_COORD97":2544360.6400000001,"ADDRESS":"普濟街８０號","OBJECTID":627388},"geometry":{"x":167885.08000000007,"y":2544360.6400000025}},{"attributes":{"ID":627416,"DIS_CODE":0,"TOWNNAME":"中西區","LI":"普濟里","LIN":"4鄰","STREET":"普濟街","SECT":" ","MAREA":" ","LANE":" ","ALLEY":" ","HOUSE_NO":"８２號","E_COORD97":167888.60999999999,"N_COORD97":2544363.3100000001,"ADDRESS":"普濟街８２號","OBJECTID":627389},"geometry":{"x":167888.61000000034,"y":2544363.3100000024}},{"attributes":{"ID":627417,"DIS_CODE":0,"TOWNNAME":"中西區","LI":"普濟里","LIN":"4鄰","STREET":"普濟街","SECT":" ","MAREA":" ","LANE":" ","ALLEY":" ","HOUSE_NO":"８４號","E_COORD97":167891.82000000001,"N_COORD97":2544365.4500000002,"ADDRESS":"普濟街８４號","OBJECTID":627390},"geometry":{"x":167891.82000000123,"y":2544365.4499999993}},{"attributes":{"ID":627418,"DIS_CODE":0,"TOWNNAME":"中西區","LI":"普濟里","LIN":"4鄰","STREET":"普濟街","SECT":" ","MAREA":" ","LANE":" ","ALLEY":" ","HOUSE_NO":"８６號","E_COORD97":167894.94,"N_COORD97":2544366.9399999999,"ADDRESS":"普濟街８６號","OBJECTID":627391},"geometry":{"x":167894.94000000041,"y":2544366.9400000013}},{"attributes":{"ID":627419,"DIS_CODE":0,"TOWNNAME":"中西區","LI":"普濟里","LIN":"4鄰","STREET":"普濟街","SECT":" ","MAREA":" ","LANE":" ","ALLEY":" ","HOUSE_NO":"８８號","E_COORD97":167900.29999999999,"N_COORD97":2544360.6400000001,"ADDRESS":"普濟街８８號","OBJECTID":627392},"geometry":{"x":167900.29999999981,"y":2544360.6400000025}},{"attributes":{"ID":627420,"DIS_CODE":0,"TOWNNAME":"中西區","LI":"普濟里","LIN":"4鄰","STREET":"普濟街","SECT":" ","MAREA":" ","LANE":" ","ALLEY":" ","HOUSE_NO":"９０號","E_COORD97":167905.17999999999,"N_COORD97":2544352.9300000002,"ADDRESS":"普濟街９０號","OBJECTID":627393},"geometry":{"x":167905.18000000063,"y":2544352.9299999997}},{"attributes":{"ID":627421,"DIS_CODE":0,"TOWNNAME":"仁德區","LI":"仁德里","LIN":"18鄰","STREET":"民安路","SECT":"一段","MAREA":" ","LANE":" ","ALLEY":" ","HOUSE_NO":"５１號","E_COORD97":171842.10000000001,"N_COORD97":2540113.0699999998,"ADDRESS":"民安路一段５１號","OBJECTID":627394},"geometry":{"x":171842.10000000056,"y":2540113.0700000022}},{"attributes":{"ID":627422,"DIS_CODE":0,"TOWNNAME":"仁德區","LI":"保安里","LIN":"18鄰","STREET":"中正路","SECT":"一段","MAREA":" ","LANE":" ","ALLEY":" ","HOUSE_NO":"４５號","E_COORD97":170802.94,"N_COORD97":2535542.5299999998,"ADDRESS":"中正路一段４５號","OBJECTID":627395},"geometry":{"x":170802.94000000134,"y":2535542.5299999993}},{"attributes":{"ID":627423,"DIS_CODE":0,"TOWNNAME":"仁德區","LI":"太子里","LIN":"25鄰","STREET":"長興五街","SECT":" ","MAREA":" ","LANE":" ","ALLEY":" ","HOUSE_NO":"２７之９號","E_COORD97":173506.55150999999,"N_COORD97":2543625.1553699998,"ADDRESS":"長興五街２７之９號","OBJECTID":627396},"geometry":{"x":173506.55150999967,"y":2543625.1553680003}},{"attributes":{"ID":627424,"DIS_CODE":0,"TOWNNAME":"永康區","LI":"復華里","LIN":"39鄰","STREET":"復國一路","SECT":" ","MAREA":" ","LANE":" ","ALLEY":" ","HOUSE_NO":"３８７號","E_COORD97":172752.82000000001,"N_COORD97":2545931.02,"ADDRESS":"復國一路３８７號","OBJECTID":627397},"geometry":{"x":172752.82000000216,"y":2545931.0199999996}},{"attributes":{"ID":627425,"DIS_CODE":0,"TOWNNAME":"仁德區","LI":"太子里","LIN":"34鄰","STREET":"土庫路","SECT":" ","MAREA":" ","LANE":" ","ALLEY":" ","HOUSE_NO":"９號","E_COORD97":174196.41,"N_COORD97":2543447.25,"ADDRESS":"土庫路９號","OBJECTID":627398},"geometry":{"x":174196.41000000201,"y":2543447.2500000019}},{"attributes":{"ID":627426,"DIS_CODE":0,"TOWNNAME":"東區","LI":"崇善里","LIN":"4鄰","STREET":"崇善二街","SECT":" ","MAREA":" ","LANE":" ","ALLEY":" ","HOUSE_NO":"２號","E_COORD97":170867.28,"N_COORD97":2541982.2000000002,"ADDRESS":"崇善二街２號","OBJECTID":627399},"geometry":{"x":170867.28000000026,"y":2541982.2000000011}},{"attributes":{"ID":627427,"DIS_CODE":0,"TOWNNAME":"東區","LI":"崇善里","LIN":"4鄰","STREET":"崇善二街","SECT":" ","MAREA":" ","LANE":" ","ALLEY":" ","HOUSE_NO":"６號","E_COORD97":170870.82000000001,"N_COORD97":2541986.5,"ADDRESS":"崇善二街６號","OBJECTID":627400},"geometry":{"x":170870.8200000003,"y":2541986.5000000037}}]}