{"displayFieldName":"TOWNNAME","fieldAliases":{"ID":"ID","DIS_CODE":"DIS_CODE","TOWNNAME":"TOWNNAME","LI":"LI","LIN":"LIN","STREET":"STREET","SECT":"SECT","MAREA":"MAREA","LANE":"LANE","ALLEY":"ALLEY","HOUSE_NO":"HOUSE_NO","E_COORD97":"E_COORD97","N_COORD97":"N_COORD97","ADDRESS":"ADDRESS","OBJECTID":"OBJECTID"},"geometryType":"esriGeometryPoint","spatialReference":{"wkid":102443,"latestWkid":3826},"fields":[{"name":"ID","type":"esriFieldTypeDouble","alias":"ID"},{"name":"DIS_CODE","type":"esriFieldTypeInteger","alias":"DIS_CODE"},{"name":"TOWNNAME","type":"esriFieldTypeString","alias":"TOWNNAME","length":8},{"name":"LI","type":"esriFieldTypeString","alias":"LI","length":8},{"name":"LIN","type":"esriFieldTypeString","alias":"LIN","length":12},{"name":"STREET","type":"esriFieldTypeString","alias":"STREET","length":20},{"name":"SECT","type":"esriFieldTypeString","alias":"SECT","length":8},{"name":"MAREA","type":"esriFieldTypeString","alias":"MAREA","length":12},{"name":"LANE","type":"esriFieldTypeString","alias":"LANE","length":10},{"name":"ALLEY","type":"esriFieldTypeString","alias":"ALLEY","length":10},{"name":"HOUSE_NO","type":"esriFieldTypeString","alias":"HOUSE_NO","length":20},{"name":"E_COORD97","type":"esriFieldTypeDouble","alias":"E_COORD97"},{"name":"N_COORD97","type":"esriFieldTypeDouble","alias":"N_COORD97"},{"name":"ADDRESS","type":"esriFieldTypeString","alias":"ADDRESS","length":50},{"name":"OBJECTID","type":"esriFieldTypeOID","alias":"OBJECTID"}],"features":[{"attributes":{"ID":533228,"DIS_CODE":0,"TOWNNAME":"北區","LI":"公園里","LIN":"19鄰","STREET":"公園路","SECT":" ","MAREA":" ","LANE":" ","ALLEY":" ","HOUSE_NO":"１２８號之１５","E_COORD97":168809.41,"N_COORD97":2544371.8300000001,"ADDRESS":"公園路１２８號之１５","OBJECTID":533201},"geometry":{"x":168809.41000000108,"y":2544371.8300000019}},{"attributes":{"ID":533229,"DIS_CODE":0,"TOWNNAME":"北區","LI":"公園里","LIN":"19鄰","STREET":"公園路","SECT":" ","MAREA":" ","LANE":" ","ALLEY":" ","HOUSE_NO":"１２８號之１６","E_COORD97":168813.63,"N_COORD97":2544371.0299999998,"ADDRESS":"公園路１２８號之１６","OBJECTID":533202},"geometry":{"x":168813.62999999989,"y":2544371.0299999993}},{"attributes":{"ID":533230,"DIS_CODE":0,"TOWNNAME":"北區","LI":"公園里","LIN":"19鄰","STREET":"公園路","SECT":" ","MAREA":" ","LANE":" ","ALLEY":" ","HOUSE_NO":"１２８號之１７","E_COORD97":168817.85000000001,"N_COORD97":2544370.2200000002,"ADDRESS":"公園路１２８號之１７","OBJECTID":533203},"geometry":{"x":168817.85000000056,"y":2544370.2200000025}},{"attributes":{"ID":533231,"DIS_CODE":0,"TOWNNAME":"北區","LI":"公園里","LIN":"19鄰","STREET":"公園路","SECT":" ","MAREA":" ","LANE":" ","ALLEY":" ","HOUSE_NO":"１２８號之１８","E_COORD97":168822.87,"N_COORD97":2544369.2200000002,"ADDRESS":"公園路１２８號之１８","OBJECTID":533204},"geometry":{"x":168822.87000000197,"y":2544369.2200000044}},{"attributes":{"ID":533232,"DIS_CODE":0,"TOWNNAME":"北區","LI":"公園里","LIN":"19鄰","STREET":"公園路","SECT":" ","MAREA":" ","LANE":" ","ALLEY":" ","HOUSE_NO":"１２８號之１９","E_COORD97":168827.48999999999,"N_COORD97":2544368.4199999999,"ADDRESS":"公園路１２８號之１９","OBJECTID":533205},"geometry":{"x":168827.49000000115,"y":2544368.4200000018}},{"attributes":{"ID":533233,"DIS_CODE":0,"TOWNNAME":"北區","LI":"公園里","LIN":"19鄰","STREET":"公園路","SECT":" ","MAREA":" ","LANE":" ","ALLEY":" ","HOUSE_NO":"１２８號之２０","E_COORD97":168826.89000000001,"N_COORD97":2544358.7799999998,"ADDRESS":"公園路１２８號之２０","OBJECTID":533206},"geometry":{"x":168826.88999999966,"y":2544358.7800000012}},{"attributes":{"ID":533234,"DIS_CODE":0,"TOWNNAME":"北區","LI":"公園里","LIN":"19鄰","STREET":"公園路","SECT":" ","MAREA":" ","LANE":" ","ALLEY":" ","HOUSE_NO":"１２８號之２１","E_COORD97":168822.26999999999,"N_COORD97":2544359.9900000002,"ADDRESS":"公園路１２８號之２１","OBJECTID":533207},"geometry":{"x":168822.26999999955,"y":2544359.9899999984}},{"attributes":{"ID":533235,"DIS_CODE":0,"TOWNNAME":"北區","LI":"公園里","LIN":"19鄰","STREET":"公園路","SECT":" ","MAREA":" ","LANE":" ","ALLEY":" ","HOUSE_NO":"１２８號之２２","E_COORD97":168818.04999999999,"N_COORD97":2544361.1899999999,"ADDRESS":"公園路１２８號之２２","OBJECTID":533208},"geometry":{"x":168818.05000000168,"y":2544361.1899999976}},{"attributes":{"ID":533236,"DIS_CODE":0,"TOWNNAME":"北區","LI":"公園里","LIN":"19鄰","STREET":"公園路","SECT":" ","MAREA":" ","LANE":" ","ALLEY":" ","HOUSE_NO":"１２８號之２３","E_COORD97":168813.22,"N_COORD97":2544362.6000000001,"ADDRESS":"公園路１２８號之２３","OBJECTID":533209},"geometry":{"x":168813.21999999881,"y":2544362.6000000015}},{"attributes":{"ID":533237,"DIS_CODE":0,"TOWNNAME":"北區","LI":"公園里","LIN":"19鄰","STREET":"公園路","SECT":" ","MAREA":" ","LANE":" ","ALLEY":" ","HOUSE_NO":"１２８號之３３","E_COORD97":168795.14000000001,"N_COORD97":2544346.8900000001,"ADDRESS":"公園路１２８號之３３","OBJECTID":533210},"geometry":{"x":168795.14000000153,"y":2544346.8900000006}},{"attributes":{"ID":533238,"DIS_CODE":0,"TOWNNAME":"北區","LI":"公園里","LIN":"19鄰","STREET":"公園路","SECT":" ","MAREA":" ","LANE":" ","ALLEY":" ","HOUSE_NO":"１２８號之３４","E_COORD97":168799.16,"N_COORD97":2544346.2799999998,"ADDRESS":"公園路１２８號之３４","OBJECTID":533211},"geometry":{"x":168799.16000000108,"y":2544346.2799999993}},{"attributes":{"ID":533239,"DIS_CODE":0,"TOWNNAME":"北區","LI":"公園里","LIN":"19鄰","STREET":"公園路","SECT":" ","MAREA":" ","LANE":" ","ALLEY":" ","HOUSE_NO":"１２８號之３５","E_COORD97":168802.98000000001,"N_COORD97":2544345.2799999998,"ADDRESS":"公園路１２８號之３５","OBJECTID":533212},"geometry":{"x":168802.98000000138,"y":2544345.2800000012}},{"attributes":{"ID":533240,"DIS_CODE":0,"TOWNNAME":"北區","LI":"公園里","LIN":"19鄰","STREET":"公園路","SECT":" ","MAREA":" ","LANE":" ","ALLEY":" ","HOUSE_NO":"１２８號之３６","E_COORD97":168807.39999999999,"N_COORD97":2544344.48,"ADDRESS":"公園路１２８號之３６","OBJECTID":533213},"geometry":{"x":168807.40000000037,"y":2544344.4800000023}},{"attributes":{"ID":533241,"DIS_CODE":0,"TOWNNAME":"東區","LI":"德光里","LIN":"19鄰","STREET":"崇德一街","SECT":" ","MAREA":" ","LANE":" ","ALLEY":" ","HOUSE_NO":"５０號","E_COORD97":170061.82000000001,"N_COORD97":2542363.73,"ADDRESS":"崇德一街５０號","OBJECTID":533214},"geometry":{"x":170061.8200000003,"y":2542363.7300000004}},{"attributes":{"ID":533242,"DIS_CODE":0,"TOWNNAME":"北區","LI":"公園里","LIN":"19鄰","STREET":"公園路","SECT":" ","MAREA":" ","LANE":" ","ALLEY":" ","HOUSE_NO":"１２８號之３７","E_COORD97":168812.22,"N_COORD97":2544343.27,"ADDRESS":"公園路１２８號之３７","OBJECTID":533215},"geometry":{"x":168812.22000000067,"y":2544343.2699999996}},{"attributes":{"ID":533243,"DIS_CODE":0,"TOWNNAME":"北區","LI":"公園里","LIN":"19鄰","STREET":"公園路","SECT":" ","MAREA":" ","LANE":" ","ALLEY":" ","HOUSE_NO":"１２８號之３８","E_COORD97":168816.64000000001,"N_COORD97":2544342.4700000002,"ADDRESS":"公園路１２８號之３８","OBJECTID":533216},"geometry":{"x":168816.63999999966,"y":2544342.4700000007}},{"attributes":{"ID":533244,"DIS_CODE":0,"TOWNNAME":"北區","LI":"公園里","LIN":"19鄰","STREET":"公園路","SECT":" ","MAREA":" ","LANE":" ","ALLEY":" ","HOUSE_NO":"１２８號之３９","E_COORD97":168815.44,"N_COORD97":2544336.25,"ADDRESS":"公園路１２８號之３９","OBJECTID":533217},"geometry":{"x":168815.44000000041,"y":2544336.25}},{"attributes":{"ID":533245,"DIS_CODE":0,"TOWNNAME":"北區","LI":"公園里","LIN":"19鄰","STREET":"公園路","SECT":" ","MAREA":" ","LANE":" ","ALLEY":" ","HOUSE_NO":"１２８號地下室","E_COORD97":168771.01999999999,"N_COORD97":2544380.0600000001,"ADDRESS":"公園路１２８號地下室","OBJECTID":533218},"geometry":{"x":168771.02000000048,"y":2544380.0600000005}},{"attributes":{"ID":533246,"DIS_CODE":0,"TOWNNAME":"新營區","LI":"民權里","LIN":"19鄰","STREET":"仁愛街","SECT":" ","MAREA":" ","LANE":" ","ALLEY":" ","HOUSE_NO":"２１號","E_COORD97":179812.98000000001,"N_COORD97":2578193.7400000002,"ADDRESS":"仁愛街２１號","OBJECTID":533219},"geometry":{"x":179812.98000000138,"y":2578193.7400000002}},{"attributes":{"ID":533247,"DIS_CODE":0,"TOWNNAME":"新化區","LI":"東榮里","LIN":"19鄰","STREET":"民生路","SECT":" ","MAREA":" ","LANE":" ","ALLEY":" ","HOUSE_NO":"２２號","E_COORD97":179453.95999999999,"N_COORD97":2548106.25,"ADDRESS":"民生路２２號","OBJECTID":533220},"geometry":{"x":179453.95999999996,"y":2548106.2500000019}},{"attributes":{"ID":533248,"DIS_CODE":0,"TOWNNAME":"中西區","LI":"民生里","LIN":"19鄰","STREET":"保安路","SECT":" ","MAREA":" ","LANE":" ","ALLEY":" ","HOUSE_NO":"２０３號","E_COORD97":167100.5,"N_COORD97":2543527.3599999999,"ADDRESS":"保安路２０３號","OBJECTID":533221},"geometry":{"x":167100.5,"y":2543527.3600000013}},{"attributes":{"ID":533249,"DIS_CODE":0,"TOWNNAME":"中西區","LI":"民生里","LIN":"19鄰","STREET":"保安路","SECT":" ","MAREA":" ","LANE":" ","ALLEY":" ","HOUSE_NO":"２０５號","E_COORD97":167096.85000000001,"N_COORD97":2543516.6600000001,"ADDRESS":"保安路２０５號","OBJECTID":533222},"geometry":{"x":167096.85000000149,"y":2543516.6600000001}},{"attributes":{"ID":533250,"DIS_CODE":0,"TOWNNAME":"中西區","LI":"民生里","LIN":"19鄰","STREET":"保安路","SECT":" ","MAREA":" ","LANE":" ","ALLEY":" ","HOUSE_NO":"２０７號","E_COORD97":167092.51999999999,"N_COORD97":2543512.1099999999,"ADDRESS":"保安路２０７號","OBJECTID":533223},"geometry":{"x":167092.52000000048,"y":2543512.1100000013}},{"attributes":{"ID":533251,"DIS_CODE":0,"TOWNNAME":"中西區","LI":"民生里","LIN":"19鄰","STREET":"保安路","SECT":" ","MAREA":" ","LANE":" ","ALLEY":" ","HOUSE_NO":"２１１號","E_COORD97":167074.97,"N_COORD97":2543501.1800000002,"ADDRESS":"保安路２１１號","OBJECTID":533224},"geometry":{"x":167074.96999999974,"y":2543501.1800000016}},{"attributes":{"ID":533252,"DIS_CODE":0,"TOWNNAME":"東區","LI":"德光里","LIN":"19鄰","STREET":"崇德一街","SECT":" ","MAREA":" ","LANE":" ","ALLEY":" ","HOUSE_NO":"５２號","E_COORD97":170064.06,"N_COORD97":2542367.0099999998,"ADDRESS":"崇德一街５２號","OBJECTID":533225},"geometry":{"x":170064.06000000052,"y":2542367.0100000016}},{"attributes":{"ID":533253,"DIS_CODE":0,"TOWNNAME":"中西區","LI":"民生里","LIN":"19鄰","STREET":"保安路","SECT":" ","MAREA":" ","LANE":" ","ALLEY":" ","HOUSE_NO":"２１３號","E_COORD97":167082.72,"N_COORD97":2543491.6200000001,"ADDRESS":"保安路２１３號","OBJECTID":533226},"geometry":{"x":167082.72000000067,"y":2543491.620000001}},{"attributes":{"ID":533254,"DIS_CODE":0,"TOWNNAME":"中西區","LI":"民生里","LIN":"19鄰","STREET":"保安路","SECT":" ","MAREA":" ","LANE":" ","ALLEY":" ","HOUSE_NO":"２１７號","E_COORD97":167075.29999999999,"N_COORD97":2543485.77,"ADDRESS":"保安路２１７號","OBJECTID":533227},"geometry":{"x":167075.30000000168,"y":2543485.7699999996}},{"attributes":{"ID":533255,"DIS_CODE":0,"TOWNNAME":"中西區","LI":"民生里","LIN":"19鄰","STREET":"南華街","SECT":" ","MAREA":" ","LANE":" ","ALLEY":" ","HOUSE_NO":"７１號","E_COORD97":167098.78,"N_COORD97":2543459.8199999998,"ADDRESS":"南華街７１號","OBJECTID":533228},"geometry":{"x":167098.78000000119,"y":2543459.820000004}},{"attributes":{"ID":533256,"DIS_CODE":0,"TOWNNAME":"中西區","LI":"民生里","LIN":"19鄰","STREET":"南華街","SECT":" ","MAREA":" ","LANE":" ","ALLEY":" ","HOUSE_NO":"７３號","E_COORD97":167099.23000000001,"N_COORD97":2543464.3799999999,"ADDRESS":"南華街７３號","OBJECTID":533229},"geometry":{"x":167099.23000000138,"y":2543464.3799999971}},{"attributes":{"ID":533257,"DIS_CODE":0,"TOWNNAME":"中西區","LI":"民生里","LIN":"19鄰","STREET":"南華街","SECT":" ","MAREA":" ","LANE":" ","ALLEY":" ","HOUSE_NO":"７５號","E_COORD97":167099.45999999999,"N_COORD97":2543469.6099999999,"ADDRESS":"南華街７５號","OBJECTID":533230},"geometry":{"x":167099.45999999996,"y":2543469.6099999994}},{"attributes":{"ID":533258,"DIS_CODE":0,"TOWNNAME":"中西區","LI":"民生里","LIN":"19鄰","STREET":"南華街","SECT":" ","MAREA":" ","LANE":" ","ALLEY":" ","HOUSE_NO":"７７號","E_COORD97":167099.92000000001,"N_COORD97":2543473.9399999999,"ADDRESS":"南華街７７號","OBJECTID":533231},"geometry":{"x":167099.91999999899,"y":2543473.9399999995}},{"attributes":{"ID":533259,"DIS_CODE":0,"TOWNNAME":"中西區","LI":"民生里","LIN":"19鄰","STREET":"南華街","SECT":" ","MAREA":" ","LANE":" ","ALLEY":" ","HOUSE_NO":"７９號","E_COORD97":167104.25,"N_COORD97":2543481.2200000002,"ADDRESS":"南華街７９號","OBJECTID":533232},"geometry":{"x":167104.25,"y":2543481.2200000044}},{"attributes":{"ID":533260,"DIS_CODE":0,"TOWNNAME":"中西區","LI":"民生里","LIN":"19鄰","STREET":"南華街","SECT":" ","MAREA":" ","LANE":" ","ALLEY":" ","HOUSE_NO":"８１號","E_COORD97":167104.14000000001,"N_COORD97":2543491.1699999999,"ADDRESS":"南華街８１號","OBJECTID":533233},"geometry":{"x":167104.1400000006,"y":2543491.1700000018}},{"attributes":{"ID":533261,"DIS_CODE":0,"TOWNNAME":"中西區","LI":"民生里","LIN":"19鄰","STREET":"南華街","SECT":" ","MAREA":" ","LANE":" ","ALLEY":" ","HOUSE_NO":"８７號","E_COORD97":167106.91,"N_COORD97":2543501.7999999998,"ADDRESS":"南華街８７號","OBJECTID":533234},"geometry":{"x":167106.91000000015,"y":2543501.8000000026}},{"attributes":{"ID":533262,"DIS_CODE":0,"TOWNNAME":"中西區","LI":"民生里","LIN":"19鄰","STREET":"南華街","SECT":" ","MAREA":" ","LANE":" ","ALLEY":" ","HOUSE_NO":"８９號","E_COORD97":167111.67000000001,"N_COORD97":2543507.3300000001,"ADDRESS":"南華街８９號","OBJECTID":533235},"geometry":{"x":167111.66999999993,"y":2543507.3300000019}},{"attributes":{"ID":533263,"DIS_CODE":0,"TOWNNAME":"中西區","LI":"民生里","LIN":"19鄰","STREET":"南華街","SECT":" ","MAREA":" ","LANE":" ","ALLEY":" ","HOUSE_NO":"９１號","E_COORD97":167114.17000000001,"N_COORD97":2543513.9300000002,"ADDRESS":"南華街９１號","OBJECTID":533236},"geometry":{"x":167114.17000000086,"y":2543513.9300000016}},{"attributes":{"ID":533264,"DIS_CODE":0,"TOWNNAME":"中西區","LI":"民生里","LIN":"19鄰","STREET":"南華街","SECT":" ","MAREA":" ","LANE":" ","ALLEY":" ","HOUSE_NO":"９３號","E_COORD97":167119.64000000001,"N_COORD97":2543528.9500000002,"ADDRESS":"南華街９３號","OBJECTID":533237},"geometry":{"x":167119.63999999966,"y":2543528.950000003}},{"attributes":{"ID":533265,"DIS_CODE":0,"TOWNNAME":"永康區","LI":"安康里","LIN":"19鄰","STREET":"中華西街","SECT":" ","MAREA":" ","LANE":" ","ALLEY":" ","HOUSE_NO":"１１２號","E_COORD97":170721.12,"N_COORD97":2546126,"ADDRESS":"中華西街１１２號","OBJECTID":533238},"geometry":{"x":170721.12000000011,"y":2546126}},{"attributes":{"ID":533266,"DIS_CODE":0,"TOWNNAME":"東區","LI":"德光里","LIN":"19鄰","STREET":"崇德一街","SECT":" ","MAREA":" ","LANE":" ","ALLEY":" ","HOUSE_NO":"２４號","E_COORD97":170026.67000000001,"N_COORD97":2542321.21,"ADDRESS":"崇德一街２４號","OBJECTID":533239},"geometry":{"x":170026.67000000086,"y":2542321.2100000009}},{"attributes":{"ID":533267,"DIS_CODE":0,"TOWNNAME":"東區","LI":"德光里","LIN":"19鄰","STREET":"崇德一街","SECT":" ","MAREA":" ","LANE":" ","ALLEY":" ","HOUSE_NO":"２６號","E_COORD97":170029.70000000001,"N_COORD97":2542324.8799999999,"ADDRESS":"崇德一街２６號","OBJECTID":533240},"geometry":{"x":170029.70000000112,"y":2542324.879999999}},{"attributes":{"ID":533268,"DIS_CODE":0,"TOWNNAME":"東區","LI":"德光里","LIN":"19鄰","STREET":"崇德一街","SECT":" ","MAREA":" ","LANE":" ","ALLEY":" ","HOUSE_NO":"３２號","E_COORD97":170035.75,"N_COORD97":2542329.8700000001,"ADDRESS":"崇德一街３２號","OBJECTID":533241},"geometry":{"x":170035.75000000186,"y":2542329.870000001}},{"attributes":{"ID":533269,"DIS_CODE":0,"TOWNNAME":"東區","LI":"德光里","LIN":"19鄰","STREET":"崇德一街","SECT":" ","MAREA":" ","LANE":" ","ALLEY":" ","HOUSE_NO":"３２號之１","E_COORD97":170038.89999999999,"N_COORD97":2542333.02,"ADDRESS":"崇德一街３２號之１","OBJECTID":533242},"geometry":{"x":170038.9000000013,"y":2542333.0200000014}},{"attributes":{"ID":533270,"DIS_CODE":0,"TOWNNAME":"東區","LI":"德光里","LIN":"19鄰","STREET":"崇德一街","SECT":" ","MAREA":" ","LANE":" ","ALLEY":" ","HOUSE_NO":"３４號","E_COORD97":170041.39999999999,"N_COORD97":2542336.8300000001,"ADDRESS":"崇德一街３４號","OBJECTID":533243},"geometry":{"x":170041.40000000037,"y":2542336.8299999982}},{"attributes":{"ID":533271,"DIS_CODE":0,"TOWNNAME":"東區","LI":"德光里","LIN":"19鄰","STREET":"崇德一街","SECT":" ","MAREA":" ","LANE":" ","ALLEY":" ","HOUSE_NO":"３６號","E_COORD97":170043.64000000001,"N_COORD97":2542340.6400000001,"ADDRESS":"崇德一街３６號","OBJECTID":533244},"geometry":{"x":170043.6400000006,"y":2542340.6400000006}},{"attributes":{"ID":533272,"DIS_CODE":0,"TOWNNAME":"東區","LI":"德光里","LIN":"19鄰","STREET":"崇德一街","SECT":" ","MAREA":" ","LANE":" ","ALLEY":" ","HOUSE_NO":"３８號","E_COORD97":170046.57000000001,"N_COORD97":2542344.4199999999,"ADDRESS":"崇德一街３８號","OBJECTID":533245},"geometry":{"x":170046.5700000003,"y":2542344.4200000018}},{"attributes":{"ID":533273,"DIS_CODE":0,"TOWNNAME":"東區","LI":"德光里","LIN":"19鄰","STREET":"崇德一街","SECT":" ","MAREA":" ","LANE":" ","ALLEY":" ","HOUSE_NO":"４０號","E_COORD97":170049.45999999999,"N_COORD97":2542346.9199999999,"ADDRESS":"崇德一街４０號","OBJECTID":533246},"geometry":{"x":170049.46000000183,"y":2542346.9200000018}},{"attributes":{"ID":533274,"DIS_CODE":0,"TOWNNAME":"東區","LI":"德光里","LIN":"19鄰","STREET":"崇德一街","SECT":" ","MAREA":" ","LANE":" ","ALLEY":" ","HOUSE_NO":"４２號","E_COORD97":170051.56,"N_COORD97":2542350.3300000001,"ADDRESS":"崇德一街４２號","OBJECTID":533247},"geometry":{"x":170051.55999999959,"y":2542350.3300000001}},{"attributes":{"ID":533275,"DIS_CODE":0,"TOWNNAME":"東區","LI":"德光里","LIN":"19鄰","STREET":"崇德一街","SECT":" ","MAREA":" ","LANE":" ","ALLEY":" ","HOUSE_NO":"４４號","E_COORD97":170054.19,"N_COORD97":2542353.3500000001,"ADDRESS":"崇德一街４４號","OBJECTID":533248},"geometry":{"x":170054.19000000134,"y":2542353.3500000034}},{"attributes":{"ID":533276,"DIS_CODE":0,"TOWNNAME":"東區","LI":"德光里","LIN":"19鄰","STREET":"崇德一街","SECT":" ","MAREA":" ","LANE":" ","ALLEY":" ","HOUSE_NO":"４６號","E_COORD97":170056.82000000001,"N_COORD97":2542356.5099999998,"ADDRESS":"崇德一街４６號","OBJECTID":533249},"geometry":{"x":170056.8200000003,"y":2542356.5100000016}},{"attributes":{"ID":533277,"DIS_CODE":0,"TOWNNAME":"東區","LI":"德光里","LIN":"19鄰","STREET":"崇德一街","SECT":" ","MAREA":" ","LANE":" ","ALLEY":" ","HOUSE_NO":"４８號","E_COORD97":170059.59,"N_COORD97":2542360.3100000001,"ADDRESS":"崇德一街４８號","OBJECTID":533250},"geometry":{"x":170059.58999999985,"y":2542360.3100000005}},{"attributes":{"ID":533278,"DIS_CODE":0,"TOWNNAME":"東區","LI":"德光里","LIN":"19鄰","STREET":"崇德一街","SECT":" ","MAREA":" ","LANE":" ","ALLEY":" ","HOUSE_NO":"５４號","E_COORD97":170066.16,"N_COORD97":2542370.4300000002,"ADDRESS":"崇德一街５４號","OBJECTID":533251},"geometry":{"x":170066.16000000015,"y":2542370.4300000016}},{"attributes":{"ID":533279,"DIS_CODE":0,"TOWNNAME":"東區","LI":"德光里","LIN":"19鄰","STREET":"崇德二街","SECT":" ","MAREA":" ","LANE":" ","ALLEY":" ","HOUSE_NO":"１５號","E_COORD97":170034.82000000001,"N_COORD97":2542283.7000000002,"ADDRESS":"崇德二街１５號","OBJECTID":533252},"geometry":{"x":170034.8200000003,"y":2542283.7000000011}},{"attributes":{"ID":533280,"DIS_CODE":0,"TOWNNAME":"東區","LI":"德光里","LIN":"19鄰","STREET":"崇德二街","SECT":" ","MAREA":" ","LANE":" ","ALLEY":" ","HOUSE_NO":"１７號","E_COORD97":170039.26000000001,"N_COORD97":2542289.2999999998,"ADDRESS":"崇德二街１７號","OBJECTID":533253},"geometry":{"x":170039.26000000071,"y":2542289.3000000007}},{"attributes":{"ID":533281,"DIS_CODE":0,"TOWNNAME":"東區","LI":"德光里","LIN":"19鄰","STREET":"崇德二街","SECT":" ","MAREA":" ","LANE":" ","ALLEY":" ","HOUSE_NO":"１９號","E_COORD97":170046.45000000001,"N_COORD97":2542308.52,"ADDRESS":"崇德二街１９號","OBJECTID":533254},"geometry":{"x":170046.45000000205,"y":2542308.5200000014}},{"attributes":{"ID":533282,"DIS_CODE":0,"TOWNNAME":"東區","LI":"德光里","LIN":"19鄰","STREET":"崇德二街","SECT":" ","MAREA":" ","LANE":" ","ALLEY":" ","HOUSE_NO":"１９號地下層","E_COORD97":170046.45000000001,"N_COORD97":2542308.52,"ADDRESS":"崇德二街１９號地下層","OBJECTID":533255},"geometry":{"x":170046.45000000205,"y":2542308.5200000014}},{"attributes":{"ID":533283,"DIS_CODE":0,"TOWNNAME":"東區","LI":"德光里","LIN":"19鄰","STREET":"崇德二街","SECT":" ","MAREA":" ","LANE":" ","ALLEY":" ","HOUSE_NO":"２９號","E_COORD97":170054.70000000001,"N_COORD97":2542313.54,"ADDRESS":"崇德二街２９號","OBJECTID":533256},"geometry":{"x":170054.69999999925,"y":2542313.5399999991}},{"attributes":{"ID":533284,"DIS_CODE":0,"TOWNNAME":"東區","LI":"德光里","LIN":"19鄰","STREET":"崇德二街","SECT":" ","MAREA":" ","LANE":" ","ALLEY":" ","HOUSE_NO":"３１號","E_COORD97":170058.35000000001,"N_COORD97":2542317.9700000002,"ADDRESS":"崇德二街３１號","OBJECTID":533257},"geometry":{"x":170058.35000000149,"y":2542317.9700000025}},{"attributes":{"ID":533285,"DIS_CODE":0,"TOWNNAME":"東區","LI":"德光里","LIN":"19鄰","STREET":"崇德二街","SECT":" ","MAREA":" ","LANE":" ","ALLEY":" ","HOUSE_NO":"３３號","E_COORD97":170061.48000000001,"N_COORD97":2542325,"ADDRESS":"崇德二街３３號","OBJECTID":533258},"geometry":{"x":170061.48000000045,"y":2542325}},{"attributes":{"ID":533286,"DIS_CODE":0,"TOWNNAME":"東區","LI":"德光里","LIN":"19鄰","STREET":"崇德二街","SECT":" ","MAREA":" ","LANE":" ","ALLEY":" ","HOUSE_NO":"３５號","E_COORD97":170065,"N_COORD97":2542329.8300000001,"ADDRESS":"崇德二街３５號","OBJECTID":533259},"geometry":{"x":170065.00000000093,"y":2542329.8300000001}},{"attributes":{"ID":533287,"DIS_CODE":0,"TOWNNAME":"東區","LI":"德光里","LIN":"19鄰","STREET":"崇德二街","SECT":" ","MAREA":" ","LANE":" ","ALLEY":" ","HOUSE_NO":"３７號","E_COORD97":170067.48000000001,"N_COORD97":2542333.4700000002,"ADDRESS":"崇德二街３７號","OBJECTID":533260},"geometry":{"x":170067.48000000138,"y":2542333.4700000044}},{"attributes":{"ID":533288,"DIS_CODE":0,"TOWNNAME":"東區","LI":"德光里","LIN":"19鄰","STREET":"崇德二街","SECT":" ","MAREA":" ","LANE":" ","ALLEY":" ","HOUSE_NO":"３９號","E_COORD97":170070.09,"N_COORD97":2542336.8599999999,"ADDRESS":"崇德二街３９號","OBJECTID":533261},"geometry":{"x":170070.08999999985,"y":2542336.8600000013}},{"attributes":{"ID":533289,"DIS_CODE":0,"TOWNNAME":"東區","LI":"德光里","LIN":"19鄰","STREET":"崇德二街","SECT":" ","MAREA":" ","LANE":" ","ALLEY":" ","HOUSE_NO":"４１號","E_COORD97":170072.70000000001,"N_COORD97":2542339.8599999999,"ADDRESS":"崇德二街４１號","OBJECTID":533262},"geometry":{"x":170072.70000000019,"y":2542339.8600000013}},{"attributes":{"ID":533290,"DIS_CODE":0,"TOWNNAME":"東區","LI":"德光里","LIN":"19鄰","STREET":"崇德二街","SECT":" ","MAREA":" ","LANE":" ","ALLEY":" ","HOUSE_NO":"４３號","E_COORD97":170075.95999999999,"N_COORD97":2542342.5899999999,"ADDRESS":"崇德二街４３號","OBJECTID":533263},"geometry":{"x":170075.95999999996,"y":2542342.5900000017}},{"attributes":{"ID":533291,"DIS_CODE":0,"TOWNNAME":"東區","LI":"德光里","LIN":"19鄰","STREET":"崇德二街","SECT":" ","MAREA":" ","LANE":" ","ALLEY":" ","HOUSE_NO":"４５號","E_COORD97":170079.09,"N_COORD97":2542345.7200000002,"ADDRESS":"崇德二街４５號","OBJECTID":533264},"geometry":{"x":170079.09000000078,"y":2542345.7200000025}},{"attributes":{"ID":533292,"DIS_CODE":0,"TOWNNAME":"東區","LI":"德光里","LIN":"19鄰","STREET":"崇德二街","SECT":" ","MAREA":" ","LANE":" ","ALLEY":" ","HOUSE_NO":"４７號","E_COORD97":170081.70000000001,"N_COORD97":2542349.2400000002,"ADDRESS":"崇德二街４７號","OBJECTID":533265},"geometry":{"x":170081.70000000019,"y":2542349.2400000021}},{"attributes":{"ID":533293,"DIS_CODE":0,"TOWNNAME":"東區","LI":"德光里","LIN":"19鄰","STREET":"崇德二街","SECT":" ","MAREA":" ","LANE":" ","ALLEY":" ","HOUSE_NO":"４９號","E_COORD97":170083.92000000001,"N_COORD97":2542351.9700000002,"ADDRESS":"崇德二街４９號","OBJECTID":533266},"geometry":{"x":170083.92000000086,"y":2542351.9700000025}},{"attributes":{"ID":533294,"DIS_CODE":0,"TOWNNAME":"東區","LI":"德光里","LIN":"19鄰","STREET":"崇德二街","SECT":" ","MAREA":" ","LANE":" ","ALLEY":" ","HOUSE_NO":"５１號","E_COORD97":170086.67999999999,"N_COORD97":2542355.29,"ADDRESS":"崇德二街５１號","OBJECTID":533267},"geometry":{"x":170086.68000000156,"y":2542355.2899999991}},{"attributes":{"ID":533295,"DIS_CODE":0,"TOWNNAME":"東區","LI":"德光里","LIN":"19鄰","STREET":"崇德二街","SECT":" ","MAREA":" ","LANE":" ","ALLEY":" ","HOUSE_NO":"５３號","E_COORD97":170089.41,"N_COORD97":2542359.0699999998,"ADDRESS":"崇德二街５３號","OBJECTID":533268},"geometry":{"x":170089.41000000108,"y":2542359.0700000003}},{"attributes":{"ID":533296,"DIS_CODE":0,"TOWNNAME":"東區","LI":"德光里","LIN":"19鄰","STREET":"崇德路","SECT":" ","MAREA":" ","LANE":" ","ALLEY":" ","HOUSE_NO":"１７１號","E_COORD97":169978.09,"N_COORD97":2542258.3999999999,"ADDRESS":"崇德路１７１號","OBJECTID":533269},"geometry":{"x":169978.08999999985,"y":2542258.4000000004}},{"attributes":{"ID":533297,"DIS_CODE":0,"TOWNNAME":"東區","LI":"德光里","LIN":"19鄰","STREET":"崇德路","SECT":" ","MAREA":" ","LANE":" ","ALLEY":" ","HOUSE_NO":"１７３號","E_COORD97":169985.97,"N_COORD97":2542254.6099999999,"ADDRESS":"崇德路１７３號","OBJECTID":533270},"geometry":{"x":169985.96999999974,"y":2542254.6100000013}},{"attributes":{"ID":533298,"DIS_CODE":0,"TOWNNAME":"東區","LI":"德光里","LIN":"19鄰","STREET":"崇德路","SECT":" ","MAREA":" ","LANE":" ","ALLEY":" ","HOUSE_NO":"１７５號","E_COORD97":169990.35000000001,"N_COORD97":2542247.0299999998,"ADDRESS":"崇德路１７５號","OBJECTID":533271},"geometry":{"x":169990.3499999987,"y":2542247.0300000031}},{"attributes":{"ID":533299,"DIS_CODE":0,"TOWNNAME":"東區","LI":"德光里","LIN":"19鄰","STREET":"崇德路","SECT":" ","MAREA":" ","LANE":" ","ALLEY":" ","HOUSE_NO":"１７７號","E_COORD97":169994.14999999999,"N_COORD97":2542244.7000000002,"ADDRESS":"崇德路１７７號","OBJECTID":533272},"geometry":{"x":169994.15000000037,"y":2542244.6999999993}},{"attributes":{"ID":533300,"DIS_CODE":0,"TOWNNAME":"東區","LI":"德光里","LIN":"19鄰","STREET":"崇德路","SECT":" ","MAREA":" ","LANE":" ","ALLEY":" ","HOUSE_NO":"１８７號","E_COORD97":170006.41,"N_COORD97":2542238.5800000001,"ADDRESS":"崇德路１８７號","OBJECTID":533273},"geometry":{"x":170006.41000000108,"y":2542238.5800000019}},{"attributes":{"ID":533301,"DIS_CODE":0,"TOWNNAME":"仁德區","LI":"一甲里","LIN":"19鄰","STREET":"太乙二街","SECT":" ","MAREA":" ","LANE":" ","ALLEY":" ","HOUSE_NO":"６２號","E_COORD97":173371.20000000001,"N_COORD97":2542212.5,"ADDRESS":"太乙二街６２號","OBJECTID":533274},"geometry":{"x":173371.20000000112,"y":2542212.5}},{"attributes":{"ID":533302,"DIS_CODE":0,"TOWNNAME":"仁德區","LI":"太子里","LIN":"19鄰","STREET":"太子路","SECT":" ","MAREA":" ","LANE":" ","ALLEY":" ","HOUSE_NO":"３２０號","E_COORD97":173957.37,"N_COORD97":2543526.5099999998,"ADDRESS":"太子路３２０號","OBJECTID":533275},"geometry":{"x":173957.37000000011,"y":2543526.5100000016}},{"attributes":{"ID":533303,"DIS_CODE":0,"TOWNNAME":"仁德區","LI":"一甲里","LIN":"19鄰","STREET":"太乙一街","SECT":" ","MAREA":" ","LANE":" ","ALLEY":" ","HOUSE_NO":"３號","E_COORD97":173635.01999999999,"N_COORD97":2542428.75,"ADDRESS":"太乙一街３號","OBJECTID":533276},"geometry":{"x":173635.01999999955,"y":2542428.75}},{"attributes":{"ID":533304,"DIS_CODE":0,"TOWNNAME":"永康區","LI":"烏竹里","LIN":"19鄰","STREET":"龍中街","SECT":" ","MAREA":" ","LANE":" ","ALLEY":" ","HOUSE_NO":"２２８號","E_COORD97":174376.16,"N_COORD97":2548527.4500000002,"ADDRESS":"龍中街２２８號","OBJECTID":533277},"geometry":{"x":174376.16000000201,"y":2548527.4500000011}},{"attributes":{"ID":533305,"DIS_CODE":0,"TOWNNAME":"永康區","LI":"復國里","LIN":"19鄰","STREET":"復國一路","SECT":" ","MAREA":" ","LANE":" ","ALLEY":" ","HOUSE_NO":"３６０號之４","E_COORD97":172775.85999999999,"N_COORD97":2545763.9199999999,"ADDRESS":"復國一路３６０號之４","OBJECTID":533278},"geometry":{"x":172775.86000000034,"y":2545763.9200000037}},{"attributes":{"ID":533306,"DIS_CODE":0,"TOWNNAME":"安南區","LI":"安順里","LIN":"19鄰","STREET":"育安街","SECT":" ","MAREA":" ","LANE":" ","ALLEY":" ","HOUSE_NO":"１５２號","E_COORD97":169608.98999999999,"N_COORD97":2549845.6000000001,"ADDRESS":"育安街１５２號","OBJECTID":533279},"geometry":{"x":169608.99000000115,"y":2549845.6000000015}},{"attributes":{"ID":533307,"DIS_CODE":0,"TOWNNAME":"仁德區","LI":"仁義里","LIN":"19鄰","STREET":"中山路","SECT":" ","MAREA":" ","LANE":" ","ALLEY":" ","HOUSE_NO":"２９０號","E_COORD97":174029.73999999999,"N_COORD97":2541253,"ADDRESS":"中山路２９０號","OBJECTID":533280},"geometry":{"x":174029.74000000209,"y":2541253}},{"attributes":{"ID":533308,"DIS_CODE":0,"TOWNNAME":"中西區","LI":"西湖里","LIN":"19鄰","STREET":"民權路","SECT":"四段","MAREA":" ","LANE":" ","ALLEY":" ","HOUSE_NO":"１９８號","E_COORD97":166009.17999999999,"N_COORD97":2544439.8300000001,"ADDRESS":"民權路四段１９８號","OBJECTID":533281},"geometry":{"x":166009.1799999997,"y":2544439.8300000019}},{"attributes":{"ID":533309,"DIS_CODE":0,"TOWNNAME":"中西區","LI":"西湖里","LIN":"19鄰","STREET":"民權路","SECT":"四段","MAREA":" ","LANE":" ","ALLEY":" ","HOUSE_NO":"２００號","E_COORD97":166004.89999999999,"N_COORD97":2544439.29,"ADDRESS":"民權路四段２００號","OBJECTID":533282},"geometry":{"x":166004.90000000037,"y":2544439.290000001}},{"attributes":{"ID":533310,"DIS_CODE":0,"TOWNNAME":"中西區","LI":"西湖里","LIN":"19鄰","STREET":"民權路","SECT":"四段","MAREA":" ","LANE":" ","ALLEY":" ","HOUSE_NO":"２０２號","E_COORD97":166000.09,"N_COORD97":2544439.29,"ADDRESS":"民權路四段２０２號","OBJECTID":533283},"geometry":{"x":166000.08999999985,"y":2544439.290000001}},{"attributes":{"ID":533311,"DIS_CODE":0,"TOWNNAME":"中西區","LI":"西湖里","LIN":"19鄰","STREET":"民權路","SECT":"四段","MAREA":" ","LANE":" ","ALLEY":" ","HOUSE_NO":"２０４號","E_COORD97":165995.81,"N_COORD97":2544438.7599999998,"ADDRESS":"民權路四段２０４號","OBJECTID":533284},"geometry":{"x":165995.81000000052,"y":2544438.7599999998}},{"attributes":{"ID":533312,"DIS_CODE":0,"TOWNNAME":"中西區","LI":"西湖里","LIN":"19鄰","STREET":"民權路","SECT":"四段","MAREA":" ","LANE":" ","ALLEY":" ","HOUSE_NO":"２０６號","E_COORD97":165991.53,"N_COORD97":2544439.8300000001,"ADDRESS":"民權路四段２０６號","OBJECTID":533285},"geometry":{"x":165991.53000000119,"y":2544439.8300000019}},{"attributes":{"ID":533313,"DIS_CODE":0,"TOWNNAME":"中西區","LI":"西湖里","LIN":"19鄰","STREET":"民權路","SECT":"四段","MAREA":" ","LANE":" ","ALLEY":" ","HOUSE_NO":"２０８號","E_COORD97":165988.06,"N_COORD97":2544438.7599999998,"ADDRESS":"民權路四段２０８號","OBJECTID":533286},"geometry":{"x":165988.05999999959,"y":2544438.7599999998}},{"attributes":{"ID":533314,"DIS_CODE":0,"TOWNNAME":"中西區","LI":"西湖里","LIN":"19鄰","STREET":"民權路","SECT":"四段","MAREA":" ","LANE":" ","ALLEY":" ","HOUSE_NO":"２１０號","E_COORD97":165983.78,"N_COORD97":2544438.4900000002,"ADDRESS":"民權路四段２１０號","OBJECTID":533287},"geometry":{"x":165983.78000000026,"y":2544438.4900000021}},{"attributes":{"ID":533315,"DIS_CODE":0,"TOWNNAME":"中西區","LI":"西湖里","LIN":"19鄰","STREET":"民權路","SECT":"四段","MAREA":" ","LANE":" ","ALLEY":" ","HOUSE_NO":"２１２號","E_COORD97":165978.95999999999,"N_COORD97":2544438.23,"ADDRESS":"民權路四段２１２號","OBJECTID":533288},"geometry":{"x":165978.95999999996,"y":2544438.2300000023}},{"attributes":{"ID":533316,"DIS_CODE":0,"TOWNNAME":"中西區","LI":"西湖里","LIN":"19鄰","STREET":"民權路","SECT":"四段","MAREA":" ","LANE":" ","ALLEY":" ","HOUSE_NO":"２１４號","E_COORD97":165974.95000000001,"N_COORD97":2544438.23,"ADDRESS":"民權路四段２１４號","OBJECTID":533289},"geometry":{"x":165974.95000000112,"y":2544438.2300000023}},{"attributes":{"ID":533317,"DIS_CODE":0,"TOWNNAME":"中西區","LI":"西湖里","LIN":"19鄰","STREET":"民權路","SECT":"四段","MAREA":" ","LANE":" ","ALLEY":" ","HOUSE_NO":"２１６號","E_COORD97":165970.67000000001,"N_COORD97":2544437.6899999999,"ADDRESS":"民權路四段２１６號","OBJECTID":533290},"geometry":{"x":165970.66999999993,"y":2544437.6900000013}},{"attributes":{"ID":533318,"DIS_CODE":0,"TOWNNAME":"中西區","LI":"西湖里","LIN":"19鄰","STREET":"湖美街","SECT":" ","MAREA":" ","LANE":" ","ALLEY":" ","HOUSE_NO":"１０號","E_COORD97":165959.70999999999,"N_COORD97":2544449.4399999999,"ADDRESS":"湖美街１０號","OBJECTID":533291},"geometry":{"x":165959.71000000089,"y":2544449.4400000013}},{"attributes":{"ID":533319,"DIS_CODE":0,"TOWNNAME":"仁德區","LI":"大甲里","LIN":"19鄰","STREET":"行大街","SECT":" ","MAREA":" ","LANE":" ","ALLEY":" ","HOUSE_NO":"４９０號","E_COORD97":169290.64999999999,"N_COORD97":2535367,"ADDRESS":"行大街４９０號","OBJECTID":533292},"geometry":{"x":169290.65000000037,"y":2535367}},{"attributes":{"ID":533320,"DIS_CODE":0,"TOWNNAME":"仁德區","LI":"成功里","LIN":"19鄰","STREET":"成功一街","SECT":" ","MAREA":" ","LANE":" ","ALLEY":" ","HOUSE_NO":"１６５號","E_COORD97":170550.64999999999,"N_COORD97":2539816.27,"ADDRESS":"成功一街１６５號","OBJECTID":533293},"geometry":{"x":170550.6500000013,"y":2539816.2699999996}},{"attributes":{"ID":533321,"DIS_CODE":0,"TOWNNAME":"仁德區","LI":"太子里","LIN":"19鄰","STREET":"太子路","SECT":" ","MAREA":" ","LANE":" ","ALLEY":" ","HOUSE_NO":"３２６號","E_COORD97":173939.94,"N_COORD97":2543526.7599999998,"ADDRESS":"太子路３２６號","OBJECTID":533294},"geometry":{"x":173939.94000000041,"y":2543526.7599999998}},{"attributes":{"ID":533322,"DIS_CODE":0,"TOWNNAME":"仁德區","LI":"成功里","LIN":"19鄰","STREET":"成功一街","SECT":" ","MAREA":" ","LANE":" ","ALLEY":" ","HOUSE_NO":"１６９號","E_COORD97":170547.82999999999,"N_COORD97":2539806.02,"ADDRESS":"成功一街１６９號","OBJECTID":533295},"geometry":{"x":170547.83000000101,"y":2539806.0200000033}},{"attributes":{"ID":533323,"DIS_CODE":0,"TOWNNAME":"仁德區","LI":"仁德里","LIN":"19鄰","STREET":"文華一街","SECT":" ","MAREA":" ","LANE":" ","ALLEY":" ","HOUSE_NO":"１９號","E_COORD97":172272.12,"N_COORD97":2540357.5699999998,"ADDRESS":"文華一街１９號","OBJECTID":533296},"geometry":{"x":172272.12000000011,"y":2540357.5700000003}},{"attributes":{"ID":533324,"DIS_CODE":0,"TOWNNAME":"仁德區","LI":"太子里","LIN":"19鄰","STREET":"太子路","SECT":" ","MAREA":" ","LANE":" ","ALLEY":" ","HOUSE_NO":"３３４號","E_COORD97":173916.01999999999,"N_COORD97":2543528.7599999998,"ADDRESS":"太子路３３４號","OBJECTID":533297},"geometry":{"x":173916.02000000048,"y":2543528.7600000016}},{"attributes":{"ID":533325,"DIS_CODE":0,"TOWNNAME":"仁德區","LI":"成功里","LIN":"19鄰","STREET":"成功一街","SECT":" ","MAREA":" ","LANE":" ","ALLEY":" ","HOUSE_NO":"１７３號","E_COORD97":170548.64999999999,"N_COORD97":2539798.02,"ADDRESS":"成功一街１７３號","OBJECTID":533298},"geometry":{"x":170548.65000000224,"y":2539798.0199999996}},{"attributes":{"ID":533326,"DIS_CODE":0,"TOWNNAME":"安南區","LI":"安富里","LIN":"19鄰","STREET":"安富街","SECT":" ","MAREA":" ","LANE":" ","ALLEY":" ","HOUSE_NO":"２３９號","E_COORD97":167611.87,"N_COORD97":2547446.8199999998,"ADDRESS":"安富街２３９號","OBJECTID":533299},"geometry":{"x":167611.87000000011,"y":2547446.820000004}},{"attributes":{"ID":533327,"DIS_CODE":0,"TOWNNAME":"東區","LI":"莊敬里","LIN":"19鄰","STREET":"莊敬路","SECT":" ","MAREA":" ","LANE":" ","ALLEY":" ","HOUSE_NO":"１７１號","E_COORD97":171357.35000000001,"N_COORD97":2544071.79,"ADDRESS":"莊敬路１７１號","OBJECTID":533300},"geometry":{"x":171357.35000000056,"y":2544071.7899999991}},{"attributes":{"ID":533328,"DIS_CODE":0,"TOWNNAME":"東區","LI":"莊敬里","LIN":"19鄰","STREET":"莊敬路","SECT":" ","MAREA":" ","LANE":" ","ALLEY":" ","HOUSE_NO":"１７５號","E_COORD97":171356.10999999999,"N_COORD97":2544081.6299999999,"ADDRESS":"莊敬路１７５號","OBJECTID":533301},"geometry":{"x":171356.11000000127,"y":2544081.629999999}},{"attributes":{"ID":533329,"DIS_CODE":0,"TOWNNAME":"東區","LI":"莊敬里","LIN":"19鄰","STREET":"莊敬路","SECT":" ","MAREA":" ","LANE":" ","ALLEY":" ","HOUSE_NO":"１７９號","E_COORD97":171357.09,"N_COORD97":2544089.5899999999,"ADDRESS":"莊敬路１７９號","OBJECTID":533302},"geometry":{"x":171357.09000000171,"y":2544089.5900000017}},{"attributes":{"ID":533330,"DIS_CODE":0,"TOWNNAME":"善化區","LI":"文昌里","LIN":"19鄰","STREET":"中正路","SECT":" ","MAREA":" ","LANE":" ","ALLEY":" ","HOUSE_NO":"２４２號","E_COORD97":177712.98000000001,"N_COORD97":2558365,"ADDRESS":"中正路２４２號","OBJECTID":533303},"geometry":{"x":177712.98000000045,"y":2558365}},{"attributes":{"ID":533331,"DIS_CODE":0,"TOWNNAME":"善化區","LI":"光文里","LIN":"19鄰","STREET":"民生路","SECT":" ","MAREA":" ","LANE":" ","ALLEY":" ","HOUSE_NO":"２７１號","E_COORD97":178213.62,"N_COORD97":2558914.0099999998,"ADDRESS":"民生路２７１號","OBJECTID":533304},"geometry":{"x":178213.62000000011,"y":2558914.0099999998}},{"attributes":{"ID":533332,"DIS_CODE":0,"TOWNNAME":"善化區","LI":"光文里","LIN":"19鄰","STREET":"民生路","SECT":" ","MAREA":" ","LANE":" ","ALLEY":" ","HOUSE_NO":"２６６號","E_COORD97":178229.76999999999,"N_COORD97":2558933.7599999998,"ADDRESS":"民生路２６６號","OBJECTID":533305},"geometry":{"x":178229.77000000048,"y":2558933.7600000016}},{"attributes":{"ID":533333,"DIS_CODE":0,"TOWNNAME":"善化區","LI":"光文里","LIN":"19鄰","STREET":"民生路","SECT":" ","MAREA":" ","LANE":" ","ALLEY":" ","HOUSE_NO":"２９３號","E_COORD97":178188.70999999999,"N_COORD97":2558910.0099999998,"ADDRESS":"民生路２９３號","OBJECTID":533306},"geometry":{"x":178188.71000000089,"y":2558910.0099999998}},{"attributes":{"ID":533334,"DIS_CODE":0,"TOWNNAME":"善化區","LI":"光文里","LIN":"19鄰","STREET":"民生路","SECT":" ","MAREA":" ","LANE":" ","ALLEY":" ","HOUSE_NO":"２９０號","E_COORD97":178172.32999999999,"N_COORD97":2558924.7599999998,"ADDRESS":"民生路２９０號","OBJECTID":533307},"geometry":{"x":178172.33000000101,"y":2558924.7599999998}},{"attributes":{"ID":533335,"DIS_CODE":0,"TOWNNAME":"善化區","LI":"光文里","LIN":"19鄰","STREET":"民生路","SECT":" ","MAREA":" ","LANE":" ","ALLEY":" ","HOUSE_NO":"２８３號","E_COORD97":178197.57000000001,"N_COORD97":2558880.5099999998,"ADDRESS":"民生路２８３號","OBJECTID":533308},"geometry":{"x":178197.5700000003,"y":2558880.5100000035}},{"attributes":{"ID":533336,"DIS_CODE":0,"TOWNNAME":"善化區","LI":"光文里","LIN":"19鄰","STREET":"民生路","SECT":" ","MAREA":" ","LANE":" ","ALLEY":" ","HOUSE_NO":"２７８號","E_COORD97":178197.76999999999,"N_COORD97":2558928.5099999998,"ADDRESS":"民生路２７８號","OBJECTID":533309},"geometry":{"x":178197.77000000048,"y":2558928.5100000016}},{"attributes":{"ID":533337,"DIS_CODE":0,"TOWNNAME":"善化區","LI":"光文里","LIN":"19鄰","STREET":"民生路","SECT":" ","MAREA":" ","LANE":" ","ALLEY":" ","HOUSE_NO":"３１５號","E_COORD97":178147.01000000001,"N_COORD97":2558897.2599999998,"ADDRESS":"民生路３１５號","OBJECTID":533310},"geometry":{"x":178147.01000000071,"y":2558897.2600000016}},{"attributes":{"ID":533338,"DIS_CODE":0,"TOWNNAME":"善化區","LI":"文昌里","LIN":"19鄰","STREET":"中正路","SECT":" ","MAREA":" ","LANE":" ","ALLEY":" ","HOUSE_NO":"２９３號","E_COORD97":177692.20000000001,"N_COORD97":2558367.98,"ADDRESS":"中正路２９３號","OBJECTID":533311},"geometry":{"x":177692.20000000112,"y":2558367.9800000004}},{"attributes":{"ID":533339,"DIS_CODE":0,"TOWNNAME":"善化區","LI":"光文里","LIN":"19鄰","STREET":"民生路","SECT":" ","MAREA":" ","LANE":" ","ALLEY":" ","HOUSE_NO":"２７４號","E_COORD97":178208.92999999999,"N_COORD97":2558930.2599999998,"ADDRESS":"民生路２７４號","OBJECTID":533312},"geometry":{"x":178208.93000000063,"y":2558930.2600000016}},{"attributes":{"ID":533340,"DIS_CODE":0,"TOWNNAME":"善化區","LI":"光文里","LIN":"19鄰","STREET":"民生路","SECT":" ","MAREA":" ","LANE":" ","ALLEY":" ","HOUSE_NO":"２６８號","E_COORD97":178225.92999999999,"N_COORD97":2558933.2599999998,"ADDRESS":"民生路２６８號","OBJECTID":533313},"geometry":{"x":178225.93000000063,"y":2558933.2600000035}},{"attributes":{"ID":533341,"DIS_CODE":0,"TOWNNAME":"善化區","LI":"光文里","LIN":"19鄰","STREET":"民生路","SECT":" ","MAREA":" ","LANE":" ","ALLEY":" ","HOUSE_NO":"２６３號","E_COORD97":178249.98999999999,"N_COORD97":2558917.2599999998,"ADDRESS":"民生路２６３號","OBJECTID":533314},"geometry":{"x":178249.99000000022,"y":2558917.2600000016}},{"attributes":{"ID":533342,"DIS_CODE":0,"TOWNNAME":"善化區","LI":"光文里","LIN":"19鄰","STREET":"民生路","SECT":" ","MAREA":" ","LANE":" ","ALLEY":" ","HOUSE_NO":"３０２號","E_COORD97":178147.23000000001,"N_COORD97":2558921.0099999998,"ADDRESS":"民生路３０２號","OBJECTID":533315},"geometry":{"x":178147.23000000045,"y":2558921.0099999979}},{"attributes":{"ID":533343,"DIS_CODE":0,"TOWNNAME":"善化區","LI":"光文里","LIN":"19鄰","STREET":"民生路","SECT":" ","MAREA":" ","LANE":" ","ALLEY":" ","HOUSE_NO":"２８１號","E_COORD97":178206.76999999999,"N_COORD97":2558882.5099999998,"ADDRESS":"民生路２８１號","OBJECTID":533316},"geometry":{"x":178206.76999999955,"y":2558882.5099999998}},{"attributes":{"ID":533344,"DIS_CODE":0,"TOWNNAME":"善化區","LI":"光文里","LIN":"19鄰","STREET":"民生路","SECT":" ","MAREA":" ","LANE":" ","ALLEY":" ","HOUSE_NO":"２６７號","E_COORD97":178222.57000000001,"N_COORD97":2558915.7599999998,"ADDRESS":"民生路２６７號","OBJECTID":533317},"geometry":{"x":178222.5700000003,"y":2558915.7599999998}},{"attributes":{"ID":533345,"DIS_CODE":0,"TOWNNAME":"善化區","LI":"光文里","LIN":"19鄰","STREET":"民生路","SECT":" ","MAREA":" ","LANE":" ","ALLEY":" ","HOUSE_NO":"２７０號","E_COORD97":178216.38,"N_COORD97":2558931.2599999998,"ADDRESS":"民生路２７０號","OBJECTID":533318},"geometry":{"x":178216.38000000082,"y":2558931.2600000016}},{"attributes":{"ID":533346,"DIS_CODE":0,"TOWNNAME":"善化區","LI":"光文里","LIN":"19鄰","STREET":"大成路","SECT":" ","MAREA":" ","LANE":" ","ALLEY":" ","HOUSE_NO":"２８０號","E_COORD97":178188.66,"N_COORD97":2558848.5,"ADDRESS":"大成路２８０號","OBJECTID":533319},"geometry":{"x":178188.66000000201,"y":2558848.5000000019}},{"attributes":{"ID":533347,"DIS_CODE":0,"TOWNNAME":"善化區","LI":"光文里","LIN":"19鄰","STREET":"大成路","SECT":" ","MAREA":" ","LANE":" ","ALLEY":" ","HOUSE_NO":"２８８號","E_COORD97":178170.16,"N_COORD97":2558845.75,"ADDRESS":"大成路２８８號","OBJECTID":533320},"geometry":{"x":178170.16000000108,"y":2558845.7500000019}},{"attributes":{"ID":533348,"DIS_CODE":0,"TOWNNAME":"善化區","LI":"光文里","LIN":"19鄰","STREET":"大成路","SECT":" ","MAREA":" ","LANE":" ","ALLEY":" ","HOUSE_NO":"２７８號","E_COORD97":178193.95999999999,"N_COORD97":2558849.25,"ADDRESS":"大成路２７８號","OBJECTID":533321},"geometry":{"x":178193.96000000089,"y":2558849.2500000019}},{"attributes":{"ID":533349,"DIS_CODE":0,"TOWNNAME":"善化區","LI":"光文里","LIN":"19鄰","STREET":"民生路","SECT":" ","MAREA":" ","LANE":" ","ALLEY":" ","HOUSE_NO":"２６９號","E_COORD97":178218.16,"N_COORD97":2558915.0099999998,"ADDRESS":"民生路２６９號","OBJECTID":533322},"geometry":{"x":178218.16000000108,"y":2558915.0100000016}},{"attributes":{"ID":533350,"DIS_CODE":0,"TOWNNAME":"善化區","LI":"光文里","LIN":"19鄰","STREET":"民生路","SECT":" ","MAREA":" ","LANE":" ","ALLEY":" ","HOUSE_NO":"２９６號","E_COORD97":178161.62,"N_COORD97":2558923.2599999998,"ADDRESS":"民生路２９６號","OBJECTID":533323},"geometry":{"x":178161.62000000197,"y":2558923.2600000016}},{"attributes":{"ID":533351,"DIS_CODE":0,"TOWNNAME":"永康區","LI":"網寮里","LIN":"19鄰","STREET":"文化路","SECT":" ","MAREA":" ","LANE":" ","ALLEY":" ","HOUSE_NO":"３３２號","E_COORD97":173415,"N_COORD97":2546180.5899999999,"ADDRESS":"文化路３３２號","OBJECTID":533324},"geometry":{"x":173415,"y":2546180.5900000017}},{"attributes":{"ID":533352,"DIS_CODE":0,"TOWNNAME":"永康區","LI":"網寮里","LIN":"19鄰","STREET":"文化路","SECT":" ","MAREA":" ","LANE":" ","ALLEY":" ","HOUSE_NO":"３３８號","E_COORD97":173408.76000000001,"N_COORD97":2546185.3399999999,"ADDRESS":"文化路３３８號","OBJECTID":533325},"geometry":{"x":173408.76000000164,"y":2546185.3400000017}},{"attributes":{"ID":533353,"DIS_CODE":0,"TOWNNAME":"永康區","LI":"網寮里","LIN":"19鄰","STREET":"文化路","SECT":" ","MAREA":" ","LANE":" ","ALLEY":" ","HOUSE_NO":"２９２號","E_COORD97":173446.75,"N_COORD97":2546157.7999999998,"ADDRESS":"文化路２９２號","OBJECTID":533326},"geometry":{"x":173446.75000000093,"y":2546157.8000000007}},{"attributes":{"ID":533354,"DIS_CODE":0,"TOWNNAME":"善化區","LI":"東關里","LIN":"19鄰","STREET":"中興路","SECT":" ","MAREA":" ","LANE":" ","ALLEY":" ","HOUSE_NO":"１０２號","E_COORD97":177482.70000000001,"N_COORD97":2559030.5,"ADDRESS":"中興路１０２號","OBJECTID":533327},"geometry":{"x":177482.70000000019,"y":2559030.5000000019}},{"attributes":{"ID":533355,"DIS_CODE":0,"TOWNNAME":"善化區","LI":"坐駕里","LIN":"19鄰","STREET":"興華路","SECT":" ","MAREA":" ","LANE":" ","ALLEY":" ","HOUSE_NO":"１９５號","E_COORD97":178350.51000000001,"N_COORD97":2558582,"ADDRESS":"興華路１９５號","OBJECTID":533328},"geometry":{"x":178350.51000000071,"y":2558582}},{"attributes":{"ID":533356,"DIS_CODE":0,"TOWNNAME":"善化區","LI":"東關里","LIN":"19鄰","STREET":"中興路","SECT":" ","MAREA":" ","LANE":" ","ALLEY":" ","HOUSE_NO":"８２號","E_COORD97":177533.81,"N_COORD97":2559026.25,"ADDRESS":"中興路８２號","OBJECTID":533329},"geometry":{"x":177533.80999999959,"y":2559026.2500000019}},{"attributes":{"ID":533357,"DIS_CODE":0,"TOWNNAME":"善化區","LI":"東關里","LIN":"19鄰","STREET":"中興路","SECT":" ","MAREA":" ","LANE":" ","ALLEY":" ","HOUSE_NO":"９６號","E_COORD97":177500.62,"N_COORD97":2559029,"ADDRESS":"中興路９６號","OBJECTID":533330},"geometry":{"x":177500.62000000197,"y":2559029}},{"attributes":{"ID":533358,"DIS_CODE":0,"TOWNNAME":"善化區","LI":"東關里","LIN":"19鄰","STREET":"大信路","SECT":" ","MAREA":" ","LANE":" ","ALLEY":" ","HOUSE_NO":"１５號之２","E_COORD97":177484.16,"N_COORD97":2559035.52,"ADDRESS":"大信路１５號之２","OBJECTID":533331},"geometry":{"x":177484.16000000108,"y":2559035.5199999996}},{"attributes":{"ID":533359,"DIS_CODE":0,"TOWNNAME":"永康區","LI":"二王里","LIN":"19鄰","STREET":"忠孝路","SECT":" ","MAREA":" ","LANE":" ","ALLEY":" ","HOUSE_NO":"４８３號","E_COORD97":172482.23999999999,"N_COORD97":2546665.5299999998,"ADDRESS":"忠孝路４８３號","OBJECTID":533332},"geometry":{"x":172482.24000000115,"y":2546665.5300000012}},{"attributes":{"ID":533360,"DIS_CODE":0,"TOWNNAME":"永康區","LI":"二王里","LIN":"19鄰","STREET":"忠孝路","SECT":" ","MAREA":" ","LANE":" ","ALLEY":" ","HOUSE_NO":"４４９號","E_COORD97":172453.60999999999,"N_COORD97":2546586.8999999999,"ADDRESS":"忠孝路４４９號","OBJECTID":533333},"geometry":{"x":172453.61000000034,"y":2546586.9000000004}},{"attributes":{"ID":533361,"DIS_CODE":0,"TOWNNAME":"永康區","LI":"二王里","LIN":"19鄰","STREET":"忠孝路","SECT":" ","MAREA":" ","LANE":" ","ALLEY":" ","HOUSE_NO":"４６９號","E_COORD97":172468.25,"N_COORD97":2546637.79,"ADDRESS":"忠孝路４６９號","OBJECTID":533334},"geometry":{"x":172468.25000000186,"y":2546637.7899999991}},{"attributes":{"ID":533362,"DIS_CODE":0,"TOWNNAME":"永康區","LI":"二王里","LIN":"19鄰","STREET":"忠孝路","SECT":" ","MAREA":" ","LANE":" ","ALLEY":" ","HOUSE_NO":"４７５號","E_COORD97":172474.51999999999,"N_COORD97":2546649.29,"ADDRESS":"忠孝路４７５號","OBJECTID":533335},"geometry":{"x":172474.52000000142,"y":2546649.290000001}},{"attributes":{"ID":533363,"DIS_CODE":0,"TOWNNAME":"永康區","LI":"二王里","LIN":"19鄰","STREET":"忠孝路","SECT":" ","MAREA":" ","LANE":" ","ALLEY":" ","HOUSE_NO":"４５７號","E_COORD97":172455.73999999999,"N_COORD97":2546608.8999999999,"ADDRESS":"忠孝路４５７號","OBJECTID":533336},"geometry":{"x":172455.74000000115,"y":2546608.9000000041}},{"attributes":{"ID":533364,"DIS_CODE":0,"TOWNNAME":"新市區","LI":"新和里","LIN":"19鄰","STREET":"永福街","SECT":" ","MAREA":" ","LANE":" ","ALLEY":" ","HOUSE_NO":"９７號","E_COORD97":177519.92000000001,"N_COORD97":2552723.25,"ADDRESS":"永福街９７號","OBJECTID":533337},"geometry":{"x":177519.91999999993,"y":2552723.2500000019}},{"attributes":{"ID":533365,"DIS_CODE":0,"TOWNNAME":"新市區","LI":"新和里","LIN":"19鄰","STREET":"永福街","SECT":" ","MAREA":" ","LANE":" ","ALLEY":" ","HOUSE_NO":"８７號","E_COORD97":177544.87,"N_COORD97":2552720.25,"ADDRESS":"永福街８７號","OBJECTID":533338},"geometry":{"x":177544.87000000104,"y":2552720.2500000019}},{"attributes":{"ID":533366,"DIS_CODE":0,"TOWNNAME":"新市區","LI":"新市里","LIN":"19鄰","STREET":"和平街","SECT":" ","MAREA":" ","LANE":" ","ALLEY":" ","HOUSE_NO":"２３號","E_COORD97":177727.04000000001,"N_COORD97":2553446.5,"ADDRESS":"和平街２３號","OBJECTID":533339},"geometry":{"x":177727.04000000097,"y":2553446.5000000019}},{"attributes":{"ID":533367,"DIS_CODE":0,"TOWNNAME":"仁德區","LI":"成功里","LIN":"19鄰","STREET":"成功一街","SECT":" ","MAREA":" ","LANE":" ","ALLEY":" ","HOUSE_NO":"１５７號","E_COORD97":170560.23000000001,"N_COORD97":2539835.0099999998,"ADDRESS":"成功一街１５７號","OBJECTID":533340},"geometry":{"x":170560.23000000138,"y":2539835.0100000016}},{"attributes":{"ID":533368,"DIS_CODE":0,"TOWNNAME":"仁德區","LI":"仁德里","LIN":"19鄰","STREET":"文華一街","SECT":" ","MAREA":" ","LANE":" ","ALLEY":" ","HOUSE_NO":"３５號","E_COORD97":172301.92000000001,"N_COORD97":2540318.8300000001,"ADDRESS":"文華一街３５號","OBJECTID":533341},"geometry":{"x":172301.91999999993,"y":2540318.8300000001}},{"attributes":{"ID":533369,"DIS_CODE":0,"TOWNNAME":"南區","LI":"府南里","LIN":"14鄰","STREET":"新都路","SECT":" ","MAREA":" ","LANE":" ","ALLEY":" ","HOUSE_NO":"３４６號","E_COORD97":167590.04000000001,"N_COORD97":2540934.2799999998,"ADDRESS":"新都路３４６號","OBJECTID":533342},"geometry":{"x":167590.04000000097,"y":2540934.2800000012}},{"attributes":{"ID":533370,"DIS_CODE":0,"TOWNNAME":"仁德區","LI":"保安里","LIN":"19鄰","STREET":"文賢路","SECT":"二段","MAREA":" ","LANE":" ","ALLEY":" ","HOUSE_NO":"１號","E_COORD97":171689.17000000001,"N_COORD97":2535860.8300000001,"ADDRESS":"文賢路二段１號","OBJECTID":533343},"geometry":{"x":171689.17000000086,"y":2535860.8300000001}},{"attributes":{"ID":533371,"DIS_CODE":0,"TOWNNAME":"仁德區","LI":"保安里","LIN":"19鄰","STREET":"文賢路","SECT":"二段","MAREA":" ","LANE":" ","ALLEY":" ","HOUSE_NO":"４９號","E_COORD97":171873.56111400001,"N_COORD97":2535718.5541699999,"ADDRESS":"文賢路二段４９號","OBJECTID":533344},"geometry":{"x":171873.56111400016,"y":2535718.5541670006}},{"attributes":{"ID":533372,"DIS_CODE":0,"TOWNNAME":"仁德區","LI":"仁德里","LIN":"19鄰","STREET":"文華一街","SECT":" ","MAREA":" ","LANE":" ","ALLEY":" ","HOUSE_NO":"３７號","E_COORD97":172306.54000000001,"N_COORD97":2540310.5800000001,"ADDRESS":"文華一街３７號","OBJECTID":533345},"geometry":{"x":172306.54000000004,"y":2540310.5800000001}},{"attributes":{"ID":533373,"DIS_CODE":0,"TOWNNAME":"仁德區","LI":"仁德里","LIN":"19鄰","STREET":"文華一街","SECT":" ","MAREA":" ","LANE":" ","ALLEY":" ","HOUSE_NO":"１０１號","E_COORD97":172398.70999999999,"N_COORD97":2540022.0800000001,"ADDRESS":"文華一街１０１號","OBJECTID":533346},"geometry":{"x":172398.70999999996,"y":2540022.0800000001}},{"attributes":{"ID":533374,"DIS_CODE":0,"TOWNNAME":"仁德區","LI":"成功里","LIN":"19鄰","STREET":"成功一街","SECT":" ","MAREA":" ","LANE":" ","ALLEY":" ","HOUSE_NO":"１５９號","E_COORD97":170552.41,"N_COORD97":2539831.0099999998,"ADDRESS":"成功一街１５９號","OBJECTID":533347},"geometry":{"x":170552.41000000108,"y":2539831.0100000016}},{"attributes":{"ID":533375,"DIS_CODE":0,"TOWNNAME":"仁德區","LI":"太子里","LIN":"19鄰","STREET":"太子路","SECT":" ","MAREA":" ","LANE":" ","ALLEY":" ","HOUSE_NO":"３１８號","E_COORD97":173961.37,"N_COORD97":2543526.5099999998,"ADDRESS":"太子路３１８號","OBJECTID":533348},"geometry":{"x":173961.37000000104,"y":2543526.5100000016}},{"attributes":{"ID":533376,"DIS_CODE":0,"TOWNNAME":"仁德區","LI":"仁德里","LIN":"19鄰","STREET":"文華一街","SECT":" ","MAREA":" ","LANE":" ","ALLEY":" ","HOUSE_NO":"７６之１號","E_COORD97":172384.33742600001,"N_COORD97":2540284.2167699998,"ADDRESS":"文華一街７６之１號","OBJECTID":533349},"geometry":{"x":172384.33742600121,"y":2540284.2167680021}},{"attributes":{"ID":533377,"DIS_CODE":0,"TOWNNAME":"仁德區","LI":"仁德里","LIN":"19鄰","STREET":"民安路","SECT":"一段","MAREA":" ","LANE":" ","ALLEY":" ","HOUSE_NO":"２３１號","E_COORD97":172495.72,"N_COORD97":2539823.5699999998,"ADDRESS":"民安路一段２３１號","OBJECTID":533350},"geometry":{"x":172495.72000000067,"y":2539823.570000004}},{"attributes":{"ID":533378,"DIS_CODE":0,"TOWNNAME":"仁德區","LI":"成功里","LIN":"19鄰","STREET":"成功一街","SECT":" ","MAREA":" ","LANE":" ","ALLEY":" ","HOUSE_NO":"１６７號","E_COORD97":170547.51000000001,"N_COORD97":2539810.27,"ADDRESS":"成功一街１６７號","OBJECTID":533351},"geometry":{"x":170547.51000000071,"y":2539810.2699999996}},{"attributes":{"ID":533379,"DIS_CODE":0,"TOWNNAME":"仁德區","LI":"太子里","LIN":"19鄰","STREET":"太子路","SECT":" ","MAREA":" ","LANE":" ","ALLEY":" ","HOUSE_NO":"３２８號","E_COORD97":173934.29000000001,"N_COORD97":2543527.0099999998,"ADDRESS":"太子路３２８號","OBJECTID":533352},"geometry":{"x":173934.2900000019,"y":2543527.0100000016}},{"attributes":{"ID":533380,"DIS_CODE":0,"TOWNNAME":"仁德區","LI":"仁德里","LIN":"19鄰","STREET":"文華一街","SECT":" ","MAREA":" ","LANE":" ","ALLEY":" ","HOUSE_NO":"３２號","E_COORD97":172298.97,"N_COORD97":2540285.8199999998,"ADDRESS":"文華一街３２號","OBJECTID":533353},"geometry":{"x":172298.97000000067,"y":2540285.8200000003}},{"attributes":{"ID":533381,"DIS_CODE":0,"TOWNNAME":"仁德區","LI":"成功里","LIN":"19鄰","STREET":"成功一街","SECT":" ","MAREA":" ","LANE":" ","ALLEY":" ","HOUSE_NO":"１８５號","E_COORD97":170550.39999999999,"N_COORD97":2539772.0099999998,"ADDRESS":"成功一街１８５號","OBJECTID":533354},"geometry":{"x":170550.40000000224,"y":2539772.0099999998}},{"attributes":{"ID":533382,"DIS_CODE":0,"TOWNNAME":"仁德區","LI":"太子里","LIN":"19鄰","STREET":"太子路","SECT":" ","MAREA":" ","LANE":" ","ALLEY":" ","HOUSE_NO":"３２２號","E_COORD97":173952.59,"N_COORD97":2543526.0099999998,"ADDRESS":"太子路３２２號","OBJECTID":533355},"geometry":{"x":173952.59000000078,"y":2543526.0100000016}},{"attributes":{"ID":533383,"DIS_CODE":0,"TOWNNAME":"仁德區","LI":"太子里","LIN":"19鄰","STREET":"太子路","SECT":" ","MAREA":" ","LANE":" ","ALLEY":" ","HOUSE_NO":"３３８號","E_COORD97":173902.64999999999,"N_COORD97":2543530.0099999998,"ADDRESS":"太子路３３８號","OBJECTID":533356},"geometry":{"x":173902.65000000037,"y":2543530.0100000016}},{"attributes":{"ID":533384,"DIS_CODE":0,"TOWNNAME":"仁德區","LI":"仁德里","LIN":"19鄰","STREET":"民安路","SECT":"一段","MAREA":" ","LANE":" ","ALLEY":" ","HOUSE_NO":"１１７號","E_COORD97":172166.92999999999,"N_COORD97":2539963.0600000001,"ADDRESS":"民安路一段１１７號","OBJECTID":533357},"geometry":{"x":172166.93000000063,"y":2539963.0600000024}},{"attributes":{"ID":533385,"DIS_CODE":0,"TOWNNAME":"仁德區","LI":"太子里","LIN":"19鄰","STREET":"太子路","SECT":" ","MAREA":" ","LANE":" ","ALLEY":" ","HOUSE_NO":"３１６號","E_COORD97":173964.89000000001,"N_COORD97":2543526.2599999998,"ADDRESS":"太子路３１６號","OBJECTID":533358},"geometry":{"x":173964.88999999966,"y":2543526.2599999998}},{"attributes":{"ID":533386,"DIS_CODE":0,"TOWNNAME":"仁德區","LI":"太子里","LIN":"19鄰","STREET":"太子路","SECT":" ","MAREA":" ","LANE":" ","ALLEY":" ","HOUSE_NO":"３４０號","E_COORD97":173897.57000000001,"N_COORD97":2543531.0099999998,"ADDRESS":"太子路３４０號","OBJECTID":533359},"geometry":{"x":173897.57000000123,"y":2543531.0099999998}},{"attributes":{"ID":533387,"DIS_CODE":0,"TOWNNAME":"仁德區","LI":"保安里","LIN":"19鄰","STREET":"文賢路","SECT":"二段","MAREA":" ","LANE":" ","ALLEY":" ","HOUSE_NO":"４３號","E_COORD97":171799.76999999999,"N_COORD97":2535777.0800000001,"ADDRESS":"文賢路二段４３號","OBJECTID":533360},"geometry":{"x":171799.77000000142,"y":2535777.0800000001}},{"attributes":{"ID":533388,"DIS_CODE":0,"TOWNNAME":"仁德區","LI":"仁德里","LIN":"19鄰","STREET":"民安路","SECT":"一段","MAREA":" ","LANE":" ","ALLEY":" ","HOUSE_NO":"１６１號","E_COORD97":172299.48000000001,"N_COORD97":2539892.5699999998,"ADDRESS":"民安路一段１６１號","OBJECTID":533361},"geometry":{"x":172299.48000000138,"y":2539892.5700000022}},{"attributes":{"ID":533389,"DIS_CODE":0,"TOWNNAME":"仁德區","LI":"成功里","LIN":"19鄰","STREET":"成功一街","SECT":" ","MAREA":" ","LANE":" ","ALLEY":" ","HOUSE_NO":"１７９號","E_COORD97":170549.76999999999,"N_COORD97":2539786.52,"ADDRESS":"成功一街１７９號","OBJECTID":533362},"geometry":{"x":170549.76999999955,"y":2539786.5200000014}},{"attributes":{"ID":533390,"DIS_CODE":0,"TOWNNAME":"仁德區","LI":"成功里","LIN":"19鄰","STREET":"成功一街","SECT":" ","MAREA":" ","LANE":" ","ALLEY":" ","HOUSE_NO":"１７７號","E_COORD97":170548.92999999999,"N_COORD97":2539790.02,"ADDRESS":"成功一街１７７號","OBJECTID":533363},"geometry":{"x":170548.9299999997,"y":2539790.0200000014}},{"attributes":{"ID":533391,"DIS_CODE":0,"TOWNNAME":"仁德區","LI":"後壁里","LIN":"19鄰","STREET":"中正路","SECT":"二段","MAREA":" ","LANE":" ","ALLEY":" ","HOUSE_NO":"１８０號","E_COORD97":173227.29000000001,"N_COORD97":2538693.77,"ADDRESS":"中正路二段１８０號","OBJECTID":533364},"geometry":{"x":173227.29000000004,"y":2538693.7700000014}},{"attributes":{"ID":533392,"DIS_CODE":0,"TOWNNAME":"仁德區","LI":"太子里","LIN":"19鄰","STREET":"太子路","SECT":" ","MAREA":" ","LANE":" ","ALLEY":" ","HOUSE_NO":"３４２號","E_COORD97":173892.26000000001,"N_COORD97":2543532.0099999998,"ADDRESS":"太子路３４２號","OBJECTID":533365},"geometry":{"x":173892.26000000071,"y":2543532.0099999998}},{"attributes":{"ID":533393,"DIS_CODE":0,"TOWNNAME":"仁德區","LI":"後壁里","LIN":"19鄰","STREET":"中正路","SECT":"二段","MAREA":" ","LANE":" ","ALLEY":" ","HOUSE_NO":"１８２號","E_COORD97":173227.76999999999,"N_COORD97":2538699.27,"ADDRESS":"中正路二段１８２號","OBJECTID":533366},"geometry":{"x":173227.77000000048,"y":2538699.2700000033}},{"attributes":{"ID":533394,"DIS_CODE":0,"TOWNNAME":"仁德區","LI":"後壁里","LIN":"19鄰","STREET":"中正路","SECT":"二段","MAREA":" ","LANE":" ","ALLEY":" ","HOUSE_NO":"１７０號","E_COORD97":173226.04000000001,"N_COORD97":2538670.5299999998,"ADDRESS":"中正路二段１７０號","OBJECTID":533367},"geometry":{"x":173226.04000000097,"y":2538670.5300000012}},{"attributes":{"ID":533395,"DIS_CODE":0,"TOWNNAME":"仁德區","LI":"成功里","LIN":"19鄰","STREET":"成功一街","SECT":" ","MAREA":" ","LANE":" ","ALLEY":" ","HOUSE_NO":"１６１號","E_COORD97":170551.79000000001,"N_COORD97":2539826.27,"ADDRESS":"成功一街１６１號","OBJECTID":533368},"geometry":{"x":170551.79000000004,"y":2539826.2700000014}},{"attributes":{"ID":533396,"DIS_CODE":0,"TOWNNAME":"仁德區","LI":"後壁里","LIN":"19鄰","STREET":"中正路","SECT":"二段","MAREA":" ","LANE":" ","ALLEY":" ","HOUSE_NO":"１６６號","E_COORD97":173225.5,"N_COORD97":2538662.2799999998,"ADDRESS":"中正路二段１６６號","OBJECTID":533369},"geometry":{"x":173225.5,"y":2538662.2800000012}},{"attributes":{"ID":533397,"DIS_CODE":0,"TOWNNAME":"仁德區","LI":"保安里","LIN":"19鄰","STREET":"中正路","SECT":"一段","MAREA":" ","LANE":" ","ALLEY":" ","HOUSE_NO":"２８８號","E_COORD97":171856.51000000001,"N_COORD97":2535987.2799999998,"ADDRESS":"中正路一段２８８號","OBJECTID":533370},"geometry":{"x":171856.51000000071,"y":2535987.2800000012}},{"attributes":{"ID":533398,"DIS_CODE":0,"TOWNNAME":"仁德區","LI":"保安里","LIN":"19鄰","STREET":"中正路","SECT":"一段","MAREA":" ","LANE":" ","ALLEY":" ","HOUSE_NO":"２８２號之１","E_COORD97":171832.92999999999,"N_COORD97":2535968.5499999998,"ADDRESS":"中正路一段２８２號之１","OBJECTID":533371},"geometry":{"x":171832.93000000063,"y":2535968.5500000007}},{"attributes":{"ID":533399,"DIS_CODE":0,"TOWNNAME":"仁德區","LI":"太子里","LIN":"19鄰","STREET":"長興四街","SECT":" ","MAREA":" ","LANE":" ","ALLEY":" ","HOUSE_NO":"６７號","E_COORD97":173918.60000000001,"N_COORD97":2543557.25,"ADDRESS":"長興四街６７號","OBJECTID":533372},"geometry":{"x":173918.60000000056,"y":2543557.25}},{"attributes":{"ID":533400,"DIS_CODE":0,"TOWNNAME":"仁德區","LI":"太子里","LIN":"19鄰","STREET":"長興四街","SECT":" ","MAREA":" ","LANE":" ","ALLEY":" ","HOUSE_NO":"６１號","E_COORD97":173948.97,"N_COORD97":2543550.5099999998,"ADDRESS":"長興四街６１號","OBJECTID":533373},"geometry":{"x":173948.96999999974,"y":2543550.5100000016}},{"attributes":{"ID":533401,"DIS_CODE":0,"TOWNNAME":"仁德區","LI":"保安里","LIN":"19鄰","STREET":"中正路","SECT":"一段","MAREA":" ","LANE":" ","ALLEY":" ","HOUSE_NO":"３５２之１號","E_COORD97":172117.73000000001,"N_COORD97":2536159.7999999998,"ADDRESS":"中正路一段３５２之１號","OBJECTID":533374},"geometry":{"x":172117.73000000045,"y":2536159.8000000007}},{"attributes":{"ID":533402,"DIS_CODE":0,"TOWNNAME":"仁德區","LI":"後壁里","LIN":"19鄰","STREET":"中正路","SECT":"二段","MAREA":" ","LANE":" ","ALLEY":" ","HOUSE_NO":"１７６號","E_COORD97":173226.64999999999,"N_COORD97":2538684.0299999998,"ADDRESS":"中正路二段１７６號","OBJECTID":533375},"geometry":{"x":173226.65000000037,"y":2538684.0300000012}},{"attributes":{"ID":533403,"DIS_CODE":0,"TOWNNAME":"仁德區","LI":"太子里","LIN":"19鄰","STREET":"長興四街","SECT":" ","MAREA":" ","LANE":" ","ALLEY":" ","HOUSE_NO":"６５號","E_COORD97":173924.64999999999,"N_COORD97":2543556,"ADDRESS":"長興四街６５號","OBJECTID":533376},"geometry":{"x":173924.65000000037,"y":2543556}},{"attributes":{"ID":533404,"DIS_CODE":0,"TOWNNAME":"仁德區","LI":"保安里","LIN":"19鄰","STREET":"中正路","SECT":"一段","MAREA":" ","LANE":" ","ALLEY":" ","HOUSE_NO":"３５２號","E_COORD97":172070.14000000001,"N_COORD97":2536160.7799999998,"ADDRESS":"中正路一段３５２號","OBJECTID":533377},"geometry":{"x":172070.13999999873,"y":2536160.7800000012}},{"attributes":{"ID":533405,"DIS_CODE":0,"TOWNNAME":"南區","LI":"府南里","LIN":" ","STREET":"大成路","SECT":"二段","MAREA":" ","LANE":" ","ALLEY":" ","HOUSE_NO":"５９之３號","E_COORD97":167530.41,"N_COORD97":2541725.6699999999,"ADDRESS":"大成路二段５９之３號","OBJECTID":533378},"geometry":{"x":167530.41000000015,"y":2541725.6700000018}},{"attributes":{"ID":533406,"DIS_CODE":0,"TOWNNAME":"官田區","LI":"隆本里","LIN":"19鄰","STREET":"興隆街","SECT":" ","MAREA":" ","LANE":" ","ALLEY":" ","HOUSE_NO":"３號","E_COORD97":180054.60000000001,"N_COORD97":2566400.7200000002,"ADDRESS":"興隆街３號","OBJECTID":533379},"geometry":{"x":180054.59999999963,"y":2566400.7200000025}},{"attributes":{"ID":533407,"DIS_CODE":0,"TOWNNAME":"南區","LI":"府南里","LIN":" ","STREET":"大成路","SECT":"二段","MAREA":" ","LANE":" ","ALLEY":" ","HOUSE_NO":"５９之４號","E_COORD97":167525.44,"N_COORD97":2541724.7599999998,"ADDRESS":"大成路二段５９之４號","OBJECTID":533380},"geometry":{"x":167525.44000000041,"y":2541724.7600000016}},{"attributes":{"ID":533408,"DIS_CODE":0,"TOWNNAME":"仁德區","LI":"後壁里","LIN":"19鄰","STREET":"德崙路","SECT":" ","MAREA":" ","LANE":" ","ALLEY":" ","HOUSE_NO":"７號","E_COORD97":173233.84,"N_COORD97":2538635.5099999998,"ADDRESS":"德崙路７號","OBJECTID":533381},"geometry":{"x":173233.84000000078,"y":2538635.5099999998}},{"attributes":{"ID":533409,"DIS_CODE":0,"TOWNNAME":"仁德區","LI":"後壁里","LIN":"19鄰","STREET":"德崙路","SECT":" ","MAREA":" ","LANE":" ","ALLEY":" ","HOUSE_NO":"５號","E_COORD97":173230.39999999999,"N_COORD97":2538638.52,"ADDRESS":"德崙路５號","OBJECTID":533382},"geometry":{"x":173230.40000000224,"y":2538638.5199999996}},{"attributes":{"ID":533410,"DIS_CODE":0,"TOWNNAME":"仁德區","LI":"後壁里","LIN":"19鄰","STREET":"德崙路","SECT":" ","MAREA":" ","LANE":" ","ALLEY":" ","HOUSE_NO":"１１號","E_COORD97":173242.10000000001,"N_COORD97":2538629.7599999998,"ADDRESS":"德崙路１１號","OBJECTID":533383},"geometry":{"x":173242.10000000056,"y":2538629.7600000016}},{"attributes":{"ID":533411,"DIS_CODE":0,"TOWNNAME":"官田區","LI":"隆本里","LIN":"19鄰","STREET":"勝利路","SECT":" ","MAREA":" ","LANE":" ","ALLEY":" ","HOUSE_NO":"２８０號","E_COORD97":180071.29000000001,"N_COORD97":2566399.3100000001,"ADDRESS":"勝利路２８０號","OBJECTID":533384},"geometry":{"x":180071.29000000097,"y":2566399.3100000042}},{"attributes":{"ID":533412,"DIS_CODE":0,"TOWNNAME":"官田區","LI":"隆本里","LIN":"19鄰","STREET":"勝利路","SECT":" ","MAREA":" ","LANE":" ","ALLEY":" ","HOUSE_NO":"２８２號","E_COORD97":180065.10000000001,"N_COORD97":2566399.8799999999,"ADDRESS":"勝利路２８２號","OBJECTID":533385},"geometry":{"x":180065.10000000149,"y":2566399.879999999}},{"attributes":{"ID":533413,"DIS_CODE":0,"TOWNNAME":"官田區","LI":"隆本里","LIN":"19鄰","STREET":"興隆街","SECT":" ","MAREA":" ","LANE":" ","ALLEY":" ","HOUSE_NO":"１１號","E_COORD97":180040.01999999999,"N_COORD97":2566398.3599999999,"ADDRESS":"興隆街１１號","OBJECTID":533386},"geometry":{"x":180040.02000000142,"y":2566398.3600000013}},{"attributes":{"ID":533414,"DIS_CODE":0,"TOWNNAME":"官田區","LI":"隆本里","LIN":"19鄰","STREET":"興隆街","SECT":" ","MAREA":" ","LANE":" ","ALLEY":" ","HOUSE_NO":"１５號","E_COORD97":180032.85000000001,"N_COORD97":2566396.5899999999,"ADDRESS":"興隆街１５號","OBJECTID":533387},"geometry":{"x":180032.85000000149,"y":2566396.5900000036}},{"attributes":{"ID":533415,"DIS_CODE":0,"TOWNNAME":"官田區","LI":"隆本里","LIN":"19鄰","STREET":"興隆街","SECT":" ","MAREA":" ","LANE":" ","ALLEY":" ","HOUSE_NO":"１９號","E_COORD97":180028.32999999999,"N_COORD97":2566392.1899999999,"ADDRESS":"興隆街１９號","OBJECTID":533388},"geometry":{"x":180028.33000000194,"y":2566392.1900000032}},{"attributes":{"ID":533416,"DIS_CODE":0,"TOWNNAME":"官田區","LI":"隆本里","LIN":"19鄰","STREET":"興隆街","SECT":" ","MAREA":" ","LANE":" ","ALLEY":" ","HOUSE_NO":"１號","E_COORD97":180057.60000000001,"N_COORD97":2566401.3199999998,"ADDRESS":"興隆街１號","OBJECTID":533389},"geometry":{"x":180057.59999999963,"y":2566401.3200000003}},{"attributes":{"ID":533417,"DIS_CODE":0,"TOWNNAME":"官田區","LI":"隆本里","LIN":"19鄰","STREET":"興隆街","SECT":" ","MAREA":" ","LANE":" ","ALLEY":" ","HOUSE_NO":"２３號","E_COORD97":180017.37,"N_COORD97":2566390.4100000001,"ADDRESS":"興隆街２３號","OBJECTID":533390},"geometry":{"x":180017.37000000011,"y":2566390.4100000001}},{"attributes":{"ID":533418,"DIS_CODE":0,"TOWNNAME":"官田區","LI":"隆本里","LIN":"19鄰","STREET":"興隆街","SECT":" ","MAREA":" ","LANE":" ","ALLEY":" ","HOUSE_NO":"５號","E_COORD97":180050.82999999999,"N_COORD97":2566399.8300000001,"ADDRESS":"興隆街５號","OBJECTID":533391},"geometry":{"x":180050.83000000101,"y":2566399.8300000019}},{"attributes":{"ID":533419,"DIS_CODE":0,"TOWNNAME":"佳里區","LI":"鎮山里","LIN":"19鄰","STREET":"中興街","SECT":" ","MAREA":" ","LANE":" ","ALLEY":" ","HOUSE_NO":"１８號","E_COORD97":166257.67000000001,"N_COORD97":2561171.1200000001,"ADDRESS":"中興街１８號","OBJECTID":533392},"geometry":{"x":166257.67000000086,"y":2561171.1200000029}},{"attributes":{"ID":533420,"DIS_CODE":0,"TOWNNAME":"佳里區","LI":"鎮山里","LIN":"19鄰","STREET":"中興街","SECT":" ","MAREA":" ","LANE":" ","ALLEY":" ","HOUSE_NO":"１９號","E_COORD97":166235.76000000001,"N_COORD97":2561126.7400000002,"ADDRESS":"中興街１９號","OBJECTID":533393},"geometry":{"x":166235.75999999978,"y":2561126.7400000002}},{"attributes":{"ID":533421,"DIS_CODE":0,"TOWNNAME":"佳里區","LI":"鎮山里","LIN":"19鄰","STREET":"中興街","SECT":" ","MAREA":" ","LANE":" ","ALLEY":" ","HOUSE_NO":"２０號","E_COORD97":166253.67000000001,"N_COORD97":2561174.2799999998,"ADDRESS":"中興街２０號","OBJECTID":533394},"geometry":{"x":166253.66999999993,"y":2561174.2800000012}},{"attributes":{"ID":533422,"DIS_CODE":0,"TOWNNAME":"佳里區","LI":"鎮山里","LIN":"19鄰","STREET":"中興街","SECT":" ","MAREA":" ","LANE":" ","ALLEY":" ","HOUSE_NO":"２１號","E_COORD97":166232.67999999999,"N_COORD97":2561123.7000000002,"ADDRESS":"中興街２１號","OBJECTID":533395},"geometry":{"x":166232.6799999997,"y":2561123.7000000011}},{"attributes":{"ID":533423,"DIS_CODE":0,"TOWNNAME":"佳里區","LI":"鎮山里","LIN":"19鄰","STREET":"中興街","SECT":" ","MAREA":" ","LANE":" ","ALLEY":" ","HOUSE_NO":"２３號","E_COORD97":166228.39000000001,"N_COORD97":2561119.0299999998,"ADDRESS":"中興街２３號","OBJECTID":533396},"geometry":{"x":166228.38999999966,"y":2561119.0300000012}},{"attributes":{"ID":533424,"DIS_CODE":0,"TOWNNAME":"佳里區","LI":"鎮山里","LIN":"19鄰","STREET":"中興街","SECT":" ","MAREA":" ","LANE":" ","ALLEY":" ","HOUSE_NO":"２５號","E_COORD97":166222.57000000001,"N_COORD97":2561114.5099999998,"ADDRESS":"中興街２５號","OBJECTID":533397},"geometry":{"x":166222.5700000003,"y":2561114.5099999998}},{"attributes":{"ID":533425,"DIS_CODE":0,"TOWNNAME":"佳里區","LI":"鎮山里","LIN":"19鄰","STREET":"中興街","SECT":" ","MAREA":" ","LANE":" ","ALLEY":" ","HOUSE_NO":"２７號","E_COORD97":166212.89999999999,"N_COORD97":2561116.3599999999,"ADDRESS":"中興街２７號","OBJECTID":533398},"geometry":{"x":166212.9000000013,"y":2561116.3600000013}},{"attributes":{"ID":533426,"DIS_CODE":0,"TOWNNAME":"佳里區","LI":"鎮山里","LIN":"19鄰","STREET":"中興街","SECT":" ","MAREA":" ","LANE":" ","ALLEY":" ","HOUSE_NO":"３５號","E_COORD97":166225.07999999999,"N_COORD97":2561142.9300000002,"ADDRESS":"中興街３５號","OBJECTID":533399},"geometry":{"x":166225.08000000101,"y":2561142.9300000016}},{"attributes":{"ID":533427,"DIS_CODE":0,"TOWNNAME":"佳里區","LI":"鎮山里","LIN":"19鄰","STREET":"中興街","SECT":" ","MAREA":" ","LANE":" ","ALLEY":" ","HOUSE_NO":"３７號","E_COORD97":166245.51999999999,"N_COORD97":2561157.3700000001,"ADDRESS":"中興街３７號","OBJECTID":533400},"geometry":{"x":166245.51999999955,"y":2561157.370000001}}]}