{"displayFieldName":"TOWNNAME","fieldAliases":{"ID":"ID","DIS_CODE":"DIS_CODE","TOWNNAME":"TOWNNAME","LI":"LI","LIN":"LIN","STREET":"STREET","SECT":"SECT","MAREA":"MAREA","LANE":"LANE","ALLEY":"ALLEY","HOUSE_NO":"HOUSE_NO","E_COORD97":"E_COORD97","N_COORD97":"N_COORD97","ADDRESS":"ADDRESS","OBJECTID":"OBJECTID"},"geometryType":"esriGeometryPoint","spatialReference":{"wkid":102443,"latestWkid":3826},"fields":[{"name":"ID","type":"esriFieldTypeDouble","alias":"ID"},{"name":"DIS_CODE","type":"esriFieldTypeInteger","alias":"DIS_CODE"},{"name":"TOWNNAME","type":"esriFieldTypeString","alias":"TOWNNAME","length":8},{"name":"LI","type":"esriFieldTypeString","alias":"LI","length":8},{"name":"LIN","type":"esriFieldTypeString","alias":"LIN","length":12},{"name":"STREET","type":"esriFieldTypeString","alias":"STREET","length":20},{"name":"SECT","type":"esriFieldTypeString","alias":"SECT","length":8},{"name":"MAREA","type":"esriFieldTypeString","alias":"MAREA","length":12},{"name":"LANE","type":"esriFieldTypeString","alias":"LANE","length":10},{"name":"ALLEY","type":"esriFieldTypeString","alias":"ALLEY","length":10},{"name":"HOUSE_NO","type":"esriFieldTypeString","alias":"HOUSE_NO","length":20},{"name":"E_COORD97","type":"esriFieldTypeDouble","alias":"E_COORD97"},{"name":"N_COORD97","type":"esriFieldTypeDouble","alias":"N_COORD97"},{"name":"ADDRESS","type":"esriFieldTypeString","alias":"ADDRESS","length":50},{"name":"OBJECTID","type":"esriFieldTypeOID","alias":"OBJECTID"}],"features":[{"attributes":{"ID":400625,"DIS_CODE":0,"TOWNNAME":"東區","LI":"崇誨里","LIN":"11鄰","STREET":"林森路","SECT":"二段","MAREA":" ","LANE":"１９２巷","ALLEY":" ","HOUSE_NO":"２１號","E_COORD97":170533.41,"N_COORD97":2543369.8399999999,"ADDRESS":"林森路二段１９２巷２１號","OBJECTID":400601},"geometry":{"x":170533.41000000108,"y":2543369.8399999999}},{"attributes":{"ID":400626,"DIS_CODE":0,"TOWNNAME":"東區","LI":"崇誨里","LIN":"11鄰","STREET":"林森路","SECT":"二段","MAREA":" ","LANE":"１９２巷","ALLEY":" ","HOUSE_NO":"２３號","E_COORD97":170519.47,"N_COORD97":2543376.3199999998,"ADDRESS":"林森路二段１９２巷２３號","OBJECTID":400602},"geometry":{"x":170519.47000000067,"y":2543376.3200000022}},{"attributes":{"ID":400627,"DIS_CODE":0,"TOWNNAME":"東區","LI":"富裕里","LIN":"11鄰","STREET":"裕豐街","SECT":" ","MAREA":" ","LANE":"５４巷","ALLEY":" ","HOUSE_NO":"１１號","E_COORD97":170767.39999999999,"N_COORD97":2542770.4700000002,"ADDRESS":"裕豐街５４巷１１號","OBJECTID":400603},"geometry":{"x":170767.40000000224,"y":2542770.4699999988}},{"attributes":{"ID":400628,"DIS_CODE":0,"TOWNNAME":"東區","LI":"富裕里","LIN":"11鄰","STREET":"裕豐街","SECT":" ","MAREA":" ","LANE":"５４巷","ALLEY":" ","HOUSE_NO":"１３號","E_COORD97":170777.45000000001,"N_COORD97":2542771.3599999999,"ADDRESS":"裕豐街５４巷１３號","OBJECTID":400604},"geometry":{"x":170777.45000000112,"y":2542771.3600000013}},{"attributes":{"ID":400629,"DIS_CODE":0,"TOWNNAME":"東區","LI":"富裕里","LIN":"11鄰","STREET":"裕豐街","SECT":" ","MAREA":" ","LANE":"５４巷","ALLEY":" ","HOUSE_NO":"２０號","E_COORD97":170779.34,"N_COORD97":2542757.9100000001,"ADDRESS":"裕豐街５４巷２０號","OBJECTID":400605},"geometry":{"x":170779.34000000078,"y":2542757.910000002}},{"attributes":{"ID":400630,"DIS_CODE":0,"TOWNNAME":"東區","LI":"富裕里","LIN":"11鄰","STREET":"裕豐街","SECT":" ","MAREA":" ","LANE":"５４巷","ALLEY":" ","HOUSE_NO":"２１號","E_COORD97":170792.94,"N_COORD97":2542770.6099999999,"ADDRESS":"裕豐街５４巷２１號","OBJECTID":400606},"geometry":{"x":170792.94000000134,"y":2542770.6099999994}},{"attributes":{"ID":400631,"DIS_CODE":0,"TOWNNAME":"東區","LI":"富裕里","LIN":"11鄰","STREET":"裕豐街","SECT":" ","MAREA":" ","LANE":"５４巷","ALLEY":" ","HOUSE_NO":"２６號","E_COORD97":170794.48000000001,"N_COORD97":2542760.0299999998,"ADDRESS":"裕豐街５４巷２６號","OBJECTID":400607},"geometry":{"x":170794.48000000138,"y":2542760.0300000012}},{"attributes":{"ID":400632,"DIS_CODE":0,"TOWNNAME":"東區","LI":"富裕里","LIN":"11鄰","STREET":"裕豐街","SECT":" ","MAREA":" ","LANE":"５４巷","ALLEY":" ","HOUSE_NO":"５號","E_COORD97":170748.60999999999,"N_COORD97":2542767.98,"ADDRESS":"裕豐街５４巷５號","OBJECTID":400608},"geometry":{"x":170748.61000000034,"y":2542767.9800000023}},{"attributes":{"ID":400633,"DIS_CODE":0,"TOWNNAME":"東區","LI":"富裕里","LIN":"11鄰","STREET":"裕豐街","SECT":" ","MAREA":" ","LANE":"５４巷","ALLEY":" ","HOUSE_NO":"７號","E_COORD97":170753.07000000001,"N_COORD97":2542768.4300000002,"ADDRESS":"裕豐街５４巷７號","OBJECTID":400609},"geometry":{"x":170753.07000000123,"y":2542768.4299999997}},{"attributes":{"ID":400634,"DIS_CODE":0,"TOWNNAME":"東區","LI":"富裕里","LIN":"11鄰","STREET":"裕豐街","SECT":" ","MAREA":" ","LANE":"６８巷","ALLEY":" ","HOUSE_NO":"１１號","E_COORD97":170774.41,"N_COORD97":2542797.6099999999,"ADDRESS":"裕豐街６８巷１１號","OBJECTID":400610},"geometry":{"x":170774.41000000108,"y":2542797.6099999994}},{"attributes":{"ID":400635,"DIS_CODE":0,"TOWNNAME":"東區","LI":"富裕里","LIN":"11鄰","STREET":"裕豐街","SECT":" ","MAREA":" ","LANE":"６８巷","ALLEY":" ","HOUSE_NO":"１３號","E_COORD97":170778.70999999999,"N_COORD97":2542799.04,"ADDRESS":"裕豐街６８巷１３號","OBJECTID":400611},"geometry":{"x":170778.71000000089,"y":2542799.0400000028}},{"attributes":{"ID":400636,"DIS_CODE":0,"TOWNNAME":"東區","LI":"富裕里","LIN":"11鄰","STREET":"裕豐街","SECT":" ","MAREA":" ","LANE":"６８巷","ALLEY":" ","HOUSE_NO":"１４號","E_COORD97":170770.92000000001,"N_COORD97":2542784.6099999999,"ADDRESS":"裕豐街６８巷１４號","OBJECTID":400612},"geometry":{"x":170770.92000000086,"y":2542784.6099999994}},{"attributes":{"ID":400637,"DIS_CODE":0,"TOWNNAME":"東區","LI":"富裕里","LIN":"11鄰","STREET":"裕豐街","SECT":" ","MAREA":" ","LANE":"６８巷","ALLEY":" ","HOUSE_NO":"１５號","E_COORD97":170783.67999999999,"N_COORD97":2542799.5699999998,"ADDRESS":"裕豐街６８巷１５號","OBJECTID":400613},"geometry":{"x":170783.68000000063,"y":2542799.5700000003}},{"attributes":{"ID":400638,"DIS_CODE":0,"TOWNNAME":"東區","LI":"富裕里","LIN":"11鄰","STREET":"裕豐街","SECT":" ","MAREA":" ","LANE":"６８巷","ALLEY":" ","HOUSE_NO":"１６號","E_COORD97":170775.76000000001,"N_COORD97":2542785.4700000002,"ADDRESS":"裕豐街６８巷１６號","OBJECTID":400614},"geometry":{"x":170775.75999999978,"y":2542785.4700000025}},{"attributes":{"ID":400639,"DIS_CODE":0,"TOWNNAME":"東區","LI":"富裕里","LIN":"11鄰","STREET":"裕豐街","SECT":" ","MAREA":" ","LANE":"６８巷","ALLEY":" ","HOUSE_NO":"１９號","E_COORD97":170794.12,"N_COORD97":2542801.0699999998,"ADDRESS":"裕豐街６８巷１９號","OBJECTID":400615},"geometry":{"x":170794.12000000011,"y":2542801.0700000022}},{"attributes":{"ID":400640,"DIS_CODE":0,"TOWNNAME":"東區","LI":"富裕里","LIN":"11鄰","STREET":"裕豐街","SECT":" ","MAREA":" ","LANE":"６８巷","ALLEY":" ","HOUSE_NO":"２０號","E_COORD97":170785.81,"N_COORD97":2542787.5800000001,"ADDRESS":"裕豐街６８巷２０號","OBJECTID":400616},"geometry":{"x":170785.81000000145,"y":2542787.5800000019}},{"attributes":{"ID":400641,"DIS_CODE":0,"TOWNNAME":"麻豆區","LI":"東角里","LIN":"11鄰","STREET":"信義路","SECT":" ","MAREA":" ","LANE":"１３０巷","ALLEY":" ","HOUSE_NO":"２號","E_COORD97":173923.53,"N_COORD97":2564613.2999999998,"ADDRESS":"信義路１３０巷２號","OBJECTID":400617},"geometry":{"x":173923.53000000119,"y":2564613.3000000026}},{"attributes":{"ID":400642,"DIS_CODE":0,"TOWNNAME":"東區","LI":"富裕里","LIN":"11鄰","STREET":"裕豐街","SECT":" ","MAREA":" ","LANE":"６８巷","ALLEY":" ","HOUSE_NO":"２２號","E_COORD97":170790.57999999999,"N_COORD97":2542787.9399999999,"ADDRESS":"裕豐街６８巷２２號","OBJECTID":400618},"geometry":{"x":170790.58000000007,"y":2542787.9400000013}},{"attributes":{"ID":400643,"DIS_CODE":0,"TOWNNAME":"東區","LI":"富裕里","LIN":"11鄰","STREET":"裕豐街","SECT":" ","MAREA":" ","LANE":"６８巷","ALLEY":" ","HOUSE_NO":"８號","E_COORD97":170750.10999999999,"N_COORD97":2542783.6499999999,"ADDRESS":"裕豐街６８巷８號","OBJECTID":400619},"geometry":{"x":170750.11000000034,"y":2542783.6500000022}},{"attributes":{"ID":400644,"DIS_CODE":0,"TOWNNAME":"東區","LI":"富裕里","LIN":"11鄰","STREET":"裕豐街","SECT":" ","MAREA":" ","LANE":"６８巷","ALLEY":" ","HOUSE_NO":"１號","E_COORD97":170746.45000000001,"N_COORD97":2542800.96,"ADDRESS":"裕豐街６８巷１號","OBJECTID":400620},"geometry":{"x":170746.45000000205,"y":2542800.9600000009}},{"attributes":{"ID":400645,"DIS_CODE":0,"TOWNNAME":"東區","LI":"富裕里","LIN":"11鄰","STREET":"裕豐街","SECT":" ","MAREA":" ","LANE":"６８巷","ALLEY":" ","HOUSE_NO":"６號","E_COORD97":170744.95000000001,"N_COORD97":2542783.52,"ADDRESS":"裕豐街６８巷６號","OBJECTID":400621},"geometry":{"x":170744.95000000112,"y":2542783.5200000014}},{"attributes":{"ID":400646,"DIS_CODE":0,"TOWNNAME":"東區","LI":"富裕里","LIN":"11鄰","STREET":"裕豐街","SECT":" ","MAREA":" ","LANE":"５４巷","ALLEY":" ","HOUSE_NO":"２２號","E_COORD97":170784.34,"N_COORD97":2542758.8100000001,"ADDRESS":"裕豐街５４巷２２號","OBJECTID":400622},"geometry":{"x":170784.34000000078,"y":2542758.8100000024}},{"attributes":{"ID":400647,"DIS_CODE":0,"TOWNNAME":"東區","LI":"富裕里","LIN":"11鄰","STREET":"裕豐街","SECT":" ","MAREA":" ","LANE":"５４巷","ALLEY":" ","HOUSE_NO":"２４號","E_COORD97":170789.39000000001,"N_COORD97":2542759.6000000001,"ADDRESS":"裕豐街５４巷２４號","OBJECTID":400623},"geometry":{"x":170789.3900000006,"y":2542759.6000000015}},{"attributes":{"ID":400648,"DIS_CODE":0,"TOWNNAME":"東區","LI":"富裕里","LIN":"11鄰","STREET":"裕豐街","SECT":" ","MAREA":" ","LANE":"６８巷","ALLEY":" ","HOUSE_NO":"１７號","E_COORD97":170788.75,"N_COORD97":2542800.4399999999,"ADDRESS":"裕豐街６８巷１７號","OBJECTID":400624},"geometry":{"x":170788.75000000093,"y":2542800.4400000032}},{"attributes":{"ID":400649,"DIS_CODE":0,"TOWNNAME":"東區","LI":"圍下里","LIN":"11鄰","STREET":"青年路","SECT":" ","MAREA":" ","LANE":"２２５巷","ALLEY":" ","HOUSE_NO":"１０號","E_COORD97":169244.16,"N_COORD97":2543604.5499999998,"ADDRESS":"青年路２２５巷１０號","OBJECTID":400625},"geometry":{"x":169244.16000000015,"y":2543604.5500000045}},{"attributes":{"ID":400650,"DIS_CODE":0,"TOWNNAME":"東區","LI":"圍下里","LIN":"11鄰","STREET":"青年路","SECT":" ","MAREA":" ","LANE":"２２５巷","ALLEY":" ","HOUSE_NO":"１１號","E_COORD97":169235.23999999999,"N_COORD97":2543616.6299999999,"ADDRESS":"青年路２２５巷１１號","OBJECTID":400626},"geometry":{"x":169235.24000000022,"y":2543616.6300000008}},{"attributes":{"ID":400651,"DIS_CODE":0,"TOWNNAME":"東區","LI":"圍下里","LIN":"11鄰","STREET":"青年路","SECT":" ","MAREA":" ","LANE":"２２５巷","ALLEY":" ","HOUSE_NO":"１２號","E_COORD97":169244.88,"N_COORD97":2543610.3300000001,"ADDRESS":"青年路２２５巷１２號","OBJECTID":400627},"geometry":{"x":169244.88000000082,"y":2543610.3300000001}},{"attributes":{"ID":400652,"DIS_CODE":0,"TOWNNAME":"東區","LI":"圍下里","LIN":"11鄰","STREET":"青年路","SECT":" ","MAREA":" ","LANE":"２２５巷","ALLEY":" ","HOUSE_NO":"１３號","E_COORD97":169236.54000000001,"N_COORD97":2543621.02,"ADDRESS":"青年路２２５巷１３號","OBJECTID":400628},"geometry":{"x":169236.54000000004,"y":2543621.0200000014}},{"attributes":{"ID":400653,"DIS_CODE":0,"TOWNNAME":"東區","LI":"圍下里","LIN":"11鄰","STREET":"青年路","SECT":" ","MAREA":" ","LANE":"２２５巷","ALLEY":" ","HOUSE_NO":"１４號","E_COORD97":169245.06,"N_COORD97":2543615.3900000001,"ADDRESS":"青年路２２５巷１４號","OBJECTID":400629},"geometry":{"x":169245.06000000052,"y":2543615.3900000043}},{"attributes":{"ID":400654,"DIS_CODE":0,"TOWNNAME":"東區","LI":"圍下里","LIN":"11鄰","STREET":"青年路","SECT":" ","MAREA":" ","LANE":"２２５巷","ALLEY":" ","HOUSE_NO":"１５號","E_COORD97":169235.73000000001,"N_COORD97":2543624.9100000001,"ADDRESS":"青年路２２５巷１５號","OBJECTID":400630},"geometry":{"x":169235.73000000045,"y":2543624.9100000039}},{"attributes":{"ID":400655,"DIS_CODE":0,"TOWNNAME":"東區","LI":"圍下里","LIN":"11鄰","STREET":"青年路","SECT":" ","MAREA":" ","LANE":"２２５巷","ALLEY":" ","HOUSE_NO":"１號","E_COORD97":169233.12,"N_COORD97":2543590.7999999998,"ADDRESS":"青年路２２５巷１號","OBJECTID":400631},"geometry":{"x":169233.12000000197,"y":2543590.8000000007}},{"attributes":{"ID":400656,"DIS_CODE":0,"TOWNNAME":"東區","LI":"圍下里","LIN":"11鄰","STREET":"青年路","SECT":" ","MAREA":" ","LANE":"２２５巷","ALLEY":" ","HOUSE_NO":"２號","E_COORD97":169243.25,"N_COORD97":2543587.2200000002,"ADDRESS":"青年路２２５巷２號","OBJECTID":400632},"geometry":{"x":169243.25,"y":2543587.2200000025}},{"attributes":{"ID":400657,"DIS_CODE":0,"TOWNNAME":"東區","LI":"大智里","LIN":"11鄰","STREET":"德東街","SECT":" ","MAREA":" ","LANE":"１３６巷","ALLEY":" ","HOUSE_NO":"１１號","E_COORD97":171223.51999999999,"N_COORD97":2540212.6200000001,"ADDRESS":"德東街１３６巷１１號","OBJECTID":400633},"geometry":{"x":171223.52000000048,"y":2540212.620000001}},{"attributes":{"ID":400658,"DIS_CODE":0,"TOWNNAME":"東區","LI":"大智里","LIN":"11鄰","STREET":"德東街","SECT":" ","MAREA":" ","LANE":"１３６巷","ALLEY":" ","HOUSE_NO":"１３號","E_COORD97":171223.70000000001,"N_COORD97":2540208.3900000001,"ADDRESS":"德東街１３６巷１３號","OBJECTID":400634},"geometry":{"x":171223.70000000019,"y":2540208.3900000025}},{"attributes":{"ID":400659,"DIS_CODE":0,"TOWNNAME":"東區","LI":"大智里","LIN":"11鄰","STREET":"德東街","SECT":" ","MAREA":" ","LANE":"１３６巷","ALLEY":" ","HOUSE_NO":"１５號","E_COORD97":171223.89000000001,"N_COORD97":2540204.1499999999,"ADDRESS":"德東街１３６巷１５號","OBJECTID":400635},"geometry":{"x":171223.88999999966,"y":2540204.1500000022}},{"attributes":{"ID":400660,"DIS_CODE":0,"TOWNNAME":"東區","LI":"大智里","LIN":"23鄰","STREET":"德東街","SECT":" ","MAREA":" ","LANE":"１８０巷","ALLEY":" ","HOUSE_NO":"１０號","E_COORD97":171295.42999999999,"N_COORD97":2540197.0499999998,"ADDRESS":"德東街１８０巷１０號","OBJECTID":400636},"geometry":{"x":171295.43000000156,"y":2540197.0500000045}},{"attributes":{"ID":400661,"DIS_CODE":0,"TOWNNAME":"東區","LI":"大智里","LIN":"23鄰","STREET":"德東街","SECT":" ","MAREA":" ","LANE":"１８０巷","ALLEY":" ","HOUSE_NO":"１２號","E_COORD97":171286.20000000001,"N_COORD97":2540197.0499999998,"ADDRESS":"德東街１８０巷１２號","OBJECTID":400637},"geometry":{"x":171286.20000000112,"y":2540197.0500000045}},{"attributes":{"ID":400662,"DIS_CODE":0,"TOWNNAME":"東區","LI":"大智里","LIN":"23鄰","STREET":"德東街","SECT":" ","MAREA":" ","LANE":"１８０巷","ALLEY":" ","HOUSE_NO":"１號","E_COORD97":171302.92000000001,"N_COORD97":2540230.4700000002,"ADDRESS":"德東街１８０巷１號","OBJECTID":400638},"geometry":{"x":171302.92000000086,"y":2540230.4700000007}},{"attributes":{"ID":400663,"DIS_CODE":0,"TOWNNAME":"東區","LI":"大智里","LIN":"23鄰","STREET":"德東街","SECT":" ","MAREA":" ","LANE":"１８０巷","ALLEY":" ","HOUSE_NO":"２號","E_COORD97":171284.89999999999,"N_COORD97":2540230.4700000002,"ADDRESS":"德東街１８０巷２號","OBJECTID":400639},"geometry":{"x":171284.9000000013,"y":2540230.4700000007}},{"attributes":{"ID":400664,"DIS_CODE":0,"TOWNNAME":"東區","LI":"大智里","LIN":"23鄰","STREET":"德東街","SECT":" ","MAREA":" ","LANE":"１８０巷","ALLEY":" ","HOUSE_NO":"３號","E_COORD97":171302.48999999999,"N_COORD97":2540224.71,"ADDRESS":"德東街１８０巷３號","OBJECTID":400640},"geometry":{"x":171302.49000000115,"y":2540224.7100000028}},{"attributes":{"ID":400665,"DIS_CODE":0,"TOWNNAME":"東區","LI":"大智里","LIN":"23鄰","STREET":"德東街","SECT":" ","MAREA":" ","LANE":"１８０巷","ALLEY":" ","HOUSE_NO":"４號","E_COORD97":171285.91,"N_COORD97":2540224.27,"ADDRESS":"德東街１８０巷４號","OBJECTID":400641},"geometry":{"x":171285.91000000108,"y":2540224.2699999996}},{"attributes":{"ID":400666,"DIS_CODE":0,"TOWNNAME":"東區","LI":"大智里","LIN":"11鄰","STREET":"德東街","SECT":" ","MAREA":" ","LANE":"１３６巷","ALLEY":" ","HOUSE_NO":"６號","E_COORD97":171185.37,"N_COORD97":2540227.5,"ADDRESS":"德東街１３６巷６號","OBJECTID":400642},"geometry":{"x":171185.37000000011,"y":2540227.5000000019}},{"attributes":{"ID":400667,"DIS_CODE":0,"TOWNNAME":"東區","LI":"大智里","LIN":"11鄰","STREET":"德東街","SECT":" ","MAREA":" ","LANE":"１３６巷","ALLEY":" ","HOUSE_NO":"８號","E_COORD97":171188.17000000001,"N_COORD97":2540217.29,"ADDRESS":"德東街１３６巷８號","OBJECTID":400643},"geometry":{"x":171188.16999999993,"y":2540217.2900000028}},{"attributes":{"ID":400668,"DIS_CODE":0,"TOWNNAME":"東區","LI":"大智里","LIN":"11鄰","STREET":"德東街","SECT":" ","MAREA":" ","LANE":"１３６巷","ALLEY":" ","HOUSE_NO":"１０號","E_COORD97":171191.31,"N_COORD97":2540211.6000000001,"ADDRESS":"德東街１３６巷１０號","OBJECTID":400644},"geometry":{"x":171191.31000000052,"y":2540211.5999999996}},{"attributes":{"ID":400669,"DIS_CODE":0,"TOWNNAME":"東區","LI":"大智里","LIN":"11鄰","STREET":"德東街","SECT":" ","MAREA":" ","LANE":"１３６巷","ALLEY":" ","HOUSE_NO":"１２號","E_COORD97":171185.48000000001,"N_COORD97":2540206.9199999999,"ADDRESS":"德東街１３６巷１２號","OBJECTID":400645},"geometry":{"x":171185.47999999952,"y":2540206.9199999981}},{"attributes":{"ID":400670,"DIS_CODE":0,"TOWNNAME":"東區","LI":"大智里","LIN":"11鄰","STREET":"德東街","SECT":" ","MAREA":" ","LANE":"１３６巷","ALLEY":" ","HOUSE_NO":"１６號","E_COORD97":171191.70000000001,"N_COORD97":2540203.1200000001,"ADDRESS":"德東街１３６巷１６號","OBJECTID":400646},"geometry":{"x":171191.70000000019,"y":2540203.120000001}},{"attributes":{"ID":400671,"DIS_CODE":0,"TOWNNAME":"永康區","LI":"尚頂里","LIN":"11鄰","STREET":"正南一街","SECT":" ","MAREA":" ","LANE":"５７巷","ALLEY":" ","HOUSE_NO":"６號","E_COORD97":171110.53,"N_COORD97":2547274.1400000001,"ADDRESS":"正南一街５７巷６號","OBJECTID":400647},"geometry":{"x":171110.53000000212,"y":2547274.1400000006}},{"attributes":{"ID":400672,"DIS_CODE":0,"TOWNNAME":"永康區","LI":"西勢里","LIN":"11鄰","STREET":"廣興街","SECT":" ","MAREA":" ","LANE":"５３巷","ALLEY":" ","HOUSE_NO":"２號","E_COORD97":175885.64999999999,"N_COORD97":2546604.5299999998,"ADDRESS":"廣興街５３巷２號","OBJECTID":400648},"geometry":{"x":175885.6500000013,"y":2546604.5300000012}},{"attributes":{"ID":400673,"DIS_CODE":0,"TOWNNAME":"永康區","LI":"尚頂里","LIN":"11鄰","STREET":"正南一街","SECT":" ","MAREA":" ","LANE":"５７巷","ALLEY":" ","HOUSE_NO":"３０號","E_COORD97":171182.66,"N_COORD97":2547224.2200000002,"ADDRESS":"正南一街５７巷３０號","OBJECTID":400649},"geometry":{"x":171182.66000000108,"y":2547224.2200000044}},{"attributes":{"ID":400674,"DIS_CODE":0,"TOWNNAME":"安南區","LI":"溪北里","LIN":"11鄰","STREET":"府安路","SECT":"四段","MAREA":" ","LANE":"３４巷","ALLEY":" ","HOUSE_NO":"１７號","E_COORD97":169349.75,"N_COORD97":2547356.9199999999,"ADDRESS":"府安路四段３４巷１７號","OBJECTID":400650},"geometry":{"x":169349.75000000093,"y":2547356.9199999999}},{"attributes":{"ID":400675,"DIS_CODE":0,"TOWNNAME":"麻豆區","LI":"東角里","LIN":"11鄰","STREET":"信義路","SECT":" ","MAREA":" ","LANE":"１３０巷","ALLEY":" ","HOUSE_NO":"３號","E_COORD97":173944.73000000001,"N_COORD97":2564609.5499999998,"ADDRESS":"信義路１３０巷３號","OBJECTID":400651},"geometry":{"x":173944.73000000045,"y":2564609.5500000007}},{"attributes":{"ID":400676,"DIS_CODE":0,"TOWNNAME":"中西區","LI":"安海里","LIN":"13鄰","STREET":"環河街","SECT":" ","MAREA":" ","LANE":" ","ALLEY":" ","HOUSE_NO":"１０６號","E_COORD97":167244.70000000001,"N_COORD97":2544024.4900000002,"ADDRESS":"環河街１０６號","OBJECTID":400652},"geometry":{"x":167244.70000000112,"y":2544024.4900000039}},{"attributes":{"ID":400677,"DIS_CODE":0,"TOWNNAME":"安南區","LI":"溪北里","LIN":"11鄰","STREET":"府安路","SECT":"四段","MAREA":" ","LANE":"３４巷","ALLEY":" ","HOUSE_NO":"１９號","E_COORD97":169348.88,"N_COORD97":2547360.8399999999,"ADDRESS":"府安路四段３４巷１９號","OBJECTID":400653},"geometry":{"x":169348.88000000082,"y":2547360.8399999999}},{"attributes":{"ID":400678,"DIS_CODE":0,"TOWNNAME":"安南區","LI":"溪北里","LIN":"11鄰","STREET":"府安路","SECT":"四段","MAREA":" ","LANE":"３４巷","ALLEY":" ","HOUSE_NO":"２１號","E_COORD97":169347.75,"N_COORD97":2547364.7599999998,"ADDRESS":"府安路四段３４巷２１號","OBJECTID":400654},"geometry":{"x":169347.75000000093,"y":2547364.7599999998}},{"attributes":{"ID":400679,"DIS_CODE":0,"TOWNNAME":"安南區","LI":"溪北里","LIN":"11鄰","STREET":"府安路","SECT":"四段","MAREA":" ","LANE":"３４巷","ALLEY":" ","HOUSE_NO":"２３號","E_COORD97":169346.70000000001,"N_COORD97":2547368.4199999999,"ADDRESS":"府安路四段３４巷２３號","OBJECTID":400655},"geometry":{"x":169346.70000000112,"y":2547368.4200000018}},{"attributes":{"ID":400680,"DIS_CODE":0,"TOWNNAME":"安南區","LI":"溪北里","LIN":"11鄰","STREET":"府安路","SECT":"四段","MAREA":" ","LANE":"３４巷","ALLEY":" ","HOUSE_NO":"２５號","E_COORD97":169345.29999999999,"N_COORD97":2547372.3500000001,"ADDRESS":"府安路四段３４巷２５號","OBJECTID":400656},"geometry":{"x":169345.30000000075,"y":2547372.3500000015}},{"attributes":{"ID":400681,"DIS_CODE":0,"TOWNNAME":"安南區","LI":"溪北里","LIN":"11鄰","STREET":"府安路","SECT":"四段","MAREA":" ","LANE":"３４巷","ALLEY":" ","HOUSE_NO":"２７號","E_COORD97":169344.20999999999,"N_COORD97":2547375.4700000002,"ADDRESS":"府安路四段３４巷２７號","OBJECTID":400657},"geometry":{"x":169344.21000000183,"y":2547375.4700000025}},{"attributes":{"ID":400682,"DIS_CODE":0,"TOWNNAME":"安南區","LI":"溪北里","LIN":"11鄰","STREET":"府安路","SECT":"四段","MAREA":" ","LANE":"３４巷","ALLEY":" ","HOUSE_NO":"２９號","E_COORD97":169342.04000000001,"N_COORD97":2547379.5499999998,"ADDRESS":"府安路四段３４巷２９號","OBJECTID":400658},"geometry":{"x":169342.0400000019,"y":2547379.5500000007}},{"attributes":{"ID":400683,"DIS_CODE":0,"TOWNNAME":"安南區","LI":"溪北里","LIN":"11鄰","STREET":"府安路","SECT":"四段","MAREA":" ","LANE":"３４巷","ALLEY":" ","HOUSE_NO":"３１號","E_COORD97":169340.82000000001,"N_COORD97":2547383.7599999998,"ADDRESS":"府安路四段３４巷３１號","OBJECTID":400659},"geometry":{"x":169340.82000000123,"y":2547383.7600000016}},{"attributes":{"ID":400684,"DIS_CODE":0,"TOWNNAME":"安南區","LI":"溪北里","LIN":"11鄰","STREET":"府安路","SECT":"四段","MAREA":" ","LANE":"３４巷","ALLEY":" ","HOUSE_NO":"３３號","E_COORD97":169339.73000000001,"N_COORD97":2547387.96,"ADDRESS":"府安路四段３４巷３３號","OBJECTID":400660},"geometry":{"x":169339.73000000138,"y":2547387.9600000009}},{"attributes":{"ID":400685,"DIS_CODE":0,"TOWNNAME":"安南區","LI":"溪北里","LIN":"11鄰","STREET":"府安路","SECT":"四段","MAREA":" ","LANE":"３４巷","ALLEY":" ","HOUSE_NO":"３７號","E_COORD97":169344.06,"N_COORD97":2547397.3900000001,"ADDRESS":"府安路四段３４巷３７號","OBJECTID":400661},"geometry":{"x":169344.05999999959,"y":2547397.3900000006}},{"attributes":{"ID":400686,"DIS_CODE":0,"TOWNNAME":"安南區","LI":"溪北里","LIN":"11鄰","STREET":"府安路","SECT":"四段","MAREA":" ","LANE":"３４巷","ALLEY":" ","HOUSE_NO":"３９號","E_COORD97":169343.64000000001,"N_COORD97":2547401.2400000002,"ADDRESS":"府安路四段３４巷３９號","OBJECTID":400662},"geometry":{"x":169343.63999999966,"y":2547401.2400000021}},{"attributes":{"ID":400687,"DIS_CODE":0,"TOWNNAME":"安南區","LI":"溪北里","LIN":"11鄰","STREET":"府安路","SECT":"四段","MAREA":" ","LANE":"３４巷","ALLEY":" ","HOUSE_NO":"４３號","E_COORD97":169343.78,"N_COORD97":2547409.6699999999,"ADDRESS":"府安路四段３４巷４３號","OBJECTID":400663},"geometry":{"x":169343.78000000026,"y":2547409.6699999999}},{"attributes":{"ID":400688,"DIS_CODE":0,"TOWNNAME":"麻豆區","LI":"東角里","LIN":"11鄰","STREET":"信義路","SECT":" ","MAREA":" ","LANE":"１２３巷","ALLEY":" ","HOUSE_NO":"１１號","E_COORD97":173869.63,"N_COORD97":2564682.3900000001,"ADDRESS":"信義路１２３巷１１號","OBJECTID":400664},"geometry":{"x":173869.63000000082,"y":2564682.3900000006}},{"attributes":{"ID":400689,"DIS_CODE":0,"TOWNNAME":"麻豆區","LI":"東角里","LIN":"11鄰","STREET":"信義路","SECT":" ","MAREA":" ","LANE":"１２３巷","ALLEY":" ","HOUSE_NO":"１３號","E_COORD97":173865.60000000001,"N_COORD97":2564682.3399999999,"ADDRESS":"信義路１２３巷１３號","OBJECTID":400665},"geometry":{"x":173865.5999999987,"y":2564682.3399999999}},{"attributes":{"ID":400690,"DIS_CODE":0,"TOWNNAME":"麻豆區","LI":"東角里","LIN":"11鄰","STREET":"信義路","SECT":" ","MAREA":" ","LANE":"１２３巷","ALLEY":" ","HOUSE_NO":"１５號","E_COORD97":173861.39999999999,"N_COORD97":2564682.5,"ADDRESS":"信義路１２３巷１５號","OBJECTID":400666},"geometry":{"x":173861.4000000013,"y":2564682.5000000019}},{"attributes":{"ID":400691,"DIS_CODE":0,"TOWNNAME":"麻豆區","LI":"東角里","LIN":"11鄰","STREET":"信義路","SECT":" ","MAREA":" ","LANE":"１２３巷","ALLEY":" ","HOUSE_NO":"１７號","E_COORD97":173852.26000000001,"N_COORD97":2564704.3199999998,"ADDRESS":"信義路１２３巷１７號","OBJECTID":400667},"geometry":{"x":173852.25999999978,"y":2564704.3200000022}},{"attributes":{"ID":400692,"DIS_CODE":0,"TOWNNAME":"麻豆區","LI":"東角里","LIN":"11鄰","STREET":"信義路","SECT":" ","MAREA":" ","LANE":"１２３巷","ALLEY":" ","HOUSE_NO":"１９號","E_COORD97":173857.32000000001,"N_COORD97":2564704.4199999999,"ADDRESS":"信義路１２３巷１９號","OBJECTID":400668},"geometry":{"x":173857.3200000003,"y":2564704.4199999999}},{"attributes":{"ID":400693,"DIS_CODE":0,"TOWNNAME":"麻豆區","LI":"東角里","LIN":"11鄰","STREET":"信義路","SECT":" ","MAREA":" ","LANE":"１２３巷","ALLEY":" ","HOUSE_NO":"１號","E_COORD97":173886.92000000001,"N_COORD97":2564670.1000000001,"ADDRESS":"信義路１２３巷１號","OBJECTID":400669},"geometry":{"x":173886.91999999993,"y":2564670.0999999996}},{"attributes":{"ID":400694,"DIS_CODE":0,"TOWNNAME":"麻豆區","LI":"東角里","LIN":"11鄰","STREET":"信義路","SECT":" ","MAREA":" ","LANE":"１２３巷","ALLEY":" ","HOUSE_NO":"２１號","E_COORD97":173861.92999999999,"N_COORD97":2564704.2799999998,"ADDRESS":"信義路１２３巷２１號","OBJECTID":400670},"geometry":{"x":173861.93000000156,"y":2564704.2800000012}},{"attributes":{"ID":400695,"DIS_CODE":0,"TOWNNAME":"麻豆區","LI":"東角里","LIN":"11鄰","STREET":"信義路","SECT":" ","MAREA":" ","LANE":"１２３巷","ALLEY":" ","HOUSE_NO":"２３號","E_COORD97":173868.01999999999,"N_COORD97":2564704.7200000002,"ADDRESS":"信義路１２３巷２３號","OBJECTID":400671},"geometry":{"x":173868.02000000048,"y":2564704.7200000044}},{"attributes":{"ID":400696,"DIS_CODE":0,"TOWNNAME":"麻豆區","LI":"東角里","LIN":"11鄰","STREET":"信義路","SECT":" ","MAREA":" ","LANE":"１２３巷","ALLEY":" ","HOUSE_NO":"２５號","E_COORD97":173885.79000000001,"N_COORD97":2564695.0099999998,"ADDRESS":"信義路１２３巷２５號","OBJECTID":400672},"geometry":{"x":173885.79000000097,"y":2564695.0100000035}},{"attributes":{"ID":400697,"DIS_CODE":0,"TOWNNAME":"麻豆區","LI":"東角里","LIN":"11鄰","STREET":"信義路","SECT":" ","MAREA":" ","LANE":"１２３巷","ALLEY":" ","HOUSE_NO":"２７號","E_COORD97":173885.37,"N_COORD97":2564699.1699999999,"ADDRESS":"信義路１２３巷２７號","OBJECTID":400673},"geometry":{"x":173885.37000000104,"y":2564699.1700000018}},{"attributes":{"ID":400698,"DIS_CODE":0,"TOWNNAME":"麻豆區","LI":"東角里","LIN":"11鄰","STREET":"信義路","SECT":" ","MAREA":" ","LANE":"１２３巷","ALLEY":" ","HOUSE_NO":"２９號","E_COORD97":173885.22,"N_COORD97":2564703.9100000001,"ADDRESS":"信義路１２３巷２９號","OBJECTID":400674},"geometry":{"x":173885.21999999881,"y":2564703.910000002}},{"attributes":{"ID":400699,"DIS_CODE":0,"TOWNNAME":"麻豆區","LI":"東角里","LIN":"11鄰","STREET":"信義路","SECT":" ","MAREA":" ","LANE":"１２３巷","ALLEY":" ","HOUSE_NO":"３１號","E_COORD97":173885.04999999999,"N_COORD97":2564708.2000000002,"ADDRESS":"信義路１２３巷３１號","OBJECTID":400675},"geometry":{"x":173885.05000000075,"y":2564708.2000000011}},{"attributes":{"ID":400700,"DIS_CODE":0,"TOWNNAME":"麻豆區","LI":"東角里","LIN":"11鄰","STREET":"信義路","SECT":" ","MAREA":" ","LANE":"１２３巷","ALLEY":" ","HOUSE_NO":"３號","E_COORD97":173886.41,"N_COORD97":2564675.0899999999,"ADDRESS":"信義路１２３巷３號","OBJECTID":400676},"geometry":{"x":173886.41000000108,"y":2564675.0900000017}},{"attributes":{"ID":400701,"DIS_CODE":0,"TOWNNAME":"麻豆區","LI":"東角里","LIN":"11鄰","STREET":"信義路","SECT":" ","MAREA":" ","LANE":"１２３巷","ALLEY":" ","HOUSE_NO":"５號","E_COORD97":173886.76999999999,"N_COORD97":2564679.71,"ADDRESS":"信義路１２３巷５號","OBJECTID":400677},"geometry":{"x":173886.77000000048,"y":2564679.7100000009}},{"attributes":{"ID":400702,"DIS_CODE":0,"TOWNNAME":"麻豆區","LI":"東角里","LIN":"11鄰","STREET":"信義路","SECT":" ","MAREA":" ","LANE":"１２３巷","ALLEY":" ","HOUSE_NO":"７號","E_COORD97":173886.92999999999,"N_COORD97":2564684.6299999999,"ADDRESS":"信義路１２３巷７號","OBJECTID":400678},"geometry":{"x":173886.9299999997,"y":2564684.6300000008}},{"attributes":{"ID":400703,"DIS_CODE":0,"TOWNNAME":"麻豆區","LI":"東角里","LIN":"11鄰","STREET":"信義路","SECT":" ","MAREA":" ","LANE":"１２３巷","ALLEY":" ","HOUSE_NO":"９號","E_COORD97":173874.31,"N_COORD97":2564682.29,"ADDRESS":"信義路１２３巷９號","OBJECTID":400679},"geometry":{"x":173874.30999999866,"y":2564682.2900000028}},{"attributes":{"ID":400704,"DIS_CODE":0,"TOWNNAME":"麻豆區","LI":"東角里","LIN":"11鄰","STREET":"信義路","SECT":" ","MAREA":" ","LANE":"１３０巷","ALLEY":" ","HOUSE_NO":"１０號","E_COORD97":173924.04999999999,"N_COORD97":2564595.9300000002,"ADDRESS":"信義路１３０巷１０號","OBJECTID":400680},"geometry":{"x":173924.05000000075,"y":2564595.9299999997}},{"attributes":{"ID":400705,"DIS_CODE":0,"TOWNNAME":"麻豆區","LI":"東角里","LIN":"11鄰","STREET":"信義路","SECT":" ","MAREA":" ","LANE":"１３０巷","ALLEY":" ","HOUSE_NO":"１１號","E_COORD97":173945.64000000001,"N_COORD97":2564590.46,"ADDRESS":"信義路１３０巷１１號","OBJECTID":400681},"geometry":{"x":173945.6400000006,"y":2564590.4600000009}},{"attributes":{"ID":400706,"DIS_CODE":0,"TOWNNAME":"麻豆區","LI":"東角里","LIN":"11鄰","STREET":"信義路","SECT":" ","MAREA":" ","LANE":"１３０巷","ALLEY":" ","HOUSE_NO":"１２號","E_COORD97":173924.01999999999,"N_COORD97":2564591.48,"ADDRESS":"信義路１３０巷１２號","OBJECTID":400682},"geometry":{"x":173924.02000000048,"y":2564591.4800000023}},{"attributes":{"ID":400707,"DIS_CODE":0,"TOWNNAME":"麻豆區","LI":"東角里","LIN":"11鄰","STREET":"信義路","SECT":" ","MAREA":" ","LANE":"１３０巷","ALLEY":" ","HOUSE_NO":"１４號","E_COORD97":173923.91,"N_COORD97":2564587.29,"ADDRESS":"信義路１３０巷１４號","OBJECTID":400683},"geometry":{"x":173923.91000000108,"y":2564587.2900000028}},{"attributes":{"ID":400708,"DIS_CODE":0,"TOWNNAME":"麻豆區","LI":"東角里","LIN":"11鄰","STREET":"信義路","SECT":" ","MAREA":" ","LANE":"１３０巷","ALLEY":" ","HOUSE_NO":"１６號","E_COORD97":173924.48000000001,"N_COORD97":2564582.4199999999,"ADDRESS":"信義路１３０巷１６號","OBJECTID":400684},"geometry":{"x":173924.48000000045,"y":2564582.4199999999}},{"attributes":{"ID":400709,"DIS_CODE":0,"TOWNNAME":"麻豆區","LI":"東角里","LIN":"11鄰","STREET":"信義路","SECT":" ","MAREA":" ","LANE":"１３０巷","ALLEY":" ","HOUSE_NO":"１號","E_COORD97":173945.01999999999,"N_COORD97":2564614.6200000001,"ADDRESS":"信義路１３０巷１號","OBJECTID":400685},"geometry":{"x":173945.01999999955,"y":2564614.6200000029}},{"attributes":{"ID":400710,"DIS_CODE":0,"TOWNNAME":"麻豆區","LI":"東角里","LIN":"11鄰","STREET":"信義路","SECT":" ","MAREA":" ","LANE":"１３０巷","ALLEY":" ","HOUSE_NO":"４號","E_COORD97":173923.70000000001,"N_COORD97":2564609.1699999999,"ADDRESS":"信義路１３０巷４號","OBJECTID":400686},"geometry":{"x":173923.70000000112,"y":2564609.1699999981}},{"attributes":{"ID":400711,"DIS_CODE":0,"TOWNNAME":"麻豆區","LI":"東角里","LIN":"11鄰","STREET":"信義路","SECT":" ","MAREA":" ","LANE":"１３０巷","ALLEY":" ","HOUSE_NO":"５號","E_COORD97":173945.38,"N_COORD97":2564604.77,"ADDRESS":"信義路１３０巷５號","OBJECTID":400687},"geometry":{"x":173945.38000000175,"y":2564604.7699999977}},{"attributes":{"ID":400712,"DIS_CODE":0,"TOWNNAME":"麻豆區","LI":"東角里","LIN":"11鄰","STREET":"信義路","SECT":" ","MAREA":" ","LANE":"１３０巷","ALLEY":" ","HOUSE_NO":"６號","E_COORD97":173924.29999999999,"N_COORD97":2564605.52,"ADDRESS":"信義路１３０巷６號","OBJECTID":400688},"geometry":{"x":173924.30000000075,"y":2564605.5199999996}},{"attributes":{"ID":400713,"DIS_CODE":0,"TOWNNAME":"麻豆區","LI":"東角里","LIN":"11鄰","STREET":"信義路","SECT":" ","MAREA":" ","LANE":"１３０巷","ALLEY":" ","HOUSE_NO":"７號","E_COORD97":173945.29999999999,"N_COORD97":2564599.8500000001,"ADDRESS":"信義路１３０巷７號","OBJECTID":400689},"geometry":{"x":173945.29999999981,"y":2564599.8499999996}},{"attributes":{"ID":400714,"DIS_CODE":0,"TOWNNAME":"麻豆區","LI":"東角里","LIN":"11鄰","STREET":"信義路","SECT":" ","MAREA":" ","LANE":"１３０巷","ALLEY":" ","HOUSE_NO":"８號","E_COORD97":173924,"N_COORD97":2564600.9700000002,"ADDRESS":"信義路１３０巷８號","OBJECTID":400690},"geometry":{"x":173924,"y":2564600.9700000007}},{"attributes":{"ID":400715,"DIS_CODE":0,"TOWNNAME":"永康區","LI":"龍潭里","LIN":"11鄰","STREET":"龍橋街","SECT":" ","MAREA":" ","LANE":"３巷","ALLEY":" ","HOUSE_NO":"２２號","E_COORD97":174807.35000000001,"N_COORD97":2548323.2999999998,"ADDRESS":"龍橋街３巷２２號","OBJECTID":400691},"geometry":{"x":174807.35000000056,"y":2548323.3000000026}},{"attributes":{"ID":400716,"DIS_CODE":0,"TOWNNAME":"永康區","LI":"\u25A0行里","LIN":"11鄰","STREET":"中正路","SECT":" ","MAREA":" ","LANE":"５１９巷","ALLEY":" ","HOUSE_NO":"１８號","E_COORD97":172139.76000000001,"N_COORD97":2548640.7400000002,"ADDRESS":"中正路５１９巷１８號","OBJECTID":400692},"geometry":{"x":172139.76000000071,"y":2548640.7400000039}},{"attributes":{"ID":400717,"DIS_CODE":0,"TOWNNAME":"永康區","LI":"\u25A0行里","LIN":"11鄰","STREET":"中正路","SECT":" ","MAREA":" ","LANE":"５１９巷","ALLEY":" ","HOUSE_NO":"８號","E_COORD97":172162.04999999999,"N_COORD97":2548661.7400000002,"ADDRESS":"中正路５１９巷８號","OBJECTID":400693},"geometry":{"x":172162.04999999981,"y":2548661.7400000021}},{"attributes":{"ID":400718,"DIS_CODE":0,"TOWNNAME":"永康區","LI":"網寮里","LIN":"11鄰","STREET":"永二街","SECT":" ","MAREA":" ","LANE":"２４４巷","ALLEY":" ","HOUSE_NO":"２０號","E_COORD97":173289.25,"N_COORD97":2546466.29,"ADDRESS":"永二街２４４巷２０號","OBJECTID":400694},"geometry":{"x":173289.25000000093,"y":2546466.290000001}},{"attributes":{"ID":400719,"DIS_CODE":0,"TOWNNAME":"永康區","LI":"網寮里","LIN":"11鄰","STREET":"永勝街","SECT":" ","MAREA":" ","LANE":"２３０巷","ALLEY":" ","HOUSE_NO":"２號","E_COORD97":173359.51000000001,"N_COORD97":2546542.3700000001,"ADDRESS":"永勝街２３０巷２號","OBJECTID":400695},"geometry":{"x":173359.50999999885,"y":2546542.3700000029}},{"attributes":{"ID":400720,"DIS_CODE":0,"TOWNNAME":"永康區","LI":"網寮里","LIN":"11鄰","STREET":"永勝街","SECT":" ","MAREA":" ","LANE":"２１８巷","ALLEY":" ","HOUSE_NO":"５號","E_COORD97":173349.67000000001,"N_COORD97":2546494.5499999998,"ADDRESS":"永勝街２１８巷５號","OBJECTID":400696},"geometry":{"x":173349.66999999993,"y":2546494.5500000026}},{"attributes":{"ID":400721,"DIS_CODE":0,"TOWNNAME":"永康區","LI":"網寮里","LIN":"11鄰","STREET":"永勝街","SECT":" ","MAREA":" ","LANE":"２２２巷","ALLEY":" ","HOUSE_NO":"１０號","E_COORD97":173368.29000000001,"N_COORD97":2546507.5600000001,"ADDRESS":"永勝街２２２巷１０號","OBJECTID":400697},"geometry":{"x":173368.29000000097,"y":2546507.5600000024}},{"attributes":{"ID":400722,"DIS_CODE":0,"TOWNNAME":"永康區","LI":"網寮里","LIN":"11鄰","STREET":"永勝街","SECT":" ","MAREA":" ","LANE":"１６３巷","ALLEY":" ","HOUSE_NO":"１號","E_COORD97":173308.82000000001,"N_COORD97":2546479.9100000001,"ADDRESS":"永勝街１６３巷１號","OBJECTID":400698},"geometry":{"x":173308.82000000216,"y":2546479.9100000039}},{"attributes":{"ID":400723,"DIS_CODE":0,"TOWNNAME":"永康區","LI":"網寮里","LIN":"11鄰","STREET":"永勝街","SECT":" ","MAREA":" ","LANE":"２１８巷","ALLEY":" ","HOUSE_NO":"７號","E_COORD97":173354.17999999999,"N_COORD97":2546490.5499999998,"ADDRESS":"永勝街２１８巷７號","OBJECTID":400699},"geometry":{"x":173354.1799999997,"y":2546490.5500000026}},{"attributes":{"ID":400724,"DIS_CODE":0,"TOWNNAME":"東區","LI":"崇善里","LIN":"5鄰","STREET":"崇善五街","SECT":" ","MAREA":" ","LANE":"４６巷","ALLEY":" ","HOUSE_NO":"１２號","E_COORD97":171104.25,"N_COORD97":2541552.1899999999,"ADDRESS":"崇善五街４６巷１２號","OBJECTID":400700},"geometry":{"x":171104.25000000093,"y":2541552.1900000013}},{"attributes":{"ID":400725,"DIS_CODE":0,"TOWNNAME":"永康區","LI":"網寮里","LIN":"11鄰","STREET":"永勝街","SECT":" ","MAREA":" ","LANE":"２１８巷","ALLEY":" ","HOUSE_NO":"１１號","E_COORD97":173365.51000000001,"N_COORD97":2546486.2999999998,"ADDRESS":"永勝街２１８巷１１號","OBJECTID":400701},"geometry":{"x":173365.51000000071,"y":2546486.3000000007}},{"attributes":{"ID":400726,"DIS_CODE":0,"TOWNNAME":"永康區","LI":"網寮里","LIN":"11鄰","STREET":"永勝街","SECT":" ","MAREA":" ","LANE":"２３０巷","ALLEY":" ","HOUSE_NO":"６號","E_COORD97":173364.39999999999,"N_COORD97":2546540.3700000001,"ADDRESS":"永勝街２３０巷６號","OBJECTID":400702},"geometry":{"x":173364.40000000224,"y":2546540.370000001}},{"attributes":{"ID":400727,"DIS_CODE":0,"TOWNNAME":"永康區","LI":"網寮里","LIN":"11鄰","STREET":"永勝街","SECT":" ","MAREA":" ","LANE":"２３０巷","ALLEY":" ","HOUSE_NO":"１０號","E_COORD97":173375.10999999999,"N_COORD97":2546536.1200000001,"ADDRESS":"永勝街２３０巷１０號","OBJECTID":400703},"geometry":{"x":173375.11000000127,"y":2546536.120000001}},{"attributes":{"ID":400728,"DIS_CODE":0,"TOWNNAME":"永康區","LI":"網寮里","LIN":"11鄰","STREET":"永勝街","SECT":" ","MAREA":" ","LANE":"２３０巷","ALLEY":" ","HOUSE_NO":"１２號","E_COORD97":173380.31,"N_COORD97":2546534.1200000001,"ADDRESS":"永勝街２３０巷１２號","OBJECTID":400704},"geometry":{"x":173380.30999999959,"y":2546534.1200000029}},{"attributes":{"ID":400729,"DIS_CODE":0,"TOWNNAME":"永康區","LI":"網寮里","LIN":"11鄰","STREET":"永勝街","SECT":" ","MAREA":" ","LANE":"１６３巷","ALLEY":" ","HOUSE_NO":"７號","E_COORD97":173293.89000000001,"N_COORD97":2546484.6600000001,"ADDRESS":"永勝街１６３巷７號","OBJECTID":400705},"geometry":{"x":173293.88999999966,"y":2546484.6600000039}},{"attributes":{"ID":400730,"DIS_CODE":0,"TOWNNAME":"永康區","LI":"網寮里","LIN":"11鄰","STREET":"永勝街","SECT":" ","MAREA":" ","LANE":"２３０巷","ALLEY":" ","HOUSE_NO":"１８號","E_COORD97":173390.45999999999,"N_COORD97":2546529.8700000001,"ADDRESS":"永勝街２３０巷１８號","OBJECTID":400706},"geometry":{"x":173390.45999999996,"y":2546529.8700000029}},{"attributes":{"ID":400731,"DIS_CODE":0,"TOWNNAME":"永康區","LI":"網寮里","LIN":"11鄰","STREET":"永勝街","SECT":" ","MAREA":" ","LANE":"２２２巷","ALLEY":" ","HOUSE_NO":"６號","E_COORD97":173357.14000000001,"N_COORD97":2546511.5600000001,"ADDRESS":"永勝街２２２巷６號","OBJECTID":400707},"geometry":{"x":173357.1400000006,"y":2546511.5600000005}},{"attributes":{"ID":400732,"DIS_CODE":0,"TOWNNAME":"麻豆區","LI":"\u25A0江里","LIN":"11鄰","STREET":"建南一街","SECT":" ","MAREA":" ","LANE":"１８巷","ALLEY":" ","HOUSE_NO":"１０號","E_COORD97":173633.20000000001,"N_COORD97":2564250.04,"ADDRESS":"建南一街１８巷１０號","OBJECTID":400708},"geometry":{"x":173633.20000000019,"y":2564250.0400000028}},{"attributes":{"ID":400733,"DIS_CODE":0,"TOWNNAME":"麻豆區","LI":"\u25A0江里","LIN":"11鄰","STREET":"建南一街","SECT":" ","MAREA":" ","LANE":"１８巷","ALLEY":" ","HOUSE_NO":"１１號","E_COORD97":173652.5,"N_COORD97":2564241.0099999998,"ADDRESS":"建南一街１８巷１１號","OBJECTID":400709},"geometry":{"x":173652.5,"y":2564241.0100000035}},{"attributes":{"ID":400734,"DIS_CODE":0,"TOWNNAME":"麻豆區","LI":"\u25A0江里","LIN":"11鄰","STREET":"建南一街","SECT":" ","MAREA":" ","LANE":"１８巷","ALLEY":" ","HOUSE_NO":"１２號","E_COORD97":173633.85999999999,"N_COORD97":2564242.5499999998,"ADDRESS":"建南一街１８巷１２號","OBJECTID":400710},"geometry":{"x":173633.86000000034,"y":2564242.5500000026}},{"attributes":{"ID":400735,"DIS_CODE":0,"TOWNNAME":"麻豆區","LI":"\u25A0江里","LIN":"11鄰","STREET":"建南一街","SECT":" ","MAREA":" ","LANE":"１８巷","ALLEY":" ","HOUSE_NO":"１４號","E_COORD97":173635.47,"N_COORD97":2564236.3799999999,"ADDRESS":"建南一街１８巷１４號","OBJECTID":400711},"geometry":{"x":173635.46999999974,"y":2564236.379999999}},{"attributes":{"ID":400736,"DIS_CODE":0,"TOWNNAME":"麻豆區","LI":"\u25A0江里","LIN":"11鄰","STREET":"建南一街","SECT":" ","MAREA":" ","LANE":"１８巷","ALLEY":" ","HOUSE_NO":"１５號","E_COORD97":173655.59,"N_COORD97":2564227.9900000002,"ADDRESS":"建南一街１８巷１５號","OBJECTID":400712},"geometry":{"x":173655.58999999985,"y":2564227.9900000039}},{"attributes":{"ID":400737,"DIS_CODE":0,"TOWNNAME":"麻豆區","LI":"\u25A0江里","LIN":"11鄰","STREET":"建南一街","SECT":" ","MAREA":" ","LANE":"１８巷","ALLEY":" ","HOUSE_NO":"１６號","E_COORD97":173636.85999999999,"N_COORD97":2564229.23,"ADDRESS":"建南一街１８巷１６號","OBJECTID":400713},"geometry":{"x":173636.86000000034,"y":2564229.2300000004}},{"attributes":{"ID":400738,"DIS_CODE":0,"TOWNNAME":"麻豆區","LI":"\u25A0江里","LIN":"11鄰","STREET":"建南一街","SECT":" ","MAREA":" ","LANE":"１８巷","ALLEY":" ","HOUSE_NO":"１８號","E_COORD97":173637.48000000001,"N_COORD97":2564222.3199999998,"ADDRESS":"建南一街１８巷１８號","OBJECTID":400714},"geometry":{"x":173637.48000000138,"y":2564222.320000004}},{"attributes":{"ID":400739,"DIS_CODE":0,"TOWNNAME":"麻豆區","LI":"\u25A0江里","LIN":"11鄰","STREET":"建南一街","SECT":" ","MAREA":" ","LANE":"１８巷","ALLEY":" ","HOUSE_NO":"２０號","E_COORD97":173638.48000000001,"N_COORD97":2564215.71,"ADDRESS":"建南一街１８巷２０號","OBJECTID":400715},"geometry":{"x":173638.48000000231,"y":2564215.7100000009}},{"attributes":{"ID":400740,"DIS_CODE":0,"TOWNNAME":"麻豆區","LI":"\u25A0江里","LIN":"11鄰","STREET":"建南一街","SECT":" ","MAREA":" ","LANE":"１８巷","ALLEY":" ","HOUSE_NO":"９號","E_COORD97":173651.41,"N_COORD97":2564247.0899999999,"ADDRESS":"建南一街１８巷９號","OBJECTID":400716},"geometry":{"x":173651.41000000015,"y":2564247.0900000036}},{"attributes":{"ID":400741,"DIS_CODE":0,"TOWNNAME":"東區","LI":"東聖里","LIN":"16鄰","STREET":"中華東路","SECT":"二段","MAREA":" ","LANE":"７３巷","ALLEY":" ","HOUSE_NO":"１０號之３地下壹層","E_COORD97":171487.62,"N_COORD97":2543006.7999999998,"ADDRESS":"中華東路二段７３巷１０號之３地下壹層","OBJECTID":400717},"geometry":{"x":171487.61999999918,"y":2543006.8000000026}},{"attributes":{"ID":400742,"DIS_CODE":0,"TOWNNAME":"麻豆區","LI":"\u25A0江里","LIN":"11鄰","STREET":"建南一街","SECT":" ","MAREA":" ","LANE":"３４巷","ALLEY":" ","HOUSE_NO":"１０號","E_COORD97":173671.57999999999,"N_COORD97":2564262.6099999999,"ADDRESS":"建南一街３４巷１０號","OBJECTID":400718},"geometry":{"x":173671.58000000101,"y":2564262.6099999994}},{"attributes":{"ID":400743,"DIS_CODE":0,"TOWNNAME":"麻豆區","LI":"\u25A0江里","LIN":"11鄰","STREET":"建南一街","SECT":" ","MAREA":" ","LANE":"３４巷","ALLEY":" ","HOUSE_NO":"１２號","E_COORD97":173671.60999999999,"N_COORD97":2564257.8500000001,"ADDRESS":"建南一街３４巷１２號","OBJECTID":400719},"geometry":{"x":173671.61000000127,"y":2564257.8499999996}},{"attributes":{"ID":400744,"DIS_CODE":0,"TOWNNAME":"麻豆區","LI":"\u25A0江里","LIN":"11鄰","STREET":"建南一街","SECT":" ","MAREA":" ","LANE":"３４巷","ALLEY":" ","HOUSE_NO":"１４號","E_COORD97":173671.70999999999,"N_COORD97":2564253.0099999998,"ADDRESS":"建南一街３４巷１４號","OBJECTID":400720},"geometry":{"x":173671.70999999996,"y":2564253.0099999998}},{"attributes":{"ID":400745,"DIS_CODE":0,"TOWNNAME":"麻豆區","LI":"\u25A0江里","LIN":"11鄰","STREET":"建南一街","SECT":" ","MAREA":" ","LANE":"３４巷","ALLEY":" ","HOUSE_NO":"１６號","E_COORD97":173671.79999999999,"N_COORD97":2564247.7999999998,"ADDRESS":"建南一街３４巷１６號","OBJECTID":400721},"geometry":{"x":173671.80000000075,"y":2564247.8000000026}},{"attributes":{"ID":400746,"DIS_CODE":0,"TOWNNAME":"麻豆區","LI":"\u25A0江里","LIN":"11鄰","STREET":"建南一街","SECT":" ","MAREA":" ","LANE":"３４巷","ALLEY":" ","HOUSE_NO":"１８號","E_COORD97":173672.39999999999,"N_COORD97":2564242.75,"ADDRESS":"建南一街３４巷１８號","OBJECTID":400722},"geometry":{"x":173672.40000000037,"y":2564242.7500000037}},{"attributes":{"ID":400747,"DIS_CODE":0,"TOWNNAME":"麻豆區","LI":"\u25A0江里","LIN":"11鄰","STREET":"建南一街","SECT":" ","MAREA":" ","LANE":"３４巷","ALLEY":" ","HOUSE_NO":"１號","E_COORD97":173684.44,"N_COORD97":2564277.6400000001,"ADDRESS":"建南一街３４巷１號","OBJECTID":400723},"geometry":{"x":173684.43999999948,"y":2564277.6400000006}},{"attributes":{"ID":400748,"DIS_CODE":0,"TOWNNAME":"麻豆區","LI":"\u25A0江里","LIN":"11鄰","STREET":"建南一街","SECT":" ","MAREA":" ","LANE":"３４巷","ALLEY":" ","HOUSE_NO":"２號","E_COORD97":173670.57999999999,"N_COORD97":2564276.79,"ADDRESS":"建南一街３４巷２號","OBJECTID":400724},"geometry":{"x":173670.58000000007,"y":2564276.790000001}},{"attributes":{"ID":400749,"DIS_CODE":0,"TOWNNAME":"麻豆區","LI":"\u25A0江里","LIN":"11鄰","STREET":"建南一街","SECT":" ","MAREA":" ","LANE":"３４巷","ALLEY":" ","HOUSE_NO":"５號","E_COORD97":173685.01000000001,"N_COORD97":2564268.8700000001,"ADDRESS":"建南一街３４巷５號","OBJECTID":400725},"geometry":{"x":173685.01000000164,"y":2564268.870000001}},{"attributes":{"ID":400750,"DIS_CODE":0,"TOWNNAME":"麻豆區","LI":"\u25A0江里","LIN":"11鄰","STREET":"建南一街","SECT":" ","MAREA":" ","LANE":"３４巷","ALLEY":" ","HOUSE_NO":"６號","E_COORD97":173670.95000000001,"N_COORD97":2564271.9500000002,"ADDRESS":"建南一街３４巷６號","OBJECTID":400726},"geometry":{"x":173670.95000000112,"y":2564271.9500000011}},{"attributes":{"ID":400751,"DIS_CODE":0,"TOWNNAME":"麻豆區","LI":"\u25A0江里","LIN":"11鄰","STREET":"建南一街","SECT":" ","MAREA":" ","LANE":"３４巷","ALLEY":" ","HOUSE_NO":"７號","E_COORD97":173685.17000000001,"N_COORD97":2564264.3700000001,"ADDRESS":"建南一街３４巷７號","OBJECTID":400727},"geometry":{"x":173685.16999999993,"y":2564264.3700000029}},{"attributes":{"ID":400752,"DIS_CODE":0,"TOWNNAME":"麻豆區","LI":"\u25A0江里","LIN":"11鄰","STREET":"建南一街","SECT":" ","MAREA":" ","LANE":"３４巷","ALLEY":" ","HOUSE_NO":"８號","E_COORD97":173671.44,"N_COORD97":2564267.54,"ADDRESS":"建南一街３４巷８號","OBJECTID":400728},"geometry":{"x":173671.44000000134,"y":2564267.540000001}},{"attributes":{"ID":400753,"DIS_CODE":0,"TOWNNAME":"麻豆區","LI":"\u25A0江里","LIN":"11鄰","STREET":"建南一街","SECT":" ","MAREA":" ","LANE":"３４巷","ALLEY":" ","HOUSE_NO":"９號","E_COORD97":173684.70000000001,"N_COORD97":2564257.23,"ADDRESS":"建南一街３４巷９號","OBJECTID":400729},"geometry":{"x":173684.70000000112,"y":2564257.2300000023}},{"attributes":{"ID":400754,"DIS_CODE":0,"TOWNNAME":"東區","LI":"大智里","LIN":"3鄰","STREET":"長東街","SECT":" ","MAREA":" ","LANE":"４１巷","ALLEY":" ","HOUSE_NO":"７５號","E_COORD97":171132.85999999999,"N_COORD97":2540526.9700000002,"ADDRESS":"長東街４１巷７５號","OBJECTID":400730},"geometry":{"x":171132.86000000127,"y":2540526.9700000025}},{"attributes":{"ID":400755,"DIS_CODE":0,"TOWNNAME":"東區","LI":"關聖里","LIN":"5鄰","STREET":"裕農路","SECT":" ","MAREA":" ","LANE":"６６８巷","ALLEY":" ","HOUSE_NO":"３０號之３","E_COORD97":171691.22,"N_COORD97":2543066.77,"ADDRESS":"裕農路６６８巷３０號之３","OBJECTID":400731},"geometry":{"x":171691.21999999974,"y":2543066.7700000014}},{"attributes":{"ID":400756,"DIS_CODE":0,"TOWNNAME":"東區","LI":"關聖里","LIN":"5鄰","STREET":"裕農路","SECT":" ","MAREA":" ","LANE":"６６８巷","ALLEY":" ","HOUSE_NO":"３０號之４","E_COORD97":171691.98000000001,"N_COORD97":2543059.77,"ADDRESS":"裕農路６６８巷３０號之４","OBJECTID":400732},"geometry":{"x":171691.98000000045,"y":2543059.7700000014}},{"attributes":{"ID":400757,"DIS_CODE":0,"TOWNNAME":"東區","LI":"關聖里","LIN":"5鄰","STREET":"裕農路","SECT":" ","MAREA":" ","LANE":"６６８巷","ALLEY":" ","HOUSE_NO":"３０號之５","E_COORD97":171703.51000000001,"N_COORD97":2543060.2999999998,"ADDRESS":"裕農路６６８巷３０號之５","OBJECTID":400733},"geometry":{"x":171703.51000000164,"y":2543060.3000000045}},{"attributes":{"ID":400758,"DIS_CODE":0,"TOWNNAME":"仁德區","LI":"一甲里","LIN":"11鄰","STREET":"忠義二街","SECT":" ","MAREA":" ","LANE":"２５巷","ALLEY":" ","HOUSE_NO":"１１號","E_COORD97":173968.92999999999,"N_COORD97":2542093.52,"ADDRESS":"忠義二街２５巷１１號","OBJECTID":400734},"geometry":{"x":173968.93000000063,"y":2542093.5199999996}},{"attributes":{"ID":400759,"DIS_CODE":0,"TOWNNAME":"東區","LI":"南聖里","LIN":"3鄰","STREET":"富農街","SECT":"二段","MAREA":" ","LANE":"１０８巷","ALLEY":" ","HOUSE_NO":"１３號","E_COORD97":171703.64000000001,"N_COORD97":2543099.7200000002,"ADDRESS":"富農街二段１０８巷１３號","OBJECTID":400735},"geometry":{"x":171703.63999999966,"y":2543099.7200000007}},{"attributes":{"ID":400760,"DIS_CODE":0,"TOWNNAME":"東區","LI":"南聖里","LIN":"3鄰","STREET":"富農街","SECT":"二段","MAREA":" ","LANE":"１０８巷","ALLEY":" ","HOUSE_NO":"１３號之１","E_COORD97":171710.31,"N_COORD97":2543101.3799999999,"ADDRESS":"富農街二段１０８巷１３號之１","OBJECTID":400736},"geometry":{"x":171710.31000000052,"y":2543101.379999999}},{"attributes":{"ID":400761,"DIS_CODE":0,"TOWNNAME":"東區","LI":"南聖里","LIN":"2鄰","STREET":"富農街","SECT":"二段","MAREA":" ","LANE":"１３２巷","ALLEY":" ","HOUSE_NO":"５號","E_COORD97":171687.22,"N_COORD97":2543162.8700000001,"ADDRESS":"富農街二段１３２巷５號","OBJECTID":400737},"geometry":{"x":171687.22000000067,"y":2543162.8700000029}},{"attributes":{"ID":400762,"DIS_CODE":0,"TOWNNAME":"仁德區","LI":"一甲里","LIN":"11鄰","STREET":"忠義二街","SECT":" ","MAREA":" ","LANE":"２５巷","ALLEY":" ","HOUSE_NO":"８號","E_COORD97":173967.01000000001,"N_COORD97":2542082.02,"ADDRESS":"忠義二街２５巷８號","OBJECTID":400738},"geometry":{"x":173967.01000000071,"y":2542082.0200000014}},{"attributes":{"ID":400763,"DIS_CODE":0,"TOWNNAME":"東區","LI":"關聖里","LIN":"6鄰","STREET":"富農街","SECT":"二段","MAREA":" ","LANE":"１２巷","ALLEY":" ","HOUSE_NO":"１５號","E_COORD97":171707.29000000001,"N_COORD97":2542886.6000000001,"ADDRESS":"富農街二段１２巷１５號","OBJECTID":400739},"geometry":{"x":171707.29000000097,"y":2542886.5999999996}},{"attributes":{"ID":400764,"DIS_CODE":0,"TOWNNAME":"東區","LI":"關聖里","LIN":"6鄰","STREET":"富農街","SECT":"二段","MAREA":" ","LANE":"１２巷","ALLEY":" ","HOUSE_NO":"１７號","E_COORD97":171712.26000000001,"N_COORD97":2542888.5899999999,"ADDRESS":"富農街二段１２巷１７號","OBJECTID":400740},"geometry":{"x":171712.26000000071,"y":2542888.5900000017}},{"attributes":{"ID":400765,"DIS_CODE":0,"TOWNNAME":"東區","LI":"關聖里","LIN":"6鄰","STREET":"富農街","SECT":"二段","MAREA":" ","LANE":"１２巷","ALLEY":" ","HOUSE_NO":"１９號","E_COORD97":171717.73999999999,"N_COORD97":2542887.4300000002,"ADDRESS":"富農街二段１２巷１９號","OBJECTID":400741},"geometry":{"x":171717.74000000115,"y":2542887.4299999997}},{"attributes":{"ID":400766,"DIS_CODE":0,"TOWNNAME":"東區","LI":"關聖里","LIN":"6鄰","STREET":"富農街","SECT":"二段","MAREA":" ","LANE":"１２巷","ALLEY":" ","HOUSE_NO":"２１號","E_COORD97":171722.72,"N_COORD97":2542889.4199999999,"ADDRESS":"富農街二段１２巷２１號","OBJECTID":400742},"geometry":{"x":171722.72000000067,"y":2542889.4200000018}},{"attributes":{"ID":400767,"DIS_CODE":0,"TOWNNAME":"東區","LI":"關聖里","LIN":"6鄰","STREET":"富農街","SECT":"二段","MAREA":" ","LANE":"１２巷","ALLEY":" ","HOUSE_NO":"２３號","E_COORD97":171728.51999999999,"N_COORD97":2542889.4199999999,"ADDRESS":"富農街二段１２巷２３號","OBJECTID":400743},"geometry":{"x":171728.52000000142,"y":2542889.4200000018}},{"attributes":{"ID":400768,"DIS_CODE":0,"TOWNNAME":"仁德區","LI":"一甲里","LIN":"11鄰","STREET":"忠義二街","SECT":" ","MAREA":" ","LANE":"３６巷","ALLEY":" ","HOUSE_NO":"２０號","E_COORD97":173789.14999999999,"N_COORD97":2542092.27,"ADDRESS":"忠義二街３６巷２０號","OBJECTID":400744},"geometry":{"x":173789.15000000037,"y":2542092.2699999996}},{"attributes":{"ID":400769,"DIS_CODE":0,"TOWNNAME":"仁德區","LI":"土庫里","LIN":"11鄰","STREET":"土庫路","SECT":" ","MAREA":" ","LANE":"１１１巷","ALLEY":" ","HOUSE_NO":"３號之１","E_COORD97":174335.39999999999,"N_COORD97":2543178.04,"ADDRESS":"土庫路１１１巷３號之１","OBJECTID":400745},"geometry":{"x":174335.40000000037,"y":2543178.0399999991}},{"attributes":{"ID":400770,"DIS_CODE":0,"TOWNNAME":"仁德區","LI":"二行里","LIN":"11鄰","STREET":"行大街","SECT":" ","MAREA":" ","LANE":"１７２巷","ALLEY":" ","HOUSE_NO":"１６號","E_COORD97":169984.51999999999,"N_COORD97":2535120.75,"ADDRESS":"行大街１７２巷１６號","OBJECTID":400746},"geometry":{"x":169984.52000000048,"y":2535120.7500000019}},{"attributes":{"ID":400771,"DIS_CODE":0,"TOWNNAME":"仁德區","LI":"土庫里","LIN":"11鄰","STREET":"土庫路","SECT":" ","MAREA":" ","LANE":"１１１巷","ALLEY":" ","HOUSE_NO":"２號","E_COORD97":174323.07000000001,"N_COORD97":2543166.4900000002,"ADDRESS":"土庫路１１１巷２號","OBJECTID":400747},"geometry":{"x":174323.07000000123,"y":2543166.4900000002}},{"attributes":{"ID":400772,"DIS_CODE":0,"TOWNNAME":"仁德區","LI":"上崙里","LIN":"11鄰","STREET":"德崙路","SECT":" ","MAREA":" ","LANE":"３６９巷","ALLEY":" ","HOUSE_NO":"１３號","E_COORD97":174090.5,"N_COORD97":2538151.27,"ADDRESS":"德崙路３６９巷１３號","OBJECTID":400748},"geometry":{"x":174090.50000000186,"y":2538151.2700000014}},{"attributes":{"ID":400773,"DIS_CODE":0,"TOWNNAME":"東區","LI":"中西里","LIN":"11鄰","STREET":"勝利路","SECT":" ","MAREA":" ","LANE":"５２巷","ALLEY":" ","HOUSE_NO":"１３號","E_COORD97":169888.04000000001,"N_COORD97":2543607.8900000001,"ADDRESS":"勝利路５２巷１３號","OBJECTID":400749},"geometry":{"x":169888.0400000019,"y":2543607.8900000006}},{"attributes":{"ID":400774,"DIS_CODE":0,"TOWNNAME":"東區","LI":"中西里","LIN":"11鄰","STREET":"勝利路","SECT":" ","MAREA":" ","LANE":"５２巷","ALLEY":" ","HOUSE_NO":"１５號","E_COORD97":169881.70000000001,"N_COORD97":2543604.0099999998,"ADDRESS":"勝利路５２巷１５號","OBJECTID":400750},"geometry":{"x":169881.70000000019,"y":2543604.0100000016}},{"attributes":{"ID":400775,"DIS_CODE":0,"TOWNNAME":"東區","LI":"中西里","LIN":"11鄰","STREET":"勝利路","SECT":" ","MAREA":" ","LANE":"５２巷","ALLEY":" ","HOUSE_NO":"１７號","E_COORD97":169874.23999999999,"N_COORD97":2543599.8199999998,"ADDRESS":"勝利路５２巷１７號","OBJECTID":400751},"geometry":{"x":169874.24000000022,"y":2543599.8200000022}},{"attributes":{"ID":400776,"DIS_CODE":0,"TOWNNAME":"東區","LI":"大智里","LIN":"11鄰","STREET":"長東街","SECT":" ","MAREA":" ","LANE":"１３１巷","ALLEY":" ","HOUSE_NO":"５５號","E_COORD97":171157.76000000001,"N_COORD97":2540222.71,"ADDRESS":"長東街１３１巷５５號","OBJECTID":400752},"geometry":{"x":171157.76000000071,"y":2540222.7100000009}},{"attributes":{"ID":400777,"DIS_CODE":0,"TOWNNAME":"東區","LI":"大智里","LIN":"11鄰","STREET":"長東街","SECT":" ","MAREA":" ","LANE":"１３１巷","ALLEY":" ","HOUSE_NO":"１０號","E_COORD97":171049.28,"N_COORD97":2540197.1499999999,"ADDRESS":"長東街１３１巷１０號","OBJECTID":400753},"geometry":{"x":171049.28000000026,"y":2540197.1500000022}},{"attributes":{"ID":400778,"DIS_CODE":0,"TOWNNAME":"東區","LI":"大智里","LIN":"11鄰","STREET":"長東街","SECT":" ","MAREA":" ","LANE":"１３１巷","ALLEY":" ","HOUSE_NO":"１４號","E_COORD97":171058.14000000001,"N_COORD97":2540197.7599999998,"ADDRESS":"長東街１３１巷１４號","OBJECTID":400754},"geometry":{"x":171058.13999999873,"y":2540197.7599999979}},{"attributes":{"ID":400779,"DIS_CODE":0,"TOWNNAME":"東區","LI":"大智里","LIN":"11鄰","STREET":"長東街","SECT":" ","MAREA":" ","LANE":"１３１巷","ALLEY":" ","HOUSE_NO":"１６號","E_COORD97":171062.87,"N_COORD97":2540196.6299999999,"ADDRESS":"長東街１３１巷１６號","OBJECTID":400755},"geometry":{"x":171062.87000000104,"y":2540196.629999999}},{"attributes":{"ID":400780,"DIS_CODE":0,"TOWNNAME":"東區","LI":"大智里","LIN":"11鄰","STREET":"長東街","SECT":" ","MAREA":" ","LANE":"１３１巷","ALLEY":" ","HOUSE_NO":"２０號","E_COORD97":171076.37,"N_COORD97":2540198.6899999999,"ADDRESS":"長東街１３１巷２０號","OBJECTID":400756},"geometry":{"x":171076.37000000104,"y":2540198.6900000013}},{"attributes":{"ID":400781,"DIS_CODE":0,"TOWNNAME":"東區","LI":"大智里","LIN":"11鄰","STREET":"長東街","SECT":" ","MAREA":" ","LANE":"１３１巷","ALLEY":" ","HOUSE_NO":"２２號","E_COORD97":171080.28,"N_COORD97":2540197.04,"ADDRESS":"長東街１３１巷２２號","OBJECTID":400757},"geometry":{"x":171080.28000000119,"y":2540197.0399999991}},{"attributes":{"ID":400782,"DIS_CODE":0,"TOWNNAME":"東區","LI":"大智里","LIN":"11鄰","STREET":"長東街","SECT":" ","MAREA":" ","LANE":"１３１巷","ALLEY":" ","HOUSE_NO":"２８號","E_COORD97":171093.87,"N_COORD97":2540199.6200000001,"ADDRESS":"長東街１３１巷２８號","OBJECTID":400758},"geometry":{"x":171093.87000000011,"y":2540199.620000001}},{"attributes":{"ID":400783,"DIS_CODE":0,"TOWNNAME":"東區","LI":"大智里","LIN":"11鄰","STREET":"長東街","SECT":" ","MAREA":" ","LANE":"１３１巷","ALLEY":" ","HOUSE_NO":"３２號","E_COORD97":171102.94,"N_COORD97":2540202.5,"ADDRESS":"長東街１３１巷３２號","OBJECTID":400759},"geometry":{"x":171102.94000000134,"y":2540202.5}},{"attributes":{"ID":400784,"DIS_CODE":0,"TOWNNAME":"東區","LI":"大智里","LIN":"11鄰","STREET":"長東街","SECT":" ","MAREA":" ","LANE":"１３１巷","ALLEY":" ","HOUSE_NO":"３４號","E_COORD97":171115.92999999999,"N_COORD97":2540203.02,"ADDRESS":"長東街１３１巷３４號","OBJECTID":400760},"geometry":{"x":171115.93000000063,"y":2540203.0200000014}},{"attributes":{"ID":400785,"DIS_CODE":0,"TOWNNAME":"東區","LI":"大智里","LIN":"11鄰","STREET":"長東街","SECT":" ","MAREA":" ","LANE":"１３１巷","ALLEY":" ","HOUSE_NO":"３５號","E_COORD97":171118.25,"N_COORD97":2540221.9100000001,"ADDRESS":"長東街１３１巷３５號","OBJECTID":400761},"geometry":{"x":171118.25,"y":2540221.910000002}},{"attributes":{"ID":400786,"DIS_CODE":0,"TOWNNAME":"東區","LI":"大智里","LIN":"11鄰","STREET":"長東街","SECT":" ","MAREA":" ","LANE":"１３１巷","ALLEY":" ","HOUSE_NO":"３６號","E_COORD97":171119.82999999999,"N_COORD97":2540201.9199999999,"ADDRESS":"長東街１３１巷３６號","OBJECTID":400762},"geometry":{"x":171119.83000000007,"y":2540201.9200000018}},{"attributes":{"ID":400787,"DIS_CODE":0,"TOWNNAME":"東區","LI":"大智里","LIN":"11鄰","STREET":"長東街","SECT":" ","MAREA":" ","LANE":"１３１巷","ALLEY":" ","HOUSE_NO":"３７號","E_COORD97":171121.32999999999,"N_COORD97":2540223.5899999999,"ADDRESS":"長東街１３１巷３７號","OBJECTID":400763},"geometry":{"x":171121.33000000007,"y":2540223.5900000017}},{"attributes":{"ID":400788,"DIS_CODE":0,"TOWNNAME":"東區","LI":"大智里","LIN":"11鄰","STREET":"長東街","SECT":" ","MAREA":" ","LANE":"１３１巷","ALLEY":" ","HOUSE_NO":"３８號","E_COORD97":171123.04999999999,"N_COORD97":2540203.6099999999,"ADDRESS":"長東街１３１巷３８號","OBJECTID":400764},"geometry":{"x":171123.04999999981,"y":2540203.6099999994}},{"attributes":{"ID":400789,"DIS_CODE":0,"TOWNNAME":"東區","LI":"大智里","LIN":"11鄰","STREET":"長東街","SECT":" ","MAREA":" ","LANE":"１３１巷","ALLEY":" ","HOUSE_NO":"３９號","E_COORD97":171124.95999999999,"N_COORD97":2540222.5699999998,"ADDRESS":"長東街１３１巷３９號","OBJECTID":400765},"geometry":{"x":171124.96000000089,"y":2540222.5700000003}},{"attributes":{"ID":400790,"DIS_CODE":0,"TOWNNAME":"東區","LI":"大智里","LIN":"11鄰","STREET":"長東街","SECT":" ","MAREA":" ","LANE":"１３１巷","ALLEY":" ","HOUSE_NO":"４１號","E_COORD97":171127.98999999999,"N_COORD97":2540224.2000000002,"ADDRESS":"長東街１３１巷４１號","OBJECTID":400766},"geometry":{"x":171127.99000000115,"y":2540224.1999999993}},{"attributes":{"ID":400791,"DIS_CODE":0,"TOWNNAME":"東區","LI":"大智里","LIN":"11鄰","STREET":"長東街","SECT":" ","MAREA":" ","LANE":"１３１巷","ALLEY":" ","HOUSE_NO":"４２號","E_COORD97":171128.29000000001,"N_COORD97":2540204.7000000002,"ADDRESS":"長東街１３１巷４２號","OBJECTID":400767},"geometry":{"x":171128.29000000004,"y":2540204.700000003}},{"attributes":{"ID":400792,"DIS_CODE":0,"TOWNNAME":"東區","LI":"大智里","LIN":"11鄰","STREET":"長東街","SECT":" ","MAREA":" ","LANE":"１３１巷","ALLEY":" ","HOUSE_NO":"４３號","E_COORD97":171131.57000000001,"N_COORD97":2540222.52,"ADDRESS":"長東街１３１巷４３號","OBJECTID":400768},"geometry":{"x":171131.5700000003,"y":2540222.5199999996}},{"attributes":{"ID":400793,"DIS_CODE":0,"TOWNNAME":"東區","LI":"大智里","LIN":"11鄰","STREET":"長東街","SECT":" ","MAREA":" ","LANE":"１３１巷","ALLEY":" ","HOUSE_NO":"４８號","E_COORD97":171141.34,"N_COORD97":2540203.8999999999,"ADDRESS":"長東街１３１巷４８號","OBJECTID":400769},"geometry":{"x":171141.33999999985,"y":2540203.9000000004}},{"attributes":{"ID":400794,"DIS_CODE":0,"TOWNNAME":"東區","LI":"大智里","LIN":"11鄰","STREET":"長東街","SECT":" ","MAREA":" ","LANE":"１３１巷","ALLEY":" ","HOUSE_NO":"４９號","E_COORD97":171145.98999999999,"N_COORD97":2540224.71,"ADDRESS":"長東街１３１巷４９號","OBJECTID":400770},"geometry":{"x":171145.99000000022,"y":2540224.7100000028}},{"attributes":{"ID":400795,"DIS_CODE":0,"TOWNNAME":"東區","LI":"大智里","LIN":"11鄰","STREET":"長東街","SECT":" ","MAREA":" ","LANE":"１３１巷","ALLEY":" ","HOUSE_NO":"４號","E_COORD97":171035.48000000001,"N_COORD97":2540196.1200000001,"ADDRESS":"長東街１３１巷４號","OBJECTID":400771},"geometry":{"x":171035.48000000138,"y":2540196.120000001}},{"attributes":{"ID":400796,"DIS_CODE":0,"TOWNNAME":"東區","LI":"大智里","LIN":"11鄰","STREET":"長東街","SECT":" ","MAREA":" ","LANE":"１３１巷","ALLEY":" ","HOUSE_NO":"５１號","E_COORD97":171150.54999999999,"N_COORD97":2540222.0699999998,"ADDRESS":"長東街１３１巷５１號","OBJECTID":400772},"geometry":{"x":171150.55000000168,"y":2540222.0700000003}},{"attributes":{"ID":400797,"DIS_CODE":0,"TOWNNAME":"東區","LI":"大智里","LIN":"11鄰","STREET":"長東街","SECT":" ","MAREA":" ","LANE":"１３１巷","ALLEY":" ","HOUSE_NO":"５７號","E_COORD97":171160.56,"N_COORD97":2540225.6699999999,"ADDRESS":"長東街１３１巷５７號","OBJECTID":400773},"geometry":{"x":171160.56000000052,"y":2540225.6700000037}},{"attributes":{"ID":400798,"DIS_CODE":0,"TOWNNAME":"東區","LI":"大智里","LIN":"11鄰","STREET":"長東街","SECT":" ","MAREA":" ","LANE":"１３１巷","ALLEY":" ","HOUSE_NO":"５９號","E_COORD97":171165.37,"N_COORD97":2540224.71,"ADDRESS":"長東街１３１巷５９號","OBJECTID":400774},"geometry":{"x":171165.37000000011,"y":2540224.7100000028}},{"attributes":{"ID":400799,"DIS_CODE":0,"TOWNNAME":"東區","LI":"大智里","LIN":"11鄰","STREET":"長東街","SECT":" ","MAREA":" ","LANE":"１３１巷","ALLEY":" ","HOUSE_NO":"６１號","E_COORD97":171168.81,"N_COORD97":2540226.71,"ADDRESS":"長東街１３１巷６１號","OBJECTID":400775},"geometry":{"x":171168.81000000145,"y":2540226.7100000046}},{"attributes":{"ID":400800,"DIS_CODE":0,"TOWNNAME":"東區","LI":"大智里","LIN":"11鄰","STREET":"長東街","SECT":" ","MAREA":" ","LANE":"１３１巷","ALLEY":" ","HOUSE_NO":"６３號","E_COORD97":171172.01999999999,"N_COORD97":2540225.1099999999,"ADDRESS":"長東街１３１巷６３號","OBJECTID":400776},"geometry":{"x":171172.01999999955,"y":2540225.1099999994}},{"attributes":{"ID":400801,"DIS_CODE":0,"TOWNNAME":"東區","LI":"大智里","LIN":"11鄰","STREET":"長東街","SECT":" ","MAREA":" ","LANE":"１３１巷","ALLEY":" ","HOUSE_NO":"６號","E_COORD97":171039.91,"N_COORD97":2540197.1499999999,"ADDRESS":"長東街１３１巷６號","OBJECTID":400777},"geometry":{"x":171039.91000000201,"y":2540197.1500000022}},{"attributes":{"ID":400802,"DIS_CODE":0,"TOWNNAME":"東區","LI":"泉南里","LIN":"11鄰","STREET":"府連路","SECT":" ","MAREA":" ","LANE":"３３７巷","ALLEY":" ","HOUSE_NO":"１５號","E_COORD97":169611.95999999999,"N_COORD97":2542900.6200000001,"ADDRESS":"府連路３３７巷１５號","OBJECTID":400778},"geometry":{"x":169611.95999999903,"y":2542900.6200000029}},{"attributes":{"ID":400803,"DIS_CODE":0,"TOWNNAME":"東區","LI":"泉南里","LIN":"11鄰","STREET":"府連路","SECT":" ","MAREA":" ","LANE":"３３７巷","ALLEY":" ","HOUSE_NO":"２３號","E_COORD97":169635.57999999999,"N_COORD97":2542891.8399999999,"ADDRESS":"府連路３３７巷２３號","OBJECTID":400779},"geometry":{"x":169635.58000000101,"y":2542891.8399999999}},{"attributes":{"ID":400804,"DIS_CODE":0,"TOWNNAME":"東區","LI":"泉南里","LIN":"11鄰","STREET":"府連路","SECT":" ","MAREA":" ","LANE":"３３７巷","ALLEY":" ","HOUSE_NO":"３號","E_COORD97":169607.85000000001,"N_COORD97":2542866.5600000001,"ADDRESS":"府連路３３７巷３號","OBJECTID":400780},"geometry":{"x":169607.85000000056,"y":2542866.5600000024}},{"attributes":{"ID":400805,"DIS_CODE":0,"TOWNNAME":"東區","LI":"泉南里","LIN":"11鄰","STREET":"府連路","SECT":" ","MAREA":" ","LANE":"３３７巷","ALLEY":" ","HOUSE_NO":"５號","E_COORD97":169609.32999999999,"N_COORD97":2542872.4900000002,"ADDRESS":"府連路３３７巷５號","OBJECTID":400781},"geometry":{"x":169609.33000000007,"y":2542872.4900000021}},{"attributes":{"ID":400806,"DIS_CODE":0,"TOWNNAME":"東區","LI":"泉南里","LIN":"11鄰","STREET":"府連路","SECT":" ","MAREA":" ","LANE":"３３７巷","ALLEY":" ","HOUSE_NO":"７號","E_COORD97":169611.60999999999,"N_COORD97":2542876.8100000001,"ADDRESS":"府連路３３７巷７號","OBJECTID":400782},"geometry":{"x":169611.61000000127,"y":2542876.8100000042}},{"attributes":{"ID":400807,"DIS_CODE":0,"TOWNNAME":"東區","LI":"泉南里","LIN":"11鄰","STREET":"府連路","SECT":" ","MAREA":" ","LANE":"３３７巷","ALLEY":" ","HOUSE_NO":"９號","E_COORD97":169611.84,"N_COORD97":2542881.9399999999,"ADDRESS":"府連路３３７巷９號","OBJECTID":400783},"geometry":{"x":169611.84000000078,"y":2542881.9400000013}},{"attributes":{"ID":400808,"DIS_CODE":0,"TOWNNAME":"東區","LI":"泉南里","LIN":"11鄰","STREET":"府連路","SECT":" ","MAREA":" ","LANE":"３３７巷","ALLEY":" ","HOUSE_NO":"２１號","E_COORD97":169630.82000000001,"N_COORD97":2542889.9900000002,"ADDRESS":"府連路３３７巷２１號","OBJECTID":400784},"geometry":{"x":169630.82000000123,"y":2542889.9900000021}},{"attributes":{"ID":400809,"DIS_CODE":0,"TOWNNAME":"東區","LI":"大智里","LIN":"11鄰","STREET":"長東街","SECT":" ","MAREA":" ","LANE":"１３１巷","ALLEY":" ","HOUSE_NO":"１２號","E_COORD97":171053.5,"N_COORD97":2540196.4300000002,"ADDRESS":"長東街１３１巷１２號","OBJECTID":400785},"geometry":{"x":171053.50000000093,"y":2540196.4299999978}},{"attributes":{"ID":400810,"DIS_CODE":0,"TOWNNAME":"東區","LI":"大智里","LIN":"11鄰","STREET":"長東街","SECT":" ","MAREA":" ","LANE":"１３１巷","ALLEY":" ","HOUSE_NO":"１８號","E_COORD97":171070.70000000001,"N_COORD97":2540197.3500000001,"ADDRESS":"長東街１３１巷１８號","OBJECTID":400786},"geometry":{"x":171070.70000000112,"y":2540197.3500000034}},{"attributes":{"ID":400811,"DIS_CODE":0,"TOWNNAME":"東區","LI":"大智里","LIN":"11鄰","STREET":"長東街","SECT":" ","MAREA":" ","LANE":"１３１巷","ALLEY":" ","HOUSE_NO":"２４號","E_COORD97":171084.60000000001,"N_COORD97":2540198.8900000001,"ADDRESS":"長東街１３１巷２４號","OBJECTID":400787},"geometry":{"x":171084.60000000056,"y":2540198.8900000025}},{"attributes":{"ID":400812,"DIS_CODE":0,"TOWNNAME":"東區","LI":"大智里","LIN":"11鄰","STREET":"長東街","SECT":" ","MAREA":" ","LANE":"１３１巷","ALLEY":" ","HOUSE_NO":"２６號","E_COORD97":171089.54999999999,"N_COORD97":2540198.0699999998,"ADDRESS":"長東街１３１巷２６號","OBJECTID":400788},"geometry":{"x":171089.55000000168,"y":2540198.0700000003}},{"attributes":{"ID":400813,"DIS_CODE":0,"TOWNNAME":"東區","LI":"大智里","LIN":"11鄰","STREET":"長東街","SECT":" ","MAREA":" ","LANE":"１３１巷","ALLEY":" ","HOUSE_NO":"３０號","E_COORD97":171097.79000000001,"N_COORD97":2540201.6699999999,"ADDRESS":"長東街１３１巷３０號","OBJECTID":400789},"geometry":{"x":171097.79000000004,"y":2540201.6699999999}},{"attributes":{"ID":400814,"DIS_CODE":0,"TOWNNAME":"東區","LI":"泉南里","LIN":"11鄰","STREET":"府連路","SECT":" ","MAREA":" ","LANE":"３３７巷","ALLEY":" ","HOUSE_NO":"１９號","E_COORD97":169625.48000000001,"N_COORD97":2542889.5,"ADDRESS":"府連路３３７巷１９號","OBJECTID":400790},"geometry":{"x":169625.48000000045,"y":2542889.5000000019}},{"attributes":{"ID":400815,"DIS_CODE":0,"TOWNNAME":"東區","LI":"崇善里","LIN":"8鄰","STREET":"崇善七街","SECT":" ","MAREA":" ","LANE":"４６巷","ALLEY":" ","HOUSE_NO":"１３號","E_COORD97":171166.20999999999,"N_COORD97":2541461.3900000001,"ADDRESS":"崇善七街４６巷１３號","OBJECTID":400791},"geometry":{"x":171166.20999999996,"y":2541461.3900000006}},{"attributes":{"ID":400816,"DIS_CODE":0,"TOWNNAME":"東區","LI":"崇善里","LIN":"8鄰","STREET":"崇善七街","SECT":" ","MAREA":" ","LANE":"４６巷","ALLEY":" ","HOUSE_NO":"１６號","E_COORD97":171144.13,"N_COORD97":2541454.8799999999,"ADDRESS":"崇善七街４６巷１６號","OBJECTID":400792},"geometry":{"x":171144.13000000082,"y":2541454.8800000008}},{"attributes":{"ID":400817,"DIS_CODE":0,"TOWNNAME":"東區","LI":"崇善里","LIN":"8鄰","STREET":"崇善七街","SECT":" ","MAREA":" ","LANE":"４６巷","ALLEY":" ","HOUSE_NO":"１號","E_COORD97":171154.64000000001,"N_COORD97":2541483.5600000001,"ADDRESS":"崇善七街４６巷１號","OBJECTID":400793},"geometry":{"x":171154.63999999966,"y":2541483.5600000005}},{"attributes":{"ID":400818,"DIS_CODE":0,"TOWNNAME":"安南區","LI":"\u25A0南里","LIN":"11鄰","STREET":"環福街","SECT":" ","MAREA":" ","LANE":"１２５巷","ALLEY":" ","HOUSE_NO":"３２號","E_COORD97":170271.51999999999,"N_COORD97":2552563.1200000001,"ADDRESS":"環福街１２５巷３２號","OBJECTID":400794},"geometry":{"x":170271.51999999955,"y":2552563.1200000029}},{"attributes":{"ID":400819,"DIS_CODE":0,"TOWNNAME":"安南區","LI":"\u25A0南里","LIN":"11鄰","STREET":"安昌街","SECT":" ","MAREA":" ","LANE":"２２２巷","ALLEY":" ","HOUSE_NO":"５８號","E_COORD97":170242.5,"N_COORD97":2552566.48,"ADDRESS":"安昌街２２２巷５８號","OBJECTID":400795},"geometry":{"x":170242.50000000186,"y":2552566.4800000023}},{"attributes":{"ID":400820,"DIS_CODE":0,"TOWNNAME":"安南區","LI":"\u25A0南里","LIN":"11鄰","STREET":"安昌街","SECT":" ","MAREA":" ","LANE":"２２２巷","ALLEY":" ","HOUSE_NO":"６０號","E_COORD97":170242.29000000001,"N_COORD97":2552575.5099999998,"ADDRESS":"安昌街２２２巷６０號","OBJECTID":400796},"geometry":{"x":170242.2900000019,"y":2552575.5100000016}},{"attributes":{"ID":400821,"DIS_CODE":0,"TOWNNAME":"安南區","LI":"\u25A0南里","LIN":"11鄰","STREET":"環福街","SECT":" ","MAREA":" ","LANE":"１２５巷","ALLEY":" ","HOUSE_NO":"２６號","E_COORD97":170292.13,"N_COORD97":2552561.4399999999,"ADDRESS":"環福街１２５巷２６號","OBJECTID":400797},"geometry":{"x":170292.12999999989,"y":2552561.4400000013}},{"attributes":{"ID":400822,"DIS_CODE":0,"TOWNNAME":"安南區","LI":"\u25A0南里","LIN":"11鄰","STREET":"環福街","SECT":" ","MAREA":" ","LANE":"１２５巷","ALLEY":" ","HOUSE_NO":"２８號","E_COORD97":170284.98000000001,"N_COORD97":2552562.0699999998,"ADDRESS":"環福街１２５巷２８號","OBJECTID":400798},"geometry":{"x":170284.98000000045,"y":2552562.0700000022}},{"attributes":{"ID":400823,"DIS_CODE":0,"TOWNNAME":"安南區","LI":"\u25A0南里","LIN":"11鄰","STREET":"環福街","SECT":" ","MAREA":" ","LANE":"１２５巷","ALLEY":" ","HOUSE_NO":"３０號","E_COORD97":170278.67000000001,"N_COORD97":2552562.4900000002,"ADDRESS":"環福街１２５巷３０號","OBJECTID":400799},"geometry":{"x":170278.67000000086,"y":2552562.4900000021}},{"attributes":{"ID":400824,"DIS_CODE":0,"TOWNNAME":"安南區","LI":"\u25A0南里","LIN":"11鄰","STREET":"環福街","SECT":" ","MAREA":" ","LANE":"１２５巷","ALLEY":" ","HOUSE_NO":"３４號","E_COORD97":170266.26000000001,"N_COORD97":2552563.1200000001,"ADDRESS":"環福街１２５巷３４號","OBJECTID":400800},"geometry":{"x":170266.26000000071,"y":2552563.1200000029}}]}