{"displayFieldName":"TOWNNAME","fieldAliases":{"ID":"ID","DIS_CODE":"DIS_CODE","TOWNNAME":"TOWNNAME","LI":"LI","LIN":"LIN","STREET":"STREET","SECT":"SECT","MAREA":"MAREA","LANE":"LANE","ALLEY":"ALLEY","HOUSE_NO":"HOUSE_NO","E_COORD97":"E_COORD97","N_COORD97":"N_COORD97","ADDRESS":"ADDRESS","OBJECTID":"OBJECTID"},"geometryType":"esriGeometryPoint","spatialReference":{"wkid":102443,"latestWkid":3826},"fields":[{"name":"ID","type":"esriFieldTypeDouble","alias":"ID"},{"name":"DIS_CODE","type":"esriFieldTypeInteger","alias":"DIS_CODE"},{"name":"TOWNNAME","type":"esriFieldTypeString","alias":"TOWNNAME","length":8},{"name":"LI","type":"esriFieldTypeString","alias":"LI","length":8},{"name":"LIN","type":"esriFieldTypeString","alias":"LIN","length":12},{"name":"STREET","type":"esriFieldTypeString","alias":"STREET","length":20},{"name":"SECT","type":"esriFieldTypeString","alias":"SECT","length":8},{"name":"MAREA","type":"esriFieldTypeString","alias":"MAREA","length":12},{"name":"LANE","type":"esriFieldTypeString","alias":"LANE","length":10},{"name":"ALLEY","type":"esriFieldTypeString","alias":"ALLEY","length":10},{"name":"HOUSE_NO","type":"esriFieldTypeString","alias":"HOUSE_NO","length":20},{"name":"E_COORD97","type":"esriFieldTypeDouble","alias":"E_COORD97"},{"name":"N_COORD97","type":"esriFieldTypeDouble","alias":"N_COORD97"},{"name":"ADDRESS","type":"esriFieldTypeString","alias":"ADDRESS","length":50},{"name":"OBJECTID","type":"esriFieldTypeOID","alias":"OBJECTID"}],"features":[{"attributes":{"ID":251005,"DIS_CODE":0,"TOWNNAME":"善化區","LI":"小新里","LIN":"11鄰","STREET":"蓮潭南街","SECT":" ","MAREA":" ","LANE":"６８巷","ALLEY":" ","HOUSE_NO":"１０號","E_COORD97":179319.09526500001,"N_COORD97":2556936.9717100002,"ADDRESS":"蓮潭南街６８巷１０號","OBJECTID":251001},"geometry":{"x":179319.09526500106,"y":2556936.9717059992}},{"attributes":{"ID":251006,"DIS_CODE":0,"TOWNNAME":"善化區","LI":"小新里","LIN":"11鄰","STREET":"蓮潭南街","SECT":" ","MAREA":" ","LANE":"６８巷","ALLEY":" ","HOUSE_NO":"９號","E_COORD97":179325.026025,"N_COORD97":2556936.54837,"ADDRESS":"蓮潭南街６８巷９號","OBJECTID":251002},"geometry":{"x":179325.02602500003,"y":2556936.5483730007}},{"attributes":{"ID":251007,"DIS_CODE":0,"TOWNNAME":"永康區","LI":"六合里","LIN":"14鄰","STREET":"六合路","SECT":" ","MAREA":" ","LANE":"４８巷","ALLEY":" ","HOUSE_NO":"５２號","E_COORD97":171280.84,"N_COORD97":2545574.9900000002,"ADDRESS":"六合路４８巷５２號","OBJECTID":251003},"geometry":{"x":171280.84000000171,"y":2545574.9900000021}},{"attributes":{"ID":251008,"DIS_CODE":0,"TOWNNAME":"永康區","LI":"六合里","LIN":"14鄰","STREET":"六合路","SECT":" ","MAREA":" ","LANE":"４８巷","ALLEY":" ","HOUSE_NO":"５４號","E_COORD97":171292.62,"N_COORD97":2545572.9900000002,"ADDRESS":"六合路４８巷５４號","OBJECTID":251004},"geometry":{"x":171292.62000000011,"y":2545572.9900000002}},{"attributes":{"ID":251009,"DIS_CODE":0,"TOWNNAME":"永康區","LI":"六合里","LIN":"14鄰","STREET":"六合路","SECT":" ","MAREA":" ","LANE":"４８巷","ALLEY":" ","HOUSE_NO":"６號","E_COORD97":171179.82000000001,"N_COORD97":2545592.75,"ADDRESS":"六合路４８巷６號","OBJECTID":251005},"geometry":{"x":171179.82000000216,"y":2545592.7500000019}},{"attributes":{"ID":251010,"DIS_CODE":0,"TOWNNAME":"永康區","LI":"六合里","LIN":"14鄰","STREET":"六合路","SECT":" ","MAREA":" ","LANE":"４８巷","ALLEY":" ","HOUSE_NO":"８號","E_COORD97":171183.82000000001,"N_COORD97":2545592.5,"ADDRESS":"六合路４８巷８號","OBJECTID":251006},"geometry":{"x":171183.82000000123,"y":2545592.5}},{"attributes":{"ID":251011,"DIS_CODE":0,"TOWNNAME":"歸仁區","LI":"南興里","LIN":"34鄰","STREET":"民生北街","SECT":" ","MAREA":" ","LANE":"７４巷","ALLEY":" ","HOUSE_NO":"１２號","E_COORD97":176324.34,"N_COORD97":2541117.29,"ADDRESS":"民生北街７４巷１２號","OBJECTID":251007},"geometry":{"x":176324.34000000078,"y":2541117.290000001}},{"attributes":{"ID":251012,"DIS_CODE":0,"TOWNNAME":"永康區","LI":"東橋里","LIN":"14鄰","STREET":"東橋三路","SECT":" ","MAREA":" ","LANE":"１１５巷","ALLEY":" ","HOUSE_NO":"２號","E_COORD97":171499.64000000001,"N_COORD97":2546715.73,"ADDRESS":"東橋三路１１５巷２號","OBJECTID":251008},"geometry":{"x":171499.6400000006,"y":2546715.7300000023}},{"attributes":{"ID":251013,"DIS_CODE":0,"TOWNNAME":"永康區","LI":"東橋里","LIN":"14鄰","STREET":"東橋三路","SECT":" ","MAREA":" ","LANE":"１１５巷","ALLEY":" ","HOUSE_NO":"６號","E_COORD97":171490.17000000001,"N_COORD97":2546710.7400000002,"ADDRESS":"東橋三路１１５巷６號","OBJECTID":251009},"geometry":{"x":171490.16999999993,"y":2546710.7400000002}},{"attributes":{"ID":251014,"DIS_CODE":0,"TOWNNAME":"永康區","LI":"東橋里","LIN":"14鄰","STREET":"東橋三路","SECT":" ","MAREA":" ","LANE":"１１５巷","ALLEY":" ","HOUSE_NO":"８號","E_COORD97":171485.94,"N_COORD97":2546708.27,"ADDRESS":"東橋三路１１５巷８號","OBJECTID":251010},"geometry":{"x":171485.94000000227,"y":2546708.2700000014}},{"attributes":{"ID":251015,"DIS_CODE":0,"TOWNNAME":"永康區","LI":"東橋里","LIN":"14鄰","STREET":"東橋三路","SECT":" ","MAREA":" ","LANE":"１１５巷","ALLEY":" ","HOUSE_NO":"１０號","E_COORD97":171481.70000000001,"N_COORD97":2546705.7999999998,"ADDRESS":"東橋三路１１５巷１０號","OBJECTID":251011},"geometry":{"x":171481.70000000019,"y":2546705.8000000026}},{"attributes":{"ID":251016,"DIS_CODE":0,"TOWNNAME":"永康區","LI":"東橋里","LIN":"14鄰","STREET":"東橋三路","SECT":" ","MAREA":" ","LANE":"１１５巷","ALLEY":" ","HOUSE_NO":"１２號","E_COORD97":171477.47,"N_COORD97":2546703.3300000001,"ADDRESS":"東橋三路１１５巷１２號","OBJECTID":251012},"geometry":{"x":171477.46999999974,"y":2546703.3300000001}},{"attributes":{"ID":251017,"DIS_CODE":0,"TOWNNAME":"永康區","LI":"東橋里","LIN":"14鄰","STREET":"東橋三路","SECT":" ","MAREA":" ","LANE":"１１５巷","ALLEY":" ","HOUSE_NO":"１６號","E_COORD97":171473.23999999999,"N_COORD97":2546700.8599999999,"ADDRESS":"東橋三路１１５巷１６號","OBJECTID":251013},"geometry":{"x":171473.24000000022,"y":2546700.8600000013}},{"attributes":{"ID":251018,"DIS_CODE":0,"TOWNNAME":"永康區","LI":"東橋里","LIN":"14鄰","STREET":"東橋三路","SECT":" ","MAREA":" ","LANE":"１１５巷","ALLEY":" ","HOUSE_NO":"２２號","E_COORD97":171460.48999999999,"N_COORD97":2546693.4300000002,"ADDRESS":"東橋三路１１５巷２２號","OBJECTID":251014},"geometry":{"x":171460.49000000115,"y":2546693.4300000016}},{"attributes":{"ID":251019,"DIS_CODE":0,"TOWNNAME":"永康區","LI":"東橋里","LIN":"14鄰","STREET":"東橋三路","SECT":" ","MAREA":" ","LANE":"１１５巷","ALLEY":" ","HOUSE_NO":"１號","E_COORD97":171510.79999999999,"N_COORD97":2546696.5899999999,"ADDRESS":"東橋三路１１５巷１號","OBJECTID":251015},"geometry":{"x":171510.79999999981,"y":2546696.5900000017}},{"attributes":{"ID":251020,"DIS_CODE":0,"TOWNNAME":"永康區","LI":"東橋里","LIN":"14鄰","STREET":"東橋三路","SECT":" ","MAREA":" ","LANE":"１１５巷","ALLEY":" ","HOUSE_NO":"３號","E_COORD97":171505.67999999999,"N_COORD97":2546693.8599999999,"ADDRESS":"東橋三路１１５巷３號","OBJECTID":251016},"geometry":{"x":171505.68000000063,"y":2546693.8600000013}},{"attributes":{"ID":251021,"DIS_CODE":0,"TOWNNAME":"永康區","LI":"東橋里","LIN":"14鄰","STREET":"東橋三路","SECT":" ","MAREA":" ","LANE":"１１５巷","ALLEY":" ","HOUSE_NO":"５號","E_COORD97":171501.51000000001,"N_COORD97":2546691.29,"ADDRESS":"東橋三路１１５巷５號","OBJECTID":251017},"geometry":{"x":171501.50999999978,"y":2546691.2899999991}},{"attributes":{"ID":251022,"DIS_CODE":0,"TOWNNAME":"永康區","LI":"東橋里","LIN":"14鄰","STREET":"東橋三路","SECT":" ","MAREA":" ","LANE":"１１５巷","ALLEY":" ","HOUSE_NO":"７號","E_COORD97":171498.53,"N_COORD97":2546687.4700000002,"ADDRESS":"東橋三路１１５巷７號","OBJECTID":251018},"geometry":{"x":171498.52999999933,"y":2546687.4700000025}},{"attributes":{"ID":251023,"DIS_CODE":0,"TOWNNAME":"永康區","LI":"東橋里","LIN":"14鄰","STREET":"東橋三路","SECT":" ","MAREA":" ","LANE":"１１５巷","ALLEY":" ","HOUSE_NO":"９號","E_COORD97":171493.16,"N_COORD97":2546686.1600000001,"ADDRESS":"東橋三路１１５巷９號","OBJECTID":251019},"geometry":{"x":171493.16000000108,"y":2546686.160000002}},{"attributes":{"ID":251024,"DIS_CODE":0,"TOWNNAME":"永康區","LI":"東橋里","LIN":"14鄰","STREET":"東橋三路","SECT":" ","MAREA":" ","LANE":"１１５巷","ALLEY":" ","HOUSE_NO":"１１號","E_COORD97":171488.98000000001,"N_COORD97":2546683.6000000001,"ADDRESS":"東橋三路１１５巷１１號","OBJECTID":251020},"geometry":{"x":171488.98000000231,"y":2546683.5999999996}},{"attributes":{"ID":251025,"DIS_CODE":0,"TOWNNAME":"永康區","LI":"東橋里","LIN":"14鄰","STREET":"東橋三路","SECT":" ","MAREA":" ","LANE":"１１５巷","ALLEY":" ","HOUSE_NO":"１３號","E_COORD97":171484.79999999999,"N_COORD97":2546681.0299999998,"ADDRESS":"東橋三路１１５巷１３號","OBJECTID":251021},"geometry":{"x":171484.80000000075,"y":2546681.0299999993}},{"attributes":{"ID":251026,"DIS_CODE":0,"TOWNNAME":"永康區","LI":"東橋里","LIN":"14鄰","STREET":"東橋三路","SECT":" ","MAREA":" ","LANE":"１１５巷","ALLEY":" ","HOUSE_NO":"１５號","E_COORD97":171480.63,"N_COORD97":2546678.4700000002,"ADDRESS":"東橋三路１１５巷１５號","OBJECTID":251022},"geometry":{"x":171480.63000000175,"y":2546678.4700000007}},{"attributes":{"ID":251027,"DIS_CODE":0,"TOWNNAME":"永康區","LI":"東橋里","LIN":"14鄰","STREET":"東橋三路","SECT":" ","MAREA":" ","LANE":"１１５巷","ALLEY":" ","HOUSE_NO":"１７號","E_COORD97":171477.14999999999,"N_COORD97":2546674.1400000001,"ADDRESS":"東橋三路１１５巷１７號","OBJECTID":251023},"geometry":{"x":171477.15000000037,"y":2546674.1400000006}},{"attributes":{"ID":251028,"DIS_CODE":0,"TOWNNAME":"永康區","LI":"東橋里","LIN":"14鄰","STREET":"東橋三路","SECT":" ","MAREA":" ","LANE":"１１５巷","ALLEY":" ","HOUSE_NO":"１９號","E_COORD97":171472.92999999999,"N_COORD97":2546671.52,"ADDRESS":"東橋三路１１５巷１９號","OBJECTID":251024},"geometry":{"x":171472.9299999997,"y":2546671.5200000033}},{"attributes":{"ID":251029,"DIS_CODE":0,"TOWNNAME":"永康區","LI":"北灣里","LIN":"14鄰","STREET":"大灣路","SECT":" ","MAREA":" ","LANE":"４４巷","ALLEY":" ","HOUSE_NO":"３６號","E_COORD97":175118.04999999999,"N_COORD97":2545901.1699999999,"ADDRESS":"大灣路４４巷３６號","OBJECTID":251025},"geometry":{"x":175118.05000000075,"y":2545901.1700000037}},{"attributes":{"ID":251030,"DIS_CODE":0,"TOWNNAME":"歸仁區","LI":"南興里","LIN":"4鄰","STREET":"文化十二街","SECT":" ","MAREA":" ","LANE":"３３巷","ALLEY":" ","HOUSE_NO":"１２號","E_COORD97":176434.34,"N_COORD97":2541312.3300000001,"ADDRESS":"文化十二街３３巷１２號","OBJECTID":251026},"geometry":{"x":176434.34000000171,"y":2541312.3300000001}},{"attributes":{"ID":251031,"DIS_CODE":0,"TOWNNAME":"歸仁區","LI":"六甲里","LIN":"40鄰","STREET":"民生南街","SECT":"二段","MAREA":" ","LANE":"８３８巷","ALLEY":" ","HOUSE_NO":"１２號","E_COORD97":176034.60000000001,"N_COORD97":2539289.29,"ADDRESS":"民生南街二段８３８巷１２號","OBJECTID":251027},"geometry":{"x":176034.60000000056,"y":2539289.290000001}},{"attributes":{"ID":251032,"DIS_CODE":0,"TOWNNAME":"仁德區","LI":"二行里","LIN":"14鄰","STREET":"中正西路","SECT":" ","MAREA":" ","LANE":"３５３巷","ALLEY":" ","HOUSE_NO":"４３號","E_COORD97":169866.82000000001,"N_COORD97":2535346.5,"ADDRESS":"中正西路３５３巷４３號","OBJECTID":251028},"geometry":{"x":169866.8200000003,"y":2535346.5000000019}},{"attributes":{"ID":251033,"DIS_CODE":0,"TOWNNAME":"仁德區","LI":"二行里","LIN":"14鄰","STREET":"中正西路","SECT":" ","MAREA":" ","LANE":"３５３巷","ALLEY":" ","HOUSE_NO":"７８號","E_COORD97":169885.45999999999,"N_COORD97":2535292.2400000002,"ADDRESS":"中正西路３５３巷７８號","OBJECTID":251029},"geometry":{"x":169885.46000000089,"y":2535292.2400000002}},{"attributes":{"ID":251034,"DIS_CODE":0,"TOWNNAME":"仁德區","LI":"一甲里","LIN":"14鄰","STREET":"忠義路","SECT":" ","MAREA":" ","LANE":"２４１巷","ALLEY":" ","HOUSE_NO":"２３號","E_COORD97":173908.09,"N_COORD97":2541771.52,"ADDRESS":"忠義路２４１巷２３號","OBJECTID":251030},"geometry":{"x":173908.08999999985,"y":2541771.5199999996}},{"attributes":{"ID":251035,"DIS_CODE":0,"TOWNNAME":"新化區","LI":"協興里","LIN":"14鄰","STREET":"太平街","SECT":" ","MAREA":" ","LANE":"１５０巷","ALLEY":" ","HOUSE_NO":"６５號","E_COORD97":178281.17000000001,"N_COORD97":2548775.25,"ADDRESS":"太平街１５０巷６５號","OBJECTID":251031},"geometry":{"x":178281.16999999993,"y":2548775.25}},{"attributes":{"ID":251036,"DIS_CODE":0,"TOWNNAME":"新化區","LI":"東榮里","LIN":"14鄰","STREET":"中興路","SECT":" ","MAREA":" ","LANE":"５９５巷","ALLEY":" ","HOUSE_NO":"４１號","E_COORD97":179842.26000000001,"N_COORD97":2547816.25,"ADDRESS":"中興路５９５巷４１號","OBJECTID":251032},"geometry":{"x":179842.26000000071,"y":2547816.2500000037}},{"attributes":{"ID":251037,"DIS_CODE":0,"TOWNNAME":"歸仁區","LI":"南保里","LIN":"5鄰","STREET":"文化街","SECT":"三段","MAREA":" ","LANE":"１８巷","ALLEY":" ","HOUSE_NO":"１７號","E_COORD97":176918.14000000001,"N_COORD97":2541277.3300000001,"ADDRESS":"文化街三段１８巷１７號","OBJECTID":251033},"geometry":{"x":176918.13999999966,"y":2541277.3300000019}},{"attributes":{"ID":251038,"DIS_CODE":0,"TOWNNAME":"佳里區","LI":"忠仁里","LIN":"14鄰","STREET":"博愛東街","SECT":" ","MAREA":" ","LANE":"８２巷","ALLEY":" ","HOUSE_NO":"１０號","E_COORD97":166262.98000000001,"N_COORD97":2562090.9700000002,"ADDRESS":"博愛東街８２巷１０號","OBJECTID":251034},"geometry":{"x":166262.98000000138,"y":2562090.9700000007}},{"attributes":{"ID":251039,"DIS_CODE":0,"TOWNNAME":"佳里區","LI":"忠仁里","LIN":"14鄰","STREET":"博愛東街","SECT":" ","MAREA":" ","LANE":"８２巷","ALLEY":" ","HOUSE_NO":"１２號","E_COORD97":166263.20999999999,"N_COORD97":2562096.27,"ADDRESS":"博愛東街８２巷１２號","OBJECTID":251035},"geometry":{"x":166263.21000000089,"y":2562096.2700000033}},{"attributes":{"ID":251040,"DIS_CODE":0,"TOWNNAME":"佳里區","LI":"忠仁里","LIN":"14鄰","STREET":"博愛東街","SECT":" ","MAREA":" ","LANE":"８２巷","ALLEY":" ","HOUSE_NO":"１號","E_COORD97":166245.29999999999,"N_COORD97":2562077.9100000001,"ADDRESS":"博愛東街８２巷１號","OBJECTID":251036},"geometry":{"x":166245.30000000075,"y":2562077.9100000001}},{"attributes":{"ID":251041,"DIS_CODE":0,"TOWNNAME":"佳里區","LI":"忠仁里","LIN":"14鄰","STREET":"博愛東街","SECT":" ","MAREA":" ","LANE":"８２巷","ALLEY":" ","HOUSE_NO":"２號","E_COORD97":166263.56,"N_COORD97":2562072.1699999999,"ADDRESS":"博愛東街８２巷２號","OBJECTID":251037},"geometry":{"x":166263.56000000052,"y":2562072.1699999999}},{"attributes":{"ID":251042,"DIS_CODE":0,"TOWNNAME":"佳里區","LI":"忠仁里","LIN":"14鄰","STREET":"博愛東街","SECT":" ","MAREA":" ","LANE":"８２巷","ALLEY":" ","HOUSE_NO":"６號","E_COORD97":166262.79999999999,"N_COORD97":2562080.2200000002,"ADDRESS":"博愛東街８２巷６號","OBJECTID":251038},"geometry":{"x":166262.79999999981,"y":2562080.2200000007}},{"attributes":{"ID":251043,"DIS_CODE":0,"TOWNNAME":"佳里區","LI":"忠仁里","LIN":"14鄰","STREET":"博愛東街","SECT":" ","MAREA":" ","LANE":"８２巷","ALLEY":" ","HOUSE_NO":"７號","E_COORD97":166217.60000000001,"N_COORD97":2562093.7000000002,"ADDRESS":"博愛東街８２巷７號","OBJECTID":251039},"geometry":{"x":166217.60000000056,"y":2562093.7000000011}},{"attributes":{"ID":251044,"DIS_CODE":0,"TOWNNAME":"佳里區","LI":"忠仁里","LIN":"14鄰","STREET":"博愛東街","SECT":" ","MAREA":" ","LANE":"８２巷","ALLEY":" ","HOUSE_NO":"８號","E_COORD97":166262.82000000001,"N_COORD97":2562086.1800000002,"ADDRESS":"博愛東街８２巷８號","OBJECTID":251040},"geometry":{"x":166262.82000000123,"y":2562086.1799999997}},{"attributes":{"ID":251045,"DIS_CODE":0,"TOWNNAME":"佳里區","LI":"忠仁里","LIN":"14鄰","STREET":"博愛東街","SECT":" ","MAREA":" ","LANE":"８２巷","ALLEY":" ","HOUSE_NO":"９號","E_COORD97":166247.63,"N_COORD97":2562098.21,"ADDRESS":"博愛東街８２巷９號","OBJECTID":251041},"geometry":{"x":166247.63000000175,"y":2562098.2100000028}},{"attributes":{"ID":251046,"DIS_CODE":0,"TOWNNAME":"歸仁區","LI":"六甲里","LIN":"11鄰","STREET":"中正南路","SECT":"一段","MAREA":" ","LANE":"１０４５巷","ALLEY":" ","HOUSE_NO":"２４號","E_COORD97":176026.10000000001,"N_COORD97":2539099.2799999998,"ADDRESS":"中正南路一段１０４５巷２４號","OBJECTID":251042},"geometry":{"x":176026.10000000056,"y":2539099.2800000012}},{"attributes":{"ID":251047,"DIS_CODE":0,"TOWNNAME":"歸仁區","LI":"大潭里","LIN":"20鄰","STREET":"長榮路","SECT":"二段","MAREA":" ","LANE":"９５巷","ALLEY":" ","HOUSE_NO":"１６號","E_COORD97":176972.87,"N_COORD97":2534569.2799999998,"ADDRESS":"長榮路二段９５巷１６號","OBJECTID":251043},"geometry":{"x":176972.87000000011,"y":2534569.2800000031}},{"attributes":{"ID":251048,"DIS_CODE":0,"TOWNNAME":"歸仁區","LI":"六甲里","LIN":"40鄰","STREET":"民生南街","SECT":"二段","MAREA":" ","LANE":"８１２巷","ALLEY":" ","HOUSE_NO":"１４號","E_COORD97":176045,"N_COORD97":2539335.29,"ADDRESS":"民生南街二段８１２巷１４號","OBJECTID":251044},"geometry":{"x":176044.99999999907,"y":2539335.2899999991}},{"attributes":{"ID":251049,"DIS_CODE":0,"TOWNNAME":"歸仁區","LI":"南保里","LIN":"32鄰","STREET":"民權八街","SECT":" ","MAREA":" ","LANE":"３０巷","ALLEY":" ","HOUSE_NO":"１４號","E_COORD97":176901.14000000001,"N_COORD97":2541011.29,"ADDRESS":"民權八街３０巷１４號","OBJECTID":251045},"geometry":{"x":176901.13999999966,"y":2541011.290000001}},{"attributes":{"ID":251050,"DIS_CODE":0,"TOWNNAME":"歸仁區","LI":"許厝里","LIN":"14鄰","STREET":"中山路","SECT":"一段","MAREA":" ","LANE":"３８２巷","ALLEY":" ","HOUSE_NO":"２８號","E_COORD97":178149.29999999999,"N_COORD97":2540788.27,"ADDRESS":"中山路一段３８２巷２８號","OBJECTID":251046},"geometry":{"x":178149.29999999981,"y":2540788.2700000014}},{"attributes":{"ID":251051,"DIS_CODE":0,"TOWNNAME":"歸仁區","LI":"許厝里","LIN":"14鄰","STREET":"中山路","SECT":"一段","MAREA":" ","LANE":"３８２巷","ALLEY":" ","HOUSE_NO":"２１號","E_COORD97":178149.10000000001,"N_COORD97":2540763.27,"ADDRESS":"中山路一段３８２巷２１號","OBJECTID":251047},"geometry":{"x":178149.09999999963,"y":2540763.2699999996}},{"attributes":{"ID":251052,"DIS_CODE":0,"TOWNNAME":"歸仁區","LI":"許厝里","LIN":"14鄰","STREET":"中山路","SECT":"一段","MAREA":" ","LANE":"４２４巷","ALLEY":" ","HOUSE_NO":"１２號","E_COORD97":178129.60000000001,"N_COORD97":2540749.27,"ADDRESS":"中山路一段４２４巷１２號","OBJECTID":251048},"geometry":{"x":178129.60000000056,"y":2540749.2699999996}},{"attributes":{"ID":251053,"DIS_CODE":0,"TOWNNAME":"歸仁區","LI":"許厝里","LIN":"14鄰","STREET":"中山路","SECT":"一段","MAREA":" ","LANE":"３８２巷","ALLEY":" ","HOUSE_NO":"３８號","E_COORD97":178119.60000000001,"N_COORD97":2540805.27,"ADDRESS":"中山路一段３８２巷３８號","OBJECTID":251049},"geometry":{"x":178119.60000000056,"y":2540805.2700000014}},{"attributes":{"ID":251054,"DIS_CODE":0,"TOWNNAME":"歸仁區","LI":"許厝里","LIN":"14鄰","STREET":"中山路","SECT":"一段","MAREA":" ","LANE":"３８２巷","ALLEY":" ","HOUSE_NO":"３４號","E_COORD97":178125.70000000001,"N_COORD97":2540796.27,"ADDRESS":"中山路一段３８２巷３４號","OBJECTID":251050},"geometry":{"x":178125.70000000205,"y":2540796.2699999996}},{"attributes":{"ID":251055,"DIS_CODE":0,"TOWNNAME":"玉井區","LI":"玉田里","LIN":"14鄰","STREET":"太子街","SECT":" ","MAREA":" ","LANE":"１３巷","ALLEY":" ","HOUSE_NO":"１號","E_COORD97":194792.29000000001,"N_COORD97":2557925.2599999998,"ADDRESS":"太子街１３巷１號","OBJECTID":251051},"geometry":{"x":194792.29000000097,"y":2557925.2599999998}},{"attributes":{"ID":251056,"DIS_CODE":0,"TOWNNAME":"歸仁區","LI":"許厝里","LIN":"14鄰","STREET":"中山路","SECT":"一段","MAREA":" ","LANE":"３８２巷","ALLEY":" ","HOUSE_NO":"５０號","E_COORD97":178118.70000000001,"N_COORD97":2540828.27,"ADDRESS":"中山路一段３８２巷５０號","OBJECTID":251052},"geometry":{"x":178118.69999999925,"y":2540828.2700000033}},{"attributes":{"ID":251057,"DIS_CODE":0,"TOWNNAME":"歸仁區","LI":"許厝里","LIN":"14鄰","STREET":"中山路","SECT":"一段","MAREA":" ","LANE":"３８２巷","ALLEY":" ","HOUSE_NO":"４８號","E_COORD97":178119.70000000001,"N_COORD97":2540822.27,"ADDRESS":"中山路一段３８２巷４８號","OBJECTID":251053},"geometry":{"x":178119.70000000019,"y":2540822.2700000014}},{"attributes":{"ID":251058,"DIS_CODE":0,"TOWNNAME":"歸仁區","LI":"崙頂里","LIN":"14鄰","STREET":"崙頂五街","SECT":" ","MAREA":" ","LANE":"２１巷","ALLEY":" ","HOUSE_NO":"２０號","E_COORD97":177930.78,"N_COORD97":2539860.25,"ADDRESS":"崙頂五街２１巷２０號","OBJECTID":251054},"geometry":{"x":177930.78000000119,"y":2539860.2500000019}},{"attributes":{"ID":251059,"DIS_CODE":0,"TOWNNAME":"歸仁區","LI":"媽廟里","LIN":"14鄰","STREET":"媽廟二街","SECT":" ","MAREA":" ","LANE":"１５巷","ALLEY":" ","HOUSE_NO":"１５號","E_COORD97":177649.57999999999,"N_COORD97":2543773.7200000002,"ADDRESS":"媽廟二街１５巷１５號","OBJECTID":251055},"geometry":{"x":177649.58000000007,"y":2543773.7200000025}},{"attributes":{"ID":251060,"DIS_CODE":0,"TOWNNAME":"歸仁區","LI":"許厝里","LIN":"14鄰","STREET":"中山路","SECT":"一段","MAREA":" ","LANE":"３８２巷","ALLEY":" ","HOUSE_NO":"２７號","E_COORD97":178136.89999999999,"N_COORD97":2540773.27,"ADDRESS":"中山路一段３８２巷２７號","OBJECTID":251056},"geometry":{"x":178136.9000000013,"y":2540773.2699999996}},{"attributes":{"ID":251061,"DIS_CODE":0,"TOWNNAME":"歸仁區","LI":"媽廟里","LIN":"14鄰","STREET":"媽廟二街","SECT":" ","MAREA":" ","LANE":"１５巷","ALLEY":" ","HOUSE_NO":"２９號","E_COORD97":177655.98000000001,"N_COORD97":2543808.7200000002,"ADDRESS":"媽廟二街１５巷２９號","OBJECTID":251057},"geometry":{"x":177655.97999999952,"y":2543808.7200000007}},{"attributes":{"ID":251062,"DIS_CODE":0,"TOWNNAME":"歸仁區","LI":"看西里","LIN":"14鄰","STREET":"信義南路","SECT":" ","MAREA":" ","LANE":"２２１巷","ALLEY":" ","HOUSE_NO":"１７號","E_COORD97":178229.75,"N_COORD97":2540045.6800000002,"ADDRESS":"信義南路２２１巷１７號","OBJECTID":251058},"geometry":{"x":178229.75,"y":2540045.6800000034}},{"attributes":{"ID":251063,"DIS_CODE":0,"TOWNNAME":"歸仁區","LI":"許厝里","LIN":"14鄰","STREET":"中山路","SECT":"一段","MAREA":" ","LANE":"３８２巷","ALLEY":" ","HOUSE_NO":"４６號","E_COORD97":178119.70000000001,"N_COORD97":2540817.27,"ADDRESS":"中山路一段３８２巷４６號","OBJECTID":251059},"geometry":{"x":178119.70000000019,"y":2540817.2699999996}},{"attributes":{"ID":251064,"DIS_CODE":0,"TOWNNAME":"歸仁區","LI":"許厝里","LIN":"14鄰","STREET":"中山路","SECT":"一段","MAREA":" ","LANE":"３８２巷","ALLEY":" ","HOUSE_NO":"２４號","E_COORD97":178162.5,"N_COORD97":2540767.27,"ADDRESS":"中山路一段３８２巷２４號","OBJECTID":251060},"geometry":{"x":178162.50000000186,"y":2540767.2700000033}},{"attributes":{"ID":251065,"DIS_CODE":0,"TOWNNAME":"歸仁區","LI":"南保里","LIN":"44鄰","STREET":"民權十街","SECT":" ","MAREA":" ","LANE":"６３巷","ALLEY":" ","HOUSE_NO":"１號","E_COORD97":176780.06,"N_COORD97":2540719.2999999998,"ADDRESS":"民權十街６３巷１號","OBJECTID":251061},"geometry":{"x":176780.06000000145,"y":2540719.3000000007}},{"attributes":{"ID":251066,"DIS_CODE":0,"TOWNNAME":"安平區","LI":"海頭里","LIN":"14鄰","STREET":"安北路","SECT":" ","MAREA":" ","LANE":"１３１巷","ALLEY":" ","HOUSE_NO":"３０號","E_COORD97":164072.01999999999,"N_COORD97":2544801.3100000001,"ADDRESS":"安北路１３１巷３０號","OBJECTID":251062},"geometry":{"x":164072.02000000048,"y":2544801.3100000005}},{"attributes":{"ID":251067,"DIS_CODE":0,"TOWNNAME":"安平區","LI":"海頭里","LIN":"14鄰","STREET":"安北路","SECT":" ","MAREA":" ","LANE":"１３１巷","ALLEY":" ","HOUSE_NO":"３２號","E_COORD97":164073.45000000001,"N_COORD97":2544807.02,"ADDRESS":"安北路１３１巷３２號","OBJECTID":251063},"geometry":{"x":164073.45000000019,"y":2544807.0200000033}},{"attributes":{"ID":251068,"DIS_CODE":0,"TOWNNAME":"安平區","LI":"海頭里","LIN":"14鄰","STREET":"安北路","SECT":" ","MAREA":" ","LANE":"１３１巷","ALLEY":" ","HOUSE_NO":"３８號","E_COORD97":164073.92000000001,"N_COORD97":2544812.7400000002,"ADDRESS":"安北路１３１巷３８號","OBJECTID":251064},"geometry":{"x":164073.91999999993,"y":2544812.7400000039}},{"attributes":{"ID":251069,"DIS_CODE":0,"TOWNNAME":"安平區","LI":"海頭里","LIN":"14鄰","STREET":"安北路","SECT":" ","MAREA":" ","LANE":"１３１巷","ALLEY":" ","HOUSE_NO":"４０號","E_COORD97":164074.87,"N_COORD97":2544818.1400000001,"ADDRESS":"安北路１３１巷４０號","OBJECTID":251065},"geometry":{"x":164074.87000000104,"y":2544818.1400000025}},{"attributes":{"ID":251070,"DIS_CODE":0,"TOWNNAME":"安平區","LI":"海頭里","LIN":"14鄰","STREET":"安北路","SECT":" ","MAREA":" ","LANE":"１３１巷","ALLEY":" ","HOUSE_NO":"４２號","E_COORD97":164057.09,"N_COORD97":2544817.3399999999,"ADDRESS":"安北路１３１巷４２號","OBJECTID":251066},"geometry":{"x":164057.08999999985,"y":2544817.3399999999}},{"attributes":{"ID":251071,"DIS_CODE":0,"TOWNNAME":"安平區","LI":"海頭里","LIN":"14鄰","STREET":"安北路","SECT":" ","MAREA":" ","LANE":"１３１巷","ALLEY":" ","HOUSE_NO":"４６號","E_COORD97":164056.78,"N_COORD97":2544813.21,"ADDRESS":"安北路１３１巷４６號","OBJECTID":251067},"geometry":{"x":164056.78000000212,"y":2544813.2100000009}},{"attributes":{"ID":251072,"DIS_CODE":0,"TOWNNAME":"安平區","LI":"海頭里","LIN":"14鄰","STREET":"安北路","SECT":" ","MAREA":" ","LANE":"１３１巷","ALLEY":" ","HOUSE_NO":"４８號","E_COORD97":164057.25,"N_COORD97":2544806.5499999998,"ADDRESS":"安北路１３１巷４８號","OBJECTID":251068},"geometry":{"x":164057.25000000093,"y":2544806.5500000007}},{"attributes":{"ID":251073,"DIS_CODE":0,"TOWNNAME":"安平區","LI":"海頭里","LIN":"14鄰","STREET":"安北路","SECT":" ","MAREA":" ","LANE":"１３１巷","ALLEY":" ","HOUSE_NO":"５０號","E_COORD97":164056.62,"N_COORD97":2544801.6299999999,"ADDRESS":"安北路１３１巷５０號","OBJECTID":251069},"geometry":{"x":164056.62000000104,"y":2544801.629999999}},{"attributes":{"ID":251074,"DIS_CODE":0,"TOWNNAME":"安平區","LI":"海頭里","LIN":"14鄰","STREET":"安北路","SECT":" ","MAREA":" ","LANE":"１３１巷","ALLEY":" ","HOUSE_NO":"５２號","E_COORD97":164057.25,"N_COORD97":2544796.3900000001,"ADDRESS":"安北路１３１巷５２號","OBJECTID":251070},"geometry":{"x":164057.25000000093,"y":2544796.3900000025}},{"attributes":{"ID":251075,"DIS_CODE":0,"TOWNNAME":"安平區","LI":"海頭里","LIN":"14鄰","STREET":"安北路","SECT":" ","MAREA":" ","LANE":"１３１巷","ALLEY":" ","HOUSE_NO":"５６號","E_COORD97":164057.73000000001,"N_COORD97":2544789.8799999999,"ADDRESS":"安北路１３１巷５６號","OBJECTID":251071},"geometry":{"x":164057.73000000138,"y":2544789.879999999}},{"attributes":{"ID":251076,"DIS_CODE":0,"TOWNNAME":"安平區","LI":"怡平里","LIN":"14鄰","STREET":"建平十二街","SECT":" ","MAREA":" ","LANE":"３９６巷","ALLEY":" ","HOUSE_NO":"５號","E_COORD97":165553.75,"N_COORD97":2544071.6400000001,"ADDRESS":"建平十二街３９６巷５號","OBJECTID":251072},"geometry":{"x":165553.75000000093,"y":2544071.6400000043}},{"attributes":{"ID":251077,"DIS_CODE":0,"TOWNNAME":"安平區","LI":"怡平里","LIN":"14鄰","STREET":"建平十二街","SECT":" ","MAREA":" ","LANE":"３９６巷","ALLEY":" ","HOUSE_NO":"３號","E_COORD97":165552.69,"N_COORD97":2544066.0800000001,"ADDRESS":"建平十二街３９６巷３號","OBJECTID":251073},"geometry":{"x":165552.69000000227,"y":2544066.0800000019}},{"attributes":{"ID":251078,"DIS_CODE":0,"TOWNNAME":"安平區","LI":"怡平里","LIN":"14鄰","STREET":"華平路","SECT":" ","MAREA":" ","LANE":"６７２巷","ALLEY":" ","HOUSE_NO":"２號","E_COORD97":165552.60000000001,"N_COORD97":2544086.0499999998,"ADDRESS":"華平路６７２巷２號","OBJECTID":251074},"geometry":{"x":165552.60000000149,"y":2544086.0500000026}},{"attributes":{"ID":251079,"DIS_CODE":0,"TOWNNAME":"安平區","LI":"金城里","LIN":"14鄰","STREET":"世平四街","SECT":" ","MAREA":" ","LANE":"４９巷","ALLEY":" ","HOUSE_NO":"２２號","E_COORD97":162878.70000000001,"N_COORD97":2544108.4100000001,"ADDRESS":"世平四街４９巷２２號","OBJECTID":251075},"geometry":{"x":162878.70000000019,"y":2544108.4100000001}},{"attributes":{"ID":251080,"DIS_CODE":0,"TOWNNAME":"安平區","LI":"金城里","LIN":"14鄰","STREET":"世平四街","SECT":" ","MAREA":" ","LANE":"４９巷","ALLEY":" ","HOUSE_NO":"２０號","E_COORD97":162886.01000000001,"N_COORD97":2544111.5899999999,"ADDRESS":"世平四街４９巷２０號","OBJECTID":251076},"geometry":{"x":162886.00999999978,"y":2544111.5900000036}},{"attributes":{"ID":251081,"DIS_CODE":0,"TOWNNAME":"安平區","LI":"金城里","LIN":"14鄰","STREET":"世平四街","SECT":" ","MAREA":" ","LANE":"４９巷","ALLEY":" ","HOUSE_NO":"１８號","E_COORD97":162893.31,"N_COORD97":2544113.8100000001,"ADDRESS":"世平四街４９巷１８號","OBJECTID":251077},"geometry":{"x":162893.31000000052,"y":2544113.8100000005}},{"attributes":{"ID":251082,"DIS_CODE":0,"TOWNNAME":"安平區","LI":"金城里","LIN":"14鄰","STREET":"世平四街","SECT":" ","MAREA":" ","LANE":"４９巷","ALLEY":" ","HOUSE_NO":"１６號","E_COORD97":162899.01999999999,"N_COORD97":2544116.5099999998,"ADDRESS":"世平四街４９巷１６號","OBJECTID":251078},"geometry":{"x":162899.02000000048,"y":2544116.5100000016}},{"attributes":{"ID":251083,"DIS_CODE":0,"TOWNNAME":"安平區","LI":"金城里","LIN":"14鄰","STREET":"世平四街","SECT":" ","MAREA":" ","LANE":"４９巷","ALLEY":" ","HOUSE_NO":"１２號","E_COORD97":162873.31,"N_COORD97":2544119.0499999998,"ADDRESS":"世平四街４９巷１２號","OBJECTID":251079},"geometry":{"x":162873.31000000052,"y":2544119.0500000007}},{"attributes":{"ID":251084,"DIS_CODE":0,"TOWNNAME":"安平區","LI":"金城里","LIN":"14鄰","STREET":"世平四街","SECT":" ","MAREA":" ","LANE":"４９巷","ALLEY":" ","HOUSE_NO":"１０號","E_COORD97":162879.34,"N_COORD97":2544121.5899999999,"ADDRESS":"世平四街４９巷１０號","OBJECTID":251080},"geometry":{"x":162879.33999999892,"y":2544121.589999998}},{"attributes":{"ID":251085,"DIS_CODE":0,"TOWNNAME":"安平區","LI":"金城里","LIN":"14鄰","STREET":"世平四街","SECT":" ","MAREA":" ","LANE":"４９巷","ALLEY":" ","HOUSE_NO":"８號","E_COORD97":162885.85000000001,"N_COORD97":2544123.4900000002,"ADDRESS":"世平四街４９巷８號","OBJECTID":251081},"geometry":{"x":162885.8499999987,"y":2544123.4900000021}},{"attributes":{"ID":251086,"DIS_CODE":0,"TOWNNAME":"安平區","LI":"金城里","LIN":"14鄰","STREET":"世平四街","SECT":" ","MAREA":" ","LANE":"４９巷","ALLEY":" ","HOUSE_NO":"６號","E_COORD97":162890.60999999999,"N_COORD97":2544125.8700000001,"ADDRESS":"世平四街４９巷６號","OBJECTID":251082},"geometry":{"x":162890.61000000127,"y":2544125.8700000029}},{"attributes":{"ID":251087,"DIS_CODE":0,"TOWNNAME":"安平區","LI":"金城里","LIN":"14鄰","STREET":"世平四街","SECT":" ","MAREA":" ","LANE":"４９巷","ALLEY":" ","HOUSE_NO":"２號","E_COORD97":162895.53,"N_COORD97":2544128.2599999998,"ADDRESS":"世平四街４９巷２號","OBJECTID":251083},"geometry":{"x":162895.53000000212,"y":2544128.2600000016}},{"attributes":{"ID":251088,"DIS_CODE":0,"TOWNNAME":"歸仁區","LI":"六甲里","LIN":"20鄰","STREET":"中正南路","SECT":"一段","MAREA":" ","LANE":"７３８巷","ALLEY":" ","HOUSE_NO":"１２號","E_COORD97":176423.075663,"N_COORD97":2539707.6711800001,"ADDRESS":"中正南路一段７３８巷１２號","OBJECTID":251084},"geometry":{"x":176423.07566300221,"y":2539707.6711769998}},{"attributes":{"ID":251089,"DIS_CODE":0,"TOWNNAME":"新營區","LI":"中營里","LIN":"14鄰","STREET":"東山路","SECT":" ","MAREA":" ","LANE":"１９巷","ALLEY":" ","HOUSE_NO":"７５號","E_COORD97":181372.60999999999,"N_COORD97":2578809.9300000002,"ADDRESS":"東山路１９巷７５號","OBJECTID":251085},"geometry":{"x":181372.6100000022,"y":2578809.9300000034}},{"attributes":{"ID":251090,"DIS_CODE":0,"TOWNNAME":"南區","LI":"新興里","LIN":"14鄰","STREET":"夏林路","SECT":" ","MAREA":" ","LANE":"１８０巷","ALLEY":" ","HOUSE_NO":"１０號","E_COORD97":167412.04000000001,"N_COORD97":2542340.6200000001,"ADDRESS":"夏林路１８０巷１０號","OBJECTID":251086},"geometry":{"x":167412.04000000097,"y":2542340.6200000029}},{"attributes":{"ID":251091,"DIS_CODE":0,"TOWNNAME":"南區","LI":"新興里","LIN":"14鄰","STREET":"夏林路","SECT":" ","MAREA":" ","LANE":"１８０巷","ALLEY":" ","HOUSE_NO":"１號","E_COORD97":167430.07999999999,"N_COORD97":2542322.0099999998,"ADDRESS":"夏林路１８０巷１號","OBJECTID":251087},"geometry":{"x":167430.08000000101,"y":2542322.0100000035}},{"attributes":{"ID":251092,"DIS_CODE":0,"TOWNNAME":"南區","LI":"新興里","LIN":"14鄰","STREET":"夏林路","SECT":" ","MAREA":" ","LANE":"１８０巷","ALLEY":" ","HOUSE_NO":"３號","E_COORD97":167423.56,"N_COORD97":2542321.1299999999,"ADDRESS":"夏林路１８０巷３號","OBJECTID":251088},"geometry":{"x":167423.55999999959,"y":2542321.1300000008}},{"attributes":{"ID":251093,"DIS_CODE":0,"TOWNNAME":"南區","LI":"新興里","LIN":"14鄰","STREET":"夏林路","SECT":" ","MAREA":" ","LANE":"１８０巷","ALLEY":" ","HOUSE_NO":"５號","E_COORD97":167412.19,"N_COORD97":2542320.73,"ADDRESS":"夏林路１８０巷５號","OBJECTID":251089},"geometry":{"x":167412.18999999948,"y":2542320.7300000004}},{"attributes":{"ID":251094,"DIS_CODE":0,"TOWNNAME":"南區","LI":"新興里","LIN":"14鄰","STREET":"夏林路","SECT":" ","MAREA":" ","LANE":"１８０巷","ALLEY":" ","HOUSE_NO":"６號","E_COORD97":167424.37,"N_COORD97":2542341.29,"ADDRESS":"夏林路１８０巷６號","OBJECTID":251090},"geometry":{"x":167424.37000000197,"y":2542341.290000001}},{"attributes":{"ID":251095,"DIS_CODE":0,"TOWNNAME":"北區","LI":"延平里","LIN":"14鄰","STREET":"長榮路","SECT":"五段","MAREA":" ","LANE":"４０９巷","ALLEY":" ","HOUSE_NO":"１３號","E_COORD97":169306.10000000001,"N_COORD97":2545902.3900000001,"ADDRESS":"長榮路五段４０９巷１３號","OBJECTID":251091},"geometry":{"x":169306.10000000056,"y":2545902.3900000006}},{"attributes":{"ID":251096,"DIS_CODE":0,"TOWNNAME":"北區","LI":"延平里","LIN":"14鄰","STREET":"長榮路","SECT":"五段","MAREA":" ","LANE":"４３５巷","ALLEY":" ","HOUSE_NO":"６號","E_COORD97":169237.14000000001,"N_COORD97":2545939.1000000001,"ADDRESS":"長榮路五段４３５巷６號","OBJECTID":251092},"geometry":{"x":169237.13999999966,"y":2545939.1000000015}},{"attributes":{"ID":251097,"DIS_CODE":0,"TOWNNAME":"北區","LI":"延平里","LIN":"14鄰","STREET":"長榮路","SECT":"五段","MAREA":" ","LANE":"４３５巷","ALLEY":" ","HOUSE_NO":"８號","E_COORD97":169234.60999999999,"N_COORD97":2545935.7400000002,"ADDRESS":"長榮路五段４３５巷８號","OBJECTID":251093},"geometry":{"x":169234.61000000034,"y":2545935.7400000021}},{"attributes":{"ID":251098,"DIS_CODE":0,"TOWNNAME":"歸仁區","LI":"歸南里","LIN":"14鄰","STREET":"民生南街","SECT":"二段","MAREA":" ","LANE":"２７７巷","ALLEY":" ","HOUSE_NO":"２號","E_COORD97":176115.14000000001,"N_COORD97":2539972.29,"ADDRESS":"民生南街二段２７７巷２號","OBJECTID":251094},"geometry":{"x":176115.1400000006,"y":2539972.2899999991}},{"attributes":{"ID":251099,"DIS_CODE":0,"TOWNNAME":"歸仁區","LI":"歸南里","LIN":"14鄰","STREET":"民生南街","SECT":"二段","MAREA":" ","LANE":"２７７巷","ALLEY":" ","HOUSE_NO":"３０號","E_COORD97":176183.09,"N_COORD97":2539985.29,"ADDRESS":"民生南街二段２７７巷３０號","OBJECTID":251095},"geometry":{"x":176183.08999999985,"y":2539985.2899999991}},{"attributes":{"ID":251100,"DIS_CODE":0,"TOWNNAME":"歸仁區","LI":"大潭里","LIN":"14鄰","STREET":"大潭二街","SECT":" ","MAREA":" ","LANE":"３０巷","ALLEY":" ","HOUSE_NO":"１５號","E_COORD97":175008.60999999999,"N_COORD97":2534685.25,"ADDRESS":"大潭二街３０巷１５號","OBJECTID":251096},"geometry":{"x":175008.61000000034,"y":2534685.2499999981}},{"attributes":{"ID":251101,"DIS_CODE":0,"TOWNNAME":"歸仁區","LI":"南興里","LIN":"14鄰","STREET":"文化街","SECT":"三段","MAREA":" ","LANE":"５３０巷","ALLEY":" ","HOUSE_NO":"２號","E_COORD97":175794.04000000001,"N_COORD97":2541236.3300000001,"ADDRESS":"文化街三段５３０巷２號","OBJECTID":251097},"geometry":{"x":175794.0400000019,"y":2541236.3300000019}},{"attributes":{"ID":251102,"DIS_CODE":0,"TOWNNAME":"歸仁區","LI":"七甲里","LIN":"14鄰","STREET":"南丁路","SECT":" ","MAREA":" ","LANE":"５７１巷","ALLEY":" ","HOUSE_NO":"８號","E_COORD97":176005.48999999999,"N_COORD97":2543043.25,"ADDRESS":"南丁路５７１巷８號","OBJECTID":251098},"geometry":{"x":176005.49000000115,"y":2543043.2500000019}},{"attributes":{"ID":251103,"DIS_CODE":0,"TOWNNAME":"歸仁區","LI":"南保里","LIN":"14鄰","STREET":"文化十街","SECT":" ","MAREA":" ","LANE":"１０巷","ALLEY":" ","HOUSE_NO":"５號","E_COORD97":176635.64000000001,"N_COORD97":2541278.3300000001,"ADDRESS":"文化十街１０巷５號","OBJECTID":251099},"geometry":{"x":176635.6400000006,"y":2541278.3300000001}},{"attributes":{"ID":251104,"DIS_CODE":0,"TOWNNAME":"歸仁區","LI":"南保里","LIN":"14鄰","STREET":"文化十街","SECT":" ","MAREA":" ","LANE":"１０巷","ALLEY":" ","HOUSE_NO":"１１號","E_COORD97":176659.48999999999,"N_COORD97":2541277.3300000001,"ADDRESS":"文化十街１０巷１１號","OBJECTID":251100},"geometry":{"x":176659.49000000115,"y":2541277.3300000019}},{"attributes":{"ID":251105,"DIS_CODE":0,"TOWNNAME":"歸仁區","LI":"歸南里","LIN":"14鄰","STREET":"民生南街","SECT":"二段","MAREA":" ","LANE":"２７７巷","ALLEY":" ","HOUSE_NO":"８號","E_COORD97":176125.44,"N_COORD97":2539974.29,"ADDRESS":"民生南街二段２７７巷８號","OBJECTID":251101},"geometry":{"x":176125.44000000041,"y":2539974.290000001}},{"attributes":{"ID":251106,"DIS_CODE":0,"TOWNNAME":"歸仁區","LI":"大廟里","LIN":"14鄰","STREET":"大廟六街","SECT":" ","MAREA":" ","LANE":"１１０巷","ALLEY":" ","HOUSE_NO":"７號","E_COORD97":176243.22,"N_COORD97":2544202.25,"ADDRESS":"大廟六街１１０巷７號","OBJECTID":251102},"geometry":{"x":176243.21999999881,"y":2544202.2500000037}},{"attributes":{"ID":251107,"DIS_CODE":0,"TOWNNAME":"歸仁區","LI":"看東里","LIN":"14鄰","STREET":"忠孝南路","SECT":" ","MAREA":" ","LANE":"２５巷","ALLEY":" ","HOUSE_NO":"１號","E_COORD97":178525.35999999999,"N_COORD97":2540570.6400000001,"ADDRESS":"忠孝南路２５巷１號","OBJECTID":251103},"geometry":{"x":178525.36000000127,"y":2540570.6400000025}},{"attributes":{"ID":251108,"DIS_CODE":0,"TOWNNAME":"歸仁區","LI":"媽廟里","LIN":"14鄰","STREET":"媽廟二街","SECT":" ","MAREA":" ","LANE":"１５巷","ALLEY":" ","HOUSE_NO":"２５號","E_COORD97":177637.48000000001,"N_COORD97":2543802.7200000002,"ADDRESS":"媽廟二街１５巷２５號","OBJECTID":251104},"geometry":{"x":177637.48000000231,"y":2543802.7200000007}},{"attributes":{"ID":251109,"DIS_CODE":0,"TOWNNAME":"歸仁區","LI":"大潭里","LIN":"20鄰","STREET":"長榮路","SECT":"二段","MAREA":" ","LANE":"９５巷","ALLEY":" ","HOUSE_NO":"２２號","E_COORD97":176973.87,"N_COORD97":2534576.2799999998,"ADDRESS":"長榮路二段９５巷２２號","OBJECTID":251105},"geometry":{"x":176973.87000000104,"y":2534576.2800000031}},{"attributes":{"ID":251110,"DIS_CODE":0,"TOWNNAME":"歸仁區","LI":"歸南里","LIN":"14鄰","STREET":"民生南街","SECT":"二段","MAREA":" ","LANE":"２７７巷","ALLEY":" ","HOUSE_NO":"１４號","E_COORD97":176139.98999999999,"N_COORD97":2539977.29,"ADDRESS":"民生南街二段２７７巷１４號","OBJECTID":251106},"geometry":{"x":176139.99000000022,"y":2539977.290000001}},{"attributes":{"ID":251111,"DIS_CODE":0,"TOWNNAME":"歸仁區","LI":"歸南里","LIN":"14鄰","STREET":"民生南街","SECT":"二段","MAREA":" ","LANE":"２７７巷","ALLEY":" ","HOUSE_NO":"２０號","E_COORD97":176155.39000000001,"N_COORD97":2539981.29,"ADDRESS":"民生南街二段２７７巷２０號","OBJECTID":251107},"geometry":{"x":176155.38999999966,"y":2539981.290000001}},{"attributes":{"ID":251112,"DIS_CODE":0,"TOWNNAME":"歸仁區","LI":"八甲里","LIN":"14鄰","STREET":"大明三街","SECT":" ","MAREA":" ","LANE":"２１巷","ALLEY":" ","HOUSE_NO":"５號","E_COORD97":178101.82000000001,"N_COORD97":2541781.6099999999,"ADDRESS":"大明三街２１巷５號","OBJECTID":251108},"geometry":{"x":178101.82000000123,"y":2541781.6099999975}},{"attributes":{"ID":251113,"DIS_CODE":0,"TOWNNAME":"歸仁區","LI":"八甲里","LIN":"14鄰","STREET":"大明街","SECT":" ","MAREA":" ","LANE":"１３９巷","ALLEY":" ","HOUSE_NO":"３７號","E_COORD97":178163.98000000001,"N_COORD97":2542115.25,"ADDRESS":"大明街１３９巷３７號","OBJECTID":251109},"geometry":{"x":178163.98000000045,"y":2542115.2500000019}},{"attributes":{"ID":251114,"DIS_CODE":0,"TOWNNAME":"歸仁區","LI":"西埔里","LIN":"14鄰","STREET":"西埔二街","SECT":" ","MAREA":" ","LANE":"８７巷","ALLEY":" ","HOUSE_NO":"１５號","E_COORD97":176799.29000000001,"N_COORD97":2544710.25,"ADDRESS":"西埔二街８７巷１５號","OBJECTID":251110},"geometry":{"x":176799.2900000019,"y":2544710.25}},{"attributes":{"ID":251115,"DIS_CODE":0,"TOWNNAME":"玉井區","LI":"玉田里","LIN":"14鄰","STREET":"太子街","SECT":" ","MAREA":" ","LANE":"３９巷","ALLEY":" ","HOUSE_NO":"１０號","E_COORD97":194761.54000000001,"N_COORD97":2557958.25,"ADDRESS":"太子街３９巷１０號","OBJECTID":251111},"geometry":{"x":194761.5400000019,"y":2557958.2500000019}},{"attributes":{"ID":251116,"DIS_CODE":0,"TOWNNAME":"玉井區","LI":"玉田里","LIN":"14鄰","STREET":"太子街","SECT":" ","MAREA":" ","LANE":"１３巷","ALLEY":" ","HOUSE_NO":"５號","E_COORD97":194776.89000000001,"N_COORD97":2557913.2599999998,"ADDRESS":"太子街１３巷５號","OBJECTID":251112},"geometry":{"x":194776.88999999966,"y":2557913.2600000016}},{"attributes":{"ID":251117,"DIS_CODE":0,"TOWNNAME":"玉井區","LI":"玉田里","LIN":"14鄰","STREET":"太子街","SECT":" ","MAREA":" ","LANE":"１３巷","ALLEY":" ","HOUSE_NO":"２號","E_COORD97":194783.48000000001,"N_COORD97":2557926.2599999998,"ADDRESS":"太子街１３巷２號","OBJECTID":251113},"geometry":{"x":194783.48000000045,"y":2557926.2600000035}},{"attributes":{"ID":251118,"DIS_CODE":0,"TOWNNAME":"玉井區","LI":"玉田里","LIN":"14鄰","STREET":"太子街","SECT":" ","MAREA":" ","LANE":"３９巷","ALLEY":" ","HOUSE_NO":"８號","E_COORD97":194758.67999999999,"N_COORD97":2557979.25,"ADDRESS":"太子街３９巷８號","OBJECTID":251114},"geometry":{"x":194758.68000000063,"y":2557979.25}},{"attributes":{"ID":251119,"DIS_CODE":0,"TOWNNAME":"玉井區","LI":"玉田里","LIN":"14鄰","STREET":"太子街","SECT":" ","MAREA":" ","LANE":"１３巷","ALLEY":" ","HOUSE_NO":"３號","E_COORD97":194777.17999999999,"N_COORD97":2557921.2599999998,"ADDRESS":"太子街１３巷３號","OBJECTID":251115},"geometry":{"x":194777.18000000156,"y":2557921.2599999998}},{"attributes":{"ID":251120,"DIS_CODE":0,"TOWNNAME":"玉井區","LI":"玉田里","LIN":"14鄰","STREET":"太子街","SECT":" ","MAREA":" ","LANE":"１３巷","ALLEY":" ","HOUSE_NO":"６號","E_COORD97":194764.09,"N_COORD97":2557915.2599999998,"ADDRESS":"太子街１３巷６號","OBJECTID":251116},"geometry":{"x":194764.08999999985,"y":2557915.2599999998}},{"attributes":{"ID":251121,"DIS_CODE":0,"TOWNNAME":"玉井區","LI":"玉田里","LIN":"14鄰","STREET":"民權路","SECT":" ","MAREA":" ","LANE":"１１１巷","ALLEY":" ","HOUSE_NO":"２號","E_COORD97":194763.38,"N_COORD97":2557863.2799999998,"ADDRESS":"民權路１１１巷２號","OBJECTID":251117},"geometry":{"x":194763.37999999989,"y":2557863.2799999993}},{"attributes":{"ID":251122,"DIS_CODE":0,"TOWNNAME":"玉井區","LI":"玉田里","LIN":"14鄰","STREET":"太子街","SECT":" ","MAREA":" ","LANE":"３９巷","ALLEY":" ","HOUSE_NO":"１１號","E_COORD97":194766.84,"N_COORD97":2557964.25,"ADDRESS":"太子街３９巷１１號","OBJECTID":251118},"geometry":{"x":194766.83999999985,"y":2557964.2500000019}},{"attributes":{"ID":251123,"DIS_CODE":0,"TOWNNAME":"玉井區","LI":"玉田里","LIN":"14鄰","STREET":"太子街","SECT":" ","MAREA":" ","LANE":"３９巷","ALLEY":" ","HOUSE_NO":"２號","E_COORD97":194778.17999999999,"N_COORD97":2557978.25,"ADDRESS":"太子街３９巷２號","OBJECTID":251119},"geometry":{"x":194778.1799999997,"y":2557978.2500000019}},{"attributes":{"ID":251124,"DIS_CODE":0,"TOWNNAME":"玉井區","LI":"玉田里","LIN":"14鄰","STREET":"太子街","SECT":" ","MAREA":" ","LANE":"３９巷","ALLEY":" ","HOUSE_NO":"６號","E_COORD97":194765.98000000001,"N_COORD97":2557979.25,"ADDRESS":"太子街３９巷６號","OBJECTID":251120},"geometry":{"x":194765.98000000138,"y":2557979.25}},{"attributes":{"ID":251125,"DIS_CODE":0,"TOWNNAME":"北區","LI":"實踐里","LIN":"14鄰","STREET":"大武街","SECT":" ","MAREA":" ","LANE":"１９９巷","ALLEY":" ","HOUSE_NO":"１號之１","E_COORD97":169610.31,"N_COORD97":2546041.9300000002,"ADDRESS":"大武街１９９巷１號之１","OBJECTID":251121},"geometry":{"x":169610.30999999959,"y":2546041.9300000034}},{"attributes":{"ID":251126,"DIS_CODE":0,"TOWNNAME":"北區","LI":"文元里","LIN":"14鄰","STREET":"文賢路","SECT":" ","MAREA":" ","LANE":"１０８０巷","ALLEY":" ","HOUSE_NO":"８號","E_COORD97":167390.79999999999,"N_COORD97":2546186.6600000001,"ADDRESS":"文賢路１０８０巷８號","OBJECTID":251122},"geometry":{"x":167390.80000000075,"y":2546186.660000002}},{"attributes":{"ID":251127,"DIS_CODE":0,"TOWNNAME":"學甲區","LI":"仁得里","LIN":"14鄰","STREET":"和平路","SECT":" ","MAREA":" ","LANE":"２４４巷","ALLEY":" ","HOUSE_NO":"１號","E_COORD97":165990.79999999999,"N_COORD97":2570308.3799999999,"ADDRESS":"和平路２４４巷１號","OBJECTID":251123},"geometry":{"x":165990.80000000075,"y":2570308.379999999}},{"attributes":{"ID":251128,"DIS_CODE":0,"TOWNNAME":"北區","LI":"文元里","LIN":"14鄰","STREET":"文賢路","SECT":" ","MAREA":" ","LANE":"１０３０巷","ALLEY":" ","HOUSE_NO":"１號之３","E_COORD97":167403.59,"N_COORD97":2546084.5099999998,"ADDRESS":"文賢路１０３０巷１號之３","OBJECTID":251124},"geometry":{"x":167403.58999999985,"y":2546084.5099999998}},{"attributes":{"ID":251129,"DIS_CODE":0,"TOWNNAME":"北區","LI":"新勝里","LIN":"14鄰","STREET":"長榮路","SECT":"五段","MAREA":" ","LANE":"１７５巷","ALLEY":" ","HOUSE_NO":"１４號","E_COORD97":170016.17999999999,"N_COORD97":2545792.77,"ADDRESS":"長榮路五段１７５巷１４號","OBJECTID":251125},"geometry":{"x":170016.18000000063,"y":2545792.7700000014}},{"attributes":{"ID":251130,"DIS_CODE":0,"TOWNNAME":"北區","LI":"新勝里","LIN":"14鄰","STREET":"長榮路","SECT":"五段","MAREA":" ","LANE":"１７５巷","ALLEY":" ","HOUSE_NO":"１６號","E_COORD97":170012.34,"N_COORD97":2545791.4700000002,"ADDRESS":"長榮路五段１７５巷１６號","OBJECTID":251126},"geometry":{"x":170012.33999999985,"y":2545791.4700000044}},{"attributes":{"ID":251131,"DIS_CODE":0,"TOWNNAME":"北區","LI":"新勝里","LIN":"14鄰","STREET":"長榮路","SECT":"五段","MAREA":" ","LANE":"１７５巷","ALLEY":" ","HOUSE_NO":"３４號","E_COORD97":169975.69,"N_COORD97":2545791.0800000001,"ADDRESS":"長榮路五段１７５巷３４號","OBJECTID":251127},"geometry":{"x":169975.69000000134,"y":2545791.0800000019}},{"attributes":{"ID":251132,"DIS_CODE":0,"TOWNNAME":"北區","LI":"新勝里","LIN":"14鄰","STREET":"長榮路","SECT":"五段","MAREA":" ","LANE":"１７５巷","ALLEY":" ","HOUSE_NO":"３６號","E_COORD97":169971.20000000001,"N_COORD97":2545790.23,"ADDRESS":"長榮路五段１７５巷３６號","OBJECTID":251128},"geometry":{"x":169971.20000000019,"y":2545790.2300000023}},{"attributes":{"ID":251133,"DIS_CODE":0,"TOWNNAME":"仁德區","LI":"仁和里","LIN":"16鄰","STREET":"保華路","SECT":" ","MAREA":" ","LANE":" ","ALLEY":" ","HOUSE_NO":"３７１號","E_COORD97":170392.327613,"N_COORD97":2539882.6676699999,"ADDRESS":"保華路３７１號","OBJECTID":251129},"geometry":{"x":170392.32761299983,"y":2539882.6676720008}},{"attributes":{"ID":251134,"DIS_CODE":0,"TOWNNAME":"永康區","LI":"\u25A0洲里","LIN":"22鄰","STREET":"正南八街","SECT":" ","MAREA":" ","LANE":"３２巷","ALLEY":" ","HOUSE_NO":"２號","E_COORD97":171418.38,"N_COORD97":2548800.2200000002,"ADDRESS":"正南八街３２巷２號","OBJECTID":251130},"geometry":{"x":171418.38000000082,"y":2548800.2200000007}},{"attributes":{"ID":251135,"DIS_CODE":0,"TOWNNAME":"北區","LI":"新勝里","LIN":"14鄰","STREET":"長榮路","SECT":"五段","MAREA":" ","LANE":"１７５巷","ALLEY":" ","HOUSE_NO":"４號","E_COORD97":170037.89999999999,"N_COORD97":2545792.8300000001,"ADDRESS":"長榮路五段１７５巷４號","OBJECTID":251131},"geometry":{"x":170037.90000000037,"y":2545792.8300000019}},{"attributes":{"ID":251136,"DIS_CODE":0,"TOWNNAME":"北區","LI":"新勝里","LIN":"14鄰","STREET":"長榮路","SECT":"五段","MAREA":" ","LANE":"１７５巷","ALLEY":" ","HOUSE_NO":"６號","E_COORD97":170033.54000000001,"N_COORD97":2545792.5099999998,"ADDRESS":"長榮路五段１７５巷６號","OBJECTID":251132},"geometry":{"x":170033.54000000004,"y":2545792.5099999998}},{"attributes":{"ID":251137,"DIS_CODE":0,"TOWNNAME":"善化區","LI":"小新里","LIN":"11鄰","STREET":"蓮潭路","SECT":" ","MAREA":" ","LANE":"１１６巷","ALLEY":" ","HOUSE_NO":"２０號","E_COORD97":179190.41896400001,"N_COORD97":2557128.8474300001,"ADDRESS":"蓮潭路１１６巷２０號","OBJECTID":251133},"geometry":{"x":179190.41896400042,"y":2557128.8474349994}},{"attributes":{"ID":251138,"DIS_CODE":0,"TOWNNAME":"善化區","LI":"小新里","LIN":"11鄰","STREET":"蓮潭路","SECT":" ","MAREA":" ","LANE":"１１６巷","ALLEY":" ","HOUSE_NO":"１８號","E_COORD97":179190.10124399999,"N_COORD97":2557118.8991100001,"ADDRESS":"蓮潭路１１６巷１８號","OBJECTID":251134},"geometry":{"x":179190.10124400072,"y":2557118.8991070017}},{"attributes":{"ID":251139,"DIS_CODE":0,"TOWNNAME":"北區","LI":"新勝里","LIN":"14鄰","STREET":"長榮路","SECT":"五段","MAREA":" ","LANE":"１７５巷","ALLEY":" ","HOUSE_NO":"８號","E_COORD97":170029.63,"N_COORD97":2545792.1200000001,"ADDRESS":"長榮路五段１７５巷８號","OBJECTID":251135},"geometry":{"x":170029.63000000175,"y":2545792.1200000029}},{"attributes":{"ID":251140,"DIS_CODE":0,"TOWNNAME":"北區","LI":"六甲里","LIN":"14鄰","STREET":"西門路","SECT":"四段","MAREA":" ","LANE":"２８０巷","ALLEY":" ","HOUSE_NO":"１２號","E_COORD97":169020.67000000001,"N_COORD97":2545867.3700000001,"ADDRESS":"西門路四段２８０巷１２號","OBJECTID":251136},"geometry":{"x":169020.67000000179,"y":2545867.3700000048}},{"attributes":{"ID":251141,"DIS_CODE":0,"TOWNNAME":"北區","LI":"六甲里","LIN":"14鄰","STREET":"西門路","SECT":"四段","MAREA":" ","LANE":"２８０巷","ALLEY":" ","HOUSE_NO":"２號","E_COORD97":168986.06,"N_COORD97":2545862.0699999998,"ADDRESS":"西門路四段２８０巷２號","OBJECTID":251137},"geometry":{"x":168986.06000000052,"y":2545862.0700000022}},{"attributes":{"ID":251142,"DIS_CODE":0,"TOWNNAME":"北區","LI":"六甲里","LIN":"14鄰","STREET":"西門路","SECT":"四段","MAREA":" ","LANE":"２８０巷","ALLEY":" ","HOUSE_NO":"６號","E_COORD97":169003.76000000001,"N_COORD97":2545867.3700000001,"ADDRESS":"西門路四段２８０巷６號","OBJECTID":251138},"geometry":{"x":169003.76000000071,"y":2545867.3700000048}},{"attributes":{"ID":251143,"DIS_CODE":0,"TOWNNAME":"歸仁區","LI":"七甲里","LIN":"14鄰","STREET":"南潭一街","SECT":" ","MAREA":" ","LANE":"４２巷","ALLEY":" ","HOUSE_NO":"３６號","E_COORD97":175893.14000000001,"N_COORD97":2543076.25,"ADDRESS":"南潭一街４２巷３６號","OBJECTID":251139},"geometry":{"x":175893.1400000006,"y":2543076.25}},{"attributes":{"ID":251144,"DIS_CODE":0,"TOWNNAME":"歸仁區","LI":"八甲里","LIN":"14鄰","STREET":"大明三街","SECT":" ","MAREA":" ","LANE":"８１巷","ALLEY":" ","HOUSE_NO":"７號","E_COORD97":178065.42000000001,"N_COORD97":2541683.6099999999,"ADDRESS":"大明三街８１巷７號","OBJECTID":251140},"geometry":{"x":178065.41999999993,"y":2541683.6100000031}},{"attributes":{"ID":251145,"DIS_CODE":0,"TOWNNAME":"歸仁區","LI":"八甲里","LIN":"14鄰","STREET":"大明街","SECT":" ","MAREA":" ","LANE":"１３９巷","ALLEY":" ","HOUSE_NO":"３５號","E_COORD97":178147.07999999999,"N_COORD97":2541998.25,"ADDRESS":"大明街１３９巷３５號","OBJECTID":251141},"geometry":{"x":178147.08000000101,"y":2541998.2499999981}},{"attributes":{"ID":251146,"DIS_CODE":0,"TOWNNAME":"歸仁區","LI":"大潭里","LIN":"14鄰","STREET":"大潭二街","SECT":" ","MAREA":" ","LANE":"４８巷","ALLEY":" ","HOUSE_NO":"８號","E_COORD97":174992.66,"N_COORD97":2534631.25,"ADDRESS":"大潭二街４８巷８號","OBJECTID":251142},"geometry":{"x":174992.66000000015,"y":2534631.2500000037}},{"attributes":{"ID":251147,"DIS_CODE":0,"TOWNNAME":"歸仁區","LI":"八甲里","LIN":"14鄰","STREET":"大明三街","SECT":" ","MAREA":" ","LANE":"８１巷","ALLEY":" ","HOUSE_NO":"１５號","E_COORD97":178083.07000000001,"N_COORD97":2541669.6099999999,"ADDRESS":"大明三街８１巷１５號","OBJECTID":251143},"geometry":{"x":178083.07000000123,"y":2541669.6099999994}},{"attributes":{"ID":251148,"DIS_CODE":0,"TOWNNAME":"歸仁區","LI":"八甲里","LIN":"14鄰","STREET":"大明街","SECT":" ","MAREA":" ","LANE":"１３８巷","ALLEY":" ","HOUSE_NO":"１６號","E_COORD97":178234.28,"N_COORD97":2541797.25,"ADDRESS":"大明街１３８巷１６號","OBJECTID":251144},"geometry":{"x":178234.28000000119,"y":2541797.25}},{"attributes":{"ID":251149,"DIS_CODE":0,"TOWNNAME":"歸仁區","LI":"七甲里","LIN":"14鄰","STREET":"南丁路","SECT":" ","MAREA":" ","LANE":"５９１巷","ALLEY":" ","HOUSE_NO":"４７號","E_COORD97":175897.23999999999,"N_COORD97":2543095.25,"ADDRESS":"南丁路５９１巷４７號","OBJECTID":251145},"geometry":{"x":175897.24000000022,"y":2543095.2500000019}},{"attributes":{"ID":251150,"DIS_CODE":0,"TOWNNAME":"新營區","LI":"埤寮里","LIN":"14鄰","STREET":"中正路","SECT":" ","MAREA":" ","LANE":"４３０巷","ALLEY":" ","HOUSE_NO":"１３５號","E_COORD97":181039.73000000001,"N_COORD97":2580426.1499999999,"ADDRESS":"中正路４３０巷１３５號","OBJECTID":251146},"geometry":{"x":181039.73000000231,"y":2580426.1500000041}},{"attributes":{"ID":251151,"DIS_CODE":0,"TOWNNAME":"新營區","LI":"三仙里","LIN":"14鄰","STREET":"中華路","SECT":" ","MAREA":" ","LANE":"５２巷","ALLEY":" ","HOUSE_NO":"２２號","E_COORD97":179519.62,"N_COORD97":2578239.4399999999,"ADDRESS":"中華路５２巷２２號","OBJECTID":251147},"geometry":{"x":179519.62000000197,"y":2578239.4399999995}},{"attributes":{"ID":251152,"DIS_CODE":0,"TOWNNAME":"新營區","LI":"埤寮里","LIN":"14鄰","STREET":"中正路","SECT":" ","MAREA":" ","LANE":"３８６巷","ALLEY":" ","HOUSE_NO":"１之１０號","E_COORD97":180353.23000000001,"N_COORD97":2580106.04,"ADDRESS":"中正路３８６巷１之１０號","OBJECTID":251148},"geometry":{"x":180353.23000000231,"y":2580106.0399999991}},{"attributes":{"ID":251153,"DIS_CODE":0,"TOWNNAME":"新營區","LI":"中營里","LIN":"14鄰","STREET":"東昇街","SECT":" ","MAREA":" ","LANE":"１７７巷","ALLEY":" ","HOUSE_NO":"２７號","E_COORD97":181868.51000000001,"N_COORD97":2579208.5299999998,"ADDRESS":"東昇街１７７巷２７號","OBJECTID":251149},"geometry":{"x":181868.51000000071,"y":2579208.5299999975}},{"attributes":{"ID":251154,"DIS_CODE":0,"TOWNNAME":"新營區","LI":"三仙里","LIN":"14鄰","STREET":"中華路","SECT":" ","MAREA":" ","LANE":"５２巷","ALLEY":" ","HOUSE_NO":"２０號","E_COORD97":179544.22,"N_COORD97":2578248.1800000002,"ADDRESS":"中華路５２巷２０號","OBJECTID":251150},"geometry":{"x":179544.22000000067,"y":2578248.1799999997}},{"attributes":{"ID":251155,"DIS_CODE":0,"TOWNNAME":"新營區","LI":"新南里","LIN":"14鄰","STREET":"民治路","SECT":" ","MAREA":" ","LANE":"２３０巷","ALLEY":" ","HOUSE_NO":"４９號","E_COORD97":178676.60999999999,"N_COORD97":2578629.98,"ADDRESS":"民治路２３０巷４９號","OBJECTID":251151},"geometry":{"x":178676.61000000034,"y":2578629.9800000004}},{"attributes":{"ID":251156,"DIS_CODE":0,"TOWNNAME":"新營區","LI":"新南里","LIN":"14鄰","STREET":"民治路","SECT":" ","MAREA":" ","LANE":"３００巷","ALLEY":" ","HOUSE_NO":"１６之１５號","E_COORD97":178759.91,"N_COORD97":2578597.52,"ADDRESS":"民治路３００巷１６之１５號","OBJECTID":251152},"geometry":{"x":178759.91000000201,"y":2578597.5199999996}},{"attributes":{"ID":251157,"DIS_CODE":0,"TOWNNAME":"新營區","LI":"民榮里","LIN":"14鄰","STREET":"復興路","SECT":" ","MAREA":" ","LANE":"１６１巷","ALLEY":" ","HOUSE_NO":"４２號","E_COORD97":178986.03,"N_COORD97":2577882.0600000001,"ADDRESS":"復興路１６１巷４２號","OBJECTID":251153},"geometry":{"x":178986.03000000026,"y":2577882.0600000024}},{"attributes":{"ID":251158,"DIS_CODE":0,"TOWNNAME":"新營區","LI":"新北里","LIN":"14鄰","STREET":"南新街","SECT":" ","MAREA":" ","LANE":"１３巷","ALLEY":" ","HOUSE_NO":"４０號","E_COORD97":179284.16,"N_COORD97":2578837.48,"ADDRESS":"南新街１３巷４０號","OBJECTID":251154},"geometry":{"x":179284.16000000108,"y":2578837.4800000042}},{"attributes":{"ID":251159,"DIS_CODE":0,"TOWNNAME":"新營區","LI":"新南里","LIN":"14鄰","STREET":"民治路","SECT":" ","MAREA":" ","LANE":"３００巷","ALLEY":" ","HOUSE_NO":"６８之９號","E_COORD97":178604.42999999999,"N_COORD97":2578640.3500000001,"ADDRESS":"民治路３００巷６８之９號","OBJECTID":251155},"geometry":{"x":178604.4299999997,"y":2578640.3499999996}},{"attributes":{"ID":251160,"DIS_CODE":0,"TOWNNAME":"安平區","LI":"怡平里","LIN":"14鄰","STREET":"華平路","SECT":" ","MAREA":" ","LANE":" ","ALLEY":" ","HOUSE_NO":"６３６號","E_COORD97":165511.45999999999,"N_COORD97":2544021.3599999999,"ADDRESS":"華平路６３６號","OBJECTID":251156},"geometry":{"x":165511.46000000183,"y":2544021.3600000031}},{"attributes":{"ID":251161,"DIS_CODE":0,"TOWNNAME":"安平區","LI":"怡平里","LIN":"14鄰","STREET":"華平路","SECT":" ","MAREA":" ","LANE":" ","ALLEY":" ","HOUSE_NO":"６３８號","E_COORD97":165512.82999999999,"N_COORD97":2544025.6499999999,"ADDRESS":"華平路６３８號","OBJECTID":251157},"geometry":{"x":165512.83000000101,"y":2544025.6500000004}},{"attributes":{"ID":251162,"DIS_CODE":0,"TOWNNAME":"安平區","LI":"怡平里","LIN":"14鄰","STREET":"華平路","SECT":" ","MAREA":" ","LANE":" ","ALLEY":" ","HOUSE_NO":"６４０號","E_COORD97":165513.42000000001,"N_COORD97":2544029.9399999999,"ADDRESS":"華平路６４０號","OBJECTID":251158},"geometry":{"x":165513.42000000179,"y":2544029.9399999995}},{"attributes":{"ID":251163,"DIS_CODE":0,"TOWNNAME":"安平區","LI":"怡平里","LIN":"14鄰","STREET":"華平路","SECT":" ","MAREA":" ","LANE":" ","ALLEY":" ","HOUSE_NO":"６４２號","E_COORD97":165514,"N_COORD97":2544034.4300000002,"ADDRESS":"華平路６４２號","OBJECTID":251159},"geometry":{"x":165514,"y":2544034.4299999978}},{"attributes":{"ID":251164,"DIS_CODE":0,"TOWNNAME":"安平區","LI":"怡平里","LIN":"14鄰","STREET":"華平路","SECT":" ","MAREA":" ","LANE":" ","ALLEY":" ","HOUSE_NO":"６４６號","E_COORD97":165514.39000000001,"N_COORD97":2544038.3300000001,"ADDRESS":"華平路６４６號","OBJECTID":251160},"geometry":{"x":165514.38999999966,"y":2544038.3300000001}},{"attributes":{"ID":251165,"DIS_CODE":0,"TOWNNAME":"安平區","LI":"文平里","LIN":"22鄰","STREET":"健康一街","SECT":" ","MAREA":" ","LANE":" ","ALLEY":" ","HOUSE_NO":"６６之２號","E_COORD97":165950.217565,"N_COORD97":2542824.3492700001,"ADDRESS":"健康一街６６之２號","OBJECTID":251161},"geometry":{"x":165950.21756500099,"y":2542824.349274002}},{"attributes":{"ID":251166,"DIS_CODE":0,"TOWNNAME":"新化區","LI":"東榮里","LIN":"22鄰","STREET":"和平街","SECT":" ","MAREA":" ","LANE":"３１巷","ALLEY":" ","HOUSE_NO":"５號之１","E_COORD97":179296.79999999999,"N_COORD97":2548126.2599999998,"ADDRESS":"和平街３１巷５號之１","OBJECTID":251162},"geometry":{"x":179296.79999999981,"y":2548126.2600000016}},{"attributes":{"ID":251167,"DIS_CODE":0,"TOWNNAME":"永康區","LI":"\u25A0洲里","LIN":"22鄰","STREET":"正南八街","SECT":" ","MAREA":" ","LANE":"３２巷","ALLEY":" ","HOUSE_NO":"１２號","E_COORD97":171427.20000000001,"N_COORD97":2548828.2200000002,"ADDRESS":"正南八街３２巷１２號","OBJECTID":251163},"geometry":{"x":171427.20000000019,"y":2548828.2200000025}},{"attributes":{"ID":251168,"DIS_CODE":0,"TOWNNAME":"永康區","LI":"\u25A0洲里","LIN":"22鄰","STREET":"正南八街","SECT":" ","MAREA":" ","LANE":"３２巷","ALLEY":" ","HOUSE_NO":"１０號","E_COORD97":171424.62,"N_COORD97":2548821.71,"ADDRESS":"正南八街３２巷１０號","OBJECTID":251164},"geometry":{"x":171424.62000000011,"y":2548821.7100000028}},{"attributes":{"ID":251169,"DIS_CODE":0,"TOWNNAME":"新營區","LI":"民榮里","LIN":"14鄰","STREET":"復興路","SECT":" ","MAREA":" ","LANE":"１６１巷","ALLEY":" ","HOUSE_NO":"１８號","E_COORD97":179010.89999999999,"N_COORD97":2577965,"ADDRESS":"復興路１６１巷１８號","OBJECTID":251165},"geometry":{"x":179010.89999999944,"y":2577965}},{"attributes":{"ID":251170,"DIS_CODE":0,"TOWNNAME":"新營區","LI":"新南里","LIN":"14鄰","STREET":"民治路","SECT":" ","MAREA":" ","LANE":"３００巷","ALLEY":" ","HOUSE_NO":"６８之２號","E_COORD97":178602.26999999999,"N_COORD97":2578617.1000000001,"ADDRESS":"民治路３００巷６８之２號","OBJECTID":251166},"geometry":{"x":178602.26999999955,"y":2578617.0999999996}},{"attributes":{"ID":251171,"DIS_CODE":0,"TOWNNAME":"南區","LI":"喜南里","LIN":"14鄰","STREET":"喜樹路","SECT":" ","MAREA":" ","LANE":"２５４巷","ALLEY":" ","HOUSE_NO":"１８號","E_COORD97":165618.95999999999,"N_COORD97":2537904.9100000001,"ADDRESS":"喜樹路２５４巷１８號","OBJECTID":251167},"geometry":{"x":165618.96000000089,"y":2537904.9100000001}},{"attributes":{"ID":251172,"DIS_CODE":0,"TOWNNAME":"新營區","LI":"新南里","LIN":"14鄰","STREET":"民治路","SECT":" ","MAREA":" ","LANE":"３００巷","ALLEY":" ","HOUSE_NO":"７０之１０號","E_COORD97":178629.41,"N_COORD97":2578677.8900000001,"ADDRESS":"民治路３００巷７０之１０號","OBJECTID":251168},"geometry":{"x":178629.41000000201,"y":2578677.8900000006}},{"attributes":{"ID":251173,"DIS_CODE":0,"TOWNNAME":"安平區","LI":"怡平里","LIN":"14鄰","STREET":"華平路","SECT":" ","MAREA":" ","LANE":" ","ALLEY":" ","HOUSE_NO":"６４８號","E_COORD97":165514.78,"N_COORD97":2544042.4300000002,"ADDRESS":"華平路６４８號","OBJECTID":251169},"geometry":{"x":165514.78000000119,"y":2544042.4300000016}},{"attributes":{"ID":251174,"DIS_CODE":0,"TOWNNAME":"安平區","LI":"怡平里","LIN":"14鄰","STREET":"華平路","SECT":" ","MAREA":" ","LANE":" ","ALLEY":" ","HOUSE_NO":"６５０號","E_COORD97":165514.98000000001,"N_COORD97":2544046.3300000001,"ADDRESS":"華平路６５０號","OBJECTID":251170},"geometry":{"x":165514.98000000045,"y":2544046.3300000019}},{"attributes":{"ID":251175,"DIS_CODE":0,"TOWNNAME":"安平區","LI":"怡平里","LIN":"14鄰","STREET":"華平路","SECT":" ","MAREA":" ","LANE":" ","ALLEY":" ","HOUSE_NO":"６５２號","E_COORD97":165515.37,"N_COORD97":2544050.4300000002,"ADDRESS":"華平路６５２號","OBJECTID":251171},"geometry":{"x":165515.37000000011,"y":2544050.4299999997}},{"attributes":{"ID":251176,"DIS_CODE":0,"TOWNNAME":"安平區","LI":"怡平里","LIN":"14鄰","STREET":"建平十二街","SECT":" ","MAREA":" ","LANE":" ","ALLEY":" ","HOUSE_NO":"１６１號","E_COORD97":165606.85000000001,"N_COORD97":2544032.96,"ADDRESS":"建平十二街１６１號","OBJECTID":251172},"geometry":{"x":165606.85000000149,"y":2544032.9600000028}},{"attributes":{"ID":251177,"DIS_CODE":0,"TOWNNAME":"仁德區","LI":"仁和里","LIN":"9鄰","STREET":"和愛街","SECT":" ","MAREA":" ","LANE":" ","ALLEY":" ","HOUSE_NO":"８號一樓之２","E_COORD97":170388.76000000001,"N_COORD97":2540040.2799999998,"ADDRESS":"和愛街８號一樓之２","OBJECTID":251173},"geometry":{"x":170388.76000000071,"y":2540040.2799999993}},{"attributes":{"ID":251178,"DIS_CODE":0,"TOWNNAME":"永康區","LI":"安康里","LIN":"22鄰","STREET":"中華路","SECT":" ","MAREA":" ","LANE":"７０３巷","ALLEY":" ","HOUSE_NO":"９５之１號","E_COORD97":170709.09,"N_COORD97":2546242.2400000002,"ADDRESS":"中華路７０３巷９５之１號","OBJECTID":251174},"geometry":{"x":170709.08999999985,"y":2546242.2400000002}},{"attributes":{"ID":251179,"DIS_CODE":0,"TOWNNAME":"新營區","LI":"中營里","LIN":"14鄰","STREET":"東昇街","SECT":" ","MAREA":" ","LANE":"１７７巷","ALLEY":" ","HOUSE_NO":"２２號","E_COORD97":181922.41,"N_COORD97":2579140.7400000002,"ADDRESS":"東昇街１７７巷２２號","OBJECTID":251175},"geometry":{"x":181922.41000000015,"y":2579140.7400000021}},{"attributes":{"ID":251180,"DIS_CODE":0,"TOWNNAME":"新營區","LI":"新南里","LIN":"14鄰","STREET":"民治路","SECT":" ","MAREA":" ","LANE":"３００巷","ALLEY":" ","HOUSE_NO":"７０之１１號","E_COORD97":178632.45999999999,"N_COORD97":2578674.5499999998,"ADDRESS":"民治路３００巷７０之１１號","OBJECTID":251176},"geometry":{"x":178632.46000000089,"y":2578674.5500000045}},{"attributes":{"ID":251181,"DIS_CODE":0,"TOWNNAME":"新營區","LI":"民生里","LIN":"14鄰","STREET":"復興路","SECT":" ","MAREA":" ","LANE":"２３４巷","ALLEY":" ","HOUSE_NO":"１１之２號","E_COORD97":178858.79999999999,"N_COORD97":2578149.6299999999,"ADDRESS":"復興路２３４巷１１之２號","OBJECTID":251177},"geometry":{"x":178858.80000000075,"y":2578149.6299999971}},{"attributes":{"ID":251182,"DIS_CODE":0,"TOWNNAME":"新營區","LI":"民榮里","LIN":"14鄰","STREET":"復興路","SECT":" ","MAREA":" ","LANE":"１６１巷","ALLEY":" ","HOUSE_NO":"１２之１號","E_COORD97":179013.45000000001,"N_COORD97":2577978.3399999999,"ADDRESS":"復興路１６１巷１２之１號","OBJECTID":251178},"geometry":{"x":179013.45000000019,"y":2577978.3399999999}},{"attributes":{"ID":251183,"DIS_CODE":0,"TOWNNAME":"新營區","LI":"興業里","LIN":"14鄰","STREET":"中興路","SECT":" ","MAREA":" ","LANE":"１５巷","ALLEY":" ","HOUSE_NO":"１１號","E_COORD97":180197.32999999999,"N_COORD97":2577937.2200000002,"ADDRESS":"中興路１５巷１１號","OBJECTID":251179},"geometry":{"x":180197.33000000007,"y":2577937.2199999988}},{"attributes":{"ID":251184,"DIS_CODE":0,"TOWNNAME":"新營區","LI":"埤寮里","LIN":"14鄰","STREET":"中正路","SECT":" ","MAREA":" ","LANE":"４３０巷","ALLEY":" ","HOUSE_NO":"８２號","E_COORD97":180378.88,"N_COORD97":2580423.7000000002,"ADDRESS":"中正路４３０巷８２號","OBJECTID":251180},"geometry":{"x":180378.88000000082,"y":2580423.6999999993}},{"attributes":{"ID":251185,"DIS_CODE":0,"TOWNNAME":"南區","LI":"省躬里","LIN":"14鄰","STREET":"萬年五街","SECT":" ","MAREA":" ","LANE":"４０１巷","ALLEY":" ","HOUSE_NO":"４２號","E_COORD97":166680.16,"N_COORD97":2537244.52,"ADDRESS":"萬年五街４０１巷４２號","OBJECTID":251181},"geometry":{"x":166680.16000000108,"y":2537244.5200000014}},{"attributes":{"ID":251186,"DIS_CODE":0,"TOWNNAME":"南區","LI":"省躬里","LIN":"14鄰","STREET":"明興路","SECT":" ","MAREA":" ","LANE":"９２５巷","ALLEY":" ","HOUSE_NO":"２３１號之２（拆除）","E_COORD97":166825.20999999999,"N_COORD97":2537517.5,"ADDRESS":"明興路９２５巷２３１號之２（拆除）","OBJECTID":251182},"geometry":{"x":166825.21000000183,"y":2537517.5}},{"attributes":{"ID":251187,"DIS_CODE":0,"TOWNNAME":"南區","LI":"省躬里","LIN":"14鄰","STREET":"明興路","SECT":" ","MAREA":" ","LANE":"９２５巷","ALLEY":" ","HOUSE_NO":"２３１號之３","E_COORD97":166825.10000000001,"N_COORD97":2537537.6899999999,"ADDRESS":"明興路９２５巷２３１號之３","OBJECTID":251183},"geometry":{"x":166825.09999999963,"y":2537537.6900000013}},{"attributes":{"ID":251188,"DIS_CODE":0,"TOWNNAME":"南區","LI":"省躬里","LIN":"14鄰","STREET":"萬年路","SECT":" ","MAREA":" ","LANE":"５８０巷","ALLEY":" ","HOUSE_NO":"９２號","E_COORD97":167349.45000000001,"N_COORD97":2537500.5499999998,"ADDRESS":"萬年路５８０巷９２號","OBJECTID":251184},"geometry":{"x":167349.45000000112,"y":2537500.5500000007}},{"attributes":{"ID":251189,"DIS_CODE":0,"TOWNNAME":"南區","LI":"省躬里","LIN":"14鄰","STREET":"永成路","SECT":"一段","MAREA":" ","LANE":"６４６巷","ALLEY":" ","HOUSE_NO":"３８號","E_COORD97":167598.73999999999,"N_COORD97":2537641.4700000002,"ADDRESS":"永成路一段６４６巷３８號","OBJECTID":251185},"geometry":{"x":167598.74000000115,"y":2537641.4700000025}},{"attributes":{"ID":251190,"DIS_CODE":0,"TOWNNAME":"南區","LI":"省躬里","LIN":"14鄰","STREET":"永成路","SECT":"一段","MAREA":" ","LANE":"６４６巷","ALLEY":" ","HOUSE_NO":"１５號","E_COORD97":167566.54999999999,"N_COORD97":2537709.6499999999,"ADDRESS":"永成路一段６４６巷１５號","OBJECTID":251186},"geometry":{"x":167566.54999999981,"y":2537709.6500000004}},{"attributes":{"ID":251191,"DIS_CODE":0,"TOWNNAME":"歸仁區","LI":"南興里","LIN":"15鄰","STREET":"文化街","SECT":"三段","MAREA":" ","LANE":"５３０巷","ALLEY":" ","HOUSE_NO":"３號","E_COORD97":175782.84,"N_COORD97":2541239.3300000001,"ADDRESS":"文化街三段５３０巷３號","OBJECTID":251187},"geometry":{"x":175782.83999999985,"y":2541239.3300000019}},{"attributes":{"ID":251192,"DIS_CODE":0,"TOWNNAME":"南區","LI":"省躬里","LIN":"14鄰","STREET":"永成路","SECT":"一段","MAREA":" ","LANE":"６４６巷","ALLEY":" ","HOUSE_NO":"１５１號","E_COORD97":167406.17999999999,"N_COORD97":2537539.46,"ADDRESS":"永成路一段６４６巷１５１號","OBJECTID":251188},"geometry":{"x":167406.1799999997,"y":2537539.459999999}},{"attributes":{"ID":251193,"DIS_CODE":0,"TOWNNAME":"安南區","LI":"顯宮里","LIN":"7鄰","STREET":"媽祖宮二街","SECT":" ","MAREA":" ","LANE":"１５２巷","ALLEY":" ","HOUSE_NO":"２號","E_COORD97":160406.469747,"N_COORD97":2548809.0656900001,"ADDRESS":"媽祖宮二街１５２巷２號","OBJECTID":251189},"geometry":{"x":160406.46974700037,"y":2548809.0656860005}},{"attributes":{"ID":251194,"DIS_CODE":0,"TOWNNAME":"南區","LI":"永寧里","LIN":"14鄰","STREET":"灣裡路","SECT":" ","MAREA":" ","LANE":"２０６巷","ALLEY":" ","HOUSE_NO":"１０號","E_COORD97":165983.54000000001,"N_COORD97":2536545.7400000002,"ADDRESS":"灣裡路２０６巷１０號","OBJECTID":251190},"geometry":{"x":165983.54000000004,"y":2536545.7400000002}},{"attributes":{"ID":251195,"DIS_CODE":0,"TOWNNAME":"南區","LI":"永寧里","LIN":"14鄰","STREET":"灣裡路","SECT":" ","MAREA":" ","LANE":"２０６巷","ALLEY":" ","HOUSE_NO":"１２號","E_COORD97":165968.81,"N_COORD97":2536539.9399999999,"ADDRESS":"灣裡路２０６巷１２號","OBJECTID":251191},"geometry":{"x":165968.81000000052,"y":2536539.9399999995}},{"attributes":{"ID":251196,"DIS_CODE":0,"TOWNNAME":"南區","LI":"永寧里","LIN":"14鄰","STREET":"灣裡路","SECT":" ","MAREA":" ","LANE":"２０６巷","ALLEY":" ","HOUSE_NO":"１號","E_COORD97":166022.42000000001,"N_COORD97":2536547.8199999998,"ADDRESS":"灣裡路２０６巷１號","OBJECTID":251192},"geometry":{"x":166022.42000000086,"y":2536547.8200000022}},{"attributes":{"ID":251197,"DIS_CODE":0,"TOWNNAME":"安平區","LI":"怡平里","LIN":"14鄰","STREET":"建平十二街","SECT":" ","MAREA":" ","LANE":" ","ALLEY":" ","HOUSE_NO":"１６３號","E_COORD97":165600.57999999999,"N_COORD97":2544033.3900000001,"ADDRESS":"建平十二街１６３號","OBJECTID":251193},"geometry":{"x":165600.58000000194,"y":2544033.3900000025}},{"attributes":{"ID":251198,"DIS_CODE":0,"TOWNNAME":"安平區","LI":"怡平里","LIN":"14鄰","STREET":"建平十二街","SECT":" ","MAREA":" ","LANE":" ","ALLEY":" ","HOUSE_NO":"１６５號","E_COORD97":165596.13,"N_COORD97":2544034.02,"ADDRESS":"建平十二街１６５號","OBJECTID":251194},"geometry":{"x":165596.12999999989,"y":2544034.0200000033}},{"attributes":{"ID":251199,"DIS_CODE":0,"TOWNNAME":"仁德區","LI":"仁和里","LIN":"16鄰","STREET":"二空路","SECT":" ","MAREA":" ","LANE":" ","ALLEY":" ","HOUSE_NO":"６８號","E_COORD97":170380.04000000001,"N_COORD97":2539882.3952199998,"ADDRESS":"二空路６８號","OBJECTID":251195},"geometry":{"x":170380.04000000097,"y":2539882.3952190001}},{"attributes":{"ID":251200,"DIS_CODE":0,"TOWNNAME":"南區","LI":"永寧里","LIN":"14鄰","STREET":"灣裡路","SECT":" ","MAREA":" ","LANE":"２０６巷","ALLEY":" ","HOUSE_NO":"４號","E_COORD97":166023.92999999999,"N_COORD97":2536556.1699999999,"ADDRESS":"灣裡路２０６巷４號","OBJECTID":251196},"geometry":{"x":166023.93000000063,"y":2536556.1699999999}},{"attributes":{"ID":251201,"DIS_CODE":0,"TOWNNAME":"南區","LI":"永寧里","LIN":"14鄰","STREET":"灣裡路","SECT":" ","MAREA":" ","LANE":"２０６巷","ALLEY":" ","HOUSE_NO":"４號之１","E_COORD97":166007.82999999999,"N_COORD97":2536552.6499999999,"ADDRESS":"灣裡路２０６巷４號之１","OBJECTID":251197},"geometry":{"x":166007.83000000101,"y":2536552.6500000022}},{"attributes":{"ID":251202,"DIS_CODE":0,"TOWNNAME":"南區","LI":"永寧里","LIN":"14鄰","STREET":"灣裡路","SECT":" ","MAREA":" ","LANE":"２０６巷","ALLEY":" ","HOUSE_NO":"８號","E_COORD97":165992.48000000001,"N_COORD97":2536548.6299999999,"ADDRESS":"灣裡路２０６巷８號","OBJECTID":251198},"geometry":{"x":165992.48000000045,"y":2536548.629999999}},{"attributes":{"ID":251203,"DIS_CODE":0,"TOWNNAME":"南區","LI":"永寧里","LIN":"14鄰","STREET":"灣裡路","SECT":" ","MAREA":" ","LANE":"２１８巷","ALLEY":" ","HOUSE_NO":"１４號","E_COORD97":165983.20000000001,"N_COORD97":2536534.0299999998,"ADDRESS":"灣裡路２１８巷１４號","OBJECTID":251199},"geometry":{"x":165983.20000000112,"y":2536534.0300000031}},{"attributes":{"ID":251204,"DIS_CODE":0,"TOWNNAME":"南區","LI":"永寧里","LIN":"14鄰","STREET":"灣裡路","SECT":" ","MAREA":" ","LANE":"２１８巷","ALLEY":" ","HOUSE_NO":"２號","E_COORD97":166028.10999999999,"N_COORD97":2536534.1200000001,"ADDRESS":"灣裡路２１８巷２號","OBJECTID":251200},"geometry":{"x":166028.11000000127,"y":2536534.120000001}}]}