{"displayFieldName":"TOWNNAME","fieldAliases":{"ID":"ID","DIS_CODE":"DIS_CODE","TOWNNAME":"TOWNNAME","LI":"LI","LIN":"LIN","STREET":"STREET","SECT":"SECT","MAREA":"MAREA","LANE":"LANE","ALLEY":"ALLEY","HOUSE_NO":"HOUSE_NO","E_COORD97":"E_COORD97","N_COORD97":"N_COORD97","ADDRESS":"ADDRESS","OBJECTID":"OBJECTID"},"geometryType":"esriGeometryPoint","spatialReference":{"wkid":102443,"latestWkid":3826},"fields":[{"name":"ID","type":"esriFieldTypeDouble","alias":"ID"},{"name":"DIS_CODE","type":"esriFieldTypeInteger","alias":"DIS_CODE"},{"name":"TOWNNAME","type":"esriFieldTypeString","alias":"TOWNNAME","length":8},{"name":"LI","type":"esriFieldTypeString","alias":"LI","length":8},{"name":"LIN","type":"esriFieldTypeString","alias":"LIN","length":12},{"name":"STREET","type":"esriFieldTypeString","alias":"STREET","length":20},{"name":"SECT","type":"esriFieldTypeString","alias":"SECT","length":8},{"name":"MAREA","type":"esriFieldTypeString","alias":"MAREA","length":12},{"name":"LANE","type":"esriFieldTypeString","alias":"LANE","length":10},{"name":"ALLEY","type":"esriFieldTypeString","alias":"ALLEY","length":10},{"name":"HOUSE_NO","type":"esriFieldTypeString","alias":"HOUSE_NO","length":20},{"name":"E_COORD97","type":"esriFieldTypeDouble","alias":"E_COORD97"},{"name":"N_COORD97","type":"esriFieldTypeDouble","alias":"N_COORD97"},{"name":"ADDRESS","type":"esriFieldTypeString","alias":"ADDRESS","length":50},{"name":"OBJECTID","type":"esriFieldTypeOID","alias":"OBJECTID"}],"features":[{"attributes":{"ID":500228,"DIS_CODE":0,"TOWNNAME":"中西區","LI":"赤嵌里","LIN":"15鄰","STREET":"民族路","SECT":"二段","MAREA":" ","LANE":" ","ALLEY":" ","HOUSE_NO":"１４８號","E_COORD97":168423.79000000001,"N_COORD97":2544097.3700000001,"ADDRESS":"民族路二段１４８號","OBJECTID":500201},"geometry":{"x":168423.79000000097,"y":2544097.3700000048}},{"attributes":{"ID":500229,"DIS_CODE":0,"TOWNNAME":"中西區","LI":"赤嵌里","LIN":"15鄰","STREET":"民族路","SECT":"二段","MAREA":" ","LANE":" ","ALLEY":" ","HOUSE_NO":"１５２號","E_COORD97":168419.37,"N_COORD97":2544098.8399999999,"ADDRESS":"民族路二段１５２號","OBJECTID":500202},"geometry":{"x":168419.37000000197,"y":2544098.8399999999}},{"attributes":{"ID":500230,"DIS_CODE":0,"TOWNNAME":"新市區","LI":"港墘里","LIN":"15鄰","STREET":"光華街","SECT":" ","MAREA":" ","LANE":" ","ALLEY":" ","HOUSE_NO":"３６號","E_COORD97":178058.60000000001,"N_COORD97":2552534.25,"ADDRESS":"光華街３６號","OBJECTID":500203},"geometry":{"x":178058.60000000056,"y":2552534.25}},{"attributes":{"ID":500231,"DIS_CODE":0,"TOWNNAME":"新市區","LI":"港墘里","LIN":"15鄰","STREET":"光華街","SECT":" ","MAREA":" ","LANE":" ","ALLEY":" ","HOUSE_NO":"６８號","E_COORD97":178037.14000000001,"N_COORD97":2552604,"ADDRESS":"光華街６８號","OBJECTID":500204},"geometry":{"x":178037.13999999966,"y":2552604}},{"attributes":{"ID":500232,"DIS_CODE":0,"TOWNNAME":"新市區","LI":"港墘里","LIN":"15鄰","STREET":"長安街","SECT":" ","MAREA":" ","LANE":" ","ALLEY":" ","HOUSE_NO":"９４號","E_COORD97":178091.01999999999,"N_COORD97":2552644.8199999998,"ADDRESS":"長安街９４號","OBJECTID":500205},"geometry":{"x":178091.02000000048,"y":2552644.8200000022}},{"attributes":{"ID":500233,"DIS_CODE":0,"TOWNNAME":"新市區","LI":"港墘里","LIN":"15鄰","STREET":"長安街","SECT":" ","MAREA":" ","LANE":" ","ALLEY":" ","HOUSE_NO":"１０８號","E_COORD97":178050.14999999999,"N_COORD97":2552631.5699999998,"ADDRESS":"長安街１０８號","OBJECTID":500206},"geometry":{"x":178050.1500000013,"y":2552631.5700000003}},{"attributes":{"ID":500234,"DIS_CODE":0,"TOWNNAME":"新市區","LI":"港墘里","LIN":"15鄰","STREET":"長安街","SECT":" ","MAREA":" ","LANE":" ","ALLEY":" ","HOUSE_NO":"９８號","E_COORD97":178076.12,"N_COORD97":2552645.0699999998,"ADDRESS":"長安街９８號","OBJECTID":500207},"geometry":{"x":178076.12000000011,"y":2552645.0700000003}},{"attributes":{"ID":500235,"DIS_CODE":0,"TOWNNAME":"新市區","LI":"港墘里","LIN":"15鄰","STREET":"長安街","SECT":" ","MAREA":" ","LANE":" ","ALLEY":" ","HOUSE_NO":"９６號","E_COORD97":178081.76999999999,"N_COORD97":2552654.3199999998,"ADDRESS":"長安街９６號","OBJECTID":500208},"geometry":{"x":178081.76999999955,"y":2552654.320000004}},{"attributes":{"ID":500236,"DIS_CODE":0,"TOWNNAME":"新市區","LI":"永就里","LIN":"15鄰","STREET":"永華二街","SECT":" ","MAREA":" ","LANE":" ","ALLEY":" ","HOUSE_NO":"１２號","E_COORD97":177660.45000000001,"N_COORD97":2551011.25,"ADDRESS":"永華二街１２號","OBJECTID":500209},"geometry":{"x":177660.45000000019,"y":2551011.2500000019}},{"attributes":{"ID":500237,"DIS_CODE":0,"TOWNNAME":"新市區","LI":"港墘里","LIN":"15鄰","STREET":"光華街","SECT":" ","MAREA":" ","LANE":" ","ALLEY":" ","HOUSE_NO":"２８號","E_COORD97":178069.20999999999,"N_COORD97":2552517.5,"ADDRESS":"光華街２８號","OBJECTID":500210},"geometry":{"x":178069.20999999996,"y":2552517.5000000019}},{"attributes":{"ID":500238,"DIS_CODE":0,"TOWNNAME":"安南區","LI":"州北里","LIN":"15鄰","STREET":"安和路","SECT":"五段","MAREA":" ","LANE":" ","ALLEY":" ","HOUSE_NO":"２０３號","E_COORD97":169793.91,"N_COORD97":2551894.6800000002,"ADDRESS":"安和路五段２０３號","OBJECTID":500211},"geometry":{"x":169793.90999999922,"y":2551894.6799999997}},{"attributes":{"ID":500239,"DIS_CODE":0,"TOWNNAME":"安南區","LI":"頂安里","LIN":"15鄰","STREET":"長溪路","SECT":"一段","MAREA":" ","LANE":" ","ALLEY":" ","HOUSE_NO":"３５７號","E_COORD97":168663.95999999999,"N_COORD97":2548843.3100000001,"ADDRESS":"長溪路一段３５７號","OBJECTID":500212},"geometry":{"x":168663.95999999996,"y":2548843.3100000005}},{"attributes":{"ID":500240,"DIS_CODE":0,"TOWNNAME":"佳里區","LI":"鎮山里","LIN":"15鄰","STREET":"仁愛路","SECT":" ","MAREA":" ","LANE":" ","ALLEY":" ","HOUSE_NO":"２６１號","E_COORD97":166111.62,"N_COORD97":2561461.0499999998,"ADDRESS":"仁愛路２６１號","OBJECTID":500213},"geometry":{"x":166111.62000000011,"y":2561461.0500000007}},{"attributes":{"ID":500241,"DIS_CODE":0,"TOWNNAME":"佳里區","LI":"鎮山里","LIN":"15鄰","STREET":"仁愛路","SECT":" ","MAREA":" ","LANE":" ","ALLEY":" ","HOUSE_NO":"２６３號","E_COORD97":166108.17000000001,"N_COORD97":2561462.6200000001,"ADDRESS":"仁愛路２６３號","OBJECTID":500214},"geometry":{"x":166108.16999999993,"y":2561462.6200000029}},{"attributes":{"ID":500242,"DIS_CODE":0,"TOWNNAME":"佳里區","LI":"鎮山里","LIN":"15鄰","STREET":"仁愛路","SECT":" ","MAREA":" ","LANE":" ","ALLEY":" ","HOUSE_NO":"２６５號","E_COORD97":166104.10000000001,"N_COORD97":2561463.8999999999,"ADDRESS":"仁愛路２６５號","OBJECTID":500215},"geometry":{"x":166104.10000000056,"y":2561463.9000000004}},{"attributes":{"ID":500243,"DIS_CODE":0,"TOWNNAME":"佳里區","LI":"鎮山里","LIN":"15鄰","STREET":"仁愛路","SECT":" ","MAREA":" ","LANE":" ","ALLEY":" ","HOUSE_NO":"２６７號","E_COORD97":166100.06,"N_COORD97":2561465.6800000002,"ADDRESS":"仁愛路２６７號","OBJECTID":500216},"geometry":{"x":166100.05999999959,"y":2561465.6799999997}},{"attributes":{"ID":500244,"DIS_CODE":0,"TOWNNAME":"佳里區","LI":"鎮山里","LIN":"15鄰","STREET":"仁愛路","SECT":" ","MAREA":" ","LANE":" ","ALLEY":" ","HOUSE_NO":"２６９號","E_COORD97":166084.92000000001,"N_COORD97":2561465.4399999999,"ADDRESS":"仁愛路２６９號","OBJECTID":500217},"geometry":{"x":166084.92000000086,"y":2561465.4400000013}},{"attributes":{"ID":500245,"DIS_CODE":0,"TOWNNAME":"佳里區","LI":"鎮山里","LIN":"15鄰","STREET":"仁愛路","SECT":" ","MAREA":" ","LANE":" ","ALLEY":" ","HOUSE_NO":"２３５號","E_COORD97":166170.04000000001,"N_COORD97":2561437.1499999999,"ADDRESS":"仁愛路２３５號","OBJECTID":500218},"geometry":{"x":166170.04000000004,"y":2561437.1500000022}},{"attributes":{"ID":500246,"DIS_CODE":0,"TOWNNAME":"佳里區","LI":"鎮山里","LIN":"15鄰","STREET":"仁愛路","SECT":" ","MAREA":" ","LANE":" ","ALLEY":" ","HOUSE_NO":"２３７號","E_COORD97":166165.20999999999,"N_COORD97":2561439.2400000002,"ADDRESS":"仁愛路２３７號","OBJECTID":500219},"geometry":{"x":166165.20999999996,"y":2561439.2400000039}},{"attributes":{"ID":500247,"DIS_CODE":0,"TOWNNAME":"佳里區","LI":"鎮山里","LIN":"15鄰","STREET":"仁愛路","SECT":" ","MAREA":" ","LANE":" ","ALLEY":" ","HOUSE_NO":"２３９號","E_COORD97":166160.60999999999,"N_COORD97":2561440.8500000001,"ADDRESS":"仁愛路２３９號","OBJECTID":500220},"geometry":{"x":166160.61000000127,"y":2561440.8499999996}},{"attributes":{"ID":500248,"DIS_CODE":0,"TOWNNAME":"佳里區","LI":"鎮山里","LIN":"15鄰","STREET":"仁愛路","SECT":" ","MAREA":" ","LANE":" ","ALLEY":" ","HOUSE_NO":"２４１號","E_COORD97":166156.01000000001,"N_COORD97":2561442.46,"ADDRESS":"仁愛路２４１號","OBJECTID":500221},"geometry":{"x":166156.00999999978,"y":2561442.4600000028}},{"attributes":{"ID":500249,"DIS_CODE":0,"TOWNNAME":"佳里區","LI":"鎮山里","LIN":"15鄰","STREET":"仁愛路","SECT":" ","MAREA":" ","LANE":" ","ALLEY":" ","HOUSE_NO":"２４３號","E_COORD97":166151.42000000001,"N_COORD97":2561444.0699999998,"ADDRESS":"仁愛路２４３號","OBJECTID":500222},"geometry":{"x":166151.42000000086,"y":2561444.070000004}},{"attributes":{"ID":500250,"DIS_CODE":0,"TOWNNAME":"佳里區","LI":"鎮山里","LIN":"15鄰","STREET":"仁愛路","SECT":" ","MAREA":" ","LANE":" ","ALLEY":" ","HOUSE_NO":"２４５號","E_COORD97":166146.82000000001,"N_COORD97":2561445.6800000002,"ADDRESS":"仁愛路２４５號","OBJECTID":500223},"geometry":{"x":166146.82000000216,"y":2561445.6799999978}},{"attributes":{"ID":500251,"DIS_CODE":0,"TOWNNAME":"佳里區","LI":"鎮山里","LIN":"15鄰","STREET":"仁愛路","SECT":" ","MAREA":" ","LANE":" ","ALLEY":" ","HOUSE_NO":"２４７號","E_COORD97":166142.23000000001,"N_COORD97":2561447.29,"ADDRESS":"仁愛路２４７號","OBJECTID":500224},"geometry":{"x":166142.23000000045,"y":2561447.2899999991}},{"attributes":{"ID":500252,"DIS_CODE":0,"TOWNNAME":"佳里區","LI":"鎮山里","LIN":"15鄰","STREET":"仁愛路","SECT":" ","MAREA":" ","LANE":" ","ALLEY":" ","HOUSE_NO":"２４９號","E_COORD97":166137.63,"N_COORD97":2561448.8999999999,"ADDRESS":"仁愛路２４９號","OBJECTID":500225},"geometry":{"x":166137.63000000082,"y":2561448.9000000022}},{"attributes":{"ID":500253,"DIS_CODE":0,"TOWNNAME":"佳里區","LI":"鎮山里","LIN":"15鄰","STREET":"仁愛路","SECT":" ","MAREA":" ","LANE":" ","ALLEY":" ","HOUSE_NO":"２５１號","E_COORD97":166133.39999999999,"N_COORD97":2561450.9500000002,"ADDRESS":"仁愛路２５１號","OBJECTID":500226},"geometry":{"x":166133.4000000013,"y":2561450.9500000011}},{"attributes":{"ID":500254,"DIS_CODE":0,"TOWNNAME":"佳里區","LI":"鎮山里","LIN":"15鄰","STREET":"仁愛路","SECT":" ","MAREA":" ","LANE":" ","ALLEY":" ","HOUSE_NO":"２５３號","E_COORD97":166128.42000000001,"N_COORD97":2561453.2000000002,"ADDRESS":"仁愛路２５３號","OBJECTID":500227},"geometry":{"x":166128.41999999993,"y":2561453.2000000011}},{"attributes":{"ID":500255,"DIS_CODE":0,"TOWNNAME":"佳里區","LI":"鎮山里","LIN":"15鄰","STREET":"仁愛路","SECT":" ","MAREA":" ","LANE":" ","ALLEY":" ","HOUSE_NO":"２５５號","E_COORD97":166124.01999999999,"N_COORD97":2561455.25,"ADDRESS":"仁愛路２５５號","OBJECTID":500228},"geometry":{"x":166124.01999999955,"y":2561455.25}},{"attributes":{"ID":500256,"DIS_CODE":0,"TOWNNAME":"佳里區","LI":"鎮山里","LIN":"15鄰","STREET":"仁愛路","SECT":" ","MAREA":" ","LANE":" ","ALLEY":" ","HOUSE_NO":"２５９號","E_COORD97":166115.23999999999,"N_COORD97":2561459.8300000001,"ADDRESS":"仁愛路２５９號","OBJECTID":500229},"geometry":{"x":166115.24000000115,"y":2561459.8300000019}},{"attributes":{"ID":500257,"DIS_CODE":0,"TOWNNAME":"東區","LI":"復興里","LIN":"15鄰","STREET":"裕學路","SECT":" ","MAREA":" ","LANE":" ","ALLEY":" ","HOUSE_NO":"８３號","E_COORD97":171759.09,"N_COORD97":2542780.0299999998,"ADDRESS":"裕學路８３號","OBJECTID":500230},"geometry":{"x":171759.09000000078,"y":2542780.0300000012}},{"attributes":{"ID":500258,"DIS_CODE":0,"TOWNNAME":"佳里區","LI":"安西里","LIN":"15鄰","STREET":"文化路","SECT":" ","MAREA":" ","LANE":" ","ALLEY":" ","HOUSE_NO":"３１７號","E_COORD97":165391.45000000001,"N_COORD97":2562574.8500000001,"ADDRESS":"文化路３１７號","OBJECTID":500231},"geometry":{"x":165391.45000000205,"y":2562574.8500000015}},{"attributes":{"ID":500259,"DIS_CODE":0,"TOWNNAME":"佳里區","LI":"建南里","LIN":"15鄰","STREET":"公園路","SECT":" ","MAREA":" ","LANE":" ","ALLEY":" ","HOUSE_NO":"２６２號","E_COORD97":165309.14999999999,"N_COORD97":2562031.48,"ADDRESS":"公園路２６２號","OBJECTID":500232},"geometry":{"x":165309.1500000013,"y":2562031.4800000023}},{"attributes":{"ID":500260,"DIS_CODE":0,"TOWNNAME":"佳里區","LI":"建南里","LIN":"15鄰","STREET":"公園路","SECT":" ","MAREA":" ","LANE":" ","ALLEY":" ","HOUSE_NO":"２６６號","E_COORD97":165308.44,"N_COORD97":2562036.4199999999,"ADDRESS":"公園路２６６號","OBJECTID":500233},"geometry":{"x":165308.44000000041,"y":2562036.4199999999}},{"attributes":{"ID":500261,"DIS_CODE":0,"TOWNNAME":"佳里區","LI":"建南里","LIN":"15鄰","STREET":"公園路","SECT":" ","MAREA":" ","LANE":" ","ALLEY":" ","HOUSE_NO":"２６８號","E_COORD97":165307.69,"N_COORD97":2562041.2599999998,"ADDRESS":"公園路２６８號","OBJECTID":500234},"geometry":{"x":165307.69000000134,"y":2562041.2599999998}},{"attributes":{"ID":500262,"DIS_CODE":0,"TOWNNAME":"佳里區","LI":"建南里","LIN":"15鄰","STREET":"公園路","SECT":" ","MAREA":" ","LANE":" ","ALLEY":" ","HOUSE_NO":"２７０號","E_COORD97":165306.98000000001,"N_COORD97":2562046.2400000002,"ADDRESS":"公園路２７０號","OBJECTID":500235},"geometry":{"x":165306.98000000138,"y":2562046.2400000039}},{"attributes":{"ID":500263,"DIS_CODE":0,"TOWNNAME":"佳里區","LI":"建南里","LIN":"15鄰","STREET":"公園路","SECT":" ","MAREA":" ","LANE":" ","ALLEY":" ","HOUSE_NO":"２７２號","E_COORD97":165306.53,"N_COORD97":2562050.04,"ADDRESS":"公園路２７２號","OBJECTID":500236},"geometry":{"x":165306.53000000119,"y":2562050.040000001}},{"attributes":{"ID":500264,"DIS_CODE":0,"TOWNNAME":"佳里區","LI":"建南里","LIN":"15鄰","STREET":"公園路","SECT":" ","MAREA":" ","LANE":" ","ALLEY":" ","HOUSE_NO":"２７６號","E_COORD97":165306.22,"N_COORD97":2562054.8599999999,"ADDRESS":"公園路２７６號","OBJECTID":500237},"geometry":{"x":165306.22000000067,"y":2562054.8600000031}},{"attributes":{"ID":500265,"DIS_CODE":0,"TOWNNAME":"佳里區","LI":"建南里","LIN":"15鄰","STREET":"公園路","SECT":" ","MAREA":" ","LANE":" ","ALLEY":" ","HOUSE_NO":"２７８號","E_COORD97":165305.70999999999,"N_COORD97":2562059.77,"ADDRESS":"公園路２７８號","OBJECTID":500238},"geometry":{"x":165305.70999999996,"y":2562059.7700000014}},{"attributes":{"ID":500266,"DIS_CODE":0,"TOWNNAME":"佳里區","LI":"建南里","LIN":"15鄰","STREET":"公園路","SECT":" ","MAREA":" ","LANE":" ","ALLEY":" ","HOUSE_NO":"２８０號","E_COORD97":165305.51999999999,"N_COORD97":2562064.5299999998,"ADDRESS":"公園路２８０號","OBJECTID":500239},"geometry":{"x":165305.52000000142,"y":2562064.5300000012}},{"attributes":{"ID":500267,"DIS_CODE":0,"TOWNNAME":"佳里區","LI":"建南里","LIN":"15鄰","STREET":"公園路","SECT":" ","MAREA":" ","LANE":" ","ALLEY":" ","HOUSE_NO":"２８２號","E_COORD97":165305.10000000001,"N_COORD97":2562069.1099999999,"ADDRESS":"公園路２８２號","OBJECTID":500240},"geometry":{"x":165305.10000000149,"y":2562069.1099999994}},{"attributes":{"ID":500268,"DIS_CODE":0,"TOWNNAME":"佳里區","LI":"建南里","LIN":"15鄰","STREET":"公園路","SECT":" ","MAREA":" ","LANE":" ","ALLEY":" ","HOUSE_NO":"２８６號","E_COORD97":165304.95000000001,"N_COORD97":2562074.1200000001,"ADDRESS":"公園路２８６號","OBJECTID":500241},"geometry":{"x":165304.95000000205,"y":2562074.120000001}},{"attributes":{"ID":500269,"DIS_CODE":0,"TOWNNAME":"佳里區","LI":"建南里","LIN":"15鄰","STREET":"公園路","SECT":" ","MAREA":" ","LANE":" ","ALLEY":" ","HOUSE_NO":"２８８號","E_COORD97":165304.31,"N_COORD97":2562078.7400000002,"ADDRESS":"公園路２８８號","OBJECTID":500242},"geometry":{"x":165304.31000000052,"y":2562078.7400000002}},{"attributes":{"ID":500270,"DIS_CODE":0,"TOWNNAME":"佳里區","LI":"建南里","LIN":"15鄰","STREET":"公園路","SECT":" ","MAREA":" ","LANE":" ","ALLEY":" ","HOUSE_NO":"２９０號","E_COORD97":165304.31,"N_COORD97":2562083.5,"ADDRESS":"公園路２９０號","OBJECTID":500243},"geometry":{"x":165304.31000000052,"y":2562083.5}},{"attributes":{"ID":500271,"DIS_CODE":0,"TOWNNAME":"佳里區","LI":"建南里","LIN":"15鄰","STREET":"公園路","SECT":" ","MAREA":" ","LANE":" ","ALLEY":" ","HOUSE_NO":"２９２號","E_COORD97":165303.57000000001,"N_COORD97":2562088.3700000001,"ADDRESS":"公園路２９２號","OBJECTID":500244},"geometry":{"x":165303.5700000003,"y":2562088.3700000029}},{"attributes":{"ID":500272,"DIS_CODE":0,"TOWNNAME":"佳里區","LI":"建南里","LIN":"15鄰","STREET":"公園路","SECT":" ","MAREA":" ","LANE":" ","ALLEY":" ","HOUSE_NO":"２９６號","E_COORD97":165302.95000000001,"N_COORD97":2562093.0699999998,"ADDRESS":"公園路２９６號","OBJECTID":500245},"geometry":{"x":165302.95000000019,"y":2562093.0700000022}},{"attributes":{"ID":500273,"DIS_CODE":0,"TOWNNAME":"佳里區","LI":"安西里","LIN":"15鄰","STREET":"公園路","SECT":" ","MAREA":" ","LANE":" ","ALLEY":" ","HOUSE_NO":"３８９號","E_COORD97":165240.13,"N_COORD97":2562397.1600000001,"ADDRESS":"公園路３８９號","OBJECTID":500246},"geometry":{"x":165240.12999999989,"y":2562397.160000002}},{"attributes":{"ID":500274,"DIS_CODE":0,"TOWNNAME":"佳里區","LI":"安西里","LIN":"15鄰","STREET":"公園路","SECT":" ","MAREA":" ","LANE":" ","ALLEY":" ","HOUSE_NO":"３９１號","E_COORD97":165240.87,"N_COORD97":2562401.8599999999,"ADDRESS":"公園路３９１號","OBJECTID":500247},"geometry":{"x":165240.86999999918,"y":2562401.8600000013}},{"attributes":{"ID":500275,"DIS_CODE":0,"TOWNNAME":"佳里區","LI":"安西里","LIN":"15鄰","STREET":"公園路","SECT":" ","MAREA":" ","LANE":" ","ALLEY":" ","HOUSE_NO":"３９３號","E_COORD97":165241.29000000001,"N_COORD97":2562406.3300000001,"ADDRESS":"公園路３９３號","OBJECTID":500248},"geometry":{"x":165241.28999999911,"y":2562406.3300000019}},{"attributes":{"ID":500276,"DIS_CODE":0,"TOWNNAME":"佳里區","LI":"安西里","LIN":"15鄰","STREET":"公園路","SECT":" ","MAREA":" ","LANE":" ","ALLEY":" ","HOUSE_NO":"３９５號","E_COORD97":165241.51999999999,"N_COORD97":2562410.4399999999,"ADDRESS":"公園路３９５號","OBJECTID":500249},"geometry":{"x":165241.52000000048,"y":2562410.4400000013}},{"attributes":{"ID":500277,"DIS_CODE":0,"TOWNNAME":"佳里區","LI":"安西里","LIN":"15鄰","STREET":"公園路","SECT":" ","MAREA":" ","LANE":" ","ALLEY":" ","HOUSE_NO":"４９０號之２０","E_COORD97":165325.26999999999,"N_COORD97":2562545.02,"ADDRESS":"公園路４９０號之２０","OBJECTID":500250},"geometry":{"x":165325.26999999955,"y":2562545.0199999977}},{"attributes":{"ID":500278,"DIS_CODE":0,"TOWNNAME":"佳里區","LI":"安西里","LIN":"15鄰","STREET":"公園路","SECT":" ","MAREA":" ","LANE":" ","ALLEY":" ","HOUSE_NO":"４９０號之２１","E_COORD97":165319.66,"N_COORD97":2562544.98,"ADDRESS":"公園路４９０號之２１","OBJECTID":500251},"geometry":{"x":165319.66000000015,"y":2562544.9800000004}},{"attributes":{"ID":500279,"DIS_CODE":0,"TOWNNAME":"佳里區","LI":"安西里","LIN":"15鄰","STREET":"公園路","SECT":" ","MAREA":" ","LANE":" ","ALLEY":" ","HOUSE_NO":"４９０號之２２","E_COORD97":165314.45999999999,"N_COORD97":2562545.0899999999,"ADDRESS":"公園路４９０號之２２","OBJECTID":500252},"geometry":{"x":165314.45999999996,"y":2562545.0900000036}},{"attributes":{"ID":500280,"DIS_CODE":0,"TOWNNAME":"佳里區","LI":"安西里","LIN":"15鄰","STREET":"公園路","SECT":" ","MAREA":" ","LANE":" ","ALLEY":" ","HOUSE_NO":"４９０號之２","E_COORD97":165318.5,"N_COORD97":2562535.9300000002,"ADDRESS":"公園路４９０號之２","OBJECTID":500253},"geometry":{"x":165318.50000000093,"y":2562535.9300000034}},{"attributes":{"ID":500281,"DIS_CODE":0,"TOWNNAME":"佳里區","LI":"安西里","LIN":"15鄰","STREET":"公園路","SECT":" ","MAREA":" ","LANE":" ","ALLEY":" ","HOUSE_NO":"４９０號之３","E_COORD97":165323.78,"N_COORD97":2562535.8100000001,"ADDRESS":"公園路４９０號之３","OBJECTID":500254},"geometry":{"x":165323.78000000119,"y":2562535.8100000024}},{"attributes":{"ID":500282,"DIS_CODE":0,"TOWNNAME":"佳里區","LI":"安西里","LIN":"15鄰","STREET":"公園路","SECT":" ","MAREA":" ","LANE":" ","ALLEY":" ","HOUSE_NO":"４９０號之５","E_COORD97":165329.06,"N_COORD97":2562535.6899999999,"ADDRESS":"公園路４９０號之５","OBJECTID":500255},"geometry":{"x":165329.06000000145,"y":2562535.6899999995}},{"attributes":{"ID":500283,"DIS_CODE":0,"TOWNNAME":"佳里區","LI":"安西里","LIN":"15鄰","STREET":"公園路","SECT":" ","MAREA":" ","LANE":" ","ALLEY":" ","HOUSE_NO":"４９０號之７","E_COORD97":165339.62,"N_COORD97":2562535.4500000002,"ADDRESS":"公園路４９０號之７","OBJECTID":500256},"geometry":{"x":165339.62000000104,"y":2562535.450000003}},{"attributes":{"ID":500284,"DIS_CODE":0,"TOWNNAME":"佳里區","LI":"安西里","LIN":"15鄰","STREET":"公園路","SECT":" ","MAREA":" ","LANE":" ","ALLEY":" ","HOUSE_NO":"４９０號之８","E_COORD97":165344.91,"N_COORD97":2562535.3300000001,"ADDRESS":"公園路４９０號之８","OBJECTID":500257},"geometry":{"x":165344.91000000108,"y":2562535.3300000001}},{"attributes":{"ID":500285,"DIS_CODE":0,"TOWNNAME":"佳里區","LI":"安西里","LIN":"15鄰","STREET":"公園路","SECT":" ","MAREA":" ","LANE":" ","ALLEY":" ","HOUSE_NO":"４９０號之９","E_COORD97":165350.19,"N_COORD97":2562535.2200000002,"ADDRESS":"公園路４９０號之９","OBJECTID":500258},"geometry":{"x":165350.19000000041,"y":2562535.2200000025}},{"attributes":{"ID":500286,"DIS_CODE":0,"TOWNNAME":"佳里區","LI":"安西里","LIN":"15鄰","STREET":"公園路","SECT":" ","MAREA":" ","LANE":" ","ALLEY":" ","HOUSE_NO":"４９２號","E_COORD97":165298.56,"N_COORD97":2562546.1699999999,"ADDRESS":"公園路４９２號","OBJECTID":500259},"geometry":{"x":165298.56000000145,"y":2562546.1700000018}},{"attributes":{"ID":500287,"DIS_CODE":0,"TOWNNAME":"佳里區","LI":"安西里","LIN":"15鄰","STREET":"公園路","SECT":" ","MAREA":" ","LANE":" ","ALLEY":" ","HOUSE_NO":"４９６號","E_COORD97":165298.63,"N_COORD97":2562550.98,"ADDRESS":"公園路４９６號","OBJECTID":500260},"geometry":{"x":165298.63000000082,"y":2562550.9800000023}},{"attributes":{"ID":500288,"DIS_CODE":0,"TOWNNAME":"佳里區","LI":"安西里","LIN":"15鄰","STREET":"公園路","SECT":" ","MAREA":" ","LANE":" ","ALLEY":" ","HOUSE_NO":"４９８號","E_COORD97":165298.66,"N_COORD97":2562555.6600000001,"ADDRESS":"公園路４９８號","OBJECTID":500261},"geometry":{"x":165298.66000000108,"y":2562555.660000002}},{"attributes":{"ID":500289,"DIS_CODE":0,"TOWNNAME":"佳里區","LI":"安西里","LIN":"15鄰","STREET":"公園路","SECT":" ","MAREA":" ","LANE":" ","ALLEY":" ","HOUSE_NO":"５００號","E_COORD97":165298.97,"N_COORD97":2562560.4399999999,"ADDRESS":"公園路５００號","OBJECTID":500262},"geometry":{"x":165298.96999999974,"y":2562560.4400000013}},{"attributes":{"ID":500290,"DIS_CODE":0,"TOWNNAME":"佳里區","LI":"安西里","LIN":"15鄰","STREET":"文化路","SECT":" ","MAREA":" ","LANE":" ","ALLEY":" ","HOUSE_NO":"３０７號","E_COORD97":165416.01999999999,"N_COORD97":2562575.8100000001,"ADDRESS":"文化路３０７號","OBJECTID":500263},"geometry":{"x":165416.02000000048,"y":2562575.8100000024}},{"attributes":{"ID":500291,"DIS_CODE":0,"TOWNNAME":"佳里區","LI":"安西里","LIN":"15鄰","STREET":"文化路","SECT":" ","MAREA":" ","LANE":" ","ALLEY":" ","HOUSE_NO":"３０９號","E_COORD97":165409.66,"N_COORD97":2562575.3799999999,"ADDRESS":"文化路３０９號","OBJECTID":500264},"geometry":{"x":165409.66000000015,"y":2562575.379999999}},{"attributes":{"ID":500292,"DIS_CODE":0,"TOWNNAME":"佳里區","LI":"安西里","LIN":"15鄰","STREET":"文化路","SECT":" ","MAREA":" ","LANE":" ","ALLEY":" ","HOUSE_NO":"３１１號","E_COORD97":165405.06,"N_COORD97":2562575.0699999998,"ADDRESS":"文化路３１１號","OBJECTID":500265},"geometry":{"x":165405.05999999959,"y":2562575.0700000003}},{"attributes":{"ID":500293,"DIS_CODE":0,"TOWNNAME":"佳里區","LI":"安西里","LIN":"15鄰","STREET":"文化路","SECT":" ","MAREA":" ","LANE":" ","ALLEY":" ","HOUSE_NO":"３１３號","E_COORD97":165400.63,"N_COORD97":2562574.9500000002,"ADDRESS":"文化路３１３號","OBJECTID":500266},"geometry":{"x":165400.63000000082,"y":2562574.9499999993}},{"attributes":{"ID":500294,"DIS_CODE":0,"TOWNNAME":"佳里區","LI":"安西里","LIN":"15鄰","STREET":"文化路","SECT":" ","MAREA":" ","LANE":" ","ALLEY":" ","HOUSE_NO":"３１５號","E_COORD97":165395.87,"N_COORD97":2562574.8900000001,"ADDRESS":"文化路３１５號","OBJECTID":500267},"geometry":{"x":165395.87000000104,"y":2562574.8900000025}},{"attributes":{"ID":500295,"DIS_CODE":0,"TOWNNAME":"佳里區","LI":"安西里","LIN":"15鄰","STREET":"文化路","SECT":" ","MAREA":" ","LANE":" ","ALLEY":" ","HOUSE_NO":"３１９號","E_COORD97":165386.01999999999,"N_COORD97":2562574.6699999999,"ADDRESS":"文化路３１９號","OBJECTID":500268},"geometry":{"x":165386.01999999955,"y":2562574.6699999999}},{"attributes":{"ID":500296,"DIS_CODE":0,"TOWNNAME":"佳里區","LI":"安西里","LIN":"15鄰","STREET":"文化路","SECT":" ","MAREA":" ","LANE":" ","ALLEY":" ","HOUSE_NO":"３２１號","E_COORD97":165381.38,"N_COORD97":2562574.29,"ADDRESS":"文化路３２１號","OBJECTID":500269},"geometry":{"x":165381.38000000175,"y":2562574.290000001}},{"attributes":{"ID":500297,"DIS_CODE":0,"TOWNNAME":"佳里區","LI":"安西里","LIN":"15鄰","STREET":"文化路","SECT":" ","MAREA":" ","LANE":" ","ALLEY":" ","HOUSE_NO":"３２３號","E_COORD97":165376.76999999999,"N_COORD97":2562574.4900000002,"ADDRESS":"文化路３２３號","OBJECTID":500270},"geometry":{"x":165376.77000000142,"y":2562574.4900000021}},{"attributes":{"ID":500298,"DIS_CODE":0,"TOWNNAME":"佳里區","LI":"安西里","LIN":"15鄰","STREET":"文化路","SECT":" ","MAREA":" ","LANE":" ","ALLEY":" ","HOUSE_NO":"３２５號","E_COORD97":165371.76000000001,"N_COORD97":2562574.2400000002,"ADDRESS":"文化路３２５號","OBJECTID":500271},"geometry":{"x":165371.75999999885,"y":2562574.2400000002}},{"attributes":{"ID":500299,"DIS_CODE":0,"TOWNNAME":"佳里區","LI":"安西里","LIN":"15鄰","STREET":"文化路","SECT":" ","MAREA":" ","LANE":" ","ALLEY":" ","HOUSE_NO":"３２７號","E_COORD97":165367.16,"N_COORD97":2562574.1499999999,"ADDRESS":"文化路３２７號","OBJECTID":500272},"geometry":{"x":165367.16000000015,"y":2562574.1500000004}},{"attributes":{"ID":500300,"DIS_CODE":0,"TOWNNAME":"佳里區","LI":"安西里","LIN":"15鄰","STREET":"文化路","SECT":" ","MAREA":" ","LANE":" ","ALLEY":" ","HOUSE_NO":"３２９號","E_COORD97":165362.64999999999,"N_COORD97":2562573.3799999999,"ADDRESS":"文化路３２９號","OBJECTID":500273},"geometry":{"x":165362.65000000037,"y":2562573.3800000008}},{"attributes":{"ID":500301,"DIS_CODE":0,"TOWNNAME":"佳里區","LI":"安西里","LIN":"15鄰","STREET":"文化路","SECT":" ","MAREA":" ","LANE":" ","ALLEY":" ","HOUSE_NO":"３３１號","E_COORD97":165358.37,"N_COORD97":2562573.3199999998,"ADDRESS":"文化路３３１號","OBJECTID":500274},"geometry":{"x":165358.37000000104,"y":2562573.3200000003}},{"attributes":{"ID":500302,"DIS_CODE":0,"TOWNNAME":"佳里區","LI":"安西里","LIN":"15鄰","STREET":"文化路","SECT":" ","MAREA":" ","LANE":" ","ALLEY":" ","HOUSE_NO":"３３３號","E_COORD97":165353.57999999999,"N_COORD97":2562573.2799999998,"ADDRESS":"文化路３３３號","OBJECTID":500275},"geometry":{"x":165353.58000000101,"y":2562573.2799999993}},{"attributes":{"ID":500303,"DIS_CODE":0,"TOWNNAME":"佳里區","LI":"安西里","LIN":"15鄰","STREET":"文化路","SECT":" ","MAREA":" ","LANE":" ","ALLEY":" ","HOUSE_NO":"３３５號","E_COORD97":165349.28,"N_COORD97":2562573.2200000002,"ADDRESS":"文化路３３５號","OBJECTID":500276},"geometry":{"x":165349.28000000119,"y":2562573.2200000025}},{"attributes":{"ID":500304,"DIS_CODE":0,"TOWNNAME":"佳里區","LI":"安西里","LIN":"15鄰","STREET":"文化路","SECT":" ","MAREA":" ","LANE":" ","ALLEY":" ","HOUSE_NO":"３３７號","E_COORD97":165344.67999999999,"N_COORD97":2562572.8999999999,"ADDRESS":"文化路３３７號","OBJECTID":500277},"geometry":{"x":165344.6799999997,"y":2562572.9000000004}},{"attributes":{"ID":500305,"DIS_CODE":0,"TOWNNAME":"佳里區","LI":"安西里","LIN":"15鄰","STREET":"文化路","SECT":" ","MAREA":" ","LANE":" ","ALLEY":" ","HOUSE_NO":"３３９號","E_COORD97":165339.78,"N_COORD97":2562572.8500000001,"ADDRESS":"文化路３３９號","OBJECTID":500278},"geometry":{"x":165339.78000000026,"y":2562572.8499999996}},{"attributes":{"ID":500306,"DIS_CODE":0,"TOWNNAME":"佳里區","LI":"安西里","LIN":"15鄰","STREET":"文化路","SECT":" ","MAREA":" ","LANE":" ","ALLEY":" ","HOUSE_NO":"３４１號","E_COORD97":165335.29000000001,"N_COORD97":2562572.71,"ADDRESS":"文化路３４１號","OBJECTID":500279},"geometry":{"x":165335.29000000097,"y":2562572.7100000046}},{"attributes":{"ID":500307,"DIS_CODE":0,"TOWNNAME":"佳里區","LI":"安西里","LIN":"15鄰","STREET":"文化路","SECT":" ","MAREA":" ","LANE":" ","ALLEY":" ","HOUSE_NO":"３４３號","E_COORD97":165330.81,"N_COORD97":2562572.8399999999,"ADDRESS":"文化路３４３號","OBJECTID":500280},"geometry":{"x":165330.81000000052,"y":2562572.8399999999}},{"attributes":{"ID":500308,"DIS_CODE":0,"TOWNNAME":"佳里區","LI":"安西里","LIN":"15鄰","STREET":"文化路","SECT":" ","MAREA":" ","LANE":" ","ALLEY":" ","HOUSE_NO":"３４５號","E_COORD97":165326.39000000001,"N_COORD97":2562573.02,"ADDRESS":"文化路３４５號","OBJECTID":500281},"geometry":{"x":165326.38999999966,"y":2562573.0200000014}},{"attributes":{"ID":500309,"DIS_CODE":0,"TOWNNAME":"佳里區","LI":"安西里","LIN":"15鄰","STREET":"文化路","SECT":" ","MAREA":" ","LANE":" ","ALLEY":" ","HOUSE_NO":"３４７號","E_COORD97":165321.87,"N_COORD97":2562572.6299999999,"ADDRESS":"文化路３４７號","OBJECTID":500282},"geometry":{"x":165321.87000000011,"y":2562572.6300000008}},{"attributes":{"ID":500310,"DIS_CODE":0,"TOWNNAME":"佳里區","LI":"安西里","LIN":"15鄰","STREET":"文化路","SECT":" ","MAREA":" ","LANE":" ","ALLEY":" ","HOUSE_NO":"３４９號之１","E_COORD97":165313.34,"N_COORD97":2562572.5899999999,"ADDRESS":"文化路３４９號之１","OBJECTID":500283},"geometry":{"x":165313.33999999985,"y":2562572.5900000017}},{"attributes":{"ID":500311,"DIS_CODE":0,"TOWNNAME":"佳里區","LI":"安西里","LIN":"15鄰","STREET":"文化路","SECT":" ","MAREA":" ","LANE":" ","ALLEY":" ","HOUSE_NO":"３４９號之２","E_COORD97":165302.85000000001,"N_COORD97":2562569.9500000002,"ADDRESS":"文化路３４９號之２","OBJECTID":500284},"geometry":{"x":165302.84999999963,"y":2562569.9500000011}},{"attributes":{"ID":500312,"DIS_CODE":0,"TOWNNAME":"佳里區","LI":"安西里","LIN":"15鄰","STREET":"文化路","SECT":" ","MAREA":" ","LANE":" ","ALLEY":" ","HOUSE_NO":"３４９號","E_COORD97":165317.85999999999,"N_COORD97":2562572.6800000002,"ADDRESS":"文化路３４９號","OBJECTID":500285},"geometry":{"x":165317.86000000127,"y":2562572.6800000016}},{"attributes":{"ID":500313,"DIS_CODE":0,"TOWNNAME":"佳里區","LI":"安西里","LIN":"15鄰","STREET":"文化路","SECT":" ","MAREA":" ","LANE":" ","ALLEY":" ","HOUSE_NO":"３５１號","E_COORD97":165267.66,"N_COORD97":2562573.9900000002,"ADDRESS":"文化路３５１號","OBJECTID":500286},"geometry":{"x":165267.66000000015,"y":2562573.9900000021}},{"attributes":{"ID":500314,"DIS_CODE":0,"TOWNNAME":"佳里區","LI":"安西里","LIN":"15鄰","STREET":"文化路","SECT":" ","MAREA":" ","LANE":" ","ALLEY":" ","HOUSE_NO":"３８３號之１","E_COORD97":165190.39000000001,"N_COORD97":2562569.8399999999,"ADDRESS":"文化路３８３號之１","OBJECTID":500287},"geometry":{"x":165190.38999999966,"y":2562569.8399999999}},{"attributes":{"ID":500315,"DIS_CODE":0,"TOWNNAME":"佳里區","LI":"安西里","LIN":"15鄰","STREET":"文化路","SECT":" ","MAREA":" ","LANE":" ","ALLEY":" ","HOUSE_NO":"３８３號","E_COORD97":165194.94,"N_COORD97":2562570.0800000001,"ADDRESS":"文化路３８３號","OBJECTID":500288},"geometry":{"x":165194.93999999948,"y":2562570.0800000019}},{"attributes":{"ID":500316,"DIS_CODE":0,"TOWNNAME":"佳里區","LI":"忠仁里","LIN":"15鄰","STREET":"平等街","SECT":" ","MAREA":" ","LANE":" ","ALLEY":" ","HOUSE_NO":"１１６號","E_COORD97":165896.81,"N_COORD97":2561910.9700000002,"ADDRESS":"平等街１１６號","OBJECTID":500289},"geometry":{"x":165896.81000000145,"y":2561910.9700000025}},{"attributes":{"ID":500317,"DIS_CODE":0,"TOWNNAME":"佳里區","LI":"忠仁里","LIN":"15鄰","STREET":"平等街","SECT":" ","MAREA":" ","LANE":" ","ALLEY":" ","HOUSE_NO":"１１８號","E_COORD97":165891.97,"N_COORD97":2561910.0099999998,"ADDRESS":"平等街１１８號","OBJECTID":500290},"geometry":{"x":165891.96999999974,"y":2561910.0099999998}},{"attributes":{"ID":500318,"DIS_CODE":0,"TOWNNAME":"佳里區","LI":"忠仁里","LIN":"15鄰","STREET":"平等街","SECT":" ","MAREA":" ","LANE":" ","ALLEY":" ","HOUSE_NO":"１２０號","E_COORD97":165886.70999999999,"N_COORD97":2561908.8999999999,"ADDRESS":"平等街１２０號","OBJECTID":500291},"geometry":{"x":165886.71000000089,"y":2561908.9000000004}},{"attributes":{"ID":500319,"DIS_CODE":0,"TOWNNAME":"佳里區","LI":"忠仁里","LIN":"15鄰","STREET":"平等街","SECT":" ","MAREA":" ","LANE":" ","ALLEY":" ","HOUSE_NO":"１２４號","E_COORD97":165877.67000000001,"N_COORD97":2561908.3500000001,"ADDRESS":"平等街１２４號","OBJECTID":500292},"geometry":{"x":165877.66999999899,"y":2561908.3499999996}},{"attributes":{"ID":500320,"DIS_CODE":0,"TOWNNAME":"佳里區","LI":"忠仁里","LIN":"15鄰","STREET":"平等街","SECT":" ","MAREA":" ","LANE":" ","ALLEY":" ","HOUSE_NO":"１２６號","E_COORD97":165873.67999999999,"N_COORD97":2561906.9300000002,"ADDRESS":"平等街１２６號","OBJECTID":500293},"geometry":{"x":165873.6799999997,"y":2561906.9300000016}},{"attributes":{"ID":500321,"DIS_CODE":0,"TOWNNAME":"佳里區","LI":"忠仁里","LIN":"15鄰","STREET":"平等街","SECT":" ","MAREA":" ","LANE":" ","ALLEY":" ","HOUSE_NO":"１３０號","E_COORD97":165865.35999999999,"N_COORD97":2561907.5499999998,"ADDRESS":"平等街１３０號","OBJECTID":500294},"geometry":{"x":165865.36000000127,"y":2561907.5500000007}},{"attributes":{"ID":500322,"DIS_CODE":0,"TOWNNAME":"佳里區","LI":"忠仁里","LIN":"15鄰","STREET":"平等街","SECT":" ","MAREA":" ","LANE":" ","ALLEY":" ","HOUSE_NO":"１３２號","E_COORD97":165861.54000000001,"N_COORD97":2561906.98,"ADDRESS":"平等街１３２號","OBJECTID":500295},"geometry":{"x":165861.54000000004,"y":2561906.9800000023}},{"attributes":{"ID":500323,"DIS_CODE":0,"TOWNNAME":"佳里區","LI":"忠仁里","LIN":"15鄰","STREET":"平等街","SECT":" ","MAREA":" ","LANE":" ","ALLEY":" ","HOUSE_NO":"１３４號","E_COORD97":165857.34,"N_COORD97":2561906.4700000002,"ADDRESS":"平等街１３４號","OBJECTID":500296},"geometry":{"x":165857.33999999985,"y":2561906.4700000025}},{"attributes":{"ID":500324,"DIS_CODE":0,"TOWNNAME":"佳里區","LI":"忠仁里","LIN":"15鄰","STREET":"平等街","SECT":" ","MAREA":" ","LANE":" ","ALLEY":" ","HOUSE_NO":"１３６號","E_COORD97":165853.19,"N_COORD97":2561905.8999999999,"ADDRESS":"平等街１３６號","OBJECTID":500297},"geometry":{"x":165853.19000000134,"y":2561905.9000000004}},{"attributes":{"ID":500325,"DIS_CODE":0,"TOWNNAME":"佳里區","LI":"忠仁里","LIN":"15鄰","STREET":"平等街","SECT":" ","MAREA":" ","LANE":" ","ALLEY":" ","HOUSE_NO":"１３８號","E_COORD97":165849.14000000001,"N_COORD97":2561905.1699999999,"ADDRESS":"平等街１３８號","OBJECTID":500298},"geometry":{"x":165849.1400000006,"y":2561905.1700000018}},{"attributes":{"ID":500326,"DIS_CODE":0,"TOWNNAME":"佳里區","LI":"忠仁里","LIN":"15鄰","STREET":"平等街","SECT":" ","MAREA":" ","LANE":" ","ALLEY":" ","HOUSE_NO":"１４０號","E_COORD97":165842.92000000001,"N_COORD97":2561904.3700000001,"ADDRESS":"平等街１４０號","OBJECTID":500299},"geometry":{"x":165842.92000000086,"y":2561904.3700000029}},{"attributes":{"ID":500327,"DIS_CODE":0,"TOWNNAME":"佳里區","LI":"忠仁里","LIN":"15鄰","STREET":"平等街","SECT":" ","MAREA":" ","LANE":" ","ALLEY":" ","HOUSE_NO":"１４２號","E_COORD97":165838.42999999999,"N_COORD97":2561903.5600000001,"ADDRESS":"平等街１４２號","OBJECTID":500300},"geometry":{"x":165838.42999999877,"y":2561903.5600000005}},{"attributes":{"ID":500328,"DIS_CODE":0,"TOWNNAME":"佳里區","LI":"忠仁里","LIN":"15鄰","STREET":"平等街","SECT":" ","MAREA":" ","LANE":" ","ALLEY":" ","HOUSE_NO":"１４４號","E_COORD97":165833.92999999999,"N_COORD97":2561902.75,"ADDRESS":"平等街１４４號","OBJECTID":500301},"geometry":{"x":165833.93000000063,"y":2561902.75}},{"attributes":{"ID":500329,"DIS_CODE":0,"TOWNNAME":"佳里區","LI":"忠仁里","LIN":"15鄰","STREET":"平等街","SECT":" ","MAREA":" ","LANE":" ","ALLEY":" ","HOUSE_NO":"１４６號","E_COORD97":165829.31,"N_COORD97":2561901.5499999998,"ADDRESS":"平等街１４６號","OBJECTID":500302},"geometry":{"x":165829.31000000052,"y":2561901.5500000007}},{"attributes":{"ID":500330,"DIS_CODE":0,"TOWNNAME":"永康區","LI":"西橋里","LIN":"15鄰","STREET":"中華西街","SECT":" ","MAREA":" ","LANE":" ","ALLEY":" ","HOUSE_NO":"２６３號","E_COORD97":170681.92999999999,"N_COORD97":2546449.25,"ADDRESS":"中華西街２６３號","OBJECTID":500303},"geometry":{"x":170681.93000000063,"y":2546449.25}},{"attributes":{"ID":500331,"DIS_CODE":0,"TOWNNAME":"永康區","LI":"復國里","LIN":"15鄰","STREET":"復國二路","SECT":" ","MAREA":" ","LANE":" ","ALLEY":" ","HOUSE_NO":"１２３號","E_COORD97":172887.25,"N_COORD97":2545602.5299999998,"ADDRESS":"復國二路１２３號","OBJECTID":500304},"geometry":{"x":172887.25000000093,"y":2545602.5299999993}},{"attributes":{"ID":500332,"DIS_CODE":0,"TOWNNAME":"永康區","LI":"甲頂里","LIN":"15鄰","STREET":"正新街","SECT":" ","MAREA":" ","LANE":" ","ALLEY":" ","HOUSE_NO":"１０號","E_COORD97":170436.95000000001,"N_COORD97":2546642.71,"ADDRESS":"正新街１０號","OBJECTID":500305},"geometry":{"x":170436.95000000112,"y":2546642.7100000028}},{"attributes":{"ID":500333,"DIS_CODE":0,"TOWNNAME":"永康區","LI":"甲頂里","LIN":"15鄰","STREET":"正新街","SECT":" ","MAREA":" ","LANE":" ","ALLEY":" ","HOUSE_NO":"３１號","E_COORD97":170376.39000000001,"N_COORD97":2546661.8500000001,"ADDRESS":"正新街３１號","OBJECTID":500306},"geometry":{"x":170376.38999999966,"y":2546661.8499999996}},{"attributes":{"ID":500334,"DIS_CODE":0,"TOWNNAME":"永康區","LI":"王行里","LIN":"15鄰","STREET":"龍國街","SECT":" ","MAREA":" ","LANE":" ","ALLEY":" ","HOUSE_NO":"４２１號","E_COORD97":175068.51000000001,"N_COORD97":2548026.8399999999,"ADDRESS":"龍國街４２１號","OBJECTID":500307},"geometry":{"x":175068.51000000071,"y":2548026.8400000017}},{"attributes":{"ID":500335,"DIS_CODE":0,"TOWNNAME":"歸仁區","LI":"後市里","LIN":"20鄰","STREET":"民族北街","SECT":" ","MAREA":" ","LANE":"１２巷","ALLEY":"３弄","HOUSE_NO":"１２號","E_COORD97":177472.34951100001,"N_COORD97":2540904.85788,"ADDRESS":"民族北街１２巷３弄１２號","OBJECTID":500308},"geometry":{"x":177472.34951100126,"y":2540904.8578750025}},{"attributes":{"ID":500336,"DIS_CODE":0,"TOWNNAME":"永康區","LI":"復國里","LIN":"15鄰","STREET":"復國二路","SECT":" ","MAREA":" ","LANE":" ","ALLEY":" ","HOUSE_NO":"１３３號","E_COORD97":172894.06,"N_COORD97":2545631.27,"ADDRESS":"復國二路１３３號","OBJECTID":500309},"geometry":{"x":172894.05999999959,"y":2545631.2699999996}},{"attributes":{"ID":500337,"DIS_CODE":0,"TOWNNAME":"永康區","LI":"東灣里","LIN":"15鄰","STREET":"大灣路","SECT":" ","MAREA":" ","LANE":" ","ALLEY":" ","HOUSE_NO":"３０５號","E_COORD97":174813,"N_COORD97":2545012.8199999998,"ADDRESS":"大灣路３０５號","OBJECTID":500310},"geometry":{"x":174813.00000000093,"y":2545012.8200000022}},{"attributes":{"ID":500338,"DIS_CODE":0,"TOWNNAME":"永康區","LI":"東橋里","LIN":"15鄰","STREET":"中山南路","SECT":" ","MAREA":" ","LANE":" ","ALLEY":" ","HOUSE_NO":"３３１號","E_COORD97":171910.29000000001,"N_COORD97":2546388.9900000002,"ADDRESS":"中山南路３３１號","OBJECTID":500311},"geometry":{"x":171910.2900000019,"y":2546388.9900000021}},{"attributes":{"ID":500339,"DIS_CODE":0,"TOWNNAME":"永康區","LI":"東灣里","LIN":"15鄰","STREET":"民族路","SECT":" ","MAREA":" ","LANE":" ","ALLEY":" ","HOUSE_NO":"２９７號","E_COORD97":175056.91,"N_COORD97":2545106.8900000001,"ADDRESS":"民族路２９７號","OBJECTID":500312},"geometry":{"x":175056.91000000015,"y":2545106.8899999987}},{"attributes":{"ID":500340,"DIS_CODE":0,"TOWNNAME":"永康區","LI":"東橋里","LIN":"15鄰","STREET":"中山南路","SECT":" ","MAREA":" ","LANE":" ","ALLEY":" ","HOUSE_NO":"３３３號","E_COORD97":171916.59,"N_COORD97":2546394.2400000002,"ADDRESS":"中山南路３３３號","OBJECTID":500313},"geometry":{"x":171916.59000000171,"y":2546394.2400000021}},{"attributes":{"ID":500341,"DIS_CODE":0,"TOWNNAME":"永康區","LI":"東橋里","LIN":"15鄰","STREET":"中山南路","SECT":" ","MAREA":" ","LANE":" ","ALLEY":" ","HOUSE_NO":"３３７號","E_COORD97":171949.98999999999,"N_COORD97":2546415.7400000002,"ADDRESS":"中山南路３３７號","OBJECTID":500314},"geometry":{"x":171949.99000000115,"y":2546415.7400000002}},{"attributes":{"ID":500342,"DIS_CODE":0,"TOWNNAME":"永康區","LI":"東橋里","LIN":"15鄰","STREET":"中山南路","SECT":" ","MAREA":" ","LANE":" ","ALLEY":" ","HOUSE_NO":"３２５號","E_COORD97":171894.38,"N_COORD97":2546379.7400000002,"ADDRESS":"中山南路３２５號","OBJECTID":500315},"geometry":{"x":171894.38000000175,"y":2546379.7400000021}},{"attributes":{"ID":500343,"DIS_CODE":0,"TOWNNAME":"永康區","LI":"東灣里","LIN":"15鄰","STREET":"大灣路","SECT":" ","MAREA":" ","LANE":" ","ALLEY":" ","HOUSE_NO":"２８５號","E_COORD97":174829.09,"N_COORD97":2545046.1600000001,"ADDRESS":"大灣路２８５號","OBJECTID":500316},"geometry":{"x":174829.09000000078,"y":2545046.1600000001}},{"attributes":{"ID":500344,"DIS_CODE":0,"TOWNNAME":"永康區","LI":"東灣里","LIN":"15鄰","STREET":"大灣路","SECT":" ","MAREA":" ","LANE":" ","ALLEY":" ","HOUSE_NO":"２８１號","E_COORD97":174892.39999999999,"N_COORD97":2545149.5800000001,"ADDRESS":"大灣路２８１號","OBJECTID":500317},"geometry":{"x":174892.4000000013,"y":2545149.5800000038}},{"attributes":{"ID":500345,"DIS_CODE":0,"TOWNNAME":"永康區","LI":"東灣里","LIN":"15鄰","STREET":"大灣路","SECT":" ","MAREA":" ","LANE":" ","ALLEY":" ","HOUSE_NO":"２８９號","E_COORD97":174825.54999999999,"N_COORD97":2545039.0499999998,"ADDRESS":"大灣路２８９號","OBJECTID":500318},"geometry":{"x":174825.54999999981,"y":2545039.0500000026}},{"attributes":{"ID":500346,"DIS_CODE":0,"TOWNNAME":"佳里區","LI":"建南里","LIN":"15鄰","STREET":"光復路","SECT":" ","MAREA":" ","LANE":" ","ALLEY":" ","HOUSE_NO":"１０３號","E_COORD97":165496.04000000001,"N_COORD97":2561986.9300000002,"ADDRESS":"光復路１０３號","OBJECTID":500319},"geometry":{"x":165496.04000000097,"y":2561986.9300000016}},{"attributes":{"ID":500347,"DIS_CODE":0,"TOWNNAME":"佳里區","LI":"建南里","LIN":"15鄰","STREET":"光復路","SECT":" ","MAREA":" ","LANE":" ","ALLEY":" ","HOUSE_NO":"１０５號","E_COORD97":165509.07999999999,"N_COORD97":2561991.4300000002,"ADDRESS":"光復路１０５號","OBJECTID":500320},"geometry":{"x":165509.08000000194,"y":2561991.4300000016}},{"attributes":{"ID":500348,"DIS_CODE":0,"TOWNNAME":"佳里區","LI":"建南里","LIN":"15鄰","STREET":"光復路","SECT":" ","MAREA":" ","LANE":" ","ALLEY":" ","HOUSE_NO":"１１１號","E_COORD97":165505.63,"N_COORD97":2562005.79,"ADDRESS":"光復路１１１號","OBJECTID":500321},"geometry":{"x":165505.63000000082,"y":2562005.7899999991}},{"attributes":{"ID":500349,"DIS_CODE":0,"TOWNNAME":"佳里區","LI":"建南里","LIN":"15鄰","STREET":"光復路","SECT":" ","MAREA":" ","LANE":" ","ALLEY":" ","HOUSE_NO":"１１３號","E_COORD97":165505.10000000001,"N_COORD97":2562010.0800000001,"ADDRESS":"光復路１１３號","OBJECTID":500322},"geometry":{"x":165505.10000000149,"y":2562010.0800000019}},{"attributes":{"ID":500350,"DIS_CODE":0,"TOWNNAME":"佳里區","LI":"建南里","LIN":"15鄰","STREET":"光復路","SECT":" ","MAREA":" ","LANE":" ","ALLEY":" ","HOUSE_NO":"１１５號","E_COORD97":165504.60999999999,"N_COORD97":2562014.4300000002,"ADDRESS":"光復路１１５號","OBJECTID":500323},"geometry":{"x":165504.61000000127,"y":2562014.4300000016}},{"attributes":{"ID":500351,"DIS_CODE":0,"TOWNNAME":"佳里區","LI":"建南里","LIN":"15鄰","STREET":"光復路","SECT":" ","MAREA":" ","LANE":" ","ALLEY":" ","HOUSE_NO":"１１７號","E_COORD97":165504.09,"N_COORD97":2562018.8700000001,"ADDRESS":"光復路１１７號","OBJECTID":500324},"geometry":{"x":165504.09000000078,"y":2562018.8700000048}},{"attributes":{"ID":500352,"DIS_CODE":0,"TOWNNAME":"佳里區","LI":"建南里","LIN":"15鄰","STREET":"光復路","SECT":" ","MAREA":" ","LANE":" ","ALLEY":" ","HOUSE_NO":"１１９號","E_COORD97":165503.59,"N_COORD97":2562023.3199999998,"ADDRESS":"光復路１１９號","OBJECTID":500325},"geometry":{"x":165503.59000000171,"y":2562023.3200000022}},{"attributes":{"ID":500353,"DIS_CODE":0,"TOWNNAME":"佳里區","LI":"建南里","LIN":"15鄰","STREET":"光復路","SECT":" ","MAREA":" ","LANE":" ","ALLEY":" ","HOUSE_NO":"１２１號","E_COORD97":165502.98999999999,"N_COORD97":2562027.6600000001,"ADDRESS":"光復路１２１號","OBJECTID":500326},"geometry":{"x":165502.99000000209,"y":2562027.660000002}},{"attributes":{"ID":500354,"DIS_CODE":0,"TOWNNAME":"佳里區","LI":"建南里","LIN":"15鄰","STREET":"光復路","SECT":" ","MAREA":" ","LANE":" ","ALLEY":" ","HOUSE_NO":"２３號","E_COORD97":165527.69,"N_COORD97":2561791.29,"ADDRESS":"光復路２３號","OBJECTID":500327},"geometry":{"x":165527.69000000134,"y":2561791.290000001}},{"attributes":{"ID":500355,"DIS_CODE":0,"TOWNNAME":"佳里區","LI":"建南里","LIN":"15鄰","STREET":"光復路","SECT":" ","MAREA":" ","LANE":" ","ALLEY":" ","HOUSE_NO":"２５號","E_COORD97":165527.20999999999,"N_COORD97":2561796,"ADDRESS":"光復路２５號","OBJECTID":500328},"geometry":{"x":165527.21000000089,"y":2561796}},{"attributes":{"ID":500356,"DIS_CODE":0,"TOWNNAME":"佳里區","LI":"建南里","LIN":"15鄰","STREET":"光復路","SECT":" ","MAREA":" ","LANE":" ","ALLEY":" ","HOUSE_NO":"３３號","E_COORD97":165526.95999999999,"N_COORD97":2561816.0600000001,"ADDRESS":"光復路３３號","OBJECTID":500329},"geometry":{"x":165526.96000000089,"y":2561816.0600000005}},{"attributes":{"ID":500357,"DIS_CODE":0,"TOWNNAME":"佳里區","LI":"建南里","LIN":"15鄰","STREET":"光復路","SECT":" ","MAREA":" ","LANE":" ","ALLEY":" ","HOUSE_NO":"５１號","E_COORD97":165519.35000000001,"N_COORD97":2561868.6000000001,"ADDRESS":"光復路５１號","OBJECTID":500330},"geometry":{"x":165519.35000000056,"y":2561868.5999999996}},{"attributes":{"ID":500358,"DIS_CODE":0,"TOWNNAME":"佳里區","LI":"建南里","LIN":"15鄰","STREET":"光復路","SECT":" ","MAREA":" ","LANE":" ","ALLEY":" ","HOUSE_NO":"５７號","E_COORD97":165520.42999999999,"N_COORD97":2561882.54,"ADDRESS":"光復路５７號","OBJECTID":500331},"geometry":{"x":165520.43000000063,"y":2561882.5399999991}},{"attributes":{"ID":500359,"DIS_CODE":0,"TOWNNAME":"佳里區","LI":"建南里","LIN":"15鄰","STREET":"光復路","SECT":" ","MAREA":" ","LANE":" ","ALLEY":" ","HOUSE_NO":"５號","E_COORD97":165529.89999999999,"N_COORD97":2561741.2000000002,"ADDRESS":"光復路５號","OBJECTID":500332},"geometry":{"x":165529.9000000013,"y":2561741.2000000011}},{"attributes":{"ID":500360,"DIS_CODE":0,"TOWNNAME":"佳里區","LI":"建南里","LIN":"15鄰","STREET":"光復路","SECT":" ","MAREA":" ","LANE":" ","ALLEY":" ","HOUSE_NO":"６１號","E_COORD97":165518.60999999999,"N_COORD97":2561891.7599999998,"ADDRESS":"光復路６１號","OBJECTID":500333},"geometry":{"x":165518.61000000034,"y":2561891.7599999998}},{"attributes":{"ID":500361,"DIS_CODE":0,"TOWNNAME":"佳里區","LI":"建南里","LIN":"15鄰","STREET":"光復路","SECT":" ","MAREA":" ","LANE":" ","ALLEY":" ","HOUSE_NO":"６３號","E_COORD97":165518.13,"N_COORD97":2561896.6800000002,"ADDRESS":"光復路６３號","OBJECTID":500334},"geometry":{"x":165518.12999999989,"y":2561896.6800000034}},{"attributes":{"ID":500362,"DIS_CODE":0,"TOWNNAME":"佳里區","LI":"建南里","LIN":"15鄰","STREET":"光復路","SECT":" ","MAREA":" ","LANE":" ","ALLEY":" ","HOUSE_NO":"６５號","E_COORD97":165517.54999999999,"N_COORD97":2561901.4500000002,"ADDRESS":"光復路６５號","OBJECTID":500335},"geometry":{"x":165517.55000000168,"y":2561901.450000003}},{"attributes":{"ID":500363,"DIS_CODE":0,"TOWNNAME":"佳里區","LI":"建南里","LIN":"15鄰","STREET":"光復路","SECT":" ","MAREA":" ","LANE":" ","ALLEY":" ","HOUSE_NO":"６７號","E_COORD97":165517.14000000001,"N_COORD97":2561905.46,"ADDRESS":"光復路６７號","OBJECTID":500336},"geometry":{"x":165517.1400000006,"y":2561905.4600000009}},{"attributes":{"ID":500364,"DIS_CODE":0,"TOWNNAME":"佳里區","LI":"建南里","LIN":"15鄰","STREET":"光復路","SECT":" ","MAREA":" ","LANE":" ","ALLEY":" ","HOUSE_NO":"６９號","E_COORD97":165516.54000000001,"N_COORD97":2561909.7999999998,"ADDRESS":"光復路６９號","OBJECTID":500337},"geometry":{"x":165516.54000000097,"y":2561909.8000000007}},{"attributes":{"ID":500365,"DIS_CODE":0,"TOWNNAME":"佳里區","LI":"建南里","LIN":"15鄰","STREET":"光復路","SECT":" ","MAREA":" ","LANE":" ","ALLEY":" ","HOUSE_NO":"６號之１","E_COORD97":165582.70999999999,"N_COORD97":2561751.8700000001,"ADDRESS":"光復路６號之１","OBJECTID":500338},"geometry":{"x":165582.71000000183,"y":2561751.8700000029}},{"attributes":{"ID":500366,"DIS_CODE":0,"TOWNNAME":"佳里區","LI":"建南里","LIN":"15鄰","STREET":"光復路","SECT":" ","MAREA":" ","LANE":" ","ALLEY":" ","HOUSE_NO":"７１號","E_COORD97":165515.98000000001,"N_COORD97":2561915.1400000001,"ADDRESS":"光復路７１號","OBJECTID":500339},"geometry":{"x":165515.98000000138,"y":2561915.1400000043}},{"attributes":{"ID":500367,"DIS_CODE":0,"TOWNNAME":"佳里區","LI":"建南里","LIN":"15鄰","STREET":"光復路","SECT":" ","MAREA":" ","LANE":" ","ALLEY":" ","HOUSE_NO":"７３號","E_COORD97":165515.56,"N_COORD97":2561920.1600000001,"ADDRESS":"光復路７３號","OBJECTID":500340},"geometry":{"x":165515.56000000052,"y":2561920.1600000001}},{"attributes":{"ID":500368,"DIS_CODE":0,"TOWNNAME":"佳里區","LI":"建南里","LIN":"15鄰","STREET":"光復路","SECT":" ","MAREA":" ","LANE":" ","ALLEY":" ","HOUSE_NO":"７５號","E_COORD97":165514.92999999999,"N_COORD97":2561924.77,"ADDRESS":"光復路７５號","OBJECTID":500341},"geometry":{"x":165514.93000000063,"y":2561924.7700000014}},{"attributes":{"ID":500369,"DIS_CODE":0,"TOWNNAME":"佳里區","LI":"建南里","LIN":"15鄰","STREET":"光復路","SECT":" ","MAREA":" ","LANE":" ","ALLEY":" ","HOUSE_NO":"７號","E_COORD97":165530.10999999999,"N_COORD97":2561747.6200000001,"ADDRESS":"光復路７號","OBJECTID":500342},"geometry":{"x":165530.11000000127,"y":2561747.6200000029}},{"attributes":{"ID":500370,"DIS_CODE":0,"TOWNNAME":"佳里區","LI":"建南里","LIN":"15鄰","STREET":"光復路","SECT":" ","MAREA":" ","LANE":" ","ALLEY":" ","HOUSE_NO":"８７號","E_COORD97":165512.82999999999,"N_COORD97":2561949.3799999999,"ADDRESS":"光復路８７號","OBJECTID":500343},"geometry":{"x":165512.83000000101,"y":2561949.3800000008}},{"attributes":{"ID":500371,"DIS_CODE":0,"TOWNNAME":"佳里區","LI":"建南里","LIN":"15鄰","STREET":"光復路","SECT":" ","MAREA":" ","LANE":" ","ALLEY":" ","HOUSE_NO":"８９號","E_COORD97":165512.35999999999,"N_COORD97":2561954.1299999999,"ADDRESS":"光復路８９號","OBJECTID":500344},"geometry":{"x":165512.3599999994,"y":2561954.1300000027}},{"attributes":{"ID":500372,"DIS_CODE":0,"TOWNNAME":"佳里區","LI":"建南里","LIN":"15鄰","STREET":"光復路","SECT":" ","MAREA":" ","LANE":" ","ALLEY":" ","HOUSE_NO":"９１號","E_COORD97":165511.94,"N_COORD97":2561958.7999999998,"ADDRESS":"光復路９１號","OBJECTID":500345},"geometry":{"x":165511.93999999948,"y":2561958.8000000026}},{"attributes":{"ID":500373,"DIS_CODE":0,"TOWNNAME":"新營區","LI":"新南里","LIN":"26鄰","STREET":"復興路","SECT":" ","MAREA":" ","LANE":"６２０巷","ALLEY":"６１弄","HOUSE_NO":"１號","E_COORD97":178021.16,"N_COORD97":2578522.3999999999,"ADDRESS":"復興路６２０巷６１弄１號","OBJECTID":500346},"geometry":{"x":178021.16000000108,"y":2578522.4000000041}},{"attributes":{"ID":500374,"DIS_CODE":0,"TOWNNAME":"佳里區","LI":"建南里","LIN":"15鄰","STREET":"光復路","SECT":" ","MAREA":" ","LANE":" ","ALLEY":" ","HOUSE_NO":"９３號","E_COORD97":165509.66,"N_COORD97":2561965.1800000002,"ADDRESS":"光復路９３號","OBJECTID":500347},"geometry":{"x":165509.66000000015,"y":2561965.1800000016}},{"attributes":{"ID":500375,"DIS_CODE":0,"TOWNNAME":"佳里區","LI":"建南里","LIN":"15鄰","STREET":"光復路","SECT":" ","MAREA":" ","LANE":" ","ALLEY":" ","HOUSE_NO":"９７號","E_COORD97":165506.23000000001,"N_COORD97":2561971.2999999998,"ADDRESS":"光復路９７號","OBJECTID":500348},"geometry":{"x":165506.23000000045,"y":2561971.3000000007}},{"attributes":{"ID":500376,"DIS_CODE":0,"TOWNNAME":"中西區","LI":"郡王里","LIN":"15鄰","STREET":"建業街","SECT":" ","MAREA":" ","LANE":" ","ALLEY":" ","HOUSE_NO":"８２號","E_COORD97":168482.79000000001,"N_COORD97":2543167.5499999998,"ADDRESS":"建業街８２號","OBJECTID":500349},"geometry":{"x":168482.79000000097,"y":2543167.5500000026}},{"attributes":{"ID":500377,"DIS_CODE":0,"TOWNNAME":"安南區","LI":"溪心里","LIN":"15鄰","STREET":"本原街","SECT":"二段","MAREA":" ","LANE":" ","ALLEY":" ","HOUSE_NO":"５０１號","E_COORD97":165959.35999999999,"N_COORD97":2550510.7999999998,"ADDRESS":"本原街二段５０１號","OBJECTID":500350},"geometry":{"x":165959.36000000034,"y":2550510.8000000007}},{"attributes":{"ID":500378,"DIS_CODE":0,"TOWNNAME":"安南區","LI":"安順里","LIN":"15鄰","STREET":"育安街","SECT":" ","MAREA":" ","LANE":" ","ALLEY":" ","HOUSE_NO":"２０１號","E_COORD97":169566,"N_COORD97":2550069.1499999999,"ADDRESS":"育安街２０１號","OBJECTID":500351},"geometry":{"x":169566.00000000186,"y":2550069.1500000022}},{"attributes":{"ID":500379,"DIS_CODE":0,"TOWNNAME":"中西區","LI":"郡王里","LIN":"15鄰","STREET":"建業街","SECT":" ","MAREA":" ","LANE":" ","ALLEY":" ","HOUSE_NO":"８４號","E_COORD97":168478.73000000001,"N_COORD97":2543167.6400000001,"ADDRESS":"建業街８４號","OBJECTID":500352},"geometry":{"x":168478.73000000138,"y":2543167.6400000025}},{"attributes":{"ID":500380,"DIS_CODE":0,"TOWNNAME":"安南區","LI":"溪心里","LIN":"15鄰","STREET":"本原街","SECT":"二段","MAREA":" ","LANE":" ","ALLEY":" ","HOUSE_NO":"５０１之１號","E_COORD97":165913.59,"N_COORD97":2550502.52,"ADDRESS":"本原街二段５０１之１號","OBJECTID":500353},"geometry":{"x":165913.58999999985,"y":2550502.5200000033}},{"attributes":{"ID":500381,"DIS_CODE":0,"TOWNNAME":"安南區","LI":"安順里","LIN":"15鄰","STREET":"育安一街","SECT":" ","MAREA":" ","LANE":" ","ALLEY":" ","HOUSE_NO":"１７９號","E_COORD97":169484.69,"N_COORD97":2550168.7000000002,"ADDRESS":"育安一街１７９號","OBJECTID":500354},"geometry":{"x":169484.69000000041,"y":2550168.6999999974}},{"attributes":{"ID":500382,"DIS_CODE":0,"TOWNNAME":"安南區","LI":"安順里","LIN":"15鄰","STREET":"育安一街","SECT":" ","MAREA":" ","LANE":" ","ALLEY":" ","HOUSE_NO":"１７５號","E_COORD97":169489.64999999999,"N_COORD97":2550155.5099999998,"ADDRESS":"育安一街１７５號","OBJECTID":500355},"geometry":{"x":169489.6500000013,"y":2550155.5099999998}},{"attributes":{"ID":500383,"DIS_CODE":0,"TOWNNAME":"安南區","LI":"安順里","LIN":"15鄰","STREET":"育安一街","SECT":" ","MAREA":" ","LANE":" ","ALLEY":" ","HOUSE_NO":"１７３號","E_COORD97":169489.32999999999,"N_COORD97":2550150.0800000001,"ADDRESS":"育安一街１７３號","OBJECTID":500356},"geometry":{"x":169489.33000000194,"y":2550150.0800000038}},{"attributes":{"ID":500384,"DIS_CODE":0,"TOWNNAME":"安南區","LI":"安順里","LIN":"15鄰","STREET":"育安一街","SECT":" ","MAREA":" ","LANE":" ","ALLEY":" ","HOUSE_NO":"１７１號","E_COORD97":169488.69,"N_COORD97":2550143.9199999999,"ADDRESS":"育安一街１７１號","OBJECTID":500357},"geometry":{"x":169488.69000000041,"y":2550143.9199999999}},{"attributes":{"ID":500385,"DIS_CODE":0,"TOWNNAME":"安南區","LI":"安順里","LIN":"15鄰","STREET":"育安一街","SECT":" ","MAREA":" ","LANE":" ","ALLEY":" ","HOUSE_NO":"１６９號","E_COORD97":169488.04999999999,"N_COORD97":2550138.0099999998,"ADDRESS":"育安一街１６９號","OBJECTID":500358},"geometry":{"x":169488.05000000075,"y":2550138.0100000016}},{"attributes":{"ID":500386,"DIS_CODE":0,"TOWNNAME":"安南區","LI":"安順里","LIN":"15鄰","STREET":"育安一街","SECT":" ","MAREA":" ","LANE":" ","ALLEY":" ","HOUSE_NO":"１６７號","E_COORD97":169487.41,"N_COORD97":2550132.2599999998,"ADDRESS":"育安一街１６７號","OBJECTID":500359},"geometry":{"x":169487.41000000108,"y":2550132.2600000016}},{"attributes":{"ID":500387,"DIS_CODE":0,"TOWNNAME":"安南區","LI":"安順里","LIN":"15鄰","STREET":"育安一街","SECT":" ","MAREA":" ","LANE":" ","ALLEY":" ","HOUSE_NO":"１６５號","E_COORD97":169486.60999999999,"N_COORD97":2550126.5099999998,"ADDRESS":"育安一街１６５號","OBJECTID":500360},"geometry":{"x":169486.61000000127,"y":2550126.5100000035}},{"attributes":{"ID":500388,"DIS_CODE":0,"TOWNNAME":"安南區","LI":"安順里","LIN":"15鄰","STREET":"育安一街","SECT":" ","MAREA":" ","LANE":" ","ALLEY":" ","HOUSE_NO":"１６３號","E_COORD97":169485.97,"N_COORD97":2550120.2799999998,"ADDRESS":"育安一街１６３號","OBJECTID":500361},"geometry":{"x":169485.96999999974,"y":2550120.2799999993}},{"attributes":{"ID":500389,"DIS_CODE":0,"TOWNNAME":"安南區","LI":"安順里","LIN":"15鄰","STREET":"育安一街","SECT":" ","MAREA":" ","LANE":" ","ALLEY":" ","HOUSE_NO":"１６１號","E_COORD97":169485.81,"N_COORD97":2550114.0499999998,"ADDRESS":"育安一街１６１號","OBJECTID":500362},"geometry":{"x":169485.81000000052,"y":2550114.0500000045}},{"attributes":{"ID":500390,"DIS_CODE":0,"TOWNNAME":"安南區","LI":"安順里","LIN":"15鄰","STREET":"安豐一街","SECT":" ","MAREA":" ","LANE":" ","ALLEY":" ","HOUSE_NO":"２２號","E_COORD97":169535.63,"N_COORD97":2550081.8199999998,"ADDRESS":"安豐一街２２號","OBJECTID":500363},"geometry":{"x":169535.62999999989,"y":2550081.8200000022}},{"attributes":{"ID":500391,"DIS_CODE":0,"TOWNNAME":"安南區","LI":"安順里","LIN":"15鄰","STREET":"安豐一街","SECT":" ","MAREA":" ","LANE":" ","ALLEY":" ","HOUSE_NO":"２６號","E_COORD97":169541.67000000001,"N_COORD97":2550082.0600000001,"ADDRESS":"安豐一街２６號","OBJECTID":500364},"geometry":{"x":169541.67000000086,"y":2550082.0600000005}},{"attributes":{"ID":500392,"DIS_CODE":0,"TOWNNAME":"安南區","LI":"安順里","LIN":"15鄰","STREET":"安豐一街","SECT":" ","MAREA":" ","LANE":" ","ALLEY":" ","HOUSE_NO":"１２號","E_COORD97":169509.14000000001,"N_COORD97":2550082.29,"ADDRESS":"安豐一街１２號","OBJECTID":500365},"geometry":{"x":169509.1400000006,"y":2550082.2899999991}},{"attributes":{"ID":500393,"DIS_CODE":0,"TOWNNAME":"安南區","LI":"安順里","LIN":"15鄰","STREET":"安豐一街","SECT":" ","MAREA":" ","LANE":" ","ALLEY":" ","HOUSE_NO":"１６號","E_COORD97":169515.64999999999,"N_COORD97":2550082.0600000001,"ADDRESS":"安豐一街１６號","OBJECTID":500366},"geometry":{"x":169515.65000000037,"y":2550082.0600000005}},{"attributes":{"ID":500394,"DIS_CODE":0,"TOWNNAME":"安南區","LI":"安順里","LIN":"15鄰","STREET":"安豐一街","SECT":" ","MAREA":" ","LANE":" ","ALLEY":" ","HOUSE_NO":"１８號","E_COORD97":169521.92000000001,"N_COORD97":2550081.8199999998,"ADDRESS":"安豐一街１８號","OBJECTID":500367},"geometry":{"x":169521.91999999993,"y":2550081.8200000022}},{"attributes":{"ID":500395,"DIS_CODE":0,"TOWNNAME":"安南區","LI":"安順里","LIN":"15鄰","STREET":"安豐一街","SECT":" ","MAREA":" ","LANE":" ","ALLEY":" ","HOUSE_NO":"２０號","E_COORD97":169528.89000000001,"N_COORD97":2550081.5899999999,"ADDRESS":"安豐一街２０號","OBJECTID":500368},"geometry":{"x":169528.88999999966,"y":2550081.5899999999}},{"attributes":{"ID":500396,"DIS_CODE":0,"TOWNNAME":"安南區","LI":"安順里","LIN":"15鄰","STREET":"育安一街","SECT":" ","MAREA":" ","LANE":" ","ALLEY":" ","HOUSE_NO":"１５５號","E_COORD97":169484.53,"N_COORD97":2550089.4700000002,"ADDRESS":"育安一街１５５號","OBJECTID":500369},"geometry":{"x":169484.53000000026,"y":2550089.4700000007}},{"attributes":{"ID":500397,"DIS_CODE":0,"TOWNNAME":"安南區","LI":"安順里","LIN":"15鄰","STREET":"育安一街","SECT":" ","MAREA":" ","LANE":" ","ALLEY":" ","HOUSE_NO":"１５３號","E_COORD97":169484.53,"N_COORD97":2550084.1600000001,"ADDRESS":"育安一街１５３號","OBJECTID":500370},"geometry":{"x":169484.53000000026,"y":2550084.1600000001}},{"attributes":{"ID":500398,"DIS_CODE":0,"TOWNNAME":"新市區","LI":"港墘里","LIN":"15鄰","STREET":"光華街","SECT":" ","MAREA":" ","LANE":" ","ALLEY":" ","HOUSE_NO":"５９號","E_COORD97":177905.14999999999,"N_COORD97":2552725.25,"ADDRESS":"光華街５９號","OBJECTID":500371},"geometry":{"x":177905.15000000037,"y":2552725.25}},{"attributes":{"ID":500399,"DIS_CODE":0,"TOWNNAME":"中西區","LI":"郡王里","LIN":"15鄰","STREET":"建業街","SECT":" ","MAREA":" ","LANE":" ","ALLEY":" ","HOUSE_NO":"８８號","E_COORD97":168470.97,"N_COORD97":2543167.8999999999,"ADDRESS":"建業街８８號","OBJECTID":500372},"geometry":{"x":168470.9700000016,"y":2543167.9000000022}},{"attributes":{"ID":500400,"DIS_CODE":0,"TOWNNAME":"新市區","LI":"港墘里","LIN":"15鄰","STREET":"長安街","SECT":" ","MAREA":" ","LANE":" ","ALLEY":" ","HOUSE_NO":"１１１之３號","E_COORD97":178243.48000000001,"N_COORD97":2552605.8199999998,"ADDRESS":"長安街１１１之３號","OBJECTID":500373},"geometry":{"x":178243.48000000138,"y":2552605.8200000003}},{"attributes":{"ID":500401,"DIS_CODE":0,"TOWNNAME":"新市區","LI":"港墘里","LIN":"15鄰","STREET":"光華街","SECT":" ","MAREA":" ","LANE":" ","ALLEY":" ","HOUSE_NO":"２１號","E_COORD97":177979.12,"N_COORD97":2552635,"ADDRESS":"光華街２１號","OBJECTID":500374},"geometry":{"x":177979.12000000104,"y":2552635}},{"attributes":{"ID":500402,"DIS_CODE":0,"TOWNNAME":"新市區","LI":"永就里","LIN":"15鄰","STREET":"永華二街","SECT":" ","MAREA":" ","LANE":" ","ALLEY":" ","HOUSE_NO":"１４號","E_COORD97":177650.20000000001,"N_COORD97":2551007.25,"ADDRESS":"永華二街１４號","OBJECTID":500375},"geometry":{"x":177650.20000000019,"y":2551007.2500000019}},{"attributes":{"ID":500403,"DIS_CODE":0,"TOWNNAME":"新市區","LI":"港墘里","LIN":"15鄰","STREET":"光華街","SECT":" ","MAREA":" ","LANE":" ","ALLEY":" ","HOUSE_NO":"１５號","E_COORD97":177993.73999999999,"N_COORD97":2552608.25,"ADDRESS":"光華街１５號","OBJECTID":500376},"geometry":{"x":177993.74000000115,"y":2552608.2500000019}},{"attributes":{"ID":500404,"DIS_CODE":0,"TOWNNAME":"新市區","LI":"永就里","LIN":"15鄰","STREET":"永華二街","SECT":" ","MAREA":" ","LANE":" ","ALLEY":" ","HOUSE_NO":"１８號","E_COORD97":177625.64999999999,"N_COORD97":2550998.5,"ADDRESS":"永華二街１８號","OBJECTID":500377},"geometry":{"x":177625.65000000037,"y":2550998.5000000037}},{"attributes":{"ID":500405,"DIS_CODE":0,"TOWNNAME":"新市區","LI":"永就里","LIN":"15鄰","STREET":"永華二街","SECT":" ","MAREA":" ","LANE":" ","ALLEY":" ","HOUSE_NO":"６號","E_COORD97":177691.14999999999,"N_COORD97":2551023.25,"ADDRESS":"永華二街６號","OBJECTID":500378},"geometry":{"x":177691.1500000013,"y":2551023.25}},{"attributes":{"ID":500406,"DIS_CODE":0,"TOWNNAME":"東區","LI":"大同里","LIN":"15鄰","STREET":"府連路","SECT":" ","MAREA":" ","LANE":" ","ALLEY":" ","HOUSE_NO":"１９９號","E_COORD97":169303.20999999999,"N_COORD97":2542875.6600000001,"ADDRESS":"府連路１９９號","OBJECTID":500379},"geometry":{"x":169303.20999999996,"y":2542875.660000002}},{"attributes":{"ID":500407,"DIS_CODE":0,"TOWNNAME":"東區","LI":"大同里","LIN":"15鄰","STREET":"府連路","SECT":" ","MAREA":" ","LANE":" ","ALLEY":" ","HOUSE_NO":"２０１號","E_COORD97":169308.23999999999,"N_COORD97":2542878.5600000001,"ADDRESS":"府連路２０１號","OBJECTID":500380},"geometry":{"x":169308.24000000022,"y":2542878.5600000042}},{"attributes":{"ID":500408,"DIS_CODE":0,"TOWNNAME":"仁德區","LI":"後壁里","LIN":"42鄰","STREET":"德崙路","SECT":" ","MAREA":" ","LANE":"４８巷","ALLEY":"１５弄","HOUSE_NO":"７號","E_COORD97":173332.54000000001,"N_COORD97":2538499.0099999998,"ADDRESS":"德崙路４８巷１５弄７號","OBJECTID":500381},"geometry":{"x":173332.5400000019,"y":2538499.0100000016}},{"attributes":{"ID":500409,"DIS_CODE":0,"TOWNNAME":"東區","LI":"大同里","LIN":"15鄰","STREET":"府連路","SECT":" ","MAREA":" ","LANE":" ","ALLEY":" ","HOUSE_NO":"２０３號","E_COORD97":169311.54999999999,"N_COORD97":2542879.1899999999,"ADDRESS":"府連路２０３號","OBJECTID":500382},"geometry":{"x":169311.55000000075,"y":2542879.1899999995}},{"attributes":{"ID":500410,"DIS_CODE":0,"TOWNNAME":"東區","LI":"大同里","LIN":"15鄰","STREET":"府連路","SECT":" ","MAREA":" ","LANE":" ","ALLEY":" ","HOUSE_NO":"２０５號","E_COORD97":169316.51000000001,"N_COORD97":2542878.9500000002,"ADDRESS":"府連路２０５號","OBJECTID":500383},"geometry":{"x":169316.51000000164,"y":2542878.9500000011}},{"attributes":{"ID":500411,"DIS_CODE":0,"TOWNNAME":"東區","LI":"大同里","LIN":"15鄰","STREET":"府連路","SECT":" ","MAREA":" ","LANE":" ","ALLEY":" ","HOUSE_NO":"２０７號","E_COORD97":169319.32999999999,"N_COORD97":2542878.8199999998,"ADDRESS":"府連路２０７號","OBJECTID":500384},"geometry":{"x":169319.33000000007,"y":2542878.8200000003}},{"attributes":{"ID":500412,"DIS_CODE":0,"TOWNNAME":"東區","LI":"大同里","LIN":"15鄰","STREET":"府連路","SECT":" ","MAREA":" ","LANE":" ","ALLEY":" ","HOUSE_NO":"２０９號","E_COORD97":169326.44,"N_COORD97":2542877.9100000001,"ADDRESS":"府連路２０９號","OBJECTID":500385},"geometry":{"x":169326.44000000134,"y":2542877.9100000001}},{"attributes":{"ID":500413,"DIS_CODE":0,"TOWNNAME":"東區","LI":"大同里","LIN":"15鄰","STREET":"府連路","SECT":" ","MAREA":" ","LANE":" ","ALLEY":" ","HOUSE_NO":"２１１號","E_COORD97":169331.54000000001,"N_COORD97":2542878.4500000002,"ADDRESS":"府連路２１１號","OBJECTID":500386},"geometry":{"x":169331.54000000004,"y":2542878.4500000011}},{"attributes":{"ID":500414,"DIS_CODE":0,"TOWNNAME":"東區","LI":"大同里","LIN":"15鄰","STREET":"府連路","SECT":" ","MAREA":" ","LANE":" ","ALLEY":" ","HOUSE_NO":"２１７號","E_COORD97":169340.20000000001,"N_COORD97":2542878.0899999999,"ADDRESS":"府連路２１７號","OBJECTID":500387},"geometry":{"x":169340.20000000112,"y":2542878.0900000017}},{"attributes":{"ID":500415,"DIS_CODE":0,"TOWNNAME":"東區","LI":"大同里","LIN":"15鄰","STREET":"府連路","SECT":" ","MAREA":" ","LANE":" ","ALLEY":" ","HOUSE_NO":"２１９號","E_COORD97":169342.94,"N_COORD97":2542878.8199999998,"ADDRESS":"府連路２１９號","OBJECTID":500388},"geometry":{"x":169342.94000000041,"y":2542878.8200000003}},{"attributes":{"ID":500416,"DIS_CODE":0,"TOWNNAME":"東區","LI":"大同里","LIN":"15鄰","STREET":"府連路","SECT":" ","MAREA":" ","LANE":" ","ALLEY":" ","HOUSE_NO":"２２１號","E_COORD97":169345.95000000001,"N_COORD97":2542879.8199999998,"ADDRESS":"府連路２２１號","OBJECTID":500389},"geometry":{"x":169345.95000000019,"y":2542879.820000004}},{"attributes":{"ID":500417,"DIS_CODE":0,"TOWNNAME":"東區","LI":"大同里","LIN":"15鄰","STREET":"府連路","SECT":" ","MAREA":" ","LANE":" ","ALLEY":" ","HOUSE_NO":"２２３號","E_COORD97":169349.23000000001,"N_COORD97":2542881.8199999998,"ADDRESS":"府連路２２３號","OBJECTID":500390},"geometry":{"x":169349.23000000045,"y":2542881.8200000003}},{"attributes":{"ID":500418,"DIS_CODE":0,"TOWNNAME":"東區","LI":"大同里","LIN":"15鄰","STREET":"府連路","SECT":" ","MAREA":" ","LANE":" ","ALLEY":" ","HOUSE_NO":"２２５號","E_COORD97":169351.60000000001,"N_COORD97":2542883.1000000001,"ADDRESS":"府連路２２５號","OBJECTID":500391},"geometry":{"x":169351.60000000056,"y":2542883.0999999996}},{"attributes":{"ID":500419,"DIS_CODE":0,"TOWNNAME":"東區","LI":"大同里","LIN":"15鄰","STREET":"府連路","SECT":" ","MAREA":" ","LANE":" ","ALLEY":" ","HOUSE_NO":"２２７號","E_COORD97":169355.23000000001,"N_COORD97":2542883.7799999998,"ADDRESS":"府連路２２７號","OBJECTID":500392},"geometry":{"x":169355.23000000138,"y":2542883.7800000012}},{"attributes":{"ID":500420,"DIS_CODE":0,"TOWNNAME":"中西區","LI":"永華里","LIN":"15鄰","STREET":"友愛街","SECT":" ","MAREA":" ","LANE":" ","ALLEY":" ","HOUSE_NO":"５號","E_COORD97":168597.14000000001,"N_COORD97":2543502.6699999999,"ADDRESS":"友愛街５號","OBJECTID":500393},"geometry":{"x":168597.1400000006,"y":2543502.6699999999}},{"attributes":{"ID":500421,"DIS_CODE":0,"TOWNNAME":"中西區","LI":"永華里","LIN":"15鄰","STREET":"友愛街","SECT":" ","MAREA":" ","LANE":" ","ALLEY":" ","HOUSE_NO":"７號","E_COORD97":168593.29000000001,"N_COORD97":2543501.75,"ADDRESS":"友愛街７號","OBJECTID":500394},"geometry":{"x":168593.29000000097,"y":2543501.7500000019}},{"attributes":{"ID":500422,"DIS_CODE":0,"TOWNNAME":"中西區","LI":"永華里","LIN":"15鄰","STREET":"友愛街","SECT":" ","MAREA":" ","LANE":" ","ALLEY":" ","HOUSE_NO":"９號之１","E_COORD97":168584.75111799999,"N_COORD97":2543499.2720699999,"ADDRESS":"友愛街９號之１","OBJECTID":500395},"geometry":{"x":168584.75111800153,"y":2543499.2720710021}},{"attributes":{"ID":500423,"DIS_CODE":0,"TOWNNAME":"下營區","LI":"後街里","LIN":"15鄰","STREET":"中正北路","SECT":" ","MAREA":" ","LANE":" ","ALLEY":" ","HOUSE_NO":"１１８號","E_COORD97":174472.07000000001,"N_COORD97":2570723.1099999999,"ADDRESS":"中正北路１１８號","OBJECTID":500396},"geometry":{"x":174472.07000000123,"y":2570723.1100000013}},{"attributes":{"ID":500424,"DIS_CODE":0,"TOWNNAME":"下營區","LI":"後街里","LIN":"15鄰","STREET":"中正北路","SECT":" ","MAREA":" ","LANE":" ","ALLEY":" ","HOUSE_NO":"１２０號","E_COORD97":174471.16,"N_COORD97":2570728.1600000001,"ADDRESS":"中正北路１２０號","OBJECTID":500397},"geometry":{"x":174471.16000000108,"y":2570728.1600000001}},{"attributes":{"ID":500425,"DIS_CODE":0,"TOWNNAME":"下營區","LI":"後街里","LIN":"15鄰","STREET":"中正北路","SECT":" ","MAREA":" ","LANE":" ","ALLEY":" ","HOUSE_NO":"１２６號","E_COORD97":174467.20999999999,"N_COORD97":2570735.71,"ADDRESS":"中正北路１２６號","OBJECTID":500398},"geometry":{"x":174467.21000000183,"y":2570735.7100000009}},{"attributes":{"ID":500426,"DIS_CODE":0,"TOWNNAME":"下營區","LI":"後街里","LIN":"15鄰","STREET":"中正北路","SECT":" ","MAREA":" ","LANE":" ","ALLEY":" ","HOUSE_NO":"１２８號","E_COORD97":174465.51999999999,"N_COORD97":2570739.6899999999,"ADDRESS":"中正北路１２８號","OBJECTID":500399},"geometry":{"x":174465.51999999955,"y":2570739.6900000013}},{"attributes":{"ID":500427,"DIS_CODE":0,"TOWNNAME":"下營區","LI":"後街里","LIN":"15鄰","STREET":"中正北路","SECT":" ","MAREA":" ","LANE":" ","ALLEY":" ","HOUSE_NO":"１３０號","E_COORD97":174462.54999999999,"N_COORD97":2570743.3100000001,"ADDRESS":"中正北路１３０號","OBJECTID":500400},"geometry":{"x":174462.54999999981,"y":2570743.3100000024}}]}