{"displayFieldName":"TOWNNAME","fieldAliases":{"ID":"ID","DIS_CODE":"DIS_CODE","TOWNNAME":"TOWNNAME","LI":"LI","LIN":"LIN","STREET":"STREET","SECT":"SECT","MAREA":"MAREA","LANE":"LANE","ALLEY":"ALLEY","HOUSE_NO":"HOUSE_NO","E_COORD97":"E_COORD97","N_COORD97":"N_COORD97","ADDRESS":"ADDRESS","OBJECTID":"OBJECTID"},"geometryType":"esriGeometryPoint","spatialReference":{"wkid":102443,"latestWkid":3826},"fields":[{"name":"ID","type":"esriFieldTypeDouble","alias":"ID"},{"name":"DIS_CODE","type":"esriFieldTypeInteger","alias":"DIS_CODE"},{"name":"TOWNNAME","type":"esriFieldTypeString","alias":"TOWNNAME","length":8},{"name":"LI","type":"esriFieldTypeString","alias":"LI","length":8},{"name":"LIN","type":"esriFieldTypeString","alias":"LIN","length":12},{"name":"STREET","type":"esriFieldTypeString","alias":"STREET","length":20},{"name":"SECT","type":"esriFieldTypeString","alias":"SECT","length":8},{"name":"MAREA","type":"esriFieldTypeString","alias":"MAREA","length":12},{"name":"LANE","type":"esriFieldTypeString","alias":"LANE","length":10},{"name":"ALLEY","type":"esriFieldTypeString","alias":"ALLEY","length":10},{"name":"HOUSE_NO","type":"esriFieldTypeString","alias":"HOUSE_NO","length":20},{"name":"E_COORD97","type":"esriFieldTypeDouble","alias":"E_COORD97"},{"name":"N_COORD97","type":"esriFieldTypeDouble","alias":"N_COORD97"},{"name":"ADDRESS","type":"esriFieldTypeString","alias":"ADDRESS","length":50},{"name":"OBJECTID","type":"esriFieldTypeOID","alias":"OBJECTID"}],"features":[{"attributes":{"ID":174802,"DIS_CODE":0,"TOWNNAME":"歸仁區","LI":"歸南里","LIN":"20鄰","STREET":"民生八街","SECT":" ","MAREA":" ","LANE":"２８巷","ALLEY":"１弄","HOUSE_NO":"３０號","E_COORD97":176041.76000000001,"N_COORD97":2540391.25,"ADDRESS":"民生八街２８巷１弄３０號","OBJECTID":174801},"geometry":{"x":176041.76000000071,"y":2540391.2499999981}},{"attributes":{"ID":174803,"DIS_CODE":0,"TOWNNAME":"歸仁區","LI":"歸南里","LIN":"24鄰","STREET":"民生八街","SECT":" ","MAREA":" ","LANE":"２１巷","ALLEY":"２弄","HOUSE_NO":"１４號","E_COORD97":176089.56,"N_COORD97":2540310.25,"ADDRESS":"民生八街２１巷２弄１４號","OBJECTID":174802},"geometry":{"x":176089.55999999959,"y":2540310.2500000037}},{"attributes":{"ID":174804,"DIS_CODE":0,"TOWNNAME":"歸仁區","LI":"歸南里","LIN":"20鄰","STREET":"民生八街","SECT":" ","MAREA":" ","LANE":"２８巷","ALLEY":"１弄","HOUSE_NO":"２８號","E_COORD97":176045.85999999999,"N_COORD97":2540391.25,"ADDRESS":"民生八街２８巷１弄２８號","OBJECTID":174803},"geometry":{"x":176045.86000000034,"y":2540391.2499999981}},{"attributes":{"ID":174805,"DIS_CODE":0,"TOWNNAME":"歸仁區","LI":"辜厝里","LIN":"4鄰","STREET":"民族南街","SECT":" ","MAREA":" ","LANE":"１８巷","ALLEY":"５５弄","HOUSE_NO":"１號","E_COORD97":177294.84,"N_COORD97":2540740.5499999998,"ADDRESS":"民族南街１８巷５５弄１號","OBJECTID":174804},"geometry":{"x":177294.83999999985,"y":2540740.5500000026}},{"attributes":{"ID":174806,"DIS_CODE":0,"TOWNNAME":"歸仁區","LI":"歸南里","LIN":"20鄰","STREET":"民生八街","SECT":" ","MAREA":" ","LANE":"２８巷","ALLEY":"１弄","HOUSE_NO":"５０號","E_COORD97":176002.76000000001,"N_COORD97":2540391.25,"ADDRESS":"民生八街２８巷１弄５０號","OBJECTID":174805},"geometry":{"x":176002.76000000071,"y":2540391.2499999981}},{"attributes":{"ID":174807,"DIS_CODE":0,"TOWNNAME":"歸仁區","LI":"歸南里","LIN":"20鄰","STREET":"民生八街","SECT":" ","MAREA":" ","LANE":"２８巷","ALLEY":"１弄","HOUSE_NO":"２４號","E_COORD97":176055.06,"N_COORD97":2540391.25,"ADDRESS":"民生八街２８巷１弄２４號","OBJECTID":174806},"geometry":{"x":176055.06000000052,"y":2540391.2499999981}},{"attributes":{"ID":174808,"DIS_CODE":0,"TOWNNAME":"歸仁區","LI":"七甲里","LIN":"4鄰","STREET":"中正北路","SECT":"二段","MAREA":" ","LANE":"５１６巷","ALLEY":"５２弄","HOUSE_NO":"１４號","E_COORD97":177556.92000000001,"N_COORD97":2543187.2599999998,"ADDRESS":"中正北路二段５１６巷５２弄１４號","OBJECTID":174807},"geometry":{"x":177556.91999999993,"y":2543187.2599999998}},{"attributes":{"ID":174809,"DIS_CODE":0,"TOWNNAME":"歸仁區","LI":"歸南里","LIN":"18鄰","STREET":"民生八街","SECT":" ","MAREA":" ","LANE":"２８巷","ALLEY":"２弄","HOUSE_NO":"１４號","E_COORD97":176145.26000000001,"N_COORD97":2540374.25,"ADDRESS":"民生八街２８巷２弄１４號","OBJECTID":174808},"geometry":{"x":176145.26000000071,"y":2540374.2499999981}},{"attributes":{"ID":174810,"DIS_CODE":0,"TOWNNAME":"歸仁區","LI":"歸南里","LIN":"20鄰","STREET":"民生八街","SECT":" ","MAREA":" ","LANE":"２８巷","ALLEY":"１弄","HOUSE_NO":"２６號","E_COORD97":176049.95999999999,"N_COORD97":2540391.25,"ADDRESS":"民生八街２８巷１弄２６號","OBJECTID":174809},"geometry":{"x":176049.95999999996,"y":2540391.2499999981}},{"attributes":{"ID":174811,"DIS_CODE":0,"TOWNNAME":"歸仁區","LI":"歸南里","LIN":"24鄰","STREET":"民生八街","SECT":" ","MAREA":" ","LANE":"２１巷","ALLEY":"１弄","HOUSE_NO":"１１號","E_COORD97":176142.85999999999,"N_COORD97":2540309.25,"ADDRESS":"民生八街２１巷１弄１１號","OBJECTID":174810},"geometry":{"x":176142.86000000034,"y":2540309.25}},{"attributes":{"ID":174812,"DIS_CODE":0,"TOWNNAME":"中西區","LI":"銀同里","LIN":"10鄰","STREET":"開山路","SECT":" ","MAREA":" ","LANE":"３巷","ALLEY":" ","HOUSE_NO":"７０號","E_COORD97":168730.67999999999,"N_COORD97":2543579.3900000001,"ADDRESS":"開山路３巷７０號","OBJECTID":174811},"geometry":{"x":168730.68000000063,"y":2543579.3900000025}},{"attributes":{"ID":174813,"DIS_CODE":0,"TOWNNAME":"學甲區","LI":"明宜里","LIN":"15鄰","STREET":"重信路","SECT":" ","MAREA":" ","LANE":" ","ALLEY":" ","HOUSE_NO":"１號八樓之６","E_COORD97":166124.82999999999,"N_COORD97":2570564.8900000001,"ADDRESS":"重信路１號八樓之６","OBJECTID":174812},"geometry":{"x":166124.83000000101,"y":2570564.8900000006}},{"attributes":{"ID":174814,"DIS_CODE":0,"TOWNNAME":"學甲區","LI":"明宜里","LIN":"15鄰","STREET":"重信路","SECT":" ","MAREA":" ","LANE":" ","ALLEY":" ","HOUSE_NO":"１號八樓之７","E_COORD97":166124.82999999999,"N_COORD97":2570564.8900000001,"ADDRESS":"重信路１號八樓之７","OBJECTID":174813},"geometry":{"x":166124.83000000101,"y":2570564.8900000006}},{"attributes":{"ID":174815,"DIS_CODE":0,"TOWNNAME":"學甲區","LI":"明宜里","LIN":"15鄰","STREET":"重信路","SECT":" ","MAREA":" ","LANE":" ","ALLEY":" ","HOUSE_NO":"１號八樓之８","E_COORD97":166124.82999999999,"N_COORD97":2570564.8900000001,"ADDRESS":"重信路１號八樓之８","OBJECTID":174814},"geometry":{"x":166124.83000000101,"y":2570564.8900000006}},{"attributes":{"ID":174816,"DIS_CODE":0,"TOWNNAME":"西港區","LI":"營西里","LIN":"11鄰","STREET":" ","SECT":" ","MAREA":"後營","LANE":" ","ALLEY":" ","HOUSE_NO":"９１號","E_COORD97":169707.48000000001,"N_COORD97":2560484.6000000001,"ADDRESS":"後營９１號","OBJECTID":174815},"geometry":{"x":169707.48000000231,"y":2560484.6000000015}},{"attributes":{"ID":174817,"DIS_CODE":0,"TOWNNAME":"學甲區","LI":"明宜里","LIN":"15鄰","STREET":"重信路","SECT":" ","MAREA":" ","LANE":" ","ALLEY":" ","HOUSE_NO":"１號八樓之９","E_COORD97":166124.82999999999,"N_COORD97":2570564.8900000001,"ADDRESS":"重信路１號八樓之９","OBJECTID":174816},"geometry":{"x":166124.83000000101,"y":2570564.8900000006}},{"attributes":{"ID":174818,"DIS_CODE":0,"TOWNNAME":"南區","LI":"新昌里","LIN":"13鄰","STREET":"國華街","SECT":"一段","MAREA":" ","LANE":" ","ALLEY":" ","HOUSE_NO":"９５號之１","E_COORD97":167586.45000000001,"N_COORD97":2542810.5099999998,"ADDRESS":"國華街一段９５號之１","OBJECTID":174817},"geometry":{"x":167586.45000000019,"y":2542810.5100000016}},{"attributes":{"ID":174819,"DIS_CODE":0,"TOWNNAME":"南區","LI":"明興里","LIN":"15鄰","STREET":"德興路","SECT":" ","MAREA":" ","LANE":" ","ALLEY":" ","HOUSE_NO":"１４６號","E_COORD97":167188.59,"N_COORD97":2540401.9900000002,"ADDRESS":"德興路１４６號","OBJECTID":174818},"geometry":{"x":167188.59000000171,"y":2540401.9900000002}},{"attributes":{"ID":174820,"DIS_CODE":0,"TOWNNAME":"學甲區","LI":"明宜里","LIN":"15鄰","STREET":"重信路","SECT":" ","MAREA":" ","LANE":" ","ALLEY":" ","HOUSE_NO":"１號十一樓之１","E_COORD97":166124.82999999999,"N_COORD97":2570564.8900000001,"ADDRESS":"重信路１號十一樓之１","OBJECTID":174819},"geometry":{"x":166124.83000000101,"y":2570564.8900000006}},{"attributes":{"ID":174821,"DIS_CODE":0,"TOWNNAME":"學甲區","LI":"明宜里","LIN":"15鄰","STREET":"重信路","SECT":" ","MAREA":" ","LANE":" ","ALLEY":" ","HOUSE_NO":"１號十一樓之１０","E_COORD97":166124.82999999999,"N_COORD97":2570564.8900000001,"ADDRESS":"重信路１號十一樓之１０","OBJECTID":174820},"geometry":{"x":166124.83000000101,"y":2570564.8900000006}},{"attributes":{"ID":174822,"DIS_CODE":0,"TOWNNAME":"學甲區","LI":"明宜里","LIN":"15鄰","STREET":"重信路","SECT":" ","MAREA":" ","LANE":" ","ALLEY":" ","HOUSE_NO":"１號十一樓之２","E_COORD97":166124.82999999999,"N_COORD97":2570564.8900000001,"ADDRESS":"重信路１號十一樓之２","OBJECTID":174821},"geometry":{"x":166124.83000000101,"y":2570564.8900000006}},{"attributes":{"ID":174823,"DIS_CODE":0,"TOWNNAME":"學甲區","LI":"明宜里","LIN":"15鄰","STREET":"重信路","SECT":" ","MAREA":" ","LANE":" ","ALLEY":" ","HOUSE_NO":"１號十一樓之３","E_COORD97":166124.82999999999,"N_COORD97":2570564.8900000001,"ADDRESS":"重信路１號十一樓之３","OBJECTID":174822},"geometry":{"x":166124.83000000101,"y":2570564.8900000006}},{"attributes":{"ID":174824,"DIS_CODE":0,"TOWNNAME":"學甲區","LI":"明宜里","LIN":"15鄰","STREET":"重信路","SECT":" ","MAREA":" ","LANE":" ","ALLEY":" ","HOUSE_NO":"１號十一樓之４","E_COORD97":166124.82999999999,"N_COORD97":2570564.8900000001,"ADDRESS":"重信路１號十一樓之４","OBJECTID":174823},"geometry":{"x":166124.83000000101,"y":2570564.8900000006}},{"attributes":{"ID":174825,"DIS_CODE":0,"TOWNNAME":"下營區","LI":"甲中里","LIN":"10鄰","STREET":" ","SECT":" ","MAREA":"十六甲","LANE":" ","ALLEY":" ","HOUSE_NO":"１０號","E_COORD97":175654.72,"N_COORD97":2572292.9500000002,"ADDRESS":"十六甲１０號","OBJECTID":174824},"geometry":{"x":175654.71999999974,"y":2572292.950000003}},{"attributes":{"ID":174826,"DIS_CODE":0,"TOWNNAME":"下營區","LI":"甲中里","LIN":"10鄰","STREET":" ","SECT":" ","MAREA":"十六甲","LANE":" ","ALLEY":" ","HOUSE_NO":"１之１１號","E_COORD97":175639.75,"N_COORD97":2572141.3900000001,"ADDRESS":"十六甲１之１１號","OBJECTID":174825},"geometry":{"x":175639.75,"y":2572141.3900000006}},{"attributes":{"ID":174827,"DIS_CODE":0,"TOWNNAME":"下營區","LI":"甲中里","LIN":"10鄰","STREET":" ","SECT":" ","MAREA":"十六甲","LANE":" ","ALLEY":" ","HOUSE_NO":"１號之１","E_COORD97":175654.01999999999,"N_COORD97":2572169.5,"ADDRESS":"十六甲１號之１","OBJECTID":174826},"geometry":{"x":175654.01999999955,"y":2572169.5}},{"attributes":{"ID":174828,"DIS_CODE":0,"TOWNNAME":"下營區","LI":"甲中里","LIN":"10鄰","STREET":" ","SECT":" ","MAREA":"十六甲","LANE":" ","ALLEY":" ","HOUSE_NO":"１號之２","E_COORD97":175704.60999999999,"N_COORD97":2572143.73,"ADDRESS":"十六甲１號之２","OBJECTID":174827},"geometry":{"x":175704.61000000127,"y":2572143.7300000023}},{"attributes":{"ID":174829,"DIS_CODE":0,"TOWNNAME":"下營區","LI":"甲中里","LIN":"10鄰","STREET":" ","SECT":" ","MAREA":"十六甲","LANE":" ","ALLEY":" ","HOUSE_NO":"１號之７","E_COORD97":175608.23999999999,"N_COORD97":2572160.1600000001,"ADDRESS":"十六甲１號之７","OBJECTID":174828},"geometry":{"x":175608.24000000115,"y":2572160.1600000039}},{"attributes":{"ID":174830,"DIS_CODE":0,"TOWNNAME":"歸仁區","LI":"歸南里","LIN":"24鄰","STREET":"民生八街","SECT":" ","MAREA":" ","LANE":"２１巷","ALLEY":"２弄","HOUSE_NO":"１２號","E_COORD97":176093.66,"N_COORD97":2540310.25,"ADDRESS":"民生八街２１巷２弄１２號","OBJECTID":174829},"geometry":{"x":176093.66000000108,"y":2540310.2500000037}},{"attributes":{"ID":174831,"DIS_CODE":0,"TOWNNAME":"歸仁區","LI":"辜厝里","LIN":"4鄰","STREET":"民族南街","SECT":" ","MAREA":" ","LANE":"１８巷","ALLEY":"２７弄","HOUSE_NO":"１２號","E_COORD97":177339.09,"N_COORD97":2540714.5499999998,"ADDRESS":"民族南街１８巷２７弄１２號","OBJECTID":174830},"geometry":{"x":177339.08999999985,"y":2540714.5500000007}},{"attributes":{"ID":174832,"DIS_CODE":0,"TOWNNAME":"歸仁區","LI":"歸南里","LIN":"20鄰","STREET":"民生八街","SECT":" ","MAREA":" ","LANE":"２８巷","ALLEY":"１弄","HOUSE_NO":"４０號","E_COORD97":176021.26000000001,"N_COORD97":2540391.25,"ADDRESS":"民生八街２８巷１弄４０號","OBJECTID":174831},"geometry":{"x":176021.26000000071,"y":2540391.2499999981}},{"attributes":{"ID":174833,"DIS_CODE":0,"TOWNNAME":"歸仁區","LI":"辜厝里","LIN":"4鄰","STREET":"民族南街","SECT":" ","MAREA":" ","LANE":"１８巷","ALLEY":"５５弄","HOUSE_NO":"３號","E_COORD97":177294.84,"N_COORD97":2540735.5499999998,"ADDRESS":"民族南街１８巷５５弄３號","OBJECTID":174832},"geometry":{"x":177294.83999999985,"y":2540735.5500000007}},{"attributes":{"ID":174834,"DIS_CODE":0,"TOWNNAME":"歸仁區","LI":"辜厝里","LIN":"4鄰","STREET":"民族南街","SECT":" ","MAREA":" ","LANE":"１８巷","ALLEY":"５５弄","HOUSE_NO":"２７號","E_COORD97":177297.98999999999,"N_COORD97":2540697.5499999998,"ADDRESS":"民族南街１８巷５５弄２７號","OBJECTID":174833},"geometry":{"x":177297.99000000022,"y":2540697.5500000007}},{"attributes":{"ID":174835,"DIS_CODE":0,"TOWNNAME":"永康區","LI":"二王里","LIN":"10鄰","STREET":"二王路","SECT":" ","MAREA":" ","LANE":"１５５巷","ALLEY":" ","HOUSE_NO":"２號","E_COORD97":172982.70999999999,"N_COORD97":2546503.9900000002,"ADDRESS":"二王路１５５巷２號","OBJECTID":174834},"geometry":{"x":172982.71000000089,"y":2546503.9900000021}},{"attributes":{"ID":174836,"DIS_CODE":0,"TOWNNAME":"學甲區","LI":"明宜里","LIN":"15鄰","STREET":"重信路","SECT":" ","MAREA":" ","LANE":" ","ALLEY":" ","HOUSE_NO":"１號五樓之８","E_COORD97":166124.82999999999,"N_COORD97":2570564.8900000001,"ADDRESS":"重信路１號五樓之８","OBJECTID":174835},"geometry":{"x":166124.83000000101,"y":2570564.8900000006}},{"attributes":{"ID":174837,"DIS_CODE":0,"TOWNNAME":"學甲區","LI":"明宜里","LIN":"15鄰","STREET":"重信路","SECT":" ","MAREA":" ","LANE":" ","ALLEY":" ","HOUSE_NO":"１號五樓之９","E_COORD97":166124.82999999999,"N_COORD97":2570564.8900000001,"ADDRESS":"重信路１號五樓之９","OBJECTID":174836},"geometry":{"x":166124.83000000101,"y":2570564.8900000006}},{"attributes":{"ID":174838,"DIS_CODE":0,"TOWNNAME":"學甲區","LI":"明宜里","LIN":"15鄰","STREET":"重信路","SECT":" ","MAREA":" ","LANE":" ","ALLEY":" ","HOUSE_NO":"１號六樓之１","E_COORD97":166124.82999999999,"N_COORD97":2570564.8900000001,"ADDRESS":"重信路１號六樓之１","OBJECTID":174837},"geometry":{"x":166124.83000000101,"y":2570564.8900000006}},{"attributes":{"ID":174839,"DIS_CODE":0,"TOWNNAME":"歸仁區","LI":"看西里","LIN":"4鄰","STREET":"仁愛南街","SECT":" ","MAREA":" ","LANE":"１０２巷","ALLEY":"９弄","HOUSE_NO":"７號","E_COORD97":178244.75,"N_COORD97":2540347.29,"ADDRESS":"仁愛南街１０２巷９弄７號","OBJECTID":174838},"geometry":{"x":178244.75,"y":2540347.290000001}},{"attributes":{"ID":174840,"DIS_CODE":0,"TOWNNAME":"下營區","LI":"大埤里","LIN":"10鄰","STREET":" ","SECT":" ","MAREA":"大埤寮","LANE":" ","ALLEY":" ","HOUSE_NO":"１０２號","E_COORD97":171871.94,"N_COORD97":2568802.3500000001,"ADDRESS":"大埤寮１０２號","OBJECTID":174839},"geometry":{"x":171871.94000000041,"y":2568802.3500000015}},{"attributes":{"ID":174841,"DIS_CODE":0,"TOWNNAME":"歸仁區","LI":"崙頂里","LIN":"13鄰","STREET":"成功路","SECT":"二段","MAREA":" ","LANE":"１６８巷","ALLEY":"１９弄","HOUSE_NO":"２號","E_COORD97":177926.98999999999,"N_COORD97":2539782.25,"ADDRESS":"成功路二段１６８巷１９弄２號","OBJECTID":174840},"geometry":{"x":177926.99000000209,"y":2539782.2500000019}},{"attributes":{"ID":174842,"DIS_CODE":0,"TOWNNAME":"歸仁區","LI":"南保里","LIN":"46鄰","STREET":"民權十街","SECT":" ","MAREA":" ","LANE":"６３巷","ALLEY":"１７弄","HOUSE_NO":"８號","E_COORD97":176785.60999999999,"N_COORD97":2540659.2999999998,"ADDRESS":"民權十街６３巷１７弄８號","OBJECTID":174841},"geometry":{"x":176785.6100000022,"y":2540659.3000000007}},{"attributes":{"ID":174843,"DIS_CODE":0,"TOWNNAME":"永康區","LI":"西灣里","LIN":"40鄰","STREET":"大勇路","SECT":" ","MAREA":" ","LANE":"５巷","ALLEY":" ","HOUSE_NO":"１號","E_COORD97":174166.76000000001,"N_COORD97":2545342.6600000001,"ADDRESS":"大勇路５巷１號","OBJECTID":174842},"geometry":{"x":174166.76000000071,"y":2545342.660000002}},{"attributes":{"ID":174844,"DIS_CODE":0,"TOWNNAME":"南區","LI":"金華里","LIN":"15鄰","STREET":"新孝路","SECT":" ","MAREA":" ","LANE":" ","ALLEY":" ","HOUSE_NO":"９６號二樓","E_COORD97":166716.57000000001,"N_COORD97":2542081.3199999998,"ADDRESS":"新孝路９６號二樓","OBJECTID":174843},"geometry":{"x":166716.57000000123,"y":2542081.3200000022}},{"attributes":{"ID":174845,"DIS_CODE":0,"TOWNNAME":"中西區","LI":"赤嵌里","LIN":"10鄰","STREET":"成功路","SECT":" ","MAREA":" ","LANE":" ","ALLEY":" ","HOUSE_NO":"１５５號","E_COORD97":168649.85000000001,"N_COORD97":2544262.6499999999,"ADDRESS":"成功路１５５號","OBJECTID":174844},"geometry":{"x":168649.85000000056,"y":2544262.6500000004}},{"attributes":{"ID":174846,"DIS_CODE":0,"TOWNNAME":"中西區","LI":"赤嵌里","LIN":"10鄰","STREET":"成功路","SECT":" ","MAREA":" ","LANE":" ","ALLEY":" ","HOUSE_NO":"１５７號","E_COORD97":168645.22,"N_COORD97":2544262.98,"ADDRESS":"成功路１５７號","OBJECTID":174845},"geometry":{"x":168645.21999999974,"y":2544262.9800000023}},{"attributes":{"ID":174847,"DIS_CODE":0,"TOWNNAME":"歸仁區","LI":"南保里","LIN":"46鄰","STREET":"民權十街","SECT":" ","MAREA":" ","LANE":"６３巷","ALLEY":"１７弄","HOUSE_NO":"１８號","E_COORD97":176805.35999999999,"N_COORD97":2540659.2999999998,"ADDRESS":"民權十街６３巷１７弄１８號","OBJECTID":174846},"geometry":{"x":176805.36000000034,"y":2540659.3000000007}},{"attributes":{"ID":174848,"DIS_CODE":0,"TOWNNAME":"歸仁區","LI":"南保里","LIN":"59鄰","STREET":"中山路","SECT":"三段","MAREA":" ","LANE":"８１巷","ALLEY":"２３弄","HOUSE_NO":"５號","E_COORD97":176826.06,"N_COORD97":2540815.2799999998,"ADDRESS":"中山路三段８１巷２３弄５號","OBJECTID":174847},"geometry":{"x":176826.06000000052,"y":2540815.2800000012}},{"attributes":{"ID":174849,"DIS_CODE":0,"TOWNNAME":"歸仁區","LI":"大潭里","LIN":"20鄰","STREET":"長榮路","SECT":"二段","MAREA":" ","LANE":"１４５巷","ALLEY":"２５弄","HOUSE_NO":"１１號","E_COORD97":177010.67000000001,"N_COORD97":2534581.2799999998,"ADDRESS":"長榮路二段１４５巷２５弄１１號","OBJECTID":174848},"geometry":{"x":177010.67000000086,"y":2534581.2799999993}},{"attributes":{"ID":174850,"DIS_CODE":0,"TOWNNAME":"歸仁區","LI":"武東里","LIN":"4鄰","STREET":"武東二街","SECT":" ","MAREA":" ","LANE":"２６巷","ALLEY":"２３弄","HOUSE_NO":"７號","E_COORD97":175492.09,"N_COORD97":2535284.25,"ADDRESS":"武東二街２６巷２３弄７號","OBJECTID":174849},"geometry":{"x":175492.09000000078,"y":2535284.25}},{"attributes":{"ID":174851,"DIS_CODE":0,"TOWNNAME":"歸仁區","LI":"後市里","LIN":"39鄰","STREET":"文化街","SECT":"二段","MAREA":" ","LANE":"１２１巷","ALLEY":"７弄","HOUSE_NO":"２８號","E_COORD97":177243.09,"N_COORD97":2541118.7599999998,"ADDRESS":"文化街二段１２１巷７弄２８號","OBJECTID":174850},"geometry":{"x":177243.09000000078,"y":2541118.7599999998}},{"attributes":{"ID":174852,"DIS_CODE":0,"TOWNNAME":"歸仁區","LI":"歸南里","LIN":"18鄰","STREET":"民生八街","SECT":" ","MAREA":" ","LANE":"２８巷","ALLEY":"２弄","HOUSE_NO":"１８號","E_COORD97":176166.34,"N_COORD97":2540375.29,"ADDRESS":"民生八街２８巷２弄１８號","OBJECTID":174851},"geometry":{"x":176166.34000000171,"y":2540375.2899999991}},{"attributes":{"ID":174853,"DIS_CODE":0,"TOWNNAME":"歸仁區","LI":"大廟里","LIN":"4鄰","STREET":"和順路","SECT":"二段","MAREA":" ","LANE":"１５１巷","ALLEY":"３９弄","HOUSE_NO":"１４號","E_COORD97":176194.5,"N_COORD97":2543537.98,"ADDRESS":"和順路二段１５１巷３９弄１４號","OBJECTID":174852},"geometry":{"x":176194.50000000093,"y":2543537.9800000023}},{"attributes":{"ID":174854,"DIS_CODE":0,"TOWNNAME":"新營區","LI":"忠政里","LIN":"26鄰","STREET":"府西路","SECT":" ","MAREA":" ","LANE":"１３７巷","ALLEY":"１２弄","HOUSE_NO":"７號","E_COORD97":179748.70999999999,"N_COORD97":2579364.6200000001,"ADDRESS":"府西路１３７巷１２弄７號","OBJECTID":174853},"geometry":{"x":179748.70999999996,"y":2579364.620000001}},{"attributes":{"ID":174855,"DIS_CODE":0,"TOWNNAME":"安南區","LI":"安慶里","LIN":"10鄰","STREET":"長溪路","SECT":"一段","MAREA":" ","LANE":" ","ALLEY":" ","HOUSE_NO":"３２３號","E_COORD97":168728.31,"N_COORD97":2548800.0099999998,"ADDRESS":"長溪路一段３２３號","OBJECTID":174854},"geometry":{"x":168728.31000000052,"y":2548800.0099999998}},{"attributes":{"ID":174856,"DIS_CODE":0,"TOWNNAME":"安南區","LI":"安西里","LIN":"10鄰","STREET":"長溪路","SECT":"一段","MAREA":" ","LANE":" ","ALLEY":" ","HOUSE_NO":"２號","E_COORD97":169266.17000000001,"N_COORD97":2548214.6899999999,"ADDRESS":"長溪路一段２號","OBJECTID":174855},"geometry":{"x":169266.16999999993,"y":2548214.6899999995}},{"attributes":{"ID":174857,"DIS_CODE":0,"TOWNNAME":"安南區","LI":"安西里","LIN":"10鄰","STREET":"長溪路","SECT":"一段","MAREA":" ","LANE":" ","ALLEY":" ","HOUSE_NO":"３４號","E_COORD97":169240.41,"N_COORD97":2548278.6000000001,"ADDRESS":"長溪路一段３４號","OBJECTID":174856},"geometry":{"x":169240.41000000108,"y":2548278.6000000015}},{"attributes":{"ID":174858,"DIS_CODE":0,"TOWNNAME":"新營區","LI":"忠政里","LIN":"26鄰","STREET":"府西路","SECT":" ","MAREA":" ","LANE":"１３７巷","ALLEY":"１２弄","HOUSE_NO":"８號","E_COORD97":179763.07000000001,"N_COORD97":2579364.5600000001,"ADDRESS":"府西路１３７巷１２弄８號","OBJECTID":174857},"geometry":{"x":179763.07000000123,"y":2579364.5600000005}},{"attributes":{"ID":174859,"DIS_CODE":0,"TOWNNAME":"安南區","LI":"安西里","LIN":"10鄰","STREET":"長溪路","SECT":"一段","MAREA":" ","LANE":" ","ALLEY":" ","HOUSE_NO":"３６號","E_COORD97":169236.26999999999,"N_COORD97":2548286.48,"ADDRESS":"長溪路一段３６號","OBJECTID":174858},"geometry":{"x":169236.26999999955,"y":2548286.4800000042}},{"attributes":{"ID":174860,"DIS_CODE":0,"TOWNNAME":"安南區","LI":"安慶里","LIN":"10鄰","STREET":"長溪路","SECT":"一段","MAREA":" ","LANE":" ","ALLEY":" ","HOUSE_NO":"３０１號","E_COORD97":168763.48000000001,"N_COORD97":2548763.96,"ADDRESS":"長溪路一段３０１號","OBJECTID":174859},"geometry":{"x":168763.48000000138,"y":2548763.9600000009}},{"attributes":{"ID":174861,"DIS_CODE":0,"TOWNNAME":"永康區","LI":"尚頂里","LIN":"10鄰","STREET":"正南一街","SECT":" ","MAREA":" ","LANE":" ","ALLEY":" ","HOUSE_NO":"１１５號","E_COORD97":170925.35999999999,"N_COORD97":2547227,"ADDRESS":"正南一街１１５號","OBJECTID":174860},"geometry":{"x":170925.36000000127,"y":2547227}},{"attributes":{"ID":174862,"DIS_CODE":0,"TOWNNAME":"歸仁區","LI":"媽廟里","LIN":"10鄰","STREET":"中正北路","SECT":"三段","MAREA":" ","LANE":"２０５巷","ALLEY":"１２弄","HOUSE_NO":"１２號","E_COORD97":177578.74601100001,"N_COORD97":2543888.1878999998,"ADDRESS":"中正北路三段２０５巷１２弄１２號","OBJECTID":174861},"geometry":{"x":177578.74601100106,"y":2543888.1878980026}},{"attributes":{"ID":174863,"DIS_CODE":0,"TOWNNAME":"新營區","LI":"民榮里","LIN":"38鄰","STREET":"太子路","SECT":" ","MAREA":" ","LANE":"５３巷","ALLEY":"６弄","HOUSE_NO":"２３號","E_COORD97":178265.13,"N_COORD97":2577935.3700000001,"ADDRESS":"太子路５３巷６弄２３號","OBJECTID":174862},"geometry":{"x":178265.13000000082,"y":2577935.370000001}},{"attributes":{"ID":174864,"DIS_CODE":0,"TOWNNAME":"新營區","LI":"忠政里","LIN":"26鄰","STREET":"府西路","SECT":" ","MAREA":" ","LANE":"１３７巷","ALLEY":"１２弄","HOUSE_NO":"１０號","E_COORD97":179767.34,"N_COORD97":2579370.0800000001,"ADDRESS":"府西路１３７巷１２弄１０號","OBJECTID":174863},"geometry":{"x":179767.34000000078,"y":2579370.0800000019}},{"attributes":{"ID":174865,"DIS_CODE":0,"TOWNNAME":"新營區","LI":"民榮里","LIN":"32鄰","STREET":"太子路","SECT":" ","MAREA":" ","LANE":"５３巷","ALLEY":"１弄","HOUSE_NO":"３０號","E_COORD97":178255.29000000001,"N_COORD97":2578012.9399999999,"ADDRESS":"太子路５３巷１弄３０號","OBJECTID":174864},"geometry":{"x":178255.28999999911,"y":2578012.9400000013}},{"attributes":{"ID":174866,"DIS_CODE":0,"TOWNNAME":"新營區","LI":"忠政里","LIN":"26鄰","STREET":"府西路","SECT":" ","MAREA":" ","LANE":"１３７巷","ALLEY":"１２弄","HOUSE_NO":"２號","E_COORD97":179763.01000000001,"N_COORD97":2579352.3799999999,"ADDRESS":"府西路１３７巷１２弄２號","OBJECTID":174865},"geometry":{"x":179763.01000000071,"y":2579352.3800000008}},{"attributes":{"ID":174867,"DIS_CODE":0,"TOWNNAME":"新營區","LI":"民榮里","LIN":"32鄰","STREET":"太子路","SECT":" ","MAREA":" ","LANE":"５３巷","ALLEY":"１弄","HOUSE_NO":"３２號","E_COORD97":178251.19,"N_COORD97":2578010.75,"ADDRESS":"太子路５３巷１弄３２號","OBJECTID":174866},"geometry":{"x":178251.19000000041,"y":2578010.75}},{"attributes":{"ID":174868,"DIS_CODE":0,"TOWNNAME":"新營區","LI":"忠政里","LIN":"14鄰","STREET":"中正路","SECT":" ","MAREA":" ","LANE":"５９巷","ALLEY":"１９弄","HOUSE_NO":"４０號","E_COORD97":180016.25,"N_COORD97":2579646.8599999999,"ADDRESS":"中正路５９巷１９弄４０號","OBJECTID":174867},"geometry":{"x":180016.25,"y":2579646.8599999994}},{"attributes":{"ID":174869,"DIS_CODE":0,"TOWNNAME":"新營區","LI":"民榮里","LIN":"38鄰","STREET":"太子路","SECT":" ","MAREA":" ","LANE":"５３巷","ALLEY":"６弄","HOUSE_NO":"２３之６號","E_COORD97":178267.63,"N_COORD97":2577935.4199999999,"ADDRESS":"太子路５３巷６弄２３之６號","OBJECTID":174868},"geometry":{"x":178267.62999999989,"y":2577935.4200000037}},{"attributes":{"ID":174870,"DIS_CODE":0,"TOWNNAME":"新營區","LI":"新北里","LIN":"13鄰","STREET":"周武街","SECT":" ","MAREA":" ","LANE":"７９巷","ALLEY":"２２弄","HOUSE_NO":"５號","E_COORD97":179335.81,"N_COORD97":2579002.23,"ADDRESS":"周武街７９巷２２弄５號","OBJECTID":174869},"geometry":{"x":179335.80999999959,"y":2579002.2300000023}},{"attributes":{"ID":174871,"DIS_CODE":0,"TOWNNAME":"新營區","LI":"南紙里","LIN":"5鄰","STREET":"南紙街","SECT":" ","MAREA":" ","LANE":"２９巷","ALLEY":"６弄","HOUSE_NO":"２１號","E_COORD97":177899.79000000001,"N_COORD97":2577691.29,"ADDRESS":"南紙街２９巷６弄２１號","OBJECTID":174870},"geometry":{"x":177899.79000000097,"y":2577691.2900000028}},{"attributes":{"ID":174872,"DIS_CODE":0,"TOWNNAME":"新營區","LI":"新北里","LIN":"13鄰","STREET":"周武街","SECT":" ","MAREA":" ","LANE":"７９巷","ALLEY":"２１弄","HOUSE_NO":"１５號","E_COORD97":179257.22,"N_COORD97":2578995.9700000002,"ADDRESS":"周武街７９巷２１弄１５號","OBJECTID":174871},"geometry":{"x":179257.21999999974,"y":2578995.9700000007}},{"attributes":{"ID":174873,"DIS_CODE":0,"TOWNNAME":"新營區","LI":"忠政里","LIN":"14鄰","STREET":"府西路","SECT":" ","MAREA":" ","LANE":"２３０巷","ALLEY":"１１弄","HOUSE_NO":"２號","E_COORD97":179863.54000000001,"N_COORD97":2579632.0800000001,"ADDRESS":"府西路２３０巷１１弄２號","OBJECTID":174872},"geometry":{"x":179863.54000000004,"y":2579632.0800000001}},{"attributes":{"ID":174874,"DIS_CODE":0,"TOWNNAME":"新營區","LI":"新北里","LIN":"13鄰","STREET":"周武街","SECT":" ","MAREA":" ","LANE":"７９巷","ALLEY":"２１弄","HOUSE_NO":"７號","E_COORD97":179272.41,"N_COORD97":2579005.8599999999,"ADDRESS":"周武街７９巷２１弄７號","OBJECTID":174873},"geometry":{"x":179272.41000000108,"y":2579005.8599999994}},{"attributes":{"ID":174875,"DIS_CODE":0,"TOWNNAME":"新營區","LI":"忠政里","LIN":"26鄰","STREET":"府西路","SECT":" ","MAREA":" ","LANE":"１３７巷","ALLEY":"２６弄","HOUSE_NO":"１５號","E_COORD97":179711.10999999999,"N_COORD97":2579375.8799999999,"ADDRESS":"府西路１３７巷２６弄１５號","OBJECTID":174874},"geometry":{"x":179711.11000000034,"y":2579375.8800000008}},{"attributes":{"ID":174876,"DIS_CODE":0,"TOWNNAME":"新營區","LI":"新北里","LIN":"13鄰","STREET":"周武街","SECT":" ","MAREA":" ","LANE":"７９巷","ALLEY":"２２弄","HOUSE_NO":"７號","E_COORD97":179339.91,"N_COORD97":2579003.3199999998,"ADDRESS":"周武街７９巷２２弄７號","OBJECTID":174875},"geometry":{"x":179339.91000000108,"y":2579003.3200000003}},{"attributes":{"ID":174877,"DIS_CODE":0,"TOWNNAME":"新營區","LI":"新北里","LIN":"13鄰","STREET":"周武街","SECT":" ","MAREA":" ","LANE":"７９巷","ALLEY":"２１弄","HOUSE_NO":"１２號","E_COORD97":179261.51000000001,"N_COORD97":2579035.8199999998,"ADDRESS":"周武街７９巷２１弄１２號","OBJECTID":174876},"geometry":{"x":179261.50999999978,"y":2579035.8200000022}},{"attributes":{"ID":174878,"DIS_CODE":0,"TOWNNAME":"新營區","LI":"南紙里","LIN":"13鄰","STREET":"太子路","SECT":" ","MAREA":" ","LANE":"２３８巷","ALLEY":"４２弄","HOUSE_NO":"３號","E_COORD97":177783.32999999999,"N_COORD97":2577975.3599999999,"ADDRESS":"太子路２３８巷４２弄３號","OBJECTID":174877},"geometry":{"x":177783.33000000007,"y":2577975.3599999994}},{"attributes":{"ID":174879,"DIS_CODE":0,"TOWNNAME":"新營區","LI":"忠政里","LIN":" ","STREET":"府西路","SECT":" ","MAREA":" ","LANE":"３３巷","ALLEY":"２４弄","HOUSE_NO":"１號之３","E_COORD97":179714.20000000001,"N_COORD97":2578958.4100000001,"ADDRESS":"府西路３３巷２４弄１號之３","OBJECTID":174878},"geometry":{"x":179714.20000000112,"y":2578958.4100000001}},{"attributes":{"ID":174880,"DIS_CODE":0,"TOWNNAME":"新營區","LI":"新南里","LIN":"26鄰","STREET":"復興路","SECT":" ","MAREA":" ","LANE":"６２０巷","ALLEY":"６１弄","HOUSE_NO":"３５號","E_COORD97":177919.17999999999,"N_COORD97":2578519.5800000001,"ADDRESS":"復興路６２０巷６１弄３５號","OBJECTID":174879},"geometry":{"x":177919.18000000063,"y":2578519.5800000001}},{"attributes":{"ID":174881,"DIS_CODE":0,"TOWNNAME":"新營區","LI":"南紙里","LIN":"13鄰","STREET":"太子路","SECT":" ","MAREA":" ","LANE":"２３８巷","ALLEY":"４０弄","HOUSE_NO":"９號","E_COORD97":177792.37,"N_COORD97":2577967.5600000001,"ADDRESS":"太子路２３８巷４０弄９號","OBJECTID":174880},"geometry":{"x":177792.37000000104,"y":2577967.5600000005}},{"attributes":{"ID":174882,"DIS_CODE":0,"TOWNNAME":"新營區","LI":"南紙里","LIN":"13鄰","STREET":"太子路","SECT":" ","MAREA":" ","LANE":"２００巷","ALLEY":"１７弄","HOUSE_NO":"４０號","E_COORD97":177797.53,"N_COORD97":2577905.5299999998,"ADDRESS":"太子路２００巷１７弄４０號","OBJECTID":174881},"geometry":{"x":177797.53000000026,"y":2577905.5299999993}},{"attributes":{"ID":174883,"DIS_CODE":0,"TOWNNAME":"新營區","LI":"忠政里","LIN":"14鄰","STREET":"中正路","SECT":" ","MAREA":" ","LANE":"５９巷","ALLEY":"１９弄","HOUSE_NO":"５號","E_COORD97":179970.64999999999,"N_COORD97":2579580.6299999999,"ADDRESS":"中正路５９巷１９弄５號","OBJECTID":174882},"geometry":{"x":179970.6500000013,"y":2579580.6300000027}},{"attributes":{"ID":174884,"DIS_CODE":0,"TOWNNAME":"新市區","LI":"豐華里","LIN":"10鄰","STREET":" ","SECT":" ","MAREA":"豐華","LANE":" ","ALLEY":" ","HOUSE_NO":"４７之３８號","E_COORD97":174148.76999999999,"N_COORD97":2554454.2999999998,"ADDRESS":"豐華４７之３８號","OBJECTID":174883},"geometry":{"x":174148.76999999955,"y":2554454.3000000007}},{"attributes":{"ID":174885,"DIS_CODE":0,"TOWNNAME":"新市區","LI":"豐華里","LIN":"10鄰","STREET":" ","SECT":" ","MAREA":"豐華","LANE":" ","ALLEY":" ","HOUSE_NO":"４７之２６號","E_COORD97":174133.29000000001,"N_COORD97":2554505.0499999998,"ADDRESS":"豐華４７之２６號","OBJECTID":174884},"geometry":{"x":174133.29000000097,"y":2554505.0500000026}},{"attributes":{"ID":174886,"DIS_CODE":0,"TOWNNAME":"新市區","LI":"潭頂里","LIN":"10鄰","STREET":" ","SECT":" ","MAREA":"潭頂","LANE":" ","ALLEY":" ","HOUSE_NO":"３５８號","E_COORD97":180609.17000000001,"N_COORD97":2552848.25,"ADDRESS":"潭頂３５８號","OBJECTID":174885},"geometry":{"x":180609.17000000086,"y":2552848.2500000019}},{"attributes":{"ID":174887,"DIS_CODE":0,"TOWNNAME":"新市區","LI":"豐華里","LIN":"10鄰","STREET":" ","SECT":" ","MAREA":"豐華","LANE":" ","ALLEY":" ","HOUSE_NO":"４７之３６號","E_COORD97":174146.17999999999,"N_COORD97":2554446.0499999998,"ADDRESS":"豐華４７之３６號","OBJECTID":174886},"geometry":{"x":174146.1799999997,"y":2554446.0500000007}},{"attributes":{"ID":174888,"DIS_CODE":0,"TOWNNAME":"新市區","LI":"豐華里","LIN":"10鄰","STREET":" ","SECT":" ","MAREA":"豐華","LANE":" ","ALLEY":" ","HOUSE_NO":"４７之１６號","E_COORD97":174119.09,"N_COORD97":2554465.0499999998,"ADDRESS":"豐華４７之１６號","OBJECTID":174887},"geometry":{"x":174119.09000000078,"y":2554465.0500000026}},{"attributes":{"ID":174889,"DIS_CODE":0,"TOWNNAME":"新市區","LI":"豐華里","LIN":"10鄰","STREET":" ","SECT":" ","MAREA":"豐華","LANE":" ","ALLEY":" ","HOUSE_NO":"４７之１８號","E_COORD97":174121.73000000001,"N_COORD97":2554472.7999999998,"ADDRESS":"豐華４７之１８號","OBJECTID":174888},"geometry":{"x":174121.73000000231,"y":2554472.8000000026}},{"attributes":{"ID":174890,"DIS_CODE":0,"TOWNNAME":"新市區","LI":"社內里","LIN":"10鄰","STREET":" ","SECT":" ","MAREA":"社內","LANE":" ","ALLEY":" ","HOUSE_NO":"１０２之８號","E_COORD97":176257.62,"N_COORD97":2552886.7999999998,"ADDRESS":"社內１０２之８號","OBJECTID":174889},"geometry":{"x":176257.62000000011,"y":2552886.8000000026}},{"attributes":{"ID":174891,"DIS_CODE":0,"TOWNNAME":"新市區","LI":"社內里","LIN":"10鄰","STREET":" ","SECT":" ","MAREA":"社內","LANE":" ","ALLEY":" ","HOUSE_NO":"１０３之２９號","E_COORD97":176323.23000000001,"N_COORD97":2552869.7999999998,"ADDRESS":"社內１０３之２９號","OBJECTID":174890},"geometry":{"x":176323.23000000045,"y":2552869.8000000026}},{"attributes":{"ID":174892,"DIS_CODE":0,"TOWNNAME":"新市區","LI":"港墘里","LIN":"10鄰","STREET":" ","SECT":" ","MAREA":"崙頂","LANE":" ","ALLEY":" ","HOUSE_NO":"６０號","E_COORD97":178928.51000000001,"N_COORD97":2552620.25,"ADDRESS":"崙頂６０號","OBJECTID":174891},"geometry":{"x":178928.51000000071,"y":2552620.25}},{"attributes":{"ID":174893,"DIS_CODE":0,"TOWNNAME":"新市區","LI":"社內里","LIN":"10鄰","STREET":" ","SECT":" ","MAREA":"社內","LANE":" ","ALLEY":" ","HOUSE_NO":"１０５號","E_COORD97":176348.53,"N_COORD97":2552793,"ADDRESS":"社內１０５號","OBJECTID":174892},"geometry":{"x":176348.53000000212,"y":2552793.0000000019}},{"attributes":{"ID":174894,"DIS_CODE":0,"TOWNNAME":"新市區","LI":"永就里","LIN":"10鄰","STREET":" ","SECT":" ","MAREA":"永就","LANE":" ","ALLEY":" ","HOUSE_NO":"１３９之２１號","E_COORD97":177207.56,"N_COORD97":2551398.5499999998,"ADDRESS":"永就１３９之２１號","OBJECTID":174893},"geometry":{"x":177207.56000000052,"y":2551398.5499999989}},{"attributes":{"ID":174895,"DIS_CODE":0,"TOWNNAME":"新市區","LI":"港墘里","LIN":"10鄰","STREET":" ","SECT":" ","MAREA":"崙頂","LANE":" ","ALLEY":" ","HOUSE_NO":"２０之４號","E_COORD97":178941.48000000001,"N_COORD97":2552561.7999999998,"ADDRESS":"崙頂２０之４號","OBJECTID":174894},"geometry":{"x":178941.48000000138,"y":2552561.8000000007}},{"attributes":{"ID":174896,"DIS_CODE":0,"TOWNNAME":"新營區","LI":"南紙里","LIN":"13鄰","STREET":"太子路","SECT":" ","MAREA":" ","LANE":"２００巷","ALLEY":"１７弄","HOUSE_NO":"２８號","E_COORD97":177819.04000000001,"N_COORD97":2577913.1800000002,"ADDRESS":"太子路２００巷１７弄２８號","OBJECTID":174895},"geometry":{"x":177819.04000000004,"y":2577913.1800000034}},{"attributes":{"ID":174897,"DIS_CODE":0,"TOWNNAME":"新營區","LI":"南紙里","LIN":"13鄰","STREET":"太子路","SECT":" ","MAREA":" ","LANE":"２００巷","ALLEY":"１７弄","HOUSE_NO":"３６號","E_COORD97":177805.73000000001,"N_COORD97":2577908.8100000001,"ADDRESS":"太子路２００巷１７弄３６號","OBJECTID":174896},"geometry":{"x":177805.73000000138,"y":2577908.8100000005}},{"attributes":{"ID":174898,"DIS_CODE":0,"TOWNNAME":"安南區","LI":"安慶里","LIN":"10鄰","STREET":"長溪路","SECT":"一段","MAREA":" ","LANE":" ","ALLEY":" ","HOUSE_NO":"３３１號","E_COORD97":168720.14000000001,"N_COORD97":2548812.6299999999,"ADDRESS":"長溪路一段３３１號","OBJECTID":174897},"geometry":{"x":168720.13999999966,"y":2548812.6299999971}},{"attributes":{"ID":174899,"DIS_CODE":0,"TOWNNAME":"新市區","LI":"社內里","LIN":"10鄰","STREET":" ","SECT":" ","MAREA":"社內","LANE":" ","ALLEY":" ","HOUSE_NO":"１０２之１５號","E_COORD97":176273.95000000001,"N_COORD97":2552842.2999999998,"ADDRESS":"社內１０２之１５號","OBJECTID":174898},"geometry":{"x":176273.95000000019,"y":2552842.3000000026}},{"attributes":{"ID":174900,"DIS_CODE":0,"TOWNNAME":"新市區","LI":"永就里","LIN":"10鄰","STREET":" ","SECT":" ","MAREA":"永就","LANE":" ","ALLEY":" ","HOUSE_NO":"１２６號","E_COORD97":177236.45999999999,"N_COORD97":2551366.25,"ADDRESS":"永就１２６號","OBJECTID":174899},"geometry":{"x":177236.45999999996,"y":2551366.2500000037}},{"attributes":{"ID":174901,"DIS_CODE":0,"TOWNNAME":"新市區","LI":"港墘里","LIN":"10鄰","STREET":" ","SECT":" ","MAREA":"崙頂","LANE":" ","ALLEY":" ","HOUSE_NO":"２２號","E_COORD97":178920.20999999999,"N_COORD97":2552596.5,"ADDRESS":"崙頂２２號","OBJECTID":174900},"geometry":{"x":178920.20999999996,"y":2552596.5000000019}},{"attributes":{"ID":174902,"DIS_CODE":0,"TOWNNAME":"新市區","LI":"社內里","LIN":"10鄰","STREET":" ","SECT":" ","MAREA":"社內","LANE":" ","ALLEY":" ","HOUSE_NO":"１０３之２２號","E_COORD97":176339.12,"N_COORD97":2552857.0499999998,"ADDRESS":"社內１０３之２２號","OBJECTID":174901},"geometry":{"x":176339.12000000011,"y":2552857.0500000026}},{"attributes":{"ID":174903,"DIS_CODE":0,"TOWNNAME":"新市區","LI":"新市里","LIN":"10鄰","STREET":"中興街","SECT":" ","MAREA":" ","LANE":" ","ALLEY":" ","HOUSE_NO":"５０號","E_COORD97":177685.88,"N_COORD97":2553137.75,"ADDRESS":"中興街５０號","OBJECTID":174902},"geometry":{"x":177685.87999999989,"y":2553137.75}},{"attributes":{"ID":174904,"DIS_CODE":0,"TOWNNAME":"新市區","LI":"社內里","LIN":"10鄰","STREET":" ","SECT":" ","MAREA":"社內","LANE":" ","ALLEY":" ","HOUSE_NO":"１０６之２號","E_COORD97":176407.14000000001,"N_COORD97":2552771.5499999998,"ADDRESS":"社內１０６之２號","OBJECTID":174903},"geometry":{"x":176407.1400000006,"y":2552771.5500000007}},{"attributes":{"ID":174905,"DIS_CODE":0,"TOWNNAME":"七股區","LI":"玉成里","LIN":"10鄰","STREET":" ","SECT":" ","MAREA":"玉成","LANE":" ","ALLEY":" ","HOUSE_NO":"８６號之１","E_COORD97":161394.35000000001,"N_COORD97":2560446.04,"ADDRESS":"玉成８６號之１","OBJECTID":174904},"geometry":{"x":161394.35000000056,"y":2560446.0400000028}},{"attributes":{"ID":174906,"DIS_CODE":0,"TOWNNAME":"新營區","LI":"南紙里","LIN":"13鄰","STREET":"太子路","SECT":" ","MAREA":" ","LANE":"２００巷","ALLEY":"１７弄","HOUSE_NO":"２６號","E_COORD97":177824.14999999999,"N_COORD97":2577914.2599999998,"ADDRESS":"太子路２００巷１７弄２６號","OBJECTID":174905},"geometry":{"x":177824.15000000037,"y":2577914.2599999998}},{"attributes":{"ID":174907,"DIS_CODE":0,"TOWNNAME":"新市區","LI":"永就里","LIN":"10鄰","STREET":" ","SECT":" ","MAREA":"永就","LANE":" ","ALLEY":" ","HOUSE_NO":"１１１之３號","E_COORD97":177445.45000000001,"N_COORD97":2551573.2999999998,"ADDRESS":"永就１１１之３號","OBJECTID":174906},"geometry":{"x":177445.45000000019,"y":2551573.3000000045}},{"attributes":{"ID":174908,"DIS_CODE":0,"TOWNNAME":"新市區","LI":"港墘里","LIN":"10鄰","STREET":" ","SECT":" ","MAREA":"崙頂","LANE":" ","ALLEY":" ","HOUSE_NO":"２７之７號","E_COORD97":178908.07000000001,"N_COORD97":2552581.2999999998,"ADDRESS":"崙頂２７之７號","OBJECTID":174907},"geometry":{"x":178908.07000000216,"y":2552581.3000000026}},{"attributes":{"ID":174909,"DIS_CODE":0,"TOWNNAME":"新市區","LI":"永就里","LIN":"10鄰","STREET":" ","SECT":" ","MAREA":"永就","LANE":" ","ALLEY":" ","HOUSE_NO":"１１１之５號","E_COORD97":177448.51000000001,"N_COORD97":2551563.7999999998,"ADDRESS":"永就１１１之５號","OBJECTID":174908},"geometry":{"x":177448.51000000164,"y":2551563.8000000026}},{"attributes":{"ID":174910,"DIS_CODE":0,"TOWNNAME":"新市區","LI":"港墘里","LIN":"10鄰","STREET":" ","SECT":" ","MAREA":"崙頂","LANE":" ","ALLEY":" ","HOUSE_NO":"４８號","E_COORD97":178796.57000000001,"N_COORD97":2552634.5,"ADDRESS":"崙頂４８號","OBJECTID":174909},"geometry":{"x":178796.57000000123,"y":2552634.5}},{"attributes":{"ID":174911,"DIS_CODE":0,"TOWNNAME":"新市區","LI":"永就里","LIN":"10鄰","STREET":" ","SECT":" ","MAREA":"永就","LANE":" ","ALLEY":" ","HOUSE_NO":"１０８之６號","E_COORD97":177455.76000000001,"N_COORD97":2551581.7999999998,"ADDRESS":"永就１０８之６號","OBJECTID":174910},"geometry":{"x":177455.76000000071,"y":2551581.8000000026}},{"attributes":{"ID":174912,"DIS_CODE":0,"TOWNNAME":"新市區","LI":"永就里","LIN":"10鄰","STREET":" ","SECT":" ","MAREA":"永就","LANE":" ","ALLEY":" ","HOUSE_NO":"１１４之１號","E_COORD97":177454.56,"N_COORD97":2551528.5499999998,"ADDRESS":"永就１１４之１號","OBJECTID":174911},"geometry":{"x":177454.55999999866,"y":2551528.5500000026}},{"attributes":{"ID":174913,"DIS_CODE":0,"TOWNNAME":"新市區","LI":"永就里","LIN":"10鄰","STREET":" ","SECT":" ","MAREA":"永就","LANE":" ","ALLEY":" ","HOUSE_NO":"１２９號","E_COORD97":177221.37,"N_COORD97":2551360.75,"ADDRESS":"永就１２９號","OBJECTID":174912},"geometry":{"x":177221.37000000104,"y":2551360.7500000019}},{"attributes":{"ID":174914,"DIS_CODE":0,"TOWNNAME":"新市區","LI":"新市里","LIN":"10鄰","STREET":"仁愛街","SECT":" ","MAREA":" ","LANE":" ","ALLEY":" ","HOUSE_NO":"３４６號","E_COORD97":177664.25,"N_COORD97":2553149.7799999998,"ADDRESS":"仁愛街３４６號","OBJECTID":174913},"geometry":{"x":177664.25000000093,"y":2553149.7800000012}},{"attributes":{"ID":174915,"DIS_CODE":0,"TOWNNAME":"七股區","LI":"七股里","LIN":"10鄰","STREET":" ","SECT":" ","MAREA":"七股","LANE":" ","ALLEY":" ","HOUSE_NO":"８８號","E_COORD97":160755.98999999999,"N_COORD97":2559485.0899999999,"ADDRESS":"七股８８號","OBJECTID":174914},"geometry":{"x":160755.99000000022,"y":2559485.0900000017}},{"attributes":{"ID":174916,"DIS_CODE":0,"TOWNNAME":"七股區","LI":"七股里","LIN":"10鄰","STREET":" ","SECT":" ","MAREA":"七股","LANE":" ","ALLEY":" ","HOUSE_NO":"８９號","E_COORD97":160755.31,"N_COORD97":2559458.1499999999,"ADDRESS":"七股８９號","OBJECTID":174915},"geometry":{"x":160755.31000000145,"y":2559458.1500000022}},{"attributes":{"ID":174917,"DIS_CODE":0,"TOWNNAME":"新營區","LI":"新南里","LIN":"26鄰","STREET":"復興路","SECT":" ","MAREA":" ","LANE":"６２０巷","ALLEY":"６１弄","HOUSE_NO":"４１號","E_COORD97":177904.85000000001,"N_COORD97":2578519.6499999999,"ADDRESS":"復興路６２０巷６１弄４１號","OBJECTID":174916},"geometry":{"x":177904.84999999963,"y":2578519.6500000004}},{"attributes":{"ID":174918,"DIS_CODE":0,"TOWNNAME":"新營區","LI":"忠政里","LIN":"26鄰","STREET":"府西路","SECT":" ","MAREA":" ","LANE":"１３７巷","ALLEY":"２６弄","HOUSE_NO":"１９號","E_COORD97":179711.14999999999,"N_COORD97":2579384.7400000002,"ADDRESS":"府西路１３７巷２６弄１９號","OBJECTID":174917},"geometry":{"x":179711.15000000224,"y":2579384.7400000039}},{"attributes":{"ID":174919,"DIS_CODE":0,"TOWNNAME":"七股區","LI":"七股里","LIN":"10鄰","STREET":" ","SECT":" ","MAREA":"七股","LANE":" ","ALLEY":" ","HOUSE_NO":"９０號之１","E_COORD97":160745.76999999999,"N_COORD97":2559487.7999999998,"ADDRESS":"七股９０號之１","OBJECTID":174918},"geometry":{"x":160745.77000000048,"y":2559487.8000000026}},{"attributes":{"ID":174920,"DIS_CODE":0,"TOWNNAME":"七股區","LI":"七股里","LIN":"10鄰","STREET":" ","SECT":" ","MAREA":"七股","LANE":" ","ALLEY":" ","HOUSE_NO":"９０號","E_COORD97":160737.70999999999,"N_COORD97":2559458.02,"ADDRESS":"七股９０號","OBJECTID":174919},"geometry":{"x":160737.71000000183,"y":2559458.0200000014}},{"attributes":{"ID":174921,"DIS_CODE":0,"TOWNNAME":"七股區","LI":"七股里","LIN":"10鄰","STREET":" ","SECT":" ","MAREA":"七股","LANE":" ","ALLEY":" ","HOUSE_NO":"９１號","E_COORD97":160716.95000000001,"N_COORD97":2559489.8300000001,"ADDRESS":"七股９１號","OBJECTID":174920},"geometry":{"x":160716.95000000019,"y":2559489.8300000019}},{"attributes":{"ID":174922,"DIS_CODE":0,"TOWNNAME":"七股區","LI":"七股里","LIN":"10鄰","STREET":" ","SECT":" ","MAREA":"七股","LANE":" ","ALLEY":" ","HOUSE_NO":"９２號之１","E_COORD97":160701.09,"N_COORD97":2559498.2799999998,"ADDRESS":"七股９２號之１","OBJECTID":174921},"geometry":{"x":160701.09000000171,"y":2559498.2799999993}},{"attributes":{"ID":174923,"DIS_CODE":0,"TOWNNAME":"安南區","LI":"溪心里","LIN":"10鄰","STREET":"安中路","SECT":"三段","MAREA":" ","LANE":" ","ALLEY":" ","HOUSE_NO":"５２之１號","E_COORD97":166229.23000000001,"N_COORD97":2549784.52,"ADDRESS":"安中路三段５２之１號","OBJECTID":174922},"geometry":{"x":166229.23000000138,"y":2549784.5200000014}},{"attributes":{"ID":174924,"DIS_CODE":0,"TOWNNAME":"安南區","LI":"新順里","LIN":"10鄰","STREET":"政安路","SECT":" ","MAREA":" ","LANE":" ","ALLEY":" ","HOUSE_NO":"３１號","E_COORD97":169841.22,"N_COORD97":2549114.2400000002,"ADDRESS":"政安路３１號","OBJECTID":174923},"geometry":{"x":169841.22000000067,"y":2549114.2400000002}},{"attributes":{"ID":174925,"DIS_CODE":0,"TOWNNAME":"安南區","LI":"頂安里","LIN":"10鄰","STREET":"怡安路","SECT":"一段","MAREA":" ","LANE":" ","ALLEY":" ","HOUSE_NO":"４６１號","E_COORD97":168537.04000000001,"N_COORD97":2549196.2400000002,"ADDRESS":"怡安路一段４６１號","OBJECTID":174924},"geometry":{"x":168537.04000000097,"y":2549196.2400000002}},{"attributes":{"ID":174926,"DIS_CODE":0,"TOWNNAME":"新營區","LI":"忠政里","LIN":"14鄰","STREET":"中正路","SECT":" ","MAREA":" ","LANE":"５９巷","ALLEY":"１９弄","HOUSE_NO":"１５號","E_COORD97":179956.79999999999,"N_COORD97":2579636.0699999998,"ADDRESS":"中正路５９巷１９弄１５號","OBJECTID":174925},"geometry":{"x":179956.79999999981,"y":2579636.0700000003}},{"attributes":{"ID":174927,"DIS_CODE":0,"TOWNNAME":"新營區","LI":"新東里","LIN":"17鄰","STREET":"東興四街","SECT":" ","MAREA":" ","LANE":"３２巷","ALLEY":"３１弄","HOUSE_NO":"１７號","E_COORD97":180953.54000000001,"N_COORD97":2579097.6000000001,"ADDRESS":"東興四街３２巷３１弄１７號","OBJECTID":174926},"geometry":{"x":180953.54000000004,"y":2579097.6000000015}},{"attributes":{"ID":174928,"DIS_CODE":0,"TOWNNAME":"新營區","LI":"新北里","LIN":"18鄰","STREET":"金華路","SECT":"二段","MAREA":" ","LANE":"１巷","ALLEY":"２弄","HOUSE_NO":"１號","E_COORD97":178998.26000000001,"N_COORD97":2579003.8500000001,"ADDRESS":"金華路二段１巷２弄１號","OBJECTID":174927},"geometry":{"x":178998.26000000071,"y":2579003.8500000015}},{"attributes":{"ID":174929,"DIS_CODE":0,"TOWNNAME":"新營區","LI":"新南里","LIN":"26鄰","STREET":"復興路","SECT":" ","MAREA":" ","LANE":"６２０巷","ALLEY":"６１弄","HOUSE_NO":"３９號","E_COORD97":177908.95000000001,"N_COORD97":2578519.6299999999,"ADDRESS":"復興路６２０巷６１弄３９號","OBJECTID":174928},"geometry":{"x":177908.95000000112,"y":2578519.6300000027}},{"attributes":{"ID":174930,"DIS_CODE":0,"TOWNNAME":"新營區","LI":"南紙里","LIN":"13鄰","STREET":"太子路","SECT":" ","MAREA":" ","LANE":"２００巷","ALLEY":"１７弄","HOUSE_NO":"１０號","E_COORD97":177846.62,"N_COORD97":2577921.8999999999,"ADDRESS":"太子路２００巷１７弄１０號","OBJECTID":174929},"geometry":{"x":177846.62000000104,"y":2577921.9000000004}},{"attributes":{"ID":174931,"DIS_CODE":0,"TOWNNAME":"安南區","LI":"頂安里","LIN":"10鄰","STREET":"怡安路","SECT":"一段","MAREA":" ","LANE":" ","ALLEY":" ","HOUSE_NO":"４６３號","E_COORD97":168532.45000000001,"N_COORD97":2549197.0099999998,"ADDRESS":"怡安路一段４６３號","OBJECTID":174930},"geometry":{"x":168532.44999999925,"y":2549197.0099999998}},{"attributes":{"ID":174932,"DIS_CODE":0,"TOWNNAME":"七股區","LI":"七股里","LIN":"10鄰","STREET":" ","SECT":" ","MAREA":"七股","LANE":" ","ALLEY":" ","HOUSE_NO":"９２號","E_COORD97":160704.35999999999,"N_COORD97":2559473.6299999999,"ADDRESS":"七股９２號","OBJECTID":174931},"geometry":{"x":160704.36000000034,"y":2559473.6300000008}},{"attributes":{"ID":174933,"DIS_CODE":0,"TOWNNAME":"七股區","LI":"七股里","LIN":"10鄰","STREET":" ","SECT":" ","MAREA":"七股","LANE":" ","ALLEY":" ","HOUSE_NO":"９４號","E_COORD97":160664.5,"N_COORD97":2559498.3799999999,"ADDRESS":"七股９４號","OBJECTID":174932},"geometry":{"x":160664.49999999907,"y":2559498.3800000008}},{"attributes":{"ID":174934,"DIS_CODE":0,"TOWNNAME":"七股區","LI":"十份里","LIN":"10鄰","STREET":" ","SECT":" ","MAREA":"十份","LANE":" ","ALLEY":" ","HOUSE_NO":"１０３號之１","E_COORD97":155988.10999999999,"N_COORD97":2554618.8199999998,"ADDRESS":"十份１０３號之１","OBJECTID":174933},"geometry":{"x":155988.11000000034,"y":2554618.8200000022}},{"attributes":{"ID":174935,"DIS_CODE":0,"TOWNNAME":"七股區","LI":"十份里","LIN":"10鄰","STREET":" ","SECT":" ","MAREA":"十份","LANE":" ","ALLEY":" ","HOUSE_NO":"１０３號","E_COORD97":156251.34,"N_COORD97":2554552.1800000002,"ADDRESS":"十份１０３號","OBJECTID":174934},"geometry":{"x":156251.34000000171,"y":2554552.1799999997}},{"attributes":{"ID":174936,"DIS_CODE":0,"TOWNNAME":"七股區","LI":"十份里","LIN":"10鄰","STREET":" ","SECT":" ","MAREA":"十份","LANE":" ","ALLEY":" ","HOUSE_NO":"１０４號之２","E_COORD97":156497.10999999999,"N_COORD97":2555567.25,"ADDRESS":"十份１０４號之２","OBJECTID":174935},"geometry":{"x":156497.11000000034,"y":2555567.2500000019}},{"attributes":{"ID":174937,"DIS_CODE":0,"TOWNNAME":"七股區","LI":"三股里","LIN":"10鄰","STREET":" ","SECT":" ","MAREA":"三股","LANE":" ","ALLEY":" ","HOUSE_NO":"１０８號之３","E_COORD97":158329.72,"N_COORD97":2556096.8900000001,"ADDRESS":"三股１０８號之３","OBJECTID":174936},"geometry":{"x":158329.71999999974,"y":2556096.8900000025}},{"attributes":{"ID":174938,"DIS_CODE":0,"TOWNNAME":"新營區","LI":"南紙里","LIN":"13鄰","STREET":"太子路","SECT":" ","MAREA":" ","LANE":"２００巷","ALLEY":"１７弄","HOUSE_NO":"１６號","E_COORD97":177834.32000000001,"N_COORD97":2577915.3199999998,"ADDRESS":"太子路２００巷１７弄１６號","OBJECTID":174937},"geometry":{"x":177834.3200000003,"y":2577915.3200000003}},{"attributes":{"ID":174939,"DIS_CODE":0,"TOWNNAME":"新營區","LI":"忠政里","LIN":"26鄰","STREET":"府西路","SECT":" ","MAREA":" ","LANE":"１３７巷","ALLEY":"２６弄","HOUSE_NO":"１０號","E_COORD97":179721.28,"N_COORD97":2579361.4399999999,"ADDRESS":"府西路１３７巷２６弄１０號","OBJECTID":174938},"geometry":{"x":179721.28000000026,"y":2579361.4399999995}},{"attributes":{"ID":174940,"DIS_CODE":0,"TOWNNAME":"新營區","LI":"忠政里","LIN":"26鄰","STREET":"府西路","SECT":" ","MAREA":" ","LANE":"１３７巷","ALLEY":"２６弄","HOUSE_NO":"１６號","E_COORD97":179721.32999999999,"N_COORD97":2579374.73,"ADDRESS":"府西路１３７巷２６弄１６號","OBJECTID":174939},"geometry":{"x":179721.33000000007,"y":2579374.7300000042}},{"attributes":{"ID":174941,"DIS_CODE":0,"TOWNNAME":"新營區","LI":"忠政里","LIN":"26鄰","STREET":"府西路","SECT":" ","MAREA":" ","LANE":"１３７巷","ALLEY":"１２弄","HOUSE_NO":"６號","E_COORD97":179762.98999999999,"N_COORD97":2579361.23,"ADDRESS":"府西路１３７巷１２弄６號","OBJECTID":174940},"geometry":{"x":179762.99000000209,"y":2579361.2300000042}},{"attributes":{"ID":174942,"DIS_CODE":0,"TOWNNAME":"新營區","LI":"南紙里","LIN":"13鄰","STREET":"太子路","SECT":" ","MAREA":" ","LANE":"２００巷","ALLEY":"１７弄","HOUSE_NO":"３０號","E_COORD97":177815.98000000001,"N_COORD97":2577912.0800000001,"ADDRESS":"太子路２００巷１７弄３０號","OBJECTID":174941},"geometry":{"x":177815.98000000138,"y":2577912.0800000019}},{"attributes":{"ID":174943,"DIS_CODE":0,"TOWNNAME":"新營區","LI":"南紙里","LIN":"13鄰","STREET":"太子路","SECT":" ","MAREA":" ","LANE":"２００巷","ALLEY":"１７弄","HOUSE_NO":"２４號","E_COORD97":177816.01999999999,"N_COORD97":2577925.3700000001,"ADDRESS":"太子路２００巷１７弄２４號","OBJECTID":174942},"geometry":{"x":177816.02000000142,"y":2577925.370000001}},{"attributes":{"ID":174944,"DIS_CODE":0,"TOWNNAME":"佳里區","LI":"鎮山里","LIN":"10鄰","STREET":"仁愛路","SECT":" ","MAREA":" ","LANE":"２７２巷","ALLEY":" ","HOUSE_NO":"２３號","E_COORD97":166144.76999999999,"N_COORD97":2561536.3399999999,"ADDRESS":"仁愛路２７２巷２３號","OBJECTID":174943},"geometry":{"x":166144.77000000048,"y":2561536.339999998}},{"attributes":{"ID":174945,"DIS_CODE":0,"TOWNNAME":"七股區","LI":"三股里","LIN":"10鄰","STREET":" ","SECT":" ","MAREA":"三股","LANE":" ","ALLEY":" ","HOUSE_NO":"１０８號之４","E_COORD97":158466.85999999999,"N_COORD97":2556090.1499999999,"ADDRESS":"三股１０８號之４","OBJECTID":174944},"geometry":{"x":158466.86000000034,"y":2556090.1500000041}},{"attributes":{"ID":174946,"DIS_CODE":0,"TOWNNAME":"南區","LI":"金華里","LIN":"15鄰","STREET":"新孝路","SECT":" ","MAREA":" ","LANE":" ","ALLEY":" ","HOUSE_NO":"９６號三樓","E_COORD97":166716.57000000001,"N_COORD97":2542081.3199999998,"ADDRESS":"新孝路９６號三樓","OBJECTID":174945},"geometry":{"x":166716.57000000123,"y":2542081.3200000022}},{"attributes":{"ID":174947,"DIS_CODE":0,"TOWNNAME":"南區","LI":"金華里","LIN":"15鄰","STREET":"新孝路","SECT":" ","MAREA":" ","LANE":" ","ALLEY":" ","HOUSE_NO":"９６號四樓","E_COORD97":166716.57000000001,"N_COORD97":2542081.3199999998,"ADDRESS":"新孝路９６號四樓","OBJECTID":174946},"geometry":{"x":166716.57000000123,"y":2542081.3200000022}},{"attributes":{"ID":174948,"DIS_CODE":0,"TOWNNAME":"七股區","LI":"三股里","LIN":"10鄰","STREET":" ","SECT":" ","MAREA":"三股","LANE":" ","ALLEY":" ","HOUSE_NO":"１０８號之５","E_COORD97":158180.23000000001,"N_COORD97":2556058.9500000002,"ADDRESS":"三股１０８號之５","OBJECTID":174947},"geometry":{"x":158180.23000000138,"y":2556058.9499999993}},{"attributes":{"ID":174949,"DIS_CODE":0,"TOWNNAME":"新營區","LI":"南紙里","LIN":"13鄰","STREET":"太子路","SECT":" ","MAREA":" ","LANE":"２００巷","ALLEY":"１７弄","HOUSE_NO":"４號","E_COORD97":177857.75,"N_COORD97":2577926.27,"ADDRESS":"太子路２００巷１７弄４號","OBJECTID":174948},"geometry":{"x":177857.75000000093,"y":2577926.2700000014}},{"attributes":{"ID":174950,"DIS_CODE":0,"TOWNNAME":"佳里區","LI":"六安里","LIN":"10鄰","STREET":" ","SECT":" ","MAREA":"六安","LANE":" ","ALLEY":" ","HOUSE_NO":"７１號之１０","E_COORD97":165938.20999999999,"N_COORD97":2563101.4100000001,"ADDRESS":"六安７１號之１０","OBJECTID":174949},"geometry":{"x":165938.20999999996,"y":2563101.4100000001}},{"attributes":{"ID":174951,"DIS_CODE":0,"TOWNNAME":"佳里區","LI":"六安里","LIN":"10鄰","STREET":" ","SECT":" ","MAREA":"六安","LANE":" ","ALLEY":" ","HOUSE_NO":"７１號之１１","E_COORD97":165944.39999999999,"N_COORD97":2563101.6899999999,"ADDRESS":"六安７１號之１１","OBJECTID":174950},"geometry":{"x":165944.39999999944,"y":2563101.6900000013}},{"attributes":{"ID":174952,"DIS_CODE":0,"TOWNNAME":"佳里區","LI":"六安里","LIN":"10鄰","STREET":" ","SECT":" ","MAREA":"六安","LANE":" ","ALLEY":" ","HOUSE_NO":"７１號之１２","E_COORD97":165949.37,"N_COORD97":2563101.9399999999,"ADDRESS":"六安７１號之１２","OBJECTID":174951},"geometry":{"x":165949.37000000011,"y":2563101.9400000032}},{"attributes":{"ID":174953,"DIS_CODE":0,"TOWNNAME":"佳里區","LI":"六安里","LIN":"10鄰","STREET":" ","SECT":" ","MAREA":"六安","LANE":" ","ALLEY":" ","HOUSE_NO":"７１號之１３","E_COORD97":165954.12,"N_COORD97":2563101.9300000002,"ADDRESS":"六安７１號之１３","OBJECTID":174952},"geometry":{"x":165954.12000000011,"y":2563101.9299999978}},{"attributes":{"ID":174954,"DIS_CODE":0,"TOWNNAME":"佳里區","LI":"六安里","LIN":"10鄰","STREET":" ","SECT":" ","MAREA":"六安","LANE":" ","ALLEY":" ","HOUSE_NO":"７１號之１４","E_COORD97":165958.12,"N_COORD97":2563102.0699999998,"ADDRESS":"六安７１號之１４","OBJECTID":174953},"geometry":{"x":165958.12000000197,"y":2563102.0700000022}},{"attributes":{"ID":174955,"DIS_CODE":0,"TOWNNAME":"佳里區","LI":"六安里","LIN":"10鄰","STREET":" ","SECT":" ","MAREA":"六安","LANE":" ","ALLEY":" ","HOUSE_NO":"７１號之１５","E_COORD97":165961.92999999999,"N_COORD97":2563102.3199999998,"ADDRESS":"六安７１號之１５","OBJECTID":174954},"geometry":{"x":165961.9299999997,"y":2563102.3200000003}},{"attributes":{"ID":174956,"DIS_CODE":0,"TOWNNAME":"新營區","LI":"新南里","LIN":"17鄰","STREET":"隋唐街","SECT":" ","MAREA":" ","LANE":"３１巷","ALLEY":"６弄","HOUSE_NO":"６號","E_COORD97":178677.59,"N_COORD97":2578468.27,"ADDRESS":"隋唐街３１巷６弄６號","OBJECTID":174955},"geometry":{"x":178677.59000000078,"y":2578468.2700000033}},{"attributes":{"ID":174957,"DIS_CODE":0,"TOWNNAME":"新營區","LI":"民生里","LIN":"14鄰","STREET":"民治路","SECT":" ","MAREA":" ","LANE":"２２５巷","ALLEY":"５６弄","HOUSE_NO":"１４號","E_COORD97":178848.78,"N_COORD97":2578288.04,"ADDRESS":"民治路２２５巷５６弄１４號","OBJECTID":174956},"geometry":{"x":178848.78000000026,"y":2578288.0399999991}},{"attributes":{"ID":174958,"DIS_CODE":0,"TOWNNAME":"永康區","LI":"西灣里","LIN":"15鄰","STREET":"大安街","SECT":" ","MAREA":" ","LANE":"１０７巷","ALLEY":" ","HOUSE_NO":"５０號","E_COORD97":174441.04000000001,"N_COORD97":2545117.7400000002,"ADDRESS":"大安街１０７巷５０號","OBJECTID":174957},"geometry":{"x":174441.04000000004,"y":2545117.7399999984}},{"attributes":{"ID":174959,"DIS_CODE":0,"TOWNNAME":"南區","LI":"金華里","LIN":"15鄰","STREET":"新孝路","SECT":" ","MAREA":" ","LANE":" ","ALLEY":" ","HOUSE_NO":"９８號二樓","E_COORD97":166705.38,"N_COORD97":2542081.9700000002,"ADDRESS":"新孝路９８號二樓","OBJECTID":174958},"geometry":{"x":166705.38000000175,"y":2542081.9700000007}},{"attributes":{"ID":174960,"DIS_CODE":0,"TOWNNAME":"南區","LI":"金華里","LIN":"15鄰","STREET":"新孝路","SECT":" ","MAREA":" ","LANE":" ","ALLEY":" ","HOUSE_NO":"９８號三樓","E_COORD97":166705.38,"N_COORD97":2542081.9700000002,"ADDRESS":"新孝路９８號三樓","OBJECTID":174959},"geometry":{"x":166705.38000000175,"y":2542081.9700000007}},{"attributes":{"ID":174961,"DIS_CODE":0,"TOWNNAME":"佳里區","LI":"六安里","LIN":"10鄰","STREET":" ","SECT":" ","MAREA":"六安","LANE":" ","ALLEY":" ","HOUSE_NO":"７１號之４","E_COORD97":165949.66,"N_COORD97":2563078.52,"ADDRESS":"六安７１號之４","OBJECTID":174960},"geometry":{"x":165949.66000000108,"y":2563078.5200000014}},{"attributes":{"ID":174962,"DIS_CODE":0,"TOWNNAME":"佳里區","LI":"六安里","LIN":"10鄰","STREET":" ","SECT":" ","MAREA":"六安","LANE":" ","ALLEY":" ","HOUSE_NO":"７１號之５","E_COORD97":165954.10999999999,"N_COORD97":2563078.6499999999,"ADDRESS":"六安７１號之５","OBJECTID":174961},"geometry":{"x":165954.11000000034,"y":2563078.6500000022}},{"attributes":{"ID":174963,"DIS_CODE":0,"TOWNNAME":"東區","LI":"復興里","LIN":"10鄰","STREET":"裕文路","SECT":" ","MAREA":" ","LANE":" ","ALLEY":" ","HOUSE_NO":"１０號","E_COORD97":171829.26000000001,"N_COORD97":2542587.3500000001,"ADDRESS":"裕文路１０號","OBJECTID":174962},"geometry":{"x":171829.26000000071,"y":2542587.3500000034}},{"attributes":{"ID":174964,"DIS_CODE":0,"TOWNNAME":"東區","LI":"復興里","LIN":"10鄰","STREET":"裕文路","SECT":" ","MAREA":" ","LANE":" ","ALLEY":" ","HOUSE_NO":"１２號","E_COORD97":171832.85000000001,"N_COORD97":2542590.5299999998,"ADDRESS":"裕文路１２號","OBJECTID":174963},"geometry":{"x":171832.84999999963,"y":2542590.5300000012}},{"attributes":{"ID":174965,"DIS_CODE":0,"TOWNNAME":"新營區","LI":"民榮里","LIN":"39鄰","STREET":"太子路","SECT":" ","MAREA":" ","LANE":"５３巷","ALLEY":"７弄","HOUSE_NO":"２之３號","E_COORD97":178351.29999999999,"N_COORD97":2577940.5499999998,"ADDRESS":"太子路５３巷７弄２之３號","OBJECTID":174964},"geometry":{"x":178351.29999999981,"y":2577940.5500000007}},{"attributes":{"ID":174966,"DIS_CODE":0,"TOWNNAME":"新營區","LI":"民榮里","LIN":"39鄰","STREET":"太子路","SECT":" ","MAREA":" ","LANE":"５３巷","ALLEY":"７弄","HOUSE_NO":"２５號","E_COORD97":178304.84,"N_COORD97":2577897.5299999998,"ADDRESS":"太子路５３巷７弄２５號","OBJECTID":174965},"geometry":{"x":178304.84000000078,"y":2577897.5300000012}},{"attributes":{"ID":174967,"DIS_CODE":0,"TOWNNAME":"歸仁區","LI":"七甲里","LIN":"18鄰","STREET":"南潭三街","SECT":" ","MAREA":" ","LANE":"１６２巷","ALLEY":"７弄","HOUSE_NO":"３號","E_COORD97":176453.48000000001,"N_COORD97":2543152.0299999998,"ADDRESS":"南潭三街１６２巷７弄３號","OBJECTID":174966},"geometry":{"x":176453.48000000045,"y":2543152.0300000031}},{"attributes":{"ID":174968,"DIS_CODE":0,"TOWNNAME":"歸仁區","LI":"大廟里","LIN":"20鄰","STREET":"大廟一街","SECT":" ","MAREA":" ","LANE":"２８巷","ALLEY":"２１弄","HOUSE_NO":"１２號","E_COORD97":175749.79000000001,"N_COORD97":2544134.1200000001,"ADDRESS":"大廟一街２８巷２１弄１２號","OBJECTID":174967},"geometry":{"x":175749.78999999911,"y":2544134.1200000029}},{"attributes":{"ID":174969,"DIS_CODE":0,"TOWNNAME":"歸仁區","LI":"六甲里","LIN":"41鄰","STREET":"民生十二街","SECT":" ","MAREA":" ","LANE":"２７巷","ALLEY":"１０弄","HOUSE_NO":"７號","E_COORD97":176018.60999999999,"N_COORD97":2539383.77,"ADDRESS":"民生十二街２７巷１０弄７號","OBJECTID":174968},"geometry":{"x":176018.61000000034,"y":2539383.7700000033}},{"attributes":{"ID":174970,"DIS_CODE":0,"TOWNNAME":"歸仁區","LI":"大廟里","LIN":"4鄰","STREET":"和順路","SECT":"二段","MAREA":" ","LANE":"１５１巷","ALLEY":"３９弄","HOUSE_NO":"３１號","E_COORD97":176214,"N_COORD97":2543548.98,"ADDRESS":"和順路二段１５１巷３９弄３１號","OBJECTID":174969},"geometry":{"x":176214,"y":2543548.9800000004}},{"attributes":{"ID":174971,"DIS_CODE":0,"TOWNNAME":"歸仁區","LI":"七甲里","LIN":"18鄰","STREET":"南潭三街","SECT":" ","MAREA":" ","LANE":"１６２巷","ALLEY":"７弄","HOUSE_NO":"１４號","E_COORD97":176474.23000000001,"N_COORD97":2543143.0299999998,"ADDRESS":"南潭三街１６２巷７弄１４號","OBJECTID":174970},"geometry":{"x":176474.23000000045,"y":2543143.0300000012}},{"attributes":{"ID":174972,"DIS_CODE":0,"TOWNNAME":"歸仁區","LI":"看西里","LIN":"20鄰","STREET":"成功路","SECT":"二段","MAREA":" ","LANE":"６５巷","ALLEY":"３９弄","HOUSE_NO":"１９號","E_COORD97":178181.97,"N_COORD97":2539847.3700000001,"ADDRESS":"成功路二段６５巷３９弄１９號","OBJECTID":174971},"geometry":{"x":178181.96999999974,"y":2539847.3700000029}},{"attributes":{"ID":174973,"DIS_CODE":0,"TOWNNAME":"歸仁區","LI":"大廟里","LIN":"20鄰","STREET":"大廟一街","SECT":" ","MAREA":" ","LANE":"２８巷","ALLEY":"２１弄","HOUSE_NO":"２８號","E_COORD97":175726.09,"N_COORD97":2544102.1200000001,"ADDRESS":"大廟一街２８巷２１弄２８號","OBJECTID":174972},"geometry":{"x":175726.09000000078,"y":2544102.120000001}},{"attributes":{"ID":174974,"DIS_CODE":0,"TOWNNAME":"歸仁區","LI":"歸南里","LIN":"18鄰","STREET":"民生八街","SECT":" ","MAREA":" ","LANE":"２８巷","ALLEY":"２弄","HOUSE_NO":"２０號","E_COORD97":176170.44,"N_COORD97":2540375.29,"ADDRESS":"民生八街２８巷２弄２０號","OBJECTID":174973},"geometry":{"x":176170.44000000134,"y":2540375.2899999991}},{"attributes":{"ID":174975,"DIS_CODE":0,"TOWNNAME":"歸仁區","LI":"看東里","LIN":"7鄰","STREET":"成功路","SECT":"一段","MAREA":" ","LANE":"１５５巷","ALLEY":"１６弄","HOUSE_NO":"１９號","E_COORD97":178587.362543,"N_COORD97":2540127.0280200001,"ADDRESS":"成功路一段１５５巷１６弄１９號","OBJECTID":174974},"geometry":{"x":178587.36254300084,"y":2540127.0280230027}},{"attributes":{"ID":174976,"DIS_CODE":0,"TOWNNAME":"歸仁區","LI":"七甲里","LIN":"18鄰","STREET":"南潭三街","SECT":" ","MAREA":" ","LANE":"１６２巷","ALLEY":"１１弄","HOUSE_NO":"１５號","E_COORD97":176480.48000000001,"N_COORD97":2543121.0299999998,"ADDRESS":"南潭三街１６２巷１１弄１５號","OBJECTID":174975},"geometry":{"x":176480.48000000138,"y":2543121.0299999993}},{"attributes":{"ID":174977,"DIS_CODE":0,"TOWNNAME":"歸仁區","LI":"六甲里","LIN":"41鄰","STREET":"民生十二街","SECT":" ","MAREA":" ","LANE":"２７巷","ALLEY":"１０弄","HOUSE_NO":"１號","E_COORD97":176032.91,"N_COORD97":2539381.77,"ADDRESS":"民生十二街２７巷１０弄１號","OBJECTID":174976},"geometry":{"x":176032.91000000108,"y":2539381.7700000014}},{"attributes":{"ID":174978,"DIS_CODE":0,"TOWNNAME":"歸仁區","LI":"大廟里","LIN":"4鄰","STREET":"和順路","SECT":"二段","MAREA":" ","LANE":"１５１巷","ALLEY":"３９弄","HOUSE_NO":"２０號","E_COORD97":176206.79999999999,"N_COORD97":2543540.98,"ADDRESS":"和順路二段１５１巷３９弄２０號","OBJECTID":174977},"geometry":{"x":176206.79999999981,"y":2543540.9800000023}},{"attributes":{"ID":174979,"DIS_CODE":0,"TOWNNAME":"歸仁區","LI":"大廟里","LIN":"4鄰","STREET":"和順路","SECT":"二段","MAREA":" ","LANE":"１５１巷","ALLEY":"３９弄","HOUSE_NO":"４１號","E_COORD97":176218,"N_COORD97":2543529.98,"ADDRESS":"和順路二段１５１巷３９弄４１號","OBJECTID":174978},"geometry":{"x":176218.00000000186,"y":2543529.9800000042}},{"attributes":{"ID":174980,"DIS_CODE":0,"TOWNNAME":"歸仁區","LI":"七甲里","LIN":"18鄰","STREET":"南潭三街","SECT":" ","MAREA":" ","LANE":"１６２巷","ALLEY":"１１弄","HOUSE_NO":"２１號","E_COORD97":176492.78,"N_COORD97":2543121.0299999998,"ADDRESS":"南潭三街１６２巷１１弄２１號","OBJECTID":174979},"geometry":{"x":176492.78000000212,"y":2543121.0299999993}},{"attributes":{"ID":174981,"DIS_CODE":0,"TOWNNAME":"歸仁區","LI":"六甲里","LIN":"41鄰","STREET":"民生十二街","SECT":" ","MAREA":" ","LANE":"２７巷","ALLEY":"１０弄","HOUSE_NO":"１２號","E_COORD97":176018.85999999999,"N_COORD97":2539402.77,"ADDRESS":"民生十二街２７巷１０弄１２號","OBJECTID":174980},"geometry":{"x":176018.86000000034,"y":2539402.7699999996}},{"attributes":{"ID":174982,"DIS_CODE":0,"TOWNNAME":"歸仁區","LI":"大廟里","LIN":"20鄰","STREET":"大廟一街","SECT":" ","MAREA":" ","LANE":"２８巷","ALLEY":"５５弄","HOUSE_NO":"１５號","E_COORD97":175736.59,"N_COORD97":2544162.1200000001,"ADDRESS":"大廟一街２８巷５５弄１５號","OBJECTID":174981},"geometry":{"x":175736.59000000078,"y":2544162.120000001}},{"attributes":{"ID":174983,"DIS_CODE":0,"TOWNNAME":"歸仁區","LI":"南保里","LIN":"59鄰","STREET":"中山路","SECT":"三段","MAREA":" ","LANE":"８１巷","ALLEY":"２３弄","HOUSE_NO":"７號","E_COORD97":176830.06,"N_COORD97":2540814.2799999998,"ADDRESS":"中山路三段８１巷２３弄７號","OBJECTID":174982},"geometry":{"x":176830.05999999959,"y":2540814.2800000031}},{"attributes":{"ID":174984,"DIS_CODE":0,"TOWNNAME":"佳里區","LI":"六安里","LIN":"10鄰","STREET":" ","SECT":" ","MAREA":"六安","LANE":" ","ALLEY":" ","HOUSE_NO":"７８號之２","E_COORD97":165976.12,"N_COORD97":2563206.6099999999,"ADDRESS":"六安７８號之２","OBJECTID":174983},"geometry":{"x":165976.12000000011,"y":2563206.6100000013}},{"attributes":{"ID":174985,"DIS_CODE":0,"TOWNNAME":"佳里區","LI":"六安里","LIN":"10鄰","STREET":" ","SECT":" ","MAREA":"六安","LANE":" ","ALLEY":" ","HOUSE_NO":"７９號之１１","E_COORD97":166042.26000000001,"N_COORD97":2563242.1600000001,"ADDRESS":"六安７９號之１１","OBJECTID":174984},"geometry":{"x":166042.26000000071,"y":2563242.1600000001}},{"attributes":{"ID":174986,"DIS_CODE":0,"TOWNNAME":"佳里區","LI":"六安里","LIN":"10鄰","STREET":" ","SECT":" ","MAREA":"六安","LANE":" ","ALLEY":" ","HOUSE_NO":"７９號之１２","E_COORD97":166038.16,"N_COORD97":2563242.7599999998,"ADDRESS":"六安７９號之１２","OBJECTID":174985},"geometry":{"x":166038.16000000108,"y":2563242.7600000016}},{"attributes":{"ID":174987,"DIS_CODE":0,"TOWNNAME":"東區","LI":"復興里","LIN":"10鄰","STREET":"裕文路","SECT":" ","MAREA":" ","LANE":" ","ALLEY":" ","HOUSE_NO":"３６號","E_COORD97":171885.91,"N_COORD97":2542582.46,"ADDRESS":"裕文路３６號","OBJECTID":174986},"geometry":{"x":171885.91000000201,"y":2542582.4600000028}},{"attributes":{"ID":174988,"DIS_CODE":0,"TOWNNAME":"關廟區","LI":"東勢里","LIN":"7鄰","STREET":"和平路","SECT":" ","MAREA":" ","LANE":"２２巷","ALLEY":"１６弄","HOUSE_NO":"５號","E_COORD97":181801.44,"N_COORD97":2539352.25,"ADDRESS":"和平路２２巷１６弄５號","OBJECTID":174987},"geometry":{"x":181801.44000000134,"y":2539352.2500000019}},{"attributes":{"ID":174989,"DIS_CODE":0,"TOWNNAME":"佳里區","LI":"六安里","LIN":"10鄰","STREET":" ","SECT":" ","MAREA":"六安","LANE":" ","ALLEY":" ","HOUSE_NO":"７９號之１３","E_COORD97":166034.78,"N_COORD97":2563242.79,"ADDRESS":"六安７９號之１３","OBJECTID":174988},"geometry":{"x":166034.78000000026,"y":2563242.790000001}},{"attributes":{"ID":174990,"DIS_CODE":0,"TOWNNAME":"佳里區","LI":"六安里","LIN":"10鄰","STREET":" ","SECT":" ","MAREA":"六安","LANE":" ","ALLEY":" ","HOUSE_NO":"７９號之１４","E_COORD97":166031.01999999999,"N_COORD97":2563242.7200000002,"ADDRESS":"六安７９號之１４","OBJECTID":174989},"geometry":{"x":166031.02000000142,"y":2563242.7200000007}},{"attributes":{"ID":174991,"DIS_CODE":0,"TOWNNAME":"佳里區","LI":"六安里","LIN":"10鄰","STREET":" ","SECT":" ","MAREA":"六安","LANE":" ","ALLEY":" ","HOUSE_NO":"７９號之１５","E_COORD97":166026.25,"N_COORD97":2563241.8900000001,"ADDRESS":"六安７９號之１５","OBJECTID":174990},"geometry":{"x":166026.25,"y":2563241.8900000006}},{"attributes":{"ID":174992,"DIS_CODE":0,"TOWNNAME":"佳里區","LI":"六安里","LIN":"10鄰","STREET":" ","SECT":" ","MAREA":"六安","LANE":" ","ALLEY":" ","HOUSE_NO":"８６號之１","E_COORD97":165989.42999999999,"N_COORD97":2563230.9399999999,"ADDRESS":"六安８６號之１","OBJECTID":174991},"geometry":{"x":165989.43000000156,"y":2563230.9400000013}},{"attributes":{"ID":174993,"DIS_CODE":0,"TOWNNAME":"佳里區","LI":"六安里","LIN":"10鄰","STREET":" ","SECT":" ","MAREA":"六安","LANE":" ","ALLEY":" ","HOUSE_NO":"８６號之２","E_COORD97":165985.17000000001,"N_COORD97":2563230.7799999998,"ADDRESS":"六安８６號之２","OBJECTID":174992},"geometry":{"x":165985.17000000086,"y":2563230.7799999993}},{"attributes":{"ID":174994,"DIS_CODE":0,"TOWNNAME":"佳里區","LI":"六安里","LIN":"10鄰","STREET":" ","SECT":" ","MAREA":"六安","LANE":" ","ALLEY":" ","HOUSE_NO":"８６號之３","E_COORD97":165980.57000000001,"N_COORD97":2563230.48,"ADDRESS":"六安８６號之３","OBJECTID":174993},"geometry":{"x":165980.57000000216,"y":2563230.4800000004}},{"attributes":{"ID":174995,"DIS_CODE":0,"TOWNNAME":"佳里區","LI":"六安里","LIN":"10鄰","STREET":" ","SECT":" ","MAREA":"六安","LANE":" ","ALLEY":" ","HOUSE_NO":"８６號之４","E_COORD97":165976.10000000001,"N_COORD97":2563230.7400000002,"ADDRESS":"六安８６號之４","OBJECTID":174994},"geometry":{"x":165976.09999999963,"y":2563230.7400000021}},{"attributes":{"ID":174996,"DIS_CODE":0,"TOWNNAME":"佳里區","LI":"六安里","LIN":"10鄰","STREET":" ","SECT":" ","MAREA":"六安","LANE":" ","ALLEY":" ","HOUSE_NO":"８６號之５","E_COORD97":165972.66,"N_COORD97":2563230.3300000001,"ADDRESS":"六安８６號之５","OBJECTID":174995},"geometry":{"x":165972.66000000015,"y":2563230.3300000001}},{"attributes":{"ID":174997,"DIS_CODE":0,"TOWNNAME":"關廟區","LI":"五甲里","LIN":"5鄰","STREET":"五甲路","SECT":" ","MAREA":" ","LANE":"２１巷","ALLEY":"１１弄","HOUSE_NO":"２２號","E_COORD97":181336.72,"N_COORD97":2539046.25,"ADDRESS":"五甲路２１巷１１弄２２號","OBJECTID":174996},"geometry":{"x":181336.71999999974,"y":2539046.2500000019}},{"attributes":{"ID":174998,"DIS_CODE":0,"TOWNNAME":"關廟區","LI":"北花里","LIN":"20鄰","STREET":"中正路","SECT":" ","MAREA":" ","LANE":"７３巷","ALLEY":"３８弄","HOUSE_NO":"２０號","E_COORD97":183643.79000000001,"N_COORD97":2540811.8799999999,"ADDRESS":"中正路７３巷３８弄２０號","OBJECTID":174997},"geometry":{"x":183643.79000000004,"y":2540811.879999999}},{"attributes":{"ID":174999,"DIS_CODE":0,"TOWNNAME":"關廟區","LI":"北花里","LIN":"20鄰","STREET":"中正路","SECT":" ","MAREA":" ","LANE":"７３巷","ALLEY":"３８弄","HOUSE_NO":"１６號","E_COORD97":183652.19,"N_COORD97":2540812.8799999999,"ADDRESS":"中正路７３巷３８弄１６號","OBJECTID":174998},"geometry":{"x":183652.19000000227,"y":2540812.879999999}},{"attributes":{"ID":175000,"DIS_CODE":0,"TOWNNAME":"關廟區","LI":"東勢里","LIN":"13鄰","STREET":"東榮街","SECT":" ","MAREA":" ","LANE":"５５巷","ALLEY":"１８弄","HOUSE_NO":"６號","E_COORD97":182096.26999999999,"N_COORD97":2539379.25,"ADDRESS":"東榮街５５巷１８弄６號","OBJECTID":174999},"geometry":{"x":182096.27000000142,"y":2539379.2500000019}},{"attributes":{"ID":175001,"DIS_CODE":0,"TOWNNAME":"關廟區","LI":"北花里","LIN":"20鄰","STREET":"中正路","SECT":" ","MAREA":" ","LANE":"７３巷","ALLEY":"３８弄","HOUSE_NO":"２６號","E_COORD97":183634.19,"N_COORD97":2540810.8799999999,"ADDRESS":"中正路７３巷３８弄２６號","OBJECTID":175000},"geometry":{"x":183634.19000000134,"y":2540810.8800000008}}]}