{"displayFieldName":"TOWNNAME","fieldAliases":{"ID":"ID","DIS_CODE":"DIS_CODE","TOWNNAME":"TOWNNAME","LI":"LI","LIN":"LIN","STREET":"STREET","SECT":"SECT","MAREA":"MAREA","LANE":"LANE","ALLEY":"ALLEY","HOUSE_NO":"HOUSE_NO","E_COORD97":"E_COORD97","N_COORD97":"N_COORD97","ADDRESS":"ADDRESS","OBJECTID":"OBJECTID"},"geometryType":"esriGeometryPoint","spatialReference":{"wkid":102443,"latestWkid":3826},"fields":[{"name":"ID","type":"esriFieldTypeDouble","alias":"ID"},{"name":"DIS_CODE","type":"esriFieldTypeInteger","alias":"DIS_CODE"},{"name":"TOWNNAME","type":"esriFieldTypeString","alias":"TOWNNAME","length":8},{"name":"LI","type":"esriFieldTypeString","alias":"LI","length":8},{"name":"LIN","type":"esriFieldTypeString","alias":"LIN","length":12},{"name":"STREET","type":"esriFieldTypeString","alias":"STREET","length":20},{"name":"SECT","type":"esriFieldTypeString","alias":"SECT","length":8},{"name":"MAREA","type":"esriFieldTypeString","alias":"MAREA","length":12},{"name":"LANE","type":"esriFieldTypeString","alias":"LANE","length":10},{"name":"ALLEY","type":"esriFieldTypeString","alias":"ALLEY","length":10},{"name":"HOUSE_NO","type":"esriFieldTypeString","alias":"HOUSE_NO","length":20},{"name":"E_COORD97","type":"esriFieldTypeDouble","alias":"E_COORD97"},{"name":"N_COORD97","type":"esriFieldTypeDouble","alias":"N_COORD97"},{"name":"ADDRESS","type":"esriFieldTypeString","alias":"ADDRESS","length":50},{"name":"OBJECTID","type":"esriFieldTypeOID","alias":"OBJECTID"}],"features":[{"attributes":{"ID":423626,"DIS_CODE":0,"TOWNNAME":"仁德區","LI":"仁德里","LIN":"4鄰","STREET":"仁中二街","SECT":" ","MAREA":" ","LANE":"７６巷","ALLEY":" ","HOUSE_NO":"７號","E_COORD97":173249.077946,"N_COORD97":2540581.3247199999,"ADDRESS":"仁中二街７６巷７號","OBJECTID":423601},"geometry":{"x":173249.07794600073,"y":2540581.324717002}},{"attributes":{"ID":423627,"DIS_CODE":0,"TOWNNAME":"仁德區","LI":"仁德里","LIN":"4鄰","STREET":"仁中二街","SECT":" ","MAREA":" ","LANE":"７６巷","ALLEY":" ","HOUSE_NO":"５號","E_COORD97":173249.077946,"N_COORD97":2540577.19722,"ADDRESS":"仁中二街７６巷５號","OBJECTID":423602},"geometry":{"x":173249.07794600073,"y":2540577.1972190011}},{"attributes":{"ID":423628,"DIS_CODE":0,"TOWNNAME":"仁德區","LI":"仁德里","LIN":"4鄰","STREET":"仁中二街","SECT":" ","MAREA":" ","LANE":"７６巷","ALLEY":" ","HOUSE_NO":"３號","E_COORD97":173249.077946,"N_COORD97":2540572.8580499999,"ADDRESS":"仁中二街７６巷３號","OBJECTID":423603},"geometry":{"x":173249.07794600073,"y":2540572.8580540027}},{"attributes":{"ID":423629,"DIS_CODE":0,"TOWNNAME":"仁德區","LI":"一甲里","LIN":"4鄰","STREET":"中正路","SECT":"三段","MAREA":" ","LANE":"１３６巷","ALLEY":" ","HOUSE_NO":"１號","E_COORD97":173469.63,"N_COORD97":2541710.02,"ADDRESS":"中正路三段１３６巷１號","OBJECTID":423604},"geometry":{"x":173469.63000000082,"y":2541710.0199999996}},{"attributes":{"ID":423630,"DIS_CODE":0,"TOWNNAME":"仁德區","LI":"一甲里","LIN":"4鄰","STREET":"中正路","SECT":"三段","MAREA":" ","LANE":"１３６巷","ALLEY":" ","HOUSE_NO":"２０號","E_COORD97":173487.60999999999,"N_COORD97":2541696.1499999999,"ADDRESS":"中正路三段１３６巷２０號","OBJECTID":423605},"geometry":{"x":173487.61000000034,"y":2541696.1500000004}},{"attributes":{"ID":423631,"DIS_CODE":0,"TOWNNAME":"仁德區","LI":"一甲里","LIN":"4鄰","STREET":"中正路","SECT":"三段","MAREA":" ","LANE":"１３６巷","ALLEY":" ","HOUSE_NO":"２１號","E_COORD97":173508.48999999999,"N_COORD97":2541706.2200000002,"ADDRESS":"中正路三段１３６巷２１號","OBJECTID":423606},"geometry":{"x":173508.49000000115,"y":2541706.2200000007}},{"attributes":{"ID":423632,"DIS_CODE":0,"TOWNNAME":"仁德區","LI":"一甲里","LIN":"4鄰","STREET":"中正路","SECT":"三段","MAREA":" ","LANE":"１３６巷","ALLEY":" ","HOUSE_NO":"２２號","E_COORD97":173492.28,"N_COORD97":2541695.6200000001,"ADDRESS":"中正路三段１３６巷２２號","OBJECTID":423607},"geometry":{"x":173492.28000000212,"y":2541695.6200000029}},{"attributes":{"ID":423633,"DIS_CODE":0,"TOWNNAME":"仁德區","LI":"一甲里","LIN":"4鄰","STREET":"中正路","SECT":"三段","MAREA":" ","LANE":"１３６巷","ALLEY":" ","HOUSE_NO":"２３號","E_COORD97":173512.76000000001,"N_COORD97":2541705.6699999999,"ADDRESS":"中正路三段１３６巷２３號","OBJECTID":423608},"geometry":{"x":173512.76000000071,"y":2541705.6700000018}},{"attributes":{"ID":423634,"DIS_CODE":0,"TOWNNAME":"仁德區","LI":"一甲里","LIN":"4鄰","STREET":"中正路","SECT":"三段","MAREA":" ","LANE":"１３６巷","ALLEY":" ","HOUSE_NO":"２５號","E_COORD97":173516.69,"N_COORD97":2541704.8100000001,"ADDRESS":"中正路三段１３６巷２５號","OBJECTID":423609},"geometry":{"x":173516.69000000227,"y":2541704.8100000024}},{"attributes":{"ID":423635,"DIS_CODE":0,"TOWNNAME":"安南區","LI":"新順里","LIN":"24鄰","STREET":"修安街","SECT":" ","MAREA":" ","LANE":"６６巷","ALLEY":" ","HOUSE_NO":"５號","E_COORD97":169389.23999999999,"N_COORD97":2549219.1699999999,"ADDRESS":"修安街６６巷５號","OBJECTID":423610},"geometry":{"x":169389.24000000022,"y":2549219.1699999999}},{"attributes":{"ID":423636,"DIS_CODE":0,"TOWNNAME":"仁德區","LI":"一甲里","LIN":"4鄰","STREET":"中正路","SECT":"三段","MAREA":" ","LANE":"１３６巷","ALLEY":" ","HOUSE_NO":"２６號","E_COORD97":173495.70999999999,"N_COORD97":2541695.04,"ADDRESS":"中正路三段１３６巷２６號","OBJECTID":423611},"geometry":{"x":173495.71000000183,"y":2541695.040000001}},{"attributes":{"ID":423637,"DIS_CODE":0,"TOWNNAME":"仁德區","LI":"一甲里","LIN":"4鄰","STREET":"中正路","SECT":"三段","MAREA":" ","LANE":"１３６巷","ALLEY":" ","HOUSE_NO":"２７號","E_COORD97":173520.67999999999,"N_COORD97":2541704.3900000001,"ADDRESS":"中正路三段１３６巷２７號","OBJECTID":423612},"geometry":{"x":173520.6799999997,"y":2541704.3900000025}},{"attributes":{"ID":423638,"DIS_CODE":0,"TOWNNAME":"仁德區","LI":"一甲里","LIN":"4鄰","STREET":"中正路","SECT":"三段","MAREA":" ","LANE":"１３６巷","ALLEY":" ","HOUSE_NO":"２８號","E_COORD97":173499.63,"N_COORD97":2541694.29,"ADDRESS":"中正路三段１３６巷２８號","OBJECTID":423613},"geometry":{"x":173499.63000000175,"y":2541694.2899999991}},{"attributes":{"ID":423639,"DIS_CODE":0,"TOWNNAME":"仁德區","LI":"一甲里","LIN":"4鄰","STREET":"中正路","SECT":"三段","MAREA":" ","LANE":"１３６巷","ALLEY":" ","HOUSE_NO":"２９號","E_COORD97":173524.17000000001,"N_COORD97":2541703.6899999999,"ADDRESS":"中正路三段１３６巷２９號","OBJECTID":423614},"geometry":{"x":173524.16999999993,"y":2541703.6900000013}},{"attributes":{"ID":423640,"DIS_CODE":0,"TOWNNAME":"仁德區","LI":"一甲里","LIN":"4鄰","STREET":"中正路","SECT":"三段","MAREA":" ","LANE":"１３６巷","ALLEY":" ","HOUSE_NO":"３０號","E_COORD97":173503.41,"N_COORD97":2541693.71,"ADDRESS":"中正路三段１３６巷３０號","OBJECTID":423615},"geometry":{"x":173503.41000000108,"y":2541693.7100000009}},{"attributes":{"ID":423641,"DIS_CODE":0,"TOWNNAME":"仁德區","LI":"一甲里","LIN":"4鄰","STREET":"中正路","SECT":"三段","MAREA":" ","LANE":"１３６巷","ALLEY":" ","HOUSE_NO":"３１號","E_COORD97":173528.07000000001,"N_COORD97":2541703.1699999999,"ADDRESS":"中正路三段１３６巷３１號","OBJECTID":423616},"geometry":{"x":173528.07000000123,"y":2541703.1699999999}},{"attributes":{"ID":423642,"DIS_CODE":0,"TOWNNAME":"仁德區","LI":"一甲里","LIN":"4鄰","STREET":"中正路","SECT":"三段","MAREA":" ","LANE":"１３６巷","ALLEY":" ","HOUSE_NO":"３２號","E_COORD97":173507.16,"N_COORD97":2541693.1899999999,"ADDRESS":"中正路三段１３６巷３２號","OBJECTID":423617},"geometry":{"x":173507.16000000108,"y":2541693.1900000032}},{"attributes":{"ID":423643,"DIS_CODE":0,"TOWNNAME":"仁德區","LI":"一甲里","LIN":"4鄰","STREET":"中正路","SECT":"三段","MAREA":" ","LANE":"１３６巷","ALLEY":" ","HOUSE_NO":"３３號","E_COORD97":173531.70000000001,"N_COORD97":2541702.7599999998,"ADDRESS":"中正路三段１３６巷３３號","OBJECTID":423618},"geometry":{"x":173531.70000000205,"y":2541702.7599999998}},{"attributes":{"ID":423644,"DIS_CODE":0,"TOWNNAME":"仁德區","LI":"一甲里","LIN":"4鄰","STREET":"中正路","SECT":"三段","MAREA":" ","LANE":"１３６巷","ALLEY":" ","HOUSE_NO":"３５號","E_COORD97":173535.62,"N_COORD97":2541702.1899999999,"ADDRESS":"中正路三段１３６巷３５號","OBJECTID":423619},"geometry":{"x":173535.62000000197,"y":2541702.1899999995}},{"attributes":{"ID":423645,"DIS_CODE":0,"TOWNNAME":"仁德區","LI":"一甲里","LIN":"4鄰","STREET":"中正路","SECT":"三段","MAREA":" ","LANE":"１３６巷","ALLEY":" ","HOUSE_NO":"４０號","E_COORD97":173518.26999999999,"N_COORD97":2541691.4900000002,"ADDRESS":"中正路三段１３６巷４０號","OBJECTID":423620},"geometry":{"x":173518.26999999955,"y":2541691.4900000002}},{"attributes":{"ID":423646,"DIS_CODE":0,"TOWNNAME":"仁德區","LI":"一甲里","LIN":"4鄰","STREET":"中正路","SECT":"三段","MAREA":" ","LANE":"１３６巷","ALLEY":" ","HOUSE_NO":"４１號","E_COORD97":173546.57999999999,"N_COORD97":2541700.6499999999,"ADDRESS":"中正路三段１３６巷４１號","OBJECTID":423621},"geometry":{"x":173546.58000000101,"y":2541700.6500000004}},{"attributes":{"ID":423647,"DIS_CODE":0,"TOWNNAME":"仁德區","LI":"一甲里","LIN":"4鄰","STREET":"中正路","SECT":"三段","MAREA":" ","LANE":"１３６巷","ALLEY":" ","HOUSE_NO":"４２號","E_COORD97":173522.13,"N_COORD97":2541690.8799999999,"ADDRESS":"中正路三段１３６巷４２號","OBJECTID":423622},"geometry":{"x":173522.13000000082,"y":2541690.879999999}},{"attributes":{"ID":423648,"DIS_CODE":0,"TOWNNAME":"仁德區","LI":"一甲里","LIN":"4鄰","STREET":"中正路","SECT":"三段","MAREA":" ","LANE":"１３６巷","ALLEY":" ","HOUSE_NO":"４３號","E_COORD97":173550.59,"N_COORD97":2541700.0899999999,"ADDRESS":"中正路三段１３６巷４３號","OBJECTID":423623},"geometry":{"x":173550.58999999892,"y":2541700.0899999999}},{"attributes":{"ID":423649,"DIS_CODE":0,"TOWNNAME":"仁德區","LI":"一甲里","LIN":"4鄰","STREET":"中正路","SECT":"三段","MAREA":" ","LANE":"１３６巷","ALLEY":" ","HOUSE_NO":"４５號","E_COORD97":173554.19,"N_COORD97":2541699.52,"ADDRESS":"中正路三段１３６巷４５號","OBJECTID":423624},"geometry":{"x":173554.19000000134,"y":2541699.5200000014}},{"attributes":{"ID":423650,"DIS_CODE":0,"TOWNNAME":"仁德區","LI":"一甲里","LIN":"4鄰","STREET":"中正路","SECT":"三段","MAREA":" ","LANE":"１３６巷","ALLEY":" ","HOUSE_NO":"４６號","E_COORD97":173525.78,"N_COORD97":2541690.3500000001,"ADDRESS":"中正路三段１３６巷４６號","OBJECTID":423625},"geometry":{"x":173525.78000000026,"y":2541690.3500000015}},{"attributes":{"ID":423651,"DIS_CODE":0,"TOWNNAME":"仁德區","LI":"一甲里","LIN":"4鄰","STREET":"中正路","SECT":"三段","MAREA":" ","LANE":"１３６巷","ALLEY":" ","HOUSE_NO":"４７號","E_COORD97":173558.23999999999,"N_COORD97":2541699.0499999998,"ADDRESS":"中正路三段１３６巷４７號","OBJECTID":423626},"geometry":{"x":173558.24000000022,"y":2541699.0500000045}},{"attributes":{"ID":423652,"DIS_CODE":0,"TOWNNAME":"仁德區","LI":"一甲里","LIN":"4鄰","STREET":"中正路","SECT":"三段","MAREA":" ","LANE":"１３６巷","ALLEY":" ","HOUSE_NO":"４８號","E_COORD97":173529.53,"N_COORD97":2541689.8799999999,"ADDRESS":"中正路三段１３６巷４８號","OBJECTID":423627},"geometry":{"x":173529.53000000212,"y":2541689.879999999}},{"attributes":{"ID":423653,"DIS_CODE":0,"TOWNNAME":"仁德區","LI":"一甲里","LIN":"4鄰","STREET":"中正路","SECT":"三段","MAREA":" ","LANE":"１３６巷","ALLEY":" ","HOUSE_NO":"４９號","E_COORD97":173561.89000000001,"N_COORD97":2541698.7200000002,"ADDRESS":"中正路三段１３６巷４９號","OBJECTID":423628},"geometry":{"x":173561.88999999873,"y":2541698.7200000025}},{"attributes":{"ID":423654,"DIS_CODE":0,"TOWNNAME":"仁德區","LI":"一甲里","LIN":"4鄰","STREET":"中正路","SECT":"三段","MAREA":" ","LANE":"１３６巷","ALLEY":" ","HOUSE_NO":"５０號","E_COORD97":173533.14000000001,"N_COORD97":2541689.2599999998,"ADDRESS":"中正路三段１３６巷５０號","OBJECTID":423629},"geometry":{"x":173533.14000000153,"y":2541689.2599999998}},{"attributes":{"ID":423655,"DIS_CODE":0,"TOWNNAME":"仁德區","LI":"仁德里","LIN":"4鄰","STREET":"仁中三街","SECT":" ","MAREA":" ","LANE":"７０巷","ALLEY":" ","HOUSE_NO":"１０號","E_COORD97":173288.97,"N_COORD97":2540443.1200000001,"ADDRESS":"仁中三街７０巷１０號","OBJECTID":423630},"geometry":{"x":173288.97000000067,"y":2540443.120000001}},{"attributes":{"ID":423656,"DIS_CODE":0,"TOWNNAME":"仁德區","LI":"仁德里","LIN":"4鄰","STREET":"仁中三街","SECT":" ","MAREA":" ","LANE":"７０巷","ALLEY":" ","HOUSE_NO":"１２號","E_COORD97":173289.28,"N_COORD97":2540447.6299999999,"ADDRESS":"仁中三街７０巷１２號","OBJECTID":423631},"geometry":{"x":173289.28000000119,"y":2540447.629999999}},{"attributes":{"ID":423657,"DIS_CODE":0,"TOWNNAME":"仁德區","LI":"仁德里","LIN":"4鄰","STREET":"仁中三街","SECT":" ","MAREA":" ","LANE":"７０巷","ALLEY":" ","HOUSE_NO":"１６號","E_COORD97":173289.32999999999,"N_COORD97":2540452.2200000002,"ADDRESS":"仁中三街７０巷１６號","OBJECTID":423632},"geometry":{"x":173289.33000000007,"y":2540452.2200000007}},{"attributes":{"ID":423658,"DIS_CODE":0,"TOWNNAME":"仁德區","LI":"仁德里","LIN":"4鄰","STREET":"仁中三街","SECT":" ","MAREA":" ","LANE":"７０巷","ALLEY":" ","HOUSE_NO":"１８號","E_COORD97":173289.62,"N_COORD97":2540456.8700000001,"ADDRESS":"仁中三街７０巷１８號","OBJECTID":423633},"geometry":{"x":173289.61999999918,"y":2540456.8700000029}},{"attributes":{"ID":423659,"DIS_CODE":0,"TOWNNAME":"仁德區","LI":"仁德里","LIN":"4鄰","STREET":"仁中三街","SECT":" ","MAREA":" ","LANE":"７０巷","ALLEY":" ","HOUSE_NO":"２０號","E_COORD97":173289.76999999999,"N_COORD97":2540461.5899999999,"ADDRESS":"仁中三街７０巷２０號","OBJECTID":423634},"geometry":{"x":173289.77000000142,"y":2540461.5900000017}},{"attributes":{"ID":423660,"DIS_CODE":0,"TOWNNAME":"仁德區","LI":"仁德里","LIN":"4鄰","STREET":"仁中三街","SECT":" ","MAREA":" ","LANE":"７０巷","ALLEY":" ","HOUSE_NO":"２２號","E_COORD97":173289.62,"N_COORD97":2540465.9100000001,"ADDRESS":"仁中三街７０巷２２號","OBJECTID":423635},"geometry":{"x":173289.61999999918,"y":2540465.910000002}},{"attributes":{"ID":423661,"DIS_CODE":0,"TOWNNAME":"仁德區","LI":"仁德里","LIN":"4鄰","STREET":"仁中三街","SECT":" ","MAREA":" ","LANE":"７０巷","ALLEY":" ","HOUSE_NO":"２６號","E_COORD97":173289.51999999999,"N_COORD97":2540470.9700000002,"ADDRESS":"仁中三街７０巷２６號","OBJECTID":423636},"geometry":{"x":173289.51999999955,"y":2540470.9700000007}},{"attributes":{"ID":423662,"DIS_CODE":0,"TOWNNAME":"仁德區","LI":"仁德里","LIN":"4鄰","STREET":"仁中三街","SECT":" ","MAREA":" ","LANE":"７０巷","ALLEY":" ","HOUSE_NO":"２８號","E_COORD97":173289.82999999999,"N_COORD97":2540475.1299999999,"ADDRESS":"仁中三街７０巷２８號","OBJECTID":423637},"geometry":{"x":173289.82999999914,"y":2540475.129999999}},{"attributes":{"ID":423663,"DIS_CODE":0,"TOWNNAME":"仁德區","LI":"仁德里","LIN":"4鄰","STREET":"仁中三街","SECT":" ","MAREA":" ","LANE":"７０巷","ALLEY":" ","HOUSE_NO":"２號","E_COORD97":173287.54999999999,"N_COORD97":2540428.9900000002,"ADDRESS":"仁中三街７０巷２號","OBJECTID":423638},"geometry":{"x":173287.54999999981,"y":2540428.9900000021}},{"attributes":{"ID":423664,"DIS_CODE":0,"TOWNNAME":"仁德區","LI":"仁德里","LIN":"4鄰","STREET":"仁中三街","SECT":" ","MAREA":" ","LANE":"７０巷","ALLEY":" ","HOUSE_NO":"３０號","E_COORD97":173289.97,"N_COORD97":2540480.1899999999,"ADDRESS":"仁中三街７０巷３０號","OBJECTID":423639},"geometry":{"x":173289.96999999974,"y":2540480.1900000013}},{"attributes":{"ID":423665,"DIS_CODE":0,"TOWNNAME":"仁德區","LI":"仁德里","LIN":"4鄰","STREET":"仁中三街","SECT":" ","MAREA":" ","LANE":"７０巷","ALLEY":" ","HOUSE_NO":"６號","E_COORD97":173287.41,"N_COORD97":2540433.9500000002,"ADDRESS":"仁中三街７０巷６號","OBJECTID":423640},"geometry":{"x":173287.41000000015,"y":2540433.9500000011}},{"attributes":{"ID":423666,"DIS_CODE":0,"TOWNNAME":"北區","LI":"成德里","LIN":"34鄰","STREET":"文成一路","SECT":" ","MAREA":" ","LANE":" ","ALLEY":" ","HOUSE_NO":"９１號","E_COORD97":168656.04000000001,"N_COORD97":2546034.54,"ADDRESS":"文成一路９１號","OBJECTID":423641},"geometry":{"x":168656.04000000097,"y":2546034.540000001}},{"attributes":{"ID":423667,"DIS_CODE":0,"TOWNNAME":"仁德區","LI":"仁德里","LIN":"4鄰","STREET":"仁中三街","SECT":" ","MAREA":" ","LANE":"７０巷","ALLEY":" ","HOUSE_NO":"８號","E_COORD97":173287.69,"N_COORD97":2540438.4399999999,"ADDRESS":"仁中三街７０巷８號","OBJECTID":423642},"geometry":{"x":173287.69000000041,"y":2540438.4400000013}},{"attributes":{"ID":423668,"DIS_CODE":0,"TOWNNAME":"仁德區","LI":"成功里","LIN":"46鄰","STREET":"文賢路","SECT":"一段","MAREA":" ","LANE":"１０５巷","ALLEY":" ","HOUSE_NO":"１１號","E_COORD97":170401.79999999999,"N_COORD97":2538206.29,"ADDRESS":"文賢路一段１０５巷１１號","OBJECTID":423643},"geometry":{"x":170401.80000000075,"y":2538206.2899999991}},{"attributes":{"ID":423669,"DIS_CODE":0,"TOWNNAME":"仁德區","LI":"一甲里","LIN":"4鄰","STREET":"忠義三街","SECT":" ","MAREA":" ","LANE":"１１巷","ALLEY":" ","HOUSE_NO":"１０號","E_COORD97":173583.66,"N_COORD97":2541656.25,"ADDRESS":"忠義三街１１巷１０號","OBJECTID":423644},"geometry":{"x":173583.66000000015,"y":2541656.2500000037}},{"attributes":{"ID":423670,"DIS_CODE":0,"TOWNNAME":"仁德區","LI":"一甲里","LIN":"4鄰","STREET":"忠義三街","SECT":" ","MAREA":" ","LANE":"１１巷","ALLEY":" ","HOUSE_NO":"１１號","E_COORD97":173572.32999999999,"N_COORD97":2541647.0299999998,"ADDRESS":"忠義三街１１巷１１號","OBJECTID":423645},"geometry":{"x":173572.33000000007,"y":2541647.0300000012}},{"attributes":{"ID":423671,"DIS_CODE":0,"TOWNNAME":"仁德區","LI":"一甲里","LIN":"4鄰","STREET":"忠義三街","SECT":" ","MAREA":" ","LANE":"１１巷","ALLEY":" ","HOUSE_NO":"１２號","E_COORD97":173578.14999999999,"N_COORD97":2541656.2400000002,"ADDRESS":"忠義三街１１巷１２號","OBJECTID":423646},"geometry":{"x":173578.1500000013,"y":2541656.2400000039}},{"attributes":{"ID":423672,"DIS_CODE":0,"TOWNNAME":"仁德區","LI":"一甲里","LIN":"4鄰","STREET":"忠義三街","SECT":" ","MAREA":" ","LANE":"１１巷","ALLEY":" ","HOUSE_NO":"１３號","E_COORD97":173566.64999999999,"N_COORD97":2541646.5600000001,"ADDRESS":"忠義三街１１巷１３號","OBJECTID":423647},"geometry":{"x":173566.6500000013,"y":2541646.5600000005}},{"attributes":{"ID":423673,"DIS_CODE":0,"TOWNNAME":"仁德區","LI":"一甲里","LIN":"4鄰","STREET":"忠義三街","SECT":" ","MAREA":" ","LANE":"１１巷","ALLEY":" ","HOUSE_NO":"１５號","E_COORD97":173560.79000000001,"N_COORD97":2541646.46,"ADDRESS":"忠義三街１１巷１５號","OBJECTID":423648},"geometry":{"x":173560.79000000004,"y":2541646.4600000028}},{"attributes":{"ID":423674,"DIS_CODE":0,"TOWNNAME":"仁德區","LI":"一甲里","LIN":"4鄰","STREET":"忠義三街","SECT":" ","MAREA":" ","LANE":"１１巷","ALLEY":" ","HOUSE_NO":"１６號","E_COORD97":173572.45000000001,"N_COORD97":2541655.9500000002,"ADDRESS":"忠義三街１１巷１６號","OBJECTID":423649},"geometry":{"x":173572.45000000205,"y":2541655.9499999993}},{"attributes":{"ID":423675,"DIS_CODE":0,"TOWNNAME":"仁德區","LI":"一甲里","LIN":"4鄰","STREET":"忠義三街","SECT":" ","MAREA":" ","LANE":"１１巷","ALLEY":" ","HOUSE_NO":"１７號","E_COORD97":173555.39000000001,"N_COORD97":2541646.25,"ADDRESS":"忠義三街１１巷１７號","OBJECTID":423650},"geometry":{"x":173555.3900000006,"y":2541646.2500000019}},{"attributes":{"ID":423676,"DIS_CODE":0,"TOWNNAME":"仁德區","LI":"一甲里","LIN":"4鄰","STREET":"忠義三街","SECT":" ","MAREA":" ","LANE":"１１巷","ALLEY":" ","HOUSE_NO":"１８號","E_COORD97":173566.89999999999,"N_COORD97":2541655.7799999998,"ADDRESS":"忠義三街１１巷１８號","OBJECTID":423651},"geometry":{"x":173566.9000000013,"y":2541655.7800000012}},{"attributes":{"ID":423677,"DIS_CODE":0,"TOWNNAME":"仁德區","LI":"一甲里","LIN":"4鄰","STREET":"忠義三街","SECT":" ","MAREA":" ","LANE":"１１巷","ALLEY":" ","HOUSE_NO":"１９號","E_COORD97":173549.88,"N_COORD97":2541645.96,"ADDRESS":"忠義三街１１巷１９號","OBJECTID":423652},"geometry":{"x":173549.87999999989,"y":2541645.9600000028}},{"attributes":{"ID":423678,"DIS_CODE":0,"TOWNNAME":"仁德區","LI":"一甲里","LIN":"4鄰","STREET":"忠義三街","SECT":" ","MAREA":" ","LANE":"１１巷","ALLEY":" ","HOUSE_NO":"１號","E_COORD97":173599.39999999999,"N_COORD97":2541648.21,"ADDRESS":"忠義三街１１巷１號","OBJECTID":423653},"geometry":{"x":173599.40000000037,"y":2541648.2100000028}},{"attributes":{"ID":423679,"DIS_CODE":0,"TOWNNAME":"仁德區","LI":"一甲里","LIN":"4鄰","STREET":"忠義三街","SECT":" ","MAREA":" ","LANE":"１１巷","ALLEY":" ","HOUSE_NO":"２０號","E_COORD97":173561.03,"N_COORD97":2541655.96,"ADDRESS":"忠義三街１１巷２０號","OBJECTID":423654},"geometry":{"x":173561.03000000026,"y":2541655.9600000028}},{"attributes":{"ID":423680,"DIS_CODE":0,"TOWNNAME":"仁德區","LI":"一甲里","LIN":"4鄰","STREET":"忠義三街","SECT":" ","MAREA":" ","LANE":"１１巷","ALLEY":" ","HOUSE_NO":"２１號","E_COORD97":173543.69,"N_COORD97":2541645.77,"ADDRESS":"忠義三街１１巷２１號","OBJECTID":423655},"geometry":{"x":173543.68999999948,"y":2541645.7700000014}},{"attributes":{"ID":423681,"DIS_CODE":0,"TOWNNAME":"仁德區","LI":"二行里","LIN":"13鄰","STREET":"行大街","SECT":" ","MAREA":" ","LANE":"１７２巷","ALLEY":" ","HOUSE_NO":"６２之１號","E_COORD97":169857.91,"N_COORD97":2535208.48,"ADDRESS":"行大街１７２巷６２之１號","OBJECTID":423656},"geometry":{"x":169857.91000000015,"y":2535208.4800000004}},{"attributes":{"ID":423682,"DIS_CODE":0,"TOWNNAME":"仁德區","LI":"一甲里","LIN":"4鄰","STREET":"忠義三街","SECT":" ","MAREA":" ","LANE":"１１巷","ALLEY":" ","HOUSE_NO":"３２號","E_COORD97":173532.45000000001,"N_COORD97":2541654.6299999999,"ADDRESS":"忠義三街１１巷３２號","OBJECTID":423657},"geometry":{"x":173532.45000000112,"y":2541654.629999999}},{"attributes":{"ID":423683,"DIS_CODE":0,"TOWNNAME":"仁德區","LI":"一甲里","LIN":"4鄰","STREET":"忠義三街","SECT":" ","MAREA":" ","LANE":"１１巷","ALLEY":" ","HOUSE_NO":"３３號","E_COORD97":173509.98999999999,"N_COORD97":2541644.3100000001,"ADDRESS":"忠義三街１１巷３３號","OBJECTID":423658},"geometry":{"x":173509.99000000115,"y":2541644.3100000024}},{"attributes":{"ID":423684,"DIS_CODE":0,"TOWNNAME":"仁德區","LI":"一甲里","LIN":"4鄰","STREET":"忠義三街","SECT":" ","MAREA":" ","LANE":"１１巷","ALLEY":" ","HOUSE_NO":"２７號","E_COORD97":173526.59,"N_COORD97":2541654.3799999999,"ADDRESS":"忠義三街１１巷２７號","OBJECTID":423659},"geometry":{"x":173526.58999999985,"y":2541654.3800000008}},{"attributes":{"ID":423685,"DIS_CODE":0,"TOWNNAME":"仁德區","LI":"一甲里","LIN":"4鄰","STREET":"忠義三街","SECT":" ","MAREA":" ","LANE":"１１巷","ALLEY":" ","HOUSE_NO":"３８號","E_COORD97":173521.19,"N_COORD97":2541654.3599999999,"ADDRESS":"忠義三街１１巷３８號","OBJECTID":423660},"geometry":{"x":173521.19000000041,"y":2541654.3599999994}},{"attributes":{"ID":423686,"DIS_CODE":0,"TOWNNAME":"仁德區","LI":"一甲里","LIN":"4鄰","STREET":"忠義三街","SECT":" ","MAREA":" ","LANE":"１１巷","ALLEY":" ","HOUSE_NO":"３號","E_COORD97":173593.75,"N_COORD97":2541648,"ADDRESS":"忠義三街１１巷３號","OBJECTID":423661},"geometry":{"x":173593.74999999907,"y":2541648.0000000019}},{"attributes":{"ID":423687,"DIS_CODE":0,"TOWNNAME":"仁德區","LI":"一甲里","LIN":"4鄰","STREET":"忠義三街","SECT":" ","MAREA":" ","LANE":"１１巷","ALLEY":" ","HOUSE_NO":"４０號","E_COORD97":173515.41,"N_COORD97":2541654.1600000001,"ADDRESS":"忠義三街１１巷４０號","OBJECTID":423662},"geometry":{"x":173515.41000000108,"y":2541654.160000002}},{"attributes":{"ID":423688,"DIS_CODE":0,"TOWNNAME":"歸仁區","LI":"沙崙里","LIN":"10鄰","STREET":" ","SECT":" ","MAREA":"沙崙","LANE":" ","ALLEY":" ","HOUSE_NO":"４２６號","E_COORD97":180572.60659000001,"N_COORD97":2537823.9703199998,"ADDRESS":"沙崙４２６號","OBJECTID":423663},"geometry":{"x":180572.60659000091,"y":2537823.9703200012}},{"attributes":{"ID":423689,"DIS_CODE":0,"TOWNNAME":"仁德區","LI":"一甲里","LIN":"4鄰","STREET":"忠義三街","SECT":" ","MAREA":" ","LANE":"１１巷","ALLEY":" ","HOUSE_NO":"４２號","E_COORD97":173509.76000000001,"N_COORD97":2541654.1600000001,"ADDRESS":"忠義三街１１巷４２號","OBJECTID":423664},"geometry":{"x":173509.75999999978,"y":2541654.160000002}},{"attributes":{"ID":423690,"DIS_CODE":0,"TOWNNAME":"仁德區","LI":"一甲里","LIN":"4鄰","STREET":"忠義三街","SECT":" ","MAREA":" ","LANE":"１１巷","ALLEY":" ","HOUSE_NO":"４６號","E_COORD97":173504.38,"N_COORD97":2541653.6000000001,"ADDRESS":"忠義三街１１巷４６號","OBJECTID":423665},"geometry":{"x":173504.37999999989,"y":2541653.6000000015}},{"attributes":{"ID":423691,"DIS_CODE":0,"TOWNNAME":"仁德區","LI":"一甲里","LIN":"4鄰","STREET":"忠義三街","SECT":" ","MAREA":" ","LANE":"１１巷","ALLEY":" ","HOUSE_NO":"５號","E_COORD97":173588.07000000001,"N_COORD97":2541647.9500000002,"ADDRESS":"忠義三街１１巷５號","OBJECTID":423666},"geometry":{"x":173588.0700000003,"y":2541647.9500000011}},{"attributes":{"ID":423692,"DIS_CODE":0,"TOWNNAME":"仁德區","LI":"一甲里","LIN":"4鄰","STREET":"忠義三街","SECT":" ","MAREA":" ","LANE":"１１巷","ALLEY":" ","HOUSE_NO":"６號","E_COORD97":173593.73000000001,"N_COORD97":2541656.6299999999,"ADDRESS":"忠義三街１１巷６號","OBJECTID":423667},"geometry":{"x":173593.73000000045,"y":2541656.6300000008}},{"attributes":{"ID":423693,"DIS_CODE":0,"TOWNNAME":"仁德區","LI":"一甲里","LIN":"4鄰","STREET":"忠義三街","SECT":" ","MAREA":" ","LANE":"１１巷","ALLEY":" ","HOUSE_NO":"７號","E_COORD97":173582.32000000001,"N_COORD97":2541647.6299999999,"ADDRESS":"忠義三街１１巷７號","OBJECTID":423668},"geometry":{"x":173582.32000000123,"y":2541647.629999999}},{"attributes":{"ID":423694,"DIS_CODE":0,"TOWNNAME":"仁德區","LI":"一甲里","LIN":"4鄰","STREET":"忠義三街","SECT":" ","MAREA":" ","LANE":"１１巷","ALLEY":" ","HOUSE_NO":"８號","E_COORD97":173587.84,"N_COORD97":2541656.52,"ADDRESS":"忠義三街１１巷８號","OBJECTID":423669},"geometry":{"x":173587.83999999985,"y":2541656.5199999996}},{"attributes":{"ID":423695,"DIS_CODE":0,"TOWNNAME":"仁德區","LI":"一甲里","LIN":"4鄰","STREET":"忠義三街","SECT":" ","MAREA":" ","LANE":"１１巷","ALLEY":" ","HOUSE_NO":"９號","E_COORD97":173576.37,"N_COORD97":2541647.3900000001,"ADDRESS":"忠義三街１１巷９號","OBJECTID":423670},"geometry":{"x":173576.37000000104,"y":2541647.3900000006}},{"attributes":{"ID":423696,"DIS_CODE":0,"TOWNNAME":"仁德區","LI":"保安里","LIN":"24鄰","STREET":"保學一街","SECT":" ","MAREA":" ","LANE":"１７巷","ALLEY":" ","HOUSE_NO":"１２號","E_COORD97":171730.07000000001,"N_COORD97":2535624.4300000002,"ADDRESS":"保學一街１７巷１２號","OBJECTID":423671},"geometry":{"x":171730.0700000003,"y":2535624.4300000016}},{"attributes":{"ID":423697,"DIS_CODE":0,"TOWNNAME":"仁德區","LI":"保安里","LIN":"24鄰","STREET":"保學一街","SECT":" ","MAREA":" ","LANE":"１７巷","ALLEY":" ","HOUSE_NO":"１６號","E_COORD97":171750.95000000001,"N_COORD97":2535637.3399999999,"ADDRESS":"保學一街１７巷１６號","OBJECTID":423672},"geometry":{"x":171750.95000000019,"y":2535637.3400000036}},{"attributes":{"ID":423698,"DIS_CODE":0,"TOWNNAME":"仁德區","LI":"保安里","LIN":"24鄰","STREET":"保學一街","SECT":" ","MAREA":" ","LANE":"１７巷","ALLEY":" ","HOUSE_NO":"２號","E_COORD97":171637.48999999999,"N_COORD97":2535580.1099999999,"ADDRESS":"保學一街１７巷２號","OBJECTID":423673},"geometry":{"x":171637.49000000022,"y":2535580.1099999994}},{"attributes":{"ID":423699,"DIS_CODE":0,"TOWNNAME":"仁德區","LI":"保安里","LIN":"24鄰","STREET":"保學一街","SECT":" ","MAREA":" ","LANE":"１７巷","ALLEY":" ","HOUSE_NO":"６號","E_COORD97":171660.51000000001,"N_COORD97":2535591.3700000001,"ADDRESS":"保學一街１７巷６號","OBJECTID":423674},"geometry":{"x":171660.50999999978,"y":2535591.3700000029}},{"attributes":{"ID":423700,"DIS_CODE":0,"TOWNNAME":"仁德區","LI":"保安里","LIN":"24鄰","STREET":"保學一街","SECT":" ","MAREA":" ","LANE":"１７巷","ALLEY":" ","HOUSE_NO":"８號","E_COORD97":171683.01999999999,"N_COORD97":2535602.1000000001,"ADDRESS":"保學一街１７巷８號","OBJECTID":423675},"geometry":{"x":171683.02000000048,"y":2535602.1000000015}},{"attributes":{"ID":423701,"DIS_CODE":0,"TOWNNAME":"仁德區","LI":"太子里","LIN":"14鄰","STREET":"長興路","SECT":" ","MAREA":" ","LANE":"８７巷","ALLEY":" ","HOUSE_NO":"１１號","E_COORD97":174093.28,"N_COORD97":2543805.7999999998,"ADDRESS":"長興路８７巷１１號","OBJECTID":423676},"geometry":{"x":174093.28000000026,"y":2543805.7999999989}},{"attributes":{"ID":423702,"DIS_CODE":0,"TOWNNAME":"仁德區","LI":"太子里","LIN":"14鄰","STREET":"長興路","SECT":" ","MAREA":" ","LANE":"８７巷","ALLEY":" ","HOUSE_NO":"１３號","E_COORD97":174079.79000000001,"N_COORD97":2543805.7999999998,"ADDRESS":"長興路８７巷１３號","OBJECTID":423677},"geometry":{"x":174079.79000000004,"y":2543805.7999999989}},{"attributes":{"ID":423703,"DIS_CODE":0,"TOWNNAME":"下營區","LI":"新興里","LIN":"4鄰","STREET":"人和一街","SECT":" ","MAREA":" ","LANE":"２１巷","ALLEY":" ","HOUSE_NO":"１０號","E_COORD97":174913.78,"N_COORD97":2570757.4700000002,"ADDRESS":"人和一街２１巷１０號","OBJECTID":423678},"geometry":{"x":174913.78000000026,"y":2570757.4700000007}},{"attributes":{"ID":423704,"DIS_CODE":0,"TOWNNAME":"下營區","LI":"新興里","LIN":"4鄰","STREET":"人和一街","SECT":" ","MAREA":" ","LANE":"２１巷","ALLEY":" ","HOUSE_NO":"１１號","E_COORD97":174933.32000000001,"N_COORD97":2570742.3300000001,"ADDRESS":"人和一街２１巷１１號","OBJECTID":423679},"geometry":{"x":174933.32000000123,"y":2570742.3300000019}},{"attributes":{"ID":423705,"DIS_CODE":0,"TOWNNAME":"下營區","LI":"新興里","LIN":"4鄰","STREET":"人和一街","SECT":" ","MAREA":" ","LANE":"２１巷","ALLEY":" ","HOUSE_NO":"１９號","E_COORD97":174903.57000000001,"N_COORD97":2570724.75,"ADDRESS":"人和一街２１巷１９號","OBJECTID":423680},"geometry":{"x":174903.5700000003,"y":2570724.75}},{"attributes":{"ID":423706,"DIS_CODE":0,"TOWNNAME":"下營區","LI":"新興里","LIN":"4鄰","STREET":"人和一街","SECT":" ","MAREA":" ","LANE":"２１巷","ALLEY":" ","HOUSE_NO":"１號","E_COORD97":174955.98999999999,"N_COORD97":2570755.8300000001,"ADDRESS":"人和一街２１巷１號","OBJECTID":423681},"geometry":{"x":174955.99000000115,"y":2570755.8300000019}},{"attributes":{"ID":423707,"DIS_CODE":0,"TOWNNAME":"下營區","LI":"新興里","LIN":"4鄰","STREET":"人和一街","SECT":" ","MAREA":" ","LANE":"２１巷","ALLEY":" ","HOUSE_NO":"２號","E_COORD97":174930.60999999999,"N_COORD97":2570762.46,"ADDRESS":"人和一街２１巷２號","OBJECTID":423682},"geometry":{"x":174930.61000000034,"y":2570762.4600000028}},{"attributes":{"ID":423708,"DIS_CODE":0,"TOWNNAME":"下營區","LI":"新興里","LIN":"4鄰","STREET":"人和一街","SECT":" ","MAREA":" ","LANE":"２１巷","ALLEY":" ","HOUSE_NO":"３號","E_COORD97":174951.38,"N_COORD97":2570753.0099999998,"ADDRESS":"人和一街２１巷３號","OBJECTID":423683},"geometry":{"x":174951.38000000082,"y":2570753.0099999998}},{"attributes":{"ID":423709,"DIS_CODE":0,"TOWNNAME":"下營區","LI":"新興里","LIN":"4鄰","STREET":"人和一街","SECT":" ","MAREA":" ","LANE":"２１巷","ALLEY":" ","HOUSE_NO":"５號","E_COORD97":174947.48999999999,"N_COORD97":2570750.4700000002,"ADDRESS":"人和一街２１巷５號","OBJECTID":423684},"geometry":{"x":174947.49000000115,"y":2570750.4700000007}},{"attributes":{"ID":423710,"DIS_CODE":0,"TOWNNAME":"下營區","LI":"新興里","LIN":"4鄰","STREET":"人和一街","SECT":" ","MAREA":" ","LANE":"２１巷","ALLEY":" ","HOUSE_NO":"６號","E_COORD97":174923.16,"N_COORD97":2570761.0499999998,"ADDRESS":"人和一街２１巷６號","OBJECTID":423685},"geometry":{"x":174923.16000000015,"y":2570761.0499999989}},{"attributes":{"ID":423711,"DIS_CODE":0,"TOWNNAME":"下營區","LI":"新興里","LIN":"4鄰","STREET":"人和一街","SECT":" ","MAREA":" ","LANE":"２１巷","ALLEY":" ","HOUSE_NO":"７號","E_COORD97":174942.59,"N_COORD97":2570747.6000000001,"ADDRESS":"人和一街２１巷７號","OBJECTID":423686},"geometry":{"x":174942.59000000078,"y":2570747.6000000015}},{"attributes":{"ID":423712,"DIS_CODE":0,"TOWNNAME":"下營區","LI":"新興里","LIN":"4鄰","STREET":"人和一街","SECT":" ","MAREA":" ","LANE":"２１巷","ALLEY":" ","HOUSE_NO":"８號","E_COORD97":174917.62,"N_COORD97":2570758.4100000001,"ADDRESS":"人和一街２１巷８號","OBJECTID":423687},"geometry":{"x":174917.62000000104,"y":2570758.4100000039}},{"attributes":{"ID":423713,"DIS_CODE":0,"TOWNNAME":"下營區","LI":"新興里","LIN":"4鄰","STREET":"人和一街","SECT":" ","MAREA":" ","LANE":"２１巷","ALLEY":" ","HOUSE_NO":"９號","E_COORD97":174937.85999999999,"N_COORD97":2570744.8300000001,"ADDRESS":"人和一街２１巷９號","OBJECTID":423688},"geometry":{"x":174937.8600000022,"y":2570744.8299999982}},{"attributes":{"ID":423714,"DIS_CODE":0,"TOWNNAME":"下營區","LI":"宅內里","LIN":"9鄰","STREET":"人和三街","SECT":" ","MAREA":" ","LANE":"７１巷","ALLEY":" ","HOUSE_NO":"１６號","E_COORD97":174228.79000000001,"N_COORD97":2570636.8199999998,"ADDRESS":"人和三街７１巷１６號","OBJECTID":423689},"geometry":{"x":174228.79000000004,"y":2570636.820000004}},{"attributes":{"ID":423715,"DIS_CODE":0,"TOWNNAME":"中西區","LI":"青年里","LIN":"13鄰","STREET":"青年路","SECT":" ","MAREA":" ","LANE":"４７巷","ALLEY":" ","HOUSE_NO":"３０號","E_COORD97":168660.32000000001,"N_COORD97":2543735.4500000002,"ADDRESS":"青年路４７巷３０號","OBJECTID":423690},"geometry":{"x":168660.3200000003,"y":2543735.4499999974}},{"attributes":{"ID":423716,"DIS_CODE":0,"TOWNNAME":"中西區","LI":"青年里","LIN":"13鄰","STREET":"青年路","SECT":" ","MAREA":" ","LANE":"４７巷","ALLEY":" ","HOUSE_NO":"３２號","E_COORD97":168656.91,"N_COORD97":2543738.5099999998,"ADDRESS":"青年路４７巷３２號","OBJECTID":423691},"geometry":{"x":168656.91000000108,"y":2543738.5099999998}},{"attributes":{"ID":423717,"DIS_CODE":0,"TOWNNAME":"中西區","LI":"青年里","LIN":"13鄰","STREET":"青年路","SECT":" ","MAREA":" ","LANE":"４７巷","ALLEY":" ","HOUSE_NO":"３４號","E_COORD97":168666.44,"N_COORD97":2543743.0899999999,"ADDRESS":"青年路４７巷３４號","OBJECTID":423692},"geometry":{"x":168666.44000000041,"y":2543743.0900000017}},{"attributes":{"ID":423718,"DIS_CODE":0,"TOWNNAME":"中西區","LI":"永華里","LIN":" ","STREET":"開山路","SECT":" ","MAREA":" ","LANE":"８４巷","ALLEY":" ","HOUSE_NO":"２０號","E_COORD97":168659.37,"N_COORD97":2543371.5499999998,"ADDRESS":"開山路８４巷２０號","OBJECTID":423693},"geometry":{"x":168659.37000000011,"y":2543371.5500000026}},{"attributes":{"ID":423719,"DIS_CODE":0,"TOWNNAME":"中西區","LI":"永福里","LIN":" ","STREET":"永福路","SECT":"二段","MAREA":" ","LANE":"１５２巷","ALLEY":" ","HOUSE_NO":"９號","E_COORD97":168274.97,"N_COORD97":2543880.1699999999,"ADDRESS":"永福路二段１５２巷９號","OBJECTID":423694},"geometry":{"x":168274.97000000067,"y":2543880.1699999999}},{"attributes":{"ID":423720,"DIS_CODE":0,"TOWNNAME":"中西區","LI":"永福里","LIN":" ","STREET":"友愛街","SECT":" ","MAREA":" ","LANE":"４０巷","ALLEY":" ","HOUSE_NO":"１１號","E_COORD97":168095.64000000001,"N_COORD97":2543558.02,"ADDRESS":"友愛街４０巷１１號","OBJECTID":423695},"geometry":{"x":168095.6400000006,"y":2543558.0199999996}},{"attributes":{"ID":423721,"DIS_CODE":0,"TOWNNAME":"中西區","LI":"赤嵌里","LIN":" ","STREET":"忠義路","SECT":"二段","MAREA":" ","LANE":"２３３巷","ALLEY":" ","HOUSE_NO":"１３號","E_COORD97":168404.04999999999,"N_COORD97":2544267.4100000001,"ADDRESS":"忠義路二段２３３巷１３號","OBJECTID":423696},"geometry":{"x":168404.04999999981,"y":2544267.410000002}},{"attributes":{"ID":423722,"DIS_CODE":0,"TOWNNAME":"中西區","LI":"赤嵌里","LIN":" ","STREET":"忠義路","SECT":"二段","MAREA":" ","LANE":"２３３巷","ALLEY":" ","HOUSE_NO":"１１號","E_COORD97":168406.41,"N_COORD97":2544273.29,"ADDRESS":"忠義路二段２３３巷１１號","OBJECTID":423697},"geometry":{"x":168406.41000000108,"y":2544273.290000001}},{"attributes":{"ID":423723,"DIS_CODE":0,"TOWNNAME":"中西區","LI":"赤嵌里","LIN":" ","STREET":"忠義路","SECT":"二段","MAREA":" ","LANE":"２３３巷","ALLEY":" ","HOUSE_NO":"９號","E_COORD97":168409.94,"N_COORD97":2544284.4700000002,"ADDRESS":"忠義路二段２３３巷９號","OBJECTID":423698},"geometry":{"x":168409.94000000041,"y":2544284.4700000025}},{"attributes":{"ID":423724,"DIS_CODE":0,"TOWNNAME":"中西區","LI":"赤嵌里","LIN":" ","STREET":"忠義路","SECT":"二段","MAREA":" ","LANE":"２０２巷","ALLEY":" ","HOUSE_NO":"９號","E_COORD97":168482.73000000001,"N_COORD97":2544172.6600000001,"ADDRESS":"忠義路二段２０２巷９號","OBJECTID":423699},"geometry":{"x":168482.73000000045,"y":2544172.6600000039}},{"attributes":{"ID":423725,"DIS_CODE":0,"TOWNNAME":"中西區","LI":"三民里","LIN":" ","STREET":"忠義路","SECT":"二段","MAREA":" ","LANE":"８４巷","ALLEY":" ","HOUSE_NO":"１０之３號","E_COORD97":168369.45000000001,"N_COORD97":2543812.2799999998,"ADDRESS":"忠義路二段８４巷１０之３號","OBJECTID":423700},"geometry":{"x":168369.45000000019,"y":2543812.2800000012}},{"attributes":{"ID":423726,"DIS_CODE":0,"TOWNNAME":"中西區","LI":"三民里","LIN":" ","STREET":"中山路","SECT":" ","MAREA":" ","LANE":"２３巷","ALLEY":" ","HOUSE_NO":"５之２號","E_COORD97":168552.84,"N_COORD97":2543817.2400000002,"ADDRESS":"中山路２３巷５之２號","OBJECTID":423701},"geometry":{"x":168552.83999999985,"y":2543817.2400000021}},{"attributes":{"ID":423727,"DIS_CODE":0,"TOWNNAME":"中西區","LI":"三民里","LIN":" ","STREET":"忠義路","SECT":"二段","MAREA":" ","LANE":"８４巷","ALLEY":" ","HOUSE_NO":"２號","E_COORD97":168363.5,"N_COORD97":2543801.1899999999,"ADDRESS":"忠義路二段８４巷２號","OBJECTID":423702},"geometry":{"x":168363.5,"y":2543801.1899999995}},{"attributes":{"ID":423728,"DIS_CODE":0,"TOWNNAME":"中西區","LI":"三民里","LIN":" ","STREET":"中山路","SECT":" ","MAREA":" ","LANE":"２３巷","ALLEY":" ","HOUSE_NO":"４號","E_COORD97":168560.39999999999,"N_COORD97":2543804.3599999999,"ADDRESS":"中山路２３巷４號","OBJECTID":423703},"geometry":{"x":168560.4000000013,"y":2543804.3600000031}},{"attributes":{"ID":423729,"DIS_CODE":0,"TOWNNAME":"中西區","LI":"三民里","LIN":" ","STREET":"中山路","SECT":" ","MAREA":" ","LANE":"２３巷","ALLEY":" ","HOUSE_NO":"５號","E_COORD97":168555.22,"N_COORD97":2543809.79,"ADDRESS":"中山路２３巷５號","OBJECTID":423704},"geometry":{"x":168555.21999999974,"y":2543809.7899999991}},{"attributes":{"ID":423730,"DIS_CODE":0,"TOWNNAME":"中西區","LI":"三民里","LIN":" ","STREET":"民權路","SECT":"二段","MAREA":" ","LANE":"８３巷","ALLEY":" ","HOUSE_NO":"７之１號","E_COORD97":168492.26999999999,"N_COORD97":2543856.0499999998,"ADDRESS":"民權路二段８３巷７之１號","OBJECTID":423705},"geometry":{"x":168492.26999999862,"y":2543856.0500000026}},{"attributes":{"ID":423731,"DIS_CODE":0,"TOWNNAME":"中西區","LI":"三民里","LIN":" ","STREET":"忠義路","SECT":"二段","MAREA":" ","LANE":"１５８巷","ALLEY":" ","HOUSE_NO":"１０號","E_COORD97":168415.42000000001,"N_COORD97":2544041.9700000002,"ADDRESS":"忠義路二段１５８巷１０號","OBJECTID":423706},"geometry":{"x":168415.41999999899,"y":2544041.9699999988}},{"attributes":{"ID":423732,"DIS_CODE":0,"TOWNNAME":"中西區","LI":"三民里","LIN":" ","STREET":"中山路","SECT":" ","MAREA":" ","LANE":"７９巷","ALLEY":" ","HOUSE_NO":"４號","E_COORD97":168719.12,"N_COORD97":2543851.6699999999,"ADDRESS":"中山路７９巷４號","OBJECTID":423707},"geometry":{"x":168719.12000000011,"y":2543851.6700000018}},{"attributes":{"ID":423733,"DIS_CODE":0,"TOWNNAME":"中西區","LI":"小西里","LIN":" ","STREET":"府前路","SECT":"一段","MAREA":" ","LANE":"３５９巷","ALLEY":" ","HOUSE_NO":"２８號","E_COORD97":167910.98000000001,"N_COORD97":2543370.0099999998,"ADDRESS":"府前路一段３５９巷２８號","OBJECTID":423708},"geometry":{"x":167910.98000000138,"y":2543370.0100000016}},{"attributes":{"ID":423734,"DIS_CODE":0,"TOWNNAME":"中西區","LI":"小西里","LIN":" ","STREET":"府前路","SECT":"一段","MAREA":" ","LANE":"３５９巷","ALLEY":" ","HOUSE_NO":"１６號","E_COORD97":167900.48000000001,"N_COORD97":2543359.8300000001,"ADDRESS":"府前路一段３５９巷１６號","OBJECTID":423709},"geometry":{"x":167900.48000000138,"y":2543359.8300000001}},{"attributes":{"ID":423735,"DIS_CODE":0,"TOWNNAME":"新市區","LI":"港墘里","LIN":"25鄰","STREET":"華美街","SECT":" ","MAREA":" ","LANE":"２９巷","ALLEY":" ","HOUSE_NO":"８號","E_COORD97":178081.01000000001,"N_COORD97":2552878.7999999998,"ADDRESS":"華美街２９巷８號","OBJECTID":423710},"geometry":{"x":178081.01000000071,"y":2552878.8000000045}},{"attributes":{"ID":423736,"DIS_CODE":0,"TOWNNAME":"中西區","LI":"三民里","LIN":"17鄰","STREET":"民權路","SECT":"二段","MAREA":" ","LANE":"６４巷","ALLEY":" ","HOUSE_NO":"４２號","E_COORD97":168537.26999999999,"N_COORD97":2543986.7200000002,"ADDRESS":"民權路二段６４巷４２號","OBJECTID":423711},"geometry":{"x":168537.27000000048,"y":2543986.7200000025}},{"attributes":{"ID":423737,"DIS_CODE":0,"TOWNNAME":"中西區","LI":"公正里","LIN":" ","STREET":"衛民街","SECT":" ","MAREA":" ","LANE":"１０８巷","ALLEY":" ","HOUSE_NO":"２８號","E_COORD97":168899.76000000001,"N_COORD97":2543839.4100000001,"ADDRESS":"衛民街１０８巷２８號","OBJECTID":423712},"geometry":{"x":168899.76000000071,"y":2543839.410000002}},{"attributes":{"ID":423738,"DIS_CODE":0,"TOWNNAME":"中西區","LI":"公正里","LIN":" ","STREET":"民族路","SECT":"二段","MAREA":" ","LANE":"５７巷","ALLEY":" ","HOUSE_NO":"３４號","E_COORD97":169064.48999999999,"N_COORD97":2543780.7000000002,"ADDRESS":"民族路二段５７巷３４號","OBJECTID":423713},"geometry":{"x":169064.48999999929,"y":2543780.6999999993}},{"attributes":{"ID":423739,"DIS_CODE":0,"TOWNNAME":"中西區","LI":"天后里","LIN":" ","STREET":"西門路","SECT":" ","MAREA":" ","LANE":"３００巷","ALLEY":" ","HOUSE_NO":"１２號","E_COORD97":168007.10999999999,"N_COORD97":2544118.54,"ADDRESS":"西門路３００巷１２號","OBJECTID":423714},"geometry":{"x":168007.11000000034,"y":2544118.540000001}},{"attributes":{"ID":423740,"DIS_CODE":0,"TOWNNAME":"中西區","LI":"仙草里","LIN":" ","STREET":"府緯街","SECT":" ","MAREA":" ","LANE":"４巷","ALLEY":" ","HOUSE_NO":"４號","E_COORD97":167950.76999999999,"N_COORD97":2542768.3199999998,"ADDRESS":"府緯街４巷４號","OBJECTID":423715},"geometry":{"x":167950.77000000048,"y":2542768.3200000022}},{"attributes":{"ID":423741,"DIS_CODE":0,"TOWNNAME":"中西區","LI":"建國里","LIN":" ","STREET":"西門路","SECT":"二段","MAREA":" ","LANE":"２２８巷","ALLEY":" ","HOUSE_NO":"４號","E_COORD97":167947.92000000001,"N_COORD97":2543961.0099999998,"ADDRESS":"西門路二段２２８巷４號","OBJECTID":423716},"geometry":{"x":167947.92000000086,"y":2543961.0100000016}},{"attributes":{"ID":423742,"DIS_CODE":0,"TOWNNAME":"中西區","LI":"建國里","LIN":" ","STREET":"西門路","SECT":"二段","MAREA":" ","LANE":"２２８巷","ALLEY":" ","HOUSE_NO":"６號","E_COORD97":167957.51000000001,"N_COORD97":2543957.2200000002,"ADDRESS":"西門路二段２２８巷６號","OBJECTID":423717},"geometry":{"x":167957.51000000071,"y":2543957.2200000025}},{"attributes":{"ID":423743,"DIS_CODE":0,"TOWNNAME":"中西區","LI":"建國里","LIN":" ","STREET":"西門路","SECT":"二段","MAREA":" ","LANE":"２２８巷","ALLEY":" ","HOUSE_NO":"１６號","E_COORD97":167968.10999999999,"N_COORD97":2543952.23,"ADDRESS":"西門路二段２２８巷１６號","OBJECTID":423718},"geometry":{"x":167968.11000000034,"y":2543952.2300000042}},{"attributes":{"ID":423744,"DIS_CODE":0,"TOWNNAME":"中西區","LI":"建國里","LIN":" ","STREET":"民生路","SECT":"一段","MAREA":" ","LANE":"１８１巷","ALLEY":" ","HOUSE_NO":"２之１號","E_COORD97":167980.73999999999,"N_COORD97":2543853.21,"ADDRESS":"民生路一段１８１巷２之１號","OBJECTID":423719},"geometry":{"x":167980.74000000022,"y":2543853.2100000009}},{"attributes":{"ID":423745,"DIS_CODE":0,"TOWNNAME":"中西區","LI":"建國里","LIN":" ","STREET":"民生路","SECT":"一段","MAREA":" ","LANE":"２０５巷","ALLEY":" ","HOUSE_NO":"４號","E_COORD97":167934.59,"N_COORD97":2543861.8500000001,"ADDRESS":"民生路一段２０５巷４號","OBJECTID":423720},"geometry":{"x":167934.59000000171,"y":2543861.8499999996}},{"attributes":{"ID":423746,"DIS_CODE":0,"TOWNNAME":"中西區","LI":"郡王里","LIN":" ","STREET":"大埔街","SECT":" ","MAREA":" ","LANE":"５５巷","ALLEY":" ","HOUSE_NO":"１０號之１","E_COORD97":168864.39000000001,"N_COORD97":2543027.8900000001,"ADDRESS":"大埔街５５巷１０號之１","OBJECTID":423721},"geometry":{"x":168864.38999999966,"y":2543027.8900000006}},{"attributes":{"ID":423747,"DIS_CODE":0,"TOWNNAME":"中西區","LI":"開山里","LIN":" ","STREET":"開山路","SECT":" ","MAREA":" ","LANE":"２３５巷","ALLEY":" ","HOUSE_NO":"２２號","E_COORD97":169045.98000000001,"N_COORD97":2543003.5800000001,"ADDRESS":"開山路２３５巷２２號","OBJECTID":423722},"geometry":{"x":169045.98000000045,"y":2543003.5800000019}},{"attributes":{"ID":423748,"DIS_CODE":0,"TOWNNAME":"中西區","LI":"開山里","LIN":" ","STREET":"開山路","SECT":" ","MAREA":" ","LANE":"２３５巷","ALLEY":" ","HOUSE_NO":"６號","E_COORD97":169016,"N_COORD97":2542997.3300000001,"ADDRESS":"開山路２３５巷６號","OBJECTID":423723},"geometry":{"x":169016,"y":2542997.3300000001}},{"attributes":{"ID":423749,"DIS_CODE":0,"TOWNNAME":"中西區","LI":"福安里","LIN":" ","STREET":"永福路","SECT":"二段","MAREA":" ","LANE":"３５巷","ALLEY":" ","HOUSE_NO":"４８號","E_COORD97":167948.19,"N_COORD97":2543473.2000000002,"ADDRESS":"永福路二段３５巷４８號","OBJECTID":423724},"geometry":{"x":167948.19000000134,"y":2543473.2000000011}},{"attributes":{"ID":423750,"DIS_CODE":0,"TOWNNAME":"中西區","LI":" ","LIN":" ","STREET":"健康路","SECT":"一段","MAREA":" ","LANE":"２９６巷","ALLEY":" ","HOUSE_NO":"１２號之１","E_COORD97":168321.10999999999,"N_COORD97":2542509.9700000002,"ADDRESS":"健康路一段２９６巷１２號之１","OBJECTID":423725},"geometry":{"x":168321.11000000034,"y":2542509.9700000025}},{"attributes":{"ID":423751,"DIS_CODE":0,"TOWNNAME":"中西區","LI":"大南里","LIN":"4鄰","STREET":"南門路","SECT":" ","MAREA":" ","LANE":"６８巷","ALLEY":" ","HOUSE_NO":"１２號","E_COORD97":168293.89999999999,"N_COORD97":2542523.8599999999,"ADDRESS":"南門路６８巷１２號","OBJECTID":423726},"geometry":{"x":168293.90000000037,"y":2542523.8600000013}},{"attributes":{"ID":423752,"DIS_CODE":0,"TOWNNAME":"中西區","LI":"三合里","LIN":"14鄰","STREET":"信義街","SECT":" ","MAREA":" ","LANE":"１０８巷","ALLEY":" ","HOUSE_NO":"４２號","E_COORD97":167538.48999999999,"N_COORD97":2544667.2599999998,"ADDRESS":"信義街１０８巷４２號","OBJECTID":423727},"geometry":{"x":167538.49000000022,"y":2544667.2600000016}},{"attributes":{"ID":423753,"DIS_CODE":0,"TOWNNAME":"中西區","LI":"三合里","LIN":"14鄰","STREET":"信義街","SECT":" ","MAREA":" ","LANE":"１０８巷","ALLEY":" ","HOUSE_NO":"４０號","E_COORD97":167541.92000000001,"N_COORD97":2544665.6099999999,"ADDRESS":"信義街１０８巷４０號","OBJECTID":423728},"geometry":{"x":167541.91999999993,"y":2544665.6099999994}},{"attributes":{"ID":423754,"DIS_CODE":0,"TOWNNAME":"中西區","LI":"萬昌里","LIN":"19鄰","STREET":"青年路","SECT":" ","MAREA":" ","LANE":"１７２巷","ALLEY":" ","HOUSE_NO":"２之１號","E_COORD97":169020.51000000001,"N_COORD97":2543548.3399999999,"ADDRESS":"青年路１７２巷２之１號","OBJECTID":423729},"geometry":{"x":169020.51000000071,"y":2543548.3400000017}},{"attributes":{"ID":423755,"DIS_CODE":0,"TOWNNAME":"中西區","LI":"萬昌里","LIN":"11鄰","STREET":"民權路","SECT":"一段","MAREA":" ","LANE":"１６巷","ALLEY":" ","HOUSE_NO":"２之１號","E_COORD97":169120.82000000001,"N_COORD97":2543364.2400000002,"ADDRESS":"民權路一段１６巷２之１號","OBJECTID":423730},"geometry":{"x":169120.82000000123,"y":2543364.2400000002}},{"attributes":{"ID":423756,"DIS_CODE":0,"TOWNNAME":"中西區","LI":"中正里","LIN":"6鄰","STREET":"正興街","SECT":" ","MAREA":" ","LANE":"１１６巷","ALLEY":" ","HOUSE_NO":"８號","E_COORD97":167644.32999999999,"N_COORD97":2543891.3199999998,"ADDRESS":"正興街１１６巷８號","OBJECTID":423731},"geometry":{"x":167644.33000000007,"y":2543891.3200000022}},{"attributes":{"ID":423757,"DIS_CODE":0,"TOWNNAME":"中西區","LI":"光賢里","LIN":"21鄰","STREET":"中華西路","SECT":"二段","MAREA":" ","LANE":"６４６巷","ALLEY":" ","HOUSE_NO":"３２號","E_COORD97":166748.82999999999,"N_COORD97":2545125.0899999999,"ADDRESS":"中華西路二段６４６巷３２號","OBJECTID":423732},"geometry":{"x":166748.83000000101,"y":2545125.089999998}},{"attributes":{"ID":423758,"DIS_CODE":0,"TOWNNAME":"中西區","LI":"光賢里","LIN":"21鄰","STREET":"中華西路","SECT":"二段","MAREA":" ","LANE":"６４６巷","ALLEY":" ","HOUSE_NO":"４０號","E_COORD97":166761.92999999999,"N_COORD97":2545127.0499999998,"ADDRESS":"中華西路二段６４６巷４０號","OBJECTID":423733},"geometry":{"x":166761.9299999997,"y":2545127.0500000026}},{"attributes":{"ID":423759,"DIS_CODE":0,"TOWNNAME":"中西區","LI":"光賢里","LIN":"21鄰","STREET":"中華西路","SECT":"二段","MAREA":" ","LANE":"６４６巷","ALLEY":" ","HOUSE_NO":"４２號","E_COORD97":166766.26999999999,"N_COORD97":2545127.5699999998,"ADDRESS":"中華西路二段６４６巷４２號","OBJECTID":423734},"geometry":{"x":166766.26999999955,"y":2545127.5700000022}},{"attributes":{"ID":423760,"DIS_CODE":0,"TOWNNAME":"中西區","LI":"光賢里","LIN":"21鄰","STREET":"中華西路","SECT":"二段","MAREA":" ","LANE":"６４６巷","ALLEY":" ","HOUSE_NO":"４６號","E_COORD97":166771.14000000001,"N_COORD97":2545128.1000000001,"ADDRESS":"中華西路二段６４６巷４６號","OBJECTID":423735},"geometry":{"x":166771.14000000153,"y":2545128.0999999996}},{"attributes":{"ID":423761,"DIS_CODE":0,"TOWNNAME":"中西區","LI":"光賢里","LIN":"21鄰","STREET":"中華西路","SECT":"二段","MAREA":" ","LANE":"６４６巷","ALLEY":" ","HOUSE_NO":"４８號","E_COORD97":166776.42999999999,"N_COORD97":2545128.7400000002,"ADDRESS":"中華西路二段６４６巷４８號","OBJECTID":423736},"geometry":{"x":166776.43000000063,"y":2545128.7400000021}},{"attributes":{"ID":423762,"DIS_CODE":0,"TOWNNAME":"中西區","LI":"光賢里","LIN":"21鄰","STREET":"中華西路","SECT":"二段","MAREA":" ","LANE":"６４６巷","ALLEY":" ","HOUSE_NO":"５０號","E_COORD97":166781.39999999999,"N_COORD97":2545129.3700000001,"ADDRESS":"中華西路二段６４６巷５０號","OBJECTID":423737},"geometry":{"x":166781.40000000037,"y":2545129.3700000029}},{"attributes":{"ID":423763,"DIS_CODE":0,"TOWNNAME":"中西區","LI":"光賢里","LIN":"21鄰","STREET":"中華西路","SECT":"二段","MAREA":" ","LANE":"６４６巷","ALLEY":" ","HOUSE_NO":"５２號","E_COORD97":166786.35999999999,"N_COORD97":2545130.2000000002,"ADDRESS":"中華西路二段６４６巷５２號","OBJECTID":423738},"geometry":{"x":166786.36000000127,"y":2545130.1999999993}},{"attributes":{"ID":423764,"DIS_CODE":0,"TOWNNAME":"中西區","LI":"光賢里","LIN":"21鄰","STREET":"中華西路","SECT":"二段","MAREA":" ","LANE":"６４６巷","ALLEY":" ","HOUSE_NO":"５６號","E_COORD97":166791.35000000001,"N_COORD97":2545130.54,"ADDRESS":"中華西路二段６４６巷５６號","OBJECTID":423739},"geometry":{"x":166791.34999999963,"y":2545130.5399999991}},{"attributes":{"ID":423765,"DIS_CODE":0,"TOWNNAME":"中西區","LI":"光賢里","LIN":"21鄰","STREET":"中華西路","SECT":"二段","MAREA":" ","LANE":"６４６巷","ALLEY":" ","HOUSE_NO":"５８號","E_COORD97":166796.64000000001,"N_COORD97":2545131.3799999999,"ADDRESS":"中華西路二段６４６巷５８號","OBJECTID":423740},"geometry":{"x":166796.64000000153,"y":2545131.379999999}},{"attributes":{"ID":423766,"DIS_CODE":0,"TOWNNAME":"中西區","LI":"西賢里","LIN":"10鄰","STREET":"西賢一街","SECT":" ","MAREA":" ","LANE":"１４８巷","ALLEY":" ","HOUSE_NO":"５號","E_COORD97":165773.42999999999,"N_COORD97":2544756.1099999999,"ADDRESS":"西賢一街１４８巷５號","OBJECTID":423741},"geometry":{"x":165773.4299999997,"y":2544756.1100000013}},{"attributes":{"ID":423767,"DIS_CODE":0,"TOWNNAME":"中西區","LI":"西賢里","LIN":"13鄰","STREET":"西賢一街","SECT":" ","MAREA":" ","LANE":"２３０巷","ALLEY":" ","HOUSE_NO":"１０號","E_COORD97":165744.73000000001,"N_COORD97":2544936.3100000001,"ADDRESS":"西賢一街２３０巷１０號","OBJECTID":423742},"geometry":{"x":165744.73000000138,"y":2544936.3100000024}},{"attributes":{"ID":423768,"DIS_CODE":0,"TOWNNAME":"中西區","LI":"西湖里","LIN":"32鄰","STREET":"湖美二街","SECT":" ","MAREA":" ","LANE":"１４２巷","ALLEY":" ","HOUSE_NO":"２０號","E_COORD97":166275,"N_COORD97":2545035.4100000001,"ADDRESS":"湖美二街１４２巷２０號","OBJECTID":423743},"geometry":{"x":166275,"y":2545035.4100000039}},{"attributes":{"ID":423769,"DIS_CODE":0,"TOWNNAME":"中西區","LI":"西湖里","LIN":"32鄰","STREET":"湖美二街","SECT":" ","MAREA":" ","LANE":"１４２巷","ALLEY":" ","HOUSE_NO":"２０之１號","E_COORD97":166274.5,"N_COORD97":2545027.54,"ADDRESS":"湖美二街１４２巷２０之１號","OBJECTID":423744},"geometry":{"x":166274.50000000093,"y":2545027.540000001}},{"attributes":{"ID":423770,"DIS_CODE":0,"TOWNNAME":"中西區","LI":"西湖里","LIN":"32鄰","STREET":"湖美二街","SECT":" ","MAREA":" ","LANE":"１４２巷","ALLEY":" ","HOUSE_NO":"１８號","E_COORD97":166258.48999999999,"N_COORD97":2545027.7999999998,"ADDRESS":"湖美二街１４２巷１８號","OBJECTID":423745},"geometry":{"x":166258.49000000022,"y":2545027.8000000026}},{"attributes":{"ID":423771,"DIS_CODE":0,"TOWNNAME":"中西區","LI":"西湖里","LIN":"32鄰","STREET":"湖美二街","SECT":" ","MAREA":" ","LANE":"１４２巷","ALLEY":" ","HOUSE_NO":"１８之１號","E_COORD97":166258.23999999999,"N_COORD97":2545020.9399999999,"ADDRESS":"湖美二街１４２巷１８之１號","OBJECTID":423746},"geometry":{"x":166258.24000000022,"y":2545020.9400000032}},{"attributes":{"ID":423772,"DIS_CODE":0,"TOWNNAME":"中西區","LI":"西湖里","LIN":"32鄰","STREET":"湖美二街","SECT":" ","MAREA":" ","LANE":"１４２巷","ALLEY":" ","HOUSE_NO":"１８之２號","E_COORD97":166257.48000000001,"N_COORD97":2545014.3300000001,"ADDRESS":"湖美二街１４２巷１８之２號","OBJECTID":423747},"geometry":{"x":166257.48000000045,"y":2545014.3300000001}},{"attributes":{"ID":423773,"DIS_CODE":0,"TOWNNAME":"中西區","LI":"西湖里","LIN":"32鄰","STREET":"湖美二街","SECT":" ","MAREA":" ","LANE":"１４２巷","ALLEY":" ","HOUSE_NO":"２０之２號","E_COORD97":166273.73000000001,"N_COORD97":2545019.9199999999,"ADDRESS":"湖美二街１４２巷２０之２號","OBJECTID":423748},"geometry":{"x":166273.73000000138,"y":2545019.9199999999}},{"attributes":{"ID":423774,"DIS_CODE":0,"TOWNNAME":"新市區","LI":"新和里","LIN":"42鄰","STREET":"勝利街","SECT":" ","MAREA":" ","LANE":"１２巷","ALLEY":" ","HOUSE_NO":"７號","E_COORD97":177367.81,"N_COORD97":2552984.2599999998,"ADDRESS":"勝利街１２巷７號","OBJECTID":423749},"geometry":{"x":177367.80999999959,"y":2552984.2600000016}},{"attributes":{"ID":423775,"DIS_CODE":0,"TOWNNAME":"新市區","LI":"新市里","LIN":"18鄰","STREET":"和平街","SECT":" ","MAREA":" ","LANE":"１５巷","ALLEY":" ","HOUSE_NO":"３號","E_COORD97":177759.79000000001,"N_COORD97":2553432.75,"ADDRESS":"和平街１５巷３號","OBJECTID":423750},"geometry":{"x":177759.79000000004,"y":2553432.75}},{"attributes":{"ID":423776,"DIS_CODE":0,"TOWNNAME":"新市區","LI":"新和里","LIN":"38鄰","STREET":"成功街","SECT":" ","MAREA":" ","LANE":"７７巷","ALLEY":" ","HOUSE_NO":"７號","E_COORD97":177460.76999999999,"N_COORD97":2552823.02,"ADDRESS":"成功街７７巷７號","OBJECTID":423751},"geometry":{"x":177460.77000000048,"y":2552823.0200000014}},{"attributes":{"ID":423777,"DIS_CODE":0,"TOWNNAME":"新市區","LI":"新市里","LIN":"18鄰","STREET":"和平街","SECT":" ","MAREA":" ","LANE":"１５巷","ALLEY":" ","HOUSE_NO":"５號","E_COORD97":177760.26000000001,"N_COORD97":2553428.75,"ADDRESS":"和平街１５巷５號","OBJECTID":423752},"geometry":{"x":177760.26000000164,"y":2553428.7500000019}},{"attributes":{"ID":423778,"DIS_CODE":0,"TOWNNAME":"新市區","LI":"新和里","LIN":"39鄰","STREET":"中正路","SECT":" ","MAREA":" ","LANE":"２６８巷","ALLEY":" ","HOUSE_NO":"１４號","E_COORD97":177504.76999999999,"N_COORD97":2553025.75,"ADDRESS":"中正路２６８巷１４號","OBJECTID":423753},"geometry":{"x":177504.77000000048,"y":2553025.75}},{"attributes":{"ID":423779,"DIS_CODE":0,"TOWNNAME":"新市區","LI":"新市里","LIN":"4鄰","STREET":"華興街","SECT":" ","MAREA":" ","LANE":"５２巷","ALLEY":" ","HOUSE_NO":"２號","E_COORD97":177709.53,"N_COORD97":2553023.5,"ADDRESS":"華興街５２巷２號","OBJECTID":423754},"geometry":{"x":177709.53000000026,"y":2553023.5000000019}},{"attributes":{"ID":423780,"DIS_CODE":0,"TOWNNAME":"新市區","LI":"新和里","LIN":"46鄰","STREET":"和平街","SECT":" ","MAREA":" ","LANE":"２１２巷","ALLEY":" ","HOUSE_NO":"９號","E_COORD97":177320.39000000001,"N_COORD97":2553240.5,"ADDRESS":"和平街２１２巷９號","OBJECTID":423755},"geometry":{"x":177320.3900000006,"y":2553240.5000000019}},{"attributes":{"ID":423781,"DIS_CODE":0,"TOWNNAME":"新市區","LI":"港墘里","LIN":"24鄰","STREET":"光華街","SECT":" ","MAREA":" ","LANE":"１５４巷","ALLEY":" ","HOUSE_NO":"１０號","E_COORD97":177921.07000000001,"N_COORD97":2552853,"ADDRESS":"光華街１５４巷１０號","OBJECTID":423756},"geometry":{"x":177921.0700000003,"y":2552853.0000000037}},{"attributes":{"ID":423782,"DIS_CODE":0,"TOWNNAME":"新市區","LI":"港墘里","LIN":"24鄰","STREET":"光華街","SECT":" ","MAREA":" ","LANE":"１５４巷","ALLEY":" ","HOUSE_NO":"４０號","E_COORD97":177933.95999999999,"N_COORD97":2552920,"ADDRESS":"光華街１５４巷４０號","OBJECTID":423757},"geometry":{"x":177933.96000000089,"y":2552920}},{"attributes":{"ID":423783,"DIS_CODE":0,"TOWNNAME":"新市區","LI":"港墘里","LIN":"4鄰","STREET":"三民街","SECT":" ","MAREA":" ","LANE":"７８巷","ALLEY":" ","HOUSE_NO":"５號","E_COORD97":178429.95999999999,"N_COORD97":2553487.54,"ADDRESS":"三民街７８巷５號","OBJECTID":423758},"geometry":{"x":178429.95999999996,"y":2553487.5399999991}},{"attributes":{"ID":423784,"DIS_CODE":0,"TOWNNAME":"新市區","LI":"港墘里","LIN":"5鄰","STREET":"民族路","SECT":" ","MAREA":" ","LANE":"９９巷","ALLEY":" ","HOUSE_NO":"１２號","E_COORD97":178350.89999999999,"N_COORD97":2553587.79,"ADDRESS":"民族路９９巷１２號","OBJECTID":423759},"geometry":{"x":178350.90000000037,"y":2553587.7899999991}},{"attributes":{"ID":423785,"DIS_CODE":0,"TOWNNAME":"新市區","LI":"港墘里","LIN":"4鄰","STREET":"三民街","SECT":" ","MAREA":" ","LANE":"７８巷","ALLEY":" ","HOUSE_NO":"１２號","E_COORD97":178458.54000000001,"N_COORD97":2553474.54,"ADDRESS":"三民街７８巷１２號","OBJECTID":423760},"geometry":{"x":178458.54000000004,"y":2553474.5399999991}},{"attributes":{"ID":423786,"DIS_CODE":0,"TOWNNAME":"新市區","LI":"港墘里","LIN":"24鄰","STREET":"光華街","SECT":" ","MAREA":" ","LANE":"１５４巷","ALLEY":" ","HOUSE_NO":"３６號","E_COORD97":177932.56,"N_COORD97":2552912.25,"ADDRESS":"光華街１５４巷３６號","OBJECTID":423761},"geometry":{"x":177932.55999999866,"y":2552912.2500000037}},{"attributes":{"ID":423787,"DIS_CODE":0,"TOWNNAME":"新市區","LI":"港墘里","LIN":"24鄰","STREET":"光華街","SECT":" ","MAREA":" ","LANE":"１５４巷","ALLEY":" ","HOUSE_NO":"１８號","E_COORD97":177926.31,"N_COORD97":2552876.25,"ADDRESS":"光華街１５４巷１８號","OBJECTID":423762},"geometry":{"x":177926.31000000052,"y":2552876.2500000019}},{"attributes":{"ID":423788,"DIS_CODE":0,"TOWNNAME":"新市區","LI":"港墘里","LIN":"4鄰","STREET":"三民街","SECT":" ","MAREA":" ","LANE":"１１２巷","ALLEY":" ","HOUSE_NO":"７號","E_COORD97":178335.39000000001,"N_COORD97":2553532.54,"ADDRESS":"三民街１１２巷７號","OBJECTID":423763},"geometry":{"x":178335.38999999966,"y":2553532.5399999991}},{"attributes":{"ID":423789,"DIS_CODE":0,"TOWNNAME":"新市區","LI":"港墘里","LIN":"25鄰","STREET":"華美街","SECT":" ","MAREA":" ","LANE":"２９巷","ALLEY":" ","HOUSE_NO":"１４號","E_COORD97":178024.39999999999,"N_COORD97":2552865.2999999998,"ADDRESS":"華美街２９巷１４號","OBJECTID":423764},"geometry":{"x":178024.40000000224,"y":2552865.3000000045}},{"attributes":{"ID":423790,"DIS_CODE":0,"TOWNNAME":"新市區","LI":"港墘里","LIN":"4鄰","STREET":"三民街","SECT":" ","MAREA":" ","LANE":"７８巷","ALLEY":" ","HOUSE_NO":"１號","E_COORD97":178419.48999999999,"N_COORD97":2553470.29,"ADDRESS":"三民街７８巷１號","OBJECTID":423765},"geometry":{"x":178419.49000000115,"y":2553470.2900000028}},{"attributes":{"ID":423791,"DIS_CODE":0,"TOWNNAME":"新市區","LI":"港墘里","LIN":"5鄰","STREET":"民族路","SECT":" ","MAREA":" ","LANE":"９９巷","ALLEY":" ","HOUSE_NO":"４號","E_COORD97":178337.29000000001,"N_COORD97":2553600.04,"ADDRESS":"民族路９９巷４號","OBJECTID":423766},"geometry":{"x":178337.29000000097,"y":2553600.0399999991}},{"attributes":{"ID":423792,"DIS_CODE":0,"TOWNNAME":"新市區","LI":"港墘里","LIN":"5鄰","STREET":"民族路","SECT":" ","MAREA":" ","LANE":"９７巷","ALLEY":" ","HOUSE_NO":"１號","E_COORD97":178382.54999999999,"N_COORD97":2553636.79,"ADDRESS":"民族路９７巷１號","OBJECTID":423767},"geometry":{"x":178382.55000000075,"y":2553636.790000001}},{"attributes":{"ID":423793,"DIS_CODE":0,"TOWNNAME":"新市區","LI":"港墘里","LIN":"25鄰","STREET":"華美街","SECT":" ","MAREA":" ","LANE":"２９巷","ALLEY":" ","HOUSE_NO":"１３號","E_COORD97":178027.84,"N_COORD97":2552859.0499999998,"ADDRESS":"華美街２９巷１３號","OBJECTID":423768},"geometry":{"x":178027.84000000078,"y":2552859.0500000007}},{"attributes":{"ID":423794,"DIS_CODE":0,"TOWNNAME":"新市區","LI":"港墘里","LIN":"25鄰","STREET":"華美街","SECT":" ","MAREA":" ","LANE":"２９巷","ALLEY":" ","HOUSE_NO":"１０號","E_COORD97":178060.42000000001,"N_COORD97":2552889.2999999998,"ADDRESS":"華美街２９巷１０號","OBJECTID":423769},"geometry":{"x":178060.41999999993,"y":2552889.3000000026}},{"attributes":{"ID":423795,"DIS_CODE":0,"TOWNNAME":"新市區","LI":"港墘里","LIN":"24鄰","STREET":"光華街","SECT":" ","MAREA":" ","LANE":"１５４巷","ALLEY":" ","HOUSE_NO":"３４號","E_COORD97":177932.01000000001,"N_COORD97":2552908.25,"ADDRESS":"光華街１５４巷３４號","OBJECTID":423770},"geometry":{"x":177932.01000000071,"y":2552908.25}},{"attributes":{"ID":423796,"DIS_CODE":0,"TOWNNAME":"新市區","LI":"港墘里","LIN":"25鄰","STREET":"華美街","SECT":" ","MAREA":" ","LANE":"２９巷","ALLEY":" ","HOUSE_NO":"２號","E_COORD97":178134.17000000001,"N_COORD97":2552881.5499999998,"ADDRESS":"華美街２９巷２號","OBJECTID":423771},"geometry":{"x":178134.17000000086,"y":2552881.5500000026}},{"attributes":{"ID":423797,"DIS_CODE":0,"TOWNNAME":"新市區","LI":"港墘里","LIN":"4鄰","STREET":"三民街","SECT":" ","MAREA":" ","LANE":"７８巷","ALLEY":" ","HOUSE_NO":"７號","E_COORD97":178432.62,"N_COORD97":2553491.54,"ADDRESS":"三民街７８巷７號","OBJECTID":423772},"geometry":{"x":178432.62000000011,"y":2553491.5399999991}},{"attributes":{"ID":423798,"DIS_CODE":0,"TOWNNAME":"新市區","LI":"港墘里","LIN":"24鄰","STREET":"光華街","SECT":" ","MAREA":" ","LANE":"１５４巷","ALLEY":" ","HOUSE_NO":"８號","E_COORD97":177917.95000000001,"N_COORD97":2552849,"ADDRESS":"光華街１５４巷８號","OBJECTID":423773},"geometry":{"x":177917.95000000112,"y":2552849}},{"attributes":{"ID":423799,"DIS_CODE":0,"TOWNNAME":"新市區","LI":"港墘里","LIN":"26鄰","STREET":"華美街","SECT":" ","MAREA":" ","LANE":"３０巷","ALLEY":" ","HOUSE_NO":"１０號","E_COORD97":178182.82000000001,"N_COORD97":2552905.7999999998,"ADDRESS":"華美街３０巷１０號","OBJECTID":423774},"geometry":{"x":178182.82000000123,"y":2552905.8000000045}},{"attributes":{"ID":423800,"DIS_CODE":0,"TOWNNAME":"新市區","LI":"港墘里","LIN":"18鄰","STREET":"華美街","SECT":" ","MAREA":" ","LANE":"１巷","ALLEY":" ","HOUSE_NO":"１３號","E_COORD97":178062.45000000001,"N_COORD97":2552666.0499999998,"ADDRESS":"華美街１巷１３號","OBJECTID":423775},"geometry":{"x":178062.45000000019,"y":2552666.0500000007}},{"attributes":{"ID":423801,"DIS_CODE":0,"TOWNNAME":"新市區","LI":"港墘里","LIN":"25鄰","STREET":"華美街","SECT":" ","MAREA":" ","LANE":"２９巷","ALLEY":" ","HOUSE_NO":"９號","E_COORD97":178046.26000000001,"N_COORD97":2552865.0499999998,"ADDRESS":"華美街２９巷９號","OBJECTID":423776},"geometry":{"x":178046.25999999978,"y":2552865.0500000026}},{"attributes":{"ID":423802,"DIS_CODE":0,"TOWNNAME":"新市區","LI":"港墘里","LIN":"4鄰","STREET":"三民街","SECT":" ","MAREA":" ","LANE":"１１２巷","ALLEY":" ","HOUSE_NO":"２之１號","E_COORD97":178342.39000000001,"N_COORD97":2553507.0499999998,"ADDRESS":"三民街１１２巷２之１號","OBJECTID":423777},"geometry":{"x":178342.39000000153,"y":2553507.0500000007}},{"attributes":{"ID":423803,"DIS_CODE":0,"TOWNNAME":"新市區","LI":"港墘里","LIN":"4鄰","STREET":"三民街","SECT":" ","MAREA":" ","LANE":"１１２巷","ALLEY":" ","HOUSE_NO":"９號","E_COORD97":178337.39000000001,"N_COORD97":2553535.79,"ADDRESS":"三民街１１２巷９號","OBJECTID":423778},"geometry":{"x":178337.39000000153,"y":2553535.790000001}},{"attributes":{"ID":423804,"DIS_CODE":0,"TOWNNAME":"新市區","LI":"港墘里","LIN":"26鄰","STREET":"華美街","SECT":" ","MAREA":" ","LANE":"３０巷","ALLEY":" ","HOUSE_NO":"７號","E_COORD97":178198.56,"N_COORD97":2552914.2999999998,"ADDRESS":"華美街３０巷７號","OBJECTID":423779},"geometry":{"x":178198.55999999959,"y":2552914.3000000007}},{"attributes":{"ID":423805,"DIS_CODE":0,"TOWNNAME":"新市區","LI":"港墘里","LIN":"25鄰","STREET":"華美街","SECT":" ","MAREA":" ","LANE":"２９巷","ALLEY":" ","HOUSE_NO":"６號","E_COORD97":178101.56,"N_COORD97":2552886.0499999998,"ADDRESS":"華美街２９巷６號","OBJECTID":423780},"geometry":{"x":178101.55999999959,"y":2552886.0500000007}},{"attributes":{"ID":423806,"DIS_CODE":0,"TOWNNAME":"新市區","LI":"港墘里","LIN":"24鄰","STREET":"光華街","SECT":" ","MAREA":" ","LANE":"１５４巷","ALLEY":" ","HOUSE_NO":"２０號","E_COORD97":177926.85000000001,"N_COORD97":2552880.5,"ADDRESS":"光華街１５４巷２０號","OBJECTID":423781},"geometry":{"x":177926.84999999963,"y":2552880.5000000019}},{"attributes":{"ID":423807,"DIS_CODE":0,"TOWNNAME":"新市區","LI":"港墘里","LIN":"18鄰","STREET":"華美街","SECT":" ","MAREA":" ","LANE":"１巷","ALLEY":" ","HOUSE_NO":"１號","E_COORD97":178107.06,"N_COORD97":2552674.2999999998,"ADDRESS":"華美街１巷１號","OBJECTID":423782},"geometry":{"x":178107.05999999959,"y":2552674.3000000007}},{"attributes":{"ID":423808,"DIS_CODE":0,"TOWNNAME":"新市區","LI":"港墘里","LIN":"18鄰","STREET":"華美街","SECT":" ","MAREA":" ","LANE":"１巷","ALLEY":" ","HOUSE_NO":"６號","E_COORD97":178089.10000000001,"N_COORD97":2552672.2999999998,"ADDRESS":"華美街１巷６號","OBJECTID":423783},"geometry":{"x":178089.10000000056,"y":2552672.3000000026}},{"attributes":{"ID":423809,"DIS_CODE":0,"TOWNNAME":"新市區","LI":"港墘里","LIN":"18鄰","STREET":"華美街","SECT":" ","MAREA":" ","LANE":"１巷","ALLEY":" ","HOUSE_NO":"１０號","E_COORD97":178075.10000000001,"N_COORD97":2552668.2999999998,"ADDRESS":"華美街１巷１０號","OBJECTID":423784},"geometry":{"x":178075.10000000056,"y":2552668.2999999989}},{"attributes":{"ID":423810,"DIS_CODE":0,"TOWNNAME":"新市區","LI":"港墘里","LIN":"24鄰","STREET":"光華街","SECT":" ","MAREA":" ","LANE":"１５４巷","ALLEY":" ","HOUSE_NO":"４６號","E_COORD97":177937.20000000001,"N_COORD97":2552943.25,"ADDRESS":"光華街１５４巷４６號","OBJECTID":423785},"geometry":{"x":177937.20000000019,"y":2552943.2500000019}},{"attributes":{"ID":423811,"DIS_CODE":0,"TOWNNAME":"新市區","LI":"港墘里","LIN":"4鄰","STREET":"三民街","SECT":" ","MAREA":" ","LANE":"７８巷","ALLEY":" ","HOUSE_NO":"２９號","E_COORD97":178479.62,"N_COORD97":2553542.04,"ADDRESS":"三民街７８巷２９號","OBJECTID":423786},"geometry":{"x":178479.62000000011,"y":2553542.0399999991}},{"attributes":{"ID":423812,"DIS_CODE":0,"TOWNNAME":"新市區","LI":"港墘里","LIN":"20鄰","STREET":"光華街","SECT":" ","MAREA":" ","LANE":"１５２巷","ALLEY":" ","HOUSE_NO":"６號","E_COORD97":177942.39999999999,"N_COORD97":2552812,"ADDRESS":"光華街１５２巷６號","OBJECTID":423787},"geometry":{"x":177942.40000000037,"y":2552812.0000000037}},{"attributes":{"ID":423813,"DIS_CODE":0,"TOWNNAME":"新市區","LI":"港墘里","LIN":"24鄰","STREET":"光華街","SECT":" ","MAREA":" ","LANE":"１５４巷","ALLEY":" ","HOUSE_NO":"２２號","E_COORD97":177927.64999999999,"N_COORD97":2552884.5,"ADDRESS":"光華街１５４巷２２號","OBJECTID":423788},"geometry":{"x":177927.65000000037,"y":2552884.5000000019}},{"attributes":{"ID":423814,"DIS_CODE":0,"TOWNNAME":"新市區","LI":"港墘里","LIN":"4鄰","STREET":"三民街","SECT":" ","MAREA":" ","LANE":"７８巷","ALLEY":" ","HOUSE_NO":"６號","E_COORD97":178445.48999999999,"N_COORD97":2553456.29,"ADDRESS":"三民街７８巷６號","OBJECTID":423789},"geometry":{"x":178445.49000000022,"y":2553456.2899999991}},{"attributes":{"ID":423815,"DIS_CODE":0,"TOWNNAME":"新市區","LI":"港墘里","LIN":"25鄰","STREET":"華美街","SECT":" ","MAREA":" ","LANE":"２９巷","ALLEY":" ","HOUSE_NO":"１２號","E_COORD97":178043.37,"N_COORD97":2552877.54,"ADDRESS":"華美街２９巷１２號","OBJECTID":423790},"geometry":{"x":178043.37000000104,"y":2552877.5399999991}},{"attributes":{"ID":423816,"DIS_CODE":0,"TOWNNAME":"新市區","LI":"港墘里","LIN":"4鄰","STREET":"三民街","SECT":" ","MAREA":" ","LANE":"１１２巷","ALLEY":" ","HOUSE_NO":"１１號","E_COORD97":178342.89999999999,"N_COORD97":2553544.79,"ADDRESS":"三民街１１２巷１１號","OBJECTID":423791},"geometry":{"x":178342.90000000037,"y":2553544.7900000028}},{"attributes":{"ID":423817,"DIS_CODE":0,"TOWNNAME":"安南區","LI":"安富里","LIN":"35鄰","STREET":"海佃路","SECT":"一段","MAREA":" ","LANE":"１５８巷","ALLEY":" ","HOUSE_NO":"１３６號","E_COORD97":167655.57000000001,"N_COORD97":2547262.98,"ADDRESS":"海佃路一段１５８巷１３６號","OBJECTID":423792},"geometry":{"x":167655.57000000123,"y":2547262.9800000023}},{"attributes":{"ID":423818,"DIS_CODE":0,"TOWNNAME":"安南區","LI":"安富里","LIN":"35鄰","STREET":"海佃路","SECT":"一段","MAREA":" ","LANE":"１５８巷","ALLEY":" ","HOUSE_NO":"１３８號","E_COORD97":167660.14000000001,"N_COORD97":2547260.3199999998,"ADDRESS":"海佃路一段１５８巷１３８號","OBJECTID":423793},"geometry":{"x":167660.1400000006,"y":2547260.320000004}},{"attributes":{"ID":423819,"DIS_CODE":0,"TOWNNAME":"安南區","LI":"安富里","LIN":"35鄰","STREET":"海佃路","SECT":"一段","MAREA":" ","LANE":"１５８巷","ALLEY":" ","HOUSE_NO":"１４０號","E_COORD97":167663.57000000001,"N_COORD97":2547263.7400000002,"ADDRESS":"海佃路一段１５８巷１４０號","OBJECTID":423794},"geometry":{"x":167663.5700000003,"y":2547263.7400000002}},{"attributes":{"ID":423820,"DIS_CODE":0,"TOWNNAME":"安南區","LI":"安富里","LIN":"35鄰","STREET":"海佃路","SECT":"一段","MAREA":" ","LANE":"１５８巷","ALLEY":" ","HOUSE_NO":"１４２號","E_COORD97":167668.51999999999,"N_COORD97":2547260.3199999998,"ADDRESS":"海佃路一段１５８巷１４２號","OBJECTID":423795},"geometry":{"x":167668.52000000142,"y":2547260.320000004}},{"attributes":{"ID":423821,"DIS_CODE":0,"TOWNNAME":"安南區","LI":"安富里","LIN":"35鄰","STREET":"海佃路","SECT":"一段","MAREA":" ","LANE":"１５８巷","ALLEY":" ","HOUSE_NO":"１５２號","E_COORD97":167693.34,"N_COORD97":2547279.0499999998,"ADDRESS":"海佃路一段１５８巷１５２號","OBJECTID":423796},"geometry":{"x":167693.33999999985,"y":2547279.0500000007}},{"attributes":{"ID":423822,"DIS_CODE":0,"TOWNNAME":"安南區","LI":"頂安里","LIN":"20鄰","STREET":"長溪路","SECT":"一段","MAREA":" ","LANE":"４０７巷","ALLEY":" ","HOUSE_NO":"６９號","E_COORD97":168587.73000000001,"N_COORD97":2548755.7599999998,"ADDRESS":"長溪路一段４０７巷６９號","OBJECTID":423797},"geometry":{"x":168587.73000000045,"y":2548755.7600000016}},{"attributes":{"ID":423823,"DIS_CODE":0,"TOWNNAME":"安南區","LI":"頂安里","LIN":"20鄰","STREET":"長溪路","SECT":"一段","MAREA":" ","LANE":"４０７巷","ALLEY":" ","HOUSE_NO":"７１號","E_COORD97":168592.42999999999,"N_COORD97":2548754.75,"ADDRESS":"長溪路一段４０７巷７１號","OBJECTID":423798},"geometry":{"x":168592.4299999997,"y":2548754.75}},{"attributes":{"ID":423824,"DIS_CODE":0,"TOWNNAME":"安南區","LI":"頂安里","LIN":"20鄰","STREET":"長溪路","SECT":"一段","MAREA":" ","LANE":"４０７巷","ALLEY":" ","HOUSE_NO":"７３號","E_COORD97":168597.47,"N_COORD97":2548752.7400000002,"ADDRESS":"長溪路一段４０７巷７３號","OBJECTID":423799},"geometry":{"x":168597.46999999974,"y":2548752.7400000021}},{"attributes":{"ID":423825,"DIS_CODE":0,"TOWNNAME":"安南區","LI":"頂安里","LIN":"20鄰","STREET":"長溪路","SECT":"一段","MAREA":" ","LANE":"４０７巷","ALLEY":" ","HOUSE_NO":"７５號","E_COORD97":168601.16,"N_COORD97":2548751.3999999999,"ADDRESS":"長溪路一段４０７巷７５號","OBJECTID":423800},"geometry":{"x":168601.16000000108,"y":2548751.4000000041}}]}