{"displayFieldName":"TOWNNAME","fieldAliases":{"ID":"ID","DIS_CODE":"DIS_CODE","TOWNNAME":"TOWNNAME","LI":"LI","LIN":"LIN","STREET":"STREET","SECT":"SECT","MAREA":"MAREA","LANE":"LANE","ALLEY":"ALLEY","HOUSE_NO":"HOUSE_NO","E_COORD97":"E_COORD97","N_COORD97":"N_COORD97","ADDRESS":"ADDRESS","OBJECTID":"OBJECTID"},"geometryType":"esriGeometryPoint","spatialReference":{"wkid":102443,"latestWkid":3826},"fields":[{"name":"ID","type":"esriFieldTypeDouble","alias":"ID"},{"name":"DIS_CODE","type":"esriFieldTypeInteger","alias":"DIS_CODE"},{"name":"TOWNNAME","type":"esriFieldTypeString","alias":"TOWNNAME","length":8},{"name":"LI","type":"esriFieldTypeString","alias":"LI","length":8},{"name":"LIN","type":"esriFieldTypeString","alias":"LIN","length":12},{"name":"STREET","type":"esriFieldTypeString","alias":"STREET","length":20},{"name":"SECT","type":"esriFieldTypeString","alias":"SECT","length":8},{"name":"MAREA","type":"esriFieldTypeString","alias":"MAREA","length":12},{"name":"LANE","type":"esriFieldTypeString","alias":"LANE","length":10},{"name":"ALLEY","type":"esriFieldTypeString","alias":"ALLEY","length":10},{"name":"HOUSE_NO","type":"esriFieldTypeString","alias":"HOUSE_NO","length":20},{"name":"E_COORD97","type":"esriFieldTypeDouble","alias":"E_COORD97"},{"name":"N_COORD97","type":"esriFieldTypeDouble","alias":"N_COORD97"},{"name":"ADDRESS","type":"esriFieldTypeString","alias":"ADDRESS","length":50},{"name":"OBJECTID","type":"esriFieldTypeOID","alias":"OBJECTID"}],"features":[{"attributes":{"ID":459826,"DIS_CODE":0,"TOWNNAME":"東區","LI":"路東里","LIN":"13鄰","STREET":"林森路","SECT":"一段","MAREA":" ","LANE":" ","ALLEY":" ","HOUSE_NO":"１３２號八樓之１","E_COORD97":169417.22,"N_COORD97":2542428.8700000001,"ADDRESS":"林森路一段１３２號八樓之１","OBJECTID":459801},"geometry":{"x":169417.22000000067,"y":2542428.870000001}},{"attributes":{"ID":459827,"DIS_CODE":0,"TOWNNAME":"東區","LI":"路東里","LIN":"13鄰","STREET":"林森路","SECT":"一段","MAREA":" ","LANE":" ","ALLEY":" ","HOUSE_NO":"１３２號八樓之２","E_COORD97":169417.22,"N_COORD97":2542428.8700000001,"ADDRESS":"林森路一段１３２號八樓之２","OBJECTID":459802},"geometry":{"x":169417.22000000067,"y":2542428.870000001}},{"attributes":{"ID":459828,"DIS_CODE":0,"TOWNNAME":"東區","LI":"路東里","LIN":"13鄰","STREET":"林森路","SECT":"一段","MAREA":" ","LANE":" ","ALLEY":" ","HOUSE_NO":"１３２號八樓之３","E_COORD97":169417.22,"N_COORD97":2542428.8700000001,"ADDRESS":"林森路一段１３２號八樓之３","OBJECTID":459803},"geometry":{"x":169417.22000000067,"y":2542428.870000001}},{"attributes":{"ID":459829,"DIS_CODE":0,"TOWNNAME":"東區","LI":"路東里","LIN":"13鄰","STREET":"林森路","SECT":"一段","MAREA":" ","LANE":" ","ALLEY":" ","HOUSE_NO":"１３２號八樓之４","E_COORD97":169417.22,"N_COORD97":2542428.8700000001,"ADDRESS":"林森路一段１３２號八樓之４","OBJECTID":459804},"geometry":{"x":169417.22000000067,"y":2542428.870000001}},{"attributes":{"ID":459830,"DIS_CODE":0,"TOWNNAME":"東區","LI":"路東里","LIN":"13鄰","STREET":"林森路","SECT":"一段","MAREA":" ","LANE":" ","ALLEY":" ","HOUSE_NO":"１３２號十一樓","E_COORD97":169417.22,"N_COORD97":2542428.8700000001,"ADDRESS":"林森路一段１３２號十一樓","OBJECTID":459805},"geometry":{"x":169417.22000000067,"y":2542428.870000001}},{"attributes":{"ID":459831,"DIS_CODE":0,"TOWNNAME":"東區","LI":"路東里","LIN":"13鄰","STREET":"林森路","SECT":"一段","MAREA":" ","LANE":" ","ALLEY":" ","HOUSE_NO":"１３２號十一樓之１","E_COORD97":169417.22,"N_COORD97":2542428.8700000001,"ADDRESS":"林森路一段１３２號十一樓之１","OBJECTID":459806},"geometry":{"x":169417.22000000067,"y":2542428.870000001}},{"attributes":{"ID":459832,"DIS_CODE":0,"TOWNNAME":"東區","LI":"路東里","LIN":"13鄰","STREET":"林森路","SECT":"一段","MAREA":" ","LANE":" ","ALLEY":" ","HOUSE_NO":"１３２號十一樓之２","E_COORD97":169417.22,"N_COORD97":2542428.8700000001,"ADDRESS":"林森路一段１３２號十一樓之２","OBJECTID":459807},"geometry":{"x":169417.22000000067,"y":2542428.870000001}},{"attributes":{"ID":459833,"DIS_CODE":0,"TOWNNAME":"東區","LI":"路東里","LIN":"13鄰","STREET":"林森路","SECT":"一段","MAREA":" ","LANE":" ","ALLEY":" ","HOUSE_NO":"１３２號十一樓之３","E_COORD97":169417.22,"N_COORD97":2542428.8700000001,"ADDRESS":"林森路一段１３２號十一樓之３","OBJECTID":459808},"geometry":{"x":169417.22000000067,"y":2542428.870000001}},{"attributes":{"ID":459834,"DIS_CODE":0,"TOWNNAME":"東區","LI":"路東里","LIN":"13鄰","STREET":"林森路","SECT":"一段","MAREA":" ","LANE":" ","ALLEY":" ","HOUSE_NO":"１３２號十一樓之４","E_COORD97":169417.22,"N_COORD97":2542428.8700000001,"ADDRESS":"林森路一段１３２號十一樓之４","OBJECTID":459809},"geometry":{"x":169417.22000000067,"y":2542428.870000001}},{"attributes":{"ID":459835,"DIS_CODE":0,"TOWNNAME":"東區","LI":"路東里","LIN":"13鄰","STREET":"林森路","SECT":"一段","MAREA":" ","LANE":" ","ALLEY":" ","HOUSE_NO":"１３２號十二樓","E_COORD97":169417.22,"N_COORD97":2542428.8700000001,"ADDRESS":"林森路一段１３２號十二樓","OBJECTID":459810},"geometry":{"x":169417.22000000067,"y":2542428.870000001}},{"attributes":{"ID":459836,"DIS_CODE":0,"TOWNNAME":"東區","LI":"路東里","LIN":"13鄰","STREET":"林森路","SECT":"一段","MAREA":" ","LANE":" ","ALLEY":" ","HOUSE_NO":"１３２號十二樓之１","E_COORD97":169417.22,"N_COORD97":2542428.8700000001,"ADDRESS":"林森路一段１３２號十二樓之１","OBJECTID":459811},"geometry":{"x":169417.22000000067,"y":2542428.870000001}},{"attributes":{"ID":459837,"DIS_CODE":0,"TOWNNAME":"南區","LI":"金華里","LIN":"13鄰","STREET":"新孝路","SECT":" ","MAREA":" ","LANE":" ","ALLEY":" ","HOUSE_NO":"８４號二樓","E_COORD97":166795.84,"N_COORD97":2542074.8500000001,"ADDRESS":"新孝路８４號二樓","OBJECTID":459812},"geometry":{"x":166795.84000000078,"y":2542074.8499999996}},{"attributes":{"ID":459838,"DIS_CODE":0,"TOWNNAME":"東區","LI":"路東里","LIN":"13鄰","STREET":"林森路","SECT":"一段","MAREA":" ","LANE":" ","ALLEY":" ","HOUSE_NO":"１３２號十二樓之２","E_COORD97":169417.22,"N_COORD97":2542428.8700000001,"ADDRESS":"林森路一段１３２號十二樓之２","OBJECTID":459813},"geometry":{"x":169417.22000000067,"y":2542428.870000001}},{"attributes":{"ID":459839,"DIS_CODE":0,"TOWNNAME":"東區","LI":"路東里","LIN":"13鄰","STREET":"林森路","SECT":"一段","MAREA":" ","LANE":" ","ALLEY":" ","HOUSE_NO":"１３２號十二樓之３","E_COORD97":169417.22,"N_COORD97":2542428.8700000001,"ADDRESS":"林森路一段１３２號十二樓之３","OBJECTID":459814},"geometry":{"x":169417.22000000067,"y":2542428.870000001}},{"attributes":{"ID":459840,"DIS_CODE":0,"TOWNNAME":"東區","LI":"路東里","LIN":"13鄰","STREET":"林森路","SECT":"一段","MAREA":" ","LANE":" ","ALLEY":" ","HOUSE_NO":"１３２號十二樓之４","E_COORD97":169417.22,"N_COORD97":2542428.8700000001,"ADDRESS":"林森路一段１３２號十二樓之４","OBJECTID":459815},"geometry":{"x":169417.22000000067,"y":2542428.870000001}},{"attributes":{"ID":459841,"DIS_CODE":0,"TOWNNAME":"東區","LI":"路東里","LIN":"13鄰","STREET":"林森路","SECT":"一段","MAREA":" ","LANE":" ","ALLEY":" ","HOUSE_NO":"１３２號十三樓","E_COORD97":169417.22,"N_COORD97":2542428.8700000001,"ADDRESS":"林森路一段１３２號十三樓","OBJECTID":459816},"geometry":{"x":169417.22000000067,"y":2542428.870000001}},{"attributes":{"ID":459842,"DIS_CODE":0,"TOWNNAME":"東區","LI":"路東里","LIN":"13鄰","STREET":"林森路","SECT":"一段","MAREA":" ","LANE":" ","ALLEY":" ","HOUSE_NO":"１３２號十三樓之１","E_COORD97":169417.22,"N_COORD97":2542428.8700000001,"ADDRESS":"林森路一段１３２號十三樓之１","OBJECTID":459817},"geometry":{"x":169417.22000000067,"y":2542428.870000001}},{"attributes":{"ID":459843,"DIS_CODE":0,"TOWNNAME":"東區","LI":"路東里","LIN":"13鄰","STREET":"林森路","SECT":"一段","MAREA":" ","LANE":" ","ALLEY":" ","HOUSE_NO":"１３２號十三樓之１１","E_COORD97":169417.22,"N_COORD97":2542428.8700000001,"ADDRESS":"林森路一段１３２號十三樓之１１","OBJECTID":459818},"geometry":{"x":169417.22000000067,"y":2542428.870000001}},{"attributes":{"ID":459844,"DIS_CODE":0,"TOWNNAME":"東區","LI":"路東里","LIN":"13鄰","STREET":"林森路","SECT":"一段","MAREA":" ","LANE":" ","ALLEY":" ","HOUSE_NO":"１３２號十三樓之２","E_COORD97":169417.22,"N_COORD97":2542428.8700000001,"ADDRESS":"林森路一段１３２號十三樓之２","OBJECTID":459819},"geometry":{"x":169417.22000000067,"y":2542428.870000001}},{"attributes":{"ID":459845,"DIS_CODE":0,"TOWNNAME":"東區","LI":"路東里","LIN":"13鄰","STREET":"林森路","SECT":"一段","MAREA":" ","LANE":" ","ALLEY":" ","HOUSE_NO":"１３２號十三樓之３","E_COORD97":169417.22,"N_COORD97":2542428.8700000001,"ADDRESS":"林森路一段１３２號十三樓之３","OBJECTID":459820},"geometry":{"x":169417.22000000067,"y":2542428.870000001}},{"attributes":{"ID":459846,"DIS_CODE":0,"TOWNNAME":"南區","LI":"金華里","LIN":"13鄰","STREET":"新孝路","SECT":" ","MAREA":" ","LANE":" ","ALLEY":" ","HOUSE_NO":"８８號二樓","E_COORD97":166776.85000000001,"N_COORD97":2542075.3999999999,"ADDRESS":"新孝路８８號二樓","OBJECTID":459821},"geometry":{"x":166776.85000000056,"y":2542075.4000000004}},{"attributes":{"ID":459847,"DIS_CODE":0,"TOWNNAME":"東區","LI":"路東里","LIN":"13鄰","STREET":"林森路","SECT":"一段","MAREA":" ","LANE":" ","ALLEY":" ","HOUSE_NO":"１３２號十五樓","E_COORD97":169417.22,"N_COORD97":2542428.8700000001,"ADDRESS":"林森路一段１３２號十五樓","OBJECTID":459822},"geometry":{"x":169417.22000000067,"y":2542428.870000001}},{"attributes":{"ID":459848,"DIS_CODE":0,"TOWNNAME":"東區","LI":"路東里","LIN":"13鄰","STREET":"林森路","SECT":"一段","MAREA":" ","LANE":" ","ALLEY":" ","HOUSE_NO":"１３２號十五樓之１","E_COORD97":169417.22,"N_COORD97":2542428.8700000001,"ADDRESS":"林森路一段１３２號十五樓之１","OBJECTID":459823},"geometry":{"x":169417.22000000067,"y":2542428.870000001}},{"attributes":{"ID":459849,"DIS_CODE":0,"TOWNNAME":"東區","LI":"路東里","LIN":"13鄰","STREET":"林森路","SECT":"一段","MAREA":" ","LANE":" ","ALLEY":" ","HOUSE_NO":"１３２號十五樓之２","E_COORD97":169417.22,"N_COORD97":2542428.8700000001,"ADDRESS":"林森路一段１３２號十五樓之２","OBJECTID":459824},"geometry":{"x":169417.22000000067,"y":2542428.870000001}},{"attributes":{"ID":459850,"DIS_CODE":0,"TOWNNAME":"東區","LI":"和平里","LIN":"1鄰","STREET":"仁和路","SECT":" ","MAREA":" ","LANE":" ","ALLEY":" ","HOUSE_NO":"３７號九樓","E_COORD97":171099.45000000001,"N_COORD97":2542097.2200000002,"ADDRESS":"仁和路３７號九樓","OBJECTID":459825},"geometry":{"x":171099.45000000112,"y":2542097.2200000007}},{"attributes":{"ID":459851,"DIS_CODE":0,"TOWNNAME":"北區","LI":"小康里","LIN":"8鄰","STREET":"實踐街","SECT":" ","MAREA":" ","LANE":"２３巷","ALLEY":" ","HOUSE_NO":"９號","E_COORD97":169810.35000000001,"N_COORD97":2546114.5800000001,"ADDRESS":"實踐街２３巷９號","OBJECTID":459826},"geometry":{"x":169810.34999999963,"y":2546114.5800000001}},{"attributes":{"ID":459852,"DIS_CODE":0,"TOWNNAME":"東區","LI":"路東里","LIN":"13鄰","STREET":"林森路","SECT":"一段","MAREA":" ","LANE":" ","ALLEY":" ","HOUSE_NO":"１３２號十五樓之３","E_COORD97":169417.22,"N_COORD97":2542428.8700000001,"ADDRESS":"林森路一段１３２號十五樓之３","OBJECTID":459827},"geometry":{"x":169417.22000000067,"y":2542428.870000001}},{"attributes":{"ID":459853,"DIS_CODE":0,"TOWNNAME":"東區","LI":"路東里","LIN":"13鄰","STREET":"林森路","SECT":"一段","MAREA":" ","LANE":" ","ALLEY":" ","HOUSE_NO":"１３２號十六樓","E_COORD97":169417.22,"N_COORD97":2542428.8700000001,"ADDRESS":"林森路一段１３２號十六樓","OBJECTID":459828},"geometry":{"x":169417.22000000067,"y":2542428.870000001}},{"attributes":{"ID":459854,"DIS_CODE":0,"TOWNNAME":"東區","LI":"路東里","LIN":"13鄰","STREET":"林森路","SECT":"一段","MAREA":" ","LANE":" ","ALLEY":" ","HOUSE_NO":"１３２號十六樓之１","E_COORD97":169417.22,"N_COORD97":2542428.8700000001,"ADDRESS":"林森路一段１３２號十六樓之１","OBJECTID":459829},"geometry":{"x":169417.22000000067,"y":2542428.870000001}},{"attributes":{"ID":459855,"DIS_CODE":0,"TOWNNAME":"東區","LI":"路東里","LIN":"13鄰","STREET":"林森路","SECT":"一段","MAREA":" ","LANE":" ","ALLEY":" ","HOUSE_NO":"１３２號十六樓之２","E_COORD97":169417.22,"N_COORD97":2542428.8700000001,"ADDRESS":"林森路一段１３２號十六樓之２","OBJECTID":459830},"geometry":{"x":169417.22000000067,"y":2542428.870000001}},{"attributes":{"ID":459856,"DIS_CODE":0,"TOWNNAME":"東區","LI":"路東里","LIN":"13鄰","STREET":"林森路","SECT":"一段","MAREA":" ","LANE":" ","ALLEY":" ","HOUSE_NO":"１３２號十六樓之３","E_COORD97":169417.22,"N_COORD97":2542428.8700000001,"ADDRESS":"林森路一段１３２號十六樓之３","OBJECTID":459831},"geometry":{"x":169417.22000000067,"y":2542428.870000001}},{"attributes":{"ID":459857,"DIS_CODE":0,"TOWNNAME":"東區","LI":"路東里","LIN":"13鄰","STREET":"林森路","SECT":"一段","MAREA":" ","LANE":" ","ALLEY":" ","HOUSE_NO":"１３２號十四樓","E_COORD97":169417.22,"N_COORD97":2542428.8700000001,"ADDRESS":"林森路一段１３２號十四樓","OBJECTID":459832},"geometry":{"x":169417.22000000067,"y":2542428.870000001}},{"attributes":{"ID":459858,"DIS_CODE":0,"TOWNNAME":"東區","LI":"路東里","LIN":"13鄰","STREET":"林森路","SECT":"一段","MAREA":" ","LANE":" ","ALLEY":" ","HOUSE_NO":"１３２號十四樓之１","E_COORD97":169417.22,"N_COORD97":2542428.8700000001,"ADDRESS":"林森路一段１３２號十四樓之１","OBJECTID":459833},"geometry":{"x":169417.22000000067,"y":2542428.870000001}},{"attributes":{"ID":459859,"DIS_CODE":0,"TOWNNAME":"東區","LI":"路東里","LIN":"13鄰","STREET":"林森路","SECT":"一段","MAREA":" ","LANE":" ","ALLEY":" ","HOUSE_NO":"１３２號十四樓之２","E_COORD97":169417.22,"N_COORD97":2542428.8700000001,"ADDRESS":"林森路一段１３２號十四樓之２","OBJECTID":459834},"geometry":{"x":169417.22000000067,"y":2542428.870000001}},{"attributes":{"ID":459860,"DIS_CODE":0,"TOWNNAME":"東區","LI":"路東里","LIN":"13鄰","STREET":"林森路","SECT":"一段","MAREA":" ","LANE":" ","ALLEY":" ","HOUSE_NO":"１３２號十四樓之３","E_COORD97":169417.22,"N_COORD97":2542428.8700000001,"ADDRESS":"林森路一段１３２號十四樓之３","OBJECTID":459835},"geometry":{"x":169417.22000000067,"y":2542428.870000001}},{"attributes":{"ID":459861,"DIS_CODE":0,"TOWNNAME":"東區","LI":"路東里","LIN":"13鄰","STREET":"林森路","SECT":"一段","MAREA":" ","LANE":" ","ALLEY":" ","HOUSE_NO":"１３２號十四樓之４","E_COORD97":169417.22,"N_COORD97":2542428.8700000001,"ADDRESS":"林森路一段１３２號十四樓之４","OBJECTID":459836},"geometry":{"x":169417.22000000067,"y":2542428.870000001}},{"attributes":{"ID":459862,"DIS_CODE":0,"TOWNNAME":"東區","LI":"路東里","LIN":"13鄰","STREET":"林森路","SECT":"一段","MAREA":" ","LANE":" ","ALLEY":" ","HOUSE_NO":"１３２號十樓","E_COORD97":169417.22,"N_COORD97":2542428.8700000001,"ADDRESS":"林森路一段１３２號十樓","OBJECTID":459837},"geometry":{"x":169417.22000000067,"y":2542428.870000001}},{"attributes":{"ID":459863,"DIS_CODE":0,"TOWNNAME":"東區","LI":"路東里","LIN":"13鄰","STREET":"林森路","SECT":"一段","MAREA":" ","LANE":" ","ALLEY":" ","HOUSE_NO":"１３２號十樓之１","E_COORD97":169417.22,"N_COORD97":2542428.8700000001,"ADDRESS":"林森路一段１３２號十樓之１","OBJECTID":459838},"geometry":{"x":169417.22000000067,"y":2542428.870000001}},{"attributes":{"ID":459864,"DIS_CODE":0,"TOWNNAME":"東區","LI":"路東里","LIN":"13鄰","STREET":"林森路","SECT":"一段","MAREA":" ","LANE":" ","ALLEY":" ","HOUSE_NO":"１３２號十樓之２","E_COORD97":169417.22,"N_COORD97":2542428.8700000001,"ADDRESS":"林森路一段１３２號十樓之２","OBJECTID":459839},"geometry":{"x":169417.22000000067,"y":2542428.870000001}},{"attributes":{"ID":459865,"DIS_CODE":0,"TOWNNAME":"東區","LI":"路東里","LIN":"13鄰","STREET":"林森路","SECT":"一段","MAREA":" ","LANE":" ","ALLEY":" ","HOUSE_NO":"１３２號十樓之３","E_COORD97":169417.22,"N_COORD97":2542428.8700000001,"ADDRESS":"林森路一段１３２號十樓之３","OBJECTID":459840},"geometry":{"x":169417.22000000067,"y":2542428.870000001}},{"attributes":{"ID":459866,"DIS_CODE":0,"TOWNNAME":"東區","LI":"路東里","LIN":"13鄰","STREET":"林森路","SECT":"一段","MAREA":" ","LANE":" ","ALLEY":" ","HOUSE_NO":"１３２號十樓之４","E_COORD97":169417.22,"N_COORD97":2542428.8700000001,"ADDRESS":"林森路一段１３２號十樓之４","OBJECTID":459841},"geometry":{"x":169417.22000000067,"y":2542428.870000001}},{"attributes":{"ID":459867,"DIS_CODE":0,"TOWNNAME":"東區","LI":"路東里","LIN":"13鄰","STREET":"林森路","SECT":"一段","MAREA":" ","LANE":" ","ALLEY":" ","HOUSE_NO":"１３２號三樓","E_COORD97":169417.22,"N_COORD97":2542428.8700000001,"ADDRESS":"林森路一段１３２號三樓","OBJECTID":459842},"geometry":{"x":169417.22000000067,"y":2542428.870000001}},{"attributes":{"ID":459868,"DIS_CODE":0,"TOWNNAME":"東區","LI":"路東里","LIN":"13鄰","STREET":"林森路","SECT":"一段","MAREA":" ","LANE":" ","ALLEY":" ","HOUSE_NO":"１３２號三樓之１","E_COORD97":169417.22,"N_COORD97":2542428.8700000001,"ADDRESS":"林森路一段１３２號三樓之１","OBJECTID":459843},"geometry":{"x":169417.22000000067,"y":2542428.870000001}},{"attributes":{"ID":459869,"DIS_CODE":0,"TOWNNAME":"東區","LI":"路東里","LIN":"13鄰","STREET":"林森路","SECT":"一段","MAREA":" ","LANE":" ","ALLEY":" ","HOUSE_NO":"１３２號三樓之２","E_COORD97":169417.22,"N_COORD97":2542428.8700000001,"ADDRESS":"林森路一段１３２號三樓之２","OBJECTID":459844},"geometry":{"x":169417.22000000067,"y":2542428.870000001}},{"attributes":{"ID":459870,"DIS_CODE":0,"TOWNNAME":"東區","LI":"路東里","LIN":"13鄰","STREET":"林森路","SECT":"一段","MAREA":" ","LANE":" ","ALLEY":" ","HOUSE_NO":"１３２號三樓之３","E_COORD97":169417.22,"N_COORD97":2542428.8700000001,"ADDRESS":"林森路一段１３２號三樓之３","OBJECTID":459845},"geometry":{"x":169417.22000000067,"y":2542428.870000001}},{"attributes":{"ID":459871,"DIS_CODE":0,"TOWNNAME":"東區","LI":"路東里","LIN":"13鄰","STREET":"林森路","SECT":"一段","MAREA":" ","LANE":" ","ALLEY":" ","HOUSE_NO":"１３２號三樓之４","E_COORD97":169417.22,"N_COORD97":2542428.8700000001,"ADDRESS":"林森路一段１３２號三樓之４","OBJECTID":459846},"geometry":{"x":169417.22000000067,"y":2542428.870000001}},{"attributes":{"ID":459872,"DIS_CODE":0,"TOWNNAME":"東區","LI":"路東里","LIN":"13鄰","STREET":"林森路","SECT":"一段","MAREA":" ","LANE":" ","ALLEY":" ","HOUSE_NO":"１３２號五樓之１","E_COORD97":169417.22,"N_COORD97":2542428.8700000001,"ADDRESS":"林森路一段１３２號五樓之１","OBJECTID":459847},"geometry":{"x":169417.22000000067,"y":2542428.870000001}},{"attributes":{"ID":459873,"DIS_CODE":0,"TOWNNAME":"東區","LI":"路東里","LIN":"13鄰","STREET":"林森路","SECT":"一段","MAREA":" ","LANE":" ","ALLEY":" ","HOUSE_NO":"１３２號五樓之２","E_COORD97":169417.22,"N_COORD97":2542428.8700000001,"ADDRESS":"林森路一段１３２號五樓之２","OBJECTID":459848},"geometry":{"x":169417.22000000067,"y":2542428.870000001}},{"attributes":{"ID":459874,"DIS_CODE":0,"TOWNNAME":"東區","LI":"路東里","LIN":"13鄰","STREET":"林森路","SECT":"一段","MAREA":" ","LANE":" ","ALLEY":" ","HOUSE_NO":"１３２號五樓之３","E_COORD97":169417.22,"N_COORD97":2542428.8700000001,"ADDRESS":"林森路一段１３２號五樓之３","OBJECTID":459849},"geometry":{"x":169417.22000000067,"y":2542428.870000001}},{"attributes":{"ID":459875,"DIS_CODE":0,"TOWNNAME":"東區","LI":"路東里","LIN":"13鄰","STREET":"林森路","SECT":"一段","MAREA":" ","LANE":" ","ALLEY":" ","HOUSE_NO":"１３２號五樓之４","E_COORD97":169417.22,"N_COORD97":2542428.8700000001,"ADDRESS":"林森路一段１３２號五樓之４","OBJECTID":459850},"geometry":{"x":169417.22000000067,"y":2542428.870000001}},{"attributes":{"ID":459876,"DIS_CODE":0,"TOWNNAME":"東區","LI":"路東里","LIN":"13鄰","STREET":"林森路","SECT":"一段","MAREA":" ","LANE":" ","ALLEY":" ","HOUSE_NO":"１３２號六樓","E_COORD97":169417.22,"N_COORD97":2542428.8700000001,"ADDRESS":"林森路一段１３２號六樓","OBJECTID":459851},"geometry":{"x":169417.22000000067,"y":2542428.870000001}},{"attributes":{"ID":459877,"DIS_CODE":0,"TOWNNAME":"東區","LI":"路東里","LIN":"13鄰","STREET":"林森路","SECT":"一段","MAREA":" ","LANE":" ","ALLEY":" ","HOUSE_NO":"１３２號六樓之１","E_COORD97":169417.22,"N_COORD97":2542428.8700000001,"ADDRESS":"林森路一段１３２號六樓之１","OBJECTID":459852},"geometry":{"x":169417.22000000067,"y":2542428.870000001}},{"attributes":{"ID":459878,"DIS_CODE":0,"TOWNNAME":"東區","LI":"路東里","LIN":"13鄰","STREET":"林森路","SECT":"一段","MAREA":" ","LANE":" ","ALLEY":" ","HOUSE_NO":"１３２號六樓之２","E_COORD97":169417.22,"N_COORD97":2542428.8700000001,"ADDRESS":"林森路一段１３２號六樓之２","OBJECTID":459853},"geometry":{"x":169417.22000000067,"y":2542428.870000001}},{"attributes":{"ID":459879,"DIS_CODE":0,"TOWNNAME":"東區","LI":"路東里","LIN":"13鄰","STREET":"林森路","SECT":"一段","MAREA":" ","LANE":" ","ALLEY":" ","HOUSE_NO":"１３２號六樓之３","E_COORD97":169417.22,"N_COORD97":2542428.8700000001,"ADDRESS":"林森路一段１３２號六樓之３","OBJECTID":459854},"geometry":{"x":169417.22000000067,"y":2542428.870000001}},{"attributes":{"ID":459880,"DIS_CODE":0,"TOWNNAME":"東區","LI":"路東里","LIN":"13鄰","STREET":"林森路","SECT":"一段","MAREA":" ","LANE":" ","ALLEY":" ","HOUSE_NO":"１３２號六樓之４","E_COORD97":169417.22,"N_COORD97":2542428.8700000001,"ADDRESS":"林森路一段１３２號六樓之４","OBJECTID":459855},"geometry":{"x":169417.22000000067,"y":2542428.870000001}},{"attributes":{"ID":459881,"DIS_CODE":0,"TOWNNAME":"東區","LI":"路東里","LIN":"13鄰","STREET":"林森路","SECT":"一段","MAREA":" ","LANE":" ","ALLEY":" ","HOUSE_NO":"１３２號四樓","E_COORD97":169417.22,"N_COORD97":2542428.8700000001,"ADDRESS":"林森路一段１３２號四樓","OBJECTID":459856},"geometry":{"x":169417.22000000067,"y":2542428.870000001}},{"attributes":{"ID":459882,"DIS_CODE":0,"TOWNNAME":"東區","LI":"路東里","LIN":"13鄰","STREET":"林森路","SECT":"一段","MAREA":" ","LANE":" ","ALLEY":" ","HOUSE_NO":"１３２號四樓之１","E_COORD97":169417.22,"N_COORD97":2542428.8700000001,"ADDRESS":"林森路一段１３２號四樓之１","OBJECTID":459857},"geometry":{"x":169417.22000000067,"y":2542428.870000001}},{"attributes":{"ID":459883,"DIS_CODE":0,"TOWNNAME":"東區","LI":"路東里","LIN":"13鄰","STREET":"林森路","SECT":"一段","MAREA":" ","LANE":" ","ALLEY":" ","HOUSE_NO":"１３２號四樓之１１","E_COORD97":169417.22,"N_COORD97":2542428.8700000001,"ADDRESS":"林森路一段１３２號四樓之１１","OBJECTID":459858},"geometry":{"x":169417.22000000067,"y":2542428.870000001}},{"attributes":{"ID":459884,"DIS_CODE":0,"TOWNNAME":"東區","LI":"路東里","LIN":"13鄰","STREET":"林森路","SECT":"一段","MAREA":" ","LANE":" ","ALLEY":" ","HOUSE_NO":"１３２號四樓之２","E_COORD97":169417.22,"N_COORD97":2542428.8700000001,"ADDRESS":"林森路一段１３２號四樓之２","OBJECTID":459859},"geometry":{"x":169417.22000000067,"y":2542428.870000001}},{"attributes":{"ID":459885,"DIS_CODE":0,"TOWNNAME":"東區","LI":"路東里","LIN":"13鄰","STREET":"林森路","SECT":"一段","MAREA":" ","LANE":" ","ALLEY":" ","HOUSE_NO":"１３２號四樓之３","E_COORD97":169417.22,"N_COORD97":2542428.8700000001,"ADDRESS":"林森路一段１３２號四樓之３","OBJECTID":459860},"geometry":{"x":169417.22000000067,"y":2542428.870000001}},{"attributes":{"ID":459886,"DIS_CODE":0,"TOWNNAME":"北區","LI":"玉皇里","LIN":"13鄰","STREET":"公園路","SECT":" ","MAREA":" ","LANE":" ","ALLEY":" ","HOUSE_NO":"１７１號十一樓","E_COORD97":168743.73000000001,"N_COORD97":2544385,"ADDRESS":"公園路１７１號十一樓","OBJECTID":459861},"geometry":{"x":168743.73000000045,"y":2544385.0000000019}},{"attributes":{"ID":459887,"DIS_CODE":0,"TOWNNAME":"北區","LI":"玉皇里","LIN":"13鄰","STREET":"公園路","SECT":" ","MAREA":" ","LANE":" ","ALLEY":" ","HOUSE_NO":"１７１號十樓","E_COORD97":168743.73000000001,"N_COORD97":2544385,"ADDRESS":"公園路１７１號十樓","OBJECTID":459862},"geometry":{"x":168743.73000000045,"y":2544385.0000000019}},{"attributes":{"ID":459888,"DIS_CODE":0,"TOWNNAME":"南區","LI":"省躬里","LIN":"15鄰","STREET":"明興路","SECT":" ","MAREA":" ","LANE":" ","ALLEY":" ","HOUSE_NO":"９７１號","E_COORD97":166181.81,"N_COORD97":2537020.1899999999,"ADDRESS":"明興路９７１號","OBJECTID":459863},"geometry":{"x":166181.81000000052,"y":2537020.1899999995}},{"attributes":{"ID":459889,"DIS_CODE":0,"TOWNNAME":"北區","LI":"玉皇里","LIN":"13鄰","STREET":"公園路","SECT":" ","MAREA":" ","LANE":" ","ALLEY":" ","HOUSE_NO":"１７１號三樓之１","E_COORD97":168743.73000000001,"N_COORD97":2544385,"ADDRESS":"公園路１７１號三樓之１","OBJECTID":459864},"geometry":{"x":168743.73000000045,"y":2544385.0000000019}},{"attributes":{"ID":459890,"DIS_CODE":0,"TOWNNAME":"北區","LI":"玉皇里","LIN":"13鄰","STREET":"公園路","SECT":" ","MAREA":" ","LANE":" ","ALLEY":" ","HOUSE_NO":"１７１號三樓之２","E_COORD97":168743.73000000001,"N_COORD97":2544385,"ADDRESS":"公園路１７１號三樓之２","OBJECTID":459865},"geometry":{"x":168743.73000000045,"y":2544385.0000000019}},{"attributes":{"ID":459891,"DIS_CODE":0,"TOWNNAME":"北區","LI":"玉皇里","LIN":"13鄰","STREET":"公園路","SECT":" ","MAREA":" ","LANE":" ","ALLEY":" ","HOUSE_NO":"１７１號五樓之１","E_COORD97":168743.73000000001,"N_COORD97":2544385,"ADDRESS":"公園路１７１號五樓之１","OBJECTID":459866},"geometry":{"x":168743.73000000045,"y":2544385.0000000019}},{"attributes":{"ID":459892,"DIS_CODE":0,"TOWNNAME":"北區","LI":"玉皇里","LIN":"13鄰","STREET":"公園路","SECT":" ","MAREA":" ","LANE":" ","ALLEY":" ","HOUSE_NO":"１７１號五樓之２","E_COORD97":168743.73000000001,"N_COORD97":2544385,"ADDRESS":"公園路１７１號五樓之２","OBJECTID":459867},"geometry":{"x":168743.73000000045,"y":2544385.0000000019}},{"attributes":{"ID":459893,"DIS_CODE":0,"TOWNNAME":"北區","LI":"玉皇里","LIN":"13鄰","STREET":"公園路","SECT":" ","MAREA":" ","LANE":" ","ALLEY":" ","HOUSE_NO":"１７１號六樓之１","E_COORD97":168743.73000000001,"N_COORD97":2544385,"ADDRESS":"公園路１７１號六樓之１","OBJECTID":459868},"geometry":{"x":168743.73000000045,"y":2544385.0000000019}},{"attributes":{"ID":459894,"DIS_CODE":0,"TOWNNAME":"北區","LI":"玉皇里","LIN":"13鄰","STREET":"公園路","SECT":" ","MAREA":" ","LANE":" ","ALLEY":" ","HOUSE_NO":"１７１號六樓之２","E_COORD97":168743.73000000001,"N_COORD97":2544385,"ADDRESS":"公園路１７１號六樓之２","OBJECTID":459869},"geometry":{"x":168743.73000000045,"y":2544385.0000000019}},{"attributes":{"ID":459895,"DIS_CODE":0,"TOWNNAME":"北區","LI":"玉皇里","LIN":"13鄰","STREET":"公園路","SECT":" ","MAREA":" ","LANE":" ","ALLEY":" ","HOUSE_NO":"１７１號四樓之１","E_COORD97":168743.73000000001,"N_COORD97":2544385,"ADDRESS":"公園路１７１號四樓之１","OBJECTID":459870},"geometry":{"x":168743.73000000045,"y":2544385.0000000019}},{"attributes":{"ID":459896,"DIS_CODE":0,"TOWNNAME":"北區","LI":"玉皇里","LIN":"13鄰","STREET":"公園路","SECT":" ","MAREA":" ","LANE":" ","ALLEY":" ","HOUSE_NO":"１７１號四樓之２","E_COORD97":168743.73000000001,"N_COORD97":2544385,"ADDRESS":"公園路１７１號四樓之２","OBJECTID":459871},"geometry":{"x":168743.73000000045,"y":2544385.0000000019}},{"attributes":{"ID":459897,"DIS_CODE":0,"TOWNNAME":"北區","LI":"文成里","LIN":"13鄰","STREET":"海安路","SECT":"三段","MAREA":" ","LANE":" ","ALLEY":" ","HOUSE_NO":"２８７號七樓之１","E_COORD97":167962.07999999999,"N_COORD97":2545374.8399999999,"ADDRESS":"海安路三段２８７號七樓之１","OBJECTID":459872},"geometry":{"x":167962.08000000194,"y":2545374.8400000017}},{"attributes":{"ID":459898,"DIS_CODE":0,"TOWNNAME":"北區","LI":"文成里","LIN":"13鄰","STREET":"海安路","SECT":"三段","MAREA":" ","LANE":" ","ALLEY":" ","HOUSE_NO":"２８７號七樓之１０","E_COORD97":167962.07999999999,"N_COORD97":2545374.8399999999,"ADDRESS":"海安路三段２８７號七樓之１０","OBJECTID":459873},"geometry":{"x":167962.08000000194,"y":2545374.8400000017}},{"attributes":{"ID":459899,"DIS_CODE":0,"TOWNNAME":"北區","LI":"文成里","LIN":"13鄰","STREET":"海安路","SECT":"三段","MAREA":" ","LANE":" ","ALLEY":" ","HOUSE_NO":"２８７號七樓之１１","E_COORD97":167962.07999999999,"N_COORD97":2545374.8399999999,"ADDRESS":"海安路三段２８７號七樓之１１","OBJECTID":459874},"geometry":{"x":167962.08000000194,"y":2545374.8400000017}},{"attributes":{"ID":459900,"DIS_CODE":0,"TOWNNAME":"北區","LI":"文成里","LIN":"13鄰","STREET":"海安路","SECT":"三段","MAREA":" ","LANE":" ","ALLEY":" ","HOUSE_NO":"２８７號七樓之２","E_COORD97":167962.07999999999,"N_COORD97":2545374.8399999999,"ADDRESS":"海安路三段２８７號七樓之２","OBJECTID":459875},"geometry":{"x":167962.08000000194,"y":2545374.8400000017}},{"attributes":{"ID":459901,"DIS_CODE":0,"TOWNNAME":"北區","LI":"文成里","LIN":"13鄰","STREET":"海安路","SECT":"三段","MAREA":" ","LANE":" ","ALLEY":" ","HOUSE_NO":"２８７號七樓之３","E_COORD97":167962.07999999999,"N_COORD97":2545374.8399999999,"ADDRESS":"海安路三段２８７號七樓之３","OBJECTID":459876},"geometry":{"x":167962.08000000194,"y":2545374.8400000017}},{"attributes":{"ID":459902,"DIS_CODE":0,"TOWNNAME":"北區","LI":"文成里","LIN":"13鄰","STREET":"海安路","SECT":"三段","MAREA":" ","LANE":" ","ALLEY":" ","HOUSE_NO":"２８７號七樓之５","E_COORD97":167962.07999999999,"N_COORD97":2545374.8399999999,"ADDRESS":"海安路三段２８７號七樓之５","OBJECTID":459877},"geometry":{"x":167962.08000000194,"y":2545374.8400000017}},{"attributes":{"ID":459903,"DIS_CODE":0,"TOWNNAME":"北區","LI":"文成里","LIN":"13鄰","STREET":"海安路","SECT":"三段","MAREA":" ","LANE":" ","ALLEY":" ","HOUSE_NO":"２８７號七樓之６","E_COORD97":167962.07999999999,"N_COORD97":2545374.8399999999,"ADDRESS":"海安路三段２８７號七樓之６","OBJECTID":459878},"geometry":{"x":167962.08000000194,"y":2545374.8400000017}},{"attributes":{"ID":459904,"DIS_CODE":0,"TOWNNAME":"北區","LI":"文成里","LIN":"13鄰","STREET":"海安路","SECT":"三段","MAREA":" ","LANE":" ","ALLEY":" ","HOUSE_NO":"２８７號七樓之７","E_COORD97":167962.07999999999,"N_COORD97":2545374.8399999999,"ADDRESS":"海安路三段２８７號七樓之７","OBJECTID":459879},"geometry":{"x":167962.08000000194,"y":2545374.8400000017}},{"attributes":{"ID":459905,"DIS_CODE":0,"TOWNNAME":"北區","LI":"文成里","LIN":"13鄰","STREET":"海安路","SECT":"三段","MAREA":" ","LANE":" ","ALLEY":" ","HOUSE_NO":"２８７號七樓之８","E_COORD97":167962.07999999999,"N_COORD97":2545374.8399999999,"ADDRESS":"海安路三段２８７號七樓之８","OBJECTID":459880},"geometry":{"x":167962.08000000194,"y":2545374.8400000017}},{"attributes":{"ID":459906,"DIS_CODE":0,"TOWNNAME":"北區","LI":"文成里","LIN":"13鄰","STREET":"海安路","SECT":"三段","MAREA":" ","LANE":" ","ALLEY":" ","HOUSE_NO":"２８７號七樓之９","E_COORD97":167962.07999999999,"N_COORD97":2545374.8399999999,"ADDRESS":"海安路三段２８７號七樓之９","OBJECTID":459881},"geometry":{"x":167962.08000000194,"y":2545374.8400000017}},{"attributes":{"ID":459907,"DIS_CODE":0,"TOWNNAME":"北區","LI":"文成里","LIN":"13鄰","STREET":"海安路","SECT":"三段","MAREA":" ","LANE":" ","ALLEY":" ","HOUSE_NO":"２８７號二樓之１","E_COORD97":167962.07999999999,"N_COORD97":2545374.8399999999,"ADDRESS":"海安路三段２８７號二樓之１","OBJECTID":459882},"geometry":{"x":167962.08000000194,"y":2545374.8400000017}},{"attributes":{"ID":459908,"DIS_CODE":0,"TOWNNAME":"北區","LI":"文成里","LIN":"13鄰","STREET":"海安路","SECT":"三段","MAREA":" ","LANE":" ","ALLEY":" ","HOUSE_NO":"２８７號二樓之１０","E_COORD97":167962.07999999999,"N_COORD97":2545374.8399999999,"ADDRESS":"海安路三段２８７號二樓之１０","OBJECTID":459883},"geometry":{"x":167962.08000000194,"y":2545374.8400000017}},{"attributes":{"ID":459909,"DIS_CODE":0,"TOWNNAME":"北區","LI":"文成里","LIN":"13鄰","STREET":"海安路","SECT":"三段","MAREA":" ","LANE":" ","ALLEY":" ","HOUSE_NO":"２８７號二樓之１１","E_COORD97":167962.07999999999,"N_COORD97":2545374.8399999999,"ADDRESS":"海安路三段２８７號二樓之１１","OBJECTID":459884},"geometry":{"x":167962.08000000194,"y":2545374.8400000017}},{"attributes":{"ID":459910,"DIS_CODE":0,"TOWNNAME":"北區","LI":"文成里","LIN":"13鄰","STREET":"海安路","SECT":"三段","MAREA":" ","LANE":" ","ALLEY":" ","HOUSE_NO":"２８７號二樓之１２","E_COORD97":167962.07999999999,"N_COORD97":2545374.8399999999,"ADDRESS":"海安路三段２８７號二樓之１２","OBJECTID":459885},"geometry":{"x":167962.08000000194,"y":2545374.8400000017}},{"attributes":{"ID":459911,"DIS_CODE":0,"TOWNNAME":"北區","LI":"文成里","LIN":"13鄰","STREET":"海安路","SECT":"三段","MAREA":" ","LANE":" ","ALLEY":" ","HOUSE_NO":"２８７號二樓之１５","E_COORD97":167962.07999999999,"N_COORD97":2545374.8399999999,"ADDRESS":"海安路三段２８７號二樓之１５","OBJECTID":459886},"geometry":{"x":167962.08000000194,"y":2545374.8400000017}},{"attributes":{"ID":459912,"DIS_CODE":0,"TOWNNAME":"北區","LI":"文成里","LIN":"13鄰","STREET":"海安路","SECT":"三段","MAREA":" ","LANE":" ","ALLEY":" ","HOUSE_NO":"２８７號二樓之１６","E_COORD97":167962.07999999999,"N_COORD97":2545374.8399999999,"ADDRESS":"海安路三段２８７號二樓之１６","OBJECTID":459887},"geometry":{"x":167962.08000000194,"y":2545374.8400000017}},{"attributes":{"ID":459913,"DIS_CODE":0,"TOWNNAME":"北區","LI":"文成里","LIN":"13鄰","STREET":"海安路","SECT":"三段","MAREA":" ","LANE":" ","ALLEY":" ","HOUSE_NO":"２８７號二樓之１７","E_COORD97":167962.07999999999,"N_COORD97":2545374.8399999999,"ADDRESS":"海安路三段２８７號二樓之１７","OBJECTID":459888},"geometry":{"x":167962.08000000194,"y":2545374.8400000017}},{"attributes":{"ID":459914,"DIS_CODE":0,"TOWNNAME":"北區","LI":"文成里","LIN":"13鄰","STREET":"海安路","SECT":"三段","MAREA":" ","LANE":" ","ALLEY":" ","HOUSE_NO":"２８７號二樓之１８","E_COORD97":167962.07999999999,"N_COORD97":2545374.8399999999,"ADDRESS":"海安路三段２８７號二樓之１８","OBJECTID":459889},"geometry":{"x":167962.08000000194,"y":2545374.8400000017}},{"attributes":{"ID":459915,"DIS_CODE":0,"TOWNNAME":"北區","LI":"文成里","LIN":"13鄰","STREET":"海安路","SECT":"三段","MAREA":" ","LANE":" ","ALLEY":" ","HOUSE_NO":"２８７號二樓之１９","E_COORD97":167962.07999999999,"N_COORD97":2545374.8399999999,"ADDRESS":"海安路三段２８７號二樓之１９","OBJECTID":459890},"geometry":{"x":167962.08000000194,"y":2545374.8400000017}},{"attributes":{"ID":459916,"DIS_CODE":0,"TOWNNAME":"北區","LI":"文成里","LIN":"13鄰","STREET":"海安路","SECT":"三段","MAREA":" ","LANE":" ","ALLEY":" ","HOUSE_NO":"２８７號二樓之２","E_COORD97":167962.07999999999,"N_COORD97":2545374.8399999999,"ADDRESS":"海安路三段２８７號二樓之２","OBJECTID":459891},"geometry":{"x":167962.08000000194,"y":2545374.8400000017}},{"attributes":{"ID":459917,"DIS_CODE":0,"TOWNNAME":"北區","LI":"文成里","LIN":"13鄰","STREET":"海安路","SECT":"三段","MAREA":" ","LANE":" ","ALLEY":" ","HOUSE_NO":"２８７號二樓之３","E_COORD97":167962.07999999999,"N_COORD97":2545374.8399999999,"ADDRESS":"海安路三段２８７號二樓之３","OBJECTID":459892},"geometry":{"x":167962.08000000194,"y":2545374.8400000017}},{"attributes":{"ID":459918,"DIS_CODE":0,"TOWNNAME":"北區","LI":"文成里","LIN":"13鄰","STREET":"海安路","SECT":"三段","MAREA":" ","LANE":" ","ALLEY":" ","HOUSE_NO":"２８７號二樓之５","E_COORD97":167962.07999999999,"N_COORD97":2545374.8399999999,"ADDRESS":"海安路三段２８７號二樓之５","OBJECTID":459893},"geometry":{"x":167962.08000000194,"y":2545374.8400000017}},{"attributes":{"ID":459919,"DIS_CODE":0,"TOWNNAME":"北區","LI":"文成里","LIN":"13鄰","STREET":"海安路","SECT":"三段","MAREA":" ","LANE":" ","ALLEY":" ","HOUSE_NO":"２８７號二樓之６","E_COORD97":167962.07999999999,"N_COORD97":2545374.8399999999,"ADDRESS":"海安路三段２８７號二樓之６","OBJECTID":459894},"geometry":{"x":167962.08000000194,"y":2545374.8400000017}},{"attributes":{"ID":459920,"DIS_CODE":0,"TOWNNAME":"北區","LI":"文成里","LIN":"13鄰","STREET":"海安路","SECT":"三段","MAREA":" ","LANE":" ","ALLEY":" ","HOUSE_NO":"２８７號二樓之７","E_COORD97":167962.07999999999,"N_COORD97":2545374.8399999999,"ADDRESS":"海安路三段２８７號二樓之７","OBJECTID":459895},"geometry":{"x":167962.08000000194,"y":2545374.8400000017}},{"attributes":{"ID":459921,"DIS_CODE":0,"TOWNNAME":"北區","LI":"文成里","LIN":"13鄰","STREET":"海安路","SECT":"三段","MAREA":" ","LANE":" ","ALLEY":" ","HOUSE_NO":"２８７號二樓之８","E_COORD97":167962.07999999999,"N_COORD97":2545374.8399999999,"ADDRESS":"海安路三段２８７號二樓之８","OBJECTID":459896},"geometry":{"x":167962.08000000194,"y":2545374.8400000017}},{"attributes":{"ID":459922,"DIS_CODE":0,"TOWNNAME":"佳里區","LI":"安西里","LIN":"13鄰","STREET":"和平街","SECT":" ","MAREA":" ","LANE":" ","ALLEY":" ","HOUSE_NO":"２１５號","E_COORD97":165386.16,"N_COORD97":2562467.02,"ADDRESS":"和平街２１５號","OBJECTID":459897},"geometry":{"x":165386.16000000015,"y":2562467.0199999996}},{"attributes":{"ID":459923,"DIS_CODE":0,"TOWNNAME":"北區","LI":"文成里","LIN":"13鄰","STREET":"海安路","SECT":"三段","MAREA":" ","LANE":" ","ALLEY":" ","HOUSE_NO":"２８７號五樓之１２","E_COORD97":167962.07999999999,"N_COORD97":2545374.8399999999,"ADDRESS":"海安路三段２８７號五樓之１２","OBJECTID":459898},"geometry":{"x":167962.08000000194,"y":2545374.8400000017}},{"attributes":{"ID":459924,"DIS_CODE":0,"TOWNNAME":"北區","LI":"文成里","LIN":"13鄰","STREET":"海安路","SECT":"三段","MAREA":" ","LANE":" ","ALLEY":" ","HOUSE_NO":"２８７號五樓之１５","E_COORD97":167962.07999999999,"N_COORD97":2545374.8399999999,"ADDRESS":"海安路三段２８７號五樓之１５","OBJECTID":459899},"geometry":{"x":167962.08000000194,"y":2545374.8400000017}},{"attributes":{"ID":459925,"DIS_CODE":0,"TOWNNAME":"北區","LI":"文成里","LIN":"13鄰","STREET":"海安路","SECT":"三段","MAREA":" ","LANE":" ","ALLEY":" ","HOUSE_NO":"２８７號五樓之１６","E_COORD97":167962.07999999999,"N_COORD97":2545374.8399999999,"ADDRESS":"海安路三段２８７號五樓之１６","OBJECTID":459900},"geometry":{"x":167962.08000000194,"y":2545374.8400000017}},{"attributes":{"ID":459926,"DIS_CODE":0,"TOWNNAME":"北區","LI":"文成里","LIN":"13鄰","STREET":"海安路","SECT":"三段","MAREA":" ","LANE":" ","ALLEY":" ","HOUSE_NO":"２８７號五樓之１７","E_COORD97":167962.07999999999,"N_COORD97":2545374.8399999999,"ADDRESS":"海安路三段２８７號五樓之１７","OBJECTID":459901},"geometry":{"x":167962.08000000194,"y":2545374.8400000017}},{"attributes":{"ID":459927,"DIS_CODE":0,"TOWNNAME":"北區","LI":"文成里","LIN":"13鄰","STREET":"海安路","SECT":"三段","MAREA":" ","LANE":" ","ALLEY":" ","HOUSE_NO":"２８７號五樓之１８","E_COORD97":167962.07999999999,"N_COORD97":2545374.8399999999,"ADDRESS":"海安路三段２８７號五樓之１８","OBJECTID":459902},"geometry":{"x":167962.08000000194,"y":2545374.8400000017}},{"attributes":{"ID":459928,"DIS_CODE":0,"TOWNNAME":"北區","LI":"文成里","LIN":"13鄰","STREET":"海安路","SECT":"三段","MAREA":" ","LANE":" ","ALLEY":" ","HOUSE_NO":"２８７號五樓之１９","E_COORD97":167962.07999999999,"N_COORD97":2545374.8399999999,"ADDRESS":"海安路三段２８７號五樓之１９","OBJECTID":459903},"geometry":{"x":167962.08000000194,"y":2545374.8400000017}},{"attributes":{"ID":459929,"DIS_CODE":0,"TOWNNAME":"北區","LI":"文成里","LIN":"13鄰","STREET":"海安路","SECT":"三段","MAREA":" ","LANE":" ","ALLEY":" ","HOUSE_NO":"２８７號五樓之２","E_COORD97":167962.07999999999,"N_COORD97":2545374.8399999999,"ADDRESS":"海安路三段２８７號五樓之２","OBJECTID":459904},"geometry":{"x":167962.08000000194,"y":2545374.8400000017}},{"attributes":{"ID":459930,"DIS_CODE":0,"TOWNNAME":"北區","LI":"文成里","LIN":"13鄰","STREET":"海安路","SECT":"三段","MAREA":" ","LANE":" ","ALLEY":" ","HOUSE_NO":"２８７號五樓之３","E_COORD97":167962.07999999999,"N_COORD97":2545374.8399999999,"ADDRESS":"海安路三段２８７號五樓之３","OBJECTID":459905},"geometry":{"x":167962.08000000194,"y":2545374.8400000017}},{"attributes":{"ID":459931,"DIS_CODE":0,"TOWNNAME":"北區","LI":"文成里","LIN":"13鄰","STREET":"海安路","SECT":"三段","MAREA":" ","LANE":" ","ALLEY":" ","HOUSE_NO":"２８７號五樓之５","E_COORD97":167962.07999999999,"N_COORD97":2545374.8399999999,"ADDRESS":"海安路三段２８７號五樓之５","OBJECTID":459906},"geometry":{"x":167962.08000000194,"y":2545374.8400000017}},{"attributes":{"ID":459932,"DIS_CODE":0,"TOWNNAME":"北區","LI":"文成里","LIN":"13鄰","STREET":"海安路","SECT":"三段","MAREA":" ","LANE":" ","ALLEY":" ","HOUSE_NO":"２８７號五樓之６","E_COORD97":167962.07999999999,"N_COORD97":2545374.8399999999,"ADDRESS":"海安路三段２８７號五樓之６","OBJECTID":459907},"geometry":{"x":167962.08000000194,"y":2545374.8400000017}},{"attributes":{"ID":459933,"DIS_CODE":0,"TOWNNAME":"北區","LI":"文成里","LIN":"13鄰","STREET":"海安路","SECT":"三段","MAREA":" ","LANE":" ","ALLEY":" ","HOUSE_NO":"２８７號五樓之７","E_COORD97":167962.07999999999,"N_COORD97":2545374.8399999999,"ADDRESS":"海安路三段２８７號五樓之７","OBJECTID":459908},"geometry":{"x":167962.08000000194,"y":2545374.8400000017}},{"attributes":{"ID":459934,"DIS_CODE":0,"TOWNNAME":"北區","LI":"文成里","LIN":"13鄰","STREET":"海安路","SECT":"三段","MAREA":" ","LANE":" ","ALLEY":" ","HOUSE_NO":"２８７號五樓之８","E_COORD97":167962.07999999999,"N_COORD97":2545374.8399999999,"ADDRESS":"海安路三段２８７號五樓之８","OBJECTID":459909},"geometry":{"x":167962.08000000194,"y":2545374.8400000017}},{"attributes":{"ID":459935,"DIS_CODE":0,"TOWNNAME":"北區","LI":"文成里","LIN":"13鄰","STREET":"海安路","SECT":"三段","MAREA":" ","LANE":" ","ALLEY":" ","HOUSE_NO":"２８７號五樓之９","E_COORD97":167962.07999999999,"N_COORD97":2545374.8399999999,"ADDRESS":"海安路三段２８７號五樓之９","OBJECTID":459910},"geometry":{"x":167962.08000000194,"y":2545374.8400000017}},{"attributes":{"ID":459936,"DIS_CODE":0,"TOWNNAME":"北區","LI":"文成里","LIN":"13鄰","STREET":"海安路","SECT":"三段","MAREA":" ","LANE":" ","ALLEY":" ","HOUSE_NO":"２８７號六樓之１","E_COORD97":167962.07999999999,"N_COORD97":2545374.8399999999,"ADDRESS":"海安路三段２８７號六樓之１","OBJECTID":459911},"geometry":{"x":167962.08000000194,"y":2545374.8400000017}},{"attributes":{"ID":459937,"DIS_CODE":0,"TOWNNAME":"北區","LI":"文成里","LIN":"13鄰","STREET":"海安路","SECT":"三段","MAREA":" ","LANE":" ","ALLEY":" ","HOUSE_NO":"２８７號六樓之１０","E_COORD97":167962.07999999999,"N_COORD97":2545374.8399999999,"ADDRESS":"海安路三段２８７號六樓之１０","OBJECTID":459912},"geometry":{"x":167962.08000000194,"y":2545374.8400000017}},{"attributes":{"ID":459938,"DIS_CODE":0,"TOWNNAME":"北區","LI":"文成里","LIN":"13鄰","STREET":"海安路","SECT":"三段","MAREA":" ","LANE":" ","ALLEY":" ","HOUSE_NO":"２８７號六樓之１１","E_COORD97":167962.07999999999,"N_COORD97":2545374.8399999999,"ADDRESS":"海安路三段２８７號六樓之１１","OBJECTID":459913},"geometry":{"x":167962.08000000194,"y":2545374.8400000017}},{"attributes":{"ID":459939,"DIS_CODE":0,"TOWNNAME":"北區","LI":"文成里","LIN":"13鄰","STREET":"海安路","SECT":"三段","MAREA":" ","LANE":" ","ALLEY":" ","HOUSE_NO":"２８７號六樓之１２","E_COORD97":167962.07999999999,"N_COORD97":2545374.8399999999,"ADDRESS":"海安路三段２８７號六樓之１２","OBJECTID":459914},"geometry":{"x":167962.08000000194,"y":2545374.8400000017}},{"attributes":{"ID":459940,"DIS_CODE":0,"TOWNNAME":"北區","LI":"文成里","LIN":"13鄰","STREET":"海安路","SECT":"三段","MAREA":" ","LANE":" ","ALLEY":" ","HOUSE_NO":"２８７號六樓之１５","E_COORD97":167962.07999999999,"N_COORD97":2545374.8399999999,"ADDRESS":"海安路三段２８７號六樓之１５","OBJECTID":459915},"geometry":{"x":167962.08000000194,"y":2545374.8400000017}},{"attributes":{"ID":459941,"DIS_CODE":0,"TOWNNAME":"北區","LI":"文成里","LIN":"13鄰","STREET":"海安路","SECT":"三段","MAREA":" ","LANE":" ","ALLEY":" ","HOUSE_NO":"２８７號六樓之１６","E_COORD97":167962.07999999999,"N_COORD97":2545374.8399999999,"ADDRESS":"海安路三段２８７號六樓之１６","OBJECTID":459916},"geometry":{"x":167962.08000000194,"y":2545374.8400000017}},{"attributes":{"ID":459942,"DIS_CODE":0,"TOWNNAME":"北區","LI":"文成里","LIN":"13鄰","STREET":"海安路","SECT":"三段","MAREA":" ","LANE":" ","ALLEY":" ","HOUSE_NO":"２８７號六樓之１７","E_COORD97":167962.07999999999,"N_COORD97":2545374.8399999999,"ADDRESS":"海安路三段２８７號六樓之１７","OBJECTID":459917},"geometry":{"x":167962.08000000194,"y":2545374.8400000017}},{"attributes":{"ID":459943,"DIS_CODE":0,"TOWNNAME":"北區","LI":"文成里","LIN":"13鄰","STREET":"海安路","SECT":"三段","MAREA":" ","LANE":" ","ALLEY":" ","HOUSE_NO":"２８７號六樓之１８","E_COORD97":167962.07999999999,"N_COORD97":2545374.8399999999,"ADDRESS":"海安路三段２８７號六樓之１８","OBJECTID":459918},"geometry":{"x":167962.08000000194,"y":2545374.8400000017}},{"attributes":{"ID":459944,"DIS_CODE":0,"TOWNNAME":"北區","LI":"文成里","LIN":"13鄰","STREET":"海安路","SECT":"三段","MAREA":" ","LANE":" ","ALLEY":" ","HOUSE_NO":"２８７號六樓之１９","E_COORD97":167962.07999999999,"N_COORD97":2545374.8399999999,"ADDRESS":"海安路三段２８７號六樓之１９","OBJECTID":459919},"geometry":{"x":167962.08000000194,"y":2545374.8400000017}},{"attributes":{"ID":459945,"DIS_CODE":0,"TOWNNAME":"北區","LI":"文成里","LIN":"13鄰","STREET":"海安路","SECT":"三段","MAREA":" ","LANE":" ","ALLEY":" ","HOUSE_NO":"２８７號六樓之２","E_COORD97":167962.07999999999,"N_COORD97":2545374.8399999999,"ADDRESS":"海安路三段２８７號六樓之２","OBJECTID":459920},"geometry":{"x":167962.08000000194,"y":2545374.8400000017}},{"attributes":{"ID":459946,"DIS_CODE":0,"TOWNNAME":"北區","LI":"文成里","LIN":"13鄰","STREET":"海安路","SECT":"三段","MAREA":" ","LANE":" ","ALLEY":" ","HOUSE_NO":"２８７號六樓之３","E_COORD97":167962.07999999999,"N_COORD97":2545374.8399999999,"ADDRESS":"海安路三段２８７號六樓之３","OBJECTID":459921},"geometry":{"x":167962.08000000194,"y":2545374.8400000017}},{"attributes":{"ID":459947,"DIS_CODE":0,"TOWNNAME":"北區","LI":"文成里","LIN":"13鄰","STREET":"海安路","SECT":"三段","MAREA":" ","LANE":" ","ALLEY":" ","HOUSE_NO":"２８７號六樓之５","E_COORD97":167962.07999999999,"N_COORD97":2545374.8399999999,"ADDRESS":"海安路三段２８７號六樓之５","OBJECTID":459922},"geometry":{"x":167962.08000000194,"y":2545374.8400000017}},{"attributes":{"ID":459948,"DIS_CODE":0,"TOWNNAME":"北區","LI":"文成里","LIN":"13鄰","STREET":"海安路","SECT":"三段","MAREA":" ","LANE":" ","ALLEY":" ","HOUSE_NO":"２８７號六樓之６","E_COORD97":167962.07999999999,"N_COORD97":2545374.8399999999,"ADDRESS":"海安路三段２８７號六樓之６","OBJECTID":459923},"geometry":{"x":167962.08000000194,"y":2545374.8400000017}},{"attributes":{"ID":459949,"DIS_CODE":0,"TOWNNAME":"北區","LI":"文成里","LIN":"13鄰","STREET":"海安路","SECT":"三段","MAREA":" ","LANE":" ","ALLEY":" ","HOUSE_NO":"２８７號六樓之７","E_COORD97":167962.07999999999,"N_COORD97":2545374.8399999999,"ADDRESS":"海安路三段２８７號六樓之７","OBJECTID":459924},"geometry":{"x":167962.08000000194,"y":2545374.8400000017}},{"attributes":{"ID":459950,"DIS_CODE":0,"TOWNNAME":"北區","LI":"文成里","LIN":"13鄰","STREET":"海安路","SECT":"三段","MAREA":" ","LANE":" ","ALLEY":" ","HOUSE_NO":"２８７號六樓之８","E_COORD97":167962.07999999999,"N_COORD97":2545374.8399999999,"ADDRESS":"海安路三段２８７號六樓之８","OBJECTID":459925},"geometry":{"x":167962.08000000194,"y":2545374.8400000017}},{"attributes":{"ID":459951,"DIS_CODE":0,"TOWNNAME":"北區","LI":"文成里","LIN":"13鄰","STREET":"海安路","SECT":"三段","MAREA":" ","LANE":" ","ALLEY":" ","HOUSE_NO":"２８７號六樓之９","E_COORD97":167962.07999999999,"N_COORD97":2545374.8399999999,"ADDRESS":"海安路三段２８７號六樓之９","OBJECTID":459926},"geometry":{"x":167962.08000000194,"y":2545374.8400000017}},{"attributes":{"ID":459952,"DIS_CODE":0,"TOWNNAME":"北區","LI":"文成里","LIN":"13鄰","STREET":"海安路","SECT":"三段","MAREA":" ","LANE":" ","ALLEY":" ","HOUSE_NO":"２８７號四樓之１","E_COORD97":167962.07999999999,"N_COORD97":2545374.8399999999,"ADDRESS":"海安路三段２８７號四樓之１","OBJECTID":459927},"geometry":{"x":167962.08000000194,"y":2545374.8400000017}},{"attributes":{"ID":459953,"DIS_CODE":0,"TOWNNAME":"北區","LI":"文成里","LIN":"13鄰","STREET":"海安路","SECT":"三段","MAREA":" ","LANE":" ","ALLEY":" ","HOUSE_NO":"２８７號四樓之１０","E_COORD97":167962.07999999999,"N_COORD97":2545374.8399999999,"ADDRESS":"海安路三段２８７號四樓之１０","OBJECTID":459928},"geometry":{"x":167962.08000000194,"y":2545374.8400000017}},{"attributes":{"ID":459954,"DIS_CODE":0,"TOWNNAME":"北區","LI":"文成里","LIN":"13鄰","STREET":"海安路","SECT":"三段","MAREA":" ","LANE":" ","ALLEY":" ","HOUSE_NO":"２８７號四樓之１１","E_COORD97":167962.07999999999,"N_COORD97":2545374.8399999999,"ADDRESS":"海安路三段２８７號四樓之１１","OBJECTID":459929},"geometry":{"x":167962.08000000194,"y":2545374.8400000017}},{"attributes":{"ID":459955,"DIS_CODE":0,"TOWNNAME":"北區","LI":"文成里","LIN":"13鄰","STREET":"海安路","SECT":"三段","MAREA":" ","LANE":" ","ALLEY":" ","HOUSE_NO":"２８７號四樓之１２","E_COORD97":167962.07999999999,"N_COORD97":2545374.8399999999,"ADDRESS":"海安路三段２８７號四樓之１２","OBJECTID":459930},"geometry":{"x":167962.08000000194,"y":2545374.8400000017}},{"attributes":{"ID":459956,"DIS_CODE":0,"TOWNNAME":"北區","LI":"文成里","LIN":"13鄰","STREET":"海安路","SECT":"三段","MAREA":" ","LANE":" ","ALLEY":" ","HOUSE_NO":"２８７號四樓之１５","E_COORD97":167962.07999999999,"N_COORD97":2545374.8399999999,"ADDRESS":"海安路三段２８７號四樓之１５","OBJECTID":459931},"geometry":{"x":167962.08000000194,"y":2545374.8400000017}},{"attributes":{"ID":459957,"DIS_CODE":0,"TOWNNAME":"北區","LI":"文成里","LIN":"13鄰","STREET":"海安路","SECT":"三段","MAREA":" ","LANE":" ","ALLEY":" ","HOUSE_NO":"２８７號四樓之１６","E_COORD97":167962.07999999999,"N_COORD97":2545374.8399999999,"ADDRESS":"海安路三段２８７號四樓之１６","OBJECTID":459932},"geometry":{"x":167962.08000000194,"y":2545374.8400000017}},{"attributes":{"ID":459958,"DIS_CODE":0,"TOWNNAME":"北區","LI":"文成里","LIN":"13鄰","STREET":"海安路","SECT":"三段","MAREA":" ","LANE":" ","ALLEY":" ","HOUSE_NO":"２８７號四樓之１７","E_COORD97":167962.07999999999,"N_COORD97":2545374.8399999999,"ADDRESS":"海安路三段２８７號四樓之１７","OBJECTID":459933},"geometry":{"x":167962.08000000194,"y":2545374.8400000017}},{"attributes":{"ID":459959,"DIS_CODE":0,"TOWNNAME":"北區","LI":"文成里","LIN":"13鄰","STREET":"海安路","SECT":"三段","MAREA":" ","LANE":" ","ALLEY":" ","HOUSE_NO":"２８７號四樓之１８","E_COORD97":167962.07999999999,"N_COORD97":2545374.8399999999,"ADDRESS":"海安路三段２８７號四樓之１８","OBJECTID":459934},"geometry":{"x":167962.08000000194,"y":2545374.8400000017}},{"attributes":{"ID":459960,"DIS_CODE":0,"TOWNNAME":"北區","LI":"文成里","LIN":"13鄰","STREET":"海安路","SECT":"三段","MAREA":" ","LANE":" ","ALLEY":" ","HOUSE_NO":"２８７號四樓之１９","E_COORD97":167962.07999999999,"N_COORD97":2545374.8399999999,"ADDRESS":"海安路三段２８７號四樓之１９","OBJECTID":459935},"geometry":{"x":167962.08000000194,"y":2545374.8400000017}},{"attributes":{"ID":459961,"DIS_CODE":0,"TOWNNAME":"北區","LI":"文成里","LIN":"13鄰","STREET":"海安路","SECT":"三段","MAREA":" ","LANE":" ","ALLEY":" ","HOUSE_NO":"２８７號四樓之２","E_COORD97":167962.07999999999,"N_COORD97":2545374.8399999999,"ADDRESS":"海安路三段２８７號四樓之２","OBJECTID":459936},"geometry":{"x":167962.08000000194,"y":2545374.8400000017}},{"attributes":{"ID":459962,"DIS_CODE":0,"TOWNNAME":"北區","LI":"文成里","LIN":"13鄰","STREET":"海安路","SECT":"三段","MAREA":" ","LANE":" ","ALLEY":" ","HOUSE_NO":"２８７號四樓之３","E_COORD97":167962.07999999999,"N_COORD97":2545374.8399999999,"ADDRESS":"海安路三段２８７號四樓之３","OBJECTID":459937},"geometry":{"x":167962.08000000194,"y":2545374.8400000017}},{"attributes":{"ID":459963,"DIS_CODE":0,"TOWNNAME":"北區","LI":"文成里","LIN":"13鄰","STREET":"海安路","SECT":"三段","MAREA":" ","LANE":" ","ALLEY":" ","HOUSE_NO":"２８７號四樓之５","E_COORD97":167962.07999999999,"N_COORD97":2545374.8399999999,"ADDRESS":"海安路三段２８７號四樓之５","OBJECTID":459938},"geometry":{"x":167962.08000000194,"y":2545374.8400000017}},{"attributes":{"ID":459964,"DIS_CODE":0,"TOWNNAME":"北區","LI":"文成里","LIN":"13鄰","STREET":"海安路","SECT":"三段","MAREA":" ","LANE":" ","ALLEY":" ","HOUSE_NO":"２８７號四樓之６","E_COORD97":167962.07999999999,"N_COORD97":2545374.8399999999,"ADDRESS":"海安路三段２８７號四樓之６","OBJECTID":459939},"geometry":{"x":167962.08000000194,"y":2545374.8400000017}},{"attributes":{"ID":459965,"DIS_CODE":0,"TOWNNAME":"北區","LI":"文成里","LIN":"13鄰","STREET":"海安路","SECT":"三段","MAREA":" ","LANE":" ","ALLEY":" ","HOUSE_NO":"２８７號四樓之７","E_COORD97":167962.07999999999,"N_COORD97":2545374.8399999999,"ADDRESS":"海安路三段２８７號四樓之７","OBJECTID":459940},"geometry":{"x":167962.08000000194,"y":2545374.8400000017}},{"attributes":{"ID":459966,"DIS_CODE":0,"TOWNNAME":"北區","LI":"文成里","LIN":"13鄰","STREET":"海安路","SECT":"三段","MAREA":" ","LANE":" ","ALLEY":" ","HOUSE_NO":"２８７號四樓之８","E_COORD97":167962.07999999999,"N_COORD97":2545374.8399999999,"ADDRESS":"海安路三段２８７號四樓之８","OBJECTID":459941},"geometry":{"x":167962.08000000194,"y":2545374.8400000017}},{"attributes":{"ID":459967,"DIS_CODE":0,"TOWNNAME":"北區","LI":"文成里","LIN":"13鄰","STREET":"海安路","SECT":"三段","MAREA":" ","LANE":" ","ALLEY":" ","HOUSE_NO":"２８７號四樓之９","E_COORD97":167962.07999999999,"N_COORD97":2545374.8399999999,"ADDRESS":"海安路三段２８７號四樓之９","OBJECTID":459942},"geometry":{"x":167962.08000000194,"y":2545374.8400000017}},{"attributes":{"ID":459968,"DIS_CODE":0,"TOWNNAME":"南區","LI":"新生里","LIN":"13鄰","STREET":"大同路","SECT":"二段","MAREA":" ","LANE":" ","ALLEY":" ","HOUSE_NO":"１２２號三樓之５","E_COORD97":169276.57000000001,"N_COORD97":2542231.2000000002,"ADDRESS":"大同路二段１２２號三樓之５","OBJECTID":459943},"geometry":{"x":169276.57000000123,"y":2542231.1999999993}},{"attributes":{"ID":459969,"DIS_CODE":0,"TOWNNAME":"南區","LI":"新生里","LIN":"13鄰","STREET":"大同路","SECT":"二段","MAREA":" ","LANE":" ","ALLEY":" ","HOUSE_NO":"１２２號四樓之３","E_COORD97":169276.57000000001,"N_COORD97":2542231.2000000002,"ADDRESS":"大同路二段１２２號四樓之３","OBJECTID":459944},"geometry":{"x":169276.57000000123,"y":2542231.1999999993}},{"attributes":{"ID":459970,"DIS_CODE":0,"TOWNNAME":"南區","LI":"新生里","LIN":"13鄰","STREET":"大同路","SECT":"二段","MAREA":" ","LANE":" ","ALLEY":" ","HOUSE_NO":"１２２號四樓之５","E_COORD97":169276.57000000001,"N_COORD97":2542231.2000000002,"ADDRESS":"大同路二段１２２號四樓之５","OBJECTID":459945},"geometry":{"x":169276.57000000123,"y":2542231.1999999993}},{"attributes":{"ID":459971,"DIS_CODE":0,"TOWNNAME":"南區","LI":"新生里","LIN":"13鄰","STREET":"大同路","SECT":"二段","MAREA":" ","LANE":" ","ALLEY":" ","HOUSE_NO":"１２２號五樓之３","E_COORD97":169276.57000000001,"N_COORD97":2542231.2000000002,"ADDRESS":"大同路二段１２２號五樓之３","OBJECTID":459946},"geometry":{"x":169276.57000000123,"y":2542231.1999999993}},{"attributes":{"ID":459972,"DIS_CODE":0,"TOWNNAME":"南區","LI":"新生里","LIN":"13鄰","STREET":"大同路","SECT":"二段","MAREA":" ","LANE":" ","ALLEY":" ","HOUSE_NO":"１２２號五樓之５","E_COORD97":169276.57000000001,"N_COORD97":2542231.2000000002,"ADDRESS":"大同路二段１２２號五樓之５","OBJECTID":459947},"geometry":{"x":169276.57000000123,"y":2542231.1999999993}},{"attributes":{"ID":459973,"DIS_CODE":0,"TOWNNAME":"南區","LI":"新生里","LIN":"13鄰","STREET":"大同路","SECT":"二段","MAREA":" ","LANE":" ","ALLEY":" ","HOUSE_NO":"１２２號六樓之３","E_COORD97":169276.57000000001,"N_COORD97":2542231.2000000002,"ADDRESS":"大同路二段１２２號六樓之３","OBJECTID":459948},"geometry":{"x":169276.57000000123,"y":2542231.1999999993}},{"attributes":{"ID":459974,"DIS_CODE":0,"TOWNNAME":"南區","LI":"新生里","LIN":"13鄰","STREET":"大同路","SECT":"二段","MAREA":" ","LANE":" ","ALLEY":" ","HOUSE_NO":"１２２號六樓之５","E_COORD97":169276.57000000001,"N_COORD97":2542231.2000000002,"ADDRESS":"大同路二段１２２號六樓之５","OBJECTID":459949},"geometry":{"x":169276.57000000123,"y":2542231.1999999993}},{"attributes":{"ID":459975,"DIS_CODE":0,"TOWNNAME":"南區","LI":"新生里","LIN":"13鄰","STREET":"大同路","SECT":"二段","MAREA":" ","LANE":" ","ALLEY":" ","HOUSE_NO":"１２２號七樓之３","E_COORD97":169276.57000000001,"N_COORD97":2542231.2000000002,"ADDRESS":"大同路二段１２２號七樓之３","OBJECTID":459950},"geometry":{"x":169276.57000000123,"y":2542231.1999999993}},{"attributes":{"ID":459976,"DIS_CODE":0,"TOWNNAME":"南區","LI":"新生里","LIN":"13鄰","STREET":"大同路","SECT":"二段","MAREA":" ","LANE":" ","ALLEY":" ","HOUSE_NO":"１２２號七樓之５","E_COORD97":169276.57000000001,"N_COORD97":2542231.2000000002,"ADDRESS":"大同路二段１２２號七樓之５","OBJECTID":459951},"geometry":{"x":169276.57000000123,"y":2542231.1999999993}},{"attributes":{"ID":459977,"DIS_CODE":0,"TOWNNAME":"南區","LI":"新生里","LIN":"13鄰","STREET":"大同路","SECT":"二段","MAREA":" ","LANE":" ","ALLEY":" ","HOUSE_NO":"１２２號八樓之３","E_COORD97":169276.57000000001,"N_COORD97":2542231.2000000002,"ADDRESS":"大同路二段１２２號八樓之３","OBJECTID":459952},"geometry":{"x":169276.57000000123,"y":2542231.1999999993}},{"attributes":{"ID":459978,"DIS_CODE":0,"TOWNNAME":"南區","LI":"新生里","LIN":"13鄰","STREET":"大同路","SECT":"二段","MAREA":" ","LANE":" ","ALLEY":" ","HOUSE_NO":"１２２號八樓之５","E_COORD97":169276.57000000001,"N_COORD97":2542231.2000000002,"ADDRESS":"大同路二段１２２號八樓之５","OBJECTID":459953},"geometry":{"x":169276.57000000123,"y":2542231.1999999993}},{"attributes":{"ID":459979,"DIS_CODE":0,"TOWNNAME":"南區","LI":"新生里","LIN":"13鄰","STREET":"大同路","SECT":"二段","MAREA":" ","LANE":" ","ALLEY":" ","HOUSE_NO":"１２２號九樓之３","E_COORD97":169276.57000000001,"N_COORD97":2542231.2000000002,"ADDRESS":"大同路二段１２２號九樓之３","OBJECTID":459954},"geometry":{"x":169276.57000000123,"y":2542231.1999999993}},{"attributes":{"ID":459980,"DIS_CODE":0,"TOWNNAME":"南區","LI":"新生里","LIN":"13鄰","STREET":"大同路","SECT":"二段","MAREA":" ","LANE":" ","ALLEY":" ","HOUSE_NO":"１２２號九樓之５","E_COORD97":169276.57000000001,"N_COORD97":2542231.2000000002,"ADDRESS":"大同路二段１２２號九樓之５","OBJECTID":459955},"geometry":{"x":169276.57000000123,"y":2542231.1999999993}},{"attributes":{"ID":459981,"DIS_CODE":0,"TOWNNAME":"南區","LI":"新生里","LIN":"13鄰","STREET":"大同路","SECT":"二段","MAREA":" ","LANE":" ","ALLEY":" ","HOUSE_NO":"１２２號十樓之３","E_COORD97":169276.57000000001,"N_COORD97":2542231.2000000002,"ADDRESS":"大同路二段１２２號十樓之３","OBJECTID":459956},"geometry":{"x":169276.57000000123,"y":2542231.1999999993}},{"attributes":{"ID":459982,"DIS_CODE":0,"TOWNNAME":"南區","LI":"新生里","LIN":"13鄰","STREET":"大同路","SECT":"二段","MAREA":" ","LANE":" ","ALLEY":" ","HOUSE_NO":"１２２號十樓之５","E_COORD97":169276.57000000001,"N_COORD97":2542231.2000000002,"ADDRESS":"大同路二段１２２號十樓之５","OBJECTID":459957},"geometry":{"x":169276.57000000123,"y":2542231.1999999993}},{"attributes":{"ID":459983,"DIS_CODE":0,"TOWNNAME":"南區","LI":"新生里","LIN":"13鄰","STREET":"大同路","SECT":"二段","MAREA":" ","LANE":" ","ALLEY":" ","HOUSE_NO":"１２２號十一樓之３","E_COORD97":169276.57000000001,"N_COORD97":2542231.2000000002,"ADDRESS":"大同路二段１２２號十一樓之３","OBJECTID":459958},"geometry":{"x":169276.57000000123,"y":2542231.1999999993}},{"attributes":{"ID":459984,"DIS_CODE":0,"TOWNNAME":"南區","LI":"新生里","LIN":"13鄰","STREET":"大同路","SECT":"二段","MAREA":" ","LANE":" ","ALLEY":" ","HOUSE_NO":"１２２號十一樓之５","E_COORD97":169276.57000000001,"N_COORD97":2542231.2000000002,"ADDRESS":"大同路二段１２２號十一樓之５","OBJECTID":459959},"geometry":{"x":169276.57000000123,"y":2542231.1999999993}},{"attributes":{"ID":459985,"DIS_CODE":0,"TOWNNAME":"南區","LI":"新生里","LIN":"13鄰","STREET":"大同路","SECT":"二段","MAREA":" ","LANE":" ","ALLEY":" ","HOUSE_NO":"１２２號十二樓之３","E_COORD97":169276.57000000001,"N_COORD97":2542231.2000000002,"ADDRESS":"大同路二段１２２號十二樓之３","OBJECTID":459960},"geometry":{"x":169276.57000000123,"y":2542231.1999999993}},{"attributes":{"ID":459986,"DIS_CODE":0,"TOWNNAME":"南區","LI":"新生里","LIN":"13鄰","STREET":"大同路","SECT":"二段","MAREA":" ","LANE":" ","ALLEY":" ","HOUSE_NO":"１２２號十二樓之５","E_COORD97":169276.57000000001,"N_COORD97":2542231.2000000002,"ADDRESS":"大同路二段１２２號十二樓之５","OBJECTID":459961},"geometry":{"x":169276.57000000123,"y":2542231.1999999993}},{"attributes":{"ID":459987,"DIS_CODE":0,"TOWNNAME":"南區","LI":"新生里","LIN":"13鄰","STREET":"大同路","SECT":"二段","MAREA":" ","LANE":" ","ALLEY":" ","HOUSE_NO":"１３２號二樓之２","E_COORD97":169277.28,"N_COORD97":2542198.6699999999,"ADDRESS":"大同路二段１３２號二樓之２","OBJECTID":459962},"geometry":{"x":169277.28000000026,"y":2542198.6699999999}},{"attributes":{"ID":459988,"DIS_CODE":0,"TOWNNAME":"南區","LI":"新生里","LIN":"13鄰","STREET":"大同路","SECT":"二段","MAREA":" ","LANE":" ","ALLEY":" ","HOUSE_NO":"１３２號二樓之１","E_COORD97":169277.28,"N_COORD97":2542198.6699999999,"ADDRESS":"大同路二段１３２號二樓之１","OBJECTID":459963},"geometry":{"x":169277.28000000026,"y":2542198.6699999999}},{"attributes":{"ID":459989,"DIS_CODE":0,"TOWNNAME":"南區","LI":"新生里","LIN":"13鄰","STREET":"大同路","SECT":"二段","MAREA":" ","LANE":" ","ALLEY":" ","HOUSE_NO":"１３２號三樓之１","E_COORD97":169277.28,"N_COORD97":2542198.6699999999,"ADDRESS":"大同路二段１３２號三樓之１","OBJECTID":459964},"geometry":{"x":169277.28000000026,"y":2542198.6699999999}},{"attributes":{"ID":459990,"DIS_CODE":0,"TOWNNAME":"南區","LI":"新生里","LIN":"13鄰","STREET":"大同路","SECT":"二段","MAREA":" ","LANE":" ","ALLEY":" ","HOUSE_NO":"１３２號三樓之２","E_COORD97":169277.28,"N_COORD97":2542198.6699999999,"ADDRESS":"大同路二段１３２號三樓之２","OBJECTID":459965},"geometry":{"x":169277.28000000026,"y":2542198.6699999999}},{"attributes":{"ID":459991,"DIS_CODE":0,"TOWNNAME":"南區","LI":"新生里","LIN":"13鄰","STREET":"大同路","SECT":"二段","MAREA":" ","LANE":" ","ALLEY":" ","HOUSE_NO":"１３２號三樓之３","E_COORD97":169277.28,"N_COORD97":2542198.6699999999,"ADDRESS":"大同路二段１３２號三樓之３","OBJECTID":459966},"geometry":{"x":169277.28000000026,"y":2542198.6699999999}},{"attributes":{"ID":459992,"DIS_CODE":0,"TOWNNAME":"南區","LI":"新生里","LIN":"13鄰","STREET":"大同路","SECT":"二段","MAREA":" ","LANE":" ","ALLEY":" ","HOUSE_NO":"１３２號三樓之５","E_COORD97":169277.28,"N_COORD97":2542198.6699999999,"ADDRESS":"大同路二段１３２號三樓之５","OBJECTID":459967},"geometry":{"x":169277.28000000026,"y":2542198.6699999999}},{"attributes":{"ID":459993,"DIS_CODE":0,"TOWNNAME":"南區","LI":"新生里","LIN":"13鄰","STREET":"大同路","SECT":"二段","MAREA":" ","LANE":" ","ALLEY":" ","HOUSE_NO":"１３２號四樓之１","E_COORD97":169277.28,"N_COORD97":2542198.6699999999,"ADDRESS":"大同路二段１３２號四樓之１","OBJECTID":459968},"geometry":{"x":169277.28000000026,"y":2542198.6699999999}},{"attributes":{"ID":459994,"DIS_CODE":0,"TOWNNAME":"南區","LI":"新生里","LIN":"13鄰","STREET":"大同路","SECT":"二段","MAREA":" ","LANE":" ","ALLEY":" ","HOUSE_NO":"１３２號四樓之２","E_COORD97":169277.28,"N_COORD97":2542198.6699999999,"ADDRESS":"大同路二段１３２號四樓之２","OBJECTID":459969},"geometry":{"x":169277.28000000026,"y":2542198.6699999999}},{"attributes":{"ID":459995,"DIS_CODE":0,"TOWNNAME":"南區","LI":"新生里","LIN":"13鄰","STREET":"大同路","SECT":"二段","MAREA":" ","LANE":" ","ALLEY":" ","HOUSE_NO":"１３２號四樓之３","E_COORD97":169277.28,"N_COORD97":2542198.6699999999,"ADDRESS":"大同路二段１３２號四樓之３","OBJECTID":459970},"geometry":{"x":169277.28000000026,"y":2542198.6699999999}},{"attributes":{"ID":459996,"DIS_CODE":0,"TOWNNAME":"南區","LI":"新生里","LIN":"13鄰","STREET":"大同路","SECT":"二段","MAREA":" ","LANE":" ","ALLEY":" ","HOUSE_NO":"１３２號四樓之５","E_COORD97":169277.28,"N_COORD97":2542198.6699999999,"ADDRESS":"大同路二段１３２號四樓之５","OBJECTID":459971},"geometry":{"x":169277.28000000026,"y":2542198.6699999999}},{"attributes":{"ID":459997,"DIS_CODE":0,"TOWNNAME":"南區","LI":"新生里","LIN":"13鄰","STREET":"大同路","SECT":"二段","MAREA":" ","LANE":" ","ALLEY":" ","HOUSE_NO":"１３２號五樓之１","E_COORD97":169277.28,"N_COORD97":2542198.6699999999,"ADDRESS":"大同路二段１３２號五樓之１","OBJECTID":459972},"geometry":{"x":169277.28000000026,"y":2542198.6699999999}},{"attributes":{"ID":459998,"DIS_CODE":0,"TOWNNAME":"南區","LI":"新生里","LIN":"13鄰","STREET":"大同路","SECT":"二段","MAREA":" ","LANE":" ","ALLEY":" ","HOUSE_NO":"１３２號五樓之２","E_COORD97":169277.28,"N_COORD97":2542198.6699999999,"ADDRESS":"大同路二段１３２號五樓之２","OBJECTID":459973},"geometry":{"x":169277.28000000026,"y":2542198.6699999999}},{"attributes":{"ID":459999,"DIS_CODE":0,"TOWNNAME":"南區","LI":"新生里","LIN":"13鄰","STREET":"大同路","SECT":"二段","MAREA":" ","LANE":" ","ALLEY":" ","HOUSE_NO":"１３２號五樓之３","E_COORD97":169277.28,"N_COORD97":2542198.6699999999,"ADDRESS":"大同路二段１３２號五樓之３","OBJECTID":459974},"geometry":{"x":169277.28000000026,"y":2542198.6699999999}},{"attributes":{"ID":460000,"DIS_CODE":0,"TOWNNAME":"南區","LI":"新生里","LIN":"13鄰","STREET":"大同路","SECT":"二段","MAREA":" ","LANE":" ","ALLEY":" ","HOUSE_NO":"１３２號五樓之５","E_COORD97":169277.28,"N_COORD97":2542198.6699999999,"ADDRESS":"大同路二段１３２號五樓之５","OBJECTID":459975},"geometry":{"x":169277.28000000026,"y":2542198.6699999999}},{"attributes":{"ID":460001,"DIS_CODE":0,"TOWNNAME":"南區","LI":"新生里","LIN":"13鄰","STREET":"大同路","SECT":"二段","MAREA":" ","LANE":" ","ALLEY":" ","HOUSE_NO":"１３２號六樓之１","E_COORD97":169277.28,"N_COORD97":2542198.6699999999,"ADDRESS":"大同路二段１３２號六樓之１","OBJECTID":459976},"geometry":{"x":169277.28000000026,"y":2542198.6699999999}},{"attributes":{"ID":460002,"DIS_CODE":0,"TOWNNAME":"南區","LI":"新生里","LIN":"13鄰","STREET":"大同路","SECT":"二段","MAREA":" ","LANE":" ","ALLEY":" ","HOUSE_NO":"１３２號六樓之２","E_COORD97":169277.28,"N_COORD97":2542198.6699999999,"ADDRESS":"大同路二段１３２號六樓之２","OBJECTID":459977},"geometry":{"x":169277.28000000026,"y":2542198.6699999999}},{"attributes":{"ID":460003,"DIS_CODE":0,"TOWNNAME":"南區","LI":"新生里","LIN":"13鄰","STREET":"大同路","SECT":"二段","MAREA":" ","LANE":" ","ALLEY":" ","HOUSE_NO":"１３２號六樓之３","E_COORD97":169277.28,"N_COORD97":2542198.6699999999,"ADDRESS":"大同路二段１３２號六樓之３","OBJECTID":459978},"geometry":{"x":169277.28000000026,"y":2542198.6699999999}},{"attributes":{"ID":460004,"DIS_CODE":0,"TOWNNAME":"南區","LI":"新生里","LIN":"13鄰","STREET":"大同路","SECT":"二段","MAREA":" ","LANE":" ","ALLEY":" ","HOUSE_NO":"１３２號六樓之５","E_COORD97":169277.28,"N_COORD97":2542198.6699999999,"ADDRESS":"大同路二段１３２號六樓之５","OBJECTID":459979},"geometry":{"x":169277.28000000026,"y":2542198.6699999999}},{"attributes":{"ID":460005,"DIS_CODE":0,"TOWNNAME":"南區","LI":"新生里","LIN":"13鄰","STREET":"大同路","SECT":"二段","MAREA":" ","LANE":" ","ALLEY":" ","HOUSE_NO":"１３２號七樓之１","E_COORD97":169277.28,"N_COORD97":2542198.6699999999,"ADDRESS":"大同路二段１３２號七樓之１","OBJECTID":459980},"geometry":{"x":169277.28000000026,"y":2542198.6699999999}},{"attributes":{"ID":460006,"DIS_CODE":0,"TOWNNAME":"南區","LI":"新生里","LIN":"13鄰","STREET":"大同路","SECT":"二段","MAREA":" ","LANE":" ","ALLEY":" ","HOUSE_NO":"１３２號七樓之２","E_COORD97":169277.28,"N_COORD97":2542198.6699999999,"ADDRESS":"大同路二段１３２號七樓之２","OBJECTID":459981},"geometry":{"x":169277.28000000026,"y":2542198.6699999999}},{"attributes":{"ID":460007,"DIS_CODE":0,"TOWNNAME":"南區","LI":"新生里","LIN":"13鄰","STREET":"大同路","SECT":"二段","MAREA":" ","LANE":" ","ALLEY":" ","HOUSE_NO":"１３２號七樓之３","E_COORD97":169277.28,"N_COORD97":2542198.6699999999,"ADDRESS":"大同路二段１３２號七樓之３","OBJECTID":459982},"geometry":{"x":169277.28000000026,"y":2542198.6699999999}},{"attributes":{"ID":460008,"DIS_CODE":0,"TOWNNAME":"南區","LI":"新生里","LIN":"13鄰","STREET":"大同路","SECT":"二段","MAREA":" ","LANE":" ","ALLEY":" ","HOUSE_NO":"１３２號七樓之５","E_COORD97":169277.28,"N_COORD97":2542198.6699999999,"ADDRESS":"大同路二段１３２號七樓之５","OBJECTID":459983},"geometry":{"x":169277.28000000026,"y":2542198.6699999999}},{"attributes":{"ID":460009,"DIS_CODE":0,"TOWNNAME":"南區","LI":"新生里","LIN":"13鄰","STREET":"大同路","SECT":"二段","MAREA":" ","LANE":" ","ALLEY":" ","HOUSE_NO":"１３２號八樓之１","E_COORD97":169277.28,"N_COORD97":2542198.6699999999,"ADDRESS":"大同路二段１３２號八樓之１","OBJECTID":459984},"geometry":{"x":169277.28000000026,"y":2542198.6699999999}},{"attributes":{"ID":460010,"DIS_CODE":0,"TOWNNAME":"南區","LI":"新生里","LIN":"13鄰","STREET":"大同路","SECT":"二段","MAREA":" ","LANE":" ","ALLEY":" ","HOUSE_NO":"１３２號八樓之２","E_COORD97":169277.28,"N_COORD97":2542198.6699999999,"ADDRESS":"大同路二段１３２號八樓之２","OBJECTID":459985},"geometry":{"x":169277.28000000026,"y":2542198.6699999999}},{"attributes":{"ID":460011,"DIS_CODE":0,"TOWNNAME":"南區","LI":"新生里","LIN":"13鄰","STREET":"大同路","SECT":"二段","MAREA":" ","LANE":" ","ALLEY":" ","HOUSE_NO":"１３２號八樓之３","E_COORD97":169277.28,"N_COORD97":2542198.6699999999,"ADDRESS":"大同路二段１３２號八樓之３","OBJECTID":459986},"geometry":{"x":169277.28000000026,"y":2542198.6699999999}},{"attributes":{"ID":460012,"DIS_CODE":0,"TOWNNAME":"南區","LI":"新生里","LIN":"13鄰","STREET":"大同路","SECT":"二段","MAREA":" ","LANE":" ","ALLEY":" ","HOUSE_NO":"１３２號八樓之５","E_COORD97":169277.28,"N_COORD97":2542198.6699999999,"ADDRESS":"大同路二段１３２號八樓之５","OBJECTID":459987},"geometry":{"x":169277.28000000026,"y":2542198.6699999999}},{"attributes":{"ID":460013,"DIS_CODE":0,"TOWNNAME":"南區","LI":"新生里","LIN":"13鄰","STREET":"大同路","SECT":"二段","MAREA":" ","LANE":" ","ALLEY":" ","HOUSE_NO":"１３２號九樓之１","E_COORD97":169277.28,"N_COORD97":2542198.6699999999,"ADDRESS":"大同路二段１３２號九樓之１","OBJECTID":459988},"geometry":{"x":169277.28000000026,"y":2542198.6699999999}},{"attributes":{"ID":460014,"DIS_CODE":0,"TOWNNAME":"南區","LI":"新生里","LIN":"13鄰","STREET":"大同路","SECT":"二段","MAREA":" ","LANE":" ","ALLEY":" ","HOUSE_NO":"１３２號九樓之２","E_COORD97":169277.28,"N_COORD97":2542198.6699999999,"ADDRESS":"大同路二段１３２號九樓之２","OBJECTID":459989},"geometry":{"x":169277.28000000026,"y":2542198.6699999999}},{"attributes":{"ID":460015,"DIS_CODE":0,"TOWNNAME":"南區","LI":"新生里","LIN":"13鄰","STREET":"大同路","SECT":"二段","MAREA":" ","LANE":" ","ALLEY":" ","HOUSE_NO":"１３２號九樓之３","E_COORD97":169277.28,"N_COORD97":2542198.6699999999,"ADDRESS":"大同路二段１３２號九樓之３","OBJECTID":459990},"geometry":{"x":169277.28000000026,"y":2542198.6699999999}},{"attributes":{"ID":460016,"DIS_CODE":0,"TOWNNAME":"南區","LI":"新生里","LIN":"13鄰","STREET":"大同路","SECT":"二段","MAREA":" ","LANE":" ","ALLEY":" ","HOUSE_NO":"１３２號九樓之５","E_COORD97":169277.28,"N_COORD97":2542198.6699999999,"ADDRESS":"大同路二段１３２號九樓之５","OBJECTID":459991},"geometry":{"x":169277.28000000026,"y":2542198.6699999999}},{"attributes":{"ID":460017,"DIS_CODE":0,"TOWNNAME":"南區","LI":"新生里","LIN":"13鄰","STREET":"大同路","SECT":"二段","MAREA":" ","LANE":" ","ALLEY":" ","HOUSE_NO":"１３２號十樓之１","E_COORD97":169277.28,"N_COORD97":2542198.6699999999,"ADDRESS":"大同路二段１３２號十樓之１","OBJECTID":459992},"geometry":{"x":169277.28000000026,"y":2542198.6699999999}},{"attributes":{"ID":460018,"DIS_CODE":0,"TOWNNAME":"南區","LI":"新生里","LIN":"13鄰","STREET":"大同路","SECT":"二段","MAREA":" ","LANE":" ","ALLEY":" ","HOUSE_NO":"１３２號十樓之２","E_COORD97":169277.28,"N_COORD97":2542198.6699999999,"ADDRESS":"大同路二段１３２號十樓之２","OBJECTID":459993},"geometry":{"x":169277.28000000026,"y":2542198.6699999999}},{"attributes":{"ID":460019,"DIS_CODE":0,"TOWNNAME":"南區","LI":"新生里","LIN":"13鄰","STREET":"大同路","SECT":"二段","MAREA":" ","LANE":" ","ALLEY":" ","HOUSE_NO":"１３２號十樓之３","E_COORD97":169277.28,"N_COORD97":2542198.6699999999,"ADDRESS":"大同路二段１３２號十樓之３","OBJECTID":459994},"geometry":{"x":169277.28000000026,"y":2542198.6699999999}},{"attributes":{"ID":460020,"DIS_CODE":0,"TOWNNAME":"南區","LI":"新生里","LIN":"13鄰","STREET":"大同路","SECT":"二段","MAREA":" ","LANE":" ","ALLEY":" ","HOUSE_NO":"１３２號十樓之５","E_COORD97":169277.28,"N_COORD97":2542198.6699999999,"ADDRESS":"大同路二段１３２號十樓之５","OBJECTID":459995},"geometry":{"x":169277.28000000026,"y":2542198.6699999999}},{"attributes":{"ID":460021,"DIS_CODE":0,"TOWNNAME":"南區","LI":"新生里","LIN":"13鄰","STREET":"大同路","SECT":"二段","MAREA":" ","LANE":" ","ALLEY":" ","HOUSE_NO":"１３２號十一樓之１","E_COORD97":169277.28,"N_COORD97":2542198.6699999999,"ADDRESS":"大同路二段１３２號十一樓之１","OBJECTID":459996},"geometry":{"x":169277.28000000026,"y":2542198.6699999999}},{"attributes":{"ID":460022,"DIS_CODE":0,"TOWNNAME":"南區","LI":"新生里","LIN":"13鄰","STREET":"大同路","SECT":"二段","MAREA":" ","LANE":" ","ALLEY":" ","HOUSE_NO":"１３２號十一樓之２","E_COORD97":169277.28,"N_COORD97":2542198.6699999999,"ADDRESS":"大同路二段１３２號十一樓之２","OBJECTID":459997},"geometry":{"x":169277.28000000026,"y":2542198.6699999999}},{"attributes":{"ID":460023,"DIS_CODE":0,"TOWNNAME":"南區","LI":"新生里","LIN":"13鄰","STREET":"大同路","SECT":"二段","MAREA":" ","LANE":" ","ALLEY":" ","HOUSE_NO":"１３２號十一樓之３","E_COORD97":169277.28,"N_COORD97":2542198.6699999999,"ADDRESS":"大同路二段１３２號十一樓之３","OBJECTID":459998},"geometry":{"x":169277.28000000026,"y":2542198.6699999999}},{"attributes":{"ID":460024,"DIS_CODE":0,"TOWNNAME":"南區","LI":"新生里","LIN":"13鄰","STREET":"大同路","SECT":"二段","MAREA":" ","LANE":" ","ALLEY":" ","HOUSE_NO":"１３２號十一樓之５","E_COORD97":169277.28,"N_COORD97":2542198.6699999999,"ADDRESS":"大同路二段１３２號十一樓之５","OBJECTID":459999},"geometry":{"x":169277.28000000026,"y":2542198.6699999999}},{"attributes":{"ID":460025,"DIS_CODE":0,"TOWNNAME":"北區","LI":"五福里","LIN":"13鄰","STREET":"自強街","SECT":" ","MAREA":" ","LANE":" ","ALLEY":" ","HOUSE_NO":"１１號四樓之３","E_COORD97":168209.01999999999,"N_COORD97":2544470.27,"ADDRESS":"自強街１１號四樓之３","OBJECTID":460000},"geometry":{"x":168209.01999999955,"y":2544470.2700000014}}]}