{"displayFieldName":"TOWNNAME","fieldAliases":{"ID":"ID","DIS_CODE":"DIS_CODE","TOWNNAME":"TOWNNAME","LI":"LI","LIN":"LIN","STREET":"STREET","SECT":"SECT","MAREA":"MAREA","LANE":"LANE","ALLEY":"ALLEY","HOUSE_NO":"HOUSE_NO","E_COORD97":"E_COORD97","N_COORD97":"N_COORD97","ADDRESS":"ADDRESS","OBJECTID":"OBJECTID"},"geometryType":"esriGeometryPoint","spatialReference":{"wkid":102443,"latestWkid":3826},"fields":[{"name":"ID","type":"esriFieldTypeDouble","alias":"ID"},{"name":"DIS_CODE","type":"esriFieldTypeInteger","alias":"DIS_CODE"},{"name":"TOWNNAME","type":"esriFieldTypeString","alias":"TOWNNAME","length":8},{"name":"LI","type":"esriFieldTypeString","alias":"LI","length":8},{"name":"LIN","type":"esriFieldTypeString","alias":"LIN","length":12},{"name":"STREET","type":"esriFieldTypeString","alias":"STREET","length":20},{"name":"SECT","type":"esriFieldTypeString","alias":"SECT","length":8},{"name":"MAREA","type":"esriFieldTypeString","alias":"MAREA","length":12},{"name":"LANE","type":"esriFieldTypeString","alias":"LANE","length":10},{"name":"ALLEY","type":"esriFieldTypeString","alias":"ALLEY","length":10},{"name":"HOUSE_NO","type":"esriFieldTypeString","alias":"HOUSE_NO","length":20},{"name":"E_COORD97","type":"esriFieldTypeDouble","alias":"E_COORD97"},{"name":"N_COORD97","type":"esriFieldTypeDouble","alias":"N_COORD97"},{"name":"ADDRESS","type":"esriFieldTypeString","alias":"ADDRESS","length":50},{"name":"OBJECTID","type":"esriFieldTypeOID","alias":"OBJECTID"}],"features":[{"attributes":{"ID":559628,"DIS_CODE":0,"TOWNNAME":"關廟區","LI":"關廟里","LIN":"3鄰","STREET":"武聖路","SECT":" ","MAREA":" ","LANE":" ","ALLEY":" ","HOUSE_NO":"９號","E_COORD97":180960.94,"N_COORD97":2540180.25,"ADDRESS":"武聖路９號","OBJECTID":559601},"geometry":{"x":180960.94000000134,"y":2540180.25}},{"attributes":{"ID":559629,"DIS_CODE":0,"TOWNNAME":"永康區","LI":"復國里","LIN":" ","STREET":"復國一路","SECT":" ","MAREA":" ","LANE":" ","ALLEY":" ","HOUSE_NO":"２６９號","E_COORD97":172732.95999999999,"N_COORD97":2545477.7799999998,"ADDRESS":"復國一路２６９號","OBJECTID":559602},"geometry":{"x":172732.96000000183,"y":2545477.7800000012}},{"attributes":{"ID":559630,"DIS_CODE":0,"TOWNNAME":"永康區","LI":"\u25A0行里","LIN":"28鄰","STREET":"竹林街","SECT":" ","MAREA":" ","LANE":" ","ALLEY":" ","HOUSE_NO":"３９號","E_COORD97":172752.28,"N_COORD97":2548857.9700000002,"ADDRESS":"竹林街３９號","OBJECTID":559603},"geometry":{"x":172752.28000000026,"y":2548857.9700000025}},{"attributes":{"ID":559631,"DIS_CODE":0,"TOWNNAME":"永康區","LI":"崑山里","LIN":" ","STREET":"永大路","SECT":"一段","MAREA":" ","LANE":" ","ALLEY":" ","HOUSE_NO":"２５７之１號","E_COORD97":173945.34,"N_COORD97":2544267.8599999999,"ADDRESS":"永大路一段２５７之１號","OBJECTID":559604},"geometry":{"x":173945.33999999985,"y":2544267.8599999994}},{"attributes":{"ID":559632,"DIS_CODE":0,"TOWNNAME":"永康區","LI":"\u25A0行里","LIN":"25鄰","STREET":"中正南路","SECT":" ","MAREA":" ","LANE":" ","ALLEY":" ","HOUSE_NO":"５２６號","E_COORD97":171351.20000000001,"N_COORD97":2548595.3399999999,"ADDRESS":"中正南路５２６號","OBJECTID":559605},"geometry":{"x":171351.20000000019,"y":2548595.3400000036}},{"attributes":{"ID":559633,"DIS_CODE":0,"TOWNNAME":"永康區","LI":"\u25A0行里","LIN":"13鄰","STREET":"中正南路","SECT":" ","MAREA":" ","LANE":" ","ALLEY":" ","HOUSE_NO":"７６４號","E_COORD97":171764.64999999999,"N_COORD97":2548985.4900000002,"ADDRESS":"中正南路７６４號","OBJECTID":559606},"geometry":{"x":171764.6500000013,"y":2548985.4900000021}},{"attributes":{"ID":559634,"DIS_CODE":0,"TOWNNAME":"永康區","LI":"\u25A0行里","LIN":"17鄰","STREET":"中正南路","SECT":" ","MAREA":" ","LANE":" ","ALLEY":" ","HOUSE_NO":"７０８號","E_COORD97":171677.04000000001,"N_COORD97":2548906.04,"ADDRESS":"中正南路７０８號","OBJECTID":559607},"geometry":{"x":171677.04000000097,"y":2548906.040000001}},{"attributes":{"ID":559635,"DIS_CODE":0,"TOWNNAME":"永康區","LI":"\u25A0洲里","LIN":"7鄰","STREET":"三村二街","SECT":" ","MAREA":" ","LANE":" ","ALLEY":" ","HOUSE_NO":"５９號","E_COORD97":171845.06,"N_COORD97":2549456.5,"ADDRESS":"三村二街５９號","OBJECTID":559608},"geometry":{"x":171845.05999999959,"y":2549456.5000000019}},{"attributes":{"ID":559636,"DIS_CODE":0,"TOWNNAME":"永康區","LI":"\u25A0洲里","LIN":"7鄰","STREET":"三村二街","SECT":" ","MAREA":" ","LANE":" ","ALLEY":" ","HOUSE_NO":"５８號","E_COORD97":171855.98999999999,"N_COORD97":2549477.7400000002,"ADDRESS":"三村二街５８號","OBJECTID":559609},"geometry":{"x":171855.99000000022,"y":2549477.7399999984}},{"attributes":{"ID":559637,"DIS_CODE":0,"TOWNNAME":"南區","LI":"新昌里","LIN":"9鄰","STREET":"府緯街","SECT":" ","MAREA":" ","LANE":" ","ALLEY":" ","HOUSE_NO":"８６號四樓之１１","E_COORD97":167675.04000000001,"N_COORD97":2542745.9900000002,"ADDRESS":"府緯街８６號四樓之１１","OBJECTID":559610},"geometry":{"x":167675.04000000004,"y":2542745.9900000002}},{"attributes":{"ID":559638,"DIS_CODE":0,"TOWNNAME":"南區","LI":"新昌里","LIN":"9鄰","STREET":"府緯街","SECT":" ","MAREA":" ","LANE":" ","ALLEY":" ","HOUSE_NO":"８６號四樓之２","E_COORD97":167675.04000000001,"N_COORD97":2542745.9900000002,"ADDRESS":"府緯街８６號四樓之２","OBJECTID":559611},"geometry":{"x":167675.04000000004,"y":2542745.9900000002}},{"attributes":{"ID":559639,"DIS_CODE":0,"TOWNNAME":"南區","LI":"新昌里","LIN":"9鄰","STREET":"府緯街","SECT":" ","MAREA":" ","LANE":" ","ALLEY":" ","HOUSE_NO":"８６號四樓之３","E_COORD97":167675.04000000001,"N_COORD97":2542745.9900000002,"ADDRESS":"府緯街８６號四樓之３","OBJECTID":559612},"geometry":{"x":167675.04000000004,"y":2542745.9900000002}},{"attributes":{"ID":559640,"DIS_CODE":0,"TOWNNAME":"南區","LI":"新昌里","LIN":"9鄰","STREET":"府緯街","SECT":" ","MAREA":" ","LANE":" ","ALLEY":" ","HOUSE_NO":"８６號四樓之６","E_COORD97":167675.04000000001,"N_COORD97":2542745.9900000002,"ADDRESS":"府緯街８６號四樓之６","OBJECTID":559613},"geometry":{"x":167675.04000000004,"y":2542745.9900000002}},{"attributes":{"ID":559641,"DIS_CODE":0,"TOWNNAME":"南區","LI":"新昌里","LIN":"9鄰","STREET":"府緯街","SECT":" ","MAREA":" ","LANE":" ","ALLEY":" ","HOUSE_NO":"８６號四樓之７","E_COORD97":167675.04000000001,"N_COORD97":2542745.9900000002,"ADDRESS":"府緯街８６號四樓之７","OBJECTID":559614},"geometry":{"x":167675.04000000004,"y":2542745.9900000002}},{"attributes":{"ID":559642,"DIS_CODE":0,"TOWNNAME":"南區","LI":"新昌里","LIN":"9鄰","STREET":"府緯街","SECT":" ","MAREA":" ","LANE":" ","ALLEY":" ","HOUSE_NO":"８６號四樓之８","E_COORD97":167675.04000000001,"N_COORD97":2542745.9900000002,"ADDRESS":"府緯街８６號四樓之８","OBJECTID":559615},"geometry":{"x":167675.04000000004,"y":2542745.9900000002}},{"attributes":{"ID":559643,"DIS_CODE":0,"TOWNNAME":"南區","LI":"新昌里","LIN":"9鄰","STREET":"府緯街","SECT":" ","MAREA":" ","LANE":" ","ALLEY":" ","HOUSE_NO":"８６號五樓之八","E_COORD97":167675.04000000001,"N_COORD97":2542745.9900000002,"ADDRESS":"府緯街８６號五樓之八","OBJECTID":559616},"geometry":{"x":167675.04000000004,"y":2542745.9900000002}},{"attributes":{"ID":559644,"DIS_CODE":0,"TOWNNAME":"南區","LI":"新昌里","LIN":"9鄰","STREET":"府緯街","SECT":" ","MAREA":" ","LANE":" ","ALLEY":" ","HOUSE_NO":"８６號三樓之１０","E_COORD97":167675.04000000001,"N_COORD97":2542745.9900000002,"ADDRESS":"府緯街８６號三樓之１０","OBJECTID":559617},"geometry":{"x":167675.04000000004,"y":2542745.9900000002}},{"attributes":{"ID":559645,"DIS_CODE":0,"TOWNNAME":"南區","LI":"新昌里","LIN":"9鄰","STREET":"府緯街","SECT":" ","MAREA":" ","LANE":" ","ALLEY":" ","HOUSE_NO":"８６號三樓之１１","E_COORD97":167675.04000000001,"N_COORD97":2542745.9900000002,"ADDRESS":"府緯街８６號三樓之１１","OBJECTID":559618},"geometry":{"x":167675.04000000004,"y":2542745.9900000002}},{"attributes":{"ID":559646,"DIS_CODE":0,"TOWNNAME":"南區","LI":"新昌里","LIN":"9鄰","STREET":"府緯街","SECT":" ","MAREA":" ","LANE":" ","ALLEY":" ","HOUSE_NO":"８６號三樓之１２","E_COORD97":167675.04000000001,"N_COORD97":2542745.9900000002,"ADDRESS":"府緯街８６號三樓之１２","OBJECTID":559619},"geometry":{"x":167675.04000000004,"y":2542745.9900000002}},{"attributes":{"ID":559647,"DIS_CODE":0,"TOWNNAME":"南區","LI":"新昌里","LIN":"9鄰","STREET":"府緯街","SECT":" ","MAREA":" ","LANE":" ","ALLEY":" ","HOUSE_NO":"８６號三樓之２","E_COORD97":167675.04000000001,"N_COORD97":2542745.9900000002,"ADDRESS":"府緯街８６號三樓之２","OBJECTID":559620},"geometry":{"x":167675.04000000004,"y":2542745.9900000002}},{"attributes":{"ID":559648,"DIS_CODE":0,"TOWNNAME":"南區","LI":"新昌里","LIN":"9鄰","STREET":"府緯街","SECT":" ","MAREA":" ","LANE":" ","ALLEY":" ","HOUSE_NO":"８６號三樓之３","E_COORD97":167675.04000000001,"N_COORD97":2542745.9900000002,"ADDRESS":"府緯街８６號三樓之３","OBJECTID":559621},"geometry":{"x":167675.04000000004,"y":2542745.9900000002}},{"attributes":{"ID":559649,"DIS_CODE":0,"TOWNNAME":"南區","LI":"新昌里","LIN":"9鄰","STREET":"府緯街","SECT":" ","MAREA":" ","LANE":" ","ALLEY":" ","HOUSE_NO":"８６號三樓之５","E_COORD97":167675.04000000001,"N_COORD97":2542745.9900000002,"ADDRESS":"府緯街８６號三樓之５","OBJECTID":559622},"geometry":{"x":167675.04000000004,"y":2542745.9900000002}},{"attributes":{"ID":559650,"DIS_CODE":0,"TOWNNAME":"永康區","LI":"南灣里","LIN":" ","STREET":"南興路","SECT":" ","MAREA":" ","LANE":" ","ALLEY":" ","HOUSE_NO":"６９之５號","E_COORD97":174200.51000000001,"N_COORD97":2544260.0499999998,"ADDRESS":"南興路６９之５號","OBJECTID":559623},"geometry":{"x":174200.51000000164,"y":2544260.0500000026}},{"attributes":{"ID":559651,"DIS_CODE":0,"TOWNNAME":"永康區","LI":"五王里","LIN":" ","STREET":"五福街","SECT":" ","MAREA":" ","LANE":" ","ALLEY":" ","HOUSE_NO":"３８號","E_COORD97":171344.85999999999,"N_COORD97":2545880.0499999998,"ADDRESS":"五福街３８號","OBJECTID":559624},"geometry":{"x":171344.86000000034,"y":2545880.0500000026}},{"attributes":{"ID":559652,"DIS_CODE":0,"TOWNNAME":"永康區","LI":"\u25A0洲里","LIN":"7鄰","STREET":"三村二街","SECT":" ","MAREA":" ","LANE":" ","ALLEY":" ","HOUSE_NO":"５７號","E_COORD97":171849.59,"N_COORD97":2549454.5,"ADDRESS":"三村二街５７號","OBJECTID":559625},"geometry":{"x":171849.58999999985,"y":2549454.5}},{"attributes":{"ID":559653,"DIS_CODE":0,"TOWNNAME":"永康區","LI":"\u25A0洲里","LIN":"7鄰","STREET":"三村二街","SECT":" ","MAREA":" ","LANE":" ","ALLEY":" ","HOUSE_NO":"５２號","E_COORD97":171868.04000000001,"N_COORD97":2549470.9900000002,"ADDRESS":"三村二街５２號","OBJECTID":559626},"geometry":{"x":171868.04000000097,"y":2549470.9900000021}},{"attributes":{"ID":559654,"DIS_CODE":0,"TOWNNAME":"南區","LI":"新昌里","LIN":"9鄰","STREET":"府緯街","SECT":" ","MAREA":" ","LANE":" ","ALLEY":" ","HOUSE_NO":"８６號三樓之６","E_COORD97":167675.04000000001,"N_COORD97":2542745.9900000002,"ADDRESS":"府緯街８６號三樓之６","OBJECTID":559627},"geometry":{"x":167675.04000000004,"y":2542745.9900000002}},{"attributes":{"ID":559655,"DIS_CODE":0,"TOWNNAME":"南區","LI":"新昌里","LIN":"9鄰","STREET":"府緯街","SECT":" ","MAREA":" ","LANE":" ","ALLEY":" ","HOUSE_NO":"８６號三樓之７","E_COORD97":167675.04000000001,"N_COORD97":2542745.9900000002,"ADDRESS":"府緯街８６號三樓之７","OBJECTID":559628},"geometry":{"x":167675.04000000004,"y":2542745.9900000002}},{"attributes":{"ID":559656,"DIS_CODE":0,"TOWNNAME":"東區","LI":"德光里","LIN":"9鄰","STREET":"崇學路","SECT":" ","MAREA":" ","LANE":" ","ALLEY":" ","HOUSE_NO":"６７號五樓","E_COORD97":170129.95000000001,"N_COORD97":2542068.4399999999,"ADDRESS":"崇學路６７號五樓","OBJECTID":559629},"geometry":{"x":170129.95000000112,"y":2542068.4400000013}},{"attributes":{"ID":559657,"DIS_CODE":0,"TOWNNAME":"南區","LI":"新昌里","LIN":"9鄰","STREET":"府緯街","SECT":" ","MAREA":" ","LANE":" ","ALLEY":" ","HOUSE_NO":"８６號三樓之８","E_COORD97":167675.04000000001,"N_COORD97":2542745.9900000002,"ADDRESS":"府緯街８６號三樓之８","OBJECTID":559630},"geometry":{"x":167675.04000000004,"y":2542745.9900000002}},{"attributes":{"ID":559658,"DIS_CODE":0,"TOWNNAME":"南區","LI":"新昌里","LIN":"9鄰","STREET":"府緯街","SECT":" ","MAREA":" ","LANE":" ","ALLEY":" ","HOUSE_NO":"８６號五樓之３","E_COORD97":167675.04000000001,"N_COORD97":2542745.9900000002,"ADDRESS":"府緯街８６號五樓之３","OBJECTID":559631},"geometry":{"x":167675.04000000004,"y":2542745.9900000002}},{"attributes":{"ID":559659,"DIS_CODE":0,"TOWNNAME":"南區","LI":"新昌里","LIN":"9鄰","STREET":"府緯街","SECT":" ","MAREA":" ","LANE":" ","ALLEY":" ","HOUSE_NO":"８６號五樓之５","E_COORD97":167675.04000000001,"N_COORD97":2542745.9900000002,"ADDRESS":"府緯街８６號五樓之５","OBJECTID":559632},"geometry":{"x":167675.04000000004,"y":2542745.9900000002}},{"attributes":{"ID":559660,"DIS_CODE":0,"TOWNNAME":"南區","LI":"新昌里","LIN":"9鄰","STREET":"府緯街","SECT":" ","MAREA":" ","LANE":" ","ALLEY":" ","HOUSE_NO":"８６號五樓之６","E_COORD97":167675.04000000001,"N_COORD97":2542745.9900000002,"ADDRESS":"府緯街８６號五樓之６","OBJECTID":559633},"geometry":{"x":167675.04000000004,"y":2542745.9900000002}},{"attributes":{"ID":559661,"DIS_CODE":0,"TOWNNAME":"南區","LI":"新昌里","LIN":"9鄰","STREET":"府緯街","SECT":" ","MAREA":" ","LANE":" ","ALLEY":" ","HOUSE_NO":"８６號五樓之７","E_COORD97":167675.04000000001,"N_COORD97":2542745.9900000002,"ADDRESS":"府緯街８６號五樓之７","OBJECTID":559634},"geometry":{"x":167675.04000000004,"y":2542745.9900000002}},{"attributes":{"ID":559662,"DIS_CODE":0,"TOWNNAME":"南區","LI":"新昌里","LIN":"9鄰","STREET":"府緯街","SECT":" ","MAREA":" ","LANE":" ","ALLEY":" ","HOUSE_NO":"８６號五樓之８","E_COORD97":167675.04000000001,"N_COORD97":2542745.9900000002,"ADDRESS":"府緯街８６號五樓之８","OBJECTID":559635},"geometry":{"x":167675.04000000004,"y":2542745.9900000002}},{"attributes":{"ID":559663,"DIS_CODE":0,"TOWNNAME":"南區","LI":"新昌里","LIN":"9鄰","STREET":"府緯街","SECT":" ","MAREA":" ","LANE":" ","ALLEY":" ","HOUSE_NO":"８６號五樓之９","E_COORD97":167675.04000000001,"N_COORD97":2542745.9900000002,"ADDRESS":"府緯街８６號五樓之９","OBJECTID":559636},"geometry":{"x":167675.04000000004,"y":2542745.9900000002}},{"attributes":{"ID":559664,"DIS_CODE":0,"TOWNNAME":"南區","LI":"新昌里","LIN":"9鄰","STREET":"府緯街","SECT":" ","MAREA":" ","LANE":" ","ALLEY":" ","HOUSE_NO":"８６號六樓之１","E_COORD97":167675.04000000001,"N_COORD97":2542745.9900000002,"ADDRESS":"府緯街８６號六樓之１","OBJECTID":559637},"geometry":{"x":167675.04000000004,"y":2542745.9900000002}},{"attributes":{"ID":559665,"DIS_CODE":0,"TOWNNAME":"南區","LI":"新昌里","LIN":"9鄰","STREET":"府緯街","SECT":" ","MAREA":" ","LANE":" ","ALLEY":" ","HOUSE_NO":"８６號六樓之１０","E_COORD97":167675.04000000001,"N_COORD97":2542745.9900000002,"ADDRESS":"府緯街８６號六樓之１０","OBJECTID":559638},"geometry":{"x":167675.04000000004,"y":2542745.9900000002}},{"attributes":{"ID":559666,"DIS_CODE":0,"TOWNNAME":"南區","LI":"新昌里","LIN":"9鄰","STREET":"府緯街","SECT":" ","MAREA":" ","LANE":" ","ALLEY":" ","HOUSE_NO":"８６號六樓之１１","E_COORD97":167675.04000000001,"N_COORD97":2542745.9900000002,"ADDRESS":"府緯街８６號六樓之１１","OBJECTID":559639},"geometry":{"x":167675.04000000004,"y":2542745.9900000002}},{"attributes":{"ID":559667,"DIS_CODE":0,"TOWNNAME":"南區","LI":"新昌里","LIN":"9鄰","STREET":"府緯街","SECT":" ","MAREA":" ","LANE":" ","ALLEY":" ","HOUSE_NO":"８６號六樓之２","E_COORD97":167675.04000000001,"N_COORD97":2542745.9900000002,"ADDRESS":"府緯街８６號六樓之２","OBJECTID":559640},"geometry":{"x":167675.04000000004,"y":2542745.9900000002}},{"attributes":{"ID":559668,"DIS_CODE":0,"TOWNNAME":"南區","LI":"新昌里","LIN":"9鄰","STREET":"府緯街","SECT":" ","MAREA":" ","LANE":" ","ALLEY":" ","HOUSE_NO":"８６號六樓之３","E_COORD97":167675.04000000001,"N_COORD97":2542745.9900000002,"ADDRESS":"府緯街８６號六樓之３","OBJECTID":559641},"geometry":{"x":167675.04000000004,"y":2542745.9900000002}},{"attributes":{"ID":559669,"DIS_CODE":0,"TOWNNAME":"南區","LI":"新昌里","LIN":"9鄰","STREET":"府緯街","SECT":" ","MAREA":" ","LANE":" ","ALLEY":" ","HOUSE_NO":"８６號六樓之５","E_COORD97":167675.04000000001,"N_COORD97":2542745.9900000002,"ADDRESS":"府緯街８６號六樓之５","OBJECTID":559642},"geometry":{"x":167675.04000000004,"y":2542745.9900000002}},{"attributes":{"ID":559670,"DIS_CODE":0,"TOWNNAME":"南區","LI":"新昌里","LIN":"9鄰","STREET":"府緯街","SECT":" ","MAREA":" ","LANE":" ","ALLEY":" ","HOUSE_NO":"８６號四樓之５","E_COORD97":167675.04000000001,"N_COORD97":2542745.9900000002,"ADDRESS":"府緯街８６號四樓之５","OBJECTID":559643},"geometry":{"x":167675.04000000004,"y":2542745.9900000002}},{"attributes":{"ID":559671,"DIS_CODE":0,"TOWNNAME":"南區","LI":"新昌里","LIN":"9鄰","STREET":"府緯街","SECT":" ","MAREA":" ","LANE":" ","ALLEY":" ","HOUSE_NO":"８６號九樓之５","E_COORD97":167675.04000000001,"N_COORD97":2542745.9900000002,"ADDRESS":"府緯街８６號九樓之５","OBJECTID":559644},"geometry":{"x":167675.04000000004,"y":2542745.9900000002}},{"attributes":{"ID":559672,"DIS_CODE":0,"TOWNNAME":"北區","LI":"元寶里","LIN":"9鄰","STREET":"北園街","SECT":" ","MAREA":" ","LANE":" ","ALLEY":" ","HOUSE_NO":"６號十樓之１","E_COORD97":170390.10999999999,"N_COORD97":2545607.98,"ADDRESS":"北園街６號十樓之１","OBJECTID":559645},"geometry":{"x":170390.11000000127,"y":2545607.9799999986}},{"attributes":{"ID":559673,"DIS_CODE":0,"TOWNNAME":"永康區","LI":"復國里","LIN":" ","STREET":"復國二路","SECT":" ","MAREA":" ","LANE":" ","ALLEY":" ","HOUSE_NO":"７１號","E_COORD97":172836.64999999999,"N_COORD97":2545247.79,"ADDRESS":"復國二路７１號","OBJECTID":559646},"geometry":{"x":172836.65000000037,"y":2545247.7899999991}},{"attributes":{"ID":559674,"DIS_CODE":0,"TOWNNAME":"北區","LI":"元寶里","LIN":"9鄰","STREET":"北園街","SECT":" ","MAREA":" ","LANE":" ","ALLEY":" ","HOUSE_NO":"６號八樓之１","E_COORD97":170390.10999999999,"N_COORD97":2545607.98,"ADDRESS":"北園街６號八樓之１","OBJECTID":559647},"geometry":{"x":170390.11000000127,"y":2545607.9799999986}},{"attributes":{"ID":559675,"DIS_CODE":0,"TOWNNAME":"北區","LI":"元寶里","LIN":"9鄰","STREET":"北園街","SECT":" ","MAREA":" ","LANE":" ","ALLEY":" ","HOUSE_NO":"６號八樓之２","E_COORD97":170390.10999999999,"N_COORD97":2545607.98,"ADDRESS":"北園街６號八樓之２","OBJECTID":559648},"geometry":{"x":170390.11000000127,"y":2545607.9799999986}},{"attributes":{"ID":559676,"DIS_CODE":0,"TOWNNAME":"北區","LI":"元寶里","LIN":"9鄰","STREET":"北園街","SECT":" ","MAREA":" ","LANE":" ","ALLEY":" ","HOUSE_NO":"６號十一樓之１","E_COORD97":170390.10999999999,"N_COORD97":2545607.98,"ADDRESS":"北園街６號十一樓之１","OBJECTID":559649},"geometry":{"x":170390.11000000127,"y":2545607.9799999986}},{"attributes":{"ID":559677,"DIS_CODE":0,"TOWNNAME":"北區","LI":"元寶里","LIN":"9鄰","STREET":"北園街","SECT":" ","MAREA":" ","LANE":" ","ALLEY":" ","HOUSE_NO":"６號十一樓之２","E_COORD97":170390.10999999999,"N_COORD97":2545607.98,"ADDRESS":"北園街６號十一樓之２","OBJECTID":559650},"geometry":{"x":170390.11000000127,"y":2545607.9799999986}},{"attributes":{"ID":559678,"DIS_CODE":0,"TOWNNAME":"北區","LI":"元寶里","LIN":"9鄰","STREET":"北園街","SECT":" ","MAREA":" ","LANE":" ","ALLEY":" ","HOUSE_NO":"６號十七樓之１","E_COORD97":170390.10999999999,"N_COORD97":2545607.98,"ADDRESS":"北園街６號十七樓之１","OBJECTID":559651},"geometry":{"x":170390.11000000127,"y":2545607.9799999986}},{"attributes":{"ID":559679,"DIS_CODE":0,"TOWNNAME":"北區","LI":"元寶里","LIN":"9鄰","STREET":"北園街","SECT":" ","MAREA":" ","LANE":" ","ALLEY":" ","HOUSE_NO":"６號十七樓之２","E_COORD97":170390.10999999999,"N_COORD97":2545607.98,"ADDRESS":"北園街６號十七樓之２","OBJECTID":559652},"geometry":{"x":170390.11000000127,"y":2545607.9799999986}},{"attributes":{"ID":559680,"DIS_CODE":0,"TOWNNAME":"北區","LI":"元寶里","LIN":"9鄰","STREET":"北園街","SECT":" ","MAREA":" ","LANE":" ","ALLEY":" ","HOUSE_NO":"６號十九樓之１","E_COORD97":170390.10999999999,"N_COORD97":2545607.98,"ADDRESS":"北園街６號十九樓之１","OBJECTID":559653},"geometry":{"x":170390.11000000127,"y":2545607.9799999986}},{"attributes":{"ID":559681,"DIS_CODE":0,"TOWNNAME":"北區","LI":"元寶里","LIN":"9鄰","STREET":"北園街","SECT":" ","MAREA":" ","LANE":" ","ALLEY":" ","HOUSE_NO":"６號十九樓之２","E_COORD97":170390.10999999999,"N_COORD97":2545607.98,"ADDRESS":"北園街６號十九樓之２","OBJECTID":559654},"geometry":{"x":170390.11000000127,"y":2545607.9799999986}},{"attributes":{"ID":559682,"DIS_CODE":0,"TOWNNAME":"北區","LI":"元寶里","LIN":"9鄰","STREET":"北園街","SECT":" ","MAREA":" ","LANE":" ","ALLEY":" ","HOUSE_NO":"６號十二樓之１","E_COORD97":170390.10999999999,"N_COORD97":2545607.98,"ADDRESS":"北園街６號十二樓之１","OBJECTID":559655},"geometry":{"x":170390.11000000127,"y":2545607.9799999986}},{"attributes":{"ID":559683,"DIS_CODE":0,"TOWNNAME":"北區","LI":"元寶里","LIN":"9鄰","STREET":"北園街","SECT":" ","MAREA":" ","LANE":" ","ALLEY":" ","HOUSE_NO":"６號十二樓之２","E_COORD97":170390.10999999999,"N_COORD97":2545607.98,"ADDRESS":"北園街６號十二樓之２","OBJECTID":559656},"geometry":{"x":170390.11000000127,"y":2545607.9799999986}},{"attributes":{"ID":559684,"DIS_CODE":0,"TOWNNAME":"北區","LI":"元寶里","LIN":"9鄰","STREET":"北園街","SECT":" ","MAREA":" ","LANE":" ","ALLEY":" ","HOUSE_NO":"６號十八樓之１","E_COORD97":170390.10999999999,"N_COORD97":2545607.98,"ADDRESS":"北園街６號十八樓之１","OBJECTID":559657},"geometry":{"x":170390.11000000127,"y":2545607.9799999986}},{"attributes":{"ID":559685,"DIS_CODE":0,"TOWNNAME":"永康區","LI":"成功里","LIN":" ","STREET":"中華路","SECT":" ","MAREA":" ","LANE":" ","ALLEY":" ","HOUSE_NO":"１８４號","E_COORD97":169898.85000000001,"N_COORD97":2547116.7400000002,"ADDRESS":"中華路１８４號","OBJECTID":559658},"geometry":{"x":169898.8499999987,"y":2547116.7400000002}},{"attributes":{"ID":559686,"DIS_CODE":0,"TOWNNAME":"永康區","LI":"\u25A0行里","LIN":"31鄰","STREET":"仁愛街","SECT":" ","MAREA":" ","LANE":" ","ALLEY":" ","HOUSE_NO":"５２號","E_COORD97":171977.45000000001,"N_COORD97":2549240.4700000002,"ADDRESS":"仁愛街５２號","OBJECTID":559659},"geometry":{"x":171977.45000000112,"y":2549240.4700000025}},{"attributes":{"ID":559687,"DIS_CODE":0,"TOWNNAME":"北區","LI":"元寶里","LIN":"9鄰","STREET":"北園街","SECT":" ","MAREA":" ","LANE":" ","ALLEY":" ","HOUSE_NO":"６號十八樓之２","E_COORD97":170390.10999999999,"N_COORD97":2545607.98,"ADDRESS":"北園街６號十八樓之２","OBJECTID":559660},"geometry":{"x":170390.11000000127,"y":2545607.9799999986}},{"attributes":{"ID":559688,"DIS_CODE":0,"TOWNNAME":"北區","LI":"元寶里","LIN":"9鄰","STREET":"北園街","SECT":" ","MAREA":" ","LANE":" ","ALLEY":" ","HOUSE_NO":"６號十五樓之２","E_COORD97":170390.10999999999,"N_COORD97":2545607.98,"ADDRESS":"北園街６號十五樓之２","OBJECTID":559661},"geometry":{"x":170390.11000000127,"y":2545607.9799999986}},{"attributes":{"ID":559689,"DIS_CODE":0,"TOWNNAME":"北區","LI":"元寶里","LIN":"9鄰","STREET":"北園街","SECT":" ","MAREA":" ","LANE":" ","ALLEY":" ","HOUSE_NO":"６號十六樓之１","E_COORD97":170390.10999999999,"N_COORD97":2545607.98,"ADDRESS":"北園街６號十六樓之１","OBJECTID":559662},"geometry":{"x":170390.11000000127,"y":2545607.9799999986}},{"attributes":{"ID":559690,"DIS_CODE":0,"TOWNNAME":"東區","LI":"東明里","LIN":"9鄰","STREET":"怡東路","SECT":" ","MAREA":" ","LANE":" ","ALLEY":" ","HOUSE_NO":"８８號四樓","E_COORD97":170876.17000000001,"N_COORD97":2543708.9300000002,"ADDRESS":"怡東路８８號四樓","OBJECTID":559663},"geometry":{"x":170876.16999999993,"y":2543708.9299999978}},{"attributes":{"ID":559691,"DIS_CODE":0,"TOWNNAME":"北區","LI":"元寶里","LIN":"9鄰","STREET":"北園街","SECT":" ","MAREA":" ","LANE":" ","ALLEY":" ","HOUSE_NO":"６號十六樓之２","E_COORD97":170390.10999999999,"N_COORD97":2545607.98,"ADDRESS":"北園街６號十六樓之２","OBJECTID":559664},"geometry":{"x":170390.11000000127,"y":2545607.9799999986}},{"attributes":{"ID":559692,"DIS_CODE":0,"TOWNNAME":"北區","LI":"元寶里","LIN":"9鄰","STREET":"北園街","SECT":" ","MAREA":" ","LANE":" ","ALLEY":" ","HOUSE_NO":"６號十四樓之１","E_COORD97":170390.10999999999,"N_COORD97":2545607.98,"ADDRESS":"北園街６號十四樓之１","OBJECTID":559665},"geometry":{"x":170390.11000000127,"y":2545607.9799999986}},{"attributes":{"ID":559693,"DIS_CODE":0,"TOWNNAME":"北區","LI":"元寶里","LIN":"9鄰","STREET":"北園街","SECT":" ","MAREA":" ","LANE":" ","ALLEY":" ","HOUSE_NO":"６號十四樓之２","E_COORD97":170390.10999999999,"N_COORD97":2545607.98,"ADDRESS":"北園街６號十四樓之２","OBJECTID":559666},"geometry":{"x":170390.11000000127,"y":2545607.9799999986}},{"attributes":{"ID":559694,"DIS_CODE":0,"TOWNNAME":"北區","LI":"元寶里","LIN":"9鄰","STREET":"北園街","SECT":" ","MAREA":" ","LANE":" ","ALLEY":" ","HOUSE_NO":"６號五樓之２","E_COORD97":170390.10999999999,"N_COORD97":2545607.98,"ADDRESS":"北園街６號五樓之２","OBJECTID":559667},"geometry":{"x":170390.11000000127,"y":2545607.9799999986}},{"attributes":{"ID":559695,"DIS_CODE":0,"TOWNNAME":"北區","LI":"元寶里","LIN":"9鄰","STREET":"北園街","SECT":" ","MAREA":" ","LANE":" ","ALLEY":" ","HOUSE_NO":"６號六樓之１","E_COORD97":170390.10999999999,"N_COORD97":2545607.98,"ADDRESS":"北園街６號六樓之１","OBJECTID":559668},"geometry":{"x":170390.11000000127,"y":2545607.9799999986}},{"attributes":{"ID":559696,"DIS_CODE":0,"TOWNNAME":"北區","LI":"元寶里","LIN":"9鄰","STREET":"北園街","SECT":" ","MAREA":" ","LANE":" ","ALLEY":" ","HOUSE_NO":"６號六樓之２","E_COORD97":170390.10999999999,"N_COORD97":2545607.98,"ADDRESS":"北園街６號六樓之２","OBJECTID":559669},"geometry":{"x":170390.11000000127,"y":2545607.9799999986}},{"attributes":{"ID":559697,"DIS_CODE":0,"TOWNNAME":"北區","LI":"元寶里","LIN":"9鄰","STREET":"北園街","SECT":" ","MAREA":" ","LANE":" ","ALLEY":" ","HOUSE_NO":"６號四樓之１","E_COORD97":170390.10999999999,"N_COORD97":2545607.98,"ADDRESS":"北園街６號四樓之１","OBJECTID":559670},"geometry":{"x":170390.11000000127,"y":2545607.9799999986}},{"attributes":{"ID":559698,"DIS_CODE":0,"TOWNNAME":"北區","LI":"元寶里","LIN":"9鄰","STREET":"北園街","SECT":" ","MAREA":" ","LANE":" ","ALLEY":" ","HOUSE_NO":"６號四樓之２","E_COORD97":170390.10999999999,"N_COORD97":2545607.98,"ADDRESS":"北園街６號四樓之２","OBJECTID":559671},"geometry":{"x":170390.11000000127,"y":2545607.9799999986}},{"attributes":{"ID":559699,"DIS_CODE":0,"TOWNNAME":"北區","LI":"新勝里","LIN":"9鄰","STREET":"長榮路","SECT":"五段","MAREA":" ","LANE":" ","ALLEY":" ","HOUSE_NO":"３０號三樓之２","E_COORD97":170125.35999999999,"N_COORD97":2545547.96,"ADDRESS":"長榮路五段３０號三樓之２","OBJECTID":559672},"geometry":{"x":170125.36000000127,"y":2545547.9600000046}},{"attributes":{"ID":559700,"DIS_CODE":0,"TOWNNAME":"北區","LI":"新勝里","LIN":"9鄰","STREET":"長榮路","SECT":"五段","MAREA":" ","LANE":" ","ALLEY":" ","HOUSE_NO":"３０號五樓之１","E_COORD97":170125.35999999999,"N_COORD97":2545547.96,"ADDRESS":"長榮路五段３０號五樓之１","OBJECTID":559673},"geometry":{"x":170125.36000000127,"y":2545547.9600000046}},{"attributes":{"ID":559701,"DIS_CODE":0,"TOWNNAME":"北區","LI":"新勝里","LIN":"9鄰","STREET":"長榮路","SECT":"五段","MAREA":" ","LANE":" ","ALLEY":" ","HOUSE_NO":"３０號五樓之２","E_COORD97":170125.35999999999,"N_COORD97":2545547.96,"ADDRESS":"長榮路五段３０號五樓之２","OBJECTID":559674},"geometry":{"x":170125.36000000127,"y":2545547.9600000046}},{"attributes":{"ID":559702,"DIS_CODE":0,"TOWNNAME":"北區","LI":"新勝里","LIN":"9鄰","STREET":"長榮路","SECT":"五段","MAREA":" ","LANE":" ","ALLEY":" ","HOUSE_NO":"３０號六樓之１","E_COORD97":170125.35999999999,"N_COORD97":2545547.96,"ADDRESS":"長榮路五段３０號六樓之１","OBJECTID":559675},"geometry":{"x":170125.36000000127,"y":2545547.9600000046}},{"attributes":{"ID":559703,"DIS_CODE":0,"TOWNNAME":"北區","LI":"新勝里","LIN":"9鄰","STREET":"長榮路","SECT":"五段","MAREA":" ","LANE":" ","ALLEY":" ","HOUSE_NO":"３０號六樓之２","E_COORD97":170125.35999999999,"N_COORD97":2545547.96,"ADDRESS":"長榮路五段３０號六樓之２","OBJECTID":559676},"geometry":{"x":170125.36000000127,"y":2545547.9600000046}},{"attributes":{"ID":559704,"DIS_CODE":0,"TOWNNAME":"北區","LI":"新勝里","LIN":"9鄰","STREET":"長榮路","SECT":"五段","MAREA":" ","LANE":" ","ALLEY":" ","HOUSE_NO":"３０號四樓之１","E_COORD97":170125.35999999999,"N_COORD97":2545547.96,"ADDRESS":"長榮路五段３０號四樓之１","OBJECTID":559677},"geometry":{"x":170125.36000000127,"y":2545547.9600000046}},{"attributes":{"ID":559705,"DIS_CODE":0,"TOWNNAME":"北區","LI":"新勝里","LIN":"9鄰","STREET":"長榮路","SECT":"五段","MAREA":" ","LANE":" ","ALLEY":" ","HOUSE_NO":"３０號四樓之２","E_COORD97":170125.35999999999,"N_COORD97":2545547.96,"ADDRESS":"長榮路五段３０號四樓之２","OBJECTID":559678},"geometry":{"x":170125.36000000127,"y":2545547.9600000046}},{"attributes":{"ID":559706,"DIS_CODE":0,"TOWNNAME":"永康區","LI":"建國里","LIN":" ","STREET":"興國街","SECT":" ","MAREA":" ","LANE":" ","ALLEY":" ","HOUSE_NO":"２８號","E_COORD97":172334.94,"N_COORD97":2545034.9900000002,"ADDRESS":"興國街２８號","OBJECTID":559679},"geometry":{"x":172334.94000000041,"y":2545034.9900000039}},{"attributes":{"ID":559707,"DIS_CODE":0,"TOWNNAME":"永康區","LI":"\u25A0行里","LIN":"46鄰","STREET":"新行街","SECT":" ","MAREA":" ","LANE":" ","ALLEY":" ","HOUSE_NO":"１１９號","E_COORD97":172314.82000000001,"N_COORD97":2549021.25,"ADDRESS":"新行街１１９號","OBJECTID":559680},"geometry":{"x":172314.8200000003,"y":2549021.2500000019}},{"attributes":{"ID":559708,"DIS_CODE":0,"TOWNNAME":"北區","LI":"新勝里","LIN":"9鄰","STREET":"長榮路","SECT":"五段","MAREA":" ","LANE":" ","ALLEY":" ","HOUSE_NO":"３４號二樓","E_COORD97":170116.42999999999,"N_COORD97":2545569.4399999999,"ADDRESS":"長榮路五段３４號二樓","OBJECTID":559681},"geometry":{"x":170116.4299999997,"y":2545569.4399999995}},{"attributes":{"ID":559709,"DIS_CODE":0,"TOWNNAME":"北區","LI":"新勝里","LIN":"9鄰","STREET":"長榮路","SECT":"五段","MAREA":" ","LANE":" ","ALLEY":" ","HOUSE_NO":"３４號三樓","E_COORD97":170116.42999999999,"N_COORD97":2545569.4399999999,"ADDRESS":"長榮路五段３４號三樓","OBJECTID":559682},"geometry":{"x":170116.4299999997,"y":2545569.4399999995}},{"attributes":{"ID":559710,"DIS_CODE":0,"TOWNNAME":"北區","LI":"新勝里","LIN":"9鄰","STREET":"長榮路","SECT":"五段","MAREA":" ","LANE":" ","ALLEY":" ","HOUSE_NO":"３４號四樓","E_COORD97":170116.42999999999,"N_COORD97":2545569.4399999999,"ADDRESS":"長榮路五段３４號四樓","OBJECTID":559683},"geometry":{"x":170116.4299999997,"y":2545569.4399999995}},{"attributes":{"ID":559711,"DIS_CODE":0,"TOWNNAME":"北區","LI":"新勝里","LIN":"9鄰","STREET":"長榮路","SECT":"五段","MAREA":" ","LANE":" ","ALLEY":" ","HOUSE_NO":"３０號七樓之１","E_COORD97":170125.35999999999,"N_COORD97":2545547.96,"ADDRESS":"長榮路五段３０號七樓之１","OBJECTID":559684},"geometry":{"x":170125.36000000127,"y":2545547.9600000046}},{"attributes":{"ID":559712,"DIS_CODE":0,"TOWNNAME":"北區","LI":"新勝里","LIN":"9鄰","STREET":"長榮路","SECT":"五段","MAREA":" ","LANE":" ","ALLEY":" ","HOUSE_NO":"３０號七樓之２","E_COORD97":170125.35999999999,"N_COORD97":2545547.96,"ADDRESS":"長榮路五段３０號七樓之２","OBJECTID":559685},"geometry":{"x":170125.36000000127,"y":2545547.9600000046}},{"attributes":{"ID":559713,"DIS_CODE":0,"TOWNNAME":"北區","LI":"新勝里","LIN":"9鄰","STREET":"長榮路","SECT":"五段","MAREA":" ","LANE":" ","ALLEY":" ","HOUSE_NO":"３０號二樓之１","E_COORD97":170125.35999999999,"N_COORD97":2545547.96,"ADDRESS":"長榮路五段３０號二樓之１","OBJECTID":559686},"geometry":{"x":170125.36000000127,"y":2545547.9600000046}},{"attributes":{"ID":559714,"DIS_CODE":0,"TOWNNAME":"北區","LI":"新勝里","LIN":"9鄰","STREET":"長榮路","SECT":"五段","MAREA":" ","LANE":" ","ALLEY":" ","HOUSE_NO":"３０號二樓之２","E_COORD97":170125.35999999999,"N_COORD97":2545547.96,"ADDRESS":"長榮路五段３０號二樓之２","OBJECTID":559687},"geometry":{"x":170125.36000000127,"y":2545547.9600000046}},{"attributes":{"ID":559715,"DIS_CODE":0,"TOWNNAME":"北區","LI":"新勝里","LIN":"9鄰","STREET":"長榮路","SECT":"五段","MAREA":" ","LANE":" ","ALLEY":" ","HOUSE_NO":"３０號三樓之１","E_COORD97":170125.35999999999,"N_COORD97":2545547.96,"ADDRESS":"長榮路五段３０號三樓之１","OBJECTID":559688},"geometry":{"x":170125.36000000127,"y":2545547.9600000046}},{"attributes":{"ID":559716,"DIS_CODE":0,"TOWNNAME":"北區","LI":"新勝里","LIN":"9鄰","STREET":"長榮路","SECT":"五段","MAREA":" ","LANE":" ","ALLEY":" ","HOUSE_NO":"３６號二樓","E_COORD97":170127.10000000001,"N_COORD97":2545570.7000000002,"ADDRESS":"長榮路五段３６號二樓","OBJECTID":559689},"geometry":{"x":170127.09999999963,"y":2545570.6999999993}},{"attributes":{"ID":559717,"DIS_CODE":0,"TOWNNAME":"北區","LI":"新勝里","LIN":"9鄰","STREET":"長榮路","SECT":"五段","MAREA":" ","LANE":" ","ALLEY":" ","HOUSE_NO":"３６號三樓","E_COORD97":170127.10000000001,"N_COORD97":2545570.7000000002,"ADDRESS":"長榮路五段３６號三樓","OBJECTID":559690},"geometry":{"x":170127.09999999963,"y":2545570.6999999993}},{"attributes":{"ID":559718,"DIS_CODE":0,"TOWNNAME":"北區","LI":"新勝里","LIN":"9鄰","STREET":"長榮路","SECT":"五段","MAREA":" ","LANE":" ","ALLEY":" ","HOUSE_NO":"３６號四樓","E_COORD97":170127.10000000001,"N_COORD97":2545570.7000000002,"ADDRESS":"長榮路五段３６號四樓","OBJECTID":559691},"geometry":{"x":170127.09999999963,"y":2545570.6999999993}},{"attributes":{"ID":559719,"DIS_CODE":0,"TOWNNAME":"北區","LI":"新勝里","LIN":"9鄰","STREET":"長榮路","SECT":"五段","MAREA":" ","LANE":" ","ALLEY":" ","HOUSE_NO":"３８號二樓","E_COORD97":170125.28,"N_COORD97":2545583.3599999999,"ADDRESS":"長榮路五段３８號二樓","OBJECTID":559692},"geometry":{"x":170125.28000000026,"y":2545583.3599999994}},{"attributes":{"ID":559720,"DIS_CODE":0,"TOWNNAME":"北區","LI":"新勝里","LIN":"9鄰","STREET":"長榮路","SECT":"五段","MAREA":" ","LANE":" ","ALLEY":" ","HOUSE_NO":"３８號三樓","E_COORD97":170125.28,"N_COORD97":2545583.3599999999,"ADDRESS":"長榮路五段３８號三樓","OBJECTID":559693},"geometry":{"x":170125.28000000026,"y":2545583.3599999994}},{"attributes":{"ID":559721,"DIS_CODE":0,"TOWNNAME":"北區","LI":"新勝里","LIN":"9鄰","STREET":"長榮路","SECT":"五段","MAREA":" ","LANE":" ","ALLEY":" ","HOUSE_NO":"３８號四樓","E_COORD97":170125.28,"N_COORD97":2545583.3599999999,"ADDRESS":"長榮路五段３８號四樓","OBJECTID":559694},"geometry":{"x":170125.28000000026,"y":2545583.3599999994}},{"attributes":{"ID":559722,"DIS_CODE":0,"TOWNNAME":"北區","LI":"新勝里","LIN":"9鄰","STREET":"長榮路","SECT":"五段","MAREA":" ","LANE":" ","ALLEY":" ","HOUSE_NO":"４０號二樓","E_COORD97":170114.45999999999,"N_COORD97":2545582.1800000002,"ADDRESS":"長榮路五段４０號二樓","OBJECTID":559695},"geometry":{"x":170114.46000000089,"y":2545582.1800000034}},{"attributes":{"ID":559723,"DIS_CODE":0,"TOWNNAME":"北區","LI":"新勝里","LIN":"9鄰","STREET":"長榮路","SECT":"五段","MAREA":" ","LANE":" ","ALLEY":" ","HOUSE_NO":"４０號三樓","E_COORD97":170114.45999999999,"N_COORD97":2545582.1800000002,"ADDRESS":"長榮路五段４０號三樓","OBJECTID":559696},"geometry":{"x":170114.46000000089,"y":2545582.1800000034}},{"attributes":{"ID":559724,"DIS_CODE":0,"TOWNNAME":"北區","LI":"新勝里","LIN":"9鄰","STREET":"長榮路","SECT":"五段","MAREA":" ","LANE":" ","ALLEY":" ","HOUSE_NO":"４０號四樓","E_COORD97":170114.45999999999,"N_COORD97":2545582.1800000002,"ADDRESS":"長榮路五段４０號四樓","OBJECTID":559697},"geometry":{"x":170114.46000000089,"y":2545582.1800000034}},{"attributes":{"ID":559725,"DIS_CODE":0,"TOWNNAME":"北區","LI":"新勝里","LIN":"9鄰","STREET":"長榮路","SECT":"五段","MAREA":" ","LANE":" ","ALLEY":" ","HOUSE_NO":"４２號二樓","E_COORD97":170111.12,"N_COORD97":2545604.4500000002,"ADDRESS":"長榮路五段４２號二樓","OBJECTID":559698},"geometry":{"x":170111.11999999918,"y":2545604.4500000011}},{"attributes":{"ID":559726,"DIS_CODE":0,"TOWNNAME":"北區","LI":"新勝里","LIN":"9鄰","STREET":"長榮路","SECT":"五段","MAREA":" ","LANE":" ","ALLEY":" ","HOUSE_NO":"４２號三樓","E_COORD97":170111.12,"N_COORD97":2545604.4500000002,"ADDRESS":"長榮路五段４２號三樓","OBJECTID":559699},"geometry":{"x":170111.11999999918,"y":2545604.4500000011}},{"attributes":{"ID":559727,"DIS_CODE":0,"TOWNNAME":"北區","LI":"新勝里","LIN":"9鄰","STREET":"長榮路","SECT":"五段","MAREA":" ","LANE":" ","ALLEY":" ","HOUSE_NO":"４２號四樓","E_COORD97":170111.12,"N_COORD97":2545604.4500000002,"ADDRESS":"長榮路五段４２號四樓","OBJECTID":559700},"geometry":{"x":170111.11999999918,"y":2545604.4500000011}},{"attributes":{"ID":559728,"DIS_CODE":0,"TOWNNAME":"北區","LI":"新勝里","LIN":"9鄰","STREET":"長榮路","SECT":"五段","MAREA":" ","LANE":" ","ALLEY":" ","HOUSE_NO":"４４號二樓","E_COORD97":170120.48999999999,"N_COORD97":2545605.8100000001,"ADDRESS":"長榮路五段４４號二樓","OBJECTID":559701},"geometry":{"x":170120.49000000022,"y":2545605.8099999987}},{"attributes":{"ID":559729,"DIS_CODE":0,"TOWNNAME":"北區","LI":"新勝里","LIN":"9鄰","STREET":"長榮路","SECT":"五段","MAREA":" ","LANE":" ","ALLEY":" ","HOUSE_NO":"４４號三樓","E_COORD97":170120.48999999999,"N_COORD97":2545605.8100000001,"ADDRESS":"長榮路五段４４號三樓","OBJECTID":559702},"geometry":{"x":170120.49000000022,"y":2545605.8099999987}},{"attributes":{"ID":559730,"DIS_CODE":0,"TOWNNAME":"北區","LI":"新勝里","LIN":"9鄰","STREET":"長榮路","SECT":"五段","MAREA":" ","LANE":" ","ALLEY":" ","HOUSE_NO":"４４號四樓","E_COORD97":170120.48999999999,"N_COORD97":2545605.8100000001,"ADDRESS":"長榮路五段４４號四樓","OBJECTID":559703},"geometry":{"x":170120.49000000022,"y":2545605.8099999987}},{"attributes":{"ID":559731,"DIS_CODE":0,"TOWNNAME":"永康區","LI":"\u25A0洲里","LIN":"7鄰","STREET":"三村二街","SECT":" ","MAREA":" ","LANE":" ","ALLEY":" ","HOUSE_NO":"８８號","E_COORD97":171785.26999999999,"N_COORD97":2549519.75,"ADDRESS":"三村二街８８號","OBJECTID":559704},"geometry":{"x":171785.27000000048,"y":2549519.7500000019}},{"attributes":{"ID":559732,"DIS_CODE":0,"TOWNNAME":"北區","LI":"新勝里","LIN":"9鄰","STREET":"長榮路","SECT":"五段","MAREA":" ","LANE":" ","ALLEY":" ","HOUSE_NO":"４６號二樓","E_COORD97":170118.47,"N_COORD97":2545617.0800000001,"ADDRESS":"長榮路五段４６號二樓","OBJECTID":559705},"geometry":{"x":170118.46999999974,"y":2545617.0799999982}},{"attributes":{"ID":559733,"DIS_CODE":0,"TOWNNAME":"永康區","LI":"\u25A0洲里","LIN":"4鄰","STREET":"\u25A0洲二街","SECT":" ","MAREA":" ","LANE":" ","ALLEY":" ","HOUSE_NO":"１１７號","E_COORD97":171655.41,"N_COORD97":2549522.6299999999,"ADDRESS":"\u25A0洲二街１１７號","OBJECTID":559706},"geometry":{"x":171655.41000000201,"y":2549522.6300000008}},{"attributes":{"ID":559734,"DIS_CODE":0,"TOWNNAME":"永康區","LI":"正強里","LIN":" ","STREET":"正強街","SECT":" ","MAREA":" ","LANE":" ","ALLEY":" ","HOUSE_NO":"１６８之５號","E_COORD97":173341.54000000001,"N_COORD97":2547486.5699999998,"ADDRESS":"正強街１６８之５號","OBJECTID":559707},"geometry":{"x":173341.54000000097,"y":2547486.5700000022}},{"attributes":{"ID":559735,"DIS_CODE":0,"TOWNNAME":"永康區","LI":"正強里","LIN":" ","STREET":"正義街","SECT":" ","MAREA":" ","LANE":" ","ALLEY":" ","HOUSE_NO":"１２２號","E_COORD97":173386.45000000001,"N_COORD97":2547558.52,"ADDRESS":"正義街１２２號","OBJECTID":559708},"geometry":{"x":173386.45000000112,"y":2547558.5199999996}},{"attributes":{"ID":559736,"DIS_CODE":0,"TOWNNAME":"永康區","LI":"\u25A0洲里","LIN":"4鄰","STREET":"\u25A0洲二街","SECT":" ","MAREA":" ","LANE":" ","ALLEY":" ","HOUSE_NO":"１１５號","E_COORD97":171652.95999999999,"N_COORD97":2549526.6699999999,"ADDRESS":"\u25A0洲二街１１５號","OBJECTID":559709},"geometry":{"x":171652.95999999903,"y":2549526.6700000018}},{"attributes":{"ID":559737,"DIS_CODE":0,"TOWNNAME":"永康區","LI":"西勢里","LIN":" ","STREET":"富強路","SECT":"一段","MAREA":" ","LANE":" ","ALLEY":" ","HOUSE_NO":"７３之５號","E_COORD97":175444.20000000001,"N_COORD97":2546156.3900000001,"ADDRESS":"富強路一段７３之５號","OBJECTID":559710},"geometry":{"x":175444.20000000112,"y":2546156.3900000025}},{"attributes":{"ID":559738,"DIS_CODE":0,"TOWNNAME":"永康區","LI":"\u25A0行里","LIN":"7鄰","STREET":"中正五街","SECT":" ","MAREA":" ","LANE":" ","ALLEY":" ","HOUSE_NO":"１７號","E_COORD97":172561.29000000001,"N_COORD97":2548552.9900000002,"ADDRESS":"中正五街１７號","OBJECTID":559711},"geometry":{"x":172561.2900000019,"y":2548552.9900000002}},{"attributes":{"ID":559739,"DIS_CODE":0,"TOWNNAME":"永康區","LI":"\u25A0行里","LIN":"12鄰","STREET":"中正路","SECT":" ","MAREA":" ","LANE":" ","ALLEY":" ","HOUSE_NO":"５４５號","E_COORD97":171991.91,"N_COORD97":2548884.3399999999,"ADDRESS":"中正路５４５號","OBJECTID":559712},"geometry":{"x":171991.91000000015,"y":2548884.3400000017}},{"attributes":{"ID":559740,"DIS_CODE":0,"TOWNNAME":"永康區","LI":"正強里","LIN":"9鄰","STREET":"正義街","SECT":" ","MAREA":" ","LANE":" ","ALLEY":" ","HOUSE_NO":"１１０號","E_COORD97":173410.29000000001,"N_COORD97":2547570.52,"ADDRESS":"正義街１１０號","OBJECTID":559713},"geometry":{"x":173410.29000000004,"y":2547570.5200000014}},{"attributes":{"ID":559741,"DIS_CODE":0,"TOWNNAME":"北區","LI":"新勝里","LIN":"9鄰","STREET":"長榮路","SECT":"五段","MAREA":" ","LANE":" ","ALLEY":" ","HOUSE_NO":"４６號三樓","E_COORD97":170118.47,"N_COORD97":2545617.0800000001,"ADDRESS":"長榮路五段４６號三樓","OBJECTID":559714},"geometry":{"x":170118.46999999974,"y":2545617.0799999982}},{"attributes":{"ID":559742,"DIS_CODE":0,"TOWNNAME":"北區","LI":"新勝里","LIN":"9鄰","STREET":"長榮路","SECT":"五段","MAREA":" ","LANE":" ","ALLEY":" ","HOUSE_NO":"４６號四樓","E_COORD97":170118.47,"N_COORD97":2545617.0800000001,"ADDRESS":"長榮路五段４６號四樓","OBJECTID":559715},"geometry":{"x":170118.46999999974,"y":2545617.0799999982}},{"attributes":{"ID":559743,"DIS_CODE":0,"TOWNNAME":"北區","LI":"新勝里","LIN":"9鄰","STREET":"長榮路","SECT":"五段","MAREA":" ","LANE":" ","ALLEY":" ","HOUSE_NO":"４８號二樓","E_COORD97":170109.23000000001,"N_COORD97":2545615.3900000001,"ADDRESS":"長榮路五段４８號二樓","OBJECTID":559716},"geometry":{"x":170109.23000000231,"y":2545615.3900000006}},{"attributes":{"ID":559744,"DIS_CODE":0,"TOWNNAME":"北區","LI":"新勝里","LIN":"9鄰","STREET":"長榮路","SECT":"五段","MAREA":" ","LANE":" ","ALLEY":" ","HOUSE_NO":"４８號三樓","E_COORD97":170109.23000000001,"N_COORD97":2545615.3900000001,"ADDRESS":"長榮路五段４８號三樓","OBJECTID":559717},"geometry":{"x":170109.23000000231,"y":2545615.3900000006}},{"attributes":{"ID":559745,"DIS_CODE":0,"TOWNNAME":"北區","LI":"新勝里","LIN":"9鄰","STREET":"長榮路","SECT":"五段","MAREA":" ","LANE":" ","ALLEY":" ","HOUSE_NO":"４８號四樓","E_COORD97":170109.23000000001,"N_COORD97":2545615.3900000001,"ADDRESS":"長榮路五段４８號四樓","OBJECTID":559718},"geometry":{"x":170109.23000000231,"y":2545615.3900000006}},{"attributes":{"ID":559746,"DIS_CODE":0,"TOWNNAME":"北區","LI":"裕民里","LIN":"8鄰","STREET":"成功路","SECT":" ","MAREA":" ","LANE":" ","ALLEY":" ","HOUSE_NO":"５８４號七樓之１","E_COORD97":167523.35999999999,"N_COORD97":2544736.5800000001,"ADDRESS":"成功路５８４號七樓之１","OBJECTID":559719},"geometry":{"x":167523.36000000127,"y":2544736.5800000019}},{"attributes":{"ID":559747,"DIS_CODE":0,"TOWNNAME":"北區","LI":"裕民里","LIN":"8鄰","STREET":"成功路","SECT":" ","MAREA":" ","LANE":" ","ALLEY":" ","HOUSE_NO":"５８４號七樓之２","E_COORD97":167523.35999999999,"N_COORD97":2544736.5800000001,"ADDRESS":"成功路５８４號七樓之２","OBJECTID":559720},"geometry":{"x":167523.36000000127,"y":2544736.5800000019}},{"attributes":{"ID":559748,"DIS_CODE":0,"TOWNNAME":"北區","LI":"裕民里","LIN":"8鄰","STREET":"成功路","SECT":" ","MAREA":" ","LANE":" ","ALLEY":" ","HOUSE_NO":"５８４號七樓之３","E_COORD97":167523.35999999999,"N_COORD97":2544736.5800000001,"ADDRESS":"成功路５８４號七樓之３","OBJECTID":559721},"geometry":{"x":167523.36000000127,"y":2544736.5800000019}},{"attributes":{"ID":559749,"DIS_CODE":0,"TOWNNAME":"北區","LI":"裕民里","LIN":"8鄰","STREET":"成功路","SECT":" ","MAREA":" ","LANE":" ","ALLEY":" ","HOUSE_NO":"５８４號七樓之４","E_COORD97":167523.35999999999,"N_COORD97":2544736.5800000001,"ADDRESS":"成功路５８４號七樓之４","OBJECTID":559722},"geometry":{"x":167523.36000000127,"y":2544736.5800000019}},{"attributes":{"ID":559750,"DIS_CODE":0,"TOWNNAME":"北區","LI":"裕民里","LIN":"8鄰","STREET":"成功路","SECT":" ","MAREA":" ","LANE":" ","ALLEY":" ","HOUSE_NO":"５８４號七樓之５","E_COORD97":167523.35999999999,"N_COORD97":2544736.5800000001,"ADDRESS":"成功路５８４號七樓之５","OBJECTID":559723},"geometry":{"x":167523.36000000127,"y":2544736.5800000019}},{"attributes":{"ID":559751,"DIS_CODE":0,"TOWNNAME":"北區","LI":"裕民里","LIN":"8鄰","STREET":"成功路","SECT":" ","MAREA":" ","LANE":" ","ALLEY":" ","HOUSE_NO":"５８４號九樓之３","E_COORD97":167523.35999999999,"N_COORD97":2544736.5800000001,"ADDRESS":"成功路５８４號九樓之３","OBJECTID":559724},"geometry":{"x":167523.36000000127,"y":2544736.5800000019}},{"attributes":{"ID":559752,"DIS_CODE":0,"TOWNNAME":"北區","LI":"裕民里","LIN":"8鄰","STREET":"成功路","SECT":" ","MAREA":" ","LANE":" ","ALLEY":" ","HOUSE_NO":"５８４號九樓之４","E_COORD97":167523.35999999999,"N_COORD97":2544736.5800000001,"ADDRESS":"成功路５８４號九樓之４","OBJECTID":559725},"geometry":{"x":167523.36000000127,"y":2544736.5800000019}},{"attributes":{"ID":559753,"DIS_CODE":0,"TOWNNAME":"北區","LI":"裕民里","LIN":"8鄰","STREET":"成功路","SECT":" ","MAREA":" ","LANE":" ","ALLEY":" ","HOUSE_NO":"５８４號九樓之５","E_COORD97":167523.35999999999,"N_COORD97":2544736.5800000001,"ADDRESS":"成功路５８４號九樓之５","OBJECTID":559726},"geometry":{"x":167523.36000000127,"y":2544736.5800000019}},{"attributes":{"ID":559754,"DIS_CODE":0,"TOWNNAME":"北區","LI":"裕民里","LIN":"8鄰","STREET":"成功路","SECT":" ","MAREA":" ","LANE":" ","ALLEY":" ","HOUSE_NO":"５８４號九樓之６","E_COORD97":167523.35999999999,"N_COORD97":2544736.5800000001,"ADDRESS":"成功路５８４號九樓之６","OBJECTID":559727},"geometry":{"x":167523.36000000127,"y":2544736.5800000019}},{"attributes":{"ID":559755,"DIS_CODE":0,"TOWNNAME":"北區","LI":"裕民里","LIN":"8鄰","STREET":"成功路","SECT":" ","MAREA":" ","LANE":" ","ALLEY":" ","HOUSE_NO":"５８４號九樓之７","E_COORD97":167523.35999999999,"N_COORD97":2544736.5800000001,"ADDRESS":"成功路５８４號九樓之７","OBJECTID":559728},"geometry":{"x":167523.36000000127,"y":2544736.5800000019}},{"attributes":{"ID":559756,"DIS_CODE":0,"TOWNNAME":"仁德區","LI":"成功里","LIN":"9鄰","STREET":"保華路","SECT":" ","MAREA":" ","LANE":" ","ALLEY":" ","HOUSE_NO":"１９９號","E_COORD97":170939.57000000001,"N_COORD97":2540016.5,"ADDRESS":"保華路１９９號","OBJECTID":559729},"geometry":{"x":170939.57000000123,"y":2540016.5}},{"attributes":{"ID":559757,"DIS_CODE":0,"TOWNNAME":"北區","LI":"裕民里","LIN":"8鄰","STREET":"成功路","SECT":" ","MAREA":" ","LANE":" ","ALLEY":" ","HOUSE_NO":"５８４號二樓之１","E_COORD97":167523.35999999999,"N_COORD97":2544736.5800000001,"ADDRESS":"成功路５８４號二樓之１","OBJECTID":559730},"geometry":{"x":167523.36000000127,"y":2544736.5800000019}},{"attributes":{"ID":559758,"DIS_CODE":0,"TOWNNAME":"北區","LI":"裕民里","LIN":"8鄰","STREET":"成功路","SECT":" ","MAREA":" ","LANE":" ","ALLEY":" ","HOUSE_NO":"５８４號八樓之１","E_COORD97":167523.35999999999,"N_COORD97":2544736.5800000001,"ADDRESS":"成功路５８４號八樓之１","OBJECTID":559731},"geometry":{"x":167523.36000000127,"y":2544736.5800000019}},{"attributes":{"ID":559759,"DIS_CODE":0,"TOWNNAME":"北區","LI":"裕民里","LIN":"8鄰","STREET":"成功路","SECT":" ","MAREA":" ","LANE":" ","ALLEY":" ","HOUSE_NO":"５８４號八樓之２","E_COORD97":167523.35999999999,"N_COORD97":2544736.5800000001,"ADDRESS":"成功路５８４號八樓之２","OBJECTID":559732},"geometry":{"x":167523.36000000127,"y":2544736.5800000019}},{"attributes":{"ID":559760,"DIS_CODE":0,"TOWNNAME":"北區","LI":"裕民里","LIN":"8鄰","STREET":"成功路","SECT":" ","MAREA":" ","LANE":" ","ALLEY":" ","HOUSE_NO":"５８４號八樓之３","E_COORD97":167523.35999999999,"N_COORD97":2544736.5800000001,"ADDRESS":"成功路５８４號八樓之３","OBJECTID":559733},"geometry":{"x":167523.36000000127,"y":2544736.5800000019}},{"attributes":{"ID":559761,"DIS_CODE":0,"TOWNNAME":"北區","LI":"裕民里","LIN":"8鄰","STREET":"成功路","SECT":" ","MAREA":" ","LANE":" ","ALLEY":" ","HOUSE_NO":"５８４號八樓之４","E_COORD97":167523.35999999999,"N_COORD97":2544736.5800000001,"ADDRESS":"成功路５８４號八樓之４","OBJECTID":559734},"geometry":{"x":167523.36000000127,"y":2544736.5800000019}},{"attributes":{"ID":559762,"DIS_CODE":0,"TOWNNAME":"北區","LI":"裕民里","LIN":"8鄰","STREET":"成功路","SECT":" ","MAREA":" ","LANE":" ","ALLEY":" ","HOUSE_NO":"５８４號八樓之５","E_COORD97":167523.35999999999,"N_COORD97":2544736.5800000001,"ADDRESS":"成功路５８４號八樓之５","OBJECTID":559735},"geometry":{"x":167523.36000000127,"y":2544736.5800000019}},{"attributes":{"ID":559763,"DIS_CODE":0,"TOWNNAME":"北區","LI":"裕民里","LIN":"8鄰","STREET":"成功路","SECT":" ","MAREA":" ","LANE":" ","ALLEY":" ","HOUSE_NO":"５８４號八樓之６","E_COORD97":167523.35999999999,"N_COORD97":2544736.5800000001,"ADDRESS":"成功路５８４號八樓之６","OBJECTID":559736},"geometry":{"x":167523.36000000127,"y":2544736.5800000019}},{"attributes":{"ID":559764,"DIS_CODE":0,"TOWNNAME":"永康區","LI":"\u25A0行里","LIN":"7鄰","STREET":"中正路","SECT":" ","MAREA":" ","LANE":" ","ALLEY":" ","HOUSE_NO":"６９６號","E_COORD97":172470.26999999999,"N_COORD97":2548427.7400000002,"ADDRESS":"中正路６９６號","OBJECTID":559737},"geometry":{"x":172470.26999999955,"y":2548427.7400000021}},{"attributes":{"ID":559765,"DIS_CODE":0,"TOWNNAME":"東區","LI":"德光里","LIN":"9鄰","STREET":"崇學路","SECT":" ","MAREA":" ","LANE":" ","ALLEY":" ","HOUSE_NO":"８１號五樓","E_COORD97":170164.64000000001,"N_COORD97":2542079.8300000001,"ADDRESS":"崇學路８１號五樓","OBJECTID":559738},"geometry":{"x":170164.63999999966,"y":2542079.8300000019}},{"attributes":{"ID":559766,"DIS_CODE":0,"TOWNNAME":"北區","LI":"裕民里","LIN":"8鄰","STREET":"成功路","SECT":" ","MAREA":" ","LANE":" ","ALLEY":" ","HOUSE_NO":"５８４號八樓之７","E_COORD97":167523.35999999999,"N_COORD97":2544736.5800000001,"ADDRESS":"成功路５８４號八樓之７","OBJECTID":559739},"geometry":{"x":167523.36000000127,"y":2544736.5800000019}},{"attributes":{"ID":559767,"DIS_CODE":0,"TOWNNAME":"北區","LI":"裕民里","LIN":"8鄰","STREET":"成功路","SECT":" ","MAREA":" ","LANE":" ","ALLEY":" ","HOUSE_NO":"５８４號十一樓之１","E_COORD97":167523.35999999999,"N_COORD97":2544736.5800000001,"ADDRESS":"成功路５８４號十一樓之１","OBJECTID":559740},"geometry":{"x":167523.36000000127,"y":2544736.5800000019}},{"attributes":{"ID":559768,"DIS_CODE":0,"TOWNNAME":"北區","LI":"裕民里","LIN":"8鄰","STREET":"成功路","SECT":" ","MAREA":" ","LANE":" ","ALLEY":" ","HOUSE_NO":"５８４號十一樓之２","E_COORD97":167523.35999999999,"N_COORD97":2544736.5800000001,"ADDRESS":"成功路５８４號十一樓之２","OBJECTID":559741},"geometry":{"x":167523.36000000127,"y":2544736.5800000019}},{"attributes":{"ID":559769,"DIS_CODE":0,"TOWNNAME":"北區","LI":"裕民里","LIN":"8鄰","STREET":"成功路","SECT":" ","MAREA":" ","LANE":" ","ALLEY":" ","HOUSE_NO":"５８４號十一樓之３","E_COORD97":167523.35999999999,"N_COORD97":2544736.5800000001,"ADDRESS":"成功路５８４號十一樓之３","OBJECTID":559742},"geometry":{"x":167523.36000000127,"y":2544736.5800000019}},{"attributes":{"ID":559770,"DIS_CODE":0,"TOWNNAME":"北區","LI":"裕民里","LIN":"8鄰","STREET":"成功路","SECT":" ","MAREA":" ","LANE":" ","ALLEY":" ","HOUSE_NO":"５８４號十一樓之４","E_COORD97":167523.35999999999,"N_COORD97":2544736.5800000001,"ADDRESS":"成功路５８４號十一樓之４","OBJECTID":559743},"geometry":{"x":167523.36000000127,"y":2544736.5800000019}},{"attributes":{"ID":559771,"DIS_CODE":0,"TOWNNAME":"北區","LI":"裕民里","LIN":"8鄰","STREET":"成功路","SECT":" ","MAREA":" ","LANE":" ","ALLEY":" ","HOUSE_NO":"５８４號十一樓之５","E_COORD97":167523.35999999999,"N_COORD97":2544736.5800000001,"ADDRESS":"成功路５８４號十一樓之５","OBJECTID":559744},"geometry":{"x":167523.36000000127,"y":2544736.5800000019}},{"attributes":{"ID":559772,"DIS_CODE":0,"TOWNNAME":"北區","LI":"裕民里","LIN":"8鄰","STREET":"成功路","SECT":" ","MAREA":" ","LANE":" ","ALLEY":" ","HOUSE_NO":"５８４號十一樓之６","E_COORD97":167523.35999999999,"N_COORD97":2544736.5800000001,"ADDRESS":"成功路５８４號十一樓之６","OBJECTID":559745},"geometry":{"x":167523.36000000127,"y":2544736.5800000019}},{"attributes":{"ID":559773,"DIS_CODE":0,"TOWNNAME":"北區","LI":"裕民里","LIN":"8鄰","STREET":"成功路","SECT":" ","MAREA":" ","LANE":" ","ALLEY":" ","HOUSE_NO":"５８４號十一樓之７","E_COORD97":167523.35999999999,"N_COORD97":2544736.5800000001,"ADDRESS":"成功路５８４號十一樓之７","OBJECTID":559746},"geometry":{"x":167523.36000000127,"y":2544736.5800000019}},{"attributes":{"ID":559774,"DIS_CODE":0,"TOWNNAME":"北區","LI":"裕民里","LIN":"8鄰","STREET":"成功路","SECT":" ","MAREA":" ","LANE":" ","ALLEY":" ","HOUSE_NO":"５８４號十二樓之１","E_COORD97":167523.35999999999,"N_COORD97":2544736.5800000001,"ADDRESS":"成功路５８４號十二樓之１","OBJECTID":559747},"geometry":{"x":167523.36000000127,"y":2544736.5800000019}},{"attributes":{"ID":559775,"DIS_CODE":0,"TOWNNAME":"北區","LI":"裕民里","LIN":"8鄰","STREET":"成功路","SECT":" ","MAREA":" ","LANE":" ","ALLEY":" ","HOUSE_NO":"５８４號十二樓之２","E_COORD97":167523.35999999999,"N_COORD97":2544736.5800000001,"ADDRESS":"成功路５８４號十二樓之２","OBJECTID":559748},"geometry":{"x":167523.36000000127,"y":2544736.5800000019}},{"attributes":{"ID":559776,"DIS_CODE":0,"TOWNNAME":"北區","LI":"裕民里","LIN":"8鄰","STREET":"成功路","SECT":" ","MAREA":" ","LANE":" ","ALLEY":" ","HOUSE_NO":"５８４號十二樓之３","E_COORD97":167523.35999999999,"N_COORD97":2544736.5800000001,"ADDRESS":"成功路５８４號十二樓之３","OBJECTID":559749},"geometry":{"x":167523.36000000127,"y":2544736.5800000019}},{"attributes":{"ID":559777,"DIS_CODE":0,"TOWNNAME":"北區","LI":"裕民里","LIN":"8鄰","STREET":"成功路","SECT":" ","MAREA":" ","LANE":" ","ALLEY":" ","HOUSE_NO":"５８４號十二樓之４","E_COORD97":167523.35999999999,"N_COORD97":2544736.5800000001,"ADDRESS":"成功路５８４號十二樓之４","OBJECTID":559750},"geometry":{"x":167523.36000000127,"y":2544736.5800000019}},{"attributes":{"ID":559778,"DIS_CODE":0,"TOWNNAME":"北區","LI":"裕民里","LIN":"8鄰","STREET":"成功路","SECT":" ","MAREA":" ","LANE":" ","ALLEY":" ","HOUSE_NO":"５８４號十二樓之５","E_COORD97":167523.35999999999,"N_COORD97":2544736.5800000001,"ADDRESS":"成功路５８４號十二樓之５","OBJECTID":559751},"geometry":{"x":167523.36000000127,"y":2544736.5800000019}},{"attributes":{"ID":559779,"DIS_CODE":0,"TOWNNAME":"北區","LI":"裕民里","LIN":"8鄰","STREET":"成功路","SECT":" ","MAREA":" ","LANE":" ","ALLEY":" ","HOUSE_NO":"５８４號十二樓之６","E_COORD97":167523.35999999999,"N_COORD97":2544736.5800000001,"ADDRESS":"成功路５８４號十二樓之６","OBJECTID":559752},"geometry":{"x":167523.36000000127,"y":2544736.5800000019}},{"attributes":{"ID":559780,"DIS_CODE":0,"TOWNNAME":"北區","LI":"裕民里","LIN":"8鄰","STREET":"成功路","SECT":" ","MAREA":" ","LANE":" ","ALLEY":" ","HOUSE_NO":"５８４號十樓之１","E_COORD97":167523.35999999999,"N_COORD97":2544736.5800000001,"ADDRESS":"成功路５８４號十樓之１","OBJECTID":559753},"geometry":{"x":167523.36000000127,"y":2544736.5800000019}},{"attributes":{"ID":559781,"DIS_CODE":0,"TOWNNAME":"北區","LI":"裕民里","LIN":"8鄰","STREET":"成功路","SECT":" ","MAREA":" ","LANE":" ","ALLEY":" ","HOUSE_NO":"５８４號十樓之２","E_COORD97":167523.35999999999,"N_COORD97":2544736.5800000001,"ADDRESS":"成功路５８４號十樓之２","OBJECTID":559754},"geometry":{"x":167523.36000000127,"y":2544736.5800000019}},{"attributes":{"ID":559782,"DIS_CODE":0,"TOWNNAME":"北區","LI":"裕民里","LIN":"8鄰","STREET":"成功路","SECT":" ","MAREA":" ","LANE":" ","ALLEY":" ","HOUSE_NO":"５８４號十樓之３","E_COORD97":167523.35999999999,"N_COORD97":2544736.5800000001,"ADDRESS":"成功路５８４號十樓之３","OBJECTID":559755},"geometry":{"x":167523.36000000127,"y":2544736.5800000019}},{"attributes":{"ID":559783,"DIS_CODE":0,"TOWNNAME":"北區","LI":"裕民里","LIN":"8鄰","STREET":"成功路","SECT":" ","MAREA":" ","LANE":" ","ALLEY":" ","HOUSE_NO":"５８４號十樓之４","E_COORD97":167523.35999999999,"N_COORD97":2544736.5800000001,"ADDRESS":"成功路５８４號十樓之４","OBJECTID":559756},"geometry":{"x":167523.36000000127,"y":2544736.5800000019}},{"attributes":{"ID":559784,"DIS_CODE":0,"TOWNNAME":"北區","LI":"裕民里","LIN":"8鄰","STREET":"成功路","SECT":" ","MAREA":" ","LANE":" ","ALLEY":" ","HOUSE_NO":"５８４號十樓之５","E_COORD97":167523.35999999999,"N_COORD97":2544736.5800000001,"ADDRESS":"成功路５８４號十樓之５","OBJECTID":559757},"geometry":{"x":167523.36000000127,"y":2544736.5800000019}},{"attributes":{"ID":559785,"DIS_CODE":0,"TOWNNAME":"北區","LI":"裕民里","LIN":"8鄰","STREET":"成功路","SECT":" ","MAREA":" ","LANE":" ","ALLEY":" ","HOUSE_NO":"５８４號三樓之１","E_COORD97":167523.35999999999,"N_COORD97":2544736.5800000001,"ADDRESS":"成功路５８４號三樓之１","OBJECTID":559758},"geometry":{"x":167523.36000000127,"y":2544736.5800000019}},{"attributes":{"ID":559786,"DIS_CODE":0,"TOWNNAME":"北區","LI":"裕民里","LIN":"8鄰","STREET":"成功路","SECT":" ","MAREA":" ","LANE":" ","ALLEY":" ","HOUSE_NO":"５８４號三樓之２","E_COORD97":167523.35999999999,"N_COORD97":2544736.5800000001,"ADDRESS":"成功路５８４號三樓之２","OBJECTID":559759},"geometry":{"x":167523.36000000127,"y":2544736.5800000019}},{"attributes":{"ID":559787,"DIS_CODE":0,"TOWNNAME":"北區","LI":"裕民里","LIN":"8鄰","STREET":"成功路","SECT":" ","MAREA":" ","LANE":" ","ALLEY":" ","HOUSE_NO":"５８４號三樓之３","E_COORD97":167523.35999999999,"N_COORD97":2544736.5800000001,"ADDRESS":"成功路５８４號三樓之３","OBJECTID":559760},"geometry":{"x":167523.36000000127,"y":2544736.5800000019}},{"attributes":{"ID":559788,"DIS_CODE":0,"TOWNNAME":"北區","LI":"裕民里","LIN":"8鄰","STREET":"成功路","SECT":" ","MAREA":" ","LANE":" ","ALLEY":" ","HOUSE_NO":"５８４號三樓之４","E_COORD97":167523.35999999999,"N_COORD97":2544736.5800000001,"ADDRESS":"成功路５８４號三樓之４","OBJECTID":559761},"geometry":{"x":167523.36000000127,"y":2544736.5800000019}},{"attributes":{"ID":559789,"DIS_CODE":0,"TOWNNAME":"北區","LI":"裕民里","LIN":"8鄰","STREET":"成功路","SECT":" ","MAREA":" ","LANE":" ","ALLEY":" ","HOUSE_NO":"５８４號三樓之５","E_COORD97":167523.35999999999,"N_COORD97":2544736.5800000001,"ADDRESS":"成功路５８４號三樓之５","OBJECTID":559762},"geometry":{"x":167523.36000000127,"y":2544736.5800000019}},{"attributes":{"ID":559790,"DIS_CODE":0,"TOWNNAME":"北區","LI":"裕民里","LIN":"8鄰","STREET":"成功路","SECT":" ","MAREA":" ","LANE":" ","ALLEY":" ","HOUSE_NO":"５８４號三樓之６","E_COORD97":167523.35999999999,"N_COORD97":2544736.5800000001,"ADDRESS":"成功路５８４號三樓之６","OBJECTID":559763},"geometry":{"x":167523.36000000127,"y":2544736.5800000019}},{"attributes":{"ID":559791,"DIS_CODE":0,"TOWNNAME":"永康區","LI":"大灣里","LIN":" ","STREET":"大灣路","SECT":" ","MAREA":" ","LANE":" ","ALLEY":" ","HOUSE_NO":"２３０之９號","E_COORD97":173402.01000000001,"N_COORD97":2545188.9100000001,"ADDRESS":"大灣路２３０之９號","OBJECTID":559764},"geometry":{"x":173402.01000000164,"y":2545188.910000002}},{"attributes":{"ID":559792,"DIS_CODE":0,"TOWNNAME":"永康區","LI":"\u25A0洲里","LIN":"5鄰","STREET":"仁愛街","SECT":" ","MAREA":" ","LANE":" ","ALLEY":" ","HOUSE_NO":"８７號","E_COORD97":172027.25,"N_COORD97":2549431.2799999998,"ADDRESS":"仁愛街８７號","OBJECTID":559765},"geometry":{"x":172027.25,"y":2549431.2799999993}},{"attributes":{"ID":559793,"DIS_CODE":0,"TOWNNAME":"永康區","LI":"\u25A0行里","LIN":"26鄰","STREET":"中正南路","SECT":" ","MAREA":" ","LANE":" ","ALLEY":" ","HOUSE_NO":"４６８號","E_COORD97":171207.73999999999,"N_COORD97":2548440.2400000002,"ADDRESS":"中正南路４６８號","OBJECTID":559766},"geometry":{"x":171207.74000000115,"y":2548440.2400000002}},{"attributes":{"ID":559794,"DIS_CODE":0,"TOWNNAME":"永康區","LI":"\u25A0行里","LIN":"31鄰","STREET":"仁愛街","SECT":" ","MAREA":" ","LANE":" ","ALLEY":" ","HOUSE_NO":"２號","E_COORD97":171881.81,"N_COORD97":2549108.8900000001,"ADDRESS":"仁愛街２號","OBJECTID":559767},"geometry":{"x":171881.80999999959,"y":2549108.8900000025}},{"attributes":{"ID":559795,"DIS_CODE":0,"TOWNNAME":"北區","LI":"裕民里","LIN":"8鄰","STREET":"成功路","SECT":" ","MAREA":" ","LANE":" ","ALLEY":" ","HOUSE_NO":"５８４號三樓之７","E_COORD97":167523.35999999999,"N_COORD97":2544736.5800000001,"ADDRESS":"成功路５８４號三樓之７","OBJECTID":559768},"geometry":{"x":167523.36000000127,"y":2544736.5800000019}},{"attributes":{"ID":559796,"DIS_CODE":0,"TOWNNAME":"北區","LI":"裕民里","LIN":"8鄰","STREET":"成功路","SECT":" ","MAREA":" ","LANE":" ","ALLEY":" ","HOUSE_NO":"５８４號五樓之１","E_COORD97":167523.35999999999,"N_COORD97":2544736.5800000001,"ADDRESS":"成功路５８４號五樓之１","OBJECTID":559769},"geometry":{"x":167523.36000000127,"y":2544736.5800000019}},{"attributes":{"ID":559797,"DIS_CODE":0,"TOWNNAME":"北區","LI":"裕民里","LIN":"8鄰","STREET":"成功路","SECT":" ","MAREA":" ","LANE":" ","ALLEY":" ","HOUSE_NO":"５８４號五樓之２","E_COORD97":167523.35999999999,"N_COORD97":2544736.5800000001,"ADDRESS":"成功路５８４號五樓之２","OBJECTID":559770},"geometry":{"x":167523.36000000127,"y":2544736.5800000019}},{"attributes":{"ID":559798,"DIS_CODE":0,"TOWNNAME":"北區","LI":"裕民里","LIN":"8鄰","STREET":"成功路","SECT":" ","MAREA":" ","LANE":" ","ALLEY":" ","HOUSE_NO":"５８４號五樓之３","E_COORD97":167523.35999999999,"N_COORD97":2544736.5800000001,"ADDRESS":"成功路５８４號五樓之３","OBJECTID":559771},"geometry":{"x":167523.36000000127,"y":2544736.5800000019}},{"attributes":{"ID":559799,"DIS_CODE":0,"TOWNNAME":"北區","LI":"裕民里","LIN":"8鄰","STREET":"成功路","SECT":" ","MAREA":" ","LANE":" ","ALLEY":" ","HOUSE_NO":"５８４號五樓之４","E_COORD97":167523.35999999999,"N_COORD97":2544736.5800000001,"ADDRESS":"成功路５８４號五樓之４","OBJECTID":559772},"geometry":{"x":167523.36000000127,"y":2544736.5800000019}},{"attributes":{"ID":559800,"DIS_CODE":0,"TOWNNAME":"北區","LI":"裕民里","LIN":"8鄰","STREET":"成功路","SECT":" ","MAREA":" ","LANE":" ","ALLEY":" ","HOUSE_NO":"５８４號五樓之５","E_COORD97":167523.35999999999,"N_COORD97":2544736.5800000001,"ADDRESS":"成功路５８４號五樓之５","OBJECTID":559773},"geometry":{"x":167523.36000000127,"y":2544736.5800000019}},{"attributes":{"ID":559801,"DIS_CODE":0,"TOWNNAME":"北區","LI":"裕民里","LIN":"8鄰","STREET":"成功路","SECT":" ","MAREA":" ","LANE":" ","ALLEY":" ","HOUSE_NO":"５８４號五樓之６","E_COORD97":167523.35999999999,"N_COORD97":2544736.5800000001,"ADDRESS":"成功路５８４號五樓之６","OBJECTID":559774},"geometry":{"x":167523.36000000127,"y":2544736.5800000019}},{"attributes":{"ID":559802,"DIS_CODE":0,"TOWNNAME":"北區","LI":"裕民里","LIN":"8鄰","STREET":"成功路","SECT":" ","MAREA":" ","LANE":" ","ALLEY":" ","HOUSE_NO":"５８４號五樓之７","E_COORD97":167523.35999999999,"N_COORD97":2544736.5800000001,"ADDRESS":"成功路５８４號五樓之７","OBJECTID":559775},"geometry":{"x":167523.36000000127,"y":2544736.5800000019}},{"attributes":{"ID":559803,"DIS_CODE":0,"TOWNNAME":"北區","LI":"裕民里","LIN":"8鄰","STREET":"成功路","SECT":" ","MAREA":" ","LANE":" ","ALLEY":" ","HOUSE_NO":"５８４號六樓之１","E_COORD97":167523.35999999999,"N_COORD97":2544736.5800000001,"ADDRESS":"成功路５８４號六樓之１","OBJECTID":559776},"geometry":{"x":167523.36000000127,"y":2544736.5800000019}},{"attributes":{"ID":559804,"DIS_CODE":0,"TOWNNAME":"北區","LI":"裕民里","LIN":"8鄰","STREET":"成功路","SECT":" ","MAREA":" ","LANE":" ","ALLEY":" ","HOUSE_NO":"５８４號六樓之２","E_COORD97":167523.35999999999,"N_COORD97":2544736.5800000001,"ADDRESS":"成功路５８４號六樓之２","OBJECTID":559777},"geometry":{"x":167523.36000000127,"y":2544736.5800000019}},{"attributes":{"ID":559805,"DIS_CODE":0,"TOWNNAME":"北區","LI":"裕民里","LIN":"8鄰","STREET":"成功路","SECT":" ","MAREA":" ","LANE":" ","ALLEY":" ","HOUSE_NO":"５８４號六樓之３","E_COORD97":167523.35999999999,"N_COORD97":2544736.5800000001,"ADDRESS":"成功路５８４號六樓之３","OBJECTID":559778},"geometry":{"x":167523.36000000127,"y":2544736.5800000019}},{"attributes":{"ID":559806,"DIS_CODE":0,"TOWNNAME":"北區","LI":"裕民里","LIN":"8鄰","STREET":"成功路","SECT":" ","MAREA":" ","LANE":" ","ALLEY":" ","HOUSE_NO":"５８４號六樓之４","E_COORD97":167523.35999999999,"N_COORD97":2544736.5800000001,"ADDRESS":"成功路５８４號六樓之４","OBJECTID":559779},"geometry":{"x":167523.36000000127,"y":2544736.5800000019}},{"attributes":{"ID":559807,"DIS_CODE":0,"TOWNNAME":"北區","LI":"裕民里","LIN":"8鄰","STREET":"成功路","SECT":" ","MAREA":" ","LANE":" ","ALLEY":" ","HOUSE_NO":"５８４號六樓之５","E_COORD97":167523.35999999999,"N_COORD97":2544736.5800000001,"ADDRESS":"成功路５８４號六樓之５","OBJECTID":559780},"geometry":{"x":167523.36000000127,"y":2544736.5800000019}},{"attributes":{"ID":559808,"DIS_CODE":0,"TOWNNAME":"北區","LI":"裕民里","LIN":"8鄰","STREET":"成功路","SECT":" ","MAREA":" ","LANE":" ","ALLEY":" ","HOUSE_NO":"５８４號六樓之６","E_COORD97":167523.35999999999,"N_COORD97":2544736.5800000001,"ADDRESS":"成功路５８４號六樓之６","OBJECTID":559781},"geometry":{"x":167523.36000000127,"y":2544736.5800000019}},{"attributes":{"ID":559809,"DIS_CODE":0,"TOWNNAME":"北區","LI":"裕民里","LIN":"8鄰","STREET":"成功路","SECT":" ","MAREA":" ","LANE":" ","ALLEY":" ","HOUSE_NO":"５８４號六樓之７","E_COORD97":167523.35999999999,"N_COORD97":2544736.5800000001,"ADDRESS":"成功路５８４號六樓之７","OBJECTID":559782},"geometry":{"x":167523.36000000127,"y":2544736.5800000019}},{"attributes":{"ID":559810,"DIS_CODE":0,"TOWNNAME":"北區","LI":"裕民里","LIN":"8鄰","STREET":"成功路","SECT":" ","MAREA":" ","LANE":" ","ALLEY":" ","HOUSE_NO":"５８４號四樓之１","E_COORD97":167523.35999999999,"N_COORD97":2544736.5800000001,"ADDRESS":"成功路５８４號四樓之１","OBJECTID":559783},"geometry":{"x":167523.36000000127,"y":2544736.5800000019}},{"attributes":{"ID":559811,"DIS_CODE":0,"TOWNNAME":"北區","LI":"裕民里","LIN":"8鄰","STREET":"成功路","SECT":" ","MAREA":" ","LANE":" ","ALLEY":" ","HOUSE_NO":"５８４號四樓之２","E_COORD97":167523.35999999999,"N_COORD97":2544736.5800000001,"ADDRESS":"成功路５８４號四樓之２","OBJECTID":559784},"geometry":{"x":167523.36000000127,"y":2544736.5800000019}},{"attributes":{"ID":559812,"DIS_CODE":0,"TOWNNAME":"北區","LI":"裕民里","LIN":"8鄰","STREET":"成功路","SECT":" ","MAREA":" ","LANE":" ","ALLEY":" ","HOUSE_NO":"５８４號四樓之３","E_COORD97":167523.35999999999,"N_COORD97":2544736.5800000001,"ADDRESS":"成功路５８４號四樓之３","OBJECTID":559785},"geometry":{"x":167523.36000000127,"y":2544736.5800000019}},{"attributes":{"ID":559813,"DIS_CODE":0,"TOWNNAME":"北區","LI":"裕民里","LIN":"8鄰","STREET":"成功路","SECT":" ","MAREA":" ","LANE":" ","ALLEY":" ","HOUSE_NO":"５８４號四樓之５","E_COORD97":167523.35999999999,"N_COORD97":2544736.5800000001,"ADDRESS":"成功路５８４號四樓之５","OBJECTID":559786},"geometry":{"x":167523.36000000127,"y":2544736.5800000019}},{"attributes":{"ID":559814,"DIS_CODE":0,"TOWNNAME":"北區","LI":"裕民里","LIN":"8鄰","STREET":"成功路","SECT":" ","MAREA":" ","LANE":" ","ALLEY":" ","HOUSE_NO":"５８４號四樓之６","E_COORD97":167523.35999999999,"N_COORD97":2544736.5800000001,"ADDRESS":"成功路５８４號四樓之６","OBJECTID":559787},"geometry":{"x":167523.36000000127,"y":2544736.5800000019}},{"attributes":{"ID":559815,"DIS_CODE":0,"TOWNNAME":"北區","LI":"裕民里","LIN":"8鄰","STREET":"成功路","SECT":" ","MAREA":" ","LANE":" ","ALLEY":" ","HOUSE_NO":"５８４號四樓之７","E_COORD97":167523.35999999999,"N_COORD97":2544736.5800000001,"ADDRESS":"成功路５８４號四樓之７","OBJECTID":559788},"geometry":{"x":167523.36000000127,"y":2544736.5800000019}},{"attributes":{"ID":559816,"DIS_CODE":0,"TOWNNAME":"永康區","LI":"中華里","LIN":"21鄰","STREET":"中華路","SECT":" ","MAREA":" ","LANE":" ","ALLEY":" ","HOUSE_NO":"３０號","E_COORD97":171585.89000000001,"N_COORD97":2544555.3799999999,"ADDRESS":"中華路３０號","OBJECTID":559789},"geometry":{"x":171585.8900000006,"y":2544555.379999999}},{"attributes":{"ID":559817,"DIS_CODE":0,"TOWNNAME":"北區","LI":"裕民里","LIN":"8鄰","STREET":"成功路","SECT":" ","MAREA":" ","LANE":" ","ALLEY":" ","HOUSE_NO":"５８４號四樓之８","E_COORD97":167523.35999999999,"N_COORD97":2544736.5800000001,"ADDRESS":"成功路５８４號四樓之８","OBJECTID":559790},"geometry":{"x":167523.36000000127,"y":2544736.5800000019}},{"attributes":{"ID":559818,"DIS_CODE":0,"TOWNNAME":"北區","LI":"裕民里","LIN":"8鄰","STREET":"臨安路","SECT":"二段","MAREA":" ","LANE":" ","ALLEY":" ","HOUSE_NO":"１７號七樓","E_COORD97":167538.78,"N_COORD97":2544793.1099999999,"ADDRESS":"臨安路二段１７號七樓","OBJECTID":559791},"geometry":{"x":167538.78000000212,"y":2544793.1100000013}},{"attributes":{"ID":559819,"DIS_CODE":0,"TOWNNAME":"北區","LI":"裕民里","LIN":"8鄰","STREET":"臨安路","SECT":"二段","MAREA":" ","LANE":" ","ALLEY":" ","HOUSE_NO":"１７號二樓","E_COORD97":167538.78,"N_COORD97":2544793.1099999999,"ADDRESS":"臨安路二段１７號二樓","OBJECTID":559792},"geometry":{"x":167538.78000000212,"y":2544793.1100000013}},{"attributes":{"ID":559820,"DIS_CODE":0,"TOWNNAME":"北區","LI":"裕民里","LIN":"8鄰","STREET":"臨安路","SECT":"二段","MAREA":" ","LANE":" ","ALLEY":" ","HOUSE_NO":"１７號三樓","E_COORD97":167538.78,"N_COORD97":2544793.1099999999,"ADDRESS":"臨安路二段１７號三樓","OBJECTID":559793},"geometry":{"x":167538.78000000212,"y":2544793.1100000013}},{"attributes":{"ID":559821,"DIS_CODE":0,"TOWNNAME":"北區","LI":"裕民里","LIN":"8鄰","STREET":"臨安路","SECT":"二段","MAREA":" ","LANE":" ","ALLEY":" ","HOUSE_NO":"１７號五樓","E_COORD97":167538.78,"N_COORD97":2544793.1099999999,"ADDRESS":"臨安路二段１７號五樓","OBJECTID":559794},"geometry":{"x":167538.78000000212,"y":2544793.1100000013}},{"attributes":{"ID":559822,"DIS_CODE":0,"TOWNNAME":"北區","LI":"裕民里","LIN":"8鄰","STREET":"臨安路","SECT":"二段","MAREA":" ","LANE":" ","ALLEY":" ","HOUSE_NO":"１７號六樓","E_COORD97":167538.78,"N_COORD97":2544793.1099999999,"ADDRESS":"臨安路二段１７號六樓","OBJECTID":559795},"geometry":{"x":167538.78000000212,"y":2544793.1100000013}},{"attributes":{"ID":559823,"DIS_CODE":0,"TOWNNAME":"北區","LI":"裕民里","LIN":"8鄰","STREET":"臨安路","SECT":"二段","MAREA":" ","LANE":" ","ALLEY":" ","HOUSE_NO":"１７號四樓","E_COORD97":167538.78,"N_COORD97":2544793.1099999999,"ADDRESS":"臨安路二段１７號四樓","OBJECTID":559796},"geometry":{"x":167538.78000000212,"y":2544793.1100000013}},{"attributes":{"ID":559824,"DIS_CODE":0,"TOWNNAME":"北區","LI":"裕民里","LIN":"9鄰","STREET":"臨安路","SECT":"二段","MAREA":" ","LANE":" ","ALLEY":" ","HOUSE_NO":"５３號九樓之１","E_COORD97":167621.87,"N_COORD97":2544819.21,"ADDRESS":"臨安路二段５３號九樓之１","OBJECTID":559797},"geometry":{"x":167621.87000000011,"y":2544819.2100000009}},{"attributes":{"ID":559825,"DIS_CODE":0,"TOWNNAME":"北區","LI":"裕民里","LIN":"9鄰","STREET":"臨安路","SECT":"二段","MAREA":" ","LANE":" ","ALLEY":" ","HOUSE_NO":"５３號九樓之２","E_COORD97":167621.87,"N_COORD97":2544819.21,"ADDRESS":"臨安路二段５３號九樓之２","OBJECTID":559798},"geometry":{"x":167621.87000000011,"y":2544819.2100000009}},{"attributes":{"ID":559826,"DIS_CODE":0,"TOWNNAME":"北區","LI":"裕民里","LIN":"9鄰","STREET":"臨安路","SECT":"二段","MAREA":" ","LANE":" ","ALLEY":" ","HOUSE_NO":"５３號九樓之３","E_COORD97":167621.87,"N_COORD97":2544819.21,"ADDRESS":"臨安路二段５３號九樓之３","OBJECTID":559799},"geometry":{"x":167621.87000000011,"y":2544819.2100000009}},{"attributes":{"ID":559827,"DIS_CODE":0,"TOWNNAME":"北區","LI":"裕民里","LIN":"9鄰","STREET":"臨安路","SECT":"二段","MAREA":" ","LANE":" ","ALLEY":" ","HOUSE_NO":"５３號八樓之１","E_COORD97":167621.87,"N_COORD97":2544819.21,"ADDRESS":"臨安路二段５３號八樓之１","OBJECTID":559800},"geometry":{"x":167621.87000000011,"y":2544819.2100000009}}]}