{"displayFieldName":"TOWNNAME","fieldAliases":{"ID":"ID","DIS_CODE":"DIS_CODE","TOWNNAME":"TOWNNAME","LI":"LI","LIN":"LIN","STREET":"STREET","SECT":"SECT","MAREA":"MAREA","LANE":"LANE","ALLEY":"ALLEY","HOUSE_NO":"HOUSE_NO","E_COORD97":"E_COORD97","N_COORD97":"N_COORD97","ADDRESS":"ADDRESS","OBJECTID":"OBJECTID"},"geometryType":"esriGeometryPoint","spatialReference":{"wkid":102443,"latestWkid":3826},"fields":[{"name":"ID","type":"esriFieldTypeDouble","alias":"ID"},{"name":"DIS_CODE","type":"esriFieldTypeInteger","alias":"DIS_CODE"},{"name":"TOWNNAME","type":"esriFieldTypeString","alias":"TOWNNAME","length":8},{"name":"LI","type":"esriFieldTypeString","alias":"LI","length":8},{"name":"LIN","type":"esriFieldTypeString","alias":"LIN","length":12},{"name":"STREET","type":"esriFieldTypeString","alias":"STREET","length":20},{"name":"SECT","type":"esriFieldTypeString","alias":"SECT","length":8},{"name":"MAREA","type":"esriFieldTypeString","alias":"MAREA","length":12},{"name":"LANE","type":"esriFieldTypeString","alias":"LANE","length":10},{"name":"ALLEY","type":"esriFieldTypeString","alias":"ALLEY","length":10},{"name":"HOUSE_NO","type":"esriFieldTypeString","alias":"HOUSE_NO","length":20},{"name":"E_COORD97","type":"esriFieldTypeDouble","alias":"E_COORD97"},{"name":"N_COORD97","type":"esriFieldTypeDouble","alias":"N_COORD97"},{"name":"ADDRESS","type":"esriFieldTypeString","alias":"ADDRESS","length":50},{"name":"OBJECTID","type":"esriFieldTypeOID","alias":"OBJECTID"}],"features":[{"attributes":{"ID":331410,"DIS_CODE":0,"TOWNNAME":"新市區","LI":"潭頂里","LIN":"12鄰","STREET":" ","SECT":" ","MAREA":"潭頂","LANE":" ","ALLEY":" ","HOUSE_NO":"３９８之２號","E_COORD97":180558.60256,"N_COORD97":2552998.0441299998,"ADDRESS":"潭頂３９８之２號","OBJECTID":331401},"geometry":{"x":180558.60255999956,"y":2552998.044129001}},{"attributes":{"ID":331411,"DIS_CODE":0,"TOWNNAME":"新市區","LI":"潭頂里","LIN":"12鄰","STREET":" ","SECT":" ","MAREA":"潭頂","LANE":" ","ALLEY":" ","HOUSE_NO":"４０５之２號","E_COORD97":180575.23366699999,"N_COORD97":2553075.3024200001,"ADDRESS":"潭頂４０５之２號","OBJECTID":331402},"geometry":{"x":180575.23366700113,"y":2553075.3024200015}},{"attributes":{"ID":331412,"DIS_CODE":0,"TOWNNAME":"新市區","LI":"潭頂里","LIN":"2鄰","STREET":" ","SECT":" ","MAREA":"潭頂","LANE":" ","ALLEY":" ","HOUSE_NO":"５０之２號","E_COORD97":181313.0404,"N_COORD97":2552962.2195600001,"ADDRESS":"潭頂５０之２號","OBJECTID":331403},"geometry":{"x":181313.04040000215,"y":2552962.2195649985}},{"attributes":{"ID":331413,"DIS_CODE":0,"TOWNNAME":"新市區","LI":"大洲里","LIN":"7鄰","STREET":" ","SECT":" ","MAREA":"大洲","LANE":" ","ALLEY":" ","HOUSE_NO":"６２之４號","E_COORD97":172964.54247700001,"N_COORD97":2552447.70095,"ADDRESS":"大洲６２之４號","OBJECTID":331404},"geometry":{"x":172964.54247699957,"y":2552447.7009520028}},{"attributes":{"ID":331414,"DIS_CODE":0,"TOWNNAME":"新市區","LI":"潭頂里","LIN":"14鄰","STREET":" ","SECT":" ","MAREA":"潭頂","LANE":" ","ALLEY":" ","HOUSE_NO":"５３６之１號","E_COORD97":180253.73425000001,"N_COORD97":2552852.7879599999,"ADDRESS":"潭頂５３６之１號","OBJECTID":331405},"geometry":{"x":180253.73425000068,"y":2552852.7879569996}},{"attributes":{"ID":331415,"DIS_CODE":0,"TOWNNAME":"新市區","LI":"潭頂里","LIN":"14鄰","STREET":" ","SECT":" ","MAREA":"潭頂","LANE":" ","ALLEY":" ","HOUSE_NO":"５４４之３６號","E_COORD97":179781.49556800001,"N_COORD97":2552854.6929600001,"ADDRESS":"潭頂５４４之３６號","OBJECTID":331406},"geometry":{"x":179781.49556800071,"y":2552854.6929560024}},{"attributes":{"ID":331416,"DIS_CODE":0,"TOWNNAME":"新市區","LI":"大洲里","LIN":"2鄰","STREET":" ","SECT":" ","MAREA":"大洲","LANE":" ","ALLEY":" ","HOUSE_NO":"７之１號","E_COORD97":174564.40129000001,"N_COORD97":2552481.1826599999,"ADDRESS":"大洲７之１號","OBJECTID":331407},"geometry":{"x":174564.40129000135,"y":2552481.1826640014}},{"attributes":{"ID":331417,"DIS_CODE":0,"TOWNNAME":"新市區","LI":"大洲里","LIN":"9鄰","STREET":" ","SECT":" ","MAREA":"大洲","LANE":" ","ALLEY":" ","HOUSE_NO":"８２號","E_COORD97":174425.20846200001,"N_COORD97":2551501.5898600002,"ADDRESS":"大洲８２號","OBJECTID":331408},"geometry":{"x":174425.20846199989,"y":2551501.5898589995}},{"attributes":{"ID":331418,"DIS_CODE":0,"TOWNNAME":"歸仁區","LI":"七甲里","LIN":"10鄰","STREET":"七甲一街","SECT":" ","MAREA":" ","LANE":"３３巷","ALLEY":" ","HOUSE_NO":"３號","E_COORD97":177580.04542000001,"N_COORD97":2542509.7963999999,"ADDRESS":"七甲一街 ３３巷３號","OBJECTID":331409},"geometry":{"x":177580.04542000126,"y":2542509.7963960022}},{"attributes":{"ID":331419,"DIS_CODE":0,"TOWNNAME":"新市區","LI":"永就里","LIN":"6鄰","STREET":"中華路","SECT":" ","MAREA":" ","LANE":" ","ALLEY":" ","HOUSE_NO":"１８２之４號","E_COORD97":177795.41,"N_COORD97":2551372.0499999998,"ADDRESS":"中華路１８２之４號","OBJECTID":331410},"geometry":{"x":177795.41000000201,"y":2551372.0500000026}},{"attributes":{"ID":331420,"DIS_CODE":0,"TOWNNAME":"永康區","LI":"北灣里","LIN":"40鄰","STREET":"大同街","SECT":" ","MAREA":" ","LANE":"４１３巷","ALLEY":" ","HOUSE_NO":"２２號","E_COORD97":174612.37,"N_COORD97":2546206.4900000002,"ADDRESS":"大同街４１３巷２２號","OBJECTID":331411},"geometry":{"x":174612.37000000104,"y":2546206.4900000002}},{"attributes":{"ID":331421,"DIS_CODE":0,"TOWNNAME":"永康區","LI":"西灣里","LIN":"15鄰","STREET":"大安街","SECT":" ","MAREA":" ","LANE":"９７巷","ALLEY":" ","HOUSE_NO":"２０號","E_COORD97":174472.84,"N_COORD97":2545066.3199999998,"ADDRESS":"大安街９７巷２０號","OBJECTID":331412},"geometry":{"x":174472.84000000171,"y":2545066.3200000003}},{"attributes":{"ID":331422,"DIS_CODE":0,"TOWNNAME":"仁德區","LI":"仁義里","LIN":"17鄰","STREET":"義林八街","SECT":" ","MAREA":" ","LANE":" ","ALLEY":" ","HOUSE_NO":"１２１號","E_COORD97":174191.78,"N_COORD97":2541272.52,"ADDRESS":"義林八街１２１號","OBJECTID":331413},"geometry":{"x":174191.78000000026,"y":2541272.5199999996}},{"attributes":{"ID":331423,"DIS_CODE":0,"TOWNNAME":"永康區","LI":"安康里","LIN":"15鄰","STREET":"中華路","SECT":" ","MAREA":" ","LANE":"６１９巷","ALLEY":" ","HOUSE_NO":"６４號","E_COORD97":170916.92999999999,"N_COORD97":2546034.25,"ADDRESS":"中華路６１９巷６４號","OBJECTID":331414},"geometry":{"x":170916.9299999997,"y":2546034.2500000019}},{"attributes":{"ID":331424,"DIS_CODE":0,"TOWNNAME":"永康區","LI":"西灣里","LIN":"15鄰","STREET":"大安街","SECT":" ","MAREA":" ","LANE":"９７巷","ALLEY":" ","HOUSE_NO":"６０號","E_COORD97":174398.41,"N_COORD97":2545113.25,"ADDRESS":"大安街９７巷６０號","OBJECTID":331415},"geometry":{"x":174398.41000000108,"y":2545113.25}},{"attributes":{"ID":331425,"DIS_CODE":0,"TOWNNAME":"永康區","LI":"永康里","LIN":"26鄰","STREET":"永明街","SECT":" ","MAREA":" ","LANE":"５３巷","ALLEY":" ","HOUSE_NO":"２９號","E_COORD97":174137.76999999999,"N_COORD97":2547388.3599999999,"ADDRESS":"永明街５３巷２９號","OBJECTID":331416},"geometry":{"x":174137.77000000048,"y":2547388.3600000013}},{"attributes":{"ID":331426,"DIS_CODE":0,"TOWNNAME":"永康區","LI":"永康里","LIN":"15鄰","STREET":"永中街","SECT":" ","MAREA":" ","LANE":"６０巷","ALLEY":" ","HOUSE_NO":"１３號","E_COORD97":173963.31,"N_COORD97":2547149,"ADDRESS":"永中街６０巷１３號","OBJECTID":331417},"geometry":{"x":173963.31000000052,"y":2547149}},{"attributes":{"ID":331427,"DIS_CODE":0,"TOWNNAME":"仁德區","LI":"仁義里","LIN":"17鄰","STREET":"義林八街","SECT":" ","MAREA":" ","LANE":" ","ALLEY":" ","HOUSE_NO":"１３１號","E_COORD97":174170.89999999999,"N_COORD97":2541275.77,"ADDRESS":"義林八街１３１號","OBJECTID":331418},"geometry":{"x":174170.90000000037,"y":2541275.7700000033}},{"attributes":{"ID":331428,"DIS_CODE":0,"TOWNNAME":"歸仁區","LI":"新厝里","LIN":"13鄰","STREET":"中正南路","SECT":"一段","MAREA":" ","LANE":" ","ALLEY":" ","HOUSE_NO":"１０１號","E_COORD97":177548.94323400001,"N_COORD97":2540504.43334,"ADDRESS":"中正南路一段１０１號","OBJECTID":331419},"geometry":{"x":177548.94323400036,"y":2540504.4333390035}},{"attributes":{"ID":331429,"DIS_CODE":0,"TOWNNAME":"大內區","LI":"環湖里","LIN":"4鄰","STREET":" ","SECT":" ","MAREA":"環湖","LANE":" ","ALLEY":" ","HOUSE_NO":"５０號","E_COORD97":190459.15676000001,"N_COORD97":2560715.8334900001,"ADDRESS":"環湖５０號","OBJECTID":331420},"geometry":{"x":190459.15676000062,"y":2560715.8334880024}},{"attributes":{"ID":331430,"DIS_CODE":0,"TOWNNAME":"大內區","LI":"石城里","LIN":"1鄰","STREET":" ","SECT":" ","MAREA":"石子瀨","LANE":" ","ALLEY":" ","HOUSE_NO":"６號之１","E_COORD97":184278.09140400001,"N_COORD97":2557828.3527099998,"ADDRESS":"石子瀨６號之１","OBJECTID":331421},"geometry":{"x":184278.09140400123,"y":2557828.3527079988}},{"attributes":{"ID":331431,"DIS_CODE":0,"TOWNNAME":"大內區","LI":"石城里","LIN":"1鄰","STREET":" ","SECT":" ","MAREA":"石子瀨","LANE":" ","ALLEY":" ","HOUSE_NO":"５號","E_COORD97":184309.65656800001,"N_COORD97":2557838.5126999998,"ADDRESS":"石子瀨５號","OBJECTID":331422},"geometry":{"x":184309.65656800102,"y":2557838.5127030015}},{"attributes":{"ID":331432,"DIS_CODE":0,"TOWNNAME":"大內區","LI":"環湖里","LIN":"4鄰","STREET":" ","SECT":" ","MAREA":"環湖","LANE":" ","ALLEY":" ","HOUSE_NO":"５４號之１","E_COORD97":190444.43093999999,"N_COORD97":2560778.1163699999,"ADDRESS":"環湖５４號之１","OBJECTID":331423},"geometry":{"x":190444.43094000127,"y":2560778.1163699999}},{"attributes":{"ID":331433,"DIS_CODE":0,"TOWNNAME":"大內區","LI":"石城里","LIN":"1鄰","STREET":" ","SECT":" ","MAREA":"石子瀨","LANE":" ","ALLEY":" ","HOUSE_NO":"１０號","E_COORD97":184302.665626,"N_COORD97":2557845.07437,"ADDRESS":"石子瀨１０號","OBJECTID":331424},"geometry":{"x":184302.66562600154,"y":2557845.0743660033}},{"attributes":{"ID":331434,"DIS_CODE":0,"TOWNNAME":"大內區","LI":"環湖里","LIN":"5鄰","STREET":" ","SECT":" ","MAREA":"環湖","LANE":" ","ALLEY":" ","HOUSE_NO":"５７號之５","E_COORD97":190649.00323,"N_COORD97":2560514.4923299998,"ADDRESS":"環湖５７號之５","OBJECTID":331425},"geometry":{"x":190649.00322999991,"y":2560514.4923300017}},{"attributes":{"ID":331435,"DIS_CODE":0,"TOWNNAME":"永康區","LI":"北灣里","LIN":"4鄰","STREET":"信義街","SECT":" ","MAREA":" ","LANE":"６２巷","ALLEY":" ","HOUSE_NO":"３１號","E_COORD97":175416.23000000001,"N_COORD97":2545754.73,"ADDRESS":"信義街６２巷３１號","OBJECTID":331426},"geometry":{"x":175416.23000000045,"y":2545754.7300000004}},{"attributes":{"ID":331436,"DIS_CODE":0,"TOWNNAME":"永康區","LI":"永康里","LIN":"15鄰","STREET":"永中街","SECT":" ","MAREA":" ","LANE":"６０巷","ALLEY":" ","HOUSE_NO":"１９號","E_COORD97":173982.23999999999,"N_COORD97":2547126.7400000002,"ADDRESS":"永中街６０巷１９號","OBJECTID":331427},"geometry":{"x":173982.23999999929,"y":2547126.7400000021}},{"attributes":{"ID":331437,"DIS_CODE":0,"TOWNNAME":"永康區","LI":"安康里","LIN":"15鄰","STREET":"中華路","SECT":" ","MAREA":" ","LANE":"６１９巷","ALLEY":" ","HOUSE_NO":"６８號","E_COORD97":170906.01000000001,"N_COORD97":2546049.9900000002,"ADDRESS":"中華路６１９巷６８號","OBJECTID":331428},"geometry":{"x":170906.00999999978,"y":2546049.9900000021}},{"attributes":{"ID":331438,"DIS_CODE":0,"TOWNNAME":"仁德區","LI":"仁義里","LIN":"17鄰","STREET":"義林十街","SECT":" ","MAREA":" ","LANE":" ","ALLEY":" ","HOUSE_NO":"３９號","E_COORD97":174194.97,"N_COORD97":2541391.7599999998,"ADDRESS":"義林十街３９號","OBJECTID":331429},"geometry":{"x":174194.96999999974,"y":2541391.7600000016}},{"attributes":{"ID":331439,"DIS_CODE":0,"TOWNNAME":"仁德區","LI":"仁義里","LIN":"17鄰","STREET":"義林二街","SECT":" ","MAREA":" ","LANE":" ","ALLEY":" ","HOUSE_NO":"１１２號","E_COORD97":174151.72,"N_COORD97":2541271.52,"ADDRESS":"義林二街１１２號","OBJECTID":331430},"geometry":{"x":174151.72000000067,"y":2541271.5200000014}},{"attributes":{"ID":331440,"DIS_CODE":0,"TOWNNAME":"仁德區","LI":"仁義里","LIN":"17鄰","STREET":"義林十街","SECT":" ","MAREA":" ","LANE":" ","ALLEY":" ","HOUSE_NO":"１９號","E_COORD97":174235.67999999999,"N_COORD97":2541387.0099999998,"ADDRESS":"義林十街１９號","OBJECTID":331431},"geometry":{"x":174235.6799999997,"y":2541387.0100000016}},{"attributes":{"ID":331441,"DIS_CODE":0,"TOWNNAME":"官田區","LI":"大崎里","LIN":"11鄰","STREET":" ","SECT":" ","MAREA":"大井","LANE":" ","ALLEY":" ","HOUSE_NO":"２號之１","E_COORD97":188331.71538000001,"N_COORD97":2564319.4887799998,"ADDRESS":"大井２號之１","OBJECTID":331432},"geometry":{"x":188331.71537999995,"y":2564319.4887800012}},{"attributes":{"ID":331442,"DIS_CODE":0,"TOWNNAME":"佳里區","LI":"鎮山里","LIN":"20鄰","STREET":"勝利路","SECT":" ","MAREA":" ","LANE":"２６５巷","ALLEY":" ","HOUSE_NO":"１１號","E_COORD97":166134.89412000001,"N_COORD97":2560816.8703200002,"ADDRESS":"勝利路２６５巷１１號","OBJECTID":331433},"geometry":{"x":166134.89411999937,"y":2560816.8703199998}},{"attributes":{"ID":331443,"DIS_CODE":0,"TOWNNAME":"新市區","LI":"新和里","LIN":"45鄰","STREET":"民生路","SECT":" ","MAREA":" ","LANE":" ","ALLEY":" ","HOUSE_NO":"９１之１號","E_COORD97":177133.313639,"N_COORD97":2553267.67239,"ADDRESS":"民生路９１之１號","OBJECTID":331434},"geometry":{"x":177133.31363900099,"y":2553267.6723950002}},{"attributes":{"ID":331444,"DIS_CODE":0,"TOWNNAME":"大內區","LI":"環湖里","LIN":"6鄰","STREET":" ","SECT":" ","MAREA":"環湖","LANE":" ","ALLEY":" ","HOUSE_NO":"８４號","E_COORD97":190427.33303499999,"N_COORD97":2560623.33029,"ADDRESS":"環湖８４號","OBJECTID":331435},"geometry":{"x":190427.3330350006,"y":2560623.330287002}},{"attributes":{"ID":331445,"DIS_CODE":0,"TOWNNAME":"安南區","LI":"海西里","LIN":"16鄰","STREET":"海前路","SECT":" ","MAREA":" ","LANE":" ","ALLEY":" ","HOUSE_NO":"１７１之６號","E_COORD97":166641.52300799999,"N_COORD97":2548003.8076200001,"ADDRESS":"海前路１７１之６號","OBJECTID":331436},"geometry":{"x":166641.52300800104,"y":2548003.8076180015}},{"attributes":{"ID":331446,"DIS_CODE":0,"TOWNNAME":"永康區","LI":"安康里","LIN":"15鄰","STREET":"中華路","SECT":" ","MAREA":" ","LANE":"６１９巷","ALLEY":" ","HOUSE_NO":"６８號之１","E_COORD97":170905.60000000001,"N_COORD97":2546054.54,"ADDRESS":"中華路６１９巷６８號之１","OBJECTID":331437},"geometry":{"x":170905.59999999963,"y":2546054.540000001}},{"attributes":{"ID":331447,"DIS_CODE":0,"TOWNNAME":"永康區","LI":"永康里","LIN":"15鄰","STREET":"永中街","SECT":" ","MAREA":" ","LANE":"１００巷","ALLEY":" ","HOUSE_NO":"６號","E_COORD97":173962.10999999999,"N_COORD97":2547193.4900000002,"ADDRESS":"永中街１００巷６號","OBJECTID":331438},"geometry":{"x":173962.11000000127,"y":2547193.4900000002}},{"attributes":{"ID":331448,"DIS_CODE":0,"TOWNNAME":"永康區","LI":"永康里","LIN":"15鄰","STREET":"永中街","SECT":" ","MAREA":" ","LANE":"１００巷","ALLEY":" ","HOUSE_NO":"１２號","E_COORD97":174000.09,"N_COORD97":2547164.75,"ADDRESS":"永中街１００巷１２號","OBJECTID":331439},"geometry":{"x":174000.09000000078,"y":2547164.75}},{"attributes":{"ID":331449,"DIS_CODE":0,"TOWNNAME":"永康區","LI":"安康里","LIN":"15鄰","STREET":"中華路","SECT":" ","MAREA":" ","LANE":"６１９巷","ALLEY":" ","HOUSE_NO":"５４號","E_COORD97":170926.04999999999,"N_COORD97":2546064.4900000002,"ADDRESS":"中華路６１９巷５４號","OBJECTID":331440},"geometry":{"x":170926.04999999981,"y":2546064.4900000002}},{"attributes":{"ID":331450,"DIS_CODE":0,"TOWNNAME":"永康區","LI":"安康里","LIN":"15鄰","STREET":"中華路","SECT":" ","MAREA":" ","LANE":"６１９巷","ALLEY":" ","HOUSE_NO":"５６號","E_COORD97":170936.31,"N_COORD97":2546045.2400000002,"ADDRESS":"中華路６１９巷５６號","OBJECTID":331441},"geometry":{"x":170936.30999999959,"y":2546045.2400000002}},{"attributes":{"ID":331451,"DIS_CODE":0,"TOWNNAME":"永康區","LI":"安康里","LIN":"15鄰","STREET":"中華路","SECT":" ","MAREA":" ","LANE":"６１９巷","ALLEY":" ","HOUSE_NO":"４２號","E_COORD97":170963.70999999999,"N_COORD97":2546060.4900000002,"ADDRESS":"中華路６１９巷４２號","OBJECTID":331442},"geometry":{"x":170963.71000000089,"y":2546060.4900000002}},{"attributes":{"ID":331452,"DIS_CODE":0,"TOWNNAME":"中西區","LI":"三合里","LIN":"15鄰","STREET":"信義街","SECT":" ","MAREA":" ","LANE":"１２２巷","ALLEY":" ","HOUSE_NO":"９號","E_COORD97":167452.41,"N_COORD97":2544634.2400000002,"ADDRESS":"信義街１２２巷９號","OBJECTID":331443},"geometry":{"x":167452.41000000015,"y":2544634.2400000021}},{"attributes":{"ID":331453,"DIS_CODE":0,"TOWNNAME":"新化區","LI":"東榮里","LIN":"15鄰","STREET":"中興路","SECT":" ","MAREA":" ","LANE":"６５２巷","ALLEY":" ","HOUSE_NO":"２４號之３","E_COORD97":179696.01000000001,"N_COORD97":2548156.2599999998,"ADDRESS":"中興路６５２巷２４號之３","OBJECTID":331444},"geometry":{"x":179696.00999999978,"y":2548156.2600000016}},{"attributes":{"ID":331454,"DIS_CODE":0,"TOWNNAME":"新化區","LI":"協興里","LIN":"15鄰","STREET":"大新路","SECT":" ","MAREA":" ","LANE":"１３１巷","ALLEY":" ","HOUSE_NO":"１３號","E_COORD97":177991.17999999999,"N_COORD97":2548743.25,"ADDRESS":"大新路１３１巷１３號","OBJECTID":331445},"geometry":{"x":177991.17999999877,"y":2548743.2500000019}},{"attributes":{"ID":331455,"DIS_CODE":0,"TOWNNAME":"新化區","LI":"太平里","LIN":"15鄰","STREET":"中正路","SECT":" ","MAREA":" ","LANE":"５８５巷","ALLEY":" ","HOUSE_NO":"１２號","E_COORD97":178900.35999999999,"N_COORD97":2548752.25,"ADDRESS":"中正路５８５巷１２號","OBJECTID":331446},"geometry":{"x":178900.36000000034,"y":2548752.2500000037}},{"attributes":{"ID":331456,"DIS_CODE":0,"TOWNNAME":"安南區","LI":"長安里","LIN":"15鄰","STREET":"公學路","SECT":"二段","MAREA":" ","LANE":"１２３巷","ALLEY":" ","HOUSE_NO":"１１２號","E_COORD97":167945.26000000001,"N_COORD97":2552442.48,"ADDRESS":"公學路二段１２３巷１１２號","OBJECTID":331447},"geometry":{"x":167945.26000000164,"y":2552442.4800000004}},{"attributes":{"ID":331457,"DIS_CODE":0,"TOWNNAME":"安南區","LI":"淵中里","LIN":"15鄰","STREET":"安中路","SECT":"四段","MAREA":" ","LANE":"４巷","ALLEY":" ","HOUSE_NO":"８５號","E_COORD97":165101.32999999999,"N_COORD97":2550218.9399999999,"ADDRESS":"安中路四段４巷８５號","OBJECTID":331448},"geometry":{"x":165101.33000000007,"y":2550218.9400000013}},{"attributes":{"ID":331458,"DIS_CODE":0,"TOWNNAME":"安南區","LI":"新順里","LIN":"15鄰","STREET":"育安一街","SECT":" ","MAREA":" ","LANE":"８４巷","ALLEY":" ","HOUSE_NO":"１０號","E_COORD97":169389.72,"N_COORD97":2549848.5,"ADDRESS":"育安一街８４巷１０號","OBJECTID":331449},"geometry":{"x":169389.7200000016,"y":2549848.5}},{"attributes":{"ID":331459,"DIS_CODE":0,"TOWNNAME":"安南區","LI":"新順里","LIN":"15鄰","STREET":"育安一街","SECT":" ","MAREA":" ","LANE":"８４巷","ALLEY":" ","HOUSE_NO":"１２號","E_COORD97":169399.66,"N_COORD97":2549855.3300000001,"ADDRESS":"育安一街８４巷１２號","OBJECTID":331450},"geometry":{"x":169399.66000000108,"y":2549855.3300000001}},{"attributes":{"ID":331460,"DIS_CODE":0,"TOWNNAME":"安南區","LI":"新順里","LIN":"15鄰","STREET":"育安一街","SECT":" ","MAREA":" ","LANE":"８４巷","ALLEY":" ","HOUSE_NO":"２號","E_COORD97":169376.98000000001,"N_COORD97":2549862.9399999999,"ADDRESS":"育安一街８４巷２號","OBJECTID":331451},"geometry":{"x":169376.98000000138,"y":2549862.9400000013}},{"attributes":{"ID":331461,"DIS_CODE":0,"TOWNNAME":"安南區","LI":"新順里","LIN":"15鄰","STREET":"育安一街","SECT":" ","MAREA":" ","LANE":"８４巷","ALLEY":" ","HOUSE_NO":"６號","E_COORD97":169384.13,"N_COORD97":2549855.9500000002,"ADDRESS":"育安一街８４巷６號","OBJECTID":331452},"geometry":{"x":169384.13000000082,"y":2549855.9500000011}},{"attributes":{"ID":331462,"DIS_CODE":0,"TOWNNAME":"安南區","LI":"新順里","LIN":"15鄰","STREET":"育安一街","SECT":" ","MAREA":" ","LANE":"８４巷","ALLEY":" ","HOUSE_NO":"８號","E_COORD97":169387.23000000001,"N_COORD97":2549851.7599999998,"ADDRESS":"育安一街８４巷８號","OBJECTID":331453},"geometry":{"x":169387.23000000138,"y":2549851.7600000016}},{"attributes":{"ID":331463,"DIS_CODE":0,"TOWNNAME":"新化區","LI":"太平里","LIN":"15鄰","STREET":"中正路","SECT":" ","MAREA":" ","LANE":"５８５巷","ALLEY":" ","HOUSE_NO":"４號","E_COORD97":178931.20999999999,"N_COORD97":2548760.25,"ADDRESS":"中正路５８５巷４號","OBJECTID":331454},"geometry":{"x":178931.21000000089,"y":2548760.2500000019}},{"attributes":{"ID":331464,"DIS_CODE":0,"TOWNNAME":"新化區","LI":"協興里","LIN":"15鄰","STREET":"大新路","SECT":" ","MAREA":" ","LANE":"１３１巷","ALLEY":" ","HOUSE_NO":"２７號","E_COORD97":177977.88,"N_COORD97":2548766.25,"ADDRESS":"大新路１３１巷２７號","OBJECTID":331455},"geometry":{"x":177977.87999999989,"y":2548766.2500000019}},{"attributes":{"ID":331465,"DIS_CODE":0,"TOWNNAME":"新化區","LI":"協興里","LIN":"15鄰","STREET":"大新路","SECT":" ","MAREA":" ","LANE":"１３１巷","ALLEY":" ","HOUSE_NO":"２９號","E_COORD97":177968.88,"N_COORD97":2548766.25,"ADDRESS":"大新路１３１巷２９號","OBJECTID":331456},"geometry":{"x":177968.88000000082,"y":2548766.2500000019}},{"attributes":{"ID":331466,"DIS_CODE":0,"TOWNNAME":"新化區","LI":"太平里","LIN":"15鄰","STREET":"中正路","SECT":" ","MAREA":" ","LANE":"５８５巷","ALLEY":" ","HOUSE_NO":"１０號","E_COORD97":178902.56,"N_COORD97":2548748.25,"ADDRESS":"中正路５８５巷１０號","OBJECTID":331457},"geometry":{"x":178902.56000000052,"y":2548748.25}},{"attributes":{"ID":331467,"DIS_CODE":0,"TOWNNAME":"新化區","LI":"協興里","LIN":"15鄰","STREET":"大新路","SECT":" ","MAREA":" ","LANE":"１３１巷","ALLEY":" ","HOUSE_NO":"２３號","E_COORD97":177973.98000000001,"N_COORD97":2548755.25,"ADDRESS":"大新路１３１巷２３號","OBJECTID":331458},"geometry":{"x":177973.98000000045,"y":2548755.2499999981}},{"attributes":{"ID":331468,"DIS_CODE":0,"TOWNNAME":"新化區","LI":"協興里","LIN":"15鄰","STREET":"大新路","SECT":" ","MAREA":" ","LANE":"１３１巷","ALLEY":" ","HOUSE_NO":"１９號","E_COORD97":177974.67999999999,"N_COORD97":2548735.25,"ADDRESS":"大新路１３１巷１９號","OBJECTID":331459},"geometry":{"x":177974.68000000063,"y":2548735.2500000037}},{"attributes":{"ID":331469,"DIS_CODE":0,"TOWNNAME":"新化區","LI":"協興里","LIN":"15鄰","STREET":"中山路","SECT":" ","MAREA":" ","LANE":"６６０巷","ALLEY":" ","HOUSE_NO":"５５號之１","E_COORD97":177999.89000000001,"N_COORD97":2548635.2599999998,"ADDRESS":"中山路６６０巷５５號之１","OBJECTID":331460},"geometry":{"x":177999.88999999873,"y":2548635.2599999998}},{"attributes":{"ID":331470,"DIS_CODE":0,"TOWNNAME":"新化區","LI":"東榮里","LIN":"15鄰","STREET":"信義路","SECT":" ","MAREA":" ","LANE":"１３１巷","ALLEY":" ","HOUSE_NO":"６５號","E_COORD97":179680.48000000001,"N_COORD97":2548207.25,"ADDRESS":"信義路１３１巷６５號","OBJECTID":331461},"geometry":{"x":179680.48000000138,"y":2548207.2500000019}},{"attributes":{"ID":331471,"DIS_CODE":0,"TOWNNAME":"仁德區","LI":"大甲里","LIN":"17鄰","STREET":"行大一街","SECT":" ","MAREA":" ","LANE":" ","ALLEY":" ","HOUSE_NO":"４３２之１號","E_COORD97":169434.98000000001,"N_COORD97":2535239.0499999998,"ADDRESS":"行大一街４３２之１號","OBJECTID":331462},"geometry":{"x":169434.98000000138,"y":2535239.0500000007}},{"attributes":{"ID":331472,"DIS_CODE":0,"TOWNNAME":"仁德區","LI":"仁義里","LIN":"17鄰","STREET":"義林二街","SECT":" ","MAREA":" ","LANE":" ","ALLEY":" ","HOUSE_NO":"１２７號","E_COORD97":174131.76999999999,"N_COORD97":2541307.7599999998,"ADDRESS":"義林二街１２７號","OBJECTID":331463},"geometry":{"x":174131.76999999955,"y":2541307.7600000016}},{"attributes":{"ID":331473,"DIS_CODE":0,"TOWNNAME":"大內區","LI":"環湖里","LIN":"6鄰","STREET":" ","SECT":" ","MAREA":"環湖","LANE":" ","ALLEY":" ","HOUSE_NO":"８１號之２","E_COORD97":190481.15111000001,"N_COORD97":2560665.2402599999,"ADDRESS":"環湖８１號之２","OBJECTID":331464},"geometry":{"x":190481.15110999998,"y":2560665.2402599994}},{"attributes":{"ID":331474,"DIS_CODE":0,"TOWNNAME":"北區","LI":"重興里","LIN":"20鄰","STREET":"林森路","SECT":"三段","MAREA":" ","LANE":"１４０巷","ALLEY":" ","HOUSE_NO":"５９號七樓","E_COORD97":170634.54999999999,"N_COORD97":2544963.6200000001,"ADDRESS":"林森路三段１４０巷５９號七樓","OBJECTID":331465},"geometry":{"x":170634.54999999981,"y":2544963.6200000048}},{"attributes":{"ID":331475,"DIS_CODE":0,"TOWNNAME":"新市區","LI":"永就里","LIN":"6鄰","STREET":" ","SECT":" ","MAREA":"永就","LANE":" ","ALLEY":" ","HOUSE_NO":"６４之１０號","E_COORD97":177662.07000000001,"N_COORD97":2551409.7999999998,"ADDRESS":"永就６４之１０號","OBJECTID":331466},"geometry":{"x":177662.07000000216,"y":2551409.8000000007}},{"attributes":{"ID":331476,"DIS_CODE":0,"TOWNNAME":"新化區","LI":"協興里","LIN":"15鄰","STREET":"大新路","SECT":" ","MAREA":" ","LANE":"１３１巷","ALLEY":" ","HOUSE_NO":"２１號","E_COORD97":177967.57999999999,"N_COORD97":2548752.25,"ADDRESS":"大新路１３１巷２１號","OBJECTID":331467},"geometry":{"x":177967.58000000101,"y":2548752.2500000037}},{"attributes":{"ID":331477,"DIS_CODE":0,"TOWNNAME":"新化區","LI":"太平里","LIN":"15鄰","STREET":"太平街","SECT":" ","MAREA":" ","LANE":"６３巷","ALLEY":" ","HOUSE_NO":"１１號之１","E_COORD97":178858.35000000001,"N_COORD97":2548737.2599999998,"ADDRESS":"太平街６３巷１１號之１","OBJECTID":331468},"geometry":{"x":178858.35000000056,"y":2548737.2599999998}},{"attributes":{"ID":331478,"DIS_CODE":0,"TOWNNAME":"新化區","LI":"協興里","LIN":"15鄰","STREET":"大新路","SECT":" ","MAREA":" ","LANE":"１３１巷","ALLEY":" ","HOUSE_NO":"５號","E_COORD97":177991.23000000001,"N_COORD97":2548767.25,"ADDRESS":"大新路１３１巷５號","OBJECTID":331469},"geometry":{"x":177991.23000000045,"y":2548767.2500000019}},{"attributes":{"ID":331479,"DIS_CODE":0,"TOWNNAME":"新化區","LI":"協興里","LIN":"15鄰","STREET":"中山路","SECT":" ","MAREA":" ","LANE":"６６０巷","ALLEY":" ","HOUSE_NO":"５９號","E_COORD97":178028.35999999999,"N_COORD97":2548679.25,"ADDRESS":"中山路６６０巷５９號","OBJECTID":331470},"geometry":{"x":178028.36000000127,"y":2548679.25}},{"attributes":{"ID":331480,"DIS_CODE":0,"TOWNNAME":"新化區","LI":"知義里","LIN":"15鄰","STREET":"中興路","SECT":" ","MAREA":" ","LANE":"４１５巷","ALLEY":" ","HOUSE_NO":"２４號","E_COORD97":180625.06,"N_COORD97":2547416.25,"ADDRESS":"中興路４１５巷２４號","OBJECTID":331471},"geometry":{"x":180625.06000000052,"y":2547416.2500000037}},{"attributes":{"ID":331481,"DIS_CODE":0,"TOWNNAME":"新化區","LI":"知義里","LIN":"15鄰","STREET":"中興路","SECT":" ","MAREA":" ","LANE":"４１５巷","ALLEY":" ","HOUSE_NO":"１１號","E_COORD97":180631.56,"N_COORD97":2547442.25,"ADDRESS":"中興路４１５巷１１號","OBJECTID":331472},"geometry":{"x":180631.56000000052,"y":2547442.25}},{"attributes":{"ID":331482,"DIS_CODE":0,"TOWNNAME":"南區","LI":"再興里","LIN":"15鄰","STREET":"三官路","SECT":" ","MAREA":" ","LANE":"２２２巷","ALLEY":" ","HOUSE_NO":"１１號","E_COORD97":167113.31,"N_COORD97":2542023.9900000002,"ADDRESS":"三官路２２２巷１１號","OBJECTID":331473},"geometry":{"x":167113.30999999959,"y":2542023.9899999984}},{"attributes":{"ID":331483,"DIS_CODE":0,"TOWNNAME":"南區","LI":"再興里","LIN":"15鄰","STREET":"三官路","SECT":" ","MAREA":" ","LANE":"２２２巷","ALLEY":" ","HOUSE_NO":"１號","E_COORD97":167111.53,"N_COORD97":2542003.0600000001,"ADDRESS":"三官路２２２巷１號","OBJECTID":331474},"geometry":{"x":167111.53000000212,"y":2542003.0600000005}},{"attributes":{"ID":331484,"DIS_CODE":0,"TOWNNAME":"南區","LI":"再興里","LIN":"15鄰","STREET":"三官路","SECT":" ","MAREA":" ","LANE":"２２２巷","ALLEY":" ","HOUSE_NO":"３號","E_COORD97":167112.16,"N_COORD97":2542008.6099999999,"ADDRESS":"三官路２２２巷３號","OBJECTID":331475},"geometry":{"x":167112.16000000201,"y":2542008.6099999994}},{"attributes":{"ID":331485,"DIS_CODE":0,"TOWNNAME":"南區","LI":"再興里","LIN":"15鄰","STREET":"三官路","SECT":" ","MAREA":" ","LANE":"２２２巷","ALLEY":" ","HOUSE_NO":"５號","E_COORD97":167112.16,"N_COORD97":2542011.96,"ADDRESS":"三官路２２２巷５號","OBJECTID":331476},"geometry":{"x":167112.16000000201,"y":2542011.9600000028}},{"attributes":{"ID":331486,"DIS_CODE":0,"TOWNNAME":"南區","LI":"再興里","LIN":"15鄰","STREET":"三官路","SECT":" ","MAREA":" ","LANE":"２２２巷","ALLEY":" ","HOUSE_NO":"７號","E_COORD97":167112.47,"N_COORD97":2542016.04,"ADDRESS":"三官路２２２巷７號","OBJECTID":331477},"geometry":{"x":167112.46999999974,"y":2542016.0400000028}},{"attributes":{"ID":331487,"DIS_CODE":0,"TOWNNAME":"南區","LI":"再興里","LIN":"15鄰","STREET":"三官路","SECT":" ","MAREA":" ","LANE":"２２２巷","ALLEY":" ","HOUSE_NO":"８號","E_COORD97":167132.79999999999,"N_COORD97":2542014.1499999999,"ADDRESS":"三官路２２２巷８號","OBJECTID":331478},"geometry":{"x":167132.79999999888,"y":2542014.1500000022}},{"attributes":{"ID":331488,"DIS_CODE":0,"TOWNNAME":"南區","LI":"再興里","LIN":"15鄰","STREET":"三官路","SECT":" ","MAREA":" ","LANE":"２２２巷","ALLEY":" ","HOUSE_NO":"９號","E_COORD97":167112.89000000001,"N_COORD97":2542020.02,"ADDRESS":"三官路２２２巷９號","OBJECTID":331479},"geometry":{"x":167112.88999999966,"y":2542020.0200000033}},{"attributes":{"ID":331489,"DIS_CODE":0,"TOWNNAME":"南區","LI":"再興里","LIN":"15鄰","STREET":"三官路","SECT":" ","MAREA":" ","LANE":"２２２巷","ALLEY":" ","HOUSE_NO":"１０號","E_COORD97":167132.70000000001,"N_COORD97":2542018.4500000002,"ADDRESS":"三官路２２２巷１０號","OBJECTID":331480},"geometry":{"x":167132.70000000112,"y":2542018.4499999993}},{"attributes":{"ID":331490,"DIS_CODE":0,"TOWNNAME":"南區","LI":"再興里","LIN":"15鄰","STREET":"三官路","SECT":" ","MAREA":" ","LANE":"２２２巷","ALLEY":" ","HOUSE_NO":"１３號","E_COORD97":167113.84,"N_COORD97":2542027.9700000002,"ADDRESS":"三官路２２２巷１３號","OBJECTID":331481},"geometry":{"x":167113.83999999985,"y":2542027.9699999988}},{"attributes":{"ID":331491,"DIS_CODE":0,"TOWNNAME":"南區","LI":"再興里","LIN":"15鄰","STREET":"三官路","SECT":" ","MAREA":" ","LANE":"２２２巷","ALLEY":" ","HOUSE_NO":"１４號","E_COORD97":167134.16,"N_COORD97":2542029.4300000002,"ADDRESS":"三官路２２２巷１４號","OBJECTID":331482},"geometry":{"x":167134.15999999922,"y":2542029.4299999997}},{"attributes":{"ID":331492,"DIS_CODE":0,"TOWNNAME":"南區","LI":"再興里","LIN":"15鄰","STREET":"三官路","SECT":" ","MAREA":" ","LANE":"２２２巷","ALLEY":" ","HOUSE_NO":"１５號","E_COORD97":167114.35999999999,"N_COORD97":2542032.1600000001,"ADDRESS":"三官路２２２巷１５號","OBJECTID":331483},"geometry":{"x":167114.3599999994,"y":2542032.1600000001}},{"attributes":{"ID":331493,"DIS_CODE":0,"TOWNNAME":"南區","LI":"再興里","LIN":"15鄰","STREET":"三官路","SECT":" ","MAREA":" ","LANE":"２２２巷","ALLEY":" ","HOUSE_NO":"１６號","E_COORD97":167134.26999999999,"N_COORD97":2542035.1899999999,"ADDRESS":"三官路２２２巷１６號","OBJECTID":331484},"geometry":{"x":167134.26999999955,"y":2542035.1899999995}},{"attributes":{"ID":331494,"DIS_CODE":0,"TOWNNAME":"南區","LI":"再興里","LIN":"15鄰","STREET":"三官路","SECT":" ","MAREA":" ","LANE":"２２２巷","ALLEY":" ","HOUSE_NO":"２０號","E_COORD97":167137.07000000001,"N_COORD97":2542052.6499999999,"ADDRESS":"三官路２２２巷２０號","OBJECTID":331485},"geometry":{"x":167137.07000000123,"y":2542052.6500000004}},{"attributes":{"ID":331495,"DIS_CODE":0,"TOWNNAME":"南區","LI":"再興里","LIN":"15鄰","STREET":"三官路","SECT":" ","MAREA":" ","LANE":"２２２巷","ALLEY":" ","HOUSE_NO":"２２號","E_COORD97":167137.07000000001,"N_COORD97":2542057.8900000001,"ADDRESS":"三官路２２２巷２２號","OBJECTID":331486},"geometry":{"x":167137.07000000123,"y":2542057.8900000006}},{"attributes":{"ID":331496,"DIS_CODE":0,"TOWNNAME":"南區","LI":"再興里","LIN":"15鄰","STREET":"三官路","SECT":" ","MAREA":" ","LANE":"２２２巷","ALLEY":" ","HOUSE_NO":"２４號","E_COORD97":167137.39000000001,"N_COORD97":2542062.1800000002,"ADDRESS":"三官路２２２巷２４號","OBJECTID":331487},"geometry":{"x":167137.3900000006,"y":2542062.1799999997}},{"attributes":{"ID":331497,"DIS_CODE":0,"TOWNNAME":"南區","LI":"再興里","LIN":"15鄰","STREET":"三官路","SECT":" ","MAREA":" ","LANE":"２２２巷","ALLEY":" ","HOUSE_NO":"２６號","E_COORD97":167138.01999999999,"N_COORD97":2542066.0499999998,"ADDRESS":"三官路２２２巷２６號","OBJECTID":331488},"geometry":{"x":167138.02000000142,"y":2542066.0500000026}},{"attributes":{"ID":331498,"DIS_CODE":0,"TOWNNAME":"南區","LI":"再興里","LIN":"15鄰","STREET":"三官路","SECT":" ","MAREA":" ","LANE":"２２２巷","ALLEY":" ","HOUSE_NO":"２７號","E_COORD97":167115.51000000001,"N_COORD97":2542055.48,"ADDRESS":"三官路２２２巷２７號","OBJECTID":331489},"geometry":{"x":167115.50999999978,"y":2542055.4800000023}},{"attributes":{"ID":331499,"DIS_CODE":0,"TOWNNAME":"新市區","LI":"永就里","LIN":"6鄰","STREET":" ","SECT":" ","MAREA":"永就","LANE":" ","ALLEY":" ","HOUSE_NO":"６８之４９號","E_COORD97":177482.80572,"N_COORD97":2550565.4627899998,"ADDRESS":"永就６８之４９號","OBJECTID":331490},"geometry":{"x":177482.80572000146,"y":2550565.4627850037}},{"attributes":{"ID":331500,"DIS_CODE":0,"TOWNNAME":"南區","LI":"再興里","LIN":"15鄰","STREET":"三官路","SECT":" ","MAREA":" ","LANE":"２２２巷","ALLEY":" ","HOUSE_NO":"２８號","E_COORD97":167138.12,"N_COORD97":2542071.0699999998,"ADDRESS":"三官路２２２巷２８號","OBJECTID":331491},"geometry":{"x":167138.12000000104,"y":2542071.0699999984}},{"attributes":{"ID":331501,"DIS_CODE":0,"TOWNNAME":"新市區","LI":"永就里","LIN":"7鄰","STREET":" ","SECT":" ","MAREA":"永就","LANE":" ","ALLEY":" ","HOUSE_NO":"６９號","E_COORD97":177625.393301,"N_COORD97":2551454.4623099999,"ADDRESS":"永就６９號","OBJECTID":331492},"geometry":{"x":177625.39330099989,"y":2551454.4623050001}},{"attributes":{"ID":331502,"DIS_CODE":0,"TOWNNAME":"仁德區","LI":"仁義里","LIN":"17鄰","STREET":"義林八街","SECT":" ","MAREA":" ","LANE":" ","ALLEY":" ","HOUSE_NO":"７１號","E_COORD97":174260.47,"N_COORD97":2541268.77,"ADDRESS":"義林八街７１號","OBJECTID":331493},"geometry":{"x":174260.47000000067,"y":2541268.7699999977}},{"attributes":{"ID":331503,"DIS_CODE":0,"TOWNNAME":"七股區","LI":"樹林里","LIN":"7鄰","STREET":" ","SECT":" ","MAREA":"樹林","LANE":" ","ALLEY":" ","HOUSE_NO":"６８號之１０","E_COORD97":163642.387116,"N_COORD97":2556970.0576900002,"ADDRESS":"樹林６８號之１０","OBJECTID":331494},"geometry":{"x":163642.38711600099,"y":2556970.0576860029}},{"attributes":{"ID":331504,"DIS_CODE":0,"TOWNNAME":"仁德區","LI":"仁義里","LIN":"17鄰","STREET":"義林二街","SECT":" ","MAREA":" ","LANE":" ","ALLEY":" ","HOUSE_NO":"１３３號","E_COORD97":174133.03,"N_COORD97":2541320.2599999998,"ADDRESS":"義林二街１３３號","OBJECTID":331495},"geometry":{"x":174133.03000000212,"y":2541320.2600000035}},{"attributes":{"ID":331505,"DIS_CODE":0,"TOWNNAME":"歸仁區","LI":"媽廟里","LIN":"23鄰","STREET":"保大路","SECT":"一段","MAREA":" ","LANE":"１５１巷","ALLEY":" ","HOUSE_NO":"８號","E_COORD97":177709.07999999999,"N_COORD97":2543987.7200000002,"ADDRESS":"保大路一段１５１巷８號","OBJECTID":331496},"geometry":{"x":177709.08000000007,"y":2543987.7200000025}},{"attributes":{"ID":331506,"DIS_CODE":0,"TOWNNAME":"新市區","LI":"永就里","LIN":"10鄰","STREET":"永新路","SECT":" ","MAREA":" ","LANE":"１７０巷","ALLEY":" ","HOUSE_NO":"３８號","E_COORD97":177125.64148300001,"N_COORD97":2550708.8037299998,"ADDRESS":"永新路１７０巷３８號","OBJECTID":331497},"geometry":{"x":177125.64148299955,"y":2550708.8037280012}},{"attributes":{"ID":331507,"DIS_CODE":0,"TOWNNAME":"歸仁區","LI":"媽廟里","LIN":"21鄰","STREET":"保大路","SECT":"一段","MAREA":" ","LANE":"１５１巷","ALLEY":" ","HOUSE_NO":"２６號","E_COORD97":177704.185661,"N_COORD97":2543925.1295699999,"ADDRESS":"保大路一段１５１巷２６號","OBJECTID":331498},"geometry":{"x":177704.18566100113,"y":2543925.1295680013}},{"attributes":{"ID":331508,"DIS_CODE":0,"TOWNNAME":"白河區","LI":"永安里","LIN":"5鄰","STREET":"中正路","SECT":" ","MAREA":" ","LANE":"９１巷","ALLEY":" ","HOUSE_NO":"３６號","E_COORD97":190076.91,"N_COORD97":2583022.4500000002,"ADDRESS":"中正路９１巷３６號","OBJECTID":331499},"geometry":{"x":190076.91000000201,"y":2583022.4499999993}},{"attributes":{"ID":331509,"DIS_CODE":0,"TOWNNAME":"歸仁區","LI":"崙頂里","LIN":"11鄰","STREET":"成功九街","SECT":" ","MAREA":" ","LANE":"３５０巷","ALLEY":" ","HOUSE_NO":"１５號","E_COORD97":178201.14999999999,"N_COORD97":2538981.96,"ADDRESS":"成功九街３５０巷１５號","OBJECTID":331500},"geometry":{"x":178201.1500000013,"y":2538981.9600000028}},{"attributes":{"ID":331510,"DIS_CODE":0,"TOWNNAME":"歸仁區","LI":"崙頂里","LIN":"12鄰","STREET":"凱旋路","SECT":"一段","MAREA":" ","LANE":"６０１巷","ALLEY":" ","HOUSE_NO":"１１號","E_COORD97":177768.967297,"N_COORD97":2539427.2753300001,"ADDRESS":"凱旋路一段６０１巷１１號","OBJECTID":331501},"geometry":{"x":177768.96729699895,"y":2539427.2753279991}},{"attributes":{"ID":331511,"DIS_CODE":0,"TOWNNAME":"歸仁區","LI":"媽廟里","LIN":"23鄰","STREET":"保大路","SECT":"一段","MAREA":" ","LANE":"１５１巷","ALLEY":" ","HOUSE_NO":"１０號","E_COORD97":177704.13,"N_COORD97":2543978.7200000002,"ADDRESS":"保大路一段１５１巷１０號","OBJECTID":331502},"geometry":{"x":177704.13000000082,"y":2543978.7200000007}},{"attributes":{"ID":331512,"DIS_CODE":0,"TOWNNAME":"歸仁區","LI":"崙頂里","LIN":"30鄰","STREET":"凱旋路","SECT":"一段","MAREA":" ","LANE":" ","ALLEY":" ","HOUSE_NO":"６８３號","E_COORD97":177568.90899500001,"N_COORD97":2539443.3619900001,"ADDRESS":"凱旋路一段６８３號","OBJECTID":331503},"geometry":{"x":177568.90899500065,"y":2539443.361986002}},{"attributes":{"ID":331513,"DIS_CODE":0,"TOWNNAME":"歸仁區","LI":"崙頂里","LIN":"30鄰","STREET":"凱旋路","SECT":"一段","MAREA":" ","LANE":" ","ALLEY":" ","HOUSE_NO":"６８５號","E_COORD97":177550.25949200001,"N_COORD97":2539439.1286599999,"ADDRESS":"凱旋路一段６８５號","OBJECTID":331504},"geometry":{"x":177550.25949200056,"y":2539439.1286549997}},{"attributes":{"ID":331514,"DIS_CODE":0,"TOWNNAME":"白河區","LI":"永安里","LIN":"1鄰","STREET":"中山路","SECT":" ","MAREA":" ","LANE":" ","ALLEY":" ","HOUSE_NO":"１之３號","E_COORD97":190095.57598200001,"N_COORD97":2582930.6394500001,"ADDRESS":"中山路１之３號","OBJECTID":331505},"geometry":{"x":190095.57598200068,"y":2582930.6394480001}},{"attributes":{"ID":331515,"DIS_CODE":0,"TOWNNAME":"歸仁區","LI":"崙頂里","LIN":"11鄰","STREET":"成功九街","SECT":" ","MAREA":" ","LANE":" ","ALLEY":" ","HOUSE_NO":"１２０號","E_COORD97":178075.62445999999,"N_COORD97":2539443.15032,"ADDRESS":"成功九街１２０號","OBJECTID":331506},"geometry":{"x":178075.62445999961,"y":2539443.1503190007}},{"attributes":{"ID":331516,"DIS_CODE":0,"TOWNNAME":"白河區","LI":"永安里","LIN":"16鄰","STREET":"新生路","SECT":" ","MAREA":" ","LANE":" ","ALLEY":" ","HOUSE_NO":"１５號","E_COORD97":190091.44441699999,"N_COORD97":2583200.9773400002,"ADDRESS":"新生路１５號","OBJECTID":331507},"geometry":{"x":190091.44441700075,"y":2583200.9773420021}},{"attributes":{"ID":331517,"DIS_CODE":0,"TOWNNAME":"歸仁區","LI":"後市里","LIN":"27鄰","STREET":"中山路","SECT":"二段","MAREA":" ","LANE":" ","ALLEY":" ","HOUSE_NO":"９０號","E_COORD97":177358.25875400001,"N_COORD97":2540822.3079200001,"ADDRESS":"中山路二段９０號","OBJECTID":331508},"geometry":{"x":177358.258754001,"y":2540822.3079189993}},{"attributes":{"ID":331518,"DIS_CODE":0,"TOWNNAME":"新市區","LI":"港墘里","LIN":"1鄰","STREET":"民族路","SECT":" ","MAREA":" ","LANE":" ","ALLEY":" ","HOUSE_NO":"１之５１號","E_COORD97":178726.00473399999,"N_COORD97":2554011.5558600002,"ADDRESS":"民族路１之５１號","OBJECTID":331509},"geometry":{"x":178726.00473400112,"y":2554011.5558560006}},{"attributes":{"ID":331519,"DIS_CODE":0,"TOWNNAME":"北區","LI":"六甲里","LIN":"20鄰","STREET":"西門路","SECT":"四段","MAREA":" ","LANE":"３１６巷","ALLEY":" ","HOUSE_NO":"２１號三樓之２","E_COORD97":169036.82000000001,"N_COORD97":2545925.9500000002,"ADDRESS":"西門路四段３１６巷２１號三樓之２","OBJECTID":331510},"geometry":{"x":169036.8200000003,"y":2545925.950000003}},{"attributes":{"ID":331520,"DIS_CODE":0,"TOWNNAME":"北區","LI":"六甲里","LIN":"20鄰","STREET":"西門路","SECT":"四段","MAREA":" ","LANE":"３１６巷","ALLEY":" ","HOUSE_NO":"２１號三樓之３","E_COORD97":169036.82000000001,"N_COORD97":2545925.9500000002,"ADDRESS":"西門路四段３１６巷２１號三樓之３","OBJECTID":331511},"geometry":{"x":169036.8200000003,"y":2545925.950000003}},{"attributes":{"ID":331521,"DIS_CODE":0,"TOWNNAME":"南區","LI":"再興里","LIN":"15鄰","STREET":"三官路","SECT":" ","MAREA":" ","LANE":"２２２巷","ALLEY":" ","HOUSE_NO":"２９號","E_COORD97":167115.51000000001,"N_COORD97":2542059.46,"ADDRESS":"三官路２２２巷２９號","OBJECTID":331512},"geometry":{"x":167115.50999999978,"y":2542059.4600000028}},{"attributes":{"ID":331522,"DIS_CODE":0,"TOWNNAME":"安南區","LI":"四草里","LIN":"9鄰","STREET":"大眾路","SECT":" ","MAREA":" ","LANE":"９６３巷","ALLEY":" ","HOUSE_NO":"３號","E_COORD97":160286.268813,"N_COORD97":2545962.3568500001,"ADDRESS":"大眾路９６３巷３號","OBJECTID":331513},"geometry":{"x":160286.26881300006,"y":2545962.3568500001}},{"attributes":{"ID":331523,"DIS_CODE":0,"TOWNNAME":"南區","LI":"再興里","LIN":"15鄰","STREET":"三官路","SECT":" ","MAREA":" ","LANE":"２２２巷","ALLEY":" ","HOUSE_NO":"３０號","E_COORD97":167138.12,"N_COORD97":2542075.4700000002,"ADDRESS":"三官路２２２巷３０號","OBJECTID":331514},"geometry":{"x":167138.12000000104,"y":2542075.4699999988}},{"attributes":{"ID":331524,"DIS_CODE":0,"TOWNNAME":"南區","LI":"再興里","LIN":"15鄰","STREET":"三官路","SECT":" ","MAREA":" ","LANE":"２２２巷","ALLEY":" ","HOUSE_NO":"３１號","E_COORD97":167116.25,"N_COORD97":2542063.23,"ADDRESS":"三官路２２２巷３１號","OBJECTID":331515},"geometry":{"x":167116.25,"y":2542063.2300000004}},{"attributes":{"ID":331525,"DIS_CODE":0,"TOWNNAME":"佳里區","LI":"海澄里","LIN":"2鄰","STREET":" ","SECT":" ","MAREA":"萊竿寮","LANE":" ","ALLEY":" ","HOUSE_NO":"１２之１８號","E_COORD97":165712.58916,"N_COORD97":2564767.6286300002,"ADDRESS":"萊竿寮１２之１８號","OBJECTID":331516},"geometry":{"x":165712.58915999997,"y":2564767.6286290009}},{"attributes":{"ID":331526,"DIS_CODE":0,"TOWNNAME":"南區","LI":"再興里","LIN":"15鄰","STREET":"三官路","SECT":" ","MAREA":" ","LANE":"２２２巷","ALLEY":" ","HOUSE_NO":"３２號","E_COORD97":167138.44,"N_COORD97":2542079.8700000001,"ADDRESS":"三官路２２２巷３２號","OBJECTID":331517},"geometry":{"x":167138.44000000134,"y":2542079.870000001}},{"attributes":{"ID":331527,"DIS_CODE":0,"TOWNNAME":"南區","LI":"再興里","LIN":"15鄰","STREET":"三官路","SECT":" ","MAREA":" ","LANE":"２２２巷","ALLEY":" ","HOUSE_NO":"３３號","E_COORD97":167116.35000000001,"N_COORD97":2542068.1400000001,"ADDRESS":"三官路２２２巷３３號","OBJECTID":331518},"geometry":{"x":167116.34999999963,"y":2542068.1400000025}},{"attributes":{"ID":331528,"DIS_CODE":0,"TOWNNAME":"南區","LI":"再興里","LIN":"15鄰","STREET":"三官路","SECT":" ","MAREA":" ","LANE":"２２２巷","ALLEY":" ","HOUSE_NO":"３４號","E_COORD97":167139.38,"N_COORD97":2542084.2599999998,"ADDRESS":"三官路２２２巷３４號","OBJECTID":331519},"geometry":{"x":167139.38000000175,"y":2542084.2600000016}},{"attributes":{"ID":331529,"DIS_CODE":0,"TOWNNAME":"南區","LI":"再興里","LIN":"15鄰","STREET":"三官路","SECT":" ","MAREA":" ","LANE":"２２２巷","ALLEY":" ","HOUSE_NO":"３５號","E_COORD97":167116.56,"N_COORD97":2542071.9100000001,"ADDRESS":"三官路２２２巷３５號","OBJECTID":331520},"geometry":{"x":167116.55999999959,"y":2542071.9099999983}},{"attributes":{"ID":331530,"DIS_CODE":0,"TOWNNAME":"南區","LI":"再興里","LIN":"15鄰","STREET":"三官路","SECT":" ","MAREA":" ","LANE":"２２２巷","ALLEY":" ","HOUSE_NO":"３６號","E_COORD97":167139.69,"N_COORD97":2542119.46,"ADDRESS":"三官路２２２巷３６號","OBJECTID":331521},"geometry":{"x":167139.69000000134,"y":2542119.4600000009}},{"attributes":{"ID":331531,"DIS_CODE":0,"TOWNNAME":"南區","LI":"再興里","LIN":"15鄰","STREET":"三官路","SECT":" ","MAREA":" ","LANE":"２２２巷","ALLEY":" ","HOUSE_NO":"３７號","E_COORD97":167116.56,"N_COORD97":2542075.6800000002,"ADDRESS":"三官路２２２巷３７號","OBJECTID":331522},"geometry":{"x":167116.55999999959,"y":2542075.6799999997}},{"attributes":{"ID":331532,"DIS_CODE":0,"TOWNNAME":"東區","LI":"德光里","LIN":"15鄰","STREET":"崇德二街","SECT":" ","MAREA":" ","LANE":"６巷","ALLEY":" ","HOUSE_NO":"１１號","E_COORD97":170095.14999999999,"N_COORD97":2542293.7200000002,"ADDRESS":"崇德二街６巷１１號","OBJECTID":331523},"geometry":{"x":170095.1500000013,"y":2542293.7200000007}},{"attributes":{"ID":331533,"DIS_CODE":0,"TOWNNAME":"東區","LI":"德光里","LIN":"15鄰","STREET":"崇德二街","SECT":" ","MAREA":" ","LANE":"６巷","ALLEY":" ","HOUSE_NO":"１３號","E_COORD97":170088.48000000001,"N_COORD97":2542277.0800000001,"ADDRESS":"崇德二街６巷１３號","OBJECTID":331524},"geometry":{"x":170088.48000000045,"y":2542277.0800000001}},{"attributes":{"ID":331534,"DIS_CODE":0,"TOWNNAME":"仁德區","LI":"仁義里","LIN":"17鄰","STREET":"義林二街","SECT":" ","MAREA":" ","LANE":" ","ALLEY":" ","HOUSE_NO":"１２３號","E_COORD97":174125.13,"N_COORD97":2541295.2599999998,"ADDRESS":"義林二街１２３號","OBJECTID":331525},"geometry":{"x":174125.13000000175,"y":2541295.2599999998}},{"attributes":{"ID":331535,"DIS_CODE":0,"TOWNNAME":"仁德區","LI":"仁義里","LIN":"17鄰","STREET":"義林十街","SECT":" ","MAREA":" ","LANE":" ","ALLEY":" ","HOUSE_NO":"１３號","E_COORD97":174247.87,"N_COORD97":2541385.5099999998,"ADDRESS":"義林十街１３號","OBJECTID":331526},"geometry":{"x":174247.87000000104,"y":2541385.5099999998}},{"attributes":{"ID":331536,"DIS_CODE":0,"TOWNNAME":"東區","LI":"德光里","LIN":"15鄰","STREET":"崇德二街","SECT":" ","MAREA":" ","LANE":"６巷","ALLEY":" ","HOUSE_NO":"１５號","E_COORD97":170092,"N_COORD97":2542274.2799999998,"ADDRESS":"崇德二街６巷１５號","OBJECTID":331527},"geometry":{"x":170092.00000000093,"y":2542274.2799999993}},{"attributes":{"ID":331537,"DIS_CODE":0,"TOWNNAME":"白河區","LI":"永安里","LIN":"8鄰","STREET":" ","SECT":" ","MAREA":"新厝子","LANE":" ","ALLEY":" ","HOUSE_NO":"２１號","E_COORD97":189691.756681,"N_COORD97":2582892.0103000002,"ADDRESS":"新厝子２１號","OBJECTID":331528},"geometry":{"x":189691.75668100081,"y":2582892.0103020016}},{"attributes":{"ID":331538,"DIS_CODE":0,"TOWNNAME":"白河區","LI":"仙草里","LIN":"13鄰鄰","STREET":" ","SECT":" ","MAREA":"白水溪","LANE":" ","ALLEY":" ","HOUSE_NO":"３６之１號","E_COORD97":197134.68895899999,"N_COORD97":2583542.8070100001,"ADDRESS":"白水溪３６之１號","OBJECTID":331529},"geometry":{"x":197134.6889589997,"y":2583542.8070080038}},{"attributes":{"ID":331539,"DIS_CODE":0,"TOWNNAME":"白河區","LI":"仙草里","LIN":"18鄰","STREET":" ","SECT":" ","MAREA":"仙草","LANE":" ","ALLEY":" ","HOUSE_NO":"６１之２號","E_COORD97":196471.80346900001,"N_COORD97":2582480.7212999999,"ADDRESS":"仙草６１之２號","OBJECTID":331530},"geometry":{"x":196471.80346900132,"y":2582480.7213010043}},{"attributes":{"ID":331540,"DIS_CODE":0,"TOWNNAME":"白河區","LI":"永安里","LIN":"18鄰","STREET":" ","SECT":" ","MAREA":"新厝子","LANE":" ","ALLEY":" ","HOUSE_NO":"１之２８０號","E_COORD97":189516.16,"N_COORD97":2583091.3399999999,"ADDRESS":"新厝子１之２８０號","OBJECTID":331531},"geometry":{"x":189516.16000000108,"y":2583091.3399999999}},{"attributes":{"ID":331541,"DIS_CODE":0,"TOWNNAME":"東區","LI":"德光里","LIN":"15鄰","STREET":"崇德二街","SECT":" ","MAREA":" ","LANE":"６巷","ALLEY":" ","HOUSE_NO":"１７號","E_COORD97":170095.51000000001,"N_COORD97":2542271.29,"ADDRESS":"崇德二街６巷１７號","OBJECTID":331532},"geometry":{"x":170095.50999999978,"y":2542271.2899999991}},{"attributes":{"ID":331542,"DIS_CODE":0,"TOWNNAME":"東區","LI":"德光里","LIN":"15鄰","STREET":"崇德二街","SECT":" ","MAREA":" ","LANE":"６巷","ALLEY":" ","HOUSE_NO":"１９號","E_COORD97":170099.38,"N_COORD97":2542268.3100000001,"ADDRESS":"崇德二街６巷１９號","OBJECTID":331533},"geometry":{"x":170099.38000000082,"y":2542268.3100000005}},{"attributes":{"ID":331543,"DIS_CODE":0,"TOWNNAME":"東區","LI":"德光里","LIN":"15鄰","STREET":"崇德二街","SECT":" ","MAREA":" ","LANE":"６巷","ALLEY":" ","HOUSE_NO":"１號","E_COORD97":170067.72,"N_COORD97":2542298.3500000001,"ADDRESS":"崇德二街６巷１號","OBJECTID":331534},"geometry":{"x":170067.7200000016,"y":2542298.3499999996}},{"attributes":{"ID":331544,"DIS_CODE":0,"TOWNNAME":"東區","LI":"德光里","LIN":"15鄰","STREET":"崇德二街","SECT":" ","MAREA":" ","LANE":"６巷","ALLEY":" ","HOUSE_NO":"２１號","E_COORD97":170103.60000000001,"N_COORD97":2542264.4500000002,"ADDRESS":"崇德二街６巷２１號","OBJECTID":331535},"geometry":{"x":170103.59999999963,"y":2542264.450000003}},{"attributes":{"ID":331545,"DIS_CODE":0,"TOWNNAME":"東區","LI":"德光里","LIN":"15鄰","STREET":"崇德二街","SECT":" ","MAREA":" ","LANE":"６巷","ALLEY":" ","HOUSE_NO":"２３號","E_COORD97":170108.17000000001,"N_COORD97":2542262.1600000001,"ADDRESS":"崇德二街６巷２３號","OBJECTID":331536},"geometry":{"x":170108.16999999993,"y":2542262.1600000001}},{"attributes":{"ID":331546,"DIS_CODE":0,"TOWNNAME":"東區","LI":"德光里","LIN":"15鄰","STREET":"崇德二街","SECT":" ","MAREA":" ","LANE":"６巷","ALLEY":" ","HOUSE_NO":"７號","E_COORD97":170077.54000000001,"N_COORD97":2542284.46,"ADDRESS":"崇德二街６巷７號","OBJECTID":331537},"geometry":{"x":170077.54000000004,"y":2542284.4600000028}},{"attributes":{"ID":331547,"DIS_CODE":0,"TOWNNAME":"東區","LI":"德光里","LIN":"15鄰","STREET":"崇德二街","SECT":" ","MAREA":" ","LANE":"６巷","ALLEY":" ","HOUSE_NO":"９號","E_COORD97":170086.07000000001,"N_COORD97":2542293.5299999998,"ADDRESS":"崇德二街６巷９號","OBJECTID":331538},"geometry":{"x":170086.0700000003,"y":2542293.5299999993}},{"attributes":{"ID":331548,"DIS_CODE":0,"TOWNNAME":"仁德區","LI":"二行里","LIN":"15鄰","STREET":"中正西路","SECT":" ","MAREA":" ","LANE":"３５３巷","ALLEY":" ","HOUSE_NO":"１１號","E_COORD97":169796.03,"N_COORD97":2535351.5,"ADDRESS":"中正西路３５３巷１１號","OBJECTID":331539},"geometry":{"x":169796.03000000026,"y":2535351.4999999981}},{"attributes":{"ID":331549,"DIS_CODE":0,"TOWNNAME":"新營區","LI":"延平里","LIN":"7鄰","STREET":"復興路","SECT":" ","MAREA":" ","LANE":" ","ALLEY":" ","HOUSE_NO":"１之１７號","E_COORD97":179707.472794,"N_COORD97":2577958.9970100001,"ADDRESS":"復興路１之１７號","OBJECTID":331540},"geometry":{"x":179707.47279400192,"y":2577958.9970130008}},{"attributes":{"ID":331550,"DIS_CODE":0,"TOWNNAME":"歸仁區","LI":"媽廟里","LIN":"27鄰","STREET":"保大路","SECT":"一段","MAREA":" ","LANE":" ","ALLEY":" ","HOUSE_NO":"１８０號","E_COORD97":177609.79865000001,"N_COORD97":2544040.0764500001,"ADDRESS":"保大路一段１８０號","OBJECTID":331541},"geometry":{"x":177609.79865000118,"y":2544040.0764470026}},{"attributes":{"ID":331551,"DIS_CODE":0,"TOWNNAME":"歸仁區","LI":"媽廟里","LIN":"22鄰","STREET":"保大路","SECT":"一段","MAREA":" ","LANE":" ","ALLEY":" ","HOUSE_NO":"１６７號","E_COORD97":177657.04508499999,"N_COORD97":2544012.77146,"ADDRESS":"保大路一段１６７號","OBJECTID":331542},"geometry":{"x":177657.04508500081,"y":2544012.7714610025}},{"attributes":{"ID":331552,"DIS_CODE":0,"TOWNNAME":"仁德區","LI":"一甲里","LIN":"15鄰","STREET":"忠義路","SECT":" ","MAREA":" ","LANE":"７５巷","ALLEY":" ","HOUSE_NO":"３號","E_COORD97":174414.91,"N_COORD97":2541695.0099999998,"ADDRESS":"忠義路７５巷３號","OBJECTID":331543},"geometry":{"x":174414.91000000015,"y":2541695.0100000035}},{"attributes":{"ID":331553,"DIS_CODE":0,"TOWNNAME":"歸仁區","LI":"沙崙里","LIN":"1鄰","STREET":" ","SECT":" ","MAREA":"二甲","LANE":" ","ALLEY":" ","HOUSE_NO":"１６４號","E_COORD97":178823.64051600001,"N_COORD97":2539502.5660600001,"ADDRESS":"二甲１６４號","OBJECTID":331544},"geometry":{"x":178823.6405160008,"y":2539502.5660609994}},{"attributes":{"ID":331554,"DIS_CODE":0,"TOWNNAME":"仁德區","LI":"後壁里","LIN":"15鄰","STREET":"德善路","SECT":" ","MAREA":" ","LANE":"１０８巷","ALLEY":" ","HOUSE_NO":"５２號","E_COORD97":173510.37,"N_COORD97":2538734.2599999998,"ADDRESS":"德善路１０８巷５２號","OBJECTID":331545},"geometry":{"x":173510.37000000104,"y":2538734.2600000016}},{"attributes":{"ID":331555,"DIS_CODE":0,"TOWNNAME":"仁德區","LI":"保安里","LIN":"15鄰","STREET":"文賢路","SECT":"二段","MAREA":" ","LANE":"１８巷","ALLEY":" ","HOUSE_NO":"８號","E_COORD97":171676.62,"N_COORD97":2535797.8199999998,"ADDRESS":"文賢路二段１８巷８號","OBJECTID":331546},"geometry":{"x":171676.62000000104,"y":2535797.8200000022}},{"attributes":{"ID":331556,"DIS_CODE":0,"TOWNNAME":"仁德區","LI":"新田里","LIN":"15鄰","STREET":"北保東路","SECT":" ","MAREA":" ","LANE":"８巷","ALLEY":" ","HOUSE_NO":"１號","E_COORD97":173374.28,"N_COORD97":2539390.75,"ADDRESS":"北保東路８巷１號","OBJECTID":331547},"geometry":{"x":173374.28000000119,"y":2539390.75}},{"attributes":{"ID":331557,"DIS_CODE":0,"TOWNNAME":"仁德區","LI":"仁義里","LIN":"17鄰","STREET":"義林十二街","SECT":" ","MAREA":" ","LANE":" ","ALLEY":" ","HOUSE_NO":"１７２號","E_COORD97":174241.07999999999,"N_COORD97":2541472.02,"ADDRESS":"義林十二街１７２號","OBJECTID":331548},"geometry":{"x":174241.08000000101,"y":2541472.0200000014}},{"attributes":{"ID":331558,"DIS_CODE":0,"TOWNNAME":"仁德區","LI":"仁義里","LIN":"17鄰","STREET":"義林八街","SECT":" ","MAREA":" ","LANE":" ","ALLEY":" ","HOUSE_NO":"１６號","E_COORD97":174283.73999999999,"N_COORD97":2541288.7599999998,"ADDRESS":"義林八街１６號","OBJECTID":331549},"geometry":{"x":174283.74000000022,"y":2541288.7599999998}},{"attributes":{"ID":331559,"DIS_CODE":0,"TOWNNAME":"大內區","LI":"環湖里","LIN":"11鄰","STREET":" ","SECT":" ","MAREA":"燒灰子","LANE":" ","ALLEY":" ","HOUSE_NO":"２２號之３","E_COORD97":189096.97579999999,"N_COORD97":2562609.5117600001,"ADDRESS":"燒灰子２２號之３","OBJECTID":331550},"geometry":{"x":189096.97580000199,"y":2562609.511760002}},{"attributes":{"ID":331560,"DIS_CODE":0,"TOWNNAME":"仁德區","LI":"仁義里","LIN":"17鄰","STREET":"義林十二街","SECT":" ","MAREA":" ","LANE":" ","ALLEY":" ","HOUSE_NO":"１７０號","E_COORD97":174253.82000000001,"N_COORD97":2541462.52,"ADDRESS":"義林十二街１７０號","OBJECTID":331551},"geometry":{"x":174253.82000000123,"y":2541462.5199999996}},{"attributes":{"ID":331561,"DIS_CODE":0,"TOWNNAME":"仁德區","LI":"仁義里","LIN":"17鄰","STREET":"義林二街","SECT":" ","MAREA":" ","LANE":" ","ALLEY":" ","HOUSE_NO":"１５２號","E_COORD97":174166.48000000001,"N_COORD97":2541379.52,"ADDRESS":"義林二街１５２號","OBJECTID":331552},"geometry":{"x":174166.48000000138,"y":2541379.5200000014}},{"attributes":{"ID":331562,"DIS_CODE":0,"TOWNNAME":"關廟區","LI":"關廟里","LIN":"3鄰","STREET":"武聖路","SECT":" ","MAREA":" ","LANE":" ","ALLEY":" ","HOUSE_NO":"２７號","E_COORD97":180924.594495,"N_COORD97":2540185.1100900001,"ADDRESS":"武聖路２７號","OBJECTID":331553},"geometry":{"x":180924.59449500125,"y":2540185.1100910027}},{"attributes":{"ID":331563,"DIS_CODE":0,"TOWNNAME":"新營區","LI":"新北里","LIN":"20鄰","STREET":"民生路","SECT":" ","MAREA":" ","LANE":"３３６巷","ALLEY":" ","HOUSE_NO":"４０號二樓","E_COORD97":178999.88,"N_COORD97":2579184.3799999999,"ADDRESS":"民生路３３６巷４０號二樓","OBJECTID":331554},"geometry":{"x":178999.87999999989,"y":2579184.379999999}},{"attributes":{"ID":331564,"DIS_CODE":0,"TOWNNAME":"新營區","LI":"新北里","LIN":"20鄰","STREET":"民生路","SECT":" ","MAREA":" ","LANE":"３３６巷","ALLEY":" ","HOUSE_NO":"３８號六樓","E_COORD97":179006.03,"N_COORD97":2579184.3500000001,"ADDRESS":"民生路３３６巷３８號六樓","OBJECTID":331555},"geometry":{"x":179006.03000000026,"y":2579184.3500000015}},{"attributes":{"ID":331565,"DIS_CODE":0,"TOWNNAME":"仁德區","LI":"太子里","LIN":"15鄰","STREET":"太子北路","SECT":" ","MAREA":" ","LANE":"１２６巷","ALLEY":" ","HOUSE_NO":"２號","E_COORD97":174066.82999999999,"N_COORD97":2543685.5,"ADDRESS":"太子北路１２６巷２號","OBJECTID":331556},"geometry":{"x":174066.83000000101,"y":2543685.5000000019}},{"attributes":{"ID":331566,"DIS_CODE":0,"TOWNNAME":"仁德區","LI":"太子里","LIN":"15鄰","STREET":"太子北路","SECT":" ","MAREA":" ","LANE":"１１２巷","ALLEY":" ","HOUSE_NO":"２０號","E_COORD97":174104.14999999999,"N_COORD97":2543696.25,"ADDRESS":"太子北路１１２巷２０號","OBJECTID":331557},"geometry":{"x":174104.1500000013,"y":2543696.25}},{"attributes":{"ID":331567,"DIS_CODE":0,"TOWNNAME":"仁德區","LI":"仁義里","LIN":"17鄰","STREET":"義林八街","SECT":" ","MAREA":" ","LANE":" ","ALLEY":" ","HOUSE_NO":"７３號","E_COORD97":174256.19,"N_COORD97":2541269.27,"ADDRESS":"義林八街７３號","OBJECTID":331558},"geometry":{"x":174256.19000000134,"y":2541269.2700000014}},{"attributes":{"ID":331568,"DIS_CODE":0,"TOWNNAME":"歸仁區","LI":"崙頂里","LIN":"6鄰","STREET":"崙頂一街","SECT":" ","MAREA":" ","LANE":"３７巷","ALLEY":" ","HOUSE_NO":"６之１號","E_COORD97":178015.680945,"N_COORD97":2540025.0025999998,"ADDRESS":"崙頂一街３７巷６之１號","OBJECTID":331559},"geometry":{"x":178015.68094499968,"y":2540025.0026030019}},{"attributes":{"ID":331569,"DIS_CODE":0,"TOWNNAME":"新市區","LI":"港墘里","LIN":"1鄰","STREET":"民族路","SECT":" ","MAREA":" ","LANE":" ","ALLEY":" ","HOUSE_NO":"７２號","E_COORD97":178439.50576199999,"N_COORD97":2553768.3509900002,"ADDRESS":"民族路７２號","OBJECTID":331560},"geometry":{"x":178439.5057620015,"y":2553768.3509880025}},{"attributes":{"ID":331570,"DIS_CODE":0,"TOWNNAME":"歸仁區","LI":"崙頂里","LIN":"12鄰","STREET":"凱旋路","SECT":"一段","MAREA":" ","LANE":" ","ALLEY":" ","HOUSE_NO":"５８６號","E_COORD97":177810.09676799999,"N_COORD97":2539547.67875,"ADDRESS":"凱旋路一段５８６號","OBJECTID":331561},"geometry":{"x":177810.09676800016,"y":2539547.6787520014}},{"attributes":{"ID":331571,"DIS_CODE":0,"TOWNNAME":"新市區","LI":"新和里","LIN":"3鄰","STREET":"仁愛街","SECT":" ","MAREA":" ","LANE":" ","ALLEY":" ","HOUSE_NO":"２之１號","E_COORD97":177391.788138,"N_COORD97":2552040.0566400001,"ADDRESS":"仁愛街２之１號","OBJECTID":331562},"geometry":{"x":177391.78813800029,"y":2552040.0566390008}},{"attributes":{"ID":331572,"DIS_CODE":0,"TOWNNAME":"新市區","LI":"新和里","LIN":"3鄰","STREET":"仁愛街","SECT":" ","MAREA":" ","LANE":" ","ALLEY":" ","HOUSE_NO":"２之２號","E_COORD97":177388.61022,"N_COORD97":2552034.3416400002,"ADDRESS":"仁愛街２之２號","OBJECTID":331563},"geometry":{"x":177388.61022000201,"y":2552034.3416420016}},{"attributes":{"ID":331573,"DIS_CODE":0,"TOWNNAME":"仁德區","LI":"後壁里","LIN":"15鄰","STREET":"德南路","SECT":" ","MAREA":" ","LANE":"１３７巷","ALLEY":" ","HOUSE_NO":"２６號","E_COORD97":173612.84,"N_COORD97":2538615.2599999998,"ADDRESS":"德南路１３７巷２６號","OBJECTID":331564},"geometry":{"x":173612.83999999985,"y":2538615.2600000016}},{"attributes":{"ID":331574,"DIS_CODE":0,"TOWNNAME":"仁德區","LI":"後壁里","LIN":"15鄰","STREET":"德善路","SECT":" ","MAREA":" ","LANE":"１０６巷","ALLEY":" ","HOUSE_NO":"５號","E_COORD97":173406.01999999999,"N_COORD97":2538788.52,"ADDRESS":"德善路１０６巷５號","OBJECTID":331565},"geometry":{"x":173406.01999999955,"y":2538788.5199999996}},{"attributes":{"ID":331575,"DIS_CODE":0,"TOWNNAME":"仁德區","LI":"保安里","LIN":"15鄰","STREET":"中正路","SECT":"一段","MAREA":" ","LANE":"２１０巷","ALLEY":" ","HOUSE_NO":"３號","E_COORD97":171635.88,"N_COORD97":2535784.5299999998,"ADDRESS":"中正路一段２１０巷３號","OBJECTID":331566},"geometry":{"x":171635.87999999989,"y":2535784.5299999975}},{"attributes":{"ID":331576,"DIS_CODE":0,"TOWNNAME":"仁德區","LI":"保安里","LIN":"15鄰","STREET":"文賢路","SECT":"二段","MAREA":" ","LANE":"１８巷","ALLEY":" ","HOUSE_NO":"２５號","E_COORD97":171666.20000000001,"N_COORD97":2535768.5800000001,"ADDRESS":"文賢路二段１８巷２５號","OBJECTID":331567},"geometry":{"x":171666.20000000019,"y":2535768.5800000019}},{"attributes":{"ID":331577,"DIS_CODE":0,"TOWNNAME":"仁德區","LI":"後壁里","LIN":"15鄰","STREET":"德南路","SECT":" ","MAREA":" ","LANE":"１３７巷","ALLEY":" ","HOUSE_NO":"６６之１０號","E_COORD97":173653.88,"N_COORD97":2538639.1200000001,"ADDRESS":"德南路１３７巷６６之１０號","OBJECTID":331568},"geometry":{"x":173653.88000000175,"y":2538639.120000001}},{"attributes":{"ID":331578,"DIS_CODE":0,"TOWNNAME":"永康區","LI":"永康里","LIN":"15鄰","STREET":"永中街","SECT":" ","MAREA":" ","LANE":"１００巷","ALLEY":" ","HOUSE_NO":"８號","E_COORD97":173967.28,"N_COORD97":2547179,"ADDRESS":"永中街１００巷８號","OBJECTID":331569},"geometry":{"x":173967.28000000119,"y":2547179}},{"attributes":{"ID":331579,"DIS_CODE":0,"TOWNNAME":"永康區","LI":"三合里","LIN":"15鄰","STREET":"南工街","SECT":" ","MAREA":" ","LANE":"２４７巷","ALLEY":" ","HOUSE_NO":"５號","E_COORD97":171982.56,"N_COORD97":2545921.25,"ADDRESS":"南工街２４７巷５號","OBJECTID":331570},"geometry":{"x":171982.56000000145,"y":2545921.2500000037}},{"attributes":{"ID":331580,"DIS_CODE":0,"TOWNNAME":"永康區","LI":"永康里","LIN":"15鄰","STREET":"永中街","SECT":" ","MAREA":" ","LANE":"６０巷","ALLEY":" ","HOUSE_NO":"１５號","E_COORD97":173951.76999999999,"N_COORD97":2547133.25,"ADDRESS":"永中街６０巷１５號","OBJECTID":331571},"geometry":{"x":173951.76999999955,"y":2547133.25}},{"attributes":{"ID":331581,"DIS_CODE":0,"TOWNNAME":"永康區","LI":"復華里","LIN":"15鄰","STREET":"國華街","SECT":" ","MAREA":" ","LANE":"９３巷","ALLEY":" ","HOUSE_NO":"１２號","E_COORD97":172794.47,"N_COORD97":2546008.4900000002,"ADDRESS":"國華街９３巷１２號","OBJECTID":331572},"geometry":{"x":172794.47000000067,"y":2546008.4900000021}},{"attributes":{"ID":331582,"DIS_CODE":0,"TOWNNAME":"永康區","LI":"尚頂里","LIN":"15鄰","STREET":"中正南路","SECT":" ","MAREA":" ","LANE":"２４２巷","ALLEY":" ","HOUSE_NO":"１５號","E_COORD97":170497.26999999999,"N_COORD97":2547480.25,"ADDRESS":"中正南路２４２巷１５號","OBJECTID":331573},"geometry":{"x":170497.26999999955,"y":2547480.25}},{"attributes":{"ID":331583,"DIS_CODE":0,"TOWNNAME":"永康區","LI":"烏竹里","LIN":"15鄰","STREET":"龍橋街","SECT":" ","MAREA":" ","LANE":"３５０巷","ALLEY":" ","HOUSE_NO":"１１７號","E_COORD97":174716.88,"N_COORD97":2549275.4900000002,"ADDRESS":"龍橋街３５０巷１１７號","OBJECTID":331574},"geometry":{"x":174716.88000000175,"y":2549275.4900000002}},{"attributes":{"ID":331584,"DIS_CODE":0,"TOWNNAME":"永康區","LI":"正強里","LIN":"15鄰","STREET":"中山南路","SECT":" ","MAREA":" ","LANE":"４７１巷","ALLEY":" ","HOUSE_NO":"９５號","E_COORD97":173339.42000000001,"N_COORD97":2547212.9900000002,"ADDRESS":"中山南路４７１巷９５號","OBJECTID":331575},"geometry":{"x":173339.41999999993,"y":2547212.9900000021}},{"attributes":{"ID":331585,"DIS_CODE":0,"TOWNNAME":"永康區","LI":"西橋里","LIN":"15鄰","STREET":"中華西街","SECT":" ","MAREA":" ","LANE":"２３１巷","ALLEY":" ","HOUSE_NO":"１２號","E_COORD97":170610.62,"N_COORD97":2546410.25,"ADDRESS":"中華西街２３１巷１２號","OBJECTID":331576},"geometry":{"x":170610.62000000011,"y":2546410.2500000019}},{"attributes":{"ID":331586,"DIS_CODE":0,"TOWNNAME":"仁德區","LI":"仁義里","LIN":"17鄰","STREET":"義林八街","SECT":" ","MAREA":" ","LANE":" ","ALLEY":" ","HOUSE_NO":"１１３號","E_COORD97":174208.94,"N_COORD97":2541270.52,"ADDRESS":"義林八街１１３號","OBJECTID":331577},"geometry":{"x":174208.94000000134,"y":2541270.5200000033}},{"attributes":{"ID":331587,"DIS_CODE":0,"TOWNNAME":"永康區","LI":"復華里","LIN":"15鄰","STREET":"國華街","SECT":" ","MAREA":" ","LANE":"９１巷","ALLEY":" ","HOUSE_NO":"１４號","E_COORD97":172804.87,"N_COORD97":2545967.9199999999,"ADDRESS":"國華街９１巷１４號","OBJECTID":331578},"geometry":{"x":172804.87000000197,"y":2545967.9200000018}},{"attributes":{"ID":331588,"DIS_CODE":0,"TOWNNAME":"仁德區","LI":"仁義里","LIN":"17鄰","STREET":"義林十街","SECT":" ","MAREA":" ","LANE":" ","ALLEY":" ","HOUSE_NO":"２７號","E_COORD97":174219.45000000001,"N_COORD97":2541389.0099999998,"ADDRESS":"義林十街２７號","OBJECTID":331579},"geometry":{"x":174219.45000000019,"y":2541389.0099999998}},{"attributes":{"ID":331589,"DIS_CODE":0,"TOWNNAME":"仁德區","LI":"仁義里","LIN":"17鄰","STREET":"義林十二街","SECT":" ","MAREA":" ","LANE":" ","ALLEY":" ","HOUSE_NO":"１６８號","E_COORD97":174260.56,"N_COORD97":2541464.02,"ADDRESS":"義林十二街１６８號","OBJECTID":331580},"geometry":{"x":174260.55999999959,"y":2541464.0200000033}},{"attributes":{"ID":331590,"DIS_CODE":0,"TOWNNAME":"大內區","LI":"石城里","LIN":"4鄰","STREET":" ","SECT":" ","MAREA":"石子瀨","LANE":" ","ALLEY":" ","HOUSE_NO":"３５號","E_COORD97":184257.54227100001,"N_COORD97":2558001.7927399999,"ADDRESS":"石子瀨３５號","OBJECTID":331581},"geometry":{"x":184257.54227100033,"y":2558001.7927389983}},{"attributes":{"ID":331591,"DIS_CODE":0,"TOWNNAME":"大內區","LI":"石城里","LIN":"4鄰","STREET":" ","SECT":" ","MAREA":"石子瀨","LANE":" ","ALLEY":" ","HOUSE_NO":"３９號之５","E_COORD97":184266.86352700001,"N_COORD97":2558080.42686,"ADDRESS":"石子瀨３９號之５","OBJECTID":331582},"geometry":{"x":184266.86352700181,"y":2558080.4268630035}},{"attributes":{"ID":331592,"DIS_CODE":0,"TOWNNAME":"大內區","LI":"石城里","LIN":"6鄰","STREET":" ","SECT":" ","MAREA":"石子瀨","LANE":" ","ALLEY":" ","HOUSE_NO":"５５號","E_COORD97":184146.21681000001,"N_COORD97":2558061.2181199999,"ADDRESS":"石子瀨５５號","OBJECTID":331583},"geometry":{"x":184146.21681000013,"y":2558061.2181240022}},{"attributes":{"ID":331593,"DIS_CODE":0,"TOWNNAME":"關廟區","LI":"松腳里","LIN":"2鄰","STREET":"松柏街","SECT":" ","MAREA":" ","LANE":"３８巷","ALLEY":" ","HOUSE_NO":"１６號","E_COORD97":181959.386145,"N_COORD97":2539748.4434500001,"ADDRESS":"松柏街３８巷１６號","OBJECTID":331584},"geometry":{"x":181959.38614500128,"y":2539748.4434459992}},{"attributes":{"ID":331594,"DIS_CODE":0,"TOWNNAME":"新市區","LI":"新和里","LIN":"8鄰","STREET":"仁愛街","SECT":" ","MAREA":" ","LANE":" ","ALLEY":" ","HOUSE_NO":"７２號","E_COORD97":177530.34538300001,"N_COORD97":2552400.7364400001,"ADDRESS":"仁愛街７２號","OBJECTID":331585},"geometry":{"x":177530.34538299963,"y":2552400.736444002}},{"attributes":{"ID":331595,"DIS_CODE":0,"TOWNNAME":"關廟區","LI":"龜洞里","LIN":"1鄰","STREET":"南雄南路","SECT":" ","MAREA":" ","LANE":" ","ALLEY":" ","HOUSE_NO":"６５０號","E_COORD97":183399.052402,"N_COORD97":2533654.5040199999,"ADDRESS":"南雄南路６５０號","OBJECTID":331586},"geometry":{"x":183399.05240200087,"y":2533654.5040220004}},{"attributes":{"ID":331596,"DIS_CODE":0,"TOWNNAME":"新市區","LI":"港墘里","LIN":"15鄰","STREET":"光華街","SECT":" ","MAREA":" ","LANE":" ","ALLEY":" ","HOUSE_NO":"１６號","E_COORD97":178086.04401099999,"N_COORD97":2552503.64334,"ADDRESS":"光華街１６號","OBJECTID":331587},"geometry":{"x":178086.04401100148,"y":2552503.6433370039}},{"attributes":{"ID":331597,"DIS_CODE":0,"TOWNNAME":"永康區","LI":"東橋里","LIN":"15鄰","STREET":"中山南路","SECT":" ","MAREA":" ","LANE":"３４７巷","ALLEY":" ","HOUSE_NO":"３３號","E_COORD97":171885.92000000001,"N_COORD97":2546496.1899999999,"ADDRESS":"中山南路３４７巷３３號","OBJECTID":331588},"geometry":{"x":171885.92000000086,"y":2546496.1899999995}},{"attributes":{"ID":331598,"DIS_CODE":0,"TOWNNAME":"永康區","LI":"東灣里","LIN":"15鄰","STREET":"民族路","SECT":" ","MAREA":" ","LANE":"２７３巷","ALLEY":" ","HOUSE_NO":"１８號","E_COORD97":175074.92999999999,"N_COORD97":2545032.79,"ADDRESS":"民族路２７３巷１８號","OBJECTID":331589},"geometry":{"x":175074.9299999997,"y":2545032.790000001}},{"attributes":{"ID":331599,"DIS_CODE":0,"TOWNNAME":"永康區","LI":"東橋里","LIN":"15鄰","STREET":"中山南路","SECT":" ","MAREA":" ","LANE":"３４７巷","ALLEY":" ","HOUSE_NO":"１９號","E_COORD97":171942.47,"N_COORD97":2546472.6499999999,"ADDRESS":"中山南路３４７巷１９號","OBJECTID":331590},"geometry":{"x":171942.46999999974,"y":2546472.6500000022}},{"attributes":{"ID":331600,"DIS_CODE":0,"TOWNNAME":"永康區","LI":"東灣里","LIN":"15鄰","STREET":"民族路","SECT":" ","MAREA":" ","LANE":"２７３巷","ALLEY":" ","HOUSE_NO":"１６號","E_COORD97":175078.01999999999,"N_COORD97":2545035.54,"ADDRESS":"民族路２７３巷１６號","OBJECTID":331591},"geometry":{"x":175078.01999999955,"y":2545035.5399999991}},{"attributes":{"ID":331601,"DIS_CODE":0,"TOWNNAME":"南區","LI":"府南里","LIN":"15鄰","STREET":"金華路","SECT":"一段","MAREA":" ","LANE":"５３０巷","ALLEY":" ","HOUSE_NO":"１３號","E_COORD97":167107.35000000001,"N_COORD97":2541654.77,"ADDRESS":"金華路一段５３０巷１３號","OBJECTID":331592},"geometry":{"x":167107.35000000056,"y":2541654.7699999996}},{"attributes":{"ID":331602,"DIS_CODE":0,"TOWNNAME":"南區","LI":"府南里","LIN":"15鄰","STREET":"金華路","SECT":"一段","MAREA":" ","LANE":"５３０巷","ALLEY":" ","HOUSE_NO":"１５號","E_COORD97":167104.57999999999,"N_COORD97":2541643,"ADDRESS":"金華路一段５３０巷１５號","OBJECTID":331593},"geometry":{"x":167104.58000000101,"y":2541643}},{"attributes":{"ID":331603,"DIS_CODE":0,"TOWNNAME":"南區","LI":"府南里","LIN":"15鄰","STREET":"金華路","SECT":"一段","MAREA":" ","LANE":"５３０巷","ALLEY":" ","HOUSE_NO":"１７號","E_COORD97":167108.45999999999,"N_COORD97":2541641.98,"ADDRESS":"金華路一段５３０巷１７號","OBJECTID":331594},"geometry":{"x":167108.46000000089,"y":2541641.9800000023}},{"attributes":{"ID":331604,"DIS_CODE":0,"TOWNNAME":"南區","LI":"府南里","LIN":"15鄰","STREET":"金華路","SECT":"一段","MAREA":" ","LANE":"５３０巷","ALLEY":" ","HOUSE_NO":"３號","E_COORD97":167086.39999999999,"N_COORD97":2541646.48,"ADDRESS":"金華路一段５３０巷３號","OBJECTID":331595},"geometry":{"x":167086.40000000037,"y":2541646.4800000023}},{"attributes":{"ID":331605,"DIS_CODE":0,"TOWNNAME":"南區","LI":"府南里","LIN":"15鄰","STREET":"金華路","SECT":"一段","MAREA":" ","LANE":"５３０巷","ALLEY":" ","HOUSE_NO":"５號","E_COORD97":167091.62,"N_COORD97":2541645.6099999999,"ADDRESS":"金華路一段５３０巷５號","OBJECTID":331596},"geometry":{"x":167091.62000000011,"y":2541645.6099999994}},{"attributes":{"ID":331606,"DIS_CODE":0,"TOWNNAME":"南區","LI":"府南里","LIN":"15鄰","STREET":"金華路","SECT":"一段","MAREA":" ","LANE":"５３０巷","ALLEY":" ","HOUSE_NO":"７號","E_COORD97":167094.14999999999,"N_COORD97":2541657.3799999999,"ADDRESS":"金華路一段５３０巷７號","OBJECTID":331597},"geometry":{"x":167094.1500000013,"y":2541657.3800000027}},{"attributes":{"ID":331607,"DIS_CODE":0,"TOWNNAME":"南區","LI":"府南里","LIN":"15鄰","STREET":"金華路","SECT":"一段","MAREA":" ","LANE":"５３０巷","ALLEY":" ","HOUSE_NO":"９號","E_COORD97":167095.81,"N_COORD97":2541661.2799999998,"ADDRESS":"金華路一段５３０巷９號","OBJECTID":331598},"geometry":{"x":167095.81000000052,"y":2541661.2799999993}},{"attributes":{"ID":331608,"DIS_CODE":0,"TOWNNAME":"南區","LI":"府南里","LIN":"15鄰","STREET":"金華路","SECT":"一段","MAREA":" ","LANE":"５４０巷","ALLEY":" ","HOUSE_NO":"１１號","E_COORD97":167095.54000000001,"N_COORD97":2541674.8799999999,"ADDRESS":"金華路一段５４０巷１１號","OBJECTID":331599},"geometry":{"x":167095.54000000004,"y":2541674.8800000008}},{"attributes":{"ID":331609,"DIS_CODE":0,"TOWNNAME":"南區","LI":"府南里","LIN":"15鄰","STREET":"金華路","SECT":"一段","MAREA":" ","LANE":"５４０巷","ALLEY":" ","HOUSE_NO":"１３號","E_COORD97":167100.29000000001,"N_COORD97":2541674.0099999998,"ADDRESS":"金華路一段５４０巷１３號","OBJECTID":331600},"geometry":{"x":167100.29000000004,"y":2541674.0099999998}}]}