{"displayFieldName":"TOWNNAME","fieldAliases":{"ID":"ID","DIS_CODE":"DIS_CODE","TOWNNAME":"TOWNNAME","LI":"LI","LIN":"LIN","STREET":"STREET","SECT":"SECT","MAREA":"MAREA","LANE":"LANE","ALLEY":"ALLEY","HOUSE_NO":"HOUSE_NO","E_COORD97":"E_COORD97","N_COORD97":"N_COORD97","ADDRESS":"ADDRESS","OBJECTID":"OBJECTID"},"geometryType":"esriGeometryPoint","spatialReference":{"wkid":102443,"latestWkid":3826},"fields":[{"name":"ID","type":"esriFieldTypeDouble","alias":"ID"},{"name":"DIS_CODE","type":"esriFieldTypeInteger","alias":"DIS_CODE"},{"name":"TOWNNAME","type":"esriFieldTypeString","alias":"TOWNNAME","length":8},{"name":"LI","type":"esriFieldTypeString","alias":"LI","length":8},{"name":"LIN","type":"esriFieldTypeString","alias":"LIN","length":12},{"name":"STREET","type":"esriFieldTypeString","alias":"STREET","length":20},{"name":"SECT","type":"esriFieldTypeString","alias":"SECT","length":8},{"name":"MAREA","type":"esriFieldTypeString","alias":"MAREA","length":12},{"name":"LANE","type":"esriFieldTypeString","alias":"LANE","length":10},{"name":"ALLEY","type":"esriFieldTypeString","alias":"ALLEY","length":10},{"name":"HOUSE_NO","type":"esriFieldTypeString","alias":"HOUSE_NO","length":20},{"name":"E_COORD97","type":"esriFieldTypeDouble","alias":"E_COORD97"},{"name":"N_COORD97","type":"esriFieldTypeDouble","alias":"N_COORD97"},{"name":"ADDRESS","type":"esriFieldTypeString","alias":"ADDRESS","length":50},{"name":"OBJECTID","type":"esriFieldTypeOID","alias":"OBJECTID"}],"features":[{"attributes":{"ID":572028,"DIS_CODE":0,"TOWNNAME":"東區","LI":"忠孝里","LIN":"20鄰","STREET":"崇明路","SECT":" ","MAREA":" ","LANE":" ","ALLEY":" ","HOUSE_NO":"２８８號","E_COORD97":169985.51000000001,"N_COORD97":2542047.2999999998,"ADDRESS":"崇明路２８８號","OBJECTID":572001},"geometry":{"x":169985.50999999978,"y":2542047.3000000026}},{"attributes":{"ID":572029,"DIS_CODE":0,"TOWNNAME":"東區","LI":"中西里","LIN":"15鄰","STREET":"長榮路","SECT":"二段","MAREA":" ","LANE":" ","ALLEY":" ","HOUSE_NO":"３９號","E_COORD97":170018.98999999999,"N_COORD97":2543348.48,"ADDRESS":"長榮路二段３９號","OBJECTID":572002},"geometry":{"x":170018.99000000209,"y":2543348.4800000004}},{"attributes":{"ID":572030,"DIS_CODE":0,"TOWNNAME":"東區","LI":"關聖里","LIN":"6鄰","STREET":"富農街","SECT":"二段","MAREA":" ","LANE":" ","ALLEY":" ","HOUSE_NO":"２８號","E_COORD97":171647.48000000001,"N_COORD97":2542927.7200000002,"ADDRESS":"富農街二段２８號","OBJECTID":572003},"geometry":{"x":171647.48000000138,"y":2542927.7200000007}},{"attributes":{"ID":572031,"DIS_CODE":0,"TOWNNAME":"東區","LI":"富強里","LIN":"10鄰","STREET":"中華東路","SECT":"二段","MAREA":" ","LANE":" ","ALLEY":" ","HOUSE_NO":"１８２號","E_COORD97":171149.03,"N_COORD97":2542646.9700000002,"ADDRESS":"中華東路二段１８２號","OBJECTID":572004},"geometry":{"x":171149.03000000026,"y":2542646.9700000025}},{"attributes":{"ID":572032,"DIS_CODE":0,"TOWNNAME":"永康區","LI":"大橋里","LIN":"29鄰","STREET":"大橋一街","SECT":" ","MAREA":" ","LANE":" ","ALLEY":" ","HOUSE_NO":"２３６號","E_COORD97":171041.16,"N_COORD97":2546474.4900000002,"ADDRESS":"大橋一街２３６號","OBJECTID":572005},"geometry":{"x":171041.16000000015,"y":2546474.4900000002}},{"attributes":{"ID":572033,"DIS_CODE":0,"TOWNNAME":"永康區","LI":"大橋里","LIN":"29鄰","STREET":"大橋一街","SECT":" ","MAREA":" ","LANE":" ","ALLEY":" ","HOUSE_NO":"２５８號","E_COORD97":171097.13,"N_COORD97":2546518.3700000001,"ADDRESS":"大橋一街２５８號","OBJECTID":572006},"geometry":{"x":171097.12999999989,"y":2546518.3700000048}},{"attributes":{"ID":572034,"DIS_CODE":0,"TOWNNAME":"永康區","LI":"大灣里","LIN":"29鄰","STREET":"文賢街","SECT":" ","MAREA":" ","LANE":" ","ALLEY":" ","HOUSE_NO":"２２號","E_COORD97":175284.91,"N_COORD97":2544958.1899999999,"ADDRESS":"文賢街２２號","OBJECTID":572007},"geometry":{"x":175284.91000000108,"y":2544958.1900000032}},{"attributes":{"ID":572035,"DIS_CODE":0,"TOWNNAME":"永康區","LI":"大灣里","LIN":"29鄰","STREET":"文賢街","SECT":" ","MAREA":" ","LANE":" ","ALLEY":" ","HOUSE_NO":"２３號","E_COORD97":175272.03,"N_COORD97":2544972.4399999999,"ADDRESS":"文賢街２３號","OBJECTID":572008},"geometry":{"x":175272.02999999933,"y":2544972.4399999995}},{"attributes":{"ID":572036,"DIS_CODE":0,"TOWNNAME":"永康區","LI":"大灣里","LIN":"29鄰","STREET":"文賢街","SECT":" ","MAREA":" ","LANE":" ","ALLEY":" ","HOUSE_NO":"１６號","E_COORD97":175273.26999999999,"N_COORD97":2544941.1800000002,"ADDRESS":"文賢街１６號","OBJECTID":572009},"geometry":{"x":175273.27000000142,"y":2544941.1799999997}},{"attributes":{"ID":572037,"DIS_CODE":0,"TOWNNAME":"東區","LI":"中西里","LIN":"3鄰","STREET":"勝利路","SECT":" ","MAREA":" ","LANE":" ","ALLEY":" ","HOUSE_NO":"８號之４","E_COORD97":169802.37,"N_COORD97":2543113.6699999999,"ADDRESS":"勝利路８號之４","OBJECTID":572010},"geometry":{"x":169802.37000000011,"y":2543113.6699999999}},{"attributes":{"ID":572038,"DIS_CODE":0,"TOWNNAME":"東區","LI":"中西里","LIN":"3鄰","STREET":"勝利路","SECT":" ","MAREA":" ","LANE":" ","ALLEY":" ","HOUSE_NO":"８號之５","E_COORD97":169817.85000000001,"N_COORD97":2543125.25,"ADDRESS":"勝利路８號之５","OBJECTID":572011},"geometry":{"x":169817.85000000056,"y":2543125.2500000019}},{"attributes":{"ID":572039,"DIS_CODE":0,"TOWNNAME":"東區","LI":"中西里","LIN":"3鄰","STREET":"勝利路","SECT":" ","MAREA":" ","LANE":" ","ALLEY":" ","HOUSE_NO":"８號之６","E_COORD97":169825.64999999999,"N_COORD97":2543122.7000000002,"ADDRESS":"勝利路８號之６","OBJECTID":572012},"geometry":{"x":169825.6500000013,"y":2543122.6999999993}},{"attributes":{"ID":572040,"DIS_CODE":0,"TOWNNAME":"東區","LI":"小東里","LIN":"29鄰","STREET":"東和路","SECT":" ","MAREA":" ","LANE":" ","ALLEY":" ","HOUSE_NO":"１００號","E_COORD97":170756.13,"N_COORD97":2544331.6899999999,"ADDRESS":"東和路１００號","OBJECTID":572013},"geometry":{"x":170756.12999999989,"y":2544331.6900000013}},{"attributes":{"ID":572041,"DIS_CODE":0,"TOWNNAME":"東區","LI":"小東里","LIN":"29鄰","STREET":"東和路","SECT":" ","MAREA":" ","LANE":" ","ALLEY":" ","HOUSE_NO":"１０２號","E_COORD97":170751.79999999999,"N_COORD97":2544331.6899999999,"ADDRESS":"東和路１０２號","OBJECTID":572014},"geometry":{"x":170751.79999999981,"y":2544331.6900000013}},{"attributes":{"ID":572042,"DIS_CODE":0,"TOWNNAME":"東區","LI":"小東里","LIN":"29鄰","STREET":"東和路","SECT":" ","MAREA":" ","LANE":" ","ALLEY":" ","HOUSE_NO":"１１８號","E_COORD97":170704.03,"N_COORD97":2544334.0099999998,"ADDRESS":"東和路１１８號","OBJECTID":572015},"geometry":{"x":170704.03000000119,"y":2544334.0100000016}},{"attributes":{"ID":572043,"DIS_CODE":0,"TOWNNAME":"東區","LI":"小東里","LIN":"29鄰","STREET":"東和路","SECT":" ","MAREA":" ","LANE":" ","ALLEY":" ","HOUSE_NO":"１２２號","E_COORD97":170692.73000000001,"N_COORD97":2544333.0899999999,"ADDRESS":"東和路１２２號","OBJECTID":572016},"geometry":{"x":170692.73000000138,"y":2544333.0900000017}},{"attributes":{"ID":572044,"DIS_CODE":0,"TOWNNAME":"東區","LI":"小東里","LIN":"29鄰","STREET":"東和路","SECT":" ","MAREA":" ","LANE":" ","ALLEY":" ","HOUSE_NO":"１２４號","E_COORD97":170688.09,"N_COORD97":2544333.2400000002,"ADDRESS":"東和路１２４號","OBJECTID":572017},"geometry":{"x":170688.09000000078,"y":2544333.2400000002}},{"attributes":{"ID":572045,"DIS_CODE":0,"TOWNNAME":"東區","LI":"小東里","LIN":"29鄰","STREET":"東和路","SECT":" ","MAREA":" ","LANE":" ","ALLEY":" ","HOUSE_NO":"１２６號","E_COORD97":170683.91,"N_COORD97":2544333.2400000002,"ADDRESS":"東和路１２６號","OBJECTID":572018},"geometry":{"x":170683.91000000201,"y":2544333.2400000002}},{"attributes":{"ID":572046,"DIS_CODE":0,"TOWNNAME":"東區","LI":"小東里","LIN":"29鄰","STREET":"東和路","SECT":" ","MAREA":" ","LANE":" ","ALLEY":" ","HOUSE_NO":"１２８號","E_COORD97":170679.26000000001,"N_COORD97":2544333.3999999999,"ADDRESS":"東和路１２８號","OBJECTID":572019},"geometry":{"x":170679.25999999978,"y":2544333.4000000004}},{"attributes":{"ID":572047,"DIS_CODE":0,"TOWNNAME":"東區","LI":"小東里","LIN":"29鄰","STREET":"東和路","SECT":" ","MAREA":" ","LANE":" ","ALLEY":" ","HOUSE_NO":"１３０號","E_COORD97":170673.17000000001,"N_COORD97":2544332.7000000002,"ADDRESS":"東和路１３０號","OBJECTID":572020},"geometry":{"x":170673.16999999993,"y":2544332.6999999993}},{"attributes":{"ID":572048,"DIS_CODE":0,"TOWNNAME":"東區","LI":"小東里","LIN":"29鄰","STREET":"東和路","SECT":" ","MAREA":" ","LANE":" ","ALLEY":" ","HOUSE_NO":"１３２號","E_COORD97":170668.29999999999,"N_COORD97":2544332.7000000002,"ADDRESS":"東和路１３２號","OBJECTID":572021},"geometry":{"x":170668.29999999981,"y":2544332.6999999993}},{"attributes":{"ID":572049,"DIS_CODE":0,"TOWNNAME":"東區","LI":"小東里","LIN":"29鄰","STREET":"東和路","SECT":" ","MAREA":" ","LANE":" ","ALLEY":" ","HOUSE_NO":"１３４號","E_COORD97":170663.73000000001,"N_COORD97":2544332.8500000001,"ADDRESS":"東和路１３４號","OBJECTID":572022},"geometry":{"x":170663.73000000138,"y":2544332.8499999996}},{"attributes":{"ID":572050,"DIS_CODE":0,"TOWNNAME":"東區","LI":"小東里","LIN":"29鄰","STREET":"東和路","SECT":" ","MAREA":" ","LANE":" ","ALLEY":" ","HOUSE_NO":"１３６號","E_COORD97":170659.39999999999,"N_COORD97":2544332.7799999998,"ADDRESS":"東和路１３６號","OBJECTID":572023},"geometry":{"x":170659.4000000013,"y":2544332.7799999993}},{"attributes":{"ID":572051,"DIS_CODE":0,"TOWNNAME":"東區","LI":"小東里","LIN":"29鄰","STREET":"東和路","SECT":" ","MAREA":" ","LANE":" ","ALLEY":" ","HOUSE_NO":"１３８號","E_COORD97":170652.53,"N_COORD97":2544333.6400000001,"ADDRESS":"東和路１３８號","OBJECTID":572024},"geometry":{"x":170652.53000000026,"y":2544333.6400000025}},{"attributes":{"ID":572052,"DIS_CODE":0,"TOWNNAME":"東區","LI":"小東里","LIN":"29鄰","STREET":"東和路","SECT":" ","MAREA":" ","LANE":" ","ALLEY":" ","HOUSE_NO":"５６號","E_COORD97":170869.67000000001,"N_COORD97":2544335.9100000001,"ADDRESS":"東和路５６號","OBJECTID":572025},"geometry":{"x":170869.66999999993,"y":2544335.9100000001}},{"attributes":{"ID":572053,"DIS_CODE":0,"TOWNNAME":"東區","LI":"小東里","LIN":"29鄰","STREET":"東和路","SECT":" ","MAREA":" ","LANE":" ","ALLEY":" ","HOUSE_NO":"５８號","E_COORD97":170848.75,"N_COORD97":2544336.8700000001,"ADDRESS":"東和路５８號","OBJECTID":572026},"geometry":{"x":170848.75,"y":2544336.870000001}},{"attributes":{"ID":572054,"DIS_CODE":0,"TOWNNAME":"東區","LI":"小東里","LIN":"29鄰","STREET":"東和路","SECT":" ","MAREA":" ","LANE":" ","ALLEY":" ","HOUSE_NO":"６０號","E_COORD97":170844.29999999999,"N_COORD97":2544336.5800000001,"ADDRESS":"東和路６０號","OBJECTID":572027},"geometry":{"x":170844.30000000075,"y":2544336.5800000019}},{"attributes":{"ID":572055,"DIS_CODE":0,"TOWNNAME":"東區","LI":"小東里","LIN":"29鄰","STREET":"東和路","SECT":" ","MAREA":" ","LANE":" ","ALLEY":" ","HOUSE_NO":"６４號","E_COORD97":170836.29000000001,"N_COORD97":2544336.0800000001,"ADDRESS":"東和路６４號","OBJECTID":572028},"geometry":{"x":170836.29000000097,"y":2544336.0800000019}},{"attributes":{"ID":572056,"DIS_CODE":0,"TOWNNAME":"東區","LI":"小東里","LIN":"29鄰","STREET":"東和路","SECT":" ","MAREA":" ","LANE":" ","ALLEY":" ","HOUSE_NO":"６６號","E_COORD97":170832.60999999999,"N_COORD97":2544336.0800000001,"ADDRESS":"東和路６６號","OBJECTID":572029},"geometry":{"x":170832.61000000127,"y":2544336.0800000019}},{"attributes":{"ID":572057,"DIS_CODE":0,"TOWNNAME":"東區","LI":"小東里","LIN":"29鄰","STREET":"東和路","SECT":" ","MAREA":" ","LANE":" ","ALLEY":" ","HOUSE_NO":"６８號","E_COORD97":170828.44,"N_COORD97":2544335.5800000001,"ADDRESS":"東和路６８號","OBJECTID":572030},"geometry":{"x":170828.44000000134,"y":2544335.5800000038}},{"attributes":{"ID":572058,"DIS_CODE":0,"TOWNNAME":"東區","LI":"小東里","LIN":"29鄰","STREET":"東和路","SECT":" ","MAREA":" ","LANE":" ","ALLEY":" ","HOUSE_NO":"７４號","E_COORD97":170816.45999999999,"N_COORD97":2544331.77,"ADDRESS":"東和路７４號","OBJECTID":572031},"geometry":{"x":170816.46000000089,"y":2544331.7700000014}},{"attributes":{"ID":572059,"DIS_CODE":0,"TOWNNAME":"東區","LI":"小東里","LIN":"29鄰","STREET":"東和路","SECT":" ","MAREA":" ","LANE":" ","ALLEY":" ","HOUSE_NO":"９０號","E_COORD97":170775.32000000001,"N_COORD97":2544331.6899999999,"ADDRESS":"東和路９０號","OBJECTID":572032},"geometry":{"x":170775.32000000123,"y":2544331.6900000013}},{"attributes":{"ID":572060,"DIS_CODE":0,"TOWNNAME":"東區","LI":"小東里","LIN":"29鄰","STREET":"東和路","SECT":" ","MAREA":" ","LANE":" ","ALLEY":" ","HOUSE_NO":"９２號","E_COORD97":170771.53,"N_COORD97":2544331.77,"ADDRESS":"東和路９２號","OBJECTID":572033},"geometry":{"x":170771.53000000212,"y":2544331.7700000014}},{"attributes":{"ID":572061,"DIS_CODE":0,"TOWNNAME":"東區","LI":"小東里","LIN":"29鄰","STREET":"東和路","SECT":" ","MAREA":" ","LANE":" ","ALLEY":" ","HOUSE_NO":"９４號","E_COORD97":170767.97,"N_COORD97":2544331.77,"ADDRESS":"東和路９４號","OBJECTID":572034},"geometry":{"x":170767.9700000016,"y":2544331.7700000014}},{"attributes":{"ID":572062,"DIS_CODE":0,"TOWNNAME":"東區","LI":"小東里","LIN":"29鄰","STREET":"東和路","SECT":" ","MAREA":" ","LANE":" ","ALLEY":" ","HOUSE_NO":"９６號","E_COORD97":170764.01999999999,"N_COORD97":2544331.6899999999,"ADDRESS":"東和路９６號","OBJECTID":572035},"geometry":{"x":170764.02000000142,"y":2544331.6900000013}},{"attributes":{"ID":572063,"DIS_CODE":0,"TOWNNAME":"東區","LI":"小東里","LIN":"29鄰","STREET":"東和路","SECT":" ","MAREA":" ","LANE":" ","ALLEY":" ","HOUSE_NO":"９８號","E_COORD97":170759.84,"N_COORD97":2544331.6899999999,"ADDRESS":"東和路９８號","OBJECTID":572036},"geometry":{"x":170759.83999999985,"y":2544331.6900000013}},{"attributes":{"ID":572064,"DIS_CODE":0,"TOWNNAME":"東區","LI":"小東里","LIN":"29鄰","STREET":"東和路","SECT":" ","MAREA":" ","LANE":" ","ALLEY":" ","HOUSE_NO":"１１６號","E_COORD97":170710.37,"N_COORD97":2544333.7799999998,"ADDRESS":"東和路１１６號","OBJECTID":572037},"geometry":{"x":170710.37000000104,"y":2544333.7800000031}},{"attributes":{"ID":572065,"DIS_CODE":0,"TOWNNAME":"東區","LI":"小東里","LIN":"29鄰","STREET":"東和路","SECT":" ","MAREA":" ","LANE":" ","ALLEY":" ","HOUSE_NO":"７０號","E_COORD97":170824.42999999999,"N_COORD97":2544331.77,"ADDRESS":"東和路７０號","OBJECTID":572038},"geometry":{"x":170824.43000000063,"y":2544331.7700000014}},{"attributes":{"ID":572066,"DIS_CODE":0,"TOWNNAME":"東區","LI":"小東里","LIN":"29鄰","STREET":"東和路","SECT":" ","MAREA":" ","LANE":" ","ALLEY":" ","HOUSE_NO":"７２號","E_COORD97":170820.32999999999,"N_COORD97":2544331.77,"ADDRESS":"東和路７２號","OBJECTID":572039},"geometry":{"x":170820.33000000101,"y":2544331.7700000014}},{"attributes":{"ID":572067,"DIS_CODE":0,"TOWNNAME":"東區","LI":"小東里","LIN":"29鄰","STREET":"東和路","SECT":" ","MAREA":" ","LANE":" ","ALLEY":" ","HOUSE_NO":"８８號","E_COORD97":170780.19,"N_COORD97":2544331.6899999999,"ADDRESS":"東和路８８號","OBJECTID":572040},"geometry":{"x":170780.19000000041,"y":2544331.6900000013}},{"attributes":{"ID":572068,"DIS_CODE":0,"TOWNNAME":"善化區","LI":"光文里","LIN":"29鄰","STREET":"中正路","SECT":" ","MAREA":" ","LANE":" ","ALLEY":" ","HOUSE_NO":"５０２號","E_COORD97":177687.73000000001,"N_COORD97":2559144.4500000002,"ADDRESS":"中正路５０２號","OBJECTID":572041},"geometry":{"x":177687.73000000045,"y":2559144.4499999993}},{"attributes":{"ID":572069,"DIS_CODE":0,"TOWNNAME":"永康區","LI":"大橋里","LIN":"29鄰","STREET":"大橋一街","SECT":" ","MAREA":" ","LANE":" ","ALLEY":" ","HOUSE_NO":"２４２號","E_COORD97":171051.70999999999,"N_COORD97":2546490.9900000002,"ADDRESS":"大橋一街２４２號","OBJECTID":572042},"geometry":{"x":171051.71000000089,"y":2546490.9900000021}},{"attributes":{"ID":572070,"DIS_CODE":0,"TOWNNAME":"東區","LI":"新東里","LIN":"13鄰","STREET":"裕農路","SECT":" ","MAREA":" ","LANE":" ","ALLEY":" ","HOUSE_NO":"３３號","E_COORD97":170618.42999999999,"N_COORD97":2542893.2400000002,"ADDRESS":"裕農路３３號","OBJECTID":572043},"geometry":{"x":170618.4299999997,"y":2542893.2400000002}},{"attributes":{"ID":572071,"DIS_CODE":0,"TOWNNAME":"善化區","LI":"光文里","LIN":"29鄰","STREET":"中正路","SECT":" ","MAREA":" ","LANE":" ","ALLEY":" ","HOUSE_NO":"４８８號","E_COORD97":177694.57000000001,"N_COORD97":2559117.6000000001,"ADDRESS":"中正路４８８號","OBJECTID":572044},"geometry":{"x":177694.57000000123,"y":2559117.6000000015}},{"attributes":{"ID":572072,"DIS_CODE":0,"TOWNNAME":"善化區","LI":"光文里","LIN":"29鄰","STREET":"中正路","SECT":" ","MAREA":" ","LANE":" ","ALLEY":" ","HOUSE_NO":"４９０號","E_COORD97":177689.54999999999,"N_COORD97":2559122.5,"ADDRESS":"中正路４９０號","OBJECTID":572045},"geometry":{"x":177689.55000000075,"y":2559122.5000000019}},{"attributes":{"ID":572073,"DIS_CODE":0,"TOWNNAME":"善化區","LI":"光文里","LIN":"29鄰","STREET":"中正路","SECT":" ","MAREA":" ","LANE":" ","ALLEY":" ","HOUSE_NO":"４９２號","E_COORD97":177689.19,"N_COORD97":2559126.8900000001,"ADDRESS":"中正路４９２號","OBJECTID":572046},"geometry":{"x":177689.19000000134,"y":2559126.8900000025}},{"attributes":{"ID":572074,"DIS_CODE":0,"TOWNNAME":"善化區","LI":"光文里","LIN":"29鄰","STREET":"中正路","SECT":" ","MAREA":" ","LANE":" ","ALLEY":" ","HOUSE_NO":"４９６號","E_COORD97":177688.82000000001,"N_COORD97":2559131.2799999998,"ADDRESS":"中正路４９６號","OBJECTID":572047},"geometry":{"x":177688.8200000003,"y":2559131.2799999993}},{"attributes":{"ID":572075,"DIS_CODE":0,"TOWNNAME":"善化區","LI":"光文里","LIN":"29鄰","STREET":"中正路","SECT":" ","MAREA":" ","LANE":" ","ALLEY":" ","HOUSE_NO":"５００號","E_COORD97":177688.09,"N_COORD97":2559140.0600000001,"ADDRESS":"中正路５００號","OBJECTID":572048},"geometry":{"x":177688.08999999985,"y":2559140.0600000024}},{"attributes":{"ID":572076,"DIS_CODE":0,"TOWNNAME":"善化區","LI":"光文里","LIN":"29鄰","STREET":"中正路","SECT":" ","MAREA":" ","LANE":" ","ALLEY":" ","HOUSE_NO":"５０６號","E_COORD97":177688.48999999999,"N_COORD97":2559153.52,"ADDRESS":"中正路５０６號","OBJECTID":572049},"geometry":{"x":177688.49000000115,"y":2559153.5199999996}},{"attributes":{"ID":572077,"DIS_CODE":0,"TOWNNAME":"善化區","LI":"光文里","LIN":"29鄰","STREET":"建國路","SECT":" ","MAREA":" ","LANE":" ","ALLEY":" ","HOUSE_NO":"３８６號","E_COORD97":177680.52554,"N_COORD97":2559360.9830399998,"ADDRESS":"建國路３８６號","OBJECTID":572050},"geometry":{"x":177680.52554000169,"y":2559360.9830400031}},{"attributes":{"ID":572078,"DIS_CODE":0,"TOWNNAME":"善化區","LI":"光文里","LIN":"29鄰","STREET":"建國路","SECT":" ","MAREA":" ","LANE":" ","ALLEY":" ","HOUSE_NO":"３１１號","E_COORD97":177784.85999999999,"N_COORD97":2559302.8100000001,"ADDRESS":"建國路３１１號","OBJECTID":572051},"geometry":{"x":177784.86000000034,"y":2559302.8100000005}},{"attributes":{"ID":572079,"DIS_CODE":0,"TOWNNAME":"善化區","LI":"光文里","LIN":"29鄰","STREET":"建國路","SECT":" ","MAREA":" ","LANE":" ","ALLEY":" ","HOUSE_NO":"３１３號","E_COORD97":177772.07000000001,"N_COORD97":2559299.0499999998,"ADDRESS":"建國路３１３號","OBJECTID":572052},"geometry":{"x":177772.0700000003,"y":2559299.0500000026}},{"attributes":{"ID":572080,"DIS_CODE":0,"TOWNNAME":"善化區","LI":"光文里","LIN":"29鄰","STREET":"建國路","SECT":" ","MAREA":" ","LANE":" ","ALLEY":" ","HOUSE_NO":"３１７號","E_COORD97":177757.06,"N_COORD97":2559307.0899999999,"ADDRESS":"建國路３１７號","OBJECTID":572053},"geometry":{"x":177757.06000000052,"y":2559307.089999998}},{"attributes":{"ID":572081,"DIS_CODE":0,"TOWNNAME":"善化區","LI":"光文里","LIN":"29鄰","STREET":"建國路","SECT":" ","MAREA":" ","LANE":" ","ALLEY":" ","HOUSE_NO":"３１９號","E_COORD97":177748.19,"N_COORD97":2559303.5099999998,"ADDRESS":"建國路３１９號","OBJECTID":572054},"geometry":{"x":177748.19000000134,"y":2559303.5099999998}},{"attributes":{"ID":572082,"DIS_CODE":0,"TOWNNAME":"善化區","LI":"光文里","LIN":"29鄰","STREET":"建國路","SECT":" ","MAREA":" ","LANE":" ","ALLEY":" ","HOUSE_NO":"３２１號","E_COORD97":177743.42999999999,"N_COORD97":2559309.6299999999,"ADDRESS":"建國路３２１號","OBJECTID":572055},"geometry":{"x":177743.4299999997,"y":2559309.6300000027}},{"attributes":{"ID":572083,"DIS_CODE":0,"TOWNNAME":"善化區","LI":"光文里","LIN":"29鄰","STREET":"建國路","SECT":" ","MAREA":" ","LANE":" ","ALLEY":" ","HOUSE_NO":"３２３號","E_COORD97":177736.16,"N_COORD97":2559311.9300000002,"ADDRESS":"建國路３２３號","OBJECTID":572056},"geometry":{"x":177736.16000000108,"y":2559311.9300000016}},{"attributes":{"ID":572084,"DIS_CODE":0,"TOWNNAME":"善化區","LI":"光文里","LIN":"29鄰","STREET":"建國路","SECT":" ","MAREA":" ","LANE":" ","ALLEY":" ","HOUSE_NO":"３２５號","E_COORD97":177728.26000000001,"N_COORD97":2559310.0600000001,"ADDRESS":"建國路３２５號","OBJECTID":572057},"geometry":{"x":177728.26000000071,"y":2559310.0600000005}},{"attributes":{"ID":572085,"DIS_CODE":0,"TOWNNAME":"善化區","LI":"光文里","LIN":"29鄰","STREET":"建國路","SECT":" ","MAREA":" ","LANE":" ","ALLEY":" ","HOUSE_NO":"３２７號","E_COORD97":177718.42999999999,"N_COORD97":2559305.7799999998,"ADDRESS":"建國路３２７號","OBJECTID":572058},"geometry":{"x":177718.43000000156,"y":2559305.7800000012}},{"attributes":{"ID":572086,"DIS_CODE":0,"TOWNNAME":"中西區","LI":"西湖里","LIN":"29鄰","STREET":"湖美街","SECT":" ","MAREA":" ","LANE":" ","ALLEY":" ","HOUSE_NO":"１００號","E_COORD97":165948.75,"N_COORD97":2544835.7999999998,"ADDRESS":"湖美街１００號","OBJECTID":572059},"geometry":{"x":165948.75000000093,"y":2544835.8000000007}},{"attributes":{"ID":572087,"DIS_CODE":0,"TOWNNAME":"中西區","LI":"西湖里","LIN":"29鄰","STREET":"湖美街","SECT":" ","MAREA":" ","LANE":" ","ALLEY":" ","HOUSE_NO":"１０２號","E_COORD97":165949.01000000001,"N_COORD97":2544839.27,"ADDRESS":"湖美街１０２號","OBJECTID":572060},"geometry":{"x":165949.01000000071,"y":2544839.2700000033}},{"attributes":{"ID":572088,"DIS_CODE":0,"TOWNNAME":"中西區","LI":"西湖里","LIN":"29鄰","STREET":"湖美街","SECT":" ","MAREA":" ","LANE":" ","ALLEY":" ","HOUSE_NO":"８６號","E_COORD97":165947.67999999999,"N_COORD97":2544806.9500000002,"ADDRESS":"湖美街８６號","OBJECTID":572061},"geometry":{"x":165947.68000000063,"y":2544806.950000003}},{"attributes":{"ID":572089,"DIS_CODE":0,"TOWNNAME":"中西區","LI":"西湖里","LIN":"29鄰","STREET":"湖美街","SECT":" ","MAREA":" ","LANE":" ","ALLEY":" ","HOUSE_NO":"８８號","E_COORD97":165948.20999999999,"N_COORD97":2544811.2200000002,"ADDRESS":"湖美街８８號","OBJECTID":572062},"geometry":{"x":165948.20999999996,"y":2544811.2200000025}},{"attributes":{"ID":572090,"DIS_CODE":0,"TOWNNAME":"中西區","LI":"西湖里","LIN":"29鄰","STREET":"湖美街","SECT":" ","MAREA":" ","LANE":" ","ALLEY":" ","HOUSE_NO":"９０號","E_COORD97":165948.48000000001,"N_COORD97":2544815.23,"ADDRESS":"湖美街９０號","OBJECTID":572063},"geometry":{"x":165948.48000000045,"y":2544815.2300000004}},{"attributes":{"ID":572091,"DIS_CODE":0,"TOWNNAME":"中西區","LI":"西湖里","LIN":"29鄰","STREET":"湖美街","SECT":" ","MAREA":" ","LANE":" ","ALLEY":" ","HOUSE_NO":"９２號","E_COORD97":165948.75,"N_COORD97":2544819.2400000002,"ADDRESS":"湖美街９２號","OBJECTID":572064},"geometry":{"x":165948.75000000093,"y":2544819.2400000002}},{"attributes":{"ID":572092,"DIS_CODE":0,"TOWNNAME":"中西區","LI":"西湖里","LIN":"29鄰","STREET":"湖美街","SECT":" ","MAREA":" ","LANE":" ","ALLEY":" ","HOUSE_NO":"９４號","E_COORD97":165948.75,"N_COORD97":2544822.98,"ADDRESS":"湖美街９４號","OBJECTID":572065},"geometry":{"x":165948.75000000093,"y":2544822.9800000023}},{"attributes":{"ID":572093,"DIS_CODE":0,"TOWNNAME":"中西區","LI":"西湖里","LIN":"29鄰","STREET":"湖美街","SECT":" ","MAREA":" ","LANE":" ","ALLEY":" ","HOUSE_NO":"９６號","E_COORD97":165949.28,"N_COORD97":2544826.98,"ADDRESS":"湖美街９６號","OBJECTID":572066},"geometry":{"x":165949.28000000119,"y":2544826.9800000004}},{"attributes":{"ID":572094,"DIS_CODE":0,"TOWNNAME":"中西區","LI":"西湖里","LIN":"29鄰","STREET":"湖美街","SECT":" ","MAREA":" ","LANE":" ","ALLEY":" ","HOUSE_NO":"９８號","E_COORD97":165949.01000000001,"N_COORD97":2544831.2599999998,"ADDRESS":"湖美街９８號","OBJECTID":572067},"geometry":{"x":165949.01000000071,"y":2544831.2599999998}},{"attributes":{"ID":572095,"DIS_CODE":0,"TOWNNAME":"新市區","LI":"新和里","LIN":"29鄰","STREET":"光華街","SECT":" ","MAREA":" ","LANE":" ","ALLEY":" ","HOUSE_NO":"１０９號","E_COORD97":177849.67999999999,"N_COORD97":2552912.5,"ADDRESS":"光華街１０９號","OBJECTID":572068},"geometry":{"x":177849.68000000063,"y":2552912.5}},{"attributes":{"ID":572096,"DIS_CODE":0,"TOWNNAME":"新市區","LI":"新和里","LIN":"29鄰","STREET":"光華街","SECT":" ","MAREA":" ","LANE":" ","ALLEY":" ","HOUSE_NO":"１１９號","E_COORD97":177844.48000000001,"N_COORD97":2552932,"ADDRESS":"光華街１１９號","OBJECTID":572069},"geometry":{"x":177844.48000000138,"y":2552932.0000000019}},{"attributes":{"ID":572097,"DIS_CODE":0,"TOWNNAME":"新市區","LI":"新和里","LIN":"29鄰","STREET":"光華街","SECT":" ","MAREA":" ","LANE":" ","ALLEY":" ","HOUSE_NO":"８９號","E_COORD97":177864.81,"N_COORD97":2552835.25,"ADDRESS":"光華街８９號","OBJECTID":572070},"geometry":{"x":177864.81000000145,"y":2552835.2500000019}},{"attributes":{"ID":572098,"DIS_CODE":0,"TOWNNAME":"新市區","LI":"新和里","LIN":"29鄰","STREET":"光華街","SECT":" ","MAREA":" ","LANE":" ","ALLEY":" ","HOUSE_NO":"１６６之１號","E_COORD97":177869.14999999999,"N_COORD97":2552910.7999999998,"ADDRESS":"光華街１６６之１號","OBJECTID":572071},"geometry":{"x":177869.1500000013,"y":2552910.8000000026}},{"attributes":{"ID":572099,"DIS_CODE":0,"TOWNNAME":"新市區","LI":"新和里","LIN":"29鄰","STREET":"光華街","SECT":" ","MAREA":" ","LANE":" ","ALLEY":" ","HOUSE_NO":"２２６號","E_COORD97":177831.67000000001,"N_COORD97":2553046.25,"ADDRESS":"光華街２２６號","OBJECTID":572072},"geometry":{"x":177831.66999999993,"y":2553046.25}},{"attributes":{"ID":572100,"DIS_CODE":0,"TOWNNAME":"新市區","LI":"新和里","LIN":"29鄰","STREET":"光華街","SECT":" ","MAREA":" ","LANE":" ","ALLEY":" ","HOUSE_NO":"１８６號","E_COORD97":177858.64999999999,"N_COORD97":2552951.75,"ADDRESS":"光華街１８６號","OBJECTID":572073},"geometry":{"x":177858.6500000013,"y":2552951.75}},{"attributes":{"ID":572101,"DIS_CODE":0,"TOWNNAME":"東區","LI":"大智里","LIN":"29鄰","STREET":"德東街","SECT":" ","MAREA":" ","LANE":" ","ALLEY":" ","HOUSE_NO":"２６６號","E_COORD97":171488.34,"N_COORD97":2540217.3100000001,"ADDRESS":"德東街２６６號","OBJECTID":572074},"geometry":{"x":171488.34000000078,"y":2540217.3100000005}},{"attributes":{"ID":572102,"DIS_CODE":0,"TOWNNAME":"東區","LI":"大智里","LIN":"29鄰","STREET":"德東街","SECT":" ","MAREA":" ","LANE":" ","ALLEY":" ","HOUSE_NO":"２５２號","E_COORD97":171463.54000000001,"N_COORD97":2540245.54,"ADDRESS":"德東街２５２號","OBJECTID":572075},"geometry":{"x":171463.54000000097,"y":2540245.5399999991}},{"attributes":{"ID":572103,"DIS_CODE":0,"TOWNNAME":"新市區","LI":"新和里","LIN":"29鄰","STREET":"光華街","SECT":" ","MAREA":" ","LANE":" ","ALLEY":" ","HOUSE_NO":"２１６號","E_COORD97":177837.20999999999,"N_COORD97":2553024.75,"ADDRESS":"光華街２１６號","OBJECTID":572076},"geometry":{"x":177837.21000000183,"y":2553024.7500000019}},{"attributes":{"ID":572104,"DIS_CODE":0,"TOWNNAME":"新市區","LI":"新和里","LIN":"29鄰","STREET":"光華街","SECT":" ","MAREA":" ","LANE":" ","ALLEY":" ","HOUSE_NO":"１３５號","E_COORD97":177835.84,"N_COORD97":2552964,"ADDRESS":"光華街１３５號","OBJECTID":572077},"geometry":{"x":177835.83999999985,"y":2552964}},{"attributes":{"ID":572105,"DIS_CODE":0,"TOWNNAME":"新市區","LI":"新和里","LIN":"29鄰","STREET":"光華街","SECT":" ","MAREA":" ","LANE":" ","ALLEY":" ","HOUSE_NO":"１２３號","E_COORD97":177842.34,"N_COORD97":2552939.75,"ADDRESS":"光華街１２３號","OBJECTID":572078},"geometry":{"x":177842.33999999985,"y":2552939.7500000019}},{"attributes":{"ID":572106,"DIS_CODE":0,"TOWNNAME":"新市區","LI":"新和里","LIN":"29鄰","STREET":"光華街","SECT":" ","MAREA":" ","LANE":" ","ALLEY":" ","HOUSE_NO":"１２９號","E_COORD97":177838.92999999999,"N_COORD97":2552952,"ADDRESS":"光華街１２９號","OBJECTID":572079},"geometry":{"x":177838.93000000063,"y":2552952.0000000019}},{"attributes":{"ID":572107,"DIS_CODE":0,"TOWNNAME":"新市區","LI":"新和里","LIN":"29鄰","STREET":"光華街","SECT":" ","MAREA":" ","LANE":" ","ALLEY":" ","HOUSE_NO":"９１號","E_COORD97":177863.57000000001,"N_COORD97":2552839.75,"ADDRESS":"光華街９１號","OBJECTID":572080},"geometry":{"x":177863.5700000003,"y":2552839.75}},{"attributes":{"ID":572108,"DIS_CODE":0,"TOWNNAME":"新市區","LI":"新和里","LIN":"29鄰","STREET":"光華街","SECT":" ","MAREA":" ","LANE":" ","ALLEY":" ","HOUSE_NO":"１２５號","E_COORD97":177840.76000000001,"N_COORD97":2552943.75,"ADDRESS":"光華街１２５號","OBJECTID":572081},"geometry":{"x":177840.76000000071,"y":2552943.7500000019}},{"attributes":{"ID":572109,"DIS_CODE":0,"TOWNNAME":"新市區","LI":"新和里","LIN":"29鄰","STREET":"光華街","SECT":" ","MAREA":" ","LANE":" ","ALLEY":" ","HOUSE_NO":"２０６號","E_COORD97":177842.67999999999,"N_COORD97":2553003.25,"ADDRESS":"光華街２０６號","OBJECTID":572082},"geometry":{"x":177842.68000000063,"y":2553003.25}},{"attributes":{"ID":572110,"DIS_CODE":0,"TOWNNAME":"新市區","LI":"新和里","LIN":"29鄰","STREET":"光華街","SECT":" ","MAREA":" ","LANE":" ","ALLEY":" ","HOUSE_NO":"１１７號","E_COORD97":177845.48000000001,"N_COORD97":2552928,"ADDRESS":"光華街１１７號","OBJECTID":572083},"geometry":{"x":177845.48000000045,"y":2552928.0000000019}},{"attributes":{"ID":572111,"DIS_CODE":0,"TOWNNAME":"新市區","LI":"新和里","LIN":"29鄰","STREET":"光華街","SECT":" ","MAREA":" ","LANE":" ","ALLEY":" ","HOUSE_NO":"１９２號","E_COORD97":177851.07000000001,"N_COORD97":2552974.75,"ADDRESS":"光華街１９２號","OBJECTID":572084},"geometry":{"x":177851.07000000123,"y":2552974.7500000019}},{"attributes":{"ID":572112,"DIS_CODE":0,"TOWNNAME":"永康區","LI":"大橋里","LIN":"29鄰","STREET":"大橋一街","SECT":" ","MAREA":" ","LANE":" ","ALLEY":" ","HOUSE_NO":"２５６號","E_COORD97":171092.91,"N_COORD97":2546515.3900000001,"ADDRESS":"大橋一街２５６號","OBJECTID":572085},"geometry":{"x":171092.91000000108,"y":2546515.3900000025}},{"attributes":{"ID":572113,"DIS_CODE":0,"TOWNNAME":"永康區","LI":"大橋里","LIN":"29鄰","STREET":"大橋一街","SECT":" ","MAREA":" ","LANE":" ","ALLEY":" ","HOUSE_NO":"２３８號","E_COORD97":171045.45999999999,"N_COORD97":2546476.9900000002,"ADDRESS":"大橋一街２３８號","OBJECTID":572086},"geometry":{"x":171045.45999999996,"y":2546476.9900000021}},{"attributes":{"ID":572114,"DIS_CODE":0,"TOWNNAME":"永康區","LI":"大灣里","LIN":"29鄰","STREET":"民族路","SECT":" ","MAREA":" ","LANE":" ","ALLEY":" ","HOUSE_NO":"１３６號","E_COORD97":175260.29000000001,"N_COORD97":2544908.8199999998,"ADDRESS":"民族路１３６號","OBJECTID":572087},"geometry":{"x":175260.29000000097,"y":2544908.8200000022}},{"attributes":{"ID":572115,"DIS_CODE":0,"TOWNNAME":"永康區","LI":"大灣里","LIN":"29鄰","STREET":"民族路","SECT":" ","MAREA":" ","LANE":" ","ALLEY":" ","HOUSE_NO":"１３０號","E_COORD97":175271.95000000001,"N_COORD97":2544898.4100000001,"ADDRESS":"民族路１３０號","OBJECTID":572088},"geometry":{"x":175271.95000000019,"y":2544898.4100000001}},{"attributes":{"ID":572116,"DIS_CODE":0,"TOWNNAME":"永康區","LI":"大灣里","LIN":"29鄰","STREET":"民族路","SECT":" ","MAREA":" ","LANE":" ","ALLEY":" ","HOUSE_NO":"１３８號","E_COORD97":175265.31,"N_COORD97":2544920.1299999999,"ADDRESS":"民族路１３８號","OBJECTID":572089},"geometry":{"x":175265.30999999959,"y":2544920.129999999}},{"attributes":{"ID":572117,"DIS_CODE":0,"TOWNNAME":"永康區","LI":"大橋里","LIN":"29鄰","STREET":"大橋一街","SECT":" ","MAREA":" ","LANE":" ","ALLEY":" ","HOUSE_NO":"２４８號","E_COORD97":171070.28,"N_COORD97":2546504.2400000002,"ADDRESS":"大橋一街２４８號","OBJECTID":572090},"geometry":{"x":171070.28000000119,"y":2546504.2400000002}},{"attributes":{"ID":572118,"DIS_CODE":0,"TOWNNAME":"永康區","LI":"崑山里","LIN":"29鄰","STREET":"大仁街","SECT":" ","MAREA":" ","LANE":" ","ALLEY":" ","HOUSE_NO":"１０９之１號","E_COORD97":173823.42000000001,"N_COORD97":2544810.6699999999,"ADDRESS":"大仁街１０９之１號","OBJECTID":572091},"geometry":{"x":173823.42000000086,"y":2544810.6700000018}},{"attributes":{"ID":572119,"DIS_CODE":0,"TOWNNAME":"永康區","LI":"復國里","LIN":"29鄰","STREET":"復華二街","SECT":" ","MAREA":" ","LANE":" ","ALLEY":" ","HOUSE_NO":"１７號","E_COORD97":172608.54000000001,"N_COORD97":2545344.52,"ADDRESS":"復華二街１７號","OBJECTID":572092},"geometry":{"x":172608.54000000004,"y":2545344.5199999996}},{"attributes":{"ID":572120,"DIS_CODE":0,"TOWNNAME":"東區","LI":"莊敬里","LIN":"17鄰","STREET":"莊敬路","SECT":" ","MAREA":" ","LANE":" ","ALLEY":" ","HOUSE_NO":"１６０號","E_COORD97":171385.13,"N_COORD97":2544104.6400000001,"ADDRESS":"莊敬路１６０號","OBJECTID":572093},"geometry":{"x":171385.12999999989,"y":2544104.6400000006}},{"attributes":{"ID":572121,"DIS_CODE":0,"TOWNNAME":"東區","LI":"莊敬里","LIN":"17鄰","STREET":"莊敬路","SECT":" ","MAREA":" ","LANE":" ","ALLEY":" ","HOUSE_NO":"１６２號","E_COORD97":171385.54000000001,"N_COORD97":2544108.3700000001,"ADDRESS":"莊敬路１６２號","OBJECTID":572094},"geometry":{"x":171385.54000000097,"y":2544108.3700000029}},{"attributes":{"ID":572122,"DIS_CODE":0,"TOWNNAME":"東區","LI":"莊敬里","LIN":"17鄰","STREET":"莊敬路","SECT":" ","MAREA":" ","LANE":" ","ALLEY":" ","HOUSE_NO":"１６４號","E_COORD97":171386.19,"N_COORD97":2544112.29,"ADDRESS":"莊敬路１６４號","OBJECTID":572095},"geometry":{"x":171386.19000000134,"y":2544112.2899999991}},{"attributes":{"ID":572123,"DIS_CODE":0,"TOWNNAME":"東區","LI":"莊敬里","LIN":"17鄰","STREET":"莊敬路","SECT":" ","MAREA":" ","LANE":" ","ALLEY":" ","HOUSE_NO":"１６６號","E_COORD97":171386.35999999999,"N_COORD97":2544116.6899999999,"ADDRESS":"莊敬路１６６號","OBJECTID":572096},"geometry":{"x":171386.3600000022,"y":2544116.6899999995}},{"attributes":{"ID":572124,"DIS_CODE":0,"TOWNNAME":"東區","LI":"莊敬里","LIN":"17鄰","STREET":"莊敬路","SECT":" ","MAREA":" ","LANE":" ","ALLEY":" ","HOUSE_NO":"１７０號","E_COORD97":171386.67999999999,"N_COORD97":2544124.2400000002,"ADDRESS":"莊敬路１７０號","OBJECTID":572097},"geometry":{"x":171386.6799999997,"y":2544124.2400000002}},{"attributes":{"ID":572125,"DIS_CODE":0,"TOWNNAME":"東區","LI":"莊敬里","LIN":"17鄰","STREET":"莊敬路","SECT":" ","MAREA":" ","LANE":" ","ALLEY":" ","HOUSE_NO":"１７２號","E_COORD97":171387.32999999999,"N_COORD97":2544128.7000000002,"ADDRESS":"莊敬路１７２號","OBJECTID":572098},"geometry":{"x":171387.33000000007,"y":2544128.7000000011}},{"attributes":{"ID":572126,"DIS_CODE":0,"TOWNNAME":"東區","LI":"莊敬里","LIN":"17鄰","STREET":"莊敬路","SECT":" ","MAREA":" ","LANE":" ","ALLEY":" ","HOUSE_NO":"１７４號","E_COORD97":171388.31,"N_COORD97":2544133.8999999999,"ADDRESS":"莊敬路１７４號","OBJECTID":572099},"geometry":{"x":171388.31000000052,"y":2544133.9000000041}},{"attributes":{"ID":572127,"DIS_CODE":0,"TOWNNAME":"東區","LI":"莊敬里","LIN":"17鄰","STREET":"莊敬路","SECT":" ","MAREA":" ","LANE":" ","ALLEY":" ","HOUSE_NO":"１７６號","E_COORD97":171388.72,"N_COORD97":2544137.5499999998,"ADDRESS":"莊敬路１７６號","OBJECTID":572100},"geometry":{"x":171388.72000000067,"y":2544137.5500000026}},{"attributes":{"ID":572128,"DIS_CODE":0,"TOWNNAME":"東區","LI":"莊敬里","LIN":"17鄰","STREET":"莊敬路","SECT":" ","MAREA":" ","LANE":" ","ALLEY":" ","HOUSE_NO":"１６８號","E_COORD97":171386.34,"N_COORD97":2544120.7200000002,"ADDRESS":"莊敬路１６８號","OBJECTID":572101},"geometry":{"x":171386.34000000078,"y":2544120.7200000007}},{"attributes":{"ID":572129,"DIS_CODE":0,"TOWNNAME":"東區","LI":"莊敬里","LIN":"17鄰","STREET":"莊敬路","SECT":" ","MAREA":" ","LANE":" ","ALLEY":" ","HOUSE_NO":"１７８號","E_COORD97":171389.60999999999,"N_COORD97":2544141.8500000001,"ADDRESS":"莊敬路１７８號","OBJECTID":572102},"geometry":{"x":171389.6099999994,"y":2544141.8499999996}},{"attributes":{"ID":572130,"DIS_CODE":0,"TOWNNAME":"永康區","LI":"復華里","LIN":"29鄰","STREET":"復國一路","SECT":" ","MAREA":" ","LANE":" ","ALLEY":" ","HOUSE_NO":"４９６號","E_COORD97":172613.41,"N_COORD97":2546158.6899999999,"ADDRESS":"復國一路４９６號","OBJECTID":572103},"geometry":{"x":172613.41000000108,"y":2546158.6900000013}},{"attributes":{"ID":572131,"DIS_CODE":0,"TOWNNAME":"永康區","LI":"復華里","LIN":"29鄰","STREET":"復國一路","SECT":" ","MAREA":" ","LANE":" ","ALLEY":" ","HOUSE_NO":"５２６號","E_COORD97":172567.57000000001,"N_COORD97":2546216.9500000002,"ADDRESS":"復國一路５２６號","OBJECTID":572104},"geometry":{"x":172567.5700000003,"y":2546216.9499999993}},{"attributes":{"ID":572132,"DIS_CODE":0,"TOWNNAME":"永康區","LI":"復國里","LIN":"29鄰","STREET":"復華二街","SECT":" ","MAREA":" ","LANE":" ","ALLEY":" ","HOUSE_NO":"２５號","E_COORD97":172576.09,"N_COORD97":2545346.52,"ADDRESS":"復華二街２５號","OBJECTID":572105},"geometry":{"x":172576.09000000078,"y":2545346.5200000014}},{"attributes":{"ID":572133,"DIS_CODE":0,"TOWNNAME":"永康區","LI":"復國里","LIN":"29鄰","STREET":"復華二街","SECT":" ","MAREA":" ","LANE":" ","ALLEY":" ","HOUSE_NO":"２９號","E_COORD97":172563.85999999999,"N_COORD97":2545346.27,"ADDRESS":"復華二街２９號","OBJECTID":572106},"geometry":{"x":172563.86000000034,"y":2545346.2699999996}},{"attributes":{"ID":572134,"DIS_CODE":0,"TOWNNAME":"永康區","LI":"復華里","LIN":"29鄰","STREET":"復國一路","SECT":" ","MAREA":" ","LANE":" ","ALLEY":" ","HOUSE_NO":"４８８號","E_COORD97":172625.82999999999,"N_COORD97":2546143.2000000002,"ADDRESS":"復國一路４８８號","OBJECTID":572107},"geometry":{"x":172625.83000000101,"y":2546143.1999999993}},{"attributes":{"ID":572135,"DIS_CODE":0,"TOWNNAME":"永康區","LI":"復華里","LIN":"29鄰","STREET":"復國一路","SECT":" ","MAREA":" ","LANE":" ","ALLEY":" ","HOUSE_NO":"５０４號","E_COORD97":172600.57000000001,"N_COORD97":2546173.6899999999,"ADDRESS":"復國一路５０４號","OBJECTID":572108},"geometry":{"x":172600.57000000123,"y":2546173.6899999995}},{"attributes":{"ID":572136,"DIS_CODE":0,"TOWNNAME":"永康區","LI":"復華里","LIN":"29鄰","STREET":"國華街","SECT":" ","MAREA":" ","LANE":" ","ALLEY":" ","HOUSE_NO":"１２１號","E_COORD97":172644.88,"N_COORD97":2546248.7999999998,"ADDRESS":"國華街１２１號","OBJECTID":572109},"geometry":{"x":172644.87999999989,"y":2546248.8000000007}},{"attributes":{"ID":572137,"DIS_CODE":0,"TOWNNAME":"永康區","LI":"復華里","LIN":"29鄰","STREET":"國華街","SECT":" ","MAREA":" ","LANE":" ","ALLEY":" ","HOUSE_NO":"１１７號","E_COORD97":172639.95000000001,"N_COORD97":2546239.0600000001,"ADDRESS":"國華街１１７號","OBJECTID":572110},"geometry":{"x":172639.95000000205,"y":2546239.0600000024}},{"attributes":{"ID":572138,"DIS_CODE":0,"TOWNNAME":"永康區","LI":"復華里","LIN":"29鄰","STREET":"復國一路","SECT":" ","MAREA":" ","LANE":" ","ALLEY":" ","HOUSE_NO":"５２２號","E_COORD97":172573.16,"N_COORD97":2546208.7000000002,"ADDRESS":"復國一路５２２號","OBJECTID":572111},"geometry":{"x":172573.16000000108,"y":2546208.6999999974}},{"attributes":{"ID":572139,"DIS_CODE":0,"TOWNNAME":"永康區","LI":"復華里","LIN":"29鄰","STREET":"復國一路","SECT":" ","MAREA":" ","LANE":" ","ALLEY":" ","HOUSE_NO":"４８４號","E_COORD97":172632.35999999999,"N_COORD97":2546135.4500000002,"ADDRESS":"復國一路４８４號","OBJECTID":572112},"geometry":{"x":172632.3600000022,"y":2546135.4499999993}},{"attributes":{"ID":572140,"DIS_CODE":0,"TOWNNAME":"永康區","LI":"復華里","LIN":"29鄰","STREET":"復國一路","SECT":" ","MAREA":" ","LANE":" ","ALLEY":" ","HOUSE_NO":"５２０號","E_COORD97":172576.10999999999,"N_COORD97":2546204.4500000002,"ADDRESS":"復國一路５２０號","OBJECTID":572113},"geometry":{"x":172576.11000000034,"y":2546204.4500000011}},{"attributes":{"ID":572141,"DIS_CODE":0,"TOWNNAME":"永康區","LI":"崑山里","LIN":"29鄰","STREET":"大仁街","SECT":" ","MAREA":" ","LANE":" ","ALLEY":" ","HOUSE_NO":"９５號","E_COORD97":173822,"N_COORD97":2544774.3799999999,"ADDRESS":"大仁街９５號","OBJECTID":572114},"geometry":{"x":173822,"y":2544774.3800000008}},{"attributes":{"ID":572142,"DIS_CODE":0,"TOWNNAME":"東區","LI":"後甲里","LIN":"29鄰","STREET":"建東街","SECT":" ","MAREA":" ","LANE":" ","ALLEY":" ","HOUSE_NO":"７號","E_COORD97":171773.44,"N_COORD97":2543289.6000000001,"ADDRESS":"建東街７號","OBJECTID":572115},"geometry":{"x":171773.44000000041,"y":2543289.5999999996}},{"attributes":{"ID":572143,"DIS_CODE":0,"TOWNNAME":"東區","LI":"裕農里","LIN":"21鄰","STREET":"裕豐街","SECT":" ","MAREA":" ","LANE":" ","ALLEY":" ","HOUSE_NO":"１７２號","E_COORD97":170776.98999999999,"N_COORD97":2543086.71,"ADDRESS":"裕豐街１７２號","OBJECTID":572116},"geometry":{"x":170776.99000000115,"y":2543086.7100000009}},{"attributes":{"ID":572144,"DIS_CODE":0,"TOWNNAME":"東區","LI":"裕農里","LIN":"21鄰","STREET":"裕豐街","SECT":" ","MAREA":" ","LANE":" ","ALLEY":" ","HOUSE_NO":"１７４號","E_COORD97":170776.98999999999,"N_COORD97":2543090.3599999999,"ADDRESS":"裕豐街１７４號","OBJECTID":572117},"geometry":{"x":170776.99000000115,"y":2543090.3600000013}},{"attributes":{"ID":572145,"DIS_CODE":0,"TOWNNAME":"東區","LI":"裕農里","LIN":"21鄰","STREET":"裕豐街","SECT":" ","MAREA":" ","LANE":" ","ALLEY":" ","HOUSE_NO":"１７６號","E_COORD97":170778.04000000001,"N_COORD97":2543095.5699999998,"ADDRESS":"裕豐街１７６號","OBJECTID":572118},"geometry":{"x":170778.04000000097,"y":2543095.5700000022}},{"attributes":{"ID":572146,"DIS_CODE":0,"TOWNNAME":"東區","LI":"裕農里","LIN":"21鄰","STREET":"裕豐街","SECT":" ","MAREA":" ","LANE":" ","ALLEY":" ","HOUSE_NO":"１７６號之１","E_COORD97":170789.85999999999,"N_COORD97":2543085.1499999999,"ADDRESS":"裕豐街１７６號之１","OBJECTID":572119},"geometry":{"x":170789.86000000127,"y":2543085.1500000022}},{"attributes":{"ID":572147,"DIS_CODE":0,"TOWNNAME":"東區","LI":"裕農里","LIN":"21鄰","STREET":"裕豐街","SECT":" ","MAREA":" ","LANE":" ","ALLEY":" ","HOUSE_NO":"１７６號之２","E_COORD97":170800.45999999999,"N_COORD97":2543094.1800000002,"ADDRESS":"裕豐街１７６號之２","OBJECTID":572120},"geometry":{"x":170800.46000000183,"y":2543094.1800000016}},{"attributes":{"ID":572148,"DIS_CODE":0,"TOWNNAME":"東區","LI":"裕農里","LIN":"21鄰","STREET":"裕豐街","SECT":" ","MAREA":" ","LANE":" ","ALLEY":" ","HOUSE_NO":"１７６號之３","E_COORD97":170799.42000000001,"N_COORD97":2543081.8500000001,"ADDRESS":"裕豐街１７６號之３","OBJECTID":572121},"geometry":{"x":170799.42000000086,"y":2543081.8499999996}},{"attributes":{"ID":572149,"DIS_CODE":0,"TOWNNAME":"東區","LI":"裕農里","LIN":"21鄰","STREET":"裕豐街","SECT":" ","MAREA":" ","LANE":" ","ALLEY":" ","HOUSE_NO":"１７８號","E_COORD97":170780.12,"N_COORD97":2543101.0699999998,"ADDRESS":"裕豐街１７８號","OBJECTID":572122},"geometry":{"x":170780.12000000011,"y":2543101.0700000003}},{"attributes":{"ID":572150,"DIS_CODE":0,"TOWNNAME":"東區","LI":"裕農里","LIN":"21鄰","STREET":"裕豐街","SECT":" ","MAREA":" ","LANE":" ","ALLEY":" ","HOUSE_NO":"１８０號","E_COORD97":170782.29999999999,"N_COORD97":2543106.52,"ADDRESS":"裕豐街１８０號","OBJECTID":572123},"geometry":{"x":170782.29999999981,"y":2543106.5200000014}},{"attributes":{"ID":572151,"DIS_CODE":0,"TOWNNAME":"東區","LI":"裕農里","LIN":"21鄰","STREET":"裕豐街","SECT":" ","MAREA":" ","LANE":" ","ALLEY":" ","HOUSE_NO":"１８２號","E_COORD97":170781.57000000001,"N_COORD97":2543109.7799999998,"ADDRESS":"裕豐街１８２號","OBJECTID":572124},"geometry":{"x":170781.57000000123,"y":2543109.7800000031}},{"attributes":{"ID":572152,"DIS_CODE":0,"TOWNNAME":"東區","LI":"裕農里","LIN":"21鄰","STREET":"裕豐街","SECT":" ","MAREA":" ","LANE":" ","ALLEY":" ","HOUSE_NO":"１８４號","E_COORD97":170781.94,"N_COORD97":2543113.0499999998,"ADDRESS":"裕豐街１８４號","OBJECTID":572125},"geometry":{"x":170781.94000000041,"y":2543113.0500000026}},{"attributes":{"ID":572153,"DIS_CODE":0,"TOWNNAME":"東區","LI":"裕農里","LIN":"21鄰","STREET":"裕豐街","SECT":" ","MAREA":" ","LANE":" ","ALLEY":" ","HOUSE_NO":"１８０號之１","E_COORD97":170797.56,"N_COORD97":2543103.98,"ADDRESS":"裕豐街１８０號之１","OBJECTID":572126},"geometry":{"x":170797.56000000145,"y":2543103.9800000023}},{"attributes":{"ID":572154,"DIS_CODE":0,"TOWNNAME":"永康區","LI":"大灣里","LIN":"29鄰","STREET":"文賢街","SECT":" ","MAREA":" ","LANE":" ","ALLEY":" ","HOUSE_NO":"２０號","E_COORD97":175282.67000000001,"N_COORD97":2544949.6800000002,"ADDRESS":"文賢街２０號","OBJECTID":572127},"geometry":{"x":175282.67000000179,"y":2544949.6800000016}},{"attributes":{"ID":572155,"DIS_CODE":0,"TOWNNAME":"東區","LI":"和平里","LIN":"20鄰","STREET":"仁和路","SECT":" ","MAREA":" ","LANE":" ","ALLEY":" ","HOUSE_NO":"７３號","E_COORD97":171214.95000000001,"N_COORD97":2541601.7599999998,"ADDRESS":"仁和路７３號","OBJECTID":572128},"geometry":{"x":171214.95000000112,"y":2541601.7600000035}},{"attributes":{"ID":572156,"DIS_CODE":0,"TOWNNAME":"東區","LI":"忠孝里","LIN":"10鄰","STREET":"崇明路","SECT":" ","MAREA":" ","LANE":" ","ALLEY":" ","HOUSE_NO":"３７０號","E_COORD97":170102.23000000001,"N_COORD97":2541902.3500000001,"ADDRESS":"崇明路３７０號","OBJECTID":572129},"geometry":{"x":170102.22999999952,"y":2541902.3499999978}},{"attributes":{"ID":572157,"DIS_CODE":0,"TOWNNAME":"東區","LI":"裕農里","LIN":"21鄰","STREET":"裕豐街","SECT":" ","MAREA":" ","LANE":" ","ALLEY":" ","HOUSE_NO":"１８２號之１","E_COORD97":170796.47,"N_COORD97":2543110.1400000001,"ADDRESS":"裕豐街１８２號之１","OBJECTID":572130},"geometry":{"x":170796.46999999974,"y":2543110.1400000025}},{"attributes":{"ID":572158,"DIS_CODE":0,"TOWNNAME":"永康區","LI":"大橋里","LIN":"29鄰","STREET":"大橋一街","SECT":" ","MAREA":" ","LANE":" ","ALLEY":" ","HOUSE_NO":"２４０號","E_COORD97":171047.07000000001,"N_COORD97":2546488.2400000002,"ADDRESS":"大橋一街２４０號","OBJECTID":572131},"geometry":{"x":171047.0700000003,"y":2546488.2400000021}},{"attributes":{"ID":572159,"DIS_CODE":0,"TOWNNAME":"永康區","LI":"二王里","LIN":"29鄰","STREET":"中山南路","SECT":" ","MAREA":" ","LANE":" ","ALLEY":" ","HOUSE_NO":"５４８號","E_COORD97":172180.53,"N_COORD97":2546545.4399999999,"ADDRESS":"中山南路５４８號","OBJECTID":572132},"geometry":{"x":172180.53000000119,"y":2546545.4399999995}},{"attributes":{"ID":572160,"DIS_CODE":0,"TOWNNAME":"永康區","LI":"勝利里","LIN":"29鄰","STREET":"勝利街","SECT":" ","MAREA":" ","LANE":" ","ALLEY":" ","HOUSE_NO":"４０之２號","E_COORD97":171341.76999999999,"N_COORD97":2544625.04,"ADDRESS":"勝利街４０之２號","OBJECTID":572133},"geometry":{"x":171341.76999999955,"y":2544625.0399999991}},{"attributes":{"ID":572161,"DIS_CODE":0,"TOWNNAME":"永康區","LI":"埔園里","LIN":"29鄰","STREET":"龍埔街","SECT":" ","MAREA":" ","LANE":" ","ALLEY":" ","HOUSE_NO":"２９３號","E_COORD97":173939.76000000001,"N_COORD97":2548320.4900000002,"ADDRESS":"龍埔街２９３號","OBJECTID":572134},"geometry":{"x":173939.76000000071,"y":2548320.4900000021}},{"attributes":{"ID":572162,"DIS_CODE":0,"TOWNNAME":"永康區","LI":"北灣里","LIN":"29鄰","STREET":"文賢街","SECT":" ","MAREA":" ","LANE":" ","ALLEY":" ","HOUSE_NO":"８０之１號","E_COORD97":175335.06,"N_COORD97":2545138.9199999999,"ADDRESS":"文賢街８０之１號","OBJECTID":572135},"geometry":{"x":175335.05999999959,"y":2545138.9199999999}},{"attributes":{"ID":572163,"DIS_CODE":0,"TOWNNAME":"永康區","LI":"永康里","LIN":"29鄰","STREET":"永康街","SECT":" ","MAREA":" ","LANE":" ","ALLEY":" ","HOUSE_NO":"２３６號","E_COORD97":174098.73999999999,"N_COORD97":2547012.8900000001,"ADDRESS":"永康街２３６號","OBJECTID":572136},"geometry":{"x":174098.74000000022,"y":2547012.8900000025}},{"attributes":{"ID":572164,"DIS_CODE":0,"TOWNNAME":"永康區","LI":"永康里","LIN":"29鄰","STREET":"永康街","SECT":" ","MAREA":" ","LANE":" ","ALLEY":" ","HOUSE_NO":"２３８號","E_COORD97":174103.35000000001,"N_COORD97":2547012.4399999999,"ADDRESS":"永康街２３８號","OBJECTID":572137},"geometry":{"x":174103.35000000056,"y":2547012.4400000013}},{"attributes":{"ID":572165,"DIS_CODE":0,"TOWNNAME":"東區","LI":"後甲里","LIN":"29鄰","STREET":"裕農路","SECT":" ","MAREA":" ","LANE":" ","ALLEY":" ","HOUSE_NO":"６７７號","E_COORD97":171784.57000000001,"N_COORD97":2543252.9399999999,"ADDRESS":"裕農路６７７號","OBJECTID":572138},"geometry":{"x":171784.5700000003,"y":2543252.9399999995}},{"attributes":{"ID":572166,"DIS_CODE":0,"TOWNNAME":"東區","LI":"小東里","LIN":"29鄰","STREET":"東和路","SECT":" ","MAREA":" ","LANE":" ","ALLEY":" ","HOUSE_NO":"１１２號","E_COORD97":170722.5,"N_COORD97":2544333.5499999998,"ADDRESS":"東和路１１２號","OBJECTID":572139},"geometry":{"x":170722.50000000093,"y":2544333.5500000026}},{"attributes":{"ID":572167,"DIS_CODE":0,"TOWNNAME":"永康區","LI":"埔園里","LIN":"29鄰","STREET":"埔東街","SECT":" ","MAREA":" ","LANE":" ","ALLEY":" ","HOUSE_NO":"１６號","E_COORD97":173797.12,"N_COORD97":2548074,"ADDRESS":"埔東街１６號","OBJECTID":572140},"geometry":{"x":173797.12000000104,"y":2548074.0000000019}},{"attributes":{"ID":572168,"DIS_CODE":0,"TOWNNAME":"永康區","LI":"勝利里","LIN":"29鄰","STREET":"勝利街","SECT":" ","MAREA":" ","LANE":" ","ALLEY":" ","HOUSE_NO":"４０號","E_COORD97":171337.32999999999,"N_COORD97":2544616.5,"ADDRESS":"勝利街４０號","OBJECTID":572141},"geometry":{"x":171337.33000000101,"y":2544616.5}},{"attributes":{"ID":572169,"DIS_CODE":0,"TOWNNAME":"永康區","LI":"埔園里","LIN":"29鄰","STREET":"埔園街","SECT":" ","MAREA":" ","LANE":" ","ALLEY":" ","HOUSE_NO":"１８８號","E_COORD97":173834.23999999999,"N_COORD97":2548237.4900000002,"ADDRESS":"埔園街１８８號","OBJECTID":572142},"geometry":{"x":173834.24000000022,"y":2548237.4900000002}},{"attributes":{"ID":572170,"DIS_CODE":0,"TOWNNAME":"東區","LI":"忠孝里","LIN":"20鄰","STREET":"崇明路","SECT":" ","MAREA":" ","LANE":" ","ALLEY":" ","HOUSE_NO":"２９０號","E_COORD97":169988.67000000001,"N_COORD97":2542043.8799999999,"ADDRESS":"崇明路２９０號","OBJECTID":572143},"geometry":{"x":169988.67000000179,"y":2542043.8800000027}},{"attributes":{"ID":572171,"DIS_CODE":0,"TOWNNAME":"東區","LI":"忠孝里","LIN":"20鄰","STREET":"崇明路","SECT":" ","MAREA":" ","LANE":" ","ALLEY":" ","HOUSE_NO":"２９２號","E_COORD97":169990.64999999999,"N_COORD97":2542040.2000000002,"ADDRESS":"崇明路２９２號","OBJECTID":572144},"geometry":{"x":169990.65000000037,"y":2542040.2000000011}},{"attributes":{"ID":572172,"DIS_CODE":0,"TOWNNAME":"東區","LI":"忠孝里","LIN":"20鄰","STREET":"崇明路","SECT":" ","MAREA":" ","LANE":" ","ALLEY":" ","HOUSE_NO":"２９４號","E_COORD97":169993.67999999999,"N_COORD97":2542037.1699999999,"ADDRESS":"崇明路２９４號","OBJECTID":572145},"geometry":{"x":169993.68000000063,"y":2542037.1700000018}},{"attributes":{"ID":572173,"DIS_CODE":0,"TOWNNAME":"東區","LI":"忠孝里","LIN":"20鄰","STREET":"崇明路","SECT":" ","MAREA":" ","LANE":" ","ALLEY":" ","HOUSE_NO":"２９６號","E_COORD97":169995.92000000001,"N_COORD97":2542034.1400000001,"ADDRESS":"崇明路２９６號","OBJECTID":572146},"geometry":{"x":169995.92000000086,"y":2542034.1400000025}},{"attributes":{"ID":572174,"DIS_CODE":0,"TOWNNAME":"東區","LI":"忠孝里","LIN":"20鄰","STREET":"崇明路","SECT":" ","MAREA":" ","LANE":" ","ALLEY":" ","HOUSE_NO":"２９８號","E_COORD97":169999.07999999999,"N_COORD97":2542030.98,"ADDRESS":"崇明路２９８號","OBJECTID":572147},"geometry":{"x":169999.08000000007,"y":2542030.9800000004}},{"attributes":{"ID":572175,"DIS_CODE":0,"TOWNNAME":"東區","LI":"忠孝里","LIN":"20鄰","STREET":"崇明路","SECT":" ","MAREA":" ","LANE":" ","ALLEY":" ","HOUSE_NO":"３００號","E_COORD97":170001.72,"N_COORD97":2542027.5600000001,"ADDRESS":"崇明路３００號","OBJECTID":572148},"geometry":{"x":170001.7200000016,"y":2542027.5600000042}},{"attributes":{"ID":572176,"DIS_CODE":0,"TOWNNAME":"東區","LI":"圍下里","LIN":"13鄰","STREET":"前鋒路","SECT":" ","MAREA":" ","LANE":" ","ALLEY":" ","HOUSE_NO":"７２號","E_COORD97":169320.45999999999,"N_COORD97":2543635.71,"ADDRESS":"前鋒路７２號","OBJECTID":572149},"geometry":{"x":169320.46000000183,"y":2543635.7100000009}},{"attributes":{"ID":572177,"DIS_CODE":0,"TOWNNAME":"東區","LI":"後甲里","LIN":"29鄰","STREET":"裕農路","SECT":" ","MAREA":" ","LANE":" ","ALLEY":" ","HOUSE_NO":"６８３號","E_COORD97":171803,"N_COORD97":2543257.9700000002,"ADDRESS":"裕農路６８３號","OBJECTID":572150},"geometry":{"x":171803,"y":2543257.9700000007}},{"attributes":{"ID":572178,"DIS_CODE":0,"TOWNNAME":"東區","LI":"後甲里","LIN":"29鄰","STREET":"裕農路","SECT":" ","MAREA":" ","LANE":" ","ALLEY":" ","HOUSE_NO":"６６５號","E_COORD97":171747.20000000001,"N_COORD97":2543248.71,"ADDRESS":"裕農路６６５號","OBJECTID":572151},"geometry":{"x":171747.20000000112,"y":2543248.7100000028}},{"attributes":{"ID":572179,"DIS_CODE":0,"TOWNNAME":"永康區","LI":"埔園里","LIN":"29鄰","STREET":"埔東街","SECT":" ","MAREA":" ","LANE":" ","ALLEY":" ","HOUSE_NO":"１８號","E_COORD97":173805.04000000001,"N_COORD97":2548085.25,"ADDRESS":"埔東街１８號","OBJECTID":572152},"geometry":{"x":173805.04000000004,"y":2548085.2500000019}},{"attributes":{"ID":572180,"DIS_CODE":0,"TOWNNAME":"永康區","LI":"埔園里","LIN":"29鄰","STREET":"龍埔街","SECT":" ","MAREA":" ","LANE":" ","ALLEY":" ","HOUSE_NO":"３０１號","E_COORD97":173919.76000000001,"N_COORD97":2548320.4900000002,"ADDRESS":"龍埔街３０１號","OBJECTID":572153},"geometry":{"x":173919.76000000071,"y":2548320.4900000021}},{"attributes":{"ID":572181,"DIS_CODE":0,"TOWNNAME":"佳里區","LI":"建南里","LIN":"29鄰","STREET":"勝利路","SECT":" ","MAREA":" ","LANE":" ","ALLEY":" ","HOUSE_NO":"１５６號","E_COORD97":165963.95000000001,"N_COORD97":2561115.25,"ADDRESS":"勝利路１５６號","OBJECTID":572154},"geometry":{"x":165963.95000000019,"y":2561115.25}},{"attributes":{"ID":572182,"DIS_CODE":0,"TOWNNAME":"永康區","LI":"埔園里","LIN":"29鄰","STREET":"埔東街","SECT":" ","MAREA":" ","LANE":" ","ALLEY":" ","HOUSE_NO":"４０號","E_COORD97":173792.26999999999,"N_COORD97":2548138.23,"ADDRESS":"埔東街４０號","OBJECTID":572155},"geometry":{"x":173792.27000000048,"y":2548138.2300000004}},{"attributes":{"ID":572183,"DIS_CODE":0,"TOWNNAME":"永康區","LI":"埔園里","LIN":"29鄰","STREET":"埔東街","SECT":" ","MAREA":" ","LANE":" ","ALLEY":" ","HOUSE_NO":"５４號","E_COORD97":173791.64999999999,"N_COORD97":2548185.6499999999,"ADDRESS":"埔東街５４號","OBJECTID":572156},"geometry":{"x":173791.65000000224,"y":2548185.6500000004}},{"attributes":{"ID":572184,"DIS_CODE":0,"TOWNNAME":"東區","LI":"莊敬里","LIN":"1鄰","STREET":"小東路","SECT":" ","MAREA":" ","LANE":" ","ALLEY":" ","HOUSE_NO":"２５６號之４","E_COORD97":171138.63,"N_COORD97":2544334.1400000001,"ADDRESS":"小東路２５６號之４","OBJECTID":572157},"geometry":{"x":171138.63000000082,"y":2544334.1400000025}},{"attributes":{"ID":572185,"DIS_CODE":0,"TOWNNAME":"東區","LI":"東光里","LIN":"6鄰","STREET":"凱旋路","SECT":" ","MAREA":" ","LANE":" ","ALLEY":" ","HOUSE_NO":"２７號","E_COORD97":171136.34,"N_COORD97":2543706.2000000002,"ADDRESS":"凱旋路２７號","OBJECTID":572158},"geometry":{"x":171136.33999999985,"y":2543706.1999999993}},{"attributes":{"ID":572186,"DIS_CODE":0,"TOWNNAME":"東區","LI":"東光里","LIN":"6鄰","STREET":"凱旋路","SECT":" ","MAREA":" ","LANE":" ","ALLEY":" ","HOUSE_NO":"２９號","E_COORD97":171131.23000000001,"N_COORD97":2543707.2200000002,"ADDRESS":"凱旋路２９號","OBJECTID":572159},"geometry":{"x":171131.22999999952,"y":2543707.2200000007}},{"attributes":{"ID":572187,"DIS_CODE":0,"TOWNNAME":"東區","LI":"東光里","LIN":"6鄰","STREET":"凱旋路","SECT":" ","MAREA":" ","LANE":" ","ALLEY":" ","HOUSE_NO":"３１號","E_COORD97":171122.85999999999,"N_COORD97":2543708.04,"ADDRESS":"凱旋路３１號","OBJECTID":572160},"geometry":{"x":171122.86000000034,"y":2543708.040000001}},{"attributes":{"ID":572188,"DIS_CODE":0,"TOWNNAME":"東區","LI":"東光里","LIN":"6鄰","STREET":"凱旋路","SECT":" ","MAREA":" ","LANE":" ","ALLEY":" ","HOUSE_NO":"３３號","E_COORD97":171109.39000000001,"N_COORD97":2543710.5899999999,"ADDRESS":"凱旋路３３號","OBJECTID":572161},"geometry":{"x":171109.3900000006,"y":2543710.5899999999}},{"attributes":{"ID":572189,"DIS_CODE":0,"TOWNNAME":"東區","LI":"東光里","LIN":"6鄰","STREET":"凱旋路","SECT":" ","MAREA":" ","LANE":" ","ALLEY":" ","HOUSE_NO":"３５號","E_COORD97":171103.98000000001,"N_COORD97":2543709.2599999998,"ADDRESS":"凱旋路３５號","OBJECTID":572162},"geometry":{"x":171103.98000000045,"y":2543709.2599999998}},{"attributes":{"ID":572190,"DIS_CODE":0,"TOWNNAME":"東區","LI":"東光里","LIN":"6鄰","STREET":"凱旋路","SECT":" ","MAREA":" ","LANE":" ","ALLEY":" ","HOUSE_NO":"３７號","E_COORD97":171097.85000000001,"N_COORD97":2543709.98,"ADDRESS":"凱旋路３７號","OBJECTID":572163},"geometry":{"x":171097.85000000056,"y":2543709.9800000023}},{"attributes":{"ID":572191,"DIS_CODE":0,"TOWNNAME":"東區","LI":"東光里","LIN":"6鄰","STREET":"凱旋路","SECT":" ","MAREA":" ","LANE":" ","ALLEY":" ","HOUSE_NO":"３９號","E_COORD97":171093.76999999999,"N_COORD97":2543711.5099999998,"ADDRESS":"凱旋路３９號","OBJECTID":572164},"geometry":{"x":171093.76999999955,"y":2543711.5099999998}},{"attributes":{"ID":572192,"DIS_CODE":0,"TOWNNAME":"永康區","LI":"埔園里","LIN":"29鄰","STREET":"埔東街","SECT":" ","MAREA":" ","LANE":" ","ALLEY":" ","HOUSE_NO":"５８號","E_COORD97":173792.07000000001,"N_COORD97":2548195.3999999999,"ADDRESS":"埔東街５８號","OBJECTID":572165},"geometry":{"x":173792.07000000216,"y":2548195.4000000041}},{"attributes":{"ID":572193,"DIS_CODE":0,"TOWNNAME":"永康區","LI":"埔園里","LIN":"29鄰","STREET":"埔園街","SECT":" ","MAREA":" ","LANE":" ","ALLEY":" ","HOUSE_NO":"１８６號","E_COORD97":173839.92000000001,"N_COORD97":2548235.4900000002,"ADDRESS":"埔園街１８６號","OBJECTID":572166},"geometry":{"x":173839.91999999993,"y":2548235.4900000039}},{"attributes":{"ID":572194,"DIS_CODE":0,"TOWNNAME":"永康區","LI":"埔園里","LIN":"29鄰","STREET":"埔東街","SECT":" ","MAREA":" ","LANE":" ","ALLEY":" ","HOUSE_NO":"３２號","E_COORD97":173792.88,"N_COORD97":2548121.48,"ADDRESS":"埔東街３２號","OBJECTID":572167},"geometry":{"x":173792.88000000175,"y":2548121.4800000023}},{"attributes":{"ID":572195,"DIS_CODE":0,"TOWNNAME":"東區","LI":"後甲里","LIN":"13鄰","STREET":"裕農路","SECT":" ","MAREA":" ","LANE":" ","ALLEY":" ","HOUSE_NO":"６１３號","E_COORD97":171594.20000000001,"N_COORD97":2543239.96,"ADDRESS":"裕農路６１３號","OBJECTID":572168},"geometry":{"x":171594.20000000112,"y":2543239.9600000028}},{"attributes":{"ID":572196,"DIS_CODE":0,"TOWNNAME":"東區","LI":"後甲里","LIN":"13鄰","STREET":"裕農路","SECT":" ","MAREA":" ","LANE":" ","ALLEY":" ","HOUSE_NO":"６１５號","E_COORD97":171599.26999999999,"N_COORD97":2543240.6899999999,"ADDRESS":"裕農路６１５號","OBJECTID":572169},"geometry":{"x":171599.26999999955,"y":2543240.6900000013}},{"attributes":{"ID":572197,"DIS_CODE":0,"TOWNNAME":"東區","LI":"後甲里","LIN":"13鄰","STREET":"裕農路","SECT":" ","MAREA":" ","LANE":" ","ALLEY":" ","HOUSE_NO":"６１７號","E_COORD97":171603.37,"N_COORD97":2543241.8900000001,"ADDRESS":"裕農路６１７號","OBJECTID":572170},"geometry":{"x":171603.37000000104,"y":2543241.8900000006}},{"attributes":{"ID":572198,"DIS_CODE":0,"TOWNNAME":"東區","LI":"後甲里","LIN":"13鄰","STREET":"裕農路","SECT":" ","MAREA":" ","LANE":" ","ALLEY":" ","HOUSE_NO":"６１９號","E_COORD97":171607.70999999999,"N_COORD97":2543240.6899999999,"ADDRESS":"裕農路６１９號","OBJECTID":572171},"geometry":{"x":171607.71000000089,"y":2543240.6900000013}},{"attributes":{"ID":572199,"DIS_CODE":0,"TOWNNAME":"東區","LI":"後甲里","LIN":"13鄰","STREET":"裕農路","SECT":" ","MAREA":" ","LANE":" ","ALLEY":" ","HOUSE_NO":"６１９號之１","E_COORD97":171612.04999999999,"N_COORD97":2543240.6899999999,"ADDRESS":"裕農路６１９號之１","OBJECTID":572172},"geometry":{"x":171612.05000000075,"y":2543240.6900000013}},{"attributes":{"ID":572200,"DIS_CODE":0,"TOWNNAME":"東區","LI":"後甲里","LIN":"13鄰","STREET":"裕農路","SECT":" ","MAREA":" ","LANE":" ","ALLEY":" ","HOUSE_NO":"６１９號之２","E_COORD97":171618.07999999999,"N_COORD97":2543240.6899999999,"ADDRESS":"裕農路６１９號之２","OBJECTID":572173},"geometry":{"x":171618.08000000007,"y":2543240.6900000013}},{"attributes":{"ID":572201,"DIS_CODE":0,"TOWNNAME":"東區","LI":"新東里","LIN":"15鄰","STREET":"裕豐街","SECT":" ","MAREA":" ","LANE":" ","ALLEY":" ","HOUSE_NO":"１４３號","E_COORD97":170759.17999999999,"N_COORD97":2543099.02,"ADDRESS":"裕豐街１４３號","OBJECTID":572174},"geometry":{"x":170759.1799999997,"y":2543099.0200000014}},{"attributes":{"ID":572202,"DIS_CODE":0,"TOWNNAME":"東區","LI":"東光里","LIN":"1鄰","STREET":"東寧路","SECT":" ","MAREA":" ","LANE":" ","ALLEY":" ","HOUSE_NO":"４３１號","E_COORD97":171057.01000000001,"N_COORD97":2543336.3500000001,"ADDRESS":"東寧路４３１號","OBJECTID":572175},"geometry":{"x":171057.00999999978,"y":2543336.3499999996}},{"attributes":{"ID":572203,"DIS_CODE":0,"TOWNNAME":"東區","LI":"東光里","LIN":"6鄰","STREET":"凱旋路","SECT":" ","MAREA":" ","LANE":" ","ALLEY":" ","HOUSE_NO":"２７號地下層","E_COORD97":171139.70999999999,"N_COORD97":2543704.6699999999,"ADDRESS":"凱旋路２７號地下層","OBJECTID":572176},"geometry":{"x":171139.71000000089,"y":2543704.6700000018}},{"attributes":{"ID":572204,"DIS_CODE":0,"TOWNNAME":"東區","LI":"泉南里","LIN":"30鄰","STREET":"府連路","SECT":" ","MAREA":" ","LANE":" ","ALLEY":" ","HOUSE_NO":"２７９號","E_COORD97":169492.32000000001,"N_COORD97":2542881.8500000001,"ADDRESS":"府連路２７９號","OBJECTID":572177},"geometry":{"x":169492.3200000003,"y":2542881.8499999996}},{"attributes":{"ID":572205,"DIS_CODE":0,"TOWNNAME":"東區","LI":"泉南里","LIN":"30鄰","STREET":"府連路","SECT":" ","MAREA":" ","LANE":" ","ALLEY":" ","HOUSE_NO":"２８１號","E_COORD97":169496.01000000001,"N_COORD97":2542880.0099999998,"ADDRESS":"府連路２８１號","OBJECTID":572178},"geometry":{"x":169496.00999999978,"y":2542880.0099999998}},{"attributes":{"ID":572206,"DIS_CODE":0,"TOWNNAME":"東區","LI":"泉南里","LIN":"30鄰","STREET":"府連路","SECT":" ","MAREA":" ","LANE":" ","ALLEY":" ","HOUSE_NO":"２８３號","E_COORD97":169501.13,"N_COORD97":2542878.98,"ADDRESS":"府連路２８３號","OBJECTID":572179},"geometry":{"x":169501.13000000082,"y":2542878.9800000042}},{"attributes":{"ID":572207,"DIS_CODE":0,"TOWNNAME":"東區","LI":"泉南里","LIN":"30鄰","STREET":"府連路","SECT":" ","MAREA":" ","LANE":" ","ALLEY":" ","HOUSE_NO":"２８５號","E_COORD97":169504.20999999999,"N_COORD97":2542877.3399999999,"ADDRESS":"府連路２８５號","OBJECTID":572180},"geometry":{"x":169504.21000000089,"y":2542877.3400000017}},{"attributes":{"ID":572208,"DIS_CODE":0,"TOWNNAME":"東區","LI":"泉南里","LIN":"12鄰","STREET":"光華街","SECT":" ","MAREA":" ","LANE":" ","ALLEY":" ","HOUSE_NO":"２０７號","E_COORD97":169562.20999999999,"N_COORD97":2542996.5899999999,"ADDRESS":"光華街２０７號","OBJECTID":572181},"geometry":{"x":169562.20999999996,"y":2542996.5900000017}},{"attributes":{"ID":572209,"DIS_CODE":0,"TOWNNAME":"東區","LI":"富強里","LIN":"10鄰","STREET":"中華東路","SECT":"二段","MAREA":" ","LANE":" ","ALLEY":" ","HOUSE_NO":"２１４號","E_COORD97":171118.60000000001,"N_COORD97":2542582.9500000002,"ADDRESS":"中華東路二段２１４號","OBJECTID":572182},"geometry":{"x":171118.60000000056,"y":2542582.950000003}},{"attributes":{"ID":572210,"DIS_CODE":0,"TOWNNAME":"永康區","LI":"埔園里","LIN":"29鄰","STREET":"埔東街","SECT":" ","MAREA":" ","LANE":" ","ALLEY":" ","HOUSE_NO":"２６號","E_COORD97":173802.48000000001,"N_COORD97":2548105.7000000002,"ADDRESS":"埔東街２６號","OBJECTID":572183},"geometry":{"x":173802.48000000045,"y":2548105.7000000011}},{"attributes":{"ID":572211,"DIS_CODE":0,"TOWNNAME":"東區","LI":"裕農里","LIN":"14鄰","STREET":"東寧路","SECT":" ","MAREA":" ","LANE":" ","ALLEY":" ","HOUSE_NO":"３８４號","E_COORD97":170858,"N_COORD97":2543368.23,"ADDRESS":"東寧路３８４號","OBJECTID":572184},"geometry":{"x":170858.00000000093,"y":2543368.2300000004}},{"attributes":{"ID":572212,"DIS_CODE":0,"TOWNNAME":"東區","LI":"裕農里","LIN":"14鄰","STREET":"東寧路","SECT":" ","MAREA":" ","LANE":" ","ALLEY":" ","HOUSE_NO":"３８２號","E_COORD97":170854.37,"N_COORD97":2543370.54,"ADDRESS":"東寧路３８２號","OBJECTID":572185},"geometry":{"x":170854.37000000104,"y":2543370.5399999991}},{"attributes":{"ID":572213,"DIS_CODE":0,"TOWNNAME":"東區","LI":"裕農里","LIN":"14鄰","STREET":"東寧路","SECT":" ","MAREA":" ","LANE":" ","ALLEY":" ","HOUSE_NO":"３８６號","E_COORD97":170862.95999999999,"N_COORD97":2543367.5699999998,"ADDRESS":"東寧路３８６號","OBJECTID":572186},"geometry":{"x":170862.95999999996,"y":2543367.5700000022}},{"attributes":{"ID":572214,"DIS_CODE":0,"TOWNNAME":"東區","LI":"裕農里","LIN":"10鄰","STREET":"東寧路","SECT":" ","MAREA":" ","LANE":" ","ALLEY":" ","HOUSE_NO":"５４０號","E_COORD97":171211.16,"N_COORD97":2543245.5299999998,"ADDRESS":"東寧路５４０號","OBJECTID":572187},"geometry":{"x":171211.16000000201,"y":2543245.5299999993}},{"attributes":{"ID":572215,"DIS_CODE":0,"TOWNNAME":"東區","LI":"裕農里","LIN":"10鄰","STREET":"東寧路","SECT":" ","MAREA":" ","LANE":" ","ALLEY":" ","HOUSE_NO":"５４２號","E_COORD97":171215.79000000001,"N_COORD97":2543245.8599999999,"ADDRESS":"東寧路５４２號","OBJECTID":572188},"geometry":{"x":171215.79000000097,"y":2543245.8600000013}},{"attributes":{"ID":572216,"DIS_CODE":0,"TOWNNAME":"東區","LI":"後甲里","LIN":"29鄰","STREET":"裕農路","SECT":" ","MAREA":" ","LANE":" ","ALLEY":" ","HOUSE_NO":"６８７號","E_COORD97":171815.72,"N_COORD97":2543256.6499999999,"ADDRESS":"裕農路６８７號","OBJECTID":572189},"geometry":{"x":171815.72000000067,"y":2543256.6500000004}},{"attributes":{"ID":572217,"DIS_CODE":0,"TOWNNAME":"仁德區","LI":"太子里","LIN":"29鄰","STREET":"大發路","SECT":" ","MAREA":" ","LANE":" ","ALLEY":" ","HOUSE_NO":"１６９號","E_COORD97":173242.78,"N_COORD97":2543045.0099999998,"ADDRESS":"大發路１６９號","OBJECTID":572190},"geometry":{"x":173242.78000000026,"y":2543045.0100000016}},{"attributes":{"ID":572218,"DIS_CODE":0,"TOWNNAME":"永康區","LI":"復國里","LIN":"29鄰","STREET":"復華二街","SECT":" ","MAREA":" ","LANE":" ","ALLEY":" ","HOUSE_NO":"３５號","E_COORD97":172533.97,"N_COORD97":2545348.27,"ADDRESS":"復華二街３５號","OBJECTID":572191},"geometry":{"x":172533.96999999974,"y":2545348.2700000014}},{"attributes":{"ID":572219,"DIS_CODE":0,"TOWNNAME":"永康區","LI":"復國里","LIN":"29鄰","STREET":"復華二街","SECT":" ","MAREA":" ","LANE":" ","ALLEY":" ","HOUSE_NO":"３７號","E_COORD97":172529.42000000001,"N_COORD97":2545348.5,"ADDRESS":"復華二街３７號","OBJECTID":572192},"geometry":{"x":172529.41999999993,"y":2545348.5}},{"attributes":{"ID":572220,"DIS_CODE":0,"TOWNNAME":"永康區","LI":"復國里","LIN":"29鄰","STREET":"復華二街","SECT":" ","MAREA":" ","LANE":" ","ALLEY":" ","HOUSE_NO":"３９號","E_COORD97":172525.32000000001,"N_COORD97":2545349.48,"ADDRESS":"復華二街３９號","OBJECTID":572193},"geometry":{"x":172525.3200000003,"y":2545349.4800000004}},{"attributes":{"ID":572221,"DIS_CODE":0,"TOWNNAME":"永康區","LI":"復國里","LIN":"29鄰","STREET":"復華二街","SECT":" ","MAREA":" ","LANE":" ","ALLEY":" ","HOUSE_NO":"４１號","E_COORD97":172521.07000000001,"N_COORD97":2545349.6299999999,"ADDRESS":"復華二街４１號","OBJECTID":572194},"geometry":{"x":172521.07000000123,"y":2545349.629999999}},{"attributes":{"ID":572222,"DIS_CODE":0,"TOWNNAME":"永康區","LI":"六合里","LIN":"29鄰","STREET":"中華二路","SECT":" ","MAREA":" ","LANE":" ","ALLEY":" ","HOUSE_NO":"２６８號","E_COORD97":171372.25,"N_COORD97":2545440.4900000002,"ADDRESS":"中華二路２６８號","OBJECTID":572195},"geometry":{"x":171372.25000000093,"y":2545440.4900000002}},{"attributes":{"ID":572223,"DIS_CODE":0,"TOWNNAME":"永康區","LI":"六合里","LIN":"29鄰","STREET":"中華二路","SECT":" ","MAREA":" ","LANE":" ","ALLEY":" ","HOUSE_NO":"２７０號","E_COORD97":171368.16,"N_COORD97":2545440.4900000002,"ADDRESS":"中華二路２７０號","OBJECTID":572196},"geometry":{"x":171368.16000000015,"y":2545440.4900000002}},{"attributes":{"ID":572224,"DIS_CODE":0,"TOWNNAME":"永康區","LI":"六合里","LIN":"29鄰","STREET":"中華二路","SECT":" ","MAREA":" ","LANE":" ","ALLEY":" ","HOUSE_NO":"２７２號","E_COORD97":171364.16,"N_COORD97":2545440.2400000002,"ADDRESS":"中華二路２７２號","OBJECTID":572197},"geometry":{"x":171364.16000000108,"y":2545440.2400000039}},{"attributes":{"ID":572225,"DIS_CODE":0,"TOWNNAME":"永康區","LI":"六合里","LIN":"29鄰","STREET":"中華二路","SECT":" ","MAREA":" ","LANE":" ","ALLEY":" ","HOUSE_NO":"２７６號","E_COORD97":171360.13,"N_COORD97":2545439.9900000002,"ADDRESS":"中華二路２７６號","OBJECTID":572198},"geometry":{"x":171360.12999999989,"y":2545439.9900000021}},{"attributes":{"ID":572226,"DIS_CODE":0,"TOWNNAME":"永康區","LI":"六合里","LIN":"29鄰","STREET":"中華二路","SECT":" ","MAREA":" ","LANE":" ","ALLEY":" ","HOUSE_NO":"２７８號","E_COORD97":171355.84,"N_COORD97":2545439.7400000002,"ADDRESS":"中華二路２７８號","OBJECTID":572199},"geometry":{"x":171355.84000000078,"y":2545439.7400000002}},{"attributes":{"ID":572227,"DIS_CODE":0,"TOWNNAME":"永康區","LI":"六合里","LIN":"29鄰","STREET":"中華二路","SECT":" ","MAREA":" ","LANE":" ","ALLEY":" ","HOUSE_NO":"２８０號","E_COORD97":171352,"N_COORD97":2545439.4900000002,"ADDRESS":"中華二路２８０號","OBJECTID":572200},"geometry":{"x":171352,"y":2545439.4900000021}}]}