{"displayFieldName":"TOWNNAME","fieldAliases":{"ID":"ID","DIS_CODE":"DIS_CODE","TOWNNAME":"TOWNNAME","LI":"LI","LIN":"LIN","STREET":"STREET","SECT":"SECT","MAREA":"MAREA","LANE":"LANE","ALLEY":"ALLEY","HOUSE_NO":"HOUSE_NO","E_COORD97":"E_COORD97","N_COORD97":"N_COORD97","ADDRESS":"ADDRESS","OBJECTID":"OBJECTID"},"geometryType":"esriGeometryPoint","spatialReference":{"wkid":102443,"latestWkid":3826},"fields":[{"name":"ID","type":"esriFieldTypeDouble","alias":"ID"},{"name":"DIS_CODE","type":"esriFieldTypeInteger","alias":"DIS_CODE"},{"name":"TOWNNAME","type":"esriFieldTypeString","alias":"TOWNNAME","length":8},{"name":"LI","type":"esriFieldTypeString","alias":"LI","length":8},{"name":"LIN","type":"esriFieldTypeString","alias":"LIN","length":12},{"name":"STREET","type":"esriFieldTypeString","alias":"STREET","length":20},{"name":"SECT","type":"esriFieldTypeString","alias":"SECT","length":8},{"name":"MAREA","type":"esriFieldTypeString","alias":"MAREA","length":12},{"name":"LANE","type":"esriFieldTypeString","alias":"LANE","length":10},{"name":"ALLEY","type":"esriFieldTypeString","alias":"ALLEY","length":10},{"name":"HOUSE_NO","type":"esriFieldTypeString","alias":"HOUSE_NO","length":20},{"name":"E_COORD97","type":"esriFieldTypeDouble","alias":"E_COORD97"},{"name":"N_COORD97","type":"esriFieldTypeDouble","alias":"N_COORD97"},{"name":"ADDRESS","type":"esriFieldTypeString","alias":"ADDRESS","length":50},{"name":"OBJECTID","type":"esriFieldTypeOID","alias":"OBJECTID"}],"features":[{"attributes":{"ID":56401,"DIS_CODE":0,"TOWNNAME":"歸仁區","LI":"大潭里","LIN":"1鄰","STREET":"中正南路","SECT":"三段","MAREA":" ","LANE":"９５巷","ALLEY":"３０弄","HOUSE_NO":"１３號","E_COORD97":175399.85999999999,"N_COORD97":2534973.2799999998,"ADDRESS":"中正南路三段９５巷３０弄１３號","OBJECTID":56401},"geometry":{"x":175399.86000000034,"y":2534973.2800000012}},{"attributes":{"ID":56402,"DIS_CODE":0,"TOWNNAME":"後壁區","LI":"新嘉里","LIN":"8鄰","STREET":" ","SECT":" ","MAREA":"白沙屯","LANE":" ","ALLEY":" ","HOUSE_NO":"８６號之１","E_COORD97":179618.73000000001,"N_COORD97":2585711.2599999998,"ADDRESS":"白沙屯８６號之１","OBJECTID":56402},"geometry":{"x":179618.73000000045,"y":2585711.2600000016}},{"attributes":{"ID":56403,"DIS_CODE":0,"TOWNNAME":"後壁區","LI":"新嘉里","LIN":"8鄰","STREET":" ","SECT":" ","MAREA":"白沙屯","LANE":" ","ALLEY":" ","HOUSE_NO":"８７號","E_COORD97":179599.04000000001,"N_COORD97":2585710.5899999999,"ADDRESS":"白沙屯８７號","OBJECTID":56403},"geometry":{"x":179599.04000000004,"y":2585710.5899999999}},{"attributes":{"ID":56404,"DIS_CODE":0,"TOWNNAME":"後壁區","LI":"新嘉里","LIN":"8鄰","STREET":" ","SECT":" ","MAREA":"白沙屯","LANE":" ","ALLEY":" ","HOUSE_NO":"８８號","E_COORD97":179590.72,"N_COORD97":2585710.9199999999,"ADDRESS":"白沙屯８８號","OBJECTID":56404},"geometry":{"x":179590.71999999974,"y":2585710.9200000018}},{"attributes":{"ID":56405,"DIS_CODE":0,"TOWNNAME":"學甲區","LI":"中洲里","LIN":"1鄰","STREET":" ","SECT":" ","MAREA":"中洲","LANE":" ","ALLEY":" ","HOUSE_NO":"１８號之２","E_COORD97":164025.20000000001,"N_COORD97":2571530.73,"ADDRESS":"中洲１８號之２","OBJECTID":56405},"geometry":{"x":164025.20000000112,"y":2571530.7300000023}},{"attributes":{"ID":56406,"DIS_CODE":0,"TOWNNAME":"學甲區","LI":"中洲里","LIN":"1鄰","STREET":" ","SECT":" ","MAREA":"中洲","LANE":" ","ALLEY":" ","HOUSE_NO":"１號之１","E_COORD97":164169.19,"N_COORD97":2570944.0600000001,"ADDRESS":"中洲１號之１","OBJECTID":56406},"geometry":{"x":164169.19000000041,"y":2570944.0600000042}},{"attributes":{"ID":56407,"DIS_CODE":0,"TOWNNAME":"學甲區","LI":"中洲里","LIN":"1鄰","STREET":" ","SECT":" ","MAREA":"中洲","LANE":" ","ALLEY":" ","HOUSE_NO":"１號之６","E_COORD97":164625.59,"N_COORD97":2571075.2200000002,"ADDRESS":"中洲１號之６","OBJECTID":56407},"geometry":{"x":164625.59000000171,"y":2571075.2200000044}},{"attributes":{"ID":56408,"DIS_CODE":0,"TOWNNAME":"學甲區","LI":"中洲里","LIN":"1鄰","STREET":" ","SECT":" ","MAREA":"中洲","LANE":" ","ALLEY":" ","HOUSE_NO":"２０號","E_COORD97":164049.25,"N_COORD97":2571490.9900000002,"ADDRESS":"中洲２０號","OBJECTID":56408},"geometry":{"x":164049.25,"y":2571490.9900000021}},{"attributes":{"ID":56409,"DIS_CODE":0,"TOWNNAME":"學甲區","LI":"中洲里","LIN":"1鄰","STREET":" ","SECT":" ","MAREA":"中洲","LANE":" ","ALLEY":" ","HOUSE_NO":"２１號","E_COORD97":164024.07999999999,"N_COORD97":2571490.6699999999,"ADDRESS":"中洲２１號","OBJECTID":56409},"geometry":{"x":164024.08000000194,"y":2571490.6699999999}},{"attributes":{"ID":56410,"DIS_CODE":0,"TOWNNAME":"歸仁區","LI":"七甲里","LIN":"1鄰","STREET":"七甲五街","SECT":" ","MAREA":" ","LANE":"１０２巷","ALLEY":"３９弄","HOUSE_NO":"２５號","E_COORD97":177132.04999999999,"N_COORD97":2542586.9300000002,"ADDRESS":"七甲五街１０２巷３９弄２５號","OBJECTID":56410},"geometry":{"x":177132.04999999981,"y":2542586.9300000034}},{"attributes":{"ID":56411,"DIS_CODE":0,"TOWNNAME":"歸仁區","LI":"七甲里","LIN":"1鄰","STREET":"七甲五街","SECT":" ","MAREA":" ","LANE":"１０２巷","ALLEY":"３９弄","HOUSE_NO":"４６號","E_COORD97":177117.64999999999,"N_COORD97":2542572.9300000002,"ADDRESS":"七甲五街１０２巷３９弄４６號","OBJECTID":56411},"geometry":{"x":177117.6500000013,"y":2542572.9299999997}},{"attributes":{"ID":56412,"DIS_CODE":0,"TOWNNAME":"學甲區","LI":"中洲里","LIN":"1鄰","STREET":" ","SECT":" ","MAREA":"中洲","LANE":" ","ALLEY":" ","HOUSE_NO":"２號之１８","E_COORD97":164406.41,"N_COORD97":2571225.96,"ADDRESS":"中洲２號之１８","OBJECTID":56412},"geometry":{"x":164406.41000000015,"y":2571225.9600000009}},{"attributes":{"ID":56413,"DIS_CODE":0,"TOWNNAME":"學甲區","LI":"中洲里","LIN":"1鄰","STREET":" ","SECT":" ","MAREA":"中洲","LANE":" ","ALLEY":" ","HOUSE_NO":"２號之１９","E_COORD97":164408.81,"N_COORD97":2571215.0299999998,"ADDRESS":"中洲２號之１９","OBJECTID":56413},"geometry":{"x":164408.81000000052,"y":2571215.0300000012}},{"attributes":{"ID":56414,"DIS_CODE":0,"TOWNNAME":"仁德區","LI":"保安里","LIN":"8鄰","STREET":"文賢路","SECT":"一段","MAREA":" ","LANE":" ","ALLEY":" ","HOUSE_NO":"７８５號","E_COORD97":171562.42000000001,"N_COORD97":2536140.3199999998,"ADDRESS":"文賢路一段７８５號","OBJECTID":56414},"geometry":{"x":171562.42000000086,"y":2536140.3200000022}},{"attributes":{"ID":56415,"DIS_CODE":0,"TOWNNAME":"學甲區","LI":"中洲里","LIN":"1鄰","STREET":" ","SECT":" ","MAREA":"中洲","LANE":" ","ALLEY":" ","HOUSE_NO":"２號之１","E_COORD97":164368.98000000001,"N_COORD97":2570941.4700000002,"ADDRESS":"中洲２號之１","OBJECTID":56415},"geometry":{"x":164368.98000000045,"y":2570941.4700000044}},{"attributes":{"ID":56416,"DIS_CODE":0,"TOWNNAME":"學甲區","LI":"中洲里","LIN":"1鄰","STREET":" ","SECT":" ","MAREA":"中洲","LANE":" ","ALLEY":" ","HOUSE_NO":"２號","E_COORD97":164183.62,"N_COORD97":2570968.3599999999,"ADDRESS":"中洲２號","OBJECTID":56416},"geometry":{"x":164183.62000000104,"y":2570968.3600000013}},{"attributes":{"ID":56417,"DIS_CODE":0,"TOWNNAME":"學甲區","LI":"中洲里","LIN":"1鄰","STREET":" ","SECT":" ","MAREA":"中洲","LANE":" ","ALLEY":" ","HOUSE_NO":"５號之１１","E_COORD97":164117.20999999999,"N_COORD97":2571337.6299999999,"ADDRESS":"中洲５號之１１","OBJECTID":56417},"geometry":{"x":164117.20999999996,"y":2571337.629999999}},{"attributes":{"ID":56418,"DIS_CODE":0,"TOWNNAME":"仁德區","LI":"後壁里","LIN":"8鄰","STREET":"民安路","SECT":"二段","MAREA":" ","LANE":" ","ALLEY":" ","HOUSE_NO":"１４０號","E_COORD97":173686.57999999999,"N_COORD97":2539043.3100000001,"ADDRESS":"民安路二段１４０號","OBJECTID":56418},"geometry":{"x":173686.58000000194,"y":2539043.3100000024}},{"attributes":{"ID":56419,"DIS_CODE":0,"TOWNNAME":"玉井區","LI":"玉田里","LIN":" ","STREET":"民族路","SECT":" ","MAREA":" ","LANE":" ","ALLEY":" ","HOUSE_NO":"１０號","E_COORD97":194965.13,"N_COORD97":2558099.2799999998,"ADDRESS":"民族路１０號","OBJECTID":56419},"geometry":{"x":194965.12999999989,"y":2558099.2800000012}},{"attributes":{"ID":56420,"DIS_CODE":0,"TOWNNAME":"歸仁區","LI":"七甲里","LIN":"1鄰","STREET":"七甲五街","SECT":" ","MAREA":" ","LANE":"１０２巷","ALLEY":"３９弄","HOUSE_NO":"２２號","E_COORD97":177125.95000000001,"N_COORD97":2542611.9300000002,"ADDRESS":"七甲五街１０２巷３９弄２２號","OBJECTID":56420},"geometry":{"x":177125.95000000112,"y":2542611.9300000016}},{"attributes":{"ID":56421,"DIS_CODE":0,"TOWNNAME":"歸仁區","LI":"七甲里","LIN":"1鄰","STREET":"七甲五街","SECT":" ","MAREA":" ","LANE":"１０２巷","ALLEY":"３９弄","HOUSE_NO":"３５號","E_COORD97":177154.54999999999,"N_COORD97":2542578.9300000002,"ADDRESS":"七甲五街１０２巷３９弄３５號","OBJECTID":56421},"geometry":{"x":177154.54999999981,"y":2542578.9299999997}},{"attributes":{"ID":56422,"DIS_CODE":0,"TOWNNAME":"歸仁區","LI":"七甲里","LIN":"1鄰","STREET":"七甲五街","SECT":" ","MAREA":" ","LANE":"１０２巷","ALLEY":"３９弄","HOUSE_NO":"４０號","E_COORD97":177118.64999999999,"N_COORD97":2542580.9300000002,"ADDRESS":"七甲五街１０２巷３９弄４０號","OBJECTID":56422},"geometry":{"x":177118.65000000037,"y":2542580.9300000016}},{"attributes":{"ID":56423,"DIS_CODE":0,"TOWNNAME":"歸仁區","LI":"大潭里","LIN":"1鄰","STREET":"中正南路","SECT":"三段","MAREA":" ","LANE":"９５巷","ALLEY":"３０弄","HOUSE_NO":"１號","E_COORD97":175403.91,"N_COORD97":2535003.2799999998,"ADDRESS":"中正南路三段９５巷３０弄１號","OBJECTID":56423},"geometry":{"x":175403.91000000108,"y":2535003.2800000031}},{"attributes":{"ID":56424,"DIS_CODE":0,"TOWNNAME":"北區","LI":"六甲里","LIN":"13鄰","STREET":"公園路","SECT":" ","MAREA":" ","LANE":"５０９巷","ALLEY":"１０弄","HOUSE_NO":"１８號","E_COORD97":168997.89000000001,"N_COORD97":2545587.6200000001,"ADDRESS":"公園路５０９巷１０弄１８號","OBJECTID":56424},"geometry":{"x":168997.88999999966,"y":2545587.6200000048}},{"attributes":{"ID":56425,"DIS_CODE":0,"TOWNNAME":"歸仁區","LI":"大潭里","LIN":"1鄰","STREET":"中正南路","SECT":"三段","MAREA":" ","LANE":"９５巷","ALLEY":"３０弄","HOUSE_NO":"７３號","E_COORD97":175395.26000000001,"N_COORD97":2534870.2799999998,"ADDRESS":"中正南路三段９５巷３０弄７３號","OBJECTID":56425},"geometry":{"x":175395.25999999978,"y":2534870.2799999993}},{"attributes":{"ID":56426,"DIS_CODE":0,"TOWNNAME":"歸仁區","LI":"七甲里","LIN":"1鄰","STREET":"中正北路","SECT":"二段","MAREA":" ","LANE":"７５巷","ALLEY":"３８弄","HOUSE_NO":"２０６號","E_COORD97":177156.31,"N_COORD97":2542410.25,"ADDRESS":"中正北路二段７５巷３８弄２０６號","OBJECTID":56426},"geometry":{"x":177156.31000000145,"y":2542410.2500000019}},{"attributes":{"ID":56427,"DIS_CODE":0,"TOWNNAME":"歸仁區","LI":"七甲里","LIN":"1鄰","STREET":"七甲五街","SECT":" ","MAREA":" ","LANE":"１０２巷","ALLEY":"３９弄","HOUSE_NO":"１９號","E_COORD97":177135.14999999999,"N_COORD97":2542599.9300000002,"ADDRESS":"七甲五街１０２巷３９弄１９號","OBJECTID":56427},"geometry":{"x":177135.1500000013,"y":2542599.9299999997}},{"attributes":{"ID":56428,"DIS_CODE":0,"TOWNNAME":"歸仁區","LI":"七甲里","LIN":"1鄰","STREET":"中正北路","SECT":"二段","MAREA":" ","LANE":"７５巷","ALLEY":"３８弄","HOUSE_NO":"２５５號","E_COORD97":177139.70999999999,"N_COORD97":2542357.25,"ADDRESS":"中正北路二段７５巷３８弄２５５號","OBJECTID":56428},"geometry":{"x":177139.70999999996,"y":2542357.25}},{"attributes":{"ID":56429,"DIS_CODE":0,"TOWNNAME":"北區","LI":"公園里","LIN":" ","STREET":"成功路","SECT":" ","MAREA":" ","LANE":"２２巷","ALLEY":"１８弄","HOUSE_NO":"２２號","E_COORD97":168921.54999999999,"N_COORD97":2544329.75,"ADDRESS":"成功路２２巷１８弄２２號","OBJECTID":56429},"geometry":{"x":168921.55000000075,"y":2544329.75}},{"attributes":{"ID":56430,"DIS_CODE":0,"TOWNNAME":"北區","LI":"公園里","LIN":" ","STREET":"成功路","SECT":" ","MAREA":" ","LANE":"２２巷","ALLEY":"１８弄","HOUSE_NO":"７４號","E_COORD97":169010.20000000001,"N_COORD97":2544330.52,"ADDRESS":"成功路２２巷１８弄７４號","OBJECTID":56430},"geometry":{"x":169010.20000000019,"y":2544330.5199999996}},{"attributes":{"ID":56431,"DIS_CODE":0,"TOWNNAME":"歸仁區","LI":"大廟里","LIN":"1鄰","STREET":"大廟三街","SECT":" ","MAREA":" ","LANE":"２０巷","ALLEY":"１２弄","HOUSE_NO":"８號","E_COORD97":176037.16,"N_COORD97":2544038.8900000001,"ADDRESS":"大廟三街２０巷１２弄８號","OBJECTID":56431},"geometry":{"x":176037.16000000015,"y":2544038.8900000006}},{"attributes":{"ID":56432,"DIS_CODE":0,"TOWNNAME":"北區","LI":"和順里","LIN":"1鄰","STREET":"民德路","SECT":" ","MAREA":" ","LANE":"５８巷","ALLEY":"３４弄","HOUSE_NO":"２號","E_COORD97":168304.20999999999,"N_COORD97":2545342.5800000001,"ADDRESS":"民德路５８巷３４弄２號","OBJECTID":56432},"geometry":{"x":168304.21000000089,"y":2545342.5800000038}},{"attributes":{"ID":56433,"DIS_CODE":0,"TOWNNAME":"北區","LI":"和順里","LIN":"1鄰","STREET":"民德路","SECT":" ","MAREA":" ","LANE":"５８巷","ALLEY":"３４弄","HOUSE_NO":"６號","E_COORD97":168310.70999999999,"N_COORD97":2545338.8900000001,"ADDRESS":"民德路５８巷３４弄６號","OBJECTID":56433},"geometry":{"x":168310.71000000089,"y":2545338.8900000025}},{"attributes":{"ID":56434,"DIS_CODE":0,"TOWNNAME":"北區","LI":"和順里","LIN":"1鄰","STREET":"民德路","SECT":" ","MAREA":" ","LANE":"５８巷","ALLEY":"３４弄","HOUSE_NO":"８號","E_COORD97":168316.32000000001,"N_COORD97":2545336.27,"ADDRESS":"民德路５８巷３４弄８號","OBJECTID":56434},"geometry":{"x":168316.3200000003,"y":2545336.2699999996}},{"attributes":{"ID":56435,"DIS_CODE":0,"TOWNNAME":"北區","LI":"東興里","LIN":"1鄰","STREET":"小東路","SECT":" ","MAREA":" ","LANE":"１４７巷","ALLEY":"２２弄","HOUSE_NO":"１０號","E_COORD97":170802.54000000001,"N_COORD97":2544600.8900000001,"ADDRESS":"小東路１４７巷２２弄１０號","OBJECTID":56435},"geometry":{"x":170802.54000000004,"y":2544600.8900000006}},{"attributes":{"ID":56436,"DIS_CODE":0,"TOWNNAME":"北區","LI":"東興里","LIN":"1鄰","STREET":"小東路","SECT":" ","MAREA":" ","LANE":"１４７巷","ALLEY":"２２弄","HOUSE_NO":"１１號","E_COORD97":170807.01000000001,"N_COORD97":2544599.23,"ADDRESS":"小東路１４７巷２２弄１１號","OBJECTID":56436},"geometry":{"x":170807.01000000071,"y":2544599.2300000004}},{"attributes":{"ID":56437,"DIS_CODE":0,"TOWNNAME":"北區","LI":"東興里","LIN":"1鄰","STREET":"小東路","SECT":" ","MAREA":" ","LANE":"１４７巷","ALLEY":"２２弄","HOUSE_NO":"１２號","E_COORD97":170812.26999999999,"N_COORD97":2544594.0800000001,"ADDRESS":"小東路１４７巷２２弄１２號","OBJECTID":56437},"geometry":{"x":170812.26999999955,"y":2544594.0800000019}},{"attributes":{"ID":56438,"DIS_CODE":0,"TOWNNAME":"北區","LI":"東興里","LIN":"1鄰","STREET":"小東路","SECT":" ","MAREA":" ","LANE":"１４７巷","ALLEY":"２２弄","HOUSE_NO":"１３號","E_COORD97":170809.25,"N_COORD97":2544576.9700000002,"ADDRESS":"小東路１４７巷２２弄１３號","OBJECTID":56438},"geometry":{"x":170809.25000000093,"y":2544576.9700000007}},{"attributes":{"ID":56439,"DIS_CODE":0,"TOWNNAME":"北區","LI":"東興里","LIN":"1鄰","STREET":"小東路","SECT":" ","MAREA":" ","LANE":"１４７巷","ALLEY":"２２弄","HOUSE_NO":"１４號","E_COORD97":170804.78,"N_COORD97":2544578.7200000002,"ADDRESS":"小東路１４７巷２２弄１４號","OBJECTID":56439},"geometry":{"x":170804.78000000026,"y":2544578.7200000007}},{"attributes":{"ID":56440,"DIS_CODE":0,"TOWNNAME":"北區","LI":"東興里","LIN":"1鄰","STREET":"小東路","SECT":" ","MAREA":" ","LANE":"１４７巷","ALLEY":"２２弄","HOUSE_NO":"１５號","E_COORD97":170800.69,"N_COORD97":2544580.4700000002,"ADDRESS":"小東路１４７巷２２弄１５號","OBJECTID":56440},"geometry":{"x":170800.69000000041,"y":2544580.4700000007}},{"attributes":{"ID":56441,"DIS_CODE":0,"TOWNNAME":"北區","LI":"東興里","LIN":"1鄰","STREET":"小東路","SECT":" ","MAREA":" ","LANE":"１４７巷","ALLEY":"２２弄","HOUSE_NO":"１６號","E_COORD97":170796.22,"N_COORD97":2544582.0299999998,"ADDRESS":"小東路１４７巷２２弄１６號","OBJECTID":56441},"geometry":{"x":170796.21999999974,"y":2544582.0299999993}},{"attributes":{"ID":56442,"DIS_CODE":0,"TOWNNAME":"北區","LI":"東興里","LIN":"1鄰","STREET":"小東路","SECT":" ","MAREA":" ","LANE":"１４７巷","ALLEY":"２２弄","HOUSE_NO":"１７號","E_COORD97":170792.13,"N_COORD97":2544583.5800000001,"ADDRESS":"小東路１４７巷２２弄１７號","OBJECTID":56442},"geometry":{"x":170792.12999999989,"y":2544583.5800000019}},{"attributes":{"ID":56443,"DIS_CODE":0,"TOWNNAME":"北區","LI":"東興里","LIN":"1鄰","STREET":"小東路","SECT":" ","MAREA":" ","LANE":"１４７巷","ALLEY":"２２弄","HOUSE_NO":"１８號","E_COORD97":170787.45999999999,"N_COORD97":2544584.3599999999,"ADDRESS":"小東路１４７巷２２弄１８號","OBJECTID":56443},"geometry":{"x":170787.46000000089,"y":2544584.3600000013}},{"attributes":{"ID":56444,"DIS_CODE":0,"TOWNNAME":"北區","LI":"東興里","LIN":"1鄰","STREET":"小東路","SECT":" ","MAREA":" ","LANE":"１４７巷","ALLEY":"２２弄","HOUSE_NO":"１９號","E_COORD97":170782.29999999999,"N_COORD97":2544585.9199999999,"ADDRESS":"小東路１４７巷２２弄１９號","OBJECTID":56444},"geometry":{"x":170782.29999999981,"y":2544585.9199999999}},{"attributes":{"ID":56445,"DIS_CODE":0,"TOWNNAME":"北區","LI":"東興里","LIN":"1鄰","STREET":"小東路","SECT":" ","MAREA":" ","LANE":"１４７巷","ALLEY":"２２弄","HOUSE_NO":"１號","E_COORD97":170762.54999999999,"N_COORD97":2544579.8900000001,"ADDRESS":"小東路１４７巷２２弄１號","OBJECTID":56445},"geometry":{"x":170762.55000000075,"y":2544579.8900000025}},{"attributes":{"ID":56446,"DIS_CODE":0,"TOWNNAME":"仁德區","LI":"後壁里","LIN":"8鄰","STREET":"民安路","SECT":"二段","MAREA":" ","LANE":" ","ALLEY":" ","HOUSE_NO":"１４６號","E_COORD97":173694.57000000001,"N_COORD97":2539032.0600000001,"ADDRESS":"民安路二段１４６號","OBJECTID":56446},"geometry":{"x":173694.5700000003,"y":2539032.0600000005}},{"attributes":{"ID":56447,"DIS_CODE":0,"TOWNNAME":"仁德區","LI":"後壁里","LIN":"8鄰","STREET":"德善二街","SECT":" ","MAREA":" ","LANE":" ","ALLEY":" ","HOUSE_NO":"６７號","E_COORD97":173677.26999999999,"N_COORD97":2538993.77,"ADDRESS":"德善二街６７號","OBJECTID":56447},"geometry":{"x":173677.26999999955,"y":2538993.7699999977}},{"attributes":{"ID":56448,"DIS_CODE":0,"TOWNNAME":"學甲區","LI":"中洲里","LIN":"1鄰","STREET":" ","SECT":" ","MAREA":"中洲","LANE":" ","ALLEY":" ","HOUSE_NO":"５號之１","E_COORD97":164015.89000000001,"N_COORD97":2571325.5499999998,"ADDRESS":"中洲５號之１","OBJECTID":56448},"geometry":{"x":164015.88999999966,"y":2571325.5500000026}},{"attributes":{"ID":56449,"DIS_CODE":0,"TOWNNAME":"學甲區","LI":"中洲里","LIN":"1鄰","STREET":" ","SECT":" ","MAREA":"中洲","LANE":" ","ALLEY":" ","HOUSE_NO":"６號之１","E_COORD97":164035.92000000001,"N_COORD97":2571378.3399999999,"ADDRESS":"中洲６號之１","OBJECTID":56449},"geometry":{"x":164035.92000000086,"y":2571378.3399999999}},{"attributes":{"ID":56450,"DIS_CODE":0,"TOWNNAME":"北區","LI":"東興里","LIN":"1鄰","STREET":"小東路","SECT":" ","MAREA":" ","LANE":"１４７巷","ALLEY":"２２弄","HOUSE_NO":"２０號","E_COORD97":170778.79999999999,"N_COORD97":2544571.75,"ADDRESS":"小東路１４７巷２２弄２０號","OBJECTID":56450},"geometry":{"x":170778.79999999981,"y":2544571.7500000037}},{"attributes":{"ID":56451,"DIS_CODE":0,"TOWNNAME":"北區","LI":"東興里","LIN":"1鄰","STREET":"小東路","SECT":" ","MAREA":" ","LANE":"１４７巷","ALLEY":"２２弄","HOUSE_NO":"２１號","E_COORD97":170785.03,"N_COORD97":2544569.8999999999,"ADDRESS":"小東路１４７巷２２弄２１號","OBJECTID":56451},"geometry":{"x":170785.03000000212,"y":2544569.9000000004}},{"attributes":{"ID":56452,"DIS_CODE":0,"TOWNNAME":"北區","LI":"東興里","LIN":"1鄰","STREET":"小東路","SECT":" ","MAREA":" ","LANE":"１４７巷","ALLEY":"２２弄","HOUSE_NO":"２２號","E_COORD97":170790.28,"N_COORD97":2544567.6699999999,"ADDRESS":"小東路１４７巷２２弄２２號","OBJECTID":56452},"geometry":{"x":170790.28000000119,"y":2544567.6699999999}},{"attributes":{"ID":56453,"DIS_CODE":0,"TOWNNAME":"北區","LI":"東興里","LIN":"1鄰","STREET":"小東路","SECT":" ","MAREA":" ","LANE":"１４７巷","ALLEY":"２２弄","HOUSE_NO":"２３號","E_COORD97":170795.63,"N_COORD97":2544566.5,"ADDRESS":"小東路１４７巷２２弄２３號","OBJECTID":56453},"geometry":{"x":170795.62999999989,"y":2544566.4999999981}},{"attributes":{"ID":56454,"DIS_CODE":0,"TOWNNAME":"北區","LI":"東興里","LIN":"1鄰","STREET":"小東路","SECT":" ","MAREA":" ","LANE":"１４７巷","ALLEY":"２２弄","HOUSE_NO":"２４號","E_COORD97":170800.20000000001,"N_COORD97":2544564.8500000001,"ADDRESS":"小東路１４７巷２２弄２４號","OBJECTID":56454},"geometry":{"x":170800.20000000019,"y":2544564.8500000015}},{"attributes":{"ID":56455,"DIS_CODE":0,"TOWNNAME":"北區","LI":"東興里","LIN":"1鄰","STREET":"小東路","SECT":" ","MAREA":" ","LANE":"１４７巷","ALLEY":"２２弄","HOUSE_NO":"２５號","E_COORD97":170804.57999999999,"N_COORD97":2544563.29,"ADDRESS":"小東路１４７巷２２弄２５號","OBJECTID":56455},"geometry":{"x":170804.58000000007,"y":2544563.2899999991}},{"attributes":{"ID":56456,"DIS_CODE":0,"TOWNNAME":"北區","LI":"東興里","LIN":"1鄰","STREET":"小東路","SECT":" ","MAREA":" ","LANE":"１４７巷","ALLEY":"２２弄","HOUSE_NO":"２６號","E_COORD97":170789.5,"N_COORD97":2544547.4500000002,"ADDRESS":"小東路１４７巷２２弄２６號","OBJECTID":56456},"geometry":{"x":170789.5,"y":2544547.4500000011}},{"attributes":{"ID":56457,"DIS_CODE":0,"TOWNNAME":"北區","LI":"東興里","LIN":"1鄰","STREET":"小東路","SECT":" ","MAREA":" ","LANE":"１４７巷","ALLEY":"２２弄","HOUSE_NO":"２７號","E_COORD97":170784.25,"N_COORD97":2544549.4900000002,"ADDRESS":"小東路１４７巷２２弄２７號","OBJECTID":56457},"geometry":{"x":170784.25,"y":2544549.4900000002}},{"attributes":{"ID":56458,"DIS_CODE":0,"TOWNNAME":"北區","LI":"東興里","LIN":"1鄰","STREET":"小東路","SECT":" ","MAREA":" ","LANE":"１４７巷","ALLEY":"２２弄","HOUSE_NO":"２８號","E_COORD97":170778.79999999999,"N_COORD97":2544552.02,"ADDRESS":"小東路１４７巷２２弄２８號","OBJECTID":56458},"geometry":{"x":170778.79999999981,"y":2544552.0199999996}},{"attributes":{"ID":56459,"DIS_CODE":0,"TOWNNAME":"北區","LI":"東興里","LIN":"1鄰","STREET":"小東路","SECT":" ","MAREA":" ","LANE":"１４７巷","ALLEY":"２２弄","HOUSE_NO":"２９號","E_COORD97":170773.25,"N_COORD97":2544553.6699999999,"ADDRESS":"小東路１４７巷２２弄２９號","OBJECTID":56459},"geometry":{"x":170773.25000000093,"y":2544553.6699999999}},{"attributes":{"ID":56460,"DIS_CODE":0,"TOWNNAME":"學甲區","LI":"中洲里","LIN":"1鄰","STREET":" ","SECT":" ","MAREA":"中洲","LANE":" ","ALLEY":" ","HOUSE_NO":"６號","E_COORD97":164029.32999999999,"N_COORD97":2571350.0499999998,"ADDRESS":"中洲６號","OBJECTID":56460},"geometry":{"x":164029.33000000101,"y":2571350.0500000007}},{"attributes":{"ID":56461,"DIS_CODE":0,"TOWNNAME":"學甲區","LI":"中洲里","LIN":"1鄰","STREET":" ","SECT":" ","MAREA":"中洲","LANE":" ","ALLEY":" ","HOUSE_NO":"７號之１０","E_COORD97":164023.26999999999,"N_COORD97":2571428.52,"ADDRESS":"中洲７號之１０","OBJECTID":56461},"geometry":{"x":164023.26999999955,"y":2571428.5200000014}},{"attributes":{"ID":56462,"DIS_CODE":0,"TOWNNAME":"學甲區","LI":"中洲里","LIN":"1鄰","STREET":" ","SECT":" ","MAREA":"中洲","LANE":" ","ALLEY":" ","HOUSE_NO":"７號之１３","E_COORD97":164017.29999999999,"N_COORD97":2571449.3999999999,"ADDRESS":"中洲７號之１３","OBJECTID":56462},"geometry":{"x":164017.30000000168,"y":2571449.4000000004}},{"attributes":{"ID":56463,"DIS_CODE":0,"TOWNNAME":"學甲區","LI":"中洲里","LIN":"1鄰","STREET":" ","SECT":" ","MAREA":"中洲","LANE":" ","ALLEY":" ","HOUSE_NO":"７號之１６","E_COORD97":164020.69,"N_COORD97":2571463.0899999999,"ADDRESS":"中洲７號之１６","OBJECTID":56463},"geometry":{"x":164020.69000000134,"y":2571463.0900000017}},{"attributes":{"ID":56464,"DIS_CODE":0,"TOWNNAME":"學甲區","LI":"中洲里","LIN":"1鄰","STREET":" ","SECT":" ","MAREA":"中洲","LANE":" ","ALLEY":" ","HOUSE_NO":"７號之１","E_COORD97":164016.69,"N_COORD97":2571387.98,"ADDRESS":"中洲７號之１","OBJECTID":56464},"geometry":{"x":164016.69000000041,"y":2571387.9800000004}},{"attributes":{"ID":56465,"DIS_CODE":0,"TOWNNAME":"學甲區","LI":"中洲里","LIN":"1鄰","STREET":" ","SECT":" ","MAREA":"中洲","LANE":" ","ALLEY":" ","HOUSE_NO":"７號之２","E_COORD97":164016.98000000001,"N_COORD97":2571391.3700000001,"ADDRESS":"中洲７號之２","OBJECTID":56465},"geometry":{"x":164016.98000000138,"y":2571391.3700000029}},{"attributes":{"ID":56466,"DIS_CODE":0,"TOWNNAME":"學甲區","LI":"中洲里","LIN":"1鄰","STREET":" ","SECT":" ","MAREA":"中洲","LANE":" ","ALLEY":" ","HOUSE_NO":"７號之３","E_COORD97":164016.85000000001,"N_COORD97":2571396.6400000001,"ADDRESS":"中洲７號之３","OBJECTID":56466},"geometry":{"x":164016.85000000056,"y":2571396.6400000006}},{"attributes":{"ID":56467,"DIS_CODE":0,"TOWNNAME":"學甲區","LI":"中洲里","LIN":"1鄰","STREET":" ","SECT":" ","MAREA":"中洲","LANE":" ","ALLEY":" ","HOUSE_NO":"７號之４","E_COORD97":164016.76000000001,"N_COORD97":2571400.8599999999,"ADDRESS":"中洲７號之４","OBJECTID":56467},"geometry":{"x":164016.75999999978,"y":2571400.8599999994}},{"attributes":{"ID":56468,"DIS_CODE":0,"TOWNNAME":"學甲區","LI":"中洲里","LIN":"1鄰","STREET":" ","SECT":" ","MAREA":"中洲","LANE":" ","ALLEY":" ","HOUSE_NO":"７號之５","E_COORD97":164017.22,"N_COORD97":2571405.4399999999,"ADDRESS":"中洲７號之５","OBJECTID":56468},"geometry":{"x":164017.21999999974,"y":2571405.4400000013}},{"attributes":{"ID":56469,"DIS_CODE":0,"TOWNNAME":"學甲區","LI":"中洲里","LIN":"1鄰","STREET":" ","SECT":" ","MAREA":"中洲","LANE":" ","ALLEY":" ","HOUSE_NO":"７號之６","E_COORD97":164016.92999999999,"N_COORD97":2571409.1899999999,"ADDRESS":"中洲７號之６","OBJECTID":56469},"geometry":{"x":164016.93000000063,"y":2571409.1899999995}},{"attributes":{"ID":56470,"DIS_CODE":0,"TOWNNAME":"學甲區","LI":"中洲里","LIN":"1鄰","STREET":" ","SECT":" ","MAREA":"中洲","LANE":" ","ALLEY":" ","HOUSE_NO":"７號之７","E_COORD97":164017.20999999999,"N_COORD97":2571413.8100000001,"ADDRESS":"中洲７號之７","OBJECTID":56470},"geometry":{"x":164017.20999999996,"y":2571413.8100000042}},{"attributes":{"ID":56471,"DIS_CODE":0,"TOWNNAME":"學甲區","LI":"中洲里","LIN":"1鄰","STREET":" ","SECT":" ","MAREA":"中洲","LANE":" ","ALLEY":" ","HOUSE_NO":"７號之８","E_COORD97":164017.04000000001,"N_COORD97":2571417.9900000002,"ADDRESS":"中洲７號之８","OBJECTID":56471},"geometry":{"x":164017.04000000004,"y":2571417.9900000002}},{"attributes":{"ID":56472,"DIS_CODE":0,"TOWNNAME":"學甲區","LI":"中洲里","LIN":"1鄰","STREET":" ","SECT":" ","MAREA":"中洲","LANE":" ","ALLEY":" ","HOUSE_NO":"９號之１","E_COORD97":164050.82000000001,"N_COORD97":2571419.54,"ADDRESS":"中洲９號之１","OBJECTID":56472},"geometry":{"x":164050.8200000003,"y":2571419.5399999991}},{"attributes":{"ID":56473,"DIS_CODE":0,"TOWNNAME":"玉井區","LI":"豐里里","LIN":"1鄰","STREET":" ","SECT":" ","MAREA":"豐里","LANE":" ","ALLEY":" ","HOUSE_NO":"１０號","E_COORD97":193241.37,"N_COORD97":2558118.25,"ADDRESS":"豐里１０號","OBJECTID":56473},"geometry":{"x":193241.37000000011,"y":2558118.25}},{"attributes":{"ID":56474,"DIS_CODE":0,"TOWNNAME":"永康區","LI":"北灣里","LIN":"8鄰","STREET":"大同街","SECT":" ","MAREA":" ","LANE":" ","ALLEY":" ","HOUSE_NO":"１３６號","E_COORD97":174984.70999999999,"N_COORD97":2545549.7400000002,"ADDRESS":"大同街１３６號","OBJECTID":56474},"geometry":{"x":174984.71000000089,"y":2545549.7400000021}},{"attributes":{"ID":56475,"DIS_CODE":0,"TOWNNAME":"永康區","LI":"北灣里","LIN":"8鄰","STREET":"大同街","SECT":" ","MAREA":" ","LANE":" ","ALLEY":" ","HOUSE_NO":"１２２號","E_COORD97":175013.51000000001,"N_COORD97":2545533.8599999999,"ADDRESS":"大同街１２２號","OBJECTID":56475},"geometry":{"x":175013.50999999978,"y":2545533.8600000013}},{"attributes":{"ID":56476,"DIS_CODE":0,"TOWNNAME":"永康區","LI":"大橋里","LIN":"8鄰","STREET":"大橋三街","SECT":" ","MAREA":" ","LANE":" ","ALLEY":" ","HOUSE_NO":"２５３號之１","E_COORD97":171006.20999999999,"N_COORD97":2546873.5,"ADDRESS":"大橋三街２５３號之１","OBJECTID":56476},"geometry":{"x":171006.21000000089,"y":2546873.5000000019}},{"attributes":{"ID":56477,"DIS_CODE":0,"TOWNNAME":"永康區","LI":"大橋里","LIN":"8鄰","STREET":"大橋三街","SECT":" ","MAREA":" ","LANE":" ","ALLEY":" ","HOUSE_NO":"２２７號","E_COORD97":170929.23000000001,"N_COORD97":2546825.2799999998,"ADDRESS":"大橋三街２２７號","OBJECTID":56477},"geometry":{"x":170929.23000000045,"y":2546825.2799999975}},{"attributes":{"ID":56478,"DIS_CODE":0,"TOWNNAME":"永康區","LI":"大橋里","LIN":"8鄰","STREET":"大橋三街","SECT":" ","MAREA":" ","LANE":" ","ALLEY":" ","HOUSE_NO":"２３７號","E_COORD97":170963.82999999999,"N_COORD97":2546847.7799999998,"ADDRESS":"大橋三街２３７號","OBJECTID":56478},"geometry":{"x":170963.83000000007,"y":2546847.7799999993}},{"attributes":{"ID":56479,"DIS_CODE":0,"TOWNNAME":"永康區","LI":"二王里","LIN":"8鄰","STREET":"中山南路","SECT":" ","MAREA":" ","LANE":" ","ALLEY":" ","HOUSE_NO":"８２８號","E_COORD97":172890.51999999999,"N_COORD97":2546830.3500000001,"ADDRESS":"中山南路８２８號","OBJECTID":56479},"geometry":{"x":172890.52000000048,"y":2546830.3500000015}},{"attributes":{"ID":56480,"DIS_CODE":0,"TOWNNAME":"永康區","LI":"大灣里","LIN":"8鄰","STREET":"大安街","SECT":" ","MAREA":" ","LANE":" ","ALLEY":" ","HOUSE_NO":"３０６號","E_COORD97":174702.54999999999,"N_COORD97":2545518.3599999999,"ADDRESS":"大安街３０６號","OBJECTID":56480},"geometry":{"x":174702.55000000075,"y":2545518.3599999994}},{"attributes":{"ID":56481,"DIS_CODE":0,"TOWNNAME":"安南區","LI":"溪心里","LIN":"8鄰","STREET":"海佃路","SECT":"二段","MAREA":" ","LANE":" ","ALLEY":" ","HOUSE_NO":"８００號","E_COORD97":166443.72,"N_COORD97":2549664.6699999999,"ADDRESS":"海佃路二段８００號","OBJECTID":56481},"geometry":{"x":166443.72000000067,"y":2549664.6700000037}},{"attributes":{"ID":56482,"DIS_CODE":0,"TOWNNAME":"玉井區","LI":"豐里里","LIN":"1鄰","STREET":" ","SECT":" ","MAREA":"豐里","LANE":" ","ALLEY":" ","HOUSE_NO":"３號","E_COORD97":193198.51000000001,"N_COORD97":2558015.25,"ADDRESS":"豐里３號","OBJECTID":56482},"geometry":{"x":193198.51000000164,"y":2558015.2500000019}},{"attributes":{"ID":56483,"DIS_CODE":0,"TOWNNAME":"玉井區","LI":"豐里里","LIN":"1鄰","STREET":" ","SECT":" ","MAREA":"豐里","LANE":" ","ALLEY":" ","HOUSE_NO":"６號","E_COORD97":193241.82000000001,"N_COORD97":2558043.25,"ADDRESS":"豐里６號","OBJECTID":56483},"geometry":{"x":193241.8200000003,"y":2558043.2500000019}},{"attributes":{"ID":56484,"DIS_CODE":0,"TOWNNAME":"北區","LI":"東興里","LIN":"1鄰","STREET":"小東路","SECT":" ","MAREA":" ","LANE":"１４７巷","ALLEY":"２２弄","HOUSE_NO":"２號","E_COORD97":170766.44,"N_COORD97":2544584.2599999998,"ADDRESS":"小東路１４７巷２２弄２號","OBJECTID":56484},"geometry":{"x":170766.44000000041,"y":2544584.2599999998}},{"attributes":{"ID":56485,"DIS_CODE":0,"TOWNNAME":"北區","LI":"東興里","LIN":"1鄰","STREET":"小東路","SECT":" ","MAREA":" ","LANE":"１４７巷","ALLEY":"２２弄","HOUSE_NO":"３０號","E_COORD97":170768,"N_COORD97":2544555.0299999998,"ADDRESS":"小東路１４７巷２２弄３０號","OBJECTID":56485},"geometry":{"x":170768.00000000186,"y":2544555.0299999993}},{"attributes":{"ID":56486,"DIS_CODE":0,"TOWNNAME":"北區","LI":"東興里","LIN":"1鄰","STREET":"小東路","SECT":" ","MAREA":" ","LANE":"１４７巷","ALLEY":"２２弄","HOUSE_NO":"３１號","E_COORD97":170763.14000000001,"N_COORD97":2544557.0699999998,"ADDRESS":"小東路１４７巷２２弄３１號","OBJECTID":56486},"geometry":{"x":170763.13999999873,"y":2544557.0700000022}},{"attributes":{"ID":56487,"DIS_CODE":0,"TOWNNAME":"北區","LI":"東興里","LIN":"1鄰","STREET":"小東路","SECT":" ","MAREA":" ","LANE":"１４７巷","ALLEY":"２２弄","HOUSE_NO":"３２號","E_COORD97":170757.59,"N_COORD97":2544558.9199999999,"ADDRESS":"小東路１４７巷２２弄３２號","OBJECTID":56487},"geometry":{"x":170757.59000000078,"y":2544558.9199999999}},{"attributes":{"ID":56488,"DIS_CODE":0,"TOWNNAME":"北區","LI":"東興里","LIN":"1鄰","STREET":"小東路","SECT":" ","MAREA":" ","LANE":"１４７巷","ALLEY":"２２弄","HOUSE_NO":"３號","E_COORD97":170767.70999999999,"N_COORD97":2544589.2200000002,"ADDRESS":"小東路１４７巷２２弄３號","OBJECTID":56488},"geometry":{"x":170767.70999999996,"y":2544589.2200000007}},{"attributes":{"ID":56489,"DIS_CODE":0,"TOWNNAME":"北區","LI":"東興里","LIN":"1鄰","STREET":"小東路","SECT":" ","MAREA":" ","LANE":"１４７巷","ALLEY":"２２弄","HOUSE_NO":"５號","E_COORD97":170769.26999999999,"N_COORD97":2544593.21,"ADDRESS":"小東路１４７巷２２弄５號","OBJECTID":56489},"geometry":{"x":170769.27000000048,"y":2544593.209999999}},{"attributes":{"ID":56490,"DIS_CODE":0,"TOWNNAME":"北區","LI":"東興里","LIN":"1鄰","STREET":"小東路","SECT":" ","MAREA":" ","LANE":"１４７巷","ALLEY":"２２弄","HOUSE_NO":"６號","E_COORD97":170771.41,"N_COORD97":2544598.0699999998,"ADDRESS":"小東路１４７巷２２弄６號","OBJECTID":56490},"geometry":{"x":170771.41000000015,"y":2544598.0700000022}},{"attributes":{"ID":56491,"DIS_CODE":0,"TOWNNAME":"北區","LI":"東興里","LIN":"1鄰","STREET":"小東路","SECT":" ","MAREA":" ","LANE":"１４７巷","ALLEY":"２２弄","HOUSE_NO":"７號","E_COORD97":170787.17000000001,"N_COORD97":2544604.48,"ADDRESS":"小東路１４７巷２２弄７號","OBJECTID":56491},"geometry":{"x":170787.17000000179,"y":2544604.4800000042}},{"attributes":{"ID":56492,"DIS_CODE":0,"TOWNNAME":"北區","LI":"東興里","LIN":"1鄰","STREET":"小東路","SECT":" ","MAREA":" ","LANE":"１４７巷","ALLEY":"２２弄","HOUSE_NO":"８號","E_COORD97":170793.59,"N_COORD97":2544603.1200000001,"ADDRESS":"小東路１４７巷２２弄８號","OBJECTID":56492},"geometry":{"x":170793.58999999985,"y":2544603.120000001}},{"attributes":{"ID":56493,"DIS_CODE":0,"TOWNNAME":"北區","LI":"東興里","LIN":"1鄰","STREET":"小東路","SECT":" ","MAREA":" ","LANE":"１４７巷","ALLEY":"２２弄","HOUSE_NO":"９號","E_COORD97":170798.16,"N_COORD97":2544602.25,"ADDRESS":"小東路１４７巷２２弄９號","OBJECTID":56493},"geometry":{"x":170798.16000000108,"y":2544602.2500000037}},{"attributes":{"ID":56494,"DIS_CODE":0,"TOWNNAME":"北區","LI":"和順里","LIN":"1鄰","STREET":"民德路","SECT":" ","MAREA":" ","LANE":"９０巷","ALLEY":"９弄","HOUSE_NO":"１號","E_COORD97":168064.01999999999,"N_COORD97":2545283.4399999999,"ADDRESS":"民德路９０巷９弄１號","OBJECTID":56494},"geometry":{"x":168064.02000000048,"y":2545283.4400000013}},{"attributes":{"ID":56495,"DIS_CODE":0,"TOWNNAME":"北區","LI":"和順里","LIN":"1鄰","STREET":"民德路","SECT":" ","MAREA":" ","LANE":"９０巷","ALLEY":"９弄","HOUSE_NO":"２號","E_COORD97":168063.23999999999,"N_COORD97":2545298.79,"ADDRESS":"民德路９０巷９弄２號","OBJECTID":56495},"geometry":{"x":168063.24000000115,"y":2545298.7899999991}},{"attributes":{"ID":56496,"DIS_CODE":0,"TOWNNAME":"北區","LI":"和順里","LIN":"1鄰","STREET":"民德路","SECT":" ","MAREA":" ","LANE":"９０巷","ALLEY":"９弄","HOUSE_NO":"１０號","E_COORD97":168046.04000000001,"N_COORD97":2545298.79,"ADDRESS":"民德路９０巷９弄１０號","OBJECTID":56496},"geometry":{"x":168046.04000000097,"y":2545298.7899999991}},{"attributes":{"ID":56497,"DIS_CODE":0,"TOWNNAME":"北區","LI":"文元里","LIN":"18鄰","STREET":"文賢路","SECT":" ","MAREA":" ","LANE":"１０３０巷","ALLEY":"２４弄","HOUSE_NO":"４號","E_COORD97":167444.87,"N_COORD97":2546038.6099999999,"ADDRESS":"文賢路１０３０巷２４弄４號","OBJECTID":56497},"geometry":{"x":167444.87000000104,"y":2546038.6099999994}},{"attributes":{"ID":56498,"DIS_CODE":0,"TOWNNAME":"北區","LI":"文元里","LIN":"18鄰","STREET":"文賢路","SECT":" ","MAREA":" ","LANE":"１０３０巷","ALLEY":"２４弄","HOUSE_NO":"６號","E_COORD97":167445.47,"N_COORD97":2546034,"ADDRESS":"文賢路１０３０巷２４弄６號","OBJECTID":56498},"geometry":{"x":167445.47000000067,"y":2546034}},{"attributes":{"ID":56499,"DIS_CODE":0,"TOWNNAME":"北區","LI":"文元里","LIN":"18鄰","STREET":"文賢路","SECT":" ","MAREA":" ","LANE":"１０３０巷","ALLEY":"２４弄","HOUSE_NO":"８號","E_COORD97":167445.67000000001,"N_COORD97":2546028.9900000002,"ADDRESS":"文賢路１０３０巷２４弄８號","OBJECTID":56499},"geometry":{"x":167445.66999999993,"y":2546028.9900000021}},{"attributes":{"ID":56500,"DIS_CODE":0,"TOWNNAME":"北區","LI":"文元里","LIN":"18鄰","STREET":"文賢路","SECT":" ","MAREA":" ","LANE":"１０３０巷","ALLEY":"２４弄","HOUSE_NO":"１０號","E_COORD97":167440.07545999999,"N_COORD97":2546028.97107,"ADDRESS":"文賢路１０３０巷２４弄１０號","OBJECTID":56500},"geometry":{"x":167440.07545999996,"y":2546028.9710720014}},{"attributes":{"ID":56501,"DIS_CODE":0,"TOWNNAME":"北區","LI":"文元里","LIN":"18鄰","STREET":"文賢路","SECT":" ","MAREA":" ","LANE":"１０３０巷","ALLEY":"２４弄","HOUSE_NO":"１２號","E_COORD97":167432.87326399999,"N_COORD97":2546028.97107,"ADDRESS":"文賢路１０３０巷２４弄１２號","OBJECTID":56501},"geometry":{"x":167432.87326400075,"y":2546028.9710720014}},{"attributes":{"ID":56502,"DIS_CODE":0,"TOWNNAME":"北區","LI":"文元里","LIN":"14鄰","STREET":"文賢路","SECT":" ","MAREA":" ","LANE":"１０３０巷","ALLEY":"３弄","HOUSE_NO":"４２號","E_COORD97":167403.84,"N_COORD97":2546183.8599999999,"ADDRESS":"文賢路１０３０巷３弄４２號","OBJECTID":56502},"geometry":{"x":167403.83999999892,"y":2546183.8599999994}},{"attributes":{"ID":56503,"DIS_CODE":0,"TOWNNAME":"北區","LI":"文元里","LIN":"14鄰","STREET":"文賢路","SECT":" ","MAREA":" ","LANE":"１０３０巷","ALLEY":"３弄","HOUSE_NO":"４４號","E_COORD97":167402.26999999999,"N_COORD97":2546188.1299999999,"ADDRESS":"文賢路１０３０巷３弄４４號","OBJECTID":56503},"geometry":{"x":167402.26999999862,"y":2546188.129999999}},{"attributes":{"ID":56504,"DIS_CODE":0,"TOWNNAME":"玉井區","LI":"豐里里","LIN":"1鄰","STREET":" ","SECT":" ","MAREA":"豐里","LANE":" ","ALLEY":" ","HOUSE_NO":"１之２號","E_COORD97":193576.32000000001,"N_COORD97":2558030.2999999998,"ADDRESS":"豐里１之２號","OBJECTID":56504},"geometry":{"x":193576.3200000003,"y":2558030.3000000026}},{"attributes":{"ID":56505,"DIS_CODE":0,"TOWNNAME":"玉井區","LI":"豐里里","LIN":"1鄰","STREET":" ","SECT":" ","MAREA":"豐里","LANE":" ","ALLEY":" ","HOUSE_NO":"８號之３","E_COORD97":193232.54999999999,"N_COORD97":2558071.29,"ADDRESS":"豐里８號之３","OBJECTID":56505},"geometry":{"x":193232.55000000075,"y":2558071.2900000028}},{"attributes":{"ID":56506,"DIS_CODE":0,"TOWNNAME":"玉井區","LI":"沙田里","LIN":"1鄰","STREET":" ","SECT":" ","MAREA":"沙田","LANE":" ","ALLEY":" ","HOUSE_NO":"５之８號","E_COORD97":195511.51000000001,"N_COORD97":2557172.29,"ADDRESS":"沙田５之８號","OBJECTID":56506},"geometry":{"x":195511.50999999978,"y":2557172.2899999991}},{"attributes":{"ID":56507,"DIS_CODE":0,"TOWNNAME":"玉井區","LI":"豐里里","LIN":"1鄰","STREET":" ","SECT":" ","MAREA":"豐里","LANE":" ","ALLEY":" ","HOUSE_NO":"２之１２號","E_COORD97":193168.07000000001,"N_COORD97":2557960.29,"ADDRESS":"豐里２之１２號","OBJECTID":56507},"geometry":{"x":193168.07000000216,"y":2557960.290000001}},{"attributes":{"ID":56508,"DIS_CODE":0,"TOWNNAME":"玉井區","LI":"豐里里","LIN":"1鄰","STREET":" ","SECT":" ","MAREA":"豐里","LANE":" ","ALLEY":" ","HOUSE_NO":"１３號","E_COORD97":193238.37,"N_COORD97":2558134.25,"ADDRESS":"豐里１３號","OBJECTID":56508},"geometry":{"x":193238.37000000011,"y":2558134.2500000019}},{"attributes":{"ID":56509,"DIS_CODE":0,"TOWNNAME":"玉井區","LI":"沙田里","LIN":"1鄰","STREET":" ","SECT":" ","MAREA":"沙田","LANE":" ","ALLEY":" ","HOUSE_NO":"５號之５","E_COORD97":195583.91,"N_COORD97":2556666.2999999998,"ADDRESS":"沙田５號之５","OBJECTID":56509},"geometry":{"x":195583.91000000015,"y":2556666.3000000026}},{"attributes":{"ID":56510,"DIS_CODE":0,"TOWNNAME":"玉井區","LI":"望明里","LIN":"1鄰","STREET":" ","SECT":" ","MAREA":"望明","LANE":" ","ALLEY":" ","HOUSE_NO":"９號之１","E_COORD97":194457.23000000001,"N_COORD97":2556185.2999999998,"ADDRESS":"望明９號之１","OBJECTID":56510},"geometry":{"x":194457.23000000231,"y":2556185.3000000026}},{"attributes":{"ID":56511,"DIS_CODE":0,"TOWNNAME":"玉井區","LI":"沙田里","LIN":"1鄰","STREET":" ","SECT":" ","MAREA":"沙田","LANE":" ","ALLEY":" ","HOUSE_NO":"４號","E_COORD97":195486.12,"N_COORD97":2557190.29,"ADDRESS":"沙田４號","OBJECTID":56511},"geometry":{"x":195486.12000000011,"y":2557190.290000001}},{"attributes":{"ID":56512,"DIS_CODE":0,"TOWNNAME":"北區","LI":"文元里","LIN":"14鄰","STREET":"文賢路","SECT":" ","MAREA":" ","LANE":"１０３０巷","ALLEY":"３弄","HOUSE_NO":"４６號","E_COORD97":167402.51999999999,"N_COORD97":2546192.9199999999,"ADDRESS":"文賢路１０３０巷３弄４６號","OBJECTID":56512},"geometry":{"x":167402.52000000142,"y":2546192.9199999999}},{"attributes":{"ID":56513,"DIS_CODE":0,"TOWNNAME":"北區","LI":"光武里","LIN":"1鄰","STREET":"長榮路","SECT":"五段","MAREA":" ","LANE":"２５３巷","ALLEY":"１１弄","HOUSE_NO":"６號","E_COORD97":169898.51999999999,"N_COORD97":2545850.52,"ADDRESS":"長榮路五段２５３巷１１弄６號","OBJECTID":56513},"geometry":{"x":169898.52000000048,"y":2545850.5199999996}},{"attributes":{"ID":56514,"DIS_CODE":0,"TOWNNAME":"北區","LI":"光武里","LIN":"1鄰","STREET":"長榮路","SECT":"五段","MAREA":" ","LANE":"２５３巷","ALLEY":"１１弄","HOUSE_NO":"８號","E_COORD97":169903.04000000001,"N_COORD97":2545850.29,"ADDRESS":"長榮路五段２５３巷１１弄８號","OBJECTID":56514},"geometry":{"x":169903.03999999911,"y":2545850.290000001}},{"attributes":{"ID":56515,"DIS_CODE":0,"TOWNNAME":"學甲區","LI":"宅港里","LIN":"1鄰","STREET":" ","SECT":" ","MAREA":"宅子港","LANE":" ","ALLEY":" ","HOUSE_NO":"１號之１０","E_COORD97":168810.67000000001,"N_COORD97":2573307.9500000002,"ADDRESS":"宅子港１號之１０","OBJECTID":56515},"geometry":{"x":168810.67000000086,"y":2573307.9500000011}},{"attributes":{"ID":56516,"DIS_CODE":0,"TOWNNAME":"學甲區","LI":"宅港里","LIN":"1鄰","STREET":" ","SECT":" ","MAREA":"宅子港","LANE":" ","ALLEY":" ","HOUSE_NO":"１號之１","E_COORD97":168645.32999999999,"N_COORD97":2573142.3799999999,"ADDRESS":"宅子港１號之１","OBJECTID":56516},"geometry":{"x":168645.33000000101,"y":2573142.379999999}},{"attributes":{"ID":56517,"DIS_CODE":0,"TOWNNAME":"北區","LI":"光武里","LIN":"1鄰","STREET":"長榮路","SECT":"五段","MAREA":" ","LANE":"２５３巷","ALLEY":"１５弄","HOUSE_NO":"１號","E_COORD97":169883.56,"N_COORD97":2545823.9399999999,"ADDRESS":"長榮路五段２５３巷１５弄１號","OBJECTID":56517},"geometry":{"x":169883.55999999959,"y":2545823.9399999995}},{"attributes":{"ID":56518,"DIS_CODE":0,"TOWNNAME":"北區","LI":"光武里","LIN":"1鄰","STREET":"長榮路","SECT":"五段","MAREA":" ","LANE":"２５３巷","ALLEY":"１５弄","HOUSE_NO":"２號","E_COORD97":169895.67000000001,"N_COORD97":2545812.5499999998,"ADDRESS":"長榮路五段２５３巷１５弄２號","OBJECTID":56518},"geometry":{"x":169895.67000000086,"y":2545812.5500000026}},{"attributes":{"ID":56519,"DIS_CODE":0,"TOWNNAME":"北區","LI":"光武里","LIN":"1鄰","STREET":"長榮路","SECT":"五段","MAREA":" ","LANE":"２５３巷","ALLEY":"１５弄","HOUSE_NO":"３號","E_COORD97":169895.20000000001,"N_COORD97":2545823.71,"ADDRESS":"長榮路五段２５３巷１５弄３號","OBJECTID":56519},"geometry":{"x":169895.20000000019,"y":2545823.7100000009}},{"attributes":{"ID":56520,"DIS_CODE":0,"TOWNNAME":"北區","LI":"光武里","LIN":"1鄰","STREET":"長榮路","SECT":"五段","MAREA":" ","LANE":"２５３巷","ALLEY":"１５弄","HOUSE_NO":"４號","E_COORD97":169899.47,"N_COORD97":2545812.79,"ADDRESS":"長榮路五段２５３巷１５弄４號","OBJECTID":56520},"geometry":{"x":169899.46999999974,"y":2545812.790000001}},{"attributes":{"ID":56521,"DIS_CODE":0,"TOWNNAME":"北區","LI":"光武里","LIN":"1鄰","STREET":"長榮路","SECT":"五段","MAREA":" ","LANE":"２５３巷","ALLEY":"１５弄","HOUSE_NO":"５號","E_COORD97":169899.95000000001,"N_COORD97":2545823.4700000002,"ADDRESS":"長榮路五段２５３巷１５弄５號","OBJECTID":56521},"geometry":{"x":169899.95000000019,"y":2545823.4700000025}},{"attributes":{"ID":56522,"DIS_CODE":0,"TOWNNAME":"北區","LI":"光武里","LIN":"1鄰","STREET":"長榮路","SECT":"五段","MAREA":" ","LANE":"２５３巷","ALLEY":"１５弄","HOUSE_NO":"６號","E_COORD97":169903.98999999999,"N_COORD97":2545812.79,"ADDRESS":"長榮路五段２５３巷１５弄６號","OBJECTID":56522},"geometry":{"x":169903.99000000115,"y":2545812.790000001}},{"attributes":{"ID":56523,"DIS_CODE":0,"TOWNNAME":"學甲區","LI":"宅港里","LIN":"1鄰","STREET":" ","SECT":" ","MAREA":"宅子港","LANE":" ","ALLEY":" ","HOUSE_NO":"１號之２","E_COORD97":168701.82999999999,"N_COORD97":2573178.6499999999,"ADDRESS":"宅子港１號之２","OBJECTID":56523},"geometry":{"x":168701.83000000101,"y":2573178.6500000022}},{"attributes":{"ID":56524,"DIS_CODE":0,"TOWNNAME":"學甲區","LI":"宅港里","LIN":"1鄰","STREET":" ","SECT":" ","MAREA":"宅子港","LANE":" ","ALLEY":" ","HOUSE_NO":"１號之３","E_COORD97":168735.88,"N_COORD97":2573195.7400000002,"ADDRESS":"宅子港１號之３","OBJECTID":56524},"geometry":{"x":168735.87999999989,"y":2573195.7400000002}},{"attributes":{"ID":56525,"DIS_CODE":0,"TOWNNAME":"學甲區","LI":"宅港里","LIN":"1鄰","STREET":" ","SECT":" ","MAREA":"宅子港","LANE":" ","ALLEY":" ","HOUSE_NO":"１號之５","E_COORD97":168934.31,"N_COORD97":2573256.54,"ADDRESS":"宅子港１號之５","OBJECTID":56525},"geometry":{"x":168934.30999999959,"y":2573256.540000001}},{"attributes":{"ID":56526,"DIS_CODE":0,"TOWNNAME":"學甲區","LI":"宅港里","LIN":"1鄰","STREET":" ","SECT":" ","MAREA":"宅子港","LANE":" ","ALLEY":" ","HOUSE_NO":"１號之６","E_COORD97":168674.26000000001,"N_COORD97":2573201.9199999999,"ADDRESS":"宅子港１號之６","OBJECTID":56526},"geometry":{"x":168674.26000000071,"y":2573201.9199999999}},{"attributes":{"ID":56527,"DIS_CODE":0,"TOWNNAME":"北區","LI":"光武里","LIN":"1鄰","STREET":"長榮路","SECT":"五段","MAREA":" ","LANE":"２５３巷","ALLEY":"１５弄","HOUSE_NO":"７號","E_COORD97":169904.45999999999,"N_COORD97":2545823.9399999999,"ADDRESS":"長榮路五段２５３巷１５弄７號","OBJECTID":56527},"geometry":{"x":169904.46000000089,"y":2545823.9399999995}},{"attributes":{"ID":56528,"DIS_CODE":0,"TOWNNAME":"北區","LI":"光武里","LIN":"1鄰","STREET":"長榮路","SECT":"五段","MAREA":" ","LANE":"２５３巷","ALLEY":"１５弄","HOUSE_NO":"９號","E_COORD97":169909.20999999999,"N_COORD97":2545822.52,"ADDRESS":"長榮路五段２５３巷１５弄９號","OBJECTID":56528},"geometry":{"x":169909.21000000089,"y":2545822.5199999996}},{"attributes":{"ID":56529,"DIS_CODE":0,"TOWNNAME":"北區","LI":"光武里","LIN":"1鄰","STREET":"長榮路","SECT":"五段","MAREA":" ","LANE":"２５３巷","ALLEY":"１５弄","HOUSE_NO":"９號之１","E_COORD97":169916.82000000001,"N_COORD97":2545823.9399999999,"ADDRESS":"長榮路五段２５３巷１５弄９號之１","OBJECTID":56529},"geometry":{"x":169916.82000000216,"y":2545823.9399999995}},{"attributes":{"ID":56530,"DIS_CODE":0,"TOWNNAME":"北區","LI":"光武里","LIN":"1鄰","STREET":"長榮路","SECT":"五段","MAREA":" ","LANE":"２５３巷","ALLEY":"１弄","HOUSE_NO":"１４號","E_COORD97":169927.98000000001,"N_COORD97":2545879.3900000001,"ADDRESS":"長榮路五段２５３巷１弄１４號","OBJECTID":56530},"geometry":{"x":169927.98000000138,"y":2545879.3900000006}},{"attributes":{"ID":56531,"DIS_CODE":0,"TOWNNAME":"北區","LI":"光武里","LIN":"1鄰","STREET":"長榮路","SECT":"五段","MAREA":" ","LANE":"２５３巷","ALLEY":"１弄","HOUSE_NO":"２號","E_COORD97":169879.28,"N_COORD97":2545884.8500000001,"ADDRESS":"長榮路五段２５３巷１弄２號","OBJECTID":56531},"geometry":{"x":169879.28000000026,"y":2545884.8499999996}},{"attributes":{"ID":56532,"DIS_CODE":0,"TOWNNAME":"北區","LI":"光武里","LIN":"1鄰","STREET":"長榮路","SECT":"五段","MAREA":" ","LANE":"２５３巷","ALLEY":"１弄","HOUSE_NO":"４號","E_COORD97":169885.22,"N_COORD97":2545884.6099999999,"ADDRESS":"長榮路五段２５３巷１弄４號","OBJECTID":56532},"geometry":{"x":169885.22000000067,"y":2545884.6100000013}},{"attributes":{"ID":56533,"DIS_CODE":0,"TOWNNAME":"學甲區","LI":"宅港里","LIN":"1鄰","STREET":" ","SECT":" ","MAREA":"宅子港","LANE":" ","ALLEY":" ","HOUSE_NO":"１號之７","E_COORD97":168678.37,"N_COORD97":2573208.8500000001,"ADDRESS":"宅子港１號之７","OBJECTID":56533},"geometry":{"x":168678.37000000011,"y":2573208.8499999996}},{"attributes":{"ID":56534,"DIS_CODE":0,"TOWNNAME":"學甲區","LI":"宅港里","LIN":"1鄰","STREET":" ","SECT":" ","MAREA":"宅子港","LANE":" ","ALLEY":" ","HOUSE_NO":"１號之８","E_COORD97":168692.09,"N_COORD97":2573222.27,"ADDRESS":"宅子港１號之８","OBJECTID":56534},"geometry":{"x":168692.08999999985,"y":2573222.2699999996}},{"attributes":{"ID":56535,"DIS_CODE":0,"TOWNNAME":"學甲區","LI":"宅港里","LIN":"1鄰","STREET":" ","SECT":" ","MAREA":"宅子港","LANE":" ","ALLEY":" ","HOUSE_NO":"１號","E_COORD97":168641.35000000001,"N_COORD97":2573138.5800000001,"ADDRESS":"宅子港１號","OBJECTID":56535},"geometry":{"x":168641.35000000056,"y":2573138.5800000019}},{"attributes":{"ID":56536,"DIS_CODE":0,"TOWNNAME":"學甲區","LI":"宅港里","LIN":"1鄰","STREET":" ","SECT":" ","MAREA":"宅子港","LANE":" ","ALLEY":" ","HOUSE_NO":"２號","E_COORD97":168640.06,"N_COORD97":2573135.0099999998,"ADDRESS":"宅子港２號","OBJECTID":56536},"geometry":{"x":168640.06000000052,"y":2573135.0100000016}},{"attributes":{"ID":56537,"DIS_CODE":0,"TOWNNAME":"北區","LI":"光武里","LIN":"1鄰","STREET":"長榮路","SECT":"五段","MAREA":" ","LANE":"２５３巷","ALLEY":"１弄","HOUSE_NO":"６號","E_COORD97":169890.20999999999,"N_COORD97":2545883.8999999999,"ADDRESS":"長榮路五段２５３巷１弄６號","OBJECTID":56537},"geometry":{"x":169890.21000000183,"y":2545883.9000000022}},{"attributes":{"ID":56538,"DIS_CODE":0,"TOWNNAME":"北區","LI":"光武里","LIN":"1鄰","STREET":"長榮路","SECT":"五段","MAREA":" ","LANE":"２５３巷","ALLEY":"２５弄","HOUSE_NO":"１號","E_COORD97":169896.38,"N_COORD97":2545787.3999999999,"ADDRESS":"長榮路五段２５３巷２５弄１號","OBJECTID":56538},"geometry":{"x":169896.38000000082,"y":2545787.4000000004}},{"attributes":{"ID":56539,"DIS_CODE":0,"TOWNNAME":"北區","LI":"光武里","LIN":"1鄰","STREET":"長榮路","SECT":"五段","MAREA":" ","LANE":"２５３巷","ALLEY":"２５弄","HOUSE_NO":"２號","E_COORD97":169882.84,"N_COORD97":2545774.8199999998,"ADDRESS":"長榮路五段２５３巷２５弄２號","OBJECTID":56539},"geometry":{"x":169882.84000000078,"y":2545774.8200000003}},{"attributes":{"ID":56540,"DIS_CODE":0,"TOWNNAME":"北區","LI":"光武里","LIN":"1鄰","STREET":"長榮路","SECT":"五段","MAREA":" ","LANE":"２５３巷","ALLEY":"２５弄","HOUSE_NO":"３號","E_COORD97":169900.89999999999,"N_COORD97":2545787.3999999999,"ADDRESS":"長榮路五段２５３巷２５弄３號","OBJECTID":56540},"geometry":{"x":169900.90000000037,"y":2545787.4000000004}},{"attributes":{"ID":56541,"DIS_CODE":0,"TOWNNAME":"北區","LI":"光武里","LIN":"1鄰","STREET":"長榮路","SECT":"五段","MAREA":" ","LANE":"２５３巷","ALLEY":"２５弄","HOUSE_NO":"４號","E_COORD97":169888.07000000001,"N_COORD97":2545775.5299999998,"ADDRESS":"長榮路五段２５３巷２５弄４號","OBJECTID":56541},"geometry":{"x":169888.07000000216,"y":2545775.5299999993}},{"attributes":{"ID":56542,"DIS_CODE":0,"TOWNNAME":"北區","LI":"光武里","LIN":"1鄰","STREET":"長榮路","SECT":"五段","MAREA":" ","LANE":"２５３巷","ALLEY":"２５弄","HOUSE_NO":"５號","E_COORD97":169904.94,"N_COORD97":2545787.3999999999,"ADDRESS":"長榮路五段２５３巷２５弄５號","OBJECTID":56542},"geometry":{"x":169904.94000000134,"y":2545787.4000000004}},{"attributes":{"ID":56543,"DIS_CODE":0,"TOWNNAME":"北區","LI":"光武里","LIN":"1鄰","STREET":"長榮路","SECT":"五段","MAREA":" ","LANE":"２５３巷","ALLEY":"２５弄","HOUSE_NO":"６號","E_COORD97":169892.10999999999,"N_COORD97":2545775.77,"ADDRESS":"長榮路五段２５３巷２５弄６號","OBJECTID":56543},"geometry":{"x":169892.11000000034,"y":2545775.7700000014}},{"attributes":{"ID":56544,"DIS_CODE":0,"TOWNNAME":"北區","LI":"力行里","LIN":"1鄰","STREET":"開南街","SECT":" ","MAREA":" ","LANE":"２１３巷","ALLEY":"６弄","HOUSE_NO":"１５號","E_COORD97":170852.16,"N_COORD97":2545004.1200000001,"ADDRESS":"開南街２１３巷６弄１５號","OBJECTID":56544},"geometry":{"x":170852.16000000108,"y":2545004.1199999992}},{"attributes":{"ID":56545,"DIS_CODE":0,"TOWNNAME":"北區","LI":"力行里","LIN":"1鄰","STREET":"開南街","SECT":" ","MAREA":" ","LANE":"２１３巷","ALLEY":"６弄","HOUSE_NO":"１７號","E_COORD97":170856.29999999999,"N_COORD97":2545003.8100000001,"ADDRESS":"開南街２１３巷６弄１７號","OBJECTID":56545},"geometry":{"x":170856.30000000075,"y":2545003.8100000024}},{"attributes":{"ID":56546,"DIS_CODE":0,"TOWNNAME":"北區","LI":"力行里","LIN":"1鄰","STREET":"開南街","SECT":" ","MAREA":" ","LANE":"２１３巷","ALLEY":"６弄","HOUSE_NO":"１９號","E_COORD97":170859.95000000001,"N_COORD97":2545002.2200000002,"ADDRESS":"開南街２１３巷６弄１９號","OBJECTID":56546},"geometry":{"x":170859.94999999925,"y":2545002.2200000007}},{"attributes":{"ID":56547,"DIS_CODE":0,"TOWNNAME":"北區","LI":"力行里","LIN":"1鄰","STREET":"開南街","SECT":" ","MAREA":" ","LANE":"２１３巷","ALLEY":"６弄","HOUSE_NO":"１號","E_COORD97":170814.35000000001,"N_COORD97":2545003.7000000002,"ADDRESS":"開南街２１３巷６弄１號","OBJECTID":56547},"geometry":{"x":170814.35000000149,"y":2545003.6999999993}},{"attributes":{"ID":56548,"DIS_CODE":0,"TOWNNAME":"北區","LI":"力行里","LIN":"1鄰","STREET":"開南街","SECT":" ","MAREA":" ","LANE":"２１３巷","ALLEY":"６弄","HOUSE_NO":"２１號","E_COORD97":170863.76999999999,"N_COORD97":2545002.2200000002,"ADDRESS":"開南街２１３巷６弄２１號","OBJECTID":56548},"geometry":{"x":170863.76999999955,"y":2545002.2200000007}},{"attributes":{"ID":56549,"DIS_CODE":0,"TOWNNAME":"北區","LI":"力行里","LIN":"1鄰","STREET":"開南街","SECT":" ","MAREA":" ","LANE":"２１３巷","ALLEY":"６弄","HOUSE_NO":"２３號","E_COORD97":170868.38,"N_COORD97":2545000.9500000002,"ADDRESS":"開南街２１３巷６弄２３號","OBJECTID":56549},"geometry":{"x":170868.37999999989,"y":2545000.9500000011}},{"attributes":{"ID":56550,"DIS_CODE":0,"TOWNNAME":"學甲區","LI":"宅港里","LIN":"1鄰","STREET":" ","SECT":" ","MAREA":"宅子港","LANE":" ","ALLEY":" ","HOUSE_NO":"５號","E_COORD97":168637.29999999999,"N_COORD97":2573128.1400000001,"ADDRESS":"宅子港５號","OBJECTID":56550},"geometry":{"x":168637.30000000075,"y":2573128.1400000025}},{"attributes":{"ID":56551,"DIS_CODE":0,"TOWNNAME":"學甲區","LI":"宅港里","LIN":"1鄰","STREET":" ","SECT":" ","MAREA":"宅子港","LANE":" ","ALLEY":" ","HOUSE_NO":"６號之３","E_COORD97":168631.56,"N_COORD97":2573115.1400000001,"ADDRESS":"宅子港６號之３","OBJECTID":56551},"geometry":{"x":168631.56000000052,"y":2573115.1400000006}},{"attributes":{"ID":56552,"DIS_CODE":0,"TOWNNAME":"北區","LI":"力行里","LIN":"1鄰","STREET":"開南街","SECT":" ","MAREA":" ","LANE":"２１３巷","ALLEY":"６弄","HOUSE_NO":"２５號","E_COORD97":170873.31,"N_COORD97":2544999.6800000002,"ADDRESS":"開南街２１３巷６弄２５號","OBJECTID":56552},"geometry":{"x":170873.30999999959,"y":2544999.6800000016}},{"attributes":{"ID":56553,"DIS_CODE":0,"TOWNNAME":"歸仁區","LI":"七甲里","LIN":"1鄰","STREET":"七甲五街","SECT":" ","MAREA":" ","LANE":"１０２巷","ALLEY":"３９弄","HOUSE_NO":"２６號","E_COORD97":177124.95000000001,"N_COORD97":2542605.9300000002,"ADDRESS":"七甲五街１０２巷３９弄２６號","OBJECTID":56553},"geometry":{"x":177124.95000000019,"y":2542605.9299999997}},{"attributes":{"ID":56554,"DIS_CODE":0,"TOWNNAME":"歸仁區","LI":"西埔里","LIN":"1鄰","STREET":"西埔三街","SECT":" ","MAREA":" ","LANE":"５１巷","ALLEY":"９０弄","HOUSE_NO":"３６號","E_COORD97":177013.23999999999,"N_COORD97":2543885.25,"ADDRESS":"西埔三街５１巷９０弄３６號","OBJECTID":56554},"geometry":{"x":177013.23999999929,"y":2543885.25}},{"attributes":{"ID":56555,"DIS_CODE":0,"TOWNNAME":"歸仁區","LI":"西埔里","LIN":"1鄰","STREET":"西埔三街","SECT":" ","MAREA":" ","LANE":"５１巷","ALLEY":"１６弄","HOUSE_NO":"５號","E_COORD97":176869.79000000001,"N_COORD97":2543953.25,"ADDRESS":"西埔三街５１巷１６弄５號","OBJECTID":56555},"geometry":{"x":176869.79000000004,"y":2543953.25}},{"attributes":{"ID":56556,"DIS_CODE":0,"TOWNNAME":"歸仁區","LI":"西埔里","LIN":"1鄰","STREET":"西埔三街","SECT":" ","MAREA":" ","LANE":"５１巷","ALLEY":"９０弄","HOUSE_NO":"１７號","E_COORD97":177040.42000000001,"N_COORD97":2543909.25,"ADDRESS":"西埔三街５１巷９０弄１７號","OBJECTID":56556},"geometry":{"x":177040.41999999993,"y":2543909.25}},{"attributes":{"ID":56557,"DIS_CODE":0,"TOWNNAME":"歸仁區","LI":"西埔里","LIN":"1鄰","STREET":"西埔三街","SECT":" ","MAREA":" ","LANE":"５１巷","ALLEY":"９０弄","HOUSE_NO":"３５號","E_COORD97":177051.62,"N_COORD97":2543891.25,"ADDRESS":"西埔三街５１巷９０弄３５號","OBJECTID":56557},"geometry":{"x":177051.62000000104,"y":2543891.2500000019}},{"attributes":{"ID":56558,"DIS_CODE":0,"TOWNNAME":"歸仁區","LI":"西埔里","LIN":"1鄰","STREET":"西埔三街","SECT":" ","MAREA":" ","LANE":"５１巷","ALLEY":"９０弄","HOUSE_NO":"５１號","E_COORD97":177055.74039600001,"N_COORD97":2543870.5651099999,"ADDRESS":"西埔三街５１巷９０弄５１號","OBJECTID":56558},"geometry":{"x":177055.74039600231,"y":2543870.5651070029}},{"attributes":{"ID":56559,"DIS_CODE":0,"TOWNNAME":"學甲區","LI":"宅港里","LIN":"1鄰","STREET":" ","SECT":" ","MAREA":"宅子港","LANE":" ","ALLEY":" ","HOUSE_NO":"６號之５","E_COORD97":168629.44,"N_COORD97":2573108.7999999998,"ADDRESS":"宅子港６號之５","OBJECTID":56559},"geometry":{"x":168629.44000000227,"y":2573108.7999999989}},{"attributes":{"ID":56560,"DIS_CODE":0,"TOWNNAME":"學甲區","LI":"宅港里","LIN":"1鄰","STREET":" ","SECT":" ","MAREA":"宅子港","LANE":" ","ALLEY":" ","HOUSE_NO":"６號","E_COORD97":168634.73999999999,"N_COORD97":2573122.3199999998,"ADDRESS":"宅子港６號","OBJECTID":56560},"geometry":{"x":168634.74000000115,"y":2573122.3200000022}},{"attributes":{"ID":56561,"DIS_CODE":0,"TOWNNAME":"歸仁區","LI":"西埔里","LIN":"1鄰","STREET":"西埔三街","SECT":" ","MAREA":" ","LANE":"５１巷","ALLEY":"９０弄","HOUSE_NO":"２５號","E_COORD97":177029.01999999999,"N_COORD97":2543885.25,"ADDRESS":"西埔三街５１巷９０弄２５號","OBJECTID":56561},"geometry":{"x":177029.01999999955,"y":2543885.25}},{"attributes":{"ID":56562,"DIS_CODE":0,"TOWNNAME":"學甲區","LI":"宅港里","LIN":"1鄰","STREET":" ","SECT":" ","MAREA":"宅子港","LANE":" ","ALLEY":" ","HOUSE_NO":"７號之１","E_COORD97":168610.48000000001,"N_COORD97":2573132.54,"ADDRESS":"宅子港７號之１","OBJECTID":56562},"geometry":{"x":168610.47999999952,"y":2573132.5399999991}},{"attributes":{"ID":56563,"DIS_CODE":0,"TOWNNAME":"學甲區","LI":"宅港里","LIN":"1鄰","STREET":" ","SECT":" ","MAREA":"宅子港","LANE":" ","ALLEY":" ","HOUSE_NO":"７號","E_COORD97":168622.75,"N_COORD97":2573127.4500000002,"ADDRESS":"宅子港７號","OBJECTID":56563},"geometry":{"x":168622.75,"y":2573127.4500000011}},{"attributes":{"ID":56564,"DIS_CODE":0,"TOWNNAME":"學甲區","LI":"宅港里","LIN":"1鄰","STREET":" ","SECT":" ","MAREA":"宅子港","LANE":" ","ALLEY":" ","HOUSE_NO":"８號之１","E_COORD97":168623.28,"N_COORD97":2573091.8900000001,"ADDRESS":"宅子港８號之１","OBJECTID":56564},"geometry":{"x":168623.28000000026,"y":2573091.8900000025}},{"attributes":{"ID":56565,"DIS_CODE":0,"TOWNNAME":"歸仁區","LI":"西埔里","LIN":"1鄰","STREET":"西埔三街","SECT":" ","MAREA":" ","LANE":"５１巷","ALLEY":"９０弄","HOUSE_NO":"９號","E_COORD97":177053.67000000001,"N_COORD97":2543938.25,"ADDRESS":"西埔三街５１巷９０弄９號","OBJECTID":56565},"geometry":{"x":177053.66999999993,"y":2543938.2500000019}},{"attributes":{"ID":56566,"DIS_CODE":0,"TOWNNAME":"歸仁區","LI":"西埔里","LIN":"1鄰","STREET":"西埔三街","SECT":" ","MAREA":" ","LANE":"５１巷","ALLEY":"９０弄","HOUSE_NO":"２１號","E_COORD97":177035.22,"N_COORD97":2543895.25,"ADDRESS":"西埔三街５１巷９０弄２１號","OBJECTID":56566},"geometry":{"x":177035.22000000067,"y":2543895.2500000019}},{"attributes":{"ID":56567,"DIS_CODE":0,"TOWNNAME":"歸仁區","LI":"大潭里","LIN":"1鄰","STREET":"中正南路","SECT":"三段","MAREA":" ","LANE":"９５巷","ALLEY":"３０弄","HOUSE_NO":"９號","E_COORD97":175404.81,"N_COORD97":2534990.2799999998,"ADDRESS":"中正南路三段９５巷３０弄９號","OBJECTID":56567},"geometry":{"x":175404.80999999959,"y":2534990.2800000012}},{"attributes":{"ID":56568,"DIS_CODE":0,"TOWNNAME":"北區","LI":"勝安里","LIN":"1鄰","STREET":"開元路","SECT":" ","MAREA":" ","LANE":"４３巷","ALLEY":"６弄","HOUSE_NO":"１１號","E_COORD97":169605.09,"N_COORD97":2545189.5299999998,"ADDRESS":"開元路４３巷６弄１１號","OBJECTID":56568},"geometry":{"x":169605.09000000078,"y":2545189.5300000031}},{"attributes":{"ID":56569,"DIS_CODE":0,"TOWNNAME":"北區","LI":"勝安里","LIN":"1鄰","STREET":"開元路","SECT":" ","MAREA":" ","LANE":"４３巷","ALLEY":"６弄","HOUSE_NO":"１５號","E_COORD97":169617.39999999999,"N_COORD97":2545194.2599999998,"ADDRESS":"開元路４３巷６弄１５號","OBJECTID":56569},"geometry":{"x":169617.40000000037,"y":2545194.2599999998}},{"attributes":{"ID":56570,"DIS_CODE":0,"TOWNNAME":"學甲區","LI":"宅港里","LIN":"1鄰","STREET":" ","SECT":" ","MAREA":"宅子港","LANE":" ","ALLEY":" ","HOUSE_NO":"８號","E_COORD97":168626.39000000001,"N_COORD97":2573101.54,"ADDRESS":"宅子港８號","OBJECTID":56570},"geometry":{"x":168626.3900000006,"y":2573101.5399999991}},{"attributes":{"ID":56571,"DIS_CODE":0,"TOWNNAME":"北區","LI":"勝安里","LIN":"1鄰","STREET":"開元路","SECT":" ","MAREA":" ","LANE":"４３巷","ALLEY":"６弄","HOUSE_NO":"２號","E_COORD97":169590.26000000001,"N_COORD97":2545160.7400000002,"ADDRESS":"開元路４３巷６弄２號","OBJECTID":56571},"geometry":{"x":169590.26000000071,"y":2545160.7400000002}},{"attributes":{"ID":56572,"DIS_CODE":0,"TOWNNAME":"學甲區","LI":"宅港里","LIN":"1鄰","STREET":" ","SECT":" ","MAREA":"宅子港","LANE":" ","ALLEY":" ","HOUSE_NO":"９號","E_COORD97":168617.48000000001,"N_COORD97":2573086.4199999999,"ADDRESS":"宅子港９號","OBJECTID":56572},"geometry":{"x":168617.48000000231,"y":2573086.4199999999}},{"attributes":{"ID":56573,"DIS_CODE":0,"TOWNNAME":"學甲區","LI":"豐和里","LIN":"1鄰","STREET":" ","SECT":" ","MAREA":"美豐","LANE":" ","ALLEY":" ","HOUSE_NO":"１號之１","E_COORD97":168109.37,"N_COORD97":2569013.0600000001,"ADDRESS":"美豐１號之１","OBJECTID":56573},"geometry":{"x":168109.37000000104,"y":2569013.0600000024}},{"attributes":{"ID":56574,"DIS_CODE":0,"TOWNNAME":"學甲區","LI":"豐和里","LIN":"1鄰","STREET":" ","SECT":" ","MAREA":"美豐","LANE":" ","ALLEY":" ","HOUSE_NO":"１號之２","E_COORD97":168092.76000000001,"N_COORD97":2569005.6899999999,"ADDRESS":"美豐１號之２","OBJECTID":56574},"geometry":{"x":168092.76000000164,"y":2569005.6899999995}},{"attributes":{"ID":56575,"DIS_CODE":0,"TOWNNAME":"北區","LI":"勝安里","LIN":"1鄰","STREET":"開元路","SECT":" ","MAREA":" ","LANE":"４３巷","ALLEY":"６弄","HOUSE_NO":"４號","E_COORD97":169600.84,"N_COORD97":2545175.98,"ADDRESS":"開元路４３巷６弄４號","OBJECTID":56575},"geometry":{"x":169600.84000000171,"y":2545175.9800000004}},{"attributes":{"ID":56576,"DIS_CODE":0,"TOWNNAME":"北區","LI":"勝安里","LIN":"1鄰","STREET":"開元路","SECT":" ","MAREA":" ","LANE":"４３巷","ALLEY":"６弄","HOUSE_NO":"５號","E_COORD97":169589.48000000001,"N_COORD97":2545184.7999999998,"ADDRESS":"開元路４３巷６弄５號","OBJECTID":56576},"geometry":{"x":169589.48000000138,"y":2545184.8000000007}},{"attributes":{"ID":56577,"DIS_CODE":0,"TOWNNAME":"北區","LI":"勝安里","LIN":"1鄰","STREET":"開元路","SECT":" ","MAREA":" ","LANE":"４３巷","ALLEY":"６弄","HOUSE_NO":"７號","E_COORD97":169592.32000000001,"N_COORD97":2545186.54,"ADDRESS":"開元路４３巷６弄７號","OBJECTID":56577},"geometry":{"x":169592.3200000003,"y":2545186.540000001}},{"attributes":{"ID":56578,"DIS_CODE":0,"TOWNNAME":"北區","LI":"勝安里","LIN":"1鄰","STREET":"開元路","SECT":" ","MAREA":" ","LANE":"４３巷","ALLEY":"６弄","HOUSE_NO":"９號","E_COORD97":169594.20999999999,"N_COORD97":2545188.4300000002,"ADDRESS":"開元路４３巷６弄９號","OBJECTID":56578},"geometry":{"x":169594.21000000089,"y":2545188.4300000016}},{"attributes":{"ID":56579,"DIS_CODE":0,"TOWNNAME":"北區","LI":"勝安里","LIN":"1鄰","STREET":"開元路","SECT":" ","MAREA":" ","LANE":"４３巷","ALLEY":"１３弄","HOUSE_NO":"１０號","E_COORD97":169550.5,"N_COORD97":2545170.1400000001,"ADDRESS":"開元路４３巷１３弄１０號","OBJECTID":56579},"geometry":{"x":169550.5,"y":2545170.1400000043}},{"attributes":{"ID":56580,"DIS_CODE":0,"TOWNNAME":"北區","LI":"新勝里","LIN":"13鄰","STREET":"長勝北街","SECT":" ","MAREA":" ","LANE":" ","ALLEY":" ","HOUSE_NO":"１６２號","E_COORD97":169983.89559599999,"N_COORD97":2545743.3889199998,"ADDRESS":"長勝北街１６２號","OBJECTID":56580},"geometry":{"x":169983.89559600037,"y":2545743.3889150023}},{"attributes":{"ID":56581,"DIS_CODE":0,"TOWNNAME":"中西區","LI":"藥王里","LIN":"8鄰","STREET":"大新街","SECT":" ","MAREA":" ","LANE":" ","ALLEY":" ","HOUSE_NO":"９號","E_COORD97":167121.89000000001,"N_COORD97":2544332.4500000002,"ADDRESS":"大新街９號","OBJECTID":56581},"geometry":{"x":167121.88999999873,"y":2544332.450000003}},{"attributes":{"ID":56582,"DIS_CODE":0,"TOWNNAME":"學甲區","LI":"豐和里","LIN":"1鄰","STREET":" ","SECT":" ","MAREA":"美豐","LANE":" ","ALLEY":" ","HOUSE_NO":"１號之３","E_COORD97":168128.39999999999,"N_COORD97":2569038.7400000002,"ADDRESS":"美豐１號之３","OBJECTID":56582},"geometry":{"x":168128.4000000013,"y":2569038.7400000021}},{"attributes":{"ID":56583,"DIS_CODE":0,"TOWNNAME":"北區","LI":"勝安里","LIN":"1鄰","STREET":"開元路","SECT":" ","MAREA":" ","LANE":"４３巷","ALLEY":"１３弄","HOUSE_NO":"１２號","E_COORD97":169542.45999999999,"N_COORD97":2545169.5099999998,"ADDRESS":"開元路４３巷１３弄１２號","OBJECTID":56583},"geometry":{"x":169542.45999999903,"y":2545169.5099999998}},{"attributes":{"ID":56584,"DIS_CODE":0,"TOWNNAME":"北區","LI":"勝安里","LIN":"1鄰","STREET":"開元路","SECT":" ","MAREA":" ","LANE":"４３巷","ALLEY":"１９弄","HOUSE_NO":"１０號","E_COORD97":169546.39999999999,"N_COORD97":2545183.5299999998,"ADDRESS":"開元路４３巷１９弄１０號","OBJECTID":56584},"geometry":{"x":169546.40000000037,"y":2545183.5300000012}},{"attributes":{"ID":56585,"DIS_CODE":0,"TOWNNAME":"北區","LI":"勝安里","LIN":"1鄰","STREET":"開元路","SECT":" ","MAREA":" ","LANE":"４３巷","ALLEY":"１９弄","HOUSE_NO":"１２號","E_COORD97":169541.20000000001,"N_COORD97":2545181.1600000001,"ADDRESS":"開元路４３巷１９弄１２號","OBJECTID":56585},"geometry":{"x":169541.20000000205,"y":2545181.1600000001}},{"attributes":{"ID":56586,"DIS_CODE":0,"TOWNNAME":"北區","LI":"勝安里","LIN":"1鄰","STREET":"開元路","SECT":" ","MAREA":" ","LANE":"４３巷","ALLEY":"１９弄","HOUSE_NO":"１４號","E_COORD97":169534.54999999999,"N_COORD97":2545177.6800000002,"ADDRESS":"開元路４３巷１９弄１４號","OBJECTID":56586},"geometry":{"x":169534.54999999981,"y":2545177.6799999997}},{"attributes":{"ID":56587,"DIS_CODE":0,"TOWNNAME":"北區","LI":"勝安里","LIN":"1鄰","STREET":"開元路","SECT":" ","MAREA":" ","LANE":"４３巷","ALLEY":"１９弄","HOUSE_NO":"２號","E_COORD97":169568.95999999999,"N_COORD97":2545189.8300000001,"ADDRESS":"開元路４３巷１９弄２號","OBJECTID":56587},"geometry":{"x":169568.95999999996,"y":2545189.8300000019}},{"attributes":{"ID":56588,"DIS_CODE":0,"TOWNNAME":"楠西區","LI":"鹿田里","LIN":"1鄰","STREET":" ","SECT":" ","MAREA":"鹿陶洋","LANE":" ","ALLEY":" ","HOUSE_NO":"１號之６","E_COORD97":197030.70999999999,"N_COORD97":2560302.2999999998,"ADDRESS":"鹿陶洋１號之６","OBJECTID":56588},"geometry":{"x":197030.71000000089,"y":2560302.3000000007}},{"attributes":{"ID":56589,"DIS_CODE":0,"TOWNNAME":"北區","LI":"勝安里","LIN":"1鄰","STREET":"開元路","SECT":" ","MAREA":" ","LANE":"４３巷","ALLEY":"１９弄","HOUSE_NO":"８號","E_COORD97":169551.92000000001,"N_COORD97":2545184.9399999999,"ADDRESS":"開元路４３巷１９弄８號","OBJECTID":56589},"geometry":{"x":169551.92000000086,"y":2545184.9400000013}},{"attributes":{"ID":56590,"DIS_CODE":0,"TOWNNAME":"北區","LI":"勝安里","LIN":"1鄰","STREET":"開元路","SECT":" ","MAREA":" ","LANE":"４３巷","ALLEY":"１弄","HOUSE_NO":"１之１號","E_COORD97":169560.48999999999,"N_COORD97":2545155.4199999999,"ADDRESS":"開元路４３巷１弄１之１號","OBJECTID":56590},"geometry":{"x":169560.49000000022,"y":2545155.4199999999}},{"attributes":{"ID":56591,"DIS_CODE":0,"TOWNNAME":"玉井區","LI":"玉田里","LIN":" ","STREET":"中正路","SECT":" ","MAREA":" ","LANE":" ","ALLEY":" ","HOUSE_NO":"１６７號","E_COORD97":195001.64999999999,"N_COORD97":2558234.25,"ADDRESS":"中正路１６７號","OBJECTID":56591},"geometry":{"x":195001.64999999944,"y":2558234.25}},{"attributes":{"ID":56592,"DIS_CODE":0,"TOWNNAME":"北區","LI":"勝安里","LIN":"1鄰","STREET":"開元路","SECT":" ","MAREA":" ","LANE":"４３巷","ALLEY":"１弄","HOUSE_NO":"２號","E_COORD97":169564.44,"N_COORD97":2545156.9900000002,"ADDRESS":"開元路４３巷１弄２號","OBJECTID":56592},"geometry":{"x":169564.44000000041,"y":2545156.9900000039}},{"attributes":{"ID":56593,"DIS_CODE":0,"TOWNNAME":"歸仁區","LI":"西埔里","LIN":"1鄰","STREET":"西埔三街","SECT":" ","MAREA":" ","LANE":"５１巷","ALLEY":"９０弄","HOUSE_NO":"３２號","E_COORD97":177009.43744199999,"N_COORD97":2543902.35457,"ADDRESS":"西埔三街５１巷９０弄３２號","OBJECTID":56593},"geometry":{"x":177009.43744200096,"y":2543902.3545650002}},{"attributes":{"ID":56594,"DIS_CODE":0,"TOWNNAME":"北區","LI":"勝安里","LIN":"1鄰","STREET":"開元路","SECT":" ","MAREA":" ","LANE":"４３巷","ALLEY":"２９弄","HOUSE_NO":"１１號","E_COORD97":169550.19,"N_COORD97":2545193.1400000001,"ADDRESS":"開元路４３巷２９弄１１號","OBJECTID":56594},"geometry":{"x":169550.19000000134,"y":2545193.1400000006}},{"attributes":{"ID":56595,"DIS_CODE":0,"TOWNNAME":"學甲區","LI":"新榮里","LIN":"1鄰","STREET":" ","SECT":" ","MAREA":"東寮","LANE":" ","ALLEY":" ","HOUSE_NO":"２號之２７","E_COORD97":166665.79999999999,"N_COORD97":2569588.8100000001,"ADDRESS":"東寮２號之２７","OBJECTID":56595},"geometry":{"x":166665.80000000075,"y":2569588.8100000005}},{"attributes":{"ID":56596,"DIS_CODE":0,"TOWNNAME":"北區","LI":"勝安里","LIN":"1鄰","STREET":"開元路","SECT":" ","MAREA":" ","LANE":"４３巷","ALLEY":"２９弄","HOUSE_NO":"１號","E_COORD97":169566.79999999999,"N_COORD97":2545197.7599999998,"ADDRESS":"開元路４３巷２９弄１號","OBJECTID":56596},"geometry":{"x":169566.79999999981,"y":2545197.7599999998}},{"attributes":{"ID":56597,"DIS_CODE":0,"TOWNNAME":"北區","LI":"勝安里","LIN":"1鄰","STREET":"開元路","SECT":" ","MAREA":" ","LANE":"４３巷","ALLEY":"２９弄","HOUSE_NO":"２號","E_COORD97":169556.17999999999,"N_COORD97":2545203.54,"ADDRESS":"開元路４３巷２９弄２號","OBJECTID":56597},"geometry":{"x":169556.18000000156,"y":2545203.540000001}},{"attributes":{"ID":56598,"DIS_CODE":0,"TOWNNAME":"北區","LI":"勝安里","LIN":"1鄰","STREET":"開元路","SECT":" ","MAREA":" ","LANE":"４３巷","ALLEY":"２９弄","HOUSE_NO":"３號","E_COORD97":169560.92000000001,"N_COORD97":2545196.6099999999,"ADDRESS":"開元路４３巷２９弄３號","OBJECTID":56598},"geometry":{"x":169560.91999999993,"y":2545196.6100000013}},{"attributes":{"ID":56599,"DIS_CODE":0,"TOWNNAME":"永康區","LI":"王行里","LIN":"8鄰","STREET":"育樂街","SECT":" ","MAREA":" ","LANE":" ","ALLEY":" ","HOUSE_NO":"３６號","E_COORD97":175389.91,"N_COORD97":2548385.9700000002,"ADDRESS":"育樂街３６號","OBJECTID":56599},"geometry":{"x":175389.91000000201,"y":2548385.9700000025}},{"attributes":{"ID":56600,"DIS_CODE":0,"TOWNNAME":"玉井區","LI":"玉田里","LIN":" ","STREET":"中正路","SECT":" ","MAREA":" ","LANE":" ","ALLEY":" ","HOUSE_NO":"２００號","E_COORD97":195026.35999999999,"N_COORD97":2558226.25,"ADDRESS":"中正路２００號","OBJECTID":56600},"geometry":{"x":195026.36000000127,"y":2558226.2500000019}}]}