{"displayFieldName":"TOWNNAME","fieldAliases":{"ID":"ID","DIS_CODE":"DIS_CODE","TOWNNAME":"TOWNNAME","LI":"LI","LIN":"LIN","STREET":"STREET","SECT":"SECT","MAREA":"MAREA","LANE":"LANE","ALLEY":"ALLEY","HOUSE_NO":"HOUSE_NO","E_COORD97":"E_COORD97","N_COORD97":"N_COORD97","ADDRESS":"ADDRESS","OBJECTID":"OBJECTID"},"geometryType":"esriGeometryPoint","spatialReference":{"wkid":102443,"latestWkid":3826},"fields":[{"name":"ID","type":"esriFieldTypeDouble","alias":"ID"},{"name":"DIS_CODE","type":"esriFieldTypeInteger","alias":"DIS_CODE"},{"name":"TOWNNAME","type":"esriFieldTypeString","alias":"TOWNNAME","length":8},{"name":"LI","type":"esriFieldTypeString","alias":"LI","length":8},{"name":"LIN","type":"esriFieldTypeString","alias":"LIN","length":12},{"name":"STREET","type":"esriFieldTypeString","alias":"STREET","length":20},{"name":"SECT","type":"esriFieldTypeString","alias":"SECT","length":8},{"name":"MAREA","type":"esriFieldTypeString","alias":"MAREA","length":12},{"name":"LANE","type":"esriFieldTypeString","alias":"LANE","length":10},{"name":"ALLEY","type":"esriFieldTypeString","alias":"ALLEY","length":10},{"name":"HOUSE_NO","type":"esriFieldTypeString","alias":"HOUSE_NO","length":20},{"name":"E_COORD97","type":"esriFieldTypeDouble","alias":"E_COORD97"},{"name":"N_COORD97","type":"esriFieldTypeDouble","alias":"N_COORD97"},{"name":"ADDRESS","type":"esriFieldTypeString","alias":"ADDRESS","length":50},{"name":"OBJECTID","type":"esriFieldTypeOID","alias":"OBJECTID"}],"features":[{"attributes":{"ID":551028,"DIS_CODE":0,"TOWNNAME":"北區","LI":"大山里","LIN":"10鄰","STREET":"精忠街","SECT":" ","MAREA":" ","LANE":" ","ALLEY":" ","HOUSE_NO":"１０６號","E_COORD97":169323.26000000001,"N_COORD97":2545536.4399999999,"ADDRESS":"精忠街１０６號","OBJECTID":551001},"geometry":{"x":169323.25999999885,"y":2545536.4400000032}},{"attributes":{"ID":551029,"DIS_CODE":0,"TOWNNAME":"北區","LI":"大仁里","LIN":"10鄰","STREET":"北門路","SECT":"二段","MAREA":" ","LANE":" ","ALLEY":" ","HOUSE_NO":"１４９號","E_COORD97":169433.39000000001,"N_COORD97":2545202.7999999998,"ADDRESS":"北門路二段１４９號","OBJECTID":551002},"geometry":{"x":169433.38999999966,"y":2545202.8000000045}},{"attributes":{"ID":551030,"DIS_CODE":0,"TOWNNAME":"北區","LI":"大仁里","LIN":"10鄰","STREET":"北門路","SECT":"二段","MAREA":" ","LANE":" ","ALLEY":" ","HOUSE_NO":"１５１號","E_COORD97":169440.39000000001,"N_COORD97":2545196.79,"ADDRESS":"北門路二段１５１號","OBJECTID":551003},"geometry":{"x":169440.38999999966,"y":2545196.7899999991}},{"attributes":{"ID":551031,"DIS_CODE":0,"TOWNNAME":"北區","LI":"大仁里","LIN":"10鄰","STREET":"北門路","SECT":"二段","MAREA":" ","LANE":" ","ALLEY":" ","HOUSE_NO":"１５３號","E_COORD97":169444.14999999999,"N_COORD97":2545190.3300000001,"ADDRESS":"北門路二段１５３號","OBJECTID":551004},"geometry":{"x":169444.1500000013,"y":2545190.3300000001}},{"attributes":{"ID":551032,"DIS_CODE":0,"TOWNNAME":"北區","LI":"大仁里","LIN":"10鄰","STREET":"北門路","SECT":"二段","MAREA":" ","LANE":" ","ALLEY":" ","HOUSE_NO":"１５５號","E_COORD97":169462.76999999999,"N_COORD97":2545180.1600000001,"ADDRESS":"北門路二段１５５號","OBJECTID":551005},"geometry":{"x":169462.77000000048,"y":2545180.160000002}},{"attributes":{"ID":551033,"DIS_CODE":0,"TOWNNAME":"北區","LI":"大仁里","LIN":"10鄰","STREET":"北門路","SECT":"二段","MAREA":" ","LANE":" ","ALLEY":" ","HOUSE_NO":"１６９號","E_COORD97":169454.63,"N_COORD97":2545204.7799999998,"ADDRESS":"北門路二段１６９號","OBJECTID":551006},"geometry":{"x":169454.62999999989,"y":2545204.7800000031}},{"attributes":{"ID":551034,"DIS_CODE":0,"TOWNNAME":"北區","LI":"大仁里","LIN":"10鄰","STREET":"北門路","SECT":"二段","MAREA":" ","LANE":" ","ALLEY":" ","HOUSE_NO":"１７１號","E_COORD97":169452,"N_COORD97":2545212.02,"ADDRESS":"北門路二段１７１號","OBJECTID":551007},"geometry":{"x":169452,"y":2545212.0199999996}},{"attributes":{"ID":551035,"DIS_CODE":0,"TOWNNAME":"北區","LI":"大仁里","LIN":"10鄰","STREET":"北門路","SECT":"二段","MAREA":" ","LANE":" ","ALLEY":" ","HOUSE_NO":"１７３號","E_COORD97":169453.79999999999,"N_COORD97":2545215.5499999998,"ADDRESS":"北門路二段１７３號","OBJECTID":551008},"geometry":{"x":169453.80000000075,"y":2545215.5500000026}},{"attributes":{"ID":551036,"DIS_CODE":0,"TOWNNAME":"北區","LI":"大仁里","LIN":"10鄰","STREET":"北門路","SECT":"二段","MAREA":" ","LANE":" ","ALLEY":" ","HOUSE_NO":"１７５號","E_COORD97":169455.91,"N_COORD97":2545218.9300000002,"ADDRESS":"北門路二段１７５號","OBJECTID":551009},"geometry":{"x":169455.91000000015,"y":2545218.9300000016}},{"attributes":{"ID":551037,"DIS_CODE":0,"TOWNNAME":"北區","LI":"大仁里","LIN":"10鄰","STREET":"北門路","SECT":"二段","MAREA":" ","LANE":" ","ALLEY":" ","HOUSE_NO":"１７７號","E_COORD97":169460.35000000001,"N_COORD97":2545221.9399999999,"ADDRESS":"北門路二段１７７號","OBJECTID":551010},"geometry":{"x":169460.35000000056,"y":2545221.9400000013}},{"attributes":{"ID":551038,"DIS_CODE":0,"TOWNNAME":"北區","LI":"玉皇里","LIN":"10鄰","STREET":"佑民街","SECT":" ","MAREA":" ","LANE":" ","ALLEY":" ","HOUSE_NO":"８３號","E_COORD97":168664.14000000001,"N_COORD97":2544480.9700000002,"ADDRESS":"佑民街８３號","OBJECTID":551011},"geometry":{"x":168664.13999999966,"y":2544480.9700000025}},{"attributes":{"ID":551039,"DIS_CODE":0,"TOWNNAME":"北區","LI":"玉皇里","LIN":"10鄰","STREET":"崇安街","SECT":" ","MAREA":" ","LANE":" ","ALLEY":" ","HOUSE_NO":"１８號","E_COORD97":168608.82999999999,"N_COORD97":2544508.5,"ADDRESS":"崇安街１８號","OBJECTID":551012},"geometry":{"x":168608.83000000007,"y":2544508.5}},{"attributes":{"ID":551040,"DIS_CODE":0,"TOWNNAME":"北區","LI":"玉皇里","LIN":"10鄰","STREET":"崇安街","SECT":" ","MAREA":" ","LANE":" ","ALLEY":" ","HOUSE_NO":"２０號","E_COORD97":168612.25,"N_COORD97":2544511.02,"ADDRESS":"崇安街２０號","OBJECTID":551013},"geometry":{"x":168612.25000000093,"y":2544511.0199999996}},{"attributes":{"ID":551041,"DIS_CODE":0,"TOWNNAME":"安平區","LI":"平安里","LIN":"10鄰","STREET":"安平路","SECT":" ","MAREA":" ","LANE":" ","ALLEY":" ","HOUSE_NO":"４４８號","E_COORD97":165266.20999999999,"N_COORD97":2544325.02,"ADDRESS":"安平路４４８號","OBJECTID":551014},"geometry":{"x":165266.21000000089,"y":2544325.0199999996}},{"attributes":{"ID":551042,"DIS_CODE":0,"TOWNNAME":"安平區","LI":"平安里","LIN":"10鄰","STREET":"安平路","SECT":" ","MAREA":" ","LANE":" ","ALLEY":" ","HOUSE_NO":"４５２號","E_COORD97":165256.48000000001,"N_COORD97":2544327.6299999999,"ADDRESS":"安平路４５２號","OBJECTID":551015},"geometry":{"x":165256.48000000138,"y":2544327.6300000027}},{"attributes":{"ID":551043,"DIS_CODE":0,"TOWNNAME":"安平區","LI":"平安里","LIN":"10鄰","STREET":"安平路","SECT":" ","MAREA":" ","LANE":" ","ALLEY":" ","HOUSE_NO":"４５６之１號","E_COORD97":165244.67000000001,"N_COORD97":2544329.2200000002,"ADDRESS":"安平路４５６之１號","OBJECTID":551016},"geometry":{"x":165244.66999999993,"y":2544329.2200000025}},{"attributes":{"ID":551044,"DIS_CODE":0,"TOWNNAME":"安平區","LI":"平安里","LIN":"10鄰","STREET":"安平路","SECT":" ","MAREA":" ","LANE":" ","ALLEY":" ","HOUSE_NO":"４５６號","E_COORD97":165249.92000000001,"N_COORD97":2544328.46,"ADDRESS":"安平路４５６號","OBJECTID":551017},"geometry":{"x":165249.91999999993,"y":2544328.4600000028}},{"attributes":{"ID":551045,"DIS_CODE":0,"TOWNNAME":"安平區","LI":"平安里","LIN":"10鄰","STREET":"安平路","SECT":" ","MAREA":" ","LANE":" ","ALLEY":" ","HOUSE_NO":"４６２號","E_COORD97":165234.23999999999,"N_COORD97":2544325.8399999999,"ADDRESS":"安平路４６２號","OBJECTID":551018},"geometry":{"x":165234.24000000115,"y":2544325.8399999999}},{"attributes":{"ID":551046,"DIS_CODE":0,"TOWNNAME":"安平區","LI":"平安里","LIN":"10鄰","STREET":"安平路","SECT":" ","MAREA":" ","LANE":" ","ALLEY":" ","HOUSE_NO":"４６４號","E_COORD97":165230.17000000001,"N_COORD97":2544326.7999999998,"ADDRESS":"安平路４６４號","OBJECTID":551019},"geometry":{"x":165230.17000000179,"y":2544326.8000000007}},{"attributes":{"ID":551047,"DIS_CODE":0,"TOWNNAME":"安平區","LI":"平安里","LIN":"10鄰","STREET":"安平路","SECT":" ","MAREA":" ","LANE":" ","ALLEY":" ","HOUSE_NO":"４６６號","E_COORD97":165225.06,"N_COORD97":2544327.29,"ADDRESS":"安平路４６６號","OBJECTID":551020},"geometry":{"x":165225.05999999959,"y":2544327.290000001}},{"attributes":{"ID":551048,"DIS_CODE":0,"TOWNNAME":"安平區","LI":"平安里","LIN":"10鄰","STREET":"安平路","SECT":" ","MAREA":" ","LANE":" ","ALLEY":" ","HOUSE_NO":"４６８號","E_COORD97":165219.44,"N_COORD97":2544328.23,"ADDRESS":"安平路４６８號","OBJECTID":551021},"geometry":{"x":165219.44000000134,"y":2544328.2300000042}},{"attributes":{"ID":551049,"DIS_CODE":0,"TOWNNAME":"安平區","LI":"平安里","LIN":"10鄰","STREET":"安平路","SECT":" ","MAREA":" ","LANE":" ","ALLEY":" ","HOUSE_NO":"４７０號","E_COORD97":165214.32999999999,"N_COORD97":2544328.8500000001,"ADDRESS":"安平路４７０號","OBJECTID":551022},"geometry":{"x":165214.33000000101,"y":2544328.8499999996}},{"attributes":{"ID":551050,"DIS_CODE":0,"TOWNNAME":"安平區","LI":"平安里","LIN":"10鄰","STREET":"安平路","SECT":" ","MAREA":" ","LANE":" ","ALLEY":" ","HOUSE_NO":"４７４號","E_COORD97":165203.22,"N_COORD97":2544329.9500000002,"ADDRESS":"安平路４７４號","OBJECTID":551023},"geometry":{"x":165203.22000000067,"y":2544329.9500000011}},{"attributes":{"ID":551051,"DIS_CODE":0,"TOWNNAME":"安平區","LI":"平安里","LIN":"10鄰","STREET":"安平路","SECT":" ","MAREA":" ","LANE":" ","ALLEY":" ","HOUSE_NO":"４８０號","E_COORD97":165187.23000000001,"N_COORD97":2544332.02,"ADDRESS":"安平路４８０號","OBJECTID":551024},"geometry":{"x":165187.23000000045,"y":2544332.0199999977}},{"attributes":{"ID":551052,"DIS_CODE":0,"TOWNNAME":"安平區","LI":"平安里","LIN":"10鄰","STREET":"安平路","SECT":" ","MAREA":" ","LANE":" ","ALLEY":" ","HOUSE_NO":"４８２號","E_COORD97":165183.09,"N_COORD97":2544335.8900000001,"ADDRESS":"安平路４８２號","OBJECTID":551025},"geometry":{"x":165183.08999999985,"y":2544335.8900000006}},{"attributes":{"ID":551053,"DIS_CODE":0,"TOWNNAME":"安平區","LI":"平安里","LIN":"10鄰","STREET":"安平路","SECT":" ","MAREA":" ","LANE":" ","ALLEY":" ","HOUSE_NO":"４８４號","E_COORD97":165178.73999999999,"N_COORD97":2544336.7799999998,"ADDRESS":"安平路４８４號","OBJECTID":551026},"geometry":{"x":165178.74000000022,"y":2544336.7799999975}},{"attributes":{"ID":551054,"DIS_CODE":0,"TOWNNAME":"安平區","LI":"平安里","LIN":"10鄰","STREET":"安平路","SECT":" ","MAREA":" ","LANE":" ","ALLEY":" ","HOUSE_NO":"４８６號","E_COORD97":165173.89999999999,"N_COORD97":2544335.8199999998,"ADDRESS":"安平路４８６號","OBJECTID":551027},"geometry":{"x":165173.9000000013,"y":2544335.8200000022}},{"attributes":{"ID":551055,"DIS_CODE":0,"TOWNNAME":"安平區","LI":"平安里","LIN":"10鄰","STREET":"安平路","SECT":" ","MAREA":" ","LANE":" ","ALLEY":" ","HOUSE_NO":"４８８號","E_COORD97":165169.20999999999,"N_COORD97":2544336.5800000001,"ADDRESS":"安平路４８８號","OBJECTID":551028},"geometry":{"x":165169.21000000089,"y":2544336.5800000019}},{"attributes":{"ID":551056,"DIS_CODE":0,"TOWNNAME":"安平區","LI":"平安里","LIN":"10鄰","STREET":"安平路","SECT":" ","MAREA":" ","LANE":" ","ALLEY":" ","HOUSE_NO":"４９０號","E_COORD97":165164.60000000001,"N_COORD97":2544333.1899999999,"ADDRESS":"安平路４９０號","OBJECTID":551029},"geometry":{"x":165164.60000000056,"y":2544333.1899999995}},{"attributes":{"ID":551057,"DIS_CODE":0,"TOWNNAME":"安平區","LI":"平安里","LIN":"10鄰","STREET":"安平路","SECT":" ","MAREA":" ","LANE":" ","ALLEY":" ","HOUSE_NO":"４９２號","E_COORD97":165156.57999999999,"N_COORD97":2544333.98,"ADDRESS":"安平路４９２號","OBJECTID":551030},"geometry":{"x":165156.58000000101,"y":2544333.9800000023}},{"attributes":{"ID":551058,"DIS_CODE":0,"TOWNNAME":"安平區","LI":"石門里","LIN":"10鄰","STREET":"安北路","SECT":" ","MAREA":" ","LANE":" ","ALLEY":" ","HOUSE_NO":"５１號","E_COORD97":164537.09,"N_COORD97":2544612.3100000001,"ADDRESS":"安北路５１號","OBJECTID":551031},"geometry":{"x":164537.08999999985,"y":2544612.3100000005}},{"attributes":{"ID":551059,"DIS_CODE":0,"TOWNNAME":"安平區","LI":"石門里","LIN":"10鄰","STREET":"安北路","SECT":" ","MAREA":" ","LANE":" ","ALLEY":" ","HOUSE_NO":"１１號","E_COORD97":164663.04000000001,"N_COORD97":2544471.9399999999,"ADDRESS":"安北路１１號","OBJECTID":551032},"geometry":{"x":164663.04000000004,"y":2544471.9400000013}},{"attributes":{"ID":551060,"DIS_CODE":0,"TOWNNAME":"安平區","LI":"石門里","LIN":"10鄰","STREET":"安北路","SECT":" ","MAREA":" ","LANE":" ","ALLEY":" ","HOUSE_NO":"１３號","E_COORD97":164658.91,"N_COORD97":2544474.52,"ADDRESS":"安北路１３號","OBJECTID":551033},"geometry":{"x":164658.91000000015,"y":2544474.5200000033}},{"attributes":{"ID":551061,"DIS_CODE":0,"TOWNNAME":"安平區","LI":"石門里","LIN":"10鄰","STREET":"安北路","SECT":" ","MAREA":" ","LANE":" ","ALLEY":" ","HOUSE_NO":"１５號","E_COORD97":164656.85000000001,"N_COORD97":2544477.6099999999,"ADDRESS":"安北路１５號","OBJECTID":551034},"geometry":{"x":164656.84999999963,"y":2544477.6100000013}},{"attributes":{"ID":551062,"DIS_CODE":0,"TOWNNAME":"安平區","LI":"石門里","LIN":"10鄰","STREET":"安北路","SECT":" ","MAREA":" ","LANE":" ","ALLEY":" ","HOUSE_NO":"１５號之１","E_COORD97":164653.75,"N_COORD97":2544481.2200000002,"ADDRESS":"安北路１５號之１","OBJECTID":551035},"geometry":{"x":164653.75000000093,"y":2544481.2200000044}},{"attributes":{"ID":551063,"DIS_CODE":0,"TOWNNAME":"安平區","LI":"石門里","LIN":"10鄰","STREET":"安北路","SECT":" ","MAREA":" ","LANE":" ","ALLEY":" ","HOUSE_NO":"１５號之２","E_COORD97":164651.69,"N_COORD97":2544483.79,"ADDRESS":"安北路１５號之２","OBJECTID":551036},"geometry":{"x":164651.69000000134,"y":2544483.790000001}},{"attributes":{"ID":551064,"DIS_CODE":0,"TOWNNAME":"安平區","LI":"石門里","LIN":"10鄰","STREET":"安北路","SECT":" ","MAREA":" ","LANE":" ","ALLEY":" ","HOUSE_NO":"１５號之３","E_COORD97":164646.53,"N_COORD97":2544490.4900000002,"ADDRESS":"安北路１５號之３","OBJECTID":551037},"geometry":{"x":164646.53000000026,"y":2544490.4900000021}},{"attributes":{"ID":551065,"DIS_CODE":0,"TOWNNAME":"安平區","LI":"石門里","LIN":"10鄰","STREET":"安北路","SECT":" ","MAREA":" ","LANE":" ","ALLEY":" ","HOUSE_NO":"１５號之５","E_COORD97":164644.20999999999,"N_COORD97":2544494.1000000001,"ADDRESS":"安北路１５號之５","OBJECTID":551038},"geometry":{"x":164644.21000000089,"y":2544494.0999999996}},{"attributes":{"ID":551066,"DIS_CODE":0,"TOWNNAME":"安平區","LI":"石門里","LIN":"10鄰","STREET":"安北路","SECT":" ","MAREA":" ","LANE":" ","ALLEY":" ","HOUSE_NO":"１５號之６","E_COORD97":164639.57000000001,"N_COORD97":2544495.1299999999,"ADDRESS":"安北路１５號之６","OBJECTID":551039},"geometry":{"x":164639.56999999937,"y":2544495.1300000008}},{"attributes":{"ID":551067,"DIS_CODE":0,"TOWNNAME":"安平區","LI":"石門里","LIN":"10鄰","STREET":"安北路","SECT":" ","MAREA":" ","LANE":" ","ALLEY":" ","HOUSE_NO":"１７號","E_COORD97":164635.19,"N_COORD97":2544504.2000000002,"ADDRESS":"安北路１７號","OBJECTID":551040},"geometry":{"x":164635.19000000041,"y":2544504.2000000011}},{"attributes":{"ID":551068,"DIS_CODE":0,"TOWNNAME":"安平區","LI":"石門里","LIN":"10鄰","STREET":"安北路","SECT":" ","MAREA":" ","LANE":" ","ALLEY":" ","HOUSE_NO":"３３號","E_COORD97":164604.67999999999,"N_COORD97":2544542.27,"ADDRESS":"安北路３３號","OBJECTID":551041},"geometry":{"x":164604.68000000063,"y":2544542.2700000014}},{"attributes":{"ID":551069,"DIS_CODE":0,"TOWNNAME":"安平區","LI":"石門里","LIN":"10鄰","STREET":"安北路","SECT":" ","MAREA":" ","LANE":" ","ALLEY":" ","HOUSE_NO":"３３號之１","E_COORD97":164603.13,"N_COORD97":2544547.6800000002,"ADDRESS":"安北路３３號之１","OBJECTID":551042},"geometry":{"x":164603.12999999896,"y":2544547.6799999997}},{"attributes":{"ID":551070,"DIS_CODE":0,"TOWNNAME":"安平區","LI":"石門里","LIN":"10鄰","STREET":"安北路","SECT":" ","MAREA":" ","LANE":" ","ALLEY":" ","HOUSE_NO":"３３號之２","E_COORD97":164598.73999999999,"N_COORD97":2544552.0499999998,"ADDRESS":"安北路３３號之２","OBJECTID":551043},"geometry":{"x":164598.74000000022,"y":2544552.0500000007}},{"attributes":{"ID":551071,"DIS_CODE":0,"TOWNNAME":"安平區","LI":"石門里","LIN":"10鄰","STREET":"安北路","SECT":" ","MAREA":" ","LANE":" ","ALLEY":" ","HOUSE_NO":"３３號之３","E_COORD97":164589.20000000001,"N_COORD97":2544555.3999999999,"ADDRESS":"安北路３３號之３","OBJECTID":551044},"geometry":{"x":164589.20000000019,"y":2544555.4000000022}},{"attributes":{"ID":551072,"DIS_CODE":0,"TOWNNAME":"安平區","LI":"石門里","LIN":"10鄰","STREET":"安北路","SECT":" ","MAREA":" ","LANE":" ","ALLEY":" ","HOUSE_NO":"３３號之７","E_COORD97":164575.79000000001,"N_COORD97":2544567.25,"ADDRESS":"安北路３３號之７","OBJECTID":551045},"geometry":{"x":164575.79000000097,"y":2544567.25}},{"attributes":{"ID":551073,"DIS_CODE":0,"TOWNNAME":"安平區","LI":"石門里","LIN":"10鄰","STREET":"安北路","SECT":" ","MAREA":" ","LANE":" ","ALLEY":" ","HOUSE_NO":"３９號","E_COORD97":164567.79000000001,"N_COORD97":2544581.1800000002,"ADDRESS":"安北路３９號","OBJECTID":551046},"geometry":{"x":164567.79000000004,"y":2544581.1799999997}},{"attributes":{"ID":551074,"DIS_CODE":0,"TOWNNAME":"安平區","LI":"石門里","LIN":"10鄰","STREET":"安北路","SECT":" ","MAREA":" ","LANE":" ","ALLEY":" ","HOUSE_NO":"４３號","E_COORD97":164556.17999999999,"N_COORD97":2544587.3199999998,"ADDRESS":"安北路４３號","OBJECTID":551047},"geometry":{"x":164556.1799999997,"y":2544587.3200000003}},{"attributes":{"ID":551075,"DIS_CODE":0,"TOWNNAME":"安平區","LI":"石門里","LIN":"10鄰","STREET":"安北路","SECT":" ","MAREA":" ","LANE":" ","ALLEY":" ","HOUSE_NO":"４７號","E_COORD97":164549.22,"N_COORD97":2544597.8799999999,"ADDRESS":"安北路４７號","OBJECTID":551048},"geometry":{"x":164549.21999999974,"y":2544597.8800000008}},{"attributes":{"ID":551076,"DIS_CODE":0,"TOWNNAME":"安平區","LI":"石門里","LIN":"10鄰","STREET":"安北路","SECT":" ","MAREA":" ","LANE":" ","ALLEY":" ","HOUSE_NO":"４９號","E_COORD97":164546.12,"N_COORD97":2544602,"ADDRESS":"安北路４９號","OBJECTID":551049},"geometry":{"x":164546.12000000104,"y":2544602.0000000019}},{"attributes":{"ID":551077,"DIS_CODE":0,"TOWNNAME":"安平區","LI":"石門里","LIN":"10鄰","STREET":"安北路","SECT":" ","MAREA":" ","LANE":" ","ALLEY":" ","HOUSE_NO":"５３號","E_COORD97":164532.19,"N_COORD97":2544615.3999999999,"ADDRESS":"安北路５３號","OBJECTID":551050},"geometry":{"x":164532.19000000227,"y":2544615.4000000041}},{"attributes":{"ID":551078,"DIS_CODE":0,"TOWNNAME":"北區","LI":"玉皇里","LIN":"10鄰","STREET":"崇安街","SECT":" ","MAREA":" ","LANE":" ","ALLEY":" ","HOUSE_NO":"２號","E_COORD97":168568.87,"N_COORD97":2544486.0800000001,"ADDRESS":"崇安街２號","OBJECTID":551051},"geometry":{"x":168568.87000000104,"y":2544486.0800000019}},{"attributes":{"ID":551079,"DIS_CODE":0,"TOWNNAME":"北區","LI":"玉皇里","LIN":"10鄰","STREET":"崇安街","SECT":" ","MAREA":" ","LANE":" ","ALLEY":" ","HOUSE_NO":"４號","E_COORD97":168572.98000000001,"N_COORD97":2544488.2599999998,"ADDRESS":"崇安街４號","OBJECTID":551052},"geometry":{"x":168572.98000000045,"y":2544488.2600000016}},{"attributes":{"ID":551080,"DIS_CODE":0,"TOWNNAME":"北區","LI":"玉皇里","LIN":"10鄰","STREET":"崇安街","SECT":" ","MAREA":" ","LANE":" ","ALLEY":" ","HOUSE_NO":"６號","E_COORD97":168577.66,"N_COORD97":2544490.6400000001,"ADDRESS":"崇安街６號","OBJECTID":551053},"geometry":{"x":168577.66000000108,"y":2544490.6400000006}},{"attributes":{"ID":551081,"DIS_CODE":0,"TOWNNAME":"北區","LI":"玉皇里","LIN":"10鄰","STREET":"崇安街","SECT":" ","MAREA":" ","LANE":" ","ALLEY":" ","HOUSE_NO":"８號","E_COORD97":168580.78,"N_COORD97":2544493.98,"ADDRESS":"崇安街８號","OBJECTID":551054},"geometry":{"x":168580.78000000026,"y":2544493.9800000023}},{"attributes":{"ID":551082,"DIS_CODE":0,"TOWNNAME":"北區","LI":"大和里","LIN":"10鄰","STREET":"大港街","SECT":" ","MAREA":" ","LANE":" ","ALLEY":" ","HOUSE_NO":"１６號","E_COORD97":167282.42999999999,"N_COORD97":2546118.27,"ADDRESS":"大港街１６號","OBJECTID":551055},"geometry":{"x":167282.4299999997,"y":2546118.2700000014}},{"attributes":{"ID":551083,"DIS_CODE":0,"TOWNNAME":"北區","LI":"大和里","LIN":"10鄰","STREET":"大港街","SECT":" ","MAREA":" ","LANE":" ","ALLEY":" ","HOUSE_NO":"２８號","E_COORD97":167246.67000000001,"N_COORD97":2546101.0699999998,"ADDRESS":"大港街２８號","OBJECTID":551056},"geometry":{"x":167246.66999999993,"y":2546101.0700000003}},{"attributes":{"ID":551084,"DIS_CODE":0,"TOWNNAME":"北區","LI":"大和里","LIN":"10鄰","STREET":"大港街","SECT":" ","MAREA":" ","LANE":" ","ALLEY":" ","HOUSE_NO":"１０號","E_COORD97":167295.01000000001,"N_COORD97":2546123.75,"ADDRESS":"大港街１０號","OBJECTID":551057},"geometry":{"x":167295.01000000071,"y":2546123.75}},{"attributes":{"ID":551085,"DIS_CODE":0,"TOWNNAME":"北區","LI":"大和里","LIN":"10鄰","STREET":"大港街","SECT":" ","MAREA":" ","LANE":" ","ALLEY":" ","HOUSE_NO":"２６號","E_COORD97":167258.78,"N_COORD97":2546105.3199999998,"ADDRESS":"大港街２６號","OBJECTID":551058},"geometry":{"x":167258.78000000026,"y":2546105.3200000022}},{"attributes":{"ID":551086,"DIS_CODE":0,"TOWNNAME":"北區","LI":"大和里","LIN":"10鄰","STREET":"大港街","SECT":" ","MAREA":" ","LANE":" ","ALLEY":" ","HOUSE_NO":"６號","E_COORD97":167303.07999999999,"N_COORD97":2546127.0499999998,"ADDRESS":"大港街６號","OBJECTID":551059},"geometry":{"x":167303.08000000101,"y":2546127.0500000026}},{"attributes":{"ID":551087,"DIS_CODE":0,"TOWNNAME":"北區","LI":"大和里","LIN":"10鄰","STREET":"大港街","SECT":" ","MAREA":" ","LANE":" ","ALLEY":" ","HOUSE_NO":"８號","E_COORD97":167299.57000000001,"N_COORD97":2546124.6600000001,"ADDRESS":"大港街８號","OBJECTID":551060},"geometry":{"x":167299.57000000216,"y":2546124.6600000001}},{"attributes":{"ID":551088,"DIS_CODE":0,"TOWNNAME":"北區","LI":"大和里","LIN":"10鄰","STREET":"文賢路","SECT":" ","MAREA":" ","LANE":" ","ALLEY":" ","HOUSE_NO":"７２３號","E_COORD97":167333.79000000001,"N_COORD97":2546134.9900000002,"ADDRESS":"文賢路７２３號","OBJECTID":551061},"geometry":{"x":167333.79000000097,"y":2546134.9900000021}},{"attributes":{"ID":551089,"DIS_CODE":0,"TOWNNAME":"北區","LI":"大和里","LIN":"10鄰","STREET":"文賢路","SECT":" ","MAREA":" ","LANE":" ","ALLEY":" ","HOUSE_NO":"７２５號","E_COORD97":167334.07999999999,"N_COORD97":2546141.0499999998,"ADDRESS":"文賢路７２５號","OBJECTID":551062},"geometry":{"x":167334.08000000007,"y":2546141.0500000026}},{"attributes":{"ID":551090,"DIS_CODE":0,"TOWNNAME":"麻豆區","LI":"新建里","LIN":"10鄰","STREET":"麻學路","SECT":"一段","MAREA":" ","LANE":" ","ALLEY":" ","HOUSE_NO":"１５號之５","E_COORD97":172229.35999999999,"N_COORD97":2565015.27,"ADDRESS":"麻學路一段１５號之５","OBJECTID":551063},"geometry":{"x":172229.36000000127,"y":2565015.2700000033}},{"attributes":{"ID":551091,"DIS_CODE":0,"TOWNNAME":"麻豆區","LI":"興農里","LIN":"10鄰","STREET":"新生南路","SECT":" ","MAREA":" ","LANE":" ","ALLEY":" ","HOUSE_NO":"１２２號","E_COORD97":172304.17999999999,"N_COORD97":2564644.9700000002,"ADDRESS":"新生南路１２２號","OBJECTID":551064},"geometry":{"x":172304.18000000063,"y":2564644.9700000007}},{"attributes":{"ID":551092,"DIS_CODE":0,"TOWNNAME":"麻豆區","LI":"新建里","LIN":"10鄰","STREET":"新生南路","SECT":" ","MAREA":" ","LANE":" ","ALLEY":" ","HOUSE_NO":"１２號","E_COORD97":172284.25,"N_COORD97":2564910.48,"ADDRESS":"新生南路１２號","OBJECTID":551065},"geometry":{"x":172284.25000000093,"y":2564910.4800000023}},{"attributes":{"ID":551093,"DIS_CODE":0,"TOWNNAME":"麻豆區","LI":"興農里","LIN":"10鄰","STREET":"新生南路","SECT":" ","MAREA":" ","LANE":" ","ALLEY":" ","HOUSE_NO":"１３０號","E_COORD97":172303.14000000001,"N_COORD97":2564626.8100000001,"ADDRESS":"新生南路１３０號","OBJECTID":551066},"geometry":{"x":172303.1400000006,"y":2564626.8100000024}},{"attributes":{"ID":551094,"DIS_CODE":0,"TOWNNAME":"麻豆區","LI":"興農里","LIN":"10鄰","STREET":"新生南路","SECT":" ","MAREA":" ","LANE":" ","ALLEY":" ","HOUSE_NO":"１３２號","E_COORD97":172303.42000000001,"N_COORD97":2564621.96,"ADDRESS":"新生南路１３２號","OBJECTID":551067},"geometry":{"x":172303.41999999993,"y":2564621.9600000046}},{"attributes":{"ID":551095,"DIS_CODE":0,"TOWNNAME":"麻豆區","LI":"興農里","LIN":"10鄰","STREET":"新生南路","SECT":" ","MAREA":" ","LANE":" ","ALLEY":" ","HOUSE_NO":"１３４號","E_COORD97":172303.92000000001,"N_COORD97":2564614.8700000001,"ADDRESS":"新生南路１３４號","OBJECTID":551068},"geometry":{"x":172303.91999999993,"y":2564614.870000001}},{"attributes":{"ID":551096,"DIS_CODE":0,"TOWNNAME":"麻豆區","LI":"興農里","LIN":"10鄰","STREET":"新生南路","SECT":" ","MAREA":" ","LANE":" ","ALLEY":" ","HOUSE_NO":"１３６號","E_COORD97":172303.91,"N_COORD97":2564610.6899999999,"ADDRESS":"新生南路１３６號","OBJECTID":551069},"geometry":{"x":172303.91000000015,"y":2564610.6899999995}},{"attributes":{"ID":551097,"DIS_CODE":0,"TOWNNAME":"麻豆區","LI":"興農里","LIN":"10鄰","STREET":"新生南路","SECT":" ","MAREA":" ","LANE":" ","ALLEY":" ","HOUSE_NO":"１３８號","E_COORD97":172304.07000000001,"N_COORD97":2564606.6200000001,"ADDRESS":"新生南路１３８號","OBJECTID":551070},"geometry":{"x":172304.07000000123,"y":2564606.620000001}},{"attributes":{"ID":551098,"DIS_CODE":0,"TOWNNAME":"麻豆區","LI":"興農里","LIN":"10鄰","STREET":"新生南路","SECT":" ","MAREA":" ","LANE":" ","ALLEY":" ","HOUSE_NO":"１４０號","E_COORD97":172304.81,"N_COORD97":2564602.54,"ADDRESS":"新生南路１４０號","OBJECTID":551071},"geometry":{"x":172304.81000000052,"y":2564602.5400000028}},{"attributes":{"ID":551099,"DIS_CODE":0,"TOWNNAME":"麻豆區","LI":"興農里","LIN":"10鄰","STREET":"新生南路","SECT":" ","MAREA":" ","LANE":" ","ALLEY":" ","HOUSE_NO":"１４２號","E_COORD97":172304.82000000001,"N_COORD97":2564599.3900000001,"ADDRESS":"新生南路１４２號","OBJECTID":551072},"geometry":{"x":172304.8200000003,"y":2564599.3900000025}},{"attributes":{"ID":551100,"DIS_CODE":0,"TOWNNAME":"麻豆區","LI":"興農里","LIN":"10鄰","STREET":"新生南路","SECT":" ","MAREA":" ","LANE":" ","ALLEY":" ","HOUSE_NO":"１４４號","E_COORD97":172305.76999999999,"N_COORD97":2564585.8700000001,"ADDRESS":"新生南路１４４號","OBJECTID":551073},"geometry":{"x":172305.76999999955,"y":2564585.8700000029}},{"attributes":{"ID":551101,"DIS_CODE":0,"TOWNNAME":"麻豆區","LI":"興農里","LIN":"10鄰","STREET":"新生南路","SECT":" ","MAREA":" ","LANE":" ","ALLEY":" ","HOUSE_NO":"１４６號","E_COORD97":172305.44,"N_COORD97":2564595.4300000002,"ADDRESS":"新生南路１４６號","OBJECTID":551074},"geometry":{"x":172305.44000000134,"y":2564595.4300000016}},{"attributes":{"ID":551102,"DIS_CODE":0,"TOWNNAME":"麻豆區","LI":"興農里","LIN":"10鄰","STREET":"新生南路","SECT":" ","MAREA":" ","LANE":" ","ALLEY":" ","HOUSE_NO":"１４８號","E_COORD97":172305.79999999999,"N_COORD97":2564590.5,"ADDRESS":"新生南路１４８號","OBJECTID":551075},"geometry":{"x":172305.80000000075,"y":2564590.5000000037}},{"attributes":{"ID":551103,"DIS_CODE":0,"TOWNNAME":"麻豆區","LI":"興農里","LIN":"10鄰","STREET":"新生南路","SECT":" ","MAREA":" ","LANE":" ","ALLEY":" ","HOUSE_NO":"１５２號","E_COORD97":172306.76000000001,"N_COORD97":2564578.3399999999,"ADDRESS":"新生南路１５２號","OBJECTID":551076},"geometry":{"x":172306.75999999885,"y":2564578.3400000017}},{"attributes":{"ID":551104,"DIS_CODE":0,"TOWNNAME":"麻豆區","LI":"興農里","LIN":"10鄰","STREET":"新生南路","SECT":" ","MAREA":" ","LANE":" ","ALLEY":" ","HOUSE_NO":"１５４號","E_COORD97":172307.81,"N_COORD97":2564572.3700000001,"ADDRESS":"新生南路１５４號","OBJECTID":551077},"geometry":{"x":172307.80999999959,"y":2564572.3700000029}},{"attributes":{"ID":551105,"DIS_CODE":0,"TOWNNAME":"麻豆區","LI":"興農里","LIN":"10鄰","STREET":"新生南路","SECT":" ","MAREA":" ","LANE":" ","ALLEY":" ","HOUSE_NO":"１６６號","E_COORD97":172308.25,"N_COORD97":2564547.6000000001,"ADDRESS":"新生南路１６６號","OBJECTID":551078},"geometry":{"x":172308.25,"y":2564547.5999999996}},{"attributes":{"ID":551106,"DIS_CODE":0,"TOWNNAME":"麻豆區","LI":"新建里","LIN":"10鄰","STREET":"新生南路","SECT":" ","MAREA":" ","LANE":" ","ALLEY":" ","HOUSE_NO":"１６號","E_COORD97":172283.89069199999,"N_COORD97":2564906.82675,"ADDRESS":"新生南路１６號","OBJECTID":551079},"geometry":{"x":172283.89069200121,"y":2564906.8267490007}},{"attributes":{"ID":551107,"DIS_CODE":0,"TOWNNAME":"麻豆區","LI":"興農里","LIN":"10鄰","STREET":"新生南路","SECT":" ","MAREA":" ","LANE":" ","ALLEY":" ","HOUSE_NO":"１７４號","E_COORD97":172312.19,"N_COORD97":2564534.02,"ADDRESS":"新生南路１７４號","OBJECTID":551080},"geometry":{"x":172312.19000000134,"y":2564534.0199999996}},{"attributes":{"ID":551108,"DIS_CODE":0,"TOWNNAME":"麻豆區","LI":"新建里","LIN":"10鄰","STREET":"新生南路","SECT":" ","MAREA":" ","LANE":" ","ALLEY":" ","HOUSE_NO":"１８號","E_COORD97":172284.10999999999,"N_COORD97":2564901.3700000001,"ADDRESS":"新生南路１８號","OBJECTID":551081},"geometry":{"x":172284.11000000034,"y":2564901.3700000029}},{"attributes":{"ID":551109,"DIS_CODE":0,"TOWNNAME":"麻豆區","LI":"新建里","LIN":"10鄰","STREET":"新生南路","SECT":" ","MAREA":" ","LANE":" ","ALLEY":" ","HOUSE_NO":"２０號","E_COORD97":172284.54999999999,"N_COORD97":2564895.4300000002,"ADDRESS":"新生南路２０號","OBJECTID":551082},"geometry":{"x":172284.55000000168,"y":2564895.4299999978}},{"attributes":{"ID":551110,"DIS_CODE":0,"TOWNNAME":"麻豆區","LI":"新建里","LIN":"10鄰","STREET":"新生南路","SECT":" ","MAREA":" ","LANE":" ","ALLEY":" ","HOUSE_NO":"２４號","E_COORD97":172283.75,"N_COORD97":2564885.2799999998,"ADDRESS":"新生南路２４號","OBJECTID":551083},"geometry":{"x":172283.75000000093,"y":2564885.2799999993}},{"attributes":{"ID":551111,"DIS_CODE":0,"TOWNNAME":"麻豆區","LI":"新建里","LIN":"10鄰","STREET":"新生南路","SECT":" ","MAREA":" ","LANE":" ","ALLEY":" ","HOUSE_NO":"２６號","E_COORD97":172283.69,"N_COORD97":2564878.98,"ADDRESS":"新生南路２６號","OBJECTID":551084},"geometry":{"x":172283.69000000041,"y":2564878.9800000042}},{"attributes":{"ID":551112,"DIS_CODE":0,"TOWNNAME":"麻豆區","LI":"新建里","LIN":"10鄰","STREET":"新生南路","SECT":" ","MAREA":" ","LANE":" ","ALLEY":" ","HOUSE_NO":"３４號之１","E_COORD97":172284.76999999999,"N_COORD97":2564857.21,"ADDRESS":"新生南路３４號之１","OBJECTID":551085},"geometry":{"x":172284.77000000048,"y":2564857.2100000009}},{"attributes":{"ID":551113,"DIS_CODE":0,"TOWNNAME":"新營區","LI":"南紙里","LIN":"10鄰","STREET":"南紙街","SECT":" ","MAREA":" ","LANE":" ","ALLEY":" ","HOUSE_NO":"５２號","E_COORD97":177808.67000000001,"N_COORD97":2577687.3100000001,"ADDRESS":"南紙街５２號","OBJECTID":551086},"geometry":{"x":177808.67000000179,"y":2577687.3100000024}},{"attributes":{"ID":551114,"DIS_CODE":0,"TOWNNAME":"麻豆區","LI":"新建里","LIN":"10鄰","STREET":"新生南路","SECT":" ","MAREA":" ","LANE":" ","ALLEY":" ","HOUSE_NO":"３４號之３","E_COORD97":172289.60000000001,"N_COORD97":2564832.9700000002,"ADDRESS":"新生南路３４號之３","OBJECTID":551087},"geometry":{"x":172289.60000000056,"y":2564832.9700000025}},{"attributes":{"ID":551115,"DIS_CODE":0,"TOWNNAME":"麻豆區","LI":"新建里","LIN":"10鄰","STREET":"新生南路","SECT":" ","MAREA":" ","LANE":" ","ALLEY":" ","HOUSE_NO":"３４號","E_COORD97":172290.82999999999,"N_COORD97":2564847.46,"ADDRESS":"新生南路３４號","OBJECTID":551088},"geometry":{"x":172290.83000000007,"y":2564847.4600000028}},{"attributes":{"ID":551116,"DIS_CODE":0,"TOWNNAME":"歸仁區","LI":"南保里","LIN":"10鄰","STREET":"文化街","SECT":"三段","MAREA":" ","LANE":" ","ALLEY":" ","HOUSE_NO":"１２０號","E_COORD97":176716.44,"N_COORD97":2541222.3300000001,"ADDRESS":"文化街三段１２０號","OBJECTID":551089},"geometry":{"x":176716.44000000041,"y":2541222.3300000019}},{"attributes":{"ID":551117,"DIS_CODE":0,"TOWNNAME":"麻豆區","LI":"巷口里","LIN":"10鄰","STREET":"新生南路","SECT":" ","MAREA":" ","LANE":" ","ALLEY":" ","HOUSE_NO":"６１１號","E_COORD97":173381.44,"N_COORD97":2564098.0299999998,"ADDRESS":"新生南路６１１號","OBJECTID":551090},"geometry":{"x":173381.44000000134,"y":2564098.0300000031}},{"attributes":{"ID":551118,"DIS_CODE":0,"TOWNNAME":"麻豆區","LI":"巷口里","LIN":"10鄰","STREET":"新生南路","SECT":" ","MAREA":" ","LANE":" ","ALLEY":" ","HOUSE_NO":"６２７號","E_COORD97":173418.73000000001,"N_COORD97":2564127.7799999998,"ADDRESS":"新生南路６２７號","OBJECTID":551091},"geometry":{"x":173418.73000000138,"y":2564127.7800000012}},{"attributes":{"ID":551119,"DIS_CODE":0,"TOWNNAME":"麻豆區","LI":"巷口里","LIN":"10鄰","STREET":"新生南路","SECT":" ","MAREA":" ","LANE":" ","ALLEY":" ","HOUSE_NO":"６３３號","E_COORD97":173436.84,"N_COORD97":2564128.6299999999,"ADDRESS":"新生南路６３３號","OBJECTID":551092},"geometry":{"x":173436.83999999985,"y":2564128.6300000008}},{"attributes":{"ID":551120,"DIS_CODE":0,"TOWNNAME":"麻豆區","LI":"新建里","LIN":"10鄰","STREET":"新生南路","SECT":" ","MAREA":" ","LANE":" ","ALLEY":" ","HOUSE_NO":"６號","E_COORD97":172282.35000000001,"N_COORD97":2564927.96,"ADDRESS":"新生南路６號","OBJECTID":551093},"geometry":{"x":172282.35000000149,"y":2564927.9600000028}},{"attributes":{"ID":551121,"DIS_CODE":0,"TOWNNAME":"歸仁區","LI":"南興里","LIN":"10鄰","STREET":"文化十六街","SECT":" ","MAREA":" ","LANE":" ","ALLEY":" ","HOUSE_NO":"３７號","E_COORD97":176022.29000000001,"N_COORD97":2541285.3300000001,"ADDRESS":"文化十六街３７號","OBJECTID":551094},"geometry":{"x":176022.29000000004,"y":2541285.3300000001}},{"attributes":{"ID":551122,"DIS_CODE":0,"TOWNNAME":"歸仁區","LI":"後市里","LIN":"10鄰","STREET":"民權七街","SECT":" ","MAREA":" ","LANE":" ","ALLEY":" ","HOUSE_NO":"６號","E_COORD97":177017.12,"N_COORD97":2540720.29,"ADDRESS":"民權七街６號","OBJECTID":551095},"geometry":{"x":177017.12000000011,"y":2540720.290000001}},{"attributes":{"ID":551123,"DIS_CODE":0,"TOWNNAME":"歸仁區","LI":"南興里","LIN":"10鄰","STREET":"文化十六街","SECT":" ","MAREA":" ","LANE":" ","ALLEY":" ","HOUSE_NO":"３１號","E_COORD97":176020.19,"N_COORD97":2541272.3300000001,"ADDRESS":"文化十六街３１號","OBJECTID":551096},"geometry":{"x":176020.19000000041,"y":2541272.3299999982}},{"attributes":{"ID":551124,"DIS_CODE":0,"TOWNNAME":"歸仁區","LI":"南興里","LIN":"10鄰","STREET":"文化十六街","SECT":" ","MAREA":" ","LANE":" ","ALLEY":" ","HOUSE_NO":"２９號","E_COORD97":176020.19,"N_COORD97":2541267.3300000001,"ADDRESS":"文化十六街２９號","OBJECTID":551097},"geometry":{"x":176020.19000000041,"y":2541267.3300000019}},{"attributes":{"ID":551125,"DIS_CODE":0,"TOWNNAME":"歸仁區","LI":"南興里","LIN":"10鄰","STREET":"文化十六街","SECT":" ","MAREA":" ","LANE":" ","ALLEY":" ","HOUSE_NO":"１７號","E_COORD97":175996.48999999999,"N_COORD97":2541251.3300000001,"ADDRESS":"文化十六街１７號","OBJECTID":551098},"geometry":{"x":175996.49000000115,"y":2541251.3300000001}},{"attributes":{"ID":551126,"DIS_CODE":0,"TOWNNAME":"歸仁區","LI":"南保里","LIN":"10鄰","STREET":"文化八街","SECT":" ","MAREA":" ","LANE":" ","ALLEY":" ","HOUSE_NO":"３１號","E_COORD97":176745.14000000001,"N_COORD97":2541306.3300000001,"ADDRESS":"文化八街３１號","OBJECTID":551099},"geometry":{"x":176745.13999999966,"y":2541306.3300000038}},{"attributes":{"ID":551127,"DIS_CODE":0,"TOWNNAME":"歸仁區","LI":"媽廟里","LIN":"10鄰","STREET":"中正北路","SECT":"三段","MAREA":" ","LANE":" ","ALLEY":" ","HOUSE_NO":"２６１號","E_COORD97":177613.66,"N_COORD97":2543980.71,"ADDRESS":"中正北路三段２６１號","OBJECTID":551100},"geometry":{"x":177613.66000000015,"y":2543980.7100000028}},{"attributes":{"ID":551128,"DIS_CODE":0,"TOWNNAME":"歸仁區","LI":"媽廟里","LIN":"10鄰","STREET":"中正北路","SECT":"三段","MAREA":" ","LANE":" ","ALLEY":" ","HOUSE_NO":"２５５號","E_COORD97":177611.56,"N_COORD97":2543962.7200000002,"ADDRESS":"中正北路三段２５５號","OBJECTID":551101},"geometry":{"x":177611.55999999959,"y":2543962.7200000025}},{"attributes":{"ID":551129,"DIS_CODE":0,"TOWNNAME":"歸仁區","LI":"新厝里","LIN":"10鄰","STREET":"公園十街","SECT":" ","MAREA":" ","LANE":" ","ALLEY":" ","HOUSE_NO":"３２號","E_COORD97":177685.25,"N_COORD97":2540514.5600000001,"ADDRESS":"公園十街３２號","OBJECTID":551102},"geometry":{"x":177685.25,"y":2540514.5600000005}},{"attributes":{"ID":551130,"DIS_CODE":0,"TOWNNAME":"歸仁區","LI":"媽廟里","LIN":"10鄰","STREET":"中正北路","SECT":"三段","MAREA":" ","LANE":" ","ALLEY":" ","HOUSE_NO":"２３３號","E_COORD97":177605.16,"N_COORD97":2543915.7200000002,"ADDRESS":"中正北路三段２３３號","OBJECTID":551103},"geometry":{"x":177605.16000000015,"y":2543915.7200000025}},{"attributes":{"ID":551131,"DIS_CODE":0,"TOWNNAME":"歸仁區","LI":"新厝里","LIN":"10鄰","STREET":"中正三街","SECT":" ","MAREA":" ","LANE":" ","ALLEY":" ","HOUSE_NO":"３６號","E_COORD97":177709.07999999999,"N_COORD97":2540556.5099999998,"ADDRESS":"中正三街３６號","OBJECTID":551104},"geometry":{"x":177709.08000000007,"y":2540556.5100000016}},{"attributes":{"ID":551132,"DIS_CODE":0,"TOWNNAME":"歸仁區","LI":"新厝里","LIN":"10鄰","STREET":"公園十街","SECT":" ","MAREA":" ","LANE":" ","ALLEY":" ","HOUSE_NO":"４２號","E_COORD97":177689.14999999999,"N_COORD97":2540539.9300000002,"ADDRESS":"公園十街４２號","OBJECTID":551105},"geometry":{"x":177689.1500000013,"y":2540539.9300000016}},{"attributes":{"ID":551133,"DIS_CODE":0,"TOWNNAME":"歸仁區","LI":"歸仁里","LIN":"10鄰","STREET":"大通一街","SECT":" ","MAREA":" ","LANE":" ","ALLEY":" ","HOUSE_NO":"２０號","E_COORD97":177911.01000000001,"N_COORD97":2540910.4900000002,"ADDRESS":"大通一街２０號","OBJECTID":551106},"geometry":{"x":177911.00999999978,"y":2540910.4900000002}},{"attributes":{"ID":551134,"DIS_CODE":0,"TOWNNAME":"歸仁區","LI":"媽廟里","LIN":"10鄰","STREET":"中正北路","SECT":"三段","MAREA":" ","LANE":" ","ALLEY":" ","HOUSE_NO":"２４９號","E_COORD97":177610.45999999999,"N_COORD97":2543948.7200000002,"ADDRESS":"中正北路三段２４９號","OBJECTID":551107},"geometry":{"x":177610.46000000089,"y":2543948.7199999988}},{"attributes":{"ID":551135,"DIS_CODE":0,"TOWNNAME":"歸仁區","LI":"媽廟里","LIN":"10鄰","STREET":"中正北路","SECT":"三段","MAREA":" ","LANE":" ","ALLEY":" ","HOUSE_NO":"２７１號","E_COORD97":177615.85999999999,"N_COORD97":2543999.7200000002,"ADDRESS":"中正北路三段２７１號","OBJECTID":551108},"geometry":{"x":177615.86000000034,"y":2543999.7200000044}},{"attributes":{"ID":551136,"DIS_CODE":0,"TOWNNAME":"歸仁區","LI":"媽廟里","LIN":"10鄰","STREET":"中正北路","SECT":"三段","MAREA":" ","LANE":" ","ALLEY":" ","HOUSE_NO":"２４５號","E_COORD97":177608.35999999999,"N_COORD97":2543939.7200000002,"ADDRESS":"中正北路三段２４５號","OBJECTID":551109},"geometry":{"x":177608.36000000127,"y":2543939.7200000025}},{"attributes":{"ID":551137,"DIS_CODE":0,"TOWNNAME":"歸仁區","LI":"大廟里","LIN":"10鄰","STREET":"保大路","SECT":"三段","MAREA":" ","LANE":" ","ALLEY":" ","HOUSE_NO":"１９７號","E_COORD97":175921.03,"N_COORD97":2544130.25,"ADDRESS":"保大路三段１９７號","OBJECTID":551110},"geometry":{"x":175921.03000000026,"y":2544130.25}},{"attributes":{"ID":551138,"DIS_CODE":0,"TOWNNAME":"歸仁區","LI":"歸南里","LIN":"10鄰","STREET":"民生九街","SECT":" ","MAREA":" ","LANE":" ","ALLEY":" ","HOUSE_NO":"１２８號","E_COORD97":176220.45999999999,"N_COORD97":2540023.25,"ADDRESS":"民生九街１２８號","OBJECTID":551111},"geometry":{"x":176220.46000000089,"y":2540023.2500000019}},{"attributes":{"ID":551139,"DIS_CODE":0,"TOWNNAME":"歸仁區","LI":"歸仁里","LIN":"10鄰","STREET":"大通路","SECT":" ","MAREA":" ","LANE":" ","ALLEY":" ","HOUSE_NO":"１８號","E_COORD97":177942.35999999999,"N_COORD97":2540871.4900000002,"ADDRESS":"大通路１８號","OBJECTID":551112},"geometry":{"x":177942.36000000127,"y":2540871.4900000039}},{"attributes":{"ID":551140,"DIS_CODE":0,"TOWNNAME":"歸仁區","LI":"歸南里","LIN":"10鄰","STREET":"民生九街","SECT":" ","MAREA":" ","LANE":" ","ALLEY":" ","HOUSE_NO":"１４３號","E_COORD97":176233.76000000001,"N_COORD97":2540014.25,"ADDRESS":"民生九街１４３號","OBJECTID":551113},"geometry":{"x":176233.76000000071,"y":2540014.25}},{"attributes":{"ID":551141,"DIS_CODE":0,"TOWNNAME":"歸仁區","LI":"大廟里","LIN":"10鄰","STREET":"保大路","SECT":"三段","MAREA":" ","LANE":" ","ALLEY":" ","HOUSE_NO":"２０１號","E_COORD97":175907.73000000001,"N_COORD97":2544135.25,"ADDRESS":"保大路三段２０１號","OBJECTID":551114},"geometry":{"x":175907.73000000045,"y":2544135.2500000019}},{"attributes":{"ID":551142,"DIS_CODE":0,"TOWNNAME":"歸仁區","LI":"歸南里","LIN":"10鄰","STREET":"民生九街","SECT":" ","MAREA":" ","LANE":" ","ALLEY":" ","HOUSE_NO":"１１０號","E_COORD97":176209.35999999999,"N_COORD97":2540055.25,"ADDRESS":"民生九街１１０號","OBJECTID":551115},"geometry":{"x":176209.36000000127,"y":2540055.25}},{"attributes":{"ID":551143,"DIS_CODE":0,"TOWNNAME":"歸仁區","LI":"歸南里","LIN":"10鄰","STREET":"民生九街","SECT":" ","MAREA":" ","LANE":" ","ALLEY":" ","HOUSE_NO":"１３７號","E_COORD97":176232.76000000001,"N_COORD97":2540028.25,"ADDRESS":"民生九街１３７號","OBJECTID":551116},"geometry":{"x":176232.75999999978,"y":2540028.25}},{"attributes":{"ID":551144,"DIS_CODE":0,"TOWNNAME":"歸仁區","LI":"新厝里","LIN":"10鄰","STREET":"中正三街","SECT":" ","MAREA":" ","LANE":" ","ALLEY":" ","HOUSE_NO":"３８號","E_COORD97":177713.17999999999,"N_COORD97":2540555.5099999998,"ADDRESS":"中正三街３８號","OBJECTID":551117},"geometry":{"x":177713.17999999877,"y":2540555.5100000035}},{"attributes":{"ID":551145,"DIS_CODE":0,"TOWNNAME":"歸仁區","LI":"崙頂里","LIN":"10鄰","STREET":"崙頂五街","SECT":" ","MAREA":" ","LANE":" ","ALLEY":" ","HOUSE_NO":"４６號","E_COORD97":178000.34,"N_COORD97":2539822.25,"ADDRESS":"崙頂五街４６號","OBJECTID":551118},"geometry":{"x":178000.33999999985,"y":2539822.2500000019}},{"attributes":{"ID":551146,"DIS_CODE":0,"TOWNNAME":"歸仁區","LI":"媽廟里","LIN":"10鄰","STREET":"中正北路","SECT":"三段","MAREA":" ","LANE":" ","ALLEY":" ","HOUSE_NO":"２５３號","E_COORD97":177611.56,"N_COORD97":2543958.7200000002,"ADDRESS":"中正北路三段２５３號","OBJECTID":551119},"geometry":{"x":177611.55999999959,"y":2543958.7200000007}},{"attributes":{"ID":551147,"DIS_CODE":0,"TOWNNAME":"歸仁區","LI":"媽廟里","LIN":"10鄰","STREET":"中正北路","SECT":"三段","MAREA":" ","LANE":" ","ALLEY":" ","HOUSE_NO":"２４１號","E_COORD97":177607.26000000001,"N_COORD97":2543927.7200000002,"ADDRESS":"中正北路三段２４１號","OBJECTID":551120},"geometry":{"x":177607.25999999978,"y":2543927.7200000007}},{"attributes":{"ID":551148,"DIS_CODE":0,"TOWNNAME":"歸仁區","LI":"媽廟里","LIN":"10鄰","STREET":"中正北路","SECT":"三段","MAREA":" ","LANE":" ","ALLEY":" ","HOUSE_NO":"２３７號","E_COORD97":177592.85999999999,"N_COORD97":2543920.7200000002,"ADDRESS":"中正北路三段２３７號","OBJECTID":551121},"geometry":{"x":177592.86000000127,"y":2543920.7200000007}},{"attributes":{"ID":551149,"DIS_CODE":0,"TOWNNAME":"新營區","LI":"嘉芳里","LIN":"10鄰","STREET":"嘉芳街","SECT":" ","MAREA":" ","LANE":" ","ALLEY":" ","HOUSE_NO":"１３號","E_COORD97":176921.14999999999,"N_COORD97":2578596.4399999999,"ADDRESS":"嘉芳街１３號","OBJECTID":551122},"geometry":{"x":176921.1500000013,"y":2578596.4400000013}},{"attributes":{"ID":551150,"DIS_CODE":0,"TOWNNAME":"歸仁區","LI":"媽廟里","LIN":"10鄰","STREET":"中正北路","SECT":"三段","MAREA":" ","LANE":" ","ALLEY":" ","HOUSE_NO":"２２５號","E_COORD97":177604.06,"N_COORD97":2543896.7200000002,"ADDRESS":"中正北路三段２２５號","OBJECTID":551123},"geometry":{"x":177604.06000000052,"y":2543896.7200000007}},{"attributes":{"ID":551151,"DIS_CODE":0,"TOWNNAME":"歸仁區","LI":"文化里","LIN":"10鄰","STREET":"民族北街","SECT":" ","MAREA":" ","LANE":" ","ALLEY":" ","HOUSE_NO":"２３５號","E_COORD97":177472.89999999999,"N_COORD97":2541444.3300000001,"ADDRESS":"民族北街２３５號","OBJECTID":551124},"geometry":{"x":177472.90000000037,"y":2541444.3300000001}},{"attributes":{"ID":551152,"DIS_CODE":0,"TOWNNAME":"歸仁區","LI":"新厝里","LIN":"10鄰","STREET":"中正三街","SECT":" ","MAREA":" ","LANE":" ","ALLEY":" ","HOUSE_NO":"３０號","E_COORD97":177694.67999999999,"N_COORD97":2540557.5099999998,"ADDRESS":"中正三街３０號","OBJECTID":551125},"geometry":{"x":177694.68000000156,"y":2540557.5099999998}},{"attributes":{"ID":551153,"DIS_CODE":0,"TOWNNAME":"歸仁區","LI":"新厝里","LIN":"10鄰","STREET":"公園十街","SECT":" ","MAREA":" ","LANE":" ","ALLEY":" ","HOUSE_NO":"３８號","E_COORD97":177688.04999999999,"N_COORD97":2540530.9300000002,"ADDRESS":"公園十街３８號","OBJECTID":551126},"geometry":{"x":177688.04999999981,"y":2540530.9299999997}},{"attributes":{"ID":551154,"DIS_CODE":0,"TOWNNAME":"歸仁區","LI":"新厝里","LIN":"10鄰","STREET":"公園十街","SECT":" ","MAREA":" ","LANE":" ","ALLEY":" ","HOUSE_NO":"３４號","E_COORD97":177687.04999999999,"N_COORD97":2540520.9300000002,"ADDRESS":"公園十街３４號","OBJECTID":551127},"geometry":{"x":177687.04999999888,"y":2540520.9299999997}},{"attributes":{"ID":551155,"DIS_CODE":0,"TOWNNAME":"歸仁區","LI":"媽廟里","LIN":"10鄰","STREET":"中正北路","SECT":"三段","MAREA":" ","LANE":" ","ALLEY":" ","HOUSE_NO":"２４３號","E_COORD97":177608.35999999999,"N_COORD97":2543932.7200000002,"ADDRESS":"中正北路三段２４３號","OBJECTID":551128},"geometry":{"x":177608.36000000127,"y":2543932.7200000025}},{"attributes":{"ID":551156,"DIS_CODE":0,"TOWNNAME":"歸仁區","LI":"歸仁里","LIN":"10鄰","STREET":"大通一街","SECT":" ","MAREA":" ","LANE":" ","ALLEY":" ","HOUSE_NO":"３４號","E_COORD97":177914.31,"N_COORD97":2540957.4900000002,"ADDRESS":"大通一街３４號","OBJECTID":551129},"geometry":{"x":177914.31000000052,"y":2540957.4900000021}},{"attributes":{"ID":551157,"DIS_CODE":0,"TOWNNAME":"歸仁區","LI":"歸南里","LIN":"10鄰","STREET":"民生九街","SECT":" ","MAREA":" ","LANE":" ","ALLEY":" ","HOUSE_NO":"１３５號","E_COORD97":176231.76000000001,"N_COORD97":2540032.25,"ADDRESS":"民生九街１３５號","OBJECTID":551130},"geometry":{"x":176231.76000000071,"y":2540032.2500000037}},{"attributes":{"ID":551158,"DIS_CODE":0,"TOWNNAME":"歸仁區","LI":"大廟里","LIN":"10鄰","STREET":"保大路","SECT":"三段","MAREA":" ","LANE":" ","ALLEY":" ","HOUSE_NO":"１９９號","E_COORD97":175914.82999999999,"N_COORD97":2544131.25,"ADDRESS":"保大路三段１９９號","OBJECTID":551131},"geometry":{"x":175914.83000000101,"y":2544131.2500000037}},{"attributes":{"ID":551159,"DIS_CODE":0,"TOWNNAME":"歸仁區","LI":"歸南里","LIN":"10鄰","STREET":"民生九街","SECT":" ","MAREA":" ","LANE":" ","ALLEY":" ","HOUSE_NO":"１３０號","E_COORD97":176222.45999999999,"N_COORD97":2540015.25,"ADDRESS":"民生九街１３０號","OBJECTID":551132},"geometry":{"x":176222.45999999996,"y":2540015.2500000037}},{"attributes":{"ID":551160,"DIS_CODE":0,"TOWNNAME":"歸仁區","LI":"歸南里","LIN":"10鄰","STREET":"民生九街","SECT":" ","MAREA":" ","LANE":" ","ALLEY":" ","HOUSE_NO":"１１８號","E_COORD97":176208.26000000001,"N_COORD97":2540043.25,"ADDRESS":"民生九街１１８號","OBJECTID":551133},"geometry":{"x":176208.26000000071,"y":2540043.2500000019}},{"attributes":{"ID":551161,"DIS_CODE":0,"TOWNNAME":"歸仁區","LI":"崙頂里","LIN":"10鄰","STREET":"成功路","SECT":"二段","MAREA":" ","LANE":" ","ALLEY":" ","HOUSE_NO":"１３６號","E_COORD97":178014.04000000001,"N_COORD97":2539803.25,"ADDRESS":"成功路二段１３６號","OBJECTID":551134},"geometry":{"x":178014.04000000004,"y":2539803.25}},{"attributes":{"ID":551162,"DIS_CODE":0,"TOWNNAME":"歸仁區","LI":"看西里","LIN":"10鄰","STREET":"成功六街","SECT":" ","MAREA":" ","LANE":" ","ALLEY":" ","HOUSE_NO":"５１號","E_COORD97":178365.42999999999,"N_COORD97":2540214.25,"ADDRESS":"成功六街５１號","OBJECTID":551135},"geometry":{"x":178365.4299999997,"y":2540214.25}},{"attributes":{"ID":551163,"DIS_CODE":0,"TOWNNAME":"歸仁區","LI":"歸南里","LIN":"10鄰","STREET":"民生九街","SECT":" ","MAREA":" ","LANE":" ","ALLEY":" ","HOUSE_NO":"１２０號","E_COORD97":176208.26000000001,"N_COORD97":2540037.25,"ADDRESS":"民生九街１２０號","OBJECTID":551136},"geometry":{"x":176208.26000000071,"y":2540037.25}},{"attributes":{"ID":551164,"DIS_CODE":0,"TOWNNAME":"歸仁區","LI":"崙頂里","LIN":"10鄰","STREET":"成功路","SECT":"二段","MAREA":" ","LANE":" ","ALLEY":" ","HOUSE_NO":"９６號","E_COORD97":178069.22,"N_COORD97":2539795.3599999999,"ADDRESS":"成功路二段９６號","OBJECTID":551137},"geometry":{"x":178069.22000000067,"y":2539795.3599999994}},{"attributes":{"ID":551165,"DIS_CODE":0,"TOWNNAME":"歸仁區","LI":"後市里","LIN":"10鄰","STREET":"民權南路","SECT":" ","MAREA":" ","LANE":" ","ALLEY":" ","HOUSE_NO":"１４３號","E_COORD97":176983.94,"N_COORD97":2540687.25,"ADDRESS":"民權南路１４３號","OBJECTID":551138},"geometry":{"x":176983.94000000134,"y":2540687.2500000019}},{"attributes":{"ID":551166,"DIS_CODE":0,"TOWNNAME":"歸仁區","LI":"崙頂里","LIN":"10鄰","STREET":"成功路","SECT":"二段","MAREA":" ","LANE":" ","ALLEY":" ","HOUSE_NO":"９２號","E_COORD97":178075.42000000001,"N_COORD97":2539801.3599999999,"ADDRESS":"成功路二段９２號","OBJECTID":551139},"geometry":{"x":178075.42000000086,"y":2539801.3600000013}},{"attributes":{"ID":551167,"DIS_CODE":0,"TOWNNAME":"歸仁區","LI":"後市里","LIN":"10鄰","STREET":"民權南路","SECT":" ","MAREA":" ","LANE":" ","ALLEY":" ","HOUSE_NO":"１３７號","E_COORD97":176983.94,"N_COORD97":2540701.25,"ADDRESS":"民權南路１３７號","OBJECTID":551140},"geometry":{"x":176983.94000000134,"y":2540701.2500000019}},{"attributes":{"ID":551168,"DIS_CODE":0,"TOWNNAME":"新營區","LI":"南紙里","LIN":"10鄰","STREET":"南紙街","SECT":" ","MAREA":" ","LANE":" ","ALLEY":" ","HOUSE_NO":"８８號","E_COORD97":177802.04999999999,"N_COORD97":2577577.6899999999,"ADDRESS":"南紙街８８號","OBJECTID":551141},"geometry":{"x":177802.04999999981,"y":2577577.6900000013}},{"attributes":{"ID":551169,"DIS_CODE":0,"TOWNNAME":"歸仁區","LI":"南興里","LIN":"10鄰","STREET":"文化十六街","SECT":" ","MAREA":" ","LANE":" ","ALLEY":" ","HOUSE_NO":"３５號","E_COORD97":176022.29000000001,"N_COORD97":2541280.3300000001,"ADDRESS":"文化十六街３５號","OBJECTID":551142},"geometry":{"x":176022.29000000004,"y":2541280.3300000019}},{"attributes":{"ID":551170,"DIS_CODE":0,"TOWNNAME":"歸仁區","LI":"南興里","LIN":"10鄰","STREET":"文化十六街","SECT":" ","MAREA":" ","LANE":" ","ALLEY":" ","HOUSE_NO":"２１號","E_COORD97":176006.69,"N_COORD97":2541249.3300000001,"ADDRESS":"文化十六街２１號","OBJECTID":551143},"geometry":{"x":176006.69000000041,"y":2541249.3300000019}},{"attributes":{"ID":551171,"DIS_CODE":0,"TOWNNAME":"歸仁區","LI":"南保里","LIN":"10鄰","STREET":"文化八街","SECT":" ","MAREA":" ","LANE":" ","ALLEY":" ","HOUSE_NO":"２３號","E_COORD97":176743.94,"N_COORD97":2541289.3300000001,"ADDRESS":"文化八街２３號","OBJECTID":551144},"geometry":{"x":176743.94000000041,"y":2541289.3300000038}},{"attributes":{"ID":551172,"DIS_CODE":0,"TOWNNAME":"歸仁區","LI":"南興里","LIN":"10鄰","STREET":"文化十六街","SECT":" ","MAREA":" ","LANE":" ","ALLEY":" ","HOUSE_NO":"５３號","E_COORD97":176024.48999999999,"N_COORD97":2541321.3300000001,"ADDRESS":"文化十六街５３號","OBJECTID":551145},"geometry":{"x":176024.49000000022,"y":2541321.3300000019}},{"attributes":{"ID":551173,"DIS_CODE":0,"TOWNNAME":"歸仁區","LI":"看東里","LIN":"10鄰","STREET":"成功路","SECT":"一段","MAREA":" ","LANE":" ","ALLEY":" ","HOUSE_NO":"１３６號","E_COORD97":178640.78,"N_COORD97":2540242.6800000002,"ADDRESS":"成功路一段１３６號","OBJECTID":551146},"geometry":{"x":178640.78000000119,"y":2540242.6800000034}},{"attributes":{"ID":551174,"DIS_CODE":0,"TOWNNAME":"歸仁區","LI":"南保里","LIN":"10鄰","STREET":"文化八街","SECT":" ","MAREA":" ","LANE":" ","ALLEY":" ","HOUSE_NO":"１３號","E_COORD97":176743.94,"N_COORD97":2541270.3300000001,"ADDRESS":"文化八街１３號","OBJECTID":551147},"geometry":{"x":176743.94000000041,"y":2541270.3300000019}},{"attributes":{"ID":551175,"DIS_CODE":0,"TOWNNAME":"歸仁區","LI":"南保里","LIN":"10鄰","STREET":"文化八街","SECT":" ","MAREA":" ","LANE":" ","ALLEY":" ","HOUSE_NO":"１５號","E_COORD97":176743.94,"N_COORD97":2541275.3300000001,"ADDRESS":"文化八街１５號","OBJECTID":551148},"geometry":{"x":176743.94000000041,"y":2541275.3300000001}},{"attributes":{"ID":551176,"DIS_CODE":0,"TOWNNAME":"歸仁區","LI":"看東里","LIN":"10鄰","STREET":"中山一街","SECT":" ","MAREA":" ","LANE":" ","ALLEY":" ","HOUSE_NO":"１４８號","E_COORD97":178661.20999999999,"N_COORD97":2540273.6800000002,"ADDRESS":"中山一街１４８號","OBJECTID":551149},"geometry":{"x":178661.21000000089,"y":2540273.6800000016}},{"attributes":{"ID":551177,"DIS_CODE":0,"TOWNNAME":"歸仁區","LI":"南保里","LIN":"10鄰","STREET":"文化八街","SECT":" ","MAREA":" ","LANE":" ","ALLEY":" ","HOUSE_NO":"３７號","E_COORD97":176744.14000000001,"N_COORD97":2541320.3300000001,"ADDRESS":"文化八街３７號","OBJECTID":551150},"geometry":{"x":176744.1400000006,"y":2541320.3300000019}},{"attributes":{"ID":551178,"DIS_CODE":0,"TOWNNAME":"歸仁區","LI":"南保里","LIN":"10鄰","STREET":"文化八街","SECT":" ","MAREA":" ","LANE":" ","ALLEY":" ","HOUSE_NO":"３３號","E_COORD97":176745.14000000001,"N_COORD97":2541310.3300000001,"ADDRESS":"文化八街３３號","OBJECTID":551151},"geometry":{"x":176745.13999999966,"y":2541310.3300000019}},{"attributes":{"ID":551179,"DIS_CODE":0,"TOWNNAME":"歸仁區","LI":"七甲里","LIN":"10鄰","STREET":"七甲一街","SECT":" ","MAREA":" ","LANE":" ","ALLEY":" ","HOUSE_NO":"１７號","E_COORD97":177594.19,"N_COORD97":2542461.6600000001,"ADDRESS":"七甲一街１７號","OBJECTID":551152},"geometry":{"x":177594.19000000134,"y":2542461.660000002}},{"attributes":{"ID":551180,"DIS_CODE":0,"TOWNNAME":"歸仁區","LI":"新厝里","LIN":"10鄰","STREET":"公園十街","SECT":" ","MAREA":" ","LANE":" ","ALLEY":" ","HOUSE_NO":"３０號","E_COORD97":177684.25,"N_COORD97":2540507.5600000001,"ADDRESS":"公園十街３０號","OBJECTID":551153},"geometry":{"x":177684.24999999907,"y":2540507.5600000005}},{"attributes":{"ID":551181,"DIS_CODE":0,"TOWNNAME":"新營區","LI":"南紙里","LIN":"10鄰","STREET":"南紙街","SECT":" ","MAREA":" ","LANE":" ","ALLEY":" ","HOUSE_NO":"８４號","E_COORD97":177804.19,"N_COORD97":2577595.4100000001,"ADDRESS":"南紙街８４號","OBJECTID":551154},"geometry":{"x":177804.19000000134,"y":2577595.4100000001}},{"attributes":{"ID":551182,"DIS_CODE":0,"TOWNNAME":"新營區","LI":"忠政里","LIN":"10鄰","STREET":"中正路","SECT":" ","MAREA":" ","LANE":" ","ALLEY":" ","HOUSE_NO":"５５號","E_COORD97":180064.60999999999,"N_COORD97":2579505.9900000002,"ADDRESS":"中正路５５號","OBJECTID":551155},"geometry":{"x":180064.61000000127,"y":2579505.9900000021}},{"attributes":{"ID":551183,"DIS_CODE":0,"TOWNNAME":"新營區","LI":"南紙里","LIN":"10鄰","STREET":"南紙街","SECT":" ","MAREA":" ","LANE":" ","ALLEY":" ","HOUSE_NO":"７２號","E_COORD97":177806.42999999999,"N_COORD97":2577645.23,"ADDRESS":"南紙街７２號","OBJECTID":551156},"geometry":{"x":177806.42999999877,"y":2577645.2300000004}},{"attributes":{"ID":551184,"DIS_CODE":0,"TOWNNAME":"新營區","LI":"新北里","LIN":"10鄰","STREET":"長榮路","SECT":"二段","MAREA":" ","LANE":" ","ALLEY":" ","HOUSE_NO":"２５３號","E_COORD97":179282.85000000001,"N_COORD97":2579802.0800000001,"ADDRESS":"長榮路二段２５３號","OBJECTID":551157},"geometry":{"x":179282.84999999963,"y":2579802.0800000001}},{"attributes":{"ID":551185,"DIS_CODE":0,"TOWNNAME":"新營區","LI":"忠政里","LIN":"10鄰","STREET":"中正路","SECT":" ","MAREA":" ","LANE":" ","ALLEY":" ","HOUSE_NO":"５３之４號","E_COORD97":180078.32000000001,"N_COORD97":2579494.9199999999,"ADDRESS":"中正路５３之４號","OBJECTID":551158},"geometry":{"x":180078.32000000123,"y":2579494.9200000037}},{"attributes":{"ID":551186,"DIS_CODE":0,"TOWNNAME":"新營區","LI":"新北里","LIN":"10鄰","STREET":"長榮路","SECT":"二段","MAREA":" ","LANE":" ","ALLEY":" ","HOUSE_NO":"２５９號","E_COORD97":179271.59,"N_COORD97":2579798.8100000001,"ADDRESS":"長榮路二段２５９號","OBJECTID":551159},"geometry":{"x":179271.58999999985,"y":2579798.8100000024}},{"attributes":{"ID":551187,"DIS_CODE":0,"TOWNNAME":"新營區","LI":"忠政里","LIN":"10鄰","STREET":"中正路","SECT":" ","MAREA":" ","LANE":" ","ALLEY":" ","HOUSE_NO":"４７號","E_COORD97":180077.73000000001,"N_COORD97":2579454.9900000002,"ADDRESS":"中正路４７號","OBJECTID":551160},"geometry":{"x":180077.73000000045,"y":2579454.9900000021}},{"attributes":{"ID":551188,"DIS_CODE":0,"TOWNNAME":"新營區","LI":"忠政里","LIN":"10鄰","STREET":"中正路","SECT":" ","MAREA":" ","LANE":" ","ALLEY":" ","HOUSE_NO":"５３之３號","E_COORD97":180079.31,"N_COORD97":2579489.3700000001,"ADDRESS":"中正路５３之３號","OBJECTID":551161},"geometry":{"x":180079.31000000052,"y":2579489.3699999992}},{"attributes":{"ID":551189,"DIS_CODE":0,"TOWNNAME":"新營區","LI":"新北里","LIN":"10鄰","STREET":"長榮路","SECT":"二段","MAREA":" ","LANE":" ","ALLEY":" ","HOUSE_NO":"２７５號","E_COORD97":179238.81,"N_COORD97":2579789,"ADDRESS":"長榮路二段２７５號","OBJECTID":551162},"geometry":{"x":179238.81000000052,"y":2579789}},{"attributes":{"ID":551190,"DIS_CODE":0,"TOWNNAME":"新營區","LI":"新北里","LIN":"10鄰","STREET":"長榮路","SECT":"二段","MAREA":" ","LANE":" ","ALLEY":" ","HOUSE_NO":"２７３號","E_COORD97":179242.91,"N_COORD97":2579790.0899999999,"ADDRESS":"長榮路二段２７３號","OBJECTID":551163},"geometry":{"x":179242.91000000201,"y":2579790.0900000017}},{"attributes":{"ID":551191,"DIS_CODE":0,"TOWNNAME":"新營區","LI":"新北里","LIN":"10鄰","STREET":"長榮路","SECT":"二段","MAREA":" ","LANE":" ","ALLEY":" ","HOUSE_NO":"２７７號","E_COORD97":179235.73000000001,"N_COORD97":2579786.7999999998,"ADDRESS":"長榮路二段２７７號","OBJECTID":551164},"geometry":{"x":179235.73000000045,"y":2579786.8000000007}},{"attributes":{"ID":551192,"DIS_CODE":0,"TOWNNAME":"新營區","LI":"新北里","LIN":"10鄰","STREET":"長榮路","SECT":"二段","MAREA":" ","LANE":" ","ALLEY":" ","HOUSE_NO":"２８５號","E_COORD97":179220.35999999999,"N_COORD97":2579782.4500000002,"ADDRESS":"長榮路二段２８５號","OBJECTID":551165},"geometry":{"x":179220.36000000127,"y":2579782.4500000011}},{"attributes":{"ID":551193,"DIS_CODE":0,"TOWNNAME":"新營區","LI":"三仙里","LIN":"10鄰","STREET":"三興街","SECT":" ","MAREA":" ","LANE":" ","ALLEY":" ","HOUSE_NO":"１８號","E_COORD97":179498.79999999999,"N_COORD97":2578176.4100000001,"ADDRESS":"三興街１８號","OBJECTID":551166},"geometry":{"x":179498.79999999981,"y":2578176.4100000039}},{"attributes":{"ID":551194,"DIS_CODE":0,"TOWNNAME":"新營區","LI":"南紙里","LIN":"10鄰","STREET":"南紙街","SECT":" ","MAREA":" ","LANE":" ","ALLEY":" ","HOUSE_NO":"６０號","E_COORD97":177808.57000000001,"N_COORD97":2577668.4700000002,"ADDRESS":"南紙街６０號","OBJECTID":551167},"geometry":{"x":177808.57000000123,"y":2577668.4700000025}},{"attributes":{"ID":551195,"DIS_CODE":0,"TOWNNAME":"新營區","LI":"南紙里","LIN":"10鄰","STREET":"南紙街","SECT":" ","MAREA":" ","LANE":" ","ALLEY":" ","HOUSE_NO":"６２號","E_COORD97":177807.53,"N_COORD97":2577665.1600000001,"ADDRESS":"南紙街６２號","OBJECTID":551168},"geometry":{"x":177807.53000000026,"y":2577665.1600000001}},{"attributes":{"ID":551196,"DIS_CODE":0,"TOWNNAME":"新營區","LI":"忠政里","LIN":"10鄰","STREET":"中正路","SECT":" ","MAREA":" ","LANE":" ","ALLEY":" ","HOUSE_NO":"５３之１號","E_COORD97":180079.28,"N_COORD97":2579482.73,"ADDRESS":"中正路５３之１號","OBJECTID":551169},"geometry":{"x":180079.28000000026,"y":2579482.7300000004}},{"attributes":{"ID":551197,"DIS_CODE":0,"TOWNNAME":"新營區","LI":"南紙里","LIN":"10鄰","STREET":"南紙街","SECT":" ","MAREA":" ","LANE":" ","ALLEY":" ","HOUSE_NO":"４６號","E_COORD97":177810.85000000001,"N_COORD97":2577700.5899999999,"ADDRESS":"南紙街４６號","OBJECTID":551170},"geometry":{"x":177810.85000000056,"y":2577700.5900000017}},{"attributes":{"ID":551198,"DIS_CODE":0,"TOWNNAME":"新營區","LI":"忠政里","LIN":"10鄰","STREET":"中正路","SECT":" ","MAREA":" ","LANE":" ","ALLEY":" ","HOUSE_NO":"５５號地下室","E_COORD97":180068.32999999999,"N_COORD97":2579505.9900000002,"ADDRESS":"中正路５５號地下室","OBJECTID":551171},"geometry":{"x":180068.33000000007,"y":2579505.9900000021}},{"attributes":{"ID":551199,"DIS_CODE":0,"TOWNNAME":"新營區","LI":"新東里","LIN":"10鄰","STREET":"東林街","SECT":" ","MAREA":" ","LANE":" ","ALLEY":" ","HOUSE_NO":"３５號","E_COORD97":181403.72,"N_COORD97":2579769.9500000002,"ADDRESS":"東林街３５號","OBJECTID":551172},"geometry":{"x":181403.72000000067,"y":2579769.9500000011}},{"attributes":{"ID":551200,"DIS_CODE":0,"TOWNNAME":"新營區","LI":"三仙里","LIN":"10鄰","STREET":"中華路","SECT":" ","MAREA":" ","LANE":" ","ALLEY":" ","HOUSE_NO":"５３號之６","E_COORD97":179553.25,"N_COORD97":2578181.75,"ADDRESS":"中華路５３號之６","OBJECTID":551173},"geometry":{"x":179553.25000000093,"y":2578181.7500000019}},{"attributes":{"ID":551201,"DIS_CODE":0,"TOWNNAME":"歸仁區","LI":"南保里","LIN":"10鄰","STREET":"文化八街","SECT":" ","MAREA":" ","LANE":" ","ALLEY":" ","HOUSE_NO":"１９號","E_COORD97":176743.94,"N_COORD97":2541282.3300000001,"ADDRESS":"文化八街１９號","OBJECTID":551174},"geometry":{"x":176743.94000000041,"y":2541282.3300000001}},{"attributes":{"ID":551202,"DIS_CODE":0,"TOWNNAME":"歸仁區","LI":"後市里","LIN":"10鄰","STREET":"民權南路","SECT":" ","MAREA":" ","LANE":" ","ALLEY":" ","HOUSE_NO":"１４５號","E_COORD97":176991.72,"N_COORD97":2540683.29,"ADDRESS":"民權南路１４５號","OBJECTID":551175},"geometry":{"x":176991.72000000067,"y":2540683.290000001}},{"attributes":{"ID":551203,"DIS_CODE":0,"TOWNNAME":"關廟區","LI":"北勢里","LIN":"10鄰","STREET":"成功路","SECT":" ","MAREA":" ","LANE":" ","ALLEY":" ","HOUSE_NO":"２０６號","E_COORD97":181556.17000000001,"N_COORD97":2540482.27,"ADDRESS":"成功路２０６號","OBJECTID":551176},"geometry":{"x":181556.16999999993,"y":2540482.2700000033}},{"attributes":{"ID":551204,"DIS_CODE":0,"TOWNNAME":"歸仁區","LI":"七甲里","LIN":"10鄰","STREET":"七甲一街","SECT":" ","MAREA":" ","LANE":" ","ALLEY":" ","HOUSE_NO":"１０號","E_COORD97":177595.79000000001,"N_COORD97":2542366.6600000001,"ADDRESS":"七甲一街１０號","OBJECTID":551177},"geometry":{"x":177595.79000000004,"y":2542366.660000002}},{"attributes":{"ID":551205,"DIS_CODE":0,"TOWNNAME":"歸仁區","LI":"七甲里","LIN":"10鄰","STREET":"七甲一街","SECT":" ","MAREA":" ","LANE":" ","ALLEY":" ","HOUSE_NO":"２６號","E_COORD97":177601.09,"N_COORD97":2542397.6600000001,"ADDRESS":"七甲一街２６號","OBJECTID":551178},"geometry":{"x":177601.09000000078,"y":2542397.6600000001}},{"attributes":{"ID":551206,"DIS_CODE":0,"TOWNNAME":"歸仁區","LI":"武東里","LIN":"10鄰","STREET":"中正南路","SECT":"二段","MAREA":" ","LANE":" ","ALLEY":" ","HOUSE_NO":"２８２號","E_COORD97":175316.91,"N_COORD97":2535231.2799999998,"ADDRESS":"中正南路二段２８２號","OBJECTID":551179},"geometry":{"x":175316.91000000201,"y":2535231.2800000012}},{"attributes":{"ID":551207,"DIS_CODE":0,"TOWNNAME":"歸仁區","LI":"七甲里","LIN":"10鄰","STREET":"七甲一街","SECT":" ","MAREA":" ","LANE":" ","ALLEY":" ","HOUSE_NO":"３１號","E_COORD97":177600.48999999999,"N_COORD97":2542490.6600000001,"ADDRESS":"七甲一街３１號","OBJECTID":551180},"geometry":{"x":177600.49000000115,"y":2542490.6599999983}},{"attributes":{"ID":551208,"DIS_CODE":0,"TOWNNAME":"歸仁區","LI":"南興里","LIN":"10鄰","STREET":"文化十六街","SECT":" ","MAREA":" ","LANE":" ","ALLEY":" ","HOUSE_NO":"１９號","E_COORD97":176001.59,"N_COORD97":2541249.3300000001,"ADDRESS":"文化十六街１９號","OBJECTID":551181},"geometry":{"x":176001.58999999985,"y":2541249.3300000019}},{"attributes":{"ID":551209,"DIS_CODE":0,"TOWNNAME":"歸仁區","LI":"新厝里","LIN":"10鄰","STREET":"中正三街","SECT":" ","MAREA":" ","LANE":" ","ALLEY":" ","HOUSE_NO":"３４號","E_COORD97":177703.98000000001,"N_COORD97":2540557.5099999998,"ADDRESS":"中正三街３４號","OBJECTID":551182},"geometry":{"x":177703.98000000138,"y":2540557.5099999998}},{"attributes":{"ID":551210,"DIS_CODE":0,"TOWNNAME":"歸仁區","LI":"新厝里","LIN":"10鄰","STREET":"公園十街","SECT":" ","MAREA":" ","LANE":" ","ALLEY":" ","HOUSE_NO":"４０號","E_COORD97":177688.14999999999,"N_COORD97":2540535.9300000002,"ADDRESS":"公園十街４０號","OBJECTID":551183},"geometry":{"x":177688.15000000037,"y":2540535.9300000034}},{"attributes":{"ID":551211,"DIS_CODE":0,"TOWNNAME":"關廟區","LI":"布袋里","LIN":"10鄰","STREET":"長榮街","SECT":" ","MAREA":" ","LANE":" ","ALLEY":" ","HOUSE_NO":"５００號","E_COORD97":181254.19,"N_COORD97":2534735.2999999998,"ADDRESS":"長榮街５００號","OBJECTID":551184},"geometry":{"x":181254.19000000134,"y":2534735.3000000007}},{"attributes":{"ID":551212,"DIS_CODE":0,"TOWNNAME":"關廟區","LI":"北勢里","LIN":"10鄰","STREET":"成功路","SECT":" ","MAREA":" ","LANE":" ","ALLEY":" ","HOUSE_NO":"２１０號","E_COORD97":181568.87,"N_COORD97":2540496.27,"ADDRESS":"成功路２１０號","OBJECTID":551185},"geometry":{"x":181568.86999999918,"y":2540496.2700000014}},{"attributes":{"ID":551213,"DIS_CODE":0,"TOWNNAME":"關廟區","LI":"北花里","LIN":"10鄰","STREET":"園中街","SECT":" ","MAREA":" ","LANE":" ","ALLEY":" ","HOUSE_NO":"５２號","E_COORD97":181822.35999999999,"N_COORD97":2540314.25,"ADDRESS":"園中街５２號","OBJECTID":551186},"geometry":{"x":181822.36000000127,"y":2540314.2500000019}},{"attributes":{"ID":551214,"DIS_CODE":0,"TOWNNAME":"關廟區","LI":"北花里","LIN":"10鄰","STREET":"四維街","SECT":" ","MAREA":" ","LANE":" ","ALLEY":" ","HOUSE_NO":"２７１號","E_COORD97":181859.66,"N_COORD97":2540274.25,"ADDRESS":"四維街２７１號","OBJECTID":551187},"geometry":{"x":181859.66000000015,"y":2540274.2500000019}},{"attributes":{"ID":551215,"DIS_CODE":0,"TOWNNAME":"關廟區","LI":"松腳里","LIN":"10鄰","STREET":"和平路","SECT":" ","MAREA":" ","LANE":" ","ALLEY":" ","HOUSE_NO":"２０２號","E_COORD97":181699.34,"N_COORD97":2539691.25,"ADDRESS":"和平路２０２號","OBJECTID":551188},"geometry":{"x":181699.33999999892,"y":2539691.2500000019}},{"attributes":{"ID":551216,"DIS_CODE":0,"TOWNNAME":"關廟區","LI":"松腳里","LIN":"10鄰","STREET":"和平路","SECT":" ","MAREA":" ","LANE":" ","ALLEY":" ","HOUSE_NO":"２０６號","E_COORD97":181700.14000000001,"N_COORD97":2539695.25,"ADDRESS":"和平路２０６號","OBJECTID":551189},"geometry":{"x":181700.13999999966,"y":2539695.25}},{"attributes":{"ID":551217,"DIS_CODE":0,"TOWNNAME":"關廟區","LI":"布袋里","LIN":"10鄰","STREET":"長榮街","SECT":" ","MAREA":" ","LANE":" ","ALLEY":" ","HOUSE_NO":"３７１號","E_COORD97":181922.94,"N_COORD97":2534426.2999999998,"ADDRESS":"長榮街３７１號","OBJECTID":551190},"geometry":{"x":181922.94000000041,"y":2534426.3000000026}},{"attributes":{"ID":551218,"DIS_CODE":0,"TOWNNAME":"關廟區","LI":"布袋里","LIN":"10鄰","STREET":"長榮街","SECT":" ","MAREA":" ","LANE":" ","ALLEY":" ","HOUSE_NO":"４８９號","E_COORD97":181442.29000000001,"N_COORD97":2534570.2999999998,"ADDRESS":"長榮街４８９號","OBJECTID":551191},"geometry":{"x":181442.2900000019,"y":2534570.3000000007}},{"attributes":{"ID":551219,"DIS_CODE":0,"TOWNNAME":"關廟區","LI":"北勢里","LIN":"10鄰","STREET":"成功路","SECT":" ","MAREA":" ","LANE":" ","ALLEY":" ","HOUSE_NO":"１７０號","E_COORD97":181578.87,"N_COORD97":2540462.27,"ADDRESS":"成功路１７０號","OBJECTID":551192},"geometry":{"x":181578.87000000011,"y":2540462.2700000033}},{"attributes":{"ID":551220,"DIS_CODE":0,"TOWNNAME":"關廟區","LI":"北勢里","LIN":"10鄰","STREET":"成功路","SECT":" ","MAREA":" ","LANE":" ","ALLEY":" ","HOUSE_NO":"２１２號","E_COORD97":181564.97,"N_COORD97":2540498.27,"ADDRESS":"成功路２１２號","OBJECTID":551193},"geometry":{"x":181564.97000000067,"y":2540498.2699999996}},{"attributes":{"ID":551221,"DIS_CODE":0,"TOWNNAME":"關廟區","LI":"北花里","LIN":"10鄰","STREET":"四維街","SECT":" ","MAREA":" ","LANE":" ","ALLEY":" ","HOUSE_NO":"２８１號","E_COORD97":181863.16,"N_COORD97":2540300.25,"ADDRESS":"四維街２８１號","OBJECTID":551194},"geometry":{"x":181863.16000000015,"y":2540300.2500000019}},{"attributes":{"ID":551222,"DIS_CODE":0,"TOWNNAME":"關廟區","LI":"北花里","LIN":"10鄰","STREET":"園中街","SECT":" ","MAREA":" ","LANE":" ","ALLEY":" ","HOUSE_NO":"３０號","E_COORD97":181784.06,"N_COORD97":2540282.25,"ADDRESS":"園中街３０號","OBJECTID":551195},"geometry":{"x":181784.05999999866,"y":2540282.25}},{"attributes":{"ID":551223,"DIS_CODE":0,"TOWNNAME":"關廟區","LI":"北花里","LIN":"10鄰","STREET":"四維街","SECT":" ","MAREA":" ","LANE":" ","ALLEY":" ","HOUSE_NO":"２７３號","E_COORD97":181862.35999999999,"N_COORD97":2540286.25,"ADDRESS":"四維街２７３號","OBJECTID":551196},"geometry":{"x":181862.36000000034,"y":2540286.2500000037}},{"attributes":{"ID":551224,"DIS_CODE":0,"TOWNNAME":"關廟區","LI":"北花里","LIN":"10鄰","STREET":"園中街","SECT":" ","MAREA":" ","LANE":" ","ALLEY":" ","HOUSE_NO":"５８號","E_COORD97":181795.56,"N_COORD97":2540330.25,"ADDRESS":"園中街５８號","OBJECTID":551197},"geometry":{"x":181795.55999999959,"y":2540330.2499999981}},{"attributes":{"ID":551225,"DIS_CODE":0,"TOWNNAME":"關廟區","LI":"北勢里","LIN":"10鄰","STREET":"成功路","SECT":" ","MAREA":" ","LANE":" ","ALLEY":" ","HOUSE_NO":"２１６號","E_COORD97":181556.17000000001,"N_COORD97":2540501.27,"ADDRESS":"成功路２１６號","OBJECTID":551198},"geometry":{"x":181556.16999999993,"y":2540501.2699999996}},{"attributes":{"ID":551226,"DIS_CODE":0,"TOWNNAME":"關廟區","LI":"東勢里","LIN":"10鄰","STREET":"東榮街","SECT":" ","MAREA":" ","LANE":" ","ALLEY":" ","HOUSE_NO":"１９號","E_COORD97":181980.22,"N_COORD97":2539384.25,"ADDRESS":"東榮街１９號","OBJECTID":551199},"geometry":{"x":181980.22000000067,"y":2539384.2499999981}},{"attributes":{"ID":551227,"DIS_CODE":0,"TOWNNAME":"關廟區","LI":"新埔里","LIN":"10鄰","STREET":"新埔二街","SECT":" ","MAREA":" ","LANE":" ","ALLEY":" ","HOUSE_NO":"６０號","E_COORD97":181465.97,"N_COORD97":2540971.25,"ADDRESS":"新埔二街６０號","OBJECTID":551200},"geometry":{"x":181465.96999999974,"y":2540971.2500000037}}]}