{"displayFieldName":"TOWNNAME","fieldAliases":{"ID":"ID","DIS_CODE":"DIS_CODE","TOWNNAME":"TOWNNAME","LI":"LI","LIN":"LIN","STREET":"STREET","SECT":"SECT","MAREA":"MAREA","LANE":"LANE","ALLEY":"ALLEY","HOUSE_NO":"HOUSE_NO","E_COORD97":"E_COORD97","N_COORD97":"N_COORD97","ADDRESS":"ADDRESS","OBJECTID":"OBJECTID"},"geometryType":"esriGeometryPoint","spatialReference":{"wkid":102443,"latestWkid":3826},"fields":[{"name":"ID","type":"esriFieldTypeDouble","alias":"ID"},{"name":"DIS_CODE","type":"esriFieldTypeInteger","alias":"DIS_CODE"},{"name":"TOWNNAME","type":"esriFieldTypeString","alias":"TOWNNAME","length":8},{"name":"LI","type":"esriFieldTypeString","alias":"LI","length":8},{"name":"LIN","type":"esriFieldTypeString","alias":"LIN","length":12},{"name":"STREET","type":"esriFieldTypeString","alias":"STREET","length":20},{"name":"SECT","type":"esriFieldTypeString","alias":"SECT","length":8},{"name":"MAREA","type":"esriFieldTypeString","alias":"MAREA","length":12},{"name":"LANE","type":"esriFieldTypeString","alias":"LANE","length":10},{"name":"ALLEY","type":"esriFieldTypeString","alias":"ALLEY","length":10},{"name":"HOUSE_NO","type":"esriFieldTypeString","alias":"HOUSE_NO","length":20},{"name":"E_COORD97","type":"esriFieldTypeDouble","alias":"E_COORD97"},{"name":"N_COORD97","type":"esriFieldTypeDouble","alias":"N_COORD97"},{"name":"ADDRESS","type":"esriFieldTypeString","alias":"ADDRESS","length":50},{"name":"OBJECTID","type":"esriFieldTypeOID","alias":"OBJECTID"}],"features":[{"attributes":{"ID":467826,"DIS_CODE":0,"TOWNNAME":"六甲區","LI":"龍湖里","LIN":"5鄰","STREET":"中華路","SECT":" ","MAREA":" ","LANE":" ","ALLEY":" ","HOUSE_NO":"２２３號","E_COORD97":183077.17000000001,"N_COORD97":2569252.6200000001,"ADDRESS":"中華路２２３號","OBJECTID":467801},"geometry":{"x":183077.17000000179,"y":2569252.6200000029}},{"attributes":{"ID":467827,"DIS_CODE":0,"TOWNNAME":"六甲區","LI":"龍湖里","LIN":"5鄰","STREET":"中華路","SECT":" ","MAREA":" ","LANE":" ","ALLEY":" ","HOUSE_NO":"２２５號","E_COORD97":183071.92999999999,"N_COORD97":2569240.4500000002,"ADDRESS":"中華路２２５號","OBJECTID":467802},"geometry":{"x":183071.93000000156,"y":2569240.4499999993}},{"attributes":{"ID":467828,"DIS_CODE":0,"TOWNNAME":"六甲區","LI":"龍湖里","LIN":"5鄰","STREET":"中華路","SECT":" ","MAREA":" ","LANE":" ","ALLEY":" ","HOUSE_NO":"２２７號","E_COORD97":183059.75,"N_COORD97":2569245.4300000002,"ADDRESS":"中華路２２７號","OBJECTID":467803},"geometry":{"x":183059.75000000186,"y":2569245.4300000034}},{"attributes":{"ID":467829,"DIS_CODE":0,"TOWNNAME":"六甲區","LI":"龍湖里","LIN":"5鄰","STREET":"中華路","SECT":" ","MAREA":" ","LANE":" ","ALLEY":" ","HOUSE_NO":"２２９號","E_COORD97":182890.51999999999,"N_COORD97":2569203.3199999998,"ADDRESS":"中華路２２９號","OBJECTID":467804},"geometry":{"x":182890.51999999955,"y":2569203.3200000022}},{"attributes":{"ID":467830,"DIS_CODE":0,"TOWNNAME":"六甲區","LI":"甲南里","LIN":"5鄰","STREET":"中興街","SECT":" ","MAREA":" ","LANE":" ","ALLEY":" ","HOUSE_NO":"８號","E_COORD97":183719.35000000001,"N_COORD97":2569648.04,"ADDRESS":"中興街８號","OBJECTID":467805},"geometry":{"x":183719.34999999963,"y":2569648.040000001}},{"attributes":{"ID":467831,"DIS_CODE":0,"TOWNNAME":"六甲區","LI":"甲東里","LIN":"5鄰","STREET":"仁愛街","SECT":" ","MAREA":" ","LANE":" ","ALLEY":" ","HOUSE_NO":"７４號","E_COORD97":183882.85999999999,"N_COORD97":2570056.3399999999,"ADDRESS":"仁愛街７４號","OBJECTID":467806},"geometry":{"x":183882.86000000034,"y":2570056.339999998}},{"attributes":{"ID":467832,"DIS_CODE":0,"TOWNNAME":"六甲區","LI":"甲東里","LIN":"5鄰","STREET":"仁愛街","SECT":" ","MAREA":" ","LANE":" ","ALLEY":" ","HOUSE_NO":"７６號","E_COORD97":183882.79999999999,"N_COORD97":2570063.75,"ADDRESS":"仁愛街７６號","OBJECTID":467807},"geometry":{"x":183882.79999999981,"y":2570063.75}},{"attributes":{"ID":467833,"DIS_CODE":0,"TOWNNAME":"六甲區","LI":"甲東里","LIN":"5鄰","STREET":"仁愛街","SECT":" ","MAREA":" ","LANE":" ","ALLEY":" ","HOUSE_NO":"７８號","E_COORD97":183882.75,"N_COORD97":2570067.9900000002,"ADDRESS":"仁愛街７８號","OBJECTID":467808},"geometry":{"x":183882.75000000093,"y":2570067.9900000002}},{"attributes":{"ID":467834,"DIS_CODE":0,"TOWNNAME":"六甲區","LI":"甲東里","LIN":"5鄰","STREET":"仁愛街","SECT":" ","MAREA":" ","LANE":" ","ALLEY":" ","HOUSE_NO":"８０號","E_COORD97":183882.60000000001,"N_COORD97":2570072.1499999999,"ADDRESS":"仁愛街８０號","OBJECTID":467809},"geometry":{"x":183882.60000000149,"y":2570072.1500000041}},{"attributes":{"ID":467835,"DIS_CODE":0,"TOWNNAME":"六甲區","LI":"甲東里","LIN":"5鄰","STREET":"仁愛街","SECT":" ","MAREA":" ","LANE":" ","ALLEY":" ","HOUSE_NO":"８２號","E_COORD97":183882.44,"N_COORD97":2570076.2400000002,"ADDRESS":"仁愛街８２號","OBJECTID":467810},"geometry":{"x":183882.44000000041,"y":2570076.2400000002}},{"attributes":{"ID":467836,"DIS_CODE":0,"TOWNNAME":"六甲區","LI":"甲東里","LIN":"5鄰","STREET":"仁愛街","SECT":" ","MAREA":" ","LANE":" ","ALLEY":" ","HOUSE_NO":"８４號","E_COORD97":183882.45999999999,"N_COORD97":2570080.0800000001,"ADDRESS":"仁愛街８４號","OBJECTID":467811},"geometry":{"x":183882.46000000089,"y":2570080.0800000019}},{"attributes":{"ID":467837,"DIS_CODE":0,"TOWNNAME":"六甲區","LI":"甲東里","LIN":"5鄰","STREET":"仁愛街","SECT":" ","MAREA":" ","LANE":" ","ALLEY":" ","HOUSE_NO":"８６號","E_COORD97":183882.75,"N_COORD97":2570083.4900000002,"ADDRESS":"仁愛街８６號","OBJECTID":467812},"geometry":{"x":183882.75000000093,"y":2570083.4900000021}},{"attributes":{"ID":467838,"DIS_CODE":0,"TOWNNAME":"六甲區","LI":"甲東里","LIN":"5鄰","STREET":"仁愛街","SECT":" ","MAREA":" ","LANE":" ","ALLEY":" ","HOUSE_NO":"８８號","E_COORD97":183883.20999999999,"N_COORD97":2570087.2000000002,"ADDRESS":"仁愛街８８號","OBJECTID":467813},"geometry":{"x":183883.20999999996,"y":2570087.200000003}},{"attributes":{"ID":467839,"DIS_CODE":0,"TOWNNAME":"六甲區","LI":"甲東里","LIN":"5鄰","STREET":"仁愛街","SECT":" ","MAREA":" ","LANE":" ","ALLEY":" ","HOUSE_NO":"９０號","E_COORD97":183883.34,"N_COORD97":2570091.2000000002,"ADDRESS":"仁愛街９０號","OBJECTID":467814},"geometry":{"x":183883.34000000078,"y":2570091.2000000011}},{"attributes":{"ID":467840,"DIS_CODE":0,"TOWNNAME":"六甲區","LI":"甲東里","LIN":"5鄰","STREET":"仁愛街","SECT":" ","MAREA":" ","LANE":" ","ALLEY":" ","HOUSE_NO":"９２號","E_COORD97":183883.56,"N_COORD97":2570095.1400000001,"ADDRESS":"仁愛街９２號","OBJECTID":467815},"geometry":{"x":183883.56000000052,"y":2570095.1400000006}},{"attributes":{"ID":467841,"DIS_CODE":0,"TOWNNAME":"六甲區","LI":"甲東里","LIN":"5鄰","STREET":"仁愛街","SECT":" ","MAREA":" ","LANE":" ","ALLEY":" ","HOUSE_NO":"９６號","E_COORD97":183884.25,"N_COORD97":2570099.0299999998,"ADDRESS":"仁愛街９６號","OBJECTID":467816},"geometry":{"x":183884.25000000093,"y":2570099.0300000012}},{"attributes":{"ID":467842,"DIS_CODE":0,"TOWNNAME":"六甲區","LI":"甲南里","LIN":"5鄰","STREET":"民生街","SECT":" ","MAREA":" ","LANE":" ","ALLEY":" ","HOUSE_NO":"１０號","E_COORD97":183665.42999999999,"N_COORD97":2569599.71,"ADDRESS":"民生街１０號","OBJECTID":467817},"geometry":{"x":183665.43000000063,"y":2569599.7100000009}},{"attributes":{"ID":467843,"DIS_CODE":0,"TOWNNAME":"六甲區","LI":"甲南里","LIN":"5鄰","STREET":"民生街","SECT":" ","MAREA":" ","LANE":" ","ALLEY":" ","HOUSE_NO":"１２號","E_COORD97":183668.12,"N_COORD97":2569604.0899999999,"ADDRESS":"民生街１２號","OBJECTID":467818},"geometry":{"x":183668.12000000104,"y":2569604.0900000036}},{"attributes":{"ID":467844,"DIS_CODE":0,"TOWNNAME":"六甲區","LI":"甲南里","LIN":"5鄰","STREET":"民生街","SECT":" ","MAREA":" ","LANE":" ","ALLEY":" ","HOUSE_NO":"１４號","E_COORD97":183671.01000000001,"N_COORD97":2569607.9900000002,"ADDRESS":"民生街１４號","OBJECTID":467819},"geometry":{"x":183671.00999999978,"y":2569607.9900000002}},{"attributes":{"ID":467845,"DIS_CODE":0,"TOWNNAME":"六甲區","LI":"甲南里","LIN":"5鄰","STREET":"民生街","SECT":" ","MAREA":" ","LANE":" ","ALLEY":" ","HOUSE_NO":"１６號","E_COORD97":183673.35000000001,"N_COORD97":2569612.6899999999,"ADDRESS":"民生街１６號","OBJECTID":467820},"geometry":{"x":183673.34999999963,"y":2569612.6899999995}},{"attributes":{"ID":467846,"DIS_CODE":0,"TOWNNAME":"六甲區","LI":"甲南里","LIN":"5鄰","STREET":"民生街","SECT":" ","MAREA":" ","LANE":" ","ALLEY":" ","HOUSE_NO":"１８號","E_COORD97":183675.26999999999,"N_COORD97":2569616.2599999998,"ADDRESS":"民生街１８號","OBJECTID":467821},"geometry":{"x":183675.27000000048,"y":2569616.2600000035}},{"attributes":{"ID":467847,"DIS_CODE":0,"TOWNNAME":"六甲區","LI":"甲南里","LIN":"5鄰","STREET":"民生街","SECT":" ","MAREA":" ","LANE":" ","ALLEY":" ","HOUSE_NO":"２０號","E_COORD97":183677.29000000001,"N_COORD97":2569620.5,"ADDRESS":"民生街２０號","OBJECTID":467822},"geometry":{"x":183677.29000000097,"y":2569620.5}},{"attributes":{"ID":467848,"DIS_CODE":0,"TOWNNAME":"六甲區","LI":"甲南里","LIN":"5鄰","STREET":"民生街","SECT":" ","MAREA":" ","LANE":" ","ALLEY":" ","HOUSE_NO":"２２號","E_COORD97":183679.42000000001,"N_COORD97":2569624.9199999999,"ADDRESS":"民生街２２號","OBJECTID":467823},"geometry":{"x":183679.42000000086,"y":2569624.9199999999}},{"attributes":{"ID":467849,"DIS_CODE":0,"TOWNNAME":"六甲區","LI":"甲南里","LIN":"5鄰","STREET":"民生街","SECT":" ","MAREA":" ","LANE":" ","ALLEY":" ","HOUSE_NO":"２４號","E_COORD97":183681.03,"N_COORD97":2569629.0499999998,"ADDRESS":"民生街２４號","OBJECTID":467824},"geometry":{"x":183681.03000000119,"y":2569629.0500000045}},{"attributes":{"ID":467850,"DIS_CODE":0,"TOWNNAME":"六甲區","LI":"甲南里","LIN":"5鄰","STREET":"民生街","SECT":" ","MAREA":" ","LANE":" ","ALLEY":" ","HOUSE_NO":"２６號","E_COORD97":183683.48999999999,"N_COORD97":2569633.0899999999,"ADDRESS":"民生街２６號","OBJECTID":467825},"geometry":{"x":183683.49000000022,"y":2569633.0899999999}},{"attributes":{"ID":467851,"DIS_CODE":0,"TOWNNAME":"六甲區","LI":"甲南里","LIN":"5鄰","STREET":"民生街","SECT":" ","MAREA":" ","LANE":" ","ALLEY":" ","HOUSE_NO":"２８號","E_COORD97":183684.69,"N_COORD97":2569637.0600000001,"ADDRESS":"民生街２８號","OBJECTID":467826},"geometry":{"x":183684.69000000134,"y":2569637.0600000005}},{"attributes":{"ID":467852,"DIS_CODE":0,"TOWNNAME":"六甲區","LI":"甲南里","LIN":"5鄰","STREET":"民生街","SECT":" ","MAREA":" ","LANE":" ","ALLEY":" ","HOUSE_NO":"２號","E_COORD97":183658.84,"N_COORD97":2569574.7400000002,"ADDRESS":"民生街２號","OBJECTID":467827},"geometry":{"x":183658.83999999985,"y":2569574.7400000002}},{"attributes":{"ID":467853,"DIS_CODE":0,"TOWNNAME":"六甲區","LI":"甲南里","LIN":"5鄰","STREET":"民生街","SECT":" ","MAREA":" ","LANE":" ","ALLEY":" ","HOUSE_NO":"３０號","E_COORD97":183686.66,"N_COORD97":2569641.0499999998,"ADDRESS":"民生街３０號","OBJECTID":467828},"geometry":{"x":183686.66000000108,"y":2569641.0500000007}},{"attributes":{"ID":467854,"DIS_CODE":0,"TOWNNAME":"六甲區","LI":"甲南里","LIN":"5鄰","STREET":"民生街","SECT":" ","MAREA":" ","LANE":" ","ALLEY":" ","HOUSE_NO":"３２號","E_COORD97":183688.32999999999,"N_COORD97":2569644.3100000001,"ADDRESS":"民生街３２號","OBJECTID":467829},"geometry":{"x":183688.33000000194,"y":2569644.3100000024}},{"attributes":{"ID":467855,"DIS_CODE":0,"TOWNNAME":"六甲區","LI":"甲南里","LIN":"5鄰","STREET":"民生街","SECT":" ","MAREA":" ","LANE":" ","ALLEY":" ","HOUSE_NO":"３６號","E_COORD97":183693.79000000001,"N_COORD97":2569655.1600000001,"ADDRESS":"民生街３６號","OBJECTID":467830},"geometry":{"x":183693.79000000097,"y":2569655.160000002}},{"attributes":{"ID":467856,"DIS_CODE":0,"TOWNNAME":"六甲區","LI":"甲南里","LIN":"5鄰","STREET":"民生街","SECT":" ","MAREA":" ","LANE":" ","ALLEY":" ","HOUSE_NO":"３８號","E_COORD97":183695.47,"N_COORD97":2569659.1699999999,"ADDRESS":"民生街３８號","OBJECTID":467831},"geometry":{"x":183695.4700000016,"y":2569659.1700000018}},{"attributes":{"ID":467857,"DIS_CODE":0,"TOWNNAME":"六甲區","LI":"甲南里","LIN":"5鄰","STREET":"民生街","SECT":" ","MAREA":" ","LANE":" ","ALLEY":" ","HOUSE_NO":"４０號","E_COORD97":183697.59,"N_COORD97":2569662.5600000001,"ADDRESS":"民生街４０號","OBJECTID":467832},"geometry":{"x":183697.58999999985,"y":2569662.5600000042}},{"attributes":{"ID":467858,"DIS_CODE":0,"TOWNNAME":"六甲區","LI":"甲南里","LIN":"5鄰","STREET":"民生街","SECT":" ","MAREA":" ","LANE":" ","ALLEY":" ","HOUSE_NO":"４２號","E_COORD97":183699.20999999999,"N_COORD97":2569665.79,"ADDRESS":"民生街４２號","OBJECTID":467833},"geometry":{"x":183699.21000000183,"y":2569665.7899999991}},{"attributes":{"ID":467859,"DIS_CODE":0,"TOWNNAME":"六甲區","LI":"甲南里","LIN":"5鄰","STREET":"民生街","SECT":" ","MAREA":" ","LANE":" ","ALLEY":" ","HOUSE_NO":"４６號","E_COORD97":183701.04999999999,"N_COORD97":2569669.5099999998,"ADDRESS":"民生街４６號","OBJECTID":467834},"geometry":{"x":183701.04999999981,"y":2569669.5100000016}},{"attributes":{"ID":467860,"DIS_CODE":0,"TOWNNAME":"六甲區","LI":"甲南里","LIN":"5鄰","STREET":"民生街","SECT":" ","MAREA":" ","LANE":" ","ALLEY":" ","HOUSE_NO":"６號","E_COORD97":183661.34,"N_COORD97":2569586.5800000001,"ADDRESS":"民生街６號","OBJECTID":467835},"geometry":{"x":183661.34000000078,"y":2569586.5800000001}},{"attributes":{"ID":467861,"DIS_CODE":0,"TOWNNAME":"六甲區","LI":"水林里","LIN":"5鄰","STREET":"民族街","SECT":" ","MAREA":" ","LANE":" ","ALLEY":" ","HOUSE_NO":"２６９號","E_COORD97":183126.70000000001,"N_COORD97":2570320.98,"ADDRESS":"民族街２６９號","OBJECTID":467836},"geometry":{"x":183126.70000000112,"y":2570320.9800000023}},{"attributes":{"ID":467862,"DIS_CODE":0,"TOWNNAME":"柳營區","LI":"東昇里","LIN":"5鄰","STREET":"成功街","SECT":" ","MAREA":" ","LANE":" ","ALLEY":" ","HOUSE_NO":"７８號","E_COORD97":180031.53,"N_COORD97":2575338.5800000001,"ADDRESS":"成功街７８號","OBJECTID":467837},"geometry":{"x":180031.53000000026,"y":2575338.5800000019}},{"attributes":{"ID":467863,"DIS_CODE":0,"TOWNNAME":"六甲區","LI":"六甲里","LIN":"5鄰","STREET":"民權街","SECT":" ","MAREA":" ","LANE":" ","ALLEY":" ","HOUSE_NO":"１２號之１","E_COORD97":183496.82999999999,"N_COORD97":2569633.8799999999,"ADDRESS":"民權街１２號之１","OBJECTID":467838},"geometry":{"x":183496.83000000101,"y":2569633.879999999}},{"attributes":{"ID":467864,"DIS_CODE":0,"TOWNNAME":"六甲區","LI":"六甲里","LIN":"5鄰","STREET":"民權街","SECT":" ","MAREA":" ","LANE":" ","ALLEY":" ","HOUSE_NO":"１２號","E_COORD97":183500.73999999999,"N_COORD97":2569633.7599999998,"ADDRESS":"民權街１２號","OBJECTID":467839},"geometry":{"x":183500.73999999929,"y":2569633.7600000016}},{"attributes":{"ID":467865,"DIS_CODE":0,"TOWNNAME":"六甲區","LI":"六甲里","LIN":"5鄰","STREET":"民權街","SECT":" ","MAREA":" ","LANE":" ","ALLEY":" ","HOUSE_NO":"１４號","E_COORD97":183489.20000000001,"N_COORD97":2569634.4399999999,"ADDRESS":"民權街１４號","OBJECTID":467840},"geometry":{"x":183489.20000000205,"y":2569634.4399999995}},{"attributes":{"ID":467866,"DIS_CODE":0,"TOWNNAME":"新營區","LI":"好平里","LIN":"5鄰","STREET":"新進路","SECT":"二段","MAREA":" ","LANE":" ","ALLEY":" ","HOUSE_NO":"１０８號","E_COORD97":179467.29000000001,"N_COORD97":2577741.3399999999,"ADDRESS":"新進路二段１０８號","OBJECTID":467841},"geometry":{"x":179467.29000000004,"y":2577741.3399999999}},{"attributes":{"ID":467867,"DIS_CODE":0,"TOWNNAME":"新營區","LI":"好平里","LIN":"5鄰","STREET":"南昌街","SECT":" ","MAREA":" ","LANE":" ","ALLEY":" ","HOUSE_NO":"４４號","E_COORD97":179481.07999999999,"N_COORD97":2577661.5299999998,"ADDRESS":"南昌街４４號","OBJECTID":467842},"geometry":{"x":179481.08000000101,"y":2577661.5299999993}},{"attributes":{"ID":467868,"DIS_CODE":0,"TOWNNAME":"新營區","LI":"大宏里","LIN":"5鄰","STREET":"三民路","SECT":" ","MAREA":" ","LANE":" ","ALLEY":" ","HOUSE_NO":"５６之４號","E_COORD97":180257.72,"N_COORD97":2578497.3599999999,"ADDRESS":"三民路５６之４號","OBJECTID":467843},"geometry":{"x":180257.72000000067,"y":2578497.3599999994}},{"attributes":{"ID":467869,"DIS_CODE":0,"TOWNNAME":"新營區","LI":"新南里","LIN":"5鄰","STREET":"新北三街","SECT":" ","MAREA":" ","LANE":" ","ALLEY":" ","HOUSE_NO":"３９號","E_COORD97":178593.47,"N_COORD97":2578777.6600000001,"ADDRESS":"新北三街３９號","OBJECTID":467844},"geometry":{"x":178593.47000000067,"y":2578777.6600000001}},{"attributes":{"ID":467870,"DIS_CODE":0,"TOWNNAME":"新營區","LI":"延平里","LIN":"5鄰","STREET":"長春街","SECT":" ","MAREA":" ","LANE":" ","ALLEY":" ","HOUSE_NO":"２之１６號","E_COORD97":179726.20000000001,"N_COORD97":2577917.3599999999,"ADDRESS":"長春街２之１６號","OBJECTID":467845},"geometry":{"x":179726.20000000112,"y":2577917.3599999994}},{"attributes":{"ID":467871,"DIS_CODE":0,"TOWNNAME":"新營區","LI":"中營里","LIN":"5鄰","STREET":"中山路","SECT":" ","MAREA":" ","LANE":" ","ALLEY":" ","HOUSE_NO":"３４之２號","E_COORD97":180623.72,"N_COORD97":2578443.6000000001,"ADDRESS":"中山路３４之２號","OBJECTID":467846},"geometry":{"x":180623.7200000016,"y":2578443.6000000015}},{"attributes":{"ID":467872,"DIS_CODE":0,"TOWNNAME":"新營區","LI":"延平里","LIN":"5鄰","STREET":"長春街","SECT":" ","MAREA":" ","LANE":" ","ALLEY":" ","HOUSE_NO":"２之１０號","E_COORD97":179738.5,"N_COORD97":2577923.9399999999,"ADDRESS":"長春街２之１０號","OBJECTID":467847},"geometry":{"x":179738.5,"y":2577923.9399999995}},{"attributes":{"ID":467873,"DIS_CODE":0,"TOWNNAME":"新營區","LI":"大宏里","LIN":"5鄰","STREET":"三民路","SECT":" ","MAREA":" ","LANE":" ","ALLEY":" ","HOUSE_NO":"６８之６號","E_COORD97":180213.95999999999,"N_COORD97":2578547.4100000001,"ADDRESS":"三民路６８之６號","OBJECTID":467848},"geometry":{"x":180213.96000000089,"y":2578547.410000002}},{"attributes":{"ID":467874,"DIS_CODE":0,"TOWNNAME":"新營區","LI":"新南里","LIN":"5鄰","STREET":"新北三街","SECT":" ","MAREA":" ","LANE":" ","ALLEY":" ","HOUSE_NO":"８４號","E_COORD97":178549.60000000001,"N_COORD97":2578804.4500000002,"ADDRESS":"新北三街８４號","OBJECTID":467849},"geometry":{"x":178549.60000000149,"y":2578804.4499999993}},{"attributes":{"ID":467875,"DIS_CODE":0,"TOWNNAME":"新營區","LI":"中營里","LIN":"5鄰","STREET":"中山路","SECT":" ","MAREA":" ","LANE":" ","ALLEY":" ","HOUSE_NO":"２０之１號","E_COORD97":180663.45000000001,"N_COORD97":2578427.9100000001,"ADDRESS":"中山路２０之１號","OBJECTID":467850},"geometry":{"x":180663.45000000112,"y":2578427.910000002}},{"attributes":{"ID":467876,"DIS_CODE":0,"TOWNNAME":"柳營區","LI":"中埕里","LIN":"5鄰","STREET":"中山西路","SECT":"二段","MAREA":" ","LANE":" ","ALLEY":" ","HOUSE_NO":"１１０號","E_COORD97":179958.84,"N_COORD97":2575122.3300000001,"ADDRESS":"中山西路二段１１０號","OBJECTID":467851},"geometry":{"x":179958.84000000078,"y":2575122.3300000019}},{"attributes":{"ID":467877,"DIS_CODE":0,"TOWNNAME":"柳營區","LI":"中埕里","LIN":"5鄰","STREET":"中山西路","SECT":"二段","MAREA":" ","LANE":" ","ALLEY":" ","HOUSE_NO":"１１６號","E_COORD97":179943.14000000001,"N_COORD97":2575128.2400000002,"ADDRESS":"中山西路二段１１６號","OBJECTID":467852},"geometry":{"x":179943.1400000006,"y":2575128.2400000002}},{"attributes":{"ID":467878,"DIS_CODE":0,"TOWNNAME":"柳營區","LI":"中埕里","LIN":"5鄰","STREET":"中山西路","SECT":"二段","MAREA":" ","LANE":" ","ALLEY":" ","HOUSE_NO":"１２２號","E_COORD97":179939.91,"N_COORD97":2575120.3399999999,"ADDRESS":"中山西路二段１２２號","OBJECTID":467853},"geometry":{"x":179939.91000000108,"y":2575120.3399999999}},{"attributes":{"ID":467879,"DIS_CODE":0,"TOWNNAME":"柳營區","LI":"中埕里","LIN":"5鄰","STREET":"中山西路","SECT":"二段","MAREA":" ","LANE":" ","ALLEY":" ","HOUSE_NO":"１２６號","E_COORD97":179935.48000000001,"N_COORD97":2575118.54,"ADDRESS":"中山西路二段１２６號","OBJECTID":467854},"geometry":{"x":179935.48000000045,"y":2575118.5399999991}},{"attributes":{"ID":467880,"DIS_CODE":0,"TOWNNAME":"柳營區","LI":"光福里","LIN":"5鄰","STREET":"中山西路","SECT":"二段","MAREA":" ","LANE":" ","ALLEY":" ","HOUSE_NO":"１９６號","E_COORD97":179752.23999999999,"N_COORD97":2575093.54,"ADDRESS":"中山西路二段１９６號","OBJECTID":467855},"geometry":{"x":179752.24000000022,"y":2575093.540000001}},{"attributes":{"ID":467881,"DIS_CODE":0,"TOWNNAME":"柳營區","LI":"光福里","LIN":"5鄰","STREET":"中山西路","SECT":"二段","MAREA":" ","LANE":" ","ALLEY":" ","HOUSE_NO":"１９８號","E_COORD97":179734.89000000001,"N_COORD97":2575092.5800000001,"ADDRESS":"中山西路二段１９８號","OBJECTID":467856},"geometry":{"x":179734.8900000006,"y":2575092.5800000001}},{"attributes":{"ID":467882,"DIS_CODE":0,"TOWNNAME":"柳營區","LI":"光福里","LIN":"5鄰","STREET":"中山西路","SECT":"二段","MAREA":" ","LANE":" ","ALLEY":" ","HOUSE_NO":"２００號","E_COORD97":179731.26000000001,"N_COORD97":2575113.21,"ADDRESS":"中山西路二段２００號","OBJECTID":467857},"geometry":{"x":179731.25999999978,"y":2575113.2100000009}},{"attributes":{"ID":467883,"DIS_CODE":0,"TOWNNAME":"柳營區","LI":"光福里","LIN":"5鄰","STREET":"中山西路","SECT":"二段","MAREA":" ","LANE":" ","ALLEY":" ","HOUSE_NO":"２０２號","E_COORD97":179727.70999999999,"N_COORD97":2575096.21,"ADDRESS":"中山西路二段２０２號","OBJECTID":467858},"geometry":{"x":179727.71000000089,"y":2575096.2100000009}},{"attributes":{"ID":467884,"DIS_CODE":0,"TOWNNAME":"柳營區","LI":"光福里","LIN":"5鄰","STREET":"中山西路","SECT":"二段","MAREA":" ","LANE":" ","ALLEY":" ","HOUSE_NO":"２０６號","E_COORD97":179724.25,"N_COORD97":2575095.6200000001,"ADDRESS":"中山西路二段２０６號","OBJECTID":467859},"geometry":{"x":179724.25000000093,"y":2575095.6200000029}},{"attributes":{"ID":467885,"DIS_CODE":0,"TOWNNAME":"柳營區","LI":"光福里","LIN":"5鄰","STREET":"中山西路","SECT":"二段","MAREA":" ","LANE":" ","ALLEY":" ","HOUSE_NO":"２０８號","E_COORD97":179710.84,"N_COORD97":2575096.8199999998,"ADDRESS":"中山西路二段２０８號","OBJECTID":467860},"geometry":{"x":179710.83999999985,"y":2575096.8200000022}},{"attributes":{"ID":467886,"DIS_CODE":0,"TOWNNAME":"柳營區","LI":"光福里","LIN":"5鄰","STREET":"中山西路","SECT":"二段","MAREA":" ","LANE":" ","ALLEY":" ","HOUSE_NO":"２１０號","E_COORD97":179707.39000000001,"N_COORD97":2575096.21,"ADDRESS":"中山西路二段２１０號","OBJECTID":467861},"geometry":{"x":179707.3900000006,"y":2575096.2100000009}},{"attributes":{"ID":467887,"DIS_CODE":0,"TOWNNAME":"柳營區","LI":"光福里","LIN":"5鄰","STREET":"中山西路","SECT":"二段","MAREA":" ","LANE":" ","ALLEY":" ","HOUSE_NO":"２１２號","E_COORD97":179703.94,"N_COORD97":2575095.6000000001,"ADDRESS":"中山西路二段２１２號","OBJECTID":467862},"geometry":{"x":179703.94000000041,"y":2575095.5999999996}},{"attributes":{"ID":467888,"DIS_CODE":0,"TOWNNAME":"柳營區","LI":"光福里","LIN":"5鄰","STREET":"中山西路","SECT":"二段","MAREA":" ","LANE":" ","ALLEY":" ","HOUSE_NO":"２１６號","E_COORD97":179700.48999999999,"N_COORD97":2575094.98,"ADDRESS":"中山西路二段２１６號","OBJECTID":467863},"geometry":{"x":179700.49000000115,"y":2575094.9800000023}},{"attributes":{"ID":467889,"DIS_CODE":0,"TOWNNAME":"柳營區","LI":"光福里","LIN":"5鄰","STREET":"中山西路","SECT":"二段","MAREA":" ","LANE":" ","ALLEY":" ","HOUSE_NO":"２１８號","E_COORD97":179697.03,"N_COORD97":2575094.3700000001,"ADDRESS":"中山西路二段２１８號","OBJECTID":467864},"geometry":{"x":179697.03000000119,"y":2575094.370000001}},{"attributes":{"ID":467890,"DIS_CODE":0,"TOWNNAME":"柳營區","LI":"光福里","LIN":"5鄰","STREET":"中山西路","SECT":"二段","MAREA":" ","LANE":" ","ALLEY":" ","HOUSE_NO":"２２０號","E_COORD97":179693.57999999999,"N_COORD97":2575093.7599999998,"ADDRESS":"中山西路二段２２０號","OBJECTID":467865},"geometry":{"x":179693.58000000007,"y":2575093.7599999998}},{"attributes":{"ID":467891,"DIS_CODE":0,"TOWNNAME":"柳營區","LI":"光福里","LIN":"5鄰","STREET":"中山西路","SECT":"二段","MAREA":" ","LANE":" ","ALLEY":" ","HOUSE_NO":"２２２號","E_COORD97":179690.13,"N_COORD97":2575093.1499999999,"ADDRESS":"中山西路二段２２２號","OBJECTID":467866},"geometry":{"x":179690.12999999989,"y":2575093.1500000041}},{"attributes":{"ID":467892,"DIS_CODE":0,"TOWNNAME":"柳營區","LI":"光福里","LIN":"5鄰","STREET":"中山西路","SECT":"二段","MAREA":" ","LANE":" ","ALLEY":" ","HOUSE_NO":"２２６號","E_COORD97":179686.67999999999,"N_COORD97":2575092.54,"ADDRESS":"中山西路二段２２６號","OBJECTID":467867},"geometry":{"x":179686.68000000063,"y":2575092.5400000028}},{"attributes":{"ID":467893,"DIS_CODE":0,"TOWNNAME":"柳營區","LI":"中埕里","LIN":"5鄰","STREET":"中山西路","SECT":"二段","MAREA":" ","LANE":" ","ALLEY":" ","HOUSE_NO":"８１號","E_COORD97":179966.16,"N_COORD97":2575093.3999999999,"ADDRESS":"中山西路二段８１號","OBJECTID":467868},"geometry":{"x":179966.16000000015,"y":2575093.4000000004}},{"attributes":{"ID":467894,"DIS_CODE":0,"TOWNNAME":"柳營區","LI":"中埕里","LIN":"5鄰","STREET":"中山西路","SECT":"二段","MAREA":" ","LANE":" ","ALLEY":" ","HOUSE_NO":"８３號","E_COORD97":179961.75,"N_COORD97":2575092.04,"ADDRESS":"中山西路二段８３號","OBJECTID":467869},"geometry":{"x":179961.75000000093,"y":2575092.0399999991}},{"attributes":{"ID":467895,"DIS_CODE":0,"TOWNNAME":"柳營區","LI":"中埕里","LIN":"5鄰","STREET":"中山西路","SECT":"二段","MAREA":" ","LANE":" ","ALLEY":" ","HOUSE_NO":"８７號","E_COORD97":179953.98999999999,"N_COORD97":2575088.6499999999,"ADDRESS":"中山西路二段８７號","OBJECTID":467870},"geometry":{"x":179953.99000000022,"y":2575088.6500000004}},{"attributes":{"ID":467896,"DIS_CODE":0,"TOWNNAME":"柳營區","LI":"中埕里","LIN":"5鄰","STREET":"中山西路","SECT":"二段","MAREA":" ","LANE":" ","ALLEY":" ","HOUSE_NO":"９１號","E_COORD97":179943.60999999999,"N_COORD97":2575086.73,"ADDRESS":"中山西路二段９１號","OBJECTID":467871},"geometry":{"x":179943.6100000022,"y":2575086.7300000023}},{"attributes":{"ID":467897,"DIS_CODE":0,"TOWNNAME":"柳營區","LI":"士林里","LIN":"5鄰","STREET":"中山西路","SECT":"三段","MAREA":" ","LANE":" ","ALLEY":" ","HOUSE_NO":"１１２號","E_COORD97":179430.42999999999,"N_COORD97":2575156.77,"ADDRESS":"中山西路三段１１２號","OBJECTID":467872},"geometry":{"x":179430.42999999877,"y":2575156.7700000014}},{"attributes":{"ID":467898,"DIS_CODE":0,"TOWNNAME":"柳營區","LI":"士林里","LIN":"5鄰","STREET":"中山西路","SECT":"三段","MAREA":" ","LANE":" ","ALLEY":" ","HOUSE_NO":"１２８號","E_COORD97":179395.53,"N_COORD97":2575156.0600000001,"ADDRESS":"中山西路三段１２８號","OBJECTID":467873},"geometry":{"x":179395.53000000119,"y":2575156.0600000024}},{"attributes":{"ID":467899,"DIS_CODE":0,"TOWNNAME":"柳營區","LI":"士林里","LIN":"5鄰","STREET":"中山西路","SECT":"三段","MAREA":" ","LANE":" ","ALLEY":" ","HOUSE_NO":"９３號","E_COORD97":179393.84,"N_COORD97":2575066.3599999999,"ADDRESS":"中山西路三段９３號","OBJECTID":467874},"geometry":{"x":179393.83999999985,"y":2575066.3599999994}},{"attributes":{"ID":467900,"DIS_CODE":0,"TOWNNAME":"柳營區","LI":"東昇里","LIN":"5鄰","STREET":"成功街","SECT":" ","MAREA":" ","LANE":" ","ALLEY":" ","HOUSE_NO":"１００號","E_COORD97":179975.89999999999,"N_COORD97":2575350.6200000001,"ADDRESS":"成功街１００號","OBJECTID":467875},"geometry":{"x":179975.9000000013,"y":2575350.620000001}},{"attributes":{"ID":467901,"DIS_CODE":0,"TOWNNAME":"柳營區","LI":"東昇里","LIN":"5鄰","STREET":"成功街","SECT":" ","MAREA":" ","LANE":" ","ALLEY":" ","HOUSE_NO":"１０２號","E_COORD97":179972.39000000001,"N_COORD97":2575352.21,"ADDRESS":"成功街１０２號","OBJECTID":467876},"geometry":{"x":179972.38999999966,"y":2575352.2100000028}},{"attributes":{"ID":467902,"DIS_CODE":0,"TOWNNAME":"柳營區","LI":"東昇里","LIN":"5鄰","STREET":"成功街","SECT":" ","MAREA":" ","LANE":" ","ALLEY":" ","HOUSE_NO":"８６號","E_COORD97":180019.13,"N_COORD97":2575338.46,"ADDRESS":"成功街８６號","OBJECTID":467877},"geometry":{"x":180019.12999999989,"y":2575338.4600000009}},{"attributes":{"ID":467903,"DIS_CODE":0,"TOWNNAME":"柳營區","LI":"東昇里","LIN":"5鄰","STREET":"成功街","SECT":" ","MAREA":" ","LANE":" ","ALLEY":" ","HOUSE_NO":"８８號","E_COORD97":180010.10000000001,"N_COORD97":2575339.7799999998,"ADDRESS":"成功街８８號","OBJECTID":467878},"geometry":{"x":180010.09999999963,"y":2575339.7800000012}},{"attributes":{"ID":467904,"DIS_CODE":0,"TOWNNAME":"柳營區","LI":"東昇里","LIN":"5鄰","STREET":"成功街","SECT":" ","MAREA":" ","LANE":" ","ALLEY":" ","HOUSE_NO":"９６號","E_COORD97":179984.22,"N_COORD97":2575346.77,"ADDRESS":"成功街９６號","OBJECTID":467879},"geometry":{"x":179984.21999999974,"y":2575346.7700000014}},{"attributes":{"ID":467905,"DIS_CODE":0,"TOWNNAME":"柳營區","LI":"東昇里","LIN":"5鄰","STREET":"成功街","SECT":" ","MAREA":" ","LANE":" ","ALLEY":" ","HOUSE_NO":"９８號","E_COORD97":179980.06,"N_COORD97":2575348.6899999999,"ADDRESS":"成功街９８號","OBJECTID":467880},"geometry":{"x":179980.05999999959,"y":2575348.6899999995}},{"attributes":{"ID":467906,"DIS_CODE":0,"TOWNNAME":"柳營區","LI":"士林里","LIN":"5鄰","STREET":"育英街","SECT":" ","MAREA":" ","LANE":" ","ALLEY":" ","HOUSE_NO":"１６８號","E_COORD97":179434.04000000001,"N_COORD97":2574906.8300000001,"ADDRESS":"育英街１６８號","OBJECTID":467881},"geometry":{"x":179434.04000000097,"y":2574906.8300000001}},{"attributes":{"ID":467907,"DIS_CODE":0,"TOWNNAME":"柳營區","LI":"士林里","LIN":"5鄰","STREET":"育英街","SECT":" ","MAREA":" ","LANE":" ","ALLEY":" ","HOUSE_NO":"１７０號","E_COORD97":179427.54999999999,"N_COORD97":2574923.0600000001,"ADDRESS":"育英街１７０號","OBJECTID":467882},"geometry":{"x":179427.54999999981,"y":2574923.0600000005}},{"attributes":{"ID":467908,"DIS_CODE":0,"TOWNNAME":"柳營區","LI":"士林里","LIN":"5鄰","STREET":"育英街","SECT":" ","MAREA":" ","LANE":" ","ALLEY":" ","HOUSE_NO":"１７６號","E_COORD97":179410.54000000001,"N_COORD97":2574911.6000000001,"ADDRESS":"育英街１７６號","OBJECTID":467883},"geometry":{"x":179410.54000000097,"y":2574911.5999999996}},{"attributes":{"ID":467909,"DIS_CODE":0,"TOWNNAME":"柳營區","LI":"人和里","LIN":"5鄰","STREET":"忠得街","SECT":" ","MAREA":" ","LANE":" ","ALLEY":" ","HOUSE_NO":"１１號","E_COORD97":178595.39000000001,"N_COORD97":2576098.4700000002,"ADDRESS":"忠得街１１號","OBJECTID":467884},"geometry":{"x":178595.3900000006,"y":2576098.4700000025}},{"attributes":{"ID":467910,"DIS_CODE":0,"TOWNNAME":"柳營區","LI":"人和里","LIN":"5鄰","STREET":"忠得街","SECT":" ","MAREA":" ","LANE":" ","ALLEY":" ","HOUSE_NO":"９號","E_COORD97":178597.26999999999,"N_COORD97":2576107.2999999998,"ADDRESS":"忠得街９號","OBJECTID":467885},"geometry":{"x":178597.26999999955,"y":2576107.3000000026}},{"attributes":{"ID":467911,"DIS_CODE":0,"TOWNNAME":"北區","LI":"國姓里","LIN":"5鄰","STREET":"西門路","SECT":"四段","MAREA":" ","LANE":" ","ALLEY":" ","HOUSE_NO":"１３８號","E_COORD97":168781.92000000001,"N_COORD97":2545488.2999999998,"ADDRESS":"西門路四段１３８號","OBJECTID":467886},"geometry":{"x":168781.92000000086,"y":2545488.3000000026}},{"attributes":{"ID":467912,"DIS_CODE":0,"TOWNNAME":"南區","LI":"郡南里","LIN":"5鄰","STREET":"永興二街","SECT":" ","MAREA":" ","LANE":" ","ALLEY":" ","HOUSE_NO":"３２號","E_COORD97":167244.95999999999,"N_COORD97":2540678.1400000001,"ADDRESS":"永興二街３２號","OBJECTID":467887},"geometry":{"x":167244.95999999996,"y":2540678.1400000025}},{"attributes":{"ID":467913,"DIS_CODE":0,"TOWNNAME":"南區","LI":"郡南里","LIN":"5鄰","STREET":"永興二街","SECT":" ","MAREA":" ","LANE":" ","ALLEY":" ","HOUSE_NO":"３４號","E_COORD97":167239.64999999999,"N_COORD97":2540680.1499999999,"ADDRESS":"永興二街３４號","OBJECTID":467888},"geometry":{"x":167239.65000000224,"y":2540680.1500000004}},{"attributes":{"ID":467914,"DIS_CODE":0,"TOWNNAME":"南區","LI":"郡南里","LIN":"5鄰","STREET":"永興二街","SECT":" ","MAREA":" ","LANE":" ","ALLEY":" ","HOUSE_NO":"３６號","E_COORD97":167234.10000000001,"N_COORD97":2540678.3900000001,"ADDRESS":"永興二街３６號","OBJECTID":467889},"geometry":{"x":167234.10000000149,"y":2540678.3900000006}},{"attributes":{"ID":467915,"DIS_CODE":0,"TOWNNAME":"南區","LI":"郡南里","LIN":"5鄰","STREET":"永興一街","SECT":" ","MAREA":" ","LANE":" ","ALLEY":" ","HOUSE_NO":"１７號","E_COORD97":167246.48999999999,"N_COORD97":2540701.6200000001,"ADDRESS":"永興一街１７號","OBJECTID":467890},"geometry":{"x":167246.49000000115,"y":2540701.620000001}},{"attributes":{"ID":467916,"DIS_CODE":0,"TOWNNAME":"南區","LI":"郡南里","LIN":"5鄰","STREET":"永興一街","SECT":" ","MAREA":" ","LANE":" ","ALLEY":" ","HOUSE_NO":"１９號","E_COORD97":167242.23999999999,"N_COORD97":2540701.6200000001,"ADDRESS":"永興一街１９號","OBJECTID":467891},"geometry":{"x":167242.24000000209,"y":2540701.620000001}},{"attributes":{"ID":467917,"DIS_CODE":0,"TOWNNAME":"南區","LI":"郡南里","LIN":"5鄰","STREET":"永興一街","SECT":" ","MAREA":" ","LANE":" ","ALLEY":" ","HOUSE_NO":"２１號","E_COORD97":167236.20000000001,"N_COORD97":2540700.9500000002,"ADDRESS":"永興一街２１號","OBJECTID":467892},"geometry":{"x":167236.20000000112,"y":2540700.9499999993}},{"attributes":{"ID":467918,"DIS_CODE":0,"TOWNNAME":"南區","LI":"郡南里","LIN":"5鄰","STREET":"永興一街","SECT":" ","MAREA":" ","LANE":" ","ALLEY":" ","HOUSE_NO":"２３號","E_COORD97":167232.17000000001,"N_COORD97":2540701.3999999999,"ADDRESS":"永興一街２３號","OBJECTID":467893},"geometry":{"x":167232.16999999899,"y":2540701.4000000004}},{"attributes":{"ID":467919,"DIS_CODE":0,"TOWNNAME":"南區","LI":"郡南里","LIN":"5鄰","STREET":"永興二街","SECT":" ","MAREA":" ","LANE":" ","ALLEY":" ","HOUSE_NO":"２８號","E_COORD97":167252.53,"N_COORD97":2540677.6299999999,"ADDRESS":"永興二街２８號","OBJECTID":467894},"geometry":{"x":167252.53000000119,"y":2540677.6300000008}},{"attributes":{"ID":467920,"DIS_CODE":0,"TOWNNAME":"南區","LI":"郡南里","LIN":"5鄰","STREET":"永興二街","SECT":" ","MAREA":" ","LANE":" ","ALLEY":" ","HOUSE_NO":"３０號","E_COORD97":167248.23999999999,"N_COORD97":2540677.1299999999,"ADDRESS":"永興二街３０號","OBJECTID":467895},"geometry":{"x":167248.24000000022,"y":2540677.1300000008}},{"attributes":{"ID":467921,"DIS_CODE":0,"TOWNNAME":"南區","LI":"郡南里","LIN":"5鄰","STREET":"永興一街","SECT":" ","MAREA":" ","LANE":" ","ALLEY":" ","HOUSE_NO":"２８號","E_COORD97":167230.95000000001,"N_COORD97":2540733.6499999999,"ADDRESS":"永興一街２８號","OBJECTID":467896},"geometry":{"x":167230.95000000112,"y":2540733.6500000004}},{"attributes":{"ID":467922,"DIS_CODE":0,"TOWNNAME":"南區","LI":"郡南里","LIN":"5鄰","STREET":"永興一街","SECT":" ","MAREA":" ","LANE":" ","ALLEY":" ","HOUSE_NO":"２０號","E_COORD97":167253.95999999999,"N_COORD97":2540732.71,"ADDRESS":"永興一街２０號","OBJECTID":467897},"geometry":{"x":167253.95999999903,"y":2540732.7100000028}},{"attributes":{"ID":467923,"DIS_CODE":0,"TOWNNAME":"南區","LI":"郡南里","LIN":"5鄰","STREET":"永興二街","SECT":" ","MAREA":" ","LANE":" ","ALLEY":" ","HOUSE_NO":"２０號","E_COORD97":167262.13,"N_COORD97":2540677.3799999999,"ADDRESS":"永興二街２０號","OBJECTID":467898},"geometry":{"x":167262.13000000082,"y":2540677.379999999}},{"attributes":{"ID":467924,"DIS_CODE":0,"TOWNNAME":"南區","LI":"郡南里","LIN":"5鄰","STREET":"永興二街","SECT":" ","MAREA":" ","LANE":" ","ALLEY":" ","HOUSE_NO":"３８號","E_COORD97":167225.26000000001,"N_COORD97":2540678.6400000001,"ADDRESS":"永興二街３８號","OBJECTID":467899},"geometry":{"x":167225.26000000071,"y":2540678.6400000025}},{"attributes":{"ID":467925,"DIS_CODE":0,"TOWNNAME":"南區","LI":"明興里","LIN":"5鄰","STREET":"金華路","SECT":"一段","MAREA":" ","LANE":" ","ALLEY":" ","HOUSE_NO":"１９４號","E_COORD97":166954.29999999999,"N_COORD97":2540761.96,"ADDRESS":"金華路一段１９４號","OBJECTID":467900},"geometry":{"x":166954.29999999981,"y":2540761.9600000028}},{"attributes":{"ID":467926,"DIS_CODE":0,"TOWNNAME":"南區","LI":"喜東里","LIN":"5鄰","STREET":"喜樹路","SECT":" ","MAREA":" ","LANE":" ","ALLEY":" ","HOUSE_NO":"５７號","E_COORD97":165926.38,"N_COORD97":2538581.3300000001,"ADDRESS":"喜樹路５７號","OBJECTID":467901},"geometry":{"x":165926.37999999989,"y":2538581.3300000019}},{"attributes":{"ID":467927,"DIS_CODE":0,"TOWNNAME":"南區","LI":"喜東里","LIN":"5鄰","STREET":"喜樹路","SECT":" ","MAREA":" ","LANE":" ","ALLEY":" ","HOUSE_NO":"５７號之１","E_COORD97":165926.48999999999,"N_COORD97":2538594.1299999999,"ADDRESS":"喜樹路５７號之１","OBJECTID":467902},"geometry":{"x":165926.49000000022,"y":2538594.1299999971}},{"attributes":{"ID":467928,"DIS_CODE":0,"TOWNNAME":"南區","LI":"喜東里","LIN":"5鄰","STREET":"喜樹路","SECT":" ","MAREA":" ","LANE":" ","ALLEY":" ","HOUSE_NO":"５７號之２","E_COORD97":165937.45000000001,"N_COORD97":2538595.6600000001,"ADDRESS":"喜樹路５７號之２","OBJECTID":467903},"geometry":{"x":165937.45000000112,"y":2538595.660000002}},{"attributes":{"ID":467929,"DIS_CODE":0,"TOWNNAME":"南區","LI":"喜東里","LIN":"5鄰","STREET":"喜樹路","SECT":" ","MAREA":" ","LANE":" ","ALLEY":" ","HOUSE_NO":"５７號之３","E_COORD97":165944.35000000001,"N_COORD97":2538584.6099999999,"ADDRESS":"喜樹路５７號之３","OBJECTID":467904},"geometry":{"x":165944.35000000056,"y":2538584.6100000031}},{"attributes":{"ID":467930,"DIS_CODE":0,"TOWNNAME":"南區","LI":"郡南里","LIN":"5鄰","STREET":"永興二街","SECT":" ","MAREA":" ","LANE":" ","ALLEY":" ","HOUSE_NO":"４０號","E_COORD97":167220.45999999999,"N_COORD97":2540679.7599999998,"ADDRESS":"永興二街４０號","OBJECTID":467905},"geometry":{"x":167220.46000000089,"y":2540679.7600000016}},{"attributes":{"ID":467931,"DIS_CODE":0,"TOWNNAME":"南區","LI":"郡南里","LIN":"5鄰","STREET":"永興二街","SECT":" ","MAREA":" ","LANE":" ","ALLEY":" ","HOUSE_NO":"４６號","E_COORD97":167201.62,"N_COORD97":2540678.9700000002,"ADDRESS":"永興二街４６號","OBJECTID":467906},"geometry":{"x":167201.62000000011,"y":2540678.9700000044}},{"attributes":{"ID":467932,"DIS_CODE":0,"TOWNNAME":"南區","LI":"郡南里","LIN":"5鄰","STREET":"永興二街","SECT":" ","MAREA":" ","LANE":" ","ALLEY":" ","HOUSE_NO":"４８號","E_COORD97":167197.51000000001,"N_COORD97":2540678.5899999999,"ADDRESS":"永興二街４８號","OBJECTID":467907},"geometry":{"x":167197.50999999885,"y":2540678.5900000017}},{"attributes":{"ID":467933,"DIS_CODE":0,"TOWNNAME":"歸仁區","LI":"新厝里","LIN":"5鄰","STREET":"中正南路","SECT":"一段","MAREA":" ","LANE":" ","ALLEY":" ","HOUSE_NO":"３７號","E_COORD97":177624.38,"N_COORD97":2540623.9300000002,"ADDRESS":"中正南路一段３７號","OBJECTID":467908},"geometry":{"x":177624.38000000082,"y":2540623.9300000034}},{"attributes":{"ID":467934,"DIS_CODE":0,"TOWNNAME":"歸仁區","LI":"看東里","LIN":"5鄰","STREET":"成功三街","SECT":" ","MAREA":" ","LANE":" ","ALLEY":" ","HOUSE_NO":"５４號","E_COORD97":178465.25,"N_COORD97":2539999.4500000002,"ADDRESS":"成功三街５４號","OBJECTID":467909},"geometry":{"x":178465.25,"y":2539999.450000003}},{"attributes":{"ID":467935,"DIS_CODE":0,"TOWNNAME":"歸仁區","LI":"看西里","LIN":"5鄰","STREET":"仁愛南街","SECT":" ","MAREA":" ","LANE":" ","ALLEY":" ","HOUSE_NO":"１５０號","E_COORD97":178243.07999999999,"N_COORD97":2540307.25,"ADDRESS":"仁愛南街１５０號","OBJECTID":467910},"geometry":{"x":178243.08000000007,"y":2540307.2500000019}},{"attributes":{"ID":467936,"DIS_CODE":0,"TOWNNAME":"歸仁區","LI":"看西里","LIN":"5鄰","STREET":"仁愛南街","SECT":" ","MAREA":" ","LANE":" ","ALLEY":" ","HOUSE_NO":"１７６號","E_COORD97":178263.48000000001,"N_COORD97":2540275.25,"ADDRESS":"仁愛南街１７６號","OBJECTID":467911},"geometry":{"x":178263.48000000138,"y":2540275.25}},{"attributes":{"ID":467937,"DIS_CODE":0,"TOWNNAME":"歸仁區","LI":"崙頂里","LIN":"5鄰","STREET":"大成路","SECT":" ","MAREA":" ","LANE":" ","ALLEY":" ","HOUSE_NO":"４２６號","E_COORD97":178098.95000000001,"N_COORD97":2540129.6800000002,"ADDRESS":"大成路４２６號","OBJECTID":467912},"geometry":{"x":178098.95000000112,"y":2540129.6799999997}},{"attributes":{"ID":467938,"DIS_CODE":0,"TOWNNAME":"歸仁區","LI":"看西里","LIN":"5鄰","STREET":"仁愛十街","SECT":" ","MAREA":" ","LANE":" ","ALLEY":" ","HOUSE_NO":"５７號","E_COORD97":178166.95000000001,"N_COORD97":2540318.4900000002,"ADDRESS":"仁愛十街５７號","OBJECTID":467913},"geometry":{"x":178166.95000000112,"y":2540318.4900000002}},{"attributes":{"ID":467939,"DIS_CODE":0,"TOWNNAME":"歸仁區","LI":"崙頂里","LIN":"5鄰","STREET":"大成路","SECT":" ","MAREA":" ","LANE":" ","ALLEY":" ","HOUSE_NO":"４０２號","E_COORD97":178057.85000000001,"N_COORD97":2540109.6800000002,"ADDRESS":"大成路４０２號","OBJECTID":467914},"geometry":{"x":178057.85000000149,"y":2540109.6799999997}},{"attributes":{"ID":467940,"DIS_CODE":0,"TOWNNAME":"歸仁區","LI":"看西里","LIN":"5鄰","STREET":"仁愛南街","SECT":" ","MAREA":" ","LANE":" ","ALLEY":" ","HOUSE_NO":"１５６號","E_COORD97":178228.78,"N_COORD97":2540307.25,"ADDRESS":"仁愛南街１５６號","OBJECTID":467915},"geometry":{"x":178228.78000000119,"y":2540307.2500000019}},{"attributes":{"ID":467941,"DIS_CODE":0,"TOWNNAME":"歸仁區","LI":"看西里","LIN":"5鄰","STREET":"信義南路","SECT":" ","MAREA":" ","LANE":" ","ALLEY":" ","HOUSE_NO":"１６１號","E_COORD97":178161,"N_COORD97":2540301.4900000002,"ADDRESS":"信義南路１６１號","OBJECTID":467916},"geometry":{"x":178161.00000000093,"y":2540301.4900000002}},{"attributes":{"ID":467942,"DIS_CODE":0,"TOWNNAME":"歸仁區","LI":"崙頂里","LIN":"5鄰","STREET":"大成路","SECT":" ","MAREA":" ","LANE":" ","ALLEY":" ","HOUSE_NO":"３８８號","E_COORD97":178037.97,"N_COORD97":2540108.6800000002,"ADDRESS":"大成路３８８號","OBJECTID":467917},"geometry":{"x":178037.96999999974,"y":2540108.6799999997}},{"attributes":{"ID":467943,"DIS_CODE":0,"TOWNNAME":"歸仁區","LI":"南興里","LIN":"5鄰","STREET":"民生北街","SECT":" ","MAREA":" ","LANE":" ","ALLEY":" ","HOUSE_NO":"１６５號","E_COORD97":176258.35999999999,"N_COORD97":2541268.25,"ADDRESS":"民生北街１６５號","OBJECTID":467918},"geometry":{"x":176258.3600000022,"y":2541268.25}},{"attributes":{"ID":467944,"DIS_CODE":0,"TOWNNAME":"歸仁區","LI":"南興里","LIN":"5鄰","STREET":"民生二街","SECT":" ","MAREA":" ","LANE":" ","ALLEY":" ","HOUSE_NO":"２３號","E_COORD97":176196.70999999999,"N_COORD97":2541304.25,"ADDRESS":"民生二街２３號","OBJECTID":467919},"geometry":{"x":176196.71000000089,"y":2541304.2500000019}},{"attributes":{"ID":467945,"DIS_CODE":0,"TOWNNAME":"歸仁區","LI":"南興里","LIN":"5鄰","STREET":"民生北街","SECT":" ","MAREA":" ","LANE":" ","ALLEY":" ","HOUSE_NO":"１７５號","E_COORD97":176257.45999999999,"N_COORD97":2541291.25,"ADDRESS":"民生北街１７５號","OBJECTID":467920},"geometry":{"x":176257.46000000089,"y":2541291.2500000019}},{"attributes":{"ID":467946,"DIS_CODE":0,"TOWNNAME":"歸仁區","LI":"南興里","LIN":"5鄰","STREET":"民生北街","SECT":" ","MAREA":" ","LANE":" ","ALLEY":" ","HOUSE_NO":"２０５號","E_COORD97":176239.64000000001,"N_COORD97":2541276.29,"ADDRESS":"民生北街２０５號","OBJECTID":467921},"geometry":{"x":176239.63999999966,"y":2541276.290000001}},{"attributes":{"ID":467947,"DIS_CODE":0,"TOWNNAME":"歸仁區","LI":"南興里","LIN":"5鄰","STREET":"民生北街","SECT":" ","MAREA":" ","LANE":" ","ALLEY":" ","HOUSE_NO":"１５１號","E_COORD97":176263.04000000001,"N_COORD97":2541242.29,"ADDRESS":"民生北街１５１號","OBJECTID":467922},"geometry":{"x":176263.04000000004,"y":2541242.290000001}},{"attributes":{"ID":467948,"DIS_CODE":0,"TOWNNAME":"歸仁區","LI":"南興里","LIN":"5鄰","STREET":"民生北街","SECT":" ","MAREA":" ","LANE":" ","ALLEY":" ","HOUSE_NO":"１６３號","E_COORD97":176267.23999999999,"N_COORD97":2541265.29,"ADDRESS":"民生北街１６３號","OBJECTID":467923},"geometry":{"x":176267.24000000022,"y":2541265.290000001}},{"attributes":{"ID":467949,"DIS_CODE":0,"TOWNNAME":"歸仁區","LI":"文化里","LIN":"5鄰","STREET":"民權一街","SECT":" ","MAREA":" ","LANE":" ","ALLEY":" ","HOUSE_NO":"５２號","E_COORD97":177329.64999999999,"N_COORD97":2541335.3300000001,"ADDRESS":"民權一街５２號","OBJECTID":467924},"geometry":{"x":177329.6500000013,"y":2541335.3300000001}},{"attributes":{"ID":467950,"DIS_CODE":0,"TOWNNAME":"歸仁區","LI":"南興里","LIN":"5鄰","STREET":"民生北街","SECT":" ","MAREA":" ","LANE":" ","ALLEY":" ","HOUSE_NO":"１６９號","E_COORD97":176265.23999999999,"N_COORD97":2541278.29,"ADDRESS":"民生北街１６９號","OBJECTID":467925},"geometry":{"x":176265.24000000022,"y":2541278.2899999972}},{"attributes":{"ID":467951,"DIS_CODE":0,"TOWNNAME":"歸仁區","LI":"南興里","LIN":"5鄰","STREET":"文化街","SECT":"三段","MAREA":" ","LANE":" ","ALLEY":" ","HOUSE_NO":"３３０號","E_COORD97":176261.04000000001,"N_COORD97":2541203.3300000001,"ADDRESS":"文化街三段３３０號","OBJECTID":467926},"geometry":{"x":176261.04000000004,"y":2541203.3300000001}},{"attributes":{"ID":467952,"DIS_CODE":0,"TOWNNAME":"歸仁區","LI":"文化里","LIN":"5鄰","STREET":"民權一街","SECT":" ","MAREA":" ","LANE":" ","ALLEY":" ","HOUSE_NO":"４６號","E_COORD97":177316.35000000001,"N_COORD97":2541336.3300000001,"ADDRESS":"民權一街４６號","OBJECTID":467927},"geometry":{"x":177316.34999999963,"y":2541336.3300000001}},{"attributes":{"ID":467953,"DIS_CODE":0,"TOWNNAME":"玉井區","LI":"中正里","LIN":"5鄰","STREET":"中正路","SECT":" ","MAREA":" ","LANE":" ","ALLEY":" ","HOUSE_NO":"４８９號","E_COORD97":195515.14999999999,"N_COORD97":2558670.25,"ADDRESS":"中正路４８９號","OBJECTID":467928},"geometry":{"x":195515.15000000037,"y":2558670.2500000019}},{"attributes":{"ID":467954,"DIS_CODE":0,"TOWNNAME":"玉井區","LI":"中正里","LIN":"5鄰","STREET":"福德街","SECT":" ","MAREA":" ","LANE":" ","ALLEY":" ","HOUSE_NO":"２５號","E_COORD97":195496.03,"N_COORD97":2558716.2599999998,"ADDRESS":"福德街２５號","OBJECTID":467929},"geometry":{"x":195496.03000000119,"y":2558716.2600000035}},{"attributes":{"ID":467955,"DIS_CODE":0,"TOWNNAME":"玉井區","LI":"中正里","LIN":"5鄰","STREET":"中正路","SECT":" ","MAREA":" ","LANE":" ","ALLEY":" ","HOUSE_NO":"４９５號","E_COORD97":195557.04999999999,"N_COORD97":2558711.2400000002,"ADDRESS":"中正路４９５號","OBJECTID":467930},"geometry":{"x":195557.04999999981,"y":2558711.2400000021}},{"attributes":{"ID":467956,"DIS_CODE":0,"TOWNNAME":"玉井區","LI":"中正里","LIN":"5鄰","STREET":"中正路","SECT":" ","MAREA":" ","LANE":" ","ALLEY":" ","HOUSE_NO":"４９１號","E_COORD97":195517.85999999999,"N_COORD97":2558672.25,"ADDRESS":"中正路４９１號","OBJECTID":467931},"geometry":{"x":195517.86000000127,"y":2558672.2500000037}},{"attributes":{"ID":467957,"DIS_CODE":0,"TOWNNAME":"玉井區","LI":"中正里","LIN":"5鄰","STREET":"中正路","SECT":" ","MAREA":" ","LANE":" ","ALLEY":" ","HOUSE_NO":"４８５號","E_COORD97":195509.56,"N_COORD97":2558664.25,"ADDRESS":"中正路４８５號","OBJECTID":467932},"geometry":{"x":195509.55999999959,"y":2558664.25}},{"attributes":{"ID":467958,"DIS_CODE":0,"TOWNNAME":"玉井區","LI":"中正里","LIN":"5鄰","STREET":"福德街","SECT":" ","MAREA":" ","LANE":" ","ALLEY":" ","HOUSE_NO":"４９號","E_COORD97":195456.42999999999,"N_COORD97":2558709.2599999998,"ADDRESS":"福德街４９號","OBJECTID":467933},"geometry":{"x":195456.4299999997,"y":2558709.2600000035}},{"attributes":{"ID":467959,"DIS_CODE":0,"TOWNNAME":"玉井區","LI":"中正里","LIN":"5鄰","STREET":"中正路","SECT":" ","MAREA":" ","LANE":" ","ALLEY":" ","HOUSE_NO":"４８７號","E_COORD97":195512.35000000001,"N_COORD97":2558667.2400000002,"ADDRESS":"中正路４８７號","OBJECTID":467934},"geometry":{"x":195512.35000000056,"y":2558667.2400000021}},{"attributes":{"ID":467960,"DIS_CODE":0,"TOWNNAME":"玉井區","LI":"中正里","LIN":"5鄰","STREET":"中正路","SECT":" ","MAREA":" ","LANE":" ","ALLEY":" ","HOUSE_NO":"４８３號","E_COORD97":195506.95999999999,"N_COORD97":2558662.25,"ADDRESS":"中正路４８３號","OBJECTID":467935},"geometry":{"x":195506.95999999996,"y":2558662.2500000037}},{"attributes":{"ID":467961,"DIS_CODE":0,"TOWNNAME":"玉井區","LI":"玉田里","LIN":"5鄰","STREET":"民族路","SECT":" ","MAREA":" ","LANE":" ","ALLEY":" ","HOUSE_NO":"９號","E_COORD97":194960.98999999999,"N_COORD97":2558110.29,"ADDRESS":"民族路９號","OBJECTID":467936},"geometry":{"x":194960.99000000115,"y":2558110.2899999991}},{"attributes":{"ID":467962,"DIS_CODE":0,"TOWNNAME":"玉井區","LI":"玉田里","LIN":"5鄰","STREET":"民族路","SECT":" ","MAREA":" ","LANE":" ","ALLEY":" ","HOUSE_NO":"３號","E_COORD97":194948.88,"N_COORD97":2558112.29,"ADDRESS":"民族路３號","OBJECTID":467937},"geometry":{"x":194948.88000000175,"y":2558112.290000001}},{"attributes":{"ID":467963,"DIS_CODE":0,"TOWNNAME":"玉井區","LI":"玉田里","LIN":"5鄰","STREET":"民族路","SECT":" ","MAREA":" ","LANE":" ","ALLEY":" ","HOUSE_NO":"１１號","E_COORD97":194965.32999999999,"N_COORD97":2558109.29,"ADDRESS":"民族路１１號","OBJECTID":467938},"geometry":{"x":194965.33000000101,"y":2558109.290000001}},{"attributes":{"ID":467964,"DIS_CODE":0,"TOWNNAME":"玉井區","LI":"玉田里","LIN":"5鄰","STREET":"民族路","SECT":" ","MAREA":" ","LANE":" ","ALLEY":" ","HOUSE_NO":"１７號","E_COORD97":194977.92999999999,"N_COORD97":2558107.2799999998,"ADDRESS":"民族路１７號","OBJECTID":467939},"geometry":{"x":194977.93000000063,"y":2558107.2799999993}},{"attributes":{"ID":467965,"DIS_CODE":0,"TOWNNAME":"玉井區","LI":"玉田里","LIN":"5鄰","STREET":"民族路","SECT":" ","MAREA":" ","LANE":" ","ALLEY":" ","HOUSE_NO":"１５號","E_COORD97":194973.63,"N_COORD97":2558107.2799999998,"ADDRESS":"民族路１５號","OBJECTID":467940},"geometry":{"x":194973.62999999989,"y":2558107.2799999993}},{"attributes":{"ID":467966,"DIS_CODE":0,"TOWNNAME":"南區","LI":"文南里","LIN":"5鄰","STREET":"長南街","SECT":" ","MAREA":" ","LANE":" ","ALLEY":" ","HOUSE_NO":"２４號","E_COORD97":167009.19,"N_COORD97":2542625.98,"ADDRESS":"長南街２４號","OBJECTID":467941},"geometry":{"x":167009.19000000134,"y":2542625.9800000023}},{"attributes":{"ID":467967,"DIS_CODE":0,"TOWNNAME":"玉井區","LI":"中正里","LIN":"5鄰","STREET":"大成路","SECT":" ","MAREA":" ","LANE":" ","ALLEY":" ","HOUSE_NO":"４９０號","E_COORD97":195434.45999999999,"N_COORD97":2558726.2599999998,"ADDRESS":"大成路４９０號","OBJECTID":467942},"geometry":{"x":195434.45999999996,"y":2558726.2600000035}},{"attributes":{"ID":467968,"DIS_CODE":0,"TOWNNAME":"玉井區","LI":"中正里","LIN":"5鄰","STREET":"大成路","SECT":" ","MAREA":" ","LANE":" ","ALLEY":" ","HOUSE_NO":"４７０號","E_COORD97":195468.26000000001,"N_COORD97":2558671.27,"ADDRESS":"大成路４７０號","OBJECTID":467943},"geometry":{"x":195468.26000000164,"y":2558671.2699999996}},{"attributes":{"ID":467969,"DIS_CODE":0,"TOWNNAME":"玉井區","LI":"中正里","LIN":"5鄰","STREET":"大成路","SECT":" ","MAREA":" ","LANE":" ","ALLEY":" ","HOUSE_NO":"４５２號","E_COORD97":195480.16,"N_COORD97":2558661.27,"ADDRESS":"大成路４５２號","OBJECTID":467944},"geometry":{"x":195480.16000000108,"y":2558661.2699999996}},{"attributes":{"ID":467970,"DIS_CODE":0,"TOWNNAME":"玉井區","LI":"中正里","LIN":"5鄰","STREET":"店仔街","SECT":" ","MAREA":" ","LANE":" ","ALLEY":" ","HOUSE_NO":"１５號","E_COORD97":195525.32000000001,"N_COORD97":2558698.2400000002,"ADDRESS":"店仔街１５號","OBJECTID":467945},"geometry":{"x":195525.3200000003,"y":2558698.2400000002}},{"attributes":{"ID":467971,"DIS_CODE":0,"TOWNNAME":"玉井區","LI":"中正里","LIN":"5鄰","STREET":"中正路","SECT":" ","MAREA":" ","LANE":" ","ALLEY":" ","HOUSE_NO":"４７７號","E_COORD97":195494.54999999999,"N_COORD97":2558652.25,"ADDRESS":"中正路４７７號","OBJECTID":467946},"geometry":{"x":195494.54999999981,"y":2558652.2500000037}},{"attributes":{"ID":467972,"DIS_CODE":0,"TOWNNAME":"歸仁區","LI":"媽廟里","LIN":"5鄰","STREET":"和順路","SECT":"一段","MAREA":" ","LANE":" ","ALLEY":" ","HOUSE_NO":"１８號","E_COORD97":177504.37,"N_COORD97":2543728.7200000002,"ADDRESS":"和順路一段１８號","OBJECTID":467947},"geometry":{"x":177504.37000000104,"y":2543728.7200000044}},{"attributes":{"ID":467973,"DIS_CODE":0,"TOWNNAME":"歸仁區","LI":"辜厝里","LIN":"5鄰","STREET":"民族南街","SECT":" ","MAREA":" ","LANE":" ","ALLEY":" ","HOUSE_NO":"６２號","E_COORD97":177394.59,"N_COORD97":2540636.5499999998,"ADDRESS":"民族南街６２號","OBJECTID":467948},"geometry":{"x":177394.58999999985,"y":2540636.5500000007}},{"attributes":{"ID":467974,"DIS_CODE":0,"TOWNNAME":"南區","LI":"文南里","LIN":"5鄰","STREET":"長南街","SECT":" ","MAREA":" ","LANE":" ","ALLEY":" ","HOUSE_NO":"２６號","E_COORD97":167005.01000000001,"N_COORD97":2542626.3599999999,"ADDRESS":"長南街２６號","OBJECTID":467949},"geometry":{"x":167005.01000000071,"y":2542626.3599999994}},{"attributes":{"ID":467975,"DIS_CODE":0,"TOWNNAME":"南區","LI":"文南里","LIN":"5鄰","STREET":"長南街","SECT":" ","MAREA":" ","LANE":" ","ALLEY":" ","HOUSE_NO":"２８號","E_COORD97":166999.67999999999,"N_COORD97":2542626.3599999999,"ADDRESS":"長南街２８號","OBJECTID":467950},"geometry":{"x":166999.68000000156,"y":2542626.3599999994}},{"attributes":{"ID":467976,"DIS_CODE":0,"TOWNNAME":"南區","LI":"文南里","LIN":"5鄰","STREET":"長南街","SECT":" ","MAREA":" ","LANE":" ","ALLEY":" ","HOUSE_NO":"３０號","E_COORD97":166995.12,"N_COORD97":2542627.1200000001,"ADDRESS":"長南街３０號","OBJECTID":467951},"geometry":{"x":166995.12000000011,"y":2542627.120000001}},{"attributes":{"ID":467977,"DIS_CODE":0,"TOWNNAME":"南區","LI":"文南里","LIN":"5鄰","STREET":"長南街","SECT":" ","MAREA":" ","LANE":" ","ALLEY":" ","HOUSE_NO":"３２號","E_COORD97":166990.73999999999,"N_COORD97":2542628.2599999998,"ADDRESS":"長南街３２號","OBJECTID":467952},"geometry":{"x":166990.74000000022,"y":2542628.2599999998}},{"attributes":{"ID":467978,"DIS_CODE":0,"TOWNNAME":"南區","LI":"文南里","LIN":"5鄰","STREET":"長南街","SECT":" ","MAREA":" ","LANE":" ","ALLEY":" ","HOUSE_NO":"３４號","E_COORD97":166985.98999999999,"N_COORD97":2542628.4500000002,"ADDRESS":"長南街３４號","OBJECTID":467953},"geometry":{"x":166985.99000000022,"y":2542628.4500000011}},{"attributes":{"ID":467979,"DIS_CODE":0,"TOWNNAME":"麻豆區","LI":"\u25A0江里","LIN":"5鄰","STREET":"民族路","SECT":" ","MAREA":" ","LANE":" ","ALLEY":" ","HOUSE_NO":"１７號之３","E_COORD97":173193.26000000001,"N_COORD97":2564603.6800000002,"ADDRESS":"民族路１７號之３","OBJECTID":467954},"geometry":{"x":173193.25999999978,"y":2564603.6800000016}},{"attributes":{"ID":467980,"DIS_CODE":0,"TOWNNAME":"麻豆區","LI":"\u25A0江里","LIN":"5鄰","STREET":"民族路","SECT":" ","MAREA":" ","LANE":" ","ALLEY":" ","HOUSE_NO":"１７號之４","E_COORD97":173192.67999999999,"N_COORD97":2564598.8100000001,"ADDRESS":"民族路１７號之４","OBJECTID":467955},"geometry":{"x":173192.68000000063,"y":2564598.8100000042}},{"attributes":{"ID":467981,"DIS_CODE":0,"TOWNNAME":"麻豆區","LI":"\u25A0江里","LIN":"5鄰","STREET":"民族路","SECT":" ","MAREA":" ","LANE":" ","ALLEY":" ","HOUSE_NO":"１７號之５","E_COORD97":173192.16,"N_COORD97":2564594.0600000001,"ADDRESS":"民族路１７號之５","OBJECTID":467956},"geometry":{"x":173192.16000000015,"y":2564594.0600000042}},{"attributes":{"ID":467982,"DIS_CODE":0,"TOWNNAME":"麻豆區","LI":"\u25A0江里","LIN":"5鄰","STREET":"民族路","SECT":" ","MAREA":" ","LANE":" ","ALLEY":" ","HOUSE_NO":"１７號之６","E_COORD97":173191.76000000001,"N_COORD97":2564588.7999999998,"ADDRESS":"民族路１７號之６","OBJECTID":467957},"geometry":{"x":173191.76000000164,"y":2564588.7999999989}},{"attributes":{"ID":467983,"DIS_CODE":0,"TOWNNAME":"麻豆區","LI":"\u25A0江里","LIN":"5鄰","STREET":"民族路","SECT":" ","MAREA":" ","LANE":" ","ALLEY":" ","HOUSE_NO":"１７號之７","E_COORD97":173191.41,"N_COORD97":2564584.7400000002,"ADDRESS":"民族路１７號之７","OBJECTID":467958},"geometry":{"x":173191.41000000108,"y":2564584.7400000002}},{"attributes":{"ID":467984,"DIS_CODE":0,"TOWNNAME":"麻豆區","LI":"\u25A0江里","LIN":"5鄰","STREET":"民族路","SECT":" ","MAREA":" ","LANE":" ","ALLEY":" ","HOUSE_NO":"１７號之８","E_COORD97":173190.95000000001,"N_COORD97":2564580.2400000002,"ADDRESS":"民族路１７號之８","OBJECTID":467959},"geometry":{"x":173190.95000000205,"y":2564580.2400000021}},{"attributes":{"ID":467985,"DIS_CODE":0,"TOWNNAME":"麻豆區","LI":"\u25A0江里","LIN":"5鄰","STREET":"民族路","SECT":" ","MAREA":" ","LANE":" ","ALLEY":" ","HOUSE_NO":"１７號之９","E_COORD97":173190.32999999999,"N_COORD97":2564574.0299999998,"ADDRESS":"民族路１７號之９","OBJECTID":467960},"geometry":{"x":173190.33000000101,"y":2564574.0300000012}},{"attributes":{"ID":467986,"DIS_CODE":0,"TOWNNAME":"麻豆區","LI":"\u25A0江里","LIN":"5鄰","STREET":"民族路","SECT":" ","MAREA":" ","LANE":" ","ALLEY":" ","HOUSE_NO":"１７號","E_COORD97":173197.97,"N_COORD97":2564613.2799999998,"ADDRESS":"民族路１７號","OBJECTID":467961},"geometry":{"x":173197.96999999974,"y":2564613.2799999993}},{"attributes":{"ID":467987,"DIS_CODE":0,"TOWNNAME":"麻豆區","LI":"巷口里","LIN":"5鄰","STREET":"民族路","SECT":" ","MAREA":" ","LANE":" ","ALLEY":" ","HOUSE_NO":"２０號","E_COORD97":173145.79000000001,"N_COORD97":2564370.46,"ADDRESS":"民族路２０號","OBJECTID":467962},"geometry":{"x":173145.79000000004,"y":2564370.4600000009}},{"attributes":{"ID":467988,"DIS_CODE":0,"TOWNNAME":"麻豆區","LI":"巷口里","LIN":"5鄰","STREET":"民族路","SECT":" ","MAREA":" ","LANE":" ","ALLEY":" ","HOUSE_NO":"２４號之１","E_COORD97":173152.72,"N_COORD97":2564347.5699999998,"ADDRESS":"民族路２４號之１","OBJECTID":467963},"geometry":{"x":173152.71999999974,"y":2564347.5700000022}},{"attributes":{"ID":467989,"DIS_CODE":0,"TOWNNAME":"麻豆區","LI":"巷口里","LIN":"5鄰","STREET":"民族路","SECT":" ","MAREA":" ","LANE":" ","ALLEY":" ","HOUSE_NO":"２４號之２","E_COORD97":173152.48999999999,"N_COORD97":2564352.8900000001,"ADDRESS":"民族路２４號之２","OBJECTID":467964},"geometry":{"x":173152.49000000115,"y":2564352.8900000006}},{"attributes":{"ID":467990,"DIS_CODE":0,"TOWNNAME":"麻豆區","LI":"巷口里","LIN":"5鄰","STREET":"民族路","SECT":" ","MAREA":" ","LANE":" ","ALLEY":" ","HOUSE_NO":"２４號之３","E_COORD97":173152.07000000001,"N_COORD97":2564358.0699999998,"ADDRESS":"民族路２４號之３","OBJECTID":467965},"geometry":{"x":173152.07000000123,"y":2564358.0700000003}},{"attributes":{"ID":467991,"DIS_CODE":0,"TOWNNAME":"麻豆區","LI":"巷口里","LIN":"5鄰","STREET":"民族路","SECT":" ","MAREA":" ","LANE":" ","ALLEY":" ","HOUSE_NO":"２４號之７","E_COORD97":173151.32999999999,"N_COORD97":2564331.8300000001,"ADDRESS":"民族路２４號之７","OBJECTID":467966},"geometry":{"x":173151.33000000101,"y":2564331.8300000019}},{"attributes":{"ID":467992,"DIS_CODE":0,"TOWNNAME":"麻豆區","LI":"巷口里","LIN":"5鄰","STREET":"民族路","SECT":" ","MAREA":" ","LANE":" ","ALLEY":" ","HOUSE_NO":"２４號之８","E_COORD97":173152.12,"N_COORD97":2564326.7599999998,"ADDRESS":"民族路２４號之８","OBJECTID":467967},"geometry":{"x":173152.12000000011,"y":2564326.7599999998}},{"attributes":{"ID":467993,"DIS_CODE":0,"TOWNNAME":"麻豆區","LI":"巷口里","LIN":"5鄰","STREET":"民族路","SECT":" ","MAREA":" ","LANE":" ","ALLEY":" ","HOUSE_NO":"２４號","E_COORD97":173151.23999999999,"N_COORD97":2564338.9399999999,"ADDRESS":"民族路２４號","OBJECTID":467968},"geometry":{"x":173151.24000000022,"y":2564338.9399999995}},{"attributes":{"ID":467994,"DIS_CODE":0,"TOWNNAME":"麻豆區","LI":"巷口里","LIN":"5鄰","STREET":"民族路","SECT":" ","MAREA":" ","LANE":" ","ALLEY":" ","HOUSE_NO":"２６號之１","E_COORD97":173152.53,"N_COORD97":2564321.2999999998,"ADDRESS":"民族路２６號之１","OBJECTID":467969},"geometry":{"x":173152.53000000026,"y":2564321.3000000045}},{"attributes":{"ID":467995,"DIS_CODE":0,"TOWNNAME":"麻豆區","LI":"巷口里","LIN":"5鄰","STREET":"民族路","SECT":" ","MAREA":" ","LANE":" ","ALLEY":" ","HOUSE_NO":"２６號之７","E_COORD97":173160.41,"N_COORD97":2564295.7200000002,"ADDRESS":"民族路２６號之７","OBJECTID":467970},"geometry":{"x":173160.41000000015,"y":2564295.7200000025}},{"attributes":{"ID":467996,"DIS_CODE":0,"TOWNNAME":"麻豆區","LI":"巷口里","LIN":"5鄰","STREET":"民族路","SECT":" ","MAREA":" ","LANE":" ","ALLEY":" ","HOUSE_NO":"２６號之８","E_COORD97":173160.17000000001,"N_COORD97":2564290.73,"ADDRESS":"民族路２６號之８","OBJECTID":467971},"geometry":{"x":173160.16999999993,"y":2564290.7300000042}},{"attributes":{"ID":467997,"DIS_CODE":0,"TOWNNAME":"麻豆區","LI":"巷口里","LIN":"5鄰","STREET":"民族路","SECT":" ","MAREA":" ","LANE":" ","ALLEY":" ","HOUSE_NO":"２６號之９","E_COORD97":173160.29999999999,"N_COORD97":2564286.6299999999,"ADDRESS":"民族路２６號之９","OBJECTID":467972},"geometry":{"x":173160.29999999981,"y":2564286.6300000027}},{"attributes":{"ID":467998,"DIS_CODE":0,"TOWNNAME":"麻豆區","LI":"巷口里","LIN":"5鄰","STREET":"民族路","SECT":" ","MAREA":" ","LANE":" ","ALLEY":" ","HOUSE_NO":"２６號","E_COORD97":173155.41,"N_COORD97":2564309.8500000001,"ADDRESS":"民族路２６號","OBJECTID":467973},"geometry":{"x":173155.41000000015,"y":2564309.8500000015}},{"attributes":{"ID":467999,"DIS_CODE":0,"TOWNNAME":"麻豆區","LI":"\u25A0江里","LIN":"5鄰","STREET":"民權路","SECT":" ","MAREA":" ","LANE":" ","ALLEY":" ","HOUSE_NO":"１６號","E_COORD97":173352.89999999999,"N_COORD97":2564606,"ADDRESS":"民權路１６號","OBJECTID":467974},"geometry":{"x":173352.9000000013,"y":2564606}},{"attributes":{"ID":468000,"DIS_CODE":0,"TOWNNAME":"北區","LI":"公園里","LIN":"5鄰","STREET":"北門路","SECT":"二段","MAREA":" ","LANE":" ","ALLEY":" ","HOUSE_NO":"１２２號","E_COORD97":169375.53,"N_COORD97":2544825.3900000001,"ADDRESS":"北門路二段１２２號","OBJECTID":467975},"geometry":{"x":169375.53000000026,"y":2544825.3900000006}},{"attributes":{"ID":468001,"DIS_CODE":0,"TOWNNAME":"北區","LI":"公園里","LIN":"5鄰","STREET":"北門路","SECT":"二段","MAREA":" ","LANE":" ","ALLEY":" ","HOUSE_NO":"１２４號","E_COORD97":169377.70000000001,"N_COORD97":2544831.1800000002,"ADDRESS":"北門路二段１２４號","OBJECTID":467976},"geometry":{"x":169377.70000000019,"y":2544831.1800000016}},{"attributes":{"ID":468002,"DIS_CODE":0,"TOWNNAME":"北區","LI":"公園里","LIN":"5鄰","STREET":"北門路","SECT":"二段","MAREA":" ","LANE":" ","ALLEY":" ","HOUSE_NO":"１２６號","E_COORD97":169378.42999999999,"N_COORD97":2544837.8700000001,"ADDRESS":"北門路二段１２６號","OBJECTID":467977},"geometry":{"x":169378.43000000063,"y":2544837.8700000029}},{"attributes":{"ID":468003,"DIS_CODE":0,"TOWNNAME":"北區","LI":"公園里","LIN":"5鄰","STREET":"北門路","SECT":"二段","MAREA":" ","LANE":" ","ALLEY":" ","HOUSE_NO":"１２８號","E_COORD97":169379.70000000001,"N_COORD97":2544845.8399999999,"ADDRESS":"北門路二段１２８號","OBJECTID":467978},"geometry":{"x":169379.70000000019,"y":2544845.8400000036}},{"attributes":{"ID":468004,"DIS_CODE":0,"TOWNNAME":"北區","LI":"公園里","LIN":"5鄰","STREET":"北門路","SECT":"二段","MAREA":" ","LANE":" ","ALLEY":" ","HOUSE_NO":"１３０號","E_COORD97":169376.42999999999,"N_COORD97":2544855.6099999999,"ADDRESS":"北門路二段１３０號","OBJECTID":467979},"geometry":{"x":169376.43000000156,"y":2544855.6099999994}},{"attributes":{"ID":468005,"DIS_CODE":0,"TOWNNAME":"北區","LI":"公園里","LIN":"5鄰","STREET":"北門路","SECT":"二段","MAREA":" ","LANE":" ","ALLEY":" ","HOUSE_NO":"１３２號","E_COORD97":169377.16,"N_COORD97":2544859.77,"ADDRESS":"北門路二段１３２號","OBJECTID":467980},"geometry":{"x":169377.16000000108,"y":2544859.7700000014}},{"attributes":{"ID":468006,"DIS_CODE":0,"TOWNNAME":"北區","LI":"公園里","LIN":"5鄰","STREET":"北門路","SECT":"二段","MAREA":" ","LANE":" ","ALLEY":" ","HOUSE_NO":"１４４號","E_COORD97":169384.39999999999,"N_COORD97":2544866.7400000002,"ADDRESS":"北門路二段１４４號","OBJECTID":467981},"geometry":{"x":169384.4000000013,"y":2544866.7400000002}},{"attributes":{"ID":468007,"DIS_CODE":0,"TOWNNAME":"北區","LI":"公園里","LIN":"5鄰","STREET":"北門路","SECT":"二段","MAREA":" ","LANE":" ","ALLEY":" ","HOUSE_NO":"１４６號","E_COORD97":169390.38,"N_COORD97":2544890.8100000001,"ADDRESS":"北門路二段１４６號","OBJECTID":467982},"geometry":{"x":169390.37999999896,"y":2544890.8100000042}},{"attributes":{"ID":468008,"DIS_CODE":0,"TOWNNAME":"北區","LI":"公園里","LIN":"5鄰","STREET":"北門路","SECT":"二段","MAREA":" ","LANE":" ","ALLEY":" ","HOUSE_NO":"１４８號","E_COORD97":169388.01999999999,"N_COORD97":2544900.1400000001,"ADDRESS":"北門路二段１４８號","OBJECTID":467983},"geometry":{"x":169388.02000000048,"y":2544900.1400000025}},{"attributes":{"ID":468009,"DIS_CODE":0,"TOWNNAME":"北區","LI":"公園里","LIN":"5鄰","STREET":"北門路","SECT":"二段","MAREA":" ","LANE":" ","ALLEY":" ","HOUSE_NO":"１５０號","E_COORD97":169390.56,"N_COORD97":2544903.5800000001,"ADDRESS":"北門路二段１５０號","OBJECTID":467984},"geometry":{"x":169390.56000000145,"y":2544903.5800000019}},{"attributes":{"ID":468010,"DIS_CODE":0,"TOWNNAME":"北區","LI":"公園里","LIN":"5鄰","STREET":"北門路","SECT":"二段","MAREA":" ","LANE":" ","ALLEY":" ","HOUSE_NO":"１５０號之１","E_COORD97":169396.91,"N_COORD97":2544907.02,"ADDRESS":"北門路二段１５０號之１","OBJECTID":467985},"geometry":{"x":169396.91000000015,"y":2544907.0199999996}},{"attributes":{"ID":468011,"DIS_CODE":0,"TOWNNAME":"北區","LI":"公園里","LIN":"5鄰","STREET":"北門路","SECT":"二段","MAREA":" ","LANE":" ","ALLEY":" ","HOUSE_NO":"１５２號","E_COORD97":169401.98000000001,"N_COORD97":2544910.8199999998,"ADDRESS":"北門路二段１５２號","OBJECTID":467986},"geometry":{"x":169401.98000000045,"y":2544910.820000004}},{"attributes":{"ID":468012,"DIS_CODE":0,"TOWNNAME":"北區","LI":"公園里","LIN":"5鄰","STREET":"北門路","SECT":"二段","MAREA":" ","LANE":" ","ALLEY":" ","HOUSE_NO":"１５４號","E_COORD97":169405.42000000001,"N_COORD97":2544913.7200000002,"ADDRESS":"北門路二段１５４號","OBJECTID":467987},"geometry":{"x":169405.42000000179,"y":2544913.7200000007}},{"attributes":{"ID":468013,"DIS_CODE":0,"TOWNNAME":"北區","LI":"公園里","LIN":"5鄰","STREET":"北門路","SECT":"二段","MAREA":" ","LANE":" ","ALLEY":" ","HOUSE_NO":"１００號","E_COORD97":169364.97,"N_COORD97":2544749.8100000001,"ADDRESS":"北門路二段１００號","OBJECTID":467988},"geometry":{"x":169364.97000000067,"y":2544749.8100000024}},{"attributes":{"ID":468014,"DIS_CODE":0,"TOWNNAME":"北區","LI":"公園里","LIN":"5鄰","STREET":"北門路","SECT":"二段","MAREA":" ","LANE":" ","ALLEY":" ","HOUSE_NO":"１０２號","E_COORD97":169360.98000000001,"N_COORD97":2544750.5299999998,"ADDRESS":"北門路二段１０２號","OBJECTID":467989},"geometry":{"x":169360.98000000045,"y":2544750.5300000012}},{"attributes":{"ID":468015,"DIS_CODE":0,"TOWNNAME":"北區","LI":"公園里","LIN":"5鄰","STREET":"北門路","SECT":"二段","MAREA":" ","LANE":" ","ALLEY":" ","HOUSE_NO":"６２號","E_COORD97":169385.81,"N_COORD97":2544711.25,"ADDRESS":"北門路二段６２號","OBJECTID":467990},"geometry":{"x":169385.81000000052,"y":2544711.2500000019}},{"attributes":{"ID":468016,"DIS_CODE":0,"TOWNNAME":"北區","LI":"公園里","LIN":"5鄰","STREET":"北門路","SECT":"二段","MAREA":" ","LANE":" ","ALLEY":" ","HOUSE_NO":"６４號","E_COORD97":169379.47,"N_COORD97":2544712.1600000001,"ADDRESS":"北門路二段６４號","OBJECTID":467991},"geometry":{"x":169379.4700000016,"y":2544712.160000002}},{"attributes":{"ID":468017,"DIS_CODE":0,"TOWNNAME":"北區","LI":"公園里","LIN":"5鄰","STREET":"北門路","SECT":"二段","MAREA":" ","LANE":" ","ALLEY":" ","HOUSE_NO":"６６號","E_COORD97":169373.85000000001,"N_COORD97":2544712.8799999999,"ADDRESS":"北門路二段６６號","OBJECTID":467992},"geometry":{"x":169373.85000000056,"y":2544712.8800000008}},{"attributes":{"ID":468018,"DIS_CODE":0,"TOWNNAME":"北區","LI":"公園里","LIN":"5鄰","STREET":"北門路","SECT":"二段","MAREA":" ","LANE":" ","ALLEY":" ","HOUSE_NO":"６８號","E_COORD97":169368.78,"N_COORD97":2544713.9700000002,"ADDRESS":"北門路二段６８號","OBJECTID":467993},"geometry":{"x":169368.78000000026,"y":2544713.9700000025}},{"attributes":{"ID":468019,"DIS_CODE":0,"TOWNNAME":"北區","LI":"公園里","LIN":"5鄰","STREET":"北門路","SECT":"二段","MAREA":" ","LANE":" ","ALLEY":" ","HOUSE_NO":"７０號","E_COORD97":169363.51999999999,"N_COORD97":2544714.8700000001,"ADDRESS":"北門路二段７０號","OBJECTID":467994},"geometry":{"x":169363.51999999955,"y":2544714.8700000029}},{"attributes":{"ID":468020,"DIS_CODE":0,"TOWNNAME":"北區","LI":"公園里","LIN":"5鄰","STREET":"北門路","SECT":"二段","MAREA":" ","LANE":" ","ALLEY":" ","HOUSE_NO":"７２號","E_COORD97":169359.35000000001,"N_COORD97":2544715.7799999998,"ADDRESS":"北門路二段７２號","OBJECTID":467995},"geometry":{"x":169359.34999999963,"y":2544715.7799999993}},{"attributes":{"ID":468021,"DIS_CODE":0,"TOWNNAME":"北區","LI":"公園里","LIN":"5鄰","STREET":"北門路","SECT":"二段","MAREA":" ","LANE":" ","ALLEY":" ","HOUSE_NO":"７４號","E_COORD97":169353.01000000001,"N_COORD97":2544716.6800000002,"ADDRESS":"北門路二段７４號","OBJECTID":467996},"geometry":{"x":169353.01000000071,"y":2544716.6799999997}},{"attributes":{"ID":468022,"DIS_CODE":0,"TOWNNAME":"北區","LI":"公園里","LIN":"5鄰","STREET":"北門路","SECT":"二段","MAREA":" ","LANE":" ","ALLEY":" ","HOUSE_NO":"７６號","E_COORD97":169395.04999999999,"N_COORD97":2544725.1899999999,"ADDRESS":"北門路二段７６號","OBJECTID":467997},"geometry":{"x":169395.05000000075,"y":2544725.1900000013}},{"attributes":{"ID":468023,"DIS_CODE":0,"TOWNNAME":"北區","LI":"公園里","LIN":"5鄰","STREET":"北門路","SECT":"二段","MAREA":" ","LANE":" ","ALLEY":" ","HOUSE_NO":"７８號","E_COORD97":169385.63,"N_COORD97":2544726.8199999998,"ADDRESS":"北門路二段７８號","OBJECTID":467998},"geometry":{"x":169385.63000000082,"y":2544726.8200000003}},{"attributes":{"ID":468024,"DIS_CODE":0,"TOWNNAME":"北區","LI":"公園里","LIN":"5鄰","STREET":"北門路","SECT":"二段","MAREA":" ","LANE":" ","ALLEY":" ","HOUSE_NO":"８０號","E_COORD97":169378.01999999999,"N_COORD97":2544729.3500000001,"ADDRESS":"北門路二段８０號","OBJECTID":467999},"geometry":{"x":169378.02000000048,"y":2544729.3499999996}},{"attributes":{"ID":468025,"DIS_CODE":0,"TOWNNAME":"北區","LI":"公園里","LIN":"5鄰","STREET":"北門路","SECT":"二段","MAREA":" ","LANE":" ","ALLEY":" ","HOUSE_NO":"８２號","E_COORD97":169372.76000000001,"N_COORD97":2544731.1600000001,"ADDRESS":"北門路二段８２號","OBJECTID":468000},"geometry":{"x":169372.76000000071,"y":2544731.1600000001}}]}