{"displayFieldName":"TOWNNAME","fieldAliases":{"ID":"ID","DIS_CODE":"DIS_CODE","TOWNNAME":"TOWNNAME","LI":"LI","LIN":"LIN","STREET":"STREET","SECT":"SECT","MAREA":"MAREA","LANE":"LANE","ALLEY":"ALLEY","HOUSE_NO":"HOUSE_NO","E_COORD97":"E_COORD97","N_COORD97":"N_COORD97","ADDRESS":"ADDRESS","OBJECTID":"OBJECTID"},"geometryType":"esriGeometryPoint","spatialReference":{"wkid":102443,"latestWkid":3826},"fields":[{"name":"ID","type":"esriFieldTypeDouble","alias":"ID"},{"name":"DIS_CODE","type":"esriFieldTypeInteger","alias":"DIS_CODE"},{"name":"TOWNNAME","type":"esriFieldTypeString","alias":"TOWNNAME","length":8},{"name":"LI","type":"esriFieldTypeString","alias":"LI","length":8},{"name":"LIN","type":"esriFieldTypeString","alias":"LIN","length":12},{"name":"STREET","type":"esriFieldTypeString","alias":"STREET","length":20},{"name":"SECT","type":"esriFieldTypeString","alias":"SECT","length":8},{"name":"MAREA","type":"esriFieldTypeString","alias":"MAREA","length":12},{"name":"LANE","type":"esriFieldTypeString","alias":"LANE","length":10},{"name":"ALLEY","type":"esriFieldTypeString","alias":"ALLEY","length":10},{"name":"HOUSE_NO","type":"esriFieldTypeString","alias":"HOUSE_NO","length":20},{"name":"E_COORD97","type":"esriFieldTypeDouble","alias":"E_COORD97"},{"name":"N_COORD97","type":"esriFieldTypeDouble","alias":"N_COORD97"},{"name":"ADDRESS","type":"esriFieldTypeString","alias":"ADDRESS","length":50},{"name":"OBJECTID","type":"esriFieldTypeOID","alias":"OBJECTID"}],"features":[{"attributes":{"ID":535828,"DIS_CODE":0,"TOWNNAME":"安平區","LI":"育平里","LIN":"19鄰","STREET":"郡平路","SECT":" ","MAREA":" ","LANE":" ","ALLEY":" ","HOUSE_NO":"１８８號五樓之３６","E_COORD97":164673.29000000001,"N_COORD97":2543361.6800000002,"ADDRESS":"郡平路１８８號五樓之３６","OBJECTID":535801},"geometry":{"x":164673.29000000004,"y":2543361.6800000034}},{"attributes":{"ID":535829,"DIS_CODE":0,"TOWNNAME":"安平區","LI":"育平里","LIN":"19鄰","STREET":"郡平路","SECT":" ","MAREA":" ","LANE":" ","ALLEY":" ","HOUSE_NO":"１８８號六樓之２６","E_COORD97":164673.29000000001,"N_COORD97":2543361.6800000002,"ADDRESS":"郡平路１８８號六樓之２６","OBJECTID":535802},"geometry":{"x":164673.29000000004,"y":2543361.6800000034}},{"attributes":{"ID":535830,"DIS_CODE":0,"TOWNNAME":"安平區","LI":"育平里","LIN":"19鄰","STREET":"郡平路","SECT":" ","MAREA":" ","LANE":" ","ALLEY":" ","HOUSE_NO":"１８８號六樓之２７","E_COORD97":164673.29000000001,"N_COORD97":2543361.6800000002,"ADDRESS":"郡平路１８８號六樓之２７","OBJECTID":535803},"geometry":{"x":164673.29000000004,"y":2543361.6800000034}},{"attributes":{"ID":535831,"DIS_CODE":0,"TOWNNAME":"安平區","LI":"國平里","LIN":"19鄰","STREET":"育平五街","SECT":" ","MAREA":" ","LANE":" ","ALLEY":" ","HOUSE_NO":"６號七樓之２","E_COORD97":164895.03,"N_COORD97":2543486.02,"ADDRESS":"育平五街６號七樓之２","OBJECTID":535804},"geometry":{"x":164895.03000000119,"y":2543486.0200000014}},{"attributes":{"ID":535832,"DIS_CODE":0,"TOWNNAME":"安平區","LI":"國平里","LIN":"19鄰","STREET":"育平五街","SECT":" ","MAREA":" ","LANE":" ","ALLEY":" ","HOUSE_NO":"６號七樓之４","E_COORD97":164895.03,"N_COORD97":2543486.02,"ADDRESS":"育平五街６號七樓之４","OBJECTID":535805},"geometry":{"x":164895.03000000119,"y":2543486.0200000014}},{"attributes":{"ID":535833,"DIS_CODE":0,"TOWNNAME":"安平區","LI":"國平里","LIN":"19鄰","STREET":"育平五街","SECT":" ","MAREA":" ","LANE":" ","ALLEY":" ","HOUSE_NO":"６號七樓之５","E_COORD97":164895.03,"N_COORD97":2543486.02,"ADDRESS":"育平五街６號七樓之５","OBJECTID":535806},"geometry":{"x":164895.03000000119,"y":2543486.0200000014}},{"attributes":{"ID":535834,"DIS_CODE":0,"TOWNNAME":"安平區","LI":"國平里","LIN":"19鄰","STREET":"育平五街","SECT":" ","MAREA":" ","LANE":" ","ALLEY":" ","HOUSE_NO":"６號七樓之６","E_COORD97":164895.03,"N_COORD97":2543486.02,"ADDRESS":"育平五街６號七樓之６","OBJECTID":535807},"geometry":{"x":164895.03000000119,"y":2543486.0200000014}},{"attributes":{"ID":535835,"DIS_CODE":0,"TOWNNAME":"安平區","LI":"國平里","LIN":"19鄰","STREET":"育平五街","SECT":" ","MAREA":" ","LANE":" ","ALLEY":" ","HOUSE_NO":"６號七樓之７","E_COORD97":164895.03,"N_COORD97":2543486.02,"ADDRESS":"育平五街６號七樓之７","OBJECTID":535808},"geometry":{"x":164895.03000000119,"y":2543486.0200000014}},{"attributes":{"ID":535836,"DIS_CODE":0,"TOWNNAME":"安平區","LI":"國平里","LIN":"19鄰","STREET":"育平五街","SECT":" ","MAREA":" ","LANE":" ","ALLEY":" ","HOUSE_NO":"６號九樓之１","E_COORD97":164895.03,"N_COORD97":2543486.02,"ADDRESS":"育平五街６號九樓之１","OBJECTID":535809},"geometry":{"x":164895.03000000119,"y":2543486.0200000014}},{"attributes":{"ID":535837,"DIS_CODE":0,"TOWNNAME":"安平區","LI":"國平里","LIN":"19鄰","STREET":"育平五街","SECT":" ","MAREA":" ","LANE":" ","ALLEY":" ","HOUSE_NO":"６號二十一樓之７","E_COORD97":164895.03,"N_COORD97":2543486.02,"ADDRESS":"育平五街６號二十一樓之７","OBJECTID":535810},"geometry":{"x":164895.03000000119,"y":2543486.0200000014}},{"attributes":{"ID":535838,"DIS_CODE":0,"TOWNNAME":"下營區","LI":"後街里","LIN":"19鄰","STREET":"水池街","SECT":" ","MAREA":" ","LANE":" ","ALLEY":" ","HOUSE_NO":"１８６號","E_COORD97":174474.38,"N_COORD97":2571192.3199999998,"ADDRESS":"水池街１８６號","OBJECTID":535811},"geometry":{"x":174474.38000000175,"y":2571192.3200000003}},{"attributes":{"ID":535839,"DIS_CODE":0,"TOWNNAME":"東區","LI":"忠孝里","LIN":"35鄰","STREET":"崇明路","SECT":" ","MAREA":" ","LANE":" ","ALLEY":" ","HOUSE_NO":"２２號","E_COORD97":169629.76999999999,"N_COORD97":2542449.23,"ADDRESS":"崇明路２２號","OBJECTID":535812},"geometry":{"x":169629.76999999862,"y":2542449.2300000004}},{"attributes":{"ID":535840,"DIS_CODE":0,"TOWNNAME":"東區","LI":"忠孝里","LIN":"35鄰","STREET":"崇明路","SECT":" ","MAREA":" ","LANE":" ","ALLEY":" ","HOUSE_NO":"２４號","E_COORD97":169631.57999999999,"N_COORD97":2542445.8500000001,"ADDRESS":"崇明路２４號","OBJECTID":535813},"geometry":{"x":169631.57999999914,"y":2542445.8500000015}},{"attributes":{"ID":535841,"DIS_CODE":0,"TOWNNAME":"東區","LI":"忠孝里","LIN":"35鄰","STREET":"崇明路","SECT":" ","MAREA":" ","LANE":" ","ALLEY":" ","HOUSE_NO":"４４號","E_COORD97":169659.39999999999,"N_COORD97":2542401.5699999998,"ADDRESS":"崇明路４４號","OBJECTID":535814},"geometry":{"x":169659.4000000013,"y":2542401.5700000022}},{"attributes":{"ID":535842,"DIS_CODE":0,"TOWNNAME":"東區","LI":"忠孝里","LIN":"35鄰","STREET":"崇明路","SECT":" ","MAREA":" ","LANE":" ","ALLEY":" ","HOUSE_NO":"４６號","E_COORD97":169661.44,"N_COORD97":2542397.5099999998,"ADDRESS":"崇明路４６號","OBJECTID":535815},"geometry":{"x":169661.44000000041,"y":2542397.5100000016}},{"attributes":{"ID":535843,"DIS_CODE":0,"TOWNNAME":"東區","LI":"忠孝里","LIN":"35鄰","STREET":"崇明路","SECT":" ","MAREA":" ","LANE":" ","ALLEY":" ","HOUSE_NO":"５０號","E_COORD97":169664.82999999999,"N_COORD97":2542390.2799999998,"ADDRESS":"崇明路５０號","OBJECTID":535816},"geometry":{"x":169664.83000000007,"y":2542390.2799999993}},{"attributes":{"ID":535844,"DIS_CODE":0,"TOWNNAME":"新營區","LI":"忠政里","LIN":"19鄰","STREET":"長榮路","SECT":"二段","MAREA":" ","LANE":" ","ALLEY":" ","HOUSE_NO":"３７號五樓","E_COORD97":179963.42999999999,"N_COORD97":2579843.1600000001,"ADDRESS":"長榮路二段３７號五樓","OBJECTID":535817},"geometry":{"x":179963.43000000063,"y":2579843.160000002}},{"attributes":{"ID":535845,"DIS_CODE":0,"TOWNNAME":"新營區","LI":"忠政里","LIN":"19鄰","STREET":"長榮路","SECT":"二段","MAREA":" ","LANE":" ","ALLEY":" ","HOUSE_NO":"３９號二樓","E_COORD97":179959.34,"N_COORD97":2579843.1699999999,"ADDRESS":"長榮路二段３９號二樓","OBJECTID":535818},"geometry":{"x":179959.34000000078,"y":2579843.1700000018}},{"attributes":{"ID":535846,"DIS_CODE":0,"TOWNNAME":"新營區","LI":"忠政里","LIN":"19鄰","STREET":"長榮路","SECT":"二段","MAREA":" ","LANE":" ","ALLEY":" ","HOUSE_NO":"３７號六樓","E_COORD97":179963.42999999999,"N_COORD97":2579843.1600000001,"ADDRESS":"長榮路二段３７號六樓","OBJECTID":535819},"geometry":{"x":179963.43000000063,"y":2579843.160000002}},{"attributes":{"ID":535847,"DIS_CODE":0,"TOWNNAME":"新營區","LI":"忠政里","LIN":"19鄰","STREET":"長榮路","SECT":"二段","MAREA":" ","LANE":" ","ALLEY":" ","HOUSE_NO":"３７號七樓","E_COORD97":179963.42999999999,"N_COORD97":2579843.1600000001,"ADDRESS":"長榮路二段３７號七樓","OBJECTID":535820},"geometry":{"x":179963.43000000063,"y":2579843.160000002}},{"attributes":{"ID":535848,"DIS_CODE":0,"TOWNNAME":"新營區","LI":"忠政里","LIN":"19鄰","STREET":"長榮路","SECT":"二段","MAREA":" ","LANE":" ","ALLEY":" ","HOUSE_NO":"３９號三樓","E_COORD97":179959.34,"N_COORD97":2579843.1699999999,"ADDRESS":"長榮路二段３９號三樓","OBJECTID":535821},"geometry":{"x":179959.34000000078,"y":2579843.1700000018}},{"attributes":{"ID":535849,"DIS_CODE":0,"TOWNNAME":"新營區","LI":"忠政里","LIN":"19鄰","STREET":"長榮路","SECT":"二段","MAREA":" ","LANE":" ","ALLEY":" ","HOUSE_NO":"３７號四樓","E_COORD97":179963.42999999999,"N_COORD97":2579843.1600000001,"ADDRESS":"長榮路二段３７號四樓","OBJECTID":535822},"geometry":{"x":179963.43000000063,"y":2579843.160000002}},{"attributes":{"ID":535850,"DIS_CODE":0,"TOWNNAME":"安平區","LI":"國平里","LIN":"19鄰","STREET":"育平五街","SECT":" ","MAREA":" ","LANE":" ","ALLEY":" ","HOUSE_NO":"６號二十二樓之６","E_COORD97":164895.03,"N_COORD97":2543486.02,"ADDRESS":"育平五街６號二十二樓之６","OBJECTID":535823},"geometry":{"x":164895.03000000119,"y":2543486.0200000014}},{"attributes":{"ID":535851,"DIS_CODE":0,"TOWNNAME":"安平區","LI":"國平里","LIN":"19鄰","STREET":"育平五街","SECT":" ","MAREA":" ","LANE":" ","ALLEY":" ","HOUSE_NO":"６號二十二樓之７","E_COORD97":164895.03,"N_COORD97":2543486.02,"ADDRESS":"育平五街６號二十二樓之７","OBJECTID":535824},"geometry":{"x":164895.03000000119,"y":2543486.0200000014}},{"attributes":{"ID":535852,"DIS_CODE":0,"TOWNNAME":"安平區","LI":"國平里","LIN":"19鄰","STREET":"育平五街","SECT":" ","MAREA":" ","LANE":" ","ALLEY":" ","HOUSE_NO":"６號二十樓之１","E_COORD97":164895.03,"N_COORD97":2543486.02,"ADDRESS":"育平五街６號二十樓之１","OBJECTID":535825},"geometry":{"x":164895.03000000119,"y":2543486.0200000014}},{"attributes":{"ID":535853,"DIS_CODE":0,"TOWNNAME":"安平區","LI":"國平里","LIN":"19鄰","STREET":"育平五街","SECT":" ","MAREA":" ","LANE":" ","ALLEY":" ","HOUSE_NO":"６號十一樓之６","E_COORD97":164895.03,"N_COORD97":2543486.02,"ADDRESS":"育平五街６號十一樓之６","OBJECTID":535826},"geometry":{"x":164895.03000000119,"y":2543486.0200000014}},{"attributes":{"ID":535854,"DIS_CODE":0,"TOWNNAME":"安平區","LI":"國平里","LIN":"19鄰","STREET":"育平五街","SECT":" ","MAREA":" ","LANE":" ","ALLEY":" ","HOUSE_NO":"６號十一樓之７","E_COORD97":164895.03,"N_COORD97":2543486.02,"ADDRESS":"育平五街６號十一樓之７","OBJECTID":535827},"geometry":{"x":164895.03000000119,"y":2543486.0200000014}},{"attributes":{"ID":535855,"DIS_CODE":0,"TOWNNAME":"安平區","LI":"國平里","LIN":"19鄰","STREET":"育平五街","SECT":" ","MAREA":" ","LANE":" ","ALLEY":" ","HOUSE_NO":"６號十五樓之１","E_COORD97":164895.03,"N_COORD97":2543486.02,"ADDRESS":"育平五街６號十五樓之１","OBJECTID":535828},"geometry":{"x":164895.03000000119,"y":2543486.0200000014}},{"attributes":{"ID":535856,"DIS_CODE":0,"TOWNNAME":"安平區","LI":"國平里","LIN":"19鄰","STREET":"育平五街","SECT":" ","MAREA":" ","LANE":" ","ALLEY":" ","HOUSE_NO":"６號十四樓之６","E_COORD97":164895.03,"N_COORD97":2543486.02,"ADDRESS":"育平五街６號十四樓之６","OBJECTID":535829},"geometry":{"x":164895.03000000119,"y":2543486.0200000014}},{"attributes":{"ID":535857,"DIS_CODE":0,"TOWNNAME":"安平區","LI":"國平里","LIN":"19鄰","STREET":"育平五街","SECT":" ","MAREA":" ","LANE":" ","ALLEY":" ","HOUSE_NO":"６號十四樓之７","E_COORD97":164895.03,"N_COORD97":2543486.02,"ADDRESS":"育平五街６號十四樓之７","OBJECTID":535830},"geometry":{"x":164895.03000000119,"y":2543486.0200000014}},{"attributes":{"ID":535858,"DIS_CODE":0,"TOWNNAME":"安平區","LI":"國平里","LIN":"19鄰","STREET":"育平五街","SECT":" ","MAREA":" ","LANE":" ","ALLEY":" ","HOUSE_NO":"６號六樓之３","E_COORD97":164895.03,"N_COORD97":2543486.02,"ADDRESS":"育平五街６號六樓之３","OBJECTID":535831},"geometry":{"x":164895.03000000119,"y":2543486.0200000014}},{"attributes":{"ID":535859,"DIS_CODE":0,"TOWNNAME":"安平區","LI":"國平里","LIN":"19鄰","STREET":"育平五街","SECT":" ","MAREA":" ","LANE":" ","ALLEY":" ","HOUSE_NO":"６號六樓之４","E_COORD97":164895.03,"N_COORD97":2543486.02,"ADDRESS":"育平五街６號六樓之４","OBJECTID":535832},"geometry":{"x":164895.03000000119,"y":2543486.0200000014}},{"attributes":{"ID":535860,"DIS_CODE":0,"TOWNNAME":"安平區","LI":"國平里","LIN":"19鄰","STREET":"育平五街","SECT":" ","MAREA":" ","LANE":" ","ALLEY":" ","HOUSE_NO":"６號六樓之５","E_COORD97":164895.03,"N_COORD97":2543486.02,"ADDRESS":"育平五街６號六樓之５","OBJECTID":535833},"geometry":{"x":164895.03000000119,"y":2543486.0200000014}},{"attributes":{"ID":535861,"DIS_CODE":0,"TOWNNAME":"安平區","LI":"國平里","LIN":"19鄰","STREET":"育平五街","SECT":" ","MAREA":" ","LANE":" ","ALLEY":" ","HOUSE_NO":"６號六樓之６","E_COORD97":164895.03,"N_COORD97":2543486.02,"ADDRESS":"育平五街６號六樓之６","OBJECTID":535834},"geometry":{"x":164895.03000000119,"y":2543486.0200000014}},{"attributes":{"ID":535862,"DIS_CODE":0,"TOWNNAME":"安平區","LI":"國平里","LIN":"19鄰","STREET":"育平五街","SECT":" ","MAREA":" ","LANE":" ","ALLEY":" ","HOUSE_NO":"６號六樓之７","E_COORD97":164895.03,"N_COORD97":2543486.02,"ADDRESS":"育平五街６號六樓之７","OBJECTID":535835},"geometry":{"x":164895.03000000119,"y":2543486.0200000014}},{"attributes":{"ID":535863,"DIS_CODE":0,"TOWNNAME":"歸仁區","LI":"辜厝里","LIN":"19鄰","STREET":"大順一街","SECT":" ","MAREA":" ","LANE":" ","ALLEY":" ","HOUSE_NO":"３號八樓之１","E_COORD97":177458.10999999999,"N_COORD97":2540505.9500000002,"ADDRESS":"大順一街３號八樓之１","OBJECTID":535836},"geometry":{"x":177458.11000000034,"y":2540505.9500000011}},{"attributes":{"ID":535864,"DIS_CODE":0,"TOWNNAME":"歸仁區","LI":"辜厝里","LIN":"19鄰","STREET":"大順一街","SECT":" ","MAREA":" ","LANE":" ","ALLEY":" ","HOUSE_NO":"３號三樓之１","E_COORD97":177458.10999999999,"N_COORD97":2540505.9500000002,"ADDRESS":"大順一街３號三樓之１","OBJECTID":535837},"geometry":{"x":177458.11000000034,"y":2540505.9500000011}},{"attributes":{"ID":535865,"DIS_CODE":0,"TOWNNAME":"歸仁區","LI":"辜厝里","LIN":"19鄰","STREET":"大順一街","SECT":" ","MAREA":" ","LANE":" ","ALLEY":" ","HOUSE_NO":"３號六樓之１","E_COORD97":177458.10999999999,"N_COORD97":2540505.9500000002,"ADDRESS":"大順一街３號六樓之１","OBJECTID":535838},"geometry":{"x":177458.11000000034,"y":2540505.9500000011}},{"attributes":{"ID":535866,"DIS_CODE":0,"TOWNNAME":"歸仁區","LI":"辜厝里","LIN":"19鄰","STREET":"大順一街","SECT":" ","MAREA":" ","LANE":" ","ALLEY":" ","HOUSE_NO":"３號六樓之２","E_COORD97":177458.13,"N_COORD97":2540505.9500000002,"ADDRESS":"大順一街３號六樓之２","OBJECTID":535839},"geometry":{"x":177458.13000000082,"y":2540505.9500000011}},{"attributes":{"ID":535867,"DIS_CODE":0,"TOWNNAME":"歸仁區","LI":"許厝里","LIN":"19鄰","STREET":"忠孝北路","SECT":" ","MAREA":" ","LANE":" ","ALLEY":" ","HOUSE_NO":"８５號七樓","E_COORD97":178341.22,"N_COORD97":2540868.25,"ADDRESS":"忠孝北路８５號七樓","OBJECTID":535840},"geometry":{"x":178341.21999999974,"y":2540868.25}},{"attributes":{"ID":535868,"DIS_CODE":0,"TOWNNAME":"新營區","LI":"忠政里","LIN":"19鄰","STREET":"長榮路","SECT":"二段","MAREA":" ","LANE":" ","ALLEY":" ","HOUSE_NO":"３９號六樓","E_COORD97":179959.34,"N_COORD97":2579843.1699999999,"ADDRESS":"長榮路二段３９號六樓","OBJECTID":535841},"geometry":{"x":179959.34000000078,"y":2579843.1700000018}},{"attributes":{"ID":535869,"DIS_CODE":0,"TOWNNAME":"安南區","LI":"長安里","LIN":"19鄰","STREET":"公學路","SECT":"二段","MAREA":" ","LANE":" ","ALLEY":" ","HOUSE_NO":"１２０號","E_COORD97":167680.20999999999,"N_COORD97":2552312.8300000001,"ADDRESS":"公學路二段１２０號","OBJECTID":535842},"geometry":{"x":167680.21000000089,"y":2552312.8300000019}},{"attributes":{"ID":535870,"DIS_CODE":0,"TOWNNAME":"安南區","LI":"長安里","LIN":"19鄰","STREET":"公學路","SECT":"二段","MAREA":" ","LANE":" ","ALLEY":" ","HOUSE_NO":"１００號","E_COORD97":167699.04000000001,"N_COORD97":2552359.7200000002,"ADDRESS":"公學路二段１００號","OBJECTID":535843},"geometry":{"x":167699.04000000004,"y":2552359.7200000007}},{"attributes":{"ID":535871,"DIS_CODE":0,"TOWNNAME":"安南區","LI":"長安里","LIN":"19鄰","STREET":"公學路","SECT":"二段","MAREA":" ","LANE":" ","ALLEY":" ","HOUSE_NO":"１０２號","E_COORD97":167697.32000000001,"N_COORD97":2552356.0899999999,"ADDRESS":"公學路二段１０２號","OBJECTID":535844},"geometry":{"x":167697.3200000003,"y":2552356.0899999999}},{"attributes":{"ID":535872,"DIS_CODE":0,"TOWNNAME":"安南區","LI":"長安里","LIN":"19鄰","STREET":"公學路","SECT":"二段","MAREA":" ","LANE":" ","ALLEY":" ","HOUSE_NO":"１０４號","E_COORD97":167696,"N_COORD97":2552352.1499999999,"ADDRESS":"公學路二段１０４號","OBJECTID":535845},"geometry":{"x":167696,"y":2552352.1500000004}},{"attributes":{"ID":535873,"DIS_CODE":0,"TOWNNAME":"安南區","LI":"長安里","LIN":"19鄰","STREET":"公學路","SECT":"二段","MAREA":" ","LANE":" ","ALLEY":" ","HOUSE_NO":"１０６號","E_COORD97":167694.59,"N_COORD97":2552347.9100000001,"ADDRESS":"公學路二段１０６號","OBJECTID":535846},"geometry":{"x":167694.59000000078,"y":2552347.9100000001}},{"attributes":{"ID":535874,"DIS_CODE":0,"TOWNNAME":"安南區","LI":"長安里","LIN":"19鄰","STREET":"公學路","SECT":"二段","MAREA":" ","LANE":" ","ALLEY":" ","HOUSE_NO":"１１０號","E_COORD97":167687.81,"N_COORD97":2552333.2999999998,"ADDRESS":"公學路二段１１０號","OBJECTID":535847},"geometry":{"x":167687.80999999959,"y":2552333.3000000026}},{"attributes":{"ID":535875,"DIS_CODE":0,"TOWNNAME":"安南區","LI":"長安里","LIN":"19鄰","STREET":"公學路","SECT":"二段","MAREA":" ","LANE":" ","ALLEY":" ","HOUSE_NO":"１１２號","E_COORD97":167685.88,"N_COORD97":2552329.46,"ADDRESS":"公學路二段１１２號","OBJECTID":535848},"geometry":{"x":167685.88000000082,"y":2552329.4600000028}},{"attributes":{"ID":535876,"DIS_CODE":0,"TOWNNAME":"安南區","LI":"長安里","LIN":"19鄰","STREET":"公學路","SECT":"二段","MAREA":" ","LANE":" ","ALLEY":" ","HOUSE_NO":"１１４號","E_COORD97":167684.97,"N_COORD97":2552324.8199999998,"ADDRESS":"公學路二段１１４號","OBJECTID":535849},"geometry":{"x":167684.97000000067,"y":2552324.8200000003}},{"attributes":{"ID":535877,"DIS_CODE":0,"TOWNNAME":"安南區","LI":"長安里","LIN":"19鄰","STREET":"公學路","SECT":"二段","MAREA":" ","LANE":" ","ALLEY":" ","HOUSE_NO":"１２４號","E_COORD97":167678.19,"N_COORD97":2552304.8399999999,"ADDRESS":"公學路二段１２４號","OBJECTID":535850},"geometry":{"x":167678.19000000041,"y":2552304.8400000017}},{"attributes":{"ID":535878,"DIS_CODE":0,"TOWNNAME":"安南區","LI":"長安里","LIN":"19鄰","STREET":"公學路","SECT":"二段","MAREA":" ","LANE":" ","ALLEY":" ","HOUSE_NO":"１２６號","E_COORD97":167676.76999999999,"N_COORD97":2552300.3999999999,"ADDRESS":"公學路二段１２６號","OBJECTID":535851},"geometry":{"x":167676.76999999955,"y":2552300.4000000004}},{"attributes":{"ID":535879,"DIS_CODE":0,"TOWNNAME":"安南區","LI":"長安里","LIN":"19鄰","STREET":"公學路","SECT":"二段","MAREA":" ","LANE":" ","ALLEY":" ","HOUSE_NO":"１２８號","E_COORD97":167675.04999999999,"N_COORD97":2552296.46,"ADDRESS":"公學路二段１２８號","OBJECTID":535852},"geometry":{"x":167675.04999999981,"y":2552296.4600000009}},{"attributes":{"ID":535880,"DIS_CODE":0,"TOWNNAME":"安南區","LI":"長安里","LIN":"19鄰","STREET":"公學路","SECT":"二段","MAREA":" ","LANE":" ","ALLEY":" ","HOUSE_NO":"９２號","E_COORD97":167704.73999999999,"N_COORD97":2552375.98,"ADDRESS":"公學路二段９２號","OBJECTID":535853},"geometry":{"x":167704.74000000022,"y":2552375.9800000023}},{"attributes":{"ID":535881,"DIS_CODE":0,"TOWNNAME":"安南區","LI":"長安里","LIN":"19鄰","STREET":"公學路","SECT":"二段","MAREA":" ","LANE":" ","ALLEY":" ","HOUSE_NO":"９４號","E_COORD97":167703.60000000001,"N_COORD97":2552371.3900000001,"ADDRESS":"公學路二段９４號","OBJECTID":535854},"geometry":{"x":167703.5999999987,"y":2552371.3900000006}},{"attributes":{"ID":535882,"DIS_CODE":0,"TOWNNAME":"安南區","LI":"長安里","LIN":"19鄰","STREET":"公學路","SECT":"二段","MAREA":" ","LANE":" ","ALLEY":" ","HOUSE_NO":"９６號","E_COORD97":167701.98000000001,"N_COORD97":2552367.8500000001,"ADDRESS":"公學路二段９６號","OBJECTID":535855},"geometry":{"x":167701.98000000231,"y":2552367.8499999996}},{"attributes":{"ID":535883,"DIS_CODE":0,"TOWNNAME":"安南區","LI":"長安里","LIN":"19鄰","STREET":"公學路","SECT":"二段","MAREA":" ","LANE":" ","ALLEY":" ","HOUSE_NO":"９８號","E_COORD97":167701.07000000001,"N_COORD97":2552363.5099999998,"ADDRESS":"公學路二段９８號","OBJECTID":535856},"geometry":{"x":167701.06999999937,"y":2552363.5099999998}},{"attributes":{"ID":535884,"DIS_CODE":0,"TOWNNAME":"東區","LI":"崇成里","LIN":"19鄰","STREET":"崇明路","SECT":" ","MAREA":" ","LANE":" ","ALLEY":" ","HOUSE_NO":"５７３號","E_COORD97":170627.10999999999,"N_COORD97":2541234.2999999998,"ADDRESS":"崇明路５７３號","OBJECTID":535857},"geometry":{"x":170627.11000000127,"y":2541234.3000000026}},{"attributes":{"ID":535885,"DIS_CODE":0,"TOWNNAME":"東區","LI":"崇成里","LIN":"19鄰","STREET":"崇明路","SECT":" ","MAREA":" ","LANE":" ","ALLEY":" ","HOUSE_NO":"５８５號","E_COORD97":170620.01999999999,"N_COORD97":2541202.1099999999,"ADDRESS":"崇明路５８５號","OBJECTID":535858},"geometry":{"x":170620.02000000048,"y":2541202.1100000031}},{"attributes":{"ID":535886,"DIS_CODE":0,"TOWNNAME":"東區","LI":"崇成里","LIN":"19鄰","STREET":"崇明路","SECT":" ","MAREA":" ","LANE":" ","ALLEY":" ","HOUSE_NO":"５８７號","E_COORD97":170620.01999999999,"N_COORD97":2541197.3599999999,"ADDRESS":"崇明路５８７號","OBJECTID":535859},"geometry":{"x":170620.02000000048,"y":2541197.3600000013}},{"attributes":{"ID":535887,"DIS_CODE":0,"TOWNNAME":"東區","LI":"崇成里","LIN":"19鄰","STREET":"崇明路","SECT":" ","MAREA":" ","LANE":" ","ALLEY":" ","HOUSE_NO":"５８９號","E_COORD97":170620.10000000001,"N_COORD97":2541193.0299999998,"ADDRESS":"崇明路５８９號","OBJECTID":535860},"geometry":{"x":170620.10000000056,"y":2541193.0300000012}},{"attributes":{"ID":535888,"DIS_CODE":0,"TOWNNAME":"東區","LI":"崇成里","LIN":"19鄰","STREET":"崇明路","SECT":" ","MAREA":" ","LANE":" ","ALLEY":" ","HOUSE_NO":"５８９號之１０","E_COORD97":170626.84,"N_COORD97":2541122.46,"ADDRESS":"崇明路５８９號之１０","OBJECTID":535861},"geometry":{"x":170626.84000000078,"y":2541122.4600000009}},{"attributes":{"ID":535889,"DIS_CODE":0,"TOWNNAME":"東區","LI":"崇成里","LIN":"19鄰","STREET":"崇明路","SECT":" ","MAREA":" ","LANE":" ","ALLEY":" ","HOUSE_NO":"５８９號之１１","E_COORD97":170619.5,"N_COORD97":2541118.6899999999,"ADDRESS":"崇明路５８９號之１１","OBJECTID":535862},"geometry":{"x":170619.50000000093,"y":2541118.6899999995}},{"attributes":{"ID":535890,"DIS_CODE":0,"TOWNNAME":"東區","LI":"崇成里","LIN":"19鄰","STREET":"崇明路","SECT":" ","MAREA":" ","LANE":" ","ALLEY":" ","HOUSE_NO":"５８９號之１２","E_COORD97":170617.5,"N_COORD97":2541112.48,"ADDRESS":"崇明路５８９號之１２","OBJECTID":535863},"geometry":{"x":170617.50000000093,"y":2541112.4800000042}},{"attributes":{"ID":535891,"DIS_CODE":0,"TOWNNAME":"東區","LI":"崇成里","LIN":"19鄰","STREET":"崇明路","SECT":" ","MAREA":" ","LANE":" ","ALLEY":" ","HOUSE_NO":"５８９號之１３","E_COORD97":170617.75,"N_COORD97":2541107.5699999998,"ADDRESS":"崇明路５８９號之１３","OBJECTID":535864},"geometry":{"x":170617.75000000093,"y":2541107.5700000003}},{"attributes":{"ID":535892,"DIS_CODE":0,"TOWNNAME":"佳里區","LI":"東寧里","LIN":"19鄰","STREET":"佳東路","SECT":" ","MAREA":" ","LANE":" ","ALLEY":" ","HOUSE_NO":"３４７號","E_COORD97":166307.75,"N_COORD97":2562395.3300000001,"ADDRESS":"佳東路３４７號","OBJECTID":535865},"geometry":{"x":166307.75,"y":2562395.3300000019}},{"attributes":{"ID":535893,"DIS_CODE":0,"TOWNNAME":"佳里區","LI":"東寧里","LIN":"19鄰","STREET":"佳東路","SECT":" ","MAREA":" ","LANE":" ","ALLEY":" ","HOUSE_NO":"３４９號","E_COORD97":166305.95999999999,"N_COORD97":2562400.1800000002,"ADDRESS":"佳東路３４９號","OBJECTID":535866},"geometry":{"x":166305.95999999996,"y":2562400.1800000016}},{"attributes":{"ID":535894,"DIS_CODE":0,"TOWNNAME":"佳里區","LI":"東寧里","LIN":"19鄰","STREET":"佳東路","SECT":" ","MAREA":" ","LANE":" ","ALLEY":" ","HOUSE_NO":"３５１號","E_COORD97":166304.38,"N_COORD97":2562404.4700000002,"ADDRESS":"佳東路３５１號","OBJECTID":535867},"geometry":{"x":166304.37999999989,"y":2562404.4700000044}},{"attributes":{"ID":535895,"DIS_CODE":0,"TOWNNAME":"佳里區","LI":"東寧里","LIN":"19鄰","STREET":"佳東路","SECT":" ","MAREA":" ","LANE":" ","ALLEY":" ","HOUSE_NO":"３５３號","E_COORD97":166303.26000000001,"N_COORD97":2562409.5299999998,"ADDRESS":"佳東路３５３號","OBJECTID":535868},"geometry":{"x":166303.26000000071,"y":2562409.5300000031}},{"attributes":{"ID":535896,"DIS_CODE":0,"TOWNNAME":"佳里區","LI":"東寧里","LIN":"19鄰","STREET":"佳東路","SECT":" ","MAREA":" ","LANE":" ","ALLEY":" ","HOUSE_NO":"３５５號","E_COORD97":166302.07000000001,"N_COORD97":2562414.2799999998,"ADDRESS":"佳東路３５５號","OBJECTID":535869},"geometry":{"x":166302.0700000003,"y":2562414.2799999975}},{"attributes":{"ID":535897,"DIS_CODE":0,"TOWNNAME":"佳里區","LI":"東寧里","LIN":"19鄰","STREET":"佳東路","SECT":" ","MAREA":" ","LANE":" ","ALLEY":" ","HOUSE_NO":"３５７號","E_COORD97":166300.51000000001,"N_COORD97":2562418.8900000001,"ADDRESS":"佳東路３５７號","OBJECTID":535870},"geometry":{"x":166300.50999999978,"y":2562418.8900000025}},{"attributes":{"ID":535898,"DIS_CODE":0,"TOWNNAME":"佳里區","LI":"東寧里","LIN":"19鄰","STREET":"佳東路","SECT":" ","MAREA":" ","LANE":" ","ALLEY":" ","HOUSE_NO":"３５９號","E_COORD97":166299.35000000001,"N_COORD97":2562424.5,"ADDRESS":"佳東路３５９號","OBJECTID":535871},"geometry":{"x":166299.34999999963,"y":2562424.5000000019}},{"attributes":{"ID":535899,"DIS_CODE":0,"TOWNNAME":"佳里區","LI":"東寧里","LIN":"19鄰","STREET":"佳東路","SECT":" ","MAREA":" ","LANE":" ","ALLEY":" ","HOUSE_NO":"３６１號","E_COORD97":166299.59,"N_COORD97":2562432.23,"ADDRESS":"佳東路３６１號","OBJECTID":535872},"geometry":{"x":166299.58999999985,"y":2562432.2300000004}},{"attributes":{"ID":535900,"DIS_CODE":0,"TOWNNAME":"佳里區","LI":"鎮山里","LIN":"19鄰","STREET":"佳南路","SECT":" ","MAREA":" ","LANE":" ","ALLEY":" ","HOUSE_NO":"１４６號","E_COORD97":166224.20999999999,"N_COORD97":2561096.1899999999,"ADDRESS":"佳南路１４６號","OBJECTID":535873},"geometry":{"x":166224.21000000089,"y":2561096.1899999976}},{"attributes":{"ID":535901,"DIS_CODE":0,"TOWNNAME":"中西區","LI":"安海里","LIN":"19鄰","STREET":"民生路","SECT":"二段","MAREA":" ","LANE":" ","ALLEY":" ","HOUSE_NO":"３８９號","E_COORD97":166842.41,"N_COORD97":2544222.79,"ADDRESS":"民生路二段３８９號","OBJECTID":535874},"geometry":{"x":166842.41000000015,"y":2544222.790000001}},{"attributes":{"ID":535902,"DIS_CODE":0,"TOWNNAME":"下營區","LI":"營前里","LIN":"19鄰","STREET":"文化街","SECT":" ","MAREA":" ","LANE":" ","ALLEY":" ","HOUSE_NO":"９號","E_COORD97":174791.89000000001,"N_COORD97":2570256.8900000001,"ADDRESS":"文化街９號","OBJECTID":535875},"geometry":{"x":174791.88999999966,"y":2570256.8900000043}},{"attributes":{"ID":535903,"DIS_CODE":0,"TOWNNAME":"下營區","LI":"後街里","LIN":"19鄰","STREET":"水池街","SECT":" ","MAREA":" ","LANE":" ","ALLEY":" ","HOUSE_NO":"１３２號","E_COORD97":174482.44,"N_COORD97":2571113.5699999998,"ADDRESS":"水池街１３２號","OBJECTID":535876},"geometry":{"x":174482.44000000041,"y":2571113.5700000022}},{"attributes":{"ID":535904,"DIS_CODE":0,"TOWNNAME":"下營區","LI":"後街里","LIN":"19鄰","STREET":"水池街","SECT":" ","MAREA":" ","LANE":" ","ALLEY":" ","HOUSE_NO":"１３６號","E_COORD97":174482.20000000001,"N_COORD97":2571118.1099999999,"ADDRESS":"水池街１３６號","OBJECTID":535877},"geometry":{"x":174482.20000000019,"y":2571118.1099999994}},{"attributes":{"ID":535905,"DIS_CODE":0,"TOWNNAME":"下營區","LI":"後街里","LIN":"19鄰","STREET":"水池街","SECT":" ","MAREA":" ","LANE":" ","ALLEY":" ","HOUSE_NO":"１４０號","E_COORD97":174482.10000000001,"N_COORD97":2571127,"ADDRESS":"水池街１４０號","OBJECTID":535878},"geometry":{"x":174482.09999999963,"y":2571127.0000000037}},{"attributes":{"ID":535906,"DIS_CODE":0,"TOWNNAME":"下營區","LI":"後街里","LIN":"19鄰","STREET":"水池街","SECT":" ","MAREA":" ","LANE":" ","ALLEY":" ","HOUSE_NO":"１４６號","E_COORD97":174513.73999999999,"N_COORD97":2571145.8700000001,"ADDRESS":"水池街１４６號","OBJECTID":535879},"geometry":{"x":174513.74000000115,"y":2571145.8700000048}},{"attributes":{"ID":535907,"DIS_CODE":0,"TOWNNAME":"下營區","LI":"後街里","LIN":"19鄰","STREET":"水池街","SECT":" ","MAREA":" ","LANE":" ","ALLEY":" ","HOUSE_NO":"１５８號","E_COORD97":174477.13,"N_COORD97":2571133.98,"ADDRESS":"水池街１５８號","OBJECTID":535880},"geometry":{"x":174477.12999999989,"y":2571133.9800000004}},{"attributes":{"ID":535908,"DIS_CODE":0,"TOWNNAME":"下營區","LI":"後街里","LIN":"19鄰","STREET":"水池街","SECT":" ","MAREA":" ","LANE":" ","ALLEY":" ","HOUSE_NO":"１６２號","E_COORD97":174485.92999999999,"N_COORD97":2571154.3900000001,"ADDRESS":"水池街１６２號","OBJECTID":535881},"geometry":{"x":174485.93000000063,"y":2571154.3900000006}},{"attributes":{"ID":535909,"DIS_CODE":0,"TOWNNAME":"下營區","LI":"後街里","LIN":"19鄰","STREET":"水池街","SECT":" ","MAREA":" ","LANE":" ","ALLEY":" ","HOUSE_NO":"１７６號","E_COORD97":174468.75,"N_COORD97":2571171.4500000002,"ADDRESS":"水池街１７６號","OBJECTID":535882},"geometry":{"x":174468.75000000093,"y":2571171.4500000011}},{"attributes":{"ID":535910,"DIS_CODE":0,"TOWNNAME":"下營區","LI":"後街里","LIN":"19鄰","STREET":"水池街","SECT":" ","MAREA":" ","LANE":" ","ALLEY":" ","HOUSE_NO":"１７８號","E_COORD97":174468.47,"N_COORD97":2571175.77,"ADDRESS":"水池街１７８號","OBJECTID":535883},"geometry":{"x":174468.4700000016,"y":2571175.7700000014}},{"attributes":{"ID":535911,"DIS_CODE":0,"TOWNNAME":"下營區","LI":"營前里","LIN":"19鄰","STREET":"健康路","SECT":" ","MAREA":" ","LANE":" ","ALLEY":" ","HOUSE_NO":"１６３號","E_COORD97":174942.85999999999,"N_COORD97":2570253.6099999999,"ADDRESS":"健康路１６３號","OBJECTID":535884},"geometry":{"x":174942.8600000022,"y":2570253.6099999994}},{"attributes":{"ID":535912,"DIS_CODE":0,"TOWNNAME":"下營區","LI":"營前里","LIN":"19鄰","STREET":"健康路","SECT":" ","MAREA":" ","LANE":" ","ALLEY":" ","HOUSE_NO":"１６５號","E_COORD97":174955.17000000001,"N_COORD97":2570259.21,"ADDRESS":"健康路１６５號","OBJECTID":535885},"geometry":{"x":174955.16999999993,"y":2570259.2100000028}},{"attributes":{"ID":535913,"DIS_CODE":0,"TOWNNAME":"下營區","LI":"營前里","LIN":"19鄰","STREET":"健康路","SECT":" ","MAREA":" ","LANE":" ","ALLEY":" ","HOUSE_NO":"２０２號","E_COORD97":174990.82999999999,"N_COORD97":2570251.8300000001,"ADDRESS":"健康路２０２號","OBJECTID":535886},"geometry":{"x":174990.83000000101,"y":2570251.8300000001}},{"attributes":{"ID":535914,"DIS_CODE":0,"TOWNNAME":"下營區","LI":"新興里","LIN":"19鄰","STREET":"健康路","SECT":" ","MAREA":" ","LANE":" ","ALLEY":" ","HOUSE_NO":"３６２號","E_COORD97":174960.19,"N_COORD97":2570584.3999999999,"ADDRESS":"健康路３６２號","OBJECTID":535887},"geometry":{"x":174960.19000000041,"y":2570584.4000000004}},{"attributes":{"ID":535915,"DIS_CODE":0,"TOWNNAME":"永康區","LI":"網寮里","LIN":"19鄰","STREET":"文化路","SECT":" ","MAREA":" ","LANE":" ","ALLEY":" ","HOUSE_NO":"２７８號","E_COORD97":173466.51000000001,"N_COORD97":2546144.5600000001,"ADDRESS":"文化路２７８號","OBJECTID":535888},"geometry":{"x":173466.51000000164,"y":2546144.5600000024}},{"attributes":{"ID":535916,"DIS_CODE":0,"TOWNNAME":"永康區","LI":"復國里","LIN":"19鄰","STREET":"復華五街","SECT":" ","MAREA":" ","LANE":" ","ALLEY":" ","HOUSE_NO":"４０號","E_COORD97":172791.07000000001,"N_COORD97":2545713.6600000001,"ADDRESS":"復華五街４０號","OBJECTID":535889},"geometry":{"x":172791.0700000003,"y":2545713.6600000001}},{"attributes":{"ID":535917,"DIS_CODE":0,"TOWNNAME":"永康區","LI":"網寮里","LIN":"19鄰","STREET":"文化路","SECT":" ","MAREA":" ","LANE":" ","ALLEY":" ","HOUSE_NO":"３１０號","E_COORD97":173431.45999999999,"N_COORD97":2546167.6800000002,"ADDRESS":"文化路３１０號","OBJECTID":535890},"geometry":{"x":173431.46000000183,"y":2546167.6799999997}},{"attributes":{"ID":535918,"DIS_CODE":0,"TOWNNAME":"永康區","LI":"烏竹里","LIN":"19鄰","STREET":"自強路","SECT":" ","MAREA":" ","LANE":" ","ALLEY":" ","HOUSE_NO":"７６７號","E_COORD97":174465.63,"N_COORD97":2548557.7999999998,"ADDRESS":"自強路７６７號","OBJECTID":535891},"geometry":{"x":174465.62999999989,"y":2548557.8000000007}},{"attributes":{"ID":535919,"DIS_CODE":0,"TOWNNAME":"永康區","LI":"崑山里","LIN":"19鄰","STREET":"大灣路","SECT":" ","MAREA":" ","LANE":" ","ALLEY":" ","HOUSE_NO":"７８８之３號","E_COORD97":174036.13,"N_COORD97":2544510.4900000002,"ADDRESS":"大灣路７８８之３號","OBJECTID":535892},"geometry":{"x":174036.12999999989,"y":2544510.4900000021}},{"attributes":{"ID":535920,"DIS_CODE":0,"TOWNNAME":"永康區","LI":"崑山里","LIN":"19鄰","STREET":"大灣路","SECT":" ","MAREA":" ","LANE":" ","ALLEY":" ","HOUSE_NO":"７９６號","E_COORD97":174023.47,"N_COORD97":2544508.9399999999,"ADDRESS":"大灣路７９６號","OBJECTID":535893},"geometry":{"x":174023.47000000067,"y":2544508.9400000032}},{"attributes":{"ID":535921,"DIS_CODE":0,"TOWNNAME":"永康區","LI":"復國里","LIN":"19鄰","STREET":"復國一路","SECT":" ","MAREA":" ","LANE":" ","ALLEY":" ","HOUSE_NO":"３５６號","E_COORD97":172772.06,"N_COORD97":2545734.8999999999,"ADDRESS":"復國一路３５６號","OBJECTID":535894},"geometry":{"x":172772.05999999959,"y":2545734.9000000022}},{"attributes":{"ID":535922,"DIS_CODE":0,"TOWNNAME":"永康區","LI":"復國里","LIN":"19鄰","STREET":"復華五街","SECT":" ","MAREA":" ","LANE":" ","ALLEY":" ","HOUSE_NO":"３６號","E_COORD97":172798.75,"N_COORD97":2545713.4100000001,"ADDRESS":"復華五街３６號","OBJECTID":535895},"geometry":{"x":172798.75000000186,"y":2545713.4100000039}},{"attributes":{"ID":535923,"DIS_CODE":0,"TOWNNAME":"永康區","LI":"崑山里","LIN":"19鄰","STREET":"大灣路","SECT":" ","MAREA":" ","LANE":" ","ALLEY":" ","HOUSE_NO":"８６８之２號","E_COORD97":173796.48999999999,"N_COORD97":2544468.4100000001,"ADDRESS":"大灣路８６８之２號","OBJECTID":535896},"geometry":{"x":173796.49000000115,"y":2544468.4100000001}},{"attributes":{"ID":535924,"DIS_CODE":0,"TOWNNAME":"永康區","LI":"烏竹里","LIN":"19鄰","STREET":"龍中街","SECT":" ","MAREA":" ","LANE":" ","ALLEY":" ","HOUSE_NO":"２２６號","E_COORD97":174376.60000000001,"N_COORD97":2548523.46,"ADDRESS":"龍中街２２６號","OBJECTID":535897},"geometry":{"x":174376.60000000056,"y":2548523.4600000009}},{"attributes":{"ID":535925,"DIS_CODE":0,"TOWNNAME":"東區","LI":"崇明里","LIN":"19鄰","STREET":"中華東路","SECT":"三段","MAREA":" ","LANE":" ","ALLEY":" ","HOUSE_NO":"３３７號","E_COORD97":170322.84,"N_COORD97":2541610.29,"ADDRESS":"中華東路三段３３７號","OBJECTID":535898},"geometry":{"x":170322.83999999985,"y":2541610.2899999991}},{"attributes":{"ID":535926,"DIS_CODE":0,"TOWNNAME":"東區","LI":"崇明里","LIN":"19鄰","STREET":"中華東路","SECT":"三段","MAREA":" ","LANE":" ","ALLEY":" ","HOUSE_NO":"３３９號","E_COORD97":170319.17000000001,"N_COORD97":2541607.8900000001,"ADDRESS":"中華東路三段３３９號","OBJECTID":535899},"geometry":{"x":170319.17000000179,"y":2541607.8900000006}},{"attributes":{"ID":535927,"DIS_CODE":0,"TOWNNAME":"東區","LI":"崇明里","LIN":"19鄰","STREET":"中華東路","SECT":"三段","MAREA":" ","LANE":" ","ALLEY":" ","HOUSE_NO":"３４１號","E_COORD97":170314.51000000001,"N_COORD97":2541605.6299999999,"ADDRESS":"中華東路三段３４１號","OBJECTID":535900},"geometry":{"x":170314.50999999978,"y":2541605.6300000008}},{"attributes":{"ID":535928,"DIS_CODE":0,"TOWNNAME":"東區","LI":"崇明里","LIN":"19鄰","STREET":"中華東路","SECT":"三段","MAREA":" ","LANE":" ","ALLEY":" ","HOUSE_NO":"３４３號","E_COORD97":170310.84,"N_COORD97":2541602.7999999998,"ADDRESS":"中華東路三段３４３號","OBJECTID":535901},"geometry":{"x":170310.83999999985,"y":2541602.8000000026}},{"attributes":{"ID":535929,"DIS_CODE":0,"TOWNNAME":"東區","LI":"崇明里","LIN":"19鄰","STREET":"中華東路","SECT":"三段","MAREA":" ","LANE":" ","ALLEY":" ","HOUSE_NO":"３４５號","E_COORD97":170305.60999999999,"N_COORD97":2541601.96,"ADDRESS":"中華東路三段３４５號","OBJECTID":535902},"geometry":{"x":170305.61000000127,"y":2541601.9600000028}},{"attributes":{"ID":535930,"DIS_CODE":0,"TOWNNAME":"東區","LI":"崇明里","LIN":"19鄰","STREET":"中華東路","SECT":"三段","MAREA":" ","LANE":" ","ALLEY":" ","HOUSE_NO":"３４７號","E_COORD97":170301.79999999999,"N_COORD97":2541598.9900000002,"ADDRESS":"中華東路三段３４７號","OBJECTID":535903},"geometry":{"x":170301.80000000075,"y":2541598.9900000002}},{"attributes":{"ID":535931,"DIS_CODE":0,"TOWNNAME":"東區","LI":"崇明里","LIN":"19鄰","STREET":"中華東路","SECT":"三段","MAREA":" ","LANE":" ","ALLEY":" ","HOUSE_NO":"３４９號","E_COORD97":170298.12,"N_COORD97":2541596.3100000001,"ADDRESS":"中華東路三段３４９號","OBJECTID":535904},"geometry":{"x":170298.12000000104,"y":2541596.3100000024}},{"attributes":{"ID":535932,"DIS_CODE":0,"TOWNNAME":"東區","LI":"崇明里","LIN":"19鄰","STREET":"中華東路","SECT":"三段","MAREA":" ","LANE":" ","ALLEY":" ","HOUSE_NO":"３５１號","E_COORD97":170293.04000000001,"N_COORD97":2541596.4500000002,"ADDRESS":"中華東路三段３５１號","OBJECTID":535905},"geometry":{"x":170293.0400000019,"y":2541596.450000003}},{"attributes":{"ID":535933,"DIS_CODE":0,"TOWNNAME":"東區","LI":"崇德里","LIN":"19鄰","STREET":"中華東路","SECT":"三段","MAREA":" ","LANE":" ","ALLEY":" ","HOUSE_NO":"２６５號","E_COORD97":170471.76999999999,"N_COORD97":2541721.7000000002,"ADDRESS":"中華東路三段２６５號","OBJECTID":535906},"geometry":{"x":170471.76999999955,"y":2541721.7000000011}},{"attributes":{"ID":535934,"DIS_CODE":0,"TOWNNAME":"東區","LI":"崇學里","LIN":"19鄰","STREET":"中華東路","SECT":"三段","MAREA":" ","LANE":" ","ALLEY":" ","HOUSE_NO":"１９６號","E_COORD97":170591.38,"N_COORD97":2541954.0800000001,"ADDRESS":"中華東路三段１９６號","OBJECTID":535907},"geometry":{"x":170591.38000000082,"y":2541954.0800000001}},{"attributes":{"ID":535935,"DIS_CODE":0,"TOWNNAME":"東區","LI":"崇學里","LIN":"19鄰","STREET":"中華東路","SECT":"三段","MAREA":" ","LANE":" ","ALLEY":" ","HOUSE_NO":"１９８號","E_COORD97":170586.38,"N_COORD97":2541948.0899999999,"ADDRESS":"中華東路三段１９８號","OBJECTID":535908},"geometry":{"x":170586.38000000082,"y":2541948.0899999999}},{"attributes":{"ID":535936,"DIS_CODE":0,"TOWNNAME":"東區","LI":"崇學里","LIN":"19鄰","STREET":"中華東路","SECT":"三段","MAREA":" ","LANE":" ","ALLEY":" ","HOUSE_NO":"２００號","E_COORD97":170580.28,"N_COORD97":2541939.9100000001,"ADDRESS":"中華東路三段２００號","OBJECTID":535909},"geometry":{"x":170580.28000000119,"y":2541939.9100000039}},{"attributes":{"ID":535937,"DIS_CODE":0,"TOWNNAME":"東區","LI":"崇學里","LIN":"19鄰","STREET":"崇德四街","SECT":" ","MAREA":" ","LANE":" ","ALLEY":" ","HOUSE_NO":"５６號","E_COORD97":170563.73000000001,"N_COORD97":2541965.8900000001,"ADDRESS":"崇德四街５６號","OBJECTID":535910},"geometry":{"x":170563.73000000138,"y":2541965.8900000025}},{"attributes":{"ID":535938,"DIS_CODE":0,"TOWNNAME":"東區","LI":"崇學里","LIN":"19鄰","STREET":"中華東路","SECT":"三段","MAREA":" ","LANE":" ","ALLEY":" ","HOUSE_NO":"２０２號","E_COORD97":170575.42999999999,"N_COORD97":2541934.7799999998,"ADDRESS":"中華東路三段２０２號","OBJECTID":535911},"geometry":{"x":170575.43000000063,"y":2541934.7800000012}},{"attributes":{"ID":535939,"DIS_CODE":0,"TOWNNAME":"東區","LI":"崇學里","LIN":"19鄰","STREET":"中華東路","SECT":"三段","MAREA":" ","LANE":" ","ALLEY":" ","HOUSE_NO":"２０４號","E_COORD97":170571.82000000001,"N_COORD97":2541931.04,"ADDRESS":"中華東路三段２０４號","OBJECTID":535912},"geometry":{"x":170571.82000000123,"y":2541931.0400000028}},{"attributes":{"ID":535940,"DIS_CODE":0,"TOWNNAME":"東區","LI":"崇學里","LIN":"19鄰","STREET":"中華東路","SECT":"三段","MAREA":" ","LANE":" ","ALLEY":" ","HOUSE_NO":"２０６號","E_COORD97":170568.63,"N_COORD97":2541927.5800000001,"ADDRESS":"中華東路三段２０６號","OBJECTID":535913},"geometry":{"x":170568.63000000175,"y":2541927.5800000001}},{"attributes":{"ID":535941,"DIS_CODE":0,"TOWNNAME":"東區","LI":"崇學里","LIN":"19鄰","STREET":"中華東路","SECT":"三段","MAREA":" ","LANE":" ","ALLEY":" ","HOUSE_NO":"２０８號","E_COORD97":170565.44,"N_COORD97":2541923.4199999999,"ADDRESS":"中華東路三段２０８號","OBJECTID":535914},"geometry":{"x":170565.44000000227,"y":2541923.4200000018}},{"attributes":{"ID":535942,"DIS_CODE":0,"TOWNNAME":"東區","LI":"崇學里","LIN":"19鄰","STREET":"中華東路","SECT":"三段","MAREA":" ","LANE":" ","ALLEY":" ","HOUSE_NO":"２１２號","E_COORD97":170561.97,"N_COORD97":2541919.8199999998,"ADDRESS":"中華東路三段２１２號","OBJECTID":535915},"geometry":{"x":170561.96999999974,"y":2541919.8200000003}},{"attributes":{"ID":535943,"DIS_CODE":0,"TOWNNAME":"東區","LI":"崇學里","LIN":"19鄰","STREET":"中華東路","SECT":"三段","MAREA":" ","LANE":" ","ALLEY":" ","HOUSE_NO":"２１４號","E_COORD97":170558.64999999999,"N_COORD97":2541916.2200000002,"ADDRESS":"中華東路三段２１４號","OBJECTID":535916},"geometry":{"x":170558.65000000037,"y":2541916.2200000025}},{"attributes":{"ID":535944,"DIS_CODE":0,"TOWNNAME":"東區","LI":"崇學里","LIN":"19鄰","STREET":"中華東路","SECT":"三段","MAREA":" ","LANE":" ","ALLEY":" ","HOUSE_NO":"２１６號","E_COORD97":170555.45999999999,"N_COORD97":2541912.2000000002,"ADDRESS":"中華東路三段２１６號","OBJECTID":535917},"geometry":{"x":170555.45999999996,"y":2541912.1999999993}},{"attributes":{"ID":535945,"DIS_CODE":0,"TOWNNAME":"東區","LI":"崇學里","LIN":"19鄰","STREET":"中華東路","SECT":"三段","MAREA":" ","LANE":" ","ALLEY":" ","HOUSE_NO":"２１８號","E_COORD97":170552.13,"N_COORD97":2541908.3199999998,"ADDRESS":"中華東路三段２１８號","OBJECTID":535918},"geometry":{"x":170552.13000000082,"y":2541908.3200000022}},{"attributes":{"ID":535946,"DIS_CODE":0,"TOWNNAME":"東區","LI":"崇學里","LIN":"19鄰","STREET":"中華東路","SECT":"三段","MAREA":" ","LANE":" ","ALLEY":" ","HOUSE_NO":"２２０號","E_COORD97":170549.48999999999,"N_COORD97":2541904.4399999999,"ADDRESS":"中華東路三段２２０號","OBJECTID":535919},"geometry":{"x":170549.48999999929,"y":2541904.4399999995}},{"attributes":{"ID":535947,"DIS_CODE":0,"TOWNNAME":"東區","LI":"崇學里","LIN":"19鄰","STREET":"中華東路","SECT":"三段","MAREA":" ","LANE":" ","ALLEY":" ","HOUSE_NO":"２２２號","E_COORD97":170543.67000000001,"N_COORD97":2541898.8399999999,"ADDRESS":"中華東路三段２２２號","OBJECTID":535920},"geometry":{"x":170543.67000000086,"y":2541898.8399999999}},{"attributes":{"ID":535948,"DIS_CODE":0,"TOWNNAME":"東區","LI":"崇學里","LIN":"19鄰","STREET":"中華東路","SECT":"三段","MAREA":" ","LANE":" ","ALLEY":" ","HOUSE_NO":"２２４號","E_COORD97":170536.73000000001,"N_COORD97":2541890.7999999998,"ADDRESS":"中華東路三段２２４號","OBJECTID":535921},"geometry":{"x":170536.73000000138,"y":2541890.8000000026}},{"attributes":{"ID":535949,"DIS_CODE":0,"TOWNNAME":"東區","LI":"崇學里","LIN":"19鄰","STREET":"中華東路","SECT":"三段","MAREA":" ","LANE":" ","ALLEY":" ","HOUSE_NO":"２２８號","E_COORD97":170526.60999999999,"N_COORD97":2541879.8599999999,"ADDRESS":"中華東路三段２２８號","OBJECTID":535922},"geometry":{"x":170526.61000000034,"y":2541879.8600000013}},{"attributes":{"ID":535950,"DIS_CODE":0,"TOWNNAME":"東區","LI":"崇學里","LIN":"19鄰","STREET":"中華東路","SECT":"三段","MAREA":" ","LANE":" ","ALLEY":" ","HOUSE_NO":"２３４號","E_COORD97":170524.03,"N_COORD97":2541868.6400000001,"ADDRESS":"中華東路三段２３４號","OBJECTID":535923},"geometry":{"x":170524.03000000212,"y":2541868.6400000025}},{"attributes":{"ID":535951,"DIS_CODE":0,"TOWNNAME":"東區","LI":"崇學里","LIN":"19鄰","STREET":"中華東路","SECT":"三段","MAREA":" ","LANE":" ","ALLEY":" ","HOUSE_NO":"２３８號","E_COORD97":170514.66,"N_COORD97":2541857.7400000002,"ADDRESS":"中華東路三段２３８號","OBJECTID":535924},"geometry":{"x":170514.66000000108,"y":2541857.7400000021}},{"attributes":{"ID":535952,"DIS_CODE":0,"TOWNNAME":"東區","LI":"崇學里","LIN":"19鄰","STREET":"中華東路","SECT":"三段","MAREA":" ","LANE":" ","ALLEY":" ","HOUSE_NO":"２４２號","E_COORD97":170507.31,"N_COORD97":2541849.71,"ADDRESS":"中華東路三段２４２號","OBJECTID":535925},"geometry":{"x":170507.30999999959,"y":2541849.7100000009}},{"attributes":{"ID":535953,"DIS_CODE":0,"TOWNNAME":"東區","LI":"崇學里","LIN":"19鄰","STREET":"崇德四街","SECT":" ","MAREA":" ","LANE":" ","ALLEY":" ","HOUSE_NO":"１２號","E_COORD97":170500.07999999999,"N_COORD97":2541888.3599999999,"ADDRESS":"崇德四街１２號","OBJECTID":535926},"geometry":{"x":170500.08000000101,"y":2541888.3599999975}},{"attributes":{"ID":535954,"DIS_CODE":0,"TOWNNAME":"東區","LI":"崇學里","LIN":"19鄰","STREET":"崇德四街","SECT":" ","MAREA":" ","LANE":" ","ALLEY":" ","HOUSE_NO":"２２號","E_COORD97":170513.95000000001,"N_COORD97":2541909.2799999998,"ADDRESS":"崇德四街２２號","OBJECTID":535927},"geometry":{"x":170513.95000000019,"y":2541909.2799999975}},{"attributes":{"ID":535955,"DIS_CODE":0,"TOWNNAME":"東區","LI":"崇學里","LIN":"19鄰","STREET":"崇德四街","SECT":" ","MAREA":" ","LANE":" ","ALLEY":" ","HOUSE_NO":"２４號","E_COORD97":170519.48999999999,"N_COORD97":2541914.1400000001,"ADDRESS":"崇德四街２４號","OBJECTID":535928},"geometry":{"x":170519.49000000115,"y":2541914.1400000006}},{"attributes":{"ID":535956,"DIS_CODE":0,"TOWNNAME":"東區","LI":"崇學里","LIN":"19鄰","STREET":"崇德四街","SECT":" ","MAREA":" ","LANE":" ","ALLEY":" ","HOUSE_NO":"２６號","E_COORD97":170522.54000000001,"N_COORD97":2541917.1899999999,"ADDRESS":"崇德四街２６號","OBJECTID":535929},"geometry":{"x":170522.54000000097,"y":2541917.1900000032}},{"attributes":{"ID":535957,"DIS_CODE":0,"TOWNNAME":"東區","LI":"崇學里","LIN":"19鄰","STREET":"崇德四街","SECT":" ","MAREA":" ","LANE":" ","ALLEY":" ","HOUSE_NO":"２８號","E_COORD97":170525.87,"N_COORD97":2541919.54,"ADDRESS":"崇德四街２８號","OBJECTID":535930},"geometry":{"x":170525.87000000011,"y":2541919.5399999991}},{"attributes":{"ID":535958,"DIS_CODE":0,"TOWNNAME":"東區","LI":"崇學里","LIN":"19鄰","STREET":"崇德四街","SECT":" ","MAREA":" ","LANE":" ","ALLEY":" ","HOUSE_NO":"３０號","E_COORD97":170528.64999999999,"N_COORD97":2541923.0099999998,"ADDRESS":"崇德四街３０號","OBJECTID":535931},"geometry":{"x":170528.6500000013,"y":2541923.0100000016}},{"attributes":{"ID":535959,"DIS_CODE":0,"TOWNNAME":"東區","LI":"崇學里","LIN":"19鄰","STREET":"崇德四街","SECT":" ","MAREA":" ","LANE":" ","ALLEY":" ","HOUSE_NO":"３２號","E_COORD97":170531.42000000001,"N_COORD97":2541925.9199999999,"ADDRESS":"崇德四街３２號","OBJECTID":535932},"geometry":{"x":170531.42000000086,"y":2541925.9199999981}},{"attributes":{"ID":535960,"DIS_CODE":0,"TOWNNAME":"東區","LI":"崇學里","LIN":"19鄰","STREET":"崇德四街","SECT":" ","MAREA":" ","LANE":" ","ALLEY":" ","HOUSE_NO":"３４號","E_COORD97":170534.19,"N_COORD97":2541928.5499999998,"ADDRESS":"崇德四街３４號","OBJECTID":535933},"geometry":{"x":170534.19000000041,"y":2541928.5500000007}},{"attributes":{"ID":535961,"DIS_CODE":0,"TOWNNAME":"東區","LI":"崇學里","LIN":"19鄰","STREET":"崇德四街","SECT":" ","MAREA":" ","LANE":" ","ALLEY":" ","HOUSE_NO":"３６號","E_COORD97":170536.97,"N_COORD97":2541931.7400000002,"ADDRESS":"崇德四街３６號","OBJECTID":535934},"geometry":{"x":170536.96999999974,"y":2541931.7400000021}},{"attributes":{"ID":535962,"DIS_CODE":0,"TOWNNAME":"東區","LI":"崇學里","LIN":"19鄰","STREET":"崇德四街","SECT":" ","MAREA":" ","LANE":" ","ALLEY":" ","HOUSE_NO":"３８號","E_COORD97":170540.01999999999,"N_COORD97":2541935.48,"ADDRESS":"崇德四街３８號","OBJECTID":535935},"geometry":{"x":170540.01999999955,"y":2541935.4800000004}},{"attributes":{"ID":535963,"DIS_CODE":0,"TOWNNAME":"東區","LI":"崇學里","LIN":"19鄰","STREET":"崇德四街","SECT":" ","MAREA":" ","LANE":" ","ALLEY":" ","HOUSE_NO":"４０號","E_COORD97":170542.10000000001,"N_COORD97":2541939.2200000002,"ADDRESS":"崇德四街４０號","OBJECTID":535936},"geometry":{"x":170542.10000000056,"y":2541939.2200000025}},{"attributes":{"ID":535964,"DIS_CODE":0,"TOWNNAME":"東區","LI":"崇學里","LIN":"19鄰","STREET":"崇德四街","SECT":" ","MAREA":" ","LANE":" ","ALLEY":" ","HOUSE_NO":"４２號","E_COORD97":170544.17999999999,"N_COORD97":2541942.4100000001,"ADDRESS":"崇德四街４２號","OBJECTID":535937},"geometry":{"x":170544.1799999997,"y":2541942.4100000001}},{"attributes":{"ID":535965,"DIS_CODE":0,"TOWNNAME":"東區","LI":"崇學里","LIN":"19鄰","STREET":"崇德四街","SECT":" ","MAREA":" ","LANE":" ","ALLEY":" ","HOUSE_NO":"４４號","E_COORD97":170547.23000000001,"N_COORD97":2541945.6600000001,"ADDRESS":"崇德四街４４號","OBJECTID":535938},"geometry":{"x":170547.23000000138,"y":2541945.660000002}},{"attributes":{"ID":535966,"DIS_CODE":0,"TOWNNAME":"東區","LI":"崇學里","LIN":"19鄰","STREET":"崇德四街","SECT":" ","MAREA":" ","LANE":" ","ALLEY":" ","HOUSE_NO":"４６號","E_COORD97":170549.73000000001,"N_COORD97":2541949.1299999999,"ADDRESS":"崇德四街４６號","OBJECTID":535939},"geometry":{"x":170549.73000000045,"y":2541949.129999999}},{"attributes":{"ID":535967,"DIS_CODE":0,"TOWNNAME":"東區","LI":"崇學里","LIN":"19鄰","STREET":"崇德四街","SECT":" ","MAREA":" ","LANE":" ","ALLEY":" ","HOUSE_NO":"４８號","E_COORD97":170552.35999999999,"N_COORD97":2541952.3199999998,"ADDRESS":"崇德四街４８號","OBJECTID":535940},"geometry":{"x":170552.3600000022,"y":2541952.3200000022}},{"attributes":{"ID":535968,"DIS_CODE":0,"TOWNNAME":"東區","LI":"崇學里","LIN":"19鄰","STREET":"崇德四街","SECT":" ","MAREA":" ","LANE":" ","ALLEY":" ","HOUSE_NO":"４號","E_COORD97":170489.12,"N_COORD97":2541872.77,"ADDRESS":"崇德四街４號","OBJECTID":535941},"geometry":{"x":170489.11999999918,"y":2541872.7700000014}},{"attributes":{"ID":535969,"DIS_CODE":0,"TOWNNAME":"東區","LI":"崇學里","LIN":"19鄰","STREET":"崇德四街","SECT":" ","MAREA":" ","LANE":" ","ALLEY":" ","HOUSE_NO":"５０號","E_COORD97":170555.26999999999,"N_COORD97":2541955.5,"ADDRESS":"崇德四街５０號","OBJECTID":535942},"geometry":{"x":170555.26999999955,"y":2541955.5}},{"attributes":{"ID":535970,"DIS_CODE":0,"TOWNNAME":"東區","LI":"崇學里","LIN":"19鄰","STREET":"崇德四街","SECT":" ","MAREA":" ","LANE":" ","ALLEY":" ","HOUSE_NO":"５２號","E_COORD97":170558.45999999999,"N_COORD97":2541958.1299999999,"ADDRESS":"崇德四街５２號","OBJECTID":535943},"geometry":{"x":170558.46000000089,"y":2541958.1300000008}},{"attributes":{"ID":535971,"DIS_CODE":0,"TOWNNAME":"東區","LI":"崇學里","LIN":"19鄰","STREET":"崇德四街","SECT":" ","MAREA":" ","LANE":" ","ALLEY":" ","HOUSE_NO":"５４號","E_COORD97":170560.26999999999,"N_COORD97":2541961.8799999999,"ADDRESS":"崇德四街５４號","OBJECTID":535944},"geometry":{"x":170560.26999999955,"y":2541961.879999999}},{"attributes":{"ID":535972,"DIS_CODE":0,"TOWNNAME":"東區","LI":"崇學里","LIN":"19鄰","STREET":"崇德四街","SECT":" ","MAREA":" ","LANE":" ","ALLEY":" ","HOUSE_NO":"５８號","E_COORD97":170565.95000000001,"N_COORD97":2541968.6699999999,"ADDRESS":"崇德四街５８號","OBJECTID":535945},"geometry":{"x":170565.95000000019,"y":2541968.6700000037}},{"attributes":{"ID":535973,"DIS_CODE":0,"TOWNNAME":"東區","LI":"崇學里","LIN":"19鄰","STREET":"崇德四街","SECT":" ","MAREA":" ","LANE":" ","ALLEY":" ","HOUSE_NO":"６０號","E_COORD97":170569.14000000001,"N_COORD97":2541973.5099999998,"ADDRESS":"崇德四街６０號","OBJECTID":535946},"geometry":{"x":170569.1400000006,"y":2541973.5100000016}},{"attributes":{"ID":535974,"DIS_CODE":0,"TOWNNAME":"東區","LI":"崇學里","LIN":"19鄰","STREET":"崇德四街","SECT":" ","MAREA":" ","LANE":" ","ALLEY":" ","HOUSE_NO":"６號","E_COORD97":170492.45000000001,"N_COORD97":2541876.1600000001,"ADDRESS":"崇德四街６號","OBJECTID":535947},"geometry":{"x":170492.45000000112,"y":2541876.1600000001}},{"attributes":{"ID":535975,"DIS_CODE":0,"TOWNNAME":"東區","LI":"崇學里","LIN":"19鄰","STREET":"崇德四街","SECT":" ","MAREA":" ","LANE":" ","ALLEY":" ","HOUSE_NO":"８號","E_COORD97":170494.25,"N_COORD97":2541880.46,"ADDRESS":"崇德四街８號","OBJECTID":535948},"geometry":{"x":170494.25,"y":2541880.4600000028}},{"attributes":{"ID":535976,"DIS_CODE":0,"TOWNNAME":"東區","LI":"崇信里","LIN":"19鄰","STREET":"中華東路","SECT":"三段","MAREA":" ","LANE":" ","ALLEY":" ","HOUSE_NO":"１５４號","E_COORD97":170714.76000000001,"N_COORD97":2542094.1499999999,"ADDRESS":"中華東路三段１５４號","OBJECTID":535949},"geometry":{"x":170714.75999999978,"y":2542094.1500000004}},{"attributes":{"ID":535977,"DIS_CODE":0,"TOWNNAME":"東區","LI":"崇信里","LIN":"19鄰","STREET":"中華東路","SECT":"三段","MAREA":" ","LANE":" ","ALLEY":" ","HOUSE_NO":"１５６號","E_COORD97":170711.67000000001,"N_COORD97":2542090.8199999998,"ADDRESS":"中華東路三段１５６號","OBJECTID":535950},"geometry":{"x":170711.66999999993,"y":2542090.8200000022}},{"attributes":{"ID":535978,"DIS_CODE":0,"TOWNNAME":"東區","LI":"崇信里","LIN":"19鄰","STREET":"中華東路","SECT":"三段","MAREA":" ","LANE":" ","ALLEY":" ","HOUSE_NO":"１５８號","E_COORD97":170708.81,"N_COORD97":2542088.21,"ADDRESS":"中華東路三段１５８號","OBJECTID":535951},"geometry":{"x":170708.80999999959,"y":2542088.2100000028}},{"attributes":{"ID":535979,"DIS_CODE":0,"TOWNNAME":"東區","LI":"崇信里","LIN":"19鄰","STREET":"中華東路","SECT":"三段","MAREA":" ","LANE":" ","ALLEY":" ","HOUSE_NO":"１６０號","E_COORD97":170703.34,"N_COORD97":2542082.7400000002,"ADDRESS":"中華東路三段１６０號","OBJECTID":535952},"geometry":{"x":170703.34000000078,"y":2542082.7400000002}},{"attributes":{"ID":535980,"DIS_CODE":0,"TOWNNAME":"東區","LI":"崇信里","LIN":"19鄰","STREET":"中華東路","SECT":"三段","MAREA":" ","LANE":" ","ALLEY":" ","HOUSE_NO":"９２號","E_COORD97":170806.95000000001,"N_COORD97":2542207.5299999998,"ADDRESS":"中華東路三段９２號","OBJECTID":535953},"geometry":{"x":170806.95000000019,"y":2542207.5300000012}},{"attributes":{"ID":535981,"DIS_CODE":0,"TOWNNAME":"東區","LI":"崇信里","LIN":"19鄰","STREET":"中華東路","SECT":"三段","MAREA":" ","LANE":" ","ALLEY":" ","HOUSE_NO":"９４號","E_COORD97":170803.62,"N_COORD97":2542203.73,"ADDRESS":"中華東路三段９４號","OBJECTID":535954},"geometry":{"x":170803.62000000104,"y":2542203.7300000023}},{"attributes":{"ID":535982,"DIS_CODE":0,"TOWNNAME":"東區","LI":"崇信里","LIN":"19鄰","STREET":"中華東路","SECT":"三段","MAREA":" ","LANE":" ","ALLEY":" ","HOUSE_NO":"９６號","E_COORD97":170800.76000000001,"N_COORD97":2542199.4500000002,"ADDRESS":"中華東路三段９６號","OBJECTID":535955},"geometry":{"x":170800.75999999978,"y":2542199.4499999993}},{"attributes":{"ID":535983,"DIS_CODE":0,"TOWNNAME":"東區","LI":"崇信里","LIN":"19鄰","STREET":"崇信街","SECT":" ","MAREA":" ","LANE":" ","ALLEY":" ","HOUSE_NO":"１３８號","E_COORD97":170785.89999999999,"N_COORD97":2542243.0699999998,"ADDRESS":"崇信街１３８號","OBJECTID":535956},"geometry":{"x":170785.89999999944,"y":2542243.0700000003}},{"attributes":{"ID":535984,"DIS_CODE":0,"TOWNNAME":"東區","LI":"崇信里","LIN":"19鄰","STREET":"崇信街","SECT":" ","MAREA":" ","LANE":" ","ALLEY":" ","HOUSE_NO":"１４０號","E_COORD97":170790.76000000001,"N_COORD97":2542240.6499999999,"ADDRESS":"崇信街１４０號","OBJECTID":535957},"geometry":{"x":170790.75999999978,"y":2542240.6500000022}},{"attributes":{"ID":535985,"DIS_CODE":0,"TOWNNAME":"東區","LI":"崇信里","LIN":"19鄰","STREET":"崇信街","SECT":" ","MAREA":" ","LANE":" ","ALLEY":" ","HOUSE_NO":"１４２號","E_COORD97":170794.73000000001,"N_COORD97":2542237.1899999999,"ADDRESS":"崇信街１４２號","OBJECTID":535958},"geometry":{"x":170794.73000000138,"y":2542237.1900000013}},{"attributes":{"ID":535986,"DIS_CODE":0,"TOWNNAME":"東區","LI":"崇信里","LIN":"19鄰","STREET":"崇信街","SECT":" ","MAREA":" ","LANE":" ","ALLEY":" ","HOUSE_NO":"１４４號","E_COORD97":170798.12,"N_COORD97":2542234.1800000002,"ADDRESS":"崇信街１４４號","OBJECTID":535959},"geometry":{"x":170798.12000000104,"y":2542234.1800000016}},{"attributes":{"ID":535987,"DIS_CODE":0,"TOWNNAME":"東區","LI":"崇信里","LIN":"19鄰","STREET":"崇善一街","SECT":" ","MAREA":" ","LANE":" ","ALLEY":" ","HOUSE_NO":"２號","E_COORD97":170686.89999999999,"N_COORD97":2542117.5499999998,"ADDRESS":"崇善一街２號","OBJECTID":535960},"geometry":{"x":170686.90000000037,"y":2542117.5500000026}},{"attributes":{"ID":535988,"DIS_CODE":0,"TOWNNAME":"東區","LI":"崇信里","LIN":"19鄰","STREET":"崇善一街","SECT":" ","MAREA":" ","LANE":" ","ALLEY":" ","HOUSE_NO":"３０號","E_COORD97":170729.06,"N_COORD97":2542165.9700000002,"ADDRESS":"崇善一街３０號","OBJECTID":535961},"geometry":{"x":170729.05999999959,"y":2542165.9700000007}},{"attributes":{"ID":535989,"DIS_CODE":0,"TOWNNAME":"東區","LI":"崇信里","LIN":"19鄰","STREET":"崇善一街","SECT":" ","MAREA":" ","LANE":" ","ALLEY":" ","HOUSE_NO":"３２號","E_COORD97":170731.45999999999,"N_COORD97":2542169.29,"ADDRESS":"崇善一街３２號","OBJECTID":535962},"geometry":{"x":170731.46000000089,"y":2542169.2899999991}},{"attributes":{"ID":535990,"DIS_CODE":0,"TOWNNAME":"東區","LI":"崇信里","LIN":"19鄰","STREET":"崇善一街","SECT":" ","MAREA":" ","LANE":" ","ALLEY":" ","HOUSE_NO":"３４號","E_COORD97":170734.59,"N_COORD97":2542172.79,"ADDRESS":"崇善一街３４號","OBJECTID":535963},"geometry":{"x":170734.58999999985,"y":2542172.7899999991}},{"attributes":{"ID":535991,"DIS_CODE":0,"TOWNNAME":"東區","LI":"崇信里","LIN":"19鄰","STREET":"崇善一街","SECT":" ","MAREA":" ","LANE":" ","ALLEY":" ","HOUSE_NO":"３６號","E_COORD97":170737.17999999999,"N_COORD97":2542176.29,"ADDRESS":"崇善一街３６號","OBJECTID":535964},"geometry":{"x":170737.1799999997,"y":2542176.2899999991}},{"attributes":{"ID":535992,"DIS_CODE":0,"TOWNNAME":"東區","LI":"崇信里","LIN":"19鄰","STREET":"崇善一街","SECT":" ","MAREA":" ","LANE":" ","ALLEY":" ","HOUSE_NO":"３８號","E_COORD97":170739.39000000001,"N_COORD97":2542179.6099999999,"ADDRESS":"崇善一街３８號","OBJECTID":535965},"geometry":{"x":170739.38999999873,"y":2542179.6100000013}},{"attributes":{"ID":535993,"DIS_CODE":0,"TOWNNAME":"東區","LI":"崇信里","LIN":"19鄰","STREET":"崇善一街","SECT":" ","MAREA":" ","LANE":" ","ALLEY":" ","HOUSE_NO":"５２號","E_COORD97":170765.44,"N_COORD97":2542211.9500000002,"ADDRESS":"崇善一街５２號","OBJECTID":535966},"geometry":{"x":170765.44000000227,"y":2542211.9499999993}},{"attributes":{"ID":535994,"DIS_CODE":0,"TOWNNAME":"東區","LI":"崇信里","LIN":"19鄰","STREET":"崇善一街","SECT":" ","MAREA":" ","LANE":" ","ALLEY":" ","HOUSE_NO":"５４號","E_COORD97":170769.13,"N_COORD97":2542215.8100000001,"ADDRESS":"崇善一街５４號","OBJECTID":535967},"geometry":{"x":170769.13000000082,"y":2542215.8100000042}},{"attributes":{"ID":535995,"DIS_CODE":0,"TOWNNAME":"東區","LI":"崇信里","LIN":"19鄰","STREET":"崇善一街","SECT":" ","MAREA":" ","LANE":" ","ALLEY":" ","HOUSE_NO":"５６號","E_COORD97":170770.07000000001,"N_COORD97":2542219.9100000001,"ADDRESS":"崇善一街５６號","OBJECTID":535968},"geometry":{"x":170770.07000000123,"y":2542219.9100000001}},{"attributes":{"ID":535996,"DIS_CODE":0,"TOWNNAME":"東區","LI":"崇信里","LIN":"19鄰","STREET":"崇善一街","SECT":" ","MAREA":" ","LANE":" ","ALLEY":" ","HOUSE_NO":"５８號","E_COORD97":170773.20999999999,"N_COORD97":2542222.3100000001,"ADDRESS":"崇善一街５８號","OBJECTID":535969},"geometry":{"x":170773.21000000183,"y":2542222.3100000042}},{"attributes":{"ID":535997,"DIS_CODE":0,"TOWNNAME":"東區","LI":"崇信里","LIN":"19鄰","STREET":"崇善一街","SECT":" ","MAREA":" ","LANE":" ","ALLEY":" ","HOUSE_NO":"６０號","E_COORD97":170776.16,"N_COORD97":2542226.9100000001,"ADDRESS":"崇善一街６０號","OBJECTID":535970},"geometry":{"x":170776.16000000108,"y":2542226.9100000001}},{"attributes":{"ID":535998,"DIS_CODE":0,"TOWNNAME":"東區","LI":"崇信里","LIN":"19鄰","STREET":"崇善一街","SECT":" ","MAREA":" ","LANE":" ","ALLEY":" ","HOUSE_NO":"６２號","E_COORD97":170778,"N_COORD97":2542230.23,"ADDRESS":"崇善一街６２號","OBJECTID":535971},"geometry":{"x":170777.99999999907,"y":2542230.2300000023}},{"attributes":{"ID":535999,"DIS_CODE":0,"TOWNNAME":"東區","LI":"崇信里","LIN":"19鄰","STREET":"崇善路","SECT":" ","MAREA":" ","LANE":" ","ALLEY":" ","HOUSE_NO":"２６１號","E_COORD97":170671.17000000001,"N_COORD97":2542104.0899999999,"ADDRESS":"崇善路２６１號","OBJECTID":535972},"geometry":{"x":170671.16999999993,"y":2542104.0899999999}},{"attributes":{"ID":536000,"DIS_CODE":0,"TOWNNAME":"東區","LI":"崇信里","LIN":"19鄰","STREET":"崇善路","SECT":" ","MAREA":" ","LANE":" ","ALLEY":" ","HOUSE_NO":"２６３號","E_COORD97":170674.32999999999,"N_COORD97":2542101.0699999998,"ADDRESS":"崇善路２６３號","OBJECTID":535973},"geometry":{"x":170674.33000000194,"y":2542101.0700000003}},{"attributes":{"ID":536001,"DIS_CODE":0,"TOWNNAME":"東區","LI":"崇信里","LIN":"19鄰","STREET":"崇善路","SECT":" ","MAREA":" ","LANE":" ","ALLEY":" ","HOUSE_NO":"２６５號","E_COORD97":170677.64999999999,"N_COORD97":2542098.1400000001,"ADDRESS":"崇善路２６５號","OBJECTID":535974},"geometry":{"x":170677.6500000013,"y":2542098.1400000043}},{"attributes":{"ID":536002,"DIS_CODE":0,"TOWNNAME":"東區","LI":"崇信里","LIN":"19鄰","STREET":"崇善路","SECT":" ","MAREA":" ","LANE":" ","ALLEY":" ","HOUSE_NO":"２６７號","E_COORD97":170681.12,"N_COORD97":2542095.8799999999,"ADDRESS":"崇善路２６７號","OBJECTID":535975},"geometry":{"x":170681.12000000104,"y":2542095.8800000008}},{"attributes":{"ID":536003,"DIS_CODE":0,"TOWNNAME":"東區","LI":"崇信里","LIN":"19鄰","STREET":"崇善路","SECT":" ","MAREA":" ","LANE":" ","ALLEY":" ","HOUSE_NO":"２６９號","E_COORD97":170683.84,"N_COORD97":2542093.02,"ADDRESS":"崇善路２６９號","OBJECTID":535976},"geometry":{"x":170683.83999999985,"y":2542093.0199999996}},{"attributes":{"ID":536004,"DIS_CODE":0,"TOWNNAME":"東區","LI":"崇信里","LIN":"19鄰","STREET":"崇善路","SECT":" ","MAREA":" ","LANE":" ","ALLEY":" ","HOUSE_NO":"２７１號","E_COORD97":170686.92999999999,"N_COORD97":2542090.3799999999,"ADDRESS":"崇善路２７１號","OBJECTID":535977},"geometry":{"x":170686.93000000063,"y":2542090.379999999}},{"attributes":{"ID":536005,"DIS_CODE":0,"TOWNNAME":"東區","LI":"崇信里","LIN":"19鄰","STREET":"崇善路","SECT":" ","MAREA":" ","LANE":" ","ALLEY":" ","HOUSE_NO":"２７３號","E_COORD97":170690.04000000001,"N_COORD97":2542087.3500000001,"ADDRESS":"崇善路２７３號","OBJECTID":535978},"geometry":{"x":170690.04000000097,"y":2542087.3499999996}},{"attributes":{"ID":536006,"DIS_CODE":0,"TOWNNAME":"白河區","LI":"永安里","LIN":"19鄰","STREET":"國光路","SECT":" ","MAREA":" ","LANE":" ","ALLEY":" ","HOUSE_NO":"３３號","E_COORD97":190277.32000000001,"N_COORD97":2583458.3399999999,"ADDRESS":"國光路３３號","OBJECTID":535979},"geometry":{"x":190277.3200000003,"y":2583458.3399999999}},{"attributes":{"ID":536007,"DIS_CODE":0,"TOWNNAME":"白河區","LI":"永安里","LIN":"19鄰","STREET":"國光路","SECT":" ","MAREA":" ","LANE":" ","ALLEY":" ","HOUSE_NO":"３５號","E_COORD97":190285.88,"N_COORD97":2583462.2599999998,"ADDRESS":"國光路３５號","OBJECTID":535980},"geometry":{"x":190285.88000000082,"y":2583462.2599999979}},{"attributes":{"ID":536008,"DIS_CODE":0,"TOWNNAME":"白河區","LI":"永安里","LIN":"19鄰","STREET":"國光路","SECT":" ","MAREA":" ","LANE":" ","ALLEY":" ","HOUSE_NO":"３７號","E_COORD97":190286.53,"N_COORD97":2583466.1400000001,"ADDRESS":"國光路３７號","OBJECTID":535981},"geometry":{"x":190286.53000000212,"y":2583466.1400000006}},{"attributes":{"ID":536009,"DIS_CODE":0,"TOWNNAME":"白河區","LI":"永安里","LIN":"19鄰","STREET":"國光路","SECT":" ","MAREA":" ","LANE":" ","ALLEY":" ","HOUSE_NO":"３９號","E_COORD97":190287.28,"N_COORD97":2583470.1000000001,"ADDRESS":"國光路３９號","OBJECTID":535982},"geometry":{"x":190287.28000000119,"y":2583470.1000000034}},{"attributes":{"ID":536010,"DIS_CODE":0,"TOWNNAME":"白河區","LI":"永安里","LIN":"19鄰","STREET":"國光路","SECT":" ","MAREA":" ","LANE":" ","ALLEY":" ","HOUSE_NO":"４１號","E_COORD97":190287.28,"N_COORD97":2583474.6600000001,"ADDRESS":"國光路４１號","OBJECTID":535983},"geometry":{"x":190287.28000000119,"y":2583474.660000002}},{"attributes":{"ID":536011,"DIS_CODE":0,"TOWNNAME":"白河區","LI":"永安里","LIN":"19鄰","STREET":"國光路","SECT":" ","MAREA":" ","LANE":" ","ALLEY":" ","HOUSE_NO":"７號","E_COORD97":190276.42000000001,"N_COORD97":2583404.0299999998,"ADDRESS":"國光路７號","OBJECTID":535984},"geometry":{"x":190276.41999999993,"y":2583404.0300000012}},{"attributes":{"ID":536012,"DIS_CODE":0,"TOWNNAME":"白河區","LI":"永安里","LIN":"19鄰","STREET":"國光路","SECT":" ","MAREA":" ","LANE":" ","ALLEY":" ","HOUSE_NO":"９號","E_COORD97":190281.92000000001,"N_COORD97":2583412.6299999999,"ADDRESS":"國光路９號","OBJECTID":535985},"geometry":{"x":190281.92000000086,"y":2583412.6300000008}},{"attributes":{"ID":536013,"DIS_CODE":0,"TOWNNAME":"白河區","LI":"永安里","LIN":"19鄰","STREET":"復興街","SECT":" ","MAREA":" ","LANE":" ","ALLEY":" ","HOUSE_NO":"６８號","E_COORD97":190274.95000000001,"N_COORD97":2583444.2999999998,"ADDRESS":"復興街６８號","OBJECTID":535986},"geometry":{"x":190274.94999999925,"y":2583444.3000000026}},{"attributes":{"ID":536014,"DIS_CODE":0,"TOWNNAME":"白河區","LI":"永安里","LIN":"19鄰","STREET":"復興街","SECT":" ","MAREA":" ","LANE":" ","ALLEY":" ","HOUSE_NO":"７１號","E_COORD97":190255.76999999999,"N_COORD97":2583416.7000000002,"ADDRESS":"復興街７１號","OBJECTID":535987},"geometry":{"x":190255.77000000048,"y":2583416.6999999993}},{"attributes":{"ID":536015,"DIS_CODE":0,"TOWNNAME":"白河區","LI":"永安里","LIN":"19鄰","STREET":"復興街","SECT":" ","MAREA":" ","LANE":" ","ALLEY":" ","HOUSE_NO":"７６號","E_COORD97":190240.29000000001,"N_COORD97":2583437.7999999998,"ADDRESS":"復興街７６號","OBJECTID":535988},"geometry":{"x":190240.28999999911,"y":2583437.8000000026}},{"attributes":{"ID":536016,"DIS_CODE":0,"TOWNNAME":"白河區","LI":"永安里","LIN":"19鄰","STREET":"復興街","SECT":" ","MAREA":" ","LANE":" ","ALLEY":" ","HOUSE_NO":"７８號","E_COORD97":190234.35999999999,"N_COORD97":2583438.54,"ADDRESS":"復興街７８號","OBJECTID":535989},"geometry":{"x":190234.36000000034,"y":2583438.5399999991}},{"attributes":{"ID":536017,"DIS_CODE":0,"TOWNNAME":"白河區","LI":"永安里","LIN":"19鄰","STREET":"復興街","SECT":" ","MAREA":" ","LANE":" ","ALLEY":" ","HOUSE_NO":"８６號","E_COORD97":190209.60000000001,"N_COORD97":2583447.6099999999,"ADDRESS":"復興街８６號","OBJECTID":535990},"geometry":{"x":190209.60000000056,"y":2583447.6100000013}},{"attributes":{"ID":536018,"DIS_CODE":0,"TOWNNAME":"安南區","LI":"溪東里","LIN":"19鄰","STREET":"郡安路","SECT":"五段","MAREA":" ","LANE":" ","ALLEY":" ","HOUSE_NO":"１號","E_COORD97":168446.48000000001,"N_COORD97":2547650.5499999998,"ADDRESS":"郡安路五段１號","OBJECTID":535991},"geometry":{"x":168446.48000000138,"y":2547650.5500000026}},{"attributes":{"ID":536019,"DIS_CODE":0,"TOWNNAME":"佳里區","LI":"忠仁里","LIN":"19鄰","STREET":"忠仁街","SECT":" ","MAREA":" ","LANE":" ","ALLEY":" ","HOUSE_NO":"４２號之１","E_COORD97":166058.84,"N_COORD97":2562035.7200000002,"ADDRESS":"忠仁街４２號之１","OBJECTID":535992},"geometry":{"x":166058.83999999985,"y":2562035.7200000007}},{"attributes":{"ID":536020,"DIS_CODE":0,"TOWNNAME":"佳里區","LI":"忠仁里","LIN":"19鄰","STREET":"忠仁街","SECT":" ","MAREA":" ","LANE":" ","ALLEY":" ","HOUSE_NO":"４２號","E_COORD97":166059.63,"N_COORD97":2562031.6600000001,"ADDRESS":"忠仁街４２號","OBJECTID":535993},"geometry":{"x":166059.63000000082,"y":2562031.6600000001}},{"attributes":{"ID":536021,"DIS_CODE":0,"TOWNNAME":"佳里區","LI":"忠仁里","LIN":"19鄰","STREET":"忠仁街","SECT":" ","MAREA":" ","LANE":" ","ALLEY":" ","HOUSE_NO":"４６號","E_COORD97":166062.07999999999,"N_COORD97":2562041.7799999998,"ADDRESS":"忠仁街４６號","OBJECTID":535994},"geometry":{"x":166062.08000000101,"y":2562041.7800000012}},{"attributes":{"ID":536022,"DIS_CODE":0,"TOWNNAME":"佳里區","LI":"忠仁里","LIN":"19鄰","STREET":"忠仁街","SECT":" ","MAREA":" ","LANE":" ","ALLEY":" ","HOUSE_NO":"４８號","E_COORD97":166061.48000000001,"N_COORD97":2562046.0800000001,"ADDRESS":"忠仁街４８號","OBJECTID":535995},"geometry":{"x":166061.48000000138,"y":2562046.0800000001}},{"attributes":{"ID":536023,"DIS_CODE":0,"TOWNNAME":"佳里區","LI":"忠仁里","LIN":"19鄰","STREET":"忠仁街","SECT":" ","MAREA":" ","LANE":" ","ALLEY":" ","HOUSE_NO":"５０號","E_COORD97":166060.87,"N_COORD97":2562050.6099999999,"ADDRESS":"忠仁街５０號","OBJECTID":535996},"geometry":{"x":166060.87000000011,"y":2562050.6100000013}},{"attributes":{"ID":536024,"DIS_CODE":0,"TOWNNAME":"佳里區","LI":"忠仁里","LIN":"19鄰","STREET":"忠仁街","SECT":" ","MAREA":" ","LANE":" ","ALLEY":" ","HOUSE_NO":"５４號","E_COORD97":166057.92000000001,"N_COORD97":2562058.9300000002,"ADDRESS":"忠仁街５４號","OBJECTID":535997},"geometry":{"x":166057.92000000086,"y":2562058.9300000016}},{"attributes":{"ID":536025,"DIS_CODE":0,"TOWNNAME":"東區","LI":"泉南里","LIN":"10鄰","STREET":"光華街","SECT":" ","MAREA":" ","LANE":" ","ALLEY":" ","HOUSE_NO":"１３７號","E_COORD97":169717.07999999999,"N_COORD97":2542916.8799999999,"ADDRESS":"光華街１３７號","OBJECTID":535998},"geometry":{"x":169717.08000000101,"y":2542916.8800000008}},{"attributes":{"ID":536026,"DIS_CODE":0,"TOWNNAME":"東區","LI":"泉南里","LIN":" ","STREET":"東門路","SECT":"一段","MAREA":" ","LANE":" ","ALLEY":" ","HOUSE_NO":"２０８號","E_COORD97":169668.07999999999,"N_COORD97":2543087.27,"ADDRESS":"東門路一段２０８號","OBJECTID":535999},"geometry":{"x":169668.08000000101,"y":2543087.2700000014}},{"attributes":{"ID":536027,"DIS_CODE":0,"TOWNNAME":"東區","LI":"泉南里","LIN":" ","STREET":"光華街","SECT":" ","MAREA":" ","LANE":" ","ALLEY":" ","HOUSE_NO":"１３９號","E_COORD97":169715.20000000001,"N_COORD97":2542919.23,"ADDRESS":"光華街１３９號","OBJECTID":536000},"geometry":{"x":169715.20000000019,"y":2542919.2300000023}}]}