{"displayFieldName":"TOWNNAME","fieldAliases":{"ID":"ID","DIS_CODE":"DIS_CODE","TOWNNAME":"TOWNNAME","LI":"LI","LIN":"LIN","STREET":"STREET","SECT":"SECT","MAREA":"MAREA","LANE":"LANE","ALLEY":"ALLEY","HOUSE_NO":"HOUSE_NO","E_COORD97":"E_COORD97","N_COORD97":"N_COORD97","ADDRESS":"ADDRESS","OBJECTID":"OBJECTID"},"geometryType":"esriGeometryPoint","spatialReference":{"wkid":102443,"latestWkid":3826},"fields":[{"name":"ID","type":"esriFieldTypeDouble","alias":"ID"},{"name":"DIS_CODE","type":"esriFieldTypeInteger","alias":"DIS_CODE"},{"name":"TOWNNAME","type":"esriFieldTypeString","alias":"TOWNNAME","length":8},{"name":"LI","type":"esriFieldTypeString","alias":"LI","length":8},{"name":"LIN","type":"esriFieldTypeString","alias":"LIN","length":12},{"name":"STREET","type":"esriFieldTypeString","alias":"STREET","length":20},{"name":"SECT","type":"esriFieldTypeString","alias":"SECT","length":8},{"name":"MAREA","type":"esriFieldTypeString","alias":"MAREA","length":12},{"name":"LANE","type":"esriFieldTypeString","alias":"LANE","length":10},{"name":"ALLEY","type":"esriFieldTypeString","alias":"ALLEY","length":10},{"name":"HOUSE_NO","type":"esriFieldTypeString","alias":"HOUSE_NO","length":20},{"name":"E_COORD97","type":"esriFieldTypeDouble","alias":"E_COORD97"},{"name":"N_COORD97","type":"esriFieldTypeDouble","alias":"N_COORD97"},{"name":"ADDRESS","type":"esriFieldTypeString","alias":"ADDRESS","length":50},{"name":"OBJECTID","type":"esriFieldTypeOID","alias":"OBJECTID"}],"features":[{"attributes":{"ID":239405,"DIS_CODE":0,"TOWNNAME":"白河區","LI":"庄內里","LIN":"13鄰","STREET":"裕農路","SECT":" ","MAREA":" ","LANE":"１６７巷","ALLEY":" ","HOUSE_NO":"１號","E_COORD97":190773.84,"N_COORD97":2583630.2200000002,"ADDRESS":"裕農路１６７巷１號","OBJECTID":239401},"geometry":{"x":190773.84000000171,"y":2583630.2200000025}},{"attributes":{"ID":239406,"DIS_CODE":0,"TOWNNAME":"白河區","LI":"庄內里","LIN":"13鄰","STREET":"裕農路","SECT":" ","MAREA":" ","LANE":"１６７巷","ALLEY":" ","HOUSE_NO":"２０號","E_COORD97":190822.79000000001,"N_COORD97":2583674.2799999998,"ADDRESS":"裕農路１６７巷２０號","OBJECTID":239402},"geometry":{"x":190822.79000000004,"y":2583674.2799999993}},{"attributes":{"ID":239407,"DIS_CODE":0,"TOWNNAME":"白河區","LI":"庄內里","LIN":"13鄰","STREET":"裕農路","SECT":" ","MAREA":" ","LANE":"１６７巷","ALLEY":" ","HOUSE_NO":"２號","E_COORD97":190794.73000000001,"N_COORD97":2583632.5499999998,"ADDRESS":"裕農路１６７巷２號","OBJECTID":239403},"geometry":{"x":190794.73000000045,"y":2583632.5500000026}},{"attributes":{"ID":239408,"DIS_CODE":0,"TOWNNAME":"白河區","LI":"庄內里","LIN":"13鄰","STREET":"裕農路","SECT":" ","MAREA":" ","LANE":"１６７巷","ALLEY":" ","HOUSE_NO":"３０號","E_COORD97":190843.44,"N_COORD97":2583663.6499999999,"ADDRESS":"裕農路１６７巷３０號","OBJECTID":239404},"geometry":{"x":190843.44000000134,"y":2583663.6500000004}},{"attributes":{"ID":239409,"DIS_CODE":0,"TOWNNAME":"白河區","LI":"庄內里","LIN":"13鄰","STREET":"裕農路","SECT":" ","MAREA":" ","LANE":"１６７巷","ALLEY":" ","HOUSE_NO":"４號","E_COORD97":190793.57000000001,"N_COORD97":2583635.96,"ADDRESS":"裕農路１６７巷４號","OBJECTID":239405},"geometry":{"x":190793.57000000123,"y":2583635.9600000028}},{"attributes":{"ID":239410,"DIS_CODE":0,"TOWNNAME":"白河區","LI":"庄內里","LIN":"13鄰","STREET":"裕農路","SECT":" ","MAREA":" ","LANE":"１６７巷","ALLEY":" ","HOUSE_NO":"６號","E_COORD97":190820.72,"N_COORD97":2583638.9100000001,"ADDRESS":"裕農路１６７巷６號","OBJECTID":239406},"geometry":{"x":190820.72000000067,"y":2583638.910000002}},{"attributes":{"ID":239411,"DIS_CODE":0,"TOWNNAME":"歸仁區","LI":"南興里","LIN":"14鄰","STREET":"文化街","SECT":"三段","MAREA":" ","LANE":" ","ALLEY":" ","HOUSE_NO":"５１６號","E_COORD97":175825.44,"N_COORD97":2541235.3300000001,"ADDRESS":"文化街三段５１６號","OBJECTID":239407},"geometry":{"x":175825.43999999948,"y":2541235.3300000038}},{"attributes":{"ID":239412,"DIS_CODE":0,"TOWNNAME":"歸仁區","LI":"後市里","LIN":"14鄰","STREET":"中山路","SECT":"二段","MAREA":" ","LANE":" ","ALLEY":" ","HOUSE_NO":"１８７號","E_COORD97":177187.79000000001,"N_COORD97":2540816.25,"ADDRESS":"中山路二段１８７號","OBJECTID":239408},"geometry":{"x":177187.79000000097,"y":2540816.2500000019}},{"attributes":{"ID":239413,"DIS_CODE":0,"TOWNNAME":"歸仁區","LI":"新厝里","LIN":"14鄰","STREET":"大成路","SECT":" ","MAREA":" ","LANE":" ","ALLEY":" ","HOUSE_NO":"４５號","E_COORD97":177612.87,"N_COORD97":2540426.5899999999,"ADDRESS":"大成路４５號","OBJECTID":239409},"geometry":{"x":177612.87000000104,"y":2540426.5900000017}},{"attributes":{"ID":239414,"DIS_CODE":0,"TOWNNAME":"歸仁區","LI":"許厝里","LIN":"14鄰","STREET":"中山路","SECT":"一段","MAREA":" ","LANE":" ","ALLEY":" ","HOUSE_NO":"４２２號","E_COORD97":178134.34,"N_COORD97":2540724.6499999999,"ADDRESS":"中山路一段４２２號","OBJECTID":239410},"geometry":{"x":178134.33999999985,"y":2540724.6500000041}},{"attributes":{"ID":239415,"DIS_CODE":0,"TOWNNAME":"南區","LI":"新生里","LIN":"16鄰","STREET":"大同路","SECT":"二段","MAREA":" ","LANE":"１１２巷","ALLEY":" ","HOUSE_NO":"７號六樓之１","E_COORD97":169190.73999999999,"N_COORD97":2542233.7200000002,"ADDRESS":"大同路二段１１２巷７號六樓之１","OBJECTID":239411},"geometry":{"x":169190.74000000115,"y":2542233.7200000025}},{"attributes":{"ID":239416,"DIS_CODE":0,"TOWNNAME":"永康區","LI":"復華里","LIN":"15鄰","STREET":"國華街","SECT":" ","MAREA":" ","LANE":"８７巷","ALLEY":" ","HOUSE_NO":"１號","E_COORD97":172842.53,"N_COORD97":2545876.7400000002,"ADDRESS":"國華街８７巷１號","OBJECTID":239412},"geometry":{"x":172842.53000000026,"y":2545876.7400000002}},{"attributes":{"ID":239417,"DIS_CODE":0,"TOWNNAME":"白河區","LI":"庄內里","LIN":"13鄰","STREET":"裕農路","SECT":" ","MAREA":" ","LANE":"１６７巷","ALLEY":" ","HOUSE_NO":"８號","E_COORD97":190803.38,"N_COORD97":2583651.0800000001,"ADDRESS":"裕農路１６７巷８號","OBJECTID":239413},"geometry":{"x":190803.37999999989,"y":2583651.0800000019}},{"attributes":{"ID":239418,"DIS_CODE":0,"TOWNNAME":"西港區","LI":"慶安里","LIN":"13鄰","STREET":"進學街","SECT":" ","MAREA":" ","LANE":"６１巷","ALLEY":" ","HOUSE_NO":"５號","E_COORD97":168115.16,"N_COORD97":2558025.5299999998,"ADDRESS":"進學街６１巷５號","OBJECTID":239414},"geometry":{"x":168115.16000000015,"y":2558025.5300000031}},{"attributes":{"ID":239419,"DIS_CODE":0,"TOWNNAME":"永康區","LI":"埔園里","LIN":"13鄰","STREET":"中山路","SECT":" ","MAREA":" ","LANE":"２０７巷","ALLEY":" ","HOUSE_NO":"１０號","E_COORD97":173624.88,"N_COORD97":2548119.7400000002,"ADDRESS":"中山路２０７巷１０號","OBJECTID":239415},"geometry":{"x":173624.87999999989,"y":2548119.7400000021}},{"attributes":{"ID":239420,"DIS_CODE":0,"TOWNNAME":"永康區","LI":"埔園里","LIN":"13鄰","STREET":"中山路","SECT":" ","MAREA":" ","LANE":"２０７巷","ALLEY":" ","HOUSE_NO":"４９號","E_COORD97":173567.28,"N_COORD97":2548135.2400000002,"ADDRESS":"中山路２０７巷４９號","OBJECTID":239416},"geometry":{"x":173567.28000000119,"y":2548135.2399999984}},{"attributes":{"ID":239421,"DIS_CODE":0,"TOWNNAME":"永康區","LI":"甲頂里","LIN":"13鄰","STREET":"大武街","SECT":" ","MAREA":" ","LANE":"１８巷","ALLEY":" ","HOUSE_NO":"４８號","E_COORD97":170406.56,"N_COORD97":2546584.4900000002,"ADDRESS":"大武街１８巷４８號","OBJECTID":239417},"geometry":{"x":170406.56000000052,"y":2546584.4900000039}},{"attributes":{"ID":239422,"DIS_CODE":0,"TOWNNAME":"永康區","LI":"甲頂里","LIN":"13鄰","STREET":"正新街","SECT":" ","MAREA":" ","LANE":"１７巷","ALLEY":" ","HOUSE_NO":"９號","E_COORD97":170368.14000000001,"N_COORD97":2546564.25,"ADDRESS":"正新街１７巷９號","OBJECTID":239418},"geometry":{"x":170368.13999999966,"y":2546564.25}},{"attributes":{"ID":239423,"DIS_CODE":0,"TOWNNAME":"永康區","LI":"甲頂里","LIN":"13鄰","STREET":"大武街","SECT":" ","MAREA":" ","LANE":"１８巷","ALLEY":" ","HOUSE_NO":"４４號","E_COORD97":170399.41,"N_COORD97":2546589.2400000002,"ADDRESS":"大武街１８巷４４號","OBJECTID":239419},"geometry":{"x":170399.41000000108,"y":2546589.2400000039}},{"attributes":{"ID":239424,"DIS_CODE":0,"TOWNNAME":"永康區","LI":"西橋里","LIN":"13鄰","STREET":"大橋一街","SECT":" ","MAREA":" ","LANE":"３１巷","ALLEY":" ","HOUSE_NO":"５號","E_COORD97":170573.07000000001,"N_COORD97":2546250.9900000002,"ADDRESS":"大橋一街３１巷５號","OBJECTID":239420},"geometry":{"x":170573.07000000123,"y":2546250.9900000002}},{"attributes":{"ID":239425,"DIS_CODE":0,"TOWNNAME":"永康區","LI":"西橋里","LIN":"13鄰","STREET":"大橋一街","SECT":" ","MAREA":" ","LANE":"３１巷","ALLEY":" ","HOUSE_NO":"１號","E_COORD97":170576.73000000001,"N_COORD97":2546242,"ADDRESS":"大橋一街３１巷１號","OBJECTID":239421},"geometry":{"x":170576.73000000045,"y":2546242.0000000019}},{"attributes":{"ID":239426,"DIS_CODE":0,"TOWNNAME":"永康區","LI":"西勢里","LIN":"13鄰","STREET":"西勢路","SECT":" ","MAREA":" ","LANE":"９３巷","ALLEY":" ","HOUSE_NO":"１１號","E_COORD97":176139.54999999999,"N_COORD97":2546681.6099999999,"ADDRESS":"西勢路９３巷１１號","OBJECTID":239422},"geometry":{"x":176139.55000000168,"y":2546681.6100000013}},{"attributes":{"ID":239427,"DIS_CODE":0,"TOWNNAME":"永康區","LI":"西勢里","LIN":"13鄰","STREET":"西勢路","SECT":" ","MAREA":" ","LANE":"１９巷","ALLEY":" ","HOUSE_NO":"４８號","E_COORD97":176178.76999999999,"N_COORD97":2546629.3500000001,"ADDRESS":"西勢路１９巷４８號","OBJECTID":239423},"geometry":{"x":176178.77000000048,"y":2546629.3500000015}},{"attributes":{"ID":239428,"DIS_CODE":0,"TOWNNAME":"永康區","LI":"尚頂里","LIN":"13鄰","STREET":"正南一街","SECT":" ","MAREA":" ","LANE":"１０５巷","ALLEY":" ","HOUSE_NO":"１號","E_COORD97":170962.12,"N_COORD97":2547231.1200000001,"ADDRESS":"正南一街１０５巷１號","OBJECTID":239424},"geometry":{"x":170962.11999999918,"y":2547231.120000001}},{"attributes":{"ID":239429,"DIS_CODE":0,"TOWNNAME":"永康區","LI":"尚頂里","LIN":"13鄰","STREET":"正南一街","SECT":" ","MAREA":" ","LANE":"１０５巷","ALLEY":" ","HOUSE_NO":"２６號","E_COORD97":171027.98999999999,"N_COORD97":2547156.25,"ADDRESS":"正南一街１０５巷２６號","OBJECTID":239425},"geometry":{"x":171027.99000000115,"y":2547156.2500000019}},{"attributes":{"ID":239430,"DIS_CODE":0,"TOWNNAME":"永康區","LI":"西勢里","LIN":"13鄰","STREET":"西勢路","SECT":" ","MAREA":" ","LANE":"１９巷","ALLEY":" ","HOUSE_NO":"３４號","E_COORD97":176176.07000000001,"N_COORD97":2546708.7799999998,"ADDRESS":"西勢路１９巷３４號","OBJECTID":239426},"geometry":{"x":176176.07000000123,"y":2546708.7799999993}},{"attributes":{"ID":239431,"DIS_CODE":0,"TOWNNAME":"玉井區","LI":"玉井里","LIN":"14鄰","STREET":"中正路","SECT":" ","MAREA":" ","LANE":" ","ALLEY":" ","HOUSE_NO":"１５０號","E_COORD97":194911.35000000001,"N_COORD97":2558204.2400000002,"ADDRESS":"中正路１５０號","OBJECTID":239427},"geometry":{"x":194911.3499999987,"y":2558204.2400000002}},{"attributes":{"ID":239432,"DIS_CODE":0,"TOWNNAME":"玉井區","LI":"玉井里","LIN":"14鄰","STREET":"中正路","SECT":" ","MAREA":" ","LANE":" ","ALLEY":" ","HOUSE_NO":"１３４號","E_COORD97":194883.06,"N_COORD97":2558191.2400000002,"ADDRESS":"中正路１３４號","OBJECTID":239428},"geometry":{"x":194883.06000000052,"y":2558191.2400000039}},{"attributes":{"ID":239433,"DIS_CODE":0,"TOWNNAME":"永康區","LI":"復國里","LIN":"5鄰","STREET":"復國一路","SECT":" ","MAREA":" ","LANE":"９０巷","ALLEY":" ","HOUSE_NO":"４０號","E_COORD97":172790.48999999999,"N_COORD97":2544902.77,"ADDRESS":"復國一路９０巷４０號","OBJECTID":239429},"geometry":{"x":172790.48999999929,"y":2544902.7699999996}},{"attributes":{"ID":239434,"DIS_CODE":0,"TOWNNAME":"永康區","LI":"崑山里","LIN":"15鄰","STREET":"大灣路","SECT":" ","MAREA":" ","LANE":"９４２巷","ALLEY":" ","HOUSE_NO":"２７號","E_COORD97":173616.29000000001,"N_COORD97":2544480,"ADDRESS":"大灣路９４２巷２７號","OBJECTID":239430},"geometry":{"x":173616.29000000097,"y":2544480.0000000019}},{"attributes":{"ID":239435,"DIS_CODE":0,"TOWNNAME":"永康區","LI":"復華里","LIN":"15鄰","STREET":"國華街","SECT":" ","MAREA":" ","LANE":"８９巷","ALLEY":" ","HOUSE_NO":"３號","E_COORD97":172827.98000000001,"N_COORD97":2545915.25,"ADDRESS":"國華街８９巷３號","OBJECTID":239431},"geometry":{"x":172827.98000000045,"y":2545915.2500000019}},{"attributes":{"ID":239436,"DIS_CODE":0,"TOWNNAME":"永康區","LI":"勝利里","LIN":"33鄰","STREET":"勝利街","SECT":" ","MAREA":" ","LANE":"３０巷","ALLEY":" ","HOUSE_NO":"２５號","E_COORD97":171418.25,"N_COORD97":2544354.0099999998,"ADDRESS":"勝利街３０巷２５號","OBJECTID":239432},"geometry":{"x":171418.25,"y":2544354.0100000016}},{"attributes":{"ID":239437,"DIS_CODE":0,"TOWNNAME":"永康區","LI":"復國里","LIN":"9鄰","STREET":"復國一路","SECT":" ","MAREA":" ","LANE":"２１０巷","ALLEY":" ","HOUSE_NO":"２９號","E_COORD97":172792.39999999999,"N_COORD97":2545242.77,"ADDRESS":"復國一路２１０巷２９號","OBJECTID":239433},"geometry":{"x":172792.40000000037,"y":2545242.7700000014}},{"attributes":{"ID":239438,"DIS_CODE":0,"TOWNNAME":"永康區","LI":"復國里","LIN":"23鄰","STREET":"復華三街","SECT":" ","MAREA":" ","LANE":"９０巷","ALLEY":" ","HOUSE_NO":"９號","E_COORD97":172577.01999999999,"N_COORD97":2545599.0299999998,"ADDRESS":"復華三街９０巷９號","OBJECTID":239434},"geometry":{"x":172577.01999999955,"y":2545599.0299999993}},{"attributes":{"ID":239439,"DIS_CODE":0,"TOWNNAME":"永康區","LI":"尚頂里","LIN":"13鄰","STREET":"正南一街","SECT":" ","MAREA":" ","LANE":"１０５巷","ALLEY":" ","HOUSE_NO":"１１號","E_COORD97":171005.64999999999,"N_COORD97":2547200.98,"ADDRESS":"正南一街１０５巷１１號","OBJECTID":239435},"geometry":{"x":171005.65000000037,"y":2547200.9800000004}},{"attributes":{"ID":239440,"DIS_CODE":0,"TOWNNAME":"永康區","LI":"尚頂里","LIN":"13鄰","STREET":"正南一街","SECT":" ","MAREA":" ","LANE":"１０５巷","ALLEY":" ","HOUSE_NO":"２號","E_COORD97":170966.70999999999,"N_COORD97":2547200.2400000002,"ADDRESS":"正南一街１０５巷２號","OBJECTID":239436},"geometry":{"x":170966.71000000089,"y":2547200.2400000021}},{"attributes":{"ID":239441,"DIS_CODE":0,"TOWNNAME":"永康區","LI":"尚頂里","LIN":"13鄰","STREET":"正南一街","SECT":" ","MAREA":" ","LANE":"１０５巷","ALLEY":" ","HOUSE_NO":"１２號","E_COORD97":170995.28,"N_COORD97":2547186.2400000002,"ADDRESS":"正南一街１０５巷１２號","OBJECTID":239437},"geometry":{"x":170995.28000000212,"y":2547186.2400000039}},{"attributes":{"ID":239442,"DIS_CODE":0,"TOWNNAME":"玉井區","LI":"玉田里","LIN":"14鄰","STREET":"民權路","SECT":" ","MAREA":" ","LANE":" ","ALLEY":" ","HOUSE_NO":"１２２號","E_COORD97":194741.67999999999,"N_COORD97":2557903.29,"ADDRESS":"民權路１２２號","OBJECTID":239438},"geometry":{"x":194741.68000000063,"y":2557903.2899999991}},{"attributes":{"ID":239443,"DIS_CODE":0,"TOWNNAME":"玉井區","LI":"玉田里","LIN":"14鄰","STREET":"民權路","SECT":" ","MAREA":" ","LANE":" ","ALLEY":" ","HOUSE_NO":"１００號","E_COORD97":194771.17999999999,"N_COORD97":2557912.29,"ADDRESS":"民權路１００號","OBJECTID":239439},"geometry":{"x":194771.1799999997,"y":2557912.290000001}},{"attributes":{"ID":239444,"DIS_CODE":0,"TOWNNAME":"玉井區","LI":"玉田里","LIN":"14鄰","STREET":"民權路","SECT":" ","MAREA":" ","LANE":" ","ALLEY":" ","HOUSE_NO":"１１３號","E_COORD97":194782.57999999999,"N_COORD97":2557884.2799999998,"ADDRESS":"民權路１１３號","OBJECTID":239440},"geometry":{"x":194782.58000000007,"y":2557884.2799999993}},{"attributes":{"ID":239445,"DIS_CODE":0,"TOWNNAME":"歸仁區","LI":"武東里","LIN":"6鄰","STREET":"武東一街","SECT":" ","MAREA":" ","LANE":" ","ALLEY":" ","HOUSE_NO":"２７號","E_COORD97":175565.73999999999,"N_COORD97":2535475.25,"ADDRESS":"武東一街２７號","OBJECTID":239441},"geometry":{"x":175565.74000000209,"y":2535475.2499999981}},{"attributes":{"ID":239446,"DIS_CODE":0,"TOWNNAME":"歸仁區","LI":"南保里","LIN":"50鄰","STREET":"大順街","SECT":" ","MAREA":" ","LANE":" ","ALLEY":" ","HOUSE_NO":"２７７號","E_COORD97":176689.37,"N_COORD97":2540597.25,"ADDRESS":"大順街２７７號","OBJECTID":239442},"geometry":{"x":176689.37000000104,"y":2540597.25}},{"attributes":{"ID":239447,"DIS_CODE":0,"TOWNNAME":"玉井區","LI":"玉田里","LIN":"14鄰","STREET":"太子街","SECT":" ","MAREA":" ","LANE":" ","ALLEY":" ","HOUSE_NO":"１９號","E_COORD97":194785.67999999999,"N_COORD97":2557962.25,"ADDRESS":"太子街１９號","OBJECTID":239443},"geometry":{"x":194785.68000000156,"y":2557962.25}},{"attributes":{"ID":239448,"DIS_CODE":0,"TOWNNAME":"永康區","LI":"復國里","LIN":"5鄰","STREET":"復國一路","SECT":" ","MAREA":" ","LANE":"９０巷","ALLEY":" ","HOUSE_NO":"３２號","E_COORD97":172779.85000000001,"N_COORD97":2544924.77,"ADDRESS":"復國一路９０巷３２號","OBJECTID":239444},"geometry":{"x":172779.85000000056,"y":2544924.7700000014}},{"attributes":{"ID":239449,"DIS_CODE":0,"TOWNNAME":"永康區","LI":"復國里","LIN":"5鄰","STREET":"復國一路","SECT":" ","MAREA":" ","LANE":"９０巷","ALLEY":" ","HOUSE_NO":"４６號","E_COORD97":172800.70000000001,"N_COORD97":2544895.5299999998,"ADDRESS":"復國一路９０巷４６號","OBJECTID":239445},"geometry":{"x":172800.70000000019,"y":2544895.5300000012}},{"attributes":{"ID":239450,"DIS_CODE":0,"TOWNNAME":"永康區","LI":"西橋里","LIN":"13鄰","STREET":"大橋三街","SECT":" ","MAREA":" ","LANE":"１０巷","ALLEY":" ","HOUSE_NO":"４號","E_COORD97":170499.91,"N_COORD97":2546358.7400000002,"ADDRESS":"大橋三街１０巷４號","OBJECTID":239446},"geometry":{"x":170499.91000000108,"y":2546358.7400000039}},{"attributes":{"ID":239451,"DIS_CODE":0,"TOWNNAME":"永康區","LI":"安康里","LIN":"13鄰","STREET":"中華路","SECT":" ","MAREA":" ","LANE":"６１９巷","ALLEY":" ","HOUSE_NO":"１１０號","E_COORD97":170830.95000000001,"N_COORD97":2545982.9900000002,"ADDRESS":"中華路６１９巷１１０號","OBJECTID":239447},"geometry":{"x":170830.95000000019,"y":2545982.9900000002}},{"attributes":{"ID":239452,"DIS_CODE":0,"TOWNNAME":"玉井區","LI":"玉井里","LIN":"14鄰","STREET":"中正路","SECT":" ","MAREA":" ","LANE":" ","ALLEY":" ","HOUSE_NO":"１３０號","E_COORD97":194876.26000000001,"N_COORD97":2558185.2400000002,"ADDRESS":"中正路１３０號","OBJECTID":239448},"geometry":{"x":194876.25999999978,"y":2558185.2400000021}},{"attributes":{"ID":239453,"DIS_CODE":0,"TOWNNAME":"玉井區","LI":"玉田里","LIN":"14鄰","STREET":"民權路","SECT":" ","MAREA":" ","LANE":" ","ALLEY":" ","HOUSE_NO":"１００之１號","E_COORD97":194789.79000000001,"N_COORD97":2557910.2999999998,"ADDRESS":"民權路１００之１號","OBJECTID":239449},"geometry":{"x":194789.79000000004,"y":2557910.3000000026}},{"attributes":{"ID":239454,"DIS_CODE":0,"TOWNNAME":"永康區","LI":"甲頂里","LIN":"13鄰","STREET":"大武街","SECT":" ","MAREA":" ","LANE":"１８巷","ALLEY":" ","HOUSE_NO":"３４號","E_COORD97":170371.28,"N_COORD97":2546612.8399999999,"ADDRESS":"大武街１８巷３４號","OBJECTID":239450},"geometry":{"x":170371.27999999933,"y":2546612.8400000017}},{"attributes":{"ID":239455,"DIS_CODE":0,"TOWNNAME":"永康區","LI":"甲頂里","LIN":"13鄰","STREET":"正新街","SECT":" ","MAREA":" ","LANE":"１７巷","ALLEY":" ","HOUSE_NO":"１１號","E_COORD97":170366.14000000001,"N_COORD97":2546560.5,"ADDRESS":"正新街１７巷１１號","OBJECTID":239451},"geometry":{"x":170366.13999999966,"y":2546560.5000000037}},{"attributes":{"ID":239456,"DIS_CODE":0,"TOWNNAME":"東區","LI":"後甲里","LIN":"13鄰","STREET":"裕農路","SECT":" ","MAREA":" ","LANE":"６２１巷","ALLEY":" ","HOUSE_NO":"３１號","E_COORD97":171582.19,"N_COORD97":2543347.0299999998,"ADDRESS":"裕農路６２１巷３１號","OBJECTID":239452},"geometry":{"x":171582.19000000041,"y":2543347.0299999993}},{"attributes":{"ID":239457,"DIS_CODE":0,"TOWNNAME":"東區","LI":"泉南里","LIN":"13鄰","STREET":"光華街","SECT":" ","MAREA":" ","LANE":"２７５巷","ALLEY":" ","HOUSE_NO":"３號","E_COORD97":169406.04999999999,"N_COORD97":2543024.6899999999,"ADDRESS":"光華街２７５巷３號","OBJECTID":239453},"geometry":{"x":169406.04999999888,"y":2543024.6899999995}},{"attributes":{"ID":239458,"DIS_CODE":0,"TOWNNAME":"東區","LI":"大學里","LIN":"13鄰","STREET":"東寧路","SECT":" ","MAREA":" ","LANE":"９３巷","ALLEY":" ","HOUSE_NO":"１７號","E_COORD97":170298.67999999999,"N_COORD97":2543696.4500000002,"ADDRESS":"東寧路９３巷１７號","OBJECTID":239454},"geometry":{"x":170298.68000000156,"y":2543696.4500000011}},{"attributes":{"ID":239459,"DIS_CODE":0,"TOWNNAME":"東區","LI":"大學里","LIN":"13鄰","STREET":"東寧路","SECT":" ","MAREA":" ","LANE":"９３巷","ALLEY":" ","HOUSE_NO":"１９號","E_COORD97":170303.53,"N_COORD97":2543696.3799999999,"ADDRESS":"東寧路９３巷１９號","OBJECTID":239455},"geometry":{"x":170303.53000000212,"y":2543696.3800000008}},{"attributes":{"ID":239460,"DIS_CODE":0,"TOWNNAME":"永康區","LI":"復華里","LIN":"25鄰","STREET":"復華七街","SECT":" ","MAREA":" ","LANE":"２２５巷","ALLEY":" ","HOUSE_NO":"４５號","E_COORD97":172825.91,"N_COORD97":2546427.02,"ADDRESS":"復華七街２２５巷４５號","OBJECTID":239456},"geometry":{"x":172825.91000000015,"y":2546427.0199999996}},{"attributes":{"ID":239461,"DIS_CODE":0,"TOWNNAME":"永康區","LI":"勝利里","LIN":"7鄰","STREET":"勝利街","SECT":" ","MAREA":" ","LANE":"２２巷","ALLEY":" ","HOUSE_NO":"３５號","E_COORD97":171263.28,"N_COORD97":2544664.0099999998,"ADDRESS":"勝利街２２巷３５號","OBJECTID":239457},"geometry":{"x":171263.28000000119,"y":2544664.0099999998}},{"attributes":{"ID":239462,"DIS_CODE":0,"TOWNNAME":"永康區","LI":"崑山里","LIN":"15鄰","STREET":"大灣路","SECT":" ","MAREA":" ","LANE":"９６０巷","ALLEY":" ","HOUSE_NO":"８號","E_COORD97":173587.87,"N_COORD97":2544458.5,"ADDRESS":"大灣路９６０巷８號","OBJECTID":239458},"geometry":{"x":173587.87000000011,"y":2544458.5000000019}},{"attributes":{"ID":239463,"DIS_CODE":0,"TOWNNAME":"東區","LI":"大學里","LIN":"13鄰","STREET":"東寧路","SECT":" ","MAREA":" ","LANE":"９３巷","ALLEY":" ","HOUSE_NO":"２１號","E_COORD97":170308.78,"N_COORD97":2543696.3799999999,"ADDRESS":"東寧路９３巷２１號","OBJECTID":239459},"geometry":{"x":170308.78000000119,"y":2543696.3800000008}},{"attributes":{"ID":239464,"DIS_CODE":0,"TOWNNAME":"東區","LI":"大學里","LIN":"13鄰","STREET":"東寧路","SECT":" ","MAREA":" ","LANE":"９３巷","ALLEY":" ","HOUSE_NO":"２７號","E_COORD97":170332.59,"N_COORD97":2543695.7599999998,"ADDRESS":"東寧路９３巷２７號","OBJECTID":239460},"geometry":{"x":170332.58999999985,"y":2543695.7599999998}},{"attributes":{"ID":239465,"DIS_CODE":0,"TOWNNAME":"東區","LI":"大學里","LIN":"13鄰","STREET":"東寧路","SECT":" ","MAREA":" ","LANE":"９３巷","ALLEY":" ","HOUSE_NO":"３號","E_COORD97":170329.57999999999,"N_COORD97":2543710.3199999998,"ADDRESS":"東寧路９３巷３號","OBJECTID":239461},"geometry":{"x":170329.58000000007,"y":2543710.3199999984}},{"attributes":{"ID":239466,"DIS_CODE":0,"TOWNNAME":"東區","LI":"大學里","LIN":"13鄰","STREET":"東寧路","SECT":" ","MAREA":" ","LANE":"９３巷","ALLEY":" ","HOUSE_NO":"５號","E_COORD97":170315.47,"N_COORD97":2543710.1200000001,"ADDRESS":"東寧路９３巷５號","OBJECTID":239462},"geometry":{"x":170315.47000000067,"y":2543710.1200000029}},{"attributes":{"ID":239467,"DIS_CODE":0,"TOWNNAME":"玉井區","LI":"玉田里","LIN":"14鄰","STREET":"太子街","SECT":" ","MAREA":" ","LANE":" ","ALLEY":" ","HOUSE_NO":"２１號","E_COORD97":194786.09,"N_COORD97":2557967.25,"ADDRESS":"太子街２１號","OBJECTID":239463},"geometry":{"x":194786.08999999985,"y":2557967.2500000037}},{"attributes":{"ID":239468,"DIS_CODE":0,"TOWNNAME":"玉井區","LI":"玉田里","LIN":"14鄰","STREET":"太子街","SECT":" ","MAREA":" ","LANE":" ","ALLEY":" ","HOUSE_NO":"１７號","E_COORD97":194788.89000000001,"N_COORD97":2557950.2599999998,"ADDRESS":"太子街１７號","OBJECTID":239464},"geometry":{"x":194788.88999999966,"y":2557950.2600000016}},{"attributes":{"ID":239469,"DIS_CODE":0,"TOWNNAME":"玉井區","LI":"玉田里","LIN":"14鄰","STREET":"民權路","SECT":" ","MAREA":" ","LANE":" ","ALLEY":" ","HOUSE_NO":"１１３之１號","E_COORD97":194789.38,"N_COORD97":2557884.29,"ADDRESS":"民權路１１３之１號","OBJECTID":239465},"geometry":{"x":194789.37999999896,"y":2557884.2899999991}},{"attributes":{"ID":239470,"DIS_CODE":0,"TOWNNAME":"永康區","LI":"崑山里","LIN":"22鄰","STREET":"大灣路","SECT":" ","MAREA":" ","LANE":"７９８巷","ALLEY":" ","HOUSE_NO":"３１號","E_COORD97":174023.97,"N_COORD97":2544619.9199999999,"ADDRESS":"大灣路７９８巷３１號","OBJECTID":239466},"geometry":{"x":174023.96999999974,"y":2544619.9199999999}},{"attributes":{"ID":239471,"DIS_CODE":0,"TOWNNAME":"永康區","LI":"崑山里","LIN":"31鄰","STREET":"大灣路","SECT":" ","MAREA":" ","LANE":"７９８巷","ALLEY":" ","HOUSE_NO":"５３號","E_COORD97":174070.85000000001,"N_COORD97":2544743.4900000002,"ADDRESS":"大灣路７９８巷５３號","OBJECTID":239467},"geometry":{"x":174070.85000000149,"y":2544743.4900000039}},{"attributes":{"ID":239472,"DIS_CODE":0,"TOWNNAME":"東區","LI":"大學里","LIN":"13鄰","STREET":"東寧路","SECT":" ","MAREA":" ","LANE":"９３巷","ALLEY":" ","HOUSE_NO":"７號","E_COORD97":170306.23000000001,"N_COORD97":2543710.9500000002,"ADDRESS":"東寧路９３巷７號","OBJECTID":239468},"geometry":{"x":170306.23000000138,"y":2543710.9499999993}},{"attributes":{"ID":239473,"DIS_CODE":0,"TOWNNAME":"東區","LI":"大學里","LIN":"13鄰","STREET":"東寧路","SECT":" ","MAREA":" ","LANE":"９３巷","ALLEY":" ","HOUSE_NO":"９號","E_COORD97":170290.81,"N_COORD97":2543711.4100000001,"ADDRESS":"東寧路９３巷９號","OBJECTID":239469},"geometry":{"x":170290.81000000145,"y":2543711.4100000001}},{"attributes":{"ID":239474,"DIS_CODE":0,"TOWNNAME":"東區","LI":"忠孝里","LIN":"13鄰","STREET":"榮譽街","SECT":" ","MAREA":" ","LANE":"８７巷","ALLEY":" ","HOUSE_NO":"１３號","E_COORD97":169725.261012,"N_COORD97":2541751.67533,"ADDRESS":"榮譽街８７巷１３號","OBJECTID":239470},"geometry":{"x":169725.26101200096,"y":2541751.6753300019}},{"attributes":{"ID":239475,"DIS_CODE":0,"TOWNNAME":"玉井區","LI":"玉田里","LIN":"14鄰","STREET":"太子街","SECT":" ","MAREA":" ","LANE":" ","ALLEY":" ","HOUSE_NO":"１１號","E_COORD97":194788.79000000001,"N_COORD97":2557936.2599999998,"ADDRESS":"太子街１１號","OBJECTID":239471},"geometry":{"x":194788.79000000097,"y":2557936.2600000035}},{"attributes":{"ID":239476,"DIS_CODE":0,"TOWNNAME":"玉井區","LI":"玉田里","LIN":"14鄰","STREET":"民權路","SECT":" ","MAREA":" ","LANE":" ","ALLEY":" ","HOUSE_NO":"１１５號","E_COORD97":194770.29000000001,"N_COORD97":2557884.2799999998,"ADDRESS":"民權路１１５號","OBJECTID":239472},"geometry":{"x":194770.29000000097,"y":2557884.2799999993}},{"attributes":{"ID":239477,"DIS_CODE":0,"TOWNNAME":"玉井區","LI":"玉田里","LIN":"14鄰","STREET":"太子街","SECT":" ","MAREA":" ","LANE":" ","ALLEY":" ","HOUSE_NO":"１５號","E_COORD97":194789.79000000001,"N_COORD97":2557941.2599999998,"ADDRESS":"太子街１５號","OBJECTID":239473},"geometry":{"x":194789.79000000004,"y":2557941.2600000016}},{"attributes":{"ID":239478,"DIS_CODE":0,"TOWNNAME":"永康區","LI":"復國里","LIN":"9鄰","STREET":"復國一路","SECT":" ","MAREA":" ","LANE":"２１０巷","ALLEY":" ","HOUSE_NO":"１４號","E_COORD97":172789.75,"N_COORD97":2545196.8100000001,"ADDRESS":"復國一路２１０巷１４號","OBJECTID":239474},"geometry":{"x":172789.75,"y":2545196.8100000024}},{"attributes":{"ID":239479,"DIS_CODE":0,"TOWNNAME":"永康區","LI":"復國里","LIN":"16鄰","STREET":"復國二路","SECT":" ","MAREA":" ","LANE":"１９６巷","ALLEY":" ","HOUSE_NO":"１３號","E_COORD97":172993.01000000001,"N_COORD97":2545786.0299999998,"ADDRESS":"復國二路１９６巷１３號","OBJECTID":239475},"geometry":{"x":172993.00999999978,"y":2545786.0299999993}},{"attributes":{"ID":239480,"DIS_CODE":0,"TOWNNAME":"東區","LI":"忠孝里","LIN":"13鄰","STREET":"榮譽街","SECT":" ","MAREA":" ","LANE":"８７巷","ALLEY":" ","HOUSE_NO":"１７號","E_COORD97":169735.85000000001,"N_COORD97":2541755.0899999999,"ADDRESS":"榮譽街８７巷１７號","OBJECTID":239476},"geometry":{"x":169735.84999999963,"y":2541755.089999998}},{"attributes":{"ID":239481,"DIS_CODE":0,"TOWNNAME":"東區","LI":"忠孝里","LIN":"13鄰","STREET":"榮譽街","SECT":" ","MAREA":" ","LANE":"８７巷","ALLEY":" ","HOUSE_NO":"１９號","E_COORD97":169738.69,"N_COORD97":2541763.52,"ADDRESS":"榮譽街８７巷１９號","OBJECTID":239477},"geometry":{"x":169738.69000000134,"y":2541763.5200000014}},{"attributes":{"ID":239482,"DIS_CODE":0,"TOWNNAME":"東區","LI":"忠孝里","LIN":"13鄰","STREET":"榮譽街","SECT":" ","MAREA":" ","LANE":"８７巷","ALLEY":" ","HOUSE_NO":"２７號","E_COORD97":169725.51000000001,"N_COORD97":2541779.5,"ADDRESS":"榮譽街８７巷２７號","OBJECTID":239478},"geometry":{"x":169725.51000000071,"y":2541779.5}},{"attributes":{"ID":239483,"DIS_CODE":0,"TOWNNAME":"東區","LI":"忠孝里","LIN":"13鄰","STREET":"榮譽街","SECT":" ","MAREA":" ","LANE":"８７巷","ALLEY":" ","HOUSE_NO":"３７號","E_COORD97":169738.42000000001,"N_COORD97":2541793.54,"ADDRESS":"榮譽街８７巷３７號","OBJECTID":239479},"geometry":{"x":169738.42000000086,"y":2541793.540000001}},{"attributes":{"ID":239484,"DIS_CODE":0,"TOWNNAME":"歸仁區","LI":"六甲里","LIN":"40鄰","STREET":"民生南街","SECT":"二段","MAREA":" ","LANE":" ","ALLEY":" ","HOUSE_NO":"７８４號","E_COORD97":176080.35000000001,"N_COORD97":2539360.29,"ADDRESS":"民生南街二段７８４號","OBJECTID":239480},"geometry":{"x":176080.35000000056,"y":2539360.290000001}},{"attributes":{"ID":239485,"DIS_CODE":0,"TOWNNAME":"學甲區","LI":"慈福里","LIN":"14鄰","STREET":"民生路","SECT":" ","MAREA":" ","LANE":" ","ALLEY":" ","HOUSE_NO":"３８號","E_COORD97":166519.81,"N_COORD97":2570355,"ADDRESS":"民生路３８號","OBJECTID":239481},"geometry":{"x":166519.81000000052,"y":2570355.0000000019}},{"attributes":{"ID":239486,"DIS_CODE":0,"TOWNNAME":"學甲區","LI":"仁得里","LIN":"14鄰","STREET":"和平路","SECT":" ","MAREA":" ","LANE":" ","ALLEY":" ","HOUSE_NO":"２３０號","E_COORD97":165964.01000000001,"N_COORD97":2570270.9100000001,"ADDRESS":"和平路２３０號","OBJECTID":239482},"geometry":{"x":165964.01000000071,"y":2570270.910000002}},{"attributes":{"ID":239487,"DIS_CODE":0,"TOWNNAME":"仁德區","LI":"保安里","LIN":"16鄰","STREET":"中正路","SECT":"一段","MAREA":" ","LANE":"１６４巷","ALLEY":" ","HOUSE_NO":"２號","E_COORD97":171543.14000000001,"N_COORD97":2535698.52,"ADDRESS":"中正路一段１６４巷２號","OBJECTID":239483},"geometry":{"x":171543.14000000153,"y":2535698.5200000014}},{"attributes":{"ID":239488,"DIS_CODE":0,"TOWNNAME":"永康區","LI":"勝利里","LIN":"27鄰","STREET":"勝利街","SECT":" ","MAREA":" ","LANE":"５８巷","ALLEY":" ","HOUSE_NO":"３２號","E_COORD97":171430.35999999999,"N_COORD97":2544658.1800000002,"ADDRESS":"勝利街５８巷３２號","OBJECTID":239484},"geometry":{"x":171430.3600000022,"y":2544658.1800000016}},{"attributes":{"ID":239489,"DIS_CODE":0,"TOWNNAME":"永康區","LI":"勝利里","LIN":"27鄰","STREET":"勝利街","SECT":" ","MAREA":" ","LANE":"５８巷","ALLEY":" ","HOUSE_NO":"２４號","E_COORD97":171413.17000000001,"N_COORD97":2544660.4300000002,"ADDRESS":"勝利街５８巷２４號","OBJECTID":239485},"geometry":{"x":171413.17000000086,"y":2544660.4299999997}},{"attributes":{"ID":239490,"DIS_CODE":0,"TOWNNAME":"永康區","LI":"復華里","LIN":"16鄰","STREET":"國華街","SECT":" ","MAREA":" ","LANE":"９５巷","ALLEY":" ","HOUSE_NO":"１１號","E_COORD97":172778.79999999999,"N_COORD97":2546020.75,"ADDRESS":"國華街９５巷１１號","OBJECTID":239486},"geometry":{"x":172778.79999999981,"y":2546020.7500000019}},{"attributes":{"ID":239491,"DIS_CODE":0,"TOWNNAME":"永康區","LI":"復國里","LIN":"16鄰","STREET":"復國二路","SECT":" ","MAREA":" ","LANE":"２０４巷","ALLEY":" ","HOUSE_NO":"１０號","E_COORD97":172999.39000000001,"N_COORD97":2545806.7799999998,"ADDRESS":"復國二路２０４巷１０號","OBJECTID":239487},"geometry":{"x":172999.3900000006,"y":2545806.7799999993}},{"attributes":{"ID":239492,"DIS_CODE":0,"TOWNNAME":"北門區","LI":"三光里","LIN":"16鄰","STREET":" ","SECT":" ","MAREA":"蘆竹溝","LANE":" ","ALLEY":" ","HOUSE_NO":"３４０號","E_COORD97":157615.89999999999,"N_COORD97":2570358.1800000002,"ADDRESS":"蘆竹溝３４０號","OBJECTID":239488},"geometry":{"x":157615.90000000037,"y":2570358.1799999997}},{"attributes":{"ID":239493,"DIS_CODE":0,"TOWNNAME":"永康區","LI":"復華里","LIN":"16鄰","STREET":"國華街","SECT":" ","MAREA":" ","LANE":"１０２巷","ALLEY":" ","HOUSE_NO":"４５號","E_COORD97":172888.87,"N_COORD97":2546098.48,"ADDRESS":"國華街１０２巷４５號","OBJECTID":239489},"geometry":{"x":172888.87000000011,"y":2546098.4800000004}},{"attributes":{"ID":239494,"DIS_CODE":0,"TOWNNAME":"永康區","LI":"復華里","LIN":"16鄰","STREET":"復華七街","SECT":" ","MAREA":" ","LANE":"１０６巷","ALLEY":" ","HOUSE_NO":"２０號","E_COORD97":172905.85999999999,"N_COORD97":2546138.0099999998,"ADDRESS":"復華七街１０６巷２０號","OBJECTID":239490},"geometry":{"x":172905.86000000127,"y":2546138.0099999998}},{"attributes":{"ID":239495,"DIS_CODE":0,"TOWNNAME":"永康區","LI":"復國里","LIN":"16鄰","STREET":"復國二路","SECT":" ","MAREA":" ","LANE":"２０４巷","ALLEY":" ","HOUSE_NO":"７號","E_COORD97":173001.14000000001,"N_COORD97":2545815.6499999999,"ADDRESS":"復國二路２０４巷７號","OBJECTID":239491},"geometry":{"x":173001.1400000006,"y":2545815.6500000004}},{"attributes":{"ID":239496,"DIS_CODE":0,"TOWNNAME":"永康區","LI":"復華里","LIN":"16鄰","STREET":"復華七街","SECT":" ","MAREA":" ","LANE":"１０６巷","ALLEY":" ","HOUSE_NO":"２２號","E_COORD97":172909.54999999999,"N_COORD97":2546135.0099999998,"ADDRESS":"復華七街１０６巷２２號","OBJECTID":239492},"geometry":{"x":172909.54999999981,"y":2546135.0099999998}},{"attributes":{"ID":239497,"DIS_CODE":0,"TOWNNAME":"東區","LI":"大學里","LIN":"13鄰","STREET":"東寧路","SECT":" ","MAREA":" ","LANE":"９３巷","ALLEY":" ","HOUSE_NO":"２３號","E_COORD97":170318.87,"N_COORD97":2543695.5299999998,"ADDRESS":"東寧路９３巷２３號","OBJECTID":239493},"geometry":{"x":170318.87000000104,"y":2543695.5300000012}},{"attributes":{"ID":239498,"DIS_CODE":0,"TOWNNAME":"東區","LI":"大學里","LIN":"13鄰","STREET":"東寧路","SECT":" ","MAREA":" ","LANE":"９３巷","ALLEY":" ","HOUSE_NO":"２５號","E_COORD97":170327.57999999999,"N_COORD97":2543695.7599999998,"ADDRESS":"東寧路９３巷２５號","OBJECTID":239494},"geometry":{"x":170327.58000000101,"y":2543695.7599999998}},{"attributes":{"ID":239499,"DIS_CODE":0,"TOWNNAME":"學甲區","LI":"仁得里","LIN":"14鄰","STREET":"和平路","SECT":" ","MAREA":" ","LANE":" ","ALLEY":" ","HOUSE_NO":"２３８號","E_COORD97":165969.89000000001,"N_COORD97":2570286.4199999999,"ADDRESS":"和平路２３８號","OBJECTID":239495},"geometry":{"x":165969.8900000006,"y":2570286.4199999981}},{"attributes":{"ID":239500,"DIS_CODE":0,"TOWNNAME":"學甲區","LI":"仁得里","LIN":"14鄰","STREET":"和平路","SECT":" ","MAREA":" ","LANE":" ","ALLEY":" ","HOUSE_NO":"２４０號","E_COORD97":165971.14999999999,"N_COORD97":2570290.7599999998,"ADDRESS":"和平路２４０號","OBJECTID":239496},"geometry":{"x":165971.15000000037,"y":2570290.7599999979}},{"attributes":{"ID":239501,"DIS_CODE":0,"TOWNNAME":"學甲區","LI":"仁得里","LIN":"14鄰","STREET":"和平路","SECT":" ","MAREA":" ","LANE":" ","ALLEY":" ","HOUSE_NO":"２４６號","E_COORD97":165975.26999999999,"N_COORD97":2570303.0099999998,"ADDRESS":"和平路２４６號","OBJECTID":239497},"geometry":{"x":165975.27000000048,"y":2570303.0100000035}},{"attributes":{"ID":239502,"DIS_CODE":0,"TOWNNAME":"學甲區","LI":"仁得里","LIN":"14鄰","STREET":"和平路","SECT":" ","MAREA":" ","LANE":" ","ALLEY":" ","HOUSE_NO":"２５０號","E_COORD97":165975.54999999999,"N_COORD97":2570311.1400000001,"ADDRESS":"和平路２５０號","OBJECTID":239498},"geometry":{"x":165975.55000000075,"y":2570311.1400000025}},{"attributes":{"ID":239503,"DIS_CODE":0,"TOWNNAME":"學甲區","LI":"仁得里","LIN":"14鄰","STREET":"和平路","SECT":" ","MAREA":" ","LANE":" ","ALLEY":" ","HOUSE_NO":"２５２號","E_COORD97":165979.16,"N_COORD97":2570320.21,"ADDRESS":"和平路２５２號","OBJECTID":239499},"geometry":{"x":165979.16000000015,"y":2570320.2100000028}},{"attributes":{"ID":239504,"DIS_CODE":0,"TOWNNAME":"歸仁區","LI":"六甲里","LIN":"25鄰","STREET":"民生南街","SECT":"二段","MAREA":" ","LANE":" ","ALLEY":" ","HOUSE_NO":"６３１號","E_COORD97":176100.64999999999,"N_COORD97":2539310.29,"ADDRESS":"民生南街二段６３１號","OBJECTID":239500},"geometry":{"x":176100.6500000013,"y":2539310.290000001}},{"attributes":{"ID":239505,"DIS_CODE":0,"TOWNNAME":"歸仁區","LI":"南興里","LIN":"40鄰","STREET":"民生南街","SECT":"一段","MAREA":" ","LANE":" ","ALLEY":" ","HOUSE_NO":"３０號","E_COORD97":176264.19,"N_COORD97":2540817.29,"ADDRESS":"民生南街一段３０號","OBJECTID":239501},"geometry":{"x":176264.19000000041,"y":2540817.2899999972}},{"attributes":{"ID":239506,"DIS_CODE":0,"TOWNNAME":"北區","LI":"和順里","LIN":"14鄰","STREET":"民德路","SECT":" ","MAREA":" ","LANE":" ","ALLEY":" ","HOUSE_NO":"１０１號","E_COORD97":168188.07000000001,"N_COORD97":2545153.7799999998,"ADDRESS":"民德路１０１號","OBJECTID":239502},"geometry":{"x":168188.07000000123,"y":2545153.7799999975}},{"attributes":{"ID":239507,"DIS_CODE":0,"TOWNNAME":"北區","LI":"和順里","LIN":"14鄰","STREET":"民德路","SECT":" ","MAREA":" ","LANE":" ","ALLEY":" ","HOUSE_NO":"９７號","E_COORD97":168206.98000000001,"N_COORD97":2545141.4500000002,"ADDRESS":"民德路９７號","OBJECTID":239503},"geometry":{"x":168206.98000000045,"y":2545141.4499999993}},{"attributes":{"ID":239508,"DIS_CODE":0,"TOWNNAME":"麻豆區","LI":"保安里","LIN":"1鄰","STREET":"中正路","SECT":" ","MAREA":" ","LANE":" ","ALLEY":" ","HOUSE_NO":"２３號","E_COORD97":173064.85999999999,"N_COORD97":2564890.7000000002,"ADDRESS":"中正路２３號","OBJECTID":239504},"geometry":{"x":173064.86000000127,"y":2564890.7000000011}},{"attributes":{"ID":239509,"DIS_CODE":0,"TOWNNAME":"永康區","LI":"復華里","LIN":"16鄰","STREET":"國華街","SECT":" ","MAREA":" ","LANE":"１０２巷","ALLEY":" ","HOUSE_NO":"８７號","E_COORD97":172935.5,"N_COORD97":2546185.73,"ADDRESS":"國華街１０２巷８７號","OBJECTID":239505},"geometry":{"x":172935.5,"y":2546185.7300000004}},{"attributes":{"ID":239510,"DIS_CODE":0,"TOWNNAME":"永康區","LI":"復華里","LIN":"16鄰","STREET":"國華街","SECT":" ","MAREA":" ","LANE":"１０２巷","ALLEY":" ","HOUSE_NO":"７５號","E_COORD97":172927.23999999999,"N_COORD97":2546161.73,"ADDRESS":"國華街１０２巷７５號","OBJECTID":239506},"geometry":{"x":172927.24000000022,"y":2546161.7300000004}},{"attributes":{"ID":239511,"DIS_CODE":0,"TOWNNAME":"永康區","LI":"復華里","LIN":"16鄰","STREET":"國華街","SECT":" ","MAREA":" ","LANE":"１０２巷","ALLEY":" ","HOUSE_NO":"４１號","E_COORD97":172880.19,"N_COORD97":2546087.7200000002,"ADDRESS":"國華街１０２巷４１號","OBJECTID":239507},"geometry":{"x":172880.19000000041,"y":2546087.7200000007}},{"attributes":{"ID":239512,"DIS_CODE":0,"TOWNNAME":"永康區","LI":"二王里","LIN":"16鄰","STREET":"忠孝路","SECT":" ","MAREA":" ","LANE":"４５０巷","ALLEY":" ","HOUSE_NO":"１２號","E_COORD97":172515.76000000001,"N_COORD97":2546608.9399999999,"ADDRESS":"忠孝路４５０巷１２號","OBJECTID":239508},"geometry":{"x":172515.76000000071,"y":2546608.9400000013}},{"attributes":{"ID":239513,"DIS_CODE":0,"TOWNNAME":"永康區","LI":"三合里","LIN":"7鄰","STREET":"南工街","SECT":" ","MAREA":" ","LANE":"８７巷","ALLEY":" ","HOUSE_NO":"４號","E_COORD97":172074.06,"N_COORD97":2545692.6200000001,"ADDRESS":"南工街８７巷４號","OBJECTID":239509},"geometry":{"x":172074.06000000145,"y":2545692.6200000048}},{"attributes":{"ID":239514,"DIS_CODE":0,"TOWNNAME":"永康區","LI":"大灣里","LIN":"16鄰","STREET":"大灣路","SECT":" ","MAREA":" ","LANE":"３５６巷","ALLEY":" ","HOUSE_NO":"６號","E_COORD97":174821.56,"N_COORD97":2545131.8399999999,"ADDRESS":"大灣路３５６巷６號","OBJECTID":239510},"geometry":{"x":174821.55999999959,"y":2545131.8400000017}},{"attributes":{"ID":239515,"DIS_CODE":0,"TOWNNAME":"東區","LI":"新東里","LIN":"16鄰","STREET":"裕豐街","SECT":" ","MAREA":" ","LANE":"１４７巷","ALLEY":" ","HOUSE_NO":"３２號","E_COORD97":170700.17000000001,"N_COORD97":2543109.5499999998,"ADDRESS":"裕豐街１４７巷３２號","OBJECTID":239511},"geometry":{"x":170700.16999999993,"y":2543109.5500000045}},{"attributes":{"ID":239516,"DIS_CODE":0,"TOWNNAME":"永康區","LI":"中興里","LIN":"16鄰","STREET":"中華二路","SECT":" ","MAREA":" ","LANE":" ","ALLEY":" ","HOUSE_NO":"１３５號","E_COORD97":171985.72,"N_COORD97":2545425.9900000002,"ADDRESS":"中華二路１３５號","OBJECTID":239512},"geometry":{"x":171985.72000000067,"y":2545425.9900000021}},{"attributes":{"ID":239517,"DIS_CODE":0,"TOWNNAME":"永康區","LI":"中興里","LIN":"16鄰","STREET":"中華二路","SECT":" ","MAREA":" ","LANE":" ","ALLEY":" ","HOUSE_NO":"６５號","E_COORD97":172052.03,"N_COORD97":2545424.4900000002,"ADDRESS":"中華二路６５號","OBJECTID":239513},"geometry":{"x":172052.03000000119,"y":2545424.4900000002}},{"attributes":{"ID":239518,"DIS_CODE":0,"TOWNNAME":"永康區","LI":"大灣里","LIN":"16鄰","STREET":"大灣五街","SECT":" ","MAREA":" ","LANE":" ","ALLEY":" ","HOUSE_NO":"１５之１號","E_COORD97":174819.89000000001,"N_COORD97":2545191.5699999998,"ADDRESS":"大灣五街１５之１號","OBJECTID":239514},"geometry":{"x":174819.89000000153,"y":2545191.5700000022}},{"attributes":{"ID":239519,"DIS_CODE":0,"TOWNNAME":"永康區","LI":"大灣里","LIN":"16鄰","STREET":"大灣五街","SECT":" ","MAREA":" ","LANE":" ","ALLEY":" ","HOUSE_NO":"１５之２號","E_COORD97":174815.51000000001,"N_COORD97":2545192.5699999998,"ADDRESS":"大灣五街１５之２號","OBJECTID":239515},"geometry":{"x":174815.50999999978,"y":2545192.5700000003}},{"attributes":{"ID":239520,"DIS_CODE":0,"TOWNNAME":"永康區","LI":"大灣里","LIN":"16鄰","STREET":"大灣五街","SECT":" ","MAREA":" ","LANE":" ","ALLEY":" ","HOUSE_NO":"１９號","E_COORD97":174827.98999999999,"N_COORD97":2545146.04,"ADDRESS":"大灣五街１９號","OBJECTID":239516},"geometry":{"x":174827.99000000022,"y":2545146.040000001}},{"attributes":{"ID":239521,"DIS_CODE":0,"TOWNNAME":"永康區","LI":"大灣里","LIN":"16鄰","STREET":"大灣五街","SECT":" ","MAREA":" ","LANE":" ","ALLEY":" ","HOUSE_NO":"１７號","E_COORD97":174826.91,"N_COORD97":2545168.6000000001,"ADDRESS":"大灣五街１７號","OBJECTID":239517},"geometry":{"x":174826.90999999922,"y":2545168.5999999996}},{"attributes":{"ID":239522,"DIS_CODE":0,"TOWNNAME":"永康區","LI":"大灣里","LIN":"16鄰","STREET":"大灣路","SECT":" ","MAREA":" ","LANE":" ","ALLEY":" ","HOUSE_NO":"３０２號","E_COORD97":174887.79000000001,"N_COORD97":2545231.9900000002,"ADDRESS":"大灣路３０２號","OBJECTID":239518},"geometry":{"x":174887.79000000097,"y":2545231.9900000021}},{"attributes":{"ID":239523,"DIS_CODE":0,"TOWNNAME":"永康區","LI":"大灣里","LIN":"16鄰","STREET":"大灣五街","SECT":" ","MAREA":" ","LANE":" ","ALLEY":" ","HOUSE_NO":"８號","E_COORD97":174848.41,"N_COORD97":2545198.2799999998,"ADDRESS":"大灣五街８號","OBJECTID":239519},"geometry":{"x":174848.41000000015,"y":2545198.2800000031}},{"attributes":{"ID":239524,"DIS_CODE":0,"TOWNNAME":"東區","LI":"泉南里","LIN":"16鄰","STREET":"樹林街","SECT":"一段","MAREA":" ","LANE":"５巷","ALLEY":" ","HOUSE_NO":"１０號","E_COORD97":169675.85000000001,"N_COORD97":2542886.8799999999,"ADDRESS":"樹林街一段５巷１０號","OBJECTID":239520},"geometry":{"x":169675.85000000056,"y":2542886.879999999}},{"attributes":{"ID":239525,"DIS_CODE":0,"TOWNNAME":"東區","LI":"泉南里","LIN":"16鄰","STREET":"樹林街","SECT":"一段","MAREA":" ","LANE":"５巷","ALLEY":" ","HOUSE_NO":"１４號","E_COORD97":169682.54999999999,"N_COORD97":2542884.5499999998,"ADDRESS":"樹林街一段５巷１４號","OBJECTID":239521},"geometry":{"x":169682.55000000168,"y":2542884.5500000007}},{"attributes":{"ID":239526,"DIS_CODE":0,"TOWNNAME":"永康區","LI":"三合里","LIN":"5鄰","STREET":"南工街","SECT":" ","MAREA":" ","LANE":"６６巷","ALLEY":" ","HOUSE_NO":"１號","E_COORD97":172119.17999999999,"N_COORD97":2545659.8100000001,"ADDRESS":"南工街６６巷１號","OBJECTID":239522},"geometry":{"x":172119.18000000156,"y":2545659.8100000005}},{"attributes":{"ID":239527,"DIS_CODE":0,"TOWNNAME":"東區","LI":"大學里","LIN":"13鄰","STREET":"東寧路","SECT":" ","MAREA":" ","LANE":"９３巷","ALLEY":" ","HOUSE_NO":"１５號","E_COORD97":170293.75,"N_COORD97":2543696.4500000002,"ADDRESS":"東寧路９３巷１５號","OBJECTID":239523},"geometry":{"x":170293.75000000093,"y":2543696.4500000011}},{"attributes":{"ID":239528,"DIS_CODE":0,"TOWNNAME":"東區","LI":"忠孝里","LIN":"13鄰","STREET":"榮譽街","SECT":" ","MAREA":" ","LANE":"８７巷","ALLEY":" ","HOUSE_NO":"３１號","E_COORD97":169716.45999999999,"N_COORD97":2541786.75,"ADDRESS":"榮譽街８７巷３１號","OBJECTID":239524},"geometry":{"x":169716.45999999996,"y":2541786.75}},{"attributes":{"ID":239529,"DIS_CODE":0,"TOWNNAME":"東區","LI":"後甲里","LIN":"13鄰","STREET":"裕農路","SECT":" ","MAREA":" ","LANE":"６２１巷","ALLEY":" ","HOUSE_NO":"７號","E_COORD97":171618.81,"N_COORD97":2543250.5600000001,"ADDRESS":"裕農路６２１巷７號","OBJECTID":239525},"geometry":{"x":171618.81000000052,"y":2543250.5600000005}},{"attributes":{"ID":239530,"DIS_CODE":0,"TOWNNAME":"東區","LI":"後甲里","LIN":"13鄰","STREET":"裕農路","SECT":" ","MAREA":" ","LANE":"６２１巷","ALLEY":" ","HOUSE_NO":"９號","E_COORD97":171619.53,"N_COORD97":2543254.4199999999,"ADDRESS":"裕農路６２１巷９號","OBJECTID":239526},"geometry":{"x":171619.53000000119,"y":2543254.4199999999}},{"attributes":{"ID":239531,"DIS_CODE":0,"TOWNNAME":"東區","LI":"後甲里","LIN":"13鄰","STREET":"裕農路","SECT":" ","MAREA":" ","LANE":"６２１巷","ALLEY":" ","HOUSE_NO":"２１號","E_COORD97":171612.29000000001,"N_COORD97":2543282.1200000001,"ADDRESS":"裕農路６２１巷２１號","OBJECTID":239527},"geometry":{"x":171612.29000000097,"y":2543282.1200000048}},{"attributes":{"ID":239532,"DIS_CODE":0,"TOWNNAME":"東區","LI":"忠孝里","LIN":"13鄰","STREET":"榮譽街","SECT":" ","MAREA":" ","LANE":"８７巷","ALLEY":" ","HOUSE_NO":"３３號之２","E_COORD97":169729.20999999999,"N_COORD97":2541788.98,"ADDRESS":"榮譽街８７巷３３號之２","OBJECTID":239528},"geometry":{"x":169729.21000000089,"y":2541788.9800000004}},{"attributes":{"ID":239533,"DIS_CODE":0,"TOWNNAME":"安南區","LI":"淵東里","LIN":"13鄰","STREET":"本原街","SECT":"三段","MAREA":" ","LANE":"１３４巷","ALLEY":" ","HOUSE_NO":"１６號","E_COORD97":165619.29000000001,"N_COORD97":2550445.5499999998,"ADDRESS":"本原街三段１３４巷１６號","OBJECTID":239529},"geometry":{"x":165619.29000000004,"y":2550445.5500000007}},{"attributes":{"ID":239534,"DIS_CODE":0,"TOWNNAME":"安南區","LI":"淵東里","LIN":"13鄰","STREET":"本原街","SECT":"三段","MAREA":" ","LANE":"５６巷","ALLEY":" ","HOUSE_NO":"１０號","E_COORD97":165665.39000000001,"N_COORD97":2550446.2799999998,"ADDRESS":"本原街三段５６巷１０號","OBJECTID":239530},"geometry":{"x":165665.38999999966,"y":2550446.2800000031}},{"attributes":{"ID":239535,"DIS_CODE":0,"TOWNNAME":"安南區","LI":"淵東里","LIN":"13鄰","STREET":"本原街","SECT":"三段","MAREA":" ","LANE":"５６巷","ALLEY":" ","HOUSE_NO":"１１號","E_COORD97":165637.85000000001,"N_COORD97":2550438.4300000002,"ADDRESS":"本原街三段５６巷１１號","OBJECTID":239531},"geometry":{"x":165637.85000000056,"y":2550438.4299999997}},{"attributes":{"ID":239536,"DIS_CODE":0,"TOWNNAME":"安南區","LI":"淵東里","LIN":"13鄰","STREET":"本原街","SECT":"三段","MAREA":" ","LANE":"５６巷","ALLEY":" ","HOUSE_NO":"１２號","E_COORD97":165666.20000000001,"N_COORD97":2550450.8100000001,"ADDRESS":"本原街三段５６巷１２號","OBJECTID":239532},"geometry":{"x":165666.20000000112,"y":2550450.8100000042}},{"attributes":{"ID":239537,"DIS_CODE":0,"TOWNNAME":"安南區","LI":"淵東里","LIN":"13鄰","STREET":"本原街","SECT":"三段","MAREA":" ","LANE":"５６巷","ALLEY":" ","HOUSE_NO":"１３號","E_COORD97":165638.31,"N_COORD97":2550442.5800000001,"ADDRESS":"本原街三段５６巷１３號","OBJECTID":239533},"geometry":{"x":165638.31000000052,"y":2550442.5800000019}},{"attributes":{"ID":239538,"DIS_CODE":0,"TOWNNAME":"北區","LI":"文元里","LIN":"14鄰","STREET":"文賢路","SECT":" ","MAREA":" ","LANE":" ","ALLEY":" ","HOUSE_NO":"１０３２號","E_COORD97":167376.79000000001,"N_COORD97":2546077.8900000001,"ADDRESS":"文賢路１０３２號","OBJECTID":239534},"geometry":{"x":167376.79000000004,"y":2546077.8900000025}},{"attributes":{"ID":239539,"DIS_CODE":0,"TOWNNAME":"歸仁區","LI":"南保里","LIN":"47鄰","STREET":"大順街","SECT":" ","MAREA":" ","LANE":" ","ALLEY":" ","HOUSE_NO":"２５６號","E_COORD97":176728.47,"N_COORD97":2540616.25,"ADDRESS":"大順街２５６號","OBJECTID":239535},"geometry":{"x":176728.47000000067,"y":2540616.2500000019}},{"attributes":{"ID":239540,"DIS_CODE":0,"TOWNNAME":"北區","LI":"文元里","LIN":"14鄰","STREET":"文賢路","SECT":" ","MAREA":" ","LANE":" ","ALLEY":" ","HOUSE_NO":"１０３４號","E_COORD97":167376.03,"N_COORD97":2546084.6200000001,"ADDRESS":"文賢路１０３４號","OBJECTID":239536},"geometry":{"x":167376.03000000212,"y":2546084.620000001}},{"attributes":{"ID":239541,"DIS_CODE":0,"TOWNNAME":"永康區","LI":"二王里","LIN":"18鄰","STREET":"中山南路","SECT":" ","MAREA":" ","LANE":"６４４巷","ALLEY":" ","HOUSE_NO":"５號","E_COORD97":172403.89000000001,"N_COORD97":2546655.8799999999,"ADDRESS":"中山南路６４４巷５號","OBJECTID":239537},"geometry":{"x":172403.88999999966,"y":2546655.8800000008}},{"attributes":{"ID":239542,"DIS_CODE":0,"TOWNNAME":"永康區","LI":"二王里","LIN":"34鄰","STREET":"中山南路","SECT":" ","MAREA":" ","LANE":"４９０巷","ALLEY":" ","HOUSE_NO":"１０號之８","E_COORD97":172129.84,"N_COORD97":2546367.04,"ADDRESS":"中山南路４９０巷１０號之８","OBJECTID":239538},"geometry":{"x":172129.83999999985,"y":2546367.040000001}},{"attributes":{"ID":239543,"DIS_CODE":0,"TOWNNAME":"永康區","LI":"大橋里","LIN":"14鄰","STREET":"大橋一街","SECT":" ","MAREA":" ","LANE":"７３巷","ALLEY":" ","HOUSE_NO":"３７號","E_COORD97":170856.76999999999,"N_COORD97":2546506.4900000002,"ADDRESS":"大橋一街７３巷３７號","OBJECTID":239539},"geometry":{"x":170856.76999999955,"y":2546506.4900000039}},{"attributes":{"ID":239544,"DIS_CODE":0,"TOWNNAME":"永康區","LI":"五王里","LIN":"1鄰","STREET":"成功路","SECT":" ","MAREA":" ","LANE":"１３０巷","ALLEY":" ","HOUSE_NO":"３８號","E_COORD97":171553.29999999999,"N_COORD97":2545544.5299999998,"ADDRESS":"成功路１３０巷３８號","OBJECTID":239540},"geometry":{"x":171553.29999999981,"y":2545544.5299999993}},{"attributes":{"ID":239545,"DIS_CODE":0,"TOWNNAME":"中西區","LI":"西湖里","LIN":"16鄰","STREET":"湖美一街","SECT":" ","MAREA":" ","LANE":"１１４巷","ALLEY":" ","HOUSE_NO":"１６號","E_COORD97":166094.20000000001,"N_COORD97":2544880.04,"ADDRESS":"湖美一街１１４巷１６號","OBJECTID":239541},"geometry":{"x":166094.20000000019,"y":2544880.0399999991}},{"attributes":{"ID":239546,"DIS_CODE":0,"TOWNNAME":"中西區","LI":"西湖里","LIN":"16鄰","STREET":"湖美一街","SECT":" ","MAREA":" ","LANE":"１１４巷","ALLEY":" ","HOUSE_NO":"１８號","E_COORD97":166099.79999999999,"N_COORD97":2544880.04,"ADDRESS":"湖美一街１１４巷１８號","OBJECTID":239542},"geometry":{"x":166099.79999999981,"y":2544880.0399999991}},{"attributes":{"ID":239547,"DIS_CODE":0,"TOWNNAME":"中西區","LI":"西湖里","LIN":"16鄰","STREET":"湖美一街","SECT":" ","MAREA":" ","LANE":"１１４巷","ALLEY":" ","HOUSE_NO":"２０號","E_COORD97":166106.85999999999,"N_COORD97":2544882.71,"ADDRESS":"湖美一街１１４巷２０號","OBJECTID":239543},"geometry":{"x":166106.86000000034,"y":2544882.7100000028}},{"attributes":{"ID":239548,"DIS_CODE":0,"TOWNNAME":"中西區","LI":"西湖里","LIN":"16鄰","STREET":"湖美一街","SECT":" ","MAREA":" ","LANE":"１１４巷","ALLEY":" ","HOUSE_NO":"２２號","E_COORD97":166112.94,"N_COORD97":2544882.96,"ADDRESS":"湖美一街１１４巷２２號","OBJECTID":239544},"geometry":{"x":166112.94000000134,"y":2544882.959999999}},{"attributes":{"ID":239549,"DIS_CODE":0,"TOWNNAME":"永康區","LI":"大灣里","LIN":"2鄰","STREET":"大安街","SECT":" ","MAREA":" ","LANE":"３５６巷","ALLEY":" ","HOUSE_NO":"２號","E_COORD97":174688.57000000001,"N_COORD97":2545655.3100000001,"ADDRESS":"大安街３５６巷２號","OBJECTID":239545},"geometry":{"x":174688.5700000003,"y":2545655.3100000005}},{"attributes":{"ID":239550,"DIS_CODE":0,"TOWNNAME":"永康區","LI":"三合里","LIN":"5鄰","STREET":"南工街","SECT":" ","MAREA":" ","LANE":"６６巷","ALLEY":" ","HOUSE_NO":"１１號","E_COORD97":172141.57999999999,"N_COORD97":2545660.0600000001,"ADDRESS":"南工街６６巷１１號","OBJECTID":239546},"geometry":{"x":172141.58000000007,"y":2545660.0600000024}},{"attributes":{"ID":239551,"DIS_CODE":0,"TOWNNAME":"安南區","LI":"淵東里","LIN":"13鄰","STREET":"本原街","SECT":"三段","MAREA":" ","LANE":"５６巷","ALLEY":" ","HOUSE_NO":"１５號","E_COORD97":165639.45999999999,"N_COORD97":2550447.4100000001,"ADDRESS":"本原街三段５６巷１５號","OBJECTID":239547},"geometry":{"x":165639.45999999996,"y":2550447.410000002}},{"attributes":{"ID":239552,"DIS_CODE":0,"TOWNNAME":"安南區","LI":"淵東里","LIN":"13鄰","STREET":"本原街","SECT":"三段","MAREA":" ","LANE":"５６巷","ALLEY":" ","HOUSE_NO":"１號","E_COORD97":165633.70000000001,"N_COORD97":2550417.25,"ADDRESS":"本原街三段５６巷１號","OBJECTID":239548},"geometry":{"x":165633.70000000205,"y":2550417.2500000019}},{"attributes":{"ID":239553,"DIS_CODE":0,"TOWNNAME":"北區","LI":"文元里","LIN":"14鄰","STREET":"文賢路","SECT":" ","MAREA":" ","LANE":" ","ALLEY":" ","HOUSE_NO":"１０３６號","E_COORD97":167375.39000000001,"N_COORD97":2546089.4500000002,"ADDRESS":"文賢路１０３６號","OBJECTID":239549},"geometry":{"x":167375.3900000006,"y":2546089.4500000011}},{"attributes":{"ID":239554,"DIS_CODE":0,"TOWNNAME":"北區","LI":"文元里","LIN":"14鄰","STREET":"文賢路","SECT":" ","MAREA":" ","LANE":" ","ALLEY":" ","HOUSE_NO":"１０３８號","E_COORD97":167374.76000000001,"N_COORD97":2546093.8900000001,"ADDRESS":"文賢路１０３８號","OBJECTID":239550},"geometry":{"x":167374.75999999978,"y":2546093.8900000043}},{"attributes":{"ID":239555,"DIS_CODE":0,"TOWNNAME":"中西區","LI":"藥王里","LIN":"4鄰","STREET":"大福街","SECT":" ","MAREA":" ","LANE":"２７巷","ALLEY":" ","HOUSE_NO":"１９號","E_COORD97":167258.581836,"N_COORD97":2544402.7814600002,"ADDRESS":"大福街２７巷１９號","OBJECTID":239551},"geometry":{"x":167258.58183600195,"y":2544402.7814560011}},{"attributes":{"ID":239556,"DIS_CODE":0,"TOWNNAME":"北區","LI":"文元里","LIN":"14鄰","STREET":"文賢路","SECT":" ","MAREA":" ","LANE":" ","ALLEY":" ","HOUSE_NO":"１０４０號","E_COORD97":167374.12,"N_COORD97":2546098.3399999999,"ADDRESS":"文賢路１０４０號","OBJECTID":239552},"geometry":{"x":167374.12000000104,"y":2546098.3400000017}},{"attributes":{"ID":239557,"DIS_CODE":0,"TOWNNAME":"北區","LI":"文元里","LIN":"14鄰","STREET":"文賢路","SECT":" ","MAREA":" ","LANE":" ","ALLEY":" ","HOUSE_NO":"１０４２號","E_COORD97":167373.60999999999,"N_COORD97":2546103.6699999999,"ADDRESS":"文賢路１０４２號","OBJECTID":239553},"geometry":{"x":167373.61000000034,"y":2546103.6699999999}},{"attributes":{"ID":239558,"DIS_CODE":0,"TOWNNAME":"楠西區","LI":"東勢里","LIN":"14鄰","STREET":"仁愛路","SECT":" ","MAREA":" ","LANE":" ","ALLEY":" ","HOUSE_NO":"５９號","E_COORD97":197500.23999999999,"N_COORD97":2563865.2799999998,"ADDRESS":"仁愛路５９號","OBJECTID":239554},"geometry":{"x":197500.24000000115,"y":2563865.2799999975}},{"attributes":{"ID":239559,"DIS_CODE":0,"TOWNNAME":"歸仁區","LI":"大廟里","LIN":"14鄰","STREET":"大廟六街","SECT":" ","MAREA":" ","LANE":" ","ALLEY":" ","HOUSE_NO":"１１８號","E_COORD97":176193.92000000001,"N_COORD97":2544278.25,"ADDRESS":"大廟六街１１８號","OBJECTID":239555},"geometry":{"x":176193.91999999993,"y":2544278.2500000019}},{"attributes":{"ID":239560,"DIS_CODE":0,"TOWNNAME":"歸仁區","LI":"大廟里","LIN":"14鄰","STREET":"大廟六街","SECT":" ","MAREA":" ","LANE":" ","ALLEY":" ","HOUSE_NO":"１３６之１號","E_COORD97":176255.92000000001,"N_COORD97":2544284.2999999998,"ADDRESS":"大廟六街１３６之１號","OBJECTID":239556},"geometry":{"x":176255.92000000086,"y":2544284.3000000045}},{"attributes":{"ID":239561,"DIS_CODE":0,"TOWNNAME":"歸仁區","LI":"文化里","LIN":"25鄰","STREET":"文化北街","SECT":" ","MAREA":" ","LANE":" ","ALLEY":" ","HOUSE_NO":"１７０號","E_COORD97":177047.31,"N_COORD97":2541430.3399999999,"ADDRESS":"文化北街１７０號","OBJECTID":239557},"geometry":{"x":177047.30999999959,"y":2541430.3399999999}},{"attributes":{"ID":239562,"DIS_CODE":0,"TOWNNAME":"歸仁區","LI":"南保里","LIN":"53鄰","STREET":"大順街","SECT":" ","MAREA":" ","LANE":" ","ALLEY":" ","HOUSE_NO":"２０９號","E_COORD97":176842.17000000001,"N_COORD97":2540596.25,"ADDRESS":"大順街２０９號","OBJECTID":239558},"geometry":{"x":176842.16999999899,"y":2540596.2500000019}},{"attributes":{"ID":239563,"DIS_CODE":0,"TOWNNAME":"歸仁區","LI":"八甲里","LIN":"14鄰","STREET":"大明三街","SECT":" ","MAREA":" ","LANE":" ","ALLEY":" ","HOUSE_NO":"３３號","E_COORD97":178067.32000000001,"N_COORD97":2541754.6099999999,"ADDRESS":"大明三街３３號","OBJECTID":239559},"geometry":{"x":178067.32000000216,"y":2541754.6100000031}},{"attributes":{"ID":239564,"DIS_CODE":0,"TOWNNAME":"善化區","LI":"胡家里","LIN":"16鄰","STREET":" ","SECT":" ","MAREA":"胡厝寮","LANE":" ","ALLEY":" ","HOUSE_NO":"１４４號之１","E_COORD97":175314.94,"N_COORD97":2560743.77,"ADDRESS":"胡厝寮１４４號之１","OBJECTID":239560},"geometry":{"x":175314.94000000041,"y":2560743.7700000014}},{"attributes":{"ID":239565,"DIS_CODE":0,"TOWNNAME":"永康區","LI":"二王里","LIN":"32鄰","STREET":"中山南路","SECT":" ","MAREA":" ","LANE":"４９０巷","ALLEY":" ","HOUSE_NO":"２７號之１","E_COORD97":172175.39000000001,"N_COORD97":2546357.02,"ADDRESS":"中山南路４９０巷２７號之１","OBJECTID":239561},"geometry":{"x":172175.39000000153,"y":2546357.0200000014}},{"attributes":{"ID":239566,"DIS_CODE":0,"TOWNNAME":"永康區","LI":"二王里","LIN":"16鄰","STREET":"忠孝路","SECT":" ","MAREA":" ","LANE":"４３６巷","ALLEY":" ","HOUSE_NO":"１號","E_COORD97":172494.60999999999,"N_COORD97":2546582.0699999998,"ADDRESS":"忠孝路４３６巷１號","OBJECTID":239562},"geometry":{"x":172494.61000000034,"y":2546582.0700000022}},{"attributes":{"ID":239567,"DIS_CODE":0,"TOWNNAME":"安南區","LI":"淵東里","LIN":"13鄰","STREET":"本原街","SECT":"三段","MAREA":" ","LANE":"５６巷","ALLEY":" ","HOUSE_NO":"２號","E_COORD97":165662.56,"N_COORD97":2550428.4399999999,"ADDRESS":"本原街三段５６巷２號","OBJECTID":239563},"geometry":{"x":165662.55999999959,"y":2550428.4400000032}},{"attributes":{"ID":239568,"DIS_CODE":0,"TOWNNAME":"安南區","LI":"淵東里","LIN":"13鄰","STREET":"本原街","SECT":"三段","MAREA":" ","LANE":"５６巷","ALLEY":" ","HOUSE_NO":"３號","E_COORD97":165634.62,"N_COORD97":2550420.4700000002,"ADDRESS":"本原街三段５６巷３號","OBJECTID":239564},"geometry":{"x":165634.62000000104,"y":2550420.4700000025}},{"attributes":{"ID":239569,"DIS_CODE":0,"TOWNNAME":"安南區","LI":"淵東里","LIN":"13鄰","STREET":"本原街","SECT":"三段","MAREA":" ","LANE":"５６巷","ALLEY":" ","HOUSE_NO":"４號","E_COORD97":165663.37,"N_COORD97":2550433.2999999998,"ADDRESS":"本原街三段５６巷４號","OBJECTID":239565},"geometry":{"x":165663.37000000104,"y":2550433.3000000007}},{"attributes":{"ID":239570,"DIS_CODE":0,"TOWNNAME":"安南區","LI":"淵東里","LIN":"13鄰","STREET":"本原街","SECT":"三段","MAREA":" ","LANE":"５６巷","ALLEY":" ","HOUSE_NO":"５號","E_COORD97":165635.31,"N_COORD97":2550425.3100000001,"ADDRESS":"本原街三段５６巷５號","OBJECTID":239566},"geometry":{"x":165635.30999999959,"y":2550425.3100000024}},{"attributes":{"ID":239571,"DIS_CODE":0,"TOWNNAME":"安南區","LI":"淵東里","LIN":"13鄰","STREET":"本原街","SECT":"三段","MAREA":" ","LANE":"５６巷","ALLEY":" ","HOUSE_NO":"６號","E_COORD97":165663.94,"N_COORD97":2550437.6699999999,"ADDRESS":"本原街三段５６巷６號","OBJECTID":239567},"geometry":{"x":165663.94000000041,"y":2550437.6700000037}},{"attributes":{"ID":239572,"DIS_CODE":0,"TOWNNAME":"安南區","LI":"淵東里","LIN":"13鄰","STREET":"本原街","SECT":"三段","MAREA":" ","LANE":"５６巷","ALLEY":" ","HOUSE_NO":"７號","E_COORD97":165636.01000000001,"N_COORD97":2550429.6800000002,"ADDRESS":"本原街三段５６巷７號","OBJECTID":239568},"geometry":{"x":165636.00999999978,"y":2550429.6799999997}},{"attributes":{"ID":239573,"DIS_CODE":0,"TOWNNAME":"安南區","LI":"淵東里","LIN":"13鄰","STREET":"本原街","SECT":"三段","MAREA":" ","LANE":"５６巷","ALLEY":" ","HOUSE_NO":"８號","E_COORD97":165664.82999999999,"N_COORD97":2550441.9500000002,"ADDRESS":"本原街三段５６巷８號","OBJECTID":239569},"geometry":{"x":165664.83000000007,"y":2550441.950000003}},{"attributes":{"ID":239574,"DIS_CODE":0,"TOWNNAME":"安南區","LI":"淵東里","LIN":"13鄰","STREET":"本原街","SECT":"三段","MAREA":" ","LANE":"５６巷","ALLEY":" ","HOUSE_NO":"９號","E_COORD97":165636.70000000001,"N_COORD97":2550433.8300000001,"ADDRESS":"本原街三段５６巷９號","OBJECTID":239570},"geometry":{"x":165636.70000000019,"y":2550433.8300000019}},{"attributes":{"ID":239575,"DIS_CODE":0,"TOWNNAME":"安南區","LI":"淵東里","LIN":"13鄰","STREET":"海佃路","SECT":"四段","MAREA":" ","LANE":"５５巷","ALLEY":" ","HOUSE_NO":"８１號","E_COORD97":165493.76999999999,"N_COORD97":2550499.4700000002,"ADDRESS":"海佃路四段５５巷８１號","OBJECTID":239571},"geometry":{"x":165493.77000000048,"y":2550499.4700000007}},{"attributes":{"ID":239576,"DIS_CODE":0,"TOWNNAME":"安南區","LI":"淵東里","LIN":"13鄰","STREET":"海佃路","SECT":"四段","MAREA":" ","LANE":"５５巷","ALLEY":" ","HOUSE_NO":"８３號","E_COORD97":165490.14000000001,"N_COORD97":2550494.5299999998,"ADDRESS":"海佃路四段５５巷８３號","OBJECTID":239572},"geometry":{"x":165490.1400000006,"y":2550494.5299999993}},{"attributes":{"ID":239577,"DIS_CODE":0,"TOWNNAME":"安南區","LI":"淵東里","LIN":"13鄰","STREET":"海佃路","SECT":"四段","MAREA":" ","LANE":"５５巷","ALLEY":" ","HOUSE_NO":"８７號","E_COORD97":165481.59,"N_COORD97":2550492.04,"ADDRESS":"海佃路四段５５巷８７號","OBJECTID":239573},"geometry":{"x":165481.59000000171,"y":2550492.0400000028}},{"attributes":{"ID":239578,"DIS_CODE":0,"TOWNNAME":"安南區","LI":"淵東里","LIN":"13鄰","STREET":"海佃路","SECT":"四段","MAREA":" ","LANE":"５５巷","ALLEY":" ","HOUSE_NO":"９１號","E_COORD97":165473.39999999999,"N_COORD97":2550473.1899999999,"ADDRESS":"海佃路四段５５巷９１號","OBJECTID":239574},"geometry":{"x":165473.4000000013,"y":2550473.1899999995}},{"attributes":{"ID":239579,"DIS_CODE":0,"TOWNNAME":"安南區","LI":"淵東里","LIN":"13鄰","STREET":"海佃路","SECT":"四段","MAREA":" ","LANE":"５５巷","ALLEY":" ","HOUSE_NO":"５１號","E_COORD97":165551.06,"N_COORD97":2550514.0899999999,"ADDRESS":"海佃路四段５５巷５１號","OBJECTID":239575},"geometry":{"x":165551.06000000145,"y":2550514.0900000017}},{"attributes":{"ID":239580,"DIS_CODE":0,"TOWNNAME":"安南區","LI":"淵東里","LIN":"13鄰","STREET":"海佃路","SECT":"四段","MAREA":" ","LANE":"５５巷","ALLEY":" ","HOUSE_NO":"８９號","E_COORD97":165477.32000000001,"N_COORD97":2550492.04,"ADDRESS":"海佃路四段５５巷８９號","OBJECTID":239576},"geometry":{"x":165477.32000000123,"y":2550492.0400000028}},{"attributes":{"ID":239581,"DIS_CODE":0,"TOWNNAME":"安南區","LI":"長安里","LIN":"13鄰","STREET":"長溪路","SECT":"三段","MAREA":" ","LANE":"３８０巷","ALLEY":" ","HOUSE_NO":"７２號","E_COORD97":167920.64000000001,"N_COORD97":2552071.7200000002,"ADDRESS":"長溪路三段３８０巷７２號","OBJECTID":239577},"geometry":{"x":167920.6400000006,"y":2552071.7200000007}},{"attributes":{"ID":239582,"DIS_CODE":0,"TOWNNAME":"善化區","LI":"胡家里","LIN":"16鄰","STREET":" ","SECT":" ","MAREA":"胡厝寮","LANE":" ","ALLEY":" ","HOUSE_NO":"１５０號","E_COORD97":175277.41,"N_COORD97":2560726.25,"ADDRESS":"胡厝寮１５０號","OBJECTID":239578},"geometry":{"x":175277.41000000015,"y":2560726.25}},{"attributes":{"ID":239583,"DIS_CODE":0,"TOWNNAME":"安南區","LI":"安西里","LIN":"13鄰","STREET":"安和路","SECT":"一段","MAREA":" ","LANE":"１５９巷","ALLEY":" ","HOUSE_NO":"２０號","E_COORD97":169306.69,"N_COORD97":2547813.4500000002,"ADDRESS":"安和路一段１５９巷２０號","OBJECTID":239579},"geometry":{"x":169306.69000000134,"y":2547813.4499999993}},{"attributes":{"ID":239584,"DIS_CODE":0,"TOWNNAME":"歸仁區","LI":"大廟里","LIN":"14鄰","STREET":"大廟六街","SECT":" ","MAREA":" ","LANE":" ","ALLEY":" ","HOUSE_NO":"１３６號","E_COORD97":176257.62,"N_COORD97":2544315.25,"ADDRESS":"大廟六街１３６號","OBJECTID":239580},"geometry":{"x":176257.62000000011,"y":2544315.2500000019}},{"attributes":{"ID":239585,"DIS_CODE":0,"TOWNNAME":"歸仁區","LI":"大廟里","LIN":"14鄰","STREET":"大廟六街","SECT":" ","MAREA":" ","LANE":" ","ALLEY":" ","HOUSE_NO":"１３６之２號","E_COORD97":176269.32000000001,"N_COORD97":2544297.2999999998,"ADDRESS":"大廟六街１３６之２號","OBJECTID":239581},"geometry":{"x":176269.32000000123,"y":2544297.3000000007}},{"attributes":{"ID":239586,"DIS_CODE":0,"TOWNNAME":"歸仁區","LI":"大潭里","LIN":"14鄰","STREET":"大潭二街","SECT":" ","MAREA":" ","LANE":" ","ALLEY":" ","HOUSE_NO":"３２號","E_COORD97":175027.35999999999,"N_COORD97":2534681.25,"ADDRESS":"大潭二街３２號","OBJECTID":239582},"geometry":{"x":175027.36000000034,"y":2534681.25}},{"attributes":{"ID":239587,"DIS_CODE":0,"TOWNNAME":"善化區","LI":"田寮里","LIN":"16鄰","STREET":" ","SECT":" ","MAREA":"六分寮","LANE":" ","ALLEY":" ","HOUSE_NO":"１９０號之２","E_COORD97":178931.01999999999,"N_COORD97":2561481.2400000002,"ADDRESS":"六分寮１９０號之２","OBJECTID":239583},"geometry":{"x":178931.01999999955,"y":2561481.2400000021}},{"attributes":{"ID":239588,"DIS_CODE":0,"TOWNNAME":"善化區","LI":"田寮里","LIN":"16鄰","STREET":" ","SECT":" ","MAREA":"六分寮","LANE":" ","ALLEY":" ","HOUSE_NO":"１９１號之１５","E_COORD97":178906.76000000001,"N_COORD97":2561429.5699999998,"ADDRESS":"六分寮１９１號之１５","OBJECTID":239584},"geometry":{"x":178906.76000000071,"y":2561429.5700000003}},{"attributes":{"ID":239589,"DIS_CODE":0,"TOWNNAME":"新營區","LI":"王公里","LIN":"32鄰","STREET":"大德街","SECT":" ","MAREA":" ","LANE":"１８巷","ALLEY":" ","HOUSE_NO":"２３號","E_COORD97":180222.159315,"N_COORD97":2579468.8281,"ADDRESS":"大德街１８巷２３號","OBJECTID":239585},"geometry":{"x":180222.15931500215,"y":2579468.8281049989}},{"attributes":{"ID":239590,"DIS_CODE":0,"TOWNNAME":"善化區","LI":"胡家里","LIN":"16鄰","STREET":" ","SECT":" ","MAREA":"胡厝寮","LANE":" ","ALLEY":" ","HOUSE_NO":"１４７號之３","E_COORD97":175273.20999999999,"N_COORD97":2560760.77,"ADDRESS":"胡厝寮１４７號之３","OBJECTID":239586},"geometry":{"x":175273.20999999996,"y":2560760.7700000014}},{"attributes":{"ID":239591,"DIS_CODE":0,"TOWNNAME":"善化區","LI":"田寮里","LIN":"16鄰","STREET":" ","SECT":" ","MAREA":"六分寮","LANE":" ","ALLEY":" ","HOUSE_NO":"１９１號之１","E_COORD97":178945.98000000001,"N_COORD97":2561425.9399999999,"ADDRESS":"六分寮１９１號之１","OBJECTID":239587},"geometry":{"x":178945.98000000045,"y":2561425.9399999995}},{"attributes":{"ID":239592,"DIS_CODE":0,"TOWNNAME":"善化區","LI":"田寮里","LIN":"16鄰","STREET":" ","SECT":" ","MAREA":"六分寮","LANE":" ","ALLEY":" ","HOUSE_NO":"１９９號之１０","E_COORD97":179122.25,"N_COORD97":2561657.5800000001,"ADDRESS":"六分寮１９９號之１０","OBJECTID":239588},"geometry":{"x":179122.25000000093,"y":2561657.5800000019}},{"attributes":{"ID":239593,"DIS_CODE":0,"TOWNNAME":"永康區","LI":"大橋里","LIN":"25鄰","STREET":"大橋一街","SECT":" ","MAREA":" ","LANE":"２４７巷","ALLEY":" ","HOUSE_NO":"１３號","E_COORD97":171269.66,"N_COORD97":2546686.2400000002,"ADDRESS":"大橋一街２４７巷１３號","OBJECTID":239589},"geometry":{"x":171269.66000000015,"y":2546686.2400000002}},{"attributes":{"ID":239594,"DIS_CODE":0,"TOWNNAME":"善化區","LI":"文正里","LIN":"13鄰","STREET":"陽明路","SECT":" ","MAREA":" ","LANE":"１４２巷","ALLEY":" ","HOUSE_NO":"３９之７９號","E_COORD97":176549.53,"N_COORD97":2559590.02,"ADDRESS":"陽明路１４２巷３９之７９號","OBJECTID":239590},"geometry":{"x":176549.53000000026,"y":2559590.0200000014}},{"attributes":{"ID":239595,"DIS_CODE":0,"TOWNNAME":"歸仁區","LI":"大廟里","LIN":"14鄰","STREET":"大廟六街","SECT":" ","MAREA":" ","LANE":" ","ALLEY":" ","HOUSE_NO":"１３０號","E_COORD97":176215.51999999999,"N_COORD97":2544295.25,"ADDRESS":"大廟六街１３０號","OBJECTID":239591},"geometry":{"x":176215.51999999955,"y":2544295.2500000019}},{"attributes":{"ID":239596,"DIS_CODE":0,"TOWNNAME":"永康區","LI":"三民里","LIN":"5鄰","STREET":"三民街","SECT":" ","MAREA":" ","LANE":"９０巷","ALLEY":" ","HOUSE_NO":"４７號","E_COORD97":173002.70000000001,"N_COORD97":2550416.3500000001,"ADDRESS":"三民街９０巷４７號","OBJECTID":239592},"geometry":{"x":173002.70000000205,"y":2550416.3500000015}},{"attributes":{"ID":239597,"DIS_CODE":0,"TOWNNAME":"永康區","LI":"大橋里","LIN":"25鄰","STREET":"大橋一街","SECT":" ","MAREA":" ","LANE":"２４７巷","ALLEY":" ","HOUSE_NO":"１７號","E_COORD97":171265.32000000001,"N_COORD97":2546693.4900000002,"ADDRESS":"大橋一街２４７巷１７號","OBJECTID":239593},"geometry":{"x":171265.32000000123,"y":2546693.4900000021}},{"attributes":{"ID":239598,"DIS_CODE":0,"TOWNNAME":"永康區","LI":"大橋里","LIN":"7鄰","STREET":"大橋三街","SECT":" ","MAREA":" ","LANE":"１９９巷","ALLEY":" ","HOUSE_NO":"８５號","E_COORD97":170960.66,"N_COORD97":2546911.1200000001,"ADDRESS":"大橋三街１９９巷８５號","OBJECTID":239594},"geometry":{"x":170960.66000000108,"y":2546911.1200000029}},{"attributes":{"ID":239599,"DIS_CODE":0,"TOWNNAME":"永康區","LI":"三合里","LIN":"3鄰","STREET":"中華二路","SECT":" ","MAREA":" ","LANE":"８８巷","ALLEY":" ","HOUSE_NO":"２６號","E_COORD97":172084.51000000001,"N_COORD97":2545511.75,"ADDRESS":"中華二路８８巷２６號","OBJECTID":239595},"geometry":{"x":172084.50999999978,"y":2545511.7500000019}},{"attributes":{"ID":239600,"DIS_CODE":0,"TOWNNAME":"永康區","LI":"大灣里","LIN":"2鄰","STREET":"大安街","SECT":" ","MAREA":" ","LANE":"３２６巷","ALLEY":" ","HOUSE_NO":"１號","E_COORD97":174724.59,"N_COORD97":2545576.6099999999,"ADDRESS":"大安街３２６巷１號","OBJECTID":239596},"geometry":{"x":174724.59000000078,"y":2545576.6100000013}},{"attributes":{"ID":239601,"DIS_CODE":0,"TOWNNAME":"永康區","LI":"二王里","LIN":"13鄰","STREET":"永二街","SECT":" ","MAREA":" ","LANE":"４４９巷","ALLEY":" ","HOUSE_NO":"４號","E_COORD97":172653.03,"N_COORD97":2546666.8599999999,"ADDRESS":"永二街４４９巷４號","OBJECTID":239597},"geometry":{"x":172653.03000000212,"y":2546666.8600000013}},{"attributes":{"ID":239602,"DIS_CODE":0,"TOWNNAME":"善化區","LI":"文正里","LIN":"13鄰","STREET":"陽明路","SECT":" ","MAREA":" ","LANE":"１４２巷","ALLEY":" ","HOUSE_NO":"３９之５８號","E_COORD97":176523.06,"N_COORD97":2559613.52,"ADDRESS":"陽明路１４２巷３９之５８號","OBJECTID":239598},"geometry":{"x":176523.06000000052,"y":2559613.5200000014}},{"attributes":{"ID":239603,"DIS_CODE":0,"TOWNNAME":"善化區","LI":"文正里","LIN":"13鄰","STREET":"陽明路","SECT":" ","MAREA":" ","LANE":"１４２巷","ALLEY":" ","HOUSE_NO":"１５號","E_COORD97":176452.89999999999,"N_COORD97":2559558.5099999998,"ADDRESS":"陽明路１４２巷１５號","OBJECTID":239599},"geometry":{"x":176452.89999999944,"y":2559558.5099999979}},{"attributes":{"ID":239604,"DIS_CODE":0,"TOWNNAME":"善化區","LI":"文正里","LIN":"13鄰","STREET":"陽明路","SECT":" ","MAREA":" ","LANE":"１４２巷","ALLEY":" ","HOUSE_NO":"３９之８０號","E_COORD97":176550.06,"N_COORD97":2559583.02,"ADDRESS":"陽明路１４２巷３９之８０號","OBJECTID":239600},"geometry":{"x":176550.06000000052,"y":2559583.0200000014}}]}