{"displayFieldName":"TOWNNAME","fieldAliases":{"ID":"ID","DIS_CODE":"DIS_CODE","TOWNNAME":"TOWNNAME","LI":"LI","LIN":"LIN","STREET":"STREET","SECT":"SECT","MAREA":"MAREA","LANE":"LANE","ALLEY":"ALLEY","HOUSE_NO":"HOUSE_NO","E_COORD97":"E_COORD97","N_COORD97":"N_COORD97","ADDRESS":"ADDRESS","OBJECTID":"OBJECTID"},"geometryType":"esriGeometryPoint","spatialReference":{"wkid":102443,"latestWkid":3826},"fields":[{"name":"ID","type":"esriFieldTypeDouble","alias":"ID"},{"name":"DIS_CODE","type":"esriFieldTypeInteger","alias":"DIS_CODE"},{"name":"TOWNNAME","type":"esriFieldTypeString","alias":"TOWNNAME","length":8},{"name":"LI","type":"esriFieldTypeString","alias":"LI","length":8},{"name":"LIN","type":"esriFieldTypeString","alias":"LIN","length":12},{"name":"STREET","type":"esriFieldTypeString","alias":"STREET","length":20},{"name":"SECT","type":"esriFieldTypeString","alias":"SECT","length":8},{"name":"MAREA","type":"esriFieldTypeString","alias":"MAREA","length":12},{"name":"LANE","type":"esriFieldTypeString","alias":"LANE","length":10},{"name":"ALLEY","type":"esriFieldTypeString","alias":"ALLEY","length":10},{"name":"HOUSE_NO","type":"esriFieldTypeString","alias":"HOUSE_NO","length":20},{"name":"E_COORD97","type":"esriFieldTypeDouble","alias":"E_COORD97"},{"name":"N_COORD97","type":"esriFieldTypeDouble","alias":"N_COORD97"},{"name":"ADDRESS","type":"esriFieldTypeString","alias":"ADDRESS","length":50},{"name":"OBJECTID","type":"esriFieldTypeOID","alias":"OBJECTID"}],"features":[{"attributes":{"ID":404225,"DIS_CODE":0,"TOWNNAME":"安平區","LI":"華平里","LIN":"11鄰","STREET":"怡平路","SECT":" ","MAREA":" ","LANE":"４４２巷","ALLEY":" ","HOUSE_NO":"６３號五樓之６","E_COORD97":165296.39000000001,"N_COORD97":2544009.0899999999,"ADDRESS":"怡平路４４２巷６３號五樓之６","OBJECTID":404201},"geometry":{"x":165296.39000000153,"y":2544009.0899999999}},{"attributes":{"ID":404226,"DIS_CODE":0,"TOWNNAME":"新市區","LI":"新市里","LIN":"27鄰","STREET":"復興路","SECT":" ","MAREA":" ","LANE":"６巷","ALLEY":" ","HOUSE_NO":"１１號","E_COORD97":177860.67999999999,"N_COORD97":2553346.5299999998,"ADDRESS":"復興路６巷１１號","OBJECTID":404202},"geometry":{"x":177860.67999999877,"y":2553346.5299999993}},{"attributes":{"ID":404227,"DIS_CODE":0,"TOWNNAME":"安平區","LI":"華平里","LIN":"11鄰","STREET":"怡平路","SECT":" ","MAREA":" ","LANE":"４４２巷","ALLEY":" ","HOUSE_NO":"６３號五樓之７","E_COORD97":165296.39000000001,"N_COORD97":2544009.0899999999,"ADDRESS":"怡平路４４２巷６３號五樓之７","OBJECTID":404203},"geometry":{"x":165296.39000000153,"y":2544009.0899999999}},{"attributes":{"ID":404228,"DIS_CODE":0,"TOWNNAME":"安平區","LI":"華平里","LIN":"11鄰","STREET":"怡平路","SECT":" ","MAREA":" ","LANE":"４４２巷","ALLEY":" ","HOUSE_NO":"６３號五樓之８","E_COORD97":165296.39000000001,"N_COORD97":2544009.0899999999,"ADDRESS":"怡平路４４２巷６３號五樓之８","OBJECTID":404204},"geometry":{"x":165296.39000000153,"y":2544009.0899999999}},{"attributes":{"ID":404229,"DIS_CODE":0,"TOWNNAME":"安平區","LI":"華平里","LIN":"11鄰","STREET":"怡平路","SECT":" ","MAREA":" ","LANE":"４４２巷","ALLEY":" ","HOUSE_NO":"６３號六樓之１","E_COORD97":165296.39000000001,"N_COORD97":2544009.0899999999,"ADDRESS":"怡平路４４２巷６３號六樓之１","OBJECTID":404205},"geometry":{"x":165296.39000000153,"y":2544009.0899999999}},{"attributes":{"ID":404230,"DIS_CODE":0,"TOWNNAME":"安平區","LI":"華平里","LIN":"11鄰","STREET":"怡平路","SECT":" ","MAREA":" ","LANE":"４４２巷","ALLEY":" ","HOUSE_NO":"６３號六樓之２","E_COORD97":165296.39000000001,"N_COORD97":2544009.0899999999,"ADDRESS":"怡平路４４２巷６３號六樓之２","OBJECTID":404206},"geometry":{"x":165296.39000000153,"y":2544009.0899999999}},{"attributes":{"ID":404231,"DIS_CODE":0,"TOWNNAME":"安平區","LI":"華平里","LIN":"11鄰","STREET":"怡平路","SECT":" ","MAREA":" ","LANE":"４４２巷","ALLEY":" ","HOUSE_NO":"６３號六樓之３","E_COORD97":165296.39000000001,"N_COORD97":2544009.0899999999,"ADDRESS":"怡平路４４２巷６３號六樓之３","OBJECTID":404207},"geometry":{"x":165296.39000000153,"y":2544009.0899999999}},{"attributes":{"ID":404232,"DIS_CODE":0,"TOWNNAME":"安平區","LI":"華平里","LIN":"11鄰","STREET":"怡平路","SECT":" ","MAREA":" ","LANE":"４４２巷","ALLEY":" ","HOUSE_NO":"６３號六樓之５","E_COORD97":165296.39000000001,"N_COORD97":2544009.0899999999,"ADDRESS":"怡平路４４２巷６３號六樓之５","OBJECTID":404208},"geometry":{"x":165296.39000000153,"y":2544009.0899999999}},{"attributes":{"ID":404233,"DIS_CODE":0,"TOWNNAME":"安平區","LI":"華平里","LIN":"11鄰","STREET":"怡平路","SECT":" ","MAREA":" ","LANE":"４４２巷","ALLEY":" ","HOUSE_NO":"６３號六樓之６","E_COORD97":165296.39000000001,"N_COORD97":2544009.0899999999,"ADDRESS":"怡平路４４２巷６３號六樓之６","OBJECTID":404209},"geometry":{"x":165296.39000000153,"y":2544009.0899999999}},{"attributes":{"ID":404234,"DIS_CODE":0,"TOWNNAME":"安平區","LI":"華平里","LIN":"11鄰","STREET":"怡平路","SECT":" ","MAREA":" ","LANE":"４４２巷","ALLEY":" ","HOUSE_NO":"６３號六樓之７","E_COORD97":165296.39000000001,"N_COORD97":2544009.0899999999,"ADDRESS":"怡平路４４２巷６３號六樓之７","OBJECTID":404210},"geometry":{"x":165296.39000000153,"y":2544009.0899999999}},{"attributes":{"ID":404235,"DIS_CODE":0,"TOWNNAME":"安平區","LI":"華平里","LIN":"11鄰","STREET":"怡平路","SECT":" ","MAREA":" ","LANE":"４４２巷","ALLEY":" ","HOUSE_NO":"６３號四樓之１","E_COORD97":165296.39000000001,"N_COORD97":2544009.0899999999,"ADDRESS":"怡平路４４２巷６３號四樓之１","OBJECTID":404211},"geometry":{"x":165296.39000000153,"y":2544009.0899999999}},{"attributes":{"ID":404236,"DIS_CODE":0,"TOWNNAME":"安平區","LI":"華平里","LIN":"11鄰","STREET":"怡平路","SECT":" ","MAREA":" ","LANE":"４４２巷","ALLEY":" ","HOUSE_NO":"６３號四樓之２","E_COORD97":165296.39000000001,"N_COORD97":2544009.0899999999,"ADDRESS":"怡平路４４２巷６３號四樓之２","OBJECTID":404212},"geometry":{"x":165296.39000000153,"y":2544009.0899999999}},{"attributes":{"ID":404237,"DIS_CODE":0,"TOWNNAME":"安平區","LI":"華平里","LIN":"11鄰","STREET":"怡平路","SECT":" ","MAREA":" ","LANE":"４４２巷","ALLEY":" ","HOUSE_NO":"６３號四樓之３","E_COORD97":165296.39000000001,"N_COORD97":2544009.0899999999,"ADDRESS":"怡平路４４２巷６３號四樓之３","OBJECTID":404213},"geometry":{"x":165296.39000000153,"y":2544009.0899999999}},{"attributes":{"ID":404238,"DIS_CODE":0,"TOWNNAME":"安平區","LI":"華平里","LIN":"11鄰","STREET":"怡平路","SECT":" ","MAREA":" ","LANE":"４４２巷","ALLEY":" ","HOUSE_NO":"６３號四樓之４","E_COORD97":165296.39000000001,"N_COORD97":2544009.0899999999,"ADDRESS":"怡平路４４２巷６３號四樓之４","OBJECTID":404214},"geometry":{"x":165296.39000000153,"y":2544009.0899999999}},{"attributes":{"ID":404239,"DIS_CODE":0,"TOWNNAME":"安平區","LI":"華平里","LIN":"11鄰","STREET":"怡平路","SECT":" ","MAREA":" ","LANE":"４４２巷","ALLEY":" ","HOUSE_NO":"６３號四樓之５","E_COORD97":165296.39000000001,"N_COORD97":2544009.0899999999,"ADDRESS":"怡平路４４２巷６３號四樓之５","OBJECTID":404215},"geometry":{"x":165296.39000000153,"y":2544009.0899999999}},{"attributes":{"ID":404240,"DIS_CODE":0,"TOWNNAME":"安平區","LI":"華平里","LIN":"11鄰","STREET":"怡平路","SECT":" ","MAREA":" ","LANE":"４４２巷","ALLEY":" ","HOUSE_NO":"６３號四樓之６","E_COORD97":165296.39000000001,"N_COORD97":2544009.0899999999,"ADDRESS":"怡平路４４２巷６３號四樓之６","OBJECTID":404216},"geometry":{"x":165296.39000000153,"y":2544009.0899999999}},{"attributes":{"ID":404241,"DIS_CODE":0,"TOWNNAME":"安平區","LI":"華平里","LIN":"11鄰","STREET":"怡平路","SECT":" ","MAREA":" ","LANE":"４４２巷","ALLEY":" ","HOUSE_NO":"６３號四樓之７","E_COORD97":165296.39000000001,"N_COORD97":2544009.0899999999,"ADDRESS":"怡平路４４２巷６３號四樓之７","OBJECTID":404217},"geometry":{"x":165296.39000000153,"y":2544009.0899999999}},{"attributes":{"ID":404242,"DIS_CODE":0,"TOWNNAME":"北區","LI":"安民里","LIN":"11鄰","STREET":"國華街","SECT":"四段","MAREA":" ","LANE":"９巷","ALLEY":" ","HOUSE_NO":"１１號","E_COORD97":167958.89999999999,"N_COORD97":2544584.8700000001,"ADDRESS":"國華街四段９巷１１號","OBJECTID":404218},"geometry":{"x":167958.9000000013,"y":2544584.870000001}},{"attributes":{"ID":404243,"DIS_CODE":0,"TOWNNAME":"北區","LI":"中樓里","LIN":"11鄰","STREET":"開元路","SECT":" ","MAREA":" ","LANE":"６６巷","ALLEY":" ","HOUSE_NO":"２５號二樓","E_COORD97":169744.85999999999,"N_COORD97":2545071.0899999999,"ADDRESS":"開元路６６巷２５號二樓","OBJECTID":404219},"geometry":{"x":169744.86000000034,"y":2545071.0900000036}},{"attributes":{"ID":404244,"DIS_CODE":0,"TOWNNAME":"北區","LI":"中樓里","LIN":"11鄰","STREET":"開元路","SECT":" ","MAREA":" ","LANE":"６６巷","ALLEY":" ","HOUSE_NO":"２５號三樓","E_COORD97":169744.85999999999,"N_COORD97":2545071.0899999999,"ADDRESS":"開元路６６巷２５號三樓","OBJECTID":404220},"geometry":{"x":169744.86000000034,"y":2545071.0900000036}},{"attributes":{"ID":404245,"DIS_CODE":0,"TOWNNAME":"北區","LI":"中樓里","LIN":"11鄰","STREET":"開元路","SECT":" ","MAREA":" ","LANE":"６６巷","ALLEY":" ","HOUSE_NO":"２５號五樓","E_COORD97":169744.85999999999,"N_COORD97":2545071.0899999999,"ADDRESS":"開元路６６巷２５號五樓","OBJECTID":404221},"geometry":{"x":169744.86000000034,"y":2545071.0900000036}},{"attributes":{"ID":404246,"DIS_CODE":0,"TOWNNAME":"北區","LI":"中樓里","LIN":"11鄰","STREET":"開元路","SECT":" ","MAREA":" ","LANE":"６６巷","ALLEY":" ","HOUSE_NO":"２５號四樓","E_COORD97":169744.85999999999,"N_COORD97":2545071.0899999999,"ADDRESS":"開元路６６巷２５號四樓","OBJECTID":404222},"geometry":{"x":169744.86000000034,"y":2545071.0900000036}},{"attributes":{"ID":404247,"DIS_CODE":0,"TOWNNAME":"北區","LI":"中樓里","LIN":"11鄰","STREET":"開元路","SECT":" ","MAREA":" ","LANE":"６６巷","ALLEY":" ","HOUSE_NO":"２７號二樓","E_COORD97":169748.56,"N_COORD97":2545058.8700000001,"ADDRESS":"開元路６６巷２７號二樓","OBJECTID":404223},"geometry":{"x":169748.56000000052,"y":2545058.870000001}},{"attributes":{"ID":404248,"DIS_CODE":0,"TOWNNAME":"北區","LI":"中樓里","LIN":"11鄰","STREET":"開元路","SECT":" ","MAREA":" ","LANE":"６６巷","ALLEY":" ","HOUSE_NO":"２７號三樓","E_COORD97":169748.56,"N_COORD97":2545058.8700000001,"ADDRESS":"開元路６６巷２７號三樓","OBJECTID":404224},"geometry":{"x":169748.56000000052,"y":2545058.870000001}},{"attributes":{"ID":404249,"DIS_CODE":0,"TOWNNAME":"北區","LI":"中樓里","LIN":"11鄰","STREET":"開元路","SECT":" ","MAREA":" ","LANE":"６６巷","ALLEY":" ","HOUSE_NO":"２７號五樓","E_COORD97":169748.56,"N_COORD97":2545058.8700000001,"ADDRESS":"開元路６６巷２７號五樓","OBJECTID":404225},"geometry":{"x":169748.56000000052,"y":2545058.870000001}},{"attributes":{"ID":404250,"DIS_CODE":0,"TOWNNAME":"北區","LI":"中樓里","LIN":"11鄰","STREET":"開元路","SECT":" ","MAREA":" ","LANE":"６６巷","ALLEY":" ","HOUSE_NO":"２７號四樓","E_COORD97":169748.56,"N_COORD97":2545058.8700000001,"ADDRESS":"開元路６６巷２７號四樓","OBJECTID":404226},"geometry":{"x":169748.56000000052,"y":2545058.870000001}},{"attributes":{"ID":404251,"DIS_CODE":0,"TOWNNAME":"北區","LI":"中樓里","LIN":"11鄰","STREET":"開元路","SECT":" ","MAREA":" ","LANE":"６６巷","ALLEY":" ","HOUSE_NO":"２９號二樓","E_COORD97":169751.64000000001,"N_COORD97":2545050.9300000002,"ADDRESS":"開元路６６巷２９號二樓","OBJECTID":404227},"geometry":{"x":169751.6400000006,"y":2545050.9299999997}},{"attributes":{"ID":404252,"DIS_CODE":0,"TOWNNAME":"北區","LI":"中樓里","LIN":"11鄰","STREET":"開元路","SECT":" ","MAREA":" ","LANE":"６６巷","ALLEY":" ","HOUSE_NO":"２９號三樓","E_COORD97":169751.64000000001,"N_COORD97":2545050.9300000002,"ADDRESS":"開元路６６巷２９號三樓","OBJECTID":404228},"geometry":{"x":169751.6400000006,"y":2545050.9299999997}},{"attributes":{"ID":404253,"DIS_CODE":0,"TOWNNAME":"北區","LI":"中樓里","LIN":"11鄰","STREET":"開元路","SECT":" ","MAREA":" ","LANE":"６６巷","ALLEY":" ","HOUSE_NO":"２９號五樓","E_COORD97":169751.64000000001,"N_COORD97":2545050.9300000002,"ADDRESS":"開元路６６巷２９號五樓","OBJECTID":404229},"geometry":{"x":169751.6400000006,"y":2545050.9299999997}},{"attributes":{"ID":404254,"DIS_CODE":0,"TOWNNAME":"北區","LI":"中樓里","LIN":"11鄰","STREET":"開元路","SECT":" ","MAREA":" ","LANE":"６６巷","ALLEY":" ","HOUSE_NO":"２９號四樓","E_COORD97":169751.64000000001,"N_COORD97":2545050.9300000002,"ADDRESS":"開元路６６巷２９號四樓","OBJECTID":404230},"geometry":{"x":169751.6400000006,"y":2545050.9299999997}},{"attributes":{"ID":404255,"DIS_CODE":0,"TOWNNAME":"北區","LI":"中樓里","LIN":"11鄰","STREET":"開元路","SECT":" ","MAREA":" ","LANE":"６６巷","ALLEY":" ","HOUSE_NO":"３１號二樓","E_COORD97":169754.73000000001,"N_COORD97":2545039.25,"ADDRESS":"開元路６６巷３１號二樓","OBJECTID":404231},"geometry":{"x":169754.72999999952,"y":2545039.25}},{"attributes":{"ID":404256,"DIS_CODE":0,"TOWNNAME":"北區","LI":"中樓里","LIN":"11鄰","STREET":"開元路","SECT":" ","MAREA":" ","LANE":"６６巷","ALLEY":" ","HOUSE_NO":"３１號三樓","E_COORD97":169754.73000000001,"N_COORD97":2545039.25,"ADDRESS":"開元路６６巷３１號三樓","OBJECTID":404232},"geometry":{"x":169754.72999999952,"y":2545039.25}},{"attributes":{"ID":404257,"DIS_CODE":0,"TOWNNAME":"北區","LI":"中樓里","LIN":"11鄰","STREET":"開元路","SECT":" ","MAREA":" ","LANE":"６６巷","ALLEY":" ","HOUSE_NO":"３１號四樓","E_COORD97":169754.73000000001,"N_COORD97":2545039.25,"ADDRESS":"開元路６６巷３１號四樓","OBJECTID":404233},"geometry":{"x":169754.72999999952,"y":2545039.25}},{"attributes":{"ID":404258,"DIS_CODE":0,"TOWNNAME":"北區","LI":"中樓里","LIN":"11鄰","STREET":"開元路","SECT":" ","MAREA":" ","LANE":"６６巷","ALLEY":" ","HOUSE_NO":"３３號二樓","E_COORD97":169756.73999999999,"N_COORD97":2545032,"ADDRESS":"開元路６６巷３３號二樓","OBJECTID":404234},"geometry":{"x":169756.74000000115,"y":2545032.0000000019}},{"attributes":{"ID":404259,"DIS_CODE":0,"TOWNNAME":"北區","LI":"中樓里","LIN":"11鄰","STREET":"開元路","SECT":" ","MAREA":" ","LANE":"６６巷","ALLEY":" ","HOUSE_NO":"３３號三樓","E_COORD97":169756.73999999999,"N_COORD97":2545032,"ADDRESS":"開元路６６巷３３號三樓","OBJECTID":404235},"geometry":{"x":169756.74000000115,"y":2545032.0000000019}},{"attributes":{"ID":404260,"DIS_CODE":0,"TOWNNAME":"北區","LI":"中樓里","LIN":"11鄰","STREET":"開元路","SECT":" ","MAREA":" ","LANE":"６６巷","ALLEY":" ","HOUSE_NO":"３３號五樓","E_COORD97":169756.73999999999,"N_COORD97":2545032,"ADDRESS":"開元路６６巷３３號五樓","OBJECTID":404236},"geometry":{"x":169756.74000000115,"y":2545032.0000000019}},{"attributes":{"ID":404261,"DIS_CODE":0,"TOWNNAME":"北區","LI":"中樓里","LIN":"11鄰","STREET":"開元路","SECT":" ","MAREA":" ","LANE":"６６巷","ALLEY":" ","HOUSE_NO":"３３號四樓","E_COORD97":169756.73999999999,"N_COORD97":2545032,"ADDRESS":"開元路６６巷３３號四樓","OBJECTID":404237},"geometry":{"x":169756.74000000115,"y":2545032.0000000019}},{"attributes":{"ID":404262,"DIS_CODE":0,"TOWNNAME":"北區","LI":"中樓里","LIN":"11鄰","STREET":"開元路","SECT":" ","MAREA":" ","LANE":"６６巷","ALLEY":" ","HOUSE_NO":"３５號二樓","E_COORD97":169760.59,"N_COORD97":2545020.3599999999,"ADDRESS":"開元路６６巷３５號二樓","OBJECTID":404238},"geometry":{"x":169760.59000000078,"y":2545020.3599999994}},{"attributes":{"ID":404263,"DIS_CODE":0,"TOWNNAME":"北區","LI":"中樓里","LIN":"11鄰","STREET":"開元路","SECT":" ","MAREA":" ","LANE":"６６巷","ALLEY":" ","HOUSE_NO":"３５號三樓","E_COORD97":169760.59,"N_COORD97":2545020.3599999999,"ADDRESS":"開元路６６巷３５號三樓","OBJECTID":404239},"geometry":{"x":169760.59000000078,"y":2545020.3599999994}},{"attributes":{"ID":404264,"DIS_CODE":0,"TOWNNAME":"北區","LI":"中樓里","LIN":"11鄰","STREET":"開元路","SECT":" ","MAREA":" ","LANE":"６６巷","ALLEY":" ","HOUSE_NO":"３５號五樓","E_COORD97":169760.59,"N_COORD97":2545020.3599999999,"ADDRESS":"開元路６６巷３５號五樓","OBJECTID":404240},"geometry":{"x":169760.59000000078,"y":2545020.3599999994}},{"attributes":{"ID":404265,"DIS_CODE":0,"TOWNNAME":"北區","LI":"中樓里","LIN":"11鄰","STREET":"開元路","SECT":" ","MAREA":" ","LANE":"６６巷","ALLEY":" ","HOUSE_NO":"３５號四樓","E_COORD97":169760.59,"N_COORD97":2545020.3599999999,"ADDRESS":"開元路６６巷３５號四樓","OBJECTID":404241},"geometry":{"x":169760.59000000078,"y":2545020.3599999994}},{"attributes":{"ID":404266,"DIS_CODE":0,"TOWNNAME":"歸仁區","LI":"辜厝里","LIN":"11鄰","STREET":"中正南路","SECT":"一段","MAREA":" ","LANE":"７６巷","ALLEY":" ","HOUSE_NO":"１９號六樓之１０","E_COORD97":177517.73999999999,"N_COORD97":2540570.6000000001,"ADDRESS":"中正南路一段７６巷１９號六樓之１０","OBJECTID":404242},"geometry":{"x":177517.74000000022,"y":2540570.5999999996}},{"attributes":{"ID":404267,"DIS_CODE":0,"TOWNNAME":"歸仁區","LI":"辜厝里","LIN":"11鄰","STREET":"中正南路","SECT":"一段","MAREA":" ","LANE":"７６巷","ALLEY":" ","HOUSE_NO":"１９號三樓之１０","E_COORD97":177517.73999999999,"N_COORD97":2540570.6000000001,"ADDRESS":"中正南路一段７６巷１９號三樓之１０","OBJECTID":404243},"geometry":{"x":177517.74000000022,"y":2540570.5999999996}},{"attributes":{"ID":404268,"DIS_CODE":0,"TOWNNAME":"歸仁區","LI":"辜厝里","LIN":"11鄰","STREET":"中正南路","SECT":"一段","MAREA":" ","LANE":"７６巷","ALLEY":" ","HOUSE_NO":"１９號七樓之８","E_COORD97":177517.51000000001,"N_COORD97":2540570.6000000001,"ADDRESS":"中正南路一段７６巷１９號七樓之８","OBJECTID":404244},"geometry":{"x":177517.50999999978,"y":2540570.5999999996}},{"attributes":{"ID":404269,"DIS_CODE":0,"TOWNNAME":"歸仁區","LI":"辜厝里","LIN":"11鄰","STREET":"中正南路","SECT":"一段","MAREA":" ","LANE":"７６巷","ALLEY":" ","HOUSE_NO":"１９號八樓之９","E_COORD97":177517.48999999999,"N_COORD97":2540570.6000000001,"ADDRESS":"中正南路一段７６巷１９號八樓之９","OBJECTID":404245},"geometry":{"x":177517.49000000115,"y":2540570.5999999996}},{"attributes":{"ID":404270,"DIS_CODE":0,"TOWNNAME":"歸仁區","LI":"辜厝里","LIN":"11鄰","STREET":"中正南路","SECT":"一段","MAREA":" ","LANE":"７６巷","ALLEY":" ","HOUSE_NO":"１９號八樓之６","E_COORD97":177517.5,"N_COORD97":2540570.6000000001,"ADDRESS":"中正南路一段７６巷１９號八樓之６","OBJECTID":404246},"geometry":{"x":177517.5,"y":2540570.5999999996}},{"attributes":{"ID":404271,"DIS_CODE":0,"TOWNNAME":"歸仁區","LI":"辜厝里","LIN":"11鄰","STREET":"中正南路","SECT":"一段","MAREA":" ","LANE":"７６巷","ALLEY":" ","HOUSE_NO":"１９號六樓之８","E_COORD97":177517.51000000001,"N_COORD97":2540570.6000000001,"ADDRESS":"中正南路一段７６巷１９號六樓之８","OBJECTID":404247},"geometry":{"x":177517.50999999978,"y":2540570.5999999996}},{"attributes":{"ID":404272,"DIS_CODE":0,"TOWNNAME":"北區","LI":"東興里","LIN":"11鄰","STREET":"小東路","SECT":" ","MAREA":" ","LANE":"４２３巷","ALLEY":" ","HOUSE_NO":"５號三樓之２","E_COORD97":171336.78,"N_COORD97":2544489.4500000002,"ADDRESS":"小東路４２３巷５號三樓之２","OBJECTID":404248},"geometry":{"x":171336.78000000026,"y":2544489.4500000011}},{"attributes":{"ID":404273,"DIS_CODE":0,"TOWNNAME":"北區","LI":"東興里","LIN":"11鄰","STREET":"小東路","SECT":" ","MAREA":" ","LANE":"４２３巷","ALLEY":" ","HOUSE_NO":"５號三樓之３","E_COORD97":171336.78,"N_COORD97":2544489.4500000002,"ADDRESS":"小東路４２３巷５號三樓之３","OBJECTID":404249},"geometry":{"x":171336.78000000026,"y":2544489.4500000011}},{"attributes":{"ID":404274,"DIS_CODE":0,"TOWNNAME":"北區","LI":"東興里","LIN":"11鄰","STREET":"小東路","SECT":" ","MAREA":" ","LANE":"４２３巷","ALLEY":" ","HOUSE_NO":"５號三樓之５","E_COORD97":171336.78,"N_COORD97":2544489.4500000002,"ADDRESS":"小東路４２３巷５號三樓之５","OBJECTID":404250},"geometry":{"x":171336.78000000026,"y":2544489.4500000011}},{"attributes":{"ID":404275,"DIS_CODE":0,"TOWNNAME":"北區","LI":"東興里","LIN":"11鄰","STREET":"小東路","SECT":" ","MAREA":" ","LANE":"４２３巷","ALLEY":" ","HOUSE_NO":"５號五樓之１","E_COORD97":171336.78,"N_COORD97":2544489.4500000002,"ADDRESS":"小東路４２３巷５號五樓之１","OBJECTID":404251},"geometry":{"x":171336.78000000026,"y":2544489.4500000011}},{"attributes":{"ID":404276,"DIS_CODE":0,"TOWNNAME":"北區","LI":"東興里","LIN":"11鄰","STREET":"小東路","SECT":" ","MAREA":" ","LANE":"４２３巷","ALLEY":" ","HOUSE_NO":"５號五樓之２","E_COORD97":171336.78,"N_COORD97":2544489.4500000002,"ADDRESS":"小東路４２３巷５號五樓之２","OBJECTID":404252},"geometry":{"x":171336.78000000026,"y":2544489.4500000011}},{"attributes":{"ID":404277,"DIS_CODE":0,"TOWNNAME":"北區","LI":"東興里","LIN":"11鄰","STREET":"小東路","SECT":" ","MAREA":" ","LANE":"４２３巷","ALLEY":" ","HOUSE_NO":"５號五樓之３","E_COORD97":171336.78,"N_COORD97":2544489.4500000002,"ADDRESS":"小東路４２３巷５號五樓之３","OBJECTID":404253},"geometry":{"x":171336.78000000026,"y":2544489.4500000011}},{"attributes":{"ID":404278,"DIS_CODE":0,"TOWNNAME":"北區","LI":"東興里","LIN":"11鄰","STREET":"小東路","SECT":" ","MAREA":" ","LANE":"４２３巷","ALLEY":" ","HOUSE_NO":"５號五樓之５","E_COORD97":171336.78,"N_COORD97":2544489.4500000002,"ADDRESS":"小東路４２３巷５號五樓之５","OBJECTID":404254},"geometry":{"x":171336.78000000026,"y":2544489.4500000011}},{"attributes":{"ID":404279,"DIS_CODE":0,"TOWNNAME":"北區","LI":"東興里","LIN":"11鄰","STREET":"小東路","SECT":" ","MAREA":" ","LANE":"４２３巷","ALLEY":" ","HOUSE_NO":"５號六樓之１","E_COORD97":171336.78,"N_COORD97":2544489.4500000002,"ADDRESS":"小東路４２３巷５號六樓之１","OBJECTID":404255},"geometry":{"x":171336.78000000026,"y":2544489.4500000011}},{"attributes":{"ID":404280,"DIS_CODE":0,"TOWNNAME":"北區","LI":"東興里","LIN":"11鄰","STREET":"小東路","SECT":" ","MAREA":" ","LANE":"４２３巷","ALLEY":" ","HOUSE_NO":"５號六樓之２","E_COORD97":171336.78,"N_COORD97":2544489.4500000002,"ADDRESS":"小東路４２３巷５號六樓之２","OBJECTID":404256},"geometry":{"x":171336.78000000026,"y":2544489.4500000011}},{"attributes":{"ID":404281,"DIS_CODE":0,"TOWNNAME":"北區","LI":"東興里","LIN":"11鄰","STREET":"小東路","SECT":" ","MAREA":" ","LANE":"４２３巷","ALLEY":" ","HOUSE_NO":"５號六樓之３","E_COORD97":171336.78,"N_COORD97":2544489.4500000002,"ADDRESS":"小東路４２３巷５號六樓之３","OBJECTID":404257},"geometry":{"x":171336.78000000026,"y":2544489.4500000011}},{"attributes":{"ID":404282,"DIS_CODE":0,"TOWNNAME":"北區","LI":"東興里","LIN":"11鄰","STREET":"小東路","SECT":" ","MAREA":" ","LANE":"４２３巷","ALLEY":" ","HOUSE_NO":"５號六樓之５","E_COORD97":171336.78,"N_COORD97":2544489.4500000002,"ADDRESS":"小東路４２３巷５號六樓之５","OBJECTID":404258},"geometry":{"x":171336.78000000026,"y":2544489.4500000011}},{"attributes":{"ID":404283,"DIS_CODE":0,"TOWNNAME":"北區","LI":"東興里","LIN":"11鄰","STREET":"小東路","SECT":" ","MAREA":" ","LANE":"４２３巷","ALLEY":" ","HOUSE_NO":"５號七樓之１","E_COORD97":171336.78,"N_COORD97":2544489.4500000002,"ADDRESS":"小東路４２３巷５號七樓之１","OBJECTID":404259},"geometry":{"x":171336.78000000026,"y":2544489.4500000011}},{"attributes":{"ID":404284,"DIS_CODE":0,"TOWNNAME":"北區","LI":"東興里","LIN":"11鄰","STREET":"小東路","SECT":" ","MAREA":" ","LANE":"４２３巷","ALLEY":" ","HOUSE_NO":"５號七樓之２","E_COORD97":171336.78,"N_COORD97":2544489.4500000002,"ADDRESS":"小東路４２３巷５號七樓之２","OBJECTID":404260},"geometry":{"x":171336.78000000026,"y":2544489.4500000011}},{"attributes":{"ID":404285,"DIS_CODE":0,"TOWNNAME":"新營區","LI":"民權里","LIN":"11鄰","STREET":"信義街","SECT":" ","MAREA":" ","LANE":"５３巷","ALLEY":" ","HOUSE_NO":"３之４號四樓之１２","E_COORD97":179881.03,"N_COORD97":2578280.9900000002,"ADDRESS":"信義街５３巷３之４號四樓之１２","OBJECTID":404261},"geometry":{"x":179881.03000000026,"y":2578280.9900000039}},{"attributes":{"ID":404286,"DIS_CODE":0,"TOWNNAME":"新營區","LI":"民權里","LIN":"11鄰","STREET":"信義街","SECT":" ","MAREA":" ","LANE":"５３巷","ALLEY":" ","HOUSE_NO":"３之４號四樓之３","E_COORD97":179879.73999999999,"N_COORD97":2578280.9900000002,"ADDRESS":"信義街５３巷３之４號四樓之３","OBJECTID":404262},"geometry":{"x":179879.74000000022,"y":2578280.9900000039}},{"attributes":{"ID":404287,"DIS_CODE":0,"TOWNNAME":"新營區","LI":"民權里","LIN":"11鄰","STREET":"信義街","SECT":" ","MAREA":" ","LANE":"５３巷","ALLEY":" ","HOUSE_NO":"３之４號三樓之３","E_COORD97":179879.73999999999,"N_COORD97":2578280.9900000002,"ADDRESS":"信義街５３巷３之４號三樓之３","OBJECTID":404263},"geometry":{"x":179879.74000000022,"y":2578280.9900000039}},{"attributes":{"ID":404288,"DIS_CODE":0,"TOWNNAME":"新營區","LI":"民權里","LIN":"11鄰","STREET":"信義街","SECT":" ","MAREA":" ","LANE":"５３巷","ALLEY":" ","HOUSE_NO":"３之４號一樓之５","E_COORD97":179879.79999999999,"N_COORD97":2578280.9900000002,"ADDRESS":"信義街５３巷３之４號一樓之５","OBJECTID":404264},"geometry":{"x":179879.80000000075,"y":2578280.9900000039}},{"attributes":{"ID":404289,"DIS_CODE":0,"TOWNNAME":"北區","LI":"大道里","LIN":"11鄰","STREET":"北門路","SECT":"二段","MAREA":" ","LANE":"５２７巷","ALLEY":" ","HOUSE_NO":"７號三樓之５","E_COORD97":169596.32000000001,"N_COORD97":2545592.9500000002,"ADDRESS":"北門路二段５２７巷７號三樓之５","OBJECTID":404265},"geometry":{"x":169596.31999999937,"y":2545592.9499999993}},{"attributes":{"ID":404290,"DIS_CODE":0,"TOWNNAME":"北區","LI":"大道里","LIN":"11鄰","STREET":"北門路","SECT":"二段","MAREA":" ","LANE":"５２７巷","ALLEY":" ","HOUSE_NO":"７號四樓之３","E_COORD97":169596.32000000001,"N_COORD97":2545592.9500000002,"ADDRESS":"北門路二段５２７巷７號四樓之３","OBJECTID":404266},"geometry":{"x":169596.31999999937,"y":2545592.9499999993}},{"attributes":{"ID":404291,"DIS_CODE":0,"TOWNNAME":"北區","LI":"大道里","LIN":"11鄰","STREET":"北門路","SECT":"二段","MAREA":" ","LANE":"５２７巷","ALLEY":" ","HOUSE_NO":"７號四樓之２","E_COORD97":169596.32000000001,"N_COORD97":2545592.9500000002,"ADDRESS":"北門路二段５２７巷７號四樓之２","OBJECTID":404267},"geometry":{"x":169596.31999999937,"y":2545592.9499999993}},{"attributes":{"ID":404292,"DIS_CODE":0,"TOWNNAME":"北區","LI":"大道里","LIN":"11鄰","STREET":"北門路","SECT":"二段","MAREA":" ","LANE":"５２７巷","ALLEY":" ","HOUSE_NO":"７號四樓之１","E_COORD97":169596.32000000001,"N_COORD97":2545592.9500000002,"ADDRESS":"北門路二段５２７巷７號四樓之１","OBJECTID":404268},"geometry":{"x":169596.31999999937,"y":2545592.9499999993}},{"attributes":{"ID":404293,"DIS_CODE":0,"TOWNNAME":"北區","LI":"大道里","LIN":"11鄰","STREET":"北門路","SECT":"二段","MAREA":" ","LANE":"５２７巷","ALLEY":" ","HOUSE_NO":"７號四樓之５","E_COORD97":169596.32000000001,"N_COORD97":2545592.9500000002,"ADDRESS":"北門路二段５２７巷７號四樓之５","OBJECTID":404269},"geometry":{"x":169596.31999999937,"y":2545592.9499999993}},{"attributes":{"ID":404294,"DIS_CODE":0,"TOWNNAME":"北區","LI":"大道里","LIN":"11鄰","STREET":"北門路","SECT":"二段","MAREA":" ","LANE":"５２７巷","ALLEY":" ","HOUSE_NO":"７號五樓之３","E_COORD97":169596.32000000001,"N_COORD97":2545592.9500000002,"ADDRESS":"北門路二段５２７巷７號五樓之３","OBJECTID":404270},"geometry":{"x":169596.31999999937,"y":2545592.9499999993}},{"attributes":{"ID":404295,"DIS_CODE":0,"TOWNNAME":"北區","LI":"大道里","LIN":"11鄰","STREET":"北門路","SECT":"二段","MAREA":" ","LANE":"５２７巷","ALLEY":" ","HOUSE_NO":"７號五樓之２","E_COORD97":169596.32000000001,"N_COORD97":2545592.9500000002,"ADDRESS":"北門路二段５２７巷７號五樓之２","OBJECTID":404271},"geometry":{"x":169596.31999999937,"y":2545592.9499999993}},{"attributes":{"ID":404296,"DIS_CODE":0,"TOWNNAME":"北區","LI":"大道里","LIN":"11鄰","STREET":"北門路","SECT":"二段","MAREA":" ","LANE":"５２７巷","ALLEY":" ","HOUSE_NO":"７號五樓之１","E_COORD97":169596.32000000001,"N_COORD97":2545592.9500000002,"ADDRESS":"北門路二段５２７巷７號五樓之１","OBJECTID":404272},"geometry":{"x":169596.31999999937,"y":2545592.9499999993}},{"attributes":{"ID":404297,"DIS_CODE":0,"TOWNNAME":"北區","LI":"大道里","LIN":"11鄰","STREET":"北門路","SECT":"二段","MAREA":" ","LANE":"５２７巷","ALLEY":" ","HOUSE_NO":"７號五樓之５","E_COORD97":169596.32000000001,"N_COORD97":2545592.9500000002,"ADDRESS":"北門路二段５２７巷７號五樓之５","OBJECTID":404273},"geometry":{"x":169596.31999999937,"y":2545592.9499999993}},{"attributes":{"ID":404298,"DIS_CODE":0,"TOWNNAME":"北區","LI":"大道里","LIN":"11鄰","STREET":"北門路","SECT":"二段","MAREA":" ","LANE":"５２７巷","ALLEY":" ","HOUSE_NO":"７號六樓之３","E_COORD97":169596.32000000001,"N_COORD97":2545592.9500000002,"ADDRESS":"北門路二段５２７巷７號六樓之３","OBJECTID":404274},"geometry":{"x":169596.31999999937,"y":2545592.9499999993}},{"attributes":{"ID":404299,"DIS_CODE":0,"TOWNNAME":"北區","LI":"大道里","LIN":"11鄰","STREET":"北門路","SECT":"二段","MAREA":" ","LANE":"５２７巷","ALLEY":" ","HOUSE_NO":"７號六樓之２","E_COORD97":169596.32000000001,"N_COORD97":2545592.9500000002,"ADDRESS":"北門路二段５２７巷７號六樓之２","OBJECTID":404275},"geometry":{"x":169596.31999999937,"y":2545592.9499999993}},{"attributes":{"ID":404300,"DIS_CODE":0,"TOWNNAME":"北區","LI":"大道里","LIN":"11鄰","STREET":"北門路","SECT":"二段","MAREA":" ","LANE":"５２７巷","ALLEY":" ","HOUSE_NO":"７號六樓之１","E_COORD97":169596.32000000001,"N_COORD97":2545592.9500000002,"ADDRESS":"北門路二段５２７巷７號六樓之１","OBJECTID":404276},"geometry":{"x":169596.31999999937,"y":2545592.9499999993}},{"attributes":{"ID":404301,"DIS_CODE":0,"TOWNNAME":"北區","LI":"大道里","LIN":"11鄰","STREET":"北門路","SECT":"二段","MAREA":" ","LANE":"５２７巷","ALLEY":" ","HOUSE_NO":"７號六樓之５","E_COORD97":169596.32000000001,"N_COORD97":2545592.9500000002,"ADDRESS":"北門路二段５２７巷７號六樓之５","OBJECTID":404277},"geometry":{"x":169596.31999999937,"y":2545592.9499999993}},{"attributes":{"ID":404302,"DIS_CODE":0,"TOWNNAME":"北區","LI":"大道里","LIN":"11鄰","STREET":"北門路","SECT":"二段","MAREA":" ","LANE":"５２７巷","ALLEY":" ","HOUSE_NO":"７號七樓之３","E_COORD97":169596.32000000001,"N_COORD97":2545592.9500000002,"ADDRESS":"北門路二段５２７巷７號七樓之３","OBJECTID":404278},"geometry":{"x":169596.31999999937,"y":2545592.9499999993}},{"attributes":{"ID":404303,"DIS_CODE":0,"TOWNNAME":"北區","LI":"大道里","LIN":"11鄰","STREET":"北門路","SECT":"二段","MAREA":" ","LANE":"５２７巷","ALLEY":" ","HOUSE_NO":"７號七樓之２","E_COORD97":169596.32000000001,"N_COORD97":2545592.9500000002,"ADDRESS":"北門路二段５２７巷７號七樓之２","OBJECTID":404279},"geometry":{"x":169596.31999999937,"y":2545592.9499999993}},{"attributes":{"ID":404304,"DIS_CODE":0,"TOWNNAME":"北區","LI":"大道里","LIN":"11鄰","STREET":"北門路","SECT":"二段","MAREA":" ","LANE":"５２７巷","ALLEY":" ","HOUSE_NO":"７號七樓之１","E_COORD97":169596.32000000001,"N_COORD97":2545592.9500000002,"ADDRESS":"北門路二段５２７巷７號七樓之１","OBJECTID":404280},"geometry":{"x":169596.31999999937,"y":2545592.9499999993}},{"attributes":{"ID":404305,"DIS_CODE":0,"TOWNNAME":"北區","LI":"大道里","LIN":"11鄰","STREET":"北門路","SECT":"二段","MAREA":" ","LANE":"５２７巷","ALLEY":" ","HOUSE_NO":"７號七樓之５","E_COORD97":169596.32000000001,"N_COORD97":2545592.9500000002,"ADDRESS":"北門路二段５２７巷７號七樓之５","OBJECTID":404281},"geometry":{"x":169596.31999999937,"y":2545592.9499999993}},{"attributes":{"ID":404306,"DIS_CODE":0,"TOWNNAME":"北區","LI":"大道里","LIN":"11鄰","STREET":"北門路","SECT":"二段","MAREA":" ","LANE":"５２７巷","ALLEY":" ","HOUSE_NO":"７號八樓之３","E_COORD97":169596.32000000001,"N_COORD97":2545592.9500000002,"ADDRESS":"北門路二段５２７巷７號八樓之３","OBJECTID":404282},"geometry":{"x":169596.31999999937,"y":2545592.9499999993}},{"attributes":{"ID":404307,"DIS_CODE":0,"TOWNNAME":"北區","LI":"大道里","LIN":"11鄰","STREET":"北門路","SECT":"二段","MAREA":" ","LANE":"５２７巷","ALLEY":" ","HOUSE_NO":"７號八樓之２","E_COORD97":169596.32000000001,"N_COORD97":2545592.9500000002,"ADDRESS":"北門路二段５２７巷７號八樓之２","OBJECTID":404283},"geometry":{"x":169596.31999999937,"y":2545592.9499999993}},{"attributes":{"ID":404308,"DIS_CODE":0,"TOWNNAME":"北區","LI":"大道里","LIN":"11鄰","STREET":"北門路","SECT":"二段","MAREA":" ","LANE":"５２７巷","ALLEY":" ","HOUSE_NO":"７號八樓之１","E_COORD97":169596.32000000001,"N_COORD97":2545592.9500000002,"ADDRESS":"北門路二段５２７巷７號八樓之１","OBJECTID":404284},"geometry":{"x":169596.31999999937,"y":2545592.9499999993}},{"attributes":{"ID":404309,"DIS_CODE":0,"TOWNNAME":"北區","LI":"大道里","LIN":"11鄰","STREET":"北門路","SECT":"二段","MAREA":" ","LANE":"５２７巷","ALLEY":" ","HOUSE_NO":"７號八樓之５","E_COORD97":169596.32000000001,"N_COORD97":2545592.9500000002,"ADDRESS":"北門路二段５２７巷７號八樓之５","OBJECTID":404285},"geometry":{"x":169596.31999999937,"y":2545592.9499999993}},{"attributes":{"ID":404310,"DIS_CODE":0,"TOWNNAME":"北區","LI":"大道里","LIN":"11鄰","STREET":"北門路","SECT":"二段","MAREA":" ","LANE":"５２７巷","ALLEY":" ","HOUSE_NO":"７號九樓之３","E_COORD97":169596.32000000001,"N_COORD97":2545592.9500000002,"ADDRESS":"北門路二段５２７巷７號九樓之３","OBJECTID":404286},"geometry":{"x":169596.31999999937,"y":2545592.9499999993}},{"attributes":{"ID":404311,"DIS_CODE":0,"TOWNNAME":"北區","LI":"大道里","LIN":"11鄰","STREET":"北門路","SECT":"二段","MAREA":" ","LANE":"５２７巷","ALLEY":" ","HOUSE_NO":"７號九樓之２","E_COORD97":169596.32000000001,"N_COORD97":2545592.9500000002,"ADDRESS":"北門路二段５２７巷７號九樓之２","OBJECTID":404287},"geometry":{"x":169596.31999999937,"y":2545592.9499999993}},{"attributes":{"ID":404312,"DIS_CODE":0,"TOWNNAME":"北區","LI":"大道里","LIN":"11鄰","STREET":"北門路","SECT":"二段","MAREA":" ","LANE":"５２７巷","ALLEY":" ","HOUSE_NO":"７號九樓之１","E_COORD97":169596.32000000001,"N_COORD97":2545592.9500000002,"ADDRESS":"北門路二段５２７巷７號九樓之１","OBJECTID":404288},"geometry":{"x":169596.31999999937,"y":2545592.9499999993}},{"attributes":{"ID":404313,"DIS_CODE":0,"TOWNNAME":"北區","LI":"大道里","LIN":"11鄰","STREET":"北門路","SECT":"二段","MAREA":" ","LANE":"５２７巷","ALLEY":" ","HOUSE_NO":"７號九樓之５","E_COORD97":169596.32000000001,"N_COORD97":2545592.9500000002,"ADDRESS":"北門路二段５２７巷７號九樓之５","OBJECTID":404289},"geometry":{"x":169596.31999999937,"y":2545592.9499999993}},{"attributes":{"ID":404314,"DIS_CODE":0,"TOWNNAME":"北區","LI":"大道里","LIN":"11鄰","STREET":"北門路","SECT":"二段","MAREA":" ","LANE":"５２７巷","ALLEY":" ","HOUSE_NO":"７號十樓之３","E_COORD97":169596.32000000001,"N_COORD97":2545592.9500000002,"ADDRESS":"北門路二段５２７巷７號十樓之３","OBJECTID":404290},"geometry":{"x":169596.31999999937,"y":2545592.9499999993}},{"attributes":{"ID":404315,"DIS_CODE":0,"TOWNNAME":"北區","LI":"大道里","LIN":"11鄰","STREET":"北門路","SECT":"二段","MAREA":" ","LANE":"５２７巷","ALLEY":" ","HOUSE_NO":"７號十樓之２","E_COORD97":169596.32000000001,"N_COORD97":2545592.9500000002,"ADDRESS":"北門路二段５２７巷７號十樓之２","OBJECTID":404291},"geometry":{"x":169596.31999999937,"y":2545592.9499999993}},{"attributes":{"ID":404316,"DIS_CODE":0,"TOWNNAME":"北區","LI":"大道里","LIN":"11鄰","STREET":"北門路","SECT":"二段","MAREA":" ","LANE":"５２７巷","ALLEY":" ","HOUSE_NO":"７號十樓之１","E_COORD97":169596.32000000001,"N_COORD97":2545592.9500000002,"ADDRESS":"北門路二段５２７巷７號十樓之１","OBJECTID":404292},"geometry":{"x":169596.31999999937,"y":2545592.9499999993}},{"attributes":{"ID":404317,"DIS_CODE":0,"TOWNNAME":"北區","LI":"大道里","LIN":"11鄰","STREET":"北門路","SECT":"二段","MAREA":" ","LANE":"５２７巷","ALLEY":" ","HOUSE_NO":"７號十樓之５","E_COORD97":169596.32000000001,"N_COORD97":2545592.9500000002,"ADDRESS":"北門路二段５２７巷７號十樓之５","OBJECTID":404293},"geometry":{"x":169596.31999999937,"y":2545592.9499999993}},{"attributes":{"ID":404318,"DIS_CODE":0,"TOWNNAME":"北區","LI":"大道里","LIN":"11鄰","STREET":"北門路","SECT":"二段","MAREA":" ","LANE":"５２７巷","ALLEY":" ","HOUSE_NO":"７號十一樓之３","E_COORD97":169596.32000000001,"N_COORD97":2545592.9500000002,"ADDRESS":"北門路二段５２７巷７號十一樓之３","OBJECTID":404294},"geometry":{"x":169596.31999999937,"y":2545592.9499999993}},{"attributes":{"ID":404319,"DIS_CODE":0,"TOWNNAME":"北區","LI":"大道里","LIN":"11鄰","STREET":"北門路","SECT":"二段","MAREA":" ","LANE":"５２７巷","ALLEY":" ","HOUSE_NO":"７號十一樓之２","E_COORD97":169596.32000000001,"N_COORD97":2545592.9500000002,"ADDRESS":"北門路二段５２７巷７號十一樓之２","OBJECTID":404295},"geometry":{"x":169596.31999999937,"y":2545592.9499999993}},{"attributes":{"ID":404320,"DIS_CODE":0,"TOWNNAME":"北區","LI":"大道里","LIN":"11鄰","STREET":"北門路","SECT":"二段","MAREA":" ","LANE":"５２７巷","ALLEY":" ","HOUSE_NO":"７號十一樓之１","E_COORD97":169596.32000000001,"N_COORD97":2545592.9500000002,"ADDRESS":"北門路二段５２７巷７號十一樓之１","OBJECTID":404296},"geometry":{"x":169596.31999999937,"y":2545592.9499999993}},{"attributes":{"ID":404321,"DIS_CODE":0,"TOWNNAME":"北區","LI":"大道里","LIN":"11鄰","STREET":"北門路","SECT":"二段","MAREA":" ","LANE":"５２７巷","ALLEY":" ","HOUSE_NO":"７號十一樓之５","E_COORD97":169596.32000000001,"N_COORD97":2545592.9500000002,"ADDRESS":"北門路二段５２７巷７號十一樓之５","OBJECTID":404297},"geometry":{"x":169596.31999999937,"y":2545592.9499999993}},{"attributes":{"ID":404322,"DIS_CODE":0,"TOWNNAME":"北區","LI":"光武里","LIN":"11鄰","STREET":"北門路","SECT":"二段","MAREA":" ","LANE":"５７７巷","ALLEY":" ","HOUSE_NO":"１１號七樓之２","E_COORD97":169594.26000000001,"N_COORD97":2545735.3500000001,"ADDRESS":"北門路二段５７７巷１１號七樓之２","OBJECTID":404298},"geometry":{"x":169594.25999999978,"y":2545735.3499999996}},{"attributes":{"ID":404323,"DIS_CODE":0,"TOWNNAME":"北區","LI":"光武里","LIN":"11鄰","STREET":"北門路","SECT":"二段","MAREA":" ","LANE":"５７７巷","ALLEY":" ","HOUSE_NO":"１１號八樓之２","E_COORD97":169594.26000000001,"N_COORD97":2545735.3500000001,"ADDRESS":"北門路二段５７７巷１１號八樓之２","OBJECTID":404299},"geometry":{"x":169594.25999999978,"y":2545735.3499999996}},{"attributes":{"ID":404324,"DIS_CODE":0,"TOWNNAME":"北區","LI":"光武里","LIN":"11鄰","STREET":"北門路","SECT":"二段","MAREA":" ","LANE":"５７７巷","ALLEY":" ","HOUSE_NO":"１１號九樓之２","E_COORD97":169594.26000000001,"N_COORD97":2545735.3500000001,"ADDRESS":"北門路二段５７７巷１１號九樓之２","OBJECTID":404300},"geometry":{"x":169594.25999999978,"y":2545735.3499999996}},{"attributes":{"ID":404325,"DIS_CODE":0,"TOWNNAME":"北區","LI":"光武里","LIN":"11鄰","STREET":"北門路","SECT":"二段","MAREA":" ","LANE":"５７７巷","ALLEY":" ","HOUSE_NO":"１１號十樓之２","E_COORD97":169594.26000000001,"N_COORD97":2545735.3500000001,"ADDRESS":"北門路二段５７７巷１１號十樓之２","OBJECTID":404301},"geometry":{"x":169594.25999999978,"y":2545735.3499999996}},{"attributes":{"ID":404326,"DIS_CODE":0,"TOWNNAME":"北區","LI":"光武里","LIN":"11鄰","STREET":"北門路","SECT":"二段","MAREA":" ","LANE":"５７７巷","ALLEY":" ","HOUSE_NO":"１１號十一樓之１","E_COORD97":169594.26000000001,"N_COORD97":2545735.3500000001,"ADDRESS":"北門路二段５７７巷１１號十一樓之１","OBJECTID":404302},"geometry":{"x":169594.25999999978,"y":2545735.3499999996}},{"attributes":{"ID":404327,"DIS_CODE":0,"TOWNNAME":"北區","LI":"光武里","LIN":"11鄰","STREET":"北門路","SECT":"二段","MAREA":" ","LANE":"５７７巷","ALLEY":" ","HOUSE_NO":"１１號十一樓之２","E_COORD97":169594.26000000001,"N_COORD97":2545735.3500000001,"ADDRESS":"北門路二段５７７巷１１號十一樓之２","OBJECTID":404303},"geometry":{"x":169594.25999999978,"y":2545735.3499999996}},{"attributes":{"ID":404328,"DIS_CODE":0,"TOWNNAME":"北區","LI":"光武里","LIN":"11鄰","STREET":"北門路","SECT":"二段","MAREA":" ","LANE":"５７７巷","ALLEY":" ","HOUSE_NO":"１３號三樓之１","E_COORD97":169573.78,"N_COORD97":2545741.8500000001,"ADDRESS":"北門路二段５７７巷１３號三樓之１","OBJECTID":404304},"geometry":{"x":169573.78000000026,"y":2545741.8500000015}},{"attributes":{"ID":404329,"DIS_CODE":0,"TOWNNAME":"北區","LI":"光武里","LIN":"11鄰","STREET":"北門路","SECT":"二段","MAREA":" ","LANE":"５７７巷","ALLEY":" ","HOUSE_NO":"１３號四樓之１","E_COORD97":169573.78,"N_COORD97":2545741.8500000001,"ADDRESS":"北門路二段５７７巷１３號四樓之１","OBJECTID":404305},"geometry":{"x":169573.78000000026,"y":2545741.8500000015}},{"attributes":{"ID":404330,"DIS_CODE":0,"TOWNNAME":"北區","LI":"光武里","LIN":"11鄰","STREET":"北門路","SECT":"二段","MAREA":" ","LANE":"５７７巷","ALLEY":" ","HOUSE_NO":"１３號五樓之１","E_COORD97":169573.78,"N_COORD97":2545741.8500000001,"ADDRESS":"北門路二段５７７巷１３號五樓之１","OBJECTID":404306},"geometry":{"x":169573.78000000026,"y":2545741.8500000015}},{"attributes":{"ID":404331,"DIS_CODE":0,"TOWNNAME":"北區","LI":"光武里","LIN":"11鄰","STREET":"北門路","SECT":"二段","MAREA":" ","LANE":"５７７巷","ALLEY":" ","HOUSE_NO":"１３號六樓之１","E_COORD97":169573.78,"N_COORD97":2545741.8500000001,"ADDRESS":"北門路二段５７７巷１３號六樓之１","OBJECTID":404307},"geometry":{"x":169573.78000000026,"y":2545741.8500000015}},{"attributes":{"ID":404332,"DIS_CODE":0,"TOWNNAME":"北區","LI":"光武里","LIN":"11鄰","STREET":"北門路","SECT":"二段","MAREA":" ","LANE":"５７７巷","ALLEY":" ","HOUSE_NO":"１３號七樓之１","E_COORD97":169573.78,"N_COORD97":2545741.8500000001,"ADDRESS":"北門路二段５７７巷１３號七樓之１","OBJECTID":404308},"geometry":{"x":169573.78000000026,"y":2545741.8500000015}},{"attributes":{"ID":404333,"DIS_CODE":0,"TOWNNAME":"北區","LI":"光武里","LIN":"11鄰","STREET":"北門路","SECT":"二段","MAREA":" ","LANE":"５７７巷","ALLEY":" ","HOUSE_NO":"１３號八樓之１","E_COORD97":169573.78,"N_COORD97":2545741.8500000001,"ADDRESS":"北門路二段５７７巷１３號八樓之１","OBJECTID":404309},"geometry":{"x":169573.78000000026,"y":2545741.8500000015}},{"attributes":{"ID":404334,"DIS_CODE":0,"TOWNNAME":"北區","LI":"光武里","LIN":"11鄰","STREET":"北門路","SECT":"二段","MAREA":" ","LANE":"５７７巷","ALLEY":" ","HOUSE_NO":"１３號九樓之１","E_COORD97":169573.78,"N_COORD97":2545741.8500000001,"ADDRESS":"北門路二段５７７巷１３號九樓之１","OBJECTID":404310},"geometry":{"x":169573.78000000026,"y":2545741.8500000015}},{"attributes":{"ID":404335,"DIS_CODE":0,"TOWNNAME":"北區","LI":"光武里","LIN":"11鄰","STREET":"北門路","SECT":"二段","MAREA":" ","LANE":"５７７巷","ALLEY":" ","HOUSE_NO":"１３號十樓之１","E_COORD97":169573.78,"N_COORD97":2545741.8500000001,"ADDRESS":"北門路二段５７７巷１３號十樓之１","OBJECTID":404311},"geometry":{"x":169573.78000000026,"y":2545741.8500000015}},{"attributes":{"ID":404336,"DIS_CODE":0,"TOWNNAME":"北區","LI":"光武里","LIN":"11鄰","STREET":"北門路","SECT":"二段","MAREA":" ","LANE":"５７７巷","ALLEY":" ","HOUSE_NO":"１３號三樓之２","E_COORD97":169573.78,"N_COORD97":2545741.8500000001,"ADDRESS":"北門路二段５７７巷１３號三樓之２","OBJECTID":404312},"geometry":{"x":169573.78000000026,"y":2545741.8500000015}},{"attributes":{"ID":404337,"DIS_CODE":0,"TOWNNAME":"北區","LI":"光武里","LIN":"11鄰","STREET":"北門路","SECT":"二段","MAREA":" ","LANE":"５７７巷","ALLEY":" ","HOUSE_NO":"１３號四樓之２","E_COORD97":169573.78,"N_COORD97":2545741.8500000001,"ADDRESS":"北門路二段５７７巷１３號四樓之２","OBJECTID":404313},"geometry":{"x":169573.78000000026,"y":2545741.8500000015}},{"attributes":{"ID":404338,"DIS_CODE":0,"TOWNNAME":"北區","LI":"光武里","LIN":"11鄰","STREET":"北門路","SECT":"二段","MAREA":" ","LANE":"５７７巷","ALLEY":" ","HOUSE_NO":"１３號五樓之２","E_COORD97":169573.78,"N_COORD97":2545741.8500000001,"ADDRESS":"北門路二段５７７巷１３號五樓之２","OBJECTID":404314},"geometry":{"x":169573.78000000026,"y":2545741.8500000015}},{"attributes":{"ID":404339,"DIS_CODE":0,"TOWNNAME":"北區","LI":"光武里","LIN":"11鄰","STREET":"北門路","SECT":"二段","MAREA":" ","LANE":"５７７巷","ALLEY":" ","HOUSE_NO":"１３號六樓之２","E_COORD97":169573.78,"N_COORD97":2545741.8500000001,"ADDRESS":"北門路二段５７７巷１３號六樓之２","OBJECTID":404315},"geometry":{"x":169573.78000000026,"y":2545741.8500000015}},{"attributes":{"ID":404340,"DIS_CODE":0,"TOWNNAME":"北區","LI":"光武里","LIN":"11鄰","STREET":"北門路","SECT":"二段","MAREA":" ","LANE":"５７７巷","ALLEY":" ","HOUSE_NO":"１３號七樓之２","E_COORD97":169573.78,"N_COORD97":2545741.8500000001,"ADDRESS":"北門路二段５７７巷１３號七樓之２","OBJECTID":404316},"geometry":{"x":169573.78000000026,"y":2545741.8500000015}},{"attributes":{"ID":404341,"DIS_CODE":0,"TOWNNAME":"北區","LI":"光武里","LIN":"11鄰","STREET":"北門路","SECT":"二段","MAREA":" ","LANE":"５７７巷","ALLEY":" ","HOUSE_NO":"１３號八樓之２","E_COORD97":169573.78,"N_COORD97":2545741.8500000001,"ADDRESS":"北門路二段５７７巷１３號八樓之２","OBJECTID":404317},"geometry":{"x":169573.78000000026,"y":2545741.8500000015}},{"attributes":{"ID":404342,"DIS_CODE":0,"TOWNNAME":"北區","LI":"光武里","LIN":"11鄰","STREET":"北門路","SECT":"二段","MAREA":" ","LANE":"５７７巷","ALLEY":" ","HOUSE_NO":"１３號九樓之２","E_COORD97":169573.78,"N_COORD97":2545741.8500000001,"ADDRESS":"北門路二段５７７巷１３號九樓之２","OBJECTID":404318},"geometry":{"x":169573.78000000026,"y":2545741.8500000015}},{"attributes":{"ID":404343,"DIS_CODE":0,"TOWNNAME":"北區","LI":"光武里","LIN":"11鄰","STREET":"北門路","SECT":"二段","MAREA":" ","LANE":"５７７巷","ALLEY":" ","HOUSE_NO":"１３號十樓之２","E_COORD97":169573.78,"N_COORD97":2545741.8500000001,"ADDRESS":"北門路二段５７７巷１３號十樓之２","OBJECTID":404319},"geometry":{"x":169573.78000000026,"y":2545741.8500000015}},{"attributes":{"ID":404344,"DIS_CODE":0,"TOWNNAME":"北區","LI":"光武里","LIN":"11鄰","STREET":"北門路","SECT":"二段","MAREA":" ","LANE":"５７７巷","ALLEY":" ","HOUSE_NO":"１３號十一樓之１","E_COORD97":169573.78,"N_COORD97":2545741.8500000001,"ADDRESS":"北門路二段５７７巷１３號十一樓之１","OBJECTID":404320},"geometry":{"x":169573.78000000026,"y":2545741.8500000015}},{"attributes":{"ID":404345,"DIS_CODE":0,"TOWNNAME":"北區","LI":"光武里","LIN":"11鄰","STREET":"北門路","SECT":"二段","MAREA":" ","LANE":"５７７巷","ALLEY":" ","HOUSE_NO":"１３號十一樓之２","E_COORD97":169573.78,"N_COORD97":2545741.8500000001,"ADDRESS":"北門路二段５７７巷１３號十一樓之２","OBJECTID":404321},"geometry":{"x":169573.78000000026,"y":2545741.8500000015}},{"attributes":{"ID":404346,"DIS_CODE":0,"TOWNNAME":"北區","LI":"大豐里","LIN":"11鄰","STREET":"和緯路","SECT":"四段","MAREA":" ","LANE":"９５巷","ALLEY":" ","HOUSE_NO":"４２號二樓","E_COORD97":167091.42999999999,"N_COORD97":2545340.5800000001,"ADDRESS":"和緯路四段９５巷４２號二樓","OBJECTID":404322},"geometry":{"x":167091.43000000063,"y":2545340.5800000019}},{"attributes":{"ID":404347,"DIS_CODE":0,"TOWNNAME":"北區","LI":"大豐里","LIN":"11鄰","STREET":"和緯路","SECT":"四段","MAREA":" ","LANE":"９５巷","ALLEY":" ","HOUSE_NO":"４２號三樓","E_COORD97":167091.42999999999,"N_COORD97":2545340.5800000001,"ADDRESS":"和緯路四段９５巷４２號三樓","OBJECTID":404323},"geometry":{"x":167091.43000000063,"y":2545340.5800000019}},{"attributes":{"ID":404348,"DIS_CODE":0,"TOWNNAME":"北區","LI":"大豐里","LIN":"11鄰","STREET":"和緯路","SECT":"四段","MAREA":" ","LANE":"９５巷","ALLEY":" ","HOUSE_NO":"４２號五樓","E_COORD97":167091.42999999999,"N_COORD97":2545340.5800000001,"ADDRESS":"和緯路四段９５巷４２號五樓","OBJECTID":404324},"geometry":{"x":167091.43000000063,"y":2545340.5800000019}},{"attributes":{"ID":404349,"DIS_CODE":0,"TOWNNAME":"北區","LI":"大豐里","LIN":"11鄰","STREET":"和緯路","SECT":"四段","MAREA":" ","LANE":"９５巷","ALLEY":" ","HOUSE_NO":"４２號四樓","E_COORD97":167091.42999999999,"N_COORD97":2545340.5800000001,"ADDRESS":"和緯路四段９５巷４２號四樓","OBJECTID":404325},"geometry":{"x":167091.43000000063,"y":2545340.5800000019}},{"attributes":{"ID":404350,"DIS_CODE":0,"TOWNNAME":"北區","LI":"大豐里","LIN":"11鄰","STREET":"和緯路","SECT":"四段","MAREA":" ","LANE":"９５巷","ALLEY":" ","HOUSE_NO":"４４號二樓","E_COORD97":167090.89999999999,"N_COORD97":2545331.02,"ADDRESS":"和緯路四段９５巷４４號二樓","OBJECTID":404326},"geometry":{"x":167090.9000000013,"y":2545331.0199999996}},{"attributes":{"ID":404351,"DIS_CODE":0,"TOWNNAME":"北區","LI":"大豐里","LIN":"11鄰","STREET":"和緯路","SECT":"四段","MAREA":" ","LANE":"９５巷","ALLEY":" ","HOUSE_NO":"４４號三樓","E_COORD97":167090.89999999999,"N_COORD97":2545331.02,"ADDRESS":"和緯路四段９５巷４４號三樓","OBJECTID":404327},"geometry":{"x":167090.9000000013,"y":2545331.0199999996}},{"attributes":{"ID":404352,"DIS_CODE":0,"TOWNNAME":"白河區","LI":"庄內里","LIN":"11鄰","STREET":"長安路","SECT":" ","MAREA":" ","LANE":"７６巷","ALLEY":" ","HOUSE_NO":"８號","E_COORD97":190653.98000000001,"N_COORD97":2583586.9500000002,"ADDRESS":"長安路７６巷８號","OBJECTID":404328},"geometry":{"x":190653.98000000045,"y":2583586.9500000011}},{"attributes":{"ID":404353,"DIS_CODE":0,"TOWNNAME":"北區","LI":"大豐里","LIN":"11鄰","STREET":"和緯路","SECT":"四段","MAREA":" ","LANE":"９５巷","ALLEY":" ","HOUSE_NO":"４４號五樓","E_COORD97":167090.89999999999,"N_COORD97":2545331.02,"ADDRESS":"和緯路四段９５巷４４號五樓","OBJECTID":404329},"geometry":{"x":167090.9000000013,"y":2545331.0199999996}},{"attributes":{"ID":404354,"DIS_CODE":0,"TOWNNAME":"北區","LI":"大豐里","LIN":"11鄰","STREET":"和緯路","SECT":"四段","MAREA":" ","LANE":"９５巷","ALLEY":" ","HOUSE_NO":"４４號四樓","E_COORD97":167090.89999999999,"N_COORD97":2545331.02,"ADDRESS":"和緯路四段９５巷４４號四樓","OBJECTID":404330},"geometry":{"x":167090.9000000013,"y":2545331.0199999996}},{"attributes":{"ID":404355,"DIS_CODE":0,"TOWNNAME":"北區","LI":"大豐里","LIN":"11鄰","STREET":"和緯路","SECT":"四段","MAREA":" ","LANE":"９５巷","ALLEY":" ","HOUSE_NO":"４６號二樓","E_COORD97":167090.45999999999,"N_COORD97":2545327.1299999999,"ADDRESS":"和緯路四段９５巷４６號二樓","OBJECTID":404331},"geometry":{"x":167090.46000000089,"y":2545327.129999999}},{"attributes":{"ID":404356,"DIS_CODE":0,"TOWNNAME":"北區","LI":"大豐里","LIN":"11鄰","STREET":"和緯路","SECT":"四段","MAREA":" ","LANE":"９５巷","ALLEY":" ","HOUSE_NO":"４６號三樓","E_COORD97":167090.45999999999,"N_COORD97":2545327.1299999999,"ADDRESS":"和緯路四段９５巷４６號三樓","OBJECTID":404332},"geometry":{"x":167090.46000000089,"y":2545327.129999999}},{"attributes":{"ID":404357,"DIS_CODE":0,"TOWNNAME":"北區","LI":"大豐里","LIN":"11鄰","STREET":"和緯路","SECT":"四段","MAREA":" ","LANE":"９５巷","ALLEY":" ","HOUSE_NO":"４６號四樓","E_COORD97":167090.45999999999,"N_COORD97":2545327.1299999999,"ADDRESS":"和緯路四段９５巷４６號四樓","OBJECTID":404333},"geometry":{"x":167090.46000000089,"y":2545327.129999999}},{"attributes":{"ID":404358,"DIS_CODE":0,"TOWNNAME":"北區","LI":"大豐里","LIN":"11鄰","STREET":"和緯路","SECT":"四段","MAREA":" ","LANE":"９５巷","ALLEY":" ","HOUSE_NO":"４８號二樓","E_COORD97":167089.84,"N_COORD97":2545317.9199999999,"ADDRESS":"和緯路四段９５巷４８號二樓","OBJECTID":404334},"geometry":{"x":167089.83999999985,"y":2545317.9200000018}},{"attributes":{"ID":404359,"DIS_CODE":0,"TOWNNAME":"北區","LI":"大豐里","LIN":"11鄰","STREET":"和緯路","SECT":"四段","MAREA":" ","LANE":"９５巷","ALLEY":" ","HOUSE_NO":"４８號三樓","E_COORD97":167089.84,"N_COORD97":2545317.9199999999,"ADDRESS":"和緯路四段９５巷４８號三樓","OBJECTID":404335},"geometry":{"x":167089.83999999985,"y":2545317.9200000018}},{"attributes":{"ID":404360,"DIS_CODE":0,"TOWNNAME":"北區","LI":"大豐里","LIN":"11鄰","STREET":"和緯路","SECT":"四段","MAREA":" ","LANE":"９５巷","ALLEY":" ","HOUSE_NO":"４８號五樓","E_COORD97":167089.84,"N_COORD97":2545317.9199999999,"ADDRESS":"和緯路四段９５巷４８號五樓","OBJECTID":404336},"geometry":{"x":167089.83999999985,"y":2545317.9200000018}},{"attributes":{"ID":404361,"DIS_CODE":0,"TOWNNAME":"北區","LI":"大豐里","LIN":"11鄰","STREET":"和緯路","SECT":"四段","MAREA":" ","LANE":"９５巷","ALLEY":" ","HOUSE_NO":"４８號四樓","E_COORD97":167089.84,"N_COORD97":2545317.9199999999,"ADDRESS":"和緯路四段９５巷４８號四樓","OBJECTID":404337},"geometry":{"x":167089.83999999985,"y":2545317.9200000018}},{"attributes":{"ID":404362,"DIS_CODE":0,"TOWNNAME":"北區","LI":"大豐里","LIN":"11鄰","STREET":"和緯路","SECT":"四段","MAREA":" ","LANE":"９５巷","ALLEY":" ","HOUSE_NO":"５０號二樓","E_COORD97":167089.23000000001,"N_COORD97":2545314.3900000001,"ADDRESS":"和緯路四段９５巷５０號二樓","OBJECTID":404338},"geometry":{"x":167089.23000000045,"y":2545314.3900000025}},{"attributes":{"ID":404363,"DIS_CODE":0,"TOWNNAME":"北區","LI":"大豐里","LIN":"11鄰","STREET":"和緯路","SECT":"四段","MAREA":" ","LANE":"９５巷","ALLEY":" ","HOUSE_NO":"５０號三樓","E_COORD97":167089.23000000001,"N_COORD97":2545314.3900000001,"ADDRESS":"和緯路四段９５巷５０號三樓","OBJECTID":404339},"geometry":{"x":167089.23000000045,"y":2545314.3900000025}},{"attributes":{"ID":404364,"DIS_CODE":0,"TOWNNAME":"北區","LI":"大豐里","LIN":"11鄰","STREET":"和緯路","SECT":"四段","MAREA":" ","LANE":"９５巷","ALLEY":" ","HOUSE_NO":"５０號五樓","E_COORD97":167089.23000000001,"N_COORD97":2545314.3900000001,"ADDRESS":"和緯路四段９５巷５０號五樓","OBJECTID":404340},"geometry":{"x":167089.23000000045,"y":2545314.3900000025}},{"attributes":{"ID":404365,"DIS_CODE":0,"TOWNNAME":"北區","LI":"大豐里","LIN":"11鄰","STREET":"和緯路","SECT":"四段","MAREA":" ","LANE":"９５巷","ALLEY":" ","HOUSE_NO":"５０號四樓","E_COORD97":167089.23000000001,"N_COORD97":2545314.3900000001,"ADDRESS":"和緯路四段９５巷５０號四樓","OBJECTID":404341},"geometry":{"x":167089.23000000045,"y":2545314.3900000025}},{"attributes":{"ID":404366,"DIS_CODE":0,"TOWNNAME":"北區","LI":"大豐里","LIN":"11鄰","STREET":"和緯路","SECT":"四段","MAREA":" ","LANE":"９５巷","ALLEY":" ","HOUSE_NO":"５２號二樓","E_COORD97":167088.26000000001,"N_COORD97":2545305.0899999999,"ADDRESS":"和緯路四段９５巷５２號二樓","OBJECTID":404342},"geometry":{"x":167088.25999999978,"y":2545305.0900000036}},{"attributes":{"ID":404367,"DIS_CODE":0,"TOWNNAME":"北區","LI":"大豐里","LIN":"11鄰","STREET":"和緯路","SECT":"四段","MAREA":" ","LANE":"９５巷","ALLEY":" ","HOUSE_NO":"５２號三樓","E_COORD97":167088.26000000001,"N_COORD97":2545305.0899999999,"ADDRESS":"和緯路四段９５巷５２號三樓","OBJECTID":404343},"geometry":{"x":167088.25999999978,"y":2545305.0900000036}},{"attributes":{"ID":404368,"DIS_CODE":0,"TOWNNAME":"北區","LI":"大豐里","LIN":"11鄰","STREET":"和緯路","SECT":"四段","MAREA":" ","LANE":"９５巷","ALLEY":" ","HOUSE_NO":"５２號五樓","E_COORD97":167088.26000000001,"N_COORD97":2545305.0899999999,"ADDRESS":"和緯路四段９５巷５２號五樓","OBJECTID":404344},"geometry":{"x":167088.25999999978,"y":2545305.0900000036}},{"attributes":{"ID":404369,"DIS_CODE":0,"TOWNNAME":"北區","LI":"大豐里","LIN":"11鄰","STREET":"和緯路","SECT":"四段","MAREA":" ","LANE":"９５巷","ALLEY":" ","HOUSE_NO":"５２號四樓","E_COORD97":167088.26000000001,"N_COORD97":2545305.0899999999,"ADDRESS":"和緯路四段９５巷５２號四樓","OBJECTID":404345},"geometry":{"x":167088.25999999978,"y":2545305.0900000036}},{"attributes":{"ID":404370,"DIS_CODE":0,"TOWNNAME":"北區","LI":"大豐里","LIN":"11鄰","STREET":"和緯路","SECT":"四段","MAREA":" ","LANE":"９５巷","ALLEY":" ","HOUSE_NO":"５４號二樓","E_COORD97":167087.12,"N_COORD97":2545301.73,"ADDRESS":"和緯路四段９５巷５４號二樓","OBJECTID":404346},"geometry":{"x":167087.12000000197,"y":2545301.7300000023}},{"attributes":{"ID":404371,"DIS_CODE":0,"TOWNNAME":"北區","LI":"大豐里","LIN":"11鄰","STREET":"和緯路","SECT":"四段","MAREA":" ","LANE":"９５巷","ALLEY":" ","HOUSE_NO":"５４號三樓","E_COORD97":167087.12,"N_COORD97":2545301.73,"ADDRESS":"和緯路四段９５巷５４號三樓","OBJECTID":404347},"geometry":{"x":167087.12000000197,"y":2545301.7300000023}},{"attributes":{"ID":404372,"DIS_CODE":0,"TOWNNAME":"北區","LI":"大豐里","LIN":"11鄰","STREET":"和緯路","SECT":"四段","MAREA":" ","LANE":"９５巷","ALLEY":" ","HOUSE_NO":"５４號五樓","E_COORD97":167087.12,"N_COORD97":2545301.73,"ADDRESS":"和緯路四段９５巷５４號五樓","OBJECTID":404348},"geometry":{"x":167087.12000000197,"y":2545301.7300000023}},{"attributes":{"ID":404373,"DIS_CODE":0,"TOWNNAME":"北區","LI":"大豐里","LIN":"11鄰","STREET":"和緯路","SECT":"四段","MAREA":" ","LANE":"９５巷","ALLEY":" ","HOUSE_NO":"５４號四樓","E_COORD97":167087.12,"N_COORD97":2545301.73,"ADDRESS":"和緯路四段９５巷５４號四樓","OBJECTID":404349},"geometry":{"x":167087.12000000197,"y":2545301.7300000023}},{"attributes":{"ID":404374,"DIS_CODE":0,"TOWNNAME":"北區","LI":"大豐里","LIN":"11鄰","STREET":"和緯路","SECT":"四段","MAREA":" ","LANE":"９５巷","ALLEY":" ","HOUSE_NO":"５６號二樓","E_COORD97":167086.32999999999,"N_COORD97":2545292.4199999999,"ADDRESS":"和緯路四段９５巷５６號二樓","OBJECTID":404350},"geometry":{"x":167086.33000000101,"y":2545292.4199999999}},{"attributes":{"ID":404375,"DIS_CODE":0,"TOWNNAME":"北區","LI":"大豐里","LIN":"11鄰","STREET":"和緯路","SECT":"四段","MAREA":" ","LANE":"９５巷","ALLEY":" ","HOUSE_NO":"５６號三樓","E_COORD97":167086.32999999999,"N_COORD97":2545292.4199999999,"ADDRESS":"和緯路四段９５巷５６號三樓","OBJECTID":404351},"geometry":{"x":167086.33000000101,"y":2545292.4199999999}},{"attributes":{"ID":404376,"DIS_CODE":0,"TOWNNAME":"北區","LI":"大豐里","LIN":"11鄰","STREET":"和緯路","SECT":"四段","MAREA":" ","LANE":"９５巷","ALLEY":" ","HOUSE_NO":"５６號五樓","E_COORD97":167086.32999999999,"N_COORD97":2545292.4199999999,"ADDRESS":"和緯路四段９５巷５６號五樓","OBJECTID":404352},"geometry":{"x":167086.33000000101,"y":2545292.4199999999}},{"attributes":{"ID":404377,"DIS_CODE":0,"TOWNNAME":"北區","LI":"大豐里","LIN":"11鄰","STREET":"和緯路","SECT":"四段","MAREA":" ","LANE":"９５巷","ALLEY":" ","HOUSE_NO":"５６號四樓","E_COORD97":167086.32999999999,"N_COORD97":2545292.4199999999,"ADDRESS":"和緯路四段９５巷５６號四樓","OBJECTID":404353},"geometry":{"x":167086.33000000101,"y":2545292.4199999999}},{"attributes":{"ID":404378,"DIS_CODE":0,"TOWNNAME":"北區","LI":"大豐里","LIN":"11鄰","STREET":"和緯路","SECT":"四段","MAREA":" ","LANE":"９５巷","ALLEY":" ","HOUSE_NO":"５８號二樓","E_COORD97":167086.14999999999,"N_COORD97":2545288.9199999999,"ADDRESS":"和緯路四段９５巷５８號二樓","OBJECTID":404354},"geometry":{"x":167086.1500000013,"y":2545288.9199999999}},{"attributes":{"ID":404379,"DIS_CODE":0,"TOWNNAME":"北區","LI":"大豐里","LIN":"11鄰","STREET":"和緯路","SECT":"四段","MAREA":" ","LANE":"９５巷","ALLEY":" ","HOUSE_NO":"５８號三樓","E_COORD97":167086.14999999999,"N_COORD97":2545288.9199999999,"ADDRESS":"和緯路四段９５巷５８號三樓","OBJECTID":404355},"geometry":{"x":167086.1500000013,"y":2545288.9199999999}},{"attributes":{"ID":404380,"DIS_CODE":0,"TOWNNAME":"北區","LI":"大豐里","LIN":"11鄰","STREET":"和緯路","SECT":"四段","MAREA":" ","LANE":"９５巷","ALLEY":" ","HOUSE_NO":"５８號五樓","E_COORD97":167086.14999999999,"N_COORD97":2545288.9199999999,"ADDRESS":"和緯路四段９５巷５８號五樓","OBJECTID":404356},"geometry":{"x":167086.1500000013,"y":2545288.9199999999}},{"attributes":{"ID":404381,"DIS_CODE":0,"TOWNNAME":"北區","LI":"大豐里","LIN":"11鄰","STREET":"和緯路","SECT":"四段","MAREA":" ","LANE":"９５巷","ALLEY":" ","HOUSE_NO":"５８號四樓","E_COORD97":167086.14999999999,"N_COORD97":2545288.9199999999,"ADDRESS":"和緯路四段９５巷５８號四樓","OBJECTID":404357},"geometry":{"x":167086.1500000013,"y":2545288.9199999999}},{"attributes":{"ID":404382,"DIS_CODE":0,"TOWNNAME":"北區","LI":"大豐里","LIN":"11鄰","STREET":"和緯路","SECT":"四段","MAREA":" ","LANE":"９５巷","ALLEY":" ","HOUSE_NO":"６０號二樓","E_COORD97":167084.07999999999,"N_COORD97":2545280.6499999999,"ADDRESS":"和緯路四段９５巷６０號二樓","OBJECTID":404358},"geometry":{"x":167084.08000000101,"y":2545280.6500000004}},{"attributes":{"ID":404383,"DIS_CODE":0,"TOWNNAME":"北區","LI":"大豐里","LIN":"11鄰","STREET":"和緯路","SECT":"四段","MAREA":" ","LANE":"９５巷","ALLEY":" ","HOUSE_NO":"６０號三樓","E_COORD97":167084.07999999999,"N_COORD97":2545280.6499999999,"ADDRESS":"和緯路四段９５巷６０號三樓","OBJECTID":404359},"geometry":{"x":167084.08000000101,"y":2545280.6500000004}},{"attributes":{"ID":404384,"DIS_CODE":0,"TOWNNAME":"北區","LI":"大豐里","LIN":"11鄰","STREET":"和緯路","SECT":"四段","MAREA":" ","LANE":"９５巷","ALLEY":" ","HOUSE_NO":"６０號四樓","E_COORD97":167084.07999999999,"N_COORD97":2545280.6499999999,"ADDRESS":"和緯路四段９５巷６０號四樓","OBJECTID":404360},"geometry":{"x":167084.08000000101,"y":2545280.6500000004}},{"attributes":{"ID":404385,"DIS_CODE":0,"TOWNNAME":"東區","LI":"崇善里","LIN":"8鄰","STREET":"崇善七街","SECT":" ","MAREA":" ","LANE":"８巷","ALLEY":" ","HOUSE_NO":"９號","E_COORD97":171093.89000000001,"N_COORD97":2541417.7999999998,"ADDRESS":"崇善七街８巷９號","OBJECTID":404361},"geometry":{"x":171093.89000000153,"y":2541417.8000000007}},{"attributes":{"ID":404386,"DIS_CODE":0,"TOWNNAME":"東區","LI":"富強里","LIN":"16鄰","STREET":"裕農路","SECT":" ","MAREA":" ","LANE":"２８８巷","ALLEY":" ","HOUSE_NO":"５５號","E_COORD97":170999.73000000001,"N_COORD97":2542955.6800000002,"ADDRESS":"裕農路２８８巷５５號","OBJECTID":404362},"geometry":{"x":170999.73000000138,"y":2542955.6800000016}},{"attributes":{"ID":404387,"DIS_CODE":0,"TOWNNAME":"新營區","LI":"民權里","LIN":"11鄰","STREET":"信義街","SECT":" ","MAREA":" ","LANE":"５３巷","ALLEY":" ","HOUSE_NO":"３之４號四樓之１","E_COORD97":179879.64999999999,"N_COORD97":2578280.9900000002,"ADDRESS":"信義街５３巷３之４號四樓之１","OBJECTID":404363},"geometry":{"x":179879.6500000013,"y":2578280.9900000039}},{"attributes":{"ID":404388,"DIS_CODE":0,"TOWNNAME":"中西區","LI":"大涼里","LIN":"13鄰","STREET":"金城街","SECT":" ","MAREA":" ","LANE":" ","ALLEY":" ","HOUSE_NO":"５７號","E_COORD97":166891.07999999999,"N_COORD97":2543706.9199999999,"ADDRESS":"金城街５７號","OBJECTID":404364},"geometry":{"x":166891.08000000101,"y":2543706.9200000018}},{"attributes":{"ID":404389,"DIS_CODE":0,"TOWNNAME":"新營區","LI":"民權里","LIN":"11鄰","STREET":"信義街","SECT":" ","MAREA":" ","LANE":"５３巷","ALLEY":" ","HOUSE_NO":"３之４號二樓之２","E_COORD97":179879.78,"N_COORD97":2578280.9900000002,"ADDRESS":"信義街５３巷３之４號二樓之２","OBJECTID":404365},"geometry":{"x":179879.78000000212,"y":2578280.9900000039}},{"attributes":{"ID":404390,"DIS_CODE":0,"TOWNNAME":"新營區","LI":"民權里","LIN":"11鄰","STREET":"信義街","SECT":" ","MAREA":" ","LANE":"５３巷","ALLEY":" ","HOUSE_NO":"３之４號一樓之４","E_COORD97":179879.67000000001,"N_COORD97":2578280.9900000002,"ADDRESS":"信義街５３巷３之４號一樓之４","OBJECTID":404366},"geometry":{"x":179879.66999999993,"y":2578280.9900000039}},{"attributes":{"ID":404391,"DIS_CODE":0,"TOWNNAME":"新營區","LI":"民權里","LIN":"11鄰","STREET":"信義街","SECT":" ","MAREA":" ","LANE":"５３巷","ALLEY":" ","HOUSE_NO":"３之４號四樓之８","E_COORD97":179879.79000000001,"N_COORD97":2578280.9900000002,"ADDRESS":"信義街５３巷３之４號四樓之８","OBJECTID":404367},"geometry":{"x":179879.79000000097,"y":2578280.9900000039}},{"attributes":{"ID":404392,"DIS_CODE":0,"TOWNNAME":"新營區","LI":"民權里","LIN":"11鄰","STREET":"信義街","SECT":" ","MAREA":" ","LANE":"５３巷","ALLEY":" ","HOUSE_NO":"３之４號五樓之８","E_COORD97":179879.79000000001,"N_COORD97":2578280.9900000002,"ADDRESS":"信義街５３巷３之４號五樓之８","OBJECTID":404368},"geometry":{"x":179879.79000000097,"y":2578280.9900000039}},{"attributes":{"ID":404393,"DIS_CODE":0,"TOWNNAME":"新營區","LI":"民權里","LIN":"11鄰","STREET":"信義街","SECT":" ","MAREA":" ","LANE":"５３巷","ALLEY":" ","HOUSE_NO":"３之４號一樓之６","E_COORD97":179879.75,"N_COORD97":2578280.9900000002,"ADDRESS":"信義街５３巷３之４號一樓之６","OBJECTID":404369},"geometry":{"x":179879.75000000093,"y":2578280.9900000039}},{"attributes":{"ID":404394,"DIS_CODE":0,"TOWNNAME":"東區","LI":"後甲里","LIN":"11鄰","STREET":"建東街","SECT":" ","MAREA":" ","LANE":"４３巷","ALLEY":" ","HOUSE_NO":"１９號","E_COORD97":171719.37,"N_COORD97":2543405.4399999999,"ADDRESS":"建東街４３巷１９號","OBJECTID":404370},"geometry":{"x":171719.37000000011,"y":2543405.4399999995}},{"attributes":{"ID":404395,"DIS_CODE":0,"TOWNNAME":"南區","LI":"新生里","LIN":"11鄰","STREET":"大同路","SECT":"二段","MAREA":" ","LANE":"１３６巷","ALLEY":" ","HOUSE_NO":"１３號十樓之１","E_COORD97":169228.29000000001,"N_COORD97":2542052.0699999998,"ADDRESS":"大同路二段１３６巷１３號十樓之１","OBJECTID":404371},"geometry":{"x":169228.29000000004,"y":2542052.0700000022}},{"attributes":{"ID":404396,"DIS_CODE":0,"TOWNNAME":"南區","LI":"新生里","LIN":"11鄰","STREET":"大同路","SECT":"二段","MAREA":" ","LANE":"１３６巷","ALLEY":" ","HOUSE_NO":"１３號十樓之２","E_COORD97":169228.29000000001,"N_COORD97":2542052.0699999998,"ADDRESS":"大同路二段１３６巷１３號十樓之２","OBJECTID":404372},"geometry":{"x":169228.29000000004,"y":2542052.0700000022}},{"attributes":{"ID":404397,"DIS_CODE":0,"TOWNNAME":"南區","LI":"新生里","LIN":"11鄰","STREET":"大同路","SECT":"二段","MAREA":" ","LANE":"１３６巷","ALLEY":" ","HOUSE_NO":"１３號十樓之３","E_COORD97":169228.29000000001,"N_COORD97":2542052.0699999998,"ADDRESS":"大同路二段１３６巷１３號十樓之３","OBJECTID":404373},"geometry":{"x":169228.29000000004,"y":2542052.0700000022}},{"attributes":{"ID":404398,"DIS_CODE":0,"TOWNNAME":"南區","LI":"新生里","LIN":"11鄰","STREET":"大同路","SECT":"二段","MAREA":" ","LANE":"１３６巷","ALLEY":" ","HOUSE_NO":"１３號十樓之５","E_COORD97":169228.29000000001,"N_COORD97":2542052.0699999998,"ADDRESS":"大同路二段１３６巷１３號十樓之５","OBJECTID":404374},"geometry":{"x":169228.29000000004,"y":2542052.0700000022}},{"attributes":{"ID":404399,"DIS_CODE":0,"TOWNNAME":"南區","LI":"新生里","LIN":"11鄰","STREET":"大同路","SECT":"二段","MAREA":" ","LANE":"１３６巷","ALLEY":" ","HOUSE_NO":"１３號十一樓之１","E_COORD97":169228.29000000001,"N_COORD97":2542052.0699999998,"ADDRESS":"大同路二段１３６巷１３號十一樓之１","OBJECTID":404375},"geometry":{"x":169228.29000000004,"y":2542052.0700000022}},{"attributes":{"ID":404400,"DIS_CODE":0,"TOWNNAME":"南區","LI":"新生里","LIN":"11鄰","STREET":"大同路","SECT":"二段","MAREA":" ","LANE":"１３６巷","ALLEY":" ","HOUSE_NO":"１３號十一樓之２","E_COORD97":169228.29000000001,"N_COORD97":2542052.0699999998,"ADDRESS":"大同路二段１３６巷１３號十一樓之２","OBJECTID":404376},"geometry":{"x":169228.29000000004,"y":2542052.0700000022}},{"attributes":{"ID":404401,"DIS_CODE":0,"TOWNNAME":"南區","LI":"新生里","LIN":"11鄰","STREET":"大同路","SECT":"二段","MAREA":" ","LANE":"１３６巷","ALLEY":" ","HOUSE_NO":"１３號十一樓之３","E_COORD97":169228.29000000001,"N_COORD97":2542052.0699999998,"ADDRESS":"大同路二段１３６巷１３號十一樓之３","OBJECTID":404377},"geometry":{"x":169228.29000000004,"y":2542052.0700000022}},{"attributes":{"ID":404402,"DIS_CODE":0,"TOWNNAME":"南區","LI":"新生里","LIN":"11鄰","STREET":"大同路","SECT":"二段","MAREA":" ","LANE":"１３６巷","ALLEY":" ","HOUSE_NO":"１３號十一樓之５","E_COORD97":169228.29000000001,"N_COORD97":2542052.0699999998,"ADDRESS":"大同路二段１３６巷１３號十一樓之５","OBJECTID":404378},"geometry":{"x":169228.29000000004,"y":2542052.0700000022}},{"attributes":{"ID":404403,"DIS_CODE":0,"TOWNNAME":"南區","LI":"新生里","LIN":"11鄰","STREET":"大同路","SECT":"二段","MAREA":" ","LANE":"１３６巷","ALLEY":" ","HOUSE_NO":"１３號十二樓之１","E_COORD97":169228.29000000001,"N_COORD97":2542052.0699999998,"ADDRESS":"大同路二段１３６巷１３號十二樓之１","OBJECTID":404379},"geometry":{"x":169228.29000000004,"y":2542052.0700000022}},{"attributes":{"ID":404404,"DIS_CODE":0,"TOWNNAME":"南區","LI":"新生里","LIN":"11鄰","STREET":"大同路","SECT":"二段","MAREA":" ","LANE":"１３６巷","ALLEY":" ","HOUSE_NO":"１３號十二樓之２","E_COORD97":169228.29000000001,"N_COORD97":2542052.0699999998,"ADDRESS":"大同路二段１３６巷１３號十二樓之２","OBJECTID":404380},"geometry":{"x":169228.29000000004,"y":2542052.0700000022}},{"attributes":{"ID":404405,"DIS_CODE":0,"TOWNNAME":"南區","LI":"新生里","LIN":"11鄰","STREET":"大同路","SECT":"二段","MAREA":" ","LANE":"１３６巷","ALLEY":" ","HOUSE_NO":"１３號十二樓之３","E_COORD97":169228.29000000001,"N_COORD97":2542052.0699999998,"ADDRESS":"大同路二段１３６巷１３號十二樓之３","OBJECTID":404381},"geometry":{"x":169228.29000000004,"y":2542052.0700000022}},{"attributes":{"ID":404406,"DIS_CODE":0,"TOWNNAME":"南區","LI":"新生里","LIN":"11鄰","STREET":"大同路","SECT":"二段","MAREA":" ","LANE":"１３６巷","ALLEY":" ","HOUSE_NO":"１３號十二樓之５","E_COORD97":169228.29000000001,"N_COORD97":2542052.0699999998,"ADDRESS":"大同路二段１３６巷１３號十二樓之５","OBJECTID":404382},"geometry":{"x":169228.29000000004,"y":2542052.0700000022}},{"attributes":{"ID":404407,"DIS_CODE":0,"TOWNNAME":"南區","LI":"新生里","LIN":"11鄰","STREET":"大同路","SECT":"二段","MAREA":" ","LANE":"１３６巷","ALLEY":" ","HOUSE_NO":"１３號十三樓之２","E_COORD97":169228.29000000001,"N_COORD97":2542052.0699999998,"ADDRESS":"大同路二段１３６巷１３號十三樓之２","OBJECTID":404383},"geometry":{"x":169228.29000000004,"y":2542052.0700000022}},{"attributes":{"ID":404408,"DIS_CODE":0,"TOWNNAME":"南區","LI":"新生里","LIN":"11鄰","STREET":"大同路","SECT":"二段","MAREA":" ","LANE":"１３６巷","ALLEY":" ","HOUSE_NO":"１３號十三樓之３","E_COORD97":169228.29000000001,"N_COORD97":2542052.0699999998,"ADDRESS":"大同路二段１３６巷１３號十三樓之３","OBJECTID":404384},"geometry":{"x":169228.29000000004,"y":2542052.0700000022}},{"attributes":{"ID":404409,"DIS_CODE":0,"TOWNNAME":"南區","LI":"新生里","LIN":"11鄰","STREET":"大同路","SECT":"二段","MAREA":" ","LANE":"１３６巷","ALLEY":" ","HOUSE_NO":"１３號十三樓之５","E_COORD97":169228.29000000001,"N_COORD97":2542052.0699999998,"ADDRESS":"大同路二段１３６巷１３號十三樓之５","OBJECTID":404385},"geometry":{"x":169228.29000000004,"y":2542052.0700000022}},{"attributes":{"ID":404410,"DIS_CODE":0,"TOWNNAME":"南區","LI":"新生里","LIN":"11鄰","STREET":"大同路","SECT":"二段","MAREA":" ","LANE":"１３６巷","ALLEY":" ","HOUSE_NO":"１３號十三樓之１","E_COORD97":169228.29000000001,"N_COORD97":2542052.0699999998,"ADDRESS":"大同路二段１３６巷１３號十三樓之１","OBJECTID":404386},"geometry":{"x":169228.29000000004,"y":2542052.0700000022}},{"attributes":{"ID":404411,"DIS_CODE":0,"TOWNNAME":"東區","LI":"後甲里","LIN":"11鄰","STREET":"裕農路","SECT":" ","MAREA":" ","LANE":"６６１巷","ALLEY":" ","HOUSE_NO":"６５號","E_COORD97":171701.51000000001,"N_COORD97":2543384.02,"ADDRESS":"裕農路６６１巷６５號","OBJECTID":404387},"geometry":{"x":171701.50999999978,"y":2543384.0200000014}},{"attributes":{"ID":404412,"DIS_CODE":0,"TOWNNAME":"南區","LI":"新生里","LIN":"11鄰","STREET":"大同路","SECT":"二段","MAREA":" ","LANE":"１３６巷","ALLEY":" ","HOUSE_NO":"１３號一樓之１","E_COORD97":169228.29000000001,"N_COORD97":2542052.0699999998,"ADDRESS":"大同路二段１３６巷１３號一樓之１","OBJECTID":404388},"geometry":{"x":169228.29000000004,"y":2542052.0700000022}},{"attributes":{"ID":404413,"DIS_CODE":0,"TOWNNAME":"南區","LI":"新生里","LIN":"11鄰","STREET":"大同路","SECT":"二段","MAREA":" ","LANE":"１３６巷","ALLEY":" ","HOUSE_NO":"１３號一樓之２","E_COORD97":169228.29000000001,"N_COORD97":2542052.0699999998,"ADDRESS":"大同路二段１３６巷１３號一樓之２","OBJECTID":404389},"geometry":{"x":169228.29000000004,"y":2542052.0700000022}},{"attributes":{"ID":404414,"DIS_CODE":0,"TOWNNAME":"南區","LI":"新生里","LIN":"11鄰","STREET":"大同路","SECT":"二段","MAREA":" ","LANE":"１３６巷","ALLEY":" ","HOUSE_NO":"１３號二樓之１","E_COORD97":169228.29000000001,"N_COORD97":2542052.0699999998,"ADDRESS":"大同路二段１３６巷１３號二樓之１","OBJECTID":404390},"geometry":{"x":169228.29000000004,"y":2542052.0700000022}},{"attributes":{"ID":404415,"DIS_CODE":0,"TOWNNAME":"南區","LI":"新生里","LIN":"11鄰","STREET":"大同路","SECT":"二段","MAREA":" ","LANE":"１３６巷","ALLEY":" ","HOUSE_NO":"１３號二樓之２","E_COORD97":169228.29000000001,"N_COORD97":2542052.0699999998,"ADDRESS":"大同路二段１３６巷１３號二樓之２","OBJECTID":404391},"geometry":{"x":169228.29000000004,"y":2542052.0700000022}},{"attributes":{"ID":404416,"DIS_CODE":0,"TOWNNAME":"南區","LI":"新生里","LIN":"11鄰","STREET":"大同路","SECT":"二段","MAREA":" ","LANE":"１３６巷","ALLEY":" ","HOUSE_NO":"１３號二樓之３","E_COORD97":169228.29000000001,"N_COORD97":2542052.0699999998,"ADDRESS":"大同路二段１３６巷１３號二樓之３","OBJECTID":404392},"geometry":{"x":169228.29000000004,"y":2542052.0700000022}},{"attributes":{"ID":404417,"DIS_CODE":0,"TOWNNAME":"中西區","LI":"仙草里","LIN":"13鄰","STREET":"南寧街","SECT":" ","MAREA":" ","LANE":"８３巷","ALLEY":" ","HOUSE_NO":"５號","E_COORD97":167827.37,"N_COORD97":2542821.46,"ADDRESS":"南寧街８３巷５號","OBJECTID":404393},"geometry":{"x":167827.37000000011,"y":2542821.4600000009}},{"attributes":{"ID":404418,"DIS_CODE":0,"TOWNNAME":"南區","LI":"新生里","LIN":"11鄰","STREET":"大同路","SECT":"二段","MAREA":" ","LANE":"１３６巷","ALLEY":" ","HOUSE_NO":"１３號二樓之５","E_COORD97":169228.29000000001,"N_COORD97":2542052.0699999998,"ADDRESS":"大同路二段１３６巷１３號二樓之５","OBJECTID":404394},"geometry":{"x":169228.29000000004,"y":2542052.0700000022}},{"attributes":{"ID":404419,"DIS_CODE":0,"TOWNNAME":"南區","LI":"新生里","LIN":"11鄰","STREET":"大同路","SECT":"二段","MAREA":" ","LANE":"１３６巷","ALLEY":" ","HOUSE_NO":"１３號四樓之１","E_COORD97":169228.29000000001,"N_COORD97":2542052.0699999998,"ADDRESS":"大同路二段１３６巷１３號四樓之１","OBJECTID":404395},"geometry":{"x":169228.29000000004,"y":2542052.0700000022}},{"attributes":{"ID":404420,"DIS_CODE":0,"TOWNNAME":"南區","LI":"新生里","LIN":"11鄰","STREET":"大同路","SECT":"二段","MAREA":" ","LANE":"１３６巷","ALLEY":" ","HOUSE_NO":"１３號四樓之２","E_COORD97":169228.29000000001,"N_COORD97":2542052.0699999998,"ADDRESS":"大同路二段１３６巷１３號四樓之２","OBJECTID":404396},"geometry":{"x":169228.29000000004,"y":2542052.0700000022}},{"attributes":{"ID":404421,"DIS_CODE":0,"TOWNNAME":"南區","LI":"新生里","LIN":"11鄰","STREET":"大同路","SECT":"二段","MAREA":" ","LANE":"１３６巷","ALLEY":" ","HOUSE_NO":"１３號四樓之３","E_COORD97":169228.29000000001,"N_COORD97":2542052.0699999998,"ADDRESS":"大同路二段１３６巷１３號四樓之３","OBJECTID":404397},"geometry":{"x":169228.29000000004,"y":2542052.0700000022}},{"attributes":{"ID":404422,"DIS_CODE":0,"TOWNNAME":"南區","LI":"新生里","LIN":"11鄰","STREET":"大同路","SECT":"二段","MAREA":" ","LANE":"１３６巷","ALLEY":" ","HOUSE_NO":"１３號四樓之５","E_COORD97":169228.29000000001,"N_COORD97":2542052.0699999998,"ADDRESS":"大同路二段１３６巷１３號四樓之５","OBJECTID":404398},"geometry":{"x":169228.29000000004,"y":2542052.0700000022}},{"attributes":{"ID":404423,"DIS_CODE":0,"TOWNNAME":"南區","LI":"新生里","LIN":"11鄰","STREET":"大同路","SECT":"二段","MAREA":" ","LANE":"１３６巷","ALLEY":" ","HOUSE_NO":"１３號七樓之１","E_COORD97":169228.29000000001,"N_COORD97":2542052.0699999998,"ADDRESS":"大同路二段１３６巷１３號七樓之１","OBJECTID":404399},"geometry":{"x":169228.29000000004,"y":2542052.0700000022}},{"attributes":{"ID":404424,"DIS_CODE":0,"TOWNNAME":"南區","LI":"新生里","LIN":"11鄰","STREET":"大同路","SECT":"二段","MAREA":" ","LANE":"１３６巷","ALLEY":" ","HOUSE_NO":"１３號七樓之２","E_COORD97":169228.29000000001,"N_COORD97":2542052.0699999998,"ADDRESS":"大同路二段１３６巷１３號七樓之２","OBJECTID":404400},"geometry":{"x":169228.29000000004,"y":2542052.0700000022}}]}