{"displayFieldName":"TOWNNAME","fieldAliases":{"ID":"ID","DIS_CODE":"DIS_CODE","TOWNNAME":"TOWNNAME","LI":"LI","LIN":"LIN","STREET":"STREET","SECT":"SECT","MAREA":"MAREA","LANE":"LANE","ALLEY":"ALLEY","HOUSE_NO":"HOUSE_NO","E_COORD97":"E_COORD97","N_COORD97":"N_COORD97","ADDRESS":"ADDRESS","OBJECTID":"OBJECTID"},"geometryType":"esriGeometryPoint","spatialReference":{"wkid":102443,"latestWkid":3826},"fields":[{"name":"ID","type":"esriFieldTypeDouble","alias":"ID"},{"name":"DIS_CODE","type":"esriFieldTypeInteger","alias":"DIS_CODE"},{"name":"TOWNNAME","type":"esriFieldTypeString","alias":"TOWNNAME","length":8},{"name":"LI","type":"esriFieldTypeString","alias":"LI","length":8},{"name":"LIN","type":"esriFieldTypeString","alias":"LIN","length":12},{"name":"STREET","type":"esriFieldTypeString","alias":"STREET","length":20},{"name":"SECT","type":"esriFieldTypeString","alias":"SECT","length":8},{"name":"MAREA","type":"esriFieldTypeString","alias":"MAREA","length":12},{"name":"LANE","type":"esriFieldTypeString","alias":"LANE","length":10},{"name":"ALLEY","type":"esriFieldTypeString","alias":"ALLEY","length":10},{"name":"HOUSE_NO","type":"esriFieldTypeString","alias":"HOUSE_NO","length":20},{"name":"E_COORD97","type":"esriFieldTypeDouble","alias":"E_COORD97"},{"name":"N_COORD97","type":"esriFieldTypeDouble","alias":"N_COORD97"},{"name":"ADDRESS","type":"esriFieldTypeString","alias":"ADDRESS","length":50},{"name":"OBJECTID","type":"esriFieldTypeOID","alias":"OBJECTID"}],"features":[{"attributes":{"ID":293209,"DIS_CODE":0,"TOWNNAME":"永康區","LI":"王行里","LIN":"4鄰","STREET":"育樂街","SECT":" ","MAREA":" ","LANE":"１６７巷","ALLEY":" ","HOUSE_NO":"７號","E_COORD97":175007.62,"N_COORD97":2548307.98,"ADDRESS":"育樂街１６７巷７號","OBJECTID":293201},"geometry":{"x":175007.62000000104,"y":2548307.9800000023}},{"attributes":{"ID":293210,"DIS_CODE":0,"TOWNNAME":"永康區","LI":"正強里","LIN":"4鄰","STREET":"中正路","SECT":" ","MAREA":" ","LANE":"５５巷","ALLEY":" ","HOUSE_NO":"２１號","E_COORD97":173560.38,"N_COORD97":2547759.5,"ADDRESS":"中正路５５巷２１號","OBJECTID":293202},"geometry":{"x":173560.37999999989,"y":2547759.5}},{"attributes":{"ID":293211,"DIS_CODE":0,"TOWNNAME":"永康區","LI":"王行里","LIN":"4鄰","STREET":"育樂街","SECT":" ","MAREA":" ","LANE":"１８８巷","ALLEY":" ","HOUSE_NO":"４號","E_COORD97":175046.42000000001,"N_COORD97":2548362.1200000001,"ADDRESS":"育樂街１８８巷４號","OBJECTID":293203},"geometry":{"x":175046.41999999993,"y":2548362.1200000029}},{"attributes":{"ID":293212,"DIS_CODE":0,"TOWNNAME":"永康區","LI":"王行里","LIN":"4鄰","STREET":"中山北路","SECT":" ","MAREA":" ","LANE":"４９９巷","ALLEY":" ","HOUSE_NO":"１７號","E_COORD97":175208.85000000001,"N_COORD97":2548166.2000000002,"ADDRESS":"中山北路４９９巷１７號","OBJECTID":293204},"geometry":{"x":175208.85000000056,"y":2548166.2000000011}},{"attributes":{"ID":293213,"DIS_CODE":0,"TOWNNAME":"中西區","LI":"開山里","LIN":"17鄰","STREET":"大同路","SECT":"一段","MAREA":" ","LANE":"７０巷","ALLEY":" ","HOUSE_NO":"１７號五樓之３","E_COORD97":169078.51000000001,"N_COORD97":2543034.9700000002,"ADDRESS":"大同路一段７０巷１７號五樓之３","OBJECTID":293205},"geometry":{"x":169078.50999999978,"y":2543034.9699999988}},{"attributes":{"ID":293214,"DIS_CODE":0,"TOWNNAME":"關廟區","LI":"五甲里","LIN":"14鄰","STREET":"光復街","SECT":" ","MAREA":" ","LANE":" ","ALLEY":" ","HOUSE_NO":"２１號","E_COORD97":181414.39000000001,"N_COORD97":2539190.2799999998,"ADDRESS":"光復街２１號","OBJECTID":293206},"geometry":{"x":181414.3900000006,"y":2539190.2800000031}},{"attributes":{"ID":293215,"DIS_CODE":0,"TOWNNAME":"關廟區","LI":"松腳里","LIN":"14鄰","STREET":"東興路","SECT":" ","MAREA":" ","LANE":" ","ALLEY":" ","HOUSE_NO":"２３９號","E_COORD97":181830.26999999999,"N_COORD97":2539565.25,"ADDRESS":"東興路２３９號","OBJECTID":293207},"geometry":{"x":181830.27000000142,"y":2539565.2500000019}},{"attributes":{"ID":293216,"DIS_CODE":0,"TOWNNAME":"關廟區","LI":"南花里","LIN":"14鄰","STREET":"花園一街","SECT":" ","MAREA":" ","LANE":" ","ALLEY":" ","HOUSE_NO":"１８９號","E_COORD97":181682.48999999999,"N_COORD97":2540139.25,"ADDRESS":"花園一街１８９號","OBJECTID":293208},"geometry":{"x":181682.49000000115,"y":2540139.25}},{"attributes":{"ID":293217,"DIS_CODE":0,"TOWNNAME":"關廟區","LI":"關廟里","LIN":"14鄰","STREET":"大仁街","SECT":" ","MAREA":" ","LANE":" ","ALLEY":" ","HOUSE_NO":"３４５號","E_COORD97":180831.87,"N_COORD97":2539717.25,"ADDRESS":"大仁街３４５號","OBJECTID":293209},"geometry":{"x":180831.87000000104,"y":2539717.2500000019}},{"attributes":{"ID":293218,"DIS_CODE":0,"TOWNNAME":"關廟區","LI":"關廟里","LIN":"14鄰","STREET":"大仁街","SECT":" ","MAREA":" ","LANE":" ","ALLEY":" ","HOUSE_NO":"３５２號","E_COORD97":180870.67000000001,"N_COORD97":2539721.25,"ADDRESS":"大仁街３５２號","OBJECTID":293210},"geometry":{"x":180870.67000000086,"y":2539721.2500000019}},{"attributes":{"ID":293219,"DIS_CODE":0,"TOWNNAME":"關廟區","LI":"松腳里","LIN":"14鄰","STREET":"東興路","SECT":" ","MAREA":" ","LANE":" ","ALLEY":" ","HOUSE_NO":"２２５號","E_COORD97":181786.07000000001,"N_COORD97":2539566.25,"ADDRESS":"東興路２２５號","OBJECTID":293211},"geometry":{"x":181786.0700000003,"y":2539566.25}},{"attributes":{"ID":293220,"DIS_CODE":0,"TOWNNAME":"關廟區","LI":"松腳里","LIN":"14鄰","STREET":"四維街","SECT":" ","MAREA":" ","LANE":" ","ALLEY":" ","HOUSE_NO":"７１號","E_COORD97":181885.31,"N_COORD97":2539625.25,"ADDRESS":"四維街７１號","OBJECTID":293212},"geometry":{"x":181885.30999999959,"y":2539625.2500000037}},{"attributes":{"ID":293221,"DIS_CODE":0,"TOWNNAME":"關廟區","LI":"香洋里","LIN":"14鄰","STREET":"中正路","SECT":" ","MAREA":" ","LANE":" ","ALLEY":" ","HOUSE_NO":"９１３號","E_COORD97":181347.26000000001,"N_COORD97":2540210.25,"ADDRESS":"中正路９１３號","OBJECTID":293213},"geometry":{"x":181347.26000000164,"y":2540210.25}},{"attributes":{"ID":293222,"DIS_CODE":0,"TOWNNAME":"關廟區","LI":"松腳里","LIN":"14鄰","STREET":"東興路","SECT":" ","MAREA":" ","LANE":" ","ALLEY":" ","HOUSE_NO":"２４３號","E_COORD97":181839.07000000001,"N_COORD97":2539565.25,"ADDRESS":"東興路２４３號","OBJECTID":293214},"geometry":{"x":181839.07000000216,"y":2539565.2500000019}},{"attributes":{"ID":293223,"DIS_CODE":0,"TOWNNAME":"關廟區","LI":"松腳里","LIN":"14鄰","STREET":"東興路","SECT":" ","MAREA":" ","LANE":" ","ALLEY":" ","HOUSE_NO":"２４１號","E_COORD97":181834.87,"N_COORD97":2539565.25,"ADDRESS":"東興路２４１號","OBJECTID":293215},"geometry":{"x":181834.87000000011,"y":2539565.2500000019}},{"attributes":{"ID":293224,"DIS_CODE":0,"TOWNNAME":"新市區","LI":"新和里","LIN":"39鄰","STREET":"中正路","SECT":" ","MAREA":" ","LANE":"２６８巷","ALLEY":" ","HOUSE_NO":"１６號","E_COORD97":177509.23999999999,"N_COORD97":2553025,"ADDRESS":"中正路２６８巷１６號","OBJECTID":293216},"geometry":{"x":177509.24000000022,"y":2553025}},{"attributes":{"ID":293225,"DIS_CODE":0,"TOWNNAME":"新市區","LI":"新和里","LIN":"18鄰","STREET":"銘傳街","SECT":" ","MAREA":" ","LANE":"３０巷","ALLEY":" ","HOUSE_NO":"５號","E_COORD97":177498.45000000001,"N_COORD97":2552701.25,"ADDRESS":"銘傳街３０巷５號","OBJECTID":293217},"geometry":{"x":177498.45000000205,"y":2552701.25}},{"attributes":{"ID":293226,"DIS_CODE":0,"TOWNNAME":"新市區","LI":"潭頂里","LIN":"5鄰","STREET":" ","SECT":" ","MAREA":"潭頂","LANE":" ","ALLEY":" ","HOUSE_NO":"２３２號","E_COORD97":180734.62,"N_COORD97":2553075,"ADDRESS":"潭頂２３２號","OBJECTID":293218},"geometry":{"x":180734.62000000011,"y":2553075}},{"attributes":{"ID":293227,"DIS_CODE":0,"TOWNNAME":"新市區","LI":"潭頂里","LIN":"5鄰","STREET":" ","SECT":" ","MAREA":"潭頂","LANE":" ","ALLEY":" ","HOUSE_NO":"２２８號","E_COORD97":180757.69,"N_COORD97":2553046,"ADDRESS":"潭頂２２８號","OBJECTID":293219},"geometry":{"x":180757.69000000134,"y":2553046.0000000037}},{"attributes":{"ID":293228,"DIS_CODE":0,"TOWNNAME":"新市區","LI":"潭頂里","LIN":"5鄰","STREET":" ","SECT":" ","MAREA":"潭頂","LANE":" ","ALLEY":" ","HOUSE_NO":"２２５號","E_COORD97":180761.31,"N_COORD97":2553025.75,"ADDRESS":"潭頂２２５號","OBJECTID":293220},"geometry":{"x":180761.30999999959,"y":2553025.75}},{"attributes":{"ID":293229,"DIS_CODE":0,"TOWNNAME":"新市區","LI":"新和里","LIN":"39鄰","STREET":"中正路","SECT":" ","MAREA":" ","LANE":"１９５巷","ALLEY":" ","HOUSE_NO":"６之２號","E_COORD97":177332.59,"N_COORD97":2552903.5499999998,"ADDRESS":"中正路１９５巷６之２號","OBJECTID":293221},"geometry":{"x":177332.59000000171,"y":2552903.5500000007}},{"attributes":{"ID":293230,"DIS_CODE":0,"TOWNNAME":"新市區","LI":"潭頂里","LIN":"13鄰","STREET":" ","SECT":" ","MAREA":"潭頂","LANE":" ","ALLEY":" ","HOUSE_NO":"４６５號","E_COORD97":180442.76000000001,"N_COORD97":2552836.5,"ADDRESS":"潭頂４６５號","OBJECTID":293222},"geometry":{"x":180442.76000000071,"y":2552836.5000000019}},{"attributes":{"ID":293231,"DIS_CODE":0,"TOWNNAME":"新市區","LI":"新和里","LIN":"4鄰","STREET":"中正路","SECT":" ","MAREA":" ","LANE":"２３巷","ALLEY":" ","HOUSE_NO":"２號","E_COORD97":177441.26000000001,"N_COORD97":2552243.5,"ADDRESS":"中正路２３巷２號","OBJECTID":293223},"geometry":{"x":177441.25999999978,"y":2552243.5000000019}},{"attributes":{"ID":293232,"DIS_CODE":0,"TOWNNAME":"後壁區","LI":"墨林里","LIN":"4鄰","STREET":" ","SECT":" ","MAREA":"菁寮","LANE":" ","ALLEY":" ","HOUSE_NO":"１８９號","E_COORD97":182117.29000000001,"N_COORD97":2586452.25,"ADDRESS":"菁寮１８９號","OBJECTID":293224},"geometry":{"x":182117.29000000097,"y":2586452.25}},{"attributes":{"ID":293233,"DIS_CODE":0,"TOWNNAME":"新市區","LI":"潭頂里","LIN":"4鄰","STREET":" ","SECT":" ","MAREA":"潭頂","LANE":" ","ALLEY":" ","HOUSE_NO":"２０４之１號","E_COORD97":180942.70000000001,"N_COORD97":2553097.7999999998,"ADDRESS":"潭頂２０４之１號","OBJECTID":293225},"geometry":{"x":180942.70000000019,"y":2553097.8000000007}},{"attributes":{"ID":293234,"DIS_CODE":0,"TOWNNAME":"新市區","LI":"新和里","LIN":"39鄰","STREET":"中正路","SECT":" ","MAREA":" ","LANE":"１９５巷","ALLEY":" ","HOUSE_NO":"１號","E_COORD97":177399.92999999999,"N_COORD97":2552924.25,"ADDRESS":"中正路１９５巷１號","OBJECTID":293226},"geometry":{"x":177399.93000000063,"y":2552924.25}},{"attributes":{"ID":293235,"DIS_CODE":0,"TOWNNAME":"新市區","LI":"新市里","LIN":"5鄰","STREET":"華興街","SECT":" ","MAREA":" ","LANE":"７２巷","ALLEY":" ","HOUSE_NO":"１２號","E_COORD97":177602.78,"N_COORD97":2553025,"ADDRESS":"華興街７２巷１２號","OBJECTID":293227},"geometry":{"x":177602.78000000026,"y":2553025}},{"attributes":{"ID":293236,"DIS_CODE":0,"TOWNNAME":"新市區","LI":"新和里","LIN":"50鄰","STREET":"自強街","SECT":" ","MAREA":" ","LANE":"３４巷","ALLEY":" ","HOUSE_NO":"５號","E_COORD97":177672.48999999999,"N_COORD97":2553551.5,"ADDRESS":"自強街３４巷５號","OBJECTID":293228},"geometry":{"x":177672.49000000022,"y":2553551.5000000019}},{"attributes":{"ID":293237,"DIS_CODE":0,"TOWNNAME":"新市區","LI":"新和里","LIN":"20鄰","STREET":"成功街","SECT":" ","MAREA":" ","LANE":"１９巷","ALLEY":" ","HOUSE_NO":"６號","E_COORD97":177427.12,"N_COORD97":2552636.27,"ADDRESS":"成功街１９巷６號","OBJECTID":293229},"geometry":{"x":177427.12000000011,"y":2552636.2699999996}},{"attributes":{"ID":293238,"DIS_CODE":0,"TOWNNAME":"新市區","LI":"新和里","LIN":"26鄰","STREET":"永福街","SECT":" ","MAREA":" ","LANE":"１６巷","ALLEY":" ","HOUSE_NO":"１６號","E_COORD97":177790.23000000001,"N_COORD97":2552718.5,"ADDRESS":"永福街１６巷１６號","OBJECTID":293230},"geometry":{"x":177790.23000000138,"y":2552718.5000000019}},{"attributes":{"ID":293239,"DIS_CODE":0,"TOWNNAME":"關廟區","LI":"松腳里","LIN":"14鄰","STREET":"四維街","SECT":" ","MAREA":" ","LANE":" ","ALLEY":" ","HOUSE_NO":"６３號","E_COORD97":181888.01000000001,"N_COORD97":2539607.25,"ADDRESS":"四維街６３號","OBJECTID":293231},"geometry":{"x":181888.00999999885,"y":2539607.25}},{"attributes":{"ID":293240,"DIS_CODE":0,"TOWNNAME":"關廟區","LI":"松腳里","LIN":"14鄰","STREET":"東興路","SECT":" ","MAREA":" ","LANE":" ","ALLEY":" ","HOUSE_NO":"２３３號","E_COORD97":181809.47,"N_COORD97":2539569.25,"ADDRESS":"東興路２３３號","OBJECTID":293232},"geometry":{"x":181809.47000000067,"y":2539569.2500000019}},{"attributes":{"ID":293241,"DIS_CODE":0,"TOWNNAME":"關廟區","LI":"南花里","LIN":"14鄰","STREET":"和平路","SECT":" ","MAREA":" ","LANE":" ","ALLEY":" ","HOUSE_NO":"３１２號","E_COORD97":181658.64000000001,"N_COORD97":2540051.25,"ADDRESS":"和平路３１２號","OBJECTID":293233},"geometry":{"x":181658.6400000006,"y":2540051.25}},{"attributes":{"ID":293242,"DIS_CODE":0,"TOWNNAME":"關廟區","LI":"北花里","LIN":"14鄰","STREET":"花園三街","SECT":" ","MAREA":" ","LANE":" ","ALLEY":" ","HOUSE_NO":"２７號","E_COORD97":181972.23999999999,"N_COORD97":2540446.25,"ADDRESS":"花園三街２７號","OBJECTID":293234},"geometry":{"x":181972.24000000115,"y":2540446.2500000019}},{"attributes":{"ID":293243,"DIS_CODE":0,"TOWNNAME":"關廟區","LI":"東勢里","LIN":"14鄰","STREET":"東榮街","SECT":" ","MAREA":" ","LANE":" ","ALLEY":" ","HOUSE_NO":"１２６號","E_COORD97":182138.07000000001,"N_COORD97":2539361.25,"ADDRESS":"東榮街１２６號","OBJECTID":293235},"geometry":{"x":182138.07000000123,"y":2539361.2500000019}},{"attributes":{"ID":293244,"DIS_CODE":0,"TOWNNAME":"麻豆區","LI":"穀興里","LIN":"14鄰","STREET":"三民路","SECT":" ","MAREA":" ","LANE":" ","ALLEY":" ","HOUSE_NO":"９號之１７","E_COORD97":172790.70999999999,"N_COORD97":2564790.2599999998,"ADDRESS":"三民路９號之１７","OBJECTID":293236},"geometry":{"x":172790.71000000089,"y":2564790.2599999998}},{"attributes":{"ID":293245,"DIS_CODE":0,"TOWNNAME":"麻豆區","LI":"穀興里","LIN":"14鄰","STREET":"三民路","SECT":" ","MAREA":" ","LANE":" ","ALLEY":" ","HOUSE_NO":"９號之１８","E_COORD97":172790.63,"N_COORD97":2564794.29,"ADDRESS":"三民路９號之１８","OBJECTID":293237},"geometry":{"x":172790.62999999989,"y":2564794.2900000028}},{"attributes":{"ID":293246,"DIS_CODE":0,"TOWNNAME":"麻豆區","LI":"穀興里","LIN":"14鄰","STREET":"三民路","SECT":" ","MAREA":" ","LANE":" ","ALLEY":" ","HOUSE_NO":"９號之８","E_COORD97":172791.19,"N_COORD97":2564776.48,"ADDRESS":"三民路９號之８","OBJECTID":293238},"geometry":{"x":172791.19000000227,"y":2564776.4800000004}},{"attributes":{"ID":293247,"DIS_CODE":0,"TOWNNAME":"北區","LI":"大山里","LIN":"14鄰","STREET":"旭日街","SECT":" ","MAREA":" ","LANE":" ","ALLEY":" ","HOUSE_NO":"１３９號","E_COORD97":169400.57999999999,"N_COORD97":2545662.6899999999,"ADDRESS":"旭日街１３９號","OBJECTID":293239},"geometry":{"x":169400.58000000007,"y":2545662.6899999995}},{"attributes":{"ID":293248,"DIS_CODE":0,"TOWNNAME":"新市區","LI":"新市里","LIN":"25鄰","STREET":"復興路","SECT":" ","MAREA":" ","LANE":"６巷","ALLEY":" ","HOUSE_NO":"２８號","E_COORD97":177901.51000000001,"N_COORD97":2553348.2799999998,"ADDRESS":"復興路６巷２８號","OBJECTID":293240},"geometry":{"x":177901.51000000071,"y":2553348.2799999993}},{"attributes":{"ID":293249,"DIS_CODE":0,"TOWNNAME":"新市區","LI":"潭頂里","LIN":"4鄰","STREET":" ","SECT":" ","MAREA":"潭頂","LANE":" ","ALLEY":" ","HOUSE_NO":"２００號","E_COORD97":180906.39000000001,"N_COORD97":2553029,"ADDRESS":"潭頂２００號","OBJECTID":293241},"geometry":{"x":180906.3900000006,"y":2553029.0000000037}},{"attributes":{"ID":293250,"DIS_CODE":0,"TOWNNAME":"新市區","LI":"潭頂里","LIN":"5鄰","STREET":" ","SECT":" ","MAREA":"潭頂","LANE":" ","ALLEY":" ","HOUSE_NO":"２１７號","E_COORD97":180777.34,"N_COORD97":2553031.75,"ADDRESS":"潭頂２１７號","OBJECTID":293242},"geometry":{"x":180777.34000000171,"y":2553031.7500000019}},{"attributes":{"ID":293251,"DIS_CODE":0,"TOWNNAME":"新市區","LI":"新和里","LIN":"20鄰","STREET":"成功街","SECT":" ","MAREA":" ","LANE":"１６巷","ALLEY":" ","HOUSE_NO":"１號","E_COORD97":177479.48000000001,"N_COORD97":2552623.77,"ADDRESS":"成功街１６巷１號","OBJECTID":293243},"geometry":{"x":177479.48000000045,"y":2552623.7700000014}},{"attributes":{"ID":293252,"DIS_CODE":0,"TOWNNAME":"新市區","LI":"豐華里","LIN":"4鄰","STREET":" ","SECT":" ","MAREA":"豐華","LANE":" ","ALLEY":" ","HOUSE_NO":"２７號","E_COORD97":173770.39000000001,"N_COORD97":2554097.98,"ADDRESS":"豐華２７號","OBJECTID":293244},"geometry":{"x":173770.38999999873,"y":2554097.9800000023}},{"attributes":{"ID":293253,"DIS_CODE":0,"TOWNNAME":"新市區","LI":"豐華里","LIN":"5鄰","STREET":" ","SECT":" ","MAREA":"豐華","LANE":" ","ALLEY":" ","HOUSE_NO":"３４之１號","E_COORD97":173791.54000000001,"N_COORD97":2554280.7999999998,"ADDRESS":"豐華３４之１號","OBJECTID":293245},"geometry":{"x":173791.54000000004,"y":2554280.8000000007}},{"attributes":{"ID":293254,"DIS_CODE":0,"TOWNNAME":"新市區","LI":"永就里","LIN":"4鄰","STREET":" ","SECT":" ","MAREA":"永就","LANE":" ","ALLEY":" ","HOUSE_NO":"４２之１１號","E_COORD97":178437.31,"N_COORD97":2551533.5499999998,"ADDRESS":"永就４２之１１號","OBJECTID":293246},"geometry":{"x":178437.30999999959,"y":2551533.5500000007}},{"attributes":{"ID":293255,"DIS_CODE":0,"TOWNNAME":"新市區","LI":"潭頂里","LIN":"4鄰","STREET":" ","SECT":" ","MAREA":"潭頂","LANE":" ","ALLEY":" ","HOUSE_NO":"２０６號","E_COORD97":180830.45000000001,"N_COORD97":2553064.5,"ADDRESS":"潭頂２０６號","OBJECTID":293247},"geometry":{"x":180830.45000000019,"y":2553064.5000000019}},{"attributes":{"ID":293256,"DIS_CODE":0,"TOWNNAME":"新市區","LI":"豐華里","LIN":"5鄰","STREET":" ","SECT":" ","MAREA":"豐華","LANE":" ","ALLEY":" ","HOUSE_NO":"３９號","E_COORD97":173770.23000000001,"N_COORD97":2554385.25,"ADDRESS":"豐華３９號","OBJECTID":293248},"geometry":{"x":173770.23000000045,"y":2554385.25}},{"attributes":{"ID":293257,"DIS_CODE":0,"TOWNNAME":"新市區","LI":"豐華里","LIN":"5鄰","STREET":" ","SECT":" ","MAREA":"豐華","LANE":" ","ALLEY":" ","HOUSE_NO":"４３之９號","E_COORD97":173882.60000000001,"N_COORD97":2554351.2999999998,"ADDRESS":"豐華４３之９號","OBJECTID":293249},"geometry":{"x":173882.60000000149,"y":2554351.3000000026}},{"attributes":{"ID":293258,"DIS_CODE":0,"TOWNNAME":"新市區","LI":"潭頂里","LIN":"4鄰","STREET":" ","SECT":" ","MAREA":"潭頂","LANE":" ","ALLEY":" ","HOUSE_NO":"１９３號","E_COORD97":180891.39000000001,"N_COORD97":2552955.5,"ADDRESS":"潭頂１９３號","OBJECTID":293250},"geometry":{"x":180891.38999999966,"y":2552955.5000000019}},{"attributes":{"ID":293259,"DIS_CODE":0,"TOWNNAME":"新市區","LI":"新和里","LIN":"32鄰","STREET":"華興街","SECT":" ","MAREA":" ","LANE":"１５巷","ALLEY":" ","HOUSE_NO":"７號","E_COORD97":177800.95000000001,"N_COORD97":2552940.5,"ADDRESS":"華興街１５巷７號","OBJECTID":293251},"geometry":{"x":177800.95000000112,"y":2552940.5}},{"attributes":{"ID":293260,"DIS_CODE":0,"TOWNNAME":"新市區","LI":"新和里","LIN":"32鄰","STREET":"華興街","SECT":" ","MAREA":" ","LANE":"１５巷","ALLEY":" ","HOUSE_NO":"９號","E_COORD97":177801.31,"N_COORD97":2552936.25,"ADDRESS":"華興街１５巷９號","OBJECTID":293252},"geometry":{"x":177801.30999999959,"y":2552936.2500000019}},{"attributes":{"ID":293261,"DIS_CODE":0,"TOWNNAME":"新市區","LI":"新和里","LIN":"32鄰","STREET":"華興街","SECT":" ","MAREA":" ","LANE":"１５巷","ALLEY":" ","HOUSE_NO":"１１號","E_COORD97":177804.20000000001,"N_COORD97":2552930.5,"ADDRESS":"華興街１５巷１１號","OBJECTID":293253},"geometry":{"x":177804.20000000112,"y":2552930.4999999981}},{"attributes":{"ID":293262,"DIS_CODE":0,"TOWNNAME":"新市區","LI":"新和里","LIN":"46鄰","STREET":"和平街","SECT":" ","MAREA":" ","LANE":"２０８巷","ALLEY":" ","HOUSE_NO":"６之１號","E_COORD97":177363.39000000001,"N_COORD97":2553273.7999999998,"ADDRESS":"和平街２０８巷６之１號","OBJECTID":293254},"geometry":{"x":177363.3900000006,"y":2553273.8000000007}},{"attributes":{"ID":293263,"DIS_CODE":0,"TOWNNAME":"新市區","LI":"新和里","LIN":"50鄰","STREET":"自強街","SECT":" ","MAREA":" ","LANE":"３４巷","ALLEY":" ","HOUSE_NO":"３號","E_COORD97":177669.10000000001,"N_COORD97":2553545.75,"ADDRESS":"自強街３４巷３號","OBJECTID":293255},"geometry":{"x":177669.09999999963,"y":2553545.75}},{"attributes":{"ID":293264,"DIS_CODE":0,"TOWNNAME":"中西區","LI":"開山里","LIN":"17鄰","STREET":"大同路","SECT":"一段","MAREA":" ","LANE":"７０巷","ALLEY":" ","HOUSE_NO":"１７號四樓之１","E_COORD97":169087.32999999999,"N_COORD97":2543022.7400000002,"ADDRESS":"大同路一段７０巷１７號四樓之１","OBJECTID":293256},"geometry":{"x":169087.33000000007,"y":2543022.7400000039}},{"attributes":{"ID":293265,"DIS_CODE":0,"TOWNNAME":"北區","LI":"大山里","LIN":"14鄰","STREET":"旭日街","SECT":" ","MAREA":" ","LANE":" ","ALLEY":" ","HOUSE_NO":"１４５號","E_COORD97":169403.03,"N_COORD97":2545670.1299999999,"ADDRESS":"旭日街１４５號","OBJECTID":293257},"geometry":{"x":169403.03000000026,"y":2545670.1300000027}},{"attributes":{"ID":293266,"DIS_CODE":0,"TOWNNAME":"北區","LI":"大山里","LIN":"14鄰","STREET":"旭日街","SECT":" ","MAREA":" ","LANE":" ","ALLEY":" ","HOUSE_NO":"１４５號之１","E_COORD97":169404.88,"N_COORD97":2545676.4900000002,"ADDRESS":"旭日街１４５號之１","OBJECTID":293258},"geometry":{"x":169404.87999999989,"y":2545676.4900000021}},{"attributes":{"ID":293267,"DIS_CODE":0,"TOWNNAME":"北區","LI":"大山里","LIN":"14鄰","STREET":"旭日街","SECT":" ","MAREA":" ","LANE":" ","ALLEY":" ","HOUSE_NO":"１４５號之２","E_COORD97":169403.95999999999,"N_COORD97":2545673.5800000001,"ADDRESS":"旭日街１４５號之２","OBJECTID":293259},"geometry":{"x":169403.96000000089,"y":2545673.5800000001}},{"attributes":{"ID":293268,"DIS_CODE":0,"TOWNNAME":"北區","LI":"大山里","LIN":"14鄰","STREET":"旭日街","SECT":" ","MAREA":" ","LANE":" ","ALLEY":" ","HOUSE_NO":"１４７號","E_COORD97":169407.01999999999,"N_COORD97":2545680.1000000001,"ADDRESS":"旭日街１４７號","OBJECTID":293260},"geometry":{"x":169407.01999999955,"y":2545680.0999999996}},{"attributes":{"ID":293269,"DIS_CODE":0,"TOWNNAME":"北區","LI":"大山里","LIN":"14鄰","STREET":"旭日街","SECT":" ","MAREA":" ","LANE":" ","ALLEY":" ","HOUSE_NO":"１４７號之１","E_COORD97":169390.82999999999,"N_COORD97":2545682.7799999998,"ADDRESS":"旭日街１４７號之１","OBJECTID":293261},"geometry":{"x":169390.83000000007,"y":2545682.7799999975}},{"attributes":{"ID":293270,"DIS_CODE":0,"TOWNNAME":"北區","LI":"玉皇里","LIN":"14鄰","STREET":"佑民街","SECT":" ","MAREA":" ","LANE":" ","ALLEY":" ","HOUSE_NO":"３１號之１","E_COORD97":168565.87,"N_COORD97":2544391.1600000001,"ADDRESS":"佑民街３１號之１","OBJECTID":293262},"geometry":{"x":168565.87000000104,"y":2544391.160000002}},{"attributes":{"ID":293271,"DIS_CODE":0,"TOWNNAME":"北區","LI":"玉皇里","LIN":"14鄰","STREET":"佑民街","SECT":" ","MAREA":" ","LANE":" ","ALLEY":" ","HOUSE_NO":"３１號之２","E_COORD97":168561.62,"N_COORD97":2544394.4100000001,"ADDRESS":"佑民街３１號之２","OBJECTID":293263},"geometry":{"x":168561.62000000011,"y":2544394.4099999983}},{"attributes":{"ID":293272,"DIS_CODE":0,"TOWNNAME":"新市區","LI":"新和里","LIN":"39鄰","STREET":"中正路","SECT":" ","MAREA":" ","LANE":"１９５巷","ALLEY":" ","HOUSE_NO":"１１號","E_COORD97":177353.57000000001,"N_COORD97":2552889.25,"ADDRESS":"中正路１９５巷１１號","OBJECTID":293264},"geometry":{"x":177353.57000000216,"y":2552889.2500000019}},{"attributes":{"ID":293273,"DIS_CODE":0,"TOWNNAME":"新市區","LI":"新和里","LIN":"42鄰","STREET":"勝利街","SECT":" ","MAREA":" ","LANE":"１２巷","ALLEY":" ","HOUSE_NO":"１８號","E_COORD97":177388.06,"N_COORD97":2553009.2599999998,"ADDRESS":"勝利街１２巷１８號","OBJECTID":293265},"geometry":{"x":177388.05999999959,"y":2553009.2599999998}},{"attributes":{"ID":293274,"DIS_CODE":0,"TOWNNAME":"新市區","LI":"新和里","LIN":"42鄰","STREET":"勝利街","SECT":" ","MAREA":" ","LANE":"１２巷","ALLEY":" ","HOUSE_NO":"１３號","E_COORD97":177371.26000000001,"N_COORD97":2552998.0099999998,"ADDRESS":"勝利街１２巷１３號","OBJECTID":293266},"geometry":{"x":177371.25999999978,"y":2552998.0099999979}},{"attributes":{"ID":293275,"DIS_CODE":0,"TOWNNAME":"新市區","LI":"新和里","LIN":"4鄰","STREET":"中正路","SECT":" ","MAREA":" ","LANE":"２３巷","ALLEY":" ","HOUSE_NO":"２之１號","E_COORD97":177405.32000000001,"N_COORD97":2552223.0499999998,"ADDRESS":"中正路２３巷２之１號","OBJECTID":293267},"geometry":{"x":177405.3200000003,"y":2552223.0500000026}},{"attributes":{"ID":293276,"DIS_CODE":0,"TOWNNAME":"新市區","LI":"新市里","LIN":"4鄰","STREET":"華興街","SECT":" ","MAREA":" ","LANE":"５２巷","ALLEY":" ","HOUSE_NO":"５號","E_COORD97":177699.62,"N_COORD97":2553029,"ADDRESS":"華興街５２巷５號","OBJECTID":293268},"geometry":{"x":177699.62000000104,"y":2553029.0000000037}},{"attributes":{"ID":293277,"DIS_CODE":0,"TOWNNAME":"新市區","LI":"新和里","LIN":"26鄰","STREET":"永福街","SECT":" ","MAREA":" ","LANE":"１６巷","ALLEY":" ","HOUSE_NO":"１２號","E_COORD97":177787.78,"N_COORD97":2552708.5,"ADDRESS":"永福街１６巷１２號","OBJECTID":293269},"geometry":{"x":177787.78000000212,"y":2552708.5000000019}},{"attributes":{"ID":293278,"DIS_CODE":0,"TOWNNAME":"新市區","LI":"新市里","LIN":"4鄰","STREET":"華興街","SECT":" ","MAREA":" ","LANE":"２４巷","ALLEY":" ","HOUSE_NO":"１號","E_COORD97":177760.95000000001,"N_COORD97":2553031.25,"ADDRESS":"華興街２４巷１號","OBJECTID":293270},"geometry":{"x":177760.95000000019,"y":2553031.2500000019}},{"attributes":{"ID":293279,"DIS_CODE":0,"TOWNNAME":"新市區","LI":"潭頂里","LIN":"4鄰","STREET":" ","SECT":" ","MAREA":"潭頂","LANE":" ","ALLEY":" ","HOUSE_NO":"２０２號","E_COORD97":180862.60999999999,"N_COORD97":2553049.25,"ADDRESS":"潭頂２０２號","OBJECTID":293271},"geometry":{"x":180862.61000000127,"y":2553049.2500000019}},{"attributes":{"ID":293280,"DIS_CODE":0,"TOWNNAME":"新市區","LI":"新和里","LIN":"5鄰","STREET":"昆明街","SECT":" ","MAREA":" ","LANE":" ","ALLEY":" ","HOUSE_NO":"６０號","E_COORD97":177242.34,"N_COORD97":2552345.5,"ADDRESS":"昆明街６０號","OBJECTID":293272},"geometry":{"x":177242.33999999985,"y":2552345.5000000019}},{"attributes":{"ID":293281,"DIS_CODE":0,"TOWNNAME":"新市區","LI":"潭頂里","LIN":"5鄰","STREET":" ","SECT":" ","MAREA":"潭頂","LANE":" ","ALLEY":" ","HOUSE_NO":"２１１號","E_COORD97":180819.48000000001,"N_COORD97":2553040.25,"ADDRESS":"潭頂２１１號","OBJECTID":293273},"geometry":{"x":180819.48000000138,"y":2553040.25}},{"attributes":{"ID":293282,"DIS_CODE":0,"TOWNNAME":"新市區","LI":"新和里","LIN":"39鄰","STREET":"中正路","SECT":" ","MAREA":" ","LANE":" ","ALLEY":" ","HOUSE_NO":"２１９號","E_COORD97":177432.60000000001,"N_COORD97":2553035.75,"ADDRESS":"中正路２１９號","OBJECTID":293274},"geometry":{"x":177432.60000000056,"y":2553035.7500000019}},{"attributes":{"ID":293283,"DIS_CODE":0,"TOWNNAME":"新市區","LI":"豐華里","LIN":"4鄰","STREET":" ","SECT":" ","MAREA":"豐華","LANE":" ","ALLEY":" ","HOUSE_NO":"３１號","E_COORD97":173709.17999999999,"N_COORD97":2554080,"ADDRESS":"豐華３１號","OBJECTID":293275},"geometry":{"x":173709.17999999877,"y":2554080.0000000037}},{"attributes":{"ID":293284,"DIS_CODE":0,"TOWNNAME":"新市區","LI":"潭頂里","LIN":"4鄰","STREET":" ","SECT":" ","MAREA":"潭頂","LANE":" ","ALLEY":" ","HOUSE_NO":"１９７之１號","E_COORD97":180910.64000000001,"N_COORD97":2552968.2999999998,"ADDRESS":"潭頂１９７之１號","OBJECTID":293276},"geometry":{"x":180910.64000000153,"y":2552968.3000000026}},{"attributes":{"ID":293285,"DIS_CODE":0,"TOWNNAME":"新市區","LI":"潭頂里","LIN":"5鄰","STREET":" ","SECT":" ","MAREA":"潭頂","LANE":" ","ALLEY":" ","HOUSE_NO":"２２７之１號","E_COORD97":180780.59,"N_COORD97":2553046.7999999998,"ADDRESS":"潭頂２２７之１號","OBJECTID":293277},"geometry":{"x":180780.58999999892,"y":2553046.8000000007}},{"attributes":{"ID":293286,"DIS_CODE":0,"TOWNNAME":"新市區","LI":"新市里","LIN":"4鄰","STREET":"華興街","SECT":" ","MAREA":" ","LANE":" ","ALLEY":" ","HOUSE_NO":"３８號","E_COORD97":177732.07000000001,"N_COORD97":2553005.75,"ADDRESS":"華興街３８號","OBJECTID":293278},"geometry":{"x":177732.07000000123,"y":2553005.75}},{"attributes":{"ID":293287,"DIS_CODE":0,"TOWNNAME":"新市區","LI":"潭頂里","LIN":"4鄰","STREET":" ","SECT":" ","MAREA":"潭頂","LANE":" ","ALLEY":" ","HOUSE_NO":"１９６號","E_COORD97":180873.62,"N_COORD97":2553016.5,"ADDRESS":"潭頂１９６號","OBJECTID":293279},"geometry":{"x":180873.62000000011,"y":2553016.5000000019}},{"attributes":{"ID":293288,"DIS_CODE":0,"TOWNNAME":"新市區","LI":"新和里","LIN":"38鄰","STREET":"成功街","SECT":" ","MAREA":" ","LANE":" ","ALLEY":" ","HOUSE_NO":"３１號","E_COORD97":177455.51999999999,"N_COORD97":2552707.02,"ADDRESS":"成功街３１號","OBJECTID":293280},"geometry":{"x":177455.52000000048,"y":2552707.0200000014}},{"attributes":{"ID":293289,"DIS_CODE":0,"TOWNNAME":"新市區","LI":"潭頂里","LIN":"4鄰","STREET":" ","SECT":" ","MAREA":"潭頂","LANE":" ","ALLEY":" ","HOUSE_NO":"１９９號","E_COORD97":180878.75,"N_COORD97":2553044,"ADDRESS":"潭頂１９９號","OBJECTID":293281},"geometry":{"x":180878.75000000093,"y":2553044.0000000019}},{"attributes":{"ID":293290,"DIS_CODE":0,"TOWNNAME":"新市區","LI":"新和里","LIN":"18鄰","STREET":"銘傳街","SECT":" ","MAREA":" ","LANE":" ","ALLEY":" ","HOUSE_NO":"３３號","E_COORD97":177477.20000000001,"N_COORD97":2552653.75,"ADDRESS":"銘傳街３３號","OBJECTID":293282},"geometry":{"x":177477.20000000112,"y":2552653.75}},{"attributes":{"ID":293291,"DIS_CODE":0,"TOWNNAME":"新市區","LI":"新和里","LIN":"20鄰","STREET":"成功街","SECT":" ","MAREA":" ","LANE":" ","ALLEY":" ","HOUSE_NO":"２１號","E_COORD97":177443.87,"N_COORD97":2552641.02,"ADDRESS":"成功街２１號","OBJECTID":293283},"geometry":{"x":177443.87000000011,"y":2552641.0199999996}},{"attributes":{"ID":293292,"DIS_CODE":0,"TOWNNAME":"新市區","LI":"新和里","LIN":"26鄰","STREET":"永福街","SECT":" ","MAREA":" ","LANE":" ","ALLEY":" ","HOUSE_NO":"１４號","E_COORD97":177797.62,"N_COORD97":2552689,"ADDRESS":"永福街１４號","OBJECTID":293284},"geometry":{"x":177797.62000000104,"y":2552689}},{"attributes":{"ID":293293,"DIS_CODE":0,"TOWNNAME":"新市區","LI":"新和里","LIN":"39鄰","STREET":"中正路","SECT":" ","MAREA":" ","LANE":" ","ALLEY":" ","HOUSE_NO":"２３１號","E_COORD97":177436.20999999999,"N_COORD97":2553059,"ADDRESS":"中正路２３１號","OBJECTID":293285},"geometry":{"x":177436.21000000089,"y":2553059}},{"attributes":{"ID":293294,"DIS_CODE":0,"TOWNNAME":"新市區","LI":"新和里","LIN":"20鄰","STREET":"成功街","SECT":" ","MAREA":" ","LANE":" ","ALLEY":" ","HOUSE_NO":"２２號","E_COORD97":177460.67999999999,"N_COORD97":2552629.02,"ADDRESS":"成功街２２號","OBJECTID":293286},"geometry":{"x":177460.68000000156,"y":2552629.0200000014}},{"attributes":{"ID":293295,"DIS_CODE":0,"TOWNNAME":"新市區","LI":"三舍里","LIN":"4鄰","STREET":" ","SECT":" ","MAREA":"三舍","LANE":" ","ALLEY":" ","HOUSE_NO":"８８之２號","E_COORD97":178040.56,"N_COORD97":2554389.3100000001,"ADDRESS":"三舍８８之２號","OBJECTID":293287},"geometry":{"x":178040.55999999959,"y":2554389.3100000005}},{"attributes":{"ID":293296,"DIS_CODE":0,"TOWNNAME":"新市區","LI":"三舍里","LIN":"4鄰","STREET":" ","SECT":" ","MAREA":"三舍","LANE":" ","ALLEY":" ","HOUSE_NO":"９９之１００號","E_COORD97":178140.60999999999,"N_COORD97":2554600.3399999999,"ADDRESS":"三舍９９之１００號","OBJECTID":293288},"geometry":{"x":178140.61000000127,"y":2554600.3400000017}},{"attributes":{"ID":293297,"DIS_CODE":0,"TOWNNAME":"新市區","LI":"大社里","LIN":"24鄰","STREET":" ","SECT":" ","MAREA":"大社","LANE":" ","ALLEY":" ","HOUSE_NO":"８８３之１０號","E_COORD97":179802.97,"N_COORD97":2553969.2400000002,"ADDRESS":"大社８８３之１０號","OBJECTID":293289},"geometry":{"x":179802.96999999974,"y":2553969.2400000002}},{"attributes":{"ID":293298,"DIS_CODE":0,"TOWNNAME":"新市區","LI":"永就里","LIN":"4鄰","STREET":" ","SECT":" ","MAREA":"永就","LANE":" ","ALLEY":" ","HOUSE_NO":"４６之３０號","E_COORD97":178983.26999999999,"N_COORD97":2551894.0099999998,"ADDRESS":"永就４６之３０號","OBJECTID":293290},"geometry":{"x":178983.26999999955,"y":2551894.0100000016}},{"attributes":{"ID":293299,"DIS_CODE":0,"TOWNNAME":"新市區","LI":"永就里","LIN":"4鄰","STREET":" ","SECT":" ","MAREA":"永就","LANE":" ","ALLEY":" ","HOUSE_NO":"４６之４０號","E_COORD97":178527.94,"N_COORD97":2551721.1000000001,"ADDRESS":"永就４６之４０號","OBJECTID":293291},"geometry":{"x":178527.94000000134,"y":2551721.0999999996}},{"attributes":{"ID":293300,"DIS_CODE":0,"TOWNNAME":"新市區","LI":"社內里","LIN":"4鄰","STREET":" ","SECT":" ","MAREA":"社內","LANE":" ","ALLEY":" ","HOUSE_NO":"４０之１０號","E_COORD97":176703.39000000001,"N_COORD97":2552501.3500000001,"ADDRESS":"社內４０之１０號","OBJECTID":293292},"geometry":{"x":176703.3900000006,"y":2552501.3500000015}},{"attributes":{"ID":293301,"DIS_CODE":0,"TOWNNAME":"新市區","LI":"社內里","LIN":"4鄰","STREET":" ","SECT":" ","MAREA":"社內","LANE":" ","ALLEY":" ","HOUSE_NO":"４０之１２號","E_COORD97":176704.66,"N_COORD97":2552496.6200000001,"ADDRESS":"社內４０之１２號","OBJECTID":293293},"geometry":{"x":176704.66000000015,"y":2552496.620000001}},{"attributes":{"ID":293302,"DIS_CODE":0,"TOWNNAME":"新市區","LI":"社內里","LIN":"4鄰","STREET":" ","SECT":" ","MAREA":"社內","LANE":" ","ALLEY":" ","HOUSE_NO":"４０之１號","E_COORD97":176706.20999999999,"N_COORD97":2552492.2999999998,"ADDRESS":"社內４０之１號","OBJECTID":293294},"geometry":{"x":176706.20999999996,"y":2552492.3000000045}},{"attributes":{"ID":293303,"DIS_CODE":0,"TOWNNAME":"新市區","LI":"社內里","LIN":"4鄰","STREET":" ","SECT":" ","MAREA":"社內","LANE":" ","ALLEY":" ","HOUSE_NO":"４０之１３號","E_COORD97":176707.78,"N_COORD97":2552487.7200000002,"ADDRESS":"社內４０之１３號","OBJECTID":293295},"geometry":{"x":176707.78000000026,"y":2552487.7200000007}},{"attributes":{"ID":293304,"DIS_CODE":0,"TOWNNAME":"新市區","LI":"社內里","LIN":"4鄰","STREET":" ","SECT":" ","MAREA":"社內","LANE":" ","ALLEY":" ","HOUSE_NO":"４０之１５號","E_COORD97":176709.09,"N_COORD97":2552483.0800000001,"ADDRESS":"社內４０之１５號","OBJECTID":293296},"geometry":{"x":176709.09000000078,"y":2552483.0800000019}},{"attributes":{"ID":293305,"DIS_CODE":0,"TOWNNAME":"新市區","LI":"社內里","LIN":"4鄰","STREET":" ","SECT":" ","MAREA":"社內","LANE":" ","ALLEY":" ","HOUSE_NO":"４０之１６號","E_COORD97":176698.42000000001,"N_COORD97":2552468.4300000002,"ADDRESS":"社內４０之１６號","OBJECTID":293297},"geometry":{"x":176698.42000000086,"y":2552468.4299999997}},{"attributes":{"ID":293306,"DIS_CODE":0,"TOWNNAME":"新市區","LI":"社內里","LIN":"4鄰","STREET":" ","SECT":" ","MAREA":"社內","LANE":" ","ALLEY":" ","HOUSE_NO":"４０之１７號","E_COORD97":176696.25,"N_COORD97":2552464.5699999998,"ADDRESS":"社內４０之１７號","OBJECTID":293298},"geometry":{"x":176696.25000000093,"y":2552464.5700000003}},{"attributes":{"ID":293307,"DIS_CODE":0,"TOWNNAME":"新市區","LI":"社內里","LIN":"4鄰","STREET":" ","SECT":" ","MAREA":"社內","LANE":" ","ALLEY":" ","HOUSE_NO":"４０之１８號","E_COORD97":176694.20000000001,"N_COORD97":2552460.6200000001,"ADDRESS":"社內４０之１８號","OBJECTID":293299},"geometry":{"x":176694.20000000019,"y":2552460.6200000029}},{"attributes":{"ID":293308,"DIS_CODE":0,"TOWNNAME":"新市區","LI":"社內里","LIN":"4鄰","STREET":" ","SECT":" ","MAREA":"社內","LANE":" ","ALLEY":" ","HOUSE_NO":"４０之１９號","E_COORD97":176692.03,"N_COORD97":2552456.7400000002,"ADDRESS":"社內４０之１９號","OBJECTID":293300},"geometry":{"x":176692.03000000026,"y":2552456.7400000002}},{"attributes":{"ID":293309,"DIS_CODE":0,"TOWNNAME":"新市區","LI":"潭頂里","LIN":"4鄰","STREET":" ","SECT":" ","MAREA":"潭頂","LANE":" ","ALLEY":" ","HOUSE_NO":"２０４之７號","E_COORD97":180937.01000000001,"N_COORD97":2553205.3100000001,"ADDRESS":"潭頂２０４之７號","OBJECTID":293301},"geometry":{"x":180937.00999999885,"y":2553205.3100000024}},{"attributes":{"ID":293310,"DIS_CODE":0,"TOWNNAME":"新市區","LI":"豐華里","LIN":"4鄰","STREET":" ","SECT":" ","MAREA":"豐華","LANE":" ","ALLEY":" ","HOUSE_NO":"２５號","E_COORD97":173800.03,"N_COORD97":2554153.4199999999,"ADDRESS":"豐華２５號","OBJECTID":293302},"geometry":{"x":173800.03000000026,"y":2554153.4200000018}},{"attributes":{"ID":293311,"DIS_CODE":0,"TOWNNAME":"新市區","LI":"社內里","LIN":"4鄰","STREET":" ","SECT":" ","MAREA":"社內","LANE":" ","ALLEY":" ","HOUSE_NO":"４０之１１號","E_COORD97":176682.26000000001,"N_COORD97":2552458.79,"ADDRESS":"社內４０之１１號","OBJECTID":293303},"geometry":{"x":176682.26000000164,"y":2552458.7899999991}},{"attributes":{"ID":293312,"DIS_CODE":0,"TOWNNAME":"新市區","LI":"大營里","LIN":"18鄰","STREET":" ","SECT":" ","MAREA":"豐榮","LANE":" ","ALLEY":" ","HOUSE_NO":"２８之１２號","E_COORD97":178821.91,"N_COORD97":2554353.1600000001,"ADDRESS":"豐榮２８之１２號","OBJECTID":293304},"geometry":{"x":178821.91000000015,"y":2554353.1600000001}},{"attributes":{"ID":293313,"DIS_CODE":0,"TOWNNAME":"中西區","LI":"開山里","LIN":"17鄰","STREET":"大同路","SECT":"一段","MAREA":" ","LANE":"７０巷","ALLEY":" ","HOUSE_NO":"１７號四樓之２","E_COORD97":169081.75,"N_COORD97":2543021.1200000001,"ADDRESS":"大同路一段７０巷１７號四樓之２","OBJECTID":293305},"geometry":{"x":169081.75000000093,"y":2543021.1200000048}},{"attributes":{"ID":293314,"DIS_CODE":0,"TOWNNAME":"中西區","LI":"開山里","LIN":"17鄰","STREET":"大同路","SECT":"一段","MAREA":" ","LANE":"７０巷","ALLEY":" ","HOUSE_NO":"１７號四樓之３","E_COORD97":169078.51000000001,"N_COORD97":2543034.9700000002,"ADDRESS":"大同路一段７０巷１７號四樓之３","OBJECTID":293306},"geometry":{"x":169078.50999999978,"y":2543034.9699999988}},{"attributes":{"ID":293315,"DIS_CODE":0,"TOWNNAME":"中西區","LI":"開山里","LIN":"17鄰","STREET":"大同路","SECT":"一段","MAREA":" ","LANE":"７０巷","ALLEY":" ","HOUSE_NO":"２３號二樓之１","E_COORD97":169073.64999999999,"N_COORD97":2543023.1699999999,"ADDRESS":"大同路一段７０巷２３號二樓之１","OBJECTID":293307},"geometry":{"x":169073.65000000037,"y":2543023.1700000018}},{"attributes":{"ID":293316,"DIS_CODE":0,"TOWNNAME":"中西區","LI":"開山里","LIN":"17鄰","STREET":"大同路","SECT":"一段","MAREA":" ","LANE":"７０巷","ALLEY":" ","HOUSE_NO":"２３號二樓之２","E_COORD97":169073.64999999999,"N_COORD97":2543023.1699999999,"ADDRESS":"大同路一段７０巷２３號二樓之２","OBJECTID":293308},"geometry":{"x":169073.65000000037,"y":2543023.1700000018}},{"attributes":{"ID":293317,"DIS_CODE":0,"TOWNNAME":"中西區","LI":"開山里","LIN":"17鄰","STREET":"大同路","SECT":"一段","MAREA":" ","LANE":"７０巷","ALLEY":" ","HOUSE_NO":"２３號二樓之３","E_COORD97":169073.64999999999,"N_COORD97":2543023.1699999999,"ADDRESS":"大同路一段７０巷２３號二樓之３","OBJECTID":293309},"geometry":{"x":169073.65000000037,"y":2543023.1700000018}},{"attributes":{"ID":293318,"DIS_CODE":0,"TOWNNAME":"中西區","LI":"開山里","LIN":"17鄰","STREET":"大同路","SECT":"一段","MAREA":" ","LANE":"７０巷","ALLEY":" ","HOUSE_NO":"２３號三樓之１","E_COORD97":169073.64999999999,"N_COORD97":2543023.1699999999,"ADDRESS":"大同路一段７０巷２３號三樓之１","OBJECTID":293310},"geometry":{"x":169073.65000000037,"y":2543023.1700000018}},{"attributes":{"ID":293319,"DIS_CODE":0,"TOWNNAME":"中西區","LI":"開山里","LIN":"17鄰","STREET":"大同路","SECT":"一段","MAREA":" ","LANE":"７０巷","ALLEY":" ","HOUSE_NO":"２３號五樓之２","E_COORD97":169073.64999999999,"N_COORD97":2543023.1699999999,"ADDRESS":"大同路一段７０巷２３號五樓之２","OBJECTID":293311},"geometry":{"x":169073.65000000037,"y":2543023.1700000018}},{"attributes":{"ID":293320,"DIS_CODE":0,"TOWNNAME":"新市區","LI":"大營里","LIN":"18鄰","STREET":" ","SECT":" ","MAREA":"豐榮","LANE":" ","ALLEY":" ","HOUSE_NO":"２８之１１號","E_COORD97":178825.17000000001,"N_COORD97":2554359,"ADDRESS":"豐榮２８之１１號","OBJECTID":293312},"geometry":{"x":178825.16999999993,"y":2554359.0000000019}},{"attributes":{"ID":293321,"DIS_CODE":0,"TOWNNAME":"新市區","LI":"大營里","LIN":"18鄰","STREET":" ","SECT":" ","MAREA":"豐榮","LANE":" ","ALLEY":" ","HOUSE_NO":"２８之１０號","E_COORD97":178831.23000000001,"N_COORD97":2554359.9399999999,"ADDRESS":"豐榮２８之１０號","OBJECTID":293313},"geometry":{"x":178831.23000000138,"y":2554359.9399999995}},{"attributes":{"ID":293322,"DIS_CODE":0,"TOWNNAME":"新市區","LI":"社內里","LIN":"7鄰","STREET":" ","SECT":" ","MAREA":"社內","LANE":" ","ALLEY":" ","HOUSE_NO":"７３之５號","E_COORD97":176666.79000000001,"N_COORD97":2552781.3599999999,"ADDRESS":"社內７３之５號","OBJECTID":293314},"geometry":{"x":176666.79000000004,"y":2552781.3599999994}},{"attributes":{"ID":293323,"DIS_CODE":0,"TOWNNAME":"中西區","LI":"開山里","LIN":"17鄰","STREET":"大同路","SECT":"一段","MAREA":" ","LANE":"７０巷","ALLEY":" ","HOUSE_NO":"２３號五樓之３","E_COORD97":169073.64999999999,"N_COORD97":2543023.1699999999,"ADDRESS":"大同路一段７０巷２３號五樓之３","OBJECTID":293315},"geometry":{"x":169073.65000000037,"y":2543023.1700000018}},{"attributes":{"ID":293324,"DIS_CODE":0,"TOWNNAME":"中西區","LI":"開山里","LIN":"17鄰","STREET":"大同路","SECT":"一段","MAREA":" ","LANE":"７０巷","ALLEY":" ","HOUSE_NO":"２３號四樓之１","E_COORD97":169073.64999999999,"N_COORD97":2543023.1699999999,"ADDRESS":"大同路一段７０巷２３號四樓之１","OBJECTID":293316},"geometry":{"x":169073.65000000037,"y":2543023.1700000018}},{"attributes":{"ID":293325,"DIS_CODE":0,"TOWNNAME":"中西區","LI":"開山里","LIN":"17鄰","STREET":"大同路","SECT":"一段","MAREA":" ","LANE":"７０巷","ALLEY":" ","HOUSE_NO":"２３號四樓之２","E_COORD97":169073.64999999999,"N_COORD97":2543023.1699999999,"ADDRESS":"大同路一段７０巷２３號四樓之２","OBJECTID":293317},"geometry":{"x":169073.65000000037,"y":2543023.1700000018}},{"attributes":{"ID":293326,"DIS_CODE":0,"TOWNNAME":"新市區","LI":"社內里","LIN":"15鄰","STREET":" ","SECT":" ","MAREA":"社內","LANE":" ","ALLEY":" ","HOUSE_NO":"１６３之３號","E_COORD97":176209.67999999999,"N_COORD97":2553098.5099999998,"ADDRESS":"社內１６３之３號","OBJECTID":293318},"geometry":{"x":176209.68000000156,"y":2553098.5099999998}},{"attributes":{"ID":293327,"DIS_CODE":0,"TOWNNAME":"新市區","LI":"社內里","LIN":"6鄰","STREET":" ","SECT":" ","MAREA":"社內","LANE":" ","ALLEY":" ","HOUSE_NO":"６４之１０號","E_COORD97":176637.73999999999,"N_COORD97":2552681.6400000001,"ADDRESS":"社內６４之１０號","OBJECTID":293319},"geometry":{"x":176637.74000000115,"y":2552681.6400000006}},{"attributes":{"ID":293328,"DIS_CODE":0,"TOWNNAME":"中西區","LI":"開山里","LIN":"17鄰","STREET":"大同路","SECT":"一段","MAREA":" ","LANE":"７０巷","ALLEY":" ","HOUSE_NO":"２３號四樓之３","E_COORD97":169073.64999999999,"N_COORD97":2543023.1699999999,"ADDRESS":"大同路一段７０巷２３號四樓之３","OBJECTID":293320},"geometry":{"x":169073.65000000037,"y":2543023.1700000018}},{"attributes":{"ID":293329,"DIS_CODE":0,"TOWNNAME":"新市區","LI":"社內里","LIN":"12鄰","STREET":" ","SECT":" ","MAREA":"社內","LANE":" ","ALLEY":" ","HOUSE_NO":"１２３之８號","E_COORD97":176528.29000000001,"N_COORD97":2552589.3199999998,"ADDRESS":"社內１２３之８號","OBJECTID":293321},"geometry":{"x":176528.29000000097,"y":2552589.3200000003}},{"attributes":{"ID":293330,"DIS_CODE":0,"TOWNNAME":"東區","LI":"仁和里","LIN":"14鄰","STREET":"東門路","SECT":"三段","MAREA":" ","LANE":"３３８巷","ALLEY":" ","HOUSE_NO":"１２３之１號","E_COORD97":171861.85999999999,"N_COORD97":2541046.8799999999,"ADDRESS":"東門路三段３３８巷１２３之１號","OBJECTID":293322},"geometry":{"x":171861.86000000034,"y":2541046.879999999}},{"attributes":{"ID":293331,"DIS_CODE":0,"TOWNNAME":"北區","LI":"玉皇里","LIN":"14鄰","STREET":"佑民街","SECT":" ","MAREA":" ","LANE":" ","ALLEY":" ","HOUSE_NO":"３１號之３","E_COORD97":168559.42000000001,"N_COORD97":2544404.8900000001,"ADDRESS":"佑民街３１號之３","OBJECTID":293323},"geometry":{"x":168559.41999999993,"y":2544404.8900000006}},{"attributes":{"ID":293332,"DIS_CODE":0,"TOWNNAME":"北區","LI":"玉皇里","LIN":"14鄰","STREET":"佑民街","SECT":" ","MAREA":" ","LANE":" ","ALLEY":" ","HOUSE_NO":"３１號之５","E_COORD97":168556.79999999999,"N_COORD97":2544400.5,"ADDRESS":"佑民街３１號之５","OBJECTID":293324},"geometry":{"x":168556.79999999888,"y":2544400.5000000037}},{"attributes":{"ID":293333,"DIS_CODE":0,"TOWNNAME":"新市區","LI":"三舍里","LIN":"4鄰","STREET":" ","SECT":" ","MAREA":"三舍","LANE":" ","ALLEY":" ","HOUSE_NO":"９７號","E_COORD97":178075.57000000001,"N_COORD97":2554433.7000000002,"ADDRESS":"三舍９７號","OBJECTID":293325},"geometry":{"x":178075.5700000003,"y":2554433.6999999974}},{"attributes":{"ID":293334,"DIS_CODE":0,"TOWNNAME":"新市區","LI":"永就里","LIN":"4鄰","STREET":" ","SECT":" ","MAREA":"永就","LANE":" ","ALLEY":" ","HOUSE_NO":"４６之４１號","E_COORD97":178557.73999999999,"N_COORD97":2551745.2599999998,"ADDRESS":"永就４６之４１號","OBJECTID":293326},"geometry":{"x":178557.74000000209,"y":2551745.2599999979}},{"attributes":{"ID":293335,"DIS_CODE":0,"TOWNNAME":"佳里區","LI":"建南里","LIN":"26鄰","STREET":"成功路","SECT":" ","MAREA":" ","LANE":" ","ALLEY":" ","HOUSE_NO":"６４號之１","E_COORD97":165472.669628,"N_COORD97":2561551.3897500001,"ADDRESS":"成功路６４號之１","OBJECTID":293327},"geometry":{"x":165472.66962799989,"y":2561551.3897550032}},{"attributes":{"ID":293336,"DIS_CODE":0,"TOWNNAME":"中西區","LI":"開山里","LIN":"17鄰","STREET":"大同路","SECT":"一段","MAREA":" ","LANE":"７０巷","ALLEY":" ","HOUSE_NO":"７號一樓","E_COORD97":169098.85000000001,"N_COORD97":2543022.2000000002,"ADDRESS":"大同路一段７０巷７號一樓","OBJECTID":293328},"geometry":{"x":169098.85000000149,"y":2543022.200000003}},{"attributes":{"ID":293337,"DIS_CODE":0,"TOWNNAME":"中西區","LI":"開山里","LIN":"17鄰","STREET":"大同路","SECT":"一段","MAREA":" ","LANE":"７０巷","ALLEY":" ","HOUSE_NO":"７號二樓","E_COORD97":169098.85000000001,"N_COORD97":2543022.2000000002,"ADDRESS":"大同路一段７０巷７號二樓","OBJECTID":293329},"geometry":{"x":169098.85000000149,"y":2543022.200000003}},{"attributes":{"ID":293338,"DIS_CODE":0,"TOWNNAME":"中西區","LI":"開山里","LIN":"17鄰","STREET":"大同路","SECT":"一段","MAREA":" ","LANE":"７０巷","ALLEY":" ","HOUSE_NO":"７號三樓","E_COORD97":169098.85000000001,"N_COORD97":2543022.2000000002,"ADDRESS":"大同路一段７０巷７號三樓","OBJECTID":293330},"geometry":{"x":169098.85000000149,"y":2543022.200000003}},{"attributes":{"ID":293339,"DIS_CODE":0,"TOWNNAME":"中西區","LI":"開山里","LIN":"17鄰","STREET":"大同路","SECT":"一段","MAREA":" ","LANE":"７０巷","ALLEY":" ","HOUSE_NO":"７號五樓","E_COORD97":169098.85000000001,"N_COORD97":2543022.2000000002,"ADDRESS":"大同路一段７０巷７號五樓","OBJECTID":293331},"geometry":{"x":169098.85000000149,"y":2543022.200000003}},{"attributes":{"ID":293340,"DIS_CODE":0,"TOWNNAME":"中西區","LI":"開山里","LIN":"17鄰","STREET":"大同路","SECT":"一段","MAREA":" ","LANE":"７０巷","ALLEY":" ","HOUSE_NO":"７號四樓","E_COORD97":169098.85000000001,"N_COORD97":2543022.2000000002,"ADDRESS":"大同路一段７０巷７號四樓","OBJECTID":293332},"geometry":{"x":169098.85000000149,"y":2543022.200000003}},{"attributes":{"ID":293341,"DIS_CODE":0,"TOWNNAME":"中西區","LI":"開山里","LIN":"17鄰","STREET":"大同路","SECT":"一段","MAREA":" ","LANE":"７０巷","ALLEY":" ","HOUSE_NO":"９號一樓","E_COORD97":169096.51000000001,"N_COORD97":2543028.4900000002,"ADDRESS":"大同路一段７０巷９號一樓","OBJECTID":293333},"geometry":{"x":169096.51000000071,"y":2543028.4900000021}},{"attributes":{"ID":293342,"DIS_CODE":0,"TOWNNAME":"東區","LI":"崇德里","LIN":"17鄰","STREET":"崇明十三街","SECT":" ","MAREA":" ","LANE":"１０巷","ALLEY":" ","HOUSE_NO":"６號七樓","E_COORD97":170497.54000000001,"N_COORD97":2541562.1299999999,"ADDRESS":"崇明十三街１０巷６號七樓","OBJECTID":293334},"geometry":{"x":170497.54000000004,"y":2541562.1300000008}},{"attributes":{"ID":293343,"DIS_CODE":0,"TOWNNAME":"東區","LI":"崇德里","LIN":"17鄰","STREET":"崇明十三街","SECT":" ","MAREA":" ","LANE":"１０巷","ALLEY":" ","HOUSE_NO":"６號七樓之１","E_COORD97":170497.54000000001,"N_COORD97":2541562.1299999999,"ADDRESS":"崇明十三街１０巷６號七樓之１","OBJECTID":293335},"geometry":{"x":170497.54000000004,"y":2541562.1300000008}},{"attributes":{"ID":293344,"DIS_CODE":0,"TOWNNAME":"東區","LI":"崇德里","LIN":"17鄰","STREET":"崇明十三街","SECT":" ","MAREA":" ","LANE":"１０巷","ALLEY":" ","HOUSE_NO":"６號七樓之２","E_COORD97":170497.54000000001,"N_COORD97":2541562.1299999999,"ADDRESS":"崇明十三街１０巷６號七樓之２","OBJECTID":293336},"geometry":{"x":170497.54000000004,"y":2541562.1300000008}},{"attributes":{"ID":293345,"DIS_CODE":0,"TOWNNAME":"東區","LI":"崇德里","LIN":"17鄰","STREET":"崇明十三街","SECT":" ","MAREA":" ","LANE":"１０巷","ALLEY":" ","HOUSE_NO":"６號三樓","E_COORD97":170497.54000000001,"N_COORD97":2541562.1299999999,"ADDRESS":"崇明十三街１０巷６號三樓","OBJECTID":293337},"geometry":{"x":170497.54000000004,"y":2541562.1300000008}},{"attributes":{"ID":293346,"DIS_CODE":0,"TOWNNAME":"東區","LI":"崇德里","LIN":"17鄰","STREET":"崇明十三街","SECT":" ","MAREA":" ","LANE":"１０巷","ALLEY":" ","HOUSE_NO":"６號三樓之１","E_COORD97":170497.54000000001,"N_COORD97":2541562.1299999999,"ADDRESS":"崇明十三街１０巷６號三樓之１","OBJECTID":293338},"geometry":{"x":170497.54000000004,"y":2541562.1300000008}},{"attributes":{"ID":293347,"DIS_CODE":0,"TOWNNAME":"東區","LI":"崇德里","LIN":"17鄰","STREET":"崇明十三街","SECT":" ","MAREA":" ","LANE":"１０巷","ALLEY":" ","HOUSE_NO":"６號三樓之２","E_COORD97":170497.54000000001,"N_COORD97":2541562.1299999999,"ADDRESS":"崇明十三街１０巷６號三樓之２","OBJECTID":293339},"geometry":{"x":170497.54000000004,"y":2541562.1300000008}},{"attributes":{"ID":293348,"DIS_CODE":0,"TOWNNAME":"東區","LI":"崇德里","LIN":"17鄰","STREET":"崇明十三街","SECT":" ","MAREA":" ","LANE":"１０巷","ALLEY":" ","HOUSE_NO":"６號五樓","E_COORD97":170497.54000000001,"N_COORD97":2541562.1299999999,"ADDRESS":"崇明十三街１０巷６號五樓","OBJECTID":293340},"geometry":{"x":170497.54000000004,"y":2541562.1300000008}},{"attributes":{"ID":293349,"DIS_CODE":0,"TOWNNAME":"新市區","LI":"社內里","LIN":"13鄰","STREET":" ","SECT":" ","MAREA":"社內","LANE":" ","ALLEY":" ","HOUSE_NO":"１４３之１８號","E_COORD97":176242.97,"N_COORD97":2552293.3799999999,"ADDRESS":"社內１４３之１８號","OBJECTID":293341},"geometry":{"x":176242.96999999974,"y":2552293.3800000008}},{"attributes":{"ID":293350,"DIS_CODE":0,"TOWNNAME":"新市區","LI":"大社里","LIN":"24鄰","STREET":" ","SECT":" ","MAREA":"大社","LANE":" ","ALLEY":" ","HOUSE_NO":"８８６之１號","E_COORD97":179834.42000000001,"N_COORD97":2553988.4199999999,"ADDRESS":"大社８８６之１號","OBJECTID":293342},"geometry":{"x":179834.42000000179,"y":2553988.4199999999}},{"attributes":{"ID":293351,"DIS_CODE":0,"TOWNNAME":"東區","LI":"崇德里","LIN":"17鄰","STREET":"崇明十三街","SECT":" ","MAREA":" ","LANE":"１０巷","ALLEY":" ","HOUSE_NO":"６號六樓之１","E_COORD97":170497.54000000001,"N_COORD97":2541562.1299999999,"ADDRESS":"崇明十三街１０巷６號六樓之１","OBJECTID":293343},"geometry":{"x":170497.54000000004,"y":2541562.1300000008}},{"attributes":{"ID":293352,"DIS_CODE":0,"TOWNNAME":"東區","LI":"崇德里","LIN":"17鄰","STREET":"崇明十三街","SECT":" ","MAREA":" ","LANE":"１０巷","ALLEY":" ","HOUSE_NO":"６號六樓之２","E_COORD97":170497.54000000001,"N_COORD97":2541562.1299999999,"ADDRESS":"崇明十三街１０巷６號六樓之２","OBJECTID":293344},"geometry":{"x":170497.54000000004,"y":2541562.1300000008}},{"attributes":{"ID":293353,"DIS_CODE":0,"TOWNNAME":"東區","LI":"崇德里","LIN":"17鄰","STREET":"崇明十三街","SECT":" ","MAREA":" ","LANE":"１０巷","ALLEY":" ","HOUSE_NO":"６號四樓","E_COORD97":170497.54000000001,"N_COORD97":2541562.1299999999,"ADDRESS":"崇明十三街１０巷６號四樓","OBJECTID":293345},"geometry":{"x":170497.54000000004,"y":2541562.1300000008}},{"attributes":{"ID":293354,"DIS_CODE":0,"TOWNNAME":"東區","LI":"崇德里","LIN":"17鄰","STREET":"崇明十三街","SECT":" ","MAREA":" ","LANE":"１０巷","ALLEY":" ","HOUSE_NO":"６號四樓之２","E_COORD97":170497.54000000001,"N_COORD97":2541562.1299999999,"ADDRESS":"崇明十三街１０巷６號四樓之２","OBJECTID":293346},"geometry":{"x":170497.54000000004,"y":2541562.1300000008}},{"attributes":{"ID":293355,"DIS_CODE":0,"TOWNNAME":"東區","LI":"崇德里","LIN":"17鄰","STREET":"崇明十三街","SECT":" ","MAREA":" ","LANE":"１０巷","ALLEY":" ","HOUSE_NO":"６號五樓之２","E_COORD97":170497.54000000001,"N_COORD97":2541562.1299999999,"ADDRESS":"崇明十三街１０巷６號五樓之２","OBJECTID":293347},"geometry":{"x":170497.54000000004,"y":2541562.1300000008}},{"attributes":{"ID":293356,"DIS_CODE":0,"TOWNNAME":"東區","LI":"崇德里","LIN":"17鄰","STREET":"崇明十三街","SECT":" ","MAREA":" ","LANE":"１０巷","ALLEY":" ","HOUSE_NO":"６號四樓之１","E_COORD97":170497.54000000001,"N_COORD97":2541562.1299999999,"ADDRESS":"崇明十三街１０巷６號四樓之１","OBJECTID":293348},"geometry":{"x":170497.54000000004,"y":2541562.1300000008}},{"attributes":{"ID":293357,"DIS_CODE":0,"TOWNNAME":"東區","LI":"崇德里","LIN":"17鄰","STREET":"崇明十三街","SECT":" ","MAREA":" ","LANE":"１０巷","ALLEY":" ","HOUSE_NO":"６號五樓之１","E_COORD97":170497.54000000001,"N_COORD97":2541562.1299999999,"ADDRESS":"崇明十三街１０巷６號五樓之１","OBJECTID":293349},"geometry":{"x":170497.54000000004,"y":2541562.1300000008}},{"attributes":{"ID":293358,"DIS_CODE":0,"TOWNNAME":"東區","LI":"崇德里","LIN":"17鄰","STREET":"崇明十三街","SECT":" ","MAREA":" ","LANE":"１０巷","ALLEY":" ","HOUSE_NO":"６號二樓","E_COORD97":170497.54000000001,"N_COORD97":2541562.1299999999,"ADDRESS":"崇明十三街１０巷６號二樓","OBJECTID":293350},"geometry":{"x":170497.54000000004,"y":2541562.1300000008}},{"attributes":{"ID":293359,"DIS_CODE":0,"TOWNNAME":"東區","LI":"崇德里","LIN":"17鄰","STREET":"崇明十三街","SECT":" ","MAREA":" ","LANE":"１０巷","ALLEY":" ","HOUSE_NO":"６號六樓","E_COORD97":170497.54000000001,"N_COORD97":2541562.1299999999,"ADDRESS":"崇明十三街１０巷６號六樓","OBJECTID":293351},"geometry":{"x":170497.54000000004,"y":2541562.1300000008}},{"attributes":{"ID":293360,"DIS_CODE":0,"TOWNNAME":"東區","LI":"崇德里","LIN":"17鄰","STREET":"崇明十三街","SECT":" ","MAREA":" ","LANE":"１０巷","ALLEY":" ","HOUSE_NO":"６號二樓之１","E_COORD97":170497.54000000001,"N_COORD97":2541562.1299999999,"ADDRESS":"崇明十三街１０巷６號二樓之１","OBJECTID":293352},"geometry":{"x":170497.54000000004,"y":2541562.1300000008}},{"attributes":{"ID":293361,"DIS_CODE":0,"TOWNNAME":"東區","LI":"崇德里","LIN":"17鄰","STREET":"崇明十三街","SECT":" ","MAREA":" ","LANE":"１０巷","ALLEY":" ","HOUSE_NO":"６號二樓之２","E_COORD97":170497.54000000001,"N_COORD97":2541562.1299999999,"ADDRESS":"崇明十三街１０巷６號二樓之２","OBJECTID":293353},"geometry":{"x":170497.54000000004,"y":2541562.1300000008}},{"attributes":{"ID":293362,"DIS_CODE":0,"TOWNNAME":"永康區","LI":"五王里","LIN":"17鄰","STREET":"成功路","SECT":" ","MAREA":" ","LANE":"２０４巷","ALLEY":" ","HOUSE_NO":"３１號三樓之２","E_COORD97":171477.53,"N_COORD97":2545766.8999999999,"ADDRESS":"成功路２０４巷３１號三樓之２","OBJECTID":293354},"geometry":{"x":171477.53000000026,"y":2545766.9000000004}},{"attributes":{"ID":293363,"DIS_CODE":0,"TOWNNAME":"永康區","LI":"復華里","LIN":"17鄰","STREET":"國華街","SECT":" ","MAREA":" ","LANE":"１０２巷","ALLEY":" ","HOUSE_NO":"６７號五樓之１","E_COORD97":172887.72,"N_COORD97":2546139.23,"ADDRESS":"國華街１０２巷６７號五樓之１","OBJECTID":293355},"geometry":{"x":172887.71999999974,"y":2546139.2300000023}},{"attributes":{"ID":293364,"DIS_CODE":0,"TOWNNAME":"中西區","LI":"民權里","LIN":"14鄰","STREET":"忠孝街","SECT":" ","MAREA":" ","LANE":" ","ALLEY":" ","HOUSE_NO":"９號","E_COORD97":167572.41,"N_COORD97":2544295.5499999998,"ADDRESS":"忠孝街９號","OBJECTID":293356},"geometry":{"x":167572.41000000108,"y":2544295.5500000007}},{"attributes":{"ID":293365,"DIS_CODE":0,"TOWNNAME":"永康區","LI":"復華里","LIN":"17鄰","STREET":"國華街","SECT":" ","MAREA":" ","LANE":"１０２巷","ALLEY":" ","HOUSE_NO":"６５號六樓之１","E_COORD97":172881.69,"N_COORD97":2546141.7799999998,"ADDRESS":"國華街１０２巷６５號六樓之１","OBJECTID":293357},"geometry":{"x":172881.69000000134,"y":2546141.7800000012}},{"attributes":{"ID":293366,"DIS_CODE":0,"TOWNNAME":"後壁區","LI":"墨林里","LIN":"4鄰","STREET":" ","SECT":" ","MAREA":"菁寮","LANE":" ","ALLEY":" ","HOUSE_NO":"１９１號","E_COORD97":182117.89999999999,"N_COORD97":2586434.8900000001,"ADDRESS":"菁寮１９１號","OBJECTID":293358},"geometry":{"x":182117.90000000037,"y":2586434.8900000006}},{"attributes":{"ID":293367,"DIS_CODE":0,"TOWNNAME":"永康區","LI":"復華里","LIN":"17鄰","STREET":"國華街","SECT":" ","MAREA":" ","LANE":"１０２巷","ALLEY":" ","HOUSE_NO":"５１號三樓之２","E_COORD97":172885.12,"N_COORD97":2546112.2799999998,"ADDRESS":"國華街１０２巷５１號三樓之２","OBJECTID":293359},"geometry":{"x":172885.12000000104,"y":2546112.2799999993}},{"attributes":{"ID":293368,"DIS_CODE":0,"TOWNNAME":"永康區","LI":"復華里","LIN":"17鄰","STREET":"國華街","SECT":" ","MAREA":" ","LANE":"１０２巷","ALLEY":" ","HOUSE_NO":"５１號十樓之２","E_COORD97":172885.12,"N_COORD97":2546112.2799999998,"ADDRESS":"國華街１０２巷５１號十樓之２","OBJECTID":293360},"geometry":{"x":172885.12000000104,"y":2546112.2799999993}},{"attributes":{"ID":293369,"DIS_CODE":0,"TOWNNAME":"永康區","LI":"復華里","LIN":"17鄰","STREET":"國華街","SECT":" ","MAREA":" ","LANE":"１０２巷","ALLEY":" ","HOUSE_NO":"５１號八樓之２","E_COORD97":172885.12,"N_COORD97":2546112.2799999998,"ADDRESS":"國華街１０２巷５１號八樓之２","OBJECTID":293361},"geometry":{"x":172885.12000000104,"y":2546112.2799999993}},{"attributes":{"ID":293370,"DIS_CODE":0,"TOWNNAME":"永康區","LI":"復華里","LIN":"17鄰","STREET":"國華街","SECT":" ","MAREA":" ","LANE":"１０２巷","ALLEY":" ","HOUSE_NO":"５１號七樓之２","E_COORD97":172885.12,"N_COORD97":2546112.2799999998,"ADDRESS":"國華街１０２巷５１號七樓之２","OBJECTID":293362},"geometry":{"x":172885.12000000104,"y":2546112.2799999993}},{"attributes":{"ID":293371,"DIS_CODE":0,"TOWNNAME":"北區","LI":"玉皇里","LIN":"14鄰","STREET":"佑民街","SECT":" ","MAREA":" ","LANE":" ","ALLEY":" ","HOUSE_NO":"３３號","E_COORD97":168580.89999999999,"N_COORD97":2544386.7999999998,"ADDRESS":"佑民街３３號","OBJECTID":293363},"geometry":{"x":168580.9000000013,"y":2544386.8000000026}},{"attributes":{"ID":293372,"DIS_CODE":0,"TOWNNAME":"安南區","LI":"總頭里","LIN":"13鄰","STREET":"長溪路","SECT":"二段","MAREA":" ","LANE":" ","ALLEY":" ","HOUSE_NO":"４５９號之１","E_COORD97":168225.02031299999,"N_COORD97":2550320.6908300002,"ADDRESS":"長溪路二段４５９號之１","OBJECTID":293364},"geometry":{"x":168225.02031300031,"y":2550320.6908299997}},{"attributes":{"ID":293373,"DIS_CODE":0,"TOWNNAME":"永康區","LI":"復華里","LIN":"17鄰","STREET":"國華街","SECT":" ","MAREA":" ","LANE":"１０２巷","ALLEY":" ","HOUSE_NO":"５１號十樓之１","E_COORD97":172884.98999999999,"N_COORD97":2546112.2799999998,"ADDRESS":"國華街１０２巷５１號十樓之１","OBJECTID":293365},"geometry":{"x":172884.99000000022,"y":2546112.2799999993}},{"attributes":{"ID":293374,"DIS_CODE":0,"TOWNNAME":"永康區","LI":"復華里","LIN":"17鄰","STREET":"國華街","SECT":" ","MAREA":" ","LANE":"１０２巷","ALLEY":" ","HOUSE_NO":"６７號七樓之３","E_COORD97":172887.82000000001,"N_COORD97":2546139.23,"ADDRESS":"國華街１０２巷６７號七樓之３","OBJECTID":293366},"geometry":{"x":172887.8200000003,"y":2546139.2300000023}},{"attributes":{"ID":293375,"DIS_CODE":0,"TOWNNAME":"永康區","LI":"五王里","LIN":"17鄰","STREET":"成功路","SECT":" ","MAREA":" ","LANE":"２０４巷","ALLEY":" ","HOUSE_NO":"３１號三樓之４","E_COORD97":171477.42000000001,"N_COORD97":2545766.8999999999,"ADDRESS":"成功路２０４巷３１號三樓之４","OBJECTID":293367},"geometry":{"x":171477.42000000086,"y":2545766.9000000004}},{"attributes":{"ID":293376,"DIS_CODE":0,"TOWNNAME":"永康區","LI":"五王里","LIN":"17鄰","STREET":"成功路","SECT":" ","MAREA":" ","LANE":"２０４巷","ALLEY":" ","HOUSE_NO":"３１號四樓之６","E_COORD97":171477.5,"N_COORD97":2545766.8999999999,"ADDRESS":"成功路２０４巷３１號四樓之６","OBJECTID":293368},"geometry":{"x":171477.5,"y":2545766.9000000004}},{"attributes":{"ID":293377,"DIS_CODE":0,"TOWNNAME":"永康區","LI":"五王里","LIN":"17鄰","STREET":"成功路","SECT":" ","MAREA":" ","LANE":"２０４巷","ALLEY":" ","HOUSE_NO":"３１號七樓之４","E_COORD97":171477.42000000001,"N_COORD97":2545766.8999999999,"ADDRESS":"成功路２０４巷３１號七樓之４","OBJECTID":293369},"geometry":{"x":171477.42000000086,"y":2545766.9000000004}},{"attributes":{"ID":293378,"DIS_CODE":0,"TOWNNAME":"永康區","LI":"五王里","LIN":"17鄰","STREET":"成功路","SECT":" ","MAREA":" ","LANE":"２０４巷","ALLEY":" ","HOUSE_NO":"３１號三樓之３","E_COORD97":171477.48999999999,"N_COORD97":2545766.8999999999,"ADDRESS":"成功路２０４巷３１號三樓之３","OBJECTID":293370},"geometry":{"x":171477.49000000115,"y":2545766.9000000004}},{"attributes":{"ID":293379,"DIS_CODE":0,"TOWNNAME":"永康區","LI":"五王里","LIN":"17鄰","STREET":"成功路","SECT":" ","MAREA":" ","LANE":"２０４巷","ALLEY":" ","HOUSE_NO":"３１號三樓之５","E_COORD97":171477.54999999999,"N_COORD97":2545766.8999999999,"ADDRESS":"成功路２０４巷３１號三樓之５","OBJECTID":293371},"geometry":{"x":171477.54999999981,"y":2545766.9000000004}},{"attributes":{"ID":293380,"DIS_CODE":0,"TOWNNAME":"永康區","LI":"大橋里","LIN":"17鄰","STREET":"大橋一街","SECT":" ","MAREA":" ","LANE":"１０３巷","ALLEY":" ","HOUSE_NO":"５０號四樓","E_COORD97":170951.34,"N_COORD97":2546547.7599999998,"ADDRESS":"大橋一街１０３巷５０號四樓","OBJECTID":293372},"geometry":{"x":170951.33999999985,"y":2546547.7599999998}},{"attributes":{"ID":293381,"DIS_CODE":0,"TOWNNAME":"北區","LI":"玉皇里","LIN":"14鄰","STREET":"佑民街","SECT":" ","MAREA":" ","LANE":" ","ALLEY":" ","HOUSE_NO":"３３號之１","E_COORD97":168582.78,"N_COORD97":2544390.4900000002,"ADDRESS":"佑民街３３號之１","OBJECTID":293373},"geometry":{"x":168582.78000000026,"y":2544390.4899999984}},{"attributes":{"ID":293382,"DIS_CODE":0,"TOWNNAME":"永康區","LI":"五王里","LIN":"17鄰","STREET":"成功路","SECT":" ","MAREA":" ","LANE":"２０４巷","ALLEY":" ","HOUSE_NO":"３１號六樓之５","E_COORD97":171477.54999999999,"N_COORD97":2545766.8999999999,"ADDRESS":"成功路２０４巷３１號六樓之５","OBJECTID":293374},"geometry":{"x":171477.54999999981,"y":2545766.9000000004}},{"attributes":{"ID":293383,"DIS_CODE":0,"TOWNNAME":"永康區","LI":"五王里","LIN":"17鄰","STREET":"成功路","SECT":" ","MAREA":" ","LANE":"２０４巷","ALLEY":" ","HOUSE_NO":"３１號七樓之５","E_COORD97":171477.54999999999,"N_COORD97":2545766.8999999999,"ADDRESS":"成功路２０４巷３１號七樓之５","OBJECTID":293375},"geometry":{"x":171477.54999999981,"y":2545766.9000000004}},{"attributes":{"ID":293384,"DIS_CODE":0,"TOWNNAME":"中西區","LI":"藥王里","LIN":"17鄰","STREET":"民權路","SECT":"三段","MAREA":" ","LANE":"４００巷","ALLEY":" ","HOUSE_NO":"１１號八樓","E_COORD97":166892.64999999999,"N_COORD97":2544406.0499999998,"ADDRESS":"民權路三段４００巷１１號八樓","OBJECTID":293376},"geometry":{"x":166892.6500000013,"y":2544406.0500000026}},{"attributes":{"ID":293385,"DIS_CODE":0,"TOWNNAME":"中西區","LI":"藥王里","LIN":"17鄰","STREET":"民權路","SECT":"三段","MAREA":" ","LANE":"４００巷","ALLEY":" ","HOUSE_NO":"１１號十樓","E_COORD97":166892.64999999999,"N_COORD97":2544406.0499999998,"ADDRESS":"民權路三段４００巷１１號十樓","OBJECTID":293377},"geometry":{"x":166892.6500000013,"y":2544406.0500000026}},{"attributes":{"ID":293386,"DIS_CODE":0,"TOWNNAME":"中西區","LI":"藥王里","LIN":"17鄰","STREET":"民權路","SECT":"三段","MAREA":" ","LANE":"４００巷","ALLEY":" ","HOUSE_NO":"１１號三樓","E_COORD97":166892.64999999999,"N_COORD97":2544406.0499999998,"ADDRESS":"民權路三段４００巷１１號三樓","OBJECTID":293378},"geometry":{"x":166892.6500000013,"y":2544406.0500000026}},{"attributes":{"ID":293387,"DIS_CODE":0,"TOWNNAME":"北區","LI":"玉皇里","LIN":"14鄰","STREET":"佑民街","SECT":" ","MAREA":" ","LANE":" ","ALLEY":" ","HOUSE_NO":"３５號","E_COORD97":168585.67000000001,"N_COORD97":2544395.3300000001,"ADDRESS":"佑民街３５號","OBJECTID":293379},"geometry":{"x":168585.67000000086,"y":2544395.3300000019}},{"attributes":{"ID":293388,"DIS_CODE":0,"TOWNNAME":"中西區","LI":"藥王里","LIN":"17鄰","STREET":"民權路","SECT":"三段","MAREA":" ","LANE":"４００巷","ALLEY":" ","HOUSE_NO":"１１號五樓","E_COORD97":166892.64999999999,"N_COORD97":2544406.0499999998,"ADDRESS":"民權路三段４００巷１１號五樓","OBJECTID":293380},"geometry":{"x":166892.6500000013,"y":2544406.0500000026}},{"attributes":{"ID":293389,"DIS_CODE":0,"TOWNNAME":"中西區","LI":"藥王里","LIN":"17鄰","STREET":"民權路","SECT":"三段","MAREA":" ","LANE":"４００巷","ALLEY":" ","HOUSE_NO":"１１號六樓","E_COORD97":166892.64999999999,"N_COORD97":2544406.0499999998,"ADDRESS":"民權路三段４００巷１１號六樓","OBJECTID":293381},"geometry":{"x":166892.6500000013,"y":2544406.0500000026}},{"attributes":{"ID":293390,"DIS_CODE":0,"TOWNNAME":"中西區","LI":"藥王里","LIN":"17鄰","STREET":"民權路","SECT":"三段","MAREA":" ","LANE":"４００巷","ALLEY":" ","HOUSE_NO":"１１號四樓","E_COORD97":166892.64999999999,"N_COORD97":2544406.0499999998,"ADDRESS":"民權路三段４００巷１１號四樓","OBJECTID":293382},"geometry":{"x":166892.6500000013,"y":2544406.0500000026}},{"attributes":{"ID":293391,"DIS_CODE":0,"TOWNNAME":"永康區","LI":"復華里","LIN":"17鄰","STREET":"國華街","SECT":" ","MAREA":" ","LANE":"１０２巷","ALLEY":" ","HOUSE_NO":"６３號九樓之３","E_COORD97":172874.54000000001,"N_COORD97":2546145.02,"ADDRESS":"國華街１０２巷６３號九樓之３","OBJECTID":293383},"geometry":{"x":172874.54000000004,"y":2546145.0199999996}},{"attributes":{"ID":293392,"DIS_CODE":0,"TOWNNAME":"後壁區","LI":"頂安里","LIN":"8鄰","STREET":" ","SECT":" ","MAREA":"頂寮","LANE":" ","ALLEY":" ","HOUSE_NO":"８４號之１","E_COORD97":183752.85999999999,"N_COORD97":2581371.7200000002,"ADDRESS":"頂寮８４號之１","OBJECTID":293384},"geometry":{"x":183752.86000000127,"y":2581371.7199999988}},{"attributes":{"ID":293393,"DIS_CODE":0,"TOWNNAME":"後壁區","LI":"菁寮里","LIN":"1鄰","STREET":" ","SECT":" ","MAREA":"菁寮","LANE":" ","ALLEY":" ","HOUSE_NO":"１１號之１","E_COORD97":181920.26000000001,"N_COORD97":2586366.79,"ADDRESS":"菁寮１１號之１","OBJECTID":293385},"geometry":{"x":181920.26000000164,"y":2586366.7899999991}},{"attributes":{"ID":293394,"DIS_CODE":0,"TOWNNAME":"後壁區","LI":"墨林里","LIN":"4鄰","STREET":" ","SECT":" ","MAREA":"菁寮","LANE":" ","ALLEY":" ","HOUSE_NO":"１８２號","E_COORD97":182121.48999999999,"N_COORD97":2586493.2400000002,"ADDRESS":"菁寮１８２號","OBJECTID":293386},"geometry":{"x":182121.49000000115,"y":2586493.2400000002}},{"attributes":{"ID":293395,"DIS_CODE":0,"TOWNNAME":"後壁區","LI":"墨林里","LIN":"4鄰","STREET":" ","SECT":" ","MAREA":"菁寮","LANE":" ","ALLEY":" ","HOUSE_NO":"１８３號","E_COORD97":182118.04999999999,"N_COORD97":2586483.1099999999,"ADDRESS":"菁寮１８３號","OBJECTID":293387},"geometry":{"x":182118.04999999981,"y":2586483.1099999994}},{"attributes":{"ID":293396,"DIS_CODE":0,"TOWNNAME":"後壁區","LI":"墨林里","LIN":"4鄰","STREET":" ","SECT":" ","MAREA":"菁寮","LANE":" ","ALLEY":" ","HOUSE_NO":"１８７號","E_COORD97":182116.76999999999,"N_COORD97":2586461.4900000002,"ADDRESS":"菁寮１８７號","OBJECTID":293388},"geometry":{"x":182116.77000000142,"y":2586461.4900000002}},{"attributes":{"ID":293397,"DIS_CODE":0,"TOWNNAME":"後壁區","LI":"墨林里","LIN":"4鄰","STREET":" ","SECT":" ","MAREA":"菁寮","LANE":" ","ALLEY":" ","HOUSE_NO":"１８８號","E_COORD97":182117.01999999999,"N_COORD97":2586457.52,"ADDRESS":"菁寮１８８號","OBJECTID":293389},"geometry":{"x":182117.02000000048,"y":2586457.5200000033}},{"attributes":{"ID":293398,"DIS_CODE":0,"TOWNNAME":"後壁區","LI":"墨林里","LIN":"4鄰","STREET":" ","SECT":" ","MAREA":"菁寮","LANE":" ","ALLEY":" ","HOUSE_NO":"１９２號","E_COORD97":182118.32999999999,"N_COORD97":2586429.1000000001,"ADDRESS":"菁寮１９２號","OBJECTID":293390},"geometry":{"x":182118.33000000007,"y":2586429.0999999996}},{"attributes":{"ID":293399,"DIS_CODE":0,"TOWNNAME":"後壁區","LI":"墨林里","LIN":"4鄰","STREET":" ","SECT":" ","MAREA":"菁寮","LANE":" ","ALLEY":" ","HOUSE_NO":"１９４號","E_COORD97":182117.17999999999,"N_COORD97":2586417.2400000002,"ADDRESS":"菁寮１９４號","OBJECTID":293391},"geometry":{"x":182117.1799999997,"y":2586417.2400000021}},{"attributes":{"ID":293400,"DIS_CODE":0,"TOWNNAME":"永康區","LI":"復華里","LIN":"17鄰","STREET":"國華街","SECT":" ","MAREA":" ","LANE":"１０２巷","ALLEY":" ","HOUSE_NO":"６５號十一樓之２","E_COORD97":172883.07000000001,"N_COORD97":2546141.7799999998,"ADDRESS":"國華街１０２巷６５號十一樓之２","OBJECTID":293392},"geometry":{"x":172883.0700000003,"y":2546141.7800000012}},{"attributes":{"ID":293401,"DIS_CODE":0,"TOWNNAME":"後壁區","LI":"墨林里","LIN":"4鄰","STREET":" ","SECT":" ","MAREA":"菁寮","LANE":" ","ALLEY":" ","HOUSE_NO":"１９６號","E_COORD97":182120.97,"N_COORD97":2586410.1600000001,"ADDRESS":"菁寮１９６號","OBJECTID":293393},"geometry":{"x":182120.97000000067,"y":2586410.160000002}},{"attributes":{"ID":293402,"DIS_CODE":0,"TOWNNAME":"後壁區","LI":"墨林里","LIN":"4鄰","STREET":" ","SECT":" ","MAREA":"菁寮","LANE":" ","ALLEY":" ","HOUSE_NO":"１９７號","E_COORD97":182121.54999999999,"N_COORD97":2586405.9500000002,"ADDRESS":"菁寮１９７號","OBJECTID":293394},"geometry":{"x":182121.54999999981,"y":2586405.9499999993}},{"attributes":{"ID":293403,"DIS_CODE":0,"TOWNNAME":"後壁區","LI":"墨林里","LIN":"4鄰","STREET":" ","SECT":" ","MAREA":"菁寮","LANE":" ","ALLEY":" ","HOUSE_NO":"１９８號","E_COORD97":182122.12,"N_COORD97":2586402.1800000002,"ADDRESS":"菁寮１９８號","OBJECTID":293395},"geometry":{"x":182122.12000000104,"y":2586402.1799999978}},{"attributes":{"ID":293404,"DIS_CODE":0,"TOWNNAME":"後壁區","LI":"墨林里","LIN":"4鄰","STREET":" ","SECT":" ","MAREA":"菁寮","LANE":" ","ALLEY":" ","HOUSE_NO":"２０２號","E_COORD97":182116.26999999999,"N_COORD97":2586385.5299999998,"ADDRESS":"菁寮２０２號","OBJECTID":293396},"geometry":{"x":182116.26999999955,"y":2586385.5299999993}},{"attributes":{"ID":293405,"DIS_CODE":0,"TOWNNAME":"後壁區","LI":"墨林里","LIN":"4鄰","STREET":" ","SECT":" ","MAREA":"菁寮","LANE":" ","ALLEY":" ","HOUSE_NO":"２０４號","E_COORD97":182119.14000000001,"N_COORD97":2586380.73,"ADDRESS":"菁寮２０４號","OBJECTID":293397},"geometry":{"x":182119.13999999966,"y":2586380.7300000023}},{"attributes":{"ID":293406,"DIS_CODE":0,"TOWNNAME":"後壁區","LI":"平安里","LIN":"4鄰","STREET":" ","SECT":" ","MAREA":"葯店口","LANE":" ","ALLEY":" ","HOUSE_NO":"４６號之１０","E_COORD97":182066.35999999999,"N_COORD97":2584697.2200000002,"ADDRESS":"葯店口４６號之１０","OBJECTID":293398},"geometry":{"x":182066.36000000127,"y":2584697.2200000007}},{"attributes":{"ID":293407,"DIS_CODE":0,"TOWNNAME":"永康區","LI":"復華里","LIN":"17鄰","STREET":"國華街","SECT":" ","MAREA":" ","LANE":"１０２巷","ALLEY":" ","HOUSE_NO":"６３號四樓之２","E_COORD97":172874.57000000001,"N_COORD97":2546145.02,"ADDRESS":"國華街１０２巷６３號四樓之２","OBJECTID":293399},"geometry":{"x":172874.5700000003,"y":2546145.0199999996}},{"attributes":{"ID":293408,"DIS_CODE":0,"TOWNNAME":"後壁區","LI":"平安里","LIN":"4鄰","STREET":" ","SECT":" ","MAREA":"葯店口","LANE":" ","ALLEY":" ","HOUSE_NO":"４６號之１１","E_COORD97":182071,"N_COORD97":2584696.5899999999,"ADDRESS":"葯店口４６號之１１","OBJECTID":293400},"geometry":{"x":182071,"y":2584696.5899999999}}]}