{"displayFieldName":"TOWNNAME","fieldAliases":{"ID":"ID","DIS_CODE":"DIS_CODE","TOWNNAME":"TOWNNAME","LI":"LI","LIN":"LIN","STREET":"STREET","SECT":"SECT","MAREA":"MAREA","LANE":"LANE","ALLEY":"ALLEY","HOUSE_NO":"HOUSE_NO","E_COORD97":"E_COORD97","N_COORD97":"N_COORD97","ADDRESS":"ADDRESS","OBJECTID":"OBJECTID"},"geometryType":"esriGeometryPoint","spatialReference":{"wkid":102443,"latestWkid":3826},"fields":[{"name":"ID","type":"esriFieldTypeDouble","alias":"ID"},{"name":"DIS_CODE","type":"esriFieldTypeInteger","alias":"DIS_CODE"},{"name":"TOWNNAME","type":"esriFieldTypeString","alias":"TOWNNAME","length":8},{"name":"LI","type":"esriFieldTypeString","alias":"LI","length":8},{"name":"LIN","type":"esriFieldTypeString","alias":"LIN","length":12},{"name":"STREET","type":"esriFieldTypeString","alias":"STREET","length":20},{"name":"SECT","type":"esriFieldTypeString","alias":"SECT","length":8},{"name":"MAREA","type":"esriFieldTypeString","alias":"MAREA","length":12},{"name":"LANE","type":"esriFieldTypeString","alias":"LANE","length":10},{"name":"ALLEY","type":"esriFieldTypeString","alias":"ALLEY","length":10},{"name":"HOUSE_NO","type":"esriFieldTypeString","alias":"HOUSE_NO","length":20},{"name":"E_COORD97","type":"esriFieldTypeDouble","alias":"E_COORD97"},{"name":"N_COORD97","type":"esriFieldTypeDouble","alias":"N_COORD97"},{"name":"ADDRESS","type":"esriFieldTypeString","alias":"ADDRESS","length":50},{"name":"OBJECTID","type":"esriFieldTypeOID","alias":"OBJECTID"}],"features":[{"attributes":{"ID":174002,"DIS_CODE":0,"TOWNNAME":"柳營區","LI":"大農里","LIN":"4鄰","STREET":"義士路","SECT":"一段","MAREA":" ","LANE":"３４３巷","ALLEY":"４８弄","HOUSE_NO":"７３號","E_COORD97":186018.94,"N_COORD97":2575583.5600000001,"ADDRESS":"義士路一段３４３巷４８弄７３號","OBJECTID":174001},"geometry":{"x":186018.94000000134,"y":2575583.5600000024}},{"attributes":{"ID":174003,"DIS_CODE":0,"TOWNNAME":"東區","LI":"龍山里","LIN":"10鄰","STREET":"東門路","SECT":"二段","MAREA":" ","LANE":" ","ALLEY":" ","HOUSE_NO":"２２號","E_COORD97":169964.66,"N_COORD97":2542982.3100000001,"ADDRESS":"東門路二段２２號","OBJECTID":174002},"geometry":{"x":169964.66000000015,"y":2542982.3100000024}},{"attributes":{"ID":174004,"DIS_CODE":0,"TOWNNAME":"東區","LI":"龍山里","LIN":"10鄰","STREET":"東門路","SECT":"二段","MAREA":" ","LANE":" ","ALLEY":" ","HOUSE_NO":"７８號","E_COORD97":170005.73000000001,"N_COORD97":2542938.9399999999,"ADDRESS":"東門路二段７８號","OBJECTID":174003},"geometry":{"x":170005.73000000231,"y":2542938.9399999976}},{"attributes":{"ID":174005,"DIS_CODE":0,"TOWNNAME":"東區","LI":"富強里","LIN":"10鄰","STREET":"中華東路","SECT":"二段","MAREA":" ","LANE":" ","ALLEY":" ","HOUSE_NO":"１５８號","E_COORD97":171203.67999999999,"N_COORD97":2542691.7000000002,"ADDRESS":"中華東路二段１５８號","OBJECTID":174004},"geometry":{"x":171203.67999999877,"y":2542691.6999999993}},{"attributes":{"ID":174006,"DIS_CODE":0,"TOWNNAME":"東區","LI":"富強里","LIN":"10鄰","STREET":"中華東路","SECT":"二段","MAREA":" ","LANE":" ","ALLEY":" ","HOUSE_NO":"２０８號","E_COORD97":171131.01000000001,"N_COORD97":2542597.2999999998,"ADDRESS":"中華東路二段２０８號","OBJECTID":174005},"geometry":{"x":171131.01000000071,"y":2542597.3000000026}},{"attributes":{"ID":174007,"DIS_CODE":0,"TOWNNAME":"柳營區","LI":"大農里","LIN":"4鄰","STREET":"義士路","SECT":"一段","MAREA":" ","LANE":"３７７巷","ALLEY":"３弄","HOUSE_NO":"１１號","E_COORD97":186107.22,"N_COORD97":2575667.9500000002,"ADDRESS":"義士路一段３７７巷３弄１１號","OBJECTID":174006},"geometry":{"x":186107.21999999974,"y":2575667.9499999993}},{"attributes":{"ID":174008,"DIS_CODE":0,"TOWNNAME":"柳營區","LI":"大農里","LIN":"4鄰","STREET":"義士路","SECT":"一段","MAREA":" ","LANE":"３７７巷","ALLEY":"３弄","HOUSE_NO":"５號","E_COORD97":186095.87,"N_COORD97":2575664.7799999998,"ADDRESS":"義士路一段３７７巷３弄５號","OBJECTID":174007},"geometry":{"x":186095.87000000104,"y":2575664.7800000012}},{"attributes":{"ID":174009,"DIS_CODE":0,"TOWNNAME":"柳營區","LI":"大農里","LIN":"4鄰","STREET":"義士路","SECT":"一段","MAREA":" ","LANE":"３７７巷","ALLEY":"３弄","HOUSE_NO":"７號","E_COORD97":186099.95000000001,"N_COORD97":2575665.6600000001,"ADDRESS":"義士路一段３７７巷３弄７號","OBJECTID":174008},"geometry":{"x":186099.95000000112,"y":2575665.6600000039}},{"attributes":{"ID":174010,"DIS_CODE":0,"TOWNNAME":"柳營區","LI":"大農里","LIN":"4鄰","STREET":"義士路","SECT":"一段","MAREA":" ","LANE":"３７７巷","ALLEY":"３弄","HOUSE_NO":"９號","E_COORD97":186103.87,"N_COORD97":2575667.21,"ADDRESS":"義士路一段３７７巷３弄９號","OBJECTID":174009},"geometry":{"x":186103.87000000104,"y":2575667.2100000028}},{"attributes":{"ID":174011,"DIS_CODE":0,"TOWNNAME":"柳營區","LI":"大農里","LIN":"4鄰","STREET":"義士路","SECT":"一段","MAREA":" ","LANE":"６０５巷","ALLEY":"７１弄","HOUSE_NO":"２９號","E_COORD97":185606.35999999999,"N_COORD97":2575708.2400000002,"ADDRESS":"義士路一段６０５巷７１弄２９號","OBJECTID":174010},"geometry":{"x":185606.36000000127,"y":2575708.2400000002}},{"attributes":{"ID":174012,"DIS_CODE":0,"TOWNNAME":"柳營區","LI":"大農里","LIN":"4鄰","STREET":"義士路","SECT":"一段","MAREA":" ","LANE":"７１０巷","ALLEY":"５２弄","HOUSE_NO":"１號","E_COORD97":185609.97,"N_COORD97":2576019.3199999998,"ADDRESS":"義士路一段７１０巷５２弄１號","OBJECTID":174011},"geometry":{"x":185609.97000000067,"y":2576019.3200000003}},{"attributes":{"ID":174013,"DIS_CODE":0,"TOWNNAME":"柳營區","LI":"大農里","LIN":"4鄰","STREET":"義士路","SECT":"一段","MAREA":" ","LANE":"７１０巷","ALLEY":"５２弄","HOUSE_NO":"８０號","E_COORD97":185807.70000000001,"N_COORD97":2575944.73,"ADDRESS":"義士路一段７１０巷５２弄８０號","OBJECTID":174012},"geometry":{"x":185807.70000000019,"y":2575944.7300000023}},{"attributes":{"ID":174014,"DIS_CODE":0,"TOWNNAME":"西港區","LI":"慶安里","LIN":"8鄰","STREET":"新興街","SECT":" ","MAREA":" ","LANE":" ","ALLEY":" ","HOUSE_NO":"１１９號","E_COORD97":168184.64000000001,"N_COORD97":2558234.5899999999,"ADDRESS":"新興街１１９號","OBJECTID":174013},"geometry":{"x":168184.63999999966,"y":2558234.5899999999}},{"attributes":{"ID":174015,"DIS_CODE":0,"TOWNNAME":"東區","LI":"富強里","LIN":"10鄰","STREET":"中華東路","SECT":"二段","MAREA":" ","LANE":" ","ALLEY":" ","HOUSE_NO":"２１２號","E_COORD97":171121.37,"N_COORD97":2542588,"ADDRESS":"中華東路二段２１２號","OBJECTID":174014},"geometry":{"x":171121.37000000011,"y":2542588.0000000019}},{"attributes":{"ID":174016,"DIS_CODE":0,"TOWNNAME":"永康區","LI":"\u25A0行里","LIN":"10鄰","STREET":"新中街","SECT":" ","MAREA":" ","LANE":" ","ALLEY":" ","HOUSE_NO":"１２５號","E_COORD97":172238.54000000001,"N_COORD97":2548565.7799999998,"ADDRESS":"新中街１２５號","OBJECTID":174015},"geometry":{"x":172238.54000000004,"y":2548565.7800000012}},{"attributes":{"ID":174017,"DIS_CODE":0,"TOWNNAME":"永康區","LI":"\u25A0行里","LIN":"10鄰","STREET":"新中街","SECT":" ","MAREA":" ","LANE":" ","ALLEY":" ","HOUSE_NO":"１３７號","E_COORD97":172262.23999999999,"N_COORD97":2548578.3900000001,"ADDRESS":"新中街１３７號","OBJECTID":174016},"geometry":{"x":172262.24000000115,"y":2548578.3900000006}},{"attributes":{"ID":174018,"DIS_CODE":0,"TOWNNAME":"東區","LI":"德高里","LIN":"14鄰","STREET":"仁和路","SECT":" ","MAREA":" ","LANE":" ","ALLEY":" ","HOUSE_NO":"１７９號","E_COORD97":171621.81,"N_COORD97":2540882.1000000001,"ADDRESS":"仁和路１７９號","OBJECTID":174017},"geometry":{"x":171621.81000000052,"y":2540882.0999999996}},{"attributes":{"ID":174019,"DIS_CODE":0,"TOWNNAME":"白河區","LI":"河東里","LIN":"10鄰","STREET":" ","SECT":" ","MAREA":"糞箕湖","LANE":" ","ALLEY":" ","HOUSE_NO":"１３５之１６號","E_COORD97":191057.31,"N_COORD97":2582640.1299999999,"ADDRESS":"糞箕湖１３５之１６號","OBJECTID":174018},"geometry":{"x":191057.31000000052,"y":2582640.1300000008}},{"attributes":{"ID":174020,"DIS_CODE":0,"TOWNNAME":"白河區","LI":"河東里","LIN":"10鄰","STREET":" ","SECT":" ","MAREA":"糞箕湖","LANE":" ","ALLEY":" ","HOUSE_NO":"１３５之２６號","E_COORD97":191070.39000000001,"N_COORD97":2582664.9100000001,"ADDRESS":"糞箕湖１３５之２６號","OBJECTID":174019},"geometry":{"x":191070.3900000006,"y":2582664.9099999983}},{"attributes":{"ID":174021,"DIS_CODE":0,"TOWNNAME":"白河區","LI":"河東里","LIN":"10鄰","STREET":" ","SECT":" ","MAREA":"糞箕湖","LANE":" ","ALLEY":" ","HOUSE_NO":"１３５之２７號","E_COORD97":191066.10999999999,"N_COORD97":2582666.6400000001,"ADDRESS":"糞箕湖１３５之２７號","OBJECTID":174020},"geometry":{"x":191066.11000000127,"y":2582666.6400000006}},{"attributes":{"ID":174022,"DIS_CODE":0,"TOWNNAME":"白河區","LI":"河東里","LIN":"10鄰","STREET":" ","SECT":" ","MAREA":"糞箕湖","LANE":" ","ALLEY":" ","HOUSE_NO":"１３５之２８號","E_COORD97":191061.51000000001,"N_COORD97":2582667.6699999999,"ADDRESS":"糞箕湖１３５之２８號","OBJECTID":174021},"geometry":{"x":191061.51000000071,"y":2582667.6700000018}},{"attributes":{"ID":174023,"DIS_CODE":0,"TOWNNAME":"白河區","LI":"河東里","LIN":"10鄰","STREET":" ","SECT":" ","MAREA":"糞箕湖","LANE":" ","ALLEY":" ","HOUSE_NO":"１３５之６號","E_COORD97":191016.39000000001,"N_COORD97":2582667.3100000001,"ADDRESS":"糞箕湖１３５之６號","OBJECTID":174022},"geometry":{"x":191016.3900000006,"y":2582667.3100000024}},{"attributes":{"ID":174024,"DIS_CODE":0,"TOWNNAME":"大內區","LI":"內郭里","LIN":"10鄰","STREET":" ","SECT":" ","MAREA":"後堀","LANE":" ","ALLEY":" ","HOUSE_NO":"５９號","E_COORD97":186163.56,"N_COORD97":2557538.3199999998,"ADDRESS":"後堀５９號","OBJECTID":174023},"geometry":{"x":186163.56000000052,"y":2557538.3200000003}},{"attributes":{"ID":174025,"DIS_CODE":0,"TOWNNAME":"永康區","LI":"\u25A0行里","LIN":"10鄰","STREET":"新中街","SECT":" ","MAREA":" ","LANE":" ","ALLEY":" ","HOUSE_NO":"１１５號","E_COORD97":172219.64999999999,"N_COORD97":2548553.9399999999,"ADDRESS":"新中街１１５號","OBJECTID":174024},"geometry":{"x":172219.65000000037,"y":2548553.9400000013}},{"attributes":{"ID":174026,"DIS_CODE":0,"TOWNNAME":"歸仁區","LI":"大廟里","LIN":"18鄰","STREET":"大廟五街","SECT":" ","MAREA":" ","LANE":"２７巷","ALLEY":"２弄","HOUSE_NO":"１３號","E_COORD97":175914.63,"N_COORD97":2544255.0899999999,"ADDRESS":"大廟五街２７巷２弄１３號","OBJECTID":174025},"geometry":{"x":175914.62999999989,"y":2544255.0900000017}},{"attributes":{"ID":174027,"DIS_CODE":0,"TOWNNAME":"歸仁區","LI":"大廟里","LIN":"18鄰","STREET":"大廟五街","SECT":" ","MAREA":" ","LANE":"２７巷","ALLEY":"６弄","HOUSE_NO":"５號","E_COORD97":175876.38,"N_COORD97":2544249.0899999999,"ADDRESS":"大廟五街２７巷６弄５號","OBJECTID":174026},"geometry":{"x":175876.38000000175,"y":2544249.0899999999}},{"attributes":{"ID":174028,"DIS_CODE":0,"TOWNNAME":"歸仁區","LI":"七甲里","LIN":"18鄰","STREET":"南潭三街","SECT":" ","MAREA":" ","LANE":"１６２巷","ALLEY":"７弄","HOUSE_NO":"１５號","E_COORD97":176484.53,"N_COORD97":2543153.0299999998,"ADDRESS":"南潭三街１６２巷７弄１５號","OBJECTID":174027},"geometry":{"x":176484.53000000119,"y":2543153.0300000012}},{"attributes":{"ID":174029,"DIS_CODE":0,"TOWNNAME":"歸仁區","LI":"大廟里","LIN":"18鄰","STREET":"保大路","SECT":"三段","MAREA":" ","LANE":"２９０巷","ALLEY":"３３弄","HOUSE_NO":"２８號","E_COORD97":175752.45000000001,"N_COORD97":2544487.8500000001,"ADDRESS":"保大路三段２９０巷３３弄２８號","OBJECTID":174028},"geometry":{"x":175752.45000000205,"y":2544487.8499999996}},{"attributes":{"ID":174030,"DIS_CODE":0,"TOWNNAME":"歸仁區","LI":"後市里","LIN":"46鄰","STREET":"文化街","SECT":"二段","MAREA":" ","LANE":"１２１巷","ALLEY":"７弄","HOUSE_NO":"２２號","E_COORD97":177225.69,"N_COORD97":2541125.7599999998,"ADDRESS":"文化街二段１２１巷７弄２２號","OBJECTID":174029},"geometry":{"x":177225.68999999948,"y":2541125.7599999998}},{"attributes":{"ID":174031,"DIS_CODE":0,"TOWNNAME":"歸仁區","LI":"七甲里","LIN":"4鄰","STREET":"中正北路","SECT":"二段","MAREA":" ","LANE":"５１６巷","ALLEY":"５２弄","HOUSE_NO":"２號","E_COORD97":177498.37,"N_COORD97":2543213.2599999998,"ADDRESS":"中正北路二段５１６巷５２弄２號","OBJECTID":174030},"geometry":{"x":177498.37000000011,"y":2543213.2600000016}},{"attributes":{"ID":174032,"DIS_CODE":0,"TOWNNAME":"大內區","LI":"大內里","LIN":"10鄰","STREET":" ","SECT":" ","MAREA":"內庄","LANE":" ","ALLEY":" ","HOUSE_NO":"１１９號","E_COORD97":184728.67999999999,"N_COORD97":2557456.25,"ADDRESS":"內庄１１９號","OBJECTID":174031},"geometry":{"x":184728.68000000063,"y":2557456.2500000019}},{"attributes":{"ID":174033,"DIS_CODE":0,"TOWNNAME":"永康區","LI":"尚頂里","LIN":"10鄰","STREET":"正南一街","SECT":" ","MAREA":" ","LANE":" ","ALLEY":" ","HOUSE_NO":"１１１號","E_COORD97":170940.23000000001,"N_COORD97":2547218.9500000002,"ADDRESS":"正南一街１１１號","OBJECTID":174032},"geometry":{"x":170940.23000000138,"y":2547218.9500000011}},{"attributes":{"ID":174034,"DIS_CODE":0,"TOWNNAME":"歸仁區","LI":"大廟里","LIN":"4鄰","STREET":"和順路","SECT":"二段","MAREA":" ","LANE":"１５１巷","ALLEY":"３９弄","HOUSE_NO":"７號","E_COORD97":176201.54999999999,"N_COORD97":2543562.98,"ADDRESS":"和順路二段１５１巷３９弄７號","OBJECTID":174033},"geometry":{"x":176201.54999999981,"y":2543562.9800000004}},{"attributes":{"ID":174035,"DIS_CODE":0,"TOWNNAME":"歸仁區","LI":"七甲里","LIN":"18鄰","STREET":"南潭三街","SECT":" ","MAREA":" ","LANE":"１６２巷","ALLEY":"７弄","HOUSE_NO":"７號","E_COORD97":176463.78,"N_COORD97":2543152.0299999998,"ADDRESS":"南潭三街１６２巷７弄７號","OBJECTID":174034},"geometry":{"x":176463.77999999933,"y":2543152.0300000031}},{"attributes":{"ID":174036,"DIS_CODE":0,"TOWNNAME":"歸仁區","LI":"大廟里","LIN":"4鄰","STREET":"和順路","SECT":"二段","MAREA":" ","LANE":"１５１巷","ALLEY":"３９弄","HOUSE_NO":"１８號","E_COORD97":176201.60000000001,"N_COORD97":2543539.98,"ADDRESS":"和順路二段１５１巷３９弄１８號","OBJECTID":174035},"geometry":{"x":176201.60000000149,"y":2543539.9800000042}},{"attributes":{"ID":174037,"DIS_CODE":0,"TOWNNAME":"歸仁區","LI":"大廟里","LIN":"4鄰","STREET":"和順路","SECT":"二段","MAREA":" ","LANE":"１５１巷","ALLEY":"３９弄","HOUSE_NO":"３號","E_COORD97":176202.54999999999,"N_COORD97":2543554.98,"ADDRESS":"和順路二段１５１巷３９弄３號","OBJECTID":174036},"geometry":{"x":176202.55000000075,"y":2543554.9800000023}},{"attributes":{"ID":174038,"DIS_CODE":0,"TOWNNAME":"歸仁區","LI":"大廟里","LIN":"4鄰","STREET":"和順路","SECT":"二段","MAREA":" ","LANE":"１５１巷","ALLEY":"３９弄","HOUSE_NO":"３３號","E_COORD97":176214,"N_COORD97":2543544.98,"ADDRESS":"和順路二段１５１巷３９弄３３號","OBJECTID":174037},"geometry":{"x":176214,"y":2543544.9800000023}},{"attributes":{"ID":174039,"DIS_CODE":0,"TOWNNAME":"歸仁區","LI":"七甲里","LIN":"18鄰","STREET":"南潭三街","SECT":" ","MAREA":" ","LANE":"１６２巷","ALLEY":"１２弄","HOUSE_NO":"１４號","E_COORD97":176411.78,"N_COORD97":2543117.0299999998,"ADDRESS":"南潭三街１６２巷１２弄１４號","OBJECTID":174038},"geometry":{"x":176411.78000000119,"y":2543117.0299999993}},{"attributes":{"ID":174040,"DIS_CODE":0,"TOWNNAME":"歸仁區","LI":"七甲里","LIN":"18鄰","STREET":"南潭三街","SECT":" ","MAREA":" ","LANE":"１６２巷","ALLEY":"７弄","HOUSE_NO":"１８號","E_COORD97":176484.42999999999,"N_COORD97":2543143.0299999998,"ADDRESS":"南潭三街１６２巷７弄１８號","OBJECTID":174039},"geometry":{"x":176484.43000000063,"y":2543143.0300000012}},{"attributes":{"ID":174041,"DIS_CODE":0,"TOWNNAME":"歸仁區","LI":"大廟里","LIN":"17鄰","STREET":"大廟五街","SECT":" ","MAREA":" ","LANE":"１３１巷","ALLEY":"３１弄","HOUSE_NO":"２６號","E_COORD97":175963.85000000001,"N_COORD97":2544426.0899999999,"ADDRESS":"大廟五街１３１巷３１弄２６號","OBJECTID":174040},"geometry":{"x":175963.84999999963,"y":2544426.0899999999}},{"attributes":{"ID":174042,"DIS_CODE":0,"TOWNNAME":"歸仁區","LI":"大廟里","LIN":"18鄰","STREET":"保大路","SECT":"三段","MAREA":" ","LANE":"２９０巷","ALLEY":"３３弄","HOUSE_NO":"２４號","E_COORD97":175762.75,"N_COORD97":2544481.8599999999,"ADDRESS":"保大路三段２９０巷３３弄２４號","OBJECTID":174041},"geometry":{"x":175762.75000000093,"y":2544481.8599999994}},{"attributes":{"ID":174043,"DIS_CODE":0,"TOWNNAME":"歸仁區","LI":"大廟里","LIN":"20鄰","STREET":"大廟一街","SECT":" ","MAREA":" ","LANE":"２８巷","ALLEY":"５５弄","HOUSE_NO":"３３號","E_COORD97":175694.35000000001,"N_COORD97":2544159.1200000001,"ADDRESS":"大廟一街２８巷５５弄３３號","OBJECTID":174042},"geometry":{"x":175694.34999999963,"y":2544159.120000001}},{"attributes":{"ID":174044,"DIS_CODE":0,"TOWNNAME":"安南區","LI":"城南里","LIN":"10鄰","STREET":"城西街","SECT":"一段","MAREA":" ","LANE":" ","ALLEY":" ","HOUSE_NO":"２８７號","E_COORD97":160280.20000000001,"N_COORD97":2551128.8700000001,"ADDRESS":"城西街一段２８７號","OBJECTID":174043},"geometry":{"x":160280.20000000019,"y":2551128.8699999992}},{"attributes":{"ID":174045,"DIS_CODE":0,"TOWNNAME":"安南區","LI":"淵東里","LIN":"10鄰","STREET":"仁安路","SECT":" ","MAREA":" ","LANE":" ","ALLEY":" ","HOUSE_NO":"１６號","E_COORD97":165473.62,"N_COORD97":2549997.25,"ADDRESS":"仁安路１６號","OBJECTID":174044},"geometry":{"x":165473.62000000104,"y":2549997.2500000019}},{"attributes":{"ID":174046,"DIS_CODE":0,"TOWNNAME":"歸仁區","LI":"後市里","LIN":"39鄰","STREET":"文化街","SECT":"二段","MAREA":" ","LANE":"１２１巷","ALLEY":"７弄","HOUSE_NO":"３２號","E_COORD97":177251.29000000001,"N_COORD97":2541118.7599999998,"ADDRESS":"文化街二段１２１巷７弄３２號","OBJECTID":174045},"geometry":{"x":177251.29000000004,"y":2541118.7599999998}},{"attributes":{"ID":174047,"DIS_CODE":0,"TOWNNAME":"歸仁區","LI":"六甲里","LIN":"38鄰","STREET":"六甲八街","SECT":" ","MAREA":" ","LANE":"１４９巷","ALLEY":"５０弄","HOUSE_NO":"３８號","E_COORD97":175243.66202600001,"N_COORD97":2539835.9940999998,"ADDRESS":"六甲八街１４９巷５０弄３８號","OBJECTID":174046},"geometry":{"x":175243.66202600021,"y":2539835.9940990005}},{"attributes":{"ID":174048,"DIS_CODE":0,"TOWNNAME":"大內區","LI":"大內里","LIN":"10鄰","STREET":" ","SECT":" ","MAREA":"內庄","LANE":" ","ALLEY":" ","HOUSE_NO":"１１８號","E_COORD97":184741.17999999999,"N_COORD97":2557461.25,"ADDRESS":"內庄１１８號","OBJECTID":174047},"geometry":{"x":184741.1799999997,"y":2557461.25}},{"attributes":{"ID":174049,"DIS_CODE":0,"TOWNNAME":"大內區","LI":"內郭里","LIN":"10鄰","STREET":" ","SECT":" ","MAREA":"後堀","LANE":" ","ALLEY":" ","HOUSE_NO":"４０號之１","E_COORD97":186364.89000000001,"N_COORD97":2557173.3199999998,"ADDRESS":"後堀４０號之１","OBJECTID":174048},"geometry":{"x":186364.8900000006,"y":2557173.3200000003}},{"attributes":{"ID":174050,"DIS_CODE":0,"TOWNNAME":"歸仁區","LI":"七甲里","LIN":"18鄰","STREET":"南潭三街","SECT":" ","MAREA":" ","LANE":"１６２巷","ALLEY":"７弄","HOUSE_NO":"１７號","E_COORD97":176488.63,"N_COORD97":2543153.0299999998,"ADDRESS":"南潭三街１６２巷７弄１７號","OBJECTID":174049},"geometry":{"x":176488.63000000082,"y":2543153.0300000012}},{"attributes":{"ID":174051,"DIS_CODE":0,"TOWNNAME":"大內區","LI":"二溪里","LIN":"10鄰","STREET":" ","SECT":" ","MAREA":"其子瓦","LANE":" ","ALLEY":" ","HOUSE_NO":"７號之１","E_COORD97":190125.20000000001,"N_COORD97":2557409.2999999998,"ADDRESS":"其子瓦７號之１","OBJECTID":174050},"geometry":{"x":190125.20000000019,"y":2557409.3000000026}},{"attributes":{"ID":174052,"DIS_CODE":0,"TOWNNAME":"歸仁區","LI":"大廟里","LIN":"4鄰","STREET":"和順路","SECT":"二段","MAREA":" ","LANE":"１５１巷","ALLEY":"３９弄","HOUSE_NO":"９號","E_COORD97":176200.54999999999,"N_COORD97":2543567.98,"ADDRESS":"和順路二段１５１巷３９弄９號","OBJECTID":174051},"geometry":{"x":176200.55000000168,"y":2543567.9800000023}},{"attributes":{"ID":174053,"DIS_CODE":0,"TOWNNAME":"大內區","LI":"內江里","LIN":"10鄰","STREET":" ","SECT":" ","MAREA":"內庄","LANE":" ","ALLEY":" ","HOUSE_NO":"３２５號之６","E_COORD97":184736.62,"N_COORD97":2556828.2999999998,"ADDRESS":"內庄３２５號之６","OBJECTID":174052},"geometry":{"x":184736.62000000011,"y":2556828.2999999989}},{"attributes":{"ID":174054,"DIS_CODE":0,"TOWNNAME":"大內區","LI":"內江里","LIN":"10鄰","STREET":" ","SECT":" ","MAREA":"內庄","LANE":" ","ALLEY":" ","HOUSE_NO":"３２５號之２","E_COORD97":184749.35000000001,"N_COORD97":2556866.2999999998,"ADDRESS":"內庄３２５號之２","OBJECTID":174053},"geometry":{"x":184749.35000000056,"y":2556866.3000000026}},{"attributes":{"ID":174055,"DIS_CODE":0,"TOWNNAME":"大內區","LI":"內江里","LIN":"10鄰","STREET":" ","SECT":" ","MAREA":"內庄","LANE":" ","ALLEY":" ","HOUSE_NO":"３１９號之３","E_COORD97":184895.20999999999,"N_COORD97":2556988.2999999998,"ADDRESS":"內庄３１９號之３","OBJECTID":174054},"geometry":{"x":184895.20999999996,"y":2556988.3000000026}},{"attributes":{"ID":174056,"DIS_CODE":0,"TOWNNAME":"歸仁區","LI":"大廟里","LIN":"4鄰","STREET":"和順路","SECT":"二段","MAREA":" ","LANE":"１５１巷","ALLEY":"３９弄","HOUSE_NO":"１６號","E_COORD97":176197.5,"N_COORD97":2543538.98,"ADDRESS":"和順路二段１５１巷３９弄１６號","OBJECTID":174055},"geometry":{"x":176197.5,"y":2543538.9800000004}},{"attributes":{"ID":174057,"DIS_CODE":0,"TOWNNAME":"歸仁區","LI":"大廟里","LIN":"5鄰","STREET":"和順路","SECT":"二段","MAREA":" ","LANE":"１５１巷","ALLEY":"２２弄","HOUSE_NO":"３號","E_COORD97":176139.85000000001,"N_COORD97":2543524.98,"ADDRESS":"和順路二段１５１巷２２弄３號","OBJECTID":174056},"geometry":{"x":176139.84999999963,"y":2543524.9800000004}},{"attributes":{"ID":174058,"DIS_CODE":0,"TOWNNAME":"歸仁區","LI":"七甲里","LIN":"18鄰","STREET":"南潭三街","SECT":" ","MAREA":" ","LANE":"１６２巷","ALLEY":"７弄","HOUSE_NO":"１１號","E_COORD97":176474.23000000001,"N_COORD97":2543153.0299999998,"ADDRESS":"南潭三街１６２巷７弄１１號","OBJECTID":174057},"geometry":{"x":176474.23000000045,"y":2543153.0300000012}},{"attributes":{"ID":174059,"DIS_CODE":0,"TOWNNAME":"歸仁區","LI":"西埔里","LIN":"4鄰","STREET":"保大路","SECT":"二段","MAREA":" ","LANE":"１２２巷","ALLEY":"２３弄","HOUSE_NO":"３號","E_COORD97":177021.67999999999,"N_COORD97":2544205.25,"ADDRESS":"保大路二段１２２巷２３弄３號","OBJECTID":174058},"geometry":{"x":177021.68000000156,"y":2544205.25}},{"attributes":{"ID":174060,"DIS_CODE":0,"TOWNNAME":"歸仁區","LI":"後市里","LIN":"39鄰","STREET":"文化街","SECT":"二段","MAREA":" ","LANE":"１２１巷","ALLEY":"７弄","HOUSE_NO":"２３號","E_COORD97":177239.09,"N_COORD97":2541144.7599999998,"ADDRESS":"文化街二段１２１巷７弄２３號","OBJECTID":174059},"geometry":{"x":177239.08999999985,"y":2541144.7600000016}},{"attributes":{"ID":174061,"DIS_CODE":0,"TOWNNAME":"歸仁區","LI":"七甲里","LIN":"18鄰","STREET":"南潭三街","SECT":" ","MAREA":" ","LANE":"１６２巷","ALLEY":"１２弄","HOUSE_NO":"１２號","E_COORD97":176416.88,"N_COORD97":2543117.0299999998,"ADDRESS":"南潭三街１６２巷１２弄１２號","OBJECTID":174060},"geometry":{"x":176416.87999999989,"y":2543117.0299999993}},{"attributes":{"ID":174062,"DIS_CODE":0,"TOWNNAME":"歸仁區","LI":"後市里","LIN":"46鄰","STREET":"文化街","SECT":"二段","MAREA":" ","LANE":"１２１巷","ALLEY":"７弄","HOUSE_NO":"１６號","E_COORD97":177213.39000000001,"N_COORD97":2541126.7599999998,"ADDRESS":"文化街二段１２１巷７弄１６號","OBJECTID":174061},"geometry":{"x":177213.39000000153,"y":2541126.7600000035}},{"attributes":{"ID":174063,"DIS_CODE":0,"TOWNNAME":"歸仁區","LI":"七甲里","LIN":"17鄰","STREET":"南潭三街","SECT":" ","MAREA":" ","LANE":"１６２巷","ALLEY":"１１弄","HOUSE_NO":"６號","E_COORD97":176454.53,"N_COORD97":2543107.0299999998,"ADDRESS":"南潭三街１６２巷１１弄６號","OBJECTID":174062},"geometry":{"x":176454.53000000119,"y":2543107.0299999993}},{"attributes":{"ID":174064,"DIS_CODE":0,"TOWNNAME":"歸仁區","LI":"西埔里","LIN":"5鄰","STREET":"保大路","SECT":"二段","MAREA":" ","LANE":"１２２巷","ALLEY":"２３弄","HOUSE_NO":"４號","E_COORD97":177016.57999999999,"N_COORD97":2544226.25,"ADDRESS":"保大路二段１２２巷２３弄４號","OBJECTID":174063},"geometry":{"x":177016.58000000101,"y":2544226.2500000019}},{"attributes":{"ID":174065,"DIS_CODE":0,"TOWNNAME":"大內區","LI":"石湖里","LIN":"10鄰","STREET":" ","SECT":" ","MAREA":"石子瀨","LANE":" ","ALLEY":" ","HOUSE_NO":"３２８號之３","E_COORD97":183791,"N_COORD97":2558300.2999999998,"ADDRESS":"石子瀨３２８號之３","OBJECTID":174064},"geometry":{"x":183791.00000000093,"y":2558300.3000000026}},{"attributes":{"ID":174066,"DIS_CODE":0,"TOWNNAME":"大內區","LI":"二溪里","LIN":"10鄰","STREET":" ","SECT":" ","MAREA":"其子瓦","LANE":" ","ALLEY":" ","HOUSE_NO":"６號","E_COORD97":190080.76999999999,"N_COORD97":2557375.25,"ADDRESS":"其子瓦６號","OBJECTID":174065},"geometry":{"x":190080.77000000142,"y":2557375.2500000019}},{"attributes":{"ID":174067,"DIS_CODE":0,"TOWNNAME":"大內區","LI":"內江里","LIN":"10鄰","STREET":" ","SECT":" ","MAREA":"內庄","LANE":" ","ALLEY":" ","HOUSE_NO":"３１４號之２","E_COORD97":184662.64999999999,"N_COORD97":2557200.2999999998,"ADDRESS":"內庄３１４號之２","OBJECTID":174066},"geometry":{"x":184662.65000000037,"y":2557200.3000000007}},{"attributes":{"ID":174068,"DIS_CODE":0,"TOWNNAME":"大內區","LI":"內郭里","LIN":"10鄰","STREET":" ","SECT":" ","MAREA":"後堀","LANE":" ","ALLEY":" ","HOUSE_NO":"７２號之２","E_COORD97":185887.32999999999,"N_COORD97":2558417.3199999998,"ADDRESS":"後堀７２號之２","OBJECTID":174067},"geometry":{"x":185887.33000000101,"y":2558417.3200000003}},{"attributes":{"ID":174069,"DIS_CODE":0,"TOWNNAME":"歸仁區","LI":"後市里","LIN":"46鄰","STREET":"文化街","SECT":"二段","MAREA":" ","LANE":"１２１巷","ALLEY":"７弄","HOUSE_NO":"１４號","E_COORD97":177208.19,"N_COORD97":2541127.7599999998,"ADDRESS":"文化街二段１２１巷７弄１４號","OBJECTID":174068},"geometry":{"x":177208.19000000041,"y":2541127.7600000016}},{"attributes":{"ID":174070,"DIS_CODE":0,"TOWNNAME":"歸仁區","LI":"六甲里","LIN":"38鄰","STREET":"六甲八街","SECT":" ","MAREA":" ","LANE":"１４９巷","ALLEY":"５０弄","HOUSE_NO":"１７號","E_COORD97":175248.21725099999,"N_COORD97":2539789.2157200002,"ADDRESS":"六甲八街１４９巷５０弄１７號","OBJECTID":174069},"geometry":{"x":175248.21725099999,"y":2539789.2157160025}},{"attributes":{"ID":174071,"DIS_CODE":0,"TOWNNAME":"歸仁區","LI":"七甲里","LIN":"4鄰","STREET":"中正北路","SECT":"二段","MAREA":" ","LANE":"５１６巷","ALLEY":"５２弄","HOUSE_NO":"６號","E_COORD97":177531.07000000001,"N_COORD97":2543193.2599999998,"ADDRESS":"中正北路二段５１６巷５２弄６號","OBJECTID":174070},"geometry":{"x":177531.0700000003,"y":2543193.2600000016}},{"attributes":{"ID":174072,"DIS_CODE":0,"TOWNNAME":"中西區","LI":"文賢里","LIN":"10鄰","STREET":"文和街","SECT":" ","MAREA":" ","LANE":" ","ALLEY":" ","HOUSE_NO":"１８２號","E_COORD97":166946.28,"N_COORD97":2544694.4500000002,"ADDRESS":"文和街１８２號","OBJECTID":174071},"geometry":{"x":166946.28000000026,"y":2544694.4499999993}},{"attributes":{"ID":174073,"DIS_CODE":0,"TOWNNAME":"歸仁區","LI":"大廟里","LIN":"4鄰","STREET":"和順路","SECT":"二段","MAREA":" ","LANE":"１５１巷","ALLEY":"３９弄","HOUSE_NO":"１號","E_COORD97":176202.54999999999,"N_COORD97":2543550.98,"ADDRESS":"和順路二段１５１巷３９弄１號","OBJECTID":174072},"geometry":{"x":176202.55000000075,"y":2543550.9800000023}},{"attributes":{"ID":174074,"DIS_CODE":0,"TOWNNAME":"歸仁區","LI":"七甲里","LIN":"18鄰","STREET":"南潭三街","SECT":" ","MAREA":" ","LANE":"１６２巷","ALLEY":"７弄","HOUSE_NO":"１２號","E_COORD97":176469.13,"N_COORD97":2543143.0299999998,"ADDRESS":"南潭三街１６２巷７弄１２號","OBJECTID":174073},"geometry":{"x":176469.12999999989,"y":2543143.0300000012}},{"attributes":{"ID":174075,"DIS_CODE":0,"TOWNNAME":"歸仁區","LI":"武東里","LIN":"7鄰","STREET":"武東一街","SECT":" ","MAREA":" ","LANE":"４８巷","ALLEY":"１９弄","HOUSE_NO":"２號","E_COORD97":175620.79000000001,"N_COORD97":2535379.25,"ADDRESS":"武東一街４８巷１９弄２號","OBJECTID":174074},"geometry":{"x":175620.79000000004,"y":2535379.25}},{"attributes":{"ID":174076,"DIS_CODE":0,"TOWNNAME":"北區","LI":"勝安里","LIN":"8鄰","STREET":"開元路","SECT":" ","MAREA":" ","LANE":"７３巷","ALLEY":"４１弄","HOUSE_NO":"２之１１號","E_COORD97":169856.64000000001,"N_COORD97":2545451.3199999998,"ADDRESS":"開元路７３巷４１弄２之１１號","OBJECTID":174075},"geometry":{"x":169856.6400000006,"y":2545451.3200000022}},{"attributes":{"ID":174077,"DIS_CODE":0,"TOWNNAME":"北區","LI":"勝安里","LIN":"8鄰","STREET":"開元路","SECT":" ","MAREA":" ","LANE":"７３巷","ALLEY":"４１弄","HOUSE_NO":"２之９號","E_COORD97":169857.26999999999,"N_COORD97":2545444.7000000002,"ADDRESS":"開元路７３巷４１弄２之９號","OBJECTID":174076},"geometry":{"x":169857.27000000048,"y":2545444.6999999993}},{"attributes":{"ID":174078,"DIS_CODE":0,"TOWNNAME":"北區","LI":"勝安里","LIN":"8鄰","STREET":"開元路","SECT":" ","MAREA":" ","LANE":"７３巷","ALLEY":"４１弄","HOUSE_NO":"２號","E_COORD97":169861.06,"N_COORD97":2545413.96,"ADDRESS":"開元路７３巷４１弄２號","OBJECTID":174077},"geometry":{"x":169861.05999999959,"y":2545413.9600000009}},{"attributes":{"ID":174079,"DIS_CODE":0,"TOWNNAME":"北區","LI":"勝安里","LIN":"8鄰","STREET":"開元路","SECT":" ","MAREA":" ","LANE":"７３巷","ALLEY":"４１弄","HOUSE_NO":"２號之１","E_COORD97":169860.26999999999,"N_COORD97":2545417.4300000002,"ADDRESS":"開元路７３巷４１弄２號之１","OBJECTID":174078},"geometry":{"x":169860.26999999955,"y":2545417.4299999997}},{"attributes":{"ID":174080,"DIS_CODE":0,"TOWNNAME":"北區","LI":"勝安里","LIN":"8鄰","STREET":"開元路","SECT":" ","MAREA":" ","LANE":"７３巷","ALLEY":"４１弄","HOUSE_NO":"２號之１３","E_COORD97":169855.69,"N_COORD97":2545457.46,"ADDRESS":"開元路７３巷４１弄２號之１３","OBJECTID":174079},"geometry":{"x":169855.69000000134,"y":2545457.4600000028}},{"attributes":{"ID":174081,"DIS_CODE":0,"TOWNNAME":"北區","LI":"勝安里","LIN":"8鄰","STREET":"開元路","SECT":" ","MAREA":" ","LANE":"７３巷","ALLEY":"４１弄","HOUSE_NO":"２號之２","E_COORD97":169859.64000000001,"N_COORD97":2545421.3700000001,"ADDRESS":"開元路７３巷４１弄２號之２","OBJECTID":174080},"geometry":{"x":169859.63999999873,"y":2545421.3700000029}},{"attributes":{"ID":174082,"DIS_CODE":0,"TOWNNAME":"北區","LI":"勝安里","LIN":"8鄰","STREET":"開元路","SECT":" ","MAREA":" ","LANE":"７３巷","ALLEY":"４１弄","HOUSE_NO":"２號之３","E_COORD97":169859.16,"N_COORD97":2545425,"ADDRESS":"開元路７３巷４１弄２號之３","OBJECTID":174081},"geometry":{"x":169859.16000000108,"y":2545425.0000000019}},{"attributes":{"ID":174083,"DIS_CODE":0,"TOWNNAME":"北區","LI":"勝安里","LIN":"8鄰","STREET":"開元路","SECT":" ","MAREA":" ","LANE":"７３巷","ALLEY":"４１弄","HOUSE_NO":"２號之４","E_COORD97":169858.69,"N_COORD97":2545429.0899999999,"ADDRESS":"開元路７３巷４１弄２號之４","OBJECTID":174082},"geometry":{"x":169858.69000000134,"y":2545429.0899999999}},{"attributes":{"ID":174084,"DIS_CODE":0,"TOWNNAME":"北區","LI":"勝安里","LIN":"8鄰","STREET":"開元路","SECT":" ","MAREA":" ","LANE":"７３巷","ALLEY":"４１弄","HOUSE_NO":"２號之５","E_COORD97":169858.53,"N_COORD97":2545433.0299999998,"ADDRESS":"開元路７３巷４１弄２號之５","OBJECTID":174083},"geometry":{"x":169858.53000000119,"y":2545433.0299999993}},{"attributes":{"ID":174085,"DIS_CODE":0,"TOWNNAME":"北區","LI":"勝安里","LIN":"8鄰","STREET":"開元路","SECT":" ","MAREA":" ","LANE":"７３巷","ALLEY":"４１弄","HOUSE_NO":"２號之７","E_COORD97":169857.73999999999,"N_COORD97":2545438.71,"ADDRESS":"開元路７３巷４１弄２號之７","OBJECTID":174084},"geometry":{"x":169857.74000000022,"y":2545438.7100000028}},{"attributes":{"ID":174086,"DIS_CODE":0,"TOWNNAME":"北區","LI":"勝安里","LIN":"8鄰","STREET":"開元路","SECT":" ","MAREA":" ","LANE":"７３巷","ALLEY":"４１弄","HOUSE_NO":"４號","E_COORD97":169846.38,"N_COORD97":2545423.8900000001,"ADDRESS":"開元路７３巷４１弄４號","OBJECTID":174085},"geometry":{"x":169846.37999999896,"y":2545423.8900000025}},{"attributes":{"ID":174087,"DIS_CODE":0,"TOWNNAME":"北區","LI":"勝安里","LIN":"8鄰","STREET":"開元路","SECT":" ","MAREA":" ","LANE":"７３巷","ALLEY":"４１弄","HOUSE_NO":"４號之１","E_COORD97":169846.23000000001,"N_COORD97":2545427.8300000001,"ADDRESS":"開元路７３巷４１弄４號之１","OBJECTID":174086},"geometry":{"x":169846.23000000045,"y":2545427.8300000001}},{"attributes":{"ID":174088,"DIS_CODE":0,"TOWNNAME":"北區","LI":"勝安里","LIN":"10鄰","STREET":"開元路","SECT":" ","MAREA":" ","LANE":"２４９巷","ALLEY":"３５弄","HOUSE_NO":"１０號","E_COORD97":169821.29999999999,"N_COORD97":2545539.6499999999,"ADDRESS":"開元路２４９巷３５弄１０號","OBJECTID":174087},"geometry":{"x":169821.29999999981,"y":2545539.6500000022}},{"attributes":{"ID":174089,"DIS_CODE":0,"TOWNNAME":"北區","LI":"勝安里","LIN":"10鄰","STREET":"開元路","SECT":" ","MAREA":" ","LANE":"２４９巷","ALLEY":"３５弄","HOUSE_NO":"１１號","E_COORD97":169822.88,"N_COORD97":2545525.2200000002,"ADDRESS":"開元路２４９巷３５弄１１號","OBJECTID":174088},"geometry":{"x":169822.88000000082,"y":2545525.2199999988}},{"attributes":{"ID":174090,"DIS_CODE":0,"TOWNNAME":"西港區","LI":"慶安里","LIN":"32鄰","STREET":"新興街","SECT":" ","MAREA":" ","LANE":" ","ALLEY":" ","HOUSE_NO":"８號之１８４","E_COORD97":168350.82000000001,"N_COORD97":2557611.77,"ADDRESS":"新興街８號之１８４","OBJECTID":174089},"geometry":{"x":168350.82000000123,"y":2557611.7700000014}},{"attributes":{"ID":174091,"DIS_CODE":0,"TOWNNAME":"西港區","LI":"慶安里","LIN":"34鄰","STREET":"新興街","SECT":" ","MAREA":" ","LANE":" ","ALLEY":" ","HOUSE_NO":"８號之１６","E_COORD97":168335.22,"N_COORD97":2557295.1099999999,"ADDRESS":"新興街８號之１６","OBJECTID":174090},"geometry":{"x":168335.2200000016,"y":2557295.1099999994}},{"attributes":{"ID":174092,"DIS_CODE":0,"TOWNNAME":"西港區","LI":"慶安里","LIN":"34鄰","STREET":"新興街","SECT":" ","MAREA":" ","LANE":" ","ALLEY":" ","HOUSE_NO":"８號之１７","E_COORD97":168333.97,"N_COORD97":2557299.52,"ADDRESS":"新興街８號之１７","OBJECTID":174091},"geometry":{"x":168333.97000000067,"y":2557299.5199999996}},{"attributes":{"ID":174093,"DIS_CODE":0,"TOWNNAME":"東區","LI":"德高里","LIN":"14鄰","STREET":"仁和路","SECT":" ","MAREA":" ","LANE":" ","ALLEY":" ","HOUSE_NO":"１９５號","E_COORD97":171641.85000000001,"N_COORD97":2540852.4300000002,"ADDRESS":"仁和路１９５號","OBJECTID":174092},"geometry":{"x":171641.85000000056,"y":2540852.4300000016}},{"attributes":{"ID":174094,"DIS_CODE":0,"TOWNNAME":"東區","LI":"崇信里","LIN":"4鄰","STREET":"東門路","SECT":"二段","MAREA":" ","LANE":" ","ALLEY":" ","HOUSE_NO":"３９２號","E_COORD97":170821.84,"N_COORD97":2542516.1299999999,"ADDRESS":"東門路二段３９２號","OBJECTID":174093},"geometry":{"x":170821.84000000078,"y":2542516.129999999}},{"attributes":{"ID":174095,"DIS_CODE":0,"TOWNNAME":"東區","LI":"新東里","LIN":"4鄰","STREET":"林森路","SECT":"二段","MAREA":" ","LANE":" ","ALLEY":" ","HOUSE_NO":"３４之６號","E_COORD97":170378.57999999999,"N_COORD97":2542977.8900000001,"ADDRESS":"林森路二段３４之６號","OBJECTID":174094},"geometry":{"x":170378.58000000007,"y":2542977.8900000043}},{"attributes":{"ID":174096,"DIS_CODE":0,"TOWNNAME":"東區","LI":"中西里","LIN":"5鄰","STREET":"長榮路","SECT":"二段","MAREA":" ","LANE":" ","ALLEY":" ","HOUSE_NO":"２９號","E_COORD97":169986.92999999999,"N_COORD97":2543323.8100000001,"ADDRESS":"長榮路二段２９號","OBJECTID":174095},"geometry":{"x":169986.93000000063,"y":2543323.8100000005}},{"attributes":{"ID":174097,"DIS_CODE":0,"TOWNNAME":"東區","LI":"崇誨里","LIN":"34鄰","STREET":"東寧路","SECT":" ","MAREA":" ","LANE":" ","ALLEY":" ","HOUSE_NO":"２２６號之３","E_COORD97":170540.10000000001,"N_COORD97":2543454.3399999999,"ADDRESS":"東寧路２２６號之３","OBJECTID":174096},"geometry":{"x":170540.10000000056,"y":2543454.3399999999}},{"attributes":{"ID":174098,"DIS_CODE":0,"TOWNNAME":"東區","LI":"龍山里","LIN":"8鄰","STREET":"長榮路","SECT":"一段","MAREA":" ","LANE":" ","ALLEY":" ","HOUSE_NO":"１７６號","E_COORD97":169843.54000000001,"N_COORD97":2542763.8300000001,"ADDRESS":"長榮路一段１７６號","OBJECTID":174097},"geometry":{"x":169843.54000000004,"y":2542763.8300000001}},{"attributes":{"ID":174099,"DIS_CODE":0,"TOWNNAME":"東區","LI":"龍山里","LIN":"8鄰","STREET":"長榮路","SECT":"一段","MAREA":" ","LANE":" ","ALLEY":" ","HOUSE_NO":"１８２號","E_COORD97":169849.03,"N_COORD97":2542787.23,"ADDRESS":"長榮路一段１８２號","OBJECTID":174098},"geometry":{"x":169849.03000000026,"y":2542787.2300000023}},{"attributes":{"ID":174100,"DIS_CODE":0,"TOWNNAME":"東區","LI":"崇成里","LIN":"18鄰","STREET":"崇德路","SECT":" ","MAREA":" ","LANE":" ","ALLEY":" ","HOUSE_NO":"６４６號","E_COORD97":170775.35000000001,"N_COORD97":2541153.0800000001,"ADDRESS":"崇德路６４６號","OBJECTID":174099},"geometry":{"x":170775.35000000149,"y":2541153.0800000019}},{"attributes":{"ID":174101,"DIS_CODE":0,"TOWNNAME":"東區","LI":"崇德里","LIN":"8鄰","STREET":"崇德七街","SECT":" ","MAREA":" ","LANE":" ","ALLEY":" ","HOUSE_NO":"１２號","E_COORD97":170777.54999999999,"N_COORD97":2541710.8199999998,"ADDRESS":"崇德七街１２號","OBJECTID":174100},"geometry":{"x":170777.55000000168,"y":2541710.8200000022}},{"attributes":{"ID":174102,"DIS_CODE":0,"TOWNNAME":"東區","LI":"崇德里","LIN":"8鄰","STREET":"崇德七街","SECT":" ","MAREA":" ","LANE":" ","ALLEY":" ","HOUSE_NO":"１６號","E_COORD97":170789.67000000001,"N_COORD97":2541724.8999999999,"ADDRESS":"崇德七街１６號","OBJECTID":174101},"geometry":{"x":170789.66999999993,"y":2541724.9000000022}},{"attributes":{"ID":174103,"DIS_CODE":0,"TOWNNAME":"東區","LI":"崇德里","LIN":"7鄰","STREET":"崇德七街","SECT":" ","MAREA":" ","LANE":" ","ALLEY":" ","HOUSE_NO":"１５號","E_COORD97":170762.16,"N_COORD97":2541719.3300000001,"ADDRESS":"崇德七街１５號","OBJECTID":174102},"geometry":{"x":170762.16000000108,"y":2541719.3300000001}},{"attributes":{"ID":174104,"DIS_CODE":0,"TOWNNAME":"東區","LI":"崇德里","LIN":"7鄰","STREET":"崇德七街","SECT":" ","MAREA":" ","LANE":" ","ALLEY":" ","HOUSE_NO":"１７號","E_COORD97":170764.78,"N_COORD97":2541722.2799999998,"ADDRESS":"崇德七街１７號","OBJECTID":174103},"geometry":{"x":170764.78000000119,"y":2541722.2799999993}},{"attributes":{"ID":174105,"DIS_CODE":0,"TOWNNAME":"西港區","LI":"慶安里","LIN":"31鄰","STREET":"新興街","SECT":" ","MAREA":" ","LANE":" ","ALLEY":" ","HOUSE_NO":"８號之１６０","E_COORD97":168252.73999999999,"N_COORD97":2557686.1800000002,"ADDRESS":"新興街８號之１６０","OBJECTID":174104},"geometry":{"x":168252.74000000115,"y":2557686.1800000034}},{"attributes":{"ID":174106,"DIS_CODE":0,"TOWNNAME":"北區","LI":"勝安里","LIN":"10鄰","STREET":"開元路","SECT":" ","MAREA":" ","LANE":"２４９巷","ALLEY":"３５弄","HOUSE_NO":"１２號","E_COORD97":169816.41,"N_COORD97":2545540.4300000002,"ADDRESS":"開元路２４９巷３５弄１２號","OBJECTID":174105},"geometry":{"x":169816.41000000108,"y":2545540.4300000016}},{"attributes":{"ID":174107,"DIS_CODE":0,"TOWNNAME":"北區","LI":"勝安里","LIN":"10鄰","STREET":"開元路","SECT":" ","MAREA":" ","LANE":"２４９巷","ALLEY":"３５弄","HOUSE_NO":"１３號","E_COORD97":169817.98000000001,"N_COORD97":2545526.7999999998,"ADDRESS":"開元路２４９巷３５弄１３號","OBJECTID":174106},"geometry":{"x":169817.98000000138,"y":2545526.8000000007}},{"attributes":{"ID":174108,"DIS_CODE":0,"TOWNNAME":"北區","LI":"勝安里","LIN":"10鄰","STREET":"開元路","SECT":" ","MAREA":" ","LANE":"２４９巷","ALLEY":"３５弄","HOUSE_NO":"１４號","E_COORD97":169811.98999999999,"N_COORD97":2545541.0600000001,"ADDRESS":"開元路２４９巷３５弄１４號","OBJECTID":174107},"geometry":{"x":169811.99000000022,"y":2545541.0600000024}},{"attributes":{"ID":174109,"DIS_CODE":0,"TOWNNAME":"北區","LI":"勝安里","LIN":"10鄰","STREET":"開元路","SECT":" ","MAREA":" ","LANE":"２４９巷","ALLEY":"３５弄","HOUSE_NO":"１５號","E_COORD97":169813.41,"N_COORD97":2545526.0099999998,"ADDRESS":"開元路２４９巷３５弄１５號","OBJECTID":174108},"geometry":{"x":169813.41000000108,"y":2545526.0100000035}},{"attributes":{"ID":174110,"DIS_CODE":0,"TOWNNAME":"北區","LI":"勝安里","LIN":"10鄰","STREET":"開元路","SECT":" ","MAREA":" ","LANE":"２４９巷","ALLEY":"３５弄","HOUSE_NO":"１６號","E_COORD97":169806.94,"N_COORD97":2545542.0099999998,"ADDRESS":"開元路２４９巷３５弄１６號","OBJECTID":174109},"geometry":{"x":169806.94000000041,"y":2545542.0099999998}},{"attributes":{"ID":174111,"DIS_CODE":0,"TOWNNAME":"北區","LI":"勝安里","LIN":"10鄰","STREET":"開元路","SECT":" ","MAREA":" ","LANE":"２４９巷","ALLEY":"３５弄","HOUSE_NO":"１７號","E_COORD97":169808.98999999999,"N_COORD97":2545525.0699999998,"ADDRESS":"開元路２４９巷３５弄１７號","OBJECTID":174110},"geometry":{"x":169808.99000000115,"y":2545525.0700000003}},{"attributes":{"ID":174112,"DIS_CODE":0,"TOWNNAME":"西港區","LI":"慶安里","LIN":"32鄰","STREET":"新興街","SECT":" ","MAREA":" ","LANE":" ","ALLEY":" ","HOUSE_NO":"８號之１８２","E_COORD97":168358.38,"N_COORD97":2557586.46,"ADDRESS":"新興街８號之１８２","OBJECTID":174111},"geometry":{"x":168358.38000000082,"y":2557586.4600000009}},{"attributes":{"ID":174113,"DIS_CODE":0,"TOWNNAME":"永康區","LI":"中華里","LIN":"10鄰","STREET":"小東路","SECT":" ","MAREA":" ","LANE":" ","ALLEY":" ","HOUSE_NO":"６２５號","E_COORD97":171880.59,"N_COORD97":2544342.0699999998,"ADDRESS":"小東路６２５號","OBJECTID":174112},"geometry":{"x":171880.58999999985,"y":2544342.0700000003}},{"attributes":{"ID":174114,"DIS_CODE":0,"TOWNNAME":"東區","LI":"崇德里","LIN":"7鄰","STREET":"崇德七街","SECT":" ","MAREA":" ","LANE":" ","ALLEY":" ","HOUSE_NO":"１９號","E_COORD97":170768.38,"N_COORD97":2541725.5600000001,"ADDRESS":"崇德七街１９號","OBJECTID":174113},"geometry":{"x":170768.37999999989,"y":2541725.5599999987}},{"attributes":{"ID":174115,"DIS_CODE":0,"TOWNNAME":"北區","LI":"勝安里","LIN":"10鄰","STREET":"開元路","SECT":" ","MAREA":" ","LANE":"２４９巷","ALLEY":"３５弄","HOUSE_NO":"１８號","E_COORD97":169802.51999999999,"N_COORD97":2545540.2799999998,"ADDRESS":"開元路２４９巷３５弄１８號","OBJECTID":174114},"geometry":{"x":169802.51999999955,"y":2545540.2799999975}},{"attributes":{"ID":174116,"DIS_CODE":0,"TOWNNAME":"東區","LI":"崇文里","LIN":"15鄰","STREET":"崇德路","SECT":" ","MAREA":" ","LANE":" ","ALLEY":" ","HOUSE_NO":"７４１號","E_COORD97":170806.35999999999,"N_COORD97":2540945.2400000002,"ADDRESS":"崇德路７４１號","OBJECTID":174115},"geometry":{"x":170806.36000000034,"y":2540945.2400000021}},{"attributes":{"ID":174117,"DIS_CODE":0,"TOWNNAME":"北區","LI":"文元里","LIN":"8鄰","STREET":"中華北路","SECT":"二段","MAREA":" ","LANE":"５３巷","ALLEY":"２０弄","HOUSE_NO":"８號","E_COORD97":167565.60000000001,"N_COORD97":2546510.3199999998,"ADDRESS":"中華北路二段５３巷２０弄８號","OBJECTID":174116},"geometry":{"x":167565.59999999963,"y":2546510.3200000003}},{"attributes":{"ID":174118,"DIS_CODE":0,"TOWNNAME":"六甲區","LI":"甲東里","LIN":"25鄰","STREET":"裕農街","SECT":" ","MAREA":" ","LANE":"２巷","ALLEY":"２１弄","HOUSE_NO":"４號之１","E_COORD97":183941.62,"N_COORD97":2569515.6099999999,"ADDRESS":"裕農街２巷２１弄４號之１","OBJECTID":174117},"geometry":{"x":183941.62000000011,"y":2569515.6100000013}},{"attributes":{"ID":174119,"DIS_CODE":0,"TOWNNAME":"六甲區","LI":"甲東里","LIN":"21鄰","STREET":"裕農街","SECT":" ","MAREA":" ","LANE":"４９巷","ALLEY":"１４弄","HOUSE_NO":"１１號","E_COORD97":184190.79999999999,"N_COORD97":2569824.5,"ADDRESS":"裕農街４９巷１４弄１１號","OBJECTID":174118},"geometry":{"x":184190.79999999981,"y":2569824.5}},{"attributes":{"ID":174120,"DIS_CODE":0,"TOWNNAME":"六甲區","LI":"甲東里","LIN":"21鄰","STREET":"裕農街","SECT":" ","MAREA":" ","LANE":"４９巷","ALLEY":"１４弄","HOUSE_NO":"１３號","E_COORD97":184196.75,"N_COORD97":2569825.23,"ADDRESS":"裕農街４９巷１４弄１３號","OBJECTID":174119},"geometry":{"x":184196.75,"y":2569825.2300000023}},{"attributes":{"ID":174121,"DIS_CODE":0,"TOWNNAME":"東區","LI":"崇文里","LIN":"15鄰","STREET":"崇德路","SECT":" ","MAREA":" ","LANE":" ","ALLEY":" ","HOUSE_NO":"７４１之１號","E_COORD97":170806.69,"N_COORD97":2540941.4700000002,"ADDRESS":"崇德路７４１之１號","OBJECTID":174120},"geometry":{"x":170806.69000000134,"y":2540941.4700000025}},{"attributes":{"ID":174122,"DIS_CODE":0,"TOWNNAME":"六甲區","LI":"甲東里","LIN":"21鄰","STREET":"裕農街","SECT":" ","MAREA":" ","LANE":"４９巷","ALLEY":"１４弄","HOUSE_NO":"５號","E_COORD97":184172.615555,"N_COORD97":2569819.3897199999,"ADDRESS":"裕農街４９巷１４弄５號","OBJECTID":174121},"geometry":{"x":184172.61555499956,"y":2569819.3897220008}},{"attributes":{"ID":174123,"DIS_CODE":0,"TOWNNAME":"六甲區","LI":"甲東里","LIN":"21鄰","STREET":"裕農街","SECT":" ","MAREA":" ","LANE":"４９巷","ALLEY":"１４弄","HOUSE_NO":"９號","E_COORD97":184182.51000000001,"N_COORD97":2569823.5499999998,"ADDRESS":"裕農街４９巷１４弄９號","OBJECTID":174122},"geometry":{"x":184182.51000000071,"y":2569823.5500000026}},{"attributes":{"ID":174124,"DIS_CODE":0,"TOWNNAME":"關廟區","LI":"山西里","LIN":"20鄰","STREET":"崇平路","SECT":" ","MAREA":" ","LANE":"１０７巷","ALLEY":"３弄","HOUSE_NO":"１３號","E_COORD97":180733.92000000001,"N_COORD97":2540351.46,"ADDRESS":"崇平路１０７巷３弄１３號","OBJECTID":174123},"geometry":{"x":180733.91999999993,"y":2540351.4600000028}},{"attributes":{"ID":174125,"DIS_CODE":0,"TOWNNAME":"關廟區","LI":"北勢里","LIN":"18鄰","STREET":"成功路","SECT":" ","MAREA":" ","LANE":"３５３巷","ALLEY":"２弄","HOUSE_NO":"１５號","E_COORD97":181228.12,"N_COORD97":2540475.27,"ADDRESS":"成功路３５３巷２弄１５號","OBJECTID":174124},"geometry":{"x":181228.12000000011,"y":2540475.2699999996}},{"attributes":{"ID":174126,"DIS_CODE":0,"TOWNNAME":"關廟區","LI":"北花里","LIN":"20鄰","STREET":"中正路","SECT":" ","MAREA":" ","LANE":"７３巷","ALLEY":"３２弄","HOUSE_NO":"３號","E_COORD97":183675.54000000001,"N_COORD97":2540838.8799999999,"ADDRESS":"中正路７３巷３２弄３號","OBJECTID":174125},"geometry":{"x":183675.54000000097,"y":2540838.879999999}},{"attributes":{"ID":174127,"DIS_CODE":0,"TOWNNAME":"關廟區","LI":"香洋里","LIN":"20鄰","STREET":"中央路","SECT":" ","MAREA":" ","LANE":"５１巷","ALLEY":"１０弄","HOUSE_NO":"１６號","E_COORD97":181486.70999999999,"N_COORD97":2539932.3199999998,"ADDRESS":"中央路５１巷１０弄１６號","OBJECTID":174126},"geometry":{"x":181486.70999999996,"y":2539932.3200000003}},{"attributes":{"ID":174128,"DIS_CODE":0,"TOWNNAME":"關廟區","LI":"東勢里","LIN":"20鄰","STREET":"東榮街","SECT":" ","MAREA":" ","LANE":"７２巷","ALLEY":"６弄","HOUSE_NO":"２２號","E_COORD97":182001.52672600001,"N_COORD97":2539320.2475999999,"ADDRESS":"東榮街７２巷６弄２２號","OBJECTID":174127},"geometry":{"x":182001.52672600094,"y":2539320.2475980017}},{"attributes":{"ID":174129,"DIS_CODE":0,"TOWNNAME":"關廟區","LI":"山西里","LIN":"20鄰","STREET":"崇平路","SECT":" ","MAREA":" ","LANE":"１０７巷","ALLEY":"３弄","HOUSE_NO":"２２號","E_COORD97":180745.12,"N_COORD97":2540340.46,"ADDRESS":"崇平路１０７巷３弄２２號","OBJECTID":174128},"geometry":{"x":180745.12000000197,"y":2540340.4600000028}},{"attributes":{"ID":174130,"DIS_CODE":0,"TOWNNAME":"東區","LI":"崇文里","LIN":"15鄰","STREET":"崇德路","SECT":" ","MAREA":" ","LANE":" ","ALLEY":" ","HOUSE_NO":"７４１之２號","E_COORD97":170806.35999999999,"N_COORD97":2540935.5800000001,"ADDRESS":"崇德路７４１之２號","OBJECTID":174129},"geometry":{"x":170806.36000000034,"y":2540935.5800000019}},{"attributes":{"ID":174131,"DIS_CODE":0,"TOWNNAME":"東區","LI":"崇文里","LIN":"6鄰","STREET":"崇德路","SECT":" ","MAREA":" ","LANE":" ","ALLEY":" ","HOUSE_NO":"６５９之１２號","E_COORD97":170803.91,"N_COORD97":2541156.77,"ADDRESS":"崇德路６５９之１２號","OBJECTID":174130},"geometry":{"x":170803.91000000015,"y":2541156.7699999996}},{"attributes":{"ID":174132,"DIS_CODE":0,"TOWNNAME":"東區","LI":"東智里","LIN":"12鄰","STREET":"崇德路","SECT":" ","MAREA":" ","LANE":" ","ALLEY":" ","HOUSE_NO":"９５０之２號","E_COORD97":170747.75,"N_COORD97":2540097.2999999998,"ADDRESS":"崇德路９５０之２號","OBJECTID":174131},"geometry":{"x":170747.75000000093,"y":2540097.3000000026}},{"attributes":{"ID":174133,"DIS_CODE":0,"TOWNNAME":"東區","LI":"東智里","LIN":"12鄰","STREET":"崇德路","SECT":" ","MAREA":" ","LANE":" ","ALLEY":" ","HOUSE_NO":"９５０之３號","E_COORD97":170747.91,"N_COORD97":2540103.77,"ADDRESS":"崇德路９５０之３號","OBJECTID":174132},"geometry":{"x":170747.91000000015,"y":2540103.7700000014}},{"attributes":{"ID":174134,"DIS_CODE":0,"TOWNNAME":"永康區","LI":"中華里","LIN":"10鄰","STREET":"忠勇街","SECT":" ","MAREA":" ","LANE":" ","ALLEY":" ","HOUSE_NO":"５號","E_COORD97":171876.66,"N_COORD97":2544368.4900000002,"ADDRESS":"忠勇街５號","OBJECTID":174133},"geometry":{"x":171876.66000000015,"y":2544368.4900000021}},{"attributes":{"ID":174135,"DIS_CODE":0,"TOWNNAME":"關廟區","LI":"埤頭里","LIN":"13鄰","STREET":"關新路","SECT":"二段","MAREA":" ","LANE":"４６２巷","ALLEY":"３６弄","HOUSE_NO":"３６號","E_COORD97":179282.51999999999,"N_COORD97":2545020.25,"ADDRESS":"關新路二段４６２巷３６弄３６號","OBJECTID":174134},"geometry":{"x":179282.52000000048,"y":2545020.2500000019}},{"attributes":{"ID":174136,"DIS_CODE":0,"TOWNNAME":"關廟區","LI":"松腳里","LIN":"18鄰","STREET":"中山路","SECT":"一段","MAREA":" ","LANE":"８９巷","ALLEY":"３７弄","HOUSE_NO":"３５號","E_COORD97":181976.31,"N_COORD97":2539928.2799999998,"ADDRESS":"中山路一段８９巷３７弄３５號","OBJECTID":174135},"geometry":{"x":181976.31000000052,"y":2539928.2799999993}},{"attributes":{"ID":174137,"DIS_CODE":0,"TOWNNAME":"永康區","LI":"中華里","LIN":"10鄰","STREET":"小東路","SECT":" ","MAREA":" ","LANE":" ","ALLEY":" ","HOUSE_NO":"６０３號","E_COORD97":171830.98999999999,"N_COORD97":2544341.2000000002,"ADDRESS":"小東路６０３號","OBJECTID":174136},"geometry":{"x":171830.99000000022,"y":2544341.2000000011}},{"attributes":{"ID":174138,"DIS_CODE":0,"TOWNNAME":"關廟區","LI":"埤頭里","LIN":"13鄰","STREET":"關新路","SECT":"二段","MAREA":" ","LANE":"４６２巷","ALLEY":"１８弄","HOUSE_NO":"２３號","E_COORD97":179259.134299,"N_COORD97":2545047.22688,"ADDRESS":"關新路二段４６２巷１８弄２３號","OBJECTID":174137},"geometry":{"x":179259.13429900166,"y":2545047.2268790007}},{"attributes":{"ID":174139,"DIS_CODE":0,"TOWNNAME":"關廟區","LI":"北花里","LIN":"20鄰","STREET":"中正路","SECT":" ","MAREA":" ","LANE":"７３巷","ALLEY":"３２弄","HOUSE_NO":"１號","E_COORD97":183680.94,"N_COORD97":2540838.8799999999,"ADDRESS":"中正路７３巷３２弄１號","OBJECTID":174138},"geometry":{"x":183680.93999999948,"y":2540838.879999999}},{"attributes":{"ID":174140,"DIS_CODE":0,"TOWNNAME":"關廟區","LI":"東勢里","LIN":"25鄰","STREET":"光復街","SECT":" ","MAREA":" ","LANE":"１４２巷","ALLEY":"５弄","HOUSE_NO":"１號","E_COORD97":181556.94,"N_COORD97":2539474.2799999998,"ADDRESS":"光復街１４２巷５弄１號","OBJECTID":174139},"geometry":{"x":181556.94000000227,"y":2539474.2799999993}},{"attributes":{"ID":174141,"DIS_CODE":0,"TOWNNAME":"永康區","LI":"中華里","LIN":"10鄰","STREET":"小東路","SECT":" ","MAREA":" ","LANE":" ","ALLEY":" ","HOUSE_NO":"６０７號","E_COORD97":171839.87,"N_COORD97":2544341.4199999999,"ADDRESS":"小東路６０７號","OBJECTID":174140},"geometry":{"x":171839.87000000011,"y":2544341.4200000018}},{"attributes":{"ID":174142,"DIS_CODE":0,"TOWNNAME":"關廟區","LI":"五甲里","LIN":"20鄰","STREET":"五智街","SECT":" ","MAREA":" ","LANE":"５０巷","ALLEY":"７弄","HOUSE_NO":"１號","E_COORD97":181151.12,"N_COORD97":2539194.25,"ADDRESS":"五智街５０巷７弄１號","OBJECTID":174141},"geometry":{"x":181151.12000000104,"y":2539194.25}},{"attributes":{"ID":174143,"DIS_CODE":0,"TOWNNAME":"關廟區","LI":"北花里","LIN":"20鄰","STREET":"中正路","SECT":" ","MAREA":" ","LANE":"７３巷","ALLEY":"３２弄","HOUSE_NO":"７號","E_COORD97":183666.73999999999,"N_COORD97":2540837.8799999999,"ADDRESS":"中正路７３巷３２弄７號","OBJECTID":174142},"geometry":{"x":183666.74000000022,"y":2540837.8800000008}},{"attributes":{"ID":174144,"DIS_CODE":0,"TOWNNAME":"關廟區","LI":"北勢里","LIN":"18鄰","STREET":"成功路","SECT":" ","MAREA":" ","LANE":"３５３巷","ALLEY":"２弄","HOUSE_NO":"１１號","E_COORD97":181236.51999999999,"N_COORD97":2540472.27,"ADDRESS":"成功路３５３巷２弄１１號","OBJECTID":174143},"geometry":{"x":181236.51999999955,"y":2540472.2700000033}},{"attributes":{"ID":174145,"DIS_CODE":0,"TOWNNAME":"永康區","LI":"中華里","LIN":"10鄰","STREET":"小東路","SECT":" ","MAREA":" ","LANE":" ","ALLEY":" ","HOUSE_NO":"６１５號","E_COORD97":171857.85000000001,"N_COORD97":2544341.4199999999,"ADDRESS":"小東路６１５號","OBJECTID":174144},"geometry":{"x":171857.84999999963,"y":2544341.4200000018}},{"attributes":{"ID":174146,"DIS_CODE":0,"TOWNNAME":"永康區","LI":"中華里","LIN":"10鄰","STREET":"小東路","SECT":" ","MAREA":" ","LANE":" ","ALLEY":" ","HOUSE_NO":"５９７號","E_COORD97":171817.73999999999,"N_COORD97":2544341.1899999999,"ADDRESS":"小東路５９７號","OBJECTID":174145},"geometry":{"x":171817.74000000115,"y":2544341.1900000032}},{"attributes":{"ID":174147,"DIS_CODE":0,"TOWNNAME":"永康區","LI":"中華里","LIN":"10鄰","STREET":"小東路","SECT":" ","MAREA":" ","LANE":" ","ALLEY":" ","HOUSE_NO":"６０９號","E_COORD97":171844.42000000001,"N_COORD97":2544341.4199999999,"ADDRESS":"小東路６０９號","OBJECTID":174146},"geometry":{"x":171844.41999999993,"y":2544341.4200000018}},{"attributes":{"ID":174148,"DIS_CODE":0,"TOWNNAME":"永康區","LI":"中華里","LIN":"10鄰","STREET":"小東路","SECT":" ","MAREA":" ","LANE":" ","ALLEY":" ","HOUSE_NO":"５９９號","E_COORD97":171822.23000000001,"N_COORD97":2544341.1899999999,"ADDRESS":"小東路５９９號","OBJECTID":174147},"geometry":{"x":171822.23000000045,"y":2544341.1900000032}},{"attributes":{"ID":174149,"DIS_CODE":0,"TOWNNAME":"關廟區","LI":"北勢里","LIN":"18鄰","STREET":"成功路","SECT":" ","MAREA":" ","LANE":"３５３巷","ALLEY":"２弄","HOUSE_NO":"１８號","E_COORD97":181234.22,"N_COORD97":2540482.27,"ADDRESS":"成功路３５３巷２弄１８號","OBJECTID":174148},"geometry":{"x":181234.22000000067,"y":2540482.2700000033}},{"attributes":{"ID":174150,"DIS_CODE":0,"TOWNNAME":"關廟區","LI":"東勢里","LIN":"24鄰","STREET":"東安街","SECT":" ","MAREA":" ","LANE":"２４１巷","ALLEY":"１３弄","HOUSE_NO":"２號","E_COORD97":181627.72,"N_COORD97":2539396.3199999998,"ADDRESS":"東安街２４１巷１３弄２號","OBJECTID":174149},"geometry":{"x":181627.72000000067,"y":2539396.3200000003}},{"attributes":{"ID":174151,"DIS_CODE":0,"TOWNNAME":"關廟區","LI":"香洋里","LIN":"14鄰","STREET":"仁愛路","SECT":" ","MAREA":" ","LANE":"１８巷","ALLEY":"１７弄","HOUSE_NO":"８號","E_COORD97":181326.29000000001,"N_COORD97":2540097.2799999998,"ADDRESS":"仁愛路１８巷１７弄８號","OBJECTID":174150},"geometry":{"x":181326.29000000004,"y":2540097.2799999993}},{"attributes":{"ID":174152,"DIS_CODE":0,"TOWNNAME":"關廟區","LI":"松腳里","LIN":"18鄰","STREET":"中山路","SECT":"一段","MAREA":" ","LANE":"８９巷","ALLEY":"３７弄","HOUSE_NO":"５號","E_COORD97":181961.26000000001,"N_COORD97":2539862.2799999998,"ADDRESS":"中山路一段８９巷３７弄５號","OBJECTID":174151},"geometry":{"x":181961.26000000071,"y":2539862.2800000012}},{"attributes":{"ID":174153,"DIS_CODE":0,"TOWNNAME":"關廟區","LI":"埤頭里","LIN":"4鄰","STREET":"保東路","SECT":" ","MAREA":" ","LANE":"８５巷","ALLEY":"１６弄","HOUSE_NO":"１８號","E_COORD97":178890.97,"N_COORD97":2543931.25,"ADDRESS":"保東路８５巷１６弄１８號","OBJECTID":174152},"geometry":{"x":178890.96999999974,"y":2543931.2500000037}},{"attributes":{"ID":174154,"DIS_CODE":0,"TOWNNAME":"新市區","LI":"新市里","LIN":"13鄰","STREET":"中正路","SECT":" ","MAREA":" ","LANE":"３０１巷","ALLEY":"１５弄","HOUSE_NO":"２６號","E_COORD97":177508.272501,"N_COORD97":2553270.4481000002,"ADDRESS":"中正路３０１巷１５弄２６號","OBJECTID":174153},"geometry":{"x":177508.27250100113,"y":2553270.4481000006}},{"attributes":{"ID":174155,"DIS_CODE":0,"TOWNNAME":"永康區","LI":"中華里","LIN":"10鄰","STREET":"小東路","SECT":" ","MAREA":" ","LANE":" ","ALLEY":" ","HOUSE_NO":"５９５號","E_COORD97":171813.47,"N_COORD97":2544341.1899999999,"ADDRESS":"小東路５９５號","OBJECTID":174154},"geometry":{"x":171813.46999999974,"y":2544341.1900000032}},{"attributes":{"ID":174156,"DIS_CODE":0,"TOWNNAME":"仁德區","LI":"仁義里","LIN":"10鄰","STREET":"中山路","SECT":" ","MAREA":" ","LANE":" ","ALLEY":" ","HOUSE_NO":"５４３號","E_COORD97":173452.78,"N_COORD97":2541298.4900000002,"ADDRESS":"中山路５４３號","OBJECTID":174155},"geometry":{"x":173452.78000000026,"y":2541298.4899999984}},{"attributes":{"ID":174157,"DIS_CODE":0,"TOWNNAME":"仁德區","LI":"仁義里","LIN":"10鄰","STREET":"中山路","SECT":" ","MAREA":" ","LANE":" ","ALLEY":" ","HOUSE_NO":"５６３號","E_COORD97":173404.14000000001,"N_COORD97":2541305.4900000002,"ADDRESS":"中山路５６３號","OBJECTID":174156},"geometry":{"x":173404.13999999966,"y":2541305.4900000039}},{"attributes":{"ID":174158,"DIS_CODE":0,"TOWNNAME":"仁德區","LI":"仁德里","LIN":"10鄰","STREET":"中正路","SECT":"二段","MAREA":" ","LANE":" ","ALLEY":" ","HOUSE_NO":"１２２３號","E_COORD97":173262.57000000001,"N_COORD97":2541225.79,"ADDRESS":"中正路二段１２２３號","OBJECTID":174157},"geometry":{"x":173262.5700000003,"y":2541225.790000001}},{"attributes":{"ID":174159,"DIS_CODE":0,"TOWNNAME":"仁德區","LI":"太子里","LIN":"10鄰","STREET":"太子北路","SECT":" ","MAREA":" ","LANE":" ","ALLEY":" ","HOUSE_NO":"４２號","E_COORD97":174204.16,"N_COORD97":2543618.5099999998,"ADDRESS":"太子北路４２號","OBJECTID":174158},"geometry":{"x":174204.16000000015,"y":2543618.5100000016}},{"attributes":{"ID":174160,"DIS_CODE":0,"TOWNNAME":"關廟區","LI":"北花里","LIN":"20鄰","STREET":"中正路","SECT":" ","MAREA":" ","LANE":"７３巷","ALLEY":"３２弄","HOUSE_NO":"２２號","E_COORD97":183641.09,"N_COORD97":2540845.8799999999,"ADDRESS":"中正路７３巷３２弄２２號","OBJECTID":174159},"geometry":{"x":183641.09000000078,"y":2540845.879999999}},{"attributes":{"ID":174161,"DIS_CODE":0,"TOWNNAME":"關廟區","LI":"北花里","LIN":"20鄰","STREET":"中正路","SECT":" ","MAREA":" ","LANE":"７３巷","ALLEY":"３８弄","HOUSE_NO":"２２號","E_COORD97":183638.79000000001,"N_COORD97":2540810.8799999999,"ADDRESS":"中正路７３巷３８弄２２號","OBJECTID":174160},"geometry":{"x":183638.79000000004,"y":2540810.8800000008}},{"attributes":{"ID":174162,"DIS_CODE":0,"TOWNNAME":"關廟區","LI":"山西里","LIN":"20鄰","STREET":"崇平路","SECT":" ","MAREA":" ","LANE":"１０７巷","ALLEY":"３弄","HOUSE_NO":"６號","E_COORD97":180714.67000000001,"N_COORD97":2540347.46,"ADDRESS":"崇平路１０７巷３弄６號","OBJECTID":174161},"geometry":{"x":180714.67000000086,"y":2540347.4600000028}},{"attributes":{"ID":174163,"DIS_CODE":0,"TOWNNAME":"關廟區","LI":"山西里","LIN":"20鄰","STREET":"崇平路","SECT":" ","MAREA":" ","LANE":"１０７巷","ALLEY":"３弄","HOUSE_NO":"１１號","E_COORD97":180730.12,"N_COORD97":2540352.46,"ADDRESS":"崇平路１０７巷３弄１１號","OBJECTID":174162},"geometry":{"x":180730.12000000104,"y":2540352.4600000009}},{"attributes":{"ID":174164,"DIS_CODE":0,"TOWNNAME":"關廟區","LI":"五甲里","LIN":"18鄰","STREET":"大富街","SECT":" ","MAREA":" ","LANE":"３９巷","ALLEY":"１弄","HOUSE_NO":"５號","E_COORD97":180956.12,"N_COORD97":2539070.25,"ADDRESS":"大富街３９巷１弄５號","OBJECTID":174163},"geometry":{"x":180956.12000000104,"y":2539070.2500000019}},{"attributes":{"ID":174165,"DIS_CODE":0,"TOWNNAME":"關廟區","LI":"山西里","LIN":"20鄰","STREET":"崇平路","SECT":" ","MAREA":" ","LANE":"１０７巷","ALLEY":"３弄","HOUSE_NO":"５號","E_COORD97":180716.57000000001,"N_COORD97":2540355.46,"ADDRESS":"崇平路１０７巷３弄５號","OBJECTID":174164},"geometry":{"x":180716.5700000003,"y":2540355.4600000009}},{"attributes":{"ID":174166,"DIS_CODE":0,"TOWNNAME":"關廟區","LI":"山西里","LIN":"20鄰","STREET":"崇平路","SECT":" ","MAREA":" ","LANE":"１０７巷","ALLEY":"３弄","HOUSE_NO":"１０號","E_COORD97":180724.72,"N_COORD97":2540345.46,"ADDRESS":"崇平路１０７巷３弄１０號","OBJECTID":174165},"geometry":{"x":180724.71999999974,"y":2540345.4600000009}},{"attributes":{"ID":174167,"DIS_CODE":0,"TOWNNAME":"關廟區","LI":"五甲里","LIN":"18鄰","STREET":"大富街","SECT":" ","MAREA":" ","LANE":"３９巷","ALLEY":"１弄","HOUSE_NO":"１１號","E_COORD97":180953.57000000001,"N_COORD97":2539081.25,"ADDRESS":"大富街３９巷１弄１１號","OBJECTID":174166},"geometry":{"x":180953.5700000003,"y":2539081.25}},{"attributes":{"ID":174168,"DIS_CODE":0,"TOWNNAME":"關廟區","LI":"山西里","LIN":"20鄰","STREET":"崇平路","SECT":" ","MAREA":" ","LANE":"１０７巷","ALLEY":"３弄","HOUSE_NO":"２號","E_COORD97":180710.47,"N_COORD97":2540347.46,"ADDRESS":"崇平路１０７巷３弄２號","OBJECTID":174167},"geometry":{"x":180710.47000000067,"y":2540347.4600000028}},{"attributes":{"ID":174169,"DIS_CODE":0,"TOWNNAME":"北區","LI":"開元里","LIN":"17鄰","STREET":"北園街","SECT":" ","MAREA":" ","LANE":"８７巷","ALLEY":"１２９弄","HOUSE_NO":"１０號","E_COORD97":170117.94,"N_COORD97":2545876.96,"ADDRESS":"北園街８７巷１２９弄１０號","OBJECTID":174168},"geometry":{"x":170117.94000000227,"y":2545876.9600000028}},{"attributes":{"ID":174170,"DIS_CODE":0,"TOWNNAME":"北區","LI":"開元里","LIN":"17鄰","STREET":"北園街","SECT":" ","MAREA":" ","LANE":"８７巷","ALLEY":"１２９弄","HOUSE_NO":"１１號","E_COORD97":170112.92999999999,"N_COORD97":2545870.8300000001,"ADDRESS":"北園街８７巷１２９弄１１號","OBJECTID":174169},"geometry":{"x":170112.9299999997,"y":2545870.8300000019}},{"attributes":{"ID":174171,"DIS_CODE":0,"TOWNNAME":"北區","LI":"開元里","LIN":"17鄰","STREET":"北園街","SECT":" ","MAREA":" ","LANE":"８７巷","ALLEY":"１２９弄","HOUSE_NO":"１２號","E_COORD97":170111.19,"N_COORD97":2545877.29,"ADDRESS":"北園街８７巷１２９弄１２號","OBJECTID":174170},"geometry":{"x":170111.19000000227,"y":2545877.290000001}},{"attributes":{"ID":174172,"DIS_CODE":0,"TOWNNAME":"北區","LI":"開元里","LIN":"17鄰","STREET":"北園街","SECT":" ","MAREA":" ","LANE":"８７巷","ALLEY":"１２９弄","HOUSE_NO":"１３號","E_COORD97":170108.13,"N_COORD97":2545871.48,"ADDRESS":"北園街８７巷１２９弄１３號","OBJECTID":174171},"geometry":{"x":170108.13000000082,"y":2545871.4800000004}},{"attributes":{"ID":174173,"DIS_CODE":0,"TOWNNAME":"北區","LI":"開元里","LIN":"17鄰","STREET":"北園街","SECT":" ","MAREA":" ","LANE":"８７巷","ALLEY":"１２９弄","HOUSE_NO":"１４號","E_COORD97":170103.88,"N_COORD97":2545877.6200000001,"ADDRESS":"北園街８７巷１２９弄１４號","OBJECTID":174172},"geometry":{"x":170103.87999999989,"y":2545877.620000001}},{"attributes":{"ID":174174,"DIS_CODE":0,"TOWNNAME":"北區","LI":"開元里","LIN":"17鄰","STREET":"北園街","SECT":" ","MAREA":" ","LANE":"８７巷","ALLEY":"１２９弄","HOUSE_NO":"１５號","E_COORD97":170101.92000000001,"N_COORD97":2545871.8100000001,"ADDRESS":"北園街８７巷１２９弄１５號","OBJECTID":174173},"geometry":{"x":170101.91999999993,"y":2545871.8100000024}},{"attributes":{"ID":174175,"DIS_CODE":0,"TOWNNAME":"北區","LI":"開元里","LIN":"17鄰","STREET":"北園街","SECT":" ","MAREA":" ","LANE":"８７巷","ALLEY":"１２９弄","HOUSE_NO":"１６號","E_COORD97":170095.16,"N_COORD97":2545877.8300000001,"ADDRESS":"北園街８７巷１２９弄１６號","OBJECTID":174174},"geometry":{"x":170095.16000000015,"y":2545877.8300000019}},{"attributes":{"ID":174176,"DIS_CODE":0,"TOWNNAME":"北區","LI":"開元里","LIN":"17鄰","STREET":"北園街","SECT":" ","MAREA":" ","LANE":"８７巷","ALLEY":"１２９弄","HOUSE_NO":"１７號","E_COORD97":170096.03,"N_COORD97":2545872.0299999998,"ADDRESS":"北園街８７巷１２９弄１７號","OBJECTID":174175},"geometry":{"x":170096.03000000026,"y":2545872.0300000012}},{"attributes":{"ID":174177,"DIS_CODE":0,"TOWNNAME":"北區","LI":"文元里","LIN":"19鄰","STREET":"海安路","SECT":"三段","MAREA":" ","LANE":"７８１巷","ALLEY":"２０９弄","HOUSE_NO":"３號","E_COORD97":167592.91,"N_COORD97":2545966.77,"ADDRESS":"海安路三段７８１巷２０９弄３號","OBJECTID":174176},"geometry":{"x":167592.91000000015,"y":2545966.7699999996}},{"attributes":{"ID":174178,"DIS_CODE":0,"TOWNNAME":"仁德區","LI":"仁義里","LIN":"10鄰","STREET":"仁義一街","SECT":" ","MAREA":" ","LANE":" ","ALLEY":" ","HOUSE_NO":"９７號","E_COORD97":173523.98000000001,"N_COORD97":2541203.7599999998,"ADDRESS":"仁義一街９７號","OBJECTID":174177},"geometry":{"x":173523.98000000138,"y":2541203.7599999998}},{"attributes":{"ID":174179,"DIS_CODE":0,"TOWNNAME":"仁德區","LI":"仁愛里","LIN":"10鄰","STREET":" ","SECT":" ","MAREA":"仁愛","LANE":" ","ALLEY":" ","HOUSE_NO":"１９７號","E_COORD97":170326.96276900001,"N_COORD97":2539958.5499999998,"ADDRESS":"仁愛１９７號","OBJECTID":174178},"geometry":{"x":170326.96276900079,"y":2539958.5500000007}},{"attributes":{"ID":174180,"DIS_CODE":0,"TOWNNAME":"北區","LI":"成功里","LIN":"25鄰","STREET":"北成路","SECT":" ","MAREA":" ","LANE":"１２８巷","ALLEY":"６７弄","HOUSE_NO":"２９號","E_COORD97":168929.32000000001,"N_COORD97":2546887.9199999999,"ADDRESS":"北成路１２８巷６７弄２９號","OBJECTID":174179},"geometry":{"x":168929.32000000123,"y":2546887.9199999999}},{"attributes":{"ID":174181,"DIS_CODE":0,"TOWNNAME":"仁德區","LI":"仁愛里","LIN":"10鄰","STREET":" ","SECT":" ","MAREA":"仁愛","LANE":" ","ALLEY":" ","HOUSE_NO":"１９３號","E_COORD97":170314.99297399999,"N_COORD97":2539958.5499999998,"ADDRESS":"仁愛１９３號","OBJECTID":174180},"geometry":{"x":170314.99297400005,"y":2539958.5500000007}},{"attributes":{"ID":174182,"DIS_CODE":0,"TOWNNAME":"仁德區","LI":"仁愛里","LIN":"10鄰","STREET":" ","SECT":" ","MAREA":"仁愛","LANE":" ","ALLEY":" ","HOUSE_NO":"１９１號","E_COORD97":170308.84918600001,"N_COORD97":2539958.5499999998,"ADDRESS":"仁愛１９１號","OBJECTID":174181},"geometry":{"x":170308.84918600135,"y":2539958.5500000007}},{"attributes":{"ID":174183,"DIS_CODE":0,"TOWNNAME":"安平區","LI":"港仔里","LIN":"4鄰","STREET":"安平路","SECT":" ","MAREA":" ","LANE":"７５巷","ALLEY":"１８弄","HOUSE_NO":"１０號","E_COORD97":164383.54000000001,"N_COORD97":2544399.6000000001,"ADDRESS":"安平路７５巷１８弄１０號","OBJECTID":174182},"geometry":{"x":164383.53999999911,"y":2544399.6000000034}},{"attributes":{"ID":174184,"DIS_CODE":0,"TOWNNAME":"安平區","LI":"港仔里","LIN":"4鄰","STREET":"安平路","SECT":" ","MAREA":" ","LANE":"７５巷","ALLEY":"１８弄","HOUSE_NO":"１２號","E_COORD97":164372.76999999999,"N_COORD97":2544402.4900000002,"ADDRESS":"安平路７５巷１８弄１２號","OBJECTID":174183},"geometry":{"x":164372.76999999955,"y":2544402.4900000021}},{"attributes":{"ID":174185,"DIS_CODE":0,"TOWNNAME":"安平區","LI":"港仔里","LIN":"4鄰","STREET":"安平路","SECT":" ","MAREA":" ","LANE":"７５巷","ALLEY":"１８弄","HOUSE_NO":"１４號","E_COORD97":164368.04000000001,"N_COORD97":2544407.7400000002,"ADDRESS":"安平路７５巷１８弄１４號","OBJECTID":174184},"geometry":{"x":164368.04000000004,"y":2544407.7400000002}},{"attributes":{"ID":174186,"DIS_CODE":0,"TOWNNAME":"安平區","LI":"港仔里","LIN":"4鄰","STREET":"安平路","SECT":" ","MAREA":" ","LANE":"７５巷","ALLEY":"１８弄","HOUSE_NO":"１６號","E_COORD97":164362.79000000001,"N_COORD97":2544408.79,"ADDRESS":"安平路７５巷１８弄１６號","OBJECTID":174185},"geometry":{"x":164362.79000000004,"y":2544408.790000001}},{"attributes":{"ID":174187,"DIS_CODE":0,"TOWNNAME":"安平區","LI":"港仔里","LIN":"4鄰","STREET":"安平路","SECT":" ","MAREA":" ","LANE":"７５巷","ALLEY":"１８弄","HOUSE_NO":"１８號","E_COORD97":164357.53,"N_COORD97":2544410.8900000001,"ADDRESS":"安平路７５巷１８弄１８號","OBJECTID":174186},"geometry":{"x":164357.53000000119,"y":2544410.8900000006}},{"attributes":{"ID":174188,"DIS_CODE":0,"TOWNNAME":"安平區","LI":"港仔里","LIN":"4鄰","STREET":"安平路","SECT":" ","MAREA":" ","LANE":"７５巷","ALLEY":"１８弄","HOUSE_NO":"２０號","E_COORD97":164347.01999999999,"N_COORD97":2544412.9900000002,"ADDRESS":"安平路７５巷１８弄２０號","OBJECTID":174187},"geometry":{"x":164347.01999999955,"y":2544412.9900000002}},{"attributes":{"ID":174189,"DIS_CODE":0,"TOWNNAME":"安平區","LI":"港仔里","LIN":"4鄰","STREET":"安平路","SECT":" ","MAREA":" ","LANE":"７５巷","ALLEY":"１８弄","HOUSE_NO":"４號","E_COORD97":164403.23999999999,"N_COORD97":2544395.9300000002,"ADDRESS":"安平路７５巷１８弄４號","OBJECTID":174188},"geometry":{"x":164403.24000000115,"y":2544395.9299999997}},{"attributes":{"ID":174190,"DIS_CODE":0,"TOWNNAME":"安平區","LI":"港仔里","LIN":"4鄰","STREET":"安平路","SECT":" ","MAREA":" ","LANE":"７５巷","ALLEY":"１８弄","HOUSE_NO":"６號","E_COORD97":164398.25,"N_COORD97":2544396.71,"ADDRESS":"安平路７５巷１８弄６號","OBJECTID":174189},"geometry":{"x":164398.25000000093,"y":2544396.7100000046}},{"attributes":{"ID":174191,"DIS_CODE":0,"TOWNNAME":"仁德區","LI":"仁愛里","LIN":"10鄰","STREET":" ","SECT":" ","MAREA":"仁愛","LANE":" ","ALLEY":" ","HOUSE_NO":"１９５號","E_COORD97":170321.24269000001,"N_COORD97":2539958.5499999998,"ADDRESS":"仁愛１９５號","OBJECTID":174190},"geometry":{"x":170321.24269000068,"y":2539958.5500000007}},{"attributes":{"ID":174192,"DIS_CODE":0,"TOWNNAME":"安平區","LI":"港仔里","LIN":"3鄰","STREET":"安平路","SECT":" ","MAREA":" ","LANE":"７５巷","ALLEY":"２２弄","HOUSE_NO":"２０號","E_COORD97":164345.84,"N_COORD97":2544370.8100000001,"ADDRESS":"安平路７５巷２２弄２０號","OBJECTID":174191},"geometry":{"x":164345.84000000171,"y":2544370.8100000005}},{"attributes":{"ID":174193,"DIS_CODE":0,"TOWNNAME":"安平區","LI":"港仔里","LIN":"3鄰","STREET":"安平路","SECT":" ","MAREA":" ","LANE":"７５巷","ALLEY":"２２弄","HOUSE_NO":"２號","E_COORD97":164390.23426100001,"N_COORD97":2544361.5461800001,"ADDRESS":"安平路７５巷２２弄２號","OBJECTID":174192},"geometry":{"x":164390.2342609996,"y":2544361.5461800024}},{"attributes":{"ID":174194,"DIS_CODE":0,"TOWNNAME":"安平區","LI":"港仔里","LIN":"3鄰","STREET":"安平路","SECT":" ","MAREA":" ","LANE":"７５巷","ALLEY":"２２弄","HOUSE_NO":"４號","E_COORD97":164384.48999999999,"N_COORD97":2544361.77,"ADDRESS":"安平路７５巷２２弄４號","OBJECTID":174193},"geometry":{"x":164384.49000000115,"y":2544361.7700000014}},{"attributes":{"ID":174195,"DIS_CODE":0,"TOWNNAME":"善化區","LI":"文昌里","LIN":"15鄰","STREET":"永福路","SECT":" ","MAREA":" ","LANE":" ","ALLEY":" ","HOUSE_NO":"２５號三樓","E_COORD97":177605.85000000001,"N_COORD97":2558874.5,"ADDRESS":"永福路２５號三樓","OBJECTID":174194},"geometry":{"x":177605.85000000056,"y":2558874.5000000019}},{"attributes":{"ID":174196,"DIS_CODE":0,"TOWNNAME":"善化區","LI":"文昌里","LIN":"15鄰","STREET":"永福路","SECT":" ","MAREA":" ","LANE":" ","ALLEY":" ","HOUSE_NO":"２５號八樓","E_COORD97":177605.85000000001,"N_COORD97":2558874.5,"ADDRESS":"永福路２５號八樓","OBJECTID":174195},"geometry":{"x":177605.85000000056,"y":2558874.5000000019}},{"attributes":{"ID":174197,"DIS_CODE":0,"TOWNNAME":"善化區","LI":"文昌里","LIN":"15鄰","STREET":"永福路","SECT":" ","MAREA":" ","LANE":" ","ALLEY":" ","HOUSE_NO":"２９號五樓","E_COORD97":177585.32000000001,"N_COORD97":2558872.25,"ADDRESS":"永福路２９號五樓","OBJECTID":174196},"geometry":{"x":177585.3200000003,"y":2558872.2499999981}},{"attributes":{"ID":174198,"DIS_CODE":0,"TOWNNAME":"善化區","LI":"牛庄里","LIN":"10鄰","STREET":" ","SECT":" ","MAREA":"牛庄","LANE":" ","ALLEY":" ","HOUSE_NO":"１１０號","E_COORD97":180072.76999999999,"N_COORD97":2559964.75,"ADDRESS":"牛庄１１０號","OBJECTID":174197},"geometry":{"x":180072.77000000048,"y":2559964.7500000019}},{"attributes":{"ID":174199,"DIS_CODE":0,"TOWNNAME":"善化區","LI":"東隆里","LIN":"10鄰","STREET":" ","SECT":" ","MAREA":"東勢寮","LANE":" ","ALLEY":" ","HOUSE_NO":"２２４號","E_COORD97":179898.07000000001,"N_COORD97":2561440.2599999998,"ADDRESS":"東勢寮２２４號","OBJECTID":174198},"geometry":{"x":179898.07000000216,"y":2561440.2600000016}},{"attributes":{"ID":174200,"DIS_CODE":0,"TOWNNAME":"安南區","LI":"溪東里","LIN":"10鄰","STREET":"北安路","SECT":"二段","MAREA":" ","LANE":" ","ALLEY":" ","HOUSE_NO":"１６１號","E_COORD97":168456.64000000001,"N_COORD97":2547634.54,"ADDRESS":"北安路二段１６１號","OBJECTID":174199},"geometry":{"x":168456.6400000006,"y":2547634.540000001}},{"attributes":{"ID":174201,"DIS_CODE":0,"TOWNNAME":"安平區","LI":"港仔里","LIN":"3鄰","STREET":"安平路","SECT":" ","MAREA":" ","LANE":"７５巷","ALLEY":"２２弄","HOUSE_NO":"６號","E_COORD97":164379.97,"N_COORD97":2544362.9399999999,"ADDRESS":"安平路７５巷２２弄６號","OBJECTID":174200},"geometry":{"x":164379.96999999974,"y":2544362.9399999976}}]}