{"displayFieldName":"TOWNNAME","fieldAliases":{"ID":"ID","DIS_CODE":"DIS_CODE","TOWNNAME":"TOWNNAME","LI":"LI","LIN":"LIN","STREET":"STREET","SECT":"SECT","MAREA":"MAREA","LANE":"LANE","ALLEY":"ALLEY","HOUSE_NO":"HOUSE_NO","E_COORD97":"E_COORD97","N_COORD97":"N_COORD97","ADDRESS":"ADDRESS","OBJECTID":"OBJECTID"},"geometryType":"esriGeometryPoint","spatialReference":{"wkid":102443,"latestWkid":3826},"fields":[{"name":"ID","type":"esriFieldTypeDouble","alias":"ID"},{"name":"DIS_CODE","type":"esriFieldTypeInteger","alias":"DIS_CODE"},{"name":"TOWNNAME","type":"esriFieldTypeString","alias":"TOWNNAME","length":8},{"name":"LI","type":"esriFieldTypeString","alias":"LI","length":8},{"name":"LIN","type":"esriFieldTypeString","alias":"LIN","length":12},{"name":"STREET","type":"esriFieldTypeString","alias":"STREET","length":20},{"name":"SECT","type":"esriFieldTypeString","alias":"SECT","length":8},{"name":"MAREA","type":"esriFieldTypeString","alias":"MAREA","length":12},{"name":"LANE","type":"esriFieldTypeString","alias":"LANE","length":10},{"name":"ALLEY","type":"esriFieldTypeString","alias":"ALLEY","length":10},{"name":"HOUSE_NO","type":"esriFieldTypeString","alias":"HOUSE_NO","length":20},{"name":"E_COORD97","type":"esriFieldTypeDouble","alias":"E_COORD97"},{"name":"N_COORD97","type":"esriFieldTypeDouble","alias":"N_COORD97"},{"name":"ADDRESS","type":"esriFieldTypeString","alias":"ADDRESS","length":50},{"name":"OBJECTID","type":"esriFieldTypeOID","alias":"OBJECTID"}],"features":[{"attributes":{"ID":631028,"DIS_CODE":0,"TOWNNAME":"東區","LI":"東智里","LIN":"4鄰","STREET":"崇德二十六街","SECT":" ","MAREA":" ","LANE":" ","ALLEY":" ","HOUSE_NO":"３３號","E_COORD97":170886.62,"N_COORD97":2540340.3199999998,"ADDRESS":"崇德二十六街３３號","OBJECTID":631001},"geometry":{"x":170886.62000000104,"y":2540340.320000004}},{"attributes":{"ID":631029,"DIS_CODE":0,"TOWNNAME":"東區","LI":"東智里","LIN":"4鄰","STREET":"崇德二十六街","SECT":" ","MAREA":" ","LANE":" ","ALLEY":" ","HOUSE_NO":"４２號","E_COORD97":170887.12,"N_COORD97":2540312.4100000001,"ADDRESS":"崇德二十六街４２號","OBJECTID":631002},"geometry":{"x":170887.12000000011,"y":2540312.4099999983}},{"attributes":{"ID":631030,"DIS_CODE":0,"TOWNNAME":"東區","LI":"東智里","LIN":"4鄰","STREET":"崇德二十六街","SECT":" ","MAREA":" ","LANE":" ","ALLEY":" ","HOUSE_NO":"３１號","E_COORD97":170886.89999999999,"N_COORD97":2540345.3900000001,"ADDRESS":"崇德二十六街３１號","OBJECTID":631003},"geometry":{"x":170886.90000000037,"y":2540345.3900000006}},{"attributes":{"ID":631031,"DIS_CODE":0,"TOWNNAME":"東區","LI":"東智里","LIN":"4鄰","STREET":"崇德二十六街","SECT":" ","MAREA":" ","LANE":" ","ALLEY":" ","HOUSE_NO":"４０號","E_COORD97":170887.26000000001,"N_COORD97":2540308.46,"ADDRESS":"崇德二十六街４０號","OBJECTID":631004},"geometry":{"x":170887.25999999978,"y":2540308.4600000009}},{"attributes":{"ID":631032,"DIS_CODE":0,"TOWNNAME":"東區","LI":"東智里","LIN":"4鄰","STREET":"崇德二十六街","SECT":" ","MAREA":" ","LANE":" ","ALLEY":" ","HOUSE_NO":"３４號","E_COORD97":170887.12,"N_COORD97":2540295.77,"ADDRESS":"崇德二十六街３４號","OBJECTID":631005},"geometry":{"x":170887.12000000011,"y":2540295.7699999977}},{"attributes":{"ID":631033,"DIS_CODE":0,"TOWNNAME":"東區","LI":"東智里","LIN":"4鄰","STREET":"崇德二十七街","SECT":" ","MAREA":" ","LANE":" ","ALLEY":" ","HOUSE_NO":"３０號","E_COORD97":170887.92999999999,"N_COORD97":2540279.9700000002,"ADDRESS":"崇德二十七街３０號","OBJECTID":631006},"geometry":{"x":170887.9299999997,"y":2540279.9700000025}},{"attributes":{"ID":631034,"DIS_CODE":0,"TOWNNAME":"東區","LI":"東智里","LIN":"4鄰","STREET":"崇德二十六街","SECT":" ","MAREA":" ","LANE":" ","ALLEY":" ","HOUSE_NO":"３６號","E_COORD97":170886.84,"N_COORD97":2540299.8599999999,"ADDRESS":"崇德二十六街３６號","OBJECTID":631007},"geometry":{"x":170886.83999999985,"y":2540299.8600000013}},{"attributes":{"ID":631035,"DIS_CODE":0,"TOWNNAME":"東區","LI":"東智里","LIN":"4鄰","STREET":"崇德二十七街","SECT":" ","MAREA":" ","LANE":" ","ALLEY":" ","HOUSE_NO":"２８號","E_COORD97":170888.07999999999,"N_COORD97":2540276.0299999998,"ADDRESS":"崇德二十七街２８號","OBJECTID":631008},"geometry":{"x":170888.08000000101,"y":2540276.0299999993}},{"attributes":{"ID":631036,"DIS_CODE":0,"TOWNNAME":"東區","LI":"東智里","LIN":"4鄰","STREET":"崇德二十六街","SECT":" ","MAREA":" ","LANE":" ","ALLEY":" ","HOUSE_NO":"３８號","E_COORD97":170886.70000000001,"N_COORD97":2540304.3700000001,"ADDRESS":"崇德二十六街３８號","OBJECTID":631009},"geometry":{"x":170886.70000000019,"y":2540304.3700000029}},{"attributes":{"ID":631037,"DIS_CODE":0,"TOWNNAME":"東區","LI":"東智里","LIN":"4鄰","STREET":"崇德二十七街","SECT":" ","MAREA":" ","LANE":" ","ALLEY":" ","HOUSE_NO":"２６號","E_COORD97":170887.92999999999,"N_COORD97":2540272.2400000002,"ADDRESS":"崇德二十七街２６號","OBJECTID":631010},"geometry":{"x":170887.9299999997,"y":2540272.2400000002}},{"attributes":{"ID":631038,"DIS_CODE":0,"TOWNNAME":"東區","LI":"東智里","LIN":"4鄰","STREET":"崇德二十六街","SECT":" ","MAREA":" ","LANE":" ","ALLEY":" ","HOUSE_NO":"２８號","E_COORD97":170873.98999999999,"N_COORD97":2540304.4300000002,"ADDRESS":"崇德二十六街２８號","OBJECTID":631011},"geometry":{"x":170873.99000000115,"y":2540304.4299999997}},{"attributes":{"ID":631039,"DIS_CODE":0,"TOWNNAME":"東區","LI":"東智里","LIN":"4鄰","STREET":"崇德二十七街","SECT":" ","MAREA":" ","LANE":" ","ALLEY":" ","HOUSE_NO":"２２號","E_COORD97":170874.23999999999,"N_COORD97":2540275.8799999999,"ADDRESS":"崇德二十七街２２號","OBJECTID":631012},"geometry":{"x":170874.24000000022,"y":2540275.8800000008}},{"attributes":{"ID":631040,"DIS_CODE":0,"TOWNNAME":"東區","LI":"東智里","LIN":"4鄰","STREET":"崇德二十六街","SECT":" ","MAREA":" ","LANE":" ","ALLEY":" ","HOUSE_NO":"３０號","E_COORD97":170874.41,"N_COORD97":2540300.3399999999,"ADDRESS":"崇德二十六街３０號","OBJECTID":631013},"geometry":{"x":170874.41000000108,"y":2540300.3400000017}},{"attributes":{"ID":631041,"DIS_CODE":0,"TOWNNAME":"東區","LI":"東智里","LIN":"4鄰","STREET":"崇德二十七街","SECT":" ","MAREA":" ","LANE":" ","ALLEY":" ","HOUSE_NO":"２０號","E_COORD97":170874.07999999999,"N_COORD97":2540279.8199999998,"ADDRESS":"崇德二十七街２０號","OBJECTID":631014},"geometry":{"x":170874.08000000007,"y":2540279.8200000022}},{"attributes":{"ID":631042,"DIS_CODE":0,"TOWNNAME":"東區","LI":"東智里","LIN":"4鄰","STREET":"崇德二十六街","SECT":" ","MAREA":" ","LANE":" ","ALLEY":" ","HOUSE_NO":"３２號","E_COORD97":170873.14000000001,"N_COORD97":2540295.3399999999,"ADDRESS":"崇德二十六街３２號","OBJECTID":631015},"geometry":{"x":170873.13999999966,"y":2540295.3399999999}},{"attributes":{"ID":631043,"DIS_CODE":0,"TOWNNAME":"東區","LI":"東智里","LIN":"4鄰","STREET":"崇德二十七街","SECT":" ","MAREA":" ","LANE":" ","ALLEY":" ","HOUSE_NO":"１８號","E_COORD97":170874.07999999999,"N_COORD97":2540283.9300000002,"ADDRESS":"崇德二十七街１８號","OBJECTID":631016},"geometry":{"x":170874.08000000007,"y":2540283.9299999997}},{"attributes":{"ID":631044,"DIS_CODE":0,"TOWNNAME":"東區","LI":"東智里","LIN":"4鄰","STREET":"崇德二十七街","SECT":" ","MAREA":" ","LANE":" ","ALLEY":" ","HOUSE_NO":"１７號","E_COORD97":170857.17999999999,"N_COORD97":2540294.6800000002,"ADDRESS":"崇德二十七街１７號","OBJECTID":631017},"geometry":{"x":170857.1799999997,"y":2540294.6800000016}},{"attributes":{"ID":631045,"DIS_CODE":0,"TOWNNAME":"東區","LI":"東智里","LIN":"4鄰","STREET":"崇德二十七街","SECT":" ","MAREA":" ","LANE":" ","ALLEY":" ","HOUSE_NO":"１６號","E_COORD97":170848,"N_COORD97":2540284.2400000002,"ADDRESS":"崇德二十七街１６號","OBJECTID":631018},"geometry":{"x":170848.00000000093,"y":2540284.2400000021}},{"attributes":{"ID":631046,"DIS_CODE":0,"TOWNNAME":"東區","LI":"東智里","LIN":"4鄰","STREET":"崇德二十七街","SECT":" ","MAREA":" ","LANE":" ","ALLEY":" ","HOUSE_NO":"１５號","E_COORD97":170852.94,"N_COORD97":2540294.6800000002,"ADDRESS":"崇德二十七街１５號","OBJECTID":631019},"geometry":{"x":170852.94000000041,"y":2540294.6800000016}},{"attributes":{"ID":631047,"DIS_CODE":0,"TOWNNAME":"東區","LI":"東智里","LIN":"4鄰","STREET":"崇德二十七街","SECT":" ","MAREA":" ","LANE":" ","ALLEY":" ","HOUSE_NO":"１３號","E_COORD97":170848.70999999999,"N_COORD97":2540294.8199999998,"ADDRESS":"崇德二十七街１３號","OBJECTID":631020},"geometry":{"x":170848.70999999996,"y":2540294.8200000003}},{"attributes":{"ID":631048,"DIS_CODE":0,"TOWNNAME":"東區","LI":"東智里","LIN":"4鄰","STREET":"崇德二十七街","SECT":" ","MAREA":" ","LANE":" ","ALLEY":" ","HOUSE_NO":"１１號","E_COORD97":170845.32000000001,"N_COORD97":2540294.8199999998,"ADDRESS":"崇德二十七街１１號","OBJECTID":631021},"geometry":{"x":170845.3200000003,"y":2540294.8200000003}},{"attributes":{"ID":631049,"DIS_CODE":0,"TOWNNAME":"東區","LI":"東智里","LIN":"4鄰","STREET":"崇德二十七街","SECT":" ","MAREA":" ","LANE":" ","ALLEY":" ","HOUSE_NO":"９號","E_COORD97":170841.22,"N_COORD97":2540294.54,"ADDRESS":"崇德二十七街９號","OBJECTID":631022},"geometry":{"x":170841.22000000067,"y":2540294.540000001}},{"attributes":{"ID":631050,"DIS_CODE":0,"TOWNNAME":"東區","LI":"東智里","LIN":"4鄰","STREET":"崇德二十七街","SECT":" ","MAREA":" ","LANE":" ","ALLEY":" ","HOUSE_NO":"７號","E_COORD97":170836.85000000001,"N_COORD97":2540294.54,"ADDRESS":"崇德二十七街７號","OBJECTID":631023},"geometry":{"x":170836.85000000056,"y":2540294.540000001}},{"attributes":{"ID":631051,"DIS_CODE":0,"TOWNNAME":"東區","LI":"東智里","LIN":"4鄰","STREET":"崇德二十七街","SECT":" ","MAREA":" ","LANE":" ","ALLEY":" ","HOUSE_NO":"５號","E_COORD97":170833.17000000001,"N_COORD97":2540294.6800000002,"ADDRESS":"崇德二十七街５號","OBJECTID":631024},"geometry":{"x":170833.17000000086,"y":2540294.6800000016}},{"attributes":{"ID":631052,"DIS_CODE":0,"TOWNNAME":"東區","LI":"東智里","LIN":"9鄰","STREET":"崇德三十街","SECT":" ","MAREA":" ","LANE":" ","ALLEY":" ","HOUSE_NO":"７５號","E_COORD97":170999.14999999999,"N_COORD97":2540170.75,"ADDRESS":"崇德三十街７５號","OBJECTID":631025},"geometry":{"x":170999.15000000037,"y":2540170.75}},{"attributes":{"ID":631053,"DIS_CODE":0,"TOWNNAME":"東區","LI":"東智里","LIN":"9鄰","STREET":"崇德三十街","SECT":" ","MAREA":" ","LANE":" ","ALLEY":" ","HOUSE_NO":"７３號","E_COORD97":170995.34,"N_COORD97":2540170.3599999999,"ADDRESS":"崇德三十街７３號","OBJECTID":631026},"geometry":{"x":170995.33999999985,"y":2540170.3600000013}},{"attributes":{"ID":631054,"DIS_CODE":0,"TOWNNAME":"東區","LI":"東智里","LIN":"9鄰","STREET":"崇德三十街","SECT":" ","MAREA":" ","LANE":" ","ALLEY":" ","HOUSE_NO":"７１號","E_COORD97":170991.14000000001,"N_COORD97":2540169.98,"ADDRESS":"崇德三十街７１號","OBJECTID":631027},"geometry":{"x":170991.1400000006,"y":2540169.9800000042}},{"attributes":{"ID":631055,"DIS_CODE":0,"TOWNNAME":"東區","LI":"東智里","LIN":"9鄰","STREET":"崇德三十街","SECT":" ","MAREA":" ","LANE":" ","ALLEY":" ","HOUSE_NO":"６９號","E_COORD97":170985.98999999999,"N_COORD97":2540169.79,"ADDRESS":"崇德三十街６９號","OBJECTID":631028},"geometry":{"x":170985.99000000115,"y":2540169.7900000028}},{"attributes":{"ID":631056,"DIS_CODE":0,"TOWNNAME":"東區","LI":"東智里","LIN":"9鄰","STREET":"崇德三十街","SECT":" ","MAREA":" ","LANE":" ","ALLEY":" ","HOUSE_NO":"６７號","E_COORD97":170979.13,"N_COORD97":2540170.1699999999,"ADDRESS":"崇德三十街６７號","OBJECTID":631029},"geometry":{"x":170979.13000000082,"y":2540170.1699999999}},{"attributes":{"ID":631057,"DIS_CODE":0,"TOWNNAME":"東區","LI":"東智里","LIN":"9鄰","STREET":"崇德三十街","SECT":" ","MAREA":" ","LANE":" ","ALLEY":" ","HOUSE_NO":"６５號","E_COORD97":170973.20999999999,"N_COORD97":2540169.4100000001,"ADDRESS":"崇德三十街６５號","OBJECTID":631030},"geometry":{"x":170973.20999999903,"y":2540169.4100000001}},{"attributes":{"ID":631058,"DIS_CODE":0,"TOWNNAME":"東區","LI":"東智里","LIN":"9鄰","STREET":"崇德三十街","SECT":" ","MAREA":" ","LANE":" ","ALLEY":" ","HOUSE_NO":"６３號","E_COORD97":170969.20999999999,"N_COORD97":2540169.0299999998,"ADDRESS":"崇德三十街６３號","OBJECTID":631031},"geometry":{"x":170969.20999999996,"y":2540169.0300000012}},{"attributes":{"ID":631059,"DIS_CODE":0,"TOWNNAME":"東區","LI":"東智里","LIN":"9鄰","STREET":"崇德三十街","SECT":" ","MAREA":" ","LANE":" ","ALLEY":" ","HOUSE_NO":"６１號","E_COORD97":170965.01000000001,"N_COORD97":2540168.46,"ADDRESS":"崇德三十街６１號","OBJECTID":631032},"geometry":{"x":170965.01000000071,"y":2540168.4600000028}},{"attributes":{"ID":631060,"DIS_CODE":0,"TOWNNAME":"東區","LI":"東智里","LIN":"9鄰","STREET":"崇德三十街","SECT":" ","MAREA":" ","LANE":" ","ALLEY":" ","HOUSE_NO":"５９號","E_COORD97":170960.44,"N_COORD97":2540168.46,"ADDRESS":"崇德三十街５９號","OBJECTID":631033},"geometry":{"x":170960.44000000227,"y":2540168.4600000028}},{"attributes":{"ID":631061,"DIS_CODE":0,"TOWNNAME":"東區","LI":"東智里","LIN":"9鄰","STREET":"崇德三十街","SECT":" ","MAREA":" ","LANE":" ","ALLEY":" ","HOUSE_NO":"５７號","E_COORD97":170955.85999999999,"N_COORD97":2540168.0800000001,"ADDRESS":"崇德三十街５７號","OBJECTID":631034},"geometry":{"x":170955.8600000022,"y":2540168.0800000001}},{"attributes":{"ID":631062,"DIS_CODE":0,"TOWNNAME":"東區","LI":"東智里","LIN":"9鄰","STREET":"崇德三十街","SECT":" ","MAREA":" ","LANE":" ","ALLEY":" ","HOUSE_NO":"８３號","E_COORD97":171018.60999999999,"N_COORD97":2540172.0800000001,"ADDRESS":"崇德三十街８３號","OBJECTID":631035},"geometry":{"x":171018.61000000127,"y":2540172.0799999982}},{"attributes":{"ID":631063,"DIS_CODE":0,"TOWNNAME":"東區","LI":"東智里","LIN":"9鄰","STREET":"崇德三十街","SECT":" ","MAREA":" ","LANE":" ","ALLEY":" ","HOUSE_NO":"５５號","E_COORD97":170950.89999999999,"N_COORD97":2540167.1299999999,"ADDRESS":"崇德三十街５５號","OBJECTID":631036},"geometry":{"x":170950.9000000013,"y":2540167.1299999971}},{"attributes":{"ID":631064,"DIS_CODE":0,"TOWNNAME":"東區","LI":"東智里","LIN":"9鄰","STREET":"崇德三十街","SECT":" ","MAREA":" ","LANE":" ","ALLEY":" ","HOUSE_NO":"５３號","E_COORD97":170946.32000000001,"N_COORD97":2540166.9399999999,"ADDRESS":"崇德三十街５３號","OBJECTID":631037},"geometry":{"x":170946.32000000123,"y":2540166.9400000013}},{"attributes":{"ID":631065,"DIS_CODE":0,"TOWNNAME":"東區","LI":"東智里","LIN":"9鄰","STREET":"崇德三十街","SECT":" ","MAREA":" ","LANE":" ","ALLEY":" ","HOUSE_NO":"５１號","E_COORD97":170936.59,"N_COORD97":2540168.27,"ADDRESS":"崇德三十街５１號","OBJECTID":631038},"geometry":{"x":170936.58999999892,"y":2540168.2700000014}},{"attributes":{"ID":631066,"DIS_CODE":0,"TOWNNAME":"東區","LI":"東智里","LIN":"14鄰","STREET":"崇德三十二街","SECT":" ","MAREA":" ","LANE":" ","ALLEY":" ","HOUSE_NO":"１４號","E_COORD97":170842.57999999999,"N_COORD97":2540092.7400000002,"ADDRESS":"崇德三十二街１４號","OBJECTID":631039},"geometry":{"x":170842.58000000101,"y":2540092.7400000002}},{"attributes":{"ID":631067,"DIS_CODE":0,"TOWNNAME":"東區","LI":"崇德里","LIN":"20鄰","STREET":"崇明十四街","SECT":" ","MAREA":" ","LANE":" ","ALLEY":" ","HOUSE_NO":"２９號","E_COORD97":170571.76999999999,"N_COORD97":2541569.6600000001,"ADDRESS":"崇明十四街２９號","OBJECTID":631040},"geometry":{"x":170571.76999999955,"y":2541569.660000002}},{"attributes":{"ID":631068,"DIS_CODE":0,"TOWNNAME":"東區","LI":"崇德里","LIN":"20鄰","STREET":"崇明十四街","SECT":" ","MAREA":" ","LANE":" ","ALLEY":" ","HOUSE_NO":"２９之１號","E_COORD97":170574.32000000001,"N_COORD97":2541573.9199999999,"ADDRESS":"崇明十四街２９之１號","OBJECTID":631041},"geometry":{"x":170574.3200000003,"y":2541573.9200000018}},{"attributes":{"ID":631069,"DIS_CODE":0,"TOWNNAME":"東區","LI":"大學里","LIN":"20鄰","STREET":"長榮路","SECT":"三段","MAREA":" ","LANE":" ","ALLEY":" ","HOUSE_NO":"３３號","E_COORD97":170192.16,"N_COORD97":2543776.21,"ADDRESS":"長榮路三段３３號","OBJECTID":631042},"geometry":{"x":170192.16000000015,"y":2543776.2100000046}},{"attributes":{"ID":631070,"DIS_CODE":0,"TOWNNAME":"東區","LI":"仁和里","LIN":"13鄰","STREET":"仁東街","SECT":" ","MAREA":" ","LANE":" ","ALLEY":" ","HOUSE_NO":"１０１號","E_COORD97":171661.48000000001,"N_COORD97":2541224.7799999998,"ADDRESS":"仁東街１０１號","OBJECTID":631043},"geometry":{"x":171661.48000000045,"y":2541224.7800000031}},{"attributes":{"ID":631071,"DIS_CODE":0,"TOWNNAME":"東區","LI":"仁和里","LIN":"13鄰","STREET":"仁東街","SECT":" ","MAREA":" ","LANE":" ","ALLEY":" ","HOUSE_NO":"１０３號","E_COORD97":171665.22,"N_COORD97":2541217.8799999999,"ADDRESS":"仁東街１０３號","OBJECTID":631044},"geometry":{"x":171665.22000000067,"y":2541217.8800000008}},{"attributes":{"ID":631072,"DIS_CODE":0,"TOWNNAME":"東區","LI":"仁和里","LIN":"13鄰","STREET":"仁東街","SECT":" ","MAREA":" ","LANE":" ","ALLEY":" ","HOUSE_NO":"１０５號","E_COORD97":171668.97,"N_COORD97":2541209.8300000001,"ADDRESS":"仁東街１０５號","OBJECTID":631045},"geometry":{"x":171668.96999999974,"y":2541209.8300000001}},{"attributes":{"ID":631073,"DIS_CODE":0,"TOWNNAME":"東區","LI":"和平里","LIN":"4鄰","STREET":"東門路","SECT":"三段","MAREA":" ","LANE":" ","ALLEY":" ","HOUSE_NO":"３１２號","E_COORD97":171820.07000000001,"N_COORD97":2541792.8300000001,"ADDRESS":"東門路三段３１２號","OBJECTID":631046},"geometry":{"x":171820.0700000003,"y":2541792.8300000019}},{"attributes":{"ID":631074,"DIS_CODE":0,"TOWNNAME":"東區","LI":"東光里","LIN":"32鄰","STREET":"東平路","SECT":" ","MAREA":" ","LANE":" ","ALLEY":" ","HOUSE_NO":"１０１號","E_COORD97":171152.60000000001,"N_COORD97":2543941.8599999999,"ADDRESS":"東平路１０１號","OBJECTID":631047},"geometry":{"x":171152.59999999963,"y":2543941.8599999994}},{"attributes":{"ID":631075,"DIS_CODE":0,"TOWNNAME":"東區","LI":"東光里","LIN":"32鄰","STREET":"東平路","SECT":" ","MAREA":" ","LANE":" ","ALLEY":" ","HOUSE_NO":"１０３號","E_COORD97":171148.14000000001,"N_COORD97":2543944.0899999999,"ADDRESS":"東平路１０３號","OBJECTID":631048},"geometry":{"x":171148.14000000153,"y":2543944.0899999999}},{"attributes":{"ID":631076,"DIS_CODE":0,"TOWNNAME":"東區","LI":"東光里","LIN":"32鄰","STREET":"東平路","SECT":" ","MAREA":" ","LANE":" ","ALLEY":" ","HOUSE_NO":"１０５號","E_COORD97":171142.92999999999,"N_COORD97":2543948.1000000001,"ADDRESS":"東平路１０５號","OBJECTID":631049},"geometry":{"x":171142.93000000063,"y":2543948.0999999996}},{"attributes":{"ID":631077,"DIS_CODE":0,"TOWNNAME":"東區","LI":"東光里","LIN":"32鄰","STREET":"東平路","SECT":" ","MAREA":" ","LANE":" ","ALLEY":" ","HOUSE_NO":"１０７號","E_COORD97":171138.17000000001,"N_COORD97":2543945.1299999999,"ADDRESS":"東平路１０７號","OBJECTID":631050},"geometry":{"x":171138.17000000086,"y":2543945.1300000008}},{"attributes":{"ID":631078,"DIS_CODE":0,"TOWNNAME":"東區","LI":"東光里","LIN":"32鄰","STREET":"東平路","SECT":" ","MAREA":" ","LANE":" ","ALLEY":" ","HOUSE_NO":"１０９之１號","E_COORD97":171128.35999999999,"N_COORD97":2543945.1299999999,"ADDRESS":"東平路１０９之１號","OBJECTID":631051},"geometry":{"x":171128.36000000034,"y":2543945.1300000008}},{"attributes":{"ID":631079,"DIS_CODE":0,"TOWNNAME":"永康區","LI":"埔園里","LIN":"39鄰","STREET":"龍國街","SECT":" ","MAREA":" ","LANE":" ","ALLEY":" ","HOUSE_NO":"１０號","E_COORD97":174017.78,"N_COORD97":2548091.7400000002,"ADDRESS":"龍國街１０號","OBJECTID":631052},"geometry":{"x":174017.78000000212,"y":2548091.7400000021}},{"attributes":{"ID":631080,"DIS_CODE":0,"TOWNNAME":"東區","LI":"東光里","LIN":"32鄰","STREET":"東平路","SECT":" ","MAREA":" ","LANE":" ","ALLEY":" ","HOUSE_NO":"１０９之２號","E_COORD97":171123.14999999999,"N_COORD97":2543948.3999999999,"ADDRESS":"東平路１０９之２號","OBJECTID":631053},"geometry":{"x":171123.15000000037,"y":2543948.4000000022}},{"attributes":{"ID":631081,"DIS_CODE":0,"TOWNNAME":"東區","LI":"東光里","LIN":"32鄰","STREET":"東平路","SECT":" ","MAREA":" ","LANE":" ","ALLEY":" ","HOUSE_NO":"１０９號","E_COORD97":171132.82000000001,"N_COORD97":2543948.3999999999,"ADDRESS":"東平路１０９號","OBJECTID":631054},"geometry":{"x":171132.82000000123,"y":2543948.4000000022}},{"attributes":{"ID":631082,"DIS_CODE":0,"TOWNNAME":"白河區","LI":"永安里","LIN":"6鄰","STREET":"六合街","SECT":" ","MAREA":" ","LANE":" ","ALLEY":" ","HOUSE_NO":"９６號","E_COORD97":189846.82000000001,"N_COORD97":2583004.9300000002,"ADDRESS":"六合街９６號","OBJECTID":631055},"geometry":{"x":189846.8200000003,"y":2583004.9300000016}},{"attributes":{"ID":631083,"DIS_CODE":0,"TOWNNAME":"白河區","LI":"永安里","LIN":"8鄰","STREET":"六合街","SECT":" ","MAREA":" ","LANE":" ","ALLEY":" ","HOUSE_NO":"１３１號","E_COORD97":189717.53,"N_COORD97":2582963.5099999998,"ADDRESS":"六合街１３１號","OBJECTID":631056},"geometry":{"x":189717.53000000119,"y":2582963.5100000016}},{"attributes":{"ID":631084,"DIS_CODE":0,"TOWNNAME":"白河區","LI":"永安里","LIN":"8鄰","STREET":"六合街","SECT":" ","MAREA":" ","LANE":" ","ALLEY":" ","HOUSE_NO":"１３３號","E_COORD97":189712.51000000001,"N_COORD97":2582962.6699999999,"ADDRESS":"六合街１３３號","OBJECTID":631057},"geometry":{"x":189712.50999999978,"y":2582962.6700000018}},{"attributes":{"ID":631085,"DIS_CODE":0,"TOWNNAME":"白河區","LI":"永安里","LIN":"8鄰","STREET":"六合街","SECT":" ","MAREA":" ","LANE":" ","ALLEY":" ","HOUSE_NO":"１３５號","E_COORD97":189704.53,"N_COORD97":2582960.2000000002,"ADDRESS":"六合街１３５號","OBJECTID":631058},"geometry":{"x":189704.53000000026,"y":2582960.1999999993}},{"attributes":{"ID":631086,"DIS_CODE":0,"TOWNNAME":"仁德區","LI":"新田里","LIN":"13鄰","STREET":"北保二街","SECT":" ","MAREA":" ","LANE":" ","ALLEY":" ","HOUSE_NO":"１２號","E_COORD97":173219.09,"N_COORD97":2539408,"ADDRESS":"北保二街１２號","OBJECTID":631059},"geometry":{"x":173219.09000000078,"y":2539408.0000000019}},{"attributes":{"ID":631087,"DIS_CODE":0,"TOWNNAME":"仁德區","LI":"新田里","LIN":"12鄰","STREET":"民安路","SECT":"一段","MAREA":" ","LANE":" ","ALLEY":" ","HOUSE_NO":"４３５號","E_COORD97":173156.07000000001,"N_COORD97":2539372.8199999998,"ADDRESS":"民安路一段４３５號","OBJECTID":631060},"geometry":{"x":173156.0700000003,"y":2539372.8200000003}},{"attributes":{"ID":631088,"DIS_CODE":0,"TOWNNAME":"仁德區","LI":"新田里","LIN":"10鄰","STREET":"中正路","SECT":"二段","MAREA":" ","LANE":" ","ALLEY":" ","HOUSE_NO":"４９３號","E_COORD97":173346.42999999999,"N_COORD97":2539585.02,"ADDRESS":"中正路二段４９３號","OBJECTID":631061},"geometry":{"x":173346.43000000156,"y":2539585.0199999996}},{"attributes":{"ID":631089,"DIS_CODE":0,"TOWNNAME":"仁德區","LI":"新田里","LIN":"11鄰","STREET":"北保一街","SECT":" ","MAREA":" ","LANE":" ","ALLEY":" ","HOUSE_NO":"１０４號","E_COORD97":173150.26000000001,"N_COORD97":2539588.75,"ADDRESS":"北保一街１０４號","OBJECTID":631062},"geometry":{"x":173150.25999999978,"y":2539588.7500000019}},{"attributes":{"ID":631090,"DIS_CODE":0,"TOWNNAME":"仁德區","LI":"新田里","LIN":"4鄰","STREET":"新田路","SECT":" ","MAREA":" ","LANE":" ","ALLEY":" ","HOUSE_NO":"１１９號","E_COORD97":174467.73000000001,"N_COORD97":2539312.4900000002,"ADDRESS":"新田路１１９號","OBJECTID":631063},"geometry":{"x":174467.73000000138,"y":2539312.4900000021}},{"attributes":{"ID":631091,"DIS_CODE":0,"TOWNNAME":"仁德區","LI":"新田里","LIN":"4鄰","STREET":"新田路","SECT":" ","MAREA":" ","LANE":" ","ALLEY":" ","HOUSE_NO":"１０３號","E_COORD97":174487.04999999999,"N_COORD97":2539182.25,"ADDRESS":"新田路１０３號","OBJECTID":631064},"geometry":{"x":174487.05000000075,"y":2539182.2500000019}},{"attributes":{"ID":631092,"DIS_CODE":0,"TOWNNAME":"仁德區","LI":"保安里","LIN":"18鄰","STREET":"中正路","SECT":"一段","MAREA":" ","LANE":" ","ALLEY":" ","HOUSE_NO":"６５號","E_COORD97":170844.85000000001,"N_COORD97":2535542.0299999998,"ADDRESS":"中正路一段６５號","OBJECTID":631065},"geometry":{"x":170844.85000000149,"y":2535542.0300000012}},{"attributes":{"ID":631093,"DIS_CODE":0,"TOWNNAME":"仁德區","LI":"後壁里","LIN":"20鄰","STREET":"中正路","SECT":"二段","MAREA":" ","LANE":" ","ALLEY":" ","HOUSE_NO":"１１６號","E_COORD97":173189.62,"N_COORD97":2538515.77,"ADDRESS":"中正路二段１１６號","OBJECTID":631066},"geometry":{"x":173189.62000000197,"y":2538515.7699999977}},{"attributes":{"ID":631094,"DIS_CODE":0,"TOWNNAME":"仁德區","LI":"新田里","LIN":"4鄰","STREET":"勝利一街","SECT":" ","MAREA":" ","LANE":" ","ALLEY":" ","HOUSE_NO":"３號","E_COORD97":173941.06,"N_COORD97":2539664.5,"ADDRESS":"勝利一街３號","OBJECTID":631067},"geometry":{"x":173941.06000000052,"y":2539664.5000000019}},{"attributes":{"ID":631095,"DIS_CODE":0,"TOWNNAME":"仁德區","LI":"後壁里","LIN":"38鄰","STREET":"德安路","SECT":" ","MAREA":" ","LANE":" ","ALLEY":" ","HOUSE_NO":"１９號","E_COORD97":173432.20000000001,"N_COORD97":2539176.0699999998,"ADDRESS":"德安路１９號","OBJECTID":631068},"geometry":{"x":173432.20000000112,"y":2539176.070000004}},{"attributes":{"ID":631096,"DIS_CODE":0,"TOWNNAME":"仁德區","LI":"後壁里","LIN":"18鄰","STREET":"中正路","SECT":"二段","MAREA":" ","LANE":" ","ALLEY":" ","HOUSE_NO":"２０２號","E_COORD97":173232.28,"N_COORD97":2538744.0299999998,"ADDRESS":"中正路二段２０２號","OBJECTID":631069},"geometry":{"x":173232.28000000026,"y":2538744.0299999993}},{"attributes":{"ID":631097,"DIS_CODE":0,"TOWNNAME":"仁德區","LI":"太子里","LIN":"26鄰","STREET":"長興五街","SECT":" ","MAREA":" ","LANE":" ","ALLEY":" ","HOUSE_NO":"４號","E_COORD97":173576.35000000001,"N_COORD97":2543572,"ADDRESS":"長興五街４號","OBJECTID":631070},"geometry":{"x":173576.35000000056,"y":2543572}},{"attributes":{"ID":631098,"DIS_CODE":0,"TOWNNAME":"仁德區","LI":"太子里","LIN":"26鄰","STREET":"長興五街","SECT":" ","MAREA":" ","LANE":" ","ALLEY":" ","HOUSE_NO":"１０號","E_COORD97":173577.87,"N_COORD97":2543583.5,"ADDRESS":"長興五街１０號","OBJECTID":631071},"geometry":{"x":173577.87000000197,"y":2543583.5000000037}},{"attributes":{"ID":631099,"DIS_CODE":0,"TOWNNAME":"仁德區","LI":"後壁里","LIN":"24鄰","STREET":"中正路","SECT":"二段","MAREA":" ","LANE":" ","ALLEY":" ","HOUSE_NO":"２５９號","E_COORD97":173227.20999999999,"N_COORD97":2538956.0299999998,"ADDRESS":"中正路二段２５９號","OBJECTID":631072},"geometry":{"x":173227.20999999996,"y":2538956.0300000012}},{"attributes":{"ID":631100,"DIS_CODE":0,"TOWNNAME":"仁德區","LI":"後壁里","LIN":"32鄰","STREET":"德洋路","SECT":" ","MAREA":" ","LANE":" ","ALLEY":" ","HOUSE_NO":"２４６號","E_COORD97":172556.56,"N_COORD97":2539573.52,"ADDRESS":"德洋路２４６號","OBJECTID":631073},"geometry":{"x":172556.55999999959,"y":2539573.5200000014}},{"attributes":{"ID":631101,"DIS_CODE":0,"TOWNNAME":"仁德區","LI":"保安里","LIN":"14鄰","STREET":"文賢路","SECT":"一段","MAREA":" ","LANE":" ","ALLEY":" ","HOUSE_NO":"６０４號","E_COORD97":171124.95000000001,"N_COORD97":2536751.3199999998,"ADDRESS":"文賢路一段６０４號","OBJECTID":631074},"geometry":{"x":171124.95000000112,"y":2536751.3200000022}},{"attributes":{"ID":631102,"DIS_CODE":0,"TOWNNAME":"仁德區","LI":"新田里","LIN":"5鄰","STREET":"勝利二街","SECT":" ","MAREA":" ","LANE":" ","ALLEY":" ","HOUSE_NO":"３１號","E_COORD97":174864.42999999999,"N_COORD97":2539317.75,"ADDRESS":"勝利二街３１號","OBJECTID":631075},"geometry":{"x":174864.43000000063,"y":2539317.7500000019}},{"attributes":{"ID":631103,"DIS_CODE":0,"TOWNNAME":"仁德區","LI":"新田里","LIN":"18鄰","STREET":"民安路","SECT":"二段","MAREA":" ","LANE":" ","ALLEY":" ","HOUSE_NO":"１３５號","E_COORD97":173646.82999999999,"N_COORD97":2539115.3100000001,"ADDRESS":"民安路二段１３５號","OBJECTID":631076},"geometry":{"x":173646.83000000007,"y":2539115.3100000005}},{"attributes":{"ID":631104,"DIS_CODE":0,"TOWNNAME":"仁德區","LI":"後壁里","LIN":"18鄰","STREET":"中正路","SECT":"二段","MAREA":" ","LANE":" ","ALLEY":" ","HOUSE_NO":"２０４號","E_COORD97":173232.32000000001,"N_COORD97":2538749.5299999998,"ADDRESS":"中正路二段２０４號","OBJECTID":631077},"geometry":{"x":173232.3200000003,"y":2538749.5300000012}},{"attributes":{"ID":631105,"DIS_CODE":0,"TOWNNAME":"仁德區","LI":"後壁里","LIN":"32鄰","STREET":"德洋路","SECT":" ","MAREA":" ","LANE":" ","ALLEY":" ","HOUSE_NO":"２４１號","E_COORD97":172530.76000000001,"N_COORD97":2539556.0099999998,"ADDRESS":"德洋路２４１號","OBJECTID":631078},"geometry":{"x":172530.76000000164,"y":2539556.0100000016}},{"attributes":{"ID":631106,"DIS_CODE":0,"TOWNNAME":"仁德區","LI":"保安里","LIN":"4鄰","STREET":"文賢路","SECT":"一段","MAREA":" ","LANE":" ","ALLEY":" ","HOUSE_NO":"８５４號","E_COORD97":171502.29999999999,"N_COORD97":2536110.5699999998,"ADDRESS":"文賢路一段８５４號","OBJECTID":631079},"geometry":{"x":171502.29999999981,"y":2536110.5700000003}},{"attributes":{"ID":631107,"DIS_CODE":0,"TOWNNAME":"仁德區","LI":"後壁里","LIN":"20鄰","STREET":"中正路","SECT":"二段","MAREA":" ","LANE":" ","ALLEY":" ","HOUSE_NO":"１５６號","E_COORD97":173219.66,"N_COORD97":2538608.77,"ADDRESS":"中正路二段１５６號","OBJECTID":631080},"geometry":{"x":173219.66000000015,"y":2538608.7700000014}},{"attributes":{"ID":631108,"DIS_CODE":0,"TOWNNAME":"永康區","LI":"六合里","LIN":"4鄰","STREET":"六合路","SECT":" ","MAREA":" ","LANE":" ","ALLEY":" ","HOUSE_NO":"９６號","E_COORD97":171121.64000000001,"N_COORD97":2545857.27,"ADDRESS":"六合路９６號","OBJECTID":631081},"geometry":{"x":171121.6400000006,"y":2545857.2700000014}},{"attributes":{"ID":631109,"DIS_CODE":0,"TOWNNAME":"仁德區","LI":"後壁里","LIN":"38鄰","STREET":"德安路","SECT":" ","MAREA":" ","LANE":" ","ALLEY":" ","HOUSE_NO":"６８號","E_COORD97":173432.60000000001,"N_COORD97":2539144.5600000001,"ADDRESS":"德安路６８號","OBJECTID":631082},"geometry":{"x":173432.59999999963,"y":2539144.5600000005}},{"attributes":{"ID":631110,"DIS_CODE":0,"TOWNNAME":"仁德區","LI":"後壁里","LIN":"38鄰","STREET":"德安路","SECT":" ","MAREA":" ","LANE":" ","ALLEY":" ","HOUSE_NO":"６４號","E_COORD97":173427.67000000001,"N_COORD97":2539151.0600000001,"ADDRESS":"德安路６４號","OBJECTID":631083},"geometry":{"x":173427.66999999993,"y":2539151.0600000005}},{"attributes":{"ID":631111,"DIS_CODE":0,"TOWNNAME":"仁德區","LI":"新田里","LIN":"18鄰","STREET":"民安路","SECT":"二段","MAREA":" ","LANE":" ","ALLEY":" ","HOUSE_NO":"１２９號","E_COORD97":173631.23999999999,"N_COORD97":2539117.3100000001,"ADDRESS":"民安路二段１２９號","OBJECTID":631084},"geometry":{"x":173631.24000000022,"y":2539117.3100000024}},{"attributes":{"ID":631112,"DIS_CODE":0,"TOWNNAME":"仁德區","LI":"太子里","LIN":"20鄰","STREET":"長興四街","SECT":" ","MAREA":" ","LANE":" ","ALLEY":" ","HOUSE_NO":"５２之１號","E_COORD97":173958.01999999999,"N_COORD97":2543561.79,"ADDRESS":"長興四街５２之１號","OBJECTID":631085},"geometry":{"x":173958.02000000048,"y":2543561.790000001}},{"attributes":{"ID":631113,"DIS_CODE":0,"TOWNNAME":"楠西區","LI":"楠西里","LIN":"25鄰","STREET":"四維路","SECT":" ","MAREA":" ","LANE":" ","ALLEY":" ","HOUSE_NO":"７號","E_COORD97":197318.35999999999,"N_COORD97":2563484.25,"ADDRESS":"四維路７號","OBJECTID":631086},"geometry":{"x":197318.36000000127,"y":2563484.2500000019}},{"attributes":{"ID":631114,"DIS_CODE":0,"TOWNNAME":"仁德區","LI":"新田里","LIN":"4鄰","STREET":"勝利一街","SECT":" ","MAREA":" ","LANE":" ","ALLEY":" ","HOUSE_NO":"２５號","E_COORD97":173870.42999999999,"N_COORD97":2539501.2599999998,"ADDRESS":"勝利一街２５號","OBJECTID":631087},"geometry":{"x":173870.43000000156,"y":2539501.2599999998}},{"attributes":{"ID":631115,"DIS_CODE":0,"TOWNNAME":"仁德區","LI":"新田里","LIN":"18鄰","STREET":"民安路","SECT":"二段","MAREA":" ","LANE":" ","ALLEY":" ","HOUSE_NO":"１８５之３號","E_COORD97":173744.38,"N_COORD97":2539045.5600000001,"ADDRESS":"民安路二段１８５之３號","OBJECTID":631088},"geometry":{"x":173744.38000000082,"y":2539045.5600000024}},{"attributes":{"ID":631116,"DIS_CODE":0,"TOWNNAME":"仁德區","LI":"後壁里","LIN":"18鄰","STREET":"德南路","SECT":" ","MAREA":" ","LANE":" ","ALLEY":" ","HOUSE_NO":"３４號","E_COORD97":173330.87,"N_COORD97":2538775.77,"ADDRESS":"德南路３４號","OBJECTID":631089},"geometry":{"x":173330.87000000104,"y":2538775.7699999996}},{"attributes":{"ID":631117,"DIS_CODE":0,"TOWNNAME":"仁德區","LI":"後壁里","LIN":"20鄰","STREET":"中正路","SECT":"二段","MAREA":" ","LANE":" ","ALLEY":" ","HOUSE_NO":"１５８號","E_COORD97":173221.69,"N_COORD97":2538612.52,"ADDRESS":"中正路二段１５８號","OBJECTID":631090},"geometry":{"x":173221.69000000227,"y":2538612.5200000033}},{"attributes":{"ID":631118,"DIS_CODE":0,"TOWNNAME":"仁德區","LI":"後壁里","LIN":"32鄰","STREET":"德洋路","SECT":" ","MAREA":" ","LANE":" ","ALLEY":" ","HOUSE_NO":"２３７號","E_COORD97":172527.23999999999,"N_COORD97":2539547.5099999998,"ADDRESS":"德洋路２３７號","OBJECTID":631091},"geometry":{"x":172527.24000000022,"y":2539547.5099999998}},{"attributes":{"ID":631119,"DIS_CODE":0,"TOWNNAME":"仁德區","LI":"後壁里","LIN":"32鄰","STREET":"德洋路","SECT":" ","MAREA":" ","LANE":" ","ALLEY":" ","HOUSE_NO":"２３４號","E_COORD97":172543.85999999999,"N_COORD97":2539543.7599999998,"ADDRESS":"德洋路２３４號","OBJECTID":631092},"geometry":{"x":172543.86000000034,"y":2539543.7600000035}},{"attributes":{"ID":631120,"DIS_CODE":0,"TOWNNAME":"仁德區","LI":"後壁里","LIN":"24鄰","STREET":"中正路","SECT":"二段","MAREA":" ","LANE":" ","ALLEY":" ","HOUSE_NO":"２６９號","E_COORD97":173228.19,"N_COORD97":2538988.7799999998,"ADDRESS":"中正路二段２６９號","OBJECTID":631093},"geometry":{"x":173228.19000000041,"y":2538988.7799999993}},{"attributes":{"ID":631121,"DIS_CODE":0,"TOWNNAME":"仁德區","LI":"新田里","LIN":"5鄰","STREET":"勝利二街","SECT":" ","MAREA":" ","LANE":" ","ALLEY":" ","HOUSE_NO":"３３號","E_COORD97":174862.04000000001,"N_COORD97":2539311,"ADDRESS":"勝利二街３３號","OBJECTID":631094},"geometry":{"x":174862.04000000097,"y":2539311}},{"attributes":{"ID":631122,"DIS_CODE":0,"TOWNNAME":"仁德區","LI":"後壁里","LIN":"38鄰","STREET":"德安路","SECT":" ","MAREA":" ","LANE":" ","ALLEY":" ","HOUSE_NO":"１５號","E_COORD97":173427.14999999999,"N_COORD97":2539183.5699999998,"ADDRESS":"德安路１５號","OBJECTID":631095},"geometry":{"x":173427.15000000224,"y":2539183.5700000022}},{"attributes":{"ID":631123,"DIS_CODE":0,"TOWNNAME":"仁德區","LI":"成功里","LIN":"18鄰","STREET":"全福路","SECT":" ","MAREA":" ","LANE":" ","ALLEY":" ","HOUSE_NO":"８５號","E_COORD97":171061.51999999999,"N_COORD97":2539313.7400000002,"ADDRESS":"全福路８５號","OBJECTID":631096},"geometry":{"x":171061.51999999955,"y":2539313.7400000039}},{"attributes":{"ID":631124,"DIS_CODE":0,"TOWNNAME":"仁德區","LI":"成功里","LIN":"18鄰","STREET":"全福路","SECT":" ","MAREA":" ","LANE":" ","ALLEY":" ","HOUSE_NO":"９１號","E_COORD97":171073.59,"N_COORD97":2539312.4900000002,"ADDRESS":"全福路９１號","OBJECTID":631097},"geometry":{"x":171073.58999999985,"y":2539312.4900000021}},{"attributes":{"ID":631125,"DIS_CODE":0,"TOWNNAME":"仁德區","LI":"成功里","LIN":"46鄰","STREET":"文賢路","SECT":"一段","MAREA":" ","LANE":" ","ALLEY":" ","HOUSE_NO":"３９號","E_COORD97":170230.59,"N_COORD97":2538265.3300000001,"ADDRESS":"文賢路一段３９號","OBJECTID":631098},"geometry":{"x":170230.59000000078,"y":2538265.3300000038}},{"attributes":{"ID":631126,"DIS_CODE":0,"TOWNNAME":"仁德區","LI":"後壁里","LIN":"20鄰","STREET":"中正路","SECT":"二段","MAREA":" ","LANE":" ","ALLEY":" ","HOUSE_NO":"１２４號","E_COORD97":173195.07999999999,"N_COORD97":2538531.02,"ADDRESS":"中正路二段１２４號","OBJECTID":631099},"geometry":{"x":173195.08000000194,"y":2538531.0199999977}},{"attributes":{"ID":631127,"DIS_CODE":0,"TOWNNAME":"仁德區","LI":"後壁里","LIN":"32鄰","STREET":"德洋路","SECT":" ","MAREA":" ","LANE":" ","ALLEY":" ","HOUSE_NO":"２４７號","E_COORD97":172536.79000000001,"N_COORD97":2539568.27,"ADDRESS":"德洋路２４７號","OBJECTID":631100},"geometry":{"x":172536.79000000004,"y":2539568.2700000014}},{"attributes":{"ID":631128,"DIS_CODE":0,"TOWNNAME":"仁德區","LI":"成功里","LIN":"4鄰","STREET":"成功三街","SECT":" ","MAREA":" ","LANE":" ","ALLEY":" ","HOUSE_NO":"１０６號","E_COORD97":171169.13,"N_COORD97":2539773.0099999998,"ADDRESS":"成功三街１０６號","OBJECTID":631101},"geometry":{"x":171169.13000000082,"y":2539773.0100000016}},{"attributes":{"ID":631129,"DIS_CODE":0,"TOWNNAME":"仁德區","LI":"後壁里","LIN":"38鄰","STREET":"德安路","SECT":" ","MAREA":" ","LANE":" ","ALLEY":" ","HOUSE_NO":"１７號","E_COORD97":173429.45000000001,"N_COORD97":2539179.8199999998,"ADDRESS":"德安路１７號","OBJECTID":631102},"geometry":{"x":173429.45000000019,"y":2539179.8200000003}},{"attributes":{"ID":631130,"DIS_CODE":0,"TOWNNAME":"仁德區","LI":"成功里","LIN":"18鄰","STREET":"全福路","SECT":" ","MAREA":" ","LANE":" ","ALLEY":" ","HOUSE_NO":"９３號","E_COORD97":171078.09,"N_COORD97":2539312.2400000002,"ADDRESS":"全福路９３號","OBJECTID":631103},"geometry":{"x":171078.09000000078,"y":2539312.2400000002}},{"attributes":{"ID":631131,"DIS_CODE":0,"TOWNNAME":"仁德區","LI":"新田里","LIN":"4鄰","STREET":"勝利一街","SECT":" ","MAREA":" ","LANE":" ","ALLEY":" ","HOUSE_NO":"１號","E_COORD97":173941.51000000001,"N_COORD97":2539705.0099999998,"ADDRESS":"勝利一街１號","OBJECTID":631104},"geometry":{"x":173941.51000000071,"y":2539705.0100000016}},{"attributes":{"ID":631132,"DIS_CODE":0,"TOWNNAME":"仁德區","LI":"後壁里","LIN":"18鄰","STREET":"德南路","SECT":" ","MAREA":" ","LANE":" ","ALLEY":" ","HOUSE_NO":"４２號","E_COORD97":173347.41,"N_COORD97":2538763.77,"ADDRESS":"德南路４２號","OBJECTID":631105},"geometry":{"x":173347.41000000108,"y":2538763.7700000014}},{"attributes":{"ID":631133,"DIS_CODE":0,"TOWNNAME":"仁德區","LI":"保安里","LIN":"14鄰","STREET":"文賢路","SECT":"一段","MAREA":" ","LANE":" ","ALLEY":" ","HOUSE_NO":"５９８號","E_COORD97":171114.76999999999,"N_COORD97":2536773.0800000001,"ADDRESS":"文賢路一段５９８號","OBJECTID":631106},"geometry":{"x":171114.76999999862,"y":2536773.0800000019}},{"attributes":{"ID":631134,"DIS_CODE":0,"TOWNNAME":"仁德區","LI":"保安里","LIN":"4鄰","STREET":"文賢路","SECT":"一段","MAREA":" ","LANE":" ","ALLEY":" ","HOUSE_NO":"７８２號","E_COORD97":171389.56,"N_COORD97":2536276.5800000001,"ADDRESS":"文賢路一段７８２號","OBJECTID":631107},"geometry":{"x":171389.56000000052,"y":2536276.5799999982}},{"attributes":{"ID":631135,"DIS_CODE":0,"TOWNNAME":"仁德區","LI":"後壁里","LIN":"32鄰","STREET":"德洋路","SECT":" ","MAREA":" ","LANE":" ","ALLEY":" ","HOUSE_NO":"２３２號","E_COORD97":172541.85000000001,"N_COORD97":2539539.2599999998,"ADDRESS":"德洋路２３２號","OBJECTID":631108},"geometry":{"x":172541.85000000149,"y":2539539.2599999998}},{"attributes":{"ID":631136,"DIS_CODE":0,"TOWNNAME":"仁德區","LI":"後壁里","LIN":"39鄰","STREET":"德安路","SECT":" ","MAREA":" ","LANE":" ","ALLEY":" ","HOUSE_NO":"３９號","E_COORD97":173475.29000000001,"N_COORD97":2539112.8100000001,"ADDRESS":"德安路３９號","OBJECTID":631109},"geometry":{"x":173475.29000000097,"y":2539112.8100000005}},{"attributes":{"ID":631137,"DIS_CODE":0,"TOWNNAME":"仁德區","LI":"後壁里","LIN":"18鄰","STREET":"德南路","SECT":" ","MAREA":" ","LANE":" ","ALLEY":" ","HOUSE_NO":"４２之１號","E_COORD97":173350.64000000001,"N_COORD97":2538760.77,"ADDRESS":"德南路４２之１號","OBJECTID":631110},"geometry":{"x":173350.6400000006,"y":2538760.7700000014}},{"attributes":{"ID":631138,"DIS_CODE":0,"TOWNNAME":"仁德區","LI":"後壁里","LIN":"39鄰","STREET":"德安路","SECT":" ","MAREA":" ","LANE":" ","ALLEY":" ","HOUSE_NO":"８４號","E_COORD97":173471.07000000001,"N_COORD97":2539080.3199999998,"ADDRESS":"德安路８４號","OBJECTID":631111},"geometry":{"x":173471.0700000003,"y":2539080.3200000022}},{"attributes":{"ID":631139,"DIS_CODE":0,"TOWNNAME":"仁德區","LI":"保安里","LIN":"18鄰","STREET":"中正路","SECT":"一段","MAREA":" ","LANE":" ","ALLEY":" ","HOUSE_NO":"３７號","E_COORD97":170787.14999999999,"N_COORD97":2535542.7799999998,"ADDRESS":"中正路一段３７號","OBJECTID":631112},"geometry":{"x":170787.15000000037,"y":2535542.7800000012}},{"attributes":{"ID":631140,"DIS_CODE":0,"TOWNNAME":"仁德區","LI":"後壁里","LIN":"32鄰","STREET":"德洋路","SECT":" ","MAREA":" ","LANE":" ","ALLEY":" ","HOUSE_NO":"２２４號","E_COORD97":172535.23000000001,"N_COORD97":2539524.5099999998,"ADDRESS":"德洋路２２４號","OBJECTID":631113},"geometry":{"x":172535.23000000138,"y":2539524.5099999998}},{"attributes":{"ID":631141,"DIS_CODE":0,"TOWNNAME":"仁德區","LI":"新田里","LIN":"18鄰","STREET":"民安路","SECT":"二段","MAREA":" ","LANE":" ","ALLEY":" ","HOUSE_NO":"１０５號","E_COORD97":173588.48000000001,"N_COORD97":2539147.8100000001,"ADDRESS":"民安路二段１０５號","OBJECTID":631114},"geometry":{"x":173588.48000000138,"y":2539147.8100000024}},{"attributes":{"ID":631142,"DIS_CODE":0,"TOWNNAME":"仁德區","LI":"後壁里","LIN":"20鄰","STREET":"中正路","SECT":"二段","MAREA":" ","LANE":" ","ALLEY":" ","HOUSE_NO":"１３０號","E_COORD97":173199.92999999999,"N_COORD97":2538541.7799999998,"ADDRESS":"中正路二段１３０號","OBJECTID":631115},"geometry":{"x":173199.9299999997,"y":2538541.7799999993}},{"attributes":{"ID":631143,"DIS_CODE":0,"TOWNNAME":"仁德區","LI":"後壁里","LIN":"32鄰","STREET":"德洋路","SECT":" ","MAREA":" ","LANE":" ","ALLEY":" ","HOUSE_NO":"２２５號","E_COORD97":172522.29000000001,"N_COORD97":2539529.0099999998,"ADDRESS":"德洋路２２５號","OBJECTID":631116},"geometry":{"x":172522.2900000019,"y":2539529.0100000016}},{"attributes":{"ID":631144,"DIS_CODE":0,"TOWNNAME":"仁德區","LI":"新田里","LIN":"18鄰","STREET":"民安路","SECT":"二段","MAREA":" ","LANE":" ","ALLEY":" ","HOUSE_NO":"１４９號","E_COORD97":173672.67000000001,"N_COORD97":2539091.8199999998,"ADDRESS":"民安路二段１４９號","OBJECTID":631117},"geometry":{"x":173672.67000000086,"y":2539091.8200000003}},{"attributes":{"ID":631145,"DIS_CODE":0,"TOWNNAME":"仁德區","LI":"太子里","LIN":"20鄰","STREET":"長興四街","SECT":" ","MAREA":" ","LANE":" ","ALLEY":" ","HOUSE_NO":"４２號","E_COORD97":173988.01999999999,"N_COORD97":2543596.5,"ADDRESS":"長興四街４２號","OBJECTID":631118},"geometry":{"x":173988.01999999955,"y":2543596.5}},{"attributes":{"ID":631146,"DIS_CODE":0,"TOWNNAME":"仁德區","LI":"保安里","LIN":"4鄰","STREET":"文賢路","SECT":"一段","MAREA":" ","LANE":" ","ALLEY":" ","HOUSE_NO":"８５６號","E_COORD97":171490.17000000001,"N_COORD97":2536097.0800000001,"ADDRESS":"文賢路一段８５６號","OBJECTID":631119},"geometry":{"x":171490.16999999993,"y":2536097.0800000038}},{"attributes":{"ID":631147,"DIS_CODE":0,"TOWNNAME":"仁德區","LI":"成功里","LIN":"18鄰","STREET":"全福路","SECT":" ","MAREA":" ","LANE":" ","ALLEY":" ","HOUSE_NO":"８９號","E_COORD97":171069.67999999999,"N_COORD97":2539312.9900000002,"ADDRESS":"全福路８９號","OBJECTID":631120},"geometry":{"x":171069.6799999997,"y":2539312.9900000021}},{"attributes":{"ID":631148,"DIS_CODE":0,"TOWNNAME":"仁德區","LI":"新田里","LIN":"18鄰","STREET":"民安路","SECT":"二段","MAREA":" ","LANE":" ","ALLEY":" ","HOUSE_NO":"１３７號","E_COORD97":173650.89999999999,"N_COORD97":2539111.0600000001,"ADDRESS":"民安路二段１３７號","OBJECTID":631121},"geometry":{"x":173650.90000000224,"y":2539111.0600000005}},{"attributes":{"ID":631149,"DIS_CODE":0,"TOWNNAME":"仁德區","LI":"新田里","LIN":"18鄰","STREET":"民安路","SECT":"二段","MAREA":" ","LANE":" ","ALLEY":" ","HOUSE_NO":"１７９號","E_COORD97":173715.73999999999,"N_COORD97":2539038.8100000001,"ADDRESS":"民安路二段１７９號","OBJECTID":631122},"geometry":{"x":173715.74000000022,"y":2539038.8100000042}},{"attributes":{"ID":631150,"DIS_CODE":0,"TOWNNAME":"仁德區","LI":"太子里","LIN":"20鄰","STREET":"長興四街","SECT":" ","MAREA":" ","LANE":" ","ALLEY":" ","HOUSE_NO":"４６號","E_COORD97":173984.04999999999,"N_COORD97":2543587.75,"ADDRESS":"長興四街４６號","OBJECTID":631123},"geometry":{"x":173984.04999999981,"y":2543587.75}},{"attributes":{"ID":631151,"DIS_CODE":0,"TOWNNAME":"仁德區","LI":"後壁里","LIN":"39鄰","STREET":"德安路","SECT":" ","MAREA":" ","LANE":" ","ALLEY":" ","HOUSE_NO":"４５之１號","E_COORD97":173487.09,"N_COORD97":2539095.3199999998,"ADDRESS":"德安路４５之１號","OBJECTID":631124},"geometry":{"x":173487.09000000078,"y":2539095.3200000003}},{"attributes":{"ID":631152,"DIS_CODE":0,"TOWNNAME":"仁德區","LI":"後壁里","LIN":"39鄰","STREET":"德安路","SECT":" ","MAREA":" ","LANE":" ","ALLEY":" ","HOUSE_NO":"４５之２號","E_COORD97":173488.92999999999,"N_COORD97":2539091.5699999998,"ADDRESS":"德安路４５之２號","OBJECTID":631125},"geometry":{"x":173488.93000000156,"y":2539091.5700000022}},{"attributes":{"ID":631153,"DIS_CODE":0,"TOWNNAME":"仁德區","LI":"後壁里","LIN":"18鄰","STREET":"中正路","SECT":"二段","MAREA":" ","LANE":" ","ALLEY":" ","HOUSE_NO":"２１８號","E_COORD97":173235.23999999999,"N_COORD97":2538782.0299999998,"ADDRESS":"中正路二段２１８號","OBJECTID":631126},"geometry":{"x":173235.24000000115,"y":2538782.0300000031}},{"attributes":{"ID":631154,"DIS_CODE":0,"TOWNNAME":"仁德區","LI":"新田里","LIN":"18鄰","STREET":"民安路","SECT":"二段","MAREA":" ","LANE":" ","ALLEY":" ","HOUSE_NO":"１０１號","E_COORD97":173582.78,"N_COORD97":2539152.8100000001,"ADDRESS":"民安路二段１０１號","OBJECTID":631127},"geometry":{"x":173582.78000000119,"y":2539152.8100000005}},{"attributes":{"ID":631155,"DIS_CODE":0,"TOWNNAME":"仁德區","LI":"太子里","LIN":"20鄰","STREET":"長興四街","SECT":" ","MAREA":" ","LANE":" ","ALLEY":" ","HOUSE_NO":"５２號","E_COORD97":173967.87,"N_COORD97":2543563.25,"ADDRESS":"長興四街５２號","OBJECTID":631128},"geometry":{"x":173967.87000000197,"y":2543563.25}},{"attributes":{"ID":631156,"DIS_CODE":0,"TOWNNAME":"仁德區","LI":"後壁里","LIN":"20鄰","STREET":"中正路","SECT":"二段","MAREA":" ","LANE":" ","ALLEY":" ","HOUSE_NO":"１４６號","E_COORD97":173214.51000000001,"N_COORD97":2538587.77,"ADDRESS":"中正路二段１４６號","OBJECTID":631129},"geometry":{"x":173214.51000000071,"y":2538587.7700000014}},{"attributes":{"ID":631157,"DIS_CODE":0,"TOWNNAME":"仁德區","LI":"後壁里","LIN":"39鄰","STREET":"德安路","SECT":" ","MAREA":" ","LANE":" ","ALLEY":" ","HOUSE_NO":"４５號","E_COORD97":173482.85000000001,"N_COORD97":2539099.0699999998,"ADDRESS":"德安路４５號","OBJECTID":631130},"geometry":{"x":173482.85000000056,"y":2539099.0700000022}},{"attributes":{"ID":631158,"DIS_CODE":0,"TOWNNAME":"仁德區","LI":"後壁里","LIN":"39鄰","STREET":"德安路","SECT":" ","MAREA":" ","LANE":" ","ALLEY":" ","HOUSE_NO":"９２號","E_COORD97":173483.67000000001,"N_COORD97":2539056.0699999998,"ADDRESS":"德安路９２號","OBJECTID":631131},"geometry":{"x":173483.66999999993,"y":2539056.0700000003}},{"attributes":{"ID":631159,"DIS_CODE":0,"TOWNNAME":"仁德區","LI":"後壁里","LIN":"38鄰","STREET":"德安路","SECT":" ","MAREA":" ","LANE":" ","ALLEY":" ","HOUSE_NO":"７號","E_COORD97":173404.44,"N_COORD97":2539210.5600000001,"ADDRESS":"德安路７號","OBJECTID":631132},"geometry":{"x":173404.44000000041,"y":2539210.5600000024}},{"attributes":{"ID":631160,"DIS_CODE":0,"TOWNNAME":"仁德區","LI":"新田里","LIN":"18鄰","STREET":"民安路","SECT":"二段","MAREA":" ","LANE":" ","ALLEY":" ","HOUSE_NO":"１４３號","E_COORD97":173663.82000000001,"N_COORD97":2539101.8100000001,"ADDRESS":"民安路二段１４３號","OBJECTID":631133},"geometry":{"x":173663.82000000123,"y":2539101.8100000005}},{"attributes":{"ID":631161,"DIS_CODE":0,"TOWNNAME":"學甲區","LI":"慈福里","LIN":"13鄰","STREET":"太平路","SECT":" ","MAREA":" ","LANE":" ","ALLEY":" ","HOUSE_NO":"９號","E_COORD97":166568.59,"N_COORD97":2570364.1400000001,"ADDRESS":"太平路９號","OBJECTID":631134},"geometry":{"x":166568.59000000078,"y":2570364.1400000025}},{"attributes":{"ID":631162,"DIS_CODE":0,"TOWNNAME":"仁德區","LI":"新田里","LIN":"4鄰","STREET":"勝利一街","SECT":" ","MAREA":" ","LANE":" ","ALLEY":" ","HOUSE_NO":"６０號","E_COORD97":174077.19,"N_COORD97":2539373.0099999998,"ADDRESS":"勝利一街６０號","OBJECTID":631135},"geometry":{"x":174077.19000000041,"y":2539373.0100000016}},{"attributes":{"ID":631163,"DIS_CODE":0,"TOWNNAME":"仁德區","LI":"新田里","LIN":"4鄰","STREET":"勝利一街","SECT":" ","MAREA":" ","LANE":" ","ALLEY":" ","HOUSE_NO":"１０號","E_COORD97":173880.64000000001,"N_COORD97":2539599.7599999998,"ADDRESS":"勝利一街１０號","OBJECTID":631136},"geometry":{"x":173880.63999999873,"y":2539599.7599999998}},{"attributes":{"ID":631164,"DIS_CODE":0,"TOWNNAME":"仁德區","LI":"後壁里","LIN":"32鄰","STREET":"德洋路","SECT":" ","MAREA":" ","LANE":" ","ALLEY":" ","HOUSE_NO":"２２８號","E_COORD97":172538.63,"N_COORD97":2539532.0099999998,"ADDRESS":"德洋路２２８號","OBJECTID":631137},"geometry":{"x":172538.63000000082,"y":2539532.0100000016}},{"attributes":{"ID":631165,"DIS_CODE":0,"TOWNNAME":"仁德區","LI":"新田里","LIN":"4鄰","STREET":"勝利一街","SECT":" ","MAREA":" ","LANE":" ","ALLEY":" ","HOUSE_NO":"２７號之１","E_COORD97":173965.70000000001,"N_COORD97":2539477.0499999998,"ADDRESS":"勝利一街２７號之１","OBJECTID":631138},"geometry":{"x":173965.70000000205,"y":2539477.0500000007}},{"attributes":{"ID":631166,"DIS_CODE":0,"TOWNNAME":"仁德區","LI":"保安里","LIN":"4鄰","STREET":"文賢路","SECT":"一段","MAREA":" ","LANE":" ","ALLEY":" ","HOUSE_NO":"８２６號","E_COORD97":171459.62,"N_COORD97":2536194.3300000001,"ADDRESS":"文賢路一段８２６號","OBJECTID":631139},"geometry":{"x":171459.62000000104,"y":2536194.3300000019}},{"attributes":{"ID":631167,"DIS_CODE":0,"TOWNNAME":"仁德區","LI":"後壁里","LIN":"18鄰","STREET":"德南路","SECT":" ","MAREA":" ","LANE":" ","ALLEY":" ","HOUSE_NO":"４０號","E_COORD97":173341.41,"N_COORD97":2538768.27,"ADDRESS":"德南路４０號","OBJECTID":631140},"geometry":{"x":173341.41000000015,"y":2538768.2700000014}},{"attributes":{"ID":631168,"DIS_CODE":0,"TOWNNAME":"仁德區","LI":"後壁里","LIN":"32鄰","STREET":"德洋路","SECT":" ","MAREA":" ","LANE":" ","ALLEY":" ","HOUSE_NO":"２５１號","E_COORD97":172540.79000000001,"N_COORD97":2539576.52,"ADDRESS":"德洋路２５１號","OBJECTID":631141},"geometry":{"x":172540.78999999911,"y":2539576.5200000014}},{"attributes":{"ID":631169,"DIS_CODE":0,"TOWNNAME":"仁德區","LI":"後壁里","LIN":"32鄰","STREET":"德洋路","SECT":" ","MAREA":" ","LANE":" ","ALLEY":" ","HOUSE_NO":"２１５號","E_COORD97":172514.70999999999,"N_COORD97":2539512.77,"ADDRESS":"德洋路２１５號","OBJECTID":631142},"geometry":{"x":172514.71000000089,"y":2539512.7700000033}},{"attributes":{"ID":631170,"DIS_CODE":0,"TOWNNAME":"仁德區","LI":"太子里","LIN":"27鄰","STREET":"大吉路","SECT":" ","MAREA":" ","LANE":" ","ALLEY":" ","HOUSE_NO":"５號","E_COORD97":173725.60000000001,"N_COORD97":2543333.5,"ADDRESS":"大吉路５號","OBJECTID":631143},"geometry":{"x":173725.60000000056,"y":2543333.5000000019}},{"attributes":{"ID":631171,"DIS_CODE":0,"TOWNNAME":"仁德區","LI":"成功里","LIN":"18鄰","STREET":"全福路","SECT":" ","MAREA":" ","LANE":" ","ALLEY":" ","HOUSE_NO":"９９號","E_COORD97":171090.76000000001,"N_COORD97":2539311.2400000002,"ADDRESS":"全福路９９號","OBJECTID":631144},"geometry":{"x":171090.75999999978,"y":2539311.2400000021}},{"attributes":{"ID":631172,"DIS_CODE":0,"TOWNNAME":"仁德區","LI":"新田里","LIN":"18鄰","STREET":"民安路","SECT":"二段","MAREA":" ","LANE":" ","ALLEY":" ","HOUSE_NO":"１１３號之１","E_COORD97":173614,"N_COORD97":2539132.3100000001,"ADDRESS":"民安路二段１１３號之１","OBJECTID":631145},"geometry":{"x":173614,"y":2539132.3100000005}},{"attributes":{"ID":631173,"DIS_CODE":0,"TOWNNAME":"仁德區","LI":"後壁里","LIN":"39鄰","STREET":"德安路","SECT":" ","MAREA":" ","LANE":" ","ALLEY":" ","HOUSE_NO":"７８號","E_COORD97":173456.12,"N_COORD97":2539108.3100000001,"ADDRESS":"德安路７８號","OBJECTID":631146},"geometry":{"x":173456.12000000104,"y":2539108.3100000024}},{"attributes":{"ID":631174,"DIS_CODE":0,"TOWNNAME":"仁德區","LI":"後壁里","LIN":"24鄰","STREET":"中正路","SECT":"二段","MAREA":" ","LANE":" ","ALLEY":" ","HOUSE_NO":"２６３號","E_COORD97":173226.25,"N_COORD97":2538966.2799999998,"ADDRESS":"中正路二段２６３號","OBJECTID":631147},"geometry":{"x":173226.25000000093,"y":2538966.2799999993}},{"attributes":{"ID":631175,"DIS_CODE":0,"TOWNNAME":"仁德區","LI":"後壁里","LIN":"24鄰","STREET":"中正路","SECT":"二段","MAREA":" ","LANE":" ","ALLEY":" ","HOUSE_NO":"２４９號","E_COORD97":173224.82000000001,"N_COORD97":2538936.27,"ADDRESS":"中正路二段２４９號","OBJECTID":631148},"geometry":{"x":173224.82000000123,"y":2538936.2700000033}},{"attributes":{"ID":631176,"DIS_CODE":0,"TOWNNAME":"仁德區","LI":"成功里","LIN":"47鄰","STREET":"文賢路","SECT":"一段","MAREA":" ","LANE":" ","ALLEY":" ","HOUSE_NO":"３０號","E_COORD97":170113.64000000001,"N_COORD97":2538253.0800000001,"ADDRESS":"文賢路一段３０號","OBJECTID":631149},"geometry":{"x":170113.63999999966,"y":2538253.0800000001}},{"attributes":{"ID":631177,"DIS_CODE":0,"TOWNNAME":"仁德區","LI":"太子里","LIN":"20鄰","STREET":"長興四街","SECT":" ","MAREA":" ","LANE":" ","ALLEY":" ","HOUSE_NO":"６６號","E_COORD97":173923.35000000001,"N_COORD97":2543565,"ADDRESS":"長興四街６６號","OBJECTID":631150},"geometry":{"x":173923.35000000149,"y":2543565}},{"attributes":{"ID":631178,"DIS_CODE":0,"TOWNNAME":"永康區","LI":"埔園里","LIN":"39鄰","STREET":"埔園街","SECT":" ","MAREA":" ","LANE":" ","ALLEY":" ","HOUSE_NO":"５５號","E_COORD97":173994.17999999999,"N_COORD97":2548024.1299999999,"ADDRESS":"埔園街５５號","OBJECTID":631151},"geometry":{"x":173994.18000000156,"y":2548024.1300000008}},{"attributes":{"ID":631179,"DIS_CODE":0,"TOWNNAME":"仁德區","LI":"保安里","LIN":"4鄰","STREET":"文賢路","SECT":"一段","MAREA":" ","LANE":" ","ALLEY":" ","HOUSE_NO":"８３８號","E_COORD97":171483.13,"N_COORD97":2536147.3199999998,"ADDRESS":"文賢路一段８３８號","OBJECTID":631152},"geometry":{"x":171483.13000000082,"y":2536147.3200000022}},{"attributes":{"ID":631180,"DIS_CODE":0,"TOWNNAME":"仁德區","LI":"仁德里","LIN":"13鄰","STREET":"中正路","SECT":"三段","MAREA":" ","LANE":" ","ALLEY":" ","HOUSE_NO":"２９號","E_COORD97":173310.47,"N_COORD97":2541488.77,"ADDRESS":"中正路三段２９號","OBJECTID":631153},"geometry":{"x":173310.46999999974,"y":2541488.7699999996}},{"attributes":{"ID":631181,"DIS_CODE":0,"TOWNNAME":"仁德區","LI":"新田里","LIN":"4鄰","STREET":"勝利一街","SECT":" ","MAREA":" ","LANE":" ","ALLEY":" ","HOUSE_NO":"３８號","E_COORD97":173853.23999999999,"N_COORD97":2539448.25,"ADDRESS":"勝利一街３８號","OBJECTID":631154},"geometry":{"x":173853.24000000022,"y":2539448.25}},{"attributes":{"ID":631182,"DIS_CODE":0,"TOWNNAME":"仁德區","LI":"新田里","LIN":"4鄰","STREET":"勝利一街","SECT":" ","MAREA":" ","LANE":" ","ALLEY":" ","HOUSE_NO":"３５號","E_COORD97":174078.98999999999,"N_COORD97":2539428.75,"ADDRESS":"勝利一街３５號","OBJECTID":631155},"geometry":{"x":174078.99000000209,"y":2539428.7500000037}},{"attributes":{"ID":631183,"DIS_CODE":0,"TOWNNAME":"仁德區","LI":"成功里","LIN":"18鄰","STREET":"全福路","SECT":" ","MAREA":" ","LANE":" ","ALLEY":" ","HOUSE_NO":"８１號","E_COORD97":171052.67000000001,"N_COORD97":2539314.2400000002,"ADDRESS":"全福路８１號","OBJECTID":631156},"geometry":{"x":171052.66999999993,"y":2539314.2400000021}},{"attributes":{"ID":631184,"DIS_CODE":0,"TOWNNAME":"永康區","LI":"埔園里","LIN":"39鄰","STREET":"埔園街","SECT":" ","MAREA":" ","LANE":" ","ALLEY":" ","HOUSE_NO":"５７號","E_COORD97":173992.20999999999,"N_COORD97":2548027.9300000002,"ADDRESS":"埔園街５７號","OBJECTID":631157},"geometry":{"x":173992.20999999996,"y":2548027.9299999997}},{"attributes":{"ID":631185,"DIS_CODE":0,"TOWNNAME":"仁德區","LI":"後壁里","LIN":"18鄰","STREET":"中正路","SECT":"二段","MAREA":" ","LANE":" ","ALLEY":" ","HOUSE_NO":"１９８號","E_COORD97":173231.16,"N_COORD97":2538734.27,"ADDRESS":"中正路二段１９８號","OBJECTID":631158},"geometry":{"x":173231.16000000015,"y":2538734.2700000014}},{"attributes":{"ID":631186,"DIS_CODE":0,"TOWNNAME":"仁德區","LI":"後壁里","LIN":"20鄰","STREET":"中正路","SECT":"二段","MAREA":" ","LANE":" ","ALLEY":" ","HOUSE_NO":"１５２號","E_COORD97":173217.85000000001,"N_COORD97":2538600.02,"ADDRESS":"中正路二段１５２號","OBJECTID":631159},"geometry":{"x":173217.84999999963,"y":2538600.0200000014}},{"attributes":{"ID":631187,"DIS_CODE":0,"TOWNNAME":"仁德區","LI":"後壁里","LIN":"39鄰","STREET":"德安路","SECT":" ","MAREA":" ","LANE":" ","ALLEY":" ","HOUSE_NO":"８２號","E_COORD97":173468.26000000001,"N_COORD97":2539085.0699999998,"ADDRESS":"德安路８２號","OBJECTID":631160},"geometry":{"x":173468.26000000071,"y":2539085.0700000022}},{"attributes":{"ID":631188,"DIS_CODE":0,"TOWNNAME":"仁德區","LI":"後壁里","LIN":"39鄰","STREET":"德安路","SECT":" ","MAREA":" ","LANE":" ","ALLEY":" ","HOUSE_NO":"８８號","E_COORD97":173475.01000000001,"N_COORD97":2539073.0699999998,"ADDRESS":"德安路８８號","OBJECTID":631161},"geometry":{"x":173475.01000000071,"y":2539073.0700000003}},{"attributes":{"ID":631189,"DIS_CODE":0,"TOWNNAME":"仁德區","LI":"後壁里","LIN":"32鄰","STREET":"德洋路","SECT":" ","MAREA":" ","LANE":" ","ALLEY":" ","HOUSE_NO":"２２３號","E_COORD97":172521.39000000001,"N_COORD97":2539526.7599999998,"ADDRESS":"德洋路２２３號","OBJECTID":631162},"geometry":{"x":172521.3900000006,"y":2539526.7600000035}},{"attributes":{"ID":631190,"DIS_CODE":0,"TOWNNAME":"仁德區","LI":"後壁里","LIN":"32鄰","STREET":"德洋路","SECT":" ","MAREA":" ","LANE":" ","ALLEY":" ","HOUSE_NO":"２４９號","E_COORD97":172538.73999999999,"N_COORD97":2539572.27,"ADDRESS":"德洋路２４９號","OBJECTID":631163},"geometry":{"x":172538.74000000115,"y":2539572.2699999996}},{"attributes":{"ID":631191,"DIS_CODE":0,"TOWNNAME":"仁德區","LI":"後壁里","LIN":"38鄰","STREET":"德安路","SECT":" ","MAREA":" ","LANE":" ","ALLEY":" ","HOUSE_NO":"７０號","E_COORD97":173434.85000000001,"N_COORD97":2539141.3100000001,"ADDRESS":"德安路７０號","OBJECTID":631164},"geometry":{"x":173434.84999999963,"y":2539141.3100000024}},{"attributes":{"ID":631192,"DIS_CODE":0,"TOWNNAME":"仁德區","LI":"後壁里","LIN":"18鄰","STREET":"德南路","SECT":" ","MAREA":" ","LANE":" ","ALLEY":" ","HOUSE_NO":"４６號","E_COORD97":173354.17999999999,"N_COORD97":2538758.52,"ADDRESS":"德南路４６號","OBJECTID":631165},"geometry":{"x":173354.1799999997,"y":2538758.5200000033}},{"attributes":{"ID":631193,"DIS_CODE":0,"TOWNNAME":"仁德區","LI":"後壁里","LIN":"20鄰","STREET":"中正路","SECT":"二段","MAREA":" ","LANE":" ","ALLEY":" ","HOUSE_NO":"４８號","E_COORD97":173127.34,"N_COORD97":2538326.0299999998,"ADDRESS":"中正路二段４８號","OBJECTID":631166},"geometry":{"x":173127.34000000078,"y":2538326.0299999993}},{"attributes":{"ID":631194,"DIS_CODE":0,"TOWNNAME":"仁德區","LI":"後壁里","LIN":"39鄰","STREET":"德安路","SECT":" ","MAREA":" ","LANE":" ","ALLEY":" ","HOUSE_NO":"７４號","E_COORD97":173451.35999999999,"N_COORD97":2539117.5600000001,"ADDRESS":"德安路７４號","OBJECTID":631167},"geometry":{"x":173451.36000000127,"y":2539117.5600000005}},{"attributes":{"ID":631195,"DIS_CODE":0,"TOWNNAME":"永康區","LI":"崑山里","LIN":"32鄰","STREET":"國光三街","SECT":" ","MAREA":" ","LANE":" ","ALLEY":" ","HOUSE_NO":"７號","E_COORD97":174115.29999999999,"N_COORD97":2544858.9700000002,"ADDRESS":"國光三街７號","OBJECTID":631168},"geometry":{"x":174115.29999999888,"y":2544858.9699999988}},{"attributes":{"ID":631196,"DIS_CODE":0,"TOWNNAME":"永康區","LI":"北灣里","LIN":"4鄰","STREET":"信義街","SECT":" ","MAREA":" ","LANE":" ","ALLEY":" ","HOUSE_NO":"１１９號","E_COORD97":175216.07999999999,"N_COORD97":2545628.8599999999,"ADDRESS":"信義街１１９號","OBJECTID":631169},"geometry":{"x":175216.08000000101,"y":2545628.8600000013}},{"attributes":{"ID":631197,"DIS_CODE":0,"TOWNNAME":"永康區","LI":"北灣里","LIN":"4鄰","STREET":"信義街","SECT":" ","MAREA":" ","LANE":" ","ALLEY":" ","HOUSE_NO":"１２１號","E_COORD97":175211.37,"N_COORD97":2545628.54,"ADDRESS":"信義街１２１號","OBJECTID":631170},"geometry":{"x":175211.37000000011,"y":2545628.5399999991}},{"attributes":{"ID":631198,"DIS_CODE":0,"TOWNNAME":"學甲區","LI":"明宜里","LIN":"15鄰","STREET":"重信路","SECT":" ","MAREA":" ","LANE":" ","ALLEY":" ","HOUSE_NO":"２號","E_COORD97":166131.75,"N_COORD97":2570609.1000000001,"ADDRESS":"重信路２號","OBJECTID":631171},"geometry":{"x":166131.75000000093,"y":2570609.0999999996}},{"attributes":{"ID":631199,"DIS_CODE":0,"TOWNNAME":"永康區","LI":"崑山里","LIN":"39鄰","STREET":"國光三街","SECT":" ","MAREA":" ","LANE":" ","ALLEY":" ","HOUSE_NO":"１６號","E_COORD97":174113.42999999999,"N_COORD97":2544886.75,"ADDRESS":"國光三街１６號","OBJECTID":631172},"geometry":{"x":174113.43000000063,"y":2544886.75}},{"attributes":{"ID":631200,"DIS_CODE":0,"TOWNNAME":"永康區","LI":"復國里","LIN":"26鄰","STREET":"復國一路","SECT":" ","MAREA":" ","LANE":" ","ALLEY":" ","HOUSE_NO":"２９１號","E_COORD97":172735.51000000001,"N_COORD97":2545522.5600000001,"ADDRESS":"復國一路２９１號","OBJECTID":631173},"geometry":{"x":172735.50999999978,"y":2545522.5600000005}},{"attributes":{"ID":631201,"DIS_CODE":0,"TOWNNAME":"永康區","LI":"復國里","LIN":"26鄰","STREET":"復國一路","SECT":" ","MAREA":" ","LANE":" ","ALLEY":" ","HOUSE_NO":"２９３號","E_COORD97":172735.51000000001,"N_COORD97":2545526.7999999998,"ADDRESS":"復國一路２９３號","OBJECTID":631174},"geometry":{"x":172735.50999999978,"y":2545526.8000000007}},{"attributes":{"ID":631202,"DIS_CODE":0,"TOWNNAME":"永康區","LI":"復國里","LIN":"26鄰","STREET":"復國一路","SECT":" ","MAREA":" ","LANE":" ","ALLEY":" ","HOUSE_NO":"２９５號","E_COORD97":172735.60999999999,"N_COORD97":2545530.3300000001,"ADDRESS":"復國一路２９５號","OBJECTID":631175},"geometry":{"x":172735.6100000022,"y":2545530.3300000001}},{"attributes":{"ID":631203,"DIS_CODE":0,"TOWNNAME":"永康區","LI":"勝利里","LIN":"24鄰","STREET":"勝利街","SECT":" ","MAREA":" ","LANE":" ","ALLEY":" ","HOUSE_NO":"９８之１號","E_COORD97":171374.89999999999,"N_COORD97":2544806.04,"ADDRESS":"勝利街９８之１號","OBJECTID":631176},"geometry":{"x":171374.9000000013,"y":2544806.0399999972}},{"attributes":{"ID":631204,"DIS_CODE":0,"TOWNNAME":"永康區","LI":"勝利里","LIN":"24鄰","STREET":"勝利街","SECT":" ","MAREA":" ","LANE":" ","ALLEY":" ","HOUSE_NO":"９８號","E_COORD97":171371.60000000001,"N_COORD97":2544800.8900000001,"ADDRESS":"勝利街９８號","OBJECTID":631177},"geometry":{"x":171371.59999999963,"y":2544800.8900000006}},{"attributes":{"ID":631205,"DIS_CODE":0,"TOWNNAME":"永康區","LI":"復國里","LIN":"7鄰","STREET":"復國一路","SECT":" ","MAREA":" ","LANE":" ","ALLEY":" ","HOUSE_NO":"３００號","E_COORD97":172761.54999999999,"N_COORD97":2545561.96,"ADDRESS":"復國一路３００號","OBJECTID":631178},"geometry":{"x":172761.55000000075,"y":2545561.9600000028}},{"attributes":{"ID":631206,"DIS_CODE":0,"TOWNNAME":"永康區","LI":"西勢里","LIN":"1鄰","STREET":"富強路","SECT":"二段","MAREA":" ","LANE":" ","ALLEY":" ","HOUSE_NO":"５１號","E_COORD97":175677.29000000001,"N_COORD97":2546910.7999999998,"ADDRESS":"富強路二段５１號","OBJECTID":631179},"geometry":{"x":175677.29000000097,"y":2546910.8000000007}},{"attributes":{"ID":631207,"DIS_CODE":0,"TOWNNAME":"永康區","LI":"西勢里","LIN":"1鄰","STREET":"富強路","SECT":"二段","MAREA":" ","LANE":" ","ALLEY":" ","HOUSE_NO":"５３號","E_COORD97":175659.67000000001,"N_COORD97":2546907.8100000001,"ADDRESS":"富強路二段５３號","OBJECTID":631180},"geometry":{"x":175659.67000000086,"y":2546907.8100000042}},{"attributes":{"ID":631208,"DIS_CODE":0,"TOWNNAME":"永康區","LI":"復華里","LIN":"4鄰","STREET":"復國二路","SECT":" ","MAREA":" ","LANE":" ","ALLEY":" ","HOUSE_NO":"２８７號","E_COORD97":173042.26000000001,"N_COORD97":2546227.9399999999,"ADDRESS":"復國二路２８７號","OBJECTID":631181},"geometry":{"x":173042.25999999978,"y":2546227.9400000032}},{"attributes":{"ID":631209,"DIS_CODE":0,"TOWNNAME":"永康區","LI":"復華里","LIN":"4鄰","STREET":"復國二路","SECT":" ","MAREA":" ","LANE":" ","ALLEY":" ","HOUSE_NO":"２８９號","E_COORD97":173043.92000000001,"N_COORD97":2546233.9100000001,"ADDRESS":"復國二路２８９號","OBJECTID":631182},"geometry":{"x":173043.92000000086,"y":2546233.9100000001}},{"attributes":{"ID":631210,"DIS_CODE":0,"TOWNNAME":"永康區","LI":"復華里","LIN":"4鄰","STREET":"復國二路","SECT":" ","MAREA":" ","LANE":" ","ALLEY":" ","HOUSE_NO":"２９１號","E_COORD97":173045.20999999999,"N_COORD97":2546240.3399999999,"ADDRESS":"復國二路２９１號","OBJECTID":631183},"geometry":{"x":173045.21000000089,"y":2546240.3400000017}},{"attributes":{"ID":631211,"DIS_CODE":0,"TOWNNAME":"永康區","LI":"復華里","LIN":"4鄰","STREET":"復國二路","SECT":" ","MAREA":" ","LANE":" ","ALLEY":" ","HOUSE_NO":"２９３號","E_COORD97":173046.85999999999,"N_COORD97":2546246.2200000002,"ADDRESS":"復國二路２９３號","OBJECTID":631184},"geometry":{"x":173046.86000000034,"y":2546246.2200000007}},{"attributes":{"ID":631212,"DIS_CODE":0,"TOWNNAME":"永康區","LI":"復華里","LIN":"4鄰","STREET":"復國二路","SECT":" ","MAREA":" ","LANE":" ","ALLEY":" ","HOUSE_NO":"２９５號","E_COORD97":173048.29999999999,"N_COORD97":2546252.6699999999,"ADDRESS":"復國二路２９５號","OBJECTID":631185},"geometry":{"x":173048.29999999981,"y":2546252.6699999999}},{"attributes":{"ID":631213,"DIS_CODE":0,"TOWNNAME":"永康區","LI":"復華里","LIN":"4鄰","STREET":"復國二路","SECT":" ","MAREA":" ","LANE":" ","ALLEY":" ","HOUSE_NO":"２９７號","E_COORD97":173049.82999999999,"N_COORD97":2546258.3999999999,"ADDRESS":"復國二路２９７號","OBJECTID":631186},"geometry":{"x":173049.83000000101,"y":2546258.4000000004}},{"attributes":{"ID":631214,"DIS_CODE":0,"TOWNNAME":"永康區","LI":"復華里","LIN":"4鄰","STREET":"復國二路","SECT":" ","MAREA":" ","LANE":" ","ALLEY":" ","HOUSE_NO":"２９９號","E_COORD97":173053.37,"N_COORD97":2546267.5299999998,"ADDRESS":"復國二路２９９號","OBJECTID":631187},"geometry":{"x":173053.37000000011,"y":2546267.5299999975}},{"attributes":{"ID":631215,"DIS_CODE":0,"TOWNNAME":"永康區","LI":"復華里","LIN":"4鄰","STREET":"復國二路","SECT":" ","MAREA":" ","LANE":" ","ALLEY":" ","HOUSE_NO":"３０１號","E_COORD97":173054.70000000001,"N_COORD97":2546272.1800000002,"ADDRESS":"復國二路３０１號","OBJECTID":631188},"geometry":{"x":173054.70000000019,"y":2546272.1800000016}},{"attributes":{"ID":631216,"DIS_CODE":0,"TOWNNAME":"永康區","LI":"復國里","LIN":"26鄰","STREET":"復華三街","SECT":" ","MAREA":" ","LANE":" ","ALLEY":" ","HOUSE_NO":"７７號","E_COORD97":172717.10000000001,"N_COORD97":2545539.46,"ADDRESS":"復華三街７７號","OBJECTID":631189},"geometry":{"x":172717.10000000056,"y":2545539.4600000009}},{"attributes":{"ID":631217,"DIS_CODE":0,"TOWNNAME":"永康區","LI":"復華里","LIN":"25鄰","STREET":"復華十街","SECT":" ","MAREA":" ","LANE":" ","ALLEY":" ","HOUSE_NO":"６８號","E_COORD97":172659.04000000001,"N_COORD97":2546385.8799999999,"ADDRESS":"復華十街６８號","OBJECTID":631190},"geometry":{"x":172659.04000000004,"y":2546385.879999999}},{"attributes":{"ID":631218,"DIS_CODE":0,"TOWNNAME":"永康區","LI":"龍潭里","LIN":"14鄰","STREET":"龍埔街","SECT":" ","MAREA":" ","LANE":" ","ALLEY":" ","HOUSE_NO":"１０８號","E_COORD97":174524.5,"N_COORD97":2548264.9900000002,"ADDRESS":"龍埔街１０８號","OBJECTID":631191},"geometry":{"x":174524.50000000186,"y":2548264.9900000002}},{"attributes":{"ID":631219,"DIS_CODE":0,"TOWNNAME":"永康區","LI":"埔園里","LIN":"39鄰","STREET":"龍國街","SECT":" ","MAREA":" ","LANE":" ","ALLEY":" ","HOUSE_NO":"２號","E_COORD97":174002.67999999999,"N_COORD97":2548096.6400000001,"ADDRESS":"龍國街２號","OBJECTID":631192},"geometry":{"x":174002.68000000063,"y":2548096.6400000025}},{"attributes":{"ID":631220,"DIS_CODE":0,"TOWNNAME":"永康區","LI":"埔園里","LIN":"39鄰","STREET":"龍國街","SECT":" ","MAREA":" ","LANE":" ","ALLEY":" ","HOUSE_NO":"６號","E_COORD97":174007.04000000001,"N_COORD97":2548092.9300000002,"ADDRESS":"龍國街６號","OBJECTID":631193},"geometry":{"x":174007.04000000004,"y":2548092.9300000034}},{"attributes":{"ID":631221,"DIS_CODE":0,"TOWNNAME":"永康區","LI":"埔園里","LIN":"39鄰","STREET":"龍國街","SECT":" ","MAREA":" ","LANE":" ","ALLEY":" ","HOUSE_NO":"８號","E_COORD97":174010.75,"N_COORD97":2548092.4100000001,"ADDRESS":"龍國街８號","OBJECTID":631194},"geometry":{"x":174010.74999999907,"y":2548092.4100000001}},{"attributes":{"ID":631222,"DIS_CODE":0,"TOWNNAME":"永康區","LI":"王行里","LIN":"15鄰","STREET":"龍國街","SECT":" ","MAREA":" ","LANE":" ","ALLEY":" ","HOUSE_NO":"４６５號","E_COORD97":175212.20999999999,"N_COORD97":2548081.0499999998,"ADDRESS":"龍國街４６５號","OBJECTID":631195},"geometry":{"x":175212.20999999996,"y":2548081.0500000026}},{"attributes":{"ID":631223,"DIS_CODE":0,"TOWNNAME":"永康區","LI":"龍潭里","LIN":"1鄰","STREET":"龍國街","SECT":" ","MAREA":" ","LANE":" ","ALLEY":" ","HOUSE_NO":"３５１號","E_COORD97":174768.5,"N_COORD97":2548022.3900000001,"ADDRESS":"龍國街３５１號","OBJECTID":631196},"geometry":{"x":174768.49999999907,"y":2548022.3900000006}},{"attributes":{"ID":631224,"DIS_CODE":0,"TOWNNAME":"永康區","LI":"龍潭里","LIN":"30鄰","STREET":"龍潭街","SECT":" ","MAREA":" ","LANE":" ","ALLEY":" ","HOUSE_NO":"６６之１號","E_COORD97":174784.07999999999,"N_COORD97":2547880.52,"ADDRESS":"龍潭街６６之１號","OBJECTID":631197},"geometry":{"x":174784.08000000101,"y":2547880.5199999996}},{"attributes":{"ID":631225,"DIS_CODE":0,"TOWNNAME":"永康區","LI":"龍潭里","LIN":"30鄰","STREET":"龍潭街","SECT":" ","MAREA":" ","LANE":" ","ALLEY":" ","HOUSE_NO":"６６號","E_COORD97":174780.31,"N_COORD97":2547875.9199999999,"ADDRESS":"龍潭街６６號","OBJECTID":631198},"geometry":{"x":174780.31000000052,"y":2547875.9199999981}},{"attributes":{"ID":631226,"DIS_CODE":0,"TOWNNAME":"永康區","LI":"埔園里","LIN":"37鄰","STREET":"龍國街","SECT":" ","MAREA":" ","LANE":" ","ALLEY":" ","HOUSE_NO":"１４１號","E_COORD97":174331.82999999999,"N_COORD97":2548071.1800000002,"ADDRESS":"龍國街１４１號","OBJECTID":631199},"geometry":{"x":174331.83000000007,"y":2548071.1800000016}},{"attributes":{"ID":631227,"DIS_CODE":0,"TOWNNAME":"永康區","LI":"龍潭里","LIN":"3鄰","STREET":"龍國街","SECT":" ","MAREA":" ","LANE":" ","ALLEY":" ","HOUSE_NO":"２８５號","E_COORD97":174599.04000000001,"N_COORD97":2548035.4100000001,"ADDRESS":"龍國街２８５號","OBJECTID":631200},"geometry":{"x":174599.04000000097,"y":2548035.4100000001}}]}