{"displayFieldName":"TOWNNAME","fieldAliases":{"ID":"ID","DIS_CODE":"DIS_CODE","TOWNNAME":"TOWNNAME","LI":"LI","LIN":"LIN","STREET":"STREET","SECT":"SECT","MAREA":"MAREA","LANE":"LANE","ALLEY":"ALLEY","HOUSE_NO":"HOUSE_NO","E_COORD97":"E_COORD97","N_COORD97":"N_COORD97","ADDRESS":"ADDRESS","OBJECTID":"OBJECTID"},"geometryType":"esriGeometryPoint","spatialReference":{"wkid":102443,"latestWkid":3826},"fields":[{"name":"ID","type":"esriFieldTypeDouble","alias":"ID"},{"name":"DIS_CODE","type":"esriFieldTypeInteger","alias":"DIS_CODE"},{"name":"TOWNNAME","type":"esriFieldTypeString","alias":"TOWNNAME","length":8},{"name":"LI","type":"esriFieldTypeString","alias":"LI","length":8},{"name":"LIN","type":"esriFieldTypeString","alias":"LIN","length":12},{"name":"STREET","type":"esriFieldTypeString","alias":"STREET","length":20},{"name":"SECT","type":"esriFieldTypeString","alias":"SECT","length":8},{"name":"MAREA","type":"esriFieldTypeString","alias":"MAREA","length":12},{"name":"LANE","type":"esriFieldTypeString","alias":"LANE","length":10},{"name":"ALLEY","type":"esriFieldTypeString","alias":"ALLEY","length":10},{"name":"HOUSE_NO","type":"esriFieldTypeString","alias":"HOUSE_NO","length":20},{"name":"E_COORD97","type":"esriFieldTypeDouble","alias":"E_COORD97"},{"name":"N_COORD97","type":"esriFieldTypeDouble","alias":"N_COORD97"},{"name":"ADDRESS","type":"esriFieldTypeString","alias":"ADDRESS","length":50},{"name":"OBJECTID","type":"esriFieldTypeOID","alias":"OBJECTID"}],"features":[{"attributes":{"ID":244805,"DIS_CODE":0,"TOWNNAME":"新營區","LI":"南紙里","LIN":"24鄰","STREET":"建業路","SECT":" ","MAREA":" ","LANE":"２６９巷","ALLEY":" ","HOUSE_NO":"２號","E_COORD97":177974.10999999999,"N_COORD97":2577455.0299999998,"ADDRESS":"建業路２６９巷２號","OBJECTID":244801},"geometry":{"x":177974.11000000127,"y":2577455.0299999993}},{"attributes":{"ID":244806,"DIS_CODE":0,"TOWNNAME":"南區","LI":"建南里","LIN":"24鄰","STREET":"明興路","SECT":" ","MAREA":" ","LANE":"１１９巷","ALLEY":" ","HOUSE_NO":"３號","E_COORD97":166694.79999999999,"N_COORD97":2539874,"ADDRESS":"明興路１１９巷３號","OBJECTID":244802},"geometry":{"x":166694.79999999981,"y":2539874}},{"attributes":{"ID":244807,"DIS_CODE":0,"TOWNNAME":"新化區","LI":"全興里","LIN":"11鄰","STREET":" ","SECT":" ","MAREA":"竹子\u25A0","LANE":" ","ALLEY":" ","HOUSE_NO":"２４９號","E_COORD97":178670.82999999999,"N_COORD97":2546959.25,"ADDRESS":"竹子\u25A0２４９號","OBJECTID":244803},"geometry":{"x":178670.83000000101,"y":2546959.2500000019}},{"attributes":{"ID":244808,"DIS_CODE":0,"TOWNNAME":"新化區","LI":"唪口里","LIN":"11鄰","STREET":" ","SECT":" ","MAREA":"唪口","LANE":" ","ALLEY":" ","HOUSE_NO":"１７２號之１","E_COORD97":177680.28,"N_COORD97":2548975.25,"ADDRESS":"唪口１７２號之１","OBJECTID":244804},"geometry":{"x":177680.28000000026,"y":2548975.25}},{"attributes":{"ID":244809,"DIS_CODE":0,"TOWNNAME":"新市區","LI":"大營里","LIN":"18鄰","STREET":" ","SECT":" ","MAREA":"豐榮","LANE":" ","ALLEY":" ","HOUSE_NO":"２６之１５號","E_COORD97":178904.81,"N_COORD97":2554474.5499999998,"ADDRESS":"豐榮２６之１５號","OBJECTID":244805},"geometry":{"x":178904.81000000052,"y":2554474.5500000026}},{"attributes":{"ID":244810,"DIS_CODE":0,"TOWNNAME":"新化區","LI":"唪口里","LIN":"11鄰","STREET":" ","SECT":" ","MAREA":"唪口","LANE":" ","ALLEY":" ","HOUSE_NO":"１７２號之１１","E_COORD97":177694.32999999999,"N_COORD97":2548964.2599999998,"ADDRESS":"唪口１７２號之１１","OBJECTID":244806},"geometry":{"x":177694.33000000101,"y":2548964.2599999998}},{"attributes":{"ID":244811,"DIS_CODE":0,"TOWNNAME":"新化區","LI":"崙頂里","LIN":"11鄰","STREET":" ","SECT":" ","MAREA":"崙子頂","LANE":" ","ALLEY":" ","HOUSE_NO":"４２８號","E_COORD97":177076.13,"N_COORD97":2546981.25,"ADDRESS":"崙子頂４２８號","OBJECTID":244807},"geometry":{"x":177076.12999999989,"y":2546981.25}},{"attributes":{"ID":244812,"DIS_CODE":0,"TOWNNAME":"新化區","LI":"全興里","LIN":"11鄰","STREET":" ","SECT":" ","MAREA":"竹子\u25A0","LANE":" ","ALLEY":" ","HOUSE_NO":"２４３號","E_COORD97":178031.13,"N_COORD97":2546948.25,"ADDRESS":"竹子\u25A0２４３號","OBJECTID":244808},"geometry":{"x":178031.13000000082,"y":2546948.2499999981}},{"attributes":{"ID":244813,"DIS_CODE":0,"TOWNNAME":"新化區","LI":"唪口里","LIN":"11鄰","STREET":" ","SECT":" ","MAREA":"唪口","LANE":" ","ALLEY":" ","HOUSE_NO":"１６３號之５","E_COORD97":177616.81,"N_COORD97":2548853.2599999998,"ADDRESS":"唪口１６３號之５","OBJECTID":244809},"geometry":{"x":177616.80999999959,"y":2548853.2599999998}},{"attributes":{"ID":244814,"DIS_CODE":0,"TOWNNAME":"南區","LI":"建南里","LIN":"24鄰","STREET":"明興路","SECT":" ","MAREA":" ","LANE":"１１９巷","ALLEY":" ","HOUSE_NO":"３號之１","E_COORD97":166684.19,"N_COORD97":2539877.3900000001,"ADDRESS":"明興路１１９巷３號之１","OBJECTID":244810},"geometry":{"x":166684.19000000134,"y":2539877.3900000025}},{"attributes":{"ID":244815,"DIS_CODE":0,"TOWNNAME":"北區","LI":"重興里","LIN":"24鄰","STREET":"東豐路","SECT":" ","MAREA":" ","LANE":"４５１巷","ALLEY":" ","HOUSE_NO":"３７號","E_COORD97":170823.17999999999,"N_COORD97":2544818.8399999999,"ADDRESS":"東豐路４５１巷３７號","OBJECTID":244811},"geometry":{"x":170823.18000000063,"y":2544818.8400000017}},{"attributes":{"ID":244816,"DIS_CODE":0,"TOWNNAME":"北區","LI":"重興里","LIN":"24鄰","STREET":"東豐路","SECT":" ","MAREA":" ","LANE":"４５１巷","ALLEY":" ","HOUSE_NO":"３９號","E_COORD97":170828.17999999999,"N_COORD97":2544826.1400000001,"ADDRESS":"東豐路４５１巷３９號","OBJECTID":244812},"geometry":{"x":170828.18000000063,"y":2544826.1400000006}},{"attributes":{"ID":244817,"DIS_CODE":0,"TOWNNAME":"北區","LI":"重興里","LIN":"24鄰","STREET":"東豐路","SECT":" ","MAREA":" ","LANE":"４５１巷","ALLEY":" ","HOUSE_NO":"４１號","E_COORD97":170832.03,"N_COORD97":2544834.02,"ADDRESS":"東豐路４５１巷４１號","OBJECTID":244813},"geometry":{"x":170832.03000000026,"y":2544834.0200000033}},{"attributes":{"ID":244818,"DIS_CODE":0,"TOWNNAME":"北區","LI":"重興里","LIN":"24鄰","STREET":"東豐路","SECT":" ","MAREA":" ","LANE":"４５１巷","ALLEY":" ","HOUSE_NO":"４３號","E_COORD97":170836.29999999999,"N_COORD97":2544841.5099999998,"ADDRESS":"東豐路４５１巷４３號","OBJECTID":244814},"geometry":{"x":170836.29999999981,"y":2544841.5100000016}},{"attributes":{"ID":244819,"DIS_CODE":0,"TOWNNAME":"北區","LI":"重興里","LIN":"24鄰","STREET":"東豐路","SECT":" ","MAREA":" ","LANE":"４５１巷","ALLEY":" ","HOUSE_NO":"６３號","E_COORD97":170802.56,"N_COORD97":2544821.7999999998,"ADDRESS":"東豐路４５１巷６３號","OBJECTID":244815},"geometry":{"x":170802.55999999959,"y":2544821.8000000007}},{"attributes":{"ID":244820,"DIS_CODE":0,"TOWNNAME":"北區","LI":"重興里","LIN":"24鄰","STREET":"東豐路","SECT":" ","MAREA":" ","LANE":"４５１巷","ALLEY":" ","HOUSE_NO":"６５號","E_COORD97":170807.57000000001,"N_COORD97":2544830.04,"ADDRESS":"東豐路４５１巷６５號","OBJECTID":244816},"geometry":{"x":170807.57000000123,"y":2544830.0400000028}},{"attributes":{"ID":244821,"DIS_CODE":0,"TOWNNAME":"北區","LI":"重興里","LIN":"24鄰","STREET":"東豐路","SECT":" ","MAREA":" ","LANE":"４５１巷","ALLEY":" ","HOUSE_NO":"６７號","E_COORD97":170812.87,"N_COORD97":2544838.27,"ADDRESS":"東豐路４５１巷６７號","OBJECTID":244817},"geometry":{"x":170812.87000000011,"y":2544838.2699999996}},{"attributes":{"ID":244822,"DIS_CODE":0,"TOWNNAME":"北區","LI":"重興里","LIN":"24鄰","STREET":"東豐路","SECT":" ","MAREA":" ","LANE":"４５１巷","ALLEY":" ","HOUSE_NO":"６９號","E_COORD97":170818.32000000001,"N_COORD97":2544846.2200000002,"ADDRESS":"東豐路４５１巷６９號","OBJECTID":244818},"geometry":{"x":170818.3200000003,"y":2544846.2200000007}},{"attributes":{"ID":244823,"DIS_CODE":0,"TOWNNAME":"北區","LI":"大豐里","LIN":"24鄰","STREET":"和緯路","SECT":"四段","MAREA":" ","LANE":"９５巷","ALLEY":" ","HOUSE_NO":"３９號","E_COORD97":167121.29999999999,"N_COORD97":2545363.9199999999,"ADDRESS":"和緯路四段９５巷３９號","OBJECTID":244819},"geometry":{"x":167121.30000000075,"y":2545363.9200000037}},{"attributes":{"ID":244824,"DIS_CODE":0,"TOWNNAME":"北區","LI":"大豐里","LIN":"24鄰","STREET":"和緯路","SECT":"四段","MAREA":" ","LANE":"９５巷","ALLEY":" ","HOUSE_NO":"４１號","E_COORD97":167119.45999999999,"N_COORD97":2545353.6600000001,"ADDRESS":"和緯路四段９５巷４１號","OBJECTID":244820},"geometry":{"x":167119.45999999996,"y":2545353.660000002}},{"attributes":{"ID":244825,"DIS_CODE":0,"TOWNNAME":"關廟區","LI":"東勢里","LIN":"8鄰","STREET":"四維街","SECT":" ","MAREA":" ","LANE":"１２巷","ALLEY":" ","HOUSE_NO":"１號","E_COORD97":181968.81,"N_COORD97":2539490.25,"ADDRESS":"四維街１２巷１號","OBJECTID":244821},"geometry":{"x":181968.80999999866,"y":2539490.2500000019}},{"attributes":{"ID":244826,"DIS_CODE":0,"TOWNNAME":"北區","LI":"大豐里","LIN":"24鄰","STREET":"和緯路","SECT":"四段","MAREA":" ","LANE":"９５巷","ALLEY":" ","HOUSE_NO":"４３號","E_COORD97":167118.75,"N_COORD97":2545349.3300000001,"ADDRESS":"和緯路四段９５巷４３號","OBJECTID":244822},"geometry":{"x":167118.75000000093,"y":2545349.3300000019}},{"attributes":{"ID":244827,"DIS_CODE":0,"TOWNNAME":"北區","LI":"大豐里","LIN":"24鄰","STREET":"和緯路","SECT":"四段","MAREA":" ","LANE":"９５巷","ALLEY":" ","HOUSE_NO":"４５號","E_COORD97":167116.73000000001,"N_COORD97":2545340.8199999998,"ADDRESS":"和緯路四段９５巷４５號","OBJECTID":244823},"geometry":{"x":167116.73000000045,"y":2545340.8200000003}},{"attributes":{"ID":244828,"DIS_CODE":0,"TOWNNAME":"鹽水區","LI":"橋南里","LIN":"24鄰","STREET":"南門路","SECT":" ","MAREA":" ","LANE":"８０巷","ALLEY":" ","HOUSE_NO":"１７號","E_COORD97":175135.48000000001,"N_COORD97":2579220.6299999999,"ADDRESS":"南門路８０巷１７號","OBJECTID":244824},"geometry":{"x":175135.48000000231,"y":2579220.629999999}},{"attributes":{"ID":244829,"DIS_CODE":0,"TOWNNAME":"永康區","LI":"網寮里","LIN":"24鄰","STREET":"永春街","SECT":" ","MAREA":" ","LANE":"３６巷","ALLEY":" ","HOUSE_NO":"９號","E_COORD97":173767.48999999999,"N_COORD97":2546401.3399999999,"ADDRESS":"永春街３６巷９號","OBJECTID":244825},"geometry":{"x":173767.49000000115,"y":2546401.3399999999}},{"attributes":{"ID":244830,"DIS_CODE":0,"TOWNNAME":"永康區","LI":"網寮里","LIN":"24鄰","STREET":"永春街","SECT":" ","MAREA":" ","LANE":"３６巷","ALLEY":" ","HOUSE_NO":"１６號","E_COORD97":173786.70999999999,"N_COORD97":2546385.1699999999,"ADDRESS":"永春街３６巷１６號","OBJECTID":244826},"geometry":{"x":173786.70999999996,"y":2546385.1699999999}},{"attributes":{"ID":244831,"DIS_CODE":0,"TOWNNAME":"永康區","LI":"網寮里","LIN":"24鄰","STREET":"永春街","SECT":" ","MAREA":" ","LANE":"４５巷","ALLEY":" ","HOUSE_NO":"１９號","E_COORD97":173705.04999999999,"N_COORD97":2546366.1899999999,"ADDRESS":"永春街４５巷１９號","OBJECTID":244827},"geometry":{"x":173705.04999999888,"y":2546366.1900000013}},{"attributes":{"ID":244832,"DIS_CODE":0,"TOWNNAME":"安南區","LI":"安慶里","LIN":"24鄰","STREET":"安中路","SECT":"一段","MAREA":" ","LANE":"２０３巷","ALLEY":" ","HOUSE_NO":"１０號","E_COORD97":168723.70999999999,"N_COORD97":2548457.23,"ADDRESS":"安中路一段２０３巷１０號","OBJECTID":244828},"geometry":{"x":168723.70999999903,"y":2548457.2300000004}},{"attributes":{"ID":244833,"DIS_CODE":0,"TOWNNAME":"安南區","LI":"州北里","LIN":"24鄰","STREET":"安和路","SECT":"五段","MAREA":" ","LANE":"８４巷","ALLEY":" ","HOUSE_NO":"４４號","E_COORD97":170043.51000000001,"N_COORD97":2551720.6899999999,"ADDRESS":"安和路五段８４巷４４號","OBJECTID":244829},"geometry":{"x":170043.50999999978,"y":2551720.6899999995}},{"attributes":{"ID":244834,"DIS_CODE":0,"TOWNNAME":"安南區","LI":"州北里","LIN":"24鄰","STREET":"安和路","SECT":"五段","MAREA":" ","LANE":"８４巷","ALLEY":" ","HOUSE_NO":"５６號","E_COORD97":170043.89999999999,"N_COORD97":2551748.6699999999,"ADDRESS":"安和路五段８４巷５６號","OBJECTID":244830},"geometry":{"x":170043.9000000013,"y":2551748.6699999999}},{"attributes":{"ID":244835,"DIS_CODE":0,"TOWNNAME":"安南區","LI":"州北里","LIN":"24鄰","STREET":"安和路","SECT":"五段","MAREA":" ","LANE":"８４巷","ALLEY":" ","HOUSE_NO":"５８號","E_COORD97":170043.51000000001,"N_COORD97":2551753.3599999999,"ADDRESS":"安和路五段８４巷５８號","OBJECTID":244831},"geometry":{"x":170043.50999999978,"y":2551753.3599999994}},{"attributes":{"ID":244836,"DIS_CODE":0,"TOWNNAME":"安南區","LI":"州南里","LIN":"24鄰","STREET":"安和路","SECT":"四段","MAREA":" ","LANE":"５３７巷","ALLEY":" ","HOUSE_NO":"４７號","E_COORD97":169830.5,"N_COORD97":2551401.48,"ADDRESS":"安和路四段５３７巷４７號","OBJECTID":244832},"geometry":{"x":169830.50000000186,"y":2551401.4800000004}},{"attributes":{"ID":244837,"DIS_CODE":0,"TOWNNAME":"安南區","LI":"安富里","LIN":"24鄰","STREET":"郡安路","SECT":"五段","MAREA":" ","LANE":"１７８巷","ALLEY":" ","HOUSE_NO":"４５號","E_COORD97":167551.04000000001,"N_COORD97":2547624.5699999998,"ADDRESS":"郡安路五段１７８巷４５號","OBJECTID":244833},"geometry":{"x":167551.04000000097,"y":2547624.570000004}},{"attributes":{"ID":244838,"DIS_CODE":0,"TOWNNAME":"永康區","LI":"三合里","LIN":"24鄰","STREET":"南工街","SECT":" ","MAREA":" ","LANE":"２６７巷","ALLEY":" ","HOUSE_NO":"５０號","E_COORD97":171839.57000000001,"N_COORD97":2545844.9900000002,"ADDRESS":"南工街２６７巷５０號","OBJECTID":244834},"geometry":{"x":171839.57000000123,"y":2545844.9899999984}},{"attributes":{"ID":244839,"DIS_CODE":0,"TOWNNAME":"永康區","LI":"三合里","LIN":"24鄰","STREET":"南工街","SECT":" ","MAREA":" ","LANE":"２６７巷","ALLEY":" ","HOUSE_NO":"３６號","E_COORD97":171868.45999999999,"N_COORD97":2545855.9900000002,"ADDRESS":"南工街２６７巷３６號","OBJECTID":244835},"geometry":{"x":171868.46000000183,"y":2545855.9900000021}},{"attributes":{"ID":244840,"DIS_CODE":0,"TOWNNAME":"永康區","LI":"三合里","LIN":"24鄰","STREET":"南工街","SECT":" ","MAREA":" ","LANE":"２６７巷","ALLEY":" ","HOUSE_NO":"２４號","E_COORD97":171872.22,"N_COORD97":2545881.71,"ADDRESS":"南工街２６７巷２４號","OBJECTID":244836},"geometry":{"x":171872.22000000067,"y":2545881.7100000046}},{"attributes":{"ID":244841,"DIS_CODE":0,"TOWNNAME":"仁德區","LI":"仁德里","LIN":"24鄰","STREET":"文心路","SECT":" ","MAREA":" ","LANE":"１１巷","ALLEY":" ","HOUSE_NO":"１６號","E_COORD97":172111.14000000001,"N_COORD97":2541358.8300000001,"ADDRESS":"文心路１１巷１６號","OBJECTID":244837},"geometry":{"x":172111.1400000006,"y":2541358.8300000019}},{"attributes":{"ID":244842,"DIS_CODE":0,"TOWNNAME":"仁德區","LI":"仁義里","LIN":"24鄰","STREET":"正義路","SECT":" ","MAREA":" ","LANE":"１２７巷","ALLEY":" ","HOUSE_NO":"３號","E_COORD97":173694.12,"N_COORD97":2541469.77,"ADDRESS":"正義路１２７巷３號","OBJECTID":244838},"geometry":{"x":173694.12000000011,"y":2541469.7700000014}},{"attributes":{"ID":244843,"DIS_CODE":0,"TOWNNAME":"仁德區","LI":"大甲里","LIN":"24鄰","STREET":"行大二街","SECT":" ","MAREA":" ","LANE":"１６巷","ALLEY":" ","HOUSE_NO":"８號","E_COORD97":169698.54000000001,"N_COORD97":2535365.25,"ADDRESS":"行大二街１６巷８號","OBJECTID":244839},"geometry":{"x":169698.54000000097,"y":2535365.25}},{"attributes":{"ID":244844,"DIS_CODE":0,"TOWNNAME":"仁德區","LI":"大甲里","LIN":"24鄰","STREET":"行大二街","SECT":" ","MAREA":" ","LANE":"４６巷","ALLEY":" ","HOUSE_NO":"４２號","E_COORD97":169588.22,"N_COORD97":2535321.5,"ADDRESS":"行大二街４６巷４２號","OBJECTID":244840},"geometry":{"x":169588.22000000067,"y":2535321.5000000019}},{"attributes":{"ID":244845,"DIS_CODE":0,"TOWNNAME":"仁德區","LI":"大甲里","LIN":"24鄰","STREET":"行大二街","SECT":" ","MAREA":" ","LANE":"４６巷","ALLEY":" ","HOUSE_NO":"３７號","E_COORD97":169593.38,"N_COORD97":2535297.7400000002,"ADDRESS":"行大二街４６巷３７號","OBJECTID":244841},"geometry":{"x":169593.37999999989,"y":2535297.7400000002}},{"attributes":{"ID":244846,"DIS_CODE":0,"TOWNNAME":"仁德區","LI":"大甲里","LIN":"24鄰","STREET":"行大二街","SECT":" ","MAREA":" ","LANE":"４６巷","ALLEY":" ","HOUSE_NO":"３２號","E_COORD97":169607.37,"N_COORD97":2535309.7400000002,"ADDRESS":"行大二街４６巷３２號","OBJECTID":244842},"geometry":{"x":169607.37000000011,"y":2535309.7400000039}},{"attributes":{"ID":244847,"DIS_CODE":0,"TOWNNAME":"仁德區","LI":"仁義里","LIN":"24鄰","STREET":"正義路","SECT":" ","MAREA":" ","LANE":"１２７巷","ALLEY":" ","HOUSE_NO":"５號","E_COORD97":173698.76000000001,"N_COORD97":2541459.02,"ADDRESS":"正義路１２７巷５號","OBJECTID":244843},"geometry":{"x":173698.76000000164,"y":2541459.0199999996}},{"attributes":{"ID":244848,"DIS_CODE":0,"TOWNNAME":"仁德區","LI":"大甲里","LIN":"24鄰","STREET":"行大二街","SECT":" ","MAREA":" ","LANE":"４６巷","ALLEY":" ","HOUSE_NO":"５０號","E_COORD97":169541.19,"N_COORD97":2535293.7400000002,"ADDRESS":"行大二街４６巷５０號","OBJECTID":244844},"geometry":{"x":169541.19000000041,"y":2535293.7400000021}},{"attributes":{"ID":244849,"DIS_CODE":0,"TOWNNAME":"仁德區","LI":"大甲里","LIN":"24鄰","STREET":"行大二街","SECT":" ","MAREA":" ","LANE":"４６巷","ALLEY":" ","HOUSE_NO":"４３號","E_COORD97":169580.98999999999,"N_COORD97":2535302.9900000002,"ADDRESS":"行大二街４６巷４３號","OBJECTID":244845},"geometry":{"x":169580.99000000022,"y":2535302.9900000002}},{"attributes":{"ID":244850,"DIS_CODE":0,"TOWNNAME":"仁德區","LI":"大甲里","LIN":"24鄰","STREET":"行大二街","SECT":" ","MAREA":" ","LANE":"１６巷","ALLEY":" ","HOUSE_NO":"１０號","E_COORD97":169695.16,"N_COORD97":2535365.5,"ADDRESS":"行大二街１６巷１０號","OBJECTID":244846},"geometry":{"x":169695.16000000015,"y":2535365.5000000019}},{"attributes":{"ID":244851,"DIS_CODE":0,"TOWNNAME":"仁德區","LI":"大甲里","LIN":"24鄰","STREET":"行大二街","SECT":" ","MAREA":" ","LANE":"４６巷","ALLEY":" ","HOUSE_NO":"３０號","E_COORD97":169611.56,"N_COORD97":2535308.2400000002,"ADDRESS":"行大二街４６巷３０號","OBJECTID":244847},"geometry":{"x":169611.56000000052,"y":2535308.2400000002}},{"attributes":{"ID":244852,"DIS_CODE":0,"TOWNNAME":"仁德區","LI":"大甲里","LIN":"24鄰","STREET":"行大二街","SECT":" ","MAREA":" ","LANE":"４６巷","ALLEY":" ","HOUSE_NO":"２６號","E_COORD97":169620.45999999999,"N_COORD97":2535304.9900000002,"ADDRESS":"行大二街４６巷２６號","OBJECTID":244848},"geometry":{"x":169620.45999999903,"y":2535304.9900000021}},{"attributes":{"ID":244853,"DIS_CODE":0,"TOWNNAME":"仁德區","LI":"大甲里","LIN":"24鄰","STREET":"行大二街","SECT":" ","MAREA":" ","LANE":"２６巷","ALLEY":" ","HOUSE_NO":"１１號","E_COORD97":169668.23999999999,"N_COORD97":2535326.25,"ADDRESS":"行大二街２６巷１１號","OBJECTID":244849},"geometry":{"x":169668.24000000115,"y":2535326.2500000037}},{"attributes":{"ID":244854,"DIS_CODE":0,"TOWNNAME":"仁德區","LI":"大甲里","LIN":"24鄰","STREET":"行大二街","SECT":" ","MAREA":" ","LANE":"１６巷","ALLEY":" ","HOUSE_NO":"１２號","E_COORD97":169690.57000000001,"N_COORD97":2535366.5,"ADDRESS":"行大二街１６巷１２號","OBJECTID":244850},"geometry":{"x":169690.5700000003,"y":2535366.5000000019}},{"attributes":{"ID":244855,"DIS_CODE":0,"TOWNNAME":"仁德區","LI":"大甲里","LIN":"24鄰","STREET":"行大二街","SECT":" ","MAREA":" ","LANE":"２６巷","ALLEY":" ","HOUSE_NO":"１９號","E_COORD97":169649.98000000001,"N_COORD97":2535329.5,"ADDRESS":"行大二街２６巷１９號","OBJECTID":244851},"geometry":{"x":169649.98000000138,"y":2535329.5000000019}},{"attributes":{"ID":244856,"DIS_CODE":0,"TOWNNAME":"北區","LI":"大港里","LIN":"11鄰","STREET":"大興街","SECT":" ","MAREA":" ","LANE":"２９０巷","ALLEY":" ","HOUSE_NO":"９號","E_COORD97":166548.57999999999,"N_COORD97":2545682.3700000001,"ADDRESS":"大興街２９０巷９號","OBJECTID":244852},"geometry":{"x":166548.58000000101,"y":2545682.3700000029}},{"attributes":{"ID":244857,"DIS_CODE":0,"TOWNNAME":"關廟區","LI":"南花里","LIN":"11鄰","STREET":"明德街","SECT":" ","MAREA":" ","LANE":"１５巷","ALLEY":" ","HOUSE_NO":"１５號","E_COORD97":181821.89000000001,"N_COORD97":2539994.27,"ADDRESS":"明德街１５巷１５號","OBJECTID":244853},"geometry":{"x":181821.88999999966,"y":2539994.2700000033}},{"attributes":{"ID":244858,"DIS_CODE":0,"TOWNNAME":"關廟區","LI":"南花里","LIN":"11鄰","STREET":"明德街","SECT":" ","MAREA":" ","LANE":"１５巷","ALLEY":" ","HOUSE_NO":"３號","E_COORD97":181805.34,"N_COORD97":2540031.27,"ADDRESS":"明德街１５巷３號","OBJECTID":244854},"geometry":{"x":181805.34000000078,"y":2540031.2699999977}},{"attributes":{"ID":244859,"DIS_CODE":0,"TOWNNAME":"仁德區","LI":"大甲里","LIN":"24鄰","STREET":"行大二街","SECT":" ","MAREA":" ","LANE":"２６巷","ALLEY":" ","HOUSE_NO":"２３號","E_COORD97":169641.48999999999,"N_COORD97":2535331.5,"ADDRESS":"行大二街２６巷２３號","OBJECTID":244855},"geometry":{"x":169641.49000000115,"y":2535331.5000000037}},{"attributes":{"ID":244860,"DIS_CODE":0,"TOWNNAME":"仁德區","LI":"仁德里","LIN":"24鄰","STREET":"文心路","SECT":" ","MAREA":" ","LANE":"１１巷","ALLEY":" ","HOUSE_NO":"１號","E_COORD97":172127.10000000001,"N_COORD97":2541330.5800000001,"ADDRESS":"文心路１１巷１號","OBJECTID":244856},"geometry":{"x":172127.10000000056,"y":2541330.5800000001}},{"attributes":{"ID":244861,"DIS_CODE":0,"TOWNNAME":"仁德區","LI":"仁義里","LIN":"24鄰","STREET":"中清路","SECT":" ","MAREA":" ","LANE":"１５５巷","ALLEY":" ","HOUSE_NO":"４號","E_COORD97":173695.57999999999,"N_COORD97":2541506.29,"ADDRESS":"中清路１５５巷４號","OBJECTID":244857},"geometry":{"x":173695.58000000101,"y":2541506.290000001}},{"attributes":{"ID":244862,"DIS_CODE":0,"TOWNNAME":"仁德區","LI":"大甲里","LIN":"24鄰","STREET":"行大二街","SECT":" ","MAREA":" ","LANE":"４６巷","ALLEY":" ","HOUSE_NO":"１８號","E_COORD97":169644.29000000001,"N_COORD97":2535299.9900000002,"ADDRESS":"行大二街４６巷１８號","OBJECTID":244858},"geometry":{"x":169644.29000000097,"y":2535299.9900000002}},{"attributes":{"ID":244863,"DIS_CODE":0,"TOWNNAME":"仁德區","LI":"大甲里","LIN":"24鄰","STREET":"行大二街","SECT":" ","MAREA":" ","LANE":"１６巷","ALLEY":" ","HOUSE_NO":"２２號","E_COORD97":169667.98999999999,"N_COORD97":2535369,"ADDRESS":"行大二街１６巷２２號","OBJECTID":244859},"geometry":{"x":169667.98999999929,"y":2535369.0000000019}},{"attributes":{"ID":244864,"DIS_CODE":0,"TOWNNAME":"仁德區","LI":"大甲里","LIN":"24鄰","STREET":"行大二街","SECT":" ","MAREA":" ","LANE":"４６巷","ALLEY":" ","HOUSE_NO":"３９號","E_COORD97":169589.09,"N_COORD97":2535299.2400000002,"ADDRESS":"行大二街４６巷３９號","OBJECTID":244860},"geometry":{"x":169589.09000000171,"y":2535299.2399999984}},{"attributes":{"ID":244865,"DIS_CODE":0,"TOWNNAME":"仁德區","LI":"大甲里","LIN":"24鄰","STREET":"行大二街","SECT":" ","MAREA":" ","LANE":"１６巷","ALLEY":" ","HOUSE_NO":"１６號","E_COORD97":169681.51999999999,"N_COORD97":2535367.5,"ADDRESS":"行大二街１６巷１６號","OBJECTID":244861},"geometry":{"x":169681.52000000048,"y":2535367.5}},{"attributes":{"ID":244866,"DIS_CODE":0,"TOWNNAME":"東區","LI":"虎尾里","LIN":"24鄰","STREET":"東成街","SECT":" ","MAREA":" ","LANE":"２２２巷","ALLEY":" ","HOUSE_NO":"１１號之１３","E_COORD97":171924.32000000001,"N_COORD97":2542185.9199999999,"ADDRESS":"東成街２２２巷１１號之１３","OBJECTID":244862},"geometry":{"x":171924.32000000123,"y":2542185.9199999999}},{"attributes":{"ID":244867,"DIS_CODE":0,"TOWNNAME":"東區","LI":"虎尾里","LIN":"24鄰","STREET":"東成街","SECT":" ","MAREA":" ","LANE":"２２２巷","ALLEY":" ","HOUSE_NO":"１１號之１４","E_COORD97":171924.17999999999,"N_COORD97":2542179.6800000002,"ADDRESS":"東成街２２２巷１１號之１４","OBJECTID":244863},"geometry":{"x":171924.18000000156,"y":2542179.6800000016}},{"attributes":{"ID":244868,"DIS_CODE":0,"TOWNNAME":"東區","LI":"虎尾里","LIN":"24鄰","STREET":"東成街","SECT":" ","MAREA":" ","LANE":"２２２巷","ALLEY":" ","HOUSE_NO":"１１號之１５","E_COORD97":171923.76000000001,"N_COORD97":2542172.8799999999,"ADDRESS":"東成街２２２巷１１號之１５","OBJECTID":244864},"geometry":{"x":171923.76000000164,"y":2542172.8800000027}},{"attributes":{"ID":244869,"DIS_CODE":0,"TOWNNAME":"東區","LI":"虎尾里","LIN":"24鄰","STREET":"東成街","SECT":" ","MAREA":" ","LANE":"２２２巷","ALLEY":" ","HOUSE_NO":"１１號之１６","E_COORD97":171924.17999999999,"N_COORD97":2542166.3599999999,"ADDRESS":"東成街２２２巷１１號之１６","OBJECTID":244865},"geometry":{"x":171924.18000000156,"y":2542166.3599999994}},{"attributes":{"ID":244870,"DIS_CODE":0,"TOWNNAME":"東區","LI":"虎尾里","LIN":"24鄰","STREET":"東成街","SECT":" ","MAREA":" ","LANE":"２２２巷","ALLEY":" ","HOUSE_NO":"１３之２號","E_COORD97":171914.79999999999,"N_COORD97":2542224.75,"ADDRESS":"東成街２２２巷１３之２號","OBJECTID":244866},"geometry":{"x":171914.79999999981,"y":2542224.75}},{"attributes":{"ID":244871,"DIS_CODE":0,"TOWNNAME":"東區","LI":"崇學里","LIN":"14鄰","STREET":"崇德路","SECT":" ","MAREA":" ","LANE":" ","ALLEY":" ","HOUSE_NO":"２６０號十樓之９","E_COORD97":170226.48999999999,"N_COORD97":2542024.9399999999,"ADDRESS":"崇德路２６０號十樓之９","OBJECTID":244867},"geometry":{"x":170226.49000000115,"y":2542024.9400000013}},{"attributes":{"ID":244872,"DIS_CODE":0,"TOWNNAME":"東區","LI":"崇學里","LIN":"14鄰","STREET":"崇德路","SECT":" ","MAREA":" ","LANE":" ","ALLEY":" ","HOUSE_NO":"２６０號三樓","E_COORD97":170226.48999999999,"N_COORD97":2542024.9399999999,"ADDRESS":"崇德路２６０號三樓","OBJECTID":244868},"geometry":{"x":170226.49000000115,"y":2542024.9400000013}},{"attributes":{"ID":244873,"DIS_CODE":0,"TOWNNAME":"東區","LI":"崇學里","LIN":"14鄰","STREET":"崇德路","SECT":" ","MAREA":" ","LANE":" ","ALLEY":" ","HOUSE_NO":"２６０號五樓","E_COORD97":170226.48999999999,"N_COORD97":2542024.9399999999,"ADDRESS":"崇德路２６０號五樓","OBJECTID":244869},"geometry":{"x":170226.49000000115,"y":2542024.9400000013}},{"attributes":{"ID":244874,"DIS_CODE":0,"TOWNNAME":"關廟區","LI":"南花里","LIN":"11鄰","STREET":"明德街","SECT":" ","MAREA":" ","LANE":"１５巷","ALLEY":" ","HOUSE_NO":"１號","E_COORD97":181805.73999999999,"N_COORD97":2540041.27,"ADDRESS":"明德街１５巷１號","OBJECTID":244870},"geometry":{"x":181805.74000000209,"y":2540041.2699999996}},{"attributes":{"ID":244875,"DIS_CODE":0,"TOWNNAME":"南化區","LI":"東和里","LIN":"11鄰","STREET":" ","SECT":" ","MAREA":"東和","LANE":" ","ALLEY":" ","HOUSE_NO":"１０８號","E_COORD97":198803.82000000001,"N_COORD97":2547718.75,"ADDRESS":"東和１０８號","OBJECTID":244871},"geometry":{"x":198803.8200000003,"y":2547718.7500000019}},{"attributes":{"ID":244876,"DIS_CODE":0,"TOWNNAME":"南化區","LI":"東和里","LIN":"11鄰","STREET":" ","SECT":" ","MAREA":"東和","LANE":" ","ALLEY":" ","HOUSE_NO":"１０２號","E_COORD97":198466.51999999999,"N_COORD97":2547569.75,"ADDRESS":"東和１０２號","OBJECTID":244872},"geometry":{"x":198466.51999999955,"y":2547569.7500000019}},{"attributes":{"ID":244877,"DIS_CODE":0,"TOWNNAME":"南化區","LI":"小崙里","LIN":"11鄰","STREET":" ","SECT":" ","MAREA":"小崙","LANE":" ","ALLEY":" ","HOUSE_NO":"１１５號之１","E_COORD97":200469.14999999999,"N_COORD97":2549494.7999999998,"ADDRESS":"小崙１１５號之１","OBJECTID":244873},"geometry":{"x":200469.1500000013,"y":2549494.7999999989}},{"attributes":{"ID":244878,"DIS_CODE":0,"TOWNNAME":"關廟區","LI":"埤頭里","LIN":"11鄰","STREET":"保東路","SECT":" ","MAREA":" ","LANE":"８８巷","ALLEY":" ","HOUSE_NO":"９２號","E_COORD97":178835.22,"N_COORD97":2544274.2999999998,"ADDRESS":"保東路８８巷９２號","OBJECTID":244874},"geometry":{"x":178835.2200000016,"y":2544274.3000000026}},{"attributes":{"ID":244879,"DIS_CODE":0,"TOWNNAME":"關廟區","LI":"埤頭里","LIN":"11鄰","STREET":"保東路","SECT":" ","MAREA":" ","LANE":"８８巷","ALLEY":" ","HOUSE_NO":"９８號","E_COORD97":178835.62,"N_COORD97":2544283.2999999998,"ADDRESS":"保東路８８巷９８號","OBJECTID":244875},"geometry":{"x":178835.62000000011,"y":2544283.3000000007}},{"attributes":{"ID":244880,"DIS_CODE":0,"TOWNNAME":"東區","LI":"虎尾里","LIN":"24鄰","STREET":"東成街","SECT":" ","MAREA":" ","LANE":"２２２巷","ALLEY":" ","HOUSE_NO":"９號之１０","E_COORD97":171953.88,"N_COORD97":2542243.5899999999,"ADDRESS":"東成街２２２巷９號之１０","OBJECTID":244876},"geometry":{"x":171953.88000000082,"y":2542243.5900000036}},{"attributes":{"ID":244881,"DIS_CODE":0,"TOWNNAME":"東區","LI":"虎尾里","LIN":"24鄰","STREET":"東成街","SECT":" ","MAREA":" ","LANE":"２２２巷","ALLEY":" ","HOUSE_NO":"９號之１１","E_COORD97":171953.60000000001,"N_COORD97":2542238.5299999998,"ADDRESS":"東成街２２２巷９號之１１","OBJECTID":244877},"geometry":{"x":171953.60000000149,"y":2542238.5299999993}},{"attributes":{"ID":244882,"DIS_CODE":0,"TOWNNAME":"南化區","LI":"東和里","LIN":"11鄰","STREET":" ","SECT":" ","MAREA":"東和","LANE":" ","ALLEY":" ","HOUSE_NO":"１０４之３號","E_COORD97":198543.62,"N_COORD97":2547644.7999999998,"ADDRESS":"東和１０４之３號","OBJECTID":244878},"geometry":{"x":198543.62000000104,"y":2547644.8000000026}},{"attributes":{"ID":244883,"DIS_CODE":0,"TOWNNAME":"東區","LI":"虎尾里","LIN":"24鄰","STREET":"東成街","SECT":" ","MAREA":" ","LANE":"２２２巷","ALLEY":" ","HOUSE_NO":"９號之１２","E_COORD97":171954.01999999999,"N_COORD97":2542234.1000000001,"ADDRESS":"東成街２２２巷９號之１２","OBJECTID":244879},"geometry":{"x":171954.02000000142,"y":2542234.1000000015}},{"attributes":{"ID":244884,"DIS_CODE":0,"TOWNNAME":"東區","LI":"虎尾里","LIN":"24鄰","STREET":"東成街","SECT":" ","MAREA":" ","LANE":"２２２巷","ALLEY":" ","HOUSE_NO":"９號之１３","E_COORD97":171954.01999999999,"N_COORD97":2542229.1000000001,"ADDRESS":"東成街２２２巷９號之１３","OBJECTID":244880},"geometry":{"x":171954.02000000142,"y":2542229.0999999996}},{"attributes":{"ID":244885,"DIS_CODE":0,"TOWNNAME":"東區","LI":"虎尾里","LIN":"24鄰","STREET":"東成街","SECT":" ","MAREA":" ","LANE":"２２２巷","ALLEY":" ","HOUSE_NO":"９號之１４","E_COORD97":171953.88,"N_COORD97":2542224.8100000001,"ADDRESS":"東成街２２２巷９號之１４","OBJECTID":244881},"geometry":{"x":171953.88000000082,"y":2542224.8100000005}},{"attributes":{"ID":244886,"DIS_CODE":0,"TOWNNAME":"東區","LI":"崇學里","LIN":"14鄰","STREET":"崇德路","SECT":" ","MAREA":" ","LANE":" ","ALLEY":" ","HOUSE_NO":"２６０號五樓之１","E_COORD97":170226.48999999999,"N_COORD97":2542024.9399999999,"ADDRESS":"崇德路２６０號五樓之１","OBJECTID":244882},"geometry":{"x":170226.49000000115,"y":2542024.9400000013}},{"attributes":{"ID":244887,"DIS_CODE":0,"TOWNNAME":"東區","LI":"崇學里","LIN":"14鄰","STREET":"崇德路","SECT":" ","MAREA":" ","LANE":" ","ALLEY":" ","HOUSE_NO":"２６０號五樓之１０","E_COORD97":170226.48999999999,"N_COORD97":2542024.9399999999,"ADDRESS":"崇德路２６０號五樓之１０","OBJECTID":244883},"geometry":{"x":170226.49000000115,"y":2542024.9400000013}},{"attributes":{"ID":244888,"DIS_CODE":0,"TOWNNAME":"東區","LI":"崇學里","LIN":"14鄰","STREET":"崇德路","SECT":" ","MAREA":" ","LANE":" ","ALLEY":" ","HOUSE_NO":"２６０號五樓之２","E_COORD97":170226.48999999999,"N_COORD97":2542024.9399999999,"ADDRESS":"崇德路２６０號五樓之２","OBJECTID":244884},"geometry":{"x":170226.49000000115,"y":2542024.9400000013}},{"attributes":{"ID":244889,"DIS_CODE":0,"TOWNNAME":"南化區","LI":"南化里","LIN":"11鄰","STREET":" ","SECT":" ","MAREA":"南化","LANE":" ","ALLEY":" ","HOUSE_NO":"２５５之１號","E_COORD97":196568.04000000001,"N_COORD97":2549294.7999999998,"ADDRESS":"南化２５５之１號","OBJECTID":244885},"geometry":{"x":196568.04000000004,"y":2549294.7999999989}},{"attributes":{"ID":244890,"DIS_CODE":0,"TOWNNAME":"南化區","LI":"南化里","LIN":"11鄰","STREET":" ","SECT":" ","MAREA":"南化","LANE":" ","ALLEY":" ","HOUSE_NO":"２４０號","E_COORD97":196533.84,"N_COORD97":2549182.75,"ADDRESS":"南化２４０號","OBJECTID":244886},"geometry":{"x":196533.83999999985,"y":2549182.7500000037}},{"attributes":{"ID":244891,"DIS_CODE":0,"TOWNNAME":"東區","LI":"虎尾里","LIN":"24鄰","STREET":"東成街","SECT":" ","MAREA":" ","LANE":"２２２巷","ALLEY":" ","HOUSE_NO":"９號之１５","E_COORD97":171953.60000000001,"N_COORD97":2542221.0600000001,"ADDRESS":"東成街２２２巷９號之１５","OBJECTID":244887},"geometry":{"x":171953.60000000149,"y":2542221.0600000024}},{"attributes":{"ID":244892,"DIS_CODE":0,"TOWNNAME":"東區","LI":"虎尾里","LIN":"24鄰","STREET":"東成街","SECT":" ","MAREA":" ","LANE":"２２２巷","ALLEY":" ","HOUSE_NO":"９號之１６","E_COORD97":171952.76999999999,"N_COORD97":2542217.3199999998,"ADDRESS":"東成街２２２巷９號之１６","OBJECTID":244888},"geometry":{"x":171952.77000000048,"y":2542217.3200000003}},{"attributes":{"ID":244893,"DIS_CODE":0,"TOWNNAME":"東區","LI":"虎尾里","LIN":"24鄰","STREET":"東成街","SECT":" ","MAREA":" ","LANE":"２２２巷","ALLEY":" ","HOUSE_NO":"１１號之１","E_COORD97":171926.26000000001,"N_COORD97":2542245.96,"ADDRESS":"東成街２２２巷１１號之１","OBJECTID":244889},"geometry":{"x":171926.26000000071,"y":2542245.9600000028}},{"attributes":{"ID":244894,"DIS_CODE":0,"TOWNNAME":"東區","LI":"虎尾里","LIN":"24鄰","STREET":"東成街","SECT":" ","MAREA":" ","LANE":"２２２巷","ALLEY":" ","HOUSE_NO":"１１號之２","E_COORD97":171925.42999999999,"N_COORD97":2542240.8199999998,"ADDRESS":"東成街２２２巷１１號之２","OBJECTID":244890},"geometry":{"x":171925.4299999997,"y":2542240.8200000003}},{"attributes":{"ID":244895,"DIS_CODE":0,"TOWNNAME":"東區","LI":"虎尾里","LIN":"24鄰","STREET":"東成街","SECT":" ","MAREA":" ","LANE":"２２２巷","ALLEY":" ","HOUSE_NO":"１１號之３","E_COORD97":171925.42999999999,"N_COORD97":2542235.8300000001,"ADDRESS":"東成街２２２巷１１號之３","OBJECTID":244891},"geometry":{"x":171925.4299999997,"y":2542235.8300000019}},{"attributes":{"ID":244896,"DIS_CODE":0,"TOWNNAME":"東區","LI":"虎尾里","LIN":"24鄰","STREET":"東成街","SECT":" ","MAREA":" ","LANE":"２２２巷","ALLEY":" ","HOUSE_NO":"１１號之４","E_COORD97":171924.73000000001,"N_COORD97":2542231.6000000001,"ADDRESS":"東成街２２２巷１１號之４","OBJECTID":244892},"geometry":{"x":171924.73000000231,"y":2542231.5999999996}},{"attributes":{"ID":244897,"DIS_CODE":0,"TOWNNAME":"東區","LI":"虎尾里","LIN":"24鄰","STREET":"東成街","SECT":" ","MAREA":" ","LANE":"２２２巷","ALLEY":" ","HOUSE_NO":"９號之１","E_COORD97":171954.16,"N_COORD97":2542248.5899999999,"ADDRESS":"東成街２２２巷９號之１","OBJECTID":244893},"geometry":{"x":171954.16000000108,"y":2542248.5900000017}},{"attributes":{"ID":244898,"DIS_CODE":0,"TOWNNAME":"東區","LI":"虎尾里","LIN":"24鄰","STREET":"東成街","SECT":" ","MAREA":" ","LANE":"２２２巷","ALLEY":" ","HOUSE_NO":"９號之２","E_COORD97":171947.91,"N_COORD97":2542203.1800000002,"ADDRESS":"東成街２２２巷９號之２","OBJECTID":244894},"geometry":{"x":171947.91000000015,"y":2542203.1800000016}},{"attributes":{"ID":244899,"DIS_CODE":0,"TOWNNAME":"東區","LI":"虎尾里","LIN":"24鄰","STREET":"東成街","SECT":" ","MAREA":" ","LANE":"２２２巷","ALLEY":" ","HOUSE_NO":"９號之３","E_COORD97":171948.19,"N_COORD97":2542196.7999999998,"ADDRESS":"東成街２２２巷９號之３","OBJECTID":244895},"geometry":{"x":171948.19000000041,"y":2542196.8000000026}},{"attributes":{"ID":244900,"DIS_CODE":0,"TOWNNAME":"東區","LI":"虎尾里","LIN":"24鄰","STREET":"東成街","SECT":" ","MAREA":" ","LANE":"２２２巷","ALLEY":" ","HOUSE_NO":"９號之４","E_COORD97":171948.19,"N_COORD97":2542190.8399999999,"ADDRESS":"東成街２２２巷９號之４","OBJECTID":244896},"geometry":{"x":171948.19000000041,"y":2542190.839999998}},{"attributes":{"ID":244901,"DIS_CODE":0,"TOWNNAME":"永康區","LI":"網寮里","LIN":"24鄰","STREET":"永春街","SECT":" ","MAREA":" ","LANE":"３６巷","ALLEY":" ","HOUSE_NO":"２８號","E_COORD97":173815.63,"N_COORD97":2546391.9100000001,"ADDRESS":"永春街３６巷２８號","OBJECTID":244897},"geometry":{"x":173815.63000000082,"y":2546391.910000002}},{"attributes":{"ID":244902,"DIS_CODE":0,"TOWNNAME":"永康區","LI":"網寮里","LIN":"24鄰","STREET":"永春街","SECT":" ","MAREA":" ","LANE":"３８巷","ALLEY":" ","HOUSE_NO":"６號","E_COORD97":173756.42000000001,"N_COORD97":2546420.6499999999,"ADDRESS":"永春街３８巷６號","OBJECTID":244898},"geometry":{"x":173756.41999999993,"y":2546420.6500000041}},{"attributes":{"ID":244903,"DIS_CODE":0,"TOWNNAME":"永康區","LI":"網寮里","LIN":"24鄰","STREET":"永春街","SECT":" ","MAREA":" ","LANE":"３８巷","ALLEY":" ","HOUSE_NO":"２５號","E_COORD97":173791.82000000001,"N_COORD97":2546451.0299999998,"ADDRESS":"永春街３８巷２５號","OBJECTID":244899},"geometry":{"x":173791.8200000003,"y":2546451.0300000031}},{"attributes":{"ID":244904,"DIS_CODE":0,"TOWNNAME":"永康區","LI":"網寮里","LIN":"24鄰","STREET":"永春街","SECT":" ","MAREA":" ","LANE":"３８巷","ALLEY":" ","HOUSE_NO":"１１號","E_COORD97":173764.12,"N_COORD97":2546444.1099999999,"ADDRESS":"永春街３８巷１１號","OBJECTID":244900},"geometry":{"x":173764.12000000011,"y":2546444.1100000013}},{"attributes":{"ID":244905,"DIS_CODE":0,"TOWNNAME":"永康區","LI":"網寮里","LIN":"24鄰","STREET":"永春街","SECT":" ","MAREA":" ","LANE":"４５巷","ALLEY":" ","HOUSE_NO":"２１號","E_COORD97":173700.95999999999,"N_COORD97":2546364.9399999999,"ADDRESS":"永春街４５巷２１號","OBJECTID":244901},"geometry":{"x":173700.96000000183,"y":2546364.9400000013}},{"attributes":{"ID":244906,"DIS_CODE":0,"TOWNNAME":"永康區","LI":"網寮里","LIN":"24鄰","STREET":"永春街","SECT":" ","MAREA":" ","LANE":"３６巷","ALLEY":" ","HOUSE_NO":"２６號","E_COORD97":173810.70999999999,"N_COORD97":2546390.6699999999,"ADDRESS":"永春街３６巷２６號","OBJECTID":244902},"geometry":{"x":173810.70999999996,"y":2546390.6700000018}},{"attributes":{"ID":244907,"DIS_CODE":0,"TOWNNAME":"永康區","LI":"網寮里","LIN":"24鄰","STREET":"永春街","SECT":" ","MAREA":" ","LANE":"３６巷","ALLEY":" ","HOUSE_NO":"２４號","E_COORD97":173805.73000000001,"N_COORD97":2546389.9199999999,"ADDRESS":"永春街３６巷２４號","OBJECTID":244903},"geometry":{"x":173805.73000000045,"y":2546389.9199999999}},{"attributes":{"ID":244908,"DIS_CODE":0,"TOWNNAME":"永康區","LI":"網寮里","LIN":"24鄰","STREET":"永春街","SECT":" ","MAREA":" ","LANE":"３６巷","ALLEY":" ","HOUSE_NO":"１８號","E_COORD97":173791.26999999999,"N_COORD97":2546386.4199999999,"ADDRESS":"永春街３６巷１８號","OBJECTID":244904},"geometry":{"x":173791.26999999955,"y":2546386.4199999999}},{"attributes":{"ID":244909,"DIS_CODE":0,"TOWNNAME":"東區","LI":"崇德里","LIN":"24鄰","STREET":"崇德路","SECT":" ","MAREA":" ","LANE":"５５０巷","ALLEY":" ","HOUSE_NO":"２４號","E_COORD97":170704.76999999999,"N_COORD97":2541469.4500000002,"ADDRESS":"崇德路５５０巷２４號","OBJECTID":244905},"geometry":{"x":170704.77000000048,"y":2541469.4499999993}},{"attributes":{"ID":244910,"DIS_CODE":0,"TOWNNAME":"東區","LI":"崇德里","LIN":"24鄰","STREET":"崇德路","SECT":" ","MAREA":" ","LANE":"５５０巷","ALLEY":" ","HOUSE_NO":"２５號","E_COORD97":170709.44,"N_COORD97":2541443.73,"ADDRESS":"崇德路５５０巷２５號","OBJECTID":244906},"geometry":{"x":170709.44000000227,"y":2541443.7300000023}},{"attributes":{"ID":244911,"DIS_CODE":0,"TOWNNAME":"仁德區","LI":"保安里","LIN":"24鄰","STREET":"保學一街","SECT":" ","MAREA":" ","LANE":"５５巷","ALLEY":" ","HOUSE_NO":"３號","E_COORD97":171708.37,"N_COORD97":2535424.29,"ADDRESS":"保學一街５５巷３號","OBJECTID":244907},"geometry":{"x":171708.37000000104,"y":2535424.290000001}},{"attributes":{"ID":244912,"DIS_CODE":0,"TOWNNAME":"東區","LI":"崇德里","LIN":"24鄰","STREET":"崇德路","SECT":" ","MAREA":" ","LANE":"５５０巷","ALLEY":" ","HOUSE_NO":"２６號","E_COORD97":170679.60999999999,"N_COORD97":2541469.6099999999,"ADDRESS":"崇德路５５０巷２６號","OBJECTID":244908},"geometry":{"x":170679.61000000127,"y":2541469.6099999994}},{"attributes":{"ID":244913,"DIS_CODE":0,"TOWNNAME":"東區","LI":"崇德里","LIN":"24鄰","STREET":"崇德路","SECT":" ","MAREA":" ","LANE":"５５０巷","ALLEY":" ","HOUSE_NO":"２７號","E_COORD97":170705.60000000001,"N_COORD97":2541444.7999999998,"ADDRESS":"崇德路５５０巷２７號","OBJECTID":244909},"geometry":{"x":170705.59999999963,"y":2541444.8000000007}},{"attributes":{"ID":244914,"DIS_CODE":0,"TOWNNAME":"東區","LI":"崇德里","LIN":"24鄰","STREET":"崇德路","SECT":" ","MAREA":" ","LANE":"５５０巷","ALLEY":" ","HOUSE_NO":"２８號","E_COORD97":170676.01999999999,"N_COORD97":2541473.6000000001,"ADDRESS":"崇德路５５０巷２８號","OBJECTID":244910},"geometry":{"x":170676.02000000048,"y":2541473.6000000034}},{"attributes":{"ID":244915,"DIS_CODE":0,"TOWNNAME":"仁德區","LI":"成功里","LIN":"24鄰","STREET":"保華路","SECT":" ","MAREA":" ","LANE":"２６５巷","ALLEY":" ","HOUSE_NO":"３２號","E_COORD97":170645.48999999999,"N_COORD97":2539894.5099999998,"ADDRESS":"保華路２６５巷３２號","OBJECTID":244911},"geometry":{"x":170645.49000000022,"y":2539894.5100000035}},{"attributes":{"ID":244916,"DIS_CODE":0,"TOWNNAME":"仁德區","LI":"成功里","LIN":"24鄰","STREET":"保華路","SECT":" ","MAREA":" ","LANE":"２６５巷","ALLEY":" ","HOUSE_NO":"１７號","E_COORD97":170653.35000000001,"N_COORD97":2539929.5,"ADDRESS":"保華路２６５巷１７號","OBJECTID":244912},"geometry":{"x":170653.35000000149,"y":2539929.5000000019}},{"attributes":{"ID":244917,"DIS_CODE":0,"TOWNNAME":"仁德區","LI":"成功里","LIN":"24鄰","STREET":"保華路","SECT":" ","MAREA":" ","LANE":"２６５巷","ALLEY":" ","HOUSE_NO":"１９號","E_COORD97":170651.73000000001,"N_COORD97":2539916.5,"ADDRESS":"保華路２６５巷１９號","OBJECTID":244913},"geometry":{"x":170651.73000000138,"y":2539916.5000000019}},{"attributes":{"ID":244918,"DIS_CODE":0,"TOWNNAME":"仁德區","LI":"成功里","LIN":"24鄰","STREET":"保華路","SECT":" ","MAREA":" ","LANE":"２６５巷","ALLEY":" ","HOUSE_NO":"４０號","E_COORD97":170660.35000000001,"N_COORD97":2539888.0099999998,"ADDRESS":"保華路２６５巷４０號","OBJECTID":244914},"geometry":{"x":170660.35000000056,"y":2539888.0100000016}},{"attributes":{"ID":244919,"DIS_CODE":0,"TOWNNAME":"新營區","LI":"南興里","LIN":"11鄰","STREET":"和平路","SECT":" ","MAREA":" ","LANE":"１０４巷","ALLEY":" ","HOUSE_NO":"３８號","E_COORD97":179296.53,"N_COORD97":2577569.3799999999,"ADDRESS":"和平路１０４巷３８號","OBJECTID":244915},"geometry":{"x":179296.53000000212,"y":2577569.3800000008}},{"attributes":{"ID":244920,"DIS_CODE":0,"TOWNNAME":"新營區","LI":"新北里","LIN":"11鄰","STREET":"三興街","SECT":" ","MAREA":" ","LANE":"３０１巷","ALLEY":" ","HOUSE_NO":"６２號","E_COORD97":179175.81,"N_COORD97":2579720.6299999999,"ADDRESS":"三興街３０１巷６２號","OBJECTID":244916},"geometry":{"x":179175.81000000052,"y":2579720.6300000008}},{"attributes":{"ID":244921,"DIS_CODE":0,"TOWNNAME":"新營區","LI":"新北里","LIN":"11鄰","STREET":"三興街","SECT":" ","MAREA":" ","LANE":"３０１巷","ALLEY":" ","HOUSE_NO":"５０號","E_COORD97":179200.37,"N_COORD97":2579722.73,"ADDRESS":"三興街３０１巷５０號","OBJECTID":244917},"geometry":{"x":179200.37000000011,"y":2579722.7300000004}},{"attributes":{"ID":244922,"DIS_CODE":0,"TOWNNAME":"新營區","LI":"大宏里","LIN":"11鄰","STREET":"三民路","SECT":" ","MAREA":" ","LANE":"８巷","ALLEY":" ","HOUSE_NO":"３３號","E_COORD97":180473.48000000001,"N_COORD97":2578567.1600000001,"ADDRESS":"三民路８巷３３號","OBJECTID":244918},"geometry":{"x":180473.48000000231,"y":2578567.1600000001}},{"attributes":{"ID":244923,"DIS_CODE":0,"TOWNNAME":"新營區","LI":"新北里","LIN":"11鄰","STREET":"三興街","SECT":" ","MAREA":" ","LANE":"３０１巷","ALLEY":" ","HOUSE_NO":"６０號","E_COORD97":179179.89999999999,"N_COORD97":2579720.6099999999,"ADDRESS":"三興街３０１巷６０號","OBJECTID":244919},"geometry":{"x":179179.90000000037,"y":2579720.6100000013}},{"attributes":{"ID":244924,"DIS_CODE":0,"TOWNNAME":"新營區","LI":"大宏里","LIN":"11鄰","STREET":"三民路","SECT":" ","MAREA":" ","LANE":"８巷","ALLEY":" ","HOUSE_NO":"３１號","E_COORD97":180478.59,"N_COORD97":2578567.1400000001,"ADDRESS":"三民路８巷３１號","OBJECTID":244920},"geometry":{"x":180478.58999999985,"y":2578567.1400000006}},{"attributes":{"ID":244925,"DIS_CODE":0,"TOWNNAME":"新營區","LI":"新北里","LIN":"11鄰","STREET":"三興街","SECT":" ","MAREA":" ","LANE":"３０１巷","ALLEY":" ","HOUSE_NO":"５２號","E_COORD97":179196.28,"N_COORD97":2579722.75,"ADDRESS":"三興街３０１巷５２號","OBJECTID":244921},"geometry":{"x":179196.28000000026,"y":2579722.75}},{"attributes":{"ID":244926,"DIS_CODE":0,"TOWNNAME":"北區","LI":"公園里","LIN":"11鄰","STREET":"北忠街","SECT":" ","MAREA":" ","LANE":" ","ALLEY":" ","HOUSE_NO":"８５號","E_COORD97":169031.26999999999,"N_COORD97":2544388.0499999998,"ADDRESS":"北忠街８５號","OBJECTID":244922},"geometry":{"x":169031.26999999955,"y":2544388.0500000026}},{"attributes":{"ID":244927,"DIS_CODE":0,"TOWNNAME":"北區","LI":"公園里","LIN":"11鄰","STREET":"北忠街","SECT":" ","MAREA":" ","LANE":" ","ALLEY":" ","HOUSE_NO":"８７號","E_COORD97":169031.29000000001,"N_COORD97":2544406.1099999999,"ADDRESS":"北忠街８７號","OBJECTID":244923},"geometry":{"x":169031.29000000004,"y":2544406.1100000031}},{"attributes":{"ID":244928,"DIS_CODE":0,"TOWNNAME":"新營區","LI":"五興里","LIN":"11鄰","STREET":" ","SECT":" ","MAREA":"五間厝","LANE":" ","ALLEY":" ","HOUSE_NO":"１１６號","E_COORD97":175487.51999999999,"N_COORD97":2574359.8100000001,"ADDRESS":"五間厝１１６號","OBJECTID":244924},"geometry":{"x":175487.52000000048,"y":2574359.8100000042}},{"attributes":{"ID":244929,"DIS_CODE":0,"TOWNNAME":"新營區","LI":"五興里","LIN":"11鄰","STREET":" ","SECT":" ","MAREA":"五間厝","LANE":" ","ALLEY":" ","HOUSE_NO":"１１７號","E_COORD97":175509.92999999999,"N_COORD97":2574340.8700000001,"ADDRESS":"五間厝１１７號","OBJECTID":244925},"geometry":{"x":175509.93000000063,"y":2574340.8700000029}},{"attributes":{"ID":244930,"DIS_CODE":0,"TOWNNAME":"北區","LI":"公園里","LIN":"11鄰","STREET":"北忠街","SECT":" ","MAREA":" ","LANE":" ","ALLEY":" ","HOUSE_NO":"８９號","E_COORD97":169022.82999999999,"N_COORD97":2544409.4500000002,"ADDRESS":"北忠街８９號","OBJECTID":244926},"geometry":{"x":169022.83000000007,"y":2544409.4499999993}},{"attributes":{"ID":244931,"DIS_CODE":0,"TOWNNAME":"北區","LI":"公園里","LIN":"11鄰","STREET":"北忠街","SECT":" ","MAREA":" ","LANE":" ","ALLEY":" ","HOUSE_NO":"９１號","E_COORD97":169015.92000000001,"N_COORD97":2544411.6400000001,"ADDRESS":"北忠街９１號","OBJECTID":244927},"geometry":{"x":169015.92000000086,"y":2544411.6400000025}},{"attributes":{"ID":244932,"DIS_CODE":0,"TOWNNAME":"新營區","LI":"忠政里","LIN":"11鄰","STREET":"中正路","SECT":" ","MAREA":" ","LANE":" ","ALLEY":" ","HOUSE_NO":"５５之４２號","E_COORD97":179982.39999999999,"N_COORD97":2579496.48,"ADDRESS":"中正路５５之４２號","OBJECTID":244928},"geometry":{"x":179982.40000000224,"y":2579496.4800000023}},{"attributes":{"ID":244933,"DIS_CODE":0,"TOWNNAME":"新營區","LI":"新北里","LIN":"11鄰","STREET":"長榮路","SECT":"二段","MAREA":" ","LANE":" ","ALLEY":" ","HOUSE_NO":"１４０之１號","E_COORD97":179176.97,"N_COORD97":2579824.7999999998,"ADDRESS":"長榮路二段１４０之１號","OBJECTID":244929},"geometry":{"x":179176.96999999974,"y":2579824.8000000007}},{"attributes":{"ID":244934,"DIS_CODE":0,"TOWNNAME":"新營區","LI":"忠政里","LIN":"11鄰","STREET":"中正路","SECT":" ","MAREA":" ","LANE":" ","ALLEY":" ","HOUSE_NO":"５５之３０號","E_COORD97":179956.89999999999,"N_COORD97":2579509.8900000001,"ADDRESS":"中正路５５之３０號","OBJECTID":244930},"geometry":{"x":179956.90000000224,"y":2579509.8900000025}},{"attributes":{"ID":244935,"DIS_CODE":0,"TOWNNAME":"新營區","LI":"忠政里","LIN":"11鄰","STREET":"中正路","SECT":" ","MAREA":" ","LANE":" ","ALLEY":" ","HOUSE_NO":"５５之２６號","E_COORD97":179967.12,"N_COORD97":2579509.8399999999,"ADDRESS":"中正路５５之２６號","OBJECTID":244931},"geometry":{"x":179967.12000000197,"y":2579509.8400000017}},{"attributes":{"ID":244936,"DIS_CODE":0,"TOWNNAME":"新營區","LI":"民權里","LIN":"11鄰","STREET":"中華路","SECT":" ","MAREA":" ","LANE":" ","ALLEY":" ","HOUSE_NO":"８號之１","E_COORD97":179910.23999999999,"N_COORD97":2578240.96,"ADDRESS":"中華路８號之１","OBJECTID":244932},"geometry":{"x":179910.24000000022,"y":2578240.959999999}},{"attributes":{"ID":244937,"DIS_CODE":0,"TOWNNAME":"新營區","LI":"南興里","LIN":"11鄰","STREET":"和平路","SECT":" ","MAREA":" ","LANE":"１０２巷","ALLEY":" ","HOUSE_NO":"４１號","E_COORD97":179290.5,"N_COORD97":2577594.8900000001,"ADDRESS":"和平路１０２巷４１號","OBJECTID":244933},"geometry":{"x":179290.50000000093,"y":2577594.8900000025}},{"attributes":{"ID":244938,"DIS_CODE":0,"TOWNNAME":"新營區","LI":"民權里","LIN":"11鄰","STREET":"信義街","SECT":" ","MAREA":" ","LANE":"５３巷","ALLEY":" ","HOUSE_NO":"１３號","E_COORD97":179842.98000000001,"N_COORD97":2578279.98,"ADDRESS":"信義街５３巷１３號","OBJECTID":244934},"geometry":{"x":179842.98000000231,"y":2578279.9800000004}},{"attributes":{"ID":244939,"DIS_CODE":0,"TOWNNAME":"新營區","LI":"民權里","LIN":"11鄰","STREET":"信義街","SECT":" ","MAREA":" ","LANE":"５３巷","ALLEY":" ","HOUSE_NO":"１９號","E_COORD97":179829.67999999999,"N_COORD97":2578280.04,"ADDRESS":"信義街５３巷１９號","OBJECTID":244935},"geometry":{"x":179829.68000000063,"y":2578280.040000001}},{"attributes":{"ID":244940,"DIS_CODE":0,"TOWNNAME":"新營區","LI":"南興里","LIN":"11鄰","STREET":"和平路","SECT":" ","MAREA":" ","LANE":"１０２巷","ALLEY":" ","HOUSE_NO":"４３之１號","E_COORD97":179285.84,"N_COORD97":2577594.9700000002,"ADDRESS":"和平路１０２巷４３之１號","OBJECTID":244936},"geometry":{"x":179285.84000000078,"y":2577594.9700000025}},{"attributes":{"ID":244941,"DIS_CODE":0,"TOWNNAME":"新營區","LI":"南興里","LIN":"11鄰","STREET":"和平路","SECT":" ","MAREA":" ","LANE":"１０４巷","ALLEY":" ","HOUSE_NO":"４０號","E_COORD97":179293.45000000001,"N_COORD97":2577569.3900000001,"ADDRESS":"和平路１０４巷４０號","OBJECTID":244937},"geometry":{"x":179293.45000000019,"y":2577569.3900000006}},{"attributes":{"ID":244942,"DIS_CODE":0,"TOWNNAME":"新營區","LI":"民權里","LIN":"11鄰","STREET":"信義街","SECT":" ","MAREA":" ","LANE":"５３巷","ALLEY":" ","HOUSE_NO":"１５號","E_COORD97":179838.89000000001,"N_COORD97":2578280,"ADDRESS":"信義街５３巷１５號","OBJECTID":244938},"geometry":{"x":179838.88999999966,"y":2578280}},{"attributes":{"ID":244943,"DIS_CODE":0,"TOWNNAME":"新營區","LI":"大宏里","LIN":"11鄰","STREET":"三民路","SECT":" ","MAREA":" ","LANE":"８巷","ALLEY":" ","HOUSE_NO":"２９號","E_COORD97":180486.76000000001,"N_COORD97":2578567.1000000001,"ADDRESS":"三民路８巷２９號","OBJECTID":244939},"geometry":{"x":180486.76000000071,"y":2578567.0999999996}},{"attributes":{"ID":244944,"DIS_CODE":0,"TOWNNAME":"新營區","LI":"王公里","LIN":"11鄰","STREET":"義和街","SECT":" ","MAREA":" ","LANE":"８巷","ALLEY":" ","HOUSE_NO":"６號","E_COORD97":180508.41,"N_COORD97":2579099.6800000002,"ADDRESS":"義和街８巷６號","OBJECTID":244940},"geometry":{"x":180508.41000000108,"y":2579099.6800000034}},{"attributes":{"ID":244945,"DIS_CODE":0,"TOWNNAME":"新營區","LI":"新北里","LIN":"11鄰","STREET":"三興街","SECT":" ","MAREA":" ","LANE":"３０１巷","ALLEY":" ","HOUSE_NO":"７０號","E_COORD97":179157.41,"N_COORD97":2579719.6099999999,"ADDRESS":"三興街３０１巷７０號","OBJECTID":244941},"geometry":{"x":179157.41000000015,"y":2579719.6099999994}},{"attributes":{"ID":244946,"DIS_CODE":0,"TOWNNAME":"新營區","LI":"三仙里","LIN":"11鄰","STREET":"民權路","SECT":" ","MAREA":" ","LANE":"４１巷","ALLEY":" ","HOUSE_NO":"５號之４","E_COORD97":179656.64000000001,"N_COORD97":2578262.0899999999,"ADDRESS":"民權路４１巷５號之４","OBJECTID":244942},"geometry":{"x":179656.6400000006,"y":2578262.0899999999}},{"attributes":{"ID":244947,"DIS_CODE":0,"TOWNNAME":"新營區","LI":"民權里","LIN":"11鄰","STREET":"信義街","SECT":" ","MAREA":" ","LANE":"５３巷","ALLEY":" ","HOUSE_NO":"１號","E_COORD97":179910.29000000001,"N_COORD97":2578286.2999999998,"ADDRESS":"信義街５３巷１號","OBJECTID":244943},"geometry":{"x":179910.29000000097,"y":2578286.3000000045}},{"attributes":{"ID":244948,"DIS_CODE":0,"TOWNNAME":"新營區","LI":"新北里","LIN":"11鄰","STREET":"三興街","SECT":" ","MAREA":" ","LANE":"３０１巷","ALLEY":" ","HOUSE_NO":"７８號","E_COORD97":179142.06,"N_COORD97":2579718.5800000001,"ADDRESS":"三興街３０１巷７８號","OBJECTID":244944},"geometry":{"x":179142.06000000052,"y":2579718.5800000019}},{"attributes":{"ID":244949,"DIS_CODE":0,"TOWNNAME":"新營區","LI":"民權里","LIN":"11鄰","STREET":"信義街","SECT":" ","MAREA":" ","LANE":" ","ALLEY":" ","HOUSE_NO":"５１號","E_COORD97":179930.97,"N_COORD97":2578280.6699999999,"ADDRESS":"信義街５１號","OBJECTID":244945},"geometry":{"x":179930.97000000067,"y":2578280.6700000018}},{"attributes":{"ID":244950,"DIS_CODE":0,"TOWNNAME":"新營區","LI":"民權里","LIN":"11鄰","STREET":"信義街","SECT":" ","MAREA":" ","LANE":" ","ALLEY":" ","HOUSE_NO":"４７號","E_COORD97":179917.67999999999,"N_COORD97":2578269.6600000001,"ADDRESS":"信義街４７號","OBJECTID":244946},"geometry":{"x":179917.68000000063,"y":2578269.6600000039}},{"attributes":{"ID":244951,"DIS_CODE":0,"TOWNNAME":"新營區","LI":"民生里","LIN":"11鄰","STREET":"民生路","SECT":" ","MAREA":" ","LANE":" ","ALLEY":" ","HOUSE_NO":"４５號","E_COORD97":179297.39000000001,"N_COORD97":2578394.4300000002,"ADDRESS":"民生路４５號","OBJECTID":244947},"geometry":{"x":179297.3900000006,"y":2578394.4299999997}},{"attributes":{"ID":244952,"DIS_CODE":0,"TOWNNAME":"新營區","LI":"民生里","LIN":"11鄰","STREET":"民生路","SECT":" ","MAREA":" ","LANE":" ","ALLEY":" ","HOUSE_NO":"４３之１號","E_COORD97":179297.76000000001,"N_COORD97":2578375.6600000001,"ADDRESS":"民生路４３之１號","OBJECTID":244948},"geometry":{"x":179297.75999999885,"y":2578375.660000002}},{"attributes":{"ID":244953,"DIS_CODE":0,"TOWNNAME":"新營區","LI":"民權里","LIN":"11鄰","STREET":"中華路","SECT":" ","MAREA":" ","LANE":" ","ALLEY":" ","HOUSE_NO":"１８之６號","E_COORD97":179841.17000000001,"N_COORD97":2578234.6499999999,"ADDRESS":"中華路１８之６號","OBJECTID":244949},"geometry":{"x":179841.17000000179,"y":2578234.6500000004}},{"attributes":{"ID":244954,"DIS_CODE":0,"TOWNNAME":"新營區","LI":"民權里","LIN":"11鄰","STREET":"信義街","SECT":" ","MAREA":" ","LANE":" ","ALLEY":" ","HOUSE_NO":"３９號之１","E_COORD97":179934.13,"N_COORD97":2578266.3199999998,"ADDRESS":"信義街３９號之１","OBJECTID":244950},"geometry":{"x":179934.12999999989,"y":2578266.3200000022}},{"attributes":{"ID":244955,"DIS_CODE":0,"TOWNNAME":"新營區","LI":"中營里","LIN":"11鄰","STREET":"工業街","SECT":" ","MAREA":" ","LANE":" ","ALLEY":" ","HOUSE_NO":"３７號","E_COORD97":180889.87,"N_COORD97":2578365.8700000001,"ADDRESS":"工業街３７號","OBJECTID":244951},"geometry":{"x":180889.87000000104,"y":2578365.870000001}},{"attributes":{"ID":244956,"DIS_CODE":0,"TOWNNAME":"新營區","LI":"中營里","LIN":"11鄰","STREET":"工業街","SECT":" ","MAREA":" ","LANE":" ","ALLEY":" ","HOUSE_NO":"４０號","E_COORD97":180745.89000000001,"N_COORD97":2578201.5299999998,"ADDRESS":"工業街４０號","OBJECTID":244952},"geometry":{"x":180745.88999999966,"y":2578201.5299999975}},{"attributes":{"ID":244957,"DIS_CODE":0,"TOWNNAME":"新營區","LI":"中營里","LIN":"11鄰","STREET":"工業街","SECT":" ","MAREA":" ","LANE":" ","ALLEY":" ","HOUSE_NO":"３４號","E_COORD97":180810.79000000001,"N_COORD97":2578296.4700000002,"ADDRESS":"工業街３４號","OBJECTID":244953},"geometry":{"x":180810.79000000097,"y":2578296.4700000025}},{"attributes":{"ID":244958,"DIS_CODE":0,"TOWNNAME":"新營區","LI":"民權里","LIN":"11鄰","STREET":"中華路","SECT":" ","MAREA":" ","LANE":" ","ALLEY":" ","HOUSE_NO":"２０號","E_COORD97":179832.60000000001,"N_COORD97":2578233.52,"ADDRESS":"中華路２０號","OBJECTID":244954},"geometry":{"x":179832.59999999963,"y":2578233.5200000014}},{"attributes":{"ID":244959,"DIS_CODE":0,"TOWNNAME":"永康區","LI":"龍潭里","LIN":"42鄰","STREET":"永平街","SECT":" ","MAREA":" ","LANE":" ","ALLEY":" ","HOUSE_NO":"７７７號","E_COORD97":174623.28,"N_COORD97":2547120.9900000002,"ADDRESS":"永平街７７７號","OBJECTID":244955},"geometry":{"x":174623.28000000119,"y":2547120.9900000021}},{"attributes":{"ID":244960,"DIS_CODE":0,"TOWNNAME":"永康區","LI":"龍潭里","LIN":"25鄰","STREET":"龍昌街","SECT":" ","MAREA":" ","LANE":" ","ALLEY":" ","HOUSE_NO":"６４號","E_COORD97":175013.39000000001,"N_COORD97":2547900.5699999998,"ADDRESS":"龍昌街６４號","OBJECTID":244956},"geometry":{"x":175013.3900000006,"y":2547900.5700000022}},{"attributes":{"ID":244961,"DIS_CODE":0,"TOWNNAME":"永康區","LI":"龍潭里","LIN":"42鄰","STREET":"永平街","SECT":" ","MAREA":" ","LANE":" ","ALLEY":" ","HOUSE_NO":"７８１號","E_COORD97":174623.19,"N_COORD97":2547130,"ADDRESS":"永平街７８１號","OBJECTID":244957},"geometry":{"x":174623.19000000041,"y":2547130.0000000037}},{"attributes":{"ID":244962,"DIS_CODE":0,"TOWNNAME":"永康區","LI":"\u25A0行里","LIN":"43鄰","STREET":"\u25A0平街","SECT":" ","MAREA":" ","LANE":" ","ALLEY":" ","HOUSE_NO":"２９號","E_COORD97":171579.78,"N_COORD97":2548035.5099999998,"ADDRESS":"\u25A0平街２９號","OBJECTID":244958},"geometry":{"x":171579.78000000026,"y":2548035.5100000016}},{"attributes":{"ID":244963,"DIS_CODE":0,"TOWNNAME":"新營區","LI":"五興里","LIN":"11鄰","STREET":" ","SECT":" ","MAREA":"五間厝","LANE":" ","ALLEY":" ","HOUSE_NO":"１２０號","E_COORD97":175501.47,"N_COORD97":2574287.7599999998,"ADDRESS":"五間厝１２０號","OBJECTID":244959},"geometry":{"x":175501.47000000067,"y":2574287.7599999998}},{"attributes":{"ID":244964,"DIS_CODE":0,"TOWNNAME":"新化區","LI":"全興里","LIN":"11鄰","STREET":" ","SECT":" ","MAREA":"竹子\u25A0","LANE":" ","ALLEY":" ","HOUSE_NO":"２３６號之１","E_COORD97":177943.76000000001,"N_COORD97":2546900.2599999998,"ADDRESS":"竹子\u25A0２３６號之１","OBJECTID":244960},"geometry":{"x":177943.76000000071,"y":2546900.2599999998}},{"attributes":{"ID":244965,"DIS_CODE":0,"TOWNNAME":"新營區","LI":"新北里","LIN":"11鄰","STREET":"三興街","SECT":" ","MAREA":" ","LANE":"３０１巷","ALLEY":" ","HOUSE_NO":"７６號","E_COORD97":179146.14999999999,"N_COORD97":2579718.5600000001,"ADDRESS":"三興街３０１巷７６號","OBJECTID":244961},"geometry":{"x":179146.15000000037,"y":2579718.5600000042}},{"attributes":{"ID":244966,"DIS_CODE":0,"TOWNNAME":"新營區","LI":"新北里","LIN":"11鄰","STREET":"三興街","SECT":" ","MAREA":" ","LANE":"３０１巷","ALLEY":" ","HOUSE_NO":"８０號","E_COORD97":179138.01000000001,"N_COORD97":2579718.6000000001,"ADDRESS":"三興街３０１巷８０號","OBJECTID":244962},"geometry":{"x":179138.00999999978,"y":2579718.6000000015}},{"attributes":{"ID":244967,"DIS_CODE":0,"TOWNNAME":"新化區","LI":"大坑里","LIN":"11鄰","STREET":" ","SECT":" ","MAREA":"大坑尾","LANE":" ","ALLEY":" ","HOUSE_NO":"２５２號","E_COORD97":184452.03,"N_COORD97":2546348.25,"ADDRESS":"大坑尾２５２號","OBJECTID":244963},"geometry":{"x":184452.03000000119,"y":2546348.2500000037}},{"attributes":{"ID":244968,"DIS_CODE":0,"TOWNNAME":"新化區","LI":"唪口里","LIN":"11鄰","STREET":" ","SECT":" ","MAREA":"唪口","LANE":" ","ALLEY":" ","HOUSE_NO":"１６３號之８","E_COORD97":177618.5,"N_COORD97":2548841.2599999998,"ADDRESS":"唪口１６３號之８","OBJECTID":244964},"geometry":{"x":177618.50000000093,"y":2548841.2600000016}},{"attributes":{"ID":244969,"DIS_CODE":0,"TOWNNAME":"新化區","LI":"太平里","LIN":"11鄰","STREET":"中正路","SECT":" ","MAREA":" ","LANE":"７０７巷","ALLEY":" ","HOUSE_NO":"２９號之１","E_COORD97":178643.39000000001,"N_COORD97":2549103.2599999998,"ADDRESS":"中正路７０７巷２９號之１","OBJECTID":244965},"geometry":{"x":178643.38999999966,"y":2549103.2599999998}},{"attributes":{"ID":244970,"DIS_CODE":0,"TOWNNAME":"仁德區","LI":"成功里","LIN":"24鄰","STREET":"保華路","SECT":" ","MAREA":" ","LANE":"２６５巷","ALLEY":" ","HOUSE_NO":"３４號","E_COORD97":170648.78,"N_COORD97":2539892.7599999998,"ADDRESS":"保華路２６５巷３４號","OBJECTID":244966},"geometry":{"x":170648.78000000026,"y":2539892.7600000035}},{"attributes":{"ID":244971,"DIS_CODE":0,"TOWNNAME":"仁德區","LI":"成功里","LIN":"24鄰","STREET":"保華路","SECT":" ","MAREA":" ","LANE":"２６５巷","ALLEY":" ","HOUSE_NO":"１５號","E_COORD97":170654.29000000001,"N_COORD97":2539933.4900000002,"ADDRESS":"保華路２６５巷１５號","OBJECTID":244967},"geometry":{"x":170654.29000000097,"y":2539933.4900000021}},{"attributes":{"ID":244972,"DIS_CODE":0,"TOWNNAME":"仁德區","LI":"太子里","LIN":"24鄰","STREET":"長興五街","SECT":" ","MAREA":" ","LANE":"３６巷","ALLEY":" ","HOUSE_NO":"２３號","E_COORD97":173651.92999999999,"N_COORD97":2543683.5,"ADDRESS":"長興五街３６巷２３號","OBJECTID":244968},"geometry":{"x":173651.93000000063,"y":2543683.5000000019}},{"attributes":{"ID":244973,"DIS_CODE":0,"TOWNNAME":"仁德區","LI":"成功里","LIN":"24鄰","STREET":"保華路","SECT":" ","MAREA":" ","LANE":"２７９巷","ALLEY":" ","HOUSE_NO":"１１號","E_COORD97":170602.48000000001,"N_COORD97":2539944.2400000002,"ADDRESS":"保華路２７９巷１１號","OBJECTID":244969},"geometry":{"x":170602.48000000231,"y":2539944.2400000039}},{"attributes":{"ID":244974,"DIS_CODE":0,"TOWNNAME":"仁德區","LI":"太子里","LIN":"24鄰","STREET":"長興五街","SECT":" ","MAREA":" ","LANE":"３６巷","ALLEY":" ","HOUSE_NO":"４號","E_COORD97":173605.76000000001,"N_COORD97":2543652.0099999998,"ADDRESS":"長興五街３６巷４號","OBJECTID":244970},"geometry":{"x":173605.76000000071,"y":2543652.0100000016}},{"attributes":{"ID":244975,"DIS_CODE":0,"TOWNNAME":"仁德區","LI":"成功里","LIN":"24鄰","STREET":"保華路","SECT":" ","MAREA":" ","LANE":"２６５巷","ALLEY":" ","HOUSE_NO":"３６號","E_COORD97":170652.62,"N_COORD97":2539891.0099999998,"ADDRESS":"保華路２６５巷３６號","OBJECTID":244971},"geometry":{"x":170652.62000000104,"y":2539891.0100000035}},{"attributes":{"ID":244976,"DIS_CODE":0,"TOWNNAME":"仁德區","LI":"成功里","LIN":"24鄰","STREET":"保華路","SECT":" ","MAREA":" ","LANE":"２６５巷","ALLEY":" ","HOUSE_NO":"１０號","E_COORD97":170631.92999999999,"N_COORD97":2539952.7400000002,"ADDRESS":"保華路２６５巷１０號","OBJECTID":244972},"geometry":{"x":170631.9299999997,"y":2539952.7400000002}},{"attributes":{"ID":244977,"DIS_CODE":0,"TOWNNAME":"仁德區","LI":"太子里","LIN":"24鄰","STREET":"長興五街","SECT":" ","MAREA":" ","LANE":"３６巷","ALLEY":" ","HOUSE_NO":"９號","E_COORD97":173621.73000000001,"N_COORD97":2543675.75,"ADDRESS":"長興五街３６巷９號","OBJECTID":244973},"geometry":{"x":173621.73000000138,"y":2543675.75}},{"attributes":{"ID":244978,"DIS_CODE":0,"TOWNNAME":"仁德區","LI":"成功里","LIN":"24鄰","STREET":"保華路","SECT":" ","MAREA":" ","LANE":"２７９巷","ALLEY":" ","HOUSE_NO":"２號","E_COORD97":170589.01000000001,"N_COORD97":2539960.9900000002,"ADDRESS":"保華路２７９巷２號","OBJECTID":244974},"geometry":{"x":170589.00999999978,"y":2539960.9900000021}},{"attributes":{"ID":244979,"DIS_CODE":0,"TOWNNAME":"東區","LI":"崇學里","LIN":"14鄰","STREET":"崇德路","SECT":" ","MAREA":" ","LANE":" ","ALLEY":" ","HOUSE_NO":"２６０號五樓之３","E_COORD97":170226.48999999999,"N_COORD97":2542024.9399999999,"ADDRESS":"崇德路２６０號五樓之３","OBJECTID":244975},"geometry":{"x":170226.49000000115,"y":2542024.9400000013}},{"attributes":{"ID":244980,"DIS_CODE":0,"TOWNNAME":"東區","LI":"崇學里","LIN":"14鄰","STREET":"崇德路","SECT":" ","MAREA":" ","LANE":" ","ALLEY":" ","HOUSE_NO":"２６０號五樓之４","E_COORD97":170226.48999999999,"N_COORD97":2542024.9399999999,"ADDRESS":"崇德路２６０號五樓之４","OBJECTID":244976},"geometry":{"x":170226.49000000115,"y":2542024.9400000013}},{"attributes":{"ID":244981,"DIS_CODE":0,"TOWNNAME":"東區","LI":"崇學里","LIN":"14鄰","STREET":"崇德路","SECT":" ","MAREA":" ","LANE":" ","ALLEY":" ","HOUSE_NO":"２６０號五樓之５","E_COORD97":170226.48999999999,"N_COORD97":2542024.9399999999,"ADDRESS":"崇德路２６０號五樓之５","OBJECTID":244977},"geometry":{"x":170226.49000000115,"y":2542024.9400000013}},{"attributes":{"ID":244982,"DIS_CODE":0,"TOWNNAME":"歸仁區","LI":"看東里","LIN":"11鄰","STREET":"中山一街","SECT":" ","MAREA":" ","LANE":"９６巷","ALLEY":" ","HOUSE_NO":"３號","E_COORD97":178599.12,"N_COORD97":2540421.3300000001,"ADDRESS":"中山一街９６巷３號","OBJECTID":244978},"geometry":{"x":178599.12000000197,"y":2540421.3299999982}},{"attributes":{"ID":244983,"DIS_CODE":0,"TOWNNAME":"歸仁區","LI":"看東里","LIN":"11鄰","STREET":"中山一街","SECT":" ","MAREA":" ","LANE":"９６巷","ALLEY":" ","HOUSE_NO":"７號","E_COORD97":178559.06,"N_COORD97":2540417.1299999999,"ADDRESS":"中山一街９６巷７號","OBJECTID":244979},"geometry":{"x":178559.05999999959,"y":2540417.129999999}},{"attributes":{"ID":244984,"DIS_CODE":0,"TOWNNAME":"仁德區","LI":"成功里","LIN":"24鄰","STREET":"保華路","SECT":" ","MAREA":" ","LANE":"２７９巷","ALLEY":" ","HOUSE_NO":"７號","E_COORD97":170602.63,"N_COORD97":2539953.4900000002,"ADDRESS":"保華路２７９巷７號","OBJECTID":244980},"geometry":{"x":170602.63000000175,"y":2539953.4900000021}},{"attributes":{"ID":244985,"DIS_CODE":0,"TOWNNAME":"仁德區","LI":"太子里","LIN":"24鄰","STREET":"長興五街","SECT":" ","MAREA":" ","LANE":"３６巷","ALLEY":" ","HOUSE_NO":"２７號","E_COORD97":173662.35000000001,"N_COORD97":2543687,"ADDRESS":"長興五街３６巷２７號","OBJECTID":244981},"geometry":{"x":173662.35000000149,"y":2543687}},{"attributes":{"ID":244986,"DIS_CODE":0,"TOWNNAME":"仁德區","LI":"成功里","LIN":"24鄰","STREET":"保華路","SECT":" ","MAREA":" ","LANE":"２６５巷","ALLEY":" ","HOUSE_NO":"２８號","E_COORD97":170637.85000000001,"N_COORD97":2539898.5099999998,"ADDRESS":"保華路２６５巷２８號","OBJECTID":244982},"geometry":{"x":170637.84999999963,"y":2539898.5100000016}},{"attributes":{"ID":244987,"DIS_CODE":0,"TOWNNAME":"仁德區","LI":"成功里","LIN":"24鄰","STREET":"保華路","SECT":" ","MAREA":" ","LANE":"２７９巷","ALLEY":" ","HOUSE_NO":"１２號","E_COORD97":170585.64000000001,"N_COORD97":2539923.75,"ADDRESS":"保華路２７９巷１２號","OBJECTID":244983},"geometry":{"x":170585.6400000006,"y":2539923.7500000037}},{"attributes":{"ID":244988,"DIS_CODE":0,"TOWNNAME":"仁德區","LI":"後壁里","LIN":"24鄰","STREET":"德洋路","SECT":" ","MAREA":" ","LANE":"２５巷","ALLEY":" ","HOUSE_NO":"５號","E_COORD97":173138.51999999999,"N_COORD97":2538972.02,"ADDRESS":"德洋路２５巷５號","OBJECTID":244984},"geometry":{"x":173138.51999999955,"y":2538972.0200000033}},{"attributes":{"ID":244989,"DIS_CODE":0,"TOWNNAME":"仁德區","LI":"保安里","LIN":"24鄰","STREET":"保學一街","SECT":" ","MAREA":" ","LANE":"３５巷","ALLEY":" ","HOUSE_NO":"９號","E_COORD97":171708.10999999999,"N_COORD97":2535578.1600000001,"ADDRESS":"保學一街３５巷９號","OBJECTID":244985},"geometry":{"x":171708.11000000034,"y":2535578.160000002}},{"attributes":{"ID":244990,"DIS_CODE":0,"TOWNNAME":"中西區","LI":"西賢里","LIN":"24鄰","STREET":"西賢二街","SECT":" ","MAREA":" ","LANE":"１２７巷","ALLEY":" ","HOUSE_NO":"１０號","E_COORD97":165538.79999999999,"N_COORD97":2544649.9500000002,"ADDRESS":"西賢二街１２７巷１０號","OBJECTID":244986},"geometry":{"x":165538.79999999981,"y":2544649.9499999993}},{"attributes":{"ID":244991,"DIS_CODE":0,"TOWNNAME":"中西區","LI":"西賢里","LIN":"24鄰","STREET":"西賢二街","SECT":" ","MAREA":" ","LANE":"１２７巷","ALLEY":" ","HOUSE_NO":"１２號","E_COORD97":165533.57000000001,"N_COORD97":2544649.9500000002,"ADDRESS":"西賢二街１２７巷１２號","OBJECTID":244987},"geometry":{"x":165533.57000000123,"y":2544649.9499999993}},{"attributes":{"ID":244992,"DIS_CODE":0,"TOWNNAME":"中西區","LI":"西賢里","LIN":"24鄰","STREET":"西賢二街","SECT":" ","MAREA":" ","LANE":"１２７巷","ALLEY":" ","HOUSE_NO":"１號","E_COORD97":165554.98000000001,"N_COORD97":2544626.8300000001,"ADDRESS":"西賢二街１２７巷１號","OBJECTID":244988},"geometry":{"x":165554.98000000138,"y":2544626.8300000019}},{"attributes":{"ID":244993,"DIS_CODE":0,"TOWNNAME":"中西區","LI":"西賢里","LIN":"24鄰","STREET":"西賢二街","SECT":" ","MAREA":" ","LANE":"１２７巷","ALLEY":" ","HOUSE_NO":"２號","E_COORD97":165553.20999999999,"N_COORD97":2544650.0800000001,"ADDRESS":"西賢二街１２７巷２號","OBJECTID":244989},"geometry":{"x":165553.20999999996,"y":2544650.0800000001}},{"attributes":{"ID":244994,"DIS_CODE":0,"TOWNNAME":"中西區","LI":"西賢里","LIN":"24鄰","STREET":"西賢二街","SECT":" ","MAREA":" ","LANE":"１２７巷","ALLEY":" ","HOUSE_NO":"３號","E_COORD97":165549.5,"N_COORD97":2544626.5800000001,"ADDRESS":"西賢二街１２７巷３號","OBJECTID":244990},"geometry":{"x":165549.5,"y":2544626.5800000001}},{"attributes":{"ID":244995,"DIS_CODE":0,"TOWNNAME":"仁德區","LI":"保安里","LIN":"24鄰","STREET":"保學一街","SECT":" ","MAREA":" ","LANE":"３５巷","ALLEY":" ","HOUSE_NO":"１０號","E_COORD97":171667.95999999999,"N_COORD97":2535542.48,"ADDRESS":"保學一街３５巷１０號","OBJECTID":244991},"geometry":{"x":171667.95999999996,"y":2535542.4800000023}},{"attributes":{"ID":244996,"DIS_CODE":0,"TOWNNAME":"仁德區","LI":"保安里","LIN":"24鄰","STREET":"保學一街","SECT":" ","MAREA":" ","LANE":"３５巷","ALLEY":" ","HOUSE_NO":"１１號","E_COORD97":171723.48999999999,"N_COORD97":2535585.71,"ADDRESS":"保學一街３５巷１１號","OBJECTID":244992},"geometry":{"x":171723.49000000115,"y":2535585.7100000028}},{"attributes":{"ID":244997,"DIS_CODE":0,"TOWNNAME":"仁德區","LI":"保安里","LIN":"24鄰","STREET":"保學一街","SECT":" ","MAREA":" ","LANE":"３５巷","ALLEY":" ","HOUSE_NO":"１２號","E_COORD97":171681.95000000001,"N_COORD97":2535549.5299999998,"ADDRESS":"保學一街３５巷１２號","OBJECTID":244993},"geometry":{"x":171681.95000000019,"y":2535549.5299999993}},{"attributes":{"ID":244998,"DIS_CODE":0,"TOWNNAME":"仁德區","LI":"保安里","LIN":"24鄰","STREET":"保學一街","SECT":" ","MAREA":" ","LANE":"３５巷","ALLEY":" ","HOUSE_NO":"１３號","E_COORD97":171737.01000000001,"N_COORD97":2535592.5800000001,"ADDRESS":"保學一街３５巷１３號","OBJECTID":244994},"geometry":{"x":171737.00999999978,"y":2535592.5800000019}},{"attributes":{"ID":244999,"DIS_CODE":0,"TOWNNAME":"關廟區","LI":"五甲里","LIN":"8鄰","STREET":"大富街","SECT":" ","MAREA":" ","LANE":"１１１巷","ALLEY":" ","HOUSE_NO":"２號","E_COORD97":181046.26999999999,"N_COORD97":2539213.25,"ADDRESS":"大富街１１１巷２號","OBJECTID":244995},"geometry":{"x":181046.26999999955,"y":2539213.2500000019}},{"attributes":{"ID":245000,"DIS_CODE":0,"TOWNNAME":"仁德區","LI":"保安里","LIN":"24鄰","STREET":"保學一街","SECT":" ","MAREA":" ","LANE":"３５巷","ALLEY":" ","HOUSE_NO":"１５號","E_COORD97":171750.75,"N_COORD97":2535599.6800000002,"ADDRESS":"保學一街３５巷１５號","OBJECTID":244996},"geometry":{"x":171750.75,"y":2535599.6799999997}},{"attributes":{"ID":245001,"DIS_CODE":0,"TOWNNAME":"東區","LI":"崇學里","LIN":"14鄰","STREET":"崇德路","SECT":" ","MAREA":" ","LANE":" ","ALLEY":" ","HOUSE_NO":"２６０號五樓之６","E_COORD97":170226.48999999999,"N_COORD97":2542024.9399999999,"ADDRESS":"崇德路２６０號五樓之６","OBJECTID":244997},"geometry":{"x":170226.49000000115,"y":2542024.9400000013}},{"attributes":{"ID":245002,"DIS_CODE":0,"TOWNNAME":"東區","LI":"崇學里","LIN":"14鄰","STREET":"崇德路","SECT":" ","MAREA":" ","LANE":" ","ALLEY":" ","HOUSE_NO":"２６０號五樓之７","E_COORD97":170226.48999999999,"N_COORD97":2542024.9399999999,"ADDRESS":"崇德路２６０號五樓之７","OBJECTID":244998},"geometry":{"x":170226.49000000115,"y":2542024.9400000013}},{"attributes":{"ID":245003,"DIS_CODE":0,"TOWNNAME":"南區","LI":"田寮里","LIN":"11鄰","STREET":"新興路","SECT":" ","MAREA":" ","LANE":"１１３巷","ALLEY":" ","HOUSE_NO":"１７號","E_COORD97":167559.22,"N_COORD97":2542092.2599999998,"ADDRESS":"新興路１１３巷１７號","OBJECTID":244999},"geometry":{"x":167559.22000000067,"y":2542092.2599999998}},{"attributes":{"ID":245004,"DIS_CODE":0,"TOWNNAME":"南區","LI":"田寮里","LIN":"11鄰","STREET":"新興路","SECT":" ","MAREA":" ","LANE":"１１３巷","ALLEY":" ","HOUSE_NO":"１９號","E_COORD97":167562.10000000001,"N_COORD97":2542085.1400000001,"ADDRESS":"新興路１１３巷１９號","OBJECTID":245000},"geometry":{"x":167562.10000000056,"y":2542085.1400000025}}]}