{"displayFieldName":"TOWNNAME","fieldAliases":{"ID":"ID","DIS_CODE":"DIS_CODE","TOWNNAME":"TOWNNAME","LI":"LI","LIN":"LIN","STREET":"STREET","SECT":"SECT","MAREA":"MAREA","LANE":"LANE","ALLEY":"ALLEY","HOUSE_NO":"HOUSE_NO","E_COORD97":"E_COORD97","N_COORD97":"N_COORD97","ADDRESS":"ADDRESS","OBJECTID":"OBJECTID"},"geometryType":"esriGeometryPoint","spatialReference":{"wkid":102443,"latestWkid":3826},"fields":[{"name":"ID","type":"esriFieldTypeDouble","alias":"ID"},{"name":"DIS_CODE","type":"esriFieldTypeInteger","alias":"DIS_CODE"},{"name":"TOWNNAME","type":"esriFieldTypeString","alias":"TOWNNAME","length":8},{"name":"LI","type":"esriFieldTypeString","alias":"LI","length":8},{"name":"LIN","type":"esriFieldTypeString","alias":"LIN","length":12},{"name":"STREET","type":"esriFieldTypeString","alias":"STREET","length":20},{"name":"SECT","type":"esriFieldTypeString","alias":"SECT","length":8},{"name":"MAREA","type":"esriFieldTypeString","alias":"MAREA","length":12},{"name":"LANE","type":"esriFieldTypeString","alias":"LANE","length":10},{"name":"ALLEY","type":"esriFieldTypeString","alias":"ALLEY","length":10},{"name":"HOUSE_NO","type":"esriFieldTypeString","alias":"HOUSE_NO","length":20},{"name":"E_COORD97","type":"esriFieldTypeDouble","alias":"E_COORD97"},{"name":"N_COORD97","type":"esriFieldTypeDouble","alias":"N_COORD97"},{"name":"ADDRESS","type":"esriFieldTypeString","alias":"ADDRESS","length":50},{"name":"OBJECTID","type":"esriFieldTypeOID","alias":"OBJECTID"}],"features":[{"attributes":{"ID":371211,"DIS_CODE":0,"TOWNNAME":"南區","LI":"再興里","LIN":"12鄰","STREET":"三官路","SECT":" ","MAREA":" ","LANE":"１７６巷","ALLEY":" ","HOUSE_NO":"３２號","E_COORD97":167273.95999999999,"N_COORD97":2542114.4700000002,"ADDRESS":"三官路１７６巷３２號","OBJECTID":371201},"geometry":{"x":167273.95999999996,"y":2542114.4700000025}},{"attributes":{"ID":371212,"DIS_CODE":0,"TOWNNAME":"南區","LI":"再興里","LIN":"12鄰","STREET":"三官路","SECT":" ","MAREA":" ","LANE":"１７６巷","ALLEY":" ","HOUSE_NO":"３６號","E_COORD97":167270.95000000001,"N_COORD97":2542114.6299999999,"ADDRESS":"三官路１７６巷３６號","OBJECTID":371202},"geometry":{"x":167270.95000000019,"y":2542114.6300000008}},{"attributes":{"ID":371213,"DIS_CODE":0,"TOWNNAME":"南區","LI":"再興里","LIN":"12鄰","STREET":"三官路","SECT":" ","MAREA":" ","LANE":"１７６巷","ALLEY":" ","HOUSE_NO":"３８號","E_COORD97":167267.92999999999,"N_COORD97":2542115.27,"ADDRESS":"三官路１７６巷３８號","OBJECTID":371203},"geometry":{"x":167267.93000000063,"y":2542115.2699999996}},{"attributes":{"ID":371214,"DIS_CODE":0,"TOWNNAME":"南區","LI":"再興里","LIN":"12鄰","STREET":"三官路","SECT":" ","MAREA":" ","LANE":"１７６巷","ALLEY":" ","HOUSE_NO":"４０號","E_COORD97":167265.39000000001,"N_COORD97":2542115.8999999999,"ADDRESS":"三官路１７６巷４０號","OBJECTID":371204},"geometry":{"x":167265.38999999966,"y":2542115.9000000004}},{"attributes":{"ID":371215,"DIS_CODE":0,"TOWNNAME":"安南區","LI":"理想里","LIN":"12鄰","STREET":"同安路","SECT":" ","MAREA":" ","LANE":"８０巷","ALLEY":" ","HOUSE_NO":"２１號","E_COORD97":167000.67999999999,"N_COORD97":2548890.2999999998,"ADDRESS":"同安路８０巷２１號","OBJECTID":371205},"geometry":{"x":167000.6799999997,"y":2548890.3000000007}},{"attributes":{"ID":371216,"DIS_CODE":0,"TOWNNAME":"白河區","LI":"白河里","LIN":"12鄰","STREET":"新富街","SECT":" ","MAREA":" ","LANE":"５巷","ALLEY":" ","HOUSE_NO":"１號","E_COORD97":190262.23000000001,"N_COORD97":2583130.8700000001,"ADDRESS":"新富街５巷１號","OBJECTID":371206},"geometry":{"x":190262.23000000138,"y":2583130.8700000048}},{"attributes":{"ID":371217,"DIS_CODE":0,"TOWNNAME":"白河區","LI":"庄內里","LIN":"12鄰","STREET":"新興路","SECT":" ","MAREA":" ","LANE":"４４８巷","ALLEY":" ","HOUSE_NO":"１１號","E_COORD97":190620.35000000001,"N_COORD97":2583490.0600000001,"ADDRESS":"新興路４４８巷１１號","OBJECTID":371207},"geometry":{"x":190620.34999999963,"y":2583490.0600000024}},{"attributes":{"ID":371218,"DIS_CODE":0,"TOWNNAME":"白河區","LI":"庄內里","LIN":"12鄰","STREET":"新興路","SECT":" ","MAREA":" ","LANE":"４４８巷","ALLEY":" ","HOUSE_NO":"１３號","E_COORD97":190621.84,"N_COORD97":2583495.71,"ADDRESS":"新興路４４８巷１３號","OBJECTID":371208},"geometry":{"x":190621.84000000078,"y":2583495.7100000028}},{"attributes":{"ID":371219,"DIS_CODE":0,"TOWNNAME":"白河區","LI":"庄內里","LIN":"12鄰","STREET":"新興路","SECT":" ","MAREA":" ","LANE":"４４８巷","ALLEY":" ","HOUSE_NO":"１５號","E_COORD97":190622.57999999999,"N_COORD97":2583499.8799999999,"ADDRESS":"新興路４４８巷１５號","OBJECTID":371209},"geometry":{"x":190622.58000000007,"y":2583499.879999999}},{"attributes":{"ID":371220,"DIS_CODE":0,"TOWNNAME":"白河區","LI":"庄內里","LIN":"12鄰","STREET":"新興路","SECT":" ","MAREA":" ","LANE":"４４８巷","ALLEY":" ","HOUSE_NO":"１７號","E_COORD97":190622.64999999999,"N_COORD97":2583503.4900000002,"ADDRESS":"新興路４４８巷１７號","OBJECTID":371210},"geometry":{"x":190622.65000000037,"y":2583503.4900000021}},{"attributes":{"ID":371221,"DIS_CODE":0,"TOWNNAME":"白河區","LI":"庄內里","LIN":"12鄰","STREET":"新興路","SECT":" ","MAREA":" ","LANE":"４４８巷","ALLEY":" ","HOUSE_NO":"１９號","E_COORD97":190623.39999999999,"N_COORD97":2583507.1000000001,"ADDRESS":"新興路４４８巷１９號","OBJECTID":371211},"geometry":{"x":190623.4000000013,"y":2583507.0999999996}},{"attributes":{"ID":371222,"DIS_CODE":0,"TOWNNAME":"白河區","LI":"庄內里","LIN":"12鄰","STREET":"新興路","SECT":" ","MAREA":" ","LANE":"４４８巷","ALLEY":" ","HOUSE_NO":"１號","E_COORD97":190617.62,"N_COORD97":2583472.5600000001,"ADDRESS":"新興路４４８巷１號","OBJECTID":371212},"geometry":{"x":190617.62000000011,"y":2583472.5600000024}},{"attributes":{"ID":371223,"DIS_CODE":0,"TOWNNAME":"白河區","LI":"庄內里","LIN":"12鄰","STREET":"新興路","SECT":" ","MAREA":" ","LANE":"４４８巷","ALLEY":" ","HOUSE_NO":"２１號","E_COORD97":190623.35999999999,"N_COORD97":2583510.9399999999,"ADDRESS":"新興路４４８巷２１號","OBJECTID":371213},"geometry":{"x":190623.3600000022,"y":2583510.9399999995}},{"attributes":{"ID":371224,"DIS_CODE":0,"TOWNNAME":"白河區","LI":"庄內里","LIN":"12鄰","STREET":"新興路","SECT":" ","MAREA":" ","LANE":"４４８巷","ALLEY":" ","HOUSE_NO":"２３號","E_COORD97":190624.44,"N_COORD97":2583514.3700000001,"ADDRESS":"新興路４４８巷２３號","OBJECTID":371214},"geometry":{"x":190624.43999999948,"y":2583514.3700000029}},{"attributes":{"ID":371225,"DIS_CODE":0,"TOWNNAME":"白河區","LI":"庄內里","LIN":"12鄰","STREET":"新興路","SECT":" ","MAREA":" ","LANE":"４４８巷","ALLEY":" ","HOUSE_NO":"２５號","E_COORD97":190624.12,"N_COORD97":2583517.8700000001,"ADDRESS":"新興路４４８巷２５號","OBJECTID":371215},"geometry":{"x":190624.12000000011,"y":2583517.8700000029}},{"attributes":{"ID":371226,"DIS_CODE":0,"TOWNNAME":"白河區","LI":"庄內里","LIN":"12鄰","STREET":"新興路","SECT":" ","MAREA":" ","LANE":"４４８巷","ALLEY":" ","HOUSE_NO":"２７號","E_COORD97":190624.72,"N_COORD97":2583521.6099999999,"ADDRESS":"新興路４４８巷２７號","OBJECTID":371216},"geometry":{"x":190624.71999999974,"y":2583521.6100000013}},{"attributes":{"ID":371227,"DIS_CODE":0,"TOWNNAME":"白河區","LI":"庄內里","LIN":"12鄰","STREET":"新興路","SECT":" ","MAREA":" ","LANE":"４４８巷","ALLEY":" ","HOUSE_NO":"３號","E_COORD97":190617.75,"N_COORD97":2583476.0299999998,"ADDRESS":"新興路４４８巷３號","OBJECTID":371217},"geometry":{"x":190617.75000000093,"y":2583476.0299999993}},{"attributes":{"ID":371228,"DIS_CODE":0,"TOWNNAME":"白河區","LI":"庄內里","LIN":"12鄰","STREET":"新興路","SECT":" ","MAREA":" ","LANE":"４４８巷","ALLEY":" ","HOUSE_NO":"５號","E_COORD97":190619.20000000001,"N_COORD97":2583478.7400000002,"ADDRESS":"新興路４４８巷５號","OBJECTID":371218},"geometry":{"x":190619.20000000205,"y":2583478.7400000002}},{"attributes":{"ID":371229,"DIS_CODE":0,"TOWNNAME":"白河區","LI":"庄內里","LIN":"12鄰","STREET":"新興路","SECT":" ","MAREA":" ","LANE":"４４８巷","ALLEY":" ","HOUSE_NO":"７號","E_COORD97":190619.48000000001,"N_COORD97":2583482.3999999999,"ADDRESS":"新興路４４８巷７號","OBJECTID":371219},"geometry":{"x":190619.48000000138,"y":2583482.3999999985}},{"attributes":{"ID":371230,"DIS_CODE":0,"TOWNNAME":"西港區","LI":"慶安里","LIN":"12鄰","STREET":"進學街","SECT":" ","MAREA":" ","LANE":"５４巷","ALLEY":" ","HOUSE_NO":"１１號","E_COORD97":168108.31,"N_COORD97":2558111.6499999999,"ADDRESS":"進學街５４巷１１號","OBJECTID":371220},"geometry":{"x":168108.30999999959,"y":2558111.6500000022}},{"attributes":{"ID":371231,"DIS_CODE":0,"TOWNNAME":"西港區","LI":"慶安里","LIN":"12鄰","STREET":"進學街","SECT":" ","MAREA":" ","LANE":"５４巷","ALLEY":" ","HOUSE_NO":"１３號","E_COORD97":168108.44,"N_COORD97":2558116.6400000001,"ADDRESS":"進學街５４巷１３號","OBJECTID":371221},"geometry":{"x":168108.44000000041,"y":2558116.6400000006}},{"attributes":{"ID":371232,"DIS_CODE":0,"TOWNNAME":"西港區","LI":"慶安里","LIN":"12鄰","STREET":"進學街","SECT":" ","MAREA":" ","LANE":"５４巷","ALLEY":" ","HOUSE_NO":"１５號","E_COORD97":168107.79999999999,"N_COORD97":2558121.8999999999,"ADDRESS":"進學街５４巷１５號","OBJECTID":371222},"geometry":{"x":168107.80000000168,"y":2558121.9000000004}},{"attributes":{"ID":371233,"DIS_CODE":0,"TOWNNAME":"西港區","LI":"慶安里","LIN":"12鄰","STREET":"進學街","SECT":" ","MAREA":" ","LANE":"５４巷","ALLEY":" ","HOUSE_NO":"１７號","E_COORD97":168107.48000000001,"N_COORD97":2558127.0299999998,"ADDRESS":"進學街５４巷１７號","OBJECTID":371223},"geometry":{"x":168107.48000000138,"y":2558127.0299999993}},{"attributes":{"ID":371234,"DIS_CODE":0,"TOWNNAME":"西港區","LI":"慶安里","LIN":"12鄰","STREET":"進學街","SECT":" ","MAREA":" ","LANE":"５４巷","ALLEY":" ","HOUSE_NO":"１９號","E_COORD97":168107.78,"N_COORD97":2558132.0499999998,"ADDRESS":"進學街５４巷１９號","OBJECTID":371224},"geometry":{"x":168107.78000000026,"y":2558132.0500000045}},{"attributes":{"ID":371235,"DIS_CODE":0,"TOWNNAME":"西港區","LI":"慶安里","LIN":"12鄰","STREET":"進學街","SECT":" ","MAREA":" ","LANE":"５４巷","ALLEY":" ","HOUSE_NO":"１號","E_COORD97":168101.31,"N_COORD97":2558073.0800000001,"ADDRESS":"進學街５４巷１號","OBJECTID":371225},"geometry":{"x":168101.31000000052,"y":2558073.0800000001}},{"attributes":{"ID":371236,"DIS_CODE":0,"TOWNNAME":"西港區","LI":"慶安里","LIN":"12鄰","STREET":"進學街","SECT":" ","MAREA":" ","LANE":"５４巷","ALLEY":" ","HOUSE_NO":"３３號","E_COORD97":168102.95999999999,"N_COORD97":2558173.6000000001,"ADDRESS":"進學街５４巷３３號","OBJECTID":371226},"geometry":{"x":168102.95999999996,"y":2558173.5999999996}},{"attributes":{"ID":371237,"DIS_CODE":0,"TOWNNAME":"西港區","LI":"慶安里","LIN":"12鄰","STREET":"進學街","SECT":" ","MAREA":" ","LANE":"５４巷","ALLEY":" ","HOUSE_NO":"５號","E_COORD97":168108.95999999999,"N_COORD97":2558092.77,"ADDRESS":"進學街５４巷５號","OBJECTID":371227},"geometry":{"x":168108.96000000089,"y":2558092.7700000014}},{"attributes":{"ID":371238,"DIS_CODE":0,"TOWNNAME":"西港區","LI":"慶安里","LIN":"12鄰","STREET":"進學街","SECT":" ","MAREA":" ","LANE":"５４巷","ALLEY":" ","HOUSE_NO":"７號","E_COORD97":168108.44,"N_COORD97":2558098.4500000002,"ADDRESS":"進學街５４巷７號","OBJECTID":371228},"geometry":{"x":168108.44000000041,"y":2558098.4500000011}},{"attributes":{"ID":371239,"DIS_CODE":0,"TOWNNAME":"西港區","LI":"慶安里","LIN":"12鄰","STREET":"進學街","SECT":" ","MAREA":" ","LANE":"５４巷","ALLEY":" ","HOUSE_NO":"９號","E_COORD97":168108.26999999999,"N_COORD97":2558106.4199999999,"ADDRESS":"進學街５４巷９號","OBJECTID":371229},"geometry":{"x":168108.27000000048,"y":2558106.4200000018}},{"attributes":{"ID":371240,"DIS_CODE":0,"TOWNNAME":"永康區","LI":"神洲里","LIN":"12鄰","STREET":"忠孝路","SECT":" ","MAREA":" ","LANE":"１５２巷","ALLEY":" ","HOUSE_NO":"１４號","E_COORD97":172179.04999999999,"N_COORD97":2545072,"ADDRESS":"忠孝路１５２巷１４號","OBJECTID":371230},"geometry":{"x":172179.04999999981,"y":2545072.0000000037}},{"attributes":{"ID":371241,"DIS_CODE":0,"TOWNNAME":"永康區","LI":"埔園里","LIN":"12鄰","STREET":"中山路","SECT":" ","MAREA":" ","LANE":"１７１巷","ALLEY":" ","HOUSE_NO":"１６號","E_COORD97":173644.98000000001,"N_COORD97":2547978.25,"ADDRESS":"中山路１７１巷１６號","OBJECTID":371231},"geometry":{"x":173644.98000000045,"y":2547978.25}},{"attributes":{"ID":371242,"DIS_CODE":0,"TOWNNAME":"西港區","LI":"慶安里","LIN":"12鄰","STREET":"新興街","SECT":" ","MAREA":" ","LANE":"１０７巷","ALLEY":" ","HOUSE_NO":"１號","E_COORD97":168155.06,"N_COORD97":2558174.4700000002,"ADDRESS":"新興街１０７巷１號","OBJECTID":371232},"geometry":{"x":168155.06000000052,"y":2558174.4700000025}},{"attributes":{"ID":371243,"DIS_CODE":0,"TOWNNAME":"永康區","LI":"東灣里","LIN":"12鄰","STREET":"大灣二街","SECT":" ","MAREA":" ","LANE":"１１４巷","ALLEY":" ","HOUSE_NO":"６號","E_COORD97":174761,"N_COORD97":2544825.6499999999,"ADDRESS":"大灣二街１１４巷６號","OBJECTID":371233},"geometry":{"x":174761,"y":2544825.6500000004}},{"attributes":{"ID":371244,"DIS_CODE":0,"TOWNNAME":"永康區","LI":"烏竹里","LIN":"12鄰","STREET":"竹園二街","SECT":" ","MAREA":" ","LANE":"１６０巷","ALLEY":" ","HOUSE_NO":"１０號","E_COORD97":174548.56,"N_COORD97":2549222.5699999998,"ADDRESS":"竹園二街１６０巷１０號","OBJECTID":371234},"geometry":{"x":174548.55999999959,"y":2549222.5700000022}},{"attributes":{"ID":371245,"DIS_CODE":0,"TOWNNAME":"永康區","LI":"埔園里","LIN":"12鄰","STREET":"中山路","SECT":" ","MAREA":" ","LANE":"１７１巷","ALLEY":" ","HOUSE_NO":"２０號","E_COORD97":173635.64000000001,"N_COORD97":2547974.75,"ADDRESS":"中山路１７１巷２０號","OBJECTID":371235},"geometry":{"x":173635.6400000006,"y":2547974.75}},{"attributes":{"ID":371246,"DIS_CODE":0,"TOWNNAME":"永康區","LI":"神洲里","LIN":"12鄰","STREET":"忠孝路","SECT":" ","MAREA":" ","LANE":"１５２巷","ALLEY":" ","HOUSE_NO":"１６號","E_COORD97":172155.26000000001,"N_COORD97":2545072.25,"ADDRESS":"忠孝路１５２巷１６號","OBJECTID":371236},"geometry":{"x":172155.25999999978,"y":2545072.25}},{"attributes":{"ID":371247,"DIS_CODE":0,"TOWNNAME":"永康區","LI":"東灣里","LIN":"12鄰","STREET":"大灣二街","SECT":" ","MAREA":" ","LANE":"１１４巷","ALLEY":" ","HOUSE_NO":"８號","E_COORD97":174763.45000000001,"N_COORD97":2544829.3999999999,"ADDRESS":"大灣二街１１４巷８號","OBJECTID":371237},"geometry":{"x":174763.45000000019,"y":2544829.4000000022}},{"attributes":{"ID":371248,"DIS_CODE":0,"TOWNNAME":"永康區","LI":"東灣里","LIN":"12鄰","STREET":"大灣二街","SECT":" ","MAREA":" ","LANE":"１１４巷","ALLEY":" ","HOUSE_NO":"１２號","E_COORD97":174777.38,"N_COORD97":2544848.7400000002,"ADDRESS":"大灣二街１１４巷１２號","OBJECTID":371238},"geometry":{"x":174777.37999999989,"y":2544848.7400000002}},{"attributes":{"ID":371249,"DIS_CODE":0,"TOWNNAME":"永康區","LI":"埔園里","LIN":"12鄰","STREET":"中山路","SECT":" ","MAREA":" ","LANE":"１８５巷","ALLEY":" ","HOUSE_NO":"３號","E_COORD97":173676.69,"N_COORD97":2548028.6600000001,"ADDRESS":"中山路１８５巷３號","OBJECTID":371239},"geometry":{"x":173676.69000000134,"y":2548028.660000002}},{"attributes":{"ID":371250,"DIS_CODE":0,"TOWNNAME":"永康區","LI":"埔園里","LIN":"12鄰","STREET":"中山路","SECT":" ","MAREA":" ","LANE":"１７１巷","ALLEY":" ","HOUSE_NO":"１２號","E_COORD97":173651.82999999999,"N_COORD97":2547981.25,"ADDRESS":"中山路１７１巷１２號","OBJECTID":371240},"geometry":{"x":173651.83000000101,"y":2547981.25}},{"attributes":{"ID":371251,"DIS_CODE":0,"TOWNNAME":"永康區","LI":"甲頂里","LIN":"12鄰","STREET":"中正南路","SECT":" ","MAREA":" ","LANE":"５２巷","ALLEY":" ","HOUSE_NO":"９６號","E_COORD97":170141.63,"N_COORD97":2546796.0600000001,"ADDRESS":"中正南路５２巷９６號","OBJECTID":371241},"geometry":{"x":170141.63000000082,"y":2546796.0600000005}},{"attributes":{"ID":371252,"DIS_CODE":0,"TOWNNAME":"永康區","LI":"西勢里","LIN":"12鄰","STREET":"廣興街","SECT":" ","MAREA":" ","LANE":"１７０巷","ALLEY":" ","HOUSE_NO":"２３９號","E_COORD97":176490.69,"N_COORD97":2545949.4900000002,"ADDRESS":"廣興街１７０巷２３９號","OBJECTID":371242},"geometry":{"x":176490.69000000134,"y":2545949.4900000002}},{"attributes":{"ID":371253,"DIS_CODE":0,"TOWNNAME":"永康區","LI":"西勢里","LIN":"12鄰","STREET":"廣興街","SECT":" ","MAREA":" ","LANE":"１５１巷","ALLEY":" ","HOUSE_NO":"９號","E_COORD97":176141.10000000001,"N_COORD97":2546578.9900000002,"ADDRESS":"廣興街１５１巷９號","OBJECTID":371243},"geometry":{"x":176141.10000000056,"y":2546578.9900000021}},{"attributes":{"ID":371254,"DIS_CODE":0,"TOWNNAME":"永康區","LI":"西灣里","LIN":"12鄰","STREET":"大灣五街","SECT":" ","MAREA":" ","LANE":"１６６巷","ALLEY":" ","HOUSE_NO":"７號","E_COORD97":174494.73999999999,"N_COORD97":2545347.4399999999,"ADDRESS":"大灣五街１６６巷７號","OBJECTID":371244},"geometry":{"x":174494.74000000115,"y":2545347.4400000013}},{"attributes":{"ID":371255,"DIS_CODE":0,"TOWNNAME":"永康區","LI":"西灣里","LIN":"12鄰","STREET":"大灣五街","SECT":" ","MAREA":" ","LANE":"１８６巷","ALLEY":" ","HOUSE_NO":"１０號","E_COORD97":174479.04000000001,"N_COORD97":2545372.75,"ADDRESS":"大灣五街１８６巷１０號","OBJECTID":371245},"geometry":{"x":174479.04000000097,"y":2545372.7500000019}},{"attributes":{"ID":371256,"DIS_CODE":0,"TOWNNAME":"永康區","LI":"西灣里","LIN":"12鄰","STREET":"大灣五街","SECT":" ","MAREA":" ","LANE":"１８６巷","ALLEY":" ","HOUSE_NO":"８號","E_COORD97":174468.17000000001,"N_COORD97":2545355.6800000002,"ADDRESS":"大灣五街１８６巷８號","OBJECTID":371246},"geometry":{"x":174468.16999999993,"y":2545355.6800000016}},{"attributes":{"ID":371257,"DIS_CODE":0,"TOWNNAME":"永康區","LI":"西勢里","LIN":"12鄰","STREET":"廣興街","SECT":" ","MAREA":" ","LANE":"１４７巷","ALLEY":" ","HOUSE_NO":"１２號","E_COORD97":176135.89999999999,"N_COORD97":2546631.25,"ADDRESS":"廣興街１４７巷１２號","OBJECTID":371247},"geometry":{"x":176135.89999999944,"y":2546631.2500000019}},{"attributes":{"ID":371258,"DIS_CODE":0,"TOWNNAME":"永康區","LI":"西勢里","LIN":"12鄰","STREET":"廣興街","SECT":" ","MAREA":" ","LANE":"１４７巷","ALLEY":" ","HOUSE_NO":"１０號","E_COORD97":176143.32999999999,"N_COORD97":2546601.54,"ADDRESS":"廣興街１４７巷１０號","OBJECTID":371248},"geometry":{"x":176143.33000000101,"y":2546601.5399999991}},{"attributes":{"ID":371259,"DIS_CODE":0,"TOWNNAME":"永康區","LI":"西灣里","LIN":"12鄰","STREET":"大灣五街","SECT":" ","MAREA":" ","LANE":"１６６巷","ALLEY":" ","HOUSE_NO":"５號","E_COORD97":174499.85999999999,"N_COORD97":2545346.4399999999,"ADDRESS":"大灣五街１６６巷５號","OBJECTID":371249},"geometry":{"x":174499.86000000034,"y":2545346.4400000032}},{"attributes":{"ID":371260,"DIS_CODE":0,"TOWNNAME":"永康區","LI":"西勢里","LIN":"12鄰","STREET":"西勢路","SECT":" ","MAREA":" ","LANE":"９３巷","ALLEY":" ","HOUSE_NO":"１７號","E_COORD97":176141.87,"N_COORD97":2546661.3199999998,"ADDRESS":"西勢路９３巷１７號","OBJECTID":371250},"geometry":{"x":176141.87000000011,"y":2546661.3200000022}},{"attributes":{"ID":371261,"DIS_CODE":0,"TOWNNAME":"永康區","LI":"西灣里","LIN":"12鄰","STREET":"大灣五街","SECT":" ","MAREA":" ","LANE":"１６６巷","ALLEY":" ","HOUSE_NO":"２號","E_COORD97":174509.97,"N_COORD97":2545339.1000000001,"ADDRESS":"大灣五街１６６巷２號","OBJECTID":371251},"geometry":{"x":174509.97000000067,"y":2545339.1000000015}},{"attributes":{"ID":371262,"DIS_CODE":0,"TOWNNAME":"永康區","LI":"西勢里","LIN":"12鄰","STREET":"西勢路","SECT":" ","MAREA":" ","LANE":"１９巷","ALLEY":" ","HOUSE_NO":"５６號","E_COORD97":176178.26000000001,"N_COORD97":2546599.0299999998,"ADDRESS":"西勢路１９巷５６號","OBJECTID":371252},"geometry":{"x":176178.25999999978,"y":2546599.0299999993}},{"attributes":{"ID":371263,"DIS_CODE":0,"TOWNNAME":"永康區","LI":"西勢里","LIN":"12鄰","STREET":"西勢路","SECT":" ","MAREA":" ","LANE":"１９巷","ALLEY":" ","HOUSE_NO":"５８號","E_COORD97":176184.09,"N_COORD97":2546607.5299999998,"ADDRESS":"西勢路１９巷５８號","OBJECTID":371253},"geometry":{"x":176184.09000000078,"y":2546607.5300000012}},{"attributes":{"ID":371264,"DIS_CODE":0,"TOWNNAME":"永康區","LI":"甲頂里","LIN":"12鄰","STREET":"中正南路","SECT":" ","MAREA":" ","LANE":"５２巷","ALLEY":" ","HOUSE_NO":"８８號","E_COORD97":170101.04999999999,"N_COORD97":2546796.0299999998,"ADDRESS":"中正南路５２巷８８號","OBJECTID":371254},"geometry":{"x":170101.04999999981,"y":2546796.0299999993}},{"attributes":{"ID":371265,"DIS_CODE":0,"TOWNNAME":"永康區","LI":"甲頂里","LIN":"12鄰","STREET":"中正南路","SECT":" ","MAREA":" ","LANE":"５２巷","ALLEY":" ","HOUSE_NO":"９６號","E_COORD97":170134.57000000001,"N_COORD97":2546759.52,"ADDRESS":"中正南路５２巷９６號","OBJECTID":371255},"geometry":{"x":170134.57000000123,"y":2546759.5199999977}},{"attributes":{"ID":371266,"DIS_CODE":0,"TOWNNAME":"永康區","LI":"甲頂里","LIN":"12鄰","STREET":"中正南路","SECT":" ","MAREA":" ","LANE":"５２巷","ALLEY":" ","HOUSE_NO":"９６號","E_COORD97":170120.67000000001,"N_COORD97":2546794.6000000001,"ADDRESS":"中正南路５２巷９６號","OBJECTID":371256},"geometry":{"x":170120.66999999993,"y":2546794.6000000015}},{"attributes":{"ID":371267,"DIS_CODE":0,"TOWNNAME":"永康區","LI":"甲頂里","LIN":"12鄰","STREET":"中正南路","SECT":" ","MAREA":" ","LANE":"５２巷","ALLEY":" ","HOUSE_NO":"９６號","E_COORD97":170126.09,"N_COORD97":2546796.6000000001,"ADDRESS":"中正南路５２巷９６號","OBJECTID":371257},"geometry":{"x":170126.08999999985,"y":2546796.6000000034}},{"attributes":{"ID":371268,"DIS_CODE":0,"TOWNNAME":"東區","LI":"德高里","LIN":"12鄰","STREET":"崇善路","SECT":" ","MAREA":" ","LANE":"９１３巷","ALLEY":" ","HOUSE_NO":"２９號","E_COORD97":171413.75,"N_COORD97":2540776.1899999999,"ADDRESS":"崇善路９１３巷２９號","OBJECTID":371258},"geometry":{"x":171413.74999999907,"y":2540776.1899999995}},{"attributes":{"ID":371269,"DIS_CODE":0,"TOWNNAME":"南區","LI":"田寮里","LIN":"12鄰","STREET":"西門路","SECT":"一段","MAREA":" ","LANE":"３８９巷","ALLEY":" ","HOUSE_NO":"１號","E_COORD97":167706.75,"N_COORD97":2542223.5,"ADDRESS":"西門路一段３８９巷１號","OBJECTID":371259},"geometry":{"x":167706.75000000093,"y":2542223.5}},{"attributes":{"ID":371270,"DIS_CODE":0,"TOWNNAME":"南區","LI":"鯤鯓里","LIN":"12鄰","STREET":"鯤鯓路","SECT":" ","MAREA":" ","LANE":"２３２巷","ALLEY":" ","HOUSE_NO":"３５號","E_COORD97":164911.79999999999,"N_COORD97":2540409.6200000001,"ADDRESS":"鯤鯓路２３２巷３５號","OBJECTID":371260},"geometry":{"x":164911.79999999981,"y":2540409.620000001}},{"attributes":{"ID":371271,"DIS_CODE":0,"TOWNNAME":"南區","LI":"建南里","LIN":"12鄰","STREET":"中華南路","SECT":"二段","MAREA":" ","LANE":"１７７巷","ALLEY":" ","HOUSE_NO":"５８號","E_COORD97":167077.22,"N_COORD97":2540041.6800000002,"ADDRESS":"中華南路二段１７７巷５８號","OBJECTID":371261},"geometry":{"x":167077.21999999974,"y":2540041.6799999997}},{"attributes":{"ID":371272,"DIS_CODE":0,"TOWNNAME":"南區","LI":"建南里","LIN":"12鄰","STREET":"中華南路","SECT":"二段","MAREA":" ","LANE":"１７７巷","ALLEY":" ","HOUSE_NO":"６９號","E_COORD97":167100.87,"N_COORD97":2540064.8599999999,"ADDRESS":"中華南路二段１７７巷６９號","OBJECTID":371262},"geometry":{"x":167100.87000000104,"y":2540064.8600000031}},{"attributes":{"ID":371273,"DIS_CODE":0,"TOWNNAME":"南區","LI":"再興里","LIN":"12鄰","STREET":"三官路","SECT":" ","MAREA":" ","LANE":"１７６巷","ALLEY":" ","HOUSE_NO":"２號","E_COORD97":167238.29000000001,"N_COORD97":2542021.46,"ADDRESS":"三官路１７６巷２號","OBJECTID":371263},"geometry":{"x":167238.2900000019,"y":2542021.4600000009}},{"attributes":{"ID":371274,"DIS_CODE":0,"TOWNNAME":"南區","LI":"再興里","LIN":"12鄰","STREET":"三官路","SECT":" ","MAREA":" ","LANE":"１７６巷","ALLEY":" ","HOUSE_NO":"６號","E_COORD97":167237.01999999999,"N_COORD97":2542025.4300000002,"ADDRESS":"三官路１７６巷６號","OBJECTID":371264},"geometry":{"x":167237.02000000048,"y":2542025.4300000016}},{"attributes":{"ID":371275,"DIS_CODE":0,"TOWNNAME":"南區","LI":"再興里","LIN":"12鄰","STREET":"三官路","SECT":" ","MAREA":" ","LANE":"１７６巷","ALLEY":" ","HOUSE_NO":"８號","E_COORD97":167236.23000000001,"N_COORD97":2542029.3999999999,"ADDRESS":"三官路１７６巷８號","OBJECTID":371265},"geometry":{"x":167236.23000000138,"y":2542029.4000000022}},{"attributes":{"ID":371276,"DIS_CODE":0,"TOWNNAME":"南區","LI":"喜東里","LIN":"12鄰","STREET":"明興路","SECT":" ","MAREA":" ","LANE":"６５５巷","ALLEY":" ","HOUSE_NO":"４６號","E_COORD97":166089.01000000001,"N_COORD97":2537689.5699999998,"ADDRESS":"明興路６５５巷４６號","OBJECTID":371266},"geometry":{"x":166089.01000000164,"y":2537689.5700000003}},{"attributes":{"ID":371277,"DIS_CODE":0,"TOWNNAME":"南區","LI":"喜東里","LIN":"12鄰","STREET":"明興路","SECT":" ","MAREA":" ","LANE":"６５５巷","ALLEY":" ","HOUSE_NO":"４２號","E_COORD97":166089.48999999999,"N_COORD97":2537694.96,"ADDRESS":"明興路６５５巷４２號","OBJECTID":371267},"geometry":{"x":166089.49000000209,"y":2537694.9600000009}},{"attributes":{"ID":371278,"DIS_CODE":0,"TOWNNAME":"南區","LI":"喜東里","LIN":"12鄰","STREET":"明興路","SECT":" ","MAREA":" ","LANE":"６５５巷","ALLEY":" ","HOUSE_NO":"４０號","E_COORD97":166090.44,"N_COORD97":2537699.8900000001,"ADDRESS":"明興路６５５巷４０號","OBJECTID":371268},"geometry":{"x":166090.44000000134,"y":2537699.8900000025}},{"attributes":{"ID":371279,"DIS_CODE":0,"TOWNNAME":"南區","LI":"喜東里","LIN":"12鄰","STREET":"明興路","SECT":" ","MAREA":" ","LANE":"６８１巷","ALLEY":" ","HOUSE_NO":"２３號","E_COORD97":166077.89999999999,"N_COORD97":2537681.6299999999,"ADDRESS":"明興路６８１巷２３號","OBJECTID":371269},"geometry":{"x":166077.90000000037,"y":2537681.629999999}},{"attributes":{"ID":371280,"DIS_CODE":0,"TOWNNAME":"南區","LI":"喜東里","LIN":"12鄰","STREET":"明興路","SECT":" ","MAREA":" ","LANE":"６５５巷","ALLEY":" ","HOUSE_NO":"２１號","E_COORD97":166065.20000000001,"N_COORD97":2537736.5600000001,"ADDRESS":"明興路６５５巷２１號","OBJECTID":371270},"geometry":{"x":166065.20000000019,"y":2537736.5600000024}},{"attributes":{"ID":371281,"DIS_CODE":0,"TOWNNAME":"南區","LI":"喜東里","LIN":"12鄰","STREET":"明興路","SECT":" ","MAREA":" ","LANE":"６５５巷","ALLEY":" ","HOUSE_NO":"２１之１號","E_COORD97":166067.10000000001,"N_COORD97":2537741.7999999998,"ADDRESS":"明興路６５５巷２１之１號","OBJECTID":371271},"geometry":{"x":166067.09999999963,"y":2537741.8000000026}},{"attributes":{"ID":371282,"DIS_CODE":0,"TOWNNAME":"南區","LI":"喜東里","LIN":"12鄰","STREET":"明興路","SECT":" ","MAREA":" ","LANE":"６８１巷","ALLEY":" ","HOUSE_NO":"６號","E_COORD97":166019.48000000001,"N_COORD97":2537667.5,"ADDRESS":"明興路６８１巷６號","OBJECTID":371272},"geometry":{"x":166019.48000000138,"y":2537667.5000000037}},{"attributes":{"ID":371283,"DIS_CODE":0,"TOWNNAME":"南區","LI":"喜東里","LIN":"12鄰","STREET":"明興路","SECT":" ","MAREA":" ","LANE":"６８１巷","ALLEY":" ","HOUSE_NO":"８號","E_COORD97":166024.72,"N_COORD97":2537667.1800000002,"ADDRESS":"明興路６８１巷８號","OBJECTID":371273},"geometry":{"x":166024.7200000016,"y":2537667.1800000016}},{"attributes":{"ID":371284,"DIS_CODE":0,"TOWNNAME":"南區","LI":"喜東里","LIN":"12鄰","STREET":"明興路","SECT":" ","MAREA":" ","LANE":"６８１巷","ALLEY":" ","HOUSE_NO":"１０號","E_COORD97":166029.79999999999,"N_COORD97":2537666.71,"ADDRESS":"明興路６８１巷１０號","OBJECTID":371274},"geometry":{"x":166029.80000000075,"y":2537666.7100000046}},{"attributes":{"ID":371285,"DIS_CODE":0,"TOWNNAME":"南區","LI":"喜東里","LIN":"12鄰","STREET":"明興路","SECT":" ","MAREA":" ","LANE":"６８１巷","ALLEY":" ","HOUSE_NO":"１２號","E_COORD97":166035.19,"N_COORD97":2537666.23,"ADDRESS":"明興路６８１巷１２號","OBJECTID":371275},"geometry":{"x":166035.19000000041,"y":2537666.2300000042}},{"attributes":{"ID":371286,"DIS_CODE":0,"TOWNNAME":"南區","LI":"喜東里","LIN":"12鄰","STREET":"明興路","SECT":" ","MAREA":" ","LANE":"６８１巷","ALLEY":" ","HOUSE_NO":"１６號","E_COORD97":166040.59,"N_COORD97":2537666.0699999998,"ADDRESS":"明興路６８１巷１６號","OBJECTID":371276},"geometry":{"x":166040.58999999985,"y":2537666.0700000003}},{"attributes":{"ID":371287,"DIS_CODE":0,"TOWNNAME":"南區","LI":"喜東里","LIN":"12鄰","STREET":"明興路","SECT":" ","MAREA":" ","LANE":"６８１巷","ALLEY":" ","HOUSE_NO":"１８號","E_COORD97":166046.89000000001,"N_COORD97":2537665.8900000001,"ADDRESS":"明興路６８１巷１８號","OBJECTID":371277},"geometry":{"x":166046.88999999966,"y":2537665.8900000025}},{"attributes":{"ID":371288,"DIS_CODE":0,"TOWNNAME":"南區","LI":"喜東里","LIN":"12鄰","STREET":"明興路","SECT":" ","MAREA":" ","LANE":"６８１巷","ALLEY":" ","HOUSE_NO":"２０號","E_COORD97":166052.60000000001,"N_COORD97":2537665.46,"ADDRESS":"明興路６８１巷２０號","OBJECTID":371278},"geometry":{"x":166052.60000000149,"y":2537665.4600000028}},{"attributes":{"ID":371289,"DIS_CODE":0,"TOWNNAME":"南區","LI":"喜東里","LIN":"12鄰","STREET":"明興路","SECT":" ","MAREA":" ","LANE":"６８１巷","ALLEY":" ","HOUSE_NO":"２２號","E_COORD97":166058.10999999999,"N_COORD97":2537665.04,"ADDRESS":"明興路６８１巷２２號","OBJECTID":371279},"geometry":{"x":166058.11000000034,"y":2537665.0399999991}},{"attributes":{"ID":371290,"DIS_CODE":0,"TOWNNAME":"南區","LI":"喜東里","LIN":"12鄰","STREET":"明興路","SECT":" ","MAREA":" ","LANE":"６８１巷","ALLEY":" ","HOUSE_NO":"２６號","E_COORD97":166064.88,"N_COORD97":2537664.8300000001,"ADDRESS":"明興路６８１巷２６號","OBJECTID":371280},"geometry":{"x":166064.88000000082,"y":2537664.8300000001}},{"attributes":{"ID":371291,"DIS_CODE":0,"TOWNNAME":"南區","LI":"喜東里","LIN":"12鄰","STREET":"明興路","SECT":" ","MAREA":" ","LANE":"６８１巷","ALLEY":" ","HOUSE_NO":"２８號","E_COORD97":166071.44,"N_COORD97":2537664.6200000001,"ADDRESS":"明興路６８１巷２８號","OBJECTID":371281},"geometry":{"x":166071.44000000227,"y":2537664.6200000029}},{"attributes":{"ID":371292,"DIS_CODE":0,"TOWNNAME":"南區","LI":"喜東里","LIN":"12鄰","STREET":"明興路","SECT":" ","MAREA":" ","LANE":"６８１巷","ALLEY":" ","HOUSE_NO":"３６號","E_COORD97":166085.84,"N_COORD97":2537658.8999999999,"ADDRESS":"明興路６８１巷３６號","OBJECTID":371282},"geometry":{"x":166085.84000000078,"y":2537658.9000000022}},{"attributes":{"ID":371293,"DIS_CODE":0,"TOWNNAME":"南區","LI":"喜東里","LIN":"12鄰","STREET":"明興路","SECT":" ","MAREA":" ","LANE":"６８１巷","ALLEY":" ","HOUSE_NO":"３８號","E_COORD97":166085.62,"N_COORD97":2537653.8199999998,"ADDRESS":"明興路６８１巷３８號","OBJECTID":371283},"geometry":{"x":166085.62000000104,"y":2537653.8200000003}},{"attributes":{"ID":371294,"DIS_CODE":0,"TOWNNAME":"南區","LI":"喜東里","LIN":"12鄰","STREET":"明興路","SECT":" ","MAREA":" ","LANE":"６８１巷","ALLEY":" ","HOUSE_NO":"４０號","E_COORD97":166085.41,"N_COORD97":2537648.3199999998,"ADDRESS":"明興路６８１巷４０號","OBJECTID":371284},"geometry":{"x":166085.41000000108,"y":2537648.3199999984}},{"attributes":{"ID":371295,"DIS_CODE":0,"TOWNNAME":"南區","LI":"喜東里","LIN":"12鄰","STREET":"明興路","SECT":" ","MAREA":" ","LANE":"６８１巷","ALLEY":" ","HOUSE_NO":"４２號","E_COORD97":166085.41,"N_COORD97":2537643.0299999998,"ADDRESS":"明興路６８１巷４２號","OBJECTID":371285},"geometry":{"x":166085.41000000108,"y":2537643.0300000012}},{"attributes":{"ID":371296,"DIS_CODE":0,"TOWNNAME":"南區","LI":"喜東里","LIN":"12鄰","STREET":"明興路","SECT":" ","MAREA":" ","LANE":"６８１巷","ALLEY":" ","HOUSE_NO":"４８號","E_COORD97":166085.20000000001,"N_COORD97":2537633.9300000002,"ADDRESS":"明興路６８１巷４８號","OBJECTID":371286},"geometry":{"x":166085.20000000112,"y":2537633.9300000016}},{"attributes":{"ID":371297,"DIS_CODE":0,"TOWNNAME":"南區","LI":"喜東里","LIN":"12鄰","STREET":"明興路","SECT":" ","MAREA":" ","LANE":"６８１巷","ALLEY":" ","HOUSE_NO":"５０號","E_COORD97":166085.20000000001,"N_COORD97":2537629.48,"ADDRESS":"明興路６８１巷５０號","OBJECTID":371287},"geometry":{"x":166085.20000000112,"y":2537629.4800000004}},{"attributes":{"ID":371298,"DIS_CODE":0,"TOWNNAME":"南區","LI":"喜東里","LIN":"12鄰","STREET":"明興路","SECT":" ","MAREA":" ","LANE":"６８１巷","ALLEY":" ","HOUSE_NO":"３０號","E_COORD97":166077.37,"N_COORD97":2537664.1899999999,"ADDRESS":"明興路６８１巷３０號","OBJECTID":371288},"geometry":{"x":166077.37000000104,"y":2537664.1899999995}},{"attributes":{"ID":371299,"DIS_CODE":0,"TOWNNAME":"南區","LI":"喜東里","LIN":"12鄰","STREET":"明興路","SECT":" ","MAREA":" ","LANE":"６８１巷","ALLEY":" ","HOUSE_NO":"３２號","E_COORD97":166086.26000000001,"N_COORD97":2537663.98,"ADDRESS":"明興路６８１巷３２號","OBJECTID":371289},"geometry":{"x":166086.26000000071,"y":2537663.9800000004}},{"attributes":{"ID":371300,"DIS_CODE":0,"TOWNNAME":"南區","LI":"明興里","LIN":"12鄰","STREET":"金華路","SECT":"一段","MAREA":" ","LANE":"１００巷","ALLEY":" ","HOUSE_NO":"１２號","E_COORD97":166972.03,"N_COORD97":2540464.9300000002,"ADDRESS":"金華路一段１００巷１２號","OBJECTID":371290},"geometry":{"x":166972.03000000026,"y":2540464.9300000016}},{"attributes":{"ID":371301,"DIS_CODE":0,"TOWNNAME":"南區","LI":"明興里","LIN":"12鄰","STREET":"金華路","SECT":"一段","MAREA":" ","LANE":"１００巷","ALLEY":" ","HOUSE_NO":"１２之１號","E_COORD97":166976.48000000001,"N_COORD97":2540464.77,"ADDRESS":"金華路一段１００巷１２之１號","OBJECTID":371291},"geometry":{"x":166976.48000000231,"y":2540464.7699999996}},{"attributes":{"ID":371302,"DIS_CODE":0,"TOWNNAME":"南區","LI":"喜東里","LIN":"12鄰","STREET":"明興路","SECT":" ","MAREA":" ","LANE":"６５５巷","ALLEY":" ","HOUSE_NO":"３０號","E_COORD97":166084.09,"N_COORD97":2537715.6000000001,"ADDRESS":"明興路６５５巷３０號","OBJECTID":371292},"geometry":{"x":166084.09000000078,"y":2537715.5999999996}},{"attributes":{"ID":371303,"DIS_CODE":0,"TOWNNAME":"南區","LI":"喜東里","LIN":"12鄰","STREET":"明興路","SECT":" ","MAREA":" ","LANE":"６５５巷","ALLEY":" ","HOUSE_NO":"２２號","E_COORD97":166067.73999999999,"N_COORD97":2537717.8300000001,"ADDRESS":"明興路６５５巷２２號","OBJECTID":371293},"geometry":{"x":166067.74000000115,"y":2537717.8300000001}},{"attributes":{"ID":371304,"DIS_CODE":0,"TOWNNAME":"南區","LI":"喜東里","LIN":"12鄰","STREET":"明興路","SECT":" ","MAREA":" ","LANE":"６５５巷","ALLEY":" ","HOUSE_NO":"２６號","E_COORD97":166073.45000000001,"N_COORD97":2537717.0299999998,"ADDRESS":"明興路６５５巷２６號","OBJECTID":371294},"geometry":{"x":166073.45000000112,"y":2537717.0299999975}},{"attributes":{"ID":371305,"DIS_CODE":0,"TOWNNAME":"南區","LI":"喜東里","LIN":"12鄰","STREET":"明興路","SECT":" ","MAREA":" ","LANE":"６５５巷","ALLEY":" ","HOUSE_NO":"２８號","E_COORD97":166078.37,"N_COORD97":2537716.0800000001,"ADDRESS":"明興路６５５巷２８號","OBJECTID":371295},"geometry":{"x":166078.37000000197,"y":2537716.0800000001}},{"attributes":{"ID":371306,"DIS_CODE":0,"TOWNNAME":"南區","LI":"喜東里","LIN":"12鄰","STREET":"明興路","SECT":" ","MAREA":" ","LANE":"６８１巷","ALLEY":" ","HOUSE_NO":"１號","E_COORD97":166016.14000000001,"N_COORD97":2537687.3500000001,"ADDRESS":"明興路６８１巷１號","OBJECTID":371296},"geometry":{"x":166016.13999999966,"y":2537687.3499999996}},{"attributes":{"ID":371307,"DIS_CODE":0,"TOWNNAME":"南區","LI":"喜東里","LIN":"12鄰","STREET":"明興路","SECT":" ","MAREA":" ","LANE":"６８１巷","ALLEY":" ","HOUSE_NO":"３號","E_COORD97":166021.70000000001,"N_COORD97":2537687.0299999998,"ADDRESS":"明興路６８１巷３號","OBJECTID":371297},"geometry":{"x":166021.70000000019,"y":2537687.0300000012}},{"attributes":{"ID":371308,"DIS_CODE":0,"TOWNNAME":"南區","LI":"喜東里","LIN":"12鄰","STREET":"明興路","SECT":" ","MAREA":" ","LANE":"６８１巷","ALLEY":" ","HOUSE_NO":"５號","E_COORD97":166027.42000000001,"N_COORD97":2537686.5499999998,"ADDRESS":"明興路６８１巷５號","OBJECTID":371298},"geometry":{"x":166027.42000000086,"y":2537686.5500000007}},{"attributes":{"ID":371309,"DIS_CODE":0,"TOWNNAME":"南區","LI":"喜東里","LIN":"12鄰","STREET":"明興路","SECT":" ","MAREA":" ","LANE":"６８１巷","ALLEY":" ","HOUSE_NO":"７號","E_COORD97":166032.97,"N_COORD97":2537685.9199999999,"ADDRESS":"明興路６８１巷７號","OBJECTID":371299},"geometry":{"x":166032.96999999974,"y":2537685.9200000018}},{"attributes":{"ID":371310,"DIS_CODE":0,"TOWNNAME":"南區","LI":"喜東里","LIN":"12鄰","STREET":"明興路","SECT":" ","MAREA":" ","LANE":"６５５巷","ALLEY":" ","HOUSE_NO":"３２號","E_COORD97":166093.76999999999,"N_COORD97":2537714.8100000001,"ADDRESS":"明興路６５５巷３２號","OBJECTID":371300},"geometry":{"x":166093.77000000142,"y":2537714.8100000024}},{"attributes":{"ID":371311,"DIS_CODE":0,"TOWNNAME":"南區","LI":"喜東里","LIN":"12鄰","STREET":"明興路","SECT":" ","MAREA":" ","LANE":"６５５巷","ALLEY":" ","HOUSE_NO":"３６號","E_COORD97":166092.34,"N_COORD97":2537709.73,"ADDRESS":"明興路６５５巷３６號","OBJECTID":371301},"geometry":{"x":166092.34000000078,"y":2537709.7300000004}},{"attributes":{"ID":371312,"DIS_CODE":0,"TOWNNAME":"南區","LI":"喜東里","LIN":"12鄰","STREET":"明興路","SECT":" ","MAREA":" ","LANE":"６５５巷","ALLEY":" ","HOUSE_NO":"３８號","E_COORD97":166091.39000000001,"N_COORD97":2537704.8100000001,"ADDRESS":"明興路６５５巷３８號","OBJECTID":371302},"geometry":{"x":166091.39000000153,"y":2537704.8100000005}},{"attributes":{"ID":371313,"DIS_CODE":0,"TOWNNAME":"南區","LI":"喜東里","LIN":"12鄰","STREET":"明興路","SECT":" ","MAREA":" ","LANE":"６８１巷","ALLEY":" ","HOUSE_NO":"９號","E_COORD97":166038.53,"N_COORD97":2537685.6000000001,"ADDRESS":"明興路６８１巷９號","OBJECTID":371303},"geometry":{"x":166038.53000000212,"y":2537685.5999999996}},{"attributes":{"ID":371314,"DIS_CODE":0,"TOWNNAME":"南區","LI":"喜東里","LIN":"12鄰","STREET":"明興路","SECT":" ","MAREA":" ","LANE":"６８１巷","ALLEY":" ","HOUSE_NO":"１１號","E_COORD97":166044.23999999999,"N_COORD97":2537684.96,"ADDRESS":"明興路６８１巷１１號","OBJECTID":371304},"geometry":{"x":166044.24000000115,"y":2537684.9600000009}},{"attributes":{"ID":371315,"DIS_CODE":0,"TOWNNAME":"南區","LI":"喜東里","LIN":"12鄰","STREET":"明興路","SECT":" ","MAREA":" ","LANE":"６８１巷","ALLEY":" ","HOUSE_NO":"１３號","E_COORD97":166050.12,"N_COORD97":2537684.4900000002,"ADDRESS":"明興路６８１巷１３號","OBJECTID":371305},"geometry":{"x":166050.12000000104,"y":2537684.4900000039}},{"attributes":{"ID":371316,"DIS_CODE":0,"TOWNNAME":"南區","LI":"喜東里","LIN":"12鄰","STREET":"明興路","SECT":" ","MAREA":" ","LANE":"６８１巷","ALLEY":" ","HOUSE_NO":"１５號","E_COORD97":166055.67000000001,"N_COORD97":2537683.8500000001,"ADDRESS":"明興路６８１巷１５號","OBJECTID":371306},"geometry":{"x":166055.66999999899,"y":2537683.8499999996}},{"attributes":{"ID":371317,"DIS_CODE":0,"TOWNNAME":"南區","LI":"喜東里","LIN":"12鄰","STREET":"明興路","SECT":" ","MAREA":" ","LANE":"６８１巷","ALLEY":" ","HOUSE_NO":"１７號","E_COORD97":166061.70999999999,"N_COORD97":2537683.0600000001,"ADDRESS":"明興路６８１巷１７號","OBJECTID":371307},"geometry":{"x":166061.70999999996,"y":2537683.0600000005}},{"attributes":{"ID":371318,"DIS_CODE":0,"TOWNNAME":"南區","LI":"喜東里","LIN":"12鄰","STREET":"明興路","SECT":" ","MAREA":" ","LANE":"６８１巷","ALLEY":" ","HOUSE_NO":"１９號","E_COORD97":166067.10000000001,"N_COORD97":2537682.4199999999,"ADDRESS":"明興路６８１巷１９號","OBJECTID":371308},"geometry":{"x":166067.09999999963,"y":2537682.4200000018}},{"attributes":{"ID":371319,"DIS_CODE":0,"TOWNNAME":"南區","LI":"喜東里","LIN":"12鄰","STREET":"明興路","SECT":" ","MAREA":" ","LANE":"６８１巷","ALLEY":" ","HOUSE_NO":"２１號","E_COORD97":166072.5,"N_COORD97":2537681.9500000002,"ADDRESS":"明興路６８１巷２１號","OBJECTID":371309},"geometry":{"x":166072.50000000093,"y":2537681.9500000011}},{"attributes":{"ID":371320,"DIS_CODE":0,"TOWNNAME":"南區","LI":"喜東里","LIN":"12鄰","STREET":"明興路","SECT":" ","MAREA":" ","LANE":"６５５巷","ALLEY":" ","HOUSE_NO":"５０號","E_COORD97":166087.42000000001,"N_COORD97":2537678.9300000002,"ADDRESS":"明興路６５５巷５０號","OBJECTID":371310},"geometry":{"x":166087.41999999993,"y":2537678.9300000016}},{"attributes":{"ID":371321,"DIS_CODE":0,"TOWNNAME":"南區","LI":"喜東里","LIN":"12鄰","STREET":"明興路","SECT":" ","MAREA":" ","LANE":"６５５巷","ALLEY":" ","HOUSE_NO":"４８號","E_COORD97":166088.22,"N_COORD97":2537684.3300000001,"ADDRESS":"明興路６５５巷４８號","OBJECTID":371311},"geometry":{"x":166088.22000000067,"y":2537684.3300000001}},{"attributes":{"ID":371322,"DIS_CODE":0,"TOWNNAME":"南區","LI":"建南里","LIN":"12鄰","STREET":"德興路","SECT":" ","MAREA":" ","LANE":"２７４巷","ALLEY":" ","HOUSE_NO":"６２號","E_COORD97":167075.20000000001,"N_COORD97":2540026.1699999999,"ADDRESS":"德興路２７４巷６２號","OBJECTID":371312},"geometry":{"x":167075.20000000112,"y":2540026.1700000018}},{"attributes":{"ID":371323,"DIS_CODE":0,"TOWNNAME":"南區","LI":"建南里","LIN":"12鄰","STREET":"德興路","SECT":" ","MAREA":" ","LANE":"２７４巷","ALLEY":" ","HOUSE_NO":"６６號","E_COORD97":167069.79000000001,"N_COORD97":2540027.1600000001,"ADDRESS":"德興路２７４巷６６號","OBJECTID":371313},"geometry":{"x":167069.79000000004,"y":2540027.160000002}},{"attributes":{"ID":371324,"DIS_CODE":0,"TOWNNAME":"南區","LI":"喜東里","LIN":"12鄰","STREET":"明興路","SECT":" ","MAREA":" ","LANE":"６５５巷","ALLEY":" ","HOUSE_NO":"７號","E_COORD97":166042.14999999999,"N_COORD97":2537745.1499999999,"ADDRESS":"明興路６５５巷７號","OBJECTID":371314},"geometry":{"x":166042.15000000037,"y":2537745.1500000022}},{"attributes":{"ID":371325,"DIS_CODE":0,"TOWNNAME":"南區","LI":"喜東里","LIN":"12鄰","STREET":"明興路","SECT":" ","MAREA":" ","LANE":"６５５巷","ALLEY":" ","HOUSE_NO":"９號","E_COORD97":166048.54000000001,"N_COORD97":2537744.8599999999,"ADDRESS":"明興路６５５巷９號","OBJECTID":371315},"geometry":{"x":166048.54000000097,"y":2537744.8599999994}},{"attributes":{"ID":371326,"DIS_CODE":0,"TOWNNAME":"南區","LI":"金華里","LIN":"12鄰","STREET":"健康路","SECT":"二段","MAREA":" ","LANE":"２６３巷","ALLEY":" ","HOUSE_NO":"１６號","E_COORD97":166949.41,"N_COORD97":2542410.4300000002,"ADDRESS":"健康路二段２６３巷１６號","OBJECTID":371316},"geometry":{"x":166949.41000000201,"y":2542410.4299999978}},{"attributes":{"ID":371327,"DIS_CODE":0,"TOWNNAME":"南區","LI":"金華里","LIN":"12鄰","STREET":"金華路","SECT":"二段","MAREA":" ","LANE":"１４７巷","ALLEY":" ","HOUSE_NO":"５６號","E_COORD97":166924.76999999999,"N_COORD97":2542391.0499999998,"ADDRESS":"金華路二段１４７巷５６號","OBJECTID":371317},"geometry":{"x":166924.77000000048,"y":2542391.0500000026}},{"attributes":{"ID":371328,"DIS_CODE":0,"TOWNNAME":"東區","LI":"忠孝里","LIN":"12鄰","STREET":"榮譽街","SECT":" ","MAREA":" ","LANE":"８７巷","ALLEY":" ","HOUSE_NO":"１１號","E_COORD97":169749.56,"N_COORD97":2541751.3100000001,"ADDRESS":"榮譽街８７巷１１號","OBJECTID":371318},"geometry":{"x":169749.55999999959,"y":2541751.3100000042}},{"attributes":{"ID":371329,"DIS_CODE":0,"TOWNNAME":"東區","LI":"忠孝里","LIN":"12鄰","STREET":"榮譽街","SECT":" ","MAREA":" ","LANE":"８７巷","ALLEY":" ","HOUSE_NO":"１號","E_COORD97":169773.85999999999,"N_COORD97":2541739.0299999998,"ADDRESS":"榮譽街８７巷１號","OBJECTID":371319},"geometry":{"x":169773.86000000034,"y":2541739.0300000012}},{"attributes":{"ID":371330,"DIS_CODE":0,"TOWNNAME":"東區","LI":"忠孝里","LIN":"12鄰","STREET":"榮譽街","SECT":" ","MAREA":" ","LANE":"８７巷","ALLEY":" ","HOUSE_NO":"３號","E_COORD97":169753.51999999999,"N_COORD97":2541747.0899999999,"ADDRESS":"榮譽街８７巷３號","OBJECTID":371320},"geometry":{"x":169753.51999999862,"y":2541747.0899999999}},{"attributes":{"ID":371331,"DIS_CODE":0,"TOWNNAME":"東區","LI":"忠孝里","LIN":"12鄰","STREET":"榮譽街","SECT":" ","MAREA":" ","LANE":"８７巷","ALLEY":" ","HOUSE_NO":"５號","E_COORD97":169731.88,"N_COORD97":2541727.7000000002,"ADDRESS":"榮譽街８７巷５號","OBJECTID":371321},"geometry":{"x":169731.88000000082,"y":2541727.7000000011}},{"attributes":{"ID":371332,"DIS_CODE":0,"TOWNNAME":"東區","LI":"忠孝里","LIN":"12鄰","STREET":"榮譽街","SECT":" ","MAREA":" ","LANE":"８７巷","ALLEY":" ","HOUSE_NO":"７號","E_COORD97":169748.78,"N_COORD97":2541741.4100000001,"ADDRESS":"榮譽街８７巷７號","OBJECTID":371322},"geometry":{"x":169748.78000000026,"y":2541741.410000002}},{"attributes":{"ID":371333,"DIS_CODE":0,"TOWNNAME":"東區","LI":"忠孝里","LIN":"12鄰","STREET":"榮譽街","SECT":" ","MAREA":" ","LANE":"８７巷","ALLEY":" ","HOUSE_NO":"９號","E_COORD97":169742.06,"N_COORD97":2541749.0699999998,"ADDRESS":"榮譽街８７巷９號","OBJECTID":371323},"geometry":{"x":169742.06000000052,"y":2541749.070000004}},{"attributes":{"ID":371334,"DIS_CODE":0,"TOWNNAME":"東區","LI":"後甲里","LIN":"12鄰","STREET":"裕農路","SECT":" ","MAREA":" ","LANE":"６６１巷","ALLEY":" ","HOUSE_NO":"４０號","E_COORD97":171731.29999999999,"N_COORD97":2543338.8300000001,"ADDRESS":"裕農路６６１巷４０號","OBJECTID":371324},"geometry":{"x":171731.29999999981,"y":2543338.8300000019}},{"attributes":{"ID":371335,"DIS_CODE":0,"TOWNNAME":"安南區","LI":"佃東里","LIN":"12鄰","STREET":"海佃路","SECT":"四段","MAREA":" ","LANE":"３８８巷","ALLEY":" ","HOUSE_NO":"１５８號","E_COORD97":165621.29999999999,"N_COORD97":2551916.9300000002,"ADDRESS":"海佃路四段３８８巷１５８號","OBJECTID":371325},"geometry":{"x":165621.30000000075,"y":2551916.9299999997}},{"attributes":{"ID":371336,"DIS_CODE":0,"TOWNNAME":"安南區","LI":"佃東里","LIN":"12鄰","STREET":"海佃路","SECT":"四段","MAREA":" ","LANE":"３８８巷","ALLEY":" ","HOUSE_NO":"１６６號","E_COORD97":165622.5,"N_COORD97":2551941.6800000002,"ADDRESS":"海佃路四段３８８巷１６６號","OBJECTID":371326},"geometry":{"x":165622.5,"y":2551941.6799999997}},{"attributes":{"ID":371337,"DIS_CODE":0,"TOWNNAME":"安南區","LI":"城南里","LIN":"12鄰","STREET":"城西街","SECT":"二段","MAREA":" ","LANE":"２４８巷","ALLEY":" ","HOUSE_NO":"６號","E_COORD97":159740.32000000001,"N_COORD97":2551028.2599999998,"ADDRESS":"城西街二段２４８巷６號","OBJECTID":371327},"geometry":{"x":159740.3200000003,"y":2551028.2600000016}},{"attributes":{"ID":371338,"DIS_CODE":0,"TOWNNAME":"善化區","LI":"西關里","LIN":"12鄰","STREET":"復興街","SECT":" ","MAREA":" ","LANE":"９６巷","ALLEY":" ","HOUSE_NO":"７號","E_COORD97":176806.04000000001,"N_COORD97":2559062.0099999998,"ADDRESS":"復興街９６巷７號","OBJECTID":371328},"geometry":{"x":176806.0400000019,"y":2559062.0099999998}},{"attributes":{"ID":371339,"DIS_CODE":0,"TOWNNAME":"善化區","LI":"光文里","LIN":"12鄰","STREET":"民生路","SECT":" ","MAREA":" ","LANE":"９８巷","ALLEY":" ","HOUSE_NO":"１號","E_COORD97":178685.76000000001,"N_COORD97":2559023.2599999998,"ADDRESS":"民生路９８巷１號","OBJECTID":371329},"geometry":{"x":178685.75999999885,"y":2559023.2599999998}},{"attributes":{"ID":371340,"DIS_CODE":0,"TOWNNAME":"善化區","LI":"光文里","LIN":"12鄰","STREET":"民生路","SECT":" ","MAREA":" ","LANE":"３３巷","ALLEY":" ","HOUSE_NO":"１號","E_COORD97":178828.95999999999,"N_COORD97":2559008.2599999998,"ADDRESS":"民生路３３巷１號","OBJECTID":371330},"geometry":{"x":178828.96000000089,"y":2559008.2600000016}},{"attributes":{"ID":371341,"DIS_CODE":0,"TOWNNAME":"善化區","LI":"光文里","LIN":"12鄰","STREET":"民生路","SECT":" ","MAREA":" ","LANE":"３３巷","ALLEY":" ","HOUSE_NO":"１２號","E_COORD97":178823.23999999999,"N_COORD97":2558985.7599999998,"ADDRESS":"民生路３３巷１２號","OBJECTID":371331},"geometry":{"x":178823.24000000022,"y":2558985.7599999998}},{"attributes":{"ID":371342,"DIS_CODE":0,"TOWNNAME":"善化區","LI":"光文里","LIN":"12鄰","STREET":"民生路","SECT":" ","MAREA":" ","LANE":"３３巷","ALLEY":" ","HOUSE_NO":"７號","E_COORD97":178831.54999999999,"N_COORD97":2558992.5099999998,"ADDRESS":"民生路３３巷７號","OBJECTID":371332},"geometry":{"x":178831.55000000168,"y":2558992.5100000035}},{"attributes":{"ID":371343,"DIS_CODE":0,"TOWNNAME":"善化區","LI":"光文里","LIN":"12鄰","STREET":"民生路","SECT":" ","MAREA":" ","LANE":"３３巷","ALLEY":" ","HOUSE_NO":"１５號","E_COORD97":178835.16,"N_COORD97":2558971.2599999998,"ADDRESS":"民生路３３巷１５號","OBJECTID":371333},"geometry":{"x":178835.16000000108,"y":2558971.2600000016}},{"attributes":{"ID":371344,"DIS_CODE":0,"TOWNNAME":"善化區","LI":"光文里","LIN":"12鄰","STREET":"民生路","SECT":" ","MAREA":" ","LANE":"１６９巷","ALLEY":" ","HOUSE_NO":"１４號","E_COORD97":178490.67000000001,"N_COORD97":2558919.7599999998,"ADDRESS":"民生路１６９巷１４號","OBJECTID":371334},"geometry":{"x":178490.67000000086,"y":2558919.7600000035}},{"attributes":{"ID":371345,"DIS_CODE":0,"TOWNNAME":"善化區","LI":"光文里","LIN":"12鄰","STREET":"民生路","SECT":" ","MAREA":" ","LANE":"９８巷","ALLEY":" ","HOUSE_NO":"３號","E_COORD97":178684.76000000001,"N_COORD97":2559027.0099999998,"ADDRESS":"民生路９８巷３號","OBJECTID":371335},"geometry":{"x":178684.76000000071,"y":2559027.0100000016}},{"attributes":{"ID":371346,"DIS_CODE":0,"TOWNNAME":"善化區","LI":"文昌里","LIN":"12鄰","STREET":"永福路","SECT":" ","MAREA":" ","LANE":"９０巷","ALLEY":" ","HOUSE_NO":"１４號","E_COORD97":177415.26999999999,"N_COORD97":2558877,"ADDRESS":"永福路９０巷１４號","OBJECTID":371336},"geometry":{"x":177415.26999999955,"y":2558877}},{"attributes":{"ID":371347,"DIS_CODE":0,"TOWNNAME":"善化區","LI":"文昌里","LIN":"12鄰","STREET":"中和街","SECT":" ","MAREA":" ","LANE":"４０巷","ALLEY":" ","HOUSE_NO":"１號","E_COORD97":177404.87,"N_COORD97":2558890.75,"ADDRESS":"中和街４０巷１號","OBJECTID":371337},"geometry":{"x":177404.87000000011,"y":2558890.7500000019}},{"attributes":{"ID":371348,"DIS_CODE":0,"TOWNNAME":"善化區","LI":"文昌里","LIN":"12鄰","STREET":"永福路","SECT":" ","MAREA":" ","LANE":"９０巷","ALLEY":" ","HOUSE_NO":"１２號","E_COORD97":177417.17000000001,"N_COORD97":2558871,"ADDRESS":"永福路９０巷１２號","OBJECTID":371338},"geometry":{"x":177417.17000000086,"y":2558871.0000000019}},{"attributes":{"ID":371349,"DIS_CODE":0,"TOWNNAME":"善化區","LI":"文昌里","LIN":"12鄰","STREET":"中和街","SECT":" ","MAREA":" ","LANE":"４０巷","ALLEY":" ","HOUSE_NO":"３號","E_COORD97":177409.29000000001,"N_COORD97":2558891.5,"ADDRESS":"中和街４０巷３號","OBJECTID":371339},"geometry":{"x":177409.29000000004,"y":2558891.5000000019}},{"attributes":{"ID":371350,"DIS_CODE":0,"TOWNNAME":"善化區","LI":"文正里","LIN":"12鄰","STREET":"文正路","SECT":" ","MAREA":" ","LANE":"２５巷","ALLEY":" ","HOUSE_NO":"１之３號","E_COORD97":176949.70000000001,"N_COORD97":2559257.7799999998,"ADDRESS":"文正路２５巷１之３號","OBJECTID":371340},"geometry":{"x":176949.70000000112,"y":2559257.7799999975}},{"attributes":{"ID":371351,"DIS_CODE":0,"TOWNNAME":"善化區","LI":"文昌里","LIN":"12鄰","STREET":"中和街","SECT":" ","MAREA":" ","LANE":"４０巷","ALLEY":" ","HOUSE_NO":"１１號","E_COORD97":177445.20000000001,"N_COORD97":2558901.5,"ADDRESS":"中和街４０巷１１號","OBJECTID":371341},"geometry":{"x":177445.20000000019,"y":2558901.5000000037}},{"attributes":{"ID":371352,"DIS_CODE":0,"TOWNNAME":"仁德區","LI":"一甲里","LIN":"12鄰","STREET":"忠義路","SECT":" ","MAREA":" ","LANE":"３３１巷","ALLEY":" ","HOUSE_NO":"３號","E_COORD97":173588.89000000001,"N_COORD97":2541838.0099999998,"ADDRESS":"忠義路３３１巷３號","OBJECTID":371342},"geometry":{"x":173588.88999999966,"y":2541838.0100000016}},{"attributes":{"ID":371353,"DIS_CODE":0,"TOWNNAME":"善化區","LI":"文昌里","LIN":"12鄰","STREET":"中和街","SECT":" ","MAREA":" ","LANE":"４０巷","ALLEY":" ","HOUSE_NO":"７號之６","E_COORD97":177427.87,"N_COORD97":2558896.52,"ADDRESS":"中和街４０巷７號之６","OBJECTID":371343},"geometry":{"x":177427.87000000104,"y":2558896.5199999996}},{"attributes":{"ID":371354,"DIS_CODE":0,"TOWNNAME":"善化區","LI":"文正里","LIN":"12鄰","STREET":"文正路","SECT":" ","MAREA":" ","LANE":"２５巷","ALLEY":" ","HOUSE_NO":"１之１號","E_COORD97":176950.04000000001,"N_COORD97":2559248.7799999998,"ADDRESS":"文正路２５巷１之１號","OBJECTID":371344},"geometry":{"x":176950.0400000019,"y":2559248.7800000012}},{"attributes":{"ID":371355,"DIS_CODE":0,"TOWNNAME":"善化區","LI":"文昌里","LIN":"12鄰","STREET":"中和街","SECT":" ","MAREA":" ","LANE":"４０巷","ALLEY":" ","HOUSE_NO":"７號之９","E_COORD97":177436.17000000001,"N_COORD97":2558882.02,"ADDRESS":"中和街４０巷７號之９","OBJECTID":371345},"geometry":{"x":177436.17000000086,"y":2558882.0199999996}},{"attributes":{"ID":371356,"DIS_CODE":0,"TOWNNAME":"東區","LI":"和平里","LIN":"1鄰","STREET":"文化一街","SECT":" ","MAREA":" ","LANE":" ","ALLEY":" ","HOUSE_NO":"６號三樓","E_COORD97":171099.45000000001,"N_COORD97":2542097.2200000002,"ADDRESS":"文化一街６號三樓","OBJECTID":371346},"geometry":{"x":171099.45000000112,"y":2542097.2200000007}},{"attributes":{"ID":371357,"DIS_CODE":0,"TOWNNAME":"善化區","LI":"文昌里","LIN":"12鄰","STREET":"中和街","SECT":" ","MAREA":" ","LANE":"４０巷","ALLEY":" ","HOUSE_NO":"７號之５","E_COORD97":177432.62,"N_COORD97":2558898.27,"ADDRESS":"中和街４０巷７號之５","OBJECTID":371347},"geometry":{"x":177432.61999999918,"y":2558898.2699999996}},{"attributes":{"ID":371358,"DIS_CODE":0,"TOWNNAME":"善化區","LI":"文昌里","LIN":"12鄰","STREET":"中和街","SECT":" ","MAREA":" ","LANE":"４０巷","ALLEY":" ","HOUSE_NO":"７號之８","E_COORD97":177436.37,"N_COORD97":2558886.2599999998,"ADDRESS":"中和街４０巷７號之８","OBJECTID":371348},"geometry":{"x":177436.37000000104,"y":2558886.2600000016}},{"attributes":{"ID":371359,"DIS_CODE":0,"TOWNNAME":"善化區","LI":"文昌里","LIN":"12鄰","STREET":"中和街","SECT":" ","MAREA":" ","LANE":"４０巷","ALLEY":" ","HOUSE_NO":"７號之７","E_COORD97":177423.39000000001,"N_COORD97":2558894.52,"ADDRESS":"中和街４０巷７號之７","OBJECTID":371349},"geometry":{"x":177423.38999999966,"y":2558894.5200000014}},{"attributes":{"ID":371360,"DIS_CODE":0,"TOWNNAME":"善化區","LI":"文昌里","LIN":"12鄰","STREET":"中和街","SECT":" ","MAREA":" ","LANE":"４０巷","ALLEY":" ","HOUSE_NO":"７號之１０","E_COORD97":177438.26000000001,"N_COORD97":2558878.02,"ADDRESS":"中和街４０巷７號之１０","OBJECTID":371350},"geometry":{"x":177438.26000000164,"y":2558878.0200000014}},{"attributes":{"ID":371361,"DIS_CODE":0,"TOWNNAME":"安南區","LI":"南興里","LIN":"12鄰","STREET":"公學路","SECT":"五段","MAREA":" ","LANE":"６５６巷","ALLEY":" ","HOUSE_NO":"１８６號","E_COORD97":164108.10000000001,"N_COORD97":2553186.8199999998,"ADDRESS":"公學路五段６５６巷１８６號","OBJECTID":371351},"geometry":{"x":164108.0999999987,"y":2553186.820000004}},{"attributes":{"ID":371362,"DIS_CODE":0,"TOWNNAME":"安南區","LI":"安東里","LIN":"12鄰","STREET":"安和路","SECT":"一段","MAREA":" ","LANE":"２８８巷","ALLEY":" ","HOUSE_NO":"１６６號","E_COORD97":169755.26999999999,"N_COORD97":2548199.21,"ADDRESS":"安和路一段２８８巷１６６號","OBJECTID":371352},"geometry":{"x":169755.27000000142,"y":2548199.2100000009}},{"attributes":{"ID":371363,"DIS_CODE":0,"TOWNNAME":"安南區","LI":"淵西里","LIN":"12鄰","STREET":"安中路","SECT":"四段","MAREA":" ","LANE":"２４０巷","ALLEY":" ","HOUSE_NO":"２號之１","E_COORD97":164710.14000000001,"N_COORD97":2550157.4100000001,"ADDRESS":"安中路四段２４０巷２號之１","OBJECTID":371353},"geometry":{"x":164710.1400000006,"y":2550157.4100000001}},{"attributes":{"ID":371364,"DIS_CODE":0,"TOWNNAME":"安南區","LI":"安順里","LIN":"12鄰","STREET":"安和路","SECT":"四段","MAREA":" ","LANE":"３６巷","ALLEY":" ","HOUSE_NO":"１０３號","E_COORD97":170271.07000000001,"N_COORD97":2550183.9500000002,"ADDRESS":"安和路四段３６巷１０３號","OBJECTID":371354},"geometry":{"x":170271.07000000216,"y":2550183.9499999974}},{"attributes":{"ID":371365,"DIS_CODE":0,"TOWNNAME":"安南區","LI":"長安里","LIN":"12鄰","STREET":"長溪路","SECT":"三段","MAREA":" ","LANE":"４１８巷","ALLEY":" ","HOUSE_NO":"８號","E_COORD97":167674.89999999999,"N_COORD97":2552087.2599999998,"ADDRESS":"長溪路三段４１８巷８號","OBJECTID":371355},"geometry":{"x":167674.90000000037,"y":2552087.2599999998}},{"attributes":{"ID":371366,"DIS_CODE":0,"TOWNNAME":"安南區","LI":"淵中里","LIN":"12鄰","STREET":"安中路","SECT":"四段","MAREA":" ","LANE":"２９０巷","ALLEY":" ","HOUSE_NO":"３４６號之１","E_COORD97":165257.04999999999,"N_COORD97":2550364.8199999998,"ADDRESS":"安中路四段２９０巷３４６號之１","OBJECTID":371356},"geometry":{"x":165257.05000000075,"y":2550364.8200000003}},{"attributes":{"ID":371367,"DIS_CODE":0,"TOWNNAME":"安南區","LI":"淵西里","LIN":"12鄰","STREET":"安中路","SECT":"四段","MAREA":" ","LANE":"２４０巷","ALLEY":" ","HOUSE_NO":"１６號","E_COORD97":164715.67000000001,"N_COORD97":2550176.5800000001,"ADDRESS":"安中路四段２４０巷１６號","OBJECTID":371357},"geometry":{"x":164715.67000000086,"y":2550176.5800000001}},{"attributes":{"ID":371368,"DIS_CODE":0,"TOWNNAME":"安南區","LI":"溪頂里","LIN":"29鄰","STREET":"北安路","SECT":"二段","MAREA":" ","LANE":"６０巷","ALLEY":" ","HOUSE_NO":"１０號","E_COORD97":168560.67999999999,"N_COORD97":2547502.4100000001,"ADDRESS":"北安路二段６０巷１０號","OBJECTID":371358},"geometry":{"x":168560.6799999997,"y":2547502.4100000001}},{"attributes":{"ID":371369,"DIS_CODE":0,"TOWNNAME":"安南區","LI":"溪頂里","LIN":"29鄰","STREET":"北安路","SECT":"二段","MAREA":" ","LANE":"６０巷","ALLEY":" ","HOUSE_NO":"１２號","E_COORD97":168565.32000000001,"N_COORD97":2547502.9700000002,"ADDRESS":"北安路二段６０巷１２號","OBJECTID":371359},"geometry":{"x":168565.3200000003,"y":2547502.9700000007}},{"attributes":{"ID":371370,"DIS_CODE":0,"TOWNNAME":"仁德區","LI":"上崙里","LIN":"12鄰","STREET":"德崙路","SECT":" ","MAREA":" ","LANE":"４１７巷","ALLEY":" ","HOUSE_NO":"５號","E_COORD97":174216.67000000001,"N_COORD97":2538122.52,"ADDRESS":"德崙路４１７巷５號","OBJECTID":371360},"geometry":{"x":174216.67000000086,"y":2538122.5200000014}},{"attributes":{"ID":371371,"DIS_CODE":0,"TOWNNAME":"仁德區","LI":"上崙里","LIN":"12鄰","STREET":"德崙路","SECT":" ","MAREA":" ","LANE":"４１７巷","ALLEY":" ","HOUSE_NO":"１號","E_COORD97":174214.51999999999,"N_COORD97":2538114.2599999998,"ADDRESS":"德崙路４１７巷１號","OBJECTID":371361},"geometry":{"x":174214.51999999955,"y":2538114.2600000016}},{"attributes":{"ID":371372,"DIS_CODE":0,"TOWNNAME":"仁德區","LI":"上崙里","LIN":"12鄰","STREET":"德崙路","SECT":" ","MAREA":" ","LANE":"４１７巷","ALLEY":" ","HOUSE_NO":"６號","E_COORD97":174229.81,"N_COORD97":2538115.0099999998,"ADDRESS":"德崙路４１７巷６號","OBJECTID":371362},"geometry":{"x":174229.80999999959,"y":2538115.0100000016}},{"attributes":{"ID":371373,"DIS_CODE":0,"TOWNNAME":"仁德區","LI":"上崙里","LIN":"12鄰","STREET":"德崙路","SECT":" ","MAREA":" ","LANE":"４１７巷","ALLEY":" ","HOUSE_NO":"１０號","E_COORD97":174233.31,"N_COORD97":2538123.02,"ADDRESS":"德崙路４１７巷１０號","OBJECTID":371363},"geometry":{"x":174233.30999999959,"y":2538123.0199999996}},{"attributes":{"ID":371374,"DIS_CODE":0,"TOWNNAME":"仁德區","LI":"仁德里","LIN":"12鄰","STREET":"中山路","SECT":" ","MAREA":" ","LANE":"６０６巷","ALLEY":" ","HOUSE_NO":"２號","E_COORD97":173248.67999999999,"N_COORD97":2541464.5,"ADDRESS":"中山路６０６巷２號","OBJECTID":371364},"geometry":{"x":173248.68000000063,"y":2541464.5000000037}},{"attributes":{"ID":371375,"DIS_CODE":0,"TOWNNAME":"仁德區","LI":"土庫里","LIN":"12鄰","STREET":"土庫路","SECT":" ","MAREA":" ","LANE":"１３３巷","ALLEY":" ","HOUSE_NO":"３號","E_COORD97":174374.34,"N_COORD97":2543120.75,"ADDRESS":"土庫路１３３巷３號","OBJECTID":371365},"geometry":{"x":174374.33999999985,"y":2543120.7500000037}},{"attributes":{"ID":371376,"DIS_CODE":0,"TOWNNAME":"仁德區","LI":"一甲里","LIN":"12鄰","STREET":"忠義三街","SECT":" ","MAREA":" ","LANE":"３７巷","ALLEY":" ","HOUSE_NO":"９號","E_COORD97":173610.22,"N_COORD97":2541776.46,"ADDRESS":"忠義三街３７巷９號","OBJECTID":371366},"geometry":{"x":173610.21999999974,"y":2541776.4600000009}},{"attributes":{"ID":371377,"DIS_CODE":0,"TOWNNAME":"仁德區","LI":"大甲里","LIN":"12鄰","STREET":"行大街","SECT":" ","MAREA":" ","LANE":"３４１巷","ALLEY":" ","HOUSE_NO":"２２號","E_COORD97":169598.53,"N_COORD97":2535135,"ADDRESS":"行大街３４１巷２２號","OBJECTID":371367},"geometry":{"x":169598.53000000119,"y":2535135.0000000019}},{"attributes":{"ID":371378,"DIS_CODE":0,"TOWNNAME":"仁德區","LI":"二行里","LIN":"12鄰","STREET":"中正西路","SECT":" ","MAREA":" ","LANE":"３５３巷","ALLEY":" ","HOUSE_NO":"８２號","E_COORD97":169933.06,"N_COORD97":2535271.7400000002,"ADDRESS":"中正西路３５３巷８２號","OBJECTID":371368},"geometry":{"x":169933.06000000145,"y":2535271.7400000002}},{"attributes":{"ID":371379,"DIS_CODE":0,"TOWNNAME":"仁德區","LI":"二行里","LIN":"12鄰","STREET":"行大街","SECT":" ","MAREA":" ","LANE":"１７２巷","ALLEY":" ","HOUSE_NO":"４６號","E_COORD97":169901.76000000001,"N_COORD97":2535164.75,"ADDRESS":"行大街１７２巷４６號","OBJECTID":371369},"geometry":{"x":169901.76000000071,"y":2535164.7500000019}},{"attributes":{"ID":371380,"DIS_CODE":0,"TOWNNAME":"仁德區","LI":"一甲里","LIN":"12鄰","STREET":"忠義三街","SECT":" ","MAREA":" ","LANE":"３７巷","ALLEY":" ","HOUSE_NO":"８號","E_COORD97":173613.79000000001,"N_COORD97":2541780.9700000002,"ADDRESS":"忠義三街３７巷８號","OBJECTID":371370},"geometry":{"x":173613.79000000004,"y":2541780.9700000044}},{"attributes":{"ID":371381,"DIS_CODE":0,"TOWNNAME":"仁德區","LI":"土庫里","LIN":"12鄰","STREET":"土庫路","SECT":" ","MAREA":" ","LANE":"１３９巷","ALLEY":" ","HOUSE_NO":"５號","E_COORD97":174372.32000000001,"N_COORD97":2543103,"ADDRESS":"土庫路１３９巷５號","OBJECTID":371371},"geometry":{"x":174372.32000000123,"y":2543103.0000000019}},{"attributes":{"ID":371382,"DIS_CODE":0,"TOWNNAME":"仁德區","LI":"一甲里","LIN":"12鄰","STREET":"忠義路","SECT":" ","MAREA":" ","LANE":"３３１巷","ALLEY":" ","HOUSE_NO":"１號","E_COORD97":173591.26000000001,"N_COORD97":2541843.2599999998,"ADDRESS":"忠義路３３１巷１號","OBJECTID":371372},"geometry":{"x":173591.25999999978,"y":2541843.2600000016}},{"attributes":{"ID":371383,"DIS_CODE":0,"TOWNNAME":"安南區","LI":"溪頂里","LIN":"26鄰","STREET":"郡安路","SECT":"四段","MAREA":" ","LANE":"２７８巷","ALLEY":" ","HOUSE_NO":"１６號","E_COORD97":168562.56284900001,"N_COORD97":2547612.09718,"ADDRESS":"郡安路四段２７８巷１６號","OBJECTID":371373},"geometry":{"x":168562.56284900103,"y":2547612.0971830022}},{"attributes":{"ID":371384,"DIS_CODE":0,"TOWNNAME":"安南區","LI":"溪頂里","LIN":"26鄰","STREET":"郡安路","SECT":"四段","MAREA":" ","LANE":"２７８巷","ALLEY":" ","HOUSE_NO":"１２號","E_COORD97":168562.139314,"N_COORD97":2547618.23551,"ADDRESS":"郡安路四段２７８巷１２號","OBJECTID":371374},"geometry":{"x":168562.13931399956,"y":2547618.235512998}},{"attributes":{"ID":371385,"DIS_CODE":0,"TOWNNAME":"安南區","LI":"溪頂里","LIN":"26鄰","STREET":"郡安路","SECT":"四段","MAREA":" ","LANE":"２７８巷","ALLEY":" ","HOUSE_NO":"１０號","E_COORD97":168561.29224499999,"N_COORD97":2547622.2571800002,"ADDRESS":"郡安路四段２７８巷１０號","OBJECTID":371375},"geometry":{"x":168561.2922450006,"y":2547622.257178003}},{"attributes":{"ID":371386,"DIS_CODE":0,"TOWNNAME":"仁德區","LI":"大甲里","LIN":"12鄰","STREET":"行大街","SECT":" ","MAREA":" ","LANE":"３４１巷","ALLEY":" ","HOUSE_NO":"２之２號","E_COORD97":169634.20000000001,"N_COORD97":2535173.04,"ADDRESS":"行大街３４１巷２之２號","OBJECTID":371376},"geometry":{"x":169634.20000000019,"y":2535173.0399999991}},{"attributes":{"ID":371387,"DIS_CODE":0,"TOWNNAME":"仁德區","LI":"大甲里","LIN":"12鄰","STREET":"行大街","SECT":" ","MAREA":" ","LANE":"３４１巷","ALLEY":" ","HOUSE_NO":"３０號","E_COORD97":169593.34,"N_COORD97":2535123.75,"ADDRESS":"行大街３４１巷３０號","OBJECTID":371377},"geometry":{"x":169593.33999999985,"y":2535123.7500000019}},{"attributes":{"ID":371388,"DIS_CODE":0,"TOWNNAME":"仁德區","LI":"土庫里","LIN":"12鄰","STREET":"土庫路","SECT":" ","MAREA":" ","LANE":"１３３巷","ALLEY":" ","HOUSE_NO":"７號","E_COORD97":174393.54000000001,"N_COORD97":2543123.5,"ADDRESS":"土庫路１３３巷７號","OBJECTID":371378},"geometry":{"x":174393.54000000004,"y":2543123.5000000019}},{"attributes":{"ID":371389,"DIS_CODE":0,"TOWNNAME":"中西區","LI":"開山里","LIN":"12鄰","STREET":"大同路","SECT":"一段","MAREA":" ","LANE":"４６巷","ALLEY":" ","HOUSE_NO":"１０號","E_COORD97":169117.07000000001,"N_COORD97":2543149.27,"ADDRESS":"大同路一段４６巷１０號","OBJECTID":371379},"geometry":{"x":169117.07000000123,"y":2543149.2699999996}},{"attributes":{"ID":371390,"DIS_CODE":0,"TOWNNAME":"中西區","LI":"開山里","LIN":"12鄰","STREET":"大同路","SECT":"一段","MAREA":" ","LANE":"４６巷","ALLEY":" ","HOUSE_NO":"１２號","E_COORD97":169121.07000000001,"N_COORD97":2543144.4700000002,"ADDRESS":"大同路一段４６巷１２號","OBJECTID":371380},"geometry":{"x":169121.0700000003,"y":2543144.4700000025}},{"attributes":{"ID":371391,"DIS_CODE":0,"TOWNNAME":"中西區","LI":"開山里","LIN":"12鄰","STREET":"大同路","SECT":"一段","MAREA":" ","LANE":"４６巷","ALLEY":" ","HOUSE_NO":"１４號","E_COORD97":169119.59,"N_COORD97":2543157.1600000001,"ADDRESS":"大同路一段４６巷１４號","OBJECTID":371381},"geometry":{"x":169119.59000000171,"y":2543157.1600000001}},{"attributes":{"ID":371392,"DIS_CODE":0,"TOWNNAME":"中西區","LI":"開山里","LIN":"12鄰","STREET":"大同路","SECT":"一段","MAREA":" ","LANE":"４６巷","ALLEY":" ","HOUSE_NO":"１６號","E_COORD97":169104.82999999999,"N_COORD97":2543161.5099999998,"ADDRESS":"大同路一段４６巷１６號","OBJECTID":371382},"geometry":{"x":169104.83000000101,"y":2543161.5099999998}},{"attributes":{"ID":371393,"DIS_CODE":0,"TOWNNAME":"中西區","LI":"開山里","LIN":"12鄰","STREET":"大同路","SECT":"一段","MAREA":" ","LANE":"４６巷","ALLEY":" ","HOUSE_NO":"１８號","E_COORD97":169108.60999999999,"N_COORD97":2543151.6699999999,"ADDRESS":"大同路一段４６巷１８號","OBJECTID":371383},"geometry":{"x":169108.61000000127,"y":2543151.6700000037}},{"attributes":{"ID":371394,"DIS_CODE":0,"TOWNNAME":"安南區","LI":"溪頂里","LIN":"29鄰","STREET":"郡安路","SECT":"四段","MAREA":" ","LANE":"２５３巷","ALLEY":" ","HOUSE_NO":"６１號","E_COORD97":168704.85999999999,"N_COORD97":2547557.6600000001,"ADDRESS":"郡安路四段２５３巷６１號","OBJECTID":371384},"geometry":{"x":168704.86000000127,"y":2547557.660000002}},{"attributes":{"ID":371395,"DIS_CODE":0,"TOWNNAME":"中西區","LI":"開山里","LIN":"12鄰","STREET":"大同路","SECT":"一段","MAREA":" ","LANE":"４６巷","ALLEY":" ","HOUSE_NO":"４６號","E_COORD97":169080.82000000001,"N_COORD97":2543158.2400000002,"ADDRESS":"大同路一段４６巷４６號","OBJECTID":371385},"geometry":{"x":169080.8200000003,"y":2543158.2400000039}},{"attributes":{"ID":371396,"DIS_CODE":0,"TOWNNAME":"中西區","LI":"開山里","LIN":"12鄰","STREET":"大同路","SECT":"一段","MAREA":" ","LANE":"４６巷","ALLEY":" ","HOUSE_NO":"４８號","E_COORD97":169082.37,"N_COORD97":2543162.4399999999,"ADDRESS":"大同路一段４６巷４８號","OBJECTID":371386},"geometry":{"x":169082.37000000197,"y":2543162.4399999995}},{"attributes":{"ID":371397,"DIS_CODE":0,"TOWNNAME":"中西區","LI":"開山里","LIN":"12鄰","STREET":"大同路","SECT":"一段","MAREA":" ","LANE":"４６巷","ALLEY":" ","HOUSE_NO":"５０號","E_COORD97":169085.53,"N_COORD97":2543166.8399999999,"ADDRESS":"大同路一段４６巷５０號","OBJECTID":371387},"geometry":{"x":169085.53000000119,"y":2543166.8399999999}},{"attributes":{"ID":371398,"DIS_CODE":0,"TOWNNAME":"中西區","LI":"五妃里","LIN":"12鄰","STREET":"南門路","SECT":" ","MAREA":" ","LANE":"２０９巷","ALLEY":" ","HOUSE_NO":"１０號","E_COORD97":168493.89999999999,"N_COORD97":2542825.6400000001,"ADDRESS":"南門路２０９巷１０號","OBJECTID":371388},"geometry":{"x":168493.90000000037,"y":2542825.6400000006}},{"attributes":{"ID":371399,"DIS_CODE":0,"TOWNNAME":"中西區","LI":"五妃里","LIN":"12鄰","STREET":"南門路","SECT":" ","MAREA":" ","LANE":"２０９巷","ALLEY":" ","HOUSE_NO":"１４號","E_COORD97":168515.09,"N_COORD97":2542823.2200000002,"ADDRESS":"南門路２０９巷１４號","OBJECTID":371389},"geometry":{"x":168515.09000000078,"y":2542823.2200000044}},{"attributes":{"ID":371400,"DIS_CODE":0,"TOWNNAME":"中西區","LI":"五妃里","LIN":"12鄰","STREET":"南門路","SECT":" ","MAREA":" ","LANE":"２０９巷","ALLEY":" ","HOUSE_NO":"１６號","E_COORD97":168525.82000000001,"N_COORD97":2542821.6899999999,"ADDRESS":"南門路２０９巷１６號","OBJECTID":371390},"geometry":{"x":168525.82000000123,"y":2542821.6899999995}},{"attributes":{"ID":371401,"DIS_CODE":0,"TOWNNAME":"中西區","LI":"五妃里","LIN":"12鄰","STREET":"南門路","SECT":" ","MAREA":" ","LANE":"２０９巷","ALLEY":" ","HOUSE_NO":"１８號","E_COORD97":168528.88,"N_COORD97":2542820.54,"ADDRESS":"南門路２０９巷１８號","OBJECTID":371391},"geometry":{"x":168528.87999999989,"y":2542820.540000001}},{"attributes":{"ID":371402,"DIS_CODE":0,"TOWNNAME":"東區","LI":"大德里","LIN":"12鄰","STREET":"立德十路","SECT":" ","MAREA":" ","LANE":"６６巷","ALLEY":" ","HOUSE_NO":"１１號","E_COORD97":169565.69,"N_COORD97":2542013.5800000001,"ADDRESS":"立德十路６６巷１１號","OBJECTID":371392},"geometry":{"x":169565.69000000134,"y":2542013.5800000019}},{"attributes":{"ID":371403,"DIS_CODE":0,"TOWNNAME":"東區","LI":"大德里","LIN":"12鄰","STREET":"立德十路","SECT":" ","MAREA":" ","LANE":"６６巷","ALLEY":" ","HOUSE_NO":"９號","E_COORD97":169564.87,"N_COORD97":2542018.7000000002,"ADDRESS":"立德十路６６巷９號","OBJECTID":371393},"geometry":{"x":169564.87000000011,"y":2542018.7000000011}},{"attributes":{"ID":371404,"DIS_CODE":0,"TOWNNAME":"東區","LI":"大德里","LIN":"12鄰","STREET":"立德十路","SECT":" ","MAREA":" ","LANE":"６６巷","ALLEY":" ","HOUSE_NO":"１７號","E_COORD97":169568.97,"N_COORD97":2542003.7400000002,"ADDRESS":"立德十路６６巷１７號","OBJECTID":371394},"geometry":{"x":169568.96999999974,"y":2542003.7400000021}},{"attributes":{"ID":371405,"DIS_CODE":0,"TOWNNAME":"東區","LI":"大德里","LIN":"12鄰","STREET":"立德十路","SECT":" ","MAREA":" ","LANE":"６６巷","ALLEY":" ","HOUSE_NO":"１９號","E_COORD97":169570.20000000001,"N_COORD97":2542000.46,"ADDRESS":"立德十路６６巷１９號","OBJECTID":371395},"geometry":{"x":169570.20000000112,"y":2542000.4600000009}},{"attributes":{"ID":371406,"DIS_CODE":0,"TOWNNAME":"東區","LI":"新東里","LIN":"12鄰","STREET":"裕農路","SECT":" ","MAREA":" ","LANE":"１９巷","ALLEY":" ","HOUSE_NO":"１號","E_COORD97":170478.54999999999,"N_COORD97":2542850.7799999998,"ADDRESS":"裕農路１９巷１號","OBJECTID":371396},"geometry":{"x":170478.54999999981,"y":2542850.7799999993}},{"attributes":{"ID":371407,"DIS_CODE":0,"TOWNNAME":"東區","LI":"新東里","LIN":"12鄰","STREET":"裕農路","SECT":" ","MAREA":" ","LANE":"１９巷","ALLEY":" ","HOUSE_NO":"７號","E_COORD97":170475.87,"N_COORD97":2542864.0299999998,"ADDRESS":"裕農路１９巷７號","OBJECTID":371397},"geometry":{"x":170475.87000000104,"y":2542864.0300000031}},{"attributes":{"ID":371408,"DIS_CODE":0,"TOWNNAME":"東區","LI":"新東里","LIN":"12鄰","STREET":"裕農路","SECT":" ","MAREA":" ","LANE":"１９巷","ALLEY":" ","HOUSE_NO":"３號","E_COORD97":170477.51000000001,"N_COORD97":2542855.2400000002,"ADDRESS":"裕農路１９巷３號","OBJECTID":371398},"geometry":{"x":170477.50999999978,"y":2542855.2400000002}},{"attributes":{"ID":371409,"DIS_CODE":0,"TOWNNAME":"東區","LI":"大德里","LIN":"12鄰","STREET":"立德十路","SECT":" ","MAREA":" ","LANE":"６６巷","ALLEY":" ","HOUSE_NO":"５２號","E_COORD97":169550.04000000001,"N_COORD97":2542000.6699999999,"ADDRESS":"立德十路６６巷５２號","OBJECTID":371399},"geometry":{"x":169550.04000000004,"y":2542000.6699999999}},{"attributes":{"ID":371410,"DIS_CODE":0,"TOWNNAME":"東區","LI":"後甲里","LIN":"12鄰","STREET":"裕農路","SECT":" ","MAREA":" ","LANE":"６６１巷","ALLEY":" ","HOUSE_NO":"１０號","E_COORD97":171733.14999999999,"N_COORD97":2543271.3300000001,"ADDRESS":"裕農路６６１巷１０號","OBJECTID":371400},"geometry":{"x":171733.15000000037,"y":2543271.3300000001}}]}