{"displayFieldName":"TOWNNAME","fieldAliases":{"ID":"ID","DIS_CODE":"DIS_CODE","TOWNNAME":"TOWNNAME","LI":"LI","LIN":"LIN","STREET":"STREET","SECT":"SECT","MAREA":"MAREA","LANE":"LANE","ALLEY":"ALLEY","HOUSE_NO":"HOUSE_NO","E_COORD97":"E_COORD97","N_COORD97":"N_COORD97","ADDRESS":"ADDRESS","OBJECTID":"OBJECTID"},"geometryType":"esriGeometryPoint","spatialReference":{"wkid":102443,"latestWkid":3826},"fields":[{"name":"ID","type":"esriFieldTypeDouble","alias":"ID"},{"name":"DIS_CODE","type":"esriFieldTypeInteger","alias":"DIS_CODE"},{"name":"TOWNNAME","type":"esriFieldTypeString","alias":"TOWNNAME","length":8},{"name":"LI","type":"esriFieldTypeString","alias":"LI","length":8},{"name":"LIN","type":"esriFieldTypeString","alias":"LIN","length":12},{"name":"STREET","type":"esriFieldTypeString","alias":"STREET","length":20},{"name":"SECT","type":"esriFieldTypeString","alias":"SECT","length":8},{"name":"MAREA","type":"esriFieldTypeString","alias":"MAREA","length":12},{"name":"LANE","type":"esriFieldTypeString","alias":"LANE","length":10},{"name":"ALLEY","type":"esriFieldTypeString","alias":"ALLEY","length":10},{"name":"HOUSE_NO","type":"esriFieldTypeString","alias":"HOUSE_NO","length":20},{"name":"E_COORD97","type":"esriFieldTypeDouble","alias":"E_COORD97"},{"name":"N_COORD97","type":"esriFieldTypeDouble","alias":"N_COORD97"},{"name":"ADDRESS","type":"esriFieldTypeString","alias":"ADDRESS","length":50},{"name":"OBJECTID","type":"esriFieldTypeOID","alias":"OBJECTID"}],"features":[{"attributes":{"ID":442626,"DIS_CODE":0,"TOWNNAME":"佳里區","LI":"鎮山里","LIN":"5鄰","STREET":"自由街","SECT":" ","MAREA":" ","LANE":"４３巷","ALLEY":" ","HOUSE_NO":"２６號","E_COORD97":166016.39999999999,"N_COORD97":2561745.79,"ADDRESS":"自由街４３巷２６號","OBJECTID":442601},"geometry":{"x":166016.4000000013,"y":2561745.7899999991}},{"attributes":{"ID":442627,"DIS_CODE":0,"TOWNNAME":"佳里區","LI":"鎮山里","LIN":"5鄰","STREET":"自由街","SECT":" ","MAREA":" ","LANE":"４３巷","ALLEY":" ","HOUSE_NO":"２８號","E_COORD97":166017.13,"N_COORD97":2561741.8599999999,"ADDRESS":"自由街４３巷２８號","OBJECTID":442602},"geometry":{"x":166017.13000000175,"y":2561741.8599999994}},{"attributes":{"ID":442628,"DIS_CODE":0,"TOWNNAME":"佳里區","LI":"鎮山里","LIN":"5鄰","STREET":"自由街","SECT":" ","MAREA":" ","LANE":"４３巷","ALLEY":" ","HOUSE_NO":"２號","E_COORD97":166008.31,"N_COORD97":2561793.4500000002,"ADDRESS":"自由街４３巷２號","OBJECTID":442603},"geometry":{"x":166008.30999999959,"y":2561793.4500000011}},{"attributes":{"ID":442629,"DIS_CODE":0,"TOWNNAME":"佳里區","LI":"鎮山里","LIN":"5鄰","STREET":"自由街","SECT":" ","MAREA":" ","LANE":"４３巷","ALLEY":" ","HOUSE_NO":"３０號","E_COORD97":166017.81,"N_COORD97":2561737.9399999999,"ADDRESS":"自由街４３巷３０號","OBJECTID":442604},"geometry":{"x":166017.81000000052,"y":2561737.9399999995}},{"attributes":{"ID":442630,"DIS_CODE":0,"TOWNNAME":"佳里區","LI":"鎮山里","LIN":"5鄰","STREET":"自由街","SECT":" ","MAREA":" ","LANE":"４３巷","ALLEY":" ","HOUSE_NO":"３２號","E_COORD97":166018.56,"N_COORD97":2561733.1499999999,"ADDRESS":"自由街４３巷３２號","OBJECTID":442605},"geometry":{"x":166018.55999999959,"y":2561733.1500000022}},{"attributes":{"ID":442631,"DIS_CODE":0,"TOWNNAME":"佳里區","LI":"鎮山里","LIN":"5鄰","STREET":"自由街","SECT":" ","MAREA":" ","LANE":"４３巷","ALLEY":" ","HOUSE_NO":"３４號","E_COORD97":166019.44,"N_COORD97":2561727.9100000001,"ADDRESS":"自由街４３巷３４號","OBJECTID":442606},"geometry":{"x":166019.44000000134,"y":2561727.9100000001}},{"attributes":{"ID":442632,"DIS_CODE":0,"TOWNNAME":"佳里區","LI":"鎮山里","LIN":"5鄰","STREET":"自由街","SECT":" ","MAREA":" ","LANE":"４３巷","ALLEY":" ","HOUSE_NO":"３６號","E_COORD97":166018.67000000001,"N_COORD97":2561722.27,"ADDRESS":"自由街４３巷３６號","OBJECTID":442607},"geometry":{"x":166018.67000000086,"y":2561722.2699999996}},{"attributes":{"ID":442633,"DIS_CODE":0,"TOWNNAME":"佳里區","LI":"鎮山里","LIN":"5鄰","STREET":"自由街","SECT":" ","MAREA":" ","LANE":"４３巷","ALLEY":" ","HOUSE_NO":"３８號","E_COORD97":166019.34,"N_COORD97":2561717.8199999998,"ADDRESS":"自由街４３巷３８號","OBJECTID":442608},"geometry":{"x":166019.34000000078,"y":2561717.8200000022}},{"attributes":{"ID":442634,"DIS_CODE":0,"TOWNNAME":"佳里區","LI":"鎮山里","LIN":"5鄰","STREET":"自由街","SECT":" ","MAREA":" ","LANE":"４３巷","ALLEY":" ","HOUSE_NO":"４０號","E_COORD97":166020.09,"N_COORD97":2561713.3500000001,"ADDRESS":"自由街４３巷４０號","OBJECTID":442609},"geometry":{"x":166020.08999999985,"y":2561713.3500000015}},{"attributes":{"ID":442635,"DIS_CODE":0,"TOWNNAME":"佳里區","LI":"鎮山里","LIN":"5鄰","STREET":"自由街","SECT":" ","MAREA":" ","LANE":"４３巷","ALLEY":" ","HOUSE_NO":"４２號之１","E_COORD97":166021.25,"N_COORD97":2561704.3300000001,"ADDRESS":"自由街４３巷４２號之１","OBJECTID":442610},"geometry":{"x":166021.25,"y":2561704.3300000019}},{"attributes":{"ID":442636,"DIS_CODE":0,"TOWNNAME":"佳里區","LI":"鎮山里","LIN":"5鄰","STREET":"自由街","SECT":" ","MAREA":" ","LANE":"４３巷","ALLEY":" ","HOUSE_NO":"４２號","E_COORD97":166020.98999999999,"N_COORD97":2561708.8399999999,"ADDRESS":"自由街４３巷４２號","OBJECTID":442611},"geometry":{"x":166020.99000000022,"y":2561708.8399999999}},{"attributes":{"ID":442637,"DIS_CODE":0,"TOWNNAME":"白河區","LI":"庄內里","LIN":"5鄰","STREET":"自立街","SECT":" ","MAREA":" ","LANE":"１巷","ALLEY":" ","HOUSE_NO":"１０號","E_COORD97":190767.82000000001,"N_COORD97":2583474.6000000001,"ADDRESS":"自立街１巷１０號","OBJECTID":442612},"geometry":{"x":190767.82000000123,"y":2583474.6000000015}},{"attributes":{"ID":442638,"DIS_CODE":0,"TOWNNAME":"佳里區","LI":"鎮山里","LIN":"5鄰","STREET":"自由街","SECT":" ","MAREA":" ","LANE":"４３巷","ALLEY":" ","HOUSE_NO":"４６號","E_COORD97":166022.72,"N_COORD97":2561695.54,"ADDRESS":"自由街４３巷４６號","OBJECTID":442613},"geometry":{"x":166022.71999999974,"y":2561695.5399999991}},{"attributes":{"ID":442639,"DIS_CODE":0,"TOWNNAME":"佳里區","LI":"鎮山里","LIN":"5鄰","STREET":"自由街","SECT":" ","MAREA":" ","LANE":"４３巷","ALLEY":" ","HOUSE_NO":"４８號","E_COORD97":166013.42000000001,"N_COORD97":2561675.6099999999,"ADDRESS":"自由街４３巷４８號","OBJECTID":442614},"geometry":{"x":166013.42000000179,"y":2561675.6099999994}},{"attributes":{"ID":442640,"DIS_CODE":0,"TOWNNAME":"佳里區","LI":"鎮山里","LIN":"5鄰","STREET":"自由街","SECT":" ","MAREA":" ","LANE":"４３巷","ALLEY":" ","HOUSE_NO":"５０號","E_COORD97":166014.91,"N_COORD97":2561665.96,"ADDRESS":"自由街４３巷５０號","OBJECTID":442615},"geometry":{"x":166014.91000000015,"y":2561665.9600000028}},{"attributes":{"ID":442641,"DIS_CODE":0,"TOWNNAME":"佳里區","LI":"鎮山里","LIN":"5鄰","STREET":"自由街","SECT":" ","MAREA":" ","LANE":"４３巷","ALLEY":" ","HOUSE_NO":"６號","E_COORD97":166009.57999999999,"N_COORD97":2561785.75,"ADDRESS":"自由街４３巷６號","OBJECTID":442616},"geometry":{"x":166009.58000000101,"y":2561785.7500000019}},{"attributes":{"ID":442642,"DIS_CODE":0,"TOWNNAME":"安南區","LI":"佃東里","LIN":"5鄰","STREET":"十二佃路","SECT":" ","MAREA":" ","LANE":"２１６巷","ALLEY":" ","HOUSE_NO":"２號","E_COORD97":165350.09,"N_COORD97":2552154.2999999998,"ADDRESS":"十二佃路２１６巷２號","OBJECTID":442617},"geometry":{"x":165350.09000000078,"y":2552154.3000000026}},{"attributes":{"ID":442643,"DIS_CODE":0,"TOWNNAME":"安南區","LI":"佃東里","LIN":"5鄰","STREET":"十二佃路","SECT":" ","MAREA":" ","LANE":"２１６巷","ALLEY":" ","HOUSE_NO":"６號","E_COORD97":165350.09,"N_COORD97":2552163.8100000001,"ADDRESS":"十二佃路２１６巷６號","OBJECTID":442618},"geometry":{"x":165350.09000000078,"y":2552163.8100000024}},{"attributes":{"ID":442644,"DIS_CODE":0,"TOWNNAME":"安南區","LI":"南興里","LIN":"5鄰","STREET":"安興街","SECT":" ","MAREA":" ","LANE":"３８０巷","ALLEY":" ","HOUSE_NO":"３１號","E_COORD97":163806.32999999999,"N_COORD97":2552438.3300000001,"ADDRESS":"安興街３８０巷３１號","OBJECTID":442619},"geometry":{"x":163806.33000000007,"y":2552438.3300000019}},{"attributes":{"ID":442645,"DIS_CODE":0,"TOWNNAME":"安南區","LI":"安西里","LIN":"5鄰","STREET":"慈安路","SECT":" ","MAREA":" ","LANE":"２１５巷","ALLEY":" ","HOUSE_NO":"７號","E_COORD97":168520.35375800001,"N_COORD97":2548047.58427,"ADDRESS":"慈安路２１５巷７號","OBJECTID":442620},"geometry":{"x":168520.35375800077,"y":2548047.5842700005}},{"attributes":{"ID":442646,"DIS_CODE":0,"TOWNNAME":"安南區","LI":"溪心里","LIN":"5鄰","STREET":"本原街","SECT":"二段","MAREA":" ","LANE":"１１５巷","ALLEY":" ","HOUSE_NO":"３９號","E_COORD97":166507.95999999999,"N_COORD97":2550428.9700000002,"ADDRESS":"本原街二段１１５巷３９號","OBJECTID":442621},"geometry":{"x":166507.95999999996,"y":2550428.9700000007}},{"attributes":{"ID":442647,"DIS_CODE":0,"TOWNNAME":"安南區","LI":"新順里","LIN":"5鄰","STREET":"安豐六街","SECT":" ","MAREA":" ","LANE":"１０巷","ALLEY":" ","HOUSE_NO":"２６號","E_COORD97":169268.20999999999,"N_COORD97":2549576.21,"ADDRESS":"安豐六街１０巷２６號","OBJECTID":442622},"geometry":{"x":169268.21000000089,"y":2549576.2100000009}},{"attributes":{"ID":442648,"DIS_CODE":0,"TOWNNAME":"安南區","LI":"新順里","LIN":"5鄰","STREET":"安豐六街","SECT":" ","MAREA":" ","LANE":"１０巷","ALLEY":" ","HOUSE_NO":"２２號","E_COORD97":169268.54000000001,"N_COORD97":2549581.46,"ADDRESS":"安豐六街１０巷２２號","OBJECTID":442623},"geometry":{"x":169268.54000000004,"y":2549581.4600000009}},{"attributes":{"ID":442649,"DIS_CODE":0,"TOWNNAME":"官田區","LI":"隆田里","LIN":"5鄰","STREET":"中山路","SECT":"一段","MAREA":" ","LANE":"５５巷","ALLEY":" ","HOUSE_NO":"１０號","E_COORD97":180128.78,"N_COORD97":2565754.73,"ADDRESS":"中山路一段５５巷１０號","OBJECTID":442624},"geometry":{"x":180128.77999999933,"y":2565754.7300000004}},{"attributes":{"ID":442650,"DIS_CODE":0,"TOWNNAME":"官田區","LI":"隆田里","LIN":"5鄰","STREET":"中山路","SECT":"一段","MAREA":" ","LANE":"５５巷","ALLEY":" ","HOUSE_NO":"１１號","E_COORD97":180160.54000000001,"N_COORD97":2565742.9700000002,"ADDRESS":"中山路一段５５巷１１號","OBJECTID":442625},"geometry":{"x":180160.54000000004,"y":2565742.9700000007}},{"attributes":{"ID":442651,"DIS_CODE":0,"TOWNNAME":"官田區","LI":"隆田里","LIN":"5鄰","STREET":"中山路","SECT":"一段","MAREA":" ","LANE":"５５巷","ALLEY":" ","HOUSE_NO":"１２號","E_COORD97":180129.22,"N_COORD97":2565758.5299999998,"ADDRESS":"中山路一段５５巷１２號","OBJECTID":442626},"geometry":{"x":180129.22000000067,"y":2565758.5299999993}},{"attributes":{"ID":442652,"DIS_CODE":0,"TOWNNAME":"官田區","LI":"隆田里","LIN":"5鄰","STREET":"中山路","SECT":"一段","MAREA":" ","LANE":"５５巷","ALLEY":" ","HOUSE_NO":"１３號","E_COORD97":180160.16,"N_COORD97":2565739.23,"ADDRESS":"中山路一段５５巷１３號","OBJECTID":442627},"geometry":{"x":180160.16000000201,"y":2565739.2300000023}},{"attributes":{"ID":442653,"DIS_CODE":0,"TOWNNAME":"官田區","LI":"隆田里","LIN":"5鄰","STREET":"中山路","SECT":"一段","MAREA":" ","LANE":"５５巷","ALLEY":" ","HOUSE_NO":"１５號","E_COORD97":180160.20000000001,"N_COORD97":2565735.1600000001,"ADDRESS":"中山路一段５５巷１５號","OBJECTID":442628},"geometry":{"x":180160.20000000112,"y":2565735.1599999983}},{"attributes":{"ID":442654,"DIS_CODE":0,"TOWNNAME":"官田區","LI":"隆田里","LIN":"5鄰","STREET":"中山路","SECT":"一段","MAREA":" ","LANE":"５５巷","ALLEY":" ","HOUSE_NO":"１７號","E_COORD97":180160.73999999999,"N_COORD97":2565730.6000000001,"ADDRESS":"中山路一段５５巷１７號","OBJECTID":442629},"geometry":{"x":180160.74000000022,"y":2565730.5999999996}},{"attributes":{"ID":442655,"DIS_CODE":0,"TOWNNAME":"官田區","LI":"隆田里","LIN":"5鄰","STREET":"中山路","SECT":"一段","MAREA":" ","LANE":"５５巷","ALLEY":" ","HOUSE_NO":"１號","E_COORD97":180160.48999999999,"N_COORD97":2565762.4399999999,"ADDRESS":"中山路一段５５巷１號","OBJECTID":442630},"geometry":{"x":180160.49000000022,"y":2565762.4399999995}},{"attributes":{"ID":442656,"DIS_CODE":0,"TOWNNAME":"官田區","LI":"隆田里","LIN":"5鄰","STREET":"中山路","SECT":"一段","MAREA":" ","LANE":"５５巷","ALLEY":" ","HOUSE_NO":"２１號","E_COORD97":180166.09,"N_COORD97":2565722.4100000001,"ADDRESS":"中山路一段５５巷２１號","OBJECTID":442631},"geometry":{"x":180166.09000000078,"y":2565722.4100000001}},{"attributes":{"ID":442657,"DIS_CODE":0,"TOWNNAME":"官田區","LI":"隆田里","LIN":"5鄰","STREET":"中山路","SECT":"一段","MAREA":" ","LANE":"５５巷","ALLEY":" ","HOUSE_NO":"２３號","E_COORD97":180161.72,"N_COORD97":2565722.1000000001,"ADDRESS":"中山路一段５５巷２３號","OBJECTID":442632},"geometry":{"x":180161.72000000067,"y":2565722.1000000015}},{"attributes":{"ID":442658,"DIS_CODE":0,"TOWNNAME":"官田區","LI":"隆田里","LIN":"5鄰","STREET":"中山路","SECT":"一段","MAREA":" ","LANE":"５５巷","ALLEY":" ","HOUSE_NO":"２５號","E_COORD97":180157.23000000001,"N_COORD97":2565722.5099999998,"ADDRESS":"中山路一段５５巷２５號","OBJECTID":442633},"geometry":{"x":180157.23000000138,"y":2565722.5100000035}},{"attributes":{"ID":442659,"DIS_CODE":0,"TOWNNAME":"官田區","LI":"隆田里","LIN":"5鄰","STREET":"中山路","SECT":"一段","MAREA":" ","LANE":"５５巷","ALLEY":" ","HOUSE_NO":"２７號","E_COORD97":180152.76999999999,"N_COORD97":2565722.9300000002,"ADDRESS":"中山路一段５５巷２７號","OBJECTID":442634},"geometry":{"x":180152.76999999955,"y":2565722.9300000034}},{"attributes":{"ID":442660,"DIS_CODE":0,"TOWNNAME":"官田區","LI":"隆田里","LIN":"5鄰","STREET":"中山路","SECT":"一段","MAREA":" ","LANE":"５５巷","ALLEY":" ","HOUSE_NO":"２９號","E_COORD97":180148.57999999999,"N_COORD97":2565723.1899999999,"ADDRESS":"中山路一段５５巷２９號","OBJECTID":442635},"geometry":{"x":180148.57999999914,"y":2565723.1899999995}},{"attributes":{"ID":442661,"DIS_CODE":0,"TOWNNAME":"官田區","LI":"隆田里","LIN":"5鄰","STREET":"中山路","SECT":"一段","MAREA":" ","LANE":"５５巷","ALLEY":" ","HOUSE_NO":"３１號","E_COORD97":180144.32000000001,"N_COORD97":2565723.5800000001,"ADDRESS":"中山路一段５５巷３１號","OBJECTID":442636},"geometry":{"x":180144.32000000123,"y":2565723.5800000019}},{"attributes":{"ID":442662,"DIS_CODE":0,"TOWNNAME":"官田區","LI":"隆田里","LIN":"5鄰","STREET":"中山路","SECT":"一段","MAREA":" ","LANE":"５５巷","ALLEY":" ","HOUSE_NO":"３３號之１","E_COORD97":180140.26000000001,"N_COORD97":2565723.3799999999,"ADDRESS":"中山路一段５５巷３３號之１","OBJECTID":442637},"geometry":{"x":180140.25999999885,"y":2565723.3800000008}},{"attributes":{"ID":442663,"DIS_CODE":0,"TOWNNAME":"官田區","LI":"隆田里","LIN":"5鄰","STREET":"中山路","SECT":"一段","MAREA":" ","LANE":"５５巷","ALLEY":" ","HOUSE_NO":"３３號","E_COORD97":180136.48000000001,"N_COORD97":2565723.8100000001,"ADDRESS":"中山路一段５５巷３３號","OBJECTID":442638},"geometry":{"x":180136.48000000138,"y":2565723.8100000005}},{"attributes":{"ID":442664,"DIS_CODE":0,"TOWNNAME":"官田區","LI":"隆田里","LIN":"5鄰","STREET":"中山路","SECT":"一段","MAREA":" ","LANE":"５５巷","ALLEY":" ","HOUSE_NO":"３５號","E_COORD97":180133.01000000001,"N_COORD97":2565723.6000000001,"ADDRESS":"中山路一段５５巷３５號","OBJECTID":442639},"geometry":{"x":180133.00999999978,"y":2565723.5999999996}},{"attributes":{"ID":442665,"DIS_CODE":0,"TOWNNAME":"官田區","LI":"隆田里","LIN":"5鄰","STREET":"中山路","SECT":"一段","MAREA":" ","LANE":"５５巷","ALLEY":" ","HOUSE_NO":"３７號","E_COORD97":180128.14000000001,"N_COORD97":2565723.5699999998,"ADDRESS":"中山路一段５５巷３７號","OBJECTID":442640},"geometry":{"x":180128.1400000006,"y":2565723.5700000022}},{"attributes":{"ID":442666,"DIS_CODE":0,"TOWNNAME":"關廟區","LI":"五甲里","LIN":"14鄰","STREET":"光復街","SECT":" ","MAREA":" ","LANE":"７巷","ALLEY":" ","HOUSE_NO":"１６號","E_COORD97":181390.39000000001,"N_COORD97":2539223.2799999998,"ADDRESS":"光復街７巷１６號","OBJECTID":442641},"geometry":{"x":181390.39000000153,"y":2539223.2799999993}},{"attributes":{"ID":442667,"DIS_CODE":0,"TOWNNAME":"官田區","LI":"隆田里","LIN":"5鄰","STREET":"中山路","SECT":"一段","MAREA":" ","LANE":"５５巷","ALLEY":" ","HOUSE_NO":"３號","E_COORD97":180160.59,"N_COORD97":2565758.3599999999,"ADDRESS":"中山路一段５５巷３號","OBJECTID":442642},"geometry":{"x":180160.59000000078,"y":2565758.3600000013}},{"attributes":{"ID":442668,"DIS_CODE":0,"TOWNNAME":"官田區","LI":"隆田里","LIN":"5鄰","STREET":"中山路","SECT":"一段","MAREA":" ","LANE":"５５巷","ALLEY":" ","HOUSE_NO":"４號","E_COORD97":180128.89999999999,"N_COORD97":2565743.1899999999,"ADDRESS":"中山路一段５５巷４號","OBJECTID":442643},"geometry":{"x":180128.9000000013,"y":2565743.1899999995}},{"attributes":{"ID":442669,"DIS_CODE":0,"TOWNNAME":"官田區","LI":"隆田里","LIN":"5鄰","STREET":"中山路","SECT":"一段","MAREA":" ","LANE":"５５巷","ALLEY":" ","HOUSE_NO":"５號","E_COORD97":180160.44,"N_COORD97":2565754.6499999999,"ADDRESS":"中山路一段５５巷５號","OBJECTID":442644},"geometry":{"x":180160.44000000134,"y":2565754.6500000004}},{"attributes":{"ID":442670,"DIS_CODE":0,"TOWNNAME":"官田區","LI":"隆田里","LIN":"5鄰","STREET":"中山路","SECT":"一段","MAREA":" ","LANE":"５５巷","ALLEY":" ","HOUSE_NO":"６號","E_COORD97":180129.09,"N_COORD97":2565747.3399999999,"ADDRESS":"中山路一段５５巷６號","OBJECTID":442645},"geometry":{"x":180129.08999999985,"y":2565747.3400000036}},{"attributes":{"ID":442671,"DIS_CODE":0,"TOWNNAME":"官田區","LI":"隆田里","LIN":"5鄰","STREET":"中山路","SECT":"一段","MAREA":" ","LANE":"５５巷","ALLEY":" ","HOUSE_NO":"７號","E_COORD97":180160.51999999999,"N_COORD97":2565750.8799999999,"ADDRESS":"中山路一段５５巷７號","OBJECTID":442646},"geometry":{"x":180160.52000000142,"y":2565750.8800000008}},{"attributes":{"ID":442672,"DIS_CODE":0,"TOWNNAME":"官田區","LI":"隆田里","LIN":"5鄰","STREET":"中山路","SECT":"一段","MAREA":" ","LANE":"５５巷","ALLEY":" ","HOUSE_NO":"８號","E_COORD97":180129.13,"N_COORD97":2565750.7400000002,"ADDRESS":"中山路一段５５巷８號","OBJECTID":442647},"geometry":{"x":180129.12999999989,"y":2565750.7400000002}},{"attributes":{"ID":442673,"DIS_CODE":0,"TOWNNAME":"官田區","LI":"隆田里","LIN":"5鄰","STREET":"中山路","SECT":"一段","MAREA":" ","LANE":"５５巷","ALLEY":" ","HOUSE_NO":"９號","E_COORD97":180160.28,"N_COORD97":2565747.0699999998,"ADDRESS":"中山路一段５５巷９號","OBJECTID":442648},"geometry":{"x":180160.28000000026,"y":2565747.0700000022}},{"attributes":{"ID":442674,"DIS_CODE":0,"TOWNNAME":"玉井區","LI":"望明里","LIN":"7鄰","STREET":" ","SECT":" ","MAREA":"望明","LANE":" ","ALLEY":" ","HOUSE_NO":"８１號之２","E_COORD97":194367.89356500001,"N_COORD97":2556192.5353700002,"ADDRESS":"望明８１號之２","OBJECTID":442649},"geometry":{"x":194367.89356500097,"y":2556192.5353730004}},{"attributes":{"ID":442675,"DIS_CODE":0,"TOWNNAME":"中西區","LI":"大南里","LIN":"5鄰","STREET":"健康路","SECT":"一段","MAREA":" ","LANE":"３２８巷","ALLEY":" ","HOUSE_NO":"２６號","E_COORD97":168224.79999999999,"N_COORD97":2542552.4300000002,"ADDRESS":"健康路一段３２８巷２６號","OBJECTID":442650},"geometry":{"x":168224.80000000075,"y":2542552.4299999997}},{"attributes":{"ID":442676,"DIS_CODE":0,"TOWNNAME":"中西區","LI":"公正里","LIN":"5鄰","STREET":"北門路","SECT":"一段","MAREA":" ","LANE":"１２３巷","ALLEY":" ","HOUSE_NO":"２７號","E_COORD97":169072.19,"N_COORD97":2543924.8199999998,"ADDRESS":"北門路一段１２３巷２７號","OBJECTID":442651},"geometry":{"x":169072.19000000134,"y":2543924.8200000022}},{"attributes":{"ID":442677,"DIS_CODE":0,"TOWNNAME":"安南區","LI":"安西里","LIN":"5鄰","STREET":"慈安路","SECT":" ","MAREA":" ","LANE":"２１５巷","ALLEY":" ","HOUSE_NO":"３號","E_COORD97":168518.65755199999,"N_COORD97":2548056.6859300002,"ADDRESS":"慈安路２１５巷３號","OBJECTID":442652},"geometry":{"x":168518.65755200014,"y":2548056.6859310009}},{"attributes":{"ID":442678,"DIS_CODE":0,"TOWNNAME":"安南區","LI":"安西里","LIN":"5鄰","STREET":"慈安路","SECT":" ","MAREA":" ","LANE":"２１５巷","ALLEY":" ","HOUSE_NO":"５號","E_COORD97":168519.50565499999,"N_COORD97":2548052.0292699998,"ADDRESS":"慈安路２１５巷５號","OBJECTID":442653},"geometry":{"x":168519.50565500092,"y":2548052.029267}},{"attributes":{"ID":442679,"DIS_CODE":0,"TOWNNAME":"安南區","LI":"安西里","LIN":"5鄰","STREET":"慈安路","SECT":" ","MAREA":" ","LANE":"２１５巷","ALLEY":" ","HOUSE_NO":"２號","E_COORD97":168501.48347100001,"N_COORD97":2548060.2842600001,"ADDRESS":"慈安路２１５巷２號","OBJECTID":442654},"geometry":{"x":168501.48347099964,"y":2548060.2842630036}},{"attributes":{"ID":442680,"DIS_CODE":0,"TOWNNAME":"安南區","LI":"安西里","LIN":"5鄰","STREET":"慈安路","SECT":" ","MAREA":" ","LANE":"２１５巷","ALLEY":" ","HOUSE_NO":"６號","E_COORD97":168500.63536799999,"N_COORD97":2548056.0509299999,"ADDRESS":"慈安路２１５巷６號","OBJECTID":442655},"geometry":{"x":168500.63536800072,"y":2548056.0509320013}},{"attributes":{"ID":442681,"DIS_CODE":0,"TOWNNAME":"安南區","LI":"安西里","LIN":"5鄰","STREET":"慈安路","SECT":" ","MAREA":" ","LANE":"２１５巷","ALLEY":" ","HOUSE_NO":"８號","E_COORD97":168499.99929099999,"N_COORD97":2548051.8176000002,"ADDRESS":"慈安路２１５巷８號","OBJECTID":442656},"geometry":{"x":168499.99929100182,"y":2548051.817600999}},{"attributes":{"ID":442682,"DIS_CODE":0,"TOWNNAME":"安南區","LI":"安西里","LIN":"5鄰","STREET":"慈安路","SECT":" ","MAREA":" ","LANE":"２１５巷","ALLEY":" ","HOUSE_NO":"１０號","E_COORD97":168498.939163,"N_COORD97":2548047.3725999999,"ADDRESS":"慈安路２１５巷１０號","OBJECTID":442657},"geometry":{"x":168498.93916300125,"y":2548047.3726029992}},{"attributes":{"ID":442683,"DIS_CODE":0,"TOWNNAME":"安南區","LI":"安西里","LIN":"5鄰","STREET":"安通一街","SECT":" ","MAREA":" ","LANE":"１１６巷","ALLEY":" ","HOUSE_NO":"２０號","E_COORD97":168859.82729300001,"N_COORD97":2548076.1694399999,"ADDRESS":"安通一街１１６巷２０號","OBJECTID":442658},"geometry":{"x":168859.82729300112,"y":2548076.169439001}},{"attributes":{"ID":442684,"DIS_CODE":0,"TOWNNAME":"安南區","LI":"安西里","LIN":"5鄰","STREET":"安通一街","SECT":" ","MAREA":" ","LANE":"１１６巷","ALLEY":" ","HOUSE_NO":"１８號","E_COORD97":168855.60718299999,"N_COORD97":2548074.6674000002,"ADDRESS":"安通一街１１６巷１８號","OBJECTID":442659},"geometry":{"x":168855.60718300007,"y":2548074.6674029995}},{"attributes":{"ID":442685,"DIS_CODE":0,"TOWNNAME":"安南區","LI":"安西里","LIN":"5鄰","STREET":"安通一街","SECT":" ","MAREA":" ","LANE":"１１６巷","ALLEY":" ","HOUSE_NO":"２２號","E_COORD97":168864.915909,"N_COORD97":2548076.8044400001,"ADDRESS":"安通一街１１６巷２２號","OBJECTID":442660},"geometry":{"x":168864.9159090016,"y":2548076.8044390008}},{"attributes":{"ID":442686,"DIS_CODE":0,"TOWNNAME":"安南區","LI":"安西里","LIN":"5鄰","STREET":"安通一街","SECT":" ","MAREA":" ","LANE":"１１６巷","ALLEY":" ","HOUSE_NO":"１６號","E_COORD97":168850.094515,"N_COORD97":2548073.8207399999,"ADDRESS":"安通一街１１６巷１６號","OBJECTID":442661},"geometry":{"x":168850.09451499954,"y":2548073.8207370024}},{"attributes":{"ID":442687,"DIS_CODE":0,"TOWNNAME":"安南區","LI":"安西里","LIN":"5鄰","STREET":"安通一街","SECT":" ","MAREA":" ","LANE":"１１６巷","ALLEY":" ","HOUSE_NO":"１２號","E_COORD97":168845.00589900001,"N_COORD97":2548073.8207399999,"ADDRESS":"安通一街１１６巷１２號","OBJECTID":442662},"geometry":{"x":168845.00589899998,"y":2548073.8207370024}},{"attributes":{"ID":442688,"DIS_CODE":0,"TOWNNAME":"安南區","LI":"安西里","LIN":"5鄰","STREET":"安通一街","SECT":" ","MAREA":" ","LANE":"１１６巷","ALLEY":" ","HOUSE_NO":"１０號","E_COORD97":168840.532955,"N_COORD97":2548072.7827699999,"ADDRESS":"安通一街１１６巷１０號","OBJECTID":442663},"geometry":{"x":168840.53295500111,"y":2548072.7827740014}},{"attributes":{"ID":442689,"DIS_CODE":0,"TOWNNAME":"安南區","LI":"州南里","LIN":"5鄰","STREET":"安和路","SECT":"四段","MAREA":" ","LANE":"５３７巷","ALLEY":" ","HOUSE_NO":"６０號","E_COORD97":169857.26999999999,"N_COORD97":2551415.29,"ADDRESS":"安和路四段５３７巷６０號","OBJECTID":442664},"geometry":{"x":169857.27000000048,"y":2551415.2899999991}},{"attributes":{"ID":442690,"DIS_CODE":0,"TOWNNAME":"安南區","LI":"州南里","LIN":"5鄰","STREET":"安和路","SECT":"四段","MAREA":" ","LANE":"５３７巷","ALLEY":" ","HOUSE_NO":"７４號","E_COORD97":169840.75,"N_COORD97":2551443.2599999998,"ADDRESS":"安和路四段５３７巷７４號","OBJECTID":442665},"geometry":{"x":169840.75000000186,"y":2551443.2599999998}},{"attributes":{"ID":442691,"DIS_CODE":0,"TOWNNAME":"安南區","LI":"州南里","LIN":"5鄰","STREET":"安和路","SECT":"四段","MAREA":" ","LANE":"５３７巷","ALLEY":" ","HOUSE_NO":"７６號","E_COORD97":169844.70999999999,"N_COORD97":2551447.0699999998,"ADDRESS":"安和路四段５３７巷７６號","OBJECTID":442666},"geometry":{"x":169844.71000000089,"y":2551447.0700000022}},{"attributes":{"ID":442692,"DIS_CODE":0,"TOWNNAME":"安南區","LI":"州南里","LIN":"5鄰","STREET":"安和路","SECT":"四段","MAREA":" ","LANE":"５３７巷","ALLEY":" ","HOUSE_NO":"７８號","E_COORD97":169848.79999999999,"N_COORD97":2551451.2999999998,"ADDRESS":"安和路四段５３７巷７８號","OBJECTID":442667},"geometry":{"x":169848.80000000075,"y":2551451.3000000045}},{"attributes":{"ID":442693,"DIS_CODE":0,"TOWNNAME":"安南區","LI":"州南里","LIN":"5鄰","STREET":"安和路","SECT":"四段","MAREA":" ","LANE":"５３７巷","ALLEY":" ","HOUSE_NO":"８２號","E_COORD97":169836.51999999999,"N_COORD97":2551463.8599999999,"ADDRESS":"安和路四段５３７巷８２號","OBJECTID":442668},"geometry":{"x":169836.51999999955,"y":2551463.8600000013}},{"attributes":{"ID":442694,"DIS_CODE":0,"TOWNNAME":"安南區","LI":"州南里","LIN":"5鄰","STREET":"安和路","SECT":"四段","MAREA":" ","LANE":"５３７巷","ALLEY":" ","HOUSE_NO":"８４號","E_COORD97":169833.26999999999,"N_COORD97":2551460.3300000001,"ADDRESS":"安和路四段５３７巷８４號","OBJECTID":442669},"geometry":{"x":169833.27000000142,"y":2551460.3299999982}},{"attributes":{"ID":442695,"DIS_CODE":0,"TOWNNAME":"安南區","LI":"州南里","LIN":"5鄰","STREET":"安和路","SECT":"四段","MAREA":" ","LANE":"５３７巷","ALLEY":" ","HOUSE_NO":"８６號","E_COORD97":169829.17999999999,"N_COORD97":2551457.0899999999,"ADDRESS":"安和路四段５３７巷８６號","OBJECTID":442670},"geometry":{"x":169829.18000000063,"y":2551457.0899999999}},{"attributes":{"ID":442696,"DIS_CODE":0,"TOWNNAME":"安南區","LI":"州南里","LIN":"5鄰","STREET":"安和路","SECT":"四段","MAREA":" ","LANE":"５３７巷","ALLEY":" ","HOUSE_NO":"８８號","E_COORD97":169825.32000000001,"N_COORD97":2551447.8199999998,"ADDRESS":"安和路四段５３７巷８８號","OBJECTID":442671},"geometry":{"x":169825.32000000216,"y":2551447.8200000022}},{"attributes":{"ID":442697,"DIS_CODE":0,"TOWNNAME":"安南區","LI":"州南里","LIN":"5鄰","STREET":"安和路","SECT":"四段","MAREA":" ","LANE":"５３７巷","ALLEY":" ","HOUSE_NO":"９０號","E_COORD97":169822.20000000001,"N_COORD97":2551450.7599999998,"ADDRESS":"安和路四段５３７巷９０號","OBJECTID":442672},"geometry":{"x":169822.20000000019,"y":2551450.7600000035}},{"attributes":{"ID":442698,"DIS_CODE":0,"TOWNNAME":"安南區","LI":"州南里","LIN":"5鄰","STREET":"安和路","SECT":"四段","MAREA":" ","LANE":"５３７巷","ALLEY":" ","HOUSE_NO":"９２號","E_COORD97":169819.60999999999,"N_COORD97":2551454.04,"ADDRESS":"安和路四段５３７巷９２號","OBJECTID":442673},"geometry":{"x":169819.61000000034,"y":2551454.0399999991}},{"attributes":{"ID":442699,"DIS_CODE":0,"TOWNNAME":"安南區","LI":"城西里","LIN":"5鄰","STREET":"城西街","SECT":"三段","MAREA":" ","LANE":"５０１巷","ALLEY":" ","HOUSE_NO":"２２之１號","E_COORD97":157134.82000000001,"N_COORD97":2550787.1899999999,"ADDRESS":"城西街三段５０１巷２２之１號","OBJECTID":442674},"geometry":{"x":157134.8200000003,"y":2550787.1900000013}},{"attributes":{"ID":442700,"DIS_CODE":0,"TOWNNAME":"安南區","LI":"安順里","LIN":"5鄰","STREET":"安和路","SECT":"四段","MAREA":" ","LANE":"７５巷","ALLEY":" ","HOUSE_NO":"２６號","E_COORD97":169890.62,"N_COORD97":2550222.0299999998,"ADDRESS":"安和路四段７５巷２６號","OBJECTID":442675},"geometry":{"x":169890.62000000011,"y":2550222.0300000012}},{"attributes":{"ID":442701,"DIS_CODE":0,"TOWNNAME":"麻豆區","LI":"保安里","LIN":"5鄰","STREET":"興中路","SECT":" ","MAREA":" ","LANE":"５５巷","ALLEY":" ","HOUSE_NO":"２號","E_COORD97":173207.416382,"N_COORD97":2564867.4361299998,"ADDRESS":"興中路５５巷２號","OBJECTID":442676},"geometry":{"x":173207.41638199985,"y":2564867.4361339994}},{"attributes":{"ID":442702,"DIS_CODE":0,"TOWNNAME":"白河區","LI":"庄內里","LIN":"5鄰","STREET":"光華路","SECT":" ","MAREA":" ","LANE":"８４巷","ALLEY":" ","HOUSE_NO":"２之１號","E_COORD97":190733.95999999999,"N_COORD97":2583504.4100000001,"ADDRESS":"光華路８４巷２之１號","OBJECTID":442677},"geometry":{"x":190733.95999999996,"y":2583504.4100000001}},{"attributes":{"ID":442703,"DIS_CODE":0,"TOWNNAME":"白河區","LI":"庄內里","LIN":"5鄰","STREET":"自立街","SECT":" ","MAREA":" ","LANE":"１巷","ALLEY":" ","HOUSE_NO":"１２號","E_COORD97":190778.85999999999,"N_COORD97":2583474.0499999998,"ADDRESS":"自立街１巷１２號","OBJECTID":442678},"geometry":{"x":190778.86000000034,"y":2583474.0500000007}},{"attributes":{"ID":442704,"DIS_CODE":0,"TOWNNAME":"白河區","LI":"庄內里","LIN":"5鄰","STREET":"自立街","SECT":" ","MAREA":" ","LANE":"１巷","ALLEY":" ","HOUSE_NO":"１３號","E_COORD97":190786.29000000001,"N_COORD97":2583473.2200000002,"ADDRESS":"自立街１巷１３號","OBJECTID":442679},"geometry":{"x":190786.2900000019,"y":2583473.2200000007}},{"attributes":{"ID":442705,"DIS_CODE":0,"TOWNNAME":"白河區","LI":"庄內里","LIN":"5鄰","STREET":"自立街","SECT":" ","MAREA":" ","LANE":"１巷","ALLEY":" ","HOUSE_NO":"２號","E_COORD97":190779.35000000001,"N_COORD97":2583454.7599999998,"ADDRESS":"自立街１巷２號","OBJECTID":442680},"geometry":{"x":190779.35000000056,"y":2583454.7599999998}},{"attributes":{"ID":442706,"DIS_CODE":0,"TOWNNAME":"玉井區","LI":"望明里","LIN":"7鄰","STREET":" ","SECT":" ","MAREA":"望明","LANE":" ","ALLEY":" ","HOUSE_NO":"８１號之３","E_COORD97":194371.282958,"N_COORD97":2556200.3670399999,"ADDRESS":"望明８１號之３","OBJECTID":442681},"geometry":{"x":194371.28295799997,"y":2556200.3670350015}},{"attributes":{"ID":442707,"DIS_CODE":0,"TOWNNAME":"白河區","LI":"庄內里","LIN":"5鄰","STREET":"自立街","SECT":" ","MAREA":" ","LANE":"１巷","ALLEY":" ","HOUSE_NO":"３號","E_COORD97":190774.31,"N_COORD97":2583455.7999999998,"ADDRESS":"自立街１巷３號","OBJECTID":442682},"geometry":{"x":190774.31000000052,"y":2583455.8000000007}},{"attributes":{"ID":442708,"DIS_CODE":0,"TOWNNAME":"白河區","LI":"庄內里","LIN":"5鄰","STREET":"自立街","SECT":" ","MAREA":" ","LANE":"１巷","ALLEY":" ","HOUSE_NO":"４號","E_COORD97":190769.85000000001,"N_COORD97":2583456.71,"ADDRESS":"自立街１巷４號","OBJECTID":442683},"geometry":{"x":190769.84999999963,"y":2583456.7100000009}},{"attributes":{"ID":442709,"DIS_CODE":0,"TOWNNAME":"白河區","LI":"庄內里","LIN":"5鄰","STREET":"自立街","SECT":" ","MAREA":" ","LANE":"１巷","ALLEY":" ","HOUSE_NO":"５號","E_COORD97":190765.07999999999,"N_COORD97":2583457.2999999998,"ADDRESS":"自立街１巷５號","OBJECTID":442684},"geometry":{"x":190765.08000000007,"y":2583457.3000000026}},{"attributes":{"ID":442710,"DIS_CODE":0,"TOWNNAME":"白河區","LI":"庄內里","LIN":"5鄰","STREET":"自立街","SECT":" ","MAREA":" ","LANE":"１巷","ALLEY":" ","HOUSE_NO":"７號","E_COORD97":190748.45000000001,"N_COORD97":2583450.6400000001,"ADDRESS":"自立街１巷７號","OBJECTID":442685},"geometry":{"x":190748.45000000112,"y":2583450.6400000043}},{"attributes":{"ID":442711,"DIS_CODE":0,"TOWNNAME":"白河區","LI":"庄內里","LIN":"5鄰","STREET":"自立街","SECT":" ","MAREA":" ","LANE":"１巷","ALLEY":" ","HOUSE_NO":"８號","E_COORD97":190759,"N_COORD97":2583474.6499999999,"ADDRESS":"自立街１巷８號","OBJECTID":442686},"geometry":{"x":190759,"y":2583474.6500000022}},{"attributes":{"ID":442712,"DIS_CODE":0,"TOWNNAME":"白河區","LI":"庄內里","LIN":"5鄰","STREET":"自立街","SECT":" ","MAREA":" ","LANE":"１巷","ALLEY":" ","HOUSE_NO":"９號","E_COORD97":190763.19,"N_COORD97":2583474.4300000002,"ADDRESS":"自立街１巷９號","OBJECTID":442687},"geometry":{"x":190763.19000000041,"y":2583474.4299999997}},{"attributes":{"ID":442713,"DIS_CODE":0,"TOWNNAME":"永康區","LI":"北灣里","LIN":"5鄰","STREET":"信義街","SECT":" ","MAREA":" ","LANE":"１２９巷","ALLEY":" ","HOUSE_NO":"１４號","E_COORD97":175182.20000000001,"N_COORD97":2545565.98,"ADDRESS":"信義街１２９巷１４號","OBJECTID":442688},"geometry":{"x":175182.20000000019,"y":2545565.9800000004}},{"attributes":{"ID":442714,"DIS_CODE":0,"TOWNNAME":"歸仁區","LI":"文化里","LIN":"5鄰","STREET":"民權一街","SECT":" ","MAREA":" ","LANE":"３８巷","ALLEY":" ","HOUSE_NO":"１號四樓之２","E_COORD97":177297.57000000001,"N_COORD97":2541326.2599999998,"ADDRESS":"民權一街３８巷１號四樓之２","OBJECTID":442689},"geometry":{"x":177297.56999999937,"y":2541326.2599999998}},{"attributes":{"ID":442715,"DIS_CODE":0,"TOWNNAME":"安平區","LI":"平通里","LIN":"5鄰","STREET":"健康三街","SECT":" ","MAREA":" ","LANE":"５９２巷","ALLEY":" ","HOUSE_NO":"５５號七樓之４","E_COORD97":164996.92999999999,"N_COORD97":2544199.8500000001,"ADDRESS":"健康三街５９２巷５５號七樓之４","OBJECTID":442690},"geometry":{"x":164996.9299999997,"y":2544199.8499999996}},{"attributes":{"ID":442716,"DIS_CODE":0,"TOWNNAME":"安平區","LI":"平通里","LIN":"5鄰","STREET":"健康三街","SECT":" ","MAREA":" ","LANE":"５９２巷","ALLEY":" ","HOUSE_NO":"５５號七樓之５","E_COORD97":164996.92999999999,"N_COORD97":2544199.8500000001,"ADDRESS":"健康三街５９２巷５５號七樓之５","OBJECTID":442691},"geometry":{"x":164996.9299999997,"y":2544199.8499999996}},{"attributes":{"ID":442717,"DIS_CODE":0,"TOWNNAME":"安平區","LI":"平通里","LIN":"5鄰","STREET":"健康三街","SECT":" ","MAREA":" ","LANE":"５９２巷","ALLEY":" ","HOUSE_NO":"５５號七樓之６","E_COORD97":164996.92999999999,"N_COORD97":2544199.8500000001,"ADDRESS":"健康三街５９２巷５５號七樓之６","OBJECTID":442692},"geometry":{"x":164996.9299999997,"y":2544199.8499999996}},{"attributes":{"ID":442718,"DIS_CODE":0,"TOWNNAME":"安平區","LI":"平通里","LIN":"5鄰","STREET":"健康三街","SECT":" ","MAREA":" ","LANE":"５９２巷","ALLEY":" ","HOUSE_NO":"５５號七樓之７","E_COORD97":164996.92999999999,"N_COORD97":2544199.8500000001,"ADDRESS":"健康三街５９２巷５５號七樓之７","OBJECTID":442693},"geometry":{"x":164996.9299999997,"y":2544199.8499999996}},{"attributes":{"ID":442719,"DIS_CODE":0,"TOWNNAME":"安平區","LI":"平通里","LIN":"5鄰","STREET":"健康三街","SECT":" ","MAREA":" ","LANE":"５９２巷","ALLEY":" ","HOUSE_NO":"５５號七樓之８","E_COORD97":164996.92999999999,"N_COORD97":2544199.8500000001,"ADDRESS":"健康三街５９２巷５５號七樓之８","OBJECTID":442694},"geometry":{"x":164996.9299999997,"y":2544199.8499999996}},{"attributes":{"ID":442720,"DIS_CODE":0,"TOWNNAME":"安平區","LI":"平通里","LIN":"5鄰","STREET":"健康三街","SECT":" ","MAREA":" ","LANE":"５９２巷","ALLEY":" ","HOUSE_NO":"５５號七樓之９","E_COORD97":164996.92999999999,"N_COORD97":2544199.8500000001,"ADDRESS":"健康三街５９２巷５５號七樓之９","OBJECTID":442695},"geometry":{"x":164996.9299999997,"y":2544199.8499999996}},{"attributes":{"ID":442721,"DIS_CODE":0,"TOWNNAME":"安平區","LI":"平通里","LIN":"5鄰","STREET":"健康三街","SECT":" ","MAREA":" ","LANE":"５９２巷","ALLEY":" ","HOUSE_NO":"５５號九樓之４","E_COORD97":164996.92999999999,"N_COORD97":2544199.8500000001,"ADDRESS":"健康三街５９２巷５５號九樓之４","OBJECTID":442696},"geometry":{"x":164996.9299999997,"y":2544199.8499999996}},{"attributes":{"ID":442722,"DIS_CODE":0,"TOWNNAME":"安平區","LI":"平通里","LIN":"5鄰","STREET":"健康三街","SECT":" ","MAREA":" ","LANE":"５９２巷","ALLEY":" ","HOUSE_NO":"５５號九樓之５","E_COORD97":164996.92999999999,"N_COORD97":2544199.8500000001,"ADDRESS":"健康三街５９２巷５５號九樓之５","OBJECTID":442697},"geometry":{"x":164996.9299999997,"y":2544199.8499999996}},{"attributes":{"ID":442723,"DIS_CODE":0,"TOWNNAME":"安平區","LI":"平通里","LIN":"5鄰","STREET":"健康三街","SECT":" ","MAREA":" ","LANE":"５９２巷","ALLEY":" ","HOUSE_NO":"５５號九樓之６","E_COORD97":164996.92999999999,"N_COORD97":2544199.8500000001,"ADDRESS":"健康三街５９２巷５５號九樓之６","OBJECTID":442698},"geometry":{"x":164996.9299999997,"y":2544199.8499999996}},{"attributes":{"ID":442724,"DIS_CODE":0,"TOWNNAME":"安平區","LI":"平通里","LIN":"5鄰","STREET":"健康三街","SECT":" ","MAREA":" ","LANE":"５９２巷","ALLEY":" ","HOUSE_NO":"５５號九樓之７","E_COORD97":164996.92999999999,"N_COORD97":2544199.8500000001,"ADDRESS":"健康三街５９２巷５５號九樓之７","OBJECTID":442699},"geometry":{"x":164996.9299999997,"y":2544199.8499999996}},{"attributes":{"ID":442725,"DIS_CODE":0,"TOWNNAME":"安平區","LI":"平通里","LIN":"5鄰","STREET":"健康三街","SECT":" ","MAREA":" ","LANE":"５９２巷","ALLEY":" ","HOUSE_NO":"５５號九樓之８","E_COORD97":164996.92999999999,"N_COORD97":2544199.8500000001,"ADDRESS":"健康三街５９２巷５５號九樓之８","OBJECTID":442700},"geometry":{"x":164996.9299999997,"y":2544199.8499999996}},{"attributes":{"ID":442726,"DIS_CODE":0,"TOWNNAME":"安平區","LI":"平通里","LIN":"5鄰","STREET":"健康三街","SECT":" ","MAREA":" ","LANE":"５９２巷","ALLEY":" ","HOUSE_NO":"５５號九樓之９","E_COORD97":164996.92999999999,"N_COORD97":2544199.8500000001,"ADDRESS":"健康三街５９２巷５５號九樓之９","OBJECTID":442701},"geometry":{"x":164996.9299999997,"y":2544199.8499999996}},{"attributes":{"ID":442727,"DIS_CODE":0,"TOWNNAME":"安平區","LI":"平通里","LIN":"5鄰","STREET":"健康三街","SECT":" ","MAREA":" ","LANE":"５９２巷","ALLEY":" ","HOUSE_NO":"５５號二十一樓之４","E_COORD97":164996.92999999999,"N_COORD97":2544199.8500000001,"ADDRESS":"健康三街５９２巷５５號二十一樓之４","OBJECTID":442702},"geometry":{"x":164996.9299999997,"y":2544199.8499999996}},{"attributes":{"ID":442728,"DIS_CODE":0,"TOWNNAME":"安平區","LI":"平通里","LIN":"5鄰","STREET":"健康三街","SECT":" ","MAREA":" ","LANE":"５９２巷","ALLEY":" ","HOUSE_NO":"５５號二十一樓之５","E_COORD97":164996.92999999999,"N_COORD97":2544199.8500000001,"ADDRESS":"健康三街５９２巷５５號二十一樓之５","OBJECTID":442703},"geometry":{"x":164996.9299999997,"y":2544199.8499999996}},{"attributes":{"ID":442729,"DIS_CODE":0,"TOWNNAME":"安平區","LI":"平通里","LIN":"5鄰","STREET":"健康三街","SECT":" ","MAREA":" ","LANE":"５９２巷","ALLEY":" ","HOUSE_NO":"５５號二十一樓之６","E_COORD97":164996.92999999999,"N_COORD97":2544199.8500000001,"ADDRESS":"健康三街５９２巷５５號二十一樓之６","OBJECTID":442704},"geometry":{"x":164996.9299999997,"y":2544199.8499999996}},{"attributes":{"ID":442730,"DIS_CODE":0,"TOWNNAME":"關廟區","LI":"五甲里","LIN":"14鄰","STREET":"光復街","SECT":" ","MAREA":" ","LANE":"７巷","ALLEY":" ","HOUSE_NO":"１１號","E_COORD97":181380.79000000001,"N_COORD97":2539202.2799999998,"ADDRESS":"光復街７巷１１號","OBJECTID":442705},"geometry":{"x":181380.79000000004,"y":2539202.2799999993}},{"attributes":{"ID":442731,"DIS_CODE":0,"TOWNNAME":"安平區","LI":"平通里","LIN":"5鄰","STREET":"健康三街","SECT":" ","MAREA":" ","LANE":"５９２巷","ALLEY":" ","HOUSE_NO":"５５號二十一樓之７","E_COORD97":164996.92999999999,"N_COORD97":2544199.8500000001,"ADDRESS":"健康三街５９２巷５５號二十一樓之７","OBJECTID":442706},"geometry":{"x":164996.9299999997,"y":2544199.8499999996}},{"attributes":{"ID":442732,"DIS_CODE":0,"TOWNNAME":"安平區","LI":"平通里","LIN":"5鄰","STREET":"健康三街","SECT":" ","MAREA":" ","LANE":"５９２巷","ALLEY":" ","HOUSE_NO":"５５號二十一樓之８","E_COORD97":164996.92999999999,"N_COORD97":2544199.8500000001,"ADDRESS":"健康三街５９２巷５５號二十一樓之８","OBJECTID":442707},"geometry":{"x":164996.9299999997,"y":2544199.8499999996}},{"attributes":{"ID":442733,"DIS_CODE":0,"TOWNNAME":"安平區","LI":"平通里","LIN":"5鄰","STREET":"健康三街","SECT":" ","MAREA":" ","LANE":"５９２巷","ALLEY":" ","HOUSE_NO":"５５號二十一樓之９","E_COORD97":164996.92999999999,"N_COORD97":2544199.8500000001,"ADDRESS":"健康三街５９２巷５５號二十一樓之９","OBJECTID":442708},"geometry":{"x":164996.9299999997,"y":2544199.8499999996}},{"attributes":{"ID":442734,"DIS_CODE":0,"TOWNNAME":"安平區","LI":"平通里","LIN":"5鄰","STREET":"健康三街","SECT":" ","MAREA":" ","LANE":"５９２巷","ALLEY":" ","HOUSE_NO":"５５號二十二樓之４","E_COORD97":164996.92999999999,"N_COORD97":2544199.8500000001,"ADDRESS":"健康三街５９２巷５５號二十二樓之４","OBJECTID":442709},"geometry":{"x":164996.9299999997,"y":2544199.8499999996}},{"attributes":{"ID":442735,"DIS_CODE":0,"TOWNNAME":"安平區","LI":"平通里","LIN":"5鄰","STREET":"健康三街","SECT":" ","MAREA":" ","LANE":"５９２巷","ALLEY":" ","HOUSE_NO":"５５號二十二樓之５","E_COORD97":164996.92999999999,"N_COORD97":2544199.8500000001,"ADDRESS":"健康三街５９２巷５５號二十二樓之５","OBJECTID":442710},"geometry":{"x":164996.9299999997,"y":2544199.8499999996}},{"attributes":{"ID":442736,"DIS_CODE":0,"TOWNNAME":"中西區","LI":"藥王里","LIN":"5鄰","STREET":"大福街","SECT":" ","MAREA":" ","LANE":"３巷","ALLEY":" ","HOUSE_NO":"２６號","E_COORD97":167239.64000000001,"N_COORD97":2544362.3999999999,"ADDRESS":"大福街３巷２６號","OBJECTID":442711},"geometry":{"x":167239.6400000006,"y":2544362.4000000022}},{"attributes":{"ID":442737,"DIS_CODE":0,"TOWNNAME":"安平區","LI":"平通里","LIN":"5鄰","STREET":"健康三街","SECT":" ","MAREA":" ","LANE":"５９２巷","ALLEY":" ","HOUSE_NO":"５５號二十二樓之６","E_COORD97":164996.92999999999,"N_COORD97":2544199.8500000001,"ADDRESS":"健康三街５９２巷５５號二十二樓之６","OBJECTID":442712},"geometry":{"x":164996.9299999997,"y":2544199.8499999996}},{"attributes":{"ID":442738,"DIS_CODE":0,"TOWNNAME":"安平區","LI":"平通里","LIN":"5鄰","STREET":"健康三街","SECT":" ","MAREA":" ","LANE":"５９２巷","ALLEY":" ","HOUSE_NO":"５５號二十二樓之７","E_COORD97":164996.92999999999,"N_COORD97":2544199.8500000001,"ADDRESS":"健康三街５９２巷５５號二十二樓之７","OBJECTID":442713},"geometry":{"x":164996.9299999997,"y":2544199.8499999996}},{"attributes":{"ID":442739,"DIS_CODE":0,"TOWNNAME":"安平區","LI":"平通里","LIN":"5鄰","STREET":"健康三街","SECT":" ","MAREA":" ","LANE":"５９２巷","ALLEY":" ","HOUSE_NO":"５５號二十二樓之８","E_COORD97":164996.92999999999,"N_COORD97":2544199.8500000001,"ADDRESS":"健康三街５９２巷５５號二十二樓之８","OBJECTID":442714},"geometry":{"x":164996.9299999997,"y":2544199.8499999996}},{"attributes":{"ID":442740,"DIS_CODE":0,"TOWNNAME":"安平區","LI":"平通里","LIN":"5鄰","STREET":"健康三街","SECT":" ","MAREA":" ","LANE":"５９２巷","ALLEY":" ","HOUSE_NO":"５５號二十二樓之９","E_COORD97":164996.92999999999,"N_COORD97":2544199.8500000001,"ADDRESS":"健康三街５９２巷５５號二十二樓之９","OBJECTID":442715},"geometry":{"x":164996.9299999997,"y":2544199.8499999996}},{"attributes":{"ID":442741,"DIS_CODE":0,"TOWNNAME":"安平區","LI":"平通里","LIN":"5鄰","STREET":"健康三街","SECT":" ","MAREA":" ","LANE":"５９２巷","ALLEY":" ","HOUSE_NO":"５５號二十三樓之４","E_COORD97":164996.92999999999,"N_COORD97":2544199.8500000001,"ADDRESS":"健康三街５９２巷５５號二十三樓之４","OBJECTID":442716},"geometry":{"x":164996.9299999997,"y":2544199.8499999996}},{"attributes":{"ID":442742,"DIS_CODE":0,"TOWNNAME":"安平區","LI":"平通里","LIN":"5鄰","STREET":"健康三街","SECT":" ","MAREA":" ","LANE":"５９２巷","ALLEY":" ","HOUSE_NO":"５５號二十三樓之５","E_COORD97":164996.92999999999,"N_COORD97":2544199.8500000001,"ADDRESS":"健康三街５９２巷５５號二十三樓之５","OBJECTID":442717},"geometry":{"x":164996.9299999997,"y":2544199.8499999996}},{"attributes":{"ID":442743,"DIS_CODE":0,"TOWNNAME":"安平區","LI":"平通里","LIN":"5鄰","STREET":"健康三街","SECT":" ","MAREA":" ","LANE":"５９２巷","ALLEY":" ","HOUSE_NO":"５５號二十三樓之６","E_COORD97":164996.92999999999,"N_COORD97":2544199.8500000001,"ADDRESS":"健康三街５９２巷５５號二十三樓之６","OBJECTID":442718},"geometry":{"x":164996.9299999997,"y":2544199.8499999996}},{"attributes":{"ID":442744,"DIS_CODE":0,"TOWNNAME":"安平區","LI":"平通里","LIN":"5鄰","STREET":"健康三街","SECT":" ","MAREA":" ","LANE":"５９２巷","ALLEY":" ","HOUSE_NO":"５５號二十三樓之７","E_COORD97":164996.92999999999,"N_COORD97":2544199.8500000001,"ADDRESS":"健康三街５９２巷５５號二十三樓之７","OBJECTID":442719},"geometry":{"x":164996.9299999997,"y":2544199.8499999996}},{"attributes":{"ID":442745,"DIS_CODE":0,"TOWNNAME":"安平區","LI":"平通里","LIN":"5鄰","STREET":"健康三街","SECT":" ","MAREA":" ","LANE":"５９２巷","ALLEY":" ","HOUSE_NO":"５５號二十三樓之８","E_COORD97":164996.92999999999,"N_COORD97":2544199.8500000001,"ADDRESS":"健康三街５９２巷５５號二十三樓之８","OBJECTID":442720},"geometry":{"x":164996.9299999997,"y":2544199.8499999996}},{"attributes":{"ID":442746,"DIS_CODE":0,"TOWNNAME":"安平區","LI":"平通里","LIN":"5鄰","STREET":"健康三街","SECT":" ","MAREA":" ","LANE":"５９２巷","ALLEY":" ","HOUSE_NO":"５５號二十三樓之９","E_COORD97":164996.92999999999,"N_COORD97":2544199.8500000001,"ADDRESS":"健康三街５９２巷５５號二十三樓之９","OBJECTID":442721},"geometry":{"x":164996.9299999997,"y":2544199.8499999996}},{"attributes":{"ID":442747,"DIS_CODE":0,"TOWNNAME":"安平區","LI":"平通里","LIN":"5鄰","STREET":"健康三街","SECT":" ","MAREA":" ","LANE":"５９２巷","ALLEY":" ","HOUSE_NO":"５５號二十四樓之４","E_COORD97":164996.92999999999,"N_COORD97":2544199.8500000001,"ADDRESS":"健康三街５９２巷５５號二十四樓之４","OBJECTID":442722},"geometry":{"x":164996.9299999997,"y":2544199.8499999996}},{"attributes":{"ID":442748,"DIS_CODE":0,"TOWNNAME":"安平區","LI":"平通里","LIN":"5鄰","STREET":"健康三街","SECT":" ","MAREA":" ","LANE":"５９２巷","ALLEY":" ","HOUSE_NO":"５５號二十四樓之５","E_COORD97":164996.92999999999,"N_COORD97":2544199.8500000001,"ADDRESS":"健康三街５９２巷５５號二十四樓之５","OBJECTID":442723},"geometry":{"x":164996.9299999997,"y":2544199.8499999996}},{"attributes":{"ID":442749,"DIS_CODE":0,"TOWNNAME":"安平區","LI":"平通里","LIN":"5鄰","STREET":"健康三街","SECT":" ","MAREA":" ","LANE":"５９２巷","ALLEY":" ","HOUSE_NO":"５５號二十四樓之６","E_COORD97":164996.92999999999,"N_COORD97":2544199.8500000001,"ADDRESS":"健康三街５９２巷５５號二十四樓之６","OBJECTID":442724},"geometry":{"x":164996.9299999997,"y":2544199.8499999996}},{"attributes":{"ID":442750,"DIS_CODE":0,"TOWNNAME":"安平區","LI":"平通里","LIN":"5鄰","STREET":"健康三街","SECT":" ","MAREA":" ","LANE":"５９２巷","ALLEY":" ","HOUSE_NO":"５５號二十四樓之７","E_COORD97":164996.92999999999,"N_COORD97":2544199.8500000001,"ADDRESS":"健康三街５９２巷５５號二十四樓之７","OBJECTID":442725},"geometry":{"x":164996.9299999997,"y":2544199.8499999996}},{"attributes":{"ID":442751,"DIS_CODE":0,"TOWNNAME":"安平區","LI":"平通里","LIN":"5鄰","STREET":"健康三街","SECT":" ","MAREA":" ","LANE":"５９２巷","ALLEY":" ","HOUSE_NO":"５５號二十四樓之８","E_COORD97":164996.92999999999,"N_COORD97":2544199.8500000001,"ADDRESS":"健康三街５９２巷５５號二十四樓之８","OBJECTID":442726},"geometry":{"x":164996.9299999997,"y":2544199.8499999996}},{"attributes":{"ID":442752,"DIS_CODE":0,"TOWNNAME":"安平區","LI":"平通里","LIN":"5鄰","STREET":"健康三街","SECT":" ","MAREA":" ","LANE":"５９２巷","ALLEY":" ","HOUSE_NO":"５５號二十四樓之９","E_COORD97":164996.92999999999,"N_COORD97":2544199.8500000001,"ADDRESS":"健康三街５９２巷５５號二十四樓之９","OBJECTID":442727},"geometry":{"x":164996.9299999997,"y":2544199.8499999996}},{"attributes":{"ID":442753,"DIS_CODE":0,"TOWNNAME":"安平區","LI":"平通里","LIN":"5鄰","STREET":"健康三街","SECT":" ","MAREA":" ","LANE":"５９２巷","ALLEY":" ","HOUSE_NO":"５５號二十樓之４","E_COORD97":164996.92999999999,"N_COORD97":2544199.8500000001,"ADDRESS":"健康三街５９２巷５５號二十樓之４","OBJECTID":442728},"geometry":{"x":164996.9299999997,"y":2544199.8499999996}},{"attributes":{"ID":442754,"DIS_CODE":0,"TOWNNAME":"安平區","LI":"平通里","LIN":"5鄰","STREET":"健康三街","SECT":" ","MAREA":" ","LANE":"５９２巷","ALLEY":" ","HOUSE_NO":"５５號二十樓之５","E_COORD97":164996.92999999999,"N_COORD97":2544199.8500000001,"ADDRESS":"健康三街５９２巷５５號二十樓之５","OBJECTID":442729},"geometry":{"x":164996.9299999997,"y":2544199.8499999996}},{"attributes":{"ID":442755,"DIS_CODE":0,"TOWNNAME":"安平區","LI":"平通里","LIN":"5鄰","STREET":"健康三街","SECT":" ","MAREA":" ","LANE":"５９２巷","ALLEY":" ","HOUSE_NO":"５５號二十樓之６","E_COORD97":164996.92999999999,"N_COORD97":2544199.8500000001,"ADDRESS":"健康三街５９２巷５５號二十樓之６","OBJECTID":442730},"geometry":{"x":164996.9299999997,"y":2544199.8499999996}},{"attributes":{"ID":442756,"DIS_CODE":0,"TOWNNAME":"安平區","LI":"平通里","LIN":"5鄰","STREET":"健康三街","SECT":" ","MAREA":" ","LANE":"５９２巷","ALLEY":" ","HOUSE_NO":"５５號二十樓之７","E_COORD97":164996.92999999999,"N_COORD97":2544199.8500000001,"ADDRESS":"健康三街５９２巷５５號二十樓之７","OBJECTID":442731},"geometry":{"x":164996.9299999997,"y":2544199.8499999996}},{"attributes":{"ID":442757,"DIS_CODE":0,"TOWNNAME":"安南區","LI":"布袋里","LIN":"1鄰","STREET":"工明南一路","SECT":" ","MAREA":" ","LANE":" ","ALLEY":" ","HOUSE_NO":"６５號","E_COORD97":168821.12,"N_COORD97":2551084.8599999999,"ADDRESS":"工明南一路６５號","OBJECTID":442732},"geometry":{"x":168821.12000000197,"y":2551084.8600000013}},{"attributes":{"ID":442758,"DIS_CODE":0,"TOWNNAME":"安平區","LI":"平通里","LIN":"5鄰","STREET":"健康三街","SECT":" ","MAREA":" ","LANE":"５９２巷","ALLEY":" ","HOUSE_NO":"５５號二十樓之８","E_COORD97":164996.92999999999,"N_COORD97":2544199.8500000001,"ADDRESS":"健康三街５９２巷５５號二十樓之８","OBJECTID":442733},"geometry":{"x":164996.9299999997,"y":2544199.8499999996}},{"attributes":{"ID":442759,"DIS_CODE":0,"TOWNNAME":"安平區","LI":"平通里","LIN":"5鄰","STREET":"健康三街","SECT":" ","MAREA":" ","LANE":"５９２巷","ALLEY":" ","HOUSE_NO":"５５號二十樓之９","E_COORD97":164996.92999999999,"N_COORD97":2544199.8500000001,"ADDRESS":"健康三街５９２巷５５號二十樓之９","OBJECTID":442734},"geometry":{"x":164996.9299999997,"y":2544199.8499999996}},{"attributes":{"ID":442760,"DIS_CODE":0,"TOWNNAME":"安平區","LI":"平通里","LIN":"5鄰","STREET":"健康三街","SECT":" ","MAREA":" ","LANE":"５９２巷","ALLEY":" ","HOUSE_NO":"５５號八樓之４","E_COORD97":164996.92999999999,"N_COORD97":2544199.8500000001,"ADDRESS":"健康三街５９２巷５５號八樓之４","OBJECTID":442735},"geometry":{"x":164996.9299999997,"y":2544199.8499999996}},{"attributes":{"ID":442761,"DIS_CODE":0,"TOWNNAME":"安平區","LI":"平通里","LIN":"5鄰","STREET":"健康三街","SECT":" ","MAREA":" ","LANE":"５９２巷","ALLEY":" ","HOUSE_NO":"５５號八樓之５","E_COORD97":164996.92999999999,"N_COORD97":2544199.8500000001,"ADDRESS":"健康三街５９２巷５５號八樓之５","OBJECTID":442736},"geometry":{"x":164996.9299999997,"y":2544199.8499999996}},{"attributes":{"ID":442762,"DIS_CODE":0,"TOWNNAME":"安平區","LI":"平通里","LIN":"5鄰","STREET":"健康三街","SECT":" ","MAREA":" ","LANE":"５９２巷","ALLEY":" ","HOUSE_NO":"５５號八樓之６","E_COORD97":164996.92999999999,"N_COORD97":2544199.8500000001,"ADDRESS":"健康三街５９２巷５５號八樓之６","OBJECTID":442737},"geometry":{"x":164996.9299999997,"y":2544199.8499999996}},{"attributes":{"ID":442763,"DIS_CODE":0,"TOWNNAME":"永康區","LI":"埔園里","LIN":"5鄰","STREET":"中山路","SECT":" ","MAREA":" ","LANE":"１５８巷","ALLEY":" ","HOUSE_NO":"３２號六樓","E_COORD97":173887.98000000001,"N_COORD97":2547839.25,"ADDRESS":"中山路１５８巷３２號六樓","OBJECTID":442738},"geometry":{"x":173887.98000000138,"y":2547839.25}},{"attributes":{"ID":442764,"DIS_CODE":0,"TOWNNAME":"安平區","LI":"平通里","LIN":"5鄰","STREET":"健康三街","SECT":" ","MAREA":" ","LANE":"５９２巷","ALLEY":" ","HOUSE_NO":"５５號八樓之７","E_COORD97":164996.92999999999,"N_COORD97":2544199.8500000001,"ADDRESS":"健康三街５９２巷５５號八樓之７","OBJECTID":442739},"geometry":{"x":164996.9299999997,"y":2544199.8499999996}},{"attributes":{"ID":442765,"DIS_CODE":0,"TOWNNAME":"安平區","LI":"平通里","LIN":"5鄰","STREET":"健康三街","SECT":" ","MAREA":" ","LANE":"５９２巷","ALLEY":" ","HOUSE_NO":"５５號八樓之８","E_COORD97":164996.92999999999,"N_COORD97":2544199.8500000001,"ADDRESS":"健康三街５９２巷５５號八樓之８","OBJECTID":442740},"geometry":{"x":164996.9299999997,"y":2544199.8499999996}},{"attributes":{"ID":442766,"DIS_CODE":0,"TOWNNAME":"安平區","LI":"平通里","LIN":"5鄰","STREET":"健康三街","SECT":" ","MAREA":" ","LANE":"５９２巷","ALLEY":" ","HOUSE_NO":"５５號八樓之９","E_COORD97":164996.92999999999,"N_COORD97":2544199.8500000001,"ADDRESS":"健康三街５９２巷５５號八樓之９","OBJECTID":442741},"geometry":{"x":164996.9299999997,"y":2544199.8499999996}},{"attributes":{"ID":442767,"DIS_CODE":0,"TOWNNAME":"安平區","LI":"平通里","LIN":"5鄰","STREET":"健康三街","SECT":" ","MAREA":" ","LANE":"５９２巷","ALLEY":" ","HOUSE_NO":"５５號十一樓之４","E_COORD97":164996.92999999999,"N_COORD97":2544199.8500000001,"ADDRESS":"健康三街５９２巷５５號十一樓之４","OBJECTID":442742},"geometry":{"x":164996.9299999997,"y":2544199.8499999996}},{"attributes":{"ID":442768,"DIS_CODE":0,"TOWNNAME":"安平區","LI":"平通里","LIN":"5鄰","STREET":"健康三街","SECT":" ","MAREA":" ","LANE":"５９２巷","ALLEY":" ","HOUSE_NO":"５５號十一樓之５","E_COORD97":164996.92999999999,"N_COORD97":2544199.8500000001,"ADDRESS":"健康三街５９２巷５５號十一樓之５","OBJECTID":442743},"geometry":{"x":164996.9299999997,"y":2544199.8499999996}},{"attributes":{"ID":442769,"DIS_CODE":0,"TOWNNAME":"安平區","LI":"平通里","LIN":"5鄰","STREET":"健康三街","SECT":" ","MAREA":" ","LANE":"５９２巷","ALLEY":" ","HOUSE_NO":"５５號十一樓之６","E_COORD97":164996.92999999999,"N_COORD97":2544199.8500000001,"ADDRESS":"健康三街５９２巷５５號十一樓之６","OBJECTID":442744},"geometry":{"x":164996.9299999997,"y":2544199.8499999996}},{"attributes":{"ID":442770,"DIS_CODE":0,"TOWNNAME":"安平區","LI":"平通里","LIN":"5鄰","STREET":"健康三街","SECT":" ","MAREA":" ","LANE":"５９２巷","ALLEY":" ","HOUSE_NO":"５５號十一樓之７","E_COORD97":164996.92999999999,"N_COORD97":2544199.8500000001,"ADDRESS":"健康三街５９２巷５５號十一樓之７","OBJECTID":442745},"geometry":{"x":164996.9299999997,"y":2544199.8499999996}},{"attributes":{"ID":442771,"DIS_CODE":0,"TOWNNAME":"安平區","LI":"平通里","LIN":"5鄰","STREET":"健康三街","SECT":" ","MAREA":" ","LANE":"５９２巷","ALLEY":" ","HOUSE_NO":"５５號十一樓之８","E_COORD97":164996.92999999999,"N_COORD97":2544199.8500000001,"ADDRESS":"健康三街５９２巷５５號十一樓之８","OBJECTID":442746},"geometry":{"x":164996.9299999997,"y":2544199.8499999996}},{"attributes":{"ID":442772,"DIS_CODE":0,"TOWNNAME":"安平區","LI":"平通里","LIN":"5鄰","STREET":"健康三街","SECT":" ","MAREA":" ","LANE":"５９２巷","ALLEY":" ","HOUSE_NO":"５５號十一樓之９","E_COORD97":164996.92999999999,"N_COORD97":2544199.8500000001,"ADDRESS":"健康三街５９２巷５５號十一樓之９","OBJECTID":442747},"geometry":{"x":164996.9299999997,"y":2544199.8499999996}},{"attributes":{"ID":442773,"DIS_CODE":0,"TOWNNAME":"安平區","LI":"平通里","LIN":"5鄰","STREET":"健康三街","SECT":" ","MAREA":" ","LANE":"５９２巷","ALLEY":" ","HOUSE_NO":"５５號十七樓之４","E_COORD97":164996.92999999999,"N_COORD97":2544199.8500000001,"ADDRESS":"健康三街５９２巷５５號十七樓之４","OBJECTID":442748},"geometry":{"x":164996.9299999997,"y":2544199.8499999996}},{"attributes":{"ID":442774,"DIS_CODE":0,"TOWNNAME":"安平區","LI":"平通里","LIN":"5鄰","STREET":"健康三街","SECT":" ","MAREA":" ","LANE":"５９２巷","ALLEY":" ","HOUSE_NO":"５５號十七樓之５","E_COORD97":164996.92999999999,"N_COORD97":2544199.8500000001,"ADDRESS":"健康三街５９２巷５５號十七樓之５","OBJECTID":442749},"geometry":{"x":164996.9299999997,"y":2544199.8499999996}},{"attributes":{"ID":442775,"DIS_CODE":0,"TOWNNAME":"安平區","LI":"平通里","LIN":"5鄰","STREET":"健康三街","SECT":" ","MAREA":" ","LANE":"５９２巷","ALLEY":" ","HOUSE_NO":"５５號十七樓之６","E_COORD97":164996.92999999999,"N_COORD97":2544199.8500000001,"ADDRESS":"健康三街５９２巷５５號十七樓之６","OBJECTID":442750},"geometry":{"x":164996.9299999997,"y":2544199.8499999996}},{"attributes":{"ID":442776,"DIS_CODE":0,"TOWNNAME":"安平區","LI":"平通里","LIN":"5鄰","STREET":"健康三街","SECT":" ","MAREA":" ","LANE":"５９２巷","ALLEY":" ","HOUSE_NO":"５５號十七樓之７","E_COORD97":164996.92999999999,"N_COORD97":2544199.8500000001,"ADDRESS":"健康三街５９２巷５５號十七樓之７","OBJECTID":442751},"geometry":{"x":164996.9299999997,"y":2544199.8499999996}},{"attributes":{"ID":442777,"DIS_CODE":0,"TOWNNAME":"安平區","LI":"平通里","LIN":"5鄰","STREET":"健康三街","SECT":" ","MAREA":" ","LANE":"５９２巷","ALLEY":" ","HOUSE_NO":"５５號十七樓之８","E_COORD97":164996.92999999999,"N_COORD97":2544199.8500000001,"ADDRESS":"健康三街５９２巷５５號十七樓之８","OBJECTID":442752},"geometry":{"x":164996.9299999997,"y":2544199.8499999996}},{"attributes":{"ID":442778,"DIS_CODE":0,"TOWNNAME":"安平區","LI":"平通里","LIN":"5鄰","STREET":"健康三街","SECT":" ","MAREA":" ","LANE":"５９２巷","ALLEY":" ","HOUSE_NO":"５５號十七樓之９","E_COORD97":164996.92999999999,"N_COORD97":2544199.8500000001,"ADDRESS":"健康三街５９２巷５５號十七樓之９","OBJECTID":442753},"geometry":{"x":164996.9299999997,"y":2544199.8499999996}},{"attributes":{"ID":442779,"DIS_CODE":0,"TOWNNAME":"安平區","LI":"平通里","LIN":"5鄰","STREET":"健康三街","SECT":" ","MAREA":" ","LANE":"５９２巷","ALLEY":" ","HOUSE_NO":"５５號十九樓之４","E_COORD97":164996.92999999999,"N_COORD97":2544199.8500000001,"ADDRESS":"健康三街５９２巷５５號十九樓之４","OBJECTID":442754},"geometry":{"x":164996.9299999997,"y":2544199.8499999996}},{"attributes":{"ID":442780,"DIS_CODE":0,"TOWNNAME":"安平區","LI":"平通里","LIN":"5鄰","STREET":"健康三街","SECT":" ","MAREA":" ","LANE":"５９２巷","ALLEY":" ","HOUSE_NO":"５５號十九樓之５","E_COORD97":164996.92999999999,"N_COORD97":2544199.8500000001,"ADDRESS":"健康三街５９２巷５５號十九樓之５","OBJECTID":442755},"geometry":{"x":164996.9299999997,"y":2544199.8499999996}},{"attributes":{"ID":442781,"DIS_CODE":0,"TOWNNAME":"安平區","LI":"平通里","LIN":"5鄰","STREET":"健康三街","SECT":" ","MAREA":" ","LANE":"５９２巷","ALLEY":" ","HOUSE_NO":"５５號十九樓之６","E_COORD97":164996.92999999999,"N_COORD97":2544199.8500000001,"ADDRESS":"健康三街５９２巷５５號十九樓之６","OBJECTID":442756},"geometry":{"x":164996.9299999997,"y":2544199.8499999996}},{"attributes":{"ID":442782,"DIS_CODE":0,"TOWNNAME":"安平區","LI":"平通里","LIN":"5鄰","STREET":"健康三街","SECT":" ","MAREA":" ","LANE":"５９２巷","ALLEY":" ","HOUSE_NO":"５５號十九樓之７","E_COORD97":164996.92999999999,"N_COORD97":2544199.8500000001,"ADDRESS":"健康三街５９２巷５５號十九樓之７","OBJECTID":442757},"geometry":{"x":164996.9299999997,"y":2544199.8499999996}},{"attributes":{"ID":442783,"DIS_CODE":0,"TOWNNAME":"安平區","LI":"平通里","LIN":"5鄰","STREET":"健康三街","SECT":" ","MAREA":" ","LANE":"５９２巷","ALLEY":" ","HOUSE_NO":"５５號十九樓之８","E_COORD97":164996.92999999999,"N_COORD97":2544199.8500000001,"ADDRESS":"健康三街５９２巷５５號十九樓之８","OBJECTID":442758},"geometry":{"x":164996.9299999997,"y":2544199.8499999996}},{"attributes":{"ID":442784,"DIS_CODE":0,"TOWNNAME":"安平區","LI":"平通里","LIN":"5鄰","STREET":"健康三街","SECT":" ","MAREA":" ","LANE":"５９２巷","ALLEY":" ","HOUSE_NO":"５５號十九樓之９","E_COORD97":164996.92999999999,"N_COORD97":2544199.8500000001,"ADDRESS":"健康三街５９２巷５５號十九樓之９","OBJECTID":442759},"geometry":{"x":164996.9299999997,"y":2544199.8499999996}},{"attributes":{"ID":442785,"DIS_CODE":0,"TOWNNAME":"安南區","LI":"布袋里","LIN":"1鄰","STREET":"工明三路","SECT":" ","MAREA":" ","LANE":" ","ALLEY":" ","HOUSE_NO":"２５號","E_COORD97":168520.16,"N_COORD97":2551159.46,"ADDRESS":"工明三路２５號","OBJECTID":442760},"geometry":{"x":168520.16000000015,"y":2551159.4600000028}},{"attributes":{"ID":442786,"DIS_CODE":0,"TOWNNAME":"關廟區","LI":"東勢里","LIN":"14鄰","STREET":"東榮街","SECT":" ","MAREA":" ","LANE":"１３８巷","ALLEY":" ","HOUSE_NO":"８號","E_COORD97":182146.37,"N_COORD97":2539330.25,"ADDRESS":"東榮街１３８巷８號","OBJECTID":442761},"geometry":{"x":182146.37000000011,"y":2539330.2500000037}},{"attributes":{"ID":442787,"DIS_CODE":0,"TOWNNAME":"安平區","LI":"平通里","LIN":"5鄰","STREET":"健康三街","SECT":" ","MAREA":" ","LANE":"５９２巷","ALLEY":" ","HOUSE_NO":"５５號十二樓之４","E_COORD97":164996.92999999999,"N_COORD97":2544199.8500000001,"ADDRESS":"健康三街５９２巷５５號十二樓之４","OBJECTID":442762},"geometry":{"x":164996.9299999997,"y":2544199.8499999996}},{"attributes":{"ID":442788,"DIS_CODE":0,"TOWNNAME":"安平區","LI":"平通里","LIN":"5鄰","STREET":"健康三街","SECT":" ","MAREA":" ","LANE":"５９２巷","ALLEY":" ","HOUSE_NO":"５５號十二樓之５","E_COORD97":164996.92999999999,"N_COORD97":2544199.8500000001,"ADDRESS":"健康三街５９２巷５５號十二樓之５","OBJECTID":442763},"geometry":{"x":164996.9299999997,"y":2544199.8499999996}},{"attributes":{"ID":442789,"DIS_CODE":0,"TOWNNAME":"安平區","LI":"平通里","LIN":"5鄰","STREET":"健康三街","SECT":" ","MAREA":" ","LANE":"５９２巷","ALLEY":" ","HOUSE_NO":"５５號十二樓之６","E_COORD97":164996.92999999999,"N_COORD97":2544199.8500000001,"ADDRESS":"健康三街５９２巷５５號十二樓之６","OBJECTID":442764},"geometry":{"x":164996.9299999997,"y":2544199.8499999996}},{"attributes":{"ID":442790,"DIS_CODE":0,"TOWNNAME":"安平區","LI":"平通里","LIN":"5鄰","STREET":"健康三街","SECT":" ","MAREA":" ","LANE":"５９２巷","ALLEY":" ","HOUSE_NO":"５５號十二樓之７","E_COORD97":164996.92999999999,"N_COORD97":2544199.8500000001,"ADDRESS":"健康三街５９２巷５５號十二樓之７","OBJECTID":442765},"geometry":{"x":164996.9299999997,"y":2544199.8499999996}},{"attributes":{"ID":442791,"DIS_CODE":0,"TOWNNAME":"安平區","LI":"平通里","LIN":"5鄰","STREET":"健康三街","SECT":" ","MAREA":" ","LANE":"５９２巷","ALLEY":" ","HOUSE_NO":"５５號十二樓之８","E_COORD97":164996.92999999999,"N_COORD97":2544199.8500000001,"ADDRESS":"健康三街５９２巷５５號十二樓之８","OBJECTID":442766},"geometry":{"x":164996.9299999997,"y":2544199.8499999996}},{"attributes":{"ID":442792,"DIS_CODE":0,"TOWNNAME":"安平區","LI":"平通里","LIN":"5鄰","STREET":"健康三街","SECT":" ","MAREA":" ","LANE":"５９２巷","ALLEY":" ","HOUSE_NO":"５５號十二樓之９","E_COORD97":164996.92999999999,"N_COORD97":2544199.8500000001,"ADDRESS":"健康三街５９２巷５５號十二樓之９","OBJECTID":442767},"geometry":{"x":164996.9299999997,"y":2544199.8499999996}},{"attributes":{"ID":442793,"DIS_CODE":0,"TOWNNAME":"安平區","LI":"平通里","LIN":"5鄰","STREET":"健康三街","SECT":" ","MAREA":" ","LANE":"５９２巷","ALLEY":" ","HOUSE_NO":"５５號十八樓之４","E_COORD97":164996.92999999999,"N_COORD97":2544199.8500000001,"ADDRESS":"健康三街５９２巷５５號十八樓之４","OBJECTID":442768},"geometry":{"x":164996.9299999997,"y":2544199.8499999996}},{"attributes":{"ID":442794,"DIS_CODE":0,"TOWNNAME":"安平區","LI":"平通里","LIN":"5鄰","STREET":"健康三街","SECT":" ","MAREA":" ","LANE":"５９２巷","ALLEY":" ","HOUSE_NO":"５５號十八樓之５","E_COORD97":164996.92999999999,"N_COORD97":2544199.8500000001,"ADDRESS":"健康三街５９２巷５５號十八樓之５","OBJECTID":442769},"geometry":{"x":164996.9299999997,"y":2544199.8499999996}},{"attributes":{"ID":442795,"DIS_CODE":0,"TOWNNAME":"安平區","LI":"平通里","LIN":"5鄰","STREET":"健康三街","SECT":" ","MAREA":" ","LANE":"５９２巷","ALLEY":" ","HOUSE_NO":"５５號十八樓之６","E_COORD97":164996.92999999999,"N_COORD97":2544199.8500000001,"ADDRESS":"健康三街５９２巷５５號十八樓之６","OBJECTID":442770},"geometry":{"x":164996.9299999997,"y":2544199.8499999996}},{"attributes":{"ID":442796,"DIS_CODE":0,"TOWNNAME":"安平區","LI":"平通里","LIN":"5鄰","STREET":"健康三街","SECT":" ","MAREA":" ","LANE":"５９２巷","ALLEY":" ","HOUSE_NO":"５５號十八樓之７","E_COORD97":164996.92999999999,"N_COORD97":2544199.8500000001,"ADDRESS":"健康三街５９２巷５５號十八樓之７","OBJECTID":442771},"geometry":{"x":164996.9299999997,"y":2544199.8499999996}},{"attributes":{"ID":442797,"DIS_CODE":0,"TOWNNAME":"安平區","LI":"平通里","LIN":"5鄰","STREET":"健康三街","SECT":" ","MAREA":" ","LANE":"５９２巷","ALLEY":" ","HOUSE_NO":"５５號十八樓之８","E_COORD97":164996.92999999999,"N_COORD97":2544199.8500000001,"ADDRESS":"健康三街５９２巷５５號十八樓之８","OBJECTID":442772},"geometry":{"x":164996.9299999997,"y":2544199.8499999996}},{"attributes":{"ID":442798,"DIS_CODE":0,"TOWNNAME":"安平區","LI":"平通里","LIN":"5鄰","STREET":"健康三街","SECT":" ","MAREA":" ","LANE":"５９２巷","ALLEY":" ","HOUSE_NO":"５５號十八樓之９","E_COORD97":164996.92999999999,"N_COORD97":2544199.8500000001,"ADDRESS":"健康三街５９２巷５５號十八樓之９","OBJECTID":442773},"geometry":{"x":164996.9299999997,"y":2544199.8499999996}},{"attributes":{"ID":442799,"DIS_CODE":0,"TOWNNAME":"安平區","LI":"平通里","LIN":"5鄰","STREET":"健康三街","SECT":" ","MAREA":" ","LANE":"５９２巷","ALLEY":" ","HOUSE_NO":"５５號十三樓之４","E_COORD97":164996.92999999999,"N_COORD97":2544199.8500000001,"ADDRESS":"健康三街５９２巷５５號十三樓之４","OBJECTID":442774},"geometry":{"x":164996.9299999997,"y":2544199.8499999996}},{"attributes":{"ID":442800,"DIS_CODE":0,"TOWNNAME":"安平區","LI":"平通里","LIN":"5鄰","STREET":"健康三街","SECT":" ","MAREA":" ","LANE":"５９２巷","ALLEY":" ","HOUSE_NO":"５５號十三樓之５","E_COORD97":164996.92999999999,"N_COORD97":2544199.8500000001,"ADDRESS":"健康三街５９２巷５５號十三樓之５","OBJECTID":442775},"geometry":{"x":164996.9299999997,"y":2544199.8499999996}},{"attributes":{"ID":442801,"DIS_CODE":0,"TOWNNAME":"安平區","LI":"平通里","LIN":"5鄰","STREET":"健康三街","SECT":" ","MAREA":" ","LANE":"５９２巷","ALLEY":" ","HOUSE_NO":"５５號十三樓之６","E_COORD97":164996.92999999999,"N_COORD97":2544199.8500000001,"ADDRESS":"健康三街５９２巷５５號十三樓之６","OBJECTID":442776},"geometry":{"x":164996.9299999997,"y":2544199.8499999996}},{"attributes":{"ID":442802,"DIS_CODE":0,"TOWNNAME":"安平區","LI":"平通里","LIN":"5鄰","STREET":"健康三街","SECT":" ","MAREA":" ","LANE":"５９２巷","ALLEY":" ","HOUSE_NO":"５５號十三樓之７","E_COORD97":164996.92999999999,"N_COORD97":2544199.8500000001,"ADDRESS":"健康三街５９２巷５５號十三樓之７","OBJECTID":442777},"geometry":{"x":164996.9299999997,"y":2544199.8499999996}},{"attributes":{"ID":442803,"DIS_CODE":0,"TOWNNAME":"安平區","LI":"平通里","LIN":"5鄰","STREET":"健康三街","SECT":" ","MAREA":" ","LANE":"５９２巷","ALLEY":" ","HOUSE_NO":"５５號十三樓之８","E_COORD97":164996.92999999999,"N_COORD97":2544199.8500000001,"ADDRESS":"健康三街５９２巷５５號十三樓之８","OBJECTID":442778},"geometry":{"x":164996.9299999997,"y":2544199.8499999996}},{"attributes":{"ID":442804,"DIS_CODE":0,"TOWNNAME":"安平區","LI":"平通里","LIN":"5鄰","STREET":"健康三街","SECT":" ","MAREA":" ","LANE":"５９２巷","ALLEY":" ","HOUSE_NO":"５５號十三樓之９","E_COORD97":164996.92999999999,"N_COORD97":2544199.8500000001,"ADDRESS":"健康三街５９２巷５５號十三樓之９","OBJECTID":442779},"geometry":{"x":164996.9299999997,"y":2544199.8499999996}},{"attributes":{"ID":442805,"DIS_CODE":0,"TOWNNAME":"安平區","LI":"平通里","LIN":"5鄰","STREET":"健康三街","SECT":" ","MAREA":" ","LANE":"５９２巷","ALLEY":" ","HOUSE_NO":"５５號十五樓之４","E_COORD97":164996.92999999999,"N_COORD97":2544199.8500000001,"ADDRESS":"健康三街５９２巷５５號十五樓之４","OBJECTID":442780},"geometry":{"x":164996.9299999997,"y":2544199.8499999996}},{"attributes":{"ID":442806,"DIS_CODE":0,"TOWNNAME":"安平區","LI":"平通里","LIN":"5鄰","STREET":"健康三街","SECT":" ","MAREA":" ","LANE":"５９２巷","ALLEY":" ","HOUSE_NO":"５５號十五樓之５","E_COORD97":164996.92999999999,"N_COORD97":2544199.8500000001,"ADDRESS":"健康三街５９２巷５５號十五樓之５","OBJECTID":442781},"geometry":{"x":164996.9299999997,"y":2544199.8499999996}},{"attributes":{"ID":442807,"DIS_CODE":0,"TOWNNAME":"安平區","LI":"平通里","LIN":"5鄰","STREET":"健康三街","SECT":" ","MAREA":" ","LANE":"５９２巷","ALLEY":" ","HOUSE_NO":"５５號十五樓之６","E_COORD97":164996.92999999999,"N_COORD97":2544199.8500000001,"ADDRESS":"健康三街５９２巷５５號十五樓之６","OBJECTID":442782},"geometry":{"x":164996.9299999997,"y":2544199.8499999996}},{"attributes":{"ID":442808,"DIS_CODE":0,"TOWNNAME":"安平區","LI":"平通里","LIN":"5鄰","STREET":"健康三街","SECT":" ","MAREA":" ","LANE":"５９２巷","ALLEY":" ","HOUSE_NO":"５５號十五樓之７","E_COORD97":164996.92999999999,"N_COORD97":2544199.8500000001,"ADDRESS":"健康三街５９２巷５５號十五樓之７","OBJECTID":442783},"geometry":{"x":164996.9299999997,"y":2544199.8499999996}},{"attributes":{"ID":442809,"DIS_CODE":0,"TOWNNAME":"安平區","LI":"平通里","LIN":"5鄰","STREET":"健康三街","SECT":" ","MAREA":" ","LANE":"５９２巷","ALLEY":" ","HOUSE_NO":"５５號十五樓之８","E_COORD97":164996.92999999999,"N_COORD97":2544199.8500000001,"ADDRESS":"健康三街５９２巷５５號十五樓之８","OBJECTID":442784},"geometry":{"x":164996.9299999997,"y":2544199.8499999996}},{"attributes":{"ID":442810,"DIS_CODE":0,"TOWNNAME":"安平區","LI":"平通里","LIN":"5鄰","STREET":"健康三街","SECT":" ","MAREA":" ","LANE":"５９２巷","ALLEY":" ","HOUSE_NO":"５５號十五樓之９","E_COORD97":164996.92999999999,"N_COORD97":2544199.8500000001,"ADDRESS":"健康三街５９２巷５５號十五樓之９","OBJECTID":442785},"geometry":{"x":164996.9299999997,"y":2544199.8499999996}},{"attributes":{"ID":442811,"DIS_CODE":0,"TOWNNAME":"東區","LI":"崇文里","LIN":"40鄰","STREET":"生產路","SECT":" ","MAREA":" ","LANE":" ","ALLEY":" ","HOUSE_NO":"２６９號八樓","E_COORD97":170885.10999999999,"N_COORD97":2540617.8100000001,"ADDRESS":"生產路２６９號八樓","OBJECTID":442786},"geometry":{"x":170885.11000000127,"y":2540617.8100000005}},{"attributes":{"ID":442812,"DIS_CODE":0,"TOWNNAME":"東區","LI":"崇文里","LIN":"40鄰","STREET":"生產路","SECT":" ","MAREA":" ","LANE":" ","ALLEY":" ","HOUSE_NO":"２６９號十一樓","E_COORD97":170885.10999999999,"N_COORD97":2540617.8100000001,"ADDRESS":"生產路２６９號十一樓","OBJECTID":442787},"geometry":{"x":170885.11000000127,"y":2540617.8100000005}},{"attributes":{"ID":442813,"DIS_CODE":0,"TOWNNAME":"安平區","LI":"平通里","LIN":"5鄰","STREET":"健康三街","SECT":" ","MAREA":" ","LANE":"５９２巷","ALLEY":" ","HOUSE_NO":"５５號十六樓之４","E_COORD97":164996.92999999999,"N_COORD97":2544199.8500000001,"ADDRESS":"健康三街５９２巷５５號十六樓之４","OBJECTID":442788},"geometry":{"x":164996.9299999997,"y":2544199.8499999996}},{"attributes":{"ID":442814,"DIS_CODE":0,"TOWNNAME":"安平區","LI":"平通里","LIN":"5鄰","STREET":"健康三街","SECT":" ","MAREA":" ","LANE":"５９２巷","ALLEY":" ","HOUSE_NO":"５５號十六樓之５","E_COORD97":164996.92999999999,"N_COORD97":2544199.8500000001,"ADDRESS":"健康三街５９２巷５５號十六樓之５","OBJECTID":442789},"geometry":{"x":164996.9299999997,"y":2544199.8499999996}},{"attributes":{"ID":442815,"DIS_CODE":0,"TOWNNAME":"安平區","LI":"平通里","LIN":"5鄰","STREET":"健康三街","SECT":" ","MAREA":" ","LANE":"５９２巷","ALLEY":" ","HOUSE_NO":"５５號十六樓之６","E_COORD97":164996.92999999999,"N_COORD97":2544199.8500000001,"ADDRESS":"健康三街５９２巷５５號十六樓之６","OBJECTID":442790},"geometry":{"x":164996.9299999997,"y":2544199.8499999996}},{"attributes":{"ID":442816,"DIS_CODE":0,"TOWNNAME":"安平區","LI":"平通里","LIN":"5鄰","STREET":"健康三街","SECT":" ","MAREA":" ","LANE":"５９２巷","ALLEY":" ","HOUSE_NO":"５５號十六樓之７","E_COORD97":164996.92999999999,"N_COORD97":2544199.8500000001,"ADDRESS":"健康三街５９２巷５５號十六樓之７","OBJECTID":442791},"geometry":{"x":164996.9299999997,"y":2544199.8499999996}},{"attributes":{"ID":442817,"DIS_CODE":0,"TOWNNAME":"永康區","LI":"埔園里","LIN":"5鄰","STREET":"中山路","SECT":" ","MAREA":" ","LANE":"１５８巷","ALLEY":" ","HOUSE_NO":"３６號二樓","E_COORD97":173918.22,"N_COORD97":2547830,"ADDRESS":"中山路１５８巷３６號二樓","OBJECTID":442792},"geometry":{"x":173918.22000000067,"y":2547830}},{"attributes":{"ID":442818,"DIS_CODE":0,"TOWNNAME":"安平區","LI":"平通里","LIN":"5鄰","STREET":"健康三街","SECT":" ","MAREA":" ","LANE":"５９２巷","ALLEY":" ","HOUSE_NO":"５５號十六樓之８","E_COORD97":164996.92999999999,"N_COORD97":2544199.8500000001,"ADDRESS":"健康三街５９２巷５５號十六樓之８","OBJECTID":442793},"geometry":{"x":164996.9299999997,"y":2544199.8499999996}},{"attributes":{"ID":442819,"DIS_CODE":0,"TOWNNAME":"安平區","LI":"平通里","LIN":"5鄰","STREET":"健康三街","SECT":" ","MAREA":" ","LANE":"５９２巷","ALLEY":" ","HOUSE_NO":"５５號十六樓之９","E_COORD97":164996.92999999999,"N_COORD97":2544199.8500000001,"ADDRESS":"健康三街５９２巷５５號十六樓之９","OBJECTID":442794},"geometry":{"x":164996.9299999997,"y":2544199.8499999996}},{"attributes":{"ID":442820,"DIS_CODE":0,"TOWNNAME":"南區","LI":"新昌里","LIN":"5鄰","STREET":"大德街","SECT":" ","MAREA":" ","LANE":"１４１巷","ALLEY":" ","HOUSE_NO":"８９號二樓之１","E_COORD97":167543.12,"N_COORD97":2542776.3900000001,"ADDRESS":"大德街１４１巷８９號二樓之１","OBJECTID":442795},"geometry":{"x":167543.12000000197,"y":2542776.3900000006}},{"attributes":{"ID":442821,"DIS_CODE":0,"TOWNNAME":"南區","LI":"新昌里","LIN":"5鄰","STREET":"大德街","SECT":" ","MAREA":" ","LANE":"１４１巷","ALLEY":" ","HOUSE_NO":"８９號三樓之１","E_COORD97":167543.12,"N_COORD97":2542776.3900000001,"ADDRESS":"大德街１４１巷８９號三樓之１","OBJECTID":442796},"geometry":{"x":167543.12000000197,"y":2542776.3900000006}},{"attributes":{"ID":442822,"DIS_CODE":0,"TOWNNAME":"南區","LI":"新昌里","LIN":"5鄰","STREET":"大德街","SECT":" ","MAREA":" ","LANE":"１４１巷","ALLEY":" ","HOUSE_NO":"８９號三樓之２","E_COORD97":167543.12,"N_COORD97":2542776.3900000001,"ADDRESS":"大德街１４１巷８９號三樓之２","OBJECTID":442797},"geometry":{"x":167543.12000000197,"y":2542776.3900000006}},{"attributes":{"ID":442823,"DIS_CODE":0,"TOWNNAME":"南區","LI":"新昌里","LIN":"5鄰","STREET":"大德街","SECT":" ","MAREA":" ","LANE":"１４１巷","ALLEY":" ","HOUSE_NO":"８９號五樓之１","E_COORD97":167543.12,"N_COORD97":2542776.3900000001,"ADDRESS":"大德街１４１巷８９號五樓之１","OBJECTID":442798},"geometry":{"x":167543.12000000197,"y":2542776.3900000006}},{"attributes":{"ID":442824,"DIS_CODE":0,"TOWNNAME":"南區","LI":"新昌里","LIN":"5鄰","STREET":"大德街","SECT":" ","MAREA":" ","LANE":"１４１巷","ALLEY":" ","HOUSE_NO":"８９號六樓之１","E_COORD97":167543.12,"N_COORD97":2542776.3900000001,"ADDRESS":"大德街１４１巷８９號六樓之１","OBJECTID":442799},"geometry":{"x":167543.12000000197,"y":2542776.3900000006}},{"attributes":{"ID":442825,"DIS_CODE":0,"TOWNNAME":"南區","LI":"新昌里","LIN":"5鄰","STREET":"大德街","SECT":" ","MAREA":" ","LANE":"１４１巷","ALLEY":" ","HOUSE_NO":"８９號六樓之２","E_COORD97":167543.12,"N_COORD97":2542776.3900000001,"ADDRESS":"大德街１４１巷８９號六樓之２","OBJECTID":442800},"geometry":{"x":167543.12000000197,"y":2542776.3900000006}}]}