{"displayFieldName":"TOWNNAME","fieldAliases":{"ID":"ID","DIS_CODE":"DIS_CODE","TOWNNAME":"TOWNNAME","LI":"LI","LIN":"LIN","STREET":"STREET","SECT":"SECT","MAREA":"MAREA","LANE":"LANE","ALLEY":"ALLEY","HOUSE_NO":"HOUSE_NO","E_COORD97":"E_COORD97","N_COORD97":"N_COORD97","ADDRESS":"ADDRESS","OBJECTID":"OBJECTID"},"geometryType":"esriGeometryPoint","spatialReference":{"wkid":102443,"latestWkid":3826},"fields":[{"name":"ID","type":"esriFieldTypeDouble","alias":"ID"},{"name":"DIS_CODE","type":"esriFieldTypeInteger","alias":"DIS_CODE"},{"name":"TOWNNAME","type":"esriFieldTypeString","alias":"TOWNNAME","length":8},{"name":"LI","type":"esriFieldTypeString","alias":"LI","length":8},{"name":"LIN","type":"esriFieldTypeString","alias":"LIN","length":12},{"name":"STREET","type":"esriFieldTypeString","alias":"STREET","length":20},{"name":"SECT","type":"esriFieldTypeString","alias":"SECT","length":8},{"name":"MAREA","type":"esriFieldTypeString","alias":"MAREA","length":12},{"name":"LANE","type":"esriFieldTypeString","alias":"LANE","length":10},{"name":"ALLEY","type":"esriFieldTypeString","alias":"ALLEY","length":10},{"name":"HOUSE_NO","type":"esriFieldTypeString","alias":"HOUSE_NO","length":20},{"name":"E_COORD97","type":"esriFieldTypeDouble","alias":"E_COORD97"},{"name":"N_COORD97","type":"esriFieldTypeDouble","alias":"N_COORD97"},{"name":"ADDRESS","type":"esriFieldTypeString","alias":"ADDRESS","length":50},{"name":"OBJECTID","type":"esriFieldTypeOID","alias":"OBJECTID"}],"features":[{"attributes":{"ID":53401,"DIS_CODE":0,"TOWNNAME":"白河區","LI":"竹門里","LIN":"1鄰","STREET":" ","SECT":" ","MAREA":"竹子門","LANE":" ","ALLEY":" ","HOUSE_NO":"２號","E_COORD97":193645.76000000001,"N_COORD97":2585834.1099999999,"ADDRESS":"竹子門２號","OBJECTID":53401},"geometry":{"x":193645.75999999978,"y":2585834.1100000013}},{"attributes":{"ID":53402,"DIS_CODE":0,"TOWNNAME":"白河區","LI":"竹門里","LIN":"1鄰","STREET":" ","SECT":" ","MAREA":"竹子門","LANE":" ","ALLEY":" ","HOUSE_NO":"３之１２號","E_COORD97":193707.14000000001,"N_COORD97":2585721.0699999998,"ADDRESS":"竹子門３之１２號","OBJECTID":53402},"geometry":{"x":193707.13999999966,"y":2585721.0700000003}},{"attributes":{"ID":53403,"DIS_CODE":0,"TOWNNAME":"善化區","LI":"嘉北里","LIN":"1鄰","STREET":" ","SECT":" ","MAREA":"茄拔","LANE":" ","ALLEY":" ","HOUSE_NO":"１號之１２","E_COORD97":181137.95999999999,"N_COORD97":2560257.52,"ADDRESS":"茄拔１號之１２","OBJECTID":53403},"geometry":{"x":181137.96000000089,"y":2560257.5200000014}},{"attributes":{"ID":53404,"DIS_CODE":0,"TOWNNAME":"善化區","LI":"溪美里","LIN":"1鄰","STREET":" ","SECT":" ","MAREA":"溪尾","LANE":" ","ALLEY":" ","HOUSE_NO":"９６０號","E_COORD97":177798.94,"N_COORD97":2558848.77,"ADDRESS":"溪尾９６０號","OBJECTID":53404},"geometry":{"x":177798.94000000134,"y":2558848.7700000014}},{"attributes":{"ID":53405,"DIS_CODE":0,"TOWNNAME":"善化區","LI":"嘉南里","LIN":"1鄰","STREET":" ","SECT":" ","MAREA":"茄拔","LANE":" ","ALLEY":" ","HOUSE_NO":"５９號之１１","E_COORD97":181261.67000000001,"N_COORD97":2559458.52,"ADDRESS":"茄拔５９號之１１","OBJECTID":53405},"geometry":{"x":181261.67000000179,"y":2559458.5199999996}},{"attributes":{"ID":53406,"DIS_CODE":0,"TOWNNAME":"善化區","LI":"溪美里","LIN":"1鄰","STREET":" ","SECT":" ","MAREA":"溪尾","LANE":" ","ALLEY":" ","HOUSE_NO":"９０６號","E_COORD97":177092.54999999999,"N_COORD97":2560175.02,"ADDRESS":"溪尾９０６號","OBJECTID":53406},"geometry":{"x":177092.55000000075,"y":2560175.0199999996}},{"attributes":{"ID":53407,"DIS_CODE":0,"TOWNNAME":"善化區","LI":"嘉北里","LIN":"1鄰","STREET":" ","SECT":" ","MAREA":"茄拔","LANE":" ","ALLEY":" ","HOUSE_NO":"１號之３５","E_COORD97":181174.62,"N_COORD97":2560184.77,"ADDRESS":"茄拔１號之３５","OBJECTID":53407},"geometry":{"x":181174.62000000104,"y":2560184.7700000014}},{"attributes":{"ID":53408,"DIS_CODE":0,"TOWNNAME":"永康區","LI":"\u25A0洲里","LIN":"8鄰","STREET":"中正南路","SECT":" ","MAREA":" ","LANE":" ","ALLEY":" ","HOUSE_NO":"８５３號","E_COORD97":171786.17999999999,"N_COORD97":2549052.4900000002,"ADDRESS":"中正南路８５３號","OBJECTID":53408},"geometry":{"x":171786.1799999997,"y":2549052.4900000039}},{"attributes":{"ID":53409,"DIS_CODE":0,"TOWNNAME":"永康區","LI":"\u25A0洲里","LIN":"8鄰","STREET":"\u25A0行路","SECT":" ","MAREA":" ","LANE":" ","ALLEY":" ","HOUSE_NO":"２１號","E_COORD97":171759.78,"N_COORD97":2549106.8199999998,"ADDRESS":"\u25A0行路２１號","OBJECTID":53409},"geometry":{"x":171759.78000000212,"y":2549106.8200000003}},{"attributes":{"ID":53410,"DIS_CODE":0,"TOWNNAME":"永康區","LI":"中華里","LIN":"8鄰","STREET":"忠勇街","SECT":" ","MAREA":" ","LANE":" ","ALLEY":" ","HOUSE_NO":"５０號","E_COORD97":171899.98000000001,"N_COORD97":2544468.8999999999,"ADDRESS":"忠勇街５０號","OBJECTID":53410},"geometry":{"x":171899.98000000138,"y":2544468.9000000004}},{"attributes":{"ID":53411,"DIS_CODE":0,"TOWNNAME":"永康區","LI":"中華里","LIN":"8鄰","STREET":"忠勇街","SECT":" ","MAREA":" ","LANE":" ","ALLEY":" ","HOUSE_NO":"６２號","E_COORD97":171899.54000000001,"N_COORD97":2544494.4500000002,"ADDRESS":"忠勇街６２號","OBJECTID":53411},"geometry":{"x":171899.54000000004,"y":2544494.4499999993}},{"attributes":{"ID":53412,"DIS_CODE":0,"TOWNNAME":"永康區","LI":"中華里","LIN":"8鄰","STREET":"忠勇街","SECT":" ","MAREA":" ","LANE":" ","ALLEY":" ","HOUSE_NO":"６０號","E_COORD97":171899.54000000001,"N_COORD97":2544490.7799999998,"ADDRESS":"忠勇街６０號","OBJECTID":53412},"geometry":{"x":171899.54000000004,"y":2544490.7800000012}},{"attributes":{"ID":53413,"DIS_CODE":0,"TOWNNAME":"永康區","LI":"\u25A0洲里","LIN":"8鄰","STREET":"\u25A0行路","SECT":" ","MAREA":" ","LANE":" ","ALLEY":" ","HOUSE_NO":"２１號之１","E_COORD97":171758.12,"N_COORD97":2549109.3700000001,"ADDRESS":"\u25A0行路２１號之１","OBJECTID":53413},"geometry":{"x":171758.12000000011,"y":2549109.3700000029}},{"attributes":{"ID":53414,"DIS_CODE":0,"TOWNNAME":"永康區","LI":"中華里","LIN":"8鄰","STREET":"忠勇街","SECT":" ","MAREA":" ","LANE":" ","ALLEY":" ","HOUSE_NO":"４６號","E_COORD97":171899.75,"N_COORD97":2544460.46,"ADDRESS":"忠勇街４６號","OBJECTID":53414},"geometry":{"x":171899.75,"y":2544460.4600000028}},{"attributes":{"ID":53415,"DIS_CODE":0,"TOWNNAME":"永康區","LI":"中華里","LIN":"8鄰","STREET":"忠勇街","SECT":" ","MAREA":" ","LANE":" ","ALLEY":" ","HOUSE_NO":"４２號之１","E_COORD97":171902.10999999999,"N_COORD97":2544456.6000000001,"ADDRESS":"忠勇街４２號之１","OBJECTID":53415},"geometry":{"x":171902.11000000127,"y":2544456.5999999996}},{"attributes":{"ID":53416,"DIS_CODE":0,"TOWNNAME":"永康區","LI":"中華里","LIN":"8鄰","STREET":"忠勇街","SECT":" ","MAREA":" ","LANE":" ","ALLEY":" ","HOUSE_NO":"４０號","E_COORD97":171900.19,"N_COORD97":2544448.1099999999,"ADDRESS":"忠勇街４０號","OBJECTID":53416},"geometry":{"x":171900.19000000134,"y":2544448.1100000013}},{"attributes":{"ID":53417,"DIS_CODE":0,"TOWNNAME":"麻豆區","LI":"大埕里","LIN":"8鄰","STREET":" ","SECT":" ","MAREA":"大埕","LANE":" ","ALLEY":" ","HOUSE_NO":"２０號","E_COORD97":173173.10000000001,"N_COORD97":2565212.1800000002,"ADDRESS":"大埕２０號","OBJECTID":53417},"geometry":{"x":173173.10000000056,"y":2565212.1799999997}},{"attributes":{"ID":53418,"DIS_CODE":0,"TOWNNAME":"善化區","LI":"嘉北里","LIN":"1鄰","STREET":" ","SECT":" ","MAREA":"茄拔","LANE":" ","ALLEY":" ","HOUSE_NO":"１號之３３","E_COORD97":181171.66,"N_COORD97":2560176.77,"ADDRESS":"茄拔１號之３３","OBJECTID":53418},"geometry":{"x":181171.66000000015,"y":2560176.7699999996}},{"attributes":{"ID":53419,"DIS_CODE":0,"TOWNNAME":"新市區","LI":"港墘里","LIN":"1鄰","STREET":"大同街","SECT":" ","MAREA":" ","LANE":"２９巷","ALLEY":"１弄","HOUSE_NO":"１號","E_COORD97":178468.07000000001,"N_COORD97":2553587.5,"ADDRESS":"大同街２９巷１弄１號","OBJECTID":53419},"geometry":{"x":178468.07000000123,"y":2553587.5}},{"attributes":{"ID":53420,"DIS_CODE":0,"TOWNNAME":"善化區","LI":"溪美里","LIN":"1鄰","STREET":" ","SECT":" ","MAREA":"溪尾","LANE":" ","ALLEY":" ","HOUSE_NO":"８７４號","E_COORD97":177079.59,"N_COORD97":2560277.02,"ADDRESS":"溪尾８７４號","OBJECTID":53420},"geometry":{"x":177079.58999999985,"y":2560277.0200000033}},{"attributes":{"ID":53421,"DIS_CODE":0,"TOWNNAME":"南區","LI":"光明里","LIN":"5鄰","STREET":"新興路","SECT":" ","MAREA":" ","LANE":"５３３巷","ALLEY":"４３弄","HOUSE_NO":"２３號","E_COORD97":166754.44,"N_COORD97":2541538.9900000002,"ADDRESS":"新興路５３３巷４３弄２３號","OBJECTID":53421},"geometry":{"x":166754.44000000041,"y":2541538.9900000002}},{"attributes":{"ID":53422,"DIS_CODE":0,"TOWNNAME":"善化區","LI":"東昌里","LIN":"1鄰","STREET":" ","SECT":" ","MAREA":"東勢寮","LANE":" ","ALLEY":" ","HOUSE_NO":"１號","E_COORD97":181062.44,"N_COORD97":2561954.2599999998,"ADDRESS":"東勢寮１號","OBJECTID":53422},"geometry":{"x":181062.44000000134,"y":2561954.2600000016}},{"attributes":{"ID":53423,"DIS_CODE":0,"TOWNNAME":"南區","LI":"光明里","LIN":"5鄰","STREET":"新興路","SECT":" ","MAREA":" ","LANE":"５３３巷","ALLEY":"４３弄","HOUSE_NO":"２５號","E_COORD97":166758.51999999999,"N_COORD97":2541538.1000000001,"ADDRESS":"新興路５３３巷４３弄２５號","OBJECTID":53423},"geometry":{"x":166758.52000000048,"y":2541538.1000000034}},{"attributes":{"ID":53424,"DIS_CODE":0,"TOWNNAME":"善化區","LI":"嘉南里","LIN":"1鄰","STREET":" ","SECT":" ","MAREA":"茄拔","LANE":" ","ALLEY":" ","HOUSE_NO":"５９之１號","E_COORD97":181136.44,"N_COORD97":2559476.52,"ADDRESS":"茄拔５９之１號","OBJECTID":53424},"geometry":{"x":181136.43999999948,"y":2559476.5199999996}},{"attributes":{"ID":53425,"DIS_CODE":0,"TOWNNAME":"南區","LI":"光明里","LIN":"5鄰","STREET":"新興路","SECT":" ","MAREA":" ","LANE":"５３３巷","ALLEY":"４３弄","HOUSE_NO":"２７號","E_COORD97":166763.20000000001,"N_COORD97":2541536.21,"ADDRESS":"新興路５３３巷４３弄２７號","OBJECTID":53425},"geometry":{"x":166763.20000000112,"y":2541536.2100000028}},{"attributes":{"ID":53426,"DIS_CODE":0,"TOWNNAME":"新化區","LI":"武安里","LIN":"1鄰","STREET":"公園路","SECT":" ","MAREA":" ","LANE":"１６巷","ALLEY":"９弄","HOUSE_NO":"１２號","E_COORD97":179063.03,"N_COORD97":2547789.25,"ADDRESS":"公園路１６巷９弄１２號","OBJECTID":53426},"geometry":{"x":179063.03000000119,"y":2547789.2500000037}},{"attributes":{"ID":53427,"DIS_CODE":0,"TOWNNAME":"新化區","LI":"武安里","LIN":"1鄰","STREET":"公園路","SECT":" ","MAREA":" ","LANE":"１６巷","ALLEY":"９弄","HOUSE_NO":"１０號","E_COORD97":179062.53,"N_COORD97":2547784.25,"ADDRESS":"公園路１６巷９弄１０號","OBJECTID":53427},"geometry":{"x":179062.53000000212,"y":2547784.25}},{"attributes":{"ID":53428,"DIS_CODE":0,"TOWNNAME":"新化區","LI":"武安里","LIN":"1鄰","STREET":"公園路","SECT":" ","MAREA":" ","LANE":"１６巷","ALLEY":"９弄","HOUSE_NO":"８號","E_COORD97":179050.67999999999,"N_COORD97":2547769.25,"ADDRESS":"公園路１６巷９弄８號","OBJECTID":53428},"geometry":{"x":179050.67999999877,"y":2547769.2500000019}},{"attributes":{"ID":53429,"DIS_CODE":0,"TOWNNAME":"新化區","LI":"武安里","LIN":"1鄰","STREET":"公園路","SECT":" ","MAREA":" ","LANE":"１６巷","ALLEY":"９弄","HOUSE_NO":"６號","E_COORD97":179056.57999999999,"N_COORD97":2547768.25,"ADDRESS":"公園路１６巷９弄６號","OBJECTID":53429},"geometry":{"x":179056.58000000007,"y":2547768.25}},{"attributes":{"ID":53430,"DIS_CODE":0,"TOWNNAME":"安南區","LI":"淵西里","LIN":"1鄰","STREET":"安中路","SECT":"四段","MAREA":" ","LANE":"２９０巷","ALLEY":"３２５弄","HOUSE_NO":"２７號","E_COORD97":165107.48000000001,"N_COORD97":2550389.8700000001,"ADDRESS":"安中路四段２９０巷３２５弄２７號","OBJECTID":53430},"geometry":{"x":165107.48000000045,"y":2550389.8700000048}},{"attributes":{"ID":53431,"DIS_CODE":0,"TOWNNAME":"安南區","LI":"淵西里","LIN":"1鄰","STREET":"安中路","SECT":"四段","MAREA":" ","LANE":"２９０巷","ALLEY":"３２５弄","HOUSE_NO":"２７號之１","E_COORD97":165120.87,"N_COORD97":2550431.6699999999,"ADDRESS":"安中路四段２９０巷３２５弄２７號之１","OBJECTID":53431},"geometry":{"x":165120.87000000104,"y":2550431.6700000018}},{"attributes":{"ID":53432,"DIS_CODE":0,"TOWNNAME":"安南區","LI":"淵西里","LIN":"1鄰","STREET":"安中路","SECT":"四段","MAREA":" ","LANE":"２９０巷","ALLEY":"３２５弄","HOUSE_NO":"２９號","E_COORD97":165117.48000000001,"N_COORD97":2550435.7400000002,"ADDRESS":"安中路四段２９０巷３２５弄２９號","OBJECTID":53432},"geometry":{"x":165117.48000000138,"y":2550435.7400000021}},{"attributes":{"ID":53433,"DIS_CODE":0,"TOWNNAME":"安南區","LI":"淵西里","LIN":"1鄰","STREET":"安中路","SECT":"四段","MAREA":" ","LANE":"２９０巷","ALLEY":"３２５弄","HOUSE_NO":"３１號","E_COORD97":165114.76000000001,"N_COORD97":2550439.7999999998,"ADDRESS":"安中路四段２９０巷３２５弄３１號","OBJECTID":53433},"geometry":{"x":165114.76000000071,"y":2550439.8000000007}},{"attributes":{"ID":53434,"DIS_CODE":0,"TOWNNAME":"安南區","LI":"淵西里","LIN":"1鄰","STREET":"安中路","SECT":"四段","MAREA":" ","LANE":"２９０巷","ALLEY":"３２５弄","HOUSE_NO":"３３號","E_COORD97":165112.28,"N_COORD97":2550443.4100000001,"ADDRESS":"安中路四段２９０巷３２５弄３３號","OBJECTID":53434},"geometry":{"x":165112.28000000026,"y":2550443.410000002}},{"attributes":{"ID":53435,"DIS_CODE":0,"TOWNNAME":"安南區","LI":"淵西里","LIN":"1鄰","STREET":"安中路","SECT":"四段","MAREA":" ","LANE":"２９０巷","ALLEY":"３２５弄","HOUSE_NO":"３５號","E_COORD97":165108.66,"N_COORD97":2550446.1200000001,"ADDRESS":"安中路四段２９０巷３２５弄３５號","OBJECTID":53435},"geometry":{"x":165108.66000000108,"y":2550446.1200000048}},{"attributes":{"ID":53436,"DIS_CODE":0,"TOWNNAME":"安南區","LI":"淵西里","LIN":"1鄰","STREET":"安中路","SECT":"四段","MAREA":" ","LANE":"２９０巷","ALLEY":"３２５弄","HOUSE_NO":"３７號","E_COORD97":165106.17000000001,"N_COORD97":2550449.73,"ADDRESS":"安中路四段２９０巷３２５弄３７號","OBJECTID":53436},"geometry":{"x":165106.16999999993,"y":2550449.7300000004}},{"attributes":{"ID":53437,"DIS_CODE":0,"TOWNNAME":"安南區","LI":"淵西里","LIN":"1鄰","STREET":"安中路","SECT":"四段","MAREA":" ","LANE":"２９０巷","ALLEY":"３２５弄","HOUSE_NO":"３９號","E_COORD97":165105.95000000001,"N_COORD97":2550430.77,"ADDRESS":"安中路四段２９０巷３２５弄３９號","OBJECTID":53437},"geometry":{"x":165105.95000000019,"y":2550430.7700000014}},{"attributes":{"ID":53438,"DIS_CODE":0,"TOWNNAME":"安南區","LI":"淵西里","LIN":"1鄰","STREET":"安中路","SECT":"四段","MAREA":" ","LANE":"２９０巷","ALLEY":"３２５弄","HOUSE_NO":"４１號","E_COORD97":165102.78,"N_COORD97":2550428.0600000001,"ADDRESS":"安中路四段２９０巷３２５弄４１號","OBJECTID":53438},"geometry":{"x":165102.78000000212,"y":2550428.0600000005}},{"attributes":{"ID":53439,"DIS_CODE":0,"TOWNNAME":"安南區","LI":"州南里","LIN":"1鄰","STREET":"安和路","SECT":"四段","MAREA":" ","LANE":"４０６巷","ALLEY":"１２弄","HOUSE_NO":"１０號","E_COORD97":169992.14000000001,"N_COORD97":2551005.0299999998,"ADDRESS":"安和路四段４０６巷１２弄１０號","OBJECTID":53439},"geometry":{"x":169992.1400000006,"y":2551005.0300000012}},{"attributes":{"ID":53440,"DIS_CODE":0,"TOWNNAME":"安南區","LI":"州南里","LIN":"1鄰","STREET":"安和路","SECT":"四段","MAREA":" ","LANE":"４０６巷","ALLEY":"１２弄","HOUSE_NO":"１１號","E_COORD97":170010.89000000001,"N_COORD97":2551013.0600000001,"ADDRESS":"安和路四段４０６巷１２弄１１號","OBJECTID":53440},"geometry":{"x":170010.8900000006,"y":2551013.0600000024}},{"attributes":{"ID":53441,"DIS_CODE":0,"TOWNNAME":"六甲區","LI":"中社里","LIN":"14鄰","STREET":" ","SECT":" ","MAREA":"農場","LANE":" ","ALLEY":" ","HOUSE_NO":"３７號","E_COORD97":181184.92000000001,"N_COORD97":2572226.7999999998,"ADDRESS":"農場３７號","OBJECTID":53441},"geometry":{"x":181184.91999999993,"y":2572226.8000000007}},{"attributes":{"ID":53442,"DIS_CODE":0,"TOWNNAME":"安南區","LI":"州南里","LIN":"1鄰","STREET":"安和路","SECT":"四段","MAREA":" ","LANE":"４０６巷","ALLEY":"１２弄","HOUSE_NO":"１２號","E_COORD97":169986.23000000001,"N_COORD97":2551004.3799999999,"ADDRESS":"安和路四段４０６巷１２弄１２號","OBJECTID":53442},"geometry":{"x":169986.23000000138,"y":2551004.379999999}},{"attributes":{"ID":53443,"DIS_CODE":0,"TOWNNAME":"安南區","LI":"州南里","LIN":"1鄰","STREET":"安和路","SECT":"四段","MAREA":" ","LANE":"４０６巷","ALLEY":"１２弄","HOUSE_NO":"１３號","E_COORD97":170006.14999999999,"N_COORD97":2551002.6299999999,"ADDRESS":"安和路四段４０６巷１２弄１３號","OBJECTID":53443},"geometry":{"x":170006.15000000224,"y":2551002.629999999}},{"attributes":{"ID":53444,"DIS_CODE":0,"TOWNNAME":"安南區","LI":"州南里","LIN":"1鄰","STREET":"安和路","SECT":"四段","MAREA":" ","LANE":"４０６巷","ALLEY":"１２弄","HOUSE_NO":"１４號","E_COORD97":169980.97,"N_COORD97":2551003.5,"ADDRESS":"安和路四段４０６巷１２弄１４號","OBJECTID":53444},"geometry":{"x":169980.96999999974,"y":2551003.5}},{"attributes":{"ID":53445,"DIS_CODE":0,"TOWNNAME":"安南區","LI":"州南里","LIN":"1鄰","STREET":"安和路","SECT":"四段","MAREA":" ","LANE":"４０６巷","ALLEY":"１２弄","HOUSE_NO":"１５號","E_COORD97":170013.60000000001,"N_COORD97":2551003.2799999998,"ADDRESS":"安和路四段４０６巷１２弄１５號","OBJECTID":53445},"geometry":{"x":170013.59999999963,"y":2551003.2800000012}},{"attributes":{"ID":53446,"DIS_CODE":0,"TOWNNAME":"安南區","LI":"州南里","LIN":"1鄰","STREET":"安和路","SECT":"四段","MAREA":" ","LANE":"４０６巷","ALLEY":"１２弄","HOUSE_NO":"１６號","E_COORD97":169973.53,"N_COORD97":2551002.8399999999,"ADDRESS":"安和路四段４０６巷１２弄１６號","OBJECTID":53446},"geometry":{"x":169973.53000000119,"y":2551002.8400000036}},{"attributes":{"ID":53447,"DIS_CODE":0,"TOWNNAME":"善化區","LI":"溪美里","LIN":"1鄰","STREET":" ","SECT":" ","MAREA":"溪尾","LANE":" ","ALLEY":" ","HOUSE_NO":"９８２號","E_COORD97":177101.48000000001,"N_COORD97":2559982.77,"ADDRESS":"溪尾９８２號","OBJECTID":53447},"geometry":{"x":177101.48000000045,"y":2559982.7699999996}},{"attributes":{"ID":53448,"DIS_CODE":0,"TOWNNAME":"安南區","LI":"州南里","LIN":"1鄰","STREET":"安和路","SECT":"四段","MAREA":" ","LANE":"４０６巷","ALLEY":"１２弄","HOUSE_NO":"１７號","E_COORD97":170018.20000000001,"N_COORD97":2551003.9399999999,"ADDRESS":"安和路四段４０６巷１２弄１７號","OBJECTID":53448},"geometry":{"x":170018.20000000112,"y":2551003.9399999995}},{"attributes":{"ID":53449,"DIS_CODE":0,"TOWNNAME":"善化區","LI":"六德里","LIN":"1鄰","STREET":" ","SECT":" ","MAREA":"六分寮","LANE":" ","ALLEY":" ","HOUSE_NO":"２０４號之２","E_COORD97":178877,"N_COORD97":2561725.1400000001,"ADDRESS":"六分寮２０４號之２","OBJECTID":53449},"geometry":{"x":178877,"y":2561725.1400000043}},{"attributes":{"ID":53450,"DIS_CODE":0,"TOWNNAME":"安南區","LI":"州南里","LIN":"1鄰","STREET":"安和路","SECT":"四段","MAREA":" ","LANE":"４０６巷","ALLEY":"１２弄","HOUSE_NO":"１８號","E_COORD97":169970.25,"N_COORD97":2550987.25,"ADDRESS":"安和路四段４０６巷１２弄１８號","OBJECTID":53450},"geometry":{"x":169970.25000000093,"y":2550987.2500000019}},{"attributes":{"ID":53451,"DIS_CODE":0,"TOWNNAME":"安南區","LI":"州南里","LIN":"1鄰","STREET":"安和路","SECT":"四段","MAREA":" ","LANE":"４０６巷","ALLEY":"１２弄","HOUSE_NO":"１９號","E_COORD97":170023.67000000001,"N_COORD97":2551002.1899999999,"ADDRESS":"安和路四段４０６巷１２弄１９號","OBJECTID":53451},"geometry":{"x":170023.66999999993,"y":2551002.1899999995}},{"attributes":{"ID":53452,"DIS_CODE":0,"TOWNNAME":"安南區","LI":"州南里","LIN":"1鄰","STREET":"安和路","SECT":"四段","MAREA":" ","LANE":"４０６巷","ALLEY":"１２弄","HOUSE_NO":"１號","E_COORD97":170009.01000000001,"N_COORD97":2551041.3799999999,"ADDRESS":"安和路四段４０６巷１２弄１號","OBJECTID":53452},"geometry":{"x":170009.01000000071,"y":2551041.379999999}},{"attributes":{"ID":53453,"DIS_CODE":0,"TOWNNAME":"安南區","LI":"州南里","LIN":"1鄰","STREET":"安和路","SECT":"四段","MAREA":" ","LANE":"４０６巷","ALLEY":"１２弄","HOUSE_NO":"２０號","E_COORD97":169978.38,"N_COORD97":2550987.6000000001,"ADDRESS":"安和路四段４０６巷１２弄２０號","OBJECTID":53453},"geometry":{"x":169978.37999999989,"y":2550987.6000000015}},{"attributes":{"ID":53454,"DIS_CODE":0,"TOWNNAME":"善化區","LI":"嘉北里","LIN":"1鄰","STREET":" ","SECT":" ","MAREA":"茄拔","LANE":" ","ALLEY":" ","HOUSE_NO":"１號之７（該建物係為","E_COORD97":181060.44,"N_COORD97":2560201.1499999999,"ADDRESS":"茄拔１號之７（該建物係為農業設施不得設籍）","OBJECTID":53454},"geometry":{"x":181060.44000000134,"y":2560201.1500000004}},{"attributes":{"ID":53455,"DIS_CODE":0,"TOWNNAME":"善化區","LI":"嘉北里","LIN":"1鄰","STREET":" ","SECT":" ","MAREA":"茄拔","LANE":" ","ALLEY":" ","HOUSE_NO":"６號之１５（該建物係","E_COORD97":181329.76000000001,"N_COORD97":2560001.6600000001,"ADDRESS":"茄拔６號之１５（該建物係為農業設施不得設籍）","OBJECTID":53455},"geometry":{"x":181329.75999999978,"y":2560001.6600000001}},{"attributes":{"ID":53456,"DIS_CODE":0,"TOWNNAME":"善化區","LI":"牛庄里","LIN":"1鄰","STREET":" ","SECT":" ","MAREA":"牛庄","LANE":" ","ALLEY":" ","HOUSE_NO":"４號之１０","E_COORD97":180177.32000000001,"N_COORD97":2559748.75,"ADDRESS":"牛庄４號之１０","OBJECTID":53456},"geometry":{"x":180177.3200000003,"y":2559748.7500000019}},{"attributes":{"ID":53457,"DIS_CODE":0,"TOWNNAME":"善化區","LI":"牛庄里","LIN":"1鄰","STREET":" ","SECT":" ","MAREA":"牛庄","LANE":" ","ALLEY":" ","HOUSE_NO":"４號之１１","E_COORD97":180173.34,"N_COORD97":2559749.0699999998,"ADDRESS":"牛庄４號之１１","OBJECTID":53457},"geometry":{"x":180173.33999999985,"y":2559749.0700000022}},{"attributes":{"ID":53458,"DIS_CODE":0,"TOWNNAME":"安南區","LI":"州南里","LIN":"1鄰","STREET":"安和路","SECT":"四段","MAREA":" ","LANE":"４０６巷","ALLEY":"１２弄","HOUSE_NO":"２１號","E_COORD97":170022.47,"N_COORD97":2550980.6899999999,"ADDRESS":"安和路四段４０６巷１２弄２１號","OBJECTID":53458},"geometry":{"x":170022.47000000067,"y":2550980.6900000013}},{"attributes":{"ID":53459,"DIS_CODE":0,"TOWNNAME":"善化區","LI":"六德里","LIN":"1鄰","STREET":" ","SECT":" ","MAREA":"六分寮","LANE":" ","ALLEY":" ","HOUSE_NO":"２００號之９","E_COORD97":178897.76000000001,"N_COORD97":2561685.3999999999,"ADDRESS":"六分寮２００號之９","OBJECTID":53459},"geometry":{"x":178897.76000000164,"y":2561685.4000000004}},{"attributes":{"ID":53460,"DIS_CODE":0,"TOWNNAME":"善化區","LI":"田寮里","LIN":"1鄰","STREET":" ","SECT":" ","MAREA":"六分寮","LANE":" ","ALLEY":" ","HOUSE_NO":"１８號之１","E_COORD97":178349.82000000001,"N_COORD97":2561343.1400000001,"ADDRESS":"六分寮１８號之１","OBJECTID":53460},"geometry":{"x":178349.8200000003,"y":2561343.1400000025}},{"attributes":{"ID":53461,"DIS_CODE":0,"TOWNNAME":"中西區","LI":"西湖里","LIN":"8鄰","STREET":"民權路","SECT":"四段","MAREA":" ","LANE":"１１２巷","ALLEY":" ","HOUSE_NO":"９號","E_COORD97":166265.01999999999,"N_COORD97":2544471.6000000001,"ADDRESS":"民權路四段１１２巷９號","OBJECTID":53461},"geometry":{"x":166265.02000000142,"y":2544471.6000000015}},{"attributes":{"ID":53462,"DIS_CODE":0,"TOWNNAME":"仁德區","LI":"太子里","LIN":"8鄰","STREET":"太子路","SECT":" ","MAREA":" ","LANE":" ","ALLEY":" ","HOUSE_NO":"１８６號","E_COORD97":174335.45999999999,"N_COORD97":2543517.2599999998,"ADDRESS":"太子路１８６號","OBJECTID":53462},"geometry":{"x":174335.46000000089,"y":2543517.2600000035}},{"attributes":{"ID":53463,"DIS_CODE":0,"TOWNNAME":"善化區","LI":"什乃里","LIN":"1鄰","STREET":" ","SECT":" ","MAREA":"什乃","LANE":" ","ALLEY":" ","HOUSE_NO":"１５號之１０","E_COORD97":176210.37,"N_COORD97":2560553.9399999999,"ADDRESS":"什乃１５號之１０","OBJECTID":53463},"geometry":{"x":176210.37000000011,"y":2560553.9399999995}},{"attributes":{"ID":53464,"DIS_CODE":0,"TOWNNAME":"善化區","LI":"什乃里","LIN":"1鄰","STREET":" ","SECT":" ","MAREA":"什乃","LANE":" ","ALLEY":" ","HOUSE_NO":"１５號之１８","E_COORD97":176249.57000000001,"N_COORD97":2560559.1400000001,"ADDRESS":"什乃１５號之１８","OBJECTID":53464},"geometry":{"x":176249.5700000003,"y":2560559.1400000025}},{"attributes":{"ID":53465,"DIS_CODE":0,"TOWNNAME":"善化區","LI":"什乃里","LIN":"1鄰","STREET":" ","SECT":" ","MAREA":"什乃","LANE":" ","ALLEY":" ","HOUSE_NO":"１５號之４４","E_COORD97":176259.51999999999,"N_COORD97":2560500.5899999999,"ADDRESS":"什乃１５號之４４","OBJECTID":53465},"geometry":{"x":176259.51999999955,"y":2560500.5900000036}},{"attributes":{"ID":53466,"DIS_CODE":0,"TOWNNAME":"善化區","LI":"什乃里","LIN":"1鄰","STREET":" ","SECT":" ","MAREA":"什乃","LANE":" ","ALLEY":" ","HOUSE_NO":"１５號之４５","E_COORD97":176263.63,"N_COORD97":2560501.46,"ADDRESS":"什乃１５號之４５","OBJECTID":53466},"geometry":{"x":176263.62999999989,"y":2560501.4600000009}},{"attributes":{"ID":53467,"DIS_CODE":0,"TOWNNAME":"善化區","LI":"什乃里","LIN":"1鄰","STREET":" ","SECT":" ","MAREA":"什乃","LANE":" ","ALLEY":" ","HOUSE_NO":"１號之１２","E_COORD97":176470.438578,"N_COORD97":2560215.1696199998,"ADDRESS":"什乃１號之１２","OBJECTID":53467},"geometry":{"x":176470.43857799936,"y":2560215.1696180012}},{"attributes":{"ID":53468,"DIS_CODE":0,"TOWNNAME":"善化區","LI":"溪美里","LIN":"1鄰","STREET":" ","SECT":" ","MAREA":"溪尾","LANE":" ","ALLEY":" ","HOUSE_NO":"９７５號之１０","E_COORD97":177190.64999999999,"N_COORD97":2560089.6000000001,"ADDRESS":"溪尾９７５號之１０","OBJECTID":53468},"geometry":{"x":177190.6500000013,"y":2560089.5999999996}},{"attributes":{"ID":53469,"DIS_CODE":0,"TOWNNAME":"善化區","LI":"嘉南里","LIN":"1鄰","STREET":" ","SECT":" ","MAREA":"茄拔","LANE":" ","ALLEY":" ","HOUSE_NO":"５９號之３","E_COORD97":181073.60999999999,"N_COORD97":2559465.6000000001,"ADDRESS":"茄拔５９號之３","OBJECTID":53469},"geometry":{"x":181073.61000000034,"y":2559465.5999999996}},{"attributes":{"ID":53470,"DIS_CODE":0,"TOWNNAME":"善化區","LI":"嘉北里","LIN":"1鄰","STREET":" ","SECT":" ","MAREA":"茄拔","LANE":" ","ALLEY":" ","HOUSE_NO":"３號之２４","E_COORD97":181206.09,"N_COORD97":2560129.5699999998,"ADDRESS":"茄拔３號之２４","OBJECTID":53470},"geometry":{"x":181206.08999999892,"y":2560129.5700000022}},{"attributes":{"ID":53471,"DIS_CODE":0,"TOWNNAME":"善化區","LI":"嘉北里","LIN":"1鄰","STREET":" ","SECT":" ","MAREA":"茄拔","LANE":" ","ALLEY":" ","HOUSE_NO":"３號之２６","E_COORD97":181213.97,"N_COORD97":2560127.77,"ADDRESS":"茄拔３號之２６","OBJECTID":53471},"geometry":{"x":181213.97000000067,"y":2560127.7700000014}},{"attributes":{"ID":53472,"DIS_CODE":0,"TOWNNAME":"仁德區","LI":"仁義里","LIN":"8鄰","STREET":"仁義一街","SECT":" ","MAREA":" ","LANE":" ","ALLEY":" ","HOUSE_NO":"１３９號","E_COORD97":173642.17000000001,"N_COORD97":2541192.2599999998,"ADDRESS":"仁義一街１３９號","OBJECTID":53472},"geometry":{"x":173642.17000000086,"y":2541192.2600000016}},{"attributes":{"ID":53473,"DIS_CODE":0,"TOWNNAME":"善化區","LI":"嘉北里","LIN":"1鄰","STREET":" ","SECT":" ","MAREA":"茄拔","LANE":" ","ALLEY":" ","HOUSE_NO":"３號之３０","E_COORD97":181206.26000000001,"N_COORD97":2560153.8799999999,"ADDRESS":"茄拔３號之３０","OBJECTID":53473},"geometry":{"x":181206.25999999978,"y":2560153.879999999}},{"attributes":{"ID":53474,"DIS_CODE":0,"TOWNNAME":"善化區","LI":"嘉北里","LIN":"1鄰","STREET":" ","SECT":" ","MAREA":"茄拔","LANE":" ","ALLEY":" ","HOUSE_NO":"３號之３２","E_COORD97":181218.78,"N_COORD97":2560150.2000000002,"ADDRESS":"茄拔３號之３２","OBJECTID":53474},"geometry":{"x":181218.77999999933,"y":2560150.200000003}},{"attributes":{"ID":53475,"DIS_CODE":0,"TOWNNAME":"善化區","LI":"什乃里","LIN":"1鄰","STREET":" ","SECT":" ","MAREA":"什乃","LANE":" ","ALLEY":" ","HOUSE_NO":"１７之３號","E_COORD97":176197.73000000001,"N_COORD97":2560580.1499999999,"ADDRESS":"什乃１７之３號","OBJECTID":53475},"geometry":{"x":176197.73000000045,"y":2560580.1500000022}},{"attributes":{"ID":53476,"DIS_CODE":0,"TOWNNAME":"善化區","LI":"什乃里","LIN":"1鄰","STREET":" ","SECT":" ","MAREA":"什乃","LANE":" ","ALLEY":" ","HOUSE_NO":"１７之５號","E_COORD97":176196.31,"N_COORD97":2560575.4500000002,"ADDRESS":"什乃１７之５號","OBJECTID":53476},"geometry":{"x":176196.30999999959,"y":2560575.4499999974}},{"attributes":{"ID":53477,"DIS_CODE":0,"TOWNNAME":"善化區","LI":"什乃里","LIN":"1鄰","STREET":" ","SECT":" ","MAREA":"什乃","LANE":" ","ALLEY":" ","HOUSE_NO":"１７之６號","E_COORD97":176212.22,"N_COORD97":2560574.2999999998,"ADDRESS":"什乃１７之６號","OBJECTID":53477},"geometry":{"x":176212.21999999974,"y":2560574.3000000007}},{"attributes":{"ID":53478,"DIS_CODE":0,"TOWNNAME":"仁德區","LI":"仁義里","LIN":"8鄰","STREET":"仁義一街","SECT":" ","MAREA":" ","LANE":" ","ALLEY":" ","HOUSE_NO":"１３５號","E_COORD97":173633.14000000001,"N_COORD97":2541193.0099999998,"ADDRESS":"仁義一街１３５號","OBJECTID":53478},"geometry":{"x":173633.13999999873,"y":2541193.0100000035}},{"attributes":{"ID":53479,"DIS_CODE":0,"TOWNNAME":"善化區","LI":"什乃里","LIN":"1鄰","STREET":" ","SECT":" ","MAREA":"什乃","LANE":" ","ALLEY":" ","HOUSE_NO":"１７之７號","E_COORD97":176217.70999999999,"N_COORD97":2560574.3300000001,"ADDRESS":"什乃１７之７號","OBJECTID":53479},"geometry":{"x":176217.70999999996,"y":2560574.3300000019}},{"attributes":{"ID":53480,"DIS_CODE":0,"TOWNNAME":"善化區","LI":"什乃里","LIN":"1鄰","STREET":" ","SECT":" ","MAREA":"什乃","LANE":" ","ALLEY":" ","HOUSE_NO":"１７之８號","E_COORD97":176222.79999999999,"N_COORD97":2560574.4399999999,"ADDRESS":"什乃１７之８號","OBJECTID":53480},"geometry":{"x":176222.80000000075,"y":2560574.4399999995}},{"attributes":{"ID":53481,"DIS_CODE":0,"TOWNNAME":"善化區","LI":"什乃里","LIN":"1鄰","STREET":" ","SECT":" ","MAREA":"什乃","LANE":" ","ALLEY":" ","HOUSE_NO":"１７之９號","E_COORD97":176227.89000000001,"N_COORD97":2560574.5499999998,"ADDRESS":"什乃１７之９號","OBJECTID":53481},"geometry":{"x":176227.88999999966,"y":2560574.5500000026}},{"attributes":{"ID":53482,"DIS_CODE":0,"TOWNNAME":"善化區","LI":"什乃里","LIN":"1鄰","STREET":" ","SECT":" ","MAREA":"什乃","LANE":" ","ALLEY":" ","HOUSE_NO":"１７之１０號","E_COORD97":176234.69,"N_COORD97":2560577.1899999999,"ADDRESS":"什乃１７之１０號","OBJECTID":53482},"geometry":{"x":176234.69000000134,"y":2560577.1899999995}},{"attributes":{"ID":53483,"DIS_CODE":0,"TOWNNAME":"善化區","LI":"什乃里","LIN":"1鄰","STREET":" ","SECT":" ","MAREA":"什乃","LANE":" ","ALLEY":" ","HOUSE_NO":"１７之１１號","E_COORD97":176225.28,"N_COORD97":2560593.6200000001,"ADDRESS":"什乃１７之１１號","OBJECTID":53483},"geometry":{"x":176225.28000000119,"y":2560593.6200000029}},{"attributes":{"ID":53484,"DIS_CODE":0,"TOWNNAME":"善化區","LI":"東昌里","LIN":"1鄰","STREET":" ","SECT":" ","MAREA":"東勢寮","LANE":" ","ALLEY":" ","HOUSE_NO":"１之２２號","E_COORD97":181262.16,"N_COORD97":2560914.0499999998,"ADDRESS":"東勢寮１之２２號","OBJECTID":53484},"geometry":{"x":181262.16000000108,"y":2560914.0500000007}},{"attributes":{"ID":53485,"DIS_CODE":0,"TOWNNAME":"後壁區","LI":"崁頂里","LIN":"1鄰","STREET":" ","SECT":" ","MAREA":"崁頂","LANE":" ","ALLEY":" ","HOUSE_NO":"９號","E_COORD97":182646.98000000001,"N_COORD97":2586756.7999999998,"ADDRESS":"崁頂９號","OBJECTID":53485},"geometry":{"x":182646.98000000138,"y":2586756.8000000026}},{"attributes":{"ID":53486,"DIS_CODE":0,"TOWNNAME":"安南區","LI":"州南里","LIN":"1鄰","STREET":"安和路","SECT":"四段","MAREA":" ","LANE":"４０６巷","ALLEY":"１２弄","HOUSE_NO":"２２號","E_COORD97":169984.95000000001,"N_COORD97":2550987.0800000001,"ADDRESS":"安和路四段４０６巷１２弄２２號","OBJECTID":53486},"geometry":{"x":169984.95000000019,"y":2550987.0800000001}},{"attributes":{"ID":53487,"DIS_CODE":0,"TOWNNAME":"中西區","LI":"藥王里","LIN":"1鄰","STREET":" ","SECT":" ","MAREA":"協進市場","LANE":" ","ALLEY":" ","HOUSE_NO":"２０號","E_COORD97":167453.01000000001,"N_COORD97":2544384.8399999999,"ADDRESS":"協進市場２０號","OBJECTID":53487},"geometry":{"x":167453.00999999978,"y":2544384.8400000017}},{"attributes":{"ID":53488,"DIS_CODE":0,"TOWNNAME":"中西區","LI":"藥王里","LIN":"1鄰","STREET":" ","SECT":" ","MAREA":"協進市場","LANE":" ","ALLEY":" ","HOUSE_NO":"２１號","E_COORD97":167447.87,"N_COORD97":2544382.3799999999,"ADDRESS":"協進市場２１號","OBJECTID":53488},"geometry":{"x":167447.87000000011,"y":2544382.379999999}},{"attributes":{"ID":53489,"DIS_CODE":0,"TOWNNAME":"中西區","LI":"藥王里","LIN":"1鄰","STREET":" ","SECT":" ","MAREA":"協進市場","LANE":" ","ALLEY":" ","HOUSE_NO":"２２號","E_COORD97":167444.07000000001,"N_COORD97":2544381.27,"ADDRESS":"協進市場２２號","OBJECTID":53489},"geometry":{"x":167444.07000000123,"y":2544381.2700000033}},{"attributes":{"ID":53490,"DIS_CODE":0,"TOWNNAME":"安南區","LI":"州南里","LIN":"1鄰","STREET":"安和路","SECT":"四段","MAREA":" ","LANE":"４０６巷","ALLEY":"１２弄","HOUSE_NO":"２３號","E_COORD97":170016.42000000001,"N_COORD97":2550981.8999999999,"ADDRESS":"安和路四段４０６巷１２弄２３號","OBJECTID":53490},"geometry":{"x":170016.42000000086,"y":2550981.9000000004}},{"attributes":{"ID":53491,"DIS_CODE":0,"TOWNNAME":"中西區","LI":"藥王里","LIN":"1鄰","STREET":" ","SECT":" ","MAREA":"協進市場","LANE":" ","ALLEY":" ","HOUSE_NO":"２３號","E_COORD97":167441.31,"N_COORD97":2544380.6699999999,"ADDRESS":"協進市場２３號","OBJECTID":53491},"geometry":{"x":167441.31000000052,"y":2544380.6700000018}},{"attributes":{"ID":53492,"DIS_CODE":0,"TOWNNAME":"中西區","LI":"藥王里","LIN":"1鄰","STREET":" ","SECT":" ","MAREA":"協進市場","LANE":" ","ALLEY":" ","HOUSE_NO":"２４號","E_COORD97":167438.39999999999,"N_COORD97":2544379.6299999999,"ADDRESS":"協進市場２４號","OBJECTID":53492},"geometry":{"x":167438.4000000013,"y":2544379.6300000008}},{"attributes":{"ID":53493,"DIS_CODE":0,"TOWNNAME":"安南區","LI":"州南里","LIN":"1鄰","STREET":"安和路","SECT":"四段","MAREA":" ","LANE":"４０６巷","ALLEY":"１２弄","HOUSE_NO":"２４號","E_COORD97":169990.48000000001,"N_COORD97":2550986.7400000002,"ADDRESS":"安和路四段４０６巷１２弄２４號","OBJECTID":53493},"geometry":{"x":169990.48000000231,"y":2550986.7400000039}},{"attributes":{"ID":53494,"DIS_CODE":0,"TOWNNAME":"安南區","LI":"州南里","LIN":"1鄰","STREET":"安和路","SECT":"四段","MAREA":" ","LANE":"４０６巷","ALLEY":"１２弄","HOUSE_NO":"２５號","E_COORD97":170010.89000000001,"N_COORD97":2550983.1099999999,"ADDRESS":"安和路四段４０６巷１２弄２５號","OBJECTID":53494},"geometry":{"x":170010.8900000006,"y":2550983.1099999975}},{"attributes":{"ID":53495,"DIS_CODE":0,"TOWNNAME":"安南區","LI":"州南里","LIN":"1鄰","STREET":"安和路","SECT":"四段","MAREA":" ","LANE":"４０６巷","ALLEY":"１２弄","HOUSE_NO":"２號","E_COORD97":169983.39000000001,"N_COORD97":2551012.7599999998,"ADDRESS":"安和路四段４０６巷１２弄２號","OBJECTID":53495},"geometry":{"x":169983.38999999873,"y":2551012.7599999998}},{"attributes":{"ID":53496,"DIS_CODE":0,"TOWNNAME":"安南區","LI":"州南里","LIN":"1鄰","STREET":"安和路","SECT":"四段","MAREA":" ","LANE":"４０６巷","ALLEY":"１２弄","HOUSE_NO":"３號","E_COORD97":170009.01000000001,"N_COORD97":2551036.3900000001,"ADDRESS":"安和路四段４０６巷１２弄３號","OBJECTID":53496},"geometry":{"x":170009.01000000071,"y":2551036.3900000006}},{"attributes":{"ID":53497,"DIS_CODE":0,"TOWNNAME":"安南區","LI":"州南里","LIN":"1鄰","STREET":"安和路","SECT":"四段","MAREA":" ","LANE":"４０６巷","ALLEY":"１２弄","HOUSE_NO":"４號","E_COORD97":169983.51000000001,"N_COORD97":2551016.5699999998,"ADDRESS":"安和路四段４０６巷１２弄４號","OBJECTID":53497},"geometry":{"x":169983.51000000071,"y":2551016.5700000022}},{"attributes":{"ID":53498,"DIS_CODE":0,"TOWNNAME":"安南區","LI":"州南里","LIN":"1鄰","STREET":"安和路","SECT":"四段","MAREA":" ","LANE":"４０６巷","ALLEY":"１２弄","HOUSE_NO":"５號","E_COORD97":170008.79999999999,"N_COORD97":2551029.3100000001,"ADDRESS":"安和路四段４０６巷１２弄５號","OBJECTID":53498},"geometry":{"x":170008.80000000075,"y":2551029.3100000005}},{"attributes":{"ID":53499,"DIS_CODE":0,"TOWNNAME":"安南區","LI":"州南里","LIN":"1鄰","STREET":"安和路","SECT":"四段","MAREA":" ","LANE":"４０６巷","ALLEY":"１２弄","HOUSE_NO":"６號","E_COORD97":169983.39000000001,"N_COORD97":2551021.3300000001,"ADDRESS":"安和路四段４０６巷１２弄６號","OBJECTID":53499},"geometry":{"x":169983.38999999873,"y":2551021.3300000019}},{"attributes":{"ID":53500,"DIS_CODE":0,"TOWNNAME":"安南區","LI":"州南里","LIN":"1鄰","STREET":"安和路","SECT":"四段","MAREA":" ","LANE":"４０６巷","ALLEY":"１２弄","HOUSE_NO":"７號","E_COORD97":170009.64000000001,"N_COORD97":2551024.9399999999,"ADDRESS":"安和路四段４０６巷１２弄７號","OBJECTID":53500},"geometry":{"x":170009.6400000006,"y":2551024.9399999995}},{"attributes":{"ID":53501,"DIS_CODE":0,"TOWNNAME":"安南區","LI":"州南里","LIN":"1鄰","STREET":"安和路","SECT":"四段","MAREA":" ","LANE":"４０６巷","ALLEY":"１２弄","HOUSE_NO":"８號","E_COORD97":169983.03,"N_COORD97":2551025.3799999999,"ADDRESS":"安和路四段４０６巷１２弄８號","OBJECTID":53501},"geometry":{"x":169983.02999999933,"y":2551025.3800000008}},{"attributes":{"ID":53502,"DIS_CODE":0,"TOWNNAME":"安南區","LI":"州南里","LIN":"1鄰","STREET":"安和路","SECT":"四段","MAREA":" ","LANE":"４０６巷","ALLEY":"１２弄","HOUSE_NO":"９號","E_COORD97":170010.67999999999,"N_COORD97":2551017.23,"ADDRESS":"安和路四段４０６巷１２弄９號","OBJECTID":53502},"geometry":{"x":170010.68000000063,"y":2551017.2300000004}},{"attributes":{"ID":53503,"DIS_CODE":0,"TOWNNAME":"安南區","LI":"州南里","LIN":"1鄰","STREET":"安和路","SECT":"四段","MAREA":" ","LANE":"４０６巷","ALLEY":"９弄","HOUSE_NO":"１０號","E_COORD97":170008.70000000001,"N_COORD97":2551083.4300000002,"ADDRESS":"安和路四段４０６巷９弄１０號","OBJECTID":53503},"geometry":{"x":170008.70000000019,"y":2551083.4300000034}},{"attributes":{"ID":53504,"DIS_CODE":0,"TOWNNAME":"安南區","LI":"州南里","LIN":"1鄰","STREET":"安和路","SECT":"四段","MAREA":" ","LANE":"４０６巷","ALLEY":"９弄","HOUSE_NO":"１１號","E_COORD97":169989.48999999999,"N_COORD97":2551104.6899999999,"ADDRESS":"安和路四段４０６巷９弄１１號","OBJECTID":53504},"geometry":{"x":169989.49000000022,"y":2551104.6899999976}},{"attributes":{"ID":53505,"DIS_CODE":0,"TOWNNAME":"新市區","LI":"社內里","LIN":"8鄰","STREET":" ","SECT":" ","MAREA":"社內","LANE":" ","ALLEY":" ","HOUSE_NO":"７７之２０號","E_COORD97":176659.07999999999,"N_COORD97":2553034.71,"ADDRESS":"社內７７之２０號","OBJECTID":53505},"geometry":{"x":176659.08000000101,"y":2553034.7100000009}},{"attributes":{"ID":53506,"DIS_CODE":0,"TOWNNAME":"安南區","LI":"州南里","LIN":"1鄰","STREET":"安和路","SECT":"四段","MAREA":" ","LANE":"４０６巷","ALLEY":"９弄","HOUSE_NO":"１２號","E_COORD97":170011.73999999999,"N_COORD97":2551087.6200000001,"ADDRESS":"安和路四段４０６巷９弄１２號","OBJECTID":53506},"geometry":{"x":170011.74000000022,"y":2551087.6200000029}},{"attributes":{"ID":53507,"DIS_CODE":0,"TOWNNAME":"仁德區","LI":"仁德里","LIN":"8鄰","STREET":"仁德三街","SECT":" ","MAREA":" ","LANE":"５０巷","ALLEY":" ","HOUSE_NO":"１號","E_COORD97":173195.84,"N_COORD97":2540999.5099999998,"ADDRESS":"仁德三街５０巷１號","OBJECTID":53507},"geometry":{"x":173195.83999999985,"y":2540999.5099999979}},{"attributes":{"ID":53508,"DIS_CODE":0,"TOWNNAME":"仁德區","LI":"土庫里","LIN":"8鄰","STREET":"土庫六街","SECT":" ","MAREA":" ","LANE":" ","ALLEY":" ","HOUSE_NO":"３７號","E_COORD97":174213.62,"N_COORD97":2543257.9900000002,"ADDRESS":"土庫六街３７號","OBJECTID":53508},"geometry":{"x":174213.62000000197,"y":2543257.9900000002}},{"attributes":{"ID":53509,"DIS_CODE":0,"TOWNNAME":"仁德區","LI":"土庫里","LIN":"8鄰","STREET":"土庫路","SECT":" ","MAREA":" ","LANE":" ","ALLEY":" ","HOUSE_NO":"５６號","E_COORD97":174242.88,"N_COORD97":2543211.5,"ADDRESS":"土庫路５６號","OBJECTID":53509},"geometry":{"x":174242.88000000082,"y":2543211.5000000019}},{"attributes":{"ID":53510,"DIS_CODE":0,"TOWNNAME":"仁德區","LI":"仁義里","LIN":"8鄰","STREET":"中山路","SECT":" ","MAREA":" ","LANE":" ","ALLEY":" ","HOUSE_NO":"４７９號","E_COORD97":173635.14999999999,"N_COORD97":2541270.75,"ADDRESS":"中山路４７９號","OBJECTID":53510},"geometry":{"x":173635.15000000037,"y":2541270.7500000019}},{"attributes":{"ID":53511,"DIS_CODE":0,"TOWNNAME":"仁德區","LI":"仁義里","LIN":"8鄰","STREET":"中清路","SECT":" ","MAREA":" ","LANE":" ","ALLEY":" ","HOUSE_NO":"７９號","E_COORD97":173697.01999999999,"N_COORD97":2541247.7999999998,"ADDRESS":"中清路７９號","OBJECTID":53511},"geometry":{"x":173697.02000000048,"y":2541247.8000000026}},{"attributes":{"ID":53512,"DIS_CODE":0,"TOWNNAME":"善化區","LI":"嘉北里","LIN":"8鄰","STREET":" ","SECT":" ","MAREA":"茄拔","LANE":" ","ALLEY":" ","HOUSE_NO":"１７８號","E_COORD97":181104.09,"N_COORD97":2560000.0099999998,"ADDRESS":"茄拔１７８號","OBJECTID":53512},"geometry":{"x":181104.08999999985,"y":2560000.0100000016}},{"attributes":{"ID":53513,"DIS_CODE":0,"TOWNNAME":"安南區","LI":"州南里","LIN":"1鄰","STREET":"安和路","SECT":"四段","MAREA":" ","LANE":"４０６巷","ALLEY":"９弄","HOUSE_NO":"１３號","E_COORD97":169989.48999999999,"N_COORD97":2551111.8199999998,"ADDRESS":"安和路四段４０６巷９弄１３號","OBJECTID":53513},"geometry":{"x":169989.49000000022,"y":2551111.820000004}},{"attributes":{"ID":53514,"DIS_CODE":0,"TOWNNAME":"安南區","LI":"州南里","LIN":"1鄰","STREET":"安和路","SECT":"四段","MAREA":" ","LANE":"４０６巷","ALLEY":"９弄","HOUSE_NO":"１５號","E_COORD97":169990.01999999999,"N_COORD97":2551117.3900000001,"ADDRESS":"安和路四段４０６巷９弄１５號","OBJECTID":53514},"geometry":{"x":169990.02000000048,"y":2551117.3900000006}},{"attributes":{"ID":53515,"DIS_CODE":0,"TOWNNAME":"安南區","LI":"州南里","LIN":"1鄰","STREET":"安和路","SECT":"四段","MAREA":" ","LANE":"４０６巷","ALLEY":"９弄","HOUSE_NO":"３號","E_COORD97":169983.92000000001,"N_COORD97":2551080.9900000002,"ADDRESS":"安和路四段４０６巷９弄３號","OBJECTID":53515},"geometry":{"x":169983.92000000086,"y":2551080.9900000021}},{"attributes":{"ID":53516,"DIS_CODE":0,"TOWNNAME":"永康區","LI":"二王里","LIN":"1鄰","STREET":"二王路","SECT":" ","MAREA":" ","LANE":"２７巷","ALLEY":"２２弄","HOUSE_NO":"４３號","E_COORD97":173105.15265999999,"N_COORD97":2546688.9974600002,"ADDRESS":"二王路２７巷２２弄４３號","OBJECTID":53516},"geometry":{"x":173105.15266000014,"y":2546688.9974559974}},{"attributes":{"ID":53517,"DIS_CODE":0,"TOWNNAME":"安南區","LI":"州南里","LIN":"1鄰","STREET":"安和路","SECT":"四段","MAREA":" ","LANE":"４０６巷","ALLEY":"９弄","HOUSE_NO":"５號","E_COORD97":169985.48999999999,"N_COORD97":2551088.1200000001,"ADDRESS":"安和路四段４０６巷９弄５號","OBJECTID":53517},"geometry":{"x":169985.49000000115,"y":2551088.1200000029}},{"attributes":{"ID":53518,"DIS_CODE":0,"TOWNNAME":"安南區","LI":"州南里","LIN":"1鄰","STREET":"安和路","SECT":"四段","MAREA":" ","LANE":"４０６巷","ALLEY":"９弄","HOUSE_NO":"７號","E_COORD97":169988.62,"N_COORD97":2551093.5600000001,"ADDRESS":"安和路四段４０６巷９弄７號","OBJECTID":53518},"geometry":{"x":169988.62000000011,"y":2551093.5600000042}},{"attributes":{"ID":53519,"DIS_CODE":0,"TOWNNAME":"安南區","LI":"州南里","LIN":"1鄰","STREET":"安和路","SECT":"四段","MAREA":" ","LANE":"４０６巷","ALLEY":"９弄","HOUSE_NO":"８號","E_COORD97":170009.39999999999,"N_COORD97":2551075.96,"ADDRESS":"安和路四段４０６巷９弄８號","OBJECTID":53519},"geometry":{"x":170009.40000000037,"y":2551075.9600000009}},{"attributes":{"ID":53520,"DIS_CODE":0,"TOWNNAME":"安南區","LI":"州南里","LIN":"1鄰","STREET":"安和路","SECT":"四段","MAREA":" ","LANE":"４０６巷","ALLEY":"９弄","HOUSE_NO":"９號","E_COORD97":169988.45000000001,"N_COORD97":2551098.7799999998,"ADDRESS":"安和路四段４０６巷９弄９號","OBJECTID":53520},"geometry":{"x":169988.45000000019,"y":2551098.7800000012}},{"attributes":{"ID":53521,"DIS_CODE":0,"TOWNNAME":"安南區","LI":"砂崙里","LIN":"1鄰","STREET":"城北路","SECT":" ","MAREA":" ","LANE":"８７１巷","ALLEY":"８７弄","HOUSE_NO":"２７號","E_COORD97":160663.01999999999,"N_COORD97":2553162.6499999999,"ADDRESS":"城北路８７１巷８７弄２７號","OBJECTID":53521},"geometry":{"x":160663.02000000048,"y":2553162.6500000004}},{"attributes":{"ID":53522,"DIS_CODE":0,"TOWNNAME":"南區","LI":"再興里","LIN":"13鄰","STREET":"三官路","SECT":" ","MAREA":" ","LANE":"１７６巷","ALLEY":"５弄","HOUSE_NO":"１８號","E_COORD97":167153.51000000001,"N_COORD97":2542051.8900000001,"ADDRESS":"三官路１７６巷５弄１８號","OBJECTID":53522},"geometry":{"x":167153.51000000164,"y":2542051.8900000006}},{"attributes":{"ID":53523,"DIS_CODE":0,"TOWNNAME":"永康區","LI":"尚頂里","LIN":"1鄰","STREET":"中正南路","SECT":" ","MAREA":" ","LANE":"３０６巷","ALLEY":"３３弄","HOUSE_NO":"１號","E_COORD97":170832.92000000001,"N_COORD97":2547716.52,"ADDRESS":"中正南路３０６巷３３弄１號","OBJECTID":53523},"geometry":{"x":170832.92000000179,"y":2547716.5200000014}},{"attributes":{"ID":53524,"DIS_CODE":0,"TOWNNAME":"永康區","LI":"中興里","LIN":"1鄰","STREET":"忠孝路","SECT":" ","MAREA":" ","LANE":"２３９巷","ALLEY":"９弄","HOUSE_NO":"７號","E_COORD97":172046.79000000001,"N_COORD97":2545010.2400000002,"ADDRESS":"忠孝路２３９巷９弄７號","OBJECTID":53524},"geometry":{"x":172046.79000000004,"y":2545010.2400000021}},{"attributes":{"ID":53525,"DIS_CODE":0,"TOWNNAME":"永康區","LI":"尚頂里","LIN":"1鄰","STREET":"中正南路","SECT":" ","MAREA":" ","LANE":"３０６巷","ALLEY":"３３弄","HOUSE_NO":"１０號","E_COORD97":170888.81,"N_COORD97":2547697.25,"ADDRESS":"中正南路３０６巷３３弄１０號","OBJECTID":53525},"geometry":{"x":170888.80999999959,"y":2547697.25}},{"attributes":{"ID":53526,"DIS_CODE":0,"TOWNNAME":"永康區","LI":"永康里","LIN":"1鄰","STREET":"中山北路","SECT":" ","MAREA":" ","LANE":"３５巷","ALLEY":"３６弄","HOUSE_NO":"１號","E_COORD97":173911.39999999999,"N_COORD97":2547538.9900000002,"ADDRESS":"中山北路３５巷３６弄１號","OBJECTID":53526},"geometry":{"x":173911.40000000037,"y":2547538.9900000002}},{"attributes":{"ID":53527,"DIS_CODE":0,"TOWNNAME":"永康區","LI":"正強里","LIN":"1鄰","STREET":"中正路","SECT":" ","MAREA":" ","LANE":"１巷","ALLEY":"１弄","HOUSE_NO":"１８號","E_COORD97":173711.01999999999,"N_COORD97":2547593.75,"ADDRESS":"中正路１巷１弄１８號","OBJECTID":53527},"geometry":{"x":173711.02000000048,"y":2547593.7500000019}},{"attributes":{"ID":53528,"DIS_CODE":0,"TOWNNAME":"永康區","LI":"甲頂里","LIN":"1鄰","STREET":"南台街","SECT":" ","MAREA":" ","LANE":"１３５巷","ALLEY":"１弄","HOUSE_NO":"１５號","E_COORD97":169995.63,"N_COORD97":2547002.2400000002,"ADDRESS":"南台街１３５巷１弄１５號","OBJECTID":53528},"geometry":{"x":169995.63000000175,"y":2547002.2400000002}},{"attributes":{"ID":53529,"DIS_CODE":0,"TOWNNAME":"南區","LI":"文華里","LIN":"8鄰","STREET":"金華路","SECT":"二段","MAREA":" ","LANE":"３４５巷","ALLEY":"２６弄","HOUSE_NO":"１０號","E_COORD97":167056.63,"N_COORD97":2542988.5099999998,"ADDRESS":"金華路二段３４５巷２６弄１０號","OBJECTID":53529},"geometry":{"x":167056.63000000082,"y":2542988.5099999998}},{"attributes":{"ID":53530,"DIS_CODE":0,"TOWNNAME":"南區","LI":"文華里","LIN":"8鄰","STREET":"金華路","SECT":"二段","MAREA":" ","LANE":"３４５巷","ALLEY":"２６弄","HOUSE_NO":"２０號","E_COORD97":167058.34,"N_COORD97":2543011.75,"ADDRESS":"金華路二段３４５巷２６弄２０號","OBJECTID":53530},"geometry":{"x":167058.34000000078,"y":2543011.75}},{"attributes":{"ID":53531,"DIS_CODE":0,"TOWNNAME":"南區","LI":"文華里","LIN":"8鄰","STREET":"金華路","SECT":"二段","MAREA":" ","LANE":"３４５巷","ALLEY":"２６弄","HOUSE_NO":"８號","E_COORD97":167056.17999999999,"N_COORD97":2542982.3100000001,"ADDRESS":"金華路二段３４５巷２６弄８號","OBJECTID":53531},"geometry":{"x":167056.18000000063,"y":2542982.3100000024}},{"attributes":{"ID":53532,"DIS_CODE":0,"TOWNNAME":"永康區","LI":"甲頂里","LIN":"1鄰","STREET":"南台街","SECT":" ","MAREA":" ","LANE":"１３５巷","ALLEY":"３弄","HOUSE_NO":"３５號","E_COORD97":170143.26999999999,"N_COORD97":2546834,"ADDRESS":"南台街１３５巷３弄３５號","OBJECTID":53532},"geometry":{"x":170143.26999999955,"y":2546834}},{"attributes":{"ID":53533,"DIS_CODE":0,"TOWNNAME":"南區","LI":"光明里","LIN":"5鄰","STREET":"鹽埕路","SECT":" ","MAREA":" ","LANE":"２９１巷","ALLEY":"１４弄","HOUSE_NO":"１４５號","E_COORD97":166731.67000000001,"N_COORD97":2541503.7999999998,"ADDRESS":"鹽埕路２９１巷１４弄１４５號","OBJECTID":53533},"geometry":{"x":166731.66999999993,"y":2541503.7999999989}},{"attributes":{"ID":53534,"DIS_CODE":0,"TOWNNAME":"南區","LI":"光明里","LIN":"5鄰","STREET":"鹽埕路","SECT":" ","MAREA":" ","LANE":"２９１巷","ALLEY":"１４弄","HOUSE_NO":"１４９號","E_COORD97":166739.70000000001,"N_COORD97":2541499.7200000002,"ADDRESS":"鹽埕路２９１巷１４弄１４９號","OBJECTID":53534},"geometry":{"x":166739.70000000112,"y":2541499.7200000007}},{"attributes":{"ID":53535,"DIS_CODE":0,"TOWNNAME":"永康區","LI":"正強里","LIN":"1鄰","STREET":"中正路","SECT":" ","MAREA":" ","LANE":"１巷","ALLEY":"１弄","HOUSE_NO":"４號","E_COORD97":173736.67999999999,"N_COORD97":2547634.9900000002,"ADDRESS":"中正路１巷１弄４號","OBJECTID":53535},"geometry":{"x":173736.68000000063,"y":2547634.9900000002}},{"attributes":{"ID":53536,"DIS_CODE":0,"TOWNNAME":"新市區","LI":"大社里","LIN":"1鄰","STREET":" ","SECT":" ","MAREA":"大社","LANE":" ","ALLEY":" ","HOUSE_NO":"２７號","E_COORD97":180272.23000000001,"N_COORD97":2553795.75,"ADDRESS":"大社２７號","OBJECTID":53536},"geometry":{"x":180272.23000000138,"y":2553795.75}},{"attributes":{"ID":53537,"DIS_CODE":0,"TOWNNAME":"永康區","LI":"甲頂里","LIN":"1鄰","STREET":"南台街","SECT":" ","MAREA":" ","LANE":"１３５巷","ALLEY":"３弄","HOUSE_NO":"２７號","E_COORD97":170145.54999999999,"N_COORD97":2546961.79,"ADDRESS":"南台街１３５巷３弄２７號","OBJECTID":53537},"geometry":{"x":170145.55000000075,"y":2546961.790000001}},{"attributes":{"ID":53538,"DIS_CODE":0,"TOWNNAME":"新市區","LI":"豐華里","LIN":"8鄰","STREET":"活水路","SECT":" ","MAREA":" ","LANE":" ","ALLEY":" ","HOUSE_NO":"１號","E_COORD97":174299.20000000001,"N_COORD97":2556021.8399999999,"ADDRESS":"活水路１號","OBJECTID":53538},"geometry":{"x":174299.20000000019,"y":2556021.8400000017}},{"attributes":{"ID":53539,"DIS_CODE":0,"TOWNNAME":"新市區","LI":"潭頂里","LIN":"8鄰","STREET":" ","SECT":" ","MAREA":"潭頂","LANE":" ","ALLEY":" ","HOUSE_NO":"３２３之１７號","E_COORD97":180773.34,"N_COORD97":2553346.52,"ADDRESS":"潭頂３２３之１７號","OBJECTID":53539},"geometry":{"x":180773.33999999985,"y":2553346.5199999996}},{"attributes":{"ID":53540,"DIS_CODE":0,"TOWNNAME":"善化區","LI":"胡家里","LIN":"8鄰","STREET":" ","SECT":" ","MAREA":"胡厝寮","LANE":" ","ALLEY":" ","HOUSE_NO":"６０號之１","E_COORD97":175468.38,"N_COORD97":2560731.02,"ADDRESS":"胡厝寮６０號之１","OBJECTID":53540},"geometry":{"x":175468.38000000082,"y":2560731.0199999996}},{"attributes":{"ID":53541,"DIS_CODE":0,"TOWNNAME":"善化區","LI":"田寮里","LIN":"8鄰","STREET":" ","SECT":" ","MAREA":"六分寮","LANE":" ","ALLEY":" ","HOUSE_NO":"１０５號之３","E_COORD97":178533.51000000001,"N_COORD97":2561425.02,"ADDRESS":"六分寮１０５號之３","OBJECTID":53541},"geometry":{"x":178533.51000000071,"y":2561425.0199999996}},{"attributes":{"ID":53542,"DIS_CODE":0,"TOWNNAME":"善化區","LI":"田寮里","LIN":"8鄰","STREET":" ","SECT":" ","MAREA":"六分寮","LANE":" ","ALLEY":" ","HOUSE_NO":"１０２號之１","E_COORD97":178569.37,"N_COORD97":2561472.52,"ADDRESS":"六分寮１０２號之１","OBJECTID":53542},"geometry":{"x":178569.37000000011,"y":2561472.5199999996}},{"attributes":{"ID":53543,"DIS_CODE":0,"TOWNNAME":"善化區","LI":"牛庄里","LIN":"8鄰","STREET":" ","SECT":" ","MAREA":"牛庄","LANE":" ","ALLEY":" ","HOUSE_NO":"１３０號","E_COORD97":179953.97,"N_COORD97":2560137.75,"ADDRESS":"牛庄１３０號","OBJECTID":53543},"geometry":{"x":179953.96999999974,"y":2560137.7500000019}},{"attributes":{"ID":53544,"DIS_CODE":0,"TOWNNAME":"善化區","LI":"田寮里","LIN":"8鄰","STREET":" ","SECT":" ","MAREA":"六分寮","LANE":" ","ALLEY":" ","HOUSE_NO":"１０１號之２","E_COORD97":178579.95999999999,"N_COORD97":2561480.27,"ADDRESS":"六分寮１０１號之２","OBJECTID":53544},"geometry":{"x":178579.96000000089,"y":2561480.2700000014}},{"attributes":{"ID":53545,"DIS_CODE":0,"TOWNNAME":"善化區","LI":"牛庄里","LIN":"8鄰","STREET":" ","SECT":" ","MAREA":"牛庄","LANE":" ","ALLEY":" ","HOUSE_NO":"９７之１３號","E_COORD97":179980.5,"N_COORD97":2560133.02,"ADDRESS":"牛庄９７之１３號","OBJECTID":53545},"geometry":{"x":179980.5,"y":2560133.0200000014}},{"attributes":{"ID":53546,"DIS_CODE":0,"TOWNNAME":"善化區","LI":"牛庄里","LIN":"8鄰","STREET":" ","SECT":" ","MAREA":"牛庄","LANE":" ","ALLEY":" ","HOUSE_NO":"９７號之８","E_COORD97":179997.16,"N_COORD97":2560183.77,"ADDRESS":"牛庄９７號之８","OBJECTID":53546},"geometry":{"x":179997.16000000015,"y":2560183.7700000033}},{"attributes":{"ID":53547,"DIS_CODE":0,"TOWNNAME":"善化區","LI":"嘉北里","LIN":"8鄰","STREET":" ","SECT":" ","MAREA":"茄拔","LANE":" ","ALLEY":" ","HOUSE_NO":"１８５之６號","E_COORD97":181065.57000000001,"N_COORD97":2560146.52,"ADDRESS":"茄拔１８５之６號","OBJECTID":53547},"geometry":{"x":181065.5700000003,"y":2560146.5200000014}},{"attributes":{"ID":53548,"DIS_CODE":0,"TOWNNAME":"善化區","LI":"東隆里","LIN":"8鄰","STREET":" ","SECT":" ","MAREA":"東勢寮","LANE":" ","ALLEY":" ","HOUSE_NO":"２０７之１號","E_COORD97":179668.73999999999,"N_COORD97":2561763.52,"ADDRESS":"東勢寮２０７之１號","OBJECTID":53548},"geometry":{"x":179668.74000000115,"y":2561763.5200000014}},{"attributes":{"ID":53549,"DIS_CODE":0,"TOWNNAME":"善化區","LI":"嘉北里","LIN":"8鄰","STREET":" ","SECT":" ","MAREA":"茄拔","LANE":" ","ALLEY":" ","HOUSE_NO":"１８０號之６","E_COORD97":181135.60999999999,"N_COORD97":2560032.77,"ADDRESS":"茄拔１８０號之６","OBJECTID":53549},"geometry":{"x":181135.61000000127,"y":2560032.7700000014}},{"attributes":{"ID":53550,"DIS_CODE":0,"TOWNNAME":"善化區","LI":"東昌里","LIN":"8鄰","STREET":" ","SECT":" ","MAREA":"東勢寮","LANE":" ","ALLEY":" ","HOUSE_NO":"８０號","E_COORD97":180421.29000000001,"N_COORD97":2561909.7599999998,"ADDRESS":"東勢寮８０號","OBJECTID":53550},"geometry":{"x":180421.29000000004,"y":2561909.7600000035}},{"attributes":{"ID":53551,"DIS_CODE":0,"TOWNNAME":"善化區","LI":"嘉北里","LIN":"8鄰","STREET":" ","SECT":" ","MAREA":"茄拔","LANE":" ","ALLEY":" ","HOUSE_NO":"１８０號之７","E_COORD97":181136.39999999999,"N_COORD97":2560037.27,"ADDRESS":"茄拔１８０號之７","OBJECTID":53551},"geometry":{"x":181136.40000000037,"y":2560037.2699999996}},{"attributes":{"ID":53552,"DIS_CODE":0,"TOWNNAME":"善化區","LI":"嘉北里","LIN":"8鄰","STREET":" ","SECT":" ","MAREA":"茄拔","LANE":" ","ALLEY":" ","HOUSE_NO":"１８１號之２１","E_COORD97":181139.92000000001,"N_COORD97":2560137.27,"ADDRESS":"茄拔１８１號之２１","OBJECTID":53552},"geometry":{"x":181139.92000000086,"y":2560137.2700000014}},{"attributes":{"ID":53553,"DIS_CODE":0,"TOWNNAME":"中西區","LI":"藥王里","LIN":"1鄰","STREET":" ","SECT":" ","MAREA":"協進市場","LANE":" ","ALLEY":" ","HOUSE_NO":"２５號","E_COORD97":167435.79999999999,"N_COORD97":2544378.4399999999,"ADDRESS":"協進市場２５號","OBJECTID":53553},"geometry":{"x":167435.79999999981,"y":2544378.4399999995}},{"attributes":{"ID":53554,"DIS_CODE":0,"TOWNNAME":"永康區","LI":"正強里","LIN":"1鄰","STREET":"中正路","SECT":" ","MAREA":" ","LANE":"１巷","ALLEY":"１弄","HOUSE_NO":"８號","E_COORD97":173745.76000000001,"N_COORD97":2547604.4900000002,"ADDRESS":"中正路１巷１弄８號","OBJECTID":53554},"geometry":{"x":173745.75999999978,"y":2547604.4900000002}},{"attributes":{"ID":53555,"DIS_CODE":0,"TOWNNAME":"東區","LI":"小東里","LIN":"1鄰","STREET":"小東路","SECT":" ","MAREA":" ","LANE":"１９８巷","ALLEY":"６弄","HOUSE_NO":"２８號","E_COORD97":170744.98000000001,"N_COORD97":2544463.96,"ADDRESS":"小東路１９８巷６弄２８號","OBJECTID":53555},"geometry":{"x":170744.98000000138,"y":2544463.9600000028}},{"attributes":{"ID":53556,"DIS_CODE":0,"TOWNNAME":"東區","LI":"小東里","LIN":"1鄰","STREET":"小東路","SECT":" ","MAREA":" ","LANE":"１９８巷","ALLEY":"６弄","HOUSE_NO":"３０號","E_COORD97":170740.76999999999,"N_COORD97":2544465.1000000001,"ADDRESS":"小東路１９８巷６弄３０號","OBJECTID":53556},"geometry":{"x":170740.77000000048,"y":2544465.1000000015}},{"attributes":{"ID":53557,"DIS_CODE":0,"TOWNNAME":"東區","LI":"小東里","LIN":"1鄰","STREET":"小東路","SECT":" ","MAREA":" ","LANE":"１９８巷","ALLEY":"６弄","HOUSE_NO":"３２號","E_COORD97":170733.97,"N_COORD97":2544467.9700000002,"ADDRESS":"小東路１９８巷６弄３２號","OBJECTID":53557},"geometry":{"x":170733.9700000016,"y":2544467.9700000007}},{"attributes":{"ID":53558,"DIS_CODE":0,"TOWNNAME":"東區","LI":"小東里","LIN":"1鄰","STREET":"小東路","SECT":" ","MAREA":" ","LANE":"１９８巷","ALLEY":"６弄","HOUSE_NO":"４號","E_COORD97":170815.29000000001,"N_COORD97":2544439.7599999998,"ADDRESS":"小東路１９８巷６弄４號","OBJECTID":53558},"geometry":{"x":170815.2900000019,"y":2544439.7600000016}},{"attributes":{"ID":53559,"DIS_CODE":0,"TOWNNAME":"東區","LI":"小東里","LIN":"1鄰","STREET":"小東路","SECT":" ","MAREA":" ","LANE":"１９８巷","ALLEY":"６弄","HOUSE_NO":"６號","E_COORD97":170811.42999999999,"N_COORD97":2544440.8900000001,"ADDRESS":"小東路１９８巷６弄６號","OBJECTID":53559},"geometry":{"x":170811.4299999997,"y":2544440.8900000025}},{"attributes":{"ID":53560,"DIS_CODE":0,"TOWNNAME":"麻豆區","LI":"中興里","LIN":"8鄰","STREET":"三民路","SECT":" ","MAREA":" ","LANE":" ","ALLEY":" ","HOUSE_NO":"５３號之１７","E_COORD97":172865.19,"N_COORD97":2564437.3500000001,"ADDRESS":"三民路５３號之１７","OBJECTID":53560},"geometry":{"x":172865.19000000041,"y":2564437.3499999996}},{"attributes":{"ID":53561,"DIS_CODE":0,"TOWNNAME":"東區","LI":"小東里","LIN":"1鄰","STREET":"小東路","SECT":" ","MAREA":" ","LANE":"１９８巷","ALLEY":"６弄","HOUSE_NO":"８號","E_COORD97":170807.32999999999,"N_COORD97":2544442.3700000001,"ADDRESS":"小東路１９８巷６弄８號","OBJECTID":53561},"geometry":{"x":170807.33000000007,"y":2544442.370000001}},{"attributes":{"ID":53562,"DIS_CODE":0,"TOWNNAME":"永康區","LI":"永康里","LIN":"1鄰","STREET":"永埔街","SECT":" ","MAREA":" ","LANE":"３３巷","ALLEY":"２８弄","HOUSE_NO":"１號","E_COORD97":173939.12,"N_COORD97":2547538.9900000002,"ADDRESS":"永埔街３３巷２８弄１號","OBJECTID":53562},"geometry":{"x":173939.12000000104,"y":2547538.9900000002}},{"attributes":{"ID":53563,"DIS_CODE":0,"TOWNNAME":"永康區","LI":"甲頂里","LIN":"1鄰","STREET":"南台街","SECT":" ","MAREA":" ","LANE":"１３５巷","ALLEY":"３弄","HOUSE_NO":"５號","E_COORD97":170039.01999999999,"N_COORD97":2546964.5,"ADDRESS":"南台街１３５巷３弄５號","OBJECTID":53563},"geometry":{"x":170039.02000000048,"y":2546964.5000000019}},{"attributes":{"ID":53564,"DIS_CODE":0,"TOWNNAME":"善化區","LI":"胡厝里","LIN":"8鄰","STREET":" ","SECT":" ","MAREA":"胡厝寮","LANE":" ","ALLEY":" ","HOUSE_NO":"２０７號之７","E_COORD97":175331.70999999999,"N_COORD97":2560389.27,"ADDRESS":"胡厝寮２０７號之７","OBJECTID":53564},"geometry":{"x":175331.71000000183,"y":2560389.2699999996}},{"attributes":{"ID":53565,"DIS_CODE":0,"TOWNNAME":"善化區","LI":"嘉北里","LIN":"8鄰","STREET":" ","SECT":" ","MAREA":"茄拔","LANE":" ","ALLEY":" ","HOUSE_NO":"１８１之２號","E_COORD97":181145.60999999999,"N_COORD97":2560072.02,"ADDRESS":"茄拔１８１之２號","OBJECTID":53565},"geometry":{"x":181145.6100000022,"y":2560072.0199999996}},{"attributes":{"ID":53566,"DIS_CODE":0,"TOWNNAME":"善化區","LI":"胡厝里","LIN":"8鄰","STREET":" ","SECT":" ","MAREA":"胡厝寮","LANE":" ","ALLEY":" ","HOUSE_NO":"２０８號","E_COORD97":175327.94,"N_COORD97":2560333.75,"ADDRESS":"胡厝寮２０８號","OBJECTID":53566},"geometry":{"x":175327.94000000134,"y":2560333.7500000037}},{"attributes":{"ID":53567,"DIS_CODE":0,"TOWNNAME":"善化區","LI":"嘉北里","LIN":"8鄰","STREET":" ","SECT":" ","MAREA":"茄拔","LANE":" ","ALLEY":" ","HOUSE_NO":"１８０號之１７","E_COORD97":181117.45000000001,"N_COORD97":2560124.77,"ADDRESS":"茄拔１８０號之１７","OBJECTID":53567},"geometry":{"x":181117.45000000019,"y":2560124.7699999996}},{"attributes":{"ID":53568,"DIS_CODE":0,"TOWNNAME":"善化區","LI":"嘉北里","LIN":"8鄰","STREET":" ","SECT":" ","MAREA":"茄拔","LANE":" ","ALLEY":" ","HOUSE_NO":"１８４號","E_COORD97":181059.59,"N_COORD97":2560072.0099999998,"ADDRESS":"茄拔１８４號","OBJECTID":53568},"geometry":{"x":181059.58999999985,"y":2560072.0100000016}},{"attributes":{"ID":53569,"DIS_CODE":0,"TOWNNAME":"永康區","LI":"北灣里","LIN":"1鄰","STREET":"大灣路","SECT":" ","MAREA":" ","LANE":"１１９巷","ALLEY":"２２弄","HOUSE_NO":"２號","E_COORD97":175185.95000000001,"N_COORD97":2545492.3599999999,"ADDRESS":"大灣路１１９巷２２弄２號","OBJECTID":53569},"geometry":{"x":175185.95000000019,"y":2545492.3599999975}},{"attributes":{"ID":53570,"DIS_CODE":0,"TOWNNAME":"永康區","LI":"北灣里","LIN":"1鄰","STREET":"大灣路","SECT":" ","MAREA":" ","LANE":"１１９巷","ALLEY":"５８弄","HOUSE_NO":"１３號","E_COORD97":175341.56,"N_COORD97":2545493.48,"ADDRESS":"大灣路１１９巷５８弄１３號","OBJECTID":53570},"geometry":{"x":175341.56000000052,"y":2545493.4800000023}},{"attributes":{"ID":53571,"DIS_CODE":0,"TOWNNAME":"麻豆區","LI":"小埤里","LIN":"8鄰","STREET":" ","SECT":" ","MAREA":"小埤頭","LANE":" ","ALLEY":" ","HOUSE_NO":"５８號","E_COORD97":171426.82000000001,"N_COORD97":2565656.5899999999,"ADDRESS":"小埤頭５８號","OBJECTID":53571},"geometry":{"x":171426.8200000003,"y":2565656.5899999999}},{"attributes":{"ID":53572,"DIS_CODE":0,"TOWNNAME":"中西區","LI":"藥王里","LIN":"1鄰","STREET":" ","SECT":" ","MAREA":"協進市場","LANE":" ","ALLEY":" ","HOUSE_NO":"２６號","E_COORD97":167432.44,"N_COORD97":2544377.6899999999,"ADDRESS":"協進市場２６號","OBJECTID":53572},"geometry":{"x":167432.44000000041,"y":2544377.6899999995}},{"attributes":{"ID":53573,"DIS_CODE":0,"TOWNNAME":"安南區","LI":"梅花里","LIN":"1鄰","STREET":"安中路","SECT":"一段","MAREA":" ","LANE":"６１９巷","ALLEY":"９１弄","HOUSE_NO":"８號","E_COORD97":167883.84,"N_COORD97":2548963.04,"ADDRESS":"安中路一段６１９巷９１弄８號","OBJECTID":53573},"geometry":{"x":167883.84000000078,"y":2548963.0400000028}},{"attributes":{"ID":53574,"DIS_CODE":0,"TOWNNAME":"南區","LI":"大忠里","LIN":"19鄰","STREET":"大同路","SECT":"二段","MAREA":" ","LANE":"６４０巷","ALLEY":"１０８弄","HOUSE_NO":"１１號","E_COORD97":169189.26000000001,"N_COORD97":2541057.27,"ADDRESS":"大同路二段６４０巷１０８弄１１號","OBJECTID":53574},"geometry":{"x":169189.25999999978,"y":2541057.2699999996}},{"attributes":{"ID":53575,"DIS_CODE":0,"TOWNNAME":"安南區","LI":"梅花里","LIN":"1鄰","STREET":"安中路","SECT":"一段","MAREA":" ","LANE":"６１９巷","ALLEY":"９１弄","HOUSE_NO":"４號","E_COORD97":167878.95000000001,"N_COORD97":2548954.04,"ADDRESS":"安中路一段６１９巷９１弄４號","OBJECTID":53575},"geometry":{"x":167878.95000000112,"y":2548954.040000001}},{"attributes":{"ID":53576,"DIS_CODE":0,"TOWNNAME":"安南區","LI":"梅花里","LIN":"1鄰","STREET":"安中路","SECT":"一段","MAREA":" ","LANE":"６１９巷","ALLEY":"９１弄","HOUSE_NO":"２號","E_COORD97":167876.98999999999,"N_COORD97":2548949.1499999999,"ADDRESS":"安中路一段６１９巷９１弄２號","OBJECTID":53576},"geometry":{"x":167876.99000000115,"y":2548949.1500000004}},{"attributes":{"ID":53577,"DIS_CODE":0,"TOWNNAME":"中西區","LI":"藥王里","LIN":"1鄰","STREET":" ","SECT":" ","MAREA":"協進市場","LANE":" ","ALLEY":" ","HOUSE_NO":"２７號","E_COORD97":167431.54999999999,"N_COORD97":2544380.6699999999,"ADDRESS":"協進市場２７號","OBJECTID":53577},"geometry":{"x":167431.55000000075,"y":2544380.6700000018}},{"attributes":{"ID":53578,"DIS_CODE":0,"TOWNNAME":"安南區","LI":"梅花里","LIN":"1鄰","STREET":"安中路","SECT":"一段","MAREA":" ","LANE":"６１９巷","ALLEY":"９１弄","HOUSE_NO":"６號","E_COORD97":167880.70999999999,"N_COORD97":2548958.3500000001,"ADDRESS":"安中路一段６１９巷９１弄６號","OBJECTID":53578},"geometry":{"x":167880.70999999996,"y":2548958.3500000015}},{"attributes":{"ID":53579,"DIS_CODE":0,"TOWNNAME":"中西區","LI":"藥王里","LIN":"1鄰","STREET":" ","SECT":" ","MAREA":"協進市場","LANE":" ","ALLEY":" ","HOUSE_NO":"２８號","E_COORD97":167434.31,"N_COORD97":2544381.1899999999,"ADDRESS":"協進市場２８號","OBJECTID":53579},"geometry":{"x":167434.31000000145,"y":2544381.1899999995}},{"attributes":{"ID":53580,"DIS_CODE":0,"TOWNNAME":"中西區","LI":"藥王里","LIN":"1鄰","STREET":" ","SECT":" ","MAREA":"協進市場","LANE":" ","ALLEY":" ","HOUSE_NO":"２９號","E_COORD97":167437.29000000001,"N_COORD97":2544381.79,"ADDRESS":"協進市場２９號","OBJECTID":53580},"geometry":{"x":167437.29000000097,"y":2544381.790000001}},{"attributes":{"ID":53581,"DIS_CODE":0,"TOWNNAME":"善化區","LI":"南關里","LIN":"8鄰","STREET":"三民路","SECT":" ","MAREA":" ","LANE":" ","ALLEY":" ","HOUSE_NO":"１７號之１０","E_COORD97":176987.73000000001,"N_COORD97":2558779.02,"ADDRESS":"三民路１７號之１０","OBJECTID":53581},"geometry":{"x":176987.73000000045,"y":2558779.0200000014}},{"attributes":{"ID":53582,"DIS_CODE":0,"TOWNNAME":"善化區","LI":"南關里","LIN":"8鄰","STREET":"光復路","SECT":" ","MAREA":" ","LANE":" ","ALLEY":" ","HOUSE_NO":"５２０號","E_COORD97":176812.37,"N_COORD97":2558871.0099999998,"ADDRESS":"光復路５２０號","OBJECTID":53582},"geometry":{"x":176812.37000000197,"y":2558871.0100000016}},{"attributes":{"ID":53583,"DIS_CODE":0,"TOWNNAME":"善化區","LI":"南關里","LIN":"8鄰","STREET":"光復路","SECT":" ","MAREA":" ","LANE":" ","ALLEY":" ","HOUSE_NO":"５２２號","E_COORD97":176810.67000000001,"N_COORD97":2558875.0099999998,"ADDRESS":"光復路５２２號","OBJECTID":53583},"geometry":{"x":176810.67000000086,"y":2558875.0100000016}},{"attributes":{"ID":53584,"DIS_CODE":0,"TOWNNAME":"永康區","LI":"蔦松里","LIN":"8鄰","STREET":"中正北路","SECT":" ","MAREA":" ","LANE":" ","ALLEY":" ","HOUSE_NO":"３４８號","E_COORD97":173641.06,"N_COORD97":2549104.5099999998,"ADDRESS":"中正北路３４８號","OBJECTID":53584},"geometry":{"x":173641.06000000052,"y":2549104.5099999998}},{"attributes":{"ID":53585,"DIS_CODE":0,"TOWNNAME":"永康區","LI":"蔦松里","LIN":"8鄰","STREET":"中正北路","SECT":" ","MAREA":" ","LANE":" ","ALLEY":" ","HOUSE_NO":"３４６號","E_COORD97":173593.54000000001,"N_COORD97":2549116.25,"ADDRESS":"中正北路３４６號","OBJECTID":53585},"geometry":{"x":173593.5400000019,"y":2549116.2500000019}},{"attributes":{"ID":53586,"DIS_CODE":0,"TOWNNAME":"永康區","LI":"蔦松里","LIN":"8鄰","STREET":"中正北路","SECT":" ","MAREA":" ","LANE":" ","ALLEY":" ","HOUSE_NO":"４１９號","E_COORD97":173571.72,"N_COORD97":2549148.98,"ADDRESS":"中正北路４１９號","OBJECTID":53586},"geometry":{"x":173571.7200000016,"y":2549148.9800000023}},{"attributes":{"ID":53587,"DIS_CODE":0,"TOWNNAME":"永康區","LI":"蔦松里","LIN":"8鄰","STREET":"中正北路","SECT":" ","MAREA":" ","LANE":" ","ALLEY":" ","HOUSE_NO":"４１９號之１","E_COORD97":173557.76999999999,"N_COORD97":2549148.5499999998,"ADDRESS":"中正北路４１９號之１","OBJECTID":53587},"geometry":{"x":173557.77000000048,"y":2549148.5500000026}},{"attributes":{"ID":53588,"DIS_CODE":0,"TOWNNAME":"永康區","LI":"蔦松里","LIN":"8鄰","STREET":"中正北路","SECT":" ","MAREA":" ","LANE":" ","ALLEY":" ","HOUSE_NO":"４１９號之２","E_COORD97":173562.56,"N_COORD97":2549148.5499999998,"ADDRESS":"中正北路４１９號之２","OBJECTID":53588},"geometry":{"x":173562.56000000145,"y":2549148.5500000026}},{"attributes":{"ID":53589,"DIS_CODE":0,"TOWNNAME":"善化區","LI":"胡厝里","LIN":"8鄰","STREET":" ","SECT":" ","MAREA":"胡厝寮","LANE":" ","ALLEY":" ","HOUSE_NO":"２０７號之６","E_COORD97":175335.85999999999,"N_COORD97":2560391.27,"ADDRESS":"胡厝寮２０７號之６","OBJECTID":53589},"geometry":{"x":175335.86000000034,"y":2560391.2700000014}},{"attributes":{"ID":53590,"DIS_CODE":0,"TOWNNAME":"善化區","LI":"東隆里","LIN":"8鄰","STREET":" ","SECT":" ","MAREA":"東勢寮","LANE":" ","ALLEY":" ","HOUSE_NO":"２０４號之２","E_COORD97":179765.64000000001,"N_COORD97":2561741.77,"ADDRESS":"東勢寮２０４號之２","OBJECTID":53590},"geometry":{"x":179765.63999999966,"y":2561741.7699999996}},{"attributes":{"ID":53591,"DIS_CODE":0,"TOWNNAME":"善化區","LI":"嘉北里","LIN":"8鄰","STREET":" ","SECT":" ","MAREA":"茄拔","LANE":" ","ALLEY":" ","HOUSE_NO":"１８１號","E_COORD97":181143.09,"N_COORD97":2560044.5099999998,"ADDRESS":"茄拔１８１號","OBJECTID":53591},"geometry":{"x":181143.08999999985,"y":2560044.5100000016}},{"attributes":{"ID":53592,"DIS_CODE":0,"TOWNNAME":"安南區","LI":"梅花里","LIN":"1鄰","STREET":"安中路","SECT":"一段","MAREA":" ","LANE":"６１９巷","ALLEY":"９１弄","HOUSE_NO":"１號","E_COORD97":167866.79999999999,"N_COORD97":2548961.2799999998,"ADDRESS":"安中路一段６１９巷９１弄１號","OBJECTID":53592},"geometry":{"x":167866.79999999981,"y":2548961.2799999975}},{"attributes":{"ID":53593,"DIS_CODE":0,"TOWNNAME":"安南區","LI":"州北里","LIN":"1鄰","STREET":"安和路","SECT":"五段","MAREA":" ","LANE":"８１巷","ALLEY":"４０弄","HOUSE_NO":"２９號之６","E_COORD97":169777.29999999999,"N_COORD97":2551715.3599999999,"ADDRESS":"安和路五段８１巷４０弄２９號之６","OBJECTID":53593},"geometry":{"x":169777.29999999888,"y":2551715.3600000013}},{"attributes":{"ID":53594,"DIS_CODE":0,"TOWNNAME":"善化區","LI":"東昌里","LIN":"8鄰","STREET":" ","SECT":" ","MAREA":"東勢寮","LANE":" ","ALLEY":" ","HOUSE_NO":"８４號之１","E_COORD97":180453.47,"N_COORD97":2561965.77,"ADDRESS":"東勢寮８４號之１","OBJECTID":53594},"geometry":{"x":180453.46999999974,"y":2561965.7699999996}},{"attributes":{"ID":53595,"DIS_CODE":0,"TOWNNAME":"善化區","LI":"東昌里","LIN":"8鄰","STREET":" ","SECT":" ","MAREA":"東勢寮","LANE":" ","ALLEY":" ","HOUSE_NO":"８４號之２","E_COORD97":180448.53,"N_COORD97":2561938.27,"ADDRESS":"東勢寮８４號之２","OBJECTID":53595},"geometry":{"x":180448.53000000026,"y":2561938.2700000014}},{"attributes":{"ID":53596,"DIS_CODE":0,"TOWNNAME":"善化區","LI":"胡厝里","LIN":"8鄰","STREET":" ","SECT":" ","MAREA":"胡厝寮","LANE":" ","ALLEY":" ","HOUSE_NO":"２１１號","E_COORD97":175266.32999999999,"N_COORD97":2560383.5,"ADDRESS":"胡厝寮２１１號","OBJECTID":53596},"geometry":{"x":175266.33000000007,"y":2560383.5000000019}},{"attributes":{"ID":53597,"DIS_CODE":0,"TOWNNAME":"善化區","LI":"嘉北里","LIN":"8鄰","STREET":" ","SECT":" ","MAREA":"茄拔","LANE":" ","ALLEY":" ","HOUSE_NO":"１８０號之１","E_COORD97":181133.73999999999,"N_COORD97":2560011.02,"ADDRESS":"茄拔１８０號之１","OBJECTID":53597},"geometry":{"x":181133.74000000022,"y":2560011.0199999996}},{"attributes":{"ID":53598,"DIS_CODE":0,"TOWNNAME":"善化區","LI":"東昌里","LIN":"8鄰","STREET":" ","SECT":" ","MAREA":"東勢寮","LANE":" ","ALLEY":" ","HOUSE_NO":"８３之１號","E_COORD97":180460.81,"N_COORD97":2561987.27,"ADDRESS":"東勢寮８３之１號","OBJECTID":53598},"geometry":{"x":180460.81000000052,"y":2561987.2699999996}},{"attributes":{"ID":53599,"DIS_CODE":0,"TOWNNAME":"仁德區","LI":"新田里","LIN":"1鄰","STREET":"新田二街","SECT":" ","MAREA":" ","LANE":"１２０巷","ALLEY":"２２弄","HOUSE_NO":"１７號","E_COORD97":174991.85000000001,"N_COORD97":2539982.2000000002,"ADDRESS":"新田二街１２０巷２２弄１７號","OBJECTID":53599},"geometry":{"x":174991.85000000056,"y":2539982.2000000011}},{"attributes":{"ID":53600,"DIS_CODE":0,"TOWNNAME":"善化區","LI":"胡厝里","LIN":"8鄰","STREET":" ","SECT":" ","MAREA":"胡厝寮","LANE":" ","ALLEY":" ","HOUSE_NO":"２０８之１４號","E_COORD97":175346.70999999999,"N_COORD97":2560221.77,"ADDRESS":"胡厝寮２０８之１４號","OBJECTID":53600},"geometry":{"x":175346.70999999996,"y":2560221.7700000014}}]}