{"displayFieldName":"TOWNNAME","fieldAliases":{"ID":"ID","DIS_CODE":"DIS_CODE","TOWNNAME":"TOWNNAME","LI":"LI","LIN":"LIN","STREET":"STREET","SECT":"SECT","MAREA":"MAREA","LANE":"LANE","ALLEY":"ALLEY","HOUSE_NO":"HOUSE_NO","E_COORD97":"E_COORD97","N_COORD97":"N_COORD97","ADDRESS":"ADDRESS","OBJECTID":"OBJECTID"},"geometryType":"esriGeometryPoint","spatialReference":{"wkid":102443,"latestWkid":3826},"fields":[{"name":"ID","type":"esriFieldTypeDouble","alias":"ID"},{"name":"DIS_CODE","type":"esriFieldTypeInteger","alias":"DIS_CODE"},{"name":"TOWNNAME","type":"esriFieldTypeString","alias":"TOWNNAME","length":8},{"name":"LI","type":"esriFieldTypeString","alias":"LI","length":8},{"name":"LIN","type":"esriFieldTypeString","alias":"LIN","length":12},{"name":"STREET","type":"esriFieldTypeString","alias":"STREET","length":20},{"name":"SECT","type":"esriFieldTypeString","alias":"SECT","length":8},{"name":"MAREA","type":"esriFieldTypeString","alias":"MAREA","length":12},{"name":"LANE","type":"esriFieldTypeString","alias":"LANE","length":10},{"name":"ALLEY","type":"esriFieldTypeString","alias":"ALLEY","length":10},{"name":"HOUSE_NO","type":"esriFieldTypeString","alias":"HOUSE_NO","length":20},{"name":"E_COORD97","type":"esriFieldTypeDouble","alias":"E_COORD97"},{"name":"N_COORD97","type":"esriFieldTypeDouble","alias":"N_COORD97"},{"name":"ADDRESS","type":"esriFieldTypeString","alias":"ADDRESS","length":50},{"name":"OBJECTID","type":"esriFieldTypeOID","alias":"OBJECTID"}],"features":[{"attributes":{"ID":269406,"DIS_CODE":0,"TOWNNAME":"永康區","LI":"埔園里","LIN":"17鄰","STREET":"中山路","SECT":" ","MAREA":" ","LANE":"３８３巷","ALLEY":" ","HOUSE_NO":"５號之３","E_COORD97":173476.04999999999,"N_COORD97":2548492.5499999998,"ADDRESS":"中山路３８３巷５號之３","OBJECTID":269401},"geometry":{"x":173476.04999999981,"y":2548492.5500000007}},{"attributes":{"ID":269407,"DIS_CODE":0,"TOWNNAME":"永康區","LI":"埔園里","LIN":"17鄰","STREET":"龍埔街","SECT":" ","MAREA":" ","LANE":"５６２巷","ALLEY":" ","HOUSE_NO":"４７號","E_COORD97":173415.04999999999,"N_COORD97":2548527,"ADDRESS":"龍埔街５６２巷４７號","OBJECTID":269402},"geometry":{"x":173415.04999999981,"y":2548527.0000000019}},{"attributes":{"ID":269408,"DIS_CODE":0,"TOWNNAME":"永康區","LI":"西勢里","LIN":"17鄰","STREET":"富強路","SECT":"一段","MAREA":" ","LANE":"２３４巷","ALLEY":" ","HOUSE_NO":"１號","E_COORD97":175674.04000000001,"N_COORD97":2546439.5299999998,"ADDRESS":"富強路一段２３４巷１號","OBJECTID":269403},"geometry":{"x":175674.04000000097,"y":2546439.5299999993}},{"attributes":{"ID":269409,"DIS_CODE":0,"TOWNNAME":"永康區","LI":"西勢里","LIN":"17鄰","STREET":"富強路","SECT":"一段","MAREA":" ","LANE":"２５４巷","ALLEY":" ","HOUSE_NO":"６５號","E_COORD97":175805.63,"N_COORD97":2546338.5699999998,"ADDRESS":"富強路一段２５４巷６５號","OBJECTID":269404},"geometry":{"x":175805.63000000082,"y":2546338.5700000003}},{"attributes":{"ID":269410,"DIS_CODE":0,"TOWNNAME":"北區","LI":"光武里","LIN":"3鄰","STREET":"大武街","SECT":" ","MAREA":" ","LANE":" ","ALLEY":" ","HOUSE_NO":"１３０號","E_COORD97":169632.37,"N_COORD97":2545912.6200000001,"ADDRESS":"大武街１３０號","OBJECTID":269405},"geometry":{"x":169632.37000000011,"y":2545912.620000001}},{"attributes":{"ID":269411,"DIS_CODE":0,"TOWNNAME":"鹽水區","LI":"三生里","LIN":"3鄰","STREET":"民生街","SECT":" ","MAREA":" ","LANE":" ","ALLEY":" ","HOUSE_NO":"１７號之１","E_COORD97":175107.04999999999,"N_COORD97":2580131.21,"ADDRESS":"民生街１７號之１","OBJECTID":269406},"geometry":{"x":175107.05000000168,"y":2580131.2100000046}},{"attributes":{"ID":269412,"DIS_CODE":0,"TOWNNAME":"仁德區","LI":"中生里","LIN":"8鄰","STREET":" ","SECT":" ","MAREA":"中洲","LANE":" ","ALLEY":" ","HOUSE_NO":"１５４號","E_COORD97":173116.524771,"N_COORD97":2534213.3262800002,"ADDRESS":"中洲１５４號","OBJECTID":269407},"geometry":{"x":173116.52477100119,"y":2534213.3262820002}},{"attributes":{"ID":269413,"DIS_CODE":0,"TOWNNAME":"鹽水區","LI":"田寮里","LIN":"3鄰","STREET":" ","SECT":" ","MAREA":"田寮","LANE":" ","ALLEY":" ","HOUSE_NO":"２６號","E_COORD97":170898.98999999999,"N_COORD97":2575117.1499999999,"ADDRESS":"田寮２６號","OBJECTID":269408},"geometry":{"x":170898.99000000115,"y":2575117.1500000022}},{"attributes":{"ID":269414,"DIS_CODE":0,"TOWNNAME":"鹽水區","LI":"田寮里","LIN":"3鄰","STREET":" ","SECT":" ","MAREA":"田寮","LANE":" ","ALLEY":" ","HOUSE_NO":"２７號","E_COORD97":170894.26999999999,"N_COORD97":2575075.4700000002,"ADDRESS":"田寮２７號","OBJECTID":269409},"geometry":{"x":170894.26999999955,"y":2575075.4700000025}},{"attributes":{"ID":269415,"DIS_CODE":0,"TOWNNAME":"鹽水區","LI":"田寮里","LIN":"3鄰","STREET":" ","SECT":" ","MAREA":"田寮","LANE":" ","ALLEY":" ","HOUSE_NO":"２８號","E_COORD97":170868.35999999999,"N_COORD97":2575088.9500000002,"ADDRESS":"田寮２８號","OBJECTID":269410},"geometry":{"x":170868.36000000127,"y":2575088.9499999993}},{"attributes":{"ID":269416,"DIS_CODE":0,"TOWNNAME":"鹽水區","LI":"田寮里","LIN":"3鄰","STREET":" ","SECT":" ","MAREA":"田寮","LANE":" ","ALLEY":" ","HOUSE_NO":"２９號","E_COORD97":170841.39000000001,"N_COORD97":2575078.5299999998,"ADDRESS":"田寮２９號","OBJECTID":269411},"geometry":{"x":170841.3900000006,"y":2575078.5299999993}},{"attributes":{"ID":269417,"DIS_CODE":0,"TOWNNAME":"鹽水區","LI":"田寮里","LIN":"3鄰","STREET":" ","SECT":" ","MAREA":"田寮","LANE":" ","ALLEY":" ","HOUSE_NO":"３０號之１","E_COORD97":170865.35000000001,"N_COORD97":2575104.6400000001,"ADDRESS":"田寮３０號之１","OBJECTID":269412},"geometry":{"x":170865.35000000056,"y":2575104.6400000025}},{"attributes":{"ID":269418,"DIS_CODE":0,"TOWNNAME":"永康區","LI":"西勢里","LIN":"17鄰","STREET":"富強路","SECT":"一段","MAREA":" ","LANE":"２３４巷","ALLEY":" ","HOUSE_NO":"２號","E_COORD97":175677.94,"N_COORD97":2546437.2799999998,"ADDRESS":"富強路一段２３４巷２號","OBJECTID":269413},"geometry":{"x":175677.93999999948,"y":2546437.2800000012}},{"attributes":{"ID":269419,"DIS_CODE":0,"TOWNNAME":"永康區","LI":"西橋里","LIN":"17鄰","STREET":"大橋一街","SECT":" ","MAREA":" ","LANE":"３１巷","ALLEY":" ","HOUSE_NO":"４５號","E_COORD97":170578.51999999999,"N_COORD97":2546383.9900000002,"ADDRESS":"大橋一街３１巷４５號","OBJECTID":269414},"geometry":{"x":170578.51999999955,"y":2546383.9899999984}},{"attributes":{"ID":269420,"DIS_CODE":0,"TOWNNAME":"鹽水區","LI":"田寮里","LIN":"3鄰","STREET":" ","SECT":" ","MAREA":"田寮","LANE":" ","ALLEY":" ","HOUSE_NO":"３０號","E_COORD97":170888.79999999999,"N_COORD97":2575098.1800000002,"ADDRESS":"田寮３０號","OBJECTID":269415},"geometry":{"x":170888.79999999981,"y":2575098.1799999997}},{"attributes":{"ID":269421,"DIS_CODE":0,"TOWNNAME":"鹽水區","LI":"田寮里","LIN":"3鄰","STREET":" ","SECT":" ","MAREA":"田寮","LANE":" ","ALLEY":" ","HOUSE_NO":"３１號","E_COORD97":170913.03,"N_COORD97":2575099.27,"ADDRESS":"田寮３１號","OBJECTID":269416},"geometry":{"x":170913.03000000026,"y":2575099.2700000014}},{"attributes":{"ID":269422,"DIS_CODE":0,"TOWNNAME":"鹽水區","LI":"田寮里","LIN":"3鄰","STREET":" ","SECT":" ","MAREA":"田寮","LANE":" ","ALLEY":" ","HOUSE_NO":"３２號","E_COORD97":170932.32999999999,"N_COORD97":2575121.4500000002,"ADDRESS":"田寮３２號","OBJECTID":269417},"geometry":{"x":170932.33000000101,"y":2575121.4500000011}},{"attributes":{"ID":269423,"DIS_CODE":0,"TOWNNAME":"鹽水區","LI":"田寮里","LIN":"3鄰","STREET":" ","SECT":" ","MAREA":"田寮","LANE":" ","ALLEY":" ","HOUSE_NO":"３３號","E_COORD97":170956.48000000001,"N_COORD97":2575132.6800000002,"ADDRESS":"田寮３３號","OBJECTID":269418},"geometry":{"x":170956.48000000045,"y":2575132.6799999978}},{"attributes":{"ID":269424,"DIS_CODE":0,"TOWNNAME":"鹽水區","LI":"田寮里","LIN":"3鄰","STREET":" ","SECT":" ","MAREA":"田寮","LANE":" ","ALLEY":" ","HOUSE_NO":"３４號","E_COORD97":170941.5,"N_COORD97":2575154.27,"ADDRESS":"田寮３４號","OBJECTID":269419},"geometry":{"x":170941.50000000093,"y":2575154.2699999996}},{"attributes":{"ID":269425,"DIS_CODE":0,"TOWNNAME":"鹽水區","LI":"田寮里","LIN":"3鄰","STREET":" ","SECT":" ","MAREA":"田寮","LANE":" ","ALLEY":" ","HOUSE_NO":"３５之１號","E_COORD97":170939.66,"N_COORD97":2575167.9199999999,"ADDRESS":"田寮３５之１號","OBJECTID":269420},"geometry":{"x":170939.66000000015,"y":2575167.9199999999}},{"attributes":{"ID":269426,"DIS_CODE":0,"TOWNNAME":"永康區","LI":"西勢里","LIN":"17鄰","STREET":"富強路","SECT":"一段","MAREA":" ","LANE":"２３４巷","ALLEY":" ","HOUSE_NO":"６號","E_COORD97":175692.48000000001,"N_COORD97":2546428.5299999998,"ADDRESS":"富強路一段２３４巷６號","OBJECTID":269421},"geometry":{"x":175692.48000000045,"y":2546428.5300000012}},{"attributes":{"ID":269427,"DIS_CODE":0,"TOWNNAME":"永康區","LI":"西勢里","LIN":"17鄰","STREET":"富強路","SECT":"一段","MAREA":" ","LANE":"２３４巷","ALLEY":" ","HOUSE_NO":"５號","E_COORD97":175688.39999999999,"N_COORD97":2546430.7799999998,"ADDRESS":"富強路一段２３４巷５號","OBJECTID":269422},"geometry":{"x":175688.40000000224,"y":2546430.7799999993}},{"attributes":{"ID":269428,"DIS_CODE":0,"TOWNNAME":"南區","LI":"建南里","LIN":"17鄰","STREET":"興隆路","SECT":" ","MAREA":" ","LANE":"２４５巷","ALLEY":" ","HOUSE_NO":"５８號","E_COORD97":166801.63,"N_COORD97":2539830.4700000002,"ADDRESS":"興隆路２４５巷５８號","OBJECTID":269423},"geometry":{"x":166801.62999999989,"y":2539830.4700000007}},{"attributes":{"ID":269429,"DIS_CODE":0,"TOWNNAME":"南區","LI":"建南里","LIN":"17鄰","STREET":"興隆路","SECT":" ","MAREA":" ","LANE":"２２５巷","ALLEY":" ","HOUSE_NO":"１７號","E_COORD97":166864.39000000001,"N_COORD97":2539894.1299999999,"ADDRESS":"興隆路２２５巷１７號","OBJECTID":269424},"geometry":{"x":166864.39000000153,"y":2539894.1300000008}},{"attributes":{"ID":269430,"DIS_CODE":0,"TOWNNAME":"南區","LI":"金華里","LIN":"25鄰","STREET":"惠南街","SECT":" ","MAREA":" ","LANE":"１０９巷","ALLEY":" ","HOUSE_NO":"４號","E_COORD97":166703.14000000001,"N_COORD97":2542356.3999999999,"ADDRESS":"惠南街１０９巷４號","OBJECTID":269425},"geometry":{"x":166703.13999999966,"y":2542356.4000000004}},{"attributes":{"ID":269431,"DIS_CODE":0,"TOWNNAME":"南區","LI":"佛壇里","LIN":"17鄰","STREET":"興南街","SECT":" ","MAREA":" ","LANE":"１５１巷","ALLEY":" ","HOUSE_NO":"４３號","E_COORD97":166114.62,"N_COORD97":2535722.46,"ADDRESS":"興南街１５１巷４３號","OBJECTID":269426},"geometry":{"x":166114.62000000104,"y":2535722.4600000046}},{"attributes":{"ID":269432,"DIS_CODE":0,"TOWNNAME":"南區","LI":"佛壇里","LIN":"17鄰","STREET":"興南街","SECT":" ","MAREA":" ","LANE":"１５１巷","ALLEY":" ","HOUSE_NO":"４５號","E_COORD97":166116.35999999999,"N_COORD97":2535717.6899999999,"ADDRESS":"興南街１５１巷４５號","OBJECTID":269427},"geometry":{"x":166116.36000000127,"y":2535717.6899999995}},{"attributes":{"ID":269433,"DIS_CODE":0,"TOWNNAME":"南區","LI":"佛壇里","LIN":"17鄰","STREET":"興南街","SECT":" ","MAREA":" ","LANE":"１５１巷","ALLEY":" ","HOUSE_NO":"４７號","E_COORD97":166118.59,"N_COORD97":2535713.4100000001,"ADDRESS":"興南街１５１巷４７號","OBJECTID":269428},"geometry":{"x":166118.58999999985,"y":2535713.410000002}},{"attributes":{"ID":269434,"DIS_CODE":0,"TOWNNAME":"南區","LI":"佛壇里","LIN":"17鄰","STREET":"興南街","SECT":" ","MAREA":" ","LANE":"１５１巷","ALLEY":" ","HOUSE_NO":"４９號","E_COORD97":166120.48999999999,"N_COORD97":2535708.7999999998,"ADDRESS":"興南街１５１巷４９號","OBJECTID":269429},"geometry":{"x":166120.49000000115,"y":2535708.8000000007}},{"attributes":{"ID":269435,"DIS_CODE":0,"TOWNNAME":"南區","LI":"佛壇里","LIN":"17鄰","STREET":"興南街","SECT":" ","MAREA":" ","LANE":"１５１巷","ALLEY":" ","HOUSE_NO":"５１號","E_COORD97":166122.56,"N_COORD97":2535703.7200000002,"ADDRESS":"興南街１５１巷５１號","OBJECTID":269430},"geometry":{"x":166122.56000000052,"y":2535703.7200000044}},{"attributes":{"ID":269436,"DIS_CODE":0,"TOWNNAME":"南區","LI":"佛壇里","LIN":"17鄰","STREET":"興南街","SECT":" ","MAREA":" ","LANE":"１５１巷","ALLEY":" ","HOUSE_NO":"５３號","E_COORD97":166124.45999999999,"N_COORD97":2535698.7999999998,"ADDRESS":"興南街１５１巷５３號","OBJECTID":269431},"geometry":{"x":166124.45999999996,"y":2535698.8000000007}},{"attributes":{"ID":269437,"DIS_CODE":0,"TOWNNAME":"安南區","LI":"佃東里","LIN":"17鄰","STREET":"公學路","SECT":"四段","MAREA":" ","LANE":"５４巷","ALLEY":" ","HOUSE_NO":"１０２號","E_COORD97":165865.75,"N_COORD97":2552184.9500000002,"ADDRESS":"公學路四段５４巷１０２號","OBJECTID":269432},"geometry":{"x":165865.75000000093,"y":2552184.9500000011}},{"attributes":{"ID":269438,"DIS_CODE":0,"TOWNNAME":"安南區","LI":"佃東里","LIN":"17鄰","STREET":"公學路","SECT":"四段","MAREA":" ","LANE":"５４巷","ALLEY":" ","HOUSE_NO":"１０６號","E_COORD97":165865.62,"N_COORD97":2552175.4700000002,"ADDRESS":"公學路四段５４巷１０６號","OBJECTID":269433},"geometry":{"x":165865.62000000011,"y":2552175.4699999988}},{"attributes":{"ID":269439,"DIS_CODE":0,"TOWNNAME":"安南區","LI":"佃東里","LIN":"17鄰","STREET":"公學路","SECT":"四段","MAREA":" ","LANE":"５４巷","ALLEY":" ","HOUSE_NO":"１０８號","E_COORD97":165866.41,"N_COORD97":2552171.3900000001,"ADDRESS":"公學路四段５４巷１０８號","OBJECTID":269434},"geometry":{"x":165866.41000000108,"y":2552171.3900000006}},{"attributes":{"ID":269440,"DIS_CODE":0,"TOWNNAME":"安南區","LI":"佃東里","LIN":"17鄰","STREET":"公學路","SECT":"四段","MAREA":" ","LANE":"５４巷","ALLEY":" ","HOUSE_NO":"１１０號","E_COORD97":165865.48000000001,"N_COORD97":2552166.3799999999,"ADDRESS":"公學路四段５４巷１１０號","OBJECTID":269435},"geometry":{"x":165865.48000000045,"y":2552166.379999999}},{"attributes":{"ID":269441,"DIS_CODE":0,"TOWNNAME":"安南區","LI":"佃東里","LIN":"17鄰","STREET":"公學路","SECT":"四段","MAREA":" ","LANE":"５４巷","ALLEY":" ","HOUSE_NO":"１１２號","E_COORD97":165865.35000000001,"N_COORD97":2552161.7799999998,"ADDRESS":"公學路四段５４巷１１２號","OBJECTID":269436},"geometry":{"x":165865.34999999963,"y":2552161.7799999975}},{"attributes":{"ID":269442,"DIS_CODE":0,"TOWNNAME":"安南區","LI":"佃東里","LIN":"17鄰","STREET":"公學路","SECT":"四段","MAREA":" ","LANE":"５４巷","ALLEY":" ","HOUSE_NO":"１１４號","E_COORD97":165861.79000000001,"N_COORD97":2552147.8999999999,"ADDRESS":"公學路四段５４巷１１４號","OBJECTID":269437},"geometry":{"x":165861.7900000019,"y":2552147.9000000004}},{"attributes":{"ID":269443,"DIS_CODE":0,"TOWNNAME":"安南區","LI":"佃東里","LIN":"17鄰","STREET":"公學路","SECT":"四段","MAREA":" ","LANE":"５４巷","ALLEY":" ","HOUSE_NO":"１１６號","E_COORD97":165861.79000000001,"N_COORD97":2552143.2200000002,"ADDRESS":"公學路四段５４巷１１６號","OBJECTID":269438},"geometry":{"x":165861.7900000019,"y":2552143.2199999988}},{"attributes":{"ID":269444,"DIS_CODE":0,"TOWNNAME":"安南區","LI":"佃東里","LIN":"17鄰","STREET":"公學路","SECT":"四段","MAREA":" ","LANE":"５４巷","ALLEY":" ","HOUSE_NO":"１１８號","E_COORD97":165862.35000000001,"N_COORD97":2552138.8999999999,"ADDRESS":"公學路四段５４巷１１８號","OBJECTID":269439},"geometry":{"x":165862.34999999963,"y":2552138.9000000022}},{"attributes":{"ID":269445,"DIS_CODE":0,"TOWNNAME":"安南區","LI":"佃東里","LIN":"17鄰","STREET":"公學路","SECT":"四段","MAREA":" ","LANE":"５４巷","ALLEY":" ","HOUSE_NO":"１２０號","E_COORD97":165862.54000000001,"N_COORD97":2552134.5899999999,"ADDRESS":"公學路四段５４巷１２０號","OBJECTID":269440},"geometry":{"x":165862.54000000097,"y":2552134.5900000017}},{"attributes":{"ID":269446,"DIS_CODE":0,"TOWNNAME":"鹽水區","LI":"桐寮里","LIN":"3鄰","STREET":" ","SECT":" ","MAREA":"桐寮","LANE":" ","ALLEY":" ","HOUSE_NO":"３號","E_COORD97":173997.92999999999,"N_COORD97":2576678.8700000001,"ADDRESS":"桐寮３號","OBJECTID":269441},"geometry":{"x":173997.93000000063,"y":2576678.8700000048}},{"attributes":{"ID":269447,"DIS_CODE":0,"TOWNNAME":"鹽水區","LI":"後宅里","LIN":"3鄰","STREET":" ","SECT":" ","MAREA":"後寮","LANE":" ","ALLEY":" ","HOUSE_NO":"２１之１號","E_COORD97":173498.47,"N_COORD97":2578519.21,"ADDRESS":"後寮２１之１號","OBJECTID":269442},"geometry":{"x":173498.46999999974,"y":2578519.2100000009}},{"attributes":{"ID":269448,"DIS_CODE":0,"TOWNNAME":"鹽水區","LI":"後宅里","LIN":"3鄰","STREET":" ","SECT":" ","MAREA":"後寮","LANE":" ","ALLEY":" ","HOUSE_NO":"２１號之１","E_COORD97":173498.47,"N_COORD97":2578519.21,"ADDRESS":"後寮２１號之１","OBJECTID":269443},"geometry":{"x":173498.46999999974,"y":2578519.2100000009}},{"attributes":{"ID":269449,"DIS_CODE":0,"TOWNNAME":"鹽水區","LI":"後宅里","LIN":"3鄰","STREET":" ","SECT":" ","MAREA":"後寮","LANE":" ","ALLEY":" ","HOUSE_NO":"２１號","E_COORD97":173501.14000000001,"N_COORD97":2578530.4300000002,"ADDRESS":"後寮２１號","OBJECTID":269444},"geometry":{"x":173501.1400000006,"y":2578530.4299999997}},{"attributes":{"ID":269450,"DIS_CODE":0,"TOWNNAME":"鹽水區","LI":"後宅里","LIN":"3鄰","STREET":" ","SECT":" ","MAREA":"後寮","LANE":" ","ALLEY":" ","HOUSE_NO":"２２號","E_COORD97":173512.54999999999,"N_COORD97":2578524.0499999998,"ADDRESS":"後寮２２號","OBJECTID":269445},"geometry":{"x":173512.55000000075,"y":2578524.0500000007}},{"attributes":{"ID":269451,"DIS_CODE":0,"TOWNNAME":"鹽水區","LI":"後宅里","LIN":"3鄰","STREET":" ","SECT":" ","MAREA":"後寮","LANE":" ","ALLEY":" ","HOUSE_NO":"２３號","E_COORD97":173517.73999999999,"N_COORD97":2578516.1099999999,"ADDRESS":"後寮２３號","OBJECTID":269446},"geometry":{"x":173517.73999999929,"y":2578516.1099999994}},{"attributes":{"ID":269452,"DIS_CODE":0,"TOWNNAME":"鹽水區","LI":"後宅里","LIN":"3鄰","STREET":" ","SECT":" ","MAREA":"後寮","LANE":" ","ALLEY":" ","HOUSE_NO":"２４號","E_COORD97":173526.51999999999,"N_COORD97":2578479.5899999999,"ADDRESS":"後寮２４號","OBJECTID":269447},"geometry":{"x":173526.51999999955,"y":2578479.5899999999}},{"attributes":{"ID":269453,"DIS_CODE":0,"TOWNNAME":"永康區","LI":"六合里","LIN":"3鄰","STREET":"中山南路","SECT":" ","MAREA":" ","LANE":" ","ALLEY":" ","HOUSE_NO":"７２號之４","E_COORD97":170938.76000000001,"N_COORD97":2545880.2400000002,"ADDRESS":"中山南路７２號之４","OBJECTID":269448},"geometry":{"x":170938.75999999885,"y":2545880.2400000002}},{"attributes":{"ID":269454,"DIS_CODE":0,"TOWNNAME":"鹽水區","LI":"後宅里","LIN":"3鄰","STREET":" ","SECT":" ","MAREA":"後寮","LANE":" ","ALLEY":" ","HOUSE_NO":"２６號","E_COORD97":173520.44,"N_COORD97":2578473.21,"ADDRESS":"後寮２６號","OBJECTID":269449},"geometry":{"x":173520.44000000134,"y":2578473.209999999}},{"attributes":{"ID":269455,"DIS_CODE":0,"TOWNNAME":"鹽水區","LI":"後宅里","LIN":"3鄰","STREET":" ","SECT":" ","MAREA":"後寮","LANE":" ","ALLEY":" ","HOUSE_NO":"２８號","E_COORD97":173504.35999999999,"N_COORD97":2578473.21,"ADDRESS":"後寮２８號","OBJECTID":269450},"geometry":{"x":173504.36000000127,"y":2578473.209999999}},{"attributes":{"ID":269456,"DIS_CODE":0,"TOWNNAME":"鹽水區","LI":"後宅里","LIN":"3鄰","STREET":" ","SECT":" ","MAREA":"後寮","LANE":" ","ALLEY":" ","HOUSE_NO":"２９號","E_COORD97":173503.07000000001,"N_COORD97":2578490.2200000002,"ADDRESS":"後寮２９號","OBJECTID":269451},"geometry":{"x":173503.0700000003,"y":2578490.2200000044}},{"attributes":{"ID":269457,"DIS_CODE":0,"TOWNNAME":"鹽水區","LI":"孫厝里","LIN":"3鄰","STREET":" ","SECT":" ","MAREA":"孫厝寮","LANE":" ","ALLEY":" ","HOUSE_NO":"２２號","E_COORD97":170517.42000000001,"N_COORD97":2576881.8900000001,"ADDRESS":"孫厝寮２２號","OBJECTID":269452},"geometry":{"x":170517.41999999899,"y":2576881.8900000043}},{"attributes":{"ID":269458,"DIS_CODE":0,"TOWNNAME":"中西區","LI":"西湖里","LIN":"34鄰","STREET":"西湖街","SECT":" ","MAREA":" ","LANE":" ","ALLEY":" ","HOUSE_NO":"１６８號","E_COORD97":166337.91,"N_COORD97":2544919.21,"ADDRESS":"西湖街１６８號","OBJECTID":269453},"geometry":{"x":166337.91000000108,"y":2544919.2100000028}},{"attributes":{"ID":269459,"DIS_CODE":0,"TOWNNAME":"中西區","LI":"西湖里","LIN":"34鄰","STREET":"西湖街","SECT":" ","MAREA":" ","LANE":" ","ALLEY":" ","HOUSE_NO":"１７０號","E_COORD97":166331.76999999999,"N_COORD97":2544919.8399999999,"ADDRESS":"西湖街１７０號","OBJECTID":269454},"geometry":{"x":166331.77000000048,"y":2544919.8399999999}},{"attributes":{"ID":269460,"DIS_CODE":0,"TOWNNAME":"安南區","LI":"佃東里","LIN":"17鄰","STREET":"公學路","SECT":"四段","MAREA":" ","LANE":"５４巷","ALLEY":" ","HOUSE_NO":"１２２號","E_COORD97":165863.29000000001,"N_COORD97":2552130.8399999999,"ADDRESS":"公學路四段５４巷１２２號","OBJECTID":269455},"geometry":{"x":165863.29000000004,"y":2552130.8399999999}},{"attributes":{"ID":269461,"DIS_CODE":0,"TOWNNAME":"安南區","LI":"佃東里","LIN":"17鄰","STREET":"公學路","SECT":"四段","MAREA":" ","LANE":"５４巷","ALLEY":" ","HOUSE_NO":"３６號","E_COORD97":165824.76000000001,"N_COORD97":2552161.3799999999,"ADDRESS":"公學路四段５４巷３６號","OBJECTID":269456},"geometry":{"x":165824.76000000071,"y":2552161.3800000008}},{"attributes":{"ID":269462,"DIS_CODE":0,"TOWNNAME":"安南區","LI":"佃東里","LIN":"17鄰","STREET":"公學路","SECT":"四段","MAREA":" ","LANE":"５４巷","ALLEY":" ","HOUSE_NO":"３８號","E_COORD97":165825.67999999999,"N_COORD97":2552165.9900000002,"ADDRESS":"公學路四段５４巷３８號","OBJECTID":269457},"geometry":{"x":165825.68000000063,"y":2552165.9900000021}},{"attributes":{"ID":269463,"DIS_CODE":0,"TOWNNAME":"安南區","LI":"佃東里","LIN":"17鄰","STREET":"公學路","SECT":"四段","MAREA":" ","LANE":"５４巷","ALLEY":" ","HOUSE_NO":"４０號","E_COORD97":165825.54999999999,"N_COORD97":2552170.73,"ADDRESS":"公學路四段５４巷４０號","OBJECTID":269458},"geometry":{"x":165825.54999999981,"y":2552170.7300000023}},{"attributes":{"ID":269464,"DIS_CODE":0,"TOWNNAME":"安南區","LI":"佃東里","LIN":"17鄰","STREET":"公學路","SECT":"四段","MAREA":" ","LANE":"５４巷","ALLEY":" ","HOUSE_NO":"４４號","E_COORD97":165825.01999999999,"N_COORD97":2552179.9399999999,"ADDRESS":"公學路四段５４巷４４號","OBJECTID":269459},"geometry":{"x":165825.02000000048,"y":2552179.9399999995}},{"attributes":{"ID":269465,"DIS_CODE":0,"TOWNNAME":"仁德區","LI":"一甲里","LIN":"17鄰","STREET":"中清路","SECT":" ","MAREA":" ","LANE":"２４８巷","ALLEY":" ","HOUSE_NO":"３０號","E_COORD97":173837.17999999999,"N_COORD97":2541728.29,"ADDRESS":"中清路２４８巷３０號","OBJECTID":269460},"geometry":{"x":173837.18000000063,"y":2541728.2899999991}},{"attributes":{"ID":269466,"DIS_CODE":0,"TOWNNAME":"仁德區","LI":"上崙里","LIN":"17鄰","STREET":"德崙路","SECT":" ","MAREA":" ","LANE":"３７０巷","ALLEY":" ","HOUSE_NO":"１６號","E_COORD97":173969.54000000001,"N_COORD97":2538022.02,"ADDRESS":"德崙路３７０巷１６號","OBJECTID":269461},"geometry":{"x":173969.54000000004,"y":2538022.0199999996}},{"attributes":{"ID":269467,"DIS_CODE":0,"TOWNNAME":"東區","LI":"東安里","LIN":"17鄰","STREET":"衛國街","SECT":" ","MAREA":" ","LANE":"１３巷","ALLEY":" ","HOUSE_NO":"１８號","E_COORD97":170168.64999999999,"N_COORD97":2543017.1600000001,"ADDRESS":"衛國街１３巷１８號","OBJECTID":269462},"geometry":{"x":170168.65000000037,"y":2543017.160000002}},{"attributes":{"ID":269468,"DIS_CODE":0,"TOWNNAME":"鹽水區","LI":"福得里","LIN":"3鄰","STREET":"康樂路","SECT":" ","MAREA":" ","LANE":" ","ALLEY":" ","HOUSE_NO":"１２９號","E_COORD97":175243.31,"N_COORD97":2579996.77,"ADDRESS":"康樂路１２９號","OBJECTID":269463},"geometry":{"x":175243.30999999959,"y":2579996.7699999996}},{"attributes":{"ID":269469,"DIS_CODE":0,"TOWNNAME":"東區","LI":"東安里","LIN":"17鄰","STREET":"衛國街","SECT":" ","MAREA":" ","LANE":"１３巷","ALLEY":" ","HOUSE_NO":"２９號","E_COORD97":170173.01000000001,"N_COORD97":2543003.04,"ADDRESS":"衛國街１３巷２９號","OBJECTID":269464},"geometry":{"x":170173.01000000071,"y":2543003.040000001}},{"attributes":{"ID":269470,"DIS_CODE":0,"TOWNNAME":"東區","LI":"東安里","LIN":"17鄰","STREET":"衛國街","SECT":" ","MAREA":" ","LANE":"１３巷","ALLEY":" ","HOUSE_NO":"５號","E_COORD97":170207.69,"N_COORD97":2542976.9199999999,"ADDRESS":"衛國街１３巷５號","OBJECTID":269465},"geometry":{"x":170207.69000000227,"y":2542976.9199999981}},{"attributes":{"ID":269471,"DIS_CODE":0,"TOWNNAME":"東區","LI":"大德里","LIN":"17鄰","STREET":"立德十一路","SECT":" ","MAREA":" ","LANE":"８１巷","ALLEY":" ","HOUSE_NO":"２４號","E_COORD97":169552.57000000001,"N_COORD97":2542166.5499999998,"ADDRESS":"立德十一路８１巷２４號","OBJECTID":269466},"geometry":{"x":169552.57000000123,"y":2542166.5499999989}},{"attributes":{"ID":269472,"DIS_CODE":0,"TOWNNAME":"東區","LI":"大德里","LIN":"17鄰","STREET":"立德十一路","SECT":" ","MAREA":" ","LANE":"８１巷","ALLEY":" ","HOUSE_NO":"３２號","E_COORD97":169548.22,"N_COORD97":2542180.5600000001,"ADDRESS":"立德十一路８１巷３２號","OBJECTID":269467},"geometry":{"x":169548.21999999974,"y":2542180.5600000024}},{"attributes":{"ID":269473,"DIS_CODE":0,"TOWNNAME":"東區","LI":"大德里","LIN":"17鄰","STREET":"立德十一路","SECT":" ","MAREA":" ","LANE":"８１巷","ALLEY":" ","HOUSE_NO":"３８號","E_COORD97":169544.54999999999,"N_COORD97":2542190.5699999998,"ADDRESS":"立德十一路８１巷３８號","OBJECTID":269468},"geometry":{"x":169544.54999999981,"y":2542190.5700000022}},{"attributes":{"ID":269474,"DIS_CODE":0,"TOWNNAME":"東區","LI":"大德里","LIN":"17鄰","STREET":"立德十一路","SECT":" ","MAREA":" ","LANE":"８１巷","ALLEY":" ","HOUSE_NO":"４８號","E_COORD97":169538.87,"N_COORD97":2542204.9100000001,"ADDRESS":"立德十一路８１巷４８號","OBJECTID":269469},"geometry":{"x":169538.87000000104,"y":2542204.910000002}},{"attributes":{"ID":269475,"DIS_CODE":0,"TOWNNAME":"東區","LI":"大德里","LIN":"17鄰","STREET":"立德十一路","SECT":" ","MAREA":" ","LANE":"８１巷","ALLEY":" ","HOUSE_NO":"５８號","E_COORD97":169535.76000000001,"N_COORD97":2542233.3100000001,"ADDRESS":"立德十一路８１巷５８號","OBJECTID":269470},"geometry":{"x":169535.76000000071,"y":2542233.3100000024}},{"attributes":{"ID":269476,"DIS_CODE":0,"TOWNNAME":"鹽水區","LI":"福得里","LIN":"3鄰","STREET":"康樂路","SECT":" ","MAREA":" ","LANE":" ","ALLEY":" ","HOUSE_NO":"１３１號","E_COORD97":175249.76999999999,"N_COORD97":2579997.1200000001,"ADDRESS":"康樂路１３１號","OBJECTID":269471},"geometry":{"x":175249.77000000048,"y":2579997.1200000029}},{"attributes":{"ID":269477,"DIS_CODE":0,"TOWNNAME":"鹽水區","LI":"福得里","LIN":"3鄰","STREET":"康樂路","SECT":" ","MAREA":" ","LANE":" ","ALLEY":" ","HOUSE_NO":"１３３號","E_COORD97":175253.76000000001,"N_COORD97":2579999.0699999998,"ADDRESS":"康樂路１３３號","OBJECTID":269472},"geometry":{"x":175253.76000000071,"y":2579999.0700000003}},{"attributes":{"ID":269478,"DIS_CODE":0,"TOWNNAME":"鹽水區","LI":"福得里","LIN":"3鄰","STREET":"康樂路","SECT":" ","MAREA":" ","LANE":" ","ALLEY":" ","HOUSE_NO":"１３５號","E_COORD97":175257.41,"N_COORD97":2580002.48,"ADDRESS":"康樂路１３５號","OBJECTID":269473},"geometry":{"x":175257.41000000015,"y":2580002.4800000004}},{"attributes":{"ID":269479,"DIS_CODE":0,"TOWNNAME":"北區","LI":"文元里","LIN":"3鄰","STREET":"文成三路","SECT":" ","MAREA":" ","LANE":" ","ALLEY":" ","HOUSE_NO":"９０８號","E_COORD97":167668.38,"N_COORD97":2546258.8799999999,"ADDRESS":"文成三路９０８號","OBJECTID":269474},"geometry":{"x":167668.38000000082,"y":2546258.8800000008}},{"attributes":{"ID":269480,"DIS_CODE":0,"TOWNNAME":"南區","LI":"新興里","LIN":"3鄰","STREET":"五妃街","SECT":" ","MAREA":" ","LANE":" ","ALLEY":" ","HOUSE_NO":"４４９號","E_COORD97":167520.60999999999,"N_COORD97":2542578.02,"ADDRESS":"五妃街４４９號","OBJECTID":269475},"geometry":{"x":167520.61000000034,"y":2542578.0199999996}},{"attributes":{"ID":269481,"DIS_CODE":0,"TOWNNAME":"北區","LI":"文成里","LIN":"3鄰","STREET":"文賢一路","SECT":" ","MAREA":" ","LANE":" ","ALLEY":" ","HOUSE_NO":"１５２號","E_COORD97":167577.23000000001,"N_COORD97":2545560.29,"ADDRESS":"文賢一路１５２號","OBJECTID":269476},"geometry":{"x":167577.23000000138,"y":2545560.2899999991}},{"attributes":{"ID":269482,"DIS_CODE":0,"TOWNNAME":"北區","LI":"文元里","LIN":"3鄰","STREET":"文成三路","SECT":" ","MAREA":" ","LANE":" ","ALLEY":" ","HOUSE_NO":"９１２號","E_COORD97":167660.5,"N_COORD97":2546255.3799999999,"ADDRESS":"文成三路９１２號","OBJECTID":269477},"geometry":{"x":167660.5,"y":2546255.3800000008}},{"attributes":{"ID":269483,"DIS_CODE":0,"TOWNNAME":"北區","LI":"文元里","LIN":"3鄰","STREET":"文成三路","SECT":" ","MAREA":" ","LANE":" ","ALLEY":" ","HOUSE_NO":"９１６號","E_COORD97":167656.44,"N_COORD97":2546255.6400000001,"ADDRESS":"文成三路９１６號","OBJECTID":269478},"geometry":{"x":167656.44000000227,"y":2546255.6400000025}},{"attributes":{"ID":269484,"DIS_CODE":0,"TOWNNAME":"安南區","LI":"安順里","LIN":"18鄰","STREET":"育安街","SECT":" ","MAREA":" ","LANE":" ","ALLEY":" ","HOUSE_NO":"１９０號","E_COORD97":169588.85999999999,"N_COORD97":2549943.6699999999,"ADDRESS":"育安街１９０號","OBJECTID":269479},"geometry":{"x":169588.86000000034,"y":2549943.6700000018}},{"attributes":{"ID":269485,"DIS_CODE":0,"TOWNNAME":"安南區","LI":"安順里","LIN":"18鄰","STREET":"育安街","SECT":" ","MAREA":" ","LANE":" ","ALLEY":" ","HOUSE_NO":"１９２號","E_COORD97":169588.07000000001,"N_COORD97":2549947.6099999999,"ADDRESS":"育安街１９２號","OBJECTID":269480},"geometry":{"x":169588.07000000216,"y":2549947.6099999994}},{"attributes":{"ID":269486,"DIS_CODE":0,"TOWNNAME":"東區","LI":"大德里","LIN":"17鄰","STREET":"立德十一路","SECT":" ","MAREA":" ","LANE":"８１巷","ALLEY":" ","HOUSE_NO":"１２號","E_COORD97":169559.57999999999,"N_COORD97":2542145.5299999998,"ADDRESS":"立德十一路８１巷１２號","OBJECTID":269481},"geometry":{"x":169559.58000000101,"y":2542145.5300000012}},{"attributes":{"ID":269487,"DIS_CODE":0,"TOWNNAME":"東區","LI":"大德里","LIN":"17鄰","STREET":"立德十一路","SECT":" ","MAREA":" ","LANE":"８１巷","ALLEY":" ","HOUSE_NO":"３０號","E_COORD97":169548.89000000001,"N_COORD97":2542176.2200000002,"ADDRESS":"立德十一路８１巷３０號","OBJECTID":269482},"geometry":{"x":169548.88999999966,"y":2542176.2200000025}},{"attributes":{"ID":269488,"DIS_CODE":0,"TOWNNAME":"東區","LI":"大德里","LIN":"17鄰","STREET":"立德十一路","SECT":" ","MAREA":" ","LANE":"８１巷","ALLEY":" ","HOUSE_NO":"５２號","E_COORD97":169536.53,"N_COORD97":2542212.9199999999,"ADDRESS":"立德十一路８１巷５２號","OBJECTID":269483},"geometry":{"x":169536.53000000026,"y":2542212.9199999999}},{"attributes":{"ID":269489,"DIS_CODE":0,"TOWNNAME":"永康區","LI":"西勢里","LIN":"17鄰","STREET":"富強路","SECT":"一段","MAREA":" ","LANE":"２５４巷","ALLEY":" ","HOUSE_NO":"７１號","E_COORD97":175798.69,"N_COORD97":2546326.5699999998,"ADDRESS":"富強路一段２５４巷７１號","OBJECTID":269484},"geometry":{"x":175798.69000000134,"y":2546326.5700000022}},{"attributes":{"ID":269490,"DIS_CODE":0,"TOWNNAME":"南區","LI":"再興里","LIN":"3鄰","STREET":"三和街","SECT":" ","MAREA":" ","LANE":" ","ALLEY":" ","HOUSE_NO":"４１號","E_COORD97":167204.95999999999,"N_COORD97":2542402.2799999998,"ADDRESS":"三和街４１號","OBJECTID":269485},"geometry":{"x":167204.96000000183,"y":2542402.2800000012}},{"attributes":{"ID":269491,"DIS_CODE":0,"TOWNNAME":"永康區","LI":"西勢里","LIN":"17鄰","STREET":"富強路","SECT":"一段","MAREA":" ","LANE":"２５４巷","ALLEY":" ","HOUSE_NO":"９號","E_COORD97":175711.04999999999,"N_COORD97":2546470.0899999999,"ADDRESS":"富強路一段２５４巷９號","OBJECTID":269486},"geometry":{"x":175711.05000000075,"y":2546470.0899999999}},{"attributes":{"ID":269492,"DIS_CODE":0,"TOWNNAME":"新化區","LI":"協興里","LIN":"3鄰","STREET":"忠孝路","SECT":" ","MAREA":" ","LANE":" ","ALLEY":" ","HOUSE_NO":"２２５號","E_COORD97":178515.01999999999,"N_COORD97":2548555.25,"ADDRESS":"忠孝路２２５號","OBJECTID":269487},"geometry":{"x":178515.02000000048,"y":2548555.2499999981}},{"attributes":{"ID":269493,"DIS_CODE":0,"TOWNNAME":"新化區","LI":"中央里","LIN":"3鄰","STREET":"中正路","SECT":" ","MAREA":" ","LANE":" ","ALLEY":" ","HOUSE_NO":"４３５號","E_COORD97":179077.91,"N_COORD97":2548399.25,"ADDRESS":"中正路４３５號","OBJECTID":269488},"geometry":{"x":179077.91000000015,"y":2548399.25}},{"attributes":{"ID":269494,"DIS_CODE":0,"TOWNNAME":"新化區","LI":"協興里","LIN":"3鄰","STREET":"忠孝路","SECT":" ","MAREA":" ","LANE":" ","ALLEY":" ","HOUSE_NO":"２４９號","E_COORD97":178469.82000000001,"N_COORD97":2548577.25,"ADDRESS":"忠孝路２４９號","OBJECTID":269489},"geometry":{"x":178469.82000000123,"y":2548577.2500000019}},{"attributes":{"ID":269495,"DIS_CODE":0,"TOWNNAME":"新化區","LI":"協興里","LIN":"3鄰","STREET":"忠孝路","SECT":" ","MAREA":" ","LANE":" ","ALLEY":" ","HOUSE_NO":"１９１號","E_COORD97":178543.82000000001,"N_COORD97":2548598.25,"ADDRESS":"忠孝路１９１號","OBJECTID":269490},"geometry":{"x":178543.82000000123,"y":2548598.25}},{"attributes":{"ID":269496,"DIS_CODE":0,"TOWNNAME":"南區","LI":"金華里","LIN":"27鄰","STREET":"惠南街","SECT":" ","MAREA":" ","LANE":"１４７巷","ALLEY":" ","HOUSE_NO":"２號","E_COORD97":166659.23000000001,"N_COORD97":2542473.75,"ADDRESS":"惠南街１４７巷２號","OBJECTID":269491},"geometry":{"x":166659.23000000045,"y":2542473.7500000019}},{"attributes":{"ID":269497,"DIS_CODE":0,"TOWNNAME":"永康區","LI":"成功里","LIN":"17鄰","STREET":"忠孝路","SECT":" ","MAREA":" ","LANE":"１８５巷","ALLEY":" ","HOUSE_NO":"３５號","E_COORD97":171951.92000000001,"N_COORD97":2544749,"ADDRESS":"忠孝路１８５巷３５號","OBJECTID":269492},"geometry":{"x":171951.92000000086,"y":2544749}},{"attributes":{"ID":269498,"DIS_CODE":0,"TOWNNAME":"永康區","LI":"西勢里","LIN":"17鄰","STREET":"富強路","SECT":"一段","MAREA":" ","LANE":"２５４巷","ALLEY":" ","HOUSE_NO":"７７號","E_COORD97":175792.26999999999,"N_COORD97":2546314.0699999998,"ADDRESS":"富強路一段２５４巷７７號","OBJECTID":269493},"geometry":{"x":175792.27000000048,"y":2546314.0700000022}},{"attributes":{"ID":269499,"DIS_CODE":0,"TOWNNAME":"永康區","LI":"西勢里","LIN":"17鄰","STREET":"富強路","SECT":"一段","MAREA":" ","LANE":"２５４巷","ALLEY":" ","HOUSE_NO":"６０號","E_COORD97":175794.32000000001,"N_COORD97":2546352.77,"ADDRESS":"富強路一段２５４巷６０號","OBJECTID":269494},"geometry":{"x":175794.32000000123,"y":2546352.7700000014}},{"attributes":{"ID":269500,"DIS_CODE":0,"TOWNNAME":"永康區","LI":"西橋里","LIN":"17鄰","STREET":"大橋一街","SECT":" ","MAREA":" ","LANE":"３１巷","ALLEY":" ","HOUSE_NO":"４９號","E_COORD97":170584.63,"N_COORD97":2546393.2400000002,"ADDRESS":"大橋一街３１巷４９號","OBJECTID":269495},"geometry":{"x":170584.63000000082,"y":2546393.2400000021}},{"attributes":{"ID":269501,"DIS_CODE":0,"TOWNNAME":"新化區","LI":"羊林里","LIN":"3鄰","STREET":" ","SECT":" ","MAREA":"\u25A0拔林","LANE":" ","ALLEY":" ","HOUSE_NO":"４１９號","E_COORD97":183783.92000000001,"N_COORD97":2551768.25,"ADDRESS":"\u25A0拔林４１９號","OBJECTID":269496},"geometry":{"x":183783.91999999993,"y":2551768.25}},{"attributes":{"ID":269502,"DIS_CODE":0,"TOWNNAME":"新化區","LI":"知義里","LIN":"3鄰","STREET":" ","SECT":" ","MAREA":"知母義","LANE":" ","ALLEY":" ","HOUSE_NO":"１１６號","E_COORD97":179825.32000000001,"N_COORD97":2547129.25,"ADDRESS":"知母義１１６號","OBJECTID":269497},"geometry":{"x":179825.32000000216,"y":2547129.2500000019}},{"attributes":{"ID":269503,"DIS_CODE":0,"TOWNNAME":"新化區","LI":"知義里","LIN":"3鄰","STREET":" ","SECT":" ","MAREA":"知母義","LANE":" ","ALLEY":" ","HOUSE_NO":"１０３號之７","E_COORD97":179813.17000000001,"N_COORD97":2547239.2599999998,"ADDRESS":"知母義１０３號之７","OBJECTID":269498},"geometry":{"x":179813.16999999993,"y":2547239.2599999998}},{"attributes":{"ID":269504,"DIS_CODE":0,"TOWNNAME":"新化區","LI":"知義里","LIN":"3鄰","STREET":" ","SECT":" ","MAREA":"知母義","LANE":" ","ALLEY":" ","HOUSE_NO":"１０３號之１１","E_COORD97":179829,"N_COORD97":2547228.2599999998,"ADDRESS":"知母義１０３號之１１","OBJECTID":269499},"geometry":{"x":179829.00000000093,"y":2547228.2599999998}},{"attributes":{"ID":269505,"DIS_CODE":0,"TOWNNAME":"新化區","LI":"知義里","LIN":"3鄰","STREET":" ","SECT":" ","MAREA":"知母義","LANE":" ","ALLEY":" ","HOUSE_NO":"１４２號之１","E_COORD97":179805.45000000001,"N_COORD97":2547107.2599999998,"ADDRESS":"知母義１４２號之１","OBJECTID":269500},"geometry":{"x":179805.44999999925,"y":2547107.2599999979}},{"attributes":{"ID":269506,"DIS_CODE":0,"TOWNNAME":"新化區","LI":"知義里","LIN":"3鄰","STREET":" ","SECT":" ","MAREA":"知母義","LANE":" ","ALLEY":" ","HOUSE_NO":"１４２號之２","E_COORD97":179806.48000000001,"N_COORD97":2547104.2599999998,"ADDRESS":"知母義１４２號之２","OBJECTID":269501},"geometry":{"x":179806.48000000045,"y":2547104.2600000035}},{"attributes":{"ID":269507,"DIS_CODE":0,"TOWNNAME":"新化區","LI":"羊林里","LIN":"3鄰","STREET":" ","SECT":" ","MAREA":"\u25A0拔林","LANE":" ","ALLEY":" ","HOUSE_NO":"４２７號","E_COORD97":183789.92000000001,"N_COORD97":2551724.25,"ADDRESS":"\u25A0拔林４２７號","OBJECTID":269502},"geometry":{"x":183789.92000000086,"y":2551724.25}},{"attributes":{"ID":269508,"DIS_CODE":0,"TOWNNAME":"永康區","LI":"\u25A0行里","LIN":"17鄰","STREET":"正南五街","SECT":" ","MAREA":" ","LANE":"５２０巷","ALLEY":" ","HOUSE_NO":"６３號","E_COORD97":171761.89000000001,"N_COORD97":2548795,"ADDRESS":"正南五街５２０巷６３號","OBJECTID":269503},"geometry":{"x":171761.8900000006,"y":2548795.0000000019}},{"attributes":{"ID":269509,"DIS_CODE":0,"TOWNNAME":"中西區","LI":"五妃里","LIN":"17鄰","STREET":"南門路","SECT":" ","MAREA":" ","LANE":"１８７巷","ALLEY":" ","HOUSE_NO":"２６號之１","E_COORD97":168557.73999999999,"N_COORD97":2542865.8300000001,"ADDRESS":"南門路１８７巷２６號之１","OBJECTID":269504},"geometry":{"x":168557.74000000209,"y":2542865.8299999982}},{"attributes":{"ID":269510,"DIS_CODE":0,"TOWNNAME":"東區","LI":"中西里","LIN":"17鄰","STREET":"長榮路","SECT":"二段","MAREA":" ","LANE":"１７０巷","ALLEY":" ","HOUSE_NO":"２３號","E_COORD97":170106.39999999999,"N_COORD97":2543307.0899999999,"ADDRESS":"長榮路二段１７０巷２３號","OBJECTID":269505},"geometry":{"x":170106.4000000013,"y":2543307.0899999999}},{"attributes":{"ID":269511,"DIS_CODE":0,"TOWNNAME":"東區","LI":"圍下里","LIN":"17鄰","STREET":"青年路","SECT":" ","MAREA":" ","LANE":"３９８巷","ALLEY":" ","HOUSE_NO":"５號","E_COORD97":169636.44,"N_COORD97":2543488.9399999999,"ADDRESS":"青年路３９８巷５號","OBJECTID":269506},"geometry":{"x":169636.44000000227,"y":2543488.9400000013}},{"attributes":{"ID":269512,"DIS_CODE":0,"TOWNNAME":"東區","LI":"崇誨里","LIN":"17鄰","STREET":"林森路","SECT":"二段","MAREA":" ","LANE":"１９２巷","ALLEY":" ","HOUSE_NO":"３４號","E_COORD97":170612.39999999999,"N_COORD97":2543338.54,"ADDRESS":"林森路二段１９２巷３４號","OBJECTID":269507},"geometry":{"x":170612.40000000037,"y":2543338.540000001}},{"attributes":{"ID":269513,"DIS_CODE":0,"TOWNNAME":"東區","LI":"崇誨里","LIN":"17鄰","STREET":"林森路","SECT":"二段","MAREA":" ","LANE":"１９２巷","ALLEY":" ","HOUSE_NO":"４０號","E_COORD97":170622.94,"N_COORD97":2543340.1200000001,"ADDRESS":"林森路二段１９２巷４０號","OBJECTID":269508},"geometry":{"x":170622.94000000227,"y":2543340.1200000029}},{"attributes":{"ID":269514,"DIS_CODE":0,"TOWNNAME":"東區","LI":"崇誨里","LIN":"17鄰","STREET":"林森路","SECT":"二段","MAREA":" ","LANE":"１９２巷","ALLEY":" ","HOUSE_NO":"４２號","E_COORD97":170626.12,"N_COORD97":2543341.0299999998,"ADDRESS":"林森路二段１９２巷４２號","OBJECTID":269509},"geometry":{"x":170626.12000000011,"y":2543341.0299999993}},{"attributes":{"ID":269515,"DIS_CODE":0,"TOWNNAME":"東區","LI":"崇誨里","LIN":"17鄰","STREET":"林森路","SECT":"二段","MAREA":" ","LANE":"１９２巷","ALLEY":" ","HOUSE_NO":"４４號","E_COORD97":170629.51999999999,"N_COORD97":2543341.5899999999,"ADDRESS":"林森路二段１９２巷４４號","OBJECTID":269510},"geometry":{"x":170629.51999999955,"y":2543341.5899999999}},{"attributes":{"ID":269516,"DIS_CODE":0,"TOWNNAME":"東區","LI":"崇誨里","LIN":"17鄰","STREET":"林森路","SECT":"二段","MAREA":" ","LANE":"１９２巷","ALLEY":" ","HOUSE_NO":"４８號","E_COORD97":170639.26999999999,"N_COORD97":2543339.2200000002,"ADDRESS":"林森路二段１９２巷４８號","OBJECTID":269511},"geometry":{"x":170639.27000000048,"y":2543339.2200000025}},{"attributes":{"ID":269517,"DIS_CODE":0,"TOWNNAME":"東區","LI":"裕農里","LIN":"17鄰","STREET":"裕豐街","SECT":" ","MAREA":" ","LANE":"２１４巷","ALLEY":" ","HOUSE_NO":"３４號","E_COORD97":170855.91,"N_COORD97":2543036.7000000002,"ADDRESS":"裕豐街２１４巷３４號","OBJECTID":269512},"geometry":{"x":170855.91000000108,"y":2543036.7000000011}},{"attributes":{"ID":269518,"DIS_CODE":0,"TOWNNAME":"東區","LI":"裕農里","LIN":"17鄰","STREET":"裕豐街","SECT":" ","MAREA":" ","LANE":"２１４巷","ALLEY":" ","HOUSE_NO":"３６號","E_COORD97":170854.79999999999,"N_COORD97":2543046.8799999999,"ADDRESS":"裕豐街２１４巷３６號","OBJECTID":269513},"geometry":{"x":170854.79999999981,"y":2543046.879999999}},{"attributes":{"ID":269519,"DIS_CODE":0,"TOWNNAME":"東區","LI":"崇誨里","LIN":"17鄰","STREET":"林森路","SECT":"二段","MAREA":" ","LANE":"１９２巷","ALLEY":" ","HOUSE_NO":"３８號","E_COORD97":170619.42999999999,"N_COORD97":2543338.9900000002,"ADDRESS":"林森路二段１９２巷３８號","OBJECTID":269514},"geometry":{"x":170619.43000000063,"y":2543338.9900000002}},{"attributes":{"ID":269520,"DIS_CODE":0,"TOWNNAME":"東區","LI":"虎尾里","LIN":"17鄰","STREET":"富農街","SECT":"一段","MAREA":" ","LANE":"２９巷","ALLEY":" ","HOUSE_NO":"５號","E_COORD97":171477.32000000001,"N_COORD97":2542183.5,"ADDRESS":"富農街一段２９巷５號","OBJECTID":269515},"geometry":{"x":171477.3200000003,"y":2542183.5000000037}},{"attributes":{"ID":269521,"DIS_CODE":0,"TOWNNAME":"東區","LI":"虎尾里","LIN":"17鄰","STREET":"富農街","SECT":"一段","MAREA":" ","LANE":"２９巷","ALLEY":" ","HOUSE_NO":"９號","E_COORD97":171475.91,"N_COORD97":2542191.96,"ADDRESS":"富農街一段２９巷９號","OBJECTID":269516},"geometry":{"x":171475.91000000108,"y":2542191.9600000028}},{"attributes":{"ID":269522,"DIS_CODE":0,"TOWNNAME":"東區","LI":"裕農里","LIN":"17鄰","STREET":"裕豐街","SECT":" ","MAREA":" ","LANE":"２１４巷","ALLEY":" ","HOUSE_NO":"３８號","E_COORD97":170849.70000000001,"N_COORD97":2543056.1800000002,"ADDRESS":"裕豐街２１４巷３８號","OBJECTID":269517},"geometry":{"x":170849.70000000019,"y":2543056.1799999997}},{"attributes":{"ID":269523,"DIS_CODE":0,"TOWNNAME":"東區","LI":"圍下里","LIN":"17鄰","STREET":"青年路","SECT":" ","MAREA":" ","LANE":"３９８巷","ALLEY":" ","HOUSE_NO":"６號","E_COORD97":169627.45999999999,"N_COORD97":2543500.4399999999,"ADDRESS":"青年路３９８巷６號","OBJECTID":269518},"geometry":{"x":169627.46000000089,"y":2543500.4399999995}},{"attributes":{"ID":269524,"DIS_CODE":0,"TOWNNAME":"東區","LI":"圍下里","LIN":"17鄰","STREET":"青年路","SECT":" ","MAREA":" ","LANE":"３９８巷","ALLEY":" ","HOUSE_NO":"１２號","E_COORD97":169608.22,"N_COORD97":2543488.0099999998,"ADDRESS":"青年路３９８巷１２號","OBJECTID":269519},"geometry":{"x":169608.21999999974,"y":2543488.0099999979}},{"attributes":{"ID":269525,"DIS_CODE":0,"TOWNNAME":"北區","LI":"成德里","LIN":"34鄰","STREET":"育德一街","SECT":" ","MAREA":" ","LANE":"９２巷","ALLEY":" ","HOUSE_NO":"２０號","E_COORD97":168595.95000000001,"N_COORD97":2545999.54,"ADDRESS":"育德一街９２巷２０號","OBJECTID":269520},"geometry":{"x":168595.95000000112,"y":2545999.5400000028}},{"attributes":{"ID":269526,"DIS_CODE":0,"TOWNNAME":"永康區","LI":"尚頂里","LIN":"17鄰","STREET":"中正南路","SECT":" ","MAREA":" ","LANE":"２２０巷","ALLEY":" ","HOUSE_NO":"３４號","E_COORD97":170272.17999999999,"N_COORD97":2547310.4900000002,"ADDRESS":"中正南路２２０巷３４號","OBJECTID":269521},"geometry":{"x":170272.18000000063,"y":2547310.4900000021}},{"attributes":{"ID":269527,"DIS_CODE":0,"TOWNNAME":"永康區","LI":"西灣里","LIN":"17鄰","STREET":"永大路","SECT":"二段","MAREA":" ","LANE":"５５６巷","ALLEY":" ","HOUSE_NO":"４３號","E_COORD97":174537.64000000001,"N_COORD97":2545404.0299999998,"ADDRESS":"永大路二段５５６巷４３號","OBJECTID":269522},"geometry":{"x":174537.63999999966,"y":2545404.0300000012}},{"attributes":{"ID":269528,"DIS_CODE":0,"TOWNNAME":"永康區","LI":"\u25A0行里","LIN":"17鄰","STREET":"中正路","SECT":" ","MAREA":" ","LANE":"６３５巷","ALLEY":" ","HOUSE_NO":"２６號","E_COORD97":171705.98000000001,"N_COORD97":2548885.8999999999,"ADDRESS":"中正路６３５巷２６號","OBJECTID":269523},"geometry":{"x":171705.98000000231,"y":2548885.9000000004}},{"attributes":{"ID":269529,"DIS_CODE":0,"TOWNNAME":"永康區","LI":"\u25A0行里","LIN":"17鄰","STREET":"中正路","SECT":" ","MAREA":" ","LANE":"６３５巷","ALLEY":" ","HOUSE_NO":"１７號之５","E_COORD97":171702.98999999999,"N_COORD97":2548850.79,"ADDRESS":"中正路６３５巷１７號之５","OBJECTID":269524},"geometry":{"x":171702.99000000115,"y":2548850.790000001}},{"attributes":{"ID":269530,"DIS_CODE":0,"TOWNNAME":"永康區","LI":"\u25A0行里","LIN":"17鄰","STREET":"中正路","SECT":" ","MAREA":" ","LANE":"６３５巷","ALLEY":" ","HOUSE_NO":"１７號之１","E_COORD97":171713.42999999999,"N_COORD97":2548866.29,"ADDRESS":"中正路６３５巷１７號之１","OBJECTID":269525},"geometry":{"x":171713.4299999997,"y":2548866.2900000028}},{"attributes":{"ID":269531,"DIS_CODE":0,"TOWNNAME":"永康區","LI":"\u25A0行里","LIN":"17鄰","STREET":"中正路","SECT":" ","MAREA":" ","LANE":"６３５巷","ALLEY":" ","HOUSE_NO":"１７號之４","E_COORD97":171705.56,"N_COORD97":2548855.04,"ADDRESS":"中正路６３５巷１７號之４","OBJECTID":269526},"geometry":{"x":171705.55999999959,"y":2548855.040000001}},{"attributes":{"ID":269532,"DIS_CODE":0,"TOWNNAME":"永康區","LI":"\u25A0行里","LIN":"17鄰","STREET":"中正路","SECT":" ","MAREA":" ","LANE":"６３５巷","ALLEY":" ","HOUSE_NO":"２２號","E_COORD97":171710.53,"N_COORD97":2548892.6600000001,"ADDRESS":"中正路６３５巷２２號","OBJECTID":269527},"geometry":{"x":171710.53000000212,"y":2548892.660000002}},{"attributes":{"ID":269533,"DIS_CODE":0,"TOWNNAME":"南化區","LI":"中坑里","LIN":"3鄰","STREET":" ","SECT":" ","MAREA":"中坑","LANE":" ","ALLEY":" ","HOUSE_NO":"２３號之１","E_COORD97":194115.29999999999,"N_COORD97":2549395.7999999998,"ADDRESS":"中坑２３號之１","OBJECTID":269528},"geometry":{"x":194115.30000000168,"y":2549395.8000000007}},{"attributes":{"ID":269534,"DIS_CODE":0,"TOWNNAME":"永康區","LI":"\u25A0行里","LIN":"17鄰","STREET":"中正路","SECT":" ","MAREA":" ","LANE":"６３５巷","ALLEY":" ","HOUSE_NO":"２０號","E_COORD97":171712.89000000001,"N_COORD97":2548895.9100000001,"ADDRESS":"中正路６３５巷２０號","OBJECTID":269529},"geometry":{"x":171712.8900000006,"y":2548895.9100000001}},{"attributes":{"ID":269535,"DIS_CODE":0,"TOWNNAME":"北區","LI":"賢北里","LIN":"3鄰","STREET":"大興街","SECT":" ","MAREA":" ","LANE":" ","ALLEY":" ","HOUSE_NO":"３６１號","E_COORD97":166449.03,"N_COORD97":2545593.8300000001,"ADDRESS":"大興街３６１號","OBJECTID":269530},"geometry":{"x":166449.03000000119,"y":2545593.8300000001}},{"attributes":{"ID":269536,"DIS_CODE":0,"TOWNNAME":"永康區","LI":"\u25A0行里","LIN":"17鄰","STREET":"中正路","SECT":" ","MAREA":" ","LANE":"６３５巷","ALLEY":" ","HOUSE_NO":"１７號之２","E_COORD97":171711.06,"N_COORD97":2548862.54,"ADDRESS":"中正路６３５巷１７號之２","OBJECTID":269531},"geometry":{"x":171711.05999999959,"y":2548862.540000001}},{"attributes":{"ID":269537,"DIS_CODE":0,"TOWNNAME":"白河區","LI":"永安里","LIN":"17鄰","STREET":"七賢街","SECT":" ","MAREA":" ","LANE":"３６巷","ALLEY":" ","HOUSE_NO":"８號","E_COORD97":189998.69,"N_COORD97":2582842.4100000001,"ADDRESS":"七賢街３６巷８號","OBJECTID":269532},"geometry":{"x":189998.69000000041,"y":2582842.410000002}},{"attributes":{"ID":269538,"DIS_CODE":0,"TOWNNAME":"白河區","LI":"永安里","LIN":"17鄰","STREET":"七賢街","SECT":" ","MAREA":" ","LANE":"３９巷","ALLEY":" ","HOUSE_NO":"１０號","E_COORD97":189956.45000000001,"N_COORD97":2582869.6699999999,"ADDRESS":"七賢街３９巷１０號","OBJECTID":269533},"geometry":{"x":189956.45000000205,"y":2582869.6699999999}},{"attributes":{"ID":269539,"DIS_CODE":0,"TOWNNAME":"白河區","LI":"永安里","LIN":"17鄰","STREET":"七賢街","SECT":" ","MAREA":" ","LANE":"３９巷","ALLEY":" ","HOUSE_NO":"１號","E_COORD97":189968.17000000001,"N_COORD97":2582848.5,"ADDRESS":"七賢街３９巷１號","OBJECTID":269534},"geometry":{"x":189968.17000000179,"y":2582848.5000000019}},{"attributes":{"ID":269540,"DIS_CODE":0,"TOWNNAME":"白河區","LI":"永安里","LIN":"17鄰","STREET":"七賢街","SECT":" ","MAREA":" ","LANE":"３９巷","ALLEY":" ","HOUSE_NO":"２號","E_COORD97":189977.70999999999,"N_COORD97":2582862.6400000001,"ADDRESS":"七賢街３９巷２號","OBJECTID":269535},"geometry":{"x":189977.70999999996,"y":2582862.6400000006}},{"attributes":{"ID":269541,"DIS_CODE":0,"TOWNNAME":"白河區","LI":"永安里","LIN":"17鄰","STREET":"七賢街","SECT":" ","MAREA":" ","LANE":"３９巷","ALLEY":" ","HOUSE_NO":"３號","E_COORD97":189959.64000000001,"N_COORD97":2582849.7999999998,"ADDRESS":"七賢街３９巷３號","OBJECTID":269536},"geometry":{"x":189959.64000000153,"y":2582849.8000000045}},{"attributes":{"ID":269542,"DIS_CODE":0,"TOWNNAME":"白河區","LI":"永安里","LIN":"17鄰","STREET":"七賢街","SECT":" ","MAREA":" ","LANE":"３９巷","ALLEY":" ","HOUSE_NO":"５號","E_COORD97":189952.06,"N_COORD97":2582851.0899999999,"ADDRESS":"七賢街３９巷５號","OBJECTID":269537},"geometry":{"x":189952.06000000052,"y":2582851.0900000017}},{"attributes":{"ID":269543,"DIS_CODE":0,"TOWNNAME":"白河區","LI":"永安里","LIN":"17鄰","STREET":"七賢街","SECT":" ","MAREA":" ","LANE":"３９巷","ALLEY":" ","HOUSE_NO":"６號","E_COORD97":189971.42000000001,"N_COORD97":2582864.5299999998,"ADDRESS":"七賢街３９巷６號","OBJECTID":269538},"geometry":{"x":189971.41999999899,"y":2582864.5300000012}},{"attributes":{"ID":269544,"DIS_CODE":0,"TOWNNAME":"白河區","LI":"永安里","LIN":"17鄰","STREET":"七賢街","SECT":" ","MAREA":" ","LANE":"３９巷","ALLEY":" ","HOUSE_NO":"８號","E_COORD97":189962.63,"N_COORD97":2582865.8599999999,"ADDRESS":"七賢街３９巷８號","OBJECTID":269539},"geometry":{"x":189962.62999999989,"y":2582865.8600000013}},{"attributes":{"ID":269545,"DIS_CODE":0,"TOWNNAME":"白河區","LI":"永安里","LIN":"17鄰","STREET":"七賢街","SECT":" ","MAREA":" ","LANE":"４５巷","ALLEY":" ","HOUSE_NO":"１９號","E_COORD97":189949.17000000001,"N_COORD97":2582881.6699999999,"ADDRESS":"七賢街４５巷１９號","OBJECTID":269540},"geometry":{"x":189949.16999999993,"y":2582881.6700000018}},{"attributes":{"ID":269546,"DIS_CODE":0,"TOWNNAME":"白河區","LI":"永安里","LIN":"17鄰","STREET":"七賢街","SECT":" ","MAREA":" ","LANE":"４５巷","ALLEY":" ","HOUSE_NO":"１號","E_COORD97":189980.48000000001,"N_COORD97":2582889.4500000002,"ADDRESS":"七賢街４５巷１號","OBJECTID":269541},"geometry":{"x":189980.48000000138,"y":2582889.4499999993}},{"attributes":{"ID":269547,"DIS_CODE":0,"TOWNNAME":"白河區","LI":"永安里","LIN":"17鄰","STREET":"七賢街","SECT":" ","MAREA":" ","LANE":"４５巷","ALLEY":" ","HOUSE_NO":"２０號","E_COORD97":189948.89000000001,"N_COORD97":2582877.3700000001,"ADDRESS":"七賢街４５巷２０號","OBJECTID":269542},"geometry":{"x":189948.88999999966,"y":2582877.3700000029}},{"attributes":{"ID":269548,"DIS_CODE":0,"TOWNNAME":"白河區","LI":"永安里","LIN":"17鄰","STREET":"七賢街","SECT":" ","MAREA":" ","LANE":"４５巷","ALLEY":" ","HOUSE_NO":"２號","E_COORD97":189976.95999999999,"N_COORD97":2582893.02,"ADDRESS":"七賢街４５巷２號","OBJECTID":269543},"geometry":{"x":189976.96000000089,"y":2582893.0199999996}},{"attributes":{"ID":269549,"DIS_CODE":0,"TOWNNAME":"白河區","LI":"永安里","LIN":"17鄰","STREET":"七賢街","SECT":" ","MAREA":" ","LANE":"４５巷","ALLEY":" ","HOUSE_NO":"３號","E_COORD97":189973.01999999999,"N_COORD97":2582893.52,"ADDRESS":"七賢街４５巷３號","OBJECTID":269544},"geometry":{"x":189973.01999999955,"y":2582893.5199999996}},{"attributes":{"ID":269550,"DIS_CODE":0,"TOWNNAME":"白河區","LI":"永安里","LIN":"17鄰","STREET":"七賢街","SECT":" ","MAREA":" ","LANE":"４５巷","ALLEY":" ","HOUSE_NO":"４號","E_COORD97":189968.54000000001,"N_COORD97":2582893.8900000001,"ADDRESS":"七賢街４５巷４號","OBJECTID":269545},"geometry":{"x":189968.54000000004,"y":2582893.8900000025}},{"attributes":{"ID":269551,"DIS_CODE":0,"TOWNNAME":"白河區","LI":"永安里","LIN":"17鄰","STREET":"七賢街","SECT":" ","MAREA":" ","LANE":"４５巷","ALLEY":" ","HOUSE_NO":"５號","E_COORD97":189964.79999999999,"N_COORD97":2582893.8999999999,"ADDRESS":"七賢街４５巷５號","OBJECTID":269546},"geometry":{"x":189964.79999999981,"y":2582893.9000000022}},{"attributes":{"ID":269552,"DIS_CODE":0,"TOWNNAME":"白河區","LI":"永安里","LIN":"17鄰","STREET":"七賢街","SECT":" ","MAREA":" ","LANE":"４５巷","ALLEY":" ","HOUSE_NO":"６號","E_COORD97":189960.89999999999,"N_COORD97":2582894.7400000002,"ADDRESS":"七賢街４５巷６號","OBJECTID":269547},"geometry":{"x":189960.9000000013,"y":2582894.7400000021}},{"attributes":{"ID":269553,"DIS_CODE":0,"TOWNNAME":"永康區","LI":"中華里","LIN":"17鄰","STREET":"中華路","SECT":" ","MAREA":" ","LANE":"１０巷","ALLEY":" ","HOUSE_NO":"１０號","E_COORD97":171629.01999999999,"N_COORD97":2544460.3100000001,"ADDRESS":"中華路１０巷１０號","OBJECTID":269548},"geometry":{"x":171629.02000000048,"y":2544460.3100000042}},{"attributes":{"ID":269554,"DIS_CODE":0,"TOWNNAME":"安南區","LI":"學東里","LIN":"17鄰","STREET":"城北路","SECT":" ","MAREA":" ","LANE":"８００巷","ALLEY":" ","HOUSE_NO":"３８號","E_COORD97":161038.75,"N_COORD97":2553283.9300000002,"ADDRESS":"城北路８００巷３８號","OBJECTID":269549},"geometry":{"x":161038.75,"y":2553283.9300000016}},{"attributes":{"ID":269555,"DIS_CODE":0,"TOWNNAME":"安南區","LI":"安西里","LIN":"17鄰","STREET":"安通路","SECT":"四段","MAREA":" ","LANE":"１１９巷","ALLEY":" ","HOUSE_NO":"２４號","E_COORD97":168747.42000000001,"N_COORD97":2547831.4300000002,"ADDRESS":"安通路四段１１９巷２４號","OBJECTID":269550},"geometry":{"x":168747.41999999993,"y":2547831.4299999997}},{"attributes":{"ID":269556,"DIS_CODE":0,"TOWNNAME":"善化區","LI":"東關里","LIN":"17鄰","STREET":"中興路","SECT":" ","MAREA":" ","LANE":"６９巷","ALLEY":" ","HOUSE_NO":"７號","E_COORD97":177577.06,"N_COORD97":2558977.25,"ADDRESS":"中興路６９巷７號","OBJECTID":269551},"geometry":{"x":177577.06000000052,"y":2558977.2499999981}},{"attributes":{"ID":269557,"DIS_CODE":0,"TOWNNAME":"善化區","LI":"東關里","LIN":"17鄰","STREET":"中興路","SECT":" ","MAREA":" ","LANE":"６９巷","ALLEY":" ","HOUSE_NO":"５號","E_COORD97":177575.53,"N_COORD97":2558981.75,"ADDRESS":"中興路６９巷５號","OBJECTID":269552},"geometry":{"x":177575.53000000026,"y":2558981.7500000019}},{"attributes":{"ID":269558,"DIS_CODE":0,"TOWNNAME":"善化區","LI":"坐駕里","LIN":"17鄰","STREET":"文化路","SECT":" ","MAREA":" ","LANE":"８２巷","ALLEY":" ","HOUSE_NO":"５號","E_COORD97":177950.09,"N_COORD97":2558409.0299999998,"ADDRESS":"文化路８２巷５號","OBJECTID":269553},"geometry":{"x":177950.09000000078,"y":2558409.0300000012}},{"attributes":{"ID":269559,"DIS_CODE":0,"TOWNNAME":"善化區","LI":"坐駕里","LIN":"17鄰","STREET":"文化路","SECT":" ","MAREA":" ","LANE":"８２巷","ALLEY":" ","HOUSE_NO":"３號","E_COORD97":177945.95000000001,"N_COORD97":2558408.5299999998,"ADDRESS":"文化路８２巷３號","OBJECTID":269554},"geometry":{"x":177945.95000000205,"y":2558408.5299999975}},{"attributes":{"ID":269560,"DIS_CODE":0,"TOWNNAME":"善化區","LI":"坐駕里","LIN":"17鄰","STREET":"文化路","SECT":" ","MAREA":" ","LANE":"８２巷","ALLEY":" ","HOUSE_NO":"１５號","E_COORD97":177971.04999999999,"N_COORD97":2558411.7799999998,"ADDRESS":"文化路８２巷１５號","OBJECTID":269555},"geometry":{"x":177971.05000000075,"y":2558411.7800000012}},{"attributes":{"ID":269561,"DIS_CODE":0,"TOWNNAME":"善化區","LI":"坐駕里","LIN":"17鄰","STREET":"文化路","SECT":" ","MAREA":" ","LANE":"８２巷","ALLEY":" ","HOUSE_NO":"１２號","E_COORD97":177952.34,"N_COORD97":2558430.7799999998,"ADDRESS":"文化路８２巷１２號","OBJECTID":269556},"geometry":{"x":177952.33999999985,"y":2558430.7800000031}},{"attributes":{"ID":269562,"DIS_CODE":0,"TOWNNAME":"善化區","LI":"坐駕里","LIN":"17鄰","STREET":"文化路","SECT":" ","MAREA":" ","LANE":"８２巷","ALLEY":" ","HOUSE_NO":"２２號","E_COORD97":177972.95000000001,"N_COORD97":2558433.5299999998,"ADDRESS":"文化路８２巷２２號","OBJECTID":269557},"geometry":{"x":177972.94999999925,"y":2558433.5300000012}},{"attributes":{"ID":269563,"DIS_CODE":0,"TOWNNAME":"中西區","LI":"赤嵌里","LIN":"17鄰","STREET":"忠義路","SECT":"二段","MAREA":" ","LANE":"２３３巷","ALLEY":" ","HOUSE_NO":"３１號","E_COORD97":168384.89999999999,"N_COORD97":2544215.8900000001,"ADDRESS":"忠義路二段２３３巷３１號","OBJECTID":269558},"geometry":{"x":168384.90000000037,"y":2544215.8900000025}},{"attributes":{"ID":269564,"DIS_CODE":0,"TOWNNAME":"中西區","LI":"赤嵌里","LIN":"17鄰","STREET":"忠義路","SECT":"二段","MAREA":" ","LANE":"２３３巷","ALLEY":" ","HOUSE_NO":"３３號","E_COORD97":168381.07000000001,"N_COORD97":2544209.1200000001,"ADDRESS":"忠義路二段２３３巷３３號","OBJECTID":269559},"geometry":{"x":168381.07000000216,"y":2544209.1200000029}},{"attributes":{"ID":269565,"DIS_CODE":0,"TOWNNAME":"永康區","LI":"\u25A0行里","LIN":"17鄰","STREET":"中正路","SECT":" ","MAREA":" ","LANE":"６３５巷","ALLEY":" ","HOUSE_NO":"１７號之３","E_COORD97":171708.14000000001,"N_COORD97":2548858.79,"ADDRESS":"中正路６３５巷１７號之３","OBJECTID":269560},"geometry":{"x":171708.1400000006,"y":2548858.7899999991}},{"attributes":{"ID":269566,"DIS_CODE":0,"TOWNNAME":"中西區","LI":"大涼里","LIN":"17鄰","STREET":"府前一街","SECT":" ","MAREA":" ","LANE":"１０９巷","ALLEY":" ","HOUSE_NO":"２５號","E_COORD97":166673.89000000001,"N_COORD97":2543967.4399999999,"ADDRESS":"府前一街１０９巷２５號","OBJECTID":269561},"geometry":{"x":166673.88999999966,"y":2543967.4400000013}},{"attributes":{"ID":269567,"DIS_CODE":0,"TOWNNAME":"中西區","LI":"大涼里","LIN":"17鄰","STREET":"府前一街","SECT":" ","MAREA":" ","LANE":"１０９巷","ALLEY":" ","HOUSE_NO":"２７號","E_COORD97":166669.25,"N_COORD97":2543967.0099999998,"ADDRESS":"府前一街１０９巷２７號","OBJECTID":269562},"geometry":{"x":166669.25000000093,"y":2543967.0100000016}},{"attributes":{"ID":269568,"DIS_CODE":0,"TOWNNAME":"中西區","LI":"大涼里","LIN":"17鄰","STREET":"府前一街","SECT":" ","MAREA":" ","LANE":"１０９巷","ALLEY":" ","HOUSE_NO":"２９號","E_COORD97":166664.85999999999,"N_COORD97":2543967.8700000001,"ADDRESS":"府前一街１０９巷２９號","OBJECTID":269563},"geometry":{"x":166664.86000000034,"y":2543967.870000001}},{"attributes":{"ID":269569,"DIS_CODE":0,"TOWNNAME":"佳里區","LI":"東寧里","LIN":"17鄰","STREET":"延平路","SECT":" ","MAREA":" ","LANE":"３５０巷","ALLEY":" ","HOUSE_NO":"２９號","E_COORD97":165944.92999999999,"N_COORD97":2562472.9700000002,"ADDRESS":"延平路３５０巷２９號","OBJECTID":269564},"geometry":{"x":165944.9299999997,"y":2562472.9700000025}},{"attributes":{"ID":269570,"DIS_CODE":0,"TOWNNAME":"佳里區","LI":"東寧里","LIN":"17鄰","STREET":"延平路","SECT":" ","MAREA":" ","LANE":"３５０巷","ALLEY":" ","HOUSE_NO":"３０號","E_COORD97":165931.59,"N_COORD97":2562468.4199999999,"ADDRESS":"延平路３５０巷３０號","OBJECTID":269565},"geometry":{"x":165931.59000000078,"y":2562468.4200000037}},{"attributes":{"ID":269571,"DIS_CODE":0,"TOWNNAME":"佳里區","LI":"東寧里","LIN":"17鄰","STREET":"延平路","SECT":" ","MAREA":" ","LANE":"３５０巷","ALLEY":" ","HOUSE_NO":"３１號","E_COORD97":165946.01000000001,"N_COORD97":2562469.0299999998,"ADDRESS":"延平路３５０巷３１號","OBJECTID":269566},"geometry":{"x":165946.00999999978,"y":2562469.0299999993}},{"attributes":{"ID":269572,"DIS_CODE":0,"TOWNNAME":"南區","LI":"新興里","LIN":"17鄰","STREET":"三官路","SECT":" ","MAREA":" ","LANE":"８９巷","ALLEY":" ","HOUSE_NO":"２２號","E_COORD97":167391.14000000001,"N_COORD97":2542153.3500000001,"ADDRESS":"三官路８９巷２２號","OBJECTID":269567},"geometry":{"x":167391.13999999966,"y":2542153.3500000034}},{"attributes":{"ID":269573,"DIS_CODE":0,"TOWNNAME":"南區","LI":"新興里","LIN":"17鄰","STREET":"三官路","SECT":" ","MAREA":" ","LANE":"８９巷","ALLEY":" ","HOUSE_NO":"２４號","E_COORD97":167404.13,"N_COORD97":2542146.3500000001,"ADDRESS":"三官路８９巷２４號","OBJECTID":269568},"geometry":{"x":167404.13000000082,"y":2542146.3499999978}},{"attributes":{"ID":269574,"DIS_CODE":0,"TOWNNAME":"南區","LI":"新興里","LIN":"17鄰","STREET":"三官路","SECT":" ","MAREA":" ","LANE":"８９巷","ALLEY":" ","HOUSE_NO":"２６號","E_COORD97":167404.70000000001,"N_COORD97":2542155.6899999999,"ADDRESS":"三官路８９巷２６號","OBJECTID":269569},"geometry":{"x":167404.70000000019,"y":2542155.6900000013}},{"attributes":{"ID":269575,"DIS_CODE":0,"TOWNNAME":"南區","LI":"新興里","LIN":"17鄰","STREET":"三官路","SECT":" ","MAREA":" ","LANE":"８９巷","ALLEY":" ","HOUSE_NO":"２８號","E_COORD97":167410.07000000001,"N_COORD97":2542164.1200000001,"ADDRESS":"三官路８９巷２８號","OBJECTID":269570},"geometry":{"x":167410.07000000123,"y":2542164.1200000029}},{"attributes":{"ID":269576,"DIS_CODE":0,"TOWNNAME":"南區","LI":"新興里","LIN":"17鄰","STREET":"三官路","SECT":" ","MAREA":" ","LANE":"８９巷","ALLEY":" ","HOUSE_NO":"３０號","E_COORD97":167413.31,"N_COORD97":2542171.9100000001,"ADDRESS":"三官路８９巷３０號","OBJECTID":269571},"geometry":{"x":167413.30999999959,"y":2542171.910000002}},{"attributes":{"ID":269577,"DIS_CODE":0,"TOWNNAME":"南區","LI":"新興里","LIN":"17鄰","STREET":"三官路","SECT":" ","MAREA":" ","LANE":"８９巷","ALLEY":" ","HOUSE_NO":"３２號","E_COORD97":167422.95000000001,"N_COORD97":2542172.25,"ADDRESS":"三官路８９巷３２號","OBJECTID":269572},"geometry":{"x":167422.95000000112,"y":2542172.2500000019}},{"attributes":{"ID":269578,"DIS_CODE":0,"TOWNNAME":"南區","LI":"新興里","LIN":"17鄰","STREET":"三官路","SECT":" ","MAREA":" ","LANE":"８９巷","ALLEY":" ","HOUSE_NO":"３２號之１","E_COORD97":167421.67000000001,"N_COORD97":2542167.0600000001,"ADDRESS":"三官路８９巷３２號之１","OBJECTID":269573},"geometry":{"x":167421.66999999993,"y":2542167.0600000024}},{"attributes":{"ID":269579,"DIS_CODE":0,"TOWNNAME":"南區","LI":"新興里","LIN":"17鄰","STREET":"三官路","SECT":" ","MAREA":" ","LANE":"８９巷","ALLEY":" ","HOUSE_NO":"３２號之２","E_COORD97":167420.13,"N_COORD97":2542161.7799999998,"ADDRESS":"三官路８９巷３２號之２","OBJECTID":269574},"geometry":{"x":167420.12999999989,"y":2542161.7800000012}},{"attributes":{"ID":269580,"DIS_CODE":0,"TOWNNAME":"南區","LI":"新興里","LIN":"17鄰","STREET":"三官路","SECT":" ","MAREA":" ","LANE":"８９巷","ALLEY":" ","HOUSE_NO":"３２號之３","E_COORD97":167418.26000000001,"N_COORD97":2542155.0499999998,"ADDRESS":"三官路８９巷３２號之３","OBJECTID":269575},"geometry":{"x":167418.26000000071,"y":2542155.0500000007}},{"attributes":{"ID":269581,"DIS_CODE":0,"TOWNNAME":"南區","LI":"新興里","LIN":"17鄰","STREET":"三官路","SECT":" ","MAREA":" ","LANE":"８９巷","ALLEY":" ","HOUSE_NO":"３４號","E_COORD97":167425.51000000001,"N_COORD97":2542182.4700000002,"ADDRESS":"三官路８９巷３４號","OBJECTID":269576},"geometry":{"x":167425.51000000071,"y":2542182.4700000025}},{"attributes":{"ID":269582,"DIS_CODE":0,"TOWNNAME":"北區","LI":"大和里","LIN":"17鄰","STREET":"文賢路","SECT":" ","MAREA":" ","LANE":"８３３巷","ALLEY":" ","HOUSE_NO":"１２號","E_COORD97":167252.14999999999,"N_COORD97":2546383.3900000001,"ADDRESS":"文賢路８３３巷１２號","OBJECTID":269577},"geometry":{"x":167252.1500000013,"y":2546383.3900000025}},{"attributes":{"ID":269583,"DIS_CODE":0,"TOWNNAME":"北區","LI":"大和里","LIN":"17鄰","STREET":"文賢路","SECT":" ","MAREA":" ","LANE":"８３３巷","ALLEY":" ","HOUSE_NO":"１０號","E_COORD97":167257.23000000001,"N_COORD97":2546384.79,"ADDRESS":"文賢路８３３巷１０號","OBJECTID":269578},"geometry":{"x":167257.23000000045,"y":2546384.790000001}},{"attributes":{"ID":269584,"DIS_CODE":0,"TOWNNAME":"北區","LI":"大和里","LIN":"17鄰","STREET":"文賢路","SECT":" ","MAREA":" ","LANE":"８３３巷","ALLEY":" ","HOUSE_NO":"２號","E_COORD97":167277.81,"N_COORD97":2546387.0699999998,"ADDRESS":"文賢路８３３巷２號","OBJECTID":269579},"geometry":{"x":167277.80999999959,"y":2546387.070000004}},{"attributes":{"ID":269585,"DIS_CODE":0,"TOWNNAME":"新營區","LI":"南紙里","LIN":"17鄰","STREET":"南紙街","SECT":" ","MAREA":" ","LANE":"１６２巷","ALLEY":" ","HOUSE_NO":"５１號","E_COORD97":177856.89999999999,"N_COORD97":2577297.25,"ADDRESS":"南紙街１６２巷５１號","OBJECTID":269580},"geometry":{"x":177856.9000000013,"y":2577297.2500000019}},{"attributes":{"ID":269586,"DIS_CODE":0,"TOWNNAME":"新營區","LI":"興業里","LIN":"17鄰","STREET":"中興路","SECT":" ","MAREA":" ","LANE":"１５巷","ALLEY":" ","HOUSE_NO":"２０號","E_COORD97":180237.19,"N_COORD97":2577917.1000000001,"ADDRESS":"中興路１５巷２０號","OBJECTID":269581},"geometry":{"x":180237.19000000134,"y":2577917.1000000015}},{"attributes":{"ID":269587,"DIS_CODE":0,"TOWNNAME":"新營區","LI":"南興里","LIN":"17鄰","STREET":"興農街","SECT":" ","MAREA":" ","LANE":"１４０巷","ALLEY":" ","HOUSE_NO":"１３之３號","E_COORD97":179197.45999999999,"N_COORD97":2577525.6200000001,"ADDRESS":"興農街１４０巷１３之３號","OBJECTID":269582},"geometry":{"x":179197.46000000089,"y":2577525.6200000029}},{"attributes":{"ID":269588,"DIS_CODE":0,"TOWNNAME":"安平區","LI":"華平里","LIN":"17鄰","STREET":"建平八街","SECT":" ","MAREA":" ","LANE":"４５０巷","ALLEY":" ","HOUSE_NO":"４１號","E_COORD97":165098.04999999999,"N_COORD97":2543717.8599999999,"ADDRESS":"建平八街４５０巷４１號","OBJECTID":269583},"geometry":{"x":165098.04999999981,"y":2543717.8599999994}},{"attributes":{"ID":269589,"DIS_CODE":0,"TOWNNAME":"安平區","LI":"華平里","LIN":"17鄰","STREET":"建平八街","SECT":" ","MAREA":" ","LANE":"４５０巷","ALLEY":" ","HOUSE_NO":"４３號","E_COORD97":165087.53,"N_COORD97":2543720.7400000002,"ADDRESS":"建平八街４５０巷４３號","OBJECTID":269584},"geometry":{"x":165087.53000000212,"y":2543720.7400000002}},{"attributes":{"ID":269590,"DIS_CODE":0,"TOWNNAME":"安平區","LI":"華平里","LIN":"17鄰","STREET":"建平八街","SECT":" ","MAREA":" ","LANE":"４５０巷","ALLEY":" ","HOUSE_NO":"４５號","E_COORD97":165083.28,"N_COORD97":2543721.25,"ADDRESS":"建平八街４５０巷４５號","OBJECTID":269585},"geometry":{"x":165083.28000000026,"y":2543721.2500000019}},{"attributes":{"ID":269591,"DIS_CODE":0,"TOWNNAME":"安平區","LI":"華平里","LIN":"17鄰","STREET":"建平八街","SECT":" ","MAREA":" ","LANE":"４５０巷","ALLEY":" ","HOUSE_NO":"４７號","E_COORD97":165078.22,"N_COORD97":2543721.9500000002,"ADDRESS":"建平八街４５０巷４７號","OBJECTID":269586},"geometry":{"x":165078.21999999974,"y":2543721.950000003}},{"attributes":{"ID":269592,"DIS_CODE":0,"TOWNNAME":"安平區","LI":"華平里","LIN":"17鄰","STREET":"建平八街","SECT":" ","MAREA":" ","LANE":"４５０巷","ALLEY":" ","HOUSE_NO":"４９號","E_COORD97":165073.57000000001,"N_COORD97":2543722.1499999999,"ADDRESS":"建平八街４５０巷４９號","OBJECTID":269587},"geometry":{"x":165073.56999999937,"y":2543722.1500000041}},{"attributes":{"ID":269593,"DIS_CODE":0,"TOWNNAME":"安平區","LI":"華平里","LIN":"17鄰","STREET":"建平八街","SECT":" ","MAREA":" ","LANE":"４５０巷","ALLEY":" ","HOUSE_NO":"５１號","E_COORD97":165074.17000000001,"N_COORD97":2543731.25,"ADDRESS":"建平八街４５０巷５１號","OBJECTID":269588},"geometry":{"x":165074.16999999899,"y":2543731.2500000037}},{"attributes":{"ID":269594,"DIS_CODE":0,"TOWNNAME":"安平區","LI":"華平里","LIN":"17鄰","STREET":"建平八街","SECT":" ","MAREA":" ","LANE":"４５０巷","ALLEY":" ","HOUSE_NO":"５３號","E_COORD97":165078.82999999999,"N_COORD97":2543730.6400000001,"ADDRESS":"建平八街４５０巷５３號","OBJECTID":269589},"geometry":{"x":165078.83000000101,"y":2543730.6400000025}},{"attributes":{"ID":269595,"DIS_CODE":0,"TOWNNAME":"北區","LI":"大道里","LIN":"17鄰","STREET":"北門路","SECT":"二段","MAREA":" ","LANE":"５２７巷","ALLEY":" ","HOUSE_NO":"１６號","E_COORD97":169544.57000000001,"N_COORD97":2545669.1499999999,"ADDRESS":"北門路二段５２７巷１６號","OBJECTID":269590},"geometry":{"x":169544.57000000123,"y":2545669.1500000022}},{"attributes":{"ID":269596,"DIS_CODE":0,"TOWNNAME":"北區","LI":"光武里","LIN":"17鄰","STREET":"北門路","SECT":"二段","MAREA":" ","LANE":"５７７巷","ALLEY":" ","HOUSE_NO":"１０號","E_COORD97":169631.09,"N_COORD97":2545779.48,"ADDRESS":"北門路二段５７７巷１０號","OBJECTID":269591},"geometry":{"x":169631.08999999985,"y":2545779.4800000004}},{"attributes":{"ID":269597,"DIS_CODE":0,"TOWNNAME":"北區","LI":"光武里","LIN":"17鄰","STREET":"北門路","SECT":"二段","MAREA":" ","LANE":"５７７巷","ALLEY":" ","HOUSE_NO":"１２號","E_COORD97":169634.26000000001,"N_COORD97":2545790.8300000001,"ADDRESS":"北門路二段５７７巷１２號","OBJECTID":269592},"geometry":{"x":169634.26000000071,"y":2545790.8300000001}},{"attributes":{"ID":269598,"DIS_CODE":0,"TOWNNAME":"新營區","LI":"南興里","LIN":"17鄰","STREET":"興農街","SECT":" ","MAREA":" ","LANE":"１４０巷","ALLEY":" ","HOUSE_NO":"１７之４號","E_COORD97":179183.14000000001,"N_COORD97":2577525.6899999999,"ADDRESS":"興農街１４０巷１７之４號","OBJECTID":269593},"geometry":{"x":179183.13999999873,"y":2577525.6899999995}},{"attributes":{"ID":269599,"DIS_CODE":0,"TOWNNAME":"南區","LI":"金華里","LIN":"17鄰","STREET":"金華路","SECT":"二段","MAREA":" ","LANE":"６３巷","ALLEY":" ","HOUSE_NO":"７０號","E_COORD97":166810.01999999999,"N_COORD97":2542169.8799999999,"ADDRESS":"金華路二段６３巷７０號","OBJECTID":269594},"geometry":{"x":166810.01999999955,"y":2542169.8800000008}},{"attributes":{"ID":269600,"DIS_CODE":0,"TOWNNAME":"善化區","LI":"文昌里","LIN":"15鄰","STREET":"大信路","SECT":" ","MAREA":" ","LANE":" ","ALLEY":" ","HOUSE_NO":"４６號","E_COORD97":177568.13,"N_COORD97":2558771.5,"ADDRESS":"大信路４６號","OBJECTID":269595},"geometry":{"x":177568.13000000175,"y":2558771.5}},{"attributes":{"ID":269601,"DIS_CODE":0,"TOWNNAME":"北區","LI":"賢北里","LIN":"3鄰","STREET":"大興街","SECT":" ","MAREA":" ","LANE":" ","ALLEY":" ","HOUSE_NO":"３６５號","E_COORD97":166441.34,"N_COORD97":2545591.27,"ADDRESS":"大興街３６５號","OBJECTID":269596},"geometry":{"x":166441.34000000078,"y":2545591.2699999996}},{"attributes":{"ID":269602,"DIS_CODE":0,"TOWNNAME":"安南區","LI":"溪心里","LIN":"3鄰","STREET":"安吉路","SECT":"一段","MAREA":" ","LANE":"４５７巷","ALLEY":" ","HOUSE_NO":"６１號","E_COORD97":166667.04999999999,"N_COORD97":2549820.9100000001,"ADDRESS":"安吉路一段４５７巷６１號","OBJECTID":269597},"geometry":{"x":166667.05000000075,"y":2549820.9100000001}},{"attributes":{"ID":269603,"DIS_CODE":0,"TOWNNAME":"安南區","LI":"溪心里","LIN":"3鄰","STREET":"安吉路","SECT":"一段","MAREA":" ","LANE":"４５７巷","ALLEY":" ","HOUSE_NO":"６７號","E_COORD97":166651.97,"N_COORD97":2549823.77,"ADDRESS":"安吉路一段４５７巷６７號","OBJECTID":269598},"geometry":{"x":166651.9700000016,"y":2549823.7700000014}},{"attributes":{"ID":269604,"DIS_CODE":0,"TOWNNAME":"中西區","LI":"天后里","LIN":"8鄰","STREET":"新美街","SECT":" ","MAREA":" ","LANE":"１２５巷","ALLEY":" ","HOUSE_NO":"３號","E_COORD97":168037.12,"N_COORD97":2544172.1699999999,"ADDRESS":"新美街１２５巷３號","OBJECTID":269599},"geometry":{"x":168037.12000000104,"y":2544172.1700000037}},{"attributes":{"ID":269605,"DIS_CODE":0,"TOWNNAME":"中西區","LI":"天后里","LIN":"8鄰","STREET":"新美街","SECT":" ","MAREA":" ","LANE":"１２５巷","ALLEY":" ","HOUSE_NO":"５號","E_COORD97":168035.38,"N_COORD97":2544173.3799999999,"ADDRESS":"新美街１２５巷５號","OBJECTID":269600},"geometry":{"x":168035.37999999989,"y":2544173.3800000027}}]}