{"displayFieldName":"TOWNNAME","fieldAliases":{"ID":"ID","DIS_CODE":"DIS_CODE","TOWNNAME":"TOWNNAME","LI":"LI","LIN":"LIN","STREET":"STREET","SECT":"SECT","MAREA":"MAREA","LANE":"LANE","ALLEY":"ALLEY","HOUSE_NO":"HOUSE_NO","E_COORD97":"E_COORD97","N_COORD97":"N_COORD97","ADDRESS":"ADDRESS","OBJECTID":"OBJECTID"},"geometryType":"esriGeometryPoint","spatialReference":{"wkid":102443,"latestWkid":3826},"fields":[{"name":"ID","type":"esriFieldTypeDouble","alias":"ID"},{"name":"DIS_CODE","type":"esriFieldTypeInteger","alias":"DIS_CODE"},{"name":"TOWNNAME","type":"esriFieldTypeString","alias":"TOWNNAME","length":8},{"name":"LI","type":"esriFieldTypeString","alias":"LI","length":8},{"name":"LIN","type":"esriFieldTypeString","alias":"LIN","length":12},{"name":"STREET","type":"esriFieldTypeString","alias":"STREET","length":20},{"name":"SECT","type":"esriFieldTypeString","alias":"SECT","length":8},{"name":"MAREA","type":"esriFieldTypeString","alias":"MAREA","length":12},{"name":"LANE","type":"esriFieldTypeString","alias":"LANE","length":10},{"name":"ALLEY","type":"esriFieldTypeString","alias":"ALLEY","length":10},{"name":"HOUSE_NO","type":"esriFieldTypeString","alias":"HOUSE_NO","length":20},{"name":"E_COORD97","type":"esriFieldTypeDouble","alias":"E_COORD97"},{"name":"N_COORD97","type":"esriFieldTypeDouble","alias":"N_COORD97"},{"name":"ADDRESS","type":"esriFieldTypeString","alias":"ADDRESS","length":50},{"name":"OBJECTID","type":"esriFieldTypeOID","alias":"OBJECTID"}],"features":[{"attributes":{"ID":353210,"DIS_CODE":0,"TOWNNAME":"鹽水區","LI":"橋南里","LIN":"6鄰","STREET":"南門路","SECT":" ","MAREA":" ","LANE":"１４７巷","ALLEY":" ","HOUSE_NO":"１之１號","E_COORD97":175353.60999999999,"N_COORD97":2579110.0499999998,"ADDRESS":"南門路１４７巷１之１號","OBJECTID":353201},"geometry":{"x":175353.61000000127,"y":2579110.0500000007}},{"attributes":{"ID":353211,"DIS_CODE":0,"TOWNNAME":"鹽水區","LI":"橋南里","LIN":"6鄰","STREET":"南門路","SECT":" ","MAREA":" ","LANE":"１４７巷","ALLEY":" ","HOUSE_NO":"１之２號","E_COORD97":175349.76000000001,"N_COORD97":2579116.1499999999,"ADDRESS":"南門路１４７巷１之２號","OBJECTID":353202},"geometry":{"x":175349.76000000164,"y":2579116.1500000004}},{"attributes":{"ID":353212,"DIS_CODE":0,"TOWNNAME":"鹽水區","LI":"橋南里","LIN":"6鄰","STREET":"南門路","SECT":" ","MAREA":" ","LANE":"１４７巷","ALLEY":" ","HOUSE_NO":"２號","E_COORD97":175354.97,"N_COORD97":2579098.7799999998,"ADDRESS":"南門路１４７巷２號","OBJECTID":353203},"geometry":{"x":175354.96999999881,"y":2579098.7800000012}},{"attributes":{"ID":353213,"DIS_CODE":0,"TOWNNAME":"鹽水區","LI":"橋南里","LIN":"6鄰","STREET":"南門路","SECT":" ","MAREA":" ","LANE":"１４７巷","ALLEY":" ","HOUSE_NO":"３號","E_COORD97":175357.25,"N_COORD97":2579095.29,"ADDRESS":"南門路１４７巷３號","OBJECTID":353204},"geometry":{"x":175357.25000000093,"y":2579095.290000001}},{"attributes":{"ID":353214,"DIS_CODE":0,"TOWNNAME":"鹽水區","LI":"橋南里","LIN":"6鄰","STREET":"南門路","SECT":" ","MAREA":" ","LANE":"１４７巷","ALLEY":" ","HOUSE_NO":"４號","E_COORD97":175359.51999999999,"N_COORD97":2579091.8100000001,"ADDRESS":"南門路１４７巷４號","OBJECTID":353205},"geometry":{"x":175359.51999999862,"y":2579091.8100000005}},{"attributes":{"ID":353215,"DIS_CODE":0,"TOWNNAME":"鹽水區","LI":"橋南里","LIN":"6鄰","STREET":"南門路","SECT":" ","MAREA":" ","LANE":"１４７巷","ALLEY":" ","HOUSE_NO":"５號","E_COORD97":175361.79999999999,"N_COORD97":2579088.3199999998,"ADDRESS":"南門路１４７巷５號","OBJECTID":353206},"geometry":{"x":175361.80000000075,"y":2579088.3200000003}},{"attributes":{"ID":353216,"DIS_CODE":0,"TOWNNAME":"鹽水區","LI":"橋南里","LIN":"6鄰","STREET":"南門路","SECT":" ","MAREA":" ","LANE":"１４７巷","ALLEY":" ","HOUSE_NO":"６號","E_COORD97":175364.07000000001,"N_COORD97":2579084.8300000001,"ADDRESS":"南門路１４７巷６號","OBJECTID":353207},"geometry":{"x":175364.07000000123,"y":2579084.8300000001}},{"attributes":{"ID":353217,"DIS_CODE":0,"TOWNNAME":"鹽水區","LI":"橋南里","LIN":"6鄰","STREET":"南門路","SECT":" ","MAREA":" ","LANE":"１５４巷","ALLEY":" ","HOUSE_NO":"１４號","E_COORD97":175154.82999999999,"N_COORD97":2579059.6699999999,"ADDRESS":"南門路１５４巷１４號","OBJECTID":353208},"geometry":{"x":175154.83000000101,"y":2579059.6700000018}},{"attributes":{"ID":353218,"DIS_CODE":0,"TOWNNAME":"永康區","LI":"大橋里","LIN":"8鄰","STREET":"大橋三街","SECT":" ","MAREA":" ","LANE":" ","ALLEY":" ","HOUSE_NO":"２５３號之８三樓","E_COORD97":171020.37,"N_COORD97":2546880.75,"ADDRESS":"大橋三街２５３號之８三樓","OBJECTID":353209},"geometry":{"x":171020.37000000104,"y":2546880.7500000037}},{"attributes":{"ID":353219,"DIS_CODE":0,"TOWNNAME":"永康區","LI":"二王里","LIN":"8鄰","STREET":"二王路","SECT":" ","MAREA":" ","LANE":" ","ALLEY":" ","HOUSE_NO":"１６號十三樓之３","E_COORD97":172976.39999999999,"N_COORD97":2546819.7999999998,"ADDRESS":"二王路１６號十三樓之３","OBJECTID":353210},"geometry":{"x":172976.4000000013,"y":2546819.7999999989}},{"attributes":{"ID":353220,"DIS_CODE":0,"TOWNNAME":"安南區","LI":"梅花里","LIN":"20鄰","STREET":"安中路","SECT":"一段","MAREA":" ","LANE":"７５７巷","ALLEY":" ","HOUSE_NO":"３６號","E_COORD97":167367.78,"N_COORD97":2549254.2000000002,"ADDRESS":"安中路一段７５７巷３６號","OBJECTID":353211},"geometry":{"x":167367.78000000119,"y":2549254.2000000011}},{"attributes":{"ID":353221,"DIS_CODE":0,"TOWNNAME":"安南區","LI":"梅花里","LIN":"20鄰","STREET":"安中路","SECT":"一段","MAREA":" ","LANE":"７５７巷","ALLEY":" ","HOUSE_NO":"３８號","E_COORD97":167365.64999999999,"N_COORD97":2549247.5699999998,"ADDRESS":"安中路一段７５７巷３８號","OBJECTID":353212},"geometry":{"x":167365.6500000013,"y":2549247.5700000003}},{"attributes":{"ID":353222,"DIS_CODE":0,"TOWNNAME":"安南區","LI":"梅花里","LIN":"20鄰","STREET":"安中路","SECT":"一段","MAREA":" ","LANE":"７５７巷","ALLEY":" ","HOUSE_NO":"１２之１號","E_COORD97":167393.73000000001,"N_COORD97":2549294.27,"ADDRESS":"安中路一段７５７巷１２之１號","OBJECTID":353213},"geometry":{"x":167393.73000000138,"y":2549294.2700000014}},{"attributes":{"ID":353223,"DIS_CODE":0,"TOWNNAME":"中西區","LI":"西湖里","LIN":"20鄰","STREET":"湖美街","SECT":" ","MAREA":" ","LANE":"１２巷","ALLEY":" ","HOUSE_NO":"１０號","E_COORD97":165986.98999999999,"N_COORD97":2544455.8500000001,"ADDRESS":"湖美街１２巷１０號","OBJECTID":353214},"geometry":{"x":165986.99000000022,"y":2544455.8500000015}},{"attributes":{"ID":353224,"DIS_CODE":0,"TOWNNAME":"鹽水區","LI":"橋南里","LIN":"6鄰","STREET":"南門路","SECT":" ","MAREA":" ","LANE":"１５４巷","ALLEY":" ","HOUSE_NO":"６號","E_COORD97":175299.25,"N_COORD97":2579063.6099999999,"ADDRESS":"南門路１５４巷６號","OBJECTID":353215},"geometry":{"x":175299.25000000186,"y":2579063.6100000013}},{"attributes":{"ID":353225,"DIS_CODE":0,"TOWNNAME":"鹽水區","LI":"橋南里","LIN":"6鄰","STREET":"南門路","SECT":" ","MAREA":" ","LANE":"１５４巷","ALLEY":" ","HOUSE_NO":"８號","E_COORD97":175285.56,"N_COORD97":2579064.6200000001,"ADDRESS":"南門路１５４巷８號","OBJECTID":353216},"geometry":{"x":175285.56000000052,"y":2579064.6200000029}},{"attributes":{"ID":353226,"DIS_CODE":0,"TOWNNAME":"鹽水區","LI":"橋南里","LIN":"6鄰","STREET":"南門路","SECT":" ","MAREA":" ","LANE":"１６１巷","ALLEY":" ","HOUSE_NO":"２號之１","E_COORD97":175379.57999999999,"N_COORD97":2579072.6000000001,"ADDRESS":"南門路１６１巷２號之１","OBJECTID":353217},"geometry":{"x":175379.58000000007,"y":2579072.5999999996}},{"attributes":{"ID":353227,"DIS_CODE":0,"TOWNNAME":"鹽水區","LI":"橋南里","LIN":"6鄰","STREET":"南門路","SECT":" ","MAREA":" ","LANE":"１６１巷","ALLEY":" ","HOUSE_NO":"２號","E_COORD97":175376.45999999999,"N_COORD97":2579077.3500000001,"ADDRESS":"南門路１６１巷２號","OBJECTID":353218},"geometry":{"x":175376.46000000089,"y":2579077.3499999996}},{"attributes":{"ID":353228,"DIS_CODE":0,"TOWNNAME":"鹽水區","LI":"橋南里","LIN":"6鄰","STREET":"南門路","SECT":" ","MAREA":" ","LANE":"１６１巷","ALLEY":" ","HOUSE_NO":"６號","E_COORD97":175382.60000000001,"N_COORD97":2579068.3999999999,"ADDRESS":"南門路１６１巷６號","OBJECTID":353219},"geometry":{"x":175382.59999999963,"y":2579068.4000000041}},{"attributes":{"ID":353229,"DIS_CODE":0,"TOWNNAME":"鹽水區","LI":"橋南里","LIN":"6鄰","STREET":"南門路","SECT":" ","MAREA":" ","LANE":"１６１巷","ALLEY":" ","HOUSE_NO":"８號","E_COORD97":175385.56,"N_COORD97":2579063.9399999999,"ADDRESS":"南門路１６１巷８號","OBJECTID":353220},"geometry":{"x":175385.56000000052,"y":2579063.9400000013}},{"attributes":{"ID":353230,"DIS_CODE":0,"TOWNNAME":"安南區","LI":"州北里","LIN":"26鄰","STREET":"北安路","SECT":"四段","MAREA":" ","LANE":"５４８巷","ALLEY":" ","HOUSE_NO":"６８號","E_COORD97":169712.67999999999,"N_COORD97":2551910.0600000001,"ADDRESS":"北安路四段５４８巷６８號","OBJECTID":353221},"geometry":{"x":169712.68000000063,"y":2551910.0600000005}},{"attributes":{"ID":353231,"DIS_CODE":0,"TOWNNAME":"南區","LI":"大恩里","LIN":"6鄰","STREET":"大同路","SECT":"二段","MAREA":" ","LANE":"７０４巷","ALLEY":" ","HOUSE_NO":"４３號","E_COORD97":169432.88,"N_COORD97":2540824.77,"ADDRESS":"大同路二段７０４巷４３號","OBJECTID":353222},"geometry":{"x":169432.88000000175,"y":2540824.7700000033}},{"attributes":{"ID":353232,"DIS_CODE":0,"TOWNNAME":"南區","LI":"大恩里","LIN":"6鄰","STREET":"大同路","SECT":"二段","MAREA":" ","LANE":"７０４巷","ALLEY":" ","HOUSE_NO":"４５號","E_COORD97":169426.54999999999,"N_COORD97":2540824.2400000002,"ADDRESS":"大同路二段７０４巷４５號","OBJECTID":353223},"geometry":{"x":169426.55000000168,"y":2540824.2400000002}},{"attributes":{"ID":353233,"DIS_CODE":0,"TOWNNAME":"南區","LI":"建南里","LIN":"6鄰","STREET":"德興路","SECT":" ","MAREA":" ","LANE":"３２５巷","ALLEY":" ","HOUSE_NO":"３號","E_COORD97":167273.22,"N_COORD97":2539856.1699999999,"ADDRESS":"德興路３２５巷３號","OBJECTID":353224},"geometry":{"x":167273.22000000067,"y":2539856.1700000037}},{"attributes":{"ID":353234,"DIS_CODE":0,"TOWNNAME":"南區","LI":"國宅里","LIN":"6鄰","STREET":"金華路","SECT":"二段","MAREA":" ","LANE":"３３巷","ALLEY":" ","HOUSE_NO":"８號","E_COORD97":167037.79999999999,"N_COORD97":2541978.6200000001,"ADDRESS":"金華路二段３３巷８號","OBJECTID":353225},"geometry":{"x":167037.79999999981,"y":2541978.620000001}},{"attributes":{"ID":353235,"DIS_CODE":0,"TOWNNAME":"南區","LI":"國宅里","LIN":"6鄰","STREET":"金華路","SECT":"二段","MAREA":" ","LANE":"３３巷","ALLEY":" ","HOUSE_NO":"９號","E_COORD97":167031.63,"N_COORD97":2541964.6800000002,"ADDRESS":"金華路二段３３巷９號","OBJECTID":353226},"geometry":{"x":167031.62999999989,"y":2541964.6800000034}},{"attributes":{"ID":353236,"DIS_CODE":0,"TOWNNAME":"新化區","LI":"東榮里","LIN":"6鄰","STREET":"信義路","SECT":" ","MAREA":" ","LANE":"１１３巷","ALLEY":" ","HOUSE_NO":"１號","E_COORD97":179721.53,"N_COORD97":2548471.25,"ADDRESS":"信義路１１３巷１號","OBJECTID":353227},"geometry":{"x":179721.53000000026,"y":2548471.2500000019}},{"attributes":{"ID":353237,"DIS_CODE":0,"TOWNNAME":"新化區","LI":"觀音里","LIN":"6鄰","STREET":"中正路","SECT":" ","MAREA":" ","LANE":"５４９巷","ALLEY":" ","HOUSE_NO":"２５號","E_COORD97":178973.35999999999,"N_COORD97":2548608.25,"ADDRESS":"中正路５４９巷２５號","OBJECTID":353228},"geometry":{"x":178973.36000000034,"y":2548608.25}},{"attributes":{"ID":353238,"DIS_CODE":0,"TOWNNAME":"新化區","LI":"東榮里","LIN":"6鄰","STREET":"信義路","SECT":" ","MAREA":" ","LANE":"１１７巷","ALLEY":" ","HOUSE_NO":"４９號之１３","E_COORD97":179800.17999999999,"N_COORD97":2548372.2599999998,"ADDRESS":"信義路１１７巷４９號之１３","OBJECTID":353229},"geometry":{"x":179800.18000000156,"y":2548372.2600000035}},{"attributes":{"ID":353239,"DIS_CODE":0,"TOWNNAME":"新化區","LI":"東榮里","LIN":"6鄰","STREET":"信義路","SECT":" ","MAREA":" ","LANE":"１１７巷","ALLEY":" ","HOUSE_NO":"４９號之９","E_COORD97":179785.51999999999,"N_COORD97":2548355.2599999998,"ADDRESS":"信義路１１７巷４９號之９","OBJECTID":353230},"geometry":{"x":179785.51999999955,"y":2548355.2600000035}},{"attributes":{"ID":353240,"DIS_CODE":0,"TOWNNAME":"新化區","LI":"東榮里","LIN":"6鄰","STREET":"信義路","SECT":" ","MAREA":" ","LANE":"１１７巷","ALLEY":" ","HOUSE_NO":"１號","E_COORD97":179693.92999999999,"N_COORD97":2548478.25,"ADDRESS":"信義路１１７巷１號","OBJECTID":353231},"geometry":{"x":179693.93000000063,"y":2548478.2500000019}},{"attributes":{"ID":353241,"DIS_CODE":0,"TOWNNAME":"新化區","LI":"東榮里","LIN":"6鄰","STREET":"信義路","SECT":" ","MAREA":" ","LANE":"１１７巷","ALLEY":" ","HOUSE_NO":"４９號之１０","E_COORD97":179789.97,"N_COORD97":2548355.2599999998,"ADDRESS":"信義路１１７巷４９號之１０","OBJECTID":353232},"geometry":{"x":179789.97000000067,"y":2548355.2600000035}},{"attributes":{"ID":353242,"DIS_CODE":0,"TOWNNAME":"新化區","LI":"觀音里","LIN":"6鄰","STREET":"中正路","SECT":" ","MAREA":" ","LANE":"５４９巷","ALLEY":" ","HOUSE_NO":"３號之４","E_COORD97":178968.84,"N_COORD97":2548648.2599999998,"ADDRESS":"中正路５４９巷３號之４","OBJECTID":353233},"geometry":{"x":178968.84000000078,"y":2548648.2600000016}},{"attributes":{"ID":353243,"DIS_CODE":0,"TOWNNAME":"新化區","LI":"東榮里","LIN":"6鄰","STREET":"信義路","SECT":" ","MAREA":" ","LANE":"１１３巷","ALLEY":" ","HOUSE_NO":"１５號","E_COORD97":179744.48000000001,"N_COORD97":2548474.25,"ADDRESS":"信義路１１３巷１５號","OBJECTID":353234},"geometry":{"x":179744.47999999952,"y":2548474.2500000037}},{"attributes":{"ID":353244,"DIS_CODE":0,"TOWNNAME":"新化區","LI":"觀音里","LIN":"6鄰","STREET":"中正路","SECT":" ","MAREA":" ","LANE":"５４９巷","ALLEY":" ","HOUSE_NO":"５號之１","E_COORD97":178955.54000000001,"N_COORD97":2548645.2599999998,"ADDRESS":"中正路５４９巷５號之１","OBJECTID":353235},"geometry":{"x":178955.5400000019,"y":2548645.2599999998}},{"attributes":{"ID":353245,"DIS_CODE":0,"TOWNNAME":"新化區","LI":"協興里","LIN":"6鄰","STREET":"忠孝路","SECT":" ","MAREA":" ","LANE":"１９０巷","ALLEY":" ","HOUSE_NO":"１號之３","E_COORD97":178399.76999999999,"N_COORD97":2548611.2599999998,"ADDRESS":"忠孝路１９０巷１號之３","OBJECTID":353236},"geometry":{"x":178399.77000000048,"y":2548611.2599999998}},{"attributes":{"ID":353246,"DIS_CODE":0,"TOWNNAME":"永康區","LI":"二王里","LIN":"8鄰","STREET":"二王路","SECT":" ","MAREA":" ","LANE":" ","ALLEY":" ","HOUSE_NO":"１２號十二樓之２","E_COORD97":172966.72,"N_COORD97":2546841.48,"ADDRESS":"二王路１２號十二樓之２","OBJECTID":353237},"geometry":{"x":172966.72000000067,"y":2546841.4800000004}},{"attributes":{"ID":353247,"DIS_CODE":0,"TOWNNAME":"仁德區","LI":"仁愛里","LIN":"20鄰","STREET":" ","SECT":" ","MAREA":"仁愛","LANE":" ","ALLEY":" ","HOUSE_NO":"３９８號","E_COORD97":170139.2249,"N_COORD97":2540195.8290800001,"ADDRESS":"仁愛３９８號","OBJECTID":353238},"geometry":{"x":170139.22490000073,"y":2540195.8290850017}},{"attributes":{"ID":353248,"DIS_CODE":0,"TOWNNAME":"永康區","LI":"二王里","LIN":"8鄰","STREET":"二王路","SECT":" ","MAREA":" ","LANE":" ","ALLEY":" ","HOUSE_NO":"１２號十七樓之１","E_COORD97":172966.59,"N_COORD97":2546841.48,"ADDRESS":"二王路１２號十七樓之１","OBJECTID":353239},"geometry":{"x":172966.59000000078,"y":2546841.4800000004}},{"attributes":{"ID":353249,"DIS_CODE":0,"TOWNNAME":"永康區","LI":"二王里","LIN":"8鄰","STREET":"二王路","SECT":" ","MAREA":" ","LANE":" ","ALLEY":" ","HOUSE_NO":"１６號四樓之３","E_COORD97":172975.14999999999,"N_COORD97":2546819.7999999998,"ADDRESS":"二王路１６號四樓之３","OBJECTID":353240},"geometry":{"x":172975.1500000013,"y":2546819.7999999989}},{"attributes":{"ID":353250,"DIS_CODE":0,"TOWNNAME":"永康區","LI":"二王里","LIN":"8鄰","STREET":"二王路","SECT":" ","MAREA":" ","LANE":" ","ALLEY":" ","HOUSE_NO":"１２號十五樓之１","E_COORD97":172966.59,"N_COORD97":2546841.48,"ADDRESS":"二王路１２號十五樓之１","OBJECTID":353241},"geometry":{"x":172966.59000000078,"y":2546841.4800000004}},{"attributes":{"ID":353251,"DIS_CODE":0,"TOWNNAME":"新化區","LI":"東榮里","LIN":"6鄰","STREET":"信義路","SECT":" ","MAREA":" ","LANE":"１１３巷","ALLEY":" ","HOUSE_NO":"１１號","E_COORD97":179726.28,"N_COORD97":2548451.25,"ADDRESS":"信義路１１３巷１１號","OBJECTID":353242},"geometry":{"x":179726.28000000026,"y":2548451.2500000019}},{"attributes":{"ID":353252,"DIS_CODE":0,"TOWNNAME":"新化區","LI":"東榮里","LIN":"6鄰","STREET":"信義路","SECT":" ","MAREA":" ","LANE":"１１３巷","ALLEY":" ","HOUSE_NO":"７號","E_COORD97":179724.32999999999,"N_COORD97":2548459.25,"ADDRESS":"信義路１１３巷７號","OBJECTID":353243},"geometry":{"x":179724.33000000007,"y":2548459.25}},{"attributes":{"ID":353253,"DIS_CODE":0,"TOWNNAME":"北區","LI":"大和里","LIN":"6鄰","STREET":"大興街","SECT":" ","MAREA":" ","LANE":"１３２巷","ALLEY":" ","HOUSE_NO":"７９號","E_COORD97":167006.06,"N_COORD97":2545943.5800000001,"ADDRESS":"大興街１３２巷７９號","OBJECTID":353244},"geometry":{"x":167006.06000000052,"y":2545943.5800000019}},{"attributes":{"ID":353254,"DIS_CODE":0,"TOWNNAME":"北區","LI":"大和里","LIN":"6鄰","STREET":"大興街","SECT":" ","MAREA":" ","LANE":"１３２巷","ALLEY":" ","HOUSE_NO":"７號","E_COORD97":167020.94,"N_COORD97":2545777.2000000002,"ADDRESS":"大興街１３２巷７號","OBJECTID":353245},"geometry":{"x":167020.94000000134,"y":2545777.1999999993}},{"attributes":{"ID":353255,"DIS_CODE":0,"TOWNNAME":"北區","LI":"大和里","LIN":"6鄰","STREET":"大興街","SECT":" ","MAREA":" ","LANE":"１３２巷","ALLEY":" ","HOUSE_NO":"８１號","E_COORD97":167005.63,"N_COORD97":2545948.3199999998,"ADDRESS":"大興街１３２巷８１號","OBJECTID":353246},"geometry":{"x":167005.63000000082,"y":2545948.320000004}},{"attributes":{"ID":353256,"DIS_CODE":0,"TOWNNAME":"北區","LI":"大和里","LIN":"6鄰","STREET":"大興街","SECT":" ","MAREA":" ","LANE":"１３２巷","ALLEY":" ","HOUSE_NO":"８３號","E_COORD97":167004.95000000001,"N_COORD97":2545952.6099999999,"ADDRESS":"大興街１３２巷８３號","OBJECTID":353247},"geometry":{"x":167004.95000000019,"y":2545952.6100000013}},{"attributes":{"ID":353257,"DIS_CODE":0,"TOWNNAME":"北區","LI":"大和里","LIN":"6鄰","STREET":"大興街","SECT":" ","MAREA":" ","LANE":"１３２巷","ALLEY":" ","HOUSE_NO":"８５號","E_COORD97":167004.89000000001,"N_COORD97":2545956.8399999999,"ADDRESS":"大興街１３２巷８５號","OBJECTID":353248},"geometry":{"x":167004.88999999873,"y":2545956.8399999999}},{"attributes":{"ID":353258,"DIS_CODE":0,"TOWNNAME":"北區","LI":"大和里","LIN":"6鄰","STREET":"大興街","SECT":" ","MAREA":" ","LANE":"１３２巷","ALLEY":" ","HOUSE_NO":"８７號","E_COORD97":167004.57999999999,"N_COORD97":2545960.9100000001,"ADDRESS":"大興街１３２巷８７號","OBJECTID":353249},"geometry":{"x":167004.58000000101,"y":2545960.9100000039}},{"attributes":{"ID":353259,"DIS_CODE":0,"TOWNNAME":"北區","LI":"大和里","LIN":"6鄰","STREET":"大興街","SECT":" ","MAREA":" ","LANE":"１３２巷","ALLEY":" ","HOUSE_NO":"８９號","E_COORD97":167004.09,"N_COORD97":2545965.8900000001,"ADDRESS":"大興街１３２巷８９號","OBJECTID":353250},"geometry":{"x":167004.09000000078,"y":2545965.8900000025}},{"attributes":{"ID":353260,"DIS_CODE":0,"TOWNNAME":"北區","LI":"大和里","LIN":"6鄰","STREET":"大興街","SECT":" ","MAREA":" ","LANE":"１３２巷","ALLEY":" ","HOUSE_NO":"９１號","E_COORD97":167004.03,"N_COORD97":2545970.1899999999,"ADDRESS":"大興街１３２巷９１號","OBJECTID":353251},"geometry":{"x":167004.03000000026,"y":2545970.1899999995}},{"attributes":{"ID":353261,"DIS_CODE":0,"TOWNNAME":"北區","LI":"大和里","LIN":"6鄰","STREET":"大興街","SECT":" ","MAREA":" ","LANE":"１３２巷","ALLEY":" ","HOUSE_NO":"９３號","E_COORD97":167003.79000000001,"N_COORD97":2545974.8599999999,"ADDRESS":"大興街１３２巷９３號","OBJECTID":353252},"geometry":{"x":167003.79000000004,"y":2545974.8600000013}},{"attributes":{"ID":353262,"DIS_CODE":0,"TOWNNAME":"北區","LI":"大和里","LIN":"6鄰","STREET":"大興街","SECT":" ","MAREA":" ","LANE":"１３２巷","ALLEY":" ","HOUSE_NO":"９５號","E_COORD97":167003.73000000001,"N_COORD97":2545979.0899999999,"ADDRESS":"大興街１３２巷９５號","OBJECTID":353253},"geometry":{"x":167003.73000000138,"y":2545979.0899999999}},{"attributes":{"ID":353263,"DIS_CODE":0,"TOWNNAME":"北區","LI":"大和里","LIN":"6鄰","STREET":"大興街","SECT":" ","MAREA":" ","LANE":"１３２巷","ALLEY":" ","HOUSE_NO":"９號","E_COORD97":167020.60999999999,"N_COORD97":2545781.4300000002,"ADDRESS":"大興街１３２巷９號","OBJECTID":353254},"geometry":{"x":167020.61000000034,"y":2545781.4300000016}},{"attributes":{"ID":353264,"DIS_CODE":0,"TOWNNAME":"北區","LI":"大港里","LIN":"6鄰","STREET":"大興街","SECT":" ","MAREA":" ","LANE":"２１２巷","ALLEY":" ","HOUSE_NO":"２６號","E_COORD97":166783.26000000001,"N_COORD97":2545797.8199999998,"ADDRESS":"大興街２１２巷２６號","OBJECTID":353255},"geometry":{"x":166783.25999999978,"y":2545797.8200000003}},{"attributes":{"ID":353265,"DIS_CODE":0,"TOWNNAME":"北區","LI":"大港里","LIN":"6鄰","STREET":"大興街","SECT":" ","MAREA":" ","LANE":"２１２巷","ALLEY":" ","HOUSE_NO":"２號","E_COORD97":166785.10000000001,"N_COORD97":2545725.8199999998,"ADDRESS":"大興街２１２巷２號","OBJECTID":353256},"geometry":{"x":166785.10000000056,"y":2545725.8200000022}},{"attributes":{"ID":353266,"DIS_CODE":0,"TOWNNAME":"北區","LI":"大港里","LIN":"6鄰","STREET":"大興街","SECT":" ","MAREA":" ","LANE":"２１２巷","ALLEY":" ","HOUSE_NO":"３６號","E_COORD97":166782.25,"N_COORD97":2545807.3399999999,"ADDRESS":"大興街２１２巷３６號","OBJECTID":353257},"geometry":{"x":166782.25,"y":2545807.3399999999}},{"attributes":{"ID":353267,"DIS_CODE":0,"TOWNNAME":"北區","LI":"大港里","LIN":"6鄰","STREET":"大興街","SECT":" ","MAREA":" ","LANE":"２１２巷","ALLEY":" ","HOUSE_NO":"３８號","E_COORD97":166781.25,"N_COORD97":2545811.8500000001,"ADDRESS":"大興街２１２巷３８號","OBJECTID":353258},"geometry":{"x":166781.25000000093,"y":2545811.8500000034}},{"attributes":{"ID":353268,"DIS_CODE":0,"TOWNNAME":"北區","LI":"大港里","LIN":"6鄰","STREET":"大興街","SECT":" ","MAREA":" ","LANE":"２１２巷","ALLEY":" ","HOUSE_NO":"４０號","E_COORD97":166781.42000000001,"N_COORD97":2545815.8599999999,"ADDRESS":"大興街２１２巷４０號","OBJECTID":353259},"geometry":{"x":166781.42000000179,"y":2545815.8600000013}},{"attributes":{"ID":353269,"DIS_CODE":0,"TOWNNAME":"北區","LI":"大港里","LIN":"6鄰","STREET":"大興街","SECT":" ","MAREA":" ","LANE":"２１２巷","ALLEY":" ","HOUSE_NO":"４２號","E_COORD97":166781.07999999999,"N_COORD97":2545819.7000000002,"ADDRESS":"大興街２１２巷４２號","OBJECTID":353260},"geometry":{"x":166781.08000000101,"y":2545819.7000000011}},{"attributes":{"ID":353270,"DIS_CODE":0,"TOWNNAME":"北區","LI":"大港里","LIN":"6鄰","STREET":"大興街","SECT":" ","MAREA":" ","LANE":"２１２巷","ALLEY":" ","HOUSE_NO":"４４號","E_COORD97":166779.41,"N_COORD97":2545824.04,"ADDRESS":"大興街２１２巷４４號","OBJECTID":353261},"geometry":{"x":166779.41000000015,"y":2545824.040000001}},{"attributes":{"ID":353271,"DIS_CODE":0,"TOWNNAME":"北區","LI":"大港里","LIN":"6鄰","STREET":"大興街","SECT":" ","MAREA":" ","LANE":"２１２巷","ALLEY":" ","HOUSE_NO":"４６號","E_COORD97":166779.07000000001,"N_COORD97":2545828.7200000002,"ADDRESS":"大興街２１２巷４６號","OBJECTID":353262},"geometry":{"x":166779.07000000216,"y":2545828.7200000025}},{"attributes":{"ID":353272,"DIS_CODE":0,"TOWNNAME":"北區","LI":"大港里","LIN":"6鄰","STREET":"大興街","SECT":" ","MAREA":" ","LANE":"２１２巷","ALLEY":" ","HOUSE_NO":"４號","E_COORD97":166784.59,"N_COORD97":2545730.1600000001,"ADDRESS":"大興街２１２巷４號","OBJECTID":353263},"geometry":{"x":166784.58999999985,"y":2545730.160000002}},{"attributes":{"ID":353273,"DIS_CODE":0,"TOWNNAME":"北區","LI":"大港里","LIN":"6鄰","STREET":"大興街","SECT":" ","MAREA":" ","LANE":"２１２巷","ALLEY":" ","HOUSE_NO":"６號","E_COORD97":166784.42999999999,"N_COORD97":2545736.1699999999,"ADDRESS":"大興街２１２巷６號","OBJECTID":353264},"geometry":{"x":166784.43000000156,"y":2545736.1700000018}},{"attributes":{"ID":353274,"DIS_CODE":0,"TOWNNAME":"北區","LI":"大港里","LIN":"6鄰","STREET":"大興街","SECT":" ","MAREA":" ","LANE":"２１２巷","ALLEY":" ","HOUSE_NO":"８號","E_COORD97":166784.42999999999,"N_COORD97":2545741.6899999999,"ADDRESS":"大興街２１２巷８號","OBJECTID":353265},"geometry":{"x":166784.43000000156,"y":2545741.6900000013}},{"attributes":{"ID":353275,"DIS_CODE":0,"TOWNNAME":"北區","LI":"大港里","LIN":"6鄰","STREET":"大興街","SECT":" ","MAREA":" ","LANE":"２１２巷","ALLEY":" ","HOUSE_NO":"１１號","E_COORD97":166773.89000000001,"N_COORD97":2545757.4199999999,"ADDRESS":"大興街２１２巷１１號","OBJECTID":353266},"geometry":{"x":166773.88999999966,"y":2545757.4200000037}},{"attributes":{"ID":353276,"DIS_CODE":0,"TOWNNAME":"善化區","LI":"坐駕里","LIN":"20鄰","STREET":" ","SECT":" ","MAREA":"坐駕","LANE":" ","ALLEY":" ","HOUSE_NO":"８４號","E_COORD97":178258.23999999999,"N_COORD97":2558341.5,"ADDRESS":"坐駕８４號","OBJECTID":353267},"geometry":{"x":178258.24000000115,"y":2558341.5}},{"attributes":{"ID":353277,"DIS_CODE":0,"TOWNNAME":"善化區","LI":"坐駕里","LIN":"20鄰","STREET":" ","SECT":" ","MAREA":"坐駕","LANE":" ","ALLEY":" ","HOUSE_NO":"８０號","E_COORD97":178265.67000000001,"N_COORD97":2558355.75,"ADDRESS":"坐駕８０號","OBJECTID":353268},"geometry":{"x":178265.66999999993,"y":2558355.75}},{"attributes":{"ID":353278,"DIS_CODE":0,"TOWNNAME":"善化區","LI":"小新里","LIN":"20鄰","STREET":" ","SECT":" ","MAREA":"小新營","LANE":" ","ALLEY":" ","HOUSE_NO":"１６６號之１７","E_COORD97":180109.5,"N_COORD97":2558274.27,"ADDRESS":"小新營１６６號之１７","OBJECTID":353269},"geometry":{"x":180109.5,"y":2558274.2699999996}},{"attributes":{"ID":353279,"DIS_CODE":0,"TOWNNAME":"善化區","LI":"坐駕里","LIN":"20鄰","STREET":" ","SECT":" ","MAREA":"坐駕","LANE":" ","ALLEY":" ","HOUSE_NO":"１３１號","E_COORD97":178253.64999999999,"N_COORD97":2558245.5,"ADDRESS":"坐駕１３１號","OBJECTID":353270},"geometry":{"x":178253.6500000013,"y":2558245.5}},{"attributes":{"ID":353280,"DIS_CODE":0,"TOWNNAME":"善化區","LI":"胡厝里","LIN":"20鄰","STREET":" ","SECT":" ","MAREA":"西衛","LANE":" ","ALLEY":" ","HOUSE_NO":"２９號之２","E_COORD97":174208.03,"N_COORD97":2559281.52,"ADDRESS":"西衛２９號之２","OBJECTID":353271},"geometry":{"x":174208.03000000119,"y":2559281.5200000014}},{"attributes":{"ID":353281,"DIS_CODE":0,"TOWNNAME":"善化區","LI":"坐駕里","LIN":"20鄰","STREET":" ","SECT":" ","MAREA":"坐駕","LANE":" ","ALLEY":" ","HOUSE_NO":"７４號","E_COORD97":178265.95999999999,"N_COORD97":2558328.75,"ADDRESS":"坐駕７４號","OBJECTID":353272},"geometry":{"x":178265.96000000183,"y":2558328.75}},{"attributes":{"ID":353282,"DIS_CODE":0,"TOWNNAME":"善化區","LI":"坐駕里","LIN":"20鄰","STREET":" ","SECT":" ","MAREA":"坐駕","LANE":" ","ALLEY":" ","HOUSE_NO":"７４之１號","E_COORD97":178265.01000000001,"N_COORD97":2558325.27,"ADDRESS":"坐駕７４之１號","OBJECTID":353273},"geometry":{"x":178265.00999999978,"y":2558325.2699999996}},{"attributes":{"ID":353283,"DIS_CODE":0,"TOWNNAME":"善化區","LI":"坐駕里","LIN":"20鄰","STREET":" ","SECT":" ","MAREA":"坐駕","LANE":" ","ALLEY":" ","HOUSE_NO":"９９號","E_COORD97":178317.07000000001,"N_COORD97":2558356.75,"ADDRESS":"坐駕９９號","OBJECTID":353274},"geometry":{"x":178317.07000000123,"y":2558356.75}},{"attributes":{"ID":353284,"DIS_CODE":0,"TOWNNAME":"善化區","LI":"小新里","LIN":"20鄰","STREET":" ","SECT":" ","MAREA":"小新營","LANE":" ","ALLEY":" ","HOUSE_NO":"３３６號之１","E_COORD97":180289.20999999999,"N_COORD97":2558152.77,"ADDRESS":"小新營３３６號之１","OBJECTID":353275},"geometry":{"x":180289.21000000089,"y":2558152.7699999977}},{"attributes":{"ID":353285,"DIS_CODE":0,"TOWNNAME":"善化區","LI":"胡厝里","LIN":"20鄰","STREET":" ","SECT":" ","MAREA":"西衛","LANE":" ","ALLEY":" ","HOUSE_NO":"３６號之７","E_COORD97":174046.59,"N_COORD97":2559243.02,"ADDRESS":"西衛３６號之７","OBJECTID":353276},"geometry":{"x":174046.58999999985,"y":2559243.0200000033}},{"attributes":{"ID":353286,"DIS_CODE":0,"TOWNNAME":"善化區","LI":"光文里","LIN":"20鄰","STREET":"民權路","SECT":" ","MAREA":" ","LANE":"２４５巷","ALLEY":" ","HOUSE_NO":"１之２號","E_COORD97":178055.63,"N_COORD97":2558948.52,"ADDRESS":"民權路２４５巷１之２號","OBJECTID":353277},"geometry":{"x":178055.62999999989,"y":2558948.5200000014}},{"attributes":{"ID":353287,"DIS_CODE":0,"TOWNNAME":"善化區","LI":"文昌里","LIN":"20鄰","STREET":"中正路","SECT":" ","MAREA":" ","LANE":"２１２巷","ALLEY":" ","HOUSE_NO":"４３號","E_COORD97":177792.32000000001,"N_COORD97":2558258.25,"ADDRESS":"中正路２１２巷４３號","OBJECTID":353278},"geometry":{"x":177792.3200000003,"y":2558258.25}},{"attributes":{"ID":353288,"DIS_CODE":0,"TOWNNAME":"善化區","LI":"光文里","LIN":"20鄰","STREET":"民權路","SECT":" ","MAREA":" ","LANE":"２４５巷","ALLEY":" ","HOUSE_NO":"２之３號","E_COORD97":178048.66,"N_COORD97":2558927.77,"ADDRESS":"民權路２４５巷２之３號","OBJECTID":353279},"geometry":{"x":178048.66000000108,"y":2558927.7699999996}},{"attributes":{"ID":353289,"DIS_CODE":0,"TOWNNAME":"永康區","LI":"復興里","LIN":"20鄰","STREET":"復興路","SECT":" ","MAREA":" ","LANE":"３５６巷","ALLEY":" ","HOUSE_NO":"４２號","E_COORD97":172309.31,"N_COORD97":2544441.8399999999,"ADDRESS":"復興路３５６巷４２號","OBJECTID":353280},"geometry":{"x":172309.30999999959,"y":2544441.8399999999}},{"attributes":{"ID":353290,"DIS_CODE":0,"TOWNNAME":"永康區","LI":"三合里","LIN":"20鄰","STREET":"南工街","SECT":" ","MAREA":" ","LANE":"２６７巷","ALLEY":" ","HOUSE_NO":"６號","E_COORD97":171879.01999999999,"N_COORD97":2545949.9900000002,"ADDRESS":"南工街２６７巷６號","OBJECTID":353281},"geometry":{"x":171879.01999999955,"y":2545949.9900000002}},{"attributes":{"ID":353291,"DIS_CODE":0,"TOWNNAME":"永康區","LI":"大灣里","LIN":"20鄰","STREET":"大灣五街","SECT":" ","MAREA":" ","LANE":"３９巷","ALLEY":" ","HOUSE_NO":"２３號","E_COORD97":174693.73999999999,"N_COORD97":2545106.75,"ADDRESS":"大灣五街３９巷２３號","OBJECTID":353282},"geometry":{"x":174693.74000000022,"y":2545106.75}},{"attributes":{"ID":353292,"DIS_CODE":0,"TOWNNAME":"永康區","LI":"三民里","LIN":" ","STREET":"中正北路","SECT":" ","MAREA":" ","LANE":" ","ALLEY":" ","HOUSE_NO":"９７３號","E_COORD97":175255.87,"N_COORD97":2550378.75,"ADDRESS":"中正北路９７３號","OBJECTID":353283},"geometry":{"x":175255.87000000011,"y":2550378.75}},{"attributes":{"ID":353293,"DIS_CODE":0,"TOWNNAME":"永康區","LI":"永康里","LIN":"26鄰","STREET":"永明街","SECT":" ","MAREA":" ","LANE":" ","ALLEY":" ","HOUSE_NO":"４５號","E_COORD97":174104.14000000001,"N_COORD97":2547320.79,"ADDRESS":"永明街４５號","OBJECTID":353284},"geometry":{"x":174104.13999999966,"y":2547320.790000001}},{"attributes":{"ID":353294,"DIS_CODE":0,"TOWNNAME":"永康區","LI":"\u25A0洲里","LIN":"24鄰","STREET":"國聖街","SECT":" ","MAREA":" ","LANE":" ","ALLEY":" ","HOUSE_NO":"２９６號","E_COORD97":170880.45999999999,"N_COORD97":2548428.0699999998,"ADDRESS":"國聖街２９６號","OBJECTID":353285},"geometry":{"x":170880.46000000089,"y":2548428.070000004}},{"attributes":{"ID":353295,"DIS_CODE":0,"TOWNNAME":"永康區","LI":"永康里","LIN":" ","STREET":"中山南路","SECT":" ","MAREA":" ","LANE":" ","ALLEY":" ","HOUSE_NO":"１０２２號","E_COORD97":173664.32000000001,"N_COORD97":2547249.5,"ADDRESS":"中山南路１０２２號","OBJECTID":353286},"geometry":{"x":173664.3200000003,"y":2547249.5000000019}},{"attributes":{"ID":353296,"DIS_CODE":0,"TOWNNAME":"永康區","LI":"東灣里","LIN":" ","STREET":"大灣東路","SECT":" ","MAREA":" ","LANE":" ","ALLEY":" ","HOUSE_NO":"２２２之３號","E_COORD97":174795.62,"N_COORD97":2544443.0499999998,"ADDRESS":"大灣東路２２２之３號","OBJECTID":353287},"geometry":{"x":174795.62000000104,"y":2544443.0500000026}},{"attributes":{"ID":353297,"DIS_CODE":0,"TOWNNAME":"永康區","LI":"永康里","LIN":" ","STREET":"永明街","SECT":" ","MAREA":" ","LANE":" ","ALLEY":" ","HOUSE_NO":"４７號","E_COORD97":174107.92000000001,"N_COORD97":2547319.04,"ADDRESS":"永明街４７號","OBJECTID":353288},"geometry":{"x":174107.92000000179,"y":2547319.040000001}},{"attributes":{"ID":353298,"DIS_CODE":0,"TOWNNAME":"北區","LI":"大港里","LIN":"6鄰","STREET":"大興街","SECT":" ","MAREA":" ","LANE":"２１２巷","ALLEY":" ","HOUSE_NO":"１３號","E_COORD97":166773.63,"N_COORD97":2545762,"ADDRESS":"大興街２１２巷１３號","OBJECTID":353289},"geometry":{"x":166773.63000000082,"y":2545762}},{"attributes":{"ID":353299,"DIS_CODE":0,"TOWNNAME":"北區","LI":"大港里","LIN":"6鄰","STREET":"大興街","SECT":" ","MAREA":" ","LANE":"２１２巷","ALLEY":" ","HOUSE_NO":"１５號","E_COORD97":166773.63,"N_COORD97":2545766.4399999999,"ADDRESS":"大興街２１２巷１５號","OBJECTID":353290},"geometry":{"x":166773.63000000082,"y":2545766.4399999995}},{"attributes":{"ID":353300,"DIS_CODE":0,"TOWNNAME":"北區","LI":"大港里","LIN":"6鄰","STREET":"大興街","SECT":" ","MAREA":" ","LANE":"２１２巷","ALLEY":" ","HOUSE_NO":"１７號","E_COORD97":166773.37,"N_COORD97":2545771.7999999998,"ADDRESS":"大興街２１２巷１７號","OBJECTID":353291},"geometry":{"x":166773.37000000197,"y":2545771.8000000007}},{"attributes":{"ID":353301,"DIS_CODE":0,"TOWNNAME":"北區","LI":"大港里","LIN":"6鄰","STREET":"大興街","SECT":" ","MAREA":" ","LANE":"２１２巷","ALLEY":" ","HOUSE_NO":"１９號","E_COORD97":166772.97,"N_COORD97":2545776.5099999998,"ADDRESS":"大興街２１２巷１９號","OBJECTID":353292},"geometry":{"x":166772.97000000067,"y":2545776.5099999979}},{"attributes":{"ID":353302,"DIS_CODE":0,"TOWNNAME":"北區","LI":"大港里","LIN":"6鄰","STREET":"大興街","SECT":" ","MAREA":" ","LANE":"２１２巷","ALLEY":" ","HOUSE_NO":"１號","E_COORD97":166774.94,"N_COORD97":2545735.1899999999,"ADDRESS":"大興街２１２巷１號","OBJECTID":353293},"geometry":{"x":166774.94000000227,"y":2545735.1900000013}},{"attributes":{"ID":353303,"DIS_CODE":0,"TOWNNAME":"北區","LI":"大港里","LIN":"6鄰","STREET":"大興街","SECT":" ","MAREA":" ","LANE":"２１２巷","ALLEY":" ","HOUSE_NO":"２１號","E_COORD97":166773.23999999999,"N_COORD97":2545783.0499999998,"ADDRESS":"大興街２１２巷２１號","OBJECTID":353294},"geometry":{"x":166773.24000000115,"y":2545783.0500000007}},{"attributes":{"ID":353304,"DIS_CODE":0,"TOWNNAME":"北區","LI":"大港里","LIN":"6鄰","STREET":"大興街","SECT":" ","MAREA":" ","LANE":"２１２巷","ALLEY":" ","HOUSE_NO":"２３號","E_COORD97":166772.57999999999,"N_COORD97":2545787.23,"ADDRESS":"大興街２１２巷２３號","OBJECTID":353295},"geometry":{"x":166772.58000000101,"y":2545787.2300000023}},{"attributes":{"ID":353305,"DIS_CODE":0,"TOWNNAME":"北區","LI":"大港里","LIN":"6鄰","STREET":"大興街","SECT":" ","MAREA":" ","LANE":"２１２巷","ALLEY":" ","HOUSE_NO":"２５號","E_COORD97":166772.45000000001,"N_COORD97":2545791.6800000002,"ADDRESS":"大興街２１２巷２５號","OBJECTID":353296},"geometry":{"x":166772.45000000019,"y":2545791.6799999997}},{"attributes":{"ID":353306,"DIS_CODE":0,"TOWNNAME":"北區","LI":"大港里","LIN":"6鄰","STREET":"大興街","SECT":" ","MAREA":" ","LANE":"２１２巷","ALLEY":" ","HOUSE_NO":"２７號","E_COORD97":166772.19,"N_COORD97":2545796.1299999999,"ADDRESS":"大興街２１２巷２７號","OBJECTID":353297},"geometry":{"x":166772.19000000134,"y":2545796.1300000008}},{"attributes":{"ID":353307,"DIS_CODE":0,"TOWNNAME":"北區","LI":"大港里","LIN":"6鄰","STREET":"大興街","SECT":" ","MAREA":" ","LANE":"２１２巷","ALLEY":" ","HOUSE_NO":"２９號","E_COORD97":166772.97,"N_COORD97":2545803.71,"ADDRESS":"大興街２１２巷２９號","OBJECTID":353298},"geometry":{"x":166772.97000000067,"y":2545803.7100000046}},{"attributes":{"ID":353308,"DIS_CODE":0,"TOWNNAME":"北區","LI":"大港里","LIN":"6鄰","STREET":"大興街","SECT":" ","MAREA":" ","LANE":"２１２巷","ALLEY":" ","HOUSE_NO":"３１號","E_COORD97":166771.92999999999,"N_COORD97":2545807.7599999998,"ADDRESS":"大興街２１２巷３１號","OBJECTID":353299},"geometry":{"x":166771.9299999997,"y":2545807.7599999998}},{"attributes":{"ID":353309,"DIS_CODE":0,"TOWNNAME":"北區","LI":"大港里","LIN":"6鄰","STREET":"大興街","SECT":" ","MAREA":" ","LANE":"２１２巷","ALLEY":" ","HOUSE_NO":"３７號","E_COORD97":166769.70000000001,"N_COORD97":2545820.8399999999,"ADDRESS":"大興街２１２巷３７號","OBJECTID":353300},"geometry":{"x":166769.70000000112,"y":2545820.8399999999}},{"attributes":{"ID":353310,"DIS_CODE":0,"TOWNNAME":"北區","LI":"大港里","LIN":"6鄰","STREET":"大興街","SECT":" ","MAREA":" ","LANE":"２１２巷","ALLEY":" ","HOUSE_NO":"３９號","E_COORD97":166769.17999999999,"N_COORD97":2545824.7599999998,"ADDRESS":"大興街２１２巷３９號","OBJECTID":353301},"geometry":{"x":166769.18000000156,"y":2545824.7599999998}},{"attributes":{"ID":353311,"DIS_CODE":0,"TOWNNAME":"北區","LI":"大港里","LIN":"6鄰","STREET":"大興街","SECT":" ","MAREA":" ","LANE":"２１２巷","ALLEY":" ","HOUSE_NO":"３號","E_COORD97":166774.94,"N_COORD97":2545740.0299999998,"ADDRESS":"大興街２１２巷３號","OBJECTID":353302},"geometry":{"x":166774.94000000227,"y":2545740.0300000012}},{"attributes":{"ID":353312,"DIS_CODE":0,"TOWNNAME":"北區","LI":"大港里","LIN":"6鄰","STREET":"大興街","SECT":" ","MAREA":" ","LANE":"２１２巷","ALLEY":" ","HOUSE_NO":"４１號","E_COORD97":166769.04999999999,"N_COORD97":2545829.8599999999,"ADDRESS":"大興街２１２巷４１號","OBJECTID":353303},"geometry":{"x":166769.05000000075,"y":2545829.8600000013}},{"attributes":{"ID":353313,"DIS_CODE":0,"TOWNNAME":"北區","LI":"大港里","LIN":"6鄰","STREET":"大興街","SECT":" ","MAREA":" ","LANE":"２１２巷","ALLEY":" ","HOUSE_NO":"５號","E_COORD97":166774.94,"N_COORD97":2545743.1699999999,"ADDRESS":"大興街２１２巷５號","OBJECTID":353304},"geometry":{"x":166774.94000000227,"y":2545743.1700000018}},{"attributes":{"ID":353314,"DIS_CODE":0,"TOWNNAME":"北區","LI":"大港里","LIN":"6鄰","STREET":"大興街","SECT":" ","MAREA":" ","LANE":"２１２巷","ALLEY":" ","HOUSE_NO":"７號","E_COORD97":166774.94,"N_COORD97":2545748.9199999999,"ADDRESS":"大興街２１２巷７號","OBJECTID":353305},"geometry":{"x":166774.94000000227,"y":2545748.9199999999}},{"attributes":{"ID":353315,"DIS_CODE":0,"TOWNNAME":"北區","LI":"大港里","LIN":"6鄰","STREET":"大興街","SECT":" ","MAREA":" ","LANE":"２１２巷","ALLEY":" ","HOUSE_NO":"９號","E_COORD97":166774.41,"N_COORD97":2545752.5800000001,"ADDRESS":"大興街２１２巷９號","OBJECTID":353306},"geometry":{"x":166774.41000000015,"y":2545752.5800000001}},{"attributes":{"ID":353316,"DIS_CODE":0,"TOWNNAME":"關廟區","LI":"關廟里","LIN":"6鄰","STREET":"民生街","SECT":" ","MAREA":" ","LANE":"２０３巷","ALLEY":" ","HOUSE_NO":"１９號","E_COORD97":180837.84,"N_COORD97":2539973.29,"ADDRESS":"民生街２０３巷１９號","OBJECTID":353307},"geometry":{"x":180837.83999999985,"y":2539973.2900000028}},{"attributes":{"ID":353317,"DIS_CODE":0,"TOWNNAME":"新市區","LI":"社內里","LIN":"20鄰","STREET":" ","SECT":" ","MAREA":"社內","LANE":" ","ALLEY":" ","HOUSE_NO":"２０３之１１號","E_COORD97":176002.89000000001,"N_COORD97":2553117.2999999998,"ADDRESS":"社內２０３之１１號","OBJECTID":353308},"geometry":{"x":176002.88999999966,"y":2553117.3000000026}},{"attributes":{"ID":353318,"DIS_CODE":0,"TOWNNAME":"新市區","LI":"大營里","LIN":"20鄰","STREET":" ","SECT":" ","MAREA":"豐榮","LANE":" ","ALLEY":" ","HOUSE_NO":"５２之７號","E_COORD97":178793.09,"N_COORD97":2554189.7999999998,"ADDRESS":"豐榮５２之７號","OBJECTID":353309},"geometry":{"x":178793.08999999985,"y":2554189.8000000007}},{"attributes":{"ID":353319,"DIS_CODE":0,"TOWNNAME":"安定區","LI":"港口里","LIN":"20鄰","STREET":" ","SECT":" ","MAREA":"港口","LANE":" ","ALLEY":" ","HOUSE_NO":"３９３號之２","E_COORD97":171562.06,"N_COORD97":2554998.2999999998,"ADDRESS":"港口３９３號之２","OBJECTID":353310},"geometry":{"x":171562.05999999866,"y":2554998.3000000026}},{"attributes":{"ID":353320,"DIS_CODE":0,"TOWNNAME":"安定區","LI":"海寮里","LIN":"20鄰","STREET":" ","SECT":" ","MAREA":"海寮","LANE":" ","ALLEY":" ","HOUSE_NO":"１８６號之２","E_COORD97":169480.31,"N_COORD97":2555443.2999999998,"ADDRESS":"海寮１８６號之２","OBJECTID":353311},"geometry":{"x":169480.30999999959,"y":2555443.3000000026}},{"attributes":{"ID":353321,"DIS_CODE":0,"TOWNNAME":"安定區","LI":"港口里","LIN":"20鄰","STREET":" ","SECT":" ","MAREA":"港口","LANE":" ","ALLEY":" ","HOUSE_NO":"３９３號之２３","E_COORD97":171521.07000000001,"N_COORD97":2555023.2999999998,"ADDRESS":"港口３９３號之２３","OBJECTID":353312},"geometry":{"x":171521.07000000123,"y":2555023.3000000007}},{"attributes":{"ID":353322,"DIS_CODE":0,"TOWNNAME":"安定區","LI":"港口里","LIN":"20鄰","STREET":" ","SECT":" ","MAREA":"港口","LANE":" ","ALLEY":" ","HOUSE_NO":"３９３號之２６","E_COORD97":171515.67999999999,"N_COORD97":2555034.2999999998,"ADDRESS":"港口３９３號之２６","OBJECTID":353313},"geometry":{"x":171515.68000000156,"y":2555034.3000000007}},{"attributes":{"ID":353323,"DIS_CODE":0,"TOWNNAME":"安定區","LI":"港口里","LIN":"20鄰","STREET":" ","SECT":" ","MAREA":"港口","LANE":" ","ALLEY":" ","HOUSE_NO":"３９９之６８號","E_COORD97":171603.04000000001,"N_COORD97":2554991.2999999998,"ADDRESS":"港口３９９之６８號","OBJECTID":353314},"geometry":{"x":171603.04000000004,"y":2554991.3000000026}},{"attributes":{"ID":353324,"DIS_CODE":0,"TOWNNAME":"安定區","LI":"港口里","LIN":"20鄰","STREET":" ","SECT":" ","MAREA":"港口","LANE":" ","ALLEY":" ","HOUSE_NO":"３９９之７８號","E_COORD97":171581.94,"N_COORD97":2554993.2999999998,"ADDRESS":"港口３９９之７８號","OBJECTID":353315},"geometry":{"x":171581.94000000041,"y":2554993.3000000007}},{"attributes":{"ID":353325,"DIS_CODE":0,"TOWNNAME":"安定區","LI":"港口里","LIN":"20鄰","STREET":" ","SECT":" ","MAREA":"港口","LANE":" ","ALLEY":" ","HOUSE_NO":"３９９之７３號","E_COORD97":171570.54000000001,"N_COORD97":2554972.2999999998,"ADDRESS":"港口３９９之７３號","OBJECTID":353316},"geometry":{"x":171570.54000000004,"y":2554972.3000000007}},{"attributes":{"ID":353326,"DIS_CODE":0,"TOWNNAME":"永康區","LI":"\u25A0洲里","LIN":" ","STREET":"正南六街","SECT":" ","MAREA":" ","LANE":" ","ALLEY":" ","HOUSE_NO":"９９號","E_COORD97":170837.32000000001,"N_COORD97":2548651.5699999998,"ADDRESS":"正南六街９９號","OBJECTID":353317},"geometry":{"x":170837.32000000216,"y":2548651.5700000003}},{"attributes":{"ID":353327,"DIS_CODE":0,"TOWNNAME":"安定區","LI":"港口里","LIN":"20鄰","STREET":" ","SECT":" ","MAREA":"港口","LANE":" ","ALLEY":" ","HOUSE_NO":"３９９之７２號","E_COORD97":171574.94,"N_COORD97":2554975.2999999998,"ADDRESS":"港口３９９之７２號","OBJECTID":353318},"geometry":{"x":171574.94000000041,"y":2554975.3000000026}},{"attributes":{"ID":353328,"DIS_CODE":0,"TOWNNAME":"安定區","LI":"港南里","LIN":"20鄰","STREET":" ","SECT":" ","MAREA":"港口","LANE":" ","ALLEY":" ","HOUSE_NO":"２０６之２號","E_COORD97":171398.29000000001,"N_COORD97":2554610.2999999998,"ADDRESS":"港口２０６之２號","OBJECTID":353319},"geometry":{"x":171398.2900000019,"y":2554610.3000000007}},{"attributes":{"ID":353329,"DIS_CODE":0,"TOWNNAME":"安定區","LI":"港口里","LIN":"20鄰","STREET":" ","SECT":" ","MAREA":"港口","LANE":" ","ALLEY":" ","HOUSE_NO":"３９９之７１號","E_COORD97":171584.34,"N_COORD97":2554980.2999999998,"ADDRESS":"港口３９９之７１號","OBJECTID":353320},"geometry":{"x":171584.34000000171,"y":2554980.3000000007}},{"attributes":{"ID":353330,"DIS_CODE":0,"TOWNNAME":"關廟區","LI":"香洋里","LIN":"6鄰","STREET":"南雄路","SECT":"二段","MAREA":" ","LANE":"５１巷","ALLEY":" ","HOUSE_NO":"１６號","E_COORD97":181070.84,"N_COORD97":2540174.02,"ADDRESS":"南雄路二段５１巷１６號","OBJECTID":353321},"geometry":{"x":181070.84000000078,"y":2540174.0199999996}},{"attributes":{"ID":353331,"DIS_CODE":0,"TOWNNAME":"白河區","LI":"仙草里","LIN":"20鄰","STREET":" ","SECT":" ","MAREA":"仙草","LANE":" ","ALLEY":" ","HOUSE_NO":"１０４號","E_COORD97":196772.48999999999,"N_COORD97":2582311.77,"ADDRESS":"仙草１０４號","OBJECTID":353322},"geometry":{"x":196772.49000000209,"y":2582311.7699999996}},{"attributes":{"ID":353332,"DIS_CODE":0,"TOWNNAME":"白河區","LI":"仙草里","LIN":"20鄰","STREET":" ","SECT":" ","MAREA":"仙草","LANE":" ","ALLEY":" ","HOUSE_NO":"１０５之１號","E_COORD97":196775.92000000001,"N_COORD97":2582295.8399999999,"ADDRESS":"仙草１０５之１號","OBJECTID":353323},"geometry":{"x":196775.91999999899,"y":2582295.8400000036}},{"attributes":{"ID":353333,"DIS_CODE":0,"TOWNNAME":"白河區","LI":"仙草里","LIN":"20鄰","STREET":" ","SECT":" ","MAREA":"仙草","LANE":" ","ALLEY":" ","HOUSE_NO":"１０５號","E_COORD97":196769.72,"N_COORD97":2582303.2400000002,"ADDRESS":"仙草１０５號","OBJECTID":353324},"geometry":{"x":196769.71999999974,"y":2582303.2400000002}},{"attributes":{"ID":353334,"DIS_CODE":0,"TOWNNAME":"白河區","LI":"仙草里","LIN":"20鄰","STREET":" ","SECT":" ","MAREA":"仙草","LANE":" ","ALLEY":" ","HOUSE_NO":"１０６號","E_COORD97":196785.73999999999,"N_COORD97":2582282.8399999999,"ADDRESS":"仙草１０６號","OBJECTID":353325},"geometry":{"x":196785.74000000022,"y":2582282.8400000017}},{"attributes":{"ID":353335,"DIS_CODE":0,"TOWNNAME":"白河區","LI":"仙草里","LIN":"20鄰","STREET":" ","SECT":" ","MAREA":"仙草","LANE":" ","ALLEY":" ","HOUSE_NO":"１０７號","E_COORD97":196788.20999999999,"N_COORD97":2582288.1499999999,"ADDRESS":"仙草１０７號","OBJECTID":353326},"geometry":{"x":196788.21000000089,"y":2582288.1500000022}},{"attributes":{"ID":353336,"DIS_CODE":0,"TOWNNAME":"白河區","LI":"仙草里","LIN":"20鄰","STREET":" ","SECT":" ","MAREA":"仙草","LANE":" ","ALLEY":" ","HOUSE_NO":"１０８號","E_COORD97":196792.07000000001,"N_COORD97":2582292.3799999999,"ADDRESS":"仙草１０８號","OBJECTID":353327},"geometry":{"x":196792.0700000003,"y":2582292.3800000008}},{"attributes":{"ID":353337,"DIS_CODE":0,"TOWNNAME":"白河區","LI":"仙草里","LIN":"20鄰","STREET":" ","SECT":" ","MAREA":"仙草","LANE":" ","ALLEY":" ","HOUSE_NO":"１２０號","E_COORD97":196800.95999999999,"N_COORD97":2582293.2200000002,"ADDRESS":"仙草１２０號","OBJECTID":353328},"geometry":{"x":196800.95999999996,"y":2582293.2200000007}},{"attributes":{"ID":353338,"DIS_CODE":0,"TOWNNAME":"白河區","LI":"仙草里","LIN":"20鄰","STREET":" ","SECT":" ","MAREA":"仙草","LANE":" ","ALLEY":" ","HOUSE_NO":"１２１號","E_COORD97":196804.60999999999,"N_COORD97":2582309.1899999999,"ADDRESS":"仙草１２１號","OBJECTID":353329},"geometry":{"x":196804.61000000127,"y":2582309.1899999995}},{"attributes":{"ID":353339,"DIS_CODE":0,"TOWNNAME":"白河區","LI":"仙草里","LIN":"20鄰","STREET":" ","SECT":" ","MAREA":"仙草","LANE":" ","ALLEY":" ","HOUSE_NO":"１２２之１號","E_COORD97":196787.66,"N_COORD97":2582302.1699999999,"ADDRESS":"仙草１２２之１號","OBJECTID":353330},"geometry":{"x":196787.66000000015,"y":2582302.1699999999}},{"attributes":{"ID":353340,"DIS_CODE":0,"TOWNNAME":"白河區","LI":"仙草里","LIN":"20鄰","STREET":" ","SECT":" ","MAREA":"仙草","LANE":" ","ALLEY":" ","HOUSE_NO":"１２２號","E_COORD97":196796.79999999999,"N_COORD97":2582299.1200000001,"ADDRESS":"仙草１２２號","OBJECTID":353331},"geometry":{"x":196796.79999999981,"y":2582299.1200000029}},{"attributes":{"ID":353341,"DIS_CODE":0,"TOWNNAME":"官田區","LI":"渡頭里","LIN":"20鄰","STREET":" ","SECT":" ","MAREA":"渡子頭","LANE":" ","ALLEY":" ","HOUSE_NO":"１５２號","E_COORD97":181219.95999999999,"N_COORD97":2563211.9300000002,"ADDRESS":"渡子頭１５２號","OBJECTID":353332},"geometry":{"x":181219.95999999996,"y":2563211.9300000016}},{"attributes":{"ID":353342,"DIS_CODE":0,"TOWNNAME":"官田區","LI":"渡頭里","LIN":"20鄰","STREET":" ","SECT":" ","MAREA":"渡子頭","LANE":" ","ALLEY":" ","HOUSE_NO":"１５３號之２","E_COORD97":181226.85999999999,"N_COORD97":2563216.5,"ADDRESS":"渡子頭１５３號之２","OBJECTID":353333},"geometry":{"x":181226.8600000022,"y":2563216.5}},{"attributes":{"ID":353343,"DIS_CODE":0,"TOWNNAME":"永康區","LI":"北灣里","LIN":"20鄰","STREET":"大安街","SECT":" ","MAREA":" ","LANE":"４５０巷","ALLEY":" ","HOUSE_NO":"３２號","E_COORD97":174690.89999999999,"N_COORD97":2545975.7599999998,"ADDRESS":"大安街４５０巷３２號","OBJECTID":353334},"geometry":{"x":174690.90000000037,"y":2545975.7600000016}},{"attributes":{"ID":353344,"DIS_CODE":0,"TOWNNAME":"永康區","LI":"北灣里","LIN":"20鄰","STREET":"大安街","SECT":" ","MAREA":" ","LANE":"４５０巷","ALLEY":" ","HOUSE_NO":"３號","E_COORD97":174628.59,"N_COORD97":2545919.3199999998,"ADDRESS":"大安街４５０巷３號","OBJECTID":353335},"geometry":{"x":174628.58999999985,"y":2545919.3200000003}},{"attributes":{"ID":353345,"DIS_CODE":0,"TOWNNAME":"永康區","LI":"勝利里","LIN":"20鄰","STREET":"勝學路","SECT":" ","MAREA":" ","LANE":"２７９巷","ALLEY":" ","HOUSE_NO":"１號","E_COORD97":171156.57999999999,"N_COORD97":2545333.2999999998,"ADDRESS":"勝學路２７９巷１號","OBJECTID":353336},"geometry":{"x":171156.58000000007,"y":2545333.3000000026}},{"attributes":{"ID":353346,"DIS_CODE":0,"TOWNNAME":"官田區","LI":"渡頭里","LIN":"20鄰","STREET":" ","SECT":" ","MAREA":"渡子頭","LANE":" ","ALLEY":" ","HOUSE_NO":"１５３號","E_COORD97":181244.29000000001,"N_COORD97":2563193.8599999999,"ADDRESS":"渡子頭１５３號","OBJECTID":353337},"geometry":{"x":181244.29000000097,"y":2563193.8600000031}},{"attributes":{"ID":353347,"DIS_CODE":0,"TOWNNAME":"關廟區","LI":"香洋里","LIN":"6鄰","STREET":"南雄路","SECT":"二段","MAREA":" ","LANE":"５１巷","ALLEY":" ","HOUSE_NO":"８號","E_COORD97":181082.59,"N_COORD97":2540171.02,"ADDRESS":"南雄路二段５１巷８號","OBJECTID":353338},"geometry":{"x":181082.59000000078,"y":2540171.0199999996}},{"attributes":{"ID":353348,"DIS_CODE":0,"TOWNNAME":"官田區","LI":"渡頭里","LIN":"20鄰","STREET":" ","SECT":" ","MAREA":"渡子頭","LANE":" ","ALLEY":" ","HOUSE_NO":"１５４號之１","E_COORD97":181262.89999999999,"N_COORD97":2563220.3300000001,"ADDRESS":"渡子頭１５４號之１","OBJECTID":353339},"geometry":{"x":181262.9000000013,"y":2563220.3300000001}},{"attributes":{"ID":353349,"DIS_CODE":0,"TOWNNAME":"官田區","LI":"渡頭里","LIN":"20鄰","STREET":" ","SECT":" ","MAREA":"渡子頭","LANE":" ","ALLEY":" ","HOUSE_NO":"１５４號之２","E_COORD97":181258.75,"N_COORD97":2563219.9700000002,"ADDRESS":"渡子頭１５４號之２","OBJECTID":353340},"geometry":{"x":181258.75,"y":2563219.9700000007}},{"attributes":{"ID":353350,"DIS_CODE":0,"TOWNNAME":"官田區","LI":"渡頭里","LIN":"20鄰","STREET":" ","SECT":" ","MAREA":"渡子頭","LANE":" ","ALLEY":" ","HOUSE_NO":"１５４號之３","E_COORD97":181253.13,"N_COORD97":2563219.3300000001,"ADDRESS":"渡子頭１５４號之３","OBJECTID":353341},"geometry":{"x":181253.12999999989,"y":2563219.3300000019}},{"attributes":{"ID":353351,"DIS_CODE":0,"TOWNNAME":"關廟區","LI":"關廟里","LIN":"6鄰","STREET":"民生街","SECT":" ","MAREA":" ","LANE":"１８７巷","ALLEY":" ","HOUSE_NO":"８號","E_COORD97":180863.48999999999,"N_COORD97":2539953.29,"ADDRESS":"民生街１８７巷８號","OBJECTID":353342},"geometry":{"x":180863.49000000115,"y":2539953.290000001}},{"attributes":{"ID":353352,"DIS_CODE":0,"TOWNNAME":"關廟區","LI":"南花里","LIN":"6鄰","STREET":"四維街","SECT":" ","MAREA":" ","LANE":"３０２巷","ALLEY":" ","HOUSE_NO":"２３號","E_COORD97":181914.10999999999,"N_COORD97":2540147.25,"ADDRESS":"四維街３０２巷２３號","OBJECTID":353343},"geometry":{"x":181914.11000000127,"y":2540147.2500000037}},{"attributes":{"ID":353353,"DIS_CODE":0,"TOWNNAME":"永康區","LI":"二王里","LIN":"8鄰","STREET":"二王路","SECT":" ","MAREA":" ","LANE":" ","ALLEY":" ","HOUSE_NO":"１２號七樓之２","E_COORD97":172965.47,"N_COORD97":2546841.48,"ADDRESS":"二王路１２號七樓之２","OBJECTID":353344},"geometry":{"x":172965.47000000067,"y":2546841.4800000004}},{"attributes":{"ID":353354,"DIS_CODE":0,"TOWNNAME":"永康區","LI":"二王里","LIN":"8鄰","STREET":"二王路","SECT":" ","MAREA":" ","LANE":" ","ALLEY":" ","HOUSE_NO":"１６號十三樓之１","E_COORD97":172976.29999999999,"N_COORD97":2546819.7999999998,"ADDRESS":"二王路１６號十三樓之１","OBJECTID":353345},"geometry":{"x":172976.30000000168,"y":2546819.7999999989}},{"attributes":{"ID":353355,"DIS_CODE":0,"TOWNNAME":"永康區","LI":"二王里","LIN":"8鄰","STREET":"二王路","SECT":" ","MAREA":" ","LANE":" ","ALLEY":" ","HOUSE_NO":"１６號十二樓之３","E_COORD97":172976.39999999999,"N_COORD97":2546819.7999999998,"ADDRESS":"二王路１６號十二樓之３","OBJECTID":353346},"geometry":{"x":172976.4000000013,"y":2546819.7999999989}},{"attributes":{"ID":353356,"DIS_CODE":0,"TOWNNAME":"永康區","LI":"二王里","LIN":"8鄰","STREET":"二王路","SECT":" ","MAREA":" ","LANE":" ","ALLEY":" ","HOUSE_NO":"１２號九樓之３","E_COORD97":172965.44,"N_COORD97":2546841.48,"ADDRESS":"二王路１２號九樓之３","OBJECTID":353347},"geometry":{"x":172965.44000000041,"y":2546841.4800000004}},{"attributes":{"ID":353357,"DIS_CODE":0,"TOWNNAME":"關廟區","LI":"南花里","LIN":"6鄰","STREET":"四維街","SECT":" ","MAREA":" ","LANE":"３０２巷","ALLEY":" ","HOUSE_NO":"１９號","E_COORD97":181901.81,"N_COORD97":2540152.25,"ADDRESS":"四維街３０２巷１９號","OBJECTID":353348},"geometry":{"x":181901.81000000052,"y":2540152.2500000019}},{"attributes":{"ID":353358,"DIS_CODE":0,"TOWNNAME":"關廟區","LI":"松腳里","LIN":"6鄰","STREET":"中山路","SECT":"一段","MAREA":" ","LANE":"８９巷","ALLEY":" ","HOUSE_NO":"５９號","E_COORD97":181904.56,"N_COORD97":2539806.2799999998,"ADDRESS":"中山路一段８９巷５９號","OBJECTID":353349},"geometry":{"x":181904.56000000145,"y":2539806.2799999993}},{"attributes":{"ID":353359,"DIS_CODE":0,"TOWNNAME":"關廟區","LI":"香洋里","LIN":"6鄰","STREET":"忠孝街","SECT":" ","MAREA":" ","LANE":"９０巷","ALLEY":" ","HOUSE_NO":"１３號","E_COORD97":181040.04000000001,"N_COORD97":2540216.25,"ADDRESS":"忠孝街９０巷１３號","OBJECTID":353350},"geometry":{"x":181040.04000000004,"y":2540216.2500000019}},{"attributes":{"ID":353360,"DIS_CODE":0,"TOWNNAME":"關廟區","LI":"松腳里","LIN":"6鄰","STREET":"中山路","SECT":"一段","MAREA":" ","LANE":"８９巷","ALLEY":" ","HOUSE_NO":"６３號","E_COORD97":181891.16,"N_COORD97":2539803.2799999998,"ADDRESS":"中山路一段８９巷６３號","OBJECTID":353351},"geometry":{"x":181891.16000000108,"y":2539803.2799999993}},{"attributes":{"ID":353361,"DIS_CODE":0,"TOWNNAME":"關廟區","LI":"龜洞里","LIN":"6鄰","STREET":"南雄南路","SECT":" ","MAREA":" ","LANE":"８７７巷","ALLEY":" ","HOUSE_NO":"５號","E_COORD97":182371.23999999999,"N_COORD97":2532679.25,"ADDRESS":"南雄南路８７７巷５號","OBJECTID":353352},"geometry":{"x":182371.24000000022,"y":2532679.2500000019}},{"attributes":{"ID":353362,"DIS_CODE":0,"TOWNNAME":"關廟區","LI":"香洋里","LIN":"6鄰","STREET":"中央路","SECT":" ","MAREA":" ","LANE":"２５２巷","ALLEY":" ","HOUSE_NO":"８號","E_COORD97":181071.01000000001,"N_COORD97":2540201.0600000001,"ADDRESS":"中央路２５２巷８號","OBJECTID":353353},"geometry":{"x":181071.01000000164,"y":2540201.0600000024}},{"attributes":{"ID":353363,"DIS_CODE":0,"TOWNNAME":"新營區","LI":"南紙里","LIN":"6鄰","STREET":"南紙街","SECT":" ","MAREA":" ","LANE":"１４３巷","ALLEY":" ","HOUSE_NO":"５號","E_COORD97":177829.44,"N_COORD97":2577376,"ADDRESS":"南紙街１４３巷５號","OBJECTID":353354},"geometry":{"x":177829.44000000134,"y":2577376.0000000019}},{"attributes":{"ID":353364,"DIS_CODE":0,"TOWNNAME":"新營區","LI":"南興里","LIN":"6鄰","STREET":"和平路","SECT":" ","MAREA":" ","LANE":"９７巷","ALLEY":" ","HOUSE_NO":"１３之１號","E_COORD97":179458.60000000001,"N_COORD97":2577586.3999999999,"ADDRESS":"和平路９７巷１３之１號","OBJECTID":353355},"geometry":{"x":179458.60000000056,"y":2577586.4000000004}},{"attributes":{"ID":353365,"DIS_CODE":0,"TOWNNAME":"佳里區","LI":"子龍里","LIN":"20鄰","STREET":" ","SECT":" ","MAREA":"子良廟","LANE":" ","ALLEY":" ","HOUSE_NO":"２１１號","E_COORD97":168854.42000000001,"N_COORD97":2563709.1400000001,"ADDRESS":"子良廟２１１號","OBJECTID":353356},"geometry":{"x":168854.41999999899,"y":2563709.1400000025}},{"attributes":{"ID":353366,"DIS_CODE":0,"TOWNNAME":"佳里區","LI":"子龍里","LIN":"20鄰","STREET":" ","SECT":" ","MAREA":"子良廟","LANE":" ","ALLEY":" ","HOUSE_NO":"２１２號","E_COORD97":168842.10999999999,"N_COORD97":2563700.5899999999,"ADDRESS":"子良廟２１２號","OBJECTID":353357},"geometry":{"x":168842.11000000127,"y":2563700.5899999999}},{"attributes":{"ID":353367,"DIS_CODE":0,"TOWNNAME":"佳里區","LI":"子龍里","LIN":"20鄰","STREET":" ","SECT":" ","MAREA":"子良廟","LANE":" ","ALLEY":" ","HOUSE_NO":"２１３號","E_COORD97":168828.54000000001,"N_COORD97":2563701.5699999998,"ADDRESS":"子良廟２１３號","OBJECTID":353358},"geometry":{"x":168828.5400000019,"y":2563701.5700000003}},{"attributes":{"ID":353368,"DIS_CODE":0,"TOWNNAME":"佳里區","LI":"子龍里","LIN":"20鄰","STREET":" ","SECT":" ","MAREA":"子良廟","LANE":" ","ALLEY":" ","HOUSE_NO":"２１４號","E_COORD97":168837.94,"N_COORD97":2563716.0800000001,"ADDRESS":"子良廟２１４號","OBJECTID":353359},"geometry":{"x":168837.94000000227,"y":2563716.0800000019}},{"attributes":{"ID":353369,"DIS_CODE":0,"TOWNNAME":"新營區","LI":"南興里","LIN":"6鄰","STREET":"和平路","SECT":" ","MAREA":" ","LANE":"９７巷","ALLEY":" ","HOUSE_NO":"１９號","E_COORD97":179470.41,"N_COORD97":2577585.1699999999,"ADDRESS":"和平路９７巷１９號","OBJECTID":353360},"geometry":{"x":179470.41000000108,"y":2577585.1700000018}},{"attributes":{"ID":353370,"DIS_CODE":0,"TOWNNAME":"新營區","LI":"南興里","LIN":"6鄰","STREET":"和平路","SECT":" ","MAREA":" ","LANE":"９７巷","ALLEY":" ","HOUSE_NO":"２９號","E_COORD97":179494,"N_COORD97":2577583.9500000002,"ADDRESS":"和平路９７巷２９號","OBJECTID":353361},"geometry":{"x":179494,"y":2577583.9499999993}},{"attributes":{"ID":353371,"DIS_CODE":0,"TOWNNAME":"新營區","LI":"南興里","LIN":"6鄰","STREET":"和平路","SECT":" ","MAREA":" ","LANE":"９７巷","ALLEY":" ","HOUSE_NO":"２１號","E_COORD97":179474.57000000001,"N_COORD97":2577585.1499999999,"ADDRESS":"和平路９７巷２１號","OBJECTID":353362},"geometry":{"x":179474.57000000123,"y":2577585.1500000041}},{"attributes":{"ID":353372,"DIS_CODE":0,"TOWNNAME":"新營區","LI":"南興里","LIN":"6鄰","STREET":"和平路","SECT":" ","MAREA":" ","LANE":"９７巷","ALLEY":" ","HOUSE_NO":"１７號","E_COORD97":179466.32000000001,"N_COORD97":2577585.1899999999,"ADDRESS":"和平路９７巷１７號","OBJECTID":353363},"geometry":{"x":179466.32000000123,"y":2577585.1900000013}},{"attributes":{"ID":353373,"DIS_CODE":0,"TOWNNAME":"新營區","LI":"南紙里","LIN":"6鄰","STREET":"南紙街","SECT":" ","MAREA":" ","LANE":"１４３巷","ALLEY":" ","HOUSE_NO":"３號","E_COORD97":177824.39999999999,"N_COORD97":2577377.1400000001,"ADDRESS":"南紙街１４３巷３號","OBJECTID":353364},"geometry":{"x":177824.40000000224,"y":2577377.1400000006}},{"attributes":{"ID":353374,"DIS_CODE":0,"TOWNNAME":"新營區","LI":"南興里","LIN":"6鄰","STREET":"和平路","SECT":" ","MAREA":" ","LANE":"９７巷","ALLEY":" ","HOUSE_NO":"１５號","E_COORD97":179461.20999999999,"N_COORD97":2577585.21,"ADDRESS":"和平路９７巷１５號","OBJECTID":353365},"geometry":{"x":179461.21000000183,"y":2577585.2100000046}},{"attributes":{"ID":353375,"DIS_CODE":0,"TOWNNAME":"新營區","LI":"南興里","LIN":"6鄰","STREET":"和平路","SECT":" ","MAREA":" ","LANE":"９７巷","ALLEY":" ","HOUSE_NO":"１３號","E_COORD97":179456.10000000001,"N_COORD97":2577586.3500000001,"ADDRESS":"和平路９７巷１３號","OBJECTID":353366},"geometry":{"x":179456.09999999963,"y":2577586.3500000034}},{"attributes":{"ID":353376,"DIS_CODE":0,"TOWNNAME":"新營區","LI":"南紙里","LIN":"6鄰","STREET":"南紙街","SECT":" ","MAREA":" ","LANE":"１３５巷","ALLEY":" ","HOUSE_NO":"５號","E_COORD97":177841.81,"N_COORD97":2577395.8799999999,"ADDRESS":"南紙街１３５巷５號","OBJECTID":353367},"geometry":{"x":177841.81000000052,"y":2577395.8800000008}},{"attributes":{"ID":353377,"DIS_CODE":0,"TOWNNAME":"新營區","LI":"南紙里","LIN":"6鄰","STREET":"南紙街","SECT":" ","MAREA":" ","LANE":"１４３巷","ALLEY":" ","HOUSE_NO":"２３號","E_COORD97":177873.67999999999,"N_COORD97":2577372.46,"ADDRESS":"南紙街１４３巷２３號","OBJECTID":353368},"geometry":{"x":177873.6799999997,"y":2577372.4600000009}},{"attributes":{"ID":353378,"DIS_CODE":0,"TOWNNAME":"新營區","LI":"南紙里","LIN":"6鄰","STREET":"南紙街","SECT":" ","MAREA":" ","LANE":"１４３巷","ALLEY":" ","HOUSE_NO":"１號","E_COORD97":177819.19,"N_COORD97":2577377.1600000001,"ADDRESS":"南紙街１４３巷１號","OBJECTID":353369},"geometry":{"x":177819.19000000227,"y":2577377.1600000001}},{"attributes":{"ID":353379,"DIS_CODE":0,"TOWNNAME":"安南區","LI":"梅花里","LIN":"20鄰","STREET":"安中路","SECT":"一段","MAREA":" ","LANE":"７５７巷","ALLEY":" ","HOUSE_NO":"６０號","E_COORD97":167332.06,"N_COORD97":2549197.6299999999,"ADDRESS":"安中路一段７５７巷６０號","OBJECTID":353370},"geometry":{"x":167332.05999999959,"y":2549197.6300000008}},{"attributes":{"ID":353380,"DIS_CODE":0,"TOWNNAME":"永康區","LI":"東灣里","LIN":"20鄰","STREET":"大灣三街","SECT":" ","MAREA":" ","LANE":"７３巷","ALLEY":" ","HOUSE_NO":"２５號","E_COORD97":174871.19,"N_COORD97":2544885.6200000001,"ADDRESS":"大灣三街７３巷２５號","OBJECTID":353371},"geometry":{"x":174871.19000000227,"y":2544885.6200000048}},{"attributes":{"ID":353381,"DIS_CODE":0,"TOWNNAME":"永康區","LI":"南灣里","LIN":"20鄰","STREET":"立興街","SECT":" ","MAREA":" ","LANE":"１７６巷","ALLEY":" ","HOUSE_NO":"９號之１","E_COORD97":174304.60999999999,"N_COORD97":2544630.5099999998,"ADDRESS":"立興街１７６巷９號之１","OBJECTID":353372},"geometry":{"x":174304.61000000034,"y":2544630.5099999998}},{"attributes":{"ID":353382,"DIS_CODE":0,"TOWNNAME":"永康區","LI":"北灣里","LIN":"20鄰","STREET":"大安街","SECT":" ","MAREA":" ","LANE":"４５０巷","ALLEY":" ","HOUSE_NO":"４０號","E_COORD97":174710.32000000001,"N_COORD97":2545990.3700000001,"ADDRESS":"大安街４５０巷４０號","OBJECTID":353373},"geometry":{"x":174710.3200000003,"y":2545990.3700000029}},{"attributes":{"ID":353383,"DIS_CODE":0,"TOWNNAME":"永康區","LI":"大橋里","LIN":"8鄰","STREET":"大橋三街","SECT":" ","MAREA":" ","LANE":" ","ALLEY":" ","HOUSE_NO":"２５３號之６六樓","E_COORD97":171012.56,"N_COORD97":2546895.75,"ADDRESS":"大橋三街２５３號之６六樓","OBJECTID":353374},"geometry":{"x":171012.55999999959,"y":2546895.7500000019}},{"attributes":{"ID":353384,"DIS_CODE":0,"TOWNNAME":"永康區","LI":"二王里","LIN":"8鄰","STREET":"二王路","SECT":" ","MAREA":" ","LANE":" ","ALLEY":" ","HOUSE_NO":"１０號十六樓之１","E_COORD97":172987.23000000001,"N_COORD97":2546837.98,"ADDRESS":"二王路１０號十六樓之１","OBJECTID":353375},"geometry":{"x":172987.23000000045,"y":2546837.9800000004}},{"attributes":{"ID":353385,"DIS_CODE":0,"TOWNNAME":"永康區","LI":"二王里","LIN":"8鄰","STREET":"二王路","SECT":" ","MAREA":" ","LANE":" ","ALLEY":" ","HOUSE_NO":"１６號十六樓之３","E_COORD97":172976.39999999999,"N_COORD97":2546819.7999999998,"ADDRESS":"二王路１６號十六樓之３","OBJECTID":353376},"geometry":{"x":172976.4000000013,"y":2546819.7999999989}},{"attributes":{"ID":353386,"DIS_CODE":0,"TOWNNAME":"永康區","LI":"大橋里","LIN":"8鄰","STREET":"大橋三街","SECT":" ","MAREA":" ","LANE":" ","ALLEY":" ","HOUSE_NO":"２５３號之６四樓","E_COORD97":171012.56,"N_COORD97":2546895.75,"ADDRESS":"大橋三街２５３號之６四樓","OBJECTID":353377},"geometry":{"x":171012.55999999959,"y":2546895.7500000019}},{"attributes":{"ID":353387,"DIS_CODE":0,"TOWNNAME":"新營區","LI":"南紙里","LIN":"6鄰","STREET":"南紙街","SECT":" ","MAREA":" ","LANE":"１４３巷","ALLEY":" ","HOUSE_NO":"１９號","E_COORD97":177864.41,"N_COORD97":2577373.6200000001,"ADDRESS":"南紙街１４３巷１９號","OBJECTID":353378},"geometry":{"x":177864.41000000015,"y":2577373.6200000029}},{"attributes":{"ID":353388,"DIS_CODE":0,"TOWNNAME":"新營區","LI":"南紙里","LIN":"6鄰","STREET":"南紙街","SECT":" ","MAREA":" ","LANE":"１３５巷","ALLEY":" ","HOUSE_NO":"７號","E_COORD97":177852.03,"N_COORD97":2577393.6099999999,"ADDRESS":"南紙街１３５巷７號","OBJECTID":353379},"geometry":{"x":177852.03000000026,"y":2577393.6099999994}},{"attributes":{"ID":353389,"DIS_CODE":0,"TOWNNAME":"新營區","LI":"南紙里","LIN":"6鄰","STREET":"南紙街","SECT":" ","MAREA":" ","LANE":"１３５巷","ALLEY":" ","HOUSE_NO":"１６號","E_COORD97":177898.26000000001,"N_COORD97":2577391.1800000002,"ADDRESS":"南紙街１３５巷１６號","OBJECTID":353380},"geometry":{"x":177898.26000000071,"y":2577391.1800000016}},{"attributes":{"ID":353390,"DIS_CODE":0,"TOWNNAME":"新營區","LI":"南紙里","LIN":"6鄰","STREET":"南紙街","SECT":" ","MAREA":" ","LANE":"１３５巷","ALLEY":" ","HOUSE_NO":"１３號","E_COORD97":177882.91,"N_COORD97":2577392.3599999999,"ADDRESS":"南紙街１３５巷１３號","OBJECTID":353381},"geometry":{"x":177882.91000000015,"y":2577392.3599999994}},{"attributes":{"ID":353391,"DIS_CODE":0,"TOWNNAME":"新營區","LI":"南紙里","LIN":"6鄰","STREET":"南紙街","SECT":" ","MAREA":" ","LANE":"１４３巷","ALLEY":" ","HOUSE_NO":"１１號","E_COORD97":177844.98000000001,"N_COORD97":2577374.8300000001,"ADDRESS":"南紙街１４３巷１１號","OBJECTID":353382},"geometry":{"x":177844.98000000138,"y":2577374.8300000019}},{"attributes":{"ID":353392,"DIS_CODE":0,"TOWNNAME":"新營區","LI":"興業里","LIN":"6鄰","STREET":"公誠街","SECT":" ","MAREA":" ","LANE":"１１巷","ALLEY":" ","HOUSE_NO":"１５號","E_COORD97":180363.20000000001,"N_COORD97":2577972.98,"ADDRESS":"公誠街１１巷１５號","OBJECTID":353383},"geometry":{"x":180363.20000000205,"y":2577972.9800000042}},{"attributes":{"ID":353393,"DIS_CODE":0,"TOWNNAME":"新營區","LI":"新東里","LIN":"6鄰","STREET":"東大街","SECT":" ","MAREA":" ","LANE":"６６巷","ALLEY":" ","HOUSE_NO":"５號","E_COORD97":181043.81,"N_COORD97":2579199.0600000001,"ADDRESS":"東大街６６巷５號","OBJECTID":353384},"geometry":{"x":181043.81000000052,"y":2579199.0600000005}},{"attributes":{"ID":353394,"DIS_CODE":0,"TOWNNAME":"新營區","LI":"南紙里","LIN":"6鄰","STREET":"南紙街","SECT":" ","MAREA":" ","LANE":"１４３巷","ALLEY":" ","HOUSE_NO":"１５號","E_COORD97":177855.20999999999,"N_COORD97":2577374.7799999998,"ADDRESS":"南紙街１４３巷１５號","OBJECTID":353385},"geometry":{"x":177855.20999999996,"y":2577374.7799999993}},{"attributes":{"ID":353395,"DIS_CODE":0,"TOWNNAME":"新營區","LI":"南紙里","LIN":"6鄰","STREET":"南紙街","SECT":" ","MAREA":" ","LANE":"１３５巷","ALLEY":" ","HOUSE_NO":"１４號","E_COORD97":177888.03,"N_COORD97":2577392.3399999999,"ADDRESS":"南紙街１３５巷１４號","OBJECTID":353386},"geometry":{"x":177888.03000000119,"y":2577392.3399999999}},{"attributes":{"ID":353396,"DIS_CODE":0,"TOWNNAME":"新營區","LI":"南紙里","LIN":"6鄰","STREET":"南紙街","SECT":" ","MAREA":" ","LANE":"１３５巷","ALLEY":" ","HOUSE_NO":"１２號","E_COORD97":177877.81,"N_COORD97":2577393.4900000002,"ADDRESS":"南紙街１３５巷１２號","OBJECTID":353387},"geometry":{"x":177877.80999999959,"y":2577393.4900000021}},{"attributes":{"ID":353397,"DIS_CODE":0,"TOWNNAME":"新營區","LI":"南紙里","LIN":"6鄰","STREET":"南紙街","SECT":" ","MAREA":" ","LANE":"１３５巷","ALLEY":" ","HOUSE_NO":"４號","E_COORD97":177836.75,"N_COORD97":2577395.8999999999,"ADDRESS":"南紙街１３５巷４號","OBJECTID":353388},"geometry":{"x":177836.75,"y":2577395.9000000004}},{"attributes":{"ID":353398,"DIS_CODE":0,"TOWNNAME":"新營區","LI":"南紙里","LIN":"6鄰","STREET":"南紙街","SECT":" ","MAREA":" ","LANE":"１３５巷","ALLEY":" ","HOUSE_NO":"１１號","E_COORD97":177873.72,"N_COORD97":2577393.5099999998,"ADDRESS":"南紙街１３５巷１１號","OBJECTID":353389},"geometry":{"x":177873.71999999974,"y":2577393.5100000016}},{"attributes":{"ID":353399,"DIS_CODE":0,"TOWNNAME":"新營區","LI":"新東里","LIN":"6鄰","STREET":"東大街","SECT":" ","MAREA":" ","LANE":"６６巷","ALLEY":" ","HOUSE_NO":"３號","E_COORD97":181036.72,"N_COORD97":2579197.98,"ADDRESS":"東大街６６巷３號","OBJECTID":353390},"geometry":{"x":181036.71999999974,"y":2579197.9800000023}},{"attributes":{"ID":353400,"DIS_CODE":0,"TOWNNAME":"新營區","LI":"大宏里","LIN":"6鄰","STREET":"三民路","SECT":" ","MAREA":" ","LANE":"８巷","ALLEY":" ","HOUSE_NO":"６１號","E_COORD97":180546.57999999999,"N_COORD97":2578684.21,"ADDRESS":"三民路８巷６１號","OBJECTID":353391},"geometry":{"x":180546.58000000007,"y":2578684.2100000028}},{"attributes":{"ID":353401,"DIS_CODE":0,"TOWNNAME":"新營區","LI":"新東里","LIN":"6鄰","STREET":"東大街","SECT":" ","MAREA":" ","LANE":"６６巷","ALLEY":" ","HOUSE_NO":"２６號","E_COORD97":181083.92000000001,"N_COORD97":2579186.7000000002,"ADDRESS":"東大街６６巷２６號","OBJECTID":353392},"geometry":{"x":181083.92000000086,"y":2579186.6999999993}},{"attributes":{"ID":353402,"DIS_CODE":0,"TOWNNAME":"新營區","LI":"南興里","LIN":"6鄰","STREET":"和平路","SECT":" ","MAREA":" ","LANE":"９７巷","ALLEY":" ","HOUSE_NO":"９號","E_COORD97":179445.60999999999,"N_COORD97":2577586.3900000001,"ADDRESS":"和平路９７巷９號","OBJECTID":353393},"geometry":{"x":179445.61000000127,"y":2577586.3900000006}},{"attributes":{"ID":353403,"DIS_CODE":0,"TOWNNAME":"新營區","LI":"南紙里","LIN":"6鄰","STREET":"南紙街","SECT":" ","MAREA":" ","LANE":"１４３巷","ALLEY":" ","HOUSE_NO":"２１號","E_COORD97":177869.60000000001,"N_COORD97":2577373.5899999999,"ADDRESS":"南紙街１４３巷２１號","OBJECTID":353394},"geometry":{"x":177869.5999999987,"y":2577373.5899999999}},{"attributes":{"ID":353404,"DIS_CODE":0,"TOWNNAME":"新營區","LI":"南興里","LIN":"6鄰","STREET":"和平路","SECT":" ","MAREA":" ","LANE":"９７巷","ALLEY":" ","HOUSE_NO":"５號","E_COORD97":179436.45000000001,"N_COORD97":2577586.4300000002,"ADDRESS":"和平路９７巷５號","OBJECTID":353395},"geometry":{"x":179436.45000000112,"y":2577586.4300000016}},{"attributes":{"ID":353405,"DIS_CODE":0,"TOWNNAME":"新化區","LI":"東榮里","LIN":"6鄰","STREET":"信義路","SECT":" ","MAREA":" ","LANE":"１１７巷","ALLEY":" ","HOUSE_NO":"２９號","E_COORD97":179751.17999999999,"N_COORD97":2548394.25,"ADDRESS":"信義路１１７巷２９號","OBJECTID":353396},"geometry":{"x":179751.18000000063,"y":2548394.2500000019}},{"attributes":{"ID":353406,"DIS_CODE":0,"TOWNNAME":"新化區","LI":"觀音里","LIN":"6鄰","STREET":"中正路","SECT":" ","MAREA":" ","LANE":"５４９巷","ALLEY":" ","HOUSE_NO":"５號之２","E_COORD97":178952.66,"N_COORD97":2548644.2599999998,"ADDRESS":"中正路５４９巷５號之２","OBJECTID":353397},"geometry":{"x":178952.66000000015,"y":2548644.2600000016}},{"attributes":{"ID":353407,"DIS_CODE":0,"TOWNNAME":"新化區","LI":"觀音里","LIN":"6鄰","STREET":"中正路","SECT":" ","MAREA":" ","LANE":"５４９巷","ALLEY":" ","HOUSE_NO":"５號","E_COORD97":178959.20999999999,"N_COORD97":2548646.25,"ADDRESS":"中正路５４９巷５號","OBJECTID":353398},"geometry":{"x":178959.20999999903,"y":2548646.25}},{"attributes":{"ID":353408,"DIS_CODE":0,"TOWNNAME":"新化區","LI":"觀音里","LIN":"6鄰","STREET":"中正路","SECT":" ","MAREA":" ","LANE":"５４９巷","ALLEY":" ","HOUSE_NO":"６號","E_COORD97":178953.939281,"N_COORD97":2548664.9282399998,"ADDRESS":"中正路５４９巷６號","OBJECTID":353399},"geometry":{"x":178953.93928100169,"y":2548664.9282440022}},{"attributes":{"ID":353409,"DIS_CODE":0,"TOWNNAME":"新化區","LI":"觀音里","LIN":"6鄰","STREET":"中正路","SECT":" ","MAREA":" ","LANE":"５４９巷","ALLEY":" ","HOUSE_NO":"２５號之２","E_COORD97":178976.01000000001,"N_COORD97":2548600.2599999998,"ADDRESS":"中正路５４９巷２５號之２","OBJECTID":353400},"geometry":{"x":178976.01000000071,"y":2548600.2600000016}}]}