{"displayFieldName":"TOWNNAME","fieldAliases":{"ID":"ID","DIS_CODE":"DIS_CODE","TOWNNAME":"TOWNNAME","LI":"LI","LIN":"LIN","STREET":"STREET","SECT":"SECT","MAREA":"MAREA","LANE":"LANE","ALLEY":"ALLEY","HOUSE_NO":"HOUSE_NO","E_COORD97":"E_COORD97","N_COORD97":"N_COORD97","ADDRESS":"ADDRESS","OBJECTID":"OBJECTID"},"geometryType":"esriGeometryPoint","spatialReference":{"wkid":102443,"latestWkid":3826},"fields":[{"name":"ID","type":"esriFieldTypeDouble","alias":"ID"},{"name":"DIS_CODE","type":"esriFieldTypeInteger","alias":"DIS_CODE"},{"name":"TOWNNAME","type":"esriFieldTypeString","alias":"TOWNNAME","length":8},{"name":"LI","type":"esriFieldTypeString","alias":"LI","length":8},{"name":"LIN","type":"esriFieldTypeString","alias":"LIN","length":12},{"name":"STREET","type":"esriFieldTypeString","alias":"STREET","length":20},{"name":"SECT","type":"esriFieldTypeString","alias":"SECT","length":8},{"name":"MAREA","type":"esriFieldTypeString","alias":"MAREA","length":12},{"name":"LANE","type":"esriFieldTypeString","alias":"LANE","length":10},{"name":"ALLEY","type":"esriFieldTypeString","alias":"ALLEY","length":10},{"name":"HOUSE_NO","type":"esriFieldTypeString","alias":"HOUSE_NO","length":20},{"name":"E_COORD97","type":"esriFieldTypeDouble","alias":"E_COORD97"},{"name":"N_COORD97","type":"esriFieldTypeDouble","alias":"N_COORD97"},{"name":"ADDRESS","type":"esriFieldTypeString","alias":"ADDRESS","length":50},{"name":"OBJECTID","type":"esriFieldTypeOID","alias":"OBJECTID"}],"features":[{"attributes":{"ID":425826,"DIS_CODE":0,"TOWNNAME":"永康區","LI":"復華里","LIN":"38鄰","STREET":"復華七街","SECT":" ","MAREA":" ","LANE":"３２巷","ALLEY":" ","HOUSE_NO":"４５號十樓之１","E_COORD97":172722.57000000001,"N_COORD97":2545891.2999999998,"ADDRESS":"復華七街３２巷４５號十樓之１","OBJECTID":425801},"geometry":{"x":172722.57000000123,"y":2545891.3000000045}},{"attributes":{"ID":425827,"DIS_CODE":0,"TOWNNAME":"永康區","LI":"網寮里","LIN":"20鄰","STREET":"永二街","SECT":" ","MAREA":" ","LANE":"２４５巷","ALLEY":" ","HOUSE_NO":"２７號之４六樓","E_COORD97":173345.34,"N_COORD97":2546131.1200000001,"ADDRESS":"永二街２４５巷２７號之４六樓","OBJECTID":425802},"geometry":{"x":173345.33999999985,"y":2546131.1200000029}},{"attributes":{"ID":425828,"DIS_CODE":0,"TOWNNAME":"永康區","LI":"網寮里","LIN":"20鄰","STREET":"永二街","SECT":" ","MAREA":" ","LANE":"２４５巷","ALLEY":" ","HOUSE_NO":"２７號之１０六樓","E_COORD97":173315.94,"N_COORD97":2546123.0600000001,"ADDRESS":"永二街２４５巷２７號之１０六樓","OBJECTID":425803},"geometry":{"x":173315.94000000041,"y":2546123.0600000042}},{"attributes":{"ID":425829,"DIS_CODE":0,"TOWNNAME":"永康區","LI":"復華里","LIN":"26鄰","STREET":"復華八街","SECT":" ","MAREA":" ","LANE":"４７巷","ALLEY":" ","HOUSE_NO":"３４號五樓之１","E_COORD97":172703.03,"N_COORD97":2546385.9500000002,"ADDRESS":"復華八街４７巷３４號五樓之１","OBJECTID":425804},"geometry":{"x":172703.03000000119,"y":2546385.9499999993}},{"attributes":{"ID":425830,"DIS_CODE":0,"TOWNNAME":"永康區","LI":"復國里","LIN":"25鄰","STREET":"復華三街","SECT":" ","MAREA":" ","LANE":"９０巷","ALLEY":" ","HOUSE_NO":"１８號十三樓之２","E_COORD97":172640.92999999999,"N_COORD97":2545614.2999999998,"ADDRESS":"復華三街９０巷１８號十三樓之２","OBJECTID":425805},"geometry":{"x":172640.9299999997,"y":2545614.3000000026}},{"attributes":{"ID":425831,"DIS_CODE":0,"TOWNNAME":"永康區","LI":"龍潭里","LIN":"42鄰","STREET":"永平街","SECT":" ","MAREA":" ","LANE":"７５９巷","ALLEY":" ","HOUSE_NO":"８號二樓","E_COORD97":174614.13,"N_COORD97":2547069.96,"ADDRESS":"永平街７５９巷８號二樓","OBJECTID":425806},"geometry":{"x":174614.13000000082,"y":2547069.9600000046}},{"attributes":{"ID":425832,"DIS_CODE":0,"TOWNNAME":"永康區","LI":"龍潭里","LIN":"42鄰","STREET":"永平街","SECT":" ","MAREA":" ","LANE":"７５９巷","ALLEY":" ","HOUSE_NO":"２０號二樓","E_COORD97":174607.57999999999,"N_COORD97":2547081.25,"ADDRESS":"永平街７５９巷２０號二樓","OBJECTID":425807},"geometry":{"x":174607.58000000101,"y":2547081.2500000019}},{"attributes":{"ID":425833,"DIS_CODE":0,"TOWNNAME":"永康區","LI":"網寮里","LIN":"13鄰","STREET":"永勝街","SECT":" ","MAREA":" ","LANE":"１６９巷","ALLEY":" ","HOUSE_NO":"２號三樓之２","E_COORD97":173315.32999999999,"N_COORD97":2546526.3700000001,"ADDRESS":"永勝街１６９巷２號三樓之２","OBJECTID":425808},"geometry":{"x":173315.33000000194,"y":2546526.3700000029}},{"attributes":{"ID":425834,"DIS_CODE":0,"TOWNNAME":"永康區","LI":"網寮里","LIN":"13鄰","STREET":"永勝街","SECT":" ","MAREA":" ","LANE":"１６９巷","ALLEY":" ","HOUSE_NO":"６號六樓之２","E_COORD97":173304.09,"N_COORD97":2546537.0800000001,"ADDRESS":"永勝街１６９巷６號六樓之２","OBJECTID":425809},"geometry":{"x":173304.08999999985,"y":2546537.0800000019}},{"attributes":{"ID":425835,"DIS_CODE":0,"TOWNNAME":"永康區","LI":"網寮里","LIN":"20鄰","STREET":"文化路","SECT":" ","MAREA":" ","LANE":"３２３巷","ALLEY":" ","HOUSE_NO":"１號四樓之１","E_COORD97":173432.44,"N_COORD97":2546130.1099999999,"ADDRESS":"文化路３２３巷１號四樓之１","OBJECTID":425810},"geometry":{"x":173432.44000000134,"y":2546130.1099999994}},{"attributes":{"ID":425836,"DIS_CODE":0,"TOWNNAME":"永康區","LI":"網寮里","LIN":"13鄰","STREET":"永勝街","SECT":" ","MAREA":" ","LANE":"１６９巷","ALLEY":" ","HOUSE_NO":"２號七樓之３","E_COORD97":173315.29999999999,"N_COORD97":2546526.3700000001,"ADDRESS":"永勝街１６９巷２號七樓之３","OBJECTID":425811},"geometry":{"x":173315.30000000168,"y":2546526.3700000029}},{"attributes":{"ID":425837,"DIS_CODE":0,"TOWNNAME":"永康區","LI":"網寮里","LIN":"21鄰","STREET":"文化路","SECT":" ","MAREA":" ","LANE":"２４２巷","ALLEY":" ","HOUSE_NO":"７號四樓之２","E_COORD97":173560.51000000001,"N_COORD97":2546162.9900000002,"ADDRESS":"文化路２４２巷７號四樓之２","OBJECTID":425812},"geometry":{"x":173560.50999999978,"y":2546162.9900000002}},{"attributes":{"ID":425838,"DIS_CODE":0,"TOWNNAME":"永康區","LI":"復華里","LIN":"9鄰","STREET":"復國二路","SECT":" ","MAREA":" ","LANE":"２１５巷","ALLEY":" ","HOUSE_NO":"３６號三樓之２","E_COORD97":172910.54000000001,"N_COORD97":2546067.8500000001,"ADDRESS":"復國二路２１５巷３６號三樓之２","OBJECTID":425813},"geometry":{"x":172910.5400000019,"y":2546067.8499999996}},{"attributes":{"ID":425839,"DIS_CODE":0,"TOWNNAME":"永康區","LI":"復華里","LIN":"9鄰","STREET":"復國二路","SECT":" ","MAREA":" ","LANE":"２１５巷","ALLEY":" ","HOUSE_NO":"３０號三樓之２","E_COORD97":172918.38,"N_COORD97":2546062.6000000001,"ADDRESS":"復國二路２１５巷３０號三樓之２","OBJECTID":425814},"geometry":{"x":172918.38000000082,"y":2546062.5999999996}},{"attributes":{"ID":425840,"DIS_CODE":0,"TOWNNAME":"永康區","LI":"復華里","LIN":"9鄰","STREET":"復國二路","SECT":" ","MAREA":" ","LANE":"２１５巷","ALLEY":" ","HOUSE_NO":"３６號十一樓之１","E_COORD97":172911.66,"N_COORD97":2546067.8500000001,"ADDRESS":"復國二路２１５巷３６號十一樓之１","OBJECTID":425815},"geometry":{"x":172911.66000000108,"y":2546067.8499999996}},{"attributes":{"ID":425841,"DIS_CODE":0,"TOWNNAME":"永康區","LI":"復華里","LIN":"9鄰","STREET":"復國二路","SECT":" ","MAREA":" ","LANE":"２１５巷","ALLEY":" ","HOUSE_NO":"３０號四樓之１","E_COORD97":172918.25,"N_COORD97":2546062.6000000001,"ADDRESS":"復國二路２１５巷３０號四樓之１","OBJECTID":425816},"geometry":{"x":172918.25000000093,"y":2546062.5999999996}},{"attributes":{"ID":425842,"DIS_CODE":0,"TOWNNAME":"永康區","LI":"復華里","LIN":"37鄰","STREET":"復華七街","SECT":" ","MAREA":" ","LANE":"３２巷","ALLEY":" ","HOUSE_NO":"２９號十一樓之１","E_COORD97":172732.29000000001,"N_COORD97":2545951.54,"ADDRESS":"復華七街３２巷２９號十一樓之１","OBJECTID":425817},"geometry":{"x":172732.29000000004,"y":2545951.5399999991}},{"attributes":{"ID":425843,"DIS_CODE":0,"TOWNNAME":"永康區","LI":"復華里","LIN":"37鄰","STREET":"復華七街","SECT":" ","MAREA":" ","LANE":"３２巷","ALLEY":" ","HOUSE_NO":"２９號十樓之１","E_COORD97":172731.04000000001,"N_COORD97":2545951.54,"ADDRESS":"復華七街３２巷２９號十樓之１","OBJECTID":425818},"geometry":{"x":172731.04000000097,"y":2545951.5399999991}},{"attributes":{"ID":425844,"DIS_CODE":0,"TOWNNAME":"永康區","LI":"網寮里","LIN":"20鄰","STREET":"永二街","SECT":" ","MAREA":" ","LANE":"２４５巷","ALLEY":" ","HOUSE_NO":"２７號之５六樓","E_COORD97":173353.69,"N_COORD97":2546127.6200000001,"ADDRESS":"永二街２４５巷２７號之５六樓","OBJECTID":425819},"geometry":{"x":173353.69000000041,"y":2546127.6200000029}},{"attributes":{"ID":425845,"DIS_CODE":0,"TOWNNAME":"永康區","LI":"龍潭里","LIN":"42鄰","STREET":"永平街","SECT":" ","MAREA":" ","LANE":"７５９巷","ALLEY":" ","HOUSE_NO":"６號五樓","E_COORD97":174615.09,"N_COORD97":2547060.21,"ADDRESS":"永平街７５９巷６號五樓","OBJECTID":425820},"geometry":{"x":174615.08999999985,"y":2547060.2100000009}},{"attributes":{"ID":425846,"DIS_CODE":0,"TOWNNAME":"永康區","LI":"龍潭里","LIN":"42鄰","STREET":"永平街","SECT":" ","MAREA":" ","LANE":"７５９巷","ALLEY":" ","HOUSE_NO":"８號四樓","E_COORD97":174614.13,"N_COORD97":2547069.96,"ADDRESS":"永平街７５９巷８號四樓","OBJECTID":425821},"geometry":{"x":174614.13000000082,"y":2547069.9600000046}},{"attributes":{"ID":425847,"DIS_CODE":0,"TOWNNAME":"永康區","LI":"網寮里","LIN":"13鄰","STREET":"永勝街","SECT":" ","MAREA":" ","LANE":"１６９巷","ALLEY":" ","HOUSE_NO":"６號四樓之２","E_COORD97":173304.09,"N_COORD97":2546537.0800000001,"ADDRESS":"永勝街１６９巷６號四樓之２","OBJECTID":425822},"geometry":{"x":173304.08999999985,"y":2546537.0800000019}},{"attributes":{"ID":425848,"DIS_CODE":0,"TOWNNAME":"官田區","LI":"二鎮里","LIN":"24鄰","STREET":"工社西街","SECT":" ","MAREA":" ","LANE":"２１巷","ALLEY":" ","HOUSE_NO":"７號","E_COORD97":180871.06,"N_COORD97":2568702.6600000001,"ADDRESS":"工社西街２１巷７號","OBJECTID":425823},"geometry":{"x":180871.06000000052,"y":2568702.660000002}},{"attributes":{"ID":425849,"DIS_CODE":0,"TOWNNAME":"永康區","LI":"網寮里","LIN":"13鄰","STREET":"永勝街","SECT":" ","MAREA":" ","LANE":"１６９巷","ALLEY":" ","HOUSE_NO":"２號九樓之１","E_COORD97":173315.20000000001,"N_COORD97":2546526.3700000001,"ADDRESS":"永勝街１６９巷２號九樓之１","OBJECTID":425824},"geometry":{"x":173315.20000000112,"y":2546526.3700000029}},{"attributes":{"ID":425850,"DIS_CODE":0,"TOWNNAME":"永康區","LI":"網寮里","LIN":"13鄰","STREET":"永勝街","SECT":" ","MAREA":" ","LANE":"１６９巷","ALLEY":" ","HOUSE_NO":"２號四樓之２","E_COORD97":173315.32999999999,"N_COORD97":2546526.3700000001,"ADDRESS":"永勝街１６９巷２號四樓之２","OBJECTID":425825},"geometry":{"x":173315.33000000194,"y":2546526.3700000029}},{"attributes":{"ID":425851,"DIS_CODE":0,"TOWNNAME":"永康區","LI":"網寮里","LIN":"20鄰","STREET":"文化路","SECT":" ","MAREA":" ","LANE":"３２３巷","ALLEY":" ","HOUSE_NO":"１號八樓之２","E_COORD97":173432.57000000001,"N_COORD97":2546130.1099999999,"ADDRESS":"文化路３２３巷１號八樓之２","OBJECTID":425826},"geometry":{"x":173432.57000000216,"y":2546130.1099999994}},{"attributes":{"ID":425852,"DIS_CODE":0,"TOWNNAME":"永康區","LI":"網寮里","LIN":"20鄰","STREET":"永二街","SECT":" ","MAREA":" ","LANE":"２４５巷","ALLEY":" ","HOUSE_NO":"２７號六樓","E_COORD97":173314.14000000001,"N_COORD97":2546144.7400000002,"ADDRESS":"永二街２４５巷２７號六樓","OBJECTID":425827},"geometry":{"x":173314.13999999966,"y":2546144.7400000002}},{"attributes":{"ID":425853,"DIS_CODE":0,"TOWNNAME":"永康區","LI":"龍潭里","LIN":"42鄰","STREET":"永平街","SECT":" ","MAREA":" ","LANE":"７５９巷","ALLEY":" ","HOUSE_NO":"１６號五樓","E_COORD97":174616.67000000001,"N_COORD97":2547090.75,"ADDRESS":"永平街７５９巷１６號五樓","OBJECTID":425828},"geometry":{"x":174616.67000000086,"y":2547090.7500000037}},{"attributes":{"ID":425854,"DIS_CODE":0,"TOWNNAME":"永康區","LI":"網寮里","LIN":"21鄰","STREET":"文化路","SECT":" ","MAREA":" ","LANE":"２４２巷","ALLEY":" ","HOUSE_NO":"１０號六樓之２","E_COORD97":173582.17000000001,"N_COORD97":2546161.8399999999,"ADDRESS":"文化路２４２巷１０號六樓之２","OBJECTID":425829},"geometry":{"x":173582.16999999993,"y":2546161.8400000017}},{"attributes":{"ID":425855,"DIS_CODE":0,"TOWNNAME":"永康區","LI":"網寮里","LIN":"21鄰","STREET":"文化路","SECT":" ","MAREA":" ","LANE":"２４２巷","ALLEY":" ","HOUSE_NO":"１０號三樓之３","E_COORD97":173582.13,"N_COORD97":2546161.8399999999,"ADDRESS":"文化路２４２巷１０號三樓之３","OBJECTID":425830},"geometry":{"x":173582.12999999989,"y":2546161.8400000017}},{"attributes":{"ID":425856,"DIS_CODE":0,"TOWNNAME":"永康區","LI":"復華里","LIN":"9鄰","STREET":"復國二路","SECT":" ","MAREA":" ","LANE":"２１５巷","ALLEY":" ","HOUSE_NO":"３６號六樓之１","E_COORD97":172910.41,"N_COORD97":2546067.8500000001,"ADDRESS":"復國二路２１５巷３６號六樓之１","OBJECTID":425831},"geometry":{"x":172910.41000000108,"y":2546067.8499999996}},{"attributes":{"ID":425857,"DIS_CODE":0,"TOWNNAME":"永康區","LI":"復華里","LIN":"9鄰","STREET":"復國二路","SECT":" ","MAREA":" ","LANE":"２１５巷","ALLEY":" ","HOUSE_NO":"３６號十一樓之３","E_COORD97":172911.75,"N_COORD97":2546067.8500000001,"ADDRESS":"復國二路２１５巷３６號十一樓之３","OBJECTID":425832},"geometry":{"x":172911.75,"y":2546067.8499999996}},{"attributes":{"ID":425858,"DIS_CODE":0,"TOWNNAME":"永康區","LI":"復華里","LIN":"9鄰","STREET":"復國二路","SECT":" ","MAREA":" ","LANE":"２１５巷","ALLEY":" ","HOUSE_NO":"３６號七樓之３","E_COORD97":172910.5,"N_COORD97":2546067.8500000001,"ADDRESS":"復國二路２１５巷３６號七樓之３","OBJECTID":425833},"geometry":{"x":172910.5,"y":2546067.8499999996}},{"attributes":{"ID":425859,"DIS_CODE":0,"TOWNNAME":"北區","LI":"大仁里","LIN":"4鄰","STREET":"北門路","SECT":"二段","MAREA":" ","LANE":"３６６巷","ALLEY":" ","HOUSE_NO":"７號","E_COORD97":169645.41,"N_COORD97":2545408.0699999998,"ADDRESS":"北門路二段３６６巷７號","OBJECTID":425834},"geometry":{"x":169645.41000000108,"y":2545408.0700000022}},{"attributes":{"ID":425860,"DIS_CODE":0,"TOWNNAME":"永康區","LI":"復華里","LIN":"9鄰","STREET":"復國二路","SECT":" ","MAREA":" ","LANE":"２１５巷","ALLEY":" ","HOUSE_NO":"３０號四樓之２","E_COORD97":172918.38,"N_COORD97":2546062.6000000001,"ADDRESS":"復國二路２１５巷３０號四樓之２","OBJECTID":425835},"geometry":{"x":172918.38000000082,"y":2546062.5999999996}},{"attributes":{"ID":425861,"DIS_CODE":0,"TOWNNAME":"永康區","LI":"復華里","LIN":"9鄰","STREET":"復國二路","SECT":" ","MAREA":" ","LANE":"２１５巷","ALLEY":" ","HOUSE_NO":"３２號五樓之２","E_COORD97":172914.13,"N_COORD97":2546065.1000000001,"ADDRESS":"復國二路２１５巷３２號五樓之２","OBJECTID":425836},"geometry":{"x":172914.12999999989,"y":2546065.1000000015}},{"attributes":{"ID":425862,"DIS_CODE":0,"TOWNNAME":"永康區","LI":"龍潭里","LIN":"42鄰","STREET":"永平街","SECT":" ","MAREA":" ","LANE":"７５９巷","ALLEY":" ","HOUSE_NO":"１０號五樓","E_COORD97":174615.48999999999,"N_COORD97":2547073.21,"ADDRESS":"永平街７５９巷１０號五樓","OBJECTID":425837},"geometry":{"x":174615.49000000022,"y":2547073.2100000028}},{"attributes":{"ID":425863,"DIS_CODE":0,"TOWNNAME":"永康區","LI":"網寮里","LIN":"21鄰","STREET":"文化路","SECT":" ","MAREA":" ","LANE":"２４２巷","ALLEY":" ","HOUSE_NO":"７號二樓","E_COORD97":173558.23999999999,"N_COORD97":2546162.9900000002,"ADDRESS":"文化路２４２巷７號二樓","OBJECTID":425838},"geometry":{"x":173558.24000000022,"y":2546162.9900000002}},{"attributes":{"ID":425864,"DIS_CODE":0,"TOWNNAME":"永康區","LI":"網寮里","LIN":"21鄰","STREET":"文化路","SECT":" ","MAREA":" ","LANE":"２４２巷","ALLEY":" ","HOUSE_NO":"１０號五樓之３","E_COORD97":173582.13,"N_COORD97":2546161.8399999999,"ADDRESS":"文化路２４２巷１０號五樓之３","OBJECTID":425839},"geometry":{"x":173582.12999999989,"y":2546161.8400000017}},{"attributes":{"ID":425865,"DIS_CODE":0,"TOWNNAME":"永康區","LI":"網寮里","LIN":"21鄰","STREET":"文化路","SECT":" ","MAREA":" ","LANE":"２４２巷","ALLEY":" ","HOUSE_NO":"７號五樓之１","E_COORD97":173560.38,"N_COORD97":2546162.9900000002,"ADDRESS":"文化路２４２巷７號五樓之１","OBJECTID":425840},"geometry":{"x":173560.37999999989,"y":2546162.9900000002}},{"attributes":{"ID":425866,"DIS_CODE":0,"TOWNNAME":"永康區","LI":"復華里","LIN":"9鄰","STREET":"復國二路","SECT":" ","MAREA":" ","LANE":"２１５巷","ALLEY":" ","HOUSE_NO":"３０號七樓之１","E_COORD97":172918.25,"N_COORD97":2546062.6000000001,"ADDRESS":"復國二路２１５巷３０號七樓之１","OBJECTID":425841},"geometry":{"x":172918.25000000093,"y":2546062.5999999996}},{"attributes":{"ID":425867,"DIS_CODE":0,"TOWNNAME":"永康區","LI":"復華里","LIN":"9鄰","STREET":"復國二路","SECT":" ","MAREA":" ","LANE":"２１５巷","ALLEY":" ","HOUSE_NO":"３６號九樓之３","E_COORD97":172910.5,"N_COORD97":2546067.8500000001,"ADDRESS":"復國二路２１５巷３６號九樓之３","OBJECTID":425842},"geometry":{"x":172910.5,"y":2546067.8499999996}},{"attributes":{"ID":425868,"DIS_CODE":0,"TOWNNAME":"永康區","LI":"復華里","LIN":"9鄰","STREET":"復國二路","SECT":" ","MAREA":" ","LANE":"２１５巷","ALLEY":" ","HOUSE_NO":"３６號八樓之３","E_COORD97":172910.5,"N_COORD97":2546067.8500000001,"ADDRESS":"復國二路２１５巷３６號八樓之３","OBJECTID":425843},"geometry":{"x":172910.5,"y":2546067.8499999996}},{"attributes":{"ID":425869,"DIS_CODE":0,"TOWNNAME":"永康區","LI":"復華里","LIN":"9鄰","STREET":"復國二路","SECT":" ","MAREA":" ","LANE":"２１５巷","ALLEY":" ","HOUSE_NO":"３２號三樓之２","E_COORD97":172914.13,"N_COORD97":2546065.1000000001,"ADDRESS":"復國二路２１５巷３２號三樓之２","OBJECTID":425844},"geometry":{"x":172914.12999999989,"y":2546065.1000000015}},{"attributes":{"ID":425870,"DIS_CODE":0,"TOWNNAME":"永康區","LI":"復華里","LIN":"27鄰","STREET":"復華八街","SECT":" ","MAREA":" ","LANE":"５１巷","ALLEY":" ","HOUSE_NO":"３９號五樓之２","E_COORD97":172687.98000000001,"N_COORD97":2546429.1400000001,"ADDRESS":"復華八街５１巷３９號五樓之２","OBJECTID":425845},"geometry":{"x":172687.98000000138,"y":2546429.1400000025}},{"attributes":{"ID":425871,"DIS_CODE":0,"TOWNNAME":"永康區","LI":"網寮里","LIN":"20鄰","STREET":"永二街","SECT":" ","MAREA":" ","LANE":"２４５巷","ALLEY":" ","HOUSE_NO":"２７號之２三樓","E_COORD97":173329.41,"N_COORD97":2546137.1200000001,"ADDRESS":"永二街２４５巷２７號之２三樓","OBJECTID":425846},"geometry":{"x":173329.41000000015,"y":2546137.1200000029}},{"attributes":{"ID":425872,"DIS_CODE":0,"TOWNNAME":"永康區","LI":"網寮里","LIN":"20鄰","STREET":"文化路","SECT":" ","MAREA":" ","LANE":"３２３巷","ALLEY":" ","HOUSE_NO":"１號三樓之１","E_COORD97":173432.44,"N_COORD97":2546130.1099999999,"ADDRESS":"文化路３２３巷１號三樓之１","OBJECTID":425847},"geometry":{"x":173432.44000000134,"y":2546130.1099999994}},{"attributes":{"ID":425873,"DIS_CODE":0,"TOWNNAME":"永康區","LI":"龍潭里","LIN":"42鄰","STREET":"永平街","SECT":" ","MAREA":" ","LANE":"７５９巷","ALLEY":" ","HOUSE_NO":"２６號二樓","E_COORD97":174598.69,"N_COORD97":2547080,"ADDRESS":"永平街７５９巷２６號二樓","OBJECTID":425848},"geometry":{"x":174598.69000000134,"y":2547080.0000000019}},{"attributes":{"ID":425874,"DIS_CODE":0,"TOWNNAME":"永康區","LI":"龍潭里","LIN":"42鄰","STREET":"永平街","SECT":" ","MAREA":" ","LANE":"７５９巷","ALLEY":" ","HOUSE_NO":"１８號二樓","E_COORD97":174612.48000000001,"N_COORD97":2547081.5,"ADDRESS":"永平街７５９巷１８號二樓","OBJECTID":425849},"geometry":{"x":174612.48000000045,"y":2547081.5}},{"attributes":{"ID":425875,"DIS_CODE":0,"TOWNNAME":"東區","LI":"小東里","LIN":"32鄰","STREET":"光明街","SECT":" ","MAREA":" ","LANE":"６６巷","ALLEY":" ","HOUSE_NO":"３９號二樓","E_COORD97":170820.35000000001,"N_COORD97":2544176.2999999998,"ADDRESS":"光明街６６巷３９號二樓","OBJECTID":425850},"geometry":{"x":170820.34999999963,"y":2544176.3000000026}},{"attributes":{"ID":425876,"DIS_CODE":0,"TOWNNAME":"東區","LI":"小東里","LIN":"32鄰","STREET":"光明街","SECT":" ","MAREA":" ","LANE":"６６巷","ALLEY":" ","HOUSE_NO":"３９號四樓之３","E_COORD97":170820.35000000001,"N_COORD97":2544176.2999999998,"ADDRESS":"光明街６６巷３９號四樓之３","OBJECTID":425851},"geometry":{"x":170820.34999999963,"y":2544176.3000000026}},{"attributes":{"ID":425877,"DIS_CODE":0,"TOWNNAME":"東區","LI":"小東里","LIN":"32鄰","STREET":"光明街","SECT":" ","MAREA":" ","LANE":"６６巷","ALLEY":" ","HOUSE_NO":"３９號四樓之６","E_COORD97":170820.35000000001,"N_COORD97":2544176.2999999998,"ADDRESS":"光明街６６巷３９號四樓之６","OBJECTID":425852},"geometry":{"x":170820.34999999963,"y":2544176.3000000026}},{"attributes":{"ID":425878,"DIS_CODE":0,"TOWNNAME":"東區","LI":"東明里","LIN":"8鄰","STREET":"怡東路","SECT":" ","MAREA":" ","LANE":"８６巷","ALLEY":" ","HOUSE_NO":"８號二樓","E_COORD97":170906.73999999999,"N_COORD97":2543679.5699999998,"ADDRESS":"怡東路８６巷８號二樓","OBJECTID":425853},"geometry":{"x":170906.74000000022,"y":2543679.5700000022}},{"attributes":{"ID":425879,"DIS_CODE":0,"TOWNNAME":"東區","LI":"東明里","LIN":"17鄰","STREET":"東安路","SECT":" ","MAREA":" ","LANE":"７６巷","ALLEY":" ","HOUSE_NO":"２號五樓","E_COORD97":170722.69,"N_COORD97":2543658.7599999998,"ADDRESS":"東安路７６巷２號五樓","OBJECTID":425854},"geometry":{"x":170722.69000000041,"y":2543658.7599999998}},{"attributes":{"ID":425880,"DIS_CODE":0,"TOWNNAME":"東區","LI":"東明里","LIN":"17鄰","STREET":"東安路","SECT":" ","MAREA":" ","LANE":"７６巷","ALLEY":" ","HOUSE_NO":"４號三樓","E_COORD97":170729.45000000001,"N_COORD97":2543657.9500000002,"ADDRESS":"東安路７６巷４號三樓","OBJECTID":425855},"geometry":{"x":170729.45000000205,"y":2543657.9500000011}},{"attributes":{"ID":425881,"DIS_CODE":0,"TOWNNAME":"東區","LI":"東明里","LIN":"17鄰","STREET":"東安路","SECT":" ","MAREA":" ","LANE":"７６巷","ALLEY":" ","HOUSE_NO":"６號五樓","E_COORD97":170737.5,"N_COORD97":2543657.6299999999,"ADDRESS":"東安路７６巷６號五樓","OBJECTID":425856},"geometry":{"x":170737.50000000186,"y":2543657.6300000008}},{"attributes":{"ID":425882,"DIS_CODE":0,"TOWNNAME":"東區","LI":"東明里","LIN":"19鄰","STREET":"東安路","SECT":" ","MAREA":" ","LANE":"４８巷","ALLEY":" ","HOUSE_NO":"２７號二樓之２","E_COORD97":170751.35999999999,"N_COORD97":2543608.75,"ADDRESS":"東安路４８巷２７號二樓之２","OBJECTID":425857},"geometry":{"x":170751.36000000127,"y":2543608.7499999981}},{"attributes":{"ID":425883,"DIS_CODE":0,"TOWNNAME":"東區","LI":"東明里","LIN":"19鄰","STREET":"東安路","SECT":" ","MAREA":" ","LANE":"４８巷","ALLEY":" ","HOUSE_NO":"２７號二樓之５","E_COORD97":170751.35999999999,"N_COORD97":2543608.75,"ADDRESS":"東安路４８巷２７號二樓之５","OBJECTID":425858},"geometry":{"x":170751.36000000127,"y":2543608.7499999981}},{"attributes":{"ID":425884,"DIS_CODE":0,"TOWNNAME":"東區","LI":"東明里","LIN":"19鄰","STREET":"東安路","SECT":" ","MAREA":" ","LANE":"４８巷","ALLEY":" ","HOUSE_NO":"２７號三樓之１","E_COORD97":170751.35999999999,"N_COORD97":2543608.75,"ADDRESS":"東安路４８巷２７號三樓之１","OBJECTID":425859},"geometry":{"x":170751.36000000127,"y":2543608.7499999981}},{"attributes":{"ID":425885,"DIS_CODE":0,"TOWNNAME":"中西區","LI":"建國里","LIN":"9鄰","STREET":"民生路","SECT":"一段","MAREA":" ","LANE":"２０５巷","ALLEY":" ","HOUSE_NO":"７號三樓之１","E_COORD97":167935.51999999999,"N_COORD97":2543829.8300000001,"ADDRESS":"民生路一段２０５巷７號三樓之１","OBJECTID":425860},"geometry":{"x":167935.52000000048,"y":2543829.8300000019}},{"attributes":{"ID":425886,"DIS_CODE":0,"TOWNNAME":"中西區","LI":"建國里","LIN":"9鄰","STREET":"民生路","SECT":"一段","MAREA":" ","LANE":"２０５巷","ALLEY":" ","HOUSE_NO":"７號三樓之２","E_COORD97":167938.67000000001,"N_COORD97":2543828.5499999998,"ADDRESS":"民生路一段２０５巷７號三樓之２","OBJECTID":425861},"geometry":{"x":167938.66999999993,"y":2543828.5500000026}},{"attributes":{"ID":425887,"DIS_CODE":0,"TOWNNAME":"中西區","LI":"建國里","LIN":"9鄰","STREET":"民生路","SECT":"一段","MAREA":" ","LANE":"２０５巷","ALLEY":" ","HOUSE_NO":"７號三樓之３","E_COORD97":167942.25,"N_COORD97":2543826.9700000002,"ADDRESS":"民生路一段２０５巷７號三樓之３","OBJECTID":425862},"geometry":{"x":167942.25000000093,"y":2543826.9700000007}},{"attributes":{"ID":425888,"DIS_CODE":0,"TOWNNAME":"中西區","LI":"建國里","LIN":"9鄰","STREET":"民生路","SECT":"一段","MAREA":" ","LANE":"２０５巷","ALLEY":" ","HOUSE_NO":"７號三樓之４","E_COORD97":167946.82000000001,"N_COORD97":2543824.1200000001,"ADDRESS":"民生路一段２０５巷７號三樓之４","OBJECTID":425863},"geometry":{"x":167946.8200000003,"y":2543824.120000001}},{"attributes":{"ID":425889,"DIS_CODE":0,"TOWNNAME":"中西區","LI":"建國里","LIN":"9鄰","STREET":"民生路","SECT":"一段","MAREA":" ","LANE":"２０５巷","ALLEY":" ","HOUSE_NO":"７號三樓之５","E_COORD97":167951.69,"N_COORD97":2543822.1200000001,"ADDRESS":"民生路一段２０５巷７號三樓之５","OBJECTID":425864},"geometry":{"x":167951.69000000134,"y":2543822.1200000029}},{"attributes":{"ID":425890,"DIS_CODE":0,"TOWNNAME":"中西區","LI":"建國里","LIN":"9鄰","STREET":"民生路","SECT":"一段","MAREA":" ","LANE":"２０５巷","ALLEY":" ","HOUSE_NO":"７號三樓之６","E_COORD97":167955.12,"N_COORD97":2543820.3999999999,"ADDRESS":"民生路一段２０５巷７號三樓之６","OBJECTID":425865},"geometry":{"x":167955.12000000104,"y":2543820.4000000004}},{"attributes":{"ID":425891,"DIS_CODE":0,"TOWNNAME":"中西區","LI":"建國里","LIN":"9鄰","STREET":"民生路","SECT":"一段","MAREA":" ","LANE":"２０５巷","ALLEY":" ","HOUSE_NO":"７號三樓之７","E_COORD97":167955.12,"N_COORD97":2543820.3999999999,"ADDRESS":"民生路一段２０５巷７號三樓之７","OBJECTID":425866},"geometry":{"x":167955.12000000104,"y":2543820.4000000004}},{"attributes":{"ID":425892,"DIS_CODE":0,"TOWNNAME":"中西區","LI":"建國里","LIN":"9鄰","STREET":"民生路","SECT":"一段","MAREA":" ","LANE":"２０５巷","ALLEY":" ","HOUSE_NO":"７號五樓之１","E_COORD97":167935.51999999999,"N_COORD97":2543829.8300000001,"ADDRESS":"民生路一段２０５巷７號五樓之１","OBJECTID":425867},"geometry":{"x":167935.52000000048,"y":2543829.8300000019}},{"attributes":{"ID":425893,"DIS_CODE":0,"TOWNNAME":"中西區","LI":"建國里","LIN":"9鄰","STREET":"民生路","SECT":"一段","MAREA":" ","LANE":"２０５巷","ALLEY":" ","HOUSE_NO":"７號五樓之２","E_COORD97":167938.67000000001,"N_COORD97":2543828.5499999998,"ADDRESS":"民生路一段２０５巷７號五樓之２","OBJECTID":425868},"geometry":{"x":167938.66999999993,"y":2543828.5500000026}},{"attributes":{"ID":425894,"DIS_CODE":0,"TOWNNAME":"中西區","LI":"建國里","LIN":"9鄰","STREET":"民生路","SECT":"一段","MAREA":" ","LANE":"２０５巷","ALLEY":" ","HOUSE_NO":"７號五樓之３","E_COORD97":167942.25,"N_COORD97":2543826.9700000002,"ADDRESS":"民生路一段２０５巷７號五樓之３","OBJECTID":425869},"geometry":{"x":167942.25000000093,"y":2543826.9700000007}},{"attributes":{"ID":425895,"DIS_CODE":0,"TOWNNAME":"中西區","LI":"建國里","LIN":"9鄰","STREET":"民生路","SECT":"一段","MAREA":" ","LANE":"２０５巷","ALLEY":" ","HOUSE_NO":"７號五樓之４","E_COORD97":167946.82000000001,"N_COORD97":2543824.1200000001,"ADDRESS":"民生路一段２０５巷７號五樓之４","OBJECTID":425870},"geometry":{"x":167946.8200000003,"y":2543824.120000001}},{"attributes":{"ID":425896,"DIS_CODE":0,"TOWNNAME":"中西區","LI":"建國里","LIN":"9鄰","STREET":"民生路","SECT":"一段","MAREA":" ","LANE":"２０５巷","ALLEY":" ","HOUSE_NO":"７號五樓之５","E_COORD97":167951.69,"N_COORD97":2543822.1200000001,"ADDRESS":"民生路一段２０５巷７號五樓之５","OBJECTID":425871},"geometry":{"x":167951.69000000134,"y":2543822.1200000029}},{"attributes":{"ID":425897,"DIS_CODE":0,"TOWNNAME":"中西區","LI":"建國里","LIN":"9鄰","STREET":"民生路","SECT":"一段","MAREA":" ","LANE":"２０５巷","ALLEY":" ","HOUSE_NO":"７號四樓之１","E_COORD97":167935.51999999999,"N_COORD97":2543829.8300000001,"ADDRESS":"民生路一段２０５巷７號四樓之１","OBJECTID":425872},"geometry":{"x":167935.52000000048,"y":2543829.8300000019}},{"attributes":{"ID":425898,"DIS_CODE":0,"TOWNNAME":"中西區","LI":"建國里","LIN":"9鄰","STREET":"民生路","SECT":"一段","MAREA":" ","LANE":"２０５巷","ALLEY":" ","HOUSE_NO":"７號四樓之２","E_COORD97":167938.67000000001,"N_COORD97":2543828.5499999998,"ADDRESS":"民生路一段２０５巷７號四樓之２","OBJECTID":425873},"geometry":{"x":167938.66999999993,"y":2543828.5500000026}},{"attributes":{"ID":425899,"DIS_CODE":0,"TOWNNAME":"中西區","LI":"建國里","LIN":"9鄰","STREET":"民生路","SECT":"一段","MAREA":" ","LANE":"２０５巷","ALLEY":" ","HOUSE_NO":"７號四樓之３","E_COORD97":167942.25,"N_COORD97":2543826.9700000002,"ADDRESS":"民生路一段２０５巷７號四樓之３","OBJECTID":425874},"geometry":{"x":167942.25000000093,"y":2543826.9700000007}},{"attributes":{"ID":425900,"DIS_CODE":0,"TOWNNAME":"中西區","LI":"建國里","LIN":"4鄰","STREET":"民生路","SECT":"一段","MAREA":" ","LANE":"１５７巷","ALLEY":" ","HOUSE_NO":"２６號一樓","E_COORD97":167972.45000000001,"N_COORD97":2543756.1800000002,"ADDRESS":"民生路一段１５７巷２６號一樓","OBJECTID":425875},"geometry":{"x":167972.45000000019,"y":2543756.1800000016}},{"attributes":{"ID":425901,"DIS_CODE":0,"TOWNNAME":"中西區","LI":"建國里","LIN":"4鄰","STREET":"民生路","SECT":"一段","MAREA":" ","LANE":"１５７巷","ALLEY":" ","HOUSE_NO":"２６號二樓","E_COORD97":167972.45000000001,"N_COORD97":2543756.1800000002,"ADDRESS":"民生路一段１５７巷２６號二樓","OBJECTID":425876},"geometry":{"x":167972.45000000019,"y":2543756.1800000016}},{"attributes":{"ID":425902,"DIS_CODE":0,"TOWNNAME":"中西區","LI":"建國里","LIN":"4鄰","STREET":"民生路","SECT":"一段","MAREA":" ","LANE":"１５７巷","ALLEY":" ","HOUSE_NO":"２６號三樓","E_COORD97":167972.45000000001,"N_COORD97":2543756.1800000002,"ADDRESS":"民生路一段１５７巷２６號三樓","OBJECTID":425877},"geometry":{"x":167972.45000000019,"y":2543756.1800000016}},{"attributes":{"ID":425903,"DIS_CODE":0,"TOWNNAME":"中西區","LI":"建國里","LIN":"4鄰","STREET":"民生路","SECT":"一段","MAREA":" ","LANE":"１５７巷","ALLEY":" ","HOUSE_NO":"２６號四樓","E_COORD97":167972.45000000001,"N_COORD97":2543756.1800000002,"ADDRESS":"民生路一段１５７巷２６號四樓","OBJECTID":425878},"geometry":{"x":167972.45000000019,"y":2543756.1800000016}},{"attributes":{"ID":425904,"DIS_CODE":0,"TOWNNAME":"中西區","LI":"郡王里","LIN":"13鄰","STREET":"建業街","SECT":" ","MAREA":" ","LANE":"３７巷","ALLEY":" ","HOUSE_NO":"１７號二樓","E_COORD97":168546.14999999999,"N_COORD97":2543112.46,"ADDRESS":"建業街３７巷１７號二樓","OBJECTID":425879},"geometry":{"x":168546.15000000037,"y":2543112.4600000009}},{"attributes":{"ID":425905,"DIS_CODE":0,"TOWNNAME":"中西區","LI":"郡王里","LIN":"12鄰","STREET":"建業街","SECT":" ","MAREA":" ","LANE":"３７巷","ALLEY":" ","HOUSE_NO":"２號一樓之８","E_COORD97":168515.26000000001,"N_COORD97":2543100.29,"ADDRESS":"建業街３７巷２號一樓之８","OBJECTID":425880},"geometry":{"x":168515.26000000071,"y":2543100.290000001}},{"attributes":{"ID":425906,"DIS_CODE":0,"TOWNNAME":"仁德區","LI":"後壁里","LIN":"40鄰","STREET":"德安路","SECT":" ","MAREA":" ","LANE":" ","ALLEY":" ","HOUSE_NO":"１０２號","E_COORD97":173513.70999999999,"N_COORD97":2538998.3100000001,"ADDRESS":"德安路１０２號","OBJECTID":425881},"geometry":{"x":173513.70999999996,"y":2538998.3100000042}},{"attributes":{"ID":425907,"DIS_CODE":0,"TOWNNAME":"歸仁區","LI":"南保里","LIN":"53鄰","STREET":"大順街","SECT":" ","MAREA":" ","LANE":"２３３巷","ALLEY":" ","HOUSE_NO":"３號","E_COORD97":176800.47,"N_COORD97":2540576.25,"ADDRESS":"大順街２３３巷３號","OBJECTID":425882},"geometry":{"x":176800.46999999974,"y":2540576.25}},{"attributes":{"ID":425908,"DIS_CODE":0,"TOWNNAME":"中西區","LI":"永華里","LIN":"4鄰","STREET":"府前路","SECT":"一段","MAREA":" ","LANE":"１９６巷","ALLEY":" ","HOUSE_NO":"１１號一樓之１","E_COORD97":168521.48999999999,"N_COORD97":2543341.77,"ADDRESS":"府前路一段１９６巷１１號一樓之１","OBJECTID":425883},"geometry":{"x":168521.49000000022,"y":2543341.7700000014}},{"attributes":{"ID":425909,"DIS_CODE":0,"TOWNNAME":"中西區","LI":"永華里","LIN":"4鄰","STREET":"府前路","SECT":"一段","MAREA":" ","LANE":"１９６巷","ALLEY":" ","HOUSE_NO":"１１號一樓之２","E_COORD97":168521.48999999999,"N_COORD97":2543341.77,"ADDRESS":"府前路一段１９６巷１１號一樓之２","OBJECTID":425884},"geometry":{"x":168521.49000000022,"y":2543341.7700000014}},{"attributes":{"ID":425910,"DIS_CODE":0,"TOWNNAME":"中西區","LI":"永華里","LIN":"4鄰","STREET":"府前路","SECT":"一段","MAREA":" ","LANE":"１９６巷","ALLEY":" ","HOUSE_NO":"１１號二樓之１","E_COORD97":168521.48999999999,"N_COORD97":2543341.77,"ADDRESS":"府前路一段１９６巷１１號二樓之１","OBJECTID":425885},"geometry":{"x":168521.49000000022,"y":2543341.7700000014}},{"attributes":{"ID":425911,"DIS_CODE":0,"TOWNNAME":"中西區","LI":"永華里","LIN":"4鄰","STREET":"府前路","SECT":"一段","MAREA":" ","LANE":"１９６巷","ALLEY":" ","HOUSE_NO":"１１號二樓之２","E_COORD97":168521.48999999999,"N_COORD97":2543341.77,"ADDRESS":"府前路一段１９６巷１１號二樓之２","OBJECTID":425886},"geometry":{"x":168521.49000000022,"y":2543341.7700000014}},{"attributes":{"ID":425912,"DIS_CODE":0,"TOWNNAME":"中西區","LI":"永華里","LIN":"4鄰","STREET":"府前路","SECT":"一段","MAREA":" ","LANE":"１９６巷","ALLEY":" ","HOUSE_NO":"１１號三樓之１","E_COORD97":168521.48999999999,"N_COORD97":2543341.77,"ADDRESS":"府前路一段１９６巷１１號三樓之１","OBJECTID":425887},"geometry":{"x":168521.49000000022,"y":2543341.7700000014}},{"attributes":{"ID":425913,"DIS_CODE":0,"TOWNNAME":"中西區","LI":"永華里","LIN":"4鄰","STREET":"府前路","SECT":"一段","MAREA":" ","LANE":"１９６巷","ALLEY":" ","HOUSE_NO":"１１號三樓之２","E_COORD97":168521.48999999999,"N_COORD97":2543341.77,"ADDRESS":"府前路一段１９６巷１１號三樓之２","OBJECTID":425888},"geometry":{"x":168521.49000000022,"y":2543341.7700000014}},{"attributes":{"ID":425914,"DIS_CODE":0,"TOWNNAME":"中西區","LI":"永華里","LIN":"4鄰","STREET":"府前路","SECT":"一段","MAREA":" ","LANE":"１９６巷","ALLEY":" ","HOUSE_NO":"１１號五樓之１","E_COORD97":168521.48999999999,"N_COORD97":2543341.77,"ADDRESS":"府前路一段１９６巷１１號五樓之１","OBJECTID":425889},"geometry":{"x":168521.49000000022,"y":2543341.7700000014}},{"attributes":{"ID":425915,"DIS_CODE":0,"TOWNNAME":"中西區","LI":"永華里","LIN":"3鄰","STREET":"府前路","SECT":"一段","MAREA":" ","LANE":"１９６巷","ALLEY":" ","HOUSE_NO":"７號二樓之２","E_COORD97":168525.20000000001,"N_COORD97":2543328.7999999998,"ADDRESS":"府前路一段１９６巷７號二樓之２","OBJECTID":425890},"geometry":{"x":168525.20000000019,"y":2543328.8000000026}},{"attributes":{"ID":425916,"DIS_CODE":0,"TOWNNAME":"中西區","LI":"永華里","LIN":"3鄰","STREET":"府前路","SECT":"一段","MAREA":" ","LANE":"１９６巷","ALLEY":" ","HOUSE_NO":"７號三樓之１","E_COORD97":168525.20000000001,"N_COORD97":2543328.7999999998,"ADDRESS":"府前路一段１９６巷７號三樓之１","OBJECTID":425891},"geometry":{"x":168525.20000000019,"y":2543328.8000000026}},{"attributes":{"ID":425917,"DIS_CODE":0,"TOWNNAME":"中西區","LI":"永華里","LIN":"3鄰","STREET":"府前路","SECT":"一段","MAREA":" ","LANE":"１９６巷","ALLEY":" ","HOUSE_NO":"７號三樓之２","E_COORD97":168525.20000000001,"N_COORD97":2543328.7999999998,"ADDRESS":"府前路一段１９６巷７號三樓之２","OBJECTID":425892},"geometry":{"x":168525.20000000019,"y":2543328.8000000026}},{"attributes":{"ID":425918,"DIS_CODE":0,"TOWNNAME":"中西區","LI":"永華里","LIN":"3鄰","STREET":"府前路","SECT":"一段","MAREA":" ","LANE":"１９６巷","ALLEY":" ","HOUSE_NO":"７號五樓之１","E_COORD97":168525.20000000001,"N_COORD97":2543328.7999999998,"ADDRESS":"府前路一段１９６巷７號五樓之１","OBJECTID":425893},"geometry":{"x":168525.20000000019,"y":2543328.8000000026}},{"attributes":{"ID":425919,"DIS_CODE":0,"TOWNNAME":"中西區","LI":"永華里","LIN":"3鄰","STREET":"府前路","SECT":"一段","MAREA":" ","LANE":"１９６巷","ALLEY":" ","HOUSE_NO":"７號五樓之２","E_COORD97":168525.20000000001,"N_COORD97":2543328.7999999998,"ADDRESS":"府前路一段１９６巷７號五樓之２","OBJECTID":425894},"geometry":{"x":168525.20000000019,"y":2543328.8000000026}},{"attributes":{"ID":425920,"DIS_CODE":0,"TOWNNAME":"中西區","LI":"永華里","LIN":"3鄰","STREET":"府前路","SECT":"一段","MAREA":" ","LANE":"１９６巷","ALLEY":" ","HOUSE_NO":"７號四樓之１","E_COORD97":168525.20000000001,"N_COORD97":2543328.7999999998,"ADDRESS":"府前路一段１９６巷７號四樓之１","OBJECTID":425895},"geometry":{"x":168525.20000000019,"y":2543328.8000000026}},{"attributes":{"ID":425921,"DIS_CODE":0,"TOWNNAME":"東山區","LI":"科里里","LIN":"1鄰","STREET":" ","SECT":" ","MAREA":"下庄子","LANE":" ","ALLEY":" ","HOUSE_NO":"１號之８","E_COORD97":189681.64907000001,"N_COORD97":2578572.3757500001,"ADDRESS":"下庄子１號之８","OBJECTID":425896},"geometry":{"x":189681.64907000028,"y":2578572.3757499997}},{"attributes":{"ID":425922,"DIS_CODE":0,"TOWNNAME":"中西區","LI":"永華里","LIN":"3鄰","STREET":"府前路","SECT":"一段","MAREA":" ","LANE":"１９６巷","ALLEY":" ","HOUSE_NO":"７號四樓之２","E_COORD97":168525.20000000001,"N_COORD97":2543328.7999999998,"ADDRESS":"府前路一段１９６巷７號四樓之２","OBJECTID":425897},"geometry":{"x":168525.20000000019,"y":2543328.8000000026}},{"attributes":{"ID":425923,"DIS_CODE":0,"TOWNNAME":"仁德區","LI":"太子里","LIN":"4鄰","STREET":"太子路","SECT":" ","MAREA":" ","LANE":"１９０巷","ALLEY":" ","HOUSE_NO":"４２號一樓","E_COORD97":174350.29999999999,"N_COORD97":2543688.75,"ADDRESS":"太子路１９０巷４２號一樓","OBJECTID":425898},"geometry":{"x":174350.29999999981,"y":2543688.75}},{"attributes":{"ID":425924,"DIS_CODE":0,"TOWNNAME":"仁德區","LI":"太子里","LIN":"4鄰","STREET":"太子路","SECT":" ","MAREA":" ","LANE":"１９０巷","ALLEY":" ","HOUSE_NO":"３７號五樓","E_COORD97":174308.04999999999,"N_COORD97":2543662.7200000002,"ADDRESS":"太子路１９０巷３７號五樓","OBJECTID":425899},"geometry":{"x":174308.04999999981,"y":2543662.7200000007}},{"attributes":{"ID":425925,"DIS_CODE":0,"TOWNNAME":"仁德區","LI":"太子里","LIN":"4鄰","STREET":"太子路","SECT":" ","MAREA":" ","LANE":"１９０巷","ALLEY":" ","HOUSE_NO":"３８號三樓","E_COORD97":174325.91,"N_COORD97":2543689.25,"ADDRESS":"太子路１９０巷３８號三樓","OBJECTID":425900},"geometry":{"x":174325.91000000108,"y":2543689.25}},{"attributes":{"ID":425926,"DIS_CODE":0,"TOWNNAME":"仁德區","LI":"太子里","LIN":"4鄰","STREET":"太子路","SECT":" ","MAREA":" ","LANE":"１９０巷","ALLEY":" ","HOUSE_NO":"４０號三樓","E_COORD97":174341.17999999999,"N_COORD97":2543687.5,"ADDRESS":"太子路１９０巷４０號三樓","OBJECTID":425901},"geometry":{"x":174341.1799999997,"y":2543687.5}},{"attributes":{"ID":425927,"DIS_CODE":0,"TOWNNAME":"仁德區","LI":"太子里","LIN":"4鄰","STREET":"太子路","SECT":" ","MAREA":" ","LANE":"１９０巷","ALLEY":" ","HOUSE_NO":"３８號四樓","E_COORD97":174325.91,"N_COORD97":2543689.25,"ADDRESS":"太子路１９０巷３８號四樓","OBJECTID":425902},"geometry":{"x":174325.91000000108,"y":2543689.25}},{"attributes":{"ID":425928,"DIS_CODE":0,"TOWNNAME":"仁德區","LI":"太子里","LIN":"4鄰","STREET":"太子路","SECT":" ","MAREA":" ","LANE":"１９０巷","ALLEY":" ","HOUSE_NO":"４０號一樓","E_COORD97":174341.17999999999,"N_COORD97":2543687.5,"ADDRESS":"太子路１９０巷４０號一樓","OBJECTID":425903},"geometry":{"x":174341.1799999997,"y":2543687.5}},{"attributes":{"ID":425929,"DIS_CODE":0,"TOWNNAME":"永康區","LI":"網寮里","LIN":"20鄰","STREET":"永二街","SECT":" ","MAREA":" ","LANE":"２４５巷","ALLEY":" ","HOUSE_NO":"２７號之３四樓","E_COORD97":173337.70000000001,"N_COORD97":2546133.6200000001,"ADDRESS":"永二街２４５巷２７號之３四樓","OBJECTID":425904},"geometry":{"x":173337.70000000019,"y":2546133.6200000048}},{"attributes":{"ID":425930,"DIS_CODE":0,"TOWNNAME":"永康區","LI":"網寮里","LIN":"20鄰","STREET":"永二街","SECT":" ","MAREA":" ","LANE":"２４５巷","ALLEY":" ","HOUSE_NO":"２７號之７四樓","E_COORD97":173341.14999999999,"N_COORD97":2546120.3799999999,"ADDRESS":"永二街２４５巷２７號之７四樓","OBJECTID":425905},"geometry":{"x":173341.1500000013,"y":2546120.3800000008}},{"attributes":{"ID":425931,"DIS_CODE":0,"TOWNNAME":"永康區","LI":"龍潭里","LIN":"42鄰","STREET":"永平街","SECT":" ","MAREA":" ","LANE":"７５９巷","ALLEY":" ","HOUSE_NO":"１２號五樓","E_COORD97":174620.37,"N_COORD97":2547080.5,"ADDRESS":"永平街７５９巷１２號五樓","OBJECTID":425906},"geometry":{"x":174620.37000000197,"y":2547080.5000000019}},{"attributes":{"ID":425932,"DIS_CODE":0,"TOWNNAME":"永康區","LI":"龍潭里","LIN":"42鄰","STREET":"永平街","SECT":" ","MAREA":" ","LANE":"７５９巷","ALLEY":" ","HOUSE_NO":"１８號五樓","E_COORD97":174612.48000000001,"N_COORD97":2547081.5,"ADDRESS":"永平街７５９巷１８號五樓","OBJECTID":425907},"geometry":{"x":174612.48000000045,"y":2547081.5}},{"attributes":{"ID":425933,"DIS_CODE":0,"TOWNNAME":"永康區","LI":"龍潭里","LIN":"42鄰","STREET":"永平街","SECT":" ","MAREA":" ","LANE":"７５９巷","ALLEY":" ","HOUSE_NO":"２號二樓","E_COORD97":174615.09,"N_COORD97":2547055.21,"ADDRESS":"永平街７５９巷２號二樓","OBJECTID":425908},"geometry":{"x":174615.08999999985,"y":2547055.2100000028}},{"attributes":{"ID":425934,"DIS_CODE":0,"TOWNNAME":"永康區","LI":"網寮里","LIN":"21鄰","STREET":"文化路","SECT":" ","MAREA":" ","LANE":"２４２巷","ALLEY":" ","HOUSE_NO":"７號七樓之１","E_COORD97":173560.38,"N_COORD97":2546162.9900000002,"ADDRESS":"文化路２４２巷７號七樓之１","OBJECTID":425909},"geometry":{"x":173560.37999999989,"y":2546162.9900000002}},{"attributes":{"ID":425935,"DIS_CODE":0,"TOWNNAME":"仁德區","LI":"仁義里","LIN":"39鄰","STREET":"仁義五街","SECT":" ","MAREA":" ","LANE":"４４巷","ALLEY":" ","HOUSE_NO":"２號","E_COORD97":173602.20000000001,"N_COORD97":2540426.27,"ADDRESS":"仁義五街４４巷２號","OBJECTID":425910},"geometry":{"x":173602.20000000019,"y":2540426.2700000014}},{"attributes":{"ID":425936,"DIS_CODE":0,"TOWNNAME":"永康區","LI":"網寮里","LIN":"20鄰","STREET":"永二街","SECT":" ","MAREA":" ","LANE":"２４５巷","ALLEY":" ","HOUSE_NO":"２７號之９五樓","E_COORD97":173324.48999999999,"N_COORD97":2546124.6299999999,"ADDRESS":"永二街２４５巷２７號之９五樓","OBJECTID":425911},"geometry":{"x":173324.48999999929,"y":2546124.6300000008}},{"attributes":{"ID":425937,"DIS_CODE":0,"TOWNNAME":"仁德區","LI":"後壁里","LIN":"40鄰","STREET":"德善一街","SECT":" ","MAREA":" ","LANE":" ","ALLEY":" ","HOUSE_NO":"４６號","E_COORD97":173473.70000000001,"N_COORD97":2539006.7599999998,"ADDRESS":"德善一街４６號","OBJECTID":425912},"geometry":{"x":173473.70000000019,"y":2539006.7599999998}},{"attributes":{"ID":425938,"DIS_CODE":0,"TOWNNAME":"永康區","LI":"龍潭里","LIN":"42鄰","STREET":"永平街","SECT":" ","MAREA":" ","LANE":"７５９巷","ALLEY":" ","HOUSE_NO":"３０號二樓","E_COORD97":174591.76999999999,"N_COORD97":2547078.75,"ADDRESS":"永平街７５９巷３０號二樓","OBJECTID":425913},"geometry":{"x":174591.77000000142,"y":2547078.7500000019}},{"attributes":{"ID":425939,"DIS_CODE":0,"TOWNNAME":"永康區","LI":"龍潭里","LIN":"42鄰","STREET":"永平街","SECT":" ","MAREA":" ","LANE":"７５９巷","ALLEY":" ","HOUSE_NO":"８號五樓","E_COORD97":174614.13,"N_COORD97":2547069.96,"ADDRESS":"永平街７５９巷８號五樓","OBJECTID":425914},"geometry":{"x":174614.13000000082,"y":2547069.9600000046}},{"attributes":{"ID":425940,"DIS_CODE":0,"TOWNNAME":"永康區","LI":"龍潭里","LIN":"42鄰","STREET":"永平街","SECT":" ","MAREA":" ","LANE":"７５９巷","ALLEY":" ","HOUSE_NO":"２２號四樓","E_COORD97":174603.20999999999,"N_COORD97":2547081,"ADDRESS":"永平街７５９巷２２號四樓","OBJECTID":425915},"geometry":{"x":174603.21000000089,"y":2547081}},{"attributes":{"ID":425941,"DIS_CODE":0,"TOWNNAME":"永康區","LI":"網寮里","LIN":"21鄰","STREET":"文化路","SECT":" ","MAREA":" ","LANE":"２４２巷","ALLEY":" ","HOUSE_NO":"１０號七樓之２","E_COORD97":173582.17000000001,"N_COORD97":2546161.8399999999,"ADDRESS":"文化路２４２巷１０號七樓之２","OBJECTID":425916},"geometry":{"x":173582.16999999993,"y":2546161.8400000017}},{"attributes":{"ID":425942,"DIS_CODE":0,"TOWNNAME":"永康區","LI":"復華里","LIN":"9鄰","STREET":"復國二路","SECT":" ","MAREA":" ","LANE":"２１５巷","ALLEY":" ","HOUSE_NO":"３６號六樓之３","E_COORD97":172910.5,"N_COORD97":2546067.8500000001,"ADDRESS":"復國二路２１５巷３６號六樓之３","OBJECTID":425917},"geometry":{"x":172910.5,"y":2546067.8499999996}},{"attributes":{"ID":425943,"DIS_CODE":0,"TOWNNAME":"永康區","LI":"復華里","LIN":"9鄰","STREET":"復國二路","SECT":" ","MAREA":" ","LANE":"２１５巷","ALLEY":" ","HOUSE_NO":"３０號八樓之２","E_COORD97":172918.38,"N_COORD97":2546062.6000000001,"ADDRESS":"復國二路２１５巷３０號八樓之２","OBJECTID":425918},"geometry":{"x":172918.38000000082,"y":2546062.5999999996}},{"attributes":{"ID":425944,"DIS_CODE":0,"TOWNNAME":"永康區","LI":"網寮里","LIN":"5鄰","STREET":"永勝街","SECT":" ","MAREA":" ","LANE":"１０６巷","ALLEY":" ","HOUSE_NO":"１１號四樓之３","E_COORD97":173578.39999999999,"N_COORD97":2546357.4700000002,"ADDRESS":"永勝街１０６巷１１號四樓之３","OBJECTID":425919},"geometry":{"x":173578.4000000013,"y":2546357.4699999988}},{"attributes":{"ID":425945,"DIS_CODE":0,"TOWNNAME":"永康區","LI":"網寮里","LIN":"20鄰","STREET":"永二街","SECT":" ","MAREA":" ","LANE":"２４５巷","ALLEY":" ","HOUSE_NO":"２７號之３五樓","E_COORD97":173337.70000000001,"N_COORD97":2546133.6200000001,"ADDRESS":"永二街２４５巷２７號之３五樓","OBJECTID":425920},"geometry":{"x":173337.70000000019,"y":2546133.6200000048}},{"attributes":{"ID":425946,"DIS_CODE":0,"TOWNNAME":"永康區","LI":"網寮里","LIN":"21鄰","STREET":"文化路","SECT":" ","MAREA":" ","LANE":"２４２巷","ALLEY":" ","HOUSE_NO":"１０號三樓之２","E_COORD97":173582.17000000001,"N_COORD97":2546161.8399999999,"ADDRESS":"文化路２４２巷１０號三樓之２","OBJECTID":425921},"geometry":{"x":173582.16999999993,"y":2546161.8400000017}},{"attributes":{"ID":425947,"DIS_CODE":0,"TOWNNAME":"永康區","LI":"復華里","LIN":"9鄰","STREET":"復國二路","SECT":" ","MAREA":" ","LANE":"２１５巷","ALLEY":" ","HOUSE_NO":"３２號九樓之２","E_COORD97":172914.13,"N_COORD97":2546065.1000000001,"ADDRESS":"復國二路２１５巷３２號九樓之２","OBJECTID":425922},"geometry":{"x":172914.12999999989,"y":2546065.1000000015}},{"attributes":{"ID":425948,"DIS_CODE":0,"TOWNNAME":"永康區","LI":"復華里","LIN":"9鄰","STREET":"復國二路","SECT":" ","MAREA":" ","LANE":"２１５巷","ALLEY":" ","HOUSE_NO":"３６號五樓之３","E_COORD97":172910.5,"N_COORD97":2546067.8500000001,"ADDRESS":"復國二路２１５巷３６號五樓之３","OBJECTID":425923},"geometry":{"x":172910.5,"y":2546067.8499999996}},{"attributes":{"ID":425949,"DIS_CODE":0,"TOWNNAME":"永康區","LI":"復華里","LIN":"9鄰","STREET":"復國二路","SECT":" ","MAREA":" ","LANE":"２１５巷","ALLEY":" ","HOUSE_NO":"３６號十一樓之２","E_COORD97":172911.79000000001,"N_COORD97":2546067.8500000001,"ADDRESS":"復國二路２１５巷３６號十一樓之２","OBJECTID":425924},"geometry":{"x":172911.79000000004,"y":2546067.8499999996}},{"attributes":{"ID":425950,"DIS_CODE":0,"TOWNNAME":"永康區","LI":"復華里","LIN":"9鄰","STREET":"復國二路","SECT":" ","MAREA":" ","LANE":"２１５巷","ALLEY":" ","HOUSE_NO":"３６號七樓之２","E_COORD97":172910.54000000001,"N_COORD97":2546067.8500000001,"ADDRESS":"復國二路２１５巷３６號七樓之２","OBJECTID":425925},"geometry":{"x":172910.5400000019,"y":2546067.8499999996}},{"attributes":{"ID":425951,"DIS_CODE":0,"TOWNNAME":"永康區","LI":"復華里","LIN":"9鄰","STREET":"復國二路","SECT":" ","MAREA":" ","LANE":"２１５巷","ALLEY":" ","HOUSE_NO":"３０號十樓之２","E_COORD97":172918.38,"N_COORD97":2546062.6000000001,"ADDRESS":"復國二路２１５巷３０號十樓之２","OBJECTID":425926},"geometry":{"x":172918.38000000082,"y":2546062.5999999996}},{"attributes":{"ID":425952,"DIS_CODE":0,"TOWNNAME":"安南區","LI":"海佃里","LIN":"4鄰","STREET":"國安街","SECT":" ","MAREA":" ","LANE":"１５６巷","ALLEY":" ","HOUSE_NO":"４號","E_COORD97":166750.32000000001,"N_COORD97":2546995.3599999999,"ADDRESS":"國安街１５６巷４號","OBJECTID":425927},"geometry":{"x":166750.32000000216,"y":2546995.3600000013}},{"attributes":{"ID":425953,"DIS_CODE":0,"TOWNNAME":"永康區","LI":"網寮里","LIN":"20鄰","STREET":"永二街","SECT":" ","MAREA":" ","LANE":"２４５巷","ALLEY":" ","HOUSE_NO":"２７號之２五樓","E_COORD97":173329.41,"N_COORD97":2546137.1200000001,"ADDRESS":"永二街２４５巷２７號之２五樓","OBJECTID":425928},"geometry":{"x":173329.41000000015,"y":2546137.1200000029}},{"attributes":{"ID":425954,"DIS_CODE":0,"TOWNNAME":"永康區","LI":"網寮里","LIN":"20鄰","STREET":"永二街","SECT":" ","MAREA":" ","LANE":"２４５巷","ALLEY":" ","HOUSE_NO":"２７號之１１二樓","E_COORD97":173305.47,"N_COORD97":2546124.7400000002,"ADDRESS":"永二街２４５巷２７號之１１二樓","OBJECTID":425929},"geometry":{"x":173305.46999999881,"y":2546124.7399999984}},{"attributes":{"ID":425955,"DIS_CODE":0,"TOWNNAME":"永康區","LI":"龍潭里","LIN":"42鄰","STREET":"永平街","SECT":" ","MAREA":" ","LANE":"７５９巷","ALLEY":" ","HOUSE_NO":"１０號四樓","E_COORD97":174615.48999999999,"N_COORD97":2547073.21,"ADDRESS":"永平街７５９巷１０號四樓","OBJECTID":425930},"geometry":{"x":174615.49000000022,"y":2547073.2100000028}},{"attributes":{"ID":425956,"DIS_CODE":0,"TOWNNAME":"永康區","LI":"龍潭里","LIN":"42鄰","STREET":"永平街","SECT":" ","MAREA":" ","LANE":"７５９巷","ALLEY":" ","HOUSE_NO":"１２號四樓","E_COORD97":174620.37,"N_COORD97":2547080.5,"ADDRESS":"永平街７５９巷１２號四樓","OBJECTID":425931},"geometry":{"x":174620.37000000197,"y":2547080.5000000019}},{"attributes":{"ID":425957,"DIS_CODE":0,"TOWNNAME":"永康區","LI":"龍潭里","LIN":"42鄰","STREET":"永平街","SECT":" ","MAREA":" ","LANE":"７５９巷","ALLEY":" ","HOUSE_NO":"１６號二樓","E_COORD97":174616.67000000001,"N_COORD97":2547090.75,"ADDRESS":"永平街７５９巷１６號二樓","OBJECTID":425932},"geometry":{"x":174616.67000000086,"y":2547090.7500000037}},{"attributes":{"ID":425958,"DIS_CODE":0,"TOWNNAME":"永康區","LI":"網寮里","LIN":"13鄰","STREET":"永勝街","SECT":" ","MAREA":" ","LANE":"１６９巷","ALLEY":" ","HOUSE_NO":"２號九樓之２","E_COORD97":173315.32999999999,"N_COORD97":2546526.3700000001,"ADDRESS":"永勝街１６９巷２號九樓之２","OBJECTID":425933},"geometry":{"x":173315.33000000194,"y":2546526.3700000029}},{"attributes":{"ID":425959,"DIS_CODE":0,"TOWNNAME":"永康區","LI":"網寮里","LIN":"13鄰","STREET":"永勝街","SECT":" ","MAREA":" ","LANE":"１６９巷","ALLEY":" ","HOUSE_NO":"２號六樓之３","E_COORD97":173315.29999999999,"N_COORD97":2546526.3700000001,"ADDRESS":"永勝街１６９巷２號六樓之３","OBJECTID":425934},"geometry":{"x":173315.30000000168,"y":2546526.3700000029}},{"attributes":{"ID":425960,"DIS_CODE":0,"TOWNNAME":"永康區","LI":"復國里","LIN":"25鄰","STREET":"復華三街","SECT":" ","MAREA":" ","LANE":"９０巷","ALLEY":" ","HOUSE_NO":"１８號十六樓之２","E_COORD97":172640.92999999999,"N_COORD97":2545614.2999999998,"ADDRESS":"復華三街９０巷１８號十六樓之２","OBJECTID":425935},"geometry":{"x":172640.9299999997,"y":2545614.3000000026}},{"attributes":{"ID":425961,"DIS_CODE":0,"TOWNNAME":"永康區","LI":"勝利里","LIN":"39鄰","STREET":"勝華街","SECT":" ","MAREA":" ","LANE":"３７巷","ALLEY":" ","HOUSE_NO":"５６號十樓之５","E_COORD97":171422.67000000001,"N_COORD97":2545110.29,"ADDRESS":"勝華街３７巷５６號十樓之５","OBJECTID":425936},"geometry":{"x":171422.66999999899,"y":2545110.290000001}},{"attributes":{"ID":425962,"DIS_CODE":0,"TOWNNAME":"永康區","LI":"勝利里","LIN":"39鄰","STREET":"勝華街","SECT":" ","MAREA":" ","LANE":"３７巷","ALLEY":" ","HOUSE_NO":"５６號八樓之１１","E_COORD97":171423.76000000001,"N_COORD97":2545110.29,"ADDRESS":"勝華街３７巷５６號八樓之１１","OBJECTID":425937},"geometry":{"x":171423.76000000164,"y":2545110.290000001}},{"attributes":{"ID":425963,"DIS_CODE":0,"TOWNNAME":"永康區","LI":"復國里","LIN":"24鄰","STREET":"復華三街","SECT":" ","MAREA":" ","LANE":"９０巷","ALLEY":" ","HOUSE_NO":"１４號十六樓之５","E_COORD97":172649.16,"N_COORD97":2545581.7999999998,"ADDRESS":"復華三街９０巷１４號十六樓之５","OBJECTID":425938},"geometry":{"x":172649.16000000108,"y":2545581.8000000007}},{"attributes":{"ID":425964,"DIS_CODE":0,"TOWNNAME":"永康區","LI":"復國里","LIN":"24鄰","STREET":"復華三街","SECT":" ","MAREA":" ","LANE":"９０巷","ALLEY":" ","HOUSE_NO":"１２號八樓之１","E_COORD97":172642.64999999999,"N_COORD97":2545582.2999999998,"ADDRESS":"復華三街９０巷１２號八樓之１","OBJECTID":425939},"geometry":{"x":172642.6500000013,"y":2545582.3000000007}},{"attributes":{"ID":425965,"DIS_CODE":0,"TOWNNAME":"永康區","LI":"復國里","LIN":"24鄰","STREET":"復華三街","SECT":" ","MAREA":" ","LANE":"９０巷","ALLEY":" ","HOUSE_NO":"１２號十五樓之３","E_COORD97":172643.98999999999,"N_COORD97":2545582.2999999998,"ADDRESS":"復華三街９０巷１２號十五樓之３","OBJECTID":425940},"geometry":{"x":172643.99000000022,"y":2545582.3000000007}},{"attributes":{"ID":425966,"DIS_CODE":0,"TOWNNAME":"永康區","LI":"復華里","LIN":"17鄰","STREET":"國華街","SECT":" ","MAREA":" ","LANE":"１０２巷","ALLEY":" ","HOUSE_NO":"５１號十樓之３","E_COORD97":172885.09,"N_COORD97":2546112.2799999998,"ADDRESS":"國華街１０２巷５１號十樓之３","OBJECTID":425941},"geometry":{"x":172885.09000000078,"y":2546112.2799999993}},{"attributes":{"ID":425967,"DIS_CODE":0,"TOWNNAME":"永康區","LI":"復華里","LIN":"30鄰","STREET":"復華八街","SECT":" ","MAREA":" ","LANE":"４７巷","ALLEY":" ","HOUSE_NO":"４３號六樓之５","E_COORD97":172678.28,"N_COORD97":2546351.2999999998,"ADDRESS":"復華八街４７巷４３號六樓之５","OBJECTID":425942},"geometry":{"x":172678.28000000026,"y":2546351.3000000007}},{"attributes":{"ID":425968,"DIS_CODE":0,"TOWNNAME":"永康區","LI":"復華里","LIN":"9鄰","STREET":"復國二路","SECT":" ","MAREA":" ","LANE":"２１５巷","ALLEY":" ","HOUSE_NO":"３６號五樓之１","E_COORD97":172910.41,"N_COORD97":2546067.8500000001,"ADDRESS":"復國二路２１５巷３６號五樓之１","OBJECTID":425943},"geometry":{"x":172910.41000000108,"y":2546067.8499999996}},{"attributes":{"ID":425969,"DIS_CODE":0,"TOWNNAME":"永康區","LI":"網寮里","LIN":"26鄰","STREET":"永大一路","SECT":" ","MAREA":" ","LANE":"１０８巷","ALLEY":" ","HOUSE_NO":"２３號十樓之２","E_COORD97":174019.75,"N_COORD97":2546467.1699999999,"ADDRESS":"永大一路１０８巷２３號十樓之２","OBJECTID":425944},"geometry":{"x":174019.75000000093,"y":2546467.1699999999}},{"attributes":{"ID":425970,"DIS_CODE":0,"TOWNNAME":"永康區","LI":"復國里","LIN":"25鄰","STREET":"復華三街","SECT":" ","MAREA":" ","LANE":"９０巷","ALLEY":" ","HOUSE_NO":"１８號十一樓之４","E_COORD97":172640.82000000001,"N_COORD97":2545614.2999999998,"ADDRESS":"復華三街９０巷１８號十一樓之４","OBJECTID":425945},"geometry":{"x":172640.8200000003,"y":2545614.3000000026}},{"attributes":{"ID":425971,"DIS_CODE":0,"TOWNNAME":"永康區","LI":"復國里","LIN":"25鄰","STREET":"復華三街","SECT":" ","MAREA":" ","LANE":"９０巷","ALLEY":" ","HOUSE_NO":"１８號四樓之１","E_COORD97":172639.54999999999,"N_COORD97":2545614.2999999998,"ADDRESS":"復華三街９０巷１８號四樓之１","OBJECTID":425946},"geometry":{"x":172639.55000000075,"y":2545614.3000000026}},{"attributes":{"ID":425972,"DIS_CODE":0,"TOWNNAME":"永康區","LI":"復國里","LIN":"25鄰","STREET":"復華三街","SECT":" ","MAREA":" ","LANE":"９０巷","ALLEY":" ","HOUSE_NO":"１８號八樓之５","E_COORD97":172639.70000000001,"N_COORD97":2545614.2999999998,"ADDRESS":"復華三街９０巷１８號八樓之５","OBJECTID":425947},"geometry":{"x":172639.70000000019,"y":2545614.3000000026}},{"attributes":{"ID":425973,"DIS_CODE":0,"TOWNNAME":"永康區","LI":"勝利里","LIN":"39鄰","STREET":"勝華街","SECT":" ","MAREA":" ","LANE":"３７巷","ALLEY":" ","HOUSE_NO":"５６號五樓之１","E_COORD97":171422.51000000001,"N_COORD97":2545110.29,"ADDRESS":"勝華街３７巷５６號五樓之１","OBJECTID":425948},"geometry":{"x":171422.51000000071,"y":2545110.290000001}},{"attributes":{"ID":425974,"DIS_CODE":0,"TOWNNAME":"永康區","LI":"復華里","LIN":"18鄰","STREET":"國華街","SECT":" ","MAREA":" ","LANE":"１０２巷","ALLEY":" ","HOUSE_NO":"５３號三樓之１","E_COORD97":172864.04999999999,"N_COORD97":2546091.7599999998,"ADDRESS":"國華街１０２巷５３號三樓之１","OBJECTID":425949},"geometry":{"x":172864.04999999981,"y":2546091.7600000016}},{"attributes":{"ID":425975,"DIS_CODE":0,"TOWNNAME":"永康區","LI":"復華里","LIN":"26鄰","STREET":"復華八街","SECT":" ","MAREA":" ","LANE":"４７巷","ALLEY":" ","HOUSE_NO":"３６號九樓之２","E_COORD97":172690.41,"N_COORD97":2546385.6800000002,"ADDRESS":"復華八街４７巷３６號九樓之２","OBJECTID":425950},"geometry":{"x":172690.41000000015,"y":2546385.6800000034}},{"attributes":{"ID":425976,"DIS_CODE":0,"TOWNNAME":"永康區","LI":"復華里","LIN":"26鄰","STREET":"復華八街","SECT":" ","MAREA":" ","LANE":"４７巷","ALLEY":" ","HOUSE_NO":"３６號八樓之３","E_COORD97":172690.37,"N_COORD97":2546385.6800000002,"ADDRESS":"復華八街４７巷３６號八樓之３","OBJECTID":425951},"geometry":{"x":172690.37000000104,"y":2546385.6800000034}},{"attributes":{"ID":425977,"DIS_CODE":0,"TOWNNAME":"永康區","LI":"復國里","LIN":"25鄰","STREET":"復華三街","SECT":" ","MAREA":" ","LANE":"９０巷","ALLEY":" ","HOUSE_NO":"１６號九樓之１","E_COORD97":172656.10000000001,"N_COORD97":2545612.7999999998,"ADDRESS":"復華三街９０巷１６號九樓之１","OBJECTID":425952},"geometry":{"x":172656.10000000056,"y":2545612.8000000007}},{"attributes":{"ID":425978,"DIS_CODE":0,"TOWNNAME":"永康區","LI":"復國里","LIN":"25鄰","STREET":"復華三街","SECT":" ","MAREA":" ","LANE":"９０巷","ALLEY":" ","HOUSE_NO":"１６號六樓之２","E_COORD97":172656.23000000001,"N_COORD97":2545612.7999999998,"ADDRESS":"復華三街９０巷１６號六樓之２","OBJECTID":425953},"geometry":{"x":172656.23000000045,"y":2545612.8000000007}},{"attributes":{"ID":425979,"DIS_CODE":0,"TOWNNAME":"永康區","LI":"復國里","LIN":"25鄰","STREET":"復華三街","SECT":" ","MAREA":" ","LANE":"９０巷","ALLEY":" ","HOUSE_NO":"１８號十七樓之３","E_COORD97":172640.89000000001,"N_COORD97":2545614.2999999998,"ADDRESS":"復華三街９０巷１８號十七樓之３","OBJECTID":425954},"geometry":{"x":172640.88999999966,"y":2545614.3000000026}},{"attributes":{"ID":425980,"DIS_CODE":0,"TOWNNAME":"永康區","LI":"勝利里","LIN":"39鄰","STREET":"勝華街","SECT":" ","MAREA":" ","LANE":"３７巷","ALLEY":" ","HOUSE_NO":"５６號五樓之３","E_COORD97":171422.60999999999,"N_COORD97":2545110.29,"ADDRESS":"勝華街３７巷５６號五樓之３","OBJECTID":425955},"geometry":{"x":171422.61000000127,"y":2545110.290000001}},{"attributes":{"ID":425981,"DIS_CODE":0,"TOWNNAME":"永康區","LI":"復國里","LIN":"24鄰","STREET":"復華三街","SECT":" ","MAREA":" ","LANE":"９０巷","ALLEY":" ","HOUSE_NO":"１２號十三樓之４","E_COORD97":172643.92000000001,"N_COORD97":2545582.2999999998,"ADDRESS":"復華三街９０巷１２號十三樓之４","OBJECTID":425956},"geometry":{"x":172643.92000000086,"y":2545582.3000000007}},{"attributes":{"ID":425982,"DIS_CODE":0,"TOWNNAME":"歸仁區","LI":"武東里","LIN":"4鄰","STREET":"武東二街","SECT":" ","MAREA":" ","LANE":"２６巷","ALLEY":" ","HOUSE_NO":"１９號","E_COORD97":175482.39000000001,"N_COORD97":2535288.25,"ADDRESS":"武東二街２６巷１９號","OBJECTID":425957},"geometry":{"x":175482.38999999966,"y":2535288.25}},{"attributes":{"ID":425983,"DIS_CODE":0,"TOWNNAME":"永康區","LI":"復華里","LIN":"26鄰","STREET":"復華八街","SECT":" ","MAREA":" ","LANE":"４７巷","ALLEY":" ","HOUSE_NO":"３６號底一樓之１","E_COORD97":172691.53,"N_COORD97":2546385.6800000002,"ADDRESS":"復華八街４７巷３６號底一樓之１","OBJECTID":425958},"geometry":{"x":172691.53000000026,"y":2546385.6800000034}},{"attributes":{"ID":425984,"DIS_CODE":0,"TOWNNAME":"永康區","LI":"復國里","LIN":"25鄰","STREET":"復華三街","SECT":" ","MAREA":" ","LANE":"９０巷","ALLEY":" ","HOUSE_NO":"１６號十一樓之１","E_COORD97":172657.35000000001,"N_COORD97":2545612.7999999998,"ADDRESS":"復華三街９０巷１６號十一樓之１","OBJECTID":425959},"geometry":{"x":172657.35000000056,"y":2545612.8000000007}},{"attributes":{"ID":425985,"DIS_CODE":0,"TOWNNAME":"永康區","LI":"勝利里","LIN":"39鄰","STREET":"勝華街","SECT":" ","MAREA":" ","LANE":"３７巷","ALLEY":" ","HOUSE_NO":"５６號八樓之５","E_COORD97":171422.67000000001,"N_COORD97":2545110.29,"ADDRESS":"勝華街３７巷５６號八樓之５","OBJECTID":425960},"geometry":{"x":171422.66999999899,"y":2545110.290000001}},{"attributes":{"ID":425986,"DIS_CODE":0,"TOWNNAME":"永康區","LI":"復國里","LIN":"24鄰","STREET":"復華三街","SECT":" ","MAREA":" ","LANE":"９０巷","ALLEY":" ","HOUSE_NO":"１２號十一樓之２","E_COORD97":172644.03,"N_COORD97":2545582.2999999998,"ADDRESS":"復華三街９０巷１２號十一樓之２","OBJECTID":425961},"geometry":{"x":172644.03000000026,"y":2545582.3000000007}},{"attributes":{"ID":425987,"DIS_CODE":0,"TOWNNAME":"永康區","LI":"勝利里","LIN":"34鄰","STREET":"勝利街","SECT":" ","MAREA":" ","LANE":"１巷","ALLEY":" ","HOUSE_NO":"４４號六樓之１","E_COORD97":170974.25,"N_COORD97":2544680.54,"ADDRESS":"勝利街１巷４４號六樓之１","OBJECTID":425962},"geometry":{"x":170974.25,"y":2544680.5399999972}},{"attributes":{"ID":425988,"DIS_CODE":0,"TOWNNAME":"永康區","LI":"勝利里","LIN":"34鄰","STREET":"勝利街","SECT":" ","MAREA":" ","LANE":"１巷","ALLEY":" ","HOUSE_NO":"４３號六樓之１","E_COORD97":170974.25,"N_COORD97":2544680.54,"ADDRESS":"勝利街１巷４３號六樓之１","OBJECTID":425963},"geometry":{"x":170974.25,"y":2544680.5399999972}},{"attributes":{"ID":425989,"DIS_CODE":0,"TOWNNAME":"永康區","LI":"復華里","LIN":"17鄰","STREET":"國華街","SECT":" ","MAREA":" ","LANE":"１０２巷","ALLEY":" ","HOUSE_NO":"５１號五樓之１","E_COORD97":172884.98999999999,"N_COORD97":2546112.2799999998,"ADDRESS":"國華街１０２巷５１號五樓之１","OBJECTID":425964},"geometry":{"x":172884.99000000022,"y":2546112.2799999993}},{"attributes":{"ID":425990,"DIS_CODE":0,"TOWNNAME":"永康區","LI":"復華里","LIN":"30鄰","STREET":"復華八街","SECT":" ","MAREA":" ","LANE":"４７巷","ALLEY":" ","HOUSE_NO":"４１號四樓之２","E_COORD97":172690.79999999999,"N_COORD97":2546351.2999999998,"ADDRESS":"復華八街４７巷４１號四樓之２","OBJECTID":425965},"geometry":{"x":172690.79999999981,"y":2546351.3000000007}},{"attributes":{"ID":425991,"DIS_CODE":0,"TOWNNAME":"永康區","LI":"復華里","LIN":"30鄰","STREET":"復華八街","SECT":" ","MAREA":" ","LANE":"４７巷","ALLEY":" ","HOUSE_NO":"４１號三樓之３","E_COORD97":172690.76000000001,"N_COORD97":2546351.2999999998,"ADDRESS":"復華八街４７巷４１號三樓之３","OBJECTID":425966},"geometry":{"x":172690.76000000071,"y":2546351.3000000007}},{"attributes":{"ID":425992,"DIS_CODE":0,"TOWNNAME":"北區","LI":"大仁里","LIN":"4鄰","STREET":"北門路","SECT":"二段","MAREA":" ","LANE":"３６６巷","ALLEY":" ","HOUSE_NO":"３號","E_COORD97":169630.12,"N_COORD97":2545413.46,"ADDRESS":"北門路二段３６６巷３號","OBJECTID":425967},"geometry":{"x":169630.12000000104,"y":2545413.4600000028}},{"attributes":{"ID":425993,"DIS_CODE":0,"TOWNNAME":"北區","LI":"大仁里","LIN":"4鄰","STREET":"北門路","SECT":"二段","MAREA":" ","LANE":"３６６巷","ALLEY":" ","HOUSE_NO":"４號","E_COORD97":169634.20999999999,"N_COORD97":2545411.9900000002,"ADDRESS":"北門路二段３６６巷４號","OBJECTID":425968},"geometry":{"x":169634.21000000183,"y":2545411.9900000021}},{"attributes":{"ID":425994,"DIS_CODE":0,"TOWNNAME":"北區","LI":"大仁里","LIN":"4鄰","STREET":"北門路","SECT":"二段","MAREA":" ","LANE":"３６６巷","ALLEY":" ","HOUSE_NO":"５號","E_COORD97":169637.79999999999,"N_COORD97":2545410.52,"ADDRESS":"北門路二段３６６巷５號","OBJECTID":425969},"geometry":{"x":169637.79999999981,"y":2545410.5200000033}},{"attributes":{"ID":425995,"DIS_CODE":0,"TOWNNAME":"永康區","LI":"復華里","LIN":"18鄰","STREET":"國華街","SECT":" ","MAREA":" ","LANE":"１０２巷","ALLEY":" ","HOUSE_NO":"５３號十一樓之１","E_COORD97":172865.29999999999,"N_COORD97":2546091.7599999998,"ADDRESS":"國華街１０２巷５３號十一樓之１","OBJECTID":425970},"geometry":{"x":172865.29999999981,"y":2546091.7600000016}},{"attributes":{"ID":425996,"DIS_CODE":0,"TOWNNAME":"仁德區","LI":"成功里","LIN":"34鄰","STREET":"成功一街","SECT":" ","MAREA":" ","LANE":"５７巷","ALLEY":" ","HOUSE_NO":"９號","E_COORD97":170577.51000000001,"N_COORD97":2540085.0099999998,"ADDRESS":"成功一街５７巷９號","OBJECTID":425971},"geometry":{"x":170577.50999999978,"y":2540085.0100000016}},{"attributes":{"ID":425997,"DIS_CODE":0,"TOWNNAME":"永康區","LI":"復華里","LIN":"18鄰","STREET":"國華街","SECT":" ","MAREA":" ","LANE":"１０２巷","ALLEY":" ","HOUSE_NO":"５５號十一樓","E_COORD97":172857.20999999999,"N_COORD97":2546097.73,"ADDRESS":"國華街１０２巷５５號十一樓","OBJECTID":425972},"geometry":{"x":172857.21000000089,"y":2546097.7300000004}},{"attributes":{"ID":425998,"DIS_CODE":0,"TOWNNAME":"永康區","LI":"復華里","LIN":"26鄰","STREET":"復華八街","SECT":" ","MAREA":" ","LANE":"４７巷","ALLEY":" ","HOUSE_NO":"３６號九樓之１","E_COORD97":172690.28,"N_COORD97":2546385.6800000002,"ADDRESS":"復華八街４７巷３６號九樓之１","OBJECTID":425973},"geometry":{"x":172690.27999999933,"y":2546385.6800000034}},{"attributes":{"ID":425999,"DIS_CODE":0,"TOWNNAME":"永康區","LI":"復國里","LIN":"25鄰","STREET":"復華三街","SECT":" ","MAREA":" ","LANE":"９０巷","ALLEY":" ","HOUSE_NO":"１６號九樓之４","E_COORD97":172656.12,"N_COORD97":2545612.7999999998,"ADDRESS":"復華三街９０巷１６號九樓之４","OBJECTID":425974},"geometry":{"x":172656.12000000104,"y":2545612.8000000007}},{"attributes":{"ID":426000,"DIS_CODE":0,"TOWNNAME":"永康區","LI":"復國里","LIN":"25鄰","STREET":"復華三街","SECT":" ","MAREA":" ","LANE":"９０巷","ALLEY":" ","HOUSE_NO":"１６號十二樓之４","E_COORD97":172657.37,"N_COORD97":2545612.7999999998,"ADDRESS":"復華三街９０巷１６號十二樓之４","OBJECTID":425975},"geometry":{"x":172657.37000000197,"y":2545612.8000000007}},{"attributes":{"ID":426001,"DIS_CODE":0,"TOWNNAME":"永康區","LI":"復國里","LIN":"25鄰","STREET":"復華三街","SECT":" ","MAREA":" ","LANE":"９０巷","ALLEY":" ","HOUSE_NO":"１８號十七樓之４","E_COORD97":172640.82000000001,"N_COORD97":2545614.2999999998,"ADDRESS":"復華三街９０巷１８號十七樓之４","OBJECTID":425976},"geometry":{"x":172640.8200000003,"y":2545614.3000000026}},{"attributes":{"ID":426002,"DIS_CODE":0,"TOWNNAME":"永康區","LI":"復國里","LIN":"25鄰","STREET":"復華三街","SECT":" ","MAREA":" ","LANE":"９０巷","ALLEY":" ","HOUSE_NO":"１６號十三樓之２","E_COORD97":172657.48000000001,"N_COORD97":2545612.7999999998,"ADDRESS":"復華三街９０巷１６號十三樓之２","OBJECTID":425977},"geometry":{"x":172657.48000000138,"y":2545612.8000000007}},{"attributes":{"ID":426003,"DIS_CODE":0,"TOWNNAME":"永康區","LI":"復國里","LIN":"25鄰","STREET":"復華三街","SECT":" ","MAREA":" ","LANE":"９０巷","ALLEY":" ","HOUSE_NO":"１６號十七樓之５","E_COORD97":172657.5,"N_COORD97":2545612.7999999998,"ADDRESS":"復華三街９０巷１６號十七樓之５","OBJECTID":425978},"geometry":{"x":172657.5,"y":2545612.8000000007}},{"attributes":{"ID":426004,"DIS_CODE":0,"TOWNNAME":"永康區","LI":"復國里","LIN":"24鄰","STREET":"復華三街","SECT":" ","MAREA":" ","LANE":"９０巷","ALLEY":" ","HOUSE_NO":"１２號十一樓之５","E_COORD97":172644.04999999999,"N_COORD97":2545582.2999999998,"ADDRESS":"復華三街９０巷１２號十一樓之５","OBJECTID":425979},"geometry":{"x":172644.05000000168,"y":2545582.3000000007}},{"attributes":{"ID":426005,"DIS_CODE":0,"TOWNNAME":"永康區","LI":"復國里","LIN":"24鄰","STREET":"復華三街","SECT":" ","MAREA":" ","LANE":"９０巷","ALLEY":" ","HOUSE_NO":"１２號十一樓之３","E_COORD97":172643.98999999999,"N_COORD97":2545582.2999999998,"ADDRESS":"復華三街９０巷１２號十一樓之３","OBJECTID":425980},"geometry":{"x":172643.99000000022,"y":2545582.3000000007}},{"attributes":{"ID":426006,"DIS_CODE":0,"TOWNNAME":"北區","LI":"大仁里","LIN":"4鄰","STREET":"北門路","SECT":"二段","MAREA":" ","LANE":"３６６巷","ALLEY":" ","HOUSE_NO":"８號","E_COORD97":169650.48000000001,"N_COORD97":2545407.0099999998,"ADDRESS":"北門路二段３６６巷８號","OBJECTID":425981},"geometry":{"x":169650.48000000138,"y":2545407.0099999979}},{"attributes":{"ID":426007,"DIS_CODE":0,"TOWNNAME":"北區","LI":"元寶里","LIN":"4鄰","STREET":"北園街","SECT":" ","MAREA":" ","LANE":"４６巷","ALLEY":" ","HOUSE_NO":"６號","E_COORD97":170380.89000000001,"N_COORD97":2545776.1800000002,"ADDRESS":"北園街４６巷６號","OBJECTID":425982},"geometry":{"x":170380.8900000006,"y":2545776.1800000016}},{"attributes":{"ID":426008,"DIS_CODE":0,"TOWNNAME":"北區","LI":"元寶里","LIN":"4鄰","STREET":"北園街","SECT":" ","MAREA":" ","LANE":"４６巷","ALLEY":" ","HOUSE_NO":"８號","E_COORD97":170387.85999999999,"N_COORD97":2545777.0800000001,"ADDRESS":"北園街４６巷８號","OBJECTID":425983},"geometry":{"x":170387.8600000022,"y":2545777.0800000019}},{"attributes":{"ID":426009,"DIS_CODE":0,"TOWNNAME":"永康區","LI":"復華里","LIN":"18鄰","STREET":"國華街","SECT":" ","MAREA":" ","LANE":"１０２巷","ALLEY":" ","HOUSE_NO":"５５號九樓之２","E_COORD97":172858.23000000001,"N_COORD97":2546097.77,"ADDRESS":"國華街１０２巷５５號九樓之２","OBJECTID":425984},"geometry":{"x":172858.23000000045,"y":2546097.7700000014}},{"attributes":{"ID":426010,"DIS_CODE":0,"TOWNNAME":"永康區","LI":"復華里","LIN":"26鄰","STREET":"復華八街","SECT":" ","MAREA":" ","LANE":"４７巷","ALLEY":" ","HOUSE_NO":"３４號三樓之２","E_COORD97":172703.16,"N_COORD97":2546385.9500000002,"ADDRESS":"復華八街４７巷３４號三樓之２","OBJECTID":425985},"geometry":{"x":172703.16000000108,"y":2546385.9499999993}},{"attributes":{"ID":426011,"DIS_CODE":0,"TOWNNAME":"永康區","LI":"復國里","LIN":"25鄰","STREET":"復華三街","SECT":" ","MAREA":" ","LANE":"９０巷","ALLEY":" ","HOUSE_NO":"１６號十五樓之４","E_COORD97":172657.37,"N_COORD97":2545612.7999999998,"ADDRESS":"復華三街９０巷１６號十五樓之４","OBJECTID":425986},"geometry":{"x":172657.37000000197,"y":2545612.8000000007}},{"attributes":{"ID":426012,"DIS_CODE":0,"TOWNNAME":"永康區","LI":"復國里","LIN":"25鄰","STREET":"復華三街","SECT":" ","MAREA":" ","LANE":"９０巷","ALLEY":" ","HOUSE_NO":"１６號七樓之３","E_COORD97":172656.19,"N_COORD97":2545612.7999999998,"ADDRESS":"復華三街９０巷１６號七樓之３","OBJECTID":425987},"geometry":{"x":172656.19000000134,"y":2545612.8000000007}},{"attributes":{"ID":426013,"DIS_CODE":0,"TOWNNAME":"永康區","LI":"勝利里","LIN":"39鄰","STREET":"勝華街","SECT":" ","MAREA":" ","LANE":"３７巷","ALLEY":" ","HOUSE_NO":"５６號五樓之１１","E_COORD97":171423.76000000001,"N_COORD97":2545110.29,"ADDRESS":"勝華街３７巷５６號五樓之１１","OBJECTID":425988},"geometry":{"x":171423.76000000164,"y":2545110.290000001}},{"attributes":{"ID":426014,"DIS_CODE":0,"TOWNNAME":"永康區","LI":"復國里","LIN":"24鄰","STREET":"復華三街","SECT":" ","MAREA":" ","LANE":"９０巷","ALLEY":" ","HOUSE_NO":"１２號十六樓之５","E_COORD97":172644.04999999999,"N_COORD97":2545582.2999999998,"ADDRESS":"復華三街９０巷１２號十六樓之５","OBJECTID":425989},"geometry":{"x":172644.05000000168,"y":2545582.3000000007}},{"attributes":{"ID":426015,"DIS_CODE":0,"TOWNNAME":"東區","LI":"龍山里","LIN":"4鄰","STREET":"德光街","SECT":" ","MAREA":" ","LANE":"１５巷","ALLEY":" ","HOUSE_NO":"２９號","E_COORD97":170612.48000000001,"N_COORD97":2542619.6299999999,"ADDRESS":"德光街１５巷２９號","OBJECTID":425990},"geometry":{"x":170612.47999999952,"y":2542619.6300000008}},{"attributes":{"ID":426016,"DIS_CODE":0,"TOWNNAME":"東區","LI":"龍山里","LIN":"4鄰","STREET":"德光街","SECT":" ","MAREA":" ","LANE":"１５巷","ALLEY":" ","HOUSE_NO":"３１號","E_COORD97":170621.32000000001,"N_COORD97":2542614.27,"ADDRESS":"德光街１５巷３１號","OBJECTID":425991},"geometry":{"x":170621.3200000003,"y":2542614.2699999996}},{"attributes":{"ID":426017,"DIS_CODE":0,"TOWNNAME":"東區","LI":"龍山里","LIN":"4鄰","STREET":"德光街","SECT":" ","MAREA":" ","LANE":"１５巷","ALLEY":" ","HOUSE_NO":"３３號","E_COORD97":170610.79000000001,"N_COORD97":2542599.98,"ADDRESS":"德光街１５巷３３號","OBJECTID":425992},"geometry":{"x":170610.79000000097,"y":2542599.9800000004}},{"attributes":{"ID":426018,"DIS_CODE":0,"TOWNNAME":"東區","LI":"龍山里","LIN":"4鄰","STREET":"德光街","SECT":" ","MAREA":" ","LANE":"１５巷","ALLEY":" ","HOUSE_NO":"３５號","E_COORD97":170602.98000000001,"N_COORD97":2542604.5,"ADDRESS":"德光街１５巷３５號","OBJECTID":425993},"geometry":{"x":170602.98000000138,"y":2542604.5000000019}},{"attributes":{"ID":426019,"DIS_CODE":0,"TOWNNAME":"中西區","LI":"三合里","LIN":"4鄰","STREET":"忠孝街","SECT":" ","MAREA":" ","LANE":"９８巷","ALLEY":" ","HOUSE_NO":"２１號","E_COORD97":167751.03,"N_COORD97":2544491.23,"ADDRESS":"忠孝街９８巷２１號","OBJECTID":425994},"geometry":{"x":167751.03000000119,"y":2544491.2300000042}},{"attributes":{"ID":426020,"DIS_CODE":0,"TOWNNAME":"中西區","LI":"元安里","LIN":"4鄰","STREET":"西門路","SECT":"一段","MAREA":" ","LANE":"７１５巷","ALLEY":" ","HOUSE_NO":"２１號","E_COORD97":167668.22,"N_COORD97":2543261.4399999999,"ADDRESS":"西門路一段７１５巷２１號","OBJECTID":425995},"geometry":{"x":167668.22000000067,"y":2543261.4400000032}},{"attributes":{"ID":426021,"DIS_CODE":0,"TOWNNAME":"中西區","LI":"元安里","LIN":"4鄰","STREET":"西門路","SECT":"一段","MAREA":" ","LANE":"７１５巷","ALLEY":" ","HOUSE_NO":"２３號","E_COORD97":167675.67000000001,"N_COORD97":2543260.02,"ADDRESS":"西門路一段７１５巷２３號","OBJECTID":425996},"geometry":{"x":167675.66999999993,"y":2543260.0199999996}},{"attributes":{"ID":426022,"DIS_CODE":0,"TOWNNAME":"永康區","LI":"復華里","LIN":"38鄰","STREET":"復華七街","SECT":" ","MAREA":" ","LANE":"３２巷","ALLEY":" ","HOUSE_NO":"２３號七樓之２","E_COORD97":172707.75,"N_COORD97":2545918.7999999998,"ADDRESS":"復華七街３２巷２３號七樓之２","OBJECTID":425997},"geometry":{"x":172707.75000000093,"y":2545918.8000000026}},{"attributes":{"ID":426023,"DIS_CODE":0,"TOWNNAME":"永康區","LI":"復華里","LIN":"18鄰","STREET":"國華街","SECT":" ","MAREA":" ","LANE":"１０２巷","ALLEY":" ","HOUSE_NO":"５３號八樓之１","E_COORD97":172864.04999999999,"N_COORD97":2546091.7599999998,"ADDRESS":"國華街１０２巷５３號八樓之１","OBJECTID":425998},"geometry":{"x":172864.04999999981,"y":2546091.7600000016}},{"attributes":{"ID":426024,"DIS_CODE":0,"TOWNNAME":"永康區","LI":"勝利里","LIN":"20鄰","STREET":"勝學路","SECT":" ","MAREA":" ","LANE":"２６９巷","ALLEY":" ","HOUSE_NO":"６號五樓之３","E_COORD97":171164.38,"N_COORD97":2545316.29,"ADDRESS":"勝學路２６９巷６號五樓之３","OBJECTID":425999},"geometry":{"x":171164.38000000082,"y":2545316.2899999972}},{"attributes":{"ID":426025,"DIS_CODE":0,"TOWNNAME":"仁德區","LI":"後壁里","LIN":"40鄰","STREET":"德善二街","SECT":" ","MAREA":" ","LANE":" ","ALLEY":" ","HOUSE_NO":"２１號","E_COORD97":173544.88,"N_COORD97":2538909.0099999998,"ADDRESS":"德善二街２１號","OBJECTID":426000},"geometry":{"x":173544.87999999989,"y":2538909.0100000016}}]}