{"displayFieldName":"TOWNNAME","fieldAliases":{"ID":"ID","DIS_CODE":"DIS_CODE","TOWNNAME":"TOWNNAME","LI":"LI","LIN":"LIN","STREET":"STREET","SECT":"SECT","MAREA":"MAREA","LANE":"LANE","ALLEY":"ALLEY","HOUSE_NO":"HOUSE_NO","E_COORD97":"E_COORD97","N_COORD97":"N_COORD97","ADDRESS":"ADDRESS","OBJECTID":"OBJECTID"},"geometryType":"esriGeometryPoint","spatialReference":{"wkid":102443,"latestWkid":3826},"fields":[{"name":"ID","type":"esriFieldTypeDouble","alias":"ID"},{"name":"DIS_CODE","type":"esriFieldTypeInteger","alias":"DIS_CODE"},{"name":"TOWNNAME","type":"esriFieldTypeString","alias":"TOWNNAME","length":8},{"name":"LI","type":"esriFieldTypeString","alias":"LI","length":8},{"name":"LIN","type":"esriFieldTypeString","alias":"LIN","length":12},{"name":"STREET","type":"esriFieldTypeString","alias":"STREET","length":20},{"name":"SECT","type":"esriFieldTypeString","alias":"SECT","length":8},{"name":"MAREA","type":"esriFieldTypeString","alias":"MAREA","length":12},{"name":"LANE","type":"esriFieldTypeString","alias":"LANE","length":10},{"name":"ALLEY","type":"esriFieldTypeString","alias":"ALLEY","length":10},{"name":"HOUSE_NO","type":"esriFieldTypeString","alias":"HOUSE_NO","length":20},{"name":"E_COORD97","type":"esriFieldTypeDouble","alias":"E_COORD97"},{"name":"N_COORD97","type":"esriFieldTypeDouble","alias":"N_COORD97"},{"name":"ADDRESS","type":"esriFieldTypeString","alias":"ADDRESS","length":50},{"name":"OBJECTID","type":"esriFieldTypeOID","alias":"OBJECTID"}],"features":[{"attributes":{"ID":427226,"DIS_CODE":0,"TOWNNAME":"仁德區","LI":"太子里","LIN":"43鄰","STREET":"太子路","SECT":" ","MAREA":" ","LANE":"３１巷","ALLEY":" ","HOUSE_NO":"６９號","E_COORD97":175242.51000000001,"N_COORD97":2543091.2599999998,"ADDRESS":"太子路３１巷６９號","OBJECTID":427201},"geometry":{"x":175242.50999999978,"y":2543091.2600000016}},{"attributes":{"ID":427227,"DIS_CODE":0,"TOWNNAME":"仁德區","LI":"仁德里","LIN":"43鄰","STREET":"中山路","SECT":" ","MAREA":" ","LANE":"９１０巷","ALLEY":" ","HOUSE_NO":"２６號","E_COORD97":172016.39000000001,"N_COORD97":2541808.7400000002,"ADDRESS":"中山路９１０巷２６號","OBJECTID":427202},"geometry":{"x":172016.3900000006,"y":2541808.7399999984}},{"attributes":{"ID":427228,"DIS_CODE":0,"TOWNNAME":"仁德區","LI":"太子里","LIN":"13鄰","STREET":"長興二街","SECT":" ","MAREA":" ","LANE":"２６巷","ALLEY":" ","HOUSE_NO":"３號","E_COORD97":174393.57999999999,"N_COORD97":2543731.0099999998,"ADDRESS":"長興二街２６巷３號","OBJECTID":427203},"geometry":{"x":174393.58000000194,"y":2543731.0099999998}},{"attributes":{"ID":427229,"DIS_CODE":0,"TOWNNAME":"仁德區","LI":"成功里","LIN":"4鄰","STREET":"成功三街","SECT":" ","MAREA":" ","LANE":"８１巷","ALLEY":" ","HOUSE_NO":"１２號","E_COORD97":171236.89999999999,"N_COORD97":2539826.7599999998,"ADDRESS":"成功三街８１巷１２號","OBJECTID":427204},"geometry":{"x":171236.90000000224,"y":2539826.7599999998}},{"attributes":{"ID":427230,"DIS_CODE":0,"TOWNNAME":"柳營區","LI":"光福里","LIN":"4鄰","STREET":"中山西路","SECT":"二段","MAREA":" ","LANE":"１８３巷","ALLEY":" ","HOUSE_NO":"１３號","E_COORD97":179709.23000000001,"N_COORD97":2575046.9900000002,"ADDRESS":"中山西路二段１８３巷１３號","OBJECTID":427205},"geometry":{"x":179709.23000000138,"y":2575046.9900000021}},{"attributes":{"ID":427231,"DIS_CODE":0,"TOWNNAME":"柳營區","LI":"光福里","LIN":"4鄰","STREET":"中山西路","SECT":"二段","MAREA":" ","LANE":"１８３巷","ALLEY":" ","HOUSE_NO":"１５號","E_COORD97":179709.07000000001,"N_COORD97":2575042.6099999999,"ADDRESS":"中山西路二段１８３巷１５號","OBJECTID":427206},"geometry":{"x":179709.0700000003,"y":2575042.6100000013}},{"attributes":{"ID":427232,"DIS_CODE":0,"TOWNNAME":"北區","LI":"正風里","LIN":"4鄰","STREET":"公園路","SECT":" ","MAREA":" ","LANE":"９３４巷","ALLEY":" ","HOUSE_NO":"３３號","E_COORD97":169485.82000000001,"N_COORD97":2546196.5,"ADDRESS":"公園路９３４巷３３號","OBJECTID":427207},"geometry":{"x":169485.8200000003,"y":2546196.5}},{"attributes":{"ID":427233,"DIS_CODE":0,"TOWNNAME":"北區","LI":"正風里","LIN":"4鄰","STREET":"公園路","SECT":" ","MAREA":" ","LANE":"９３４巷","ALLEY":" ","HOUSE_NO":"３４號","E_COORD97":169467.48999999999,"N_COORD97":2546179.1600000001,"ADDRESS":"公園路９３４巷３４號","OBJECTID":427208},"geometry":{"x":169467.49000000022,"y":2546179.1600000001}},{"attributes":{"ID":427234,"DIS_CODE":0,"TOWNNAME":"北區","LI":"正風里","LIN":"4鄰","STREET":"公園路","SECT":" ","MAREA":" ","LANE":"９３４巷","ALLEY":" ","HOUSE_NO":"３５號","E_COORD97":169491.73999999999,"N_COORD97":2546209.8700000001,"ADDRESS":"公園路９３４巷３５號","OBJECTID":427209},"geometry":{"x":169491.74000000209,"y":2546209.8700000048}},{"attributes":{"ID":427235,"DIS_CODE":0,"TOWNNAME":"北區","LI":"正風里","LIN":"4鄰","STREET":"公園路","SECT":" ","MAREA":" ","LANE":"９３４巷","ALLEY":" ","HOUSE_NO":"３６號","E_COORD97":169474.31,"N_COORD97":2546185.6299999999,"ADDRESS":"公園路９３４巷３６號","OBJECTID":427210},"geometry":{"x":169474.31000000052,"y":2546185.6300000008}},{"attributes":{"ID":427236,"DIS_CODE":0,"TOWNNAME":"北區","LI":"正風里","LIN":"4鄰","STREET":"公園路","SECT":" ","MAREA":" ","LANE":"９３４巷","ALLEY":" ","HOUSE_NO":"３７號","E_COORD97":169493.17000000001,"N_COORD97":2546191.6600000001,"ADDRESS":"公園路９３４巷３７號","OBJECTID":427211},"geometry":{"x":169493.16999999993,"y":2546191.6600000001}},{"attributes":{"ID":427237,"DIS_CODE":0,"TOWNNAME":"北區","LI":"正風里","LIN":"4鄰","STREET":"公園路","SECT":" ","MAREA":" ","LANE":"９３４巷","ALLEY":" ","HOUSE_NO":"３８號","E_COORD97":169480.47,"N_COORD97":2546185.4199999999,"ADDRESS":"公園路９３４巷３８號","OBJECTID":427212},"geometry":{"x":169480.46999999974,"y":2546185.4200000018}},{"attributes":{"ID":427238,"DIS_CODE":0,"TOWNNAME":"北區","LI":"正風里","LIN":"4鄰","STREET":"公園路","SECT":" ","MAREA":" ","LANE":"９３４巷","ALLEY":" ","HOUSE_NO":"３９號","E_COORD97":169495.92000000001,"N_COORD97":2546190.6299999999,"ADDRESS":"公園路９３４巷３９號","OBJECTID":427213},"geometry":{"x":169495.92000000086,"y":2546190.629999999}},{"attributes":{"ID":427239,"DIS_CODE":0,"TOWNNAME":"北區","LI":"正風里","LIN":"4鄰","STREET":"公園路","SECT":" ","MAREA":" ","LANE":"９３４巷","ALLEY":" ","HOUSE_NO":"４０號","E_COORD97":169489.85000000001,"N_COORD97":2546185.6099999999,"ADDRESS":"公園路９３４巷４０號","OBJECTID":427214},"geometry":{"x":169489.84999999963,"y":2546185.6099999994}},{"attributes":{"ID":427240,"DIS_CODE":0,"TOWNNAME":"北區","LI":"正風里","LIN":"4鄰","STREET":"公園路","SECT":" ","MAREA":" ","LANE":"９３４巷","ALLEY":" ","HOUSE_NO":"４１號","E_COORD97":169499.98000000001,"N_COORD97":2546189.4300000002,"ADDRESS":"公園路９３４巷４１號","OBJECTID":427215},"geometry":{"x":169499.98000000045,"y":2546189.4299999997}},{"attributes":{"ID":427241,"DIS_CODE":0,"TOWNNAME":"北區","LI":"正風里","LIN":"4鄰","STREET":"公園路","SECT":" ","MAREA":" ","LANE":"９３４巷","ALLEY":" ","HOUSE_NO":"４２號","E_COORD97":169488.73000000001,"N_COORD97":2546181.9199999999,"ADDRESS":"公園路９３４巷４２號","OBJECTID":427216},"geometry":{"x":169488.73000000231,"y":2546181.9200000018}},{"attributes":{"ID":427242,"DIS_CODE":0,"TOWNNAME":"北區","LI":"正風里","LIN":"4鄰","STREET":"公園路","SECT":" ","MAREA":" ","LANE":"９３４巷","ALLEY":" ","HOUSE_NO":"４４號","E_COORD97":169485.45999999999,"N_COORD97":2546176.8300000001,"ADDRESS":"公園路９３４巷４４號","OBJECTID":427217},"geometry":{"x":169485.46000000089,"y":2546176.8300000001}},{"attributes":{"ID":427243,"DIS_CODE":0,"TOWNNAME":"北區","LI":"正覺里","LIN":"4鄰","STREET":"公園路","SECT":" ","MAREA":" ","LANE":"５９７巷","ALLEY":" ","HOUSE_NO":"６５號","E_COORD97":169052.16,"N_COORD97":2546060.46,"ADDRESS":"公園路５９７巷６５號","OBJECTID":427218},"geometry":{"x":169052.16000000108,"y":2546060.4600000028}},{"attributes":{"ID":427244,"DIS_CODE":0,"TOWNNAME":"北區","LI":"正覺里","LIN":"4鄰","STREET":"公園路","SECT":" ","MAREA":" ","LANE":"５９７巷","ALLEY":" ","HOUSE_NO":"７號","E_COORD97":169207.44,"N_COORD97":2546022.6400000001,"ADDRESS":"公園路５９７巷７號","OBJECTID":427219},"geometry":{"x":169207.43999999948,"y":2546022.6400000006}},{"attributes":{"ID":427245,"DIS_CODE":0,"TOWNNAME":"北區","LI":"正覺里","LIN":"4鄰","STREET":"公園路","SECT":" ","MAREA":" ","LANE":"５９７巷","ALLEY":" ","HOUSE_NO":"９號","E_COORD97":169204.79000000001,"N_COORD97":2546025.8700000001,"ADDRESS":"公園路５９７巷９號","OBJECTID":427220},"geometry":{"x":169204.7900000019,"y":2546025.870000001}},{"attributes":{"ID":427246,"DIS_CODE":0,"TOWNNAME":"北區","LI":"正覺里","LIN":"4鄰","STREET":"公園路","SECT":" ","MAREA":" ","LANE":"５９７巷","ALLEY":" ","HOUSE_NO":"１００號","E_COORD97":169077.48000000001,"N_COORD97":2546073.0499999998,"ADDRESS":"公園路５９７巷１００號","OBJECTID":427221},"geometry":{"x":169077.48000000138,"y":2546073.0500000026}},{"attributes":{"ID":427247,"DIS_CODE":0,"TOWNNAME":"北區","LI":"正覺里","LIN":"4鄰","STREET":"公園路","SECT":" ","MAREA":" ","LANE":"５９７巷","ALLEY":" ","HOUSE_NO":"１０號","E_COORD97":169252.5,"N_COORD97":2546150.3799999999,"ADDRESS":"公園路５９７巷１０號","OBJECTID":427222},"geometry":{"x":169252.50000000186,"y":2546150.3800000008}},{"attributes":{"ID":427248,"DIS_CODE":0,"TOWNNAME":"北區","LI":"正覺里","LIN":"4鄰","STREET":"公園路","SECT":" ","MAREA":" ","LANE":"５９７巷","ALLEY":" ","HOUSE_NO":"１２號","E_COORD97":169250.85000000001,"N_COORD97":2546148.0899999999,"ADDRESS":"公園路５９７巷１２號","OBJECTID":427223},"geometry":{"x":169250.84999999963,"y":2546148.0899999999}},{"attributes":{"ID":427249,"DIS_CODE":0,"TOWNNAME":"北區","LI":"正覺里","LIN":"4鄰","STREET":"公園路","SECT":" ","MAREA":" ","LANE":"５９７巷","ALLEY":" ","HOUSE_NO":"１４號","E_COORD97":169248.56,"N_COORD97":2546145.7999999998,"ADDRESS":"公園路５９７巷１４號","OBJECTID":427224},"geometry":{"x":169248.56000000052,"y":2546145.8000000026}},{"attributes":{"ID":427250,"DIS_CODE":0,"TOWNNAME":"北區","LI":"正覺里","LIN":"4鄰","STREET":"公園路","SECT":" ","MAREA":" ","LANE":"５９７巷","ALLEY":" ","HOUSE_NO":"１６號","E_COORD97":169246.07999999999,"N_COORD97":2546142.6800000002,"ADDRESS":"公園路５９７巷１６號","OBJECTID":427225},"geometry":{"x":169246.08000000007,"y":2546142.6800000016}},{"attributes":{"ID":427251,"DIS_CODE":0,"TOWNNAME":"仁德區","LI":"太子里","LIN":"43鄰","STREET":"太子路","SECT":" ","MAREA":" ","LANE":"３１巷","ALLEY":" ","HOUSE_NO":"８３號","E_COORD97":175195.10000000001,"N_COORD97":2543071,"ADDRESS":"太子路３１巷８３號","OBJECTID":427226},"geometry":{"x":175195.10000000056,"y":2543071}},{"attributes":{"ID":427252,"DIS_CODE":0,"TOWNNAME":"仁德區","LI":"成功里","LIN":"34鄰","STREET":"成功一街","SECT":" ","MAREA":" ","LANE":"５７巷","ALLEY":" ","HOUSE_NO":"７號","E_COORD97":170573.51000000001,"N_COORD97":2540084.75,"ADDRESS":"成功一街５７巷７號","OBJECTID":427227},"geometry":{"x":170573.51000000071,"y":2540084.75}},{"attributes":{"ID":427253,"DIS_CODE":0,"TOWNNAME":"仁德區","LI":"仁義里","LIN":"1鄰","STREET":"中山路","SECT":" ","MAREA":" ","LANE":"９５巷","ALLEY":" ","HOUSE_NO":"４３號","E_COORD97":174958.76000000001,"N_COORD97":2541007.7400000002,"ADDRESS":"中山路９５巷４３號","OBJECTID":427228},"geometry":{"x":174958.76000000071,"y":2541007.7400000002}},{"attributes":{"ID":427254,"DIS_CODE":0,"TOWNNAME":"北區","LI":"正覺里","LIN":"4鄰","STREET":"公園路","SECT":" ","MAREA":" ","LANE":"５９７巷","ALLEY":" ","HOUSE_NO":"１８號","E_COORD97":169242.69,"N_COORD97":2546139.3799999999,"ADDRESS":"公園路５９７巷１８號","OBJECTID":427229},"geometry":{"x":169242.69000000041,"y":2546139.3799999971}},{"attributes":{"ID":427255,"DIS_CODE":0,"TOWNNAME":"北區","LI":"正覺里","LIN":"4鄰","STREET":"公園路","SECT":" ","MAREA":" ","LANE":"５９７巷","ALLEY":" ","HOUSE_NO":"２０號","E_COORD97":169240.57999999999,"N_COORD97":2546136.1800000002,"ADDRESS":"公園路５９７巷２０號","OBJECTID":427230},"geometry":{"x":169240.58000000101,"y":2546136.1800000016}},{"attributes":{"ID":427256,"DIS_CODE":0,"TOWNNAME":"北區","LI":"正覺里","LIN":"4鄰","STREET":"公園路","SECT":" ","MAREA":" ","LANE":"５９７巷","ALLEY":" ","HOUSE_NO":"２２號","E_COORD97":169236.54999999999,"N_COORD97":2546132.4199999999,"ADDRESS":"公園路５９７巷２２號","OBJECTID":427231},"geometry":{"x":169236.54999999888,"y":2546132.4199999999}},{"attributes":{"ID":427257,"DIS_CODE":0,"TOWNNAME":"北區","LI":"正覺里","LIN":"4鄰","STREET":"公園路","SECT":" ","MAREA":" ","LANE":"５９７巷","ALLEY":" ","HOUSE_NO":"２４號","E_COORD97":169233.79999999999,"N_COORD97":2546128.2000000002,"ADDRESS":"公園路５９７巷２４號","OBJECTID":427232},"geometry":{"x":169233.80000000075,"y":2546128.2000000011}},{"attributes":{"ID":427258,"DIS_CODE":0,"TOWNNAME":"北區","LI":"正覺里","LIN":"4鄰","STREET":"公園路","SECT":" ","MAREA":" ","LANE":"５９７巷","ALLEY":" ","HOUSE_NO":"２６號","E_COORD97":169228.48000000001,"N_COORD97":2546121.6099999999,"ADDRESS":"公園路５９７巷２６號","OBJECTID":427233},"geometry":{"x":169228.48000000138,"y":2546121.6100000031}},{"attributes":{"ID":427259,"DIS_CODE":0,"TOWNNAME":"北區","LI":"正覺里","LIN":"4鄰","STREET":"公園路","SECT":" ","MAREA":" ","LANE":"５９７巷","ALLEY":" ","HOUSE_NO":"２８號","E_COORD97":169221.76999999999,"N_COORD97":2546111.04,"ADDRESS":"公園路５９７巷２８號","OBJECTID":427234},"geometry":{"x":169221.77000000048,"y":2546111.0399999991}},{"attributes":{"ID":427260,"DIS_CODE":0,"TOWNNAME":"北區","LI":"正覺里","LIN":"4鄰","STREET":"公園路","SECT":" ","MAREA":" ","LANE":"５９７巷","ALLEY":" ","HOUSE_NO":"３０號","E_COORD97":169218.73000000001,"N_COORD97":2546106.7400000002,"ADDRESS":"公園路５９７巷３０號","OBJECTID":427235},"geometry":{"x":169218.73000000045,"y":2546106.7400000002}},{"attributes":{"ID":427261,"DIS_CODE":0,"TOWNNAME":"北區","LI":"正覺里","LIN":"4鄰","STREET":"公園路","SECT":" ","MAREA":" ","LANE":"５９７巷","ALLEY":" ","HOUSE_NO":"３２號","E_COORD97":169216.48000000001,"N_COORD97":2546104.29,"ADDRESS":"公園路５９７巷３２號","OBJECTID":427236},"geometry":{"x":169216.48000000138,"y":2546104.290000001}},{"attributes":{"ID":427262,"DIS_CODE":0,"TOWNNAME":"北區","LI":"正覺里","LIN":"4鄰","STREET":"公園路","SECT":" ","MAREA":" ","LANE":"５９７巷","ALLEY":" ","HOUSE_NO":"３４號","E_COORD97":169214.62,"N_COORD97":2546100.2799999998,"ADDRESS":"公園路５９７巷３４號","OBJECTID":427237},"geometry":{"x":169214.62000000104,"y":2546100.2800000012}},{"attributes":{"ID":427263,"DIS_CODE":0,"TOWNNAME":"北區","LI":"正覺里","LIN":"4鄰","STREET":"公園路","SECT":" ","MAREA":" ","LANE":"５９７巷","ALLEY":" ","HOUSE_NO":"３６號","E_COORD97":169211.37,"N_COORD97":2546097.79,"ADDRESS":"公園路５９７巷３６號","OBJECTID":427238},"geometry":{"x":169211.37000000104,"y":2546097.790000001}},{"attributes":{"ID":427264,"DIS_CODE":0,"TOWNNAME":"北區","LI":"正覺里","LIN":"4鄰","STREET":"公園路","SECT":" ","MAREA":" ","LANE":"５９７巷","ALLEY":" ","HOUSE_NO":"３８號","E_COORD97":169209.51000000001,"N_COORD97":2546094.8599999999,"ADDRESS":"公園路５９７巷３８號","OBJECTID":427239},"geometry":{"x":169209.50999999978,"y":2546094.8599999994}},{"attributes":{"ID":427265,"DIS_CODE":0,"TOWNNAME":"北區","LI":"正覺里","LIN":"4鄰","STREET":"公園路","SECT":" ","MAREA":" ","LANE":"５９７巷","ALLEY":" ","HOUSE_NO":"５０號","E_COORD97":169192.95999999999,"N_COORD97":2546072.9399999999,"ADDRESS":"公園路５９７巷５０號","OBJECTID":427240},"geometry":{"x":169192.95999999996,"y":2546072.9400000013}},{"attributes":{"ID":427266,"DIS_CODE":0,"TOWNNAME":"北區","LI":"正覺里","LIN":"4鄰","STREET":"公園路","SECT":" ","MAREA":" ","LANE":"５９７巷","ALLEY":" ","HOUSE_NO":"５２號","E_COORD97":169190.81,"N_COORD97":2546069.2200000002,"ADDRESS":"公園路５９７巷５２號","OBJECTID":427241},"geometry":{"x":169190.81000000052,"y":2546069.2200000025}},{"attributes":{"ID":427267,"DIS_CODE":0,"TOWNNAME":"北區","LI":"正覺里","LIN":"4鄰","STREET":"公園路","SECT":" ","MAREA":" ","LANE":"５９７巷","ALLEY":" ","HOUSE_NO":"５４號","E_COORD97":169187.57000000001,"N_COORD97":2546064.6200000001,"ADDRESS":"公園路５９７巷５４號","OBJECTID":427242},"geometry":{"x":169187.5700000003,"y":2546064.620000001}},{"attributes":{"ID":427268,"DIS_CODE":0,"TOWNNAME":"北區","LI":"正覺里","LIN":"4鄰","STREET":"公園路","SECT":" ","MAREA":" ","LANE":"５９７巷","ALLEY":" ","HOUSE_NO":"５６號","E_COORD97":169184.04999999999,"N_COORD97":2546060.21,"ADDRESS":"公園路５９７巷５６號","OBJECTID":427243},"geometry":{"x":169184.05000000168,"y":2546060.2100000009}},{"attributes":{"ID":427269,"DIS_CODE":0,"TOWNNAME":"北區","LI":"正覺里","LIN":"4鄰","STREET":"公園路","SECT":" ","MAREA":" ","LANE":"５９７巷","ALLEY":" ","HOUSE_NO":"５８號","E_COORD97":169173.32000000001,"N_COORD97":2546059.3199999998,"ADDRESS":"公園路５９７巷５８號","OBJECTID":427244},"geometry":{"x":169173.32000000123,"y":2546059.3200000003}},{"attributes":{"ID":427270,"DIS_CODE":0,"TOWNNAME":"北區","LI":"正覺里","LIN":"4鄰","STREET":"公園路","SECT":" ","MAREA":" ","LANE":"５９７巷","ALLEY":" ","HOUSE_NO":"６０號","E_COORD97":169167.82999999999,"N_COORD97":2546059.52,"ADDRESS":"公園路５９７巷６０號","OBJECTID":427245},"geometry":{"x":169167.83000000101,"y":2546059.5200000014}},{"attributes":{"ID":427271,"DIS_CODE":0,"TOWNNAME":"北區","LI":"正覺里","LIN":"4鄰","STREET":"公園路","SECT":" ","MAREA":" ","LANE":"５９７巷","ALLEY":" ","HOUSE_NO":"６２號","E_COORD97":169163.92000000001,"N_COORD97":2546059.9100000001,"ADDRESS":"公園路５９７巷６２號","OBJECTID":427246},"geometry":{"x":169163.92000000086,"y":2546059.910000002}},{"attributes":{"ID":427272,"DIS_CODE":0,"TOWNNAME":"北區","LI":"正覺里","LIN":"4鄰","STREET":"公園路","SECT":" ","MAREA":" ","LANE":"５９７巷","ALLEY":" ","HOUSE_NO":"６４號","E_COORD97":169158.91,"N_COORD97":2546060.3100000001,"ADDRESS":"公園路５９７巷６４號","OBJECTID":427247},"geometry":{"x":169158.91000000108,"y":2546060.3100000042}},{"attributes":{"ID":427273,"DIS_CODE":0,"TOWNNAME":"北區","LI":"正覺里","LIN":"4鄰","STREET":"公園路","SECT":" ","MAREA":" ","LANE":"５９７巷","ALLEY":" ","HOUSE_NO":"６６號","E_COORD97":169155.09,"N_COORD97":2546061.0899999999,"ADDRESS":"公園路５９７巷６６號","OBJECTID":427248},"geometry":{"x":169155.09000000171,"y":2546061.0900000036}},{"attributes":{"ID":427274,"DIS_CODE":0,"TOWNNAME":"北區","LI":"正覺里","LIN":"4鄰","STREET":"公園路","SECT":" ","MAREA":" ","LANE":"５９７巷","ALLEY":" ","HOUSE_NO":"６８號","E_COORD97":169150.19,"N_COORD97":2546061.6800000002,"ADDRESS":"公園路５９７巷６８號","OBJECTID":427249},"geometry":{"x":169150.19000000134,"y":2546061.6800000016}},{"attributes":{"ID":427275,"DIS_CODE":0,"TOWNNAME":"北區","LI":"正覺里","LIN":"4鄰","STREET":"公園路","SECT":" ","MAREA":" ","LANE":"５９７巷","ALLEY":" ","HOUSE_NO":"６號","E_COORD97":169256.45000000001,"N_COORD97":2546155.6000000001,"ADDRESS":"公園路５９７巷６號","OBJECTID":427250},"geometry":{"x":169256.45000000205,"y":2546155.6000000034}},{"attributes":{"ID":427276,"DIS_CODE":0,"TOWNNAME":"北區","LI":"正覺里","LIN":"4鄰","STREET":"公園路","SECT":" ","MAREA":" ","LANE":"５９７巷","ALLEY":" ","HOUSE_NO":"７０號","E_COORD97":169146.37,"N_COORD97":2546062.0699999998,"ADDRESS":"公園路５９７巷７０號","OBJECTID":427251},"geometry":{"x":169146.37000000011,"y":2546062.0700000022}},{"attributes":{"ID":427277,"DIS_CODE":0,"TOWNNAME":"北區","LI":"正覺里","LIN":"4鄰","STREET":"公園路","SECT":" ","MAREA":" ","LANE":"５９７巷","ALLEY":" ","HOUSE_NO":"７２號","E_COORD97":169142.85000000001,"N_COORD97":2546061.5800000001,"ADDRESS":"公園路５９７巷７２號","OBJECTID":427252},"geometry":{"x":169142.85000000149,"y":2546061.5800000038}},{"attributes":{"ID":427278,"DIS_CODE":0,"TOWNNAME":"六甲區","LI":"甲東里","LIN":"4鄰","STREET":"忠孝街","SECT":" ","MAREA":" ","LANE":"２１７巷","ALLEY":" ","HOUSE_NO":"２號","E_COORD97":184007.79999999999,"N_COORD97":2570105.5299999998,"ADDRESS":"忠孝街２１７巷２號","OBJECTID":427253},"geometry":{"x":184007.79999999981,"y":2570105.5300000031}},{"attributes":{"ID":427279,"DIS_CODE":0,"TOWNNAME":"六甲區","LI":"甲東里","LIN":"4鄰","STREET":"忠孝街","SECT":" ","MAREA":" ","LANE":"２１７巷","ALLEY":" ","HOUSE_NO":"３號","E_COORD97":183991.57999999999,"N_COORD97":2570066.7799999998,"ADDRESS":"忠孝街２１７巷３號","OBJECTID":427254},"geometry":{"x":183991.57999999914,"y":2570066.7800000031}},{"attributes":{"ID":427280,"DIS_CODE":0,"TOWNNAME":"六甲區","LI":"甲東里","LIN":"4鄰","STREET":"忠孝街","SECT":" ","MAREA":" ","LANE":"２１７巷","ALLEY":" ","HOUSE_NO":"５號","E_COORD97":183978.37,"N_COORD97":2570058.8599999999,"ADDRESS":"忠孝街２１７巷５號","OBJECTID":427255},"geometry":{"x":183978.37000000104,"y":2570058.8599999994}},{"attributes":{"ID":427281,"DIS_CODE":0,"TOWNNAME":"六甲區","LI":"甲東里","LIN":"4鄰","STREET":"忠孝街","SECT":" ","MAREA":" ","LANE":"２１７巷","ALLEY":" ","HOUSE_NO":"１號","E_COORD97":184001.40927999999,"N_COORD97":2570075.2273200001,"ADDRESS":"忠孝街２１７巷１號","OBJECTID":427256},"geometry":{"x":184001.40928000025,"y":2570075.227320997}},{"attributes":{"ID":427282,"DIS_CODE":0,"TOWNNAME":"北區","LI":"玉皇里","LIN":"4鄰","STREET":"崇安街","SECT":" ","MAREA":" ","LANE":"６１巷","ALLEY":" ","HOUSE_NO":"６號","E_COORD97":168684.48999999999,"N_COORD97":2544581.5,"ADDRESS":"崇安街６１巷６號","OBJECTID":427257},"geometry":{"x":168684.49000000022,"y":2544581.5000000019}},{"attributes":{"ID":427283,"DIS_CODE":0,"TOWNNAME":"北區","LI":"玉皇里","LIN":"4鄰","STREET":"崇安街","SECT":" ","MAREA":" ","LANE":"６１巷","ALLEY":" ","HOUSE_NO":"８號","E_COORD97":168680.47,"N_COORD97":2544586.2000000002,"ADDRESS":"崇安街６１巷８號","OBJECTID":427258},"geometry":{"x":168680.46999999974,"y":2544586.2000000011}},{"attributes":{"ID":427284,"DIS_CODE":0,"TOWNNAME":"北區","LI":"玉皇里","LIN":"4鄰","STREET":"福德街","SECT":" ","MAREA":" ","LANE":"３７巷","ALLEY":" ","HOUSE_NO":"１號","E_COORD97":168710.75,"N_COORD97":2544622.7000000002,"ADDRESS":"福德街３７巷１號","OBJECTID":427259},"geometry":{"x":168710.75000000093,"y":2544622.7000000011}},{"attributes":{"ID":427285,"DIS_CODE":0,"TOWNNAME":"北區","LI":"玉皇里","LIN":"4鄰","STREET":"福德街","SECT":" ","MAREA":" ","LANE":"３７巷","ALLEY":" ","HOUSE_NO":"２號","E_COORD97":168703.57000000001,"N_COORD97":2544620.3999999999,"ADDRESS":"福德街３７巷２號","OBJECTID":427260},"geometry":{"x":168703.57000000123,"y":2544620.4000000004}},{"attributes":{"ID":427286,"DIS_CODE":0,"TOWNNAME":"北區","LI":"國興里","LIN":"4鄰","STREET":"南園街","SECT":" ","MAREA":" ","LANE":"４９巷","ALLEY":" ","HOUSE_NO":"２２號","E_COORD97":170567.10999999999,"N_COORD97":2545471.6899999999,"ADDRESS":"南園街４９巷２２號","OBJECTID":427261},"geometry":{"x":170567.11000000034,"y":2545471.6900000013}},{"attributes":{"ID":427287,"DIS_CODE":0,"TOWNNAME":"北區","LI":"國興里","LIN":"4鄰","STREET":"南園街","SECT":" ","MAREA":" ","LANE":"４９巷","ALLEY":" ","HOUSE_NO":"２４號","E_COORD97":170563.95000000001,"N_COORD97":2545474.8399999999,"ADDRESS":"南園街４９巷２４號","OBJECTID":427262},"geometry":{"x":170563.95000000112,"y":2545474.8399999999}},{"attributes":{"ID":427288,"DIS_CODE":0,"TOWNNAME":"北區","LI":"國興里","LIN":"4鄰","STREET":"南園街","SECT":" ","MAREA":" ","LANE":"４９巷","ALLEY":" ","HOUSE_NO":"２６號","E_COORD97":170559.12,"N_COORD97":2545472.9900000002,"ADDRESS":"南園街４９巷２６號","OBJECTID":427263},"geometry":{"x":170559.12000000104,"y":2545472.9900000021}},{"attributes":{"ID":427289,"DIS_CODE":0,"TOWNNAME":"北區","LI":"國興里","LIN":"4鄰","STREET":"南園街","SECT":" ","MAREA":" ","LANE":"４９巷","ALLEY":" ","HOUSE_NO":"２８號","E_COORD97":170554.67000000001,"N_COORD97":2545476.1400000001,"ADDRESS":"南園街４９巷２８號","OBJECTID":427264},"geometry":{"x":170554.66999999993,"y":2545476.1400000025}},{"attributes":{"ID":427290,"DIS_CODE":0,"TOWNNAME":"北區","LI":"國興里","LIN":"4鄰","STREET":"南園街","SECT":" ","MAREA":" ","LANE":"４９巷","ALLEY":" ","HOUSE_NO":"２號","E_COORD97":170537.57999999999,"N_COORD97":2545442,"ADDRESS":"南園街４９巷２號","OBJECTID":427265},"geometry":{"x":170537.58000000101,"y":2545442.0000000019}},{"attributes":{"ID":427291,"DIS_CODE":0,"TOWNNAME":"北區","LI":"國興里","LIN":"4鄰","STREET":"南園街","SECT":" ","MAREA":" ","LANE":"４９巷","ALLEY":" ","HOUSE_NO":"３０號","E_COORD97":170554.10999999999,"N_COORD97":2545462.04,"ADDRESS":"南園街４９巷３０號","OBJECTID":427266},"geometry":{"x":170554.11000000127,"y":2545462.040000001}},{"attributes":{"ID":427292,"DIS_CODE":0,"TOWNNAME":"北區","LI":"國興里","LIN":"4鄰","STREET":"南園街","SECT":" ","MAREA":" ","LANE":"４９巷","ALLEY":" ","HOUSE_NO":"３２號","E_COORD97":170543.34,"N_COORD97":2545463.1499999999,"ADDRESS":"南園街４９巷３２號","OBJECTID":427267},"geometry":{"x":170543.33999999892,"y":2545463.1500000004}},{"attributes":{"ID":427293,"DIS_CODE":0,"TOWNNAME":"北區","LI":"國興里","LIN":"4鄰","STREET":"南園街","SECT":" ","MAREA":" ","LANE":"４９巷","ALLEY":" ","HOUSE_NO":"３４號","E_COORD97":170543.70999999999,"N_COORD97":2545467.23,"ADDRESS":"南園街４９巷３４號","OBJECTID":427268},"geometry":{"x":170543.70999999996,"y":2545467.2299999986}},{"attributes":{"ID":427294,"DIS_CODE":0,"TOWNNAME":"北區","LI":"國興里","LIN":"4鄰","STREET":"南園街","SECT":" ","MAREA":" ","LANE":"４９巷","ALLEY":" ","HOUSE_NO":"３６號","E_COORD97":170545.75,"N_COORD97":2545471.1299999999,"ADDRESS":"南園街４９巷３６號","OBJECTID":427269},"geometry":{"x":170545.74999999907,"y":2545471.1300000008}},{"attributes":{"ID":427295,"DIS_CODE":0,"TOWNNAME":"北區","LI":"國興里","LIN":"4鄰","STREET":"南園街","SECT":" ","MAREA":" ","LANE":"４９巷","ALLEY":" ","HOUSE_NO":"３８號","E_COORD97":170546.13,"N_COORD97":2545476.3300000001,"ADDRESS":"南園街４９巷３８號","OBJECTID":427270},"geometry":{"x":170546.12999999989,"y":2545476.3299999982}},{"attributes":{"ID":427296,"DIS_CODE":0,"TOWNNAME":"北區","LI":"國興里","LIN":"4鄰","STREET":"南園街","SECT":" ","MAREA":" ","LANE":"４９巷","ALLEY":" ","HOUSE_NO":"４０號","E_COORD97":170547.04999999999,"N_COORD97":2545480.7799999998,"ADDRESS":"南園街４９巷４０號","OBJECTID":427271},"geometry":{"x":170547.05000000168,"y":2545480.7800000012}},{"attributes":{"ID":427297,"DIS_CODE":0,"TOWNNAME":"北區","LI":"國興里","LIN":"4鄰","STREET":"南園街","SECT":" ","MAREA":" ","LANE":"４９巷","ALLEY":" ","HOUSE_NO":"７２號","E_COORD97":170559.13,"N_COORD97":2545524.21,"ADDRESS":"南園街４９巷７２號","OBJECTID":427272},"geometry":{"x":170559.13000000082,"y":2545524.2100000009}},{"attributes":{"ID":427298,"DIS_CODE":0,"TOWNNAME":"北區","LI":"國興里","LIN":"4鄰","STREET":"南園街","SECT":" ","MAREA":" ","LANE":"４９巷","ALLEY":" ","HOUSE_NO":"７４號","E_COORD97":170567.10999999999,"N_COORD97":2545516.6000000001,"ADDRESS":"南園街４９巷７４號","OBJECTID":427273},"geometry":{"x":170567.11000000034,"y":2545516.6000000015}},{"attributes":{"ID":427299,"DIS_CODE":0,"TOWNNAME":"北區","LI":"國興里","LIN":"4鄰","STREET":"南園街","SECT":" ","MAREA":" ","LANE":"４９巷","ALLEY":" ","HOUSE_NO":"７６號","E_COORD97":170571.38,"N_COORD97":2545514.9300000002,"ADDRESS":"南園街４９巷７６號","OBJECTID":427274},"geometry":{"x":170571.37999999989,"y":2545514.9299999997}},{"attributes":{"ID":427300,"DIS_CODE":0,"TOWNNAME":"北區","LI":"國興里","LIN":"4鄰","STREET":"南園街","SECT":" ","MAREA":" ","LANE":"４９巷","ALLEY":" ","HOUSE_NO":"７８號","E_COORD97":170577.32999999999,"N_COORD97":2545514.3700000001,"ADDRESS":"南園街４９巷７８號","OBJECTID":427275},"geometry":{"x":170577.33000000007,"y":2545514.3699999992}},{"attributes":{"ID":427301,"DIS_CODE":0,"TOWNNAME":"北區","LI":"國興里","LIN":"4鄰","STREET":"南園街","SECT":" ","MAREA":" ","LANE":"４９巷","ALLEY":" ","HOUSE_NO":"８２號","E_COORD97":170587.35000000001,"N_COORD97":2545515.1099999999,"ADDRESS":"南園街４９巷８２號","OBJECTID":427276},"geometry":{"x":170587.35000000056,"y":2545515.1100000013}},{"attributes":{"ID":427302,"DIS_CODE":0,"TOWNNAME":"北區","LI":"國興里","LIN":"4鄰","STREET":"南園街","SECT":" ","MAREA":" ","LANE":"４９巷","ALLEY":" ","HOUSE_NO":"８號","E_COORD97":170542.41,"N_COORD97":2545452.5699999998,"ADDRESS":"南園街４９巷８號","OBJECTID":427277},"geometry":{"x":170542.41000000108,"y":2545452.5700000022}},{"attributes":{"ID":427303,"DIS_CODE":0,"TOWNNAME":"北區","LI":"勝安里","LIN":"4鄰","STREET":"開元路","SECT":" ","MAREA":" ","LANE":"７３巷","ALLEY":" ","HOUSE_NO":"３８號","E_COORD97":169793.20999999999,"N_COORD97":2545263.0699999998,"ADDRESS":"開元路７３巷３８號","OBJECTID":427278},"geometry":{"x":169793.20999999996,"y":2545263.0700000022}},{"attributes":{"ID":427304,"DIS_CODE":0,"TOWNNAME":"北區","LI":"勝安里","LIN":"4鄰","STREET":"開元路","SECT":" ","MAREA":" ","LANE":"７３巷","ALLEY":" ","HOUSE_NO":"４０號","E_COORD97":169793.84,"N_COORD97":2545267.3300000001,"ADDRESS":"開元路７３巷４０號","OBJECTID":427279},"geometry":{"x":169793.83999999985,"y":2545267.3300000019}},{"attributes":{"ID":427305,"DIS_CODE":0,"TOWNNAME":"北區","LI":"勝安里","LIN":"4鄰","STREET":"開元路","SECT":" ","MAREA":" ","LANE":"７３巷","ALLEY":" ","HOUSE_NO":"４２號","E_COORD97":169797.31,"N_COORD97":2545269.0600000001,"ADDRESS":"開元路７３巷４２號","OBJECTID":427280},"geometry":{"x":169797.30999999959,"y":2545269.0600000024}},{"attributes":{"ID":427306,"DIS_CODE":0,"TOWNNAME":"仁德區","LI":"仁德里","LIN":"14鄰","STREET":"四維街","SECT":" ","MAREA":" ","LANE":"８巷","ALLEY":" ","HOUSE_NO":"１４號","E_COORD97":173322,"N_COORD97":2541582.5,"ADDRESS":"四維街８巷１４號","OBJECTID":427281},"geometry":{"x":173322,"y":2541582.5}},{"attributes":{"ID":427307,"DIS_CODE":0,"TOWNNAME":"北區","LI":"勝安里","LIN":"4鄰","STREET":"開元路","SECT":" ","MAREA":" ","LANE":"７３巷","ALLEY":" ","HOUSE_NO":"４６號","E_COORD97":169800.14999999999,"N_COORD97":2545271.27,"ADDRESS":"開元路７３巷４６號","OBJECTID":427282},"geometry":{"x":169800.1500000013,"y":2545271.2700000014}},{"attributes":{"ID":427308,"DIS_CODE":0,"TOWNNAME":"北區","LI":"勝安里","LIN":"4鄰","STREET":"開元路","SECT":" ","MAREA":" ","LANE":"７３巷","ALLEY":" ","HOUSE_NO":"４８號","E_COORD97":169802.04999999999,"N_COORD97":2545276.4700000002,"ADDRESS":"開元路７３巷４８號","OBJECTID":427283},"geometry":{"x":169802.04999999981,"y":2545276.4700000044}},{"attributes":{"ID":427309,"DIS_CODE":0,"TOWNNAME":"北區","LI":"勝安里","LIN":"4鄰","STREET":"開元路","SECT":" ","MAREA":" ","LANE":"７３巷","ALLEY":" ","HOUSE_NO":"５０號","E_COORD97":169805.98999999999,"N_COORD97":2545278.8300000001,"ADDRESS":"開元路７３巷５０號","OBJECTID":427284},"geometry":{"x":169805.99000000115,"y":2545278.8300000001}},{"attributes":{"ID":427310,"DIS_CODE":0,"TOWNNAME":"北區","LI":"勝安里","LIN":"4鄰","STREET":"開元路","SECT":" ","MAREA":" ","LANE":"７３巷","ALLEY":" ","HOUSE_NO":"６號","E_COORD97":169754.64999999999,"N_COORD97":2545211.98,"ADDRESS":"開元路７３巷６號","OBJECTID":427285},"geometry":{"x":169754.65000000037,"y":2545211.9800000023}},{"attributes":{"ID":427311,"DIS_CODE":0,"TOWNNAME":"北區","LI":"勝安里","LIN":"4鄰","STREET":"開元路","SECT":" ","MAREA":" ","LANE":"７３巷","ALLEY":" ","HOUSE_NO":"８號","E_COORD97":169756.85000000001,"N_COORD97":2545214.2799999998,"ADDRESS":"開元路７３巷８號","OBJECTID":427286},"geometry":{"x":169756.85000000056,"y":2545214.2799999993}},{"attributes":{"ID":427312,"DIS_CODE":0,"TOWNNAME":"北區","LI":"華興里","LIN":"4鄰","STREET":"南園街","SECT":" ","MAREA":" ","LANE":"４２巷","ALLEY":" ","HOUSE_NO":"１０號","E_COORD97":170456.98999999999,"N_COORD97":2545426.54,"ADDRESS":"南園街４２巷１０號","OBJECTID":427287},"geometry":{"x":170456.99000000115,"y":2545426.5400000028}},{"attributes":{"ID":427313,"DIS_CODE":0,"TOWNNAME":"北區","LI":"華興里","LIN":"4鄰","STREET":"南園街","SECT":" ","MAREA":" ","LANE":"４２巷","ALLEY":" ","HOUSE_NO":"１１號","E_COORD97":170456.26000000001,"N_COORD97":2545397.2999999998,"ADDRESS":"南園街４２巷１１號","OBJECTID":427288},"geometry":{"x":170456.26000000071,"y":2545397.3000000026}},{"attributes":{"ID":427314,"DIS_CODE":0,"TOWNNAME":"北區","LI":"華興里","LIN":"4鄰","STREET":"南園街","SECT":" ","MAREA":" ","LANE":"４２巷","ALLEY":" ","HOUSE_NO":"１２號","E_COORD97":170454.79999999999,"N_COORD97":2545422.8999999999,"ADDRESS":"南園街４２巷１２號","OBJECTID":427289},"geometry":{"x":170454.79999999981,"y":2545422.9000000022}},{"attributes":{"ID":427315,"DIS_CODE":0,"TOWNNAME":"北區","LI":"華興里","LIN":"4鄰","STREET":"南園街","SECT":" ","MAREA":" ","LANE":"４２巷","ALLEY":" ","HOUSE_NO":"１４號","E_COORD97":170452.78,"N_COORD97":2545420.0600000001,"ADDRESS":"南園街４２巷１４號","OBJECTID":427290},"geometry":{"x":170452.78000000212,"y":2545420.0600000005}},{"attributes":{"ID":427316,"DIS_CODE":0,"TOWNNAME":"北區","LI":"華興里","LIN":"4鄰","STREET":"南園街","SECT":" ","MAREA":" ","LANE":"４２巷","ALLEY":" ","HOUSE_NO":"１６號","E_COORD97":170450.92000000001,"N_COORD97":2545415.71,"ADDRESS":"南園街４２巷１６號","OBJECTID":427291},"geometry":{"x":170450.91999999993,"y":2545415.7100000009}},{"attributes":{"ID":427317,"DIS_CODE":0,"TOWNNAME":"北區","LI":"華興里","LIN":"4鄰","STREET":"南園街","SECT":" ","MAREA":" ","LANE":"４２巷","ALLEY":" ","HOUSE_NO":"１８號","E_COORD97":170449.22,"N_COORD97":2545412.5499999998,"ADDRESS":"南園街４２巷１８號","OBJECTID":427292},"geometry":{"x":170449.2200000016,"y":2545412.5500000026}},{"attributes":{"ID":427318,"DIS_CODE":0,"TOWNNAME":"北區","LI":"華興里","LIN":"4鄰","STREET":"南園街","SECT":" ","MAREA":" ","LANE":"４２巷","ALLEY":" ","HOUSE_NO":"１號","E_COORD97":170476.47,"N_COORD97":2545431.0600000001,"ADDRESS":"南園街４２巷１號","OBJECTID":427293},"geometry":{"x":170476.47000000067,"y":2545431.0600000005}},{"attributes":{"ID":427319,"DIS_CODE":0,"TOWNNAME":"北區","LI":"華興里","LIN":"4鄰","STREET":"南園街","SECT":" ","MAREA":" ","LANE":"４２巷","ALLEY":" ","HOUSE_NO":"２０號","E_COORD97":170446.79999999999,"N_COORD97":2545409.2400000002,"ADDRESS":"南園街４２巷２０號","OBJECTID":427294},"geometry":{"x":170446.79999999981,"y":2545409.2400000002}},{"attributes":{"ID":427320,"DIS_CODE":0,"TOWNNAME":"北區","LI":"華興里","LIN":"4鄰","STREET":"南園街","SECT":" ","MAREA":" ","LANE":"４２巷","ALLEY":" ","HOUSE_NO":"２２號","E_COORD97":170444.85999999999,"N_COORD97":2545405.8500000001,"ADDRESS":"南園街４２巷２２號","OBJECTID":427295},"geometry":{"x":170444.86000000034,"y":2545405.8500000015}},{"attributes":{"ID":427321,"DIS_CODE":0,"TOWNNAME":"北區","LI":"華興里","LIN":"4鄰","STREET":"南園街","SECT":" ","MAREA":" ","LANE":"４２巷","ALLEY":" ","HOUSE_NO":"２４號","E_COORD97":170443.48999999999,"N_COORD97":2545401.5699999998,"ADDRESS":"南園街４２巷２４號","OBJECTID":427296},"geometry":{"x":170443.49000000115,"y":2545401.5700000022}},{"attributes":{"ID":427322,"DIS_CODE":0,"TOWNNAME":"北區","LI":"華興里","LIN":"4鄰","STREET":"南園街","SECT":" ","MAREA":" ","LANE":"４２巷","ALLEY":" ","HOUSE_NO":"２號","E_COORD97":170465,"N_COORD97":2545440.3799999999,"ADDRESS":"南園街４２巷２號","OBJECTID":427297},"geometry":{"x":170465.00000000093,"y":2545440.379999999}},{"attributes":{"ID":427323,"DIS_CODE":0,"TOWNNAME":"北區","LI":"華興里","LIN":"4鄰","STREET":"南園街","SECT":" ","MAREA":" ","LANE":"４２巷","ALLEY":" ","HOUSE_NO":"３號","E_COORD97":170472.67000000001,"N_COORD97":2545424.6000000001,"ADDRESS":"南園街４２巷３號","OBJECTID":427298},"geometry":{"x":170472.66999999993,"y":2545424.6000000015}},{"attributes":{"ID":427324,"DIS_CODE":0,"TOWNNAME":"北區","LI":"華興里","LIN":"4鄰","STREET":"南園街","SECT":" ","MAREA":" ","LANE":"４２巷","ALLEY":" ","HOUSE_NO":"４號","E_COORD97":170463.23000000001,"N_COORD97":2545437.0699999998,"ADDRESS":"南園街４２巷４號","OBJECTID":427299},"geometry":{"x":170463.23000000045,"y":2545437.0700000003}},{"attributes":{"ID":427325,"DIS_CODE":0,"TOWNNAME":"北區","LI":"華興里","LIN":"4鄰","STREET":"南園街","SECT":" ","MAREA":" ","LANE":"４２巷","ALLEY":" ","HOUSE_NO":"５號","E_COORD97":170468.31,"N_COORD97":2545417.8199999998,"ADDRESS":"南園街４２巷５號","OBJECTID":427300},"geometry":{"x":170468.30999999959,"y":2545417.8200000003}},{"attributes":{"ID":427326,"DIS_CODE":0,"TOWNNAME":"北區","LI":"華興里","LIN":"4鄰","STREET":"南園街","SECT":" ","MAREA":" ","LANE":"４２巷","ALLEY":" ","HOUSE_NO":"６號","E_COORD97":170461.20000000001,"N_COORD97":2545433.02,"ADDRESS":"南園街４２巷６號","OBJECTID":427301},"geometry":{"x":170461.20000000019,"y":2545433.0199999996}},{"attributes":{"ID":427327,"DIS_CODE":0,"TOWNNAME":"北區","LI":"華興里","LIN":"4鄰","STREET":"南園街","SECT":" ","MAREA":" ","LANE":"４２巷","ALLEY":" ","HOUSE_NO":"７號","E_COORD97":170464.17999999999,"N_COORD97":2545411.1899999999,"ADDRESS":"南園街４２巷７號","OBJECTID":427302},"geometry":{"x":170464.1799999997,"y":2545411.1899999995}},{"attributes":{"ID":427328,"DIS_CODE":0,"TOWNNAME":"七股區","LI":"樹林里","LIN":"4鄰","STREET":" ","SECT":" ","MAREA":"樹林","LANE":" ","ALLEY":" ","HOUSE_NO":"３８號","E_COORD97":164047.32486299999,"N_COORD97":2557225.96227,"ADDRESS":"樹林３８號","OBJECTID":427303},"geometry":{"x":164047.3248630017,"y":2557225.9622709993}},{"attributes":{"ID":427329,"DIS_CODE":0,"TOWNNAME":"北區","LI":"華興里","LIN":"4鄰","STREET":"南園街","SECT":" ","MAREA":" ","LANE":"４２巷","ALLEY":" ","HOUSE_NO":"９號","E_COORD97":170460.22,"N_COORD97":2545404,"ADDRESS":"南園街４２巷９號","OBJECTID":427304},"geometry":{"x":170460.21999999974,"y":2545404.0000000037}},{"attributes":{"ID":427330,"DIS_CODE":0,"TOWNNAME":"北區","LI":"華興里","LIN":"4鄰","STREET":"南園街","SECT":" ","MAREA":" ","LANE":"５４巷","ALLEY":" ","HOUSE_NO":"１０號","E_COORD97":170478.57999999999,"N_COORD97":2545412.0600000001,"ADDRESS":"南園街５４巷１０號","OBJECTID":427305},"geometry":{"x":170478.58000000007,"y":2545412.0600000024}},{"attributes":{"ID":427331,"DIS_CODE":0,"TOWNNAME":"北區","LI":"華興里","LIN":"4鄰","STREET":"南園街","SECT":" ","MAREA":" ","LANE":"５４巷","ALLEY":" ","HOUSE_NO":"１２號","E_COORD97":170476.48000000001,"N_COORD97":2545408.3500000001,"ADDRESS":"南園街５４巷１２號","OBJECTID":427306},"geometry":{"x":170476.48000000045,"y":2545408.3500000034}},{"attributes":{"ID":427332,"DIS_CODE":0,"TOWNNAME":"北區","LI":"華興里","LIN":"4鄰","STREET":"南園街","SECT":" ","MAREA":" ","LANE":"５４巷","ALLEY":" ","HOUSE_NO":"１４號","E_COORD97":170473.89000000001,"N_COORD97":2545404.8500000001,"ADDRESS":"南園街５４巷１４號","OBJECTID":427307},"geometry":{"x":170473.8900000006,"y":2545404.8500000034}},{"attributes":{"ID":427333,"DIS_CODE":0,"TOWNNAME":"北區","LI":"華興里","LIN":"4鄰","STREET":"南園街","SECT":" ","MAREA":" ","LANE":"５４巷","ALLEY":" ","HOUSE_NO":"１６號","E_COORD97":170472.19,"N_COORD97":2545400.73,"ADDRESS":"南園街５４巷１６號","OBJECTID":427308},"geometry":{"x":170472.19000000227,"y":2545400.7300000023}},{"attributes":{"ID":427334,"DIS_CODE":0,"TOWNNAME":"北區","LI":"華興里","LIN":"4鄰","STREET":"南園街","SECT":" ","MAREA":" ","LANE":"５４巷","ALLEY":" ","HOUSE_NO":"１８號","E_COORD97":170469.76000000001,"N_COORD97":2545397.5,"ADDRESS":"南園街５４巷１８號","OBJECTID":427309},"geometry":{"x":170469.76000000071,"y":2545397.5000000037}},{"attributes":{"ID":427335,"DIS_CODE":0,"TOWNNAME":"北區","LI":"華興里","LIN":"4鄰","STREET":"南園街","SECT":" ","MAREA":" ","LANE":"５４巷","ALLEY":" ","HOUSE_NO":"２０號","E_COORD97":170467.82000000001,"N_COORD97":2545393.2200000002,"ADDRESS":"南園街５４巷２０號","OBJECTID":427310},"geometry":{"x":170467.82000000216,"y":2545393.2200000044}},{"attributes":{"ID":427336,"DIS_CODE":0,"TOWNNAME":"北區","LI":"華興里","LIN":"4鄰","STREET":"南園街","SECT":" ","MAREA":" ","LANE":"５４巷","ALLEY":" ","HOUSE_NO":"２２號","E_COORD97":170465.97,"N_COORD97":2545389.9100000001,"ADDRESS":"南園街５４巷２２號","OBJECTID":427311},"geometry":{"x":170465.96999999974,"y":2545389.9100000001}},{"attributes":{"ID":427337,"DIS_CODE":0,"TOWNNAME":"北區","LI":"光武里","LIN":"4鄰","STREET":"大武街","SECT":" ","MAREA":" ","LANE":"１４１巷","ALLEY":" ","HOUSE_NO":"１９號","E_COORD97":169581.82000000001,"N_COORD97":2545871.52,"ADDRESS":"大武街１４１巷１９號","OBJECTID":427312},"geometry":{"x":169581.82000000123,"y":2545871.5200000033}},{"attributes":{"ID":427338,"DIS_CODE":0,"TOWNNAME":"北區","LI":"光武里","LIN":"4鄰","STREET":"大武街","SECT":" ","MAREA":" ","LANE":"１４１巷","ALLEY":" ","HOUSE_NO":"１號","E_COORD97":169610.70999999999,"N_COORD97":2545863.1699999999,"ADDRESS":"大武街１４１巷１號","OBJECTID":427313},"geometry":{"x":169610.71000000089,"y":2545863.1699999999}},{"attributes":{"ID":427339,"DIS_CODE":0,"TOWNNAME":"北區","LI":"光武里","LIN":"4鄰","STREET":"大武街","SECT":" ","MAREA":" ","LANE":"１４１巷","ALLEY":" ","HOUSE_NO":"２０號","E_COORD97":169581.44,"N_COORD97":2545880.3500000001,"ADDRESS":"大武街１４１巷２０號","OBJECTID":427314},"geometry":{"x":169581.44000000041,"y":2545880.3500000015}},{"attributes":{"ID":427340,"DIS_CODE":0,"TOWNNAME":"永康區","LI":"崑山里","LIN":"40鄰","STREET":"永大路","SECT":"二段","MAREA":" ","LANE":" ","ALLEY":" ","HOUSE_NO":"１１７號","E_COORD97":174225.69,"N_COORD97":2544978.21,"ADDRESS":"永大路二段１１７號","OBJECTID":427315},"geometry":{"x":174225.69000000134,"y":2544978.2100000009}},{"attributes":{"ID":427341,"DIS_CODE":0,"TOWNNAME":"北區","LI":"光武里","LIN":"4鄰","STREET":"大武街","SECT":" ","MAREA":" ","LANE":"１４１巷","ALLEY":" ","HOUSE_NO":"２１號","E_COORD97":169578.72,"N_COORD97":2545872.2400000002,"ADDRESS":"大武街１４１巷２１號","OBJECTID":427316},"geometry":{"x":169578.71999999974,"y":2545872.2400000021}},{"attributes":{"ID":427342,"DIS_CODE":0,"TOWNNAME":"北區","LI":"光武里","LIN":"4鄰","STREET":"大武街","SECT":" ","MAREA":" ","LANE":"１４１巷","ALLEY":" ","HOUSE_NO":"２２號","E_COORD97":169577.41,"N_COORD97":2545881.2799999998,"ADDRESS":"大武街１４１巷２２號","OBJECTID":427317},"geometry":{"x":169577.41000000108,"y":2545881.2799999993}},{"attributes":{"ID":427343,"DIS_CODE":0,"TOWNNAME":"北區","LI":"光武里","LIN":"4鄰","STREET":"大武街","SECT":" ","MAREA":" ","LANE":"１４１巷","ALLEY":" ","HOUSE_NO":"２３號","E_COORD97":169576.32999999999,"N_COORD97":2545873.4300000002,"ADDRESS":"大武街１４１巷２３號","OBJECTID":427318},"geometry":{"x":169576.33000000101,"y":2545873.4300000016}},{"attributes":{"ID":427344,"DIS_CODE":0,"TOWNNAME":"北區","LI":"光武里","LIN":"4鄰","STREET":"大武街","SECT":" ","MAREA":" ","LANE":"１４１巷","ALLEY":" ","HOUSE_NO":"２４號","E_COORD97":169574.39000000001,"N_COORD97":2545882.1299999999,"ADDRESS":"大武街１４１巷２４號","OBJECTID":427319},"geometry":{"x":169574.38999999966,"y":2545882.129999999}},{"attributes":{"ID":427345,"DIS_CODE":0,"TOWNNAME":"北區","LI":"光武里","LIN":"4鄰","STREET":"大武街","SECT":" ","MAREA":" ","LANE":"１４１巷","ALLEY":" ","HOUSE_NO":"２６號","E_COORD97":169570.76000000001,"N_COORD97":2545883.1299999999,"ADDRESS":"大武街１４１巷２６號","OBJECTID":427320},"geometry":{"x":169570.75999999885,"y":2545883.129999999}},{"attributes":{"ID":427346,"DIS_CODE":0,"TOWNNAME":"北區","LI":"光武里","LIN":"4鄰","STREET":"大武街","SECT":" ","MAREA":" ","LANE":"１４１巷","ALLEY":" ","HOUSE_NO":"２７號","E_COORD97":169568.92999999999,"N_COORD97":2545874.3799999999,"ADDRESS":"大武街１４１巷２７號","OBJECTID":427321},"geometry":{"x":169568.9299999997,"y":2545874.379999999}},{"attributes":{"ID":427347,"DIS_CODE":0,"TOWNNAME":"北區","LI":"光武里","LIN":"4鄰","STREET":"大武街","SECT":" ","MAREA":" ","LANE":"１４１巷","ALLEY":" ","HOUSE_NO":"２８號","E_COORD97":169568.31,"N_COORD97":2545883.0800000001,"ADDRESS":"大武街１４１巷２８號","OBJECTID":427322},"geometry":{"x":169568.30999999959,"y":2545883.0800000019}},{"attributes":{"ID":427348,"DIS_CODE":0,"TOWNNAME":"北區","LI":"光武里","LIN":"4鄰","STREET":"大武街","SECT":" ","MAREA":" ","LANE":"１４１巷","ALLEY":" ","HOUSE_NO":"２９號","E_COORD97":169566.07000000001,"N_COORD97":2545874.8599999999,"ADDRESS":"大武街１４１巷２９號","OBJECTID":427323},"geometry":{"x":169566.07000000123,"y":2545874.8599999994}},{"attributes":{"ID":427349,"DIS_CODE":0,"TOWNNAME":"北區","LI":"光武里","LIN":"4鄰","STREET":"大武街","SECT":" ","MAREA":" ","LANE":"１４１巷","ALLEY":" ","HOUSE_NO":"２號","E_COORD97":169610.17999999999,"N_COORD97":2545872.6699999999,"ADDRESS":"大武街１４１巷２號","OBJECTID":427324},"geometry":{"x":169610.17999999877,"y":2545872.6699999999}},{"attributes":{"ID":427350,"DIS_CODE":0,"TOWNNAME":"北區","LI":"光武里","LIN":"4鄰","STREET":"大武街","SECT":" ","MAREA":" ","LANE":"１４１巷","ALLEY":" ","HOUSE_NO":"３０號","E_COORD97":169564.25,"N_COORD97":2545884.02,"ADDRESS":"大武街１４１巷３０號","OBJECTID":427325},"geometry":{"x":169564.24999999907,"y":2545884.0199999996}},{"attributes":{"ID":427351,"DIS_CODE":0,"TOWNNAME":"北區","LI":"光武里","LIN":"4鄰","STREET":"大武街","SECT":" ","MAREA":" ","LANE":"１４１巷","ALLEY":" ","HOUSE_NO":"３１號","E_COORD97":169562.95999999999,"N_COORD97":2545876.0499999998,"ADDRESS":"大武街１４１巷３１號","OBJECTID":427326},"geometry":{"x":169562.96000000183,"y":2545876.0500000045}},{"attributes":{"ID":427352,"DIS_CODE":0,"TOWNNAME":"北區","LI":"光武里","LIN":"4鄰","STREET":"大武街","SECT":" ","MAREA":" ","LANE":"１４１巷","ALLEY":" ","HOUSE_NO":"３３號","E_COORD97":169558.66,"N_COORD97":2545877.2400000002,"ADDRESS":"大武街１４１巷３３號","OBJECTID":427327},"geometry":{"x":169558.66000000108,"y":2545877.2399999984}},{"attributes":{"ID":427353,"DIS_CODE":0,"TOWNNAME":"北區","LI":"光武里","LIN":"4鄰","STREET":"大武街","SECT":" ","MAREA":" ","LANE":"１４１巷","ALLEY":" ","HOUSE_NO":"３號","E_COORD97":169607.60999999999,"N_COORD97":2545864.3599999999,"ADDRESS":"大武街１４１巷３號","OBJECTID":427328},"geometry":{"x":169607.61000000034,"y":2545864.3599999994}},{"attributes":{"ID":427354,"DIS_CODE":0,"TOWNNAME":"北區","LI":"光武里","LIN":"4鄰","STREET":"大武街","SECT":" ","MAREA":" ","LANE":"１４１巷","ALLEY":" ","HOUSE_NO":"４號","E_COORD97":169605.85999999999,"N_COORD97":2545873.8700000001,"ADDRESS":"大武街１４１巷４號","OBJECTID":427329},"geometry":{"x":169605.86000000034,"y":2545873.8700000048}},{"attributes":{"ID":427355,"DIS_CODE":0,"TOWNNAME":"北區","LI":"光武里","LIN":"4鄰","STREET":"大武街","SECT":" ","MAREA":" ","LANE":"１４１巷","ALLEY":" ","HOUSE_NO":"５號","E_COORD97":169604.73999999999,"N_COORD97":2545865.3199999998,"ADDRESS":"大武街１４１巷５號","OBJECTID":427330},"geometry":{"x":169604.74000000022,"y":2545865.3200000003}},{"attributes":{"ID":427356,"DIS_CODE":0,"TOWNNAME":"北區","LI":"光武里","LIN":"4鄰","STREET":"大武街","SECT":" ","MAREA":" ","LANE":"１４１巷","ALLEY":" ","HOUSE_NO":"６號","E_COORD97":169603.10999999999,"N_COORD97":2545875.5600000001,"ADDRESS":"大武街１４１巷６號","OBJECTID":427331},"geometry":{"x":169603.11000000127,"y":2545875.5600000042}},{"attributes":{"ID":427357,"DIS_CODE":0,"TOWNNAME":"北區","LI":"光武里","LIN":"4鄰","STREET":"大武街","SECT":" ","MAREA":" ","LANE":"１４１巷","ALLEY":" ","HOUSE_NO":"７號","E_COORD97":169601.16,"N_COORD97":2545866.27,"ADDRESS":"大武街１４１巷７號","OBJECTID":427332},"geometry":{"x":169601.16000000108,"y":2545866.2700000033}},{"attributes":{"ID":427358,"DIS_CODE":0,"TOWNNAME":"北區","LI":"光武里","LIN":"4鄰","STREET":"大武街","SECT":" ","MAREA":" ","LANE":"１４１巷","ALLEY":" ","HOUSE_NO":"８號","E_COORD97":169599.85999999999,"N_COORD97":2545876.4100000001,"ADDRESS":"大武街１４１巷８號","OBJECTID":427333},"geometry":{"x":169599.86000000127,"y":2545876.4100000039}},{"attributes":{"ID":427359,"DIS_CODE":0,"TOWNNAME":"北區","LI":"光武里","LIN":"4鄰","STREET":"大武街","SECT":" ","MAREA":" ","LANE":"１４１巷","ALLEY":" ","HOUSE_NO":"９號","E_COORD97":169598.06,"N_COORD97":2545867.23,"ADDRESS":"大武街１４１巷９號","OBJECTID":427334},"geometry":{"x":169598.06000000052,"y":2545867.2300000004}},{"attributes":{"ID":427360,"DIS_CODE":0,"TOWNNAME":"北區","LI":"光武里","LIN":"4鄰","STREET":"大武街","SECT":" ","MAREA":" ","LANE":"１３３巷","ALLEY":" ","HOUSE_NO":"３６號","E_COORD97":169555.79999999999,"N_COORD97":2545857.4500000002,"ADDRESS":"大武街１３３巷３６號","OBJECTID":427335},"geometry":{"x":169555.80000000075,"y":2545857.4499999993}},{"attributes":{"ID":427361,"DIS_CODE":0,"TOWNNAME":"北區","LI":"光武里","LIN":"4鄰","STREET":"大武街","SECT":" ","MAREA":" ","LANE":"１３３巷","ALLEY":" ","HOUSE_NO":"４號","E_COORD97":169603.31,"N_COORD97":2545845.7599999998,"ADDRESS":"大武街１３３巷４號","OBJECTID":427336},"geometry":{"x":169603.31000000052,"y":2545845.7599999998}},{"attributes":{"ID":427362,"DIS_CODE":0,"TOWNNAME":"北區","LI":"光武里","LIN":"4鄰","STREET":"大武街","SECT":" ","MAREA":" ","LANE":"１３３巷","ALLEY":" ","HOUSE_NO":"６號","E_COORD97":169600.44,"N_COORD97":2545846.96,"ADDRESS":"大武街１３３巷６號","OBJECTID":427337},"geometry":{"x":169600.44000000041,"y":2545846.9600000028}},{"attributes":{"ID":427363,"DIS_CODE":0,"TOWNNAME":"北區","LI":"光武里","LIN":"4鄰","STREET":"大武街","SECT":" ","MAREA":" ","LANE":"１３３巷","ALLEY":" ","HOUSE_NO":"８號","E_COORD97":169597.34,"N_COORD97":2545847.9100000001,"ADDRESS":"大武街１３３巷８號","OBJECTID":427338},"geometry":{"x":169597.33999999985,"y":2545847.9100000001}},{"attributes":{"ID":427364,"DIS_CODE":0,"TOWNNAME":"北區","LI":"光武里","LIN":"4鄰","STREET":"長榮路","SECT":"五段","MAREA":" ","LANE":"３８３巷","ALLEY":" ","HOUSE_NO":"１９號","E_COORD97":169553.60999999999,"N_COORD97":2545887.1400000001,"ADDRESS":"長榮路五段３８３巷１９號","OBJECTID":427339},"geometry":{"x":169553.61000000034,"y":2545887.1400000006}},{"attributes":{"ID":427365,"DIS_CODE":0,"TOWNNAME":"北區","LI":"光武里","LIN":"4鄰","STREET":"長榮路","SECT":"五段","MAREA":" ","LANE":"３８３巷","ALLEY":" ","HOUSE_NO":"２１號","E_COORD97":169552.98999999999,"N_COORD97":2545884.96,"ADDRESS":"長榮路五段３８３巷２１號","OBJECTID":427340},"geometry":{"x":169552.99000000115,"y":2545884.9600000028}},{"attributes":{"ID":427366,"DIS_CODE":0,"TOWNNAME":"北區","LI":"成德里","LIN":"4鄰","STREET":"西門路","SECT":"四段","MAREA":" ","LANE":"１９巷","ALLEY":" ","HOUSE_NO":"４６號","E_COORD97":168512.60999999999,"N_COORD97":2545332.4300000002,"ADDRESS":"西門路四段１９巷４６號","OBJECTID":427341},"geometry":{"x":168512.61000000034,"y":2545332.4299999997}},{"attributes":{"ID":427367,"DIS_CODE":0,"TOWNNAME":"北區","LI":"成德里","LIN":"4鄰","STREET":"西門路","SECT":"四段","MAREA":" ","LANE":"１９巷","ALLEY":" ","HOUSE_NO":"４８號","E_COORD97":168508.39000000001,"N_COORD97":2545334.6299999999,"ADDRESS":"西門路四段１９巷４８號","OBJECTID":427342},"geometry":{"x":168508.38999999966,"y":2545334.6300000008}},{"attributes":{"ID":427368,"DIS_CODE":0,"TOWNNAME":"北區","LI":"成德里","LIN":"4鄰","STREET":"西門路","SECT":"四段","MAREA":" ","LANE":"１９巷","ALLEY":" ","HOUSE_NO":"５０號","E_COORD97":168505.45000000001,"N_COORD97":2545337.3799999999,"ADDRESS":"西門路四段１９巷５０號","OBJECTID":427343},"geometry":{"x":168505.45000000205,"y":2545337.3800000008}},{"attributes":{"ID":427369,"DIS_CODE":0,"TOWNNAME":"北區","LI":"成德里","LIN":"4鄰","STREET":"西門路","SECT":"四段","MAREA":" ","LANE":"１９巷","ALLEY":" ","HOUSE_NO":"５２號","E_COORD97":168501.41,"N_COORD97":2545341.04,"ADDRESS":"西門路四段１９巷５２號","OBJECTID":427344},"geometry":{"x":168501.41000000015,"y":2545341.0399999991}},{"attributes":{"ID":427370,"DIS_CODE":0,"TOWNNAME":"北區","LI":"成德里","LIN":"4鄰","STREET":"西門路","SECT":"四段","MAREA":" ","LANE":"６５巷","ALLEY":" ","HOUSE_NO":"５５號","E_COORD97":168557.23000000001,"N_COORD97":2545369.8999999999,"ADDRESS":"西門路四段６５巷５５號","OBJECTID":427345},"geometry":{"x":168557.23000000045,"y":2545369.9000000004}},{"attributes":{"ID":427371,"DIS_CODE":0,"TOWNNAME":"北區","LI":"成德里","LIN":"4鄰","STREET":"西門路","SECT":"四段","MAREA":" ","LANE":"６５巷","ALLEY":" ","HOUSE_NO":"５７號","E_COORD97":168553.47,"N_COORD97":2545373.6499999999,"ADDRESS":"西門路四段６５巷５７號","OBJECTID":427346},"geometry":{"x":168553.46999999974,"y":2545373.6500000022}},{"attributes":{"ID":427372,"DIS_CODE":0,"TOWNNAME":"北區","LI":"成德里","LIN":"4鄰","STREET":"西門路","SECT":"四段","MAREA":" ","LANE":"６５巷","ALLEY":" ","HOUSE_NO":"６１號","E_COORD97":168546.17999999999,"N_COORD97":2545379.29,"ADDRESS":"西門路四段６５巷６１號","OBJECTID":427347},"geometry":{"x":168546.18000000063,"y":2545379.2899999991}},{"attributes":{"ID":427373,"DIS_CODE":0,"TOWNNAME":"北區","LI":"成德里","LIN":"4鄰","STREET":"西門路","SECT":"四段","MAREA":" ","LANE":"６５巷","ALLEY":" ","HOUSE_NO":"６３號","E_COORD97":168543.37,"N_COORD97":2545381.3999999999,"ADDRESS":"西門路四段６５巷６３號","OBJECTID":427348},"geometry":{"x":168543.37000000104,"y":2545381.4000000041}},{"attributes":{"ID":427374,"DIS_CODE":0,"TOWNNAME":"北區","LI":"成德里","LIN":"4鄰","STREET":"西門路","SECT":"四段","MAREA":" ","LANE":"６５巷","ALLEY":" ","HOUSE_NO":"６５號","E_COORD97":168540.07999999999,"N_COORD97":2545384.2200000002,"ADDRESS":"西門路四段６５巷６５號","OBJECTID":427349},"geometry":{"x":168540.08000000194,"y":2545384.2200000025}},{"attributes":{"ID":427375,"DIS_CODE":0,"TOWNNAME":"北區","LI":"成德里","LIN":"4鄰","STREET":"西門路","SECT":"四段","MAREA":" ","LANE":"６５巷","ALLEY":" ","HOUSE_NO":"６７號","E_COORD97":168535.60999999999,"N_COORD97":2545386.5600000001,"ADDRESS":"西門路四段６５巷６７號","OBJECTID":427350},"geometry":{"x":168535.61000000127,"y":2545386.5600000005}},{"attributes":{"ID":427376,"DIS_CODE":0,"TOWNNAME":"北區","LI":"成德里","LIN":"4鄰","STREET":"西門路","SECT":"四段","MAREA":" ","LANE":"６５巷","ALLEY":" ","HOUSE_NO":"６９號","E_COORD97":168531.62,"N_COORD97":2545388.9100000001,"ADDRESS":"西門路四段６５巷６９號","OBJECTID":427351},"geometry":{"x":168531.62000000104,"y":2545388.910000002}},{"attributes":{"ID":427377,"DIS_CODE":0,"TOWNNAME":"安平區","LI":"海頭里","LIN":"4鄰","STREET":"中興街","SECT":" ","MAREA":" ","LANE":"１８巷","ALLEY":" ","HOUSE_NO":"７號","E_COORD97":164240.445091,"N_COORD97":2544714.48545,"ADDRESS":"中興街１８巷７號","OBJECTID":427352},"geometry":{"x":164240.44509100169,"y":2544714.4854479991}},{"attributes":{"ID":427378,"DIS_CODE":0,"TOWNNAME":"北區","LI":"大和里","LIN":"4鄰","STREET":"大興街","SECT":" ","MAREA":" ","LANE":"９６巷","ALLEY":" ","HOUSE_NO":"２６號","E_COORD97":167134.73000000001,"N_COORD97":2545859.3799999999,"ADDRESS":"大興街９６巷２６號","OBJECTID":427353},"geometry":{"x":167134.73000000138,"y":2545859.3800000008}},{"attributes":{"ID":427379,"DIS_CODE":0,"TOWNNAME":"北區","LI":"大和里","LIN":"4鄰","STREET":"大興街","SECT":" ","MAREA":" ","LANE":"９６巷","ALLEY":" ","HOUSE_NO":"２號","E_COORD97":167138.88,"N_COORD97":2545804.6499999999,"ADDRESS":"大興街９６巷２號","OBJECTID":427354},"geometry":{"x":167138.87999999989,"y":2545804.6500000022}},{"attributes":{"ID":427380,"DIS_CODE":0,"TOWNNAME":"北區","LI":"大和里","LIN":"4鄰","STREET":"大興街","SECT":" ","MAREA":" ","LANE":"９６巷","ALLEY":" ","HOUSE_NO":"３２號","E_COORD97":167133.45999999999,"N_COORD97":2545873,"ADDRESS":"大興街９６巷３２號","OBJECTID":427355},"geometry":{"x":167133.45999999996,"y":2545873.0000000019}},{"attributes":{"ID":427381,"DIS_CODE":0,"TOWNNAME":"北區","LI":"大和里","LIN":"4鄰","STREET":"大興街","SECT":" ","MAREA":" ","LANE":"９６巷","ALLEY":" ","HOUSE_NO":"３６號","E_COORD97":167132.39000000001,"N_COORD97":2545885.9300000002,"ADDRESS":"大興街９６巷３６號","OBJECTID":427356},"geometry":{"x":167132.3900000006,"y":2545885.9300000034}},{"attributes":{"ID":427382,"DIS_CODE":0,"TOWNNAME":"北區","LI":"大和里","LIN":"4鄰","STREET":"大興街","SECT":" ","MAREA":" ","LANE":"９６巷","ALLEY":" ","HOUSE_NO":"３８號","E_COORD97":167131.98999999999,"N_COORD97":2545890.54,"ADDRESS":"大興街９６巷３８號","OBJECTID":427357},"geometry":{"x":167131.98999999929,"y":2545890.5399999991}},{"attributes":{"ID":427383,"DIS_CODE":0,"TOWNNAME":"北區","LI":"大和里","LIN":"4鄰","STREET":"大興街","SECT":" ","MAREA":" ","LANE":"９６巷","ALLEY":" ","HOUSE_NO":"４０號","E_COORD97":167131.04000000001,"N_COORD97":2545894.96,"ADDRESS":"大興街９６巷４０號","OBJECTID":427358},"geometry":{"x":167131.04000000004,"y":2545894.9600000028}},{"attributes":{"ID":427384,"DIS_CODE":0,"TOWNNAME":"北區","LI":"大和里","LIN":"4鄰","STREET":"大興街","SECT":" ","MAREA":" ","LANE":"９６巷","ALLEY":" ","HOUSE_NO":"４６號","E_COORD97":167129.26000000001,"N_COORD97":2545908.0899999999,"ADDRESS":"大興街９６巷４６號","OBJECTID":427359},"geometry":{"x":167129.25999999978,"y":2545908.0899999999}},{"attributes":{"ID":427385,"DIS_CODE":0,"TOWNNAME":"北區","LI":"大和里","LIN":"4鄰","STREET":"大興街","SECT":" ","MAREA":" ","LANE":"９６巷","ALLEY":" ","HOUSE_NO":"４８號","E_COORD97":167128.70000000001,"N_COORD97":2545912.3799999999,"ADDRESS":"大興街９６巷４８號","OBJECTID":427360},"geometry":{"x":167128.70000000019,"y":2545912.3800000027}},{"attributes":{"ID":427386,"DIS_CODE":0,"TOWNNAME":"北區","LI":"大和里","LIN":"4鄰","STREET":"大興街","SECT":" ","MAREA":" ","LANE":"９６巷","ALLEY":" ","HOUSE_NO":"４號","E_COORD97":167138.41,"N_COORD97":2545809,"ADDRESS":"大興街９６巷４號","OBJECTID":427361},"geometry":{"x":167138.41000000108,"y":2545809.0000000019}},{"attributes":{"ID":427387,"DIS_CODE":0,"TOWNNAME":"北區","LI":"大和里","LIN":"4鄰","STREET":"大興街","SECT":" ","MAREA":" ","LANE":"９６巷","ALLEY":" ","HOUSE_NO":"５０號","E_COORD97":167128.57999999999,"N_COORD97":2545917.2200000002,"ADDRESS":"大興街９６巷５０號","OBJECTID":427362},"geometry":{"x":167128.58000000101,"y":2545917.2200000007}},{"attributes":{"ID":427388,"DIS_CODE":0,"TOWNNAME":"北區","LI":"大和里","LIN":"4鄰","STREET":"大興街","SECT":" ","MAREA":" ","LANE":"９６巷","ALLEY":" ","HOUSE_NO":"５０號之１","E_COORD97":167128.28,"N_COORD97":2545921.3500000001,"ADDRESS":"大興街９６巷５０號之１","OBJECTID":427363},"geometry":{"x":167128.28000000026,"y":2545921.3500000015}},{"attributes":{"ID":427389,"DIS_CODE":0,"TOWNNAME":"北區","LI":"大和里","LIN":"4鄰","STREET":"大興街","SECT":" ","MAREA":" ","LANE":"９６巷","ALLEY":" ","HOUSE_NO":"５２號","E_COORD97":167127.47,"N_COORD97":2545927.8900000001,"ADDRESS":"大興街９６巷５２號","OBJECTID":427364},"geometry":{"x":167127.46999999974,"y":2545927.8900000043}},{"attributes":{"ID":427390,"DIS_CODE":0,"TOWNNAME":"北區","LI":"大和里","LIN":"4鄰","STREET":"大興街","SECT":" ","MAREA":" ","LANE":"９６巷","ALLEY":" ","HOUSE_NO":"５６號","E_COORD97":167126.67999999999,"N_COORD97":2545935.25,"ADDRESS":"大興街９６巷５６號","OBJECTID":427365},"geometry":{"x":167126.6799999997,"y":2545935.2500000019}},{"attributes":{"ID":427391,"DIS_CODE":0,"TOWNNAME":"北區","LI":"大和里","LIN":"4鄰","STREET":"大興街","SECT":" ","MAREA":" ","LANE":"９６巷","ALLEY":" ","HOUSE_NO":"５８號","E_COORD97":167128.09,"N_COORD97":2545940.3300000001,"ADDRESS":"大興街９６巷５８號","OBJECTID":427366},"geometry":{"x":167128.09000000078,"y":2545940.3300000001}},{"attributes":{"ID":427392,"DIS_CODE":0,"TOWNNAME":"北區","LI":"大和里","LIN":"4鄰","STREET":"大興街","SECT":" ","MAREA":" ","LANE":"９６巷","ALLEY":" ","HOUSE_NO":"６號","E_COORD97":167137.92999999999,"N_COORD97":2545813.6200000001,"ADDRESS":"大興街９６巷６號","OBJECTID":427367},"geometry":{"x":167137.9299999997,"y":2545813.620000001}},{"attributes":{"ID":427393,"DIS_CODE":0,"TOWNNAME":"北區","LI":"大和里","LIN":"4鄰","STREET":"大興街","SECT":" ","MAREA":" ","LANE":"９６巷","ALLEY":" ","HOUSE_NO":"７２號","E_COORD97":167126.07000000001,"N_COORD97":2545977.98,"ADDRESS":"大興街９６巷７２號","OBJECTID":427368},"geometry":{"x":167126.0700000003,"y":2545977.9800000042}},{"attributes":{"ID":427394,"DIS_CODE":0,"TOWNNAME":"北區","LI":"大和里","LIN":"4鄰","STREET":"大興街","SECT":" ","MAREA":" ","LANE":"９６巷","ALLEY":" ","HOUSE_NO":"７４號","E_COORD97":167126.01000000001,"N_COORD97":2545982.46,"ADDRESS":"大興街９６巷７４號","OBJECTID":427369},"geometry":{"x":167126.00999999978,"y":2545982.4600000028}},{"attributes":{"ID":427395,"DIS_CODE":0,"TOWNNAME":"北區","LI":"大和里","LIN":"4鄰","STREET":"大興街","SECT":" ","MAREA":" ","LANE":"９６巷","ALLEY":" ","HOUSE_NO":"７６號","E_COORD97":167125.76000000001,"N_COORD97":2545986.3799999999,"ADDRESS":"大興街９６巷７６號","OBJECTID":427370},"geometry":{"x":167125.75999999978,"y":2545986.379999999}},{"attributes":{"ID":427396,"DIS_CODE":0,"TOWNNAME":"北區","LI":"大和里","LIN":"4鄰","STREET":"大興街","SECT":" ","MAREA":" ","LANE":"９６巷","ALLEY":" ","HOUSE_NO":"７８號","E_COORD97":167125.70000000001,"N_COORD97":2545990.5499999998,"ADDRESS":"大興街９６巷７８號","OBJECTID":427371},"geometry":{"x":167125.70000000112,"y":2545990.5500000007}},{"attributes":{"ID":427397,"DIS_CODE":0,"TOWNNAME":"北區","LI":"大和里","LIN":"4鄰","STREET":"大興街","SECT":" ","MAREA":" ","LANE":"９６巷","ALLEY":" ","HOUSE_NO":"８０號","E_COORD97":167124.84,"N_COORD97":2545994.6899999999,"ADDRESS":"大興街９６巷８０號","OBJECTID":427372},"geometry":{"x":167124.84000000078,"y":2545994.6899999995}},{"attributes":{"ID":427398,"DIS_CODE":0,"TOWNNAME":"北區","LI":"大和里","LIN":"4鄰","STREET":"大興街","SECT":" ","MAREA":" ","LANE":"９６巷","ALLEY":" ","HOUSE_NO":"８２號","E_COORD97":167124.60000000001,"N_COORD97":2545998.6699999999,"ADDRESS":"大興街９６巷８２號","OBJECTID":427373},"geometry":{"x":167124.60000000056,"y":2545998.6699999999}},{"attributes":{"ID":427399,"DIS_CODE":0,"TOWNNAME":"北區","LI":"大和里","LIN":"4鄰","STREET":"大興街","SECT":" ","MAREA":" ","LANE":"９６巷","ALLEY":" ","HOUSE_NO":"８４號","E_COORD97":167124.41,"N_COORD97":2546003.27,"ADDRESS":"大興街９６巷８４號","OBJECTID":427374},"geometry":{"x":167124.41000000108,"y":2546003.2700000014}},{"attributes":{"ID":427400,"DIS_CODE":0,"TOWNNAME":"北區","LI":"大和里","LIN":"4鄰","STREET":"大興街","SECT":" ","MAREA":" ","LANE":"９６巷","ALLEY":" ","HOUSE_NO":"８６號","E_COORD97":167123.92000000001,"N_COORD97":2546007.1499999999,"ADDRESS":"大興街９６巷８６號","OBJECTID":427375},"geometry":{"x":167123.92000000086,"y":2546007.1500000041}},{"attributes":{"ID":427401,"DIS_CODE":0,"TOWNNAME":"北區","LI":"大和里","LIN":"4鄰","STREET":"大興街","SECT":" ","MAREA":" ","LANE":"９６巷","ALLEY":" ","HOUSE_NO":"８８號","E_COORD97":167123.60999999999,"N_COORD97":2546011.3799999999,"ADDRESS":"大興街９６巷８８號","OBJECTID":427376},"geometry":{"x":167123.61000000127,"y":2546011.3800000008}},{"attributes":{"ID":427402,"DIS_CODE":0,"TOWNNAME":"北區","LI":"大和里","LIN":"4鄰","STREET":"大興街","SECT":" ","MAREA":" ","LANE":"９６巷","ALLEY":" ","HOUSE_NO":"８號","E_COORD97":167137.60999999999,"N_COORD97":2545817.46,"ADDRESS":"大興街９６巷８號","OBJECTID":427377},"geometry":{"x":167137.61000000034,"y":2545817.4600000009}},{"attributes":{"ID":427403,"DIS_CODE":0,"TOWNNAME":"北區","LI":"大和里","LIN":"4鄰","STREET":"大興街","SECT":" ","MAREA":" ","LANE":"９６巷","ALLEY":" ","HOUSE_NO":"９０號","E_COORD97":167123.12,"N_COORD97":2546015.75,"ADDRESS":"大興街９６巷９０號","OBJECTID":427378},"geometry":{"x":167123.12000000104,"y":2546015.75}},{"attributes":{"ID":427404,"DIS_CODE":0,"TOWNNAME":"北區","LI":"大和里","LIN":"4鄰","STREET":"大興街","SECT":" ","MAREA":" ","LANE":"９６巷","ALLEY":" ","HOUSE_NO":"９２號","E_COORD97":167122.82000000001,"N_COORD97":2546019.9199999999,"ADDRESS":"大興街９６巷９２號","OBJECTID":427379},"geometry":{"x":167122.8200000003,"y":2546019.9200000018}},{"attributes":{"ID":427405,"DIS_CODE":0,"TOWNNAME":"北區","LI":"大和里","LIN":"4鄰","STREET":"大興街","SECT":" ","MAREA":" ","LANE":"９６巷","ALLEY":" ","HOUSE_NO":"９４號","E_COORD97":167122.45000000001,"N_COORD97":2546024.3599999999,"ADDRESS":"大興街９６巷９４號","OBJECTID":427380},"geometry":{"x":167122.45000000112,"y":2546024.3599999994}},{"attributes":{"ID":427406,"DIS_CODE":0,"TOWNNAME":"北區","LI":"大和里","LIN":"4鄰","STREET":"大興街","SECT":" ","MAREA":" ","LANE":"９６巷","ALLEY":" ","HOUSE_NO":"９６號","E_COORD97":167122.20000000001,"N_COORD97":2546028.4100000001,"ADDRESS":"大興街９６巷９６號","OBJECTID":427381},"geometry":{"x":167122.20000000205,"y":2546028.4100000001}},{"attributes":{"ID":427407,"DIS_CODE":0,"TOWNNAME":"北區","LI":"大和里","LIN":"4鄰","STREET":"大興街","SECT":" ","MAREA":" ","LANE":"９６巷","ALLEY":" ","HOUSE_NO":"９８號","E_COORD97":167121.76999999999,"N_COORD97":2546032.6400000001,"ADDRESS":"大興街９６巷９８號","OBJECTID":427382},"geometry":{"x":167121.77000000048,"y":2546032.6400000025}},{"attributes":{"ID":427408,"DIS_CODE":0,"TOWNNAME":"北區","LI":"大和里","LIN":"4鄰","STREET":"大興街","SECT":" ","MAREA":" ","LANE":"９６巷","ALLEY":" ","HOUSE_NO":"７９號","E_COORD97":167095.97,"N_COORD97":2546029.9900000002,"ADDRESS":"大興街９６巷７９號","OBJECTID":427383},"geometry":{"x":167095.96999999881,"y":2546029.9900000002}},{"attributes":{"ID":427409,"DIS_CODE":0,"TOWNNAME":"北區","LI":"大和里","LIN":"4鄰","STREET":"大興街","SECT":" ","MAREA":" ","LANE":"９６巷","ALLEY":" ","HOUSE_NO":"７號","E_COORD97":167115.23000000001,"N_COORD97":2545807.4100000001,"ADDRESS":"大興街９６巷７號","OBJECTID":427384},"geometry":{"x":167115.23000000045,"y":2545807.4100000001}},{"attributes":{"ID":427410,"DIS_CODE":0,"TOWNNAME":"北區","LI":"大和里","LIN":"4鄰","STREET":"大興街","SECT":" ","MAREA":" ","LANE":"９６巷","ALLEY":" ","HOUSE_NO":"８１號","E_COORD97":167095.67000000001,"N_COORD97":2546034.4700000002,"ADDRESS":"大興街９６巷８１號","OBJECTID":427385},"geometry":{"x":167095.67000000086,"y":2546034.4700000007}},{"attributes":{"ID":427411,"DIS_CODE":0,"TOWNNAME":"北區","LI":"大和里","LIN":"4鄰","STREET":"大興街","SECT":" ","MAREA":" ","LANE":"９６巷","ALLEY":" ","HOUSE_NO":"９號","E_COORD97":167114.95999999999,"N_COORD97":2545811.8999999999,"ADDRESS":"大興街９６巷９號","OBJECTID":427386},"geometry":{"x":167114.95999999903,"y":2545811.8999999985}},{"attributes":{"ID":427412,"DIS_CODE":0,"TOWNNAME":"麻豆區","LI":"興農里","LIN":"4鄰","STREET":"新生南路","SECT":" ","MAREA":" ","LANE":"３７３巷","ALLEY":" ","HOUSE_NO":"４５號","E_COORD97":172413.94,"N_COORD97":2564113.9700000002,"ADDRESS":"新生南路３７３巷４５號","OBJECTID":427387},"geometry":{"x":172413.94000000134,"y":2564113.9700000025}},{"attributes":{"ID":427413,"DIS_CODE":0,"TOWNNAME":"北區","LI":"新勝里","LIN":"4鄰","STREET":"北園街","SECT":" ","MAREA":" ","LANE":"５３巷","ALLEY":" ","HOUSE_NO":"１４號","E_COORD97":170321.32999999999,"N_COORD97":2545572.4700000002,"ADDRESS":"北園街５３巷１４號","OBJECTID":427388},"geometry":{"x":170321.33000000007,"y":2545572.4700000025}},{"attributes":{"ID":427414,"DIS_CODE":0,"TOWNNAME":"北區","LI":"新勝里","LIN":"4鄰","STREET":"北園街","SECT":" ","MAREA":" ","LANE":"５３巷","ALLEY":" ","HOUSE_NO":"１８號","E_COORD97":170316.82999999999,"N_COORD97":2545571.4500000002,"ADDRESS":"北園街５３巷１８號","OBJECTID":427389},"geometry":{"x":170316.83000000101,"y":2545571.4500000011}},{"attributes":{"ID":427415,"DIS_CODE":0,"TOWNNAME":"北區","LI":"新勝里","LIN":"4鄰","STREET":"北園街","SECT":" ","MAREA":" ","LANE":"５３巷","ALLEY":" ","HOUSE_NO":"２０號","E_COORD97":170311.29999999999,"N_COORD97":2545571.3700000001,"ADDRESS":"北園街５３巷２０號","OBJECTID":427390},"geometry":{"x":170311.29999999888,"y":2545571.370000001}},{"attributes":{"ID":427416,"DIS_CODE":0,"TOWNNAME":"北區","LI":"光武里","LIN":"4鄰","STREET":"長榮路","SECT":"五段","MAREA":" ","LANE":"３８３巷","ALLEY":" ","HOUSE_NO":"１號","E_COORD97":169540.14999999999,"N_COORD97":2545922.2599999998,"ADDRESS":"長榮路五段３８３巷１號","OBJECTID":427391},"geometry":{"x":169540.1500000013,"y":2545922.2600000016}},{"attributes":{"ID":427417,"DIS_CODE":0,"TOWNNAME":"中西區","LI":"三合里","LIN":"4鄰","STREET":"忠孝街","SECT":" ","MAREA":" ","LANE":"９８巷","ALLEY":" ","HOUSE_NO":"５號","E_COORD97":167731.81,"N_COORD97":2544505.9399999999,"ADDRESS":"忠孝街９８巷５號","OBJECTID":427392},"geometry":{"x":167731.81000000052,"y":2544505.9400000013}},{"attributes":{"ID":427418,"DIS_CODE":0,"TOWNNAME":"北區","LI":"光武里","LIN":"4鄰","STREET":"長榮路","SECT":"五段","MAREA":" ","LANE":"３８３巷","ALLEY":" ","HOUSE_NO":"３之１號","E_COORD97":169537.26999999999,"N_COORD97":2545910.52,"ADDRESS":"長榮路五段３８３巷３之１號","OBJECTID":427393},"geometry":{"x":169537.27000000048,"y":2545910.5199999996}},{"attributes":{"ID":427419,"DIS_CODE":0,"TOWNNAME":"北區","LI":"光武里","LIN":"4鄰","STREET":"長榮路","SECT":"五段","MAREA":" ","LANE":"３８３巷","ALLEY":" ","HOUSE_NO":"３號","E_COORD97":169538.70999999999,"N_COORD97":2545919.1400000001,"ADDRESS":"長榮路五段３８３巷３號","OBJECTID":427394},"geometry":{"x":169538.70999999996,"y":2545919.1400000043}},{"attributes":{"ID":427420,"DIS_CODE":0,"TOWNNAME":"北區","LI":"光武里","LIN":"4鄰","STREET":"長榮路","SECT":"五段","MAREA":" ","LANE":"３８３巷","ALLEY":" ","HOUSE_NO":"５號","E_COORD97":169554.54000000001,"N_COORD97":2545904.7599999998,"ADDRESS":"長榮路五段３８３巷５號","OBJECTID":427395},"geometry":{"x":169554.54000000097,"y":2545904.7600000016}},{"attributes":{"ID":427421,"DIS_CODE":0,"TOWNNAME":"鹽水區","LI":"橋南里","LIN":"4鄰","STREET":"行昌路","SECT":" ","MAREA":" ","LANE":"６７巷","ALLEY":" ","HOUSE_NO":"１２號","E_COORD97":175256.03,"N_COORD97":2579385.98,"ADDRESS":"行昌路６７巷１２號","OBJECTID":427396},"geometry":{"x":175256.03000000119,"y":2579385.9800000004}},{"attributes":{"ID":427422,"DIS_CODE":0,"TOWNNAME":"善化區","LI":"坐駕里","LIN":"13鄰","STREET":"信義路","SECT":" ","MAREA":" ","LANE":"７１巷","ALLEY":" ","HOUSE_NO":"７號","E_COORD97":178263.17999999999,"N_COORD97":2558706,"ADDRESS":"信義路７１巷７號","OBJECTID":427397},"geometry":{"x":178263.18000000063,"y":2558706.0000000019}},{"attributes":{"ID":427423,"DIS_CODE":0,"TOWNNAME":"善化區","LI":"坐駕里","LIN":"13鄰","STREET":"信義路","SECT":" ","MAREA":" ","LANE":"７１巷","ALLEY":" ","HOUSE_NO":"８號","E_COORD97":178265.89999999999,"N_COORD97":2558720.5,"ADDRESS":"信義路７１巷８號","OBJECTID":427398},"geometry":{"x":178265.9000000013,"y":2558720.5}},{"attributes":{"ID":427424,"DIS_CODE":0,"TOWNNAME":"新化區","LI":"太平里","LIN":"4鄰","STREET":"中正路","SECT":" ","MAREA":" ","LANE":"５８０巷","ALLEY":" ","HOUSE_NO":"２號之７９","E_COORD97":178983.48000000001,"N_COORD97":2548970.02,"ADDRESS":"中正路５８０巷２號之７９","OBJECTID":427399},"geometry":{"x":178983.48000000231,"y":2548970.0199999977}},{"attributes":{"ID":427425,"DIS_CODE":0,"TOWNNAME":"新化區","LI":"太平里","LIN":"4鄰","STREET":"中正路","SECT":" ","MAREA":" ","LANE":"５８０巷","ALLEY":" ","HOUSE_NO":"２號之８０","E_COORD97":178987.75,"N_COORD97":2548973.3100000001,"ADDRESS":"中正路５８０巷２號之８０","OBJECTID":427400},"geometry":{"x":178987.75,"y":2548973.3100000024}}]}