{"displayFieldName":"TOWNNAME","fieldAliases":{"ID":"ID","DIS_CODE":"DIS_CODE","TOWNNAME":"TOWNNAME","LI":"LI","LIN":"LIN","STREET":"STREET","SECT":"SECT","MAREA":"MAREA","LANE":"LANE","ALLEY":"ALLEY","HOUSE_NO":"HOUSE_NO","E_COORD97":"E_COORD97","N_COORD97":"N_COORD97","ADDRESS":"ADDRESS","OBJECTID":"OBJECTID"},"geometryType":"esriGeometryPoint","spatialReference":{"wkid":102443,"latestWkid":3826},"fields":[{"name":"ID","type":"esriFieldTypeDouble","alias":"ID"},{"name":"DIS_CODE","type":"esriFieldTypeInteger","alias":"DIS_CODE"},{"name":"TOWNNAME","type":"esriFieldTypeString","alias":"TOWNNAME","length":8},{"name":"LI","type":"esriFieldTypeString","alias":"LI","length":8},{"name":"LIN","type":"esriFieldTypeString","alias":"LIN","length":12},{"name":"STREET","type":"esriFieldTypeString","alias":"STREET","length":20},{"name":"SECT","type":"esriFieldTypeString","alias":"SECT","length":8},{"name":"MAREA","type":"esriFieldTypeString","alias":"MAREA","length":12},{"name":"LANE","type":"esriFieldTypeString","alias":"LANE","length":10},{"name":"ALLEY","type":"esriFieldTypeString","alias":"ALLEY","length":10},{"name":"HOUSE_NO","type":"esriFieldTypeString","alias":"HOUSE_NO","length":20},{"name":"E_COORD97","type":"esriFieldTypeDouble","alias":"E_COORD97"},{"name":"N_COORD97","type":"esriFieldTypeDouble","alias":"N_COORD97"},{"name":"ADDRESS","type":"esriFieldTypeString","alias":"ADDRESS","length":50},{"name":"OBJECTID","type":"esriFieldTypeOID","alias":"OBJECTID"}],"features":[{"attributes":{"ID":305409,"DIS_CODE":0,"TOWNNAME":"新市區","LI":"新和里","LIN":"17鄰","STREET":"銘傳街","SECT":" ","MAREA":" ","LANE":" ","ALLEY":" ","HOUSE_NO":"４號","E_COORD97":177546.39999999999,"N_COORD97":2552658.75,"ADDRESS":"銘傳街４號","OBJECTID":305401},"geometry":{"x":177546.40000000224,"y":2552658.7500000019}},{"attributes":{"ID":305410,"DIS_CODE":0,"TOWNNAME":"新市區","LI":"港墘里","LIN":"17鄰","STREET":"長安街","SECT":" ","MAREA":" ","LANE":" ","ALLEY":" ","HOUSE_NO":"６８號","E_COORD97":178183.64000000001,"N_COORD97":2552669.6299999999,"ADDRESS":"長安街６８號","OBJECTID":305402},"geometry":{"x":178183.6400000006,"y":2552669.629999999}},{"attributes":{"ID":305411,"DIS_CODE":0,"TOWNNAME":"新市區","LI":"港墘里","LIN":"17鄰","STREET":"長安街","SECT":" ","MAREA":" ","LANE":" ","ALLEY":" ","HOUSE_NO":"７０號","E_COORD97":178179.07000000001,"N_COORD97":2552669.0600000001,"ADDRESS":"長安街７０號","OBJECTID":305403},"geometry":{"x":178179.06999999937,"y":2552669.0600000005}},{"attributes":{"ID":305412,"DIS_CODE":0,"TOWNNAME":"新市區","LI":"港墘里","LIN":"17鄰","STREET":"長安街","SECT":" ","MAREA":" ","LANE":" ","ALLEY":" ","HOUSE_NO":"７２號","E_COORD97":178174.28,"N_COORD97":2552668.7999999998,"ADDRESS":"長安街７２號","OBJECTID":305404},"geometry":{"x":178174.28000000212,"y":2552668.8000000026}},{"attributes":{"ID":305413,"DIS_CODE":0,"TOWNNAME":"新市區","LI":"港墘里","LIN":"17鄰","STREET":"長安街","SECT":" ","MAREA":" ","LANE":" ","ALLEY":" ","HOUSE_NO":"７６號","E_COORD97":178169.48000000001,"N_COORD97":2552668.1600000001,"ADDRESS":"長安街７６號","OBJECTID":305405},"geometry":{"x":178169.48000000045,"y":2552668.1600000001}},{"attributes":{"ID":305414,"DIS_CODE":0,"TOWNNAME":"玉井區","LI":"沙田里","LIN":"4鄰","STREET":" ","SECT":" ","MAREA":"沙田","LANE":" ","ALLEY":" ","HOUSE_NO":"３２號","E_COORD97":196622.45999999999,"N_COORD97":2556733.2799999998,"ADDRESS":"沙田３２號","OBJECTID":305406},"geometry":{"x":196622.45999999996,"y":2556733.2800000012}},{"attributes":{"ID":305415,"DIS_CODE":0,"TOWNNAME":"歸仁區","LI":"看西里","LIN":"3鄰","STREET":"仁愛南街","SECT":" ","MAREA":" ","LANE":"１１７巷","ALLEY":" ","HOUSE_NO":"１０號","E_COORD97":178323.58036399999,"N_COORD97":2540354.5245400001,"ADDRESS":"仁愛南街１１７巷１０號","OBJECTID":305407},"geometry":{"x":178323.58036400098,"y":2540354.5245370027}},{"attributes":{"ID":305416,"DIS_CODE":0,"TOWNNAME":"鹽水區","LI":"橋南里","LIN":"8鄰","STREET":"新太路","SECT":" ","MAREA":" ","LANE":"１２巷","ALLEY":" ","HOUSE_NO":"１８號","E_COORD97":175464.42000000001,"N_COORD97":2578663.6800000002,"ADDRESS":"新太路１２巷１８號","OBJECTID":305408},"geometry":{"x":175464.42000000086,"y":2578663.6800000016}},{"attributes":{"ID":305417,"DIS_CODE":0,"TOWNNAME":"鹽水區","LI":"橋南里","LIN":"8鄰","STREET":"新太路","SECT":" ","MAREA":" ","LANE":"１２巷","ALLEY":" ","HOUSE_NO":"１９號","E_COORD97":175465.14999999999,"N_COORD97":2578637.1600000001,"ADDRESS":"新太路１２巷１９號","OBJECTID":305409},"geometry":{"x":175465.1500000013,"y":2578637.160000002}},{"attributes":{"ID":305418,"DIS_CODE":0,"TOWNNAME":"鹽水區","LI":"橋南里","LIN":"8鄰","STREET":"新太路","SECT":" ","MAREA":" ","LANE":"１２巷","ALLEY":" ","HOUSE_NO":"２０號","E_COORD97":175460.57999999999,"N_COORD97":2578662.3599999999,"ADDRESS":"新太路１２巷２０號","OBJECTID":305410},"geometry":{"x":175460.58000000101,"y":2578662.3600000013}},{"attributes":{"ID":305419,"DIS_CODE":0,"TOWNNAME":"鹽水區","LI":"橋南里","LIN":"8鄰","STREET":"新太路","SECT":" ","MAREA":" ","LANE":"１２巷","ALLEY":" ","HOUSE_NO":"２１號","E_COORD97":175461.23999999999,"N_COORD97":2578635.9700000002,"ADDRESS":"新太路１２巷２１號","OBJECTID":305411},"geometry":{"x":175461.24000000115,"y":2578635.9700000007}},{"attributes":{"ID":305420,"DIS_CODE":0,"TOWNNAME":"鹽水區","LI":"橋南里","LIN":"8鄰","STREET":"新太路","SECT":" ","MAREA":" ","LANE":"１２巷","ALLEY":" ","HOUSE_NO":"２２號","E_COORD97":175456.75,"N_COORD97":2578661.04,"ADDRESS":"新太路１２巷２２號","OBJECTID":305412},"geometry":{"x":175456.74999999907,"y":2578661.0399999991}},{"attributes":{"ID":305421,"DIS_CODE":0,"TOWNNAME":"鹽水區","LI":"橋南里","LIN":"8鄰","STREET":"新太路","SECT":" ","MAREA":" ","LANE":"１２巷","ALLEY":" ","HOUSE_NO":"２３號","E_COORD97":175457.32999999999,"N_COORD97":2578634.7799999998,"ADDRESS":"新太路１２巷２３號","OBJECTID":305413},"geometry":{"x":175457.33000000007,"y":2578634.7800000012}},{"attributes":{"ID":305422,"DIS_CODE":0,"TOWNNAME":"鹽水區","LI":"橋南里","LIN":"8鄰","STREET":"新太路","SECT":" ","MAREA":" ","LANE":"１２巷","ALLEY":" ","HOUSE_NO":"２４號","E_COORD97":175452.91,"N_COORD97":2578659.73,"ADDRESS":"新太路１２巷２４號","OBJECTID":305414},"geometry":{"x":175452.91000000108,"y":2578659.7300000023}},{"attributes":{"ID":305423,"DIS_CODE":0,"TOWNNAME":"鹽水區","LI":"橋南里","LIN":"8鄰","STREET":"新太路","SECT":" ","MAREA":" ","LANE":"１２巷","ALLEY":" ","HOUSE_NO":"２５號","E_COORD97":175453.42000000001,"N_COORD97":2578633.5899999999,"ADDRESS":"新太路１２巷２５號","OBJECTID":305415},"geometry":{"x":175453.41999999993,"y":2578633.5900000017}},{"attributes":{"ID":305424,"DIS_CODE":0,"TOWNNAME":"鹽水區","LI":"橋南里","LIN":"8鄰","STREET":"新太路","SECT":" ","MAREA":" ","LANE":"１２巷","ALLEY":" ","HOUSE_NO":"２６號","E_COORD97":175449.07999999999,"N_COORD97":2578658.4100000001,"ADDRESS":"新太路１２巷２６號","OBJECTID":305416},"geometry":{"x":175449.08000000007,"y":2578658.410000002}},{"attributes":{"ID":305425,"DIS_CODE":0,"TOWNNAME":"鹽水區","LI":"橋南里","LIN":"8鄰","STREET":"新太路","SECT":" ","MAREA":" ","LANE":"１２巷","ALLEY":" ","HOUSE_NO":"２７號","E_COORD97":175449.51000000001,"N_COORD97":2578632.3999999999,"ADDRESS":"新太路１２巷２７號","OBJECTID":305417},"geometry":{"x":175449.50999999978,"y":2578632.4000000022}},{"attributes":{"ID":305426,"DIS_CODE":0,"TOWNNAME":"鹽水區","LI":"橋南里","LIN":"8鄰","STREET":"新太路","SECT":" ","MAREA":" ","LANE":"１２巷","ALLEY":" ","HOUSE_NO":"２８號","E_COORD97":175445.23999999999,"N_COORD97":2578657.0899999999,"ADDRESS":"新太路１２巷２８號","OBJECTID":305418},"geometry":{"x":175445.24000000209,"y":2578657.0900000017}},{"attributes":{"ID":305427,"DIS_CODE":0,"TOWNNAME":"鹽水區","LI":"橋南里","LIN":"8鄰","STREET":"新太路","SECT":" ","MAREA":" ","LANE":"１２巷","ALLEY":" ","HOUSE_NO":"２９號","E_COORD97":175445.60000000001,"N_COORD97":2578631.21,"ADDRESS":"新太路１２巷２９號","OBJECTID":305419},"geometry":{"x":175445.60000000149,"y":2578631.2100000009}},{"attributes":{"ID":305428,"DIS_CODE":0,"TOWNNAME":"鹽水區","LI":"橋南里","LIN":"8鄰","STREET":"新太路","SECT":" ","MAREA":" ","LANE":"１２巷","ALLEY":" ","HOUSE_NO":"２號","E_COORD97":175491.26000000001,"N_COORD97":2578672.9100000001,"ADDRESS":"新太路１２巷２號","OBJECTID":305420},"geometry":{"x":175491.26000000071,"y":2578672.910000002}},{"attributes":{"ID":305429,"DIS_CODE":0,"TOWNNAME":"鹽水區","LI":"橋南里","LIN":"8鄰","STREET":"新太路","SECT":" ","MAREA":" ","LANE":"１２巷","ALLEY":" ","HOUSE_NO":"３０號","E_COORD97":175441.41,"N_COORD97":2578655.77,"ADDRESS":"新太路１２巷３０號","OBJECTID":305421},"geometry":{"x":175441.41000000108,"y":2578655.7700000014}},{"attributes":{"ID":305430,"DIS_CODE":0,"TOWNNAME":"鹽水區","LI":"橋南里","LIN":"8鄰","STREET":"新太路","SECT":" ","MAREA":" ","LANE":"１２巷","ALLEY":" ","HOUSE_NO":"３１號","E_COORD97":175441.69,"N_COORD97":2578630.02,"ADDRESS":"新太路１２巷３１號","OBJECTID":305422},"geometry":{"x":175441.69000000041,"y":2578630.0200000014}},{"attributes":{"ID":305431,"DIS_CODE":0,"TOWNNAME":"鹽水區","LI":"橋南里","LIN":"8鄰","STREET":"新太路","SECT":" ","MAREA":" ","LANE":"１２巷","ALLEY":" ","HOUSE_NO":"３２號","E_COORD97":175437.57000000001,"N_COORD97":2578654.4500000002,"ADDRESS":"新太路１２巷３２號","OBJECTID":305423},"geometry":{"x":175437.5700000003,"y":2578654.4500000011}},{"attributes":{"ID":305432,"DIS_CODE":0,"TOWNNAME":"鹽水區","LI":"橋南里","LIN":"8鄰","STREET":"新太路","SECT":" ","MAREA":" ","LANE":"１２巷","ALLEY":" ","HOUSE_NO":"３４號","E_COORD97":175433.73999999999,"N_COORD97":2578653.1299999999,"ADDRESS":"新太路１２巷３４號","OBJECTID":305424},"geometry":{"x":175433.74000000115,"y":2578653.1300000008}},{"attributes":{"ID":305433,"DIS_CODE":0,"TOWNNAME":"鹽水區","LI":"橋南里","LIN":"8鄰","STREET":"新太路","SECT":" ","MAREA":" ","LANE":"１２巷","ALLEY":" ","HOUSE_NO":"３５號","E_COORD97":175433.85999999999,"N_COORD97":2578627.6400000001,"ADDRESS":"新太路１２巷３５號","OBJECTID":305425},"geometry":{"x":175433.86000000034,"y":2578627.6400000025}},{"attributes":{"ID":305434,"DIS_CODE":0,"TOWNNAME":"鹽水區","LI":"橋南里","LIN":"8鄰","STREET":"新太路","SECT":" ","MAREA":" ","LANE":"１２巷","ALLEY":" ","HOUSE_NO":"３６號","E_COORD97":175429.89999999999,"N_COORD97":2578651.8100000001,"ADDRESS":"新太路１２巷３６號","OBJECTID":305426},"geometry":{"x":175429.9000000013,"y":2578651.8099999987}},{"attributes":{"ID":305435,"DIS_CODE":0,"TOWNNAME":"新市區","LI":"港墘里","LIN":"17鄰","STREET":"長安街","SECT":" ","MAREA":" ","LANE":" ","ALLEY":" ","HOUSE_NO":"７８號","E_COORD97":178164.48999999999,"N_COORD97":2552667.52,"ADDRESS":"長安街７８號","OBJECTID":305427},"geometry":{"x":178164.49000000209,"y":2552667.5199999996}},{"attributes":{"ID":305436,"DIS_CODE":0,"TOWNNAME":"安平區","LI":"億載里","LIN":"4鄰","STREET":"安億路","SECT":" ","MAREA":" ","LANE":" ","ALLEY":" ","HOUSE_NO":"１２３號","E_COORD97":163554.5,"N_COORD97":2543446.3199999998,"ADDRESS":"安億路１２３號","OBJECTID":305428},"geometry":{"x":163554.5,"y":2543446.3200000022}},{"attributes":{"ID":305437,"DIS_CODE":0,"TOWNNAME":"安平區","LI":"億載里","LIN":"4鄰","STREET":"安億路","SECT":" ","MAREA":" ","LANE":" ","ALLEY":" ","HOUSE_NO":"１２５號","E_COORD97":163561.35999999999,"N_COORD97":2543461.4500000002,"ADDRESS":"安億路１２５號","OBJECTID":305429},"geometry":{"x":163561.3600000022,"y":2543461.4500000011}},{"attributes":{"ID":305438,"DIS_CODE":0,"TOWNNAME":"安平區","LI":"億載里","LIN":"4鄰","STREET":"安億路","SECT":" ","MAREA":" ","LANE":" ","ALLEY":" ","HOUSE_NO":"１２７號","E_COORD97":163553.06,"N_COORD97":2543481.27,"ADDRESS":"安億路１２７號","OBJECTID":305430},"geometry":{"x":163553.06000000052,"y":2543481.2699999996}},{"attributes":{"ID":305439,"DIS_CODE":0,"TOWNNAME":"安平區","LI":"億載里","LIN":"4鄰","STREET":"安億路","SECT":" ","MAREA":" ","LANE":" ","ALLEY":" ","HOUSE_NO":"１２９號","E_COORD97":163548.13,"N_COORD97":2543519.1099999999,"ADDRESS":"安億路１２９號","OBJECTID":305431},"geometry":{"x":163548.12999999989,"y":2543519.1100000013}},{"attributes":{"ID":305440,"DIS_CODE":0,"TOWNNAME":"安平區","LI":"億載里","LIN":"4鄰","STREET":"安億路","SECT":" ","MAREA":" ","LANE":" ","ALLEY":" ","HOUSE_NO":"１３１號","E_COORD97":163558.23000000001,"N_COORD97":2543537.1299999999,"ADDRESS":"安億路１３１號","OBJECTID":305432},"geometry":{"x":163558.23000000045,"y":2543537.129999999}},{"attributes":{"ID":305441,"DIS_CODE":0,"TOWNNAME":"鹽水區","LI":"橋南里","LIN":"8鄰","STREET":"新太路","SECT":" ","MAREA":" ","LANE":"１２巷","ALLEY":" ","HOUSE_NO":"３７號","E_COORD97":175429.95000000001,"N_COORD97":2578626.4399999999,"ADDRESS":"新太路１２巷３７號","OBJECTID":305433},"geometry":{"x":175429.95000000019,"y":2578626.4400000032}},{"attributes":{"ID":305442,"DIS_CODE":0,"TOWNNAME":"鹽水區","LI":"橋南里","LIN":"8鄰","STREET":"新太路","SECT":" ","MAREA":" ","LANE":"１２巷","ALLEY":" ","HOUSE_NO":"３８號","E_COORD97":175426.07000000001,"N_COORD97":2578650.4900000002,"ADDRESS":"新太路１２巷３８號","OBJECTID":305434},"geometry":{"x":175426.06999999937,"y":2578650.4900000039}},{"attributes":{"ID":305443,"DIS_CODE":0,"TOWNNAME":"鹽水區","LI":"橋南里","LIN":"8鄰","STREET":"新太路","SECT":" ","MAREA":" ","LANE":"１２巷","ALLEY":" ","HOUSE_NO":"３９號","E_COORD97":175426.04000000001,"N_COORD97":2578625.25,"ADDRESS":"新太路１２巷３９號","OBJECTID":305435},"geometry":{"x":175426.0400000019,"y":2578625.2500000019}},{"attributes":{"ID":305444,"DIS_CODE":0,"TOWNNAME":"鹽水區","LI":"橋南里","LIN":"8鄰","STREET":"新太路","SECT":" ","MAREA":" ","LANE":"１２巷","ALLEY":" ","HOUSE_NO":"３號","E_COORD97":175496.44,"N_COORD97":2578646.6899999999,"ADDRESS":"新太路１２巷３號","OBJECTID":305436},"geometry":{"x":175496.44000000041,"y":2578646.6899999995}},{"attributes":{"ID":305445,"DIS_CODE":0,"TOWNNAME":"鹽水區","LI":"橋南里","LIN":"8鄰","STREET":"新太路","SECT":" ","MAREA":" ","LANE":"１２巷","ALLEY":" ","HOUSE_NO":"４０號","E_COORD97":175422.23000000001,"N_COORD97":2578649.1800000002,"ADDRESS":"新太路１２巷４０號","OBJECTID":305437},"geometry":{"x":175422.23000000138,"y":2578649.1800000016}},{"attributes":{"ID":305446,"DIS_CODE":0,"TOWNNAME":"鹽水區","LI":"橋南里","LIN":"8鄰","STREET":"新太路","SECT":" ","MAREA":" ","LANE":"１２巷","ALLEY":" ","HOUSE_NO":"４１號","E_COORD97":175422.13,"N_COORD97":2578624.0600000001,"ADDRESS":"新太路１２巷４１號","OBJECTID":305438},"geometry":{"x":175422.13000000082,"y":2578624.0600000024}},{"attributes":{"ID":305447,"DIS_CODE":0,"TOWNNAME":"鹽水區","LI":"橋南里","LIN":"8鄰","STREET":"新太路","SECT":" ","MAREA":" ","LANE":"１２巷","ALLEY":" ","HOUSE_NO":"４２號","E_COORD97":175418.39999999999,"N_COORD97":2578647.8599999999,"ADDRESS":"新太路１２巷４２號","OBJECTID":305439},"geometry":{"x":175418.40000000037,"y":2578647.8600000013}},{"attributes":{"ID":305448,"DIS_CODE":0,"TOWNNAME":"鹽水區","LI":"橋南里","LIN":"8鄰","STREET":"新太路","SECT":" ","MAREA":" ","LANE":"１２巷","ALLEY":" ","HOUSE_NO":"４３號","E_COORD97":175416.82000000001,"N_COORD97":2578622.6499999999,"ADDRESS":"新太路１２巷４３號","OBJECTID":305440},"geometry":{"x":175416.82000000123,"y":2578622.6500000041}},{"attributes":{"ID":305449,"DIS_CODE":0,"TOWNNAME":"鹽水區","LI":"橋南里","LIN":"8鄰","STREET":"新太路","SECT":" ","MAREA":" ","LANE":"１２巷","ALLEY":" ","HOUSE_NO":"４６號","E_COORD97":175414.56,"N_COORD97":2578646.54,"ADDRESS":"新太路１２巷４６號","OBJECTID":305441},"geometry":{"x":175414.55999999959,"y":2578646.540000001}},{"attributes":{"ID":305450,"DIS_CODE":0,"TOWNNAME":"鹽水區","LI":"橋南里","LIN":"8鄰","STREET":"新太路","SECT":" ","MAREA":" ","LANE":"１２巷","ALLEY":" ","HOUSE_NO":"４８號","E_COORD97":175410.73000000001,"N_COORD97":2578645.2200000002,"ADDRESS":"新太路１２巷４８號","OBJECTID":305442},"geometry":{"x":175410.73000000138,"y":2578645.2200000007}},{"attributes":{"ID":305451,"DIS_CODE":0,"TOWNNAME":"鹽水區","LI":"橋南里","LIN":"8鄰","STREET":"新太路","SECT":" ","MAREA":" ","LANE":"１２巷","ALLEY":" ","HOUSE_NO":"５０號","E_COORD97":175406.89000000001,"N_COORD97":2578643.8999999999,"ADDRESS":"新太路１２巷５０號","OBJECTID":305443},"geometry":{"x":175406.8900000006,"y":2578643.9000000004}},{"attributes":{"ID":305452,"DIS_CODE":0,"TOWNNAME":"鹽水區","LI":"橋南里","LIN":"8鄰","STREET":"新太路","SECT":" ","MAREA":" ","LANE":"１２巷","ALLEY":" ","HOUSE_NO":"５號","E_COORD97":175492.53,"N_COORD97":2578645.5,"ADDRESS":"新太路１２巷５號","OBJECTID":305444},"geometry":{"x":175492.53000000212,"y":2578645.5}},{"attributes":{"ID":305453,"DIS_CODE":0,"TOWNNAME":"安平區","LI":"文平里","LIN":"19鄰","STREET":"健康一街","SECT":" ","MAREA":" ","LANE":"５７巷","ALLEY":" ","HOUSE_NO":"１號","E_COORD97":165916.62,"N_COORD97":2542790.4500000002,"ADDRESS":"健康一街５７巷１號","OBJECTID":305445},"geometry":{"x":165916.62000000011,"y":2542790.4500000011}},{"attributes":{"ID":305454,"DIS_CODE":0,"TOWNNAME":"安平區","LI":"華平里","LIN":"26鄰","STREET":"健康二街","SECT":" ","MAREA":" ","LANE":"４１９巷","ALLEY":" ","HOUSE_NO":"１１號","E_COORD97":165273.17999999999,"N_COORD97":2543708.1800000002,"ADDRESS":"健康二街４１９巷１１號","OBJECTID":305446},"geometry":{"x":165273.1799999997,"y":2543708.1800000016}},{"attributes":{"ID":305455,"DIS_CODE":0,"TOWNNAME":"安平區","LI":"華平里","LIN":"26鄰","STREET":"健康二街","SECT":" ","MAREA":" ","LANE":"４１９巷","ALLEY":" ","HOUSE_NO":"１５號","E_COORD97":165258.57999999999,"N_COORD97":2543710.4399999999,"ADDRESS":"健康二街４１９巷１５號","OBJECTID":305447},"geometry":{"x":165258.58000000101,"y":2543710.4400000013}},{"attributes":{"ID":305456,"DIS_CODE":0,"TOWNNAME":"安平區","LI":"華平里","LIN":"26鄰","STREET":"健康二街","SECT":" ","MAREA":" ","LANE":"４１９巷","ALLEY":" ","HOUSE_NO":"１７號","E_COORD97":165253.98999999999,"N_COORD97":2543711.3300000001,"ADDRESS":"健康二街４１９巷１７號","OBJECTID":305448},"geometry":{"x":165253.99000000115,"y":2543711.3300000019}},{"attributes":{"ID":305457,"DIS_CODE":0,"TOWNNAME":"安平區","LI":"文平里","LIN":"19鄰","STREET":"健康一街","SECT":" ","MAREA":" ","LANE":" ","ALLEY":" ","HOUSE_NO":"５３號","E_COORD97":165925.70000000001,"N_COORD97":2542778.4700000002,"ADDRESS":"健康一街５３號","OBJECTID":305449},"geometry":{"x":165925.70000000112,"y":2542778.4700000025}},{"attributes":{"ID":305458,"DIS_CODE":0,"TOWNNAME":"安平區","LI":"華平里","LIN":"26鄰","STREET":"健康二街","SECT":" ","MAREA":" ","LANE":"４１９巷","ALLEY":" ","HOUSE_NO":"１９號","E_COORD97":165249.85999999999,"N_COORD97":2543712.3399999999,"ADDRESS":"健康二街４１９巷１９號","OBJECTID":305450},"geometry":{"x":165249.86000000127,"y":2543712.3399999999}},{"attributes":{"ID":305459,"DIS_CODE":0,"TOWNNAME":"安平區","LI":"華平里","LIN":"26鄰","STREET":"健康二街","SECT":" ","MAREA":" ","LANE":"４１９巷","ALLEY":" ","HOUSE_NO":"１號","E_COORD97":165295.44,"N_COORD97":2543704.7200000002,"ADDRESS":"健康二街４１９巷１號","OBJECTID":305451},"geometry":{"x":165295.44000000134,"y":2543704.7200000044}},{"attributes":{"ID":305460,"DIS_CODE":0,"TOWNNAME":"安平區","LI":"文平里","LIN":"19鄰","STREET":"健康一街","SECT":" ","MAREA":" ","LANE":" ","ALLEY":" ","HOUSE_NO":"５９號","E_COORD97":165927.03,"N_COORD97":2542802.7000000002,"ADDRESS":"健康一街５９號","OBJECTID":305452},"geometry":{"x":165927.03000000119,"y":2542802.7000000011}},{"attributes":{"ID":305461,"DIS_CODE":0,"TOWNNAME":"安平區","LI":"文平里","LIN":"19鄰","STREET":"健康一街","SECT":" ","MAREA":" ","LANE":" ","ALLEY":" ","HOUSE_NO":"６１號","E_COORD97":165927.73000000001,"N_COORD97":2542807.0899999999,"ADDRESS":"健康一街６１號","OBJECTID":305453},"geometry":{"x":165927.73000000138,"y":2542807.0900000017}},{"attributes":{"ID":305462,"DIS_CODE":0,"TOWNNAME":"安平區","LI":"怡平里","LIN":"20鄰","STREET":"文平路","SECT":" ","MAREA":" ","LANE":" ","ALLEY":" ","HOUSE_NO":"４４７號","E_COORD97":165795.45999999999,"N_COORD97":2543823.54,"ADDRESS":"文平路４４７號","OBJECTID":305454},"geometry":{"x":165795.45999999996,"y":2543823.540000001}},{"attributes":{"ID":305463,"DIS_CODE":0,"TOWNNAME":"安平區","LI":"華平里","LIN":"13鄰","STREET":"健康二街","SECT":" ","MAREA":" ","LANE":" ","ALLEY":" ","HOUSE_NO":"３５３號","E_COORD97":165294.95000000001,"N_COORD97":2543559.2200000002,"ADDRESS":"健康二街３５３號","OBJECTID":305455},"geometry":{"x":165294.95000000112,"y":2543559.2200000044}},{"attributes":{"ID":305464,"DIS_CODE":0,"TOWNNAME":"安平區","LI":"怡平里","LIN":"8鄰","STREET":"慶平路","SECT":" ","MAREA":" ","LANE":" ","ALLEY":" ","HOUSE_NO":"２０１號","E_COORD97":165777.81,"N_COORD97":2544170.1000000001,"ADDRESS":"慶平路２０１號","OBJECTID":305456},"geometry":{"x":165777.80999999959,"y":2544170.1000000015}},{"attributes":{"ID":305465,"DIS_CODE":0,"TOWNNAME":"安平區","LI":"怡平里","LIN":"8鄰","STREET":"慶平路","SECT":" ","MAREA":" ","LANE":" ","ALLEY":" ","HOUSE_NO":"２０３號","E_COORD97":165771.67999999999,"N_COORD97":2544169.9199999999,"ADDRESS":"慶平路２０３號","OBJECTID":305457},"geometry":{"x":165771.6799999997,"y":2544169.9199999999}},{"attributes":{"ID":305466,"DIS_CODE":0,"TOWNNAME":"安平區","LI":"怡平里","LIN":"8鄰","STREET":"慶平路","SECT":" ","MAREA":" ","LANE":" ","ALLEY":" ","HOUSE_NO":"２０５號","E_COORD97":165765.92000000001,"N_COORD97":2544169.73,"ADDRESS":"慶平路２０５號","OBJECTID":305458},"geometry":{"x":165765.92000000179,"y":2544169.7300000023}},{"attributes":{"ID":305467,"DIS_CODE":0,"TOWNNAME":"安平區","LI":"建平里","LIN":"24鄰","STREET":"建平九街","SECT":" ","MAREA":" ","LANE":"６０巷","ALLEY":" ","HOUSE_NO":"２９號","E_COORD97":166023.73999999999,"N_COORD97":2543616.75,"ADDRESS":"建平九街６０巷２９號","OBJECTID":305459},"geometry":{"x":166023.74000000115,"y":2543616.7500000019}},{"attributes":{"ID":305468,"DIS_CODE":0,"TOWNNAME":"鹽水區","LI":"橋南里","LIN":"8鄰","STREET":"新太路","SECT":" ","MAREA":" ","LANE":"１２巷","ALLEY":" ","HOUSE_NO":"６號","E_COORD97":175487.42000000001,"N_COORD97":2578671.5899999999,"ADDRESS":"新太路１２巷６號","OBJECTID":305460},"geometry":{"x":175487.41999999993,"y":2578671.5899999999}},{"attributes":{"ID":305469,"DIS_CODE":0,"TOWNNAME":"鹽水區","LI":"橋南里","LIN":"8鄰","STREET":"新太路","SECT":" ","MAREA":" ","LANE":"１２巷","ALLEY":" ","HOUSE_NO":"７號","E_COORD97":175488.62,"N_COORD97":2578644.2999999998,"ADDRESS":"新太路１２巷７號","OBJECTID":305461},"geometry":{"x":175488.62000000104,"y":2578644.3000000007}},{"attributes":{"ID":305470,"DIS_CODE":0,"TOWNNAME":"鹽水區","LI":"橋南里","LIN":"8鄰","STREET":"新太路","SECT":" ","MAREA":" ","LANE":"１２巷","ALLEY":" ","HOUSE_NO":"８號","E_COORD97":175483.59,"N_COORD97":2578670.2799999998,"ADDRESS":"新太路１２巷８號","OBJECTID":305462},"geometry":{"x":175483.59000000078,"y":2578670.2799999993}},{"attributes":{"ID":305471,"DIS_CODE":0,"TOWNNAME":"鹽水區","LI":"橋南里","LIN":"8鄰","STREET":"新太路","SECT":" ","MAREA":" ","LANE":"１２巷","ALLEY":" ","HOUSE_NO":"９號","E_COORD97":175484.70999999999,"N_COORD97":2578643.1099999999,"ADDRESS":"新太路１２巷９號","OBJECTID":305463},"geometry":{"x":175484.71000000089,"y":2578643.1100000013}},{"attributes":{"ID":305472,"DIS_CODE":0,"TOWNNAME":"新市區","LI":"港墘里","LIN":"17鄰","STREET":"長安街","SECT":" ","MAREA":" ","LANE":" ","ALLEY":" ","HOUSE_NO":"８０號","E_COORD97":178159.75,"N_COORD97":2552666.6699999999,"ADDRESS":"長安街８０號","OBJECTID":305464},"geometry":{"x":178159.75000000093,"y":2552666.6700000018}},{"attributes":{"ID":305473,"DIS_CODE":0,"TOWNNAME":"鹽水區","LI":"橋南里","LIN":"8鄰","STREET":"新太路","SECT":" ","MAREA":" ","LANE":"２４巷","ALLEY":" ","HOUSE_NO":"２０號","E_COORD97":175473.47,"N_COORD97":2578626.2000000002,"ADDRESS":"新太路２４巷２０號","OBJECTID":305465},"geometry":{"x":175473.46999999974,"y":2578626.1999999993}},{"attributes":{"ID":305474,"DIS_CODE":0,"TOWNNAME":"歸仁區","LI":"大廟里","LIN":"3鄰","STREET":"保大路","SECT":"三段","MAREA":" ","LANE":"５５巷","ALLEY":" ","HOUSE_NO":"５５號","E_COORD97":176449.09175399999,"N_COORD97":2543944.1832599998,"ADDRESS":"保大路三段５５巷５５號","OBJECTID":305466},"geometry":{"x":176449.09175400063,"y":2543944.1832560021}},{"attributes":{"ID":305475,"DIS_CODE":0,"TOWNNAME":"歸仁區","LI":"大廟里","LIN":"3鄰","STREET":"保大路","SECT":"三段","MAREA":" ","LANE":"５５巷","ALLEY":" ","HOUSE_NO":"５７號","E_COORD97":176455.02158900001,"N_COORD97":2543933.59993,"ADDRESS":"保大路三段５５巷５７號","OBJECTID":305467},"geometry":{"x":176455.02158899978,"y":2543933.5999280009}},{"attributes":{"ID":305476,"DIS_CODE":0,"TOWNNAME":"安平區","LI":"建平里","LIN":"25鄰","STREET":"建平九街","SECT":" ","MAREA":" ","LANE":"６０巷","ALLEY":" ","HOUSE_NO":"４８號地下層","E_COORD97":166068.97,"N_COORD97":2543610.0899999999,"ADDRESS":"建平九街６０巷４８號地下層","OBJECTID":305468},"geometry":{"x":166068.97000000067,"y":2543610.0900000036}},{"attributes":{"ID":305477,"DIS_CODE":0,"TOWNNAME":"安平區","LI":"華平里","LIN":"4鄰","STREET":"怡平路","SECT":" ","MAREA":" ","LANE":"４６８巷","ALLEY":" ","HOUSE_NO":"２４號","E_COORD97":165244.09,"N_COORD97":2543896.9900000002,"ADDRESS":"怡平路４６８巷２４號","OBJECTID":305469},"geometry":{"x":165244.08999999985,"y":2543896.9900000021}},{"attributes":{"ID":305478,"DIS_CODE":0,"TOWNNAME":"玉井區","LI":"望明里","LIN":"1鄰","STREET":" ","SECT":" ","MAREA":"望明","LANE":" ","ALLEY":" ","HOUSE_NO":"１９之１號","E_COORD97":194312.81594,"N_COORD97":2556118.7044299999,"ADDRESS":"望明１９之１號","OBJECTID":305470},"geometry":{"x":194312.81594000012,"y":2556118.7044260036}},{"attributes":{"ID":305479,"DIS_CODE":0,"TOWNNAME":"鹽水區","LI":"橋南里","LIN":"8鄰","STREET":"新太路","SECT":" ","MAREA":" ","LANE":"２４巷","ALLEY":" ","HOUSE_NO":"２２號","E_COORD97":175469.54999999999,"N_COORD97":2578625.1499999999,"ADDRESS":"新太路２４巷２２號","OBJECTID":305471},"geometry":{"x":175469.54999999981,"y":2578625.1500000004}},{"attributes":{"ID":305480,"DIS_CODE":0,"TOWNNAME":"新市區","LI":"港墘里","LIN":"17鄰","STREET":"長安街","SECT":" ","MAREA":" ","LANE":" ","ALLEY":" ","HOUSE_NO":"８２號","E_COORD97":178155.63,"N_COORD97":2552666.0600000001,"ADDRESS":"長安街８２號","OBJECTID":305472},"geometry":{"x":178155.62999999989,"y":2552666.0600000005}},{"attributes":{"ID":305481,"DIS_CODE":0,"TOWNNAME":"新市區","LI":"港墘里","LIN":"17鄰","STREET":"長安街","SECT":" ","MAREA":" ","LANE":" ","ALLEY":" ","HOUSE_NO":"８６號","E_COORD97":178151.09,"N_COORD97":2552665.3599999999,"ADDRESS":"長安街８６號","OBJECTID":305473},"geometry":{"x":178151.08999999985,"y":2552665.3599999994}},{"attributes":{"ID":305482,"DIS_CODE":0,"TOWNNAME":"新市區","LI":"港墘里","LIN":"17鄰","STREET":"長安街","SECT":" ","MAREA":" ","LANE":" ","ALLEY":" ","HOUSE_NO":"８８號","E_COORD97":178146.26000000001,"N_COORD97":2552664.9399999999,"ADDRESS":"長安街８８號","OBJECTID":305474},"geometry":{"x":178146.25999999978,"y":2552664.9399999995}},{"attributes":{"ID":305483,"DIS_CODE":0,"TOWNNAME":"新市區","LI":"港墘里","LIN":"17鄰","STREET":"長安街","SECT":" ","MAREA":" ","LANE":" ","ALLEY":" ","HOUSE_NO":"９０之１號","E_COORD97":178139.29000000001,"N_COORD97":2552663.54,"ADDRESS":"長安街９０之１號","OBJECTID":305475},"geometry":{"x":178139.29000000004,"y":2552663.5399999991}},{"attributes":{"ID":305484,"DIS_CODE":0,"TOWNNAME":"麻豆區","LI":"大埕里","LIN":"17鄰","STREET":"平等路","SECT":" ","MAREA":" ","LANE":" ","ALLEY":" ","HOUSE_NO":"３５號之８","E_COORD97":172948.10000000001,"N_COORD97":2565005.71,"ADDRESS":"平等路３５號之８","OBJECTID":305476},"geometry":{"x":172948.09999999963,"y":2565005.7100000009}},{"attributes":{"ID":305485,"DIS_CODE":0,"TOWNNAME":"玉井區","LI":"望明里","LIN":"3鄰","STREET":" ","SECT":" ","MAREA":"望明","LANE":" ","ALLEY":" ","HOUSE_NO":"３０號","E_COORD97":194517.04000000001,"N_COORD97":2556042.25,"ADDRESS":"望明３０號","OBJECTID":305477},"geometry":{"x":194517.04000000004,"y":2556042.2500000019}},{"attributes":{"ID":305486,"DIS_CODE":0,"TOWNNAME":"北區","LI":"東興里","LIN":"7鄰","STREET":"小東路","SECT":" ","MAREA":" ","LANE":"３０７巷","ALLEY":" ","HOUSE_NO":"１號","E_COORD97":171124.04000000001,"N_COORD97":2544425.1099999999,"ADDRESS":"小東路３０７巷１號","OBJECTID":305478},"geometry":{"x":171124.04000000097,"y":2544425.1099999994}},{"attributes":{"ID":305487,"DIS_CODE":0,"TOWNNAME":"鹽水區","LI":"橋南里","LIN":"8鄰","STREET":"新太路","SECT":" ","MAREA":" ","LANE":"２４巷","ALLEY":" ","HOUSE_NO":"２４號","E_COORD97":175465.82999999999,"N_COORD97":2578623.8399999999,"ADDRESS":"新太路２４巷２４號","OBJECTID":305479},"geometry":{"x":175465.83000000007,"y":2578623.839999998}},{"attributes":{"ID":305488,"DIS_CODE":0,"TOWNNAME":"鹽水區","LI":"橋南里","LIN":"8鄰","STREET":"新太路","SECT":" ","MAREA":" ","LANE":"２４巷","ALLEY":" ","HOUSE_NO":"２６號","E_COORD97":175461.67999999999,"N_COORD97":2578622.7599999998,"ADDRESS":"新太路２４巷２６號","OBJECTID":305480},"geometry":{"x":175461.6799999997,"y":2578622.7599999998}},{"attributes":{"ID":305489,"DIS_CODE":0,"TOWNNAME":"鹽水區","LI":"橋南里","LIN":"8鄰","STREET":"新太路","SECT":" ","MAREA":" ","LANE":"２４巷","ALLEY":" ","HOUSE_NO":"２８號","E_COORD97":175457.64000000001,"N_COORD97":2578621.27,"ADDRESS":"新太路２４巷２８號","OBJECTID":305481},"geometry":{"x":175457.6400000006,"y":2578621.2700000014}},{"attributes":{"ID":305490,"DIS_CODE":0,"TOWNNAME":"鹽水區","LI":"橋南里","LIN":"8鄰","STREET":"新太路","SECT":" ","MAREA":" ","LANE":"２４巷","ALLEY":" ","HOUSE_NO":"２號","E_COORD97":175503.92999999999,"N_COORD97":2578635.1899999999,"ADDRESS":"新太路２４巷２號","OBJECTID":305482},"geometry":{"x":175503.9299999997,"y":2578635.1900000013}},{"attributes":{"ID":305491,"DIS_CODE":0,"TOWNNAME":"鹽水區","LI":"橋南里","LIN":"8鄰","STREET":"新太路","SECT":" ","MAREA":" ","LANE":"２４巷","ALLEY":" ","HOUSE_NO":"３０號","E_COORD97":175453.87,"N_COORD97":2578620.0600000001,"ADDRESS":"新太路２４巷３０號","OBJECTID":305483},"geometry":{"x":175453.87000000011,"y":2578620.0600000042}},{"attributes":{"ID":305492,"DIS_CODE":0,"TOWNNAME":"鹽水區","LI":"橋南里","LIN":"8鄰","STREET":"新太路","SECT":" ","MAREA":" ","LANE":"２４巷","ALLEY":" ","HOUSE_NO":"３２號","E_COORD97":175449.89000000001,"N_COORD97":2578618.6699999999,"ADDRESS":"新太路２４巷３２號","OBJECTID":305484},"geometry":{"x":175449.88999999966,"y":2578618.6700000037}},{"attributes":{"ID":305493,"DIS_CODE":0,"TOWNNAME":"鹽水區","LI":"橋南里","LIN":"8鄰","STREET":"新太路","SECT":" ","MAREA":" ","LANE":"２４巷","ALLEY":" ","HOUSE_NO":"３４號","E_COORD97":175446.19,"N_COORD97":2578617.5800000001,"ADDRESS":"新太路２４巷３４號","OBJECTID":305485},"geometry":{"x":175446.19000000134,"y":2578617.5800000001}},{"attributes":{"ID":305494,"DIS_CODE":0,"TOWNNAME":"鹽水區","LI":"橋南里","LIN":"8鄰","STREET":"新太路","SECT":" ","MAREA":" ","LANE":"２４巷","ALLEY":" ","HOUSE_NO":"３６號","E_COORD97":175442.29999999999,"N_COORD97":2578616.46,"ADDRESS":"新太路２４巷３６號","OBJECTID":305486},"geometry":{"x":175442.29999999981,"y":2578616.4600000009}},{"attributes":{"ID":305495,"DIS_CODE":0,"TOWNNAME":"鹽水區","LI":"橋南里","LIN":"8鄰","STREET":"新太路","SECT":" ","MAREA":" ","LANE":"２４巷","ALLEY":" ","HOUSE_NO":"３８號","E_COORD97":175438.60000000001,"N_COORD97":2578615.25,"ADDRESS":"新太路２４巷３８號","OBJECTID":305487},"geometry":{"x":175438.59999999963,"y":2578615.2500000019}},{"attributes":{"ID":305496,"DIS_CODE":0,"TOWNNAME":"鹽水區","LI":"橋南里","LIN":"8鄰","STREET":"新太路","SECT":" ","MAREA":" ","LANE":"２４巷","ALLEY":" ","HOUSE_NO":"４０號","E_COORD97":175434.82000000001,"N_COORD97":2578614.2400000002,"ADDRESS":"新太路２４巷４０號","OBJECTID":305488},"geometry":{"x":175434.82000000123,"y":2578614.2400000002}},{"attributes":{"ID":305497,"DIS_CODE":0,"TOWNNAME":"鹽水區","LI":"橋南里","LIN":"8鄰","STREET":"新太路","SECT":" ","MAREA":" ","LANE":"２４巷","ALLEY":" ","HOUSE_NO":"４２號","E_COORD97":175430.60000000001,"N_COORD97":2578612.8999999999,"ADDRESS":"新太路２４巷４２號","OBJECTID":305489},"geometry":{"x":175430.60000000056,"y":2578612.9000000004}},{"attributes":{"ID":305498,"DIS_CODE":0,"TOWNNAME":"鹽水區","LI":"橋南里","LIN":"8鄰","STREET":"新太路","SECT":" ","MAREA":" ","LANE":"２４巷","ALLEY":" ","HOUSE_NO":"４６號","E_COORD97":175427.06,"N_COORD97":2578611.8799999999,"ADDRESS":"新太路２４巷４６號","OBJECTID":305490},"geometry":{"x":175427.05999999866,"y":2578611.879999999}},{"attributes":{"ID":305499,"DIS_CODE":0,"TOWNNAME":"新營區","LI":"護鎮里","LIN":"2鄰","STREET":"建國路","SECT":" ","MAREA":" ","LANE":" ","ALLEY":" ","HOUSE_NO":"２１１號","E_COORD97":179378.10037,"N_COORD97":2581020.33556,"ADDRESS":"建２１１號","OBJECTID":305491},"geometry":{"x":179378.10037000012,"y":2581020.3355599996}},{"attributes":{"ID":305500,"DIS_CODE":0,"TOWNNAME":"鹽水區","LI":"橋南里","LIN":"8鄰","STREET":"新太路","SECT":" ","MAREA":" ","LANE":"２４巷","ALLEY":" ","HOUSE_NO":"４８號","E_COORD97":175422.70000000001,"N_COORD97":2578610.5,"ADDRESS":"新太路２４巷４８號","OBJECTID":305492},"geometry":{"x":175422.70000000019,"y":2578610.5000000019}},{"attributes":{"ID":305501,"DIS_CODE":0,"TOWNNAME":"鹽水區","LI":"橋南里","LIN":"8鄰","STREET":"新太路","SECT":" ","MAREA":" ","LANE":"２４巷","ALLEY":" ","HOUSE_NO":"６號","E_COORD97":175500.25,"N_COORD97":2578634,"ADDRESS":"新太路２４巷６號","OBJECTID":305493},"geometry":{"x":175500.25,"y":2578634.0000000019}},{"attributes":{"ID":305502,"DIS_CODE":0,"TOWNNAME":"鹽水區","LI":"橋南里","LIN":"8鄰","STREET":"新太路","SECT":" ","MAREA":" ","LANE":"２４巷","ALLEY":" ","HOUSE_NO":"８０號","E_COORD97":175131.38,"N_COORD97":2578503.1600000001,"ADDRESS":"新太路２４巷８０號","OBJECTID":305494},"geometry":{"x":175131.37999999989,"y":2578503.1600000001}},{"attributes":{"ID":305503,"DIS_CODE":0,"TOWNNAME":"鹽水區","LI":"橋南里","LIN":"8鄰","STREET":"新太路","SECT":" ","MAREA":" ","LANE":"２４巷","ALLEY":" ","HOUSE_NO":"８號","E_COORD97":175496.5,"N_COORD97":2578633.0099999998,"ADDRESS":"新太路２４巷８號","OBJECTID":305495},"geometry":{"x":175496.50000000093,"y":2578633.0100000035}},{"attributes":{"ID":305504,"DIS_CODE":0,"TOWNNAME":"鹽水區","LI":"橋南里","LIN":"8鄰","STREET":"新太路","SECT":" ","MAREA":" ","LANE":"６８巷","ALLEY":" ","HOUSE_NO":"１２號","E_COORD97":175273.94,"N_COORD97":2578395.1400000001,"ADDRESS":"新太路６８巷１２號","OBJECTID":305496},"geometry":{"x":175273.94000000041,"y":2578395.1400000006}},{"attributes":{"ID":305505,"DIS_CODE":0,"TOWNNAME":"安平區","LI":"億載里","LIN":"8鄰","STREET":"永華十一街","SECT":" ","MAREA":" ","LANE":"４９巷","ALLEY":" ","HOUSE_NO":"１８號","E_COORD97":164030.37,"N_COORD97":2543492.02,"ADDRESS":"永華十一街４９巷１８號","OBJECTID":305497},"geometry":{"x":164030.37000000011,"y":2543492.0200000014}},{"attributes":{"ID":305506,"DIS_CODE":0,"TOWNNAME":"安平區","LI":"億載里","LIN":"8鄰","STREET":"郡平路","SECT":" ","MAREA":" ","LANE":"４６０巷","ALLEY":" ","HOUSE_NO":"１６號","E_COORD97":163956.87,"N_COORD97":2543439.3399999999,"ADDRESS":"郡平路４６０巷１６號","OBJECTID":305498},"geometry":{"x":163956.87000000011,"y":2543439.3400000017}},{"attributes":{"ID":305507,"DIS_CODE":0,"TOWNNAME":"南區","LI":"大忠里","LIN":"8鄰","STREET":"中華南路","SECT":"一段","MAREA":" ","LANE":"６６巷","ALLEY":" ","HOUSE_NO":"１１號","E_COORD97":169292.39999999999,"N_COORD97":2541414.2799999998,"ADDRESS":"中華南路一段６６巷１１號","OBJECTID":305499},"geometry":{"x":169292.39999999944,"y":2541414.2799999975}},{"attributes":{"ID":305508,"DIS_CODE":0,"TOWNNAME":"麻豆區","LI":"大埕里","LIN":"17鄰","STREET":"平等路","SECT":" ","MAREA":" ","LANE":" ","ALLEY":" ","HOUSE_NO":"３５號之９","E_COORD97":172942.38,"N_COORD97":2565005.79,"ADDRESS":"平等路３５號之９","OBJECTID":305500},"geometry":{"x":172942.38000000082,"y":2565005.790000001}},{"attributes":{"ID":305509,"DIS_CODE":0,"TOWNNAME":"北區","LI":"東興里","LIN":"19鄰","STREET":"小東路","SECT":" ","MAREA":" ","LANE":"３０７巷","ALLEY":" ","HOUSE_NO":"１１７號","E_COORD97":171039.53,"N_COORD97":2544597.3399999999,"ADDRESS":"小東路３０７巷１１７號","OBJECTID":305501},"geometry":{"x":171039.53000000119,"y":2544597.3399999999}},{"attributes":{"ID":305510,"DIS_CODE":0,"TOWNNAME":"北區","LI":"中樓里","LIN":"8鄰","STREET":"東豐路","SECT":" ","MAREA":" ","LANE":"８５巷","ALLEY":" ","HOUSE_NO":"１６號","E_COORD97":169706.91,"N_COORD97":2544960.0499999998,"ADDRESS":"東豐路８５巷１６號","OBJECTID":305502},"geometry":{"x":169706.91000000015,"y":2544960.0500000007}},{"attributes":{"ID":305511,"DIS_CODE":0,"TOWNNAME":"北區","LI":"中樓里","LIN":"7鄰","STREET":"東豐路","SECT":" ","MAREA":" ","LANE":"１０５巷","ALLEY":" ","HOUSE_NO":"３號","E_COORD97":169719.87,"N_COORD97":2544938.1499999999,"ADDRESS":"東豐路１０５巷３號","OBJECTID":305503},"geometry":{"x":169719.87000000104,"y":2544938.1500000004}},{"attributes":{"ID":305512,"DIS_CODE":0,"TOWNNAME":"北區","LI":"五福里","LIN":"4鄰","STREET":"北華街","SECT":" ","MAREA":" ","LANE":"３０９巷","ALLEY":" ","HOUSE_NO":"１號","E_COORD97":168385.14999999999,"N_COORD97":2544617.6499999999,"ADDRESS":"北華街３０９巷１號","OBJECTID":305504},"geometry":{"x":168385.15000000037,"y":2544617.6500000022}},{"attributes":{"ID":305513,"DIS_CODE":0,"TOWNNAME":"北區","LI":"五福里","LIN":"4鄰","STREET":"北華街","SECT":" ","MAREA":" ","LANE":"３０９巷","ALLEY":" ","HOUSE_NO":"１號地下層","E_COORD97":168385.14999999999,"N_COORD97":2544617.6499999999,"ADDRESS":"北華街３０９巷１號地下層","OBJECTID":305505},"geometry":{"x":168385.15000000037,"y":2544617.6500000022}},{"attributes":{"ID":305514,"DIS_CODE":0,"TOWNNAME":"北區","LI":"五福里","LIN":"4鄰","STREET":"北華街","SECT":" ","MAREA":" ","LANE":"３０９巷","ALLEY":" ","HOUSE_NO":"３號","E_COORD97":168378.47,"N_COORD97":2544614.3799999999,"ADDRESS":"北華街３０９巷３號","OBJECTID":305506},"geometry":{"x":168378.47000000067,"y":2544614.3800000008}},{"attributes":{"ID":305515,"DIS_CODE":0,"TOWNNAME":"北區","LI":"五福里","LIN":"4鄰","STREET":"北華街","SECT":" ","MAREA":" ","LANE":"３０９巷","ALLEY":" ","HOUSE_NO":"３號之１","E_COORD97":168374.32999999999,"N_COORD97":2544605.9300000002,"ADDRESS":"北華街３０９巷３號之１","OBJECTID":305507},"geometry":{"x":168374.33000000101,"y":2544605.9299999997}},{"attributes":{"ID":305516,"DIS_CODE":0,"TOWNNAME":"左鎮區","LI":"榮和里","LIN":"7鄰","STREET":" ","SECT":" ","MAREA":"菜寮","LANE":" ","ALLEY":" ","HOUSE_NO":"８１號","E_COORD97":187691.327143,"N_COORD97":2551364.4507900001,"ADDRESS":"菜寮８１號","OBJECTID":305508},"geometry":{"x":187691.32714300044,"y":2551364.4507899992}},{"attributes":{"ID":305517,"DIS_CODE":0,"TOWNNAME":"左鎮區","LI":"榮和里","LIN":"9鄰","STREET":" ","SECT":" ","MAREA":"菜寮","LANE":" ","ALLEY":" ","HOUSE_NO":"８２號","E_COORD97":187715.894413,"N_COORD97":2551373.5524499998,"ADDRESS":"菜寮８２號","OBJECTID":305509},"geometry":{"x":187715.8944130009,"y":2551373.5524509996}},{"attributes":{"ID":305518,"DIS_CODE":0,"TOWNNAME":"左鎮區","LI":"榮和里","LIN":"4鄰","STREET":" ","SECT":" ","MAREA":"菜寮","LANE":" ","ALLEY":" ","HOUSE_NO":"３７號","E_COORD97":186990.979865,"N_COORD97":2551019.44747,"ADDRESS":"菜寮３７號","OBJECTID":305510},"geometry":{"x":186990.97986500058,"y":2551019.4474660028}},{"attributes":{"ID":305519,"DIS_CODE":0,"TOWNNAME":"南區","LI":"大忠里","LIN":"8鄰","STREET":"中華南路","SECT":"一段","MAREA":" ","LANE":"６６巷","ALLEY":" ","HOUSE_NO":"１３號","E_COORD97":169288.19,"N_COORD97":2541412.0499999998,"ADDRESS":"中華南路一段６６巷１３號","OBJECTID":305511},"geometry":{"x":169288.19000000041,"y":2541412.0500000026}},{"attributes":{"ID":305520,"DIS_CODE":0,"TOWNNAME":"南區","LI":"大忠里","LIN":"8鄰","STREET":"中華南路","SECT":"一段","MAREA":" ","LANE":"６６巷","ALLEY":" ","HOUSE_NO":"１號","E_COORD97":169315.09,"N_COORD97":2541408.4199999999,"ADDRESS":"中華南路一段６６巷１號","OBJECTID":305512},"geometry":{"x":169315.09000000078,"y":2541408.4200000018}},{"attributes":{"ID":305521,"DIS_CODE":0,"TOWNNAME":"南區","LI":"大忠里","LIN":"8鄰","STREET":"中華南路","SECT":"一段","MAREA":" ","LANE":"６６巷","ALLEY":" ","HOUSE_NO":"３號","E_COORD97":169308.07999999999,"N_COORD97":2541414.2799999998,"ADDRESS":"中華南路一段６６巷３號","OBJECTID":305513},"geometry":{"x":169308.08000000101,"y":2541414.2799999975}},{"attributes":{"ID":305522,"DIS_CODE":0,"TOWNNAME":"南區","LI":"大忠里","LIN":"8鄰","STREET":"中華南路","SECT":"一段","MAREA":" ","LANE":"６６巷","ALLEY":" ","HOUSE_NO":"５號","E_COORD97":169305.84,"N_COORD97":2541418.4700000002,"ADDRESS":"中華南路一段６６巷５號","OBJECTID":305514},"geometry":{"x":169305.83999999892,"y":2541418.4700000025}},{"attributes":{"ID":305523,"DIS_CODE":0,"TOWNNAME":"麻豆區","LI":"大埕里","LIN":"17鄰","STREET":"平等路","SECT":" ","MAREA":" ","LANE":" ","ALLEY":" ","HOUSE_NO":"５１號之１０","E_COORD97":172970.97,"N_COORD97":2565021.5299999998,"ADDRESS":"平等路５１號之１０","OBJECTID":305515},"geometry":{"x":172970.96999999974,"y":2565021.5300000012}},{"attributes":{"ID":305524,"DIS_CODE":0,"TOWNNAME":"麻豆區","LI":"大埕里","LIN":"17鄰","STREET":"平等路","SECT":" ","MAREA":" ","LANE":" ","ALLEY":" ","HOUSE_NO":"５１號之１１","E_COORD97":172966.73000000001,"N_COORD97":2565021.3799999999,"ADDRESS":"平等路５１號之１１","OBJECTID":305516},"geometry":{"x":172966.73000000045,"y":2565021.3800000008}},{"attributes":{"ID":305525,"DIS_CODE":0,"TOWNNAME":"麻豆區","LI":"大埕里","LIN":"17鄰","STREET":"平等路","SECT":" ","MAREA":" ","LANE":" ","ALLEY":" ","HOUSE_NO":"５１號之１５","E_COORD97":172949.23000000001,"N_COORD97":2565018.9399999999,"ADDRESS":"平等路５１號之１５","OBJECTID":305517},"geometry":{"x":172949.23000000138,"y":2565018.9400000013}},{"attributes":{"ID":305526,"DIS_CODE":0,"TOWNNAME":"麻豆區","LI":"大埕里","LIN":"17鄰","STREET":"平等路","SECT":" ","MAREA":" ","LANE":" ","ALLEY":" ","HOUSE_NO":"５１號之１６","E_COORD97":172945.07000000001,"N_COORD97":2565018.7599999998,"ADDRESS":"平等路５１號之１６","OBJECTID":305518},"geometry":{"x":172945.07000000123,"y":2565018.7600000035}},{"attributes":{"ID":305527,"DIS_CODE":0,"TOWNNAME":"麻豆區","LI":"大埕里","LIN":"17鄰","STREET":"平等路","SECT":" ","MAREA":" ","LANE":" ","ALLEY":" ","HOUSE_NO":"５１號之１７","E_COORD97":172940.91,"N_COORD97":2565018.5800000001,"ADDRESS":"平等路５１號之１７","OBJECTID":305519},"geometry":{"x":172940.91000000108,"y":2565018.5800000019}},{"attributes":{"ID":305528,"DIS_CODE":0,"TOWNNAME":"麻豆區","LI":"大埕里","LIN":"17鄰","STREET":"平等路","SECT":" ","MAREA":" ","LANE":" ","ALLEY":" ","HOUSE_NO":"５１號之２１","E_COORD97":172923.91,"N_COORD97":2565018.6299999999,"ADDRESS":"平等路５１號之２１","OBJECTID":305520},"geometry":{"x":172923.91000000108,"y":2565018.6299999971}},{"attributes":{"ID":305529,"DIS_CODE":0,"TOWNNAME":"麻豆區","LI":"大埕里","LIN":"17鄰","STREET":"平等路","SECT":" ","MAREA":" ","LANE":" ","ALLEY":" ","HOUSE_NO":"５１號之５","E_COORD97":172992.70999999999,"N_COORD97":2565021.25,"ADDRESS":"平等路５１號之５","OBJECTID":305521},"geometry":{"x":172992.71000000089,"y":2565021.25}},{"attributes":{"ID":305530,"DIS_CODE":0,"TOWNNAME":"麻豆區","LI":"大埕里","LIN":"17鄰","STREET":"平等路","SECT":" ","MAREA":" ","LANE":" ","ALLEY":" ","HOUSE_NO":"５１號之６","E_COORD97":172988.01000000001,"N_COORD97":2565021.2400000002,"ADDRESS":"平等路５１號之６","OBJECTID":305522},"geometry":{"x":172988.00999999978,"y":2565021.2400000002}},{"attributes":{"ID":305531,"DIS_CODE":0,"TOWNNAME":"左鎮區","LI":"榮和里","LIN":"5鄰","STREET":" ","SECT":" ","MAREA":"菜寮","LANE":" ","ALLEY":" ","HOUSE_NO":"４４號","E_COORD97":187026.45415599999,"N_COORD97":2550918.1650200002,"ADDRESS":"菜寮４４號","OBJECTID":305523},"geometry":{"x":187026.45415600017,"y":2550918.1650210042}},{"attributes":{"ID":305532,"DIS_CODE":0,"TOWNNAME":"北區","LI":"三德里","LIN":"10鄰","STREET":"裕民街","SECT":" ","MAREA":" ","LANE":"８３巷","ALLEY":" ","HOUSE_NO":"６號","E_COORD97":168433.37,"N_COORD97":2544567.25,"ADDRESS":"裕民街８３巷６號","OBJECTID":305524},"geometry":{"x":168433.37000000104,"y":2544567.25}},{"attributes":{"ID":305533,"DIS_CODE":0,"TOWNNAME":"北區","LI":"三德里","LIN":"10鄰","STREET":"裕民街","SECT":" ","MAREA":" ","LANE":"８３巷","ALLEY":" ","HOUSE_NO":"８號","E_COORD97":168429.72,"N_COORD97":2544564.2999999998,"ADDRESS":"裕民街８３巷８號","OBJECTID":305525},"geometry":{"x":168429.71999999974,"y":2544564.3000000007}},{"attributes":{"ID":305534,"DIS_CODE":0,"TOWNNAME":"北區","LI":"長德里","LIN":"4鄰","STREET":"公園南路","SECT":" ","MAREA":" ","LANE":"２２２巷","ALLEY":" ","HOUSE_NO":"２３號","E_COORD97":168567.67000000001,"N_COORD97":2544753.3100000001,"ADDRESS":"公園南路２２２巷２３號","OBJECTID":305526},"geometry":{"x":168567.66999999993,"y":2544753.3100000024}},{"attributes":{"ID":305535,"DIS_CODE":0,"TOWNNAME":"北區","LI":"長德里","LIN":"4鄰","STREET":"公園南路","SECT":" ","MAREA":" ","LANE":"２２２巷","ALLEY":" ","HOUSE_NO":"２５號","E_COORD97":168566.98000000001,"N_COORD97":2544757.8100000001,"ADDRESS":"公園南路２２２巷２５號","OBJECTID":305527},"geometry":{"x":168566.98000000138,"y":2544757.8100000005}},{"attributes":{"ID":305536,"DIS_CODE":0,"TOWNNAME":"北區","LI":"長德里","LIN":"4鄰","STREET":"長德街","SECT":" ","MAREA":" ","LANE":"３１巷","ALLEY":" ","HOUSE_NO":"７號","E_COORD97":168537.13,"N_COORD97":2544812.29,"ADDRESS":"長德街３１巷７號","OBJECTID":305528},"geometry":{"x":168537.12999999989,"y":2544812.290000001}},{"attributes":{"ID":305537,"DIS_CODE":0,"TOWNNAME":"南區","LI":"建南里","LIN":"8鄰","STREET":"德興路","SECT":" ","MAREA":" ","LANE":"２１０巷","ALLEY":" ","HOUSE_NO":"７號","E_COORD97":167175.53,"N_COORD97":2540150.73,"ADDRESS":"德興路２１０巷７號","OBJECTID":305529},"geometry":{"x":167175.53000000026,"y":2540150.7300000004}},{"attributes":{"ID":305538,"DIS_CODE":0,"TOWNNAME":"南區","LI":"大忠里","LIN":"8鄰","STREET":"中華南路","SECT":"一段","MAREA":" ","LANE":"６６巷","ALLEY":" ","HOUSE_NO":"７號","E_COORD97":169303.60000000001,"N_COORD97":2541422.6600000001,"ADDRESS":"中華南路一段６６巷７號","OBJECTID":305530},"geometry":{"x":169303.59999999963,"y":2541422.6599999983}},{"attributes":{"ID":305539,"DIS_CODE":0,"TOWNNAME":"南區","LI":"大忠里","LIN":"8鄰","STREET":"中華南路","SECT":"一段","MAREA":" ","LANE":"６６巷","ALLEY":" ","HOUSE_NO":"９號","E_COORD97":169301.64000000001,"N_COORD97":2541427.1299999999,"ADDRESS":"中華南路一段６６巷９號","OBJECTID":305531},"geometry":{"x":169301.63999999966,"y":2541427.129999999}},{"attributes":{"ID":305540,"DIS_CODE":0,"TOWNNAME":"南區","LI":"大忠里","LIN":"8鄰","STREET":"中華南路","SECT":"一段","MAREA":" ","LANE":"７７巷","ALLEY":" ","HOUSE_NO":"１２號","E_COORD97":169283.48000000001,"N_COORD97":2541294.71,"ADDRESS":"中華南路一段７７巷１２號","OBJECTID":305532},"geometry":{"x":169283.47999999952,"y":2541294.7100000046}},{"attributes":{"ID":305541,"DIS_CODE":0,"TOWNNAME":"南區","LI":"大忠里","LIN":"8鄰","STREET":"中華南路","SECT":"一段","MAREA":" ","LANE":"７７巷","ALLEY":" ","HOUSE_NO":"１７號","E_COORD97":169324.13,"N_COORD97":2541329,"ADDRESS":"中華南路一段７７巷１７號","OBJECTID":305533},"geometry":{"x":169324.12999999989,"y":2541329.0000000037}},{"attributes":{"ID":305542,"DIS_CODE":0,"TOWNNAME":"南區","LI":"大忠里","LIN":"8鄰","STREET":"中華南路","SECT":"一段","MAREA":" ","LANE":"７７巷","ALLEY":" ","HOUSE_NO":"１８號","E_COORD97":169304.60999999999,"N_COORD97":2541289.25,"ADDRESS":"中華南路一段７７巷１８號","OBJECTID":305534},"geometry":{"x":169304.6100000022,"y":2541289.25}},{"attributes":{"ID":305543,"DIS_CODE":0,"TOWNNAME":"南區","LI":"大忠里","LIN":"8鄰","STREET":"中華南路","SECT":"一段","MAREA":" ","LANE":"７７巷","ALLEY":" ","HOUSE_NO":"１９號","E_COORD97":169321.38,"N_COORD97":2541325.1600000001,"ADDRESS":"中華南路一段７７巷１９號","OBJECTID":305535},"geometry":{"x":169321.38000000082,"y":2541325.160000002}},{"attributes":{"ID":305544,"DIS_CODE":0,"TOWNNAME":"南區","LI":"大忠里","LIN":"8鄰","STREET":"中華南路","SECT":"一段","MAREA":" ","LANE":"７７巷","ALLEY":" ","HOUSE_NO":"１號","E_COORD97":169316.16,"N_COORD97":2541339.6800000002,"ADDRESS":"中華南路一段７７巷１號","OBJECTID":305536},"geometry":{"x":169316.16000000108,"y":2541339.6799999997}},{"attributes":{"ID":305545,"DIS_CODE":0,"TOWNNAME":"南區","LI":"大忠里","LIN":"8鄰","STREET":"中華南路","SECT":"一段","MAREA":" ","LANE":"７７巷","ALLEY":" ","HOUSE_NO":"２９號","E_COORD97":169310.39000000001,"N_COORD97":2541314.48,"ADDRESS":"中華南路一段７７巷２９號","OBJECTID":305537},"geometry":{"x":169310.38999999873,"y":2541314.4800000004}},{"attributes":{"ID":305546,"DIS_CODE":0,"TOWNNAME":"麻豆區","LI":"大埕里","LIN":"17鄰","STREET":"平等路","SECT":" ","MAREA":" ","LANE":" ","ALLEY":" ","HOUSE_NO":"５１號之７","E_COORD97":172984.09,"N_COORD97":2565021.2599999998,"ADDRESS":"平等路５１號之７","OBJECTID":305538},"geometry":{"x":172984.08999999985,"y":2565021.2599999998}},{"attributes":{"ID":305547,"DIS_CODE":0,"TOWNNAME":"麻豆區","LI":"大埕里","LIN":"17鄰","STREET":"平等路","SECT":" ","MAREA":" ","LANE":" ","ALLEY":" ","HOUSE_NO":"５１號之８","E_COORD97":172979.66,"N_COORD97":2565021.3900000001,"ADDRESS":"平等路５１號之８","OBJECTID":305539},"geometry":{"x":172979.66000000108,"y":2565021.3900000006}},{"attributes":{"ID":305548,"DIS_CODE":0,"TOWNNAME":"麻豆區","LI":"大埕里","LIN":"17鄰","STREET":"平等路","SECT":" ","MAREA":" ","LANE":" ","ALLEY":" ","HOUSE_NO":"５１號之９","E_COORD97":172975.17999999999,"N_COORD97":2565021.48,"ADDRESS":"平等路５１號之９","OBJECTID":305540},"geometry":{"x":172975.17999999877,"y":2565021.4800000042}},{"attributes":{"ID":305549,"DIS_CODE":0,"TOWNNAME":"永康區","LI":"東橋里","LIN":"17鄰","STREET":"東橋一路","SECT":" ","MAREA":" ","LANE":" ","ALLEY":" ","HOUSE_NO":"５０６號","E_COORD97":171323.42999999999,"N_COORD97":2547207.1200000001,"ADDRESS":"東橋一路５０６號","OBJECTID":305541},"geometry":{"x":171323.4299999997,"y":2547207.120000001}},{"attributes":{"ID":305550,"DIS_CODE":0,"TOWNNAME":"永康區","LI":"東橋里","LIN":"17鄰","STREET":"東橋一路","SECT":" ","MAREA":" ","LANE":" ","ALLEY":" ","HOUSE_NO":"５０８號","E_COORD97":171327.23999999999,"N_COORD97":2547209.5,"ADDRESS":"東橋一路５０８號","OBJECTID":305542},"geometry":{"x":171327.24000000022,"y":2547209.5000000019}},{"attributes":{"ID":305551,"DIS_CODE":0,"TOWNNAME":"歸仁區","LI":"武東里","LIN":"13鄰","STREET":" ","SECT":" ","MAREA":"明德新村","LANE":" ","ALLEY":" ","HOUSE_NO":"１９號","E_COORD97":175050.29000000001,"N_COORD97":2536207.27,"ADDRESS":"明德新村１９號","OBJECTID":305543},"geometry":{"x":175050.29000000097,"y":2536207.2700000033}},{"attributes":{"ID":305552,"DIS_CODE":0,"TOWNNAME":"安南區","LI":"海東里","LIN":"20鄰","STREET":"海東街","SECT":" ","MAREA":" ","LANE":" ","ALLEY":" ","HOUSE_NO":"２３８號","E_COORD97":166895.206401,"N_COORD97":2548213.01034,"ADDRESS":"海東街２３８號","OBJECTID":305544},"geometry":{"x":166895.20640100166,"y":2548213.0103369989}},{"attributes":{"ID":305553,"DIS_CODE":0,"TOWNNAME":"歸仁區","LI":"歸南里","LIN":"26鄰","STREET":"中山路","SECT":"三段","MAREA":" ","LANE":"５５１巷","ALLEY":" ","HOUSE_NO":"８１號","E_COORD97":175303.91,"N_COORD97":2540596.2799999998,"ADDRESS":"中山路三段５５１巷８１號","OBJECTID":305545},"geometry":{"x":175303.91000000108,"y":2540596.2799999993}},{"attributes":{"ID":305554,"DIS_CODE":0,"TOWNNAME":"歸仁區","LI":"南保里","LIN":"4鄰","STREET":"文化六街","SECT":" ","MAREA":" ","LANE":"１０巷","ALLEY":" ","HOUSE_NO":"３號","E_COORD97":176828.54000000001,"N_COORD97":2541299.3300000001,"ADDRESS":"文化六街１０巷３號","OBJECTID":305546},"geometry":{"x":176828.54000000097,"y":2541299.3300000001}},{"attributes":{"ID":305555,"DIS_CODE":0,"TOWNNAME":"南區","LI":"大忠里","LIN":"8鄰","STREET":"中華南路","SECT":"一段","MAREA":" ","LANE":"７７巷","ALLEY":" ","HOUSE_NO":"２號","E_COORD97":169295.82999999999,"N_COORD97":2541324.8900000001,"ADDRESS":"中華南路一段７７巷２號","OBJECTID":305547},"geometry":{"x":169295.83000000007,"y":2541324.8900000025}},{"attributes":{"ID":305556,"DIS_CODE":0,"TOWNNAME":"南區","LI":"大忠里","LIN":"8鄰","STREET":"中華南路","SECT":"一段","MAREA":" ","LANE":"７７巷","ALLEY":" ","HOUSE_NO":"３號","E_COORD97":169312.04000000001,"N_COORD97":2541336.1200000001,"ADDRESS":"中華南路一段７７巷３號","OBJECTID":305548},"geometry":{"x":169312.04000000097,"y":2541336.1200000048}},{"attributes":{"ID":305557,"DIS_CODE":0,"TOWNNAME":"南區","LI":"大忠里","LIN":"8鄰","STREET":"中華南路","SECT":"一段","MAREA":" ","LANE":"７７巷","ALLEY":" ","HOUSE_NO":"９號","E_COORD97":169309.01999999999,"N_COORD97":2541328.1800000002,"ADDRESS":"中華南路一段７７巷９號","OBJECTID":305549},"geometry":{"x":169309.01999999955,"y":2541328.1800000016}},{"attributes":{"ID":305558,"DIS_CODE":0,"TOWNNAME":"歸仁區","LI":"崙頂里","LIN":"8鄰","STREET":"崙頂五街","SECT":" ","MAREA":" ","LANE":"８５巷","ALLEY":" ","HOUSE_NO":"２９號","E_COORD97":177998.57999999999,"N_COORD97":2539894.25,"ADDRESS":"崙頂五街８５巷２９號","OBJECTID":305550},"geometry":{"x":177998.58000000007,"y":2539894.2500000019}},{"attributes":{"ID":305559,"DIS_CODE":0,"TOWNNAME":"歸仁區","LI":"看西里","LIN":"8鄰","STREET":"信義南路","SECT":" ","MAREA":" ","LANE":"１８７巷","ALLEY":" ","HOUSE_NO":"２之１號","E_COORD97":178158.26000000001,"N_COORD97":2540225.4900000002,"ADDRESS":"信義南路１８７巷２之１號","OBJECTID":305551},"geometry":{"x":178158.25999999978,"y":2540225.4900000021}},{"attributes":{"ID":305560,"DIS_CODE":0,"TOWNNAME":"歸仁區","LI":"後市里","LIN":"8鄰","STREET":"中山五街","SECT":" ","MAREA":" ","LANE":"３５巷","ALLEY":" ","HOUSE_NO":"１號","E_COORD97":177117.69,"N_COORD97":2540725.25,"ADDRESS":"中山五街３５巷１號","OBJECTID":305552},"geometry":{"x":177117.69000000134,"y":2540725.2500000019}},{"attributes":{"ID":305561,"DIS_CODE":0,"TOWNNAME":"歸仁區","LI":"看西里","LIN":"8鄰","STREET":"信義南路","SECT":" ","MAREA":" ","LANE":"１８７巷","ALLEY":" ","HOUSE_NO":"６之８號","E_COORD97":178172.45999999999,"N_COORD97":2540194.4900000002,"ADDRESS":"信義南路１８７巷６之８號","OBJECTID":305553},"geometry":{"x":178172.45999999996,"y":2540194.4900000021}},{"attributes":{"ID":305562,"DIS_CODE":0,"TOWNNAME":"歸仁區","LI":"看西里","LIN":"8鄰","STREET":"信義南路","SECT":" ","MAREA":" ","LANE":"１８７巷","ALLEY":" ","HOUSE_NO":"６之２號","E_COORD97":178173.66,"N_COORD97":2540219.4900000002,"ADDRESS":"信義南路１８７巷６之２號","OBJECTID":305554},"geometry":{"x":178173.66000000108,"y":2540219.4900000002}},{"attributes":{"ID":305563,"DIS_CODE":0,"TOWNNAME":"永康區","LI":"東橋里","LIN":"17鄰","STREET":"東橋一路","SECT":" ","MAREA":" ","LANE":" ","ALLEY":" ","HOUSE_NO":"５１０號","E_COORD97":171331.06,"N_COORD97":2547211.8700000001,"ADDRESS":"東橋一路５１０號","OBJECTID":305555},"geometry":{"x":171331.05999999959,"y":2547211.870000001}},{"attributes":{"ID":305564,"DIS_CODE":0,"TOWNNAME":"永康區","LI":"東橋里","LIN":"17鄰","STREET":"東橋一路","SECT":" ","MAREA":" ","LANE":" ","ALLEY":" ","HOUSE_NO":"５１２號","E_COORD97":171334.87,"N_COORD97":2547214.25,"ADDRESS":"東橋一路５１２號","OBJECTID":305556},"geometry":{"x":171334.87000000011,"y":2547214.2500000019}},{"attributes":{"ID":305565,"DIS_CODE":0,"TOWNNAME":"永康區","LI":"東橋里","LIN":"17鄰","STREET":"東橋一路","SECT":" ","MAREA":" ","LANE":" ","ALLEY":" ","HOUSE_NO":"５１６號","E_COORD97":171337.45000000001,"N_COORD97":2547217.8999999999,"ADDRESS":"東橋一路５１６號","OBJECTID":305557},"geometry":{"x":171337.45000000019,"y":2547217.9000000004}},{"attributes":{"ID":305566,"DIS_CODE":0,"TOWNNAME":"歸仁區","LI":"後市里","LIN":"43鄰","STREET":"中山八街","SECT":" ","MAREA":" ","LANE":"１５巷","ALLEY":" ","HOUSE_NO":"２２號","E_COORD97":177180.88,"N_COORD97":2540980.7400000002,"ADDRESS":"中山八街１５巷２２號","OBJECTID":305558},"geometry":{"x":177180.87999999989,"y":2540980.7400000002}},{"attributes":{"ID":305567,"DIS_CODE":0,"TOWNNAME":"歸仁區","LI":"歸南里","LIN":"25鄰","STREET":"民生十街","SECT":" ","MAREA":" ","LANE":"８巷","ALLEY":" ","HOUSE_NO":"８號","E_COORD97":176091.84,"N_COORD97":2540217.29,"ADDRESS":"民生十街８巷８號","OBJECTID":305559},"geometry":{"x":176091.84000000171,"y":2540217.2900000028}},{"attributes":{"ID":305568,"DIS_CODE":0,"TOWNNAME":"歸仁區","LI":"媽廟里","LIN":"18鄰","STREET":"媽廟二街","SECT":" ","MAREA":" ","LANE":"１５巷","ALLEY":" ","HOUSE_NO":"４３號","E_COORD97":177682.78,"N_COORD97":2543840.7200000002,"ADDRESS":"媽廟二街１５巷４３號","OBJECTID":305560},"geometry":{"x":177682.78000000212,"y":2543840.7200000025}},{"attributes":{"ID":305569,"DIS_CODE":0,"TOWNNAME":"歸仁區","LI":"崙頂里","LIN":"26鄰","STREET":"成功十街","SECT":" ","MAREA":" ","LANE":"１３３巷","ALLEY":" ","HOUSE_NO":"１２號","E_COORD97":177732.03,"N_COORD97":2539854.25,"ADDRESS":"成功十街１３３巷１２號","OBJECTID":305561},"geometry":{"x":177732.03000000119,"y":2539854.25}},{"attributes":{"ID":305570,"DIS_CODE":0,"TOWNNAME":"歸仁區","LI":"歸南里","LIN":"26鄰","STREET":"民生十街","SECT":" ","MAREA":" ","LANE":"１８巷","ALLEY":" ","HOUSE_NO":"２號","E_COORD97":176064.39000000001,"N_COORD97":2540224.29,"ADDRESS":"民生十街１８巷２號","OBJECTID":305562},"geometry":{"x":176064.3900000006,"y":2540224.2900000028}},{"attributes":{"ID":305571,"DIS_CODE":0,"TOWNNAME":"歸仁區","LI":"文化里","LIN":"18鄰","STREET":"文化北二街","SECT":" ","MAREA":" ","LANE":"４５巷","ALLEY":" ","HOUSE_NO":"２號","E_COORD97":177125.81,"N_COORD97":2541443.3399999999,"ADDRESS":"文化北二街４５巷２號","OBJECTID":305563},"geometry":{"x":177125.81000000145,"y":2541443.3400000017}},{"attributes":{"ID":305572,"DIS_CODE":0,"TOWNNAME":"歸仁區","LI":"後市里","LIN":"8鄰","STREET":"中山五街","SECT":" ","MAREA":" ","LANE":"３５巷","ALLEY":" ","HOUSE_NO":"３號","E_COORD97":177122.79000000001,"N_COORD97":2540725.25,"ADDRESS":"中山五街３５巷３號","OBJECTID":305564},"geometry":{"x":177122.79000000004,"y":2540725.2500000019}},{"attributes":{"ID":305573,"DIS_CODE":0,"TOWNNAME":"歸仁區","LI":"崙頂里","LIN":"8鄰","STREET":"崙頂五街","SECT":" ","MAREA":" ","LANE":"８５巷","ALLEY":" ","HOUSE_NO":"１８號","E_COORD97":178022.07999999999,"N_COORD97":2539880.25,"ADDRESS":"崙頂五街８５巷１８號","OBJECTID":305565},"geometry":{"x":178022.08000000007,"y":2539880.2500000019}},{"attributes":{"ID":305574,"DIS_CODE":0,"TOWNNAME":"永康區","LI":"東橋里","LIN":"17鄰","STREET":"東橋一路","SECT":" ","MAREA":" ","LANE":" ","ALLEY":" ","HOUSE_NO":"５１８號","E_COORD97":171341.73999999999,"N_COORD97":2547218.5299999998,"ADDRESS":"東橋一路５１８號","OBJECTID":305566},"geometry":{"x":171341.74000000115,"y":2547218.5300000012}},{"attributes":{"ID":305575,"DIS_CODE":0,"TOWNNAME":"永康區","LI":"東橋里","LIN":"17鄰","STREET":"東橋一路","SECT":" ","MAREA":" ","LANE":" ","ALLEY":" ","HOUSE_NO":"５２０號","E_COORD97":171345.56,"N_COORD97":2547220.9100000001,"ADDRESS":"東橋一路５２０號","OBJECTID":305567},"geometry":{"x":171345.56000000052,"y":2547220.9100000001}},{"attributes":{"ID":305576,"DIS_CODE":0,"TOWNNAME":"永康區","LI":"東橋里","LIN":"17鄰","STREET":"東橋一路","SECT":" ","MAREA":" ","LANE":" ","ALLEY":" ","HOUSE_NO":"５２２號","E_COORD97":171349.37,"N_COORD97":2547223.2799999998,"ADDRESS":"東橋一路５２２號","OBJECTID":305568},"geometry":{"x":171349.37000000104,"y":2547223.2800000012}},{"attributes":{"ID":305577,"DIS_CODE":0,"TOWNNAME":"永康區","LI":"東橋里","LIN":"17鄰","STREET":"東橋一路","SECT":" ","MAREA":" ","LANE":" ","ALLEY":" ","HOUSE_NO":"５２６號","E_COORD97":171353.17999999999,"N_COORD97":2547225.6600000001,"ADDRESS":"東橋一路５２６號","OBJECTID":305569},"geometry":{"x":171353.18000000063,"y":2547225.6600000001}},{"attributes":{"ID":305578,"DIS_CODE":0,"TOWNNAME":"永康區","LI":"東橋里","LIN":"17鄰","STREET":"東橋一路","SECT":" ","MAREA":" ","LANE":" ","ALLEY":" ","HOUSE_NO":"５２８號","E_COORD97":171356.87,"N_COORD97":2547227.9500000002,"ADDRESS":"東橋一路５２８號","OBJECTID":305570},"geometry":{"x":171356.87000000011,"y":2547227.950000003}},{"attributes":{"ID":305579,"DIS_CODE":0,"TOWNNAME":"永康區","LI":"東橋里","LIN":"17鄰","STREET":"東橋一路","SECT":" ","MAREA":" ","LANE":" ","ALLEY":" ","HOUSE_NO":"５３０號","E_COORD97":171360.57000000001,"N_COORD97":2547230.2599999998,"ADDRESS":"東橋一路５３０號","OBJECTID":305571},"geometry":{"x":171360.5700000003,"y":2547230.2600000016}},{"attributes":{"ID":305580,"DIS_CODE":0,"TOWNNAME":"永康區","LI":"東橋里","LIN":"17鄰","STREET":"東橋一路","SECT":" ","MAREA":" ","LANE":" ","ALLEY":" ","HOUSE_NO":"５３２號","E_COORD97":171364.32999999999,"N_COORD97":2547232.6000000001,"ADDRESS":"東橋一路５３２號","OBJECTID":305572},"geometry":{"x":171364.33000000194,"y":2547232.5999999996}},{"attributes":{"ID":305581,"DIS_CODE":0,"TOWNNAME":"歸仁區","LI":"歸仁里","LIN":"20鄰","STREET":"大仁二街","SECT":" ","MAREA":" ","LANE":"３２巷","ALLEY":" ","HOUSE_NO":"１號","E_COORD97":178111.64000000001,"N_COORD97":2541126.1099999999,"ADDRESS":"大仁二街３２巷１號","OBJECTID":305573},"geometry":{"x":178111.63999999966,"y":2541126.1099999994}},{"attributes":{"ID":305582,"DIS_CODE":0,"TOWNNAME":"歸仁區","LI":"六甲里","LIN":"39鄰","STREET":"六甲八街","SECT":" ","MAREA":" ","LANE":"１４９巷","ALLEY":" ","HOUSE_NO":"１４０號","E_COORD97":175272.70000000001,"N_COORD97":2539871.73,"ADDRESS":"六甲八街１４９巷１４０號","OBJECTID":305574},"geometry":{"x":175272.70000000205,"y":2539871.7300000004}},{"attributes":{"ID":305583,"DIS_CODE":0,"TOWNNAME":"歸仁區","LI":"看西里","LIN":"4鄰","STREET":"仁愛南街","SECT":" ","MAREA":" ","LANE":"１０２巷","ALLEY":" ","HOUSE_NO":"１５號","E_COORD97":178224.10000000001,"N_COORD97":2540369.29,"ADDRESS":"仁愛南街１０２巷１５號","OBJECTID":305575},"geometry":{"x":178224.10000000149,"y":2540369.2899999991}},{"attributes":{"ID":305584,"DIS_CODE":0,"TOWNNAME":"歸仁區","LI":"大潭里","LIN":"20鄰","STREET":"長榮路","SECT":"二段","MAREA":" ","LANE":"７５巷","ALLEY":" ","HOUSE_NO":"６８號","E_COORD97":176961.97,"N_COORD97":2534648.2799999998,"ADDRESS":"長榮路二段７５巷６８號","OBJECTID":305576},"geometry":{"x":176961.96999999881,"y":2534648.2800000012}},{"attributes":{"ID":305585,"DIS_CODE":0,"TOWNNAME":"歸仁區","LI":"看西里","LIN":"8鄰","STREET":"信義南路","SECT":" ","MAREA":" ","LANE":"１８７巷","ALLEY":" ","HOUSE_NO":"６之３號","E_COORD97":178173.66,"N_COORD97":2540214.4900000002,"ADDRESS":"信義南路１８７巷６之３號","OBJECTID":305577},"geometry":{"x":178173.66000000108,"y":2540214.4900000021}},{"attributes":{"ID":305586,"DIS_CODE":0,"TOWNNAME":"歸仁區","LI":"許厝里","LIN":"8鄰","STREET":"仁愛南街","SECT":" ","MAREA":" ","LANE":"５６巷","ALLEY":" ","HOUSE_NO":"２號","E_COORD97":178241.32999999999,"N_COORD97":2540532.25,"ADDRESS":"仁愛南街５６巷２號","OBJECTID":305578},"geometry":{"x":178241.33000000007,"y":2540532.25}},{"attributes":{"ID":305587,"DIS_CODE":0,"TOWNNAME":"歸仁區","LI":"看西里","LIN":"8鄰","STREET":"信義南路","SECT":" ","MAREA":" ","LANE":"１８７巷","ALLEY":" ","HOUSE_NO":"６之７號","E_COORD97":178172.56,"N_COORD97":2540198.4900000002,"ADDRESS":"信義南路１８７巷６之７號","OBJECTID":305579},"geometry":{"x":178172.55999999959,"y":2540198.4900000021}},{"attributes":{"ID":305588,"DIS_CODE":0,"TOWNNAME":"歸仁區","LI":"南興里","LIN":"8鄰","STREET":"文化十六街","SECT":" ","MAREA":" ","LANE":"５０巷","ALLEY":" ","HOUSE_NO":"１號","E_COORD97":176033.47,"N_COORD97":2541321.2599999998,"ADDRESS":"文化十六街５０巷１號","OBJECTID":305580},"geometry":{"x":176033.47000000067,"y":2541321.2600000016}},{"attributes":{"ID":305589,"DIS_CODE":0,"TOWNNAME":"歸仁區","LI":"南興里","LIN":"8鄰","STREET":"文化十六街","SECT":" ","MAREA":" ","LANE":"４６巷","ALLEY":" ","HOUSE_NO":"１３號","E_COORD97":176062.32000000001,"N_COORD97":2541281.2599999998,"ADDRESS":"文化十六街４６巷１３號","OBJECTID":305581},"geometry":{"x":176062.32000000123,"y":2541281.2599999998}},{"attributes":{"ID":305590,"DIS_CODE":0,"TOWNNAME":"永康區","LI":"東橋里","LIN":"17鄰","STREET":"東橋三路","SECT":" ","MAREA":" ","LANE":" ","ALLEY":" ","HOUSE_NO":"４５０號","E_COORD97":171354.09,"N_COORD97":2547110.4399999999,"ADDRESS":"東橋三路４５０號","OBJECTID":305582},"geometry":{"x":171354.09000000078,"y":2547110.4400000013}},{"attributes":{"ID":305591,"DIS_CODE":0,"TOWNNAME":"永康區","LI":"東橋里","LIN":"17鄰","STREET":"東橋三路","SECT":" ","MAREA":" ","LANE":" ","ALLEY":" ","HOUSE_NO":"４５２號","E_COORD97":171353.23999999999,"N_COORD97":2547121.3100000001,"ADDRESS":"東橋三路４５２號","OBJECTID":305583},"geometry":{"x":171353.24000000115,"y":2547121.3099999987}},{"attributes":{"ID":305592,"DIS_CODE":0,"TOWNNAME":"永康區","LI":"東橋里","LIN":"17鄰","STREET":"東橋三路","SECT":" ","MAREA":" ","LANE":" ","ALLEY":" ","HOUSE_NO":"４５６號","E_COORD97":171350.69,"N_COORD97":2547125.6099999999,"ADDRESS":"東橋三路４５６號","OBJECTID":305584},"geometry":{"x":171350.69000000134,"y":2547125.6100000013}},{"attributes":{"ID":305593,"DIS_CODE":0,"TOWNNAME":"永康區","LI":"東橋里","LIN":"17鄰","STREET":"東橋三路","SECT":" ","MAREA":" ","LANE":" ","ALLEY":" ","HOUSE_NO":"４５８號","E_COORD97":171351.88,"N_COORD97":2547131.6400000001,"ADDRESS":"東橋三路４５８號","OBJECTID":305585},"geometry":{"x":171351.88000000175,"y":2547131.6400000006}},{"attributes":{"ID":305594,"DIS_CODE":0,"TOWNNAME":"永康區","LI":"東橋里","LIN":"17鄰","STREET":"東橋三路","SECT":" ","MAREA":" ","LANE":" ","ALLEY":" ","HOUSE_NO":"４６０號","E_COORD97":171348.60000000001,"N_COORD97":2547136.0800000001,"ADDRESS":"東橋三路４６０號","OBJECTID":305586},"geometry":{"x":171348.60000000056,"y":2547136.0800000038}},{"attributes":{"ID":305595,"DIS_CODE":0,"TOWNNAME":"將軍區","LI":"長沙里","LIN":"14鄰","STREET":" ","SECT":" ","MAREA":"長沙","LANE":" ","ALLEY":" ","HOUSE_NO":"１２９號","E_COORD97":157618.83519400001,"N_COORD97":2568535.53633,"ADDRESS":"長沙１２９號","OBJECTID":305587},"geometry":{"x":157618.83519400004,"y":2568535.5363340024}},{"attributes":{"ID":305596,"DIS_CODE":0,"TOWNNAME":"歸仁區","LI":"南保里","LIN":"26鄰","STREET":"民權六街","SECT":" ","MAREA":" ","LANE":"１８１巷","ALLEY":" ","HOUSE_NO":"１３號","E_COORD97":176650.48999999999,"N_COORD97":2541082.29,"ADDRESS":"民權六街１８１巷１３號","OBJECTID":305588},"geometry":{"x":176650.48999999929,"y":2541082.290000001}},{"attributes":{"ID":305597,"DIS_CODE":0,"TOWNNAME":"歸仁區","LI":"六甲里","LIN":"40鄰","STREET":"民生南街","SECT":"二段","MAREA":" ","LANE":"８１２巷","ALLEY":" ","HOUSE_NO":"１０號","E_COORD97":176054.29999999999,"N_COORD97":2539331.29,"ADDRESS":"民生南街二段８１２巷１０號","OBJECTID":305589},"geometry":{"x":176054.29999999981,"y":2539331.2899999991}},{"attributes":{"ID":305598,"DIS_CODE":0,"TOWNNAME":"歸仁區","LI":"八甲里","LIN":"18鄰","STREET":"忠孝北路","SECT":" ","MAREA":" ","LANE":"２８４巷","ALLEY":" ","HOUSE_NO":"６號","E_COORD97":177965.13,"N_COORD97":2541466.25,"ADDRESS":"忠孝北路２８４巷６號","OBJECTID":305590},"geometry":{"x":177965.13000000082,"y":2541466.2500000037}},{"attributes":{"ID":305599,"DIS_CODE":0,"TOWNNAME":"歸仁區","LI":"南興里","LIN":"8鄰","STREET":"文化十六街","SECT":" ","MAREA":" ","LANE":"４２巷","ALLEY":" ","HOUSE_NO":"１０號","E_COORD97":176041.72,"N_COORD97":2541265.2599999998,"ADDRESS":"文化十六街４２巷１０號","OBJECTID":305591},"geometry":{"x":176041.7200000016,"y":2541265.2599999998}},{"attributes":{"ID":305600,"DIS_CODE":0,"TOWNNAME":"歸仁區","LI":"南興里","LIN":"8鄰","STREET":"文化十六街","SECT":" ","MAREA":" ","LANE":"４６巷","ALLEY":" ","HOUSE_NO":"２１號","E_COORD97":176085.82000000001,"N_COORD97":2541280.2599999998,"ADDRESS":"文化十六街４６巷２１號","OBJECTID":305592},"geometry":{"x":176085.82000000123,"y":2541280.2600000016}},{"attributes":{"ID":305601,"DIS_CODE":0,"TOWNNAME":"歸仁區","LI":"南興里","LIN":"8鄰","STREET":"文化十六街","SECT":" ","MAREA":" ","LANE":"４２巷","ALLEY":" ","HOUSE_NO":"２號","E_COORD97":176029.17000000001,"N_COORD97":2541266.2599999998,"ADDRESS":"文化十六街４２巷２號","OBJECTID":305593},"geometry":{"x":176029.17000000086,"y":2541266.2600000016}},{"attributes":{"ID":305602,"DIS_CODE":0,"TOWNNAME":"歸仁區","LI":"南興里","LIN":"8鄰","STREET":"文化十六街","SECT":" ","MAREA":" ","LANE":"４６巷","ALLEY":" ","HOUSE_NO":"１７號","E_COORD97":176073.51999999999,"N_COORD97":2541280.2599999998,"ADDRESS":"文化十六街４６巷１７號","OBJECTID":305594},"geometry":{"x":176073.52000000048,"y":2541280.2600000016}},{"attributes":{"ID":305603,"DIS_CODE":0,"TOWNNAME":"歸仁區","LI":"南興里","LIN":"8鄰","STREET":"文化十六街","SECT":" ","MAREA":" ","LANE":"４６巷","ALLEY":" ","HOUSE_NO":"２３號","E_COORD97":176091.01999999999,"N_COORD97":2541280.2599999998,"ADDRESS":"文化十六街４６巷２３號","OBJECTID":305595},"geometry":{"x":176091.02000000048,"y":2541280.2600000016}},{"attributes":{"ID":305604,"DIS_CODE":0,"TOWNNAME":"歸仁區","LI":"南興里","LIN":"8鄰","STREET":"文化十六街","SECT":" ","MAREA":" ","LANE":"４６巷","ALLEY":" ","HOUSE_NO":"２號","E_COORD97":176033.47,"N_COORD97":2541301.2599999998,"ADDRESS":"文化十六街４６巷２號","OBJECTID":305596},"geometry":{"x":176033.47000000067,"y":2541301.2600000016}},{"attributes":{"ID":305605,"DIS_CODE":0,"TOWNNAME":"歸仁區","LI":"南興里","LIN":"8鄰","STREET":"文化十六街","SECT":" ","MAREA":" ","LANE":"５０巷","ALLEY":" ","HOUSE_NO":"５號","E_COORD97":176043.76999999999,"N_COORD97":2541321.2599999998,"ADDRESS":"文化十六街５０巷５號","OBJECTID":305597},"geometry":{"x":176043.76999999955,"y":2541321.2600000016}},{"attributes":{"ID":305606,"DIS_CODE":0,"TOWNNAME":"歸仁區","LI":"南興里","LIN":"8鄰","STREET":"文化十六街","SECT":" ","MAREA":" ","LANE":"４６巷","ALLEY":" ","HOUSE_NO":"２７號","E_COORD97":176104.32000000001,"N_COORD97":2541279.2599999998,"ADDRESS":"文化十六街４６巷２７號","OBJECTID":305598},"geometry":{"x":176104.32000000216,"y":2541279.2599999979}},{"attributes":{"ID":305607,"DIS_CODE":0,"TOWNNAME":"新營區","LI":"新北里","LIN":"8鄰","STREET":"三興街","SECT":" ","MAREA":" ","LANE":"２７５巷","ALLEY":" ","HOUSE_NO":"５６號","E_COORD97":179202.12,"N_COORD97":2579661.8199999998,"ADDRESS":"三興街２７５巷５６號","OBJECTID":305599},"geometry":{"x":179202.12000000011,"y":2579661.8199999984}},{"attributes":{"ID":305608,"DIS_CODE":0,"TOWNNAME":"永康區","LI":"東橋里","LIN":"17鄰","STREET":"東橋三路","SECT":" ","MAREA":" ","LANE":" ","ALLEY":" ","HOUSE_NO":"４６２號","E_COORD97":171345.59,"N_COORD97":2547141.1499999999,"ADDRESS":"東橋三路４６２號","OBJECTID":305600},"geometry":{"x":171345.59000000078,"y":2547141.1500000004}}]}