{"displayFieldName":"TOWNNAME","fieldAliases":{"ID":"ID","DIS_CODE":"DIS_CODE","TOWNNAME":"TOWNNAME","LI":"LI","LIN":"LIN","STREET":"STREET","SECT":"SECT","MAREA":"MAREA","LANE":"LANE","ALLEY":"ALLEY","HOUSE_NO":"HOUSE_NO","E_COORD97":"E_COORD97","N_COORD97":"N_COORD97","ADDRESS":"ADDRESS","OBJECTID":"OBJECTID"},"geometryType":"esriGeometryPoint","spatialReference":{"wkid":102443,"latestWkid":3826},"fields":[{"name":"ID","type":"esriFieldTypeDouble","alias":"ID"},{"name":"DIS_CODE","type":"esriFieldTypeInteger","alias":"DIS_CODE"},{"name":"TOWNNAME","type":"esriFieldTypeString","alias":"TOWNNAME","length":8},{"name":"LI","type":"esriFieldTypeString","alias":"LI","length":8},{"name":"LIN","type":"esriFieldTypeString","alias":"LIN","length":12},{"name":"STREET","type":"esriFieldTypeString","alias":"STREET","length":20},{"name":"SECT","type":"esriFieldTypeString","alias":"SECT","length":8},{"name":"MAREA","type":"esriFieldTypeString","alias":"MAREA","length":12},{"name":"LANE","type":"esriFieldTypeString","alias":"LANE","length":10},{"name":"ALLEY","type":"esriFieldTypeString","alias":"ALLEY","length":10},{"name":"HOUSE_NO","type":"esriFieldTypeString","alias":"HOUSE_NO","length":20},{"name":"E_COORD97","type":"esriFieldTypeDouble","alias":"E_COORD97"},{"name":"N_COORD97","type":"esriFieldTypeDouble","alias":"N_COORD97"},{"name":"ADDRESS","type":"esriFieldTypeString","alias":"ADDRESS","length":50},{"name":"OBJECTID","type":"esriFieldTypeOID","alias":"OBJECTID"}],"features":[{"attributes":{"ID":79001,"DIS_CODE":0,"TOWNNAME":"善化區","LI":"田寮里","LIN":"6鄰","STREET":" ","SECT":" ","MAREA":"六分寮","LANE":" ","ALLEY":" ","HOUSE_NO":"８１號","E_COORD97":178482.76000000001,"N_COORD97":2561324.5,"ADDRESS":"六分寮８１號","OBJECTID":79001},"geometry":{"x":178482.76000000071,"y":2561324.5}},{"attributes":{"ID":79002,"DIS_CODE":0,"TOWNNAME":"南區","LI":"田寮里","LIN":"19鄰","STREET":"西門路","SECT":"一段","MAREA":" ","LANE":"２２３巷","ALLEY":"１０弄","HOUSE_NO":"１５號","E_COORD97":167660.35999999999,"N_COORD97":2541842.9700000002,"ADDRESS":"西門路一段２２３巷１０弄１５號","OBJECTID":79002},"geometry":{"x":167660.3600000022,"y":2541842.9700000025}},{"attributes":{"ID":79003,"DIS_CODE":0,"TOWNNAME":"善化區","LI":"嘉北里","LIN":"6鄰","STREET":" ","SECT":" ","MAREA":"茄拔","LANE":" ","ALLEY":" ","HOUSE_NO":"１６４之７號","E_COORD97":181024.34,"N_COORD97":2559837.27,"ADDRESS":"茄拔１６４之７號","OBJECTID":79003},"geometry":{"x":181024.33999999985,"y":2559837.2699999996}},{"attributes":{"ID":79004,"DIS_CODE":0,"TOWNNAME":"善化區","LI":"田寮里","LIN":"6鄰","STREET":" ","SECT":" ","MAREA":"六分寮","LANE":" ","ALLEY":" ","HOUSE_NO":"８４號之２","E_COORD97":178536.56,"N_COORD97":2561328.77,"ADDRESS":"六分寮８４號之２","OBJECTID":79004},"geometry":{"x":178536.56000000052,"y":2561328.7699999996}},{"attributes":{"ID":79005,"DIS_CODE":0,"TOWNNAME":"善化區","LI":"嘉北里","LIN":"6鄰","STREET":" ","SECT":" ","MAREA":"茄拔","LANE":" ","ALLEY":" ","HOUSE_NO":"１６１號","E_COORD97":181076.42999999999,"N_COORD97":2559810.7599999998,"ADDRESS":"茄拔１６１號","OBJECTID":79005},"geometry":{"x":181076.42999999877,"y":2559810.7599999998}},{"attributes":{"ID":79006,"DIS_CODE":0,"TOWNNAME":"南區","LI":"田寮里","LIN":"19鄰","STREET":"西門路","SECT":"一段","MAREA":" ","LANE":"２２３巷","ALLEY":"１０弄","HOUSE_NO":"１６號","E_COORD97":167677.41,"N_COORD97":2541843.3500000001,"ADDRESS":"西門路一段２２３巷１０弄１６號","OBJECTID":79006},"geometry":{"x":167677.41000000108,"y":2541843.3499999996}},{"attributes":{"ID":79007,"DIS_CODE":0,"TOWNNAME":"善化區","LI":"胡家里","LIN":"6鄰","STREET":" ","SECT":" ","MAREA":"胡厝寮","LANE":" ","ALLEY":" ","HOUSE_NO":"５２號之１","E_COORD97":175478.51000000001,"N_COORD97":2560632.77,"ADDRESS":"胡厝寮５２號之１","OBJECTID":79007},"geometry":{"x":175478.50999999885,"y":2560632.7700000014}},{"attributes":{"ID":79008,"DIS_CODE":0,"TOWNNAME":"東區","LI":"後甲里","LIN":"33鄰","STREET":" ","SECT":" ","MAREA":"精忠三村","LANE":" ","ALLEY":" ","HOUSE_NO":"７７０號","E_COORD97":171935.35000000001,"N_COORD97":2543624.04,"ADDRESS":"精忠三村７７０號","OBJECTID":79008},"geometry":{"x":171935.35000000056,"y":2543624.040000001}},{"attributes":{"ID":79009,"DIS_CODE":0,"TOWNNAME":"東區","LI":"後甲里","LIN":"33鄰","STREET":" ","SECT":" ","MAREA":"精忠三村","LANE":" ","ALLEY":" ","HOUSE_NO":"７７２號","E_COORD97":171939.62,"N_COORD97":2543623.2200000002,"ADDRESS":"精忠三村７７２號","OBJECTID":79009},"geometry":{"x":171939.62000000011,"y":2543623.2199999988}},{"attributes":{"ID":79010,"DIS_CODE":0,"TOWNNAME":"東區","LI":"後甲里","LIN":"33鄰","STREET":" ","SECT":" ","MAREA":"精忠三村","LANE":" ","ALLEY":" ","HOUSE_NO":"７９０號","E_COORD97":171971.14000000001,"N_COORD97":2543625.02,"ADDRESS":"精忠三村７９０號","OBJECTID":79010},"geometry":{"x":171971.13999999966,"y":2543625.0200000014}},{"attributes":{"ID":79011,"DIS_CODE":0,"TOWNNAME":"東區","LI":"後甲里","LIN":"33鄰","STREET":" ","SECT":" ","MAREA":"精忠三村","LANE":" ","ALLEY":" ","HOUSE_NO":"８７２號","E_COORD97":171965.56,"N_COORD97":2543632.0699999998,"ADDRESS":"精忠三村８７２號","OBJECTID":79011},"geometry":{"x":171965.56000000145,"y":2543632.0700000022}},{"attributes":{"ID":79012,"DIS_CODE":0,"TOWNNAME":"南區","LI":"田寮里","LIN":"19鄰","STREET":"西門路","SECT":"一段","MAREA":" ","LANE":"２２３巷","ALLEY":"１０弄","HOUSE_NO":"１７號","E_COORD97":167661.51999999999,"N_COORD97":2541855.8900000001,"ADDRESS":"西門路一段２２３巷１０弄１７號","OBJECTID":79012},"geometry":{"x":167661.51999999955,"y":2541855.8900000043}},{"attributes":{"ID":79013,"DIS_CODE":0,"TOWNNAME":"南區","LI":"田寮里","LIN":"19鄰","STREET":"西門路","SECT":"一段","MAREA":" ","LANE":"２２３巷","ALLEY":"１０弄","HOUSE_NO":"１８號","E_COORD97":167676.76999999999,"N_COORD97":2541855.6400000001,"ADDRESS":"西門路一段２２３巷１０弄１８號","OBJECTID":79013},"geometry":{"x":167676.76999999955,"y":2541855.6400000025}},{"attributes":{"ID":79014,"DIS_CODE":0,"TOWNNAME":"南區","LI":"田寮里","LIN":"19鄰","STREET":"西門路","SECT":"一段","MAREA":" ","LANE":"２２３巷","ALLEY":"１０弄","HOUSE_NO":"１９號","E_COORD97":167653.19,"N_COORD97":2541855.5099999998,"ADDRESS":"西門路一段２２３巷１０弄１９號","OBJECTID":79014},"geometry":{"x":167653.19000000134,"y":2541855.5100000016}},{"attributes":{"ID":79015,"DIS_CODE":0,"TOWNNAME":"永康區","LI":"二王里","LIN":"7鄰","STREET":"永二街","SECT":" ","MAREA":" ","LANE":" ","ALLEY":" ","HOUSE_NO":"３９６號之１","E_COORD97":172815.31,"N_COORD97":2546669.7599999998,"ADDRESS":"永二街３９６號之１","OBJECTID":79015},"geometry":{"x":172815.31000000052,"y":2546669.7599999998}},{"attributes":{"ID":79016,"DIS_CODE":0,"TOWNNAME":"永康區","LI":"埔園里","LIN":"7鄰","STREET":"中山路","SECT":" ","MAREA":" ","LANE":" ","ALLEY":" ","HOUSE_NO":"４３號","E_COORD97":173793.10000000001,"N_COORD97":2547590.4399999999,"ADDRESS":"中山路４３號","OBJECTID":79016},"geometry":{"x":173793.10000000056,"y":2547590.4399999995}},{"attributes":{"ID":79017,"DIS_CODE":0,"TOWNNAME":"永康區","LI":"烏竹里","LIN":"7鄰","STREET":"龍橋街","SECT":" ","MAREA":" ","LANE":" ","ALLEY":" ","HOUSE_NO":"４５１號","E_COORD97":174399.67000000001,"N_COORD97":2549303.9500000002,"ADDRESS":"龍橋街４５１號","OBJECTID":79017},"geometry":{"x":174399.67000000086,"y":2549303.9500000011}},{"attributes":{"ID":79018,"DIS_CODE":0,"TOWNNAME":"永康區","LI":"南灣里","LIN":"7鄰","STREET":"南興路","SECT":" ","MAREA":" ","LANE":" ","ALLEY":" ","HOUSE_NO":"１０２號","E_COORD97":174312.20999999999,"N_COORD97":2544418.3300000001,"ADDRESS":"南興路１０２號","OBJECTID":79018},"geometry":{"x":174312.20999999996,"y":2544418.3300000001}},{"attributes":{"ID":79019,"DIS_CODE":0,"TOWNNAME":"永康區","LI":"埔園里","LIN":"7鄰","STREET":"中正路","SECT":" ","MAREA":" ","LANE":" ","ALLEY":" ","HOUSE_NO":"１４號","E_COORD97":173698.14000000001,"N_COORD97":2547729.3999999999,"ADDRESS":"中正路１４號","OBJECTID":79019},"geometry":{"x":173698.1400000006,"y":2547729.4000000004}},{"attributes":{"ID":79020,"DIS_CODE":0,"TOWNNAME":"永康區","LI":"神洲里","LIN":"7鄰","STREET":"忠孝路","SECT":" ","MAREA":" ","LANE":" ","ALLEY":" ","HOUSE_NO":"６８號","E_COORD97":172095.39000000001,"N_COORD97":2544803.7999999998,"ADDRESS":"忠孝路６８號","OBJECTID":79020},"geometry":{"x":172095.38999999966,"y":2544803.8000000026}},{"attributes":{"ID":79021,"DIS_CODE":0,"TOWNNAME":"永康區","LI":"埔園里","LIN":"7鄰","STREET":"中正路","SECT":" ","MAREA":" ","LANE":" ","ALLEY":" ","HOUSE_NO":"１６號","E_COORD97":173694.34,"N_COORD97":2547732.3999999999,"ADDRESS":"中正路１６號","OBJECTID":79021},"geometry":{"x":173694.33999999985,"y":2547732.4000000022}},{"attributes":{"ID":79022,"DIS_CODE":0,"TOWNNAME":"永康區","LI":"神洲里","LIN":"7鄰","STREET":"忠孝路","SECT":" ","MAREA":" ","LANE":" ","ALLEY":" ","HOUSE_NO":"５８號","E_COORD97":172094.87,"N_COORD97":2544773.0600000001,"ADDRESS":"忠孝路５８號","OBJECTID":79022},"geometry":{"x":172094.87000000104,"y":2544773.0600000005}},{"attributes":{"ID":79023,"DIS_CODE":0,"TOWNNAME":"安南區","LI":"原佃里","LIN":"7鄰","STREET":"安中路","SECT":"二段","MAREA":" ","LANE":" ","ALLEY":" ","HOUSE_NO":"６０號","E_COORD97":166947.95999999999,"N_COORD97":2549614.3799999999,"ADDRESS":"安中路二段６０號","OBJECTID":79023},"geometry":{"x":166947.96000000089,"y":2549614.379999999}},{"attributes":{"ID":79024,"DIS_CODE":0,"TOWNNAME":"安南區","LI":"原佃里","LIN":"7鄰","STREET":"安中路","SECT":"二段","MAREA":" ","LANE":" ","ALLEY":" ","HOUSE_NO":"６２號","E_COORD97":166943.73000000001,"N_COORD97":2549615.4399999999,"ADDRESS":"安中路二段６２號","OBJECTID":79024},"geometry":{"x":166943.73000000045,"y":2549615.4400000013}},{"attributes":{"ID":79025,"DIS_CODE":0,"TOWNNAME":"南區","LI":"田寮里","LIN":"19鄰","STREET":"西門路","SECT":"一段","MAREA":" ","LANE":"２２３巷","ALLEY":"１０弄","HOUSE_NO":"１號","E_COORD97":167661.47,"N_COORD97":2541826.3399999999,"ADDRESS":"西門路一段２２３巷１０弄１號","OBJECTID":79025},"geometry":{"x":167661.46999999974,"y":2541826.3400000017}},{"attributes":{"ID":79026,"DIS_CODE":0,"TOWNNAME":"南區","LI":"田寮里","LIN":"19鄰","STREET":"西門路","SECT":"一段","MAREA":" ","LANE":"２２３巷","ALLEY":"１０弄","HOUSE_NO":"２０號","E_COORD97":167684.20999999999,"N_COORD97":2541855.77,"ADDRESS":"西門路一段２２３巷１０弄２０號","OBJECTID":79026},"geometry":{"x":167684.20999999996,"y":2541855.7700000014}},{"attributes":{"ID":79027,"DIS_CODE":0,"TOWNNAME":"東區","LI":"後甲里","LIN":"33鄰","STREET":" ","SECT":" ","MAREA":"精忠三村","LANE":" ","ALLEY":" ","HOUSE_NO":"８７４號","E_COORD97":171969.17000000001,"N_COORD97":2543633.2200000002,"ADDRESS":"精忠三村８７４號","OBJECTID":79027},"geometry":{"x":171969.17000000086,"y":2543633.2200000007}},{"attributes":{"ID":79028,"DIS_CODE":0,"TOWNNAME":"南區","LI":"田寮里","LIN":"19鄰","STREET":"西門路","SECT":"一段","MAREA":" ","LANE":"２２３巷","ALLEY":"１０弄","HOUSE_NO":"２１號","E_COORD97":167645.48999999999,"N_COORD97":2541855.1299999999,"ADDRESS":"西門路一段２２３巷１０弄２１號","OBJECTID":79028},"geometry":{"x":167645.49000000022,"y":2541855.129999999}},{"attributes":{"ID":79029,"DIS_CODE":0,"TOWNNAME":"南區","LI":"田寮里","LIN":"19鄰","STREET":"西門路","SECT":"一段","MAREA":" ","LANE":"２２３巷","ALLEY":"１０弄","HOUSE_NO":"２２號","E_COORD97":167692.28,"N_COORD97":2541856.2799999998,"ADDRESS":"西門路一段２２３巷１０弄２２號","OBJECTID":79029},"geometry":{"x":167692.28000000026,"y":2541856.2800000012}},{"attributes":{"ID":79030,"DIS_CODE":0,"TOWNNAME":"東區","LI":"後甲里","LIN":"33鄰","STREET":" ","SECT":" ","MAREA":"精忠三村","LANE":" ","ALLEY":" ","HOUSE_NO":"９３６號","E_COORD97":171930.34,"N_COORD97":2543655.25,"ADDRESS":"精忠三村９３６號","OBJECTID":79030},"geometry":{"x":171930.34000000078,"y":2543655.25}},{"attributes":{"ID":79031,"DIS_CODE":0,"TOWNNAME":"南區","LI":"田寮里","LIN":"19鄰","STREET":"西門路","SECT":"一段","MAREA":" ","LANE":"２２３巷","ALLEY":"１０弄","HOUSE_NO":"２３號","E_COORD97":167638.19,"N_COORD97":2541855.25,"ADDRESS":"西門路一段２２３巷１０弄２３號","OBJECTID":79031},"geometry":{"x":167638.19000000134,"y":2541855.25}},{"attributes":{"ID":79032,"DIS_CODE":0,"TOWNNAME":"新市區","LI":"大社里","LIN":"33鄰","STREET":" ","SECT":" ","MAREA":"大社","LANE":" ","ALLEY":" ","HOUSE_NO":"４０８之５０號","E_COORD97":180158.48999999999,"N_COORD97":2554819.9300000002,"ADDRESS":"大社４０８之５０號","OBJECTID":79032},"geometry":{"x":180158.49000000115,"y":2554819.9300000016}},{"attributes":{"ID":79033,"DIS_CODE":0,"TOWNNAME":"新市區","LI":"大社里","LIN":"33鄰","STREET":" ","SECT":" ","MAREA":"大社","LANE":" ","ALLEY":" ","HOUSE_NO":"４０８之２號","E_COORD97":180128.04000000001,"N_COORD97":2554893.4300000002,"ADDRESS":"大社４０８之２號","OBJECTID":79033},"geometry":{"x":180128.04000000004,"y":2554893.4299999997}},{"attributes":{"ID":79034,"DIS_CODE":0,"TOWNNAME":"新市區","LI":"大社里","LIN":"33鄰","STREET":" ","SECT":" ","MAREA":"大社","LANE":" ","ALLEY":" ","HOUSE_NO":"４０８之５６號","E_COORD97":180121.79000000001,"N_COORD97":2554820.9300000002,"ADDRESS":"大社４０８之５６號","OBJECTID":79034},"geometry":{"x":180121.7900000019,"y":2554820.9300000016}},{"attributes":{"ID":79035,"DIS_CODE":0,"TOWNNAME":"新市區","LI":"大社里","LIN":"33鄰","STREET":" ","SECT":" ","MAREA":"大社","LANE":" ","ALLEY":" ","HOUSE_NO":"４０８之３５號","E_COORD97":180163.69,"N_COORD97":2554835.9300000002,"ADDRESS":"大社４０８之３５號","OBJECTID":79035},"geometry":{"x":180163.69000000134,"y":2554835.9299999997}},{"attributes":{"ID":79036,"DIS_CODE":0,"TOWNNAME":"新市區","LI":"大社里","LIN":"33鄰","STREET":" ","SECT":" ","MAREA":"大社","LANE":" ","ALLEY":" ","HOUSE_NO":"４０８之１７號","E_COORD97":180109.14999999999,"N_COORD97":2554875.9300000002,"ADDRESS":"大社４０８之１７號","OBJECTID":79036},"geometry":{"x":180109.15000000037,"y":2554875.9299999997}},{"attributes":{"ID":79037,"DIS_CODE":0,"TOWNNAME":"新市區","LI":"大社里","LIN":"33鄰","STREET":" ","SECT":" ","MAREA":"大社","LANE":" ","ALLEY":" ","HOUSE_NO":"４０８之１３號","E_COORD97":180127.94,"N_COORD97":2554875.4300000002,"ADDRESS":"大社４０８之１３號","OBJECTID":79037},"geometry":{"x":180127.94000000227,"y":2554875.4299999997}},{"attributes":{"ID":79038,"DIS_CODE":0,"TOWNNAME":"新市區","LI":"大社里","LIN":"33鄰","STREET":" ","SECT":" ","MAREA":"大社","LANE":" ","ALLEY":" ","HOUSE_NO":"４０８之７１號","E_COORD97":180116.85000000001,"N_COORD97":2554798.9300000002,"ADDRESS":"大社４０８之７１號","OBJECTID":79038},"geometry":{"x":180116.84999999963,"y":2554798.9300000034}},{"attributes":{"ID":79039,"DIS_CODE":0,"TOWNNAME":"新市區","LI":"大社里","LIN":"33鄰","STREET":" ","SECT":" ","MAREA":"大社","LANE":" ","ALLEY":" ","HOUSE_NO":"４０８之５７號","E_COORD97":180117.19,"N_COORD97":2554821.1800000002,"ADDRESS":"大社４０８之５７號","OBJECTID":79039},"geometry":{"x":180117.19000000041,"y":2554821.1800000034}},{"attributes":{"ID":79040,"DIS_CODE":0,"TOWNNAME":"新市區","LI":"大社里","LIN":"33鄰","STREET":" ","SECT":" ","MAREA":"大社","LANE":" ","ALLEY":" ","HOUSE_NO":"４０８之４７號","E_COORD97":180172.29000000001,"N_COORD97":2554819.9300000002,"ADDRESS":"大社４０８之４７號","OBJECTID":79040},"geometry":{"x":180172.29000000004,"y":2554819.9300000016}},{"attributes":{"ID":79041,"DIS_CODE":0,"TOWNNAME":"新市區","LI":"大社里","LIN":"33鄰","STREET":" ","SECT":" ","MAREA":"大社","LANE":" ","ALLEY":" ","HOUSE_NO":"４０８之５８號","E_COORD97":180112.60000000001,"N_COORD97":2554821.1800000002,"ADDRESS":"大社４０８之５８號","OBJECTID":79041},"geometry":{"x":180112.60000000056,"y":2554821.1800000034}},{"attributes":{"ID":79042,"DIS_CODE":0,"TOWNNAME":"新市區","LI":"大社里","LIN":"33鄰","STREET":" ","SECT":" ","MAREA":"大社","LANE":" ","ALLEY":" ","HOUSE_NO":"４０８之６號","E_COORD97":180167.54000000001,"N_COORD97":2554874.1800000002,"ADDRESS":"大社４０８之６號","OBJECTID":79042},"geometry":{"x":180167.5400000019,"y":2554874.1799999997}},{"attributes":{"ID":79043,"DIS_CODE":0,"TOWNNAME":"官田區","LI":"渡頭里","LIN":"33鄰","STREET":" ","SECT":" ","MAREA":"三塊厝","LANE":" ","ALLEY":" ","HOUSE_NO":"３３４號","E_COORD97":184211.75,"N_COORD97":2562134.3799999999,"ADDRESS":"三塊厝３３４號","OBJECTID":79043},"geometry":{"x":184211.75,"y":2562134.379999999}},{"attributes":{"ID":79044,"DIS_CODE":0,"TOWNNAME":"新市區","LI":"大社里","LIN":"33鄰","STREET":" ","SECT":" ","MAREA":"大社","LANE":" ","ALLEY":" ","HOUSE_NO":"４０８之３２號","E_COORD97":180177.19,"N_COORD97":2554835.6800000002,"ADDRESS":"大社４０８之３２號","OBJECTID":79044},"geometry":{"x":180177.19000000227,"y":2554835.6800000016}},{"attributes":{"ID":79045,"DIS_CODE":0,"TOWNNAME":"新市區","LI":"大社里","LIN":"33鄰","STREET":" ","SECT":" ","MAREA":"大社","LANE":" ","ALLEY":" ","HOUSE_NO":"４０８之４號","E_COORD97":180176.54000000001,"N_COORD97":2554872.1800000002,"ADDRESS":"大社４０８之４號","OBJECTID":79045},"geometry":{"x":180176.54000000097,"y":2554872.1800000034}},{"attributes":{"ID":79046,"DIS_CODE":0,"TOWNNAME":"新市區","LI":"大社里","LIN":"33鄰","STREET":" ","SECT":" ","MAREA":"大社","LANE":" ","ALLEY":" ","HOUSE_NO":"４０８之１４號","E_COORD97":180123.14999999999,"N_COORD97":2554875.4300000002,"ADDRESS":"大社４０８之１４號","OBJECTID":79046},"geometry":{"x":180123.15000000224,"y":2554875.4299999997}},{"attributes":{"ID":79047,"DIS_CODE":0,"TOWNNAME":"新市區","LI":"大社里","LIN":"33鄰","STREET":" ","SECT":" ","MAREA":"大社","LANE":" ","ALLEY":" ","HOUSE_NO":"４０８之３４號","E_COORD97":180168.19,"N_COORD97":2554835.6800000002,"ADDRESS":"大社４０８之３４號","OBJECTID":79047},"geometry":{"x":180168.19000000041,"y":2554835.6800000016}},{"attributes":{"ID":79048,"DIS_CODE":0,"TOWNNAME":"新市區","LI":"大社里","LIN":"33鄰","STREET":" ","SECT":" ","MAREA":"大社","LANE":" ","ALLEY":" ","HOUSE_NO":"４０８之１號","E_COORD97":180147.85000000001,"N_COORD97":2554888.1800000002,"ADDRESS":"大社４０８之１號","OBJECTID":79048},"geometry":{"x":180147.84999999963,"y":2554888.1799999997}},{"attributes":{"ID":79049,"DIS_CODE":0,"TOWNNAME":"新市區","LI":"大社里","LIN":"33鄰","STREET":" ","SECT":" ","MAREA":"大社","LANE":" ","ALLEY":" ","HOUSE_NO":"４０８之７７號","E_COORD97":180157.35000000001,"N_COORD97":2554781.9300000002,"ADDRESS":"大社４０８之７７號","OBJECTID":79049},"geometry":{"x":180157.35000000056,"y":2554781.9299999978}},{"attributes":{"ID":79050,"DIS_CODE":0,"TOWNNAME":"南區","LI":"田寮里","LIN":"19鄰","STREET":"西門路","SECT":"一段","MAREA":" ","LANE":"２２３巷","ALLEY":"１０弄","HOUSE_NO":"２４號","E_COORD97":167699.97,"N_COORD97":2541856.4100000001,"ADDRESS":"西門路一段２２３巷１０弄２４號","OBJECTID":79050},"geometry":{"x":167699.97000000067,"y":2541856.410000002}},{"attributes":{"ID":79051,"DIS_CODE":0,"TOWNNAME":"安南區","LI":"\u25A0田里","LIN":"7鄰","STREET":"工業三路","SECT":" ","MAREA":" ","LANE":" ","ALLEY":" ","HOUSE_NO":"３２號","E_COORD97":163014.07999999999,"N_COORD97":2548654.6000000001,"ADDRESS":"工業三路３２號","OBJECTID":79051},"geometry":{"x":163014.08000000101,"y":2548654.6000000034}},{"attributes":{"ID":79052,"DIS_CODE":0,"TOWNNAME":"安南區","LI":"\u25A0田里","LIN":"7鄰","STREET":"工環路","SECT":" ","MAREA":" ","LANE":" ","ALLEY":" ","HOUSE_NO":"３號","E_COORD97":163587.57000000001,"N_COORD97":2548710.8100000001,"ADDRESS":"工環路３號","OBJECTID":79052},"geometry":{"x":163587.57000000123,"y":2548710.8100000005}},{"attributes":{"ID":79053,"DIS_CODE":0,"TOWNNAME":"安南區","LI":"\u25A0田里","LIN":"7鄰","STREET":"工環路","SECT":" ","MAREA":" ","LANE":" ","ALLEY":" ","HOUSE_NO":"１５號","E_COORD97":163822.20000000001,"N_COORD97":2548605.7200000002,"ADDRESS":"工環路１５號","OBJECTID":79053},"geometry":{"x":163822.20000000112,"y":2548605.7200000007}},{"attributes":{"ID":79054,"DIS_CODE":0,"TOWNNAME":"安南區","LI":"\u25A0田里","LIN":"7鄰","STREET":"工環路","SECT":" ","MAREA":" ","LANE":" ","ALLEY":" ","HOUSE_NO":"２５號","E_COORD97":163853.32000000001,"N_COORD97":2548380.29,"ADDRESS":"工環路２５號","OBJECTID":79054},"geometry":{"x":163853.32000000123,"y":2548380.2899999991}},{"attributes":{"ID":79055,"DIS_CODE":0,"TOWNNAME":"安南區","LI":"\u25A0田里","LIN":"7鄰","STREET":"工業二路","SECT":" ","MAREA":" ","LANE":" ","ALLEY":" ","HOUSE_NO":"２號","E_COORD97":163856.32999999999,"N_COORD97":2548022.1899999999,"ADDRESS":"工業二路２號","OBJECTID":79055},"geometry":{"x":163856.33000000194,"y":2548022.1899999995}},{"attributes":{"ID":79056,"DIS_CODE":0,"TOWNNAME":"安南區","LI":"\u25A0田里","LIN":"7鄰","STREET":"工業三路","SECT":" ","MAREA":" ","LANE":" ","ALLEY":" ","HOUSE_NO":"１號","E_COORD97":163737.26999999999,"N_COORD97":2547944.0099999998,"ADDRESS":"工業三路１號","OBJECTID":79056},"geometry":{"x":163737.26999999862,"y":2547944.0100000016}},{"attributes":{"ID":79057,"DIS_CODE":0,"TOWNNAME":"南區","LI":"田寮里","LIN":"19鄰","STREET":"西門路","SECT":"一段","MAREA":" ","LANE":"２２３巷","ALLEY":"１０弄","HOUSE_NO":"２５號","E_COORD97":167638.57000000001,"N_COORD97":2541873.9399999999,"ADDRESS":"西門路一段２２３巷１０弄２５號","OBJECTID":79057},"geometry":{"x":167638.57000000216,"y":2541873.9399999995}},{"attributes":{"ID":79058,"DIS_CODE":0,"TOWNNAME":"南區","LI":"田寮里","LIN":"19鄰","STREET":"西門路","SECT":"一段","MAREA":" ","LANE":"２２３巷","ALLEY":"１０弄","HOUSE_NO":"２６號","E_COORD97":167699.85000000001,"N_COORD97":2541874.71,"ADDRESS":"西門路一段２２３巷１０弄２６號","OBJECTID":79058},"geometry":{"x":167699.84999999963,"y":2541874.7100000028}},{"attributes":{"ID":79059,"DIS_CODE":0,"TOWNNAME":"南區","LI":"田寮里","LIN":"19鄰","STREET":"西門路","SECT":"一段","MAREA":" ","LANE":"２２３巷","ALLEY":"１０弄","HOUSE_NO":"２７號","E_COORD97":167645.10999999999,"N_COORD97":2541874.8399999999,"ADDRESS":"西門路一段２２３巷１０弄２７號","OBJECTID":79059},"geometry":{"x":167645.1100000022,"y":2541874.8399999999}},{"attributes":{"ID":79060,"DIS_CODE":0,"TOWNNAME":"南區","LI":"田寮里","LIN":"19鄰","STREET":"西門路","SECT":"一段","MAREA":" ","LANE":"２２３巷","ALLEY":"１０弄","HOUSE_NO":"２８號","E_COORD97":167691.26000000001,"N_COORD97":2541874.96,"ADDRESS":"西門路一段２２３巷１０弄２８號","OBJECTID":79060},"geometry":{"x":167691.26000000071,"y":2541874.9600000009}},{"attributes":{"ID":79061,"DIS_CODE":0,"TOWNNAME":"南區","LI":"田寮里","LIN":"19鄰","STREET":"西門路","SECT":"一段","MAREA":" ","LANE":"２２３巷","ALLEY":"１０弄","HOUSE_NO":"２９號","E_COORD97":167652.67000000001,"N_COORD97":2541875.0899999999,"ADDRESS":"西門路一段２２３巷１０弄２９號","OBJECTID":79061},"geometry":{"x":167652.67000000179,"y":2541875.0900000017}},{"attributes":{"ID":79062,"DIS_CODE":0,"TOWNNAME":"南區","LI":"田寮里","LIN":"19鄰","STREET":"西門路","SECT":"一段","MAREA":" ","LANE":"２２３巷","ALLEY":"１０弄","HOUSE_NO":"２號","E_COORD97":167676.89999999999,"N_COORD97":2541825.8399999999,"ADDRESS":"西門路一段２２３巷１０弄２號","OBJECTID":79062},"geometry":{"x":167676.89999999944,"y":2541825.8400000017}},{"attributes":{"ID":79063,"DIS_CODE":0,"TOWNNAME":"南區","LI":"田寮里","LIN":"19鄰","STREET":"西門路","SECT":"一段","MAREA":" ","LANE":"２２３巷","ALLEY":"１０弄","HOUSE_NO":"３０號","E_COORD97":167683.82000000001,"N_COORD97":2541875.0899999999,"ADDRESS":"西門路一段２２３巷１０弄３０號","OBJECTID":79063},"geometry":{"x":167683.8200000003,"y":2541875.0900000017}},{"attributes":{"ID":79064,"DIS_CODE":0,"TOWNNAME":"南區","LI":"田寮里","LIN":"19鄰","STREET":"西門路","SECT":"一段","MAREA":" ","LANE":"２２３巷","ALLEY":"１０弄","HOUSE_NO":"３１號","E_COORD97":167659.98000000001,"N_COORD97":2541874.96,"ADDRESS":"西門路一段２２３巷１０弄３１號","OBJECTID":79064},"geometry":{"x":167659.98000000138,"y":2541874.9600000009}},{"attributes":{"ID":79065,"DIS_CODE":0,"TOWNNAME":"南區","LI":"田寮里","LIN":"19鄰","STREET":"西門路","SECT":"一段","MAREA":" ","LANE":"２２３巷","ALLEY":"１０弄","HOUSE_NO":"３２號","E_COORD97":167676.64000000001,"N_COORD97":2541875.0899999999,"ADDRESS":"西門路一段２２３巷１０弄３２號","OBJECTID":79065},"geometry":{"x":167676.6400000006,"y":2541875.0900000017}},{"attributes":{"ID":79066,"DIS_CODE":0,"TOWNNAME":"歸仁區","LI":"媽廟里","LIN":"19鄰","STREET":"媽廟二街","SECT":" ","MAREA":" ","LANE":"３１巷","ALLEY":"４２弄","HOUSE_NO":"９號","E_COORD97":177748.98000000001,"N_COORD97":2543856.7200000002,"ADDRESS":"媽廟二街３１巷４２弄９號","OBJECTID":79066},"geometry":{"x":177748.98000000045,"y":2543856.7200000007}},{"attributes":{"ID":79067,"DIS_CODE":0,"TOWNNAME":"北區","LI":"正覺里","LIN":"19鄰","STREET":"公園路","SECT":" ","MAREA":" ","LANE":"６８１巷","ALLEY":"１８弄","HOUSE_NO":"２２號","E_COORD97":169440.75,"N_COORD97":2546405.27,"ADDRESS":"公園路６８１巷１８弄２２號","OBJECTID":79067},"geometry":{"x":169440.75000000186,"y":2546405.2700000033}},{"attributes":{"ID":79068,"DIS_CODE":0,"TOWNNAME":"北區","LI":"正覺里","LIN":"19鄰","STREET":"公園路","SECT":" ","MAREA":" ","LANE":"６８１巷","ALLEY":"１８弄","HOUSE_NO":"２４號","E_COORD97":169442.5,"N_COORD97":2546410.25,"ADDRESS":"公園路６８１巷１８弄２４號","OBJECTID":79068},"geometry":{"x":169442.50000000093,"y":2546410.2500000019}},{"attributes":{"ID":79069,"DIS_CODE":0,"TOWNNAME":"北區","LI":"正覺里","LIN":"19鄰","STREET":"公園路","SECT":" ","MAREA":" ","LANE":"６８１巷","ALLEY":"１８弄","HOUSE_NO":"２６號","E_COORD97":169444.41,"N_COORD97":2546412.9100000001,"ADDRESS":"公園路６８１巷１８弄２６號","OBJECTID":79069},"geometry":{"x":169444.41000000015,"y":2546412.910000002}},{"attributes":{"ID":79070,"DIS_CODE":0,"TOWNNAME":"新市區","LI":"大社里","LIN":"33鄰","STREET":" ","SECT":" ","MAREA":"大社","LANE":" ","ALLEY":" ","HOUSE_NO":"４０８之３９號","E_COORD97":180144.79000000001,"N_COORD97":2554836.1800000002,"ADDRESS":"大社４０８之３９號","OBJECTID":79070},"geometry":{"x":180144.79000000004,"y":2554836.1800000016}},{"attributes":{"ID":79071,"DIS_CODE":0,"TOWNNAME":"新市區","LI":"大社里","LIN":"33鄰","STREET":" ","SECT":" ","MAREA":"大社","LANE":" ","ALLEY":" ","HOUSE_NO":"４０８之６８號","E_COORD97":180130.39999999999,"N_COORD97":2554798.6800000002,"ADDRESS":"大社４０８之６８號","OBJECTID":79071},"geometry":{"x":180130.4000000013,"y":2554798.6800000016}},{"attributes":{"ID":79072,"DIS_CODE":0,"TOWNNAME":"新市區","LI":"大社里","LIN":"33鄰","STREET":" ","SECT":" ","MAREA":"大社","LANE":" ","ALLEY":" ","HOUSE_NO":"４０８之４２號","E_COORD97":180122.19,"N_COORD97":2554832.6800000002,"ADDRESS":"大社４０８之４２號","OBJECTID":79072},"geometry":{"x":180122.19000000041,"y":2554832.6800000016}},{"attributes":{"ID":79073,"DIS_CODE":0,"TOWNNAME":"北區","LI":"正覺里","LIN":"19鄰","STREET":"公園路","SECT":" ","MAREA":" ","LANE":"６８１巷","ALLEY":"１８弄","HOUSE_NO":"２８號","E_COORD97":169446.23999999999,"N_COORD97":2546416.4900000002,"ADDRESS":"公園路６８１巷１８弄２８號","OBJECTID":79073},"geometry":{"x":169446.24000000115,"y":2546416.4900000002}},{"attributes":{"ID":79074,"DIS_CODE":0,"TOWNNAME":"北區","LI":"正覺里","LIN":"19鄰","STREET":"公園路","SECT":" ","MAREA":" ","LANE":"６８１巷","ALLEY":"１８弄","HOUSE_NO":"２號","E_COORD97":169426.35000000001,"N_COORD97":2546365.1400000001,"ADDRESS":"公園路６８１巷１８弄２號","OBJECTID":79074},"geometry":{"x":169426.35000000056,"y":2546365.1400000006}},{"attributes":{"ID":79075,"DIS_CODE":0,"TOWNNAME":"北區","LI":"正覺里","LIN":"19鄰","STREET":"公園路","SECT":" ","MAREA":" ","LANE":"６８１巷","ALLEY":"１８弄","HOUSE_NO":"３號","E_COORD97":169416.82999999999,"N_COORD97":2546379.2799999998,"ADDRESS":"公園路６８１巷１８弄３號","OBJECTID":79075},"geometry":{"x":169416.83000000101,"y":2546379.2800000012}},{"attributes":{"ID":79076,"DIS_CODE":0,"TOWNNAME":"北區","LI":"正覺里","LIN":"19鄰","STREET":"公園路","SECT":" ","MAREA":" ","LANE":"６８１巷","ALLEY":"１８弄","HOUSE_NO":"４號","E_COORD97":169427.35000000001,"N_COORD97":2546368.96,"ADDRESS":"公園路６８１巷１８弄４號","OBJECTID":79076},"geometry":{"x":169427.34999999963,"y":2546368.9600000028}},{"attributes":{"ID":79077,"DIS_CODE":0,"TOWNNAME":"北區","LI":"正覺里","LIN":"19鄰","STREET":"公園路","SECT":" ","MAREA":" ","LANE":"６８１巷","ALLEY":"１８弄","HOUSE_NO":"５號","E_COORD97":169419.85999999999,"N_COORD97":2546384.1600000001,"ADDRESS":"公園路６８１巷１８弄５號","OBJECTID":79077},"geometry":{"x":169419.8600000022,"y":2546384.160000002}},{"attributes":{"ID":79078,"DIS_CODE":0,"TOWNNAME":"北區","LI":"正覺里","LIN":"19鄰","STREET":"公園路","SECT":" ","MAREA":" ","LANE":"６８１巷","ALLEY":"１８弄","HOUSE_NO":"６號","E_COORD97":169429.51000000001,"N_COORD97":2546373.7799999998,"ADDRESS":"公園路６８１巷１８弄６號","OBJECTID":79078},"geometry":{"x":169429.50999999978,"y":2546373.7799999993}},{"attributes":{"ID":79079,"DIS_CODE":0,"TOWNNAME":"北區","LI":"正覺里","LIN":"19鄰","STREET":"公園路","SECT":" ","MAREA":" ","LANE":"６８１巷","ALLEY":"１８弄","HOUSE_NO":"８號","E_COORD97":169431.09,"N_COORD97":2546378.3599999999,"ADDRESS":"公園路６８１巷１８弄８號","OBJECTID":79079},"geometry":{"x":169431.08999999985,"y":2546378.3600000013}},{"attributes":{"ID":79080,"DIS_CODE":0,"TOWNNAME":"北區","LI":"正覺里","LIN":"19鄰","STREET":"公園路","SECT":" ","MAREA":" ","LANE":"６８１巷","ALLEY":"２８弄","HOUSE_NO":"１０號","E_COORD97":169418.75,"N_COORD97":2546397.8599999999,"ADDRESS":"公園路６８１巷２８弄１０號","OBJECTID":79080},"geometry":{"x":169418.75000000093,"y":2546397.8600000031}},{"attributes":{"ID":79081,"DIS_CODE":0,"TOWNNAME":"北區","LI":"正覺里","LIN":"19鄰","STREET":"公園路","SECT":" ","MAREA":" ","LANE":"６８１巷","ALLEY":"２８弄","HOUSE_NO":"１１號","E_COORD97":169404.48999999999,"N_COORD97":2546396.5,"ADDRESS":"公園路６８１巷２８弄１１號","OBJECTID":79081},"geometry":{"x":169404.49000000022,"y":2546396.5}},{"attributes":{"ID":79082,"DIS_CODE":0,"TOWNNAME":"北區","LI":"正覺里","LIN":"19鄰","STREET":"公園路","SECT":" ","MAREA":" ","LANE":"６８１巷","ALLEY":"２８弄","HOUSE_NO":"１２號","E_COORD97":169421.07999999999,"N_COORD97":2546402.6800000002,"ADDRESS":"公園路６８１巷２８弄１２號","OBJECTID":79082},"geometry":{"x":169421.08000000007,"y":2546402.6800000034}},{"attributes":{"ID":79083,"DIS_CODE":0,"TOWNNAME":"北區","LI":"正覺里","LIN":"19鄰","STREET":"公園路","SECT":" ","MAREA":" ","LANE":"６８１巷","ALLEY":"２８弄","HOUSE_NO":"１３號","E_COORD97":169406.17000000001,"N_COORD97":2546399.48,"ADDRESS":"公園路６８１巷２８弄１３號","OBJECTID":79083},"geometry":{"x":169406.17000000086,"y":2546399.4800000023}},{"attributes":{"ID":79084,"DIS_CODE":0,"TOWNNAME":"北區","LI":"正覺里","LIN":"19鄰","STREET":"公園路","SECT":" ","MAREA":" ","LANE":"６８１巷","ALLEY":"２８弄","HOUSE_NO":"１４號","E_COORD97":169422.82999999999,"N_COORD97":2546407.3900000001,"ADDRESS":"公園路６８１巷２８弄１４號","OBJECTID":79084},"geometry":{"x":169422.83000000007,"y":2546407.3900000006}},{"attributes":{"ID":79085,"DIS_CODE":0,"TOWNNAME":"北區","LI":"正覺里","LIN":"19鄰","STREET":"公園路","SECT":" ","MAREA":" ","LANE":"６８１巷","ALLEY":"２８弄","HOUSE_NO":"１５號","E_COORD97":169406.92999999999,"N_COORD97":2546402.98,"ADDRESS":"公園路６８１巷２８弄１５號","OBJECTID":79085},"geometry":{"x":169406.93000000156,"y":2546402.9800000023}},{"attributes":{"ID":79086,"DIS_CODE":0,"TOWNNAME":"北區","LI":"興南里","LIN":"8鄰","STREET":"公園北路","SECT":" ","MAREA":" ","LANE":" ","ALLEY":" ","HOUSE_NO":"１４０號","E_COORD97":168899.70999999999,"N_COORD97":2545063.23,"ADDRESS":"公園北路１４０號","OBJECTID":79086},"geometry":{"x":168899.70999999996,"y":2545063.2300000004}},{"attributes":{"ID":79087,"DIS_CODE":0,"TOWNNAME":"北區","LI":"正覺里","LIN":"19鄰","STREET":"公園路","SECT":" ","MAREA":" ","LANE":"６８１巷","ALLEY":"２８弄","HOUSE_NO":"１６號","E_COORD97":169425.16,"N_COORD97":2546411.0499999998,"ADDRESS":"公園路６８１巷２８弄１６號","OBJECTID":79087},"geometry":{"x":169425.16000000108,"y":2546411.0500000007}},{"attributes":{"ID":79088,"DIS_CODE":0,"TOWNNAME":"北區","LI":"正覺里","LIN":"19鄰","STREET":"公園路","SECT":" ","MAREA":" ","LANE":"６８１巷","ALLEY":"２８弄","HOUSE_NO":"１７號","E_COORD97":169408.01000000001,"N_COORD97":2546406.6400000001,"ADDRESS":"公園路６８１巷２８弄１７號","OBJECTID":79088},"geometry":{"x":169408.00999999885,"y":2546406.6400000006}},{"attributes":{"ID":79089,"DIS_CODE":0,"TOWNNAME":"北區","LI":"正覺里","LIN":"19鄰","STREET":"公園路","SECT":" ","MAREA":" ","LANE":"６８１巷","ALLEY":"２８弄","HOUSE_NO":"１８號","E_COORD97":169426.91,"N_COORD97":2546414.29,"ADDRESS":"公園路６８１巷２８弄１８號","OBJECTID":79089},"geometry":{"x":169426.91000000108,"y":2546414.2899999991}},{"attributes":{"ID":79090,"DIS_CODE":0,"TOWNNAME":"北區","LI":"正覺里","LIN":"19鄰","STREET":"公園路","SECT":" ","MAREA":" ","LANE":"６８１巷","ALLEY":"２８弄","HOUSE_NO":"１９號","E_COORD97":169409.51000000001,"N_COORD97":2546409.21,"ADDRESS":"公園路６８１巷２８弄１９號","OBJECTID":79090},"geometry":{"x":169409.50999999978,"y":2546409.2100000009}},{"attributes":{"ID":79091,"DIS_CODE":0,"TOWNNAME":"新化區","LI":"大坑里","LIN":"7鄰","STREET":" ","SECT":" ","MAREA":"大坑尾","LANE":" ","ALLEY":" ","HOUSE_NO":"１６６號","E_COORD97":187035.92999999999,"N_COORD97":2545689.25,"ADDRESS":"大坑尾１６６號","OBJECTID":79091},"geometry":{"x":187035.93000000063,"y":2545689.25}},{"attributes":{"ID":79092,"DIS_CODE":0,"TOWNNAME":"新化區","LI":"大坑里","LIN":"7鄰","STREET":" ","SECT":" ","MAREA":"大坑尾","LANE":" ","ALLEY":" ","HOUSE_NO":"１６６號之１","E_COORD97":186859.06,"N_COORD97":2546177.2599999998,"ADDRESS":"大坑尾１６６號之１","OBJECTID":79092},"geometry":{"x":186859.05999999959,"y":2546177.2599999998}},{"attributes":{"ID":79093,"DIS_CODE":0,"TOWNNAME":"新化區","LI":"大坑里","LIN":"7鄰","STREET":" ","SECT":" ","MAREA":"大坑尾","LANE":" ","ALLEY":" ","HOUSE_NO":"１５６號","E_COORD97":187001.92999999999,"N_COORD97":2545966.25,"ADDRESS":"大坑尾１５６號","OBJECTID":79093},"geometry":{"x":187001.93000000063,"y":2545966.2500000019}},{"attributes":{"ID":79094,"DIS_CODE":0,"TOWNNAME":"新市區","LI":"大社里","LIN":"33鄰","STREET":" ","SECT":" ","MAREA":"大社","LANE":" ","ALLEY":" ","HOUSE_NO":"４０８之７６號","E_COORD97":180161.98999999999,"N_COORD97":2554781.9300000002,"ADDRESS":"大社４０８之７６號","OBJECTID":79094},"geometry":{"x":180161.99000000115,"y":2554781.9299999978}},{"attributes":{"ID":79095,"DIS_CODE":0,"TOWNNAME":"官田區","LI":"渡頭里","LIN":"33鄰","STREET":" ","SECT":" ","MAREA":"三塊厝","LANE":" ","ALLEY":" ","HOUSE_NO":"３０７號之１３","E_COORD97":183149.37,"N_COORD97":2562630.0800000001,"ADDRESS":"三塊厝３０７號之１３","OBJECTID":79095},"geometry":{"x":183149.37000000104,"y":2562630.0800000038}},{"attributes":{"ID":79096,"DIS_CODE":0,"TOWNNAME":"官田區","LI":"渡頭里","LIN":"33鄰","STREET":" ","SECT":" ","MAREA":"三塊厝","LANE":" ","ALLEY":" ","HOUSE_NO":"３０７號之１８","E_COORD97":183096.03,"N_COORD97":2562587.5099999998,"ADDRESS":"三塊厝３０７號之１８","OBJECTID":79096},"geometry":{"x":183096.03000000119,"y":2562587.5100000016}},{"attributes":{"ID":79097,"DIS_CODE":0,"TOWNNAME":"官田區","LI":"渡頭里","LIN":"33鄰","STREET":" ","SECT":" ","MAREA":"三塊厝","LANE":" ","ALLEY":" ","HOUSE_NO":"３０７號","E_COORD97":183505.14000000001,"N_COORD97":2561907.6499999999,"ADDRESS":"三塊厝３０７號","OBJECTID":79097},"geometry":{"x":183505.1400000006,"y":2561907.6499999985}},{"attributes":{"ID":79098,"DIS_CODE":0,"TOWNNAME":"官田區","LI":"渡頭里","LIN":"33鄰","STREET":" ","SECT":" ","MAREA":"三塊厝","LANE":" ","ALLEY":" ","HOUSE_NO":"３０８號之１２","E_COORD97":183583.73000000001,"N_COORD97":2562083.4700000002,"ADDRESS":"三塊厝３０８號之１２","OBJECTID":79098},"geometry":{"x":183583.73000000045,"y":2562083.4700000025}},{"attributes":{"ID":79099,"DIS_CODE":0,"TOWNNAME":"官田區","LI":"渡頭里","LIN":"33鄰","STREET":" ","SECT":" ","MAREA":"三塊厝","LANE":" ","ALLEY":" ","HOUSE_NO":"３０８號之２１","E_COORD97":184004.64000000001,"N_COORD97":2562158.3399999999,"ADDRESS":"三塊厝３０８號之２１","OBJECTID":79099},"geometry":{"x":184004.6400000006,"y":2562158.3400000017}},{"attributes":{"ID":79100,"DIS_CODE":0,"TOWNNAME":"官田區","LI":"渡頭里","LIN":"33鄰","STREET":" ","SECT":" ","MAREA":"三塊厝","LANE":" ","ALLEY":" ","HOUSE_NO":"３０８號之３","E_COORD97":183884.10999999999,"N_COORD97":2561904.9100000001,"ADDRESS":"三塊厝３０８號之３","OBJECTID":79100},"geometry":{"x":183884.11000000034,"y":2561904.9100000001}},{"attributes":{"ID":79101,"DIS_CODE":0,"TOWNNAME":"官田區","LI":"渡頭里","LIN":"33鄰","STREET":" ","SECT":" ","MAREA":"三塊厝","LANE":" ","ALLEY":" ","HOUSE_NO":"３０８號","E_COORD97":183747.20000000001,"N_COORD97":2561952.3300000001,"ADDRESS":"三塊厝３０８號","OBJECTID":79101},"geometry":{"x":183747.20000000112,"y":2561952.3300000001}},{"attributes":{"ID":79102,"DIS_CODE":0,"TOWNNAME":"北區","LI":"正覺里","LIN":"19鄰","STREET":"公園路","SECT":" ","MAREA":" ","LANE":"６８１巷","ALLEY":"２８弄","HOUSE_NO":"１號","E_COORD97":169399.42999999999,"N_COORD97":2546381.9900000002,"ADDRESS":"公園路６８１巷２８弄１號","OBJECTID":79102},"geometry":{"x":169399.4299999997,"y":2546381.9900000021}},{"attributes":{"ID":79103,"DIS_CODE":0,"TOWNNAME":"北區","LI":"正覺里","LIN":"19鄰","STREET":"公園路","SECT":" ","MAREA":" ","LANE":"６８１巷","ALLEY":"２８弄","HOUSE_NO":"２０號","E_COORD97":169428.16,"N_COORD97":2546418.6899999999,"ADDRESS":"公園路６８１巷２８弄２０號","OBJECTID":79103},"geometry":{"x":169428.16000000108,"y":2546418.6899999995}},{"attributes":{"ID":79104,"DIS_CODE":0,"TOWNNAME":"北區","LI":"正覺里","LIN":"19鄰","STREET":"公園路","SECT":" ","MAREA":" ","LANE":"６８１巷","ALLEY":"２８弄","HOUSE_NO":"２１號","E_COORD97":169411.34,"N_COORD97":2546414.29,"ADDRESS":"公園路６８１巷２８弄２１號","OBJECTID":79104},"geometry":{"x":169411.34000000078,"y":2546414.2899999991}},{"attributes":{"ID":79105,"DIS_CODE":0,"TOWNNAME":"北區","LI":"正覺里","LIN":"19鄰","STREET":"公園路","SECT":" ","MAREA":" ","LANE":"６８１巷","ALLEY":"２８弄","HOUSE_NO":"２號","E_COORD97":169406.76000000001,"N_COORD97":2546374.6200000001,"ADDRESS":"公園路６８１巷２８弄２號","OBJECTID":79105},"geometry":{"x":169406.76000000071,"y":2546374.6200000029}},{"attributes":{"ID":79106,"DIS_CODE":0,"TOWNNAME":"新市區","LI":"三舍里","LIN":"7鄰","STREET":" ","SECT":" ","MAREA":"三舍","LANE":" ","ALLEY":" ","HOUSE_NO":"１６８號","E_COORD97":177760.42000000001,"N_COORD97":2554458.25,"ADDRESS":"三舍１６８號","OBJECTID":79106},"geometry":{"x":177760.41999999993,"y":2554458.2500000037}},{"attributes":{"ID":79107,"DIS_CODE":0,"TOWNNAME":"北區","LI":"正覺里","LIN":"19鄰","STREET":"公園路","SECT":" ","MAREA":" ","LANE":"６８１巷","ALLEY":"２８弄","HOUSE_NO":"３號","E_COORD97":169400.17999999999,"N_COORD97":2546385.3100000001,"ADDRESS":"公園路６８１巷２８弄３號","OBJECTID":79107},"geometry":{"x":169400.18000000156,"y":2546385.3100000005}},{"attributes":{"ID":79108,"DIS_CODE":0,"TOWNNAME":"北區","LI":"正覺里","LIN":"19鄰","STREET":"公園路","SECT":" ","MAREA":" ","LANE":"６８１巷","ALLEY":"２８弄","HOUSE_NO":"４號","E_COORD97":169410.01000000001,"N_COORD97":2546382.1099999999,"ADDRESS":"公園路６８１巷２８弄４號","OBJECTID":79108},"geometry":{"x":169410.01000000071,"y":2546382.1099999994}},{"attributes":{"ID":79109,"DIS_CODE":0,"TOWNNAME":"北區","LI":"正覺里","LIN":"19鄰","STREET":"公園路","SECT":" ","MAREA":" ","LANE":"６８１巷","ALLEY":"２８弄","HOUSE_NO":"５號","E_COORD97":169401.17999999999,"N_COORD97":2546388.7200000002,"ADDRESS":"公園路６８１巷２８弄５號","OBJECTID":79109},"geometry":{"x":169401.1799999997,"y":2546388.7200000007}},{"attributes":{"ID":79110,"DIS_CODE":0,"TOWNNAME":"北區","LI":"正覺里","LIN":"19鄰","STREET":"公園路","SECT":" ","MAREA":" ","LANE":"６８１巷","ALLEY":"２８弄","HOUSE_NO":"６號","E_COORD97":169414.26000000001,"N_COORD97":2546386.9700000002,"ADDRESS":"公園路６８１巷２８弄６號","OBJECTID":79110},"geometry":{"x":169414.25999999978,"y":2546386.9700000007}},{"attributes":{"ID":79111,"DIS_CODE":0,"TOWNNAME":"北區","LI":"正覺里","LIN":"19鄰","STREET":"公園路","SECT":" ","MAREA":" ","LANE":"６８１巷","ALLEY":"２８弄","HOUSE_NO":"７號","E_COORD97":169402.14000000001,"N_COORD97":2546391.1400000001,"ADDRESS":"公園路６８１巷２８弄７號","OBJECTID":79111},"geometry":{"x":169402.14000000153,"y":2546391.1400000025}},{"attributes":{"ID":79112,"DIS_CODE":0,"TOWNNAME":"北區","LI":"正覺里","LIN":"19鄰","STREET":"公園路","SECT":" ","MAREA":" ","LANE":"６８１巷","ALLEY":"２８弄","HOUSE_NO":"８號","E_COORD97":169417.07999999999,"N_COORD97":2546393.9500000002,"ADDRESS":"公園路６８１巷２８弄８號","OBJECTID":79112},"geometry":{"x":169417.08000000101,"y":2546393.9500000011}},{"attributes":{"ID":79113,"DIS_CODE":0,"TOWNNAME":"北區","LI":"正覺里","LIN":"19鄰","STREET":"公園路","SECT":" ","MAREA":" ","LANE":"６８１巷","ALLEY":"２８弄","HOUSE_NO":"９號","E_COORD97":169403.29000000001,"N_COORD97":2546394.04,"ADDRESS":"公園路６８１巷２８弄９號","OBJECTID":79113},"geometry":{"x":169403.29000000097,"y":2546394.040000001}},{"attributes":{"ID":79114,"DIS_CODE":0,"TOWNNAME":"北區","LI":"正覺里","LIN":"19鄰","STREET":"公園路","SECT":" ","MAREA":" ","LANE":"６８１巷","ALLEY":"６弄","HOUSE_NO":"１０號","E_COORD97":169453.32999999999,"N_COORD97":2546360.5800000001,"ADDRESS":"公園路６８１巷６弄１０號","OBJECTID":79114},"geometry":{"x":169453.33000000007,"y":2546360.5800000019}},{"attributes":{"ID":79115,"DIS_CODE":0,"TOWNNAME":"北區","LI":"正覺里","LIN":"19鄰","STREET":"公園路","SECT":" ","MAREA":" ","LANE":"６８１巷","ALLEY":"６弄","HOUSE_NO":"１１號","E_COORD97":169447.73999999999,"N_COORD97":2546392.7999999998,"ADDRESS":"公園路６８１巷６弄１１號","OBJECTID":79115},"geometry":{"x":169447.74000000209,"y":2546392.8000000045}},{"attributes":{"ID":79116,"DIS_CODE":0,"TOWNNAME":"官田區","LI":"渡頭里","LIN":"33鄰","STREET":" ","SECT":" ","MAREA":"三塊厝","LANE":" ","ALLEY":" ","HOUSE_NO":"３１０號","E_COORD97":184081.37,"N_COORD97":2561814.6299999999,"ADDRESS":"三塊厝３１０號","OBJECTID":79116},"geometry":{"x":184081.37000000197,"y":2561814.629999999}},{"attributes":{"ID":79117,"DIS_CODE":0,"TOWNNAME":"北區","LI":"正覺里","LIN":"19鄰","STREET":"公園路","SECT":" ","MAREA":" ","LANE":"６８１巷","ALLEY":"６弄","HOUSE_NO":"１２號","E_COORD97":169455.73999999999,"N_COORD97":2546364.7400000002,"ADDRESS":"公園路６８１巷６弄１２號","OBJECTID":79117},"geometry":{"x":169455.74000000022,"y":2546364.7400000002}},{"attributes":{"ID":79118,"DIS_CODE":0,"TOWNNAME":"北區","LI":"正覺里","LIN":"19鄰","STREET":"公園路","SECT":" ","MAREA":" ","LANE":"６８１巷","ALLEY":"６弄","HOUSE_NO":"１３號","E_COORD97":169448.57000000001,"N_COORD97":2546395.46,"ADDRESS":"公園路６８１巷６弄１３號","OBJECTID":79118},"geometry":{"x":169448.5700000003,"y":2546395.4600000046}},{"attributes":{"ID":79119,"DIS_CODE":0,"TOWNNAME":"新化區","LI":"大坑里","LIN":"7鄰","STREET":" ","SECT":" ","MAREA":"大坑尾","LANE":" ","ALLEY":" ","HOUSE_NO":"１６０號","E_COORD97":187012.32999999999,"N_COORD97":2546011.25,"ADDRESS":"大坑尾１６０號","OBJECTID":79119},"geometry":{"x":187012.33000000007,"y":2546011.25}},{"attributes":{"ID":79120,"DIS_CODE":0,"TOWNNAME":"北區","LI":"正覺里","LIN":"19鄰","STREET":"公園路","SECT":" ","MAREA":" ","LANE":"６８１巷","ALLEY":"６弄","HOUSE_NO":"１４號","E_COORD97":169455.66,"N_COORD97":2546368.23,"ADDRESS":"公園路６８１巷６弄１４號","OBJECTID":79120},"geometry":{"x":169455.66000000108,"y":2546368.2300000004}},{"attributes":{"ID":79121,"DIS_CODE":0,"TOWNNAME":"北區","LI":"正覺里","LIN":"19鄰","STREET":"公園路","SECT":" ","MAREA":" ","LANE":"６８１巷","ALLEY":"６弄","HOUSE_NO":"１５號","E_COORD97":169450.95000000001,"N_COORD97":2546399.6800000002,"ADDRESS":"公園路６８１巷６弄１５號","OBJECTID":79121},"geometry":{"x":169450.95000000019,"y":2546399.6800000016}},{"attributes":{"ID":79122,"DIS_CODE":0,"TOWNNAME":"新化區","LI":"\u25A0拔里","LIN":"7鄰","STREET":" ","SECT":" ","MAREA":"\u25A0拔林","LANE":" ","ALLEY":" ","HOUSE_NO":"２７８號","E_COORD97":183518.22,"N_COORD97":2551812.25,"ADDRESS":"\u25A0拔林２７８號","OBJECTID":79122},"geometry":{"x":183518.22000000067,"y":2551812.25}},{"attributes":{"ID":79123,"DIS_CODE":0,"TOWNNAME":"新化區","LI":"大坑里","LIN":"7鄰","STREET":" ","SECT":" ","MAREA":"大坑尾","LANE":" ","ALLEY":" ","HOUSE_NO":"１５５號","E_COORD97":184326.53,"N_COORD97":2546288.25,"ADDRESS":"大坑尾１５５號","OBJECTID":79123},"geometry":{"x":184326.53000000119,"y":2546288.2500000019}},{"attributes":{"ID":79124,"DIS_CODE":0,"TOWNNAME":"新化區","LI":"大坑里","LIN":"7鄰","STREET":" ","SECT":" ","MAREA":"大坑尾","LANE":" ","ALLEY":" ","HOUSE_NO":"１５３號","E_COORD97":187074.03,"N_COORD97":2545598.25,"ADDRESS":"大坑尾１５３號","OBJECTID":79124},"geometry":{"x":187074.03000000212,"y":2545598.25}},{"attributes":{"ID":79125,"DIS_CODE":0,"TOWNNAME":"西港區","LI":"西港里","LIN":"7鄰","STREET":" ","SECT":" ","MAREA":"西港","LANE":" ","ALLEY":" ","HOUSE_NO":"２７號之２１","E_COORD97":168635.29999999999,"N_COORD97":2558019.6200000001,"ADDRESS":"西港２７號之２１","OBJECTID":79125},"geometry":{"x":168635.30000000075,"y":2558019.620000001}},{"attributes":{"ID":79126,"DIS_CODE":0,"TOWNNAME":"西港區","LI":"西港里","LIN":"7鄰","STREET":" ","SECT":" ","MAREA":"西港","LANE":" ","ALLEY":" ","HOUSE_NO":"２７號之２２","E_COORD97":168634.10999999999,"N_COORD97":2558023.6600000001,"ADDRESS":"西港２７號之２２","OBJECTID":79126},"geometry":{"x":168634.11000000127,"y":2558023.660000002}},{"attributes":{"ID":79127,"DIS_CODE":0,"TOWNNAME":"西港區","LI":"西港里","LIN":"7鄰","STREET":" ","SECT":" ","MAREA":"西港","LANE":" ","ALLEY":" ","HOUSE_NO":"２７號之２３","E_COORD97":168633.20000000001,"N_COORD97":2558027.6099999999,"ADDRESS":"西港２７號之２３","OBJECTID":79127},"geometry":{"x":168633.20000000112,"y":2558027.6099999994}},{"attributes":{"ID":79128,"DIS_CODE":0,"TOWNNAME":"西港區","LI":"西港里","LIN":"7鄰","STREET":" ","SECT":" ","MAREA":"西港","LANE":" ","ALLEY":" ","HOUSE_NO":"２７號之２６","E_COORD97":168632.73999999999,"N_COORD97":2558039.1400000001,"ADDRESS":"西港２７號之２６","OBJECTID":79128},"geometry":{"x":168632.74000000115,"y":2558039.1400000006}},{"attributes":{"ID":79129,"DIS_CODE":0,"TOWNNAME":"西港區","LI":"西港里","LIN":"7鄰","STREET":" ","SECT":" ","MAREA":"西港","LANE":" ","ALLEY":" ","HOUSE_NO":"２７號之２８","E_COORD97":168629.70999999999,"N_COORD97":2558052.6499999999,"ADDRESS":"西港２７號之２８","OBJECTID":79129},"geometry":{"x":168629.70999999996,"y":2558052.6500000004}},{"attributes":{"ID":79130,"DIS_CODE":0,"TOWNNAME":"西港區","LI":"西港里","LIN":"7鄰","STREET":" ","SECT":" ","MAREA":"西港","LANE":" ","ALLEY":" ","HOUSE_NO":"２７之２９號","E_COORD97":168644.73999999999,"N_COORD97":2558065.9300000002,"ADDRESS":"西港２７之２９號","OBJECTID":79130},"geometry":{"x":168644.74000000115,"y":2558065.9299999997}},{"attributes":{"ID":79131,"DIS_CODE":0,"TOWNNAME":"西港區","LI":"南海里","LIN":"7鄰","STREET":" ","SECT":" ","MAREA":"南海埔","LANE":" ","ALLEY":" ","HOUSE_NO":"５２號之１","E_COORD97":167513.44,"N_COORD97":2557493.5800000001,"ADDRESS":"南海埔５２號之１","OBJECTID":79131},"geometry":{"x":167513.44000000041,"y":2557493.5799999982}},{"attributes":{"ID":79132,"DIS_CODE":0,"TOWNNAME":"西港區","LI":"南海里","LIN":"7鄰","STREET":" ","SECT":" ","MAREA":"南海埔","LANE":" ","ALLEY":" ","HOUSE_NO":"５３號","E_COORD97":167537.39000000001,"N_COORD97":2557476.2999999998,"ADDRESS":"南海埔５３號","OBJECTID":79132},"geometry":{"x":167537.39000000153,"y":2557476.3000000026}},{"attributes":{"ID":79133,"DIS_CODE":0,"TOWNNAME":"官田區","LI":"渡頭里","LIN":"33鄰","STREET":" ","SECT":" ","MAREA":"三塊厝","LANE":" ","ALLEY":" ","HOUSE_NO":"３１２號","E_COORD97":184130.95999999999,"N_COORD97":2561834.7799999998,"ADDRESS":"三塊厝３１２號","OBJECTID":79133},"geometry":{"x":184130.95999999996,"y":2561834.7800000031}},{"attributes":{"ID":79134,"DIS_CODE":0,"TOWNNAME":"官田區","LI":"渡頭里","LIN":"33鄰","STREET":" ","SECT":" ","MAREA":"三塊厝","LANE":" ","ALLEY":" ","HOUSE_NO":"３２０號","E_COORD97":184311.39000000001,"N_COORD97":2562172.3500000001,"ADDRESS":"三塊厝３２０號","OBJECTID":79134},"geometry":{"x":184311.3900000006,"y":2562172.3499999996}},{"attributes":{"ID":79135,"DIS_CODE":0,"TOWNNAME":"官田區","LI":"渡頭里","LIN":"33鄰","STREET":" ","SECT":" ","MAREA":"三塊厝","LANE":" ","ALLEY":" ","HOUSE_NO":"３２９號","E_COORD97":184264.01999999999,"N_COORD97":2562145.48,"ADDRESS":"三塊厝３２９號","OBJECTID":79135},"geometry":{"x":184264.01999999955,"y":2562145.4800000004}},{"attributes":{"ID":79136,"DIS_CODE":0,"TOWNNAME":"官田區","LI":"渡頭里","LIN":"33鄰","STREET":" ","SECT":" ","MAREA":"三塊厝","LANE":" ","ALLEY":" ","HOUSE_NO":"３３０號","E_COORD97":184251.76999999999,"N_COORD97":2562148.29,"ADDRESS":"三塊厝３３０號","OBJECTID":79136},"geometry":{"x":184251.76999999955,"y":2562148.2899999991}},{"attributes":{"ID":79137,"DIS_CODE":0,"TOWNNAME":"官田區","LI":"渡頭里","LIN":"33鄰","STREET":" ","SECT":" ","MAREA":"三塊厝","LANE":" ","ALLEY":" ","HOUSE_NO":"３３１號","E_COORD97":184241.42000000001,"N_COORD97":2562163.27,"ADDRESS":"三塊厝３３１號","OBJECTID":79137},"geometry":{"x":184241.41999999993,"y":2562163.2699999996}},{"attributes":{"ID":79138,"DIS_CODE":0,"TOWNNAME":"官田區","LI":"渡頭里","LIN":"33鄰","STREET":" ","SECT":" ","MAREA":"三塊厝","LANE":" ","ALLEY":" ","HOUSE_NO":"３３２號","E_COORD97":184233.22,"N_COORD97":2562167.96,"ADDRESS":"三塊厝３３２號","OBJECTID":79138},"geometry":{"x":184233.22000000067,"y":2562167.9600000028}},{"attributes":{"ID":79139,"DIS_CODE":0,"TOWNNAME":"官田區","LI":"渡頭里","LIN":"33鄰","STREET":" ","SECT":" ","MAREA":"三塊厝","LANE":" ","ALLEY":" ","HOUSE_NO":"３３３號","E_COORD97":184226.28,"N_COORD97":2562138.04,"ADDRESS":"三塊厝３３３號","OBJECTID":79139},"geometry":{"x":184226.28000000119,"y":2562138.0400000028}},{"attributes":{"ID":79140,"DIS_CODE":0,"TOWNNAME":"北區","LI":"正覺里","LIN":"19鄰","STREET":"公園路","SECT":" ","MAREA":" ","LANE":"６８１巷","ALLEY":"６弄","HOUSE_NO":"１６號","E_COORD97":169456.66,"N_COORD97":2546372.4700000002,"ADDRESS":"公園路６８１巷６弄１６號","OBJECTID":79140},"geometry":{"x":169456.66000000201,"y":2546372.4700000025}},{"attributes":{"ID":79141,"DIS_CODE":0,"TOWNNAME":"北區","LI":"正覺里","LIN":"19鄰","STREET":"公園路","SECT":" ","MAREA":" ","LANE":"６８１巷","ALLEY":"６弄","HOUSE_NO":"１７號","E_COORD97":169451.57000000001,"N_COORD97":2546402.8599999999,"ADDRESS":"公園路６８１巷６弄１７號","OBJECTID":79141},"geometry":{"x":169451.5700000003,"y":2546402.8600000013}},{"attributes":{"ID":79142,"DIS_CODE":0,"TOWNNAME":"北區","LI":"正覺里","LIN":"19鄰","STREET":"公園路","SECT":" ","MAREA":" ","LANE":"６８１巷","ALLEY":"６弄","HOUSE_NO":"１８號","E_COORD97":169457.91,"N_COORD97":2546376.46,"ADDRESS":"公園路６８１巷６弄１８號","OBJECTID":79142},"geometry":{"x":169457.91000000015,"y":2546376.4600000028}},{"attributes":{"ID":79143,"DIS_CODE":0,"TOWNNAME":"北區","LI":"正覺里","LIN":"19鄰","STREET":"公園路","SECT":" ","MAREA":" ","LANE":"６８１巷","ALLEY":"６弄","HOUSE_NO":"１９號","E_COORD97":169452.23000000001,"N_COORD97":2546405.8500000001,"ADDRESS":"公園路６８１巷６弄１９號","OBJECTID":79143},"geometry":{"x":169452.23000000138,"y":2546405.8500000015}},{"attributes":{"ID":79144,"DIS_CODE":0,"TOWNNAME":"北區","LI":"正覺里","LIN":"19鄰","STREET":"公園路","SECT":" ","MAREA":" ","LANE":"６８１巷","ALLEY":"６弄","HOUSE_NO":"２０號","E_COORD97":169458.91,"N_COORD97":2546379.4500000002,"ADDRESS":"公園路６８１巷６弄２０號","OBJECTID":79144},"geometry":{"x":169458.91000000108,"y":2546379.4499999993}},{"attributes":{"ID":79145,"DIS_CODE":0,"TOWNNAME":"北區","LI":"正覺里","LIN":"19鄰","STREET":"公園路","SECT":" ","MAREA":" ","LANE":"６８１巷","ALLEY":"６弄","HOUSE_NO":"２１號","E_COORD97":169453.57000000001,"N_COORD97":2546409.1699999999,"ADDRESS":"公園路６８１巷６弄２１號","OBJECTID":79145},"geometry":{"x":169453.5700000003,"y":2546409.1699999999}},{"attributes":{"ID":79146,"DIS_CODE":0,"TOWNNAME":"北區","LI":"正覺里","LIN":"19鄰","STREET":"公園路","SECT":" ","MAREA":" ","LANE":"６８１巷","ALLEY":"６弄","HOUSE_NO":"２２號","E_COORD97":169460.67000000001,"N_COORD97":2546383.0800000001,"ADDRESS":"公園路６８１巷６弄２２號","OBJECTID":79146},"geometry":{"x":169460.66999999993,"y":2546383.0800000001}},{"attributes":{"ID":79147,"DIS_CODE":0,"TOWNNAME":"北區","LI":"正覺里","LIN":"19鄰","STREET":"公園路","SECT":" ","MAREA":" ","LANE":"６８１巷","ALLEY":"６弄","HOUSE_NO":"２３號","E_COORD97":169454.39999999999,"N_COORD97":2546412.0800000001,"ADDRESS":"公園路６８１巷６弄２３號","OBJECTID":79147},"geometry":{"x":169454.4000000013,"y":2546412.0800000019}},{"attributes":{"ID":79148,"DIS_CODE":0,"TOWNNAME":"北區","LI":"正覺里","LIN":"19鄰","STREET":"公園路","SECT":" ","MAREA":" ","LANE":"６８１巷","ALLEY":"６弄","HOUSE_NO":"２４號","E_COORD97":169461,"N_COORD97":2546386.3999999999,"ADDRESS":"公園路６８１巷６弄２４號","OBJECTID":79148},"geometry":{"x":169461.00000000186,"y":2546386.4000000022}},{"attributes":{"ID":79149,"DIS_CODE":0,"TOWNNAME":"北區","LI":"正覺里","LIN":"19鄰","STREET":"公園路","SECT":" ","MAREA":" ","LANE":"６８１巷","ALLEY":"６弄","HOUSE_NO":"２５號","E_COORD97":169455.31,"N_COORD97":2546414.9100000001,"ADDRESS":"公園路６８１巷６弄２５號","OBJECTID":79149},"geometry":{"x":169455.31000000052,"y":2546414.9100000001}},{"attributes":{"ID":79150,"DIS_CODE":0,"TOWNNAME":"北區","LI":"正覺里","LIN":"19鄰","STREET":"公園路","SECT":" ","MAREA":" ","LANE":"６８１巷","ALLEY":"６弄","HOUSE_NO":"２６號","E_COORD97":169462.07999999999,"N_COORD97":2546390.1400000001,"ADDRESS":"公園路６８１巷６弄２６號","OBJECTID":79150},"geometry":{"x":169462.07999999914,"y":2546390.1399999987}},{"attributes":{"ID":79151,"DIS_CODE":0,"TOWNNAME":"北區","LI":"正覺里","LIN":"19鄰","STREET":"公園路","SECT":" ","MAREA":" ","LANE":"６８１巷","ALLEY":"６弄","HOUSE_NO":"２８號","E_COORD97":169463.91,"N_COORD97":2546394.4700000002,"ADDRESS":"公園路６８１巷６弄２８號","OBJECTID":79151},"geometry":{"x":169463.91000000108,"y":2546394.4700000007}},{"attributes":{"ID":79152,"DIS_CODE":0,"TOWNNAME":"北區","LI":"正覺里","LIN":"19鄰","STREET":"公園路","SECT":" ","MAREA":" ","LANE":"６８１巷","ALLEY":"６弄","HOUSE_NO":"３０號","E_COORD97":169464.5,"N_COORD97":2546397.29,"ADDRESS":"公園路６８１巷６弄３０號","OBJECTID":79152},"geometry":{"x":169464.50000000093,"y":2546397.2899999991}},{"attributes":{"ID":79153,"DIS_CODE":0,"TOWNNAME":"北區","LI":"正覺里","LIN":"19鄰","STREET":"公園路","SECT":" ","MAREA":" ","LANE":"６８１巷","ALLEY":"６弄","HOUSE_NO":"３２號","E_COORD97":169465.25,"N_COORD97":2546400.6200000001,"ADDRESS":"公園路６８１巷６弄３２號","OBJECTID":79153},"geometry":{"x":169465.25,"y":2546400.620000001}},{"attributes":{"ID":79154,"DIS_CODE":0,"TOWNNAME":"北區","LI":"正覺里","LIN":"19鄰","STREET":"公園路","SECT":" ","MAREA":" ","LANE":"６８１巷","ALLEY":"６弄","HOUSE_NO":"３４號","E_COORD97":169465.23999999999,"N_COORD97":2546403.9399999999,"ADDRESS":"公園路６８１巷６弄３４號","OBJECTID":79154},"geometry":{"x":169465.24000000115,"y":2546403.9399999976}},{"attributes":{"ID":79155,"DIS_CODE":0,"TOWNNAME":"北區","LI":"正覺里","LIN":"19鄰","STREET":"公園路","SECT":" ","MAREA":" ","LANE":"６８１巷","ALLEY":"６弄","HOUSE_NO":"３６號","E_COORD97":169466.16,"N_COORD97":2546407.52,"ADDRESS":"公園路６８１巷６弄３６號","OBJECTID":79155},"geometry":{"x":169466.16000000015,"y":2546407.5200000014}},{"attributes":{"ID":79156,"DIS_CODE":0,"TOWNNAME":"北區","LI":"正覺里","LIN":"19鄰","STREET":"公園路","SECT":" ","MAREA":" ","LANE":"６８１巷","ALLEY":"６弄","HOUSE_NO":"３８號","E_COORD97":169466.91,"N_COORD97":2546411.1699999999,"ADDRESS":"公園路６８１巷６弄３８號","OBJECTID":79156},"geometry":{"x":169466.91000000201,"y":2546411.1700000018}},{"attributes":{"ID":79157,"DIS_CODE":0,"TOWNNAME":"北區","LI":"正覺里","LIN":"19鄰","STREET":"公園路","SECT":" ","MAREA":" ","LANE":"６８１巷","ALLEY":"６弄","HOUSE_NO":"５號","E_COORD97":169438.57999999999,"N_COORD97":2546366.7999999998,"ADDRESS":"公園路６８１巷６弄５號","OBJECTID":79157},"geometry":{"x":169438.58000000194,"y":2546366.8000000026}},{"attributes":{"ID":79158,"DIS_CODE":0,"TOWNNAME":"北區","LI":"正覺里","LIN":"19鄰","STREET":"公園路","SECT":" ","MAREA":" ","LANE":"６８１巷","ALLEY":"６弄","HOUSE_NO":"７號","E_COORD97":169445.73999999999,"N_COORD97":2546386.8100000001,"ADDRESS":"公園路６８１巷６弄７號","OBJECTID":79158},"geometry":{"x":169445.74000000022,"y":2546386.8100000024}},{"attributes":{"ID":79159,"DIS_CODE":0,"TOWNNAME":"北區","LI":"正覺里","LIN":"19鄰","STREET":"公園路","SECT":" ","MAREA":" ","LANE":"６８１巷","ALLEY":"６弄","HOUSE_NO":"８號","E_COORD97":169452.57999999999,"N_COORD97":2546356.6699999999,"ADDRESS":"公園路６８１巷６弄８號","OBJECTID":79159},"geometry":{"x":169452.58000000101,"y":2546356.6700000018}},{"attributes":{"ID":79160,"DIS_CODE":0,"TOWNNAME":"北區","LI":"正覺里","LIN":"19鄰","STREET":"公園路","SECT":" ","MAREA":" ","LANE":"６８１巷","ALLEY":"６弄","HOUSE_NO":"９號","E_COORD97":169446.91,"N_COORD97":2546389.9700000002,"ADDRESS":"公園路６８１巷６弄９號","OBJECTID":79160},"geometry":{"x":169446.91000000108,"y":2546389.9700000007}},{"attributes":{"ID":79161,"DIS_CODE":0,"TOWNNAME":"新營區","LI":"新南里","LIN":"19鄰","STREET":"隋唐街","SECT":" ","MAREA":" ","LANE":"３１巷","ALLEY":"４８弄","HOUSE_NO":"１０號","E_COORD97":178624.95000000001,"N_COORD97":2578325.6699999999,"ADDRESS":"隋唐街３１巷４８弄１０號","OBJECTID":79161},"geometry":{"x":178624.95000000019,"y":2578325.6699999999}},{"attributes":{"ID":79162,"DIS_CODE":0,"TOWNNAME":"新營區","LI":"新南里","LIN":"19鄰","STREET":"隋唐街","SECT":" ","MAREA":" ","LANE":"３１巷","ALLEY":"３８弄","HOUSE_NO":"５號","E_COORD97":178643.23000000001,"N_COORD97":2578339.98,"ADDRESS":"隋唐街３１巷３８弄５號","OBJECTID":79162},"geometry":{"x":178643.23000000138,"y":2578339.9800000023}},{"attributes":{"ID":79163,"DIS_CODE":0,"TOWNNAME":"東區","LI":"小東里","LIN":"7鄰","STREET":"光明街","SECT":" ","MAREA":" ","LANE":" ","ALLEY":" ","HOUSE_NO":"１８９號","E_COORD97":170932,"N_COORD97":2544108.5,"ADDRESS":"光明街１８９號","OBJECTID":79163},"geometry":{"x":170932,"y":2544108.5}},{"attributes":{"ID":79164,"DIS_CODE":0,"TOWNNAME":"西港區","LI":"南海里","LIN":"7鄰","STREET":" ","SECT":" ","MAREA":"南海埔","LANE":" ","ALLEY":" ","HOUSE_NO":"５４號","E_COORD97":167534.14000000001,"N_COORD97":2557449.9500000002,"ADDRESS":"南海埔５４號","OBJECTID":79164},"geometry":{"x":167534.1400000006,"y":2557449.950000003}},{"attributes":{"ID":79165,"DIS_CODE":0,"TOWNNAME":"新營區","LI":"新南里","LIN":"19鄰","STREET":"隋唐街","SECT":" ","MAREA":" ","LANE":"３１巷","ALLEY":"４８弄","HOUSE_NO":"１１號","E_COORD97":178626.89999999999,"N_COORD97":2578305.7200000002,"ADDRESS":"隋唐街３１巷４８弄１１號","OBJECTID":79165},"geometry":{"x":178626.9000000013,"y":2578305.7200000007}},{"attributes":{"ID":79166,"DIS_CODE":0,"TOWNNAME":"新營區","LI":"新南里","LIN":"19鄰","STREET":"隋唐街","SECT":" ","MAREA":" ","LANE":"３１巷","ALLEY":"３８弄","HOUSE_NO":"１號","E_COORD97":178654.44,"N_COORD97":2578336.6000000001,"ADDRESS":"隋唐街３１巷３８弄１號","OBJECTID":79166},"geometry":{"x":178654.44000000041,"y":2578336.5999999996}},{"attributes":{"ID":79167,"DIS_CODE":0,"TOWNNAME":"新營區","LI":"新南里","LIN":"19鄰","STREET":"隋唐街","SECT":" ","MAREA":" ","LANE":"３１巷","ALLEY":"４８弄","HOUSE_NO":"６號","E_COORD97":178635.97,"N_COORD97":2578323.3999999999,"ADDRESS":"隋唐街３１巷４８弄６號","OBJECTID":79167},"geometry":{"x":178635.97000000067,"y":2578323.4000000022}},{"attributes":{"ID":79168,"DIS_CODE":0,"TOWNNAME":"新營區","LI":"新南里","LIN":"19鄰","STREET":"隋唐街","SECT":" ","MAREA":" ","LANE":"３１巷","ALLEY":"３８弄","HOUSE_NO":"７號","E_COORD97":178637.10000000001,"N_COORD97":2578341.1099999999,"ADDRESS":"隋唐街３１巷３８弄７號","OBJECTID":79168},"geometry":{"x":178637.09999999963,"y":2578341.1100000013}},{"attributes":{"ID":79169,"DIS_CODE":0,"TOWNNAME":"新營區","LI":"新南里","LIN":"19鄰","STREET":"隋唐街","SECT":" ","MAREA":" ","LANE":"３１巷","ALLEY":"２８弄","HOUSE_NO":"５號","E_COORD97":178655.67000000001,"N_COORD97":2578374.2400000002,"ADDRESS":"隋唐街３１巷２８弄５號","OBJECTID":79169},"geometry":{"x":178655.66999999993,"y":2578374.2400000039}},{"attributes":{"ID":79170,"DIS_CODE":0,"TOWNNAME":"新營區","LI":"新南里","LIN":"19鄰","STREET":"隋唐街","SECT":" ","MAREA":" ","LANE":"３１巷","ALLEY":"２８弄","HOUSE_NO":"３號","E_COORD97":178660.84,"N_COORD97":2578372,"ADDRESS":"隋唐街３１巷２８弄３號","OBJECTID":79170},"geometry":{"x":178660.83999999985,"y":2578371.9999999981}},{"attributes":{"ID":79171,"DIS_CODE":0,"TOWNNAME":"新營區","LI":"新南里","LIN":"19鄰","STREET":"隋唐街","SECT":" ","MAREA":" ","LANE":"３１巷","ALLEY":"２８弄","HOUSE_NO":"１７號","E_COORD97":178622.17000000001,"N_COORD97":2578384.3799999999,"ADDRESS":"隋唐街３１巷２８弄１７號","OBJECTID":79171},"geometry":{"x":178622.17000000179,"y":2578384.379999999}},{"attributes":{"ID":79172,"DIS_CODE":0,"TOWNNAME":"新營區","LI":"新南里","LIN":"19鄰","STREET":"隋唐街","SECT":" ","MAREA":" ","LANE":"３１巷","ALLEY":"２８弄","HOUSE_NO":"１３號","E_COORD97":178633.39000000001,"N_COORD97":2578378.79,"ADDRESS":"隋唐街３１巷２８弄１３號","OBJECTID":79172},"geometry":{"x":178633.38999999966,"y":2578378.7899999991}},{"attributes":{"ID":79173,"DIS_CODE":0,"TOWNNAME":"新營區","LI":"新南里","LIN":"19鄰","STREET":"隋唐街","SECT":" ","MAREA":" ","LANE":"３１巷","ALLEY":"３８弄","HOUSE_NO":"３號","E_COORD97":178648.39999999999,"N_COORD97":2578337.7400000002,"ADDRESS":"隋唐街３１巷３８弄３號","OBJECTID":79173},"geometry":{"x":178648.40000000224,"y":2578337.7400000021}},{"attributes":{"ID":79174,"DIS_CODE":0,"TOWNNAME":"新市區","LI":"永就里","LIN":"7鄰","STREET":" ","SECT":" ","MAREA":"永就","LANE":" ","ALLEY":" ","HOUSE_NO":"７７號","E_COORD97":177598.81,"N_COORD97":2551516,"ADDRESS":"永就７７號","OBJECTID":79174},"geometry":{"x":177598.81000000145,"y":2551516}},{"attributes":{"ID":79175,"DIS_CODE":0,"TOWNNAME":"官田區","LI":"渡頭里","LIN":"33鄰","STREET":" ","SECT":" ","MAREA":"三塊厝","LANE":" ","ALLEY":" ","HOUSE_NO":"３３５號","E_COORD97":184197.39999999999,"N_COORD97":2562151.9399999999,"ADDRESS":"三塊厝３３５號","OBJECTID":79175},"geometry":{"x":184197.4000000013,"y":2562151.9399999995}},{"attributes":{"ID":79176,"DIS_CODE":0,"TOWNNAME":"官田區","LI":"渡頭里","LIN":"33鄰","STREET":" ","SECT":" ","MAREA":"三塊厝","LANE":" ","ALLEY":" ","HOUSE_NO":"３３６號","E_COORD97":184240.12,"N_COORD97":2562184.75,"ADDRESS":"三塊厝３３６號","OBJECTID":79176},"geometry":{"x":184240.12000000011,"y":2562184.7500000037}},{"attributes":{"ID":79177,"DIS_CODE":0,"TOWNNAME":"官田區","LI":"渡頭里","LIN":"33鄰","STREET":" ","SECT":" ","MAREA":"三塊厝","LANE":" ","ALLEY":" ","HOUSE_NO":"３３８號","E_COORD97":184259.89999999999,"N_COORD97":2562200.5499999998,"ADDRESS":"三塊厝３３８號","OBJECTID":79177},"geometry":{"x":184259.9000000013,"y":2562200.5500000045}},{"attributes":{"ID":79178,"DIS_CODE":0,"TOWNNAME":"官田區","LI":"渡頭里","LIN":"33鄰","STREET":" ","SECT":" ","MAREA":"三塊厝","LANE":" ","ALLEY":" ","HOUSE_NO":"３３９號","E_COORD97":184251.01999999999,"N_COORD97":2562215.4900000002,"ADDRESS":"三塊厝３３９號","OBJECTID":79178},"geometry":{"x":184251.02000000048,"y":2562215.4900000021}},{"attributes":{"ID":79179,"DIS_CODE":0,"TOWNNAME":"官田區","LI":"渡頭里","LIN":"33鄰","STREET":" ","SECT":" ","MAREA":"三塊厝","LANE":" ","ALLEY":" ","HOUSE_NO":"３４０號","E_COORD97":184217.85999999999,"N_COORD97":2562202.1499999999,"ADDRESS":"三塊厝３４０號","OBJECTID":79179},"geometry":{"x":184217.86000000127,"y":2562202.1500000004}},{"attributes":{"ID":79180,"DIS_CODE":0,"TOWNNAME":"新市區","LI":"大社里","LIN":"33鄰","STREET":" ","SECT":" ","MAREA":"大社","LANE":" ","ALLEY":" ","HOUSE_NO":"４０８之７０號","E_COORD97":180121.39999999999,"N_COORD97":2554798.9300000002,"ADDRESS":"大社４０８之７０號","OBJECTID":79180},"geometry":{"x":180121.40000000224,"y":2554798.9300000034}},{"attributes":{"ID":79181,"DIS_CODE":0,"TOWNNAME":"新市區","LI":"大社里","LIN":"33鄰","STREET":" ","SECT":" ","MAREA":"大社","LANE":" ","ALLEY":" ","HOUSE_NO":"４０８之２８號","E_COORD97":180122.60000000001,"N_COORD97":2554858.1800000002,"ADDRESS":"大社４０８之２８號","OBJECTID":79181},"geometry":{"x":180122.60000000149,"y":2554858.1799999978}},{"attributes":{"ID":79182,"DIS_CODE":0,"TOWNNAME":"新營區","LI":"新南里","LIN":"19鄰","STREET":"隋唐街","SECT":" ","MAREA":" ","LANE":"３１巷","ALLEY":"４８弄","HOUSE_NO":"５號","E_COORD97":178638.95000000001,"N_COORD97":2578301.23,"ADDRESS":"隋唐街３１巷４８弄５號","OBJECTID":79182},"geometry":{"x":178638.95000000019,"y":2578301.2300000023}},{"attributes":{"ID":79183,"DIS_CODE":0,"TOWNNAME":"歸仁區","LI":"大廟里","LIN":"19鄰","STREET":"大廟一街","SECT":" ","MAREA":" ","LANE":"２８巷","ALLEY":"２１弄","HOUSE_NO":"２３號","E_COORD97":175755.79000000001,"N_COORD97":2544102.1200000001,"ADDRESS":"大廟一街２８巷２１弄２３號","OBJECTID":79183},"geometry":{"x":175755.79000000097,"y":2544102.120000001}},{"attributes":{"ID":79184,"DIS_CODE":0,"TOWNNAME":"歸仁區","LI":"大潭里","LIN":"19鄰","STREET":"中正南路","SECT":"三段","MAREA":" ","LANE":"９６巷","ALLEY":"５１弄","HOUSE_NO":"１號","E_COORD97":175164.81,"N_COORD97":2534993.2799999998,"ADDRESS":"中正南路三段９６巷５１弄１號","OBJECTID":79184},"geometry":{"x":175164.81000000052,"y":2534993.2800000031}},{"attributes":{"ID":79185,"DIS_CODE":0,"TOWNNAME":"歸仁區","LI":"大潭里","LIN":"19鄰","STREET":"中正南路","SECT":"三段","MAREA":" ","LANE":"９６巷","ALLEY":"５１弄","HOUSE_NO":"２０號","E_COORD97":175140.26000000001,"N_COORD97":2534968.2799999998,"ADDRESS":"中正南路三段９６巷５１弄２０號","OBJECTID":79185},"geometry":{"x":175140.26000000071,"y":2534968.2799999993}},{"attributes":{"ID":79186,"DIS_CODE":0,"TOWNNAME":"歸仁區","LI":"七甲里","LIN":"19鄰","STREET":"南潭三街","SECT":" ","MAREA":" ","LANE":"１６２巷","ALLEY":"３弄","HOUSE_NO":"１７號","E_COORD97":176487.73000000001,"N_COORD97":2543186.0299999998,"ADDRESS":"南潭三街１６２巷３弄１７號","OBJECTID":79186},"geometry":{"x":176487.73000000045,"y":2543186.0300000031}},{"attributes":{"ID":79187,"DIS_CODE":0,"TOWNNAME":"歸仁區","LI":"七甲里","LIN":"19鄰","STREET":"南潭三街","SECT":" ","MAREA":" ","LANE":"１６２巷","ALLEY":"６弄","HOUSE_NO":"７號","E_COORD97":176417.78,"N_COORD97":2543175.0299999998,"ADDRESS":"南潭三街１６２巷６弄７號","OBJECTID":79187},"geometry":{"x":176417.78000000026,"y":2543175.0299999993}},{"attributes":{"ID":79188,"DIS_CODE":0,"TOWNNAME":"歸仁區","LI":"七甲里","LIN":"19鄰","STREET":"南潭三街","SECT":" ","MAREA":" ","LANE":"１６２巷","ALLEY":"３弄","HOUSE_NO":"９號","E_COORD97":176466.98000000001,"N_COORD97":2543185.0299999998,"ADDRESS":"南潭三街１６２巷３弄９號","OBJECTID":79188},"geometry":{"x":176466.98000000045,"y":2543185.0299999993}},{"attributes":{"ID":79189,"DIS_CODE":0,"TOWNNAME":"歸仁區","LI":"七甲里","LIN":"19鄰","STREET":"南潭三街","SECT":" ","MAREA":" ","LANE":"１６２巷","ALLEY":"３弄","HOUSE_NO":"１４號","E_COORD97":176473.32999999999,"N_COORD97":2543176.0299999998,"ADDRESS":"南潭三街１６２巷３弄１４號","OBJECTID":79189},"geometry":{"x":176473.33000000007,"y":2543176.0300000012}},{"attributes":{"ID":79190,"DIS_CODE":0,"TOWNNAME":"北區","LI":"大豐里","LIN":"19鄰","STREET":"大興街","SECT":" ","MAREA":" ","LANE":"２３３巷","ALLEY":"２０弄","HOUSE_NO":"２２號","E_COORD97":166798.72,"N_COORD97":2545630.6899999999,"ADDRESS":"大興街２３３巷２０弄２２號","OBJECTID":79190},"geometry":{"x":166798.71999999974,"y":2545630.6900000013}},{"attributes":{"ID":79191,"DIS_CODE":0,"TOWNNAME":"東區","LI":"路東里","LIN":"7鄰","STREET":"大同路","SECT":"二段","MAREA":" ","LANE":"６１巷","ALLEY":"１弄","HOUSE_NO":"６號","E_COORD97":169331.23999999999,"N_COORD97":2542308.7999999998,"ADDRESS":"大同路二段６１巷１弄６號","OBJECTID":79191},"geometry":{"x":169331.24000000115,"y":2542308.8000000026}},{"attributes":{"ID":79192,"DIS_CODE":0,"TOWNNAME":"柳營區","LI":"東昇里","LIN":"19鄰","STREET":"建國路","SECT":" ","MAREA":" ","LANE":"６２巷","ALLEY":"５弄","HOUSE_NO":"２號","E_COORD97":180547.04999999999,"N_COORD97":2575215.1499999999,"ADDRESS":"建國路６２巷５弄２號","OBJECTID":79192},"geometry":{"x":180547.05000000168,"y":2575215.1500000041}},{"attributes":{"ID":79193,"DIS_CODE":0,"TOWNNAME":"柳營區","LI":"東昇里","LIN":"19鄰","STREET":"建國路","SECT":" ","MAREA":" ","LANE":"６２巷","ALLEY":"５弄","HOUSE_NO":"６號","E_COORD97":180547.13,"N_COORD97":2575219.77,"ADDRESS":"建國路６２巷５弄６號","OBJECTID":79193},"geometry":{"x":180547.13000000082,"y":2575219.7699999996}},{"attributes":{"ID":79194,"DIS_CODE":0,"TOWNNAME":"東區","LI":"路東里","LIN":" ","STREET":"大同路","SECT":"二段","MAREA":" ","LANE":"６１巷","ALLEY":"１弄","HOUSE_NO":"２３號","E_COORD97":169413.75,"N_COORD97":2542243.9199999999,"ADDRESS":"大同路二段６１巷１弄２３號","OBJECTID":79194},"geometry":{"x":169413.75000000093,"y":2542243.9199999999}},{"attributes":{"ID":79195,"DIS_CODE":0,"TOWNNAME":"柳營區","LI":"篤農里","LIN":"19鄰","STREET":"義士路","SECT":"一段","MAREA":" ","LANE":"７１０巷","ALLEY":"４１弄","HOUSE_NO":"１１０號","E_COORD97":185430.45999999999,"N_COORD97":2576102.6200000001,"ADDRESS":"義士路一段７１０巷４１弄１１０號","OBJECTID":79195},"geometry":{"x":185430.46000000089,"y":2576102.620000001}},{"attributes":{"ID":79196,"DIS_CODE":0,"TOWNNAME":"南區","LI":"文南里","LIN":"17鄰","STREET":"健康路","SECT":"二段","MAREA":" ","LANE":" ","ALLEY":" ","HOUSE_NO":"３６０號","E_COORD97":166707.59,"N_COORD97":2542529.4300000002,"ADDRESS":"健康路二段３６０號","OBJECTID":79196},"geometry":{"x":166707.59000000078,"y":2542529.4300000034}},{"attributes":{"ID":79197,"DIS_CODE":0,"TOWNNAME":"南區","LI":"文南里","LIN":"17鄰","STREET":"健康路","SECT":"二段","MAREA":" ","LANE":" ","ALLEY":" ","HOUSE_NO":"３６２號","E_COORD97":166702.42000000001,"N_COORD97":2542530.0499999998,"ADDRESS":"健康路二段３６２號","OBJECTID":79197},"geometry":{"x":166702.42000000086,"y":2542530.0500000026}},{"attributes":{"ID":79198,"DIS_CODE":0,"TOWNNAME":"南區","LI":"文華里","LIN":"17鄰","STREET":"德南街","SECT":" ","MAREA":" ","LANE":" ","ALLEY":" ","HOUSE_NO":"１６號","E_COORD97":166861.89000000001,"N_COORD97":2543134.02,"ADDRESS":"德南街１６號","OBJECTID":79198},"geometry":{"x":166861.88999999966,"y":2543134.0199999996}},{"attributes":{"ID":79199,"DIS_CODE":0,"TOWNNAME":"東區","LI":"崇德里","LIN":"10鄰","STREET":"崇德九街","SECT":" ","MAREA":" ","LANE":" ","ALLEY":" ","HOUSE_NO":"４３號","E_COORD97":170889.20999999999,"N_COORD97":2541578,"ADDRESS":"崇德九街４３號","OBJECTID":79199},"geometry":{"x":170889.21000000089,"y":2541578.0000000019}},{"attributes":{"ID":79200,"DIS_CODE":0,"TOWNNAME":"南區","LI":"文華里","LIN":"17鄰","STREET":"德南街","SECT":" ","MAREA":" ","LANE":" ","ALLEY":" ","HOUSE_NO":"１８號","E_COORD97":166858.75,"N_COORD97":2543131.2400000002,"ADDRESS":"德南街１８號","OBJECTID":79200},"geometry":{"x":166858.74999999907,"y":2543131.2400000039}}]}