{"displayFieldName":"TOWNNAME","fieldAliases":{"ID":"ID","DIS_CODE":"DIS_CODE","TOWNNAME":"TOWNNAME","LI":"LI","LIN":"LIN","STREET":"STREET","SECT":"SECT","MAREA":"MAREA","LANE":"LANE","ALLEY":"ALLEY","HOUSE_NO":"HOUSE_NO","E_COORD97":"E_COORD97","N_COORD97":"N_COORD97","ADDRESS":"ADDRESS","OBJECTID":"OBJECTID"},"geometryType":"esriGeometryPoint","spatialReference":{"wkid":102443,"latestWkid":3826},"fields":[{"name":"ID","type":"esriFieldTypeDouble","alias":"ID"},{"name":"DIS_CODE","type":"esriFieldTypeInteger","alias":"DIS_CODE"},{"name":"TOWNNAME","type":"esriFieldTypeString","alias":"TOWNNAME","length":8},{"name":"LI","type":"esriFieldTypeString","alias":"LI","length":8},{"name":"LIN","type":"esriFieldTypeString","alias":"LIN","length":12},{"name":"STREET","type":"esriFieldTypeString","alias":"STREET","length":20},{"name":"SECT","type":"esriFieldTypeString","alias":"SECT","length":8},{"name":"MAREA","type":"esriFieldTypeString","alias":"MAREA","length":12},{"name":"LANE","type":"esriFieldTypeString","alias":"LANE","length":10},{"name":"ALLEY","type":"esriFieldTypeString","alias":"ALLEY","length":10},{"name":"HOUSE_NO","type":"esriFieldTypeString","alias":"HOUSE_NO","length":20},{"name":"E_COORD97","type":"esriFieldTypeDouble","alias":"E_COORD97"},{"name":"N_COORD97","type":"esriFieldTypeDouble","alias":"N_COORD97"},{"name":"ADDRESS","type":"esriFieldTypeString","alias":"ADDRESS","length":50},{"name":"OBJECTID","type":"esriFieldTypeOID","alias":"OBJECTID"}],"features":[{"attributes":{"ID":281807,"DIS_CODE":0,"TOWNNAME":"東區","LI":"東安里","LIN":"6鄰","STREET":"長榮路","SECT":"二段","MAREA":" ","LANE":"２４巷","ALLEY":" ","HOUSE_NO":"５３號","E_COORD97":170059.75,"N_COORD97":2543077.3300000001,"ADDRESS":"長榮路二段２４巷５３號","OBJECTID":281801},"geometry":{"x":170059.75000000093,"y":2543077.3300000019}},{"attributes":{"ID":281808,"DIS_CODE":0,"TOWNNAME":"東區","LI":"忠孝里","LIN":"6鄰","STREET":"榮譽街","SECT":" ","MAREA":" ","LANE":"８４巷","ALLEY":" ","HOUSE_NO":"３１號之２","E_COORD97":169803.89999999999,"N_COORD97":2541656.1499999999,"ADDRESS":"榮譽街８４巷３１號之２","OBJECTID":281802},"geometry":{"x":169803.90000000037,"y":2541656.1500000004}},{"attributes":{"ID":281809,"DIS_CODE":0,"TOWNNAME":"東區","LI":"忠孝里","LIN":"6鄰","STREET":"榮譽街","SECT":" ","MAREA":" ","LANE":"８４巷","ALLEY":" ","HOUSE_NO":"３３號","E_COORD97":169815.20000000001,"N_COORD97":2541661.0899999999,"ADDRESS":"榮譽街８４巷３３號","OBJECTID":281803},"geometry":{"x":169815.20000000019,"y":2541661.0900000017}},{"attributes":{"ID":281810,"DIS_CODE":0,"TOWNNAME":"東區","LI":"東安里","LIN":"6鄰","STREET":"長榮路","SECT":"二段","MAREA":" ","LANE":"２４巷","ALLEY":" ","HOUSE_NO":"６１號","E_COORD97":170115.35999999999,"N_COORD97":2543033.7400000002,"ADDRESS":"長榮路二段２４巷６１號","OBJECTID":281804},"geometry":{"x":170115.36000000127,"y":2543033.7400000021}},{"attributes":{"ID":281811,"DIS_CODE":0,"TOWNNAME":"永康區","LI":"尚頂里","LIN":"6鄰","STREET":"中正二街","SECT":" ","MAREA":" ","LANE":"１０５巷","ALLEY":" ","HOUSE_NO":"２２號","E_COORD97":170999.45000000001,"N_COORD97":2547572.7799999998,"ADDRESS":"中正二街１０５巷２２號","OBJECTID":281805},"geometry":{"x":170999.45000000112,"y":2547572.7800000012}},{"attributes":{"ID":281812,"DIS_CODE":0,"TOWNNAME":"永康區","LI":"尚頂里","LIN":"6鄰","STREET":"中正二街","SECT":" ","MAREA":" ","LANE":"１０５巷","ALLEY":" ","HOUSE_NO":"１５號","E_COORD97":170988.67000000001,"N_COORD97":2547561.3300000001,"ADDRESS":"中正二街１０５巷１５號","OBJECTID":281806},"geometry":{"x":170988.66999999899,"y":2547561.3300000001}},{"attributes":{"ID":281813,"DIS_CODE":0,"TOWNNAME":"永康區","LI":"尚頂里","LIN":"6鄰","STREET":"中正二街","SECT":" ","MAREA":" ","LANE":"１０５巷","ALLEY":" ","HOUSE_NO":"３０號","E_COORD97":170977.48000000001,"N_COORD97":2547594.77,"ADDRESS":"中正二街１０５巷３０號","OBJECTID":281807},"geometry":{"x":170977.48000000138,"y":2547594.7699999996}},{"attributes":{"ID":281814,"DIS_CODE":0,"TOWNNAME":"永康區","LI":"尚頂里","LIN":"6鄰","STREET":"中正二街","SECT":" ","MAREA":" ","LANE":"１０５巷","ALLEY":" ","HOUSE_NO":"１９號","E_COORD97":170976.28,"N_COORD97":2547574.0800000001,"ADDRESS":"中正二街１０５巷１９號","OBJECTID":281808},"geometry":{"x":170976.28000000026,"y":2547574.0800000019}},{"attributes":{"ID":281815,"DIS_CODE":0,"TOWNNAME":"永康區","LI":"尚頂里","LIN":"6鄰","STREET":"中正二街","SECT":" ","MAREA":" ","LANE":"１０５巷","ALLEY":" ","HOUSE_NO":"８號","E_COORD97":171037.13,"N_COORD97":2547534.27,"ADDRESS":"中正二街１０５巷８號","OBJECTID":281809},"geometry":{"x":171037.13000000082,"y":2547534.2700000033}},{"attributes":{"ID":281816,"DIS_CODE":0,"TOWNNAME":"永康區","LI":"尚頂里","LIN":"6鄰","STREET":"中正二街","SECT":" ","MAREA":" ","LANE":"１０５巷","ALLEY":" ","HOUSE_NO":"３６號","E_COORD97":170963.17000000001,"N_COORD97":2547608.77,"ADDRESS":"中正二街１０５巷３６號","OBJECTID":281810},"geometry":{"x":170963.16999999993,"y":2547608.7699999977}},{"attributes":{"ID":281817,"DIS_CODE":0,"TOWNNAME":"永康區","LI":"尚頂里","LIN":"6鄰","STREET":"中正二街","SECT":" ","MAREA":" ","LANE":"１０５巷","ALLEY":" ","HOUSE_NO":"１３號","E_COORD97":170992.47,"N_COORD97":2547557.5800000001,"ADDRESS":"中正二街１０５巷１３號","OBJECTID":281811},"geometry":{"x":170992.47000000067,"y":2547557.5800000019}},{"attributes":{"ID":281818,"DIS_CODE":0,"TOWNNAME":"永康區","LI":"尚頂里","LIN":"6鄰","STREET":"中正二街","SECT":" ","MAREA":" ","LANE":"１０５巷","ALLEY":" ","HOUSE_NO":"２０號","E_COORD97":171003,"N_COORD97":2547569.2799999998,"ADDRESS":"中正二街１０５巷２０號","OBJECTID":281812},"geometry":{"x":171003,"y":2547569.2800000012}},{"attributes":{"ID":281819,"DIS_CODE":0,"TOWNNAME":"永康區","LI":"\u25A0洲里","LIN":"6鄰","STREET":"\u25A0洲二街","SECT":" ","MAREA":" ","LANE":"２２１巷","ALLEY":" ","HOUSE_NO":"２６號","E_COORD97":171804.54000000001,"N_COORD97":2549559.75,"ADDRESS":"\u25A0洲二街２２１巷２６號","OBJECTID":281813},"geometry":{"x":171804.54000000004,"y":2549559.7500000019}},{"attributes":{"ID":281820,"DIS_CODE":0,"TOWNNAME":"南區","LI":"新興里","LIN":"2鄰","STREET":"西門路","SECT":"一段","MAREA":" ","LANE":"４７１巷","ALLEY":" ","HOUSE_NO":"１０號","E_COORD97":167669.67000000001,"N_COORD97":2542518.7000000002,"ADDRESS":"西門路一段４７１巷１０號","OBJECTID":281814},"geometry":{"x":167669.67000000179,"y":2542518.6999999993}},{"attributes":{"ID":281821,"DIS_CODE":0,"TOWNNAME":"仁德區","LI":"仁義里","LIN":"34鄰","STREET":"正義二街","SECT":" ","MAREA":" ","LANE":" ","ALLEY":" ","HOUSE_NO":"１４９號三樓","E_COORD97":173780.62,"N_COORD97":2541595.0099999998,"ADDRESS":"正義二街１４９號三樓","OBJECTID":281815},"geometry":{"x":173780.62000000011,"y":2541595.0099999998}},{"attributes":{"ID":281822,"DIS_CODE":0,"TOWNNAME":"安南區","LI":"四草里","LIN":"2鄰","STREET":"大眾六街","SECT":" ","MAREA":" ","LANE":" ","ALLEY":" ","HOUSE_NO":"１２０號","E_COORD97":160445.801312,"N_COORD97":2546624.9640100002,"ADDRESS":"大眾六街１２０號","OBJECTID":281816},"geometry":{"x":160445.80131200049,"y":2546624.9640079997}},{"attributes":{"ID":281823,"DIS_CODE":0,"TOWNNAME":"永康區","LI":"\u25A0行里","LIN":"6鄰","STREET":"新行街","SECT":" ","MAREA":" ","LANE":"２１巷","ALLEY":" ","HOUSE_NO":"１６號","E_COORD97":172189.91,"N_COORD97":2548813.9700000002,"ADDRESS":"新行街２１巷１６號","OBJECTID":281817},"geometry":{"x":172189.91000000108,"y":2548813.9700000025}},{"attributes":{"ID":281824,"DIS_CODE":0,"TOWNNAME":"南區","LI":"明興里","LIN":"10鄰","STREET":"金華路","SECT":"一段","MAREA":" ","LANE":"１０２巷","ALLEY":" ","HOUSE_NO":"２６號","E_COORD97":167051.04999999999,"N_COORD97":2540516.5899999999,"ADDRESS":"金華路一段１０２巷２６號","OBJECTID":281818},"geometry":{"x":167051.04999999981,"y":2540516.5899999999}},{"attributes":{"ID":281825,"DIS_CODE":0,"TOWNNAME":"白河區","LI":"外角里","LIN":"6鄰","STREET":"三民路","SECT":" ","MAREA":" ","LANE":"３５０巷","ALLEY":" ","HOUSE_NO":"１２號","E_COORD97":190505.20999999999,"N_COORD97":2583284.27,"ADDRESS":"三民路３５０巷１２號","OBJECTID":281819},"geometry":{"x":190505.21000000183,"y":2583284.2699999996}},{"attributes":{"ID":281826,"DIS_CODE":0,"TOWNNAME":"白河區","LI":"外角里","LIN":"6鄰","STREET":"三民路","SECT":" ","MAREA":" ","LANE":"３５０巷","ALLEY":" ","HOUSE_NO":"１４號","E_COORD97":190504.82999999999,"N_COORD97":2583287.3599999999,"ADDRESS":"三民路３５０巷１４號","OBJECTID":281820},"geometry":{"x":190504.83000000101,"y":2583287.3599999994}},{"attributes":{"ID":281827,"DIS_CODE":0,"TOWNNAME":"新化區","LI":"東榮里","LIN":"34鄰","STREET":"護安街","SECT":" ","MAREA":" ","LANE":" ","ALLEY":" ","HOUSE_NO":"９３號之１三樓","E_COORD97":179180.78,"N_COORD97":2548422.2599999998,"ADDRESS":"護安街９３號之１三樓","OBJECTID":281821},"geometry":{"x":179180.78000000026,"y":2548422.2599999998}},{"attributes":{"ID":281828,"DIS_CODE":0,"TOWNNAME":"永康區","LI":"中華里","LIN":"6鄰","STREET":"小東路","SECT":" ","MAREA":" ","LANE":"６８５巷","ALLEY":" ","HOUSE_NO":"４３號","E_COORD97":172022.16,"N_COORD97":2544515.6099999999,"ADDRESS":"小東路６８５巷４３號","OBJECTID":281822},"geometry":{"x":172022.16000000108,"y":2544515.6100000013}},{"attributes":{"ID":281829,"DIS_CODE":0,"TOWNNAME":"安南區","LI":"學東里","LIN":"6鄰","STREET":"公學路","SECT":"七段","MAREA":" ","LANE":"１３１巷","ALLEY":" ","HOUSE_NO":"１０號","E_COORD97":161647.95000000001,"N_COORD97":2553376.5,"ADDRESS":"公學路七段１３１巷１０號","OBJECTID":281823},"geometry":{"x":161647.95000000019,"y":2553376.5000000019}},{"attributes":{"ID":281830,"DIS_CODE":0,"TOWNNAME":"安南區","LI":"學東里","LIN":"6鄰","STREET":"公學路","SECT":"七段","MAREA":" ","LANE":"１３１巷","ALLEY":" ","HOUSE_NO":"１２號","E_COORD97":161645.95999999999,"N_COORD97":2553371.54,"ADDRESS":"公學路七段１３１巷１２號","OBJECTID":281824},"geometry":{"x":161645.95999999996,"y":2553371.540000001}},{"attributes":{"ID":281831,"DIS_CODE":0,"TOWNNAME":"安南區","LI":"學東里","LIN":"6鄰","STREET":"公學路","SECT":"七段","MAREA":" ","LANE":"１３１巷","ALLEY":" ","HOUSE_NO":"１４號","E_COORD97":161645.20999999999,"N_COORD97":2553366.3300000001,"ADDRESS":"公學路七段１３１巷１４號","OBJECTID":281825},"geometry":{"x":161645.21000000089,"y":2553366.3300000019}},{"attributes":{"ID":281832,"DIS_CODE":0,"TOWNNAME":"新營區","LI":"永生里","LIN":"3鄰","STREET":"富源街","SECT":" ","MAREA":" ","LANE":" ","ALLEY":" ","HOUSE_NO":"１２號","E_COORD97":180062.040905,"N_COORD97":2578040.72371,"ADDRESS":"富源街１２號","OBJECTID":281826},"geometry":{"x":180062.04090499971,"y":2578040.7237100024}},{"attributes":{"ID":281833,"DIS_CODE":0,"TOWNNAME":"安南區","LI":"學東里","LIN":"6鄰","STREET":"公學路","SECT":"七段","MAREA":" ","LANE":"１３１巷","ALLEY":" ","HOUSE_NO":"１６號","E_COORD97":161643.48000000001,"N_COORD97":2553360.6299999999,"ADDRESS":"公學路七段１３１巷１６號","OBJECTID":281827},"geometry":{"x":161643.48000000231,"y":2553360.6300000008}},{"attributes":{"ID":281834,"DIS_CODE":0,"TOWNNAME":"安南區","LI":"學東里","LIN":"6鄰","STREET":"公學路","SECT":"七段","MAREA":" ","LANE":"１３１巷","ALLEY":" ","HOUSE_NO":"１８號","E_COORD97":161643.48000000001,"N_COORD97":2553354.4199999999,"ADDRESS":"公學路七段１３１巷１８號","OBJECTID":281828},"geometry":{"x":161643.48000000231,"y":2553354.4199999999}},{"attributes":{"ID":281835,"DIS_CODE":0,"TOWNNAME":"安南區","LI":"學東里","LIN":"6鄰","STREET":"公學路","SECT":"七段","MAREA":" ","LANE":"１３１巷","ALLEY":" ","HOUSE_NO":"２１號","E_COORD97":161672.64999999999,"N_COORD97":2553356.54,"ADDRESS":"公學路七段１３１巷２１號","OBJECTID":281829},"geometry":{"x":161672.65000000224,"y":2553356.5399999972}},{"attributes":{"ID":281836,"DIS_CODE":0,"TOWNNAME":"安南區","LI":"學東里","LIN":"6鄰","STREET":"公學路","SECT":"七段","MAREA":" ","LANE":"１３１巷","ALLEY":" ","HOUSE_NO":"２２號","E_COORD97":161640.22,"N_COORD97":2553342.8799999999,"ADDRESS":"公學路七段１３１巷２２號","OBJECTID":281830},"geometry":{"x":161640.21999999974,"y":2553342.879999999}},{"attributes":{"ID":281837,"DIS_CODE":0,"TOWNNAME":"安南區","LI":"學東里","LIN":"6鄰","STREET":"公學路","SECT":"七段","MAREA":" ","LANE":"１３１巷","ALLEY":" ","HOUSE_NO":"２４號","E_COORD97":161638.98000000001,"N_COORD97":2553335.9300000002,"ADDRESS":"公學路七段１３１巷２４號","OBJECTID":281831},"geometry":{"x":161638.98000000138,"y":2553335.9300000016}},{"attributes":{"ID":281838,"DIS_CODE":0,"TOWNNAME":"安南區","LI":"學東里","LIN":"6鄰","STREET":"公學路","SECT":"七段","MAREA":" ","LANE":"１３１巷","ALLEY":" ","HOUSE_NO":"２６號","E_COORD97":161638.73000000001,"N_COORD97":2553330.9700000002,"ADDRESS":"公學路七段１３１巷２６號","OBJECTID":281832},"geometry":{"x":161638.73000000138,"y":2553330.9700000007}},{"attributes":{"ID":281839,"DIS_CODE":0,"TOWNNAME":"安南區","LI":"學東里","LIN":"6鄰","STREET":"公學路","SECT":"七段","MAREA":" ","LANE":"１３１巷","ALLEY":" ","HOUSE_NO":"２８號","E_COORD97":161636.73999999999,"N_COORD97":2553325.5099999998,"ADDRESS":"公學路七段１３１巷２８號","OBJECTID":281833},"geometry":{"x":161636.74000000115,"y":2553325.5099999998}},{"attributes":{"ID":281840,"DIS_CODE":0,"TOWNNAME":"安南區","LI":"學東里","LIN":"6鄰","STREET":"公學路","SECT":"七段","MAREA":" ","LANE":"１３１巷","ALLEY":" ","HOUSE_NO":"３０號","E_COORD97":161635.75,"N_COORD97":2553318.0699999998,"ADDRESS":"公學路七段１３１巷３０號","OBJECTID":281834},"geometry":{"x":161635.75,"y":2553318.0700000022}},{"attributes":{"ID":281841,"DIS_CODE":0,"TOWNNAME":"安南區","LI":"學東里","LIN":"6鄰","STREET":"公學路","SECT":"七段","MAREA":" ","LANE":"１３１巷","ALLEY":" ","HOUSE_NO":"３２號","E_COORD97":161634.01000000001,"N_COORD97":2553313.6099999999,"ADDRESS":"公學路七段１３１巷３２號","OBJECTID":281835},"geometry":{"x":161634.01000000164,"y":2553313.6100000013}},{"attributes":{"ID":281842,"DIS_CODE":0,"TOWNNAME":"安南區","LI":"學東里","LIN":"6鄰","STREET":"公學路","SECT":"七段","MAREA":" ","LANE":"１３１巷","ALLEY":" ","HOUSE_NO":"６號","E_COORD97":161650.42999999999,"N_COORD97":2553388.9100000001,"ADDRESS":"公學路七段１３１巷６號","OBJECTID":281836},"geometry":{"x":161650.43000000063,"y":2553388.9100000001}},{"attributes":{"ID":281843,"DIS_CODE":0,"TOWNNAME":"安南區","LI":"學東里","LIN":"6鄰","STREET":"公學路","SECT":"七段","MAREA":" ","LANE":"１３１巷","ALLEY":" ","HOUSE_NO":"８號","E_COORD97":161648.94,"N_COORD97":2553383.2000000002,"ADDRESS":"公學路七段１３１巷８號","OBJECTID":281837},"geometry":{"x":161648.94000000134,"y":2553383.200000003}},{"attributes":{"ID":281844,"DIS_CODE":0,"TOWNNAME":"安南區","LI":"學東里","LIN":"6鄰","STREET":"公學路","SECT":"七段","MAREA":" ","LANE":"１７９巷","ALLEY":" ","HOUSE_NO":"１號","E_COORD97":161581.16,"N_COORD97":2553459.9399999999,"ADDRESS":"公學路七段１７９巷１號","OBJECTID":281838},"geometry":{"x":161581.16000000108,"y":2553459.9400000013}},{"attributes":{"ID":281845,"DIS_CODE":0,"TOWNNAME":"安南區","LI":"學東里","LIN":"6鄰","STREET":"公學路","SECT":"七段","MAREA":" ","LANE":"１７９巷","ALLEY":" ","HOUSE_NO":"３號","E_COORD97":161583.14999999999,"N_COORD97":2553455.9399999999,"ADDRESS":"公學路七段１７９巷３號","OBJECTID":281839},"geometry":{"x":161583.1500000013,"y":2553455.9399999976}},{"attributes":{"ID":281846,"DIS_CODE":0,"TOWNNAME":"安南區","LI":"國安里","LIN":"6鄰","STREET":"國安街","SECT":" ","MAREA":" ","LANE":"２１０巷","ALLEY":" ","HOUSE_NO":"４２之１號","E_COORD97":166599.91,"N_COORD97":2547068.6200000001,"ADDRESS":"國安街２１０巷４２之１號","OBJECTID":281840},"geometry":{"x":166599.91000000015,"y":2547068.620000001}},{"attributes":{"ID":281847,"DIS_CODE":0,"TOWNNAME":"安南區","LI":"\u25A0南里","LIN":"6鄰","STREET":"安昌街","SECT":" ","MAREA":" ","LANE":"２１９巷","ALLEY":" ","HOUSE_NO":"４號","E_COORD97":170101,"N_COORD97":2552541.5899999999,"ADDRESS":"安昌街２１９巷４號","OBJECTID":281841},"geometry":{"x":170101,"y":2552541.5900000017}},{"attributes":{"ID":281848,"DIS_CODE":0,"TOWNNAME":"永康區","LI":"蔦松里","LIN":"6鄰","STREET":"蔦松一街","SECT":" ","MAREA":" ","LANE":"７４巷","ALLEY":" ","HOUSE_NO":"２０號","E_COORD97":173913.82999999999,"N_COORD97":2549529.5,"ADDRESS":"蔦松一街７４巷２０號","OBJECTID":281842},"geometry":{"x":173913.83000000194,"y":2549529.5}},{"attributes":{"ID":281849,"DIS_CODE":0,"TOWNNAME":"永康區","LI":"蔦松里","LIN":"6鄰","STREET":"蔦松一街","SECT":" ","MAREA":" ","LANE":"７４巷","ALLEY":" ","HOUSE_NO":"２２號之１","E_COORD97":173917.62,"N_COORD97":2549548.5499999998,"ADDRESS":"蔦松一街７４巷２２號之１","OBJECTID":281843},"geometry":{"x":173917.62000000104,"y":2549548.5500000026}},{"attributes":{"ID":281850,"DIS_CODE":0,"TOWNNAME":"東區","LI":"自強里","LIN":"6鄰","STREET":"東門路","SECT":"三段","MAREA":" ","LANE":"３７巷","ALLEY":" ","HOUSE_NO":"６５號","E_COORD97":171225.04999999999,"N_COORD97":2542386.54,"ADDRESS":"東門路三段３７巷６５號","OBJECTID":281844},"geometry":{"x":171225.04999999888,"y":2542386.540000001}},{"attributes":{"ID":281851,"DIS_CODE":0,"TOWNNAME":"東區","LI":"龍山里","LIN":"6鄰","STREET":"東門路","SECT":"二段","MAREA":" ","LANE":"１５８巷","ALLEY":" ","HOUSE_NO":"１３號","E_COORD97":170125.17000000001,"N_COORD97":2542820.6000000001,"ADDRESS":"東門路二段１５８巷１３號","OBJECTID":281845},"geometry":{"x":170125.16999999993,"y":2542820.6000000015}},{"attributes":{"ID":281852,"DIS_CODE":0,"TOWNNAME":"東區","LI":"龍山里","LIN":"6鄰","STREET":"東門路","SECT":"二段","MAREA":" ","LANE":"１５８巷","ALLEY":" ","HOUSE_NO":"１５號","E_COORD97":170128.20000000001,"N_COORD97":2542815.3100000001,"ADDRESS":"東門路二段１５８巷１５號","OBJECTID":281846},"geometry":{"x":170128.20000000112,"y":2542815.3100000005}},{"attributes":{"ID":281853,"DIS_CODE":0,"TOWNNAME":"永康區","LI":"北灣里","LIN":"6鄰","STREET":"大灣路","SECT":" ","MAREA":" ","LANE":"１１９巷","ALLEY":" ","HOUSE_NO":"９號","E_COORD97":175140.01000000001,"N_COORD97":2545531.2400000002,"ADDRESS":"大灣路１１９巷９號","OBJECTID":281847},"geometry":{"x":175140.01000000071,"y":2545531.2400000002}},{"attributes":{"ID":281854,"DIS_CODE":0,"TOWNNAME":"安南區","LI":"海東里","LIN":"6鄰","STREET":"同安路","SECT":" ","MAREA":" ","LANE":"３４７巷","ALLEY":" ","HOUSE_NO":"１８號","E_COORD97":167211.38,"N_COORD97":2549332.54,"ADDRESS":"同安路３４７巷１８號","OBJECTID":281848},"geometry":{"x":167211.37999999989,"y":2549332.5400000028}},{"attributes":{"ID":281855,"DIS_CODE":0,"TOWNNAME":"安南區","LI":"海東里","LIN":"6鄰","STREET":"同安路","SECT":" ","MAREA":" ","LANE":"３４７巷","ALLEY":" ","HOUSE_NO":"２０號","E_COORD97":167207.53,"N_COORD97":2549334.7000000002,"ADDRESS":"同安路３４７巷２０號","OBJECTID":281849},"geometry":{"x":167207.53000000026,"y":2549334.700000003}},{"attributes":{"ID":281856,"DIS_CODE":0,"TOWNNAME":"安南區","LI":"海東里","LIN":"6鄰","STREET":"同安路","SECT":" ","MAREA":" ","LANE":"３４７巷","ALLEY":" ","HOUSE_NO":"２２號","E_COORD97":167203.98000000001,"N_COORD97":2549336.5899999999,"ADDRESS":"同安路３４７巷２２號","OBJECTID":281850},"geometry":{"x":167203.98000000138,"y":2549336.5900000017}},{"attributes":{"ID":281857,"DIS_CODE":0,"TOWNNAME":"安南區","LI":"海東里","LIN":"6鄰","STREET":"同安路","SECT":" ","MAREA":" ","LANE":"３４７巷","ALLEY":" ","HOUSE_NO":"２６號","E_COORD97":167200.38,"N_COORD97":2549338.4199999999,"ADDRESS":"同安路３４７巷２６號","OBJECTID":281851},"geometry":{"x":167200.38000000175,"y":2549338.4200000018}},{"attributes":{"ID":281858,"DIS_CODE":0,"TOWNNAME":"歸仁區","LI":"文化里","LIN":"2鄰","STREET":"國光街","SECT":" ","MAREA":" ","LANE":" ","ALLEY":" ","HOUSE_NO":"１７６號","E_COORD97":177354.95000000001,"N_COORD97":2541271.1699999999,"ADDRESS":"國光街１７６號","OBJECTID":281852},"geometry":{"x":177354.95000000112,"y":2541271.1700000018}},{"attributes":{"ID":281859,"DIS_CODE":0,"TOWNNAME":"歸仁區","LI":"文化里","LIN":"2鄰","STREET":"國光街","SECT":" ","MAREA":" ","LANE":" ","ALLEY":" ","HOUSE_NO":"１７８號","E_COORD97":177355.39999999999,"N_COORD97":2541280.6400000001,"ADDRESS":"國光街１７８號","OBJECTID":281853},"geometry":{"x":177355.4000000013,"y":2541280.6400000006}},{"attributes":{"ID":281860,"DIS_CODE":0,"TOWNNAME":"歸仁區","LI":"文化里","LIN":"2鄰","STREET":"國光街","SECT":" ","MAREA":" ","LANE":" ","ALLEY":" ","HOUSE_NO":"１８０號","E_COORD97":177369.60999999999,"N_COORD97":2541282.1800000002,"ADDRESS":"國光街１８０號","OBJECTID":281854},"geometry":{"x":177369.61000000034,"y":2541282.1799999997}},{"attributes":{"ID":281861,"DIS_CODE":0,"TOWNNAME":"歸仁區","LI":"文化里","LIN":"2鄰","STREET":"國光街","SECT":" ","MAREA":" ","LANE":" ","ALLEY":" ","HOUSE_NO":"１８２之１號","E_COORD97":177365.54000000001,"N_COORD97":2541302.3100000001,"ADDRESS":"國光街１８２之１號","OBJECTID":281855},"geometry":{"x":177365.54000000097,"y":2541302.3100000005}},{"attributes":{"ID":281862,"DIS_CODE":0,"TOWNNAME":"歸仁區","LI":"文化里","LIN":"2鄰","STREET":"國光街","SECT":" ","MAREA":" ","LANE":" ","ALLEY":" ","HOUSE_NO":"１８２之２號","E_COORD97":177370.69,"N_COORD97":2541301.9900000002,"ADDRESS":"國光街１８２之２號","OBJECTID":281856},"geometry":{"x":177370.69000000134,"y":2541301.9900000039}},{"attributes":{"ID":281863,"DIS_CODE":0,"TOWNNAME":"安南區","LI":"海東里","LIN":"6鄰","STREET":"同安路","SECT":" ","MAREA":" ","LANE":"３４７巷","ALLEY":" ","HOUSE_NO":"２８號","E_COORD97":167196.95999999999,"N_COORD97":2549340.3599999999,"ADDRESS":"同安路３４７巷２８號","OBJECTID":281857},"geometry":{"x":167196.96000000089,"y":2549340.3599999994}},{"attributes":{"ID":281864,"DIS_CODE":0,"TOWNNAME":"永康區","LI":"\u25A0洲里","LIN":"6鄰","STREET":"\u25A0洲二街","SECT":" ","MAREA":" ","LANE":"２２１巷","ALLEY":" ","HOUSE_NO":"３０號","E_COORD97":171796.22,"N_COORD97":2549563.7400000002,"ADDRESS":"\u25A0洲二街２２１巷３０號","OBJECTID":281858},"geometry":{"x":171796.21999999974,"y":2549563.7400000021}},{"attributes":{"ID":281865,"DIS_CODE":0,"TOWNNAME":"永康區","LI":"蔦松里","LIN":"6鄰","STREET":"蔦松一街","SECT":" ","MAREA":" ","LANE":"７４巷","ALLEY":" ","HOUSE_NO":"３６號","E_COORD97":173942.38,"N_COORD97":2549552.5,"ADDRESS":"蔦松一街７４巷３６號","OBJECTID":281859},"geometry":{"x":173942.38000000082,"y":2549552.5}},{"attributes":{"ID":281866,"DIS_CODE":0,"TOWNNAME":"永康區","LI":"蔦松里","LIN":"6鄰","STREET":"蔦松一街","SECT":" ","MAREA":" ","LANE":"７４巷","ALLEY":" ","HOUSE_NO":"４１號","E_COORD97":173939.13,"N_COORD97":2549564.4900000002,"ADDRESS":"蔦松一街７４巷４１號","OBJECTID":281860},"geometry":{"x":173939.13000000082,"y":2549564.4900000039}},{"attributes":{"ID":281867,"DIS_CODE":0,"TOWNNAME":"永康區","LI":"\u25A0行里","LIN":"6鄰","STREET":"新行街","SECT":" ","MAREA":" ","LANE":"３３巷","ALLEY":" ","HOUSE_NO":"２９號","E_COORD97":172184.89999999999,"N_COORD97":2548846.77,"ADDRESS":"新行街３３巷２９號","OBJECTID":281861},"geometry":{"x":172184.9000000013,"y":2548846.7700000014}},{"attributes":{"ID":281868,"DIS_CODE":0,"TOWNNAME":"歸仁區","LI":"文化里","LIN":"2鄰","STREET":"國光街","SECT":" ","MAREA":" ","LANE":" ","ALLEY":" ","HOUSE_NO":"１８２之３號","E_COORD97":177375.75,"N_COORD97":2541301.7599999998,"ADDRESS":"國光街１８２之３號","OBJECTID":281862},"geometry":{"x":177375.75000000186,"y":2541301.7599999998}},{"attributes":{"ID":281869,"DIS_CODE":0,"TOWNNAME":"新營區","LI":"民榮里","LIN":"33鄰","STREET":"太子路","SECT":" ","MAREA":" ","LANE":"１３９巷","ALLEY":" ","HOUSE_NO":"５７號","E_COORD97":178082.94,"N_COORD97":2577815.4500000002,"ADDRESS":"太子路１３９巷５７號","OBJECTID":281863},"geometry":{"x":178082.94000000041,"y":2577815.4499999974}},{"attributes":{"ID":281870,"DIS_CODE":0,"TOWNNAME":"永康區","LI":"埔園里","LIN":"33鄰","STREET":"埔東街","SECT":" ","MAREA":" ","LANE":"３０巷","ALLEY":" ","HOUSE_NO":"７號","E_COORD97":173851.87,"N_COORD97":2548134.4199999999,"ADDRESS":"埔東街３０巷７號","OBJECTID":281864},"geometry":{"x":173851.87000000011,"y":2548134.4200000018}},{"attributes":{"ID":281871,"DIS_CODE":0,"TOWNNAME":"永康區","LI":"崑山里","LIN":"33鄰","STREET":"國光二街","SECT":" ","MAREA":" ","LANE":"７０巷","ALLEY":" ","HOUSE_NO":"６８號","E_COORD97":173940.17999999999,"N_COORD97":2544898.4100000001,"ADDRESS":"國光二街７０巷６８號","OBJECTID":281865},"geometry":{"x":173940.18000000063,"y":2544898.4100000001}},{"attributes":{"ID":281872,"DIS_CODE":0,"TOWNNAME":"永康區","LI":"北灣里","LIN":"33鄰","STREET":"大灣路","SECT":" ","MAREA":" ","LANE":"４１巷","ALLEY":" ","HOUSE_NO":"１３號","E_COORD97":175321.04000000001,"N_COORD97":2545777.8999999999,"ADDRESS":"大灣路４１巷１３號","OBJECTID":281866},"geometry":{"x":175321.0400000019,"y":2545777.8999999985}},{"attributes":{"ID":281873,"DIS_CODE":0,"TOWNNAME":"歸仁區","LI":"許厝里","LIN":"33鄰","STREET":"公園八街","SECT":" ","MAREA":" ","LANE":"２０巷","ALLEY":" ","HOUSE_NO":"２號","E_COORD97":177897.35000000001,"N_COORD97":2540531,"ADDRESS":"公園八街２０巷２號","OBJECTID":281867},"geometry":{"x":177897.35000000056,"y":2540531}},{"attributes":{"ID":281874,"DIS_CODE":0,"TOWNNAME":"永康區","LI":"成功里","LIN":"33鄰","STREET":"忠孝路","SECT":" ","MAREA":" ","LANE":"２０７巷","ALLEY":" ","HOUSE_NO":"３６號","E_COORD97":171913.51000000001,"N_COORD97":2544921.9700000002,"ADDRESS":"忠孝路２０７巷３６號","OBJECTID":281868},"geometry":{"x":171913.50999999885,"y":2544921.9700000007}},{"attributes":{"ID":281875,"DIS_CODE":0,"TOWNNAME":"新化區","LI":"東榮里","LIN":"33鄰","STREET":"信義路","SECT":" ","MAREA":" ","LANE":"２２０巷","ALLEY":" ","HOUSE_NO":"２號","E_COORD97":179141.32999999999,"N_COORD97":2548353.25,"ADDRESS":"信義路２２０巷２號","OBJECTID":281869},"geometry":{"x":179141.33000000007,"y":2548353.2500000019}},{"attributes":{"ID":281876,"DIS_CODE":0,"TOWNNAME":"東區","LI":"忠孝里","LIN":"33鄰","STREET":"崇明二街","SECT":" ","MAREA":" ","LANE":"２巷","ALLEY":" ","HOUSE_NO":"４號","E_COORD97":169559.298247,"N_COORD97":2542359.7799200001,"ADDRESS":"崇明二街２巷４號","OBJECTID":281870},"geometry":{"x":169559.29824700113,"y":2542359.7799220029}},{"attributes":{"ID":281877,"DIS_CODE":0,"TOWNNAME":"仁德區","LI":"仁德里","LIN":"33鄰","STREET":"中山路","SECT":" ","MAREA":" ","LANE":"６９６巷","ALLEY":" ","HOUSE_NO":"５號","E_COORD97":172816.69,"N_COORD97":2541536.5,"ADDRESS":"中山路６９６巷５號","OBJECTID":281871},"geometry":{"x":172816.69000000227,"y":2541536.5000000019}},{"attributes":{"ID":281878,"DIS_CODE":0,"TOWNNAME":"永康區","LI":"西灣里","LIN":"33鄰","STREET":"公園路","SECT":" ","MAREA":" ","LANE":"１５１巷","ALLEY":" ","HOUSE_NO":"２６號","E_COORD97":174101.92000000001,"N_COORD97":2545846.1299999999,"ADDRESS":"公園路１５１巷２６號","OBJECTID":281872},"geometry":{"x":174101.92000000086,"y":2545846.1299999971}},{"attributes":{"ID":281879,"DIS_CODE":0,"TOWNNAME":"永康區","LI":"永康里","LIN":"33鄰","STREET":"永大路","SECT":"二段","MAREA":" ","LANE":"１３１０巷","ALLEY":" ","HOUSE_NO":"１９號","E_COORD97":174333.10999999999,"N_COORD97":2546956.3100000001,"ADDRESS":"永大路二段１３１０巷１９號","OBJECTID":281873},"geometry":{"x":174333.11000000127,"y":2546956.3100000024}},{"attributes":{"ID":281880,"DIS_CODE":0,"TOWNNAME":"永康區","LI":"北灣里","LIN":"33鄰","STREET":"大灣路","SECT":" ","MAREA":" ","LANE":"４１巷","ALLEY":" ","HOUSE_NO":"１０號","E_COORD97":175320.01999999999,"N_COORD97":2545792,"ADDRESS":"大灣路４１巷１０號","OBJECTID":281874},"geometry":{"x":175320.01999999955,"y":2545792.0000000019}},{"attributes":{"ID":281881,"DIS_CODE":0,"TOWNNAME":"永康區","LI":"復國里","LIN":"33鄰","STREET":"復華一街","SECT":" ","MAREA":" ","LANE":"６６巷","ALLEY":" ","HOUSE_NO":"１８號","E_COORD97":172555.10000000001,"N_COORD97":2545162.5299999998,"ADDRESS":"復華一街６６巷１８號","OBJECTID":281875},"geometry":{"x":172555.09999999963,"y":2545162.5300000031}},{"attributes":{"ID":281882,"DIS_CODE":0,"TOWNNAME":"永康區","LI":"東灣里","LIN":"33鄰","STREET":"大灣一街","SECT":" ","MAREA":" ","LANE":"３５８巷","ALLEY":" ","HOUSE_NO":"１７號","E_COORD97":175147.67000000001,"N_COORD97":2544750.0499999998,"ADDRESS":"大灣一街３５８巷１７號","OBJECTID":281876},"geometry":{"x":175147.67000000086,"y":2544750.0499999989}},{"attributes":{"ID":281883,"DIS_CODE":0,"TOWNNAME":"永康區","LI":"南灣里","LIN":"33鄰","STREET":"南灣街","SECT":" ","MAREA":" ","LANE":"８７巷","ALLEY":" ","HOUSE_NO":"２２號","E_COORD97":174382.32000000001,"N_COORD97":2544877.23,"ADDRESS":"南灣街８７巷２２號","OBJECTID":281877},"geometry":{"x":174382.32000000123,"y":2544877.2300000004}},{"attributes":{"ID":281884,"DIS_CODE":0,"TOWNNAME":"東區","LI":"大智里","LIN":"33鄰","STREET":"崇善十六街","SECT":" ","MAREA":" ","LANE":"１２６巷","ALLEY":" ","HOUSE_NO":"１１號","E_COORD97":171221.07999999999,"N_COORD97":2540451.77,"ADDRESS":"崇善十六街１２６巷１１號","OBJECTID":281878},"geometry":{"x":171221.08000000007,"y":2540451.7700000033}},{"attributes":{"ID":281885,"DIS_CODE":0,"TOWNNAME":"永康區","LI":"東灣里","LIN":"33鄰","STREET":"民族路","SECT":" ","MAREA":" ","LANE":"１４５巷","ALLEY":" ","HOUSE_NO":"７１號","E_COORD97":175160.10000000001,"N_COORD97":2544702.6899999999,"ADDRESS":"民族路１４５巷７１號","OBJECTID":281879},"geometry":{"x":175160.09999999963,"y":2544702.6899999995}},{"attributes":{"ID":281886,"DIS_CODE":0,"TOWNNAME":"永康區","LI":"東灣里","LIN":"33鄰","STREET":"大灣一街","SECT":" ","MAREA":" ","LANE":"３５８巷","ALLEY":" ","HOUSE_NO":"１號","E_COORD97":175124.56,"N_COORD97":2544779.2999999998,"ADDRESS":"大灣一街３５８巷１號","OBJECTID":281880},"geometry":{"x":175124.56000000052,"y":2544779.3000000045}},{"attributes":{"ID":281887,"DIS_CODE":0,"TOWNNAME":"永康區","LI":"龍潭里","LIN":"33鄰","STREET":"龍國街","SECT":" ","MAREA":" ","LANE":"２４０巷","ALLEY":" ","HOUSE_NO":"１５號","E_COORD97":174495.12,"N_COORD97":2547948.6800000002,"ADDRESS":"龍國街２４０巷１５號","OBJECTID":281881},"geometry":{"x":174495.12000000104,"y":2547948.6800000034}},{"attributes":{"ID":281888,"DIS_CODE":0,"TOWNNAME":"永康區","LI":"西灣里","LIN":"33鄰","STREET":"公園路","SECT":" ","MAREA":" ","LANE":"１５１巷","ALLEY":" ","HOUSE_NO":"２０號","E_COORD97":174101.01999999999,"N_COORD97":2545859.8799999999,"ADDRESS":"公園路１５１巷２０號","OBJECTID":281882},"geometry":{"x":174101.01999999955,"y":2545859.879999999}},{"attributes":{"ID":281889,"DIS_CODE":0,"TOWNNAME":"永康區","LI":"西灣里","LIN":"33鄰","STREET":"公園路","SECT":" ","MAREA":" ","LANE":"１５１巷","ALLEY":" ","HOUSE_NO":"１６號","E_COORD97":174091.31,"N_COORD97":2545873.8900000001,"ADDRESS":"公園路１５１巷１６號","OBJECTID":281883},"geometry":{"x":174091.30999999866,"y":2545873.8900000025}},{"attributes":{"ID":281890,"DIS_CODE":0,"TOWNNAME":"永康區","LI":"尚頂里","LIN":"33鄰","STREET":"中正南路","SECT":" ","MAREA":" ","LANE":"３４９巷","ALLEY":" ","HOUSE_NO":"８號","E_COORD97":170425.67999999999,"N_COORD97":2547836.1800000002,"ADDRESS":"中正南路３４９巷８號","OBJECTID":281884},"geometry":{"x":170425.68000000156,"y":2547836.1799999997}},{"attributes":{"ID":281891,"DIS_CODE":0,"TOWNNAME":"永康區","LI":"尚頂里","LIN":"33鄰","STREET":"中正南路","SECT":" ","MAREA":" ","LANE":"３４９巷","ALLEY":" ","HOUSE_NO":"７號","E_COORD97":170412.10999999999,"N_COORD97":2547828.1200000001,"ADDRESS":"中正南路３４９巷７號","OBJECTID":281885},"geometry":{"x":170412.11000000127,"y":2547828.120000001}},{"attributes":{"ID":281892,"DIS_CODE":0,"TOWNNAME":"永康區","LI":"尚頂里","LIN":"33鄰","STREET":"中正南路","SECT":" ","MAREA":" ","LANE":"３４９巷","ALLEY":" ","HOUSE_NO":"２１號","E_COORD97":170350.45999999999,"N_COORD97":2547809.5899999999,"ADDRESS":"中正南路３４９巷２１號","OBJECTID":281886},"geometry":{"x":170350.45999999996,"y":2547809.5899999999}},{"attributes":{"ID":281893,"DIS_CODE":0,"TOWNNAME":"永康區","LI":"\u25A0行里","LIN":"33鄰","STREET":"中正北路","SECT":" ","MAREA":" ","LANE":"１９巷","ALLEY":" ","HOUSE_NO":"１６號","E_COORD97":172000.73999999999,"N_COORD97":2549203.5699999998,"ADDRESS":"中正北路１９巷１６號","OBJECTID":281887},"geometry":{"x":172000.74000000209,"y":2549203.5700000003}},{"attributes":{"ID":281894,"DIS_CODE":0,"TOWNNAME":"永康區","LI":"\u25A0行里","LIN":"33鄰","STREET":"中正北路","SECT":" ","MAREA":" ","LANE":"１９巷","ALLEY":" ","HOUSE_NO":"１５號","E_COORD97":172000.73999999999,"N_COORD97":2549190.8100000001,"ADDRESS":"中正北路１９巷１５號","OBJECTID":281888},"geometry":{"x":172000.74000000209,"y":2549190.8100000024}},{"attributes":{"ID":281895,"DIS_CODE":0,"TOWNNAME":"永康區","LI":"\u25A0行里","LIN":"33鄰","STREET":"中正北路","SECT":" ","MAREA":" ","LANE":"７１巷","ALLEY":" ","HOUSE_NO":"４號","E_COORD97":172088.37,"N_COORD97":2549145.5,"ADDRESS":"中正北路７１巷４號","OBJECTID":281889},"geometry":{"x":172088.37000000104,"y":2549145.5}},{"attributes":{"ID":281896,"DIS_CODE":0,"TOWNNAME":"永康區","LI":"龍潭里","LIN":"33鄰","STREET":"龍國街","SECT":" ","MAREA":" ","LANE":"２４０巷","ALLEY":" ","HOUSE_NO":"９號","E_COORD97":174494.42000000001,"N_COORD97":2547962.8100000001,"ADDRESS":"龍國街２４０巷９號","OBJECTID":281890},"geometry":{"x":174494.42000000179,"y":2547962.8100000024}},{"attributes":{"ID":281897,"DIS_CODE":0,"TOWNNAME":"永康區","LI":"\u25A0行里","LIN":"33鄰","STREET":"中正北路","SECT":" ","MAREA":" ","LANE":"７１巷","ALLEY":" ","HOUSE_NO":"２３號","E_COORD97":172072.20000000001,"N_COORD97":2549213.5,"ADDRESS":"中正北路７１巷２３號","OBJECTID":281891},"geometry":{"x":172072.20000000205,"y":2549213.5}},{"attributes":{"ID":281898,"DIS_CODE":0,"TOWNNAME":"永康區","LI":"龍潭里","LIN":"33鄰","STREET":"龍國街","SECT":" ","MAREA":" ","LANE":"３２０巷","ALLEY":" ","HOUSE_NO":"４２號","E_COORD97":174612.35000000001,"N_COORD97":2547929.6299999999,"ADDRESS":"龍國街３２０巷４２號","OBJECTID":281892},"geometry":{"x":174612.35000000056,"y":2547929.6300000008}},{"attributes":{"ID":281899,"DIS_CODE":0,"TOWNNAME":"永康區","LI":"龍潭里","LIN":"33鄰","STREET":"龍國街","SECT":" ","MAREA":" ","LANE":"３２０巷","ALLEY":" ","HOUSE_NO":"２０號","E_COORD97":174617.57999999999,"N_COORD97":2547976.9500000002,"ADDRESS":"龍國街３２０巷２０號","OBJECTID":281893},"geometry":{"x":174617.58000000101,"y":2547976.950000003}},{"attributes":{"ID":281900,"DIS_CODE":0,"TOWNNAME":"永康區","LI":"龍潭里","LIN":"33鄰","STREET":"龍國街","SECT":" ","MAREA":" ","LANE":"３２０巷","ALLEY":" ","HOUSE_NO":"３號","E_COORD97":174632.76999999999,"N_COORD97":2547956,"ADDRESS":"龍國街３２０巷３號","OBJECTID":281894},"geometry":{"x":174632.77000000048,"y":2547956}},{"attributes":{"ID":281901,"DIS_CODE":0,"TOWNNAME":"東區","LI":"小東里","LIN":"33鄰","STREET":"東興路","SECT":" ","MAREA":" ","LANE":"２８４巷","ALLEY":" ","HOUSE_NO":"２６號","E_COORD97":171126.07999999999,"N_COORD97":2543998.1099999999,"ADDRESS":"東興路２８４巷２６號","OBJECTID":281895},"geometry":{"x":171126.08000000007,"y":2543998.1099999994}},{"attributes":{"ID":281902,"DIS_CODE":0,"TOWNNAME":"永康區","LI":"\u25A0洲里","LIN":"33鄰","STREET":"洲尾街","SECT":" ","MAREA":" ","LANE":"７４巷","ALLEY":" ","HOUSE_NO":"３７號","E_COORD97":170961.17999999999,"N_COORD97":2549082.5600000001,"ADDRESS":"洲尾街７４巷３７號","OBJECTID":281896},"geometry":{"x":170961.1799999997,"y":2549082.5600000005}},{"attributes":{"ID":281903,"DIS_CODE":0,"TOWNNAME":"永康區","LI":"\u25A0洲里","LIN":"33鄰","STREET":"洲尾街","SECT":" ","MAREA":" ","LANE":"７４巷","ALLEY":" ","HOUSE_NO":"２１號","E_COORD97":170944.98999999999,"N_COORD97":2549009.7599999998,"ADDRESS":"洲尾街７４巷２１號","OBJECTID":281897},"geometry":{"x":170944.99000000115,"y":2549009.7600000035}},{"attributes":{"ID":281904,"DIS_CODE":0,"TOWNNAME":"永康區","LI":"龍潭里","LIN":"33鄰","STREET":"龍國街","SECT":" ","MAREA":" ","LANE":"３２０巷","ALLEY":" ","HOUSE_NO":"２８號","E_COORD97":174615.14000000001,"N_COORD97":2547956.8799999999,"ADDRESS":"龍國街３２０巷２８號","OBJECTID":281898},"geometry":{"x":174615.1400000006,"y":2547956.8800000027}},{"attributes":{"ID":281905,"DIS_CODE":0,"TOWNNAME":"永康區","LI":"龍潭里","LIN":"33鄰","STREET":"龍國街","SECT":" ","MAREA":" ","LANE":"３２０巷","ALLEY":" ","HOUSE_NO":"３０號","E_COORD97":174614.64999999999,"N_COORD97":2547951.8799999999,"ADDRESS":"龍國街３２０巷３０號","OBJECTID":281899},"geometry":{"x":174614.65000000037,"y":2547951.879999999}},{"attributes":{"ID":281906,"DIS_CODE":0,"TOWNNAME":"永康區","LI":"龍潭里","LIN":"33鄰","STREET":"龍國街","SECT":" ","MAREA":" ","LANE":"３２０巷","ALLEY":" ","HOUSE_NO":"４０號","E_COORD97":174612.85000000001,"N_COORD97":2547934.1299999999,"ADDRESS":"龍國街３２０巷４０號","OBJECTID":281900},"geometry":{"x":174612.84999999963,"y":2547934.129999999}},{"attributes":{"ID":281907,"DIS_CODE":0,"TOWNNAME":"永康區","LI":"龍潭里","LIN":"33鄰","STREET":"龍國街","SECT":" ","MAREA":" ","LANE":"３２０巷","ALLEY":" ","HOUSE_NO":"５號","E_COORD97":174630.94,"N_COORD97":2547925.3900000001,"ADDRESS":"龍國街３２０巷５號","OBJECTID":281901},"geometry":{"x":174630.94000000134,"y":2547925.3900000025}},{"attributes":{"ID":281908,"DIS_CODE":0,"TOWNNAME":"東區","LI":"後甲里","LIN":"33鄰","STREET":"小東路","SECT":" ","MAREA":" ","LANE":"６１２巷","ALLEY":" ","HOUSE_NO":"３號","E_COORD97":172070.06,"N_COORD97":2544244.8500000001,"ADDRESS":"小東路６１２巷３號","OBJECTID":281902},"geometry":{"x":172070.05999999959,"y":2544244.8499999996}},{"attributes":{"ID":281909,"DIS_CODE":0,"TOWNNAME":"東區","LI":"後甲里","LIN":"33鄰","STREET":"小東路","SECT":" ","MAREA":" ","LANE":"６１２巷","ALLEY":" ","HOUSE_NO":"４號","E_COORD97":172069.42000000001,"N_COORD97":2544239.6299999999,"ADDRESS":"小東路６１２巷４號","OBJECTID":281903},"geometry":{"x":172069.42000000086,"y":2544239.6300000008}},{"attributes":{"ID":281910,"DIS_CODE":0,"TOWNNAME":"玉井區","LI":"沙田里","LIN":"4鄰","STREET":" ","SECT":" ","MAREA":"沙田","LANE":" ","ALLEY":" ","HOUSE_NO":"３４號","E_COORD97":196587.37,"N_COORD97":2556556.29,"ADDRESS":"沙田３４號","OBJECTID":281904},"geometry":{"x":196587.37000000104,"y":2556556.290000001}},{"attributes":{"ID":281911,"DIS_CODE":0,"TOWNNAME":"永康區","LI":"永康里","LIN":"33鄰","STREET":"永大路","SECT":"二段","MAREA":" ","LANE":"１３１０巷","ALLEY":" ","HOUSE_NO":"２５號","E_COORD97":174331,"N_COORD97":2546969.5600000001,"ADDRESS":"永大路二段１３１０巷２５號","OBJECTID":281905},"geometry":{"x":174331,"y":2546969.5600000005}},{"attributes":{"ID":281912,"DIS_CODE":0,"TOWNNAME":"永康區","LI":"勝利里","LIN":"33鄰","STREET":"小東路","SECT":" ","MAREA":" ","LANE":"４４９巷","ALLEY":" ","HOUSE_NO":"９號","E_COORD97":171442.35999999999,"N_COORD97":2544426.9900000002,"ADDRESS":"小東路４４９巷９號","OBJECTID":281906},"geometry":{"x":171442.3600000022,"y":2544426.9900000002}},{"attributes":{"ID":281913,"DIS_CODE":0,"TOWNNAME":"永康區","LI":"\u25A0行里","LIN":"33鄰","STREET":"中正北路","SECT":" ","MAREA":" ","LANE":"７１巷","ALLEY":" ","HOUSE_NO":"１號","E_COORD97":172073.89999999999,"N_COORD97":2549153.4900000002,"ADDRESS":"中正北路７１巷１號","OBJECTID":281907},"geometry":{"x":172073.90000000037,"y":2549153.4900000002}},{"attributes":{"ID":281914,"DIS_CODE":0,"TOWNNAME":"永康區","LI":"\u25A0行里","LIN":"33鄰","STREET":"中正北路","SECT":" ","MAREA":" ","LANE":"７１巷","ALLEY":" ","HOUSE_NO":"１７號","E_COORD97":172073.09,"N_COORD97":2549197.7400000002,"ADDRESS":"中正北路７１巷１７號","OBJECTID":281908},"geometry":{"x":172073.09000000078,"y":2549197.7400000021}},{"attributes":{"ID":281915,"DIS_CODE":0,"TOWNNAME":"永康區","LI":"勝利里","LIN":"33鄰","STREET":"小東路","SECT":" ","MAREA":" ","LANE":"４４９巷","ALLEY":" ","HOUSE_NO":"２１號","E_COORD97":171447.23999999999,"N_COORD97":2544464.5,"ADDRESS":"小東路４４９巷２１號","OBJECTID":281909},"geometry":{"x":171447.24000000022,"y":2544464.5}},{"attributes":{"ID":281916,"DIS_CODE":0,"TOWNNAME":"永康區","LI":"復華里","LIN":"33鄰","STREET":"忠孝路","SECT":" ","MAREA":" ","LANE":"３５２巷","ALLEY":" ","HOUSE_NO":"１８號","E_COORD97":172449.57000000001,"N_COORD97":2546278.73,"ADDRESS":"忠孝路３５２巷１８號","OBJECTID":281910},"geometry":{"x":172449.57000000123,"y":2546278.7300000023}},{"attributes":{"ID":281917,"DIS_CODE":0,"TOWNNAME":"歸仁區","LI":"後市里","LIN":"33鄰","STREET":"文化街","SECT":"二段","MAREA":" ","LANE":"５３巷","ALLEY":" ","HOUSE_NO":"１０號","E_COORD97":177394.73999999999,"N_COORD97":2541049.7599999998,"ADDRESS":"文化街二段５３巷１０號","OBJECTID":281911},"geometry":{"x":177394.74000000209,"y":2541049.7600000016}},{"attributes":{"ID":281918,"DIS_CODE":0,"TOWNNAME":"新營區","LI":"忠政里","LIN":"33鄰","STREET":"中正路","SECT":" ","MAREA":" ","LANE":"３７巷","ALLEY":" ","HOUSE_NO":"１５８號","E_COORD97":179871.75,"N_COORD97":2579124.8399999999,"ADDRESS":"中正路３７巷１５８號","OBJECTID":281912},"geometry":{"x":179871.75000000093,"y":2579124.8399999999}},{"attributes":{"ID":281919,"DIS_CODE":0,"TOWNNAME":"仁德區","LI":"仁德里","LIN":"33鄰","STREET":"中山路","SECT":" ","MAREA":" ","LANE":"６９６巷","ALLEY":" ","HOUSE_NO":"３號","E_COORD97":172808.29000000001,"N_COORD97":2541531.7400000002,"ADDRESS":"中山路６９６巷３號","OBJECTID":281913},"geometry":{"x":172808.29000000004,"y":2541531.7400000021}},{"attributes":{"ID":281920,"DIS_CODE":0,"TOWNNAME":"東區","LI":"中西里","LIN":"6鄰","STREET":"勝利路","SECT":" ","MAREA":" ","LANE":"５２巷","ALLEY":" ","HOUSE_NO":"１００號","E_COORD97":169975.45999999999,"N_COORD97":2543371.5299999998,"ADDRESS":"勝利路５２巷１００號","OBJECTID":281914},"geometry":{"x":169975.46000000089,"y":2543371.5299999993}},{"attributes":{"ID":281921,"DIS_CODE":0,"TOWNNAME":"永康區","LI":"復華里","LIN":"33鄰","STREET":"復華十街","SECT":" ","MAREA":" ","LANE":"２４巷","ALLEY":" ","HOUSE_NO":"１２號","E_COORD97":172548.20000000001,"N_COORD97":2546129.0299999998,"ADDRESS":"復華十街２４巷１２號","OBJECTID":281915},"geometry":{"x":172548.20000000019,"y":2546129.0300000031}},{"attributes":{"ID":281922,"DIS_CODE":0,"TOWNNAME":"安平區","LI":"億載里","LIN":"2鄰","STREET":"永華十一街","SECT":" ","MAREA":" ","LANE":" ","ALLEY":" ","HOUSE_NO":"１４３號","E_COORD97":164062.64000000001,"N_COORD97":2543825.5800000001,"ADDRESS":"永華十一街１４３號","OBJECTID":281916},"geometry":{"x":164062.6400000006,"y":2543825.5800000001}},{"attributes":{"ID":281923,"DIS_CODE":0,"TOWNNAME":"安平區","LI":"國平里","LIN":"2鄰","STREET":"華平路","SECT":" ","MAREA":" ","LANE":" ","ALLEY":" ","HOUSE_NO":"１５６號","E_COORD97":165394.25,"N_COORD97":2543210.96,"ADDRESS":"華平路１５６號","OBJECTID":281917},"geometry":{"x":165394.25000000186,"y":2543210.9600000009}},{"attributes":{"ID":281924,"DIS_CODE":0,"TOWNNAME":"東區","LI":"崇善里","LIN":"22鄰","STREET":"崇善十二街","SECT":" ","MAREA":" ","LANE":" ","ALLEY":" ","HOUSE_NO":"２１號","E_COORD97":171221.20999999999,"N_COORD97":2541093.8599999999,"ADDRESS":"崇善十二街２１號","OBJECTID":281918},"geometry":{"x":171221.21000000089,"y":2541093.8599999994}},{"attributes":{"ID":281925,"DIS_CODE":0,"TOWNNAME":"東區","LI":"崇善里","LIN":"22鄰","STREET":"崇善十二街","SECT":" ","MAREA":" ","LANE":" ","ALLEY":" ","HOUSE_NO":"２５號之１","E_COORD97":171232.04000000001,"N_COORD97":2541100.3100000001,"ADDRESS":"崇善十二街２５號之１","OBJECTID":281919},"geometry":{"x":171232.04000000004,"y":2541100.3100000042}},{"attributes":{"ID":281926,"DIS_CODE":0,"TOWNNAME":"東區","LI":"崇善里","LIN":"22鄰","STREET":"崇善十二街","SECT":" ","MAREA":" ","LANE":" ","ALLEY":" ","HOUSE_NO":"２９號","E_COORD97":171223.94,"N_COORD97":2541114.8399999999,"ADDRESS":"崇善十二街２９號","OBJECTID":281920},"geometry":{"x":171223.94000000134,"y":2541114.8399999999}},{"attributes":{"ID":281927,"DIS_CODE":0,"TOWNNAME":"東區","LI":"富裕里","LIN":"4鄰","STREET":"裕農路","SECT":" ","MAREA":" ","LANE":" ","ALLEY":" ","HOUSE_NO":"３６號","E_COORD97":170581.17999999999,"N_COORD97":2542850.27,"ADDRESS":"裕農路３６號","OBJECTID":281921},"geometry":{"x":170581.1799999997,"y":2542850.2700000014}},{"attributes":{"ID":281928,"DIS_CODE":0,"TOWNNAME":"東區","LI":"富裕里","LIN":"4鄰","STREET":"裕農路","SECT":" ","MAREA":" ","LANE":" ","ALLEY":" ","HOUSE_NO":"３８號","E_COORD97":170585.10999999999,"N_COORD97":2542851.8300000001,"ADDRESS":"裕農路３８號","OBJECTID":281922},"geometry":{"x":170585.11000000127,"y":2542851.8300000001}},{"attributes":{"ID":281929,"DIS_CODE":0,"TOWNNAME":"東區","LI":"富裕里","LIN":"4鄰","STREET":"裕農路","SECT":" ","MAREA":" ","LANE":" ","ALLEY":" ","HOUSE_NO":"４０號之１","E_COORD97":170588.26999999999,"N_COORD97":2542853.3599999999,"ADDRESS":"裕農路４０號之１","OBJECTID":281923},"geometry":{"x":170588.27000000048,"y":2542853.3599999994}},{"attributes":{"ID":281930,"DIS_CODE":0,"TOWNNAME":"東區","LI":"富裕里","LIN":"4鄰","STREET":"裕農路","SECT":" ","MAREA":" ","LANE":" ","ALLEY":" ","HOUSE_NO":"４０號之２","E_COORD97":170592.14000000001,"N_COORD97":2542844.5899999999,"ADDRESS":"裕農路４０號之２","OBJECTID":281924},"geometry":{"x":170592.14000000153,"y":2542844.5900000017}},{"attributes":{"ID":281931,"DIS_CODE":0,"TOWNNAME":"東區","LI":"富裕里","LIN":"4鄰","STREET":"裕農路","SECT":" ","MAREA":" ","LANE":" ","ALLEY":" ","HOUSE_NO":"４０號之３","E_COORD97":170592.69,"N_COORD97":2542840.4500000002,"ADDRESS":"裕農路４０號之３","OBJECTID":281925},"geometry":{"x":170592.69000000134,"y":2542840.450000003}},{"attributes":{"ID":281932,"DIS_CODE":0,"TOWNNAME":"東區","LI":"富裕里","LIN":"4鄰","STREET":"裕農路","SECT":" ","MAREA":" ","LANE":" ","ALLEY":" ","HOUSE_NO":"４０號之４","E_COORD97":170595.34,"N_COORD97":2542837.4500000002,"ADDRESS":"裕農路４０號之４","OBJECTID":281926},"geometry":{"x":170595.33999999985,"y":2542837.4500000011}},{"attributes":{"ID":281933,"DIS_CODE":0,"TOWNNAME":"永康區","LI":"復華里","LIN":"33鄰","STREET":"復華十街","SECT":" ","MAREA":" ","LANE":"２４巷","ALLEY":" ","HOUSE_NO":"２２號","E_COORD97":172562.95000000001,"N_COORD97":2546149.52,"ADDRESS":"復華十街２４巷２２號","OBJECTID":281927},"geometry":{"x":172562.95000000019,"y":2546149.5200000033}},{"attributes":{"ID":281934,"DIS_CODE":0,"TOWNNAME":"新營區","LI":"永生里","LIN":"3鄰","STREET":"富源街","SECT":" ","MAREA":" ","LANE":" ","ALLEY":" ","HOUSE_NO":"１２號之２","E_COORD97":180070.09242900001,"N_COORD97":2578037.5487099998,"ADDRESS":"富源街１２號之２","OBJECTID":281928},"geometry":{"x":180070.09242899995,"y":2578037.5487120021}},{"attributes":{"ID":281935,"DIS_CODE":0,"TOWNNAME":"永康區","LI":"復國里","LIN":"33鄰","STREET":"復華一街","SECT":" ","MAREA":" ","LANE":"６６巷","ALLEY":" ","HOUSE_NO":"５１號","E_COORD97":172533.98000000001,"N_COORD97":2545189.8500000001,"ADDRESS":"復華一街６６巷５１號","OBJECTID":281929},"geometry":{"x":172533.98000000138,"y":2545189.8499999996}},{"attributes":{"ID":281936,"DIS_CODE":0,"TOWNNAME":"永康區","LI":"勝利里","LIN":"33鄰","STREET":"中華路","SECT":" ","MAREA":" ","LANE":"２３巷","ALLEY":" ","HOUSE_NO":"９號","E_COORD97":171472.92999999999,"N_COORD97":2544465.29,"ADDRESS":"中華路２３巷９號","OBJECTID":281930},"geometry":{"x":171472.9299999997,"y":2544465.2899999972}},{"attributes":{"ID":281937,"DIS_CODE":0,"TOWNNAME":"東區","LI":"大智里","LIN":"17鄰","STREET":"德東街","SECT":" ","MAREA":" ","LANE":"１５１巷","ALLEY":" ","HOUSE_NO":"６４號","E_COORD97":171207.20999999999,"N_COORD97":2540433.27,"ADDRESS":"德東街１５１巷６４號","OBJECTID":281931},"geometry":{"x":171207.21000000183,"y":2540433.2699999996}},{"attributes":{"ID":281938,"DIS_CODE":0,"TOWNNAME":"永康區","LI":"正強里","LIN":"33鄰","STREET":"四維街","SECT":" ","MAREA":" ","LANE":"７９巷","ALLEY":" ","HOUSE_NO":"１０號","E_COORD97":173342.82000000001,"N_COORD97":2548115.1099999999,"ADDRESS":"四維街７９巷１０號","OBJECTID":281932},"geometry":{"x":173342.82000000216,"y":2548115.1100000031}},{"attributes":{"ID":281939,"DIS_CODE":0,"TOWNNAME":"永康區","LI":"正強里","LIN":"33鄰","STREET":"四維街","SECT":" ","MAREA":" ","LANE":"７９巷","ALLEY":" ","HOUSE_NO":"１２號","E_COORD97":173336.57000000001,"N_COORD97":2548111.8100000001,"ADDRESS":"四維街７９巷１２號","OBJECTID":281933},"geometry":{"x":173336.57000000123,"y":2548111.8100000024}},{"attributes":{"ID":281940,"DIS_CODE":0,"TOWNNAME":"永康區","LI":"正強里","LIN":"33鄰","STREET":"四維街","SECT":" ","MAREA":" ","LANE":"７９巷","ALLEY":" ","HOUSE_NO":"１６號","E_COORD97":173330.67999999999,"N_COORD97":2548110.0499999998,"ADDRESS":"四維街７９巷１６號","OBJECTID":281934},"geometry":{"x":173330.6799999997,"y":2548110.0500000045}},{"attributes":{"ID":281941,"DIS_CODE":0,"TOWNNAME":"永康區","LI":"正強里","LIN":"33鄰","STREET":"四維街","SECT":" ","MAREA":" ","LANE":"７９巷","ALLEY":" ","HOUSE_NO":"１８號","E_COORD97":173324.79000000001,"N_COORD97":2548108.2799999998,"ADDRESS":"四維街７９巷１８號","OBJECTID":281935},"geometry":{"x":173324.79000000097,"y":2548108.2800000012}},{"attributes":{"ID":281942,"DIS_CODE":0,"TOWNNAME":"永康區","LI":"正強里","LIN":"33鄰","STREET":"四維街","SECT":" ","MAREA":" ","LANE":"７９巷","ALLEY":" ","HOUSE_NO":"２０號","E_COORD97":173318.89000000001,"N_COORD97":2548106.52,"ADDRESS":"四維街７９巷２０號","OBJECTID":281936},"geometry":{"x":173318.88999999966,"y":2548106.5200000014}},{"attributes":{"ID":281943,"DIS_CODE":0,"TOWNNAME":"永康區","LI":"正強里","LIN":"33鄰","STREET":"四維街","SECT":" ","MAREA":" ","LANE":"７９巷","ALLEY":" ","HOUSE_NO":"２２號","E_COORD97":173315.35999999999,"N_COORD97":2548101.1600000001,"ADDRESS":"四維街７９巷２２號","OBJECTID":281937},"geometry":{"x":173315.3599999994,"y":2548101.1600000001}},{"attributes":{"ID":281944,"DIS_CODE":0,"TOWNNAME":"永康區","LI":"正強里","LIN":"33鄰","STREET":"四維街","SECT":" ","MAREA":" ","LANE":"７９巷","ALLEY":" ","HOUSE_NO":"２６號","E_COORD97":173306.94,"N_COORD97":2548100.9900000002,"ADDRESS":"四維街７９巷２６號","OBJECTID":281938},"geometry":{"x":173306.94000000134,"y":2548100.9900000021}},{"attributes":{"ID":281945,"DIS_CODE":0,"TOWNNAME":"楠西區","LI":"密枝里","LIN":"4鄰","STREET":" ","SECT":" ","MAREA":"密枝","LANE":" ","ALLEY":" ","HOUSE_NO":"４１號","E_COORD97":201305.67000000001,"N_COORD97":2566506.2799999998,"ADDRESS":"密枝４１號","OBJECTID":281939},"geometry":{"x":201305.67000000179,"y":2566506.2799999993}},{"attributes":{"ID":281946,"DIS_CODE":0,"TOWNNAME":"永康區","LI":"尚頂里","LIN":"33鄰","STREET":"中正南路","SECT":" ","MAREA":" ","LANE":"３４９巷","ALLEY":" ","HOUSE_NO":"２號","E_COORD97":170492.34,"N_COORD97":2547846.5800000001,"ADDRESS":"中正南路３４９巷２號","OBJECTID":281940},"geometry":{"x":170492.33999999985,"y":2547846.5800000001}},{"attributes":{"ID":281947,"DIS_CODE":0,"TOWNNAME":"仁德區","LI":"後壁里","LIN":"33鄰","STREET":"德洋二街","SECT":" ","MAREA":" ","LANE":"３９巷","ALLEY":" ","HOUSE_NO":"７６號","E_COORD97":172172.64999999999,"N_COORD97":2539441.7599999998,"ADDRESS":"德洋二街３９巷７６號","OBJECTID":281941},"geometry":{"x":172172.65000000224,"y":2539441.7600000035}},{"attributes":{"ID":281948,"DIS_CODE":0,"TOWNNAME":"仁德區","LI":"後壁里","LIN":"33鄰","STREET":"德洋二街","SECT":" ","MAREA":" ","LANE":"３９巷","ALLEY":" ","HOUSE_NO":"２號","E_COORD97":172360.88,"N_COORD97":2539427.5099999998,"ADDRESS":"德洋二街３９巷２號","OBJECTID":281942},"geometry":{"x":172360.88000000082,"y":2539427.5100000016}},{"attributes":{"ID":281949,"DIS_CODE":0,"TOWNNAME":"仁德區","LI":"後壁里","LIN":"33鄰","STREET":"德洋二街","SECT":" ","MAREA":" ","LANE":"３１巷","ALLEY":" ","HOUSE_NO":"１２號","E_COORD97":172381.26999999999,"N_COORD97":2539387.27,"ADDRESS":"德洋二街３１巷１２號","OBJECTID":281943},"geometry":{"x":172381.27000000142,"y":2539387.2700000033}},{"attributes":{"ID":281950,"DIS_CODE":0,"TOWNNAME":"新市區","LI":"新和里","LIN":"33鄰","STREET":"忠孝街","SECT":" ","MAREA":" ","LANE":"２１８巷","ALLEY":" ","HOUSE_NO":"７號","E_COORD97":177767.14999999999,"N_COORD97":2552936,"ADDRESS":"忠孝街２１８巷７號","OBJECTID":281944},"geometry":{"x":177767.1500000013,"y":2552936}},{"attributes":{"ID":281951,"DIS_CODE":0,"TOWNNAME":"仁德區","LI":"成功里","LIN":"10鄰","STREET":"成功二街","SECT":" ","MAREA":" ","LANE":"１５巷","ALLEY":" ","HOUSE_NO":"６號","E_COORD97":170932.79000000001,"N_COORD97":2539949.2599999998,"ADDRESS":"成功二街１５巷６號","OBJECTID":281945},"geometry":{"x":170932.79000000097,"y":2539949.2599999998}},{"attributes":{"ID":281952,"DIS_CODE":0,"TOWNNAME":"仁德區","LI":"成功里","LIN":"10鄰","STREET":"成功二街","SECT":" ","MAREA":" ","LANE":"３１巷","ALLEY":" ","HOUSE_NO":"１７號","E_COORD97":170967.70999999999,"N_COORD97":2539855.2599999998,"ADDRESS":"成功二街３１巷１７號","OBJECTID":281946},"geometry":{"x":170967.70999999996,"y":2539855.2599999979}},{"attributes":{"ID":281953,"DIS_CODE":0,"TOWNNAME":"仁德區","LI":"後壁里","LIN":"10鄰","STREET":"民安路","SECT":"二段","MAREA":" ","LANE":"１８２巷","ALLEY":" ","HOUSE_NO":"３３號","E_COORD97":173750.73000000001,"N_COORD97":2538859.3199999998,"ADDRESS":"民安路二段１８２巷３３號","OBJECTID":281947},"geometry":{"x":173750.73000000138,"y":2538859.3200000022}},{"attributes":{"ID":281954,"DIS_CODE":0,"TOWNNAME":"東區","LI":"富裕里","LIN":"4鄰","STREET":"裕農路","SECT":" ","MAREA":" ","LANE":" ","ALLEY":" ","HOUSE_NO":"４０號之５","E_COORD97":170598.47,"N_COORD97":2542833.52,"ADDRESS":"裕農路４０號之５","OBJECTID":281948},"geometry":{"x":170598.4700000016,"y":2542833.5200000033}},{"attributes":{"ID":281955,"DIS_CODE":0,"TOWNNAME":"東區","LI":"富裕里","LIN":"5鄰","STREET":"裕農路","SECT":" ","MAREA":" ","LANE":" ","ALLEY":" ","HOUSE_NO":"１０４號","E_COORD97":170745,"N_COORD97":2542916.46,"ADDRESS":"裕農路１０４號","OBJECTID":281949},"geometry":{"x":170745.00000000093,"y":2542916.4600000009}},{"attributes":{"ID":281956,"DIS_CODE":0,"TOWNNAME":"麻豆區","LI":"東角里","LIN":"2鄰","STREET":"文昌路","SECT":" ","MAREA":" ","LANE":" ","ALLEY":" ","HOUSE_NO":"６號之１１","E_COORD97":173496.28,"N_COORD97":2564907.2999999998,"ADDRESS":"文昌路６號之１１","OBJECTID":281950},"geometry":{"x":173496.28000000119,"y":2564907.3000000007}},{"attributes":{"ID":281957,"DIS_CODE":0,"TOWNNAME":"仁德區","LI":"保安里","LIN":"10鄰","STREET":"中正路","SECT":"一段","MAREA":" ","LANE":"２７３巷","ALLEY":" ","HOUSE_NO":"２號","E_COORD97":171873.23999999999,"N_COORD97":2536059.5299999998,"ADDRESS":"中正路一段２７３巷２號","OBJECTID":281951},"geometry":{"x":171873.24000000022,"y":2536059.5300000031}},{"attributes":{"ID":281958,"DIS_CODE":0,"TOWNNAME":"仁德區","LI":"保安里","LIN":"10鄰","STREET":"文賢二街","SECT":" ","MAREA":" ","LANE":"４６巷","ALLEY":" ","HOUSE_NO":"１號","E_COORD97":171737.62,"N_COORD97":2536108.3199999998,"ADDRESS":"文賢二街４６巷１號","OBJECTID":281952},"geometry":{"x":171737.62000000104,"y":2536108.3200000003}},{"attributes":{"ID":281959,"DIS_CODE":0,"TOWNNAME":"永康區","LI":"北灣里","LIN":"33鄰","STREET":"大灣路","SECT":" ","MAREA":" ","LANE":"５１巷","ALLEY":" ","HOUSE_NO":"３號","E_COORD97":175304.87,"N_COORD97":2545808.3500000001,"ADDRESS":"大灣路５１巷３號","OBJECTID":281953},"geometry":{"x":175304.87000000011,"y":2545808.3500000034}},{"attributes":{"ID":281960,"DIS_CODE":0,"TOWNNAME":"永康區","LI":"正強里","LIN":"33鄰","STREET":"埔園街","SECT":" ","MAREA":" ","LANE":"４２２巷","ALLEY":" ","HOUSE_NO":"６號","E_COORD97":173275.41,"N_COORD97":2548162.4900000002,"ADDRESS":"埔園街４２２巷６號","OBJECTID":281954},"geometry":{"x":173275.41000000015,"y":2548162.4900000021}},{"attributes":{"ID":281961,"DIS_CODE":0,"TOWNNAME":"永康區","LI":"正強里","LIN":"33鄰","STREET":"埔園街","SECT":" ","MAREA":" ","LANE":"４２２巷","ALLEY":" ","HOUSE_NO":"２號","E_COORD97":173277.54000000001,"N_COORD97":2548157.7400000002,"ADDRESS":"埔園街４２２巷２號","OBJECTID":281955},"geometry":{"x":173277.54000000004,"y":2548157.7400000002}},{"attributes":{"ID":281962,"DIS_CODE":0,"TOWNNAME":"永康區","LI":"北灣里","LIN":"33鄰","STREET":"大灣路","SECT":" ","MAREA":" ","LANE":"４１巷","ALLEY":" ","HOUSE_NO":"１１號","E_COORD97":175320.92999999999,"N_COORD97":2545787.25,"ADDRESS":"大灣路４１巷１１號","OBJECTID":281956},"geometry":{"x":175320.9299999997,"y":2545787.25}},{"attributes":{"ID":281963,"DIS_CODE":0,"TOWNNAME":"永康區","LI":"北灣里","LIN":"33鄰","STREET":"大灣路","SECT":" ","MAREA":" ","LANE":"４１巷","ALLEY":" ","HOUSE_NO":"１２號","E_COORD97":175322.29000000001,"N_COORD97":2545781.2400000002,"ADDRESS":"大灣路４１巷１２號","OBJECTID":281957},"geometry":{"x":175322.29000000004,"y":2545781.2400000002}},{"attributes":{"ID":281964,"DIS_CODE":0,"TOWNNAME":"永康區","LI":"北灣里","LIN":"33鄰","STREET":"大灣路","SECT":" ","MAREA":" ","LANE":"４１巷","ALLEY":" ","HOUSE_NO":"３號","E_COORD97":175317.45000000001,"N_COORD97":2545837.02,"ADDRESS":"大灣路４１巷３號","OBJECTID":281958},"geometry":{"x":175317.45000000112,"y":2545837.0199999996}},{"attributes":{"ID":281965,"DIS_CODE":0,"TOWNNAME":"永康區","LI":"正強里","LIN":"33鄰","STREET":"四維街","SECT":" ","MAREA":" ","LANE":"１４５巷","ALLEY":" ","HOUSE_NO":"７號","E_COORD97":173292.76000000001,"N_COORD97":2548265.0499999998,"ADDRESS":"四維街１４５巷７號","OBJECTID":281959},"geometry":{"x":173292.75999999978,"y":2548265.0500000007}},{"attributes":{"ID":281966,"DIS_CODE":0,"TOWNNAME":"永康區","LI":"北灣里","LIN":"33鄰","STREET":"文賢街","SECT":" ","MAREA":" ","LANE":"２６７巷","ALLEY":" ","HOUSE_NO":"８號","E_COORD97":175293.32000000001,"N_COORD97":2545751.0499999998,"ADDRESS":"文賢街２６７巷８號","OBJECTID":281960},"geometry":{"x":175293.3200000003,"y":2545751.0500000026}},{"attributes":{"ID":281967,"DIS_CODE":0,"TOWNNAME":"永康區","LI":"正強里","LIN":"33鄰","STREET":"四維街","SECT":" ","MAREA":" ","LANE":"１４５巷","ALLEY":" ","HOUSE_NO":"５號","E_COORD97":173298.67000000001,"N_COORD97":2548266.5499999998,"ADDRESS":"四維街１４５巷５號","OBJECTID":281961},"geometry":{"x":173298.66999999993,"y":2548266.5500000026}},{"attributes":{"ID":281968,"DIS_CODE":0,"TOWNNAME":"永康區","LI":"北灣里","LIN":"33鄰","STREET":"大灣路","SECT":" ","MAREA":" ","LANE":"４１巷","ALLEY":" ","HOUSE_NO":"１號","E_COORD97":175315.81,"N_COORD97":2545850.02,"ADDRESS":"大灣路４１巷１號","OBJECTID":281962},"geometry":{"x":175315.81000000052,"y":2545850.0199999996}},{"attributes":{"ID":281969,"DIS_CODE":0,"TOWNNAME":"永康區","LI":"尚頂里","LIN":"33鄰","STREET":"中正南路","SECT":" ","MAREA":" ","LANE":"３４９巷","ALLEY":" ","HOUSE_NO":"５號","E_COORD97":170416.91,"N_COORD97":2547821.8700000001,"ADDRESS":"中正南路３４９巷５號","OBJECTID":281963},"geometry":{"x":170416.91000000108,"y":2547821.870000001}},{"attributes":{"ID":281970,"DIS_CODE":0,"TOWNNAME":"永康區","LI":"北灣里","LIN":"33鄰","STREET":"大灣路","SECT":" ","MAREA":" ","LANE":"５１巷","ALLEY":" ","HOUSE_NO":"５號","E_COORD97":175304.69,"N_COORD97":2545804.1000000001,"ADDRESS":"大灣路５１巷５號","OBJECTID":281964},"geometry":{"x":175304.69000000041,"y":2545804.1000000015}},{"attributes":{"ID":281971,"DIS_CODE":0,"TOWNNAME":"永康區","LI":"東灣里","LIN":"33鄰","STREET":"民族路","SECT":" ","MAREA":" ","LANE":"１４５巷","ALLEY":" ","HOUSE_NO":"７３號","E_COORD97":175153.22,"N_COORD97":2544702.4100000001,"ADDRESS":"民族路１４５巷７３號","OBJECTID":281965},"geometry":{"x":175153.21999999881,"y":2544702.4100000001}},{"attributes":{"ID":281972,"DIS_CODE":0,"TOWNNAME":"鹽水區","LI":"福得里","LIN":"2鄰","STREET":"朝琴路","SECT":" ","MAREA":" ","LANE":" ","ALLEY":" ","HOUSE_NO":"１４號","E_COORD97":175190.56,"N_COORD97":2579987.3300000001,"ADDRESS":"朝琴路１４號","OBJECTID":281966},"geometry":{"x":175190.56000000052,"y":2579987.3300000038}},{"attributes":{"ID":281973,"DIS_CODE":0,"TOWNNAME":"鹽水區","LI":"福得里","LIN":"2鄰","STREET":"朝琴路","SECT":" ","MAREA":" ","LANE":" ","ALLEY":" ","HOUSE_NO":"１６號","E_COORD97":175194.60999999999,"N_COORD97":2579989.6200000001,"ADDRESS":"朝琴路１６號","OBJECTID":281967},"geometry":{"x":175194.61000000034,"y":2579989.6200000048}},{"attributes":{"ID":281974,"DIS_CODE":0,"TOWNNAME":"鹽水區","LI":"福得里","LIN":"2鄰","STREET":"朝琴路","SECT":" ","MAREA":" ","LANE":" ","ALLEY":" ","HOUSE_NO":"１８號","E_COORD97":175198.10999999999,"N_COORD97":2579991.6400000001,"ADDRESS":"朝琴路１８號","OBJECTID":281968},"geometry":{"x":175198.11000000034,"y":2579991.6400000006}},{"attributes":{"ID":281975,"DIS_CODE":0,"TOWNNAME":"鹽水區","LI":"福得里","LIN":"2鄰","STREET":"朝琴路","SECT":" ","MAREA":" ","LANE":" ","ALLEY":" ","HOUSE_NO":"２０號","E_COORD97":175202.13,"N_COORD97":2579994.25,"ADDRESS":"朝琴路２０號","OBJECTID":281969},"geometry":{"x":175202.13000000082,"y":2579994.2499999981}},{"attributes":{"ID":281976,"DIS_CODE":0,"TOWNNAME":"鹽水區","LI":"飯店里","LIN":"2鄰","STREET":" ","SECT":" ","MAREA":"麻油寮","LANE":" ","ALLEY":" ","HOUSE_NO":"３９之１號","E_COORD97":169296.42000000001,"N_COORD97":2573863.4399999999,"ADDRESS":"麻油寮３９之１號","OBJECTID":281970},"geometry":{"x":169296.41999999993,"y":2573863.4400000013}},{"attributes":{"ID":281977,"DIS_CODE":0,"TOWNNAME":"鹽水區","LI":"飯店里","LIN":"2鄰","STREET":" ","SECT":" ","MAREA":"麻油寮","LANE":" ","ALLEY":" ","HOUSE_NO":"３９號","E_COORD97":169430.51999999999,"N_COORD97":2574027.3500000001,"ADDRESS":"麻油寮３９號","OBJECTID":281971},"geometry":{"x":169430.52000000048,"y":2574027.3500000015}},{"attributes":{"ID":281978,"DIS_CODE":0,"TOWNNAME":"鹽水區","LI":"飯店里","LIN":"2鄰","STREET":" ","SECT":" ","MAREA":"麻油寮","LANE":" ","ALLEY":" ","HOUSE_NO":"４０號之１","E_COORD97":169331.53,"N_COORD97":2573861.2799999998,"ADDRESS":"麻油寮４０號之１","OBJECTID":281972},"geometry":{"x":169331.53000000026,"y":2573861.2800000012}},{"attributes":{"ID":281979,"DIS_CODE":0,"TOWNNAME":"鹽水區","LI":"飯店里","LIN":"2鄰","STREET":" ","SECT":" ","MAREA":"麻油寮","LANE":" ","ALLEY":" ","HOUSE_NO":"４０號之２","E_COORD97":169312.72,"N_COORD97":2573869.9100000001,"ADDRESS":"麻油寮４０號之２","OBJECTID":281973},"geometry":{"x":169312.71999999974,"y":2573869.9100000001}},{"attributes":{"ID":281980,"DIS_CODE":0,"TOWNNAME":"鹽水區","LI":"飯店里","LIN":"2鄰","STREET":" ","SECT":" ","MAREA":"麻油寮","LANE":" ","ALLEY":" ","HOUSE_NO":"４０號","E_COORD97":169316.10999999999,"N_COORD97":2573882.3700000001,"ADDRESS":"麻油寮４０號","OBJECTID":281974},"geometry":{"x":169316.11000000034,"y":2573882.3700000029}},{"attributes":{"ID":281981,"DIS_CODE":0,"TOWNNAME":"鹽水區","LI":"水正里","LIN":"2鄰","STREET":" ","SECT":" ","MAREA":"過港","LANE":" ","ALLEY":" ","HOUSE_NO":"３號之１","E_COORD97":175258.26000000001,"N_COORD97":2579882.04,"ADDRESS":"過港３號之１","OBJECTID":281975},"geometry":{"x":175258.26000000164,"y":2579882.0399999991}},{"attributes":{"ID":281982,"DIS_CODE":0,"TOWNNAME":"鹽水區","LI":"水正里","LIN":"2鄰","STREET":" ","SECT":" ","MAREA":"過港","LANE":" ","ALLEY":" ","HOUSE_NO":"４號之３","E_COORD97":175235.67999999999,"N_COORD97":2579939.9399999999,"ADDRESS":"過港４號之３","OBJECTID":281976},"geometry":{"x":175235.68000000063,"y":2579939.9400000013}},{"attributes":{"ID":281983,"DIS_CODE":0,"TOWNNAME":"鹽水區","LI":"水正里","LIN":"2鄰","STREET":" ","SECT":" ","MAREA":"過港","LANE":" ","ALLEY":" ","HOUSE_NO":"４之６號","E_COORD97":175239.20999999999,"N_COORD97":2579952.4199999999,"ADDRESS":"過港４之６號","OBJECTID":281977},"geometry":{"x":175239.21000000089,"y":2579952.4200000037}},{"attributes":{"ID":281984,"DIS_CODE":0,"TOWNNAME":"鹽水區","LI":"水正里","LIN":"2鄰","STREET":" ","SECT":" ","MAREA":"過港","LANE":" ","ALLEY":" ","HOUSE_NO":"５號之１０","E_COORD97":175280.75,"N_COORD97":2579924.8599999999,"ADDRESS":"過港５號之１０","OBJECTID":281978},"geometry":{"x":175280.75000000093,"y":2579924.8599999994}},{"attributes":{"ID":281985,"DIS_CODE":0,"TOWNNAME":"鹽水區","LI":"水正里","LIN":"2鄰","STREET":" ","SECT":" ","MAREA":"過港","LANE":" ","ALLEY":" ","HOUSE_NO":"５號之１１","E_COORD97":175284.85999999999,"N_COORD97":2579924.3799999999,"ADDRESS":"過港５號之１１","OBJECTID":281979},"geometry":{"x":175284.86000000034,"y":2579924.379999999}},{"attributes":{"ID":281986,"DIS_CODE":0,"TOWNNAME":"鹽水區","LI":"水正里","LIN":"2鄰","STREET":" ","SECT":" ","MAREA":"過港","LANE":" ","ALLEY":" ","HOUSE_NO":"５號之１２","E_COORD97":175288.95999999999,"N_COORD97":2579923.8900000001,"ADDRESS":"過港５號之１２","OBJECTID":281980},"geometry":{"x":175288.95999999996,"y":2579923.8900000025}},{"attributes":{"ID":281987,"DIS_CODE":0,"TOWNNAME":"鹽水區","LI":"水正里","LIN":"2鄰","STREET":" ","SECT":" ","MAREA":"過港","LANE":" ","ALLEY":" ","HOUSE_NO":"５號之１３","E_COORD97":175293.06,"N_COORD97":2579923.4100000001,"ADDRESS":"過港５號之１３","OBJECTID":281981},"geometry":{"x":175293.05999999959,"y":2579923.410000002}},{"attributes":{"ID":281988,"DIS_CODE":0,"TOWNNAME":"鹽水區","LI":"舊營里","LIN":"2鄰","STREET":" ","SECT":" ","MAREA":"舊營","LANE":" ","ALLEY":" ","HOUSE_NO":"１０號","E_COORD97":174136.64999999999,"N_COORD97":2577871.46,"ADDRESS":"舊營１０號","OBJECTID":281982},"geometry":{"x":174136.65000000037,"y":2577871.459999999}},{"attributes":{"ID":281989,"DIS_CODE":0,"TOWNNAME":"鹽水區","LI":"舊營里","LIN":"2鄰","STREET":" ","SECT":" ","MAREA":"舊營","LANE":" ","ALLEY":" ","HOUSE_NO":"１１號","E_COORD97":174093.51000000001,"N_COORD97":2577817.1200000001,"ADDRESS":"舊營１１號","OBJECTID":281983},"geometry":{"x":174093.50999999885,"y":2577817.1200000029}},{"attributes":{"ID":281990,"DIS_CODE":0,"TOWNNAME":"鹽水區","LI":"歡雅里","LIN":"2鄰","STREET":" ","SECT":" ","MAREA":"歡雅","LANE":" ","ALLEY":" ","HOUSE_NO":"５４號","E_COORD97":172454.53,"N_COORD97":2576823.6899999999,"ADDRESS":"歡雅５４號","OBJECTID":281984},"geometry":{"x":172454.53000000026,"y":2576823.6899999995}},{"attributes":{"ID":281991,"DIS_CODE":0,"TOWNNAME":"左鎮區","LI":"左鎮里","LIN":"2鄰","STREET":" ","SECT":" ","MAREA":"左鎮","LANE":" ","ALLEY":" ","HOUSE_NO":"１０號之３","E_COORD97":189463.39999999999,"N_COORD97":2549316.2999999998,"ADDRESS":"左鎮１０號之３","OBJECTID":281985},"geometry":{"x":189463.40000000037,"y":2549316.3000000026}},{"attributes":{"ID":281992,"DIS_CODE":0,"TOWNNAME":"安南區","LI":"四草里","LIN":"2鄰","STREET":"大眾六街","SECT":" ","MAREA":" ","LANE":" ","ALLEY":" ","HOUSE_NO":"１２１號","E_COORD97":160420.95328099999,"N_COORD97":2546620.4740599999,"ADDRESS":"大眾六街１２１號","OBJECTID":281986},"geometry":{"x":160420.95328100119,"y":2546620.4740570039}},{"attributes":{"ID":281993,"DIS_CODE":0,"TOWNNAME":"永康區","LI":"成功里","LIN":"33鄰","STREET":"忠孝路","SECT":" ","MAREA":" ","LANE":"２０７巷","ALLEY":" ","HOUSE_NO":"４０號","E_COORD97":171905.04999999999,"N_COORD97":2544920.7200000002,"ADDRESS":"忠孝路２０７巷４０號","OBJECTID":281987},"geometry":{"x":171905.05000000075,"y":2544920.7200000007}},{"attributes":{"ID":281994,"DIS_CODE":0,"TOWNNAME":"永康區","LI":"東灣里","LIN":"33鄰","STREET":"大灣一街","SECT":" ","MAREA":" ","LANE":"３５８巷","ALLEY":" ","HOUSE_NO":"１１號","E_COORD97":175139.56,"N_COORD97":2544761.0499999998,"ADDRESS":"大灣一街３５８巷１１號","OBJECTID":281988},"geometry":{"x":175139.56000000052,"y":2544761.0500000026}},{"attributes":{"ID":281995,"DIS_CODE":0,"TOWNNAME":"永康區","LI":"南灣里","LIN":"33鄰","STREET":"南灣街","SECT":" ","MAREA":" ","LANE":"８７巷","ALLEY":" ","HOUSE_NO":"７號","E_COORD97":174372.17999999999,"N_COORD97":2544894.5,"ADDRESS":"南灣街８７巷７號","OBJECTID":281989},"geometry":{"x":174372.18000000156,"y":2544894.5}},{"attributes":{"ID":281996,"DIS_CODE":0,"TOWNNAME":"永康區","LI":"東灣里","LIN":"33鄰","STREET":"民族路","SECT":" ","MAREA":" ","LANE":"１４５巷","ALLEY":" ","HOUSE_NO":"８１號","E_COORD97":175139.12,"N_COORD97":2544693.9100000001,"ADDRESS":"民族路１４５巷８１號","OBJECTID":281990},"geometry":{"x":175139.12000000197,"y":2544693.910000002}},{"attributes":{"ID":281997,"DIS_CODE":0,"TOWNNAME":"安平區","LI":"漁光里","LIN":"2鄰","STREET":"漁光路","SECT":" ","MAREA":" ","LANE":"８９巷","ALLEY":" ","HOUSE_NO":"１５號之１","E_COORD97":163970.81,"N_COORD97":2541789.8199999998,"ADDRESS":"漁光路８９巷１５號之１","OBJECTID":281991},"geometry":{"x":163970.80999999959,"y":2541789.8200000022}},{"attributes":{"ID":281998,"DIS_CODE":0,"TOWNNAME":"左鎮區","LI":"光和里","LIN":"2鄰","STREET":" ","SECT":" ","MAREA":"光和","LANE":" ","ALLEY":" ","HOUSE_NO":"２６號之１","E_COORD97":186201.57999999999,"N_COORD97":2552166.2999999998,"ADDRESS":"光和２６號之１","OBJECTID":281992},"geometry":{"x":186201.58000000007,"y":2552166.3000000007}},{"attributes":{"ID":281999,"DIS_CODE":0,"TOWNNAME":"左鎮區","LI":"岡林里","LIN":"2鄰","STREET":" ","SECT":" ","MAREA":"岡林","LANE":" ","ALLEY":" ","HOUSE_NO":"２２號","E_COORD97":189582.66,"N_COORD97":2544738.25,"ADDRESS":"岡林２２號","OBJECTID":281993},"geometry":{"x":189582.66000000108,"y":2544738.2500000019}},{"attributes":{"ID":282000,"DIS_CODE":0,"TOWNNAME":"左鎮區","LI":"草山里","LIN":"2鄰","STREET":" ","SECT":" ","MAREA":"草山","LANE":" ","ALLEY":" ","HOUSE_NO":"３０號","E_COORD97":192306.84,"N_COORD97":2544164.25,"ADDRESS":"草山３０號","OBJECTID":281994},"geometry":{"x":192306.84000000078,"y":2544164.25}},{"attributes":{"ID":282001,"DIS_CODE":0,"TOWNNAME":"左鎮區","LI":"光和里","LIN":"2鄰","STREET":" ","SECT":" ","MAREA":"光和","LANE":" ","ALLEY":" ","HOUSE_NO":"１８號","E_COORD97":186424.94,"N_COORD97":2551972.25,"ADDRESS":"光和１８號","OBJECTID":281995},"geometry":{"x":186424.94000000041,"y":2551972.25}},{"attributes":{"ID":282002,"DIS_CODE":0,"TOWNNAME":"左鎮區","LI":"左鎮里","LIN":"2鄰","STREET":" ","SECT":" ","MAREA":"左鎮","LANE":" ","ALLEY":" ","HOUSE_NO":"１３號","E_COORD97":189525.67000000001,"N_COORD97":2549422.25,"ADDRESS":"左鎮１３號","OBJECTID":281996},"geometry":{"x":189525.67000000179,"y":2549422.25}},{"attributes":{"ID":282003,"DIS_CODE":0,"TOWNNAME":"仁德區","LI":"仁義里","LIN":"34鄰","STREET":"正義三街","SECT":" ","MAREA":" ","LANE":" ","ALLEY":" ","HOUSE_NO":"１４０號五樓","E_COORD97":173790.16,"N_COORD97":2541622.0099999998,"ADDRESS":"正義三街１４０號五樓","OBJECTID":281997},"geometry":{"x":173790.16000000108,"y":2541622.0099999998}},{"attributes":{"ID":282004,"DIS_CODE":0,"TOWNNAME":"東區","LI":"大同里","LIN":"33鄰","STREET":"大同路","SECT":"一段","MAREA":" ","LANE":"１７５巷","ALLEY":" ","HOUSE_NO":"８５號","E_COORD97":169373.78,"N_COORD97":2542671.0800000001,"ADDRESS":"大同路一段１７５巷８５號","OBJECTID":281998},"geometry":{"x":169373.78000000026,"y":2542671.0800000038}},{"attributes":{"ID":282005,"DIS_CODE":0,"TOWNNAME":"東區","LI":"大同里","LIN":"33鄰","STREET":"大同路","SECT":"一段","MAREA":" ","LANE":"１７５巷","ALLEY":" ","HOUSE_NO":"８７號","E_COORD97":169375.81,"N_COORD97":2542667.6000000001,"ADDRESS":"大同路一段１７５巷８７號","OBJECTID":281999},"geometry":{"x":169375.81000000052,"y":2542667.6000000015}},{"attributes":{"ID":282006,"DIS_CODE":0,"TOWNNAME":"東區","LI":"大同里","LIN":"33鄰","STREET":"大同路","SECT":"一段","MAREA":" ","LANE":"１７５巷","ALLEY":" ","HOUSE_NO":"８９號","E_COORD97":169378.28,"N_COORD97":2542663.8399999999,"ADDRESS":"大同路一段１７５巷８９號","OBJECTID":282000},"geometry":{"x":169378.28000000119,"y":2542663.8400000017}}]}