{"displayFieldName":"TOWNNAME","fieldAliases":{"ID":"ID","DIS_CODE":"DIS_CODE","TOWNNAME":"TOWNNAME","LI":"LI","LIN":"LIN","STREET":"STREET","SECT":"SECT","MAREA":"MAREA","LANE":"LANE","ALLEY":"ALLEY","HOUSE_NO":"HOUSE_NO","E_COORD97":"E_COORD97","N_COORD97":"N_COORD97","ADDRESS":"ADDRESS","OBJECTID":"OBJECTID"},"geometryType":"esriGeometryPoint","spatialReference":{"wkid":102443,"latestWkid":3826},"fields":[{"name":"ID","type":"esriFieldTypeDouble","alias":"ID"},{"name":"DIS_CODE","type":"esriFieldTypeInteger","alias":"DIS_CODE"},{"name":"TOWNNAME","type":"esriFieldTypeString","alias":"TOWNNAME","length":8},{"name":"LI","type":"esriFieldTypeString","alias":"LI","length":8},{"name":"LIN","type":"esriFieldTypeString","alias":"LIN","length":12},{"name":"STREET","type":"esriFieldTypeString","alias":"STREET","length":20},{"name":"SECT","type":"esriFieldTypeString","alias":"SECT","length":8},{"name":"MAREA","type":"esriFieldTypeString","alias":"MAREA","length":12},{"name":"LANE","type":"esriFieldTypeString","alias":"LANE","length":10},{"name":"ALLEY","type":"esriFieldTypeString","alias":"ALLEY","length":10},{"name":"HOUSE_NO","type":"esriFieldTypeString","alias":"HOUSE_NO","length":20},{"name":"E_COORD97","type":"esriFieldTypeDouble","alias":"E_COORD97"},{"name":"N_COORD97","type":"esriFieldTypeDouble","alias":"N_COORD97"},{"name":"ADDRESS","type":"esriFieldTypeString","alias":"ADDRESS","length":50},{"name":"OBJECTID","type":"esriFieldTypeOID","alias":"OBJECTID"}],"features":[{"attributes":{"ID":222605,"DIS_CODE":0,"TOWNNAME":"東區","LI":"和平里","LIN":"9鄰","STREET":"東門路","SECT":"三段","MAREA":" ","LANE":"３３８巷","ALLEY":" ","HOUSE_NO":"５１號","E_COORD97":171856.84,"N_COORD97":2541419.6699999999,"ADDRESS":"東門路三段３３８巷５１號","OBJECTID":222601},"geometry":{"x":171856.83999999985,"y":2541419.6700000018}},{"attributes":{"ID":222606,"DIS_CODE":0,"TOWNNAME":"北區","LI":"大港里","LIN":"28鄰","STREET":"大興街","SECT":" ","MAREA":" ","LANE":" ","ALLEY":" ","HOUSE_NO":"３８０號","E_COORD97":166270.41,"N_COORD97":2545558.3500000001,"ADDRESS":"大興街３８０號","OBJECTID":222602},"geometry":{"x":166270.41000000108,"y":2545558.3500000015}},{"attributes":{"ID":222607,"DIS_CODE":0,"TOWNNAME":"東區","LI":"和平里","LIN":"9鄰","STREET":"東門路","SECT":"三段","MAREA":" ","LANE":"３３８巷","ALLEY":" ","HOUSE_NO":"５２號","E_COORD97":171856.84,"N_COORD97":2541413.2000000002,"ADDRESS":"東門路三段３３８巷５２號","OBJECTID":222603},"geometry":{"x":171856.83999999985,"y":2541413.2000000011}},{"attributes":{"ID":222608,"DIS_CODE":0,"TOWNNAME":"東區","LI":"和平里","LIN":"9鄰","STREET":"東門路","SECT":"三段","MAREA":" ","LANE":"３３８巷","ALLEY":" ","HOUSE_NO":"５３號","E_COORD97":171856.39000000001,"N_COORD97":2541406.96,"ADDRESS":"東門路三段３３８巷５３號","OBJECTID":222604},"geometry":{"x":171856.38999999966,"y":2541406.9600000009}},{"attributes":{"ID":222609,"DIS_CODE":0,"TOWNNAME":"東區","LI":"和平里","LIN":"9鄰","STREET":"東門路","SECT":"三段","MAREA":" ","LANE":"３３８巷","ALLEY":" ","HOUSE_NO":"５４號","E_COORD97":171856.60999999999,"N_COORD97":2541400.04,"ADDRESS":"東門路三段３３８巷５４號","OBJECTID":222605},"geometry":{"x":171856.61000000127,"y":2541400.040000001}},{"attributes":{"ID":222610,"DIS_CODE":0,"TOWNNAME":"東區","LI":"富強里","LIN":"9鄰","STREET":"裕農路","SECT":" ","MAREA":" ","LANE":"４４６巷","ALLEY":" ","HOUSE_NO":"１０２號","E_COORD97":171242.85999999999,"N_COORD97":2542872.6600000001,"ADDRESS":"裕農路４４６巷１０２號","OBJECTID":222606},"geometry":{"x":171242.86000000127,"y":2542872.6600000001}},{"attributes":{"ID":222611,"DIS_CODE":0,"TOWNNAME":"東區","LI":"富強里","LIN":"9鄰","STREET":"裕農路","SECT":" ","MAREA":" ","LANE":"４４６巷","ALLEY":" ","HOUSE_NO":"１０４號","E_COORD97":171242.92999999999,"N_COORD97":2542867.9700000002,"ADDRESS":"裕農路４４６巷１０４號","OBJECTID":222607},"geometry":{"x":171242.93000000063,"y":2542867.9700000007}},{"attributes":{"ID":222612,"DIS_CODE":0,"TOWNNAME":"東區","LI":"富強里","LIN":"9鄰","STREET":"裕農路","SECT":" ","MAREA":" ","LANE":"４４６巷","ALLEY":" ","HOUSE_NO":"９４號","E_COORD97":171241.62,"N_COORD97":2542889.9300000002,"ADDRESS":"裕農路４４６巷９４號","OBJECTID":222608},"geometry":{"x":171241.62000000011,"y":2542889.9300000016}},{"attributes":{"ID":222613,"DIS_CODE":0,"TOWNNAME":"東區","LI":"富強里","LIN":"9鄰","STREET":"裕農路","SECT":" ","MAREA":" ","LANE":"４４６巷","ALLEY":" ","HOUSE_NO":"９６號","E_COORD97":171242.26999999999,"N_COORD97":2542885.3100000001,"ADDRESS":"裕農路４４６巷９６號","OBJECTID":222609},"geometry":{"x":171242.27000000048,"y":2542885.3100000005}},{"attributes":{"ID":222614,"DIS_CODE":0,"TOWNNAME":"東區","LI":"富強里","LIN":"9鄰","STREET":"裕農路","SECT":" ","MAREA":" ","LANE":"４４６巷","ALLEY":" ","HOUSE_NO":"９８號","E_COORD97":171242.53,"N_COORD97":2542881.1099999999,"ADDRESS":"裕農路４４６巷９８號","OBJECTID":222610},"geometry":{"x":171242.53000000026,"y":2542881.1100000013}},{"attributes":{"ID":222615,"DIS_CODE":0,"TOWNNAME":"東區","LI":"龍山里","LIN":"9鄰","STREET":"東門路","SECT":"二段","MAREA":" ","LANE":"１３４巷","ALLEY":" ","HOUSE_NO":"１０號","E_COORD97":170088.57000000001,"N_COORD97":2542907.6899999999,"ADDRESS":"東門路二段１３４巷１０號","OBJECTID":222611},"geometry":{"x":170088.57000000123,"y":2542907.6900000013}},{"attributes":{"ID":222616,"DIS_CODE":0,"TOWNNAME":"東區","LI":"龍山里","LIN":"9鄰","STREET":"東門路","SECT":"二段","MAREA":" ","LANE":"１３４巷","ALLEY":" ","HOUSE_NO":"１１號","E_COORD97":170130.59,"N_COORD97":2542891.7999999998,"ADDRESS":"東門路二段１３４巷１１號","OBJECTID":222612},"geometry":{"x":170130.59000000078,"y":2542891.8000000026}},{"attributes":{"ID":222617,"DIS_CODE":0,"TOWNNAME":"北區","LI":"大豐里","LIN":"28鄰","STREET":"文賢路","SECT":" ","MAREA":" ","LANE":"３１３巷","ALLEY":" ","HOUSE_NO":"３６號","E_COORD97":167214.04999999999,"N_COORD97":2545266.0699999998,"ADDRESS":"文賢路３１３巷３６號","OBJECTID":222613},"geometry":{"x":167214.04999999981,"y":2545266.0700000022}},{"attributes":{"ID":222618,"DIS_CODE":0,"TOWNNAME":"中西區","LI":"光賢里","LIN":"1鄰","STREET":"武聖路","SECT":" ","MAREA":" ","LANE":" ","ALLEY":" ","HOUSE_NO":"７號","E_COORD97":167297.42999999999,"N_COORD97":2545083.7799999998,"ADDRESS":"武聖路７號","OBJECTID":222614},"geometry":{"x":167297.4299999997,"y":2545083.7800000012}},{"attributes":{"ID":222619,"DIS_CODE":0,"TOWNNAME":"關廟區","LI":"香洋里","LIN":"28鄰","STREET":"大仁街","SECT":" ","MAREA":" ","LANE":" ","ALLEY":" ","HOUSE_NO":"４２１號","E_COORD97":180994.26999999999,"N_COORD97":2539819.25,"ADDRESS":"大仁街４２１號","OBJECTID":222615},"geometry":{"x":180994.26999999955,"y":2539819.2500000019}},{"attributes":{"ID":222620,"DIS_CODE":0,"TOWNNAME":"關廟區","LI":"香洋里","LIN":"28鄰","STREET":"大富街","SECT":" ","MAREA":" ","LANE":" ","ALLEY":" ","HOUSE_NO":"３４６號","E_COORD97":181008.76999999999,"N_COORD97":2539827.25,"ADDRESS":"大富街３４６號","OBJECTID":222616},"geometry":{"x":181008.77000000048,"y":2539827.25}},{"attributes":{"ID":222621,"DIS_CODE":0,"TOWNNAME":"關廟區","LI":"香洋里","LIN":"28鄰","STREET":"大富街","SECT":" ","MAREA":" ","LANE":" ","ALLEY":" ","HOUSE_NO":"３４１號","E_COORD97":180981.57000000001,"N_COORD97":2539853.25,"ADDRESS":"大富街３４１號","OBJECTID":222617},"geometry":{"x":180981.57000000123,"y":2539853.2500000019}},{"attributes":{"ID":222622,"DIS_CODE":0,"TOWNNAME":"關廟區","LI":"香洋里","LIN":"28鄰","STREET":"大仁街","SECT":" ","MAREA":" ","LANE":" ","ALLEY":" ","HOUSE_NO":"３９９號","E_COORD97":180955.07000000001,"N_COORD97":2539793.25,"ADDRESS":"大仁街３９９號","OBJECTID":222618},"geometry":{"x":180955.0700000003,"y":2539793.25}},{"attributes":{"ID":222623,"DIS_CODE":0,"TOWNNAME":"東區","LI":"東光里","LIN":"4鄰","STREET":"東興路","SECT":" ","MAREA":" ","LANE":" ","ALLEY":" ","HOUSE_NO":"３０號","E_COORD97":170938.04999999999,"N_COORD97":2543471.8300000001,"ADDRESS":"東興路３０號","OBJECTID":222619},"geometry":{"x":170938.04999999981,"y":2543471.8300000001}},{"attributes":{"ID":222624,"DIS_CODE":0,"TOWNNAME":"東區","LI":"東光里","LIN":"4鄰","STREET":"東興路","SECT":" ","MAREA":" ","LANE":" ","ALLEY":" ","HOUSE_NO":"３２號","E_COORD97":170939.57000000001,"N_COORD97":2543477.6600000001,"ADDRESS":"東興路３２號","OBJECTID":222620},"geometry":{"x":170939.57000000123,"y":2543477.6600000039}},{"attributes":{"ID":222625,"DIS_CODE":0,"TOWNNAME":"東區","LI":"東光里","LIN":"4鄰","STREET":"東興路","SECT":" ","MAREA":" ","LANE":" ","ALLEY":" ","HOUSE_NO":"３４號","E_COORD97":170944.64000000001,"N_COORD97":2543486.3999999999,"ADDRESS":"東興路３４號","OBJECTID":222621},"geometry":{"x":170944.64000000153,"y":2543486.4000000041}},{"attributes":{"ID":222626,"DIS_CODE":0,"TOWNNAME":"東區","LI":"衛國里","LIN":"20鄰","STREET":"林森路","SECT":"二段","MAREA":" ","LANE":" ","ALLEY":" ","HOUSE_NO":"１３０號","E_COORD97":170429.06,"N_COORD97":2543198.1600000001,"ADDRESS":"林森路二段１３０號","OBJECTID":222622},"geometry":{"x":170429.05999999959,"y":2543198.1600000001}},{"attributes":{"ID":222627,"DIS_CODE":0,"TOWNNAME":"東區","LI":"衛國里","LIN":"20鄰","STREET":"林森路","SECT":"二段","MAREA":" ","LANE":" ","ALLEY":" ","HOUSE_NO":"１３４號","E_COORD97":170406.04000000001,"N_COORD97":2543190.7799999998,"ADDRESS":"林森路二段１３４號","OBJECTID":222623},"geometry":{"x":170406.04000000004,"y":2543190.7799999975}},{"attributes":{"ID":222628,"DIS_CODE":0,"TOWNNAME":"東區","LI":"龍山里","LIN":"9鄰","STREET":"東門路","SECT":"二段","MAREA":" ","LANE":"１３４巷","ALLEY":" ","HOUSE_NO":"１３號","E_COORD97":170130.41,"N_COORD97":2542888.1899999999,"ADDRESS":"東門路二段１３４巷１３號","OBJECTID":222624},"geometry":{"x":170130.41000000108,"y":2542888.1900000013}},{"attributes":{"ID":222629,"DIS_CODE":0,"TOWNNAME":"東區","LI":"龍山里","LIN":"9鄰","STREET":"東門路","SECT":"二段","MAREA":" ","LANE":"１３４巷","ALLEY":" ","HOUSE_NO":"１４號","E_COORD97":170082.89999999999,"N_COORD97":2542907.6899999999,"ADDRESS":"東門路二段１３４巷１４號","OBJECTID":222625},"geometry":{"x":170082.9000000013,"y":2542907.6900000013}},{"attributes":{"ID":222630,"DIS_CODE":0,"TOWNNAME":"東區","LI":"龍山里","LIN":"9鄰","STREET":"東門路","SECT":"二段","MAREA":" ","LANE":"１３４巷","ALLEY":" ","HOUSE_NO":"１５號","E_COORD97":170126.79999999999,"N_COORD97":2542885.79,"ADDRESS":"東門路二段１３４巷１５號","OBJECTID":222626},"geometry":{"x":170126.80000000075,"y":2542885.7900000028}},{"attributes":{"ID":222631,"DIS_CODE":0,"TOWNNAME":"東區","LI":"龍山里","LIN":"9鄰","STREET":"東門路","SECT":"二段","MAREA":" ","LANE":"１３４巷","ALLEY":" ","HOUSE_NO":"１６號","E_COORD97":170079.12,"N_COORD97":2542909.3999999999,"ADDRESS":"東門路二段１３４巷１６號","OBJECTID":222627},"geometry":{"x":170079.12000000197,"y":2542909.4000000004}},{"attributes":{"ID":222632,"DIS_CODE":0,"TOWNNAME":"永康區","LI":"蔦松里","LIN":"9鄰","STREET":"正北三路","SECT":" ","MAREA":" ","LANE":"９１巷","ALLEY":" ","HOUSE_NO":"１１號","E_COORD97":174408.97,"N_COORD97":2549882.4900000002,"ADDRESS":"正北三路９１巷１１號","OBJECTID":222628},"geometry":{"x":174408.96999999974,"y":2549882.4900000002}},{"attributes":{"ID":222633,"DIS_CODE":0,"TOWNNAME":"永康區","LI":"烏竹里","LIN":"9鄰","STREET":"龍橋街","SECT":" ","MAREA":" ","LANE":"３５０巷","ALLEY":" ","HOUSE_NO":"３號","E_COORD97":174515.73000000001,"N_COORD97":2549106.1200000001,"ADDRESS":"龍橋街３５０巷３號","OBJECTID":222629},"geometry":{"x":174515.73000000138,"y":2549106.120000001}},{"attributes":{"ID":222634,"DIS_CODE":0,"TOWNNAME":"永康區","LI":"復國里","LIN":"9鄰","STREET":"復國一路","SECT":" ","MAREA":" ","LANE":"２１０巷","ALLEY":" ","HOUSE_NO":"２１號","E_COORD97":172777.85000000001,"N_COORD97":2545249.02,"ADDRESS":"復國一路２１０巷２１號","OBJECTID":222630},"geometry":{"x":172777.85000000056,"y":2545249.0200000014}},{"attributes":{"ID":222635,"DIS_CODE":0,"TOWNNAME":"永康區","LI":"\u25A0行里","LIN":"9鄰","STREET":"中正路","SECT":" ","MAREA":" ","LANE":"３３７巷","ALLEY":" ","HOUSE_NO":"１７號","E_COORD97":172484.12,"N_COORD97":2548261.7400000002,"ADDRESS":"中正路３３７巷１７號","OBJECTID":222631},"geometry":{"x":172484.12000000011,"y":2548261.7400000021}},{"attributes":{"ID":222636,"DIS_CODE":0,"TOWNNAME":"新市區","LI":"永就里","LIN":"9鄰","STREET":"中山路","SECT":" ","MAREA":" ","LANE":"１９５巷","ALLEY":" ","HOUSE_NO":"２３號","E_COORD97":177667.79000000001,"N_COORD97":2551988.5,"ADDRESS":"中山路１９５巷２３號","OBJECTID":222632},"geometry":{"x":177667.79000000097,"y":2551988.5000000037}},{"attributes":{"ID":222637,"DIS_CODE":0,"TOWNNAME":"永康區","LI":"蔦松里","LIN":"9鄰","STREET":"正北三路","SECT":" ","MAREA":" ","LANE":"９１巷","ALLEY":" ","HOUSE_NO":"１６號","E_COORD97":174387.34,"N_COORD97":2549890.4900000002,"ADDRESS":"正北三路９１巷１６號","OBJECTID":222633},"geometry":{"x":174387.33999999985,"y":2549890.4900000021}},{"attributes":{"ID":222638,"DIS_CODE":0,"TOWNNAME":"永康區","LI":"復國里","LIN":"9鄰","STREET":"復國一路","SECT":" ","MAREA":" ","LANE":"２１０巷","ALLEY":" ","HOUSE_NO":"７號","E_COORD97":172765.37,"N_COORD97":2545217.0600000001,"ADDRESS":"復國一路２１０巷７號","OBJECTID":222634},"geometry":{"x":172765.37000000011,"y":2545217.0600000005}},{"attributes":{"ID":222639,"DIS_CODE":0,"TOWNNAME":"東區","LI":"衛國里","LIN":"20鄰","STREET":"林森路","SECT":"二段","MAREA":" ","LANE":" ","ALLEY":" ","HOUSE_NO":"１４０號","E_COORD97":170414.29000000001,"N_COORD97":2543208.6099999999,"ADDRESS":"林森路二段１４０號","OBJECTID":222635},"geometry":{"x":170414.29000000004,"y":2543208.6099999994}},{"attributes":{"ID":222640,"DIS_CODE":0,"TOWNNAME":"東區","LI":"衛國里","LIN":"20鄰","STREET":"林森路","SECT":"二段","MAREA":" ","LANE":" ","ALLEY":" ","HOUSE_NO":"１４８號","E_COORD97":170423.69,"N_COORD97":2543227,"ADDRESS":"林森路二段１４８號","OBJECTID":222636},"geometry":{"x":170423.69000000134,"y":2543227}},{"attributes":{"ID":222641,"DIS_CODE":0,"TOWNNAME":"新營區","LI":"嘉芳里","LIN":"14鄰","STREET":"新工路","SECT":" ","MAREA":" ","LANE":" ","ALLEY":" ","HOUSE_NO":"５號","E_COORD97":176553.04999999999,"N_COORD97":2578664.71,"ADDRESS":"新工路５號","OBJECTID":222637},"geometry":{"x":176553.05000000168,"y":2578664.7100000028}},{"attributes":{"ID":222642,"DIS_CODE":0,"TOWNNAME":"東區","LI":"衛國里","LIN":"20鄰","STREET":"林森路","SECT":"二段","MAREA":" ","LANE":" ","ALLEY":" ","HOUSE_NO":"１５４號","E_COORD97":170428.48000000001,"N_COORD97":2543239.0800000001,"ADDRESS":"林森路二段１５４號","OBJECTID":222638},"geometry":{"x":170428.48000000138,"y":2543239.0800000001}},{"attributes":{"ID":222643,"DIS_CODE":0,"TOWNNAME":"東區","LI":"裕農里","LIN":"9鄰","STREET":"裕農路","SECT":" ","MAREA":" ","LANE":"３８９巷","ALLEY":" ","HOUSE_NO":"２號","E_COORD97":171155.56,"N_COORD97":2543202.1200000001,"ADDRESS":"裕農路３８９巷２號","OBJECTID":222639},"geometry":{"x":171155.56000000052,"y":2543202.1200000029}},{"attributes":{"ID":222644,"DIS_CODE":0,"TOWNNAME":"永康區","LI":"蔦松里","LIN":"9鄰","STREET":"正北三路","SECT":" ","MAREA":" ","LANE":"１１３巷","ALLEY":" ","HOUSE_NO":"９號","E_COORD97":174345.92999999999,"N_COORD97":2549971,"ADDRESS":"正北三路１１３巷９號","OBJECTID":222640},"geometry":{"x":174345.9299999997,"y":2549971.0000000037}},{"attributes":{"ID":222645,"DIS_CODE":0,"TOWNNAME":"永康區","LI":"\u25A0行里","LIN":"9鄰","STREET":"中正路","SECT":" ","MAREA":" ","LANE":"３３７巷","ALLEY":" ","HOUSE_NO":"８號","E_COORD97":172501,"N_COORD97":2548315.3199999998,"ADDRESS":"中正路３３７巷８號","OBJECTID":222641},"geometry":{"x":172501.00000000093,"y":2548315.3200000022}},{"attributes":{"ID":222646,"DIS_CODE":0,"TOWNNAME":"永康區","LI":"\u25A0行里","LIN":"9鄰","STREET":"中正路","SECT":" ","MAREA":" ","LANE":"３３７巷","ALLEY":" ","HOUSE_NO":"１號","E_COORD97":172512.89999999999,"N_COORD97":2548318,"ADDRESS":"中正路３３７巷１號","OBJECTID":222642},"geometry":{"x":172512.90000000037,"y":2548318.0000000019}},{"attributes":{"ID":222647,"DIS_CODE":0,"TOWNNAME":"永康區","LI":"永康里","LIN":"37鄰","STREET":"西勢路","SECT":" ","MAREA":" ","LANE":"７３８巷","ALLEY":" ","HOUSE_NO":"２５號","E_COORD97":174527.38,"N_COORD97":2546820.6800000002,"ADDRESS":"西勢路７３８巷２５號","OBJECTID":222643},"geometry":{"x":174527.38000000082,"y":2546820.6800000016}},{"attributes":{"ID":222648,"DIS_CODE":0,"TOWNNAME":"仁德區","LI":"後壁里","LIN":"37鄰","STREET":"德洋一街","SECT":" ","MAREA":" ","LANE":"８５巷","ALLEY":" ","HOUSE_NO":"３號","E_COORD97":173162.20999999999,"N_COORD97":2539273.02,"ADDRESS":"德洋一街８５巷３號","OBJECTID":222644},"geometry":{"x":173162.21000000089,"y":2539273.0199999996}},{"attributes":{"ID":222649,"DIS_CODE":0,"TOWNNAME":"永康區","LI":"復華里","LIN":"37鄰","STREET":"復華七街","SECT":" ","MAREA":" ","LANE":"３２巷","ALLEY":" ","HOUSE_NO":"３１號","E_COORD97":172726.48999999999,"N_COORD97":2545946.02,"ADDRESS":"復華七街３２巷３１號","OBJECTID":222645},"geometry":{"x":172726.49000000115,"y":2545946.0200000033}},{"attributes":{"ID":222650,"DIS_CODE":0,"TOWNNAME":"永康區","LI":"五王里","LIN":"37鄰","STREET":"中華路","SECT":" ","MAREA":" ","LANE":"５７８巷","ALLEY":" ","HOUSE_NO":"１５號之１０","E_COORD97":171276,"N_COORD97":2545965.79,"ADDRESS":"中華路５７８巷１５號之１０","OBJECTID":222646},"geometry":{"x":171276,"y":2545965.7899999991}},{"attributes":{"ID":222651,"DIS_CODE":0,"TOWNNAME":"仁德區","LI":"太子里","LIN":"37鄰","STREET":"長興一街","SECT":" ","MAREA":" ","LANE":"１７巷","ALLEY":" ","HOUSE_NO":"２號","E_COORD97":174623.12,"N_COORD97":2543805.75,"ADDRESS":"長興一街１７巷２號","OBJECTID":222647},"geometry":{"x":174623.12000000011,"y":2543805.7500000037}},{"attributes":{"ID":222652,"DIS_CODE":0,"TOWNNAME":"仁德區","LI":"太子里","LIN":"37鄰","STREET":"長興一街","SECT":" ","MAREA":" ","LANE":"４０巷","ALLEY":" ","HOUSE_NO":"３號","E_COORD97":174580.32000000001,"N_COORD97":2543856.2599999998,"ADDRESS":"長興一街４０巷３號","OBJECTID":222648},"geometry":{"x":174580.32000000216,"y":2543856.2600000035}},{"attributes":{"ID":222653,"DIS_CODE":0,"TOWNNAME":"仁德區","LI":"太子里","LIN":"37鄰","STREET":"長興一街","SECT":" ","MAREA":" ","LANE":"４０巷","ALLEY":" ","HOUSE_NO":"６號","E_COORD97":174592,"N_COORD97":2543888.5,"ADDRESS":"長興一街４０巷６號","OBJECTID":222649},"geometry":{"x":174592,"y":2543888.5000000037}},{"attributes":{"ID":222654,"DIS_CODE":0,"TOWNNAME":"仁德區","LI":"太子里","LIN":"37鄰","STREET":"長興一街","SECT":" ","MAREA":" ","LANE":"４０巷","ALLEY":" ","HOUSE_NO":"３４號","E_COORD97":174482.64999999999,"N_COORD97":2543901.5,"ADDRESS":"長興一街４０巷３４號","OBJECTID":222650},"geometry":{"x":174482.65000000037,"y":2543901.5}},{"attributes":{"ID":222655,"DIS_CODE":0,"TOWNNAME":"中西區","LI":"三民里","LIN":"19鄰","STREET":"忠義路","SECT":"二段","MAREA":" ","LANE":"１５８巷","ALLEY":" ","HOUSE_NO":"４６號","E_COORD97":168472.92000000001,"N_COORD97":2544006.5899999999,"ADDRESS":"忠義路二段１５８巷４６號","OBJECTID":222651},"geometry":{"x":168472.91999999993,"y":2544006.5900000036}},{"attributes":{"ID":222656,"DIS_CODE":0,"TOWNNAME":"仁德區","LI":"後壁里","LIN":"37鄰","STREET":"德洋一街","SECT":" ","MAREA":" ","LANE":"８５巷","ALLEY":" ","HOUSE_NO":"５號","E_COORD97":173158.17999999999,"N_COORD97":2539275.52,"ADDRESS":"德洋一街８５巷５號","OBJECTID":222652},"geometry":{"x":173158.1799999997,"y":2539275.5199999996}},{"attributes":{"ID":222657,"DIS_CODE":0,"TOWNNAME":"新市區","LI":"新和里","LIN":"37鄰","STREET":"仁愛街","SECT":" ","MAREA":" ","LANE":"２４１巷","ALLEY":" ","HOUSE_NO":"２１號","E_COORD97":177558.03,"N_COORD97":2552908.7799999998,"ADDRESS":"仁愛街２４１巷２１號","OBJECTID":222653},"geometry":{"x":177558.03000000119,"y":2552908.7800000012}},{"attributes":{"ID":222658,"DIS_CODE":0,"TOWNNAME":"新市區","LI":"新和里","LIN":"37鄰","STREET":"仁愛街","SECT":" ","MAREA":" ","LANE":"２４１巷","ALLEY":" ","HOUSE_NO":"３５號","E_COORD97":177507.69,"N_COORD97":2552898.0299999998,"ADDRESS":"仁愛街２４１巷３５號","OBJECTID":222654},"geometry":{"x":177507.69000000134,"y":2552898.0299999993}},{"attributes":{"ID":222659,"DIS_CODE":0,"TOWNNAME":"新市區","LI":"新和里","LIN":"37鄰","STREET":"仁愛街","SECT":" ","MAREA":" ","LANE":"２４１巷","ALLEY":" ","HOUSE_NO":"３９號","E_COORD97":177500.87,"N_COORD97":2552877.0299999998,"ADDRESS":"仁愛街２４１巷３９號","OBJECTID":222655},"geometry":{"x":177500.87000000104,"y":2552877.0300000012}},{"attributes":{"ID":222660,"DIS_CODE":0,"TOWNNAME":"永康區","LI":"北灣里","LIN":"37鄰","STREET":"大同街","SECT":" ","MAREA":" ","LANE":"６０６巷","ALLEY":" ","HOUSE_NO":"６號","E_COORD97":174739.72,"N_COORD97":2546197.6000000001,"ADDRESS":"大同街６０６巷６號","OBJECTID":222656},"geometry":{"x":174739.7200000016,"y":2546197.6000000015}},{"attributes":{"ID":222661,"DIS_CODE":0,"TOWNNAME":"永康區","LI":"北灣里","LIN":"37鄰","STREET":"大同街","SECT":" ","MAREA":" ","LANE":"３８０巷","ALLEY":" ","HOUSE_NO":"３６號","E_COORD97":174824.54000000001,"N_COORD97":2546028.6400000001,"ADDRESS":"大同街３８０巷３６號","OBJECTID":222657},"geometry":{"x":174824.54000000097,"y":2546028.6400000025}},{"attributes":{"ID":222662,"DIS_CODE":0,"TOWNNAME":"永康區","LI":"北灣里","LIN":"37鄰","STREET":"大同街","SECT":" ","MAREA":" ","LANE":"３２０巷","ALLEY":" ","HOUSE_NO":"１號","E_COORD97":174804.82000000001,"N_COORD97":2545964.5499999998,"ADDRESS":"大同街３２０巷１號","OBJECTID":222658},"geometry":{"x":174804.82000000123,"y":2545964.5500000026}},{"attributes":{"ID":222663,"DIS_CODE":0,"TOWNNAME":"永康區","LI":"北灣里","LIN":"37鄰","STREET":"大同街","SECT":" ","MAREA":" ","LANE":"３１５巷","ALLEY":" ","HOUSE_NO":"１０號","E_COORD97":174709.95999999999,"N_COORD97":2546023.9700000002,"ADDRESS":"大同街３１５巷１０號","OBJECTID":222659},"geometry":{"x":174709.96000000089,"y":2546023.9700000007}},{"attributes":{"ID":222664,"DIS_CODE":0,"TOWNNAME":"永康區","LI":"北灣里","LIN":"37鄰","STREET":"大同街","SECT":" ","MAREA":" ","LANE":"３２０巷","ALLEY":" ","HOUSE_NO":"３２號","E_COORD97":174825.01000000001,"N_COORD97":2545989.77,"ADDRESS":"大同街３２０巷３２號","OBJECTID":222660},"geometry":{"x":174825.01000000071,"y":2545989.7700000014}},{"attributes":{"ID":222665,"DIS_CODE":0,"TOWNNAME":"永康區","LI":"北灣里","LIN":"37鄰","STREET":"大同街","SECT":" ","MAREA":" ","LANE":"３１５巷","ALLEY":" ","HOUSE_NO":"２２號","E_COORD97":174664.73000000001,"N_COORD97":2546052.9900000002,"ADDRESS":"大同街３１５巷２２號","OBJECTID":222661},"geometry":{"x":174664.73000000138,"y":2546052.9900000021}},{"attributes":{"ID":222666,"DIS_CODE":0,"TOWNNAME":"永康區","LI":"北灣里","LIN":"37鄰","STREET":"大同街","SECT":" ","MAREA":" ","LANE":"３１５巷","ALLEY":" ","HOUSE_NO":"８號","E_COORD97":174719.31,"N_COORD97":2546025.1699999999,"ADDRESS":"大同街３１５巷８號","OBJECTID":222662},"geometry":{"x":174719.31000000052,"y":2546025.1699999999}},{"attributes":{"ID":222667,"DIS_CODE":0,"TOWNNAME":"中西區","LI":"光賢里","LIN":"1鄰","STREET":"武聖路","SECT":" ","MAREA":" ","LANE":" ","ALLEY":" ","HOUSE_NO":"９號","E_COORD97":167292.76999999999,"N_COORD97":2545083.5699999998,"ADDRESS":"武聖路９號","OBJECTID":222663},"geometry":{"x":167292.77000000048,"y":2545083.5700000022}},{"attributes":{"ID":222668,"DIS_CODE":0,"TOWNNAME":"中西區","LI":"藥王里","LIN":"1鄰","STREET":"金華路","SECT":"四段","MAREA":" ","LANE":" ","ALLEY":" ","HOUSE_NO":"２１號","E_COORD97":167421.23999999999,"N_COORD97":2544274.2200000002,"ADDRESS":"金華路四段２１號","OBJECTID":222664},"geometry":{"x":167421.24000000022,"y":2544274.2200000044}},{"attributes":{"ID":222669,"DIS_CODE":0,"TOWNNAME":"中西區","LI":"藥王里","LIN":"1鄰","STREET":"金華路","SECT":"四段","MAREA":" ","LANE":" ","ALLEY":" ","HOUSE_NO":"２３號","E_COORD97":167422.69,"N_COORD97":2544276.6299999999,"ADDRESS":"金華路四段２３號","OBJECTID":222665},"geometry":{"x":167422.69000000134,"y":2544276.6300000027}},{"attributes":{"ID":222670,"DIS_CODE":0,"TOWNNAME":"新營區","LI":"新南里","LIN":"28鄰","STREET":"明清二街","SECT":" ","MAREA":" ","LANE":" ","ALLEY":" ","HOUSE_NO":"１５８號","E_COORD97":178318.14000000001,"N_COORD97":2578712.5499999998,"ADDRESS":"明清二街１５８號","OBJECTID":222666},"geometry":{"x":178318.13999999966,"y":2578712.5500000026}},{"attributes":{"ID":222671,"DIS_CODE":0,"TOWNNAME":"新化區","LI":"東榮里","LIN":"28鄰","STREET":"中興路","SECT":" ","MAREA":" ","LANE":" ","ALLEY":" ","HOUSE_NO":"８０５號","E_COORD97":179201.01000000001,"N_COORD97":2548256.25,"ADDRESS":"中興路８０５號","OBJECTID":222667},"geometry":{"x":179201.00999999978,"y":2548256.25}},{"attributes":{"ID":222672,"DIS_CODE":0,"TOWNNAME":"歸仁區","LI":"六甲里","LIN":"28鄰","STREET":"六甲二街","SECT":" ","MAREA":" ","LANE":" ","ALLEY":" ","HOUSE_NO":"４６號","E_COORD97":175851.26999999999,"N_COORD97":2539291.25,"ADDRESS":"六甲二街４６號","OBJECTID":222668},"geometry":{"x":175851.27000000142,"y":2539291.2500000019}},{"attributes":{"ID":222673,"DIS_CODE":0,"TOWNNAME":"永康區","LI":"五王里","LIN":"37鄰","STREET":"中華路","SECT":" ","MAREA":" ","LANE":"５７８巷","ALLEY":" ","HOUSE_NO":"１５號之１２","E_COORD97":171276.07999999999,"N_COORD97":2545965.79,"ADDRESS":"中華路５７８巷１５號之１２","OBJECTID":222669},"geometry":{"x":171276.08000000194,"y":2545965.7899999991}},{"attributes":{"ID":222674,"DIS_CODE":0,"TOWNNAME":"永康區","LI":"北灣里","LIN":"37鄰","STREET":"大同街","SECT":" ","MAREA":" ","LANE":"６０６巷","ALLEY":" ","HOUSE_NO":"８號","E_COORD97":174743.32999999999,"N_COORD97":2546201.1000000001,"ADDRESS":"大同街６０６巷８號","OBJECTID":222670},"geometry":{"x":174743.33000000101,"y":2546201.1000000015}},{"attributes":{"ID":222675,"DIS_CODE":0,"TOWNNAME":"永康區","LI":"北灣里","LIN":"37鄰","STREET":"大同街","SECT":" ","MAREA":" ","LANE":"６０６巷","ALLEY":" ","HOUSE_NO":"２號","E_COORD97":174739.42000000001,"N_COORD97":2546192.3399999999,"ADDRESS":"大同街６０６巷２號","OBJECTID":222671},"geometry":{"x":174739.41999999993,"y":2546192.3400000017}},{"attributes":{"ID":222676,"DIS_CODE":0,"TOWNNAME":"永康區","LI":"北灣里","LIN":"37鄰","STREET":"大同街","SECT":" ","MAREA":" ","LANE":"６０６巷","ALLEY":" ","HOUSE_NO":"１２號","E_COORD97":174751.38,"N_COORD97":2546208.1000000001,"ADDRESS":"大同街６０６巷１２號","OBJECTID":222672},"geometry":{"x":174751.38000000082,"y":2546208.1000000015}},{"attributes":{"ID":222677,"DIS_CODE":0,"TOWNNAME":"永康區","LI":"北灣里","LIN":"37鄰","STREET":"大同街","SECT":" ","MAREA":" ","LANE":"６０６巷","ALLEY":" ","HOUSE_NO":"１６號","E_COORD97":174754.39999999999,"N_COORD97":2546211.8500000001,"ADDRESS":"大同街６０６巷１６號","OBJECTID":222673},"geometry":{"x":174754.40000000224,"y":2546211.8500000034}},{"attributes":{"ID":222678,"DIS_CODE":0,"TOWNNAME":"新市區","LI":"新和里","LIN":"37鄰","STREET":"仁愛街","SECT":" ","MAREA":" ","LANE":"２４１巷","ALLEY":" ","HOUSE_NO":"１３號","E_COORD97":177575.59,"N_COORD97":2552911.2799999998,"ADDRESS":"仁愛街２４１巷１３號","OBJECTID":222674},"geometry":{"x":177575.59000000078,"y":2552911.2800000031}},{"attributes":{"ID":222679,"DIS_CODE":0,"TOWNNAME":"永康區","LI":"北灣里","LIN":"37鄰","STREET":"大同街","SECT":" ","MAREA":" ","LANE":"３２０巷","ALLEY":" ","HOUSE_NO":"１６號","E_COORD97":174806.13,"N_COORD97":2545949.7000000002,"ADDRESS":"大同街３２０巷１６號","OBJECTID":222675},"geometry":{"x":174806.12999999989,"y":2545949.6999999993}},{"attributes":{"ID":222680,"DIS_CODE":0,"TOWNNAME":"永康區","LI":"\u25A0洲里","LIN":"37鄰","STREET":"\u25A0洲二街","SECT":" ","MAREA":" ","LANE":"１９７巷","ALLEY":" ","HOUSE_NO":"１２號","E_COORD97":171742.25,"N_COORD97":2549475.4900000002,"ADDRESS":"\u25A0洲二街１９７巷１２號","OBJECTID":222676},"geometry":{"x":171742.25,"y":2549475.4900000002}},{"attributes":{"ID":222681,"DIS_CODE":0,"TOWNNAME":"永康區","LI":"西灣里","LIN":"37鄰","STREET":"國光八街","SECT":" ","MAREA":" ","LANE":"１２９巷","ALLEY":" ","HOUSE_NO":"３５號","E_COORD97":174167.32000000001,"N_COORD97":2545585.71,"ADDRESS":"國光八街１２９巷３５號","OBJECTID":222677},"geometry":{"x":174167.32000000123,"y":2545585.7100000009}},{"attributes":{"ID":222682,"DIS_CODE":0,"TOWNNAME":"永康區","LI":"北灣里","LIN":"37鄰","STREET":"大同街","SECT":" ","MAREA":" ","LANE":"３６９巷","ALLEY":" ","HOUSE_NO":"１２號","E_COORD97":174670.94,"N_COORD97":2546196.6899999999,"ADDRESS":"大同街３６９巷１２號","OBJECTID":222678},"geometry":{"x":174670.94000000041,"y":2546196.6900000013}},{"attributes":{"ID":222683,"DIS_CODE":0,"TOWNNAME":"歸仁區","LI":"六甲里","LIN":"28鄰","STREET":"六甲二街","SECT":" ","MAREA":" ","LANE":" ","ALLEY":" ","HOUSE_NO":"５２號","E_COORD97":175875.97,"N_COORD97":2539297.25,"ADDRESS":"六甲二街５２號","OBJECTID":222679},"geometry":{"x":175875.97000000067,"y":2539297.2500000019}},{"attributes":{"ID":222684,"DIS_CODE":0,"TOWNNAME":"中西區","LI":"西湖里","LIN":"37鄰","STREET":"頂美三街","SECT":" ","MAREA":" ","LANE":"２４１巷","ALLEY":" ","HOUSE_NO":"３５號","E_COORD97":166458.41,"N_COORD97":2545000.6499999999,"ADDRESS":"頂美三街２４１巷３５號","OBJECTID":222680},"geometry":{"x":166458.41000000108,"y":2545000.6500000022}},{"attributes":{"ID":222685,"DIS_CODE":0,"TOWNNAME":"安平區","LI":"華平里","LIN":"28鄰","STREET":"平通路","SECT":" ","MAREA":" ","LANE":" ","ALLEY":" ","HOUSE_NO":"４１７號","E_COORD97":165376.79000000001,"N_COORD97":2543749.2599999998,"ADDRESS":"平通路４１７號","OBJECTID":222681},"geometry":{"x":165376.79000000004,"y":2543749.2600000016}},{"attributes":{"ID":222686,"DIS_CODE":0,"TOWNNAME":"安平區","LI":"華平里","LIN":"28鄰","STREET":"平通路","SECT":" ","MAREA":" ","LANE":" ","ALLEY":" ","HOUSE_NO":"４２３號","E_COORD97":165346.76999999999,"N_COORD97":2543754.5499999998,"ADDRESS":"平通路４２３號","OBJECTID":222682},"geometry":{"x":165346.77000000048,"y":2543754.5500000026}},{"attributes":{"ID":222687,"DIS_CODE":0,"TOWNNAME":"歸仁區","LI":"崙頂里","LIN":"28鄰","STREET":"成功十街","SECT":" ","MAREA":" ","LANE":" ","ALLEY":" ","HOUSE_NO":"７６號","E_COORD97":177794.73999999999,"N_COORD97":2539726.5499999998,"ADDRESS":"成功十街７６號","OBJECTID":222683},"geometry":{"x":177794.73999999929,"y":2539726.5500000026}},{"attributes":{"ID":222688,"DIS_CODE":0,"TOWNNAME":"歸仁區","LI":"辜厝里","LIN":"28鄰","STREET":"大順三街","SECT":" ","MAREA":" ","LANE":" ","ALLEY":" ","HOUSE_NO":"１０號","E_COORD97":177339.73000000001,"N_COORD97":2540594.25,"ADDRESS":"大順三街１０號","OBJECTID":222684},"geometry":{"x":177339.73000000138,"y":2540594.25}},{"attributes":{"ID":222689,"DIS_CODE":0,"TOWNNAME":"歸仁區","LI":"辜厝里","LIN":"28鄰","STREET":"大順三街","SECT":" ","MAREA":" ","LANE":" ","ALLEY":" ","HOUSE_NO":"１６號","E_COORD97":177346.82999999999,"N_COORD97":2540579.25,"ADDRESS":"大順三街１６號","OBJECTID":222685},"geometry":{"x":177346.83000000101,"y":2540579.2500000019}},{"attributes":{"ID":222690,"DIS_CODE":0,"TOWNNAME":"歸仁區","LI":"辜厝里","LIN":"28鄰","STREET":"大順三街","SECT":" ","MAREA":" ","LANE":" ","ALLEY":" ","HOUSE_NO":"２２號","E_COORD97":177336.14000000001,"N_COORD97":2540546.6800000002,"ADDRESS":"大順三街２２號","OBJECTID":222686},"geometry":{"x":177336.1400000006,"y":2540546.6799999997}},{"attributes":{"ID":222691,"DIS_CODE":0,"TOWNNAME":"歸仁區","LI":"崙頂里","LIN":"28鄰","STREET":"成功十街","SECT":" ","MAREA":" ","LANE":" ","ALLEY":" ","HOUSE_NO":"１０６號","E_COORD97":177794.39000000001,"N_COORD97":2539808.5499999998,"ADDRESS":"成功十街１０６號","OBJECTID":222687},"geometry":{"x":177794.38999999966,"y":2539808.5500000026}},{"attributes":{"ID":222692,"DIS_CODE":0,"TOWNNAME":"中西區","LI":"西湖里","LIN":"37鄰","STREET":"頂美三街","SECT":" ","MAREA":" ","LANE":"２４１巷","ALLEY":" ","HOUSE_NO":"３７號","E_COORD97":166452.32000000001,"N_COORD97":2545001.3199999998,"ADDRESS":"頂美三街２４１巷３７號","OBJECTID":222688},"geometry":{"x":166452.32000000123,"y":2545001.3200000003}},{"attributes":{"ID":222693,"DIS_CODE":0,"TOWNNAME":"歸仁區","LI":"許厝里","LIN":"28鄰","STREET":"大仁街","SECT":" ","MAREA":" ","LANE":" ","ALLEY":" ","HOUSE_NO":"１８號","E_COORD97":177926.95000000001,"N_COORD97":2540790.04,"ADDRESS":"大仁街１８號","OBJECTID":222689},"geometry":{"x":177926.95000000019,"y":2540790.040000001}},{"attributes":{"ID":222694,"DIS_CODE":0,"TOWNNAME":"中西區","LI":"西湖里","LIN":"37鄰","STREET":"頂美三街","SECT":" ","MAREA":" ","LANE":"２４１巷","ALLEY":" ","HOUSE_NO":"３９號","E_COORD97":166446.89999999999,"N_COORD97":2545001.8300000001,"ADDRESS":"頂美三街２４１巷３９號","OBJECTID":222690},"geometry":{"x":166446.9000000013,"y":2545001.8300000038}},{"attributes":{"ID":222695,"DIS_CODE":0,"TOWNNAME":"歸仁區","LI":"許厝里","LIN":"28鄰","STREET":"大仁街","SECT":" ","MAREA":" ","LANE":" ","ALLEY":" ","HOUSE_NO":"１４號","E_COORD97":177915.64999999999,"N_COORD97":2540785.0299999998,"ADDRESS":"大仁街１４號","OBJECTID":222691},"geometry":{"x":177915.65000000037,"y":2540785.0299999993}},{"attributes":{"ID":222696,"DIS_CODE":0,"TOWNNAME":"中西區","LI":"西湖里","LIN":"37鄰","STREET":"頂美三街","SECT":" ","MAREA":" ","LANE":"２４１巷","ALLEY":" ","HOUSE_NO":"４１號","E_COORD97":166441.82000000001,"N_COORD97":2545002.3399999999,"ADDRESS":"頂美三街２４１巷４１號","OBJECTID":222692},"geometry":{"x":166441.82000000123,"y":2545002.3400000017}},{"attributes":{"ID":222697,"DIS_CODE":0,"TOWNNAME":"佳里區","LI":"安西里","LIN":"37鄰","STREET":"光華街","SECT":" ","MAREA":" ","LANE":"１３０巷","ALLEY":" ","HOUSE_NO":"２５號","E_COORD97":165042.07999999999,"N_COORD97":2562906.1400000001,"ADDRESS":"光華街１３０巷２５號","OBJECTID":222693},"geometry":{"x":165042.08000000007,"y":2562906.1400000025}},{"attributes":{"ID":222698,"DIS_CODE":0,"TOWNNAME":"佳里區","LI":"安西里","LIN":"37鄰","STREET":"光華街","SECT":" ","MAREA":" ","LANE":"１３０巷","ALLEY":" ","HOUSE_NO":"２７號","E_COORD97":165041.82000000001,"N_COORD97":2562910.1400000001,"ADDRESS":"光華街１３０巷２７號","OBJECTID":222694},"geometry":{"x":165041.82000000123,"y":2562910.1400000006}},{"attributes":{"ID":222699,"DIS_CODE":0,"TOWNNAME":"佳里區","LI":"安西里","LIN":"37鄰","STREET":"光華街","SECT":" ","MAREA":" ","LANE":"１３０巷","ALLEY":" ","HOUSE_NO":"２９號","E_COORD97":165041.95000000001,"N_COORD97":2562913.6800000002,"ADDRESS":"光華街１３０巷２９號","OBJECTID":222695},"geometry":{"x":165041.95000000019,"y":2562913.6799999978}},{"attributes":{"ID":222700,"DIS_CODE":0,"TOWNNAME":"佳里區","LI":"安西里","LIN":"37鄰","STREET":"光華街","SECT":" ","MAREA":" ","LANE":"１３０巷","ALLEY":" ","HOUSE_NO":"３１號","E_COORD97":165041.97,"N_COORD97":2562918.23,"ADDRESS":"光華街１３０巷３１號","OBJECTID":222696},"geometry":{"x":165041.97000000067,"y":2562918.2300000023}},{"attributes":{"ID":222701,"DIS_CODE":0,"TOWNNAME":"佳里區","LI":"安西里","LIN":"37鄰","STREET":"光華街","SECT":" ","MAREA":" ","LANE":"１３０巷","ALLEY":" ","HOUSE_NO":"３３號","E_COORD97":165041.97,"N_COORD97":2562921.8199999998,"ADDRESS":"光華街１３０巷３３號","OBJECTID":222697},"geometry":{"x":165041.97000000067,"y":2562921.8200000022}},{"attributes":{"ID":222702,"DIS_CODE":0,"TOWNNAME":"中西區","LI":"永福里","LIN":"19鄰","STREET":"忠義路","SECT":"二段","MAREA":" ","LANE":"１４７巷","ALLEY":" ","HOUSE_NO":"２０號","E_COORD97":168322.22,"N_COORD97":2544062.8100000001,"ADDRESS":"忠義路二段１４７巷２０號","OBJECTID":222698},"geometry":{"x":168322.22000000067,"y":2544062.8100000005}},{"attributes":{"ID":222703,"DIS_CODE":0,"TOWNNAME":"中西區","LI":"永福里","LIN":"19鄰","STREET":"忠義路","SECT":"二段","MAREA":" ","LANE":"１４７巷","ALLEY":" ","HOUSE_NO":"２１號","E_COORD97":168300.20999999999,"N_COORD97":2544061.8500000001,"ADDRESS":"忠義路二段１４７巷２１號","OBJECTID":222699},"geometry":{"x":168300.21000000089,"y":2544061.8499999996}},{"attributes":{"ID":222704,"DIS_CODE":0,"TOWNNAME":"中西區","LI":"永福里","LIN":"20鄰","STREET":"民族路","SECT":"二段","MAREA":" ","LANE":"３１７巷","ALLEY":" ","HOUSE_NO":"１號","E_COORD97":168279.76999999999,"N_COORD97":2544111.71,"ADDRESS":"民族路二段３１７巷１號","OBJECTID":222700},"geometry":{"x":168279.76999999955,"y":2544111.709999999}},{"attributes":{"ID":222705,"DIS_CODE":0,"TOWNNAME":"中西區","LI":"永福里","LIN":"20鄰","STREET":"民族路","SECT":"二段","MAREA":" ","LANE":"３１７巷","ALLEY":" ","HOUSE_NO":"３號","E_COORD97":168288.85000000001,"N_COORD97":2544098.3500000001,"ADDRESS":"民族路二段３１７巷３號","OBJECTID":222701},"geometry":{"x":168288.85000000056,"y":2544098.3499999996}},{"attributes":{"ID":222706,"DIS_CODE":0,"TOWNNAME":"歸仁區","LI":"辜厝里","LIN":"28鄰","STREET":"大順三街","SECT":" ","MAREA":" ","LANE":" ","ALLEY":" ","HOUSE_NO":"２０號","E_COORD97":177353.92999999999,"N_COORD97":2540555.25,"ADDRESS":"大順三街２０號","OBJECTID":222702},"geometry":{"x":177353.93000000156,"y":2540555.2500000019}},{"attributes":{"ID":222707,"DIS_CODE":0,"TOWNNAME":"歸仁區","LI":"後市里","LIN":"28鄰","STREET":"民族北街","SECT":" ","MAREA":" ","LANE":" ","ALLEY":" ","HOUSE_NO":"２３號","E_COORD97":177425.82999999999,"N_COORD97":2540898.75,"ADDRESS":"民族北街２３號","OBJECTID":222703},"geometry":{"x":177425.83000000007,"y":2540898.75}},{"attributes":{"ID":222708,"DIS_CODE":0,"TOWNNAME":"中西區","LI":"永福里","LIN":"20鄰","STREET":"民族路","SECT":"二段","MAREA":" ","LANE":"３１７巷","ALLEY":" ","HOUSE_NO":"５號","E_COORD97":168287.94,"N_COORD97":2544083.5,"ADDRESS":"民族路二段３１７巷５號","OBJECTID":222704},"geometry":{"x":168287.94000000041,"y":2544083.5000000019}},{"attributes":{"ID":222709,"DIS_CODE":0,"TOWNNAME":"中西區","LI":"永福里","LIN":"19鄰","STREET":"忠義路","SECT":"二段","MAREA":" ","LANE":"１４７巷","ALLEY":" ","HOUSE_NO":"２８號","E_COORD97":168313.10999999999,"N_COORD97":2544079.54,"ADDRESS":"忠義路二段１４７巷２８號","OBJECTID":222705},"geometry":{"x":168313.11000000127,"y":2544079.5399999991}},{"attributes":{"ID":222710,"DIS_CODE":0,"TOWNNAME":"中西區","LI":"永福里","LIN":"19鄰","STREET":"忠義路","SECT":"二段","MAREA":" ","LANE":"１４７巷","ALLEY":" ","HOUSE_NO":"３０號","E_COORD97":168330.92000000001,"N_COORD97":2544080.5299999998,"ADDRESS":"忠義路二段１４７巷３０號","OBJECTID":222706},"geometry":{"x":168330.92000000086,"y":2544080.5299999993}},{"attributes":{"ID":222711,"DIS_CODE":0,"TOWNNAME":"中西區","LI":"永福里","LIN":"19鄰","STREET":"忠義路","SECT":"二段","MAREA":" ","LANE":"１４７巷","ALLEY":" ","HOUSE_NO":"３２號","E_COORD97":168327.81,"N_COORD97":2544082.1499999999,"ADDRESS":"忠義路二段１４７巷３２號","OBJECTID":222707},"geometry":{"x":168327.81000000145,"y":2544082.1500000022}},{"attributes":{"ID":222712,"DIS_CODE":0,"TOWNNAME":"中西區","LI":"永福里","LIN":"19鄰","STREET":"忠義路","SECT":"二段","MAREA":" ","LANE":"１４７巷","ALLEY":" ","HOUSE_NO":"３４號","E_COORD97":168324.32000000001,"N_COORD97":2544084.8900000001,"ADDRESS":"忠義路二段１４７巷３４號","OBJECTID":222708},"geometry":{"x":168324.3200000003,"y":2544084.8900000025}},{"attributes":{"ID":222713,"DIS_CODE":0,"TOWNNAME":"中西區","LI":"永福里","LIN":"19鄰","STREET":"忠義路","SECT":"二段","MAREA":" ","LANE":"１４７巷","ALLEY":" ","HOUSE_NO":"３６號","E_COORD97":168321.20999999999,"N_COORD97":2544086.3799999999,"ADDRESS":"忠義路二段１４７巷３６號","OBJECTID":222709},"geometry":{"x":168321.20999999996,"y":2544086.3800000008}},{"attributes":{"ID":222714,"DIS_CODE":0,"TOWNNAME":"中西區","LI":"永福里","LIN":"19鄰","STREET":"忠義路","SECT":"二段","MAREA":" ","LANE":"１４７巷","ALLEY":" ","HOUSE_NO":"３８號","E_COORD97":168315.10000000001,"N_COORD97":2544087.75,"ADDRESS":"忠義路二段１４７巷３８號","OBJECTID":222710},"geometry":{"x":168315.09999999963,"y":2544087.7500000019}},{"attributes":{"ID":222715,"DIS_CODE":0,"TOWNNAME":"佳里區","LI":"安西里","LIN":"37鄰","STREET":"光華街","SECT":" ","MAREA":" ","LANE":"１３０巷","ALLEY":" ","HOUSE_NO":"３９號","E_COORD97":165050.39000000001,"N_COORD97":2562998.3599999999,"ADDRESS":"光華街１３０巷３９號","OBJECTID":222711},"geometry":{"x":165050.38999999873,"y":2562998.3600000013}},{"attributes":{"ID":222716,"DIS_CODE":0,"TOWNNAME":"佳里區","LI":"安西里","LIN":"37鄰","STREET":"光華街","SECT":" ","MAREA":" ","LANE":"１３０巷","ALLEY":" ","HOUSE_NO":"４１號","E_COORD97":165050.17999999999,"N_COORD97":2563002.6400000001,"ADDRESS":"光華街１３０巷４１號","OBJECTID":222712},"geometry":{"x":165050.18000000156,"y":2563002.6400000006}},{"attributes":{"ID":222717,"DIS_CODE":0,"TOWNNAME":"佳里區","LI":"安西里","LIN":"37鄰","STREET":"光華街","SECT":" ","MAREA":" ","LANE":"１３０巷","ALLEY":" ","HOUSE_NO":"４３號","E_COORD97":165050.23000000001,"N_COORD97":2563007.4399999999,"ADDRESS":"光華街１３０巷４３號","OBJECTID":222713},"geometry":{"x":165050.23000000045,"y":2563007.4400000013}},{"attributes":{"ID":222718,"DIS_CODE":0,"TOWNNAME":"佳里區","LI":"安西里","LIN":"37鄰","STREET":"光華街","SECT":" ","MAREA":" ","LANE":"１３０巷","ALLEY":" ","HOUSE_NO":"４５號","E_COORD97":165049.89999999999,"N_COORD97":2563011.1899999999,"ADDRESS":"光華街１３０巷４５號","OBJECTID":222714},"geometry":{"x":165049.9000000013,"y":2563011.1899999995}},{"attributes":{"ID":222719,"DIS_CODE":0,"TOWNNAME":"中西區","LI":"西湖里","LIN":"37鄰","STREET":"頂美三街","SECT":" ","MAREA":" ","LANE":"２３９巷","ALLEY":" ","HOUSE_NO":"３７號","E_COORD97":166432.92999999999,"N_COORD97":2544963.7999999998,"ADDRESS":"頂美三街２３９巷３７號","OBJECTID":222715},"geometry":{"x":166432.9299999997,"y":2544963.8000000026}},{"attributes":{"ID":222720,"DIS_CODE":0,"TOWNNAME":"中西區","LI":"西湖里","LIN":"37鄰","STREET":"頂美三街","SECT":" ","MAREA":" ","LANE":"２３９巷","ALLEY":" ","HOUSE_NO":"３９號","E_COORD97":166428.48000000001,"N_COORD97":2544964.0499999998,"ADDRESS":"頂美三街２３９巷３９號","OBJECTID":222716},"geometry":{"x":166428.48000000045,"y":2544964.0500000045}},{"attributes":{"ID":222721,"DIS_CODE":0,"TOWNNAME":"中西區","LI":"西湖里","LIN":"37鄰","STREET":"頂美三街","SECT":" ","MAREA":" ","LANE":"２３９巷","ALLEY":" ","HOUSE_NO":"５１號","E_COORD97":166411.17999999999,"N_COORD97":2544965.8799999999,"ADDRESS":"頂美三街２３９巷５１號","OBJECTID":222717},"geometry":{"x":166411.1799999997,"y":2544965.879999999}},{"attributes":{"ID":222722,"DIS_CODE":0,"TOWNNAME":"南區","LI":"郡南里","LIN":"17鄰","STREET":"永成路","SECT":"三段","MAREA":" ","LANE":"２５巷","ALLEY":" ","HOUSE_NO":"１３號","E_COORD97":167458.94409899999,"N_COORD97":2540403.3607200002,"ADDRESS":"永成路三段２５巷１３號","OBJECTID":222718},"geometry":{"x":167458.94409899972,"y":2540403.3607200049}},{"attributes":{"ID":222723,"DIS_CODE":0,"TOWNNAME":"中西區","LI":"西湖里","LIN":"37鄰","STREET":"頂美三街","SECT":" ","MAREA":" ","LANE":"２３９巷","ALLEY":" ","HOUSE_NO":"４９號","E_COORD97":166415.94,"N_COORD97":2544966.0299999998,"ADDRESS":"頂美三街２３９巷４９號","OBJECTID":222719},"geometry":{"x":166415.94000000134,"y":2544966.0300000031}},{"attributes":{"ID":222724,"DIS_CODE":0,"TOWNNAME":"中西區","LI":"西湖里","LIN":"37鄰","STREET":"頂美三街","SECT":" ","MAREA":" ","LANE":"２３９巷","ALLEY":" ","HOUSE_NO":"４１號","E_COORD97":166425.14999999999,"N_COORD97":2544964.27,"ADDRESS":"頂美三街２３９巷４１號","OBJECTID":222720},"geometry":{"x":166425.15000000037,"y":2544964.2699999977}},{"attributes":{"ID":222725,"DIS_CODE":0,"TOWNNAME":"東區","LI":"衛國里","LIN":"20鄰","STREET":"林森路","SECT":"二段","MAREA":" ","LANE":" ","ALLEY":" ","HOUSE_NO":"１６４號","E_COORD97":170429.12,"N_COORD97":2543260.6299999999,"ADDRESS":"林森路二段１６４號","OBJECTID":222721},"geometry":{"x":170429.12000000011,"y":2543260.6300000008}},{"attributes":{"ID":222726,"DIS_CODE":0,"TOWNNAME":"東區","LI":"衛國里","LIN":"20鄰","STREET":"林森路","SECT":"二段","MAREA":" ","LANE":" ","ALLEY":" ","HOUSE_NO":"１６６號","E_COORD97":170432.67000000001,"N_COORD97":2543262.2799999998,"ADDRESS":"林森路二段１６６號","OBJECTID":222722},"geometry":{"x":170432.66999999899,"y":2543262.2800000031}},{"attributes":{"ID":222727,"DIS_CODE":0,"TOWNNAME":"東區","LI":"東光里","LIN":"7鄰","STREET":"東興路","SECT":" ","MAREA":" ","LANE":" ","ALLEY":" ","HOUSE_NO":"２２９號","E_COORD97":171011.23000000001,"N_COORD97":2543894.1200000001,"ADDRESS":"東興路２２９號","OBJECTID":222723},"geometry":{"x":171011.23000000138,"y":2543894.120000001}},{"attributes":{"ID":222728,"DIS_CODE":0,"TOWNNAME":"東區","LI":"莊敬里","LIN":"1鄰","STREET":"小東路","SECT":" ","MAREA":" ","LANE":" ","ALLEY":" ","HOUSE_NO":"２４８號之１","E_COORD97":171015.73000000001,"N_COORD97":2544398.3500000001,"ADDRESS":"小東路２４８號之１","OBJECTID":222724},"geometry":{"x":171015.73000000045,"y":2544398.3500000015}},{"attributes":{"ID":222729,"DIS_CODE":0,"TOWNNAME":"東區","LI":"莊敬里","LIN":"1鄰","STREET":"小東路","SECT":" ","MAREA":" ","LANE":" ","ALLEY":" ","HOUSE_NO":"２４８號之２","E_COORD97":171019.75,"N_COORD97":2544396.48,"ADDRESS":"小東路２４８號之２","OBJECTID":222725},"geometry":{"x":171019.75,"y":2544396.4800000004}},{"attributes":{"ID":222730,"DIS_CODE":0,"TOWNNAME":"東區","LI":"莊敬里","LIN":"1鄰","STREET":"小東路","SECT":" ","MAREA":" ","LANE":" ","ALLEY":" ","HOUSE_NO":"２４８號之３","E_COORD97":171023.32999999999,"N_COORD97":2544394.8700000001,"ADDRESS":"小東路２４８號之３","OBJECTID":222726},"geometry":{"x":171023.32999999914,"y":2544394.870000001}},{"attributes":{"ID":222731,"DIS_CODE":0,"TOWNNAME":"東區","LI":"莊敬里","LIN":"1鄰","STREET":"小東路","SECT":" ","MAREA":" ","LANE":" ","ALLEY":" ","HOUSE_NO":"２４８號之８","E_COORD97":171043.09,"N_COORD97":2544388.4500000002,"ADDRESS":"小東路２４８號之８","OBJECTID":222727},"geometry":{"x":171043.08999999985,"y":2544388.4499999993}},{"attributes":{"ID":222732,"DIS_CODE":0,"TOWNNAME":"東區","LI":"莊敬里","LIN":"11鄰","STREET":"莊敬路","SECT":" ","MAREA":" ","LANE":" ","ALLEY":" ","HOUSE_NO":"３００號","E_COORD97":171406.23999999999,"N_COORD97":2544291,"ADDRESS":"莊敬路３００號","OBJECTID":222728},"geometry":{"x":171406.24000000115,"y":2544291}},{"attributes":{"ID":222733,"DIS_CODE":0,"TOWNNAME":"東區","LI":"東安里","LIN":"4鄰","STREET":"長榮路","SECT":"二段","MAREA":" ","LANE":" ","ALLEY":" ","HOUSE_NO":"１８號","E_COORD97":169943.04999999999,"N_COORD97":2543068.3399999999,"ADDRESS":"長榮路二段１８號","OBJECTID":222729},"geometry":{"x":169943.04999999981,"y":2543068.3399999999}},{"attributes":{"ID":222734,"DIS_CODE":0,"TOWNNAME":"東區","LI":"和平里","LIN":"20鄰","STREET":"仁和路","SECT":" ","MAREA":" ","LANE":" ","ALLEY":" ","HOUSE_NO":"７３號之２２","E_COORD97":171334.39000000001,"N_COORD97":2541658.3399999999,"ADDRESS":"仁和路７３號之２２","OBJECTID":222730},"geometry":{"x":171334.38999999966,"y":2541658.3399999999}},{"attributes":{"ID":222735,"DIS_CODE":0,"TOWNNAME":"東區","LI":"東光里","LIN":"13鄰","STREET":"東平路","SECT":" ","MAREA":" ","LANE":" ","ALLEY":" ","HOUSE_NO":"３７號","E_COORD97":171326.23999999999,"N_COORD97":2543917.1800000002,"ADDRESS":"東平路３７號","OBJECTID":222731},"geometry":{"x":171326.24000000115,"y":2543917.1799999997}},{"attributes":{"ID":222736,"DIS_CODE":0,"TOWNNAME":"東區","LI":"東光里","LIN":"13鄰","STREET":"東平路","SECT":" ","MAREA":" ","LANE":" ","ALLEY":" ","HOUSE_NO":"３９號","E_COORD97":171321.45000000001,"N_COORD97":2543915.1400000001,"ADDRESS":"東平路３９號","OBJECTID":222732},"geometry":{"x":171321.45000000112,"y":2543915.1400000006}},{"attributes":{"ID":222737,"DIS_CODE":0,"TOWNNAME":"東區","LI":"東光里","LIN":"13鄰","STREET":"東平路","SECT":" ","MAREA":" ","LANE":" ","ALLEY":" ","HOUSE_NO":"４１號","E_COORD97":171317.45999999999,"N_COORD97":2543917.46,"ADDRESS":"東平路４１號","OBJECTID":222733},"geometry":{"x":171317.46000000183,"y":2543917.4600000028}},{"attributes":{"ID":222738,"DIS_CODE":0,"TOWNNAME":"東區","LI":"東光里","LIN":"13鄰","STREET":"東平路","SECT":" ","MAREA":" ","LANE":" ","ALLEY":" ","HOUSE_NO":"４３號","E_COORD97":171313.34,"N_COORD97":2543919.5299999998,"ADDRESS":"東平路４３號","OBJECTID":222734},"geometry":{"x":171313.34000000078,"y":2543919.5300000012}},{"attributes":{"ID":222739,"DIS_CODE":0,"TOWNNAME":"東區","LI":"東光里","LIN":"13鄰","STREET":"東平路","SECT":" ","MAREA":" ","LANE":" ","ALLEY":" ","HOUSE_NO":"４５號","E_COORD97":171308.67999999999,"N_COORD97":2543917.3300000001,"ADDRESS":"東平路４５號","OBJECTID":222735},"geometry":{"x":171308.6799999997,"y":2543917.3300000019}},{"attributes":{"ID":222740,"DIS_CODE":0,"TOWNNAME":"東區","LI":"大學里","LIN":"18鄰","STREET":"長榮路","SECT":"三段","MAREA":" ","LANE":" ","ALLEY":" ","HOUSE_NO":"３２號","E_COORD97":170215.48999999999,"N_COORD97":2543709.3199999998,"ADDRESS":"長榮路三段３２號","OBJECTID":222736},"geometry":{"x":170215.48999999929,"y":2543709.3200000003}},{"attributes":{"ID":222741,"DIS_CODE":0,"TOWNNAME":"東區","LI":"大學里","LIN":"18鄰","STREET":"長榮路","SECT":"三段","MAREA":" ","LANE":" ","ALLEY":" ","HOUSE_NO":"３４號","E_COORD97":170216.39000000001,"N_COORD97":2543715.6499999999,"ADDRESS":"長榮路三段３４號","OBJECTID":222737},"geometry":{"x":170216.3900000006,"y":2543715.6500000022}},{"attributes":{"ID":222742,"DIS_CODE":0,"TOWNNAME":"中西區","LI":"永福里","LIN":"21鄰","STREET":"忠義路","SECT":"二段","MAREA":" ","LANE":"１４７巷","ALLEY":" ","HOUSE_NO":"１４號","E_COORD97":168338.04000000001,"N_COORD97":2544058.96,"ADDRESS":"忠義路二段１４７巷１４號","OBJECTID":222738},"geometry":{"x":168338.04000000004,"y":2544058.9600000009}},{"attributes":{"ID":222743,"DIS_CODE":0,"TOWNNAME":"中西區","LI":"永福里","LIN":"21鄰","STREET":"忠義路","SECT":"二段","MAREA":" ","LANE":"１４７巷","ALLEY":" ","HOUSE_NO":"１６號","E_COORD97":168333.67999999999,"N_COORD97":2544060.8199999998,"ADDRESS":"忠義路二段１４７巷１６號","OBJECTID":222739},"geometry":{"x":168333.6799999997,"y":2544060.8200000022}},{"attributes":{"ID":222744,"DIS_CODE":0,"TOWNNAME":"中西區","LI":"永福里","LIN":"21鄰","STREET":"忠義路","SECT":"二段","MAREA":" ","LANE":"１４７巷","ALLEY":" ","HOUSE_NO":"２號","E_COORD97":168362.98000000001,"N_COORD97":2544046.3799999999,"ADDRESS":"忠義路二段１４７巷２號","OBJECTID":222740},"geometry":{"x":168362.97999999952,"y":2544046.379999999}},{"attributes":{"ID":222745,"DIS_CODE":0,"TOWNNAME":"中西區","LI":"永福里","LIN":"21鄰","STREET":"忠義路","SECT":"二段","MAREA":" ","LANE":"１４７巷","ALLEY":" ","HOUSE_NO":"４號","E_COORD97":168359.5,"N_COORD97":2544047.7400000002,"ADDRESS":"忠義路二段１４７巷４號","OBJECTID":222741},"geometry":{"x":168359.50000000093,"y":2544047.7400000021}},{"attributes":{"ID":222746,"DIS_CODE":0,"TOWNNAME":"中西區","LI":"永福里","LIN":"21鄰","STREET":"忠義路","SECT":"二段","MAREA":" ","LANE":"１４７巷","ALLEY":" ","HOUSE_NO":"６號","E_COORD97":168356.13,"N_COORD97":2544049.1099999999,"ADDRESS":"忠義路二段１４７巷６號","OBJECTID":222742},"geometry":{"x":168356.12999999989,"y":2544049.1099999994}},{"attributes":{"ID":222747,"DIS_CODE":0,"TOWNNAME":"中西區","LI":"永福里","LIN":"21鄰","STREET":"忠義路","SECT":"二段","MAREA":" ","LANE":"１４７巷","ALLEY":" ","HOUSE_NO":"８號","E_COORD97":168352.64999999999,"N_COORD97":2544050.73,"ADDRESS":"忠義路二段１４７巷８號","OBJECTID":222743},"geometry":{"x":168352.65000000037,"y":2544050.7300000023}},{"attributes":{"ID":222748,"DIS_CODE":0,"TOWNNAME":"永康區","LI":"北灣里","LIN":"37鄰","STREET":"大同街","SECT":" ","MAREA":" ","LANE":"３６９巷","ALLEY":" ","HOUSE_NO":"１０號","E_COORD97":174679.53,"N_COORD97":2546191.5800000001,"ADDRESS":"大同街３６９巷１０號","OBJECTID":222744},"geometry":{"x":174679.53000000119,"y":2546191.5800000019}},{"attributes":{"ID":222749,"DIS_CODE":0,"TOWNNAME":"永康區","LI":"正強里","LIN":"37鄰","STREET":"正強街","SECT":" ","MAREA":" ","LANE":"３３０巷","ALLEY":" ","HOUSE_NO":"２０號","E_COORD97":173289.92999999999,"N_COORD97":2548215,"ADDRESS":"正強街３３０巷２０號","OBJECTID":222745},"geometry":{"x":173289.9299999997,"y":2548215.0000000037}},{"attributes":{"ID":222750,"DIS_CODE":0,"TOWNNAME":"中西區","LI":"赤嵌里","LIN":"17鄰","STREET":"忠義路","SECT":"二段","MAREA":" ","LANE":"２３３巷","ALLEY":" ","HOUSE_NO":"３５號","E_COORD97":168378.12,"N_COORD97":2544198.23,"ADDRESS":"忠義路二段２３３巷３５號","OBJECTID":222746},"geometry":{"x":168378.12000000011,"y":2544198.2300000004}},{"attributes":{"ID":222751,"DIS_CODE":0,"TOWNNAME":"中西區","LI":"赤嵌里","LIN":"17鄰","STREET":"忠義路","SECT":"二段","MAREA":" ","LANE":"２３３巷","ALLEY":" ","HOUSE_NO":"４３號","E_COORD97":168361.47,"N_COORD97":2544159.4199999999,"ADDRESS":"忠義路二段２３３巷４３號","OBJECTID":222747},"geometry":{"x":168361.47000000067,"y":2544159.4199999999}},{"attributes":{"ID":222752,"DIS_CODE":0,"TOWNNAME":"中西區","LI":"赤嵌里","LIN":"17鄰","STREET":"忠義路","SECT":"二段","MAREA":" ","LANE":"２３３巷","ALLEY":" ","HOUSE_NO":"４５號","E_COORD97":168354.98999999999,"N_COORD97":2544146.1800000002,"ADDRESS":"忠義路二段２３３巷４５號","OBJECTID":222748},"geometry":{"x":168354.99000000115,"y":2544146.1800000016}},{"attributes":{"ID":222753,"DIS_CODE":0,"TOWNNAME":"中西區","LI":"赤嵌里","LIN":"17鄰","STREET":"忠義路","SECT":"二段","MAREA":" ","LANE":"２３３巷","ALLEY":" ","HOUSE_NO":"４７號","E_COORD97":168367.07000000001,"N_COORD97":2544141.1800000002,"ADDRESS":"忠義路二段２３３巷４７號","OBJECTID":222749},"geometry":{"x":168367.0700000003,"y":2544141.1799999978}},{"attributes":{"ID":222754,"DIS_CODE":0,"TOWNNAME":"永康區","LI":"復興里","LIN":"19鄰","STREET":"復興路","SECT":" ","MAREA":" ","LANE":"３５６巷","ALLEY":" ","HOUSE_NO":"３２號","E_COORD97":172287.81,"N_COORD97":2544423.52,"ADDRESS":"復興路３５６巷３２號","OBJECTID":222750},"geometry":{"x":172287.81000000145,"y":2544423.5199999977}},{"attributes":{"ID":222755,"DIS_CODE":0,"TOWNNAME":"永康區","LI":"蔦松里","LIN":"9鄰","STREET":"正北三路","SECT":" ","MAREA":" ","LANE":"１５０巷","ALLEY":" ","HOUSE_NO":"７號","E_COORD97":174379.64999999999,"N_COORD97":2550122.6299999999,"ADDRESS":"正北三路１５０巷７號","OBJECTID":222751},"geometry":{"x":174379.64999999944,"y":2550122.6300000008}},{"attributes":{"ID":222756,"DIS_CODE":0,"TOWNNAME":"永康區","LI":"\u25A0行里","LIN":"37鄰","STREET":"仁愛街","SECT":" ","MAREA":" ","LANE":"８４巷","ALLEY":" ","HOUSE_NO":"３號五樓","E_COORD97":172077.29000000001,"N_COORD97":2549415.6600000001,"ADDRESS":"仁愛街８４巷３號五樓","OBJECTID":222752},"geometry":{"x":172077.29000000004,"y":2549415.660000002}},{"attributes":{"ID":222757,"DIS_CODE":0,"TOWNNAME":"永康區","LI":"\u25A0行里","LIN":"37鄰","STREET":"仁愛街","SECT":" ","MAREA":" ","LANE":"８４巷","ALLEY":" ","HOUSE_NO":"２號二樓","E_COORD97":172060.85000000001,"N_COORD97":2549398.8999999999,"ADDRESS":"仁愛街８４巷２號二樓","OBJECTID":222753},"geometry":{"x":172060.85000000056,"y":2549398.8999999985}},{"attributes":{"ID":222758,"DIS_CODE":0,"TOWNNAME":"永康區","LI":"\u25A0行里","LIN":"37鄰","STREET":"仁愛街","SECT":" ","MAREA":" ","LANE":"８４巷","ALLEY":" ","HOUSE_NO":"３號六樓","E_COORD97":172077.29000000001,"N_COORD97":2549415.6600000001,"ADDRESS":"仁愛街８４巷３號六樓","OBJECTID":222754},"geometry":{"x":172077.29000000004,"y":2549415.660000002}},{"attributes":{"ID":222759,"DIS_CODE":0,"TOWNNAME":"永康區","LI":"\u25A0行里","LIN":"37鄰","STREET":"仁愛街","SECT":" ","MAREA":" ","LANE":"８４巷","ALLEY":" ","HOUSE_NO":"３號二樓","E_COORD97":172077.29000000001,"N_COORD97":2549415.6600000001,"ADDRESS":"仁愛街８４巷３號二樓","OBJECTID":222755},"geometry":{"x":172077.29000000004,"y":2549415.660000002}},{"attributes":{"ID":222760,"DIS_CODE":0,"TOWNNAME":"東山區","LI":"東山里","LIN":"28鄰","STREET":" ","SECT":" ","MAREA":"東山","LANE":" ","ALLEY":" ","HOUSE_NO":"５２０號","E_COORD97":188793.89000000001,"N_COORD97":2580376.9500000002,"ADDRESS":"東山５２０號","OBJECTID":222756},"geometry":{"x":188793.8900000006,"y":2580376.9500000011}},{"attributes":{"ID":222761,"DIS_CODE":0,"TOWNNAME":"東山區","LI":"東山里","LIN":"28鄰","STREET":" ","SECT":" ","MAREA":"東山","LANE":" ","ALLEY":" ","HOUSE_NO":"５２１號","E_COORD97":188793.54999999999,"N_COORD97":2580382.1299999999,"ADDRESS":"東山５２１號","OBJECTID":222757},"geometry":{"x":188793.54999999981,"y":2580382.1300000008}},{"attributes":{"ID":222762,"DIS_CODE":0,"TOWNNAME":"東山區","LI":"東山里","LIN":"28鄰","STREET":" ","SECT":" ","MAREA":"東山","LANE":" ","ALLEY":" ","HOUSE_NO":"５２２號","E_COORD97":188793.20999999999,"N_COORD97":2580387.3100000001,"ADDRESS":"東山５２２號","OBJECTID":222758},"geometry":{"x":188793.21000000183,"y":2580387.3100000005}},{"attributes":{"ID":222763,"DIS_CODE":0,"TOWNNAME":"東山區","LI":"東山里","LIN":"28鄰","STREET":" ","SECT":" ","MAREA":"東山","LANE":" ","ALLEY":" ","HOUSE_NO":"５２３號","E_COORD97":188792.87,"N_COORD97":2580392.4900000002,"ADDRESS":"東山５２３號","OBJECTID":222759},"geometry":{"x":188792.87000000104,"y":2580392.4900000002}},{"attributes":{"ID":222764,"DIS_CODE":0,"TOWNNAME":"東山區","LI":"東山里","LIN":"28鄰","STREET":" ","SECT":" ","MAREA":"東山","LANE":" ","ALLEY":" ","HOUSE_NO":"５２４號","E_COORD97":188792.53,"N_COORD97":2580397.6699999999,"ADDRESS":"東山５２４號","OBJECTID":222760},"geometry":{"x":188792.53000000026,"y":2580397.6699999999}},{"attributes":{"ID":222765,"DIS_CODE":0,"TOWNNAME":"東山區","LI":"東山里","LIN":"28鄰","STREET":" ","SECT":" ","MAREA":"東山","LANE":" ","ALLEY":" ","HOUSE_NO":"５２９號","E_COORD97":188764.32000000001,"N_COORD97":2580394.46,"ADDRESS":"東山５２９號","OBJECTID":222761},"geometry":{"x":188764.32000000123,"y":2580394.4600000028}},{"attributes":{"ID":222766,"DIS_CODE":0,"TOWNNAME":"東山區","LI":"東山里","LIN":"28鄰","STREET":" ","SECT":" ","MAREA":"東山","LANE":" ","ALLEY":" ","HOUSE_NO":"５３０號","E_COORD97":188757.34,"N_COORD97":2580395.5,"ADDRESS":"東山５３０號","OBJECTID":222762},"geometry":{"x":188757.34000000078,"y":2580395.5}},{"attributes":{"ID":222767,"DIS_CODE":0,"TOWNNAME":"東山區","LI":"東山里","LIN":"28鄰","STREET":" ","SECT":" ","MAREA":"東山","LANE":" ","ALLEY":" ","HOUSE_NO":"５３１號","E_COORD97":188750.37,"N_COORD97":2580396.5299999998,"ADDRESS":"東山５３１號","OBJECTID":222763},"geometry":{"x":188750.37000000104,"y":2580396.5300000012}},{"attributes":{"ID":222768,"DIS_CODE":0,"TOWNNAME":"東山區","LI":"東山里","LIN":"28鄰","STREET":" ","SECT":" ","MAREA":"東山","LANE":" ","ALLEY":" ","HOUSE_NO":"５３２號","E_COORD97":188743.39000000001,"N_COORD97":2580397.5699999998,"ADDRESS":"東山５３２號","OBJECTID":222764},"geometry":{"x":188743.38999999966,"y":2580397.5700000022}},{"attributes":{"ID":222769,"DIS_CODE":0,"TOWNNAME":"東山區","LI":"東山里","LIN":"28鄰","STREET":" ","SECT":" ","MAREA":"東山","LANE":" ","ALLEY":" ","HOUSE_NO":"５３３號","E_COORD97":188780.82999999999,"N_COORD97":2580377.2200000002,"ADDRESS":"東山５３３號","OBJECTID":222765},"geometry":{"x":188780.83000000101,"y":2580377.2200000007}},{"attributes":{"ID":222770,"DIS_CODE":0,"TOWNNAME":"東山區","LI":"東山里","LIN":"28鄰","STREET":" ","SECT":" ","MAREA":"東山","LANE":" ","ALLEY":" ","HOUSE_NO":"５３４號","E_COORD97":188774.23999999999,"N_COORD97":2580378.1499999999,"ADDRESS":"東山５３４號","OBJECTID":222766},"geometry":{"x":188774.24000000022,"y":2580378.1500000004}},{"attributes":{"ID":222771,"DIS_CODE":0,"TOWNNAME":"東山區","LI":"東山里","LIN":"28鄰","STREET":" ","SECT":" ","MAREA":"東山","LANE":" ","ALLEY":" ","HOUSE_NO":"５３５號","E_COORD97":188767.95000000001,"N_COORD97":2580378.8500000001,"ADDRESS":"東山５３５號","OBJECTID":222767},"geometry":{"x":188767.95000000205,"y":2580378.8499999996}},{"attributes":{"ID":222772,"DIS_CODE":0,"TOWNNAME":"永康區","LI":"\u25A0行里","LIN":"37鄰","STREET":"仁愛街","SECT":" ","MAREA":" ","LANE":"８４巷","ALLEY":" ","HOUSE_NO":"６號五樓","E_COORD97":172077.14000000001,"N_COORD97":2549388.1499999999,"ADDRESS":"仁愛街８４巷６號五樓","OBJECTID":222768},"geometry":{"x":172077.14000000153,"y":2549388.1500000022}},{"attributes":{"ID":222773,"DIS_CODE":0,"TOWNNAME":"東山區","LI":"東山里","LIN":"28鄰","STREET":" ","SECT":" ","MAREA":"東山","LANE":" ","ALLEY":" ","HOUSE_NO":"５３６號","E_COORD97":188761.73000000001,"N_COORD97":2580380.2999999998,"ADDRESS":"東山５３６號","OBJECTID":222769},"geometry":{"x":188761.73000000138,"y":2580380.3000000007}},{"attributes":{"ID":222774,"DIS_CODE":0,"TOWNNAME":"永康區","LI":"\u25A0行里","LIN":"37鄰","STREET":"仁愛街","SECT":" ","MAREA":" ","LANE":"８４巷","ALLEY":" ","HOUSE_NO":"２號一樓","E_COORD97":172060.85000000001,"N_COORD97":2549398.8999999999,"ADDRESS":"仁愛街８４巷２號一樓","OBJECTID":222770},"geometry":{"x":172060.85000000056,"y":2549398.8999999985}},{"attributes":{"ID":222775,"DIS_CODE":0,"TOWNNAME":"新市區","LI":"大社里","LIN":"28鄰","STREET":" ","SECT":" ","MAREA":"大社","LANE":" ","ALLEY":" ","HOUSE_NO":"９２１號之１３","E_COORD97":180016.48999999999,"N_COORD97":2554017.29,"ADDRESS":"大社９２１號之１３","OBJECTID":222771},"geometry":{"x":180016.49000000022,"y":2554017.290000001}},{"attributes":{"ID":222776,"DIS_CODE":0,"TOWNNAME":"新市區","LI":"大社里","LIN":"28鄰","STREET":" ","SECT":" ","MAREA":"大社","LANE":" ","ALLEY":" ","HOUSE_NO":"９２１之１６號","E_COORD97":179998.85000000001,"N_COORD97":2553988.7999999998,"ADDRESS":"大社９２１之１６號","OBJECTID":222772},"geometry":{"x":179998.85000000149,"y":2553988.8000000026}},{"attributes":{"ID":222777,"DIS_CODE":0,"TOWNNAME":"永康區","LI":"\u25A0行里","LIN":"37鄰","STREET":"仁愛街","SECT":" ","MAREA":" ","LANE":"８４巷","ALLEY":" ","HOUSE_NO":"１號五樓","E_COORD97":172070.41,"N_COORD97":2549418.6600000001,"ADDRESS":"仁愛街８４巷１號五樓","OBJECTID":222773},"geometry":{"x":172070.41000000015,"y":2549418.660000002}},{"attributes":{"ID":222778,"DIS_CODE":0,"TOWNNAME":"永康區","LI":"\u25A0行里","LIN":"37鄰","STREET":"仁愛街","SECT":" ","MAREA":" ","LANE":"８４巷","ALLEY":" ","HOUSE_NO":"４號七樓","E_COORD97":172068.14000000001,"N_COORD97":2549396.1499999999,"ADDRESS":"仁愛街８４巷４號七樓","OBJECTID":222774},"geometry":{"x":172068.13999999966,"y":2549396.1500000004}},{"attributes":{"ID":222779,"DIS_CODE":0,"TOWNNAME":"永康區","LI":"\u25A0行里","LIN":"37鄰","STREET":"仁愛街","SECT":" ","MAREA":" ","LANE":"８４巷","ALLEY":" ","HOUSE_NO":"４號四樓","E_COORD97":172068.14000000001,"N_COORD97":2549396.1499999999,"ADDRESS":"仁愛街８４巷４號四樓","OBJECTID":222775},"geometry":{"x":172068.13999999966,"y":2549396.1500000004}},{"attributes":{"ID":222780,"DIS_CODE":0,"TOWNNAME":"永康區","LI":"龍潭里","LIN":"37鄰","STREET":"中山北路","SECT":" ","MAREA":" ","LANE":"１６４巷","ALLEY":" ","HOUSE_NO":"１１８號之２三樓","E_COORD97":174548.13,"N_COORD97":2547335.2000000002,"ADDRESS":"中山北路１６４巷１１８號之２三樓","OBJECTID":222776},"geometry":{"x":174548.12999999989,"y":2547335.2000000011}},{"attributes":{"ID":222781,"DIS_CODE":0,"TOWNNAME":"永康區","LI":"龍潭里","LIN":"37鄰","STREET":"中山北路","SECT":" ","MAREA":" ","LANE":"１６４巷","ALLEY":" ","HOUSE_NO":"１１６號之２五樓","E_COORD97":174539.32000000001,"N_COORD97":2547325.1400000001,"ADDRESS":"中山北路１６４巷１１６號之２五樓","OBJECTID":222777},"geometry":{"x":174539.3200000003,"y":2547325.1400000006}},{"attributes":{"ID":222782,"DIS_CODE":0,"TOWNNAME":"永康區","LI":"龍潭里","LIN":"38鄰","STREET":"中山北路","SECT":" ","MAREA":" ","LANE":"１６４巷","ALLEY":" ","HOUSE_NO":"９６號","E_COORD97":174486.38,"N_COORD97":2547394.9100000001,"ADDRESS":"中山北路１６４巷９６號","OBJECTID":222778},"geometry":{"x":174486.38000000082,"y":2547394.9099999983}},{"attributes":{"ID":222783,"DIS_CODE":0,"TOWNNAME":"永康區","LI":"復華里","LIN":"37鄰","STREET":"復華七街","SECT":" ","MAREA":" ","LANE":"３２巷","ALLEY":" ","HOUSE_NO":"２９號四樓之３","E_COORD97":172731.13,"N_COORD97":2545951.54,"ADDRESS":"復華七街３２巷２９號四樓之３","OBJECTID":222779},"geometry":{"x":172731.12999999989,"y":2545951.5399999991}},{"attributes":{"ID":222784,"DIS_CODE":0,"TOWNNAME":"永康區","LI":"龍潭里","LIN":"14鄰","STREET":"龍安街","SECT":" ","MAREA":" ","LANE":"１９２巷","ALLEY":" ","HOUSE_NO":"３號","E_COORD97":174639.35999999999,"N_COORD97":2548405.77,"ADDRESS":"龍安街１９２巷３號","OBJECTID":222780},"geometry":{"x":174639.3600000022,"y":2548405.7700000033}},{"attributes":{"ID":222785,"DIS_CODE":0,"TOWNNAME":"永康區","LI":"復華里","LIN":"37鄰","STREET":"復華七街","SECT":" ","MAREA":" ","LANE":"３２巷","ALLEY":" ","HOUSE_NO":"２９號十一樓之２","E_COORD97":172732.42000000001,"N_COORD97":2545951.54,"ADDRESS":"復華七街３２巷２９號十一樓之２","OBJECTID":222781},"geometry":{"x":172732.41999999993,"y":2545951.5399999991}},{"attributes":{"ID":222786,"DIS_CODE":0,"TOWNNAME":"永康區","LI":"復華里","LIN":"37鄰","STREET":"復華七街","SECT":" ","MAREA":" ","LANE":"３２巷","ALLEY":" ","HOUSE_NO":"２９號三樓之３","E_COORD97":172731.13,"N_COORD97":2545951.54,"ADDRESS":"復華七街３２巷２９號三樓之３","OBJECTID":222782},"geometry":{"x":172731.12999999989,"y":2545951.5399999991}},{"attributes":{"ID":222787,"DIS_CODE":0,"TOWNNAME":"永康區","LI":"龍潭里","LIN":"37鄰","STREET":"中山北路","SECT":" ","MAREA":" ","LANE":"１６４巷","ALLEY":" ","HOUSE_NO":"１１８號之３三樓","E_COORD97":174547.73000000001,"N_COORD97":2547349.8900000001,"ADDRESS":"中山北路１６４巷１１８號之３三樓","OBJECTID":222783},"geometry":{"x":174547.73000000138,"y":2547349.8900000006}},{"attributes":{"ID":222788,"DIS_CODE":0,"TOWNNAME":"永康區","LI":"龍潭里","LIN":"37鄰","STREET":"中山北路","SECT":" ","MAREA":" ","LANE":"１６４巷","ALLEY":" ","HOUSE_NO":"１２０號之３五樓","E_COORD97":174551.03,"N_COORD97":2547397.3399999999,"ADDRESS":"中山北路１６４巷１２０號之３五樓","OBJECTID":222784},"geometry":{"x":174551.03000000026,"y":2547397.3399999999}},{"attributes":{"ID":222789,"DIS_CODE":0,"TOWNNAME":"永康區","LI":"復華里","LIN":"37鄰","STREET":"復華七街","SECT":" ","MAREA":" ","LANE":"３２巷","ALLEY":" ","HOUSE_NO":"２５號十一樓之２","E_COORD97":172713.31,"N_COORD97":2545945.04,"ADDRESS":"復華七街３２巷２５號十一樓之２","OBJECTID":222785},"geometry":{"x":172713.31000000145,"y":2545945.0399999991}},{"attributes":{"ID":222790,"DIS_CODE":0,"TOWNNAME":"仁德區","LI":"太子里","LIN":"37鄰","STREET":"長興一街","SECT":" ","MAREA":" ","LANE":"４０巷","ALLEY":" ","HOUSE_NO":"４０號","E_COORD97":174457.41,"N_COORD97":2543905,"ADDRESS":"長興一街４０巷４０號","OBJECTID":222786},"geometry":{"x":174457.41000000201,"y":2543905}},{"attributes":{"ID":222791,"DIS_CODE":0,"TOWNNAME":"永康區","LI":"龍潭里","LIN":"37鄰","STREET":"中山北路","SECT":" ","MAREA":" ","LANE":"１６４巷","ALLEY":" ","HOUSE_NO":"１２０號","E_COORD97":174546.79999999999,"N_COORD97":2547364.5600000001,"ADDRESS":"中山北路１６４巷１２０號","OBJECTID":222787},"geometry":{"x":174546.80000000075,"y":2547364.5600000024}},{"attributes":{"ID":222792,"DIS_CODE":0,"TOWNNAME":"永康區","LI":"復華里","LIN":"37鄰","STREET":"復華七街","SECT":" ","MAREA":" ","LANE":"３２巷","ALLEY":" ","HOUSE_NO":"２５號","E_COORD97":172707.29000000001,"N_COORD97":2545945.02,"ADDRESS":"復華七街３２巷２５號","OBJECTID":222788},"geometry":{"x":172707.29000000097,"y":2545945.0199999996}},{"attributes":{"ID":222793,"DIS_CODE":0,"TOWNNAME":"新化區","LI":"東榮里","LIN":"28鄰","STREET":"中興路","SECT":" ","MAREA":" ","LANE":"８２５巷","ALLEY":" ","HOUSE_NO":"１號","E_COORD97":179130.53122800001,"N_COORD97":2548211.9085300001,"ADDRESS":"中興路８２５巷１號","OBJECTID":222789},"geometry":{"x":179130.53122800123,"y":2548211.9085290004}},{"attributes":{"ID":222794,"DIS_CODE":0,"TOWNNAME":"中西區","LI":"藥王里","LIN":"1鄰","STREET":"金華路","SECT":"四段","MAREA":" ","LANE":" ","ALLEY":" ","HOUSE_NO":"２５號","E_COORD97":167422.69,"N_COORD97":2544279.29,"ADDRESS":"金華路四段２５號","OBJECTID":222790},"geometry":{"x":167422.69000000134,"y":2544279.290000001}},{"attributes":{"ID":222795,"DIS_CODE":0,"TOWNNAME":"中西區","LI":"藥王里","LIN":"1鄰","STREET":"金華路","SECT":"四段","MAREA":" ","LANE":" ","ALLEY":" ","HOUSE_NO":"２７號","E_COORD97":167422.45000000001,"N_COORD97":2544282.4399999999,"ADDRESS":"金華路四段２７號","OBJECTID":222791},"geometry":{"x":167422.45000000112,"y":2544282.4400000013}},{"attributes":{"ID":222796,"DIS_CODE":0,"TOWNNAME":"中西區","LI":"藥王里","LIN":"1鄰","STREET":"金華路","SECT":"四段","MAREA":" ","LANE":" ","ALLEY":" ","HOUSE_NO":"２９號","E_COORD97":167423.42000000001,"N_COORD97":2544286.0699999998,"ADDRESS":"金華路四段２９號","OBJECTID":222792},"geometry":{"x":167423.41999999993,"y":2544286.0700000022}},{"attributes":{"ID":222797,"DIS_CODE":0,"TOWNNAME":"中西區","LI":"藥王里","LIN":"1鄰","STREET":"金華路","SECT":"四段","MAREA":" ","LANE":" ","ALLEY":" ","HOUSE_NO":"３３號","E_COORD97":167424.63,"N_COORD97":2544289.6899999999,"ADDRESS":"金華路四段３３號","OBJECTID":222793},"geometry":{"x":167424.63000000082,"y":2544289.6899999995}},{"attributes":{"ID":222798,"DIS_CODE":0,"TOWNNAME":"永康區","LI":"勝利里","LIN":"37鄰","STREET":"勝利街","SECT":" ","MAREA":" ","LANE":"１９７巷","ALLEY":" ","HOUSE_NO":"２１號","E_COORD97":171286.76000000001,"N_COORD97":2545127.25,"ADDRESS":"勝利街１９７巷２１號","OBJECTID":222794},"geometry":{"x":171286.76000000071,"y":2545127.25}},{"attributes":{"ID":222799,"DIS_CODE":0,"TOWNNAME":"永康區","LI":"勝利里","LIN":"37鄰","STREET":"勝利街","SECT":" ","MAREA":" ","LANE":"１９７巷","ALLEY":" ","HOUSE_NO":"２３號","E_COORD97":171281.29999999999,"N_COORD97":2545126.75,"ADDRESS":"勝利街１９７巷２３號","OBJECTID":222795},"geometry":{"x":171281.30000000075,"y":2545126.75}},{"attributes":{"ID":222800,"DIS_CODE":0,"TOWNNAME":"永康區","LI":"蔦松里","LIN":"8鄰","STREET":"中正北路","SECT":" ","MAREA":" ","LANE":"４２９巷","ALLEY":" ","HOUSE_NO":"１１號","E_COORD97":173600.23000000001,"N_COORD97":2549195.9900000002,"ADDRESS":"中正北路４２９巷１１號","OBJECTID":222796},"geometry":{"x":173600.23000000138,"y":2549195.9900000021}},{"attributes":{"ID":222801,"DIS_CODE":0,"TOWNNAME":"永康區","LI":"新樹里","LIN":"7鄰","STREET":"西勢路","SECT":" ","MAREA":" ","LANE":"２２８巷","ALLEY":" ","HOUSE_NO":"４３號","E_COORD97":175743.12,"N_COORD97":2546911.5699999998,"ADDRESS":"西勢路２２８巷４３號","OBJECTID":222797},"geometry":{"x":175743.12000000104,"y":2546911.5700000003}},{"attributes":{"ID":222802,"DIS_CODE":0,"TOWNNAME":"永康區","LI":"五王里","LIN":"37鄰","STREET":"中華路","SECT":" ","MAREA":" ","LANE":"５７８巷","ALLEY":" ","HOUSE_NO":"１５號之４６","E_COORD97":171276.04999999999,"N_COORD97":2545965.79,"ADDRESS":"中華路５７８巷１５號之４６","OBJECTID":222798},"geometry":{"x":171276.05000000168,"y":2545965.7899999991}},{"attributes":{"ID":222803,"DIS_CODE":0,"TOWNNAME":"永康區","LI":"五王里","LIN":"37鄰","STREET":"中華路","SECT":" ","MAREA":" ","LANE":"５７８巷","ALLEY":" ","HOUSE_NO":"１５號之４５","E_COORD97":171276.10000000001,"N_COORD97":2545965.79,"ADDRESS":"中華路５７８巷１５號之４５","OBJECTID":222799},"geometry":{"x":171276.10000000056,"y":2545965.7899999991}},{"attributes":{"ID":222804,"DIS_CODE":0,"TOWNNAME":"永康區","LI":"五王里","LIN":"37鄰","STREET":"中華路","SECT":" ","MAREA":" ","LANE":"５７８巷","ALLEY":" ","HOUSE_NO":"１５號之６４","E_COORD97":171275.97,"N_COORD97":2545965.79,"ADDRESS":"中華路５７８巷１５號之６４","OBJECTID":222800},"geometry":{"x":171275.96999999974,"y":2545965.7899999991}}]}