{"displayFieldName":"TOWNNAME","fieldAliases":{"ID":"ID","DIS_CODE":"DIS_CODE","TOWNNAME":"TOWNNAME","LI":"LI","LIN":"LIN","STREET":"STREET","SECT":"SECT","MAREA":"MAREA","LANE":"LANE","ALLEY":"ALLEY","HOUSE_NO":"HOUSE_NO","E_COORD97":"E_COORD97","N_COORD97":"N_COORD97","ADDRESS":"ADDRESS","OBJECTID":"OBJECTID"},"geometryType":"esriGeometryPoint","spatialReference":{"wkid":102443,"latestWkid":3826},"fields":[{"name":"ID","type":"esriFieldTypeDouble","alias":"ID"},{"name":"DIS_CODE","type":"esriFieldTypeInteger","alias":"DIS_CODE"},{"name":"TOWNNAME","type":"esriFieldTypeString","alias":"TOWNNAME","length":8},{"name":"LI","type":"esriFieldTypeString","alias":"LI","length":8},{"name":"LIN","type":"esriFieldTypeString","alias":"LIN","length":12},{"name":"STREET","type":"esriFieldTypeString","alias":"STREET","length":20},{"name":"SECT","type":"esriFieldTypeString","alias":"SECT","length":8},{"name":"MAREA","type":"esriFieldTypeString","alias":"MAREA","length":12},{"name":"LANE","type":"esriFieldTypeString","alias":"LANE","length":10},{"name":"ALLEY","type":"esriFieldTypeString","alias":"ALLEY","length":10},{"name":"HOUSE_NO","type":"esriFieldTypeString","alias":"HOUSE_NO","length":20},{"name":"E_COORD97","type":"esriFieldTypeDouble","alias":"E_COORD97"},{"name":"N_COORD97","type":"esriFieldTypeDouble","alias":"N_COORD97"},{"name":"ADDRESS","type":"esriFieldTypeString","alias":"ADDRESS","length":50},{"name":"OBJECTID","type":"esriFieldTypeOID","alias":"OBJECTID"}],"features":[{"attributes":{"ID":294809,"DIS_CODE":0,"TOWNNAME":"永康區","LI":"東灣里","LIN":"18鄰","STREET":"大灣三街","SECT":" ","MAREA":" ","LANE":"２１巷","ALLEY":" ","HOUSE_NO":"６號","E_COORD97":175008.37,"N_COORD97":2544882.77,"ADDRESS":"大灣三街２１巷６號","OBJECTID":294801},"geometry":{"x":175008.37000000011,"y":2544882.7699999996}},{"attributes":{"ID":294810,"DIS_CODE":0,"TOWNNAME":"永康區","LI":"南灣里","LIN":"39鄰","STREET":"大安街","SECT":" ","MAREA":" ","LANE":"９７巷","ALLEY":" ","HOUSE_NO":"５５號","E_COORD97":174416.67999999999,"N_COORD97":2545076.0899999999,"ADDRESS":"大安街９７巷５５號","OBJECTID":294802},"geometry":{"x":174416.68000000063,"y":2545076.0900000017}},{"attributes":{"ID":294811,"DIS_CODE":0,"TOWNNAME":"永康區","LI":"南灣里","LIN":"41鄰","STREET":"南興路","SECT":" ","MAREA":" ","LANE":"１１２巷","ALLEY":" ","HOUSE_NO":"１０２號之２","E_COORD97":174668.45999999999,"N_COORD97":2544527.7400000002,"ADDRESS":"南興路１１２巷１０２號之２","OBJECTID":294803},"geometry":{"x":174668.45999999996,"y":2544527.7400000002}},{"attributes":{"ID":294812,"DIS_CODE":0,"TOWNNAME":"永康區","LI":"建國里","LIN":"4鄰","STREET":"復興路","SECT":" ","MAREA":" ","LANE":"５４巷","ALLEY":" ","HOUSE_NO":"１１號","E_COORD97":172874.20999999999,"N_COORD97":2544497.52,"ADDRESS":"復興路５４巷１１號","OBJECTID":294804},"geometry":{"x":172874.21000000089,"y":2544497.5199999996}},{"attributes":{"ID":294813,"DIS_CODE":0,"TOWNNAME":"永康區","LI":"東橋里","LIN":"5鄰","STREET":"中山南路","SECT":" ","MAREA":" ","LANE":"１９５巷","ALLEY":" ","HOUSE_NO":"３８號","E_COORD97":171423.75,"N_COORD97":2546447.4900000002,"ADDRESS":"中山南路１９５巷３８號","OBJECTID":294805},"geometry":{"x":171423.75,"y":2546447.4900000002}},{"attributes":{"ID":294814,"DIS_CODE":0,"TOWNNAME":"永康區","LI":"南灣里","LIN":"26鄰","STREET":"立興街","SECT":" ","MAREA":" ","LANE":"７４巷","ALLEY":" ","HOUSE_NO":"２５號","E_COORD97":174480.28,"N_COORD97":2544828.79,"ADDRESS":"立興街７４巷２５號","OBJECTID":294806},"geometry":{"x":174480.28000000026,"y":2544828.790000001}},{"attributes":{"ID":294815,"DIS_CODE":0,"TOWNNAME":"永康區","LI":"南灣里","LIN":"25鄰","STREET":"立興街","SECT":" ","MAREA":" ","LANE":"７４巷","ALLEY":" ","HOUSE_NO":"１５號","E_COORD97":174499.70999999999,"N_COORD97":2544816.4900000002,"ADDRESS":"立興街７４巷１５號","OBJECTID":294807},"geometry":{"x":174499.71000000089,"y":2544816.4900000002}},{"attributes":{"ID":294816,"DIS_CODE":0,"TOWNNAME":"北區","LI":"重興里","LIN":"17鄰","STREET":"林森路","SECT":"三段","MAREA":" ","LANE":"１４０巷","ALLEY":" ","HOUSE_NO":"７號七樓","E_COORD97":170596.5,"N_COORD97":2544984.1699999999,"ADDRESS":"林森路三段１４０巷７號七樓","OBJECTID":294808},"geometry":{"x":170596.5,"y":2544984.1700000018}},{"attributes":{"ID":294817,"DIS_CODE":0,"TOWNNAME":"北區","LI":"重興里","LIN":"17鄰","STREET":"林森路","SECT":"三段","MAREA":" ","LANE":"１４０巷","ALLEY":" ","HOUSE_NO":"７號二樓","E_COORD97":170596.5,"N_COORD97":2544984.1699999999,"ADDRESS":"林森路三段１４０巷７號二樓","OBJECTID":294809},"geometry":{"x":170596.5,"y":2544984.1700000018}},{"attributes":{"ID":294818,"DIS_CODE":0,"TOWNNAME":"北區","LI":"重興里","LIN":"17鄰","STREET":"林森路","SECT":"三段","MAREA":" ","LANE":"１４０巷","ALLEY":" ","HOUSE_NO":"７號八樓","E_COORD97":170596.5,"N_COORD97":2544984.1699999999,"ADDRESS":"林森路三段１４０巷７號八樓","OBJECTID":294810},"geometry":{"x":170596.5,"y":2544984.1700000018}},{"attributes":{"ID":294819,"DIS_CODE":0,"TOWNNAME":"北區","LI":"重興里","LIN":"17鄰","STREET":"林森路","SECT":"三段","MAREA":" ","LANE":"１４０巷","ALLEY":" ","HOUSE_NO":"７號三樓","E_COORD97":170596.5,"N_COORD97":2544984.1699999999,"ADDRESS":"林森路三段１４０巷７號三樓","OBJECTID":294811},"geometry":{"x":170596.5,"y":2544984.1700000018}},{"attributes":{"ID":294820,"DIS_CODE":0,"TOWNNAME":"北區","LI":"重興里","LIN":"17鄰","STREET":"林森路","SECT":"三段","MAREA":" ","LANE":"１４０巷","ALLEY":" ","HOUSE_NO":"７號五樓","E_COORD97":170596.5,"N_COORD97":2544984.1699999999,"ADDRESS":"林森路三段１４０巷７號五樓","OBJECTID":294812},"geometry":{"x":170596.5,"y":2544984.1700000018}},{"attributes":{"ID":294821,"DIS_CODE":0,"TOWNNAME":"北區","LI":"重興里","LIN":"17鄰","STREET":"林森路","SECT":"三段","MAREA":" ","LANE":"１４０巷","ALLEY":" ","HOUSE_NO":"７號六樓","E_COORD97":170596.5,"N_COORD97":2544984.1699999999,"ADDRESS":"林森路三段１４０巷７號六樓","OBJECTID":294813},"geometry":{"x":170596.5,"y":2544984.1700000018}},{"attributes":{"ID":294822,"DIS_CODE":0,"TOWNNAME":"南區","LI":"廣州里","LIN":"14鄰","STREET":"福吉一街","SECT":" ","MAREA":" ","LANE":" ","ALLEY":" ","HOUSE_NO":"９號","E_COORD97":167371.66,"N_COORD97":2542720.96,"ADDRESS":"福吉一街９號","OBJECTID":294814},"geometry":{"x":167371.66000000201,"y":2542720.9600000028}},{"attributes":{"ID":294823,"DIS_CODE":0,"TOWNNAME":"南區","LI":"廣州里","LIN":"14鄰","STREET":"福吉二街","SECT":" ","MAREA":" ","LANE":" ","ALLEY":" ","HOUSE_NO":"１０號","E_COORD97":167366.59,"N_COORD97":2542692.2799999998,"ADDRESS":"福吉二街１０號","OBJECTID":294815},"geometry":{"x":167366.59000000171,"y":2542692.2799999993}},{"attributes":{"ID":294824,"DIS_CODE":0,"TOWNNAME":"南區","LI":"廣州里","LIN":"14鄰","STREET":"福吉二街","SECT":" ","MAREA":" ","LANE":" ","ALLEY":" ","HOUSE_NO":"１２號","E_COORD97":167364.89999999999,"N_COORD97":2542695.2400000002,"ADDRESS":"福吉二街１２號","OBJECTID":294816},"geometry":{"x":167364.90000000037,"y":2542695.2400000021}},{"attributes":{"ID":294825,"DIS_CODE":0,"TOWNNAME":"南區","LI":"廣州里","LIN":"14鄰","STREET":"福吉二街","SECT":" ","MAREA":" ","LANE":" ","ALLEY":" ","HOUSE_NO":"１４號","E_COORD97":167361.51999999999,"N_COORD97":2542698.1899999999,"ADDRESS":"福吉二街１４號","OBJECTID":294817},"geometry":{"x":167361.51999999955,"y":2542698.1900000013}},{"attributes":{"ID":294826,"DIS_CODE":0,"TOWNNAME":"南區","LI":"廣州里","LIN":"14鄰","STREET":"福吉二街","SECT":" ","MAREA":" ","LANE":" ","ALLEY":" ","HOUSE_NO":"１６號","E_COORD97":167359.41,"N_COORD97":2542702.3999999999,"ADDRESS":"福吉二街１６號","OBJECTID":294818},"geometry":{"x":167359.41000000015,"y":2542702.4000000004}},{"attributes":{"ID":294827,"DIS_CODE":0,"TOWNNAME":"南區","LI":"廣州里","LIN":"14鄰","STREET":"福吉二街","SECT":" ","MAREA":" ","LANE":" ","ALLEY":" ","HOUSE_NO":"１８號","E_COORD97":167355.60999999999,"N_COORD97":2542704.5099999998,"ADDRESS":"福吉二街１８號","OBJECTID":294819},"geometry":{"x":167355.61000000127,"y":2542704.5099999998}},{"attributes":{"ID":294828,"DIS_CODE":0,"TOWNNAME":"南區","LI":"廣州里","LIN":"14鄰","STREET":"福吉二街","SECT":" ","MAREA":" ","LANE":" ","ALLEY":" ","HOUSE_NO":"２０號","E_COORD97":167351.81,"N_COORD97":2542707.04,"ADDRESS":"福吉二街２０號","OBJECTID":294820},"geometry":{"x":167351.81000000052,"y":2542707.0399999991}},{"attributes":{"ID":294829,"DIS_CODE":0,"TOWNNAME":"南區","LI":"廣州里","LIN":"14鄰","STREET":"福吉二街","SECT":" ","MAREA":" ","LANE":" ","ALLEY":" ","HOUSE_NO":"２２號","E_COORD97":167348.42999999999,"N_COORD97":2542709.1499999999,"ADDRESS":"福吉二街２２號","OBJECTID":294821},"geometry":{"x":167348.4299999997,"y":2542709.1500000022}},{"attributes":{"ID":294830,"DIS_CODE":0,"TOWNNAME":"南區","LI":"廣州里","LIN":"14鄰","STREET":"福吉二街","SECT":" ","MAREA":" ","LANE":" ","ALLEY":" ","HOUSE_NO":"２４號","E_COORD97":167345.89999999999,"N_COORD97":2542713.3700000001,"ADDRESS":"福吉二街２４號","OBJECTID":294822},"geometry":{"x":167345.90000000037,"y":2542713.370000001}},{"attributes":{"ID":294831,"DIS_CODE":0,"TOWNNAME":"南區","LI":"廣州里","LIN":"14鄰","STREET":"福吉二街","SECT":" ","MAREA":" ","LANE":" ","ALLEY":" ","HOUSE_NO":"２６號","E_COORD97":167342.10000000001,"N_COORD97":2542718,"ADDRESS":"福吉二街２６號","OBJECTID":294823},"geometry":{"x":167342.09999999963,"y":2542718}},{"attributes":{"ID":294832,"DIS_CODE":0,"TOWNNAME":"南區","LI":"廣州里","LIN":"14鄰","STREET":"福吉二街","SECT":" ","MAREA":" ","LANE":" ","ALLEY":" ","HOUSE_NO":"２８號","E_COORD97":167337.45999999999,"N_COORD97":2542722.2200000002,"ADDRESS":"福吉二街２８號","OBJECTID":294824},"geometry":{"x":167337.46000000089,"y":2542722.2200000025}},{"attributes":{"ID":294833,"DIS_CODE":0,"TOWNNAME":"新營區","LI":"大宏里","LIN":"19鄰","STREET":"三民路","SECT":" ","MAREA":" ","LANE":" ","ALLEY":" ","HOUSE_NO":"３６號之３２","E_COORD97":180428.13404999999,"N_COORD97":2578512.1827699998,"ADDRESS":"三民路３６號之３２","OBJECTID":294825},"geometry":{"x":180428.13405000046,"y":2578512.1827699989}},{"attributes":{"ID":294834,"DIS_CODE":0,"TOWNNAME":"永康區","LI":"南灣里","LIN":"40鄰","STREET":"南灣街","SECT":" ","MAREA":" ","LANE":"１２０巷","ALLEY":" ","HOUSE_NO":"５號","E_COORD97":174352.04000000001,"N_COORD97":2545011.77,"ADDRESS":"南灣街１２０巷５號","OBJECTID":294826},"geometry":{"x":174352.04000000097,"y":2545011.7699999977}},{"attributes":{"ID":294835,"DIS_CODE":0,"TOWNNAME":"永康區","LI":"東灣里","LIN":"18鄰","STREET":"大灣三街","SECT":" ","MAREA":" ","LANE":"２１巷","ALLEY":" ","HOUSE_NO":"５６號","E_COORD97":175034.13,"N_COORD97":2544809.7400000002,"ADDRESS":"大灣三街２１巷５６號","OBJECTID":294827},"geometry":{"x":175034.13000000082,"y":2544809.7400000021}},{"attributes":{"ID":294836,"DIS_CODE":0,"TOWNNAME":"永康區","LI":"南灣里","LIN":"20鄰","STREET":"立興街","SECT":" ","MAREA":" ","LANE":"１７６巷","ALLEY":" ","HOUSE_NO":"７之１號","E_COORD97":174293.28,"N_COORD97":2544634.7599999998,"ADDRESS":"立興街１７６巷７之１號","OBJECTID":294828},"geometry":{"x":174293.28000000026,"y":2544634.7599999998}},{"attributes":{"ID":294837,"DIS_CODE":0,"TOWNNAME":"永康區","LI":"南灣里","LIN":"25鄰","STREET":"立興街","SECT":" ","MAREA":" ","LANE":"７４巷","ALLEY":" ","HOUSE_NO":"５號","E_COORD97":174530.67000000001,"N_COORD97":2544806.8199999998,"ADDRESS":"立興街７４巷５號","OBJECTID":294829},"geometry":{"x":174530.67000000086,"y":2544806.8200000022}},{"attributes":{"ID":294838,"DIS_CODE":0,"TOWNNAME":"永康區","LI":"東灣里","LIN":"32鄰","STREET":"民族路","SECT":" ","MAREA":" ","LANE":"１４５巷","ALLEY":" ","HOUSE_NO":"８０號","E_COORD97":175142.48999999999,"N_COORD97":2544713.6899999999,"ADDRESS":"民族路１４５巷８０號","OBJECTID":294830},"geometry":{"x":175142.49000000115,"y":2544713.6899999995}},{"attributes":{"ID":294839,"DIS_CODE":0,"TOWNNAME":"永康區","LI":"建國里","LIN":"4鄰","STREET":"復興路","SECT":" ","MAREA":" ","LANE":"５４巷","ALLEY":" ","HOUSE_NO":"１１之１號","E_COORD97":172881.57999999999,"N_COORD97":2544510.04,"ADDRESS":"復興路５４巷１１之１號","OBJECTID":294831},"geometry":{"x":172881.58000000101,"y":2544510.0399999991}},{"attributes":{"ID":294840,"DIS_CODE":0,"TOWNNAME":"永康區","LI":"南灣里","LIN":"38鄰","STREET":"大安街","SECT":" ","MAREA":" ","LANE":"９７巷","ALLEY":" ","HOUSE_NO":"２７號","E_COORD97":174477.07000000001,"N_COORD97":2545011.0600000001,"ADDRESS":"大安街９７巷２７號","OBJECTID":294832},"geometry":{"x":174477.07000000123,"y":2545011.0600000042}},{"attributes":{"ID":294841,"DIS_CODE":0,"TOWNNAME":"永康區","LI":"東橋里","LIN":"20鄰","STREET":"中山南路","SECT":" ","MAREA":" ","LANE":"３６５巷","ALLEY":" ","HOUSE_NO":"３號之８","E_COORD97":172795.26999999999,"N_COORD97":2547082.29,"ADDRESS":"中山南路３６５巷３號之８","OBJECTID":294833},"geometry":{"x":172795.27000000048,"y":2547082.2899999991}},{"attributes":{"ID":294842,"DIS_CODE":0,"TOWNNAME":"永康區","LI":"東橋里","LIN":"20鄰","STREET":"中山南路","SECT":" ","MAREA":" ","LANE":"３６５巷","ALLEY":" ","HOUSE_NO":"３號之１５","E_COORD97":172886.79000000001,"N_COORD97":2547103.1299999999,"ADDRESS":"中山南路３６５巷３號之１５","OBJECTID":294834},"geometry":{"x":172886.7900000019,"y":2547103.129999999}},{"attributes":{"ID":294843,"DIS_CODE":0,"TOWNNAME":"永康區","LI":"東灣里","LIN":"25鄰","STREET":"大灣二街","SECT":" ","MAREA":" ","LANE":"７１巷","ALLEY":" ","HOUSE_NO":"３３號","E_COORD97":174813.79000000001,"N_COORD97":2544686.7400000002,"ADDRESS":"大灣二街７１巷３３號","OBJECTID":294835},"geometry":{"x":174813.79000000004,"y":2544686.7400000002}},{"attributes":{"ID":294844,"DIS_CODE":0,"TOWNNAME":"永康區","LI":"南灣里","LIN":"25鄰","STREET":"立興街","SECT":" ","MAREA":" ","LANE":"７４巷","ALLEY":" ","HOUSE_NO":"２號","E_COORD97":174547.75,"N_COORD97":2544832.77,"ADDRESS":"立興街７４巷２號","OBJECTID":294836},"geometry":{"x":174547.75,"y":2544832.7700000014}},{"attributes":{"ID":294845,"DIS_CODE":0,"TOWNNAME":"北區","LI":"重興里","LIN":"17鄰","STREET":"林森路","SECT":"三段","MAREA":" ","LANE":"１４０巷","ALLEY":" ","HOUSE_NO":"７號四樓","E_COORD97":170596.5,"N_COORD97":2544984.1699999999,"ADDRESS":"林森路三段１４０巷７號四樓","OBJECTID":294837},"geometry":{"x":170596.5,"y":2544984.1700000018}},{"attributes":{"ID":294846,"DIS_CODE":0,"TOWNNAME":"北區","LI":"重興里","LIN":"17鄰","STREET":"林森路","SECT":"三段","MAREA":" ","LANE":"１４０巷","ALLEY":" ","HOUSE_NO":"９號七樓","E_COORD97":170603.51999999999,"N_COORD97":2544995.6299999999,"ADDRESS":"林森路三段１４０巷９號七樓","OBJECTID":294838},"geometry":{"x":170603.52000000048,"y":2544995.6300000008}},{"attributes":{"ID":294847,"DIS_CODE":0,"TOWNNAME":"北區","LI":"重興里","LIN":"17鄰","STREET":"林森路","SECT":"三段","MAREA":" ","LANE":"１４０巷","ALLEY":" ","HOUSE_NO":"９號二樓","E_COORD97":170603.51999999999,"N_COORD97":2544995.6299999999,"ADDRESS":"林森路三段１４０巷９號二樓","OBJECTID":294839},"geometry":{"x":170603.52000000048,"y":2544995.6300000008}},{"attributes":{"ID":294848,"DIS_CODE":0,"TOWNNAME":"北區","LI":"重興里","LIN":"17鄰","STREET":"林森路","SECT":"三段","MAREA":" ","LANE":"１４０巷","ALLEY":" ","HOUSE_NO":"９號八樓","E_COORD97":170603.51999999999,"N_COORD97":2544995.6299999999,"ADDRESS":"林森路三段１４０巷９號八樓","OBJECTID":294840},"geometry":{"x":170603.52000000048,"y":2544995.6300000008}},{"attributes":{"ID":294849,"DIS_CODE":0,"TOWNNAME":"北區","LI":"重興里","LIN":"17鄰","STREET":"林森路","SECT":"三段","MAREA":" ","LANE":"１４０巷","ALLEY":" ","HOUSE_NO":"９號三樓","E_COORD97":170603.51999999999,"N_COORD97":2544995.6299999999,"ADDRESS":"林森路三段１４０巷９號三樓","OBJECTID":294841},"geometry":{"x":170603.52000000048,"y":2544995.6300000008}},{"attributes":{"ID":294850,"DIS_CODE":0,"TOWNNAME":"南區","LI":"廣州里","LIN":"14鄰","STREET":"福吉二街","SECT":" ","MAREA":" ","LANE":" ","ALLEY":" ","HOUSE_NO":"２號","E_COORD97":167383.06,"N_COORD97":2542674.1499999999,"ADDRESS":"福吉二街２號","OBJECTID":294842},"geometry":{"x":167383.05999999959,"y":2542674.1500000041}},{"attributes":{"ID":294851,"DIS_CODE":0,"TOWNNAME":"安平區","LI":"國平里","LIN":"14鄰","STREET":"健康路","SECT":"三段","MAREA":" ","LANE":" ","ALLEY":" ","HOUSE_NO":"１８０之２５號","E_COORD97":165504.73999999999,"N_COORD97":2542695.3999999999,"ADDRESS":"健康路三段１８０之２５號","OBJECTID":294843},"geometry":{"x":165504.74000000209,"y":2542695.4000000004}},{"attributes":{"ID":294852,"DIS_CODE":0,"TOWNNAME":"安平區","LI":"國平里","LIN":"14鄰","STREET":"健康路","SECT":"三段","MAREA":" ","LANE":" ","ALLEY":" ","HOUSE_NO":"１８０之３５號","E_COORD97":165503.89999999999,"N_COORD97":2542697.4900000002,"ADDRESS":"健康路三段１８０之３５號","OBJECTID":294844},"geometry":{"x":165503.90000000224,"y":2542697.4900000002}},{"attributes":{"ID":294853,"DIS_CODE":0,"TOWNNAME":"安平區","LI":"金城里","LIN":"14鄰","STREET":"世平二街","SECT":" ","MAREA":" ","LANE":" ","ALLEY":" ","HOUSE_NO":"３０號","E_COORD97":162913.95999999999,"N_COORD97":2544063.4100000001,"ADDRESS":"世平二街３０號","OBJECTID":294845},"geometry":{"x":162913.95999999996,"y":2544063.410000002}},{"attributes":{"ID":294854,"DIS_CODE":0,"TOWNNAME":"安平區","LI":"金城里","LIN":"14鄰","STREET":"州平二街","SECT":" ","MAREA":" ","LANE":" ","ALLEY":" ","HOUSE_NO":"３３號","E_COORD97":162942.85999999999,"N_COORD97":2544303.0299999998,"ADDRESS":"州平二街３３號","OBJECTID":294846},"geometry":{"x":162942.86000000127,"y":2544303.0300000012}},{"attributes":{"ID":294855,"DIS_CODE":0,"TOWNNAME":"安平區","LI":"億載里","LIN":"14鄰","STREET":"健康四街","SECT":" ","MAREA":" ","LANE":" ","ALLEY":" ","HOUSE_NO":"１０８號","E_COORD97":164185.10999999999,"N_COORD97":2543233.5600000001,"ADDRESS":"健康四街１０８號","OBJECTID":294847},"geometry":{"x":164185.1100000022,"y":2543233.5600000005}},{"attributes":{"ID":294856,"DIS_CODE":0,"TOWNNAME":"安平區","LI":"億載里","LIN":"14鄰","STREET":"健康四街","SECT":" ","MAREA":" ","LANE":" ","ALLEY":" ","HOUSE_NO":"１１０號","E_COORD97":164184.76999999999,"N_COORD97":2543240.6600000001,"ADDRESS":"健康四街１１０號","OBJECTID":294848},"geometry":{"x":164184.76999999955,"y":2543240.660000002}},{"attributes":{"ID":294857,"DIS_CODE":0,"TOWNNAME":"安平區","LI":"億載里","LIN":"14鄰","STREET":"健康四街","SECT":" ","MAREA":" ","LANE":" ","ALLEY":" ","HOUSE_NO":"１１２號","E_COORD97":164184.45000000001,"N_COORD97":2543244.4700000002,"ADDRESS":"健康四街１１２號","OBJECTID":294849},"geometry":{"x":164184.45000000205,"y":2543244.4700000007}},{"attributes":{"ID":294858,"DIS_CODE":0,"TOWNNAME":"安平區","LI":"億載里","LIN":"14鄰","STREET":"健康四街","SECT":" ","MAREA":" ","LANE":" ","ALLEY":" ","HOUSE_NO":"１１６號","E_COORD97":164183.66,"N_COORD97":2543248.75,"ADDRESS":"健康四街１１６號","OBJECTID":294850},"geometry":{"x":164183.66000000108,"y":2543248.75}},{"attributes":{"ID":294859,"DIS_CODE":0,"TOWNNAME":"安平區","LI":"金城里","LIN":"14鄰","STREET":"世平一街","SECT":" ","MAREA":" ","LANE":" ","ALLEY":" ","HOUSE_NO":"６號","E_COORD97":163015.95000000001,"N_COORD97":2544051.0800000001,"ADDRESS":"世平一街６號","OBJECTID":294851},"geometry":{"x":163015.95000000019,"y":2544051.0800000038}},{"attributes":{"ID":294860,"DIS_CODE":0,"TOWNNAME":"安平區","LI":"金城里","LIN":"14鄰","STREET":"世平二街","SECT":" ","MAREA":" ","LANE":" ","ALLEY":" ","HOUSE_NO":"１號","E_COORD97":162976.56,"N_COORD97":2544065.4900000002,"ADDRESS":"世平二街１號","OBJECTID":294852},"geometry":{"x":162976.56000000052,"y":2544065.4900000039}},{"attributes":{"ID":294861,"DIS_CODE":0,"TOWNNAME":"安平區","LI":"億載里","LIN":"14鄰","STREET":"平豐路","SECT":" ","MAREA":" ","LANE":" ","ALLEY":" ","HOUSE_NO":"９１號","E_COORD97":164306.32999999999,"N_COORD97":2543232.3700000001,"ADDRESS":"平豐路９１號","OBJECTID":294853},"geometry":{"x":164306.33000000007,"y":2543232.370000001}},{"attributes":{"ID":294862,"DIS_CODE":0,"TOWNNAME":"永康區","LI":"南灣里","LIN":"26鄰","STREET":"立興街","SECT":" ","MAREA":" ","LANE":"７４巷","ALLEY":" ","HOUSE_NO":"１０號","E_COORD97":174525.29999999999,"N_COORD97":2544825.3500000001,"ADDRESS":"立興街７４巷１０號","OBJECTID":294854},"geometry":{"x":174525.29999999981,"y":2544825.3500000015}},{"attributes":{"ID":294863,"DIS_CODE":0,"TOWNNAME":"永康區","LI":"南灣里","LIN":"20鄰","STREET":"大灣路","SECT":" ","MAREA":" ","LANE":"７６４巷","ALLEY":" ","HOUSE_NO":"３０號","E_COORD97":174246.23000000001,"N_COORD97":2544577.1899999999,"ADDRESS":"大灣路７６４巷３０號","OBJECTID":294855},"geometry":{"x":174246.23000000138,"y":2544577.1899999995}},{"attributes":{"ID":294864,"DIS_CODE":0,"TOWNNAME":"永康區","LI":"建國里","LIN":"26鄰","STREET":" ","SECT":" ","MAREA":"慈光九村","LANE":" ","ALLEY":" ","HOUSE_NO":"１２號","E_COORD97":172796.67000000001,"N_COORD97":2544264.5,"ADDRESS":"慈光九村１２號","OBJECTID":294856},"geometry":{"x":172796.67000000086,"y":2544264.5}},{"attributes":{"ID":294865,"DIS_CODE":0,"TOWNNAME":"永康區","LI":"東灣里","LIN":"4鄰","STREET":"大灣路","SECT":" ","MAREA":" ","LANE":"４３６巷","ALLEY":" ","HOUSE_NO":"６０號","E_COORD97":174648.75,"N_COORD97":2544990.75,"ADDRESS":"大灣路４３６巷６０號","OBJECTID":294857},"geometry":{"x":174648.75000000093,"y":2544990.75}},{"attributes":{"ID":294866,"DIS_CODE":0,"TOWNNAME":"永康區","LI":"東橋里","LIN":"5鄰","STREET":"中山南路","SECT":" ","MAREA":" ","LANE":"１９５巷","ALLEY":" ","HOUSE_NO":"３５號","E_COORD97":171418.12,"N_COORD97":2546433.7999999998,"ADDRESS":"中山南路１９５巷３５號","OBJECTID":294858},"geometry":{"x":171418.11999999918,"y":2546433.8000000045}},{"attributes":{"ID":294867,"DIS_CODE":0,"TOWNNAME":"永康區","LI":"東灣里","LIN":"18鄰","STREET":"大灣三街","SECT":" ","MAREA":" ","LANE":"２１巷","ALLEY":" ","HOUSE_NO":"２１號","E_COORD97":175033.01000000001,"N_COORD97":2544827.6299999999,"ADDRESS":"大灣三街２１巷２１號","OBJECTID":294859},"geometry":{"x":175033.01000000071,"y":2544827.629999999}},{"attributes":{"ID":294868,"DIS_CODE":0,"TOWNNAME":"永康區","LI":"東灣里","LIN":"25鄰","STREET":"大灣二街","SECT":" ","MAREA":" ","LANE":"７１巷","ALLEY":" ","HOUSE_NO":"３７號","E_COORD97":174810.64999999999,"N_COORD97":2544677.6099999999,"ADDRESS":"大灣二街７１巷３７號","OBJECTID":294860},"geometry":{"x":174810.6500000013,"y":2544677.6100000013}},{"attributes":{"ID":294869,"DIS_CODE":0,"TOWNNAME":"永康區","LI":"東灣里","LIN":"32鄰","STREET":"大灣一街","SECT":" ","MAREA":" ","LANE":"３３６巷","ALLEY":" ","HOUSE_NO":"９號","E_COORD97":175102.45000000001,"N_COORD97":2544726.5299999998,"ADDRESS":"大灣一街３３６巷９號","OBJECTID":294861},"geometry":{"x":175102.45000000019,"y":2544726.5300000012}},{"attributes":{"ID":294870,"DIS_CODE":0,"TOWNNAME":"永康區","LI":"東灣里","LIN":"4鄰","STREET":"大灣路","SECT":" ","MAREA":" ","LANE":"４３６巷","ALLEY":" ","HOUSE_NO":"４８號","E_COORD97":174661.14000000001,"N_COORD97":2544961.7400000002,"ADDRESS":"大灣路４３６巷４８號","OBJECTID":294862},"geometry":{"x":174661.1400000006,"y":2544961.7399999984}},{"attributes":{"ID":294871,"DIS_CODE":0,"TOWNNAME":"永康區","LI":"南灣里","LIN":"26鄰","STREET":"立興街","SECT":" ","MAREA":" ","LANE":"７４巷","ALLEY":" ","HOUSE_NO":"１２號","E_COORD97":174527.85000000001,"N_COORD97":2544833.1000000001,"ADDRESS":"立興街７４巷１２號","OBJECTID":294863},"geometry":{"x":174527.84999999963,"y":2544833.0999999996}},{"attributes":{"ID":294872,"DIS_CODE":0,"TOWNNAME":"北區","LI":"重興里","LIN":"17鄰","STREET":"林森路","SECT":"三段","MAREA":" ","LANE":"１４０巷","ALLEY":" ","HOUSE_NO":"９號五樓","E_COORD97":170603.51999999999,"N_COORD97":2544995.6299999999,"ADDRESS":"林森路三段１４０巷９號五樓","OBJECTID":294864},"geometry":{"x":170603.52000000048,"y":2544995.6300000008}},{"attributes":{"ID":294873,"DIS_CODE":0,"TOWNNAME":"北區","LI":"重興里","LIN":"17鄰","STREET":"林森路","SECT":"三段","MAREA":" ","LANE":"１４０巷","ALLEY":" ","HOUSE_NO":"９號六樓","E_COORD97":170603.51999999999,"N_COORD97":2544995.6299999999,"ADDRESS":"林森路三段１４０巷９號六樓","OBJECTID":294865},"geometry":{"x":170603.52000000048,"y":2544995.6300000008}},{"attributes":{"ID":294874,"DIS_CODE":0,"TOWNNAME":"北區","LI":"重興里","LIN":"17鄰","STREET":"林森路","SECT":"三段","MAREA":" ","LANE":"１４０巷","ALLEY":" ","HOUSE_NO":"９號四樓","E_COORD97":170603.51999999999,"N_COORD97":2544995.6299999999,"ADDRESS":"林森路三段１４０巷９號四樓","OBJECTID":294866},"geometry":{"x":170603.52000000048,"y":2544995.6300000008}},{"attributes":{"ID":294875,"DIS_CODE":0,"TOWNNAME":"北區","LI":"大豐里","LIN":"17鄰","STREET":"和緯路","SECT":"四段","MAREA":" ","LANE":"９５巷","ALLEY":" ","HOUSE_NO":"１０號二樓","E_COORD97":167106.38,"N_COORD97":2545448.3100000001,"ADDRESS":"和緯路四段９５巷１０號二樓","OBJECTID":294867},"geometry":{"x":167106.37999999989,"y":2545448.3100000024}},{"attributes":{"ID":294876,"DIS_CODE":0,"TOWNNAME":"北區","LI":"大豐里","LIN":"17鄰","STREET":"和緯路","SECT":"四段","MAREA":" ","LANE":"９５巷","ALLEY":" ","HOUSE_NO":"１０號三樓","E_COORD97":167106.38,"N_COORD97":2545448.3100000001,"ADDRESS":"和緯路四段９５巷１０號三樓","OBJECTID":294868},"geometry":{"x":167106.37999999989,"y":2545448.3100000024}},{"attributes":{"ID":294877,"DIS_CODE":0,"TOWNNAME":"北區","LI":"大豐里","LIN":"17鄰","STREET":"和緯路","SECT":"四段","MAREA":" ","LANE":"９５巷","ALLEY":" ","HOUSE_NO":"１０號五樓","E_COORD97":167106.38,"N_COORD97":2545448.3100000001,"ADDRESS":"和緯路四段９５巷１０號五樓","OBJECTID":294869},"geometry":{"x":167106.37999999989,"y":2545448.3100000024}},{"attributes":{"ID":294878,"DIS_CODE":0,"TOWNNAME":"北區","LI":"大豐里","LIN":"17鄰","STREET":"和緯路","SECT":"四段","MAREA":" ","LANE":"９５巷","ALLEY":" ","HOUSE_NO":"１０號四樓","E_COORD97":167106.38,"N_COORD97":2545448.3100000001,"ADDRESS":"和緯路四段９５巷１０號四樓","OBJECTID":294870},"geometry":{"x":167106.37999999989,"y":2545448.3100000024}},{"attributes":{"ID":294879,"DIS_CODE":0,"TOWNNAME":"安平區","LI":"億載里","LIN":"14鄰","STREET":"平豐路","SECT":" ","MAREA":" ","LANE":" ","ALLEY":" ","HOUSE_NO":"９３號","E_COORD97":164308.56,"N_COORD97":2543235.8799999999,"ADDRESS":"平豐路９３號","OBJECTID":294871},"geometry":{"x":164308.56000000145,"y":2543235.879999999}},{"attributes":{"ID":294880,"DIS_CODE":0,"TOWNNAME":"安平區","LI":"金城里","LIN":"14鄰","STREET":"州平二街","SECT":" ","MAREA":" ","LANE":" ","ALLEY":" ","HOUSE_NO":"１３號","E_COORD97":163014.45999999999,"N_COORD97":2544093.04,"ADDRESS":"州平二街１３號","OBJECTID":294872},"geometry":{"x":163014.46000000183,"y":2544093.0399999991}},{"attributes":{"ID":294881,"DIS_CODE":0,"TOWNNAME":"安平區","LI":"金城里","LIN":"14鄰","STREET":"州平二街","SECT":" ","MAREA":" ","LANE":" ","ALLEY":" ","HOUSE_NO":"１５號","E_COORD97":163012.17999999999,"N_COORD97":2544098.1000000001,"ADDRESS":"州平二街１５號","OBJECTID":294873},"geometry":{"x":163012.1799999997,"y":2544098.1000000015}},{"attributes":{"ID":294882,"DIS_CODE":0,"TOWNNAME":"安平區","LI":"金城里","LIN":"14鄰","STREET":"州平二街","SECT":" ","MAREA":" ","LANE":" ","ALLEY":" ","HOUSE_NO":"１７號","E_COORD97":163010.14999999999,"N_COORD97":2544102.9100000001,"ADDRESS":"州平二街１７號","OBJECTID":294874},"geometry":{"x":163010.15000000224,"y":2544102.9100000039}},{"attributes":{"ID":294883,"DIS_CODE":0,"TOWNNAME":"安平區","LI":"金城里","LIN":"14鄰","STREET":"州平二街","SECT":" ","MAREA":" ","LANE":" ","ALLEY":" ","HOUSE_NO":"１９號","E_COORD97":163009.39999999999,"N_COORD97":2544107.21,"ADDRESS":"州平二街１９號","OBJECTID":294875},"geometry":{"x":163009.40000000037,"y":2544107.2100000009}},{"attributes":{"ID":294884,"DIS_CODE":0,"TOWNNAME":"安平區","LI":"建平里","LIN":"14鄰","STREET":"建平十三街","SECT":" ","MAREA":" ","LANE":" ","ALLEY":" ","HOUSE_NO":"９０號","E_COORD97":166060.16,"N_COORD97":2544039.6099999999,"ADDRESS":"建平十三街９０號","OBJECTID":294876},"geometry":{"x":166060.16000000108,"y":2544039.6099999975}},{"attributes":{"ID":294885,"DIS_CODE":0,"TOWNNAME":"安平區","LI":"金城里","LIN":"14鄰","STREET":"世平一街","SECT":" ","MAREA":" ","LANE":" ","ALLEY":" ","HOUSE_NO":"１２號","E_COORD97":162981.07999999999,"N_COORD97":2544036.29,"ADDRESS":"世平一街１２號","OBJECTID":294877},"geometry":{"x":162981.08000000007,"y":2544036.290000001}},{"attributes":{"ID":294886,"DIS_CODE":0,"TOWNNAME":"安平區","LI":"金城里","LIN":"14鄰","STREET":"世平一街","SECT":" ","MAREA":" ","LANE":" ","ALLEY":" ","HOUSE_NO":"１６號","E_COORD97":162977.79000000001,"N_COORD97":2544035.1200000001,"ADDRESS":"世平一街１６號","OBJECTID":294878},"geometry":{"x":162977.79000000004,"y":2544035.1200000029}},{"attributes":{"ID":294887,"DIS_CODE":0,"TOWNNAME":"安平區","LI":"金城里","LIN":"14鄰","STREET":"世平一街","SECT":" ","MAREA":" ","LANE":" ","ALLEY":" ","HOUSE_NO":"１８號","E_COORD97":162971.64000000001,"N_COORD97":2544034.2599999998,"ADDRESS":"世平一街１８號","OBJECTID":294879},"geometry":{"x":162971.63999999966,"y":2544034.2599999998}},{"attributes":{"ID":294888,"DIS_CODE":0,"TOWNNAME":"安平區","LI":"金城里","LIN":"14鄰","STREET":"世平一街","SECT":" ","MAREA":" ","LANE":" ","ALLEY":" ","HOUSE_NO":"２０號","E_COORD97":162968.45999999999,"N_COORD97":2544031.25,"ADDRESS":"世平一街２０號","OBJECTID":294880},"geometry":{"x":162968.45999999996,"y":2544031.25}},{"attributes":{"ID":294889,"DIS_CODE":0,"TOWNNAME":"永康區","LI":"南灣里","LIN":"39鄰","STREET":"南灣街","SECT":" ","MAREA":" ","LANE":"１２０巷","ALLEY":" ","HOUSE_NO":"２號","E_COORD97":174379.51000000001,"N_COORD97":2545023.2400000002,"ADDRESS":"南灣街１２０巷２號","OBJECTID":294881},"geometry":{"x":174379.50999999978,"y":2545023.2400000039}},{"attributes":{"ID":294890,"DIS_CODE":0,"TOWNNAME":"永康區","LI":"建國里","LIN":"25鄰","STREET":" ","SECT":" ","MAREA":"慈光九村","LANE":" ","ALLEY":" ","HOUSE_NO":"７號","E_COORD97":172814.59,"N_COORD97":2544274.5,"ADDRESS":"慈光九村７號","OBJECTID":294882},"geometry":{"x":172814.58999999985,"y":2544274.5}},{"attributes":{"ID":294891,"DIS_CODE":0,"TOWNNAME":"永康區","LI":"東灣里","LIN":"13鄰","STREET":"大灣路","SECT":" ","MAREA":" ","LANE":"３４１巷","ALLEY":" ","HOUSE_NO":"５號","E_COORD97":174811.29000000001,"N_COORD97":2544923.9900000002,"ADDRESS":"大灣路３４１巷５號","OBJECTID":294883},"geometry":{"x":174811.29000000097,"y":2544923.9900000021}},{"attributes":{"ID":294892,"DIS_CODE":0,"TOWNNAME":"永康區","LI":"東灣里","LIN":"18鄰","STREET":"大灣三街","SECT":" ","MAREA":" ","LANE":"２１巷","ALLEY":" ","HOUSE_NO":"４６號","E_COORD97":175008.89000000001,"N_COORD97":2544825.6499999999,"ADDRESS":"大灣三街２１巷４６號","OBJECTID":294884},"geometry":{"x":175008.88999999966,"y":2544825.6500000004}},{"attributes":{"ID":294893,"DIS_CODE":0,"TOWNNAME":"永康區","LI":"東灣里","LIN":"26鄰","STREET":"大灣一街","SECT":" ","MAREA":" ","LANE":"２４２巷","ALLEY":" ","HOUSE_NO":"１６號","E_COORD97":174921.98000000001,"N_COORD97":2544584.8399999999,"ADDRESS":"大灣一街２４２巷１６號","OBJECTID":294885},"geometry":{"x":174921.98000000138,"y":2544584.8400000036}},{"attributes":{"ID":294894,"DIS_CODE":0,"TOWNNAME":"永康區","LI":"東灣里","LIN":"4鄰","STREET":"大灣路","SECT":" ","MAREA":" ","LANE":"４３６巷","ALLEY":" ","HOUSE_NO":"６２號","E_COORD97":174649.32000000001,"N_COORD97":2545020.9900000002,"ADDRESS":"大灣路４３６巷６２號","OBJECTID":294886},"geometry":{"x":174649.3200000003,"y":2545020.9900000002}},{"attributes":{"ID":294895,"DIS_CODE":0,"TOWNNAME":"永康區","LI":"東橋里","LIN":"25鄰","STREET":"中正路","SECT":" ","MAREA":" ","LANE":"３５４巷","ALLEY":" ","HOUSE_NO":"３８號","E_COORD97":172920.54000000001,"N_COORD97":2548128.9900000002,"ADDRESS":"中正路３５４巷３８號","OBJECTID":294887},"geometry":{"x":172920.53999999911,"y":2548128.9900000002}},{"attributes":{"ID":294896,"DIS_CODE":0,"TOWNNAME":"永康區","LI":"南灣里","LIN":"20鄰","STREET":"大灣路","SECT":" ","MAREA":" ","LANE":"７６４巷","ALLEY":" ","HOUSE_NO":"３６號","E_COORD97":174204.42999999999,"N_COORD97":2544602.7400000002,"ADDRESS":"大灣路７６４巷３６號","OBJECTID":294888},"geometry":{"x":174204.43000000063,"y":2544602.7400000039}},{"attributes":{"ID":294897,"DIS_CODE":0,"TOWNNAME":"永康區","LI":"南灣里","LIN":"20鄰","STREET":"大灣路","SECT":" ","MAREA":" ","LANE":"７６４巷","ALLEY":" ","HOUSE_NO":"６８號","E_COORD97":174235.31,"N_COORD97":2544691.2799999998,"ADDRESS":"大灣路７６４巷６８號","OBJECTID":294889},"geometry":{"x":174235.30999999959,"y":2544691.2799999993}},{"attributes":{"ID":294898,"DIS_CODE":0,"TOWNNAME":"永康區","LI":"南灣里","LIN":"39鄰","STREET":"南灣街","SECT":" ","MAREA":" ","LANE":"１００巷","ALLEY":" ","HOUSE_NO":"２５號","E_COORD97":174425.14000000001,"N_COORD97":2545043.7400000002,"ADDRESS":"南灣街１００巷２５號","OBJECTID":294890},"geometry":{"x":174425.1400000006,"y":2545043.7400000021}},{"attributes":{"ID":294899,"DIS_CODE":0,"TOWNNAME":"永康區","LI":"南灣里","LIN":"40鄰","STREET":"南灣街","SECT":" ","MAREA":" ","LANE":"１２０巷","ALLEY":" ","HOUSE_NO":"９號","E_COORD97":174363.10000000001,"N_COORD97":2545049.7400000002,"ADDRESS":"南灣街１２０巷９號","OBJECTID":294891},"geometry":{"x":174363.10000000056,"y":2545049.7400000002}},{"attributes":{"ID":294900,"DIS_CODE":0,"TOWNNAME":"永康區","LI":"南灣里","LIN":"34鄰","STREET":"南灣街","SECT":" ","MAREA":" ","LANE":"９９巷","ALLEY":" ","HOUSE_NO":"１１號","E_COORD97":174325.07999999999,"N_COORD97":2544911.21,"ADDRESS":"南灣街９９巷１１號","OBJECTID":294892},"geometry":{"x":174325.08000000007,"y":2544911.2100000009}},{"attributes":{"ID":294901,"DIS_CODE":0,"TOWNNAME":"永康區","LI":"東灣里","LIN":"4鄰","STREET":"大灣路","SECT":" ","MAREA":" ","LANE":"４３６巷","ALLEY":" ","HOUSE_NO":"５６號","E_COORD97":174637.16,"N_COORD97":2544974.7599999998,"ADDRESS":"大灣路４３６巷５６號","OBJECTID":294893},"geometry":{"x":174637.16000000201,"y":2544974.7599999979}},{"attributes":{"ID":294902,"DIS_CODE":0,"TOWNNAME":"北區","LI":"大豐里","LIN":"17鄰","STREET":"和緯路","SECT":"四段","MAREA":" ","LANE":"９５巷","ALLEY":" ","HOUSE_NO":"１２號二樓","E_COORD97":167105.67999999999,"N_COORD97":2545444.8100000001,"ADDRESS":"和緯路四段９５巷１２號二樓","OBJECTID":294894},"geometry":{"x":167105.6799999997,"y":2545444.8100000024}},{"attributes":{"ID":294903,"DIS_CODE":0,"TOWNNAME":"北區","LI":"大豐里","LIN":"17鄰","STREET":"和緯路","SECT":"四段","MAREA":" ","LANE":"９５巷","ALLEY":" ","HOUSE_NO":"１２號三樓","E_COORD97":167105.67999999999,"N_COORD97":2545444.8100000001,"ADDRESS":"和緯路四段９５巷１２號三樓","OBJECTID":294895},"geometry":{"x":167105.6799999997,"y":2545444.8100000024}},{"attributes":{"ID":294904,"DIS_CODE":0,"TOWNNAME":"北區","LI":"大豐里","LIN":"17鄰","STREET":"和緯路","SECT":"四段","MAREA":" ","LANE":"９５巷","ALLEY":" ","HOUSE_NO":"１２號五樓","E_COORD97":167105.67999999999,"N_COORD97":2545444.8100000001,"ADDRESS":"和緯路四段９５巷１２號五樓","OBJECTID":294896},"geometry":{"x":167105.6799999997,"y":2545444.8100000024}},{"attributes":{"ID":294905,"DIS_CODE":0,"TOWNNAME":"北區","LI":"大豐里","LIN":"17鄰","STREET":"和緯路","SECT":"四段","MAREA":" ","LANE":"９５巷","ALLEY":" ","HOUSE_NO":"１２號四樓","E_COORD97":167105.67999999999,"N_COORD97":2545444.8100000001,"ADDRESS":"和緯路四段９５巷１２號四樓","OBJECTID":294897},"geometry":{"x":167105.6799999997,"y":2545444.8100000024}},{"attributes":{"ID":294906,"DIS_CODE":0,"TOWNNAME":"安平區","LI":"金城里","LIN":"14鄰","STREET":"世平一街","SECT":" ","MAREA":" ","LANE":" ","ALLEY":" ","HOUSE_NO":"２２號","E_COORD97":162962.91,"N_COORD97":2544030.4500000002,"ADDRESS":"世平一街２２號","OBJECTID":294898},"geometry":{"x":162962.91000000108,"y":2544030.450000003}},{"attributes":{"ID":294907,"DIS_CODE":0,"TOWNNAME":"安平區","LI":"金城里","LIN":"14鄰","STREET":"世平一街","SECT":" ","MAREA":" ","LANE":" ","ALLEY":" ","HOUSE_NO":"２６號","E_COORD97":162957.82999999999,"N_COORD97":2544027.9100000001,"ADDRESS":"世平一街２６號","OBJECTID":294899},"geometry":{"x":162957.83000000194,"y":2544027.9100000001}},{"attributes":{"ID":294908,"DIS_CODE":0,"TOWNNAME":"安平區","LI":"金城里","LIN":"14鄰","STREET":"世平一街","SECT":" ","MAREA":" ","LANE":" ","ALLEY":" ","HOUSE_NO":"２８號","E_COORD97":162953.22,"N_COORD97":2544027.2799999998,"ADDRESS":"世平一街２８號","OBJECTID":294900},"geometry":{"x":162953.22000000067,"y":2544027.2799999993}},{"attributes":{"ID":294909,"DIS_CODE":0,"TOWNNAME":"安平區","LI":"金城里","LIN":"14鄰","STREET":"世平一街","SECT":" ","MAREA":" ","LANE":" ","ALLEY":" ","HOUSE_NO":"３０號","E_COORD97":162947.82999999999,"N_COORD97":2544025.0600000001,"ADDRESS":"世平一街３０號","OBJECTID":294901},"geometry":{"x":162947.83000000101,"y":2544025.0600000024}},{"attributes":{"ID":294910,"DIS_CODE":0,"TOWNNAME":"安平區","LI":"石門里","LIN":"14鄰","STREET":"延平街","SECT":" ","MAREA":" ","LANE":" ","ALLEY":" ","HOUSE_NO":"５０之２號","E_COORD97":164256.75,"N_COORD97":2544583.3700000001,"ADDRESS":"延平街５０之２號","OBJECTID":294902},"geometry":{"x":164256.75000000186,"y":2544583.3700000029}},{"attributes":{"ID":294911,"DIS_CODE":0,"TOWNNAME":"南區","LI":"文華里","LIN":"14鄰","STREET":"文南路","SECT":" ","MAREA":" ","LANE":" ","ALLEY":" ","HOUSE_NO":"３１０號","E_COORD97":166978.34,"N_COORD97":2543080.3399999999,"ADDRESS":"文南路３１０號","OBJECTID":294903},"geometry":{"x":166978.33999999892,"y":2543080.3400000017}},{"attributes":{"ID":294912,"DIS_CODE":0,"TOWNNAME":"南區","LI":"文華里","LIN":"14鄰","STREET":"文南路","SECT":" ","MAREA":" ","LANE":" ","ALLEY":" ","HOUSE_NO":"３１２號","E_COORD97":166978.41,"N_COORD97":2543084.2599999998,"ADDRESS":"文南路３１２號","OBJECTID":294904},"geometry":{"x":166978.41000000201,"y":2543084.2600000016}},{"attributes":{"ID":294913,"DIS_CODE":0,"TOWNNAME":"南區","LI":"文華里","LIN":"14鄰","STREET":"文南路","SECT":" ","MAREA":" ","LANE":" ","ALLEY":" ","HOUSE_NO":"３１４號","E_COORD97":166978.59,"N_COORD97":2543088.7400000002,"ADDRESS":"文南路３１４號","OBJECTID":294905},"geometry":{"x":166978.59000000078,"y":2543088.7400000021}},{"attributes":{"ID":294914,"DIS_CODE":0,"TOWNNAME":"南區","LI":"文華里","LIN":"14鄰","STREET":"文南路","SECT":" ","MAREA":" ","LANE":" ","ALLEY":" ","HOUSE_NO":"３１６號","E_COORD97":166979.13,"N_COORD97":2543093.9500000002,"ADDRESS":"文南路３１６號","OBJECTID":294906},"geometry":{"x":166979.12999999989,"y":2543093.9499999993}},{"attributes":{"ID":294915,"DIS_CODE":0,"TOWNNAME":"南區","LI":"文華里","LIN":"14鄰","STREET":"美南街","SECT":" ","MAREA":" ","LANE":" ","ALLEY":" ","HOUSE_NO":"２３號","E_COORD97":167052.06,"N_COORD97":2543090.27,"ADDRESS":"美南街２３號","OBJECTID":294907},"geometry":{"x":167052.06000000052,"y":2543090.2700000014}},{"attributes":{"ID":294916,"DIS_CODE":0,"TOWNNAME":"南區","LI":"文華里","LIN":"14鄰","STREET":"美南街","SECT":" ","MAREA":" ","LANE":" ","ALLEY":" ","HOUSE_NO":"３１號","E_COORD97":167034.54999999999,"N_COORD97":2543092.0600000001,"ADDRESS":"美南街３１號","OBJECTID":294908},"geometry":{"x":167034.55000000168,"y":2543092.0600000042}},{"attributes":{"ID":294917,"DIS_CODE":0,"TOWNNAME":"南區","LI":"文華里","LIN":"14鄰","STREET":"美南街","SECT":" ","MAREA":" ","LANE":" ","ALLEY":" ","HOUSE_NO":"３３號","E_COORD97":167030.51000000001,"N_COORD97":2543091.9700000002,"ADDRESS":"美南街３３號","OBJECTID":294909},"geometry":{"x":167030.51000000071,"y":2543091.9700000007}},{"attributes":{"ID":294918,"DIS_CODE":0,"TOWNNAME":"南區","LI":"文華里","LIN":"14鄰","STREET":"美南街","SECT":" ","MAREA":" ","LANE":" ","ALLEY":" ","HOUSE_NO":"３５號","E_COORD97":167026.45999999999,"N_COORD97":2543092.8700000001,"ADDRESS":"美南街３５號","OBJECTID":294910},"geometry":{"x":167026.45999999996,"y":2543092.870000001}},{"attributes":{"ID":294919,"DIS_CODE":0,"TOWNNAME":"永康區","LI":"南灣里","LIN":"41鄰","STREET":"南興路","SECT":" ","MAREA":" ","LANE":"１１２巷","ALLEY":" ","HOUSE_NO":"１００號","E_COORD97":174656.35999999999,"N_COORD97":2544553,"ADDRESS":"南興路１１２巷１００號","OBJECTID":294911},"geometry":{"x":174656.3600000022,"y":2544552.9999999981}},{"attributes":{"ID":294920,"DIS_CODE":0,"TOWNNAME":"永康區","LI":"建國里","LIN":"25鄰","STREET":" ","SECT":" ","MAREA":"慈光九村","LANE":" ","ALLEY":" ","HOUSE_NO":"４號","E_COORD97":172840.73999999999,"N_COORD97":2544272.25,"ADDRESS":"慈光九村４號","OBJECTID":294912},"geometry":{"x":172840.74000000022,"y":2544272.25}},{"attributes":{"ID":294921,"DIS_CODE":0,"TOWNNAME":"永康區","LI":"東橋里","LIN":"13鄰","STREET":"中山南路","SECT":" ","MAREA":" ","LANE":"２３１巷","ALLEY":" ","HOUSE_NO":"１８號地下室之７","E_COORD97":171615.45999999999,"N_COORD97":2546285.8799999999,"ADDRESS":"中山南路２３１巷１８號地下室之７","OBJECTID":294913},"geometry":{"x":171615.45999999996,"y":2546285.8800000008}},{"attributes":{"ID":294922,"DIS_CODE":0,"TOWNNAME":"永康區","LI":"東橋里","LIN":"25鄰","STREET":"中正路","SECT":" ","MAREA":" ","LANE":"２１７巷","ALLEY":" ","HOUSE_NO":"１５號","E_COORD97":173020.79000000001,"N_COORD97":2547805.7799999998,"ADDRESS":"中正路２１７巷１５號","OBJECTID":294914},"geometry":{"x":173020.79000000097,"y":2547805.7800000012}},{"attributes":{"ID":294923,"DIS_CODE":0,"TOWNNAME":"永康區","LI":"南灣里","LIN":"43鄰","STREET":"南興路","SECT":" ","MAREA":" ","LANE":"１１２巷","ALLEY":" ","HOUSE_NO":"１８號","E_COORD97":174426.60000000001,"N_COORD97":2544466.4399999999,"ADDRESS":"南興路１１２巷１８號","OBJECTID":294915},"geometry":{"x":174426.59999999963,"y":2544466.4400000013}},{"attributes":{"ID":294924,"DIS_CODE":0,"TOWNNAME":"永康區","LI":"南灣里","LIN":"41鄰","STREET":"南興路","SECT":" ","MAREA":" ","LANE":"１１２巷","ALLEY":" ","HOUSE_NO":"８８號","E_COORD97":174624.76999999999,"N_COORD97":2544542.3799999999,"ADDRESS":"南興路１１２巷８８號","OBJECTID":294916},"geometry":{"x":174624.76999999955,"y":2544542.379999999}},{"attributes":{"ID":294925,"DIS_CODE":0,"TOWNNAME":"永康區","LI":"南灣里","LIN":"26鄰","STREET":"立興街","SECT":" ","MAREA":" ","LANE":"７４巷","ALLEY":" ","HOUSE_NO":"３６號","E_COORD97":174503.07999999999,"N_COORD97":2544852.3999999999,"ADDRESS":"立興街７４巷３６號","OBJECTID":294917},"geometry":{"x":174503.08000000007,"y":2544852.3999999985}},{"attributes":{"ID":294926,"DIS_CODE":0,"TOWNNAME":"北區","LI":"大豐里","LIN":"17鄰","STREET":"和緯路","SECT":"四段","MAREA":" ","LANE":"９５巷","ALLEY":" ","HOUSE_NO":"１４號二樓","E_COORD97":167104.97,"N_COORD97":2545435.3900000001,"ADDRESS":"和緯路四段９５巷１４號二樓","OBJECTID":294918},"geometry":{"x":167104.97000000067,"y":2545435.3900000006}},{"attributes":{"ID":294927,"DIS_CODE":0,"TOWNNAME":"北區","LI":"大豐里","LIN":"17鄰","STREET":"和緯路","SECT":"四段","MAREA":" ","LANE":"９５巷","ALLEY":" ","HOUSE_NO":"１４號三樓","E_COORD97":167104.97,"N_COORD97":2545435.3900000001,"ADDRESS":"和緯路四段９５巷１４號三樓","OBJECTID":294919},"geometry":{"x":167104.97000000067,"y":2545435.3900000006}},{"attributes":{"ID":294928,"DIS_CODE":0,"TOWNNAME":"北區","LI":"大豐里","LIN":"17鄰","STREET":"和緯路","SECT":"四段","MAREA":" ","LANE":"９５巷","ALLEY":" ","HOUSE_NO":"１８號四樓","E_COORD97":167104.01000000001,"N_COORD97":2545422.3999999999,"ADDRESS":"和緯路四段９５巷１８號四樓","OBJECTID":294920},"geometry":{"x":167104.00999999978,"y":2545422.4000000041}},{"attributes":{"ID":294929,"DIS_CODE":0,"TOWNNAME":"北區","LI":"大豐里","LIN":"17鄰","STREET":"和緯路","SECT":"四段","MAREA":" ","LANE":"９５巷","ALLEY":" ","HOUSE_NO":"２０號二樓","E_COORD97":167103.22,"N_COORD97":2545418.1000000001,"ADDRESS":"和緯路四段９５巷２０號二樓","OBJECTID":294921},"geometry":{"x":167103.22000000067,"y":2545418.1000000015}},{"attributes":{"ID":294930,"DIS_CODE":0,"TOWNNAME":"北區","LI":"大豐里","LIN":"17鄰","STREET":"和緯路","SECT":"四段","MAREA":" ","LANE":"９５巷","ALLEY":" ","HOUSE_NO":"２０號三樓","E_COORD97":167103.22,"N_COORD97":2545418.1000000001,"ADDRESS":"和緯路四段９５巷２０號三樓","OBJECTID":294922},"geometry":{"x":167103.22000000067,"y":2545418.1000000015}},{"attributes":{"ID":294931,"DIS_CODE":0,"TOWNNAME":"七股區","LI":"三股里","LIN":"4鄰","STREET":" ","SECT":" ","MAREA":"三股","LANE":" ","ALLEY":" ","HOUSE_NO":"４２號","E_COORD97":159706.09,"N_COORD97":2555585.0099999998,"ADDRESS":"三股４２號","OBJECTID":294923},"geometry":{"x":159706.09000000171,"y":2555585.0100000035}},{"attributes":{"ID":294932,"DIS_CODE":0,"TOWNNAME":"北區","LI":"大豐里","LIN":"17鄰","STREET":"和緯路","SECT":"四段","MAREA":" ","LANE":"９５巷","ALLEY":" ","HOUSE_NO":"２０號五樓","E_COORD97":167103.22,"N_COORD97":2545418.1000000001,"ADDRESS":"和緯路四段９５巷２０號五樓","OBJECTID":294924},"geometry":{"x":167103.22000000067,"y":2545418.1000000015}},{"attributes":{"ID":294933,"DIS_CODE":0,"TOWNNAME":"北區","LI":"大豐里","LIN":"17鄰","STREET":"和緯路","SECT":"四段","MAREA":" ","LANE":"９５巷","ALLEY":" ","HOUSE_NO":"２０號四樓","E_COORD97":167103.22,"N_COORD97":2545418.1000000001,"ADDRESS":"和緯路四段９５巷２０號四樓","OBJECTID":294925},"geometry":{"x":167103.22000000067,"y":2545418.1000000015}},{"attributes":{"ID":294934,"DIS_CODE":0,"TOWNNAME":"北區","LI":"大豐里","LIN":"17鄰","STREET":"和緯路","SECT":"四段","MAREA":" ","LANE":"９５巷","ALLEY":" ","HOUSE_NO":"４號二樓","E_COORD97":167109.28,"N_COORD97":2545467.8999999999,"ADDRESS":"和緯路四段９５巷４號二樓","OBJECTID":294926},"geometry":{"x":167109.28000000026,"y":2545467.9000000022}},{"attributes":{"ID":294935,"DIS_CODE":0,"TOWNNAME":"北區","LI":"大豐里","LIN":"17鄰","STREET":"和緯路","SECT":"四段","MAREA":" ","LANE":"９５巷","ALLEY":" ","HOUSE_NO":"４號三樓","E_COORD97":167109.28,"N_COORD97":2545467.8999999999,"ADDRESS":"和緯路四段９５巷４號三樓","OBJECTID":294927},"geometry":{"x":167109.28000000026,"y":2545467.9000000022}},{"attributes":{"ID":294936,"DIS_CODE":0,"TOWNNAME":"北區","LI":"大豐里","LIN":"17鄰","STREET":"和緯路","SECT":"四段","MAREA":" ","LANE":"９５巷","ALLEY":" ","HOUSE_NO":"４號四樓","E_COORD97":167109.28,"N_COORD97":2545467.8999999999,"ADDRESS":"和緯路四段９５巷４號四樓","OBJECTID":294928},"geometry":{"x":167109.28000000026,"y":2545467.9000000022}},{"attributes":{"ID":294937,"DIS_CODE":0,"TOWNNAME":"南區","LI":"文華里","LIN":"14鄰","STREET":"美南街","SECT":" ","MAREA":" ","LANE":" ","ALLEY":" ","HOUSE_NO":"３７號","E_COORD97":167021.97,"N_COORD97":2543092.6899999999,"ADDRESS":"美南街３７號","OBJECTID":294929},"geometry":{"x":167021.97000000067,"y":2543092.6899999995}},{"attributes":{"ID":294938,"DIS_CODE":0,"TOWNNAME":"南區","LI":"文華里","LIN":"14鄰","STREET":"美南街","SECT":" ","MAREA":" ","LANE":" ","ALLEY":" ","HOUSE_NO":"３９號","E_COORD97":167018.01999999999,"N_COORD97":2543093.4100000001,"ADDRESS":"美南街３９號","OBJECTID":294930},"geometry":{"x":167018.02000000048,"y":2543093.410000002}},{"attributes":{"ID":294939,"DIS_CODE":0,"TOWNNAME":"南區","LI":"文華里","LIN":"14鄰","STREET":"美南街","SECT":" ","MAREA":" ","LANE":" ","ALLEY":" ","HOUSE_NO":"４１號","E_COORD97":167013.26000000001,"N_COORD97":2543093.8599999999,"ADDRESS":"美南街４１號","OBJECTID":294931},"geometry":{"x":167013.26000000071,"y":2543093.8600000013}},{"attributes":{"ID":294940,"DIS_CODE":0,"TOWNNAME":"南區","LI":"文華里","LIN":"14鄰","STREET":"美南街","SECT":" ","MAREA":" ","LANE":" ","ALLEY":" ","HOUSE_NO":"４３號","E_COORD97":167009.04000000001,"N_COORD97":2543094.2200000002,"ADDRESS":"美南街４３號","OBJECTID":294932},"geometry":{"x":167009.04000000004,"y":2543094.2200000007}},{"attributes":{"ID":294941,"DIS_CODE":0,"TOWNNAME":"南區","LI":"文華里","LIN":"14鄰","STREET":"美南街","SECT":" ","MAREA":" ","LANE":" ","ALLEY":" ","HOUSE_NO":"４５號","E_COORD97":167005.26999999999,"N_COORD97":2543094.4900000002,"ADDRESS":"美南街４５號","OBJECTID":294933},"geometry":{"x":167005.26999999955,"y":2543094.4900000002}},{"attributes":{"ID":294942,"DIS_CODE":0,"TOWNNAME":"南區","LI":"文華里","LIN":"14鄰","STREET":"美南街","SECT":" ","MAREA":" ","LANE":" ","ALLEY":" ","HOUSE_NO":"４７號","E_COORD97":167000.69,"N_COORD97":2543095.2000000002,"ADDRESS":"美南街４７號","OBJECTID":294934},"geometry":{"x":167000.69000000134,"y":2543095.1999999993}},{"attributes":{"ID":294943,"DIS_CODE":0,"TOWNNAME":"南區","LI":"文華里","LIN":"14鄰","STREET":"美南街","SECT":" ","MAREA":" ","LANE":" ","ALLEY":" ","HOUSE_NO":"４９號","E_COORD97":166996.54999999999,"N_COORD97":2543095.2000000002,"ADDRESS":"美南街４９號","OBJECTID":294935},"geometry":{"x":166996.54999999981,"y":2543095.1999999993}},{"attributes":{"ID":294944,"DIS_CODE":0,"TOWNNAME":"永康區","LI":"東灣里","LIN":"4鄰","STREET":"大灣路","SECT":" ","MAREA":" ","LANE":"４３６巷","ALLEY":" ","HOUSE_NO":"３６號","E_COORD97":174687.48000000001,"N_COORD97":2544960.96,"ADDRESS":"大灣路４３６巷３６號","OBJECTID":294936},"geometry":{"x":174687.48000000045,"y":2544960.959999999}},{"attributes":{"ID":294945,"DIS_CODE":0,"TOWNNAME":"永康區","LI":"建國里","LIN":"26鄰","STREET":" ","SECT":" ","MAREA":"慈光九村","LANE":" ","ALLEY":" ","HOUSE_NO":"１３號","E_COORD97":172804.62,"N_COORD97":2544263.75,"ADDRESS":"慈光九村１３號","OBJECTID":294937},"geometry":{"x":172804.62000000011,"y":2544263.7500000019}},{"attributes":{"ID":294946,"DIS_CODE":0,"TOWNNAME":"永康區","LI":"南灣里","LIN":"18鄰","STREET":"立興街","SECT":" ","MAREA":" ","LANE":"１７６巷","ALLEY":" ","HOUSE_NO":"６號","E_COORD97":174325.29000000001,"N_COORD97":2544640.0299999998,"ADDRESS":"立興街１７６巷６號","OBJECTID":294938},"geometry":{"x":174325.29000000004,"y":2544640.0299999993}},{"attributes":{"ID":294947,"DIS_CODE":0,"TOWNNAME":"永康區","LI":"南灣里","LIN":"20鄰","STREET":"立興街","SECT":" ","MAREA":" ","LANE":"１７６巷","ALLEY":" ","HOUSE_NO":"９號","E_COORD97":174296.57000000001,"N_COORD97":2544632.96,"ADDRESS":"立興街１７６巷９號","OBJECTID":294939},"geometry":{"x":174296.5700000003,"y":2544632.9600000028}},{"attributes":{"ID":294948,"DIS_CODE":0,"TOWNNAME":"永康區","LI":"東灣里","LIN":"26鄰","STREET":"大灣一街","SECT":" ","MAREA":" ","LANE":"２９２巷","ALLEY":" ","HOUSE_NO":"４２號","E_COORD97":175062.19,"N_COORD97":2544633.0099999998,"ADDRESS":"大灣一街２９２巷４２號","OBJECTID":294940},"geometry":{"x":175062.19000000041,"y":2544633.0099999998}},{"attributes":{"ID":294949,"DIS_CODE":0,"TOWNNAME":"永康區","LI":"東灣里","LIN":"26鄰","STREET":"大灣一街","SECT":" ","MAREA":" ","LANE":"２４２巷","ALLEY":" ","HOUSE_NO":"１２號","E_COORD97":174926.78,"N_COORD97":2544587.0899999999,"ADDRESS":"大灣一街２４２巷１２號","OBJECTID":294941},"geometry":{"x":174926.78000000119,"y":2544587.0900000017}},{"attributes":{"ID":294950,"DIS_CODE":0,"TOWNNAME":"永康區","LI":"埔園里","LIN":"39鄰","STREET":"聖龍街","SECT":" ","MAREA":" ","LANE":"１７９巷","ALLEY":" ","HOUSE_NO":"２２號","E_COORD97":174331.87,"N_COORD97":2547885.75,"ADDRESS":"聖龍街１７９巷２２號","OBJECTID":294942},"geometry":{"x":174331.87000000011,"y":2547885.7500000019}},{"attributes":{"ID":294951,"DIS_CODE":0,"TOWNNAME":"北區","LI":"大豐里","LIN":"17鄰","STREET":"和緯路","SECT":"四段","MAREA":" ","LANE":"９５巷","ALLEY":" ","HOUSE_NO":"６號二樓","E_COORD97":167108.48999999999,"N_COORD97":2545461.23,"ADDRESS":"和緯路四段９５巷６號二樓","OBJECTID":294943},"geometry":{"x":167108.49000000115,"y":2545461.2300000023}},{"attributes":{"ID":294952,"DIS_CODE":0,"TOWNNAME":"北區","LI":"大豐里","LIN":"17鄰","STREET":"和緯路","SECT":"四段","MAREA":" ","LANE":"９５巷","ALLEY":" ","HOUSE_NO":"６號三樓","E_COORD97":167108.48999999999,"N_COORD97":2545461.23,"ADDRESS":"和緯路四段９５巷６號三樓","OBJECTID":294944},"geometry":{"x":167108.49000000115,"y":2545461.2300000023}},{"attributes":{"ID":294953,"DIS_CODE":0,"TOWNNAME":"北區","LI":"大豐里","LIN":"17鄰","STREET":"和緯路","SECT":"四段","MAREA":" ","LANE":"９５巷","ALLEY":" ","HOUSE_NO":"６號五樓","E_COORD97":167108.48999999999,"N_COORD97":2545461.23,"ADDRESS":"和緯路四段９５巷６號五樓","OBJECTID":294945},"geometry":{"x":167108.49000000115,"y":2545461.2300000023}},{"attributes":{"ID":294954,"DIS_CODE":0,"TOWNNAME":"北區","LI":"大豐里","LIN":"17鄰","STREET":"和緯路","SECT":"四段","MAREA":" ","LANE":"９５巷","ALLEY":" ","HOUSE_NO":"６號四樓","E_COORD97":167108.48999999999,"N_COORD97":2545461.23,"ADDRESS":"和緯路四段９５巷６號四樓","OBJECTID":294946},"geometry":{"x":167108.49000000115,"y":2545461.2300000023}},{"attributes":{"ID":294955,"DIS_CODE":0,"TOWNNAME":"北區","LI":"大豐里","LIN":"17鄰","STREET":"和緯路","SECT":"四段","MAREA":" ","LANE":"９５巷","ALLEY":" ","HOUSE_NO":"８號二樓","E_COORD97":167107.60999999999,"N_COORD97":2545457.79,"ADDRESS":"和緯路四段９５巷８號二樓","OBJECTID":294947},"geometry":{"x":167107.6100000022,"y":2545457.7899999991}},{"attributes":{"ID":294956,"DIS_CODE":0,"TOWNNAME":"北區","LI":"大豐里","LIN":"17鄰","STREET":"和緯路","SECT":"四段","MAREA":" ","LANE":"９５巷","ALLEY":" ","HOUSE_NO":"８號三樓","E_COORD97":167107.60999999999,"N_COORD97":2545457.79,"ADDRESS":"和緯路四段９５巷８號三樓","OBJECTID":294948},"geometry":{"x":167107.6100000022,"y":2545457.7899999991}},{"attributes":{"ID":294957,"DIS_CODE":0,"TOWNNAME":"北區","LI":"大豐里","LIN":"17鄰","STREET":"和緯路","SECT":"四段","MAREA":" ","LANE":"９５巷","ALLEY":" ","HOUSE_NO":"８號五樓","E_COORD97":167107.60999999999,"N_COORD97":2545457.79,"ADDRESS":"和緯路四段９５巷８號五樓","OBJECTID":294949},"geometry":{"x":167107.6100000022,"y":2545457.7899999991}},{"attributes":{"ID":294958,"DIS_CODE":0,"TOWNNAME":"北區","LI":"大豐里","LIN":"17鄰","STREET":"和緯路","SECT":"四段","MAREA":" ","LANE":"９５巷","ALLEY":" ","HOUSE_NO":"８號四樓","E_COORD97":167107.60999999999,"N_COORD97":2545457.79,"ADDRESS":"和緯路四段９５巷８號四樓","OBJECTID":294950},"geometry":{"x":167107.6100000022,"y":2545457.7899999991}},{"attributes":{"ID":294959,"DIS_CODE":0,"TOWNNAME":"北區","LI":"大豐里","LIN":"17鄰","STREET":"和緯路","SECT":"四段","MAREA":" ","LANE":"９５巷","ALLEY":" ","HOUSE_NO":"４號五樓","E_COORD97":167109.28,"N_COORD97":2545467.8999999999,"ADDRESS":"和緯路四段９５巷４號五樓","OBJECTID":294951},"geometry":{"x":167109.28000000026,"y":2545467.9000000022}},{"attributes":{"ID":294960,"DIS_CODE":0,"TOWNNAME":"南區","LI":"大忠里","LIN":"14鄰","STREET":"公英五街","SECT":" ","MAREA":" ","LANE":" ","ALLEY":" ","HOUSE_NO":"３５號","E_COORD97":169325.35000000001,"N_COORD97":2541103.6099999999,"ADDRESS":"公英五街３５號","OBJECTID":294952},"geometry":{"x":169325.34999999963,"y":2541103.6099999975}},{"attributes":{"ID":294961,"DIS_CODE":0,"TOWNNAME":"安平區","LI":"建平里","LIN":"14鄰","STREET":"建平路","SECT":" ","MAREA":" ","LANE":" ","ALLEY":" ","HOUSE_NO":"６５７號","E_COORD97":166307.10999999999,"N_COORD97":2544003.7799999998,"ADDRESS":"建平路６５７號","OBJECTID":294953},"geometry":{"x":166307.11000000034,"y":2544003.7799999993}},{"attributes":{"ID":294962,"DIS_CODE":0,"TOWNNAME":"安平區","LI":"國平里","LIN":"14鄰","STREET":"健康路","SECT":"三段","MAREA":" ","LANE":" ","ALLEY":" ","HOUSE_NO":"１８０號之４３之１","E_COORD97":165454.76999999999,"N_COORD97":2542731.5600000001,"ADDRESS":"健康路三段１８０號之４３之１","OBJECTID":294954},"geometry":{"x":165454.77000000048,"y":2542731.5600000005}},{"attributes":{"ID":294963,"DIS_CODE":0,"TOWNNAME":"安平區","LI":"金城里","LIN":"14鄰","STREET":"世平四街","SECT":" ","MAREA":" ","LANE":" ","ALLEY":" ","HOUSE_NO":"１７號","E_COORD97":162936.89000000001,"N_COORD97":2544162.2999999998,"ADDRESS":"世平四街１７號","OBJECTID":294955},"geometry":{"x":162936.8900000006,"y":2544162.3000000026}},{"attributes":{"ID":294964,"DIS_CODE":0,"TOWNNAME":"安平區","LI":"金城里","LIN":"14鄰","STREET":"世平四街","SECT":" ","MAREA":" ","LANE":" ","ALLEY":" ","HOUSE_NO":"１７號之１","E_COORD97":162911.16,"N_COORD97":2544150.4500000002,"ADDRESS":"世平四街１７號之１","OBJECTID":294956},"geometry":{"x":162911.16000000015,"y":2544150.4500000011}},{"attributes":{"ID":294965,"DIS_CODE":0,"TOWNNAME":"安平區","LI":"金城里","LIN":"14鄰","STREET":"世平四街","SECT":" ","MAREA":" ","LANE":" ","ALLEY":" ","HOUSE_NO":"１９號","E_COORD97":162939.26000000001,"N_COORD97":2544157.7400000002,"ADDRESS":"世平四街１９號","OBJECTID":294957},"geometry":{"x":162939.26000000164,"y":2544157.7400000002}},{"attributes":{"ID":294966,"DIS_CODE":0,"TOWNNAME":"北區","LI":"中樓里","LIN":"17鄰","STREET":"東豐路","SECT":" ","MAREA":" ","LANE":"１３３巷","ALLEY":" ","HOUSE_NO":"６６號五樓","E_COORD97":169774.54999999999,"N_COORD97":2545005.1899999999,"ADDRESS":"東豐路１３３巷６６號五樓","OBJECTID":294958},"geometry":{"x":169774.55000000075,"y":2545005.1899999995}},{"attributes":{"ID":294967,"DIS_CODE":0,"TOWNNAME":"北區","LI":"中樓里","LIN":"17鄰","STREET":"東豐路","SECT":" ","MAREA":" ","LANE":"１３３巷","ALLEY":" ","HOUSE_NO":"６６號六樓","E_COORD97":169774.54999999999,"N_COORD97":2545005.1899999999,"ADDRESS":"東豐路１３３巷６６號六樓","OBJECTID":294959},"geometry":{"x":169774.55000000075,"y":2545005.1899999995}},{"attributes":{"ID":294968,"DIS_CODE":0,"TOWNNAME":"北區","LI":"長榮里","LIN":"17鄰","STREET":"長榮路","SECT":"五段","MAREA":" ","LANE":"４１巷","ALLEY":" ","HOUSE_NO":"５８號二樓之１","E_COORD97":169922.38,"N_COORD97":2545563.6200000001,"ADDRESS":"長榮路五段４１巷５８號二樓之１","OBJECTID":294960},"geometry":{"x":169922.37999999989,"y":2545563.6199999992}},{"attributes":{"ID":294969,"DIS_CODE":0,"TOWNNAME":"北區","LI":"長榮里","LIN":"17鄰","STREET":"長榮路","SECT":"五段","MAREA":" ","LANE":"４１巷","ALLEY":" ","HOUSE_NO":"５８號二樓之２","E_COORD97":169922.38,"N_COORD97":2545563.6200000001,"ADDRESS":"長榮路五段４１巷５８號二樓之２","OBJECTID":294961},"geometry":{"x":169922.37999999989,"y":2545563.6199999992}},{"attributes":{"ID":294970,"DIS_CODE":0,"TOWNNAME":"北區","LI":"長榮里","LIN":"17鄰","STREET":"長榮路","SECT":"五段","MAREA":" ","LANE":"４１巷","ALLEY":" ","HOUSE_NO":"５８號三樓之１","E_COORD97":169922.38,"N_COORD97":2545563.6200000001,"ADDRESS":"長榮路五段４１巷５８號三樓之１","OBJECTID":294962},"geometry":{"x":169922.37999999989,"y":2545563.6199999992}},{"attributes":{"ID":294971,"DIS_CODE":0,"TOWNNAME":"北區","LI":"長榮里","LIN":"17鄰","STREET":"長榮路","SECT":"五段","MAREA":" ","LANE":"４１巷","ALLEY":" ","HOUSE_NO":"５８號三樓之２","E_COORD97":169922.38,"N_COORD97":2545563.6200000001,"ADDRESS":"長榮路五段４１巷５８號三樓之２","OBJECTID":294963},"geometry":{"x":169922.37999999989,"y":2545563.6199999992}},{"attributes":{"ID":294972,"DIS_CODE":0,"TOWNNAME":"北區","LI":"長榮里","LIN":"17鄰","STREET":"長榮路","SECT":"五段","MAREA":" ","LANE":"４１巷","ALLEY":" ","HOUSE_NO":"５８號四樓之１","E_COORD97":169922.38,"N_COORD97":2545563.6200000001,"ADDRESS":"長榮路五段４１巷５８號四樓之１","OBJECTID":294964},"geometry":{"x":169922.37999999989,"y":2545563.6199999992}},{"attributes":{"ID":294973,"DIS_CODE":0,"TOWNNAME":"北區","LI":"長榮里","LIN":"17鄰","STREET":"長榮路","SECT":"五段","MAREA":" ","LANE":"４１巷","ALLEY":" ","HOUSE_NO":"５８號四樓之２","E_COORD97":169922.38,"N_COORD97":2545563.6200000001,"ADDRESS":"長榮路五段４１巷５８號四樓之２","OBJECTID":294965},"geometry":{"x":169922.37999999989,"y":2545563.6199999992}},{"attributes":{"ID":294974,"DIS_CODE":0,"TOWNNAME":"北區","LI":"長榮里","LIN":"17鄰","STREET":"長榮路","SECT":"五段","MAREA":" ","LANE":"４１巷","ALLEY":" ","HOUSE_NO":"５８號四樓之３","E_COORD97":169922.38,"N_COORD97":2545563.6200000001,"ADDRESS":"長榮路五段４１巷５８號四樓之３","OBJECTID":294966},"geometry":{"x":169922.37999999989,"y":2545563.6199999992}},{"attributes":{"ID":294975,"DIS_CODE":0,"TOWNNAME":"新市區","LI":"豐華里","LIN":"4鄰","STREET":" ","SECT":" ","MAREA":"豐華","LANE":" ","ALLEY":" ","HOUSE_NO":"２６之４號","E_COORD97":173770.14999999999,"N_COORD97":2554144.7999999998,"ADDRESS":"豐華２６之４號","OBJECTID":294967},"geometry":{"x":173770.1500000013,"y":2554144.8000000026}},{"attributes":{"ID":294976,"DIS_CODE":0,"TOWNNAME":"北區","LI":"長榮里","LIN":"17鄰","STREET":"長榮路","SECT":"五段","MAREA":" ","LANE":"４１巷","ALLEY":" ","HOUSE_NO":"５８號四樓之５","E_COORD97":169922.38,"N_COORD97":2545563.6200000001,"ADDRESS":"長榮路五段４１巷５８號四樓之５","OBJECTID":294968},"geometry":{"x":169922.37999999989,"y":2545563.6199999992}},{"attributes":{"ID":294977,"DIS_CODE":0,"TOWNNAME":"北區","LI":"長榮里","LIN":"17鄰","STREET":"長榮路","SECT":"五段","MAREA":" ","LANE":"４１巷","ALLEY":" ","HOUSE_NO":"５８號五樓之１","E_COORD97":169922.38,"N_COORD97":2545563.6200000001,"ADDRESS":"長榮路五段４１巷５８號五樓之１","OBJECTID":294969},"geometry":{"x":169922.37999999989,"y":2545563.6199999992}},{"attributes":{"ID":294978,"DIS_CODE":0,"TOWNNAME":"北區","LI":"長榮里","LIN":"17鄰","STREET":"長榮路","SECT":"五段","MAREA":" ","LANE":"４１巷","ALLEY":" ","HOUSE_NO":"５８號五樓之２","E_COORD97":169922.38,"N_COORD97":2545563.6200000001,"ADDRESS":"長榮路五段４１巷５８號五樓之２","OBJECTID":294970},"geometry":{"x":169922.37999999989,"y":2545563.6199999992}},{"attributes":{"ID":294979,"DIS_CODE":0,"TOWNNAME":"北區","LI":"長榮里","LIN":"17鄰","STREET":"長榮路","SECT":"五段","MAREA":" ","LANE":"４１巷","ALLEY":" ","HOUSE_NO":"５８號五樓之３","E_COORD97":169922.38,"N_COORD97":2545563.6200000001,"ADDRESS":"長榮路五段４１巷５８號五樓之３","OBJECTID":294971},"geometry":{"x":169922.37999999989,"y":2545563.6199999992}},{"attributes":{"ID":294980,"DIS_CODE":0,"TOWNNAME":"北區","LI":"長榮里","LIN":"17鄰","STREET":"長榮路","SECT":"五段","MAREA":" ","LANE":"４１巷","ALLEY":" ","HOUSE_NO":"５８號五樓之５","E_COORD97":169922.38,"N_COORD97":2545563.6200000001,"ADDRESS":"長榮路五段４１巷５８號五樓之５","OBJECTID":294972},"geometry":{"x":169922.37999999989,"y":2545563.6199999992}},{"attributes":{"ID":294981,"DIS_CODE":0,"TOWNNAME":"北區","LI":"長榮里","LIN":"17鄰","STREET":"長榮路","SECT":"五段","MAREA":" ","LANE":"４１巷","ALLEY":" ","HOUSE_NO":"５８號六樓之１","E_COORD97":169922.38,"N_COORD97":2545563.6200000001,"ADDRESS":"長榮路五段４１巷５８號六樓之１","OBJECTID":294973},"geometry":{"x":169922.37999999989,"y":2545563.6199999992}},{"attributes":{"ID":294982,"DIS_CODE":0,"TOWNNAME":"北區","LI":"長榮里","LIN":"17鄰","STREET":"長榮路","SECT":"五段","MAREA":" ","LANE":"４１巷","ALLEY":" ","HOUSE_NO":"５８號六樓之２","E_COORD97":169922.38,"N_COORD97":2545563.6200000001,"ADDRESS":"長榮路五段４１巷５８號六樓之２","OBJECTID":294974},"geometry":{"x":169922.37999999989,"y":2545563.6199999992}},{"attributes":{"ID":294983,"DIS_CODE":0,"TOWNNAME":"七股區","LI":"大寮里","LIN":"4鄰","STREET":" ","SECT":" ","MAREA":"大寮","LANE":" ","ALLEY":" ","HOUSE_NO":"２２號之１","E_COORD97":163054.59,"N_COORD97":2560972.2000000002,"ADDRESS":"大寮２２號之１","OBJECTID":294975},"geometry":{"x":163054.59000000078,"y":2560972.2000000011}},{"attributes":{"ID":294984,"DIS_CODE":0,"TOWNNAME":"七股區","LI":"大寮里","LIN":"4鄰","STREET":" ","SECT":" ","MAREA":"大寮","LANE":" ","ALLEY":" ","HOUSE_NO":"２２號之２","E_COORD97":163067.10999999999,"N_COORD97":2560957.4300000002,"ADDRESS":"大寮２２號之２","OBJECTID":294976},"geometry":{"x":163067.11000000127,"y":2560957.4300000016}},{"attributes":{"ID":294985,"DIS_CODE":0,"TOWNNAME":"七股區","LI":"大寮里","LIN":"4鄰","STREET":" ","SECT":" ","MAREA":"大寮","LANE":" ","ALLEY":" ","HOUSE_NO":"２２號","E_COORD97":163074.79999999999,"N_COORD97":2560983.2999999998,"ADDRESS":"大寮２２號","OBJECTID":294977},"geometry":{"x":163074.80000000075,"y":2560983.3000000026}},{"attributes":{"ID":294986,"DIS_CODE":0,"TOWNNAME":"七股區","LI":"大寮里","LIN":"4鄰","STREET":" ","SECT":" ","MAREA":"大寮","LANE":" ","ALLEY":" ","HOUSE_NO":"２３號","E_COORD97":163113.82000000001,"N_COORD97":2561010.3100000001,"ADDRESS":"大寮２３號","OBJECTID":294978},"geometry":{"x":163113.8200000003,"y":2561010.3100000005}},{"attributes":{"ID":294987,"DIS_CODE":0,"TOWNNAME":"七股區","LI":"大寮里","LIN":"4鄰","STREET":" ","SECT":" ","MAREA":"大寮","LANE":" ","ALLEY":" ","HOUSE_NO":"２４號","E_COORD97":163090.57000000001,"N_COORD97":2561012.9700000002,"ADDRESS":"大寮２４號","OBJECTID":294979},"geometry":{"x":163090.57000000123,"y":2561012.9700000007}},{"attributes":{"ID":294988,"DIS_CODE":0,"TOWNNAME":"七股區","LI":"大寮里","LIN":"4鄰","STREET":" ","SECT":" ","MAREA":"大寮","LANE":" ","ALLEY":" ","HOUSE_NO":"２９號之１","E_COORD97":163158.14999999999,"N_COORD97":2561104.7999999998,"ADDRESS":"大寮２９號之１","OBJECTID":294980},"geometry":{"x":163158.1500000013,"y":2561104.8000000026}},{"attributes":{"ID":294989,"DIS_CODE":0,"TOWNNAME":"七股區","LI":"大寮里","LIN":"4鄰","STREET":" ","SECT":" ","MAREA":"大寮","LANE":" ","ALLEY":" ","HOUSE_NO":"２９號之２","E_COORD97":163180.06,"N_COORD97":2561138.0099999998,"ADDRESS":"大寮２９號之２","OBJECTID":294981},"geometry":{"x":163180.06000000052,"y":2561138.0099999998}},{"attributes":{"ID":294990,"DIS_CODE":0,"TOWNNAME":"七股區","LI":"大寮里","LIN":"4鄰","STREET":" ","SECT":" ","MAREA":"大寮","LANE":" ","ALLEY":" ","HOUSE_NO":"２９號","E_COORD97":163109.25,"N_COORD97":2561094.1299999999,"ADDRESS":"大寮２９號","OBJECTID":294982},"geometry":{"x":163109.25000000093,"y":2561094.1300000008}},{"attributes":{"ID":294991,"DIS_CODE":0,"TOWNNAME":"七股區","LI":"中寮里","LIN":"13鄰","STREET":" ","SECT":" ","MAREA":"中寮","LANE":" ","ALLEY":" ","HOUSE_NO":"９４號之１","E_COORD97":158778.47,"N_COORD97":2561803.8300000001,"ADDRESS":"中寮９４號之１","OBJECTID":294983},"geometry":{"x":158778.47000000067,"y":2561803.8300000001}},{"attributes":{"ID":294992,"DIS_CODE":0,"TOWNNAME":"七股區","LI":"中寮里","LIN":"13鄰","STREET":" ","SECT":" ","MAREA":"中寮","LANE":" ","ALLEY":" ","HOUSE_NO":"９４號之２","E_COORD97":158790.04000000001,"N_COORD97":2561823.2999999998,"ADDRESS":"中寮９４號之２","OBJECTID":294984},"geometry":{"x":158790.04000000097,"y":2561823.3000000026}},{"attributes":{"ID":294993,"DIS_CODE":0,"TOWNNAME":"七股區","LI":"大寮里","LIN":"1鄰","STREET":" ","SECT":" ","MAREA":"大寮","LANE":" ","ALLEY":" ","HOUSE_NO":"１號之１２","E_COORD97":162883.69,"N_COORD97":2560976.46,"ADDRESS":"大寮１號之１２","OBJECTID":294985},"geometry":{"x":162883.69000000041,"y":2560976.4600000009}},{"attributes":{"ID":294994,"DIS_CODE":0,"TOWNNAME":"七股區","LI":"大寮里","LIN":"1鄰","STREET":" ","SECT":" ","MAREA":"大寮","LANE":" ","ALLEY":" ","HOUSE_NO":"１號之１３","E_COORD97":162887.45000000001,"N_COORD97":2560979.02,"ADDRESS":"大寮１號之１３","OBJECTID":294986},"geometry":{"x":162887.44999999925,"y":2560979.0200000033}},{"attributes":{"ID":294995,"DIS_CODE":0,"TOWNNAME":"七股區","LI":"大寮里","LIN":"1鄰","STREET":" ","SECT":" ","MAREA":"大寮","LANE":" ","ALLEY":" ","HOUSE_NO":"１號之１４","E_COORD97":162891.37,"N_COORD97":2560980.1099999999,"ADDRESS":"大寮１號之１４","OBJECTID":294987},"geometry":{"x":162891.37000000197,"y":2560980.1099999994}},{"attributes":{"ID":294996,"DIS_CODE":0,"TOWNNAME":"七股區","LI":"大寮里","LIN":"1鄰","STREET":" ","SECT":" ","MAREA":"大寮","LANE":" ","ALLEY":" ","HOUSE_NO":"１號","E_COORD97":162888.64000000001,"N_COORD97":2560948.52,"ADDRESS":"大寮１號","OBJECTID":294988},"geometry":{"x":162888.63999999966,"y":2560948.5200000033}},{"attributes":{"ID":294997,"DIS_CODE":0,"TOWNNAME":"七股區","LI":"三股里","LIN":"4鄰","STREET":" ","SECT":" ","MAREA":"三股","LANE":" ","ALLEY":" ","HOUSE_NO":"４０號","E_COORD97":159691.04999999999,"N_COORD97":2555572.9500000002,"ADDRESS":"三股４０號","OBJECTID":294989},"geometry":{"x":159691.05000000168,"y":2555572.9500000011}},{"attributes":{"ID":294998,"DIS_CODE":0,"TOWNNAME":"七股區","LI":"三股里","LIN":"4鄰","STREET":" ","SECT":" ","MAREA":"三股","LANE":" ","ALLEY":" ","HOUSE_NO":"４１號之１","E_COORD97":159709.07999999999,"N_COORD97":2555564.2400000002,"ADDRESS":"三股４１號之１","OBJECTID":294990},"geometry":{"x":159709.08000000007,"y":2555564.2400000021}},{"attributes":{"ID":294999,"DIS_CODE":0,"TOWNNAME":"七股區","LI":"三股里","LIN":"4鄰","STREET":" ","SECT":" ","MAREA":"三股","LANE":" ","ALLEY":" ","HOUSE_NO":"４１號","E_COORD97":159697.37,"N_COORD97":2555560.27,"ADDRESS":"三股４１號","OBJECTID":294991},"geometry":{"x":159697.37000000011,"y":2555560.2700000014}},{"attributes":{"ID":295000,"DIS_CODE":0,"TOWNNAME":"七股區","LI":"三股里","LIN":"4鄰","STREET":" ","SECT":" ","MAREA":"三股","LANE":" ","ALLEY":" ","HOUSE_NO":"４４號之２","E_COORD97":159751.29000000001,"N_COORD97":2555569.0800000001,"ADDRESS":"三股４４號之２","OBJECTID":294992},"geometry":{"x":159751.29000000097,"y":2555569.0800000019}},{"attributes":{"ID":295001,"DIS_CODE":0,"TOWNNAME":"七股區","LI":"三股里","LIN":"4鄰","STREET":" ","SECT":" ","MAREA":"三股","LANE":" ","ALLEY":" ","HOUSE_NO":"４４號","E_COORD97":159738.67999999999,"N_COORD97":2555581.3100000001,"ADDRESS":"三股４４號","OBJECTID":294993},"geometry":{"x":159738.6799999997,"y":2555581.3100000024}},{"attributes":{"ID":295002,"DIS_CODE":0,"TOWNNAME":"七股區","LI":"三股里","LIN":"4鄰","STREET":" ","SECT":" ","MAREA":"三股","LANE":" ","ALLEY":" ","HOUSE_NO":"４５號之１","E_COORD97":159761.66,"N_COORD97":2555571.79,"ADDRESS":"三股４５號之１","OBJECTID":294994},"geometry":{"x":159761.66000000015,"y":2555571.7899999991}},{"attributes":{"ID":295003,"DIS_CODE":0,"TOWNNAME":"七股區","LI":"三股里","LIN":"4鄰","STREET":" ","SECT":" ","MAREA":"三股","LANE":" ","ALLEY":" ","HOUSE_NO":"４５號","E_COORD97":159756.73999999999,"N_COORD97":2555570.5699999998,"ADDRESS":"三股４５號","OBJECTID":294995},"geometry":{"x":159756.74000000115,"y":2555570.5700000003}},{"attributes":{"ID":295004,"DIS_CODE":0,"TOWNNAME":"佳里區","LI":"安西里","LIN":"35鄰","STREET":"光華街","SECT":" ","MAREA":" ","LANE":"１３０巷","ALLEY":" ","HOUSE_NO":"１號","E_COORD97":165046.03,"N_COORD97":2562830.6899999999,"ADDRESS":"光華街１３０巷１號","OBJECTID":294996},"geometry":{"x":165046.03000000026,"y":2562830.6899999995}},{"attributes":{"ID":295005,"DIS_CODE":0,"TOWNNAME":"佳里區","LI":"安西里","LIN":"32鄰","STREET":"光華街","SECT":" ","MAREA":" ","LANE":"１３０巷","ALLEY":" ","HOUSE_NO":"２６號","E_COORD97":165067.16,"N_COORD97":2562886.1699999999,"ADDRESS":"光華街１３０巷２６號","OBJECTID":294997},"geometry":{"x":165067.16000000015,"y":2562886.1699999999}},{"attributes":{"ID":295006,"DIS_CODE":0,"TOWNNAME":"佳里區","LI":"安西里","LIN":"32鄰","STREET":"光華街","SECT":" ","MAREA":" ","LANE":"１３０巷","ALLEY":" ","HOUSE_NO":"２號","E_COORD97":165067.73999999999,"N_COORD97":2562831.3599999999,"ADDRESS":"光華街１３０巷２號","OBJECTID":294998},"geometry":{"x":165067.74000000115,"y":2562831.3600000013}},{"attributes":{"ID":295007,"DIS_CODE":0,"TOWNNAME":"佳里區","LI":"安西里","LIN":"32鄰","STREET":"光華街","SECT":" ","MAREA":" ","LANE":"１３０巷","ALLEY":" ","HOUSE_NO":"３２號","E_COORD97":165067.97,"N_COORD97":2562907.0600000001,"ADDRESS":"光華街１３０巷３２號","OBJECTID":294999},"geometry":{"x":165067.96999999974,"y":2562907.0600000024}},{"attributes":{"ID":295008,"DIS_CODE":0,"TOWNNAME":"北區","LI":"長榮里","LIN":"17鄰","STREET":"長榮路","SECT":"五段","MAREA":" ","LANE":"４１巷","ALLEY":" ","HOUSE_NO":"５８號六樓之３","E_COORD97":169922.38,"N_COORD97":2545563.6200000001,"ADDRESS":"長榮路五段４１巷５８號六樓之３","OBJECTID":295000},"geometry":{"x":169922.37999999989,"y":2545563.6199999992}}]}