{"displayFieldName":"TOWNNAME","fieldAliases":{"ID":"ID","DIS_CODE":"DIS_CODE","TOWNNAME":"TOWNNAME","LI":"LI","LIN":"LIN","STREET":"STREET","SECT":"SECT","MAREA":"MAREA","LANE":"LANE","ALLEY":"ALLEY","HOUSE_NO":"HOUSE_NO","E_COORD97":"E_COORD97","N_COORD97":"N_COORD97","ADDRESS":"ADDRESS","OBJECTID":"OBJECTID"},"geometryType":"esriGeometryPoint","spatialReference":{"wkid":102443,"latestWkid":3826},"fields":[{"name":"ID","type":"esriFieldTypeDouble","alias":"ID"},{"name":"DIS_CODE","type":"esriFieldTypeInteger","alias":"DIS_CODE"},{"name":"TOWNNAME","type":"esriFieldTypeString","alias":"TOWNNAME","length":8},{"name":"LI","type":"esriFieldTypeString","alias":"LI","length":8},{"name":"LIN","type":"esriFieldTypeString","alias":"LIN","length":12},{"name":"STREET","type":"esriFieldTypeString","alias":"STREET","length":20},{"name":"SECT","type":"esriFieldTypeString","alias":"SECT","length":8},{"name":"MAREA","type":"esriFieldTypeString","alias":"MAREA","length":12},{"name":"LANE","type":"esriFieldTypeString","alias":"LANE","length":10},{"name":"ALLEY","type":"esriFieldTypeString","alias":"ALLEY","length":10},{"name":"HOUSE_NO","type":"esriFieldTypeString","alias":"HOUSE_NO","length":20},{"name":"E_COORD97","type":"esriFieldTypeDouble","alias":"E_COORD97"},{"name":"N_COORD97","type":"esriFieldTypeDouble","alias":"N_COORD97"},{"name":"ADDRESS","type":"esriFieldTypeString","alias":"ADDRESS","length":50},{"name":"OBJECTID","type":"esriFieldTypeOID","alias":"OBJECTID"}],"features":[{"attributes":{"ID":434826,"DIS_CODE":0,"TOWNNAME":"關廟區","LI":"山西里","LIN":"13鄰","STREET":"文衡路","SECT":" ","MAREA":" ","LANE":"１３３巷","ALLEY":" ","HOUSE_NO":"３３號","E_COORD97":180839.53,"N_COORD97":2540568.0099999998,"ADDRESS":"文衡路１３３巷３３號","OBJECTID":434801},"geometry":{"x":180839.53000000119,"y":2540568.0099999998}},{"attributes":{"ID":434827,"DIS_CODE":0,"TOWNNAME":"關廟區","LI":"山西里","LIN":"13鄰","STREET":"文衡路","SECT":" ","MAREA":" ","LANE":"１３３巷","ALLEY":" ","HOUSE_NO":"１９號","E_COORD97":180847.63,"N_COORD97":2540547.0099999998,"ADDRESS":"文衡路１３３巷１９號","OBJECTID":434802},"geometry":{"x":180847.62999999989,"y":2540547.0100000016}},{"attributes":{"ID":434828,"DIS_CODE":0,"TOWNNAME":"關廟區","LI":"山西里","LIN":"13鄰","STREET":"文衡路","SECT":" ","MAREA":" ","LANE":"１３３巷","ALLEY":" ","HOUSE_NO":"２６號","E_COORD97":180852.23000000001,"N_COORD97":2540590.0099999998,"ADDRESS":"文衡路１３３巷２６號","OBJECTID":434803},"geometry":{"x":180852.23000000138,"y":2540590.0100000016}},{"attributes":{"ID":434829,"DIS_CODE":0,"TOWNNAME":"關廟區","LI":"北花里","LIN":"5鄰","STREET":"花園二街","SECT":" ","MAREA":" ","LANE":"７１巷","ALLEY":" ","HOUSE_NO":"９號","E_COORD97":182011.64000000001,"N_COORD97":2540272.25,"ADDRESS":"花園二街７１巷９號","OBJECTID":434804},"geometry":{"x":182011.6400000006,"y":2540272.25}},{"attributes":{"ID":434830,"DIS_CODE":0,"TOWNNAME":"關廟區","LI":"五甲里","LIN":"5鄰","STREET":"五甲路","SECT":" ","MAREA":" ","LANE":"２１巷","ALLEY":" ","HOUSE_NO":"１９號","E_COORD97":181283.07000000001,"N_COORD97":2539025.25,"ADDRESS":"五甲路２１巷１９號","OBJECTID":434805},"geometry":{"x":181283.07000000216,"y":2539025.2500000037}},{"attributes":{"ID":434831,"DIS_CODE":0,"TOWNNAME":"關廟區","LI":"北勢里","LIN":"20鄰","STREET":"仁愛路","SECT":" ","MAREA":" ","LANE":"１６７巷","ALLEY":" ","HOUSE_NO":"１２號","E_COORD97":181353.44,"N_COORD97":2540433.2799999998,"ADDRESS":"仁愛路１６７巷１２號","OBJECTID":434806},"geometry":{"x":181353.43999999948,"y":2540433.2799999993}},{"attributes":{"ID":434832,"DIS_CODE":0,"TOWNNAME":"關廟區","LI":"山西里","LIN":"17鄰","STREET":"崇明街","SECT":" ","MAREA":" ","LANE":"３巷","ALLEY":" ","HOUSE_NO":"８號","E_COORD97":181029.57000000001,"N_COORD97":2540629.25,"ADDRESS":"崇明街３巷８號","OBJECTID":434807},"geometry":{"x":181029.57000000123,"y":2540629.2500000019}},{"attributes":{"ID":434833,"DIS_CODE":0,"TOWNNAME":"關廟區","LI":"五甲里","LIN":"5鄰","STREET":"五甲路","SECT":" ","MAREA":" ","LANE":"２１巷","ALLEY":" ","HOUSE_NO":"２１號","E_COORD97":181284.57000000001,"N_COORD97":2539020.25,"ADDRESS":"五甲路２１巷２１號","OBJECTID":434808},"geometry":{"x":181284.5700000003,"y":2539020.25}},{"attributes":{"ID":434834,"DIS_CODE":0,"TOWNNAME":"關廟區","LI":"山西里","LIN":"13鄰","STREET":"文衡路","SECT":" ","MAREA":" ","LANE":"１３３巷","ALLEY":" ","HOUSE_NO":"１３號","E_COORD97":180861.82999999999,"N_COORD97":2540545.0099999998,"ADDRESS":"文衡路１３３巷１３號","OBJECTID":434809},"geometry":{"x":180861.83000000007,"y":2540545.0099999998}},{"attributes":{"ID":434835,"DIS_CODE":0,"TOWNNAME":"北區","LI":"開元里","LIN":"4鄰","STREET":"北園街","SECT":" ","MAREA":" ","LANE":"１０９巷","ALLEY":" ","HOUSE_NO":"３５號","E_COORD97":170247.07999999999,"N_COORD97":2545907.8199999998,"ADDRESS":"北園街１０９巷３５號","OBJECTID":434810},"geometry":{"x":170247.08000000194,"y":2545907.8200000022}},{"attributes":{"ID":434836,"DIS_CODE":0,"TOWNNAME":"北區","LI":"開元里","LIN":"4鄰","STREET":"北園街","SECT":" ","MAREA":" ","LANE":"１０９巷","ALLEY":" ","HOUSE_NO":"３７號","E_COORD97":170241.98000000001,"N_COORD97":2545909.1899999999,"ADDRESS":"北園街１０９巷３７號","OBJECTID":434811},"geometry":{"x":170241.98000000138,"y":2545909.1899999995}},{"attributes":{"ID":434837,"DIS_CODE":0,"TOWNNAME":"北區","LI":"開元里","LIN":"4鄰","STREET":"北園街","SECT":" ","MAREA":" ","LANE":"１０９巷","ALLEY":" ","HOUSE_NO":"３９號","E_COORD97":170238.57999999999,"N_COORD97":2545909.5099999998,"ADDRESS":"北園街１０９巷３９號","OBJECTID":434812},"geometry":{"x":170238.58000000194,"y":2545909.5100000016}},{"attributes":{"ID":434838,"DIS_CODE":0,"TOWNNAME":"北區","LI":"開元里","LIN":"4鄰","STREET":"北園街","SECT":" ","MAREA":" ","LANE":"１０９巷","ALLEY":" ","HOUSE_NO":"４１號","E_COORD97":170234.69,"N_COORD97":2545909.6699999999,"ADDRESS":"北園街１０９巷４１號","OBJECTID":434813},"geometry":{"x":170234.68999999948,"y":2545909.6700000018}},{"attributes":{"ID":434839,"DIS_CODE":0,"TOWNNAME":"北區","LI":"開元里","LIN":"4鄰","STREET":"北園街","SECT":" ","MAREA":" ","LANE":"１０９巷","ALLEY":" ","HOUSE_NO":"４３號","E_COORD97":170230.88,"N_COORD97":2545910.2400000002,"ADDRESS":"北園街１０９巷４３號","OBJECTID":434814},"geometry":{"x":170230.87999999989,"y":2545910.2400000002}},{"attributes":{"ID":434840,"DIS_CODE":0,"TOWNNAME":"北區","LI":"開元里","LIN":"4鄰","STREET":"北園街","SECT":" ","MAREA":" ","LANE":"１０９巷","ALLEY":" ","HOUSE_NO":"４５號","E_COORD97":170227.48000000001,"N_COORD97":2545909.27,"ADDRESS":"北園街１０９巷４５號","OBJECTID":434815},"geometry":{"x":170227.48000000045,"y":2545909.2699999996}},{"attributes":{"ID":434841,"DIS_CODE":0,"TOWNNAME":"北區","LI":"開元里","LIN":"4鄰","STREET":"北園街","SECT":" ","MAREA":" ","LANE":"１０９巷","ALLEY":" ","HOUSE_NO":"４７號","E_COORD97":170224.17000000001,"N_COORD97":2545910.2400000002,"ADDRESS":"北園街１０９巷４７號","OBJECTID":434816},"geometry":{"x":170224.16999999899,"y":2545910.2400000002}},{"attributes":{"ID":434842,"DIS_CODE":0,"TOWNNAME":"北區","LI":"開元里","LIN":"4鄰","STREET":"北園街","SECT":" ","MAREA":" ","LANE":"１０９巷","ALLEY":" ","HOUSE_NO":"４９號","E_COORD97":170220.04000000001,"N_COORD97":2545910,"ADDRESS":"北園街１０９巷４９號","OBJECTID":434817},"geometry":{"x":170220.03999999911,"y":2545910.0000000019}},{"attributes":{"ID":434843,"DIS_CODE":0,"TOWNNAME":"北區","LI":"開元里","LIN":"4鄰","STREET":"北園街","SECT":" ","MAREA":" ","LANE":"１０９巷","ALLEY":" ","HOUSE_NO":"５１號","E_COORD97":170216.54000000001,"N_COORD97":2545910.8100000001,"ADDRESS":"北園街１０９巷５１號","OBJECTID":434818},"geometry":{"x":170216.54000000004,"y":2545910.8100000005}},{"attributes":{"ID":434844,"DIS_CODE":0,"TOWNNAME":"北區","LI":"開元里","LIN":"4鄰","STREET":"北園街","SECT":" ","MAREA":" ","LANE":"１０９巷","ALLEY":" ","HOUSE_NO":"５３號","E_COORD97":170212.25,"N_COORD97":2545910.48,"ADDRESS":"北園街１０９巷５３號","OBJECTID":434819},"geometry":{"x":170212.25000000093,"y":2545910.4800000023}},{"attributes":{"ID":434845,"DIS_CODE":0,"TOWNNAME":"北區","LI":"開元里","LIN":"4鄰","STREET":"北園街","SECT":" ","MAREA":" ","LANE":"１０９巷","ALLEY":" ","HOUSE_NO":"５５號","E_COORD97":170208.29000000001,"N_COORD97":2545911.1299999999,"ADDRESS":"北園街１０９巷５５號","OBJECTID":434820},"geometry":{"x":170208.2900000019,"y":2545911.1300000008}},{"attributes":{"ID":434846,"DIS_CODE":0,"TOWNNAME":"北區","LI":"開元里","LIN":"4鄰","STREET":"北園街","SECT":" ","MAREA":" ","LANE":"１０９巷","ALLEY":" ","HOUSE_NO":"５７號","E_COORD97":170204.95999999999,"N_COORD97":2545911.7799999998,"ADDRESS":"北園街１０９巷５７號","OBJECTID":434821},"geometry":{"x":170204.95999999996,"y":2545911.7799999993}},{"attributes":{"ID":434847,"DIS_CODE":0,"TOWNNAME":"北區","LI":"開元里","LIN":"4鄰","STREET":"北園街","SECT":" ","MAREA":" ","LANE":"１０９巷","ALLEY":" ","HOUSE_NO":"５９號","E_COORD97":170200.98999999999,"N_COORD97":2545910.7999999998,"ADDRESS":"北園街１０９巷５９號","OBJECTID":434822},"geometry":{"x":170200.99000000115,"y":2545910.8000000007}},{"attributes":{"ID":434848,"DIS_CODE":0,"TOWNNAME":"北區","LI":"開元里","LIN":"4鄰","STREET":"北園街","SECT":" ","MAREA":" ","LANE":"１０９巷","ALLEY":" ","HOUSE_NO":"６１號","E_COORD97":170197.82999999999,"N_COORD97":2545911.9300000002,"ADDRESS":"北園街１０９巷６１號","OBJECTID":434823},"geometry":{"x":170197.82999999914,"y":2545911.9299999997}},{"attributes":{"ID":434849,"DIS_CODE":0,"TOWNNAME":"北區","LI":"開元里","LIN":"4鄰","STREET":"北園街","SECT":" ","MAREA":" ","LANE":"１０９巷","ALLEY":" ","HOUSE_NO":"６３號","E_COORD97":170194.03,"N_COORD97":2545911.04,"ADDRESS":"北園街１０９巷６３號","OBJECTID":434824},"geometry":{"x":170194.03000000119,"y":2545911.0399999991}},{"attributes":{"ID":434850,"DIS_CODE":0,"TOWNNAME":"北區","LI":"開元里","LIN":"4鄰","STREET":"北園街","SECT":" ","MAREA":" ","LANE":"１０９巷","ALLEY":" ","HOUSE_NO":"６５號","E_COORD97":170190.39000000001,"N_COORD97":2545911.4500000002,"ADDRESS":"北園街１０９巷６５號","OBJECTID":434825},"geometry":{"x":170190.39000000153,"y":2545911.4499999993}},{"attributes":{"ID":434851,"DIS_CODE":0,"TOWNNAME":"北區","LI":"開元里","LIN":"4鄰","STREET":"北園街","SECT":" ","MAREA":" ","LANE":"１０９巷","ALLEY":" ","HOUSE_NO":"６７號","E_COORD97":170186.67000000001,"N_COORD97":2545911.77,"ADDRESS":"北園街１０９巷６７號","OBJECTID":434826},"geometry":{"x":170186.66999999993,"y":2545911.7700000014}},{"attributes":{"ID":434852,"DIS_CODE":0,"TOWNNAME":"北區","LI":"開元里","LIN":"4鄰","STREET":"北園街","SECT":" ","MAREA":" ","LANE":"１０９巷","ALLEY":" ","HOUSE_NO":"６９號","E_COORD97":170183.59,"N_COORD97":2545912.1000000001,"ADDRESS":"北園街１０９巷６９號","OBJECTID":434827},"geometry":{"x":170183.58999999985,"y":2545912.1000000015}},{"attributes":{"ID":434853,"DIS_CODE":0,"TOWNNAME":"北區","LI":"開元里","LIN":"4鄰","STREET":"北園街","SECT":" ","MAREA":" ","LANE":"１０９巷","ALLEY":" ","HOUSE_NO":"７１號","E_COORD97":170179.29999999999,"N_COORD97":2545912.1800000002,"ADDRESS":"北園街１０９巷７１號","OBJECTID":434828},"geometry":{"x":170179.30000000168,"y":2545912.1800000016}},{"attributes":{"ID":434854,"DIS_CODE":0,"TOWNNAME":"北區","LI":"開元里","LIN":"4鄰","STREET":"北園街","SECT":" ","MAREA":" ","LANE":"１０９巷","ALLEY":" ","HOUSE_NO":"７３號","E_COORD97":170175.73999999999,"N_COORD97":2545912.5800000001,"ADDRESS":"北園街１０９巷７３號","OBJECTID":434829},"geometry":{"x":170175.74000000115,"y":2545912.5800000019}},{"attributes":{"ID":434855,"DIS_CODE":0,"TOWNNAME":"北區","LI":"開元里","LIN":"4鄰","STREET":"北園街","SECT":" ","MAREA":" ","LANE":"１０９巷","ALLEY":" ","HOUSE_NO":"７５號","E_COORD97":170171.20999999999,"N_COORD97":2545912.5,"ADDRESS":"北園街１０９巷７５號","OBJECTID":434830},"geometry":{"x":170171.20999999996,"y":2545912.4999999981}},{"attributes":{"ID":434856,"DIS_CODE":0,"TOWNNAME":"北區","LI":"開元里","LIN":"3鄰","STREET":"北園街","SECT":" ","MAREA":" ","LANE":"９９巷","ALLEY":" ","HOUSE_NO":"３４號","E_COORD97":170249.94,"N_COORD97":2545883.4700000002,"ADDRESS":"北園街９９巷３４號","OBJECTID":434831},"geometry":{"x":170249.93999999948,"y":2545883.4700000025}},{"attributes":{"ID":434857,"DIS_CODE":0,"TOWNNAME":"北區","LI":"開元里","LIN":"3鄰","STREET":"北園街","SECT":" ","MAREA":" ","LANE":"９９巷","ALLEY":" ","HOUSE_NO":"３６號","E_COORD97":170244.37,"N_COORD97":2545880.7799999998,"ADDRESS":"北園街９９巷３６號","OBJECTID":434832},"geometry":{"x":170244.37000000011,"y":2545880.7800000012}},{"attributes":{"ID":434858,"DIS_CODE":0,"TOWNNAME":"北區","LI":"開元里","LIN":"3鄰","STREET":"北園街","SECT":" ","MAREA":" ","LANE":"９９巷","ALLEY":" ","HOUSE_NO":"３８號","E_COORD97":170239.79000000001,"N_COORD97":2545881.98,"ADDRESS":"北園街９９巷３８號","OBJECTID":434833},"geometry":{"x":170239.79000000004,"y":2545881.9800000004}},{"attributes":{"ID":434859,"DIS_CODE":0,"TOWNNAME":"北區","LI":"開元里","LIN":"3鄰","STREET":"北園街","SECT":" ","MAREA":" ","LANE":"９９巷","ALLEY":" ","HOUSE_NO":"４０號","E_COORD97":170234.98999999999,"N_COORD97":2545882.52,"ADDRESS":"北園街９９巷４０號","OBJECTID":434834},"geometry":{"x":170234.99000000115,"y":2545882.5200000014}},{"attributes":{"ID":434860,"DIS_CODE":0,"TOWNNAME":"北區","LI":"開元里","LIN":"3鄰","STREET":"北園街","SECT":" ","MAREA":" ","LANE":"９９巷","ALLEY":" ","HOUSE_NO":"４２號","E_COORD97":170230.42000000001,"N_COORD97":2545883.0600000001,"ADDRESS":"北園街９９巷４２號","OBJECTID":434835},"geometry":{"x":170230.41999999993,"y":2545883.0600000024}},{"attributes":{"ID":434861,"DIS_CODE":0,"TOWNNAME":"北區","LI":"開元里","LIN":"3鄰","STREET":"北園街","SECT":" ","MAREA":" ","LANE":"９９巷","ALLEY":" ","HOUSE_NO":"４２號之１","E_COORD97":170225.84,"N_COORD97":2545883.0600000001,"ADDRESS":"北園街９９巷４２號之１","OBJECTID":434836},"geometry":{"x":170225.83999999985,"y":2545883.0600000024}},{"attributes":{"ID":434862,"DIS_CODE":0,"TOWNNAME":"北區","LI":"開元里","LIN":"3鄰","STREET":"北園街","SECT":" ","MAREA":" ","LANE":"９９巷","ALLEY":" ","HOUSE_NO":"４８號","E_COORD97":170216.45999999999,"N_COORD97":2545884.48,"ADDRESS":"北園街９９巷４８號","OBJECTID":434837},"geometry":{"x":170216.45999999996,"y":2545884.4800000004}},{"attributes":{"ID":434863,"DIS_CODE":0,"TOWNNAME":"北區","LI":"開元里","LIN":"3鄰","STREET":"北園街","SECT":" ","MAREA":" ","LANE":"９９巷","ALLEY":" ","HOUSE_NO":"５０號","E_COORD97":170211.76000000001,"N_COORD97":2545884.9199999999,"ADDRESS":"北園街９９巷５０號","OBJECTID":434838},"geometry":{"x":170211.76000000164,"y":2545884.9199999999}},{"attributes":{"ID":434864,"DIS_CODE":0,"TOWNNAME":"北區","LI":"開元里","LIN":"3鄰","STREET":"北園街","SECT":" ","MAREA":" ","LANE":"９９巷","ALLEY":" ","HOUSE_NO":"５２號","E_COORD97":170205.64000000001,"N_COORD97":2545884.8100000001,"ADDRESS":"北園街９９巷５２號","OBJECTID":434839},"geometry":{"x":170205.64000000153,"y":2545884.8100000024}},{"attributes":{"ID":434865,"DIS_CODE":0,"TOWNNAME":"北區","LI":"開元里","LIN":"3鄰","STREET":"北園街","SECT":" ","MAREA":" ","LANE":"９９巷","ALLEY":" ","HOUSE_NO":"５４號","E_COORD97":170199.85999999999,"N_COORD97":2545885.8999999999,"ADDRESS":"北園街９９巷５４號","OBJECTID":434840},"geometry":{"x":170199.86000000127,"y":2545885.9000000004}},{"attributes":{"ID":434866,"DIS_CODE":0,"TOWNNAME":"北區","LI":"開元里","LIN":"3鄰","STREET":"北園街","SECT":" ","MAREA":" ","LANE":"９９巷","ALLEY":" ","HOUSE_NO":"５６號","E_COORD97":170192.89000000001,"N_COORD97":2545885.8999999999,"ADDRESS":"北園街９９巷５６號","OBJECTID":434841},"geometry":{"x":170192.88999999966,"y":2545885.9000000004}},{"attributes":{"ID":434867,"DIS_CODE":0,"TOWNNAME":"新營區","LI":"民生里","LIN":"14鄰","STREET":"復興路","SECT":" ","MAREA":" ","LANE":"２３４巷","ALLEY":" ","HOUSE_NO":"９號","E_COORD97":178867.26999999999,"N_COORD97":2578143.98,"ADDRESS":"復興路２３４巷９號","OBJECTID":434842},"geometry":{"x":178867.27000000048,"y":2578143.9800000004}},{"attributes":{"ID":434868,"DIS_CODE":0,"TOWNNAME":"北區","LI":"開元里","LIN":"4鄰","STREET":"北園街","SECT":" ","MAREA":" ","LANE":"１０９巷","ALLEY":" ","HOUSE_NO":"１３號","E_COORD97":170295.85999999999,"N_COORD97":2545900.1099999999,"ADDRESS":"北園街１０９巷１３號","OBJECTID":434843},"geometry":{"x":170295.86000000034,"y":2545900.1099999994}},{"attributes":{"ID":434869,"DIS_CODE":0,"TOWNNAME":"北區","LI":"開元里","LIN":"4鄰","STREET":"北園街","SECT":" ","MAREA":" ","LANE":"１０９巷","ALLEY":" ","HOUSE_NO":"１５號","E_COORD97":170292.60999999999,"N_COORD97":2545900.7200000002,"ADDRESS":"北園街１０９巷１５號","OBJECTID":434844},"geometry":{"x":170292.61000000034,"y":2545900.7200000007}},{"attributes":{"ID":434870,"DIS_CODE":0,"TOWNNAME":"北區","LI":"開元里","LIN":"4鄰","STREET":"北園街","SECT":" ","MAREA":" ","LANE":"１０９巷","ALLEY":" ","HOUSE_NO":"１７號","E_COORD97":170287.51000000001,"N_COORD97":2545901.0699999998,"ADDRESS":"北園街１０９巷１７號","OBJECTID":434845},"geometry":{"x":170287.50999999978,"y":2545901.0700000003}},{"attributes":{"ID":434871,"DIS_CODE":0,"TOWNNAME":"北區","LI":"開元里","LIN":"4鄰","STREET":"北園街","SECT":" ","MAREA":" ","LANE":"１０９巷","ALLEY":" ","HOUSE_NO":"１９號","E_COORD97":170283.37,"N_COORD97":2545901.4199999999,"ADDRESS":"北園街１０９巷１９號","OBJECTID":434846},"geometry":{"x":170283.37000000011,"y":2545901.4199999999}},{"attributes":{"ID":434872,"DIS_CODE":0,"TOWNNAME":"北區","LI":"開元里","LIN":"4鄰","STREET":"北園街","SECT":" ","MAREA":" ","LANE":"１０９巷","ALLEY":" ","HOUSE_NO":"１號","E_COORD97":170321.47,"N_COORD97":2545896.4100000001,"ADDRESS":"北園街１０９巷１號","OBJECTID":434847},"geometry":{"x":170321.46999999974,"y":2545896.4100000039}},{"attributes":{"ID":434873,"DIS_CODE":0,"TOWNNAME":"將軍區","LI":"廣山里","LIN":"5鄰","STREET":" ","SECT":" ","MAREA":"廣山","LANE":" ","ALLEY":" ","HOUSE_NO":"４５號","E_COORD97":159774.97034100001,"N_COORD97":2568828.0964000002,"ADDRESS":"廣山４５號","OBJECTID":434848},"geometry":{"x":159774.97034100071,"y":2568828.0963980015}},{"attributes":{"ID":434874,"DIS_CODE":0,"TOWNNAME":"北區","LI":"開元里","LIN":"4鄰","STREET":"北園街","SECT":" ","MAREA":" ","LANE":"１０９巷","ALLEY":" ","HOUSE_NO":"２１號","E_COORD97":170278.54000000001,"N_COORD97":2545902.2200000002,"ADDRESS":"北園街１０９巷２１號","OBJECTID":434849},"geometry":{"x":170278.54000000097,"y":2545902.2200000025}},{"attributes":{"ID":434875,"DIS_CODE":0,"TOWNNAME":"北區","LI":"開元里","LIN":"4鄰","STREET":"北園街","SECT":" ","MAREA":" ","LANE":"１０９巷","ALLEY":" ","HOUSE_NO":"２３號","E_COORD97":170274.48999999999,"N_COORD97":2545902.48,"ADDRESS":"北園街１０９巷２３號","OBJECTID":434850},"geometry":{"x":170274.49000000022,"y":2545902.4800000004}},{"attributes":{"ID":434876,"DIS_CODE":0,"TOWNNAME":"北區","LI":"開元里","LIN":"4鄰","STREET":"北園街","SECT":" ","MAREA":" ","LANE":"１０９巷","ALLEY":" ","HOUSE_NO":"２５號","E_COORD97":170271.32000000001,"N_COORD97":2545902.7400000002,"ADDRESS":"北園街１０９巷２５號","OBJECTID":434851},"geometry":{"x":170271.32000000123,"y":2545902.7400000021}},{"attributes":{"ID":434877,"DIS_CODE":0,"TOWNNAME":"北區","LI":"開元里","LIN":"4鄰","STREET":"北園街","SECT":" ","MAREA":" ","LANE":"１０９巷","ALLEY":" ","HOUSE_NO":"２７號","E_COORD97":170266.47,"N_COORD97":2545903.5299999998,"ADDRESS":"北園街１０９巷２７號","OBJECTID":434852},"geometry":{"x":170266.47000000067,"y":2545903.5299999993}},{"attributes":{"ID":434878,"DIS_CODE":0,"TOWNNAME":"北區","LI":"開元里","LIN":"4鄰","STREET":"北園街","SECT":" ","MAREA":" ","LANE":"１０９巷","ALLEY":" ","HOUSE_NO":"２９號","E_COORD97":170262.60000000001,"N_COORD97":2545904.4100000001,"ADDRESS":"北園街１０９巷２９號","OBJECTID":434853},"geometry":{"x":170262.59999999963,"y":2545904.410000002}},{"attributes":{"ID":434879,"DIS_CODE":0,"TOWNNAME":"北區","LI":"開元里","LIN":"4鄰","STREET":"北園街","SECT":" ","MAREA":" ","LANE":"１０９巷","ALLEY":" ","HOUSE_NO":"３１號","E_COORD97":170258.10999999999,"N_COORD97":2545904.6699999999,"ADDRESS":"北園街１０９巷３１號","OBJECTID":434854},"geometry":{"x":170258.11000000127,"y":2545904.6700000037}},{"attributes":{"ID":434880,"DIS_CODE":0,"TOWNNAME":"北區","LI":"開元里","LIN":"4鄰","STREET":"北園街","SECT":" ","MAREA":" ","LANE":"１０９巷","ALLEY":" ","HOUSE_NO":"３號","E_COORD97":170317.69,"N_COORD97":2545897.2000000002,"ADDRESS":"北園街１０９巷３號","OBJECTID":434855},"geometry":{"x":170317.69000000041,"y":2545897.200000003}},{"attributes":{"ID":434881,"DIS_CODE":0,"TOWNNAME":"北區","LI":"開元里","LIN":"4鄰","STREET":"北園街","SECT":" ","MAREA":" ","LANE":"１０９巷","ALLEY":" ","HOUSE_NO":"５號","E_COORD97":170313.47,"N_COORD97":2545897.5499999998,"ADDRESS":"北園街１０９巷５號","OBJECTID":434856},"geometry":{"x":170313.46999999881,"y":2545897.5500000026}},{"attributes":{"ID":434882,"DIS_CODE":0,"TOWNNAME":"北區","LI":"開元里","LIN":"4鄰","STREET":"北園街","SECT":" ","MAREA":" ","LANE":"１０９巷","ALLEY":" ","HOUSE_NO":"７號","E_COORD97":170309.42000000001,"N_COORD97":2545898.1699999999,"ADDRESS":"北園街１０９巷７號","OBJECTID":434857},"geometry":{"x":170309.42000000086,"y":2545898.1700000018}},{"attributes":{"ID":434883,"DIS_CODE":0,"TOWNNAME":"北區","LI":"開元里","LIN":"4鄰","STREET":"北園街","SECT":" ","MAREA":" ","LANE":"１０９巷","ALLEY":" ","HOUSE_NO":"９號","E_COORD97":170304.5,"N_COORD97":2545899.1299999999,"ADDRESS":"北園街１０９巷９號","OBJECTID":434858},"geometry":{"x":170304.5,"y":2545899.129999999}},{"attributes":{"ID":434884,"DIS_CODE":0,"TOWNNAME":"北區","LI":"開元里","LIN":"3鄰","STREET":"北園街","SECT":" ","MAREA":" ","LANE":"９９巷","ALLEY":" ","HOUSE_NO":"３２號","E_COORD97":170256.10999999999,"N_COORD97":2545881.9300000002,"ADDRESS":"北園街９９巷３２號","OBJECTID":434859},"geometry":{"x":170256.11000000127,"y":2545881.9299999997}},{"attributes":{"ID":434885,"DIS_CODE":0,"TOWNNAME":"北區","LI":"大港里","LIN":"32鄰","STREET":"大興街","SECT":" ","MAREA":" ","LANE":"５０２巷","ALLEY":" ","HOUSE_NO":"８號","E_COORD97":166060.88,"N_COORD97":2545511.1400000001,"ADDRESS":"大興街５０２巷８號","OBJECTID":434860},"geometry":{"x":166060.87999999989,"y":2545511.1400000006}},{"attributes":{"ID":434886,"DIS_CODE":0,"TOWNNAME":"北區","LI":"六甲里","LIN":"14鄰","STREET":"和緯路","SECT":"二段","MAREA":" ","LANE":"３０巷","ALLEY":" ","HOUSE_NO":"３１號","E_COORD97":169039.88,"N_COORD97":2545776.54,"ADDRESS":"和緯路二段３０巷３１號","OBJECTID":434861},"geometry":{"x":169039.88000000082,"y":2545776.540000001}},{"attributes":{"ID":434887,"DIS_CODE":0,"TOWNNAME":"北區","LI":"仁愛里","LIN":"7鄰","STREET":"開元路","SECT":" ","MAREA":" ","LANE":"１４８巷","ALLEY":" ","HOUSE_NO":"１０６之１號三髏","E_COORD97":170049.01999999999,"N_COORD97":2545003.5600000001,"ADDRESS":"開元路１４８巷１０６之１號三髏","OBJECTID":434862},"geometry":{"x":170049.02000000048,"y":2545003.5600000005}},{"attributes":{"ID":434888,"DIS_CODE":0,"TOWNNAME":"北區","LI":"元寶里","LIN":"17鄰","STREET":"開元路","SECT":" ","MAREA":" ","LANE":"４８５巷","ALLEY":" ","HOUSE_NO":"４２之５號","E_COORD97":170538.28,"N_COORD97":2545764.1099999999,"ADDRESS":"開元路４８５巷４２之５號","OBJECTID":434863},"geometry":{"x":170538.28000000119,"y":2545764.1099999994}},{"attributes":{"ID":434889,"DIS_CODE":0,"TOWNNAME":"北區","LI":"中樓里","LIN":"8鄰","STREET":"東豐路","SECT":" ","MAREA":" ","LANE":"８５巷","ALLEY":" ","HOUSE_NO":"６９號","E_COORD97":169732.25,"N_COORD97":2544990.3300000001,"ADDRESS":"東豐路８５巷６９號","OBJECTID":434864},"geometry":{"x":169732.25000000186,"y":2544990.3300000001}},{"attributes":{"ID":434890,"DIS_CODE":0,"TOWNNAME":"北區","LI":"成德里","LIN":"14鄰","STREET":"育德二路","SECT":" ","MAREA":" ","LANE":"２０５巷","ALLEY":" ","HOUSE_NO":"１３號","E_COORD97":168322.38,"N_COORD97":2545732.3199999998,"ADDRESS":"育德二路２０５巷１３號","OBJECTID":434865},"geometry":{"x":168322.37999999896,"y":2545732.3200000022}},{"attributes":{"ID":434891,"DIS_CODE":0,"TOWNNAME":"北區","LI":"文成里","LIN":"13鄰","STREET":"海安路","SECT":"三段","MAREA":" ","LANE":"３５７巷","ALLEY":" ","HOUSE_NO":"２８號","E_COORD97":167858.79999999999,"N_COORD97":2545479.1499999999,"ADDRESS":"海安路三段３５７巷２８號","OBJECTID":434866},"geometry":{"x":167858.80000000075,"y":2545479.1500000022}},{"attributes":{"ID":434892,"DIS_CODE":0,"TOWNNAME":"北區","LI":" ","LIN":" ","STREET":"開元路","SECT":" ","MAREA":" ","LANE":"１４８巷","ALLEY":" ","HOUSE_NO":"６９號","E_COORD97":170155.62,"N_COORD97":2545058.6699999999,"ADDRESS":"開元路１４８巷６９號","OBJECTID":434867},"geometry":{"x":170155.62000000104,"y":2545058.6700000018}},{"attributes":{"ID":434893,"DIS_CODE":0,"TOWNNAME":"北區","LI":" ","LIN":" ","STREET":"開元路","SECT":" ","MAREA":" ","LANE":"１４８巷","ALLEY":" ","HOUSE_NO":"７１號","E_COORD97":170150.70000000001,"N_COORD97":2545057.8700000001,"ADDRESS":"開元路１４８巷７１號","OBJECTID":434868},"geometry":{"x":170150.70000000019,"y":2545057.8700000029}},{"attributes":{"ID":434894,"DIS_CODE":0,"TOWNNAME":"北區","LI":" ","LIN":" ","STREET":"開元路","SECT":" ","MAREA":" ","LANE":"１４８巷","ALLEY":" ","HOUSE_NO":"７３號","E_COORD97":170145.78,"N_COORD97":2545056.7599999998,"ADDRESS":"開元路１４８巷７３號","OBJECTID":434869},"geometry":{"x":170145.77999999933,"y":2545056.7600000016}},{"attributes":{"ID":434895,"DIS_CODE":0,"TOWNNAME":"安平區","LI":"平安里","LIN":"3鄰","STREET":"安平路","SECT":" ","MAREA":" ","LANE":"９８巷","ALLEY":" ","HOUSE_NO":"１２號","E_COORD97":166380.29999999999,"N_COORD97":2544364.3599999999,"ADDRESS":"安平路９８巷１２號","OBJECTID":434870},"geometry":{"x":166380.30000000168,"y":2544364.3600000013}},{"attributes":{"ID":434896,"DIS_CODE":0,"TOWNNAME":"安平區","LI":"平安里","LIN":"3鄰","STREET":"安平路","SECT":" ","MAREA":" ","LANE":"９８巷","ALLEY":" ","HOUSE_NO":"１３號","E_COORD97":166367.28,"N_COORD97":2544368.46,"ADDRESS":"安平路９８巷１３號","OBJECTID":434871},"geometry":{"x":166367.28000000212,"y":2544368.4600000028}},{"attributes":{"ID":434897,"DIS_CODE":0,"TOWNNAME":"安平區","LI":"平安里","LIN":"3鄰","STREET":"安平路","SECT":" ","MAREA":" ","LANE":"９８巷","ALLEY":" ","HOUSE_NO":"１４號","E_COORD97":166380.95999999999,"N_COORD97":2544368.5699999998,"ADDRESS":"安平路９８巷１４號","OBJECTID":434872},"geometry":{"x":166380.95999999903,"y":2544368.5700000003}},{"attributes":{"ID":434898,"DIS_CODE":0,"TOWNNAME":"安平區","LI":"平安里","LIN":"3鄰","STREET":"安平路","SECT":" ","MAREA":" ","LANE":"９８巷","ALLEY":" ","HOUSE_NO":"１５號","E_COORD97":166367.20000000001,"N_COORD97":2544372.0699999998,"ADDRESS":"安平路９８巷１５號","OBJECTID":434873},"geometry":{"x":166367.20000000019,"y":2544372.0700000003}},{"attributes":{"ID":434899,"DIS_CODE":0,"TOWNNAME":"安平區","LI":"平安里","LIN":"3鄰","STREET":"安平路","SECT":" ","MAREA":" ","LANE":"９８巷","ALLEY":" ","HOUSE_NO":"１６號","E_COORD97":166381.70000000001,"N_COORD97":2544373.21,"ADDRESS":"安平路９８巷１６號","OBJECTID":434874},"geometry":{"x":166381.70000000112,"y":2544373.2100000046}},{"attributes":{"ID":434900,"DIS_CODE":0,"TOWNNAME":"玉井區","LI":"玉田里","LIN":"40鄰","STREET":"和平街","SECT":" ","MAREA":" ","LANE":" ","ALLEY":" ","HOUSE_NO":"１３７號","E_COORD97":195273.92999999999,"N_COORD97":2557512.25,"ADDRESS":"和平街１３７號","OBJECTID":434875},"geometry":{"x":195273.93000000063,"y":2557512.25}},{"attributes":{"ID":434901,"DIS_CODE":0,"TOWNNAME":"安平區","LI":"平安里","LIN":"3鄰","STREET":"安平路","SECT":" ","MAREA":" ","LANE":"９８巷","ALLEY":" ","HOUSE_NO":"１７號","E_COORD97":166367.04999999999,"N_COORD97":2544376.2000000002,"ADDRESS":"安平路９８巷１７號","OBJECTID":434876},"geometry":{"x":166367.05000000075,"y":2544376.2000000011}},{"attributes":{"ID":434902,"DIS_CODE":0,"TOWNNAME":"安平區","LI":"平安里","LIN":"2鄰","STREET":"安平路","SECT":" ","MAREA":" ","LANE":"８０巷","ALLEY":" ","HOUSE_NO":"１５號","E_COORD97":166402.41,"N_COORD97":2544371.7799999998,"ADDRESS":"安平路８０巷１５號","OBJECTID":434877},"geometry":{"x":166402.41000000108,"y":2544371.7800000012}},{"attributes":{"ID":434903,"DIS_CODE":0,"TOWNNAME":"安平區","LI":"平安里","LIN":"2鄰","STREET":"安平路","SECT":" ","MAREA":" ","LANE":"８０巷","ALLEY":" ","HOUSE_NO":"１７號","E_COORD97":166402.10999999999,"N_COORD97":2544376.5699999998,"ADDRESS":"安平路８０巷１７號","OBJECTID":434878},"geometry":{"x":166402.11000000034,"y":2544376.570000004}},{"attributes":{"ID":434904,"DIS_CODE":0,"TOWNNAME":"安平區","LI":"平安里","LIN":"2鄰","STREET":"安平路","SECT":" ","MAREA":" ","LANE":"８０巷","ALLEY":" ","HOUSE_NO":"１８號","E_COORD97":166419.45999999999,"N_COORD97":2544369.8300000001,"ADDRESS":"安平路８０巷１８號","OBJECTID":434879},"geometry":{"x":166419.45999999996,"y":2544369.8300000001}},{"attributes":{"ID":434905,"DIS_CODE":0,"TOWNNAME":"安平區","LI":"平安里","LIN":"2鄰","STREET":"安平路","SECT":" ","MAREA":" ","LANE":"８０巷","ALLEY":" ","HOUSE_NO":"１９號","E_COORD97":166406.37,"N_COORD97":2544380.96,"ADDRESS":"安平路８０巷１９號","OBJECTID":434880},"geometry":{"x":166406.37000000104,"y":2544380.9600000009}},{"attributes":{"ID":434906,"DIS_CODE":0,"TOWNNAME":"安平區","LI":"平安里","LIN":"2鄰","STREET":"安平路","SECT":" ","MAREA":" ","LANE":"８０巷","ALLEY":" ","HOUSE_NO":"２０號","E_COORD97":166420.42000000001,"N_COORD97":2544373.8100000001,"ADDRESS":"安平路８０巷２０號","OBJECTID":434881},"geometry":{"x":166420.42000000086,"y":2544373.8100000005}},{"attributes":{"ID":434907,"DIS_CODE":0,"TOWNNAME":"安平區","LI":"平安里","LIN":"2鄰","STREET":"安平路","SECT":" ","MAREA":" ","LANE":"８０巷","ALLEY":" ","HOUSE_NO":"２２號","E_COORD97":166420.26999999999,"N_COORD97":2544378.1899999999,"ADDRESS":"安平路８０巷２２號","OBJECTID":434882},"geometry":{"x":166420.26999999955,"y":2544378.1899999976}},{"attributes":{"ID":434908,"DIS_CODE":0,"TOWNNAME":"安平區","LI":"平安里","LIN":"2鄰","STREET":"安平路","SECT":" ","MAREA":" ","LANE":"８０巷","ALLEY":" ","HOUSE_NO":"２４號","E_COORD97":166421.09,"N_COORD97":2544382.4700000002,"ADDRESS":"安平路８０巷２４號","OBJECTID":434883},"geometry":{"x":166421.09000000078,"y":2544382.4700000025}},{"attributes":{"ID":434909,"DIS_CODE":0,"TOWNNAME":"北區","LI":"長榮里","LIN":"18鄰","STREET":"開元路","SECT":" ","MAREA":" ","LANE":"２４９巷","ALLEY":" ","HOUSE_NO":"１６號","E_COORD97":169922.07999999999,"N_COORD97":2545497.6899999999,"ADDRESS":"開元路２４９巷１６號","OBJECTID":434884},"geometry":{"x":169922.08000000101,"y":2545497.6900000013}},{"attributes":{"ID":434910,"DIS_CODE":0,"TOWNNAME":"北區","LI":"和順里","LIN":"39鄰","STREET":"臨安路","SECT":"二段","MAREA":" ","LANE":"２７２巷","ALLEY":" ","HOUSE_NO":"１號","E_COORD97":168194.17999999999,"N_COORD97":2544993.0600000001,"ADDRESS":"臨安路二段２７２巷１號","OBJECTID":434885},"geometry":{"x":168194.1799999997,"y":2544993.0600000005}},{"attributes":{"ID":434911,"DIS_CODE":0,"TOWNNAME":"北區","LI":"長榮里","LIN":"14鄰","STREET":"開元路","SECT":" ","MAREA":" ","LANE":"２４９巷","ALLEY":" ","HOUSE_NO":"７０號","E_COORD97":169823.48999999999,"N_COORD97":2545572.46,"ADDRESS":"開元路２４９巷７０號","OBJECTID":434886},"geometry":{"x":169823.49000000022,"y":2545572.4600000028}},{"attributes":{"ID":434912,"DIS_CODE":0,"TOWNNAME":"北區","LI":"長榮里","LIN":"14鄰","STREET":"開元路","SECT":" ","MAREA":" ","LANE":"２４９巷","ALLEY":" ","HOUSE_NO":"７２號","E_COORD97":169820.16,"N_COORD97":2545575.1600000001,"ADDRESS":"開元路２４９巷７２號","OBJECTID":434887},"geometry":{"x":169820.16000000108,"y":2545575.1600000001}},{"attributes":{"ID":434913,"DIS_CODE":0,"TOWNNAME":"北區","LI":"長榮里","LIN":"14鄰","STREET":"開元路","SECT":" ","MAREA":" ","LANE":"２４９巷","ALLEY":" ","HOUSE_NO":"７６號","E_COORD97":169816.98000000001,"N_COORD97":2545577.3799999999,"ADDRESS":"開元路２４９巷７６號","OBJECTID":434888},"geometry":{"x":169816.98000000045,"y":2545577.3800000008}},{"attributes":{"ID":434914,"DIS_CODE":0,"TOWNNAME":"北區","LI":"長榮里","LIN":"14鄰","STREET":"開元路","SECT":" ","MAREA":" ","LANE":"２４９巷","ALLEY":" ","HOUSE_NO":"７８號","E_COORD97":169813.48999999999,"N_COORD97":2545579.9199999999,"ADDRESS":"開元路２４９巷７８號","OBJECTID":434889},"geometry":{"x":169813.49000000022,"y":2545579.9199999999}},{"attributes":{"ID":434915,"DIS_CODE":0,"TOWNNAME":"南區","LI":"金華里","LIN":"34鄰","STREET":"新孝路","SECT":" ","MAREA":" ","LANE":"１７２巷","ALLEY":" ","HOUSE_NO":"７１號","E_COORD97":166511.95999999999,"N_COORD97":2542285.7999999998,"ADDRESS":"新孝路１７２巷７１號","OBJECTID":434890},"geometry":{"x":166511.96000000089,"y":2542285.8000000007}},{"attributes":{"ID":434916,"DIS_CODE":0,"TOWNNAME":"南區","LI":"金華里","LIN":"34鄰","STREET":"新孝路","SECT":" ","MAREA":" ","LANE":"１７２巷","ALLEY":" ","HOUSE_NO":"７３號","E_COORD97":166512.94,"N_COORD97":2542289.8599999999,"ADDRESS":"新孝路１７２巷７３號","OBJECTID":434891},"geometry":{"x":166512.94000000134,"y":2542289.8600000013}},{"attributes":{"ID":434917,"DIS_CODE":0,"TOWNNAME":"新營區","LI":"民生里","LIN":"20鄰","STREET":"進修街","SECT":" ","MAREA":" ","LANE":"２９巷","ALLEY":" ","HOUSE_NO":"８號","E_COORD97":178977.26999999999,"N_COORD97":2578452.4399999999,"ADDRESS":"進修街２９巷８號","OBJECTID":434892},"geometry":{"x":178977.27000000142,"y":2578452.4399999995}},{"attributes":{"ID":434918,"DIS_CODE":0,"TOWNNAME":"新營區","LI":"南興里","LIN":"11鄰","STREET":"和平路","SECT":" ","MAREA":" ","LANE":"１０２巷","ALLEY":" ","HOUSE_NO":"３７號之２","E_COORD97":179302.22,"N_COORD97":2577594.8900000001,"ADDRESS":"和平路１０２巷３７之２號","OBJECTID":434893},"geometry":{"x":179302.22000000067,"y":2577594.8900000025}},{"attributes":{"ID":434919,"DIS_CODE":0,"TOWNNAME":"新營區","LI":"興業里","LIN":" ","STREET":"公誠街","SECT":" ","MAREA":" ","LANE":"９巷","ALLEY":" ","HOUSE_NO":"７之２號","E_COORD97":180330.94,"N_COORD97":2578018.6000000001,"ADDRESS":"公誠街９巷７之２號","OBJECTID":434894},"geometry":{"x":180330.94000000041,"y":2578018.6000000034}},{"attributes":{"ID":434920,"DIS_CODE":0,"TOWNNAME":"新營區","LI":"南興里","LIN":"26鄰","STREET":"和平路","SECT":" ","MAREA":" ","LANE":"１０４巷","ALLEY":" ","HOUSE_NO":"１５號","E_COORD97":179359.76999999999,"N_COORD97":2577549.1400000001,"ADDRESS":"和平路１０４巷１５號","OBJECTID":434895},"geometry":{"x":179359.76999999955,"y":2577549.1400000025}},{"attributes":{"ID":434921,"DIS_CODE":0,"TOWNNAME":"新營區","LI":"新東里","LIN":"4鄰","STREET":"東大街","SECT":" ","MAREA":" ","LANE":"５２巷","ALLEY":" ","HOUSE_NO":"３０號","E_COORD97":181124.63,"N_COORD97":2579137.7799999998,"ADDRESS":"東大街５２巷３０號","OBJECTID":434896},"geometry":{"x":181124.63000000175,"y":2579137.7799999993}},{"attributes":{"ID":434922,"DIS_CODE":0,"TOWNNAME":"新營區","LI":"興業里","LIN":" ","STREET":"中興路","SECT":" ","MAREA":" ","LANE":"１３巷","ALLEY":" ","HOUSE_NO":"３０之２號","E_COORD97":180274.70000000001,"N_COORD97":2577960.1699999999,"ADDRESS":"中興路１３巷３０之２號","OBJECTID":434897},"geometry":{"x":180274.70000000019,"y":2577960.1699999999}},{"attributes":{"ID":434923,"DIS_CODE":0,"TOWNNAME":"新營區","LI":"興業里","LIN":" ","STREET":"中興路","SECT":" ","MAREA":" ","LANE":"１５巷","ALLEY":" ","HOUSE_NO":"１４之２號","E_COORD97":180208.94,"N_COORD97":2577918.3999999999,"ADDRESS":"中興路１５巷１４之２號","OBJECTID":434898},"geometry":{"x":180208.94000000041,"y":2577918.4000000004}},{"attributes":{"ID":434924,"DIS_CODE":0,"TOWNNAME":"新營區","LI":"王公里","LIN":"13鄰","STREET":"民族路","SECT":" ","MAREA":" ","LANE":"１１４巷","ALLEY":" ","HOUSE_NO":"５２號","E_COORD97":180484.60000000001,"N_COORD97":2579207.2200000002,"ADDRESS":"民族路１１４巷５２號","OBJECTID":434899},"geometry":{"x":180484.59999999963,"y":2579207.2200000007}},{"attributes":{"ID":434925,"DIS_CODE":0,"TOWNNAME":"新營區","LI":"民榮里","LIN":" ","STREET":"裕民路","SECT":" ","MAREA":" ","LANE":"５８巷","ALLEY":" ","HOUSE_NO":"４０之３號","E_COORD97":179033.32000000001,"N_COORD97":2577838.71,"ADDRESS":"裕民路５８巷４０之３號","OBJECTID":434900},"geometry":{"x":179033.3200000003,"y":2577838.7100000009}},{"attributes":{"ID":434926,"DIS_CODE":0,"TOWNNAME":"新營區","LI":"興業里","LIN":" ","STREET":"中興路","SECT":" ","MAREA":" ","LANE":"１５巷","ALLEY":" ","HOUSE_NO":"１４之１號","E_COORD97":180208.94,"N_COORD97":2577918.3999999999,"ADDRESS":"中興路１５巷１４之１號","OBJECTID":434901},"geometry":{"x":180208.94000000041,"y":2577918.4000000004}},{"attributes":{"ID":434927,"DIS_CODE":0,"TOWNNAME":"新營區","LI":"新東里","LIN":"26鄰","STREET":"東興三街","SECT":" ","MAREA":" ","LANE":"２２巷","ALLEY":" ","HOUSE_NO":"４２之７號","E_COORD97":180696.79999999999,"N_COORD97":2579418.9100000001,"ADDRESS":"東興三街２２巷４２之７號","OBJECTID":434902},"geometry":{"x":180696.80000000075,"y":2579418.9100000001}},{"attributes":{"ID":434928,"DIS_CODE":0,"TOWNNAME":"新營區","LI":"民生里","LIN":"14鄰","STREET":"復興路","SECT":" ","MAREA":" ","LANE":"２３４巷","ALLEY":" ","HOUSE_NO":"１號","E_COORD97":178935.73000000001,"N_COORD97":2578121.5099999998,"ADDRESS":"復興路２３４巷１號","OBJECTID":434903},"geometry":{"x":178935.73000000045,"y":2578121.5100000016}},{"attributes":{"ID":434929,"DIS_CODE":0,"TOWNNAME":"新營區","LI":"新東里","LIN":"23鄰","STREET":"大同路","SECT":" ","MAREA":" ","LANE":"７２巷","ALLEY":" ","HOUSE_NO":"２８號","E_COORD97":180756.04999999999,"N_COORD97":2578966.7999999998,"ADDRESS":"大同路７２巷２８號","OBJECTID":434904},"geometry":{"x":180756.05000000075,"y":2578966.8000000007}},{"attributes":{"ID":434930,"DIS_CODE":0,"TOWNNAME":"新營區","LI":"南興里","LIN":" ","STREET":"興農街","SECT":" ","MAREA":" ","LANE":"１４０巷","ALLEY":" ","HOUSE_NO":"１５之２號","E_COORD97":179194.39000000001,"N_COORD97":2577525.6299999999,"ADDRESS":"興農街１４０巷１５之２號","OBJECTID":434905},"geometry":{"x":179194.38999999966,"y":2577525.629999999}},{"attributes":{"ID":434931,"DIS_CODE":0,"TOWNNAME":"新營區","LI":"興業里","LIN":" ","STREET":"中興路","SECT":" ","MAREA":" ","LANE":"１５巷","ALLEY":" ","HOUSE_NO":"１５之２號","E_COORD97":180219.25,"N_COORD97":2577936.0699999998,"ADDRESS":"中興路１５巷１５之２號","OBJECTID":434906},"geometry":{"x":180219.25000000093,"y":2577936.0700000022}},{"attributes":{"ID":434932,"DIS_CODE":0,"TOWNNAME":"新營區","LI":"興業里","LIN":" ","STREET":"公誠街","SECT":" ","MAREA":" ","LANE":"１７巷","ALLEY":" ","HOUSE_NO":"１之４號","E_COORD97":180313.17000000001,"N_COORD97":2577944.48,"ADDRESS":"公誠街１７巷１之４號","OBJECTID":434907},"geometry":{"x":180313.17000000086,"y":2577944.4800000004}},{"attributes":{"ID":434933,"DIS_CODE":0,"TOWNNAME":"新營區","LI":"南興里","LIN":"26鄰","STREET":"和平路","SECT":" ","MAREA":" ","LANE":"１０４巷","ALLEY":" ","HOUSE_NO":"１號","E_COORD97":179391.23999999999,"N_COORD97":2577546.77,"ADDRESS":"和平路１０４巷１號","OBJECTID":434908},"geometry":{"x":179391.24000000022,"y":2577546.7700000014}},{"attributes":{"ID":434934,"DIS_CODE":0,"TOWNNAME":"新營區","LI":"埤寮里","LIN":"13鄰","STREET":"中正路","SECT":" ","MAREA":" ","LANE":"３３５巷","ALLEY":" ","HOUSE_NO":"１８號","E_COORD97":179991.78,"N_COORD97":2580113.2200000002,"ADDRESS":"中正路３３５巷１８號","OBJECTID":434909},"geometry":{"x":179991.78000000119,"y":2580113.2200000007}},{"attributes":{"ID":434935,"DIS_CODE":0,"TOWNNAME":"新營區","LI":"民榮里","LIN":"32鄰","STREET":"太子路","SECT":" ","MAREA":" ","LANE":"５３巷","ALLEY":" ","HOUSE_NO":"２之１號","E_COORD97":178320.92999999999,"N_COORD97":2578007.1400000001,"ADDRESS":"太子路５３巷２之１號","OBJECTID":434910},"geometry":{"x":178320.93000000063,"y":2578007.1400000025}},{"attributes":{"ID":434936,"DIS_CODE":0,"TOWNNAME":"新營區","LI":"埤寮里","LIN":"13鄰","STREET":"中正路","SECT":" ","MAREA":" ","LANE":"４３９巷","ALLEY":" ","HOUSE_NO":"２之２號","E_COORD97":179912.45000000001,"N_COORD97":2580359.5,"ADDRESS":"中正路４３９巷２之２號","OBJECTID":434911},"geometry":{"x":179912.45000000205,"y":2580359.5000000019}},{"attributes":{"ID":434937,"DIS_CODE":0,"TOWNNAME":"新營區","LI":"興業里","LIN":" ","STREET":"公誠街","SECT":" ","MAREA":" ","LANE":"９巷","ALLEY":" ","HOUSE_NO":"８之２號","E_COORD97":180330.91,"N_COORD97":2578003.0899999999,"ADDRESS":"公誠街９巷８之２號","OBJECTID":434912},"geometry":{"x":180330.91000000015,"y":2578003.0900000017}},{"attributes":{"ID":434938,"DIS_CODE":0,"TOWNNAME":"新營區","LI":"新東里","LIN":"23鄰","STREET":"大同路","SECT":" ","MAREA":" ","LANE":"７２巷","ALLEY":" ","HOUSE_NO":"１２號","E_COORD97":180731.51000000001,"N_COORD97":2578968.02,"ADDRESS":"大同路７２巷１２號","OBJECTID":434913},"geometry":{"x":180731.50999999978,"y":2578968.0199999977}},{"attributes":{"ID":434939,"DIS_CODE":0,"TOWNNAME":"新營區","LI":"新東里","LIN":"20鄰","STREET":"東明街","SECT":" ","MAREA":" ","LANE":"２８巷","ALLEY":" ","HOUSE_NO":"２１號","E_COORD97":180862.85999999999,"N_COORD97":2579597.48,"ADDRESS":"東明街２８巷２１號","OBJECTID":434914},"geometry":{"x":180862.86000000127,"y":2579597.4800000023}},{"attributes":{"ID":434940,"DIS_CODE":0,"TOWNNAME":"新營區","LI":"興業里","LIN":" ","STREET":"公誠街","SECT":" ","MAREA":" ","LANE":"９巷","ALLEY":" ","HOUSE_NO":"８之１號","E_COORD97":180330.91,"N_COORD97":2578003.0899999999,"ADDRESS":"公誠街９巷８之１號","OBJECTID":434915},"geometry":{"x":180330.91000000015,"y":2578003.0900000017}},{"attributes":{"ID":434941,"DIS_CODE":0,"TOWNNAME":"新營區","LI":"南興里","LIN":"10鄰","STREET":"和平路","SECT":" ","MAREA":" ","LANE":"１０２巷","ALLEY":" ","HOUSE_NO":"３號之１","E_COORD97":179389.94,"N_COORD97":2577591.1499999999,"ADDRESS":"和平路１０２巷３之１號","OBJECTID":434916},"geometry":{"x":179389.94000000041,"y":2577591.1500000004}},{"attributes":{"ID":434942,"DIS_CODE":0,"TOWNNAME":"新營區","LI":"興業里","LIN":" ","STREET":"公誠街","SECT":" ","MAREA":" ","LANE":"９巷","ALLEY":" ","HOUSE_NO":"７之４號","E_COORD97":180330.94,"N_COORD97":2578018.6000000001,"ADDRESS":"公誠街９巷７之４號","OBJECTID":434917},"geometry":{"x":180330.94000000041,"y":2578018.6000000034}},{"attributes":{"ID":434943,"DIS_CODE":0,"TOWNNAME":"新營區","LI":"新東里","LIN":"20鄰","STREET":"東明街","SECT":" ","MAREA":" ","LANE":"２巷","ALLEY":" ","HOUSE_NO":"９號","E_COORD97":180813.19,"N_COORD97":2579542.3300000001,"ADDRESS":"東明街２巷９號","OBJECTID":434918},"geometry":{"x":180813.19000000134,"y":2579542.3300000001}},{"attributes":{"ID":434944,"DIS_CODE":0,"TOWNNAME":"新營區","LI":"民生里","LIN":" ","STREET":"民生路","SECT":" ","MAREA":" ","LANE":"１６３巷","ALLEY":" ","HOUSE_NO":"１０８之１號","E_COORD97":179093.97,"N_COORD97":2578509.5299999998,"ADDRESS":"民生路１６３巷１０８之１號","OBJECTID":434919},"geometry":{"x":179093.96999999974,"y":2578509.5299999993}},{"attributes":{"ID":434945,"DIS_CODE":0,"TOWNNAME":"新營區","LI":"興業里","LIN":" ","STREET":"中興路","SECT":" ","MAREA":" ","LANE":"１５巷","ALLEY":" ","HOUSE_NO":"２７之４號","E_COORD97":180281.70000000001,"N_COORD97":2577933.5600000001,"ADDRESS":"中興路１５巷２７之４號","OBJECTID":434920},"geometry":{"x":180281.70000000019,"y":2577933.5600000005}},{"attributes":{"ID":434946,"DIS_CODE":0,"TOWNNAME":"新營區","LI":"嘉芳里","LIN":" ","STREET":"復興路","SECT":" ","MAREA":" ","LANE":"１０００巷","ALLEY":" ","HOUSE_NO":"１之１４號","E_COORD97":176326.98000000001,"N_COORD97":2578937.23,"ADDRESS":"復興路１０００巷１之１４號","OBJECTID":434921},"geometry":{"x":176326.97999999952,"y":2578937.2300000042}},{"attributes":{"ID":434947,"DIS_CODE":0,"TOWNNAME":"新營區","LI":"南興里","LIN":" ","STREET":"興農街","SECT":" ","MAREA":" ","LANE":"１３６巷","ALLEY":" ","HOUSE_NO":"２４之３號","E_COORD97":179156.04000000001,"N_COORD97":2577618.8399999999,"ADDRESS":"興農街１３６巷２４之３號","OBJECTID":434922},"geometry":{"x":179156.04000000097,"y":2577618.8399999999}},{"attributes":{"ID":434948,"DIS_CODE":0,"TOWNNAME":"新營區","LI":"新東里","LIN":"20鄰","STREET":"東明街","SECT":" ","MAREA":" ","LANE":"２８巷","ALLEY":" ","HOUSE_NO":"３號","E_COORD97":180825.84,"N_COORD97":2579596.54,"ADDRESS":"東明街２８巷３號","OBJECTID":434923},"geometry":{"x":180825.83999999985,"y":2579596.540000001}},{"attributes":{"ID":434949,"DIS_CODE":0,"TOWNNAME":"新營區","LI":"南興里","LIN":"4鄰","STREET":"和平路","SECT":" ","MAREA":" ","LANE":"９５巷","ALLEY":" ","HOUSE_NO":"４７號","E_COORD97":179554.47,"N_COORD97":2577605.8100000001,"ADDRESS":"和平路９５巷４７號","OBJECTID":434924},"geometry":{"x":179554.47000000067,"y":2577605.8100000024}},{"attributes":{"ID":434950,"DIS_CODE":0,"TOWNNAME":"新營區","LI":"興業里","LIN":"4鄰","STREET":"公誠街","SECT":" ","MAREA":" ","LANE":"７巷","ALLEY":" ","HOUSE_NO":"１４號","E_COORD97":180350.28,"N_COORD97":2578052.7799999998,"ADDRESS":"公誠街７巷１４號","OBJECTID":434925},"geometry":{"x":180350.28000000026,"y":2578052.7799999993}},{"attributes":{"ID":434951,"DIS_CODE":0,"TOWNNAME":"新營區","LI":"興業里","LIN":" ","STREET":"公誠街","SECT":" ","MAREA":" ","LANE":"９巷","ALLEY":" ","HOUSE_NO":"１４之２號","E_COORD97":180358.67000000001,"N_COORD97":2578001.8599999999,"ADDRESS":"公誠街９巷１４之２號","OBJECTID":434926},"geometry":{"x":180358.67000000086,"y":2578001.8599999994}},{"attributes":{"ID":434952,"DIS_CODE":0,"TOWNNAME":"新營區","LI":"興業里","LIN":" ","STREET":"中興路","SECT":" ","MAREA":" ","LANE":"１５巷","ALLEY":" ","HOUSE_NO":"２之３號","E_COORD97":180146.39999999999,"N_COORD97":2577920.8999999999,"ADDRESS":"中興路１５巷２之３號","OBJECTID":434927},"geometry":{"x":180146.40000000037,"y":2577920.9000000004}},{"attributes":{"ID":434953,"DIS_CODE":0,"TOWNNAME":"新營區","LI":"南興里","LIN":" ","STREET":"興農街","SECT":" ","MAREA":" ","LANE":"１４０巷","ALLEY":" ","HOUSE_NO":"１３之１號","E_COORD97":179197.45999999999,"N_COORD97":2577525.6200000001,"ADDRESS":"興農街１４０巷１３之１號","OBJECTID":434928},"geometry":{"x":179197.46000000089,"y":2577525.6200000029}},{"attributes":{"ID":434954,"DIS_CODE":0,"TOWNNAME":"新營區","LI":"興業里","LIN":" ","STREET":"中興路","SECT":" ","MAREA":" ","LANE":"１５巷","ALLEY":" ","HOUSE_NO":"２８之２號","E_COORD97":180280.60000000001,"N_COORD97":2577915.8500000001,"ADDRESS":"中興路１５巷２８之２號","OBJECTID":434929},"geometry":{"x":180280.60000000056,"y":2577915.8500000015}},{"attributes":{"ID":434955,"DIS_CODE":0,"TOWNNAME":"新營區","LI":"南興里","LIN":"9鄰","STREET":"和平路","SECT":" ","MAREA":" ","LANE":"１０２巷","ALLEY":" ","HOUSE_NO":"２２號之２","E_COORD97":179351.39999999999,"N_COORD97":2577615.7000000002,"ADDRESS":"和平路１０２巷２２之２號","OBJECTID":434930},"geometry":{"x":179351.40000000037,"y":2577615.6999999993}},{"attributes":{"ID":434956,"DIS_CODE":0,"TOWNNAME":"新營區","LI":"興業里","LIN":" ","STREET":"公誠街","SECT":" ","MAREA":" ","LANE":"９巷","ALLEY":" ","HOUSE_NO":"１４之４號","E_COORD97":180358.67000000001,"N_COORD97":2578001.8599999999,"ADDRESS":"公誠街９巷１４之４號","OBJECTID":434931},"geometry":{"x":180358.67000000086,"y":2578001.8599999994}},{"attributes":{"ID":434957,"DIS_CODE":0,"TOWNNAME":"新營區","LI":"民榮里","LIN":" ","STREET":"復興路","SECT":" ","MAREA":" ","LANE":"５１１巷","ALLEY":" ","HOUSE_NO":"１６號","E_COORD97":178123.35999999999,"N_COORD97":2578247.25,"ADDRESS":"復興路５１１巷１６號","OBJECTID":434932},"geometry":{"x":178123.36000000127,"y":2578247.25}},{"attributes":{"ID":434958,"DIS_CODE":0,"TOWNNAME":"新營區","LI":"南興里","LIN":"7鄰","STREET":"和平路","SECT":" ","MAREA":" ","LANE":"９５巷","ALLEY":" ","HOUSE_NO":"２０號之２","E_COORD97":179473.06,"N_COORD97":2577602.9399999999,"ADDRESS":"和平街９５巷２０之２號","OBJECTID":434933},"geometry":{"x":179473.05999999959,"y":2577602.9400000013}},{"attributes":{"ID":434959,"DIS_CODE":0,"TOWNNAME":"新營區","LI":"南興里","LIN":"7鄰","STREET":"和平路","SECT":" ","MAREA":" ","LANE":"９５巷","ALLEY":" ","HOUSE_NO":"１８號","E_COORD97":179465.38,"N_COORD97":2577602.9100000001,"ADDRESS":"和平街９５巷１８號","OBJECTID":434934},"geometry":{"x":179465.38000000082,"y":2577602.9100000001}},{"attributes":{"ID":434960,"DIS_CODE":0,"TOWNNAME":"新營區","LI":"民榮里","LIN":"26鄰","STREET":"復興路","SECT":" ","MAREA":" ","LANE":"３０５巷","ALLEY":" ","HOUSE_NO":"２６號","E_COORD97":178507.25,"N_COORD97":2578084.8100000001,"ADDRESS":"復興路３０５巷２６號","OBJECTID":434935},"geometry":{"x":178507.25000000093,"y":2578084.8100000005}},{"attributes":{"ID":434961,"DIS_CODE":0,"TOWNNAME":"新營區","LI":"大宏里","LIN":"25鄰","STREET":"同濟街","SECT":" ","MAREA":" ","LANE":"１３６巷","ALLEY":" ","HOUSE_NO":"２８號","E_COORD97":180534.64999999999,"N_COORD97":2578745.1800000002,"ADDRESS":"同濟街１３６巷２８號","OBJECTID":434936},"geometry":{"x":180534.65000000037,"y":2578745.1800000016}},{"attributes":{"ID":434962,"DIS_CODE":0,"TOWNNAME":"新營區","LI":"民榮里","LIN":" ","STREET":"和平路","SECT":" ","MAREA":" ","LANE":"３２巷","ALLEY":" ","HOUSE_NO":"３之２號","E_COORD97":179372.54999999999,"N_COORD97":2577803.8599999999,"ADDRESS":"和平路３２巷３之２號","OBJECTID":434937},"geometry":{"x":179372.55000000075,"y":2577803.8600000013}},{"attributes":{"ID":434963,"DIS_CODE":0,"TOWNNAME":"新營區","LI":"南興里","LIN":"10鄰","STREET":"和平路","SECT":" ","MAREA":" ","LANE":"１０２巷","ALLEY":" ","HOUSE_NO":"２１號之２","E_COORD97":179351.29000000001,"N_COORD97":2577593.5499999998,"ADDRESS":"和平路１０２巷２１之２號","OBJECTID":434938},"geometry":{"x":179351.29000000097,"y":2577593.5500000026}},{"attributes":{"ID":434964,"DIS_CODE":0,"TOWNNAME":"新營區","LI":"興業里","LIN":" ","STREET":"公誠街","SECT":" ","MAREA":" ","LANE":"９巷","ALLEY":" ","HOUSE_NO":"１０之４號","E_COORD97":180341.29000000001,"N_COORD97":2578003.0499999998,"ADDRESS":"公誠街９巷１０之４號","OBJECTID":434939},"geometry":{"x":180341.29000000097,"y":2578003.0500000045}},{"attributes":{"ID":434965,"DIS_CODE":0,"TOWNNAME":"新營區","LI":"南興里","LIN":"7鄰","STREET":"和平路","SECT":" ","MAREA":" ","LANE":"９５巷","ALLEY":" ","HOUSE_NO":"１４號之１","E_COORD97":179458.67000000001,"N_COORD97":2577603.0099999998,"ADDRESS":"和平街９５巷１４之１號","OBJECTID":434940},"geometry":{"x":179458.67000000086,"y":2577603.0100000016}},{"attributes":{"ID":434966,"DIS_CODE":0,"TOWNNAME":"六甲區","LI":"甲南里","LIN":"14鄰","STREET":"永安街","SECT":" ","MAREA":" ","LANE":"３巷","ALLEY":" ","HOUSE_NO":"２５號","E_COORD97":184025.85999999999,"N_COORD97":2569882.25,"ADDRESS":"永安街３巷２５號","OBJECTID":434941},"geometry":{"x":184025.86000000127,"y":2569882.2500000019}},{"attributes":{"ID":434967,"DIS_CODE":0,"TOWNNAME":"新營區","LI":"民榮里","LIN":" ","STREET":"和平路","SECT":" ","MAREA":" ","LANE":"３２巷","ALLEY":" ","HOUSE_NO":"７之１號","E_COORD97":179356.12,"N_COORD97":2577803.9399999999,"ADDRESS":"和平路３２巷７之１號","OBJECTID":434942},"geometry":{"x":179356.12000000011,"y":2577803.9400000013}},{"attributes":{"ID":434968,"DIS_CODE":0,"TOWNNAME":"新營區","LI":"忠政里","LIN":"20鄰","STREET":"府西路","SECT":" ","MAREA":" ","LANE":"２５７巷","ALLEY":" ","HOUSE_NO":"３２號","E_COORD97":179720.85999999999,"N_COORD97":2579685.9199999999,"ADDRESS":"府西路２５７巷３２號","OBJECTID":434943},"geometry":{"x":179720.86000000034,"y":2579685.9200000018}},{"attributes":{"ID":434969,"DIS_CODE":0,"TOWNNAME":"新營區","LI":"南興里","LIN":"25鄰","STREET":"和平路","SECT":" ","MAREA":" ","LANE":"９５巷","ALLEY":" ","HOUSE_NO":"４２號之１","E_COORD97":179565.73999999999,"N_COORD97":2577591.4199999999,"ADDRESS":"和平路９５巷４２號之１","OBJECTID":434944},"geometry":{"x":179565.74000000022,"y":2577591.4199999999}},{"attributes":{"ID":434970,"DIS_CODE":0,"TOWNNAME":"新營區","LI":"南興里","LIN":"25鄰","STREET":"和平路","SECT":" ","MAREA":" ","LANE":"９５巷","ALLEY":" ","HOUSE_NO":"４２號之３","E_COORD97":179565.84,"N_COORD97":2577591.4199999999,"ADDRESS":"和平路９５巷４２號之３","OBJECTID":434945},"geometry":{"x":179565.84000000078,"y":2577591.4199999999}},{"attributes":{"ID":434971,"DIS_CODE":0,"TOWNNAME":"新營區","LI":"民榮里","LIN":" ","STREET":"裕民路","SECT":" ","MAREA":" ","LANE":"３４巷","ALLEY":" ","HOUSE_NO":"３２之３號","E_COORD97":179033.59,"N_COORD97":2577890.75,"ADDRESS":"裕民路３４巷３２之３號","OBJECTID":434946},"geometry":{"x":179033.59000000078,"y":2577890.75}},{"attributes":{"ID":434972,"DIS_CODE":0,"TOWNNAME":"山上區","LI":"明和里","LIN":"19鄰","STREET":" ","SECT":" ","MAREA":"明和","LANE":" ","ALLEY":" ","HOUSE_NO":"５２號之１","E_COORD97":183297.77425399999,"N_COORD97":2555934.2721600002,"ADDRESS":"明和５２號之１","OBJECTID":434947},"geometry":{"x":183297.77425400075,"y":2555934.272156002}},{"attributes":{"ID":434973,"DIS_CODE":0,"TOWNNAME":"新營區","LI":"南興里","LIN":"25鄰","STREET":"和平路","SECT":" ","MAREA":" ","LANE":"９５巷","ALLEY":" ","HOUSE_NO":"４２號之２","E_COORD97":179565.88,"N_COORD97":2577591.4199999999,"ADDRESS":"和平路９５巷４２號之２","OBJECTID":434948},"geometry":{"x":179565.87999999989,"y":2577591.4199999999}},{"attributes":{"ID":434974,"DIS_CODE":0,"TOWNNAME":"新營區","LI":"新東里","LIN":"17鄰","STREET":"東興二街","SECT":" ","MAREA":" ","LANE":"３５巷","ALLEY":" ","HOUSE_NO":"１０號","E_COORD97":180904.31,"N_COORD97":2579067.9300000002,"ADDRESS":"東興二街３５巷１０號","OBJECTID":434949},"geometry":{"x":180904.31000000145,"y":2579067.9300000016}},{"attributes":{"ID":434975,"DIS_CODE":0,"TOWNNAME":"新營區","LI":"民生里","LIN":" ","STREET":"進修街","SECT":" ","MAREA":" ","LANE":"２９巷","ALLEY":" ","HOUSE_NO":"４６之４號","E_COORD97":178896.38,"N_COORD97":2578504.9399999999,"ADDRESS":"進修街２９巷４６之４號","OBJECTID":434950},"geometry":{"x":178896.37999999989,"y":2578504.9400000013}},{"attributes":{"ID":434976,"DIS_CODE":0,"TOWNNAME":"新營區","LI":"南紙里","LIN":" ","STREET":"南紙街","SECT":" ","MAREA":" ","LANE":"１１７巷","ALLEY":" ","HOUSE_NO":"１４號","E_COORD97":177852.60000000001,"N_COORD97":2577470.02,"ADDRESS":"南紙街１１７巷１４號","OBJECTID":434951},"geometry":{"x":177852.59999999963,"y":2577470.0200000014}},{"attributes":{"ID":434977,"DIS_CODE":0,"TOWNNAME":"新營區","LI":"民生里","LIN":"20鄰","STREET":"進修街","SECT":" ","MAREA":" ","LANE":"２９巷","ALLEY":" ","HOUSE_NO":"２６號","E_COORD97":178919.29999999999,"N_COORD97":2578472.6499999999,"ADDRESS":"進修街２９巷２６號","OBJECTID":434952},"geometry":{"x":178919.29999999981,"y":2578472.6500000004}},{"attributes":{"ID":434978,"DIS_CODE":0,"TOWNNAME":"新營區","LI":"新南里","LIN":"14鄰","STREET":"民治路","SECT":" ","MAREA":" ","LANE":"２３０巷","ALLEY":" ","HOUSE_NO":"６５號","E_COORD97":178636.70999999999,"N_COORD97":2578641.2400000002,"ADDRESS":"民治路２３０巷６５號","OBJECTID":434953},"geometry":{"x":178636.70999999996,"y":2578641.2400000002}},{"attributes":{"ID":434979,"DIS_CODE":0,"TOWNNAME":"新營區","LI":"忠政里","LIN":"14鄰","STREET":"府西路","SECT":" ","MAREA":" ","LANE":"２３０巷","ALLEY":" ","HOUSE_NO":"３號","E_COORD97":179835.85000000001,"N_COORD97":2579610.0600000001,"ADDRESS":"府西路２３０巷３號","OBJECTID":434954},"geometry":{"x":179835.84999999963,"y":2579610.0600000042}},{"attributes":{"ID":434980,"DIS_CODE":0,"TOWNNAME":"新營區","LI":"興業里","LIN":" ","STREET":"中興路","SECT":" ","MAREA":" ","LANE":"１５巷","ALLEY":" ","HOUSE_NO":"１８之３號","E_COORD97":180230.41,"N_COORD97":2577917.1899999999,"ADDRESS":"中興路１５巷１８之３號","OBJECTID":434955},"geometry":{"x":180230.41000000108,"y":2577917.1900000013}},{"attributes":{"ID":434981,"DIS_CODE":0,"TOWNNAME":"新營區","LI":"興業里","LIN":" ","STREET":"中興路","SECT":" ","MAREA":" ","LANE":"１５巷","ALLEY":" ","HOUSE_NO":"１９之２號","E_COORD97":180239.70999999999,"N_COORD97":2577934.8599999999,"ADDRESS":"中興路１５巷１９之２號","OBJECTID":434956},"geometry":{"x":180239.71000000089,"y":2577934.8599999994}},{"attributes":{"ID":434982,"DIS_CODE":0,"TOWNNAME":"新營區","LI":"新北里","LIN":"20鄰","STREET":"民生路","SECT":" ","MAREA":" ","LANE":"３３６巷","ALLEY":" ","HOUSE_NO":"２４號","E_COORD97":178993.42000000001,"N_COORD97":2579214.29,"ADDRESS":"民生路３３６巷２４號","OBJECTID":434957},"geometry":{"x":178993.42000000179,"y":2579214.290000001}},{"attributes":{"ID":434983,"DIS_CODE":0,"TOWNNAME":"新營區","LI":"南紙里","LIN":"13鄰","STREET":"太子路","SECT":" ","MAREA":" ","LANE":"２３８巷","ALLEY":" ","HOUSE_NO":"６７號","E_COORD97":177755.94,"N_COORD97":2577993.21,"ADDRESS":"太子路２３８巷６７號","OBJECTID":434958},"geometry":{"x":177755.94000000041,"y":2577993.2100000028}},{"attributes":{"ID":434984,"DIS_CODE":0,"TOWNNAME":"新營區","LI":"興安里","LIN":"4鄰","STREET":"中興路","SECT":" ","MAREA":" ","LANE":"６６巷","ALLEY":" ","HOUSE_NO":"６號","E_COORD97":180016.88,"N_COORD97":2577462.96,"ADDRESS":"中興路６６巷６號","OBJECTID":434959},"geometry":{"x":180016.87999999989,"y":2577462.9600000028}},{"attributes":{"ID":434985,"DIS_CODE":0,"TOWNNAME":"新營區","LI":"新東里","LIN":"25鄰","STREET":"民族路","SECT":" ","MAREA":" ","LANE":"１５０巷","ALLEY":" ","HOUSE_NO":"７４號之５","E_COORD97":180622.35999999999,"N_COORD97":2579257.5800000001,"ADDRESS":"民族路１５０巷７４號之５","OBJECTID":434960},"geometry":{"x":180622.36000000127,"y":2579257.5800000019}},{"attributes":{"ID":434986,"DIS_CODE":0,"TOWNNAME":"新營區","LI":"埤寮里","LIN":" ","STREET":"中正路","SECT":" ","MAREA":" ","LANE":"４３０巷","ALLEY":" ","HOUSE_NO":"１１２號","E_COORD97":180976.01999999999,"N_COORD97":2580361.1000000001,"ADDRESS":"中正路４３０巷１１２號","OBJECTID":434961},"geometry":{"x":180976.02000000048,"y":2580361.0999999978}},{"attributes":{"ID":434987,"DIS_CODE":0,"TOWNNAME":"新營區","LI":"新北里","LIN":"20鄰","STREET":"民生路","SECT":" ","MAREA":" ","LANE":"３３６巷","ALLEY":" ","HOUSE_NO":"１８號","E_COORD97":178980.07000000001,"N_COORD97":2579216.5699999998,"ADDRESS":"民生路３３６巷１８號","OBJECTID":434962},"geometry":{"x":178980.07000000123,"y":2579216.5700000022}},{"attributes":{"ID":434988,"DIS_CODE":0,"TOWNNAME":"新營區","LI":"新東里","LIN":"25鄰","STREET":"民族路","SECT":" ","MAREA":" ","LANE":"１５０巷","ALLEY":" ","HOUSE_NO":"９８號","E_COORD97":180691.67999999999,"N_COORD97":2579319.2000000002,"ADDRESS":"民族路１５０巷９８號","OBJECTID":434963},"geometry":{"x":180691.67999999877,"y":2579319.200000003}},{"attributes":{"ID":434989,"DIS_CODE":0,"TOWNNAME":"新營區","LI":"興業里","LIN":" ","STREET":"公誠街","SECT":" ","MAREA":" ","LANE":"１１巷","ALLEY":" ","HOUSE_NO":"３之４號","E_COORD97":180312.39000000001,"N_COORD97":2577975.4900000002,"ADDRESS":"公誠街１１巷３之４號","OBJECTID":434964},"geometry":{"x":180312.39000000153,"y":2577975.4900000002}},{"attributes":{"ID":434990,"DIS_CODE":0,"TOWNNAME":"新營區","LI":"興業里","LIN":"4鄰","STREET":"公誠街","SECT":" ","MAREA":" ","LANE":"７巷","ALLEY":" ","HOUSE_NO":"１０之１號","E_COORD97":180323.06,"N_COORD97":2578040.79,"ADDRESS":"公誠街７巷１０之１號","OBJECTID":434965},"geometry":{"x":180323.06000000052,"y":2578040.790000001}},{"attributes":{"ID":434991,"DIS_CODE":0,"TOWNNAME":"新營區","LI":"民榮里","LIN":"4鄰","STREET":"復興路","SECT":" ","MAREA":" ","LANE":"１３５巷","ALLEY":" ","HOUSE_NO":"１號","E_COORD97":179332.85000000001,"N_COORD97":2577959.02,"ADDRESS":"復興路１３５巷１號","OBJECTID":434966},"geometry":{"x":179332.85000000056,"y":2577959.0200000014}},{"attributes":{"ID":434992,"DIS_CODE":0,"TOWNNAME":"新營區","LI":"民榮里","LIN":"4鄰","STREET":"和平路","SECT":" ","MAREA":" ","LANE":"８巷","ALLEY":" ","HOUSE_NO":"３之１號","E_COORD97":179368.28,"N_COORD97":2577979.96,"ADDRESS":"和平路８巷３之１號","OBJECTID":434967},"geometry":{"x":179368.28000000119,"y":2577979.959999999}},{"attributes":{"ID":434993,"DIS_CODE":0,"TOWNNAME":"新營區","LI":"民榮里","LIN":" ","STREET":"復興路","SECT":" ","MAREA":" ","LANE":"３０５巷","ALLEY":" ","HOUSE_NO":"２１之１號","E_COORD97":178590.44,"N_COORD97":2578059,"ADDRESS":"復興路３０５巷２１之１號","OBJECTID":434968},"geometry":{"x":178590.44000000227,"y":2578059}},{"attributes":{"ID":434994,"DIS_CODE":0,"TOWNNAME":"新營區","LI":"南興里","LIN":"7鄰","STREET":"和平路","SECT":" ","MAREA":" ","LANE":"９５巷","ALLEY":" ","HOUSE_NO":"２０號之１","E_COORD97":179473.06,"N_COORD97":2577602.9399999999,"ADDRESS":"和平街９５巷２０之１號","OBJECTID":434969},"geometry":{"x":179473.05999999959,"y":2577602.9400000013}},{"attributes":{"ID":434995,"DIS_CODE":0,"TOWNNAME":"新營區","LI":"南興里","LIN":"7鄰","STREET":"和平路","SECT":" ","MAREA":" ","LANE":"９５巷","ALLEY":" ","HOUSE_NO":"１２號之２","E_COORD97":179454.57999999999,"N_COORD97":2577603.02,"ADDRESS":"和平街９５巷１２之２號","OBJECTID":434970},"geometry":{"x":179454.58000000007,"y":2577603.0200000014}},{"attributes":{"ID":434996,"DIS_CODE":0,"TOWNNAME":"新營區","LI":"南興里","LIN":"7鄰","STREET":"和平路","SECT":" ","MAREA":" ","LANE":"９５巷","ALLEY":" ","HOUSE_NO":"２６號","E_COORD97":179486.92999999999,"N_COORD97":2577601.7000000002,"ADDRESS":"和平街９５巷２６號","OBJECTID":434971},"geometry":{"x":179486.93000000063,"y":2577601.7000000011}},{"attributes":{"ID":434997,"DIS_CODE":0,"TOWNNAME":"玉井區","LI":"玉田里","LIN":"40鄰","STREET":"信義街","SECT":" ","MAREA":" ","LANE":" ","ALLEY":" ","HOUSE_NO":"１５１號","E_COORD97":195333.07000000001,"N_COORD97":2557537.27,"ADDRESS":"信義街１５１號","OBJECTID":434972},"geometry":{"x":195333.07000000123,"y":2557537.2700000014}},{"attributes":{"ID":434998,"DIS_CODE":0,"TOWNNAME":"新營區","LI":"新東里","LIN":"24鄰","STREET":"民治路","SECT":" ","MAREA":" ","LANE":"６巷","ALLEY":"２６弄","HOUSE_NO":"６號","E_COORD97":180651.64999999999,"N_COORD97":2578967.29,"ADDRESS":"民治路６巷２６弄６號","OBJECTID":434973},"geometry":{"x":180651.65000000037,"y":2578967.290000001}},{"attributes":{"ID":434999,"DIS_CODE":0,"TOWNNAME":"新營區","LI":"南興里","LIN":"11鄰","STREET":"和平路","SECT":" ","MAREA":" ","LANE":"１０２巷","ALLEY":" ","HOUSE_NO":"２９號之２","E_COORD97":179321.63,"N_COORD97":2577593.6899999999,"ADDRESS":"和平路１０２巷２９之２號","OBJECTID":434974},"geometry":{"x":179321.63000000082,"y":2577593.6899999976}},{"attributes":{"ID":435000,"DIS_CODE":0,"TOWNNAME":"新營區","LI":"民榮里","LIN":"26鄰","STREET":"復興路","SECT":" ","MAREA":" ","LANE":"３０５巷","ALLEY":" ","HOUSE_NO":"２４號","E_COORD97":178504.19,"N_COORD97":2578087.04,"ADDRESS":"復興路３０５巷２４號","OBJECTID":434975},"geometry":{"x":178504.19000000134,"y":2578087.040000001}},{"attributes":{"ID":435001,"DIS_CODE":0,"TOWNNAME":"新營區","LI":"大宏里","LIN":"25鄰","STREET":"同濟街","SECT":" ","MAREA":" ","LANE":"１３６巷","ALLEY":" ","HOUSE_NO":"２號","E_COORD97":180469.97,"N_COORD97":2578742.1499999999,"ADDRESS":"同濟街１３６巷２號","OBJECTID":434976},"geometry":{"x":180469.97000000067,"y":2578742.1500000022}},{"attributes":{"ID":435002,"DIS_CODE":0,"TOWNNAME":"新營區","LI":"興業里","LIN":" ","STREET":"中興路","SECT":" ","MAREA":" ","LANE":"１５巷","ALLEY":" ","HOUSE_NO":"２２之１號","E_COORD97":180250.95000000001,"N_COORD97":2577917.0899999999,"ADDRESS":"中興路１５巷２２之１號","OBJECTID":434977},"geometry":{"x":180250.95000000019,"y":2577917.0900000036}},{"attributes":{"ID":435003,"DIS_CODE":0,"TOWNNAME":"新營區","LI":"興業里","LIN":" ","STREET":"中興路","SECT":" ","MAREA":" ","LANE":"１５巷","ALLEY":" ","HOUSE_NO":"２１之１號","E_COORD97":180252.04000000001,"N_COORD97":2577933.7000000002,"ADDRESS":"中興路１５巷２１之１號","OBJECTID":434978},"geometry":{"x":180252.04000000004,"y":2577933.7000000011}},{"attributes":{"ID":435004,"DIS_CODE":0,"TOWNNAME":"山上區","LI":"明和里","LIN":"19鄰","STREET":" ","SECT":" ","MAREA":"明和","LANE":" ","ALLEY":" ","HOUSE_NO":"５２號之３","E_COORD97":183280.29627699999,"N_COORD97":2555939.3521500002,"ADDRESS":"明和５２號之３","OBJECTID":434979},"geometry":{"x":183280.29627699964,"y":2555939.3521539997}},{"attributes":{"ID":435005,"DIS_CODE":0,"TOWNNAME":"新營區","LI":"興業里","LIN":" ","STREET":"公誠街","SECT":" ","MAREA":" ","LANE":"９巷","ALLEY":" ","HOUSE_NO":"１２之２號","E_COORD97":180348.45000000001,"N_COORD97":2578003.02,"ADDRESS":"公誠街９巷１２之２號","OBJECTID":434980},"geometry":{"x":180348.45000000112,"y":2578003.0200000014}},{"attributes":{"ID":435006,"DIS_CODE":0,"TOWNNAME":"新營區","LI":"興業里","LIN":" ","STREET":"中興路","SECT":" ","MAREA":" ","LANE":"１５巷","ALLEY":" ","HOUSE_NO":"２２之２號","E_COORD97":180250.95000000001,"N_COORD97":2577917.0899999999,"ADDRESS":"中興路１５巷２２之２號","OBJECTID":434981},"geometry":{"x":180250.95000000019,"y":2577917.0900000036}},{"attributes":{"ID":435007,"DIS_CODE":0,"TOWNNAME":"新營區","LI":"新東里","LIN":"25鄰","STREET":"民族路","SECT":" ","MAREA":" ","LANE":"１５０巷","ALLEY":" ","HOUSE_NO":"７４之３號","E_COORD97":180621.44,"N_COORD97":2579280.8399999999,"ADDRESS":"民族路１５０巷７４之３號","OBJECTID":434982},"geometry":{"x":180621.44000000134,"y":2579280.8399999999}},{"attributes":{"ID":435008,"DIS_CODE":0,"TOWNNAME":"新營區","LI":"興業里","LIN":" ","STREET":"公誠街","SECT":" ","MAREA":" ","LANE":"９巷","ALLEY":" ","HOUSE_NO":"１６之４號","E_COORD97":180366.85999999999,"N_COORD97":2578001.8199999998,"ADDRESS":"公誠街９巷１６之４號","OBJECTID":434983},"geometry":{"x":180366.86000000034,"y":2578001.8200000022}},{"attributes":{"ID":435009,"DIS_CODE":0,"TOWNNAME":"新營區","LI":"新東里","LIN":"25鄰","STREET":"民族路","SECT":" ","MAREA":" ","LANE":"１５０巷","ALLEY":" ","HOUSE_NO":"６４號","E_COORD97":180618.07000000001,"N_COORD97":2579316.23,"ADDRESS":"民族路１５０巷６４號","OBJECTID":434984},"geometry":{"x":180618.0700000003,"y":2579316.2300000004}},{"attributes":{"ID":435010,"DIS_CODE":0,"TOWNNAME":"新營區","LI":"南興里","LIN":"7鄰","STREET":"和平路","SECT":" ","MAREA":" ","LANE":"９５巷","ALLEY":" ","HOUSE_NO":"２２號之１","E_COORD97":179478.17999999999,"N_COORD97":2577601.8100000001,"ADDRESS":"和平街９５巷２２之１號","OBJECTID":434985},"geometry":{"x":179478.18000000063,"y":2577601.8100000024}},{"attributes":{"ID":435011,"DIS_CODE":0,"TOWNNAME":"新營區","LI":"民榮里","LIN":" ","STREET":"復興路","SECT":" ","MAREA":" ","LANE":"４８９巷","ALLEY":" ","HOUSE_NO":"２６號","E_COORD97":178299.01000000001,"N_COORD97":2578174.4100000001,"ADDRESS":"復興路４８９巷２６號","OBJECTID":434986},"geometry":{"x":178299.00999999978,"y":2578174.410000002}},{"attributes":{"ID":435012,"DIS_CODE":0,"TOWNNAME":"新營區","LI":"民榮里","LIN":"4鄰","STREET":"和平路","SECT":" ","MAREA":" ","LANE":"８巷","ALLEY":" ","HOUSE_NO":"１號","E_COORD97":179385.14999999999,"N_COORD97":2577986.46,"ADDRESS":"和平路８巷１號","OBJECTID":434987},"geometry":{"x":179385.15000000037,"y":2577986.4600000009}},{"attributes":{"ID":435013,"DIS_CODE":0,"TOWNNAME":"新營區","LI":"南興里","LIN":"7鄰","STREET":"和平路","SECT":" ","MAREA":" ","LANE":"９５巷","ALLEY":" ","HOUSE_NO":"４號","E_COORD97":179432.51000000001,"N_COORD97":2577604.1699999999,"ADDRESS":"和平街９５巷４號","OBJECTID":434988},"geometry":{"x":179432.51000000071,"y":2577604.1699999999}},{"attributes":{"ID":435014,"DIS_CODE":0,"TOWNNAME":"新營區","LI":"興業里","LIN":" ","STREET":"中興路","SECT":" ","MAREA":" ","LANE":"１３巷","ALLEY":" ","HOUSE_NO":"１３之２號","E_COORD97":180203.09,"N_COORD97":2577979.3300000001,"ADDRESS":"中興路１３巷１３之２號","OBJECTID":434989},"geometry":{"x":180203.09000000078,"y":2577979.3300000001}},{"attributes":{"ID":435015,"DIS_CODE":0,"TOWNNAME":"新營區","LI":"新東里","LIN":"25鄰","STREET":"民族路","SECT":" ","MAREA":" ","LANE":"１５０巷","ALLEY":" ","HOUSE_NO":"７４號之６","E_COORD97":180622.29999999999,"N_COORD97":2579246.5099999998,"ADDRESS":"民族路１５０巷７４號之６","OBJECTID":434990},"geometry":{"x":180622.30000000075,"y":2579246.5100000035}},{"attributes":{"ID":435016,"DIS_CODE":0,"TOWNNAME":"新營區","LI":"新北里","LIN":"20鄰","STREET":"民生路","SECT":" ","MAREA":" ","LANE":"３３６巷","ALLEY":" ","HOUSE_NO":"２０號","E_COORD97":178984.23000000001,"N_COORD97":2579216.5499999998,"ADDRESS":"民生路３３６巷２０號","OBJECTID":434991},"geometry":{"x":178984.23000000138,"y":2579216.5500000007}},{"attributes":{"ID":435017,"DIS_CODE":0,"TOWNNAME":"新營區","LI":"民榮里","LIN":"26鄰","STREET":"復興路","SECT":" ","MAREA":" ","LANE":"３０５巷","ALLEY":" ","HOUSE_NO":"３８號","E_COORD97":178525.60999999999,"N_COORD97":2578068.1099999999,"ADDRESS":"復興路３０５巷３８號","OBJECTID":434992},"geometry":{"x":178525.61000000034,"y":2578068.1099999994}},{"attributes":{"ID":435018,"DIS_CODE":0,"TOWNNAME":"新營區","LI":"民榮里","LIN":" ","STREET":"復興路","SECT":" ","MAREA":" ","LANE":"３０５巷","ALLEY":" ","HOUSE_NO":"２３號","E_COORD97":178567.5,"N_COORD97":2578062.3700000001,"ADDRESS":"復興路３０５巷２３號","OBJECTID":434993},"geometry":{"x":178567.50000000186,"y":2578062.3700000048}},{"attributes":{"ID":435019,"DIS_CODE":0,"TOWNNAME":"新營區","LI":"南興里","LIN":"7鄰","STREET":"和平路","SECT":" ","MAREA":" ","LANE":"９５巷","ALLEY":" ","HOUSE_NO":"２８號","E_COORD97":179486.92999999999,"N_COORD97":2577601.7000000002,"ADDRESS":"和平街９５巷２８號","OBJECTID":434994},"geometry":{"x":179486.93000000063,"y":2577601.7000000011}},{"attributes":{"ID":435020,"DIS_CODE":0,"TOWNNAME":"新營區","LI":"興業里","LIN":" ","STREET":"中興路","SECT":" ","MAREA":" ","LANE":"１５巷","ALLEY":" ","HOUSE_NO":"２８之１號","E_COORD97":180280.60000000001,"N_COORD97":2577915.8500000001,"ADDRESS":"中興路１５巷２８之１號","OBJECTID":434995},"geometry":{"x":180280.60000000056,"y":2577915.8500000015}},{"attributes":{"ID":435021,"DIS_CODE":0,"TOWNNAME":"新營區","LI":"大宏里","LIN":"25鄰","STREET":"同濟街","SECT":" ","MAREA":" ","LANE":"１３６巷","ALLEY":" ","HOUSE_NO":"４３號","E_COORD97":180578.72,"N_COORD97":2578761.5800000001,"ADDRESS":"同濟街１３６巷４３號","OBJECTID":434996},"geometry":{"x":180578.72000000067,"y":2578761.5800000038}},{"attributes":{"ID":435022,"DIS_CODE":0,"TOWNNAME":"新營區","LI":"南興里","LIN":"11鄰","STREET":"和平路","SECT":" ","MAREA":" ","LANE":"１０２巷","ALLEY":" ","HOUSE_NO":"２９號之１","E_COORD97":179321.63,"N_COORD97":2577593.6899999999,"ADDRESS":"和平路１０２巷２９之１號","OBJECTID":434997},"geometry":{"x":179321.63000000082,"y":2577593.6899999976}},{"attributes":{"ID":435023,"DIS_CODE":0,"TOWNNAME":"新營區","LI":"興業里","LIN":" ","STREET":"中興路","SECT":" ","MAREA":" ","LANE":"１５巷","ALLEY":" ","HOUSE_NO":"２之１號","E_COORD97":180146.39999999999,"N_COORD97":2577920.8999999999,"ADDRESS":"中興路１５巷２之１號","OBJECTID":434998},"geometry":{"x":180146.40000000037,"y":2577920.9000000004}},{"attributes":{"ID":435024,"DIS_CODE":0,"TOWNNAME":"新營區","LI":"新東里","LIN":"24鄰","STREET":"民治路","SECT":" ","MAREA":" ","LANE":"６巷","ALLEY":" ","HOUSE_NO":"２２號","E_COORD97":180638.94987899999,"N_COORD97":2578967.2659900002,"ADDRESS":"民治路６巷２２號","OBJECTID":434999},"geometry":{"x":180638.94987900183,"y":2578967.2659930009}},{"attributes":{"ID":435025,"DIS_CODE":0,"TOWNNAME":"新營區","LI":"民榮里","LIN":" ","STREET":"復興路","SECT":" ","MAREA":" ","LANE":"５１１巷","ALLEY":" ","HOUSE_NO":"２０號","E_COORD97":178114.13,"N_COORD97":2578227.3700000001,"ADDRESS":"復興路５１１巷２０號","OBJECTID":435000},"geometry":{"x":178114.13000000082,"y":2578227.370000001}}]}