{"displayFieldName":"TOWNNAME","fieldAliases":{"ID":"ID","DIS_CODE":"DIS_CODE","TOWNNAME":"TOWNNAME","LI":"LI","LIN":"LIN","STREET":"STREET","SECT":"SECT","MAREA":"MAREA","LANE":"LANE","ALLEY":"ALLEY","HOUSE_NO":"HOUSE_NO","E_COORD97":"E_COORD97","N_COORD97":"N_COORD97","ADDRESS":"ADDRESS","OBJECTID":"OBJECTID"},"geometryType":"esriGeometryPoint","spatialReference":{"wkid":102443,"latestWkid":3826},"fields":[{"name":"ID","type":"esriFieldTypeDouble","alias":"ID"},{"name":"DIS_CODE","type":"esriFieldTypeInteger","alias":"DIS_CODE"},{"name":"TOWNNAME","type":"esriFieldTypeString","alias":"TOWNNAME","length":8},{"name":"LI","type":"esriFieldTypeString","alias":"LI","length":8},{"name":"LIN","type":"esriFieldTypeString","alias":"LIN","length":12},{"name":"STREET","type":"esriFieldTypeString","alias":"STREET","length":20},{"name":"SECT","type":"esriFieldTypeString","alias":"SECT","length":8},{"name":"MAREA","type":"esriFieldTypeString","alias":"MAREA","length":12},{"name":"LANE","type":"esriFieldTypeString","alias":"LANE","length":10},{"name":"ALLEY","type":"esriFieldTypeString","alias":"ALLEY","length":10},{"name":"HOUSE_NO","type":"esriFieldTypeString","alias":"HOUSE_NO","length":20},{"name":"E_COORD97","type":"esriFieldTypeDouble","alias":"E_COORD97"},{"name":"N_COORD97","type":"esriFieldTypeDouble","alias":"N_COORD97"},{"name":"ADDRESS","type":"esriFieldTypeString","alias":"ADDRESS","length":50},{"name":"OBJECTID","type":"esriFieldTypeOID","alias":"OBJECTID"}],"features":[{"attributes":{"ID":135601,"DIS_CODE":0,"TOWNNAME":"北區","LI":"文元里","LIN":"27鄰","STREET":"中華北路","SECT":"二段","MAREA":" ","LANE":"８０巷","ALLEY":"１０弄","HOUSE_NO":"２號","E_COORD97":167697.98000000001,"N_COORD97":2546584.4500000002,"ADDRESS":"中華北路二段８０巷１０弄２號","OBJECTID":135601},"geometry":{"x":167697.98000000045,"y":2546584.4500000011}},{"attributes":{"ID":135602,"DIS_CODE":0,"TOWNNAME":"北區","LI":"文元里","LIN":"27鄰","STREET":"中華北路","SECT":"二段","MAREA":" ","LANE":"８０巷","ALLEY":"１０弄","HOUSE_NO":"３號","E_COORD97":167694.01000000001,"N_COORD97":2546571.27,"ADDRESS":"中華北路二段８０巷１０弄３號","OBJECTID":135602},"geometry":{"x":167694.00999999978,"y":2546571.2699999977}},{"attributes":{"ID":135603,"DIS_CODE":0,"TOWNNAME":"北區","LI":"文元里","LIN":"27鄰","STREET":"中華北路","SECT":"二段","MAREA":" ","LANE":"８０巷","ALLEY":"１０弄","HOUSE_NO":"５號","E_COORD97":167688.60999999999,"N_COORD97":2546570.79,"ADDRESS":"中華北路二段８０巷１０弄５號","OBJECTID":135603},"geometry":{"x":167688.61000000034,"y":2546570.7900000028}},{"attributes":{"ID":135604,"DIS_CODE":0,"TOWNNAME":"新營區","LI":"嘉芳里","LIN":"6鄰","STREET":" ","SECT":" ","MAREA":"茄苳腳","LANE":" ","ALLEY":" ","HOUSE_NO":"６２號","E_COORD97":176757.70999999999,"N_COORD97":2578431.1400000001,"ADDRESS":"茄苳腳６２號","OBJECTID":135604},"geometry":{"x":176757.71000000089,"y":2578431.1400000025}},{"attributes":{"ID":135605,"DIS_CODE":0,"TOWNNAME":"新營區","LI":"嘉芳里","LIN":"6鄰","STREET":" ","SECT":" ","MAREA":"茄苳腳","LANE":" ","ALLEY":" ","HOUSE_NO":"６２之４號","E_COORD97":176728.48000000001,"N_COORD97":2578428.02,"ADDRESS":"茄苳腳６２之４號","OBJECTID":135605},"geometry":{"x":176728.48000000045,"y":2578428.0199999996}},{"attributes":{"ID":135606,"DIS_CODE":0,"TOWNNAME":"新營區","LI":"嘉芳里","LIN":"6鄰","STREET":" ","SECT":" ","MAREA":"茄苳腳","LANE":" ","ALLEY":" ","HOUSE_NO":"６１之１３號","E_COORD97":176806.41,"N_COORD97":2578418.79,"ADDRESS":"茄苳腳６１之１３號","OBJECTID":135606},"geometry":{"x":176806.41000000015,"y":2578418.7899999991}},{"attributes":{"ID":135607,"DIS_CODE":0,"TOWNNAME":"新營區","LI":"太北里","LIN":"6鄰","STREET":" ","SECT":" ","MAREA":"太子宮","LANE":" ","ALLEY":" ","HOUSE_NO":"５２之２號","E_COORD97":175891.32999999999,"N_COORD97":2577109.8799999999,"ADDRESS":"太子宮５２之２號","OBJECTID":135607},"geometry":{"x":175891.33000000007,"y":2577109.879999999}},{"attributes":{"ID":135608,"DIS_CODE":0,"TOWNNAME":"北區","LI":"文元里","LIN":"27鄰","STREET":"中華北路","SECT":"二段","MAREA":" ","LANE":"８０巷","ALLEY":"１０弄","HOUSE_NO":"６號","E_COORD97":167693.54000000001,"N_COORD97":2546584.1299999999,"ADDRESS":"中華北路二段８０巷１０弄６號","OBJECTID":135608},"geometry":{"x":167693.54000000004,"y":2546584.129999999}},{"attributes":{"ID":135609,"DIS_CODE":0,"TOWNNAME":"北區","LI":"文元里","LIN":"27鄰","STREET":"中華北路","SECT":"二段","MAREA":" ","LANE":"８０巷","ALLEY":"１０弄","HOUSE_NO":"７號","E_COORD97":167681.95000000001,"N_COORD97":2546570.6299999999,"ADDRESS":"中華北路二段８０巷１０弄７號","OBJECTID":135609},"geometry":{"x":167681.95000000112,"y":2546570.629999999}},{"attributes":{"ID":135610,"DIS_CODE":0,"TOWNNAME":"新營區","LI":"太北里","LIN":"6鄰","STREET":" ","SECT":" ","MAREA":"太子宮","LANE":" ","ALLEY":" ","HOUSE_NO":"５３號之４","E_COORD97":175917.87,"N_COORD97":2577166.2200000002,"ADDRESS":"太子宮５３號之４","OBJECTID":135610},"geometry":{"x":175917.87000000104,"y":2577166.2200000007}},{"attributes":{"ID":135611,"DIS_CODE":0,"TOWNNAME":"新營區","LI":"嘉芳里","LIN":"6鄰","STREET":" ","SECT":" ","MAREA":"茄苳腳","LANE":" ","ALLEY":" ","HOUSE_NO":"６１之１４號","E_COORD97":176801.29000000001,"N_COORD97":2578418.8100000001,"ADDRESS":"茄苳腳６１之１４號","OBJECTID":135611},"geometry":{"x":176801.29000000097,"y":2578418.8100000024}},{"attributes":{"ID":135612,"DIS_CODE":0,"TOWNNAME":"學甲區","LI":"大灣里","LIN":"5鄰","STREET":" ","SECT":" ","MAREA":"大灣","LANE":" ","ALLEY":" ","HOUSE_NO":"５４號","E_COORD97":166834.19,"N_COORD97":2567962.2799999998,"ADDRESS":"大灣５４號","OBJECTID":135612},"geometry":{"x":166834.18999999948,"y":2567962.2800000012}},{"attributes":{"ID":135613,"DIS_CODE":0,"TOWNNAME":"新營區","LI":"嘉芳里","LIN":"6鄰","STREET":" ","SECT":" ","MAREA":"茄苳腳","LANE":" ","ALLEY":" ","HOUSE_NO":"６１之１１號","E_COORD97":176815.63,"N_COORD97":2578422.0600000001,"ADDRESS":"茄苳腳６１之１１號","OBJECTID":135613},"geometry":{"x":176815.63000000082,"y":2578422.0600000005}},{"attributes":{"ID":135614,"DIS_CODE":0,"TOWNNAME":"北區","LI":"文元里","LIN":"27鄰","STREET":"中華北路","SECT":"二段","MAREA":" ","LANE":"８０巷","ALLEY":"１０弄","HOUSE_NO":"８號","E_COORD97":167686.70999999999,"N_COORD97":2546583.3300000001,"ADDRESS":"中華北路二段８０巷１０弄８號","OBJECTID":135614},"geometry":{"x":167686.71000000089,"y":2546583.3300000019}},{"attributes":{"ID":135615,"DIS_CODE":0,"TOWNNAME":"北區","LI":"文元里","LIN":"27鄰","STREET":"中華北路","SECT":"二段","MAREA":" ","LANE":"８０巷","ALLEY":"１２弄","HOUSE_NO":"１號","E_COORD97":167705.10000000001,"N_COORD97":2546540.8100000001,"ADDRESS":"中華北路二段８０巷１２弄１號","OBJECTID":135615},"geometry":{"x":167705.09999999963,"y":2546540.8100000005}},{"attributes":{"ID":135616,"DIS_CODE":0,"TOWNNAME":"北區","LI":"文元里","LIN":"27鄰","STREET":"中華北路","SECT":"二段","MAREA":" ","LANE":"８０巷","ALLEY":"１２弄","HOUSE_NO":"１０號","E_COORD97":167690.81,"N_COORD97":2546557.7999999998,"ADDRESS":"中華北路二段８０巷１２弄１０號","OBJECTID":135616},"geometry":{"x":167690.81000000052,"y":2546557.8000000007}},{"attributes":{"ID":135617,"DIS_CODE":0,"TOWNNAME":"北區","LI":"文元里","LIN":"27鄰","STREET":"中華北路","SECT":"二段","MAREA":" ","LANE":"８０巷","ALLEY":"１２弄","HOUSE_NO":"１１號","E_COORD97":167684.29999999999,"N_COORD97":2546539.54,"ADDRESS":"中華北路二段８０巷１２弄１１號","OBJECTID":135617},"geometry":{"x":167684.30000000075,"y":2546539.540000001}},{"attributes":{"ID":135618,"DIS_CODE":0,"TOWNNAME":"麻豆區","LI":"海埔里","LIN":"6鄰","STREET":" ","SECT":" ","MAREA":"莊禮寮","LANE":" ","ALLEY":" ","HOUSE_NO":"１號之１３","E_COORD97":169484.75,"N_COORD97":2566338.5,"ADDRESS":"莊禮寮１號之１３","OBJECTID":135618},"geometry":{"x":169484.75000000186,"y":2566338.5}},{"attributes":{"ID":135619,"DIS_CODE":0,"TOWNNAME":"麻豆區","LI":"海埔里","LIN":"6鄰","STREET":" ","SECT":" ","MAREA":"莊禮寮","LANE":" ","ALLEY":" ","HOUSE_NO":"１號之１","E_COORD97":169419.82000000001,"N_COORD97":2566405.7000000002,"ADDRESS":"莊禮寮１號之１","OBJECTID":135619},"geometry":{"x":169419.8200000003,"y":2566405.7000000011}},{"attributes":{"ID":135620,"DIS_CODE":0,"TOWNNAME":"北區","LI":"文元里","LIN":"27鄰","STREET":"中華北路","SECT":"二段","MAREA":" ","LANE":"８０巷","ALLEY":"１２弄","HOUSE_NO":"１２號","E_COORD97":167686.69,"N_COORD97":2546557.3199999998,"ADDRESS":"中華北路二段８０巷１２弄１２號","OBJECTID":135620},"geometry":{"x":167686.69000000041,"y":2546557.3200000003}},{"attributes":{"ID":135621,"DIS_CODE":0,"TOWNNAME":"北區","LI":"文元里","LIN":"27鄰","STREET":"中華北路","SECT":"二段","MAREA":" ","LANE":"８０巷","ALLEY":"１２弄","HOUSE_NO":"１６號","E_COORD97":167683.03,"N_COORD97":2546556.6899999999,"ADDRESS":"中華北路二段８０巷１２弄１６號","OBJECTID":135621},"geometry":{"x":167683.03000000119,"y":2546556.6900000013}},{"attributes":{"ID":135622,"DIS_CODE":0,"TOWNNAME":"後壁區","LI":"土溝里","LIN":" ","STREET":" ","SECT":" ","MAREA":"土溝","LANE":" ","ALLEY":" ","HOUSE_NO":"２７之４號","E_COORD97":186876.85999999999,"N_COORD97":2585801.5800000001,"ADDRESS":"土溝２７之４號","OBJECTID":135622},"geometry":{"x":186876.8599999994,"y":2585801.5800000019}},{"attributes":{"ID":135623,"DIS_CODE":0,"TOWNNAME":"北區","LI":"文元里","LIN":"27鄰","STREET":"中華北路","SECT":"二段","MAREA":" ","LANE":"８０巷","ALLEY":"１２弄","HOUSE_NO":"２號","E_COORD97":167702.72,"N_COORD97":2546559.3700000001,"ADDRESS":"中華北路二段８０巷１２弄２號","OBJECTID":135623},"geometry":{"x":167702.71999999974,"y":2546559.3700000029}},{"attributes":{"ID":135624,"DIS_CODE":0,"TOWNNAME":"永康區","LI":"二王里","LIN":"42鄰","STREET":"中山南路","SECT":" ","MAREA":" ","LANE":"３１６巷","ALLEY":"２６弄","HOUSE_NO":"３號","E_COORD97":172027.23000000001,"N_COORD97":2546134.21,"ADDRESS":"中山南路３１６巷２６弄３號","OBJECTID":135624},"geometry":{"x":172027.23000000138,"y":2546134.2100000028}},{"attributes":{"ID":135625,"DIS_CODE":0,"TOWNNAME":"永康區","LI":"中興里","LIN":"11鄰","STREET":"中興街","SECT":" ","MAREA":" ","LANE":"３５巷","ALLEY":"１５弄","HOUSE_NO":"２號","E_COORD97":172054.87,"N_COORD97":2545162,"ADDRESS":"中興街３５巷１５弄２號","OBJECTID":135625},"geometry":{"x":172054.87000000011,"y":2545162}},{"attributes":{"ID":135626,"DIS_CODE":0,"TOWNNAME":"鹽水區","LI":"大莊里","LIN":"6鄰","STREET":" ","SECT":" ","MAREA":"大莊","LANE":" ","ALLEY":" ","HOUSE_NO":"２５之１１號","E_COORD97":172890.85999999999,"N_COORD97":2576801.9500000002,"ADDRESS":"大莊２５之１１號","OBJECTID":135626},"geometry":{"x":172890.86000000034,"y":2576801.950000003}},{"attributes":{"ID":135627,"DIS_CODE":0,"TOWNNAME":"鹽水區","LI":"大莊里","LIN":"6鄰","STREET":" ","SECT":" ","MAREA":"大莊","LANE":" ","ALLEY":" ","HOUSE_NO":"２５號之１２","E_COORD97":172891.53,"N_COORD97":2576796.1899999999,"ADDRESS":"大莊２５號之１２","OBJECTID":135627},"geometry":{"x":172891.53000000026,"y":2576796.1899999995}},{"attributes":{"ID":135628,"DIS_CODE":0,"TOWNNAME":"後壁區","LI":"嘉田里","LIN":" ","STREET":" ","SECT":" ","MAREA":"上茄苳","LANE":" ","ALLEY":" ","HOUSE_NO":"４９之２號","E_COORD97":186851.82999999999,"N_COORD97":2587005.29,"ADDRESS":"上茄苳４９之２號","OBJECTID":135628},"geometry":{"x":186851.83000000101,"y":2587005.290000001}},{"attributes":{"ID":135629,"DIS_CODE":0,"TOWNNAME":"後壁區","LI":"嘉田里","LIN":" ","STREET":" ","SECT":" ","MAREA":"上茄苳","LANE":" ","ALLEY":" ","HOUSE_NO":"４之１號","E_COORD97":186854,"N_COORD97":2587550.0099999998,"ADDRESS":"上茄苳４之１號","OBJECTID":135629},"geometry":{"x":186854.00000000093,"y":2587550.0100000016}},{"attributes":{"ID":135630,"DIS_CODE":0,"TOWNNAME":"後壁區","LI":"嘉田里","LIN":" ","STREET":" ","SECT":" ","MAREA":"上茄苳","LANE":" ","ALLEY":" ","HOUSE_NO":"４之６號","E_COORD97":186907.95000000001,"N_COORD97":2587669.3300000001,"ADDRESS":"上茄苳４之６號","OBJECTID":135630},"geometry":{"x":186907.95000000019,"y":2587669.3300000001}},{"attributes":{"ID":135631,"DIS_CODE":0,"TOWNNAME":"後壁區","LI":"嘉田里","LIN":" ","STREET":" ","SECT":" ","MAREA":"上茄苳","LANE":" ","ALLEY":" ","HOUSE_NO":"５０號","E_COORD97":186781.20000000001,"N_COORD97":2587118.3500000001,"ADDRESS":"上茄苳５０號","OBJECTID":135631},"geometry":{"x":186781.20000000205,"y":2587118.3499999996}},{"attributes":{"ID":135632,"DIS_CODE":0,"TOWNNAME":"後壁區","LI":"嘉田里","LIN":" ","STREET":" ","SECT":" ","MAREA":"上茄苳","LANE":" ","ALLEY":" ","HOUSE_NO":"６１之３號","E_COORD97":186725.19,"N_COORD97":2587148.8599999999,"ADDRESS":"上茄苳６１之３號","OBJECTID":135632},"geometry":{"x":186725.19000000041,"y":2587148.8599999994}},{"attributes":{"ID":135633,"DIS_CODE":0,"TOWNNAME":"後壁區","LI":"嘉田里","LIN":" ","STREET":" ","SECT":" ","MAREA":"上茄苳","LANE":" ","ALLEY":" ","HOUSE_NO":"６８號","E_COORD97":186663.01000000001,"N_COORD97":2587101.0899999999,"ADDRESS":"上茄苳６８號","OBJECTID":135633},"geometry":{"x":186663.00999999978,"y":2587101.0899999999}},{"attributes":{"ID":135634,"DIS_CODE":0,"TOWNNAME":"後壁區","LI":"嘉田里","LIN":" ","STREET":" ","SECT":" ","MAREA":"上茄苳","LANE":" ","ALLEY":" ","HOUSE_NO":"７８之１號","E_COORD97":186629.57999999999,"N_COORD97":2587174.4700000002,"ADDRESS":"上茄苳７８之１號","OBJECTID":135634},"geometry":{"x":186629.58000000101,"y":2587174.4700000044}},{"attributes":{"ID":135635,"DIS_CODE":0,"TOWNNAME":"後壁區","LI":"嘉田里","LIN":" ","STREET":" ","SECT":" ","MAREA":"上茄苳","LANE":" ","ALLEY":" ","HOUSE_NO":"７８之２號","E_COORD97":186630.14000000001,"N_COORD97":2587179.5600000001,"ADDRESS":"上茄苳７８之２號","OBJECTID":135635},"geometry":{"x":186630.13999999873,"y":2587179.5600000005}},{"attributes":{"ID":135636,"DIS_CODE":0,"TOWNNAME":"後壁區","LI":"嘉田里","LIN":" ","STREET":" ","SECT":" ","MAREA":"上茄苳","LANE":" ","ALLEY":" ","HOUSE_NO":"７８之３號","E_COORD97":186630.69,"N_COORD97":2587184.77,"ADDRESS":"上茄苳７８之３號","OBJECTID":135636},"geometry":{"x":186630.69000000227,"y":2587184.7700000033}},{"attributes":{"ID":135637,"DIS_CODE":0,"TOWNNAME":"後壁區","LI":"嘉田里","LIN":" ","STREET":" ","SECT":" ","MAREA":"上茄苳","LANE":" ","ALLEY":" ","HOUSE_NO":"７８之４號","E_COORD97":186631.60000000001,"N_COORD97":2587190.6099999999,"ADDRESS":"上茄苳７８之４號","OBJECTID":135637},"geometry":{"x":186631.59999999963,"y":2587190.6100000013}},{"attributes":{"ID":135638,"DIS_CODE":0,"TOWNNAME":"後壁區","LI":"嘉田里","LIN":" ","STREET":" ","SECT":" ","MAREA":"上茄苳","LANE":" ","ALLEY":" ","HOUSE_NO":"７９之１號","E_COORD97":186623.34,"N_COORD97":2587141.54,"ADDRESS":"上茄苳７９之１號","OBJECTID":135638},"geometry":{"x":186623.33999999985,"y":2587141.5399999991}},{"attributes":{"ID":135639,"DIS_CODE":0,"TOWNNAME":"後壁區","LI":"嘉田里","LIN":" ","STREET":" ","SECT":" ","MAREA":"上茄苳","LANE":" ","ALLEY":" ","HOUSE_NO":"７９號","E_COORD97":186640.47,"N_COORD97":2587134.2799999998,"ADDRESS":"上茄苳７９號","OBJECTID":135639},"geometry":{"x":186640.47000000067,"y":2587134.2800000012}},{"attributes":{"ID":135640,"DIS_CODE":0,"TOWNNAME":"北區","LI":"文元里","LIN":"27鄰","STREET":"中華北路","SECT":"二段","MAREA":" ","LANE":"８０巷","ALLEY":"１２弄","HOUSE_NO":"３號","E_COORD97":167700.34,"N_COORD97":2546540.9700000002,"ADDRESS":"中華北路二段８０巷１２弄３號","OBJECTID":135640},"geometry":{"x":167700.33999999985,"y":2546540.9700000044}},{"attributes":{"ID":135641,"DIS_CODE":0,"TOWNNAME":"後壁區","LI":"嘉田里","LIN":" ","STREET":" ","SECT":" ","MAREA":"上茄苳","LANE":" ","ALLEY":" ","HOUSE_NO":"８４號","E_COORD97":186610.03,"N_COORD97":2587075.8700000001,"ADDRESS":"上茄苳８４號","OBJECTID":135641},"geometry":{"x":186610.03000000119,"y":2587075.870000001}},{"attributes":{"ID":135642,"DIS_CODE":0,"TOWNNAME":"後壁區","LI":"嘉田里","LIN":" ","STREET":" ","SECT":" ","MAREA":"上茄苳","LANE":" ","ALLEY":" ","HOUSE_NO":"８６之１號","E_COORD97":186599.04999999999,"N_COORD97":2587029.5299999998,"ADDRESS":"上茄苳８６之１號","OBJECTID":135642},"geometry":{"x":186599.05000000075,"y":2587029.5299999993}},{"attributes":{"ID":135643,"DIS_CODE":0,"TOWNNAME":"後壁區","LI":"嘉田里","LIN":" ","STREET":" ","SECT":" ","MAREA":"上茄苳","LANE":" ","ALLEY":" ","HOUSE_NO":"８６之３號","E_COORD97":186598.35000000001,"N_COORD97":2587020.1800000002,"ADDRESS":"上茄苳８６之３號","OBJECTID":135643},"geometry":{"x":186598.35000000149,"y":2587020.1800000016}},{"attributes":{"ID":135644,"DIS_CODE":0,"TOWNNAME":"後壁區","LI":"嘉田里","LIN":" ","STREET":" ","SECT":" ","MAREA":"上茄苳","LANE":" ","ALLEY":" ","HOUSE_NO":"８６之４號","E_COORD97":186597.57999999999,"N_COORD97":2587015.7000000002,"ADDRESS":"上茄苳８６之４號","OBJECTID":135644},"geometry":{"x":186597.58000000101,"y":2587015.700000003}},{"attributes":{"ID":135645,"DIS_CODE":0,"TOWNNAME":"北區","LI":"文元里","LIN":"27鄰","STREET":"中華北路","SECT":"二段","MAREA":" ","LANE":"８０巷","ALLEY":"１２弄","HOUSE_NO":"５號","E_COORD97":167696.85000000001,"N_COORD97":2546540.4900000002,"ADDRESS":"中華北路二段８０巷１２弄５號","OBJECTID":135645},"geometry":{"x":167696.85000000149,"y":2546540.4900000021}},{"attributes":{"ID":135646,"DIS_CODE":0,"TOWNNAME":"北區","LI":"文元里","LIN":"27鄰","STREET":"中華北路","SECT":"二段","MAREA":" ","LANE":"８０巷","ALLEY":"１２弄","HOUSE_NO":"６號","E_COORD97":167698.75,"N_COORD97":2546558.27,"ADDRESS":"中華北路二段８０巷１２弄６號","OBJECTID":135646},"geometry":{"x":167698.75000000093,"y":2546558.2700000014}},{"attributes":{"ID":135647,"DIS_CODE":0,"TOWNNAME":"北區","LI":"文元里","LIN":"27鄰","STREET":"中華北路","SECT":"二段","MAREA":" ","LANE":"８０巷","ALLEY":"１２弄","HOUSE_NO":"７號","E_COORD97":167692.56,"N_COORD97":2546540.4900000002,"ADDRESS":"中華北路二段８０巷１２弄７號","OBJECTID":135647},"geometry":{"x":167692.56000000052,"y":2546540.4900000021}},{"attributes":{"ID":135648,"DIS_CODE":0,"TOWNNAME":"北區","LI":"文元里","LIN":"27鄰","STREET":"中華北路","SECT":"二段","MAREA":" ","LANE":"８０巷","ALLEY":"１２弄","HOUSE_NO":"８號","E_COORD97":167694.62,"N_COORD97":2546558.75,"ADDRESS":"中華北路二段８０巷１２弄８號","OBJECTID":135648},"geometry":{"x":167694.62000000104,"y":2546558.7500000037}},{"attributes":{"ID":135649,"DIS_CODE":0,"TOWNNAME":"北區","LI":"文元里","LIN":"27鄰","STREET":"中華北路","SECT":"二段","MAREA":" ","LANE":"８０巷","ALLEY":"１２弄","HOUSE_NO":"９號","E_COORD97":167688.75,"N_COORD97":2546539.54,"ADDRESS":"中華北路二段８０巷１２弄９號","OBJECTID":135649},"geometry":{"x":167688.75,"y":2546539.540000001}},{"attributes":{"ID":135650,"DIS_CODE":0,"TOWNNAME":"北區","LI":"文元里","LIN":"27鄰","STREET":"中華北路","SECT":"二段","MAREA":" ","LANE":"８０巷","ALLEY":"６弄","HOUSE_NO":"１０號","E_COORD97":167676.14999999999,"N_COORD97":2546621.6899999999,"ADDRESS":"中華北路二段８０巷６弄１０號","OBJECTID":135650},"geometry":{"x":167676.1500000013,"y":2546621.6899999995}},{"attributes":{"ID":135651,"DIS_CODE":0,"TOWNNAME":"北區","LI":"文元里","LIN":"27鄰","STREET":"中華北路","SECT":"二段","MAREA":" ","LANE":"８０巷","ALLEY":"６弄","HOUSE_NO":"８號","E_COORD97":167682.81,"N_COORD97":2546622.48,"ADDRESS":"中華北路二段８０巷６弄８號","OBJECTID":135651},"geometry":{"x":167682.80999999959,"y":2546622.4800000023}},{"attributes":{"ID":135652,"DIS_CODE":0,"TOWNNAME":"北區","LI":"文元里","LIN":"27鄰","STREET":"中華北路","SECT":"二段","MAREA":" ","LANE":"８０巷","ALLEY":"８弄","HOUSE_NO":"１號","E_COORD97":167697.57999999999,"N_COORD97":2546596.1299999999,"ADDRESS":"中華北路二段８０巷８弄１號","OBJECTID":135652},"geometry":{"x":167697.58000000194,"y":2546596.1300000008}},{"attributes":{"ID":135653,"DIS_CODE":0,"TOWNNAME":"北區","LI":"文元里","LIN":"27鄰","STREET":"中華北路","SECT":"二段","MAREA":" ","LANE":"８０巷","ALLEY":"８弄","HOUSE_NO":"１０號","E_COORD97":167678.37,"N_COORD97":2546607.8799999999,"ADDRESS":"中華北路二段８０巷８弄１０號","OBJECTID":135653},"geometry":{"x":167678.37000000011,"y":2546607.8800000008}},{"attributes":{"ID":135654,"DIS_CODE":0,"TOWNNAME":"北區","LI":"文元里","LIN":"27鄰","STREET":"中華北路","SECT":"二段","MAREA":" ","LANE":"８０巷","ALLEY":"８弄","HOUSE_NO":"２號","E_COORD97":167696.31,"N_COORD97":2546610.1000000001,"ADDRESS":"中華北路二段８０巷８弄２號","OBJECTID":135654},"geometry":{"x":167696.30999999959,"y":2546610.1000000034}},{"attributes":{"ID":135655,"DIS_CODE":0,"TOWNNAME":"北區","LI":"文元里","LIN":"27鄰","STREET":"中華北路","SECT":"二段","MAREA":" ","LANE":"８０巷","ALLEY":"８弄","HOUSE_NO":"３號","E_COORD97":167691.85999999999,"N_COORD97":2546595.8100000001,"ADDRESS":"中華北路二段８０巷８弄３號","OBJECTID":135655},"geometry":{"x":167691.86000000034,"y":2546595.8099999987}},{"attributes":{"ID":135656,"DIS_CODE":0,"TOWNNAME":"後壁區","LI":"嘉田里","LIN":" ","STREET":" ","SECT":" ","MAREA":"上茄苳","LANE":" ","ALLEY":" ","HOUSE_NO":"８８之１０號","E_COORD97":186642.84,"N_COORD97":2586961.6200000001,"ADDRESS":"上茄苳８８之１０號","OBJECTID":135656},"geometry":{"x":186642.84000000078,"y":2586961.6200000029}},{"attributes":{"ID":135657,"DIS_CODE":0,"TOWNNAME":"後壁區","LI":"嘉田里","LIN":" ","STREET":" ","SECT":" ","MAREA":"上茄苳","LANE":" ","ALLEY":" ","HOUSE_NO":"８８之１３號","E_COORD97":186653.70000000001,"N_COORD97":2586957.9399999999,"ADDRESS":"上茄苳８８之１３號","OBJECTID":135657},"geometry":{"x":186653.70000000019,"y":2586957.9400000013}},{"attributes":{"ID":135658,"DIS_CODE":0,"TOWNNAME":"後壁區","LI":"嘉田里","LIN":" ","STREET":" ","SECT":" ","MAREA":"上茄苳","LANE":" ","ALLEY":" ","HOUSE_NO":"８８號","E_COORD97":186636.42000000001,"N_COORD97":2586997.27,"ADDRESS":"上茄苳８８號","OBJECTID":135658},"geometry":{"x":186636.41999999993,"y":2586997.2699999996}},{"attributes":{"ID":135659,"DIS_CODE":0,"TOWNNAME":"後壁區","LI":"嘉田里","LIN":" ","STREET":" ","SECT":" ","MAREA":"上茄苳","LANE":" ","ALLEY":" ","HOUSE_NO":"８９之２號","E_COORD97":186649.45000000001,"N_COORD97":2586993.1000000001,"ADDRESS":"上茄苳８９之２號","OBJECTID":135659},"geometry":{"x":186649.45000000112,"y":2586993.1000000034}},{"attributes":{"ID":135660,"DIS_CODE":0,"TOWNNAME":"北區","LI":"文元里","LIN":"27鄰","STREET":"中華北路","SECT":"二段","MAREA":" ","LANE":"８０巷","ALLEY":"８弄","HOUSE_NO":"５號","E_COORD97":167685.67000000001,"N_COORD97":2546595.1800000002,"ADDRESS":"中華北路二段８０巷８弄５號","OBJECTID":135660},"geometry":{"x":167685.67000000086,"y":2546595.1799999997}},{"attributes":{"ID":135661,"DIS_CODE":0,"TOWNNAME":"關廟區","LI":"布袋里","LIN":"6鄰","STREET":"長富街","SECT":" ","MAREA":" ","LANE":" ","ALLEY":" ","HOUSE_NO":"１１５號","E_COORD97":183175.23999999999,"N_COORD97":2534504.2999999998,"ADDRESS":"長富街１１５號","OBJECTID":135661},"geometry":{"x":183175.23999999929,"y":2534504.3000000026}},{"attributes":{"ID":135662,"DIS_CODE":0,"TOWNNAME":"北區","LI":"文元里","LIN":"27鄰","STREET":"中華北路","SECT":"二段","MAREA":" ","LANE":"８０巷","ALLEY":"８弄","HOUSE_NO":"６號","E_COORD97":167689.64000000001,"N_COORD97":2546608.9900000002,"ADDRESS":"中華北路二段８０巷８弄６號","OBJECTID":135662},"geometry":{"x":167689.63999999966,"y":2546608.9900000021}},{"attributes":{"ID":135663,"DIS_CODE":0,"TOWNNAME":"關廟區","LI":"下湖里","LIN":"6鄰","STREET":"下湖二街","SECT":" ","MAREA":" ","LANE":" ","ALLEY":" ","HOUSE_NO":"８０號","E_COORD97":179388.73999999999,"N_COORD97":2543075.25,"ADDRESS":"下湖二街８０號","OBJECTID":135663},"geometry":{"x":179388.74000000115,"y":2543075.25}},{"attributes":{"ID":135664,"DIS_CODE":0,"TOWNNAME":"北區","LI":"文元里","LIN":"27鄰","STREET":"中華北路","SECT":"二段","MAREA":" ","LANE":"８０巷","ALLEY":"８弄","HOUSE_NO":"７號","E_COORD97":167678.85000000001,"N_COORD97":2546594.54,"ADDRESS":"中華北路二段８０巷８弄７號","OBJECTID":135664},"geometry":{"x":167678.85000000056,"y":2546594.540000001}},{"attributes":{"ID":135665,"DIS_CODE":0,"TOWNNAME":"北區","LI":"文元里","LIN":"27鄰","STREET":"中華北路","SECT":"二段","MAREA":" ","LANE":"８０巷","ALLEY":"８弄","HOUSE_NO":"８號","E_COORD97":167683.60999999999,"N_COORD97":2546608.3500000001,"ADDRESS":"中華北路二段８０巷８弄８號","OBJECTID":135665},"geometry":{"x":167683.61000000034,"y":2546608.3500000034}},{"attributes":{"ID":135666,"DIS_CODE":0,"TOWNNAME":"永康區","LI":"大橋里","LIN":"25鄰","STREET":"大橋一街","SECT":" ","MAREA":" ","LANE":"２２３巷","ALLEY":"４弄","HOUSE_NO":"１０號","E_COORD97":171236.76000000001,"N_COORD97":2546691.9900000002,"ADDRESS":"大橋一街２２３巷４弄１０號","OBJECTID":135666},"geometry":{"x":171236.75999999978,"y":2546691.9900000002}},{"attributes":{"ID":135667,"DIS_CODE":0,"TOWNNAME":"永康區","LI":"大灣里","LIN":"8鄰","STREET":"民族路","SECT":" ","MAREA":" ","LANE":"３９６巷","ALLEY":"１６弄","HOUSE_NO":"３號","E_COORD97":174808.01000000001,"N_COORD97":2545442.1000000001,"ADDRESS":"民族路３９６巷１６弄３號","OBJECTID":135667},"geometry":{"x":174808.01000000071,"y":2545442.0999999996}},{"attributes":{"ID":135668,"DIS_CODE":0,"TOWNNAME":"後壁區","LI":"嘉田里","LIN":" ","STREET":" ","SECT":" ","MAREA":"上茄苳","LANE":" ","ALLEY":" ","HOUSE_NO":"８９之５號","E_COORD97":186672.10000000001,"N_COORD97":2587022.4100000001,"ADDRESS":"上茄苳８９之５號","OBJECTID":135668},"geometry":{"x":186672.09999999963,"y":2587022.410000002}},{"attributes":{"ID":135669,"DIS_CODE":0,"TOWNNAME":"後壁區","LI":"嘉田里","LIN":" ","STREET":" ","SECT":" ","MAREA":"上茄苳","LANE":" ","ALLEY":" ","HOUSE_NO":"９２號","E_COORD97":186678.44,"N_COORD97":2587063.7000000002,"ADDRESS":"上茄苳９２號","OBJECTID":135669},"geometry":{"x":186678.44000000134,"y":2587063.7000000011}},{"attributes":{"ID":135670,"DIS_CODE":0,"TOWNNAME":"永康區","LI":"二王里","LIN":"1鄰","STREET":"二王路","SECT":" ","MAREA":" ","LANE":"２７巷","ALLEY":"１２弄","HOUSE_NO":"１５號","E_COORD97":173060.95000000001,"N_COORD97":2546743.6099999999,"ADDRESS":"二王路２７巷１２弄１５號","OBJECTID":135670},"geometry":{"x":173060.95000000112,"y":2546743.6100000013}},{"attributes":{"ID":135671,"DIS_CODE":0,"TOWNNAME":"永康區","LI":"三民里","LIN":"6鄰","STREET":"三民街","SECT":" ","MAREA":" ","LANE":"１８巷","ALLEY":"１弄","HOUSE_NO":"２３號","E_COORD97":173382.20000000001,"N_COORD97":2550236.5299999998,"ADDRESS":"三民街１８巷１弄２３號","OBJECTID":135671},"geometry":{"x":173382.20000000019,"y":2550236.5299999993}},{"attributes":{"ID":135672,"DIS_CODE":0,"TOWNNAME":"後壁區","LI":"土溝里","LIN":" ","STREET":" ","SECT":" ","MAREA":"土溝","LANE":" ","ALLEY":" ","HOUSE_NO":"１０１之１２號","E_COORD97":187884.04999999999,"N_COORD97":2585881.6800000002,"ADDRESS":"土溝１０１之１２號","OBJECTID":135672},"geometry":{"x":187884.05000000075,"y":2585881.6800000016}},{"attributes":{"ID":135673,"DIS_CODE":0,"TOWNNAME":"永康區","LI":"三合里","LIN":"10鄰","STREET":"南工街","SECT":" ","MAREA":" ","LANE":"２４７巷","ALLEY":"３５弄","HOUSE_NO":"１號","E_COORD97":171980.35000000001,"N_COORD97":2545777.4300000002,"ADDRESS":"南工街２４７巷３５弄１號","OBJECTID":135673},"geometry":{"x":171980.34999999963,"y":2545777.4300000034}},{"attributes":{"ID":135674,"DIS_CODE":0,"TOWNNAME":"永康區","LI":"二王里","LIN":"41鄰","STREET":"中山南路","SECT":" ","MAREA":" ","LANE":"３１６巷","ALLEY":"６弄","HOUSE_NO":"３號","E_COORD97":171909.42999999999,"N_COORD97":2546203.5,"ADDRESS":"中山南路３１６巷６弄３號","OBJECTID":135674},"geometry":{"x":171909.43000000063,"y":2546203.5}},{"attributes":{"ID":135675,"DIS_CODE":0,"TOWNNAME":"永康區","LI":"三合里","LIN":"9鄰","STREET":"南工街","SECT":" ","MAREA":" ","LANE":"２４７巷","ALLEY":"３５弄","HOUSE_NO":"４９號","E_COORD97":172000.75,"N_COORD97":2545724.5,"ADDRESS":"南工街２４７巷３５弄４９號","OBJECTID":135675},"geometry":{"x":172000.75000000093,"y":2545724.5000000019}},{"attributes":{"ID":135676,"DIS_CODE":0,"TOWNNAME":"後壁區","LI":"土溝里","LIN":" ","STREET":" ","SECT":" ","MAREA":"土溝","LANE":" ","ALLEY":" ","HOUSE_NO":"１０１之１９號","E_COORD97":188022.14999999999,"N_COORD97":2585868.7599999998,"ADDRESS":"土溝１０１之１９號","OBJECTID":135676},"geometry":{"x":188022.15000000037,"y":2585868.7599999998}},{"attributes":{"ID":135677,"DIS_CODE":0,"TOWNNAME":"後壁區","LI":"土溝里","LIN":" ","STREET":" ","SECT":" ","MAREA":"土溝","LANE":" ","ALLEY":" ","HOUSE_NO":"１０１號","E_COORD97":187818.23000000001,"N_COORD97":2585800.25,"ADDRESS":"土溝１０１號","OBJECTID":135677},"geometry":{"x":187818.23000000045,"y":2585800.2500000019}},{"attributes":{"ID":135678,"DIS_CODE":0,"TOWNNAME":"永康區","LI":"二王里","LIN":"29鄰","STREET":"中山南路","SECT":" ","MAREA":" ","LANE":"５４４巷","ALLEY":"２弄","HOUSE_NO":"７號","E_COORD97":172237.95999999999,"N_COORD97":2546483.2000000002,"ADDRESS":"中山南路５４４巷２弄７號","OBJECTID":135678},"geometry":{"x":172237.96000000183,"y":2546483.1999999993}},{"attributes":{"ID":135679,"DIS_CODE":0,"TOWNNAME":"永康區","LI":"五王里","LIN":"13鄰","STREET":"中山東路","SECT":" ","MAREA":" ","LANE":"２１８巷","ALLEY":"２３弄","HOUSE_NO":"８號","E_COORD97":171694.87,"N_COORD97":2545706.5099999998,"ADDRESS":"中山東路２１８巷２３弄８號","OBJECTID":135679},"geometry":{"x":171694.87000000104,"y":2545706.5100000016}},{"attributes":{"ID":135680,"DIS_CODE":0,"TOWNNAME":"後壁區","LI":"土溝里","LIN":" ","STREET":" ","SECT":" ","MAREA":"土溝","LANE":" ","ALLEY":" ","HOUSE_NO":"１０２之１號","E_COORD97":187634.84,"N_COORD97":2585827.5899999999,"ADDRESS":"土溝１０２之１號","OBJECTID":135680},"geometry":{"x":187634.84000000078,"y":2585827.5900000017}},{"attributes":{"ID":135681,"DIS_CODE":0,"TOWNNAME":"永康區","LI":"三合里","LIN":"24鄰","STREET":"南工街","SECT":" ","MAREA":" ","LANE":"３１１巷","ALLEY":"４３弄","HOUSE_NO":"８號","E_COORD97":171828.41,"N_COORD97":2545916.6800000002,"ADDRESS":"南工街３１１巷４３弄８號","OBJECTID":135681},"geometry":{"x":171828.41000000108,"y":2545916.6799999997}},{"attributes":{"ID":135682,"DIS_CODE":0,"TOWNNAME":"後壁區","LI":"土溝里","LIN":" ","STREET":" ","SECT":" ","MAREA":"土溝","LANE":" ","ALLEY":" ","HOUSE_NO":"１０３之１０號","E_COORD97":187664.28,"N_COORD97":2585645.6099999999,"ADDRESS":"土溝１０３之１０號","OBJECTID":135682},"geometry":{"x":187664.28000000119,"y":2585645.6099999994}},{"attributes":{"ID":135683,"DIS_CODE":0,"TOWNNAME":"後壁區","LI":"土溝里","LIN":" ","STREET":" ","SECT":" ","MAREA":"土溝","LANE":" ","ALLEY":" ","HOUSE_NO":"１０４號","E_COORD97":187589.54000000001,"N_COORD97":2585780.5699999998,"ADDRESS":"土溝１０４號","OBJECTID":135683},"geometry":{"x":187589.54000000097,"y":2585780.5700000022}},{"attributes":{"ID":135684,"DIS_CODE":0,"TOWNNAME":"永康區","LI":"五王里","LIN":"4鄰","STREET":"中華二路","SECT":" ","MAREA":" ","LANE":"２０６巷","ALLEY":"３０弄","HOUSE_NO":"１９號","E_COORD97":171679.81,"N_COORD97":2545589.1099999999,"ADDRESS":"中華二路２０６巷３０弄１９號","OBJECTID":135684},"geometry":{"x":171679.81000000052,"y":2545589.1100000031}},{"attributes":{"ID":135685,"DIS_CODE":0,"TOWNNAME":"後壁區","LI":"土溝里","LIN":" ","STREET":" ","SECT":" ","MAREA":"土溝","LANE":" ","ALLEY":" ","HOUSE_NO":"１１０號","E_COORD97":187506.85000000001,"N_COORD97":2585826.0099999998,"ADDRESS":"土溝１１０號","OBJECTID":135685},"geometry":{"x":187506.85000000149,"y":2585826.0099999998}},{"attributes":{"ID":135686,"DIS_CODE":0,"TOWNNAME":"後壁區","LI":"土溝里","LIN":" ","STREET":" ","SECT":" ","MAREA":"土溝","LANE":" ","ALLEY":" ","HOUSE_NO":"１１８之１號","E_COORD97":187534.04000000001,"N_COORD97":2585904.6200000001,"ADDRESS":"土溝１１８之１號","OBJECTID":135686},"geometry":{"x":187534.04000000004,"y":2585904.620000001}},{"attributes":{"ID":135687,"DIS_CODE":0,"TOWNNAME":"後壁區","LI":"土溝里","LIN":" ","STREET":" ","SECT":" ","MAREA":"土溝","LANE":" ","ALLEY":" ","HOUSE_NO":"１２０之１號","E_COORD97":187588.34,"N_COORD97":2585881.23,"ADDRESS":"土溝１２０之１號","OBJECTID":135687},"geometry":{"x":187588.33999999985,"y":2585881.2300000023}},{"attributes":{"ID":135688,"DIS_CODE":0,"TOWNNAME":"後壁區","LI":"土溝里","LIN":" ","STREET":" ","SECT":" ","MAREA":"土溝","LANE":" ","ALLEY":" ","HOUSE_NO":"１２４號","E_COORD97":187574.70000000001,"N_COORD97":2585859.73,"ADDRESS":"土溝１２４號","OBJECTID":135688},"geometry":{"x":187574.70000000205,"y":2585859.7300000004}},{"attributes":{"ID":135689,"DIS_CODE":0,"TOWNNAME":"後壁區","LI":"土溝里","LIN":" ","STREET":" ","SECT":" ","MAREA":"土溝","LANE":" ","ALLEY":" ","HOUSE_NO":"１２６之２號","E_COORD97":187550,"N_COORD97":2585832.96,"ADDRESS":"土溝１２６之２號","OBJECTID":135689},"geometry":{"x":187550,"y":2585832.9600000028}},{"attributes":{"ID":135690,"DIS_CODE":0,"TOWNNAME":"後壁區","LI":"土溝里","LIN":" ","STREET":" ","SECT":" ","MAREA":"土溝","LANE":" ","ALLEY":" ","HOUSE_NO":"１２６號","E_COORD97":187542.67000000001,"N_COORD97":2585803.6499999999,"ADDRESS":"土溝１２６號","OBJECTID":135690},"geometry":{"x":187542.67000000086,"y":2585803.6500000022}},{"attributes":{"ID":135691,"DIS_CODE":0,"TOWNNAME":"後壁區","LI":"土溝里","LIN":" ","STREET":" ","SECT":" ","MAREA":"土溝","LANE":" ","ALLEY":" ","HOUSE_NO":"１２７號","E_COORD97":187601.54999999999,"N_COORD97":2585838.8300000001,"ADDRESS":"土溝１２７號","OBJECTID":135691},"geometry":{"x":187601.54999999981,"y":2585838.8299999982}},{"attributes":{"ID":135692,"DIS_CODE":0,"TOWNNAME":"後壁區","LI":"土溝里","LIN":" ","STREET":" ","SECT":" ","MAREA":"土溝","LANE":" ","ALLEY":" ","HOUSE_NO":"１３２之６號","E_COORD97":188579.62,"N_COORD97":2587043.6699999999,"ADDRESS":"土溝１３２之６號","OBJECTID":135692},"geometry":{"x":188579.62000000011,"y":2587043.6700000037}},{"attributes":{"ID":135693,"DIS_CODE":0,"TOWNNAME":"後壁區","LI":"土溝里","LIN":" ","STREET":" ","SECT":" ","MAREA":"土溝","LANE":" ","ALLEY":" ","HOUSE_NO":"１３８之２號","E_COORD97":188690.38,"N_COORD97":2585841.29,"ADDRESS":"土溝１３８之２號","OBJECTID":135693},"geometry":{"x":188690.38000000082,"y":2585841.2899999991}},{"attributes":{"ID":135694,"DIS_CODE":0,"TOWNNAME":"永康區","LI":"三合里","LIN":"12鄰","STREET":"南工街","SECT":" ","MAREA":" ","LANE":"２４７巷","ALLEY":"３３弄","HOUSE_NO":"１５號","E_COORD97":171998.12,"N_COORD97":2545809.27,"ADDRESS":"南工街２４７巷３３弄１５號","OBJECTID":135694},"geometry":{"x":171998.12000000104,"y":2545809.2700000014}},{"attributes":{"ID":135695,"DIS_CODE":0,"TOWNNAME":"關廟區","LI":"埤頭里","LIN":"6鄰","STREET":"保東路","SECT":" ","MAREA":" ","LANE":" ","ALLEY":" ","HOUSE_NO":"５７號","E_COORD97":178963.67000000001,"N_COORD97":2544011.2999999998,"ADDRESS":"保東路５７號","OBJECTID":135695},"geometry":{"x":178963.67000000086,"y":2544011.3000000007}},{"attributes":{"ID":135696,"DIS_CODE":0,"TOWNNAME":"關廟區","LI":"北勢里","LIN":"6鄰","STREET":"中正路","SECT":" ","MAREA":" ","LANE":" ","ALLEY":" ","HOUSE_NO":"７２２號","E_COORD97":181599.45999999999,"N_COORD97":2540300.25,"ADDRESS":"中正路７２２號","OBJECTID":135696},"geometry":{"x":181599.46000000089,"y":2540300.2500000019}},{"attributes":{"ID":135697,"DIS_CODE":0,"TOWNNAME":"關廟區","LI":"五甲里","LIN":"6鄰","STREET":"南雄路","SECT":"一段","MAREA":" ","LANE":" ","ALLEY":" ","HOUSE_NO":"８８９號","E_COORD97":181296.09,"N_COORD97":2539247.2799999998,"ADDRESS":"南雄路一段８８９號","OBJECTID":135697},"geometry":{"x":181296.09000000171,"y":2539247.2799999993}},{"attributes":{"ID":135698,"DIS_CODE":0,"TOWNNAME":"關廟區","LI":"深坑里","LIN":"6鄰","STREET":"南雄路","SECT":"一段","MAREA":" ","LANE":" ","ALLEY":" ","HOUSE_NO":"４１０號","E_COORD97":181732.97,"N_COORD97":2537653.2799999998,"ADDRESS":"南雄路一段４１０號","OBJECTID":135698},"geometry":{"x":181732.97000000067,"y":2537653.2799999993}},{"attributes":{"ID":135699,"DIS_CODE":0,"TOWNNAME":"關廟區","LI":"東勢里","LIN":"6鄰","STREET":"四維街","SECT":" ","MAREA":" ","LANE":" ","ALLEY":" ","HOUSE_NO":"２７號","E_COORD97":181924.10999999999,"N_COORD97":2539512.25,"ADDRESS":"四維街２７號","OBJECTID":135699},"geometry":{"x":181924.11000000127,"y":2539512.25}},{"attributes":{"ID":135700,"DIS_CODE":0,"TOWNNAME":"新營區","LI":"南紙里","LIN":"27鄰","STREET":"太子路","SECT":" ","MAREA":" ","LANE":"２００巷","ALLEY":"７９弄","HOUSE_NO":"２２號","E_COORD97":177790.89999999999,"N_COORD97":2578018.52,"ADDRESS":"太子路２００巷７９弄２２號","OBJECTID":135700},"geometry":{"x":177790.9000000013,"y":2578018.5199999996}},{"attributes":{"ID":135701,"DIS_CODE":0,"TOWNNAME":"新營區","LI":"南紙里","LIN":"27鄰","STREET":"太子路","SECT":" ","MAREA":" ","LANE":"２００巷","ALLEY":"７９弄","HOUSE_NO":"３２號","E_COORD97":177769.42000000001,"N_COORD97":2578013.0899999999,"ADDRESS":"太子路２００巷７９弄３２號","OBJECTID":135701},"geometry":{"x":177769.41999999899,"y":2578013.0900000017}},{"attributes":{"ID":135702,"DIS_CODE":0,"TOWNNAME":"後壁區","LI":"土溝里","LIN":" ","STREET":" ","SECT":" ","MAREA":"土溝","LANE":" ","ALLEY":" ","HOUSE_NO":"１４５之２號","E_COORD97":188794.23999999999,"N_COORD97":2585793.5600000001,"ADDRESS":"土溝１４５之２號","OBJECTID":135702},"geometry":{"x":188794.24000000022,"y":2585793.5600000005}},{"attributes":{"ID":135703,"DIS_CODE":0,"TOWNNAME":"新營區","LI":"南紙里","LIN":"27鄰","STREET":"太子路","SECT":" ","MAREA":" ","LANE":"２００巷","ALLEY":"７９弄","HOUSE_NO":"１４號","E_COORD97":177808.26000000001,"N_COORD97":2578025.0800000001,"ADDRESS":"太子路２００巷７９弄１４號","OBJECTID":135703},"geometry":{"x":177808.26000000071,"y":2578025.0800000001}},{"attributes":{"ID":135704,"DIS_CODE":0,"TOWNNAME":"關廟區","LI":"東勢里","LIN":"6鄰","STREET":"四維街","SECT":" ","MAREA":" ","LANE":" ","ALLEY":" ","HOUSE_NO":"３３號","E_COORD97":181918.70999999999,"N_COORD97":2539525.25,"ADDRESS":"四維街３３號","OBJECTID":135704},"geometry":{"x":181918.70999999996,"y":2539525.25}},{"attributes":{"ID":135705,"DIS_CODE":0,"TOWNNAME":"新營區","LI":"南紙里","LIN":"27鄰","STREET":"太子路","SECT":" ","MAREA":" ","LANE":"２００巷","ALLEY":"７９弄","HOUSE_NO":"２６號","E_COORD97":177781.70000000001,"N_COORD97":2578017.46,"ADDRESS":"太子路２００巷７９弄２６號","OBJECTID":135705},"geometry":{"x":177781.70000000112,"y":2578017.4600000046}},{"attributes":{"ID":135706,"DIS_CODE":0,"TOWNNAME":"永康區","LI":"二王里","LIN":"12鄰","STREET":"永二街","SECT":" ","MAREA":" ","LANE":"４４７巷","ALLEY":"６８弄","HOUSE_NO":"１８號","E_COORD97":172774.14000000001,"N_COORD97":2546537.2999999998,"ADDRESS":"永二街４４７巷６８弄１８號","OBJECTID":135706},"geometry":{"x":172774.1400000006,"y":2546537.3000000007}},{"attributes":{"ID":135707,"DIS_CODE":0,"TOWNNAME":"新營區","LI":"南紙里","LIN":"27鄰","STREET":"太子路","SECT":" ","MAREA":" ","LANE":"２００巷","ALLEY":"７９弄","HOUSE_NO":"１２號","E_COORD97":177812.35000000001,"N_COORD97":2578026.1699999999,"ADDRESS":"太子路２００巷７９弄１２號","OBJECTID":135707},"geometry":{"x":177812.35000000056,"y":2578026.1700000018}},{"attributes":{"ID":135708,"DIS_CODE":0,"TOWNNAME":"新營區","LI":"南紙里","LIN":"27鄰","STREET":"太子路","SECT":" ","MAREA":" ","LANE":"２００巷","ALLEY":"７９弄","HOUSE_NO":"２８號","E_COORD97":177777.60000000001,"N_COORD97":2578016.3700000001,"ADDRESS":"太子路２００巷７９弄２８號","OBJECTID":135708},"geometry":{"x":177777.59999999963,"y":2578016.3700000029}},{"attributes":{"ID":135709,"DIS_CODE":0,"TOWNNAME":"新營區","LI":"南紙里","LIN":"27鄰","STREET":"太子路","SECT":" ","MAREA":" ","LANE":"２００巷","ALLEY":"７９弄","HOUSE_NO":"３０號","E_COORD97":177773.51999999999,"N_COORD97":2578015.2799999998,"ADDRESS":"太子路２００巷７９弄３０號","OBJECTID":135709},"geometry":{"x":177773.52000000142,"y":2578015.2799999993}},{"attributes":{"ID":135710,"DIS_CODE":0,"TOWNNAME":"關廟區","LI":"香洋里","LIN":"6鄰","STREET":"南雄路","SECT":"二段","MAREA":" ","LANE":" ","ALLEY":" ","HOUSE_NO":"５５號","E_COORD97":181101.59,"N_COORD97":2540169.02,"ADDRESS":"南雄路二段５５號","OBJECTID":135710},"geometry":{"x":181101.59000000078,"y":2540169.0200000033}},{"attributes":{"ID":135711,"DIS_CODE":0,"TOWNNAME":"關廟區","LI":"五甲里","LIN":"6鄰","STREET":"五甲路","SECT":" ","MAREA":" ","LANE":"３６巷","ALLEY":" ","HOUSE_NO":"７號","E_COORD97":181223.51999999999,"N_COORD97":2539168.25,"ADDRESS":"五甲路３６巷７號","OBJECTID":135711},"geometry":{"x":181223.52000000048,"y":2539168.2500000019}},{"attributes":{"ID":135712,"DIS_CODE":0,"TOWNNAME":"關廟區","LI":"五甲里","LIN":"6鄰","STREET":"五智街","SECT":" ","MAREA":" ","LANE":" ","ALLEY":" ","HOUSE_NO":"１８號","E_COORD97":181196.42000000001,"N_COORD97":2539127.25,"ADDRESS":"五智街１８號","OBJECTID":135712},"geometry":{"x":181196.41999999993,"y":2539127.2500000019}},{"attributes":{"ID":135713,"DIS_CODE":0,"TOWNNAME":"關廟區","LI":"北勢里","LIN":"6鄰","STREET":"中正路","SECT":" ","MAREA":" ","LANE":" ","ALLEY":" ","HOUSE_NO":"７１２號","E_COORD97":181646.66,"N_COORD97":2540344.25,"ADDRESS":"中正路７１２號","OBJECTID":135713},"geometry":{"x":181646.65999999922,"y":2540344.2500000037}},{"attributes":{"ID":135714,"DIS_CODE":0,"TOWNNAME":"後壁區","LI":"土溝里","LIN":" ","STREET":" ","SECT":" ","MAREA":"土溝","LANE":" ","ALLEY":" ","HOUSE_NO":"１４８號","E_COORD97":188766.95000000001,"N_COORD97":2585803.1800000002,"ADDRESS":"土溝１４８號","OBJECTID":135714},"geometry":{"x":188766.95000000112,"y":2585803.1800000016}},{"attributes":{"ID":135715,"DIS_CODE":0,"TOWNNAME":"關廟區","LI":"香洋里","LIN":"6鄰","STREET":"南雄路","SECT":"二段","MAREA":" ","LANE":" ","ALLEY":" ","HOUSE_NO":"６７號","E_COORD97":181106.59,"N_COORD97":2540193.02,"ADDRESS":"南雄路二段６７號","OBJECTID":135715},"geometry":{"x":181106.59000000078,"y":2540193.0200000014}},{"attributes":{"ID":135716,"DIS_CODE":0,"TOWNNAME":"後壁區","LI":"土溝里","LIN":" ","STREET":" ","SECT":" ","MAREA":"土溝","LANE":" ","ALLEY":" ","HOUSE_NO":"１５之１號","E_COORD97":186821.98000000001,"N_COORD97":2585750.2400000002,"ADDRESS":"土溝１５之１號","OBJECTID":135716},"geometry":{"x":186821.98000000231,"y":2585750.2400000002}},{"attributes":{"ID":135717,"DIS_CODE":0,"TOWNNAME":"後壁區","LI":"土溝里","LIN":" ","STREET":" ","SECT":" ","MAREA":"土溝","LANE":" ","ALLEY":" ","HOUSE_NO":"１７之１號","E_COORD97":186783.89999999999,"N_COORD97":2585717.7999999998,"ADDRESS":"土溝１７之１號","OBJECTID":135717},"geometry":{"x":186783.9000000013,"y":2585717.8000000045}},{"attributes":{"ID":135718,"DIS_CODE":0,"TOWNNAME":"後壁區","LI":"土溝里","LIN":" ","STREET":" ","SECT":" ","MAREA":"土溝","LANE":" ","ALLEY":" ","HOUSE_NO":"１９之２號","E_COORD97":186817.79000000001,"N_COORD97":2585730.3399999999,"ADDRESS":"土溝１９之２號","OBJECTID":135718},"geometry":{"x":186817.7900000019,"y":2585730.3400000036}},{"attributes":{"ID":135719,"DIS_CODE":0,"TOWNNAME":"後壁區","LI":"土溝里","LIN":" ","STREET":" ","SECT":" ","MAREA":"土溝","LANE":" ","ALLEY":" ","HOUSE_NO":"２０之１號","E_COORD97":186831.34,"N_COORD97":2585701.0099999998,"ADDRESS":"土溝２０之１號","OBJECTID":135719},"geometry":{"x":186831.34000000078,"y":2585701.0099999998}},{"attributes":{"ID":135720,"DIS_CODE":0,"TOWNNAME":"後壁區","LI":"土溝里","LIN":" ","STREET":" ","SECT":" ","MAREA":"土溝","LANE":" ","ALLEY":" ","HOUSE_NO":"２１之１號","E_COORD97":186748.72,"N_COORD97":2585676.8399999999,"ADDRESS":"土溝２１之１號","OBJECTID":135720},"geometry":{"x":186748.72000000067,"y":2585676.8400000017}},{"attributes":{"ID":135721,"DIS_CODE":0,"TOWNNAME":"後壁區","LI":"土溝里","LIN":" ","STREET":" ","SECT":" ","MAREA":"土溝","LANE":" ","ALLEY":" ","HOUSE_NO":"２４號","E_COORD97":186929.85999999999,"N_COORD97":2585727.3599999999,"ADDRESS":"土溝２４號","OBJECTID":135721},"geometry":{"x":186929.86000000127,"y":2585727.3600000013}},{"attributes":{"ID":135722,"DIS_CODE":0,"TOWNNAME":"後壁區","LI":"土溝里","LIN":" ","STREET":" ","SECT":" ","MAREA":"土溝","LANE":" ","ALLEY":" ","HOUSE_NO":"３１號","E_COORD97":187039.07999999999,"N_COORD97":2585697.9900000002,"ADDRESS":"土溝３１號","OBJECTID":135722},"geometry":{"x":187039.08000000007,"y":2585697.9900000002}},{"attributes":{"ID":135723,"DIS_CODE":0,"TOWNNAME":"後壁區","LI":"土溝里","LIN":" ","STREET":" ","SECT":" ","MAREA":"土溝","LANE":" ","ALLEY":" ","HOUSE_NO":"４０之４號","E_COORD97":186998.29999999999,"N_COORD97":2585677.6800000002,"ADDRESS":"土溝４０之４號","OBJECTID":135723},"geometry":{"x":186998.29999999981,"y":2585677.6800000016}},{"attributes":{"ID":135724,"DIS_CODE":0,"TOWNNAME":"後壁區","LI":"土溝里","LIN":" ","STREET":" ","SECT":" ","MAREA":"土溝","LANE":" ","ALLEY":" ","HOUSE_NO":"４０之５號","E_COORD97":186993.98000000001,"N_COORD97":2585677.4100000001,"ADDRESS":"土溝４０之５號","OBJECTID":135724},"geometry":{"x":186993.98000000138,"y":2585677.410000002}},{"attributes":{"ID":135725,"DIS_CODE":0,"TOWNNAME":"關廟區","LI":"香洋里","LIN":"6鄰","STREET":"忠孝街","SECT":" ","MAREA":" ","LANE":" ","ALLEY":" ","HOUSE_NO":"９８號","E_COORD97":181019.09,"N_COORD97":2540232.25,"ADDRESS":"忠孝街９８號","OBJECTID":135725},"geometry":{"x":181019.08999999985,"y":2540232.2500000037}},{"attributes":{"ID":135726,"DIS_CODE":0,"TOWNNAME":"新營區","LI":"新南里","LIN":"27鄰","STREET":"復興路","SECT":" ","MAREA":" ","LANE":"６２０巷","ALLEY":"６１弄","HOUSE_NO":"１６號","E_COORD97":178014.38,"N_COORD97":2578553.4399999999,"ADDRESS":"復興路６２０巷６１弄１６號","OBJECTID":135726},"geometry":{"x":178014.38000000082,"y":2578553.4399999995}},{"attributes":{"ID":135727,"DIS_CODE":0,"TOWNNAME":"關廟區","LI":"深坑里","LIN":"6鄰","STREET":"南雄路","SECT":"一段","MAREA":" ","LANE":" ","ALLEY":" ","HOUSE_NO":"４１８號","E_COORD97":181736.76999999999,"N_COORD97":2537673.2799999998,"ADDRESS":"南雄路一段４１８號","OBJECTID":135727},"geometry":{"x":181736.76999999955,"y":2537673.2799999993}},{"attributes":{"ID":135728,"DIS_CODE":0,"TOWNNAME":"新營區","LI":"新南里","LIN":"27鄰","STREET":"復興路","SECT":" ","MAREA":" ","LANE":"６２０巷","ALLEY":"６１弄","HOUSE_NO":"１０號","E_COORD97":178028.70000000001,"N_COORD97":2578553.3700000001,"ADDRESS":"復興路６２０巷６１弄１０號","OBJECTID":135728},"geometry":{"x":178028.70000000019,"y":2578553.370000001}},{"attributes":{"ID":135729,"DIS_CODE":0,"TOWNNAME":"關廟區","LI":"香洋里","LIN":"6鄰","STREET":"南雄路","SECT":"二段","MAREA":" ","LANE":" ","ALLEY":" ","HOUSE_NO":"５９號","E_COORD97":181103.48999999999,"N_COORD97":2540177.02,"ADDRESS":"南雄路二段５９號","OBJECTID":135729},"geometry":{"x":181103.49000000022,"y":2540177.0200000014}},{"attributes":{"ID":135730,"DIS_CODE":0,"TOWNNAME":"永康區","LI":"大橋里","LIN":"18鄰","STREET":"大橋一街","SECT":" ","MAREA":" ","LANE":"１３９巷","ALLEY":"４４弄","HOUSE_NO":"４９號","E_COORD97":171135.82999999999,"N_COORD97":2546734.6499999999,"ADDRESS":"大橋一街１３９巷４４弄４９號","OBJECTID":135730},"geometry":{"x":171135.83000000101,"y":2546734.6500000004}},{"attributes":{"ID":135731,"DIS_CODE":0,"TOWNNAME":"關廟區","LI":"東勢里","LIN":"6鄰","STREET":"四維街","SECT":" ","MAREA":" ","LANE":" ","ALLEY":" ","HOUSE_NO":"２９號","E_COORD97":181922.51000000001,"N_COORD97":2539516.25,"ADDRESS":"四維街２９號","OBJECTID":135731},"geometry":{"x":181922.51000000071,"y":2539516.25}},{"attributes":{"ID":135732,"DIS_CODE":0,"TOWNNAME":"關廟區","LI":"香洋里","LIN":"6鄰","STREET":"忠孝街","SECT":" ","MAREA":" ","LANE":" ","ALLEY":" ","HOUSE_NO":"９２號","E_COORD97":181024.39000000001,"N_COORD97":2540221.25,"ADDRESS":"忠孝街９２號","OBJECTID":135732},"geometry":{"x":181024.3900000006,"y":2540221.25}},{"attributes":{"ID":135733,"DIS_CODE":0,"TOWNNAME":"關廟區","LI":"香洋里","LIN":"6鄰","STREET":"忠孝街","SECT":" ","MAREA":" ","LANE":" ","ALLEY":" ","HOUSE_NO":"１００號","E_COORD97":181019.94,"N_COORD97":2540236.25,"ADDRESS":"忠孝街１００號","OBJECTID":135733},"geometry":{"x":181019.94000000134,"y":2540236.2500000019}},{"attributes":{"ID":135734,"DIS_CODE":0,"TOWNNAME":"關廟區","LI":"山西里","LIN":"6鄰","STREET":"文衡路","SECT":" ","MAREA":" ","LANE":" ","ALLEY":" ","HOUSE_NO":"１２２號","E_COORD97":180920.14000000001,"N_COORD97":2540325.3300000001,"ADDRESS":"文衡路１２２號","OBJECTID":135734},"geometry":{"x":180920.13999999966,"y":2540325.3300000001}},{"attributes":{"ID":135735,"DIS_CODE":0,"TOWNNAME":"永康區","LI":"二王里","LIN":"13鄰","STREET":"永二街","SECT":" ","MAREA":" ","LANE":"４５９巷","ALLEY":"３１弄","HOUSE_NO":"１１號","E_COORD97":172672.17999999999,"N_COORD97":2546601.6400000001,"ADDRESS":"永二街４５９巷３１弄１１號","OBJECTID":135735},"geometry":{"x":172672.18000000063,"y":2546601.6400000025}},{"attributes":{"ID":135736,"DIS_CODE":0,"TOWNNAME":"關廟區","LI":"五甲里","LIN":"6鄰","STREET":"南雄路","SECT":"一段","MAREA":" ","LANE":" ","ALLEY":" ","HOUSE_NO":"８７１號","E_COORD97":181307.98999999999,"N_COORD97":2539195.2799999998,"ADDRESS":"南雄路一段８７１號","OBJECTID":135736},"geometry":{"x":181307.99000000115,"y":2539195.2800000012}},{"attributes":{"ID":135737,"DIS_CODE":0,"TOWNNAME":"歸仁區","LI":"媽廟里","LIN":"27鄰","STREET":"保大路","SECT":"一段","MAREA":" ","LANE":"１５２巷","ALLEY":"１５８弄","HOUSE_NO":"１２號","E_COORD97":177563.19,"N_COORD97":2545642.1000000001,"ADDRESS":"保大路一段１５２巷１５８弄１２號","OBJECTID":135737},"geometry":{"x":177563.19000000227,"y":2545642.0999999996}},{"attributes":{"ID":135738,"DIS_CODE":0,"TOWNNAME":"歸仁區","LI":"媽廟里","LIN":"27鄰","STREET":"保大路","SECT":"一段","MAREA":" ","LANE":"１５２巷","ALLEY":"１５８弄","HOUSE_NO":"１３號","E_COORD97":177576.44,"N_COORD97":2545698.2999999998,"ADDRESS":"保大路一段１５２巷１５８弄１３號","OBJECTID":135738},"geometry":{"x":177576.44000000041,"y":2545698.3000000026}},{"attributes":{"ID":135739,"DIS_CODE":0,"TOWNNAME":"永康區","LI":"中興里","LIN":"5鄰","STREET":"中華路","SECT":" ","MAREA":" ","LANE":"２１６巷","ALLEY":"４０弄","HOUSE_NO":"１６號","E_COORD97":171841.23000000001,"N_COORD97":2545088,"ADDRESS":"中華路２１６巷４０弄１６號","OBJECTID":135739},"geometry":{"x":171841.23000000045,"y":2545088}},{"attributes":{"ID":135740,"DIS_CODE":0,"TOWNNAME":"永康區","LI":"大橋里","LIN":"25鄰","STREET":"大橋一街","SECT":" ","MAREA":" ","LANE":"２２３巷","ALLEY":"６弄","HOUSE_NO":"１２號","E_COORD97":171216.26999999999,"N_COORD97":2546718.5,"ADDRESS":"大橋一街２２３巷６弄１２號","OBJECTID":135740},"geometry":{"x":171216.26999999955,"y":2546718.5}},{"attributes":{"ID":135741,"DIS_CODE":0,"TOWNNAME":"永康區","LI":"三合里","LIN":"9鄰","STREET":"南工街","SECT":" ","MAREA":" ","LANE":"２４７巷","ALLEY":"３５弄","HOUSE_NO":"９８號","E_COORD97":172045.85000000001,"N_COORD97":2545701.25,"ADDRESS":"南工街２４７巷３５弄９８號","OBJECTID":135741},"geometry":{"x":172045.85000000056,"y":2545701.2500000019}},{"attributes":{"ID":135742,"DIS_CODE":0,"TOWNNAME":"永康區","LI":"二王里","LIN":"24鄰","STREET":"中山南路","SECT":" ","MAREA":" ","LANE":"５４４巷","ALLEY":"６７弄","HOUSE_NO":"４號","E_COORD97":172350.39999999999,"N_COORD97":2546342.5,"ADDRESS":"中山南路５４４巷６７弄４號","OBJECTID":135742},"geometry":{"x":172350.40000000037,"y":2546342.5}},{"attributes":{"ID":135743,"DIS_CODE":0,"TOWNNAME":"永康區","LI":"二王里","LIN":"44鄰","STREET":"南工街","SECT":" ","MAREA":" ","LANE":"２１４巷","ALLEY":"３２弄","HOUSE_NO":"３１號","E_COORD97":172127.28,"N_COORD97":2546082.5600000001,"ADDRESS":"南工街２１４巷３２弄３１號","OBJECTID":135743},"geometry":{"x":172127.28000000026,"y":2546082.5600000042}},{"attributes":{"ID":135744,"DIS_CODE":0,"TOWNNAME":"永康區","LI":"二王里","LIN":"42鄰","STREET":"中山南路","SECT":" ","MAREA":" ","LANE":"３１６巷","ALLEY":"２６弄","HOUSE_NO":"９號","E_COORD97":172023.66,"N_COORD97":2546114.71,"ADDRESS":"中山南路３１６巷２６弄９號","OBJECTID":135744},"geometry":{"x":172023.66000000108,"y":2546114.7100000009}},{"attributes":{"ID":135745,"DIS_CODE":0,"TOWNNAME":"永康區","LI":"二王里","LIN":"35鄰","STREET":"中山南路","SECT":" ","MAREA":" ","LANE":"４９０巷","ALLEY":"２弄","HOUSE_NO":"５９號","E_COORD97":172141.32999999999,"N_COORD97":2546315.73,"ADDRESS":"中山南路４９０巷２弄５９號","OBJECTID":135745},"geometry":{"x":172141.33000000101,"y":2546315.7300000023}},{"attributes":{"ID":135746,"DIS_CODE":0,"TOWNNAME":"永康區","LI":"二王里","LIN":"12鄰","STREET":"永二街","SECT":" ","MAREA":" ","LANE":"４４７巷","ALLEY":"６８弄","HOUSE_NO":"４２號","E_COORD97":172812.62,"N_COORD97":2546508.9399999999,"ADDRESS":"永二街４４７巷６８弄４２號","OBJECTID":135746},"geometry":{"x":172812.62000000011,"y":2546508.9399999995}},{"attributes":{"ID":135747,"DIS_CODE":0,"TOWNNAME":"佳里區","LI":"六安里","LIN":" ","STREET":"進學路","SECT":" ","MAREA":" ","LANE":" ","ALLEY":" ","HOUSE_NO":"２５６號","E_COORD97":165607.06,"N_COORD97":2562723.4700000002,"ADDRESS":"進學路２５６號","OBJECTID":135747},"geometry":{"x":165607.06000000145,"y":2562723.4700000025}},{"attributes":{"ID":135748,"DIS_CODE":0,"TOWNNAME":"麻豆區","LI":"莊禮里","LIN":"6鄰","STREET":" ","SECT":" ","MAREA":"莊禮寮","LANE":" ","ALLEY":" ","HOUSE_NO":"７１號","E_COORD97":169350.51000000001,"N_COORD97":2566045.0600000001,"ADDRESS":"莊禮寮７１號","OBJECTID":135748},"geometry":{"x":169350.51000000164,"y":2566045.0600000042}},{"attributes":{"ID":135749,"DIS_CODE":0,"TOWNNAME":"麻豆區","LI":"莊禮里","LIN":"6鄰","STREET":" ","SECT":" ","MAREA":"莊禮寮","LANE":" ","ALLEY":" ","HOUSE_NO":"７２號","E_COORD97":169350.01000000001,"N_COORD97":2566032.0600000001,"ADDRESS":"莊禮寮７２號","OBJECTID":135749},"geometry":{"x":169350.00999999978,"y":2566032.0600000024}},{"attributes":{"ID":135750,"DIS_CODE":0,"TOWNNAME":"後壁區","LI":"土溝里","LIN":" ","STREET":" ","SECT":" ","MAREA":"土溝","LANE":" ","ALLEY":" ","HOUSE_NO":"４０之９號","E_COORD97":186977.60999999999,"N_COORD97":2585676.71,"ADDRESS":"土溝４０之９號","OBJECTID":135750},"geometry":{"x":186977.61000000127,"y":2585676.7100000009}},{"attributes":{"ID":135751,"DIS_CODE":0,"TOWNNAME":"後壁區","LI":"土溝里","LIN":" ","STREET":" ","SECT":" ","MAREA":"土溝","LANE":" ","ALLEY":" ","HOUSE_NO":"４７之２號","E_COORD97":186965.92999999999,"N_COORD97":2585574.98,"ADDRESS":"土溝４７之２號","OBJECTID":135751},"geometry":{"x":186965.93000000063,"y":2585574.9800000023}},{"attributes":{"ID":135752,"DIS_CODE":0,"TOWNNAME":"後壁區","LI":"土溝里","LIN":" ","STREET":" ","SECT":" ","MAREA":"土溝","LANE":" ","ALLEY":" ","HOUSE_NO":"４９之１２號","E_COORD97":187208.17999999999,"N_COORD97":2585268.1200000001,"ADDRESS":"土溝４９之１２號","OBJECTID":135752},"geometry":{"x":187208.18000000156,"y":2585268.120000001}},{"attributes":{"ID":135753,"DIS_CODE":0,"TOWNNAME":"後壁區","LI":"土溝里","LIN":" ","STREET":" ","SECT":" ","MAREA":"土溝","LANE":" ","ALLEY":" ","HOUSE_NO":"５號","E_COORD97":186711.04999999999,"N_COORD97":2585880.6699999999,"ADDRESS":"土溝５號","OBJECTID":135753},"geometry":{"x":186711.05000000075,"y":2585880.6700000037}},{"attributes":{"ID":135754,"DIS_CODE":0,"TOWNNAME":"後壁區","LI":"土溝里","LIN":" ","STREET":" ","SECT":" ","MAREA":"土溝","LANE":" ","ALLEY":" ","HOUSE_NO":"６９之３號","E_COORD97":187499.57999999999,"N_COORD97":2585914.2799999998,"ADDRESS":"土溝６９之３號","OBJECTID":135754},"geometry":{"x":187499.58000000101,"y":2585914.2800000012}},{"attributes":{"ID":135755,"DIS_CODE":0,"TOWNNAME":"麻豆區","LI":"莊禮里","LIN":"6鄰","STREET":" ","SECT":" ","MAREA":"莊禮寮","LANE":" ","ALLEY":" ","HOUSE_NO":"７３號","E_COORD97":169353.53,"N_COORD97":2565995.1299999999,"ADDRESS":"莊禮寮７３號","OBJECTID":135755},"geometry":{"x":169353.53000000026,"y":2565995.1299999971}},{"attributes":{"ID":135756,"DIS_CODE":0,"TOWNNAME":"永康區","LI":"二王里","LIN":"11鄰","STREET":"永二街","SECT":" ","MAREA":" ","LANE":"３９３巷","ALLEY":"１６弄","HOUSE_NO":"４７號","E_COORD97":172918.94,"N_COORD97":2546505.8900000001,"ADDRESS":"永二街３９３巷１６弄４７號","OBJECTID":135756},"geometry":{"x":172918.94000000134,"y":2546505.8900000006}},{"attributes":{"ID":135757,"DIS_CODE":0,"TOWNNAME":"後壁區","LI":"土溝里","LIN":" ","STREET":" ","SECT":" ","MAREA":"土溝","LANE":" ","ALLEY":" ","HOUSE_NO":"７２號","E_COORD97":187507.79000000001,"N_COORD97":2585986.4199999999,"ADDRESS":"土溝７２號","OBJECTID":135757},"geometry":{"x":187507.7900000019,"y":2585986.4199999999}},{"attributes":{"ID":135758,"DIS_CODE":0,"TOWNNAME":"後壁區","LI":"土溝里","LIN":" ","STREET":" ","SECT":" ","MAREA":"土溝","LANE":" ","ALLEY":" ","HOUSE_NO":"７３之１號","E_COORD97":187534.78,"N_COORD97":2585929.27,"ADDRESS":"土溝７３之１號","OBJECTID":135758},"geometry":{"x":187534.78000000026,"y":2585929.2699999996}},{"attributes":{"ID":135759,"DIS_CODE":0,"TOWNNAME":"永康區","LI":"中興里","LIN":"2鄰","STREET":"忠孝路","SECT":" ","MAREA":" ","LANE":"２３９巷","ALLEY":"９弄","HOUSE_NO":"２９號","E_COORD97":172004.45999999999,"N_COORD97":2544984.4100000001,"ADDRESS":"忠孝路２３９巷９弄２９號","OBJECTID":135759},"geometry":{"x":172004.46000000089,"y":2544984.4100000039}},{"attributes":{"ID":135760,"DIS_CODE":0,"TOWNNAME":"永康區","LI":"成功里","LIN":"38鄰","STREET":"中華路","SECT":" ","MAREA":" ","LANE":"１５４巷","ALLEY":"７２弄","HOUSE_NO":"４號","E_COORD97":171807.29999999999,"N_COORD97":2544878.9900000002,"ADDRESS":"中華路１５４巷７２弄４號","OBJECTID":135760},"geometry":{"x":171807.30000000075,"y":2544878.9900000039}},{"attributes":{"ID":135761,"DIS_CODE":0,"TOWNNAME":"永康區","LI":"大灣里","LIN":"13鄰","STREET":"大灣路","SECT":" ","MAREA":" ","LANE":"２１５巷","ALLEY":"４弄","HOUSE_NO":"９號","E_COORD97":175022.84,"N_COORD97":2545271.0499999998,"ADDRESS":"大灣路２１５巷４弄９號","OBJECTID":135761},"geometry":{"x":175022.84000000078,"y":2545271.0500000007}},{"attributes":{"ID":135762,"DIS_CODE":0,"TOWNNAME":"永康區","LI":"中興里","LIN":"19鄰","STREET":"中華二路","SECT":" ","MAREA":" ","LANE":"２１５巷","ALLEY":"２２弄","HOUSE_NO":"１２號","E_COORD97":171743.20999999999,"N_COORD97":2545372.5,"ADDRESS":"中華二路２１５巷２２弄１２號","OBJECTID":135762},"geometry":{"x":171743.21000000089,"y":2545372.5}},{"attributes":{"ID":135763,"DIS_CODE":0,"TOWNNAME":"永康區","LI":"王行里","LIN":"12鄰","STREET":"王行路","SECT":" ","MAREA":" ","LANE":"８６６巷","ALLEY":"２９弄","HOUSE_NO":"８８號","E_COORD97":176016.31,"N_COORD97":2550075.6699999999,"ADDRESS":"王行路８６６巷２９弄８８號","OBJECTID":135763},"geometry":{"x":176016.30999999959,"y":2550075.6700000018}},{"attributes":{"ID":135764,"DIS_CODE":0,"TOWNNAME":"永康區","LI":"大橋里","LIN":"25鄰","STREET":"大橋一街","SECT":" ","MAREA":" ","LANE":"２２３巷","ALLEY":"４弄","HOUSE_NO":"５號","E_COORD97":171220.10000000001,"N_COORD97":2546693.4900000002,"ADDRESS":"大橋一街２２３巷４弄５號","OBJECTID":135764},"geometry":{"x":171220.10000000056,"y":2546693.4900000021}},{"attributes":{"ID":135765,"DIS_CODE":0,"TOWNNAME":"永康區","LI":"三民里","LIN":"6鄰","STREET":"三民街","SECT":" ","MAREA":" ","LANE":"１８巷","ALLEY":"１弄","HOUSE_NO":"６號","E_COORD97":173284.60000000001,"N_COORD97":2550193.7799999998,"ADDRESS":"三民街１８巷１弄６號","OBJECTID":135765},"geometry":{"x":173284.60000000056,"y":2550193.7800000012}},{"attributes":{"ID":135766,"DIS_CODE":0,"TOWNNAME":"歸仁區","LI":"崙頂里","LIN":"27鄰","STREET":"崙頂街","SECT":" ","MAREA":" ","LANE":"１５０巷","ALLEY":"１弄","HOUSE_NO":"５５號","E_COORD97":177848.47,"N_COORD97":2539708.1099999999,"ADDRESS":"崙頂街１５０巷１弄５５號","OBJECTID":135766},"geometry":{"x":177848.46999999974,"y":2539708.1100000013}},{"attributes":{"ID":135767,"DIS_CODE":0,"TOWNNAME":"歸仁區","LI":"崙頂里","LIN":"27鄰","STREET":"崙頂街","SECT":" ","MAREA":" ","LANE":"１５０巷","ALLEY":"１弄","HOUSE_NO":"１１號","E_COORD97":177858.79000000001,"N_COORD97":2539780.54,"ADDRESS":"崙頂街１５０巷１弄１１號","OBJECTID":135767},"geometry":{"x":177858.7900000019,"y":2539780.5399999991}},{"attributes":{"ID":135768,"DIS_CODE":0,"TOWNNAME":"歸仁區","LI":"崙頂里","LIN":"27鄰","STREET":"崙頂街","SECT":" ","MAREA":" ","LANE":"１５０巷","ALLEY":"１弄","HOUSE_NO":"５號","E_COORD97":177853.54000000001,"N_COORD97":2539796.54,"ADDRESS":"崙頂街１５０巷１弄５號","OBJECTID":135768},"geometry":{"x":177853.53999999911,"y":2539796.540000001}},{"attributes":{"ID":135769,"DIS_CODE":0,"TOWNNAME":"永康區","LI":"三合里","LIN":"9鄰","STREET":"南工街","SECT":" ","MAREA":" ","LANE":"２４７巷","ALLEY":"３５弄","HOUSE_NO":"１０３號","E_COORD97":172045.14000000001,"N_COORD97":2545724.5,"ADDRESS":"南工街２４７巷３５弄１０３號","OBJECTID":135769},"geometry":{"x":172045.1400000006,"y":2545724.5000000019}},{"attributes":{"ID":135770,"DIS_CODE":0,"TOWNNAME":"永康區","LI":"二王里","LIN":"29鄰","STREET":"中山南路","SECT":" ","MAREA":" ","LANE":"５４４巷","ALLEY":"２弄","HOUSE_NO":"２號","E_COORD97":172187.35999999999,"N_COORD97":2546508.5899999999,"ADDRESS":"中山南路５４４巷２弄２號","OBJECTID":135770},"geometry":{"x":172187.36000000034,"y":2546508.5900000036}},{"attributes":{"ID":135771,"DIS_CODE":0,"TOWNNAME":"歸仁區","LI":"崙頂里","LIN":"27鄰","STREET":"崙頂街","SECT":" ","MAREA":" ","LANE":"１５０巷","ALLEY":"１弄","HOUSE_NO":"５９號","E_COORD97":177838.45999999999,"N_COORD97":2539686.8100000001,"ADDRESS":"崙頂街１５０巷１弄５９號","OBJECTID":135771},"geometry":{"x":177838.45999999996,"y":2539686.8100000024}},{"attributes":{"ID":135772,"DIS_CODE":0,"TOWNNAME":"歸仁區","LI":"崙頂里","LIN":"27鄰","STREET":"崙頂街","SECT":" ","MAREA":" ","LANE":"１５０巷","ALLEY":"１弄","HOUSE_NO":"２３號","E_COORD97":177855.59,"N_COORD97":2539743.54,"ADDRESS":"崙頂街１５０巷１弄２３號","OBJECTID":135772},"geometry":{"x":177855.59000000078,"y":2539743.5399999991}},{"attributes":{"ID":135773,"DIS_CODE":0,"TOWNNAME":"北區","LI":"成德里","LIN":"6鄰","STREET":"民德路","SECT":" ","MAREA":" ","LANE":"５８巷","ALLEY":" ","HOUSE_NO":"５３號","E_COORD97":168326.5,"N_COORD97":2545421.3300000001,"ADDRESS":"民德路５８巷５３號","OBJECTID":135773},"geometry":{"x":168326.5,"y":2545421.3300000001}},{"attributes":{"ID":135774,"DIS_CODE":0,"TOWNNAME":"安平區","LI":"西門里","LIN":"15鄰","STREET":"安北路","SECT":" ","MAREA":" ","LANE":" ","ALLEY":" ","HOUSE_NO":"３７２號","E_COORD97":163241.39999999999,"N_COORD97":2544565.3199999998,"ADDRESS":"安北路３７２號","OBJECTID":135774},"geometry":{"x":163241.4000000013,"y":2544565.3200000022}},{"attributes":{"ID":135775,"DIS_CODE":0,"TOWNNAME":"安平區","LI":"西門里","LIN":"15鄰","STREET":"安北路","SECT":" ","MAREA":" ","LANE":" ","ALLEY":" ","HOUSE_NO":"３７４號","E_COORD97":163237.29000000001,"N_COORD97":2544563.3799999999,"ADDRESS":"安北路３７４號","OBJECTID":135775},"geometry":{"x":163237.29000000004,"y":2544563.3800000008}},{"attributes":{"ID":135776,"DIS_CODE":0,"TOWNNAME":"安平區","LI":"西門里","LIN":"15鄰","STREET":"安北路","SECT":" ","MAREA":" ","LANE":" ","ALLEY":" ","HOUSE_NO":"３７６號","E_COORD97":163232.98000000001,"N_COORD97":2544562.0800000001,"ADDRESS":"安北路３７６號","OBJECTID":135776},"geometry":{"x":163232.98000000045,"y":2544562.0800000001}},{"attributes":{"ID":135777,"DIS_CODE":0,"TOWNNAME":"歸仁區","LI":"崙頂里","LIN":"27鄰","STREET":"崙頂街","SECT":" ","MAREA":" ","LANE":"１５０巷","ALLEY":"１弄","HOUSE_NO":"５５之１號","E_COORD97":177855.17000000001,"N_COORD97":2539699.1200000001,"ADDRESS":"崙頂街１５０巷１弄５５之１號","OBJECTID":135777},"geometry":{"x":177855.16999999993,"y":2539699.1200000029}},{"attributes":{"ID":135778,"DIS_CODE":0,"TOWNNAME":"歸仁區","LI":"南保里","LIN":"27鄰","STREET":"民權六街","SECT":" ","MAREA":" ","LANE":"１９巷","ALLEY":"１２弄","HOUSE_NO":"１４號","E_COORD97":176888.20999999999,"N_COORD97":2541072.25,"ADDRESS":"民權六街１９巷１２弄１４號","OBJECTID":135778},"geometry":{"x":176888.21000000089,"y":2541072.25}},{"attributes":{"ID":135779,"DIS_CODE":0,"TOWNNAME":"永康區","LI":"二王里","LIN":"12鄰","STREET":"永二街","SECT":" ","MAREA":" ","LANE":"４４７巷","ALLEY":"６８弄","HOUSE_NO":"７號","E_COORD97":172828.76000000001,"N_COORD97":2546506.6699999999,"ADDRESS":"永二街４４７巷６８弄７號","OBJECTID":135779},"geometry":{"x":172828.75999999978,"y":2546506.6699999999}},{"attributes":{"ID":135780,"DIS_CODE":0,"TOWNNAME":"新營區","LI":"新南里","LIN":"27鄰","STREET":"復興路","SECT":" ","MAREA":" ","LANE":"６２０巷","ALLEY":"６１弄","HOUSE_NO":"６號","E_COORD97":178035.64000000001,"N_COORD97":2578552.2200000002,"ADDRESS":"復興路６２０巷６１弄６號","OBJECTID":135780},"geometry":{"x":178035.64000000153,"y":2578552.2200000025}},{"attributes":{"ID":135781,"DIS_CODE":0,"TOWNNAME":"新營區","LI":"新北里","LIN":"27鄰","STREET":"民生路","SECT":" ","MAREA":" ","LANE":"３８５巷","ALLEY":"１３弄","HOUSE_NO":"１７號","E_COORD97":178874.23999999999,"N_COORD97":2579116.2999999998,"ADDRESS":"民生路３８５巷１３弄１７號","OBJECTID":135781},"geometry":{"x":178874.24000000022,"y":2579116.3000000007}},{"attributes":{"ID":135782,"DIS_CODE":0,"TOWNNAME":"永康區","LI":"五王里","LIN":"3鄰","STREET":"中華二路","SECT":" ","MAREA":" ","LANE":"２０６巷","ALLEY":"５１弄","HOUSE_NO":"６號","E_COORD97":171568.17000000001,"N_COORD97":2545606,"ADDRESS":"中華二路２０６巷５１弄６號","OBJECTID":135782},"geometry":{"x":171568.16999999993,"y":2545606}},{"attributes":{"ID":135783,"DIS_CODE":0,"TOWNNAME":"永康區","LI":"甲頂里","LIN":"29鄰","STREET":"中央路","SECT":" ","MAREA":" ","LANE":"２３巷","ALLEY":"５８弄","HOUSE_NO":"２號","E_COORD97":169426.79000000001,"N_COORD97":2546973.3599999999,"ADDRESS":"中央路２３巷５８弄２號","OBJECTID":135783},"geometry":{"x":169426.7900000019,"y":2546973.3599999994}},{"attributes":{"ID":135784,"DIS_CODE":0,"TOWNNAME":"永康區","LI":"二王里","LIN":"46鄰","STREET":"南工街","SECT":" ","MAREA":" ","LANE":"２１２巷","ALLEY":"７弄","HOUSE_NO":"６號","E_COORD97":172089.53,"N_COORD97":2545989.3399999999,"ADDRESS":"南工街２１２巷７弄６號","OBJECTID":135784},"geometry":{"x":172089.53000000026,"y":2545989.3400000017}},{"attributes":{"ID":135785,"DIS_CODE":0,"TOWNNAME":"永康區","LI":"三合里","LIN":"17鄰","STREET":"南工街","SECT":" ","MAREA":" ","LANE":"２４７巷","ALLEY":"６弄","HOUSE_NO":"１３號","E_COORD97":171951.19,"N_COORD97":2545810.3399999999,"ADDRESS":"南工街２４７巷６弄１３號","OBJECTID":135785},"geometry":{"x":171951.19000000041,"y":2545810.3399999999}},{"attributes":{"ID":135786,"DIS_CODE":0,"TOWNNAME":"北區","LI":"成德里","LIN":"6鄰","STREET":"育德路","SECT":" ","MAREA":" ","LANE":" ","ALLEY":" ","HOUSE_NO":"１０１號","E_COORD97":168439.70999999999,"N_COORD97":2545389.1099999999,"ADDRESS":"育德路１０１號","OBJECTID":135786},"geometry":{"x":168439.71000000089,"y":2545389.1100000031}},{"attributes":{"ID":135787,"DIS_CODE":0,"TOWNNAME":"北區","LI":"成德里","LIN":"6鄰","STREET":"育德路","SECT":" ","MAREA":" ","LANE":" ","ALLEY":" ","HOUSE_NO":"１０３號","E_COORD97":168441.53,"N_COORD97":2545392.3399999999,"ADDRESS":"育德路１０３號","OBJECTID":135787},"geometry":{"x":168441.53000000026,"y":2545392.3400000017}},{"attributes":{"ID":135788,"DIS_CODE":0,"TOWNNAME":"永康區","LI":"大灣里","LIN":"29鄰","STREET":"民族路","SECT":" ","MAREA":" ","LANE":"１２６巷","ALLEY":"９弄","HOUSE_NO":"７號","E_COORD97":175304.57000000001,"N_COORD97":2544929.0299999998,"ADDRESS":"民族路１２６巷９弄７號","OBJECTID":135788},"geometry":{"x":175304.57000000123,"y":2544929.0300000012}},{"attributes":{"ID":135789,"DIS_CODE":0,"TOWNNAME":"永康區","LI":"三合里","LIN":"17鄰","STREET":"南工街","SECT":" ","MAREA":" ","LANE":"２４７巷","ALLEY":"６弄","HOUSE_NO":"５號","E_COORD97":171925.13,"N_COORD97":2545838.8300000001,"ADDRESS":"南工街２４７巷６弄５號","OBJECTID":135789},"geometry":{"x":171925.13000000082,"y":2545838.8300000001}},{"attributes":{"ID":135790,"DIS_CODE":0,"TOWNNAME":"永康區","LI":"大橋里","LIN":"21鄰","STREET":"大橋一街","SECT":" ","MAREA":" ","LANE":"１３９巷","ALLEY":"４４弄","HOUSE_NO":"９４號","E_COORD97":171148.57999999999,"N_COORD97":2546707.2999999998,"ADDRESS":"大橋一街１３９巷４４弄９４號","OBJECTID":135790},"geometry":{"x":171148.58000000007,"y":2546707.3000000007}},{"attributes":{"ID":135791,"DIS_CODE":0,"TOWNNAME":"永康區","LI":"勝利里","LIN":"27鄰","STREET":"中華路","SECT":" ","MAREA":" ","LANE":"１２１巷","ALLEY":"２１弄","HOUSE_NO":"３６號","E_COORD97":171456.03,"N_COORD97":2544651.2200000002,"ADDRESS":"中華路１２１巷２１弄３６號","OBJECTID":135791},"geometry":{"x":171456.03000000026,"y":2544651.2200000025}},{"attributes":{"ID":135792,"DIS_CODE":0,"TOWNNAME":"永康區","LI":"甲頂里","LIN":"27鄰","STREET":"小北路","SECT":" ","MAREA":" ","LANE":"１巷","ALLEY":"２２弄","HOUSE_NO":"２號","E_COORD97":169422.73000000001,"N_COORD97":2546798.0699999998,"ADDRESS":"小北路１巷２２弄２號","OBJECTID":135792},"geometry":{"x":169422.73000000138,"y":2546798.0700000022}},{"attributes":{"ID":135793,"DIS_CODE":0,"TOWNNAME":"永康區","LI":"勝利里","LIN":"27鄰","STREET":"中華路","SECT":" ","MAREA":" ","LANE":"１２１巷","ALLEY":"２１弄","HOUSE_NO":"３８號","E_COORD97":171457.82000000001,"N_COORD97":2544641.73,"ADDRESS":"中華路１２１巷２１弄３８號","OBJECTID":135793},"geometry":{"x":171457.82000000216,"y":2544641.7300000023}},{"attributes":{"ID":135794,"DIS_CODE":0,"TOWNNAME":"歸仁區","LI":"歸仁里","LIN":"27鄰","STREET":"忠孝北路","SECT":" ","MAREA":" ","LANE":"８巷","ALLEY":"２１弄","HOUSE_NO":"２１號","E_COORD97":178605.35999999999,"N_COORD97":2540939.46,"ADDRESS":"忠孝北路８巷２１弄２１號","OBJECTID":135794},"geometry":{"x":178605.36000000034,"y":2540939.4600000009}},{"attributes":{"ID":135795,"DIS_CODE":0,"TOWNNAME":"歸仁區","LI":"歸仁里","LIN":"27鄰","STREET":"忠孝北路","SECT":" ","MAREA":" ","LANE":"８巷","ALLEY":"２１弄","HOUSE_NO":"２５號","E_COORD97":178576.12,"N_COORD97":2540975.8700000001,"ADDRESS":"忠孝北路８巷２１弄２５號","OBJECTID":135795},"geometry":{"x":178576.12000000104,"y":2540975.8700000029}},{"attributes":{"ID":135796,"DIS_CODE":0,"TOWNNAME":"永康區","LI":"甲頂里","LIN":"27鄰","STREET":"中央路","SECT":" ","MAREA":" ","LANE":"２３巷","ALLEY":"５１弄","HOUSE_NO":"４號","E_COORD97":169421.89999999999,"N_COORD97":2546909.1499999999,"ADDRESS":"中央路２３巷５１弄４號","OBJECTID":135796},"geometry":{"x":169421.9000000013,"y":2546909.1500000022}},{"attributes":{"ID":135797,"DIS_CODE":0,"TOWNNAME":"永康區","LI":"西勢里","LIN":"27鄰","STREET":"廣興街","SECT":" ","MAREA":" ","LANE":"３８巷","ALLEY":"２６弄","HOUSE_NO":"５號","E_COORD97":176005.87,"N_COORD97":2546446.5499999998,"ADDRESS":"廣興街３８巷２６弄５號","OBJECTID":135797},"geometry":{"x":176005.87000000104,"y":2546446.5500000026}},{"attributes":{"ID":135798,"DIS_CODE":0,"TOWNNAME":"鹽水區","LI":"岸內里","LIN":"12鄰","STREET":"和平路","SECT":" ","MAREA":" ","LANE":" ","ALLEY":" ","HOUSE_NO":"８３號","E_COORD97":175649.20000000001,"N_COORD97":2580574.2599999998,"ADDRESS":"和平路８３號","OBJECTID":135798},"geometry":{"x":175649.20000000112,"y":2580574.2600000016}},{"attributes":{"ID":135799,"DIS_CODE":0,"TOWNNAME":"永康區","LI":"西勢里","LIN":"27鄰","STREET":"廣興街","SECT":" ","MAREA":" ","LANE":"３８巷","ALLEY":"３４弄","HOUSE_NO":"６號","E_COORD97":176042.03,"N_COORD97":2546419.5600000001,"ADDRESS":"廣興街３８巷３４弄６號","OBJECTID":135799},"geometry":{"x":176042.03000000119,"y":2546419.5600000024}},{"attributes":{"ID":135800,"DIS_CODE":0,"TOWNNAME":"永康區","LI":"西勢里","LIN":"27鄰","STREET":"廣興街","SECT":" ","MAREA":" ","LANE":"３８巷","ALLEY":"２６弄","HOUSE_NO":"９號","E_COORD97":176001.26000000001,"N_COORD97":2546440.0499999998,"ADDRESS":"廣興街３８巷２６弄９號","OBJECTID":135800},"geometry":{"x":176001.26000000071,"y":2546440.0500000026}}]}