{"displayFieldName":"TOWNNAME","fieldAliases":{"ID":"ID","DIS_CODE":"DIS_CODE","TOWNNAME":"TOWNNAME","LI":"LI","LIN":"LIN","STREET":"STREET","SECT":"SECT","MAREA":"MAREA","LANE":"LANE","ALLEY":"ALLEY","HOUSE_NO":"HOUSE_NO","E_COORD97":"E_COORD97","N_COORD97":"N_COORD97","ADDRESS":"ADDRESS","OBJECTID":"OBJECTID"},"geometryType":"esriGeometryPoint","spatialReference":{"wkid":102443,"latestWkid":3826},"fields":[{"name":"ID","type":"esriFieldTypeDouble","alias":"ID"},{"name":"DIS_CODE","type":"esriFieldTypeInteger","alias":"DIS_CODE"},{"name":"TOWNNAME","type":"esriFieldTypeString","alias":"TOWNNAME","length":8},{"name":"LI","type":"esriFieldTypeString","alias":"LI","length":8},{"name":"LIN","type":"esriFieldTypeString","alias":"LIN","length":12},{"name":"STREET","type":"esriFieldTypeString","alias":"STREET","length":20},{"name":"SECT","type":"esriFieldTypeString","alias":"SECT","length":8},{"name":"MAREA","type":"esriFieldTypeString","alias":"MAREA","length":12},{"name":"LANE","type":"esriFieldTypeString","alias":"LANE","length":10},{"name":"ALLEY","type":"esriFieldTypeString","alias":"ALLEY","length":10},{"name":"HOUSE_NO","type":"esriFieldTypeString","alias":"HOUSE_NO","length":20},{"name":"E_COORD97","type":"esriFieldTypeDouble","alias":"E_COORD97"},{"name":"N_COORD97","type":"esriFieldTypeDouble","alias":"N_COORD97"},{"name":"ADDRESS","type":"esriFieldTypeString","alias":"ADDRESS","length":50},{"name":"OBJECTID","type":"esriFieldTypeOID","alias":"OBJECTID"}],"features":[{"attributes":{"ID":20801,"DIS_CODE":0,"TOWNNAME":"歸仁區","LI":"六甲里","LIN":"24鄰","STREET":"中正十八街","SECT":" ","MAREA":" ","LANE":" ","ALLEY":" ","HOUSE_NO":"４５號","E_COORD97":176328.60999999999,"N_COORD97":2539572.25,"ADDRESS":"中正十八街４５號","OBJECTID":20801},"geometry":{"x":176328.61000000127,"y":2539572.2500000019}},{"attributes":{"ID":20802,"DIS_CODE":0,"TOWNNAME":"學甲區","LI":"光華里","LIN":"17鄰","STREET":" ","SECT":" ","MAREA":"中洲","LANE":" ","ALLEY":" ","HOUSE_NO":"６３１號之５","E_COORD97":164227.92000000001,"N_COORD97":2571664.23,"ADDRESS":"中洲６３１號之５","OBJECTID":20802},"geometry":{"x":164227.91999999993,"y":2571664.2300000004}},{"attributes":{"ID":20803,"DIS_CODE":0,"TOWNNAME":"學甲區","LI":"光華里","LIN":"17鄰","STREET":" ","SECT":" ","MAREA":"中洲","LANE":" ","ALLEY":" ","HOUSE_NO":"６３１號之６","E_COORD97":164231.89000000001,"N_COORD97":2571664.6299999999,"ADDRESS":"中洲６３１號之６","OBJECTID":20803},"geometry":{"x":164231.8900000006,"y":2571664.6300000008}},{"attributes":{"ID":20804,"DIS_CODE":0,"TOWNNAME":"南區","LI":"興農里","LIN":"14鄰","STREET":"明興路","SECT":" ","MAREA":" ","LANE":"１０５５巷","ALLEY":"１７弄","HOUSE_NO":"４８號之１","E_COORD97":166301.53,"N_COORD97":2536913.3100000001,"ADDRESS":"明興路１０５５巷１７弄４８號之１","OBJECTID":20804},"geometry":{"x":166301.53000000119,"y":2536913.3100000042}},{"attributes":{"ID":20805,"DIS_CODE":0,"TOWNNAME":"南區","LI":"興農里","LIN":"14鄰","STREET":"明興路","SECT":" ","MAREA":" ","LANE":"１０５５巷","ALLEY":"１７弄","HOUSE_NO":"４９號","E_COORD97":166279.57999999999,"N_COORD97":2536914.8399999999,"ADDRESS":"明興路１０５５巷１７弄４９號","OBJECTID":20805},"geometry":{"x":166279.58000000007,"y":2536914.8399999999}},{"attributes":{"ID":20806,"DIS_CODE":0,"TOWNNAME":"南區","LI":"興農里","LIN":"14鄰","STREET":"明興路","SECT":" ","MAREA":" ","LANE":"１０５５巷","ALLEY":"１７弄","HOUSE_NO":"５０號","E_COORD97":166291.45000000001,"N_COORD97":2536928.29,"ADDRESS":"明興路１０５５巷１７弄５０號","OBJECTID":20806},"geometry":{"x":166291.45000000205,"y":2536928.2899999991}},{"attributes":{"ID":20807,"DIS_CODE":0,"TOWNNAME":"南區","LI":"興農里","LIN":"14鄰","STREET":"明興路","SECT":" ","MAREA":" ","LANE":"１０５５巷","ALLEY":"１７弄","HOUSE_NO":"５１號","E_COORD97":166274.45999999999,"N_COORD97":2536922.5299999998,"ADDRESS":"明興路１０５５巷１７弄５１號","OBJECTID":20807},"geometry":{"x":166274.46000000089,"y":2536922.5299999993}},{"attributes":{"ID":20808,"DIS_CODE":0,"TOWNNAME":"南區","LI":"興農里","LIN":"14鄰","STREET":"明興路","SECT":" ","MAREA":" ","LANE":"１０５５巷","ALLEY":"１７弄","HOUSE_NO":"５２號","E_COORD97":166300.98000000001,"N_COORD97":2536940.0099999998,"ADDRESS":"明興路１０５５巷１７弄５２號","OBJECTID":20808},"geometry":{"x":166300.98000000045,"y":2536940.0099999998}},{"attributes":{"ID":20809,"DIS_CODE":0,"TOWNNAME":"南區","LI":"興農里","LIN":"14鄰","STREET":"明興路","SECT":" ","MAREA":" ","LANE":"１０５５巷","ALLEY":"１７弄","HOUSE_NO":"５３號","E_COORD97":166271.25,"N_COORD97":2536927.6499999999,"ADDRESS":"明興路１０５５巷１７弄５３號","OBJECTID":20809},"geometry":{"x":166271.25000000093,"y":2536927.6500000041}},{"attributes":{"ID":20810,"DIS_CODE":0,"TOWNNAME":"南區","LI":"興農里","LIN":"14鄰","STREET":"明興路","SECT":" ","MAREA":" ","LANE":"１０５５巷","ALLEY":"１７弄","HOUSE_NO":"５４號","E_COORD97":166305.51999999999,"N_COORD97":2536942.9399999999,"ADDRESS":"明興路１０５５巷１７弄５４號","OBJECTID":20810},"geometry":{"x":166305.51999999862,"y":2536942.9400000013}},{"attributes":{"ID":20811,"DIS_CODE":0,"TOWNNAME":"南區","LI":"興農里","LIN":"14鄰","STREET":"明興路","SECT":" ","MAREA":" ","LANE":"１０５５巷","ALLEY":"１７弄","HOUSE_NO":"５５號","E_COORD97":166267.07999999999,"N_COORD97":2536934.0499999998,"ADDRESS":"明興路１０５５巷１７弄５５號","OBJECTID":20811},"geometry":{"x":166267.08000000101,"y":2536934.0500000007}},{"attributes":{"ID":20812,"DIS_CODE":0,"TOWNNAME":"南區","LI":"興農里","LIN":"14鄰","STREET":"明興路","SECT":" ","MAREA":" ","LANE":"１０５５巷","ALLEY":"１７弄","HOUSE_NO":"５６號","E_COORD97":166308.98999999999,"N_COORD97":2536946.6699999999,"ADDRESS":"明興路１０５５巷１７弄５６號","OBJECTID":20812},"geometry":{"x":166308.99000000115,"y":2536946.6699999999}},{"attributes":{"ID":20813,"DIS_CODE":0,"TOWNNAME":"南區","LI":"文南里","LIN":"24鄰","STREET":"育南街","SECT":" ","MAREA":" ","LANE":" ","ALLEY":" ","HOUSE_NO":"８０號","E_COORD97":166888.70999999999,"N_COORD97":2542783.29,"ADDRESS":"育南街８０號","OBJECTID":20813},"geometry":{"x":166888.71000000089,"y":2542783.2899999991}},{"attributes":{"ID":20814,"DIS_CODE":0,"TOWNNAME":"學甲區","LI":"光華里","LIN":"17鄰","STREET":" ","SECT":" ","MAREA":"中洲","LANE":" ","ALLEY":" ","HOUSE_NO":"６３１號之７","E_COORD97":164236.57000000001,"N_COORD97":2571664.3399999999,"ADDRESS":"中洲６３１號之７","OBJECTID":20814},"geometry":{"x":164236.57000000123,"y":2571664.3400000017}},{"attributes":{"ID":20815,"DIS_CODE":0,"TOWNNAME":"學甲區","LI":"光華里","LIN":"17鄰","STREET":" ","SECT":" ","MAREA":"中洲","LANE":" ","ALLEY":" ","HOUSE_NO":"６３１號之８","E_COORD97":164241.16,"N_COORD97":2571664.54,"ADDRESS":"中洲６３１號之８","OBJECTID":20815},"geometry":{"x":164241.16000000108,"y":2571664.5399999972}},{"attributes":{"ID":20816,"DIS_CODE":0,"TOWNNAME":"學甲區","LI":"光華里","LIN":"17鄰","STREET":" ","SECT":" ","MAREA":"中洲","LANE":" ","ALLEY":" ","HOUSE_NO":"６３１號之９","E_COORD97":164233.35000000001,"N_COORD97":2571672.02,"ADDRESS":"中洲６３１號之９","OBJECTID":20816},"geometry":{"x":164233.34999999963,"y":2571672.0199999977}},{"attributes":{"ID":20817,"DIS_CODE":0,"TOWNNAME":"學甲區","LI":"光華里","LIN":"17鄰","STREET":" ","SECT":" ","MAREA":"中洲","LANE":" ","ALLEY":" ","HOUSE_NO":"６３１號","E_COORD97":164208.14000000001,"N_COORD97":2571669.6600000001,"ADDRESS":"中洲６３１號","OBJECTID":20817},"geometry":{"x":164208.1400000006,"y":2571669.660000002}},{"attributes":{"ID":20818,"DIS_CODE":0,"TOWNNAME":"學甲區","LI":"光華里","LIN":"17鄰","STREET":" ","SECT":" ","MAREA":"中洲","LANE":" ","ALLEY":" ","HOUSE_NO":"６３２號","E_COORD97":164170.39999999999,"N_COORD97":2571671.1699999999,"ADDRESS":"中洲６３２號","OBJECTID":20818},"geometry":{"x":164170.4000000013,"y":2571671.1699999999}},{"attributes":{"ID":20819,"DIS_CODE":0,"TOWNNAME":"學甲區","LI":"光華里","LIN":"17鄰","STREET":" ","SECT":" ","MAREA":"中洲","LANE":" ","ALLEY":" ","HOUSE_NO":"６３３號之１０","E_COORD97":164145.63,"N_COORD97":2571697.8100000001,"ADDRESS":"中洲６３３號之１０","OBJECTID":20819},"geometry":{"x":164145.63000000175,"y":2571697.8100000005}},{"attributes":{"ID":20820,"DIS_CODE":0,"TOWNNAME":"學甲區","LI":"光華里","LIN":"17鄰","STREET":" ","SECT":" ","MAREA":"中洲","LANE":" ","ALLEY":" ","HOUSE_NO":"６３３號之１１","E_COORD97":164149.82999999999,"N_COORD97":2571697.8599999999,"ADDRESS":"中洲６３３號之１１","OBJECTID":20820},"geometry":{"x":164149.83000000101,"y":2571697.8600000013}},{"attributes":{"ID":20821,"DIS_CODE":0,"TOWNNAME":"學甲區","LI":"光華里","LIN":"17鄰","STREET":" ","SECT":" ","MAREA":"中洲","LANE":" ","ALLEY":" ","HOUSE_NO":"６３３號之１２","E_COORD97":164153.23999999999,"N_COORD97":2571697.6899999999,"ADDRESS":"中洲６３３號之１２","OBJECTID":20821},"geometry":{"x":164153.24000000022,"y":2571697.6899999995}},{"attributes":{"ID":20822,"DIS_CODE":0,"TOWNNAME":"學甲區","LI":"光華里","LIN":"17鄰","STREET":" ","SECT":" ","MAREA":"中洲","LANE":" ","ALLEY":" ","HOUSE_NO":"６４５號","E_COORD97":164031,"N_COORD97":2571711.1400000001,"ADDRESS":"中洲６４５號","OBJECTID":20822},"geometry":{"x":164031,"y":2571711.1400000025}},{"attributes":{"ID":20823,"DIS_CODE":0,"TOWNNAME":"柳營區","LI":"八翁里","LIN":"17鄰","STREET":" ","SECT":" ","MAREA":"八老爺","LANE":" ","ALLEY":" ","HOUSE_NO":"１０９之１號","E_COORD97":178791.97,"N_COORD97":2574408.5800000001,"ADDRESS":"八老爺１０９之１號","OBJECTID":20823},"geometry":{"x":178791.97000000067,"y":2574408.5800000038}},{"attributes":{"ID":20824,"DIS_CODE":0,"TOWNNAME":"柳營區","LI":"八翁里","LIN":"17鄰","STREET":" ","SECT":" ","MAREA":"八老爺","LANE":" ","ALLEY":" ","HOUSE_NO":"１１０號","E_COORD97":178927.17000000001,"N_COORD97":2574239.1099999999,"ADDRESS":"八老爺１１０號","OBJECTID":20824},"geometry":{"x":178927.16999999993,"y":2574239.1100000013}},{"attributes":{"ID":20825,"DIS_CODE":0,"TOWNNAME":"柳營區","LI":"八翁里","LIN":"17鄰","STREET":" ","SECT":" ","MAREA":"八老爺","LANE":" ","ALLEY":" ","HOUSE_NO":"１１１號","E_COORD97":178731.12,"N_COORD97":2574433.2999999998,"ADDRESS":"八老爺１１１號","OBJECTID":20825},"geometry":{"x":178731.12000000011,"y":2574433.3000000007}},{"attributes":{"ID":20826,"DIS_CODE":0,"TOWNNAME":"柳營區","LI":"八翁里","LIN":"17鄰","STREET":" ","SECT":" ","MAREA":"八老爺","LANE":" ","ALLEY":" ","HOUSE_NO":"１２０號","E_COORD97":178925.78,"N_COORD97":2574287.25,"ADDRESS":"八老爺１２０號","OBJECTID":20826},"geometry":{"x":178925.78000000119,"y":2574287.25}},{"attributes":{"ID":20827,"DIS_CODE":0,"TOWNNAME":"柳營區","LI":"八翁里","LIN":"17鄰","STREET":" ","SECT":" ","MAREA":"八老爺","LANE":" ","ALLEY":" ","HOUSE_NO":"１３９號","E_COORD97":178832.25,"N_COORD97":2574531.3599999999,"ADDRESS":"八老爺１３９號","OBJECTID":20827},"geometry":{"x":178832.25000000093,"y":2574531.3600000031}},{"attributes":{"ID":20828,"DIS_CODE":0,"TOWNNAME":"柳營區","LI":"八翁里","LIN":"17鄰","STREET":" ","SECT":" ","MAREA":"八老爺","LANE":" ","ALLEY":" ","HOUSE_NO":"９３之２０號","E_COORD97":178723.81,"N_COORD97":2574413.6000000001,"ADDRESS":"八老爺９３之２０號","OBJECTID":20828},"geometry":{"x":178723.80999999959,"y":2574413.5999999996}},{"attributes":{"ID":20829,"DIS_CODE":0,"TOWNNAME":"柳營區","LI":"八翁里","LIN":"17鄰","STREET":" ","SECT":" ","MAREA":"八老爺","LANE":" ","ALLEY":" ","HOUSE_NO":"９３之４９號","E_COORD97":178832.92999999999,"N_COORD97":2574674.9399999999,"ADDRESS":"八老爺９３之４９號","OBJECTID":20829},"geometry":{"x":178832.93000000063,"y":2574674.9399999995}},{"attributes":{"ID":20830,"DIS_CODE":0,"TOWNNAME":"柳營區","LI":"八翁里","LIN":"17鄰","STREET":" ","SECT":" ","MAREA":"八老爺","LANE":" ","ALLEY":" ","HOUSE_NO":"９３之５５號","E_COORD97":178962.98000000001,"N_COORD97":2574436.6200000001,"ADDRESS":"八老爺９３之５５號","OBJECTID":20830},"geometry":{"x":178962.97999999952,"y":2574436.6200000029}},{"attributes":{"ID":20831,"DIS_CODE":0,"TOWNNAME":"柳營區","LI":"八翁里","LIN":"17鄰","STREET":" ","SECT":" ","MAREA":"八老爺","LANE":" ","ALLEY":" ","HOUSE_NO":"９３之５號","E_COORD97":178809.38,"N_COORD97":2574528.6099999999,"ADDRESS":"八老爺９３之５號","OBJECTID":20831},"geometry":{"x":178809.38000000082,"y":2574528.6099999994}},{"attributes":{"ID":20832,"DIS_CODE":0,"TOWNNAME":"安平區","LI":"文平里","LIN":"24鄰","STREET":"建平二街","SECT":" ","MAREA":" ","LANE":" ","ALLEY":" ","HOUSE_NO":"４２號","E_COORD97":166236.06,"N_COORD97":2542820.3300000001,"ADDRESS":"建平二街４２號","OBJECTID":20832},"geometry":{"x":166236.06000000052,"y":2542820.3300000001}},{"attributes":{"ID":20833,"DIS_CODE":0,"TOWNNAME":"安平區","LI":"文平里","LIN":"24鄰","STREET":"建平二街","SECT":" ","MAREA":" ","LANE":" ","ALLEY":" ","HOUSE_NO":"４６號","E_COORD97":166230.51000000001,"N_COORD97":2542820.7999999998,"ADDRESS":"建平二街４６號","OBJECTID":20833},"geometry":{"x":166230.50999999978,"y":2542820.8000000026}},{"attributes":{"ID":20834,"DIS_CODE":0,"TOWNNAME":"安平區","LI":"文平里","LIN":"24鄰","STREET":"建平三街","SECT":" ","MAREA":" ","LANE":" ","ALLEY":" ","HOUSE_NO":"５號","E_COORD97":166244.95999999999,"N_COORD97":2542857.52,"ADDRESS":"建平三街５號","OBJECTID":20834},"geometry":{"x":166244.95999999996,"y":2542857.5200000033}},{"attributes":{"ID":20835,"DIS_CODE":0,"TOWNNAME":"柳營區","LI":"八翁里","LIN":"17鄰","STREET":" ","SECT":" ","MAREA":"八老爺","LANE":" ","ALLEY":" ","HOUSE_NO":"９３之６號","E_COORD97":178807.32000000001,"N_COORD97":2574671.4100000001,"ADDRESS":"八老爺９３之６號","OBJECTID":20835},"geometry":{"x":178807.3200000003,"y":2574671.410000002}},{"attributes":{"ID":20836,"DIS_CODE":0,"TOWNNAME":"柳營區","LI":"八翁里","LIN":"17鄰","STREET":" ","SECT":" ","MAREA":"八老爺","LANE":" ","ALLEY":" ","HOUSE_NO":"９３之９號","E_COORD97":177911.82999999999,"N_COORD97":2574192.8100000001,"ADDRESS":"八老爺９３之９號","OBJECTID":20836},"geometry":{"x":177911.83000000101,"y":2574192.8100000005}},{"attributes":{"ID":20837,"DIS_CODE":0,"TOWNNAME":"七股區","LI":"城內里","LIN":"1鄰","STREET":" ","SECT":" ","MAREA":"城內","LANE":" ","ALLEY":" ","HOUSE_NO":"６號","E_COORD97":162354.75,"N_COORD97":2564264.1000000001,"ADDRESS":"城內６號","OBJECTID":20837},"geometry":{"x":162354.75000000186,"y":2564264.1000000015}},{"attributes":{"ID":20838,"DIS_CODE":0,"TOWNNAME":"佳里區","LI":"興化里","LIN":"17鄰","STREET":" ","SECT":" ","MAREA":"佳里興","LANE":" ","ALLEY":" ","HOUSE_NO":"４８５號","E_COORD97":167029.84,"N_COORD97":2565426.7799999998,"ADDRESS":"佳里興４８５號","OBJECTID":20838},"geometry":{"x":167029.84000000078,"y":2565426.7800000012}},{"attributes":{"ID":20839,"DIS_CODE":0,"TOWNNAME":"南區","LI":"興農里","LIN":"14鄰","STREET":"明興路","SECT":" ","MAREA":" ","LANE":"１０５５巷","ALLEY":"１７弄","HOUSE_NO":"５７號","E_COORD97":166264.51999999999,"N_COORD97":2536940.77,"ADDRESS":"明興路１０５５巷１７弄５７號","OBJECTID":20839},"geometry":{"x":166264.51999999955,"y":2536940.7700000014}},{"attributes":{"ID":20840,"DIS_CODE":0,"TOWNNAME":"南區","LI":"興農里","LIN":"14鄰","STREET":"明興路","SECT":" ","MAREA":" ","LANE":"１０５５巷","ALLEY":"１７弄","HOUSE_NO":"５８號","E_COORD97":166312.19,"N_COORD97":2536950.6699999999,"ADDRESS":"明興路１０５５巷１７弄５８號","OBJECTID":20840},"geometry":{"x":166312.19000000227,"y":2536950.6700000037}},{"attributes":{"ID":20841,"DIS_CODE":0,"TOWNNAME":"南區","LI":"興農里","LIN":"14鄰","STREET":"明興路","SECT":" ","MAREA":" ","LANE":"１０５５巷","ALLEY":"１７弄","HOUSE_NO":"５９號","E_COORD97":166260.98999999999,"N_COORD97":2536947.1800000002,"ADDRESS":"明興路１０５５巷１７弄５９號","OBJECTID":20841},"geometry":{"x":166260.99000000115,"y":2536947.1800000034}},{"attributes":{"ID":20842,"DIS_CODE":0,"TOWNNAME":"南區","LI":"興農里","LIN":"14鄰","STREET":"明興路","SECT":" ","MAREA":" ","LANE":"１０５５巷","ALLEY":"１７弄","HOUSE_NO":"５號","E_COORD97":166316.85999999999,"N_COORD97":2536849.2200000002,"ADDRESS":"明興路１０５５巷１７弄５號","OBJECTID":20842},"geometry":{"x":166316.86000000034,"y":2536849.2199999988}},{"attributes":{"ID":20843,"DIS_CODE":0,"TOWNNAME":"南區","LI":"興農里","LIN":"14鄰","STREET":"明興路","SECT":" ","MAREA":" ","LANE":"１０５５巷","ALLEY":"１７弄","HOUSE_NO":"６０號","E_COORD97":166286.32000000001,"N_COORD97":2536937.25,"ADDRESS":"明興路１０５５巷１７弄６０號","OBJECTID":20843},"geometry":{"x":166286.32000000123,"y":2536937.2500000019}},{"attributes":{"ID":20844,"DIS_CODE":0,"TOWNNAME":"南區","LI":"興農里","LIN":"14鄰","STREET":"明興路","SECT":" ","MAREA":" ","LANE":"１０５５巷","ALLEY":"１７弄","HOUSE_NO":"６１號","E_COORD97":166257.78,"N_COORD97":2536952.2999999998,"ADDRESS":"明興路１０５５巷１７弄６１號","OBJECTID":20844},"geometry":{"x":166257.78000000119,"y":2536952.3000000026}},{"attributes":{"ID":20845,"DIS_CODE":0,"TOWNNAME":"南區","LI":"興農里","LIN":"14鄰","STREET":"明興路","SECT":" ","MAREA":" ","LANE":"１０５５巷","ALLEY":"１７弄","HOUSE_NO":"６２號","E_COORD97":166284.07000000001,"N_COORD97":2536942.3799999999,"ADDRESS":"明興路１０５５巷１７弄６２號","OBJECTID":20845},"geometry":{"x":166284.07000000216,"y":2536942.3800000008}},{"attributes":{"ID":20846,"DIS_CODE":0,"TOWNNAME":"南區","LI":"興農里","LIN":"14鄰","STREET":"明興路","SECT":" ","MAREA":" ","LANE":"１０５５巷","ALLEY":"１７弄","HOUSE_NO":"６４號","E_COORD97":166282.14999999999,"N_COORD97":2536946.8599999999,"ADDRESS":"明興路１０５５巷１７弄６４號","OBJECTID":20846},"geometry":{"x":166282.1500000013,"y":2536946.8600000013}},{"attributes":{"ID":20847,"DIS_CODE":0,"TOWNNAME":"南區","LI":"興農里","LIN":"14鄰","STREET":"明興路","SECT":" ","MAREA":" ","LANE":"１０５５巷","ALLEY":"１７弄","HOUSE_NO":"６６號","E_COORD97":166279.57999999999,"N_COORD97":2536951.3399999999,"ADDRESS":"明興路１０５５巷１７弄６６號","OBJECTID":20847},"geometry":{"x":166279.58000000007,"y":2536951.3399999999}},{"attributes":{"ID":20848,"DIS_CODE":0,"TOWNNAME":"南區","LI":"興農里","LIN":"14鄰","STREET":"明興路","SECT":" ","MAREA":" ","LANE":"１０５５巷","ALLEY":"１７弄","HOUSE_NO":"６８號","E_COORD97":166276.70000000001,"N_COORD97":2536956.1400000001,"ADDRESS":"明興路１０５５巷１７弄６８號","OBJECTID":20848},"geometry":{"x":166276.70000000112,"y":2536956.1400000025}},{"attributes":{"ID":20849,"DIS_CODE":0,"TOWNNAME":"南區","LI":"興農里","LIN":"14鄰","STREET":"明興路","SECT":" ","MAREA":" ","LANE":"１０５５巷","ALLEY":"１７弄","HOUSE_NO":"６號","E_COORD97":166346.60000000001,"N_COORD97":2536877.52,"ADDRESS":"明興路１０５５巷１７弄６號","OBJECTID":20849},"geometry":{"x":166346.60000000056,"y":2536877.5200000014}},{"attributes":{"ID":20850,"DIS_CODE":0,"TOWNNAME":"南區","LI":"府南里","LIN":"20鄰","STREET":"永成路","SECT":"三段","MAREA":" ","LANE":"４６１巷","ALLEY":"６弄","HOUSE_NO":"３６號","E_COORD97":167424.21315299999,"N_COORD97":2541603.1264499999,"ADDRESS":"永成路三段４６１巷６弄３６號","OBJECTID":20850},"geometry":{"x":167424.21315300092,"y":2541603.1264519989}},{"attributes":{"ID":20851,"DIS_CODE":0,"TOWNNAME":"南區","LI":"興農里","LIN":"14鄰","STREET":"明興路","SECT":" ","MAREA":" ","LANE":"１０５５巷","ALLEY":"１７弄","HOUSE_NO":"７０號","E_COORD97":166274.13,"N_COORD97":2536960.9399999999,"ADDRESS":"明興路１０５５巷１７弄７０號","OBJECTID":20851},"geometry":{"x":166274.12999999989,"y":2536960.9399999995}},{"attributes":{"ID":20852,"DIS_CODE":0,"TOWNNAME":"南區","LI":"興農里","LIN":"14鄰","STREET":"明興路","SECT":" ","MAREA":" ","LANE":"１０５５巷","ALLEY":"１７弄","HOUSE_NO":"７號","E_COORD97":166310.29999999999,"N_COORD97":2536845.0099999998,"ADDRESS":"明興路１０５５巷１７弄７號","OBJECTID":20852},"geometry":{"x":166310.29999999981,"y":2536845.0099999998}},{"attributes":{"ID":20853,"DIS_CODE":0,"TOWNNAME":"南區","LI":"府南里","LIN":"20鄰","STREET":"永成路","SECT":"三段","MAREA":" ","LANE":"４６１巷","ALLEY":"６弄","HOUSE_NO":"３２號","E_COORD97":167423.89549200001,"N_COORD97":2541597.8347900002,"ADDRESS":"永成路三段４６１巷６弄３２號","OBJECTID":20853},"geometry":{"x":167423.89549199864,"y":2541597.8347880021}},{"attributes":{"ID":20854,"DIS_CODE":0,"TOWNNAME":"南區","LI":"興農里","LIN":"14鄰","STREET":"明興路","SECT":" ","MAREA":" ","LANE":"１０５５巷","ALLEY":"１７弄","HOUSE_NO":"８號","E_COORD97":166350.10999999999,"N_COORD97":2536880.5600000001,"ADDRESS":"明興路１０５５巷１７弄８號","OBJECTID":20854},"geometry":{"x":166350.11000000127,"y":2536880.5600000005}},{"attributes":{"ID":20855,"DIS_CODE":0,"TOWNNAME":"南區","LI":"興農里","LIN":"14鄰","STREET":"明興路","SECT":" ","MAREA":" ","LANE":"１０５５巷","ALLEY":"１７弄","HOUSE_NO":"９號","E_COORD97":166306.32000000001,"N_COORD97":2536841.5099999998,"ADDRESS":"明興路１０５５巷１７弄９號","OBJECTID":20855},"geometry":{"x":166306.32000000123,"y":2536841.5099999998}},{"attributes":{"ID":20856,"DIS_CODE":0,"TOWNNAME":"歸仁區","LI":"六甲里","LIN":"38鄰","STREET":"六甲八街","SECT":" ","MAREA":" ","LANE":"１４９巷","ALLEY":"５０弄","HOUSE_NO":"１８號","E_COORD97":175264.63690000001,"N_COORD97":2539790.1153699998,"ADDRESS":"六甲八街１４９巷５０弄１８號","OBJECTID":20856},"geometry":{"x":175264.63690000121,"y":2539790.1153739989}},{"attributes":{"ID":20857,"DIS_CODE":0,"TOWNNAME":"北區","LI":"延平里","LIN":"14鄰","STREET":"長榮路","SECT":"五段","MAREA":" ","LANE":"４０９巷","ALLEY":"２弄","HOUSE_NO":"１０號","E_COORD97":169285.51000000001,"N_COORD97":2545930.2999999998,"ADDRESS":"長榮路五段４０９巷２弄１０號","OBJECTID":20857},"geometry":{"x":169285.50999999978,"y":2545930.3000000007}},{"attributes":{"ID":20858,"DIS_CODE":0,"TOWNNAME":"北區","LI":"延平里","LIN":"14鄰","STREET":"長榮路","SECT":"五段","MAREA":" ","LANE":"４０９巷","ALLEY":"２弄","HOUSE_NO":"１１號","E_COORD97":169274.5,"N_COORD97":2545921.5600000001,"ADDRESS":"長榮路五段４０９巷２弄１１號","OBJECTID":20858},"geometry":{"x":169274.50000000186,"y":2545921.5600000005}},{"attributes":{"ID":20859,"DIS_CODE":0,"TOWNNAME":"北區","LI":"延平里","LIN":"14鄰","STREET":"長榮路","SECT":"五段","MAREA":" ","LANE":"４０９巷","ALLEY":"２弄","HOUSE_NO":"１２號","E_COORD97":169280.98999999999,"N_COORD97":2545932.8399999999,"ADDRESS":"長榮路五段４０９巷２弄１２號","OBJECTID":20859},"geometry":{"x":169280.99000000022,"y":2545932.8399999999}},{"attributes":{"ID":20860,"DIS_CODE":0,"TOWNNAME":"北區","LI":"延平里","LIN":"14鄰","STREET":"長榮路","SECT":"五段","MAREA":" ","LANE":"４０９巷","ALLEY":"２弄","HOUSE_NO":"１３號","E_COORD97":169271.12,"N_COORD97":2545923.1200000001,"ADDRESS":"長榮路五段４０９巷２弄１３號","OBJECTID":20860},"geometry":{"x":169271.12000000104,"y":2545923.1200000048}},{"attributes":{"ID":20861,"DIS_CODE":0,"TOWNNAME":"北區","LI":"延平里","LIN":"14鄰","STREET":"長榮路","SECT":"五段","MAREA":" ","LANE":"４０９巷","ALLEY":"２弄","HOUSE_NO":"１４號","E_COORD97":169276.89999999999,"N_COORD97":2545934.25,"ADDRESS":"長榮路五段４０９巷２弄１４號","OBJECTID":20861},"geometry":{"x":169276.90000000037,"y":2545934.25}},{"attributes":{"ID":20862,"DIS_CODE":0,"TOWNNAME":"北區","LI":"延平里","LIN":"14鄰","STREET":"長榮路","SECT":"五段","MAREA":" ","LANE":"４０９巷","ALLEY":"２弄","HOUSE_NO":"１５號","E_COORD97":169267.03,"N_COORD97":2545925.6499999999,"ADDRESS":"長榮路五段４０９巷２弄１５號","OBJECTID":20862},"geometry":{"x":169267.03000000026,"y":2545925.6500000041}},{"attributes":{"ID":20863,"DIS_CODE":0,"TOWNNAME":"北區","LI":"延平里","LIN":"14鄰","STREET":"長榮路","SECT":"五段","MAREA":" ","LANE":"４０９巷","ALLEY":"２弄","HOUSE_NO":"１６號","E_COORD97":169273.37,"N_COORD97":2545935.9399999999,"ADDRESS":"長榮路五段４０９巷２弄１６號","OBJECTID":20863},"geometry":{"x":169273.37000000011,"y":2545935.9399999995}},{"attributes":{"ID":20864,"DIS_CODE":0,"TOWNNAME":"北區","LI":"延平里","LIN":"14鄰","STREET":"長榮路","SECT":"五段","MAREA":" ","LANE":"４０９巷","ALLEY":"２弄","HOUSE_NO":"１７號","E_COORD97":169263.5,"N_COORD97":2545926.9199999999,"ADDRESS":"長榮路五段４０９巷２弄１７號","OBJECTID":20864},"geometry":{"x":169263.5,"y":2545926.9200000037}},{"attributes":{"ID":20865,"DIS_CODE":0,"TOWNNAME":"北區","LI":"延平里","LIN":"14鄰","STREET":"長榮路","SECT":"五段","MAREA":" ","LANE":"４０９巷","ALLEY":"２弄","HOUSE_NO":"１８號","E_COORD97":169269.57000000001,"N_COORD97":2545938.7599999998,"ADDRESS":"長榮路五段４０９巷２弄１８號","OBJECTID":20865},"geometry":{"x":169269.57000000123,"y":2545938.7600000016}},{"attributes":{"ID":20866,"DIS_CODE":0,"TOWNNAME":"北區","LI":"延平里","LIN":"14鄰","STREET":"長榮路","SECT":"五段","MAREA":" ","LANE":"４０９巷","ALLEY":"２弄","HOUSE_NO":"１９號","E_COORD97":169259.82999999999,"N_COORD97":2545928.4700000002,"ADDRESS":"長榮路五段４０９巷２弄１９號","OBJECTID":20866},"geometry":{"x":169259.83000000007,"y":2545928.4700000025}},{"attributes":{"ID":20867,"DIS_CODE":0,"TOWNNAME":"北區","LI":"延平里","LIN":"14鄰","STREET":"長榮路","SECT":"五段","MAREA":" ","LANE":"４０９巷","ALLEY":"２弄","HOUSE_NO":"１號","E_COORD97":169293.97,"N_COORD97":2545910.4300000002,"ADDRESS":"長榮路五段４０９巷２弄１號","OBJECTID":20867},"geometry":{"x":169293.96999999974,"y":2545910.4300000016}},{"attributes":{"ID":20868,"DIS_CODE":0,"TOWNNAME":"北區","LI":"延平里","LIN":"14鄰","STREET":"長榮路","SECT":"五段","MAREA":" ","LANE":"４０９巷","ALLEY":"２弄","HOUSE_NO":"２０號","E_COORD97":169265.89999999999,"N_COORD97":2545940.7400000002,"ADDRESS":"長榮路五段４０９巷２弄２０號","OBJECTID":20868},"geometry":{"x":169265.9000000013,"y":2545940.7400000002}},{"attributes":{"ID":20869,"DIS_CODE":0,"TOWNNAME":"北區","LI":"延平里","LIN":"14鄰","STREET":"長榮路","SECT":"五段","MAREA":" ","LANE":"４０９巷","ALLEY":"２弄","HOUSE_NO":"２１號","E_COORD97":169255.88,"N_COORD97":2545930.8700000001,"ADDRESS":"長榮路五段４０９巷２弄２１號","OBJECTID":20869},"geometry":{"x":169255.87999999989,"y":2545930.870000001}},{"attributes":{"ID":20870,"DIS_CODE":0,"TOWNNAME":"北區","LI":"延平里","LIN":"14鄰","STREET":"長榮路","SECT":"五段","MAREA":" ","LANE":"４０９巷","ALLEY":"２弄","HOUSE_NO":"２２號","E_COORD97":169262.51000000001,"N_COORD97":2545944.3999999999,"ADDRESS":"長榮路五段４０９巷２弄２２號","OBJECTID":20870},"geometry":{"x":169262.51000000071,"y":2545944.4000000041}},{"attributes":{"ID":20871,"DIS_CODE":0,"TOWNNAME":"鹽水區","LI":"歡雅里","LIN":"24鄰","STREET":" ","SECT":" ","MAREA":"頂寮","LANE":" ","ALLEY":" ","HOUSE_NO":"３號","E_COORD97":172177.20000000001,"N_COORD97":2575551.54,"ADDRESS":"頂寮３號","OBJECTID":20871},"geometry":{"x":172177.20000000205,"y":2575551.540000001}},{"attributes":{"ID":20872,"DIS_CODE":0,"TOWNNAME":"鹽水區","LI":"歡雅里","LIN":"24鄰","STREET":" ","SECT":" ","MAREA":"頂寮","LANE":" ","ALLEY":" ","HOUSE_NO":"４號","E_COORD97":172185.51000000001,"N_COORD97":2575537.3999999999,"ADDRESS":"頂寮４號","OBJECTID":20872},"geometry":{"x":172185.51000000071,"y":2575537.4000000004}},{"attributes":{"ID":20873,"DIS_CODE":0,"TOWNNAME":"鹽水區","LI":"歡雅里","LIN":"24鄰","STREET":" ","SECT":" ","MAREA":"頂寮","LANE":" ","ALLEY":" ","HOUSE_NO":"１號","E_COORD97":172161.32999999999,"N_COORD97":2575533.7999999998,"ADDRESS":"頂寮１號","OBJECTID":20873},"geometry":{"x":172161.33000000101,"y":2575533.8000000026}},{"attributes":{"ID":20874,"DIS_CODE":0,"TOWNNAME":"佳里區","LI":"興化里","LIN":"17鄰","STREET":" ","SECT":" ","MAREA":"佳里興","LANE":" ","ALLEY":" ","HOUSE_NO":"４８８號","E_COORD97":166946.89000000001,"N_COORD97":2565413.2400000002,"ADDRESS":"佳里興４８８號","OBJECTID":20874},"geometry":{"x":166946.88999999966,"y":2565413.2400000021}},{"attributes":{"ID":20875,"DIS_CODE":0,"TOWNNAME":"北區","LI":"延平里","LIN":"14鄰","STREET":"長榮路","SECT":"五段","MAREA":" ","LANE":"４０９巷","ALLEY":"２弄","HOUSE_NO":"２３號","E_COORD97":169251.51000000001,"N_COORD97":2545933.2599999998,"ADDRESS":"長榮路五段４０９巷２弄２３號","OBJECTID":20875},"geometry":{"x":169251.50999999978,"y":2545933.2599999998}},{"attributes":{"ID":20876,"DIS_CODE":0,"TOWNNAME":"南區","LI":"文南里","LIN":"24鄰","STREET":"文南路","SECT":" ","MAREA":" ","LANE":" ","ALLEY":" ","HOUSE_NO":"８３號","E_COORD97":166926.37,"N_COORD97":2542747.3799999999,"ADDRESS":"文南路８３號","OBJECTID":20876},"geometry":{"x":166926.37000000104,"y":2542747.3800000008}},{"attributes":{"ID":20877,"DIS_CODE":0,"TOWNNAME":"南區","LI":"文南里","LIN":"24鄰","STREET":"文南路","SECT":" ","MAREA":" ","LANE":" ","ALLEY":" ","HOUSE_NO":"８５號","E_COORD97":166926.56,"N_COORD97":2542752.6899999999,"ADDRESS":"文南路８５號","OBJECTID":20877},"geometry":{"x":166926.56000000052,"y":2542752.6900000013}},{"attributes":{"ID":20878,"DIS_CODE":0,"TOWNNAME":"南區","LI":"文南里","LIN":"24鄰","STREET":"文南路","SECT":" ","MAREA":" ","LANE":" ","ALLEY":" ","HOUSE_NO":"８７號","E_COORD97":166926.56,"N_COORD97":2542759.1499999999,"ADDRESS":"文南路８７號","OBJECTID":20878},"geometry":{"x":166926.56000000052,"y":2542759.1500000041}},{"attributes":{"ID":20879,"DIS_CODE":0,"TOWNNAME":"佳里區","LI":"興化里","LIN":"17鄰","STREET":" ","SECT":" ","MAREA":"佳里興","LANE":" ","ALLEY":" ","HOUSE_NO":"４９２號之１０","E_COORD97":166887.78,"N_COORD97":2565488.5,"ADDRESS":"佳里興４９２號之１０","OBJECTID":20879},"geometry":{"x":166887.78000000212,"y":2565488.4999999981}},{"attributes":{"ID":20880,"DIS_CODE":0,"TOWNNAME":"佳里區","LI":"興化里","LIN":"17鄰","STREET":" ","SECT":" ","MAREA":"佳里興","LANE":" ","ALLEY":" ","HOUSE_NO":"４９２號之１１","E_COORD97":166889.01000000001,"N_COORD97":2565492.7799999998,"ADDRESS":"佳里興４９２號之１１","OBJECTID":20880},"geometry":{"x":166889.01000000164,"y":2565492.7800000031}},{"attributes":{"ID":20881,"DIS_CODE":0,"TOWNNAME":"佳里區","LI":"興化里","LIN":"17鄰","STREET":" ","SECT":" ","MAREA":"佳里興","LANE":" ","ALLEY":" ","HOUSE_NO":"４９２號之１２","E_COORD97":166957.98000000001,"N_COORD97":2565469.8199999998,"ADDRESS":"佳里興４９２號之１２","OBJECTID":20881},"geometry":{"x":166957.98000000138,"y":2565469.820000004}},{"attributes":{"ID":20882,"DIS_CODE":0,"TOWNNAME":"歸仁區","LI":"許厝里","LIN":"24鄰","STREET":"大仁街","SECT":" ","MAREA":" ","LANE":" ","ALLEY":" ","HOUSE_NO":"１４２號","E_COORD97":178213.67000000001,"N_COORD97":2541034.1099999999,"ADDRESS":"大仁街１４２號","OBJECTID":20882},"geometry":{"x":178213.67000000179,"y":2541034.1100000013}},{"attributes":{"ID":20883,"DIS_CODE":0,"TOWNNAME":"佳里區","LI":"興化里","LIN":"17鄰","STREET":" ","SECT":" ","MAREA":"佳里興","LANE":" ","ALLEY":" ","HOUSE_NO":"４９２號之１３","E_COORD97":166956.48999999999,"N_COORD97":2565461.7999999998,"ADDRESS":"佳里興４９２號之１３","OBJECTID":20883},"geometry":{"x":166956.49000000115,"y":2565461.8000000026}},{"attributes":{"ID":20884,"DIS_CODE":0,"TOWNNAME":"佳里區","LI":"興化里","LIN":"17鄰","STREET":" ","SECT":" ","MAREA":"佳里興","LANE":" ","ALLEY":" ","HOUSE_NO":"４９２號之１４","E_COORD97":166955.39999999999,"N_COORD97":2565457.54,"ADDRESS":"佳里興４９２號之１４","OBJECTID":20884},"geometry":{"x":166955.4000000013,"y":2565457.540000001}},{"attributes":{"ID":20885,"DIS_CODE":0,"TOWNNAME":"佳里區","LI":"興化里","LIN":"17鄰","STREET":" ","SECT":" ","MAREA":"佳里興","LANE":" ","ALLEY":" ","HOUSE_NO":"４９２號之１５","E_COORD97":166954,"N_COORD97":2565453.5299999998,"ADDRESS":"佳里興４９２號之１５","OBJECTID":20885},"geometry":{"x":166954.00000000093,"y":2565453.5299999993}},{"attributes":{"ID":20886,"DIS_CODE":0,"TOWNNAME":"佳里區","LI":"興化里","LIN":"17鄰","STREET":" ","SECT":" ","MAREA":"佳里興","LANE":" ","ALLEY":" ","HOUSE_NO":"４９２號之１６","E_COORD97":166953.09,"N_COORD97":2565449.6099999999,"ADDRESS":"佳里興４９２號之１６","OBJECTID":20886},"geometry":{"x":166953.09000000171,"y":2565449.6099999994}},{"attributes":{"ID":20887,"DIS_CODE":0,"TOWNNAME":"佳里區","LI":"興化里","LIN":"17鄰","STREET":" ","SECT":" ","MAREA":"佳里興","LANE":" ","ALLEY":" ","HOUSE_NO":"４９２號之１７","E_COORD97":166951.75,"N_COORD97":2565445.3500000001,"ADDRESS":"佳里興４９２號之１７","OBJECTID":20887},"geometry":{"x":166951.75,"y":2565445.3500000034}},{"attributes":{"ID":20888,"DIS_CODE":0,"TOWNNAME":"佳里區","LI":"興化里","LIN":"17鄰","STREET":" ","SECT":" ","MAREA":"佳里興","LANE":" ","ALLEY":" ","HOUSE_NO":"４９２號之１８","E_COORD97":166948.53,"N_COORD97":2565431.9199999999,"ADDRESS":"佳里興４９２號之１８","OBJECTID":20888},"geometry":{"x":166948.53000000026,"y":2565431.9200000018}},{"attributes":{"ID":20889,"DIS_CODE":0,"TOWNNAME":"佳里區","LI":"興化里","LIN":"17鄰","STREET":" ","SECT":" ","MAREA":"佳里興","LANE":" ","ALLEY":" ","HOUSE_NO":"４９２號之１９","E_COORD97":166952.79999999999,"N_COORD97":2565430.8300000001,"ADDRESS":"佳里興４９２號之１９","OBJECTID":20889},"geometry":{"x":166952.79999999981,"y":2565430.8300000001}},{"attributes":{"ID":20890,"DIS_CODE":0,"TOWNNAME":"佳里區","LI":"興化里","LIN":"17鄰","STREET":" ","SECT":" ","MAREA":"佳里興","LANE":" ","ALLEY":" ","HOUSE_NO":"４９２號之１","E_COORD97":166883.51999999999,"N_COORD97":2565424.1299999999,"ADDRESS":"佳里興４９２號之１","OBJECTID":20890},"geometry":{"x":166883.51999999955,"y":2565424.129999999}},{"attributes":{"ID":20891,"DIS_CODE":0,"TOWNNAME":"佳里區","LI":"興化里","LIN":"17鄰","STREET":" ","SECT":" ","MAREA":"佳里興","LANE":" ","ALLEY":" ","HOUSE_NO":"４９２號之２０","E_COORD97":166957.22,"N_COORD97":2565429.7400000002,"ADDRESS":"佳里興４９２號之２０","OBJECTID":20891},"geometry":{"x":166957.2200000016,"y":2565429.7400000039}},{"attributes":{"ID":20892,"DIS_CODE":0,"TOWNNAME":"佳里區","LI":"興化里","LIN":"17鄰","STREET":" ","SECT":" ","MAREA":"佳里興","LANE":" ","ALLEY":" ","HOUSE_NO":"４９２號之２１","E_COORD97":166966.78,"N_COORD97":2565426.7400000002,"ADDRESS":"佳里興４９２號之２１","OBJECTID":20892},"geometry":{"x":166966.78000000026,"y":2565426.7400000021}},{"attributes":{"ID":20893,"DIS_CODE":0,"TOWNNAME":"佳里區","LI":"興化里","LIN":"17鄰","STREET":" ","SECT":" ","MAREA":"佳里興","LANE":" ","ALLEY":" ","HOUSE_NO":"４９２號之２２","E_COORD97":166971.07000000001,"N_COORD97":2565425.7999999998,"ADDRESS":"佳里興４９２號之２２","OBJECTID":20893},"geometry":{"x":166971.07000000123,"y":2565425.8000000007}},{"attributes":{"ID":20894,"DIS_CODE":0,"TOWNNAME":"佳里區","LI":"興化里","LIN":"17鄰","STREET":" ","SECT":" ","MAREA":"佳里興","LANE":" ","ALLEY":" ","HOUSE_NO":"４９２號之２３","E_COORD97":166975.63,"N_COORD97":2565424.6000000001,"ADDRESS":"佳里興４９２號之２３","OBJECTID":20894},"geometry":{"x":166975.63000000082,"y":2565424.6000000015}},{"attributes":{"ID":20895,"DIS_CODE":0,"TOWNNAME":"佳里區","LI":"興化里","LIN":"17鄰","STREET":" ","SECT":" ","MAREA":"佳里興","LANE":" ","ALLEY":" ","HOUSE_NO":"４９２號之２４","E_COORD97":166968.39000000001,"N_COORD97":2565441.5099999998,"ADDRESS":"佳里興４９２號之２４","OBJECTID":20895},"geometry":{"x":166968.3900000006,"y":2565441.5100000016}},{"attributes":{"ID":20896,"DIS_CODE":0,"TOWNNAME":"南區","LI":"文南里","LIN":"24鄰","STREET":"文南路","SECT":" ","MAREA":" ","LANE":" ","ALLEY":" ","HOUSE_NO":"８９號","E_COORD97":166926.37,"N_COORD97":2542766.7599999998,"ADDRESS":"文南路８９號","OBJECTID":20896},"geometry":{"x":166926.37000000104,"y":2542766.7599999998}},{"attributes":{"ID":20897,"DIS_CODE":0,"TOWNNAME":"南區","LI":"文南里","LIN":"24鄰","STREET":"文南路","SECT":" ","MAREA":" ","LANE":" ","ALLEY":" ","HOUSE_NO":"９１號","E_COORD97":166928.28,"N_COORD97":2542790.3199999998,"ADDRESS":"文南路９１號","OBJECTID":20897},"geometry":{"x":166928.28000000026,"y":2542790.3200000003}},{"attributes":{"ID":20898,"DIS_CODE":0,"TOWNNAME":"北區","LI":"延平里","LIN":"14鄰","STREET":"長榮路","SECT":"五段","MAREA":" ","LANE":"４０９巷","ALLEY":"２弄","HOUSE_NO":"２號","E_COORD97":169300.45999999999,"N_COORD97":2545921.71,"ADDRESS":"長榮路五段４０９巷２弄２號","OBJECTID":20898},"geometry":{"x":169300.46000000089,"y":2545921.7100000009}},{"attributes":{"ID":20899,"DIS_CODE":0,"TOWNNAME":"鹽水區","LI":"歡雅里","LIN":"24鄰","STREET":" ","SECT":" ","MAREA":"頂寮","LANE":" ","ALLEY":" ","HOUSE_NO":"５號之１０","E_COORD97":172090.34,"N_COORD97":2575491.1800000002,"ADDRESS":"頂寮５號之１０","OBJECTID":20899},"geometry":{"x":172090.33999999985,"y":2575491.1799999997}},{"attributes":{"ID":20900,"DIS_CODE":0,"TOWNNAME":"鹽水區","LI":"歡雅里","LIN":"24鄰","STREET":" ","SECT":" ","MAREA":"頂寮","LANE":" ","ALLEY":" ","HOUSE_NO":"５號之１２","E_COORD97":172172.37,"N_COORD97":2575480.8399999999,"ADDRESS":"頂寮５號之１２","OBJECTID":20900},"geometry":{"x":172172.37000000011,"y":2575480.839999998}},{"attributes":{"ID":20901,"DIS_CODE":0,"TOWNNAME":"鹽水區","LI":"歡雅里","LIN":"24鄰","STREET":" ","SECT":" ","MAREA":"頂寮","LANE":" ","ALLEY":" ","HOUSE_NO":"５號之６","E_COORD97":172172.75,"N_COORD97":2575417.29,"ADDRESS":"頂寮５號之６","OBJECTID":20901},"geometry":{"x":172172.75,"y":2575417.290000001}},{"attributes":{"ID":20902,"DIS_CODE":0,"TOWNNAME":"北區","LI":"延平里","LIN":"14鄰","STREET":"長榮路","SECT":"五段","MAREA":" ","LANE":"４０９巷","ALLEY":"２弄","HOUSE_NO":"３號","E_COORD97":169290.73000000001,"N_COORD97":2545912.9700000002,"ADDRESS":"長榮路五段４０９巷２弄３號","OBJECTID":20902},"geometry":{"x":169290.73000000138,"y":2545912.9700000007}},{"attributes":{"ID":20903,"DIS_CODE":0,"TOWNNAME":"鹽水區","LI":"歡雅里","LIN":"24鄰","STREET":" ","SECT":" ","MAREA":"頂寮","LANE":" ","ALLEY":" ","HOUSE_NO":"７號之６","E_COORD97":172318.60000000001,"N_COORD97":2575644.0800000001,"ADDRESS":"頂寮７號之６","OBJECTID":20903},"geometry":{"x":172318.60000000056,"y":2575644.0800000019}},{"attributes":{"ID":20904,"DIS_CODE":0,"TOWNNAME":"鹽水區","LI":"歡雅里","LIN":"24鄰","STREET":" ","SECT":" ","MAREA":"頂寮","LANE":" ","ALLEY":" ","HOUSE_NO":"７之７號","E_COORD97":172343.19,"N_COORD97":2575693.77,"ADDRESS":"頂寮７之７號","OBJECTID":20904},"geometry":{"x":172343.19000000041,"y":2575693.7699999996}},{"attributes":{"ID":20905,"DIS_CODE":0,"TOWNNAME":"鹽水區","LI":"歡雅里","LIN":"24鄰","STREET":" ","SECT":" ","MAREA":"頂寮","LANE":" ","ALLEY":" ","HOUSE_NO":"７號","E_COORD97":172191.72,"N_COORD97":2575587.5600000001,"ADDRESS":"頂寮７號","OBJECTID":20905},"geometry":{"x":172191.71999999881,"y":2575587.5600000005}},{"attributes":{"ID":20906,"DIS_CODE":0,"TOWNNAME":"佳里區","LI":"興化里","LIN":"17鄰","STREET":" ","SECT":" ","MAREA":"佳里興","LANE":" ","ALLEY":" ","HOUSE_NO":"４９２號之２５","E_COORD97":166969.26000000001,"N_COORD97":2565445.52,"ADDRESS":"佳里興４９２號之２５","OBJECTID":20906},"geometry":{"x":166969.26000000071,"y":2565445.5200000014}},{"attributes":{"ID":20907,"DIS_CODE":0,"TOWNNAME":"佳里區","LI":"興化里","LIN":"17鄰","STREET":" ","SECT":" ","MAREA":"佳里興","LANE":" ","ALLEY":" ","HOUSE_NO":"４９２號之２６","E_COORD97":166970.67000000001,"N_COORD97":2565450.04,"ADDRESS":"佳里興４９２號之２６","OBJECTID":20907},"geometry":{"x":166970.66999999993,"y":2565450.0399999972}},{"attributes":{"ID":20908,"DIS_CODE":0,"TOWNNAME":"佳里區","LI":"興化里","LIN":"17鄰","STREET":" ","SECT":" ","MAREA":"佳里興","LANE":" ","ALLEY":" ","HOUSE_NO":"４９２號之２８","E_COORD97":166972.75,"N_COORD97":2565458.1099999999,"ADDRESS":"佳里興４９２號之２８","OBJECTID":20908},"geometry":{"x":166972.75000000093,"y":2565458.1100000013}},{"attributes":{"ID":20909,"DIS_CODE":0,"TOWNNAME":"佳里區","LI":"興化里","LIN":"17鄰","STREET":" ","SECT":" ","MAREA":"佳里興","LANE":" ","ALLEY":" ","HOUSE_NO":"４９２號之２９","E_COORD97":166973.87,"N_COORD97":2565462.5299999998,"ADDRESS":"佳里興４９２號之２９","OBJECTID":20909},"geometry":{"x":166973.87000000104,"y":2565462.5299999993}},{"attributes":{"ID":20910,"DIS_CODE":0,"TOWNNAME":"佳里區","LI":"興化里","LIN":"17鄰","STREET":" ","SECT":" ","MAREA":"佳里興","LANE":" ","ALLEY":" ","HOUSE_NO":"４９２號之３０","E_COORD97":166974.98999999999,"N_COORD97":2565466.4199999999,"ADDRESS":"佳里興４９２號之３０","OBJECTID":20910},"geometry":{"x":166974.99000000115,"y":2565466.4200000018}},{"attributes":{"ID":20911,"DIS_CODE":0,"TOWNNAME":"佳里區","LI":"興化里","LIN":"17鄰","STREET":" ","SECT":" ","MAREA":"佳里興","LANE":" ","ALLEY":" ","HOUSE_NO":"４９２號之３１","E_COORD97":166976.09,"N_COORD97":2565470.5499999998,"ADDRESS":"佳里興４９２號之３１","OBJECTID":20911},"geometry":{"x":166976.08999999985,"y":2565470.5500000007}},{"attributes":{"ID":20912,"DIS_CODE":0,"TOWNNAME":"佳里區","LI":"興化里","LIN":"17鄰","STREET":" ","SECT":" ","MAREA":"佳里興","LANE":" ","ALLEY":" ","HOUSE_NO":"４９２號之３６","E_COORD97":166890.79000000001,"N_COORD97":2565444.0099999998,"ADDRESS":"佳里興４９２號之３６","OBJECTID":20912},"geometry":{"x":166890.7900000019,"y":2565444.0099999998}},{"attributes":{"ID":20913,"DIS_CODE":0,"TOWNNAME":"佳里區","LI":"興化里","LIN":"17鄰","STREET":" ","SECT":" ","MAREA":"佳里興","LANE":" ","ALLEY":" ","HOUSE_NO":"４９２號之３７","E_COORD97":166902.39000000001,"N_COORD97":2565462.3599999999,"ADDRESS":"佳里興４９２號之３７","OBJECTID":20913},"geometry":{"x":166902.3900000006,"y":2565462.3600000013}},{"attributes":{"ID":20914,"DIS_CODE":0,"TOWNNAME":"佳里區","LI":"興化里","LIN":"17鄰","STREET":" ","SECT":" ","MAREA":"佳里興","LANE":" ","ALLEY":" ","HOUSE_NO":"４９２號之３","E_COORD97":166872.39999999999,"N_COORD97":2565459.2200000002,"ADDRESS":"佳里興４９２號之３","OBJECTID":20914},"geometry":{"x":166872.4000000013,"y":2565459.2200000007}},{"attributes":{"ID":20915,"DIS_CODE":0,"TOWNNAME":"佳里區","LI":"興化里","LIN":"17鄰","STREET":" ","SECT":" ","MAREA":"佳里興","LANE":" ","ALLEY":" ","HOUSE_NO":"４９２號之４２","E_COORD97":166879.16,"N_COORD97":2565468.25,"ADDRESS":"佳里興４９２號之４２","OBJECTID":20915},"geometry":{"x":166879.16000000015,"y":2565468.2500000019}},{"attributes":{"ID":20916,"DIS_CODE":0,"TOWNNAME":"佳里區","LI":"興化里","LIN":"17鄰","STREET":" ","SECT":" ","MAREA":"佳里興","LANE":" ","ALLEY":" ","HOUSE_NO":"４９２號之４","E_COORD97":166867.79000000001,"N_COORD97":2565453.21,"ADDRESS":"佳里興４９２號之４","OBJECTID":20916},"geometry":{"x":166867.79000000097,"y":2565453.2100000009}},{"attributes":{"ID":20917,"DIS_CODE":0,"TOWNNAME":"佳里區","LI":"興化里","LIN":"17鄰","STREET":" ","SECT":" ","MAREA":"佳里興","LANE":" ","ALLEY":" ","HOUSE_NO":"４９２號之７","E_COORD97":166882.98999999999,"N_COORD97":2565475.6099999999,"ADDRESS":"佳里興４９２號之７","OBJECTID":20917},"geometry":{"x":166882.99000000209,"y":2565475.6099999994}},{"attributes":{"ID":20918,"DIS_CODE":0,"TOWNNAME":"佳里區","LI":"興化里","LIN":"17鄰","STREET":" ","SECT":" ","MAREA":"佳里興","LANE":" ","ALLEY":" ","HOUSE_NO":"４９２號之８","E_COORD97":166884.31,"N_COORD97":2565480.27,"ADDRESS":"佳里興４９２號之８","OBJECTID":20918},"geometry":{"x":166884.30999999959,"y":2565480.2700000014}},{"attributes":{"ID":20919,"DIS_CODE":0,"TOWNNAME":"佳里區","LI":"興化里","LIN":"17鄰","STREET":" ","SECT":" ","MAREA":"佳里興","LANE":" ","ALLEY":" ","HOUSE_NO":"４９２號之９","E_COORD97":166886.01000000001,"N_COORD97":2565483.7999999998,"ADDRESS":"佳里興４９２號之９","OBJECTID":20919},"geometry":{"x":166886.01000000071,"y":2565483.8000000007}},{"attributes":{"ID":20920,"DIS_CODE":0,"TOWNNAME":"鹽水區","LI":"橋南里","LIN":"24鄰","STREET":"月津路","SECT":" ","MAREA":" ","LANE":"５５巷","ALLEY":" ","HOUSE_NO":"３３號","E_COORD97":175007.28,"N_COORD97":2579254.1000000001,"ADDRESS":"月津路５５巷３３號","OBJECTID":20920},"geometry":{"x":175007.28000000026,"y":2579254.1000000015}},{"attributes":{"ID":20921,"DIS_CODE":0,"TOWNNAME":"佳里區","LI":"興化里","LIN":"17鄰","STREET":" ","SECT":" ","MAREA":"佳里興","LANE":" ","ALLEY":" ","HOUSE_NO":"４９２號","E_COORD97":166917.14999999999,"N_COORD97":2565472.3599999999,"ADDRESS":"佳里興４９２號","OBJECTID":20921},"geometry":{"x":166917.15000000037,"y":2565472.3600000031}},{"attributes":{"ID":20922,"DIS_CODE":0,"TOWNNAME":"將軍區","LI":"玉山里","LIN":"17鄰","STREET":" ","SECT":" ","MAREA":"玉山","LANE":" ","ALLEY":" ","HOUSE_NO":"１４０號","E_COORD97":159824.53,"N_COORD97":2568271.0699999998,"ADDRESS":"玉山１４０號","OBJECTID":20922},"geometry":{"x":159824.53000000119,"y":2568271.0700000003}},{"attributes":{"ID":20923,"DIS_CODE":0,"TOWNNAME":"將軍區","LI":"玉山里","LIN":"17鄰","STREET":" ","SECT":" ","MAREA":"玉山","LANE":" ","ALLEY":" ","HOUSE_NO":"１４１之１號","E_COORD97":159752.12,"N_COORD97":2568247.3999999999,"ADDRESS":"玉山１４１之１號","OBJECTID":20923},"geometry":{"x":159752.12000000104,"y":2568247.4000000022}},{"attributes":{"ID":20924,"DIS_CODE":0,"TOWNNAME":"安平區","LI":"文平里","LIN":"24鄰","STREET":"建平二街","SECT":" ","MAREA":" ","LANE":" ","ALLEY":" ","HOUSE_NO":"３８號","E_COORD97":166240.82999999999,"N_COORD97":2542820.1699999999,"ADDRESS":"建平二街３８號","OBJECTID":20924},"geometry":{"x":166240.83000000007,"y":2542820.1700000018}},{"attributes":{"ID":20925,"DIS_CODE":0,"TOWNNAME":"安平區","LI":"文平里","LIN":"24鄰","STREET":"永華二街","SECT":" ","MAREA":" ","LANE":" ","ALLEY":" ","HOUSE_NO":"１５號","E_COORD97":166325.48000000001,"N_COORD97":2542815.8700000001,"ADDRESS":"永華二街１５號","OBJECTID":20925},"geometry":{"x":166325.48000000231,"y":2542815.8700000048}},{"attributes":{"ID":20926,"DIS_CODE":0,"TOWNNAME":"將軍區","LI":"玉山里","LIN":"17鄰","STREET":" ","SECT":" ","MAREA":"玉山","LANE":" ","ALLEY":" ","HOUSE_NO":"１４１號","E_COORD97":159799.09,"N_COORD97":2568275.7000000002,"ADDRESS":"玉山１４１號","OBJECTID":20926},"geometry":{"x":159799.08999999985,"y":2568275.6999999993}},{"attributes":{"ID":20927,"DIS_CODE":0,"TOWNNAME":"將軍區","LI":"玉山里","LIN":"17鄰","STREET":" ","SECT":" ","MAREA":"玉山","LANE":" ","ALLEY":" ","HOUSE_NO":"１４３號","E_COORD97":159781.26000000001,"N_COORD97":2568207.6099999999,"ADDRESS":"玉山１４３號","OBJECTID":20927},"geometry":{"x":159781.26000000164,"y":2568207.6100000013}},{"attributes":{"ID":20928,"DIS_CODE":0,"TOWNNAME":"將軍區","LI":"玉山里","LIN":"17鄰","STREET":" ","SECT":" ","MAREA":"玉山","LANE":" ","ALLEY":" ","HOUSE_NO":"１４５之２號","E_COORD97":159371.89999999999,"N_COORD97":2567923.9199999999,"ADDRESS":"玉山１４５之２號","OBJECTID":20928},"geometry":{"x":159371.90000000037,"y":2567923.9200000018}},{"attributes":{"ID":20929,"DIS_CODE":0,"TOWNNAME":"將軍區","LI":"玉山里","LIN":"17鄰","STREET":" ","SECT":" ","MAREA":"玉山","LANE":" ","ALLEY":" ","HOUSE_NO":"１４６號","E_COORD97":159481.95999999999,"N_COORD97":2567987.48,"ADDRESS":"玉山１４６號","OBJECTID":20929},"geometry":{"x":159481.96000000089,"y":2567987.4800000004}},{"attributes":{"ID":20930,"DIS_CODE":0,"TOWNNAME":"將軍區","LI":"玉山里","LIN":"17鄰","STREET":" ","SECT":" ","MAREA":"玉山","LANE":" ","ALLEY":" ","HOUSE_NO":"１４８號","E_COORD97":159818.48000000001,"N_COORD97":2568017.5299999998,"ADDRESS":"玉山１４８號","OBJECTID":20930},"geometry":{"x":159818.48000000138,"y":2568017.5300000012}},{"attributes":{"ID":20931,"DIS_CODE":0,"TOWNNAME":"將軍區","LI":"玉山里","LIN":"17鄰","STREET":" ","SECT":" ","MAREA":"玉山","LANE":" ","ALLEY":" ","HOUSE_NO":"１５０號","E_COORD97":159711.84,"N_COORD97":2567964.7000000002,"ADDRESS":"玉山１５０號","OBJECTID":20931},"geometry":{"x":159711.84000000078,"y":2567964.6999999974}},{"attributes":{"ID":20932,"DIS_CODE":0,"TOWNNAME":"將軍區","LI":"苓和里","LIN":"17鄰","STREET":" ","SECT":" ","MAREA":"忠寮","LANE":" ","ALLEY":" ","HOUSE_NO":"５０號","E_COORD97":164273.78,"N_COORD97":2569098.2000000002,"ADDRESS":"忠寮５０號","OBJECTID":20932},"geometry":{"x":164273.78000000212,"y":2569098.2000000011}},{"attributes":{"ID":20933,"DIS_CODE":0,"TOWNNAME":"將軍區","LI":"苓和里","LIN":"17鄰","STREET":" ","SECT":" ","MAREA":"忠寮","LANE":" ","ALLEY":" ","HOUSE_NO":"５２號","E_COORD97":164278.22,"N_COORD97":2569120.5099999998,"ADDRESS":"忠寮５２號","OBJECTID":20933},"geometry":{"x":164278.21999999974,"y":2569120.5100000016}},{"attributes":{"ID":20934,"DIS_CODE":0,"TOWNNAME":"將軍區","LI":"忠興里","LIN":"17鄰","STREET":" ","SECT":" ","MAREA":"忠興","LANE":" ","ALLEY":" ","HOUSE_NO":"１７１號","E_COORD97":163883.48000000001,"N_COORD97":2566910.3100000001,"ADDRESS":"忠興１７１號","OBJECTID":20934},"geometry":{"x":163883.48000000138,"y":2566910.3100000005}},{"attributes":{"ID":20935,"DIS_CODE":0,"TOWNNAME":"北區","LI":"延平里","LIN":"14鄰","STREET":"長榮路","SECT":"五段","MAREA":" ","LANE":"４０９巷","ALLEY":"２弄","HOUSE_NO":"４號","E_COORD97":169297.07999999999,"N_COORD97":2545923.96,"ADDRESS":"長榮路五段４０９巷２弄４號","OBJECTID":20935},"geometry":{"x":169297.08000000007,"y":2545923.9600000046}},{"attributes":{"ID":20936,"DIS_CODE":0,"TOWNNAME":"東山區","LI":"青山里","LIN":"8鄰","STREET":" ","SECT":" ","MAREA":"青山","LANE":" ","ALLEY":" ","HOUSE_NO":"７４號","E_COORD97":198192.20000000001,"N_COORD97":2574837.9199999999,"ADDRESS":"青山７４號","OBJECTID":20936},"geometry":{"x":198192.20000000112,"y":2574837.9200000018}},{"attributes":{"ID":20937,"DIS_CODE":0,"TOWNNAME":"北區","LI":"延平里","LIN":"14鄰","STREET":"長榮路","SECT":"五段","MAREA":" ","LANE":"４０９巷","ALLEY":"２弄","HOUSE_NO":"５號","E_COORD97":169286.07000000001,"N_COORD97":2545914.9399999999,"ADDRESS":"長榮路五段４０９巷２弄５號","OBJECTID":20937},"geometry":{"x":169286.06999999937,"y":2545914.9399999995}},{"attributes":{"ID":20938,"DIS_CODE":0,"TOWNNAME":"北區","LI":"延平里","LIN":"14鄰","STREET":"長榮路","SECT":"五段","MAREA":" ","LANE":"４０９巷","ALLEY":"２弄","HOUSE_NO":"６號","E_COORD97":169292.42000000001,"N_COORD97":2545925.9300000002,"ADDRESS":"長榮路五段４０９巷２弄６號","OBJECTID":20938},"geometry":{"x":169292.42000000086,"y":2545925.9299999997}},{"attributes":{"ID":20939,"DIS_CODE":0,"TOWNNAME":"北區","LI":"延平里","LIN":"14鄰","STREET":"長榮路","SECT":"五段","MAREA":" ","LANE":"４０９巷","ALLEY":"２弄","HOUSE_NO":"７號","E_COORD97":169282.26000000001,"N_COORD97":2545916.6299999999,"ADDRESS":"長榮路五段４０９巷２弄７號","OBJECTID":20939},"geometry":{"x":169282.25999999978,"y":2545916.629999999}},{"attributes":{"ID":20940,"DIS_CODE":0,"TOWNNAME":"將軍區","LI":"嘉昌里","LIN":"17鄰","STREET":" ","SECT":" ","MAREA":"昌平","LANE":" ","ALLEY":" ","HOUSE_NO":"４３號","E_COORD97":163572.79999999999,"N_COORD97":2567299.8100000001,"ADDRESS":"昌平４３號","OBJECTID":20940},"geometry":{"x":163572.79999999981,"y":2567299.8100000005}},{"attributes":{"ID":20941,"DIS_CODE":0,"TOWNNAME":"北區","LI":"延平里","LIN":"14鄰","STREET":"長榮路","SECT":"五段","MAREA":" ","LANE":"４０９巷","ALLEY":"２弄","HOUSE_NO":"８號","E_COORD97":169288.75,"N_COORD97":2545928.0499999998,"ADDRESS":"長榮路五段４０９巷２弄８號","OBJECTID":20941},"geometry":{"x":169288.75000000093,"y":2545928.0500000026}},{"attributes":{"ID":20942,"DIS_CODE":0,"TOWNNAME":"將軍區","LI":"嘉昌里","LIN":"17鄰","STREET":" ","SECT":" ","MAREA":"昌平","LANE":" ","ALLEY":" ","HOUSE_NO":"４４號","E_COORD97":163578.57000000001,"N_COORD97":2567316.3199999998,"ADDRESS":"昌平４４號","OBJECTID":20942},"geometry":{"x":163578.57000000216,"y":2567316.3200000003}},{"attributes":{"ID":20943,"DIS_CODE":0,"TOWNNAME":"北區","LI":"延平里","LIN":"14鄰","STREET":"長榮路","SECT":"五段","MAREA":" ","LANE":"４０９巷","ALLEY":"２弄","HOUSE_NO":"９號","E_COORD97":169279.29999999999,"N_COORD97":2545918.8900000001,"ADDRESS":"長榮路五段４０９巷２弄９號","OBJECTID":20943},"geometry":{"x":169279.30000000075,"y":2545918.8900000025}},{"attributes":{"ID":20944,"DIS_CODE":0,"TOWNNAME":"將軍區","LI":"嘉昌里","LIN":"17鄰","STREET":" ","SECT":" ","MAREA":"昌平","LANE":" ","ALLEY":" ","HOUSE_NO":"４７號","E_COORD97":163543.12,"N_COORD97":2567369.2999999998,"ADDRESS":"昌平４７號","OBJECTID":20944},"geometry":{"x":163543.12000000104,"y":2567369.3000000045}},{"attributes":{"ID":20945,"DIS_CODE":0,"TOWNNAME":"將軍區","LI":"嘉昌里","LIN":"17鄰","STREET":" ","SECT":" ","MAREA":"昌平","LANE":" ","ALLEY":" ","HOUSE_NO":"４９號","E_COORD97":163558.89000000001,"N_COORD97":2567383.4500000002,"ADDRESS":"昌平４９號","OBJECTID":20945},"geometry":{"x":163558.8900000006,"y":2567383.450000003}},{"attributes":{"ID":20946,"DIS_CODE":0,"TOWNNAME":"安定區","LI":"港口里","LIN":"17鄰","STREET":" ","SECT":" ","MAREA":"港口","LANE":" ","ALLEY":" ","HOUSE_NO":"３６４號之５","E_COORD97":171476.17999999999,"N_COORD97":2554842.2999999998,"ADDRESS":"港口３６４號之５","OBJECTID":20946},"geometry":{"x":171476.1799999997,"y":2554842.3000000026}},{"attributes":{"ID":20947,"DIS_CODE":0,"TOWNNAME":"歸仁區","LI":"七甲里","LIN":"14鄰","STREET":"南丁路","SECT":" ","MAREA":" ","LANE":"５９１巷","ALLEY":"３７弄","HOUSE_NO":"１９號","E_COORD97":175953.19,"N_COORD97":2543073.25,"ADDRESS":"南丁路５９１巷３７弄１９號","OBJECTID":20947},"geometry":{"x":175953.19000000134,"y":2543073.2500000037}},{"attributes":{"ID":20948,"DIS_CODE":0,"TOWNNAME":"安定區","LI":"海寮里","LIN":"17鄰","STREET":" ","SECT":" ","MAREA":"海寮","LANE":" ","ALLEY":" ","HOUSE_NO":"１６７號之５","E_COORD97":169366.13,"N_COORD97":2555472.2999999998,"ADDRESS":"海寮１６７號之５","OBJECTID":20948},"geometry":{"x":169366.12999999989,"y":2555472.3000000045}},{"attributes":{"ID":20949,"DIS_CODE":0,"TOWNNAME":"歸仁區","LI":"大廟里","LIN":"14鄰","STREET":"大廟六街","SECT":" ","MAREA":" ","LANE":"１１０巷","ALLEY":"３弄","HOUSE_NO":"１號","E_COORD97":176225.32000000001,"N_COORD97":2544225.25,"ADDRESS":"大廟六街１１０巷３弄１號","OBJECTID":20949},"geometry":{"x":176225.32000000123,"y":2544225.25}},{"attributes":{"ID":20950,"DIS_CODE":0,"TOWNNAME":"歸仁區","LI":"南興里","LIN":"14鄰","STREET":"文化街","SECT":"三段","MAREA":" ","LANE":"５３０巷","ALLEY":"１４弄","HOUSE_NO":"１１號","E_COORD97":175824.94,"N_COORD97":2541284.3300000001,"ADDRESS":"文化街三段５３０巷１４弄１１號","OBJECTID":20950},"geometry":{"x":175824.94000000041,"y":2541284.3300000019}},{"attributes":{"ID":20951,"DIS_CODE":0,"TOWNNAME":"安定區","LI":"蘇厝里","LIN":"17鄰","STREET":" ","SECT":" ","MAREA":"蘇厝","LANE":" ","ALLEY":" ","HOUSE_NO":"４４７號","E_COORD97":173228.53019399999,"N_COORD97":2558738.07448,"ADDRESS":"蘇厝４４７號","OBJECTID":20951},"geometry":{"x":173228.53019400034,"y":2558738.074484}},{"attributes":{"ID":20952,"DIS_CODE":0,"TOWNNAME":"歸仁區","LI":"大廟里","LIN":"14鄰","STREET":"大廟六街","SECT":" ","MAREA":" ","LANE":"１１０巷","ALLEY":"３弄","HOUSE_NO":"１０號","E_COORD97":176244.97,"N_COORD97":2544224.25,"ADDRESS":"大廟六街１１０巷３弄１０號","OBJECTID":20952},"geometry":{"x":176244.9700000016,"y":2544224.2500000019}},{"attributes":{"ID":20953,"DIS_CODE":0,"TOWNNAME":"安定區","LI":"港尾里","LIN":"17鄰","STREET":" ","SECT":" ","MAREA":"港子尾","LANE":" ","ALLEY":" ","HOUSE_NO":"１０６號之３","E_COORD97":171331.67000000001,"N_COORD97":2556177.2999999998,"ADDRESS":"港子尾１０６號之３","OBJECTID":20953},"geometry":{"x":171331.67000000086,"y":2556177.2999999989}},{"attributes":{"ID":20954,"DIS_CODE":0,"TOWNNAME":"柳營區","LI":"果毅里","LIN":"17鄰","STREET":" ","SECT":" ","MAREA":"果毅後","LANE":" ","ALLEY":" ","HOUSE_NO":"２１７之３號","E_COORD97":185510.87,"N_COORD97":2572720.1000000001,"ADDRESS":"果毅後２１７之３號","OBJECTID":20954},"geometry":{"x":185510.87000000104,"y":2572720.1000000015}},{"attributes":{"ID":20955,"DIS_CODE":0,"TOWNNAME":"南區","LI":"大忠里","LIN":"24鄰","STREET":"中華南路","SECT":"一段","MAREA":" ","LANE":" ","ALLEY":" ","HOUSE_NO":"８９號","E_COORD97":169276.41,"N_COORD97":2541310.6699999999,"ADDRESS":"中華南路一段８９號","OBJECTID":20955},"geometry":{"x":169276.41000000015,"y":2541310.6700000037}},{"attributes":{"ID":20956,"DIS_CODE":0,"TOWNNAME":"南區","LI":"大忠里","LIN":"24鄰","STREET":"中華南路","SECT":"一段","MAREA":" ","LANE":" ","ALLEY":" ","HOUSE_NO":"９３號","E_COORD97":169265.45999999999,"N_COORD97":2541305.8999999999,"ADDRESS":"中華南路一段９３號","OBJECTID":20956},"geometry":{"x":169265.45999999996,"y":2541305.9000000004}},{"attributes":{"ID":20957,"DIS_CODE":0,"TOWNNAME":"南區","LI":"大忠里","LIN":"24鄰","STREET":"中華南路","SECT":"一段","MAREA":" ","LANE":" ","ALLEY":" ","HOUSE_NO":"９５號","E_COORD97":169262.5,"N_COORD97":2541300.21,"ADDRESS":"中華南路一段９５號","OBJECTID":20957},"geometry":{"x":169262.49999999907,"y":2541300.2100000009}},{"attributes":{"ID":20958,"DIS_CODE":0,"TOWNNAME":"南區","LI":"大忠里","LIN":"24鄰","STREET":"公英一街","SECT":" ","MAREA":" ","LANE":" ","ALLEY":" ","HOUSE_NO":"５６號","E_COORD97":169344.98000000001,"N_COORD97":2541260.25,"ADDRESS":"公英一街５６號","OBJECTID":20958},"geometry":{"x":169344.98000000138,"y":2541260.2500000019}},{"attributes":{"ID":20959,"DIS_CODE":0,"TOWNNAME":"南區","LI":"大忠里","LIN":"24鄰","STREET":"公英一街","SECT":" ","MAREA":" ","LANE":" ","ALLEY":" ","HOUSE_NO":"５８號","E_COORD97":169339.51000000001,"N_COORD97":2541259.73,"ADDRESS":"公英一街５８號","OBJECTID":20959},"geometry":{"x":169339.50999999978,"y":2541259.7299999986}},{"attributes":{"ID":20960,"DIS_CODE":0,"TOWNNAME":"南區","LI":"開南里","LIN":"24鄰","STREET":"新建路","SECT":" ","MAREA":" ","LANE":" ","ALLEY":" ","HOUSE_NO":"４７號","E_COORD97":166485.45000000001,"N_COORD97":2540860.4100000001,"ADDRESS":"新建路４７號","OBJECTID":20960},"geometry":{"x":166485.45000000112,"y":2540860.4100000001}},{"attributes":{"ID":20961,"DIS_CODE":0,"TOWNNAME":"柳營區","LI":"果毅里","LIN":"17鄰","STREET":" ","SECT":" ","MAREA":"果毅後","LANE":" ","ALLEY":" ","HOUSE_NO":"２１７號","E_COORD97":185489.69,"N_COORD97":2572684.4900000002,"ADDRESS":"果毅後２１７號","OBJECTID":20961},"geometry":{"x":185489.68999999948,"y":2572684.4900000021}},{"attributes":{"ID":20962,"DIS_CODE":0,"TOWNNAME":"柳營區","LI":"果毅里","LIN":"17鄰","STREET":" ","SECT":" ","MAREA":"果毅後","LANE":" ","ALLEY":" ","HOUSE_NO":"２１８號之１","E_COORD97":185508.20000000001,"N_COORD97":2572690.3599999999,"ADDRESS":"果毅後２１８號之１","OBJECTID":20962},"geometry":{"x":185508.20000000205,"y":2572690.3600000031}},{"attributes":{"ID":20963,"DIS_CODE":0,"TOWNNAME":"柳營區","LI":"果毅里","LIN":"17鄰","STREET":" ","SECT":" ","MAREA":"果毅後","LANE":" ","ALLEY":" ","HOUSE_NO":"２１８號之２０","E_COORD97":185539.67000000001,"N_COORD97":2572555.6400000001,"ADDRESS":"果毅後２１８號之２０","OBJECTID":20963},"geometry":{"x":185539.66999999993,"y":2572555.6400000025}},{"attributes":{"ID":20964,"DIS_CODE":0,"TOWNNAME":"柳營區","LI":"果毅里","LIN":"17鄰","STREET":" ","SECT":" ","MAREA":"果毅後","LANE":" ","ALLEY":" ","HOUSE_NO":"２１８號之２１","E_COORD97":185522.42999999999,"N_COORD97":2572553.52,"ADDRESS":"果毅後２１８號之２１","OBJECTID":20964},"geometry":{"x":185522.4299999997,"y":2572553.5199999977}},{"attributes":{"ID":20965,"DIS_CODE":0,"TOWNNAME":"柳營區","LI":"果毅里","LIN":"17鄰","STREET":" ","SECT":" ","MAREA":"果毅後","LANE":" ","ALLEY":" ","HOUSE_NO":"２１８號之２","E_COORD97":185521.22,"N_COORD97":2572697.48,"ADDRESS":"果毅後２１８號之２","OBJECTID":20965},"geometry":{"x":185521.2200000016,"y":2572697.4800000042}},{"attributes":{"ID":20966,"DIS_CODE":0,"TOWNNAME":"柳營區","LI":"果毅里","LIN":"17鄰","STREET":" ","SECT":" ","MAREA":"果毅後","LANE":" ","ALLEY":" ","HOUSE_NO":"２１８號之３","E_COORD97":185561.32999999999,"N_COORD97":2572630.8300000001,"ADDRESS":"果毅後２１８號之３","OBJECTID":20966},"geometry":{"x":185561.32999999914,"y":2572630.8300000019}},{"attributes":{"ID":20967,"DIS_CODE":0,"TOWNNAME":"柳營區","LI":"果毅里","LIN":"17鄰","STREET":" ","SECT":" ","MAREA":"果毅後","LANE":" ","ALLEY":" ","HOUSE_NO":"２１８號之５","E_COORD97":185594.94,"N_COORD97":2572626.8199999998,"ADDRESS":"果毅後２１８號之５","OBJECTID":20967},"geometry":{"x":185594.94000000227,"y":2572626.8199999984}},{"attributes":{"ID":20968,"DIS_CODE":0,"TOWNNAME":"歸仁區","LI":"七甲里","LIN":"14鄰","STREET":"南丁路","SECT":" ","MAREA":" ","LANE":"５９１巷","ALLEY":"３７弄","HOUSE_NO":"１１號","E_COORD97":175930.69,"N_COORD97":2543080.25,"ADDRESS":"南丁路５９１巷３７弄１１號","OBJECTID":20968},"geometry":{"x":175930.69000000227,"y":2543080.2500000037}},{"attributes":{"ID":20969,"DIS_CODE":0,"TOWNNAME":"柳營區","LI":"果毅里","LIN":"17鄰","STREET":" ","SECT":" ","MAREA":"果毅後","LANE":" ","ALLEY":" ","HOUSE_NO":"２１８之６號","E_COORD97":185572.73000000001,"N_COORD97":2572632.8599999999,"ADDRESS":"果毅後２１８之６號","OBJECTID":20969},"geometry":{"x":185572.73000000231,"y":2572632.8600000013}},{"attributes":{"ID":20970,"DIS_CODE":0,"TOWNNAME":"後壁區","LI":"竹新里","LIN":"14鄰","STREET":" ","SECT":" ","MAREA":"新厝","LANE":" ","ALLEY":" ","HOUSE_NO":"１３號","E_COORD97":179128.12,"N_COORD97":2582136.1099999999,"ADDRESS":"新厝１３號","OBJECTID":20970},"geometry":{"x":179128.12000000104,"y":2582136.1099999994}},{"attributes":{"ID":20971,"DIS_CODE":0,"TOWNNAME":"歸仁區","LI":"南興里","LIN":"14鄰","STREET":"文化街","SECT":"三段","MAREA":" ","LANE":"５３０巷","ALLEY":"１４弄","HOUSE_NO":"１６號","E_COORD97":175841.23999999999,"N_COORD97":2541270.3300000001,"ADDRESS":"文化街三段５３０巷１４弄１６號","OBJECTID":20971},"geometry":{"x":175841.24000000022,"y":2541270.3300000019}},{"attributes":{"ID":20972,"DIS_CODE":0,"TOWNNAME":"歸仁區","LI":"大廟里","LIN":"14鄰","STREET":"大廟六街","SECT":" ","MAREA":" ","LANE":"１１０巷","ALLEY":"１弄","HOUSE_NO":"７號","E_COORD97":176212.12,"N_COORD97":2544263.25,"ADDRESS":"大廟六街１１０巷１弄７號","OBJECTID":20972},"geometry":{"x":176212.11999999918,"y":2544263.2500000037}},{"attributes":{"ID":20973,"DIS_CODE":0,"TOWNNAME":"歸仁區","LI":"大潭里","LIN":"14鄰","STREET":"長榮路","SECT":"一段","MAREA":" ","LANE":"１６３巷","ALLEY":"１８弄","HOUSE_NO":"１８號","E_COORD97":174991.06,"N_COORD97":2534655.2799999998,"ADDRESS":"長榮路一段１６３巷１８弄１８號","OBJECTID":20973},"geometry":{"x":174991.05999999959,"y":2534655.2800000012}},{"attributes":{"ID":20974,"DIS_CODE":0,"TOWNNAME":"歸仁區","LI":"大廟里","LIN":"14鄰","STREET":"大廟六街","SECT":" ","MAREA":" ","LANE":"１１０巷","ALLEY":"１弄","HOUSE_NO":"１６號","E_COORD97":176234.87,"N_COORD97":2544257.25,"ADDRESS":"大廟六街１１０巷１弄１６號","OBJECTID":20974},"geometry":{"x":176234.87000000104,"y":2544257.2500000019}},{"attributes":{"ID":20975,"DIS_CODE":0,"TOWNNAME":"柳營區","LI":"果毅里","LIN":"17鄰","STREET":" ","SECT":" ","MAREA":"果毅後","LANE":" ","ALLEY":" ","HOUSE_NO":"２１８之７號","E_COORD97":185577.79000000001,"N_COORD97":2572630.1099999999,"ADDRESS":"果毅後２１８之７號","OBJECTID":20975},"geometry":{"x":185577.79000000004,"y":2572630.1099999994}},{"attributes":{"ID":20976,"DIS_CODE":0,"TOWNNAME":"歸仁區","LI":"七甲里","LIN":"14鄰","STREET":"南丁路","SECT":" ","MAREA":" ","LANE":"５９１巷","ALLEY":"３７弄","HOUSE_NO":"２號","E_COORD97":175923.44,"N_COORD97":2543101.25,"ADDRESS":"南丁路５９１巷３７弄２號","OBJECTID":20976},"geometry":{"x":175923.44000000041,"y":2543101.2500000019}},{"attributes":{"ID":20977,"DIS_CODE":0,"TOWNNAME":"柳營區","LI":"果毅里","LIN":"17鄰","STREET":" ","SECT":" ","MAREA":"果毅後","LANE":" ","ALLEY":" ","HOUSE_NO":"２１８號之８","E_COORD97":185647.97,"N_COORD97":2572613.3999999999,"ADDRESS":"果毅後２１８號之８","OBJECTID":20977},"geometry":{"x":185647.96999999974,"y":2572613.4000000022}},{"attributes":{"ID":20978,"DIS_CODE":0,"TOWNNAME":"北區","LI":"文元里","LIN":"14鄰","STREET":"文賢路","SECT":" ","MAREA":" ","LANE":"１０３０巷","ALLEY":"３弄","HOUSE_NO":"３６號","E_COORD97":167406.09,"N_COORD97":2546170.3599999999,"ADDRESS":"文賢路１０３０巷３弄３６號","OBJECTID":20978},"geometry":{"x":167406.09000000078,"y":2546170.3599999994}},{"attributes":{"ID":20979,"DIS_CODE":0,"TOWNNAME":"柳營區","LI":"果毅里","LIN":"17鄰","STREET":" ","SECT":" ","MAREA":"果毅後","LANE":" ","ALLEY":" ","HOUSE_NO":"２１８之９號","E_COORD97":185582.22,"N_COORD97":2572628.3300000001,"ADDRESS":"果毅後２１８之９號","OBJECTID":20979},"geometry":{"x":185582.2200000016,"y":2572628.3300000019}},{"attributes":{"ID":20980,"DIS_CODE":0,"TOWNNAME":"柳營區","LI":"果毅里","LIN":"17鄰","STREET":" ","SECT":" ","MAREA":"果毅後","LANE":" ","ALLEY":" ","HOUSE_NO":"２１８號","E_COORD97":185505.41,"N_COORD97":2572702.8999999999,"ADDRESS":"果毅後２１８號","OBJECTID":20980},"geometry":{"x":185505.41000000108,"y":2572702.9000000004}},{"attributes":{"ID":20981,"DIS_CODE":0,"TOWNNAME":"北區","LI":"文元里","LIN":"14鄰","STREET":"文賢路","SECT":" ","MAREA":" ","LANE":"１０３０巷","ALLEY":"３弄","HOUSE_NO":"５號","E_COORD97":167399.51999999999,"N_COORD97":2546113.4500000002,"ADDRESS":"文賢路１０３０巷３弄５號","OBJECTID":20981},"geometry":{"x":167399.52000000048,"y":2546113.4500000011}},{"attributes":{"ID":20982,"DIS_CODE":0,"TOWNNAME":"北區","LI":"文元里","LIN":"14鄰","STREET":"文賢路","SECT":" ","MAREA":" ","LANE":"１０３０巷","ALLEY":"３弄","HOUSE_NO":"３號","E_COORD97":167400.03,"N_COORD97":2546108.5,"ADDRESS":"文賢路１０３０巷３弄３號","OBJECTID":20982},"geometry":{"x":167400.03000000119,"y":2546108.5}},{"attributes":{"ID":20983,"DIS_CODE":0,"TOWNNAME":"柳營區","LI":"果毅里","LIN":"17鄰","STREET":" ","SECT":" ","MAREA":"果毅後","LANE":" ","ALLEY":" ","HOUSE_NO":"２２０號","E_COORD97":185511.45000000001,"N_COORD97":2572757.4399999999,"ADDRESS":"果毅後２２０號","OBJECTID":20983},"geometry":{"x":185511.44999999925,"y":2572757.4400000032}},{"attributes":{"ID":20984,"DIS_CODE":0,"TOWNNAME":"柳營區","LI":"果毅里","LIN":"17鄰","STREET":" ","SECT":" ","MAREA":"果毅後","LANE":" ","ALLEY":" ","HOUSE_NO":"２２２之１號","E_COORD97":185482.47,"N_COORD97":2572729.0699999998,"ADDRESS":"果毅後２２２之１號","OBJECTID":20984},"geometry":{"x":185482.47000000067,"y":2572729.0700000003}},{"attributes":{"ID":20985,"DIS_CODE":0,"TOWNNAME":"東山區","LI":"科里里","LIN":"8鄰","STREET":" ","SECT":" ","MAREA":"科里","LANE":" ","ALLEY":" ","HOUSE_NO":"４３號","E_COORD97":189901.73999999999,"N_COORD97":2578204.4900000002,"ADDRESS":"科里４３號","OBJECTID":20985},"geometry":{"x":189901.73999999929,"y":2578204.4900000021}},{"attributes":{"ID":20986,"DIS_CODE":0,"TOWNNAME":"新營區","LI":"忠政里","LIN":"24鄰","STREET":"健康路","SECT":" ","MAREA":" ","LANE":" ","ALLEY":" ","HOUSE_NO":"１９２之１號","E_COORD97":179671.47,"N_COORD97":2579379.3999999999,"ADDRESS":"健康路１９２之１號","OBJECTID":20986},"geometry":{"x":179671.47000000067,"y":2579379.4000000004}},{"attributes":{"ID":20987,"DIS_CODE":0,"TOWNNAME":"新營區","LI":"民榮里","LIN":"24鄰","STREET":"裕民路","SECT":" ","MAREA":" ","LANE":" ","ALLEY":" ","HOUSE_NO":"１４之１號","E_COORD97":179131.95000000001,"N_COORD97":2577944.5499999998,"ADDRESS":"裕民路１４之１號","OBJECTID":20987},"geometry":{"x":179131.95000000019,"y":2577944.5500000007}},{"attributes":{"ID":20988,"DIS_CODE":0,"TOWNNAME":"新營區","LI":"民權里","LIN":"24鄰","STREET":"信義街","SECT":" ","MAREA":" ","LANE":" ","ALLEY":" ","HOUSE_NO":"８１號","E_COORD97":179740.13,"N_COORD97":2578793.2200000002,"ADDRESS":"信義街８１號","OBJECTID":20988},"geometry":{"x":179740.13000000082,"y":2578793.2200000025}},{"attributes":{"ID":20989,"DIS_CODE":0,"TOWNNAME":"新營區","LI":"民權里","LIN":"24鄰","STREET":"信義街","SECT":" ","MAREA":" ","LANE":" ","ALLEY":" ","HOUSE_NO":"７５號","E_COORD97":179779.95999999999,"N_COORD97":2578788.6000000001,"ADDRESS":"信義街７５號","OBJECTID":20989},"geometry":{"x":179779.96000000089,"y":2578788.6000000015}},{"attributes":{"ID":20990,"DIS_CODE":0,"TOWNNAME":"新營區","LI":"民權里","LIN":"24鄰","STREET":"信義街","SECT":" ","MAREA":" ","LANE":" ","ALLEY":" ","HOUSE_NO":"９１之３號","E_COORD97":179782.23000000001,"N_COORD97":2578752.1099999999,"ADDRESS":"信義街９１之３號","OBJECTID":20990},"geometry":{"x":179782.23000000138,"y":2578752.1100000013}},{"attributes":{"ID":20991,"DIS_CODE":0,"TOWNNAME":"新營區","LI":"民生里","LIN":"24鄰","STREET":"民生路","SECT":" ","MAREA":" ","LANE":" ","ALLEY":" ","HOUSE_NO":"１２７號","E_COORD97":179247.23000000001,"N_COORD97":2578569.6499999999,"ADDRESS":"民生路１２７號","OBJECTID":20991},"geometry":{"x":179247.23000000045,"y":2578569.6500000022}},{"attributes":{"ID":20992,"DIS_CODE":0,"TOWNNAME":"新營區","LI":"民權里","LIN":"24鄰","STREET":"信義街","SECT":" ","MAREA":" ","LANE":" ","ALLEY":" ","HOUSE_NO":"９１之２號","E_COORD97":179782.23000000001,"N_COORD97":2578752.1099999999,"ADDRESS":"信義街９１之２號","OBJECTID":20992},"geometry":{"x":179782.23000000138,"y":2578752.1100000013}},{"attributes":{"ID":20993,"DIS_CODE":0,"TOWNNAME":"新營區","LI":"民權里","LIN":"24鄰","STREET":"信義街","SECT":" ","MAREA":" ","LANE":" ","ALLEY":" ","HOUSE_NO":"８９號","E_COORD97":179704.26999999999,"N_COORD97":2578782.3199999998,"ADDRESS":"信義街８９號","OBJECTID":20993},"geometry":{"x":179704.26999999862,"y":2578782.3200000003}},{"attributes":{"ID":20994,"DIS_CODE":0,"TOWNNAME":"新營區","LI":"民權里","LIN":"24鄰","STREET":"信義街","SECT":" ","MAREA":" ","LANE":" ","ALLEY":" ","HOUSE_NO":"７９號","E_COORD97":179748.25,"N_COORD97":2578789.8599999999,"ADDRESS":"信義街７９號","OBJECTID":20994},"geometry":{"x":179748.25,"y":2578789.8600000013}},{"attributes":{"ID":20995,"DIS_CODE":0,"TOWNNAME":"東山區","LI":"東正里","LIN":"24鄰","STREET":" ","SECT":" ","MAREA":"東勢","LANE":" ","ALLEY":" ","HOUSE_NO":"１６９號","E_COORD97":189256.60999999999,"N_COORD97":2580430.8300000001,"ADDRESS":"東勢１６９號","OBJECTID":20995},"geometry":{"x":189256.61000000034,"y":2580430.8300000001}},{"attributes":{"ID":20996,"DIS_CODE":0,"TOWNNAME":"東山區","LI":"東正里","LIN":"24鄰","STREET":" ","SECT":" ","MAREA":"東勢","LANE":" ","ALLEY":" ","HOUSE_NO":"１７０號之１","E_COORD97":189224.41,"N_COORD97":2580437.1400000001,"ADDRESS":"東勢１７０號之１","OBJECTID":20996},"geometry":{"x":189224.41000000108,"y":2580437.1400000025}},{"attributes":{"ID":20997,"DIS_CODE":0,"TOWNNAME":"北區","LI":"文元里","LIN":"14鄰","STREET":"文賢路","SECT":" ","MAREA":" ","LANE":"１０３０巷","ALLEY":"３弄","HOUSE_NO":"３３號","E_COORD97":167387.97,"N_COORD97":2546173.4100000001,"ADDRESS":"文賢路１０３０巷３弄３３號","OBJECTID":20997},"geometry":{"x":167387.97000000067,"y":2546173.4100000001}},{"attributes":{"ID":20998,"DIS_CODE":0,"TOWNNAME":"北區","LI":"六甲里","LIN":"14鄰","STREET":"西門路","SECT":"四段","MAREA":" ","LANE":"２８０巷","ALLEY":"８弄","HOUSE_NO":"１０號","E_COORD97":169003.17000000001,"N_COORD97":2545840.8599999999,"ADDRESS":"西門路四段２８０巷８弄１０號","OBJECTID":20998},"geometry":{"x":169003.16999999993,"y":2545840.8599999994}},{"attributes":{"ID":20999,"DIS_CODE":0,"TOWNNAME":"新營區","LI":"新南里","LIN":"24鄰","STREET":"隋唐街","SECT":" ","MAREA":" ","LANE":" ","ALLEY":" ","HOUSE_NO":"２８９號","E_COORD97":178205.51000000001,"N_COORD97":2578576.9700000002,"ADDRESS":"隋唐街２８９號","OBJECTID":20999},"geometry":{"x":178205.50999999978,"y":2578576.9700000025}},{"attributes":{"ID":21000,"DIS_CODE":0,"TOWNNAME":"東山區","LI":"東正里","LIN":"24鄰","STREET":" ","SECT":" ","MAREA":"東勢","LANE":" ","ALLEY":" ","HOUSE_NO":"１７０號","E_COORD97":189245.20000000001,"N_COORD97":2580450.3999999999,"ADDRESS":"東勢１７０號","OBJECTID":21000},"geometry":{"x":189245.20000000112,"y":2580450.4000000004}}]}