{"displayFieldName":"TOWNNAME","fieldAliases":{"ID":"ID","DIS_CODE":"DIS_CODE","TOWNNAME":"TOWNNAME","LI":"LI","LIN":"LIN","STREET":"STREET","SECT":"SECT","MAREA":"MAREA","LANE":"LANE","ALLEY":"ALLEY","HOUSE_NO":"HOUSE_NO","E_COORD97":"E_COORD97","N_COORD97":"N_COORD97","ADDRESS":"ADDRESS","OBJECTID":"OBJECTID"},"geometryType":"esriGeometryPoint","spatialReference":{"wkid":102443,"latestWkid":3826},"fields":[{"name":"ID","type":"esriFieldTypeDouble","alias":"ID"},{"name":"DIS_CODE","type":"esriFieldTypeInteger","alias":"DIS_CODE"},{"name":"TOWNNAME","type":"esriFieldTypeString","alias":"TOWNNAME","length":8},{"name":"LI","type":"esriFieldTypeString","alias":"LI","length":8},{"name":"LIN","type":"esriFieldTypeString","alias":"LIN","length":12},{"name":"STREET","type":"esriFieldTypeString","alias":"STREET","length":20},{"name":"SECT","type":"esriFieldTypeString","alias":"SECT","length":8},{"name":"MAREA","type":"esriFieldTypeString","alias":"MAREA","length":12},{"name":"LANE","type":"esriFieldTypeString","alias":"LANE","length":10},{"name":"ALLEY","type":"esriFieldTypeString","alias":"ALLEY","length":10},{"name":"HOUSE_NO","type":"esriFieldTypeString","alias":"HOUSE_NO","length":20},{"name":"E_COORD97","type":"esriFieldTypeDouble","alias":"E_COORD97"},{"name":"N_COORD97","type":"esriFieldTypeDouble","alias":"N_COORD97"},{"name":"ADDRESS","type":"esriFieldTypeString","alias":"ADDRESS","length":50},{"name":"OBJECTID","type":"esriFieldTypeOID","alias":"OBJECTID"}],"features":[{"attributes":{"ID":592028,"DIS_CODE":0,"TOWNNAME":"東區","LI":"東明里","LIN":"11鄰","STREET":"東興路","SECT":" ","MAREA":" ","LANE":" ","ALLEY":" ","HOUSE_NO":"１４１號五樓之３","E_COORD97":170945.44,"N_COORD97":2543694.8999999999,"ADDRESS":"東興路１４１號五樓之３","OBJECTID":592001},"geometry":{"x":170945.44000000134,"y":2543694.9000000004}},{"attributes":{"ID":592029,"DIS_CODE":0,"TOWNNAME":"善化區","LI":"東關里","LIN":"11鄰","STREET":"中興路","SECT":" ","MAREA":" ","LANE":" ","ALLEY":" ","HOUSE_NO":"１３１號","E_COORD97":177380.57999999999,"N_COORD97":2559027.3799999999,"ADDRESS":"中興路１３１號","OBJECTID":592002},"geometry":{"x":177380.58000000101,"y":2559027.3800000008}},{"attributes":{"ID":592030,"DIS_CODE":0,"TOWNNAME":"東區","LI":"東明里","LIN":"11鄰","STREET":"東興路","SECT":" ","MAREA":" ","LANE":" ","ALLEY":" ","HOUSE_NO":"１４１號五樓之４","E_COORD97":170945.44,"N_COORD97":2543694.8999999999,"ADDRESS":"東興路１４１號五樓之４","OBJECTID":592003},"geometry":{"x":170945.44000000134,"y":2543694.9000000004}},{"attributes":{"ID":592031,"DIS_CODE":0,"TOWNNAME":"東區","LI":"東明里","LIN":"11鄰","STREET":"東興路","SECT":" ","MAREA":" ","LANE":" ","ALLEY":" ","HOUSE_NO":"１４１號五樓之５","E_COORD97":170945.44,"N_COORD97":2543694.8999999999,"ADDRESS":"東興路１４１號五樓之５","OBJECTID":592004},"geometry":{"x":170945.44000000134,"y":2543694.9000000004}},{"attributes":{"ID":592032,"DIS_CODE":0,"TOWNNAME":"東區","LI":"東明里","LIN":"11鄰","STREET":"東興路","SECT":" ","MAREA":" ","LANE":" ","ALLEY":" ","HOUSE_NO":"１４１號五樓之６","E_COORD97":170945.44,"N_COORD97":2543694.8999999999,"ADDRESS":"東興路１４１號五樓之６","OBJECTID":592005},"geometry":{"x":170945.44000000134,"y":2543694.9000000004}},{"attributes":{"ID":592033,"DIS_CODE":0,"TOWNNAME":"東區","LI":"東明里","LIN":"11鄰","STREET":"東興路","SECT":" ","MAREA":" ","LANE":" ","ALLEY":" ","HOUSE_NO":"１４１號六樓之２","E_COORD97":170945.44,"N_COORD97":2543694.8999999999,"ADDRESS":"東興路１４１號六樓之２","OBJECTID":592006},"geometry":{"x":170945.44000000134,"y":2543694.9000000004}},{"attributes":{"ID":592034,"DIS_CODE":0,"TOWNNAME":"東區","LI":"東明里","LIN":"11鄰","STREET":"東興路","SECT":" ","MAREA":" ","LANE":" ","ALLEY":" ","HOUSE_NO":"１４１號六樓之３","E_COORD97":170945.44,"N_COORD97":2543694.8999999999,"ADDRESS":"東興路１４１號六樓之３","OBJECTID":592007},"geometry":{"x":170945.44000000134,"y":2543694.9000000004}},{"attributes":{"ID":592035,"DIS_CODE":0,"TOWNNAME":"東區","LI":"東明里","LIN":"11鄰","STREET":"東興路","SECT":" ","MAREA":" ","LANE":" ","ALLEY":" ","HOUSE_NO":"１４１號六樓之４","E_COORD97":170945.44,"N_COORD97":2543694.8999999999,"ADDRESS":"東興路１４１號六樓之４","OBJECTID":592008},"geometry":{"x":170945.44000000134,"y":2543694.9000000004}},{"attributes":{"ID":592036,"DIS_CODE":0,"TOWNNAME":"東區","LI":"東明里","LIN":"11鄰","STREET":"東興路","SECT":" ","MAREA":" ","LANE":" ","ALLEY":" ","HOUSE_NO":"１４１號六樓之５","E_COORD97":170945.44,"N_COORD97":2543694.8999999999,"ADDRESS":"東興路１４１號六樓之５","OBJECTID":592009},"geometry":{"x":170945.44000000134,"y":2543694.9000000004}},{"attributes":{"ID":592037,"DIS_CODE":0,"TOWNNAME":"東區","LI":"東明里","LIN":"11鄰","STREET":"東興路","SECT":" ","MAREA":" ","LANE":" ","ALLEY":" ","HOUSE_NO":"１４１號四樓之１","E_COORD97":170945.44,"N_COORD97":2543694.8999999999,"ADDRESS":"東興路１４１號四樓之１","OBJECTID":592010},"geometry":{"x":170945.44000000134,"y":2543694.9000000004}},{"attributes":{"ID":592038,"DIS_CODE":0,"TOWNNAME":"東區","LI":"東明里","LIN":"11鄰","STREET":"東興路","SECT":" ","MAREA":" ","LANE":" ","ALLEY":" ","HOUSE_NO":"１４１號四樓之２","E_COORD97":170945.44,"N_COORD97":2543694.8999999999,"ADDRESS":"東興路１４１號四樓之２","OBJECTID":592011},"geometry":{"x":170945.44000000134,"y":2543694.9000000004}},{"attributes":{"ID":592039,"DIS_CODE":0,"TOWNNAME":"東區","LI":"東明里","LIN":"11鄰","STREET":"東興路","SECT":" ","MAREA":" ","LANE":" ","ALLEY":" ","HOUSE_NO":"１４１號四樓之３","E_COORD97":170945.44,"N_COORD97":2543694.8999999999,"ADDRESS":"東興路１４１號四樓之３","OBJECTID":592012},"geometry":{"x":170945.44000000134,"y":2543694.9000000004}},{"attributes":{"ID":592040,"DIS_CODE":0,"TOWNNAME":"東區","LI":"東明里","LIN":"11鄰","STREET":"東興路","SECT":" ","MAREA":" ","LANE":" ","ALLEY":" ","HOUSE_NO":"１４１號四樓之５","E_COORD97":170945.44,"N_COORD97":2543694.8999999999,"ADDRESS":"東興路１４１號四樓之５","OBJECTID":592013},"geometry":{"x":170945.44000000134,"y":2543694.9000000004}},{"attributes":{"ID":592041,"DIS_CODE":0,"TOWNNAME":"東區","LI":"東明里","LIN":"11鄰","STREET":"東興路","SECT":" ","MAREA":" ","LANE":" ","ALLEY":" ","HOUSE_NO":"１４７號二樓","E_COORD97":170971.5,"N_COORD97":2543728.1499999999,"ADDRESS":"東興路１４７號二樓","OBJECTID":592014},"geometry":{"x":170971.50000000186,"y":2543728.1500000004}},{"attributes":{"ID":592042,"DIS_CODE":0,"TOWNNAME":"麻豆區","LI":"穀興里","LIN":"11鄰","STREET":"仁愛路","SECT":" ","MAREA":" ","LANE":" ","ALLEY":" ","HOUSE_NO":"６號之５三樓","E_COORD97":172977.26999999999,"N_COORD97":2564777.0099999998,"ADDRESS":"仁愛路６號之５三樓","OBJECTID":592015},"geometry":{"x":172977.26999999955,"y":2564777.0100000016}},{"attributes":{"ID":592043,"DIS_CODE":0,"TOWNNAME":"麻豆區","LI":"穀興里","LIN":"11鄰","STREET":"仁愛路","SECT":" ","MAREA":" ","LANE":" ","ALLEY":" ","HOUSE_NO":"６號之５四樓","E_COORD97":172977.26999999999,"N_COORD97":2564777.0099999998,"ADDRESS":"仁愛路６號之５四樓","OBJECTID":592016},"geometry":{"x":172977.26999999955,"y":2564777.0100000016}},{"attributes":{"ID":592044,"DIS_CODE":0,"TOWNNAME":"東區","LI":"東明里","LIN":"11鄰","STREET":"東興路","SECT":" ","MAREA":" ","LANE":" ","ALLEY":" ","HOUSE_NO":"１４１號七樓之６","E_COORD97":170945.44,"N_COORD97":2543694.8999999999,"ADDRESS":"東興路１４１號七樓之６","OBJECTID":592017},"geometry":{"x":170945.44000000134,"y":2543694.9000000004}},{"attributes":{"ID":592045,"DIS_CODE":0,"TOWNNAME":"東區","LI":"東明里","LIN":"11鄰","STREET":"東興路","SECT":" ","MAREA":" ","LANE":" ","ALLEY":" ","HOUSE_NO":"１４１號四樓之４","E_COORD97":170945.44,"N_COORD97":2543694.8999999999,"ADDRESS":"東興路１４１號四樓之４","OBJECTID":592018},"geometry":{"x":170945.44000000134,"y":2543694.9000000004}},{"attributes":{"ID":592046,"DIS_CODE":0,"TOWNNAME":"東區","LI":"東明里","LIN":"11鄰","STREET":"東興路","SECT":" ","MAREA":" ","LANE":" ","ALLEY":" ","HOUSE_NO":"１４１號六樓之１","E_COORD97":170945.44,"N_COORD97":2543694.8999999999,"ADDRESS":"東興路１４１號六樓之１","OBJECTID":592019},"geometry":{"x":170945.44000000134,"y":2543694.9000000004}},{"attributes":{"ID":592047,"DIS_CODE":0,"TOWNNAME":"東區","LI":"東明里","LIN":"11鄰","STREET":"東興路","SECT":" ","MAREA":" ","LANE":" ","ALLEY":" ","HOUSE_NO":"１４１號二樓之３","E_COORD97":170945.44,"N_COORD97":2543694.8999999999,"ADDRESS":"東興路１４１號二樓之３","OBJECTID":592020},"geometry":{"x":170945.44000000134,"y":2543694.9000000004}},{"attributes":{"ID":592048,"DIS_CODE":0,"TOWNNAME":"東區","LI":"東明里","LIN":"11鄰","STREET":"東興路","SECT":" ","MAREA":" ","LANE":" ","ALLEY":" ","HOUSE_NO":"１４１號二樓之４","E_COORD97":170945.44,"N_COORD97":2543694.8999999999,"ADDRESS":"東興路１４１號二樓之４","OBJECTID":592021},"geometry":{"x":170945.44000000134,"y":2543694.9000000004}},{"attributes":{"ID":592049,"DIS_CODE":0,"TOWNNAME":"東區","LI":"東明里","LIN":"11鄰","STREET":"東興路","SECT":" ","MAREA":" ","LANE":" ","ALLEY":" ","HOUSE_NO":"１４１號二樓之５","E_COORD97":170945.44,"N_COORD97":2543694.8999999999,"ADDRESS":"東興路１４１號二樓之５","OBJECTID":592022},"geometry":{"x":170945.44000000134,"y":2543694.9000000004}},{"attributes":{"ID":592050,"DIS_CODE":0,"TOWNNAME":"東區","LI":"東明里","LIN":"11鄰","STREET":"東興路","SECT":" ","MAREA":" ","LANE":" ","ALLEY":" ","HOUSE_NO":"１４１號二樓之６","E_COORD97":170945.44,"N_COORD97":2543694.8999999999,"ADDRESS":"東興路１４１號二樓之６","OBJECTID":592023},"geometry":{"x":170945.44000000134,"y":2543694.9000000004}},{"attributes":{"ID":592051,"DIS_CODE":0,"TOWNNAME":"東區","LI":"東明里","LIN":"11鄰","STREET":"東興路","SECT":" ","MAREA":" ","LANE":" ","ALLEY":" ","HOUSE_NO":"１４１號三樓之４","E_COORD97":170945.44,"N_COORD97":2543694.8999999999,"ADDRESS":"東興路１４１號三樓之４","OBJECTID":592024},"geometry":{"x":170945.44000000134,"y":2543694.9000000004}},{"attributes":{"ID":592052,"DIS_CODE":0,"TOWNNAME":"安南區","LI":"溪北里","LIN":"20鄰","STREET":"郡安路","SECT":"四段","MAREA":" ","LANE":" ","ALLEY":" ","HOUSE_NO":"７７號","E_COORD97":169088.64000000001,"N_COORD97":2547594.48,"ADDRESS":"郡安路四段７７號","OBJECTID":592025},"geometry":{"x":169088.6400000006,"y":2547594.4800000004}},{"attributes":{"ID":592053,"DIS_CODE":0,"TOWNNAME":"安南區","LI":"溪北里","LIN":"20鄰","STREET":"郡安路","SECT":"四段","MAREA":" ","LANE":" ","ALLEY":" ","HOUSE_NO":"７８號","E_COORD97":169081.88,"N_COORD97":2547594.3799999999,"ADDRESS":"郡安路四段７８號","OBJECTID":592026},"geometry":{"x":169081.88000000175,"y":2547594.3800000008}},{"attributes":{"ID":592054,"DIS_CODE":0,"TOWNNAME":"安南區","LI":"溪北里","LIN":"20鄰","STREET":"郡安路","SECT":"四段","MAREA":" ","LANE":" ","ALLEY":" ","HOUSE_NO":"７９號","E_COORD97":169074.82999999999,"N_COORD97":2547594.48,"ADDRESS":"郡安路四段７９號","OBJECTID":592027},"geometry":{"x":169074.83000000101,"y":2547594.4800000004}},{"attributes":{"ID":592055,"DIS_CODE":0,"TOWNNAME":"安南區","LI":"溪北里","LIN":"20鄰","STREET":"郡安路","SECT":"四段","MAREA":" ","LANE":" ","ALLEY":" ","HOUSE_NO":"８０號","E_COORD97":169067.29000000001,"N_COORD97":2547594.6699999999,"ADDRESS":"郡安路四段８０號","OBJECTID":592028},"geometry":{"x":169067.29000000004,"y":2547594.6700000018}},{"attributes":{"ID":592056,"DIS_CODE":0,"TOWNNAME":"東區","LI":"東明里","LIN":"11鄰","STREET":"東興路","SECT":" ","MAREA":" ","LANE":" ","ALLEY":" ","HOUSE_NO":"１４１號四樓之６","E_COORD97":170945.44,"N_COORD97":2543694.8999999999,"ADDRESS":"東興路１４１號四樓之６","OBJECTID":592029},"geometry":{"x":170945.44000000134,"y":2543694.9000000004}},{"attributes":{"ID":592057,"DIS_CODE":0,"TOWNNAME":"東區","LI":"東明里","LIN":"11鄰","STREET":"東興路","SECT":" ","MAREA":" ","LANE":" ","ALLEY":" ","HOUSE_NO":"１４１號五樓之２","E_COORD97":170945.44,"N_COORD97":2543694.8999999999,"ADDRESS":"東興路１４１號五樓之２","OBJECTID":592030},"geometry":{"x":170945.44000000134,"y":2543694.9000000004}},{"attributes":{"ID":592058,"DIS_CODE":0,"TOWNNAME":"東區","LI":"東明里","LIN":"11鄰","STREET":"東興路","SECT":" ","MAREA":" ","LANE":" ","ALLEY":" ","HOUSE_NO":"１４１號七樓之４","E_COORD97":170945.44,"N_COORD97":2543694.8999999999,"ADDRESS":"東興路１４１號七樓之４","OBJECTID":592031},"geometry":{"x":170945.44000000134,"y":2543694.9000000004}},{"attributes":{"ID":592059,"DIS_CODE":0,"TOWNNAME":"麻豆區","LI":"穀興里","LIN":"11鄰","STREET":"仁愛路","SECT":" ","MAREA":" ","LANE":" ","ALLEY":" ","HOUSE_NO":"６號之５二樓","E_COORD97":172977.26999999999,"N_COORD97":2564777.0099999998,"ADDRESS":"仁愛路６號之５二樓","OBJECTID":592032},"geometry":{"x":172977.26999999955,"y":2564777.0100000016}},{"attributes":{"ID":592060,"DIS_CODE":0,"TOWNNAME":"中西區","LI":"郡王里","LIN":"11鄰","STREET":"南門路","SECT":" ","MAREA":" ","LANE":" ","ALLEY":" ","HOUSE_NO":"１４９號七樓之１","E_COORD97":168442.97,"N_COORD97":2543028.3100000001,"ADDRESS":"南門路１４９號七樓之１","OBJECTID":592033},"geometry":{"x":168442.96999999974,"y":2543028.3100000005}},{"attributes":{"ID":592061,"DIS_CODE":0,"TOWNNAME":"中西區","LI":"郡王里","LIN":"11鄰","STREET":"南門路","SECT":" ","MAREA":" ","LANE":" ","ALLEY":" ","HOUSE_NO":"１４９號七樓之２","E_COORD97":168442.97,"N_COORD97":2543028.3100000001,"ADDRESS":"南門路１４９號七樓之２","OBJECTID":592034},"geometry":{"x":168442.96999999974,"y":2543028.3100000005}},{"attributes":{"ID":592062,"DIS_CODE":0,"TOWNNAME":"中西區","LI":"郡王里","LIN":"11鄰","STREET":"南門路","SECT":" ","MAREA":" ","LANE":" ","ALLEY":" ","HOUSE_NO":"１４９號七樓之３","E_COORD97":168442.97,"N_COORD97":2543028.3100000001,"ADDRESS":"南門路１４９號七樓之３","OBJECTID":592035},"geometry":{"x":168442.96999999974,"y":2543028.3100000005}},{"attributes":{"ID":592063,"DIS_CODE":0,"TOWNNAME":"中西區","LI":"郡王里","LIN":"11鄰","STREET":"南門路","SECT":" ","MAREA":" ","LANE":" ","ALLEY":" ","HOUSE_NO":"１４９號七樓之４","E_COORD97":168455.37,"N_COORD97":2543030.1000000001,"ADDRESS":"南門路１４９號七樓之４","OBJECTID":592036},"geometry":{"x":168455.37000000104,"y":2543030.1000000015}},{"attributes":{"ID":592064,"DIS_CODE":0,"TOWNNAME":"中西區","LI":"郡王里","LIN":"11鄰","STREET":"南門路","SECT":" ","MAREA":" ","LANE":" ","ALLEY":" ","HOUSE_NO":"１４９號七樓之５","E_COORD97":168455.37,"N_COORD97":2543030.1000000001,"ADDRESS":"南門路１４９號七樓之５","OBJECTID":592037},"geometry":{"x":168455.37000000104,"y":2543030.1000000015}},{"attributes":{"ID":592065,"DIS_CODE":0,"TOWNNAME":"中西區","LI":"郡王里","LIN":"11鄰","STREET":"南門路","SECT":" ","MAREA":" ","LANE":" ","ALLEY":" ","HOUSE_NO":"１４９號五樓之１","E_COORD97":168442.97,"N_COORD97":2543028.3100000001,"ADDRESS":"南門路１４９號五樓之１","OBJECTID":592038},"geometry":{"x":168442.96999999974,"y":2543028.3100000005}},{"attributes":{"ID":592066,"DIS_CODE":0,"TOWNNAME":"中西區","LI":"郡王里","LIN":"11鄰","STREET":"南門路","SECT":" ","MAREA":" ","LANE":" ","ALLEY":" ","HOUSE_NO":"１４９號五樓之２","E_COORD97":168442.97,"N_COORD97":2543028.3100000001,"ADDRESS":"南門路１４９號五樓之２","OBJECTID":592039},"geometry":{"x":168442.96999999974,"y":2543028.3100000005}},{"attributes":{"ID":592067,"DIS_CODE":0,"TOWNNAME":"中西區","LI":"郡王里","LIN":"11鄰","STREET":"南門路","SECT":" ","MAREA":" ","LANE":" ","ALLEY":" ","HOUSE_NO":"１４９號五樓之３","E_COORD97":168442.97,"N_COORD97":2543028.3100000001,"ADDRESS":"南門路１４９號五樓之３","OBJECTID":592040},"geometry":{"x":168442.96999999974,"y":2543028.3100000005}},{"attributes":{"ID":592068,"DIS_CODE":0,"TOWNNAME":"中西區","LI":"郡王里","LIN":"11鄰","STREET":"南門路","SECT":" ","MAREA":" ","LANE":" ","ALLEY":" ","HOUSE_NO":"１４９號五樓之４","E_COORD97":168455.37,"N_COORD97":2543030.1000000001,"ADDRESS":"南門路１４９號五樓之４","OBJECTID":592041},"geometry":{"x":168455.37000000104,"y":2543030.1000000015}},{"attributes":{"ID":592069,"DIS_CODE":0,"TOWNNAME":"中西區","LI":"郡王里","LIN":"11鄰","STREET":"南門路","SECT":" ","MAREA":" ","LANE":" ","ALLEY":" ","HOUSE_NO":"１４９號五樓之５","E_COORD97":168455.13,"N_COORD97":2543021.9500000002,"ADDRESS":"南門路１４９號五樓之５","OBJECTID":592042},"geometry":{"x":168455.13000000082,"y":2543021.9499999993}},{"attributes":{"ID":592070,"DIS_CODE":0,"TOWNNAME":"中西區","LI":"郡王里","LIN":"11鄰","STREET":"南門路","SECT":" ","MAREA":" ","LANE":" ","ALLEY":" ","HOUSE_NO":"１４９號六樓之１","E_COORD97":168442.97,"N_COORD97":2543028.3100000001,"ADDRESS":"南門路１４９號六樓之１","OBJECTID":592043},"geometry":{"x":168442.96999999974,"y":2543028.3100000005}},{"attributes":{"ID":592071,"DIS_CODE":0,"TOWNNAME":"中西區","LI":"郡王里","LIN":"11鄰","STREET":"南門路","SECT":" ","MAREA":" ","LANE":" ","ALLEY":" ","HOUSE_NO":"１４９號六樓之２","E_COORD97":168442.97,"N_COORD97":2543028.3100000001,"ADDRESS":"南門路１４９號六樓之２","OBJECTID":592044},"geometry":{"x":168442.96999999974,"y":2543028.3100000005}},{"attributes":{"ID":592072,"DIS_CODE":0,"TOWNNAME":"中西區","LI":"郡王里","LIN":"11鄰","STREET":"南門路","SECT":" ","MAREA":" ","LANE":" ","ALLEY":" ","HOUSE_NO":"１４９號六樓之３","E_COORD97":168455.37,"N_COORD97":2543030.1000000001,"ADDRESS":"南門路１４９號六樓之３","OBJECTID":592045},"geometry":{"x":168455.37000000104,"y":2543030.1000000015}},{"attributes":{"ID":592073,"DIS_CODE":0,"TOWNNAME":"中西區","LI":"郡王里","LIN":"11鄰","STREET":"南門路","SECT":" ","MAREA":" ","LANE":" ","ALLEY":" ","HOUSE_NO":"１４９號六樓之４","E_COORD97":168455.13,"N_COORD97":2543021.9500000002,"ADDRESS":"南門路１４９號六樓之４","OBJECTID":592046},"geometry":{"x":168455.13000000082,"y":2543021.9499999993}},{"attributes":{"ID":592074,"DIS_CODE":0,"TOWNNAME":"中西區","LI":"郡王里","LIN":"11鄰","STREET":"南門路","SECT":" ","MAREA":" ","LANE":" ","ALLEY":" ","HOUSE_NO":"１４９號四樓之１","E_COORD97":168442.97,"N_COORD97":2543028.3100000001,"ADDRESS":"南門路１４９號四樓之１","OBJECTID":592047},"geometry":{"x":168442.96999999974,"y":2543028.3100000005}},{"attributes":{"ID":592075,"DIS_CODE":0,"TOWNNAME":"中西區","LI":"郡王里","LIN":"11鄰","STREET":"南門路","SECT":" ","MAREA":" ","LANE":" ","ALLEY":" ","HOUSE_NO":"１４９號四樓之２","E_COORD97":168455.37,"N_COORD97":2543030.1000000001,"ADDRESS":"南門路１４９號四樓之２","OBJECTID":592048},"geometry":{"x":168455.37000000104,"y":2543030.1000000015}},{"attributes":{"ID":592076,"DIS_CODE":0,"TOWNNAME":"中西區","LI":"郡王里","LIN":"11鄰","STREET":"南門路","SECT":" ","MAREA":" ","LANE":" ","ALLEY":" ","HOUSE_NO":"１４９號四樓之３","E_COORD97":168455.13,"N_COORD97":2543021.9500000002,"ADDRESS":"南門路１４９號四樓之３","OBJECTID":592049},"geometry":{"x":168455.13000000082,"y":2543021.9499999993}},{"attributes":{"ID":592077,"DIS_CODE":0,"TOWNNAME":"安南區","LI":"溪北里","LIN":"23鄰","STREET":"敦安街","SECT":" ","MAREA":" ","LANE":" ","ALLEY":" ","HOUSE_NO":"３６號","E_COORD97":169265.67999999999,"N_COORD97":2547566.54,"ADDRESS":"敦安街３６號","OBJECTID":592050},"geometry":{"x":169265.6799999997,"y":2547566.540000001}},{"attributes":{"ID":592078,"DIS_CODE":0,"TOWNNAME":"安南區","LI":"溪北里","LIN":"23鄰","STREET":"敦安街","SECT":" ","MAREA":" ","LANE":" ","ALLEY":" ","HOUSE_NO":"５０號","E_COORD97":169240.31,"N_COORD97":2547559.4100000001,"ADDRESS":"敦安街５０號","OBJECTID":592051},"geometry":{"x":169240.31000000052,"y":2547559.410000002}},{"attributes":{"ID":592079,"DIS_CODE":0,"TOWNNAME":"安南區","LI":"溪北里","LIN":"23鄰","STREET":"敦安街","SECT":" ","MAREA":" ","LANE":" ","ALLEY":" ","HOUSE_NO":"５４號","E_COORD97":169228.60999999999,"N_COORD97":2547555.79,"ADDRESS":"敦安街５４號","OBJECTID":592052},"geometry":{"x":169228.61000000127,"y":2547555.790000001}},{"attributes":{"ID":592080,"DIS_CODE":0,"TOWNNAME":"安南區","LI":"溪北里","LIN":"23鄰","STREET":"敦安街","SECT":" ","MAREA":" ","LANE":" ","ALLEY":" ","HOUSE_NO":"５６號","E_COORD97":169224.32000000001,"N_COORD97":2547556.1899999999,"ADDRESS":"敦安街５６號","OBJECTID":592053},"geometry":{"x":169224.32000000123,"y":2547556.1900000013}},{"attributes":{"ID":592081,"DIS_CODE":0,"TOWNNAME":"安南區","LI":"溪北里","LIN":"22鄰","STREET":"敦安街","SECT":" ","MAREA":" ","LANE":" ","ALLEY":" ","HOUSE_NO":"３５號","E_COORD97":169292.87,"N_COORD97":2547543.29,"ADDRESS":"敦安街３５號","OBJECTID":592054},"geometry":{"x":169292.87000000104,"y":2547543.2899999991}},{"attributes":{"ID":592082,"DIS_CODE":0,"TOWNNAME":"安南區","LI":"溪北里","LIN":"22鄰","STREET":"敦安街","SECT":" ","MAREA":" ","LANE":" ","ALLEY":" ","HOUSE_NO":"３７號","E_COORD97":169288.67999999999,"N_COORD97":2547542.04,"ADDRESS":"敦安街３７號","OBJECTID":592055},"geometry":{"x":169288.68000000063,"y":2547542.0399999972}},{"attributes":{"ID":592083,"DIS_CODE":0,"TOWNNAME":"安南區","LI":"溪北里","LIN":"22鄰","STREET":"敦安街","SECT":" ","MAREA":" ","LANE":" ","ALLEY":" ","HOUSE_NO":"３９號","E_COORD97":169283.85999999999,"N_COORD97":2547540.9900000002,"ADDRESS":"敦安街３９號","OBJECTID":592056},"geometry":{"x":169283.86000000034,"y":2547540.9900000021}},{"attributes":{"ID":592084,"DIS_CODE":0,"TOWNNAME":"安南區","LI":"溪北里","LIN":"22鄰","STREET":"敦安街","SECT":" ","MAREA":" ","LANE":" ","ALLEY":" ","HOUSE_NO":"４１號","E_COORD97":169280.51000000001,"N_COORD97":2547539.1099999999,"ADDRESS":"敦安街４１號","OBJECTID":592057},"geometry":{"x":169280.50999999978,"y":2547539.1100000013}},{"attributes":{"ID":592085,"DIS_CODE":0,"TOWNNAME":"安南區","LI":"溪北里","LIN":"22鄰","STREET":"敦安街","SECT":" ","MAREA":" ","LANE":" ","ALLEY":" ","HOUSE_NO":"４３號","E_COORD97":169276.10000000001,"N_COORD97":2547537.6400000001,"ADDRESS":"敦安街４３號","OBJECTID":592058},"geometry":{"x":169276.09999999963,"y":2547537.6400000025}},{"attributes":{"ID":592086,"DIS_CODE":0,"TOWNNAME":"安南區","LI":"溪北里","LIN":"22鄰","STREET":"敦安街","SECT":" ","MAREA":" ","LANE":" ","ALLEY":" ","HOUSE_NO":"４５號","E_COORD97":169271.07000000001,"N_COORD97":2547536.5899999999,"ADDRESS":"敦安街４５號","OBJECTID":592059},"geometry":{"x":169271.07000000216,"y":2547536.5900000017}},{"attributes":{"ID":592087,"DIS_CODE":0,"TOWNNAME":"安南區","LI":"溪北里","LIN":"23鄰","STREET":"敦安街","SECT":" ","MAREA":" ","LANE":" ","ALLEY":" ","HOUSE_NO":"７０號","E_COORD97":169193.07999999999,"N_COORD97":2547553.29,"ADDRESS":"敦安街７０號","OBJECTID":592060},"geometry":{"x":169193.08000000101,"y":2547553.2899999991}},{"attributes":{"ID":592088,"DIS_CODE":0,"TOWNNAME":"安南區","LI":"溪北里","LIN":"23鄰","STREET":"敦安街","SECT":" ","MAREA":" ","LANE":" ","ALLEY":" ","HOUSE_NO":"８２號","E_COORD97":169175.69,"N_COORD97":2547554.0299999998,"ADDRESS":"敦安街８２號","OBJECTID":592061},"geometry":{"x":169175.69000000134,"y":2547554.0300000012}},{"attributes":{"ID":592089,"DIS_CODE":0,"TOWNNAME":"安南區","LI":"溪北里","LIN":"23鄰","STREET":"敦安街","SECT":" ","MAREA":" ","LANE":" ","ALLEY":" ","HOUSE_NO":"８８號","E_COORD97":169160.32999999999,"N_COORD97":2547555.6000000001,"ADDRESS":"敦安街８８號","OBJECTID":592062},"geometry":{"x":169160.32999999914,"y":2547555.5999999996}},{"attributes":{"ID":592090,"DIS_CODE":0,"TOWNNAME":"安南區","LI":"安富里","LIN":"1鄰","STREET":"郡安路","SECT":"五段","MAREA":" ","LANE":" ","ALLEY":" ","HOUSE_NO":"１９０號","E_COORD97":167439.5,"N_COORD97":2547736.6099999999,"ADDRESS":"郡安路五段１９０號","OBJECTID":592063},"geometry":{"x":167439.5,"y":2547736.6100000013}},{"attributes":{"ID":592091,"DIS_CODE":0,"TOWNNAME":"安南區","LI":"安富里","LIN":"1鄰","STREET":"郡安路","SECT":"五段","MAREA":" ","LANE":" ","ALLEY":" ","HOUSE_NO":"１９１號","E_COORD97":167433.07999999999,"N_COORD97":2547737.0699999998,"ADDRESS":"郡安路五段１９１號","OBJECTID":592064},"geometry":{"x":167433.08000000194,"y":2547737.0700000022}},{"attributes":{"ID":592092,"DIS_CODE":0,"TOWNNAME":"安南區","LI":"安富里","LIN":"10鄰","STREET":"安富街","SECT":" ","MAREA":" ","LANE":" ","ALLEY":" ","HOUSE_NO":"３１１號","E_COORD97":167395.94,"N_COORD97":2547401.7999999998,"ADDRESS":"安富街３１１號","OBJECTID":592065},"geometry":{"x":167395.94000000134,"y":2547401.8000000007}},{"attributes":{"ID":592093,"DIS_CODE":0,"TOWNNAME":"仁德區","LI":"新田里","LIN":"11鄰","STREET":"北保一街","SECT":" ","MAREA":" ","LANE":" ","ALLEY":" ","HOUSE_NO":"８５號七樓","E_COORD97":173080.64999999999,"N_COORD97":2539554.25,"ADDRESS":"北保一街８５號七樓","OBJECTID":592066},"geometry":{"x":173080.65000000037,"y":2539554.2500000037}},{"attributes":{"ID":592094,"DIS_CODE":0,"TOWNNAME":"仁德區","LI":"新田里","LIN":"11鄰","STREET":"北保一街","SECT":" ","MAREA":" ","LANE":" ","ALLEY":" ","HOUSE_NO":"８５號一樓","E_COORD97":173080.64999999999,"N_COORD97":2539554.25,"ADDRESS":"北保一街８５號一樓","OBJECTID":592067},"geometry":{"x":173080.65000000037,"y":2539554.2500000037}},{"attributes":{"ID":592095,"DIS_CODE":0,"TOWNNAME":"仁德區","LI":"新田里","LIN":"11鄰","STREET":"北保一街","SECT":" ","MAREA":" ","LANE":" ","ALLEY":" ","HOUSE_NO":"７５號五樓","E_COORD97":173100.03,"N_COORD97":2539537.25,"ADDRESS":"北保一街７５號五樓","OBJECTID":592068},"geometry":{"x":173100.03000000026,"y":2539537.2500000037}},{"attributes":{"ID":592096,"DIS_CODE":0,"TOWNNAME":"仁德區","LI":"新田里","LIN":"11鄰","STREET":"北保一街","SECT":" ","MAREA":" ","LANE":" ","ALLEY":" ","HOUSE_NO":"８１號三樓","E_COORD97":173087.39000000001,"N_COORD97":2539545.75,"ADDRESS":"北保一街８１號三樓","OBJECTID":592069},"geometry":{"x":173087.39000000153,"y":2539545.75}},{"attributes":{"ID":592097,"DIS_CODE":0,"TOWNNAME":"仁德區","LI":"新田里","LIN":"11鄰","STREET":"北保一街","SECT":" ","MAREA":" ","LANE":" ","ALLEY":" ","HOUSE_NO":"８９號三樓","E_COORD97":173091.67000000001,"N_COORD97":2539558.5,"ADDRESS":"北保一街８９號三樓","OBJECTID":592070},"geometry":{"x":173091.67000000086,"y":2539558.5}},{"attributes":{"ID":592098,"DIS_CODE":0,"TOWNNAME":"仁德區","LI":"新田里","LIN":"11鄰","STREET":"北保一街","SECT":" ","MAREA":" ","LANE":" ","ALLEY":" ","HOUSE_NO":"８３號七樓","E_COORD97":173083.23000000001,"N_COORD97":2539548.75,"ADDRESS":"北保一街８３號七樓","OBJECTID":592071},"geometry":{"x":173083.23000000138,"y":2539548.7500000019}},{"attributes":{"ID":592099,"DIS_CODE":0,"TOWNNAME":"仁德區","LI":"新田里","LIN":"11鄰","STREET":"北保一街","SECT":" ","MAREA":" ","LANE":" ","ALLEY":" ","HOUSE_NO":"９１號三樓","E_COORD97":173094.59,"N_COORD97":2539562.25,"ADDRESS":"北保一街９１號三樓","OBJECTID":592072},"geometry":{"x":173094.58999999892,"y":2539562.2500000019}},{"attributes":{"ID":592100,"DIS_CODE":0,"TOWNNAME":"仁德區","LI":"新田里","LIN":"11鄰","STREET":"北保一街","SECT":" ","MAREA":" ","LANE":" ","ALLEY":" ","HOUSE_NO":"７５號一樓","E_COORD97":173100.03,"N_COORD97":2539537.25,"ADDRESS":"北保一街７５號一樓","OBJECTID":592073},"geometry":{"x":173100.03000000026,"y":2539537.2500000037}},{"attributes":{"ID":592101,"DIS_CODE":0,"TOWNNAME":"仁德區","LI":"保安里","LIN":"11鄰","STREET":"文賢二街","SECT":" ","MAREA":" ","LANE":" ","ALLEY":" ","HOUSE_NO":"２４號","E_COORD97":171642.04999999999,"N_COORD97":2536100.5699999998,"ADDRESS":"文賢二街２４號","OBJECTID":592074},"geometry":{"x":171642.04999999888,"y":2536100.5699999984}},{"attributes":{"ID":592102,"DIS_CODE":0,"TOWNNAME":"永康區","LI":"龍潭里","LIN":"11鄰","STREET":"龍橋街","SECT":" ","MAREA":" ","LANE":" ","ALLEY":" ","HOUSE_NO":"２１號","E_COORD97":174841.87,"N_COORD97":2548334.9500000002,"ADDRESS":"龍橋街２１號","OBJECTID":592075},"geometry":{"x":174841.87000000011,"y":2548334.9499999993}},{"attributes":{"ID":592103,"DIS_CODE":0,"TOWNNAME":"永康區","LI":"龍潭里","LIN":"11鄰","STREET":"龍橋街","SECT":" ","MAREA":" ","LANE":" ","ALLEY":" ","HOUSE_NO":"１７號","E_COORD97":174848.31,"N_COORD97":2548325.9300000002,"ADDRESS":"龍橋街１７號","OBJECTID":592076},"geometry":{"x":174848.30999999959,"y":2548325.9299999997}},{"attributes":{"ID":592104,"DIS_CODE":0,"TOWNNAME":"永康區","LI":"復華里","LIN":"11鄰","STREET":"復國二路","SECT":" ","MAREA":" ","LANE":" ","ALLEY":" ","HOUSE_NO":"２３９號","E_COORD97":173002.98999999999,"N_COORD97":2546078.2599999998,"ADDRESS":"復國二路２３９號","OBJECTID":592077},"geometry":{"x":173002.99000000115,"y":2546078.2600000016}},{"attributes":{"ID":592105,"DIS_CODE":0,"TOWNNAME":"永康區","LI":"龍潭里","LIN":"11鄰","STREET":"龍橋街","SECT":" ","MAREA":" ","LANE":" ","ALLEY":" ","HOUSE_NO":"１５號","E_COORD97":174848.10000000001,"N_COORD97":2548315.9199999999,"ADDRESS":"龍橋街１５號","OBJECTID":592078},"geometry":{"x":174848.09999999963,"y":2548315.9199999999}},{"attributes":{"ID":592106,"DIS_CODE":0,"TOWNNAME":"永康區","LI":"復興里","LIN":"11鄰","STREET":"復興路","SECT":" ","MAREA":" ","LANE":" ","ALLEY":" ","HOUSE_NO":"３６４號","E_COORD97":172197.29000000001,"N_COORD97":2544367.4700000002,"ADDRESS":"復興路３６４號","OBJECTID":592079},"geometry":{"x":172197.29000000097,"y":2544367.4700000044}},{"attributes":{"ID":592107,"DIS_CODE":0,"TOWNNAME":"永康區","LI":"復興里","LIN":"11鄰","STREET":"復興路","SECT":" ","MAREA":" ","LANE":" ","ALLEY":" ","HOUSE_NO":"３４６號","E_COORD97":172239.95999999999,"N_COORD97":2544342.8700000001,"ADDRESS":"復興路３４６號","OBJECTID":592080},"geometry":{"x":172239.96000000089,"y":2544342.8700000029}},{"attributes":{"ID":592108,"DIS_CODE":0,"TOWNNAME":"永康區","LI":"二王里","LIN":"11鄰","STREET":"永二街","SECT":" ","MAREA":" ","LANE":" ","ALLEY":" ","HOUSE_NO":"３８９號","E_COORD97":172930.23999999999,"N_COORD97":2546629.6200000001,"ADDRESS":"永二街３８９號","OBJECTID":592081},"geometry":{"x":172930.24000000115,"y":2546629.6200000029}},{"attributes":{"ID":592109,"DIS_CODE":0,"TOWNNAME":"永康區","LI":"大灣里","LIN":"11鄰","STREET":"大灣路","SECT":" ","MAREA":" ","LANE":" ","ALLEY":" ","HOUSE_NO":"２１２號","E_COORD97":175009.17999999999,"N_COORD97":2545412.7000000002,"ADDRESS":"大灣路２１２號","OBJECTID":592082},"geometry":{"x":175009.1799999997,"y":2545412.7000000011}},{"attributes":{"ID":592110,"DIS_CODE":0,"TOWNNAME":"永康區","LI":"大橋里","LIN":"11鄰","STREET":"大橋二街","SECT":" ","MAREA":" ","LANE":" ","ALLEY":" ","HOUSE_NO":"１６３號","E_COORD97":170945.45000000001,"N_COORD97":2546697.2400000002,"ADDRESS":"大橋二街１６３號","OBJECTID":592083},"geometry":{"x":170945.45000000112,"y":2546697.2400000002}},{"attributes":{"ID":592111,"DIS_CODE":0,"TOWNNAME":"永康區","LI":"大橋里","LIN":"11鄰","STREET":"大橋二街","SECT":" ","MAREA":" ","LANE":" ","ALLEY":" ","HOUSE_NO":"１７９號","E_COORD97":170973.56,"N_COORD97":2546715.5,"ADDRESS":"大橋二街１７９號","OBJECTID":592084},"geometry":{"x":170973.55999999959,"y":2546715.5}},{"attributes":{"ID":592112,"DIS_CODE":0,"TOWNNAME":"永康區","LI":"大橋里","LIN":"11鄰","STREET":"大橋二街","SECT":" ","MAREA":" ","LANE":" ","ALLEY":" ","HOUSE_NO":"１９５號","E_COORD97":171001.85999999999,"N_COORD97":2546735.5600000001,"ADDRESS":"大橋二街１９５號","OBJECTID":592085},"geometry":{"x":171001.86000000127,"y":2546735.5600000005}},{"attributes":{"ID":592113,"DIS_CODE":0,"TOWNNAME":"永康區","LI":"大橋里","LIN":"11鄰","STREET":"大橋二街","SECT":" ","MAREA":" ","LANE":" ","ALLEY":" ","HOUSE_NO":"１７７號","E_COORD97":170970.20999999999,"N_COORD97":2546712.9900000002,"ADDRESS":"大橋二街１７７號","OBJECTID":592086},"geometry":{"x":170970.21000000089,"y":2546712.9900000039}},{"attributes":{"ID":592114,"DIS_CODE":0,"TOWNNAME":"永康區","LI":"大橋里","LIN":"11鄰","STREET":"大橋二街","SECT":" ","MAREA":" ","LANE":" ","ALLEY":" ","HOUSE_NO":"１９１號","E_COORD97":170994.01000000001,"N_COORD97":2546729.5,"ADDRESS":"大橋二街１９１號","OBJECTID":592087},"geometry":{"x":170994.00999999978,"y":2546729.4999999981}},{"attributes":{"ID":592115,"DIS_CODE":0,"TOWNNAME":"東區","LI":"崇德里","LIN":"11鄰","STREET":"崇德十一街","SECT":" ","MAREA":" ","LANE":" ","ALLEY":" ","HOUSE_NO":"５９號","E_COORD97":170977.63,"N_COORD97":2541485.7200000002,"ADDRESS":"崇德十一街５９號","OBJECTID":592088},"geometry":{"x":170977.63000000082,"y":2541485.7200000025}},{"attributes":{"ID":592116,"DIS_CODE":0,"TOWNNAME":"東區","LI":"崇德里","LIN":"11鄰","STREET":"崇德十一街","SECT":" ","MAREA":" ","LANE":" ","ALLEY":" ","HOUSE_NO":"５７號","E_COORD97":170967.98999999999,"N_COORD97":2541482.5099999998,"ADDRESS":"崇德十一街５７號","OBJECTID":592089},"geometry":{"x":170967.99000000022,"y":2541482.5100000016}},{"attributes":{"ID":592117,"DIS_CODE":0,"TOWNNAME":"東區","LI":"泉南里","LIN":"11鄰","STREET":"樹林街","SECT":"一段","MAREA":" ","LANE":" ","ALLEY":" ","HOUSE_NO":"２７號","E_COORD97":169642.79000000001,"N_COORD97":2542910.5299999998,"ADDRESS":"樹林街一段２７號","OBJECTID":592090},"geometry":{"x":169642.79000000097,"y":2542910.5299999993}},{"attributes":{"ID":592118,"DIS_CODE":0,"TOWNNAME":"東區","LI":"泉南里","LIN":"11鄰","STREET":"樹林街","SECT":"一段","MAREA":" ","LANE":" ","ALLEY":" ","HOUSE_NO":"３５號","E_COORD97":169615.45999999999,"N_COORD97":2542914.1200000001,"ADDRESS":"樹林街一段３５號","OBJECTID":592091},"geometry":{"x":169615.46000000183,"y":2542914.1200000029}},{"attributes":{"ID":592119,"DIS_CODE":0,"TOWNNAME":"永康區","LI":"大橋里","LIN":"11鄰","STREET":"大橋二街","SECT":" ","MAREA":" ","LANE":" ","ALLEY":" ","HOUSE_NO":"１９７號","E_COORD97":171005.85000000001,"N_COORD97":2546736.75,"ADDRESS":"大橋二街１９７號","OBJECTID":592092},"geometry":{"x":171005.85000000149,"y":2546736.75}},{"attributes":{"ID":592120,"DIS_CODE":0,"TOWNNAME":"永康區","LI":"大橋里","LIN":"11鄰","STREET":"大橋二街","SECT":" ","MAREA":" ","LANE":" ","ALLEY":" ","HOUSE_NO":"１８７號","E_COORD97":170987.04999999999,"N_COORD97":2546725,"ADDRESS":"大橋二街１８７號","OBJECTID":592093},"geometry":{"x":170987.04999999981,"y":2546725}},{"attributes":{"ID":592121,"DIS_CODE":0,"TOWNNAME":"永康區","LI":"大橋里","LIN":"11鄰","STREET":"大橋二街","SECT":" ","MAREA":" ","LANE":" ","ALLEY":" ","HOUSE_NO":"１３９號之２","E_COORD97":170894.95000000001,"N_COORD97":2546663.79,"ADDRESS":"大橋二街１３９號之２","OBJECTID":592094},"geometry":{"x":170894.95000000019,"y":2546663.790000001}},{"attributes":{"ID":592122,"DIS_CODE":0,"TOWNNAME":"永康區","LI":"三民里","LIN":"11鄰","STREET":"和平路","SECT":" ","MAREA":" ","LANE":" ","ALLEY":" ","HOUSE_NO":"２５２號","E_COORD97":174750.85000000001,"N_COORD97":2550786.25,"ADDRESS":"和平路２５２號","OBJECTID":592095},"geometry":{"x":174750.85000000056,"y":2550786.2500000037}},{"attributes":{"ID":592123,"DIS_CODE":0,"TOWNNAME":"永康區","LI":"大灣里","LIN":"11鄰","STREET":"大灣路","SECT":" ","MAREA":" ","LANE":" ","ALLEY":" ","HOUSE_NO":"２３２號","E_COORD97":175602.95999999999,"N_COORD97":2549846.02,"ADDRESS":"大灣路２３２號","OBJECTID":592096},"geometry":{"x":175602.96000000183,"y":2549846.0200000014}},{"attributes":{"ID":592124,"DIS_CODE":0,"TOWNNAME":"永康區","LI":"大橋里","LIN":"11鄰","STREET":"大橋二街","SECT":" ","MAREA":" ","LANE":" ","ALLEY":" ","HOUSE_NO":"１７５號","E_COORD97":170966.56,"N_COORD97":2546710.9900000002,"ADDRESS":"大橋二街１７５號","OBJECTID":592097},"geometry":{"x":170966.55999999959,"y":2546710.9900000021}},{"attributes":{"ID":592125,"DIS_CODE":0,"TOWNNAME":"永康區","LI":"大橋里","LIN":"11鄰","STREET":"大橋二街","SECT":" ","MAREA":" ","LANE":" ","ALLEY":" ","HOUSE_NO":"１６７號","E_COORD97":170952.45999999999,"N_COORD97":2546701.7400000002,"ADDRESS":"大橋二街１６７號","OBJECTID":592098},"geometry":{"x":170952.45999999996,"y":2546701.7400000021}},{"attributes":{"ID":592126,"DIS_CODE":0,"TOWNNAME":"仁德區","LI":"仁義里","LIN":"11鄰","STREET":"中山路","SECT":" ","MAREA":" ","LANE":" ","ALLEY":" ","HOUSE_NO":"５７１號","E_COORD97":173388.42999999999,"N_COORD97":2541307.2400000002,"ADDRESS":"中山路５７１號","OBJECTID":592099},"geometry":{"x":173388.4299999997,"y":2541307.2400000039}},{"attributes":{"ID":592127,"DIS_CODE":0,"TOWNNAME":"仁德區","LI":"仁義里","LIN":"11鄰","STREET":"中山路","SECT":" ","MAREA":" ","LANE":" ","ALLEY":" ","HOUSE_NO":"６１９號","E_COORD97":173296.70999999999,"N_COORD97":2541319.2400000002,"ADDRESS":"中山路６１９號","OBJECTID":592100},"geometry":{"x":173296.70999999996,"y":2541319.2400000002}},{"attributes":{"ID":592128,"DIS_CODE":0,"TOWNNAME":"仁德區","LI":"仁義里","LIN":"11鄰","STREET":"中山路","SECT":" ","MAREA":" ","LANE":" ","ALLEY":" ","HOUSE_NO":"５８７號","E_COORD97":173357.34,"N_COORD97":2541290.9900000002,"ADDRESS":"中山路５８７號","OBJECTID":592101},"geometry":{"x":173357.33999999892,"y":2541290.9900000002}},{"attributes":{"ID":592129,"DIS_CODE":0,"TOWNNAME":"善化區","LI":"北關里","LIN":"11鄰","STREET":"文正路","SECT":" ","MAREA":" ","LANE":" ","ALLEY":" ","HOUSE_NO":"１６號之１","E_COORD97":177189.06,"N_COORD97":2559330.6099999999,"ADDRESS":"文正路１６號之１","OBJECTID":592102},"geometry":{"x":177189.06000000052,"y":2559330.6100000031}},{"attributes":{"ID":592130,"DIS_CODE":0,"TOWNNAME":"善化區","LI":"文正里","LIN":"11鄰","STREET":"光復路","SECT":" ","MAREA":" ","LANE":" ","ALLEY":" ","HOUSE_NO":"８１０號","E_COORD97":176843.57999999999,"N_COORD97":2559486.1499999999,"ADDRESS":"光復路８１０號","OBJECTID":592103},"geometry":{"x":176843.58000000101,"y":2559486.1500000004}},{"attributes":{"ID":592131,"DIS_CODE":0,"TOWNNAME":"善化區","LI":"文正里","LIN":"11鄰","STREET":"光復路","SECT":" ","MAREA":" ","LANE":" ","ALLEY":" ","HOUSE_NO":"８１２號","E_COORD97":176844.41,"N_COORD97":2559490.5499999998,"ADDRESS":"光復路８１２號","OBJECTID":592104},"geometry":{"x":176844.41000000201,"y":2559490.5500000007}},{"attributes":{"ID":592132,"DIS_CODE":0,"TOWNNAME":"善化區","LI":"文正里","LIN":"11鄰","STREET":"光復路","SECT":" ","MAREA":" ","LANE":" ","ALLEY":" ","HOUSE_NO":"８１６號","E_COORD97":176845.45000000001,"N_COORD97":2559495.48,"ADDRESS":"光復路８１６號","OBJECTID":592105},"geometry":{"x":176845.45000000019,"y":2559495.4800000023}},{"attributes":{"ID":592133,"DIS_CODE":0,"TOWNNAME":"善化區","LI":"文正里","LIN":"11鄰","STREET":"光復路","SECT":" ","MAREA":" ","LANE":" ","ALLEY":" ","HOUSE_NO":"８１８號","E_COORD97":176846.29000000001,"N_COORD97":2559499.98,"ADDRESS":"光復路８１８號","OBJECTID":592106},"geometry":{"x":176846.29000000004,"y":2559499.9800000023}},{"attributes":{"ID":592134,"DIS_CODE":0,"TOWNNAME":"善化區","LI":"文正里","LIN":"11鄰","STREET":"光復路","SECT":" ","MAREA":" ","LANE":" ","ALLEY":" ","HOUSE_NO":"８５０號","E_COORD97":176856.88,"N_COORD97":2559548.6499999999,"ADDRESS":"光復路８５０號","OBJECTID":592107},"geometry":{"x":176856.88000000082,"y":2559548.6500000022}},{"attributes":{"ID":592135,"DIS_CODE":0,"TOWNNAME":"善化區","LI":"文正里","LIN":"11鄰","STREET":"光復路","SECT":" ","MAREA":" ","LANE":" ","ALLEY":" ","HOUSE_NO":"８５２號","E_COORD97":176859.45999999999,"N_COORD97":2559553.1699999999,"ADDRESS":"光復路８５２號","OBJECTID":592108},"geometry":{"x":176859.46000000089,"y":2559553.1699999999}},{"attributes":{"ID":592136,"DIS_CODE":0,"TOWNNAME":"善化區","LI":"文正里","LIN":"11鄰","STREET":"光復路","SECT":" ","MAREA":" ","LANE":" ","ALLEY":" ","HOUSE_NO":"８５６號","E_COORD97":176862.12,"N_COORD97":2559557.5499999998,"ADDRESS":"光復路８５６號","OBJECTID":592109},"geometry":{"x":176862.12000000104,"y":2559557.5500000026}},{"attributes":{"ID":592137,"DIS_CODE":0,"TOWNNAME":"善化區","LI":"文正里","LIN":"11鄰","STREET":"光復路","SECT":" ","MAREA":" ","LANE":" ","ALLEY":" ","HOUSE_NO":"８５８號","E_COORD97":176864.73999999999,"N_COORD97":2559561.6899999999,"ADDRESS":"光復路８５８號","OBJECTID":592110},"geometry":{"x":176864.74000000115,"y":2559561.6900000013}},{"attributes":{"ID":592138,"DIS_CODE":0,"TOWNNAME":"善化區","LI":"文正里","LIN":"11鄰","STREET":"光復路","SECT":" ","MAREA":" ","LANE":" ","ALLEY":" ","HOUSE_NO":"８６０號","E_COORD97":176867.14000000001,"N_COORD97":2559566.1299999999,"ADDRESS":"光復路８６０號","OBJECTID":592111},"geometry":{"x":176867.13999999966,"y":2559566.129999999}},{"attributes":{"ID":592139,"DIS_CODE":0,"TOWNNAME":"善化區","LI":"文正里","LIN":"11鄰","STREET":"光復路","SECT":" ","MAREA":" ","LANE":" ","ALLEY":" ","HOUSE_NO":"８６２號","E_COORD97":176869.48000000001,"N_COORD97":2559570.1099999999,"ADDRESS":"光復路８６２號","OBJECTID":592112},"geometry":{"x":176869.48000000231,"y":2559570.1099999994}},{"attributes":{"ID":592140,"DIS_CODE":0,"TOWNNAME":"善化區","LI":"文正里","LIN":"11鄰","STREET":"光復路","SECT":" ","MAREA":" ","LANE":" ","ALLEY":" ","HOUSE_NO":"８６６號","E_COORD97":176872.13,"N_COORD97":2559574.3700000001,"ADDRESS":"光復路８６６號","OBJECTID":592113},"geometry":{"x":176872.13000000082,"y":2559574.3699999992}},{"attributes":{"ID":592141,"DIS_CODE":0,"TOWNNAME":"善化區","LI":"文正里","LIN":"11鄰","STREET":"光復路","SECT":" ","MAREA":" ","LANE":" ","ALLEY":" ","HOUSE_NO":"８６８號","E_COORD97":176874.29999999999,"N_COORD97":2559578.9300000002,"ADDRESS":"光復路８６８號","OBJECTID":592114},"geometry":{"x":176874.30000000075,"y":2559578.9299999997}},{"attributes":{"ID":592142,"DIS_CODE":0,"TOWNNAME":"善化區","LI":"文正里","LIN":"11鄰","STREET":"光復路","SECT":" ","MAREA":" ","LANE":" ","ALLEY":" ","HOUSE_NO":"８７０號","E_COORD97":176876.79999999999,"N_COORD97":2559582.96,"ADDRESS":"光復路８７０號","OBJECTID":592115},"geometry":{"x":176876.79999999888,"y":2559582.9600000009}},{"attributes":{"ID":592143,"DIS_CODE":0,"TOWNNAME":"善化區","LI":"文正里","LIN":"11鄰","STREET":"光復路","SECT":" ","MAREA":" ","LANE":" ","ALLEY":" ","HOUSE_NO":"８７２號","E_COORD97":176879.51999999999,"N_COORD97":2559587.6600000001,"ADDRESS":"光復路８７２號","OBJECTID":592116},"geometry":{"x":176879.51999999955,"y":2559587.6600000001}},{"attributes":{"ID":592144,"DIS_CODE":0,"TOWNNAME":"善化區","LI":"小新里","LIN":"11鄰","STREET":"陽光三路","SECT":" ","MAREA":" ","LANE":" ","ALLEY":" ","HOUSE_NO":"３２２號","E_COORD97":179304.53,"N_COORD97":2557465.7200000002,"ADDRESS":"陽光三路３２２號","OBJECTID":592117},"geometry":{"x":179304.53000000026,"y":2557465.7200000007}},{"attributes":{"ID":592145,"DIS_CODE":0,"TOWNNAME":"善化區","LI":"小新里","LIN":"11鄰","STREET":"陽光大道","SECT":" ","MAREA":" ","LANE":" ","ALLEY":" ","HOUSE_NO":"１７１號","E_COORD97":179042.22,"N_COORD97":2556709.5299999998,"ADDRESS":"陽光大道１７１號","OBJECTID":592118},"geometry":{"x":179042.2200000016,"y":2556709.5299999993}},{"attributes":{"ID":592146,"DIS_CODE":0,"TOWNNAME":"善化區","LI":"小新里","LIN":"11鄰","STREET":"陽光大道","SECT":" ","MAREA":" ","LANE":" ","ALLEY":" ","HOUSE_NO":"１７３號","E_COORD97":179042.64999999999,"N_COORD97":2556718.6600000001,"ADDRESS":"陽光大道１７３號","OBJECTID":592119},"geometry":{"x":179042.65000000037,"y":2556718.6600000001}},{"attributes":{"ID":592147,"DIS_CODE":0,"TOWNNAME":"善化區","LI":"小新里","LIN":"11鄰","STREET":"陽光大道","SECT":" ","MAREA":" ","LANE":" ","ALLEY":" ","HOUSE_NO":"１７５號","E_COORD97":179022.60000000001,"N_COORD97":2556713.6800000002,"ADDRESS":"陽光大道１７５號","OBJECTID":592120},"geometry":{"x":179022.60000000056,"y":2556713.6800000016}},{"attributes":{"ID":592148,"DIS_CODE":0,"TOWNNAME":"善化區","LI":"小新里","LIN":"11鄰","STREET":"陽光大道","SECT":" ","MAREA":" ","LANE":" ","ALLEY":" ","HOUSE_NO":"１７７號","E_COORD97":179030.64999999999,"N_COORD97":2556725.1800000002,"ADDRESS":"陽光大道１７７號","OBJECTID":592121},"geometry":{"x":179030.65000000037,"y":2556725.1799999997}},{"attributes":{"ID":592149,"DIS_CODE":0,"TOWNNAME":"善化區","LI":"小新里","LIN":"11鄰","STREET":"陽光大道","SECT":" ","MAREA":" ","LANE":" ","ALLEY":" ","HOUSE_NO":"１７９號","E_COORD97":179028.89999999999,"N_COORD97":2556732.3999999999,"ADDRESS":"陽光大道１７９號","OBJECTID":592122},"geometry":{"x":179028.90000000037,"y":2556732.4000000041}},{"attributes":{"ID":592150,"DIS_CODE":0,"TOWNNAME":"善化區","LI":"小新里","LIN":"11鄰","STREET":"陽光大道","SECT":" ","MAREA":" ","LANE":" ","ALLEY":" ","HOUSE_NO":"１８１號","E_COORD97":179024.29000000001,"N_COORD97":2556736.96,"ADDRESS":"陽光大道１８１號","OBJECTID":592123},"geometry":{"x":179024.29000000004,"y":2556736.9600000028}},{"attributes":{"ID":592151,"DIS_CODE":0,"TOWNNAME":"善化區","LI":"小新里","LIN":"11鄰","STREET":"陽光大道","SECT":" ","MAREA":" ","LANE":" ","ALLEY":" ","HOUSE_NO":"１８３號","E_COORD97":179021.26000000001,"N_COORD97":2556741.5600000001,"ADDRESS":"陽光大道１８３號","OBJECTID":592124},"geometry":{"x":179021.25999999978,"y":2556741.5599999987}},{"attributes":{"ID":592152,"DIS_CODE":0,"TOWNNAME":"善化區","LI":"小新里","LIN":"11鄰","STREET":"陽光大道","SECT":" ","MAREA":" ","LANE":" ","ALLEY":" ","HOUSE_NO":"１８５號","E_COORD97":179018.29000000001,"N_COORD97":2556746.2000000002,"ADDRESS":"陽光大道１８５號","OBJECTID":592125},"geometry":{"x":179018.2900000019,"y":2556746.200000003}},{"attributes":{"ID":592153,"DIS_CODE":0,"TOWNNAME":"善化區","LI":"小新里","LIN":"11鄰","STREET":"陽光大道","SECT":" ","MAREA":" ","LANE":" ","ALLEY":" ","HOUSE_NO":"１８７號","E_COORD97":179015.38,"N_COORD97":2556750.8700000001,"ADDRESS":"陽光大道１８７號","OBJECTID":592126},"geometry":{"x":179015.37999999989,"y":2556750.8700000029}},{"attributes":{"ID":592154,"DIS_CODE":0,"TOWNNAME":"善化區","LI":"小新里","LIN":"11鄰","STREET":"陽光大道","SECT":" ","MAREA":" ","LANE":" ","ALLEY":" ","HOUSE_NO":"１８９號","E_COORD97":179012.53,"N_COORD97":2556755.5800000001,"ADDRESS":"陽光大道１８９號","OBJECTID":592127},"geometry":{"x":179012.53000000119,"y":2556755.5800000019}},{"attributes":{"ID":592155,"DIS_CODE":0,"TOWNNAME":"善化區","LI":"小新里","LIN":"11鄰","STREET":"陽光大道","SECT":" ","MAREA":" ","LANE":" ","ALLEY":" ","HOUSE_NO":"１９１號","E_COORD97":179009.73999999999,"N_COORD97":2556760.3199999998,"ADDRESS":"陽光大道１９１號","OBJECTID":592128},"geometry":{"x":179009.74000000022,"y":2556760.3200000022}},{"attributes":{"ID":592156,"DIS_CODE":0,"TOWNNAME":"善化區","LI":"小新里","LIN":"11鄰","STREET":"陽光大道","SECT":" ","MAREA":" ","LANE":" ","ALLEY":" ","HOUSE_NO":"１９３號","E_COORD97":179007,"N_COORD97":2556765.0899999999,"ADDRESS":"陽光大道１９３號","OBJECTID":592129},"geometry":{"x":179007.00000000093,"y":2556765.0900000017}},{"attributes":{"ID":592157,"DIS_CODE":0,"TOWNNAME":"善化區","LI":"小新里","LIN":"11鄰","STREET":"陽光大道","SECT":" ","MAREA":" ","LANE":" ","ALLEY":" ","HOUSE_NO":"１９５號","E_COORD97":179004.32000000001,"N_COORD97":2556769.8900000001,"ADDRESS":"陽光大道１９５號","OBJECTID":592130},"geometry":{"x":179004.3200000003,"y":2556769.8899999987}},{"attributes":{"ID":592158,"DIS_CODE":0,"TOWNNAME":"善化區","LI":"小新里","LIN":"11鄰","STREET":"陽光大道","SECT":" ","MAREA":" ","LANE":" ","ALLEY":" ","HOUSE_NO":"１９７號","E_COORD97":179001.53,"N_COORD97":2556778.3300000001,"ADDRESS":"陽光大道１９７號","OBJECTID":592131},"geometry":{"x":179001.53000000212,"y":2556778.3300000019}},{"attributes":{"ID":592159,"DIS_CODE":0,"TOWNNAME":"善化區","LI":"小新里","LIN":"11鄰","STREET":"陽光三路","SECT":" ","MAREA":" ","LANE":" ","ALLEY":" ","HOUSE_NO":"３２０號","E_COORD97":179304.290779,"N_COORD97":2557460.8359900001,"ADDRESS":"陽光三路３２０號","OBJECTID":592132},"geometry":{"x":179304.29077900015,"y":2557460.8359929994}},{"attributes":{"ID":592160,"DIS_CODE":0,"TOWNNAME":"善化區","LI":"小新里","LIN":"11鄰","STREET":"陽光三路","SECT":" ","MAREA":" ","LANE":" ","ALLEY":" ","HOUSE_NO":"３２６號","E_COORD97":179304.60849899999,"N_COORD97":2557472.6893199999,"ADDRESS":"陽光三路３２６號","OBJECTID":592133},"geometry":{"x":179304.60849899985,"y":2557472.6893199999}},{"attributes":{"ID":592161,"DIS_CODE":0,"TOWNNAME":"善化區","LI":"小新里","LIN":"11鄰","STREET":"陽光三路","SECT":" ","MAREA":" ","LANE":" ","ALLEY":" ","HOUSE_NO":"３３０號","E_COORD97":179305.13803100001,"N_COORD97":2557484.64848,"ADDRESS":"陽光三路３３０號","OBJECTID":592134},"geometry":{"x":179305.13803099934,"y":2557484.6484810002}},{"attributes":{"ID":592162,"DIS_CODE":0,"TOWNNAME":"善化區","LI":"小新里","LIN":"11鄰","STREET":"陽光三路","SECT":" ","MAREA":" ","LANE":" ","ALLEY":" ","HOUSE_NO":"３３２號","E_COORD97":179305.45574999999,"N_COORD97":2557490.6809800002,"ADDRESS":"陽光三路３３２號","OBJECTID":592135},"geometry":{"x":179305.45574999973,"y":2557490.6809770018}},{"attributes":{"ID":592163,"DIS_CODE":0,"TOWNNAME":"善化區","LI":"小新里","LIN":"11鄰","STREET":"蓮潭南街","SECT":" ","MAREA":" ","LANE":" ","ALLEY":" ","HOUSE_NO":"２５１號","E_COORD97":178982.5,"N_COORD97":2556755.7000000002,"ADDRESS":"蓮潭南街２５１號","OBJECTID":592136},"geometry":{"x":178982.5,"y":2556755.6999999993}},{"attributes":{"ID":592164,"DIS_CODE":0,"TOWNNAME":"善化區","LI":"小新里","LIN":"11鄰","STREET":"蓮潭南街","SECT":" ","MAREA":" ","LANE":" ","ALLEY":" ","HOUSE_NO":"２５３號","E_COORD97":178972.07000000001,"N_COORD97":2556757.2000000002,"ADDRESS":"蓮潭南街２５３號","OBJECTID":592137},"geometry":{"x":178972.0700000003,"y":2556757.2000000011}},{"attributes":{"ID":592165,"DIS_CODE":0,"TOWNNAME":"善化區","LI":"小新里","LIN":"11鄰","STREET":"蓮潭南街","SECT":" ","MAREA":" ","LANE":" ","ALLEY":" ","HOUSE_NO":"２５９號","E_COORD97":178959.63,"N_COORD97":2556745.1299999999,"ADDRESS":"蓮潭南街２５９號","OBJECTID":592138},"geometry":{"x":178959.62999999989,"y":2556745.129999999}},{"attributes":{"ID":592166,"DIS_CODE":0,"TOWNNAME":"善化區","LI":"小新里","LIN":"11鄰","STREET":"蓮潭南街","SECT":" ","MAREA":" ","LANE":" ","ALLEY":" ","HOUSE_NO":"２６１號","E_COORD97":178954.42000000001,"N_COORD97":2556742.1400000001,"ADDRESS":"蓮潭南街２６１號","OBJECTID":592139},"geometry":{"x":178954.42000000179,"y":2556742.1400000025}},{"attributes":{"ID":592167,"DIS_CODE":0,"TOWNNAME":"善化區","LI":"小新里","LIN":"11鄰","STREET":"蓮潭南街","SECT":" ","MAREA":" ","LANE":" ","ALLEY":" ","HOUSE_NO":"２６３號","E_COORD97":178945.28,"N_COORD97":2556743.46,"ADDRESS":"蓮潭南街２６３號","OBJECTID":592140},"geometry":{"x":178945.28000000026,"y":2556743.4600000028}},{"attributes":{"ID":592168,"DIS_CODE":0,"TOWNNAME":"善化區","LI":"小新里","LIN":"11鄰","STREET":"蓮潭南街","SECT":" ","MAREA":" ","LANE":" ","ALLEY":" ","HOUSE_NO":"２６５號","E_COORD97":178940.94,"N_COORD97":2556741,"ADDRESS":"蓮潭南街２６５號","OBJECTID":592141},"geometry":{"x":178940.94000000041,"y":2556741}},{"attributes":{"ID":592169,"DIS_CODE":0,"TOWNNAME":"善化區","LI":"小新里","LIN":"11鄰","STREET":"蓮潭南街","SECT":" ","MAREA":" ","LANE":" ","ALLEY":" ","HOUSE_NO":"２６７號","E_COORD97":178935.66,"N_COORD97":2556738.1299999999,"ADDRESS":"蓮潭南街２６７號","OBJECTID":592142},"geometry":{"x":178935.66000000015,"y":2556738.129999999}},{"attributes":{"ID":592170,"DIS_CODE":0,"TOWNNAME":"善化區","LI":"小新里","LIN":"11鄰","STREET":"蓮潭南街","SECT":" ","MAREA":" ","LANE":" ","ALLEY":" ","HOUSE_NO":"２６９號","E_COORD97":178929.45000000001,"N_COORD97":2556735.75,"ADDRESS":"蓮潭南街２６９號","OBJECTID":592143},"geometry":{"x":178929.45000000112,"y":2556735.75}},{"attributes":{"ID":592171,"DIS_CODE":0,"TOWNNAME":"善化區","LI":"小新里","LIN":"11鄰","STREET":"蓮潭南街","SECT":" ","MAREA":" ","LANE":" ","ALLEY":" ","HOUSE_NO":"２７１號","E_COORD97":178927.79999999999,"N_COORD97":2556719.23,"ADDRESS":"蓮潭南街２７１號","OBJECTID":592144},"geometry":{"x":178927.79999999981,"y":2556719.2300000004}},{"attributes":{"ID":592172,"DIS_CODE":0,"TOWNNAME":"善化區","LI":"小新里","LIN":"11鄰","STREET":"蓮潭南街","SECT":" ","MAREA":" ","LANE":" ","ALLEY":" ","HOUSE_NO":"２７３號","E_COORD97":178913.88,"N_COORD97":2556732.3999999999,"ADDRESS":"蓮潭南街２７３號","OBJECTID":592145},"geometry":{"x":178913.87999999989,"y":2556732.4000000041}},{"attributes":{"ID":592173,"DIS_CODE":0,"TOWNNAME":"善化區","LI":"小新里","LIN":"11鄰","STREET":"蓮潭南街","SECT":" ","MAREA":" ","LANE":" ","ALLEY":" ","HOUSE_NO":"２７９號","E_COORD97":178889.69,"N_COORD97":2556726.4399999999,"ADDRESS":"蓮潭南街２７９號","OBJECTID":592146},"geometry":{"x":178889.69000000041,"y":2556726.4399999995}},{"attributes":{"ID":592174,"DIS_CODE":0,"TOWNNAME":"善化區","LI":"小新里","LIN":"11鄰","STREET":"陽光三路","SECT":" ","MAREA":" ","LANE":" ","ALLEY":" ","HOUSE_NO":"６８號","E_COORD97":179290.5,"N_COORD97":2556889.4900000002,"ADDRESS":"陽光三路６８號","OBJECTID":592147},"geometry":{"x":179290.50000000093,"y":2556889.4900000002}},{"attributes":{"ID":592175,"DIS_CODE":0,"TOWNNAME":"善化區","LI":"小新里","LIN":"11鄰","STREET":"陽光三路","SECT":" ","MAREA":" ","LANE":" ","ALLEY":" ","HOUSE_NO":"７０號","E_COORD97":179291.37,"N_COORD97":2556900.5,"ADDRESS":"陽光三路７０號","OBJECTID":592148},"geometry":{"x":179291.37000000104,"y":2556900.5}},{"attributes":{"ID":592176,"DIS_CODE":0,"TOWNNAME":"善化區","LI":"小新里","LIN":"11鄰","STREET":"陽光三路","SECT":" ","MAREA":" ","LANE":" ","ALLEY":" ","HOUSE_NO":"７２號","E_COORD97":179291.60000000001,"N_COORD97":2556908.8500000001,"ADDRESS":"陽光三路７２號","OBJECTID":592149},"geometry":{"x":179291.59999999963,"y":2556908.8500000015}},{"attributes":{"ID":592177,"DIS_CODE":0,"TOWNNAME":"善化區","LI":"小新里","LIN":"11鄰","STREET":"陽光三路","SECT":" ","MAREA":" ","LANE":" ","ALLEY":" ","HOUSE_NO":"７６號","E_COORD97":179291.73999999999,"N_COORD97":2556914.0800000001,"ADDRESS":"陽光三路７６號","OBJECTID":592150},"geometry":{"x":179291.74000000209,"y":2556914.0800000038}},{"attributes":{"ID":592178,"DIS_CODE":0,"TOWNNAME":"善化區","LI":"小新里","LIN":"11鄰","STREET":"陽光三路","SECT":" ","MAREA":" ","LANE":" ","ALLEY":" ","HOUSE_NO":"７８號","E_COORD97":179291.89000000001,"N_COORD97":2556919.2799999998,"ADDRESS":"陽光三路７８號","OBJECTID":592151},"geometry":{"x":179291.89000000153,"y":2556919.2800000012}},{"attributes":{"ID":592179,"DIS_CODE":0,"TOWNNAME":"善化區","LI":"小新里","LIN":"11鄰","STREET":"陽光三路","SECT":" ","MAREA":" ","LANE":" ","ALLEY":" ","HOUSE_NO":"８０號","E_COORD97":179292.03,"N_COORD97":2556924.4700000002,"ADDRESS":"陽光三路８０號","OBJECTID":592152},"geometry":{"x":179292.03000000119,"y":2556924.4700000007}},{"attributes":{"ID":592180,"DIS_CODE":0,"TOWNNAME":"善化區","LI":"小新里","LIN":"11鄰","STREET":"陽光三路","SECT":" ","MAREA":" ","LANE":" ","ALLEY":" ","HOUSE_NO":"８２號","E_COORD97":179292.17999999999,"N_COORD97":2556929.6699999999,"ADDRESS":"陽光三路８２號","OBJECTID":592153},"geometry":{"x":179292.18000000063,"y":2556929.6699999999}},{"attributes":{"ID":592181,"DIS_CODE":0,"TOWNNAME":"善化區","LI":"小新里","LIN":"11鄰","STREET":"陽光三路","SECT":" ","MAREA":" ","LANE":" ","ALLEY":" ","HOUSE_NO":"８６號","E_COORD97":179292.32000000001,"N_COORD97":2556934.8700000001,"ADDRESS":"陽光三路８６號","OBJECTID":592154},"geometry":{"x":179292.3200000003,"y":2556934.8700000029}},{"attributes":{"ID":592182,"DIS_CODE":0,"TOWNNAME":"善化區","LI":"小新里","LIN":"11鄰","STREET":"陽光三路","SECT":" ","MAREA":" ","LANE":" ","ALLEY":" ","HOUSE_NO":"９０號","E_COORD97":179292.60999999999,"N_COORD97":2556945.27,"ADDRESS":"陽光三路９０號","OBJECTID":592155},"geometry":{"x":179292.6100000022,"y":2556945.2699999996}},{"attributes":{"ID":592183,"DIS_CODE":0,"TOWNNAME":"善化區","LI":"小新里","LIN":"11鄰","STREET":"陽光三路","SECT":" ","MAREA":" ","LANE":" ","ALLEY":" ","HOUSE_NO":"９２號","E_COORD97":179292.76000000001,"N_COORD97":2556950.46,"ADDRESS":"陽光三路９２號","OBJECTID":592156},"geometry":{"x":179292.76000000164,"y":2556950.4600000028}},{"attributes":{"ID":592184,"DIS_CODE":0,"TOWNNAME":"善化區","LI":"小新里","LIN":"11鄰","STREET":"蓮潭南街","SECT":" ","MAREA":" ","LANE":" ","ALLEY":" ","HOUSE_NO":"３３１號","E_COORD97":178757.73000000001,"N_COORD97":2556715.3500000001,"ADDRESS":"蓮潭南街３３１號","OBJECTID":592157},"geometry":{"x":178757.73000000045,"y":2556715.3500000015}},{"attributes":{"ID":592185,"DIS_CODE":0,"TOWNNAME":"善化區","LI":"小新里","LIN":"11鄰","STREET":"蓮潭南街","SECT":" ","MAREA":" ","LANE":" ","ALLEY":" ","HOUSE_NO":"３３３號","E_COORD97":178752.76000000001,"N_COORD97":2556712.6400000001,"ADDRESS":"蓮潭南街３３３號","OBJECTID":592158},"geometry":{"x":178752.76000000071,"y":2556712.6400000006}},{"attributes":{"ID":592186,"DIS_CODE":0,"TOWNNAME":"善化區","LI":"小新里","LIN":"11鄰","STREET":"蓮潭南街","SECT":" ","MAREA":" ","LANE":" ","ALLEY":" ","HOUSE_NO":"３３５號","E_COORD97":178748.26000000001,"N_COORD97":2556712.7599999998,"ADDRESS":"蓮潭南街３３５號","OBJECTID":592159},"geometry":{"x":178748.25999999978,"y":2556712.7600000016}},{"attributes":{"ID":592187,"DIS_CODE":0,"TOWNNAME":"善化區","LI":"小新里","LIN":"11鄰","STREET":"蓮潭南街","SECT":" ","MAREA":" ","LANE":" ","ALLEY":" ","HOUSE_NO":"３３７號","E_COORD97":178742.97,"N_COORD97":2556716.71,"ADDRESS":"蓮潭南街３３７號","OBJECTID":592160},"geometry":{"x":178742.96999999974,"y":2556716.7100000009}},{"attributes":{"ID":592188,"DIS_CODE":0,"TOWNNAME":"善化區","LI":"小新里","LIN":"11鄰","STREET":"蓮潭南街","SECT":" ","MAREA":" ","LANE":" ","ALLEY":" ","HOUSE_NO":"３３９號","E_COORD97":178738.20000000001,"N_COORD97":2556714.9399999999,"ADDRESS":"蓮潭南街３３９號","OBJECTID":592161},"geometry":{"x":178738.20000000112,"y":2556714.9400000013}},{"attributes":{"ID":592189,"DIS_CODE":0,"TOWNNAME":"善化區","LI":"小新里","LIN":"11鄰","STREET":"蓮潭南街","SECT":" ","MAREA":" ","LANE":" ","ALLEY":" ","HOUSE_NO":"３４１號","E_COORD97":178732.70000000001,"N_COORD97":2556715.0899999999,"ADDRESS":"蓮潭南街３４１號","OBJECTID":592162},"geometry":{"x":178732.70000000112,"y":2556715.0900000017}},{"attributes":{"ID":592190,"DIS_CODE":0,"TOWNNAME":"善化區","LI":"小新里","LIN":"11鄰","STREET":"蓮潭南街","SECT":" ","MAREA":" ","LANE":" ","ALLEY":" ","HOUSE_NO":"３４３號","E_COORD97":178727.20000000001,"N_COORD97":2556715.25,"ADDRESS":"蓮潭南街３４３號","OBJECTID":592163},"geometry":{"x":178727.20000000019,"y":2556715.25}},{"attributes":{"ID":592191,"DIS_CODE":0,"TOWNNAME":"善化區","LI":"小新里","LIN":"11鄰","STREET":"蓮潭南街","SECT":" ","MAREA":" ","LANE":" ","ALLEY":" ","HOUSE_NO":"３４５號","E_COORD97":178721.70999999999,"N_COORD97":2556715.3999999999,"ADDRESS":"蓮潭南街３４５號","OBJECTID":592164},"geometry":{"x":178721.70999999996,"y":2556715.4000000041}},{"attributes":{"ID":592192,"DIS_CODE":0,"TOWNNAME":"善化區","LI":"小新里","LIN":"11鄰","STREET":"蓮潭南街","SECT":" ","MAREA":" ","LANE":" ","ALLEY":" ","HOUSE_NO":"３４７號","E_COORD97":178716.70000000001,"N_COORD97":2556712.3700000001,"ADDRESS":"蓮潭南街３４７號","OBJECTID":592165},"geometry":{"x":178716.70000000019,"y":2556712.370000001}},{"attributes":{"ID":592193,"DIS_CODE":0,"TOWNNAME":"善化區","LI":"小新里","LIN":"11鄰","STREET":"蓮潭南街","SECT":" ","MAREA":" ","LANE":" ","ALLEY":" ","HOUSE_NO":"３４９號","E_COORD97":178708.59,"N_COORD97":2556718.8799999999,"ADDRESS":"蓮潭南街３４９號","OBJECTID":592166},"geometry":{"x":178708.58999999985,"y":2556718.8800000008}},{"attributes":{"ID":592194,"DIS_CODE":0,"TOWNNAME":"善化區","LI":"小新里","LIN":"11鄰","STREET":"龍目井路","SECT":" ","MAREA":" ","LANE":" ","ALLEY":" ","HOUSE_NO":"４６０號","E_COORD97":178745.70999999999,"N_COORD97":2556576.4700000002,"ADDRESS":"龍目井路４６０號","OBJECTID":592167},"geometry":{"x":178745.71000000183,"y":2556576.4700000044}},{"attributes":{"ID":592195,"DIS_CODE":0,"TOWNNAME":"善化區","LI":"小新里","LIN":"11鄰","STREET":"龍目井路","SECT":" ","MAREA":" ","LANE":" ","ALLEY":" ","HOUSE_NO":"４６２號","E_COORD97":178739.82999999999,"N_COORD97":2556579.6800000002,"ADDRESS":"龍目井路４６２號","OBJECTID":592168},"geometry":{"x":178739.82999999914,"y":2556579.6799999997}},{"attributes":{"ID":592196,"DIS_CODE":0,"TOWNNAME":"安南區","LI":"淵東里","LIN":"11鄰","STREET":"仁安路","SECT":" ","MAREA":" ","LANE":" ","ALLEY":" ","HOUSE_NO":"１號","E_COORD97":165480.48999999999,"N_COORD97":2550063.2599999998,"ADDRESS":"仁安路１號","OBJECTID":592169},"geometry":{"x":165480.49000000022,"y":2550063.2599999998}},{"attributes":{"ID":592197,"DIS_CODE":0,"TOWNNAME":"善化區","LI":"小新里","LIN":"11鄰","STREET":"龍目井路","SECT":" ","MAREA":" ","LANE":" ","ALLEY":" ","HOUSE_NO":"４６６號","E_COORD97":178734.54999999999,"N_COORD97":2556579.8199999998,"ADDRESS":"龍目井路４６６號","OBJECTID":592170},"geometry":{"x":178734.54999999981,"y":2556579.8200000003}},{"attributes":{"ID":592198,"DIS_CODE":0,"TOWNNAME":"善化區","LI":"小新里","LIN":"11鄰","STREET":"龍目井路","SECT":" ","MAREA":" ","LANE":" ","ALLEY":" ","HOUSE_NO":"４６８號","E_COORD97":178728.89000000001,"N_COORD97":2556579.98,"ADDRESS":"龍目井路４６８號","OBJECTID":592171},"geometry":{"x":178728.89000000153,"y":2556579.9800000023}},{"attributes":{"ID":592199,"DIS_CODE":0,"TOWNNAME":"善化區","LI":"小新里","LIN":"11鄰","STREET":"龍目井路","SECT":" ","MAREA":" ","LANE":" ","ALLEY":" ","HOUSE_NO":"４７０號","E_COORD97":178722.89000000001,"N_COORD97":2556581.2400000002,"ADDRESS":"龍目井路４７０號","OBJECTID":592172},"geometry":{"x":178722.8900000006,"y":2556581.2400000021}},{"attributes":{"ID":592200,"DIS_CODE":0,"TOWNNAME":"善化區","LI":"小新里","LIN":"11鄰","STREET":"龍目井路","SECT":" ","MAREA":" ","LANE":" ","ALLEY":" ","HOUSE_NO":"４７２號","E_COORD97":178716.81,"N_COORD97":2556580.3199999998,"ADDRESS":"龍目井路４７２號","OBJECTID":592173},"geometry":{"x":178716.80999999959,"y":2556580.320000004}},{"attributes":{"ID":592201,"DIS_CODE":0,"TOWNNAME":"善化區","LI":"小新里","LIN":"11鄰","STREET":"龍目井路","SECT":" ","MAREA":" ","LANE":" ","ALLEY":" ","HOUSE_NO":"４７６號","E_COORD97":178711.14000000001,"N_COORD97":2556580.4700000002,"ADDRESS":"龍目井路４７６號","OBJECTID":592174},"geometry":{"x":178711.1400000006,"y":2556580.4700000025}},{"attributes":{"ID":592202,"DIS_CODE":0,"TOWNNAME":"善化區","LI":"小新里","LIN":"11鄰","STREET":"龍目井路","SECT":" ","MAREA":" ","LANE":" ","ALLEY":" ","HOUSE_NO":"４７８號","E_COORD97":178704.89999999999,"N_COORD97":2556575.21,"ADDRESS":"龍目井路４７８號","OBJECTID":592175},"geometry":{"x":178704.9000000013,"y":2556575.2100000046}},{"attributes":{"ID":592203,"DIS_CODE":0,"TOWNNAME":"善化區","LI":"小新里","LIN":"11鄰","STREET":"善新西路","SECT":" ","MAREA":" ","LANE":" ","ALLEY":" ","HOUSE_NO":"２１６號","E_COORD97":178619.76000000001,"N_COORD97":2556821.8399999999,"ADDRESS":"善新西路２１６號","OBJECTID":592176},"geometry":{"x":178619.76000000164,"y":2556821.8400000017}},{"attributes":{"ID":592204,"DIS_CODE":0,"TOWNNAME":"善化區","LI":"小新里","LIN":"11鄰","STREET":"陽光三路","SECT":" ","MAREA":" ","LANE":" ","ALLEY":" ","HOUSE_NO":"２９８號","E_COORD97":179302.64999999999,"N_COORD97":2557409.4100000001,"ADDRESS":"陽光三路２９８號","OBJECTID":592177},"geometry":{"x":179302.65000000224,"y":2557409.4100000001}},{"attributes":{"ID":592205,"DIS_CODE":0,"TOWNNAME":"善化區","LI":"小新里","LIN":"11鄰","STREET":"蓮潭北三街","SECT":" ","MAREA":" ","LANE":" ","ALLEY":" ","HOUSE_NO":"２２０號","E_COORD97":178984.378791,"N_COORD97":2557570.7743700002,"ADDRESS":"蓮潭北三街２２０號","OBJECTID":592178},"geometry":{"x":178984.37879100069,"y":2557570.7743699998}},{"attributes":{"ID":592206,"DIS_CODE":0,"TOWNNAME":"善化區","LI":"小新里","LIN":"11鄰","STREET":"蓮潭北三街","SECT":" ","MAREA":" ","LANE":" ","ALLEY":" ","HOUSE_NO":"２２６號","E_COORD97":178970.18733099999,"N_COORD97":2557570.66854,"ADDRESS":"蓮潭北三街２２６號","OBJECTID":592179},"geometry":{"x":178970.18733100127,"y":2557570.668536}},{"attributes":{"ID":592207,"DIS_CODE":0,"TOWNNAME":"善化區","LI":"小新里","LIN":"11鄰","STREET":"蓮潭北三街","SECT":" ","MAREA":" ","LANE":" ","ALLEY":" ","HOUSE_NO":"２２８號","E_COORD97":178963.832945,"N_COORD97":2557571.3035400002,"ADDRESS":"蓮潭北三街２２８號","OBJECTID":592180},"geometry":{"x":178963.83294500131,"y":2557571.3035359997}},{"attributes":{"ID":592208,"DIS_CODE":0,"TOWNNAME":"善化區","LI":"小新里","LIN":"11鄰","STREET":"蓮潭北三街","SECT":" ","MAREA":" ","LANE":" ","ALLEY":" ","HOUSE_NO":"２３０號","E_COORD97":178957.796279,"N_COORD97":2557571.40937,"ADDRESS":"蓮潭北三街２３０號","OBJECTID":592181},"geometry":{"x":178957.79627900012,"y":2557571.4093690012}},{"attributes":{"ID":592209,"DIS_CODE":0,"TOWNNAME":"善化區","LI":"小新里","LIN":"11鄰","STREET":"蓮潭北三街","SECT":" ","MAREA":" ","LANE":" ","ALLEY":" ","HOUSE_NO":"２３２號","E_COORD97":178951.65370699999,"N_COORD97":2557571.5151999998,"ADDRESS":"蓮潭北三街２３２號","OBJECTID":592182},"geometry":{"x":178951.65370700043,"y":2557571.515203001}},{"attributes":{"ID":592210,"DIS_CODE":0,"TOWNNAME":"善化區","LI":"小新里","LIN":"11鄰","STREET":"蓮潭路","SECT":" ","MAREA":" ","LANE":" ","ALLEY":" ","HOUSE_NO":"５７號","E_COORD97":179259.976299,"N_COORD97":2557004.81819,"ADDRESS":"蓮潭路５７號","OBJECTID":592183},"geometry":{"x":179259.97629900184,"y":2557004.8181880042}},{"attributes":{"ID":592211,"DIS_CODE":0,"TOWNNAME":"善化區","LI":"小新里","LIN":"11鄰","STREET":"蓮潭路","SECT":" ","MAREA":" ","LANE":" ","ALLEY":" ","HOUSE_NO":"５９號","E_COORD97":179253.19828800001,"N_COORD97":2557004.6065199999,"ADDRESS":"蓮潭路５９號","OBJECTID":592184},"geometry":{"x":179253.19828800019,"y":2557004.6065210029}},{"attributes":{"ID":592212,"DIS_CODE":0,"TOWNNAME":"善化區","LI":"小新里","LIN":"11鄰","STREET":"蓮潭路","SECT":" ","MAREA":" ","LANE":" ","ALLEY":" ","HOUSE_NO":"６１號","E_COORD97":179245.996652,"N_COORD97":2557004.3948599999,"ADDRESS":"蓮潭路６１號","OBJECTID":592185},"geometry":{"x":179245.99665199965,"y":2557004.3948550001}},{"attributes":{"ID":592213,"DIS_CODE":0,"TOWNNAME":"善化區","LI":"小新里","LIN":"11鄰","STREET":"陽光三路","SECT":" ","MAREA":" ","LANE":" ","ALLEY":" ","HOUSE_NO":"９３號","E_COORD97":179268.02518699999,"N_COORD97":2556976.2431999999,"ADDRESS":"陽光三路９３號","OBJECTID":592186},"geometry":{"x":179268.0251869997,"y":2556976.2432029992}},{"attributes":{"ID":592214,"DIS_CODE":0,"TOWNNAME":"善化區","LI":"小新里","LIN":"11鄰","STREET":"陽光三路","SECT":" ","MAREA":" ","LANE":" ","ALLEY":" ","HOUSE_NO":"９１號","E_COORD97":179267.38974899999,"N_COORD97":2556968.8348699999,"ADDRESS":"陽光三路９１號","OBJECTID":592187},"geometry":{"x":179267.38974899985,"y":2556968.8348740023}},{"attributes":{"ID":592215,"DIS_CODE":0,"TOWNNAME":"善化區","LI":"小新里","LIN":"11鄰","STREET":"蓮潭路","SECT":" ","MAREA":" ","LANE":" ","ALLEY":" ","HOUSE_NO":"１１８號","E_COORD97":179173.26212299999,"N_COORD97":2557031.58666,"ADDRESS":"蓮潭路１１８號","OBJECTID":592188},"geometry":{"x":179173.26212299988,"y":2557031.5866550002}},{"attributes":{"ID":592216,"DIS_CODE":0,"TOWNNAME":"善化區","LI":"小新里","LIN":"11鄰","STREET":"蓮潭路","SECT":" ","MAREA":" ","LANE":" ","ALLEY":" ","HOUSE_NO":"１２２號","E_COORD97":179159.28247599999,"N_COORD97":2557032.2216500002,"ADDRESS":"蓮潭路１２２號","OBJECTID":592189},"geometry":{"x":179159.28247600049,"y":2557032.2216540016}},{"attributes":{"ID":592217,"DIS_CODE":0,"TOWNNAME":"善化區","LI":"小新里","LIN":"11鄰","STREET":"蓮潭路","SECT":" ","MAREA":" ","LANE":" ","ALLEY":" ","HOUSE_NO":"１２６號","E_COORD97":179152.39855799999,"N_COORD97":2557032.2216500002,"ADDRESS":"蓮潭路１２６號","OBJECTID":592190},"geometry":{"x":179152.3985580001,"y":2557032.2216540016}},{"attributes":{"ID":592218,"DIS_CODE":0,"TOWNNAME":"善化區","LI":"小新里","LIN":"11鄰","STREET":"蓮潭路","SECT":" ","MAREA":" ","LANE":" ","ALLEY":" ","HOUSE_NO":"１２８號","E_COORD97":179145.408735,"N_COORD97":2557032.4333199998,"ADDRESS":"蓮潭路１２８號","OBJECTID":592191},"geometry":{"x":179145.4087349996,"y":2557032.433321001}},{"attributes":{"ID":592219,"DIS_CODE":0,"TOWNNAME":"善化區","LI":"小新里","LIN":"11鄰","STREET":"蓮潭路","SECT":" ","MAREA":" ","LANE":" ","ALLEY":" ","HOUSE_NO":"１３０號","E_COORD97":179138.41891099999,"N_COORD97":2557032.5391500001,"ADDRESS":"蓮潭路１３０號","OBJECTID":592192},"geometry":{"x":179138.41891100071,"y":2557032.5391540024}},{"attributes":{"ID":592220,"DIS_CODE":0,"TOWNNAME":"善化區","LI":"小新里","LIN":"11鄰","STREET":"蓮潭路","SECT":" ","MAREA":" ","LANE":" ","ALLEY":" ","HOUSE_NO":"１３２號","E_COORD97":179131.53499300001,"N_COORD97":2557032.7508200002,"ADDRESS":"蓮潭路１３２號","OBJECTID":592193},"geometry":{"x":179131.53499300033,"y":2557032.750821}},{"attributes":{"ID":592221,"DIS_CODE":0,"TOWNNAME":"善化區","LI":"小新里","LIN":"11鄰","STREET":"蓮潭路","SECT":" ","MAREA":" ","LANE":" ","ALLEY":" ","HOUSE_NO":"１３６號","E_COORD97":179124.65107600001,"N_COORD97":2557032.9624899998,"ADDRESS":"蓮潭路１３６號","OBJECTID":592194},"geometry":{"x":179124.65107599925,"y":2557032.962487001}},{"attributes":{"ID":592222,"DIS_CODE":0,"TOWNNAME":"善化區","LI":"小新里","LIN":"11鄰","STREET":"蓮潭路","SECT":" ","MAREA":" ","LANE":" ","ALLEY":" ","HOUSE_NO":"１３８號","E_COORD97":179117.55534600001,"N_COORD97":2557033.2799900002,"ADDRESS":"蓮潭路１３８號","OBJECTID":592195},"geometry":{"x":179117.55534600094,"y":2557033.2799869981}},{"attributes":{"ID":592223,"DIS_CODE":0,"TOWNNAME":"善化區","LI":"小新里","LIN":"11鄰","STREET":"蓮潭路","SECT":" ","MAREA":" ","LANE":" ","ALLEY":" ","HOUSE_NO":"１４０號","E_COORD97":179110.14189599999,"N_COORD97":2557033.4916500002,"ADDRESS":"蓮潭路１４０號","OBJECTID":592196},"geometry":{"x":179110.14189600013,"y":2557033.4916539993}},{"attributes":{"ID":592224,"DIS_CODE":0,"TOWNNAME":"善化區","LI":"小新里","LIN":"11鄰","STREET":"陽光三路","SECT":" ","MAREA":" ","LANE":" ","ALLEY":" ","HOUSE_NO":"３０６號","E_COORD97":179303.443528,"N_COORD97":2557427.7101799999,"ADDRESS":"陽光三路３０６號","OBJECTID":592197},"geometry":{"x":179303.44352800027,"y":2557427.710177999}},{"attributes":{"ID":592225,"DIS_CODE":0,"TOWNNAME":"善化區","LI":"小新里","LIN":"11鄰","STREET":"陽光三路","SECT":" ","MAREA":" ","LANE":" ","ALLEY":" ","HOUSE_NO":"３０８號","E_COORD97":179303.86715400001,"N_COORD97":2557433.8485099999,"ADDRESS":"陽光三路３０８號","OBJECTID":592198},"geometry":{"x":179303.86715400126,"y":2557433.8485080004}},{"attributes":{"ID":592226,"DIS_CODE":0,"TOWNNAME":"善化區","LI":"小新里","LIN":"11鄰","STREET":"陽光三路","SECT":" ","MAREA":" ","LANE":" ","ALLEY":" ","HOUSE_NO":"３１０號","E_COORD97":179303.86715400001,"N_COORD97":2557439.3518400001,"ADDRESS":"陽光三路３１０號","OBJECTID":592199},"geometry":{"x":179303.86715400126,"y":2557439.3518380038}},{"attributes":{"ID":592227,"DIS_CODE":0,"TOWNNAME":"善化區","LI":"小新里","LIN":"11鄰","STREET":"陽光三路","SECT":" ","MAREA":" ","LANE":" ","ALLEY":" ","HOUSE_NO":"３１２號","E_COORD97":179304.07896700001,"N_COORD97":2557444.6434999998,"ADDRESS":"陽光三路３１２號","OBJECTID":592200},"geometry":{"x":179304.07896700129,"y":2557444.6435020044}}]}