{"displayFieldName":"TOWNNAME","fieldAliases":{"ID":"ID","DIS_CODE":"DIS_CODE","TOWNNAME":"TOWNNAME","LI":"LI","LIN":"LIN","STREET":"STREET","SECT":"SECT","MAREA":"MAREA","LANE":"LANE","ALLEY":"ALLEY","HOUSE_NO":"HOUSE_NO","E_COORD97":"E_COORD97","N_COORD97":"N_COORD97","ADDRESS":"ADDRESS","OBJECTID":"OBJECTID"},"geometryType":"esriGeometryPoint","spatialReference":{"wkid":102443,"latestWkid":3826},"fields":[{"name":"ID","type":"esriFieldTypeDouble","alias":"ID"},{"name":"DIS_CODE","type":"esriFieldTypeInteger","alias":"DIS_CODE"},{"name":"TOWNNAME","type":"esriFieldTypeString","alias":"TOWNNAME","length":8},{"name":"LI","type":"esriFieldTypeString","alias":"LI","length":8},{"name":"LIN","type":"esriFieldTypeString","alias":"LIN","length":12},{"name":"STREET","type":"esriFieldTypeString","alias":"STREET","length":20},{"name":"SECT","type":"esriFieldTypeString","alias":"SECT","length":8},{"name":"MAREA","type":"esriFieldTypeString","alias":"MAREA","length":12},{"name":"LANE","type":"esriFieldTypeString","alias":"LANE","length":10},{"name":"ALLEY","type":"esriFieldTypeString","alias":"ALLEY","length":10},{"name":"HOUSE_NO","type":"esriFieldTypeString","alias":"HOUSE_NO","length":20},{"name":"E_COORD97","type":"esriFieldTypeDouble","alias":"E_COORD97"},{"name":"N_COORD97","type":"esriFieldTypeDouble","alias":"N_COORD97"},{"name":"ADDRESS","type":"esriFieldTypeString","alias":"ADDRESS","length":50},{"name":"OBJECTID","type":"esriFieldTypeOID","alias":"OBJECTID"}],"features":[{"attributes":{"ID":83201,"DIS_CODE":0,"TOWNNAME":"南區","LI":"田寮里","LIN":"7鄰","STREET":"新興路","SECT":" ","MAREA":" ","LANE":" ","ALLEY":" ","HOUSE_NO":"２０７號","E_COORD97":167337.60000000001,"N_COORD97":2541975.7000000002,"ADDRESS":"新興路２０７號","OBJECTID":83201},"geometry":{"x":167337.60000000149,"y":2541975.7000000011}},{"attributes":{"ID":83202,"DIS_CODE":0,"TOWNNAME":"南區","LI":"田寮里","LIN":"7鄰","STREET":"新興路","SECT":" ","MAREA":" ","LANE":" ","ALLEY":" ","HOUSE_NO":"２０９號","E_COORD97":167334.07000000001,"N_COORD97":2541972.4199999999,"ADDRESS":"新興路２０９號","OBJECTID":83202},"geometry":{"x":167334.07000000123,"y":2541972.4199999999}},{"attributes":{"ID":83203,"DIS_CODE":0,"TOWNNAME":"佳里區","LI":"龍安里","LIN":"19鄰","STREET":" ","SECT":" ","MAREA":"外渡頭","LANE":" ","ALLEY":" ","HOUSE_NO":"４２號之２","E_COORD97":164984.48000000001,"N_COORD97":2558742,"ADDRESS":"外渡頭４２號之２","OBJECTID":83203},"geometry":{"x":164984.47999999952,"y":2558742.0000000037}},{"attributes":{"ID":83204,"DIS_CODE":0,"TOWNNAME":"佳里區","LI":"龍安里","LIN":"19鄰","STREET":" ","SECT":" ","MAREA":"外渡頭","LANE":" ","ALLEY":" ","HOUSE_NO":"４２號","E_COORD97":165013.98999999999,"N_COORD97":2558710.9500000002,"ADDRESS":"外渡頭４２號","OBJECTID":83204},"geometry":{"x":165013.99000000022,"y":2558710.950000003}},{"attributes":{"ID":83205,"DIS_CODE":0,"TOWNNAME":"佳里區","LI":"龍安里","LIN":"19鄰","STREET":" ","SECT":" ","MAREA":"外渡頭","LANE":" ","ALLEY":" ","HOUSE_NO":"４３號之２","E_COORD97":165029.73000000001,"N_COORD97":2558732.6699999999,"ADDRESS":"外渡頭４３號之２","OBJECTID":83205},"geometry":{"x":165029.73000000045,"y":2558732.6699999999}},{"attributes":{"ID":83206,"DIS_CODE":0,"TOWNNAME":"佳里區","LI":"龍安里","LIN":"19鄰","STREET":" ","SECT":" ","MAREA":"外渡頭","LANE":" ","ALLEY":" ","HOUSE_NO":"４３號之３","E_COORD97":165039.07999999999,"N_COORD97":2558727.8700000001,"ADDRESS":"外渡頭４３號之３","OBJECTID":83206},"geometry":{"x":165039.08000000007,"y":2558727.8700000029}},{"attributes":{"ID":83207,"DIS_CODE":0,"TOWNNAME":"佳里區","LI":"龍安里","LIN":"19鄰","STREET":" ","SECT":" ","MAREA":"外渡頭","LANE":" ","ALLEY":" ","HOUSE_NO":"４５號","E_COORD97":165055.92000000001,"N_COORD97":2558725.8700000001,"ADDRESS":"外渡頭４５號","OBJECTID":83207},"geometry":{"x":165055.92000000086,"y":2558725.870000001}},{"attributes":{"ID":83208,"DIS_CODE":0,"TOWNNAME":"仁德區","LI":"後壁里","LIN":"12鄰","STREET":"德善路","SECT":" ","MAREA":" ","LANE":"２４０巷","ALLEY":"３１弄","HOUSE_NO":"１３號","E_COORD97":173865.70999999999,"N_COORD97":2538567.27,"ADDRESS":"德善路２４０巷３１弄１３號","OBJECTID":83208},"geometry":{"x":173865.71000000089,"y":2538567.2700000014}},{"attributes":{"ID":83209,"DIS_CODE":0,"TOWNNAME":"仁德區","LI":"後壁里","LIN":"12鄰","STREET":"德善路","SECT":" ","MAREA":" ","LANE":"２１２巷","ALLEY":"２弄","HOUSE_NO":"１８號","E_COORD97":173731.14999999999,"N_COORD97":2538721.1899999999,"ADDRESS":"德善路２１２巷２弄１８號","OBJECTID":83209},"geometry":{"x":173731.1500000013,"y":2538721.1900000013}},{"attributes":{"ID":83210,"DIS_CODE":0,"TOWNNAME":"仁德區","LI":"成功里","LIN":"12鄰","STREET":"成功二街","SECT":" ","MAREA":" ","LANE":"３２巷","ALLEY":"９弄","HOUSE_NO":"９號","E_COORD97":170876.67000000001,"N_COORD97":2539877.2599999998,"ADDRESS":"成功二街３２巷９弄９號","OBJECTID":83210},"geometry":{"x":170876.66999999993,"y":2539877.2600000016}},{"attributes":{"ID":83211,"DIS_CODE":0,"TOWNNAME":"仁德區","LI":"後壁里","LIN":"12鄰","STREET":"德善路","SECT":" ","MAREA":" ","LANE":"２４０巷","ALLEY":"３１弄","HOUSE_NO":"５號","E_COORD97":173839.92999999999,"N_COORD97":2538573.52,"ADDRESS":"德善路２４０巷３１弄５號","OBJECTID":83211},"geometry":{"x":173839.93000000156,"y":2538573.5200000014}},{"attributes":{"ID":83212,"DIS_CODE":0,"TOWNNAME":"仁德區","LI":"後壁里","LIN":"12鄰","STREET":"德善路","SECT":" ","MAREA":" ","LANE":"２４０巷","ALLEY":"３１弄","HOUSE_NO":"１７號","E_COORD97":173869.73999999999,"N_COORD97":2538574.77,"ADDRESS":"德善路２４０巷３１弄１７號","OBJECTID":83212},"geometry":{"x":173869.74000000022,"y":2538574.7700000014}},{"attributes":{"ID":83213,"DIS_CODE":0,"TOWNNAME":"仁德區","LI":"後壁里","LIN":"12鄰","STREET":"德善路","SECT":" ","MAREA":" ","LANE":"２１２巷","ALLEY":"２弄","HOUSE_NO":"２０號","E_COORD97":173727.60000000001,"N_COORD97":2538723.4399999999,"ADDRESS":"德善路２１２巷２弄２０號","OBJECTID":83213},"geometry":{"x":173727.59999999963,"y":2538723.4399999995}},{"attributes":{"ID":83214,"DIS_CODE":0,"TOWNNAME":"仁德區","LI":"後壁里","LIN":"12鄰","STREET":"德善路","SECT":" ","MAREA":" ","LANE":"２１２巷","ALLEY":"４弄","HOUSE_NO":"６號","E_COORD97":173736.38,"N_COORD97":2538695.7599999998,"ADDRESS":"德善路２１２巷４弄６號","OBJECTID":83214},"geometry":{"x":173736.37999999989,"y":2538695.7599999979}},{"attributes":{"ID":83215,"DIS_CODE":0,"TOWNNAME":"仁德區","LI":"後壁里","LIN":"12鄰","STREET":"德善路","SECT":" ","MAREA":" ","LANE":"２１２巷","ALLEY":"２弄","HOUSE_NO":"１２號","E_COORD97":173743.32999999999,"N_COORD97":2538717.4399999999,"ADDRESS":"德善路２１２巷２弄１２號","OBJECTID":83215},"geometry":{"x":173743.33000000101,"y":2538717.4399999995}},{"attributes":{"ID":83216,"DIS_CODE":0,"TOWNNAME":"仁德區","LI":"後壁里","LIN":"12鄰","STREET":"德善路","SECT":" ","MAREA":" ","LANE":"２１２巷","ALLEY":"６弄","HOUSE_NO":"６號","E_COORD97":173720.88,"N_COORD97":2538676.52,"ADDRESS":"德善路２１２巷６弄６號","OBJECTID":83216},"geometry":{"x":173720.87999999989,"y":2538676.5199999996}},{"attributes":{"ID":83217,"DIS_CODE":0,"TOWNNAME":"永康區","LI":"埔園里","LIN":"12鄰","STREET":"中山路","SECT":" ","MAREA":" ","LANE":"１８５巷","ALLEY":"１弄","HOUSE_NO":"１０號","E_COORD97":173620.56,"N_COORD97":2548017.77,"ADDRESS":"中山路１８５巷１弄１０號","OBJECTID":83217},"geometry":{"x":173620.56000000052,"y":2548017.7699999996}},{"attributes":{"ID":83218,"DIS_CODE":0,"TOWNNAME":"永康區","LI":"崑山里","LIN":"12鄰","STREET":"大灣路","SECT":" ","MAREA":" ","LANE":"１１０２巷","ALLEY":"１７弄","HOUSE_NO":"１０８號","E_COORD97":173303.23000000001,"N_COORD97":2544650.0499999998,"ADDRESS":"大灣路１１０２巷１７弄１０８號","OBJECTID":83218},"geometry":{"x":173303.23000000138,"y":2544650.0500000026}},{"attributes":{"ID":83219,"DIS_CODE":0,"TOWNNAME":"仁德區","LI":"仁德里","LIN":"12鄰","STREET":"四維街","SECT":" ","MAREA":" ","LANE":"４８巷","ALLEY":"１弄","HOUSE_NO":"１３號","E_COORD97":173180.85000000001,"N_COORD97":2541550.75,"ADDRESS":"四維街４８巷１弄１３號","OBJECTID":83219},"geometry":{"x":173180.85000000149,"y":2541550.7499999981}},{"attributes":{"ID":83220,"DIS_CODE":0,"TOWNNAME":"仁德區","LI":"後壁里","LIN":"12鄰","STREET":"德善路","SECT":" ","MAREA":" ","LANE":"２１２巷","ALLEY":"２弄","HOUSE_NO":"８號","E_COORD97":173749.56,"N_COORD97":2538713.9399999999,"ADDRESS":"德善路２１２巷２弄８號","OBJECTID":83220},"geometry":{"x":173749.56000000052,"y":2538713.9399999995}},{"attributes":{"ID":83221,"DIS_CODE":0,"TOWNNAME":"東區","LI":"路東里","LIN":"12鄰","STREET":"大同路","SECT":"二段","MAREA":" ","LANE":"１９巷","ALLEY":"４弄","HOUSE_NO":"３號","E_COORD97":169298.64000000001,"N_COORD97":2542327.6400000001,"ADDRESS":"大同路二段１９巷４弄３號","OBJECTID":83221},"geometry":{"x":169298.64000000153,"y":2542327.6400000006}},{"attributes":{"ID":83222,"DIS_CODE":0,"TOWNNAME":"東區","LI":"路東里","LIN":"12鄰","STREET":"大同路","SECT":"二段","MAREA":" ","LANE":"１９巷","ALLEY":"４弄","HOUSE_NO":"４號","E_COORD97":169286.01999999999,"N_COORD97":2542330.1499999999,"ADDRESS":"大同路二段１９巷４弄４號","OBJECTID":83222},"geometry":{"x":169286.02000000048,"y":2542330.1500000004}},{"attributes":{"ID":83223,"DIS_CODE":0,"TOWNNAME":"東區","LI":"路東里","LIN":"12鄰","STREET":"大同路","SECT":"二段","MAREA":" ","LANE":"１９巷","ALLEY":"５弄","HOUSE_NO":"１１號","E_COORD97":169278.79999999999,"N_COORD97":2542361.02,"ADDRESS":"大同路二段１９巷５弄１１號","OBJECTID":83223},"geometry":{"x":169278.79999999981,"y":2542361.0199999996}},{"attributes":{"ID":83224,"DIS_CODE":0,"TOWNNAME":"安南區","LI":"海南里","LIN":"15鄰","STREET":"府安路","SECT":"七段","MAREA":" ","LANE":" ","ALLEY":" ","HOUSE_NO":"８７號","E_COORD97":165852.62,"N_COORD97":2545830.0699999998,"ADDRESS":"府安路七段８７號","OBJECTID":83224},"geometry":{"x":165852.62000000011,"y":2545830.0700000003}},{"attributes":{"ID":83225,"DIS_CODE":0,"TOWNNAME":"安南區","LI":"州北里","LIN":"15鄰","STREET":"安和路","SECT":"五段","MAREA":" ","LANE":" ","ALLEY":" ","HOUSE_NO":"２３１號","E_COORD97":169763.07999999999,"N_COORD97":2551942.1099999999,"ADDRESS":"安和路五段２３１號","OBJECTID":83225},"geometry":{"x":169763.08000000101,"y":2551942.1099999994}},{"attributes":{"ID":83226,"DIS_CODE":0,"TOWNNAME":"東區","LI":"崇德里","LIN":"15鄰","STREET":"崇明十三街","SECT":" ","MAREA":" ","LANE":" ","ALLEY":" ","HOUSE_NO":"２３號","E_COORD97":170487.04000000001,"N_COORD97":2541622.8199999998,"ADDRESS":"崇明十三街２３號","OBJECTID":83226},"geometry":{"x":170487.04000000097,"y":2541622.8200000022}},{"attributes":{"ID":83227,"DIS_CODE":0,"TOWNNAME":"七股區","LI":"大埕里","LIN":"19鄰","STREET":" ","SECT":" ","MAREA":"大埕","LANE":" ","ALLEY":" ","HOUSE_NO":"３５０號之１３","E_COORD97":162001.88,"N_COORD97":2560162.3599999999,"ADDRESS":"大埕３５０號之１３","OBJECTID":83227},"geometry":{"x":162001.88000000082,"y":2560162.3599999994}},{"attributes":{"ID":83228,"DIS_CODE":0,"TOWNNAME":"七股區","LI":"大埕里","LIN":"19鄰","STREET":" ","SECT":" ","MAREA":"大埕","LANE":" ","ALLEY":" ","HOUSE_NO":"３５０號之１４","E_COORD97":162006.98999999999,"N_COORD97":2560161.75,"ADDRESS":"大埕３５０號之１４","OBJECTID":83228},"geometry":{"x":162006.99000000022,"y":2560161.7500000019}},{"attributes":{"ID":83229,"DIS_CODE":0,"TOWNNAME":"七股區","LI":"大埕里","LIN":"19鄰","STREET":" ","SECT":" ","MAREA":"大埕","LANE":" ","ALLEY":" ","HOUSE_NO":"３５０號之２","E_COORD97":161955.70000000001,"N_COORD97":2560168.6000000001,"ADDRESS":"大埕３５０號之２","OBJECTID":83229},"geometry":{"x":161955.70000000112,"y":2560168.6000000015}},{"attributes":{"ID":83230,"DIS_CODE":0,"TOWNNAME":"七股區","LI":"大埕里","LIN":"19鄰","STREET":" ","SECT":" ","MAREA":"大埕","LANE":" ","ALLEY":" ","HOUSE_NO":"３５０號之３","E_COORD97":161960.19,"N_COORD97":2560168.2200000002,"ADDRESS":"大埕３５０號之３","OBJECTID":83230},"geometry":{"x":161960.19000000041,"y":2560168.2199999988}},{"attributes":{"ID":83231,"DIS_CODE":0,"TOWNNAME":"七股區","LI":"大埕里","LIN":"19鄰","STREET":" ","SECT":" ","MAREA":"大埕","LANE":" ","ALLEY":" ","HOUSE_NO":"３５０號之４","E_COORD97":161964.12,"N_COORD97":2560167.3900000001,"ADDRESS":"大埕３５０號之４","OBJECTID":83231},"geometry":{"x":161964.12000000197,"y":2560167.3900000043}},{"attributes":{"ID":83232,"DIS_CODE":0,"TOWNNAME":"七股區","LI":"大埕里","LIN":"19鄰","STREET":" ","SECT":" ","MAREA":"大埕","LANE":" ","ALLEY":" ","HOUSE_NO":"３５０號之５","E_COORD97":161968.17000000001,"N_COORD97":2560166.98,"ADDRESS":"大埕３５０號之５","OBJECTID":83232},"geometry":{"x":161968.16999999993,"y":2560166.9800000023}},{"attributes":{"ID":83233,"DIS_CODE":0,"TOWNNAME":"七股區","LI":"大埕里","LIN":"19鄰","STREET":" ","SECT":" ","MAREA":"大埕","LANE":" ","ALLEY":" ","HOUSE_NO":"３５０號之６","E_COORD97":161972.37,"N_COORD97":2560166.25,"ADDRESS":"大埕３５０號之６","OBJECTID":83233},"geometry":{"x":161972.37000000011,"y":2560166.25}},{"attributes":{"ID":83234,"DIS_CODE":0,"TOWNNAME":"七股區","LI":"大埕里","LIN":"19鄰","STREET":" ","SECT":" ","MAREA":"大埕","LANE":" ","ALLEY":" ","HOUSE_NO":"３５０號之７","E_COORD97":161976.98000000001,"N_COORD97":2560165.4700000002,"ADDRESS":"大埕３５０號之７","OBJECTID":83234},"geometry":{"x":161976.98000000045,"y":2560165.4700000007}},{"attributes":{"ID":83235,"DIS_CODE":0,"TOWNNAME":"七股區","LI":"大埕里","LIN":"19鄰","STREET":" ","SECT":" ","MAREA":"大埕","LANE":" ","ALLEY":" ","HOUSE_NO":"３５０號之８","E_COORD97":161981.29000000001,"N_COORD97":2560164.96,"ADDRESS":"大埕３５０號之８","OBJECTID":83235},"geometry":{"x":161981.29000000004,"y":2560164.9600000028}},{"attributes":{"ID":83236,"DIS_CODE":0,"TOWNNAME":"東區","LI":"崇德里","LIN":"15鄰","STREET":"崇明十三街","SECT":" ","MAREA":" ","LANE":" ","ALLEY":" ","HOUSE_NO":"２號","E_COORD97":170462.59,"N_COORD97":2541559.4100000001,"ADDRESS":"崇明十三街２號","OBJECTID":83236},"geometry":{"x":170462.59000000078,"y":2541559.4100000001}},{"attributes":{"ID":83237,"DIS_CODE":0,"TOWNNAME":"麻豆區","LI":"北勢里","LIN":"15鄰","STREET":" ","SECT":" ","MAREA":"北勢寮","LANE":" ","ALLEY":" ","HOUSE_NO":"５３號","E_COORD97":171415.31,"N_COORD97":2567655.1699999999,"ADDRESS":"北勢寮５３號","OBJECTID":83237},"geometry":{"x":171415.31000000052,"y":2567655.1700000018}},{"attributes":{"ID":83238,"DIS_CODE":0,"TOWNNAME":"麻豆區","LI":"北勢里","LIN":"15鄰","STREET":" ","SECT":" ","MAREA":"北勢寮","LANE":" ","ALLEY":" ","HOUSE_NO":"５４號之１","E_COORD97":171404.26000000001,"N_COORD97":2567591.1499999999,"ADDRESS":"北勢寮５４號之１","OBJECTID":83238},"geometry":{"x":171404.25999999978,"y":2567591.1500000022}},{"attributes":{"ID":83239,"DIS_CODE":0,"TOWNNAME":"麻豆區","LI":"北勢里","LIN":"15鄰","STREET":" ","SECT":" ","MAREA":"北勢寮","LANE":" ","ALLEY":" ","HOUSE_NO":"５４號","E_COORD97":171421.07000000001,"N_COORD97":2567630.02,"ADDRESS":"北勢寮５４號","OBJECTID":83239},"geometry":{"x":171421.07000000123,"y":2567630.0199999996}},{"attributes":{"ID":83240,"DIS_CODE":0,"TOWNNAME":"麻豆區","LI":"北勢里","LIN":"15鄰","STREET":" ","SECT":" ","MAREA":"北勢寮","LANE":" ","ALLEY":" ","HOUSE_NO":"５５號之１","E_COORD97":171393.62,"N_COORD97":2567663.46,"ADDRESS":"北勢寮５５號之１","OBJECTID":83240},"geometry":{"x":171393.62000000104,"y":2567663.4600000028}},{"attributes":{"ID":83241,"DIS_CODE":0,"TOWNNAME":"麻豆區","LI":"北勢里","LIN":"15鄰","STREET":" ","SECT":" ","MAREA":"北勢寮","LANE":" ","ALLEY":" ","HOUSE_NO":"５６號","E_COORD97":171414.04999999999,"N_COORD97":2567696.1600000001,"ADDRESS":"北勢寮５６號","OBJECTID":83241},"geometry":{"x":171414.05000000075,"y":2567696.160000002}},{"attributes":{"ID":83242,"DIS_CODE":0,"TOWNNAME":"麻豆區","LI":"北勢里","LIN":"15鄰","STREET":" ","SECT":" ","MAREA":"北勢寮","LANE":" ","ALLEY":" ","HOUSE_NO":"５７號","E_COORD97":171407.32000000001,"N_COORD97":2567713.46,"ADDRESS":"北勢寮５７號","OBJECTID":83242},"geometry":{"x":171407.32000000123,"y":2567713.4600000009}},{"attributes":{"ID":83243,"DIS_CODE":0,"TOWNNAME":"新市區","LI":"社內里","LIN":"15鄰","STREET":" ","SECT":" ","MAREA":"社內","LANE":" ","ALLEY":" ","HOUSE_NO":"１５９之２號","E_COORD97":176267.97,"N_COORD97":2553174.2999999998,"ADDRESS":"社內１５９之２號","OBJECTID":83243},"geometry":{"x":176267.96999999974,"y":2553174.3000000026}},{"attributes":{"ID":83244,"DIS_CODE":0,"TOWNNAME":"新市區","LI":"大社里","LIN":"15鄰","STREET":" ","SECT":" ","MAREA":"大社","LANE":" ","ALLEY":" ","HOUSE_NO":"５９２號","E_COORD97":179471.70999999999,"N_COORD97":2554174.25,"ADDRESS":"大社５９２號","OBJECTID":83244},"geometry":{"x":179471.71000000089,"y":2554174.2500000019}},{"attributes":{"ID":83245,"DIS_CODE":0,"TOWNNAME":"新市區","LI":"社內里","LIN":"15鄰","STREET":" ","SECT":" ","MAREA":"社內","LANE":" ","ALLEY":" ","HOUSE_NO":"１６０之２０號","E_COORD97":176401.5,"N_COORD97":2553289.0499999998,"ADDRESS":"社內１６０之２０號","OBJECTID":83245},"geometry":{"x":176401.50000000093,"y":2553289.0500000007}},{"attributes":{"ID":83246,"DIS_CODE":0,"TOWNNAME":"安定區","LI":"安加里","LIN":"15鄰","STREET":" ","SECT":" ","MAREA":"安定","LANE":" ","ALLEY":" ","HOUSE_NO":"２７２號","E_COORD97":171598.82000000001,"N_COORD97":2557580.3199999998,"ADDRESS":"安定２７２號","OBJECTID":83246},"geometry":{"x":171598.82000000123,"y":2557580.3199999984}},{"attributes":{"ID":83247,"DIS_CODE":0,"TOWNNAME":"安定區","LI":"港口里","LIN":"15鄰","STREET":" ","SECT":" ","MAREA":"港口","LANE":" ","ALLEY":" ","HOUSE_NO":"３４０號","E_COORD97":171243.69,"N_COORD97":2554779.25,"ADDRESS":"港口３４０號","OBJECTID":83247},"geometry":{"x":171243.69000000134,"y":2554779.25}},{"attributes":{"ID":83248,"DIS_CODE":0,"TOWNNAME":"安定區","LI":"安加里","LIN":"15鄰","STREET":" ","SECT":" ","MAREA":"安定","LANE":" ","ALLEY":" ","HOUSE_NO":"３１７號","E_COORD97":171640.72,"N_COORD97":2557520.3199999998,"ADDRESS":"安定３１７號","OBJECTID":83248},"geometry":{"x":171640.71999999974,"y":2557520.3200000022}},{"attributes":{"ID":83249,"DIS_CODE":0,"TOWNNAME":"安定區","LI":"蘇厝里","LIN":"15鄰","STREET":" ","SECT":" ","MAREA":"蘇厝","LANE":" ","ALLEY":" ","HOUSE_NO":"４３０之７號","E_COORD97":173143.62,"N_COORD97":2558701.2999999998,"ADDRESS":"蘇厝４３０之７號","OBJECTID":83249},"geometry":{"x":173143.62000000011,"y":2558701.3000000026}},{"attributes":{"ID":83250,"DIS_CODE":0,"TOWNNAME":"東區","LI":"路東里","LIN":"12鄰","STREET":"大同路","SECT":"二段","MAREA":" ","LANE":"１９巷","ALLEY":"５弄","HOUSE_NO":"１號","E_COORD97":169290.75,"N_COORD97":2542362.0499999998,"ADDRESS":"大同路二段１９巷５弄１號","OBJECTID":83250},"geometry":{"x":169290.75,"y":2542362.0500000007}},{"attributes":{"ID":83251,"DIS_CODE":0,"TOWNNAME":"東區","LI":"路東里","LIN":"12鄰","STREET":"大同路","SECT":"二段","MAREA":" ","LANE":"１９巷","ALLEY":"５弄","HOUSE_NO":"２號","E_COORD97":169289.94,"N_COORD97":2542369.6400000001,"ADDRESS":"大同路二段１９巷５弄２號","OBJECTID":83251},"geometry":{"x":169289.94000000041,"y":2542369.6400000043}},{"attributes":{"ID":83252,"DIS_CODE":0,"TOWNNAME":"東區","LI":"路東里","LIN":"12鄰","STREET":"大同路","SECT":"二段","MAREA":" ","LANE":"１９巷","ALLEY":"５弄","HOUSE_NO":"３號","E_COORD97":169284.5,"N_COORD97":2542374.6200000001,"ADDRESS":"大同路二段１９巷５弄３號","OBJECTID":83252},"geometry":{"x":169284.5,"y":2542374.6200000029}},{"attributes":{"ID":83253,"DIS_CODE":0,"TOWNNAME":"安定區","LI":"管寮里","LIN":"15鄰","STREET":" ","SECT":" ","MAREA":"管寮","LANE":" ","ALLEY":" ","HOUSE_NO":"１３６號之７","E_COORD97":169939,"N_COORD97":2556219.2999999998,"ADDRESS":"管寮１３６號之７","OBJECTID":83253},"geometry":{"x":169939.00000000186,"y":2556219.3000000026}},{"attributes":{"ID":83254,"DIS_CODE":0,"TOWNNAME":"安定區","LI":"蘇厝里","LIN":"15鄰","STREET":" ","SECT":" ","MAREA":"蘇厝","LANE":" ","ALLEY":" ","HOUSE_NO":"４３２號","E_COORD97":173176.51999999999,"N_COORD97":2558665.25,"ADDRESS":"蘇厝４３２號","OBJECTID":83254},"geometry":{"x":173176.52000000048,"y":2558665.25}},{"attributes":{"ID":83255,"DIS_CODE":0,"TOWNNAME":"東區","LI":"路東里","LIN":"12鄰","STREET":"大同路","SECT":"二段","MAREA":" ","LANE":"１９巷","ALLEY":"５弄","HOUSE_NO":"４號","E_COORD97":169282.06,"N_COORD97":2542373.1499999999,"ADDRESS":"大同路二段１９巷５弄４號","OBJECTID":83255},"geometry":{"x":169282.06000000145,"y":2542373.1500000022}},{"attributes":{"ID":83256,"DIS_CODE":0,"TOWNNAME":"東區","LI":"路東里","LIN":"12鄰","STREET":"大同路","SECT":"二段","MAREA":" ","LANE":"１９巷","ALLEY":"５弄","HOUSE_NO":"５號","E_COORD97":169279.07000000001,"N_COORD97":2542370.73,"ADDRESS":"大同路二段１９巷５弄５號","OBJECTID":83256},"geometry":{"x":169279.0700000003,"y":2542370.7300000004}},{"attributes":{"ID":83257,"DIS_CODE":0,"TOWNNAME":"東區","LI":"路東里","LIN":"12鄰","STREET":"大同路","SECT":"二段","MAREA":" ","LANE":"１９巷","ALLEY":"５弄","HOUSE_NO":"６號","E_COORD97":169276.89999999999,"N_COORD97":2542369.9199999999,"ADDRESS":"大同路二段１９巷５弄６號","OBJECTID":83257},"geometry":{"x":169276.90000000037,"y":2542369.9199999999}},{"attributes":{"ID":83258,"DIS_CODE":0,"TOWNNAME":"南區","LI":"田寮里","LIN":"7鄰","STREET":"新興路","SECT":" ","MAREA":" ","LANE":" ","ALLEY":" ","HOUSE_NO":"２１１號","E_COORD97":167329.76999999999,"N_COORD97":2541969.8999999999,"ADDRESS":"新興路２１１號","OBJECTID":83258},"geometry":{"x":167329.77000000048,"y":2541969.9000000004}},{"attributes":{"ID":83259,"DIS_CODE":0,"TOWNNAME":"歸仁區","LI":"南保里","LIN":"12鄰","STREET":"文化十街","SECT":" ","MAREA":" ","LANE":"１０巷","ALLEY":"１弄","HOUSE_NO":"１號","E_COORD97":176574.01999999999,"N_COORD97":2541281.2599999998,"ADDRESS":"文化十街１０巷１弄１號","OBJECTID":83259},"geometry":{"x":176574.02000000048,"y":2541281.2599999998}},{"attributes":{"ID":83260,"DIS_CODE":0,"TOWNNAME":"歸仁區","LI":"看東里","LIN":"12鄰","STREET":"忠孝南路","SECT":" ","MAREA":" ","LANE":"２５巷","ALLEY":"３６弄","HOUSE_NO":"１號","E_COORD97":178553.89999999999,"N_COORD97":2540505.48,"ADDRESS":"忠孝南路２５巷３６弄１號","OBJECTID":83260},"geometry":{"x":178553.9000000013,"y":2540505.4799999986}},{"attributes":{"ID":83261,"DIS_CODE":0,"TOWNNAME":"將軍區","LI":"西和里","LIN":"19鄰","STREET":" ","SECT":" ","MAREA":"西湖","LANE":" ","ALLEY":" ","HOUSE_NO":"４６號","E_COORD97":163064.60000000001,"N_COORD97":2566126,"ADDRESS":"西湖４６號","OBJECTID":83261},"geometry":{"x":163064.60000000056,"y":2566126.0000000037}},{"attributes":{"ID":83262,"DIS_CODE":0,"TOWNNAME":"歸仁區","LI":"崙頂里","LIN":"12鄰","STREET":"凱旋路","SECT":"一段","MAREA":" ","LANE":"６０１巷","ALLEY":"１５１弄","HOUSE_NO":"５１號","E_COORD97":177960.17999999999,"N_COORD97":2539266.25,"ADDRESS":"凱旋路一段６０１巷１５１弄５１號","OBJECTID":83262},"geometry":{"x":177960.1799999997,"y":2539266.2500000019}},{"attributes":{"ID":83263,"DIS_CODE":0,"TOWNNAME":"歸仁區","LI":"崙頂里","LIN":"12鄰","STREET":"凱旋路","SECT":"一段","MAREA":" ","LANE":"６０１巷","ALLEY":"３５５弄","HOUSE_NO":"８９號","E_COORD97":177933.67999999999,"N_COORD97":2538876.25,"ADDRESS":"凱旋路一段６０１巷３５５弄８９號","OBJECTID":83263},"geometry":{"x":177933.68000000156,"y":2538876.2500000019}},{"attributes":{"ID":83264,"DIS_CODE":0,"TOWNNAME":"北區","LI":"永祥里","LIN":"12鄰","STREET":"實踐街","SECT":" ","MAREA":" ","LANE":"１０３巷","ALLEY":"１９弄","HOUSE_NO":"１１號","E_COORD97":170080.42999999999,"N_COORD97":2546105.2799999998,"ADDRESS":"實踐街１０３巷１９弄１１號","OBJECTID":83264},"geometry":{"x":170080.43000000063,"y":2546105.2799999993}},{"attributes":{"ID":83265,"DIS_CODE":0,"TOWNNAME":"北區","LI":"永祥里","LIN":"12鄰","STREET":"實踐街","SECT":" ","MAREA":" ","LANE":"１０３巷","ALLEY":"１９弄","HOUSE_NO":"１３號","E_COORD97":170076.66,"N_COORD97":2546106.4900000002,"ADDRESS":"實踐街１０３巷１９弄１３號","OBJECTID":83265},"geometry":{"x":170076.66000000015,"y":2546106.4900000039}},{"attributes":{"ID":83266,"DIS_CODE":0,"TOWNNAME":"北區","LI":"永祥里","LIN":"12鄰","STREET":"實踐街","SECT":" ","MAREA":" ","LANE":"１０３巷","ALLEY":"１９弄","HOUSE_NO":"１４號","E_COORD97":170080.64000000001,"N_COORD97":2546117.27,"ADDRESS":"實踐街１０３巷１９弄１４號","OBJECTID":83266},"geometry":{"x":170080.6400000006,"y":2546117.2700000033}},{"attributes":{"ID":83267,"DIS_CODE":0,"TOWNNAME":"北區","LI":"永祥里","LIN":"12鄰","STREET":"實踐街","SECT":" ","MAREA":" ","LANE":"１０３巷","ALLEY":"１９弄","HOUSE_NO":"１５號","E_COORD97":170072.54000000001,"N_COORD97":2546106.3500000001,"ADDRESS":"實踐街１０３巷１９弄１５號","OBJECTID":83267},"geometry":{"x":170072.54000000004,"y":2546106.3499999978}},{"attributes":{"ID":83268,"DIS_CODE":0,"TOWNNAME":"北區","LI":"永祥里","LIN":"12鄰","STREET":"實踐街","SECT":" ","MAREA":" ","LANE":"１０３巷","ALLEY":"１９弄","HOUSE_NO":"１６號","E_COORD97":170075.79999999999,"N_COORD97":2546117.3399999999,"ADDRESS":"實踐街１０３巷１９弄１６號","OBJECTID":83268},"geometry":{"x":170075.80000000168,"y":2546117.3400000017}},{"attributes":{"ID":83269,"DIS_CODE":0,"TOWNNAME":"北區","LI":"永祥里","LIN":"12鄰","STREET":"實踐街","SECT":" ","MAREA":" ","LANE":"１０３巷","ALLEY":"１９弄","HOUSE_NO":"１７號","E_COORD97":170068.26999999999,"N_COORD97":2546106.2799999998,"ADDRESS":"實踐街１０３巷１９弄１７號","OBJECTID":83269},"geometry":{"x":170068.26999999955,"y":2546106.2799999993}},{"attributes":{"ID":83270,"DIS_CODE":0,"TOWNNAME":"北區","LI":"永祥里","LIN":"12鄰","STREET":"實踐街","SECT":" ","MAREA":" ","LANE":"１０３巷","ALLEY":"１９弄","HOUSE_NO":"１８號","E_COORD97":170071.25,"N_COORD97":2546117.8300000001,"ADDRESS":"實踐街１０３巷１９弄１８號","OBJECTID":83270},"geometry":{"x":170071.25000000186,"y":2546117.8300000019}},{"attributes":{"ID":83271,"DIS_CODE":0,"TOWNNAME":"北區","LI":"永祥里","LIN":"12鄰","STREET":"實踐街","SECT":" ","MAREA":" ","LANE":"１０３巷","ALLEY":"１９弄","HOUSE_NO":"１９號","E_COORD97":170063.42999999999,"N_COORD97":2546106.3500000001,"ADDRESS":"實踐街１０３巷１９弄１９號","OBJECTID":83271},"geometry":{"x":170063.43000000063,"y":2546106.3499999978}},{"attributes":{"ID":83272,"DIS_CODE":0,"TOWNNAME":"北區","LI":"永祥里","LIN":"12鄰","STREET":"實踐街","SECT":" ","MAREA":" ","LANE":"１０３巷","ALLEY":"１９弄","HOUSE_NO":"１號","E_COORD97":170103.56,"N_COORD97":2546105.7799999998,"ADDRESS":"實踐街１０３巷１９弄１號","OBJECTID":83272},"geometry":{"x":170103.55999999959,"y":2546105.7799999993}},{"attributes":{"ID":83273,"DIS_CODE":0,"TOWNNAME":"七股區","LI":"大埕里","LIN":"19鄰","STREET":" ","SECT":" ","MAREA":"大埕","LANE":" ","ALLEY":" ","HOUSE_NO":"３５０號之９","E_COORD97":161984.98000000001,"N_COORD97":2560164.3399999999,"ADDRESS":"大埕３５０號之９","OBJECTID":83273},"geometry":{"x":161984.98000000045,"y":2560164.3400000017}},{"attributes":{"ID":83274,"DIS_CODE":0,"TOWNNAME":"七股區","LI":"大埕里","LIN":"19鄰","STREET":" ","SECT":" ","MAREA":"大埕","LANE":" ","ALLEY":" ","HOUSE_NO":"３５１號之１０","E_COORD97":161930.69,"N_COORD97":2560114.75,"ADDRESS":"大埕３５１號之１０","OBJECTID":83274},"geometry":{"x":161930.69000000134,"y":2560114.7500000019}},{"attributes":{"ID":83275,"DIS_CODE":0,"TOWNNAME":"七股區","LI":"大埕里","LIN":"19鄰","STREET":" ","SECT":" ","MAREA":"大埕","LANE":" ","ALLEY":" ","HOUSE_NO":"３５１號之１１","E_COORD97":161929.85999999999,"N_COORD97":2560110.4500000002,"ADDRESS":"大埕３５１號之１１","OBJECTID":83275},"geometry":{"x":161929.86000000034,"y":2560110.4499999993}},{"attributes":{"ID":83276,"DIS_CODE":0,"TOWNNAME":"七股區","LI":"大埕里","LIN":"19鄰","STREET":" ","SECT":" ","MAREA":"大埕","LANE":" ","ALLEY":" ","HOUSE_NO":"３５１號之１２","E_COORD97":161929.03,"N_COORD97":2560106.5699999998,"ADDRESS":"大埕３５１號之１２","OBJECTID":83276},"geometry":{"x":161929.03000000026,"y":2560106.5700000003}},{"attributes":{"ID":83277,"DIS_CODE":0,"TOWNNAME":"七股區","LI":"大埕里","LIN":"19鄰","STREET":" ","SECT":" ","MAREA":"大埕","LANE":" ","ALLEY":" ","HOUSE_NO":"３５１號之１３","E_COORD97":161928.42000000001,"N_COORD97":2560101.7200000002,"ADDRESS":"大埕３５１號之１３","OBJECTID":83277},"geometry":{"x":161928.42000000086,"y":2560101.7200000025}},{"attributes":{"ID":83278,"DIS_CODE":0,"TOWNNAME":"七股區","LI":"大埕里","LIN":"19鄰","STREET":" ","SECT":" ","MAREA":"大埕","LANE":" ","ALLEY":" ","HOUSE_NO":"３５１號之１４","E_COORD97":161927.64000000001,"N_COORD97":2560097.9399999999,"ADDRESS":"大埕３５１號之１４","OBJECTID":83278},"geometry":{"x":161927.63999999966,"y":2560097.9400000032}},{"attributes":{"ID":83279,"DIS_CODE":0,"TOWNNAME":"七股區","LI":"大埕里","LIN":"19鄰","STREET":" ","SECT":" ","MAREA":"大埕","LANE":" ","ALLEY":" ","HOUSE_NO":"３５１號之１５","E_COORD97":161926.73999999999,"N_COORD97":2560093.6899999999,"ADDRESS":"大埕３５１號之１５","OBJECTID":83279},"geometry":{"x":161926.74000000115,"y":2560093.6900000013}},{"attributes":{"ID":83280,"DIS_CODE":0,"TOWNNAME":"七股區","LI":"大埕里","LIN":"19鄰","STREET":" ","SECT":" ","MAREA":"大埕","LANE":" ","ALLEY":" ","HOUSE_NO":"３５１號之１６","E_COORD97":161958.45000000001,"N_COORD97":2560151.7400000002,"ADDRESS":"大埕３５１號之１６","OBJECTID":83280},"geometry":{"x":161958.45000000019,"y":2560151.7400000021}},{"attributes":{"ID":83281,"DIS_CODE":0,"TOWNNAME":"七股區","LI":"大埕里","LIN":"19鄰","STREET":" ","SECT":" ","MAREA":"大埕","LANE":" ","ALLEY":" ","HOUSE_NO":"３５１號之１７","E_COORD97":161957.84,"N_COORD97":2560147.4700000002,"ADDRESS":"大埕３５１號之１７","OBJECTID":83281},"geometry":{"x":161957.84000000078,"y":2560147.4700000025}},{"attributes":{"ID":83282,"DIS_CODE":0,"TOWNNAME":"七股區","LI":"大埕里","LIN":"19鄰","STREET":" ","SECT":" ","MAREA":"大埕","LANE":" ","ALLEY":" ","HOUSE_NO":"３５１號之１８","E_COORD97":161957.23999999999,"N_COORD97":2560143.21,"ADDRESS":"大埕３５１號之１８","OBJECTID":83282},"geometry":{"x":161957.24000000115,"y":2560143.2100000028}},{"attributes":{"ID":83283,"DIS_CODE":0,"TOWNNAME":"七股區","LI":"大埕里","LIN":"19鄰","STREET":" ","SECT":" ","MAREA":"大埕","LANE":" ","ALLEY":" ","HOUSE_NO":"３５１號之１９","E_COORD97":161956.63,"N_COORD97":2560138.9399999999,"ADDRESS":"大埕３５１號之１９","OBJECTID":83283},"geometry":{"x":161956.62999999989,"y":2560138.9400000013}},{"attributes":{"ID":83284,"DIS_CODE":0,"TOWNNAME":"七股區","LI":"大埕里","LIN":"19鄰","STREET":" ","SECT":" ","MAREA":"大埕","LANE":" ","ALLEY":" ","HOUSE_NO":"３５１號之１","E_COORD97":161937.20999999999,"N_COORD97":2560155.1099999999,"ADDRESS":"大埕３５１號之１","OBJECTID":83284},"geometry":{"x":161937.20999999996,"y":2560155.1100000013}},{"attributes":{"ID":83285,"DIS_CODE":0,"TOWNNAME":"北區","LI":"永祥里","LIN":"12鄰","STREET":"實踐街","SECT":" ","MAREA":" ","LANE":"１０３巷","ALLEY":"１９弄","HOUSE_NO":"２０號","E_COORD97":170066.98000000001,"N_COORD97":2546117.98,"ADDRESS":"實踐街１０３巷１９弄２０號","OBJECTID":83285},"geometry":{"x":170066.98000000138,"y":2546117.9800000023}},{"attributes":{"ID":83286,"DIS_CODE":0,"TOWNNAME":"南區","LI":"大恩里","LIN":"12鄰","STREET":"國民路","SECT":" ","MAREA":" ","LANE":"１６５巷","ALLEY":"２２弄","HOUSE_NO":"４號","E_COORD97":169142.69,"N_COORD97":2540835.2599999998,"ADDRESS":"國民路１６５巷２２弄４號","OBJECTID":83286},"geometry":{"x":169142.69000000041,"y":2540835.2600000035}},{"attributes":{"ID":83287,"DIS_CODE":0,"TOWNNAME":"北區","LI":"永祥里","LIN":"12鄰","STREET":"實踐街","SECT":" ","MAREA":" ","LANE":"１０３巷","ALLEY":"１９弄","HOUSE_NO":"２２號","E_COORD97":170062.28,"N_COORD97":2546117.98,"ADDRESS":"實踐街１０３巷１９弄２２號","OBJECTID":83287},"geometry":{"x":170062.28000000026,"y":2546117.9800000023}},{"attributes":{"ID":83288,"DIS_CODE":0,"TOWNNAME":"北區","LI":"永祥里","LIN":"12鄰","STREET":"實踐街","SECT":" ","MAREA":" ","LANE":"１０３巷","ALLEY":"１９弄","HOUSE_NO":"２號","E_COORD97":170107.70000000001,"N_COORD97":2546116.5600000001,"ADDRESS":"實踐街１０３巷１９弄２號","OBJECTID":83288},"geometry":{"x":170107.70000000112,"y":2546116.5600000024}},{"attributes":{"ID":83289,"DIS_CODE":0,"TOWNNAME":"北區","LI":"永祥里","LIN":"12鄰","STREET":"實踐街","SECT":" ","MAREA":" ","LANE":"１０３巷","ALLEY":"１９弄","HOUSE_NO":"２號之１","E_COORD97":170114.73999999999,"N_COORD97":2546114.7799999998,"ADDRESS":"實踐街１０３巷１９弄２號之１","OBJECTID":83289},"geometry":{"x":170114.74000000115,"y":2546114.7800000012}},{"attributes":{"ID":83290,"DIS_CODE":0,"TOWNNAME":"中西區","LI":"五妃里","LIN":"15鄰","STREET":"樹林街","SECT":"二段","MAREA":" ","LANE":" ","ALLEY":" ","HOUSE_NO":"４１號","E_COORD97":168639.51000000001,"N_COORD97":2542888.5699999998,"ADDRESS":"樹林街二段４１號","OBJECTID":83290},"geometry":{"x":168639.50999999978,"y":2542888.570000004}},{"attributes":{"ID":83291,"DIS_CODE":0,"TOWNNAME":"中西區","LI":"五妃里","LIN":"15鄰","STREET":"樹林街","SECT":"二段","MAREA":" ","LANE":" ","ALLEY":" ","HOUSE_NO":"４３號","E_COORD97":168634.79000000001,"N_COORD97":2542888.8300000001,"ADDRESS":"樹林街二段４３號","OBJECTID":83291},"geometry":{"x":168634.79000000004,"y":2542888.8300000001}},{"attributes":{"ID":83292,"DIS_CODE":0,"TOWNNAME":"中西區","LI":"五妃里","LIN":"15鄰","STREET":"樹林街","SECT":"二段","MAREA":" ","LANE":" ","ALLEY":" ","HOUSE_NO":"４５號","E_COORD97":168630.70000000001,"N_COORD97":2542889.7200000002,"ADDRESS":"樹林街二段４５號","OBJECTID":83292},"geometry":{"x":168630.70000000019,"y":2542889.7200000007}},{"attributes":{"ID":83293,"DIS_CODE":0,"TOWNNAME":"中西區","LI":"五妃里","LIN":"15鄰","STREET":"樹林街","SECT":"二段","MAREA":" ","LANE":" ","ALLEY":" ","HOUSE_NO":"４９號","E_COORD97":168621.25,"N_COORD97":2542890.1000000001,"ADDRESS":"樹林街二段４９號","OBJECTID":83293},"geometry":{"x":168621.25,"y":2542890.0999999996}},{"attributes":{"ID":83294,"DIS_CODE":0,"TOWNNAME":"七股區","LI":"大埕里","LIN":"19鄰","STREET":" ","SECT":" ","MAREA":"大埕","LANE":" ","ALLEY":" ","HOUSE_NO":"３５１號之２０","E_COORD97":161956.01999999999,"N_COORD97":2560134.6699999999,"ADDRESS":"大埕３５１號之２０","OBJECTID":83294},"geometry":{"x":161956.02000000048,"y":2560134.6700000018}},{"attributes":{"ID":83295,"DIS_CODE":0,"TOWNNAME":"七股區","LI":"大埕里","LIN":"19鄰","STREET":" ","SECT":" ","MAREA":"大埕","LANE":" ","ALLEY":" ","HOUSE_NO":"３５１號之２１","E_COORD97":161955.42000000001,"N_COORD97":2560130.3999999999,"ADDRESS":"大埕３５１號之２１","OBJECTID":83295},"geometry":{"x":161955.42000000086,"y":2560130.4000000022}},{"attributes":{"ID":83296,"DIS_CODE":0,"TOWNNAME":"七股區","LI":"大埕里","LIN":"19鄰","STREET":" ","SECT":" ","MAREA":"大埕","LANE":" ","ALLEY":" ","HOUSE_NO":"３５１號之２２","E_COORD97":161954.81,"N_COORD97":2560126.1299999999,"ADDRESS":"大埕３５１號之２２","OBJECTID":83296},"geometry":{"x":161954.80999999959,"y":2560126.129999999}},{"attributes":{"ID":83297,"DIS_CODE":0,"TOWNNAME":"七股區","LI":"大埕里","LIN":"19鄰","STREET":" ","SECT":" ","MAREA":"大埕","LANE":" ","ALLEY":" ","HOUSE_NO":"３５１號之２３","E_COORD97":161954.20999999999,"N_COORD97":2560121.8599999999,"ADDRESS":"大埕３５１號之２３","OBJECTID":83297},"geometry":{"x":161954.20999999996,"y":2560121.8599999975}},{"attributes":{"ID":83298,"DIS_CODE":0,"TOWNNAME":"中西區","LI":"五妃里","LIN":"15鄰","STREET":"樹林街","SECT":"二段","MAREA":" ","LANE":" ","ALLEY":" ","HOUSE_NO":"５１號","E_COORD97":168615.89000000001,"N_COORD97":2542891.25,"ADDRESS":"樹林街二段５１號","OBJECTID":83298},"geometry":{"x":168615.8900000006,"y":2542891.2500000019}},{"attributes":{"ID":83299,"DIS_CODE":0,"TOWNNAME":"七股區","LI":"大埕里","LIN":"19鄰","STREET":" ","SECT":" ","MAREA":"大埕","LANE":" ","ALLEY":" ","HOUSE_NO":"３５１號之２４","E_COORD97":161953.60000000001,"N_COORD97":2560117.6000000001,"ADDRESS":"大埕３５１號之２４","OBJECTID":83299},"geometry":{"x":161953.60000000149,"y":2560117.6000000015}},{"attributes":{"ID":83300,"DIS_CODE":0,"TOWNNAME":"七股區","LI":"大埕里","LIN":"19鄰","STREET":" ","SECT":" ","MAREA":"大埕","LANE":" ","ALLEY":" ","HOUSE_NO":"３５１號之２５","E_COORD97":161953,"N_COORD97":2560113.3300000001,"ADDRESS":"大埕３５１號之２５","OBJECTID":83300},"geometry":{"x":161953.00000000186,"y":2560113.3300000019}},{"attributes":{"ID":83301,"DIS_CODE":0,"TOWNNAME":"七股區","LI":"大埕里","LIN":"19鄰","STREET":" ","SECT":" ","MAREA":"大埕","LANE":" ","ALLEY":" ","HOUSE_NO":"３５１號之２６","E_COORD97":161952.39000000001,"N_COORD97":2560109.0600000001,"ADDRESS":"大埕３５１號之２６","OBJECTID":83301},"geometry":{"x":161952.3900000006,"y":2560109.0600000024}},{"attributes":{"ID":83302,"DIS_CODE":0,"TOWNNAME":"七股區","LI":"大埕里","LIN":"19鄰","STREET":" ","SECT":" ","MAREA":"大埕","LANE":" ","ALLEY":" ","HOUSE_NO":"３５１號之２７","E_COORD97":161951.78,"N_COORD97":2560104.79,"ADDRESS":"大埕３５１號之２７","OBJECTID":83302},"geometry":{"x":161951.78000000119,"y":2560104.7899999991}},{"attributes":{"ID":83303,"DIS_CODE":0,"TOWNNAME":"北區","LI":"永祥里","LIN":"12鄰","STREET":"實踐街","SECT":" ","MAREA":" ","LANE":"１０３巷","ALLEY":"１９弄","HOUSE_NO":"２號之２","E_COORD97":170121.22,"N_COORD97":2546121.75,"ADDRESS":"實踐街１０３巷１９弄２號之２","OBJECTID":83303},"geometry":{"x":170121.21999999974,"y":2546121.7500000019}},{"attributes":{"ID":83304,"DIS_CODE":0,"TOWNNAME":"七股區","LI":"大埕里","LIN":"19鄰","STREET":" ","SECT":" ","MAREA":"大埕","LANE":" ","ALLEY":" ","HOUSE_NO":"３５１號之２８","E_COORD97":161951.17999999999,"N_COORD97":2560100.52,"ADDRESS":"大埕３５１號之２８","OBJECTID":83304},"geometry":{"x":161951.1799999997,"y":2560100.5199999996}},{"attributes":{"ID":83305,"DIS_CODE":0,"TOWNNAME":"七股區","LI":"大埕里","LIN":"19鄰","STREET":" ","SECT":" ","MAREA":"大埕","LANE":" ","ALLEY":" ","HOUSE_NO":"３５１號之２９","E_COORD97":161950.57000000001,"N_COORD97":2560096.25,"ADDRESS":"大埕３５１號之２９","OBJECTID":83305},"geometry":{"x":161950.5700000003,"y":2560096.2500000037}},{"attributes":{"ID":83306,"DIS_CODE":0,"TOWNNAME":"北區","LI":"永祥里","LIN":"12鄰","STREET":"實踐街","SECT":" ","MAREA":" ","LANE":"１０３巷","ALLEY":"１９弄","HOUSE_NO":"２號之３","E_COORD97":170123.48999999999,"N_COORD97":2546125.3700000001,"ADDRESS":"實踐街１０３巷１９弄２號之３","OBJECTID":83306},"geometry":{"x":170123.49000000022,"y":2546125.3700000029}},{"attributes":{"ID":83307,"DIS_CODE":0,"TOWNNAME":"北區","LI":"永祥里","LIN":"12鄰","STREET":"實踐街","SECT":" ","MAREA":" ","LANE":"１０３巷","ALLEY":"１９弄","HOUSE_NO":"３號","E_COORD97":170098.72,"N_COORD97":2546105.9199999999,"ADDRESS":"實踐街１０３巷１９弄３號","OBJECTID":83307},"geometry":{"x":170098.72000000067,"y":2546105.9199999999}},{"attributes":{"ID":83308,"DIS_CODE":0,"TOWNNAME":"北區","LI":"永祥里","LIN":"12鄰","STREET":"實踐街","SECT":" ","MAREA":" ","LANE":"１０３巷","ALLEY":"１９弄","HOUSE_NO":"５號","E_COORD97":170094.10000000001,"N_COORD97":2546105.71,"ADDRESS":"實踐街１０３巷１９弄５號","OBJECTID":83308},"geometry":{"x":170094.10000000056,"y":2546105.7100000046}},{"attributes":{"ID":83309,"DIS_CODE":0,"TOWNNAME":"七股區","LI":"大埕里","LIN":"19鄰","STREET":" ","SECT":" ","MAREA":"大埕","LANE":" ","ALLEY":" ","HOUSE_NO":"３５１號之２","E_COORD97":161935.76000000001,"N_COORD97":2560149.1499999999,"ADDRESS":"大埕３５１號之２","OBJECTID":83309},"geometry":{"x":161935.76000000164,"y":2560149.1500000022}},{"attributes":{"ID":83310,"DIS_CODE":0,"TOWNNAME":"七股區","LI":"大埕里","LIN":"19鄰","STREET":" ","SECT":" ","MAREA":"大埕","LANE":" ","ALLEY":" ","HOUSE_NO":"３５１號之３０","E_COORD97":161949.97,"N_COORD97":2560091.9900000002,"ADDRESS":"大埕３５１號之３０","OBJECTID":83310},"geometry":{"x":161949.97000000067,"y":2560091.9900000021}},{"attributes":{"ID":83311,"DIS_CODE":0,"TOWNNAME":"北區","LI":"永祥里","LIN":"12鄰","STREET":"實踐街","SECT":" ","MAREA":" ","LANE":"１０３巷","ALLEY":"１９弄","HOUSE_NO":"６號","E_COORD97":170098.66,"N_COORD97":2546116.2000000002,"ADDRESS":"實踐街１０３巷１９弄６號","OBJECTID":83311},"geometry":{"x":170098.66000000015,"y":2546116.1999999993}},{"attributes":{"ID":83312,"DIS_CODE":0,"TOWNNAME":"北區","LI":"永祥里","LIN":"12鄰","STREET":"實踐街","SECT":" ","MAREA":" ","LANE":"１０３巷","ALLEY":"１９弄","HOUSE_NO":"７號","E_COORD97":170089.76000000001,"N_COORD97":2546105.5699999998,"ADDRESS":"實踐街１０３巷１９弄７號","OBJECTID":83312},"geometry":{"x":170089.76000000071,"y":2546105.5699999984}},{"attributes":{"ID":83313,"DIS_CODE":0,"TOWNNAME":"北區","LI":"永祥里","LIN":"12鄰","STREET":"實踐街","SECT":" ","MAREA":" ","LANE":"１０３巷","ALLEY":"１９弄","HOUSE_NO":"８號","E_COORD97":170094.32000000001,"N_COORD97":2546116.3399999999,"ADDRESS":"實踐街１０３巷１９弄８號","OBJECTID":83313},"geometry":{"x":170094.3200000003,"y":2546116.3399999999}},{"attributes":{"ID":83314,"DIS_CODE":0,"TOWNNAME":"七股區","LI":"大埕里","LIN":"19鄰","STREET":" ","SECT":" ","MAREA":"大埕","LANE":" ","ALLEY":" ","HOUSE_NO":"３５１號之３１","E_COORD97":161949.35999999999,"N_COORD97":2560087.7200000002,"ADDRESS":"大埕３５１號之３１","OBJECTID":83314},"geometry":{"x":161949.36000000127,"y":2560087.7200000025}},{"attributes":{"ID":83315,"DIS_CODE":0,"TOWNNAME":"七股區","LI":"大埕里","LIN":"19鄰","STREET":" ","SECT":" ","MAREA":"大埕","LANE":" ","ALLEY":" ","HOUSE_NO":"３５１號之３２","E_COORD97":161974.26000000001,"N_COORD97":2560148.48,"ADDRESS":"大埕３５１號之３２","OBJECTID":83315},"geometry":{"x":161974.25999999978,"y":2560148.4800000004}},{"attributes":{"ID":83316,"DIS_CODE":0,"TOWNNAME":"七股區","LI":"大埕里","LIN":"19鄰","STREET":" ","SECT":" ","MAREA":"大埕","LANE":" ","ALLEY":" ","HOUSE_NO":"３５１號之３３","E_COORD97":161973.60999999999,"N_COORD97":2560144.1499999999,"ADDRESS":"大埕３５１號之３３","OBJECTID":83316},"geometry":{"x":161973.61000000127,"y":2560144.1500000004}},{"attributes":{"ID":83317,"DIS_CODE":0,"TOWNNAME":"北區","LI":"永祥里","LIN":"12鄰","STREET":"實踐街","SECT":" ","MAREA":" ","LANE":"１０３巷","ALLEY":"１９弄","HOUSE_NO":"９號","E_COORD97":170085.20000000001,"N_COORD97":2546105.6400000001,"ADDRESS":"實踐街１０３巷１９弄９號","OBJECTID":83317},"geometry":{"x":170085.19999999925,"y":2546105.6400000043}},{"attributes":{"ID":83318,"DIS_CODE":0,"TOWNNAME":"北區","LI":"小康里","LIN":"12鄰","STREET":"公園路","SECT":" ","MAREA":" ","LANE":"９９４巷","ALLEY":"３０弄","HOUSE_NO":"１號","E_COORD97":169661.28,"N_COORD97":2546280.54,"ADDRESS":"公園路９９４巷３０弄１號","OBJECTID":83318},"geometry":{"x":169661.28000000119,"y":2546280.5399999991}},{"attributes":{"ID":83319,"DIS_CODE":0,"TOWNNAME":"北區","LI":"小康里","LIN":"12鄰","STREET":"公園路","SECT":" ","MAREA":" ","LANE":"９９４巷","ALLEY":"３０弄","HOUSE_NO":"２號","E_COORD97":169652.95000000001,"N_COORD97":2546279.8100000001,"ADDRESS":"公園路９９４巷３０弄２號","OBJECTID":83319},"geometry":{"x":169652.94999999925,"y":2546279.8100000005}},{"attributes":{"ID":83320,"DIS_CODE":0,"TOWNNAME":"北區","LI":"小康里","LIN":"12鄰","STREET":"公園路","SECT":" ","MAREA":" ","LANE":"９９４巷","ALLEY":"３０弄","HOUSE_NO":"４號","E_COORD97":169644.53,"N_COORD97":2546272.6800000002,"ADDRESS":"公園路９９４巷３０弄４號","OBJECTID":83320},"geometry":{"x":169644.53000000119,"y":2546272.6799999997}},{"attributes":{"ID":83321,"DIS_CODE":0,"TOWNNAME":"北區","LI":"小康里","LIN":"12鄰","STREET":"公園路","SECT":" ","MAREA":" ","LANE":"９９４巷","ALLEY":"３０弄","HOUSE_NO":"５號","E_COORD97":169660.73999999999,"N_COORD97":2546271.48,"ADDRESS":"公園路９９４巷３０弄５號","OBJECTID":83321},"geometry":{"x":169660.74000000022,"y":2546271.4800000004}},{"attributes":{"ID":83322,"DIS_CODE":0,"TOWNNAME":"北區","LI":"小康里","LIN":"12鄰","STREET":"公園路","SECT":" ","MAREA":" ","LANE":"９９４巷","ALLEY":"３０弄","HOUSE_NO":"６號","E_COORD97":169642.70000000001,"N_COORD97":2546281.1899999999,"ADDRESS":"公園路９９４巷３０弄６號","OBJECTID":83322},"geometry":{"x":169642.70000000019,"y":2546281.1900000013}},{"attributes":{"ID":83323,"DIS_CODE":0,"TOWNNAME":"仁德區","LI":"保安里","LIN":"15鄰","STREET":"文賢路","SECT":"二段","MAREA":" ","LANE":"１８巷","ALLEY":" ","HOUSE_NO":"１０號","E_COORD97":171665.12,"N_COORD97":2535785.5800000001,"ADDRESS":"文賢路二段１８巷１０號","OBJECTID":83323},"geometry":{"x":171665.12000000011,"y":2535785.5800000019}},{"attributes":{"ID":83324,"DIS_CODE":0,"TOWNNAME":"仁德區","LI":"仁德里","LIN":"15鄰","STREET":"仁德一街","SECT":" ","MAREA":" ","LANE":" ","ALLEY":" ","HOUSE_NO":"６６號","E_COORD97":173177.12,"N_COORD97":2541305.5099999998,"ADDRESS":"仁德一街６６號","OBJECTID":83324},"geometry":{"x":173177.12000000011,"y":2541305.5100000016}},{"attributes":{"ID":83325,"DIS_CODE":0,"TOWNNAME":"仁德區","LI":"保安里","LIN":"15鄰","STREET":"文賢路","SECT":"二段","MAREA":" ","LANE":" ","ALLEY":" ","HOUSE_NO":"２８號","E_COORD97":171729.51000000001,"N_COORD97":2535806.8199999998,"ADDRESS":"文賢路二段２８號","OBJECTID":83325},"geometry":{"x":171729.51000000071,"y":2535806.8200000003}},{"attributes":{"ID":83326,"DIS_CODE":0,"TOWNNAME":"仁德區","LI":"仁德里","LIN":"15鄰","STREET":"仁德一街","SECT":" ","MAREA":" ","LANE":" ","ALLEY":" ","HOUSE_NO":"６０號","E_COORD97":173176.60000000001,"N_COORD97":2541292.2599999998,"ADDRESS":"仁德一街６０號","OBJECTID":83326},"geometry":{"x":173176.59999999963,"y":2541292.2599999998}},{"attributes":{"ID":83327,"DIS_CODE":0,"TOWNNAME":"仁德區","LI":"仁德里","LIN":"15鄰","STREET":"仁德一街","SECT":" ","MAREA":" ","LANE":" ","ALLEY":" ","HOUSE_NO":"５３號","E_COORD97":173188.94,"N_COORD97":2541300.0099999998,"ADDRESS":"仁德一街５３號","OBJECTID":83327},"geometry":{"x":173188.94000000041,"y":2541300.0099999998}},{"attributes":{"ID":83328,"DIS_CODE":0,"TOWNNAME":"仁德區","LI":"仁德里","LIN":"15鄰","STREET":"仁德一街","SECT":" ","MAREA":" ","LANE":" ","ALLEY":" ","HOUSE_NO":"５８號","E_COORD97":173176.53,"N_COORD97":2541288.2599999998,"ADDRESS":"仁德一街５８號","OBJECTID":83328},"geometry":{"x":173176.53000000026,"y":2541288.2599999998}},{"attributes":{"ID":83329,"DIS_CODE":0,"TOWNNAME":"仁德區","LI":"仁德里","LIN":"15鄰","STREET":"仁德一街","SECT":" ","MAREA":" ","LANE":" ","ALLEY":" ","HOUSE_NO":"４９號","E_COORD97":173189.17000000001,"N_COORD97":2541291.7599999998,"ADDRESS":"仁德一街４９號","OBJECTID":83329},"geometry":{"x":173189.17000000179,"y":2541291.7599999998}},{"attributes":{"ID":83330,"DIS_CODE":0,"TOWNNAME":"仁德區","LI":"保安里","LIN":"15鄰","STREET":"中正路","SECT":"一段","MAREA":" ","LANE":" ","ALLEY":" ","HOUSE_NO":"２２２號","E_COORD97":171622.57999999999,"N_COORD97":2535811.77,"ADDRESS":"中正路一段２２２號","OBJECTID":83330},"geometry":{"x":171622.58000000101,"y":2535811.7700000014}},{"attributes":{"ID":83331,"DIS_CODE":0,"TOWNNAME":"南區","LI":"大忠里","LIN":"26鄰","STREET":"國民路","SECT":" ","MAREA":" ","LANE":" ","ALLEY":" ","HOUSE_NO":"１９８號","E_COORD97":169101.41,"N_COORD97":2540961.1000000001,"ADDRESS":"國民路１９８號","OBJECTID":83331},"geometry":{"x":169101.41000000108,"y":2540961.0999999996}},{"attributes":{"ID":83332,"DIS_CODE":0,"TOWNNAME":"七股區","LI":"大埕里","LIN":"19鄰","STREET":" ","SECT":" ","MAREA":"大埕","LANE":" ","ALLEY":" ","HOUSE_NO":"３５１號之３４","E_COORD97":161972.95999999999,"N_COORD97":2560139.8199999998,"ADDRESS":"大埕３５１號之３４","OBJECTID":83332},"geometry":{"x":161972.95999999996,"y":2560139.8200000003}},{"attributes":{"ID":83333,"DIS_CODE":0,"TOWNNAME":"七股區","LI":"大埕里","LIN":"19鄰","STREET":" ","SECT":" ","MAREA":"大埕","LANE":" ","ALLEY":" ","HOUSE_NO":"３５１號之３５","E_COORD97":161972.32000000001,"N_COORD97":2560135.5,"ADDRESS":"大埕３５１號之３５","OBJECTID":83333},"geometry":{"x":161972.3200000003,"y":2560135.5000000037}},{"attributes":{"ID":83334,"DIS_CODE":0,"TOWNNAME":"七股區","LI":"大埕里","LIN":"19鄰","STREET":" ","SECT":" ","MAREA":"大埕","LANE":" ","ALLEY":" ","HOUSE_NO":"３５１號之３６","E_COORD97":161971.67000000001,"N_COORD97":2560131.1699999999,"ADDRESS":"大埕３５１號之３６","OBJECTID":83334},"geometry":{"x":161971.66999999993,"y":2560131.1700000018}},{"attributes":{"ID":83335,"DIS_CODE":0,"TOWNNAME":"七股區","LI":"大埕里","LIN":"19鄰","STREET":" ","SECT":" ","MAREA":"大埕","LANE":" ","ALLEY":" ","HOUSE_NO":"３５１號之３７","E_COORD97":161971.03,"N_COORD97":2560126.8399999999,"ADDRESS":"大埕３５１號之３７","OBJECTID":83335},"geometry":{"x":161971.03000000026,"y":2560126.8400000017}},{"attributes":{"ID":83336,"DIS_CODE":0,"TOWNNAME":"七股區","LI":"大埕里","LIN":"19鄰","STREET":" ","SECT":" ","MAREA":"大埕","LANE":" ","ALLEY":" ","HOUSE_NO":"３５１號之３８","E_COORD97":161970.38,"N_COORD97":2560122.5099999998,"ADDRESS":"大埕３５１號之３８","OBJECTID":83336},"geometry":{"x":161970.37999999989,"y":2560122.5100000016}},{"attributes":{"ID":83337,"DIS_CODE":0,"TOWNNAME":"七股區","LI":"大埕里","LIN":"19鄰","STREET":" ","SECT":" ","MAREA":"大埕","LANE":" ","ALLEY":" ","HOUSE_NO":"３５１號之３９","E_COORD97":161969.73999999999,"N_COORD97":2560118.1800000002,"ADDRESS":"大埕３５１號之３９","OBJECTID":83337},"geometry":{"x":161969.74000000022,"y":2560118.1800000016}},{"attributes":{"ID":83338,"DIS_CODE":0,"TOWNNAME":"七股區","LI":"大埕里","LIN":"19鄰","STREET":" ","SECT":" ","MAREA":"大埕","LANE":" ","ALLEY":" ","HOUSE_NO":"３５１號之３","E_COORD97":161934.60999999999,"N_COORD97":2560144.8500000001,"ADDRESS":"大埕３５１號之３","OBJECTID":83338},"geometry":{"x":161934.61000000127,"y":2560144.8499999996}},{"attributes":{"ID":83339,"DIS_CODE":0,"TOWNNAME":"南區","LI":"鯤鯓里","LIN":"12鄰","STREET":"鯤鯓路","SECT":" ","MAREA":" ","LANE":"１９４巷","ALLEY":"４７弄","HOUSE_NO":"１８號","E_COORD97":165038.19,"N_COORD97":2540386,"ADDRESS":"鯤鯓路１９４巷４７弄１８號","OBJECTID":83339},"geometry":{"x":165038.19000000134,"y":2540386}},{"attributes":{"ID":83340,"DIS_CODE":0,"TOWNNAME":"南區","LI":"鯤鯓里","LIN":"12鄰","STREET":"鯤鯓路","SECT":" ","MAREA":" ","LANE":"１９４巷","ALLEY":"４７弄","HOUSE_NO":"２０號","E_COORD97":165039.31,"N_COORD97":2540391.3500000001,"ADDRESS":"鯤鯓路１９４巷４７弄２０號","OBJECTID":83340},"geometry":{"x":165039.31000000052,"y":2540391.3500000015}},{"attributes":{"ID":83341,"DIS_CODE":0,"TOWNNAME":"七股區","LI":"大埕里","LIN":"19鄰","STREET":" ","SECT":" ","MAREA":"大埕","LANE":" ","ALLEY":" ","HOUSE_NO":"３５１號之４０","E_COORD97":161969.23999999999,"N_COORD97":2560114.3799999999,"ADDRESS":"大埕３５１號之４０","OBJECTID":83341},"geometry":{"x":161969.24000000115,"y":2560114.379999999}},{"attributes":{"ID":83342,"DIS_CODE":0,"TOWNNAME":"南區","LI":"鯤鯓里","LIN":"12鄰","STREET":"鯤鯓路","SECT":" ","MAREA":" ","LANE":"１９４巷","ALLEY":"４７弄","HOUSE_NO":"２２號","E_COORD97":165023.45999999999,"N_COORD97":2540382.5,"ADDRESS":"鯤鯓路１９４巷４７弄２２號","OBJECTID":83342},"geometry":{"x":165023.46000000089,"y":2540382.5}},{"attributes":{"ID":83343,"DIS_CODE":0,"TOWNNAME":"南區","LI":"鯤鯓里","LIN":"12鄰","STREET":"鯤鯓路","SECT":" ","MAREA":" ","LANE":"１９４巷","ALLEY":"４７弄","HOUSE_NO":"２４號","E_COORD97":165027,"N_COORD97":2540392.5299999998,"ADDRESS":"鯤鯓路１９４巷４７弄２４號","OBJECTID":83343},"geometry":{"x":165027.00000000093,"y":2540392.5300000012}},{"attributes":{"ID":83344,"DIS_CODE":0,"TOWNNAME":"南區","LI":"鯤鯓里","LIN":"12鄰","STREET":"鯤鯓路","SECT":" ","MAREA":" ","LANE":"１９４巷","ALLEY":"４７弄","HOUSE_NO":"２６號","E_COORD97":165027.81,"N_COORD97":2540396.8599999999,"ADDRESS":"鯤鯓路１９４巷４７弄２６號","OBJECTID":83344},"geometry":{"x":165027.81000000052,"y":2540396.8600000031}},{"attributes":{"ID":83345,"DIS_CODE":0,"TOWNNAME":"南區","LI":"鯤鯓里","LIN":"12鄰","STREET":"鯤鯓路","SECT":" ","MAREA":" ","LANE":"１９４巷","ALLEY":"４７弄","HOUSE_NO":"２８號","E_COORD97":165002.92999999999,"N_COORD97":2540392.04,"ADDRESS":"鯤鯓路１９４巷４７弄２８號","OBJECTID":83345},"geometry":{"x":165002.93000000063,"y":2540392.0400000028}},{"attributes":{"ID":83346,"DIS_CODE":0,"TOWNNAME":"南區","LI":"鯤鯓里","LIN":"12鄰","STREET":"鯤鯓路","SECT":" ","MAREA":" ","LANE":"１９４巷","ALLEY":"４７弄","HOUSE_NO":"３０號","E_COORD97":164997.72,"N_COORD97":2540379.46,"ADDRESS":"鯤鯓路１９４巷４７弄３０號","OBJECTID":83346},"geometry":{"x":164997.72000000067,"y":2540379.4600000009}},{"attributes":{"ID":83347,"DIS_CODE":0,"TOWNNAME":"歸仁區","LI":"南保里","LIN":"12鄰","STREET":"文化十街","SECT":" ","MAREA":" ","LANE":"１０巷","ALLEY":"１弄","HOUSE_NO":"９號","E_COORD97":176586.04000000001,"N_COORD97":2541306.3300000001,"ADDRESS":"文化十街１０巷１弄９號","OBJECTID":83347},"geometry":{"x":176586.04000000097,"y":2541306.3300000038}},{"attributes":{"ID":83348,"DIS_CODE":0,"TOWNNAME":"歸仁區","LI":"南保里","LIN":"12鄰","STREET":"文化十街","SECT":" ","MAREA":" ","LANE":"１０巷","ALLEY":"１弄","HOUSE_NO":"７號","E_COORD97":176584.94,"N_COORD97":2541299.3300000001,"ADDRESS":"文化十街１０巷１弄７號","OBJECTID":83348},"geometry":{"x":176584.94000000227,"y":2541299.3300000001}},{"attributes":{"ID":83349,"DIS_CODE":0,"TOWNNAME":"北區","LI":"成德里","LIN":"12鄰","STREET":"育德二路","SECT":" ","MAREA":" ","LANE":"５５巷","ALLEY":"１７弄","HOUSE_NO":"３３號","E_COORD97":168121.89000000001,"N_COORD97":2545425.6800000002,"ADDRESS":"育德二路５５巷１７弄３３號","OBJECTID":83349},"geometry":{"x":168121.88999999966,"y":2545425.6799999997}},{"attributes":{"ID":83350,"DIS_CODE":0,"TOWNNAME":"七股區","LI":"大埕里","LIN":"19鄰","STREET":" ","SECT":" ","MAREA":"大埕","LANE":" ","ALLEY":" ","HOUSE_NO":"３５１號之４１","E_COORD97":161968.60000000001,"N_COORD97":2560110.1800000002,"ADDRESS":"大埕３５１號之４１","OBJECTID":83350},"geometry":{"x":161968.59999999963,"y":2560110.1800000034}},{"attributes":{"ID":83351,"DIS_CODE":0,"TOWNNAME":"東區","LI":"崇信里","LIN":" ","STREET":"崇學路","SECT":" ","MAREA":" ","LANE":"２３０巷","ALLEY":"１０７弄","HOUSE_NO":"１４號","E_COORD97":170675.07999999999,"N_COORD97":2542295.2999999998,"ADDRESS":"崇學路２３０巷１０７弄１４號","OBJECTID":83351},"geometry":{"x":170675.08000000101,"y":2542295.3000000026}},{"attributes":{"ID":83352,"DIS_CODE":0,"TOWNNAME":"北區","LI":"文元里","LIN":"12鄰","STREET":"文賢路","SECT":" ","MAREA":" ","LANE":"１１２２巷","ALLEY":"１１弄","HOUSE_NO":"７號","E_COORD97":167386.19,"N_COORD97":2546342.3700000001,"ADDRESS":"文賢路１１２２巷１１弄７號","OBJECTID":83352},"geometry":{"x":167386.19000000041,"y":2546342.3700000029}},{"attributes":{"ID":83353,"DIS_CODE":0,"TOWNNAME":"北區","LI":"文元里","LIN":"12鄰","STREET":"文賢路","SECT":" ","MAREA":" ","LANE":"１１２２巷","ALLEY":"１１弄","HOUSE_NO":"９號","E_COORD97":167384.69,"N_COORD97":2546351.3399999999,"ADDRESS":"文賢路１１２２巷１１弄９號","OBJECTID":83353},"geometry":{"x":167384.69000000041,"y":2546351.3400000017}},{"attributes":{"ID":83354,"DIS_CODE":0,"TOWNNAME":"北區","LI":"文元里","LIN":"12鄰","STREET":"文賢路","SECT":" ","MAREA":" ","LANE":"１１２２巷","ALLEY":"１１弄","HOUSE_NO":"１２號","E_COORD97":167395.41,"N_COORD97":2546369.8399999999,"ADDRESS":"文賢路１１２２巷１１弄１２號","OBJECTID":83354},"geometry":{"x":167395.41000000201,"y":2546369.8399999999}},{"attributes":{"ID":83355,"DIS_CODE":0,"TOWNNAME":"南區","LI":"大恩里","LIN":"12鄰","STREET":"國民路","SECT":" ","MAREA":" ","LANE":"１６５巷","ALLEY":"２２弄","HOUSE_NO":"６號","E_COORD97":169137.20999999999,"N_COORD97":2540836.6499999999,"ADDRESS":"國民路１６５巷２２弄６號","OBJECTID":83355},"geometry":{"x":169137.20999999996,"y":2540836.6500000041}},{"attributes":{"ID":83356,"DIS_CODE":0,"TOWNNAME":"七股區","LI":"大埕里","LIN":"19鄰","STREET":" ","SECT":" ","MAREA":"大埕","LANE":" ","ALLEY":" ","HOUSE_NO":"３５１號之４２","E_COORD97":161967.92999999999,"N_COORD97":2560105.9399999999,"ADDRESS":"大埕３５１號之４２","OBJECTID":83356},"geometry":{"x":161967.9299999997,"y":2560105.9400000013}},{"attributes":{"ID":83357,"DIS_CODE":0,"TOWNNAME":"七股區","LI":"大埕里","LIN":"19鄰","STREET":" ","SECT":" ","MAREA":"大埕","LANE":" ","ALLEY":" ","HOUSE_NO":"３５１號之４３","E_COORD97":161967.22,"N_COORD97":2560101.8199999998,"ADDRESS":"大埕３５１號之４３","OBJECTID":83357},"geometry":{"x":161967.22000000067,"y":2560101.8200000003}},{"attributes":{"ID":83358,"DIS_CODE":0,"TOWNNAME":"七股區","LI":"大埕里","LIN":"19鄰","STREET":" ","SECT":" ","MAREA":"大埕","LANE":" ","ALLEY":" ","HOUSE_NO":"３５１號之４５","E_COORD97":161966.01999999999,"N_COORD97":2560093.0499999998,"ADDRESS":"大埕３５１號之４５","OBJECTID":83358},"geometry":{"x":161966.02000000142,"y":2560093.0500000026}},{"attributes":{"ID":83359,"DIS_CODE":0,"TOWNNAME":"七股區","LI":"大埕里","LIN":"19鄰","STREET":" ","SECT":" ","MAREA":"大埕","LANE":" ","ALLEY":" ","HOUSE_NO":"３５１號之４６","E_COORD97":161965.42000000001,"N_COORD97":2560089,"ADDRESS":"大埕３５１號之４６","OBJECTID":83359},"geometry":{"x":161965.42000000179,"y":2560089.0000000019}},{"attributes":{"ID":83360,"DIS_CODE":0,"TOWNNAME":"仁德區","LI":"新田里","LIN":"15鄰","STREET":"中正路","SECT":"二段","MAREA":" ","LANE":" ","ALLEY":" ","HOUSE_NO":"４５４號","E_COORD97":173314.07000000001,"N_COORD97":2539359.27,"ADDRESS":"中正路二段４５４號","OBJECTID":83360},"geometry":{"x":173314.07000000216,"y":2539359.2699999996}},{"attributes":{"ID":83361,"DIS_CODE":0,"TOWNNAME":"仁德區","LI":"新田里","LIN":"15鄰","STREET":"中正路","SECT":"二段","MAREA":" ","LANE":" ","ALLEY":" ","HOUSE_NO":"４６０號","E_COORD97":173319.62,"N_COORD97":2539371.5299999998,"ADDRESS":"中正路二段４６０號","OBJECTID":83361},"geometry":{"x":173319.62000000011,"y":2539371.5299999975}},{"attributes":{"ID":83362,"DIS_CODE":0,"TOWNNAME":"仁德區","LI":"新田里","LIN":"15鄰","STREET":"中正路","SECT":"二段","MAREA":" ","LANE":" ","ALLEY":" ","HOUSE_NO":"４５０號","E_COORD97":173311.07000000001,"N_COORD97":2539351.27,"ADDRESS":"中正路二段４５０號","OBJECTID":83362},"geometry":{"x":173311.07000000123,"y":2539351.2700000014}},{"attributes":{"ID":83363,"DIS_CODE":0,"TOWNNAME":"仁德區","LI":"新田里","LIN":"15鄰","STREET":"中正路","SECT":"二段","MAREA":" ","LANE":" ","ALLEY":" ","HOUSE_NO":"４６６號","E_COORD97":173324.63,"N_COORD97":2539384.2799999998,"ADDRESS":"中正路二段４６６號","OBJECTID":83363},"geometry":{"x":173324.62999999989,"y":2539384.2800000012}},{"attributes":{"ID":83364,"DIS_CODE":0,"TOWNNAME":"七股區","LI":"大埕里","LIN":"19鄰","STREET":" ","SECT":" ","MAREA":"大埕","LANE":" ","ALLEY":" ","HOUSE_NO":"３５１號之４７","E_COORD97":161964.76000000001,"N_COORD97":2560084.7000000002,"ADDRESS":"大埕３５１號之４７","OBJECTID":83364},"geometry":{"x":161964.76000000071,"y":2560084.6999999993}},{"attributes":{"ID":83365,"DIS_CODE":0,"TOWNNAME":"七股區","LI":"大埕里","LIN":"19鄰","STREET":" ","SECT":" ","MAREA":"大埕","LANE":" ","ALLEY":" ","HOUSE_NO":"３５１號之４８","E_COORD97":161964.10000000001,"N_COORD97":2560079.7999999998,"ADDRESS":"大埕３５１號之４８","OBJECTID":83365},"geometry":{"x":161964.10000000056,"y":2560079.8000000045}},{"attributes":{"ID":83366,"DIS_CODE":0,"TOWNNAME":"七股區","LI":"大埕里","LIN":"19鄰","STREET":" ","SECT":" ","MAREA":"大埕","LANE":" ","ALLEY":" ","HOUSE_NO":"３５１號之４","E_COORD97":161933.97,"N_COORD97":2560140.2799999998,"ADDRESS":"大埕３５１號之４","OBJECTID":83366},"geometry":{"x":161933.96999999974,"y":2560140.2800000012}},{"attributes":{"ID":83367,"DIS_CODE":0,"TOWNNAME":"七股區","LI":"大埕里","LIN":"19鄰","STREET":" ","SECT":" ","MAREA":"大埕","LANE":" ","ALLEY":" ","HOUSE_NO":"３５１號之５","E_COORD97":161933.69,"N_COORD97":2560136.1699999999,"ADDRESS":"大埕３５１號之５","OBJECTID":83367},"geometry":{"x":161933.69000000134,"y":2560136.1699999999}},{"attributes":{"ID":83368,"DIS_CODE":0,"TOWNNAME":"七股區","LI":"大埕里","LIN":"19鄰","STREET":" ","SECT":" ","MAREA":"大埕","LANE":" ","ALLEY":" ","HOUSE_NO":"３５１號之６","E_COORD97":161933.25,"N_COORD97":2560131.5299999998,"ADDRESS":"大埕３５１號之６","OBJECTID":83368},"geometry":{"x":161933.25000000093,"y":2560131.5300000012}},{"attributes":{"ID":83369,"DIS_CODE":0,"TOWNNAME":"七股區","LI":"大埕里","LIN":"19鄰","STREET":" ","SECT":" ","MAREA":"大埕","LANE":" ","ALLEY":" ","HOUSE_NO":"３５１號之７","E_COORD97":161931.94,"N_COORD97":2560127.7400000002,"ADDRESS":"大埕３５１號之７","OBJECTID":83369},"geometry":{"x":161931.94000000134,"y":2560127.7400000021}},{"attributes":{"ID":83370,"DIS_CODE":0,"TOWNNAME":"北區","LI":"文元里","LIN":"12鄰","STREET":"文賢路","SECT":" ","MAREA":" ","LANE":"１１２２巷","ALLEY":"１１弄","HOUSE_NO":"３４號","E_COORD97":167386.89000000001,"N_COORD97":2546424.0899999999,"ADDRESS":"文賢路１１２２巷１１弄３４號","OBJECTID":83370},"geometry":{"x":167386.8900000006,"y":2546424.0900000036}},{"attributes":{"ID":83371,"DIS_CODE":0,"TOWNNAME":"東區","LI":"忠孝里","LIN":"31鄰","STREET":"中華東路","SECT":"三段","MAREA":" ","LANE":"４５２巷","ALLEY":"８弄","HOUSE_NO":"５０號","E_COORD97":170029.48999999999,"N_COORD97":2541623.0699999998,"ADDRESS":"中華東路三段４５２巷８弄５０號","OBJECTID":83371},"geometry":{"x":170029.49000000115,"y":2541623.0700000003}},{"attributes":{"ID":83372,"DIS_CODE":0,"TOWNNAME":"東區","LI":"虎尾里","LIN":"3鄰","STREET":"東門路","SECT":"三段","MAREA":" ","LANE":"１７９巷","ALLEY":"１４７弄","HOUSE_NO":"２８號","E_COORD97":171782.06,"N_COORD97":2542127.0699999998,"ADDRESS":"東門路三段１７９巷１４７弄２８號","OBJECTID":83372},"geometry":{"x":171782.05999999959,"y":2542127.0700000022}},{"attributes":{"ID":83373,"DIS_CODE":0,"TOWNNAME":"東區","LI":"大智里","LIN":"28鄰","STREET":"德東街","SECT":" ","MAREA":" ","LANE":"２３５巷","ALLEY":"１１８弄","HOUSE_NO":"８０號","E_COORD97":171550.51999999999,"N_COORD97":2540347.4900000002,"ADDRESS":"德東街２３５巷１１８弄８０號","OBJECTID":83373},"geometry":{"x":171550.52000000142,"y":2540347.4900000021}},{"attributes":{"ID":83374,"DIS_CODE":0,"TOWNNAME":"東區","LI":"大智里","LIN":"28鄰","STREET":"德東街","SECT":" ","MAREA":" ","LANE":"２３５巷","ALLEY":"１１８弄","HOUSE_NO":"８２號","E_COORD97":171544.67999999999,"N_COORD97":2540345.8199999998,"ADDRESS":"德東街２３５巷１１８弄８２號","OBJECTID":83374},"geometry":{"x":171544.68000000063,"y":2540345.8200000003}},{"attributes":{"ID":83375,"DIS_CODE":0,"TOWNNAME":"東區","LI":"大智里","LIN":"28鄰","STREET":"德東街","SECT":" ","MAREA":" ","LANE":"２３５巷","ALLEY":"１１８弄","HOUSE_NO":"８６號","E_COORD97":171538.82999999999,"N_COORD97":2540344.5600000001,"ADDRESS":"德東街２３５巷１１８弄８６號","OBJECTID":83375},"geometry":{"x":171538.83000000194,"y":2540344.5600000005}},{"attributes":{"ID":83376,"DIS_CODE":0,"TOWNNAME":"東區","LI":"富強里","LIN":"25鄰","STREET":"裕農路","SECT":" ","MAREA":" ","LANE":"４４６巷","ALLEY":"５２弄","HOUSE_NO":"５２號","E_COORD97":171083.07999999999,"N_COORD97":2542994.8100000001,"ADDRESS":"裕農路４４６巷５２弄５２號","OBJECTID":83376},"geometry":{"x":171083.08000000101,"y":2542994.8100000005}},{"attributes":{"ID":83377,"DIS_CODE":0,"TOWNNAME":"東區","LI":"富強里","LIN":"25鄰","STREET":"裕農路","SECT":" ","MAREA":" ","LANE":"４４６巷","ALLEY":"５２弄","HOUSE_NO":"５６之２號","E_COORD97":171071.29000000001,"N_COORD97":2543007.2200000002,"ADDRESS":"裕農路４４６巷５２弄５６之２號","OBJECTID":83377},"geometry":{"x":171071.2900000019,"y":2543007.2200000025}},{"attributes":{"ID":83378,"DIS_CODE":0,"TOWNNAME":"東區","LI":"自強里","LIN":"1鄰","STREET":"東門路","SECT":"三段","MAREA":" ","LANE":"３７巷","ALLEY":"６弄","HOUSE_NO":"２號","E_COORD97":171247.39999999999,"N_COORD97":2542296.0499999998,"ADDRESS":"東門路三段３７巷６弄２號","OBJECTID":83378},"geometry":{"x":171247.4000000013,"y":2542296.0500000026}},{"attributes":{"ID":83379,"DIS_CODE":0,"TOWNNAME":"東區","LI":"大智里","LIN":"32鄰","STREET":"德東街","SECT":" ","MAREA":" ","LANE":"２３５巷","ALLEY":"５１弄","HOUSE_NO":"３０號","E_COORD97":171340.76000000001,"N_COORD97":2540365.8900000001,"ADDRESS":"德東街２３５巷５１弄３０號","OBJECTID":83379},"geometry":{"x":171340.76000000071,"y":2540365.8900000006}},{"attributes":{"ID":83380,"DIS_CODE":0,"TOWNNAME":"東區","LI":"大智里","LIN":"32鄰","STREET":"德東街","SECT":" ","MAREA":" ","LANE":"２３５巷","ALLEY":"５１弄","HOUSE_NO":"３２號","E_COORD97":171336.17999999999,"N_COORD97":2540366.2200000002,"ADDRESS":"德東街２３５巷５１弄３２號","OBJECTID":83380},"geometry":{"x":171336.18000000063,"y":2540366.2200000025}},{"attributes":{"ID":83381,"DIS_CODE":0,"TOWNNAME":"七股區","LI":"大埕里","LIN":"19鄰","STREET":" ","SECT":" ","MAREA":"大埕","LANE":" ","ALLEY":" ","HOUSE_NO":"３５１號之８","E_COORD97":161932.07999999999,"N_COORD97":2560123.4199999999,"ADDRESS":"大埕３５１號之８","OBJECTID":83381},"geometry":{"x":161932.07999999914,"y":2560123.4200000018}},{"attributes":{"ID":83382,"DIS_CODE":0,"TOWNNAME":"七股區","LI":"大埕里","LIN":"19鄰","STREET":" ","SECT":" ","MAREA":"大埕","LANE":" ","ALLEY":" ","HOUSE_NO":"３５１號之９","E_COORD97":161930.92999999999,"N_COORD97":2560118.6400000001,"ADDRESS":"大埕３５１號之９","OBJECTID":83382},"geometry":{"x":161930.9299999997,"y":2560118.6400000025}},{"attributes":{"ID":83383,"DIS_CODE":0,"TOWNNAME":"七股區","LI":"大埕里","LIN":"19鄰","STREET":" ","SECT":" ","MAREA":"大埕","LANE":" ","ALLEY":" ","HOUSE_NO":"３５２號之１０","E_COORD97":161993,"N_COORD97":2560106.6699999999,"ADDRESS":"大埕３５２號之１０","OBJECTID":83383},"geometry":{"x":161993,"y":2560106.6699999999}},{"attributes":{"ID":83384,"DIS_CODE":0,"TOWNNAME":"七股區","LI":"大埕里","LIN":"19鄰","STREET":" ","SECT":" ","MAREA":"大埕","LANE":" ","ALLEY":" ","HOUSE_NO":"３５２號之１１","E_COORD97":161992.32999999999,"N_COORD97":2560102.2400000002,"ADDRESS":"大埕３５２號之１１","OBJECTID":83384},"geometry":{"x":161992.33000000101,"y":2560102.2400000002}},{"attributes":{"ID":83385,"DIS_CODE":0,"TOWNNAME":"七股區","LI":"大埕里","LIN":"19鄰","STREET":" ","SECT":" ","MAREA":"大埕","LANE":" ","ALLEY":" ","HOUSE_NO":"３５２號之１２","E_COORD97":161991.64999999999,"N_COORD97":2560097.8100000001,"ADDRESS":"大埕３５２號之１２","OBJECTID":83385},"geometry":{"x":161991.6500000013,"y":2560097.8100000024}},{"attributes":{"ID":83386,"DIS_CODE":0,"TOWNNAME":"七股區","LI":"大埕里","LIN":"19鄰","STREET":" ","SECT":" ","MAREA":"大埕","LANE":" ","ALLEY":" ","HOUSE_NO":"３５２號之１３","E_COORD97":161990.98000000001,"N_COORD97":2560093.3799999999,"ADDRESS":"大埕３５２號之１３","OBJECTID":83386},"geometry":{"x":161990.98000000231,"y":2560093.379999999}},{"attributes":{"ID":83387,"DIS_CODE":0,"TOWNNAME":"七股區","LI":"大埕里","LIN":"19鄰","STREET":" ","SECT":" ","MAREA":"大埕","LANE":" ","ALLEY":" ","HOUSE_NO":"３５２號之１４","E_COORD97":161990.29999999999,"N_COORD97":2560088.9500000002,"ADDRESS":"大埕３５２號之１４","OBJECTID":83387},"geometry":{"x":161990.30000000075,"y":2560088.9500000011}},{"attributes":{"ID":83388,"DIS_CODE":0,"TOWNNAME":"七股區","LI":"大埕里","LIN":"19鄰","STREET":" ","SECT":" ","MAREA":"大埕","LANE":" ","ALLEY":" ","HOUSE_NO":"３５２號之１５","E_COORD97":161989.63,"N_COORD97":2560084.52,"ADDRESS":"大埕３５２號之１５","OBJECTID":83388},"geometry":{"x":161989.63000000082,"y":2560084.5200000014}},{"attributes":{"ID":83389,"DIS_CODE":0,"TOWNNAME":"七股區","LI":"大埕里","LIN":"19鄰","STREET":" ","SECT":" ","MAREA":"大埕","LANE":" ","ALLEY":" ","HOUSE_NO":"３５２號之１６","E_COORD97":161988.95999999999,"N_COORD97":2560080.1000000001,"ADDRESS":"大埕３５２號之１６","OBJECTID":83389},"geometry":{"x":161988.96000000089,"y":2560080.1000000034}},{"attributes":{"ID":83390,"DIS_CODE":0,"TOWNNAME":"七股區","LI":"大埕里","LIN":"19鄰","STREET":" ","SECT":" ","MAREA":"大埕","LANE":" ","ALLEY":" ","HOUSE_NO":"３５２號之１７","E_COORD97":161988.28,"N_COORD97":2560075.6699999999,"ADDRESS":"大埕３５２號之１７","OBJECTID":83390},"geometry":{"x":161988.28000000026,"y":2560075.6699999999}},{"attributes":{"ID":83391,"DIS_CODE":0,"TOWNNAME":"七股區","LI":"大埕里","LIN":"19鄰","STREET":" ","SECT":" ","MAREA":"大埕","LANE":" ","ALLEY":" ","HOUSE_NO":"３５２號之１８","E_COORD97":161996.60000000001,"N_COORD97":2560217.0699999998,"ADDRESS":"大埕３５２號之１８","OBJECTID":83391},"geometry":{"x":161996.60000000056,"y":2560217.0700000022}},{"attributes":{"ID":83392,"DIS_CODE":0,"TOWNNAME":"七股區","LI":"大埕里","LIN":"19鄰","STREET":" ","SECT":" ","MAREA":"大埕","LANE":" ","ALLEY":" ","HOUSE_NO":"３５２號之１９","E_COORD97":161997.48999999999,"N_COORD97":2560213.0499999998,"ADDRESS":"大埕３５２號之１９","OBJECTID":83392},"geometry":{"x":161997.49000000115,"y":2560213.0500000007}},{"attributes":{"ID":83393,"DIS_CODE":0,"TOWNNAME":"七股區","LI":"大埕里","LIN":"19鄰","STREET":" ","SECT":" ","MAREA":"大埕","LANE":" ","ALLEY":" ","HOUSE_NO":"３５２號之１","E_COORD97":161999.34,"N_COORD97":2560145.4100000001,"ADDRESS":"大埕３５２號之１","OBJECTID":83393},"geometry":{"x":161999.33999999985,"y":2560145.4100000001}},{"attributes":{"ID":83394,"DIS_CODE":0,"TOWNNAME":"七股區","LI":"大埕里","LIN":"19鄰","STREET":" ","SECT":" ","MAREA":"大埕","LANE":" ","ALLEY":" ","HOUSE_NO":"３５２號之２０","E_COORD97":161997.38,"N_COORD97":2560209.02,"ADDRESS":"大埕３５２號之２０","OBJECTID":83394},"geometry":{"x":161997.37999999989,"y":2560209.0199999996}},{"attributes":{"ID":83395,"DIS_CODE":0,"TOWNNAME":"七股區","LI":"大埕里","LIN":"19鄰","STREET":" ","SECT":" ","MAREA":"大埕","LANE":" ","ALLEY":" ","HOUSE_NO":"３５２號之２１","E_COORD97":161996.79000000001,"N_COORD97":2560204.1000000001,"ADDRESS":"大埕３５２號之２１","OBJECTID":83395},"geometry":{"x":161996.7900000019,"y":2560204.0999999996}},{"attributes":{"ID":83396,"DIS_CODE":0,"TOWNNAME":"東區","LI":"大智里","LIN":"32鄰","STREET":"德東街","SECT":" ","MAREA":" ","LANE":"２３５巷","ALLEY":"５１弄","HOUSE_NO":"８號","E_COORD97":171380.22,"N_COORD97":2540364.5800000001,"ADDRESS":"德東街２３５巷５１弄８號","OBJECTID":83396},"geometry":{"x":171380.22000000067,"y":2540364.5800000001}},{"attributes":{"ID":83397,"DIS_CODE":0,"TOWNNAME":"東區","LI":"自強里","LIN":"26鄰","STREET":"中華東路","SECT":"二段","MAREA":" ","LANE":"２４３巷","ALLEY":"５７弄","HOUSE_NO":"３７號","E_COORD97":171392.92000000001,"N_COORD97":2542690.7999999998,"ADDRESS":"中華東路二段２４３巷５７弄３７號","OBJECTID":83397},"geometry":{"x":171392.92000000086,"y":2542690.8000000045}},{"attributes":{"ID":83398,"DIS_CODE":0,"TOWNNAME":"歸仁區","LI":"大廟里","LIN":"12鄰","STREET":"大廟六街","SECT":" ","MAREA":" ","LANE":"６８巷","ALLEY":"２８弄","HOUSE_NO":"８號","E_COORD97":176085.62,"N_COORD97":2544179.25,"ADDRESS":"大廟六街６８巷２８弄８號","OBJECTID":83398},"geometry":{"x":176085.62000000104,"y":2544179.2500000019}},{"attributes":{"ID":83399,"DIS_CODE":0,"TOWNNAME":"楠西區","LI":"東勢里","LIN":"12鄰","STREET":"仁愛路","SECT":" ","MAREA":" ","LANE":"６２巷","ALLEY":"３弄","HOUSE_NO":"８號","E_COORD97":197525.84,"N_COORD97":2563905.2799999998,"ADDRESS":"仁愛路６２巷３弄８號","OBJECTID":83399},"geometry":{"x":197525.84000000171,"y":2563905.2799999993}},{"attributes":{"ID":83400,"DIS_CODE":0,"TOWNNAME":"官田區","LI":"渡頭里","LIN":"15鄰","STREET":" ","SECT":" ","MAREA":"渡子頭","LANE":" ","ALLEY":" ","HOUSE_NO":"１０８號之１","E_COORD97":181152.78,"N_COORD97":2563050.8700000001,"ADDRESS":"渡子頭１０８號之１","OBJECTID":83400},"geometry":{"x":181152.78000000212,"y":2563050.8700000029}}]}