{"displayFieldName":"TOWNNAME","fieldAliases":{"ID":"ID","DIS_CODE":"DIS_CODE","TOWNNAME":"TOWNNAME","LI":"LI","LIN":"LIN","STREET":"STREET","SECT":"SECT","MAREA":"MAREA","LANE":"LANE","ALLEY":"ALLEY","HOUSE_NO":"HOUSE_NO","E_COORD97":"E_COORD97","N_COORD97":"N_COORD97","ADDRESS":"ADDRESS","OBJECTID":"OBJECTID"},"geometryType":"esriGeometryPoint","spatialReference":{"wkid":102443,"latestWkid":3826},"fields":[{"name":"ID","type":"esriFieldTypeDouble","alias":"ID"},{"name":"DIS_CODE","type":"esriFieldTypeInteger","alias":"DIS_CODE"},{"name":"TOWNNAME","type":"esriFieldTypeString","alias":"TOWNNAME","length":8},{"name":"LI","type":"esriFieldTypeString","alias":"LI","length":8},{"name":"LIN","type":"esriFieldTypeString","alias":"LIN","length":12},{"name":"STREET","type":"esriFieldTypeString","alias":"STREET","length":20},{"name":"SECT","type":"esriFieldTypeString","alias":"SECT","length":8},{"name":"MAREA","type":"esriFieldTypeString","alias":"MAREA","length":12},{"name":"LANE","type":"esriFieldTypeString","alias":"LANE","length":10},{"name":"ALLEY","type":"esriFieldTypeString","alias":"ALLEY","length":10},{"name":"HOUSE_NO","type":"esriFieldTypeString","alias":"HOUSE_NO","length":20},{"name":"E_COORD97","type":"esriFieldTypeDouble","alias":"E_COORD97"},{"name":"N_COORD97","type":"esriFieldTypeDouble","alias":"N_COORD97"},{"name":"ADDRESS","type":"esriFieldTypeString","alias":"ADDRESS","length":50},{"name":"OBJECTID","type":"esriFieldTypeOID","alias":"OBJECTID"}],"features":[{"attributes":{"ID":609828,"DIS_CODE":0,"TOWNNAME":"東區","LI":"崇文里","LIN":"3鄰","STREET":"崇德十六街","SECT":" ","MAREA":" ","LANE":" ","ALLEY":" ","HOUSE_NO":"９１號","E_COORD97":171057.81,"N_COORD97":2541151.8199999998,"ADDRESS":"崇德十六街９１號","OBJECTID":609801},"geometry":{"x":171057.81000000052,"y":2541151.8200000022}},{"attributes":{"ID":609829,"DIS_CODE":0,"TOWNNAME":"中西區","LI":"水仙里","LIN":"3鄰","STREET":"仁愛街","SECT":" ","MAREA":" ","LANE":" ","ALLEY":" ","HOUSE_NO":"２１號","E_COORD97":167743.64000000001,"N_COORD97":2544020.6800000002,"ADDRESS":"仁愛街２１號","OBJECTID":609802},"geometry":{"x":167743.63999999966,"y":2544020.6800000016}},{"attributes":{"ID":609830,"DIS_CODE":0,"TOWNNAME":"安南區","LI":"理想里","LIN":"3鄰","STREET":"大安街","SECT":" ","MAREA":" ","LANE":" ","ALLEY":" ","HOUSE_NO":"６２０之１號","E_COORD97":167284.281647,"N_COORD97":2548850.4203900001,"ADDRESS":"大安街６２０之１號","OBJECTID":609803},"geometry":{"x":167284.28164700139,"y":2548850.4203890003}},{"attributes":{"ID":609831,"DIS_CODE":0,"TOWNNAME":"安南區","LI":"理想里","LIN":"3鄰","STREET":"大安街","SECT":" ","MAREA":" ","LANE":" ","ALLEY":" ","HOUSE_NO":"６２０號","E_COORD97":167291.69863200001,"N_COORD97":2548878.7837100001,"ADDRESS":"大安街６２０號","OBJECTID":609804},"geometry":{"x":167291.69863200095,"y":2548878.7837070022}},{"attributes":{"ID":609832,"DIS_CODE":0,"TOWNNAME":"中西區","LI":"水仙里","LIN":"3鄰","STREET":"仁愛街","SECT":" ","MAREA":" ","LANE":" ","ALLEY":" ","HOUSE_NO":"２２號","E_COORD97":167753.85000000001,"N_COORD97":2544013.1099999999,"ADDRESS":"仁愛街２２號","OBJECTID":609805},"geometry":{"x":167753.84999999963,"y":2544013.1100000013}},{"attributes":{"ID":609833,"DIS_CODE":0,"TOWNNAME":"中西區","LI":"水仙里","LIN":"3鄰","STREET":"仁愛街","SECT":" ","MAREA":" ","LANE":" ","ALLEY":" ","HOUSE_NO":"２４號","E_COORD97":167755.57999999999,"N_COORD97":2544016.5800000001,"ADDRESS":"仁愛街２４號","OBJECTID":609806},"geometry":{"x":167755.58000000101,"y":2544016.5800000001}},{"attributes":{"ID":609834,"DIS_CODE":0,"TOWNNAME":"中西區","LI":"水仙里","LIN":"3鄰","STREET":"仁愛街","SECT":" ","MAREA":" ","LANE":" ","ALLEY":" ","HOUSE_NO":"２６號","E_COORD97":167757.56,"N_COORD97":2544021.1299999999,"ADDRESS":"仁愛街２６號","OBJECTID":609807},"geometry":{"x":167757.55999999959,"y":2544021.129999999}},{"attributes":{"ID":609835,"DIS_CODE":0,"TOWNNAME":"中西區","LI":"水仙里","LIN":"3鄰","STREET":"仁愛街","SECT":" ","MAREA":" ","LANE":" ","ALLEY":" ","HOUSE_NO":"１３號","E_COORD97":167737.66,"N_COORD97":2544005.6000000001,"ADDRESS":"仁愛街１３號","OBJECTID":609808},"geometry":{"x":167737.66000000201,"y":2544005.5999999996}},{"attributes":{"ID":609836,"DIS_CODE":0,"TOWNNAME":"中西區","LI":"水仙里","LIN":"3鄰","STREET":"仁愛街","SECT":" ","MAREA":" ","LANE":" ","ALLEY":" ","HOUSE_NO":"１５號","E_COORD97":167739.22,"N_COORD97":2544009.6699999999,"ADDRESS":"仁愛街１５號","OBJECTID":609809},"geometry":{"x":167739.22000000067,"y":2544009.6700000037}},{"attributes":{"ID":609837,"DIS_CODE":0,"TOWNNAME":"中西區","LI":"水仙里","LIN":"3鄰","STREET":"仁愛街","SECT":" ","MAREA":" ","LANE":" ","ALLEY":" ","HOUSE_NO":"１７號","E_COORD97":167741.04000000001,"N_COORD97":2544014,"ADDRESS":"仁愛街１７號","OBJECTID":609810},"geometry":{"x":167741.04000000004,"y":2544014.0000000037}},{"attributes":{"ID":609838,"DIS_CODE":0,"TOWNNAME":"中西區","LI":"水仙里","LIN":"3鄰","STREET":"民生路","SECT":"二段","MAREA":" ","LANE":" ","ALLEY":" ","HOUSE_NO":"６４號","E_COORD97":167726.72,"N_COORD97":2543975.6600000001,"ADDRESS":"民生路二段６４號","OBJECTID":609811},"geometry":{"x":167726.7200000016,"y":2543975.6599999983}},{"attributes":{"ID":609839,"DIS_CODE":0,"TOWNNAME":"中西區","LI":"水仙里","LIN":"3鄰","STREET":"民生路","SECT":"二段","MAREA":" ","LANE":" ","ALLEY":" ","HOUSE_NO":"７２號","E_COORD97":167697.48999999999,"N_COORD97":2543986.1499999999,"ADDRESS":"民生路二段７２號","OBJECTID":609812},"geometry":{"x":167697.49000000022,"y":2543986.1499999985}},{"attributes":{"ID":609840,"DIS_CODE":0,"TOWNNAME":"中西區","LI":"水仙里","LIN":"3鄰","STREET":"民生路","SECT":"二段","MAREA":" ","LANE":" ","ALLEY":" ","HOUSE_NO":"７６號","E_COORD97":167684.91,"N_COORD97":2543990.48,"ADDRESS":"民生路二段７６號","OBJECTID":609813},"geometry":{"x":167684.91000000015,"y":2543990.4800000004}},{"attributes":{"ID":609841,"DIS_CODE":0,"TOWNNAME":"中西區","LI":"水仙里","LIN":"3鄰","STREET":"民生路","SECT":"二段","MAREA":" ","LANE":" ","ALLEY":" ","HOUSE_NO":"７６號底一層之１","E_COORD97":167684.91,"N_COORD97":2543990.48,"ADDRESS":"民生路二段７６號底一層之１","OBJECTID":609814},"geometry":{"x":167684.91000000015,"y":2543990.4800000004}},{"attributes":{"ID":609842,"DIS_CODE":0,"TOWNNAME":"中西區","LI":"水仙里","LIN":"3鄰","STREET":"民生路","SECT":"二段","MAREA":" ","LANE":" ","ALLEY":" ","HOUSE_NO":"７６號底一層之２","E_COORD97":167684.91,"N_COORD97":2543990.48,"ADDRESS":"民生路二段７６號底一層之２","OBJECTID":609815},"geometry":{"x":167684.91000000015,"y":2543990.4800000004}},{"attributes":{"ID":609843,"DIS_CODE":0,"TOWNNAME":"中西區","LI":"水仙里","LIN":"3鄰","STREET":"民生路","SECT":"二段","MAREA":" ","LANE":" ","ALLEY":" ","HOUSE_NO":"７６號底二層","E_COORD97":167684.91,"N_COORD97":2543990.48,"ADDRESS":"民生路二段７６號底二層","OBJECTID":609816},"geometry":{"x":167684.91000000015,"y":2543990.4800000004}},{"attributes":{"ID":609844,"DIS_CODE":0,"TOWNNAME":"中西區","LI":"水仙里","LIN":"3鄰","STREET":"民生路","SECT":"二段","MAREA":" ","LANE":" ","ALLEY":" ","HOUSE_NO":"７６號底三層","E_COORD97":167684.91,"N_COORD97":2543990.48,"ADDRESS":"民生路二段７６號底三層","OBJECTID":609817},"geometry":{"x":167684.91000000015,"y":2543990.4800000004}},{"attributes":{"ID":609845,"DIS_CODE":0,"TOWNNAME":"中西區","LI":"水仙里","LIN":"3鄰","STREET":"民生路","SECT":"二段","MAREA":" ","LANE":" ","ALLEY":" ","HOUSE_NO":"８０號","E_COORD97":167673.64000000001,"N_COORD97":2543994.1499999999,"ADDRESS":"民生路二段８０號","OBJECTID":609818},"geometry":{"x":167673.6400000006,"y":2543994.1500000022}},{"attributes":{"ID":609846,"DIS_CODE":0,"TOWNNAME":"永康區","LI":"北灣里","LIN":"3鄰","STREET":"信義街","SECT":" ","MAREA":" ","LANE":" ","ALLEY":" ","HOUSE_NO":"８１號","E_COORD97":175318.82000000001,"N_COORD97":2545644.6000000001,"ADDRESS":"信義街８１號","OBJECTID":609819},"geometry":{"x":175318.8200000003,"y":2545644.6000000015}},{"attributes":{"ID":609847,"DIS_CODE":0,"TOWNNAME":"永康區","LI":"北灣里","LIN":"3鄰","STREET":"信義街","SECT":" ","MAREA":" ","LANE":" ","ALLEY":" ","HOUSE_NO":"９１號之１０","E_COORD97":175276.64000000001,"N_COORD97":2545637.2599999998,"ADDRESS":"信義街９１號之１０","OBJECTID":609820},"geometry":{"x":175276.6400000006,"y":2545637.2600000016}},{"attributes":{"ID":609848,"DIS_CODE":0,"TOWNNAME":"永康區","LI":"埔園里","LIN":"3鄰","STREET":"聖龍街","SECT":" ","MAREA":" ","LANE":" ","ALLEY":" ","HOUSE_NO":"３８號","E_COORD97":173875.35999999999,"N_COORD97":2547788.5,"ADDRESS":"聖龍街３８號","OBJECTID":609821},"geometry":{"x":173875.36000000127,"y":2547788.5000000019}},{"attributes":{"ID":609849,"DIS_CODE":0,"TOWNNAME":"永康區","LI":"\u25A0行里","LIN":"3鄰","STREET":"中正路","SECT":" ","MAREA":" ","LANE":" ","ALLEY":" ","HOUSE_NO":"８６０號","E_COORD97":172113.85000000001,"N_COORD97":2548794.5499999998,"ADDRESS":"中正路８６０號","OBJECTID":609822},"geometry":{"x":172113.84999999963,"y":2548794.5500000007}},{"attributes":{"ID":609850,"DIS_CODE":0,"TOWNNAME":"永康區","LI":"龍潭里","LIN":"3鄰","STREET":"龍安街","SECT":" ","MAREA":" ","LANE":" ","ALLEY":" ","HOUSE_NO":"２７號","E_COORD97":174566.54999999999,"N_COORD97":2548105.27,"ADDRESS":"龍安街２７號","OBJECTID":609823},"geometry":{"x":174566.55000000075,"y":2548105.2700000014}},{"attributes":{"ID":609851,"DIS_CODE":0,"TOWNNAME":"永康區","LI":"新樹里","LIN":"3鄰","STREET":"富強路","SECT":"二段","MAREA":" ","LANE":" ","ALLEY":" ","HOUSE_NO":"３８９號","E_COORD97":175547.26999999999,"N_COORD97":2547717.8700000001,"ADDRESS":"富強路二段３８９號","OBJECTID":609824},"geometry":{"x":175547.26999999955,"y":2547717.870000001}},{"attributes":{"ID":609852,"DIS_CODE":0,"TOWNNAME":"永康區","LI":"網寮里","LIN":"3鄰","STREET":"永二街","SECT":" ","MAREA":" ","LANE":" ","ALLEY":" ","HOUSE_NO":"４６號","E_COORD97":173618.44,"N_COORD97":2546696.2400000002,"ADDRESS":"永二街４６號","OBJECTID":609825},"geometry":{"x":173618.44000000227,"y":2546696.2400000002}},{"attributes":{"ID":609853,"DIS_CODE":0,"TOWNNAME":"永康區","LI":"新樹里","LIN":"3鄰","STREET":"富強路","SECT":"二段","MAREA":" ","LANE":" ","ALLEY":" ","HOUSE_NO":"３３３號","E_COORD97":175553.87,"N_COORD97":2547571.5600000001,"ADDRESS":"富強路二段３３３號","OBJECTID":609826},"geometry":{"x":175553.87000000011,"y":2547571.5600000024}},{"attributes":{"ID":609854,"DIS_CODE":0,"TOWNNAME":"安南區","LI":"安順里","LIN":"3鄰","STREET":"安豐三街","SECT":" ","MAREA":" ","LANE":" ","ALLEY":" ","HOUSE_NO":"７５號","E_COORD97":169502.79999999999,"N_COORD97":2549911.9100000001,"ADDRESS":"安豐三街７５號","OBJECTID":609827},"geometry":{"x":169502.80000000168,"y":2549911.910000002}},{"attributes":{"ID":609855,"DIS_CODE":0,"TOWNNAME":"安南區","LI":"安順里","LIN":"3鄰","STREET":"安豐三街","SECT":" ","MAREA":" ","LANE":" ","ALLEY":" ","HOUSE_NO":"７７號","E_COORD97":169507.39999999999,"N_COORD97":2549915.48,"ADDRESS":"安豐三街７７號","OBJECTID":609828},"geometry":{"x":169507.40000000037,"y":2549915.4800000023}},{"attributes":{"ID":609856,"DIS_CODE":0,"TOWNNAME":"安南區","LI":"南興里","LIN":"3鄰","STREET":"安興街","SECT":" ","MAREA":" ","LANE":" ","ALLEY":" ","HOUSE_NO":"４０７號","E_COORD97":163635.70999999999,"N_COORD97":2552319.8500000001,"ADDRESS":"安興街４０７號","OBJECTID":609829},"geometry":{"x":163635.70999999996,"y":2552319.8499999996}},{"attributes":{"ID":609857,"DIS_CODE":0,"TOWNNAME":"安南區","LI":"南興里","LIN":"3鄰","STREET":"安興街","SECT":" ","MAREA":" ","LANE":" ","ALLEY":" ","HOUSE_NO":"４１３號","E_COORD97":163607.81,"N_COORD97":2552319.5,"ADDRESS":"安興街４１３號","OBJECTID":609830},"geometry":{"x":163607.80999999959,"y":2552319.5}},{"attributes":{"ID":609858,"DIS_CODE":0,"TOWNNAME":"安南區","LI":"南興里","LIN":"3鄰","STREET":"安興街","SECT":" ","MAREA":" ","LANE":" ","ALLEY":" ","HOUSE_NO":"４１５號","E_COORD97":163599.91,"N_COORD97":2552316.8700000001,"ADDRESS":"安興街４１５號","OBJECTID":609831},"geometry":{"x":163599.91000000108,"y":2552316.8700000029}},{"attributes":{"ID":609859,"DIS_CODE":0,"TOWNNAME":"中西區","LI":"民權里","LIN":"9鄰","STREET":"民權路","SECT":"三段","MAREA":" ","LANE":" ","ALLEY":" ","HOUSE_NO":"１９３號","E_COORD97":167477.17999999999,"N_COORD97":2544235.3700000001,"ADDRESS":"民權路三段１９３號","OBJECTID":609832},"geometry":{"x":167477.1799999997,"y":2544235.370000001}},{"attributes":{"ID":609860,"DIS_CODE":0,"TOWNNAME":"中西區","LI":"民權里","LIN":"9鄰","STREET":"民權路","SECT":"三段","MAREA":" ","LANE":" ","ALLEY":" ","HOUSE_NO":"１９５號","E_COORD97":167474.70999999999,"N_COORD97":2544235.8700000001,"ADDRESS":"民權路三段１９５號","OBJECTID":609833},"geometry":{"x":167474.71000000089,"y":2544235.870000001}},{"attributes":{"ID":609861,"DIS_CODE":0,"TOWNNAME":"中西區","LI":"民權里","LIN":"9鄰","STREET":"民權路","SECT":"三段","MAREA":" ","LANE":" ","ALLEY":" ","HOUSE_NO":"１９７號","E_COORD97":167472.87,"N_COORD97":2544236.2200000002,"ADDRESS":"民權路三段１９７號","OBJECTID":609834},"geometry":{"x":167472.87000000011,"y":2544236.2200000007}},{"attributes":{"ID":609862,"DIS_CODE":0,"TOWNNAME":"中西區","LI":"民權里","LIN":"9鄰","STREET":"民權路","SECT":"三段","MAREA":" ","LANE":" ","ALLEY":" ","HOUSE_NO":"２０１號","E_COORD97":167468.14000000001,"N_COORD97":2544239.25,"ADDRESS":"民權路三段２０１號","OBJECTID":609835},"geometry":{"x":167468.1400000006,"y":2544239.25}},{"attributes":{"ID":609863,"DIS_CODE":0,"TOWNNAME":"安南區","LI":"南興里","LIN":"3鄰","STREET":"安興街","SECT":" ","MAREA":" ","LANE":" ","ALLEY":" ","HOUSE_NO":"４２１號","E_COORD97":163590.97,"N_COORD97":2552318.98,"ADDRESS":"安興街４２１號","OBJECTID":609836},"geometry":{"x":163590.97000000067,"y":2552318.9800000023}},{"attributes":{"ID":609864,"DIS_CODE":0,"TOWNNAME":"安南區","LI":"南興里","LIN":"3鄰","STREET":"安興街","SECT":" ","MAREA":" ","LANE":" ","ALLEY":" ","HOUSE_NO":"４２３號","E_COORD97":163585.17999999999,"N_COORD97":2552321.6000000001,"ADDRESS":"安興街４２３號","OBJECTID":609837},"geometry":{"x":163585.1799999997,"y":2552321.5999999996}},{"attributes":{"ID":609865,"DIS_CODE":0,"TOWNNAME":"永康區","LI":"\u25A0行里","LIN":"3鄰","STREET":"中正路","SECT":" ","MAREA":" ","LANE":" ","ALLEY":" ","HOUSE_NO":"８８２號","E_COORD97":172076.09,"N_COORD97":2548831.5499999998,"ADDRESS":"中正路８８２號","OBJECTID":609838},"geometry":{"x":172076.09000000078,"y":2548831.5500000007}},{"attributes":{"ID":609866,"DIS_CODE":0,"TOWNNAME":"永康區","LI":"新樹里","LIN":"3鄰","STREET":"富強路","SECT":"二段","MAREA":" ","LANE":" ","ALLEY":" ","HOUSE_NO":"３７８號","E_COORD97":175585.76999999999,"N_COORD97":2547662,"ADDRESS":"富強路二段３７８號","OBJECTID":609839},"geometry":{"x":175585.77000000048,"y":2547662.0000000037}},{"attributes":{"ID":609867,"DIS_CODE":0,"TOWNNAME":"永康區","LI":"新樹里","LIN":"3鄰","STREET":"富強路","SECT":"二段","MAREA":" ","LANE":" ","ALLEY":" ","HOUSE_NO":"４００號","E_COORD97":175599.73000000001,"N_COORD97":2547714.5499999998,"ADDRESS":"富強路二段４００號","OBJECTID":609840},"geometry":{"x":175599.72999999952,"y":2547714.5500000026}},{"attributes":{"ID":609868,"DIS_CODE":0,"TOWNNAME":"永康區","LI":"\u25A0行里","LIN":"3鄰","STREET":"中正路","SECT":" ","MAREA":" ","LANE":" ","ALLEY":" ","HOUSE_NO":"８６８號","E_COORD97":172100.34,"N_COORD97":2548807.7999999998,"ADDRESS":"中正路８６８號","OBJECTID":609841},"geometry":{"x":172100.34000000078,"y":2548807.8000000026}},{"attributes":{"ID":609869,"DIS_CODE":0,"TOWNNAME":"永康區","LI":"\u25A0行里","LIN":"3鄰","STREET":"中正路","SECT":" ","MAREA":" ","LANE":" ","ALLEY":" ","HOUSE_NO":"８９０號","E_COORD97":172059.92999999999,"N_COORD97":2548846.8300000001,"ADDRESS":"中正路８９０號","OBJECTID":609842},"geometry":{"x":172059.93000000156,"y":2548846.8300000038}},{"attributes":{"ID":609870,"DIS_CODE":0,"TOWNNAME":"永康區","LI":"\u25A0行里","LIN":"3鄰","STREET":"中正路","SECT":" ","MAREA":" ","LANE":" ","ALLEY":" ","HOUSE_NO":"９２４號","E_COORD97":172011.41,"N_COORD97":2548894.5,"ADDRESS":"中正路９２４號","OBJECTID":609843},"geometry":{"x":172011.41000000201,"y":2548894.5000000019}},{"attributes":{"ID":609871,"DIS_CODE":0,"TOWNNAME":"永康區","LI":"六合里","LIN":"3鄰","STREET":"中山南路","SECT":" ","MAREA":" ","LANE":" ","ALLEY":" ","HOUSE_NO":"１２２號","E_COORD97":171081.88,"N_COORD97":2545946.7400000002,"ADDRESS":"中山南路１２２號","OBJECTID":609844},"geometry":{"x":171081.87999999989,"y":2545946.7400000021}},{"attributes":{"ID":609872,"DIS_CODE":0,"TOWNNAME":"新化區","LI":"竹林里","LIN":"3鄰","STREET":"中山路","SECT":" ","MAREA":" ","LANE":" ","ALLEY":" ","HOUSE_NO":"４１４號","E_COORD97":178772.81,"N_COORD97":2548419.25,"ADDRESS":"中山路４１４號","OBJECTID":609845},"geometry":{"x":178772.80999999959,"y":2548419.25}},{"attributes":{"ID":609873,"DIS_CODE":0,"TOWNNAME":"東區","LI":"路東里","LIN":"3鄰","STREET":"大同路","SECT":"二段","MAREA":" ","LANE":" ","ALLEY":" ","HOUSE_NO":"８３號","E_COORD97":169347.17999999999,"N_COORD97":2542176.1000000001,"ADDRESS":"大同路二段８３號","OBJECTID":609846},"geometry":{"x":169347.1799999997,"y":2542176.1000000015}},{"attributes":{"ID":609874,"DIS_CODE":0,"TOWNNAME":"東區","LI":"路東里","LIN":"3鄰","STREET":"大同路","SECT":"二段","MAREA":" ","LANE":" ","ALLEY":" ","HOUSE_NO":"８５號","E_COORD97":169349.53,"N_COORD97":2542172.7400000002,"ADDRESS":"大同路二段８５號","OBJECTID":609847},"geometry":{"x":169349.53000000119,"y":2542172.7400000021}},{"attributes":{"ID":609875,"DIS_CODE":0,"TOWNNAME":"東區","LI":"路東里","LIN":"3鄰","STREET":"大同路","SECT":"二段","MAREA":" ","LANE":" ","ALLEY":" ","HOUSE_NO":"８７號","E_COORD97":169351.20999999999,"N_COORD97":2542168.71,"ADDRESS":"大同路二段８７號","OBJECTID":609848},"geometry":{"x":169351.21000000089,"y":2542168.7100000009}},{"attributes":{"ID":609876,"DIS_CODE":0,"TOWNNAME":"東區","LI":"路東里","LIN":"3鄰","STREET":"大同路","SECT":"二段","MAREA":" ","LANE":" ","ALLEY":" ","HOUSE_NO":"８９號","E_COORD97":169352.22,"N_COORD97":2542165.3500000001,"ADDRESS":"大同路二段８９號","OBJECTID":609849},"geometry":{"x":169352.21999999974,"y":2542165.3499999996}},{"attributes":{"ID":609877,"DIS_CODE":0,"TOWNNAME":"東區","LI":"路東里","LIN":"3鄰","STREET":"大同路","SECT":"二段","MAREA":" ","LANE":" ","ALLEY":" ","HOUSE_NO":"９１號","E_COORD97":169352.89000000001,"N_COORD97":2542158.5099999998,"ADDRESS":"大同路二段９１號","OBJECTID":609850},"geometry":{"x":169352.89000000153,"y":2542158.5099999998}},{"attributes":{"ID":609878,"DIS_CODE":0,"TOWNNAME":"安平區","LI":"金城里","LIN":"3鄰","STREET":"運河路","SECT":" ","MAREA":" ","LANE":" ","ALLEY":" ","HOUSE_NO":"４８號","E_COORD97":163934.92999999999,"N_COORD97":2544337.7200000002,"ADDRESS":"運河路４８號","OBJECTID":609851},"geometry":{"x":163934.93000000156,"y":2544337.7200000007}},{"attributes":{"ID":609879,"DIS_CODE":0,"TOWNNAME":"安平區","LI":"平安里","LIN":"3鄰","STREET":"民權路","SECT":"四段","MAREA":" ","LANE":" ","ALLEY":" ","HOUSE_NO":"７７號","E_COORD97":166365.10000000001,"N_COORD97":2544408.3799999999,"ADDRESS":"民權路四段７７號","OBJECTID":609852},"geometry":{"x":166365.10000000056,"y":2544408.3800000008}},{"attributes":{"ID":609880,"DIS_CODE":0,"TOWNNAME":"新營區","LI":"新東里","LIN":"3鄰","STREET":"東大街","SECT":" ","MAREA":" ","LANE":" ","ALLEY":" ","HOUSE_NO":"２１號","E_COORD97":180994.54000000001,"N_COORD97":2579100.73,"ADDRESS":"東大街２１號","OBJECTID":609853},"geometry":{"x":180994.54000000004,"y":2579100.7300000023}},{"attributes":{"ID":609881,"DIS_CODE":0,"TOWNNAME":"新營區","LI":"新北里","LIN":"3鄰","STREET":"周武街","SECT":" ","MAREA":" ","LANE":" ","ALLEY":" ","HOUSE_NO":"１１４號","E_COORD97":179346.85999999999,"N_COORD97":2579084.1400000001,"ADDRESS":"周武街１１４號","OBJECTID":609854},"geometry":{"x":179346.8600000022,"y":2579084.1400000025}},{"attributes":{"ID":609882,"DIS_CODE":0,"TOWNNAME":"安平區","LI":"建平里","LIN":"3鄰","STREET":"建平十七街","SECT":" ","MAREA":" ","LANE":" ","ALLEY":" ","HOUSE_NO":"６５號","E_COORD97":166086.92999999999,"N_COORD97":2544230.8300000001,"ADDRESS":"建平十七街６５號","OBJECTID":609855},"geometry":{"x":166086.9299999997,"y":2544230.8300000001}},{"attributes":{"ID":609883,"DIS_CODE":0,"TOWNNAME":"安平區","LI":"建平里","LIN":"3鄰","STREET":"建平十七街","SECT":" ","MAREA":" ","LANE":" ","ALLEY":" ","HOUSE_NO":"６５號地下層","E_COORD97":166086.92999999999,"N_COORD97":2544230.8300000001,"ADDRESS":"建平十七街６５號地下層","OBJECTID":609856},"geometry":{"x":166086.9299999997,"y":2544230.8300000001}},{"attributes":{"ID":609884,"DIS_CODE":0,"TOWNNAME":"安平區","LI":"建平里","LIN":"3鄰","STREET":"建平十七街","SECT":" ","MAREA":" ","LANE":" ","ALLEY":" ","HOUSE_NO":"６７號","E_COORD97":166073.67999999999,"N_COORD97":2544232.3500000001,"ADDRESS":"建平十七街６７號","OBJECTID":609857},"geometry":{"x":166073.6799999997,"y":2544232.3500000015}},{"attributes":{"ID":609885,"DIS_CODE":0,"TOWNNAME":"安平區","LI":"建平里","LIN":"3鄰","STREET":"建平十七街","SECT":" ","MAREA":" ","LANE":" ","ALLEY":" ","HOUSE_NO":"６７號地下層","E_COORD97":166073.67999999999,"N_COORD97":2544232.3500000001,"ADDRESS":"建平十七街６７號地下層","OBJECTID":609858},"geometry":{"x":166073.6799999997,"y":2544232.3500000015}},{"attributes":{"ID":609886,"DIS_CODE":0,"TOWNNAME":"安平區","LI":"金城里","LIN":"3鄰","STREET":"運河路","SECT":" ","MAREA":" ","LANE":" ","ALLEY":" ","HOUSE_NO":"４２號","E_COORD97":163978.63,"N_COORD97":2544354.9900000002,"ADDRESS":"運河路４２號","OBJECTID":609859},"geometry":{"x":163978.62999999989,"y":2544354.9900000021}},{"attributes":{"ID":609887,"DIS_CODE":0,"TOWNNAME":"安平區","LI":"金城里","LIN":"3鄰","STREET":"運河路","SECT":" ","MAREA":" ","LANE":" ","ALLEY":" ","HOUSE_NO":"４４號","E_COORD97":163969.14999999999,"N_COORD97":2544339.4700000002,"ADDRESS":"運河路４４號","OBJECTID":609860},"geometry":{"x":163969.15000000037,"y":2544339.4700000007}},{"attributes":{"ID":609888,"DIS_CODE":0,"TOWNNAME":"安平區","LI":"金城里","LIN":"3鄰","STREET":"運河路","SECT":" ","MAREA":" ","LANE":" ","ALLEY":" ","HOUSE_NO":"４６號","E_COORD97":163964.76000000001,"N_COORD97":2544330.0099999998,"ADDRESS":"運河路４６號","OBJECTID":609861},"geometry":{"x":163964.75999999885,"y":2544330.0100000016}},{"attributes":{"ID":609889,"DIS_CODE":0,"TOWNNAME":"安平區","LI":"文平里","LIN":"3鄰","STREET":"永華路","SECT":"二段","MAREA":" ","LANE":" ","ALLEY":" ","HOUSE_NO":"２７號","E_COORD97":166555.92999999999,"N_COORD97":2543275.1600000001,"ADDRESS":"永華路二段２７號","OBJECTID":609862},"geometry":{"x":166555.93000000063,"y":2543275.160000002}},{"attributes":{"ID":609890,"DIS_CODE":0,"TOWNNAME":"安平區","LI":"文平里","LIN":"3鄰","STREET":"永華路","SECT":"二段","MAREA":" ","LANE":" ","ALLEY":" ","HOUSE_NO":"３５號","E_COORD97":166538.78,"N_COORD97":2543262.2400000002,"ADDRESS":"永華路二段３５號","OBJECTID":609863},"geometry":{"x":166538.78000000119,"y":2543262.2400000002}},{"attributes":{"ID":609891,"DIS_CODE":0,"TOWNNAME":"歸仁區","LI":"大潭里","LIN":"3鄰","STREET":"長榮路","SECT":"一段","MAREA":" ","LANE":" ","ALLEY":" ","HOUSE_NO":"４６７號","E_COORD97":175682.57000000001,"N_COORD97":2534510.2799999998,"ADDRESS":"長榮路一段４６７號","OBJECTID":609864},"geometry":{"x":175682.57000000123,"y":2534510.2799999993}},{"attributes":{"ID":609892,"DIS_CODE":0,"TOWNNAME":"歸仁區","LI":"大潭里","LIN":"3鄰","STREET":"長榮路","SECT":"一段","MAREA":" ","LANE":" ","ALLEY":" ","HOUSE_NO":"４０５號","E_COORD97":175558.37,"N_COORD97":2534503.2799999998,"ADDRESS":"長榮路一段４０５號","OBJECTID":609865},"geometry":{"x":175558.37000000104,"y":2534503.2799999993}},{"attributes":{"ID":609893,"DIS_CODE":0,"TOWNNAME":"歸仁區","LI":"許厝里","LIN":"3鄰","STREET":"仁愛一街","SECT":" ","MAREA":" ","LANE":" ","ALLEY":" ","HOUSE_NO":"２號","E_COORD97":178302.32000000001,"N_COORD97":2540617.6499999999,"ADDRESS":"仁愛一街２號","OBJECTID":609866},"geometry":{"x":178302.3200000003,"y":2540617.6500000022}},{"attributes":{"ID":609894,"DIS_CODE":0,"TOWNNAME":"歸仁區","LI":"大廟里","LIN":"3鄰","STREET":"大廟二街","SECT":" ","MAREA":" ","LANE":" ","ALLEY":" ","HOUSE_NO":"８３號","E_COORD97":176034.07000000001,"N_COORD97":2543923.25,"ADDRESS":"大廟二街８３號","OBJECTID":609867},"geometry":{"x":176034.0700000003,"y":2543923.25}},{"attributes":{"ID":609895,"DIS_CODE":0,"TOWNNAME":"歸仁區","LI":"看東里","LIN":"3鄰","STREET":"忠孝南路","SECT":" ","MAREA":" ","LANE":" ","ALLEY":" ","HOUSE_NO":"１９６號","E_COORD97":178514.76999999999,"N_COORD97":2540228.8300000001,"ADDRESS":"忠孝南路１９６號","OBJECTID":609868},"geometry":{"x":178514.77000000048,"y":2540228.8300000019}},{"attributes":{"ID":609896,"DIS_CODE":0,"TOWNNAME":"北區","LI":"賢北里","LIN":"3鄰","STREET":"大興街","SECT":" ","MAREA":" ","LANE":" ","ALLEY":" ","HOUSE_NO":"３９９號","E_COORD97":166364.45000000001,"N_COORD97":2545570.6000000001,"ADDRESS":"大興街３９９號","OBJECTID":609869},"geometry":{"x":166364.45000000205,"y":2545570.6000000015}},{"attributes":{"ID":609897,"DIS_CODE":0,"TOWNNAME":"北區","LI":"賢北里","LIN":"3鄰","STREET":"大興街","SECT":" ","MAREA":" ","LANE":" ","ALLEY":" ","HOUSE_NO":"３９１號","E_COORD97":166378.92999999999,"N_COORD97":2545574.6699999999,"ADDRESS":"大興街３９１號","OBJECTID":609870},"geometry":{"x":166378.9299999997,"y":2545574.6699999999}},{"attributes":{"ID":609898,"DIS_CODE":0,"TOWNNAME":"學甲區","LI":"仁得里","LIN":"3鄰","STREET":"民權路","SECT":" ","MAREA":" ","LANE":" ","ALLEY":" ","HOUSE_NO":"４６號","E_COORD97":166198.95999999999,"N_COORD97":2570132.2000000002,"ADDRESS":"民權路４６號","OBJECTID":609871},"geometry":{"x":166198.95999999996,"y":2570132.2000000011}},{"attributes":{"ID":609899,"DIS_CODE":0,"TOWNNAME":"北區","LI":"和順里","LIN":"3鄰","STREET":"西門路","SECT":"三段","MAREA":" ","LANE":" ","ALLEY":" ","HOUSE_NO":"８１號","E_COORD97":168309.37,"N_COORD97":2544768.6099999999,"ADDRESS":"西門路三段８１號","OBJECTID":609872},"geometry":{"x":168309.37000000104,"y":2544768.6099999975}},{"attributes":{"ID":609900,"DIS_CODE":0,"TOWNNAME":"歸仁區","LI":"西埔里","LIN":"3鄰","STREET":"保大路","SECT":"二段","MAREA":" ","LANE":" ","ALLEY":" ","HOUSE_NO":"１１９號","E_COORD97":176992.07000000001,"N_COORD97":2544124.2799999998,"ADDRESS":"保大路二段１１９號","OBJECTID":609873},"geometry":{"x":176992.0700000003,"y":2544124.2800000012}},{"attributes":{"ID":609901,"DIS_CODE":0,"TOWNNAME":"歸仁區","LI":"七甲里","LIN":"3鄰","STREET":"中正北路","SECT":"二段","MAREA":" ","LANE":" ","ALLEY":" ","HOUSE_NO":"５０６號","E_COORD97":177468.72,"N_COORD97":2543273.2599999998,"ADDRESS":"中正北路二段５０６號","OBJECTID":609874},"geometry":{"x":177468.71999999974,"y":2543273.2600000016}},{"attributes":{"ID":609902,"DIS_CODE":0,"TOWNNAME":"安平區","LI":"怡平里","LIN":"3鄰","STREET":"永華六街","SECT":" ","MAREA":" ","LANE":" ","ALLEY":" ","HOUSE_NO":"２１６號","E_COORD97":165683.22,"N_COORD97":2544218.6800000002,"ADDRESS":"永華六街２１６號","OBJECTID":609875},"geometry":{"x":165683.21999999974,"y":2544218.6799999997}},{"attributes":{"ID":609903,"DIS_CODE":0,"TOWNNAME":"南區","LI":"文南里","LIN":"3鄰","STREET":"金華路","SECT":"二段","MAREA":" ","LANE":" ","ALLEY":" ","HOUSE_NO":"２３１號","E_COORD97":167100.69,"N_COORD97":2542631.4900000002,"ADDRESS":"金華路二段２３１號","OBJECTID":609876},"geometry":{"x":167100.69000000134,"y":2542631.4900000021}},{"attributes":{"ID":609904,"DIS_CODE":0,"TOWNNAME":"南區","LI":"文南里","LIN":"3鄰","STREET":"金華路","SECT":"二段","MAREA":" ","LANE":" ","ALLEY":" ","HOUSE_NO":"２５１號","E_COORD97":167106.85999999999,"N_COORD97":2542676.96,"ADDRESS":"金華路二段２５１號","OBJECTID":609877},"geometry":{"x":167106.86000000034,"y":2542676.9600000028}},{"attributes":{"ID":609905,"DIS_CODE":0,"TOWNNAME":"南區","LI":"文南里","LIN":"3鄰","STREET":"金華路","SECT":"二段","MAREA":" ","LANE":" ","ALLEY":" ","HOUSE_NO":"２５５號","E_COORD97":167105.14999999999,"N_COORD97":2542686.27,"ADDRESS":"金華路二段２５５號","OBJECTID":609878},"geometry":{"x":167105.15000000037,"y":2542686.2700000033}},{"attributes":{"ID":609906,"DIS_CODE":0,"TOWNNAME":"南區","LI":"文南里","LIN":"3鄰","STREET":"金華路","SECT":"二段","MAREA":" ","LANE":" ","ALLEY":" ","HOUSE_NO":"２５７號","E_COORD97":167104.95999999999,"N_COORD97":2542691.9700000002,"ADDRESS":"金華路二段２５７號","OBJECTID":609879},"geometry":{"x":167104.96000000183,"y":2542691.9700000007}},{"attributes":{"ID":609907,"DIS_CODE":0,"TOWNNAME":"南區","LI":"文南里","LIN":"3鄰","STREET":"金華路","SECT":"二段","MAREA":" ","LANE":" ","ALLEY":" ","HOUSE_NO":"２５９號","E_COORD97":167105.72,"N_COORD97":2542697.1000000001,"ADDRESS":"金華路二段２５９號","OBJECTID":609880},"geometry":{"x":167105.71999999974,"y":2542697.0999999996}},{"attributes":{"ID":609908,"DIS_CODE":0,"TOWNNAME":"南區","LI":"日新里","LIN":"3鄰","STREET":"利南街","SECT":" ","MAREA":" ","LANE":" ","ALLEY":" ","HOUSE_NO":"８６號","E_COORD97":166755.97,"N_COORD97":2541247.54,"ADDRESS":"利南街８６號","OBJECTID":609881},"geometry":{"x":166755.97000000067,"y":2541247.540000001}},{"attributes":{"ID":609909,"DIS_CODE":0,"TOWNNAME":"南區","LI":"文南里","LIN":"3鄰","STREET":"金華路","SECT":"二段","MAREA":" ","LANE":" ","ALLEY":" ","HOUSE_NO":"２３７號","E_COORD97":167103.92000000001,"N_COORD97":2542654.1200000001,"ADDRESS":"金華路二段２３７號","OBJECTID":609882},"geometry":{"x":167103.92000000086,"y":2542654.120000001}},{"attributes":{"ID":609910,"DIS_CODE":0,"TOWNNAME":"北區","LI":"五福里","LIN":"3鄰","STREET":"西門路","SECT":"三段","MAREA":" ","LANE":" ","ALLEY":" ","HOUSE_NO":"１３４號地下二層","E_COORD97":168308.98000000001,"N_COORD97":2544716.5299999998,"ADDRESS":"西門路三段１３４號地下二層","OBJECTID":609883},"geometry":{"x":168308.98000000138,"y":2544716.5300000012}},{"attributes":{"ID":609911,"DIS_CODE":0,"TOWNNAME":"北區","LI":"元寶里","LIN":"3鄰","STREET":"北園街","SECT":" ","MAREA":" ","LANE":" ","ALLEY":" ","HOUSE_NO":"７６號","E_COORD97":170358.38,"N_COORD97":2545837.0800000001,"ADDRESS":"北園街７６號","OBJECTID":609884},"geometry":{"x":170358.38000000175,"y":2545837.0800000001}},{"attributes":{"ID":609912,"DIS_CODE":0,"TOWNNAME":"北區","LI":"五福里","LIN":"3鄰","STREET":"西門路","SECT":"三段","MAREA":" ","LANE":" ","ALLEY":" ","HOUSE_NO":"１３４號地下二層之１","E_COORD97":168308.98000000001,"N_COORD97":2544716.5299999998,"ADDRESS":"西門路三段１３４號地下二層之１","OBJECTID":609885},"geometry":{"x":168308.98000000138,"y":2544716.5300000012}},{"attributes":{"ID":609913,"DIS_CODE":0,"TOWNNAME":"北區","LI":"五福里","LIN":"3鄰","STREET":"西門路","SECT":"三段","MAREA":" ","LANE":" ","ALLEY":" ","HOUSE_NO":"１３６號","E_COORD97":168314.07999999999,"N_COORD97":2544723.1699999999,"ADDRESS":"西門路三段１３６號","OBJECTID":609886},"geometry":{"x":168314.08000000007,"y":2544723.1699999999}},{"attributes":{"ID":609914,"DIS_CODE":0,"TOWNNAME":"北區","LI":"五福里","LIN":"3鄰","STREET":"西門路","SECT":"三段","MAREA":" ","LANE":" ","ALLEY":" ","HOUSE_NO":"１３８號","E_COORD97":168317.98999999999,"N_COORD97":2544729.4500000002,"ADDRESS":"西門路三段１３８號","OBJECTID":609887},"geometry":{"x":168317.99000000022,"y":2544729.4500000011}},{"attributes":{"ID":609915,"DIS_CODE":0,"TOWNNAME":"新營區","LI":"王公里","LIN":"3鄰","STREET":"民族路","SECT":" ","MAREA":" ","LANE":" ","ALLEY":" ","HOUSE_NO":"６７號","E_COORD97":180287.29999999999,"N_COORD97":2579013.23,"ADDRESS":"民族路６７號","OBJECTID":609888},"geometry":{"x":180287.29999999981,"y":2579013.2300000023}},{"attributes":{"ID":609916,"DIS_CODE":0,"TOWNNAME":"新營區","LI":"新北里","LIN":"3鄰","STREET":"三興街","SECT":" ","MAREA":" ","LANE":" ","ALLEY":" ","HOUSE_NO":"８１號之１","E_COORD97":179436.60999999999,"N_COORD97":2579043.9100000001,"ADDRESS":"三興街８１號之１","OBJECTID":609889},"geometry":{"x":179436.61000000034,"y":2579043.9100000001}},{"attributes":{"ID":609917,"DIS_CODE":0,"TOWNNAME":"中西區","LI":"民權里","LIN":"1鄰","STREET":"康樂街","SECT":" ","MAREA":" ","LANE":" ","ALLEY":" ","HOUSE_NO":"１６０號","E_COORD97":167524.48000000001,"N_COORD97":2544053.48,"ADDRESS":"康樂街１６０號","OBJECTID":609890},"geometry":{"x":167524.48000000138,"y":2544053.4800000023}},{"attributes":{"ID":609918,"DIS_CODE":0,"TOWNNAME":"新營區","LI":"大宏里","LIN":"3鄰","STREET":"民族路","SECT":" ","MAREA":" ","LANE":" ","ALLEY":" ","HOUSE_NO":"３６號","E_COORD97":180294.10000000001,"N_COORD97":2578704.2200000002,"ADDRESS":"民族路３６號","OBJECTID":609891},"geometry":{"x":180294.10000000056,"y":2578704.2200000025}},{"attributes":{"ID":609919,"DIS_CODE":0,"TOWNNAME":"新營區","LI":"新北里","LIN":"3鄰","STREET":"三興街","SECT":" ","MAREA":" ","LANE":" ","ALLEY":" ","HOUSE_NO":"７９號之４","E_COORD97":179426.26000000001,"N_COORD97":2579022.9100000001,"ADDRESS":"三興街７９號之４","OBJECTID":609892},"geometry":{"x":179426.25999999978,"y":2579022.9100000001}},{"attributes":{"ID":609920,"DIS_CODE":0,"TOWNNAME":"新營區","LI":"民榮里","LIN":"3鄰","STREET":"新進路","SECT":"二段","MAREA":" ","LANE":" ","ALLEY":" ","HOUSE_NO":"５００號","E_COORD97":178670.87,"N_COORD97":2578038.6299999999,"ADDRESS":"新進路二段５００號","OBJECTID":609893},"geometry":{"x":178670.87000000104,"y":2578038.6300000008}},{"attributes":{"ID":609921,"DIS_CODE":0,"TOWNNAME":"新營區","LI":"永生里","LIN":"3鄰","STREET":"光明街","SECT":" ","MAREA":" ","LANE":" ","ALLEY":" ","HOUSE_NO":"９號","E_COORD97":180007.22,"N_COORD97":2578024.4900000002,"ADDRESS":"光明街９號","OBJECTID":609894},"geometry":{"x":180007.22000000067,"y":2578024.4900000021}},{"attributes":{"ID":609922,"DIS_CODE":0,"TOWNNAME":"安平區","LI":"國平里","LIN":"3鄰","STREET":"建平五街","SECT":" ","MAREA":" ","LANE":" ","ALLEY":" ","HOUSE_NO":"１８６號","E_COORD97":165577.16,"N_COORD97":2543189.54,"ADDRESS":"建平五街１８６號","OBJECTID":609895},"geometry":{"x":165577.16000000108,"y":2543189.540000001}},{"attributes":{"ID":609923,"DIS_CODE":0,"TOWNNAME":"安平區","LI":"國平里","LIN":"3鄰","STREET":"建平五街","SECT":" ","MAREA":" ","LANE":" ","ALLEY":" ","HOUSE_NO":"１８８號","E_COORD97":165572.89000000001,"N_COORD97":2543189.8700000001,"ADDRESS":"建平五街１８８號","OBJECTID":609896},"geometry":{"x":165572.8900000006,"y":2543189.8700000029}},{"attributes":{"ID":609924,"DIS_CODE":0,"TOWNNAME":"安平區","LI":"國平里","LIN":"3鄰","STREET":"建平五街","SECT":" ","MAREA":" ","LANE":" ","ALLEY":" ","HOUSE_NO":"１９０號","E_COORD97":165568.45999999999,"N_COORD97":2543189.8700000001,"ADDRESS":"建平五街１９０號","OBJECTID":609897},"geometry":{"x":165568.45999999996,"y":2543189.8700000029}},{"attributes":{"ID":609925,"DIS_CODE":0,"TOWNNAME":"安平區","LI":"國平里","LIN":"3鄰","STREET":"建平五街","SECT":" ","MAREA":" ","LANE":" ","ALLEY":" ","HOUSE_NO":"１９２號","E_COORD97":165564.67999999999,"N_COORD97":2543190.1899999999,"ADDRESS":"建平五街１９２號","OBJECTID":609898},"geometry":{"x":165564.68000000063,"y":2543190.1899999995}},{"attributes":{"ID":609926,"DIS_CODE":0,"TOWNNAME":"安平區","LI":"國平里","LIN":"3鄰","STREET":"建平五街","SECT":" ","MAREA":" ","LANE":" ","ALLEY":" ","HOUSE_NO":"２０８號","E_COORD97":165513.70572900001,"N_COORD97":2543196.8304499998,"ADDRESS":"建平五街２０８號","OBJECTID":609899},"geometry":{"x":165513.70572900027,"y":2543196.8304480035}},{"attributes":{"ID":609927,"DIS_CODE":0,"TOWNNAME":"安平區","LI":"國平里","LIN":"3鄰","STREET":"建平五街","SECT":" ","MAREA":" ","LANE":" ","ALLEY":" ","HOUSE_NO":"２１０號","E_COORD97":165507.56041100001,"N_COORD97":2543198.1004499998,"ADDRESS":"建平五街２１０號","OBJECTID":609900},"geometry":{"x":165507.56041100156,"y":2543198.1004469991}},{"attributes":{"ID":609928,"DIS_CODE":0,"TOWNNAME":"安平區","LI":"國平里","LIN":"3鄰","STREET":"建平五街","SECT":" ","MAREA":" ","LANE":" ","ALLEY":" ","HOUSE_NO":"２３１號","E_COORD97":165481.57000000001,"N_COORD97":2543193.4500000002,"ADDRESS":"建平五街２３１號","OBJECTID":609901},"geometry":{"x":165481.5700000003,"y":2543193.4500000011}},{"attributes":{"ID":609929,"DIS_CODE":0,"TOWNNAME":"新營區","LI":"新東里","LIN":"3鄰","STREET":"東大街","SECT":" ","MAREA":" ","LANE":" ","ALLEY":" ","HOUSE_NO":"１７號","E_COORD97":180993.41,"N_COORD97":2579091.8799999999,"ADDRESS":"東大街１７號","OBJECTID":609902},"geometry":{"x":180993.41000000015,"y":2579091.8800000008}},{"attributes":{"ID":609930,"DIS_CODE":0,"TOWNNAME":"南區","LI":"日新里","LIN":"3鄰","STREET":"利南街","SECT":" ","MAREA":" ","LANE":" ","ALLEY":" ","HOUSE_NO":"９８號","E_COORD97":166751.48000000001,"N_COORD97":2541277.2999999998,"ADDRESS":"利南街９８號","OBJECTID":609903},"geometry":{"x":166751.48000000138,"y":2541277.3000000026}},{"attributes":{"ID":609931,"DIS_CODE":0,"TOWNNAME":"南區","LI":"同安里","LIN":"3鄰","STREET":"灣裡路","SECT":" ","MAREA":" ","LANE":" ","ALLEY":" ","HOUSE_NO":"３７５號","E_COORD97":166218.25,"N_COORD97":2536124.4199999999,"ADDRESS":"灣裡路３７５號","OBJECTID":609904},"geometry":{"x":166218.25000000093,"y":2536124.4199999999}},{"attributes":{"ID":609932,"DIS_CODE":0,"TOWNNAME":"歸仁區","LI":"許厝里","LIN":"3鄰","STREET":"仁愛南街","SECT":" ","MAREA":" ","LANE":" ","ALLEY":" ","HOUSE_NO":"２７號","E_COORD97":178286.70999999999,"N_COORD97":2540595.8999999999,"ADDRESS":"仁愛南街２７號","OBJECTID":609905},"geometry":{"x":178286.71000000089,"y":2540595.9000000022}},{"attributes":{"ID":609933,"DIS_CODE":0,"TOWNNAME":"歸仁區","LI":"辜厝里","LIN":"3鄰","STREET":"中正二街","SECT":" ","MAREA":" ","LANE":" ","ALLEY":" ","HOUSE_NO":"２５號","E_COORD97":177548.35999999999,"N_COORD97":2540715.1099999999,"ADDRESS":"中正二街２５號","OBJECTID":609906},"geometry":{"x":177548.3600000022,"y":2540715.1100000013}},{"attributes":{"ID":609934,"DIS_CODE":0,"TOWNNAME":"歸仁區","LI":"六甲里","LIN":"3鄰","STREET":"中正南路","SECT":"一段","MAREA":" ","LANE":" ","ALLEY":" ","HOUSE_NO":"６８５號","E_COORD97":176578.91304399999,"N_COORD97":2539789.8543500002,"ADDRESS":"中正南路一段６８５號","OBJECTID":609907},"geometry":{"x":176578.91304400098,"y":2539789.8543539997}},{"attributes":{"ID":609935,"DIS_CODE":0,"TOWNNAME":"歸仁區","LI":"大潭里","LIN":"3鄰","STREET":"長榮路","SECT":"一段","MAREA":" ","LANE":" ","ALLEY":" ","HOUSE_NO":"７９５號","E_COORD97":176464.47,"N_COORD97":2534548.2799999998,"ADDRESS":"長榮路一段７９５號","OBJECTID":609908},"geometry":{"x":176464.47000000067,"y":2534548.2799999993}},{"attributes":{"ID":609936,"DIS_CODE":0,"TOWNNAME":"麻豆區","LI":"東角里","LIN":"3鄰","STREET":"民生路","SECT":" ","MAREA":" ","LANE":" ","ALLEY":" ","HOUSE_NO":"７號之３","E_COORD97":173564.82000000001,"N_COORD97":2564909.6600000001,"ADDRESS":"民生路７號之３","OBJECTID":609909},"geometry":{"x":173564.82000000216,"y":2564909.660000002}},{"attributes":{"ID":609937,"DIS_CODE":0,"TOWNNAME":"北區","LI":"公園里","LIN":"3鄰","STREET":"富北街","SECT":" ","MAREA":" ","LANE":" ","ALLEY":" ","HOUSE_NO":"６８號","E_COORD97":169178.22,"N_COORD97":2544431.4700000002,"ADDRESS":"富北街６８號","OBJECTID":609910},"geometry":{"x":169178.22000000067,"y":2544431.4700000007}},{"attributes":{"ID":609938,"DIS_CODE":0,"TOWNNAME":"北區","LI":"正風里","LIN":"3鄰","STREET":"公園路","SECT":" ","MAREA":" ","LANE":" ","ALLEY":" ","HOUSE_NO":"９０６號","E_COORD97":169361.32000000001,"N_COORD97":2546138.1800000002,"ADDRESS":"公園路９０６號","OBJECTID":609911},"geometry":{"x":169361.32000000123,"y":2546138.1800000034}},{"attributes":{"ID":609939,"DIS_CODE":0,"TOWNNAME":"北區","LI":"正風里","LIN":"3鄰","STREET":"公園路","SECT":" ","MAREA":" ","LANE":" ","ALLEY":" ","HOUSE_NO":"９０８號","E_COORD97":169366.28,"N_COORD97":2546144.0299999998,"ADDRESS":"公園路９０８號","OBJECTID":609912},"geometry":{"x":169366.28000000119,"y":2546144.0299999993}},{"attributes":{"ID":609940,"DIS_CODE":0,"TOWNNAME":"北區","LI":"正風里","LIN":"3鄰","STREET":"公園路","SECT":" ","MAREA":" ","LANE":" ","ALLEY":" ","HOUSE_NO":"９１０號","E_COORD97":169382.69,"N_COORD97":2546145.75,"ADDRESS":"公園路９１０號","OBJECTID":609913},"geometry":{"x":169382.69000000134,"y":2546145.7500000019}},{"attributes":{"ID":609941,"DIS_CODE":0,"TOWNNAME":"安平區","LI":"育平里","LIN":"3鄰","STREET":"育平五街","SECT":" ","MAREA":" ","LANE":" ","ALLEY":" ","HOUSE_NO":"３２號","E_COORD97":164773.60000000001,"N_COORD97":2543506.04,"ADDRESS":"育平五街３２號","OBJECTID":609914},"geometry":{"x":164773.59999999963,"y":2543506.0399999991}},{"attributes":{"ID":609942,"DIS_CODE":0,"TOWNNAME":"安平區","LI":"育平里","LIN":"3鄰","STREET":"健康三街","SECT":" ","MAREA":" ","LANE":" ","ALLEY":" ","HOUSE_NO":"２３５號","E_COORD97":164781.69,"N_COORD97":2543514.1200000001,"ADDRESS":"健康三街２３５號","OBJECTID":609915},"geometry":{"x":164781.69000000134,"y":2543514.1200000029}},{"attributes":{"ID":609943,"DIS_CODE":0,"TOWNNAME":"新營區","LI":"好平里","LIN":"3鄰","STREET":"新進路","SECT":"二段","MAREA":" ","LANE":" ","ALLEY":" ","HOUSE_NO":"８２號","E_COORD97":179549,"N_COORD97":2577748.6899999999,"ADDRESS":"新進路二段８２號","OBJECTID":609916},"geometry":{"x":179549.00000000186,"y":2577748.6899999995}},{"attributes":{"ID":609944,"DIS_CODE":0,"TOWNNAME":"新營區","LI":"民生里","LIN":"3鄰","STREET":"中華路","SECT":" ","MAREA":" ","LANE":" ","ALLEY":" ","HOUSE_NO":"７２之６號","E_COORD97":179456.35999999999,"N_COORD97":2578185.5299999998,"ADDRESS":"中華路７２之６號","OBJECTID":609917},"geometry":{"x":179456.36000000034,"y":2578185.5300000012}},{"attributes":{"ID":609945,"DIS_CODE":0,"TOWNNAME":"北區","LI":"賢北里","LIN":"3鄰","STREET":"中華北路","SECT":"一段","MAREA":" ","LANE":" ","ALLEY":" ","HOUSE_NO":"１１７號","E_COORD97":166491.64000000001,"N_COORD97":2545533.9700000002,"ADDRESS":"中華北路一段１１７號","OBJECTID":609918},"geometry":{"x":166491.6400000006,"y":2545533.9700000044}},{"attributes":{"ID":609946,"DIS_CODE":0,"TOWNNAME":"北區","LI":"元寶里","LIN":"3鄰","STREET":"北園街","SECT":" ","MAREA":" ","LANE":" ","ALLEY":" ","HOUSE_NO":"７４號","E_COORD97":170359.28,"N_COORD97":2545833.2599999998,"ADDRESS":"北園街７４號","OBJECTID":609919},"geometry":{"x":170359.28000000026,"y":2545833.2600000016}},{"attributes":{"ID":609947,"DIS_CODE":0,"TOWNNAME":"北區","LI":"元寶里","LIN":"3鄰","STREET":"北園街","SECT":" ","MAREA":" ","LANE":" ","ALLEY":" ","HOUSE_NO":"７８號","E_COORD97":170356.57999999999,"N_COORD97":2545850.7799999998,"ADDRESS":"北園街７８號","OBJECTID":609920},"geometry":{"x":170356.58000000007,"y":2545850.7799999993}},{"attributes":{"ID":609948,"DIS_CODE":0,"TOWNNAME":"北區","LI":"元寶里","LIN":"3鄰","STREET":"北園街","SECT":" ","MAREA":" ","LANE":" ","ALLEY":" ","HOUSE_NO":"７８號之１","E_COORD97":170362.79000000001,"N_COORD97":2545850.9900000002,"ADDRESS":"北園街７８號之１","OBJECTID":609921},"geometry":{"x":170362.79000000097,"y":2545850.9900000002}},{"attributes":{"ID":609949,"DIS_CODE":0,"TOWNNAME":"北區","LI":"元寶里","LIN":"3鄰","STREET":"北園街","SECT":" ","MAREA":" ","LANE":" ","ALLEY":" ","HOUSE_NO":"７８號之２","E_COORD97":170367.5,"N_COORD97":2545851.9500000002,"ADDRESS":"北園街７８號之２","OBJECTID":609922},"geometry":{"x":170367.5,"y":2545851.9500000011}},{"attributes":{"ID":609950,"DIS_CODE":0,"TOWNNAME":"北區","LI":"元寶里","LIN":"3鄰","STREET":"北園街","SECT":" ","MAREA":" ","LANE":" ","ALLEY":" ","HOUSE_NO":"７８號之３","E_COORD97":170371.73000000001,"N_COORD97":2545850.5099999998,"ADDRESS":"北園街７８號之３","OBJECTID":609923},"geometry":{"x":170371.73000000045,"y":2545850.5099999998}},{"attributes":{"ID":609951,"DIS_CODE":0,"TOWNNAME":"北區","LI":"光武里","LIN":"3鄰","STREET":"大武街","SECT":" ","MAREA":" ","LANE":" ","ALLEY":" ","HOUSE_NO":"１１６號之１","E_COORD97":169639.01999999999,"N_COORD97":2545863.4900000002,"ADDRESS":"大武街１１６號之１","OBJECTID":609924},"geometry":{"x":169639.02000000048,"y":2545863.4900000021}},{"attributes":{"ID":609952,"DIS_CODE":0,"TOWNNAME":"北區","LI":"光武里","LIN":"3鄰","STREET":"大武街","SECT":" ","MAREA":" ","LANE":" ","ALLEY":" ","HOUSE_NO":"１１６號之２","E_COORD97":169629.57000000001,"N_COORD97":2545871.7599999998,"ADDRESS":"大武街１１６號之２","OBJECTID":609925},"geometry":{"x":169629.5700000003,"y":2545871.7599999998}},{"attributes":{"ID":609953,"DIS_CODE":0,"TOWNNAME":"鹽水區","LI":"水正里","LIN":"3鄰","STREET":"中正路","SECT":" ","MAREA":" ","LANE":" ","ALLEY":" ","HOUSE_NO":"１號","E_COORD97":175158.32000000001,"N_COORD97":2579975.6299999999,"ADDRESS":"中正路１號","OBJECTID":609926},"geometry":{"x":175158.32000000216,"y":2579975.629999999}},{"attributes":{"ID":609954,"DIS_CODE":0,"TOWNNAME":"北區","LI":"三德里","LIN":"3鄰","STREET":"裕民街","SECT":" ","MAREA":" ","LANE":" ","ALLEY":" ","HOUSE_NO":"１０２號","E_COORD97":168497.59,"N_COORD97":2544560.5800000001,"ADDRESS":"裕民街１０２號","OBJECTID":609927},"geometry":{"x":168497.59000000078,"y":2544560.5800000019}},{"attributes":{"ID":609955,"DIS_CODE":0,"TOWNNAME":"北區","LI":"三德里","LIN":"3鄰","STREET":"裕民街","SECT":" ","MAREA":" ","LANE":" ","ALLEY":" ","HOUSE_NO":"１０２號之１","E_COORD97":168497.32000000001,"N_COORD97":2544553.6299999999,"ADDRESS":"裕民街１０２號之１","OBJECTID":609928},"geometry":{"x":168497.3200000003,"y":2544553.629999999}},{"attributes":{"ID":609956,"DIS_CODE":0,"TOWNNAME":"北區","LI":"三德里","LIN":"3鄰","STREET":"裕民街","SECT":" ","MAREA":" ","LANE":" ","ALLEY":" ","HOUSE_NO":"１０４號","E_COORD97":168484.56,"N_COORD97":2544568.6699999999,"ADDRESS":"裕民街１０４號","OBJECTID":609929},"geometry":{"x":168484.55999999959,"y":2544568.6699999981}},{"attributes":{"ID":609957,"DIS_CODE":0,"TOWNNAME":"北區","LI":"三德里","LIN":"3鄰","STREET":"裕民街","SECT":" ","MAREA":" ","LANE":" ","ALLEY":" ","HOUSE_NO":"１０４號之１","E_COORD97":168483.94,"N_COORD97":2544571.25,"ADDRESS":"裕民街１０４號之１","OBJECTID":609930},"geometry":{"x":168483.94000000134,"y":2544571.25}},{"attributes":{"ID":609958,"DIS_CODE":0,"TOWNNAME":"北區","LI":"三德里","LIN":"3鄰","STREET":"裕民街","SECT":" ","MAREA":" ","LANE":" ","ALLEY":" ","HOUSE_NO":"１０４號之２","E_COORD97":168482.69,"N_COORD97":2544575.8900000001,"ADDRESS":"裕民街１０４號之２","OBJECTID":609931},"geometry":{"x":168482.69000000134,"y":2544575.8900000025}},{"attributes":{"ID":609959,"DIS_CODE":0,"TOWNNAME":"北區","LI":"三德里","LIN":"3鄰","STREET":"裕民街","SECT":" ","MAREA":" ","LANE":" ","ALLEY":" ","HOUSE_NO":"１０４號之３","E_COORD97":168481.17000000001,"N_COORD97":2544579.8100000001,"ADDRESS":"裕民街１０４號之３","OBJECTID":609932},"geometry":{"x":168481.16999999993,"y":2544579.8100000024}},{"attributes":{"ID":609960,"DIS_CODE":0,"TOWNNAME":"北區","LI":"三德里","LIN":"3鄰","STREET":"裕民街","SECT":" ","MAREA":" ","LANE":" ","ALLEY":" ","HOUSE_NO":"１０６號","E_COORD97":168485.35999999999,"N_COORD97":2544588.5699999998,"ADDRESS":"裕民街１０６號","OBJECTID":609933},"geometry":{"x":168485.36000000034,"y":2544588.5700000022}},{"attributes":{"ID":609961,"DIS_CODE":0,"TOWNNAME":"北區","LI":"三德里","LIN":"3鄰","STREET":"裕民街","SECT":" ","MAREA":" ","LANE":" ","ALLEY":" ","HOUSE_NO":"１０８號","E_COORD97":168491.62,"N_COORD97":2544592.6000000001,"ADDRESS":"裕民街１０８號","OBJECTID":609934},"geometry":{"x":168491.62000000011,"y":2544592.5999999978}},{"attributes":{"ID":609962,"DIS_CODE":0,"TOWNNAME":"北區","LI":"三德里","LIN":"3鄰","STREET":"裕民街","SECT":" ","MAREA":" ","LANE":" ","ALLEY":" ","HOUSE_NO":"９６號","E_COORD97":168490.35000000001,"N_COORD97":2544542.5099999998,"ADDRESS":"裕民街９６號","OBJECTID":609935},"geometry":{"x":168490.35000000149,"y":2544542.5099999979}},{"attributes":{"ID":609963,"DIS_CODE":0,"TOWNNAME":"北區","LI":"三德里","LIN":"3鄰","STREET":"裕民街","SECT":" ","MAREA":" ","LANE":" ","ALLEY":" ","HOUSE_NO":"９６號之１","E_COORD97":168488.67999999999,"N_COORD97":2544546.2599999998,"ADDRESS":"裕民街９６號之１","OBJECTID":609936},"geometry":{"x":168488.68000000063,"y":2544546.2599999998}},{"attributes":{"ID":609964,"DIS_CODE":0,"TOWNNAME":"北區","LI":"三德里","LIN":"3鄰","STREET":"裕民街","SECT":" ","MAREA":" ","LANE":" ","ALLEY":" ","HOUSE_NO":"９８號","E_COORD97":168486.45999999999,"N_COORD97":2544550.5699999998,"ADDRESS":"裕民街９８號","OBJECTID":609937},"geometry":{"x":168486.46000000183,"y":2544550.5700000022}},{"attributes":{"ID":609965,"DIS_CODE":0,"TOWNNAME":"安平區","LI":"海頭里","LIN":"3鄰","STREET":"中興街","SECT":" ","MAREA":" ","LANE":" ","ALLEY":" ","HOUSE_NO":"３４號","E_COORD97":164199.45000000001,"N_COORD97":2544706.0899999999,"ADDRESS":"中興街３４號","OBJECTID":609938},"geometry":{"x":164199.45000000019,"y":2544706.0900000017}},{"attributes":{"ID":609966,"DIS_CODE":0,"TOWNNAME":"安平區","LI":"海頭里","LIN":"3鄰","STREET":"中興街","SECT":" ","MAREA":" ","LANE":" ","ALLEY":" ","HOUSE_NO":"３２號","E_COORD97":164204.53,"N_COORD97":2544704.5099999998,"ADDRESS":"中興街３２號","OBJECTID":609939},"geometry":{"x":164204.53000000119,"y":2544704.5099999998}},{"attributes":{"ID":609967,"DIS_CODE":0,"TOWNNAME":"歸仁區","LI":"歸南里","LIN":"3鄰","STREET":"民權南路","SECT":" ","MAREA":" ","LANE":" ","ALLEY":" ","HOUSE_NO":"２５０號","E_COORD97":176934.16,"N_COORD97":2540217.25,"ADDRESS":"民權南路２５０號","OBJECTID":609940},"geometry":{"x":176934.16000000201,"y":2540217.25}},{"attributes":{"ID":609968,"DIS_CODE":0,"TOWNNAME":"歸仁區","LI":"新厝里","LIN":"3鄰","STREET":"和平南街","SECT":" ","MAREA":" ","LANE":" ","ALLEY":" ","HOUSE_NO":"２８號","E_COORD97":177814.07000000001,"N_COORD97":2540680.25,"ADDRESS":"和平南街２８號","OBJECTID":609941},"geometry":{"x":177814.0700000003,"y":2540680.2500000019}},{"attributes":{"ID":609969,"DIS_CODE":0,"TOWNNAME":"歸仁區","LI":"媽廟里","LIN":"3鄰","STREET":"媽廟一街","SECT":" ","MAREA":" ","LANE":" ","ALLEY":" ","HOUSE_NO":"５４號","E_COORD97":177338.32999999999,"N_COORD97":2543582.7200000002,"ADDRESS":"媽廟一街５４號","OBJECTID":609942},"geometry":{"x":177338.33000000101,"y":2543582.7200000044}},{"attributes":{"ID":609970,"DIS_CODE":0,"TOWNNAME":"歸仁區","LI":"崙頂里","LIN":"3鄰","STREET":"成功路","SECT":"二段","MAREA":" ","LANE":" ","ALLEY":" ","HOUSE_NO":"２號","E_COORD97":178196.19,"N_COORD97":2539915,"ADDRESS":"成功路二段２號","OBJECTID":609943},"geometry":{"x":178196.19000000134,"y":2539915.0000000037}},{"attributes":{"ID":609971,"DIS_CODE":0,"TOWNNAME":"歸仁區","LI":"新厝里","LIN":"3鄰","STREET":"和平南街","SECT":" ","MAREA":" ","LANE":" ","ALLEY":" ","HOUSE_NO":"１０號","E_COORD97":177817.5,"N_COORD97":2540713.6800000002,"ADDRESS":"和平南街１０號","OBJECTID":609944},"geometry":{"x":177817.5,"y":2540713.6800000034}},{"attributes":{"ID":609972,"DIS_CODE":0,"TOWNNAME":"歸仁區","LI":"歸仁里","LIN":"3鄰","STREET":"大通路","SECT":" ","MAREA":" ","LANE":" ","ALLEY":" ","HOUSE_NO":"８６號","E_COORD97":177693.88,"N_COORD97":2540902.3399999999,"ADDRESS":"大通路８６號","OBJECTID":609945},"geometry":{"x":177693.88000000082,"y":2540902.3399999999}},{"attributes":{"ID":609973,"DIS_CODE":0,"TOWNNAME":"歸仁區","LI":"南保里","LIN":"3鄰","STREET":"民權二街","SECT":" ","MAREA":" ","LANE":" ","ALLEY":" ","HOUSE_NO":"８１號","E_COORD97":176929.29000000001,"N_COORD97":2541440.29,"ADDRESS":"民權二街８１號","OBJECTID":609946},"geometry":{"x":176929.29000000004,"y":2541440.2899999991}},{"attributes":{"ID":609974,"DIS_CODE":0,"TOWNNAME":"歸仁區","LI":"媽廟里","LIN":"3鄰","STREET":"和順路","SECT":"一段","MAREA":" ","LANE":" ","ALLEY":" ","HOUSE_NO":"１３７號","E_COORD97":177064.42000000001,"N_COORD97":2543669.7200000002,"ADDRESS":"和順路一段１３７號","OBJECTID":609947},"geometry":{"x":177064.42000000179,"y":2543669.7200000007}},{"attributes":{"ID":609975,"DIS_CODE":0,"TOWNNAME":"歸仁區","LI":"歸仁里","LIN":"3鄰","STREET":"中正北路","SECT":"一段","MAREA":" ","LANE":" ","ALLEY":" ","HOUSE_NO":"７０號","E_COORD97":177695.98000000001,"N_COORD97":2541004.04,"ADDRESS":"中正北路一段７０號","OBJECTID":609948},"geometry":{"x":177695.98000000045,"y":2541004.0399999991}},{"attributes":{"ID":609976,"DIS_CODE":0,"TOWNNAME":"新營區","LI":"南紙里","LIN":"3鄰","STREET":"太子路","SECT":" ","MAREA":" ","LANE":" ","ALLEY":" ","HOUSE_NO":"１４５號","E_COORD97":177940.70000000001,"N_COORD97":2577868.29,"ADDRESS":"太子路１４５號","OBJECTID":609949},"geometry":{"x":177940.69999999925,"y":2577868.290000001}},{"attributes":{"ID":609977,"DIS_CODE":0,"TOWNNAME":"新營區","LI":"埤寮里","LIN":"3鄰","STREET":"建國路","SECT":" ","MAREA":" ","LANE":" ","ALLEY":" ","HOUSE_NO":"２２號","E_COORD97":180042.51000000001,"N_COORD97":2581093.0800000001,"ADDRESS":"建國路２２號","OBJECTID":609950},"geometry":{"x":180042.51000000071,"y":2581093.0800000001}},{"attributes":{"ID":609978,"DIS_CODE":0,"TOWNNAME":"新營區","LI":"埤寮里","LIN":"3鄰","STREET":"建國路","SECT":" ","MAREA":" ","LANE":" ","ALLEY":" ","HOUSE_NO":"２８之１號","E_COORD97":180020.47,"N_COORD97":2581095.46,"ADDRESS":"建國路２８之１號","OBJECTID":609951},"geometry":{"x":180020.47000000067,"y":2581095.4600000009}},{"attributes":{"ID":609979,"DIS_CODE":0,"TOWNNAME":"新營區","LI":"南紙里","LIN":"3鄰","STREET":"太子路","SECT":" ","MAREA":" ","LANE":" ","ALLEY":" ","HOUSE_NO":"１５５號","E_COORD97":177922.22,"N_COORD97":2577855.0899999999,"ADDRESS":"太子路１５５號","OBJECTID":609952},"geometry":{"x":177922.22000000067,"y":2577855.0899999999}},{"attributes":{"ID":609980,"DIS_CODE":0,"TOWNNAME":"新營區","LI":"埤寮里","LIN":"3鄰","STREET":"建國路","SECT":" ","MAREA":" ","LANE":" ","ALLEY":" ","HOUSE_NO":"３５之１０號","E_COORD97":179881.38,"N_COORD97":2581041.8599999999,"ADDRESS":"建國路３５之１０號","OBJECTID":609953},"geometry":{"x":179881.37999999989,"y":2581041.8600000013}},{"attributes":{"ID":609981,"DIS_CODE":0,"TOWNNAME":"南區","LI":"同安里","LIN":"3鄰","STREET":"灣裡路","SECT":" ","MAREA":" ","LANE":" ","ALLEY":" ","HOUSE_NO":"３９７號","E_COORD97":166230.51000000001,"N_COORD97":2536074.4700000002,"ADDRESS":"灣裡路３９７號","OBJECTID":609954},"geometry":{"x":166230.50999999978,"y":2536074.4699999988}},{"attributes":{"ID":609982,"DIS_CODE":0,"TOWNNAME":"鹽水區","LI":"三生里","LIN":"3鄰","STREET":"民生街","SECT":" ","MAREA":" ","LANE":" ","ALLEY":" ","HOUSE_NO":"１３號","E_COORD97":175110.25,"N_COORD97":2580093.8500000001,"ADDRESS":"民生街１３號","OBJECTID":609955},"geometry":{"x":175110.25,"y":2580093.8499999996}},{"attributes":{"ID":609983,"DIS_CODE":0,"TOWNNAME":"北區","LI":"光武里","LIN":"3鄰","STREET":"長榮路","SECT":"五段","MAREA":" ","LANE":" ","ALLEY":" ","HOUSE_NO":"３３５號","E_COORD97":169665.54999999999,"N_COORD97":2545911.4100000001,"ADDRESS":"長榮路五段３３５號","OBJECTID":609956},"geometry":{"x":169665.55000000168,"y":2545911.410000002}},{"attributes":{"ID":609984,"DIS_CODE":0,"TOWNNAME":"北區","LI":"光武里","LIN":"3鄰","STREET":"長榮路","SECT":"五段","MAREA":" ","LANE":" ","ALLEY":" ","HOUSE_NO":"３３７號","E_COORD97":169662.54000000001,"N_COORD97":2545911.2000000002,"ADDRESS":"長榮路五段３３７號","OBJECTID":609957},"geometry":{"x":169662.5400000019,"y":2545911.2000000011}},{"attributes":{"ID":609985,"DIS_CODE":0,"TOWNNAME":"北區","LI":"光武里","LIN":"3鄰","STREET":"長榮路","SECT":"五段","MAREA":" ","LANE":" ","ALLEY":" ","HOUSE_NO":"３３９號","E_COORD97":169658.98000000001,"N_COORD97":2545912.1499999999,"ADDRESS":"長榮路五段３３９號","OBJECTID":609958},"geometry":{"x":169658.98000000138,"y":2545912.1500000041}},{"attributes":{"ID":609986,"DIS_CODE":0,"TOWNNAME":"北區","LI":"光武里","LIN":"3鄰","STREET":"長榮路","SECT":"五段","MAREA":" ","LANE":" ","ALLEY":" ","HOUSE_NO":"３４１號","E_COORD97":169655.17999999999,"N_COORD97":2545911.6699999999,"ADDRESS":"長榮路五段３４１號","OBJECTID":609959},"geometry":{"x":169655.18000000063,"y":2545911.6700000037}},{"attributes":{"ID":609987,"DIS_CODE":0,"TOWNNAME":"北區","LI":"光武里","LIN":"3鄰","STREET":"長榮路","SECT":"五段","MAREA":" ","LANE":" ","ALLEY":" ","HOUSE_NO":"３４３號","E_COORD97":169651.37,"N_COORD97":2545912.6200000001,"ADDRESS":"長榮路五段３４３號","OBJECTID":609960},"geometry":{"x":169651.37000000011,"y":2545912.620000001}},{"attributes":{"ID":609988,"DIS_CODE":0,"TOWNNAME":"北區","LI":"光武里","LIN":"3鄰","STREET":"長榮路","SECT":"五段","MAREA":" ","LANE":" ","ALLEY":" ","HOUSE_NO":"３４５號","E_COORD97":169648.04999999999,"N_COORD97":2545910.96,"ADDRESS":"長榮路五段３４５號","OBJECTID":609961},"geometry":{"x":169648.04999999981,"y":2545910.9600000028}},{"attributes":{"ID":609989,"DIS_CODE":0,"TOWNNAME":"北區","LI":"大仁里","LIN":"3鄰","STREET":"北門路","SECT":"二段","MAREA":" ","LANE":" ","ALLEY":" ","HOUSE_NO":"３４６號","E_COORD97":169573.37,"N_COORD97":2545388.6699999999,"ADDRESS":"北門路二段３４６號","OBJECTID":609962},"geometry":{"x":169573.37000000011,"y":2545388.6699999999}},{"attributes":{"ID":609990,"DIS_CODE":0,"TOWNNAME":"北區","LI":"大仁里","LIN":"3鄰","STREET":"北門路","SECT":"二段","MAREA":" ","LANE":" ","ALLEY":" ","HOUSE_NO":"３４８號","E_COORD97":169575.70000000001,"N_COORD97":2545393.8799999999,"ADDRESS":"北門路二段３４８號","OBJECTID":609963},"geometry":{"x":169575.70000000112,"y":2545393.8800000027}},{"attributes":{"ID":609991,"DIS_CODE":0,"TOWNNAME":"北區","LI":"大仁里","LIN":"3鄰","STREET":"北門路","SECT":"二段","MAREA":" ","LANE":" ","ALLEY":" ","HOUSE_NO":"３５０號","E_COORD97":169578.01000000001,"N_COORD97":2545399.0099999998,"ADDRESS":"北門路二段３５０號","OBJECTID":609964},"geometry":{"x":169578.01000000071,"y":2545399.0099999998}},{"attributes":{"ID":609992,"DIS_CODE":0,"TOWNNAME":"北區","LI":"大仁里","LIN":"3鄰","STREET":"北門路","SECT":"二段","MAREA":" ","LANE":" ","ALLEY":" ","HOUSE_NO":"３５２號","E_COORD97":169580.19,"N_COORD97":2545404.1400000001,"ADDRESS":"北門路二段３５２號","OBJECTID":609965},"geometry":{"x":169580.19000000041,"y":2545404.1400000025}},{"attributes":{"ID":609993,"DIS_CODE":0,"TOWNNAME":"北區","LI":"大仁里","LIN":"3鄰","STREET":"北門路","SECT":"二段","MAREA":" ","LANE":" ","ALLEY":" ","HOUSE_NO":"３５６號","E_COORD97":169582.51000000001,"N_COORD97":2545409.4300000002,"ADDRESS":"北門路二段３５６號","OBJECTID":609966},"geometry":{"x":169582.50999999978,"y":2545409.4299999997}},{"attributes":{"ID":609994,"DIS_CODE":0,"TOWNNAME":"北區","LI":"大仁里","LIN":"3鄰","STREET":"北門路","SECT":"二段","MAREA":" ","LANE":" ","ALLEY":" ","HOUSE_NO":"３５８號","E_COORD97":169584.67999999999,"N_COORD97":2545413.52,"ADDRESS":"北門路二段３５８號","OBJECTID":609967},"geometry":{"x":169584.6799999997,"y":2545413.5199999977}},{"attributes":{"ID":609995,"DIS_CODE":0,"TOWNNAME":"北區","LI":"大仁里","LIN":"3鄰","STREET":"北門路","SECT":"二段","MAREA":" ","LANE":" ","ALLEY":" ","HOUSE_NO":"３６０號","E_COORD97":169585.91,"N_COORD97":2545417.46,"ADDRESS":"北門路二段３６０號","OBJECTID":609968},"geometry":{"x":169585.91000000108,"y":2545417.4600000009}},{"attributes":{"ID":609996,"DIS_CODE":0,"TOWNNAME":"北區","LI":"大仁里","LIN":"3鄰","STREET":"北門路","SECT":"二段","MAREA":" ","LANE":" ","ALLEY":" ","HOUSE_NO":"３６２號","E_COORD97":169587.42999999999,"N_COORD97":2545421.2000000002,"ADDRESS":"北門路二段３６２號","OBJECTID":609969},"geometry":{"x":169587.4299999997,"y":2545421.1999999993}},{"attributes":{"ID":609997,"DIS_CODE":0,"TOWNNAME":"鹽水區","LI":"三生里","LIN":"3鄰","STREET":"民生街","SECT":" ","MAREA":" ","LANE":" ","ALLEY":" ","HOUSE_NO":"１１號","E_COORD97":175110.97,"N_COORD97":2580087.3300000001,"ADDRESS":"民生街１１號","OBJECTID":609970},"geometry":{"x":175110.9700000016,"y":2580087.3300000001}},{"attributes":{"ID":609998,"DIS_CODE":0,"TOWNNAME":"鹽水區","LI":"三生里","LIN":"3鄰","STREET":"民生街","SECT":" ","MAREA":" ","LANE":" ","ALLEY":" ","HOUSE_NO":"１２號","E_COORD97":175110.60999999999,"N_COORD97":2580090.5899999999,"ADDRESS":"民生街１２號","OBJECTID":609971},"geometry":{"x":175110.6100000022,"y":2580090.5900000036}},{"attributes":{"ID":609999,"DIS_CODE":0,"TOWNNAME":"鹽水區","LI":"三生里","LIN":"3鄰","STREET":"民生街","SECT":" ","MAREA":" ","LANE":" ","ALLEY":" ","HOUSE_NO":"１３號之３","E_COORD97":175108.76000000001,"N_COORD97":2580103.96,"ADDRESS":"民生街１３號之３","OBJECTID":609972},"geometry":{"x":175108.75999999978,"y":2580103.9600000028}},{"attributes":{"ID":610000,"DIS_CODE":0,"TOWNNAME":"安平區","LI":"建平里","LIN":"3鄰","STREET":"慶平路","SECT":" ","MAREA":" ","LANE":" ","ALLEY":" ","HOUSE_NO":"４５號","E_COORD97":166289.85000000001,"N_COORD97":2544156.5499999998,"ADDRESS":"慶平路４５號","OBJECTID":609973},"geometry":{"x":166289.85000000149,"y":2544156.5500000007}},{"attributes":{"ID":610001,"DIS_CODE":0,"TOWNNAME":"安平區","LI":"建平里","LIN":"3鄰","STREET":"慶平路","SECT":" ","MAREA":" ","LANE":" ","ALLEY":" ","HOUSE_NO":"４７號","E_COORD97":166285.35000000001,"N_COORD97":2544157.21,"ADDRESS":"慶平路４７號","OBJECTID":609974},"geometry":{"x":166285.35000000056,"y":2544157.2100000028}},{"attributes":{"ID":610002,"DIS_CODE":0,"TOWNNAME":"安平區","LI":"平安里","LIN":"3鄰","STREET":"民權路","SECT":"四段","MAREA":" ","LANE":" ","ALLEY":" ","HOUSE_NO":"７１號","E_COORD97":166404.63,"N_COORD97":2544409.3399999999,"ADDRESS":"民權路四段７１號","OBJECTID":609975},"geometry":{"x":166404.62999999989,"y":2544409.3400000017}},{"attributes":{"ID":610003,"DIS_CODE":0,"TOWNNAME":"北區","LI":"賢北里","LIN":"3鄰","STREET":"大興街","SECT":" ","MAREA":" ","LANE":" ","ALLEY":" ","HOUSE_NO":"４１１號","E_COORD97":166345.72,"N_COORD97":2545564.9700000002,"ADDRESS":"大興街４１１號","OBJECTID":609976},"geometry":{"x":166345.72000000067,"y":2545564.9700000025}},{"attributes":{"ID":610004,"DIS_CODE":0,"TOWNNAME":"南區","LI":"再興里","LIN":"3鄰","STREET":"三和街","SECT":" ","MAREA":" ","LANE":" ","ALLEY":" ","HOUSE_NO":"４３號","E_COORD97":167199.95999999999,"N_COORD97":2542402.4300000002,"ADDRESS":"三和街４３號","OBJECTID":609977},"geometry":{"x":167199.96000000089,"y":2542402.4299999997}},{"attributes":{"ID":610005,"DIS_CODE":0,"TOWNNAME":"南區","LI":"新昌里","LIN":"3鄰","STREET":"國華街","SECT":"一段","MAREA":" ","LANE":" ","ALLEY":" ","HOUSE_NO":"１４１號","E_COORD97":167593.26000000001,"N_COORD97":2542905.9700000002,"ADDRESS":"國華街一段１４１號","OBJECTID":609978},"geometry":{"x":167593.26000000071,"y":2542905.9700000007}},{"attributes":{"ID":610006,"DIS_CODE":0,"TOWNNAME":"新營區","LI":"三仙里","LIN":"3鄰","STREET":"正義街","SECT":" ","MAREA":" ","LANE":" ","ALLEY":" ","HOUSE_NO":"１２號之４","E_COORD97":179693.79000000001,"N_COORD97":2578072.5499999998,"ADDRESS":"正義街１２號之４","OBJECTID":609979},"geometry":{"x":179693.79000000004,"y":2578072.5500000026}},{"attributes":{"ID":610007,"DIS_CODE":0,"TOWNNAME":"新營區","LI":"大宏里","LIN":"3鄰","STREET":"同濟街","SECT":" ","MAREA":" ","LANE":" ","ALLEY":" ","HOUSE_NO":"１２７號","E_COORD97":180445.76000000001,"N_COORD97":2578733.4199999999,"ADDRESS":"同濟街１２７號","OBJECTID":609980},"geometry":{"x":180445.76000000071,"y":2578733.4200000018}},{"attributes":{"ID":610008,"DIS_CODE":0,"TOWNNAME":"新營區","LI":"大宏里","LIN":"3鄰","STREET":"同濟街","SECT":" ","MAREA":" ","LANE":" ","ALLEY":" ","HOUSE_NO":"１３１號","E_COORD97":180437.67000000001,"N_COORD97":2578752.2799999998,"ADDRESS":"同濟街１３１號","OBJECTID":609981},"geometry":{"x":180437.66999999899,"y":2578752.2799999993}},{"attributes":{"ID":610009,"DIS_CODE":0,"TOWNNAME":"新營區","LI":"中營里","LIN":"3鄰","STREET":"中山路","SECT":" ","MAREA":" ","LANE":" ","ALLEY":" ","HOUSE_NO":"５６之３號","E_COORD97":180478.04000000001,"N_COORD97":2578365.6499999999,"ADDRESS":"中山路５６之３號","OBJECTID":609982},"geometry":{"x":180478.04000000097,"y":2578365.6500000022}},{"attributes":{"ID":610010,"DIS_CODE":0,"TOWNNAME":"新營區","LI":"南興里","LIN":"3鄰","STREET":"南昌街","SECT":" ","MAREA":" ","LANE":" ","ALLEY":" ","HOUSE_NO":"１９之７號","E_COORD97":179612.35000000001,"N_COORD97":2577653.21,"ADDRESS":"南昌街１９之７號","OBJECTID":609983},"geometry":{"x":179612.35000000149,"y":2577653.2100000028}},{"attributes":{"ID":610011,"DIS_CODE":0,"TOWNNAME":"新營區","LI":"大宏里","LIN":"3鄰","STREET":"綠川北街","SECT":" ","MAREA":" ","LANE":" ","ALLEY":" ","HOUSE_NO":"９０號","E_COORD97":180391.12,"N_COORD97":2578694.8999999999,"ADDRESS":"綠川北街９０號","OBJECTID":609984},"geometry":{"x":180391.12000000104,"y":2578694.9000000004}},{"attributes":{"ID":610012,"DIS_CODE":0,"TOWNNAME":"新營區","LI":"南興里","LIN":"3鄰","STREET":"南昌街","SECT":" ","MAREA":" ","LANE":" ","ALLEY":" ","HOUSE_NO":"１７之２號","E_COORD97":179638.82999999999,"N_COORD97":2577628.7200000002,"ADDRESS":"南昌街１７之２號","OBJECTID":609985},"geometry":{"x":179638.83000000101,"y":2577628.7199999988}},{"attributes":{"ID":610013,"DIS_CODE":0,"TOWNNAME":"新營區","LI":"民權里","LIN":"3鄰","STREET":"博愛街","SECT":" ","MAREA":" ","LANE":" ","ALLEY":" ","HOUSE_NO":"８號","E_COORD97":180001.92999999999,"N_COORD97":2578182.8700000001,"ADDRESS":"博愛街８號","OBJECTID":609986},"geometry":{"x":180001.93000000156,"y":2578182.870000001}},{"attributes":{"ID":610014,"DIS_CODE":0,"TOWNNAME":"新營區","LI":"大宏里","LIN":"3鄰","STREET":"民族路","SECT":" ","MAREA":" ","LANE":" ","ALLEY":" ","HOUSE_NO":"３８之１３號","E_COORD97":180386.92000000001,"N_COORD97":2578720.46,"ADDRESS":"民族路３８之１３號","OBJECTID":609987},"geometry":{"x":180386.92000000179,"y":2578720.4600000028}},{"attributes":{"ID":610015,"DIS_CODE":0,"TOWNNAME":"新化區","LI":"觀音里","LIN":"3鄰","STREET":"民族街","SECT":" ","MAREA":" ","LANE":" ","ALLEY":" ","HOUSE_NO":"１０號","E_COORD97":178901.44905200001,"N_COORD97":2548485.5936799999,"ADDRESS":"民族街１０號","OBJECTID":609988},"geometry":{"x":178901.44905200135,"y":2548485.5936829988}},{"attributes":{"ID":610016,"DIS_CODE":0,"TOWNNAME":"歸仁區","LI":"大廟里","LIN":"3鄰","STREET":"大廟三街","SECT":" ","MAREA":" ","LANE":" ","ALLEY":" ","HOUSE_NO":"７７號","E_COORD97":176218.26999999999,"N_COORD97":2543865.25,"ADDRESS":"大廟三街７７號","OBJECTID":609989},"geometry":{"x":176218.26999999955,"y":2543865.25}},{"attributes":{"ID":610017,"DIS_CODE":0,"TOWNNAME":"安平區","LI":"金城里","LIN":"3鄰","STREET":"運河路","SECT":" ","MAREA":" ","LANE":" ","ALLEY":" ","HOUSE_NO":"４１號","E_COORD97":164014.42000000001,"N_COORD97":2544345.5099999998,"ADDRESS":"運河路４１號","OBJECTID":609990},"geometry":{"x":164014.41999999993,"y":2544345.5099999998}},{"attributes":{"ID":610018,"DIS_CODE":0,"TOWNNAME":"安平區","LI":"億載里","LIN":"3鄰","STREET":"永華十二街","SECT":" ","MAREA":" ","LANE":" ","ALLEY":" ","HOUSE_NO":"２０號","E_COORD97":163769.48000000001,"N_COORD97":2543667.46,"ADDRESS":"永華十二街２０號","OBJECTID":609991},"geometry":{"x":163769.48000000138,"y":2543667.4600000028}},{"attributes":{"ID":610019,"DIS_CODE":0,"TOWNNAME":"安平區","LI":"怡平里","LIN":"3鄰","STREET":"永華六街","SECT":" ","MAREA":" ","LANE":" ","ALLEY":" ","HOUSE_NO":"２１４號地下一層","E_COORD97":165681.85000000001,"N_COORD97":2544203.5099999998,"ADDRESS":"永華六街２１４號地下一層","OBJECTID":609992},"geometry":{"x":165681.85000000056,"y":2544203.5100000035}},{"attributes":{"ID":610020,"DIS_CODE":0,"TOWNNAME":"中西區","LI":"協和里","LIN":"9鄰","STREET":"成功路","SECT":" ","MAREA":" ","LANE":" ","ALLEY":" ","HOUSE_NO":"５１７號","E_COORD97":167448.01000000001,"N_COORD97":2544761.6200000001,"ADDRESS":"成功路５１７號","OBJECTID":609993},"geometry":{"x":167448.00999999978,"y":2544761.6200000029}},{"attributes":{"ID":610021,"DIS_CODE":0,"TOWNNAME":"中西區","LI":"協和里","LIN":"9鄰","STREET":"文賢路","SECT":" ","MAREA":" ","LANE":" ","ALLEY":" ","HOUSE_NO":"１３７號","E_COORD97":167404.26999999999,"N_COORD97":2544747.3900000001,"ADDRESS":"文賢路１３７號","OBJECTID":609994},"geometry":{"x":167404.27000000048,"y":2544747.3900000006}},{"attributes":{"ID":610022,"DIS_CODE":0,"TOWNNAME":"中西區","LI":"協和里","LIN":"9鄰","STREET":"文賢路","SECT":" ","MAREA":" ","LANE":" ","ALLEY":" ","HOUSE_NO":"１３９號","E_COORD97":167401.39999999999,"N_COORD97":2544751.8599999999,"ADDRESS":"文賢路１３９號","OBJECTID":609995},"geometry":{"x":167401.4000000013,"y":2544751.8599999994}},{"attributes":{"ID":610023,"DIS_CODE":0,"TOWNNAME":"中西區","LI":"協和里","LIN":"9鄰","STREET":"文賢路","SECT":" ","MAREA":" ","LANE":" ","ALLEY":" ","HOUSE_NO":"１４１號","E_COORD97":167395.64000000001,"N_COORD97":2544758.3300000001,"ADDRESS":"文賢路１４１號","OBJECTID":609996},"geometry":{"x":167395.6400000006,"y":2544758.3300000019}},{"attributes":{"ID":610024,"DIS_CODE":0,"TOWNNAME":"中西區","LI":"協和里","LIN":"9鄰","STREET":"文賢路","SECT":" ","MAREA":" ","LANE":" ","ALLEY":" ","HOUSE_NO":"１４９號","E_COORD97":167392.20000000001,"N_COORD97":2544764.8599999999,"ADDRESS":"文賢路１４９號","OBJECTID":609997},"geometry":{"x":167392.20000000112,"y":2544764.8600000013}},{"attributes":{"ID":610025,"DIS_CODE":0,"TOWNNAME":"中西區","LI":"協和里","LIN":"9鄰","STREET":"文賢路","SECT":" ","MAREA":" ","LANE":" ","ALLEY":" ","HOUSE_NO":"１５１號","E_COORD97":167389.56,"N_COORD97":2544768.6400000001,"ADDRESS":"文賢路１５１號","OBJECTID":609998},"geometry":{"x":167389.55999999959,"y":2544768.6400000006}},{"attributes":{"ID":610026,"DIS_CODE":0,"TOWNNAME":"中西區","LI":"協和里","LIN":"9鄰","STREET":"文賢路","SECT":" ","MAREA":" ","LANE":" ","ALLEY":" ","HOUSE_NO":"１５３號","E_COORD97":167387.01000000001,"N_COORD97":2544771.3199999998,"ADDRESS":"文賢路１５３號","OBJECTID":609999},"geometry":{"x":167387.00999999978,"y":2544771.3200000003}},{"attributes":{"ID":610027,"DIS_CODE":0,"TOWNNAME":"中西區","LI":"協和里","LIN":"9鄰","STREET":"文賢路","SECT":" ","MAREA":" ","LANE":" ","ALLEY":" ","HOUSE_NO":"１５５號","E_COORD97":167385.29000000001,"N_COORD97":2544774.6400000001,"ADDRESS":"文賢路１５５號","OBJECTID":610000},"geometry":{"x":167385.29000000004,"y":2544774.6400000025}}]}