{"displayFieldName":"TOWNNAME","fieldAliases":{"ID":"ID","DIS_CODE":"DIS_CODE","TOWNNAME":"TOWNNAME","LI":"LI","LIN":"LIN","STREET":"STREET","SECT":"SECT","MAREA":"MAREA","LANE":"LANE","ALLEY":"ALLEY","HOUSE_NO":"HOUSE_NO","E_COORD97":"E_COORD97","N_COORD97":"N_COORD97","ADDRESS":"ADDRESS","OBJECTID":"OBJECTID"},"geometryType":"esriGeometryPoint","spatialReference":{"wkid":102443,"latestWkid":3826},"fields":[{"name":"ID","type":"esriFieldTypeDouble","alias":"ID"},{"name":"DIS_CODE","type":"esriFieldTypeInteger","alias":"DIS_CODE"},{"name":"TOWNNAME","type":"esriFieldTypeString","alias":"TOWNNAME","length":8},{"name":"LI","type":"esriFieldTypeString","alias":"LI","length":8},{"name":"LIN","type":"esriFieldTypeString","alias":"LIN","length":12},{"name":"STREET","type":"esriFieldTypeString","alias":"STREET","length":20},{"name":"SECT","type":"esriFieldTypeString","alias":"SECT","length":8},{"name":"MAREA","type":"esriFieldTypeString","alias":"MAREA","length":12},{"name":"LANE","type":"esriFieldTypeString","alias":"LANE","length":10},{"name":"ALLEY","type":"esriFieldTypeString","alias":"ALLEY","length":10},{"name":"HOUSE_NO","type":"esriFieldTypeString","alias":"HOUSE_NO","length":20},{"name":"E_COORD97","type":"esriFieldTypeDouble","alias":"E_COORD97"},{"name":"N_COORD97","type":"esriFieldTypeDouble","alias":"N_COORD97"},{"name":"ADDRESS","type":"esriFieldTypeString","alias":"ADDRESS","length":50},{"name":"OBJECTID","type":"esriFieldTypeOID","alias":"OBJECTID"}],"features":[{"attributes":{"ID":288407,"DIS_CODE":0,"TOWNNAME":"仁德區","LI":"仁德里","LIN":"10鄰","STREET":"中正路","SECT":"二段","MAREA":" ","LANE":"１２０５巷","ALLEY":" ","HOUSE_NO":"１號三樓","E_COORD97":173284.45999999999,"N_COORD97":2541185.77,"ADDRESS":"中正路二段１２０５巷１號三樓","OBJECTID":288401},"geometry":{"x":173284.46000000089,"y":2541185.7700000014}},{"attributes":{"ID":288408,"DIS_CODE":0,"TOWNNAME":"仁德區","LI":"仁德里","LIN":"10鄰","STREET":"中正路","SECT":"二段","MAREA":" ","LANE":"１２０５巷","ALLEY":" ","HOUSE_NO":"５號一樓之２","E_COORD97":173225.26999999999,"N_COORD97":2541261.8100000001,"ADDRESS":"中正路二段１２０５巷５號一樓之２","OBJECTID":288402},"geometry":{"x":173225.26999999862,"y":2541261.8100000005}},{"attributes":{"ID":288409,"DIS_CODE":0,"TOWNNAME":"仁德區","LI":"仁德里","LIN":"10鄰","STREET":"中正路","SECT":"二段","MAREA":" ","LANE":"１２０５巷","ALLEY":" ","HOUSE_NO":"１５號二樓之２","E_COORD97":173207.60000000001,"N_COORD97":2541183.5499999998,"ADDRESS":"中正路二段１２０５巷１５號二樓之２","OBJECTID":288403},"geometry":{"x":173207.59999999963,"y":2541183.5500000045}},{"attributes":{"ID":288410,"DIS_CODE":0,"TOWNNAME":"仁德區","LI":"仁德里","LIN":"10鄰","STREET":"中正路","SECT":"二段","MAREA":" ","LANE":"１２０５巷","ALLEY":" ","HOUSE_NO":"６號一樓之２","E_COORD97":173212.79999999999,"N_COORD97":2541258.5600000001,"ADDRESS":"中正路二段１２０５巷６號一樓之２","OBJECTID":288404},"geometry":{"x":173212.79999999981,"y":2541258.5600000024}},{"attributes":{"ID":288411,"DIS_CODE":0,"TOWNNAME":"仁德區","LI":"仁德里","LIN":"10鄰","STREET":"中正路","SECT":"二段","MAREA":" ","LANE":"１２０５巷","ALLEY":" ","HOUSE_NO":"１０號五樓之２","E_COORD97":173176.09,"N_COORD97":2541215.9100000001,"ADDRESS":"中正路二段１２０５巷１０號五樓之２","OBJECTID":288405},"geometry":{"x":173176.09000000171,"y":2541215.910000002}},{"attributes":{"ID":288412,"DIS_CODE":0,"TOWNNAME":"仁德區","LI":"仁德里","LIN":"10鄰","STREET":"中正路","SECT":"二段","MAREA":" ","LANE":"１２０５巷","ALLEY":" ","HOUSE_NO":"４號一樓之１","E_COORD97":173226.78,"N_COORD97":2541243.8100000001,"ADDRESS":"中正路二段１２０５巷４號一樓之１","OBJECTID":288406},"geometry":{"x":173226.78000000119,"y":2541243.8100000024}},{"attributes":{"ID":288413,"DIS_CODE":0,"TOWNNAME":"仁德區","LI":"仁德里","LIN":"10鄰","STREET":"中正路","SECT":"二段","MAREA":" ","LANE":"１２０５巷","ALLEY":" ","HOUSE_NO":"２號六樓之１","E_COORD97":173228.62,"N_COORD97":2541207.5499999998,"ADDRESS":"中正路二段１２０５巷２號六樓之１","OBJECTID":288407},"geometry":{"x":173228.62000000197,"y":2541207.5500000045}},{"attributes":{"ID":288414,"DIS_CODE":0,"TOWNNAME":"仁德區","LI":"仁德里","LIN":"10鄰","STREET":"中正路","SECT":"二段","MAREA":" ","LANE":"１２０５巷","ALLEY":" ","HOUSE_NO":"６號五樓之１","E_COORD97":173212.66,"N_COORD97":2541258.5600000001,"ADDRESS":"中正路二段１２０５巷６號五樓之１","OBJECTID":288408},"geometry":{"x":173212.66000000015,"y":2541258.5600000024}},{"attributes":{"ID":288415,"DIS_CODE":0,"TOWNNAME":"永康區","LI":"二王里","LIN":"2鄰","STREET":"永二街","SECT":" ","MAREA":" ","LANE":"２８８巷","ALLEY":" ","HOUSE_NO":"１５號","E_COORD97":173104.42000000001,"N_COORD97":2546552.1699999999,"ADDRESS":"永二街２８８巷１５號","OBJECTID":288409},"geometry":{"x":173104.42000000179,"y":2546552.1700000037}},{"attributes":{"ID":288416,"DIS_CODE":0,"TOWNNAME":"永康區","LI":"五王里","LIN":"2鄰","STREET":"中華路","SECT":" ","MAREA":" ","LANE":" ","ALLEY":" ","HOUSE_NO":"３９６號","E_COORD97":171417.29999999999,"N_COORD97":2545562.1400000001,"ADDRESS":"中華路３９６號","OBJECTID":288410},"geometry":{"x":171417.30000000075,"y":2545562.1400000006}},{"attributes":{"ID":288417,"DIS_CODE":0,"TOWNNAME":"永康區","LI":"五王里","LIN":"2鄰","STREET":"成功路","SECT":" ","MAREA":" ","LANE":" ","ALLEY":" ","HOUSE_NO":"８７號","E_COORD97":171458.20000000001,"N_COORD97":2545552.0099999998,"ADDRESS":"成功路８７號","OBJECTID":288411},"geometry":{"x":171458.20000000019,"y":2545552.0099999998}},{"attributes":{"ID":288418,"DIS_CODE":0,"TOWNNAME":"永康區","LI":"中興里","LIN":"2鄰","STREET":"中山東路","SECT":" ","MAREA":" ","LANE":" ","ALLEY":" ","HOUSE_NO":"４４１號","E_COORD97":171978.57000000001,"N_COORD97":2544999.5,"ADDRESS":"中山東路４４１號","OBJECTID":288412},"geometry":{"x":171978.57000000123,"y":2544999.5}},{"attributes":{"ID":288419,"DIS_CODE":0,"TOWNNAME":"中西區","LI":"民生里","LIN":"9鄰","STREET":"南華街","SECT":" ","MAREA":" ","LANE":" ","ALLEY":" ","HOUSE_NO":"２６號","E_COORD97":167097.35000000001,"N_COORD97":2543355.1400000001,"ADDRESS":"南華街２６號","OBJECTID":288413},"geometry":{"x":167097.35000000056,"y":2543355.1400000006}},{"attributes":{"ID":288420,"DIS_CODE":0,"TOWNNAME":"善化區","LI":"光文里","LIN":"25鄰","STREET":"中山路","SECT":" ","MAREA":" ","LANE":" ","ALLEY":" ","HOUSE_NO":"２３２號","E_COORD97":178115.67000000001,"N_COORD97":2559120.25,"ADDRESS":"中山路２３２號","OBJECTID":288414},"geometry":{"x":178115.67000000086,"y":2559120.2500000019}},{"attributes":{"ID":288421,"DIS_CODE":0,"TOWNNAME":"善化區","LI":"坐駕里","LIN":"13鄰","STREET":"自強路","SECT":" ","MAREA":" ","LANE":" ","ALLEY":" ","HOUSE_NO":"８５號","E_COORD97":178107.01999999999,"N_COORD97":2558719,"ADDRESS":"自強路８５號","OBJECTID":288415},"geometry":{"x":178107.01999999955,"y":2558719.0000000019}},{"attributes":{"ID":288422,"DIS_CODE":0,"TOWNNAME":"善化區","LI":"坐駕里","LIN":"4鄰","STREET":"光明路","SECT":" ","MAREA":" ","LANE":" ","ALLEY":" ","HOUSE_NO":"６０號","E_COORD97":177768.16,"N_COORD97":2558963,"ADDRESS":"光明路６０號","OBJECTID":288416},"geometry":{"x":177768.16000000201,"y":2558963.0000000019}},{"attributes":{"ID":288423,"DIS_CODE":0,"TOWNNAME":"善化區","LI":"文昌里","LIN":" ","STREET":"大信路","SECT":" ","MAREA":" ","LANE":" ","ALLEY":" ","HOUSE_NO":"６９之１號","E_COORD97":177617.31,"N_COORD97":2558782.7599999998,"ADDRESS":"大信路６９之１號","OBJECTID":288417},"geometry":{"x":177617.31000000145,"y":2558782.7599999998}},{"attributes":{"ID":288424,"DIS_CODE":0,"TOWNNAME":"善化區","LI":"坐駕里","LIN":" ","STREET":"成功路","SECT":" ","MAREA":" ","LANE":" ","ALLEY":" ","HOUSE_NO":"３７９號","E_COORD97":179361.67999999999,"N_COORD97":2558658.5,"ADDRESS":"成功路３７９號","OBJECTID":288418},"geometry":{"x":179361.68000000063,"y":2558658.5000000019}},{"attributes":{"ID":288425,"DIS_CODE":0,"TOWNNAME":"善化區","LI":"文正里","LIN":"13鄰","STREET":"中山路","SECT":" ","MAREA":" ","LANE":" ","ALLEY":" ","HOUSE_NO":"５６０之１２號","E_COORD97":176782.72,"N_COORD97":2559260.02,"ADDRESS":"中山路５６０之１２號","OBJECTID":288419},"geometry":{"x":176782.72000000067,"y":2559260.0200000033}},{"attributes":{"ID":288426,"DIS_CODE":0,"TOWNNAME":"永康區","LI":"六合里","LIN":"2鄰","STREET":"中山南路","SECT":" ","MAREA":" ","LANE":" ","ALLEY":" ","HOUSE_NO":"３２之２號","E_COORD97":170835.841269,"N_COORD97":2545849.6135,"ADDRESS":"中山南路３２之２號","OBJECTID":288420},"geometry":{"x":170835.84126900043,"y":2545849.6134990025}},{"attributes":{"ID":288427,"DIS_CODE":0,"TOWNNAME":"永康區","LI":"六合里","LIN":"2鄰","STREET":"中山南路","SECT":" ","MAREA":" ","LANE":" ","ALLEY":" ","HOUSE_NO":"３２之３號","E_COORD97":170840.07950399999,"N_COORD97":2545852.4709999999,"ADDRESS":"中山南路３２之３號","OBJECTID":288421},"geometry":{"x":170840.07950400002,"y":2545852.4709970001}},{"attributes":{"ID":288428,"DIS_CODE":0,"TOWNNAME":"永康區","LI":"六合里","LIN":"2鄰","STREET":"中山南路","SECT":" ","MAREA":" ","LANE":" ","ALLEY":" ","HOUSE_NO":"３２之５號","E_COORD97":170844.115793,"N_COORD97":2545856.0593699999,"ADDRESS":"中山南路３２之５號","OBJECTID":288422},"geometry":{"x":170844.11579300091,"y":2545856.0593740027}},{"attributes":{"ID":288429,"DIS_CODE":0,"TOWNNAME":"永康區","LI":"六合里","LIN":"2鄰","STREET":"中山南路","SECT":" ","MAREA":" ","LANE":" ","ALLEY":" ","HOUSE_NO":"３２之６號","E_COORD97":170847.930204,"N_COORD97":2545859.5518700001,"ADDRESS":"中山南路３２之６號","OBJECTID":288423},"geometry":{"x":170847.93020400032,"y":2545859.5518720001}},{"attributes":{"ID":288430,"DIS_CODE":0,"TOWNNAME":"仁德區","LI":"仁德里","LIN":"10鄰","STREET":"中正路","SECT":"二段","MAREA":" ","LANE":"１２０５巷","ALLEY":" ","HOUSE_NO":"６號一樓之１","E_COORD97":173212.66,"N_COORD97":2541258.5600000001,"ADDRESS":"中正路二段１２０５巷６號一樓之１","OBJECTID":288424},"geometry":{"x":173212.66000000015,"y":2541258.5600000024}},{"attributes":{"ID":288431,"DIS_CODE":0,"TOWNNAME":"東區","LI":"自強里","LIN":"10鄰","STREET":"東門路","SECT":"三段","MAREA":" ","LANE":"１１巷","ALLEY":" ","HOUSE_NO":"９號三樓","E_COORD97":171086.53,"N_COORD97":2542427.23,"ADDRESS":"東門路三段１１巷９號三樓","OBJECTID":288425},"geometry":{"x":171086.53000000026,"y":2542427.2300000023}},{"attributes":{"ID":288432,"DIS_CODE":0,"TOWNNAME":"東區","LI":"自強里","LIN":"10鄰","STREET":"東門路","SECT":"三段","MAREA":" ","LANE":"１１巷","ALLEY":" ","HOUSE_NO":"９號五樓","E_COORD97":171086.53,"N_COORD97":2542427.23,"ADDRESS":"東門路三段１１巷９號五樓","OBJECTID":288426},"geometry":{"x":171086.53000000026,"y":2542427.2300000023}},{"attributes":{"ID":288433,"DIS_CODE":0,"TOWNNAME":"東區","LI":"自強里","LIN":"10鄰","STREET":"東門路","SECT":"三段","MAREA":" ","LANE":"１１巷","ALLEY":" ","HOUSE_NO":"９號六樓","E_COORD97":171086.53,"N_COORD97":2542427.23,"ADDRESS":"東門路三段１１巷９號六樓","OBJECTID":288427},"geometry":{"x":171086.53000000026,"y":2542427.2300000023}},{"attributes":{"ID":288434,"DIS_CODE":0,"TOWNNAME":"中西區","LI":"藥王里","LIN":"2鄰","STREET":"大福街","SECT":" ","MAREA":" ","LANE":" ","ALLEY":" ","HOUSE_NO":"４１號","E_COORD97":167330.10000000001,"N_COORD97":2544419.0699999998,"ADDRESS":"大福街４１號","OBJECTID":288428},"geometry":{"x":167330.09999999963,"y":2544419.0700000003}},{"attributes":{"ID":288435,"DIS_CODE":0,"TOWNNAME":"中西區","LI":"藥王里","LIN":"2鄰","STREET":"大福街","SECT":" ","MAREA":" ","LANE":" ","ALLEY":" ","HOUSE_NO":"４３號","E_COORD97":167330.57999999999,"N_COORD97":2544423.6600000001,"ADDRESS":"大福街４３號","OBJECTID":288429},"geometry":{"x":167330.58000000007,"y":2544423.660000002}},{"attributes":{"ID":288436,"DIS_CODE":0,"TOWNNAME":"中西區","LI":"藥王里","LIN":"2鄰","STREET":"大福街","SECT":" ","MAREA":" ","LANE":" ","ALLEY":" ","HOUSE_NO":"４５號","E_COORD97":167331.79000000001,"N_COORD97":2544430.1899999999,"ADDRESS":"大福街４５號","OBJECTID":288430},"geometry":{"x":167331.79000000097,"y":2544430.1900000013}},{"attributes":{"ID":288437,"DIS_CODE":0,"TOWNNAME":"中西區","LI":"藥王里","LIN":"2鄰","STREET":"大福街","SECT":" ","MAREA":" ","LANE":"３９巷","ALLEY":" ","HOUSE_NO":"８號","E_COORD97":167300.09,"N_COORD97":2544437.21,"ADDRESS":"大福街３９巷８號","OBJECTID":288431},"geometry":{"x":167300.08999999985,"y":2544437.209999999}},{"attributes":{"ID":288438,"DIS_CODE":0,"TOWNNAME":"永康區","LI":"崑山里","LIN":"2鄰","STREET":"大灣路","SECT":" ","MAREA":" ","LANE":"８７９巷","ALLEY":" ","HOUSE_NO":"１１號","E_COORD97":173675.06,"N_COORD97":2544379.6099999999,"ADDRESS":"大灣路８７９巷１１號","OBJECTID":288432},"geometry":{"x":173675.06000000052,"y":2544379.6100000013}},{"attributes":{"ID":288439,"DIS_CODE":0,"TOWNNAME":"中西區","LI":"藥王里","LIN":"2鄰","STREET":"大福街","SECT":" ","MAREA":" ","LANE":" ","ALLEY":" ","HOUSE_NO":"４７號","E_COORD97":167336.88,"N_COORD97":2544439.1400000001,"ADDRESS":"大福街４７號","OBJECTID":288433},"geometry":{"x":167336.87999999989,"y":2544439.1400000025}},{"attributes":{"ID":288440,"DIS_CODE":0,"TOWNNAME":"永康區","LI":"崑山里","LIN":"2鄰","STREET":"大灣路","SECT":" ","MAREA":" ","LANE":" ","ALLEY":" ","HOUSE_NO":"８６９號","E_COORD97":173661.64999999999,"N_COORD97":2544406.1699999999,"ADDRESS":"大灣路８６９號","OBJECTID":288434},"geometry":{"x":173661.6500000013,"y":2544406.1700000037}},{"attributes":{"ID":288441,"DIS_CODE":0,"TOWNNAME":"永康區","LI":"三民里","LIN":"2鄰","STREET":"三民街","SECT":" ","MAREA":" ","LANE":" ","ALLEY":" ","HOUSE_NO":"１１１號","E_COORD97":172730.51999999999,"N_COORD97":2550373.0800000001,"ADDRESS":"三民街１１１號","OBJECTID":288435},"geometry":{"x":172730.52000000048,"y":2550373.0800000001}},{"attributes":{"ID":288442,"DIS_CODE":0,"TOWNNAME":"永康區","LI":"埔園里","LIN":"2鄰","STREET":"中山路","SECT":" ","MAREA":" ","LANE":" ","ALLEY":" ","HOUSE_NO":"１０６號","E_COORD97":173806.78,"N_COORD97":2547682.71,"ADDRESS":"中山路１０６號","OBJECTID":288436},"geometry":{"x":173806.78000000026,"y":2547682.7100000028}},{"attributes":{"ID":288443,"DIS_CODE":0,"TOWNNAME":"永康區","LI":"埔園里","LIN":"2鄰","STREET":"中山路","SECT":" ","MAREA":" ","LANE":" ","ALLEY":" ","HOUSE_NO":"１０８號","E_COORD97":173804.85999999999,"N_COORD97":2547686.8999999999,"ADDRESS":"中山路１０８號","OBJECTID":288437},"geometry":{"x":173804.86000000034,"y":2547686.9000000041}},{"attributes":{"ID":288444,"DIS_CODE":0,"TOWNNAME":"永康區","LI":"尚頂里","LIN":"2鄰","STREET":"中正二街","SECT":" ","MAREA":" ","LANE":"１６９巷","ALLEY":" ","HOUSE_NO":"２６號","E_COORD97":171386.75,"N_COORD97":2547825.3700000001,"ADDRESS":"中正二街１６９巷２６號","OBJECTID":288438},"geometry":{"x":171386.75000000186,"y":2547825.370000001}},{"attributes":{"ID":288445,"DIS_CODE":0,"TOWNNAME":"東區","LI":"自強里","LIN":"10鄰","STREET":"東門路","SECT":"三段","MAREA":" ","LANE":"１１巷","ALLEY":" ","HOUSE_NO":"９號四樓","E_COORD97":171086.53,"N_COORD97":2542427.23,"ADDRESS":"東門路三段１１巷９號四樓","OBJECTID":288439},"geometry":{"x":171086.53000000026,"y":2542427.2300000023}},{"attributes":{"ID":288446,"DIS_CODE":0,"TOWNNAME":"永康區","LI":"安康里","LIN":"10鄰","STREET":"中華路","SECT":" ","MAREA":" ","LANE":"６１９巷","ALLEY":" ","HOUSE_NO":"５３號三樓之２","E_COORD97":170894.20000000001,"N_COORD97":2545979.79,"ADDRESS":"中華路６１９巷５３號三樓之２","OBJECTID":288440},"geometry":{"x":170894.20000000112,"y":2545979.7899999991}},{"attributes":{"ID":288447,"DIS_CODE":0,"TOWNNAME":"中西區","LI":"大涼里","LIN":"10鄰","STREET":"府前路","SECT":"二段","MAREA":" ","LANE":"２５８巷","ALLEY":" ","HOUSE_NO":"３１號二樓之１","E_COORD97":167026.88,"N_COORD97":2543756.5600000001,"ADDRESS":"府前路二段２５８巷３１號二樓之１","OBJECTID":288441},"geometry":{"x":167026.87999999989,"y":2543756.5600000042}},{"attributes":{"ID":288448,"DIS_CODE":0,"TOWNNAME":"中西區","LI":"大涼里","LIN":"10鄰","STREET":"府前路","SECT":"二段","MAREA":" ","LANE":"２５８巷","ALLEY":" ","HOUSE_NO":"３１號二樓之１０","E_COORD97":167026.88,"N_COORD97":2543756.5600000001,"ADDRESS":"府前路二段２５８巷３１號二樓之１０","OBJECTID":288442},"geometry":{"x":167026.87999999989,"y":2543756.5600000042}},{"attributes":{"ID":288449,"DIS_CODE":0,"TOWNNAME":"中西區","LI":"大涼里","LIN":"10鄰","STREET":"府前路","SECT":"二段","MAREA":" ","LANE":"２５８巷","ALLEY":" ","HOUSE_NO":"３１號二樓之１１","E_COORD97":167026.88,"N_COORD97":2543756.5600000001,"ADDRESS":"府前路二段２５８巷３１號二樓之１１","OBJECTID":288443},"geometry":{"x":167026.87999999989,"y":2543756.5600000042}},{"attributes":{"ID":288450,"DIS_CODE":0,"TOWNNAME":"安平區","LI":"國平里","LIN":"10鄰","STREET":"建平一街","SECT":" ","MAREA":" ","LANE":"２３８巷","ALLEY":" ","HOUSE_NO":"２５號四樓之１","E_COORD97":165397.14000000001,"N_COORD97":2542888.4100000001,"ADDRESS":"建平一街２３８巷２５號四樓之１","OBJECTID":288444},"geometry":{"x":165397.13999999966,"y":2542888.4100000001}},{"attributes":{"ID":288451,"DIS_CODE":0,"TOWNNAME":"安南區","LI":"海東里","LIN":"24鄰","STREET":"同安路","SECT":" ","MAREA":" ","LANE":"２２５巷","ALLEY":" ","HOUSE_NO":"１３號","E_COORD97":167135.07000000001,"N_COORD97":2549210.7799999998,"ADDRESS":"同安路２２５巷１３號","OBJECTID":288445},"geometry":{"x":167135.07000000216,"y":2549210.7799999993}},{"attributes":{"ID":288452,"DIS_CODE":0,"TOWNNAME":"安平區","LI":"國平里","LIN":"10鄰","STREET":"建平一街","SECT":" ","MAREA":" ","LANE":"２３８巷","ALLEY":" ","HOUSE_NO":"２５號二樓之１","E_COORD97":165397.14000000001,"N_COORD97":2542888.4100000001,"ADDRESS":"建平一街２３８巷２５號二樓之１","OBJECTID":288446},"geometry":{"x":165397.13999999966,"y":2542888.4100000001}},{"attributes":{"ID":288453,"DIS_CODE":0,"TOWNNAME":"安平區","LI":"國平里","LIN":"10鄰","STREET":"建平一街","SECT":" ","MAREA":" ","LANE":"２３８巷","ALLEY":" ","HOUSE_NO":"２５號二樓之２","E_COORD97":165397.14000000001,"N_COORD97":2542888.4100000001,"ADDRESS":"建平一街２３８巷２５號二樓之２","OBJECTID":288447},"geometry":{"x":165397.13999999966,"y":2542888.4100000001}},{"attributes":{"ID":288454,"DIS_CODE":0,"TOWNNAME":"安南區","LI":"頂安里","LIN":"17鄰","STREET":"北安路","SECT":"三段","MAREA":" ","LANE":"１２６巷","ALLEY":" ","HOUSE_NO":"７號之１","E_COORD97":168395.66,"N_COORD97":2549099.5,"ADDRESS":"北安路三段１２６巷７號之１","OBJECTID":288448},"geometry":{"x":168395.66000000108,"y":2549099.4999999981}},{"attributes":{"ID":288455,"DIS_CODE":0,"TOWNNAME":"安平區","LI":"國平里","LIN":"10鄰","STREET":"建平一街","SECT":" ","MAREA":" ","LANE":"２３８巷","ALLEY":" ","HOUSE_NO":"２５號三樓之１","E_COORD97":165397.14000000001,"N_COORD97":2542888.4100000001,"ADDRESS":"建平一街２３８巷２５號三樓之１","OBJECTID":288449},"geometry":{"x":165397.13999999966,"y":2542888.4100000001}},{"attributes":{"ID":288456,"DIS_CODE":0,"TOWNNAME":"安平區","LI":"國平里","LIN":"10鄰","STREET":"建平一街","SECT":" ","MAREA":" ","LANE":"２３８巷","ALLEY":" ","HOUSE_NO":"２５號三樓之２","E_COORD97":165397.14000000001,"N_COORD97":2542888.4100000001,"ADDRESS":"建平一街２３８巷２５號三樓之２","OBJECTID":288450},"geometry":{"x":165397.13999999966,"y":2542888.4100000001}},{"attributes":{"ID":288457,"DIS_CODE":0,"TOWNNAME":"安平區","LI":"國平里","LIN":"10鄰","STREET":"建平一街","SECT":" ","MAREA":" ","LANE":"２３８巷","ALLEY":" ","HOUSE_NO":"２５號三樓之３","E_COORD97":165397.14000000001,"N_COORD97":2542888.4100000001,"ADDRESS":"建平一街２３８巷２５號三樓之３","OBJECTID":288451},"geometry":{"x":165397.13999999966,"y":2542888.4100000001}},{"attributes":{"ID":288458,"DIS_CODE":0,"TOWNNAME":"安平區","LI":"國平里","LIN":"10鄰","STREET":"建平一街","SECT":" ","MAREA":" ","LANE":"２３８巷","ALLEY":" ","HOUSE_NO":"２５號五樓之１","E_COORD97":165397.14000000001,"N_COORD97":2542888.4100000001,"ADDRESS":"建平一街２３８巷２５號五樓之１","OBJECTID":288452},"geometry":{"x":165397.13999999966,"y":2542888.4100000001}},{"attributes":{"ID":288459,"DIS_CODE":0,"TOWNNAME":"安平區","LI":"國平里","LIN":"10鄰","STREET":"建平一街","SECT":" ","MAREA":" ","LANE":"２３８巷","ALLEY":" ","HOUSE_NO":"２５號五樓之２","E_COORD97":165397.14000000001,"N_COORD97":2542888.4100000001,"ADDRESS":"建平一街２３８巷２５號五樓之２","OBJECTID":288453},"geometry":{"x":165397.13999999966,"y":2542888.4100000001}},{"attributes":{"ID":288460,"DIS_CODE":0,"TOWNNAME":"白河區","LI":"永安里","LIN":"2鄰","STREET":"中正路","SECT":" ","MAREA":" ","LANE":"２７巷","ALLEY":" ","HOUSE_NO":"１號","E_COORD97":190141.89000000001,"N_COORD97":2583112.52,"ADDRESS":"中正路２７巷１號","OBJECTID":288454},"geometry":{"x":190141.88999999966,"y":2583112.5200000014}},{"attributes":{"ID":288461,"DIS_CODE":0,"TOWNNAME":"學甲區","LI":"仁得里","LIN":"1鄰","STREET":"公園街","SECT":" ","MAREA":" ","LANE":" ","ALLEY":" ","HOUSE_NO":"７６號之６","E_COORD97":166316.70999999999,"N_COORD97":2569946.2000000002,"ADDRESS":"公園街７６號之６","OBJECTID":288455},"geometry":{"x":166316.71000000183,"y":2569946.2000000011}},{"attributes":{"ID":288462,"DIS_CODE":0,"TOWNNAME":"學甲區","LI":"仁得里","LIN":"1鄰","STREET":"四維街","SECT":" ","MAREA":" ","LANE":" ","ALLEY":" ","HOUSE_NO":"５２號","E_COORD97":166135.94,"N_COORD97":2569780.1499999999,"ADDRESS":"四維街５２號","OBJECTID":288456},"geometry":{"x":166135.94000000227,"y":2569780.1499999985}},{"attributes":{"ID":288463,"DIS_CODE":0,"TOWNNAME":"白河區","LI":"永安里","LIN":"2鄰","STREET":"中正路","SECT":" ","MAREA":" ","LANE":" ","ALLEY":" ","HOUSE_NO":"４１號","E_COORD97":190108.45999999999,"N_COORD97":2583119.8999999999,"ADDRESS":"中正路４１號","OBJECTID":288457},"geometry":{"x":190108.45999999996,"y":2583119.9000000041}},{"attributes":{"ID":288464,"DIS_CODE":0,"TOWNNAME":"白河區","LI":"永安里","LIN":"2鄰","STREET":"中正路","SECT":" ","MAREA":" ","LANE":" ","ALLEY":" ","HOUSE_NO":"４３號","E_COORD97":190102.17000000001,"N_COORD97":2583122.1099999999,"ADDRESS":"中正路４３號","OBJECTID":288458},"geometry":{"x":190102.17000000179,"y":2583122.1100000013}},{"attributes":{"ID":288465,"DIS_CODE":0,"TOWNNAME":"安南區","LI":"海西里","LIN":"2鄰","STREET":"海環街","SECT":" ","MAREA":" ","LANE":" ","ALLEY":" ","HOUSE_NO":"４１６號","E_COORD97":166183.67999999999,"N_COORD97":2549041.8100000001,"ADDRESS":"海環街４１６號","OBJECTID":288459},"geometry":{"x":166183.6799999997,"y":2549041.8100000024}},{"attributes":{"ID":288466,"DIS_CODE":0,"TOWNNAME":"安平區","LI":"國平里","LIN":"10鄰","STREET":"建平一街","SECT":" ","MAREA":" ","LANE":"２３８巷","ALLEY":" ","HOUSE_NO":"２５號六樓之１","E_COORD97":165397.14000000001,"N_COORD97":2542888.4100000001,"ADDRESS":"建平一街２３８巷２５號六樓之１","OBJECTID":288460},"geometry":{"x":165397.13999999966,"y":2542888.4100000001}},{"attributes":{"ID":288467,"DIS_CODE":0,"TOWNNAME":"善化區","LI":"坐駕里","LIN":"13鄰","STREET":"自強路","SECT":" ","MAREA":" ","LANE":" ","ALLEY":" ","HOUSE_NO":"７５號","E_COORD97":178129.54999999999,"N_COORD97":2558722.25,"ADDRESS":"自強路７５號","OBJECTID":288461},"geometry":{"x":178129.54999999888,"y":2558722.25}},{"attributes":{"ID":288468,"DIS_CODE":0,"TOWNNAME":"安平區","LI":"國平里","LIN":"10鄰","STREET":"建平一街","SECT":" ","MAREA":" ","LANE":"２３８巷","ALLEY":" ","HOUSE_NO":"２５號四樓之２","E_COORD97":165397.14000000001,"N_COORD97":2542888.4100000001,"ADDRESS":"建平一街２３８巷２５號四樓之２","OBJECTID":288462},"geometry":{"x":165397.13999999966,"y":2542888.4100000001}},{"attributes":{"ID":288469,"DIS_CODE":0,"TOWNNAME":"安平區","LI":"國平里","LIN":"10鄰","STREET":"建平一街","SECT":" ","MAREA":" ","LANE":"２３８巷","ALLEY":" ","HOUSE_NO":"２５號四樓之３","E_COORD97":165397.14000000001,"N_COORD97":2542888.4100000001,"ADDRESS":"建平一街２３８巷２５號四樓之３","OBJECTID":288463},"geometry":{"x":165397.13999999966,"y":2542888.4100000001}},{"attributes":{"ID":288470,"DIS_CODE":0,"TOWNNAME":"善化區","LI":"西關里","LIN":"13鄰","STREET":"中山路","SECT":" ","MAREA":" ","LANE":" ","ALLEY":" ","HOUSE_NO":"５９９號之１３","E_COORD97":176708.03,"N_COORD97":2559181.52,"ADDRESS":"中山路５９９號之１３","OBJECTID":288464},"geometry":{"x":176708.03000000212,"y":2559181.5199999996}},{"attributes":{"ID":288471,"DIS_CODE":0,"TOWNNAME":"安南區","LI":"梅花里","LIN":"20鄰","STREET":"安中路","SECT":"一段","MAREA":" ","LANE":"７５７巷","ALLEY":" ","HOUSE_NO":"１１號","E_COORD97":167418.09,"N_COORD97":2549284.6600000001,"ADDRESS":"安中路一段７５７巷１１號","OBJECTID":288465},"geometry":{"x":167418.09000000078,"y":2549284.6600000001}},{"attributes":{"ID":288472,"DIS_CODE":0,"TOWNNAME":"安南區","LI":"頂安里","LIN":"17鄰","STREET":"北安路","SECT":"三段","MAREA":" ","LANE":"１２６巷","ALLEY":" ","HOUSE_NO":"７號之２","E_COORD97":168394.45999999999,"N_COORD97":2549087.23,"ADDRESS":"北安路三段１２６巷７號之２","OBJECTID":288466},"geometry":{"x":168394.45999999996,"y":2549087.2300000004}},{"attributes":{"ID":288473,"DIS_CODE":0,"TOWNNAME":"安南區","LI":"頂安里","LIN":"17鄰","STREET":"北安路","SECT":"三段","MAREA":" ","LANE":"１２６巷","ALLEY":" ","HOUSE_NO":"７號之３","E_COORD97":168394.16,"N_COORD97":2549082.8900000001,"ADDRESS":"北安路三段１２６巷７號之３","OBJECTID":288467},"geometry":{"x":168394.16000000108,"y":2549082.8900000006}},{"attributes":{"ID":288474,"DIS_CODE":0,"TOWNNAME":"安南區","LI":"安順里","LIN":"16鄰","STREET":"總安街","SECT":"一段","MAREA":" ","LANE":"１１０巷","ALLEY":" ","HOUSE_NO":"１０４號","E_COORD97":169795.35000000001,"N_COORD97":2550410.6099999999,"ADDRESS":"總安街一段１１０巷１０４號","OBJECTID":288468},"geometry":{"x":169795.34999999963,"y":2550410.6100000031}},{"attributes":{"ID":288475,"DIS_CODE":0,"TOWNNAME":"北區","LI":"五福里","LIN":"10鄰","STREET":"西門路","SECT":"三段","MAREA":" ","LANE":"２４巷","ALLEY":" ","HOUSE_NO":"１１號二樓之１","E_COORD97":168207.13,"N_COORD97":2544534.02,"ADDRESS":"西門路三段２４巷１１號二樓之１","OBJECTID":288469},"geometry":{"x":168207.12999999896,"y":2544534.0199999996}},{"attributes":{"ID":288476,"DIS_CODE":0,"TOWNNAME":"北區","LI":"五福里","LIN":"10鄰","STREET":"西門路","SECT":"三段","MAREA":" ","LANE":"２４巷","ALLEY":" ","HOUSE_NO":"１１號二樓之２","E_COORD97":168207.13,"N_COORD97":2544534.02,"ADDRESS":"西門路三段２４巷１１號二樓之２","OBJECTID":288470},"geometry":{"x":168207.12999999896,"y":2544534.0199999996}},{"attributes":{"ID":288477,"DIS_CODE":0,"TOWNNAME":"北區","LI":"五福里","LIN":"10鄰","STREET":"西門路","SECT":"三段","MAREA":" ","LANE":"２４巷","ALLEY":" ","HOUSE_NO":"１１號三樓之１","E_COORD97":168207.13,"N_COORD97":2544534.02,"ADDRESS":"西門路三段２４巷１１號三樓之１","OBJECTID":288471},"geometry":{"x":168207.12999999896,"y":2544534.0199999996}},{"attributes":{"ID":288478,"DIS_CODE":0,"TOWNNAME":"安南區","LI":"海東里","LIN":"24鄰","STREET":"同安路","SECT":" ","MAREA":" ","LANE":"２２５巷","ALLEY":" ","HOUSE_NO":"３５號","E_COORD97":167110.01999999999,"N_COORD97":2549191.9100000001,"ADDRESS":"同安路２２５巷３５號","OBJECTID":288472},"geometry":{"x":167110.01999999955,"y":2549191.9100000039}},{"attributes":{"ID":288479,"DIS_CODE":0,"TOWNNAME":"善化區","LI":"北關里","LIN":" ","STREET":"進學路","SECT":" ","MAREA":" ","LANE":" ","ALLEY":" ","HOUSE_NO":"３９之１號","E_COORD97":177219.12,"N_COORD97":2559321.77,"ADDRESS":"進學路３９之１號","OBJECTID":288473},"geometry":{"x":177219.12000000197,"y":2559321.7699999996}},{"attributes":{"ID":288480,"DIS_CODE":0,"TOWNNAME":"善化區","LI":"文昌里","LIN":"18鄰","STREET":"中正路","SECT":" ","MAREA":" ","LANE":" ","ALLEY":" ","HOUSE_NO":"２６４號之１","E_COORD97":177713.51000000001,"N_COORD97":2558397.77,"ADDRESS":"中正路２６４號之１","OBJECTID":288474},"geometry":{"x":177713.51000000071,"y":2558397.7700000014}},{"attributes":{"ID":288481,"DIS_CODE":0,"TOWNNAME":"安南區","LI":"學東里","LIN":"16鄰","STREET":"城北路","SECT":" ","MAREA":" ","LANE":"７３６巷","ALLEY":" ","HOUSE_NO":"５９號","E_COORD97":161104.28,"N_COORD97":2553041.2999999998,"ADDRESS":"城北路７３６巷５９號","OBJECTID":288475},"geometry":{"x":161104.28000000119,"y":2553041.3000000045}},{"attributes":{"ID":288482,"DIS_CODE":0,"TOWNNAME":"北區","LI":"長榮里","LIN":"10鄰","STREET":"長榮路","SECT":"五段","MAREA":" ","LANE":"４１巷","ALLEY":" ","HOUSE_NO":"１號十一樓之２","E_COORD97":170081.28,"N_COORD97":2545470.6699999999,"ADDRESS":"長榮路五段４１巷１號十一樓之２","OBJECTID":288476},"geometry":{"x":170081.28000000026,"y":2545470.6700000037}},{"attributes":{"ID":288483,"DIS_CODE":0,"TOWNNAME":"北區","LI":"長榮里","LIN":"10鄰","STREET":"長榮路","SECT":"五段","MAREA":" ","LANE":"４１巷","ALLEY":" ","HOUSE_NO":"１號十一樓之３","E_COORD97":170081.28,"N_COORD97":2545470.6699999999,"ADDRESS":"長榮路五段４１巷１號十一樓之３","OBJECTID":288477},"geometry":{"x":170081.28000000026,"y":2545470.6700000037}},{"attributes":{"ID":288484,"DIS_CODE":0,"TOWNNAME":"北區","LI":"長榮里","LIN":"10鄰","STREET":"長榮路","SECT":"五段","MAREA":" ","LANE":"４１巷","ALLEY":" ","HOUSE_NO":"１號十一樓之５","E_COORD97":170081.28,"N_COORD97":2545470.6699999999,"ADDRESS":"長榮路五段４１巷１號十一樓之５","OBJECTID":288478},"geometry":{"x":170081.28000000026,"y":2545470.6700000037}},{"attributes":{"ID":288485,"DIS_CODE":0,"TOWNNAME":"善化區","LI":"光文里","LIN":"20鄰","STREET":"建國路","SECT":" ","MAREA":" ","LANE":" ","ALLEY":" ","HOUSE_NO":"１３６號","E_COORD97":177996.37,"N_COORD97":2558941.7799999998,"ADDRESS":"建國路１３６號","OBJECTID":288479},"geometry":{"x":177996.37000000104,"y":2558941.7799999993}},{"attributes":{"ID":288486,"DIS_CODE":0,"TOWNNAME":"善化區","LI":"光文里","LIN":"13鄰","STREET":"民權路","SECT":" ","MAREA":" ","LANE":" ","ALLEY":" ","HOUSE_NO":"１０４號","E_COORD97":178481.48999999999,"N_COORD97":2559058.2599999998,"ADDRESS":"民權路１０４號","OBJECTID":288480},"geometry":{"x":178481.49000000209,"y":2559058.2599999998}},{"attributes":{"ID":288487,"DIS_CODE":0,"TOWNNAME":"善化區","LI":"北關里","LIN":"8鄰","STREET":"進學路","SECT":" ","MAREA":" ","LANE":" ","ALLEY":" ","HOUSE_NO":"５２號","E_COORD97":177267.42999999999,"N_COORD97":2559287,"ADDRESS":"進學路５２號","OBJECTID":288481},"geometry":{"x":177267.43000000156,"y":2559287}},{"attributes":{"ID":288488,"DIS_CODE":0,"TOWNNAME":"善化區","LI":"西關里","LIN":"4鄰","STREET":"中山路","SECT":" ","MAREA":" ","LANE":" ","ALLEY":" ","HOUSE_NO":"４９３號","E_COORD97":177193.60999999999,"N_COORD97":2559127.5,"ADDRESS":"中山路４９３號","OBJECTID":288482},"geometry":{"x":177193.61000000034,"y":2559127.5}},{"attributes":{"ID":288489,"DIS_CODE":0,"TOWNNAME":"善化區","LI":"西關里","LIN":"13鄰","STREET":"南科北路","SECT":" ","MAREA":" ","LANE":" ","ALLEY":" ","HOUSE_NO":"１１６號（該建物係農","E_COORD97":175637.66,"N_COORD97":2558889.75,"ADDRESS":"南科北路１１６號（該建物係農業設施不得設籍）","OBJECTID":288483},"geometry":{"x":175637.66000000108,"y":2558889.7500000019}},{"attributes":{"ID":288490,"DIS_CODE":0,"TOWNNAME":"善化區","LI":"光文里","LIN":"25鄰","STREET":"和平路","SECT":" ","MAREA":" ","LANE":" ","ALLEY":" ","HOUSE_NO":"２００號","E_COORD97":178093.84,"N_COORD97":2559163.5,"ADDRESS":"和平路２００號","OBJECTID":288484},"geometry":{"x":178093.84000000171,"y":2559163.5000000019}},{"attributes":{"ID":288491,"DIS_CODE":0,"TOWNNAME":"後壁區","LI":"後壁里","LIN":"2鄰","STREET":" ","SECT":" ","MAREA":"後壁","LANE":" ","ALLEY":" ","HOUSE_NO":"３２號","E_COORD97":184674.57999999999,"N_COORD97":2584854.7200000002,"ADDRESS":"後壁３２號","OBJECTID":288485},"geometry":{"x":184674.58000000007,"y":2584854.7200000025}},{"attributes":{"ID":288492,"DIS_CODE":0,"TOWNNAME":"安南區","LI":"淵中里","LIN":"2鄰","STREET":"安中路","SECT":"三段","MAREA":" ","LANE":" ","ALLEY":" ","HOUSE_NO":"４２７號","E_COORD97":165329.19,"N_COORD97":2550053.3100000001,"ADDRESS":"安中路三段４２７號","OBJECTID":288486},"geometry":{"x":165329.19000000134,"y":2550053.3100000005}},{"attributes":{"ID":288493,"DIS_CODE":0,"TOWNNAME":"安南區","LI":"淵中里","LIN":"2鄰","STREET":"安中路","SECT":"三段","MAREA":" ","LANE":" ","ALLEY":" ","HOUSE_NO":"４３５號","E_COORD97":165317.07000000001,"N_COORD97":2550066.0099999998,"ADDRESS":"安中路三段４３５號","OBJECTID":288487},"geometry":{"x":165317.0700000003,"y":2550066.0100000016}},{"attributes":{"ID":288494,"DIS_CODE":0,"TOWNNAME":"北區","LI":"長榮里","LIN":"10鄰","STREET":"長榮路","SECT":"五段","MAREA":" ","LANE":"４１巷","ALLEY":" ","HOUSE_NO":"１號十二樓之１","E_COORD97":170081.28,"N_COORD97":2545470.6699999999,"ADDRESS":"長榮路五段４１巷１號十二樓之１","OBJECTID":288488},"geometry":{"x":170081.28000000026,"y":2545470.6700000037}},{"attributes":{"ID":288495,"DIS_CODE":0,"TOWNNAME":"北區","LI":"長榮里","LIN":"10鄰","STREET":"長榮路","SECT":"五段","MAREA":" ","LANE":"４１巷","ALLEY":" ","HOUSE_NO":"１號十二樓之２","E_COORD97":170081.28,"N_COORD97":2545470.6699999999,"ADDRESS":"長榮路五段４１巷１號十二樓之２","OBJECTID":288489},"geometry":{"x":170081.28000000026,"y":2545470.6700000037}},{"attributes":{"ID":288496,"DIS_CODE":0,"TOWNNAME":"北區","LI":"長榮里","LIN":"10鄰","STREET":"長榮路","SECT":"五段","MAREA":" ","LANE":"４１巷","ALLEY":" ","HOUSE_NO":"１號十二樓之３","E_COORD97":170081.28,"N_COORD97":2545470.6699999999,"ADDRESS":"長榮路五段４１巷１號十二樓之３","OBJECTID":288490},"geometry":{"x":170081.28000000026,"y":2545470.6700000037}},{"attributes":{"ID":288497,"DIS_CODE":0,"TOWNNAME":"安平區","LI":"平安里","LIN":"10鄰","STREET":"安平路","SECT":" ","MAREA":" ","LANE":"４４６巷","ALLEY":" ","HOUSE_NO":"１８號三樓之１","E_COORD97":165290.84,"N_COORD97":2544376.25,"ADDRESS":"安平路４４６巷１８號三樓之１","OBJECTID":288491},"geometry":{"x":165290.84000000078,"y":2544376.2500000019}},{"attributes":{"ID":288498,"DIS_CODE":0,"TOWNNAME":"安平區","LI":"平安里","LIN":"10鄰","STREET":"安平路","SECT":" ","MAREA":" ","LANE":"４４６巷","ALLEY":" ","HOUSE_NO":"１８號三樓之２","E_COORD97":165290.84,"N_COORD97":2544376.25,"ADDRESS":"安平路４４６巷１８號三樓之２","OBJECTID":288492},"geometry":{"x":165290.84000000078,"y":2544376.2500000019}},{"attributes":{"ID":288499,"DIS_CODE":0,"TOWNNAME":"安平區","LI":"平安里","LIN":"10鄰","STREET":"安平路","SECT":" ","MAREA":" ","LANE":"４４６巷","ALLEY":" ","HOUSE_NO":"１８號五樓之１","E_COORD97":165290.84,"N_COORD97":2544376.25,"ADDRESS":"安平路４４６巷１８號五樓之１","OBJECTID":288493},"geometry":{"x":165290.84000000078,"y":2544376.2500000019}},{"attributes":{"ID":288500,"DIS_CODE":0,"TOWNNAME":"安平區","LI":"平安里","LIN":"10鄰","STREET":"安平路","SECT":" ","MAREA":" ","LANE":"４４６巷","ALLEY":" ","HOUSE_NO":"１８號五樓之２","E_COORD97":165290.84,"N_COORD97":2544376.25,"ADDRESS":"安平路４４６巷１８號五樓之２","OBJECTID":288494},"geometry":{"x":165290.84000000078,"y":2544376.2500000019}},{"attributes":{"ID":288501,"DIS_CODE":0,"TOWNNAME":"安平區","LI":"平安里","LIN":"10鄰","STREET":"安平路","SECT":" ","MAREA":" ","LANE":"４４６巷","ALLEY":" ","HOUSE_NO":"１８號四樓之１","E_COORD97":165290.84,"N_COORD97":2544376.25,"ADDRESS":"安平路４４６巷１８號四樓之１","OBJECTID":288495},"geometry":{"x":165290.84000000078,"y":2544376.2500000019}},{"attributes":{"ID":288502,"DIS_CODE":0,"TOWNNAME":"永康區","LI":"正強里","LIN":"10鄰","STREET":"正義街","SECT":" ","MAREA":" ","LANE":"８９巷","ALLEY":" ","HOUSE_NO":"２號","E_COORD97":173444.06,"N_COORD97":2547551.0699999998,"ADDRESS":"正義街８９巷２號","OBJECTID":288496},"geometry":{"x":173444.06000000052,"y":2547551.0700000022}},{"attributes":{"ID":288503,"DIS_CODE":0,"TOWNNAME":"永康區","LI":"北灣里","LIN":"10鄰","STREET":"大灣路","SECT":" ","MAREA":" ","LANE":"１１２巷","ALLEY":" ","HOUSE_NO":"３號","E_COORD97":175155.89000000001,"N_COORD97":2545676.52,"ADDRESS":"大灣路１１２巷３號","OBJECTID":288497},"geometry":{"x":175155.8900000006,"y":2545676.5199999996}},{"attributes":{"ID":288504,"DIS_CODE":0,"TOWNNAME":"永康區","LI":"北灣里","LIN":"10鄰","STREET":"大灣路","SECT":" ","MAREA":" ","LANE":"１１２巷","ALLEY":" ","HOUSE_NO":"１８號","E_COORD97":175120.39999999999,"N_COORD97":2545713.0800000001,"ADDRESS":"大灣路１１２巷１８號","OBJECTID":288498},"geometry":{"x":175120.40000000037,"y":2545713.0800000019}},{"attributes":{"ID":288505,"DIS_CODE":0,"TOWNNAME":"永康區","LI":"正強里","LIN":"10鄰","STREET":"正義街","SECT":" ","MAREA":" ","LANE":"８９巷","ALLEY":" ","HOUSE_NO":"３０號","E_COORD97":173462.23999999999,"N_COORD97":2547476.4100000001,"ADDRESS":"正義街８９巷３０號","OBJECTID":288499},"geometry":{"x":173462.24000000115,"y":2547476.4100000039}},{"attributes":{"ID":288506,"DIS_CODE":0,"TOWNNAME":"安南區","LI":"總頭里","LIN":"10鄰","STREET":"長溪路","SECT":"二段","MAREA":" ","LANE":"５２３巷","ALLEY":" ","HOUSE_NO":"５０號","E_COORD97":168095.48000000001,"N_COORD97":2550565.7599999998,"ADDRESS":"長溪路二段５２３巷５０號","OBJECTID":288500},"geometry":{"x":168095.48000000138,"y":2550565.7600000035}},{"attributes":{"ID":288507,"DIS_CODE":0,"TOWNNAME":"中西區","LI":"民主里","LIN":"13鄰","STREET":"友愛街","SECT":" ","MAREA":" ","LANE":" ","ALLEY":" ","HOUSE_NO":"３１２號","E_COORD97":167381.04999999999,"N_COORD97":2543700.79,"ADDRESS":"友愛街３１２號","OBJECTID":288501},"geometry":{"x":167381.05000000075,"y":2543700.790000001}},{"attributes":{"ID":288508,"DIS_CODE":0,"TOWNNAME":"安南區","LI":"總頭里","LIN":"2鄰","STREET":"總安街","SECT":"二段","MAREA":" ","LANE":" ","ALLEY":" ","HOUSE_NO":"３２１號","E_COORD97":168403.79999999999,"N_COORD97":2550480.48,"ADDRESS":"總安街二段３２１號","OBJECTID":288502},"geometry":{"x":168403.79999999981,"y":2550480.4800000023}},{"attributes":{"ID":288509,"DIS_CODE":0,"TOWNNAME":"安南區","LI":"總頭里","LIN":"2鄰","STREET":"總安街","SECT":"二段","MAREA":" ","LANE":" ","ALLEY":" ","HOUSE_NO":"３１１號","E_COORD97":168427.37,"N_COORD97":2550474.9399999999,"ADDRESS":"總安街二段３１１號","OBJECTID":288503},"geometry":{"x":168427.37000000011,"y":2550474.9399999995}},{"attributes":{"ID":288510,"DIS_CODE":0,"TOWNNAME":"永康區","LI":"\u25A0洲里","LIN":"2鄰","STREET":"\u25A0行路","SECT":" ","MAREA":" ","LANE":" ","ALLEY":" ","HOUSE_NO":"２０號之１","E_COORD97":171715.88,"N_COORD97":2549162.1899999999,"ADDRESS":"\u25A0行路２０號之１","OBJECTID":288504},"geometry":{"x":171715.87999999989,"y":2549162.1900000032}},{"attributes":{"ID":288511,"DIS_CODE":0,"TOWNNAME":"安南區","LI":"原佃里","LIN":"10鄰","STREET":"本原街","SECT":"一段","MAREA":" ","LANE":"４４０巷","ALLEY":" ","HOUSE_NO":"１４號","E_COORD97":167442.87,"N_COORD97":2550518.1099999999,"ADDRESS":"本原街一段４４０巷１４號","OBJECTID":288505},"geometry":{"x":167442.86999999918,"y":2550518.1099999994}},{"attributes":{"ID":288512,"DIS_CODE":0,"TOWNNAME":"安南區","LI":"原佃里","LIN":"10鄰","STREET":"本原街","SECT":"一段","MAREA":" ","LANE":"４４０巷","ALLEY":" ","HOUSE_NO":"１６號","E_COORD97":167442.29000000001,"N_COORD97":2550522.1600000001,"ADDRESS":"本原街一段４４０巷１６號","OBJECTID":288506},"geometry":{"x":167442.29000000097,"y":2550522.1600000001}},{"attributes":{"ID":288513,"DIS_CODE":0,"TOWNNAME":"安南區","LI":"原佃里","LIN":"10鄰","STREET":"本原街","SECT":"一段","MAREA":" ","LANE":"４４０巷","ALLEY":" ","HOUSE_NO":"２０號","E_COORD97":167441.89999999999,"N_COORD97":2550530.25,"ADDRESS":"本原街一段４４０巷２０號","OBJECTID":288507},"geometry":{"x":167441.9000000013,"y":2550530.2500000019}},{"attributes":{"ID":288514,"DIS_CODE":0,"TOWNNAME":"安南區","LI":"原佃里","LIN":"10鄰","STREET":"本原街","SECT":"一段","MAREA":" ","LANE":"４４０巷","ALLEY":" ","HOUSE_NO":"２２號","E_COORD97":167439.39000000001,"N_COORD97":2550534.8799999999,"ADDRESS":"本原街一段４４０巷２２號","OBJECTID":288508},"geometry":{"x":167439.3900000006,"y":2550534.8800000008}},{"attributes":{"ID":288515,"DIS_CODE":0,"TOWNNAME":"永康區","LI":"\u25A0行里","LIN":"2鄰","STREET":"中正路","SECT":" ","MAREA":" ","LANE":" ","ALLEY":" ","HOUSE_NO":"９５０號","E_COORD97":171964.76999999999,"N_COORD97":2548940.4900000002,"ADDRESS":"中正路９５０號","OBJECTID":288509},"geometry":{"x":171964.77000000048,"y":2548940.4900000039}},{"attributes":{"ID":288516,"DIS_CODE":0,"TOWNNAME":"永康區","LI":"五王里","LIN":"2鄰","STREET":"中華路","SECT":" ","MAREA":" ","LANE":" ","ALLEY":" ","HOUSE_NO":"３５０號","E_COORD97":171475.63,"N_COORD97":2545459.2400000002,"ADDRESS":"中華路３５０號","OBJECTID":288510},"geometry":{"x":171475.63000000175,"y":2545459.2400000002}},{"attributes":{"ID":288517,"DIS_CODE":0,"TOWNNAME":"下營區","LI":"營前里","LIN":"10鄰","STREET":"健康路","SECT":" ","MAREA":" ","LANE":"７６巷","ALLEY":" ","HOUSE_NO":"２０號","E_COORD97":174722.91,"N_COORD97":2570102.04,"ADDRESS":"健康路７６巷２０號","OBJECTID":288511},"geometry":{"x":174722.91000000015,"y":2570102.0400000028}},{"attributes":{"ID":288518,"DIS_CODE":0,"TOWNNAME":"永康區","LI":"大橋里","LIN":"2鄰","STREET":"中華路","SECT":" ","MAREA":" ","LANE":" ","ALLEY":" ","HOUSE_NO":"８３８號","E_COORD97":170708.54000000001,"N_COORD97":2546552.25,"ADDRESS":"中華路８３８號","OBJECTID":288512},"geometry":{"x":170708.54000000097,"y":2546552.2500000019}},{"attributes":{"ID":288519,"DIS_CODE":0,"TOWNNAME":"下營區","LI":"營前里","LIN":"10鄰","STREET":"健康路","SECT":" ","MAREA":" ","LANE":"７６巷","ALLEY":" ","HOUSE_NO":"２２號","E_COORD97":174725.23999999999,"N_COORD97":2570097.3500000001,"ADDRESS":"健康路７６巷２２號","OBJECTID":288513},"geometry":{"x":174725.24000000115,"y":2570097.3500000015}},{"attributes":{"ID":288520,"DIS_CODE":0,"TOWNNAME":"下營區","LI":"營前里","LIN":"10鄰","STREET":"健康路","SECT":" ","MAREA":" ","LANE":"７６巷","ALLEY":" ","HOUSE_NO":"２６號","E_COORD97":174726.82000000001,"N_COORD97":2570093.4100000001,"ADDRESS":"健康路７６巷２６號","OBJECTID":288514},"geometry":{"x":174726.82000000123,"y":2570093.4099999983}},{"attributes":{"ID":288521,"DIS_CODE":0,"TOWNNAME":"善化區","LI":"西關里","LIN":"13鄰","STREET":"南科北路","SECT":" ","MAREA":" ","LANE":" ","ALLEY":" ","HOUSE_NO":"１５８號","E_COORD97":175634.22,"N_COORD97":2559009.75,"ADDRESS":"南科北路１５８號","OBJECTID":288515},"geometry":{"x":175634.21999999974,"y":2559009.75}},{"attributes":{"ID":288522,"DIS_CODE":0,"TOWNNAME":"善化區","LI":"坐駕里","LIN":"13鄰","STREET":"自強路","SECT":" ","MAREA":" ","LANE":" ","ALLEY":" ","HOUSE_NO":"２８號","E_COORD97":178222.51999999999,"N_COORD97":2558756.5,"ADDRESS":"自強路２８號","OBJECTID":288516},"geometry":{"x":178222.51999999955,"y":2558756.5000000019}},{"attributes":{"ID":288523,"DIS_CODE":0,"TOWNNAME":"後壁區","LI":"竹新里","LIN":"2鄰","STREET":" ","SECT":" ","MAREA":"竹圍後","LANE":" ","ALLEY":" ","HOUSE_NO":"２０號","E_COORD97":178598.75,"N_COORD97":2582555.4700000002,"ADDRESS":"竹圍後２０號","OBJECTID":288517},"geometry":{"x":178598.75000000093,"y":2582555.4700000007}},{"attributes":{"ID":288524,"DIS_CODE":0,"TOWNNAME":"後壁區","LI":"竹新里","LIN":"2鄰","STREET":" ","SECT":" ","MAREA":"竹圍後","LANE":" ","ALLEY":" ","HOUSE_NO":"２３號","E_COORD97":178587.92000000001,"N_COORD97":2582477.9700000002,"ADDRESS":"竹圍後２３號","OBJECTID":288518},"geometry":{"x":178587.91999999993,"y":2582477.9700000007}},{"attributes":{"ID":288525,"DIS_CODE":0,"TOWNNAME":"後壁區","LI":"頂長里","LIN":"2鄰","STREET":" ","SECT":" ","MAREA":"長短樹","LANE":" ","ALLEY":" ","HOUSE_NO":"１０號之１","E_COORD97":181539.89999999999,"N_COORD97":2585065.75,"ADDRESS":"長短樹１０號之１","OBJECTID":288519},"geometry":{"x":181539.90000000037,"y":2585065.75}},{"attributes":{"ID":288526,"DIS_CODE":0,"TOWNNAME":"後壁區","LI":"頂長里","LIN":"2鄰","STREET":" ","SECT":" ","MAREA":"長短樹","LANE":" ","ALLEY":" ","HOUSE_NO":"１０號","E_COORD97":181524.78,"N_COORD97":2585088.1299999999,"ADDRESS":"長短樹１０號","OBJECTID":288520},"geometry":{"x":181524.78000000119,"y":2585088.1300000008}},{"attributes":{"ID":288527,"DIS_CODE":0,"TOWNNAME":"後壁區","LI":"頂長里","LIN":"2鄰","STREET":" ","SECT":" ","MAREA":"長短樹","LANE":" ","ALLEY":" ","HOUSE_NO":"１１號之１","E_COORD97":181547.13,"N_COORD97":2584982.9100000001,"ADDRESS":"長短樹１１號之１","OBJECTID":288521},"geometry":{"x":181547.13000000082,"y":2584982.9100000001}},{"attributes":{"ID":288528,"DIS_CODE":0,"TOWNNAME":"下營區","LI":"營前里","LIN":"10鄰","STREET":"健康路","SECT":" ","MAREA":" ","LANE":"７６巷","ALLEY":" ","HOUSE_NO":"３０號","E_COORD97":174729.45000000001,"N_COORD97":2570084.3599999999,"ADDRESS":"健康路７６巷３０號","OBJECTID":288522},"geometry":{"x":174729.45000000019,"y":2570084.3600000013}},{"attributes":{"ID":288529,"DIS_CODE":0,"TOWNNAME":"後壁區","LI":"頂長里","LIN":"2鄰","STREET":" ","SECT":" ","MAREA":"長短樹","LANE":" ","ALLEY":" ","HOUSE_NO":"９號","E_COORD97":181510.72,"N_COORD97":2585121.4300000002,"ADDRESS":"長短樹９號","OBJECTID":288523},"geometry":{"x":181510.72000000067,"y":2585121.4299999997}},{"attributes":{"ID":288530,"DIS_CODE":0,"TOWNNAME":"永康區","LI":"蔦松里","LIN":"2鄰","STREET":"中正北路","SECT":" ","MAREA":" ","LANE":" ","ALLEY":" ","HOUSE_NO":"５３１號","E_COORD97":173907.04999999999,"N_COORD97":2549195.73,"ADDRESS":"中正北路５３１號","OBJECTID":288524},"geometry":{"x":173907.05000000075,"y":2549195.7300000004}},{"attributes":{"ID":288531,"DIS_CODE":0,"TOWNNAME":"永康區","LI":"崑山里","LIN":"2鄰","STREET":"大灣路","SECT":" ","MAREA":" ","LANE":" ","ALLEY":" ","HOUSE_NO":"８５３號","E_COORD97":173692.88,"N_COORD97":2544412.6699999999,"ADDRESS":"大灣路８５３號","OBJECTID":288525},"geometry":{"x":173692.88000000175,"y":2544412.6699999981}},{"attributes":{"ID":288532,"DIS_CODE":0,"TOWNNAME":"永康區","LI":"復國里","LIN":"10鄰","STREET":"復國一路","SECT":" ","MAREA":" ","LANE":"２５０巷","ALLEY":" ","HOUSE_NO":"１８號","E_COORD97":172784.81,"N_COORD97":2545333.0699999998,"ADDRESS":"復國一路２５０巷１８號","OBJECTID":288526},"geometry":{"x":172784.81000000052,"y":2545333.0700000022}},{"attributes":{"ID":288533,"DIS_CODE":0,"TOWNNAME":"後壁區","LI":"菁豊里","LIN":"2鄰","STREET":" ","SECT":" ","MAREA":"前菁寮","LANE":" ","ALLEY":" ","HOUSE_NO":"１０號之２","E_COORD97":183125.92000000001,"N_COORD97":2586265.23,"ADDRESS":"前菁寮１０號之２","OBJECTID":288527},"geometry":{"x":183125.91999999993,"y":2586265.2300000023}},{"attributes":{"ID":288534,"DIS_CODE":0,"TOWNNAME":"永康區","LI":"網寮里","LIN":"10鄰","STREET":"永勝街","SECT":" ","MAREA":" ","LANE":"１３９巷","ALLEY":" ","HOUSE_NO":"６號","E_COORD97":173340.14999999999,"N_COORD97":2546418.6800000002,"ADDRESS":"永勝街１３９巷６號","OBJECTID":288528},"geometry":{"x":173340.15000000037,"y":2546418.6799999997}},{"attributes":{"ID":288535,"DIS_CODE":0,"TOWNNAME":"永康區","LI":"復國里","LIN":"10鄰","STREET":"復國一路","SECT":" ","MAREA":" ","LANE":"２５０巷","ALLEY":" ","HOUSE_NO":"２９號","E_COORD97":172827.70999999999,"N_COORD97":2545349.1000000001,"ADDRESS":"復國一路２５０巷２９號","OBJECTID":288529},"geometry":{"x":172827.70999999903,"y":2545349.1000000015}},{"attributes":{"ID":288536,"DIS_CODE":0,"TOWNNAME":"安南區","LI":"佃東里","LIN":"10鄰","STREET":"公學路","SECT":"四段","MAREA":" ","LANE":"１２２巷","ALLEY":" ","HOUSE_NO":"９之７號","E_COORD97":165586.20999999999,"N_COORD97":2552074.9900000002,"ADDRESS":"公學路四段１２２巷９之７號","OBJECTID":288530},"geometry":{"x":165586.21000000089,"y":2552074.9900000021}},{"attributes":{"ID":288537,"DIS_CODE":0,"TOWNNAME":"安南區","LI":"佃東里","LIN":"10鄰","STREET":"公學路","SECT":"四段","MAREA":" ","LANE":"１２２巷","ALLEY":" ","HOUSE_NO":"９之５號","E_COORD97":165586.20999999999,"N_COORD97":2552071.8500000001,"ADDRESS":"公學路四段１２２巷９之５號","OBJECTID":288531},"geometry":{"x":165586.21000000089,"y":2552071.8500000015}},{"attributes":{"ID":288538,"DIS_CODE":0,"TOWNNAME":"安南區","LI":"佃東里","LIN":"10鄰","STREET":"公學路","SECT":"四段","MAREA":" ","LANE":"１２２巷","ALLEY":" ","HOUSE_NO":"９之３號","E_COORD97":165586.20999999999,"N_COORD97":2552068.71,"ADDRESS":"公學路四段１２２巷９之３號","OBJECTID":288532},"geometry":{"x":165586.21000000089,"y":2552068.7100000009}},{"attributes":{"ID":288539,"DIS_CODE":0,"TOWNNAME":"安南區","LI":"佃東里","LIN":"10鄰","STREET":"公學路","SECT":"四段","MAREA":" ","LANE":"１２２巷","ALLEY":" ","HOUSE_NO":"９之１號","E_COORD97":165586.35999999999,"N_COORD97":2552063.4900000002,"ADDRESS":"公學路四段１２２巷９之１號","OBJECTID":288533},"geometry":{"x":165586.36000000034,"y":2552063.4900000021}},{"attributes":{"ID":288540,"DIS_CODE":0,"TOWNNAME":"安南區","LI":"佃東里","LIN":"10鄰","STREET":"公學路","SECT":"四段","MAREA":" ","LANE":"１２２巷","ALLEY":" ","HOUSE_NO":"９號","E_COORD97":165586.35999999999,"N_COORD97":2552059.2999999998,"ADDRESS":"公學路四段１２２巷９號","OBJECTID":288534},"geometry":{"x":165586.36000000034,"y":2552059.3000000026}},{"attributes":{"ID":288541,"DIS_CODE":0,"TOWNNAME":"安南區","LI":"佃西里","LIN":"10鄰","STREET":"海佃路","SECT":"四段","MAREA":" ","LANE":"４２０巷","ALLEY":" ","HOUSE_NO":"２４號","E_COORD97":165531.63,"N_COORD97":2551601.0600000001,"ADDRESS":"海佃路四段４２０巷２４號","OBJECTID":288535},"geometry":{"x":165531.62999999989,"y":2551601.0600000005}},{"attributes":{"ID":288542,"DIS_CODE":0,"TOWNNAME":"後壁區","LI":"菁豊里","LIN":"2鄰","STREET":" ","SECT":" ","MAREA":"前菁寮","LANE":" ","ALLEY":" ","HOUSE_NO":"１０號之３","E_COORD97":183115.53,"N_COORD97":2586238.6200000001,"ADDRESS":"前菁寮１０號之３","OBJECTID":288536},"geometry":{"x":183115.53000000026,"y":2586238.6200000029}},{"attributes":{"ID":288543,"DIS_CODE":0,"TOWNNAME":"後壁區","LI":"菁豊里","LIN":"2鄰","STREET":" ","SECT":" ","MAREA":"前菁寮","LANE":" ","ALLEY":" ","HOUSE_NO":"１０號","E_COORD97":183146.41,"N_COORD97":2586245.1000000001,"ADDRESS":"前菁寮１０號","OBJECTID":288537},"geometry":{"x":183146.41000000015,"y":2586245.1000000015}},{"attributes":{"ID":288544,"DIS_CODE":0,"TOWNNAME":"安南區","LI":"州北里","LIN":"10鄰","STREET":"安和路","SECT":"五段","MAREA":" ","LANE":"１７１巷","ALLEY":" ","HOUSE_NO":"１０２號","E_COORD97":169626.85000000001,"N_COORD97":2551754.3999999999,"ADDRESS":"安和路五段１７１巷１０２號","OBJECTID":288538},"geometry":{"x":169626.85000000056,"y":2551754.4000000004}},{"attributes":{"ID":288545,"DIS_CODE":0,"TOWNNAME":"安南區","LI":"州北里","LIN":"10鄰","STREET":"安和路","SECT":"五段","MAREA":" ","LANE":"１７１巷","ALLEY":" ","HOUSE_NO":"１０４號","E_COORD97":169622.10999999999,"N_COORD97":2551752.5099999998,"ADDRESS":"安和路五段１７１巷１０４號","OBJECTID":288539},"geometry":{"x":169622.11000000127,"y":2551752.5099999998}},{"attributes":{"ID":288546,"DIS_CODE":0,"TOWNNAME":"後壁區","LI":"菁豊里","LIN":"2鄰","STREET":" ","SECT":" ","MAREA":"前菁寮","LANE":" ","ALLEY":" ","HOUSE_NO":"１１號之１","E_COORD97":183155.17000000001,"N_COORD97":2586291,"ADDRESS":"前菁寮１１號之１","OBJECTID":288540},"geometry":{"x":183155.17000000179,"y":2586291}},{"attributes":{"ID":288547,"DIS_CODE":0,"TOWNNAME":"後壁區","LI":"菁豊里","LIN":"2鄰","STREET":" ","SECT":" ","MAREA":"前菁寮","LANE":" ","ALLEY":" ","HOUSE_NO":"１２號之１","E_COORD97":183114.69,"N_COORD97":2586280.5299999998,"ADDRESS":"前菁寮１２號之１","OBJECTID":288541},"geometry":{"x":183114.69000000041,"y":2586280.5299999993}},{"attributes":{"ID":288548,"DIS_CODE":0,"TOWNNAME":"後壁區","LI":"菁豊里","LIN":"2鄰","STREET":" ","SECT":" ","MAREA":"前菁寮","LANE":" ","ALLEY":" ","HOUSE_NO":"１２號","E_COORD97":183122.01999999999,"N_COORD97":2586278.2599999998,"ADDRESS":"前菁寮１２號","OBJECTID":288542},"geometry":{"x":183122.02000000142,"y":2586278.2599999998}},{"attributes":{"ID":288549,"DIS_CODE":0,"TOWNNAME":"後壁區","LI":"菁豊里","LIN":"2鄰","STREET":" ","SECT":" ","MAREA":"前菁寮","LANE":" ","ALLEY":" ","HOUSE_NO":"１４號之１","E_COORD97":183072.54999999999,"N_COORD97":2586259.1800000002,"ADDRESS":"前菁寮１４號之１","OBJECTID":288543},"geometry":{"x":183072.54999999981,"y":2586259.1799999997}},{"attributes":{"ID":288550,"DIS_CODE":0,"TOWNNAME":"後壁區","LI":"頂安里","LIN":"2鄰","STREET":" ","SECT":" ","MAREA":"頂寮","LANE":" ","ALLEY":" ","HOUSE_NO":"２１號之１０","E_COORD97":184011.09,"N_COORD97":2581592.8500000001,"ADDRESS":"頂寮２１號之１０","OBJECTID":288544},"geometry":{"x":184011.08999999985,"y":2581592.8499999996}},{"attributes":{"ID":288551,"DIS_CODE":0,"TOWNNAME":"後壁區","LI":"頂安里","LIN":"2鄰","STREET":" ","SECT":" ","MAREA":"頂寮","LANE":" ","ALLEY":" ","HOUSE_NO":"２１號之２附１","E_COORD97":184052.88,"N_COORD97":2581628.29,"ADDRESS":"頂寮２１號之２附１","OBJECTID":288545},"geometry":{"x":184052.88000000082,"y":2581628.290000001}},{"attributes":{"ID":288552,"DIS_CODE":0,"TOWNNAME":"安南區","LI":"州北里","LIN":"10鄰","STREET":"安和路","SECT":"五段","MAREA":" ","LANE":"１７１巷","ALLEY":" ","HOUSE_NO":"１０６號","E_COORD97":169618.45000000001,"N_COORD97":2551750.75,"ADDRESS":"安和路五段１７１巷１０６號","OBJECTID":288546},"geometry":{"x":169618.45000000019,"y":2551750.7500000019}},{"attributes":{"ID":288553,"DIS_CODE":0,"TOWNNAME":"安南區","LI":"安東里","LIN":"10鄰","STREET":"安和路","SECT":"一段","MAREA":" ","LANE":"２２０巷","ALLEY":" ","HOUSE_NO":"３９號","E_COORD97":169424.82999999999,"N_COORD97":2547981.1200000001,"ADDRESS":"安和路一段２２０巷３９號","OBJECTID":288547},"geometry":{"x":169424.82999999914,"y":2547981.1200000048}},{"attributes":{"ID":288554,"DIS_CODE":0,"TOWNNAME":"安南區","LI":"安東里","LIN":"10鄰","STREET":"安和路","SECT":"一段","MAREA":" ","LANE":"２２０巷","ALLEY":" ","HOUSE_NO":"５１號","E_COORD97":169443.39000000001,"N_COORD97":2548000.7999999998,"ADDRESS":"安和路一段２２０巷５１號","OBJECTID":288548},"geometry":{"x":169443.3900000006,"y":2548000.8000000026}},{"attributes":{"ID":288555,"DIS_CODE":0,"TOWNNAME":"安南區","LI":"安東里","LIN":"10鄰","STREET":"安和路","SECT":"一段","MAREA":" ","LANE":"２２０巷","ALLEY":" ","HOUSE_NO":"５３號","E_COORD97":169449.39999999999,"N_COORD97":2548006.7999999998,"ADDRESS":"安和路一段２２０巷５３號","OBJECTID":288549},"geometry":{"x":169449.40000000037,"y":2548006.8000000045}},{"attributes":{"ID":288556,"DIS_CODE":0,"TOWNNAME":"安南區","LI":"安西里","LIN":"10鄰","STREET":"安和路","SECT":"一段","MAREA":" ","LANE":"３８１巷","ALLEY":" ","HOUSE_NO":"１２號","E_COORD97":169271.01000000001,"N_COORD97":2548319.1200000001,"ADDRESS":"安和路一段３８１巷１２號","OBJECTID":288550},"geometry":{"x":169271.01000000071,"y":2548319.120000001}},{"attributes":{"ID":288557,"DIS_CODE":0,"TOWNNAME":"安南區","LI":"安西里","LIN":"10鄰","STREET":"安和路","SECT":"一段","MAREA":" ","LANE":"３８１巷","ALLEY":" ","HOUSE_NO":"６號","E_COORD97":169291.06,"N_COORD97":2548319.7400000002,"ADDRESS":"安和路一段３８１巷６號","OBJECTID":288551},"geometry":{"x":169291.06000000052,"y":2548319.7400000021}},{"attributes":{"ID":288558,"DIS_CODE":0,"TOWNNAME":"後壁區","LI":"頂安里","LIN":"2鄰","STREET":" ","SECT":" ","MAREA":"頂寮","LANE":" ","ALLEY":" ","HOUSE_NO":"２１號之２","E_COORD97":184052.47,"N_COORD97":2581620.6099999999,"ADDRESS":"頂寮２１號之２","OBJECTID":288552},"geometry":{"x":184052.46999999974,"y":2581620.6099999994}},{"attributes":{"ID":288559,"DIS_CODE":0,"TOWNNAME":"後壁區","LI":"頂安里","LIN":"2鄰","STREET":" ","SECT":" ","MAREA":"頂寮","LANE":" ","ALLEY":" ","HOUSE_NO":"２１號之４","E_COORD97":184037.12,"N_COORD97":2581602.1000000001,"ADDRESS":"頂寮２１號之４","OBJECTID":288553},"geometry":{"x":184037.11999999918,"y":2581602.1000000034}},{"attributes":{"ID":288560,"DIS_CODE":0,"TOWNNAME":"後壁區","LI":"頂安里","LIN":"2鄰","STREET":" ","SECT":" ","MAREA":"頂寮","LANE":" ","ALLEY":" ","HOUSE_NO":"２１號之５","E_COORD97":184033.28,"N_COORD97":2581600.48,"ADDRESS":"頂寮２１號之５","OBJECTID":288554},"geometry":{"x":184033.28000000119,"y":2581600.4800000042}},{"attributes":{"ID":288561,"DIS_CODE":0,"TOWNNAME":"後壁區","LI":"頂安里","LIN":"2鄰","STREET":" ","SECT":" ","MAREA":"頂寮","LANE":" ","ALLEY":" ","HOUSE_NO":"２１號之６","E_COORD97":184028.51000000001,"N_COORD97":2581599.23,"ADDRESS":"頂寮２１號之６","OBJECTID":288555},"geometry":{"x":184028.50999999978,"y":2581599.2300000023}},{"attributes":{"ID":288562,"DIS_CODE":0,"TOWNNAME":"後壁區","LI":"頂安里","LIN":"2鄰","STREET":" ","SECT":" ","MAREA":"頂寮","LANE":" ","ALLEY":" ","HOUSE_NO":"２１號之７","E_COORD97":184024.53,"N_COORD97":2581597.52,"ADDRESS":"頂寮２１號之７","OBJECTID":288556},"geometry":{"x":184024.53000000212,"y":2581597.5199999996}},{"attributes":{"ID":288563,"DIS_CODE":0,"TOWNNAME":"後壁區","LI":"頂安里","LIN":"2鄰","STREET":" ","SECT":" ","MAREA":"頂寮","LANE":" ","ALLEY":" ","HOUSE_NO":"２１號之８","E_COORD97":184019.64999999999,"N_COORD97":2581595.8799999999,"ADDRESS":"頂寮２１號之８","OBJECTID":288557},"geometry":{"x":184019.65000000037,"y":2581595.8799999971}},{"attributes":{"ID":288564,"DIS_CODE":0,"TOWNNAME":"後壁區","LI":"頂安里","LIN":"2鄰","STREET":" ","SECT":" ","MAREA":"頂寮","LANE":" ","ALLEY":" ","HOUSE_NO":"２１號之９","E_COORD97":184015.06,"N_COORD97":2581594.5699999998,"ADDRESS":"頂寮２１號之９","OBJECTID":288558},"geometry":{"x":184015.06000000145,"y":2581594.5700000003}},{"attributes":{"ID":288565,"DIS_CODE":0,"TOWNNAME":"後壁區","LI":"頂安里","LIN":"2鄰","STREET":" ","SECT":" ","MAREA":"頂寮","LANE":" ","ALLEY":" ","HOUSE_NO":"２５號","E_COORD97":184022.57999999999,"N_COORD97":2581576.4100000001,"ADDRESS":"頂寮２５號","OBJECTID":288559},"geometry":{"x":184022.58000000101,"y":2581576.4100000001}},{"attributes":{"ID":288566,"DIS_CODE":0,"TOWNNAME":"後壁區","LI":"頂安里","LIN":"2鄰","STREET":" ","SECT":" ","MAREA":"頂寮","LANE":" ","ALLEY":" ","HOUSE_NO":"２２號之１","E_COORD97":184066.20999999999,"N_COORD97":2581581.2599999998,"ADDRESS":"頂寮２２號之１","OBJECTID":288560},"geometry":{"x":184066.20999999996,"y":2581581.2600000016}},{"attributes":{"ID":288567,"DIS_CODE":0,"TOWNNAME":"安南區","LI":"安東里","LIN":"10鄰","STREET":"安和路","SECT":"一段","MAREA":" ","LANE":"２２０巷","ALLEY":" ","HOUSE_NO":"３３號","E_COORD97":169414.14000000001,"N_COORD97":2547973.5699999998,"ADDRESS":"安和路一段２２０巷３３號","OBJECTID":288561},"geometry":{"x":169414.1400000006,"y":2547973.5700000003}},{"attributes":{"ID":288568,"DIS_CODE":0,"TOWNNAME":"安南區","LI":"安東里","LIN":"10鄰","STREET":"安和路","SECT":"一段","MAREA":" ","LANE":"２２０巷","ALLEY":" ","HOUSE_NO":"３５號","E_COORD97":169418.95999999999,"N_COORD97":2547976.9300000002,"ADDRESS":"安和路一段２２０巷３５號","OBJECTID":288562},"geometry":{"x":169418.96000000089,"y":2547976.9299999997}},{"attributes":{"ID":288569,"DIS_CODE":0,"TOWNNAME":"白河區","LI":"內角里","LIN":"2鄰","STREET":" ","SECT":" ","MAREA":"內角","LANE":" ","ALLEY":" ","HOUSE_NO":"２４之１號","E_COORD97":192649.19,"N_COORD97":2588519.21,"ADDRESS":"內角２４之１號","OBJECTID":288563},"geometry":{"x":192649.19000000134,"y":2588519.2100000046}},{"attributes":{"ID":288570,"DIS_CODE":0,"TOWNNAME":"白河區","LI":"內角里","LIN":"2鄰","STREET":" ","SECT":" ","MAREA":"內角","LANE":" ","ALLEY":" ","HOUSE_NO":"２４之２號","E_COORD97":192642.23000000001,"N_COORD97":2588527.9100000001,"ADDRESS":"內角２４之２號","OBJECTID":288564},"geometry":{"x":192642.23000000138,"y":2588527.910000002}},{"attributes":{"ID":288571,"DIS_CODE":0,"TOWNNAME":"白河區","LI":"內角里","LIN":"2鄰","STREET":" ","SECT":" ","MAREA":"內角","LANE":" ","ALLEY":" ","HOUSE_NO":"２５號","E_COORD97":192674.17000000001,"N_COORD97":2588472.1699999999,"ADDRESS":"內角２５號","OBJECTID":288565},"geometry":{"x":192674.17000000086,"y":2588472.1700000018}},{"attributes":{"ID":288572,"DIS_CODE":0,"TOWNNAME":"安南區","LI":"新順里","LIN":"10鄰","STREET":"安和路","SECT":"二段","MAREA":" ","LANE":"２０５巷","ALLEY":" ","HOUSE_NO":"１０號","E_COORD97":169579.87,"N_COORD97":2548992.1400000001,"ADDRESS":"安和路二段２０５巷１０號","OBJECTID":288566},"geometry":{"x":169579.87000000011,"y":2548992.1400000025}},{"attributes":{"ID":288573,"DIS_CODE":0,"TOWNNAME":"新營區","LI":"南興里","LIN":"10鄰","STREET":"和平路","SECT":" ","MAREA":" ","LANE":"１０４巷","ALLEY":" ","HOUSE_NO":"６號","E_COORD97":179382.13,"N_COORD97":2577565.6400000001,"ADDRESS":"和平路１０４巷６號","OBJECTID":288567},"geometry":{"x":179382.13000000082,"y":2577565.6400000025}},{"attributes":{"ID":288574,"DIS_CODE":0,"TOWNNAME":"新營區","LI":"新東里","LIN":"10鄰","STREET":"東仁街","SECT":" ","MAREA":" ","LANE":"２巷","ALLEY":" ","HOUSE_NO":"１５號","E_COORD97":181317.95000000001,"N_COORD97":2579446.8599999999,"ADDRESS":"東仁街２巷１５號","OBJECTID":288568},"geometry":{"x":181317.95000000112,"y":2579446.8599999994}},{"attributes":{"ID":288575,"DIS_CODE":0,"TOWNNAME":"新營區","LI":"新南里","LIN":"10鄰","STREET":"新北五街","SECT":" ","MAREA":" ","LANE":"１４３巷","ALLEY":" ","HOUSE_NO":"２０號","E_COORD97":178520.44,"N_COORD97":2579121.3199999998,"ADDRESS":"新北五街１４３巷２０號","OBJECTID":288569},"geometry":{"x":178520.44000000041,"y":2579121.3200000003}},{"attributes":{"ID":288576,"DIS_CODE":0,"TOWNNAME":"中西區","LI":"三合里","LIN":"9鄰","STREET":"民族路","SECT":"三段","MAREA":" ","LANE":" ","ALLEY":" ","HOUSE_NO":"１７８號","E_COORD97":167502.42999999999,"N_COORD97":2544424.3300000001,"ADDRESS":"民族路三段１７８號","OBJECTID":288570},"geometry":{"x":167502.4299999997,"y":2544424.3300000001}},{"attributes":{"ID":288577,"DIS_CODE":0,"TOWNNAME":"白河區","LI":"虎山里","LIN":"2鄰","STREET":" ","SECT":" ","MAREA":"木屐寮","LANE":" ","ALLEY":" ","HOUSE_NO":"１９之１號","E_COORD97":193931.22,"N_COORD97":2583160.3100000001,"ADDRESS":"木屐寮１９之１號","OBJECTID":288571},"geometry":{"x":193931.22000000067,"y":2583160.3100000005}},{"attributes":{"ID":288578,"DIS_CODE":0,"TOWNNAME":"永康區","LI":"東橋里","LIN":"14鄰","STREET":"東橋二街","SECT":" ","MAREA":" ","LANE":" ","ALLEY":" ","HOUSE_NO":"７０號","E_COORD97":171712.223543,"N_COORD97":2546446.6700900001,"ADDRESS":"東橋二街７０號","OBJECTID":288572},"geometry":{"x":171712.22354300134,"y":2546446.6700930018}},{"attributes":{"ID":288579,"DIS_CODE":0,"TOWNNAME":"新營區","LI":"王公里","LIN":"10鄰","STREET":"民族路","SECT":" ","MAREA":" ","LANE":"１０２巷","ALLEY":" ","HOUSE_NO":"２４號","E_COORD97":180368.79999999999,"N_COORD97":2579147.9500000002,"ADDRESS":"民族路１０２巷２４號","OBJECTID":288573},"geometry":{"x":180368.79999999981,"y":2579147.9499999974}},{"attributes":{"ID":288580,"DIS_CODE":0,"TOWNNAME":"白河區","LI":"虎山里","LIN":"2鄰","STREET":" ","SECT":" ","MAREA":"木屐寮","LANE":" ","ALLEY":" ","HOUSE_NO":"２０號","E_COORD97":193898.92000000001,"N_COORD97":2583157.1600000001,"ADDRESS":"木屐寮２０號","OBJECTID":288574},"geometry":{"x":193898.91999999993,"y":2583157.1600000001}},{"attributes":{"ID":288581,"DIS_CODE":0,"TOWNNAME":"仁德區","LI":"田厝里","LIN":"2鄰","STREET":"保安路","SECT":"二段","MAREA":" ","LANE":" ","ALLEY":" ","HOUSE_NO":"５８２號","E_COORD97":172665.78,"N_COORD97":2537571.5600000001,"ADDRESS":"保安路二段５８２號","OBJECTID":288575},"geometry":{"x":172665.78000000119,"y":2537571.5600000005}},{"attributes":{"ID":288582,"DIS_CODE":0,"TOWNNAME":"關廟區","LI":"龜洞里","LIN":"5鄰","STREET":"南橋街","SECT":" ","MAREA":" ","LANE":" ","ALLEY":" ","HOUSE_NO":"５２號","E_COORD97":182183.78249499999,"N_COORD97":2532676.3391800001,"ADDRESS":"南橋街５２號","OBJECTID":288576},"geometry":{"x":182183.7824950004,"y":2532676.3391810004}},{"attributes":{"ID":288583,"DIS_CODE":0,"TOWNNAME":"新營區","LI":"王公里","LIN":"10鄰","STREET":"民族路","SECT":" ","MAREA":" ","LANE":"１０６巷","ALLEY":" ","HOUSE_NO":"７號","E_COORD97":180404.47,"N_COORD97":2579177.6899999999,"ADDRESS":"民族路１０６巷７號","OBJECTID":288577},"geometry":{"x":180404.46999999974,"y":2579177.6900000013}},{"attributes":{"ID":288584,"DIS_CODE":0,"TOWNNAME":"新營區","LI":"新東里","LIN":"10鄰","STREET":"東仁街","SECT":" ","MAREA":" ","LANE":"１０巷","ALLEY":" ","HOUSE_NO":"１７號","E_COORD97":181313.54000000001,"N_COORD97":2579531.1499999999,"ADDRESS":"東仁街１０巷１７號","OBJECTID":288578},"geometry":{"x":181313.5400000019,"y":2579531.1500000041}},{"attributes":{"ID":288585,"DIS_CODE":0,"TOWNNAME":"新營區","LI":"南紙里","LIN":"10鄰","STREET":"南紙街","SECT":" ","MAREA":" ","LANE":"５４巷","ALLEY":" ","HOUSE_NO":"１號","E_COORD97":177787.89999999999,"N_COORD97":2577671.8900000001,"ADDRESS":"南紙街５４巷１號","OBJECTID":288579},"geometry":{"x":177787.9000000013,"y":2577671.8900000043}},{"attributes":{"ID":288586,"DIS_CODE":0,"TOWNNAME":"永康區","LI":"大灣里","LIN":"10鄰","STREET":"大灣路","SECT":" ","MAREA":" ","LANE":"２４０巷","ALLEY":" ","HOUSE_NO":"２３號","E_COORD97":174912.95999999999,"N_COORD97":2545400.75,"ADDRESS":"大灣路２４０巷２３號","OBJECTID":288580},"geometry":{"x":174912.96000000183,"y":2545400.75}},{"attributes":{"ID":288587,"DIS_CODE":0,"TOWNNAME":"仁德區","LI":"後壁里","LIN":"2鄰","STREET":"德安路","SECT":" ","MAREA":" ","LANE":" ","ALLEY":" ","HOUSE_NO":"３６號","E_COORD97":173382.59,"N_COORD97":2539208.0600000001,"ADDRESS":"德安路３６號","OBJECTID":288581},"geometry":{"x":173382.58999999985,"y":2539208.0600000024}},{"attributes":{"ID":288588,"DIS_CODE":0,"TOWNNAME":"仁德區","LI":"後壁里","LIN":"2鄰","STREET":"德安路","SECT":" ","MAREA":" ","LANE":" ","ALLEY":" ","HOUSE_NO":"２２號","E_COORD97":173362.57000000001,"N_COORD97":2539234.3100000001,"ADDRESS":"德安路２２號","OBJECTID":288582},"geometry":{"x":173362.5700000003,"y":2539234.3100000005}},{"attributes":{"ID":288589,"DIS_CODE":0,"TOWNNAME":"中西區","LI":"安海里","LIN":"4鄰","STREET":"金華路","SECT":"三段","MAREA":" ","LANE":" ","ALLEY":" ","HOUSE_NO":"２３０號之１","E_COORD97":167363.82000000001,"N_COORD97":2543958.4900000002,"ADDRESS":"金華路三段２３０號之１","OBJECTID":288583},"geometry":{"x":167363.82000000216,"y":2543958.4900000002}},{"attributes":{"ID":288590,"DIS_CODE":0,"TOWNNAME":"歸仁區","LI":"媽廟里","LIN":"2鄰","STREET":"媽廟一街","SECT":" ","MAREA":" ","LANE":" ","ALLEY":" ","HOUSE_NO":"１２號","E_COORD97":177482.82999999999,"N_COORD97":2543566.7200000002,"ADDRESS":"媽廟一街１２號","OBJECTID":288584},"geometry":{"x":177482.83000000101,"y":2543566.7200000025}},{"attributes":{"ID":288591,"DIS_CODE":0,"TOWNNAME":"仁德區","LI":"田厝里","LIN":"2鄰","STREET":"保安路","SECT":"二段","MAREA":" ","LANE":" ","ALLEY":" ","HOUSE_NO":"５９２號","E_COORD97":172689.62,"N_COORD97":2537571.8100000001,"ADDRESS":"保安路二段５９２號","OBJECTID":288585},"geometry":{"x":172689.62000000197,"y":2537571.8100000024}},{"attributes":{"ID":288592,"DIS_CODE":0,"TOWNNAME":"永康區","LI":"復國里","LIN":"10鄰","STREET":"復國二路","SECT":" ","MAREA":" ","LANE":"８７巷","ALLEY":" ","HOUSE_NO":"２５號","E_COORD97":172783.79000000001,"N_COORD97":2545372.1499999999,"ADDRESS":"復國二路８７巷２５號","OBJECTID":288586},"geometry":{"x":172783.79000000097,"y":2545372.1500000004}},{"attributes":{"ID":288593,"DIS_CODE":0,"TOWNNAME":"永康區","LI":"南灣里","LIN":"10鄰","STREET":"大灣東路","SECT":" ","MAREA":" ","LANE":"２２巷","ALLEY":" ","HOUSE_NO":"１１號","E_COORD97":174103.98999999999,"N_COORD97":2544215.7400000002,"ADDRESS":"大灣東路２２巷１１號","OBJECTID":288587},"geometry":{"x":174103.99000000022,"y":2544215.7400000002}},{"attributes":{"ID":288594,"DIS_CODE":0,"TOWNNAME":"仁德區","LI":"後壁里","LIN":"2鄰","STREET":"德安路","SECT":" ","MAREA":" ","LANE":" ","ALLEY":" ","HOUSE_NO":"４２號","E_COORD97":173392.54000000001,"N_COORD97":2539195.5699999998,"ADDRESS":"德安路４２號","OBJECTID":288588},"geometry":{"x":173392.54000000097,"y":2539195.5700000003}},{"attributes":{"ID":288595,"DIS_CODE":0,"TOWNNAME":"安平區","LI":"怡平里","LIN":"10鄰","STREET":"永華六街","SECT":" ","MAREA":" ","LANE":"２０６巷","ALLEY":" ","HOUSE_NO":"１０號","E_COORD97":165725.92000000001,"N_COORD97":2544114.6899999999,"ADDRESS":"永華六街２０６巷１０號","OBJECTID":288589},"geometry":{"x":165725.92000000086,"y":2544114.6900000013}},{"attributes":{"ID":288596,"DIS_CODE":0,"TOWNNAME":"六甲區","LI":"龍湖里","LIN":"10鄰","STREET":"中華路","SECT":" ","MAREA":" ","LANE":"２４８巷","ALLEY":" ","HOUSE_NO":"３２號","E_COORD97":182252.5,"N_COORD97":2569149.8199999998,"ADDRESS":"中華路２４８巷３２號","OBJECTID":288590},"geometry":{"x":182252.5,"y":2569149.8200000022}},{"attributes":{"ID":288597,"DIS_CODE":0,"TOWNNAME":"北區","LI":"國姓里","LIN":"10鄰","STREET":"西門路","SECT":"四段","MAREA":" ","LANE":"１１０巷","ALLEY":" ","HOUSE_NO":"２１號","E_COORD97":168818.57999999999,"N_COORD97":2545402.4199999999,"ADDRESS":"西門路四段１１０巷２１號","OBJECTID":288591},"geometry":{"x":168818.58000000101,"y":2545402.4200000018}},{"attributes":{"ID":288598,"DIS_CODE":0,"TOWNNAME":"北區","LI":"國姓里","LIN":"10鄰","STREET":"西門路","SECT":"四段","MAREA":" ","LANE":"１１０巷","ALLEY":" ","HOUSE_NO":"２２號","E_COORD97":168802.17000000001,"N_COORD97":2545376.27,"ADDRESS":"西門路四段１１０巷２２號","OBJECTID":288592},"geometry":{"x":168802.17000000086,"y":2545376.2700000014}},{"attributes":{"ID":288599,"DIS_CODE":0,"TOWNNAME":"善化區","LI":"光文里","LIN":"13鄰","STREET":"民權路","SECT":" ","MAREA":" ","LANE":" ","ALLEY":" ","HOUSE_NO":"１０２號","E_COORD97":178485.38,"N_COORD97":2559059.0099999998,"ADDRESS":"民權路１０２號","OBJECTID":288593},"geometry":{"x":178485.38000000082,"y":2559059.0099999998}},{"attributes":{"ID":288600,"DIS_CODE":0,"TOWNNAME":"北區","LI":"國姓里","LIN":"10鄰","STREET":"小北路","SECT":" ","MAREA":" ","LANE":"２７巷","ALLEY":" ","HOUSE_NO":"２０號","E_COORD97":168850.47,"N_COORD97":2545346.8500000001,"ADDRESS":"小北路２７巷２０號","OBJECTID":288594},"geometry":{"x":168850.46999999974,"y":2545346.8499999978}},{"attributes":{"ID":288601,"DIS_CODE":0,"TOWNNAME":"南區","LI":"郡南里","LIN":"10鄰","STREET":"永成路","SECT":"三段","MAREA":" ","LANE":"１２１巷","ALLEY":" ","HOUSE_NO":"１號","E_COORD97":167471.20999999999,"N_COORD97":2540686.3500000001,"ADDRESS":"永成路三段１２１巷１號","OBJECTID":288595},"geometry":{"x":167471.21000000089,"y":2540686.3500000015}},{"attributes":{"ID":288602,"DIS_CODE":0,"TOWNNAME":"善化區","LI":"文昌里","LIN":" ","STREET":"文昌路","SECT":" ","MAREA":" ","LANE":" ","ALLEY":" ","HOUSE_NO":"２６之１號","E_COORD97":177460.75,"N_COORD97":2558810.8599999999,"ADDRESS":"文昌路２６之１號","OBJECTID":288596},"geometry":{"x":177460.75000000093,"y":2558810.8600000013}},{"attributes":{"ID":288603,"DIS_CODE":0,"TOWNNAME":"玉井區","LI":"玉井里","LIN":"10鄰","STREET":"樹糖街","SECT":" ","MAREA":" ","LANE":"１６巷","ALLEY":" ","HOUSE_NO":"１號","E_COORD97":194680.53,"N_COORD97":2558164.2400000002,"ADDRESS":"樹糖街１６巷１號","OBJECTID":288597},"geometry":{"x":194680.53000000119,"y":2558164.2400000039}},{"attributes":{"ID":288604,"DIS_CODE":0,"TOWNNAME":"北區","LI":"正風里","LIN":"10鄰","STREET":"公園路","SECT":" ","MAREA":" ","LANE":"１０６２巷","ALLEY":" ","HOUSE_NO":"５號之１","E_COORD97":169654.39999999999,"N_COORD97":2546454.9500000002,"ADDRESS":"公園路１０６２巷５號之１","OBJECTID":288598},"geometry":{"x":169654.4000000013,"y":2546454.950000003}},{"attributes":{"ID":288605,"DIS_CODE":0,"TOWNNAME":"仁德區","LI":"成功里","LIN":"2鄰","STREET":"保生東路","SECT":" ","MAREA":" ","LANE":"１３８巷","ALLEY":" ","HOUSE_NO":"３１號","E_COORD97":171280.63,"N_COORD97":2539598.1899999999,"ADDRESS":"保生東路１３８巷３１號","OBJECTID":288599},"geometry":{"x":171280.63000000175,"y":2539598.1900000032}},{"attributes":{"ID":288606,"DIS_CODE":0,"TOWNNAME":"善化區","LI":"文昌里","LIN":"13鄰","STREET":"大信路","SECT":" ","MAREA":" ","LANE":" ","ALLEY":" ","HOUSE_NO":"４３號","E_COORD97":177557.10000000001,"N_COORD97":2558859.75,"ADDRESS":"大信路４３號","OBJECTID":288600},"geometry":{"x":177557.09999999963,"y":2558859.7500000019}}]}