{"displayFieldName":"TOWNNAME","fieldAliases":{"ID":"ID","DIS_CODE":"DIS_CODE","TOWNNAME":"TOWNNAME","LI":"LI","LIN":"LIN","STREET":"STREET","SECT":"SECT","MAREA":"MAREA","LANE":"LANE","ALLEY":"ALLEY","HOUSE_NO":"HOUSE_NO","E_COORD97":"E_COORD97","N_COORD97":"N_COORD97","ADDRESS":"ADDRESS","OBJECTID":"OBJECTID"},"geometryType":"esriGeometryPoint","spatialReference":{"wkid":102443,"latestWkid":3826},"fields":[{"name":"ID","type":"esriFieldTypeDouble","alias":"ID"},{"name":"DIS_CODE","type":"esriFieldTypeInteger","alias":"DIS_CODE"},{"name":"TOWNNAME","type":"esriFieldTypeString","alias":"TOWNNAME","length":8},{"name":"LI","type":"esriFieldTypeString","alias":"LI","length":8},{"name":"LIN","type":"esriFieldTypeString","alias":"LIN","length":12},{"name":"STREET","type":"esriFieldTypeString","alias":"STREET","length":20},{"name":"SECT","type":"esriFieldTypeString","alias":"SECT","length":8},{"name":"MAREA","type":"esriFieldTypeString","alias":"MAREA","length":12},{"name":"LANE","type":"esriFieldTypeString","alias":"LANE","length":10},{"name":"ALLEY","type":"esriFieldTypeString","alias":"ALLEY","length":10},{"name":"HOUSE_NO","type":"esriFieldTypeString","alias":"HOUSE_NO","length":20},{"name":"E_COORD97","type":"esriFieldTypeDouble","alias":"E_COORD97"},{"name":"N_COORD97","type":"esriFieldTypeDouble","alias":"N_COORD97"},{"name":"ADDRESS","type":"esriFieldTypeString","alias":"ADDRESS","length":50},{"name":"OBJECTID","type":"esriFieldTypeOID","alias":"OBJECTID"}],"features":[{"attributes":{"ID":443626,"DIS_CODE":0,"TOWNNAME":"東區","LI":"龍山里","LIN":"5鄰","STREET":"崇善路","SECT":" ","MAREA":" ","LANE":"２５巷","ALLEY":" ","HOUSE_NO":"１１６號二樓","E_COORD97":170285.76999999999,"N_COORD97":2542725.1000000001,"ADDRESS":"崇善路２５巷１１６號二樓","OBJECTID":443601},"geometry":{"x":170285.76999999955,"y":2542725.1000000015}},{"attributes":{"ID":443627,"DIS_CODE":0,"TOWNNAME":"東區","LI":"龍山里","LIN":"5鄰","STREET":"崇善路","SECT":" ","MAREA":" ","LANE":"２５巷","ALLEY":" ","HOUSE_NO":"１１６號三樓","E_COORD97":170285.76999999999,"N_COORD97":2542725.1000000001,"ADDRESS":"崇善路２５巷１１６號三樓","OBJECTID":443602},"geometry":{"x":170285.76999999955,"y":2542725.1000000015}},{"attributes":{"ID":443628,"DIS_CODE":0,"TOWNNAME":"東區","LI":"龍山里","LIN":"5鄰","STREET":"崇善路","SECT":" ","MAREA":" ","LANE":"２５巷","ALLEY":" ","HOUSE_NO":"１１６號四樓","E_COORD97":170285.76999999999,"N_COORD97":2542725.1000000001,"ADDRESS":"崇善路２５巷１１６號四樓","OBJECTID":443603},"geometry":{"x":170285.76999999955,"y":2542725.1000000015}},{"attributes":{"ID":443629,"DIS_CODE":0,"TOWNNAME":"東區","LI":"龍山里","LIN":"5鄰","STREET":"崇善路","SECT":" ","MAREA":" ","LANE":"２５巷","ALLEY":" ","HOUSE_NO":"１１６號五樓","E_COORD97":170285.76999999999,"N_COORD97":2542725.1000000001,"ADDRESS":"崇善路２５巷１１６號五樓","OBJECTID":443604},"geometry":{"x":170285.76999999955,"y":2542725.1000000015}},{"attributes":{"ID":443630,"DIS_CODE":0,"TOWNNAME":"東區","LI":"龍山里","LIN":"5鄰","STREET":"崇善路","SECT":" ","MAREA":" ","LANE":"２５巷","ALLEY":" ","HOUSE_NO":"１１６號六樓","E_COORD97":170285.76999999999,"N_COORD97":2542725.1000000001,"ADDRESS":"崇善路２５巷１１６號六樓","OBJECTID":443605},"geometry":{"x":170285.76999999955,"y":2542725.1000000015}},{"attributes":{"ID":443631,"DIS_CODE":0,"TOWNNAME":"東區","LI":"龍山里","LIN":"5鄰","STREET":"崇善路","SECT":" ","MAREA":" ","LANE":"２５巷","ALLEY":" ","HOUSE_NO":"１１６號七樓","E_COORD97":170285.76999999999,"N_COORD97":2542725.1000000001,"ADDRESS":"崇善路２５巷１１６號七樓","OBJECTID":443606},"geometry":{"x":170285.76999999955,"y":2542725.1000000015}},{"attributes":{"ID":443632,"DIS_CODE":0,"TOWNNAME":"東區","LI":"龍山里","LIN":"5鄰","STREET":"崇善路","SECT":" ","MAREA":" ","LANE":"２５巷","ALLEY":" ","HOUSE_NO":"１１６號八樓","E_COORD97":170285.76999999999,"N_COORD97":2542725.1000000001,"ADDRESS":"崇善路２５巷１１６號八樓","OBJECTID":443607},"geometry":{"x":170285.76999999955,"y":2542725.1000000015}},{"attributes":{"ID":443633,"DIS_CODE":0,"TOWNNAME":"東區","LI":"龍山里","LIN":"5鄰","STREET":"崇善路","SECT":" ","MAREA":" ","LANE":"２５巷","ALLEY":" ","HOUSE_NO":"１１６號九樓","E_COORD97":170285.76999999999,"N_COORD97":2542725.1000000001,"ADDRESS":"崇善路２５巷１１６號九樓","OBJECTID":443608},"geometry":{"x":170285.76999999955,"y":2542725.1000000015}},{"attributes":{"ID":443634,"DIS_CODE":0,"TOWNNAME":"東區","LI":"龍山里","LIN":"5鄰","STREET":"崇善路","SECT":" ","MAREA":" ","LANE":"２５巷","ALLEY":" ","HOUSE_NO":"１１６號十樓","E_COORD97":170285.76999999999,"N_COORD97":2542725.1000000001,"ADDRESS":"崇善路２５巷１１６號十樓","OBJECTID":443609},"geometry":{"x":170285.76999999955,"y":2542725.1000000015}},{"attributes":{"ID":443635,"DIS_CODE":0,"TOWNNAME":"東區","LI":"龍山里","LIN":"5鄰","STREET":"崇善路","SECT":" ","MAREA":" ","LANE":"２５巷","ALLEY":" ","HOUSE_NO":"１１６號十一樓","E_COORD97":170285.76999999999,"N_COORD97":2542725.1000000001,"ADDRESS":"崇善路２５巷１１６號十一樓","OBJECTID":443610},"geometry":{"x":170285.76999999955,"y":2542725.1000000015}},{"attributes":{"ID":443636,"DIS_CODE":0,"TOWNNAME":"東區","LI":"龍山里","LIN":"5鄰","STREET":"崇善路","SECT":" ","MAREA":" ","LANE":"２５巷","ALLEY":" ","HOUSE_NO":"１１６號十二樓","E_COORD97":170285.76999999999,"N_COORD97":2542725.1000000001,"ADDRESS":"崇善路２５巷１１６號十二樓","OBJECTID":443611},"geometry":{"x":170285.76999999955,"y":2542725.1000000015}},{"attributes":{"ID":443637,"DIS_CODE":0,"TOWNNAME":"東區","LI":"龍山里","LIN":"5鄰","STREET":"崇善路","SECT":" ","MAREA":" ","LANE":"２５巷","ALLEY":" ","HOUSE_NO":"１００號三樓","E_COORD97":170261.67999999999,"N_COORD97":2542709.4500000002,"ADDRESS":"崇善路２５巷１００號三樓","OBJECTID":443612},"geometry":{"x":170261.68000000063,"y":2542709.4500000011}},{"attributes":{"ID":443638,"DIS_CODE":0,"TOWNNAME":"東區","LI":"龍山里","LIN":"5鄰","STREET":"崇善路","SECT":" ","MAREA":" ","LANE":"２５巷","ALLEY":" ","HOUSE_NO":"１００號四樓","E_COORD97":170261.67999999999,"N_COORD97":2542709.4500000002,"ADDRESS":"崇善路２５巷１００號四樓","OBJECTID":443613},"geometry":{"x":170261.68000000063,"y":2542709.4500000011}},{"attributes":{"ID":443639,"DIS_CODE":0,"TOWNNAME":"東區","LI":"龍山里","LIN":"5鄰","STREET":"崇善路","SECT":" ","MAREA":" ","LANE":"２５巷","ALLEY":" ","HOUSE_NO":"１００號五樓","E_COORD97":170261.67999999999,"N_COORD97":2542709.4500000002,"ADDRESS":"崇善路２５巷１００號五樓","OBJECTID":443614},"geometry":{"x":170261.68000000063,"y":2542709.4500000011}},{"attributes":{"ID":443640,"DIS_CODE":0,"TOWNNAME":"東區","LI":"龍山里","LIN":"5鄰","STREET":"崇善路","SECT":" ","MAREA":" ","LANE":"２５巷","ALLEY":" ","HOUSE_NO":"１００號六樓","E_COORD97":170261.67999999999,"N_COORD97":2542709.4500000002,"ADDRESS":"崇善路２５巷１００號六樓","OBJECTID":443615},"geometry":{"x":170261.68000000063,"y":2542709.4500000011}},{"attributes":{"ID":443641,"DIS_CODE":0,"TOWNNAME":"東區","LI":"龍山里","LIN":"5鄰","STREET":"崇善路","SECT":" ","MAREA":" ","LANE":"２５巷","ALLEY":" ","HOUSE_NO":"１００號七樓","E_COORD97":170261.67999999999,"N_COORD97":2542709.4500000002,"ADDRESS":"崇善路２５巷１００號七樓","OBJECTID":443616},"geometry":{"x":170261.68000000063,"y":2542709.4500000011}},{"attributes":{"ID":443642,"DIS_CODE":0,"TOWNNAME":"東區","LI":"龍山里","LIN":"5鄰","STREET":"崇善路","SECT":" ","MAREA":" ","LANE":"２５巷","ALLEY":" ","HOUSE_NO":"１００號九樓","E_COORD97":170261.67999999999,"N_COORD97":2542709.4500000002,"ADDRESS":"崇善路２５巷１００號九樓","OBJECTID":443617},"geometry":{"x":170261.68000000063,"y":2542709.4500000011}},{"attributes":{"ID":443643,"DIS_CODE":0,"TOWNNAME":"東區","LI":"龍山里","LIN":"5鄰","STREET":"崇善路","SECT":" ","MAREA":" ","LANE":"２５巷","ALLEY":" ","HOUSE_NO":"１００號十樓","E_COORD97":170261.67999999999,"N_COORD97":2542709.4500000002,"ADDRESS":"崇善路２５巷１００號十樓","OBJECTID":443618},"geometry":{"x":170261.68000000063,"y":2542709.4500000011}},{"attributes":{"ID":443644,"DIS_CODE":0,"TOWNNAME":"東區","LI":"龍山里","LIN":"5鄰","STREET":"崇善路","SECT":" ","MAREA":" ","LANE":"２５巷","ALLEY":" ","HOUSE_NO":"１００號十一樓","E_COORD97":170261.67999999999,"N_COORD97":2542709.4500000002,"ADDRESS":"崇善路２５巷１００號十一樓","OBJECTID":443619},"geometry":{"x":170261.68000000063,"y":2542709.4500000011}},{"attributes":{"ID":443645,"DIS_CODE":0,"TOWNNAME":"東區","LI":"龍山里","LIN":"5鄰","STREET":"崇善路","SECT":" ","MAREA":" ","LANE":"２５巷","ALLEY":" ","HOUSE_NO":"１００號十二樓","E_COORD97":170261.67999999999,"N_COORD97":2542709.4500000002,"ADDRESS":"崇善路２５巷１００號十二樓","OBJECTID":443620},"geometry":{"x":170261.68000000063,"y":2542709.4500000011}},{"attributes":{"ID":443646,"DIS_CODE":0,"TOWNNAME":"東區","LI":"龍山里","LIN":"5鄰","STREET":"崇善路","SECT":" ","MAREA":" ","LANE":"２５巷","ALLEY":" ","HOUSE_NO":"１００號十三樓","E_COORD97":170261.67999999999,"N_COORD97":2542709.4500000002,"ADDRESS":"崇善路２５巷１００號十三樓","OBJECTID":443621},"geometry":{"x":170261.68000000063,"y":2542709.4500000011}},{"attributes":{"ID":443647,"DIS_CODE":0,"TOWNNAME":"東區","LI":"龍山里","LIN":"5鄰","STREET":"崇善路","SECT":" ","MAREA":" ","LANE":"２５巷","ALLEY":" ","HOUSE_NO":"１００號十四樓","E_COORD97":170261.67999999999,"N_COORD97":2542709.4500000002,"ADDRESS":"崇善路２５巷１００號十四樓","OBJECTID":443622},"geometry":{"x":170261.68000000063,"y":2542709.4500000011}},{"attributes":{"ID":443648,"DIS_CODE":0,"TOWNNAME":"東區","LI":"龍山里","LIN":"5鄰","STREET":"崇善路","SECT":" ","MAREA":" ","LANE":"２５巷","ALLEY":" ","HOUSE_NO":"１０６號二樓","E_COORD97":170272.63,"N_COORD97":2542721.3399999999,"ADDRESS":"崇善路２５巷１０６號二樓","OBJECTID":443623},"geometry":{"x":170272.63000000082,"y":2542721.3400000017}},{"attributes":{"ID":443649,"DIS_CODE":0,"TOWNNAME":"東區","LI":"龍山里","LIN":"5鄰","STREET":"崇善路","SECT":" ","MAREA":" ","LANE":"２５巷","ALLEY":" ","HOUSE_NO":"１０６號三樓","E_COORD97":170272.63,"N_COORD97":2542721.3399999999,"ADDRESS":"崇善路２５巷１０６號三樓","OBJECTID":443624},"geometry":{"x":170272.63000000082,"y":2542721.3400000017}},{"attributes":{"ID":443650,"DIS_CODE":0,"TOWNNAME":"永康區","LI":"\u25A0行里","LIN":"25鄰","STREET":"\u25A0和街","SECT":" ","MAREA":" ","LANE":"２４７巷","ALLEY":" ","HOUSE_NO":"１號","E_COORD97":171540.64999999999,"N_COORD97":2548369.9900000002,"ADDRESS":"\u25A0和街２４７巷１號","OBJECTID":443625},"geometry":{"x":171540.6500000013,"y":2548369.9900000002}},{"attributes":{"ID":443651,"DIS_CODE":0,"TOWNNAME":"東區","LI":"龍山里","LIN":"5鄰","STREET":"崇善路","SECT":" ","MAREA":" ","LANE":"２５巷","ALLEY":" ","HOUSE_NO":"１０６號四樓","E_COORD97":170272.63,"N_COORD97":2542721.3399999999,"ADDRESS":"崇善路２５巷１０６號四樓","OBJECTID":443626},"geometry":{"x":170272.63000000082,"y":2542721.3400000017}},{"attributes":{"ID":443652,"DIS_CODE":0,"TOWNNAME":"東區","LI":"龍山里","LIN":"5鄰","STREET":"崇善路","SECT":" ","MAREA":" ","LANE":"２５巷","ALLEY":" ","HOUSE_NO":"１０６號五樓","E_COORD97":170272.63,"N_COORD97":2542721.3399999999,"ADDRESS":"崇善路２５巷１０６號五樓","OBJECTID":443627},"geometry":{"x":170272.63000000082,"y":2542721.3400000017}},{"attributes":{"ID":443653,"DIS_CODE":0,"TOWNNAME":"東區","LI":"龍山里","LIN":"5鄰","STREET":"崇善路","SECT":" ","MAREA":" ","LANE":"２５巷","ALLEY":" ","HOUSE_NO":"１０６號六樓","E_COORD97":170272.63,"N_COORD97":2542721.3399999999,"ADDRESS":"崇善路２５巷１０６號六樓","OBJECTID":443628},"geometry":{"x":170272.63000000082,"y":2542721.3400000017}},{"attributes":{"ID":443654,"DIS_CODE":0,"TOWNNAME":"永康區","LI":"網寮里","LIN":"20鄰","STREET":"永二街","SECT":" ","MAREA":" ","LANE":"２４５巷","ALLEY":" ","HOUSE_NO":"２７號之５","E_COORD97":173350.98000000001,"N_COORD97":2546127.6200000001,"ADDRESS":"永二街２４５巷２７號之５","OBJECTID":443629},"geometry":{"x":173350.98000000138,"y":2546127.6200000029}},{"attributes":{"ID":443655,"DIS_CODE":0,"TOWNNAME":"永康區","LI":"神洲里","LIN":"7鄰","STREET":"忠孝路","SECT":" ","MAREA":" ","LANE":"５４巷","ALLEY":" ","HOUSE_NO":"１１號","E_COORD97":172140.88,"N_COORD97":2544766.25,"ADDRESS":"忠孝路５４巷１１號","OBJECTID":443630},"geometry":{"x":172140.88000000082,"y":2544766.2500000019}},{"attributes":{"ID":443656,"DIS_CODE":0,"TOWNNAME":"東區","LI":"龍山里","LIN":"5鄰","STREET":"崇善路","SECT":" ","MAREA":" ","LANE":"２５巷","ALLEY":" ","HOUSE_NO":"１０６號七樓","E_COORD97":170272.63,"N_COORD97":2542721.3399999999,"ADDRESS":"崇善路２５巷１０６號七樓","OBJECTID":443631},"geometry":{"x":170272.63000000082,"y":2542721.3400000017}},{"attributes":{"ID":443657,"DIS_CODE":0,"TOWNNAME":"東區","LI":"龍山里","LIN":"5鄰","STREET":"崇善路","SECT":" ","MAREA":" ","LANE":"２５巷","ALLEY":" ","HOUSE_NO":"１０６號八樓","E_COORD97":170272.63,"N_COORD97":2542721.3399999999,"ADDRESS":"崇善路２５巷１０６號八樓","OBJECTID":443632},"geometry":{"x":170272.63000000082,"y":2542721.3400000017}},{"attributes":{"ID":443658,"DIS_CODE":0,"TOWNNAME":"東區","LI":"龍山里","LIN":"5鄰","STREET":"崇善路","SECT":" ","MAREA":" ","LANE":"２５巷","ALLEY":" ","HOUSE_NO":"１０６號九樓","E_COORD97":170272.63,"N_COORD97":2542721.3399999999,"ADDRESS":"崇善路２５巷１０６號九樓","OBJECTID":443633},"geometry":{"x":170272.63000000082,"y":2542721.3400000017}},{"attributes":{"ID":443659,"DIS_CODE":0,"TOWNNAME":"東區","LI":"龍山里","LIN":"5鄰","STREET":"崇善路","SECT":" ","MAREA":" ","LANE":"２５巷","ALLEY":" ","HOUSE_NO":"１０６號十樓","E_COORD97":170272.63,"N_COORD97":2542721.3399999999,"ADDRESS":"崇善路２５巷１０６號十樓","OBJECTID":443634},"geometry":{"x":170272.63000000082,"y":2542721.3400000017}},{"attributes":{"ID":443660,"DIS_CODE":0,"TOWNNAME":"東區","LI":"龍山里","LIN":"5鄰","STREET":"崇善路","SECT":" ","MAREA":" ","LANE":"２５巷","ALLEY":" ","HOUSE_NO":"１０６號十一樓","E_COORD97":170272.63,"N_COORD97":2542721.3399999999,"ADDRESS":"崇善路２５巷１０６號十一樓","OBJECTID":443635},"geometry":{"x":170272.63000000082,"y":2542721.3400000017}},{"attributes":{"ID":443661,"DIS_CODE":0,"TOWNNAME":"東區","LI":"龍山里","LIN":"5鄰","STREET":"崇善路","SECT":" ","MAREA":" ","LANE":"２５巷","ALLEY":" ","HOUSE_NO":"１０６號十二樓","E_COORD97":170272.63,"N_COORD97":2542721.3399999999,"ADDRESS":"崇善路２５巷１０６號十二樓","OBJECTID":443636},"geometry":{"x":170272.63000000082,"y":2542721.3400000017}},{"attributes":{"ID":443662,"DIS_CODE":0,"TOWNNAME":"東區","LI":"龍山里","LIN":"5鄰","STREET":"崇善路","SECT":" ","MAREA":" ","LANE":"２５巷","ALLEY":" ","HOUSE_NO":"１０２號二樓","E_COORD97":170268.87,"N_COORD97":2542715.0800000001,"ADDRESS":"崇善路２５巷１０２號二樓","OBJECTID":443637},"geometry":{"x":170268.87000000197,"y":2542715.0800000038}},{"attributes":{"ID":443663,"DIS_CODE":0,"TOWNNAME":"東區","LI":"龍山里","LIN":"5鄰","STREET":"崇善路","SECT":" ","MAREA":" ","LANE":"２５巷","ALLEY":" ","HOUSE_NO":"１０２號三樓","E_COORD97":170268.87,"N_COORD97":2542715.0800000001,"ADDRESS":"崇善路２５巷１０２號三樓","OBJECTID":443638},"geometry":{"x":170268.87000000197,"y":2542715.0800000038}},{"attributes":{"ID":443664,"DIS_CODE":0,"TOWNNAME":"東區","LI":"龍山里","LIN":"5鄰","STREET":"崇善路","SECT":" ","MAREA":" ","LANE":"２５巷","ALLEY":" ","HOUSE_NO":"１０２號四樓","E_COORD97":170268.87,"N_COORD97":2542715.0800000001,"ADDRESS":"崇善路２５巷１０２號四樓","OBJECTID":443639},"geometry":{"x":170268.87000000197,"y":2542715.0800000038}},{"attributes":{"ID":443665,"DIS_CODE":0,"TOWNNAME":"東區","LI":"龍山里","LIN":"5鄰","STREET":"崇善路","SECT":" ","MAREA":" ","LANE":"２５巷","ALLEY":" ","HOUSE_NO":"１０２號五樓","E_COORD97":170268.87,"N_COORD97":2542715.0800000001,"ADDRESS":"崇善路２５巷１０２號五樓","OBJECTID":443640},"geometry":{"x":170268.87000000197,"y":2542715.0800000038}},{"attributes":{"ID":443666,"DIS_CODE":0,"TOWNNAME":"東區","LI":"龍山里","LIN":"5鄰","STREET":"崇善路","SECT":" ","MAREA":" ","LANE":"２５巷","ALLEY":" ","HOUSE_NO":"１０２號六樓","E_COORD97":170268.87,"N_COORD97":2542715.0800000001,"ADDRESS":"崇善路２５巷１０２號六樓","OBJECTID":443641},"geometry":{"x":170268.87000000197,"y":2542715.0800000038}},{"attributes":{"ID":443667,"DIS_CODE":0,"TOWNNAME":"東區","LI":"龍山里","LIN":"5鄰","STREET":"崇善路","SECT":" ","MAREA":" ","LANE":"２５巷","ALLEY":" ","HOUSE_NO":"１０２號七樓","E_COORD97":170268.87,"N_COORD97":2542715.0800000001,"ADDRESS":"崇善路２５巷１０２號七樓","OBJECTID":443642},"geometry":{"x":170268.87000000197,"y":2542715.0800000038}},{"attributes":{"ID":443668,"DIS_CODE":0,"TOWNNAME":"東區","LI":"龍山里","LIN":"5鄰","STREET":"崇善路","SECT":" ","MAREA":" ","LANE":"２５巷","ALLEY":" ","HOUSE_NO":"１０２號八樓","E_COORD97":170268.87,"N_COORD97":2542715.0800000001,"ADDRESS":"崇善路２５巷１０２號八樓","OBJECTID":443643},"geometry":{"x":170268.87000000197,"y":2542715.0800000038}},{"attributes":{"ID":443669,"DIS_CODE":0,"TOWNNAME":"東區","LI":"龍山里","LIN":"5鄰","STREET":"崇善路","SECT":" ","MAREA":" ","LANE":"２５巷","ALLEY":" ","HOUSE_NO":"１０２號九樓","E_COORD97":170268.87,"N_COORD97":2542715.0800000001,"ADDRESS":"崇善路２５巷１０２號九樓","OBJECTID":443644},"geometry":{"x":170268.87000000197,"y":2542715.0800000038}},{"attributes":{"ID":443670,"DIS_CODE":0,"TOWNNAME":"東區","LI":"龍山里","LIN":"5鄰","STREET":"崇善路","SECT":" ","MAREA":" ","LANE":"２５巷","ALLEY":" ","HOUSE_NO":"１０２號十樓","E_COORD97":170268.87,"N_COORD97":2542715.0800000001,"ADDRESS":"崇善路２５巷１０２號十樓","OBJECTID":443645},"geometry":{"x":170268.87000000197,"y":2542715.0800000038}},{"attributes":{"ID":443671,"DIS_CODE":0,"TOWNNAME":"東區","LI":"龍山里","LIN":"5鄰","STREET":"崇善路","SECT":" ","MAREA":" ","LANE":"２５巷","ALLEY":" ","HOUSE_NO":"１０２號十一樓","E_COORD97":170268.87,"N_COORD97":2542715.0800000001,"ADDRESS":"崇善路２５巷１０２號十一樓","OBJECTID":443646},"geometry":{"x":170268.87000000197,"y":2542715.0800000038}},{"attributes":{"ID":443672,"DIS_CODE":0,"TOWNNAME":"東區","LI":"龍山里","LIN":"5鄰","STREET":"崇善路","SECT":" ","MAREA":" ","LANE":"２５巷","ALLEY":" ","HOUSE_NO":"１０２號十二樓","E_COORD97":170268.87,"N_COORD97":2542715.0800000001,"ADDRESS":"崇善路２５巷１０２號十二樓","OBJECTID":443647},"geometry":{"x":170268.87000000197,"y":2542715.0800000038}},{"attributes":{"ID":443673,"DIS_CODE":0,"TOWNNAME":"東區","LI":"龍山里","LIN":"5鄰","STREET":"崇善路","SECT":" ","MAREA":" ","LANE":"２５巷","ALLEY":" ","HOUSE_NO":"１０８號二樓","E_COORD97":170281.39000000001,"N_COORD97":2542715.3999999999,"ADDRESS":"崇善路２５巷１０８號二樓","OBJECTID":443648},"geometry":{"x":170281.38999999966,"y":2542715.4000000004}},{"attributes":{"ID":443674,"DIS_CODE":0,"TOWNNAME":"東區","LI":"龍山里","LIN":"5鄰","STREET":"崇善路","SECT":" ","MAREA":" ","LANE":"２５巷","ALLEY":" ","HOUSE_NO":"１０８號三樓","E_COORD97":170281.39000000001,"N_COORD97":2542715.3999999999,"ADDRESS":"崇善路２５巷１０８號三樓","OBJECTID":443649},"geometry":{"x":170281.38999999966,"y":2542715.4000000004}},{"attributes":{"ID":443675,"DIS_CODE":0,"TOWNNAME":"東區","LI":"龍山里","LIN":"5鄰","STREET":"崇善路","SECT":" ","MAREA":" ","LANE":"２５巷","ALLEY":" ","HOUSE_NO":"１０８號六樓","E_COORD97":170281.39000000001,"N_COORD97":2542715.3999999999,"ADDRESS":"崇善路２５巷１０８號六樓","OBJECTID":443650},"geometry":{"x":170281.38999999966,"y":2542715.4000000004}},{"attributes":{"ID":443676,"DIS_CODE":0,"TOWNNAME":"東區","LI":"龍山里","LIN":"5鄰","STREET":"崇善路","SECT":" ","MAREA":" ","LANE":"２５巷","ALLEY":" ","HOUSE_NO":"１０８號七樓","E_COORD97":170281.39000000001,"N_COORD97":2542715.3999999999,"ADDRESS":"崇善路２５巷１０８號七樓","OBJECTID":443651},"geometry":{"x":170281.38999999966,"y":2542715.4000000004}},{"attributes":{"ID":443677,"DIS_CODE":0,"TOWNNAME":"東區","LI":"龍山里","LIN":"5鄰","STREET":"崇善路","SECT":" ","MAREA":" ","LANE":"２５巷","ALLEY":" ","HOUSE_NO":"１０８號八樓","E_COORD97":170281.39000000001,"N_COORD97":2542715.3999999999,"ADDRESS":"崇善路２５巷１０８號八樓","OBJECTID":443652},"geometry":{"x":170281.38999999966,"y":2542715.4000000004}},{"attributes":{"ID":443678,"DIS_CODE":0,"TOWNNAME":"東區","LI":"龍山里","LIN":"5鄰","STREET":"崇善路","SECT":" ","MAREA":" ","LANE":"２５巷","ALLEY":" ","HOUSE_NO":"１０８號九樓","E_COORD97":170281.39000000001,"N_COORD97":2542715.3999999999,"ADDRESS":"崇善路２５巷１０８號九樓","OBJECTID":443653},"geometry":{"x":170281.38999999966,"y":2542715.4000000004}},{"attributes":{"ID":443679,"DIS_CODE":0,"TOWNNAME":"東區","LI":"龍山里","LIN":"5鄰","STREET":"崇善路","SECT":" ","MAREA":" ","LANE":"２５巷","ALLEY":" ","HOUSE_NO":"１０８號十樓","E_COORD97":170281.39000000001,"N_COORD97":2542715.3999999999,"ADDRESS":"崇善路２５巷１０８號十樓","OBJECTID":443654},"geometry":{"x":170281.38999999966,"y":2542715.4000000004}},{"attributes":{"ID":443680,"DIS_CODE":0,"TOWNNAME":"東區","LI":"龍山里","LIN":"5鄰","STREET":"崇善路","SECT":" ","MAREA":" ","LANE":"２５巷","ALLEY":" ","HOUSE_NO":"１０８號十一樓","E_COORD97":170281.39000000001,"N_COORD97":2542715.3999999999,"ADDRESS":"崇善路２５巷１０８號十一樓","OBJECTID":443655},"geometry":{"x":170281.38999999966,"y":2542715.4000000004}},{"attributes":{"ID":443681,"DIS_CODE":0,"TOWNNAME":"東區","LI":"龍山里","LIN":"5鄰","STREET":"崇善路","SECT":" ","MAREA":" ","LANE":"２５巷","ALLEY":" ","HOUSE_NO":"１０８號十二樓","E_COORD97":170281.39000000001,"N_COORD97":2542715.3999999999,"ADDRESS":"崇善路２５巷１０８號十二樓","OBJECTID":443656},"geometry":{"x":170281.38999999966,"y":2542715.4000000004}},{"attributes":{"ID":443682,"DIS_CODE":0,"TOWNNAME":"東區","LI":"龍山里","LIN":"5鄰","STREET":"崇善路","SECT":" ","MAREA":" ","LANE":"２５巷","ALLEY":" ","HOUSE_NO":"１０８號十三樓","E_COORD97":170281.39000000001,"N_COORD97":2542715.3999999999,"ADDRESS":"崇善路２５巷１０８號十三樓","OBJECTID":443657},"geometry":{"x":170281.38999999966,"y":2542715.4000000004}},{"attributes":{"ID":443683,"DIS_CODE":0,"TOWNNAME":"東區","LI":"龍山里","LIN":"5鄰","STREET":"崇善路","SECT":" ","MAREA":" ","LANE":"２５巷","ALLEY":" ","HOUSE_NO":"１０８號十四樓","E_COORD97":170281.39000000001,"N_COORD97":2542715.3999999999,"ADDRESS":"崇善路２５巷１０８號十四樓","OBJECTID":443658},"geometry":{"x":170281.38999999966,"y":2542715.4000000004}},{"attributes":{"ID":443684,"DIS_CODE":0,"TOWNNAME":"東區","LI":"龍山里","LIN":"5鄰","STREET":"崇善路","SECT":" ","MAREA":" ","LANE":"２５巷","ALLEY":" ","HOUSE_NO":"１１０號二樓","E_COORD97":170293.28,"N_COORD97":2542709.1400000001,"ADDRESS":"崇善路２５巷１１０號二樓","OBJECTID":443659},"geometry":{"x":170293.27999999933,"y":2542709.1400000025}},{"attributes":{"ID":443685,"DIS_CODE":0,"TOWNNAME":"東區","LI":"龍山里","LIN":"5鄰","STREET":"崇善路","SECT":" ","MAREA":" ","LANE":"２５巷","ALLEY":" ","HOUSE_NO":"１１０號三樓","E_COORD97":170293.28,"N_COORD97":2542709.1400000001,"ADDRESS":"崇善路２５巷１１０號三樓","OBJECTID":443660},"geometry":{"x":170293.27999999933,"y":2542709.1400000025}},{"attributes":{"ID":443686,"DIS_CODE":0,"TOWNNAME":"東區","LI":"龍山里","LIN":"5鄰","STREET":"崇善路","SECT":" ","MAREA":" ","LANE":"２５巷","ALLEY":" ","HOUSE_NO":"１１０號四樓","E_COORD97":170293.28,"N_COORD97":2542709.1400000001,"ADDRESS":"崇善路２５巷１１０號四樓","OBJECTID":443661},"geometry":{"x":170293.27999999933,"y":2542709.1400000025}},{"attributes":{"ID":443687,"DIS_CODE":0,"TOWNNAME":"東區","LI":"龍山里","LIN":"5鄰","STREET":"崇善路","SECT":" ","MAREA":" ","LANE":"２５巷","ALLEY":" ","HOUSE_NO":"１１０號五樓","E_COORD97":170293.28,"N_COORD97":2542709.1400000001,"ADDRESS":"崇善路２５巷１１０號五樓","OBJECTID":443662},"geometry":{"x":170293.27999999933,"y":2542709.1400000025}},{"attributes":{"ID":443688,"DIS_CODE":0,"TOWNNAME":"東區","LI":"龍山里","LIN":"5鄰","STREET":"崇善路","SECT":" ","MAREA":" ","LANE":"２５巷","ALLEY":" ","HOUSE_NO":"１１０號六樓","E_COORD97":170293.28,"N_COORD97":2542709.1400000001,"ADDRESS":"崇善路２５巷１１０號六樓","OBJECTID":443663},"geometry":{"x":170293.27999999933,"y":2542709.1400000025}},{"attributes":{"ID":443689,"DIS_CODE":0,"TOWNNAME":"東區","LI":"龍山里","LIN":"5鄰","STREET":"崇善路","SECT":" ","MAREA":" ","LANE":"２５巷","ALLEY":" ","HOUSE_NO":"１１０號七樓","E_COORD97":170293.28,"N_COORD97":2542709.1400000001,"ADDRESS":"崇善路２５巷１１０號七樓","OBJECTID":443664},"geometry":{"x":170293.27999999933,"y":2542709.1400000025}},{"attributes":{"ID":443690,"DIS_CODE":0,"TOWNNAME":"東區","LI":"龍山里","LIN":"5鄰","STREET":"崇善路","SECT":" ","MAREA":" ","LANE":"２５巷","ALLEY":" ","HOUSE_NO":"１１０號八樓","E_COORD97":170293.28,"N_COORD97":2542709.1400000001,"ADDRESS":"崇善路２５巷１１０號八樓","OBJECTID":443665},"geometry":{"x":170293.27999999933,"y":2542709.1400000025}},{"attributes":{"ID":443691,"DIS_CODE":0,"TOWNNAME":"東區","LI":"龍山里","LIN":"5鄰","STREET":"崇善路","SECT":" ","MAREA":" ","LANE":"２５巷","ALLEY":" ","HOUSE_NO":"１１０號九樓","E_COORD97":170293.28,"N_COORD97":2542709.1400000001,"ADDRESS":"崇善路２５巷１１０號九樓","OBJECTID":443666},"geometry":{"x":170293.27999999933,"y":2542709.1400000025}},{"attributes":{"ID":443692,"DIS_CODE":0,"TOWNNAME":"東區","LI":"龍山里","LIN":"5鄰","STREET":"崇善路","SECT":" ","MAREA":" ","LANE":"２５巷","ALLEY":" ","HOUSE_NO":"１１０號十樓","E_COORD97":170293.28,"N_COORD97":2542709.1400000001,"ADDRESS":"崇善路２５巷１１０號十樓","OBJECTID":443667},"geometry":{"x":170293.27999999933,"y":2542709.1400000025}},{"attributes":{"ID":443693,"DIS_CODE":0,"TOWNNAME":"東區","LI":"龍山里","LIN":"5鄰","STREET":"崇善路","SECT":" ","MAREA":" ","LANE":"２５巷","ALLEY":" ","HOUSE_NO":"１１０號十一樓","E_COORD97":170293.28,"N_COORD97":2542709.1400000001,"ADDRESS":"崇善路２５巷１１０號十一樓","OBJECTID":443668},"geometry":{"x":170293.27999999933,"y":2542709.1400000025}},{"attributes":{"ID":443694,"DIS_CODE":0,"TOWNNAME":"東區","LI":"龍山里","LIN":"5鄰","STREET":"崇善路","SECT":" ","MAREA":" ","LANE":"２５巷","ALLEY":" ","HOUSE_NO":"１１０號十二樓","E_COORD97":170293.28,"N_COORD97":2542709.1400000001,"ADDRESS":"崇善路２５巷１１０號十二樓","OBJECTID":443669},"geometry":{"x":170293.27999999933,"y":2542709.1400000025}},{"attributes":{"ID":443695,"DIS_CODE":0,"TOWNNAME":"東區","LI":"龍山里","LIN":"5鄰","STREET":"崇善路","SECT":" ","MAREA":" ","LANE":"２５巷","ALLEY":" ","HOUSE_NO":"１１８號二樓","E_COORD97":170277.63,"N_COORD97":2542729.79,"ADDRESS":"崇善路２５巷１１８號二樓","OBJECTID":443670},"geometry":{"x":170277.63000000082,"y":2542729.7900000028}},{"attributes":{"ID":443696,"DIS_CODE":0,"TOWNNAME":"東區","LI":"龍山里","LIN":"5鄰","STREET":"崇善路","SECT":" ","MAREA":" ","LANE":"２５巷","ALLEY":" ","HOUSE_NO":"１２８號二樓","E_COORD97":170301.41,"N_COORD97":2542758.2599999998,"ADDRESS":"崇善路２５巷１２８號二樓","OBJECTID":443671},"geometry":{"x":170301.41000000108,"y":2542758.2600000016}},{"attributes":{"ID":443697,"DIS_CODE":0,"TOWNNAME":"東區","LI":"龍山里","LIN":"5鄰","STREET":"崇善路","SECT":" ","MAREA":" ","LANE":"２５巷","ALLEY":" ","HOUSE_NO":"１２８號八樓","E_COORD97":170301.41,"N_COORD97":2542758.2599999998,"ADDRESS":"崇善路２５巷１２８號八樓","OBJECTID":443672},"geometry":{"x":170301.41000000108,"y":2542758.2600000016}},{"attributes":{"ID":443698,"DIS_CODE":0,"TOWNNAME":"東區","LI":"龍山里","LIN":"5鄰","STREET":"崇善路","SECT":" ","MAREA":" ","LANE":"２５巷","ALLEY":" ","HOUSE_NO":"１２８號七樓","E_COORD97":170301.41,"N_COORD97":2542758.2599999998,"ADDRESS":"崇善路２５巷１２８號七樓","OBJECTID":443673},"geometry":{"x":170301.41000000108,"y":2542758.2600000016}},{"attributes":{"ID":443699,"DIS_CODE":0,"TOWNNAME":"東區","LI":"龍山里","LIN":"5鄰","STREET":"崇善路","SECT":" ","MAREA":" ","LANE":"２５巷","ALLEY":" ","HOUSE_NO":"１２８號九樓","E_COORD97":170301.41,"N_COORD97":2542758.2599999998,"ADDRESS":"崇善路２５巷１２８號九樓","OBJECTID":443674},"geometry":{"x":170301.41000000108,"y":2542758.2600000016}},{"attributes":{"ID":443700,"DIS_CODE":0,"TOWNNAME":"東區","LI":"龍山里","LIN":"5鄰","STREET":"崇善路","SECT":" ","MAREA":" ","LANE":"２５巷","ALLEY":" ","HOUSE_NO":"１２８號十樓","E_COORD97":170301.41,"N_COORD97":2542758.2599999998,"ADDRESS":"崇善路２５巷１２８號十樓","OBJECTID":443675},"geometry":{"x":170301.41000000108,"y":2542758.2600000016}},{"attributes":{"ID":443701,"DIS_CODE":0,"TOWNNAME":"東區","LI":"龍山里","LIN":"5鄰","STREET":"崇善路","SECT":" ","MAREA":" ","LANE":"２５巷","ALLEY":" ","HOUSE_NO":"１２８號十一樓","E_COORD97":170301.41,"N_COORD97":2542758.2599999998,"ADDRESS":"崇善路２５巷１２８號十一樓","OBJECTID":443676},"geometry":{"x":170301.41000000108,"y":2542758.2600000016}},{"attributes":{"ID":443702,"DIS_CODE":0,"TOWNNAME":"永康區","LI":"崑山里","LIN":"20鄰","STREET":"崑山街","SECT":" ","MAREA":" ","LANE":"２１巷","ALLEY":" ","HOUSE_NO":"３號","E_COORD97":173890.62,"N_COORD97":2544558,"ADDRESS":"崑山街２１巷３號","OBJECTID":443677},"geometry":{"x":173890.62000000104,"y":2544558.0000000019}},{"attributes":{"ID":443703,"DIS_CODE":0,"TOWNNAME":"永康區","LI":"復華里","LIN":"41鄰","STREET":"復華六街","SECT":" ","MAREA":" ","LANE":"１０６巷","ALLEY":" ","HOUSE_NO":"５號","E_COORD97":172608.26999999999,"N_COORD97":2545883.0800000001,"ADDRESS":"復華六街１０６巷５號","OBJECTID":443678},"geometry":{"x":172608.27000000142,"y":2545883.0800000019}},{"attributes":{"ID":443704,"DIS_CODE":0,"TOWNNAME":"永康區","LI":"神洲里","LIN":"4鄰","STREET":"忠孝路","SECT":" ","MAREA":" ","LANE":"３６巷","ALLEY":" ","HOUSE_NO":"１９號","E_COORD97":172163.98000000001,"N_COORD97":2544681.3100000001,"ADDRESS":"忠孝路３６巷１９號","OBJECTID":443679},"geometry":{"x":172163.98000000138,"y":2544681.3100000024}},{"attributes":{"ID":443705,"DIS_CODE":0,"TOWNNAME":"東區","LI":"龍山里","LIN":"5鄰","STREET":"崇善路","SECT":" ","MAREA":" ","LANE":"２５巷","ALLEY":" ","HOUSE_NO":"１２８號十二樓","E_COORD97":170301.41,"N_COORD97":2542758.2599999998,"ADDRESS":"崇善路２５巷１２８號十二樓","OBJECTID":443680},"geometry":{"x":170301.41000000108,"y":2542758.2600000016}},{"attributes":{"ID":443706,"DIS_CODE":0,"TOWNNAME":"永康區","LI":"神洲里","LIN":"4鄰","STREET":"忠孝路","SECT":" ","MAREA":" ","LANE":"３８巷","ALLEY":" ","HOUSE_NO":"４號","E_COORD97":172103.23000000001,"N_COORD97":2544696.5,"ADDRESS":"忠孝路３８巷４號","OBJECTID":443681},"geometry":{"x":172103.23000000138,"y":2544696.5000000019}},{"attributes":{"ID":443707,"DIS_CODE":0,"TOWNNAME":"東區","LI":"龍山里","LIN":"5鄰","STREET":"崇善路","SECT":" ","MAREA":" ","LANE":"２５巷","ALLEY":" ","HOUSE_NO":"１２８號三樓","E_COORD97":170301.41,"N_COORD97":2542758.2599999998,"ADDRESS":"崇善路２５巷１２８號三樓","OBJECTID":443682},"geometry":{"x":170301.41000000108,"y":2542758.2600000016}},{"attributes":{"ID":443708,"DIS_CODE":0,"TOWNNAME":"東區","LI":"龍山里","LIN":"5鄰","STREET":"崇善路","SECT":" ","MAREA":" ","LANE":"２５巷","ALLEY":" ","HOUSE_NO":"１２８號四樓","E_COORD97":170301.41,"N_COORD97":2542758.2599999998,"ADDRESS":"崇善路２５巷１２８號四樓","OBJECTID":443683},"geometry":{"x":170301.41000000108,"y":2542758.2600000016}},{"attributes":{"ID":443709,"DIS_CODE":0,"TOWNNAME":"東區","LI":"龍山里","LIN":"5鄰","STREET":"崇善路","SECT":" ","MAREA":" ","LANE":"２５巷","ALLEY":" ","HOUSE_NO":"１２８號五樓","E_COORD97":170301.41,"N_COORD97":2542758.2599999998,"ADDRESS":"崇善路２５巷１２８號五樓","OBJECTID":443684},"geometry":{"x":170301.41000000108,"y":2542758.2600000016}},{"attributes":{"ID":443710,"DIS_CODE":0,"TOWNNAME":"東區","LI":"龍山里","LIN":"5鄰","STREET":"崇善路","SECT":" ","MAREA":" ","LANE":"２５巷","ALLEY":" ","HOUSE_NO":"１２８號六樓","E_COORD97":170301.41,"N_COORD97":2542758.2599999998,"ADDRESS":"崇善路２５巷１２８號六樓","OBJECTID":443685},"geometry":{"x":170301.41000000108,"y":2542758.2600000016}},{"attributes":{"ID":443711,"DIS_CODE":0,"TOWNNAME":"七股區","LI":"義合里","LIN":"1鄰","STREET":" ","SECT":" ","MAREA":"義合","LANE":" ","ALLEY":" ","HOUSE_NO":"３號","E_COORD97":163111.573753,"N_COORD97":2556448.7094299998,"ADDRESS":"義合３號","OBJECTID":443686},"geometry":{"x":163111.57375300024,"y":2556448.709427001}},{"attributes":{"ID":443712,"DIS_CODE":0,"TOWNNAME":"東區","LI":"龍山里","LIN":"5鄰","STREET":"崇善路","SECT":" ","MAREA":" ","LANE":"２５巷","ALLEY":" ","HOUSE_NO":"１２６號二樓","E_COORD97":170298.28,"N_COORD97":2542753.2599999998,"ADDRESS":"崇善路２５巷１２６號二樓","OBJECTID":443687},"geometry":{"x":170298.28000000026,"y":2542753.2599999998}},{"attributes":{"ID":443713,"DIS_CODE":0,"TOWNNAME":"東區","LI":"龍山里","LIN":"5鄰","STREET":"崇善路","SECT":" ","MAREA":" ","LANE":"２５巷","ALLEY":" ","HOUSE_NO":"１２６號三樓","E_COORD97":170298.28,"N_COORD97":2542753.2599999998,"ADDRESS":"崇善路２５巷１２６號三樓","OBJECTID":443688},"geometry":{"x":170298.28000000026,"y":2542753.2599999998}},{"attributes":{"ID":443714,"DIS_CODE":0,"TOWNNAME":"東區","LI":"龍山里","LIN":"5鄰","STREET":"崇善路","SECT":" ","MAREA":" ","LANE":"２５巷","ALLEY":" ","HOUSE_NO":"１２６號四樓","E_COORD97":170298.28,"N_COORD97":2542753.2599999998,"ADDRESS":"崇善路２５巷１２６號四樓","OBJECTID":443689},"geometry":{"x":170298.28000000026,"y":2542753.2599999998}},{"attributes":{"ID":443715,"DIS_CODE":0,"TOWNNAME":"東區","LI":"龍山里","LIN":"5鄰","STREET":"崇善路","SECT":" ","MAREA":" ","LANE":"２５巷","ALLEY":" ","HOUSE_NO":"１２６號五樓","E_COORD97":170298.28,"N_COORD97":2542753.2599999998,"ADDRESS":"崇善路２５巷１２６號五樓","OBJECTID":443690},"geometry":{"x":170298.28000000026,"y":2542753.2599999998}},{"attributes":{"ID":443716,"DIS_CODE":0,"TOWNNAME":"東區","LI":"龍山里","LIN":"5鄰","STREET":"崇善路","SECT":" ","MAREA":" ","LANE":"２５巷","ALLEY":" ","HOUSE_NO":"１２６號六樓","E_COORD97":170298.28,"N_COORD97":2542753.2599999998,"ADDRESS":"崇善路２５巷１２６號六樓","OBJECTID":443691},"geometry":{"x":170298.28000000026,"y":2542753.2599999998}},{"attributes":{"ID":443717,"DIS_CODE":0,"TOWNNAME":"中西區","LI":"藥王里","LIN":"5鄰","STREET":"大福街","SECT":" ","MAREA":" ","LANE":"３巷","ALLEY":" ","HOUSE_NO":"２０號","E_COORD97":167249.26000000001,"N_COORD97":2544359.6800000002,"ADDRESS":"大福街３巷２０號","OBJECTID":443692},"geometry":{"x":167249.26000000071,"y":2544359.6800000016}},{"attributes":{"ID":443718,"DIS_CODE":0,"TOWNNAME":"東區","LI":"龍山里","LIN":"5鄰","STREET":"崇善路","SECT":" ","MAREA":" ","LANE":"２５巷","ALLEY":" ","HOUSE_NO":"１２６號七樓","E_COORD97":170298.28,"N_COORD97":2542753.2599999998,"ADDRESS":"崇善路２５巷１２６號七樓","OBJECTID":443693},"geometry":{"x":170298.28000000026,"y":2542753.2599999998}},{"attributes":{"ID":443719,"DIS_CODE":0,"TOWNNAME":"東區","LI":"龍山里","LIN":"5鄰","STREET":"崇善路","SECT":" ","MAREA":" ","LANE":"２５巷","ALLEY":" ","HOUSE_NO":"１２６號八樓","E_COORD97":170298.28,"N_COORD97":2542753.2599999998,"ADDRESS":"崇善路２５巷１２６號八樓","OBJECTID":443694},"geometry":{"x":170298.28000000026,"y":2542753.2599999998}},{"attributes":{"ID":443720,"DIS_CODE":0,"TOWNNAME":"東區","LI":"龍山里","LIN":"5鄰","STREET":"崇善路","SECT":" ","MAREA":" ","LANE":"２５巷","ALLEY":" ","HOUSE_NO":"１２６號九樓","E_COORD97":170298.28,"N_COORD97":2542753.2599999998,"ADDRESS":"崇善路２５巷１２６號九樓","OBJECTID":443695},"geometry":{"x":170298.28000000026,"y":2542753.2599999998}},{"attributes":{"ID":443721,"DIS_CODE":0,"TOWNNAME":"東區","LI":"龍山里","LIN":"5鄰","STREET":"崇善路","SECT":" ","MAREA":" ","LANE":"２５巷","ALLEY":" ","HOUSE_NO":"１２６號十樓","E_COORD97":170298.28,"N_COORD97":2542753.2599999998,"ADDRESS":"崇善路２５巷１２６號十樓","OBJECTID":443696},"geometry":{"x":170298.28000000026,"y":2542753.2599999998}},{"attributes":{"ID":443722,"DIS_CODE":0,"TOWNNAME":"東區","LI":"龍山里","LIN":"5鄰","STREET":"崇善路","SECT":" ","MAREA":" ","LANE":"２５巷","ALLEY":" ","HOUSE_NO":"１２６號十一樓","E_COORD97":170298.28,"N_COORD97":2542753.2599999998,"ADDRESS":"崇善路２５巷１２６號十一樓","OBJECTID":443697},"geometry":{"x":170298.28000000026,"y":2542753.2599999998}},{"attributes":{"ID":443723,"DIS_CODE":0,"TOWNNAME":"東區","LI":"龍山里","LIN":"5鄰","STREET":"崇善路","SECT":" ","MAREA":" ","LANE":"２５巷","ALLEY":" ","HOUSE_NO":"１２６號十二樓","E_COORD97":170298.28,"N_COORD97":2542753.2599999998,"ADDRESS":"崇善路２５巷１２６號十二樓","OBJECTID":443698},"geometry":{"x":170298.28000000026,"y":2542753.2599999998}},{"attributes":{"ID":443724,"DIS_CODE":0,"TOWNNAME":"東區","LI":"龍山里","LIN":"5鄰","STREET":"崇善路","SECT":" ","MAREA":" ","LANE":"２５巷","ALLEY":" ","HOUSE_NO":"１２６號十三樓","E_COORD97":170298.28,"N_COORD97":2542753.2599999998,"ADDRESS":"崇善路２５巷１２６號十三樓","OBJECTID":443699},"geometry":{"x":170298.28000000026,"y":2542753.2599999998}},{"attributes":{"ID":443725,"DIS_CODE":0,"TOWNNAME":"東區","LI":"龍山里","LIN":"5鄰","STREET":"崇善路","SECT":" ","MAREA":" ","LANE":"２５巷","ALLEY":" ","HOUSE_NO":"１２６號十四樓","E_COORD97":170298.28,"N_COORD97":2542753.2599999998,"ADDRESS":"崇善路２５巷１２６號十四樓","OBJECTID":443700},"geometry":{"x":170298.28000000026,"y":2542753.2599999998}},{"attributes":{"ID":443726,"DIS_CODE":0,"TOWNNAME":"東區","LI":"龍山里","LIN":"5鄰","STREET":"崇善路","SECT":" ","MAREA":" ","LANE":"２５巷","ALLEY":" ","HOUSE_NO":"１１８號三樓","E_COORD97":170277.63,"N_COORD97":2542729.79,"ADDRESS":"崇善路２５巷１１８號三樓","OBJECTID":443701},"geometry":{"x":170277.63000000082,"y":2542729.7900000028}},{"attributes":{"ID":443727,"DIS_CODE":0,"TOWNNAME":"東區","LI":"龍山里","LIN":"5鄰","STREET":"崇善路","SECT":" ","MAREA":" ","LANE":"２５巷","ALLEY":" ","HOUSE_NO":"１１８號四樓","E_COORD97":170277.63,"N_COORD97":2542729.79,"ADDRESS":"崇善路２５巷１１８號四樓","OBJECTID":443702},"geometry":{"x":170277.63000000082,"y":2542729.7900000028}},{"attributes":{"ID":443728,"DIS_CODE":0,"TOWNNAME":"東區","LI":"龍山里","LIN":"5鄰","STREET":"崇善路","SECT":" ","MAREA":" ","LANE":"２５巷","ALLEY":" ","HOUSE_NO":"１１８號五樓","E_COORD97":170277.63,"N_COORD97":2542729.79,"ADDRESS":"崇善路２５巷１１８號五樓","OBJECTID":443703},"geometry":{"x":170277.63000000082,"y":2542729.7900000028}},{"attributes":{"ID":443729,"DIS_CODE":0,"TOWNNAME":"佳里區","LI":"鎮山里","LIN":"20鄰","STREET":"鎮山街","SECT":" ","MAREA":" ","LANE":"１６０巷","ALLEY":" ","HOUSE_NO":"１０號","E_COORD97":166240.92999999999,"N_COORD97":2560982.6099999999,"ADDRESS":"鎮山街１６０巷１０號","OBJECTID":443704},"geometry":{"x":166240.93000000063,"y":2560982.6100000013}},{"attributes":{"ID":443730,"DIS_CODE":0,"TOWNNAME":"東區","LI":"龍山里","LIN":"5鄰","STREET":"崇善路","SECT":" ","MAREA":" ","LANE":"２５巷","ALLEY":" ","HOUSE_NO":"１１８號六樓","E_COORD97":170277.63,"N_COORD97":2542729.79,"ADDRESS":"崇善路２５巷１１８號六樓","OBJECTID":443705},"geometry":{"x":170277.63000000082,"y":2542729.7900000028}},{"attributes":{"ID":443731,"DIS_CODE":0,"TOWNNAME":"東區","LI":"龍山里","LIN":"5鄰","STREET":"崇善路","SECT":" ","MAREA":" ","LANE":"２５巷","ALLEY":" ","HOUSE_NO":"１１８號七樓","E_COORD97":170277.63,"N_COORD97":2542729.79,"ADDRESS":"崇善路２５巷１１８號七樓","OBJECTID":443706},"geometry":{"x":170277.63000000082,"y":2542729.7900000028}},{"attributes":{"ID":443732,"DIS_CODE":0,"TOWNNAME":"東區","LI":"龍山里","LIN":"5鄰","STREET":"崇善路","SECT":" ","MAREA":" ","LANE":"２５巷","ALLEY":" ","HOUSE_NO":"１１８號八樓","E_COORD97":170277.63,"N_COORD97":2542729.79,"ADDRESS":"崇善路２５巷１１８號八樓","OBJECTID":443707},"geometry":{"x":170277.63000000082,"y":2542729.7900000028}},{"attributes":{"ID":443733,"DIS_CODE":0,"TOWNNAME":"東區","LI":"龍山里","LIN":"5鄰","STREET":"崇善路","SECT":" ","MAREA":" ","LANE":"２５巷","ALLEY":" ","HOUSE_NO":"１１８號九樓","E_COORD97":170277.63,"N_COORD97":2542729.79,"ADDRESS":"崇善路２５巷１１８號九樓","OBJECTID":443708},"geometry":{"x":170277.63000000082,"y":2542729.7900000028}},{"attributes":{"ID":443734,"DIS_CODE":0,"TOWNNAME":"中西區","LI":"民主里","LIN":"1鄰","STREET":"保安路","SECT":" ","MAREA":" ","LANE":" ","ALLEY":" ","HOUSE_NO":"１１８號","E_COORD97":167448.29000000001,"N_COORD97":2543487.4399999999,"ADDRESS":"保安路１１８號","OBJECTID":443709},"geometry":{"x":167448.29000000004,"y":2543487.4399999995}},{"attributes":{"ID":443735,"DIS_CODE":0,"TOWNNAME":"東區","LI":"龍山里","LIN":"5鄰","STREET":"崇善路","SECT":" ","MAREA":" ","LANE":"２５巷","ALLEY":" ","HOUSE_NO":"１１８號十樓","E_COORD97":170277.63,"N_COORD97":2542729.79,"ADDRESS":"崇善路２５巷１１８號十樓","OBJECTID":443710},"geometry":{"x":170277.63000000082,"y":2542729.7900000028}},{"attributes":{"ID":443736,"DIS_CODE":0,"TOWNNAME":"東區","LI":"龍山里","LIN":"5鄰","STREET":"崇善路","SECT":" ","MAREA":" ","LANE":"２５巷","ALLEY":" ","HOUSE_NO":"１１８號十一樓","E_COORD97":170277.63,"N_COORD97":2542729.79,"ADDRESS":"崇善路２５巷１１８號十一樓","OBJECTID":443711},"geometry":{"x":170277.63000000082,"y":2542729.7900000028}},{"attributes":{"ID":443737,"DIS_CODE":0,"TOWNNAME":"東區","LI":"龍山里","LIN":"5鄰","STREET":"崇善路","SECT":" ","MAREA":" ","LANE":"２５巷","ALLEY":" ","HOUSE_NO":"１１８號十二樓","E_COORD97":170277.63,"N_COORD97":2542729.79,"ADDRESS":"崇善路２５巷１１８號十二樓","OBJECTID":443712},"geometry":{"x":170277.63000000082,"y":2542729.7900000028}},{"attributes":{"ID":443738,"DIS_CODE":0,"TOWNNAME":"東區","LI":"中西里","LIN":"5鄰","STREET":"勝利路","SECT":" ","MAREA":" ","LANE":"１２巷","ALLEY":" ","HOUSE_NO":"２４號三樓","E_COORD97":169879.54999999999,"N_COORD97":2543361.7200000002,"ADDRESS":"勝利路１２巷２４號三樓","OBJECTID":443713},"geometry":{"x":169879.55000000075,"y":2543361.7200000007}},{"attributes":{"ID":443739,"DIS_CODE":0,"TOWNNAME":"東區","LI":"中西里","LIN":"5鄰","STREET":"勝利路","SECT":" ","MAREA":" ","LANE":"１２巷","ALLEY":" ","HOUSE_NO":"２４號四樓","E_COORD97":169879.54999999999,"N_COORD97":2543361.7200000002,"ADDRESS":"勝利路１２巷２４號四樓","OBJECTID":443714},"geometry":{"x":169879.55000000075,"y":2543361.7200000007}},{"attributes":{"ID":443740,"DIS_CODE":0,"TOWNNAME":"東區","LI":"中西里","LIN":"5鄰","STREET":"勝利路","SECT":" ","MAREA":" ","LANE":"１２巷","ALLEY":" ","HOUSE_NO":"２６號三樓","E_COORD97":169886.51999999999,"N_COORD97":2543362.8199999998,"ADDRESS":"勝利路１２巷２６號三樓","OBJECTID":443715},"geometry":{"x":169886.52000000048,"y":2543362.8200000022}},{"attributes":{"ID":443741,"DIS_CODE":0,"TOWNNAME":"東區","LI":"中西里","LIN":"5鄰","STREET":"勝利路","SECT":" ","MAREA":" ","LANE":"１２巷","ALLEY":" ","HOUSE_NO":"２６號四樓","E_COORD97":169886.51999999999,"N_COORD97":2543362.8199999998,"ADDRESS":"勝利路１２巷２６號四樓","OBJECTID":443716},"geometry":{"x":169886.52000000048,"y":2543362.8200000022}},{"attributes":{"ID":443742,"DIS_CODE":0,"TOWNNAME":"七股區","LI":"義合里","LIN":"2鄰","STREET":" ","SECT":" ","MAREA":"義合","LANE":" ","ALLEY":" ","HOUSE_NO":"１５號之１","E_COORD97":162869.589603,"N_COORD97":2556464.3727500001,"ADDRESS":"義合１５號之１","OBJECTID":443717},"geometry":{"x":162869.58960300125,"y":2556464.3727520015}},{"attributes":{"ID":443743,"DIS_CODE":0,"TOWNNAME":"東區","LI":"中西里","LIN":"5鄰","STREET":"勝利路","SECT":" ","MAREA":" ","LANE":"１２巷","ALLEY":" ","HOUSE_NO":"２８號三樓","E_COORD97":169893.67999999999,"N_COORD97":2543363,"ADDRESS":"勝利路１２巷２８號三樓","OBJECTID":443718},"geometry":{"x":169893.68000000063,"y":2543363.0000000037}},{"attributes":{"ID":443744,"DIS_CODE":0,"TOWNNAME":"東區","LI":"中西里","LIN":"5鄰","STREET":"勝利路","SECT":" ","MAREA":" ","LANE":"１２巷","ALLEY":" ","HOUSE_NO":"２８號四樓","E_COORD97":169893.67999999999,"N_COORD97":2543363,"ADDRESS":"勝利路１２巷２８號四樓","OBJECTID":443719},"geometry":{"x":169893.68000000063,"y":2543363.0000000037}},{"attributes":{"ID":443745,"DIS_CODE":0,"TOWNNAME":"東區","LI":"中西里","LIN":"5鄰","STREET":"勝利路","SECT":" ","MAREA":" ","LANE":"１２巷","ALLEY":" ","HOUSE_NO":"３０號三樓","E_COORD97":169901.01999999999,"N_COORD97":2543362.8199999998,"ADDRESS":"勝利路１２巷３０號三樓","OBJECTID":443720},"geometry":{"x":169901.01999999862,"y":2543362.8200000022}},{"attributes":{"ID":443746,"DIS_CODE":0,"TOWNNAME":"東區","LI":"中西里","LIN":"5鄰","STREET":"勝利路","SECT":" ","MAREA":" ","LANE":"１２巷","ALLEY":" ","HOUSE_NO":"３０號四樓","E_COORD97":169901.01999999999,"N_COORD97":2543362.8199999998,"ADDRESS":"勝利路１２巷３０號四樓","OBJECTID":443721},"geometry":{"x":169901.01999999862,"y":2543362.8200000022}},{"attributes":{"ID":443747,"DIS_CODE":0,"TOWNNAME":"東區","LI":"中西里","LIN":"5鄰","STREET":"勝利路","SECT":" ","MAREA":" ","LANE":"１２巷","ALLEY":" ","HOUSE_NO":"３２號三樓","E_COORD97":169907.38,"N_COORD97":2543361.7200000002,"ADDRESS":"勝利路１２巷３２號三樓","OBJECTID":443722},"geometry":{"x":169907.37999999896,"y":2543361.7200000007}},{"attributes":{"ID":443748,"DIS_CODE":0,"TOWNNAME":"東區","LI":"中西里","LIN":"5鄰","STREET":"勝利路","SECT":" ","MAREA":" ","LANE":"１２巷","ALLEY":" ","HOUSE_NO":"３２號四樓","E_COORD97":169907.38,"N_COORD97":2543361.7200000002,"ADDRESS":"勝利路１２巷３２號四樓","OBJECTID":443723},"geometry":{"x":169907.37999999896,"y":2543361.7200000007}},{"attributes":{"ID":443749,"DIS_CODE":0,"TOWNNAME":"永康區","LI":"勝利里","LIN":"24鄰","STREET":"勝利街","SECT":" ","MAREA":" ","LANE":"９０巷","ALLEY":" ","HOUSE_NO":"２９號","E_COORD97":171425.66,"N_COORD97":2544754.0099999998,"ADDRESS":"勝利街９０巷２９號","OBJECTID":443724},"geometry":{"x":171425.66000000015,"y":2544754.0100000016}},{"attributes":{"ID":443750,"DIS_CODE":0,"TOWNNAME":"東區","LI":"龍山里","LIN":"5鄰","STREET":"崇仁街","SECT":" ","MAREA":" ","LANE":"６６巷","ALLEY":" ","HOUSE_NO":"１６號二樓","E_COORD97":170266.04999999999,"N_COORD97":2542700.8999999999,"ADDRESS":"崇仁街６６巷１６號二樓","OBJECTID":443725},"geometry":{"x":170266.05000000075,"y":2542700.9000000022}},{"attributes":{"ID":443751,"DIS_CODE":0,"TOWNNAME":"東區","LI":"龍山里","LIN":"5鄰","STREET":"崇仁街","SECT":" ","MAREA":" ","LANE":"６６巷","ALLEY":" ","HOUSE_NO":"１６號三樓","E_COORD97":170266.04999999999,"N_COORD97":2542700.8999999999,"ADDRESS":"崇仁街６６巷１６號三樓","OBJECTID":443726},"geometry":{"x":170266.05000000075,"y":2542700.9000000022}},{"attributes":{"ID":443752,"DIS_CODE":0,"TOWNNAME":"東區","LI":"龍山里","LIN":"5鄰","STREET":"崇仁街","SECT":" ","MAREA":" ","LANE":"６６巷","ALLEY":" ","HOUSE_NO":"１６號四樓","E_COORD97":170266.04999999999,"N_COORD97":2542700.8999999999,"ADDRESS":"崇仁街６６巷１６號四樓","OBJECTID":443727},"geometry":{"x":170266.05000000075,"y":2542700.9000000022}},{"attributes":{"ID":443753,"DIS_CODE":0,"TOWNNAME":"東區","LI":"龍山里","LIN":"5鄰","STREET":"崇仁街","SECT":" ","MAREA":" ","LANE":"６６巷","ALLEY":" ","HOUSE_NO":"１６號五樓","E_COORD97":170266.04999999999,"N_COORD97":2542700.8999999999,"ADDRESS":"崇仁街６６巷１６號五樓","OBJECTID":443728},"geometry":{"x":170266.05000000075,"y":2542700.9000000022}},{"attributes":{"ID":443754,"DIS_CODE":0,"TOWNNAME":"東區","LI":"龍山里","LIN":"5鄰","STREET":"崇仁街","SECT":" ","MAREA":" ","LANE":"６６巷","ALLEY":" ","HOUSE_NO":"１６號六樓","E_COORD97":170266.04999999999,"N_COORD97":2542700.8999999999,"ADDRESS":"崇仁街６６巷１６號六樓","OBJECTID":443729},"geometry":{"x":170266.05000000075,"y":2542700.9000000022}},{"attributes":{"ID":443755,"DIS_CODE":0,"TOWNNAME":"東區","LI":"龍山里","LIN":"5鄰","STREET":"崇仁街","SECT":" ","MAREA":" ","LANE":"６６巷","ALLEY":" ","HOUSE_NO":"１６號七樓","E_COORD97":170266.04999999999,"N_COORD97":2542700.8999999999,"ADDRESS":"崇仁街６６巷１６號七樓","OBJECTID":443730},"geometry":{"x":170266.05000000075,"y":2542700.9000000022}},{"attributes":{"ID":443756,"DIS_CODE":0,"TOWNNAME":"東區","LI":"龍山里","LIN":"5鄰","STREET":"崇仁街","SECT":" ","MAREA":" ","LANE":"６６巷","ALLEY":" ","HOUSE_NO":"１６號八樓","E_COORD97":170266.04999999999,"N_COORD97":2542700.8999999999,"ADDRESS":"崇仁街６６巷１６號八樓","OBJECTID":443731},"geometry":{"x":170266.05000000075,"y":2542700.9000000022}},{"attributes":{"ID":443757,"DIS_CODE":0,"TOWNNAME":"東區","LI":"龍山里","LIN":"5鄰","STREET":"崇仁街","SECT":" ","MAREA":" ","LANE":"６６巷","ALLEY":" ","HOUSE_NO":"１６號九樓","E_COORD97":170266.04999999999,"N_COORD97":2542700.8999999999,"ADDRESS":"崇仁街６６巷１６號九樓","OBJECTID":443732},"geometry":{"x":170266.05000000075,"y":2542700.9000000022}},{"attributes":{"ID":443758,"DIS_CODE":0,"TOWNNAME":"東區","LI":"龍山里","LIN":"5鄰","STREET":"崇仁街","SECT":" ","MAREA":" ","LANE":"６６巷","ALLEY":" ","HOUSE_NO":"１６號十樓","E_COORD97":170266.04999999999,"N_COORD97":2542700.8999999999,"ADDRESS":"崇仁街６６巷１６號十樓","OBJECTID":443733},"geometry":{"x":170266.05000000075,"y":2542700.9000000022}},{"attributes":{"ID":443759,"DIS_CODE":0,"TOWNNAME":"東區","LI":"龍山里","LIN":"5鄰","STREET":"崇仁街","SECT":" ","MAREA":" ","LANE":"６６巷","ALLEY":" ","HOUSE_NO":"１６號十一樓","E_COORD97":170266.04999999999,"N_COORD97":2542700.8999999999,"ADDRESS":"崇仁街６６巷１６號十一樓","OBJECTID":443734},"geometry":{"x":170266.05000000075,"y":2542700.9000000022}},{"attributes":{"ID":443760,"DIS_CODE":0,"TOWNNAME":"東區","LI":"龍山里","LIN":"5鄰","STREET":"崇仁街","SECT":" ","MAREA":" ","LANE":"６６巷","ALLEY":" ","HOUSE_NO":"１６號十二樓","E_COORD97":170266.04999999999,"N_COORD97":2542700.8999999999,"ADDRESS":"崇仁街６６巷１６號十二樓","OBJECTID":443735},"geometry":{"x":170266.05000000075,"y":2542700.9000000022}},{"attributes":{"ID":443761,"DIS_CODE":0,"TOWNNAME":"永康區","LI":"\u25A0行里","LIN":"43鄰","STREET":"中正南路","SECT":" ","MAREA":" ","LANE":"４９０巷","ALLEY":" ","HOUSE_NO":"６６號","E_COORD97":171646.81,"N_COORD97":2548110.8999999999,"ADDRESS":"中正南路４９０巷６６號","OBJECTID":443736},"geometry":{"x":171646.80999999866,"y":2548110.9000000041}},{"attributes":{"ID":443762,"DIS_CODE":0,"TOWNNAME":"永康區","LI":"網寮里","LIN":"5鄰","STREET":"永勝街","SECT":" ","MAREA":" ","LANE":"１０６巷","ALLEY":" ","HOUSE_NO":"１５號三樓","E_COORD97":173577.38,"N_COORD97":2546386.7599999998,"ADDRESS":"永勝街１０６巷１５號三樓","OBJECTID":443737},"geometry":{"x":173577.37999999989,"y":2546386.7600000016}},{"attributes":{"ID":443763,"DIS_CODE":0,"TOWNNAME":"永康區","LI":"烏竹里","LIN":"15鄰","STREET":"龍橋街","SECT":" ","MAREA":" ","LANE":"３５０巷","ALLEY":" ","HOUSE_NO":"７３號","E_COORD97":174633.35000000001,"N_COORD97":2549206.3300000001,"ADDRESS":"龍橋街３５０巷７３號","OBJECTID":443738},"geometry":{"x":174633.34999999963,"y":2549206.3300000019}},{"attributes":{"ID":443764,"DIS_CODE":0,"TOWNNAME":"永康區","LI":"勝利里","LIN":"4鄰","STREET":"勝學路","SECT":" ","MAREA":" ","LANE":"８９巷","ALLEY":" ","HOUSE_NO":"９號","E_COORD97":171107.54000000001,"N_COORD97":2544826.25,"ADDRESS":"勝學路８９巷９號","OBJECTID":443739},"geometry":{"x":171107.54000000097,"y":2544826.2500000037}},{"attributes":{"ID":443765,"DIS_CODE":0,"TOWNNAME":"永康區","LI":"網寮里","LIN":"5鄰","STREET":"永勝街","SECT":" ","MAREA":" ","LANE":"１０６巷","ALLEY":" ","HOUSE_NO":"１７號四樓之２","E_COORD97":173587.39000000001,"N_COORD97":2546361.21,"ADDRESS":"永勝街１０６巷１７號四樓之２","OBJECTID":443740},"geometry":{"x":173587.39000000153,"y":2546361.2100000028}},{"attributes":{"ID":443766,"DIS_CODE":0,"TOWNNAME":"永康區","LI":"網寮里","LIN":"5鄰","STREET":"永勝街","SECT":" ","MAREA":" ","LANE":"１０６巷","ALLEY":" ","HOUSE_NO":"１５號五樓","E_COORD97":173577.38,"N_COORD97":2546386.7599999998,"ADDRESS":"永勝街１０６巷１５號五樓","OBJECTID":443741},"geometry":{"x":173577.37999999989,"y":2546386.7600000016}},{"attributes":{"ID":443767,"DIS_CODE":0,"TOWNNAME":"永康區","LI":"網寮里","LIN":"5鄰","STREET":"永勝街","SECT":" ","MAREA":" ","LANE":"１０６巷","ALLEY":" ","HOUSE_NO":"１１號五樓之１","E_COORD97":173578.29999999999,"N_COORD97":2546357.4700000002,"ADDRESS":"永勝街１０６巷１１號五樓之１","OBJECTID":443742},"geometry":{"x":173578.30000000075,"y":2546357.4699999988}},{"attributes":{"ID":443768,"DIS_CODE":0,"TOWNNAME":"永康區","LI":"網寮里","LIN":"5鄰","STREET":"永勝街","SECT":" ","MAREA":" ","LANE":"１０６巷","ALLEY":" ","HOUSE_NO":"１３號五樓","E_COORD97":173575.13,"N_COORD97":2546385.2599999998,"ADDRESS":"永勝街１０６巷１３號五樓","OBJECTID":443743},"geometry":{"x":173575.12999999989,"y":2546385.2600000035}},{"attributes":{"ID":443769,"DIS_CODE":0,"TOWNNAME":"永康區","LI":"網寮里","LIN":"5鄰","STREET":"永勝街","SECT":" ","MAREA":" ","LANE":"１０６巷","ALLEY":" ","HOUSE_NO":"１１號七樓之５","E_COORD97":173578.45999999999,"N_COORD97":2546357.4700000002,"ADDRESS":"永勝街１０６巷１１號七樓之５","OBJECTID":443744},"geometry":{"x":173578.45999999996,"y":2546357.4699999988}},{"attributes":{"ID":443770,"DIS_CODE":0,"TOWNNAME":"永康區","LI":"網寮里","LIN":"5鄰","STREET":"永勝街","SECT":" ","MAREA":" ","LANE":"１０６巷","ALLEY":" ","HOUSE_NO":"１７號六樓之５","E_COORD97":173587.42000000001,"N_COORD97":2546361.21,"ADDRESS":"永勝街１０６巷１７號六樓之５","OBJECTID":443745},"geometry":{"x":173587.41999999899,"y":2546361.2100000028}},{"attributes":{"ID":443771,"DIS_CODE":0,"TOWNNAME":"永康區","LI":"網寮里","LIN":"5鄰","STREET":"永勝街","SECT":" ","MAREA":" ","LANE":"１０６巷","ALLEY":" ","HOUSE_NO":"１３號三樓","E_COORD97":173575.13,"N_COORD97":2546385.2599999998,"ADDRESS":"永勝街１０６巷１３號三樓","OBJECTID":443746},"geometry":{"x":173575.12999999989,"y":2546385.2600000035}},{"attributes":{"ID":443772,"DIS_CODE":0,"TOWNNAME":"永康區","LI":"網寮里","LIN":"5鄰","STREET":"永勝街","SECT":" ","MAREA":" ","LANE":"１０６巷","ALLEY":" ","HOUSE_NO":"１７號五樓之２","E_COORD97":173587.39000000001,"N_COORD97":2546361.21,"ADDRESS":"永勝街１０６巷１７號五樓之２","OBJECTID":443747},"geometry":{"x":173587.39000000153,"y":2546361.2100000028}},{"attributes":{"ID":443773,"DIS_CODE":0,"TOWNNAME":"永康區","LI":"網寮里","LIN":"5鄰","STREET":"永勝街","SECT":" ","MAREA":" ","LANE":"１０６巷","ALLEY":" ","HOUSE_NO":"１７號四樓之１","E_COORD97":173587.26000000001,"N_COORD97":2546361.21,"ADDRESS":"永勝街１０６巷１７號四樓之１","OBJECTID":443748},"geometry":{"x":173587.26000000071,"y":2546361.2100000028}},{"attributes":{"ID":443774,"DIS_CODE":0,"TOWNNAME":"永康區","LI":"網寮里","LIN":"5鄰","STREET":"永勝街","SECT":" ","MAREA":" ","LANE":"１０６巷","ALLEY":" ","HOUSE_NO":"１１號四樓之１","E_COORD97":173578.29999999999,"N_COORD97":2546357.4700000002,"ADDRESS":"永勝街１０６巷１１號四樓之１","OBJECTID":443749},"geometry":{"x":173578.30000000075,"y":2546357.4699999988}},{"attributes":{"ID":443775,"DIS_CODE":0,"TOWNNAME":"永康區","LI":"網寮里","LIN":"5鄰","STREET":"永勝街","SECT":" ","MAREA":" ","LANE":"１０６巷","ALLEY":" ","HOUSE_NO":"１３號二樓","E_COORD97":173575.13,"N_COORD97":2546385.2599999998,"ADDRESS":"永勝街１０６巷１３號二樓","OBJECTID":443750},"geometry":{"x":173575.12999999989,"y":2546385.2600000035}},{"attributes":{"ID":443776,"DIS_CODE":0,"TOWNNAME":"永康區","LI":"網寮里","LIN":"5鄰","STREET":"永勝街","SECT":" ","MAREA":" ","LANE":"１０６巷","ALLEY":" ","HOUSE_NO":"１７號六樓之１","E_COORD97":173587.26000000001,"N_COORD97":2546361.21,"ADDRESS":"永勝街１０６巷１７號六樓之１","OBJECTID":443751},"geometry":{"x":173587.26000000071,"y":2546361.2100000028}},{"attributes":{"ID":443777,"DIS_CODE":0,"TOWNNAME":"永康區","LI":"龍潭里","LIN":"39鄰","STREET":"永明街","SECT":" ","MAREA":" ","LANE":"２１５巷","ALLEY":" ","HOUSE_NO":"１６號","E_COORD97":174532.03,"N_COORD97":2547256.0600000001,"ADDRESS":"永明街２１５巷１６號","OBJECTID":443752},"geometry":{"x":174532.03000000119,"y":2547256.0600000024}},{"attributes":{"ID":443778,"DIS_CODE":0,"TOWNNAME":"永康區","LI":"安康里","LIN":" ","STREET":"中華路","SECT":" ","MAREA":" ","LANE":"７２７巷","ALLEY":" ","HOUSE_NO":"５７之３號","E_COORD97":170827.35999999999,"N_COORD97":2546380.75,"ADDRESS":"中華路７２７巷５７之３號","OBJECTID":443753},"geometry":{"x":170827.36000000127,"y":2546380.75}},{"attributes":{"ID":443779,"DIS_CODE":0,"TOWNNAME":"永康區","LI":"網寮里","LIN":"5鄰","STREET":"永勝街","SECT":" ","MAREA":" ","LANE":"１０６巷","ALLEY":" ","HOUSE_NO":"１１號七樓之１","E_COORD97":173578.29999999999,"N_COORD97":2546357.4700000002,"ADDRESS":"永勝街１０６巷１１號七樓之１","OBJECTID":443754},"geometry":{"x":173578.30000000075,"y":2546357.4699999988}},{"attributes":{"ID":443780,"DIS_CODE":0,"TOWNNAME":"永康區","LI":"網寮里","LIN":"5鄰","STREET":"永勝街","SECT":" ","MAREA":" ","LANE":"１０６巷","ALLEY":" ","HOUSE_NO":"１７號四樓之５","E_COORD97":173587.42000000001,"N_COORD97":2546361.21,"ADDRESS":"永勝街１０６巷１７號四樓之５","OBJECTID":443755},"geometry":{"x":173587.41999999899,"y":2546361.2100000028}},{"attributes":{"ID":443781,"DIS_CODE":0,"TOWNNAME":"永康區","LI":"網寮里","LIN":"5鄰","STREET":"永勝街","SECT":" ","MAREA":" ","LANE":"１０６巷","ALLEY":" ","HOUSE_NO":"１７號六樓之３","E_COORD97":173587.35999999999,"N_COORD97":2546361.21,"ADDRESS":"永勝街１０６巷１７號六樓之３","OBJECTID":443756},"geometry":{"x":173587.36000000127,"y":2546361.2100000028}},{"attributes":{"ID":443782,"DIS_CODE":0,"TOWNNAME":"中西區","LI":"永福里","LIN":"5鄰","STREET":"永福路","SECT":"二段","MAREA":" ","LANE":"５４巷","ALLEY":" ","HOUSE_NO":"２６號二樓","E_COORD97":168143.70000000001,"N_COORD97":2543567.6099999999,"ADDRESS":"永福路二段５４巷２６號二樓","OBJECTID":443757},"geometry":{"x":168143.70000000019,"y":2543567.6099999994}},{"attributes":{"ID":443783,"DIS_CODE":0,"TOWNNAME":"永康區","LI":"復華里","LIN":"32鄰","STREET":"復華十街","SECT":" ","MAREA":" ","LANE":"４５巷","ALLEY":" ","HOUSE_NO":"１１號","E_COORD97":172599.19,"N_COORD97":2546372.8300000001,"ADDRESS":"復華十街４５巷１１號","OBJECTID":443758},"geometry":{"x":172599.19000000041,"y":2546372.8300000019}},{"attributes":{"ID":443784,"DIS_CODE":0,"TOWNNAME":"永康區","LI":"\u25A0洲里","LIN":"36鄰","STREET":"\u25A0洲二街","SECT":" ","MAREA":" ","LANE":"１７５巷","ALLEY":" ","HOUSE_NO":"４７號","E_COORD97":171626.04999999999,"N_COORD97":2549489.3900000001,"ADDRESS":"\u25A0洲二街１７５巷４７號","OBJECTID":443759},"geometry":{"x":171626.04999999981,"y":2549489.3900000006}},{"attributes":{"ID":443785,"DIS_CODE":0,"TOWNNAME":"中西區","LI":"永福里","LIN":"5鄰","STREET":"永福路","SECT":"二段","MAREA":" ","LANE":"５４巷","ALLEY":" ","HOUSE_NO":"２６號三樓","E_COORD97":168143.70000000001,"N_COORD97":2543567.6099999999,"ADDRESS":"永福路二段５４巷２６號三樓","OBJECTID":443760},"geometry":{"x":168143.70000000019,"y":2543567.6099999994}},{"attributes":{"ID":443786,"DIS_CODE":0,"TOWNNAME":"中西區","LI":"永福里","LIN":"5鄰","STREET":"永福路","SECT":"二段","MAREA":" ","LANE":"５４巷","ALLEY":" ","HOUSE_NO":"２６號四樓","E_COORD97":168143.70000000001,"N_COORD97":2543567.6099999999,"ADDRESS":"永福路二段５４巷２６號四樓","OBJECTID":443761},"geometry":{"x":168143.70000000019,"y":2543567.6099999994}},{"attributes":{"ID":443787,"DIS_CODE":0,"TOWNNAME":"永康區","LI":"復興里","LIN":"4鄰","STREET":"復興路","SECT":" ","MAREA":" ","LANE":"４２３巷","ALLEY":" ","HOUSE_NO":"５１號","E_COORD97":172204.38,"N_COORD97":2544284.52,"ADDRESS":"復興路４２３巷５１號","OBJECTID":443762},"geometry":{"x":172204.37999999896,"y":2544284.5199999977}},{"attributes":{"ID":443788,"DIS_CODE":0,"TOWNNAME":"東區","LI":"東明里","LIN":"5鄰","STREET":"怡東路","SECT":" ","MAREA":" ","LANE":"７２巷","ALLEY":" ","HOUSE_NO":"１０號三樓","E_COORD97":170901.35999999999,"N_COORD97":2543621.4399999999,"ADDRESS":"怡東路７２巷１０號三樓","OBJECTID":443763},"geometry":{"x":170901.3599999994,"y":2543621.4400000013}},{"attributes":{"ID":443789,"DIS_CODE":0,"TOWNNAME":"東區","LI":"東明里","LIN":"5鄰","STREET":"怡東路","SECT":" ","MAREA":" ","LANE":"７２巷","ALLEY":" ","HOUSE_NO":"１０號五樓","E_COORD97":170901.35999999999,"N_COORD97":2543621.4399999999,"ADDRESS":"怡東路７２巷１０號五樓","OBJECTID":443764},"geometry":{"x":170901.3599999994,"y":2543621.4400000013}},{"attributes":{"ID":443790,"DIS_CODE":0,"TOWNNAME":"東區","LI":"東明里","LIN":"5鄰","STREET":"怡東路","SECT":" ","MAREA":" ","LANE":"７２巷","ALLEY":" ","HOUSE_NO":"１０號四樓","E_COORD97":170901.35999999999,"N_COORD97":2543621.4399999999,"ADDRESS":"怡東路７２巷１０號四樓","OBJECTID":443765},"geometry":{"x":170901.3599999994,"y":2543621.4400000013}},{"attributes":{"ID":443791,"DIS_CODE":0,"TOWNNAME":"東區","LI":"東明里","LIN":"5鄰","STREET":"怡東路","SECT":" ","MAREA":" ","LANE":"７２巷","ALLEY":" ","HOUSE_NO":"１２號二樓","E_COORD97":170908.32999999999,"N_COORD97":2543620.75,"ADDRESS":"怡東路７２巷１２號二樓","OBJECTID":443766},"geometry":{"x":170908.33000000101,"y":2543620.7500000019}},{"attributes":{"ID":443792,"DIS_CODE":0,"TOWNNAME":"東區","LI":"東明里","LIN":"5鄰","STREET":"怡東路","SECT":" ","MAREA":" ","LANE":"７２巷","ALLEY":" ","HOUSE_NO":"１２號三樓","E_COORD97":170908.32999999999,"N_COORD97":2543620.75,"ADDRESS":"怡東路７２巷１２號三樓","OBJECTID":443767},"geometry":{"x":170908.33000000101,"y":2543620.7500000019}},{"attributes":{"ID":443793,"DIS_CODE":0,"TOWNNAME":"東區","LI":"東明里","LIN":"5鄰","STREET":"怡東路","SECT":" ","MAREA":" ","LANE":"７２巷","ALLEY":" ","HOUSE_NO":"１２號五樓","E_COORD97":170908.32999999999,"N_COORD97":2543620.75,"ADDRESS":"怡東路７２巷１２號五樓","OBJECTID":443768},"geometry":{"x":170908.33000000101,"y":2543620.7500000019}},{"attributes":{"ID":443794,"DIS_CODE":0,"TOWNNAME":"東區","LI":"東明里","LIN":"5鄰","STREET":"怡東路","SECT":" ","MAREA":" ","LANE":"７２巷","ALLEY":" ","HOUSE_NO":"１２號四樓","E_COORD97":170908.32999999999,"N_COORD97":2543620.75,"ADDRESS":"怡東路７２巷１２號四樓","OBJECTID":443769},"geometry":{"x":170908.33000000101,"y":2543620.7500000019}},{"attributes":{"ID":443795,"DIS_CODE":0,"TOWNNAME":"東區","LI":"東明里","LIN":"5鄰","STREET":"怡東路","SECT":" ","MAREA":" ","LANE":"７２巷","ALLEY":" ","HOUSE_NO":"２號二樓","E_COORD97":170873.48999999999,"N_COORD97":2543624.23,"ADDRESS":"怡東路７２巷２號二樓","OBJECTID":443770},"geometry":{"x":170873.49000000209,"y":2543624.2300000023}},{"attributes":{"ID":443796,"DIS_CODE":0,"TOWNNAME":"東區","LI":"東明里","LIN":"5鄰","STREET":"怡東路","SECT":" ","MAREA":" ","LANE":"７２巷","ALLEY":" ","HOUSE_NO":"２號三樓","E_COORD97":170873.48999999999,"N_COORD97":2543624.23,"ADDRESS":"怡東路７２巷２號三樓","OBJECTID":443771},"geometry":{"x":170873.49000000209,"y":2543624.2300000023}},{"attributes":{"ID":443797,"DIS_CODE":0,"TOWNNAME":"東區","LI":"東明里","LIN":"5鄰","STREET":"怡東路","SECT":" ","MAREA":" ","LANE":"７２巷","ALLEY":" ","HOUSE_NO":"２號五樓","E_COORD97":170873.48999999999,"N_COORD97":2543624.23,"ADDRESS":"怡東路７２巷２號五樓","OBJECTID":443772},"geometry":{"x":170873.49000000209,"y":2543624.2300000023}},{"attributes":{"ID":443798,"DIS_CODE":0,"TOWNNAME":"永康區","LI":"崑山里","LIN":"34鄰","STREET":"大仁街","SECT":" ","MAREA":" ","LANE":"１２５巷","ALLEY":" ","HOUSE_NO":"２８號","E_COORD97":173794.73000000001,"N_COORD97":2544878.6600000001,"ADDRESS":"大仁街１２５巷２８號","OBJECTID":443773},"geometry":{"x":173794.73000000138,"y":2544878.660000002}},{"attributes":{"ID":443799,"DIS_CODE":0,"TOWNNAME":"東區","LI":"東明里","LIN":"5鄰","STREET":"怡東路","SECT":" ","MAREA":" ","LANE":"７２巷","ALLEY":" ","HOUSE_NO":"４號二樓","E_COORD97":170880.88,"N_COORD97":2543623.5299999998,"ADDRESS":"怡東路７２巷４號二樓","OBJECTID":443774},"geometry":{"x":170880.88000000082,"y":2543623.5300000031}},{"attributes":{"ID":443800,"DIS_CODE":0,"TOWNNAME":"東區","LI":"東明里","LIN":"5鄰","STREET":"怡東路","SECT":" ","MAREA":" ","LANE":"７２巷","ALLEY":" ","HOUSE_NO":"４號三樓","E_COORD97":170880.88,"N_COORD97":2543623.5299999998,"ADDRESS":"怡東路７２巷４號三樓","OBJECTID":443775},"geometry":{"x":170880.88000000082,"y":2543623.5300000031}},{"attributes":{"ID":443801,"DIS_CODE":0,"TOWNNAME":"東區","LI":"東明里","LIN":"5鄰","STREET":"怡東路","SECT":" ","MAREA":" ","LANE":"７２巷","ALLEY":" ","HOUSE_NO":"４號五樓","E_COORD97":170880.88,"N_COORD97":2543623.5299999998,"ADDRESS":"怡東路７２巷４號五樓","OBJECTID":443776},"geometry":{"x":170880.88000000082,"y":2543623.5300000031}},{"attributes":{"ID":443802,"DIS_CODE":0,"TOWNNAME":"東區","LI":"東明里","LIN":"5鄰","STREET":"怡東路","SECT":" ","MAREA":" ","LANE":"７２巷","ALLEY":" ","HOUSE_NO":"４號四樓","E_COORD97":170880.88,"N_COORD97":2543623.5299999998,"ADDRESS":"怡東路７２巷４號四樓","OBJECTID":443777},"geometry":{"x":170880.88000000082,"y":2543623.5300000031}},{"attributes":{"ID":443803,"DIS_CODE":0,"TOWNNAME":"東區","LI":"東明里","LIN":"5鄰","STREET":"怡東路","SECT":" ","MAREA":" ","LANE":"７２巷","ALLEY":" ","HOUSE_NO":"６號二樓","E_COORD97":170886.73000000001,"N_COORD97":2543622.8300000001,"ADDRESS":"怡東路７２巷６號二樓","OBJECTID":443778},"geometry":{"x":170886.73000000045,"y":2543622.8300000019}},{"attributes":{"ID":443804,"DIS_CODE":0,"TOWNNAME":"東區","LI":"東明里","LIN":"5鄰","STREET":"怡東路","SECT":" ","MAREA":" ","LANE":"７２巷","ALLEY":" ","HOUSE_NO":"６號三樓","E_COORD97":170886.73000000001,"N_COORD97":2543622.8300000001,"ADDRESS":"怡東路７２巷６號三樓","OBJECTID":443779},"geometry":{"x":170886.73000000045,"y":2543622.8300000019}},{"attributes":{"ID":443805,"DIS_CODE":0,"TOWNNAME":"東山區","LI":"東中里","LIN":"26鄰","STREET":"成功街","SECT":" ","MAREA":" ","LANE":" ","ALLEY":" ","HOUSE_NO":"２號","E_COORD97":188794.57999999999,"N_COORD97":2579864.96,"ADDRESS":"成功街２號","OBJECTID":443780},"geometry":{"x":188794.58000000101,"y":2579864.959999999}},{"attributes":{"ID":443806,"DIS_CODE":0,"TOWNNAME":"東區","LI":"東明里","LIN":"5鄰","STREET":"怡東路","SECT":" ","MAREA":" ","LANE":"７２巷","ALLEY":" ","HOUSE_NO":"６號五樓","E_COORD97":170886.73000000001,"N_COORD97":2543622.8300000001,"ADDRESS":"怡東路７２巷６號五樓","OBJECTID":443781},"geometry":{"x":170886.73000000045,"y":2543622.8300000019}},{"attributes":{"ID":443807,"DIS_CODE":0,"TOWNNAME":"東區","LI":"東明里","LIN":"5鄰","STREET":"怡東路","SECT":" ","MAREA":" ","LANE":"７２巷","ALLEY":" ","HOUSE_NO":"６號四樓","E_COORD97":170886.73000000001,"N_COORD97":2543622.8300000001,"ADDRESS":"怡東路７２巷６號四樓","OBJECTID":443782},"geometry":{"x":170886.73000000045,"y":2543622.8300000019}},{"attributes":{"ID":443808,"DIS_CODE":0,"TOWNNAME":"東區","LI":"東明里","LIN":"5鄰","STREET":"怡東路","SECT":" ","MAREA":" ","LANE":"７２巷","ALLEY":" ","HOUSE_NO":"８號二樓","E_COORD97":170893.70000000001,"N_COORD97":2543622.4199999999,"ADDRESS":"怡東路７２巷８號二樓","OBJECTID":443783},"geometry":{"x":170893.70000000019,"y":2543622.4200000018}},{"attributes":{"ID":443809,"DIS_CODE":0,"TOWNNAME":"東區","LI":"東明里","LIN":"5鄰","STREET":"怡東路","SECT":" ","MAREA":" ","LANE":"７２巷","ALLEY":" ","HOUSE_NO":"８號三樓","E_COORD97":170893.70000000001,"N_COORD97":2543622.4199999999,"ADDRESS":"怡東路７２巷８號三樓","OBJECTID":443784},"geometry":{"x":170893.70000000019,"y":2543622.4200000018}},{"attributes":{"ID":443810,"DIS_CODE":0,"TOWNNAME":"東區","LI":"東明里","LIN":"5鄰","STREET":"怡東路","SECT":" ","MAREA":" ","LANE":"７２巷","ALLEY":" ","HOUSE_NO":"８號五樓","E_COORD97":170893.70000000001,"N_COORD97":2543622.4199999999,"ADDRESS":"怡東路７２巷８號五樓","OBJECTID":443785},"geometry":{"x":170893.70000000019,"y":2543622.4200000018}},{"attributes":{"ID":443811,"DIS_CODE":0,"TOWNNAME":"東區","LI":"東明里","LIN":"5鄰","STREET":"怡東路","SECT":" ","MAREA":" ","LANE":"７２巷","ALLEY":" ","HOUSE_NO":"８號四樓","E_COORD97":170893.70000000001,"N_COORD97":2543622.4199999999,"ADDRESS":"怡東路７２巷８號四樓","OBJECTID":443786},"geometry":{"x":170893.70000000019,"y":2543622.4200000018}},{"attributes":{"ID":443812,"DIS_CODE":0,"TOWNNAME":"永康區","LI":"網寮里","LIN":"5鄰","STREET":"永勝街","SECT":" ","MAREA":" ","LANE":"１０６巷","ALLEY":" ","HOUSE_NO":"１３號四樓","E_COORD97":173575.13,"N_COORD97":2546385.2599999998,"ADDRESS":"永勝街１０６巷１３號四樓","OBJECTID":443787},"geometry":{"x":173575.12999999989,"y":2546385.2600000035}},{"attributes":{"ID":443813,"DIS_CODE":0,"TOWNNAME":"永康區","LI":"網寮里","LIN":"5鄰","STREET":"永勝街","SECT":" ","MAREA":" ","LANE":"１０６巷","ALLEY":" ","HOUSE_NO":"１１號六樓之１","E_COORD97":173578.29999999999,"N_COORD97":2546357.4700000002,"ADDRESS":"永勝街１０６巷１１號六樓之１","OBJECTID":443788},"geometry":{"x":173578.30000000075,"y":2546357.4699999988}},{"attributes":{"ID":443814,"DIS_CODE":0,"TOWNNAME":"永康區","LI":"網寮里","LIN":"5鄰","STREET":"永勝街","SECT":" ","MAREA":" ","LANE":"１０６巷","ALLEY":" ","HOUSE_NO":"１１號五樓之３","E_COORD97":173578.39999999999,"N_COORD97":2546357.4700000002,"ADDRESS":"永勝街１０６巷１１號五樓之３","OBJECTID":443789},"geometry":{"x":173578.4000000013,"y":2546357.4699999988}},{"attributes":{"ID":443815,"DIS_CODE":0,"TOWNNAME":"永康區","LI":"網寮里","LIN":"5鄰","STREET":"永勝街","SECT":" ","MAREA":" ","LANE":"１０６巷","ALLEY":" ","HOUSE_NO":"１７號四樓之６","E_COORD97":173587.35999999999,"N_COORD97":2546361.21,"ADDRESS":"永勝街１０６巷１７號四樓之６","OBJECTID":443790},"geometry":{"x":173587.36000000127,"y":2546361.2100000028}},{"attributes":{"ID":443816,"DIS_CODE":0,"TOWNNAME":"永康區","LI":"網寮里","LIN":"5鄰","STREET":"永勝街","SECT":" ","MAREA":" ","LANE":"１０６巷","ALLEY":" ","HOUSE_NO":"１５號六樓","E_COORD97":173577.38,"N_COORD97":2546386.7599999998,"ADDRESS":"永勝街１０６巷１５號六樓","OBJECTID":443791},"geometry":{"x":173577.37999999989,"y":2546386.7600000016}},{"attributes":{"ID":443817,"DIS_CODE":0,"TOWNNAME":"永康區","LI":"網寮里","LIN":"5鄰","STREET":"永勝街","SECT":" ","MAREA":" ","LANE":"１０６巷","ALLEY":" ","HOUSE_NO":"１１號四樓之２","E_COORD97":173578.42999999999,"N_COORD97":2546357.4700000002,"ADDRESS":"永勝街１０６巷１１號四樓之２","OBJECTID":443792},"geometry":{"x":173578.4299999997,"y":2546357.4699999988}},{"attributes":{"ID":443818,"DIS_CODE":0,"TOWNNAME":"永康區","LI":"網寮里","LIN":"5鄰","STREET":"永勝街","SECT":" ","MAREA":" ","LANE":"１０６巷","ALLEY":" ","HOUSE_NO":"１３號七樓","E_COORD97":173575.13,"N_COORD97":2546385.2599999998,"ADDRESS":"永勝街１０６巷１３號七樓","OBJECTID":443793},"geometry":{"x":173575.12999999989,"y":2546385.2600000035}},{"attributes":{"ID":443819,"DIS_CODE":0,"TOWNNAME":"永康區","LI":"網寮里","LIN":"5鄰","STREET":"永勝街","SECT":" ","MAREA":" ","LANE":"１０６巷","ALLEY":" ","HOUSE_NO":"１１號五樓之５","E_COORD97":173578.45999999999,"N_COORD97":2546357.4700000002,"ADDRESS":"永勝街１０６巷１１號五樓之５","OBJECTID":443794},"geometry":{"x":173578.45999999996,"y":2546357.4699999988}},{"attributes":{"ID":443820,"DIS_CODE":0,"TOWNNAME":"永康區","LI":"網寮里","LIN":"5鄰","STREET":"永勝街","SECT":" ","MAREA":" ","LANE":"１０６巷","ALLEY":" ","HOUSE_NO":"１３號六樓","E_COORD97":173575.13,"N_COORD97":2546385.2599999998,"ADDRESS":"永勝街１０６巷１３號六樓","OBJECTID":443795},"geometry":{"x":173575.12999999989,"y":2546385.2600000035}},{"attributes":{"ID":443821,"DIS_CODE":0,"TOWNNAME":"永康區","LI":"網寮里","LIN":"5鄰","STREET":"永勝街","SECT":" ","MAREA":" ","LANE":"１０６巷","ALLEY":" ","HOUSE_NO":"１５號七樓","E_COORD97":173577.38,"N_COORD97":2546386.7599999998,"ADDRESS":"永勝街１０６巷１５號七樓","OBJECTID":443796},"geometry":{"x":173577.37999999989,"y":2546386.7600000016}},{"attributes":{"ID":443822,"DIS_CODE":0,"TOWNNAME":"永康區","LI":"網寮里","LIN":"5鄰","STREET":"永勝街","SECT":" ","MAREA":" ","LANE":"１０６巷","ALLEY":" ","HOUSE_NO":"１７號五樓之５","E_COORD97":173587.42000000001,"N_COORD97":2546361.21,"ADDRESS":"永勝街１０６巷１７號五樓之５","OBJECTID":443797},"geometry":{"x":173587.41999999899,"y":2546361.2100000028}},{"attributes":{"ID":443823,"DIS_CODE":0,"TOWNNAME":"永康區","LI":"網寮里","LIN":"5鄰","STREET":"永勝街","SECT":" ","MAREA":" ","LANE":"１０６巷","ALLEY":" ","HOUSE_NO":"１７號五樓之１","E_COORD97":173587.26000000001,"N_COORD97":2546361.21,"ADDRESS":"永勝街１０６巷１７號五樓之１","OBJECTID":443798},"geometry":{"x":173587.26000000071,"y":2546361.2100000028}},{"attributes":{"ID":443824,"DIS_CODE":0,"TOWNNAME":"東區","LI":"東明里","LIN":"5鄰","STREET":"怡東路","SECT":" ","MAREA":" ","LANE":"７２巷","ALLEY":" ","HOUSE_NO":"２號四樓","E_COORD97":170873.48999999999,"N_COORD97":2543624.23,"ADDRESS":"怡東路７２巷２號四樓","OBJECTID":443799},"geometry":{"x":170873.49000000209,"y":2543624.2300000023}},{"attributes":{"ID":443825,"DIS_CODE":0,"TOWNNAME":"永康區","LI":"復興里","LIN":"4鄰","STREET":"復興路","SECT":" ","MAREA":" ","LANE":"４２３巷","ALLEY":" ","HOUSE_NO":"６０號","E_COORD97":172218.07999999999,"N_COORD97":2544137.5299999998,"ADDRESS":"復興路４２３巷６０號","OBJECTID":443800},"geometry":{"x":172218.08000000007,"y":2544137.5299999993}}]}