{"displayFieldName":"TOWNNAME","fieldAliases":{"ID":"ID","DIS_CODE":"DIS_CODE","TOWNNAME":"TOWNNAME","LI":"LI","LIN":"LIN","STREET":"STREET","SECT":"SECT","MAREA":"MAREA","LANE":"LANE","ALLEY":"ALLEY","HOUSE_NO":"HOUSE_NO","E_COORD97":"E_COORD97","N_COORD97":"N_COORD97","ADDRESS":"ADDRESS","OBJECTID":"OBJECTID"},"geometryType":"esriGeometryPoint","spatialReference":{"wkid":102443,"latestWkid":3826},"fields":[{"name":"ID","type":"esriFieldTypeDouble","alias":"ID"},{"name":"DIS_CODE","type":"esriFieldTypeInteger","alias":"DIS_CODE"},{"name":"TOWNNAME","type":"esriFieldTypeString","alias":"TOWNNAME","length":8},{"name":"LI","type":"esriFieldTypeString","alias":"LI","length":8},{"name":"LIN","type":"esriFieldTypeString","alias":"LIN","length":12},{"name":"STREET","type":"esriFieldTypeString","alias":"STREET","length":20},{"name":"SECT","type":"esriFieldTypeString","alias":"SECT","length":8},{"name":"MAREA","type":"esriFieldTypeString","alias":"MAREA","length":12},{"name":"LANE","type":"esriFieldTypeString","alias":"LANE","length":10},{"name":"ALLEY","type":"esriFieldTypeString","alias":"ALLEY","length":10},{"name":"HOUSE_NO","type":"esriFieldTypeString","alias":"HOUSE_NO","length":20},{"name":"E_COORD97","type":"esriFieldTypeDouble","alias":"E_COORD97"},{"name":"N_COORD97","type":"esriFieldTypeDouble","alias":"N_COORD97"},{"name":"ADDRESS","type":"esriFieldTypeString","alias":"ADDRESS","length":50},{"name":"OBJECTID","type":"esriFieldTypeOID","alias":"OBJECTID"}],"features":[{"attributes":{"ID":637228,"DIS_CODE":0,"TOWNNAME":"安平區","LI":"國平里","LIN":"19鄰","STREET":"育平五街","SECT":" ","MAREA":" ","LANE":" ","ALLEY":" ","HOUSE_NO":"６號十一樓之５","E_COORD97":164895.03,"N_COORD97":2543486.02,"ADDRESS":"育平五街６號十一樓之５","OBJECTID":637201},"geometry":{"x":164895.03000000119,"y":2543486.0200000014}},{"attributes":{"ID":637229,"DIS_CODE":0,"TOWNNAME":"安平區","LI":"國平里","LIN":"19鄰","STREET":"育平五街","SECT":" ","MAREA":" ","LANE":" ","ALLEY":" ","HOUSE_NO":"６號十七樓之１","E_COORD97":164895.03,"N_COORD97":2543486.02,"ADDRESS":"育平五街６號十七樓之１","OBJECTID":637202},"geometry":{"x":164895.03000000119,"y":2543486.0200000014}},{"attributes":{"ID":637230,"DIS_CODE":0,"TOWNNAME":"安平區","LI":"國平里","LIN":"19鄰","STREET":"育平五街","SECT":" ","MAREA":" ","LANE":" ","ALLEY":" ","HOUSE_NO":"６號十七樓之２","E_COORD97":164895.03,"N_COORD97":2543486.02,"ADDRESS":"育平五街６號十七樓之２","OBJECTID":637203},"geometry":{"x":164895.03000000119,"y":2543486.0200000014}},{"attributes":{"ID":637231,"DIS_CODE":0,"TOWNNAME":"安平區","LI":"國平里","LIN":"19鄰","STREET":"育平五街","SECT":" ","MAREA":" ","LANE":" ","ALLEY":" ","HOUSE_NO":"６號十七樓之３","E_COORD97":164895.03,"N_COORD97":2543486.02,"ADDRESS":"育平五街６號十七樓之３","OBJECTID":637204},"geometry":{"x":164895.03000000119,"y":2543486.0200000014}},{"attributes":{"ID":637232,"DIS_CODE":0,"TOWNNAME":"安平區","LI":"國平里","LIN":"19鄰","STREET":"育平五街","SECT":" ","MAREA":" ","LANE":" ","ALLEY":" ","HOUSE_NO":"６號十七樓之４","E_COORD97":164895.03,"N_COORD97":2543486.02,"ADDRESS":"育平五街６號十七樓之４","OBJECTID":637205},"geometry":{"x":164895.03000000119,"y":2543486.0200000014}},{"attributes":{"ID":637233,"DIS_CODE":0,"TOWNNAME":"安平區","LI":"國平里","LIN":"19鄰","STREET":"育平五街","SECT":" ","MAREA":" ","LANE":" ","ALLEY":" ","HOUSE_NO":"６號十七樓之５","E_COORD97":164895.03,"N_COORD97":2543486.02,"ADDRESS":"育平五街６號十七樓之５","OBJECTID":637206},"geometry":{"x":164895.03000000119,"y":2543486.0200000014}},{"attributes":{"ID":637234,"DIS_CODE":0,"TOWNNAME":"安平區","LI":"國平里","LIN":"19鄰","STREET":"育平五街","SECT":" ","MAREA":" ","LANE":" ","ALLEY":" ","HOUSE_NO":"６號十七樓之６","E_COORD97":164895.03,"N_COORD97":2543486.02,"ADDRESS":"育平五街６號十七樓之６","OBJECTID":637207},"geometry":{"x":164895.03000000119,"y":2543486.0200000014}},{"attributes":{"ID":637235,"DIS_CODE":0,"TOWNNAME":"安平區","LI":"國平里","LIN":"19鄰","STREET":"育平五街","SECT":" ","MAREA":" ","LANE":" ","ALLEY":" ","HOUSE_NO":"６號十七樓之７","E_COORD97":164895.03,"N_COORD97":2543486.02,"ADDRESS":"育平五街６號十七樓之７","OBJECTID":637208},"geometry":{"x":164895.03000000119,"y":2543486.0200000014}},{"attributes":{"ID":637236,"DIS_CODE":0,"TOWNNAME":"安平區","LI":"國平里","LIN":"19鄰","STREET":"育平五街","SECT":" ","MAREA":" ","LANE":" ","ALLEY":" ","HOUSE_NO":"６號十九樓之１","E_COORD97":164895.03,"N_COORD97":2543486.02,"ADDRESS":"育平五街６號十九樓之１","OBJECTID":637209},"geometry":{"x":164895.03000000119,"y":2543486.0200000014}},{"attributes":{"ID":637237,"DIS_CODE":0,"TOWNNAME":"安平區","LI":"國平里","LIN":"19鄰","STREET":"育平五街","SECT":" ","MAREA":" ","LANE":" ","ALLEY":" ","HOUSE_NO":"６號十九樓之２","E_COORD97":164895.03,"N_COORD97":2543486.02,"ADDRESS":"育平五街６號十九樓之２","OBJECTID":637210},"geometry":{"x":164895.03000000119,"y":2543486.0200000014}},{"attributes":{"ID":637238,"DIS_CODE":0,"TOWNNAME":"安平區","LI":"國平里","LIN":"19鄰","STREET":"育平五街","SECT":" ","MAREA":" ","LANE":" ","ALLEY":" ","HOUSE_NO":"６號十九樓之３","E_COORD97":164895.03,"N_COORD97":2543486.02,"ADDRESS":"育平五街６號十九樓之３","OBJECTID":637211},"geometry":{"x":164895.03000000119,"y":2543486.0200000014}},{"attributes":{"ID":637239,"DIS_CODE":0,"TOWNNAME":"安平區","LI":"國平里","LIN":"19鄰","STREET":"育平五街","SECT":" ","MAREA":" ","LANE":" ","ALLEY":" ","HOUSE_NO":"６號十九樓之４","E_COORD97":164895.03,"N_COORD97":2543486.02,"ADDRESS":"育平五街６號十九樓之４","OBJECTID":637212},"geometry":{"x":164895.03000000119,"y":2543486.0200000014}},{"attributes":{"ID":637240,"DIS_CODE":0,"TOWNNAME":"安平區","LI":"國平里","LIN":"19鄰","STREET":"育平五街","SECT":" ","MAREA":" ","LANE":" ","ALLEY":" ","HOUSE_NO":"６號十九樓之５","E_COORD97":164895.03,"N_COORD97":2543486.02,"ADDRESS":"育平五街６號十九樓之５","OBJECTID":637213},"geometry":{"x":164895.03000000119,"y":2543486.0200000014}},{"attributes":{"ID":637241,"DIS_CODE":0,"TOWNNAME":"安平區","LI":"國平里","LIN":"19鄰","STREET":"育平五街","SECT":" ","MAREA":" ","LANE":" ","ALLEY":" ","HOUSE_NO":"６號十九樓之６","E_COORD97":164895.03,"N_COORD97":2543486.02,"ADDRESS":"育平五街６號十九樓之６","OBJECTID":637214},"geometry":{"x":164895.03000000119,"y":2543486.0200000014}},{"attributes":{"ID":637242,"DIS_CODE":0,"TOWNNAME":"安平區","LI":"國平里","LIN":"19鄰","STREET":"育平五街","SECT":" ","MAREA":" ","LANE":" ","ALLEY":" ","HOUSE_NO":"６號十九樓之７","E_COORD97":164895.03,"N_COORD97":2543486.02,"ADDRESS":"育平五街６號十九樓之７","OBJECTID":637215},"geometry":{"x":164895.03000000119,"y":2543486.0200000014}},{"attributes":{"ID":637243,"DIS_CODE":0,"TOWNNAME":"安平區","LI":"國平里","LIN":"19鄰","STREET":"育平五街","SECT":" ","MAREA":" ","LANE":" ","ALLEY":" ","HOUSE_NO":"６號十二樓之１","E_COORD97":164895.03,"N_COORD97":2543486.02,"ADDRESS":"育平五街６號十二樓之１","OBJECTID":637216},"geometry":{"x":164895.03000000119,"y":2543486.0200000014}},{"attributes":{"ID":637244,"DIS_CODE":0,"TOWNNAME":"安平區","LI":"國平里","LIN":"19鄰","STREET":"育平五街","SECT":" ","MAREA":" ","LANE":" ","ALLEY":" ","HOUSE_NO":"６號十二樓之２","E_COORD97":164895.03,"N_COORD97":2543486.02,"ADDRESS":"育平五街６號十二樓之２","OBJECTID":637217},"geometry":{"x":164895.03000000119,"y":2543486.0200000014}},{"attributes":{"ID":637245,"DIS_CODE":0,"TOWNNAME":"安平區","LI":"國平里","LIN":"19鄰","STREET":"育平五街","SECT":" ","MAREA":" ","LANE":" ","ALLEY":" ","HOUSE_NO":"６號十二樓之３","E_COORD97":164895.03,"N_COORD97":2543486.02,"ADDRESS":"育平五街６號十二樓之３","OBJECTID":637218},"geometry":{"x":164895.03000000119,"y":2543486.0200000014}},{"attributes":{"ID":637246,"DIS_CODE":0,"TOWNNAME":"安平區","LI":"國平里","LIN":"20鄰","STREET":"育平五街","SECT":" ","MAREA":" ","LANE":" ","ALLEY":" ","HOUSE_NO":"６號十二樓之８","E_COORD97":164895.03,"N_COORD97":2543486.02,"ADDRESS":"育平五街６號十二樓之８","OBJECTID":637219},"geometry":{"x":164895.03000000119,"y":2543486.0200000014}},{"attributes":{"ID":637247,"DIS_CODE":0,"TOWNNAME":"安平區","LI":"國平里","LIN":"19鄰","STREET":"育平五街","SECT":" ","MAREA":" ","LANE":" ","ALLEY":" ","HOUSE_NO":"６號十二樓之４","E_COORD97":164895.03,"N_COORD97":2543486.02,"ADDRESS":"育平五街６號十二樓之４","OBJECTID":637220},"geometry":{"x":164895.03000000119,"y":2543486.0200000014}},{"attributes":{"ID":637248,"DIS_CODE":0,"TOWNNAME":"安平區","LI":"國平里","LIN":"19鄰","STREET":"育平五街","SECT":" ","MAREA":" ","LANE":" ","ALLEY":" ","HOUSE_NO":"６號十二樓之５","E_COORD97":164895.03,"N_COORD97":2543486.02,"ADDRESS":"育平五街６號十二樓之５","OBJECTID":637221},"geometry":{"x":164895.03000000119,"y":2543486.0200000014}},{"attributes":{"ID":637249,"DIS_CODE":0,"TOWNNAME":"安平區","LI":"國平里","LIN":"19鄰","STREET":"育平五街","SECT":" ","MAREA":" ","LANE":" ","ALLEY":" ","HOUSE_NO":"６號十二樓之６","E_COORD97":164895.03,"N_COORD97":2543486.02,"ADDRESS":"育平五街６號十二樓之６","OBJECTID":637222},"geometry":{"x":164895.03000000119,"y":2543486.0200000014}},{"attributes":{"ID":637250,"DIS_CODE":0,"TOWNNAME":"安平區","LI":"國平里","LIN":"19鄰","STREET":"育平五街","SECT":" ","MAREA":" ","LANE":" ","ALLEY":" ","HOUSE_NO":"６號十二樓之７","E_COORD97":164895.03,"N_COORD97":2543486.02,"ADDRESS":"育平五街６號十二樓之７","OBJECTID":637223},"geometry":{"x":164895.03000000119,"y":2543486.0200000014}},{"attributes":{"ID":637251,"DIS_CODE":0,"TOWNNAME":"安平區","LI":"國平里","LIN":"19鄰","STREET":"育平五街","SECT":" ","MAREA":" ","LANE":" ","ALLEY":" ","HOUSE_NO":"６號十八樓之１","E_COORD97":164895.03,"N_COORD97":2543486.02,"ADDRESS":"育平五街６號十八樓之１","OBJECTID":637224},"geometry":{"x":164895.03000000119,"y":2543486.0200000014}},{"attributes":{"ID":637252,"DIS_CODE":0,"TOWNNAME":"安平區","LI":"國平里","LIN":"19鄰","STREET":"育平五街","SECT":" ","MAREA":" ","LANE":" ","ALLEY":" ","HOUSE_NO":"６號十八樓之２","E_COORD97":164895.03,"N_COORD97":2543486.02,"ADDRESS":"育平五街６號十八樓之２","OBJECTID":637225},"geometry":{"x":164895.03000000119,"y":2543486.0200000014}},{"attributes":{"ID":637253,"DIS_CODE":0,"TOWNNAME":"安平區","LI":"國平里","LIN":"19鄰","STREET":"育平五街","SECT":" ","MAREA":" ","LANE":" ","ALLEY":" ","HOUSE_NO":"６號十八樓之３","E_COORD97":164895.03,"N_COORD97":2543486.02,"ADDRESS":"育平五街６號十八樓之３","OBJECTID":637226},"geometry":{"x":164895.03000000119,"y":2543486.0200000014}},{"attributes":{"ID":637254,"DIS_CODE":0,"TOWNNAME":"安平區","LI":"國平里","LIN":"19鄰","STREET":"育平五街","SECT":" ","MAREA":" ","LANE":" ","ALLEY":" ","HOUSE_NO":"６號十八樓之４","E_COORD97":164895.03,"N_COORD97":2543486.02,"ADDRESS":"育平五街６號十八樓之４","OBJECTID":637227},"geometry":{"x":164895.03000000119,"y":2543486.0200000014}},{"attributes":{"ID":637255,"DIS_CODE":0,"TOWNNAME":"安平區","LI":"國平里","LIN":"19鄰","STREET":"育平五街","SECT":" ","MAREA":" ","LANE":" ","ALLEY":" ","HOUSE_NO":"６號十八樓之５","E_COORD97":164895.03,"N_COORD97":2543486.02,"ADDRESS":"育平五街６號十八樓之５","OBJECTID":637228},"geometry":{"x":164895.03000000119,"y":2543486.0200000014}},{"attributes":{"ID":637256,"DIS_CODE":0,"TOWNNAME":"安平區","LI":"國平里","LIN":"19鄰","STREET":"育平五街","SECT":" ","MAREA":" ","LANE":" ","ALLEY":" ","HOUSE_NO":"６號十八樓之６","E_COORD97":164895.03,"N_COORD97":2543486.02,"ADDRESS":"育平五街６號十八樓之６","OBJECTID":637229},"geometry":{"x":164895.03000000119,"y":2543486.0200000014}},{"attributes":{"ID":637257,"DIS_CODE":0,"TOWNNAME":"安平區","LI":"國平里","LIN":"19鄰","STREET":"育平五街","SECT":" ","MAREA":" ","LANE":" ","ALLEY":" ","HOUSE_NO":"６號十八樓之７","E_COORD97":164895.03,"N_COORD97":2543486.02,"ADDRESS":"育平五街６號十八樓之７","OBJECTID":637230},"geometry":{"x":164895.03000000119,"y":2543486.0200000014}},{"attributes":{"ID":637258,"DIS_CODE":0,"TOWNNAME":"安平區","LI":"國平里","LIN":"19鄰","STREET":"育平五街","SECT":" ","MAREA":" ","LANE":" ","ALLEY":" ","HOUSE_NO":"６號十三樓之１","E_COORD97":164895.03,"N_COORD97":2543486.02,"ADDRESS":"育平五街６號十三樓之１","OBJECTID":637231},"geometry":{"x":164895.03000000119,"y":2543486.0200000014}},{"attributes":{"ID":637259,"DIS_CODE":0,"TOWNNAME":"安平區","LI":"國平里","LIN":"19鄰","STREET":"育平五街","SECT":" ","MAREA":" ","LANE":" ","ALLEY":" ","HOUSE_NO":"６號十三樓之２","E_COORD97":164895.03,"N_COORD97":2543486.02,"ADDRESS":"育平五街６號十三樓之２","OBJECTID":637232},"geometry":{"x":164895.03000000119,"y":2543486.0200000014}},{"attributes":{"ID":637260,"DIS_CODE":0,"TOWNNAME":"安平區","LI":"國平里","LIN":"19鄰","STREET":"育平五街","SECT":" ","MAREA":" ","LANE":" ","ALLEY":" ","HOUSE_NO":"６號十三樓之３","E_COORD97":164895.03,"N_COORD97":2543486.02,"ADDRESS":"育平五街６號十三樓之３","OBJECTID":637233},"geometry":{"x":164895.03000000119,"y":2543486.0200000014}},{"attributes":{"ID":637261,"DIS_CODE":0,"TOWNNAME":"安平區","LI":"國平里","LIN":"19鄰","STREET":"育平五街","SECT":" ","MAREA":" ","LANE":" ","ALLEY":" ","HOUSE_NO":"６號十三樓之４","E_COORD97":164895.03,"N_COORD97":2543486.02,"ADDRESS":"育平五街６號十三樓之４","OBJECTID":637234},"geometry":{"x":164895.03000000119,"y":2543486.0200000014}},{"attributes":{"ID":637262,"DIS_CODE":0,"TOWNNAME":"安平區","LI":"國平里","LIN":"19鄰","STREET":"育平五街","SECT":" ","MAREA":" ","LANE":" ","ALLEY":" ","HOUSE_NO":"６號十三樓之５","E_COORD97":164895.03,"N_COORD97":2543486.02,"ADDRESS":"育平五街６號十三樓之５","OBJECTID":637235},"geometry":{"x":164895.03000000119,"y":2543486.0200000014}},{"attributes":{"ID":637263,"DIS_CODE":0,"TOWNNAME":"安平區","LI":"國平里","LIN":"19鄰","STREET":"育平五街","SECT":" ","MAREA":" ","LANE":" ","ALLEY":" ","HOUSE_NO":"６號十三樓之６","E_COORD97":164895.03,"N_COORD97":2543486.02,"ADDRESS":"育平五街６號十三樓之６","OBJECTID":637236},"geometry":{"x":164895.03000000119,"y":2543486.0200000014}},{"attributes":{"ID":637264,"DIS_CODE":0,"TOWNNAME":"安平區","LI":"國平里","LIN":"19鄰","STREET":"育平五街","SECT":" ","MAREA":" ","LANE":" ","ALLEY":" ","HOUSE_NO":"６號十三樓之７","E_COORD97":164895.03,"N_COORD97":2543486.02,"ADDRESS":"育平五街６號十三樓之７","OBJECTID":637237},"geometry":{"x":164895.03000000119,"y":2543486.0200000014}},{"attributes":{"ID":637265,"DIS_CODE":0,"TOWNNAME":"安平區","LI":"國平里","LIN":"19鄰","STREET":"育平五街","SECT":" ","MAREA":" ","LANE":" ","ALLEY":" ","HOUSE_NO":"６號十五樓之２","E_COORD97":164895.03,"N_COORD97":2543486.02,"ADDRESS":"育平五街６號十五樓之２","OBJECTID":637238},"geometry":{"x":164895.03000000119,"y":2543486.0200000014}},{"attributes":{"ID":637266,"DIS_CODE":0,"TOWNNAME":"安平區","LI":"國平里","LIN":"19鄰","STREET":"育平五街","SECT":" ","MAREA":" ","LANE":" ","ALLEY":" ","HOUSE_NO":"６號十五樓之３","E_COORD97":164895.03,"N_COORD97":2543486.02,"ADDRESS":"育平五街６號十五樓之３","OBJECTID":637239},"geometry":{"x":164895.03000000119,"y":2543486.0200000014}},{"attributes":{"ID":637267,"DIS_CODE":0,"TOWNNAME":"安平區","LI":"國平里","LIN":"19鄰","STREET":"育平五街","SECT":" ","MAREA":" ","LANE":" ","ALLEY":" ","HOUSE_NO":"６號十五樓之４","E_COORD97":164895.03,"N_COORD97":2543486.02,"ADDRESS":"育平五街６號十五樓之４","OBJECTID":637240},"geometry":{"x":164895.03000000119,"y":2543486.0200000014}},{"attributes":{"ID":637268,"DIS_CODE":0,"TOWNNAME":"安平區","LI":"國平里","LIN":"19鄰","STREET":"育平五街","SECT":" ","MAREA":" ","LANE":" ","ALLEY":" ","HOUSE_NO":"６號十五樓之５","E_COORD97":164895.03,"N_COORD97":2543486.02,"ADDRESS":"育平五街６號十五樓之５","OBJECTID":637241},"geometry":{"x":164895.03000000119,"y":2543486.0200000014}},{"attributes":{"ID":637269,"DIS_CODE":0,"TOWNNAME":"安平區","LI":"國平里","LIN":"19鄰","STREET":"育平五街","SECT":" ","MAREA":" ","LANE":" ","ALLEY":" ","HOUSE_NO":"６號十五樓之６","E_COORD97":164895.03,"N_COORD97":2543486.02,"ADDRESS":"育平五街６號十五樓之６","OBJECTID":637242},"geometry":{"x":164895.03000000119,"y":2543486.0200000014}},{"attributes":{"ID":637270,"DIS_CODE":0,"TOWNNAME":"安平區","LI":"國平里","LIN":"19鄰","STREET":"育平五街","SECT":" ","MAREA":" ","LANE":" ","ALLEY":" ","HOUSE_NO":"６號十五樓之７","E_COORD97":164895.03,"N_COORD97":2543486.02,"ADDRESS":"育平五街６號十五樓之７","OBJECTID":637243},"geometry":{"x":164895.03000000119,"y":2543486.0200000014}},{"attributes":{"ID":637271,"DIS_CODE":0,"TOWNNAME":"安平區","LI":"國平里","LIN":"19鄰","STREET":"育平五街","SECT":" ","MAREA":" ","LANE":" ","ALLEY":" ","HOUSE_NO":"６號十六樓之１","E_COORD97":164895.03,"N_COORD97":2543486.02,"ADDRESS":"育平五街６號十六樓之１","OBJECTID":637244},"geometry":{"x":164895.03000000119,"y":2543486.0200000014}},{"attributes":{"ID":637272,"DIS_CODE":0,"TOWNNAME":"安平區","LI":"國平里","LIN":"19鄰","STREET":"育平五街","SECT":" ","MAREA":" ","LANE":" ","ALLEY":" ","HOUSE_NO":"６號十六樓之２","E_COORD97":164895.03,"N_COORD97":2543486.02,"ADDRESS":"育平五街６號十六樓之２","OBJECTID":637245},"geometry":{"x":164895.03000000119,"y":2543486.0200000014}},{"attributes":{"ID":637273,"DIS_CODE":0,"TOWNNAME":"安平區","LI":"國平里","LIN":"19鄰","STREET":"育平五街","SECT":" ","MAREA":" ","LANE":" ","ALLEY":" ","HOUSE_NO":"６號十六樓之３","E_COORD97":164895.03,"N_COORD97":2543486.02,"ADDRESS":"育平五街６號十六樓之３","OBJECTID":637246},"geometry":{"x":164895.03000000119,"y":2543486.0200000014}},{"attributes":{"ID":637274,"DIS_CODE":0,"TOWNNAME":"安平區","LI":"國平里","LIN":"19鄰","STREET":"育平五街","SECT":" ","MAREA":" ","LANE":" ","ALLEY":" ","HOUSE_NO":"６號十六樓之４","E_COORD97":164895.03,"N_COORD97":2543486.02,"ADDRESS":"育平五街６號十六樓之４","OBJECTID":637247},"geometry":{"x":164895.03000000119,"y":2543486.0200000014}},{"attributes":{"ID":637275,"DIS_CODE":0,"TOWNNAME":"安平區","LI":"國平里","LIN":"19鄰","STREET":"育平五街","SECT":" ","MAREA":" ","LANE":" ","ALLEY":" ","HOUSE_NO":"６號十六樓之５","E_COORD97":164895.03,"N_COORD97":2543486.02,"ADDRESS":"育平五街６號十六樓之５","OBJECTID":637248},"geometry":{"x":164895.03000000119,"y":2543486.0200000014}},{"attributes":{"ID":637276,"DIS_CODE":0,"TOWNNAME":"安平區","LI":"國平里","LIN":"19鄰","STREET":"育平五街","SECT":" ","MAREA":" ","LANE":" ","ALLEY":" ","HOUSE_NO":"６號十六樓之６","E_COORD97":164895.03,"N_COORD97":2543486.02,"ADDRESS":"育平五街６號十六樓之６","OBJECTID":637249},"geometry":{"x":164895.03000000119,"y":2543486.0200000014}},{"attributes":{"ID":637277,"DIS_CODE":0,"TOWNNAME":"安平區","LI":"國平里","LIN":"19鄰","STREET":"育平五街","SECT":" ","MAREA":" ","LANE":" ","ALLEY":" ","HOUSE_NO":"６號十六樓之７","E_COORD97":164895.03,"N_COORD97":2543486.02,"ADDRESS":"育平五街６號十六樓之７","OBJECTID":637250},"geometry":{"x":164895.03000000119,"y":2543486.0200000014}},{"attributes":{"ID":637278,"DIS_CODE":0,"TOWNNAME":"安平區","LI":"國平里","LIN":"19鄰","STREET":"育平五街","SECT":" ","MAREA":" ","LANE":" ","ALLEY":" ","HOUSE_NO":"６號十四樓之１","E_COORD97":164895.03,"N_COORD97":2543486.02,"ADDRESS":"育平五街６號十四樓之１","OBJECTID":637251},"geometry":{"x":164895.03000000119,"y":2543486.0200000014}},{"attributes":{"ID":637279,"DIS_CODE":0,"TOWNNAME":"安平區","LI":"國平里","LIN":"19鄰","STREET":"育平五街","SECT":" ","MAREA":" ","LANE":" ","ALLEY":" ","HOUSE_NO":"６號十四樓之２","E_COORD97":164895.03,"N_COORD97":2543486.02,"ADDRESS":"育平五街６號十四樓之２","OBJECTID":637252},"geometry":{"x":164895.03000000119,"y":2543486.0200000014}},{"attributes":{"ID":637280,"DIS_CODE":0,"TOWNNAME":"安平區","LI":"國平里","LIN":"19鄰","STREET":"育平五街","SECT":" ","MAREA":" ","LANE":" ","ALLEY":" ","HOUSE_NO":"６號十四樓之３","E_COORD97":164895.03,"N_COORD97":2543486.02,"ADDRESS":"育平五街６號十四樓之３","OBJECTID":637253},"geometry":{"x":164895.03000000119,"y":2543486.0200000014}},{"attributes":{"ID":637281,"DIS_CODE":0,"TOWNNAME":"安平區","LI":"國平里","LIN":"19鄰","STREET":"育平五街","SECT":" ","MAREA":" ","LANE":" ","ALLEY":" ","HOUSE_NO":"６號十四樓之４","E_COORD97":164895.03,"N_COORD97":2543486.02,"ADDRESS":"育平五街６號十四樓之４","OBJECTID":637254},"geometry":{"x":164895.03000000119,"y":2543486.0200000014}},{"attributes":{"ID":637282,"DIS_CODE":0,"TOWNNAME":"安平區","LI":"國平里","LIN":"19鄰","STREET":"育平五街","SECT":" ","MAREA":" ","LANE":" ","ALLEY":" ","HOUSE_NO":"６號十四樓之５","E_COORD97":164895.03,"N_COORD97":2543486.02,"ADDRESS":"育平五街６號十四樓之５","OBJECTID":637255},"geometry":{"x":164895.03000000119,"y":2543486.0200000014}},{"attributes":{"ID":637283,"DIS_CODE":0,"TOWNNAME":"安平區","LI":"國平里","LIN":"20鄰","STREET":"育平五街","SECT":" ","MAREA":" ","LANE":" ","ALLEY":" ","HOUSE_NO":"６號十四樓之８","E_COORD97":164895.03,"N_COORD97":2543486.02,"ADDRESS":"育平五街６號十四樓之８","OBJECTID":637256},"geometry":{"x":164895.03000000119,"y":2543486.0200000014}},{"attributes":{"ID":637284,"DIS_CODE":0,"TOWNNAME":"安平區","LI":"國平里","LIN":"20鄰","STREET":"育平五街","SECT":" ","MAREA":" ","LANE":" ","ALLEY":" ","HOUSE_NO":"６號十四樓之９","E_COORD97":164895.03,"N_COORD97":2543486.02,"ADDRESS":"育平五街６號十四樓之９","OBJECTID":637257},"geometry":{"x":164895.03000000119,"y":2543486.0200000014}},{"attributes":{"ID":637285,"DIS_CODE":0,"TOWNNAME":"安平區","LI":"國平里","LIN":"20鄰","STREET":"育平五街","SECT":" ","MAREA":" ","LANE":" ","ALLEY":" ","HOUSE_NO":"６號十樓之１０","E_COORD97":164895.03,"N_COORD97":2543486.02,"ADDRESS":"育平五街６號十樓之１０","OBJECTID":637258},"geometry":{"x":164895.03000000119,"y":2543486.0200000014}},{"attributes":{"ID":637286,"DIS_CODE":0,"TOWNNAME":"安平區","LI":"國平里","LIN":"20鄰","STREET":"育平五街","SECT":" ","MAREA":" ","LANE":" ","ALLEY":" ","HOUSE_NO":"６號十樓之１１","E_COORD97":164895.03,"N_COORD97":2543486.02,"ADDRESS":"育平五街６號十樓之１１","OBJECTID":637259},"geometry":{"x":164895.03000000119,"y":2543486.0200000014}},{"attributes":{"ID":637287,"DIS_CODE":0,"TOWNNAME":"安平區","LI":"國平里","LIN":"20鄰","STREET":"育平五街","SECT":" ","MAREA":" ","LANE":" ","ALLEY":" ","HOUSE_NO":"６號十樓之１２","E_COORD97":164895.03,"N_COORD97":2543486.02,"ADDRESS":"育平五街６號十樓之１２","OBJECTID":637260},"geometry":{"x":164895.03000000119,"y":2543486.0200000014}},{"attributes":{"ID":637288,"DIS_CODE":0,"TOWNNAME":"安平區","LI":"國平里","LIN":"20鄰","STREET":"育平五街","SECT":" ","MAREA":" ","LANE":" ","ALLEY":" ","HOUSE_NO":"６號十樓之１３","E_COORD97":164895.03,"N_COORD97":2543486.02,"ADDRESS":"育平五街６號十樓之１３","OBJECTID":637261},"geometry":{"x":164895.03000000119,"y":2543486.0200000014}},{"attributes":{"ID":637289,"DIS_CODE":0,"TOWNNAME":"安平區","LI":"國平里","LIN":"20鄰","STREET":"育平五街","SECT":" ","MAREA":" ","LANE":" ","ALLEY":" ","HOUSE_NO":"６號十樓之１４","E_COORD97":164895.03,"N_COORD97":2543486.02,"ADDRESS":"育平五街６號十樓之１４","OBJECTID":637262},"geometry":{"x":164895.03000000119,"y":2543486.0200000014}},{"attributes":{"ID":637290,"DIS_CODE":0,"TOWNNAME":"安平區","LI":"國平里","LIN":"20鄰","STREET":"育平五街","SECT":" ","MAREA":" ","LANE":" ","ALLEY":" ","HOUSE_NO":"６號十樓之８","E_COORD97":164895.03,"N_COORD97":2543486.02,"ADDRESS":"育平五街６號十樓之８","OBJECTID":637263},"geometry":{"x":164895.03000000119,"y":2543486.0200000014}},{"attributes":{"ID":637291,"DIS_CODE":0,"TOWNNAME":"安平區","LI":"國平里","LIN":"20鄰","STREET":"育平五街","SECT":" ","MAREA":" ","LANE":" ","ALLEY":" ","HOUSE_NO":"６號十樓之９","E_COORD97":164895.03,"N_COORD97":2543486.02,"ADDRESS":"育平五街６號十樓之９","OBJECTID":637264},"geometry":{"x":164895.03000000119,"y":2543486.0200000014}},{"attributes":{"ID":637292,"DIS_CODE":0,"TOWNNAME":"安平區","LI":"國平里","LIN":"20鄰","STREET":"育平五街","SECT":" ","MAREA":" ","LANE":" ","ALLEY":" ","HOUSE_NO":"６號三樓之１０","E_COORD97":164895.03,"N_COORD97":2543486.02,"ADDRESS":"育平五街６號三樓之１０","OBJECTID":637265},"geometry":{"x":164895.03000000119,"y":2543486.0200000014}},{"attributes":{"ID":637293,"DIS_CODE":0,"TOWNNAME":"安平區","LI":"國平里","LIN":"19鄰","STREET":"育平五街","SECT":" ","MAREA":" ","LANE":" ","ALLEY":" ","HOUSE_NO":"６號十樓之１","E_COORD97":164895.03,"N_COORD97":2543486.02,"ADDRESS":"育平五街６號十樓之１","OBJECTID":637266},"geometry":{"x":164895.03000000119,"y":2543486.0200000014}},{"attributes":{"ID":637294,"DIS_CODE":0,"TOWNNAME":"安平區","LI":"國平里","LIN":"19鄰","STREET":"育平五街","SECT":" ","MAREA":" ","LANE":" ","ALLEY":" ","HOUSE_NO":"６號十樓之２","E_COORD97":164895.03,"N_COORD97":2543486.02,"ADDRESS":"育平五街６號十樓之２","OBJECTID":637267},"geometry":{"x":164895.03000000119,"y":2543486.0200000014}},{"attributes":{"ID":637295,"DIS_CODE":0,"TOWNNAME":"安平區","LI":"國平里","LIN":"19鄰","STREET":"育平五街","SECT":" ","MAREA":" ","LANE":" ","ALLEY":" ","HOUSE_NO":"６號十樓之３","E_COORD97":164895.03,"N_COORD97":2543486.02,"ADDRESS":"育平五街６號十樓之３","OBJECTID":637268},"geometry":{"x":164895.03000000119,"y":2543486.0200000014}},{"attributes":{"ID":637296,"DIS_CODE":0,"TOWNNAME":"安平區","LI":"國平里","LIN":"19鄰","STREET":"育平五街","SECT":" ","MAREA":" ","LANE":" ","ALLEY":" ","HOUSE_NO":"６號十樓之４","E_COORD97":164895.03,"N_COORD97":2543486.02,"ADDRESS":"育平五街６號十樓之４","OBJECTID":637269},"geometry":{"x":164895.03000000119,"y":2543486.0200000014}},{"attributes":{"ID":637297,"DIS_CODE":0,"TOWNNAME":"安平區","LI":"國平里","LIN":"19鄰","STREET":"育平五街","SECT":" ","MAREA":" ","LANE":" ","ALLEY":" ","HOUSE_NO":"６號十樓之５","E_COORD97":164895.03,"N_COORD97":2543486.02,"ADDRESS":"育平五街６號十樓之５","OBJECTID":637270},"geometry":{"x":164895.03000000119,"y":2543486.0200000014}},{"attributes":{"ID":637298,"DIS_CODE":0,"TOWNNAME":"安平區","LI":"國平里","LIN":"19鄰","STREET":"育平五街","SECT":" ","MAREA":" ","LANE":" ","ALLEY":" ","HOUSE_NO":"６號十樓之６","E_COORD97":164895.03,"N_COORD97":2543486.02,"ADDRESS":"育平五街６號十樓之６","OBJECTID":637271},"geometry":{"x":164895.03000000119,"y":2543486.0200000014}},{"attributes":{"ID":637299,"DIS_CODE":0,"TOWNNAME":"中西區","LI":"保安里","LIN":"4鄰","STREET":"保安路","SECT":" ","MAREA":" ","LANE":" ","ALLEY":" ","HOUSE_NO":"４１號","E_COORD97":167633.32000000001,"N_COORD97":2543420.6099999999,"ADDRESS":"保安路４１號","OBJECTID":637272},"geometry":{"x":167633.31999999937,"y":2543420.6100000013}},{"attributes":{"ID":637300,"DIS_CODE":0,"TOWNNAME":"安平區","LI":"國平里","LIN":"19鄰","STREET":"育平五街","SECT":" ","MAREA":" ","LANE":" ","ALLEY":" ","HOUSE_NO":"６號十樓之７","E_COORD97":164895.03,"N_COORD97":2543486.02,"ADDRESS":"育平五街６號十樓之７","OBJECTID":637273},"geometry":{"x":164895.03000000119,"y":2543486.0200000014}},{"attributes":{"ID":637301,"DIS_CODE":0,"TOWNNAME":"安平區","LI":"平通里","LIN":"4鄰","STREET":"慶平路","SECT":" ","MAREA":" ","LANE":" ","ALLEY":" ","HOUSE_NO":"５３９號七樓之１０","E_COORD97":165071.10999999999,"N_COORD97":2544210.6600000001,"ADDRESS":"慶平路５３９號七樓之１０","OBJECTID":637274},"geometry":{"x":165071.11000000034,"y":2544210.660000002}},{"attributes":{"ID":637302,"DIS_CODE":0,"TOWNNAME":"安平區","LI":"平通里","LIN":"4鄰","STREET":"慶平路","SECT":" ","MAREA":" ","LANE":" ","ALLEY":" ","HOUSE_NO":"５３９號七樓之１１","E_COORD97":165071.10999999999,"N_COORD97":2544210.6600000001,"ADDRESS":"慶平路５３９號七樓之１１","OBJECTID":637275},"geometry":{"x":165071.11000000034,"y":2544210.660000002}},{"attributes":{"ID":637303,"DIS_CODE":0,"TOWNNAME":"安平區","LI":"平通里","LIN":"4鄰","STREET":"慶平路","SECT":" ","MAREA":" ","LANE":" ","ALLEY":" ","HOUSE_NO":"５３９號七樓之１２","E_COORD97":165071.10999999999,"N_COORD97":2544210.6600000001,"ADDRESS":"慶平路５３９號七樓之１２","OBJECTID":637276},"geometry":{"x":165071.11000000034,"y":2544210.660000002}},{"attributes":{"ID":637304,"DIS_CODE":0,"TOWNNAME":"安平區","LI":"平通里","LIN":"4鄰","STREET":"慶平路","SECT":" ","MAREA":" ","LANE":" ","ALLEY":" ","HOUSE_NO":"５３９號七樓之１３","E_COORD97":165071.10999999999,"N_COORD97":2544210.6600000001,"ADDRESS":"慶平路５３９號七樓之１３","OBJECTID":637277},"geometry":{"x":165071.11000000034,"y":2544210.660000002}},{"attributes":{"ID":637305,"DIS_CODE":0,"TOWNNAME":"安平區","LI":"平通里","LIN":"4鄰","STREET":"慶平路","SECT":" ","MAREA":" ","LANE":" ","ALLEY":" ","HOUSE_NO":"５３９號七樓之１","E_COORD97":165071.10999999999,"N_COORD97":2544210.6600000001,"ADDRESS":"慶平路５３９號七樓之１","OBJECTID":637278},"geometry":{"x":165071.11000000034,"y":2544210.660000002}},{"attributes":{"ID":637306,"DIS_CODE":0,"TOWNNAME":"安平區","LI":"國平里","LIN":"20鄰","STREET":"育平五街","SECT":" ","MAREA":" ","LANE":" ","ALLEY":" ","HOUSE_NO":"６號五樓之８","E_COORD97":164895.03,"N_COORD97":2543486.02,"ADDRESS":"育平五街６號五樓之８","OBJECTID":637279},"geometry":{"x":164895.03000000119,"y":2543486.0200000014}},{"attributes":{"ID":637307,"DIS_CODE":0,"TOWNNAME":"安平區","LI":"國平里","LIN":"20鄰","STREET":"育平五街","SECT":" ","MAREA":" ","LANE":" ","ALLEY":" ","HOUSE_NO":"６號五樓之９","E_COORD97":164895.03,"N_COORD97":2543486.02,"ADDRESS":"育平五街６號五樓之９","OBJECTID":637280},"geometry":{"x":164895.03000000119,"y":2543486.0200000014}},{"attributes":{"ID":637308,"DIS_CODE":0,"TOWNNAME":"安平區","LI":"國平里","LIN":"20鄰","STREET":"育平五街","SECT":" ","MAREA":" ","LANE":" ","ALLEY":" ","HOUSE_NO":"６號六樓之１０","E_COORD97":164895.03,"N_COORD97":2543486.02,"ADDRESS":"育平五街６號六樓之１０","OBJECTID":637281},"geometry":{"x":164895.03000000119,"y":2543486.0200000014}},{"attributes":{"ID":637309,"DIS_CODE":0,"TOWNNAME":"安平區","LI":"國平里","LIN":"20鄰","STREET":"育平五街","SECT":" ","MAREA":" ","LANE":" ","ALLEY":" ","HOUSE_NO":"６號六樓之１１","E_COORD97":164895.03,"N_COORD97":2543486.02,"ADDRESS":"育平五街６號六樓之１１","OBJECTID":637282},"geometry":{"x":164895.03000000119,"y":2543486.0200000014}},{"attributes":{"ID":637310,"DIS_CODE":0,"TOWNNAME":"安平區","LI":"國平里","LIN":"20鄰","STREET":"育平五街","SECT":" ","MAREA":" ","LANE":" ","ALLEY":" ","HOUSE_NO":"６號六樓之１２","E_COORD97":164895.03,"N_COORD97":2543486.02,"ADDRESS":"育平五街６號六樓之１２","OBJECTID":637283},"geometry":{"x":164895.03000000119,"y":2543486.0200000014}},{"attributes":{"ID":637311,"DIS_CODE":0,"TOWNNAME":"安平區","LI":"育平里","LIN":"25鄰","STREET":"郡平路","SECT":" ","MAREA":" ","LANE":" ","ALLEY":" ","HOUSE_NO":"１８１號十樓之１３","E_COORD97":164638.45000000001,"N_COORD97":2543300.3100000001,"ADDRESS":"郡平路１８１號十樓之１３","OBJECTID":637284},"geometry":{"x":164638.45000000019,"y":2543300.3099999987}},{"attributes":{"ID":637312,"DIS_CODE":0,"TOWNNAME":"安平區","LI":"育平里","LIN":"25鄰","STREET":"郡平路","SECT":" ","MAREA":" ","LANE":" ","ALLEY":" ","HOUSE_NO":"１８１號十樓之１４","E_COORD97":164638.45000000001,"N_COORD97":2543300.3100000001,"ADDRESS":"郡平路１８１號十樓之１４","OBJECTID":637285},"geometry":{"x":164638.45000000019,"y":2543300.3099999987}},{"attributes":{"ID":637313,"DIS_CODE":0,"TOWNNAME":"安平區","LI":"育平里","LIN":"25鄰","STREET":"郡平路","SECT":" ","MAREA":" ","LANE":" ","ALLEY":" ","HOUSE_NO":"１８１號十樓之１５","E_COORD97":164638.45000000001,"N_COORD97":2543300.3100000001,"ADDRESS":"郡平路１８１號十樓之１５","OBJECTID":637286},"geometry":{"x":164638.45000000019,"y":2543300.3099999987}},{"attributes":{"ID":637314,"DIS_CODE":0,"TOWNNAME":"安平區","LI":"育平里","LIN":"25鄰","STREET":"郡平路","SECT":" ","MAREA":" ","LANE":" ","ALLEY":" ","HOUSE_NO":"１８１號十樓之１６","E_COORD97":164638.45000000001,"N_COORD97":2543300.3100000001,"ADDRESS":"郡平路１８１號十樓之１６","OBJECTID":637287},"geometry":{"x":164638.45000000019,"y":2543300.3099999987}},{"attributes":{"ID":637315,"DIS_CODE":0,"TOWNNAME":"安平區","LI":"育平里","LIN":"25鄰","STREET":"郡平路","SECT":" ","MAREA":" ","LANE":" ","ALLEY":" ","HOUSE_NO":"１８１號十樓之１７","E_COORD97":164638.45000000001,"N_COORD97":2543300.3100000001,"ADDRESS":"郡平路１８１號十樓之１７","OBJECTID":637288},"geometry":{"x":164638.45000000019,"y":2543300.3099999987}},{"attributes":{"ID":637316,"DIS_CODE":0,"TOWNNAME":"安平區","LI":"育平里","LIN":"25鄰","STREET":"郡平路","SECT":" ","MAREA":" ","LANE":" ","ALLEY":" ","HOUSE_NO":"１８１號十樓之１８","E_COORD97":164638.45000000001,"N_COORD97":2543300.3100000001,"ADDRESS":"郡平路１８１號十樓之１８","OBJECTID":637289},"geometry":{"x":164638.45000000019,"y":2543300.3099999987}},{"attributes":{"ID":637317,"DIS_CODE":0,"TOWNNAME":"安平區","LI":"育平里","LIN":"25鄰","STREET":"郡平路","SECT":" ","MAREA":" ","LANE":" ","ALLEY":" ","HOUSE_NO":"１８１號十樓之１９","E_COORD97":164638.45000000001,"N_COORD97":2543300.3100000001,"ADDRESS":"郡平路１８１號十樓之１９","OBJECTID":637290},"geometry":{"x":164638.45000000019,"y":2543300.3099999987}},{"attributes":{"ID":637318,"DIS_CODE":0,"TOWNNAME":"安平區","LI":"育平里","LIN":"24鄰","STREET":"郡平路","SECT":" ","MAREA":" ","LANE":" ","ALLEY":" ","HOUSE_NO":"１８１號十樓之２","E_COORD97":164638.45000000001,"N_COORD97":2543300.3100000001,"ADDRESS":"郡平路１８１號十樓之２","OBJECTID":637291},"geometry":{"x":164638.45000000019,"y":2543300.3099999987}},{"attributes":{"ID":637319,"DIS_CODE":0,"TOWNNAME":"安平區","LI":"國平里","LIN":"19鄰","STREET":"育平五街","SECT":" ","MAREA":" ","LANE":" ","ALLEY":" ","HOUSE_NO":"６號六樓之１","E_COORD97":164895.03,"N_COORD97":2543486.02,"ADDRESS":"育平五街６號六樓之１","OBJECTID":637292},"geometry":{"x":164895.03000000119,"y":2543486.0200000014}},{"attributes":{"ID":637320,"DIS_CODE":0,"TOWNNAME":"安平區","LI":"國平里","LIN":"19鄰","STREET":"育平五街","SECT":" ","MAREA":" ","LANE":" ","ALLEY":" ","HOUSE_NO":"６號六樓之２","E_COORD97":164895.03,"N_COORD97":2543486.02,"ADDRESS":"育平五街６號六樓之２","OBJECTID":637293},"geometry":{"x":164895.03000000119,"y":2543486.0200000014}},{"attributes":{"ID":637321,"DIS_CODE":0,"TOWNNAME":"安平區","LI":"育平里","LIN":"26鄰","STREET":"郡平路","SECT":" ","MAREA":" ","LANE":" ","ALLEY":" ","HOUSE_NO":"１８１號十樓之２０","E_COORD97":164638.45000000001,"N_COORD97":2543300.3100000001,"ADDRESS":"郡平路１８１號十樓之２０","OBJECTID":637294},"geometry":{"x":164638.45000000019,"y":2543300.3099999987}},{"attributes":{"ID":637322,"DIS_CODE":0,"TOWNNAME":"安平區","LI":"育平里","LIN":"25鄰","STREET":"郡平路","SECT":" ","MAREA":" ","LANE":" ","ALLEY":" ","HOUSE_NO":"１８１號三樓之１０","E_COORD97":164638.45000000001,"N_COORD97":2543300.3100000001,"ADDRESS":"郡平路１８１號三樓之１０","OBJECTID":637295},"geometry":{"x":164638.45000000019,"y":2543300.3099999987}},{"attributes":{"ID":637323,"DIS_CODE":0,"TOWNNAME":"下營區","LI":"仁里里","LIN":"4鄰","STREET":"仁興街","SECT":" ","MAREA":" ","LANE":" ","ALLEY":" ","HOUSE_NO":"６號","E_COORD97":174237.17999999999,"N_COORD97":2570134.96,"ADDRESS":"仁興街６號","OBJECTID":637296},"geometry":{"x":174237.18000000063,"y":2570134.9600000046}},{"attributes":{"ID":637324,"DIS_CODE":0,"TOWNNAME":"永康區","LI":"正強里","LIN":"25鄰","STREET":"正強街","SECT":" ","MAREA":" ","LANE":" ","ALLEY":" ","HOUSE_NO":"２７２號","E_COORD97":173304.51999999999,"N_COORD97":2547828.2400000002,"ADDRESS":"正強街２７２號","OBJECTID":637297},"geometry":{"x":173304.51999999955,"y":2547828.2400000021}},{"attributes":{"ID":637325,"DIS_CODE":0,"TOWNNAME":"安平區","LI":"育平里","LIN":"25鄰","STREET":"郡平路","SECT":" ","MAREA":" ","LANE":" ","ALLEY":" ","HOUSE_NO":"１８１號三樓之１１","E_COORD97":164638.45000000001,"N_COORD97":2543300.3100000001,"ADDRESS":"郡平路１８１號三樓之１１","OBJECTID":637298},"geometry":{"x":164638.45000000019,"y":2543300.3099999987}},{"attributes":{"ID":637326,"DIS_CODE":0,"TOWNNAME":"安平區","LI":"育平里","LIN":"25鄰","STREET":"郡平路","SECT":" ","MAREA":" ","LANE":" ","ALLEY":" ","HOUSE_NO":"１８１號三樓之１２","E_COORD97":164638.45000000001,"N_COORD97":2543300.3100000001,"ADDRESS":"郡平路１８１號三樓之１２","OBJECTID":637299},"geometry":{"x":164638.45000000019,"y":2543300.3099999987}},{"attributes":{"ID":637327,"DIS_CODE":0,"TOWNNAME":"安平區","LI":"育平里","LIN":"25鄰","STREET":"郡平路","SECT":" ","MAREA":" ","LANE":" ","ALLEY":" ","HOUSE_NO":"１８１號三樓之１３","E_COORD97":164638.45000000001,"N_COORD97":2543300.3100000001,"ADDRESS":"郡平路１８１號三樓之１３","OBJECTID":637300},"geometry":{"x":164638.45000000019,"y":2543300.3099999987}},{"attributes":{"ID":637328,"DIS_CODE":0,"TOWNNAME":"安平區","LI":"育平里","LIN":"25鄰","STREET":"郡平路","SECT":" ","MAREA":" ","LANE":" ","ALLEY":" ","HOUSE_NO":"１８１號三樓之１４","E_COORD97":164638.45000000001,"N_COORD97":2543300.3100000001,"ADDRESS":"郡平路１８１號三樓之１４","OBJECTID":637301},"geometry":{"x":164638.45000000019,"y":2543300.3099999987}},{"attributes":{"ID":637329,"DIS_CODE":0,"TOWNNAME":"安平區","LI":"育平里","LIN":"25鄰","STREET":"郡平路","SECT":" ","MAREA":" ","LANE":" ","ALLEY":" ","HOUSE_NO":"１８１號三樓之１５","E_COORD97":164638.45000000001,"N_COORD97":2543300.3100000001,"ADDRESS":"郡平路１８１號三樓之１５","OBJECTID":637302},"geometry":{"x":164638.45000000019,"y":2543300.3099999987}},{"attributes":{"ID":637330,"DIS_CODE":0,"TOWNNAME":"安平區","LI":"育平里","LIN":"24鄰","STREET":"郡平路","SECT":" ","MAREA":" ","LANE":" ","ALLEY":" ","HOUSE_NO":"１８１號十樓之３","E_COORD97":164638.45000000001,"N_COORD97":2543300.3100000001,"ADDRESS":"郡平路１８１號十樓之３","OBJECTID":637303},"geometry":{"x":164638.45000000019,"y":2543300.3099999987}},{"attributes":{"ID":637331,"DIS_CODE":0,"TOWNNAME":"安平區","LI":"育平里","LIN":"24鄰","STREET":"郡平路","SECT":" ","MAREA":" ","LANE":" ","ALLEY":" ","HOUSE_NO":"１８１號十樓之５","E_COORD97":164638.45000000001,"N_COORD97":2543300.3100000001,"ADDRESS":"郡平路１８１號十樓之５","OBJECTID":637304},"geometry":{"x":164638.45000000019,"y":2543300.3099999987}},{"attributes":{"ID":637332,"DIS_CODE":0,"TOWNNAME":"安平區","LI":"國平里","LIN":"20鄰","STREET":"育平五街","SECT":" ","MAREA":" ","LANE":" ","ALLEY":" ","HOUSE_NO":"６號四樓之１３","E_COORD97":164895.03,"N_COORD97":2543486.02,"ADDRESS":"育平五街６號四樓之１３","OBJECTID":637305},"geometry":{"x":164895.03000000119,"y":2543486.0200000014}},{"attributes":{"ID":637333,"DIS_CODE":0,"TOWNNAME":"安平區","LI":"國平里","LIN":"20鄰","STREET":"育平五街","SECT":" ","MAREA":" ","LANE":" ","ALLEY":" ","HOUSE_NO":"６號四樓之１４","E_COORD97":164895.03,"N_COORD97":2543486.02,"ADDRESS":"育平五街６號四樓之１４","OBJECTID":637306},"geometry":{"x":164895.03000000119,"y":2543486.0200000014}},{"attributes":{"ID":637334,"DIS_CODE":0,"TOWNNAME":"安平區","LI":"國平里","LIN":"20鄰","STREET":"育平五街","SECT":" ","MAREA":" ","LANE":" ","ALLEY":" ","HOUSE_NO":"６號四樓之１５","E_COORD97":164895.03,"N_COORD97":2543486.02,"ADDRESS":"育平五街６號四樓之１５","OBJECTID":637307},"geometry":{"x":164895.03000000119,"y":2543486.0200000014}},{"attributes":{"ID":637335,"DIS_CODE":0,"TOWNNAME":"安平區","LI":"國平里","LIN":"20鄰","STREET":"育平五街","SECT":" ","MAREA":" ","LANE":" ","ALLEY":" ","HOUSE_NO":"６號四樓之８","E_COORD97":164895.03,"N_COORD97":2543486.02,"ADDRESS":"育平五街６號四樓之８","OBJECTID":637308},"geometry":{"x":164895.03000000119,"y":2543486.0200000014}},{"attributes":{"ID":637336,"DIS_CODE":0,"TOWNNAME":"安平區","LI":"國平里","LIN":"20鄰","STREET":"育平五街","SECT":" ","MAREA":" ","LANE":" ","ALLEY":" ","HOUSE_NO":"６號四樓之９","E_COORD97":164895.03,"N_COORD97":2543486.02,"ADDRESS":"育平五街６號四樓之９","OBJECTID":637309},"geometry":{"x":164895.03000000119,"y":2543486.0200000014}},{"attributes":{"ID":637337,"DIS_CODE":0,"TOWNNAME":"安平區","LI":"育平里","LIN":"26鄰","STREET":"郡平路","SECT":" ","MAREA":" ","LANE":" ","ALLEY":" ","HOUSE_NO":"１８１號三樓之２０","E_COORD97":164638.45000000001,"N_COORD97":2543300.3100000001,"ADDRESS":"郡平路１８１號三樓之２０","OBJECTID":637310},"geometry":{"x":164638.45000000019,"y":2543300.3099999987}},{"attributes":{"ID":637338,"DIS_CODE":0,"TOWNNAME":"安平區","LI":"育平里","LIN":"26鄰","STREET":"郡平路","SECT":" ","MAREA":" ","LANE":" ","ALLEY":" ","HOUSE_NO":"１８１號三樓之２１","E_COORD97":164638.45000000001,"N_COORD97":2543300.3100000001,"ADDRESS":"郡平路１８１號三樓之２１","OBJECTID":637311},"geometry":{"x":164638.45000000019,"y":2543300.3099999987}},{"attributes":{"ID":637339,"DIS_CODE":0,"TOWNNAME":"安平區","LI":"育平里","LIN":"26鄰","STREET":"郡平路","SECT":" ","MAREA":" ","LANE":" ","ALLEY":" ","HOUSE_NO":"１８１號三樓之２２","E_COORD97":164638.45000000001,"N_COORD97":2543300.3100000001,"ADDRESS":"郡平路１８１號三樓之２２","OBJECTID":637312},"geometry":{"x":164638.45000000019,"y":2543300.3099999987}},{"attributes":{"ID":637340,"DIS_CODE":0,"TOWNNAME":"安平區","LI":"育平里","LIN":"26鄰","STREET":"郡平路","SECT":" ","MAREA":" ","LANE":" ","ALLEY":" ","HOUSE_NO":"１８１號三樓之２３","E_COORD97":164638.45000000001,"N_COORD97":2543300.3100000001,"ADDRESS":"郡平路１８１號三樓之２３","OBJECTID":637313},"geometry":{"x":164638.45000000019,"y":2543300.3099999987}},{"attributes":{"ID":637341,"DIS_CODE":0,"TOWNNAME":"安平區","LI":"育平里","LIN":"26鄰","STREET":"郡平路","SECT":" ","MAREA":" ","LANE":" ","ALLEY":" ","HOUSE_NO":"１８１號三樓之２４","E_COORD97":164638.45000000001,"N_COORD97":2543300.3100000001,"ADDRESS":"郡平路１８１號三樓之２４","OBJECTID":637314},"geometry":{"x":164638.45000000019,"y":2543300.3099999987}},{"attributes":{"ID":637342,"DIS_CODE":0,"TOWNNAME":"安平區","LI":"育平里","LIN":"25鄰","STREET":"郡平路","SECT":" ","MAREA":" ","LANE":" ","ALLEY":" ","HOUSE_NO":"１８１號三樓之１７","E_COORD97":164638.45000000001,"N_COORD97":2543300.3100000001,"ADDRESS":"郡平路１８１號三樓之１７","OBJECTID":637315},"geometry":{"x":164638.45000000019,"y":2543300.3099999987}},{"attributes":{"ID":637343,"DIS_CODE":0,"TOWNNAME":"安平區","LI":"育平里","LIN":"25鄰","STREET":"郡平路","SECT":" ","MAREA":" ","LANE":" ","ALLEY":" ","HOUSE_NO":"１８１號三樓之１８","E_COORD97":164638.45000000001,"N_COORD97":2543300.3100000001,"ADDRESS":"郡平路１８１號三樓之１８","OBJECTID":637316},"geometry":{"x":164638.45000000019,"y":2543300.3099999987}},{"attributes":{"ID":637344,"DIS_CODE":0,"TOWNNAME":"安平區","LI":"育平里","LIN":"25鄰","STREET":"郡平路","SECT":" ","MAREA":" ","LANE":" ","ALLEY":" ","HOUSE_NO":"１８１號三樓之１９","E_COORD97":164638.45000000001,"N_COORD97":2543300.3100000001,"ADDRESS":"郡平路１８１號三樓之１９","OBJECTID":637317},"geometry":{"x":164638.45000000019,"y":2543300.3099999987}},{"attributes":{"ID":637345,"DIS_CODE":0,"TOWNNAME":"安平區","LI":"育平里","LIN":"24鄰","STREET":"郡平路","SECT":" ","MAREA":" ","LANE":" ","ALLEY":" ","HOUSE_NO":"１８１號三樓之２","E_COORD97":164638.45000000001,"N_COORD97":2543300.3100000001,"ADDRESS":"郡平路１８１號三樓之２","OBJECTID":637318},"geometry":{"x":164638.45000000019,"y":2543300.3099999987}},{"attributes":{"ID":637346,"DIS_CODE":0,"TOWNNAME":"安平區","LI":"育平里","LIN":"24鄰","STREET":"郡平路","SECT":" ","MAREA":" ","LANE":" ","ALLEY":" ","HOUSE_NO":"１８１號三樓之３","E_COORD97":164638.45000000001,"N_COORD97":2543300.3100000001,"ADDRESS":"郡平路１８１號三樓之３","OBJECTID":637319},"geometry":{"x":164638.45000000019,"y":2543300.3099999987}},{"attributes":{"ID":637347,"DIS_CODE":0,"TOWNNAME":"安平區","LI":"平安里","LIN":"17鄰","STREET":"安平路","SECT":" ","MAREA":" ","LANE":" ","ALLEY":" ","HOUSE_NO":"５９０號二樓","E_COORD97":164884.42999999999,"N_COORD97":2544388.1899999999,"ADDRESS":"安平路５９０號二樓","OBJECTID":637320},"geometry":{"x":164884.43000000063,"y":2544388.1899999995}},{"attributes":{"ID":637348,"DIS_CODE":0,"TOWNNAME":"安平區","LI":"育平里","LIN":"25鄰","STREET":"郡平路","SECT":" ","MAREA":" ","LANE":" ","ALLEY":" ","HOUSE_NO":"１８１號五樓之１０","E_COORD97":164638.45000000001,"N_COORD97":2543300.3100000001,"ADDRESS":"郡平路１８１號五樓之１０","OBJECTID":637321},"geometry":{"x":164638.45000000019,"y":2543300.3099999987}},{"attributes":{"ID":637349,"DIS_CODE":0,"TOWNNAME":"安平區","LI":"育平里","LIN":"25鄰","STREET":"郡平路","SECT":" ","MAREA":" ","LANE":" ","ALLEY":" ","HOUSE_NO":"１８１號五樓之１１","E_COORD97":164638.45000000001,"N_COORD97":2543300.3100000001,"ADDRESS":"郡平路１８１號五樓之１１","OBJECTID":637322},"geometry":{"x":164638.45000000019,"y":2543300.3099999987}},{"attributes":{"ID":637350,"DIS_CODE":0,"TOWNNAME":"安平區","LI":"育平里","LIN":"25鄰","STREET":"郡平路","SECT":" ","MAREA":" ","LANE":" ","ALLEY":" ","HOUSE_NO":"１８１號五樓之１２","E_COORD97":164638.45000000001,"N_COORD97":2543300.3100000001,"ADDRESS":"郡平路１８１號五樓之１２","OBJECTID":637323},"geometry":{"x":164638.45000000019,"y":2543300.3099999987}},{"attributes":{"ID":637351,"DIS_CODE":0,"TOWNNAME":"安平區","LI":"育平里","LIN":"25鄰","STREET":"郡平路","SECT":" ","MAREA":" ","LANE":" ","ALLEY":" ","HOUSE_NO":"１８１號五樓之１３","E_COORD97":164638.45000000001,"N_COORD97":2543300.3100000001,"ADDRESS":"郡平路１８１號五樓之１３","OBJECTID":637324},"geometry":{"x":164638.45000000019,"y":2543300.3099999987}},{"attributes":{"ID":637352,"DIS_CODE":0,"TOWNNAME":"安平區","LI":"育平里","LIN":"25鄰","STREET":"郡平路","SECT":" ","MAREA":" ","LANE":" ","ALLEY":" ","HOUSE_NO":"１８１號五樓之１４","E_COORD97":164638.45000000001,"N_COORD97":2543300.3100000001,"ADDRESS":"郡平路１８１號五樓之１４","OBJECTID":637325},"geometry":{"x":164638.45000000019,"y":2543300.3099999987}},{"attributes":{"ID":637353,"DIS_CODE":0,"TOWNNAME":"安平區","LI":"育平里","LIN":"25鄰","STREET":"郡平路","SECT":" ","MAREA":" ","LANE":" ","ALLEY":" ","HOUSE_NO":"１８１號五樓之１５","E_COORD97":164638.45000000001,"N_COORD97":2543300.3100000001,"ADDRESS":"郡平路１８１號五樓之１５","OBJECTID":637326},"geometry":{"x":164638.45000000019,"y":2543300.3099999987}},{"attributes":{"ID":637354,"DIS_CODE":0,"TOWNNAME":"安平區","LI":"育平里","LIN":"25鄰","STREET":"郡平路","SECT":" ","MAREA":" ","LANE":" ","ALLEY":" ","HOUSE_NO":"１８１號五樓之１６","E_COORD97":164638.45000000001,"N_COORD97":2543300.3100000001,"ADDRESS":"郡平路１８１號五樓之１６","OBJECTID":637327},"geometry":{"x":164638.45000000019,"y":2543300.3099999987}},{"attributes":{"ID":637355,"DIS_CODE":0,"TOWNNAME":"安平區","LI":"育平里","LIN":"25鄰","STREET":"郡平路","SECT":" ","MAREA":" ","LANE":" ","ALLEY":" ","HOUSE_NO":"１８１號五樓之１７","E_COORD97":164638.45000000001,"N_COORD97":2543300.3100000001,"ADDRESS":"郡平路１８１號五樓之１７","OBJECTID":637328},"geometry":{"x":164638.45000000019,"y":2543300.3099999987}},{"attributes":{"ID":637356,"DIS_CODE":0,"TOWNNAME":"安平區","LI":"育平里","LIN":"25鄰","STREET":"郡平路","SECT":" ","MAREA":" ","LANE":" ","ALLEY":" ","HOUSE_NO":"１８１號六樓之１０","E_COORD97":164638.45000000001,"N_COORD97":2543300.3100000001,"ADDRESS":"郡平路１８１號六樓之１０","OBJECTID":637329},"geometry":{"x":164638.45000000019,"y":2543300.3099999987}},{"attributes":{"ID":637357,"DIS_CODE":0,"TOWNNAME":"安平區","LI":"育平里","LIN":"25鄰","STREET":"郡平路","SECT":" ","MAREA":" ","LANE":" ","ALLEY":" ","HOUSE_NO":"１８１號六樓之１１","E_COORD97":164638.45000000001,"N_COORD97":2543300.3100000001,"ADDRESS":"郡平路１８１號六樓之１１","OBJECTID":637330},"geometry":{"x":164638.45000000019,"y":2543300.3099999987}},{"attributes":{"ID":637358,"DIS_CODE":0,"TOWNNAME":"安平區","LI":"育平里","LIN":"25鄰","STREET":"郡平路","SECT":" ","MAREA":" ","LANE":" ","ALLEY":" ","HOUSE_NO":"１８１號六樓之１２","E_COORD97":164638.45000000001,"N_COORD97":2543300.3100000001,"ADDRESS":"郡平路１８１號六樓之１２","OBJECTID":637331},"geometry":{"x":164638.45000000019,"y":2543300.3099999987}},{"attributes":{"ID":637359,"DIS_CODE":0,"TOWNNAME":"安平區","LI":"育平里","LIN":"25鄰","STREET":"郡平路","SECT":" ","MAREA":" ","LANE":" ","ALLEY":" ","HOUSE_NO":"１８１號六樓之１３","E_COORD97":164638.45000000001,"N_COORD97":2543300.3100000001,"ADDRESS":"郡平路１８１號六樓之１３","OBJECTID":637332},"geometry":{"x":164638.45000000019,"y":2543300.3099999987}},{"attributes":{"ID":637360,"DIS_CODE":0,"TOWNNAME":"安平區","LI":"育平里","LIN":"25鄰","STREET":"郡平路","SECT":" ","MAREA":" ","LANE":" ","ALLEY":" ","HOUSE_NO":"１８１號六樓之１４","E_COORD97":164638.45000000001,"N_COORD97":2543300.3100000001,"ADDRESS":"郡平路１８１號六樓之１４","OBJECTID":637333},"geometry":{"x":164638.45000000019,"y":2543300.3099999987}},{"attributes":{"ID":637361,"DIS_CODE":0,"TOWNNAME":"安平區","LI":"育平里","LIN":"25鄰","STREET":"郡平路","SECT":" ","MAREA":" ","LANE":" ","ALLEY":" ","HOUSE_NO":"１８１號六樓之１５","E_COORD97":164638.45000000001,"N_COORD97":2543300.3100000001,"ADDRESS":"郡平路１８１號六樓之１５","OBJECTID":637334},"geometry":{"x":164638.45000000019,"y":2543300.3099999987}},{"attributes":{"ID":637362,"DIS_CODE":0,"TOWNNAME":"安平區","LI":"育平里","LIN":"25鄰","STREET":"郡平路","SECT":" ","MAREA":" ","LANE":" ","ALLEY":" ","HOUSE_NO":"１８１號六樓之１６","E_COORD97":164638.45000000001,"N_COORD97":2543300.3100000001,"ADDRESS":"郡平路１８１號六樓之１６","OBJECTID":637335},"geometry":{"x":164638.45000000019,"y":2543300.3099999987}},{"attributes":{"ID":637363,"DIS_CODE":0,"TOWNNAME":"安平區","LI":"育平里","LIN":"25鄰","STREET":"郡平路","SECT":" ","MAREA":" ","LANE":" ","ALLEY":" ","HOUSE_NO":"１８１號六樓之１７","E_COORD97":164638.45000000001,"N_COORD97":2543300.3100000001,"ADDRESS":"郡平路１８１號六樓之１７","OBJECTID":637336},"geometry":{"x":164638.45000000019,"y":2543300.3099999987}},{"attributes":{"ID":637364,"DIS_CODE":0,"TOWNNAME":"安平區","LI":"育平里","LIN":"25鄰","STREET":"郡平路","SECT":" ","MAREA":" ","LANE":" ","ALLEY":" ","HOUSE_NO":"１８１號四樓之１０","E_COORD97":164638.45000000001,"N_COORD97":2543300.3100000001,"ADDRESS":"郡平路１８１號四樓之１０","OBJECTID":637337},"geometry":{"x":164638.45000000019,"y":2543300.3099999987}},{"attributes":{"ID":637365,"DIS_CODE":0,"TOWNNAME":"安平區","LI":"育平里","LIN":"25鄰","STREET":"郡平路","SECT":" ","MAREA":" ","LANE":" ","ALLEY":" ","HOUSE_NO":"１８１號四樓之１１","E_COORD97":164638.45000000001,"N_COORD97":2543300.3100000001,"ADDRESS":"郡平路１８１號四樓之１１","OBJECTID":637338},"geometry":{"x":164638.45000000019,"y":2543300.3099999987}},{"attributes":{"ID":637366,"DIS_CODE":0,"TOWNNAME":"安平區","LI":"育平里","LIN":"25鄰","STREET":"郡平路","SECT":" ","MAREA":" ","LANE":" ","ALLEY":" ","HOUSE_NO":"１８１號四樓之１２","E_COORD97":164638.45000000001,"N_COORD97":2543300.3100000001,"ADDRESS":"郡平路１８１號四樓之１２","OBJECTID":637339},"geometry":{"x":164638.45000000019,"y":2543300.3099999987}},{"attributes":{"ID":637367,"DIS_CODE":0,"TOWNNAME":"安平區","LI":"育平里","LIN":"25鄰","STREET":"郡平路","SECT":" ","MAREA":" ","LANE":" ","ALLEY":" ","HOUSE_NO":"１８１號四樓之１３","E_COORD97":164638.45000000001,"N_COORD97":2543300.3100000001,"ADDRESS":"郡平路１８１號四樓之１３","OBJECTID":637340},"geometry":{"x":164638.45000000019,"y":2543300.3099999987}},{"attributes":{"ID":637368,"DIS_CODE":0,"TOWNNAME":"安平區","LI":"育平里","LIN":"25鄰","STREET":"郡平路","SECT":" ","MAREA":" ","LANE":" ","ALLEY":" ","HOUSE_NO":"１８１號四樓之１４","E_COORD97":164638.45000000001,"N_COORD97":2543300.3100000001,"ADDRESS":"郡平路１８１號四樓之１４","OBJECTID":637341},"geometry":{"x":164638.45000000019,"y":2543300.3099999987}},{"attributes":{"ID":637369,"DIS_CODE":0,"TOWNNAME":"安平區","LI":"育平里","LIN":"25鄰","STREET":"郡平路","SECT":" ","MAREA":" ","LANE":" ","ALLEY":" ","HOUSE_NO":"１８１號四樓之１５","E_COORD97":164638.45000000001,"N_COORD97":2543300.3100000001,"ADDRESS":"郡平路１８１號四樓之１５","OBJECTID":637342},"geometry":{"x":164638.45000000019,"y":2543300.3099999987}},{"attributes":{"ID":637370,"DIS_CODE":0,"TOWNNAME":"安平區","LI":"育平里","LIN":"25鄰","STREET":"郡平路","SECT":" ","MAREA":" ","LANE":" ","ALLEY":" ","HOUSE_NO":"１８１號四樓之１６","E_COORD97":164638.45000000001,"N_COORD97":2543300.3100000001,"ADDRESS":"郡平路１８１號四樓之１６","OBJECTID":637343},"geometry":{"x":164638.45000000019,"y":2543300.3099999987}},{"attributes":{"ID":637371,"DIS_CODE":0,"TOWNNAME":"安平區","LI":"育平里","LIN":"25鄰","STREET":"郡平路","SECT":" ","MAREA":" ","LANE":" ","ALLEY":" ","HOUSE_NO":"１８１號四樓之１７","E_COORD97":164638.45000000001,"N_COORD97":2543300.3100000001,"ADDRESS":"郡平路１８１號四樓之１７","OBJECTID":637344},"geometry":{"x":164638.45000000019,"y":2543300.3099999987}},{"attributes":{"ID":637372,"DIS_CODE":0,"TOWNNAME":"安平區","LI":"育平里","LIN":"28鄰","STREET":"郡平路","SECT":" ","MAREA":" ","LANE":" ","ALLEY":" ","HOUSE_NO":"１８１號地下壹樓","E_COORD97":164638.45000000001,"N_COORD97":2543300.3100000001,"ADDRESS":"郡平路１８１號地下壹樓","OBJECTID":637345},"geometry":{"x":164638.45000000019,"y":2543300.3099999987}},{"attributes":{"ID":637373,"DIS_CODE":0,"TOWNNAME":"安平區","LI":"平通里","LIN":"4鄰","STREET":"慶平路","SECT":" ","MAREA":" ","LANE":" ","ALLEY":" ","HOUSE_NO":"５３９號七樓之１４","E_COORD97":165071.10999999999,"N_COORD97":2544210.6600000001,"ADDRESS":"慶平路５３９號七樓之１４","OBJECTID":637346},"geometry":{"x":165071.11000000034,"y":2544210.660000002}},{"attributes":{"ID":637374,"DIS_CODE":0,"TOWNNAME":"安平區","LI":"平通里","LIN":"4鄰","STREET":"慶平路","SECT":" ","MAREA":" ","LANE":" ","ALLEY":" ","HOUSE_NO":"５３９號七樓之１５","E_COORD97":165071.10999999999,"N_COORD97":2544210.6600000001,"ADDRESS":"慶平路５３９號七樓之１５","OBJECTID":637347},"geometry":{"x":165071.11000000034,"y":2544210.660000002}},{"attributes":{"ID":637375,"DIS_CODE":0,"TOWNNAME":"佳里區","LI":"安西里","LIN":"56鄰","STREET":"佳安中街","SECT":" ","MAREA":" ","LANE":" ","ALLEY":" ","HOUSE_NO":"５號","E_COORD97":163949.97,"N_COORD97":2562279.4199999999,"ADDRESS":"佳安中街５號","OBJECTID":637348},"geometry":{"x":163949.97000000067,"y":2562279.4200000018}},{"attributes":{"ID":637376,"DIS_CODE":0,"TOWNNAME":"安平區","LI":"平通里","LIN":"4鄰","STREET":"慶平路","SECT":" ","MAREA":" ","LANE":" ","ALLEY":" ","HOUSE_NO":"５３９號七樓之１６","E_COORD97":165071.10999999999,"N_COORD97":2544210.6600000001,"ADDRESS":"慶平路５３９號七樓之１６","OBJECTID":637349},"geometry":{"x":165071.11000000034,"y":2544210.660000002}},{"attributes":{"ID":637377,"DIS_CODE":0,"TOWNNAME":"安平區","LI":"平通里","LIN":"4鄰","STREET":"慶平路","SECT":" ","MAREA":" ","LANE":" ","ALLEY":" ","HOUSE_NO":"５３９號七樓之１７","E_COORD97":165071.10999999999,"N_COORD97":2544210.6600000001,"ADDRESS":"慶平路５３９號七樓之１７","OBJECTID":637350},"geometry":{"x":165071.11000000034,"y":2544210.660000002}},{"attributes":{"ID":637378,"DIS_CODE":0,"TOWNNAME":"安平區","LI":"育平里","LIN":"32鄰","STREET":"府平路","SECT":" ","MAREA":" ","LANE":" ","ALLEY":" ","HOUSE_NO":"３６６號九樓之１１","E_COORD97":164666.82999999999,"N_COORD97":2543113.0099999998,"ADDRESS":"府平路３６６號九樓之１１","OBJECTID":637351},"geometry":{"x":164666.83000000101,"y":2543113.0100000016}},{"attributes":{"ID":637379,"DIS_CODE":0,"TOWNNAME":"安平區","LI":"育平里","LIN":"32鄰","STREET":"府平路","SECT":" ","MAREA":" ","LANE":" ","ALLEY":" ","HOUSE_NO":"３６６號九樓之２","E_COORD97":164666.82999999999,"N_COORD97":2543113.0099999998,"ADDRESS":"府平路３６６號九樓之２","OBJECTID":637352},"geometry":{"x":164666.83000000101,"y":2543113.0100000016}},{"attributes":{"ID":637380,"DIS_CODE":0,"TOWNNAME":"安平區","LI":"育平里","LIN":"32鄰","STREET":"府平路","SECT":" ","MAREA":" ","LANE":" ","ALLEY":" ","HOUSE_NO":"３６６號九樓之３","E_COORD97":164666.82999999999,"N_COORD97":2543113.0099999998,"ADDRESS":"府平路３６６號九樓之３","OBJECTID":637353},"geometry":{"x":164666.83000000101,"y":2543113.0100000016}},{"attributes":{"ID":637381,"DIS_CODE":0,"TOWNNAME":"安平區","LI":"育平里","LIN":"32鄰","STREET":"府平路","SECT":" ","MAREA":" ","LANE":" ","ALLEY":" ","HOUSE_NO":"３６６號九樓之４","E_COORD97":164666.82999999999,"N_COORD97":2543113.0099999998,"ADDRESS":"府平路３６６號九樓之４","OBJECTID":637354},"geometry":{"x":164666.83000000101,"y":2543113.0100000016}},{"attributes":{"ID":637382,"DIS_CODE":0,"TOWNNAME":"安平區","LI":"育平里","LIN":"32鄰","STREET":"府平路","SECT":" ","MAREA":" ","LANE":" ","ALLEY":" ","HOUSE_NO":"３６６號九樓之５","E_COORD97":164666.82999999999,"N_COORD97":2543113.0099999998,"ADDRESS":"府平路３６６號九樓之５","OBJECTID":637355},"geometry":{"x":164666.83000000101,"y":2543113.0100000016}},{"attributes":{"ID":637383,"DIS_CODE":0,"TOWNNAME":"安平區","LI":"育平里","LIN":"32鄰","STREET":"府平路","SECT":" ","MAREA":" ","LANE":" ","ALLEY":" ","HOUSE_NO":"３６６號九樓之６","E_COORD97":164666.82999999999,"N_COORD97":2543113.0099999998,"ADDRESS":"府平路３６６號九樓之６","OBJECTID":637356},"geometry":{"x":164666.83000000101,"y":2543113.0100000016}},{"attributes":{"ID":637384,"DIS_CODE":0,"TOWNNAME":"安平區","LI":"石門里","LIN":"17鄰","STREET":"\u25A0忠街","SECT":" ","MAREA":" ","LANE":" ","ALLEY":" ","HOUSE_NO":"１２之１號二樓","E_COORD97":164399.92000000001,"N_COORD97":2544603.1099999999,"ADDRESS":"\u25A0忠街１２之１號二樓","OBJECTID":637357},"geometry":{"x":164399.92000000086,"y":2544603.1100000013}},{"attributes":{"ID":637385,"DIS_CODE":0,"TOWNNAME":"安平區","LI":"石門里","LIN":"17鄰","STREET":"\u25A0忠街","SECT":" ","MAREA":" ","LANE":" ","ALLEY":" ","HOUSE_NO":"１２之１號三樓","E_COORD97":164399.92000000001,"N_COORD97":2544603.1099999999,"ADDRESS":"\u25A0忠街１２之１號三樓","OBJECTID":637358},"geometry":{"x":164399.92000000086,"y":2544603.1100000013}},{"attributes":{"ID":637386,"DIS_CODE":0,"TOWNNAME":"安平區","LI":"石門里","LIN":"17鄰","STREET":"\u25A0忠街","SECT":" ","MAREA":" ","LANE":" ","ALLEY":" ","HOUSE_NO":"１２之１號五樓","E_COORD97":164399.92000000001,"N_COORD97":2544603.1099999999,"ADDRESS":"\u25A0忠街１２之１號五樓","OBJECTID":637359},"geometry":{"x":164399.92000000086,"y":2544603.1100000013}},{"attributes":{"ID":637387,"DIS_CODE":0,"TOWNNAME":"安平區","LI":"石門里","LIN":"17鄰","STREET":"\u25A0忠街","SECT":" ","MAREA":" ","LANE":" ","ALLEY":" ","HOUSE_NO":"１２之１號四樓","E_COORD97":164399.92000000001,"N_COORD97":2544603.1099999999,"ADDRESS":"\u25A0忠街１２之１號四樓","OBJECTID":637360},"geometry":{"x":164399.92000000086,"y":2544603.1100000013}},{"attributes":{"ID":637388,"DIS_CODE":0,"TOWNNAME":"歸仁區","LI":"南興里","LIN":"32鄰","STREET":"文化九街","SECT":" ","MAREA":" ","LANE":" ","ALLEY":" ","HOUSE_NO":"４５號四樓","E_COORD97":176367.23999999999,"N_COORD97":2541119.3300000001,"ADDRESS":"文化九街４５號四樓","OBJECTID":637361},"geometry":{"x":176367.24000000022,"y":2541119.3300000001}},{"attributes":{"ID":637389,"DIS_CODE":0,"TOWNNAME":"歸仁區","LI":"南興里","LIN":"32鄰","STREET":"文化九街","SECT":" ","MAREA":" ","LANE":" ","ALLEY":" ","HOUSE_NO":"４５號二樓","E_COORD97":176367.23999999999,"N_COORD97":2541119.3300000001,"ADDRESS":"文化九街４５號二樓","OBJECTID":637362},"geometry":{"x":176367.24000000022,"y":2541119.3300000001}},{"attributes":{"ID":637390,"DIS_CODE":0,"TOWNNAME":"麻豆區","LI":"新建里","LIN":"7鄰","STREET":"新生南路","SECT":" ","MAREA":" ","LANE":" ","ALLEY":" ","HOUSE_NO":"２１號三樓","E_COORD97":172334.76000000001,"N_COORD97":2564864.1099999999,"ADDRESS":"新生南路２１號三樓","OBJECTID":637363},"geometry":{"x":172334.76000000071,"y":2564864.1100000013}},{"attributes":{"ID":637391,"DIS_CODE":0,"TOWNNAME":"麻豆區","LI":"新建里","LIN":"7鄰","STREET":"新生南路","SECT":" ","MAREA":" ","LANE":" ","ALLEY":" ","HOUSE_NO":"１３號二樓","E_COORD97":172338.04999999999,"N_COORD97":2564890.27,"ADDRESS":"新生南路１３號二樓","OBJECTID":637364},"geometry":{"x":172338.04999999981,"y":2564890.2700000014}},{"attributes":{"ID":637392,"DIS_CODE":0,"TOWNNAME":"麻豆區","LI":"新建里","LIN":"7鄰","STREET":"新生南路","SECT":" ","MAREA":" ","LANE":" ","ALLEY":" ","HOUSE_NO":"１３號三樓","E_COORD97":172338.04999999999,"N_COORD97":2564890.27,"ADDRESS":"新生南路１３號三樓","OBJECTID":637365},"geometry":{"x":172338.04999999981,"y":2564890.2700000014}},{"attributes":{"ID":637393,"DIS_CODE":0,"TOWNNAME":"麻豆區","LI":"新建里","LIN":"7鄰","STREET":"新生南路","SECT":" ","MAREA":" ","LANE":" ","ALLEY":" ","HOUSE_NO":"１３號五樓","E_COORD97":172338.04999999999,"N_COORD97":2564890.27,"ADDRESS":"新生南路１３號五樓","OBJECTID":637366},"geometry":{"x":172338.04999999981,"y":2564890.2700000014}},{"attributes":{"ID":637394,"DIS_CODE":0,"TOWNNAME":"麻豆區","LI":"新建里","LIN":"7鄰","STREET":"新生南路","SECT":" ","MAREA":" ","LANE":" ","ALLEY":" ","HOUSE_NO":"１３號四樓","E_COORD97":172338.04999999999,"N_COORD97":2564890.27,"ADDRESS":"新生南路１３號四樓","OBJECTID":637367},"geometry":{"x":172338.04999999981,"y":2564890.2700000014}},{"attributes":{"ID":637395,"DIS_CODE":0,"TOWNNAME":"麻豆區","LI":"新建里","LIN":"10鄰","STREET":"麻學路","SECT":"一段","MAREA":" ","LANE":" ","ALLEY":" ","HOUSE_NO":"５號五樓","E_COORD97":172246.32999999999,"N_COORD97":2565016.3900000001,"ADDRESS":"麻學路一段５號五樓","OBJECTID":637368},"geometry":{"x":172246.33000000101,"y":2565016.3900000025}},{"attributes":{"ID":637396,"DIS_CODE":0,"TOWNNAME":"麻豆區","LI":"新建里","LIN":"10鄰","STREET":"麻學路","SECT":"一段","MAREA":" ","LANE":" ","ALLEY":" ","HOUSE_NO":"５號六樓","E_COORD97":172246.32999999999,"N_COORD97":2565016.3900000001,"ADDRESS":"麻學路一段５號六樓","OBJECTID":637369},"geometry":{"x":172246.33000000101,"y":2565016.3900000025}},{"attributes":{"ID":637397,"DIS_CODE":0,"TOWNNAME":"麻豆區","LI":"新建里","LIN":"10鄰","STREET":"麻學路","SECT":"一段","MAREA":" ","LANE":" ","ALLEY":" ","HOUSE_NO":"５號四樓","E_COORD97":172246.32999999999,"N_COORD97":2565016.3900000001,"ADDRESS":"麻學路一段５號四樓","OBJECTID":637370},"geometry":{"x":172246.33000000101,"y":2565016.3900000025}},{"attributes":{"ID":637398,"DIS_CODE":0,"TOWNNAME":"麻豆區","LI":"新建里","LIN":"10鄰","STREET":"麻學路","SECT":"一段","MAREA":" ","LANE":" ","ALLEY":" ","HOUSE_NO":"９號七樓","E_COORD97":172238.85000000001,"N_COORD97":2565022,"ADDRESS":"麻學路一段９號七樓","OBJECTID":637371},"geometry":{"x":172238.85000000056,"y":2565022.0000000019}},{"attributes":{"ID":637399,"DIS_CODE":0,"TOWNNAME":"麻豆區","LI":"新建里","LIN":"10鄰","STREET":"麻學路","SECT":"一段","MAREA":" ","LANE":" ","ALLEY":" ","HOUSE_NO":"９號九樓","E_COORD97":172238.85000000001,"N_COORD97":2565022,"ADDRESS":"麻學路一段９號九樓","OBJECTID":637372},"geometry":{"x":172238.85000000056,"y":2565022.0000000019}},{"attributes":{"ID":637400,"DIS_CODE":0,"TOWNNAME":"麻豆區","LI":"新建里","LIN":"10鄰","STREET":"麻學路","SECT":"一段","MAREA":" ","LANE":" ","ALLEY":" ","HOUSE_NO":"９號八樓","E_COORD97":172238.85000000001,"N_COORD97":2565022,"ADDRESS":"麻學路一段９號八樓","OBJECTID":637373},"geometry":{"x":172238.85000000056,"y":2565022.0000000019}},{"attributes":{"ID":637401,"DIS_CODE":0,"TOWNNAME":"麻豆區","LI":"新建里","LIN":"10鄰","STREET":"麻學路","SECT":"一段","MAREA":" ","LANE":" ","ALLEY":" ","HOUSE_NO":"９號十一樓","E_COORD97":172238.85000000001,"N_COORD97":2565022,"ADDRESS":"麻學路一段９號十一樓","OBJECTID":637374},"geometry":{"x":172238.85000000056,"y":2565022.0000000019}},{"attributes":{"ID":637402,"DIS_CODE":0,"TOWNNAME":"麻豆區","LI":"新建里","LIN":"10鄰","STREET":"麻學路","SECT":"一段","MAREA":" ","LANE":" ","ALLEY":" ","HOUSE_NO":"９號十二樓","E_COORD97":172238.85000000001,"N_COORD97":2565022,"ADDRESS":"麻學路一段９號十二樓","OBJECTID":637375},"geometry":{"x":172238.85000000056,"y":2565022.0000000019}},{"attributes":{"ID":637403,"DIS_CODE":0,"TOWNNAME":"麻豆區","LI":"新建里","LIN":"10鄰","STREET":"麻學路","SECT":"一段","MAREA":" ","LANE":" ","ALLEY":" ","HOUSE_NO":"９號十樓","E_COORD97":172238.85000000001,"N_COORD97":2565022,"ADDRESS":"麻學路一段９號十樓","OBJECTID":637376},"geometry":{"x":172238.85000000056,"y":2565022.0000000019}},{"attributes":{"ID":637404,"DIS_CODE":0,"TOWNNAME":"麻豆區","LI":"新建里","LIN":"10鄰","STREET":"麻學路","SECT":"一段","MAREA":" ","LANE":" ","ALLEY":" ","HOUSE_NO":"９號五樓","E_COORD97":172238.85000000001,"N_COORD97":2565022,"ADDRESS":"麻學路一段９號五樓","OBJECTID":637377},"geometry":{"x":172238.85000000056,"y":2565022.0000000019}},{"attributes":{"ID":637405,"DIS_CODE":0,"TOWNNAME":"麻豆區","LI":"新建里","LIN":"10鄰","STREET":"麻學路","SECT":"一段","MAREA":" ","LANE":" ","ALLEY":" ","HOUSE_NO":"９號六樓","E_COORD97":172238.85000000001,"N_COORD97":2565022,"ADDRESS":"麻學路一段９號六樓","OBJECTID":637378},"geometry":{"x":172238.85000000056,"y":2565022.0000000019}},{"attributes":{"ID":637406,"DIS_CODE":0,"TOWNNAME":"麻豆區","LI":"新建里","LIN":"10鄰","STREET":"麻學路","SECT":"一段","MAREA":" ","LANE":" ","ALLEY":" ","HOUSE_NO":"９號四樓","E_COORD97":172238.85000000001,"N_COORD97":2565022,"ADDRESS":"麻學路一段９號四樓","OBJECTID":637379},"geometry":{"x":172238.85000000056,"y":2565022.0000000019}},{"attributes":{"ID":637407,"DIS_CODE":0,"TOWNNAME":"麻豆區","LI":"油車里","LIN":"5鄰","STREET":"新興街","SECT":" ","MAREA":" ","LANE":" ","ALLEY":" ","HOUSE_NO":"１６號二樓之７","E_COORD97":172576.04999999999,"N_COORD97":2565294.5499999998,"ADDRESS":"新興街１６號二樓之７","OBJECTID":637380},"geometry":{"x":172576.04999999888,"y":2565294.5500000007}},{"attributes":{"ID":637408,"DIS_CODE":0,"TOWNNAME":"麻豆區","LI":"油車里","LIN":"5鄰","STREET":"新興街","SECT":" ","MAREA":" ","LANE":" ","ALLEY":" ","HOUSE_NO":"１６號二樓之８","E_COORD97":172576.04999999999,"N_COORD97":2565294.5499999998,"ADDRESS":"新興街１６號二樓之８","OBJECTID":637381},"geometry":{"x":172576.04999999888,"y":2565294.5500000007}},{"attributes":{"ID":637409,"DIS_CODE":0,"TOWNNAME":"歸仁區","LI":"南保里","LIN":"56鄰","STREET":"民權南路","SECT":" ","MAREA":" ","LANE":" ","ALLEY":" ","HOUSE_NO":"１６４號二樓之２","E_COORD97":176933.51000000001,"N_COORD97":2540441.2999999998,"ADDRESS":"民權南路１６４號二樓之２","OBJECTID":637382},"geometry":{"x":176933.51000000071,"y":2540441.3000000007}},{"attributes":{"ID":637410,"DIS_CODE":0,"TOWNNAME":"歸仁區","LI":"後市里","LIN":"31鄰","STREET":"民族北街","SECT":" ","MAREA":" ","LANE":" ","ALLEY":" ","HOUSE_NO":"４７號六樓之５","E_COORD97":177417.79000000001,"N_COORD97":2540947.75,"ADDRESS":"民族北街４７號六樓之５","OBJECTID":637383},"geometry":{"x":177417.79000000004,"y":2540947.7500000037}},{"attributes":{"ID":637411,"DIS_CODE":0,"TOWNNAME":"歸仁區","LI":"南保里","LIN":"23鄰","STREET":"民權六街","SECT":" ","MAREA":" ","LANE":" ","ALLEY":" ","HOUSE_NO":"６０號三樓之２","E_COORD97":176839.16,"N_COORD97":2541119.2999999998,"ADDRESS":"民權六街６０號三樓之２","OBJECTID":637384},"geometry":{"x":176839.16000000201,"y":2541119.3000000007}},{"attributes":{"ID":637412,"DIS_CODE":0,"TOWNNAME":"歸仁區","LI":"南保里","LIN":"23鄰","STREET":"民權六街","SECT":" ","MAREA":" ","LANE":" ","ALLEY":" ","HOUSE_NO":"６０號五樓之１０","E_COORD97":176840.32999999999,"N_COORD97":2541119.2999999998,"ADDRESS":"民權六街６０號五樓之１０","OBJECTID":637385},"geometry":{"x":176840.33000000101,"y":2541119.3000000007}},{"attributes":{"ID":637413,"DIS_CODE":0,"TOWNNAME":"歸仁區","LI":"南保里","LIN":"23鄰","STREET":"民權六街","SECT":" ","MAREA":" ","LANE":" ","ALLEY":" ","HOUSE_NO":"６０號六樓之５","E_COORD97":176839.17999999999,"N_COORD97":2541119.2999999998,"ADDRESS":"民權六街６０號六樓之５","OBJECTID":637386},"geometry":{"x":176839.18000000063,"y":2541119.3000000007}},{"attributes":{"ID":637414,"DIS_CODE":0,"TOWNNAME":"歸仁區","LI":"南保里","LIN":"23鄰","STREET":"民權六街","SECT":" ","MAREA":" ","LANE":" ","ALLEY":" ","HOUSE_NO":"６０號五樓之７","E_COORD97":176839.10000000001,"N_COORD97":2541119.2999999998,"ADDRESS":"民權六街６０號五樓之７","OBJECTID":637387},"geometry":{"x":176839.10000000149,"y":2541119.3000000007}},{"attributes":{"ID":637415,"DIS_CODE":0,"TOWNNAME":"歸仁區","LI":"南保里","LIN":"23鄰","STREET":"民權六街","SECT":" ","MAREA":" ","LANE":" ","ALLEY":" ","HOUSE_NO":"６０號六樓之４","E_COORD97":176839.04999999999,"N_COORD97":2541119.2999999998,"ADDRESS":"民權六街６０號六樓之４","OBJECTID":637388},"geometry":{"x":176839.04999999981,"y":2541119.3000000007}},{"attributes":{"ID":637416,"DIS_CODE":0,"TOWNNAME":"歸仁區","LI":"後市里","LIN":"13鄰","STREET":"中山路","SECT":"二段","MAREA":" ","LANE":" ","ALLEY":" ","HOUSE_NO":"２２３號五樓","E_COORD97":177091.98999999999,"N_COORD97":2540825.25,"ADDRESS":"中山路二段２２３號五樓","OBJECTID":637389},"geometry":{"x":177091.99000000115,"y":2540825.2499999981}},{"attributes":{"ID":637417,"DIS_CODE":0,"TOWNNAME":"歸仁區","LI":"文化里","LIN":"24鄰","STREET":"大德路","SECT":" ","MAREA":" ","LANE":" ","ALLEY":" ","HOUSE_NO":"２５３號九樓之２","E_COORD97":177107.92000000001,"N_COORD97":2541521.3399999999,"ADDRESS":"大德路２５３號九樓之２","OBJECTID":637390},"geometry":{"x":177107.91999999993,"y":2541521.3400000017}},{"attributes":{"ID":637418,"DIS_CODE":0,"TOWNNAME":"歸仁區","LI":"許厝里","LIN":"17鄰","STREET":"忠孝北路","SECT":" ","MAREA":" ","LANE":" ","ALLEY":" ","HOUSE_NO":"２９號五樓","E_COORD97":178444.22,"N_COORD97":2540724.25,"ADDRESS":"忠孝北路２９號五樓","OBJECTID":637391},"geometry":{"x":178444.22000000067,"y":2540724.2500000019}},{"attributes":{"ID":637419,"DIS_CODE":0,"TOWNNAME":"歸仁區","LI":"許厝里","LIN":"17鄰","STREET":"忠孝北路","SECT":" ","MAREA":" ","LANE":" ","ALLEY":" ","HOUSE_NO":"３３號三樓","E_COORD97":178444.22,"N_COORD97":2540724.25,"ADDRESS":"忠孝北路３３號三樓","OBJECTID":637392},"geometry":{"x":178444.22000000067,"y":2540724.2500000019}},{"attributes":{"ID":637420,"DIS_CODE":0,"TOWNNAME":"歸仁區","LI":"南保里","LIN":"56鄰","STREET":"民權南路","SECT":" ","MAREA":" ","LANE":" ","ALLEY":" ","HOUSE_NO":"１７０號一樓","E_COORD97":176953.64000000001,"N_COORD97":2540421.29,"ADDRESS":"民權南路１７０號一樓","OBJECTID":637393},"geometry":{"x":176953.63999999966,"y":2540421.290000001}},{"attributes":{"ID":637421,"DIS_CODE":0,"TOWNNAME":"歸仁區","LI":"南保里","LIN":"56鄰","STREET":"民權南路","SECT":" ","MAREA":" ","LANE":" ","ALLEY":" ","HOUSE_NO":"１６４號五樓之１","E_COORD97":176933.37,"N_COORD97":2540441.2999999998,"ADDRESS":"民權南路１６４號五樓之１","OBJECTID":637394},"geometry":{"x":176933.37000000104,"y":2540441.3000000007}},{"attributes":{"ID":637422,"DIS_CODE":0,"TOWNNAME":"歸仁區","LI":"文化里","LIN":"20鄰","STREET":"大德路","SECT":" ","MAREA":" ","LANE":" ","ALLEY":" ","HOUSE_NO":"２１１號三樓之１","E_COORD97":177223.60000000001,"N_COORD97":2541515.3399999999,"ADDRESS":"大德路２１１號三樓之１","OBJECTID":637395},"geometry":{"x":177223.59999999963,"y":2541515.3399999999}},{"attributes":{"ID":637423,"DIS_CODE":0,"TOWNNAME":"歸仁區","LI":"歸仁里","LIN":"4鄰","STREET":"和平三街","SECT":" ","MAREA":" ","LANE":" ","ALLEY":" ","HOUSE_NO":"６號四樓","E_COORD97":177823.94,"N_COORD97":2541007.04,"ADDRESS":"和平三街６號四樓","OBJECTID":637396},"geometry":{"x":177823.94000000041,"y":2541007.040000001}},{"attributes":{"ID":637424,"DIS_CODE":0,"TOWNNAME":"歸仁區","LI":"文化里","LIN":"20鄰","STREET":"大德路","SECT":" ","MAREA":" ","LANE":" ","ALLEY":" ","HOUSE_NO":"２１１號四樓之２","E_COORD97":177223.62,"N_COORD97":2541515.3399999999,"ADDRESS":"大德路２１１號四樓之２","OBJECTID":637397},"geometry":{"x":177223.62000000011,"y":2541515.3399999999}},{"attributes":{"ID":637425,"DIS_CODE":0,"TOWNNAME":"歸仁區","LI":"文化里","LIN":"20鄰","STREET":"大德路","SECT":" ","MAREA":" ","LANE":" ","ALLEY":" ","HOUSE_NO":"２１１號二樓之２","E_COORD97":177223.62,"N_COORD97":2541515.3399999999,"ADDRESS":"大德路２１１號二樓之２","OBJECTID":637398},"geometry":{"x":177223.62000000011,"y":2541515.3399999999}},{"attributes":{"ID":637426,"DIS_CODE":0,"TOWNNAME":"歸仁區","LI":"文化里","LIN":"20鄰","STREET":"大德路","SECT":" ","MAREA":" ","LANE":" ","ALLEY":" ","HOUSE_NO":"２１１號四樓之１１","E_COORD97":177223.85000000001,"N_COORD97":2541515.3399999999,"ADDRESS":"大德路２１１號四樓之１１","OBJECTID":637399},"geometry":{"x":177223.85000000149,"y":2541515.3399999999}},{"attributes":{"ID":637427,"DIS_CODE":0,"TOWNNAME":"歸仁區","LI":"文化里","LIN":"20鄰","STREET":"大德路","SECT":" ","MAREA":" ","LANE":" ","ALLEY":" ","HOUSE_NO":"２１１號四樓之１４","E_COORD97":177223.85000000001,"N_COORD97":2541515.3399999999,"ADDRESS":"大德路２１１號四樓之１４","OBJECTID":637400},"geometry":{"x":177223.85000000149,"y":2541515.3399999999}}]}