{"displayFieldName":"TOWNNAME","fieldAliases":{"ID":"ID","DIS_CODE":"DIS_CODE","TOWNNAME":"TOWNNAME","LI":"LI","LIN":"LIN","STREET":"STREET","SECT":"SECT","MAREA":"MAREA","LANE":"LANE","ALLEY":"ALLEY","HOUSE_NO":"HOUSE_NO","E_COORD97":"E_COORD97","N_COORD97":"N_COORD97","ADDRESS":"ADDRESS","OBJECTID":"OBJECTID"},"geometryType":"esriGeometryPoint","spatialReference":{"wkid":102443,"latestWkid":3826},"fields":[{"name":"ID","type":"esriFieldTypeDouble","alias":"ID"},{"name":"DIS_CODE","type":"esriFieldTypeInteger","alias":"DIS_CODE"},{"name":"TOWNNAME","type":"esriFieldTypeString","alias":"TOWNNAME","length":8},{"name":"LI","type":"esriFieldTypeString","alias":"LI","length":8},{"name":"LIN","type":"esriFieldTypeString","alias":"LIN","length":12},{"name":"STREET","type":"esriFieldTypeString","alias":"STREET","length":20},{"name":"SECT","type":"esriFieldTypeString","alias":"SECT","length":8},{"name":"MAREA","type":"esriFieldTypeString","alias":"MAREA","length":12},{"name":"LANE","type":"esriFieldTypeString","alias":"LANE","length":10},{"name":"ALLEY","type":"esriFieldTypeString","alias":"ALLEY","length":10},{"name":"HOUSE_NO","type":"esriFieldTypeString","alias":"HOUSE_NO","length":20},{"name":"E_COORD97","type":"esriFieldTypeDouble","alias":"E_COORD97"},{"name":"N_COORD97","type":"esriFieldTypeDouble","alias":"N_COORD97"},{"name":"ADDRESS","type":"esriFieldTypeString","alias":"ADDRESS","length":50},{"name":"OBJECTID","type":"esriFieldTypeOID","alias":"OBJECTID"}],"features":[{"attributes":{"ID":438226,"DIS_CODE":0,"TOWNNAME":"仁德區","LI":"大甲里","LIN":"20鄰","STREET":"中正西路","SECT":" ","MAREA":" ","LANE":"４９５巷","ALLEY":" ","HOUSE_NO":"１８號","E_COORD97":169390.23000000001,"N_COORD97":2535405.7400000002,"ADDRESS":"中正西路４９５巷１８號","OBJECTID":438201},"geometry":{"x":169390.23000000045,"y":2535405.7400000021}},{"attributes":{"ID":438227,"DIS_CODE":0,"TOWNNAME":"仁德區","LI":"成功里","LIN":"25鄰","STREET":"成功一街","SECT":" ","MAREA":" ","LANE":"７０巷","ALLEY":" ","HOUSE_NO":"３號","E_COORD97":170516.48999999999,"N_COORD97":2539894.77,"ADDRESS":"成功一街７０巷３號","OBJECTID":438202},"geometry":{"x":170516.49000000115,"y":2539894.7699999996}},{"attributes":{"ID":438228,"DIS_CODE":0,"TOWNNAME":"仁德區","LI":"仁義里","LIN":"18鄰","STREET":"正義路","SECT":" ","MAREA":" ","LANE":"２０５巷","ALLEY":" ","HOUSE_NO":"３１號","E_COORD97":174016.01000000001,"N_COORD97":2541427.2599999998,"ADDRESS":"正義路２０５巷３１號","OBJECTID":438203},"geometry":{"x":174016.01000000071,"y":2541427.2599999998}},{"attributes":{"ID":438229,"DIS_CODE":0,"TOWNNAME":"仁德區","LI":"新田里","LIN":"18鄰","STREET":"民安路","SECT":"二段","MAREA":" ","LANE":"２１３巷","ALLEY":" ","HOUSE_NO":"６號","E_COORD97":173817.17999999999,"N_COORD97":2538981.8199999998,"ADDRESS":"民安路二段２１３巷６號","OBJECTID":438204},"geometry":{"x":173817.1799999997,"y":2538981.8200000022}},{"attributes":{"ID":438230,"DIS_CODE":0,"TOWNNAME":"仁德區","LI":"上崙里","LIN":"26鄰","STREET":"中正路","SECT":"一段","MAREA":" ","LANE":"７６６巷","ALLEY":" ","HOUSE_NO":"４６號","E_COORD97":172992.98000000001,"N_COORD97":2537687.77,"ADDRESS":"中正路一段７６６巷４６號","OBJECTID":438205},"geometry":{"x":172992.98000000138,"y":2537687.7699999996}},{"attributes":{"ID":438231,"DIS_CODE":0,"TOWNNAME":"仁德區","LI":"太子里","LIN":"32鄰","STREET":"太子路","SECT":" ","MAREA":" ","LANE":"４９５巷","ALLEY":" ","HOUSE_NO":"４號","E_COORD97":174012.34,"N_COORD97":2543471.75,"ADDRESS":"太子路４９５巷４號","OBJECTID":438206},"geometry":{"x":174012.34000000078,"y":2543471.75}},{"attributes":{"ID":438232,"DIS_CODE":0,"TOWNNAME":"仁德區","LI":"仁義里","LIN":"4鄰","STREET":"仁義三街","SECT":" ","MAREA":" ","LANE":"１９８巷","ALLEY":" ","HOUSE_NO":"１號","E_COORD97":173842.92999999999,"N_COORD97":2541095.2599999998,"ADDRESS":"仁義三街１９８巷１號","OBJECTID":438207},"geometry":{"x":173842.9299999997,"y":2541095.2599999998}},{"attributes":{"ID":438233,"DIS_CODE":0,"TOWNNAME":"仁德區","LI":"二行里","LIN":"4鄰","STREET":"二行一路","SECT":" ","MAREA":" ","LANE":"８３巷","ALLEY":" ","HOUSE_NO":"５０號","E_COORD97":170285.98000000001,"N_COORD97":2535376.7400000002,"ADDRESS":"二行一路８３巷５０號","OBJECTID":438208},"geometry":{"x":170285.98000000138,"y":2535376.7400000002}},{"attributes":{"ID":438234,"DIS_CODE":0,"TOWNNAME":"仁德區","LI":"成功里","LIN":"4鄰","STREET":"成功三街","SECT":" ","MAREA":" ","LANE":"８１巷","ALLEY":" ","HOUSE_NO":"６號","E_COORD97":171209.45999999999,"N_COORD97":2539826.52,"ADDRESS":"成功三街８１巷６號","OBJECTID":438209},"geometry":{"x":171209.46000000089,"y":2539826.5200000033}},{"attributes":{"ID":438235,"DIS_CODE":0,"TOWNNAME":"仁德區","LI":"太子里","LIN":"47鄰","STREET":"太子路","SECT":" ","MAREA":" ","LANE":"９巷","ALLEY":" ","HOUSE_NO":"７２號","E_COORD97":175425.67000000001,"N_COORD97":2543407.5099999998,"ADDRESS":"太子路９巷７２號","OBJECTID":438210},"geometry":{"x":175425.67000000086,"y":2543407.5100000016}},{"attributes":{"ID":438236,"DIS_CODE":0,"TOWNNAME":"仁德區","LI":"後壁里","LIN":"14鄰","STREET":"德南路","SECT":" ","MAREA":" ","LANE":"１３７巷","ALLEY":" ","HOUSE_NO":"４３號","E_COORD97":173592.39000000001,"N_COORD97":2538700.7599999998,"ADDRESS":"德南路１３７巷４３號","OBJECTID":438211},"geometry":{"x":173592.38999999966,"y":2538700.7600000016}},{"attributes":{"ID":438237,"DIS_CODE":0,"TOWNNAME":"仁德區","LI":"成功里","LIN":"8鄰","STREET":"保華路","SECT":" ","MAREA":" ","LANE":"１４５巷","ALLEY":" ","HOUSE_NO":"２０號","E_COORD97":171054.76000000001,"N_COORD97":2539996,"ADDRESS":"保華路１４５巷２０號","OBJECTID":438212},"geometry":{"x":171054.76000000071,"y":2539996}},{"attributes":{"ID":438238,"DIS_CODE":0,"TOWNNAME":"仁德區","LI":"保安里","LIN":"15鄰","STREET":"文賢路","SECT":"二段","MAREA":" ","LANE":"３６巷","ALLEY":" ","HOUSE_NO":"４號","E_COORD97":171723.17999999999,"N_COORD97":2535781.0800000001,"ADDRESS":"文賢路二段３６巷４號","OBJECTID":438213},"geometry":{"x":171723.18000000063,"y":2535781.0800000001}},{"attributes":{"ID":438239,"DIS_CODE":0,"TOWNNAME":"仁德區","LI":"後壁里","LIN":"33鄰","STREET":"德洋二街","SECT":" ","MAREA":" ","LANE":"３９巷","ALLEY":" ","HOUSE_NO":"６７號","E_COORD97":172209.72,"N_COORD97":2539425.6600000001,"ADDRESS":"德洋二街３９巷６７號","OBJECTID":438214},"geometry":{"x":172209.71999999974,"y":2539425.6600000001}},{"attributes":{"ID":438240,"DIS_CODE":0,"TOWNNAME":"佳里區","LI":"建南里","LIN":"13鄰","STREET":"新生路","SECT":" ","MAREA":" ","LANE":"４４１巷","ALLEY":" ","HOUSE_NO":"１００號","E_COORD97":165195.62,"N_COORD97":2561806.9199999999,"ADDRESS":"新生路４４１巷１００號","OBJECTID":438215},"geometry":{"x":165195.62000000104,"y":2561806.9199999999}},{"attributes":{"ID":438241,"DIS_CODE":0,"TOWNNAME":"佳里區","LI":"建南里","LIN":"9鄰","STREET":"新生路","SECT":" ","MAREA":" ","LANE":"３１５巷","ALLEY":" ","HOUSE_NO":"８號","E_COORD97":165557.41,"N_COORD97":2562184.0699999998,"ADDRESS":"新生路３１５巷８號","OBJECTID":438216},"geometry":{"x":165557.41000000015,"y":2562184.0700000022}},{"attributes":{"ID":438242,"DIS_CODE":0,"TOWNNAME":"佳里區","LI":"建南里","LIN":"9鄰","STREET":"新生路","SECT":" ","MAREA":" ","LANE":"３１５巷","ALLEY":" ","HOUSE_NO":"９號","E_COORD97":165569.47,"N_COORD97":2562177.0299999998,"ADDRESS":"新生路３１５巷９號","OBJECTID":438217},"geometry":{"x":165569.47000000067,"y":2562177.0300000012}},{"attributes":{"ID":438243,"DIS_CODE":0,"TOWNNAME":"佳里區","LI":"東寧里","LIN":"18鄰","STREET":"義民街","SECT":" ","MAREA":" ","LANE":"２７巷","ALLEY":" ","HOUSE_NO":"１號","E_COORD97":166094.89999999999,"N_COORD97":2562433.0699999998,"ADDRESS":"義民街２７巷１號","OBJECTID":438218},"geometry":{"x":166094.90000000037,"y":2562433.0700000003}},{"attributes":{"ID":438244,"DIS_CODE":0,"TOWNNAME":"佳里區","LI":"東寧里","LIN":"18鄰","STREET":"義民街","SECT":" ","MAREA":" ","LANE":"２７巷","ALLEY":" ","HOUSE_NO":"４號","E_COORD97":166081.26999999999,"N_COORD97":2562424.27,"ADDRESS":"義民街２７巷４號","OBJECTID":438219},"geometry":{"x":166081.26999999955,"y":2562424.2699999996}},{"attributes":{"ID":438245,"DIS_CODE":0,"TOWNNAME":"佳里區","LI":"東寧里","LIN":"18鄰","STREET":"義民街","SECT":" ","MAREA":" ","LANE":"２７巷","ALLEY":" ","HOUSE_NO":"５號","E_COORD97":166082.29999999999,"N_COORD97":2562418.3700000001,"ADDRESS":"義民街２７巷５號","OBJECTID":438220},"geometry":{"x":166082.30000000075,"y":2562418.370000001}},{"attributes":{"ID":438246,"DIS_CODE":0,"TOWNNAME":"佳里區","LI":"忠仁里","LIN":"4鄰","STREET":"興中街","SECT":" ","MAREA":" ","LANE":"７１巷","ALLEY":" ","HOUSE_NO":"１０號","E_COORD97":165848.75,"N_COORD97":2562136.6499999999,"ADDRESS":"興中街７１巷１０號","OBJECTID":438221},"geometry":{"x":165848.75000000093,"y":2562136.6500000022}},{"attributes":{"ID":438247,"DIS_CODE":0,"TOWNNAME":"佳里區","LI":"忠仁里","LIN":"4鄰","STREET":"興中街","SECT":" ","MAREA":" ","LANE":"７１巷","ALLEY":" ","HOUSE_NO":"１１號","E_COORD97":165847.89999999999,"N_COORD97":2562140.2799999998,"ADDRESS":"興中街７１巷１１號","OBJECTID":438222},"geometry":{"x":165847.90000000224,"y":2562140.2800000012}},{"attributes":{"ID":438248,"DIS_CODE":0,"TOWNNAME":"佳里區","LI":"忠仁里","LIN":"4鄰","STREET":"興中街","SECT":" ","MAREA":" ","LANE":"７１巷","ALLEY":" ","HOUSE_NO":"１２號","E_COORD97":165847.20000000001,"N_COORD97":2562143.9900000002,"ADDRESS":"興中街７１巷１２號","OBJECTID":438223},"geometry":{"x":165847.20000000019,"y":2562143.9900000021}},{"attributes":{"ID":438249,"DIS_CODE":0,"TOWNNAME":"佳里區","LI":"忠仁里","LIN":"4鄰","STREET":"興中街","SECT":" ","MAREA":" ","LANE":"７１巷","ALLEY":" ","HOUSE_NO":"１３號","E_COORD97":165846.64000000001,"N_COORD97":2562148.2999999998,"ADDRESS":"興中街７１巷１３號","OBJECTID":438224},"geometry":{"x":165846.63999999966,"y":2562148.3000000026}},{"attributes":{"ID":438250,"DIS_CODE":0,"TOWNNAME":"佳里區","LI":"忠仁里","LIN":"4鄰","STREET":"興中街","SECT":" ","MAREA":" ","LANE":"７１巷","ALLEY":" ","HOUSE_NO":"１４號","E_COORD97":165845.94,"N_COORD97":2562152.3100000001,"ADDRESS":"興中街７１巷１４號","OBJECTID":438225},"geometry":{"x":165845.94000000227,"y":2562152.3100000024}},{"attributes":{"ID":438251,"DIS_CODE":0,"TOWNNAME":"佳里區","LI":"忠仁里","LIN":"4鄰","STREET":"興中街","SECT":" ","MAREA":" ","LANE":"７１巷","ALLEY":" ","HOUSE_NO":"１號","E_COORD97":165832.19,"N_COORD97":2562155.2599999998,"ADDRESS":"興中街７１巷１號","OBJECTID":438226},"geometry":{"x":165832.19000000041,"y":2562155.2600000016}},{"attributes":{"ID":438252,"DIS_CODE":0,"TOWNNAME":"佳里區","LI":"忠仁里","LIN":"4鄰","STREET":"興中街","SECT":" ","MAREA":" ","LANE":"７１巷","ALLEY":" ","HOUSE_NO":"２號","E_COORD97":165832.57000000001,"N_COORD97":2562151.9399999999,"ADDRESS":"興中街７１巷２號","OBJECTID":438227},"geometry":{"x":165832.5700000003,"y":2562151.9399999995}},{"attributes":{"ID":438253,"DIS_CODE":0,"TOWNNAME":"佳里區","LI":"忠仁里","LIN":"4鄰","STREET":"興中街","SECT":" ","MAREA":" ","LANE":"７１巷","ALLEY":" ","HOUSE_NO":"３號","E_COORD97":165833.20999999999,"N_COORD97":2562148.5,"ADDRESS":"興中街７１巷３號","OBJECTID":438228},"geometry":{"x":165833.20999999996,"y":2562148.5}},{"attributes":{"ID":438254,"DIS_CODE":0,"TOWNNAME":"將軍區","LI":"廣山里","LIN":"7鄰","STREET":" ","SECT":" ","MAREA":"廣山","LANE":" ","ALLEY":" ","HOUSE_NO":"６７號","E_COORD97":159609.28018900001,"N_COORD97":2568898.5813600002,"ADDRESS":"廣山６７號","OBJECTID":438229},"geometry":{"x":159609.28018900193,"y":2568898.581360003}},{"attributes":{"ID":438255,"DIS_CODE":0,"TOWNNAME":"佳里區","LI":"忠仁里","LIN":"4鄰","STREET":"興中街","SECT":" ","MAREA":" ","LANE":"７１巷","ALLEY":" ","HOUSE_NO":"４號","E_COORD97":165834.01000000001,"N_COORD97":2562145.4100000001,"ADDRESS":"興中街７１巷４號","OBJECTID":438230},"geometry":{"x":165834.00999999978,"y":2562145.4100000001}},{"attributes":{"ID":438256,"DIS_CODE":0,"TOWNNAME":"佳里區","LI":"忠仁里","LIN":"4鄰","STREET":"興中街","SECT":" ","MAREA":" ","LANE":"７１巷","ALLEY":" ","HOUSE_NO":"５號","E_COORD97":165834.47,"N_COORD97":2562142.1200000001,"ADDRESS":"興中街７１巷５號","OBJECTID":438231},"geometry":{"x":165834.46999999974,"y":2562142.120000001}},{"attributes":{"ID":438257,"DIS_CODE":0,"TOWNNAME":"佳里區","LI":"忠仁里","LIN":"4鄰","STREET":"興中街","SECT":" ","MAREA":" ","LANE":"７１巷","ALLEY":" ","HOUSE_NO":"６號","E_COORD97":165835,"N_COORD97":2562139.04,"ADDRESS":"興中街７１巷６號","OBJECTID":438232},"geometry":{"x":165835.00000000186,"y":2562139.040000001}},{"attributes":{"ID":438258,"DIS_CODE":0,"TOWNNAME":"佳里區","LI":"忠仁里","LIN":"4鄰","STREET":"興中街","SECT":" ","MAREA":" ","LANE":"７１巷","ALLEY":" ","HOUSE_NO":"７號","E_COORD97":165835.73999999999,"N_COORD97":2562135.7599999998,"ADDRESS":"興中街７１巷７號","OBJECTID":438233},"geometry":{"x":165835.74000000115,"y":2562135.7599999998}},{"attributes":{"ID":438259,"DIS_CODE":0,"TOWNNAME":"佳里區","LI":"忠仁里","LIN":"4鄰","STREET":"興中街","SECT":" ","MAREA":" ","LANE":"７１巷","ALLEY":" ","HOUSE_NO":"８號","E_COORD97":165836.12,"N_COORD97":2562132.4300000002,"ADDRESS":"興中街７１巷８號","OBJECTID":438234},"geometry":{"x":165836.12000000104,"y":2562132.4300000034}},{"attributes":{"ID":438260,"DIS_CODE":0,"TOWNNAME":"佳里區","LI":"忠仁里","LIN":"4鄰","STREET":"興中街","SECT":" ","MAREA":" ","LANE":"７１巷","ALLEY":" ","HOUSE_NO":"９號","E_COORD97":165836.87,"N_COORD97":2562129.0800000001,"ADDRESS":"興中街７１巷９號","OBJECTID":438235},"geometry":{"x":165836.87000000011,"y":2562129.0800000019}},{"attributes":{"ID":438261,"DIS_CODE":0,"TOWNNAME":"永康區","LI":"永康里","LIN":"4鄰","STREET":"永中街","SECT":" ","MAREA":" ","LANE":"１０５巷","ALLEY":" ","HOUSE_NO":"１０號","E_COORD97":173985.41,"N_COORD97":2547332.2400000002,"ADDRESS":"永中街１０５巷１０號","OBJECTID":438236},"geometry":{"x":173985.41000000015,"y":2547332.2400000021}},{"attributes":{"ID":438262,"DIS_CODE":0,"TOWNNAME":"永康區","LI":"甲頂里","LIN":"26鄰","STREET":"中央路","SECT":" ","MAREA":" ","LANE":"２３巷","ALLEY":" ","HOUSE_NO":"５號","E_COORD97":169593.60000000001,"N_COORD97":2546981.3399999999,"ADDRESS":"中央路２３巷５號","OBJECTID":438237},"geometry":{"x":169593.59999999963,"y":2546981.339999998}},{"attributes":{"ID":438263,"DIS_CODE":0,"TOWNNAME":"永康區","LI":"正強里","LIN":"13鄰","STREET":"自強路","SECT":" ","MAREA":" ","LANE":"１８８巷","ALLEY":" ","HOUSE_NO":"１１號","E_COORD97":173212.44,"N_COORD97":2547479,"ADDRESS":"自強路１８８巷１１號","OBJECTID":438238},"geometry":{"x":173212.44000000041,"y":2547479.0000000037}},{"attributes":{"ID":438264,"DIS_CODE":0,"TOWNNAME":"永康區","LI":"永康里","LIN":"41鄰","STREET":"永福街","SECT":" ","MAREA":" ","LANE":"９７巷","ALLEY":" ","HOUSE_NO":"１０號","E_COORD97":174253.07000000001,"N_COORD97":2546628.1800000002,"ADDRESS":"永福街９７巷１０號","OBJECTID":438239},"geometry":{"x":174253.07000000216,"y":2546628.1800000016}},{"attributes":{"ID":438265,"DIS_CODE":0,"TOWNNAME":"永康區","LI":"安康里","LIN":"13鄰","STREET":"中華路","SECT":" ","MAREA":" ","LANE":"６６１巷","ALLEY":" ","HOUSE_NO":"１１９號","E_COORD97":170776.45999999999,"N_COORD97":2546090.9900000002,"ADDRESS":"中華路６６１巷１１９號","OBJECTID":438240},"geometry":{"x":170776.45999999996,"y":2546090.9900000002}},{"attributes":{"ID":438266,"DIS_CODE":0,"TOWNNAME":"永康區","LI":"永康里","LIN":"38鄰","STREET":"大同街","SECT":" ","MAREA":" ","LANE":"７１５巷","ALLEY":" ","HOUSE_NO":"３０號","E_COORD97":174431.85999999999,"N_COORD97":2546666.9300000002,"ADDRESS":"大同街７１５巷３０號","OBJECTID":438241},"geometry":{"x":174431.86000000034,"y":2546666.9300000016}},{"attributes":{"ID":438267,"DIS_CODE":0,"TOWNNAME":"永康區","LI":"安康里","LIN":"20鄰","STREET":"中華路","SECT":" ","MAREA":" ","LANE":"６６１巷","ALLEY":" ","HOUSE_NO":"２０號","E_COORD97":170892.04999999999,"N_COORD97":2546173.2400000002,"ADDRESS":"中華路６６１巷２０號","OBJECTID":438242},"geometry":{"x":170892.04999999981,"y":2546173.2400000021}},{"attributes":{"ID":438268,"DIS_CODE":0,"TOWNNAME":"永康區","LI":"永康里","LIN":"25鄰","STREET":"埔聖街","SECT":" ","MAREA":" ","LANE":"１６２巷","ALLEY":" ","HOUSE_NO":"１８號","E_COORD97":174126.67999999999,"N_COORD97":2547591.21,"ADDRESS":"埔聖街１６２巷１８號","OBJECTID":438243},"geometry":{"x":174126.68000000063,"y":2547591.2100000028}},{"attributes":{"ID":438269,"DIS_CODE":0,"TOWNNAME":"永康區","LI":"永康里","LIN":"18鄰","STREET":"永中街","SECT":" ","MAREA":" ","LANE":"１１８巷","ALLEY":" ","HOUSE_NO":"３３號","E_COORD97":174085.31,"N_COORD97":2547198.7400000002,"ADDRESS":"永中街１１８巷３３號","OBJECTID":438244},"geometry":{"x":174085.31000000052,"y":2547198.7400000002}},{"attributes":{"ID":438270,"DIS_CODE":0,"TOWNNAME":"永康區","LI":"西橋里","LIN":"20鄰","STREET":"大橋三街","SECT":" ","MAREA":" ","LANE":"５７巷","ALLEY":" ","HOUSE_NO":"３號","E_COORD97":170573.91,"N_COORD97":2546532.5,"ADDRESS":"大橋三街５７巷３號","OBJECTID":438245},"geometry":{"x":170573.91000000201,"y":2546532.5}},{"attributes":{"ID":438271,"DIS_CODE":0,"TOWNNAME":"永康區","LI":"安康里","LIN":"20鄰","STREET":"中華路","SECT":" ","MAREA":" ","LANE":"６６１巷","ALLEY":" ","HOUSE_NO":"１６號","E_COORD97":170928.31,"N_COORD97":2546195.9900000002,"ADDRESS":"中華路６６１巷１６號","OBJECTID":438246},"geometry":{"x":170928.31000000052,"y":2546195.9900000021}},{"attributes":{"ID":438272,"DIS_CODE":0,"TOWNNAME":"永康區","LI":"永康里","LIN":"25鄰","STREET":"埔聖街","SECT":" ","MAREA":" ","LANE":"１６２巷","ALLEY":" ","HOUSE_NO":"２６號","E_COORD97":174133.37,"N_COORD97":2547580.21,"ADDRESS":"埔聖街１６２巷２６號","OBJECTID":438247},"geometry":{"x":174133.37000000011,"y":2547580.2100000046}},{"attributes":{"ID":438273,"DIS_CODE":0,"TOWNNAME":"永康區","LI":"五王里","LIN":"26鄰","STREET":"五福街","SECT":" ","MAREA":" ","LANE":"８２巷","ALLEY":" ","HOUSE_NO":"４０號","E_COORD97":171529.70000000001,"N_COORD97":2545847.2400000002,"ADDRESS":"五福街８２巷４０號","OBJECTID":438248},"geometry":{"x":171529.70000000205,"y":2545847.2400000021}},{"attributes":{"ID":438274,"DIS_CODE":0,"TOWNNAME":"永康區","LI":"崑山里","LIN":"39鄰","STREET":"國光三街","SECT":" ","MAREA":" ","LANE":"１０巷","ALLEY":" ","HOUSE_NO":"９號","E_COORD97":174135.32000000001,"N_COORD97":2544909.0800000001,"ADDRESS":"國光三街１０巷９號","OBJECTID":438249},"geometry":{"x":174135.3200000003,"y":2544909.0800000019}},{"attributes":{"ID":438275,"DIS_CODE":0,"TOWNNAME":"永康區","LI":"尚頂里","LIN":"26鄰","STREET":"南台街","SECT":" ","MAREA":" ","LANE":"５４巷","ALLEY":" ","HOUSE_NO":"６號之６","E_COORD97":170388.84,"N_COORD97":2546994.79,"ADDRESS":"南台街５４巷６號之６","OBJECTID":438250},"geometry":{"x":170388.83999999985,"y":2546994.7900000028}},{"attributes":{"ID":438276,"DIS_CODE":0,"TOWNNAME":"永康區","LI":"西灣里","LIN":"25鄰","STREET":"國光七街","SECT":" ","MAREA":" ","LANE":"２０巷","ALLEY":" ","HOUSE_NO":"２２號","E_COORD97":174330.51999999999,"N_COORD97":2545589.2599999998,"ADDRESS":"國光七街２０巷２２號","OBJECTID":438251},"geometry":{"x":174330.51999999862,"y":2545589.2600000016}},{"attributes":{"ID":438277,"DIS_CODE":0,"TOWNNAME":"永康區","LI":"王行里","LIN":"13鄰","STREET":"王行路","SECT":" ","MAREA":" ","LANE":"１０３２巷","ALLEY":" ","HOUSE_NO":"５號","E_COORD97":175810.28,"N_COORD97":2550168.6600000001,"ADDRESS":"王行路１０３２巷５號","OBJECTID":438252},"geometry":{"x":175810.28000000119,"y":2550168.6600000001}},{"attributes":{"ID":438278,"DIS_CODE":0,"TOWNNAME":"永康區","LI":"三合里","LIN":"20鄰","STREET":"南工街","SECT":" ","MAREA":" ","LANE":"２７９巷","ALLEY":" ","HOUSE_NO":"２號","E_COORD97":171868.98999999999,"N_COORD97":2546003.75,"ADDRESS":"南工街２７９巷２號","OBJECTID":438253},"geometry":{"x":171868.99000000115,"y":2546003.7500000019}},{"attributes":{"ID":438279,"DIS_CODE":0,"TOWNNAME":"永康區","LI":"復華里","LIN":"32鄰","STREET":"國華街","SECT":" ","MAREA":" ","LANE":"１２５巷","ALLEY":" ","HOUSE_NO":"９號","E_COORD97":172573.97,"N_COORD97":2546270.9900000002,"ADDRESS":"國華街１２５巷９號","OBJECTID":438254},"geometry":{"x":172573.97000000067,"y":2546270.9900000002}},{"attributes":{"ID":438280,"DIS_CODE":0,"TOWNNAME":"永康區","LI":"西勢里","LIN":"13鄰","STREET":"西勢路","SECT":" ","MAREA":" ","LANE":"９３巷","ALLEY":" ","HOUSE_NO":"１３號","E_COORD97":176155.76999999999,"N_COORD97":2546694.3700000001,"ADDRESS":"西勢路９３巷１３號","OBJECTID":438255},"geometry":{"x":176155.76999999955,"y":2546694.3700000048}},{"attributes":{"ID":438281,"DIS_CODE":0,"TOWNNAME":"永康區","LI":"三合里","LIN":"4鄰","STREET":"中華二路","SECT":" ","MAREA":" ","LANE":"８８巷","ALLEY":" ","HOUSE_NO":"３５號","E_COORD97":172070.79999999999,"N_COORD97":2545566.0499999998,"ADDRESS":"中華二路８８巷３５號","OBJECTID":438256},"geometry":{"x":172070.79999999981,"y":2545566.0500000007}},{"attributes":{"ID":438282,"DIS_CODE":0,"TOWNNAME":"永康區","LI":"王行里","LIN":"4鄰","STREET":"育樂街","SECT":" ","MAREA":" ","LANE":"２０６巷","ALLEY":" ","HOUSE_NO":"２號","E_COORD97":175027.94,"N_COORD97":2548367.1600000001,"ADDRESS":"育樂街２０６巷２號","OBJECTID":438257},"geometry":{"x":175027.94000000134,"y":2548367.160000002}},{"attributes":{"ID":438283,"DIS_CODE":0,"TOWNNAME":"永康區","LI":"崑山里","LIN":"26鄰","STREET":"大灣路","SECT":" ","MAREA":" ","LANE":"９４２巷","ALLEY":" ","HOUSE_NO":"１０７號","E_COORD97":173675.12,"N_COORD97":2544654.1099999999,"ADDRESS":"大灣路９４２巷１０７號","OBJECTID":438258},"geometry":{"x":173675.12000000104,"y":2544654.1100000013}},{"attributes":{"ID":438284,"DIS_CODE":0,"TOWNNAME":"永康區","LI":"龍潭里","LIN":"38鄰","STREET":"中山北路","SECT":" ","MAREA":" ","LANE":"１６４巷","ALLEY":" ","HOUSE_NO":"８２號之９","E_COORD97":174450.12,"N_COORD97":2547386.9199999999,"ADDRESS":"中山北路１６４巷８２號之９","OBJECTID":438259},"geometry":{"x":174450.12000000011,"y":2547386.9199999999}},{"attributes":{"ID":438285,"DIS_CODE":0,"TOWNNAME":"永康區","LI":"三合里","LIN":"18鄰","STREET":"南工街","SECT":" ","MAREA":" ","LANE":"２６７巷","ALLEY":" ","HOUSE_NO":"２３號","E_COORD97":171885.29000000001,"N_COORD97":2545886.8599999999,"ADDRESS":"南工街２６７巷２３號","OBJECTID":438260},"geometry":{"x":171885.29000000097,"y":2545886.8600000013}},{"attributes":{"ID":438286,"DIS_CODE":0,"TOWNNAME":"永康區","LI":"王行里","LIN":"13鄰","STREET":"王行路","SECT":" ","MAREA":" ","LANE":"１０１８巷","ALLEY":" ","HOUSE_NO":"４７號","E_COORD97":175795.23000000001,"N_COORD97":2550199.9900000002,"ADDRESS":"王行路１０１８巷４７號","OBJECTID":438261},"geometry":{"x":175795.23000000138,"y":2550199.9900000021}},{"attributes":{"ID":438287,"DIS_CODE":0,"TOWNNAME":"永康區","LI":"二王里","LIN":"26鄰","STREET":"中山南路","SECT":" ","MAREA":" ","LANE":"５４４巷","ALLEY":" ","HOUSE_NO":"１０５號","E_COORD97":172332.67000000001,"N_COORD97":2546232.5,"ADDRESS":"中山南路５４４巷１０５號","OBJECTID":438262},"geometry":{"x":172332.66999999993,"y":2546232.5000000019}},{"attributes":{"ID":438288,"DIS_CODE":0,"TOWNNAME":"永康區","LI":"西灣里","LIN":"13鄰","STREET":"民族路","SECT":" ","MAREA":" ","LANE":"４８１巷","ALLEY":" ","HOUSE_NO":"２９號","E_COORD97":174571.20999999999,"N_COORD97":2545342.6899999999,"ADDRESS":"民族路４８１巷２９號","OBJECTID":438263},"geometry":{"x":174571.21000000089,"y":2545342.6900000013}},{"attributes":{"ID":438289,"DIS_CODE":0,"TOWNNAME":"永康區","LI":"網寮里","LIN":"25鄰","STREET":"永春街","SECT":" ","MAREA":" ","LANE":"９６巷","ALLEY":" ","HOUSE_NO":"８號","E_COORD97":173751.79000000001,"N_COORD97":2546529.98,"ADDRESS":"永春街９６巷８號","OBJECTID":438264},"geometry":{"x":173751.79000000097,"y":2546529.9800000004}},{"attributes":{"ID":438290,"DIS_CODE":0,"TOWNNAME":"永康區","LI":"中興里","LIN":"25鄰","STREET":"中華路","SECT":" ","MAREA":" ","LANE":"２８０巷","ALLEY":" ","HOUSE_NO":"１６號","E_COORD97":171683.13,"N_COORD97":2545178.25,"ADDRESS":"中華路２８０巷１６號","OBJECTID":438265},"geometry":{"x":171683.13000000082,"y":2545178.25}},{"attributes":{"ID":438291,"DIS_CODE":0,"TOWNNAME":"永康區","LI":"崑山里","LIN":"4鄰","STREET":"永大路","SECT":"一段","MAREA":" ","LANE":"２８７巷","ALLEY":" ","HOUSE_NO":"１２９號","E_COORD97":173752.19,"N_COORD97":2544276.6099999999,"ADDRESS":"永大路一段２８７巷１２９號","OBJECTID":438266},"geometry":{"x":173752.18999999948,"y":2544276.6099999994}},{"attributes":{"ID":438292,"DIS_CODE":0,"TOWNNAME":"永康區","LI":"新樹里","LIN":"4鄰","STREET":"富強路","SECT":"二段","MAREA":" ","LANE":"３９８巷","ALLEY":" ","HOUSE_NO":"１９５號","E_COORD97":176137.76000000001,"N_COORD97":2547665.6699999999,"ADDRESS":"富強路二段３９８巷１９５號","OBJECTID":438267},"geometry":{"x":176137.75999999978,"y":2547665.6700000018}},{"attributes":{"ID":438293,"DIS_CODE":0,"TOWNNAME":"永康區","LI":"二王里","LIN":"5鄰","STREET":"永二街","SECT":" ","MAREA":" ","LANE":"３５８巷","ALLEY":" ","HOUSE_NO":"１０號","E_COORD97":172923.54000000001,"N_COORD97":2546702.1600000001,"ADDRESS":"永二街３５８巷１０號","OBJECTID":438268},"geometry":{"x":172923.54000000004,"y":2546702.160000002}},{"attributes":{"ID":438294,"DIS_CODE":0,"TOWNNAME":"永康區","LI":"龍潭里","LIN":"38鄰","STREET":"中山北路","SECT":" ","MAREA":" ","LANE":"１６４巷","ALLEY":" ","HOUSE_NO":"５６號","E_COORD97":174347.85000000001,"N_COORD97":2547390.2799999998,"ADDRESS":"中山北路１６４巷５６號","OBJECTID":438269},"geometry":{"x":174347.85000000056,"y":2547390.2799999993}},{"attributes":{"ID":438295,"DIS_CODE":0,"TOWNNAME":"永康區","LI":"尚頂里","LIN":"25鄰","STREET":"南台街","SECT":" ","MAREA":" ","LANE":"１５４巷","ALLEY":" ","HOUSE_NO":"２１號","E_COORD97":170112.35000000001,"N_COORD97":2547112.4900000002,"ADDRESS":"南台街１５４巷２１號","OBJECTID":438270},"geometry":{"x":170112.34999999963,"y":2547112.4900000002}},{"attributes":{"ID":438296,"DIS_CODE":0,"TOWNNAME":"永康區","LI":"大橋里","LIN":"5鄰","STREET":"大橋三街","SECT":" ","MAREA":" ","LANE":"１９９巷","ALLEY":" ","HOUSE_NO":"１號","E_COORD97":170847.35999999999,"N_COORD97":2546799.5600000001,"ADDRESS":"大橋三街１９９巷１號","OBJECTID":438271},"geometry":{"x":170847.3600000022,"y":2546799.5600000005}},{"attributes":{"ID":438297,"DIS_CODE":0,"TOWNNAME":"永康區","LI":"成功里","LIN":"38鄰","STREET":"中華路","SECT":" ","MAREA":" ","LANE":"１５４巷","ALLEY":" ","HOUSE_NO":"７４號","E_COORD97":171786.29000000001,"N_COORD97":2544901.75,"ADDRESS":"中華路１５４巷７４號","OBJECTID":438272},"geometry":{"x":171786.29000000004,"y":2544901.7500000019}},{"attributes":{"ID":438298,"DIS_CODE":0,"TOWNNAME":"永康區","LI":"西灣里","LIN":"38鄰","STREET":"國光七街","SECT":" ","MAREA":" ","LANE":"３８巷","ALLEY":" ","HOUSE_NO":"１８號","E_COORD97":174223.45999999999,"N_COORD97":2545592.79,"ADDRESS":"國光七街３８巷１８號","OBJECTID":438273},"geometry":{"x":174223.46000000089,"y":2545592.7899999991}},{"attributes":{"ID":438299,"DIS_CODE":0,"TOWNNAME":"永康區","LI":"復興里","LIN":"18鄰","STREET":"復興路","SECT":" ","MAREA":" ","LANE":"３５６巷","ALLEY":" ","HOUSE_NO":"８７號之４","E_COORD97":172279.70999999999,"N_COORD97":2544628.8599999999,"ADDRESS":"復興路３５６巷８７號之４","OBJECTID":438274},"geometry":{"x":172279.70999999996,"y":2544628.8600000013}},{"attributes":{"ID":438300,"DIS_CODE":0,"TOWNNAME":"永康區","LI":"東橋里","LIN":"20鄰","STREET":"中山南路","SECT":" ","MAREA":" ","LANE":"４７１巷","ALLEY":" ","HOUSE_NO":"１１號","E_COORD97":172967.97,"N_COORD97":2547147.4399999999,"ADDRESS":"中山南路４７１巷１１號","OBJECTID":438275},"geometry":{"x":172967.96999999974,"y":2547147.4400000013}},{"attributes":{"ID":438301,"DIS_CODE":0,"TOWNNAME":"永康區","LI":"中興里","LIN":"26鄰","STREET":"中山東路","SECT":" ","MAREA":" ","LANE":"３８６巷","ALLEY":" ","HOUSE_NO":"１９號","E_COORD97":171843.20999999999,"N_COORD97":2545239.4199999999,"ADDRESS":"中山東路３８６巷１９號","OBJECTID":438276},"geometry":{"x":171843.21000000089,"y":2545239.4200000018}},{"attributes":{"ID":438302,"DIS_CODE":0,"TOWNNAME":"永康區","LI":"西灣里","LIN":"26鄰","STREET":"國光八街","SECT":" ","MAREA":" ","LANE":"４１巷","ALLEY":" ","HOUSE_NO":"２３號","E_COORD97":174352.48000000001,"N_COORD97":2545702.1600000001,"ADDRESS":"國光八街４１巷２３號","OBJECTID":438277},"geometry":{"x":174352.48000000138,"y":2545702.160000002}},{"attributes":{"ID":438303,"DIS_CODE":0,"TOWNNAME":"永康區","LI":"復國里","LIN":"4鄰","STREET":"復國一路","SECT":" ","MAREA":" ","LANE":"６８巷","ALLEY":" ","HOUSE_NO":"１２號","E_COORD97":172758.75,"N_COORD97":2544858.02,"ADDRESS":"復國一路６８巷１２號","OBJECTID":438278},"geometry":{"x":172758.75000000093,"y":2544858.0200000014}},{"attributes":{"ID":438304,"DIS_CODE":0,"TOWNNAME":"永康區","LI":"西灣里","LIN":"38鄰","STREET":"國光八街","SECT":" ","MAREA":" ","LANE":"１２９巷","ALLEY":" ","HOUSE_NO":"２３號","E_COORD97":174164.85000000001,"N_COORD97":2545617,"ADDRESS":"國光八街１２９巷２３號","OBJECTID":438279},"geometry":{"x":174164.85000000056,"y":2545617}},{"attributes":{"ID":438305,"DIS_CODE":0,"TOWNNAME":"永康區","LI":"正強里","LIN":"38鄰","STREET":"正強街","SECT":" ","MAREA":" ","LANE":"３０３巷","ALLEY":" ","HOUSE_NO":"２號","E_COORD97":173254.47,"N_COORD97":2548033.9199999999,"ADDRESS":"正強街３０３巷２號","OBJECTID":438280},"geometry":{"x":173254.46999999974,"y":2548033.9199999999}},{"attributes":{"ID":438306,"DIS_CODE":0,"TOWNNAME":"永康區","LI":"網寮里","LIN":"25鄰","STREET":"永春街","SECT":" ","MAREA":" ","LANE":"１０８巷","ALLEY":" ","HOUSE_NO":"２３號","E_COORD97":173808.20000000001,"N_COORD97":2546599.0899999999,"ADDRESS":"永春街１０８巷２３號","OBJECTID":438281},"geometry":{"x":173808.20000000112,"y":2546599.0899999999}},{"attributes":{"ID":438307,"DIS_CODE":0,"TOWNNAME":"永康區","LI":"復華里","LIN":"32鄰","STREET":"國華街","SECT":" ","MAREA":" ","LANE":"１６２巷","ALLEY":" ","HOUSE_NO":"９號","E_COORD97":172579.17000000001,"N_COORD97":2546336,"ADDRESS":"國華街１６２巷９號","OBJECTID":438282},"geometry":{"x":172579.17000000086,"y":2546336}},{"attributes":{"ID":438308,"DIS_CODE":0,"TOWNNAME":"永康區","LI":"成功里","LIN":"42鄰","STREET":"中華路","SECT":" ","MAREA":" ","LANE":"１５４巷","ALLEY":" ","HOUSE_NO":"４８號","E_COORD97":171734.76000000001,"N_COORD97":2544883.25,"ADDRESS":"中華路１５４巷４８號","OBJECTID":438283},"geometry":{"x":171734.75999999978,"y":2544883.25}},{"attributes":{"ID":438309,"DIS_CODE":0,"TOWNNAME":"永康區","LI":"龍潭里","LIN":"4鄰","STREET":"龍潭街","SECT":" ","MAREA":" ","LANE":"１０３巷","ALLEY":" ","HOUSE_NO":"２號","E_COORD97":174837.26999999999,"N_COORD97":2548136.0299999998,"ADDRESS":"龍潭街１０３巷２號","OBJECTID":438284},"geometry":{"x":174837.26999999955,"y":2548136.0300000031}},{"attributes":{"ID":438310,"DIS_CODE":0,"TOWNNAME":"永康區","LI":"永康里","LIN":"26鄰","STREET":"永明街","SECT":" ","MAREA":" ","LANE":"５３巷","ALLEY":" ","HOUSE_NO":"３３號","E_COORD97":174141.82999999999,"N_COORD97":2547396.6099999999,"ADDRESS":"永明街５３巷３３號","OBJECTID":438285},"geometry":{"x":174141.83000000007,"y":2547396.6100000013}},{"attributes":{"ID":438311,"DIS_CODE":0,"TOWNNAME":"永康區","LI":"正強里","LIN":"25鄰","STREET":"中正路","SECT":" ","MAREA":" ","LANE":"１２７巷","ALLEY":" ","HOUSE_NO":"２０號","E_COORD97":173375.42000000001,"N_COORD97":2547816.7400000002,"ADDRESS":"中正路１２７巷２０號","OBJECTID":438286},"geometry":{"x":173375.41999999993,"y":2547816.7400000039}},{"attributes":{"ID":438312,"DIS_CODE":0,"TOWNNAME":"永康區","LI":"南灣里","LIN":"32鄰","STREET":"大灣一街","SECT":" ","MAREA":" ","LANE":"３７巷","ALLEY":" ","HOUSE_NO":"１１號","E_COORD97":174309.07999999999,"N_COORD97":2544860.3700000001,"ADDRESS":"大灣一街３７巷１１號","OBJECTID":438287},"geometry":{"x":174309.08000000101,"y":2544860.3700000048}},{"attributes":{"ID":438313,"DIS_CODE":0,"TOWNNAME":"永康區","LI":"埔園里","LIN":"32鄰","STREET":"龍埔街","SECT":" ","MAREA":" ","LANE":"２８３巷","ALLEY":" ","HOUSE_NO":"１５號","E_COORD97":174043.29000000001,"N_COORD97":2548261.7400000002,"ADDRESS":"龍埔街２８３巷１５號","OBJECTID":438288},"geometry":{"x":174043.29000000097,"y":2548261.7400000021}},{"attributes":{"ID":438314,"DIS_CODE":0,"TOWNNAME":"永康區","LI":"烏竹里","LIN":"4鄰","STREET":"烏竹街","SECT":" ","MAREA":" ","LANE":"６２巷","ALLEY":" ","HOUSE_NO":"４３號","E_COORD97":174585.10000000001,"N_COORD97":2549345.2999999998,"ADDRESS":"烏竹街６２巷４３號","OBJECTID":438289},"geometry":{"x":174585.10000000056,"y":2549345.3000000007}},{"attributes":{"ID":438315,"DIS_CODE":0,"TOWNNAME":"永康區","LI":"東灣里","LIN":"20鄰","STREET":"大灣三街","SECT":" ","MAREA":" ","LANE":"７３巷","ALLEY":" ","HOUSE_NO":"５９號","E_COORD97":174884.20000000001,"N_COORD97":2544855.7400000002,"ADDRESS":"大灣三街７３巷５９號","OBJECTID":438290},"geometry":{"x":174884.20000000019,"y":2544855.7400000002}},{"attributes":{"ID":438316,"DIS_CODE":0,"TOWNNAME":"永康區","LI":"埔園里","LIN":"4鄰","STREET":"中山路","SECT":" ","MAREA":" ","LANE":"１５８巷","ALLEY":" ","HOUSE_NO":"５０號之１３","E_COORD97":173933.75,"N_COORD97":2547849.04,"ADDRESS":"中山路１５８巷５０號之１３","OBJECTID":438291},"geometry":{"x":173933.75,"y":2547849.040000001}},{"attributes":{"ID":438317,"DIS_CODE":0,"TOWNNAME":"永康區","LI":"烏竹里","LIN":"4鄰","STREET":"烏竹街","SECT":" ","MAREA":" ","LANE":"６２巷","ALLEY":" ","HOUSE_NO":"６２號","E_COORD97":174626.17999999999,"N_COORD97":2549355.3999999999,"ADDRESS":"烏竹街６２巷６２號","OBJECTID":438292},"geometry":{"x":174626.1799999997,"y":2549355.4000000022}},{"attributes":{"ID":438318,"DIS_CODE":0,"TOWNNAME":"永康區","LI":"東橋里","LIN":"20鄰","STREET":"自強路","SECT":" ","MAREA":" ","LANE":"２２巷","ALLEY":" ","HOUSE_NO":"８號","E_COORD97":172748.44,"N_COORD97":2547104.7400000002,"ADDRESS":"自強路２２巷８號","OBJECTID":438293},"geometry":{"x":172748.44000000041,"y":2547104.7400000039}},{"attributes":{"ID":438319,"DIS_CODE":0,"TOWNNAME":"永康區","LI":"埔園里","LIN":"39鄰","STREET":"聖龍街","SECT":" ","MAREA":" ","LANE":"１７９巷","ALLEY":" ","HOUSE_NO":"２７號","E_COORD97":174309.51999999999,"N_COORD97":2547931.1200000001,"ADDRESS":"聖龍街１７９巷２７號","OBJECTID":438294},"geometry":{"x":174309.51999999955,"y":2547931.1200000029}},{"attributes":{"ID":438320,"DIS_CODE":0,"TOWNNAME":"永康區","LI":"埔園里","LIN":"24鄰","STREET":"自強路","SECT":" ","MAREA":" ","LANE":"３７９巷","ALLEY":" ","HOUSE_NO":"３號","E_COORD97":173620.20999999999,"N_COORD97":2547892.25,"ADDRESS":"自強路３７９巷３號","OBJECTID":438295},"geometry":{"x":173620.21000000089,"y":2547892.2500000019}},{"attributes":{"ID":438321,"DIS_CODE":0,"TOWNNAME":"永康區","LI":"埔園里","LIN":"4鄰","STREET":"中山路","SECT":" ","MAREA":" ","LANE":"１５８巷","ALLEY":" ","HOUSE_NO":"５０號之１６","E_COORD97":173933.75,"N_COORD97":2547849.04,"ADDRESS":"中山路１５８巷５０號之１６","OBJECTID":438296},"geometry":{"x":173933.75,"y":2547849.040000001}},{"attributes":{"ID":438322,"DIS_CODE":0,"TOWNNAME":"永康區","LI":"東橋里","LIN":"20鄰","STREET":"自強路","SECT":" ","MAREA":" ","LANE":"２２巷","ALLEY":" ","HOUSE_NO":"３號","E_COORD97":172757.73999999999,"N_COORD97":2547145.25,"ADDRESS":"自強路２２巷３號","OBJECTID":438297},"geometry":{"x":172757.74000000022,"y":2547145.2500000037}},{"attributes":{"ID":438323,"DIS_CODE":0,"TOWNNAME":"永康區","LI":"埔園里","LIN":"39鄰","STREET":"聖龍街","SECT":" ","MAREA":" ","LANE":"１７９巷","ALLEY":" ","HOUSE_NO":"５２號","E_COORD97":174333.37,"N_COORD97":2547926.8700000001,"ADDRESS":"聖龍街１７９巷５２號","OBJECTID":438298},"geometry":{"x":174333.37000000011,"y":2547926.870000001}},{"attributes":{"ID":438324,"DIS_CODE":0,"TOWNNAME":"永康區","LI":"埔園里","LIN":"13鄰","STREET":"中山路","SECT":" ","MAREA":" ","LANE":"２０７巷","ALLEY":" ","HOUSE_NO":"２９號","E_COORD97":173601.64000000001,"N_COORD97":2548110.25,"ADDRESS":"中山路２０７巷２９號","OBJECTID":438299},"geometry":{"x":173601.6400000006,"y":2548110.25}},{"attributes":{"ID":438325,"DIS_CODE":0,"TOWNNAME":"永康區","LI":"埔園里","LIN":"4鄰","STREET":"中山路","SECT":" ","MAREA":" ","LANE":"１５８巷","ALLEY":" ","HOUSE_NO":"５０號之１１","E_COORD97":173933.64999999999,"N_COORD97":2547849.04,"ADDRESS":"中山路１５８巷５０號之１１","OBJECTID":438300},"geometry":{"x":173933.65000000037,"y":2547849.040000001}},{"attributes":{"ID":438326,"DIS_CODE":0,"TOWNNAME":"永康區","LI":"埔園里","LIN":"38鄰","STREET":"龍國街","SECT":" ","MAREA":" ","LANE":"１９８巷","ALLEY":" ","HOUSE_NO":"１６號","E_COORD97":174320.38,"N_COORD97":2548011.21,"ADDRESS":"龍國街１９８巷１６號","OBJECTID":438301},"geometry":{"x":174320.38000000082,"y":2548011.2100000028}},{"attributes":{"ID":438327,"DIS_CODE":0,"TOWNNAME":"永康區","LI":"神洲里","LIN":"18鄰","STREET":"忠孝路","SECT":" ","MAREA":" ","LANE":"１０６巷","ALLEY":" ","HOUSE_NO":"８號","E_COORD97":172120.13,"N_COORD97":2544974,"ADDRESS":"忠孝路１０６巷８號","OBJECTID":438302},"geometry":{"x":172120.13000000082,"y":2544974.0000000019}},{"attributes":{"ID":438328,"DIS_CODE":0,"TOWNNAME":"永康區","LI":"埔園里","LIN":"26鄰","STREET":"自強路","SECT":" ","MAREA":" ","LANE":"４１７巷","ALLEY":" ","HOUSE_NO":"２３號","E_COORD97":173745.95000000001,"N_COORD97":2548037.1699999999,"ADDRESS":"自強路４１７巷２３號","OBJECTID":438303},"geometry":{"x":173745.95000000112,"y":2548037.1700000037}},{"attributes":{"ID":438329,"DIS_CODE":0,"TOWNNAME":"永康區","LI":"埔園里","LIN":"25鄰","STREET":"自強路","SECT":" ","MAREA":" ","LANE":"４１７巷","ALLEY":" ","HOUSE_NO":"２４號","E_COORD97":173756.20999999999,"N_COORD97":2548048.7799999998,"ADDRESS":"自強路４１７巷２４號","OBJECTID":438304},"geometry":{"x":173756.20999999996,"y":2548048.7799999993}},{"attributes":{"ID":438330,"DIS_CODE":0,"TOWNNAME":"永康區","LI":"埔園里","LIN":"34鄰","STREET":"八德街","SECT":" ","MAREA":" ","LANE":"８８巷","ALLEY":" ","HOUSE_NO":"３１號","E_COORD97":174161.63,"N_COORD97":2548587.8300000001,"ADDRESS":"八德街８８巷３１號","OBJECTID":438305},"geometry":{"x":174161.62999999989,"y":2548587.8300000001}},{"attributes":{"ID":438331,"DIS_CODE":0,"TOWNNAME":"永康區","LI":"埔園里","LIN":"4鄰","STREET":"聖龍街","SECT":" ","MAREA":" ","LANE":"７０巷","ALLEY":" ","HOUSE_NO":"６號","E_COORD97":173968.32999999999,"N_COORD97":2547792.5,"ADDRESS":"聖龍街７０巷６號","OBJECTID":438306},"geometry":{"x":173968.33000000101,"y":2547792.5000000019}},{"attributes":{"ID":438332,"DIS_CODE":0,"TOWNNAME":"永康區","LI":"埔園里","LIN":"38鄰","STREET":"龍國街","SECT":" ","MAREA":" ","LANE":"１９８巷","ALLEY":" ","HOUSE_NO":"２６號","E_COORD97":174323.48999999999,"N_COORD97":2547982.5800000001,"ADDRESS":"龍國街１９８巷２６號","OBJECTID":438307},"geometry":{"x":174323.49000000115,"y":2547982.5800000001}},{"attributes":{"ID":438333,"DIS_CODE":0,"TOWNNAME":"永康區","LI":"東橋里","LIN":"26鄰","STREET":"中正路","SECT":" ","MAREA":" ","LANE":"２７９巷","ALLEY":" ","HOUSE_NO":"１９號","E_COORD97":172554.22,"N_COORD97":2547986.5,"ADDRESS":"中正路２７９巷１９號","OBJECTID":438308},"geometry":{"x":172554.21999999974,"y":2547986.5}},{"attributes":{"ID":438334,"DIS_CODE":0,"TOWNNAME":"永康區","LI":"埔園里","LIN":"34鄰","STREET":"八德街","SECT":" ","MAREA":" ","LANE":"８８巷","ALLEY":" ","HOUSE_NO":"１０之１號","E_COORD97":174196.13,"N_COORD97":2548552.54,"ADDRESS":"八德街８８巷１０之１號","OBJECTID":438309},"geometry":{"x":174196.12999999989,"y":2548552.5400000028}},{"attributes":{"ID":438335,"DIS_CODE":0,"TOWNNAME":"永康區","LI":"烏竹里","LIN":"4鄰","STREET":"烏竹街","SECT":" ","MAREA":" ","LANE":"６２巷","ALLEY":" ","HOUSE_NO":"２９號","E_COORD97":174554.60000000001,"N_COORD97":2549403.2400000002,"ADDRESS":"烏竹街６２巷２９號","OBJECTID":438310},"geometry":{"x":174554.60000000056,"y":2549403.2399999984}},{"attributes":{"ID":438336,"DIS_CODE":0,"TOWNNAME":"永康區","LI":"埔園里","LIN":"4鄰","STREET":"中山路","SECT":" ","MAREA":" ","LANE":"１５８巷","ALLEY":" ","HOUSE_NO":"５０號之１０","E_COORD97":173933.70000000001,"N_COORD97":2547849.04,"ADDRESS":"中山路１５８巷５０號之１０","OBJECTID":438311},"geometry":{"x":173933.70000000112,"y":2547849.040000001}},{"attributes":{"ID":438337,"DIS_CODE":0,"TOWNNAME":"永康區","LI":"埔園里","LIN":"34鄰","STREET":"八德街","SECT":" ","MAREA":" ","LANE":"８８巷","ALLEY":" ","HOUSE_NO":"１２之１號","E_COORD97":174196.79000000001,"N_COORD97":2548559.29,"ADDRESS":"八德街８８巷１２之１號","OBJECTID":438312},"geometry":{"x":174196.79000000004,"y":2548559.290000001}},{"attributes":{"ID":438338,"DIS_CODE":0,"TOWNNAME":"佳里區","LI":"鎮山里","LIN":"19鄰","STREET":"鎮山街","SECT":" ","MAREA":" ","LANE":"１２２巷","ALLEY":" ","HOUSE_NO":"２號","E_COORD97":166270.84,"N_COORD97":2561059.6699999999,"ADDRESS":"鎮山街１２２巷２號","OBJECTID":438313},"geometry":{"x":166270.83999999985,"y":2561059.6700000037}},{"attributes":{"ID":438339,"DIS_CODE":0,"TOWNNAME":"佳里區","LI":"鎮山里","LIN":"19鄰","STREET":"鎮山街","SECT":" ","MAREA":" ","LANE":"１２２巷","ALLEY":" ","HOUSE_NO":"６號","E_COORD97":166260.67999999999,"N_COORD97":2561057.9700000002,"ADDRESS":"鎮山街１２２巷６號","OBJECTID":438314},"geometry":{"x":166260.68000000156,"y":2561057.9700000007}},{"attributes":{"ID":438340,"DIS_CODE":0,"TOWNNAME":"佳里區","LI":"鎮山里","LIN":"22鄰","STREET":"鎮山街","SECT":" ","MAREA":" ","LANE":"１０５巷","ALLEY":" ","HOUSE_NO":"３０號","E_COORD97":166320.94,"N_COORD97":2560960.1600000001,"ADDRESS":"鎮山街１０５巷３０號","OBJECTID":438315},"geometry":{"x":166320.94000000134,"y":2560960.1600000001}},{"attributes":{"ID":438341,"DIS_CODE":0,"TOWNNAME":"佳里區","LI":"鎮山里","LIN":"22鄰","STREET":"鎮山街","SECT":" ","MAREA":" ","LANE":"１０５巷","ALLEY":" ","HOUSE_NO":"３２號","E_COORD97":166319.60999999999,"N_COORD97":2560956.1299999999,"ADDRESS":"鎮山街１０５巷３２號","OBJECTID":438316},"geometry":{"x":166319.61000000127,"y":2560956.129999999}},{"attributes":{"ID":438342,"DIS_CODE":0,"TOWNNAME":"佳里區","LI":"鎮山里","LIN":"22鄰","STREET":"鎮山街","SECT":" ","MAREA":" ","LANE":"１０５巷","ALLEY":" ","HOUSE_NO":"３６號","E_COORD97":166342.95999999999,"N_COORD97":2560946.9100000001,"ADDRESS":"鎮山街１０５巷３６號","OBJECTID":438317},"geometry":{"x":166342.95999999996,"y":2560946.910000002}},{"attributes":{"ID":438343,"DIS_CODE":0,"TOWNNAME":"佳里區","LI":"鎮山里","LIN":"22鄰","STREET":"鎮山街","SECT":" ","MAREA":" ","LANE":"１０５巷","ALLEY":" ","HOUSE_NO":"３８號","E_COORD97":166343.73000000001,"N_COORD97":2560951.3100000001,"ADDRESS":"鎮山街１０５巷３８號","OBJECTID":438318},"geometry":{"x":166343.73000000045,"y":2560951.3100000024}},{"attributes":{"ID":438344,"DIS_CODE":0,"TOWNNAME":"佳里區","LI":"鎮山里","LIN":"22鄰","STREET":"鎮山街","SECT":" ","MAREA":" ","LANE":"１０５巷","ALLEY":" ","HOUSE_NO":"３號","E_COORD97":166301.44,"N_COORD97":2561044.02,"ADDRESS":"鎮山街１０５巷３號","OBJECTID":438319},"geometry":{"x":166301.44000000041,"y":2561044.0200000014}},{"attributes":{"ID":438345,"DIS_CODE":0,"TOWNNAME":"佳里區","LI":"鎮山里","LIN":"21鄰","STREET":"鎮山街","SECT":" ","MAREA":" ","LANE":"１３１巷","ALLEY":" ","HOUSE_NO":"２６號","E_COORD97":166311.34,"N_COORD97":2560889.7200000002,"ADDRESS":"鎮山街１３１巷２６號","OBJECTID":438320},"geometry":{"x":166311.34000000078,"y":2560889.7200000007}},{"attributes":{"ID":438346,"DIS_CODE":0,"TOWNNAME":"佳里區","LI":"鎮山里","LIN":"21鄰","STREET":"鎮山街","SECT":" ","MAREA":" ","LANE":"１３１巷","ALLEY":" ","HOUSE_NO":"２８號","E_COORD97":166299.51999999999,"N_COORD97":2560881.4199999999,"ADDRESS":"鎮山街１３１巷２８號","OBJECTID":438321},"geometry":{"x":166299.52000000048,"y":2560881.4199999981}},{"attributes":{"ID":438347,"DIS_CODE":0,"TOWNNAME":"佳里區","LI":"鎮山里","LIN":"21鄰","STREET":"鎮山街","SECT":" ","MAREA":" ","LANE":"１３１巷","ALLEY":" ","HOUSE_NO":"３０號","E_COORD97":166303.54000000001,"N_COORD97":2560867.3799999999,"ADDRESS":"鎮山街１３１巷３０號","OBJECTID":438322},"geometry":{"x":166303.54000000004,"y":2560867.3800000027}},{"attributes":{"ID":438348,"DIS_CODE":0,"TOWNNAME":"佳里區","LI":"鎮山里","LIN":"21鄰","STREET":"鎮山街","SECT":" ","MAREA":" ","LANE":"１３１巷","ALLEY":" ","HOUSE_NO":"３７號","E_COORD97":166328.79000000001,"N_COORD97":2560828.9500000002,"ADDRESS":"鎮山街１３１巷３７號","OBJECTID":438323},"geometry":{"x":166328.79000000097,"y":2560828.9499999993}},{"attributes":{"ID":438349,"DIS_CODE":0,"TOWNNAME":"佳里區","LI":"鎮山里","LIN":"21鄰","STREET":"鎮山街","SECT":" ","MAREA":" ","LANE":"１３１巷","ALLEY":" ","HOUSE_NO":"４７號","E_COORD97":166292.01000000001,"N_COORD97":2560812.3700000001,"ADDRESS":"鎮山街１３１巷４７號","OBJECTID":438324},"geometry":{"x":166292.00999999978,"y":2560812.3700000029}},{"attributes":{"ID":438350,"DIS_CODE":0,"TOWNNAME":"佳里區","LI":"鎮山里","LIN":"23鄰","STREET":"鎮山街","SECT":" ","MAREA":" ","LANE":"１７巷","ALLEY":" ","HOUSE_NO":"１５號","E_COORD97":166347.31,"N_COORD97":2561335.1699999999,"ADDRESS":"鎮山街１７巷１５號","OBJECTID":438325},"geometry":{"x":166347.30999999959,"y":2561335.1700000018}},{"attributes":{"ID":438351,"DIS_CODE":0,"TOWNNAME":"佳里區","LI":"鎮山里","LIN":"23鄰","STREET":"鎮山街","SECT":" ","MAREA":" ","LANE":"１７巷","ALLEY":" ","HOUSE_NO":"１９號","E_COORD97":166380.48999999999,"N_COORD97":2561327.2599999998,"ADDRESS":"鎮山街１７巷１９號","OBJECTID":438326},"geometry":{"x":166380.49000000022,"y":2561327.2600000016}},{"attributes":{"ID":438352,"DIS_CODE":0,"TOWNNAME":"將軍區","LI":"廣山里","LIN":"7鄰","STREET":" ","SECT":" ","MAREA":"廣山","LANE":" ","ALLEY":" ","HOUSE_NO":"６８號","E_COORD97":159599.95746999999,"N_COORD97":2568898.3696900001,"ADDRESS":"廣山６８號","OBJECTID":438327},"geometry":{"x":159599.95747000072,"y":2568898.369694002}},{"attributes":{"ID":438353,"DIS_CODE":0,"TOWNNAME":"佳里區","LI":"鎮山里","LIN":"23鄰","STREET":"鎮山街","SECT":" ","MAREA":" ","LANE":"１７巷","ALLEY":" ","HOUSE_NO":"２８號","E_COORD97":166359.42999999999,"N_COORD97":2561300.3999999999,"ADDRESS":"鎮山街１７巷２８號","OBJECTID":438328},"geometry":{"x":166359.43000000063,"y":2561300.4000000022}},{"attributes":{"ID":438354,"DIS_CODE":0,"TOWNNAME":"佳里區","LI":"鎮山里","LIN":"23鄰","STREET":"鎮山街","SECT":" ","MAREA":" ","LANE":"１７巷","ALLEY":" ","HOUSE_NO":"５０號","E_COORD97":166404.19,"N_COORD97":2561302.0299999998,"ADDRESS":"鎮山街１７巷５０號","OBJECTID":438329},"geometry":{"x":166404.19000000134,"y":2561302.0300000012}},{"attributes":{"ID":438355,"DIS_CODE":0,"TOWNNAME":"佳里區","LI":"鎮山里","LIN":"17鄰","STREET":"鎮山街","SECT":" ","MAREA":" ","LANE":"２８巷","ALLEY":" ","HOUSE_NO":"１０號","E_COORD97":166269.14000000001,"N_COORD97":2561339.1400000001,"ADDRESS":"鎮山街２８巷１０號","OBJECTID":438330},"geometry":{"x":166269.13999999966,"y":2561339.1400000025}},{"attributes":{"ID":438356,"DIS_CODE":0,"TOWNNAME":"佳里區","LI":"鎮山里","LIN":"17鄰","STREET":"鎮山街","SECT":" ","MAREA":" ","LANE":"２８巷","ALLEY":" ","HOUSE_NO":"１６號","E_COORD97":166251.91,"N_COORD97":2561335.9300000002,"ADDRESS":"鎮山街２８巷１６號","OBJECTID":438331},"geometry":{"x":166251.91000000015,"y":2561335.9300000034}},{"attributes":{"ID":438357,"DIS_CODE":0,"TOWNNAME":"佳里區","LI":"鎮山里","LIN":"17鄰","STREET":"鎮山街","SECT":" ","MAREA":" ","LANE":"２８巷","ALLEY":" ","HOUSE_NO":"２號","E_COORD97":166280.62,"N_COORD97":2561321.5800000001,"ADDRESS":"鎮山街２８巷２號","OBJECTID":438332},"geometry":{"x":166280.62000000104,"y":2561321.5800000038}},{"attributes":{"ID":438358,"DIS_CODE":0,"TOWNNAME":"佳里區","LI":"鎮山里","LIN":"17鄰","STREET":"鎮山街","SECT":" ","MAREA":" ","LANE":"２８巷","ALLEY":" ","HOUSE_NO":"６號","E_COORD97":166276.98000000001,"N_COORD97":2561355.96,"ADDRESS":"鎮山街２８巷６號","OBJECTID":438333},"geometry":{"x":166276.98000000138,"y":2561355.9600000009}},{"attributes":{"ID":438359,"DIS_CODE":0,"TOWNNAME":"佳里區","LI":"鎮山里","LIN":"17鄰","STREET":"鎮山街","SECT":" ","MAREA":" ","LANE":"２８巷","ALLEY":" ","HOUSE_NO":"７號","E_COORD97":166255.60999999999,"N_COORD97":2561318.2200000002,"ADDRESS":"鎮山街２８巷７號","OBJECTID":438334},"geometry":{"x":166255.61000000127,"y":2561318.2200000025}},{"attributes":{"ID":438360,"DIS_CODE":0,"TOWNNAME":"佳里區","LI":"鎮山里","LIN":"17鄰","STREET":"鎮山街","SECT":" ","MAREA":" ","LANE":"２８巷","ALLEY":" ","HOUSE_NO":"８號","E_COORD97":166264.56,"N_COORD97":2561355.5699999998,"ADDRESS":"鎮山街２８巷８號","OBJECTID":438335},"geometry":{"x":166264.55999999866,"y":2561355.570000004}},{"attributes":{"ID":438361,"DIS_CODE":0,"TOWNNAME":"佳里區","LI":"鎮山里","LIN":"16鄰","STREET":"鎮山街","SECT":" ","MAREA":" ","LANE":"２８巷","ALLEY":" ","HOUSE_NO":"２０號","E_COORD97":166227.82999999999,"N_COORD97":2561328.29,"ADDRESS":"鎮山街２８巷２０號","OBJECTID":438336},"geometry":{"x":166227.83000000194,"y":2561328.2899999991}},{"attributes":{"ID":438362,"DIS_CODE":0,"TOWNNAME":"佳里區","LI":"鎮山里","LIN":"16鄰","STREET":"鎮山街","SECT":" ","MAREA":" ","LANE":"２８巷","ALLEY":" ","HOUSE_NO":"２６號","E_COORD97":166208.60000000001,"N_COORD97":2561324.77,"ADDRESS":"鎮山街２８巷２６號","OBJECTID":438337},"geometry":{"x":166208.60000000149,"y":2561324.7699999996}},{"attributes":{"ID":438363,"DIS_CODE":0,"TOWNNAME":"佳里區","LI":"鎮山里","LIN":"16鄰","STREET":"鎮山街","SECT":" ","MAREA":" ","LANE":"２８巷","ALLEY":" ","HOUSE_NO":"３０號","E_COORD97":166203.70999999999,"N_COORD97":2561348.8199999998,"ADDRESS":"鎮山街２８巷３０號","OBJECTID":438338},"geometry":{"x":166203.71000000089,"y":2561348.8200000022}},{"attributes":{"ID":438364,"DIS_CODE":0,"TOWNNAME":"佳里區","LI":"鎮山里","LIN":"16鄰","STREET":"鎮山街","SECT":" ","MAREA":" ","LANE":"２８巷","ALLEY":" ","HOUSE_NO":"３６號","E_COORD97":166183.75,"N_COORD97":2561347.2599999998,"ADDRESS":"鎮山街２８巷３６號","OBJECTID":438339},"geometry":{"x":166183.75,"y":2561347.2600000035}},{"attributes":{"ID":438365,"DIS_CODE":0,"TOWNNAME":"佳里區","LI":"鎮山里","LIN":"16鄰","STREET":"鎮山街","SECT":" ","MAREA":" ","LANE":"２８巷","ALLEY":" ","HOUSE_NO":"４０號","E_COORD97":166175.13,"N_COORD97":2561305.3399999999,"ADDRESS":"鎮山街２８巷４０號","OBJECTID":438340},"geometry":{"x":166175.13000000082,"y":2561305.3399999999}},{"attributes":{"ID":438366,"DIS_CODE":0,"TOWNNAME":"佳里區","LI":"鎮山里","LIN":"16鄰","STREET":"鎮山街","SECT":" ","MAREA":" ","LANE":"２８巷","ALLEY":" ","HOUSE_NO":"４６號","E_COORD97":166179.41,"N_COORD97":2561292.0600000001,"ADDRESS":"鎮山街２８巷４６號","OBJECTID":438341},"geometry":{"x":166179.41000000015,"y":2561292.0600000024}},{"attributes":{"ID":438367,"DIS_CODE":0,"TOWNNAME":"佳里區","LI":"鎮山里","LIN":"23鄰","STREET":"鎮山街","SECT":" ","MAREA":" ","LANE":"８５巷","ALLEY":" ","HOUSE_NO":"１０５號","E_COORD97":166562.53,"N_COORD97":2561105.0099999998,"ADDRESS":"鎮山街８５巷１０５號","OBJECTID":438342},"geometry":{"x":166562.53000000119,"y":2561105.0100000016}},{"attributes":{"ID":438368,"DIS_CODE":0,"TOWNNAME":"佳里區","LI":"東寧里","LIN":" ","STREET":"中山路","SECT":" ","MAREA":" ","LANE":"３４６巷","ALLEY":" ","HOUSE_NO":"１９之１號","E_COORD97":165761.95999999999,"N_COORD97":2562454.0899999999,"ADDRESS":"中山路３４６巷１９之１號","OBJECTID":438343},"geometry":{"x":165761.95999999996,"y":2562454.0900000017}},{"attributes":{"ID":438369,"DIS_CODE":0,"TOWNNAME":"佳里區","LI":"東寧里","LIN":" ","STREET":"中山路","SECT":" ","MAREA":" ","LANE":"３４６巷","ALLEY":" ","HOUSE_NO":"２７號","E_COORD97":165788.25,"N_COORD97":2562466.1800000002,"ADDRESS":"中山路３４６巷２７號","OBJECTID":438344},"geometry":{"x":165788.25000000093,"y":2562466.1799999978}},{"attributes":{"ID":438370,"DIS_CODE":0,"TOWNNAME":"佳里區","LI":"東寧里","LIN":" ","STREET":"中山路","SECT":" ","MAREA":" ","LANE":"３４６巷","ALLEY":" ","HOUSE_NO":"２８號","E_COORD97":165791.39999999999,"N_COORD97":2562473.9900000002,"ADDRESS":"中山路３４６巷２８號","OBJECTID":438345},"geometry":{"x":165791.40000000037,"y":2562473.9900000002}},{"attributes":{"ID":438371,"DIS_CODE":0,"TOWNNAME":"佳里區","LI":"鎮山里","LIN":" ","STREET":"仁愛路","SECT":" ","MAREA":" ","LANE":"１４６巷","ALLEY":" ","HOUSE_NO":"１２號","E_COORD97":166394.12,"N_COORD97":2561421.6000000001,"ADDRESS":"仁愛路１４６巷１２號","OBJECTID":438346},"geometry":{"x":166394.12000000104,"y":2561421.5999999996}},{"attributes":{"ID":438372,"DIS_CODE":0,"TOWNNAME":"佳里區","LI":"安西里","LIN":" ","STREET":"文化路","SECT":" ","MAREA":" ","LANE":"１０４巷","ALLEY":" ","HOUSE_NO":"１６號","E_COORD97":165456.38,"N_COORD97":2562655.5499999998,"ADDRESS":"文化路１０４巷１６號","OBJECTID":438347},"geometry":{"x":165456.38000000082,"y":2562655.5500000026}},{"attributes":{"ID":438373,"DIS_CODE":0,"TOWNNAME":"佳里區","LI":"東寧里","LIN":" ","STREET":"文化路","SECT":" ","MAREA":" ","LANE":"１３３巷","ALLEY":" ","HOUSE_NO":"２２號","E_COORD97":165972.17999999999,"N_COORD97":2562527.2400000002,"ADDRESS":"文化路１３３巷２２號","OBJECTID":438348},"geometry":{"x":165972.1799999997,"y":2562527.2400000002}},{"attributes":{"ID":438374,"DIS_CODE":0,"TOWNNAME":"佳里區","LI":"建南里","LIN":"38鄰","STREET":"四維一街","SECT":" ","MAREA":" ","LANE":"１０６巷","ALLEY":" ","HOUSE_NO":"１０號","E_COORD97":165782.32000000001,"N_COORD97":2561211.9399999999,"ADDRESS":"四維一街１０６巷１０號","OBJECTID":438349},"geometry":{"x":165782.32000000216,"y":2561211.9399999995}},{"attributes":{"ID":438375,"DIS_CODE":0,"TOWNNAME":"佳里區","LI":"建南里","LIN":"35鄰","STREET":"公園路","SECT":" ","MAREA":" ","LANE":"２８３巷","ALLEY":" ","HOUSE_NO":"３號","E_COORD97":165238.42000000001,"N_COORD97":2562086.21,"ADDRESS":"公園路２８３巷３號","OBJECTID":438350},"geometry":{"x":165238.41999999993,"y":2562086.2100000009}},{"attributes":{"ID":438376,"DIS_CODE":0,"TOWNNAME":"佳里區","LI":"建南里","LIN":"35鄰","STREET":"公園路","SECT":" ","MAREA":" ","LANE":"２８３巷","ALLEY":" ","HOUSE_NO":"５號","E_COORD97":165234.35999999999,"N_COORD97":2562085.6899999999,"ADDRESS":"公園路２８３巷５號","OBJECTID":438351},"geometry":{"x":165234.3599999994,"y":2562085.6899999995}},{"attributes":{"ID":438377,"DIS_CODE":0,"TOWNNAME":"佳里區","LI":"建南里","LIN":"37鄰","STREET":"四維二街","SECT":" ","MAREA":" ","LANE":"１４２巷","ALLEY":" ","HOUSE_NO":"１０號","E_COORD97":165634.31,"N_COORD97":2561294.8500000001,"ADDRESS":"四維二街１４２巷１０號","OBJECTID":438352},"geometry":{"x":165634.31000000052,"y":2561294.8499999996}},{"attributes":{"ID":438378,"DIS_CODE":0,"TOWNNAME":"佳里區","LI":"建南里","LIN":"37鄰","STREET":"四維二街","SECT":" ","MAREA":" ","LANE":"１４２巷","ALLEY":" ","HOUSE_NO":"１２號","E_COORD97":165630.06,"N_COORD97":2561294.4900000002,"ADDRESS":"四維二街１４２巷１２號","OBJECTID":438353},"geometry":{"x":165630.05999999959,"y":2561294.4900000002}},{"attributes":{"ID":438379,"DIS_CODE":0,"TOWNNAME":"佳里區","LI":"建南里","LIN":"37鄰","STREET":"四維二街","SECT":" ","MAREA":" ","LANE":"１４２巷","ALLEY":" ","HOUSE_NO":"１６號","E_COORD97":165624.89000000001,"N_COORD97":2561295.8599999999,"ADDRESS":"四維二街１４２巷１６號","OBJECTID":438354},"geometry":{"x":165624.88999999966,"y":2561295.8600000013}},{"attributes":{"ID":438380,"DIS_CODE":0,"TOWNNAME":"佳里區","LI":"建南里","LIN":"37鄰","STREET":"四維二街","SECT":" ","MAREA":" ","LANE":"１４２巷","ALLEY":" ","HOUSE_NO":"２號","E_COORD97":165646.81,"N_COORD97":2561293.25,"ADDRESS":"四維二街１４２巷２號","OBJECTID":438355},"geometry":{"x":165646.80999999959,"y":2561293.2500000037}},{"attributes":{"ID":438381,"DIS_CODE":0,"TOWNNAME":"佳里區","LI":"建南里","LIN":"37鄰","STREET":"四維二街","SECT":" ","MAREA":" ","LANE":"１４２巷","ALLEY":" ","HOUSE_NO":"６號","E_COORD97":165642.73000000001,"N_COORD97":2561293.79,"ADDRESS":"四維二街１４２巷６號","OBJECTID":438356},"geometry":{"x":165642.73000000138,"y":2561293.7899999991}},{"attributes":{"ID":438382,"DIS_CODE":0,"TOWNNAME":"佳里區","LI":"建南里","LIN":"37鄰","STREET":"四維二街","SECT":" ","MAREA":" ","LANE":"１４２巷","ALLEY":" ","HOUSE_NO":"８號","E_COORD97":165638.32999999999,"N_COORD97":2561295.0499999998,"ADDRESS":"四維二街１４２巷８號","OBJECTID":438357},"geometry":{"x":165638.33000000101,"y":2561295.0499999989}},{"attributes":{"ID":438383,"DIS_CODE":0,"TOWNNAME":"佳里區","LI":"鎮山里","LIN":" ","STREET":"平等街","SECT":" ","MAREA":" ","LANE":"９７巷","ALLEY":" ","HOUSE_NO":"２４號","E_COORD97":165969.35000000001,"N_COORD97":2561879.6299999999,"ADDRESS":"平等街９７巷２４號","OBJECTID":438358},"geometry":{"x":165969.34999999963,"y":2561879.6300000027}},{"attributes":{"ID":438384,"DIS_CODE":0,"TOWNNAME":"佳里區","LI":"鎮山里","LIN":" ","STREET":"平等街","SECT":" ","MAREA":" ","LANE":"９７巷","ALLEY":" ","HOUSE_NO":"２號","E_COORD97":165990.45000000001,"N_COORD97":2561887.1000000001,"ADDRESS":"平等街９７巷２號","OBJECTID":438359},"geometry":{"x":165990.45000000112,"y":2561887.1000000034}},{"attributes":{"ID":438385,"DIS_CODE":0,"TOWNNAME":"佳里區","LI":"安西里","LIN":" ","STREET":"安西路","SECT":" ","MAREA":" ","LANE":"３３５巷","ALLEY":" ","HOUSE_NO":"８６號","E_COORD97":165097.94,"N_COORD97":2563076.5099999998,"ADDRESS":"安西路３３５巷８６號","OBJECTID":438360},"geometry":{"x":165097.94000000041,"y":2563076.5099999998}},{"attributes":{"ID":438386,"DIS_CODE":0,"TOWNNAME":"佳里區","LI":"建南里","LIN":" ","STREET":"成功路","SECT":" ","MAREA":" ","LANE":"２０２巷","ALLEY":" ","HOUSE_NO":"２３之１號","E_COORD97":165212.42999999999,"N_COORD97":2561163.5699999998,"ADDRESS":"成功路２０２巷２３之１號","OBJECTID":438361},"geometry":{"x":165212.4299999997,"y":2561163.5700000022}},{"attributes":{"ID":438387,"DIS_CODE":0,"TOWNNAME":"佳里區","LI":"安西里","LIN":" ","STREET":"育善街","SECT":" ","MAREA":" ","LANE":"２３３巷","ALLEY":" ","HOUSE_NO":"１４號","E_COORD97":164882.06,"N_COORD97":2562705.75,"ADDRESS":"育善街２３３巷１４號","OBJECTID":438362},"geometry":{"x":164882.06000000052,"y":2562705.75}},{"attributes":{"ID":438388,"DIS_CODE":0,"TOWNNAME":"佳里區","LI":"建南里","LIN":"36鄰","STREET":"成功路","SECT":" ","MAREA":" ","LANE":"２０２巷","ALLEY":" ","HOUSE_NO":"９號","E_COORD97":165293.23000000001,"N_COORD97":2561170.1899999999,"ADDRESS":"成功路２０２巷９號","OBJECTID":438363},"geometry":{"x":165293.23000000231,"y":2561170.1899999995}},{"attributes":{"ID":438389,"DIS_CODE":0,"TOWNNAME":"佳里區","LI":"建南里","LIN":"31鄰","STREET":"成功路","SECT":" ","MAREA":" ","LANE":"２１３巷","ALLEY":" ","HOUSE_NO":"７６號","E_COORD97":165576.70000000001,"N_COORD97":2561077.75,"ADDRESS":"成功路２１３巷７６號","OBJECTID":438364},"geometry":{"x":165576.70000000112,"y":2561077.7500000019}},{"attributes":{"ID":438390,"DIS_CODE":0,"TOWNNAME":"佳里區","LI":"東寧里","LIN":"3鄰","STREET":"延平路","SECT":" ","MAREA":" ","LANE":"２８１巷","ALLEY":" ","HOUSE_NO":"４號","E_COORD97":165819.70000000001,"N_COORD97":2562345.5,"ADDRESS":"延平路２８１巷４號","OBJECTID":438365},"geometry":{"x":165819.70000000019,"y":2562345.5}},{"attributes":{"ID":438391,"DIS_CODE":0,"TOWNNAME":"佳里區","LI":"鎮山里","LIN":" ","STREET":"延平路","SECT":" ","MAREA":" ","LANE":"５９巷","ALLEY":" ","HOUSE_NO":"３８號","E_COORD97":165850.95000000001,"N_COORD97":2561697.2000000002,"ADDRESS":"延平路５９巷３８號","OBJECTID":438366},"geometry":{"x":165850.95000000112,"y":2561697.2000000011}},{"attributes":{"ID":438392,"DIS_CODE":0,"TOWNNAME":"佳里區","LI":"六安里","LIN":" ","STREET":"延平路","SECT":" ","MAREA":" ","LANE":"６３０巷","ALLEY":" ","HOUSE_NO":"２號","E_COORD97":166042.29999999999,"N_COORD97":2563257.5899999999,"ADDRESS":"延平路６３０巷２號","OBJECTID":438367},"geometry":{"x":166042.29999999981,"y":2563257.5900000017}},{"attributes":{"ID":438393,"DIS_CODE":0,"TOWNNAME":"佳里區","LI":"六安里","LIN":" ","STREET":"延平路","SECT":" ","MAREA":" ","LANE":"６３０巷","ALLEY":" ","HOUSE_NO":"３之２號","E_COORD97":165976.56,"N_COORD97":2563275.7599999998,"ADDRESS":"延平路６３０巷３之２號","OBJECTID":438368},"geometry":{"x":165976.56000000145,"y":2563275.7599999998}},{"attributes":{"ID":438394,"DIS_CODE":0,"TOWNNAME":"佳里區","LI":"安西里","LIN":" ","STREET":"忠孝路","SECT":" ","MAREA":" ","LANE":"２８１巷","ALLEY":" ","HOUSE_NO":"７６號","E_COORD97":165037.06,"N_COORD97":2563150.4399999999,"ADDRESS":"忠孝路２８１巷７６號","OBJECTID":438369},"geometry":{"x":165037.05999999959,"y":2563150.4400000013}},{"attributes":{"ID":438395,"DIS_CODE":0,"TOWNNAME":"佳里區","LI":"安西里","LIN":" ","STREET":"長安街","SECT":" ","MAREA":" ","LANE":"３２巷","ALLEY":" ","HOUSE_NO":"１號","E_COORD97":165435.73999999999,"N_COORD97":2562313.4100000001,"ADDRESS":"長安街３２巷１號","OBJECTID":438370},"geometry":{"x":165435.74000000115,"y":2562313.410000002}},{"attributes":{"ID":438396,"DIS_CODE":0,"TOWNNAME":"佳里區","LI":"安西里","LIN":" ","STREET":"長安街","SECT":" ","MAREA":" ","LANE":"７３巷","ALLEY":" ","HOUSE_NO":"１６號","E_COORD97":165388.16,"N_COORD97":2562446.2599999998,"ADDRESS":"長安街７３巷１６號","OBJECTID":438371},"geometry":{"x":165388.16000000201,"y":2562446.2600000016}},{"attributes":{"ID":438397,"DIS_CODE":0,"TOWNNAME":"佳里區","LI":"忠仁里","LIN":" ","STREET":"建中街","SECT":" ","MAREA":" ","LANE":"７２巷","ALLEY":" ","HOUSE_NO":"１２號","E_COORD97":165824.07999999999,"N_COORD97":2562116,"ADDRESS":"建中街７２巷１２號","OBJECTID":438372},"geometry":{"x":165824.08000000007,"y":2562116.0000000019}},{"attributes":{"ID":438398,"DIS_CODE":0,"TOWNNAME":"佳里區","LI":"建南里","LIN":" ","STREET":"建南街","SECT":" ","MAREA":" ","LANE":"６５巷","ALLEY":" ","HOUSE_NO":"１０號","E_COORD97":165599.45000000001,"N_COORD97":2561925.6600000001,"ADDRESS":"建南街６５巷１０號","OBJECTID":438373},"geometry":{"x":165599.45000000019,"y":2561925.660000002}},{"attributes":{"ID":438399,"DIS_CODE":0,"TOWNNAME":"佳里區","LI":"建南里","LIN":" ","STREET":"建南街","SECT":" ","MAREA":" ","LANE":"６５巷","ALLEY":" ","HOUSE_NO":"１號","E_COORD97":165601.63,"N_COORD97":2561936.2599999998,"ADDRESS":"建南街６５巷１號","OBJECTID":438374},"geometry":{"x":165601.62999999896,"y":2561936.2599999998}},{"attributes":{"ID":438400,"DIS_CODE":0,"TOWNNAME":"佳里區","LI":"建南里","LIN":"17鄰","STREET":"建南街","SECT":" ","MAREA":" ","LANE":"６５巷","ALLEY":" ","HOUSE_NO":"３號","E_COORD97":165593.87,"N_COORD97":2561935.6499999999,"ADDRESS":"建南街６５巷３號","OBJECTID":438375},"geometry":{"x":165593.87000000104,"y":2561935.6500000022}},{"attributes":{"ID":438401,"DIS_CODE":0,"TOWNNAME":"佳里區","LI":"建南里","LIN":"17鄰","STREET":"建南街","SECT":" ","MAREA":" ","LANE":"６５巷","ALLEY":" ","HOUSE_NO":"４號","E_COORD97":165590.09,"N_COORD97":2561935.6200000001,"ADDRESS":"建南街６５巷４號","OBJECTID":438376},"geometry":{"x":165590.09000000171,"y":2561935.620000001}},{"attributes":{"ID":438402,"DIS_CODE":0,"TOWNNAME":"佳里區","LI":"建南里","LIN":"17鄰","STREET":"建南街","SECT":" ","MAREA":" ","LANE":"６５巷","ALLEY":" ","HOUSE_NO":"８號","E_COORD97":165592.67999999999,"N_COORD97":2561925.5499999998,"ADDRESS":"建南街６５巷８號","OBJECTID":438377},"geometry":{"x":165592.68000000156,"y":2561925.5500000007}},{"attributes":{"ID":438403,"DIS_CODE":0,"TOWNNAME":"佳里區","LI":"鎮山里","LIN":" ","STREET":"勝利路","SECT":" ","MAREA":" ","LANE":"２５巷","ALLEY":" ","HOUSE_NO":"１號","E_COORD97":165904.60999999999,"N_COORD97":2561383.1200000001,"ADDRESS":"勝利路２５巷１號","OBJECTID":438378},"geometry":{"x":165904.61000000127,"y":2561383.1199999992}},{"attributes":{"ID":438404,"DIS_CODE":0,"TOWNNAME":"佳里區","LI":"六安里","LIN":" ","STREET":"進學路","SECT":" ","MAREA":" ","LANE":"１７８巷","ALLEY":" ","HOUSE_NO":"４號","E_COORD97":165921.17000000001,"N_COORD97":2562705.8100000001,"ADDRESS":"進學路１７８巷４號","OBJECTID":438379},"geometry":{"x":165921.16999999993,"y":2562705.8100000005}},{"attributes":{"ID":438405,"DIS_CODE":0,"TOWNNAME":"安南區","LI":"安西里","LIN":"18鄰","STREET":"安通二街","SECT":" ","MAREA":" ","LANE":"９巷","ALLEY":" ","HOUSE_NO":"６號","E_COORD97":168617.942457,"N_COORD97":2547802.2754899999,"ADDRESS":"安通二街９巷６號","OBJECTID":438380},"geometry":{"x":168617.94245699979,"y":2547802.2754859999}},{"attributes":{"ID":438406,"DIS_CODE":0,"TOWNNAME":"佳里區","LI":"六安里","LIN":" ","STREET":"進學路","SECT":" ","MAREA":" ","LANE":"２３６巷","ALLEY":" ","HOUSE_NO":"４之１號","E_COORD97":165658.07999999999,"N_COORD97":2562734.3500000001,"ADDRESS":"進學路２３６巷４之１號","OBJECTID":438381},"geometry":{"x":165658.07999999914,"y":2562734.3500000015}},{"attributes":{"ID":438407,"DIS_CODE":0,"TOWNNAME":"佳里區","LI":"六安里","LIN":" ","STREET":"進學路","SECT":" ","MAREA":" ","LANE":"２３６巷","ALLEY":" ","HOUSE_NO":"４之２號","E_COORD97":165658,"N_COORD97":2562736.96,"ADDRESS":"進學路２３６巷４之２號","OBJECTID":438382},"geometry":{"x":165658,"y":2562736.9600000046}},{"attributes":{"ID":438408,"DIS_CODE":0,"TOWNNAME":"佳里區","LI":"鎮山里","LIN":"20鄰","STREET":"勝利路","SECT":" ","MAREA":" ","LANE":"２６５巷","ALLEY":" ","HOUSE_NO":"１８號","E_COORD97":166149.79999999999,"N_COORD97":2560801.6000000001,"ADDRESS":"勝利路２６５巷１８號","OBJECTID":438383},"geometry":{"x":166149.80000000168,"y":2560801.5999999996}},{"attributes":{"ID":438409,"DIS_CODE":0,"TOWNNAME":"佳里區","LI":"六安里","LIN":" ","STREET":"進學路","SECT":" ","MAREA":" ","LANE":"２３６巷","ALLEY":" ","HOUSE_NO":"４之３號","E_COORD97":165658.01999999999,"N_COORD97":2562739.3799999999,"ADDRESS":"進學路２３６巷４之３號","OBJECTID":438384},"geometry":{"x":165658.02000000142,"y":2562739.3800000008}},{"attributes":{"ID":438410,"DIS_CODE":0,"TOWNNAME":"佳里區","LI":"六安里","LIN":" ","STREET":"進學路","SECT":" ","MAREA":" ","LANE":"２３６巷","ALLEY":" ","HOUSE_NO":"６之１號","E_COORD97":165657.53,"N_COORD97":2562746.3399999999,"ADDRESS":"進學路２３６巷６之１號","OBJECTID":438385},"geometry":{"x":165657.53000000119,"y":2562746.3399999999}},{"attributes":{"ID":438411,"DIS_CODE":0,"TOWNNAME":"佳里區","LI":"六安里","LIN":" ","STREET":"進學路","SECT":" ","MAREA":" ","LANE":"２３６巷","ALLEY":" ","HOUSE_NO":"６之２號","E_COORD97":165657.51000000001,"N_COORD97":2562748.9700000002,"ADDRESS":"進學路２３６巷６之２號","OBJECTID":438386},"geometry":{"x":165657.50999999978,"y":2562748.9700000007}},{"attributes":{"ID":438412,"DIS_CODE":0,"TOWNNAME":"佳里區","LI":"六安里","LIN":" ","STREET":"進學路","SECT":" ","MAREA":" ","LANE":"２３６巷","ALLEY":" ","HOUSE_NO":"６之３號","E_COORD97":165657.70000000001,"N_COORD97":2562751.5699999998,"ADDRESS":"進學路２３６巷６之３號","OBJECTID":438387},"geometry":{"x":165657.70000000112,"y":2562751.5700000003}},{"attributes":{"ID":438413,"DIS_CODE":0,"TOWNNAME":"佳里區","LI":"忠仁里","LIN":" ","STREET":"新生路","SECT":" ","MAREA":" ","LANE":"２１巷","ALLEY":" ","HOUSE_NO":"１５號","E_COORD97":166136.20000000001,"N_COORD97":2562338.73,"ADDRESS":"新生路２１巷１５號","OBJECTID":438388},"geometry":{"x":166136.20000000112,"y":2562338.7300000023}},{"attributes":{"ID":438414,"DIS_CODE":0,"TOWNNAME":"佳里區","LI":"建南里","LIN":" ","STREET":"新生路","SECT":" ","MAREA":" ","LANE":"４４１巷","ALLEY":" ","HOUSE_NO":"７８號","E_COORD97":165191.70000000001,"N_COORD97":2561892.9100000001,"ADDRESS":"新生路４４１巷７８號","OBJECTID":438389},"geometry":{"x":165191.70000000112,"y":2561892.910000002}},{"attributes":{"ID":438415,"DIS_CODE":0,"TOWNNAME":"佳里區","LI":"建南里","LIN":" ","STREET":"新生路","SECT":" ","MAREA":" ","LANE":"４４１巷","ALLEY":" ","HOUSE_NO":"９４號","E_COORD97":165194.56,"N_COORD97":2561858.0699999998,"ADDRESS":"新生路４４１巷９４號","OBJECTID":438390},"geometry":{"x":165194.55999999959,"y":2561858.0700000022}},{"attributes":{"ID":438416,"DIS_CODE":0,"TOWNNAME":"佳里區","LI":"鎮山里","LIN":" ","STREET":"鎮山街","SECT":" ","MAREA":" ","LANE":"８５巷","ALLEY":" ","HOUSE_NO":"１６號","E_COORD97":166344.63,"N_COORD97":2561070.2999999998,"ADDRESS":"鎮山街８５巷１６號","OBJECTID":438391},"geometry":{"x":166344.63000000082,"y":2561070.3000000026}},{"attributes":{"ID":438417,"DIS_CODE":0,"TOWNNAME":"佳里區","LI":"鎮山里","LIN":" ","STREET":"鎮山街","SECT":" ","MAREA":" ","LANE":"８５巷","ALLEY":" ","HOUSE_NO":"１８號","E_COORD97":166348.32000000001,"N_COORD97":2561070.3300000001,"ADDRESS":"鎮山街８５巷１８號","OBJECTID":438392},"geometry":{"x":166348.31999999937,"y":2561070.3300000019}},{"attributes":{"ID":438418,"DIS_CODE":0,"TOWNNAME":"佳里區","LI":"建南里","LIN":"4鄰","STREET":"中和街","SECT":" ","MAREA":" ","LANE":"１０１巷","ALLEY":" ","HOUSE_NO":"７號","E_COORD97":165560.79000000001,"N_COORD97":2562336.6299999999,"ADDRESS":"中和街１０１巷７號","OBJECTID":438393},"geometry":{"x":165560.79000000097,"y":2562336.629999999}},{"attributes":{"ID":438419,"DIS_CODE":0,"TOWNNAME":"佳里區","LI":"建南里","LIN":"35鄰","STREET":"新生路","SECT":" ","MAREA":" ","LANE":"４４１巷","ALLEY":" ","HOUSE_NO":"２９號","E_COORD97":165221.35999999999,"N_COORD97":2562067.6699999999,"ADDRESS":"新生路４４１巷２９號","OBJECTID":438394},"geometry":{"x":165221.36000000127,"y":2562067.6700000018}},{"attributes":{"ID":438420,"DIS_CODE":0,"TOWNNAME":"安南區","LI":"原佃里","LIN":"1鄰","STREET":"本原街","SECT":"一段","MAREA":" ","LANE":"９７巷","ALLEY":" ","HOUSE_NO":"２３２之５號","E_COORD97":167743.20999999999,"N_COORD97":2549705.8199999998,"ADDRESS":"本原街一段９７巷２３２之５號","OBJECTID":438395},"geometry":{"x":167743.20999999996,"y":2549705.8200000022}},{"attributes":{"ID":438421,"DIS_CODE":0,"TOWNNAME":"安南區","LI":"溪心里","LIN":"3鄰","STREET":"安中路","SECT":"二段","MAREA":" ","LANE":"１３８巷","ALLEY":" ","HOUSE_NO":"６０號","E_COORD97":166799.29000000001,"N_COORD97":2549753.4399999999,"ADDRESS":"安中路二段１３８巷６０號","OBJECTID":438396},"geometry":{"x":166799.2900000019,"y":2549753.4399999995}},{"attributes":{"ID":438422,"DIS_CODE":0,"TOWNNAME":"安南區","LI":"溪心里","LIN":"3鄰","STREET":"安中路","SECT":"二段","MAREA":" ","LANE":"１３８巷","ALLEY":" ","HOUSE_NO":"６２號","E_COORD97":166799.92999999999,"N_COORD97":2549757.8900000001,"ADDRESS":"安中路二段１３８巷６２號","OBJECTID":438397},"geometry":{"x":166799.93000000063,"y":2549757.8900000006}},{"attributes":{"ID":438423,"DIS_CODE":0,"TOWNNAME":"安南區","LI":"溪心里","LIN":"3鄰","STREET":"安中路","SECT":"二段","MAREA":" ","LANE":"１３８巷","ALLEY":" ","HOUSE_NO":"６６號","E_COORD97":166800.25,"N_COORD97":2549762.9700000002,"ADDRESS":"安中路二段１３８巷６６號","OBJECTID":438398},"geometry":{"x":166800.25000000093,"y":2549762.9700000025}},{"attributes":{"ID":438424,"DIS_CODE":0,"TOWNNAME":"安南區","LI":"州北里","LIN":"30鄰","STREET":"安昌街","SECT":" ","MAREA":" ","LANE":"８５巷","ALLEY":" ","HOUSE_NO":"１４９之９號","E_COORD97":169912.89999999999,"N_COORD97":2552577.3100000001,"ADDRESS":"安昌街８５巷１４９之９號","OBJECTID":438399},"geometry":{"x":169912.90000000224,"y":2552577.3100000024}},{"attributes":{"ID":438425,"DIS_CODE":0,"TOWNNAME":"安南區","LI":"州北里","LIN":"30鄰","STREET":"安昌街","SECT":" ","MAREA":" ","LANE":"８５巷","ALLEY":" ","HOUSE_NO":"１４９之１０號","E_COORD97":169905.12,"N_COORD97":2552577.7400000002,"ADDRESS":"安昌街８５巷１４９之１０號","OBJECTID":438400},"geometry":{"x":169905.12000000104,"y":2552577.7400000021}}]}