{"displayFieldName":"TOWNNAME","fieldAliases":{"ID":"ID","DIS_CODE":"DIS_CODE","TOWNNAME":"TOWNNAME","LI":"LI","LIN":"LIN","STREET":"STREET","SECT":"SECT","MAREA":"MAREA","LANE":"LANE","ALLEY":"ALLEY","HOUSE_NO":"HOUSE_NO","E_COORD97":"E_COORD97","N_COORD97":"N_COORD97","ADDRESS":"ADDRESS","OBJECTID":"OBJECTID"},"geometryType":"esriGeometryPoint","spatialReference":{"wkid":102443,"latestWkid":3826},"fields":[{"name":"ID","type":"esriFieldTypeDouble","alias":"ID"},{"name":"DIS_CODE","type":"esriFieldTypeInteger","alias":"DIS_CODE"},{"name":"TOWNNAME","type":"esriFieldTypeString","alias":"TOWNNAME","length":8},{"name":"LI","type":"esriFieldTypeString","alias":"LI","length":8},{"name":"LIN","type":"esriFieldTypeString","alias":"LIN","length":12},{"name":"STREET","type":"esriFieldTypeString","alias":"STREET","length":20},{"name":"SECT","type":"esriFieldTypeString","alias":"SECT","length":8},{"name":"MAREA","type":"esriFieldTypeString","alias":"MAREA","length":12},{"name":"LANE","type":"esriFieldTypeString","alias":"LANE","length":10},{"name":"ALLEY","type":"esriFieldTypeString","alias":"ALLEY","length":10},{"name":"HOUSE_NO","type":"esriFieldTypeString","alias":"HOUSE_NO","length":20},{"name":"E_COORD97","type":"esriFieldTypeDouble","alias":"E_COORD97"},{"name":"N_COORD97","type":"esriFieldTypeDouble","alias":"N_COORD97"},{"name":"ADDRESS","type":"esriFieldTypeString","alias":"ADDRESS","length":50},{"name":"OBJECTID","type":"esriFieldTypeOID","alias":"OBJECTID"}],"features":[{"attributes":{"ID":239205,"DIS_CODE":0,"TOWNNAME":"南區","LI":"國宅里","LIN":"13鄰","STREET":"金華路","SECT":"二段","MAREA":" ","LANE":"３９巷","ALLEY":" ","HOUSE_NO":"７１號","E_COORD97":166850.32000000001,"N_COORD97":2542010.1099999999,"ADDRESS":"金華路二段３９巷７１號","OBJECTID":239201},"geometry":{"x":166850.32000000216,"y":2542010.1100000013}},{"attributes":{"ID":239206,"DIS_CODE":0,"TOWNNAME":"南區","LI":"國宅里","LIN":"13鄰","STREET":"金華路","SECT":"二段","MAREA":" ","LANE":"３９巷","ALLEY":" ","HOUSE_NO":"７２號","E_COORD97":166852.22,"N_COORD97":2542027.3799999999,"ADDRESS":"金華路二段３９巷７２號","OBJECTID":239202},"geometry":{"x":166852.22000000067,"y":2542027.3800000008}},{"attributes":{"ID":239207,"DIS_CODE":0,"TOWNNAME":"南區","LI":"國宅里","LIN":"13鄰","STREET":"金華路","SECT":"二段","MAREA":" ","LANE":"３９巷","ALLEY":" ","HOUSE_NO":"７３號","E_COORD97":166845.38,"N_COORD97":2542010.1099999999,"ADDRESS":"金華路二段３９巷７３號","OBJECTID":239203},"geometry":{"x":166845.37999999989,"y":2542010.1100000013}},{"attributes":{"ID":239208,"DIS_CODE":0,"TOWNNAME":"南區","LI":"國宅里","LIN":"13鄰","STREET":"金華路","SECT":"二段","MAREA":" ","LANE":"３９巷","ALLEY":" ","HOUSE_NO":"７４號","E_COORD97":166846.82000000001,"N_COORD97":2542027.6499999999,"ADDRESS":"金華路二段３９巷７４號","OBJECTID":239204},"geometry":{"x":166846.82000000216,"y":2542027.6500000022}},{"attributes":{"ID":239209,"DIS_CODE":0,"TOWNNAME":"南區","LI":"國宅里","LIN":"13鄰","STREET":"金華路","SECT":"二段","MAREA":" ","LANE":"３９巷","ALLEY":" ","HOUSE_NO":"７５號","E_COORD97":166841.22,"N_COORD97":2542010.1099999999,"ADDRESS":"金華路二段３９巷７５號","OBJECTID":239205},"geometry":{"x":166841.21999999974,"y":2542010.1100000013}},{"attributes":{"ID":239210,"DIS_CODE":0,"TOWNNAME":"北區","LI":"元寶里","LIN":"16鄰","STREET":"北園街","SECT":" ","MAREA":" ","LANE":"８巷","ALLEY":" ","HOUSE_NO":"２８號十四樓之１","E_COORD97":170483.76999999999,"N_COORD97":2545668.25,"ADDRESS":"北園街８巷２８號十四樓之１","OBJECTID":239206},"geometry":{"x":170483.76999999955,"y":2545668.2500000019}},{"attributes":{"ID":239211,"DIS_CODE":0,"TOWNNAME":"北區","LI":"元寶里","LIN":"16鄰","STREET":"北園街","SECT":" ","MAREA":" ","LANE":"８巷","ALLEY":" ","HOUSE_NO":"２８號十四樓之２","E_COORD97":170483.76999999999,"N_COORD97":2545668.25,"ADDRESS":"北園街８巷２８號十四樓之２","OBJECTID":239207},"geometry":{"x":170483.76999999955,"y":2545668.2500000019}},{"attributes":{"ID":239212,"DIS_CODE":0,"TOWNNAME":"永康區","LI":"勝利里","LIN":"13鄰","STREET":"勝利街","SECT":" ","MAREA":" ","LANE":"７５巷","ALLEY":" ","HOUSE_NO":"６號","E_COORD97":171328.23999999999,"N_COORD97":2544744.5,"ADDRESS":"勝利街７５巷６號","OBJECTID":239208},"geometry":{"x":171328.24000000115,"y":2544744.5000000019}},{"attributes":{"ID":239213,"DIS_CODE":0,"TOWNNAME":"南區","LI":"國宅里","LIN":"13鄰","STREET":"金華路","SECT":"二段","MAREA":" ","LANE":"３９巷","ALLEY":" ","HOUSE_NO":"７６號","E_COORD97":166841.97,"N_COORD97":2542027.9199999999,"ADDRESS":"金華路二段３９巷７６號","OBJECTID":239209},"geometry":{"x":166841.97000000067,"y":2542027.9200000037}},{"attributes":{"ID":239214,"DIS_CODE":0,"TOWNNAME":"南區","LI":"國宅里","LIN":"13鄰","STREET":"金華路","SECT":"二段","MAREA":" ","LANE":"３９巷","ALLEY":" ","HOUSE_NO":"７７號","E_COORD97":166835.76000000001,"N_COORD97":2542010.1099999999,"ADDRESS":"金華路二段３９巷７７號","OBJECTID":239210},"geometry":{"x":166835.75999999978,"y":2542010.1100000013}},{"attributes":{"ID":239215,"DIS_CODE":0,"TOWNNAME":"南區","LI":"國宅里","LIN":"13鄰","STREET":"金華路","SECT":"二段","MAREA":" ","LANE":"３９巷","ALLEY":" ","HOUSE_NO":"７８號","E_COORD97":166837.12,"N_COORD97":2542028.1899999999,"ADDRESS":"金華路二段３９巷７８號","OBJECTID":239211},"geometry":{"x":166837.12000000011,"y":2542028.1899999995}},{"attributes":{"ID":239216,"DIS_CODE":0,"TOWNNAME":"南區","LI":"喜北里","LIN":"13鄰","STREET":"喜樹路","SECT":" ","MAREA":" ","LANE":"２０６巷","ALLEY":" ","HOUSE_NO":"１７號","E_COORD97":165722.89000000001,"N_COORD97":2538139.1200000001,"ADDRESS":"喜樹路２０６巷１７號","OBJECTID":239212},"geometry":{"x":165722.88999999966,"y":2538139.1200000029}},{"attributes":{"ID":239217,"DIS_CODE":0,"TOWNNAME":"南區","LI":"喜北里","LIN":"13鄰","STREET":"喜樹路","SECT":" ","MAREA":" ","LANE":"２０６巷","ALLEY":" ","HOUSE_NO":"１９號","E_COORD97":165722.13,"N_COORD97":2538143.1200000001,"ADDRESS":"喜樹路２０６巷１９號","OBJECTID":239213},"geometry":{"x":165722.13000000175,"y":2538143.1200000029}},{"attributes":{"ID":239218,"DIS_CODE":0,"TOWNNAME":"南區","LI":"喜北里","LIN":"13鄰","STREET":"喜樹路","SECT":" ","MAREA":" ","LANE":"２０６巷","ALLEY":" ","HOUSE_NO":"２１號","E_COORD97":165721.60999999999,"N_COORD97":2538147.7200000002,"ADDRESS":"喜樹路２０６巷２１號","OBJECTID":239214},"geometry":{"x":165721.61000000127,"y":2538147.7199999988}},{"attributes":{"ID":239219,"DIS_CODE":0,"TOWNNAME":"南區","LI":"喜北里","LIN":"13鄰","STREET":"喜樹路","SECT":" ","MAREA":" ","LANE":"２０６巷","ALLEY":" ","HOUSE_NO":"２３號","E_COORD97":165720.47,"N_COORD97":2538152.3300000001,"ADDRESS":"喜樹路２０６巷２３號","OBJECTID":239215},"geometry":{"x":165720.46999999974,"y":2538152.3300000001}},{"attributes":{"ID":239220,"DIS_CODE":0,"TOWNNAME":"南區","LI":"喜北里","LIN":"13鄰","STREET":"喜樹路","SECT":" ","MAREA":" ","LANE":"２０６巷","ALLEY":" ","HOUSE_NO":"２５號","E_COORD97":165719.87,"N_COORD97":2538156.7799999998,"ADDRESS":"喜樹路２０６巷２５號","OBJECTID":239216},"geometry":{"x":165719.87000000011,"y":2538156.7800000012}},{"attributes":{"ID":239221,"DIS_CODE":0,"TOWNNAME":"南區","LI":"喜北里","LIN":"13鄰","STREET":"喜樹路","SECT":" ","MAREA":" ","LANE":"２０６巷","ALLEY":" ","HOUSE_NO":"２７號","E_COORD97":165719.19,"N_COORD97":2538161.0899999999,"ADDRESS":"喜樹路２０６巷２７號","OBJECTID":239217},"geometry":{"x":165719.19000000134,"y":2538161.0899999999}},{"attributes":{"ID":239222,"DIS_CODE":0,"TOWNNAME":"南區","LI":"喜北里","LIN":"13鄰","STREET":"喜樹路","SECT":" ","MAREA":" ","LANE":"２０６巷","ALLEY":" ","HOUSE_NO":"６５號","E_COORD97":165702.10000000001,"N_COORD97":2538250.2799999998,"ADDRESS":"喜樹路２０６巷６５號","OBJECTID":239218},"geometry":{"x":165702.10000000056,"y":2538250.2799999993}},{"attributes":{"ID":239223,"DIS_CODE":0,"TOWNNAME":"東區","LI":"文聖里","LIN":"13鄰","STREET":"裕平路","SECT":" ","MAREA":" ","LANE":"１８８巷","ALLEY":" ","HOUSE_NO":"７號","E_COORD97":172330.17000000001,"N_COORD97":2542802.5299999998,"ADDRESS":"裕平路１８８巷７號","OBJECTID":239219},"geometry":{"x":172330.17000000086,"y":2542802.5299999975}},{"attributes":{"ID":239224,"DIS_CODE":0,"TOWNNAME":"南區","LI":"喜北里","LIN":"13鄰","STREET":"喜樹路","SECT":" ","MAREA":" ","LANE":"２０６巷","ALLEY":" ","HOUSE_NO":"６７號","E_COORD97":165701.5,"N_COORD97":2538254.5,"ADDRESS":"喜樹路２０６巷６７號","OBJECTID":239220},"geometry":{"x":165701.50000000093,"y":2538254.5000000019}},{"attributes":{"ID":239225,"DIS_CODE":0,"TOWNNAME":"南區","LI":"喜北里","LIN":"13鄰","STREET":"喜樹路","SECT":" ","MAREA":" ","LANE":"２０６巷","ALLEY":" ","HOUSE_NO":"６９號","E_COORD97":165700.51999999999,"N_COORD97":2538259.2599999998,"ADDRESS":"喜樹路２０６巷６９號","OBJECTID":239221},"geometry":{"x":165700.52000000142,"y":2538259.2600000016}},{"attributes":{"ID":239226,"DIS_CODE":0,"TOWNNAME":"南區","LI":"喜北里","LIN":"13鄰","STREET":"喜樹路","SECT":" ","MAREA":" ","LANE":"２０６巷","ALLEY":" ","HOUSE_NO":"８７號","E_COORD97":165692.79999999999,"N_COORD97":2538300.8300000001,"ADDRESS":"喜樹路２０６巷８７號","OBJECTID":239222},"geometry":{"x":165692.80000000075,"y":2538300.8300000001}},{"attributes":{"ID":239227,"DIS_CODE":0,"TOWNNAME":"南區","LI":"喜北里","LIN":"13鄰","STREET":"喜樹路","SECT":" ","MAREA":" ","LANE":"２０６巷","ALLEY":" ","HOUSE_NO":"９１號","E_COORD97":165690.76000000001,"N_COORD97":2538311.6899999999,"ADDRESS":"喜樹路２０６巷９１號","OBJECTID":239223},"geometry":{"x":165690.76000000071,"y":2538311.6899999995}},{"attributes":{"ID":239228,"DIS_CODE":0,"TOWNNAME":"南區","LI":"喜北里","LIN":"13鄰","STREET":"喜樹路","SECT":" ","MAREA":" ","LANE":"２０６巷","ALLEY":" ","HOUSE_NO":"９３號","E_COORD97":165689.78,"N_COORD97":2538315.3199999998,"ADDRESS":"喜樹路２０６巷９３號","OBJECTID":239224},"geometry":{"x":165689.78000000119,"y":2538315.3200000003}},{"attributes":{"ID":239229,"DIS_CODE":0,"TOWNNAME":"南區","LI":"喜北里","LIN":"13鄰","STREET":"喜樹路","SECT":" ","MAREA":" ","LANE":"２０６巷","ALLEY":" ","HOUSE_NO":"９５號","E_COORD97":165689.39999999999,"N_COORD97":2538319.1099999999,"ADDRESS":"喜樹路２０６巷９５號","OBJECTID":239225},"geometry":{"x":165689.40000000037,"y":2538319.1099999994}},{"attributes":{"ID":239230,"DIS_CODE":0,"TOWNNAME":"南區","LI":"喜北里","LIN":"13鄰","STREET":"喜樹路","SECT":" ","MAREA":" ","LANE":"２０６巷","ALLEY":" ","HOUSE_NO":"９７號","E_COORD97":165688.64000000001,"N_COORD97":2538323.0299999998,"ADDRESS":"喜樹路２０６巷９７號","OBJECTID":239226},"geometry":{"x":165688.6400000006,"y":2538323.0299999993}},{"attributes":{"ID":239231,"DIS_CODE":0,"TOWNNAME":"南區","LI":"喜北里","LIN":"13鄰","STREET":"喜樹路","SECT":" ","MAREA":" ","LANE":"２０６巷","ALLEY":" ","HOUSE_NO":"９９號","E_COORD97":165687.57999999999,"N_COORD97":2538326.96,"ADDRESS":"喜樹路２０６巷９９號","OBJECTID":239227},"geometry":{"x":165687.58000000101,"y":2538326.9600000028}},{"attributes":{"ID":239232,"DIS_CODE":0,"TOWNNAME":"南區","LI":"喜北里","LIN":"13鄰","STREET":"喜樹路","SECT":" ","MAREA":" ","LANE":"２０６巷","ALLEY":" ","HOUSE_NO":"１０１號","E_COORD97":165686.60000000001,"N_COORD97":2538330.8100000001,"ADDRESS":"喜樹路２０６巷１０１號","OBJECTID":239228},"geometry":{"x":165686.60000000056,"y":2538330.8100000024}},{"attributes":{"ID":239233,"DIS_CODE":0,"TOWNNAME":"南區","LI":"喜北里","LIN":"13鄰","STREET":"喜樹路","SECT":" ","MAREA":" ","LANE":"２０６巷","ALLEY":" ","HOUSE_NO":"１０３號","E_COORD97":165685.85000000001,"N_COORD97":2538334.96,"ADDRESS":"喜樹路２０６巷１０３號","OBJECTID":239229},"geometry":{"x":165685.84999999963,"y":2538334.9600000009}},{"attributes":{"ID":239234,"DIS_CODE":0,"TOWNNAME":"南區","LI":"喜北里","LIN":"13鄰","STREET":"喜樹路","SECT":" ","MAREA":" ","LANE":"２０６巷","ALLEY":" ","HOUSE_NO":"１０５號","E_COORD97":165685.23999999999,"N_COORD97":2538338.8100000001,"ADDRESS":"喜樹路２０６巷１０５號","OBJECTID":239230},"geometry":{"x":165685.24000000022,"y":2538338.8100000005}},{"attributes":{"ID":239235,"DIS_CODE":0,"TOWNNAME":"南區","LI":"喜北里","LIN":"13鄰","STREET":"喜樹路","SECT":" ","MAREA":" ","LANE":"２０６巷","ALLEY":" ","HOUSE_NO":"１０７號","E_COORD97":165684.56,"N_COORD97":2538342.7799999998,"ADDRESS":"喜樹路２０６巷１０７號","OBJECTID":239231},"geometry":{"x":165684.55999999959,"y":2538342.7800000031}},{"attributes":{"ID":239236,"DIS_CODE":0,"TOWNNAME":"南區","LI":"喜北里","LIN":"13鄰","STREET":"喜樹路","SECT":" ","MAREA":" ","LANE":"２０６巷","ALLEY":" ","HOUSE_NO":"１０９號","E_COORD97":165683.72,"N_COORD97":2538346.4100000001,"ADDRESS":"喜樹路２０６巷１０９號","OBJECTID":239232},"geometry":{"x":165683.71999999974,"y":2538346.410000002}},{"attributes":{"ID":239237,"DIS_CODE":0,"TOWNNAME":"安平區","LI":"華平里","LIN":"14鄰","STREET":"永華路","SECT":"二段","MAREA":" ","LANE":" ","ALLEY":" ","HOUSE_NO":"６７８號","E_COORD97":165224.53,"N_COORD97":2543532.48,"ADDRESS":"永華路二段６７８號","OBJECTID":239233},"geometry":{"x":165224.53000000026,"y":2543532.4800000004}},{"attributes":{"ID":239238,"DIS_CODE":0,"TOWNNAME":"安平區","LI":"華平里","LIN":"14鄰","STREET":"永華路","SECT":"二段","MAREA":" ","LANE":" ","ALLEY":" ","HOUSE_NO":"６８０號","E_COORD97":165220.22,"N_COORD97":2543532.6600000001,"ADDRESS":"永華路二段６８０號","OBJECTID":239234},"geometry":{"x":165220.22000000067,"y":2543532.660000002}},{"attributes":{"ID":239239,"DIS_CODE":0,"TOWNNAME":"歸仁區","LI":"文化里","LIN":"14鄰","STREET":"文化北街","SECT":" ","MAREA":" ","LANE":" ","ALLEY":" ","HOUSE_NO":"８０號","E_COORD97":177273.56,"N_COORD97":2541412.3399999999,"ADDRESS":"文化北街８０號","OBJECTID":239235},"geometry":{"x":177273.56000000052,"y":2541412.3400000017}},{"attributes":{"ID":239240,"DIS_CODE":0,"TOWNNAME":"永康區","LI":"崑山里","LIN":"21鄰","STREET":"大灣路","SECT":" ","MAREA":" ","LANE":"９４２巷","ALLEY":" ","HOUSE_NO":"７０號","E_COORD97":173690.37,"N_COORD97":2544661.8100000001,"ADDRESS":"大灣路９４２巷７０號","OBJECTID":239236},"geometry":{"x":173690.37000000104,"y":2544661.8100000005}},{"attributes":{"ID":239241,"DIS_CODE":0,"TOWNNAME":"永康區","LI":"復華里","LIN":"16鄰","STREET":"國華街","SECT":" ","MAREA":" ","LANE":"１０２巷","ALLEY":" ","HOUSE_NO":"７７號","E_COORD97":172928.73999999999,"N_COORD97":2546165.98,"ADDRESS":"國華街１０２巷７７號","OBJECTID":239237},"geometry":{"x":172928.74000000115,"y":2546165.9800000004}},{"attributes":{"ID":239242,"DIS_CODE":0,"TOWNNAME":"北區","LI":"元寶里","LIN":"16鄰","STREET":"北園街","SECT":" ","MAREA":" ","LANE":"８巷","ALLEY":" ","HOUSE_NO":"２８號五樓之５","E_COORD97":170483.76999999999,"N_COORD97":2545668.25,"ADDRESS":"北園街８巷２８號五樓之５","OBJECTID":239238},"geometry":{"x":170483.76999999955,"y":2545668.2500000019}},{"attributes":{"ID":239243,"DIS_CODE":0,"TOWNNAME":"北區","LI":"元寶里","LIN":"16鄰","STREET":"北園街","SECT":" ","MAREA":" ","LANE":"８巷","ALLEY":" ","HOUSE_NO":"２８號五樓之６","E_COORD97":170483.76999999999,"N_COORD97":2545668.25,"ADDRESS":"北園街８巷２８號五樓之６","OBJECTID":239239},"geometry":{"x":170483.76999999955,"y":2545668.2500000019}},{"attributes":{"ID":239244,"DIS_CODE":0,"TOWNNAME":"南區","LI":"喜北里","LIN":"13鄰","STREET":"喜樹路","SECT":" ","MAREA":" ","LANE":"２０６巷","ALLEY":" ","HOUSE_NO":"１１１號","E_COORD97":165682.89000000001,"N_COORD97":2538350.5600000001,"ADDRESS":"喜樹路２０６巷１１１號","OBJECTID":239240},"geometry":{"x":165682.89000000153,"y":2538350.5600000024}},{"attributes":{"ID":239245,"DIS_CODE":0,"TOWNNAME":"南區","LI":"喜北里","LIN":"13鄰","STREET":"喜樹路","SECT":" ","MAREA":" ","LANE":"２０６巷","ALLEY":" ","HOUSE_NO":"１１３號","E_COORD97":165682.06,"N_COORD97":2538354.4100000001,"ADDRESS":"喜樹路２０６巷１１３號","OBJECTID":239241},"geometry":{"x":165682.06000000052,"y":2538354.410000002}},{"attributes":{"ID":239246,"DIS_CODE":0,"TOWNNAME":"南區","LI":"喜北里","LIN":"13鄰","STREET":"喜樹路","SECT":" ","MAREA":" ","LANE":"２０６巷","ALLEY":" ","HOUSE_NO":"１１５號","E_COORD97":165681.38,"N_COORD97":2538358.2599999998,"ADDRESS":"喜樹路２０６巷１１５號","OBJECTID":239242},"geometry":{"x":165681.38000000175,"y":2538358.2600000016}},{"attributes":{"ID":239247,"DIS_CODE":0,"TOWNNAME":"南區","LI":"喜北里","LIN":"13鄰","STREET":"喜樹路","SECT":" ","MAREA":" ","LANE":"２０６巷","ALLEY":" ","HOUSE_NO":"１１７號","E_COORD97":165680.54999999999,"N_COORD97":2538362.2599999998,"ADDRESS":"喜樹路２０６巷１１７號","OBJECTID":239243},"geometry":{"x":165680.55000000075,"y":2538362.2599999998}},{"attributes":{"ID":239248,"DIS_CODE":0,"TOWNNAME":"永康區","LI":"烏竹里","LIN":"13鄰","STREET":"龍橋街","SECT":" ","MAREA":" ","LANE":"３５０巷","ALLEY":" ","HOUSE_NO":"６３號","E_COORD97":174598.94,"N_COORD97":2549181.5499999998,"ADDRESS":"龍橋街３５０巷６３號","OBJECTID":239244},"geometry":{"x":174598.94000000134,"y":2549181.5500000045}},{"attributes":{"ID":239249,"DIS_CODE":0,"TOWNNAME":"永康區","LI":"埔園里","LIN":"13鄰","STREET":"中山路","SECT":" ","MAREA":" ","LANE":"２０７巷","ALLEY":" ","HOUSE_NO":"３３號","E_COORD97":173594.59,"N_COORD97":2548115.2400000002,"ADDRESS":"中山路２０７巷３３號","OBJECTID":239245},"geometry":{"x":173594.58999999985,"y":2548115.2400000039}},{"attributes":{"ID":239250,"DIS_CODE":0,"TOWNNAME":"永康區","LI":"埔園里","LIN":"13鄰","STREET":"中山路","SECT":" ","MAREA":" ","LANE":"２０７巷","ALLEY":" ","HOUSE_NO":"３９號","E_COORD97":173584.64000000001,"N_COORD97":2548122.4900000002,"ADDRESS":"中山路２０７巷３９號","OBJECTID":239246},"geometry":{"x":173584.6400000006,"y":2548122.4900000002}},{"attributes":{"ID":239251,"DIS_CODE":0,"TOWNNAME":"永康區","LI":"埔園里","LIN":"13鄰","STREET":"中山路","SECT":" ","MAREA":" ","LANE":"２０７巷","ALLEY":" ","HOUSE_NO":"７號","E_COORD97":173637.10000000001,"N_COORD97":2548083.5,"ADDRESS":"中山路２０７巷７號","OBJECTID":239247},"geometry":{"x":173637.10000000056,"y":2548083.5000000019}},{"attributes":{"ID":239252,"DIS_CODE":0,"TOWNNAME":"永康區","LI":"東灣里","LIN":"13鄰","STREET":"大灣二街","SECT":" ","MAREA":" ","LANE":"１１４巷","ALLEY":" ","HOUSE_NO":"２７號","E_COORD97":174789.20000000001,"N_COORD97":2544879.4100000001,"ADDRESS":"大灣二街１１４巷２７號","OBJECTID":239248},"geometry":{"x":174789.20000000019,"y":2544879.4100000039}},{"attributes":{"ID":239253,"DIS_CODE":0,"TOWNNAME":"永康區","LI":"南灣里","LIN":"13鄰","STREET":"立興街","SECT":" ","MAREA":" ","LANE":"５７巷","ALLEY":" ","HOUSE_NO":"２號","E_COORD97":174597.5,"N_COORD97":2544794.7000000002,"ADDRESS":"立興街５７巷２號","OBJECTID":239249},"geometry":{"x":174597.50000000186,"y":2544794.6999999993}},{"attributes":{"ID":239254,"DIS_CODE":0,"TOWNNAME":"永康區","LI":"南灣里","LIN":"13鄰","STREET":"大灣路","SECT":" ","MAREA":" ","LANE":"５５４巷","ALLEY":" ","HOUSE_NO":"４號","E_COORD97":174642.39999999999,"N_COORD97":2544792.1299999999,"ADDRESS":"大灣路５５４巷４號","OBJECTID":239250},"geometry":{"x":174642.39999999944,"y":2544792.1300000027}},{"attributes":{"ID":239255,"DIS_CODE":0,"TOWNNAME":"永康區","LI":"東灣里","LIN":"13鄰","STREET":"大灣二街","SECT":" ","MAREA":" ","LANE":"１１４巷","ALLEY":" ","HOUSE_NO":"１９號","E_COORD97":174782.10000000001,"N_COORD97":2544871,"ADDRESS":"大灣二街１１４巷１９號","OBJECTID":239251},"geometry":{"x":174782.09999999963,"y":2544871}},{"attributes":{"ID":239256,"DIS_CODE":0,"TOWNNAME":"永康區","LI":"埔園里","LIN":"13鄰","STREET":"中山路","SECT":" ","MAREA":" ","LANE":"２０７巷","ALLEY":" ","HOUSE_NO":"１２號","E_COORD97":173621.17999999999,"N_COORD97":2548122.4900000002,"ADDRESS":"中山路２０７巷１２號","OBJECTID":239252},"geometry":{"x":173621.18000000156,"y":2548122.4900000002}},{"attributes":{"ID":239257,"DIS_CODE":0,"TOWNNAME":"永康區","LI":"埔園里","LIN":"13鄰","STREET":"中山路","SECT":" ","MAREA":" ","LANE":"２０７巷","ALLEY":" ","HOUSE_NO":"１７號","E_COORD97":173621.64999999999,"N_COORD97":2548095.75,"ADDRESS":"中山路２０７巷１７號","OBJECTID":239253},"geometry":{"x":173621.65000000037,"y":2548095.7500000019}},{"attributes":{"ID":239258,"DIS_CODE":0,"TOWNNAME":"永康區","LI":"東灣里","LIN":"13鄰","STREET":"大灣二街","SECT":" ","MAREA":" ","LANE":"１１４巷","ALLEY":" ","HOUSE_NO":"１７號","E_COORD97":174778.48000000001,"N_COORD97":2544865.25,"ADDRESS":"大灣二街１１４巷１７號","OBJECTID":239254},"geometry":{"x":174778.48000000138,"y":2544865.25}},{"attributes":{"ID":239259,"DIS_CODE":0,"TOWNNAME":"永康區","LI":"東橋里","LIN":"13鄰","STREET":"中山南路","SECT":" ","MAREA":" ","LANE":"２３１巷","ALLEY":" ","HOUSE_NO":"８號","E_COORD97":171623.66,"N_COORD97":2546265.0800000001,"ADDRESS":"中山南路２３１巷８號","OBJECTID":239255},"geometry":{"x":171623.66000000108,"y":2546265.0800000038}},{"attributes":{"ID":239260,"DIS_CODE":0,"TOWNNAME":"永康區","LI":"東灣里","LIN":"13鄰","STREET":"大灣二街","SECT":" ","MAREA":" ","LANE":"１１４巷","ALLEY":" ","HOUSE_NO":"２９號","E_COORD97":174791.22,"N_COORD97":2544884.1600000001,"ADDRESS":"大灣二街１１４巷２９號","OBJECTID":239256},"geometry":{"x":174791.22000000067,"y":2544884.1600000001}},{"attributes":{"ID":239261,"DIS_CODE":0,"TOWNNAME":"永康區","LI":"東灣里","LIN":"13鄰","STREET":"大灣二街","SECT":" ","MAREA":" ","LANE":"１１４巷","ALLEY":" ","HOUSE_NO":"１１號","E_COORD97":174772.23999999999,"N_COORD97":2544852.75,"ADDRESS":"大灣二街１１４巷１１號","OBJECTID":239257},"geometry":{"x":174772.24000000209,"y":2544852.75}},{"attributes":{"ID":239262,"DIS_CODE":0,"TOWNNAME":"安平區","LI":"華平里","LIN":"14鄰","STREET":"永華路","SECT":"二段","MAREA":" ","LANE":" ","ALLEY":" ","HOUSE_NO":"６８２號","E_COORD97":165216.23999999999,"N_COORD97":2543532.6600000001,"ADDRESS":"永華路二段６８２號","OBJECTID":239258},"geometry":{"x":165216.24000000022,"y":2543532.660000002}},{"attributes":{"ID":239263,"DIS_CODE":0,"TOWNNAME":"安平區","LI":"華平里","LIN":"14鄰","STREET":"永華路","SECT":"二段","MAREA":" ","LANE":" ","ALLEY":" ","HOUSE_NO":"６８４號","E_COORD97":165211.41,"N_COORD97":2543532.8300000001,"ADDRESS":"永華路二段６８４號","OBJECTID":239259},"geometry":{"x":165211.41000000015,"y":2543532.8300000001}},{"attributes":{"ID":239264,"DIS_CODE":0,"TOWNNAME":"安平區","LI":"華平里","LIN":"14鄰","STREET":"永華路","SECT":"二段","MAREA":" ","LANE":" ","ALLEY":" ","HOUSE_NO":"６８６號","E_COORD97":165207.42999999999,"N_COORD97":2543533,"ADDRESS":"永華路二段６８６號","OBJECTID":239260},"geometry":{"x":165207.4299999997,"y":2543533.0000000019}},{"attributes":{"ID":239265,"DIS_CODE":0,"TOWNNAME":"安平區","LI":"華平里","LIN":"14鄰","STREET":"永華路","SECT":"二段","MAREA":" ","LANE":" ","ALLEY":" ","HOUSE_NO":"６８８號","E_COORD97":165203.63,"N_COORD97":2543533.3500000001,"ADDRESS":"永華路二段６８８號","OBJECTID":239261},"geometry":{"x":165203.63000000082,"y":2543533.3500000034}},{"attributes":{"ID":239266,"DIS_CODE":0,"TOWNNAME":"永康區","LI":"崑山里","LIN":"39鄰","STREET":"國光三街","SECT":" ","MAREA":" ","LANE":" ","ALLEY":" ","HOUSE_NO":"２號","E_COORD97":174153.60000000001,"N_COORD97":2544866.4500000002,"ADDRESS":"國光三街２號","OBJECTID":239262},"geometry":{"x":174153.59999999963,"y":2544866.4499999993}},{"attributes":{"ID":239267,"DIS_CODE":0,"TOWNNAME":"永康區","LI":"復國里","LIN":"5鄰","STREET":"復國一路","SECT":" ","MAREA":" ","LANE":"９０巷","ALLEY":" ","HOUSE_NO":"３３號","E_COORD97":172757.89000000001,"N_COORD97":2544938.7999999998,"ADDRESS":"復國一路９０巷３３號","OBJECTID":239263},"geometry":{"x":172757.88999999966,"y":2544938.8000000026}},{"attributes":{"ID":239268,"DIS_CODE":0,"TOWNNAME":"永康區","LI":"東橋里","LIN":"13鄰","STREET":"中山南路","SECT":" ","MAREA":" ","LANE":"２３１巷","ALLEY":" ","HOUSE_NO":"１４號","E_COORD97":171615.82999999999,"N_COORD97":2546277.3300000001,"ADDRESS":"中山南路２３１巷１４號","OBJECTID":239264},"geometry":{"x":171615.83000000101,"y":2546277.3300000019}},{"attributes":{"ID":239269,"DIS_CODE":0,"TOWNNAME":"永康區","LI":"埔園里","LIN":"13鄰","STREET":"中山路","SECT":" ","MAREA":" ","LANE":"２０７巷","ALLEY":" ","HOUSE_NO":"４３號","E_COORD97":173577.85000000001,"N_COORD97":2548127.4900000002,"ADDRESS":"中山路２０７巷４３號","OBJECTID":239265},"geometry":{"x":173577.85000000056,"y":2548127.4900000021}},{"attributes":{"ID":239270,"DIS_CODE":0,"TOWNNAME":"永康區","LI":"埔園里","LIN":"13鄰","STREET":"中山路","SECT":" ","MAREA":" ","LANE":"２０７巷","ALLEY":" ","HOUSE_NO":"４１號","E_COORD97":173581.16,"N_COORD97":2548125.2400000002,"ADDRESS":"中山路２０７巷４１號","OBJECTID":239266},"geometry":{"x":173581.16000000201,"y":2548125.2400000039}},{"attributes":{"ID":239271,"DIS_CODE":0,"TOWNNAME":"永康區","LI":"南灣里","LIN":"13鄰","STREET":"立興街","SECT":" ","MAREA":" ","LANE":"５７巷","ALLEY":" ","HOUSE_NO":"２０號","E_COORD97":174632.42999999999,"N_COORD97":2544810.0800000001,"ADDRESS":"立興街５７巷２０號","OBJECTID":239267},"geometry":{"x":174632.4299999997,"y":2544810.0799999982}},{"attributes":{"ID":239272,"DIS_CODE":0,"TOWNNAME":"安南區","LI":"學東里","LIN":"13鄰","STREET":"公學路","SECT":"七段","MAREA":" ","LANE":"４９巷","ALLEY":" ","HOUSE_NO":"１６０號","E_COORD97":161875.23000000001,"N_COORD97":2553180.3799999999,"ADDRESS":"公學路七段４９巷１６０號","OBJECTID":239268},"geometry":{"x":161875.23000000045,"y":2553180.379999999}},{"attributes":{"ID":239273,"DIS_CODE":0,"TOWNNAME":"東區","LI":"文聖里","LIN":"13鄰","STREET":"裕平路","SECT":" ","MAREA":" ","LANE":"１８８巷","ALLEY":" ","HOUSE_NO":"２５號","E_COORD97":172328.85999999999,"N_COORD97":2542762.9100000001,"ADDRESS":"裕平路１８８巷２５號","OBJECTID":239269},"geometry":{"x":172328.8600000022,"y":2542762.9100000001}},{"attributes":{"ID":239274,"DIS_CODE":0,"TOWNNAME":"東區","LI":"文聖里","LIN":"13鄰","STREET":"裕平路","SECT":" ","MAREA":" ","LANE":"１８８巷","ALLEY":" ","HOUSE_NO":"２６號","E_COORD97":172311.17999999999,"N_COORD97":2542777.3199999998,"ADDRESS":"裕平路１８８巷２６號","OBJECTID":239270},"geometry":{"x":172311.18000000063,"y":2542777.3200000003}},{"attributes":{"ID":239275,"DIS_CODE":0,"TOWNNAME":"東區","LI":"文聖里","LIN":"13鄰","STREET":"裕平路","SECT":" ","MAREA":" ","LANE":"１８８巷","ALLEY":" ","HOUSE_NO":"２７號","E_COORD97":172329.51000000001,"N_COORD97":2542759.3100000001,"ADDRESS":"裕平路１８８巷２７號","OBJECTID":239271},"geometry":{"x":172329.51000000071,"y":2542759.3100000024}},{"attributes":{"ID":239276,"DIS_CODE":0,"TOWNNAME":"東區","LI":"文聖里","LIN":"13鄰","STREET":"裕平路","SECT":" ","MAREA":" ","LANE":"１８８巷","ALLEY":" ","HOUSE_NO":"２８號","E_COORD97":172311.5,"N_COORD97":2542772.0800000001,"ADDRESS":"裕平路１８８巷２８號","OBJECTID":239272},"geometry":{"x":172311.5,"y":2542772.0800000001}},{"attributes":{"ID":239277,"DIS_CODE":0,"TOWNNAME":"東區","LI":"崇信里","LIN":"13鄰","STREET":"崇信街","SECT":" ","MAREA":" ","LANE":"５０巷","ALLEY":" ","HOUSE_NO":"７號","E_COORD97":170679.81,"N_COORD97":2542468.8700000001,"ADDRESS":"崇信街５０巷７號","OBJECTID":239273},"geometry":{"x":170679.81000000052,"y":2542468.870000001}},{"attributes":{"ID":239278,"DIS_CODE":0,"TOWNNAME":"東區","LI":"崇信里","LIN":"13鄰","STREET":"崇學路","SECT":" ","MAREA":" ","LANE":"２３０巷","ALLEY":" ","HOUSE_NO":"３７號","E_COORD97":170668.35000000001,"N_COORD97":2542461.9900000002,"ADDRESS":"崇學路２３０巷３７號","OBJECTID":239274},"geometry":{"x":170668.34999999963,"y":2542461.9900000021}},{"attributes":{"ID":239279,"DIS_CODE":0,"TOWNNAME":"東區","LI":"文聖里","LIN":"13鄰","STREET":"裕平路","SECT":" ","MAREA":" ","LANE":"１８８巷","ALLEY":" ","HOUSE_NO":"５號","E_COORD97":172330.17000000001,"N_COORD97":2542806.1400000001,"ADDRESS":"裕平路１８８巷５號","OBJECTID":239275},"geometry":{"x":172330.17000000086,"y":2542806.1400000006}},{"attributes":{"ID":239280,"DIS_CODE":0,"TOWNNAME":"安平區","LI":"華平里","LIN":"14鄰","STREET":"永華路","SECT":"二段","MAREA":" ","LANE":" ","ALLEY":" ","HOUSE_NO":"６９０號","E_COORD97":165199.14000000001,"N_COORD97":2543534.3799999999,"ADDRESS":"永華路二段６９０號","OBJECTID":239276},"geometry":{"x":165199.13999999966,"y":2543534.379999999}},{"attributes":{"ID":239281,"DIS_CODE":0,"TOWNNAME":"中西區","LI":"藥王里","LIN":"4鄰","STREET":"大福街","SECT":" ","MAREA":" ","LANE":"２７巷","ALLEY":" ","HOUSE_NO":"１７號","E_COORD97":167260.48870799999,"N_COORD97":2544397.7014600001,"ADDRESS":"大福街２７巷１７號","OBJECTID":239277},"geometry":{"x":167260.48870800063,"y":2544397.7014590017}},{"attributes":{"ID":239282,"DIS_CODE":0,"TOWNNAME":"北區","LI":"光武里","LIN":"16鄰","STREET":"北門路","SECT":"二段","MAREA":" ","LANE":"５７７巷","ALLEY":" ","HOUSE_NO":"２號三樓之２","E_COORD97":169657.76000000001,"N_COORD97":2545781.7000000002,"ADDRESS":"北門路二段５７７巷２號三樓之２","OBJECTID":239278},"geometry":{"x":169657.76000000071,"y":2545781.700000003}},{"attributes":{"ID":239283,"DIS_CODE":0,"TOWNNAME":"北區","LI":"光武里","LIN":"16鄰","STREET":"北門路","SECT":"二段","MAREA":" ","LANE":"５７７巷","ALLEY":" ","HOUSE_NO":"２號四樓之２","E_COORD97":169657.76000000001,"N_COORD97":2545781.7000000002,"ADDRESS":"北門路二段５７７巷２號四樓之２","OBJECTID":239279},"geometry":{"x":169657.76000000071,"y":2545781.700000003}},{"attributes":{"ID":239284,"DIS_CODE":0,"TOWNNAME":"北區","LI":"光武里","LIN":"16鄰","STREET":"北門路","SECT":"二段","MAREA":" ","LANE":"５７７巷","ALLEY":" ","HOUSE_NO":"２號五樓之２","E_COORD97":169657.76000000001,"N_COORD97":2545781.7000000002,"ADDRESS":"北門路二段５７７巷２號五樓之２","OBJECTID":239280},"geometry":{"x":169657.76000000071,"y":2545781.700000003}},{"attributes":{"ID":239285,"DIS_CODE":0,"TOWNNAME":"北區","LI":"光武里","LIN":"16鄰","STREET":"北門路","SECT":"二段","MAREA":" ","LANE":"５７７巷","ALLEY":" ","HOUSE_NO":"２號六樓之２","E_COORD97":169657.76000000001,"N_COORD97":2545781.7000000002,"ADDRESS":"北門路二段５７７巷２號六樓之２","OBJECTID":239281},"geometry":{"x":169657.76000000071,"y":2545781.700000003}},{"attributes":{"ID":239286,"DIS_CODE":0,"TOWNNAME":"北區","LI":"光武里","LIN":"16鄰","STREET":"北門路","SECT":"二段","MAREA":" ","LANE":"５７７巷","ALLEY":" ","HOUSE_NO":"２號七樓之２","E_COORD97":169657.76000000001,"N_COORD97":2545781.7000000002,"ADDRESS":"北門路二段５７７巷２號七樓之２","OBJECTID":239282},"geometry":{"x":169657.76000000071,"y":2545781.700000003}},{"attributes":{"ID":239287,"DIS_CODE":0,"TOWNNAME":"北區","LI":"光武里","LIN":"16鄰","STREET":"北門路","SECT":"二段","MAREA":" ","LANE":"５７７巷","ALLEY":" ","HOUSE_NO":"２號八樓之２","E_COORD97":169657.76000000001,"N_COORD97":2545781.7000000002,"ADDRESS":"北門路二段５７７巷２號八樓之２","OBJECTID":239283},"geometry":{"x":169657.76000000071,"y":2545781.700000003}},{"attributes":{"ID":239288,"DIS_CODE":0,"TOWNNAME":"南區","LI":"府南里","LIN":"12鄰","STREET":"永成路","SECT":"三段","MAREA":" ","LANE":"４１６巷","ALLEY":" ","HOUSE_NO":"２６號","E_COORD97":167585.37418000001,"N_COORD97":2541071.88166,"ADDRESS":"永成路三段４１６巷２６號","OBJECTID":239284},"geometry":{"x":167585.37418000028,"y":2541071.8816630002}},{"attributes":{"ID":239289,"DIS_CODE":0,"TOWNNAME":"北區","LI":"光武里","LIN":"16鄰","STREET":"北門路","SECT":"二段","MAREA":" ","LANE":"５７７巷","ALLEY":" ","HOUSE_NO":"２號九樓之２","E_COORD97":169657.76000000001,"N_COORD97":2545781.7000000002,"ADDRESS":"北門路二段５７７巷２號九樓之２","OBJECTID":239285},"geometry":{"x":169657.76000000071,"y":2545781.700000003}},{"attributes":{"ID":239290,"DIS_CODE":0,"TOWNNAME":"北區","LI":"光武里","LIN":"16鄰","STREET":"北門路","SECT":"二段","MAREA":" ","LANE":"５７７巷","ALLEY":" ","HOUSE_NO":"２號十樓之２","E_COORD97":169657.76000000001,"N_COORD97":2545781.7000000002,"ADDRESS":"北門路二段５７７巷２號十樓之２","OBJECTID":239286},"geometry":{"x":169657.76000000071,"y":2545781.700000003}},{"attributes":{"ID":239291,"DIS_CODE":0,"TOWNNAME":"永康區","LI":"崑山里","LIN":"41鄰","STREET":"崑山街","SECT":" ","MAREA":" ","LANE":"２０３巷","ALLEY":" ","HOUSE_NO":"４號","E_COORD97":174056.14000000001,"N_COORD97":2545010.1899999999,"ADDRESS":"崑山街２０３巷４號","OBJECTID":239287},"geometry":{"x":174056.1400000006,"y":2545010.1900000013}},{"attributes":{"ID":239292,"DIS_CODE":0,"TOWNNAME":"永康區","LI":"復國里","LIN":"17鄰","STREET":"國華街","SECT":" ","MAREA":" ","LANE":"１８巷","ALLEY":" ","HOUSE_NO":"９號","E_COORD97":172876.09,"N_COORD97":2545616.5,"ADDRESS":"國華街１８巷９號","OBJECTID":239288},"geometry":{"x":172876.09000000171,"y":2545616.5}},{"attributes":{"ID":239293,"DIS_CODE":0,"TOWNNAME":"永康區","LI":"復華里","LIN":"12鄰","STREET":"國華街","SECT":" ","MAREA":" ","LANE":"１００巷","ALLEY":" ","HOUSE_NO":"３４號","E_COORD97":172877.22,"N_COORD97":2546025.29,"ADDRESS":"國華街１００巷３４號","OBJECTID":239289},"geometry":{"x":172877.22000000067,"y":2546025.2900000028}},{"attributes":{"ID":239294,"DIS_CODE":0,"TOWNNAME":"永康區","LI":"復國里","LIN":"10鄰","STREET":"復國一路","SECT":" ","MAREA":" ","LANE":"２５０巷","ALLEY":" ","HOUSE_NO":"１０號","E_COORD97":172769.26000000001,"N_COORD97":2545333.8999999999,"ADDRESS":"復國一路２５０巷１０號","OBJECTID":239290},"geometry":{"x":172769.25999999978,"y":2545333.9000000041}},{"attributes":{"ID":239295,"DIS_CODE":0,"TOWNNAME":"永康區","LI":"復國里","LIN":"9鄰","STREET":"復國一路","SECT":" ","MAREA":" ","LANE":"２１０巷","ALLEY":" ","HOUSE_NO":"４５號","E_COORD97":172801.51999999999,"N_COORD97":2545212.4199999999,"ADDRESS":"復國一路２１０巷４５號","OBJECTID":239291},"geometry":{"x":172801.52000000142,"y":2545212.4200000018}},{"attributes":{"ID":239296,"DIS_CODE":0,"TOWNNAME":"東區","LI":"文聖里","LIN":"13鄰","STREET":"裕平路","SECT":" ","MAREA":" ","LANE":"１８８巷","ALLEY":" ","HOUSE_NO":"６號","E_COORD97":172312.81,"N_COORD97":2542810.0699999998,"ADDRESS":"裕平路１８８巷６號","OBJECTID":239292},"geometry":{"x":172312.80999999959,"y":2542810.0699999984}},{"attributes":{"ID":239297,"DIS_CODE":0,"TOWNNAME":"安平區","LI":"華平里","LIN":"14鄰","STREET":"永華路","SECT":"二段","MAREA":" ","LANE":" ","ALLEY":" ","HOUSE_NO":"６９２號","E_COORD97":165195.69,"N_COORD97":2543534.8999999999,"ADDRESS":"永華路二段６９２號","OBJECTID":239293},"geometry":{"x":165195.69000000134,"y":2543534.9000000022}},{"attributes":{"ID":239298,"DIS_CODE":0,"TOWNNAME":"安平區","LI":"華平里","LIN":"14鄰","STREET":"永華路","SECT":"二段","MAREA":" ","LANE":" ","ALLEY":" ","HOUSE_NO":"６９４號","E_COORD97":165191.20000000001,"N_COORD97":2543535.9300000002,"ADDRESS":"永華路二段６９４號","OBJECTID":239294},"geometry":{"x":165191.19999999925,"y":2543535.9299999978}},{"attributes":{"ID":239299,"DIS_CODE":0,"TOWNNAME":"安平區","LI":"華平里","LIN":"14鄰","STREET":"永華路","SECT":"二段","MAREA":" ","LANE":" ","ALLEY":" ","HOUSE_NO":"６９６號","E_COORD97":165186.88,"N_COORD97":2543536.4500000002,"ADDRESS":"永華路二段６９６號","OBJECTID":239295},"geometry":{"x":165186.88000000082,"y":2543536.4500000011}},{"attributes":{"ID":239300,"DIS_CODE":0,"TOWNNAME":"安平區","LI":"華平里","LIN":"14鄰","STREET":"永華路","SECT":"二段","MAREA":" ","LANE":" ","ALLEY":" ","HOUSE_NO":"７０４號","E_COORD97":165170.64000000001,"N_COORD97":2543538.8700000001,"ADDRESS":"永華路二段７０４號","OBJECTID":239296},"geometry":{"x":165170.63999999966,"y":2543538.8700000029}},{"attributes":{"ID":239301,"DIS_CODE":0,"TOWNNAME":"安平區","LI":"華平里","LIN":"14鄰","STREET":"永華路","SECT":"二段","MAREA":" ","LANE":" ","ALLEY":" ","HOUSE_NO":"７０６號","E_COORD97":165166.5,"N_COORD97":2543539.5600000001,"ADDRESS":"永華路二段７０６號","OBJECTID":239297},"geometry":{"x":165166.5,"y":2543539.5600000042}},{"attributes":{"ID":239302,"DIS_CODE":0,"TOWNNAME":"安平區","LI":"華平里","LIN":"14鄰","STREET":"永華路","SECT":"二段","MAREA":" ","LANE":" ","ALLEY":" ","HOUSE_NO":"７０８號","E_COORD97":165162.70000000001,"N_COORD97":2543540.0699999998,"ADDRESS":"永華路二段７０８號","OBJECTID":239298},"geometry":{"x":165162.70000000112,"y":2543540.0700000022}},{"attributes":{"ID":239303,"DIS_CODE":0,"TOWNNAME":"安平區","LI":"華平里","LIN":"14鄰","STREET":"永華路","SECT":"二段","MAREA":" ","LANE":" ","ALLEY":" ","HOUSE_NO":"７１０號","E_COORD97":165158.54999999999,"N_COORD97":2543540.9399999999,"ADDRESS":"永華路二段７１０號","OBJECTID":239299},"geometry":{"x":165158.55000000075,"y":2543540.9400000013}},{"attributes":{"ID":239304,"DIS_CODE":0,"TOWNNAME":"安平區","LI":"華平里","LIN":"14鄰","STREET":"永華路","SECT":"二段","MAREA":" ","LANE":" ","ALLEY":" ","HOUSE_NO":"７１２號","E_COORD97":165153.70999999999,"N_COORD97":2543541.2799999998,"ADDRESS":"永華路二段７１２號","OBJECTID":239300},"geometry":{"x":165153.71000000183,"y":2543541.2800000012}},{"attributes":{"ID":239305,"DIS_CODE":0,"TOWNNAME":"安平區","LI":"華平里","LIN":"14鄰","STREET":"永華路","SECT":"二段","MAREA":" ","LANE":" ","ALLEY":" ","HOUSE_NO":"７１４號","E_COORD97":165150.09,"N_COORD97":2543542.1400000001,"ADDRESS":"永華路二段７１４號","OBJECTID":239301},"geometry":{"x":165150.09000000078,"y":2543542.1400000006}},{"attributes":{"ID":239306,"DIS_CODE":0,"TOWNNAME":"安平區","LI":"華平里","LIN":"14鄰","STREET":"永華路","SECT":"二段","MAREA":" ","LANE":" ","ALLEY":" ","HOUSE_NO":"７１６號","E_COORD97":165146.10999999999,"N_COORD97":2543543.0099999998,"ADDRESS":"永華路二段７１６號","OBJECTID":239302},"geometry":{"x":165146.11000000034,"y":2543543.0100000016}},{"attributes":{"ID":239307,"DIS_CODE":0,"TOWNNAME":"安平區","LI":"華平里","LIN":"14鄰","STREET":"永華路","SECT":"二段","MAREA":" ","LANE":" ","ALLEY":" ","HOUSE_NO":"７１８號","E_COORD97":165140.92999999999,"N_COORD97":2543544.73,"ADDRESS":"永華路二段７１８號","OBJECTID":239303},"geometry":{"x":165140.93000000063,"y":2543544.7300000004}},{"attributes":{"ID":239308,"DIS_CODE":0,"TOWNNAME":"安平區","LI":"華平里","LIN":"14鄰","STREET":"永華路","SECT":"二段","MAREA":" ","LANE":" ","ALLEY":" ","HOUSE_NO":"７３６號","E_COORD97":165091.81,"N_COORD97":2543550.7999999998,"ADDRESS":"永華路二段７３６號","OBJECTID":239304},"geometry":{"x":165091.81000000052,"y":2543550.8000000007}},{"attributes":{"ID":239309,"DIS_CODE":0,"TOWNNAME":"安平區","LI":"華平里","LIN":"14鄰","STREET":"永華路","SECT":"二段","MAREA":" ","LANE":" ","ALLEY":" ","HOUSE_NO":"７３８號","E_COORD97":165087.48999999999,"N_COORD97":2543551.5600000001,"ADDRESS":"永華路二段７３８號","OBJECTID":239305},"geometry":{"x":165087.49000000022,"y":2543551.5600000005}},{"attributes":{"ID":239310,"DIS_CODE":0,"TOWNNAME":"安平區","LI":"華平里","LIN":"14鄰","STREET":"永華路","SECT":"二段","MAREA":" ","LANE":" ","ALLEY":" ","HOUSE_NO":"７４０號","E_COORD97":165084.31,"N_COORD97":2543552.4500000002,"ADDRESS":"永華路二段７４０號","OBJECTID":239306},"geometry":{"x":165084.30999999959,"y":2543552.450000003}},{"attributes":{"ID":239311,"DIS_CODE":0,"TOWNNAME":"永康區","LI":"復國里","LIN":"4鄰","STREET":"復國二路","SECT":" ","MAREA":" ","LANE":" ","ALLEY":" ","HOUSE_NO":"２１號","E_COORD97":172825.89000000001,"N_COORD97":2544905.6600000001,"ADDRESS":"復國二路２１號","OBJECTID":239307},"geometry":{"x":172825.88999999966,"y":2544905.660000002}},{"attributes":{"ID":239312,"DIS_CODE":0,"TOWNNAME":"永康區","LI":"崑山里","LIN":"38鄰","STREET":"崑山街","SECT":" ","MAREA":" ","LANE":"２０３巷","ALLEY":" ","HOUSE_NO":"２５號","E_COORD97":173996.20999999999,"N_COORD97":2545013.5699999998,"ADDRESS":"崑山街２０３巷２５號","OBJECTID":239308},"geometry":{"x":173996.21000000089,"y":2545013.5700000003}},{"attributes":{"ID":239313,"DIS_CODE":0,"TOWNNAME":"永康區","LI":"勝利里","LIN":"35鄰","STREET":"勝利街","SECT":" ","MAREA":" ","LANE":"２巷","ALLEY":" ","HOUSE_NO":"１號之１０","E_COORD97":171135.29999999999,"N_COORD97":2544690.5499999998,"ADDRESS":"勝利街２巷１號之１０","OBJECTID":239309},"geometry":{"x":171135.30000000168,"y":2544690.5500000026}},{"attributes":{"ID":239314,"DIS_CODE":0,"TOWNNAME":"永康區","LI":"復華里","LIN":"12鄰","STREET":"國華街","SECT":" ","MAREA":" ","LANE":"１０２巷","ALLEY":" ","HOUSE_NO":"１６號","E_COORD97":172851.17999999999,"N_COORD97":2546032.25,"ADDRESS":"國華街１０２巷１６號","OBJECTID":239310},"geometry":{"x":172851.1799999997,"y":2546032.25}},{"attributes":{"ID":239315,"DIS_CODE":0,"TOWNNAME":"永康區","LI":"復國里","LIN":"9鄰","STREET":"復國一路","SECT":" ","MAREA":" ","LANE":"２１０巷","ALLEY":" ","HOUSE_NO":"４７號","E_COORD97":172805.42000000001,"N_COORD97":2545212.1699999999,"ADDRESS":"復國一路２１０巷４７號","OBJECTID":239311},"geometry":{"x":172805.41999999993,"y":2545212.1699999999}},{"attributes":{"ID":239316,"DIS_CODE":0,"TOWNNAME":"南區","LI":"田寮里","LIN":"16鄰","STREET":"西門路","SECT":"一段","MAREA":" ","LANE":"３３３巷","ALLEY":" ","HOUSE_NO":"１９號二樓","E_COORD97":167657.23999999999,"N_COORD97":2542058.3700000001,"ADDRESS":"西門路一段３３３巷１９號二樓","OBJECTID":239312},"geometry":{"x":167657.24000000022,"y":2542058.370000001}},{"attributes":{"ID":239317,"DIS_CODE":0,"TOWNNAME":"南區","LI":"田寮里","LIN":"16鄰","STREET":"西門路","SECT":"一段","MAREA":" ","LANE":"３３３巷","ALLEY":" ","HOUSE_NO":"１９號三樓","E_COORD97":167657.23999999999,"N_COORD97":2542058.3700000001,"ADDRESS":"西門路一段３３３巷１９號三樓","OBJECTID":239313},"geometry":{"x":167657.24000000022,"y":2542058.370000001}},{"attributes":{"ID":239318,"DIS_CODE":0,"TOWNNAME":"南區","LI":"田寮里","LIN":"16鄰","STREET":"西門路","SECT":"一段","MAREA":" ","LANE":"３３３巷","ALLEY":" ","HOUSE_NO":"１９號四樓","E_COORD97":167657.23999999999,"N_COORD97":2542058.3700000001,"ADDRESS":"西門路一段３３３巷１９號四樓","OBJECTID":239314},"geometry":{"x":167657.24000000022,"y":2542058.370000001}},{"attributes":{"ID":239319,"DIS_CODE":0,"TOWNNAME":"永康區","LI":"勝利里","LIN":"2鄰","STREET":"勝利街","SECT":" ","MAREA":" ","LANE":"２巷","ALLEY":" ","HOUSE_NO":"７０號","E_COORD97":171001.51000000001,"N_COORD97":2544759.5099999998,"ADDRESS":"勝利街２巷７０號","OBJECTID":239315},"geometry":{"x":171001.50999999885,"y":2544759.5099999979}},{"attributes":{"ID":239320,"DIS_CODE":0,"TOWNNAME":"永康區","LI":"復國里","LIN":"36鄰","STREET":"復國一路","SECT":" ","MAREA":" ","LANE":"３９巷","ALLEY":" ","HOUSE_NO":"１４號","E_COORD97":172658.06,"N_COORD97":2544859.7799999998,"ADDRESS":"復國一路３９巷１４號","OBJECTID":239316},"geometry":{"x":172658.06000000052,"y":2544859.7800000012}},{"attributes":{"ID":239321,"DIS_CODE":0,"TOWNNAME":"永康區","LI":"復國里","LIN":"5鄰","STREET":"復國一路","SECT":" ","MAREA":" ","LANE":"９０巷","ALLEY":" ","HOUSE_NO":"３４號","E_COORD97":172783.95999999999,"N_COORD97":2544925.02,"ADDRESS":"復國一路９０巷３４號","OBJECTID":239317},"geometry":{"x":172783.96000000089,"y":2544925.0199999996}},{"attributes":{"ID":239322,"DIS_CODE":0,"TOWNNAME":"東區","LI":"文聖里","LIN":"13鄰","STREET":"裕平路","SECT":" ","MAREA":" ","LANE":"１８８巷","ALLEY":" ","HOUSE_NO":"８號","E_COORD97":172312.48999999999,"N_COORD97":2542805.8100000001,"ADDRESS":"裕平路１８８巷８號","OBJECTID":239318},"geometry":{"x":172312.48999999929,"y":2542805.8100000042}},{"attributes":{"ID":239323,"DIS_CODE":0,"TOWNNAME":"善化區","LI":"坐駕里","LIN":"13鄰","STREET":"大成路","SECT":" ","MAREA":" ","LANE":"３６７巷","ALLEY":" ","HOUSE_NO":"２６號","E_COORD97":178108.04999999999,"N_COORD97":2558673.5,"ADDRESS":"大成路３６７巷２６號","OBJECTID":239319},"geometry":{"x":178108.05000000075,"y":2558673.5}},{"attributes":{"ID":239324,"DIS_CODE":0,"TOWNNAME":"善化區","LI":"文正里","LIN":"13鄰","STREET":"陽明路","SECT":" ","MAREA":" ","LANE":"１４２巷","ALLEY":" ","HOUSE_NO":"３９之１０號","E_COORD97":176484.26000000001,"N_COORD97":2559582.02,"ADDRESS":"陽明路１４２巷３９之１０號","OBJECTID":239320},"geometry":{"x":176484.26000000071,"y":2559582.0200000033}},{"attributes":{"ID":239325,"DIS_CODE":0,"TOWNNAME":"善化區","LI":"文正里","LIN":"13鄰","STREET":"陽明路","SECT":" ","MAREA":" ","LANE":"１４２巷","ALLEY":" ","HOUSE_NO":"１號","E_COORD97":176345.06,"N_COORD97":2559530.0099999998,"ADDRESS":"陽明路１４２巷１號","OBJECTID":239321},"geometry":{"x":176345.06000000052,"y":2559530.0099999998}},{"attributes":{"ID":239326,"DIS_CODE":0,"TOWNNAME":"善化區","LI":"坐駕里","LIN":"13鄰","STREET":"大成路","SECT":" ","MAREA":" ","LANE":"３６７巷","ALLEY":" ","HOUSE_NO":"１４號","E_COORD97":178082.48999999999,"N_COORD97":2558708.25,"ADDRESS":"大成路３６７巷１４號","OBJECTID":239322},"geometry":{"x":178082.49000000022,"y":2558708.25}},{"attributes":{"ID":239327,"DIS_CODE":0,"TOWNNAME":"善化區","LI":"坐駕里","LIN":"13鄰","STREET":"大成路","SECT":" ","MAREA":" ","LANE":"３６７巷","ALLEY":" ","HOUSE_NO":"１９號","E_COORD97":178103.32999999999,"N_COORD97":2558693.75,"ADDRESS":"大成路３６７巷１９號","OBJECTID":239323},"geometry":{"x":178103.33000000101,"y":2558693.7500000019}},{"attributes":{"ID":239328,"DIS_CODE":0,"TOWNNAME":"善化區","LI":"坐駕里","LIN":"13鄰","STREET":"大成路","SECT":" ","MAREA":" ","LANE":"３６７巷","ALLEY":" ","HOUSE_NO":"２３號","E_COORD97":178095.45000000001,"N_COORD97":2558672.75,"ADDRESS":"大成路３６７巷２３號","OBJECTID":239324},"geometry":{"x":178095.45000000112,"y":2558672.7500000019}},{"attributes":{"ID":239329,"DIS_CODE":0,"TOWNNAME":"南區","LI":"開南里","LIN":"13鄰","STREET":"新建路","SECT":" ","MAREA":" ","LANE":"３８巷","ALLEY":" ","HOUSE_NO":"１２號","E_COORD97":166399.72,"N_COORD97":2540822.1400000001,"ADDRESS":"新建路３８巷１２號","OBJECTID":239325},"geometry":{"x":166399.72000000067,"y":2540822.1400000006}},{"attributes":{"ID":239330,"DIS_CODE":0,"TOWNNAME":"善化區","LI":"文正里","LIN":"13鄰","STREET":"陽明路","SECT":" ","MAREA":" ","LANE":"１４２巷","ALLEY":" ","HOUSE_NO":"３９之５號","E_COORD97":176513.87,"N_COORD97":2559542.52,"ADDRESS":"陽明路１４２巷３９之５號","OBJECTID":239326},"geometry":{"x":176513.86999999918,"y":2559542.5200000014}},{"attributes":{"ID":239331,"DIS_CODE":0,"TOWNNAME":"安平區","LI":"華平里","LIN":"14鄰","STREET":"永華路","SECT":"二段","MAREA":" ","LANE":" ","ALLEY":" ","HOUSE_NO":"７４２號","E_COORD97":165079.85999999999,"N_COORD97":2543553.0800000001,"ADDRESS":"永華路二段７４２號","OBJECTID":239327},"geometry":{"x":165079.86000000034,"y":2543553.0800000019}},{"attributes":{"ID":239332,"DIS_CODE":0,"TOWNNAME":"安平區","LI":"華平里","LIN":"14鄰","STREET":"永華路","SECT":"二段","MAREA":" ","LANE":" ","ALLEY":" ","HOUSE_NO":"７４２號之１","E_COORD97":165075.54000000001,"N_COORD97":2543553.9700000002,"ADDRESS":"永華路二段７４２號之１","OBJECTID":239328},"geometry":{"x":165075.54000000097,"y":2543553.9700000044}},{"attributes":{"ID":239333,"DIS_CODE":0,"TOWNNAME":"安平區","LI":"華平里","LIN":"14鄰","STREET":"永華路","SECT":"二段","MAREA":" ","LANE":" ","ALLEY":" ","HOUSE_NO":"７４６號","E_COORD97":165071.73000000001,"N_COORD97":2543554.6000000001,"ADDRESS":"永華路二段７４６號","OBJECTID":239329},"geometry":{"x":165071.73000000138,"y":2543554.5999999996}},{"attributes":{"ID":239334,"DIS_CODE":0,"TOWNNAME":"安平區","LI":"華平里","LIN":"14鄰","STREET":"永華路","SECT":"二段","MAREA":" ","LANE":" ","ALLEY":" ","HOUSE_NO":"７４８號","E_COORD97":165067.01999999999,"N_COORD97":2543554.73,"ADDRESS":"永華路二段７４８號","OBJECTID":239330},"geometry":{"x":165067.02000000048,"y":2543554.7300000004}},{"attributes":{"ID":239335,"DIS_CODE":0,"TOWNNAME":"安平區","LI":"華平里","LIN":"14鄰","STREET":"永華路","SECT":"二段","MAREA":" ","LANE":" ","ALLEY":" ","HOUSE_NO":"７５０號","E_COORD97":165063.59,"N_COORD97":2543555.48,"ADDRESS":"永華路二段７５０號","OBJECTID":239331},"geometry":{"x":165063.59000000078,"y":2543555.4800000004}},{"attributes":{"ID":239336,"DIS_CODE":0,"TOWNNAME":"安平區","LI":"華平里","LIN":"14鄰","STREET":"永華路","SECT":"二段","MAREA":" ","LANE":" ","ALLEY":" ","HOUSE_NO":"７５２號","E_COORD97":165059.64999999999,"N_COORD97":2543556.3799999999,"ADDRESS":"永華路二段７５２號","OBJECTID":239332},"geometry":{"x":165059.65000000224,"y":2543556.3800000008}},{"attributes":{"ID":239337,"DIS_CODE":0,"TOWNNAME":"安平區","LI":"華平里","LIN":"14鄰","STREET":"永華路","SECT":"二段","MAREA":" ","LANE":" ","ALLEY":" ","HOUSE_NO":"７５４號","E_COORD97":165054.95000000001,"N_COORD97":2543556.6299999999,"ADDRESS":"永華路二段７５４號","OBJECTID":239333},"geometry":{"x":165054.95000000019,"y":2543556.629999999}},{"attributes":{"ID":239338,"DIS_CODE":0,"TOWNNAME":"安平區","LI":"華平里","LIN":"14鄰","STREET":"永華路","SECT":"二段","MAREA":" ","LANE":" ","ALLEY":" ","HOUSE_NO":"７５６號","E_COORD97":165050.25,"N_COORD97":2543557.1400000001,"ADDRESS":"永華路二段７５６號","OBJECTID":239334},"geometry":{"x":165050.25000000093,"y":2543557.1400000025}},{"attributes":{"ID":239339,"DIS_CODE":0,"TOWNNAME":"歸仁區","LI":"新厝里","LIN":"14鄰","STREET":"公園路","SECT":" ","MAREA":" ","LANE":" ","ALLEY":" ","HOUSE_NO":"２３４號","E_COORD97":177676.03,"N_COORD97":2540409,"ADDRESS":"公園路２３４號","OBJECTID":239335},"geometry":{"x":177676.03000000212,"y":2540409}},{"attributes":{"ID":239340,"DIS_CODE":0,"TOWNNAME":"歸仁區","LI":"媽廟里","LIN":"14鄰","STREET":"中正北路","SECT":"三段","MAREA":" ","LANE":" ","ALLEY":" ","HOUSE_NO":"１０６號","E_COORD97":177602.45999999999,"N_COORD97":2543777.7200000002,"ADDRESS":"中正北路三段１０６號","OBJECTID":239336},"geometry":{"x":177602.45999999996,"y":2543777.7200000007}},{"attributes":{"ID":239341,"DIS_CODE":0,"TOWNNAME":"歸仁區","LI":"西埔里","LIN":"14鄰","STREET":"西埔二街","SECT":" ","MAREA":" ","LANE":" ","ALLEY":" ","HOUSE_NO":"８３號","E_COORD97":176742.23999999999,"N_COORD97":2544722.25,"ADDRESS":"西埔二街８３號","OBJECTID":239337},"geometry":{"x":176742.24000000209,"y":2544722.2500000019}},{"attributes":{"ID":239342,"DIS_CODE":0,"TOWNNAME":"永康區","LI":"崑山里","LIN":"46鄰","STREET":"永華路","SECT":" ","MAREA":" ","LANE":"３２巷","ALLEY":" ","HOUSE_NO":"３８號","E_COORD97":174183.54000000001,"N_COORD97":2545175.1699999999,"ADDRESS":"永華路３２巷３８號","OBJECTID":239338},"geometry":{"x":174183.5400000019,"y":2545175.1699999999}},{"attributes":{"ID":239343,"DIS_CODE":0,"TOWNNAME":"永康區","LI":"勝利里","LIN":"34鄰","STREET":"勝利街","SECT":" ","MAREA":" ","LANE":"１巷","ALLEY":" ","HOUSE_NO":"３５號","E_COORD97":171006.89999999999,"N_COORD97":2544653.2599999998,"ADDRESS":"勝利街１巷３５號","OBJECTID":239339},"geometry":{"x":171006.9000000013,"y":2544653.2600000016}},{"attributes":{"ID":239344,"DIS_CODE":0,"TOWNNAME":"永康區","LI":"復華里","LIN":"15鄰","STREET":"國華街","SECT":" ","MAREA":" ","LANE":"９１巷","ALLEY":" ","HOUSE_NO":"１０號","E_COORD97":172812.07999999999,"N_COORD97":2545975.1699999999,"ADDRESS":"國華街９１巷１０號","OBJECTID":239340},"geometry":{"x":172812.08000000101,"y":2545975.1699999999}},{"attributes":{"ID":239345,"DIS_CODE":0,"TOWNNAME":"南區","LI":"田寮里","LIN":"16鄰","STREET":"西門路","SECT":"一段","MAREA":" ","LANE":"３３３巷","ALLEY":" ","HOUSE_NO":"１９號五樓","E_COORD97":167657.23999999999,"N_COORD97":2542058.3700000001,"ADDRESS":"西門路一段３３３巷１９號五樓","OBJECTID":239341},"geometry":{"x":167657.24000000022,"y":2542058.370000001}},{"attributes":{"ID":239346,"DIS_CODE":0,"TOWNNAME":"永康區","LI":"復華里","LIN":"22鄰","STREET":"復華七街","SECT":" ","MAREA":" ","LANE":"１１７巷","ALLEY":" ","HOUSE_NO":"５號","E_COORD97":172804.20999999999,"N_COORD97":2546168.52,"ADDRESS":"復華七街１１７巷５號","OBJECTID":239342},"geometry":{"x":172804.21000000183,"y":2546168.5199999996}},{"attributes":{"ID":239347,"DIS_CODE":0,"TOWNNAME":"仁德區","LI":"一甲里","LIN":"13鄰","STREET":"忠義三街","SECT":" ","MAREA":" ","LANE":"２４巷","ALLEY":" ","HOUSE_NO":"１１號","E_COORD97":173674.26999999999,"N_COORD97":2541743.52,"ADDRESS":"忠義三街２４巷１１號","OBJECTID":239343},"geometry":{"x":173674.26999999955,"y":2541743.5200000014}},{"attributes":{"ID":239348,"DIS_CODE":0,"TOWNNAME":"仁德區","LI":"太子里","LIN":"13鄰","STREET":"長興二街","SECT":" ","MAREA":" ","LANE":"２６巷","ALLEY":" ","HOUSE_NO":"４號","E_COORD97":174412.51999999999,"N_COORD97":2543726.5099999998,"ADDRESS":"長興二街２６巷４號","OBJECTID":239344},"geometry":{"x":174412.52000000048,"y":2543726.5100000016}},{"attributes":{"ID":239349,"DIS_CODE":0,"TOWNNAME":"仁德區","LI":"土庫里","LIN":"13鄰","STREET":"土庫路","SECT":" ","MAREA":" ","LANE":"２４５巷","ALLEY":" ","HOUSE_NO":"７號","E_COORD97":174271.76000000001,"N_COORD97":2542837.4900000002,"ADDRESS":"土庫路２４５巷７號","OBJECTID":239345},"geometry":{"x":174271.76000000071,"y":2542837.4900000002}},{"attributes":{"ID":239350,"DIS_CODE":0,"TOWNNAME":"仁德區","LI":"上崙里","LIN":"13鄰","STREET":"德崙路","SECT":" ","MAREA":" ","LANE":"４５０巷","ALLEY":" ","HOUSE_NO":"１２號","E_COORD97":174205.34,"N_COORD97":2538033.02,"ADDRESS":"德崙路４５０巷１２號","OBJECTID":239346},"geometry":{"x":174205.34000000078,"y":2538033.0200000033}},{"attributes":{"ID":239351,"DIS_CODE":0,"TOWNNAME":"仁德區","LI":"土庫里","LIN":"13鄰","STREET":"土庫路","SECT":" ","MAREA":" ","LANE":"２１１巷","ALLEY":" ","HOUSE_NO":"１號","E_COORD97":174313.88,"N_COORD97":2542901.25,"ADDRESS":"土庫路２１１巷１號","OBJECTID":239347},"geometry":{"x":174313.88000000082,"y":2542901.2500000019}},{"attributes":{"ID":239352,"DIS_CODE":0,"TOWNNAME":"仁德區","LI":"二行里","LIN":"13鄰","STREET":"行大街","SECT":" ","MAREA":" ","LANE":"１７２巷","ALLEY":" ","HOUSE_NO":"６２號","E_COORD97":169860.48000000001,"N_COORD97":2535209.4900000002,"ADDRESS":"行大街１７２巷６２號","OBJECTID":239348},"geometry":{"x":169860.48000000138,"y":2535209.4900000039}},{"attributes":{"ID":239353,"DIS_CODE":0,"TOWNNAME":"新化區","LI":"東榮里","LIN":"13鄰","STREET":"中興路","SECT":" ","MAREA":" ","LANE":"５７０巷","ALLEY":" ","HOUSE_NO":"１０號","E_COORD97":179883.95999999999,"N_COORD97":2547987.25,"ADDRESS":"中興路５７０巷１０號","OBJECTID":239349},"geometry":{"x":179883.96000000089,"y":2547987.2500000019}},{"attributes":{"ID":239354,"DIS_CODE":0,"TOWNNAME":"新化區","LI":"東榮里","LIN":"13鄰","STREET":"中興路","SECT":" ","MAREA":" ","LANE":"５８０巷","ALLEY":" ","HOUSE_NO":"２８號","E_COORD97":179856.85999999999,"N_COORD97":2548037.25,"ADDRESS":"中興路５８０巷２８號","OBJECTID":239350},"geometry":{"x":179856.86000000034,"y":2548037.2500000019}},{"attributes":{"ID":239355,"DIS_CODE":0,"TOWNNAME":"新化區","LI":"豐榮里","LIN":"13鄰","STREET":"民治路","SECT":" ","MAREA":" ","LANE":"１８巷","ALLEY":" ","HOUSE_NO":"３號","E_COORD97":178762.85999999999,"N_COORD97":2548007.25,"ADDRESS":"民治路１８巷３號","OBJECTID":239351},"geometry":{"x":178762.86000000127,"y":2548007.2500000019}},{"attributes":{"ID":239356,"DIS_CODE":0,"TOWNNAME":"南區","LI":"開南里","LIN":"13鄰","STREET":"新建路","SECT":" ","MAREA":" ","LANE":"３６巷","ALLEY":" ","HOUSE_NO":"１１號","E_COORD97":166400.31,"N_COORD97":2540840.8900000001,"ADDRESS":"新建路３６巷１１號","OBJECTID":239352},"geometry":{"x":166400.31000000145,"y":2540840.8900000006}},{"attributes":{"ID":239357,"DIS_CODE":0,"TOWNNAME":"南區","LI":"開南里","LIN":"13鄰","STREET":"新建路","SECT":" ","MAREA":" ","LANE":"３６巷","ALLEY":" ","HOUSE_NO":"１號","E_COORD97":166439.82999999999,"N_COORD97":2540840.3599999999,"ADDRESS":"新建路３６巷１號","OBJECTID":239353},"geometry":{"x":166439.83000000101,"y":2540840.3599999994}},{"attributes":{"ID":239358,"DIS_CODE":0,"TOWNNAME":"南區","LI":"開南里","LIN":"13鄰","STREET":"新建路","SECT":" ","MAREA":" ","LANE":"３６巷","ALLEY":" ","HOUSE_NO":"３號","E_COORD97":166434.82999999999,"N_COORD97":2540840.6800000002,"ADDRESS":"新建路３６巷３號","OBJECTID":239354},"geometry":{"x":166434.83000000101,"y":2540840.6800000016}},{"attributes":{"ID":239359,"DIS_CODE":0,"TOWNNAME":"南區","LI":"開南里","LIN":"13鄰","STREET":"新建路","SECT":" ","MAREA":" ","LANE":"３６巷","ALLEY":" ","HOUSE_NO":"５號","E_COORD97":166423.48999999999,"N_COORD97":2540840.0099999998,"ADDRESS":"新建路３６巷５號","OBJECTID":239355},"geometry":{"x":166423.49000000209,"y":2540840.0099999998}},{"attributes":{"ID":239360,"DIS_CODE":0,"TOWNNAME":"南區","LI":"開南里","LIN":"13鄰","STREET":"新建路","SECT":" ","MAREA":" ","LANE":"３６巷","ALLEY":" ","HOUSE_NO":"７號","E_COORD97":166417.76999999999,"N_COORD97":2540840.7400000002,"ADDRESS":"新建路３６巷７號","OBJECTID":239356},"geometry":{"x":166417.77000000048,"y":2540840.7400000021}},{"attributes":{"ID":239361,"DIS_CODE":0,"TOWNNAME":"南區","LI":"開南里","LIN":"13鄰","STREET":"新建路","SECT":" ","MAREA":" ","LANE":"３６巷","ALLEY":" ","HOUSE_NO":"９號","E_COORD97":166405.14999999999,"N_COORD97":2540841.04,"ADDRESS":"新建路３６巷９號","OBJECTID":239357},"geometry":{"x":166405.15000000037,"y":2540841.040000001}},{"attributes":{"ID":239362,"DIS_CODE":0,"TOWNNAME":"南區","LI":"開南里","LIN":"13鄰","STREET":"新建路","SECT":" ","MAREA":" ","LANE":"３８巷","ALLEY":" ","HOUSE_NO":"１０號","E_COORD97":166404.42000000001,"N_COORD97":2540822.2799999998,"ADDRESS":"新建路３８巷１０號","OBJECTID":239358},"geometry":{"x":166404.41999999993,"y":2540822.2800000012}},{"attributes":{"ID":239363,"DIS_CODE":0,"TOWNNAME":"南區","LI":"開南里","LIN":"13鄰","STREET":"新建路","SECT":" ","MAREA":" ","LANE":"３８巷","ALLEY":" ","HOUSE_NO":"２號","E_COORD97":166439.17999999999,"N_COORD97":2540821.8500000001,"ADDRESS":"新建路３８巷２號","OBJECTID":239359},"geometry":{"x":166439.18000000063,"y":2540821.8500000015}},{"attributes":{"ID":239364,"DIS_CODE":0,"TOWNNAME":"南區","LI":"開南里","LIN":"13鄰","STREET":"新建路","SECT":" ","MAREA":" ","LANE":"３８巷","ALLEY":" ","HOUSE_NO":"４號","E_COORD97":166434.51000000001,"N_COORD97":2540822.5,"ADDRESS":"新建路３８巷４號","OBJECTID":239360},"geometry":{"x":166434.50999999978,"y":2540822.5}},{"attributes":{"ID":239365,"DIS_CODE":0,"TOWNNAME":"南區","LI":"開南里","LIN":"13鄰","STREET":"新建路","SECT":" ","MAREA":" ","LANE":"３８巷","ALLEY":" ","HOUSE_NO":"６號","E_COORD97":166422.89999999999,"N_COORD97":2540822.4300000002,"ADDRESS":"新建路３８巷６號","OBJECTID":239361},"geometry":{"x":166422.9000000013,"y":2540822.4299999997}},{"attributes":{"ID":239366,"DIS_CODE":0,"TOWNNAME":"南區","LI":"開南里","LIN":"13鄰","STREET":"新建路","SECT":" ","MAREA":" ","LANE":"３８巷","ALLEY":" ","HOUSE_NO":"８號","E_COORD97":166417.32999999999,"N_COORD97":2540822.5800000001,"ADDRESS":"新建路３８巷８號","OBJECTID":239362},"geometry":{"x":166417.33000000007,"y":2540822.5800000001}},{"attributes":{"ID":239367,"DIS_CODE":0,"TOWNNAME":"歸仁區","LI":"後市里","LIN":"14鄰","STREET":"中山路","SECT":"二段","MAREA":" ","LANE":" ","ALLEY":" ","HOUSE_NO":"２１１號","E_COORD97":177128.39000000001,"N_COORD97":2540822.25,"ADDRESS":"中山路二段２１１號","OBJECTID":239363},"geometry":{"x":177128.38999999966,"y":2540822.2500000037}},{"attributes":{"ID":239368,"DIS_CODE":0,"TOWNNAME":"歸仁區","LI":"看東里","LIN":"14鄰","STREET":"忠孝南路","SECT":" ","MAREA":" ","LANE":" ","ALLEY":" ","HOUSE_NO":"１１號","E_COORD97":178523.95999999999,"N_COORD97":2540599.6400000001,"ADDRESS":"忠孝南路１１號","OBJECTID":239364},"geometry":{"x":178523.96000000089,"y":2540599.6400000043}},{"attributes":{"ID":239369,"DIS_CODE":0,"TOWNNAME":"歸仁區","LI":"六甲里","LIN":"14鄰","STREET":"六甲路","SECT":" ","MAREA":" ","LANE":" ","ALLEY":" ","HOUSE_NO":"２６１號","E_COORD97":175887.76999999999,"N_COORD97":2539208.25,"ADDRESS":"六甲路２６１號","OBJECTID":239365},"geometry":{"x":175887.76999999955,"y":2539208.2500000037}},{"attributes":{"ID":239370,"DIS_CODE":0,"TOWNNAME":"歸仁區","LI":"西埔里","LIN":"14鄰","STREET":"西埔二街","SECT":" ","MAREA":" ","LANE":" ","ALLEY":" ","HOUSE_NO":"６５號","E_COORD97":176784.44,"N_COORD97":2544759.25,"ADDRESS":"西埔二街６５號","OBJECTID":239366},"geometry":{"x":176784.44000000041,"y":2544759.2500000019}},{"attributes":{"ID":239371,"DIS_CODE":0,"TOWNNAME":"歸仁區","LI":"大廟里","LIN":"14鄰","STREET":"大廟六街","SECT":" ","MAREA":" ","LANE":" ","ALLEY":" ","HOUSE_NO":"１２２號","E_COORD97":176201.12,"N_COORD97":2544284.25,"ADDRESS":"大廟六街１２２號","OBJECTID":239367},"geometry":{"x":176201.12000000104,"y":2544284.2500000019}},{"attributes":{"ID":239372,"DIS_CODE":0,"TOWNNAME":"南區","LI":"新昌里","LIN":"13鄰","STREET":"國華街","SECT":"一段","MAREA":" ","LANE":"１０８巷","ALLEY":" ","HOUSE_NO":"１０號之３","E_COORD97":167662.81,"N_COORD97":2542918.3199999998,"ADDRESS":"國華街一段１０８巷１０號之３","OBJECTID":239368},"geometry":{"x":167662.80999999959,"y":2542918.3200000022}},{"attributes":{"ID":239373,"DIS_CODE":0,"TOWNNAME":"麻豆區","LI":"保安里","LIN":"1鄰","STREET":"中正路","SECT":" ","MAREA":" ","LANE":" ","ALLEY":" ","HOUSE_NO":"１號之１","E_COORD97":173057.73999999999,"N_COORD97":2564851.2799999998,"ADDRESS":"中正路１號之１","OBJECTID":239369},"geometry":{"x":173057.74000000022,"y":2564851.2799999993}},{"attributes":{"ID":239374,"DIS_CODE":0,"TOWNNAME":"西港區","LI":"南海里","LIN":"16鄰","STREET":" ","SECT":" ","MAREA":"東港","LANE":" ","ALLEY":" ","HOUSE_NO":"１２之８號一樓","E_COORD97":166976.20999999999,"N_COORD97":2556193.7200000002,"ADDRESS":"東港１２之８號一樓","OBJECTID":239370},"geometry":{"x":166976.21000000089,"y":2556193.7200000007}},{"attributes":{"ID":239375,"DIS_CODE":0,"TOWNNAME":"西港區","LI":"南海里","LIN":"16鄰","STREET":" ","SECT":" ","MAREA":"東港","LANE":" ","ALLEY":" ","HOUSE_NO":"１２之８號二樓","E_COORD97":166976.20999999999,"N_COORD97":2556193.7200000002,"ADDRESS":"東港１２之８號二樓","OBJECTID":239371},"geometry":{"x":166976.21000000089,"y":2556193.7200000007}},{"attributes":{"ID":239376,"DIS_CODE":0,"TOWNNAME":"西港區","LI":"南海里","LIN":"16鄰","STREET":" ","SECT":" ","MAREA":"東港","LANE":" ","ALLEY":" ","HOUSE_NO":"１２之８號三樓","E_COORD97":166976.20999999999,"N_COORD97":2556193.7200000002,"ADDRESS":"東港１２之８號三樓","OBJECTID":239372},"geometry":{"x":166976.21000000089,"y":2556193.7200000007}},{"attributes":{"ID":239377,"DIS_CODE":0,"TOWNNAME":"永康區","LI":"勝利里","LIN":"4鄰","STREET":"勝學路","SECT":" ","MAREA":" ","LANE":"８９巷","ALLEY":" ","HOUSE_NO":"２號","E_COORD97":171137.26000000001,"N_COORD97":2544824,"ADDRESS":"勝學路８９巷２號","OBJECTID":239373},"geometry":{"x":171137.26000000164,"y":2544824}},{"attributes":{"ID":239378,"DIS_CODE":0,"TOWNNAME":"南區","LI":"廣州里","LIN":"13鄰","STREET":"福吉二街","SECT":" ","MAREA":" ","LANE":"４８巷","ALLEY":" ","HOUSE_NO":"１號","E_COORD97":167306.20999999999,"N_COORD97":2542764.5499999998,"ADDRESS":"福吉二街４８巷１號","OBJECTID":239374},"geometry":{"x":167306.20999999996,"y":2542764.5500000026}},{"attributes":{"ID":239379,"DIS_CODE":0,"TOWNNAME":"南區","LI":"廣州里","LIN":"13鄰","STREET":"福吉二街","SECT":" ","MAREA":" ","LANE":"４８巷","ALLEY":" ","HOUSE_NO":"５號","E_COORD97":167310.85999999999,"N_COORD97":2542774.25,"ADDRESS":"福吉二街４８巷５號","OBJECTID":239375},"geometry":{"x":167310.86000000034,"y":2542774.25}},{"attributes":{"ID":239380,"DIS_CODE":0,"TOWNNAME":"南區","LI":"喜北里","LIN":"13鄰","STREET":"喜樹路","SECT":" ","MAREA":" ","LANE":"２０６巷","ALLEY":" ","HOUSE_NO":"１３號","E_COORD97":165730.70000000001,"N_COORD97":2538130.6800000002,"ADDRESS":"喜樹路２０６巷１３號","OBJECTID":239376},"geometry":{"x":165730.70000000112,"y":2538130.6800000016}},{"attributes":{"ID":239381,"DIS_CODE":0,"TOWNNAME":"麻豆區","LI":"保安里","LIN":"1鄰","STREET":"中正路","SECT":" ","MAREA":" ","LANE":" ","ALLEY":" ","HOUSE_NO":"１號之２","E_COORD97":173058.91,"N_COORD97":2564854.96,"ADDRESS":"中正路１號之２","OBJECTID":239377},"geometry":{"x":173058.91000000201,"y":2564854.9600000009}},{"attributes":{"ID":239382,"DIS_CODE":0,"TOWNNAME":"安南區","LI":"\u25A0南里","LIN":"29鄰","STREET":"環福街","SECT":" ","MAREA":" ","LANE":"２６８巷","ALLEY":" ","HOUSE_NO":"９號","E_COORD97":170178.133798,"N_COORD97":2552727.0526000001,"ADDRESS":"環福街２６８巷９號","OBJECTID":239378},"geometry":{"x":170178.1337980004,"y":2552727.0526010022}},{"attributes":{"ID":239383,"DIS_CODE":0,"TOWNNAME":"南區","LI":"新生里","LIN":"16鄰","STREET":"大同路","SECT":"二段","MAREA":" ","LANE":"１１２巷","ALLEY":" ","HOUSE_NO":"７號三樓之３","E_COORD97":169190.73999999999,"N_COORD97":2542233.7200000002,"ADDRESS":"大同路二段１１２巷７號三樓之３","OBJECTID":239379},"geometry":{"x":169190.74000000115,"y":2542233.7200000025}},{"attributes":{"ID":239384,"DIS_CODE":0,"TOWNNAME":"南區","LI":"新生里","LIN":"16鄰","STREET":"大同路","SECT":"二段","MAREA":" ","LANE":"１１２巷","ALLEY":" ","HOUSE_NO":"７號三樓之５","E_COORD97":169190.73999999999,"N_COORD97":2542233.7200000002,"ADDRESS":"大同路二段１１２巷７號三樓之５","OBJECTID":239380},"geometry":{"x":169190.74000000115,"y":2542233.7200000025}},{"attributes":{"ID":239385,"DIS_CODE":0,"TOWNNAME":"永康區","LI":"勝利里","LIN":"33鄰","STREET":"小東路","SECT":" ","MAREA":" ","LANE":"４４９巷","ALLEY":" ","HOUSE_NO":"１９號","E_COORD97":171446.07000000001,"N_COORD97":2544459.25,"ADDRESS":"小東路４４９巷１９號","OBJECTID":239381},"geometry":{"x":171446.07000000123,"y":2544459.25}},{"attributes":{"ID":239386,"DIS_CODE":0,"TOWNNAME":"南區","LI":"喜北里","LIN":"13鄰","STREET":"喜樹路","SECT":" ","MAREA":" ","LANE":"２０６巷","ALLEY":" ","HOUSE_NO":"１１號","E_COORD97":165731.97,"N_COORD97":2538127.8199999998,"ADDRESS":"喜樹路２０６巷１１號","OBJECTID":239382},"geometry":{"x":165731.97000000067,"y":2538127.8200000022}},{"attributes":{"ID":239387,"DIS_CODE":0,"TOWNNAME":"安南區","LI":"大安里","LIN":"13鄰","STREET":"義安街","SECT":" ","MAREA":" ","LANE":"７０巷","ALLEY":" ","HOUSE_NO":"１１號","E_COORD97":167459.70000000001,"N_COORD97":2548008.6299999999,"ADDRESS":"義安街７０巷１１號","OBJECTID":239383},"geometry":{"x":167459.70000000112,"y":2548008.629999999}},{"attributes":{"ID":239388,"DIS_CODE":0,"TOWNNAME":"安南區","LI":"大安里","LIN":"13鄰","STREET":"義安街","SECT":" ","MAREA":" ","LANE":"７０巷","ALLEY":" ","HOUSE_NO":"１３號","E_COORD97":167464.01000000001,"N_COORD97":2548007.48,"ADDRESS":"義安街７０巷１３號","OBJECTID":239384},"geometry":{"x":167464.01000000071,"y":2548007.4800000004}},{"attributes":{"ID":239389,"DIS_CODE":0,"TOWNNAME":"安南區","LI":"大安里","LIN":"13鄰","STREET":"義安街","SECT":" ","MAREA":" ","LANE":"７０巷","ALLEY":" ","HOUSE_NO":"１５號","E_COORD97":167467.01999999999,"N_COORD97":2548006.0499999998,"ADDRESS":"義安街７０巷１５號","OBJECTID":239385},"geometry":{"x":167467.02000000048,"y":2548006.0500000026}},{"attributes":{"ID":239390,"DIS_CODE":0,"TOWNNAME":"安南區","LI":"大安里","LIN":"13鄰","STREET":"義安街","SECT":" ","MAREA":" ","LANE":"７０巷","ALLEY":" ","HOUSE_NO":"１７號","E_COORD97":167470.89000000001,"N_COORD97":2548003.8999999999,"ADDRESS":"義安街７０巷１７號","OBJECTID":239386},"geometry":{"x":167470.88999999966,"y":2548003.9000000022}},{"attributes":{"ID":239391,"DIS_CODE":0,"TOWNNAME":"安南區","LI":"大安里","LIN":"13鄰","STREET":"義安街","SECT":" ","MAREA":" ","LANE":"７０巷","ALLEY":" ","HOUSE_NO":"１９號","E_COORD97":167474.34,"N_COORD97":2548001.75,"ADDRESS":"義安街７０巷１９號","OBJECTID":239387},"geometry":{"x":167474.33999999985,"y":2548001.75}},{"attributes":{"ID":239392,"DIS_CODE":0,"TOWNNAME":"安南區","LI":"大安里","LIN":"13鄰","STREET":"義安街","SECT":" ","MAREA":" ","LANE":"７０巷","ALLEY":" ","HOUSE_NO":"１號","E_COORD97":167441.63,"N_COORD97":2548018.0899999999,"ADDRESS":"義安街７０巷１號","OBJECTID":239388},"geometry":{"x":167441.63000000082,"y":2548018.0900000017}},{"attributes":{"ID":239393,"DIS_CODE":0,"TOWNNAME":"安南區","LI":"大安里","LIN":"13鄰","STREET":"義安街","SECT":" ","MAREA":" ","LANE":"７０巷","ALLEY":" ","HOUSE_NO":"２３號","E_COORD97":167481.22,"N_COORD97":2547997.4399999999,"ADDRESS":"義安街７０巷２３號","OBJECTID":239389},"geometry":{"x":167481.22000000067,"y":2547997.4399999976}},{"attributes":{"ID":239394,"DIS_CODE":0,"TOWNNAME":"安南區","LI":"大安里","LIN":"13鄰","STREET":"義安街","SECT":" ","MAREA":" ","LANE":"７０巷","ALLEY":" ","HOUSE_NO":"２７號","E_COORD97":167488.97,"N_COORD97":2547995.0099999998,"ADDRESS":"義安街７０巷２７號","OBJECTID":239390},"geometry":{"x":167488.96999999974,"y":2547995.0100000016}},{"attributes":{"ID":239395,"DIS_CODE":0,"TOWNNAME":"安南區","LI":"大安里","LIN":"13鄰","STREET":"義安街","SECT":" ","MAREA":" ","LANE":"７０巷","ALLEY":" ","HOUSE_NO":"２９號","E_COORD97":167493.85000000001,"N_COORD97":2547995.7200000002,"ADDRESS":"義安街７０巷２９號","OBJECTID":239391},"geometry":{"x":167493.85000000056,"y":2547995.7200000007}},{"attributes":{"ID":239396,"DIS_CODE":0,"TOWNNAME":"安南區","LI":"大安里","LIN":"13鄰","STREET":"義安街","SECT":" ","MAREA":" ","LANE":"７０巷","ALLEY":" ","HOUSE_NO":"３１號","E_COORD97":167498.14999999999,"N_COORD97":2547994.5800000001,"ADDRESS":"義安街７０巷３１號","OBJECTID":239392},"geometry":{"x":167498.1500000013,"y":2547994.5800000019}},{"attributes":{"ID":239397,"DIS_CODE":0,"TOWNNAME":"安南區","LI":"大安里","LIN":"13鄰","STREET":"義安街","SECT":" ","MAREA":" ","LANE":"７０巷","ALLEY":" ","HOUSE_NO":"３號","E_COORD97":167445.64000000001,"N_COORD97":2548016.3700000001,"ADDRESS":"義安街７０巷３號","OBJECTID":239393},"geometry":{"x":167445.63999999873,"y":2548016.370000001}},{"attributes":{"ID":239398,"DIS_CODE":0,"TOWNNAME":"安南區","LI":"大安里","LIN":"13鄰","STREET":"義安街","SECT":" ","MAREA":" ","LANE":"７０巷","ALLEY":" ","HOUSE_NO":"７號","E_COORD97":167452.82000000001,"N_COORD97":2548012.0699999998,"ADDRESS":"義安街７０巷７號","OBJECTID":239394},"geometry":{"x":167452.82000000123,"y":2548012.0700000022}},{"attributes":{"ID":239399,"DIS_CODE":0,"TOWNNAME":"安南區","LI":"大安里","LIN":"13鄰","STREET":"義安街","SECT":" ","MAREA":" ","LANE":"７０巷","ALLEY":" ","HOUSE_NO":"９號","E_COORD97":167456.69,"N_COORD97":2548011.3500000001,"ADDRESS":"義安街７０巷９號","OBJECTID":239395},"geometry":{"x":167456.69000000134,"y":2548011.3499999996}},{"attributes":{"ID":239400,"DIS_CODE":0,"TOWNNAME":"白河區","LI":"庄內里","LIN":"13鄰","STREET":"裕農路","SECT":" ","MAREA":" ","LANE":"１６７巷","ALLEY":" ","HOUSE_NO":"１０號","E_COORD97":190804.29000000001,"N_COORD97":2583660.4100000001,"ADDRESS":"裕農路１６７巷１０號","OBJECTID":239396},"geometry":{"x":190804.29000000004,"y":2583660.4100000001}},{"attributes":{"ID":239401,"DIS_CODE":0,"TOWNNAME":"白河區","LI":"庄內里","LIN":"13鄰","STREET":"裕農路","SECT":" ","MAREA":" ","LANE":"１６７巷","ALLEY":" ","HOUSE_NO":"１２號","E_COORD97":190803.78,"N_COORD97":2583679.1600000001,"ADDRESS":"裕農路１６７巷１２號","OBJECTID":239397},"geometry":{"x":190803.78000000119,"y":2583679.1600000001}},{"attributes":{"ID":239402,"DIS_CODE":0,"TOWNNAME":"白河區","LI":"庄內里","LIN":"13鄰","STREET":"裕農路","SECT":" ","MAREA":" ","LANE":"１６７巷","ALLEY":" ","HOUSE_NO":"１４號","E_COORD97":190807.89000000001,"N_COORD97":2583678.1099999999,"ADDRESS":"裕農路１６７巷１４號","OBJECTID":239398},"geometry":{"x":190807.8900000006,"y":2583678.1100000013}},{"attributes":{"ID":239403,"DIS_CODE":0,"TOWNNAME":"白河區","LI":"庄內里","LIN":"13鄰","STREET":"裕農路","SECT":" ","MAREA":" ","LANE":"１６７巷","ALLEY":" ","HOUSE_NO":"１６號","E_COORD97":190813.10000000001,"N_COORD97":2583676.7400000002,"ADDRESS":"裕農路１６７巷１６號","OBJECTID":239399},"geometry":{"x":190813.10000000056,"y":2583676.7400000039}},{"attributes":{"ID":239404,"DIS_CODE":0,"TOWNNAME":"白河區","LI":"庄內里","LIN":"13鄰","STREET":"裕農路","SECT":" ","MAREA":" ","LANE":"１６７巷","ALLEY":" ","HOUSE_NO":"１８號","E_COORD97":190818.60999999999,"N_COORD97":2583675.6099999999,"ADDRESS":"裕農路１６７巷１８號","OBJECTID":239400},"geometry":{"x":190818.61000000127,"y":2583675.6099999994}}]}