{"displayFieldName":"TOWNNAME","fieldAliases":{"ID":"ID","DIS_CODE":"DIS_CODE","TOWNNAME":"TOWNNAME","LI":"LI","LIN":"LIN","STREET":"STREET","SECT":"SECT","MAREA":"MAREA","LANE":"LANE","ALLEY":"ALLEY","HOUSE_NO":"HOUSE_NO","E_COORD97":"E_COORD97","N_COORD97":"N_COORD97","ADDRESS":"ADDRESS","OBJECTID":"OBJECTID"},"geometryType":"esriGeometryPoint","spatialReference":{"wkid":102443,"latestWkid":3826},"fields":[{"name":"ID","type":"esriFieldTypeDouble","alias":"ID"},{"name":"DIS_CODE","type":"esriFieldTypeInteger","alias":"DIS_CODE"},{"name":"TOWNNAME","type":"esriFieldTypeString","alias":"TOWNNAME","length":8},{"name":"LI","type":"esriFieldTypeString","alias":"LI","length":8},{"name":"LIN","type":"esriFieldTypeString","alias":"LIN","length":12},{"name":"STREET","type":"esriFieldTypeString","alias":"STREET","length":20},{"name":"SECT","type":"esriFieldTypeString","alias":"SECT","length":8},{"name":"MAREA","type":"esriFieldTypeString","alias":"MAREA","length":12},{"name":"LANE","type":"esriFieldTypeString","alias":"LANE","length":10},{"name":"ALLEY","type":"esriFieldTypeString","alias":"ALLEY","length":10},{"name":"HOUSE_NO","type":"esriFieldTypeString","alias":"HOUSE_NO","length":20},{"name":"E_COORD97","type":"esriFieldTypeDouble","alias":"E_COORD97"},{"name":"N_COORD97","type":"esriFieldTypeDouble","alias":"N_COORD97"},{"name":"ADDRESS","type":"esriFieldTypeString","alias":"ADDRESS","length":50},{"name":"OBJECTID","type":"esriFieldTypeOID","alias":"OBJECTID"}],"features":[{"attributes":{"ID":639628,"DIS_CODE":0,"TOWNNAME":"歸仁區","LI":"後市里","LIN":"43鄰","STREET":"國光街","SECT":" ","MAREA":" ","LANE":" ","ALLEY":" ","HOUSE_NO":"６１號","E_COORD97":177179.79000000001,"N_COORD97":2540958.7400000002,"ADDRESS":"國光街６１號","OBJECTID":639601},"geometry":{"x":177179.79000000004,"y":2540958.7400000021}},{"attributes":{"ID":639629,"DIS_CODE":0,"TOWNNAME":"歸仁區","LI":"許厝里","LIN":"13鄰","STREET":"中山路","SECT":"一段","MAREA":" ","LANE":" ","ALLEY":" ","HOUSE_NO":"４５３號","E_COORD97":178101.60999999999,"N_COORD97":2540700.25,"ADDRESS":"中山路一段４５３號","OBJECTID":639602},"geometry":{"x":178101.61000000127,"y":2540700.2500000037}},{"attributes":{"ID":639630,"DIS_CODE":0,"TOWNNAME":"歸仁區","LI":"看西里","LIN":"4鄰","STREET":"仁愛十街","SECT":" ","MAREA":" ","LANE":" ","ALLEY":" ","HOUSE_NO":"１０號","E_COORD97":178241.06,"N_COORD97":2540327.2799999998,"ADDRESS":"仁愛十街１０號","OBJECTID":639603},"geometry":{"x":178241.05999999959,"y":2540327.2800000012}},{"attributes":{"ID":639631,"DIS_CODE":0,"TOWNNAME":"歸仁區","LI":"看西里","LIN":"5鄰","STREET":"信義南路","SECT":" ","MAREA":" ","LANE":" ","ALLEY":" ","HOUSE_NO":"１５７號","E_COORD97":178138.39999999999,"N_COORD97":2540311.4900000002,"ADDRESS":"信義南路１５７號","OBJECTID":639604},"geometry":{"x":178138.4000000013,"y":2540311.4900000002}},{"attributes":{"ID":639632,"DIS_CODE":0,"TOWNNAME":"歸仁區","LI":"許厝里","LIN":"38鄰","STREET":"公園路","SECT":" ","MAREA":" ","LANE":" ","ALLEY":" ","HOUSE_NO":"６４號","E_COORD97":178037.64000000001,"N_COORD97":2540539.2799999998,"ADDRESS":"公園路６４號","OBJECTID":639605},"geometry":{"x":178037.6400000006,"y":2540539.2799999993}},{"attributes":{"ID":639633,"DIS_CODE":0,"TOWNNAME":"歸仁區","LI":"崙頂里","LIN":"18鄰","STREET":"大成一街","SECT":" ","MAREA":" ","LANE":" ","ALLEY":" ","HOUSE_NO":"９７號","E_COORD97":177912.28,"N_COORD97":2540224.9100000001,"ADDRESS":"大成一街９７號","OBJECTID":639606},"geometry":{"x":177912.28000000119,"y":2540224.910000002}},{"attributes":{"ID":639634,"DIS_CODE":0,"TOWNNAME":"歸仁區","LI":"許厝里","LIN":"26鄰","STREET":"信義北路","SECT":" ","MAREA":" ","LANE":" ","ALLEY":" ","HOUSE_NO":"３２號","E_COORD97":178000.73000000001,"N_COORD97":2540813.23,"ADDRESS":"信義北路３２號","OBJECTID":639607},"geometry":{"x":178000.73000000138,"y":2540813.2300000023}},{"attributes":{"ID":639635,"DIS_CODE":0,"TOWNNAME":"歸仁區","LI":"許厝里","LIN":"26鄰","STREET":"中山路","SECT":"一段","MAREA":" ","LANE":" ","ALLEY":" ","HOUSE_NO":"４６０號","E_COORD97":178025.17999999999,"N_COORD97":2540737.9300000002,"ADDRESS":"中山路一段４６０號","OBJECTID":639608},"geometry":{"x":178025.18000000156,"y":2540737.9299999997}},{"attributes":{"ID":639636,"DIS_CODE":0,"TOWNNAME":"歸仁區","LI":"許厝里","LIN":"39鄰","STREET":"公園路","SECT":" ","MAREA":" ","LANE":" ","ALLEY":" ","HOUSE_NO":"７８號","E_COORD97":178000.64000000001,"N_COORD97":2540524.2799999998,"ADDRESS":"公園路７８號","OBJECTID":639609},"geometry":{"x":178000.6400000006,"y":2540524.2800000012}},{"attributes":{"ID":639637,"DIS_CODE":0,"TOWNNAME":"歸仁區","LI":"看西里","LIN":"20鄰","STREET":"成功路","SECT":"二段","MAREA":" ","LANE":" ","ALLEY":" ","HOUSE_NO":"５７號","E_COORD97":178131.23000000001,"N_COORD97":2539828.1899999999,"ADDRESS":"成功路二段５７號","OBJECTID":639610},"geometry":{"x":178131.23000000138,"y":2539828.1899999995}},{"attributes":{"ID":639638,"DIS_CODE":0,"TOWNNAME":"歸仁區","LI":"許厝里","LIN":"26鄰","STREET":"中山路","SECT":"一段","MAREA":" ","LANE":" ","ALLEY":" ","HOUSE_NO":"４３２號","E_COORD97":178103.54000000001,"N_COORD97":2540729.6499999999,"ADDRESS":"中山路一段４３２號","OBJECTID":639611},"geometry":{"x":178103.54000000097,"y":2540729.6500000022}},{"attributes":{"ID":639639,"DIS_CODE":0,"TOWNNAME":"歸仁區","LI":"歸仁里","LIN":"25鄰","STREET":"忠孝北路","SECT":" ","MAREA":" ","LANE":" ","ALLEY":" ","HOUSE_NO":"１７４號","E_COORD97":178170.82000000001,"N_COORD97":2541148.1099999999,"ADDRESS":"忠孝北路１７４號","OBJECTID":639612},"geometry":{"x":178170.82000000216,"y":2541148.1100000013}},{"attributes":{"ID":639640,"DIS_CODE":0,"TOWNNAME":"歸仁區","LI":"崙頂里","LIN":"4鄰","STREET":"大成路","SECT":" ","MAREA":" ","LANE":" ","ALLEY":" ","HOUSE_NO":"３３７號","E_COORD97":178044.13,"N_COORD97":2540138.25,"ADDRESS":"大成路３３７號","OBJECTID":639613},"geometry":{"x":178044.12999999989,"y":2540138.2500000019}},{"attributes":{"ID":639641,"DIS_CODE":0,"TOWNNAME":"歸仁區","LI":"看東里","LIN":"4鄰","STREET":"忠孝南路","SECT":" ","MAREA":" ","LANE":" ","ALLEY":" ","HOUSE_NO":"１９８號","E_COORD97":178490.07000000001,"N_COORD97":2540211.8300000001,"ADDRESS":"忠孝南路１９８號","OBJECTID":639614},"geometry":{"x":178490.07000000123,"y":2540211.8300000019}},{"attributes":{"ID":639642,"DIS_CODE":0,"TOWNNAME":"歸仁區","LI":"崙頂里","LIN":"5鄰","STREET":"大成路","SECT":" ","MAREA":" ","LANE":" ","ALLEY":" ","HOUSE_NO":"４１４號","E_COORD97":178075.35000000001,"N_COORD97":2540124.6800000002,"ADDRESS":"大成路４１４號","OBJECTID":639615},"geometry":{"x":178075.35000000056,"y":2540124.6800000016}},{"attributes":{"ID":639643,"DIS_CODE":0,"TOWNNAME":"歸仁區","LI":"後市里","LIN":"38鄰","STREET":"民權三街","SECT":" ","MAREA":" ","LANE":" ","ALLEY":" ","HOUSE_NO":"１１０號","E_COORD97":177253.57999999999,"N_COORD97":2541063.75,"ADDRESS":"民權三街１１０號","OBJECTID":639616},"geometry":{"x":177253.58000000101,"y":2541063.7500000019}},{"attributes":{"ID":639644,"DIS_CODE":0,"TOWNNAME":"歸仁區","LI":"歸仁里","LIN":"20鄰","STREET":"忠孝北路","SECT":" ","MAREA":" ","LANE":" ","ALLEY":" ","HOUSE_NO":"１８３號","E_COORD97":178121.07000000001,"N_COORD97":2541162.25,"ADDRESS":"忠孝北路１８３號","OBJECTID":639617},"geometry":{"x":178121.0700000003,"y":2541162.2500000019}},{"attributes":{"ID":639645,"DIS_CODE":0,"TOWNNAME":"歸仁區","LI":"歸仁里","LIN":"26鄰","STREET":"文化一街","SECT":" ","MAREA":" ","LANE":" ","ALLEY":" ","HOUSE_NO":"２９號","E_COORD97":178236.47,"N_COORD97":2541185.1299999999,"ADDRESS":"文化一街２９號","OBJECTID":639618},"geometry":{"x":178236.46999999974,"y":2541185.1300000008}},{"attributes":{"ID":639646,"DIS_CODE":0,"TOWNNAME":"歸仁區","LI":"許厝里","LIN":"26鄰","STREET":"中山路","SECT":"一段","MAREA":" ","LANE":" ","ALLEY":" ","HOUSE_NO":"４３８號","E_COORD97":178085.14000000001,"N_COORD97":2540732.6499999999,"ADDRESS":"中山路一段４３８號","OBJECTID":639619},"geometry":{"x":178085.1400000006,"y":2540732.6500000022}},{"attributes":{"ID":639647,"DIS_CODE":0,"TOWNNAME":"歸仁區","LI":"媽廟里","LIN":"8鄰","STREET":"和順路","SECT":"一段","MAREA":" ","LANE":" ","ALLEY":" ","HOUSE_NO":"２４號","E_COORD97":177460.17000000001,"N_COORD97":2543719.7200000002,"ADDRESS":"和順路一段２４號","OBJECTID":639620},"geometry":{"x":177460.17000000086,"y":2543719.7200000025}},{"attributes":{"ID":639648,"DIS_CODE":0,"TOWNNAME":"歸仁區","LI":"看東里","LIN":"4鄰","STREET":"成功六街","SECT":" ","MAREA":" ","LANE":" ","ALLEY":" ","HOUSE_NO":"２４號","E_COORD97":178399.60999999999,"N_COORD97":2540156.1099999999,"ADDRESS":"成功六街２４號","OBJECTID":639621},"geometry":{"x":178399.61000000127,"y":2540156.1100000013}},{"attributes":{"ID":639649,"DIS_CODE":0,"TOWNNAME":"歸仁區","LI":"看東里","LIN":"4鄰","STREET":"忠孝南路","SECT":" ","MAREA":" ","LANE":" ","ALLEY":" ","HOUSE_NO":"２１２號","E_COORD97":178527.97,"N_COORD97":2540192.8300000001,"ADDRESS":"忠孝南路２１２號","OBJECTID":639622},"geometry":{"x":178527.96999999974,"y":2540192.8300000001}},{"attributes":{"ID":639650,"DIS_CODE":0,"TOWNNAME":"歸仁區","LI":"辜厝里","LIN":"20鄰","STREET":"中正南路","SECT":"一段","MAREA":" ","LANE":" ","ALLEY":" ","HOUSE_NO":"１６６號","E_COORD97":177417.26000000001,"N_COORD97":2540407.9500000002,"ADDRESS":"中正南路一段１６６號","OBJECTID":639623},"geometry":{"x":177417.25999999978,"y":2540407.9500000011}},{"attributes":{"ID":639651,"DIS_CODE":0,"TOWNNAME":"歸仁區","LI":"許厝里","LIN":"32鄰","STREET":"復興路","SECT":" ","MAREA":" ","LANE":" ","ALLEY":" ","HOUSE_NO":"５６號","E_COORD97":177878.45999999999,"N_COORD97":2540621.54,"ADDRESS":"復興路５６號","OBJECTID":639624},"geometry":{"x":177878.46000000089,"y":2540621.5399999991}},{"attributes":{"ID":639652,"DIS_CODE":0,"TOWNNAME":"歸仁區","LI":"看西里","LIN":"4鄰","STREET":"仁愛南街","SECT":" ","MAREA":" ","LANE":" ","ALLEY":" ","HOUSE_NO":"９６號","E_COORD97":178269.5,"N_COORD97":2540411.29,"ADDRESS":"仁愛南街９６號","OBJECTID":639625},"geometry":{"x":178269.50000000093,"y":2540411.290000001}},{"attributes":{"ID":639653,"DIS_CODE":0,"TOWNNAME":"歸仁區","LI":"看東里","LIN":"4鄰","STREET":"忠孝南路","SECT":" ","MAREA":" ","LANE":" ","ALLEY":" ","HOUSE_NO":"２０２號","E_COORD97":178533.17000000001,"N_COORD97":2540212.8300000001,"ADDRESS":"忠孝南路２０２號","OBJECTID":639626},"geometry":{"x":178533.17000000086,"y":2540212.8300000019}},{"attributes":{"ID":639654,"DIS_CODE":0,"TOWNNAME":"歸仁區","LI":"許厝里","LIN":"18鄰","STREET":"仁愛北街","SECT":" ","MAREA":" ","LANE":" ","ALLEY":" ","HOUSE_NO":"６２號","E_COORD97":178299.92999999999,"N_COORD97":2540875.25,"ADDRESS":"仁愛北街６２號","OBJECTID":639627},"geometry":{"x":178299.93000000156,"y":2540875.25}},{"attributes":{"ID":639655,"DIS_CODE":0,"TOWNNAME":"歸仁區","LI":"後市里","LIN":"4鄰","STREET":"大吉街","SECT":" ","MAREA":" ","LANE":" ","ALLEY":" ","HOUSE_NO":"３５號","E_COORD97":177220.45999999999,"N_COORD97":2540718.25,"ADDRESS":"大吉街３５號","OBJECTID":639628},"geometry":{"x":177220.46000000089,"y":2540718.2500000019}},{"attributes":{"ID":639656,"DIS_CODE":0,"TOWNNAME":"歸仁區","LI":"後市里","LIN":"4鄰","STREET":"大吉街","SECT":" ","MAREA":" ","LANE":" ","ALLEY":" ","HOUSE_NO":"２５號","E_COORD97":177221.56,"N_COORD97":2540739.25,"ADDRESS":"大吉街２５號","OBJECTID":639629},"geometry":{"x":177221.55999999959,"y":2540739.25}},{"attributes":{"ID":639657,"DIS_CODE":0,"TOWNNAME":"歸仁區","LI":"南保里","LIN":"18鄰","STREET":"文化十街","SECT":" ","MAREA":" ","LANE":" ","ALLEY":" ","HOUSE_NO":"２５號","E_COORD97":176532.01999999999,"N_COORD97":2541290.2599999998,"ADDRESS":"文化十街２５號","OBJECTID":639630},"geometry":{"x":176532.01999999955,"y":2541290.2600000016}},{"attributes":{"ID":639658,"DIS_CODE":0,"TOWNNAME":"歸仁區","LI":"南興里","LIN":"20鄰","STREET":"文化街","SECT":"三段","MAREA":" ","LANE":" ","ALLEY":" ","HOUSE_NO":"５８２號","E_COORD97":175670.72,"N_COORD97":2541199.2599999998,"ADDRESS":"文化街三段５８２號","OBJECTID":639631},"geometry":{"x":175670.72000000067,"y":2541199.2600000016}},{"attributes":{"ID":639659,"DIS_CODE":0,"TOWNNAME":"歸仁區","LI":"南保里","LIN":"42鄰","STREET":"中山路","SECT":"三段","MAREA":" ","LANE":" ","ALLEY":" ","HOUSE_NO":"１９６號","E_COORD97":176532.81,"N_COORD97":2540930.0499999998,"ADDRESS":"中山路三段１９６號","OBJECTID":639632},"geometry":{"x":176532.81000000052,"y":2540930.0500000026}},{"attributes":{"ID":639660,"DIS_CODE":0,"TOWNNAME":"歸仁區","LI":"後市里","LIN":"36鄰","STREET":"民族一街","SECT":" ","MAREA":" ","LANE":" ","ALLEY":" ","HOUSE_NO":"２１號","E_COORD97":177299.23000000001,"N_COORD97":2541005.75,"ADDRESS":"民族一街２１號","OBJECTID":639633},"geometry":{"x":177299.23000000138,"y":2541005.7500000019}},{"attributes":{"ID":639661,"DIS_CODE":0,"TOWNNAME":"歸仁區","LI":"南保里","LIN":"25鄰","STREET":"文化街","SECT":"三段","MAREA":" ","LANE":" ","ALLEY":" ","HOUSE_NO":"１８１號","E_COORD97":176568.92000000001,"N_COORD97":2541180.2599999998,"ADDRESS":"文化街三段１８１號","OBJECTID":639634},"geometry":{"x":176568.91999999993,"y":2541180.2599999998}},{"attributes":{"ID":639662,"DIS_CODE":0,"TOWNNAME":"歸仁區","LI":"南興里","LIN":"25鄰","STREET":"南興街","SECT":" ","MAREA":" ","LANE":" ","ALLEY":" ","HOUSE_NO":"２６６號","E_COORD97":175535.70999999999,"N_COORD97":2541368.25,"ADDRESS":"南興街２６６號","OBJECTID":639635},"geometry":{"x":175535.71000000089,"y":2541368.2500000019}},{"attributes":{"ID":639663,"DIS_CODE":0,"TOWNNAME":"歸仁區","LI":"南保里","LIN":"57鄰","STREET":"民權十二街","SECT":" ","MAREA":" ","LANE":" ","ALLEY":" ","HOUSE_NO":"１７號","E_COORD97":176872.28,"N_COORD97":2540413.4900000002,"ADDRESS":"民權十二街１７號","OBJECTID":639636},"geometry":{"x":176872.27999999933,"y":2540413.4900000002}},{"attributes":{"ID":639664,"DIS_CODE":0,"TOWNNAME":"歸仁區","LI":"南興里","LIN":"18鄰","STREET":"南興一街","SECT":" ","MAREA":" ","LANE":" ","ALLEY":" ","HOUSE_NO":"１７號","E_COORD97":175677.01000000001,"N_COORD97":2541343.25,"ADDRESS":"南興一街１７號","OBJECTID":639637},"geometry":{"x":175677.01000000164,"y":2541343.25}},{"attributes":{"ID":639665,"DIS_CODE":0,"TOWNNAME":"歸仁區","LI":"南興里","LIN":"18鄰","STREET":"南興一街","SECT":" ","MAREA":" ","LANE":" ","ALLEY":" ","HOUSE_NO":"１９號","E_COORD97":175682.20999999999,"N_COORD97":2541343.25,"ADDRESS":"南興一街１９號","OBJECTID":639638},"geometry":{"x":175682.20999999996,"y":2541343.25}},{"attributes":{"ID":639666,"DIS_CODE":0,"TOWNNAME":"歸仁區","LI":"南興里","LIN":"26鄰","STREET":"文化二十街","SECT":" ","MAREA":" ","LANE":" ","ALLEY":" ","HOUSE_NO":"１２１號","E_COORD97":175447.01999999999,"N_COORD97":2541383.2599999998,"ADDRESS":"文化二十街１２１號","OBJECTID":639639},"geometry":{"x":175447.01999999955,"y":2541383.2599999998}},{"attributes":{"ID":639667,"DIS_CODE":0,"TOWNNAME":"歸仁區","LI":"南保里","LIN":"25鄰","STREET":"保興街","SECT":" ","MAREA":" ","LANE":" ","ALLEY":" ","HOUSE_NO":"６８號","E_COORD97":176510.57999999999,"N_COORD97":2541150.25,"ADDRESS":"保興街６８號","OBJECTID":639640},"geometry":{"x":176510.58000000007,"y":2541150.25}},{"attributes":{"ID":639668,"DIS_CODE":0,"TOWNNAME":"歸仁區","LI":"南保里","LIN":"42鄰","STREET":"保興二街","SECT":" ","MAREA":" ","LANE":" ","ALLEY":" ","HOUSE_NO":"１０號","E_COORD97":176531.53,"N_COORD97":2540990.25,"ADDRESS":"保興二街１０號","OBJECTID":639641},"geometry":{"x":176531.53000000026,"y":2540990.25}},{"attributes":{"ID":639669,"DIS_CODE":0,"TOWNNAME":"歸仁區","LI":"南保里","LIN":"57鄰","STREET":"民權十二街","SECT":" ","MAREA":" ","LANE":" ","ALLEY":" ","HOUSE_NO":"２４號","E_COORD97":176908.44,"N_COORD97":2540480.29,"ADDRESS":"民權十二街２４號","OBJECTID":639642},"geometry":{"x":176908.44000000041,"y":2540480.2899999991}},{"attributes":{"ID":639670,"DIS_CODE":0,"TOWNNAME":"歸仁區","LI":"文化里","LIN":"18鄰","STREET":"文化北二街","SECT":" ","MAREA":" ","LANE":" ","ALLEY":" ","HOUSE_NO":"５９號","E_COORD97":177104.91,"N_COORD97":2541462.3399999999,"ADDRESS":"文化北二街５９號","OBJECTID":639643},"geometry":{"x":177104.91000000015,"y":2541462.3400000017}},{"attributes":{"ID":639671,"DIS_CODE":0,"TOWNNAME":"歸仁區","LI":"後市里","LIN":"26鄰","STREET":"中山路","SECT":"二段","MAREA":" ","LANE":" ","ALLEY":" ","HOUSE_NO":"１２８號","E_COORD97":177270.13,"N_COORD97":2540835.7400000002,"ADDRESS":"中山路二段１２８號","OBJECTID":639644},"geometry":{"x":177270.13000000082,"y":2540835.7399999984}},{"attributes":{"ID":639672,"DIS_CODE":0,"TOWNNAME":"歸仁區","LI":"文化里","LIN":"18鄰","STREET":"文化北二街","SECT":" ","MAREA":" ","LANE":" ","ALLEY":" ","HOUSE_NO":"５７號","E_COORD97":177109.01000000001,"N_COORD97":2541462.3399999999,"ADDRESS":"文化北二街５７號","OBJECTID":639645},"geometry":{"x":177109.00999999978,"y":2541462.3400000017}},{"attributes":{"ID":639673,"DIS_CODE":0,"TOWNNAME":"歸仁區","LI":"後市里","LIN":"20鄰","STREET":"中山六街","SECT":" ","MAREA":" ","LANE":" ","ALLEY":" ","HOUSE_NO":"１１號","E_COORD97":177494.17000000001,"N_COORD97":2540875.25,"ADDRESS":"中山六街１１號","OBJECTID":639646},"geometry":{"x":177494.16999999993,"y":2540875.25}},{"attributes":{"ID":639674,"DIS_CODE":0,"TOWNNAME":"歸仁區","LI":"後市里","LIN":"39鄰","STREET":"文化街","SECT":"二段","MAREA":" ","LANE":" ","ALLEY":" ","HOUSE_NO":"５９號","E_COORD97":177327.79000000001,"N_COORD97":2541132.7599999998,"ADDRESS":"文化街二段５９號","OBJECTID":639647},"geometry":{"x":177327.79000000004,"y":2541132.7599999998}},{"attributes":{"ID":639675,"DIS_CODE":0,"TOWNNAME":"歸仁區","LI":"六甲里","LIN":"4鄰","STREET":"中正南路","SECT":"一段","MAREA":" ","LANE":" ","ALLEY":" ","HOUSE_NO":"７０１號","E_COORD97":176534.91,"N_COORD97":2539726.2799999998,"ADDRESS":"中正南路一段７０１號","OBJECTID":639648},"geometry":{"x":176534.91000000015,"y":2539726.2800000031}},{"attributes":{"ID":639676,"DIS_CODE":0,"TOWNNAME":"歸仁區","LI":"南保里","LIN":"57鄰","STREET":"民權十二街","SECT":" ","MAREA":" ","LANE":" ","ALLEY":" ","HOUSE_NO":"１５號","E_COORD97":176887.35999999999,"N_COORD97":2540412.52,"ADDRESS":"民權十二街１５號","OBJECTID":639649},"geometry":{"x":176887.36000000127,"y":2540412.5199999996}},{"attributes":{"ID":639677,"DIS_CODE":0,"TOWNNAME":"歸仁區","LI":"文化里","LIN":"18鄰","STREET":"文化北二街","SECT":" ","MAREA":" ","LANE":" ","ALLEY":" ","HOUSE_NO":"６３號","E_COORD97":177096.70999999999,"N_COORD97":2541463.3399999999,"ADDRESS":"文化北二街６３號","OBJECTID":639650},"geometry":{"x":177096.71000000089,"y":2541463.3400000017}},{"attributes":{"ID":639678,"DIS_CODE":0,"TOWNNAME":"歸仁區","LI":"南保里","LIN":"18鄰","STREET":"文化十街","SECT":" ","MAREA":" ","LANE":" ","ALLEY":" ","HOUSE_NO":"１號","E_COORD97":176536.29000000001,"N_COORD97":2541210.3300000001,"ADDRESS":"文化十街１號","OBJECTID":639651},"geometry":{"x":176536.29000000004,"y":2541210.3300000001}},{"attributes":{"ID":639679,"DIS_CODE":0,"TOWNNAME":"歸仁區","LI":"後市里","LIN":"26鄰","STREET":"中山路","SECT":"二段","MAREA":" ","LANE":" ","ALLEY":" ","HOUSE_NO":"１３２號","E_COORD97":177260.92999999999,"N_COORD97":2540836.7400000002,"ADDRESS":"中山路二段１３２號","OBJECTID":639652},"geometry":{"x":177260.93000000063,"y":2540836.7400000021}},{"attributes":{"ID":639680,"DIS_CODE":0,"TOWNNAME":"歸仁區","LI":"南保里","LIN":"42鄰","STREET":"保興二街","SECT":" ","MAREA":" ","LANE":" ","ALLEY":" ","HOUSE_NO":"２６號","E_COORD97":176564.17000000001,"N_COORD97":2540986.25,"ADDRESS":"保興二街２６號","OBJECTID":639653},"geometry":{"x":176564.16999999899,"y":2540986.2500000019}},{"attributes":{"ID":639681,"DIS_CODE":0,"TOWNNAME":"歸仁區","LI":"南保里","LIN":"41鄰","STREET":"保興二街","SECT":" ","MAREA":" ","LANE":" ","ALLEY":" ","HOUSE_NO":"９號","E_COORD97":176547.51999999999,"N_COORD97":2541002.25,"ADDRESS":"保興二街９號","OBJECTID":639654},"geometry":{"x":176547.51999999955,"y":2541002.2500000019}},{"attributes":{"ID":639682,"DIS_CODE":0,"TOWNNAME":"歸仁區","LI":"文化里","LIN":"13鄰","STREET":"大德路","SECT":" ","MAREA":" ","LANE":" ","ALLEY":" ","HOUSE_NO":"１７１號","E_COORD97":177357.17000000001,"N_COORD97":2541504.3300000001,"ADDRESS":"大德路１７１號","OBJECTID":639655},"geometry":{"x":177357.16999999993,"y":2541504.3300000019}},{"attributes":{"ID":639683,"DIS_CODE":0,"TOWNNAME":"歸仁區","LI":"南興里","LIN":"18鄰","STREET":"南興街","SECT":" ","MAREA":" ","LANE":" ","ALLEY":" ","HOUSE_NO":"２１３號","E_COORD97":175683.09,"N_COORD97":2541386.25,"ADDRESS":"南興街２１３號","OBJECTID":639656},"geometry":{"x":175683.08999999985,"y":2541386.2500000019}},{"attributes":{"ID":639684,"DIS_CODE":0,"TOWNNAME":"歸仁區","LI":"南保里","LIN":"43鄰","STREET":"民權十街","SECT":" ","MAREA":" ","LANE":" ","ALLEY":" ","HOUSE_NO":"１８號","E_COORD97":176904.76000000001,"N_COORD97":2540751.23,"ADDRESS":"民權十街１８號","OBJECTID":639657},"geometry":{"x":176904.76000000071,"y":2540751.2299999986}},{"attributes":{"ID":639685,"DIS_CODE":0,"TOWNNAME":"歸仁區","LI":"西埔里","LIN":"8鄰","STREET":"保大路","SECT":"二段","MAREA":" ","LANE":" ","ALLEY":" ","HOUSE_NO":"３２６號","E_COORD97":176577.87,"N_COORD97":2544140.2799999998,"ADDRESS":"保大路二段３２６號","OBJECTID":639658},"geometry":{"x":176577.87000000011,"y":2544140.2800000031}},{"attributes":{"ID":639686,"DIS_CODE":0,"TOWNNAME":"歸仁區","LI":"六甲里","LIN":"36鄰","STREET":"六甲路","SECT":" ","MAREA":" ","LANE":" ","ALLEY":" ","HOUSE_NO":"３３８號","E_COORD97":175602.87,"N_COORD97":2539238.25,"ADDRESS":"六甲路３３８號","OBJECTID":639659},"geometry":{"x":175602.87000000011,"y":2539238.25}},{"attributes":{"ID":639687,"DIS_CODE":0,"TOWNNAME":"歸仁區","LI":"南興里","LIN":"38鄰","STREET":"中山十街","SECT":" ","MAREA":" ","LANE":" ","ALLEY":" ","HOUSE_NO":"５６號","E_COORD97":175701.35999999999,"N_COORD97":2541153.25,"ADDRESS":"中山十街５６號","OBJECTID":639660},"geometry":{"x":175701.36000000127,"y":2541153.25}},{"attributes":{"ID":639688,"DIS_CODE":0,"TOWNNAME":"歸仁區","LI":"大潭里","LIN":"20鄰","STREET":"長榮路","SECT":"二段","MAREA":" ","LANE":" ","ALLEY":" ","HOUSE_NO":"３５３號","E_COORD97":178149.63,"N_COORD97":2534416.25,"ADDRESS":"長榮路二段３５３號","OBJECTID":639661},"geometry":{"x":178149.63000000175,"y":2534416.25}},{"attributes":{"ID":639689,"DIS_CODE":0,"TOWNNAME":"歸仁區","LI":"南興里","LIN":"25鄰","STREET":"南興街","SECT":" ","MAREA":" ","LANE":" ","ALLEY":" ","HOUSE_NO":"２５６號","E_COORD97":175543.69,"N_COORD97":2541391.25,"ADDRESS":"南興街２５６號","OBJECTID":639662},"geometry":{"x":175543.69000000041,"y":2541391.25}},{"attributes":{"ID":639690,"DIS_CODE":0,"TOWNNAME":"歸仁區","LI":"南保里","LIN":"39鄰","STREET":"保興二街","SECT":" ","MAREA":" ","LANE":" ","ALLEY":" ","HOUSE_NO":"５０號","E_COORD97":176620.47,"N_COORD97":2540975.25,"ADDRESS":"保興二街５０號","OBJECTID":639663},"geometry":{"x":176620.47000000067,"y":2540975.2500000019}},{"attributes":{"ID":639691,"DIS_CODE":0,"TOWNNAME":"歸仁區","LI":"南興里","LIN":"18鄰","STREET":"南興一街","SECT":" ","MAREA":" ","LANE":" ","ALLEY":" ","HOUSE_NO":"１號","E_COORD97":175652.94,"N_COORD97":2541343.25,"ADDRESS":"南興一街１號","OBJECTID":639664},"geometry":{"x":175652.94000000134,"y":2541343.25}},{"attributes":{"ID":639692,"DIS_CODE":0,"TOWNNAME":"歸仁區","LI":"大潭里","LIN":"20鄰","STREET":"長榮路","SECT":"二段","MAREA":" ","LANE":" ","ALLEY":" ","HOUSE_NO":"１３７號","E_COORD97":177016.26999999999,"N_COORD97":2534526.2799999998,"ADDRESS":"長榮路二段１３７號","OBJECTID":639665},"geometry":{"x":177016.27000000048,"y":2534526.2800000012}},{"attributes":{"ID":639693,"DIS_CODE":0,"TOWNNAME":"歸仁區","LI":"六甲里","LIN":"32鄰","STREET":"六甲路","SECT":" ","MAREA":" ","LANE":" ","ALLEY":" ","HOUSE_NO":"３０２號","E_COORD97":175720.363946,"N_COORD97":2539237.6389899999,"ADDRESS":"六甲路３０２號","OBJECTID":639666},"geometry":{"x":175720.36394600011,"y":2539237.6389879975}},{"attributes":{"ID":639694,"DIS_CODE":0,"TOWNNAME":"歸仁區","LI":"文化里","LIN":"18鄰","STREET":"文化北二街","SECT":" ","MAREA":" ","LANE":" ","ALLEY":" ","HOUSE_NO":"２９號","E_COORD97":177166.41,"N_COORD97":2541461.3399999999,"ADDRESS":"文化北二街２９號","OBJECTID":639667},"geometry":{"x":177166.41000000201,"y":2541461.3399999999}},{"attributes":{"ID":639695,"DIS_CODE":0,"TOWNNAME":"歸仁區","LI":"大潭里","LIN":"20鄰","STREET":"長榮路","SECT":"二段","MAREA":" ","LANE":" ","ALLEY":" ","HOUSE_NO":"１５９號","E_COORD97":177063.73000000001,"N_COORD97":2534520.25,"ADDRESS":"長榮路二段１５９號","OBJECTID":639668},"geometry":{"x":177063.73000000045,"y":2534520.2500000019}},{"attributes":{"ID":639696,"DIS_CODE":0,"TOWNNAME":"歸仁區","LI":"六甲里","LIN":"25鄰","STREET":"民生南街","SECT":"二段","MAREA":" ","LANE":" ","ALLEY":" ","HOUSE_NO":"５５９號","E_COORD97":176148.94,"N_COORD97":2539450.4900000002,"ADDRESS":"民生南街二段５５９號","OBJECTID":639669},"geometry":{"x":176148.94000000041,"y":2539450.4900000002}},{"attributes":{"ID":639697,"DIS_CODE":0,"TOWNNAME":"歸仁區","LI":"南保里","LIN":"42鄰","STREET":"保興二街","SECT":" ","MAREA":" ","LANE":" ","ALLEY":" ","HOUSE_NO":"１８號","E_COORD97":176554.87,"N_COORD97":2540989.25,"ADDRESS":"保興二街１８號","OBJECTID":639670},"geometry":{"x":176554.87000000104,"y":2540989.2500000019}},{"attributes":{"ID":639698,"DIS_CODE":0,"TOWNNAME":"歸仁區","LI":"六甲里","LIN":"38鄰","STREET":"六甲八街","SECT":" ","MAREA":" ","LANE":" ","ALLEY":" ","HOUSE_NO":"１５３號","E_COORD97":175286.45924500001,"N_COORD97":2539710.3700000001,"ADDRESS":"六甲八街１５３號","OBJECTID":639671},"geometry":{"x":175286.4592450019,"y":2539710.3700000048}},{"attributes":{"ID":639699,"DIS_CODE":0,"TOWNNAME":"歸仁區","LI":"後市里","LIN":"39鄰","STREET":"國光街","SECT":" ","MAREA":" ","LANE":" ","ALLEY":" ","HOUSE_NO":"１２３號","E_COORD97":177335.64000000001,"N_COORD97":2541113.7400000002,"ADDRESS":"國光街１２３號","OBJECTID":639672},"geometry":{"x":177335.64000000153,"y":2541113.7399999984}},{"attributes":{"ID":639700,"DIS_CODE":0,"TOWNNAME":"歸仁區","LI":"南保里","LIN":"57鄰","STREET":"民權十二街","SECT":" ","MAREA":" ","LANE":" ","ALLEY":" ","HOUSE_NO":"１２號","E_COORD97":176908.23999999999,"N_COORD97":2540442.29,"ADDRESS":"民權十二街１２號","OBJECTID":639673},"geometry":{"x":176908.24000000209,"y":2540442.290000001}},{"attributes":{"ID":639701,"DIS_CODE":0,"TOWNNAME":"歸仁區","LI":"南興里","LIN":"38鄰","STREET":"中山十街","SECT":" ","MAREA":" ","LANE":" ","ALLEY":" ","HOUSE_NO":"６２號","E_COORD97":175702.45999999999,"N_COORD97":2541168.25,"ADDRESS":"中山十街６２號","OBJECTID":639674},"geometry":{"x":175702.45999999996,"y":2541168.2500000019}},{"attributes":{"ID":639702,"DIS_CODE":0,"TOWNNAME":"歸仁區","LI":"後市里","LIN":"18鄰","STREET":"中山路","SECT":"二段","MAREA":" ","LANE":" ","ALLEY":" ","HOUSE_NO":"１６號","E_COORD97":177552.51999999999,"N_COORD97":2540798.25,"ADDRESS":"中山路二段１６號","OBJECTID":639675},"geometry":{"x":177552.51999999955,"y":2540798.2500000037}},{"attributes":{"ID":639703,"DIS_CODE":0,"TOWNNAME":"歸仁區","LI":"六甲里","LIN":"25鄰","STREET":"民生南街","SECT":"二段","MAREA":" ","LANE":" ","ALLEY":" ","HOUSE_NO":"５６３號","E_COORD97":176146.84,"N_COORD97":2539442.4900000002,"ADDRESS":"民生南街二段５６３號","OBJECTID":639676},"geometry":{"x":176146.84000000078,"y":2539442.4900000002}},{"attributes":{"ID":639704,"DIS_CODE":0,"TOWNNAME":"歸仁區","LI":"六甲里","LIN":"25鄰","STREET":"中正南路","SECT":"一段","MAREA":" ","LANE":" ","ALLEY":" ","HOUSE_NO":"９５２號","E_COORD97":176194.32000000001,"N_COORD97":2539386.2799999998,"ADDRESS":"中正南路一段９５２號","OBJECTID":639677},"geometry":{"x":176194.32000000123,"y":2539386.2799999993}},{"attributes":{"ID":639705,"DIS_CODE":0,"TOWNNAME":"歸仁區","LI":"南興里","LIN":"4鄰","STREET":"文化十二街","SECT":" ","MAREA":" ","LANE":" ","ALLEY":" ","HOUSE_NO":"３５號","E_COORD97":176427.29000000001,"N_COORD97":2541274.3300000001,"ADDRESS":"文化十二街３５號","OBJECTID":639678},"geometry":{"x":176427.29000000004,"y":2541274.3300000001}},{"attributes":{"ID":639706,"DIS_CODE":0,"TOWNNAME":"歸仁區","LI":"文化里","LIN":"18鄰","STREET":"文化北二街","SECT":" ","MAREA":" ","LANE":" ","ALLEY":" ","HOUSE_NO":"５５號","E_COORD97":177113.10999999999,"N_COORD97":2541462.3399999999,"ADDRESS":"文化北二街５５號","OBJECTID":639679},"geometry":{"x":177113.11000000127,"y":2541462.3400000017}},{"attributes":{"ID":639707,"DIS_CODE":0,"TOWNNAME":"歸仁區","LI":"南保里","LIN":"39鄰","STREET":"保興二街","SECT":" ","MAREA":" ","LANE":" ","ALLEY":" ","HOUSE_NO":"３８號","E_COORD97":176591.76999999999,"N_COORD97":2540985.25,"ADDRESS":"保興二街３８號","OBJECTID":639680},"geometry":{"x":176591.76999999955,"y":2540985.2500000019}},{"attributes":{"ID":639708,"DIS_CODE":0,"TOWNNAME":"歸仁區","LI":"南保里","LIN":"43鄰","STREET":"民權十街","SECT":" ","MAREA":" ","LANE":" ","ALLEY":" ","HOUSE_NO":"２０號","E_COORD97":176888.73999999999,"N_COORD97":2540750.02,"ADDRESS":"民權十街２０號","OBJECTID":639681},"geometry":{"x":176888.74000000022,"y":2540750.0200000014}},{"attributes":{"ID":639709,"DIS_CODE":0,"TOWNNAME":"歸仁區","LI":"南興里","LIN":"41鄰","STREET":"中山十一街","SECT":" ","MAREA":" ","LANE":" ","ALLEY":" ","HOUSE_NO":"２５號","E_COORD97":175813.31,"N_COORD97":2540924.25,"ADDRESS":"中山十一街２５號","OBJECTID":639682},"geometry":{"x":175813.30999999959,"y":2540924.2500000019}},{"attributes":{"ID":639710,"DIS_CODE":0,"TOWNNAME":"歸仁區","LI":"後市里","LIN":"20鄰","STREET":"中山六街","SECT":" ","MAREA":" ","LANE":" ","ALLEY":" ","HOUSE_NO":"１３號","E_COORD97":177495.17000000001,"N_COORD97":2540881.25,"ADDRESS":"中山六街１３號","OBJECTID":639683},"geometry":{"x":177495.17000000086,"y":2540881.2500000019}},{"attributes":{"ID":639711,"DIS_CODE":0,"TOWNNAME":"歸仁區","LI":"後市里","LIN":"48鄰","STREET":"文化五街","SECT":" ","MAREA":" ","LANE":" ","ALLEY":" ","HOUSE_NO":"９號","E_COORD97":177117.29000000001,"N_COORD97":2541172.7599999998,"ADDRESS":"文化五街９號","OBJECTID":639684},"geometry":{"x":177117.29000000004,"y":2541172.7599999998}},{"attributes":{"ID":639712,"DIS_CODE":0,"TOWNNAME":"歸仁區","LI":"南保里","LIN":"57鄰","STREET":"民權十二街","SECT":" ","MAREA":" ","LANE":" ","ALLEY":" ","HOUSE_NO":"１８號","E_COORD97":176908.34,"N_COORD97":2540458.29,"ADDRESS":"民權十二街１８號","OBJECTID":639685},"geometry":{"x":176908.33999999985,"y":2540458.2900000028}},{"attributes":{"ID":639713,"DIS_CODE":0,"TOWNNAME":"歸仁區","LI":"南保里","LIN":"57鄰","STREET":"民權十二街","SECT":" ","MAREA":" ","LANE":" ","ALLEY":" ","HOUSE_NO":"３７之１號","E_COORD97":176893.44,"N_COORD97":2540472.2999999998,"ADDRESS":"民權十二街３７之１號","OBJECTID":639686},"geometry":{"x":176893.43999999948,"y":2540472.3000000007}},{"attributes":{"ID":639714,"DIS_CODE":0,"TOWNNAME":"歸仁區","LI":"南興里","LIN":"26鄰","STREET":"文化二十街","SECT":" ","MAREA":" ","LANE":" ","ALLEY":" ","HOUSE_NO":"７３號","E_COORD97":175462.69,"N_COORD97":2541342.3300000001,"ADDRESS":"文化二十街７３號","OBJECTID":639687},"geometry":{"x":175462.68999999948,"y":2541342.3300000001}},{"attributes":{"ID":639715,"DIS_CODE":0,"TOWNNAME":"歸仁區","LI":"六甲里","LIN":"26鄰","STREET":"六甲路","SECT":" ","MAREA":" ","LANE":" ","ALLEY":" ","HOUSE_NO":"２２２號","E_COORD97":175966.76999999999,"N_COORD97":2539211.25,"ADDRESS":"六甲路２２２號","OBJECTID":639688},"geometry":{"x":175966.77000000048,"y":2539211.25}},{"attributes":{"ID":639716,"DIS_CODE":0,"TOWNNAME":"歸仁區","LI":"南興里","LIN":"41鄰","STREET":"中山十一街","SECT":" ","MAREA":" ","LANE":" ","ALLEY":" ","HOUSE_NO":"１８號","E_COORD97":175800.10999999999,"N_COORD97":2540951.25,"ADDRESS":"中山十一街１８號","OBJECTID":639689},"geometry":{"x":175800.11000000034,"y":2540951.2500000019}},{"attributes":{"ID":639717,"DIS_CODE":0,"TOWNNAME":"歸仁區","LI":"南保里","LIN":"63鄰","STREET":"大順街","SECT":" ","MAREA":" ","LANE":" ","ALLEY":" ","HOUSE_NO":"２９０號","E_COORD97":176623.87,"N_COORD97":2540616.25,"ADDRESS":"大順街２９０號","OBJECTID":639690},"geometry":{"x":176623.87000000011,"y":2540616.2500000019}},{"attributes":{"ID":639718,"DIS_CODE":0,"TOWNNAME":"歸仁區","LI":"南保里","LIN":"57鄰","STREET":"民權十二街","SECT":" ","MAREA":" ","LANE":" ","ALLEY":" ","HOUSE_NO":"３１號","E_COORD97":176891.84,"N_COORD97":2540449.29,"ADDRESS":"民權十二街３１號","OBJECTID":639691},"geometry":{"x":176891.84000000171,"y":2540449.290000001}},{"attributes":{"ID":639719,"DIS_CODE":0,"TOWNNAME":"歸仁區","LI":"南興里","LIN":"18鄰","STREET":"南興街","SECT":" ","MAREA":" ","LANE":" ","ALLEY":" ","HOUSE_NO":"２１５號","E_COORD97":175677.98999999999,"N_COORD97":2541386.25,"ADDRESS":"南興街２１５號","OBJECTID":639692},"geometry":{"x":175677.99000000115,"y":2541386.2500000019}},{"attributes":{"ID":639720,"DIS_CODE":0,"TOWNNAME":"歸仁區","LI":"後市里","LIN":"20鄰","STREET":"中山六街","SECT":" ","MAREA":" ","LANE":" ","ALLEY":" ","HOUSE_NO":"９號","E_COORD97":177492.82000000001,"N_COORD97":2540867.25,"ADDRESS":"中山六街９號","OBJECTID":639693},"geometry":{"x":177492.82000000123,"y":2540867.2500000019}},{"attributes":{"ID":639721,"DIS_CODE":0,"TOWNNAME":"歸仁區","LI":"六甲里","LIN":"26鄰","STREET":"六甲路","SECT":" ","MAREA":" ","LANE":" ","ALLEY":" ","HOUSE_NO":"２１４號","E_COORD97":175988.26999999999,"N_COORD97":2539207.25,"ADDRESS":"六甲路２１４號","OBJECTID":639694},"geometry":{"x":175988.26999999955,"y":2539207.25}},{"attributes":{"ID":639722,"DIS_CODE":0,"TOWNNAME":"歸仁區","LI":"六甲里","LIN":"4鄰","STREET":"中正十五街","SECT":" ","MAREA":" ","LANE":" ","ALLEY":" ","HOUSE_NO":"７號","E_COORD97":176454.85999999999,"N_COORD97":2539624.25,"ADDRESS":"中正十五街７號","OBJECTID":639695},"geometry":{"x":176454.8600000022,"y":2539624.25}},{"attributes":{"ID":639723,"DIS_CODE":0,"TOWNNAME":"歸仁區","LI":"南保里","LIN":"57鄰","STREET":"民權十二街","SECT":" ","MAREA":" ","LANE":" ","ALLEY":" ","HOUSE_NO":"１３號","E_COORD97":176896.56,"N_COORD97":2540412.52,"ADDRESS":"民權十二街１３號","OBJECTID":639696},"geometry":{"x":176896.55999999959,"y":2540412.5199999996}},{"attributes":{"ID":639724,"DIS_CODE":0,"TOWNNAME":"歸仁區","LI":"南保里","LIN":"38鄰","STREET":"保興二街","SECT":" ","MAREA":" ","LANE":" ","ALLEY":" ","HOUSE_NO":"３１號","E_COORD97":176615.57000000001,"N_COORD97":2541025.25,"ADDRESS":"保興二街３１號","OBJECTID":639697},"geometry":{"x":176615.5700000003,"y":2541025.2499999981}},{"attributes":{"ID":639725,"DIS_CODE":0,"TOWNNAME":"歸仁區","LI":"文化里","LIN":"18鄰","STREET":"文化北二街","SECT":" ","MAREA":" ","LANE":" ","ALLEY":" ","HOUSE_NO":"３９號","E_COORD97":177145.91,"N_COORD97":2541462.3399999999,"ADDRESS":"文化北二街３９號","OBJECTID":639698},"geometry":{"x":177145.90999999922,"y":2541462.3400000017}},{"attributes":{"ID":639726,"DIS_CODE":0,"TOWNNAME":"歸仁區","LI":"文化里","LIN":"18鄰","STREET":"文化北二街","SECT":" ","MAREA":" ","LANE":" ","ALLEY":" ","HOUSE_NO":"１３號","E_COORD97":177199.20999999999,"N_COORD97":2541458.3399999999,"ADDRESS":"文化北二街１３號","OBJECTID":639699},"geometry":{"x":177199.20999999996,"y":2541458.3399999999}},{"attributes":{"ID":639727,"DIS_CODE":0,"TOWNNAME":"歸仁區","LI":"大潭里","LIN":"20鄰","STREET":"長榮路","SECT":"二段","MAREA":" ","LANE":" ","ALLEY":" ","HOUSE_NO":"１６５號","E_COORD97":177090.42999999999,"N_COORD97":2534513.25,"ADDRESS":"長榮路二段１６５號","OBJECTID":639700},"geometry":{"x":177090.4299999997,"y":2534513.2500000019}},{"attributes":{"ID":639728,"DIS_CODE":0,"TOWNNAME":"歸仁區","LI":"六甲里","LIN":"32鄰","STREET":"六甲路","SECT":" ","MAREA":" ","LANE":" ","ALLEY":" ","HOUSE_NO":"３００號","E_COORD97":175726.29623400001,"N_COORD97":2539236.8981599999,"ADDRESS":"六甲路３００號","OBJECTID":639701},"geometry":{"x":175726.29623400141,"y":2539236.8981550019}},{"attributes":{"ID":639729,"DIS_CODE":0,"TOWNNAME":"歸仁區","LI":"南保里","LIN":"50鄰","STREET":"大順街","SECT":" ","MAREA":" ","LANE":" ","ALLEY":" ","HOUSE_NO":"２７１號","E_COORD97":176702.67000000001,"N_COORD97":2540597.25,"ADDRESS":"大順街２７１號","OBJECTID":639702},"geometry":{"x":176702.66999999993,"y":2540597.25}},{"attributes":{"ID":639730,"DIS_CODE":0,"TOWNNAME":"歸仁區","LI":"六甲里","LIN":"38鄰","STREET":"六甲八街","SECT":" ","MAREA":" ","LANE":" ","ALLEY":" ","HOUSE_NO":"１７５號","E_COORD97":175293.87460400001,"N_COORD97":2539781.4370499998,"ADDRESS":"六甲八街１７５號","OBJECTID":639703},"geometry":{"x":175293.87460400071,"y":2539781.4370450024}},{"attributes":{"ID":639731,"DIS_CODE":0,"TOWNNAME":"歸仁區","LI":"文化里","LIN":"18鄰","STREET":"文化北二街","SECT":" ","MAREA":" ","LANE":" ","ALLEY":" ","HOUSE_NO":"３５號","E_COORD97":177154.10999999999,"N_COORD97":2541462.3399999999,"ADDRESS":"文化北二街３５號","OBJECTID":639704},"geometry":{"x":177154.11000000127,"y":2541462.3400000017}},{"attributes":{"ID":639732,"DIS_CODE":0,"TOWNNAME":"歸仁區","LI":"南興里","LIN":"32鄰","STREET":"文化九街","SECT":" ","MAREA":" ","LANE":" ","ALLEY":" ","HOUSE_NO":"７號","E_COORD97":176364.79000000001,"N_COORD97":2541165.3300000001,"ADDRESS":"文化九街７號","OBJECTID":639705},"geometry":{"x":176364.79000000004,"y":2541165.3300000019}},{"attributes":{"ID":639733,"DIS_CODE":0,"TOWNNAME":"歸仁區","LI":"六甲里","LIN":"20鄰","STREET":"中正南路","SECT":"一段","MAREA":" ","LANE":" ","ALLEY":" ","HOUSE_NO":"７２８號","E_COORD97":176465.29024599999,"N_COORD97":2539710.2376299999,"ADDRESS":"中正南路一段７２８號","OBJECTID":639706},"geometry":{"x":176465.29024600051,"y":2539710.2376330011}},{"attributes":{"ID":639734,"DIS_CODE":0,"TOWNNAME":"歸仁區","LI":"南興里","LIN":"26鄰","STREET":"文化二十街","SECT":" ","MAREA":" ","LANE":" ","ALLEY":" ","HOUSE_NO":"７１號","E_COORD97":175468.89000000001,"N_COORD97":2541342.3300000001,"ADDRESS":"文化二十街７１號","OBJECTID":639707},"geometry":{"x":175468.88999999966,"y":2541342.3300000001}},{"attributes":{"ID":639735,"DIS_CODE":0,"TOWNNAME":"歸仁區","LI":"南興里","LIN":"39鄰","STREET":"中山十街","SECT":" ","MAREA":" ","LANE":" ","ALLEY":" ","HOUSE_NO":"５９號","E_COORD97":175678.95999999999,"N_COORD97":2541177.25,"ADDRESS":"中山十街５９號","OBJECTID":639708},"geometry":{"x":175678.95999999996,"y":2541177.25}},{"attributes":{"ID":639736,"DIS_CODE":0,"TOWNNAME":"歸仁區","LI":"南興里","LIN":"38鄰","STREET":"中山十街","SECT":" ","MAREA":" ","LANE":" ","ALLEY":" ","HOUSE_NO":"５８號","E_COORD97":175715.76000000001,"N_COORD97":2541160.25,"ADDRESS":"中山十街５８號","OBJECTID":639709},"geometry":{"x":175715.75999999978,"y":2541160.25}},{"attributes":{"ID":639737,"DIS_CODE":0,"TOWNNAME":"歸仁區","LI":"六甲里","LIN":"20鄰","STREET":"中正南路","SECT":"一段","MAREA":" ","LANE":" ","ALLEY":" ","HOUSE_NO":"７３２號","E_COORD97":176459.35795800001,"N_COORD97":2539702.5647200001,"ADDRESS":"中正南路一段７３２號","OBJECTID":639710},"geometry":{"x":176459.35795800015,"y":2539702.5647209994}},{"attributes":{"ID":639738,"DIS_CODE":0,"TOWNNAME":"歸仁區","LI":"六甲里","LIN":"25鄰","STREET":"中正南路","SECT":"一段","MAREA":" ","LANE":" ","ALLEY":" ","HOUSE_NO":"１０１８號","E_COORD97":176094.47,"N_COORD97":2539263.2799999998,"ADDRESS":"中正南路一段１０１８號","OBJECTID":639711},"geometry":{"x":176094.47000000067,"y":2539263.2799999993}},{"attributes":{"ID":639739,"DIS_CODE":0,"TOWNNAME":"歸仁區","LI":"後市里","LIN":"4鄰","STREET":"大吉街","SECT":" ","MAREA":" ","LANE":" ","ALLEY":" ","HOUSE_NO":"４９號","E_COORD97":177218.26000000001,"N_COORD97":2540689.25,"ADDRESS":"大吉街４９號","OBJECTID":639712},"geometry":{"x":177218.26000000071,"y":2540689.25}},{"attributes":{"ID":639740,"DIS_CODE":0,"TOWNNAME":"歸仁區","LI":"南興里","LIN":"38鄰","STREET":"中山十街","SECT":" ","MAREA":" ","LANE":" ","ALLEY":" ","HOUSE_NO":"４２號","E_COORD97":175699.26000000001,"N_COORD97":2541127.25,"ADDRESS":"中山十街４２號","OBJECTID":639713},"geometry":{"x":175699.26000000071,"y":2541127.2500000037}},{"attributes":{"ID":639741,"DIS_CODE":0,"TOWNNAME":"歸仁區","LI":"文化里","LIN":"18鄰","STREET":"文化北二街","SECT":" ","MAREA":" ","LANE":" ","ALLEY":" ","HOUSE_NO":"１５號","E_COORD97":177194.10999999999,"N_COORD97":2541460.3399999999,"ADDRESS":"文化北二街１５號","OBJECTID":639714},"geometry":{"x":177194.1100000022,"y":2541460.3400000017}},{"attributes":{"ID":639742,"DIS_CODE":0,"TOWNNAME":"歸仁區","LI":"大潭里","LIN":"20鄰","STREET":"長榮路","SECT":"二段","MAREA":" ","LANE":" ","ALLEY":" ","HOUSE_NO":"３６５號","E_COORD97":178359.82999999999,"N_COORD97":2534381.25,"ADDRESS":"長榮路二段３６５號","OBJECTID":639715},"geometry":{"x":178359.83000000007,"y":2534381.2500000019}},{"attributes":{"ID":639743,"DIS_CODE":0,"TOWNNAME":"歸仁區","LI":"六甲里","LIN":"25鄰","STREET":"中正南路","SECT":"一段","MAREA":" ","LANE":" ","ALLEY":" ","HOUSE_NO":"９６０號","E_COORD97":176180.92000000001,"N_COORD97":2539369.2799999998,"ADDRESS":"中正南路一段９６０號","OBJECTID":639716},"geometry":{"x":176180.91999999993,"y":2539369.2799999993}},{"attributes":{"ID":639744,"DIS_CODE":0,"TOWNNAME":"歸仁區","LI":"六甲里","LIN":"18鄰","STREET":"六甲三街","SECT":" ","MAREA":" ","LANE":" ","ALLEY":" ","HOUSE_NO":"３號","E_COORD97":175603.62499800001,"N_COORD97":2539212.4506700002,"ADDRESS":"六甲三街３號","OBJECTID":639717},"geometry":{"x":175603.62499800045,"y":2539212.4506679997}},{"attributes":{"ID":639745,"DIS_CODE":0,"TOWNNAME":"歸仁區","LI":"六甲里","LIN":"20鄰","STREET":"中正南路","SECT":"一段","MAREA":" ","LANE":" ","ALLEY":" ","HOUSE_NO":"７２４號","E_COORD97":176471.275501,"N_COORD97":2539717.0374199999,"ADDRESS":"中正南路一段７２４號","OBJECTID":639718},"geometry":{"x":176471.27550099976,"y":2539717.0374209993}},{"attributes":{"ID":639746,"DIS_CODE":0,"TOWNNAME":"歸仁區","LI":"六甲里","LIN":"25鄰","STREET":"民生南街","SECT":"二段","MAREA":" ","LANE":" ","ALLEY":" ","HOUSE_NO":"５６１號","E_COORD97":176147.94,"N_COORD97":2539447.4900000002,"ADDRESS":"民生南街二段５６１號","OBJECTID":639719},"geometry":{"x":176147.94000000134,"y":2539447.4900000039}},{"attributes":{"ID":639747,"DIS_CODE":0,"TOWNNAME":"歸仁區","LI":"六甲里","LIN":"13鄰","STREET":"六甲路","SECT":" ","MAREA":" ","LANE":" ","ALLEY":" ","HOUSE_NO":"２４９號","E_COORD97":175921.67000000001,"N_COORD97":2539207.25,"ADDRESS":"六甲路２４９號","OBJECTID":639720},"geometry":{"x":175921.66999999899,"y":2539207.25}},{"attributes":{"ID":639748,"DIS_CODE":0,"TOWNNAME":"歸仁區","LI":"文化里","LIN":"18鄰","STREET":"文化北二街","SECT":" ","MAREA":" ","LANE":" ","ALLEY":" ","HOUSE_NO":"２１號","E_COORD97":177182.81,"N_COORD97":2541461.3399999999,"ADDRESS":"文化北二街２１號","OBJECTID":639721},"geometry":{"x":177182.80999999959,"y":2541461.3399999999}},{"attributes":{"ID":639749,"DIS_CODE":0,"TOWNNAME":"歸仁區","LI":"後市里","LIN":"18鄰","STREET":"中山路","SECT":"二段","MAREA":" ","LANE":" ","ALLEY":" ","HOUSE_NO":"６號","E_COORD97":177571.67000000001,"N_COORD97":2540795.25,"ADDRESS":"中山路二段６號","OBJECTID":639722},"geometry":{"x":177571.67000000086,"y":2540795.2500000019}},{"attributes":{"ID":639750,"DIS_CODE":0,"TOWNNAME":"歸仁區","LI":"六甲里","LIN":"25鄰","STREET":"中正南路","SECT":"一段","MAREA":" ","LANE":" ","ALLEY":" ","HOUSE_NO":"９８２號","E_COORD97":176133.62,"N_COORD97":2539354.2799999998,"ADDRESS":"中正南路一段９８２號","OBJECTID":639723},"geometry":{"x":176133.62000000011,"y":2539354.2800000012}},{"attributes":{"ID":639751,"DIS_CODE":0,"TOWNNAME":"歸仁區","LI":"南興里","LIN":"39鄰","STREET":"中山十街","SECT":" ","MAREA":" ","LANE":" ","ALLEY":" ","HOUSE_NO":"５５號","E_COORD97":175679.95999999999,"N_COORD97":2541161.25,"ADDRESS":"中山十街５５號","OBJECTID":639724},"geometry":{"x":175679.96000000089,"y":2541161.2500000037}},{"attributes":{"ID":639752,"DIS_CODE":0,"TOWNNAME":"歸仁區","LI":"文化里","LIN":"18鄰","STREET":"文化北二街","SECT":" ","MAREA":" ","LANE":" ","ALLEY":" ","HOUSE_NO":"１１號","E_COORD97":177202.31,"N_COORD97":2541458.3399999999,"ADDRESS":"文化北二街１１號","OBJECTID":639725},"geometry":{"x":177202.31000000052,"y":2541458.3399999999}},{"attributes":{"ID":639753,"DIS_CODE":0,"TOWNNAME":"歸仁區","LI":"文化里","LIN":"25鄰","STREET":"文化北街","SECT":" ","MAREA":" ","LANE":" ","ALLEY":" ","HOUSE_NO":"１７２號","E_COORD97":177047.31,"N_COORD97":2541430.3399999999,"ADDRESS":"文化北街１７２號","OBJECTID":639726},"geometry":{"x":177047.30999999959,"y":2541430.3399999999}},{"attributes":{"ID":639754,"DIS_CODE":0,"TOWNNAME":"歸仁區","LI":"六甲里","LIN":"38鄰","STREET":"六甲八街","SECT":" ","MAREA":" ","LANE":" ","ALLEY":" ","HOUSE_NO":"８７號","E_COORD97":175348.76999999999,"N_COORD97":2539505.25,"ADDRESS":"六甲八街８７號","OBJECTID":639727},"geometry":{"x":175348.76999999955,"y":2539505.25}},{"attributes":{"ID":639755,"DIS_CODE":0,"TOWNNAME":"歸仁區","LI":"南興里","LIN":"18鄰","STREET":"南興街","SECT":" ","MAREA":" ","LANE":" ","ALLEY":" ","HOUSE_NO":"２１９號","E_COORD97":175670.79000000001,"N_COORD97":2541386.25,"ADDRESS":"南興街２１９號","OBJECTID":639728},"geometry":{"x":175670.79000000097,"y":2541386.2500000019}},{"attributes":{"ID":639756,"DIS_CODE":0,"TOWNNAME":"歸仁區","LI":"大潭里","LIN":"20鄰","STREET":"長榮路","SECT":"二段","MAREA":" ","LANE":" ","ALLEY":" ","HOUSE_NO":"１０７號","E_COORD97":176986.57000000001,"N_COORD97":2534532.2799999998,"ADDRESS":"長榮路二段１０７號","OBJECTID":639729},"geometry":{"x":176986.57000000123,"y":2534532.2800000012}},{"attributes":{"ID":639757,"DIS_CODE":0,"TOWNNAME":"歸仁區","LI":"後市里","LIN":"18鄰","STREET":"中山路","SECT":"二段","MAREA":" ","LANE":" ","ALLEY":" ","HOUSE_NO":"２０號","E_COORD97":177543.22,"N_COORD97":2540799.25,"ADDRESS":"中山路二段２０號","OBJECTID":639730},"geometry":{"x":177543.21999999974,"y":2540799.2500000019}},{"attributes":{"ID":639758,"DIS_CODE":0,"TOWNNAME":"歸仁區","LI":"文化里","LIN":"18鄰","STREET":"文化北二街","SECT":" ","MAREA":" ","LANE":" ","ALLEY":" ","HOUSE_NO":"１號","E_COORD97":177218.35999999999,"N_COORD97":2541434.3399999999,"ADDRESS":"文化北二街１號","OBJECTID":639731},"geometry":{"x":177218.36000000127,"y":2541434.3399999999}},{"attributes":{"ID":639759,"DIS_CODE":0,"TOWNNAME":"歸仁區","LI":"六甲里","LIN":"26鄰","STREET":"六甲路","SECT":" ","MAREA":" ","LANE":" ","ALLEY":" ","HOUSE_NO":"２１０號","E_COORD97":176015.07000000001,"N_COORD97":2539234.25,"ADDRESS":"六甲路２１０號","OBJECTID":639732},"geometry":{"x":176015.07000000123,"y":2539234.25}},{"attributes":{"ID":639760,"DIS_CODE":0,"TOWNNAME":"歸仁區","LI":"南興里","LIN":"40鄰","STREET":"中山路","SECT":"三段","MAREA":" ","LANE":" ","ALLEY":" ","HOUSE_NO":"２８５號","E_COORD97":176264.76000000001,"N_COORD97":2540934.2799999998,"ADDRESS":"中山路三段２８５號","OBJECTID":639733},"geometry":{"x":176264.75999999978,"y":2540934.2800000012}},{"attributes":{"ID":639761,"DIS_CODE":0,"TOWNNAME":"歸仁區","LI":"六甲里","LIN":"26鄰","STREET":"六甲路","SECT":" ","MAREA":" ","LANE":" ","ALLEY":" ","HOUSE_NO":"２１８號","E_COORD97":175978.07000000001,"N_COORD97":2539208.25,"ADDRESS":"六甲路２１８號","OBJECTID":639734},"geometry":{"x":175978.0700000003,"y":2539208.2500000037}},{"attributes":{"ID":639762,"DIS_CODE":0,"TOWNNAME":"歸仁區","LI":"西埔里","LIN":"13鄰","STREET":"西埔二街","SECT":" ","MAREA":" ","LANE":" ","ALLEY":" ","HOUSE_NO":"５６號","E_COORD97":176921.94,"N_COORD97":2544770.25,"ADDRESS":"西埔二街５６號","OBJECTID":639735},"geometry":{"x":176921.94000000041,"y":2544770.25}},{"attributes":{"ID":639763,"DIS_CODE":0,"TOWNNAME":"歸仁區","LI":"南興里","LIN":"18鄰","STREET":"南興街","SECT":" ","MAREA":" ","LANE":" ","ALLEY":" ","HOUSE_NO":"２０９號","E_COORD97":175690.29000000001,"N_COORD97":2541386.25,"ADDRESS":"南興街２０９號","OBJECTID":639736},"geometry":{"x":175690.29000000004,"y":2541386.2500000019}},{"attributes":{"ID":639764,"DIS_CODE":0,"TOWNNAME":"歸仁區","LI":"六甲里","LIN":"38鄰","STREET":"六甲八街","SECT":" ","MAREA":" ","LANE":" ","ALLEY":" ","HOUSE_NO":"１８９號","E_COORD97":175278.70000000001,"N_COORD97":2539818.73,"ADDRESS":"六甲八街１８９號","OBJECTID":639737},"geometry":{"x":175278.70000000019,"y":2539818.7300000004}},{"attributes":{"ID":639765,"DIS_CODE":0,"TOWNNAME":"歸仁區","LI":"後市里","LIN":"18鄰","STREET":"中山路","SECT":"二段","MAREA":" ","LANE":" ","ALLEY":" ","HOUSE_NO":"１２號","E_COORD97":177559.72,"N_COORD97":2540797.25,"ADDRESS":"中山路二段１２號","OBJECTID":639738},"geometry":{"x":177559.71999999974,"y":2540797.25}},{"attributes":{"ID":639766,"DIS_CODE":0,"TOWNNAME":"歸仁區","LI":"南興里","LIN":"32鄰","STREET":"文化九街","SECT":" ","MAREA":" ","LANE":" ","ALLEY":" ","HOUSE_NO":"１７號","E_COORD97":176423.34,"N_COORD97":2541147.3300000001,"ADDRESS":"文化九街１７號","OBJECTID":639739},"geometry":{"x":176423.33999999985,"y":2541147.3300000019}},{"attributes":{"ID":639767,"DIS_CODE":0,"TOWNNAME":"玉井區","LI":"玉井里","LIN":"20鄰","STREET":"中正路","SECT":" ","MAREA":" ","LANE":" ","ALLEY":" ","HOUSE_NO":"３８號","E_COORD97":194710.60000000001,"N_COORD97":2558038.25,"ADDRESS":"中正路３８號","OBJECTID":639740},"geometry":{"x":194710.59999999963,"y":2558038.2500000037}},{"attributes":{"ID":639768,"DIS_CODE":0,"TOWNNAME":"歸仁區","LI":"西埔里","LIN":"13鄰","STREET":"西埔二街","SECT":" ","MAREA":" ","LANE":" ","ALLEY":" ","HOUSE_NO":"６４號","E_COORD97":176891.14000000001,"N_COORD97":2544779.25,"ADDRESS":"西埔二街６４號","OBJECTID":639741},"geometry":{"x":176891.13999999966,"y":2544779.2500000019}},{"attributes":{"ID":639769,"DIS_CODE":0,"TOWNNAME":"歸仁區","LI":"六甲里","LIN":"38鄰","STREET":"六甲八街","SECT":" ","MAREA":" ","LANE":" ","ALLEY":" ","HOUSE_NO":"２５號","E_COORD97":175376.97,"N_COORD97":2539390.25,"ADDRESS":"六甲八街２５號","OBJECTID":639742},"geometry":{"x":175376.96999999881,"y":2539390.25}},{"attributes":{"ID":639770,"DIS_CODE":0,"TOWNNAME":"歸仁區","LI":"六甲里","LIN":"20鄰","STREET":"中正南路","SECT":"一段","MAREA":" ","LANE":" ","ALLEY":" ","HOUSE_NO":"７１８號","E_COORD97":176477.63152299999,"N_COORD97":2539726.8005400002,"ADDRESS":"中正南路一段７１８號","OBJECTID":639743},"geometry":{"x":176477.63152300008,"y":2539726.8005410004}},{"attributes":{"ID":639771,"DIS_CODE":0,"TOWNNAME":"歸仁區","LI":"六甲里","LIN":"20鄰","STREET":"中正南路","SECT":"一段","MAREA":" ","LANE":" ","ALLEY":" ","HOUSE_NO":"７３６號","E_COORD97":176454.27314,"N_COORD97":2539696.4793099998,"ADDRESS":"中正南路一段７３６號","OBJECTID":639744},"geometry":{"x":176454.27314000018,"y":2539696.4793079998}},{"attributes":{"ID":639772,"DIS_CODE":0,"TOWNNAME":"歸仁區","LI":"六甲里","LIN":"25鄰","STREET":"民生南街","SECT":"二段","MAREA":" ","LANE":" ","ALLEY":" ","HOUSE_NO":"６２１號","E_COORD97":176108.95000000001,"N_COORD97":2539333.29,"ADDRESS":"民生南街二段６２１號","OBJECTID":639745},"geometry":{"x":176108.95000000112,"y":2539333.290000001}},{"attributes":{"ID":639773,"DIS_CODE":0,"TOWNNAME":"歸仁區","LI":"南保里","LIN":"50鄰","STREET":"大順五街","SECT":" ","MAREA":" ","LANE":" ","ALLEY":" ","HOUSE_NO":"６０號","E_COORD97":176715.87,"N_COORD97":2540559.25,"ADDRESS":"大順五街６０號","OBJECTID":639746},"geometry":{"x":176715.87000000104,"y":2540559.2500000019}},{"attributes":{"ID":639774,"DIS_CODE":0,"TOWNNAME":"歸仁區","LI":"六甲里","LIN":"20鄰","STREET":"中正南路","SECT":"一段","MAREA":" ","LANE":" ","ALLEY":" ","HOUSE_NO":"７３４號","E_COORD97":176456.391814,"N_COORD97":2539699.44264,"ADDRESS":"中正南路一段７３４號","OBJECTID":639747},"geometry":{"x":176456.39181399997,"y":2539699.4426390026}},{"attributes":{"ID":639775,"DIS_CODE":0,"TOWNNAME":"歸仁區","LI":"南興里","LIN":"32鄰","STREET":"文化街","SECT":"三段","MAREA":" ","LANE":" ","ALLEY":" ","HOUSE_NO":"２３９號","E_COORD97":176378.84,"N_COORD97":2541182.3300000001,"ADDRESS":"文化街三段２３９號","OBJECTID":639748},"geometry":{"x":176378.84000000078,"y":2541182.3300000019}},{"attributes":{"ID":639776,"DIS_CODE":0,"TOWNNAME":"歸仁區","LI":"六甲里","LIN":"25鄰","STREET":"中正南路","SECT":"一段","MAREA":" ","LANE":" ","ALLEY":" ","HOUSE_NO":"１００８號","E_COORD97":176122.26999999999,"N_COORD97":2539295.2799999998,"ADDRESS":"中正南路一段１００８號","OBJECTID":639749},"geometry":{"x":176122.26999999955,"y":2539295.2799999975}},{"attributes":{"ID":639777,"DIS_CODE":0,"TOWNNAME":"歸仁區","LI":"文化里","LIN":"18鄰","STREET":"文化北二街","SECT":" ","MAREA":" ","LANE":" ","ALLEY":" ","HOUSE_NO":"３３號","E_COORD97":177158.20999999999,"N_COORD97":2541462.3399999999,"ADDRESS":"文化北二街３３號","OBJECTID":639750},"geometry":{"x":177158.20999999996,"y":2541462.3400000017}},{"attributes":{"ID":639778,"DIS_CODE":0,"TOWNNAME":"歸仁區","LI":"南保里","LIN":"63鄰","STREET":"大順街","SECT":" ","MAREA":" ","LANE":" ","ALLEY":" ","HOUSE_NO":"２７４號","E_COORD97":176673.07000000001,"N_COORD97":2540615.25,"ADDRESS":"大順街２７４號","OBJECTID":639751},"geometry":{"x":176673.0700000003,"y":2540615.2500000037}},{"attributes":{"ID":639779,"DIS_CODE":0,"TOWNNAME":"歸仁區","LI":"六甲里","LIN":"20鄰","STREET":"中正南路","SECT":"一段","MAREA":" ","LANE":" ","ALLEY":" ","HOUSE_NO":"７１０號","E_COORD97":176493.04000000001,"N_COORD97":2539743.77,"ADDRESS":"中正南路一段７１０號","OBJECTID":639752},"geometry":{"x":176493.04000000097,"y":2539743.7700000014}},{"attributes":{"ID":639780,"DIS_CODE":0,"TOWNNAME":"歸仁區","LI":"六甲里","LIN":"25鄰","STREET":"民生南街","SECT":"二段","MAREA":" ","LANE":" ","ALLEY":" ","HOUSE_NO":"６４７號","E_COORD97":176090.25,"N_COORD97":2539282.29,"ADDRESS":"民生南街二段６４７號","OBJECTID":639753},"geometry":{"x":176090.25,"y":2539282.290000001}},{"attributes":{"ID":639781,"DIS_CODE":0,"TOWNNAME":"歸仁區","LI":"南保里","LIN":"63鄰","STREET":"中山七街","SECT":" ","MAREA":" ","LANE":" ","ALLEY":" ","HOUSE_NO":"８５號","E_COORD97":176602.35999999999,"N_COORD97":2540653.2599999998,"ADDRESS":"中山七街８５號","OBJECTID":639754},"geometry":{"x":176602.3600000022,"y":2540653.2600000016}},{"attributes":{"ID":639782,"DIS_CODE":0,"TOWNNAME":"歸仁區","LI":"大潭里","LIN":"20鄰","STREET":"長榮路","SECT":"二段","MAREA":" ","LANE":" ","ALLEY":" ","HOUSE_NO":"１０１號","E_COORD97":176970.17000000001,"N_COORD97":2534531.2799999998,"ADDRESS":"長榮路二段１０１號","OBJECTID":639755},"geometry":{"x":176970.17000000086,"y":2534531.2799999993}},{"attributes":{"ID":639783,"DIS_CODE":0,"TOWNNAME":"歸仁區","LI":"六甲里","LIN":"43鄰","STREET":"民生十二街","SECT":" ","MAREA":" ","LANE":" ","ALLEY":" ","HOUSE_NO":"７９號","E_COORD97":175847.14000000001,"N_COORD97":2539454.29,"ADDRESS":"民生十二街７９號","OBJECTID":639756},"geometry":{"x":175847.14000000153,"y":2539454.2899999972}},{"attributes":{"ID":639784,"DIS_CODE":0,"TOWNNAME":"歸仁區","LI":"六甲里","LIN":"38鄰","STREET":"六甲八街","SECT":" ","MAREA":" ","LANE":" ","ALLEY":" ","HOUSE_NO":"１６７號","E_COORD97":175291.54406300001,"N_COORD97":2539753.33831,"ADDRESS":"六甲八街１６７號","OBJECTID":639757},"geometry":{"x":175291.54406300001,"y":2539753.3383109998}},{"attributes":{"ID":639785,"DIS_CODE":0,"TOWNNAME":"歸仁區","LI":"後市里","LIN":"26鄰","STREET":"中山路","SECT":"二段","MAREA":" ","LANE":" ","ALLEY":" ","HOUSE_NO":"６８號","E_COORD97":177403.17999999999,"N_COORD97":2540816.7400000002,"ADDRESS":"中山路二段６８號","OBJECTID":639758},"geometry":{"x":177403.18000000156,"y":2540816.7400000021}},{"attributes":{"ID":639786,"DIS_CODE":0,"TOWNNAME":"歸仁區","LI":"六甲里","LIN":"25鄰","STREET":"民生南街","SECT":"二段","MAREA":" ","LANE":" ","ALLEY":" ","HOUSE_NO":"５９５號","E_COORD97":176130.75,"N_COORD97":2539383.29,"ADDRESS":"民生南街二段５９５號","OBJECTID":639759},"geometry":{"x":176130.75,"y":2539383.2900000028}},{"attributes":{"ID":639787,"DIS_CODE":0,"TOWNNAME":"歸仁區","LI":"南保里","LIN":"46鄰","STREET":"大順街","SECT":" ","MAREA":" ","LANE":" ","ALLEY":" ","HOUSE_NO":"２０２號","E_COORD97":176846.37,"N_COORD97":2540615.25,"ADDRESS":"大順街２０２號","OBJECTID":639760},"geometry":{"x":176846.37000000104,"y":2540615.2500000037}},{"attributes":{"ID":639788,"DIS_CODE":0,"TOWNNAME":"歸仁區","LI":"六甲里","LIN":"4鄰","STREET":"中正南路","SECT":"一段","MAREA":" ","LANE":" ","ALLEY":" ","HOUSE_NO":"７９３號","E_COORD97":176463.94,"N_COORD97":2539651.77,"ADDRESS":"中正南路一段７９３號","OBJECTID":639761},"geometry":{"x":176463.94000000041,"y":2539651.7700000033}},{"attributes":{"ID":639789,"DIS_CODE":0,"TOWNNAME":"歸仁區","LI":"文化里","LIN":"5鄰","STREET":"民權一街","SECT":" ","MAREA":" ","LANE":" ","ALLEY":" ","HOUSE_NO":"４２號","E_COORD97":177310.14999999999,"N_COORD97":2541335.3300000001,"ADDRESS":"民權一街４２號","OBJECTID":639762},"geometry":{"x":177310.15000000037,"y":2541335.3300000001}},{"attributes":{"ID":639790,"DIS_CODE":0,"TOWNNAME":"歸仁區","LI":"南保里","LIN":"50鄰","STREET":"大順街","SECT":" ","MAREA":" ","LANE":" ","ALLEY":" ","HOUSE_NO":"２７３號","E_COORD97":176696.57000000001,"N_COORD97":2540597.25,"ADDRESS":"大順街２７３號","OBJECTID":639763},"geometry":{"x":176696.57000000123,"y":2540597.25}},{"attributes":{"ID":639791,"DIS_CODE":0,"TOWNNAME":"歸仁區","LI":"六甲里","LIN":"38鄰","STREET":"六甲八街","SECT":" ","MAREA":" ","LANE":" ","ALLEY":" ","HOUSE_NO":"１６５號","E_COORD97":175295.35767600001,"N_COORD97":2539744.7658199999,"ADDRESS":"六甲八街１６５號","OBJECTID":639764},"geometry":{"x":175295.35767600033,"y":2539744.7658150028}},{"attributes":{"ID":639792,"DIS_CODE":0,"TOWNNAME":"歸仁區","LI":"後市里","LIN":"26鄰","STREET":"中山路","SECT":"二段","MAREA":" ","LANE":" ","ALLEY":" ","HOUSE_NO":"８８號","E_COORD97":177362.17999999999,"N_COORD97":2540822.7400000002,"ADDRESS":"中山路二段８８號","OBJECTID":639765},"geometry":{"x":177362.1799999997,"y":2540822.7400000021}},{"attributes":{"ID":639793,"DIS_CODE":0,"TOWNNAME":"歸仁區","LI":"文化里","LIN":"4鄰","STREET":"民權一街","SECT":" ","MAREA":" ","LANE":" ","ALLEY":" ","HOUSE_NO":"２８號","E_COORD97":177266.04999999999,"N_COORD97":2541335.3300000001,"ADDRESS":"民權一街２８號","OBJECTID":639766},"geometry":{"x":177266.04999999981,"y":2541335.3300000001}},{"attributes":{"ID":639794,"DIS_CODE":0,"TOWNNAME":"歸仁區","LI":"六甲里","LIN":"38鄰","STREET":"六甲八街","SECT":" ","MAREA":" ","LANE":" ","ALLEY":" ","HOUSE_NO":"１８７號","E_COORD97":175278.70000000001,"N_COORD97":2539813.73,"ADDRESS":"六甲八街１８７號","OBJECTID":639767},"geometry":{"x":175278.70000000019,"y":2539813.7300000023}},{"attributes":{"ID":639795,"DIS_CODE":0,"TOWNNAME":"歸仁區","LI":"後市里","LIN":"25鄰","STREET":"民族北街","SECT":" ","MAREA":" ","LANE":" ","ALLEY":" ","HOUSE_NO":"８６號","E_COORD97":177460.17999999999,"N_COORD97":2541050.25,"ADDRESS":"民族北街８６號","OBJECTID":639768},"geometry":{"x":177460.1799999997,"y":2541050.2500000019}},{"attributes":{"ID":639796,"DIS_CODE":0,"TOWNNAME":"歸仁區","LI":"六甲里","LIN":"38鄰","STREET":"六甲八街","SECT":" ","MAREA":" ","LANE":" ","ALLEY":" ","HOUSE_NO":"８１號","E_COORD97":175349.76999999999,"N_COORD97":2539484.25,"ADDRESS":"六甲八街８１號","OBJECTID":639769},"geometry":{"x":175349.77000000048,"y":2539484.2500000019}},{"attributes":{"ID":639797,"DIS_CODE":0,"TOWNNAME":"歸仁區","LI":"後市里","LIN":"18鄰","STREET":"中山路","SECT":"二段","MAREA":" ","LANE":" ","ALLEY":" ","HOUSE_NO":"４６之１號","E_COORD97":177476.12,"N_COORD97":2540807.2599999998,"ADDRESS":"中山路二段４６之１號","OBJECTID":639770},"geometry":{"x":177476.12000000011,"y":2540807.2599999998}},{"attributes":{"ID":639798,"DIS_CODE":0,"TOWNNAME":"歸仁區","LI":"南保里","LIN":"26鄰","STREET":"民權六街","SECT":" ","MAREA":" ","LANE":" ","ALLEY":" ","HOUSE_NO":"１６５號","E_COORD97":176650.94,"N_COORD97":2541103.29,"ADDRESS":"民權六街１６５號","OBJECTID":639771},"geometry":{"x":176650.94000000041,"y":2541103.290000001}},{"attributes":{"ID":639799,"DIS_CODE":0,"TOWNNAME":"歸仁區","LI":"六甲里","LIN":"25鄰","STREET":"民生南街","SECT":"二段","MAREA":" ","LANE":" ","ALLEY":" ","HOUSE_NO":"５５５號","E_COORD97":176152.04000000001,"N_COORD97":2539458.4900000002,"ADDRESS":"民生南街二段５５５號","OBJECTID":639772},"geometry":{"x":176152.04000000097,"y":2539458.4900000021}},{"attributes":{"ID":639800,"DIS_CODE":0,"TOWNNAME":"歸仁區","LI":"六甲里","LIN":"38鄰","STREET":"六甲八街","SECT":" ","MAREA":" ","LANE":" ","ALLEY":" ","HOUSE_NO":"９９號","E_COORD97":175334.50025700001,"N_COORD97":2539539.29036,"ADDRESS":"六甲八街９９號","OBJECTID":639773},"geometry":{"x":175334.50025700033,"y":2539539.2903589997}},{"attributes":{"ID":639801,"DIS_CODE":0,"TOWNNAME":"歸仁區","LI":"後市里","LIN":"18鄰","STREET":"中山路","SECT":"二段","MAREA":" ","LANE":" ","ALLEY":" ","HOUSE_NO":"２４號","E_COORD97":177532.01999999999,"N_COORD97":2540800.25,"ADDRESS":"中山路二段２４號","OBJECTID":639774},"geometry":{"x":177532.01999999955,"y":2540800.25}},{"attributes":{"ID":639802,"DIS_CODE":0,"TOWNNAME":"歸仁區","LI":"大潭里","LIN":"20鄰","STREET":"長榮路","SECT":"二段","MAREA":" ","LANE":" ","ALLEY":" ","HOUSE_NO":"１５５號","E_COORD97":177044.23000000001,"N_COORD97":2534522.25,"ADDRESS":"長榮路二段１５５號","OBJECTID":639775},"geometry":{"x":177044.23000000231,"y":2534522.25}},{"attributes":{"ID":639803,"DIS_CODE":0,"TOWNNAME":"歸仁區","LI":"六甲里","LIN":"42鄰","STREET":"民生十二街","SECT":" ","MAREA":" ","LANE":" ","ALLEY":" ","HOUSE_NO":"６５號","E_COORD97":175898.44,"N_COORD97":2539473.29,"ADDRESS":"民生十二街６５號","OBJECTID":639776},"geometry":{"x":175898.44000000227,"y":2539473.2899999991}},{"attributes":{"ID":639804,"DIS_CODE":0,"TOWNNAME":"歸仁區","LI":"南保里","LIN":"50鄰","STREET":"大順五街","SECT":" ","MAREA":" ","LANE":" ","ALLEY":" ","HOUSE_NO":"６８號","E_COORD97":176715.97,"N_COORD97":2540576.25,"ADDRESS":"大順五街６８號","OBJECTID":639777},"geometry":{"x":176715.96999999974,"y":2540576.25}},{"attributes":{"ID":639805,"DIS_CODE":0,"TOWNNAME":"歸仁區","LI":"後市里","LIN":"18鄰","STREET":"中山路","SECT":"二段","MAREA":" ","LANE":" ","ALLEY":" ","HOUSE_NO":"５２號","E_COORD97":177462.32000000001,"N_COORD97":2540808.25,"ADDRESS":"中山路二段５２號","OBJECTID":639778},"geometry":{"x":177462.32000000123,"y":2540808.2499999981}},{"attributes":{"ID":639806,"DIS_CODE":0,"TOWNNAME":"歸仁區","LI":"南興里","LIN":"5鄰","STREET":"文化街","SECT":"三段","MAREA":" ","LANE":" ","ALLEY":" ","HOUSE_NO":"３５０號","E_COORD97":176216.94,"N_COORD97":2541205.3300000001,"ADDRESS":"文化街三段３５０號","OBJECTID":639779},"geometry":{"x":176216.94000000041,"y":2541205.3300000019}},{"attributes":{"ID":639807,"DIS_CODE":0,"TOWNNAME":"歸仁區","LI":"六甲里","LIN":"38鄰","STREET":"六甲八街","SECT":" ","MAREA":" ","LANE":" ","ALLEY":" ","HOUSE_NO":"１８３號","E_COORD97":175280.70000000001,"N_COORD97":2539802.73,"ADDRESS":"六甲八街１８３號","OBJECTID":639780},"geometry":{"x":175280.70000000019,"y":2539802.7300000023}},{"attributes":{"ID":639808,"DIS_CODE":0,"TOWNNAME":"歸仁區","LI":"後市里","LIN":"18鄰","STREET":"中山路","SECT":"二段","MAREA":" ","LANE":" ","ALLEY":" ","HOUSE_NO":"４８號","E_COORD97":177472.51999999999,"N_COORD97":2540807.25,"ADDRESS":"中山路二段４８號","OBJECTID":639781},"geometry":{"x":177472.52000000048,"y":2540807.25}},{"attributes":{"ID":639809,"DIS_CODE":0,"TOWNNAME":"歸仁區","LI":"南保里","LIN":"46鄰","STREET":"大順街","SECT":" ","MAREA":" ","LANE":" ","ALLEY":" ","HOUSE_NO":"２３２號","E_COORD97":176778.67000000001,"N_COORD97":2540616.25,"ADDRESS":"大順街２３２號","OBJECTID":639782},"geometry":{"x":176778.67000000086,"y":2540616.2500000019}},{"attributes":{"ID":639810,"DIS_CODE":0,"TOWNNAME":"歸仁區","LI":"六甲里","LIN":"43鄰","STREET":"民生十二街","SECT":" ","MAREA":" ","LANE":" ","ALLEY":" ","HOUSE_NO":"７７號","E_COORD97":175851.23999999999,"N_COORD97":2539453.29,"ADDRESS":"民生十二街７７號","OBJECTID":639783},"geometry":{"x":175851.24000000115,"y":2539453.2899999991}},{"attributes":{"ID":639811,"DIS_CODE":0,"TOWNNAME":"歸仁區","LI":"文化里","LIN":"18鄰","STREET":"文化北二街","SECT":" ","MAREA":" ","LANE":" ","ALLEY":" ","HOUSE_NO":"１７號","E_COORD97":177191.01000000001,"N_COORD97":2541460.3399999999,"ADDRESS":"文化北二街１７號","OBJECTID":639784},"geometry":{"x":177191.01000000071,"y":2541460.3400000017}},{"attributes":{"ID":639812,"DIS_CODE":0,"TOWNNAME":"歸仁區","LI":"六甲里","LIN":"25鄰","STREET":"中正南路","SECT":"一段","MAREA":" ","LANE":" ","ALLEY":" ","HOUSE_NO":"９９８號","E_COORD97":176128.32000000001,"N_COORD97":2539310.2799999998,"ADDRESS":"中正南路一段９９８號","OBJECTID":639785},"geometry":{"x":176128.32000000123,"y":2539310.2800000012}},{"attributes":{"ID":639813,"DIS_CODE":0,"TOWNNAME":"歸仁區","LI":"後市里","LIN":"4鄰","STREET":"大吉街","SECT":" ","MAREA":" ","LANE":" ","ALLEY":" ","HOUSE_NO":"４１號","E_COORD97":177219.35999999999,"N_COORD97":2540705.25,"ADDRESS":"大吉街４１號","OBJECTID":639786},"geometry":{"x":177219.3599999994,"y":2540705.25}},{"attributes":{"ID":639814,"DIS_CODE":0,"TOWNNAME":"歸仁區","LI":"南興里","LIN":"5鄰","STREET":"民生北街","SECT":" ","MAREA":" ","LANE":" ","ALLEY":" ","HOUSE_NO":"９９號","E_COORD97":176198.19,"N_COORD97":2541241.29,"ADDRESS":"民生北街９９號","OBJECTID":639787},"geometry":{"x":176198.19000000041,"y":2541241.2900000028}},{"attributes":{"ID":639815,"DIS_CODE":0,"TOWNNAME":"歸仁區","LI":"南保里","LIN":"50鄰","STREET":"民生南街","SECT":"一段","MAREA":" ","LANE":" ","ALLEY":" ","HOUSE_NO":"９３號","E_COORD97":176295.89000000001,"N_COORD97":2540585.29,"ADDRESS":"民生南街一段９３號","OBJECTID":639788},"geometry":{"x":176295.88999999966,"y":2540585.2899999991}},{"attributes":{"ID":639816,"DIS_CODE":0,"TOWNNAME":"玉井區","LI":"玉田里","LIN":"38鄰","STREET":"大仁街","SECT":" ","MAREA":" ","LANE":" ","ALLEY":" ","HOUSE_NO":"３０號","E_COORD97":195248.20999999999,"N_COORD97":2558005.25,"ADDRESS":"大仁街３０號","OBJECTID":639789},"geometry":{"x":195248.20999999996,"y":2558005.2500000019}},{"attributes":{"ID":639817,"DIS_CODE":0,"TOWNNAME":"歸仁區","LI":"大潭里","LIN":"20鄰","STREET":"長榮路","SECT":"二段","MAREA":" ","LANE":" ","ALLEY":" ","HOUSE_NO":"１２７號","E_COORD97":177006.17000000001,"N_COORD97":2534551.2799999998,"ADDRESS":"長榮路二段１２７號","OBJECTID":639790},"geometry":{"x":177006.16999999993,"y":2534551.2799999993}},{"attributes":{"ID":639818,"DIS_CODE":0,"TOWNNAME":"歸仁區","LI":"後市里","LIN":"26鄰","STREET":"中山路","SECT":"二段","MAREA":" ","LANE":" ","ALLEY":" ","HOUSE_NO":"６６號","E_COORD97":177407.28,"N_COORD97":2540816.7400000002,"ADDRESS":"中山路二段６６號","OBJECTID":639791},"geometry":{"x":177407.28000000026,"y":2540816.7400000021}},{"attributes":{"ID":639819,"DIS_CODE":0,"TOWNNAME":"歸仁區","LI":"文化里","LIN":"25鄰","STREET":"文化北街","SECT":" ","MAREA":" ","LANE":" ","ALLEY":" ","HOUSE_NO":"１７８號","E_COORD97":177047.31,"N_COORD97":2541430.3399999999,"ADDRESS":"文化北街１７８號","OBJECTID":639792},"geometry":{"x":177047.30999999959,"y":2541430.3399999999}},{"attributes":{"ID":639820,"DIS_CODE":0,"TOWNNAME":"歸仁區","LI":"南保里","LIN":"25鄰","STREET":"文化街","SECT":"三段","MAREA":" ","LANE":" ","ALLEY":" ","HOUSE_NO":"２０１號","E_COORD97":176536.73999999999,"N_COORD97":2541174.3300000001,"ADDRESS":"文化街三段２０１號","OBJECTID":639793},"geometry":{"x":176536.74000000022,"y":2541174.3300000038}},{"attributes":{"ID":639821,"DIS_CODE":0,"TOWNNAME":"歸仁區","LI":"南興里","LIN":"39鄰","STREET":"中山路","SECT":"三段","MAREA":" ","LANE":" ","ALLEY":" ","HOUSE_NO":"５６６號","E_COORD97":175666.45999999999,"N_COORD97":2541042.2799999998,"ADDRESS":"中山路三段５６６號","OBJECTID":639794},"geometry":{"x":175666.45999999996,"y":2541042.2800000012}},{"attributes":{"ID":639822,"DIS_CODE":0,"TOWNNAME":"歸仁區","LI":"南保里","LIN":"42鄰","STREET":"中山路","SECT":"三段","MAREA":" ","LANE":" ","ALLEY":" ","HOUSE_NO":"１８８號","E_COORD97":176557.06,"N_COORD97":2540945.0800000001,"ADDRESS":"中山路三段１８８號","OBJECTID":639795},"geometry":{"x":176557.05999999959,"y":2540945.0799999982}},{"attributes":{"ID":639823,"DIS_CODE":0,"TOWNNAME":"歸仁區","LI":"南興里","LIN":"41鄰","STREET":"中山路","SECT":"三段","MAREA":" ","LANE":" ","ALLEY":" ","HOUSE_NO":"３９９號","E_COORD97":175843.56,"N_COORD97":2540991.2799999998,"ADDRESS":"中山路三段３９９號","OBJECTID":639796},"geometry":{"x":175843.55999999959,"y":2540991.2800000012}},{"attributes":{"ID":639824,"DIS_CODE":0,"TOWNNAME":"玉井區","LI":"中正里","LIN":"1鄰","STREET":"後旦街","SECT":" ","MAREA":" ","LANE":" ","ALLEY":" ","HOUSE_NO":"１３號","E_COORD97":195358.82000000001,"N_COORD97":2558558.3199999998,"ADDRESS":"後旦街１３號","OBJECTID":639797},"geometry":{"x":195358.82000000123,"y":2558558.3200000022}},{"attributes":{"ID":639825,"DIS_CODE":0,"TOWNNAME":"南區","LI":"田寮里","LIN":"26鄰","STREET":"大成路","SECT":"二段","MAREA":" ","LANE":" ","ALLEY":" ","HOUSE_NO":"１０６號","E_COORD97":167432.60999999999,"N_COORD97":2541756.2200000002,"ADDRESS":"大成路二段１０６號","OBJECTID":639798},"geometry":{"x":167432.61000000034,"y":2541756.2200000025}},{"attributes":{"ID":639826,"DIS_CODE":0,"TOWNNAME":"南區","LI":"田寮里","LIN":"26鄰","STREET":"大成路","SECT":"二段","MAREA":" ","LANE":" ","ALLEY":" ","HOUSE_NO":"１１２號","E_COORD97":167414.47,"N_COORD97":2541756.6800000002,"ADDRESS":"大成路二段１１２號","OBJECTID":639799},"geometry":{"x":167414.46999999974,"y":2541756.6799999997}},{"attributes":{"ID":639827,"DIS_CODE":0,"TOWNNAME":"南區","LI":"田寮里","LIN":"26鄰","STREET":"大成路","SECT":"二段","MAREA":" ","LANE":" ","ALLEY":" ","HOUSE_NO":"１１８號","E_COORD97":167401.91,"N_COORD97":2541757.1499999999,"ADDRESS":"大成路二段１１８號","OBJECTID":639800},"geometry":{"x":167401.91000000015,"y":2541757.1500000022}}]}