{"displayFieldName":"TOWNNAME","fieldAliases":{"ID":"ID","DIS_CODE":"DIS_CODE","TOWNNAME":"TOWNNAME","LI":"LI","LIN":"LIN","STREET":"STREET","SECT":"SECT","MAREA":"MAREA","LANE":"LANE","ALLEY":"ALLEY","HOUSE_NO":"HOUSE_NO","E_COORD97":"E_COORD97","N_COORD97":"N_COORD97","ADDRESS":"ADDRESS","OBJECTID":"OBJECTID"},"geometryType":"esriGeometryPoint","spatialReference":{"wkid":102443,"latestWkid":3826},"fields":[{"name":"ID","type":"esriFieldTypeDouble","alias":"ID"},{"name":"DIS_CODE","type":"esriFieldTypeInteger","alias":"DIS_CODE"},{"name":"TOWNNAME","type":"esriFieldTypeString","alias":"TOWNNAME","length":8},{"name":"LI","type":"esriFieldTypeString","alias":"LI","length":8},{"name":"LIN","type":"esriFieldTypeString","alias":"LIN","length":12},{"name":"STREET","type":"esriFieldTypeString","alias":"STREET","length":20},{"name":"SECT","type":"esriFieldTypeString","alias":"SECT","length":8},{"name":"MAREA","type":"esriFieldTypeString","alias":"MAREA","length":12},{"name":"LANE","type":"esriFieldTypeString","alias":"LANE","length":10},{"name":"ALLEY","type":"esriFieldTypeString","alias":"ALLEY","length":10},{"name":"HOUSE_NO","type":"esriFieldTypeString","alias":"HOUSE_NO","length":20},{"name":"E_COORD97","type":"esriFieldTypeDouble","alias":"E_COORD97"},{"name":"N_COORD97","type":"esriFieldTypeDouble","alias":"N_COORD97"},{"name":"ADDRESS","type":"esriFieldTypeString","alias":"ADDRESS","length":50},{"name":"OBJECTID","type":"esriFieldTypeOID","alias":"OBJECTID"}],"features":[{"attributes":{"ID":179002,"DIS_CODE":0,"TOWNNAME":"仁德區","LI":"一甲里","LIN":"18鄰","STREET":"中清路","SECT":" ","MAREA":" ","LANE":"２４８巷","ALLEY":"７弄","HOUSE_NO":"１號","E_COORD97":173792.92999999999,"N_COORD97":2541741.4300000002,"ADDRESS":"中清路２４８巷７弄１號","OBJECTID":179001},"geometry":{"x":173792.93000000063,"y":2541741.4299999997}},{"attributes":{"ID":179003,"DIS_CODE":0,"TOWNNAME":"仁德區","LI":"一甲里","LIN":"17鄰","STREET":"中清路","SECT":" ","MAREA":" ","LANE":"２４８巷","ALLEY":"１６弄","HOUSE_NO":"１１號","E_COORD97":173800.92999999999,"N_COORD97":2541673.7999999998,"ADDRESS":"中清路２４８巷１６弄１１號","OBJECTID":179002},"geometry":{"x":173800.93000000156,"y":2541673.8000000026}},{"attributes":{"ID":179004,"DIS_CODE":0,"TOWNNAME":"仁德區","LI":"上崙里","LIN":"25鄰","STREET":"中正路","SECT":"一段","MAREA":" ","LANE":"７６６巷","ALLEY":"２５弄","HOUSE_NO":"１２號","E_COORD97":173064.32999999999,"N_COORD97":2537773.02,"ADDRESS":"中正路一段７６６巷２５弄１２號","OBJECTID":179003},"geometry":{"x":173064.33000000007,"y":2537773.0200000014}},{"attributes":{"ID":179005,"DIS_CODE":0,"TOWNNAME":"仁德區","LI":"一甲里","LIN":"17鄰","STREET":"中清路","SECT":" ","MAREA":" ","LANE":"２４８巷","ALLEY":"１６弄","HOUSE_NO":"７號","E_COORD97":173796.45999999999,"N_COORD97":2541691.2599999998,"ADDRESS":"中清路２４８巷１６弄７號","OBJECTID":179004},"geometry":{"x":173796.46000000089,"y":2541691.2600000016}},{"attributes":{"ID":179006,"DIS_CODE":0,"TOWNNAME":"佳里區","LI":"海澄里","LIN":"16鄰","STREET":" ","SECT":" ","MAREA":"番子寮","LANE":" ","ALLEY":" ","HOUSE_NO":"１２９號","E_COORD97":163951.76000000001,"N_COORD97":2564636.6400000001,"ADDRESS":"番子寮１２９號","OBJECTID":179005},"geometry":{"x":163951.76000000071,"y":2564636.6400000006}},{"attributes":{"ID":179007,"DIS_CODE":0,"TOWNNAME":"仁德區","LI":"上崙里","LIN":"25鄰","STREET":"中正路","SECT":"一段","MAREA":" ","LANE":"７６６巷","ALLEY":"２５弄","HOUSE_NO":"８號","E_COORD97":173066.98000000001,"N_COORD97":2537816.5299999998,"ADDRESS":"中正路一段７６６巷２５弄８號","OBJECTID":179006},"geometry":{"x":173066.98000000045,"y":2537816.5300000012}},{"attributes":{"ID":179008,"DIS_CODE":0,"TOWNNAME":"仁德區","LI":"二行里","LIN":"13鄰","STREET":"行大街","SECT":" ","MAREA":" ","LANE":"１７２巷","ALLEY":"７０弄","HOUSE_NO":"２之１號","E_COORD97":169839.31,"N_COORD97":2535236.2999999998,"ADDRESS":"行大街１７２巷７０弄２之１號","OBJECTID":179007},"geometry":{"x":169839.30999999959,"y":2535236.3000000026}},{"attributes":{"ID":179009,"DIS_CODE":0,"TOWNNAME":"仁德區","LI":"一甲里","LIN":"17鄰","STREET":"中清路","SECT":" ","MAREA":" ","LANE":"２４８巷","ALLEY":"１６弄","HOUSE_NO":"１７號","E_COORD97":173798,"N_COORD97":2541655.7999999998,"ADDRESS":"中清路２４８巷１６弄１７號","OBJECTID":179008},"geometry":{"x":173798.00000000093,"y":2541655.8000000007}},{"attributes":{"ID":179010,"DIS_CODE":0,"TOWNNAME":"仁德區","LI":"二行里","LIN":"13鄰","STREET":"行大街","SECT":" ","MAREA":" ","LANE":"１７２巷","ALLEY":"７０弄","HOUSE_NO":"２號","E_COORD97":169837.14999999999,"N_COORD97":2535229.5,"ADDRESS":"行大街１７２巷７０弄２號","OBJECTID":179009},"geometry":{"x":169837.1500000013,"y":2535229.5000000037}},{"attributes":{"ID":179011,"DIS_CODE":0,"TOWNNAME":"仁德區","LI":"上崙里","LIN":"25鄰","STREET":"中正路","SECT":"一段","MAREA":" ","LANE":"７６６巷","ALLEY":"２５弄","HOUSE_NO":"３０號","E_COORD97":173080.07000000001,"N_COORD97":2537767.02,"ADDRESS":"中正路一段７６６巷２５弄３０號","OBJECTID":179010},"geometry":{"x":173080.07000000216,"y":2537767.0199999996}},{"attributes":{"ID":179012,"DIS_CODE":0,"TOWNNAME":"仁德區","LI":"一甲里","LIN":"17鄰","STREET":"中清路","SECT":" ","MAREA":" ","LANE":"２４８巷","ALLEY":"１６弄","HOUSE_NO":"１號","E_COORD97":173804.16,"N_COORD97":2541707.04,"ADDRESS":"中清路２４８巷１６弄１號","OBJECTID":179011},"geometry":{"x":173804.16000000015,"y":2541707.0399999991}},{"attributes":{"ID":179013,"DIS_CODE":0,"TOWNNAME":"官田區","LI":"湖山里","LIN":"16鄰","STREET":" ","SECT":" ","MAREA":"烏山頭","LANE":" ","ALLEY":" ","HOUSE_NO":"９５號","E_COORD97":183653.60999999999,"N_COORD97":2568025.8599999999,"ADDRESS":"烏山頭９５號","OBJECTID":179012},"geometry":{"x":183653.61000000034,"y":2568025.8600000013}},{"attributes":{"ID":179014,"DIS_CODE":0,"TOWNNAME":"仁德區","LI":"二行里","LIN":"18鄰","STREET":"行大街","SECT":" ","MAREA":" ","LANE":"１７２巷","ALLEY":"６１弄","HOUSE_NO":"１號","E_COORD97":169777.01999999999,"N_COORD97":2535220.25,"ADDRESS":"行大街１７２巷６１弄１號","OBJECTID":179013},"geometry":{"x":169777.01999999955,"y":2535220.25}},{"attributes":{"ID":179015,"DIS_CODE":0,"TOWNNAME":"仁德區","LI":"一甲里","LIN":"18鄰","STREET":"中清路","SECT":" ","MAREA":" ","LANE":"２４８巷","ALLEY":"７弄","HOUSE_NO":"１３號","E_COORD97":173796.45000000001,"N_COORD97":2541766.6899999999,"ADDRESS":"中清路２４８巷７弄１３號","OBJECTID":179014},"geometry":{"x":173796.45000000112,"y":2541766.6899999995}},{"attributes":{"ID":179016,"DIS_CODE":0,"TOWNNAME":"仁德區","LI":"上崙里","LIN":"25鄰","STREET":"中正路","SECT":"一段","MAREA":" ","LANE":"７６６巷","ALLEY":"２５弄","HOUSE_NO":"６號","E_COORD97":173046.89999999999,"N_COORD97":2537803.77,"ADDRESS":"中正路一段７６６巷２５弄６號","OBJECTID":179015},"geometry":{"x":173046.90000000037,"y":2537803.7699999977}},{"attributes":{"ID":179017,"DIS_CODE":0,"TOWNNAME":"仁德區","LI":"二行里","LIN":"14鄰","STREET":"中正西路","SECT":" ","MAREA":" ","LANE":"３５３巷","ALLEY":"１８弄","HOUSE_NO":"１９號","E_COORD97":169797.84,"N_COORD97":2535270.7400000002,"ADDRESS":"中正西路３５３巷１８弄１９號","OBJECTID":179016},"geometry":{"x":169797.84000000078,"y":2535270.7400000002}},{"attributes":{"ID":179018,"DIS_CODE":0,"TOWNNAME":"仁德區","LI":"一甲里","LIN":"17鄰","STREET":"中清路","SECT":" ","MAREA":" ","LANE":"２４８巷","ALLEY":"１６弄","HOUSE_NO":"９號","E_COORD97":173800.57000000001,"N_COORD97":2541680.0499999998,"ADDRESS":"中清路２４８巷１６弄９號","OBJECTID":179017},"geometry":{"x":173800.57000000216,"y":2541680.0500000026}},{"attributes":{"ID":179019,"DIS_CODE":0,"TOWNNAME":"仁德區","LI":"二行里","LIN":"17鄰","STREET":"行大街","SECT":" ","MAREA":" ","LANE":"１７２巷","ALLEY":"６１弄","HOUSE_NO":"７號","E_COORD97":169762.38,"N_COORD97":2535202.4900000002,"ADDRESS":"行大街１７２巷６１弄７號","OBJECTID":179018},"geometry":{"x":169762.38000000082,"y":2535202.4900000002}},{"attributes":{"ID":179020,"DIS_CODE":0,"TOWNNAME":"仁德區","LI":"一甲里","LIN":"17鄰","STREET":"中清路","SECT":" ","MAREA":" ","LANE":"２４８巷","ALLEY":"１６弄","HOUSE_NO":"１９號","E_COORD97":173797.41,"N_COORD97":2541650.0499999998,"ADDRESS":"中清路２４８巷１６弄１９號","OBJECTID":179019},"geometry":{"x":173797.41000000015,"y":2541650.0500000007}},{"attributes":{"ID":179021,"DIS_CODE":0,"TOWNNAME":"新化區","LI":"太平里","LIN":"4鄰","STREET":"民生路","SECT":" ","MAREA":" ","LANE":"２１６巷","ALLEY":"１弄","HOUSE_NO":"１０號","E_COORD97":179107.06,"N_COORD97":2549001.25,"ADDRESS":"民生路２１６巷１弄１０號","OBJECTID":179020},"geometry":{"x":179107.05999999959,"y":2549001.2500000019}},{"attributes":{"ID":179022,"DIS_CODE":0,"TOWNNAME":"新化區","LI":"太平里","LIN":"4鄰","STREET":"民生路","SECT":" ","MAREA":" ","LANE":"２１６巷","ALLEY":"１弄","HOUSE_NO":"２號","E_COORD97":179112.10999999999,"N_COORD97":2548993.25,"ADDRESS":"民生路２１６巷１弄２號","OBJECTID":179021},"geometry":{"x":179112.11000000127,"y":2548993.2500000019}},{"attributes":{"ID":179023,"DIS_CODE":0,"TOWNNAME":"新化區","LI":"太平里","LIN":"4鄰","STREET":"民生路","SECT":" ","MAREA":" ","LANE":"２１６巷","ALLEY":"１弄","HOUSE_NO":"５號","E_COORD97":179093.60999999999,"N_COORD97":2548999.25,"ADDRESS":"民生路２１６巷１弄５號","OBJECTID":179022},"geometry":{"x":179093.61000000034,"y":2548999.25}},{"attributes":{"ID":179024,"DIS_CODE":0,"TOWNNAME":"安南區","LI":"淵西里","LIN":"12鄰","STREET":"安中路","SECT":"四段","MAREA":" ","LANE":"２９０巷","ALLEY":"８０弄","HOUSE_NO":"５５號","E_COORD97":164805.07000000001,"N_COORD97":2550235.5,"ADDRESS":"安中路四段２９０巷８０弄５５號","OBJECTID":179023},"geometry":{"x":164805.0700000003,"y":2550235.5000000037}},{"attributes":{"ID":179025,"DIS_CODE":0,"TOWNNAME":"安南區","LI":"淵西里","LIN":"16鄰","STREET":"安中路","SECT":"四段","MAREA":" ","LANE":"２９０巷","ALLEY":"８０弄","HOUSE_NO":"５１號","E_COORD97":164799.84,"N_COORD97":2550231.4199999999,"ADDRESS":"安中路四段２９０巷８０弄５１號","OBJECTID":179024},"geometry":{"x":164799.83999999985,"y":2550231.4199999999}},{"attributes":{"ID":179026,"DIS_CODE":0,"TOWNNAME":"安南區","LI":"淵西里","LIN":"16鄰","STREET":"安中路","SECT":"四段","MAREA":" ","LANE":"２９０巷","ALLEY":"８０弄","HOUSE_NO":"９號","E_COORD97":164725.22,"N_COORD97":2550221.5899999999,"ADDRESS":"安中路四段２９０巷８０弄９號","OBJECTID":179025},"geometry":{"x":164725.22000000067,"y":2550221.5900000017}},{"attributes":{"ID":179027,"DIS_CODE":0,"TOWNNAME":"安南區","LI":"理想里","LIN":"4鄰","STREET":"同安路","SECT":" ","MAREA":" ","LANE":"３６巷","ALLEY":"８４弄","HOUSE_NO":"１號","E_COORD97":166929.48999999999,"N_COORD97":2548678.54,"ADDRESS":"同安路３６巷８４弄１號","OBJECTID":179026},"geometry":{"x":166929.49000000115,"y":2548678.540000001}},{"attributes":{"ID":179028,"DIS_CODE":0,"TOWNNAME":"安南區","LI":"理想里","LIN":"4鄰","STREET":"同安路","SECT":" ","MAREA":" ","LANE":"３６巷","ALLEY":"８４弄","HOUSE_NO":"３號","E_COORD97":166925.28,"N_COORD97":2548676.7000000002,"ADDRESS":"同安路３６巷８４弄３號","OBJECTID":179027},"geometry":{"x":166925.28000000119,"y":2548676.6999999993}},{"attributes":{"ID":179029,"DIS_CODE":0,"TOWNNAME":"安南區","LI":"理想里","LIN":"4鄰","STREET":"同安路","SECT":" ","MAREA":" ","LANE":"３６巷","ALLEY":"８４弄","HOUSE_NO":"５號","E_COORD97":166921.34,"N_COORD97":2548675.1299999999,"ADDRESS":"同安路３６巷８４弄５號","OBJECTID":179028},"geometry":{"x":166921.34000000078,"y":2548675.1300000008}},{"attributes":{"ID":179030,"DIS_CODE":0,"TOWNNAME":"安南區","LI":"理想里","LIN":"4鄰","STREET":"同安路","SECT":" ","MAREA":" ","LANE":"３６巷","ALLEY":"８４弄","HOUSE_NO":"７號","E_COORD97":166917.66,"N_COORD97":2548672.2400000002,"ADDRESS":"同安路３６巷８４弄７號","OBJECTID":179029},"geometry":{"x":166917.66000000108,"y":2548672.2400000021}},{"attributes":{"ID":179031,"DIS_CODE":0,"TOWNNAME":"安南區","LI":"理想里","LIN":"4鄰","STREET":"海佃路","SECT":"二段","MAREA":" ","LANE":"３４２巷","ALLEY":"２１弄","HOUSE_NO":"２３號","E_COORD97":166933.95999999999,"N_COORD97":2548635.2200000002,"ADDRESS":"海佃路二段３４２巷２１弄２３號","OBJECTID":179030},"geometry":{"x":166933.96000000089,"y":2548635.2200000025}},{"attributes":{"ID":179032,"DIS_CODE":0,"TOWNNAME":"南區","LI":"興農里","LIN":"6鄰","STREET":"灣裡路","SECT":" ","MAREA":" ","LANE":"２６３巷","ALLEY":"６７弄","HOUSE_NO":"１０號","E_COORD97":166344.91,"N_COORD97":2536456.96,"ADDRESS":"灣裡路２６３巷６７弄１０號","OBJECTID":179031},"geometry":{"x":166344.91000000108,"y":2536456.9600000009}},{"attributes":{"ID":179033,"DIS_CODE":0,"TOWNNAME":"安南區","LI":"理想里","LIN":"4鄰","STREET":"海佃路","SECT":"二段","MAREA":" ","LANE":"３４２巷","ALLEY":"２１弄","HOUSE_NO":"２５號","E_COORD97":166938.16,"N_COORD97":2548638.3700000001,"ADDRESS":"海佃路二段３４２巷２１弄２５號","OBJECTID":179032},"geometry":{"x":166938.16000000108,"y":2548638.3700000029}},{"attributes":{"ID":179034,"DIS_CODE":0,"TOWNNAME":"安南區","LI":"理想里","LIN":"4鄰","STREET":"海佃路","SECT":"二段","MAREA":" ","LANE":"３４２巷","ALLEY":"２１弄","HOUSE_NO":"２７號","E_COORD97":166942.63,"N_COORD97":2548640.4700000002,"ADDRESS":"海佃路二段３４２巷２１弄２７號","OBJECTID":179033},"geometry":{"x":166942.63000000175,"y":2548640.4700000025}},{"attributes":{"ID":179035,"DIS_CODE":0,"TOWNNAME":"安南區","LI":"理想里","LIN":"4鄰","STREET":"海佃路","SECT":"二段","MAREA":" ","LANE":"３４２巷","ALLEY":"２１弄","HOUSE_NO":"２９號","E_COORD97":166947.62,"N_COORD97":2548643.8799999999,"ADDRESS":"海佃路二段３４２巷２１弄２９號","OBJECTID":179034},"geometry":{"x":166947.62000000011,"y":2548643.879999999}},{"attributes":{"ID":179036,"DIS_CODE":0,"TOWNNAME":"南區","LI":"廣州里","LIN":"21鄰","STREET":"福吉四街","SECT":" ","MAREA":" ","LANE":"４７巷","ALLEY":"１弄","HOUSE_NO":"２號","E_COORD97":167214.76000000001,"N_COORD97":2542628.8500000001,"ADDRESS":"福吉四街４７巷１弄２號","OBJECTID":179035},"geometry":{"x":167214.76000000071,"y":2542628.8500000015}},{"attributes":{"ID":179037,"DIS_CODE":0,"TOWNNAME":"南區","LI":"廣州里","LIN":"21鄰","STREET":"福吉四街","SECT":" ","MAREA":" ","LANE":"４７巷","ALLEY":"１弄","HOUSE_NO":"６號","E_COORD97":167220.25,"N_COORD97":2542617.8900000001,"ADDRESS":"福吉四街４７巷１弄６號","OBJECTID":179036},"geometry":{"x":167220.25000000093,"y":2542617.8900000006}},{"attributes":{"ID":179038,"DIS_CODE":0,"TOWNNAME":"南區","LI":"興農里","LIN":"4鄰","STREET":"灣裡路","SECT":" ","MAREA":" ","LANE":"２１１巷","ALLEY":"５０弄","HOUSE_NO":"１號","E_COORD97":166270.81,"N_COORD97":2536556.1200000001,"ADDRESS":"灣裡路２１１巷５０弄１號","OBJECTID":179037},"geometry":{"x":166270.80999999959,"y":2536556.1200000029}},{"attributes":{"ID":179039,"DIS_CODE":0,"TOWNNAME":"南區","LI":"興農里","LIN":"4鄰","STREET":"灣裡路","SECT":" ","MAREA":" ","LANE":"２１１巷","ALLEY":"７０弄","HOUSE_NO":"１號","E_COORD97":166355.01000000001,"N_COORD97":2536576.75,"ADDRESS":"灣裡路２１１巷７０弄１號","OBJECTID":179038},"geometry":{"x":166355.01000000164,"y":2536576.75}},{"attributes":{"ID":179040,"DIS_CODE":0,"TOWNNAME":"南區","LI":"興農里","LIN":"4鄰","STREET":"灣裡路","SECT":" ","MAREA":" ","LANE":"２１１巷","ALLEY":"７０弄","HOUSE_NO":"２號","E_COORD97":166344.89999999999,"N_COORD97":2536565.7599999998,"ADDRESS":"灣裡路２１１巷７０弄２號","OBJECTID":179039},"geometry":{"x":166344.9000000013,"y":2536565.7599999998}},{"attributes":{"ID":179041,"DIS_CODE":0,"TOWNNAME":"南區","LI":"興農里","LIN":"4鄰","STREET":"灣裡路","SECT":" ","MAREA":" ","LANE":"２１１巷","ALLEY":"７０弄","HOUSE_NO":"３號","E_COORD97":166354.78,"N_COORD97":2536554.1000000001,"ADDRESS":"灣裡路２１１巷７０弄３號","OBJECTID":179040},"geometry":{"x":166354.78000000026,"y":2536554.1000000034}},{"attributes":{"ID":179042,"DIS_CODE":0,"TOWNNAME":"南區","LI":"興農里","LIN":"4鄰","STREET":"灣裡路","SECT":" ","MAREA":" ","LANE":"２１１巷","ALLEY":"７０弄","HOUSE_NO":"４號","E_COORD97":166346.70000000001,"N_COORD97":2536552.3100000001,"ADDRESS":"灣裡路２１１巷７０弄４號","OBJECTID":179041},"geometry":{"x":166346.70000000019,"y":2536552.3100000005}},{"attributes":{"ID":179043,"DIS_CODE":0,"TOWNNAME":"南區","LI":"興農里","LIN":"4鄰","STREET":"灣裡路","SECT":" ","MAREA":" ","LANE":"２１１巷","ALLEY":"７０弄","HOUSE_NO":"６號","E_COORD97":166346.25,"N_COORD97":2536545.8100000001,"ADDRESS":"灣裡路２１１巷７０弄６號","OBJECTID":179042},"geometry":{"x":166346.25,"y":2536545.8100000005}},{"attributes":{"ID":179044,"DIS_CODE":0,"TOWNNAME":"南區","LI":"興農里","LIN":"4鄰","STREET":"灣裡路","SECT":" ","MAREA":" ","LANE":"２１１巷","ALLEY":"７０弄","HOUSE_NO":"８號","E_COORD97":166332.32999999999,"N_COORD97":2536548.9500000002,"ADDRESS":"灣裡路２１１巷７０弄８號","OBJECTID":179043},"geometry":{"x":166332.33000000007,"y":2536548.9500000011}},{"attributes":{"ID":179045,"DIS_CODE":0,"TOWNNAME":"南區","LI":"興農里","LIN":"4鄰","STREET":"灣裡路","SECT":" ","MAREA":" ","LANE":"２１１巷","ALLEY":"７０弄","HOUSE_NO":"８號之１","E_COORD97":166348.81,"N_COORD97":2536537.6600000001,"ADDRESS":"灣裡路２１１巷７０弄８號之１","OBJECTID":179044},"geometry":{"x":166348.80999999959,"y":2536537.660000002}},{"attributes":{"ID":179046,"DIS_CODE":0,"TOWNNAME":"官田區","LI":"湖山里","LIN":"16鄰","STREET":" ","SECT":" ","MAREA":"烏山頭","LANE":" ","ALLEY":" ","HOUSE_NO":"９６號之１","E_COORD97":183719.35999999999,"N_COORD97":2568225.8399999999,"ADDRESS":"烏山頭９６號之１","OBJECTID":179045},"geometry":{"x":183719.36000000127,"y":2568225.8400000036}},{"attributes":{"ID":179047,"DIS_CODE":0,"TOWNNAME":"官田區","LI":"湖山里","LIN":"16鄰","STREET":" ","SECT":" ","MAREA":"烏山頭","LANE":" ","ALLEY":" ","HOUSE_NO":"９６號","E_COORD97":183679.48000000001,"N_COORD97":2567997.23,"ADDRESS":"烏山頭９６號","OBJECTID":179046},"geometry":{"x":183679.48000000138,"y":2567997.2300000023}},{"attributes":{"ID":179048,"DIS_CODE":0,"TOWNNAME":"官田區","LI":"湖山里","LIN":"16鄰","STREET":" ","SECT":" ","MAREA":"烏山頭","LANE":" ","ALLEY":" ","HOUSE_NO":"９８號之１３","E_COORD97":183654.06,"N_COORD97":2567954.3799999999,"ADDRESS":"烏山頭９８號之１３","OBJECTID":179047},"geometry":{"x":183654.06000000145,"y":2567954.3800000008}},{"attributes":{"ID":179049,"DIS_CODE":0,"TOWNNAME":"後壁區","LI":"新嘉里","LIN":"16鄰","STREET":" ","SECT":" ","MAREA":"白沙屯","LANE":" ","ALLEY":" ","HOUSE_NO":"１７４號之３","E_COORD97":179537.25,"N_COORD97":2585598.0099999998,"ADDRESS":"白沙屯１７４號之３","OBJECTID":179048},"geometry":{"x":179537.25000000186,"y":2585598.0100000016}},{"attributes":{"ID":179050,"DIS_CODE":0,"TOWNNAME":"後壁區","LI":"新嘉里","LIN":"16鄰","STREET":" ","SECT":" ","MAREA":"白沙屯","LANE":" ","ALLEY":" ","HOUSE_NO":"１７４號之５","E_COORD97":179532.70000000001,"N_COORD97":2585598.5699999998,"ADDRESS":"白沙屯１７４號之５","OBJECTID":179049},"geometry":{"x":179532.70000000205,"y":2585598.5700000022}},{"attributes":{"ID":179051,"DIS_CODE":0,"TOWNNAME":"後壁區","LI":"新嘉里","LIN":"16鄰","STREET":" ","SECT":" ","MAREA":"白沙屯","LANE":" ","ALLEY":" ","HOUSE_NO":"１７４號","E_COORD97":179515.20999999999,"N_COORD97":2585603.9300000002,"ADDRESS":"白沙屯１７４號","OBJECTID":179050},"geometry":{"x":179515.20999999996,"y":2585603.9300000034}},{"attributes":{"ID":179052,"DIS_CODE":0,"TOWNNAME":"後壁區","LI":"新嘉里","LIN":"16鄰","STREET":" ","SECT":" ","MAREA":"白沙屯","LANE":" ","ALLEY":" ","HOUSE_NO":"１７５號","E_COORD97":179519.84,"N_COORD97":2585643.2400000002,"ADDRESS":"白沙屯１７５號","OBJECTID":179051},"geometry":{"x":179519.84000000078,"y":2585643.2400000039}},{"attributes":{"ID":179053,"DIS_CODE":0,"TOWNNAME":"後壁區","LI":"侯伯里","LIN":"16鄰","STREET":" ","SECT":" ","MAREA":"後壁寮","LANE":" ","ALLEY":" ","HOUSE_NO":"１３５號","E_COORD97":185189.42000000001,"N_COORD97":2585564.46,"ADDRESS":"後壁寮１３５號","OBJECTID":179052},"geometry":{"x":185189.42000000179,"y":2585564.4600000046}},{"attributes":{"ID":179054,"DIS_CODE":0,"TOWNNAME":"後壁區","LI":"侯伯里","LIN":"16鄰","STREET":" ","SECT":" ","MAREA":"後壁寮","LANE":" ","ALLEY":" ","HOUSE_NO":"１３６號","E_COORD97":185158.5,"N_COORD97":2585586.3999999999,"ADDRESS":"後壁寮１３６號","OBJECTID":179053},"geometry":{"x":185158.50000000186,"y":2585586.4000000004}},{"attributes":{"ID":179055,"DIS_CODE":0,"TOWNNAME":"後壁區","LI":"侯伯里","LIN":"16鄰","STREET":" ","SECT":" ","MAREA":"後壁寮","LANE":" ","ALLEY":" ","HOUSE_NO":"１３７號","E_COORD97":185165.42999999999,"N_COORD97":2585550.7000000002,"ADDRESS":"後壁寮１３７號","OBJECTID":179054},"geometry":{"x":185165.43000000156,"y":2585550.6999999974}},{"attributes":{"ID":179056,"DIS_CODE":0,"TOWNNAME":"後壁區","LI":"侯伯里","LIN":"16鄰","STREET":" ","SECT":" ","MAREA":"後壁寮","LANE":" ","ALLEY":" ","HOUSE_NO":"１３８號","E_COORD97":185148.73000000001,"N_COORD97":2585556.4399999999,"ADDRESS":"後壁寮１３８號","OBJECTID":179055},"geometry":{"x":185148.72999999952,"y":2585556.4400000032}},{"attributes":{"ID":179057,"DIS_CODE":0,"TOWNNAME":"後壁區","LI":"侯伯里","LIN":"16鄰","STREET":" ","SECT":" ","MAREA":"後壁寮","LANE":" ","ALLEY":" ","HOUSE_NO":"１３９號之１","E_COORD97":185133.16,"N_COORD97":2585546.29,"ADDRESS":"後壁寮１３９號之１","OBJECTID":179056},"geometry":{"x":185133.16000000015,"y":2585546.2899999991}},{"attributes":{"ID":179058,"DIS_CODE":0,"TOWNNAME":"後壁區","LI":"侯伯里","LIN":"16鄰","STREET":" ","SECT":" ","MAREA":"後壁寮","LANE":" ","ALLEY":" ","HOUSE_NO":"１３９號之２","E_COORD97":185140.39000000001,"N_COORD97":2585526.5499999998,"ADDRESS":"後壁寮１３９號之２","OBJECTID":179057},"geometry":{"x":185140.3900000006,"y":2585526.5500000045}},{"attributes":{"ID":179059,"DIS_CODE":0,"TOWNNAME":"將軍區","LI":"將富里","LIN":"16鄰","STREET":" ","SECT":" ","MAREA":"將榮","LANE":" ","ALLEY":" ","HOUSE_NO":"１１５之１號","E_COORD97":161591.09,"N_COORD97":2569720.6400000001,"ADDRESS":"將榮１１５之１號","OBJECTID":179058},"geometry":{"x":161591.09000000171,"y":2569720.6400000025}},{"attributes":{"ID":179060,"DIS_CODE":0,"TOWNNAME":"將軍區","LI":"將富里","LIN":"16鄰","STREET":" ","SECT":" ","MAREA":"將榮","LANE":" ","ALLEY":" ","HOUSE_NO":"１１６號","E_COORD97":161585.45000000001,"N_COORD97":2569730.73,"ADDRESS":"將榮１１６號","OBJECTID":179059},"geometry":{"x":161585.45000000019,"y":2569730.7300000004}},{"attributes":{"ID":179061,"DIS_CODE":0,"TOWNNAME":"將軍區","LI":"將富里","LIN":"16鄰","STREET":" ","SECT":" ","MAREA":"將榮","LANE":" ","ALLEY":" ","HOUSE_NO":"１１８號","E_COORD97":161617.48999999999,"N_COORD97":2569726.98,"ADDRESS":"將榮１１８號","OBJECTID":179060},"geometry":{"x":161617.48999999929,"y":2569726.9800000004}},{"attributes":{"ID":179062,"DIS_CODE":0,"TOWNNAME":"將軍區","LI":"將富里","LIN":"16鄰","STREET":" ","SECT":" ","MAREA":"將榮","LANE":" ","ALLEY":" ","HOUSE_NO":"１１９之１號","E_COORD97":161588.47,"N_COORD97":2569789.73,"ADDRESS":"將榮１１９之１號","OBJECTID":179061},"geometry":{"x":161588.4700000016,"y":2569789.7300000004}},{"attributes":{"ID":179063,"DIS_CODE":0,"TOWNNAME":"將軍區","LI":"將富里","LIN":"16鄰","STREET":" ","SECT":" ","MAREA":"將榮","LANE":" ","ALLEY":" ","HOUSE_NO":"１１９號","E_COORD97":161640.44,"N_COORD97":2569733.2999999998,"ADDRESS":"將榮１１９號","OBJECTID":179062},"geometry":{"x":161640.44000000134,"y":2569733.3000000026}},{"attributes":{"ID":179064,"DIS_CODE":0,"TOWNNAME":"將軍區","LI":"將富里","LIN":"16鄰","STREET":" ","SECT":" ","MAREA":"將榮","LANE":" ","ALLEY":" ","HOUSE_NO":"１２０號","E_COORD97":161631.01999999999,"N_COORD97":2569712.5800000001,"ADDRESS":"將榮１２０號","OBJECTID":179063},"geometry":{"x":161631.02000000048,"y":2569712.5800000038}},{"attributes":{"ID":179065,"DIS_CODE":0,"TOWNNAME":"將軍區","LI":"將富里","LIN":"16鄰","STREET":" ","SECT":" ","MAREA":"將榮","LANE":" ","ALLEY":" ","HOUSE_NO":"１２２號","E_COORD97":161646.28,"N_COORD97":2569709.2400000002,"ADDRESS":"將榮１２２號","OBJECTID":179064},"geometry":{"x":161646.28000000212,"y":2569709.2400000021}},{"attributes":{"ID":179066,"DIS_CODE":0,"TOWNNAME":"將軍區","LI":"將富里","LIN":"16鄰","STREET":" ","SECT":" ","MAREA":"將榮","LANE":" ","ALLEY":" ","HOUSE_NO":"１２３之１號","E_COORD97":161667.57999999999,"N_COORD97":2569682.4700000002,"ADDRESS":"將榮１２３之１號","OBJECTID":179065},"geometry":{"x":161667.57999999914,"y":2569682.4700000007}},{"attributes":{"ID":179067,"DIS_CODE":0,"TOWNNAME":"將軍區","LI":"將富里","LIN":"16鄰","STREET":" ","SECT":" ","MAREA":"將榮","LANE":" ","ALLEY":" ","HOUSE_NO":"１２３號","E_COORD97":161674.70999999999,"N_COORD97":2569699.1499999999,"ADDRESS":"將榮１２３號","OBJECTID":179066},"geometry":{"x":161674.70999999996,"y":2569699.1500000041}},{"attributes":{"ID":179068,"DIS_CODE":0,"TOWNNAME":"將軍區","LI":"將富里","LIN":"16鄰","STREET":" ","SECT":" ","MAREA":"將榮","LANE":" ","ALLEY":" ","HOUSE_NO":"１２５之１６號","E_COORD97":161914.53,"N_COORD97":2569205.9900000002,"ADDRESS":"將榮１２５之１６號","OBJECTID":179067},"geometry":{"x":161914.53000000119,"y":2569205.9900000021}},{"attributes":{"ID":179069,"DIS_CODE":0,"TOWNNAME":"將軍區","LI":"將富里","LIN":"16鄰","STREET":" ","SECT":" ","MAREA":"將榮","LANE":" ","ALLEY":" ","HOUSE_NO":"１２５號","E_COORD97":161707.29000000001,"N_COORD97":2569680.6499999999,"ADDRESS":"將榮１２５號","OBJECTID":179068},"geometry":{"x":161707.29000000097,"y":2569680.6500000004}},{"attributes":{"ID":179070,"DIS_CODE":0,"TOWNNAME":"將軍區","LI":"將富里","LIN":"16鄰","STREET":" ","SECT":" ","MAREA":"將榮","LANE":" ","ALLEY":" ","HOUSE_NO":"１２７之５號","E_COORD97":161703.16,"N_COORD97":2569743.2000000002,"ADDRESS":"將榮１２７之５號","OBJECTID":179069},"geometry":{"x":161703.16000000108,"y":2569743.2000000011}},{"attributes":{"ID":179071,"DIS_CODE":0,"TOWNNAME":"將軍區","LI":"將富里","LIN":"16鄰","STREET":" ","SECT":" ","MAREA":"將榮","LANE":" ","ALLEY":" ","HOUSE_NO":"１２７號","E_COORD97":161721.17999999999,"N_COORD97":2569699.2599999998,"ADDRESS":"將榮１２７號","OBJECTID":179070},"geometry":{"x":161721.18000000063,"y":2569699.2600000016}},{"attributes":{"ID":179072,"DIS_CODE":0,"TOWNNAME":"將軍區","LI":"保源里","LIN":"16鄰","STREET":" ","SECT":" ","MAREA":"源頭","LANE":" ","ALLEY":" ","HOUSE_NO":"４７號","E_COORD97":164591.72,"N_COORD97":2568174.2599999998,"ADDRESS":"源頭４７號","OBJECTID":179071},"geometry":{"x":164591.71999999974,"y":2568174.2599999998}},{"attributes":{"ID":179073,"DIS_CODE":0,"TOWNNAME":"將軍區","LI":"保源里","LIN":"16鄰","STREET":" ","SECT":" ","MAREA":"源頭","LANE":" ","ALLEY":" ","HOUSE_NO":"４８之１號","E_COORD97":164573.10999999999,"N_COORD97":2568199.6699999999,"ADDRESS":"源頭４８之１號","OBJECTID":179072},"geometry":{"x":164573.11000000034,"y":2568199.6700000037}},{"attributes":{"ID":179074,"DIS_CODE":0,"TOWNNAME":"將軍區","LI":"保源里","LIN":"16鄰","STREET":" ","SECT":" ","MAREA":"源頭","LANE":" ","ALLEY":" ","HOUSE_NO":"４８之２號","E_COORD97":164572.98999999999,"N_COORD97":2568207.4500000002,"ADDRESS":"源頭４８之２號","OBJECTID":179073},"geometry":{"x":164572.99000000115,"y":2568207.450000003}},{"attributes":{"ID":179075,"DIS_CODE":0,"TOWNNAME":"將軍區","LI":"保源里","LIN":"16鄰","STREET":" ","SECT":" ","MAREA":"源頭","LANE":" ","ALLEY":" ","HOUSE_NO":"４８號","E_COORD97":164577.69,"N_COORD97":2568189.6699999999,"ADDRESS":"源頭４８號","OBJECTID":179074},"geometry":{"x":164577.69000000041,"y":2568189.6700000037}},{"attributes":{"ID":179076,"DIS_CODE":0,"TOWNNAME":"將軍區","LI":"保源里","LIN":"16鄰","STREET":" ","SECT":" ","MAREA":"源頭","LANE":" ","ALLEY":" ","HOUSE_NO":"４９號","E_COORD97":164576.69,"N_COORD97":2568223.5,"ADDRESS":"源頭４９號","OBJECTID":179075},"geometry":{"x":164576.69000000134,"y":2568223.5}},{"attributes":{"ID":179077,"DIS_CODE":0,"TOWNNAME":"將軍區","LI":"保源里","LIN":"16鄰","STREET":" ","SECT":" ","MAREA":"源頭","LANE":" ","ALLEY":" ","HOUSE_NO":"５０號","E_COORD97":164574.07999999999,"N_COORD97":2568259.6499999999,"ADDRESS":"源頭５０號","OBJECTID":179076},"geometry":{"x":164574.08000000101,"y":2568259.6500000022}},{"attributes":{"ID":179078,"DIS_CODE":0,"TOWNNAME":"將軍區","LI":"保源里","LIN":"16鄰","STREET":" ","SECT":" ","MAREA":"源頭","LANE":" ","ALLEY":" ","HOUSE_NO":"５１號","E_COORD97":164585.19,"N_COORD97":2568294.1299999999,"ADDRESS":"源頭５１號","OBJECTID":179077},"geometry":{"x":164585.19000000134,"y":2568294.1300000027}},{"attributes":{"ID":179079,"DIS_CODE":0,"TOWNNAME":"將軍區","LI":"保源里","LIN":"16鄰","STREET":" ","SECT":" ","MAREA":"源頭","LANE":" ","ALLEY":" ","HOUSE_NO":"５２號","E_COORD97":164603.70000000001,"N_COORD97":2568271.02,"ADDRESS":"源頭５２號","OBJECTID":179078},"geometry":{"x":164603.70000000112,"y":2568271.0199999996}},{"attributes":{"ID":179080,"DIS_CODE":0,"TOWNNAME":"將軍區","LI":"保源里","LIN":"16鄰","STREET":" ","SECT":" ","MAREA":"源頭","LANE":" ","ALLEY":" ","HOUSE_NO":"５３號","E_COORD97":164616.25,"N_COORD97":2568248.5,"ADDRESS":"源頭５３號","OBJECTID":179079},"geometry":{"x":164616.25000000093,"y":2568248.5000000037}},{"attributes":{"ID":179081,"DIS_CODE":0,"TOWNNAME":"將軍區","LI":"保源里","LIN":"16鄰","STREET":" ","SECT":" ","MAREA":"源頭","LANE":" ","ALLEY":" ","HOUSE_NO":"５４號","E_COORD97":164602.32999999999,"N_COORD97":2568236.9199999999,"ADDRESS":"源頭５４號","OBJECTID":179080},"geometry":{"x":164602.33000000101,"y":2568236.9200000018}},{"attributes":{"ID":179082,"DIS_CODE":0,"TOWNNAME":"將軍區","LI":"保源里","LIN":"16鄰","STREET":" ","SECT":" ","MAREA":"源頭","LANE":" ","ALLEY":" ","HOUSE_NO":"５５之１號","E_COORD97":164603.28,"N_COORD97":2568192.5899999999,"ADDRESS":"源頭５５之１號","OBJECTID":179081},"geometry":{"x":164603.28000000119,"y":2568192.5899999999}},{"attributes":{"ID":179083,"DIS_CODE":0,"TOWNNAME":"將軍區","LI":"保源里","LIN":"16鄰","STREET":" ","SECT":" ","MAREA":"源頭","LANE":" ","ALLEY":" ","HOUSE_NO":"５５之２號","E_COORD97":164609.26000000001,"N_COORD97":2568171.98,"ADDRESS":"源頭５５之２號","OBJECTID":179082},"geometry":{"x":164609.26000000071,"y":2568171.9800000023}},{"attributes":{"ID":179084,"DIS_CODE":0,"TOWNNAME":"將軍區","LI":"保源里","LIN":"16鄰","STREET":" ","SECT":" ","MAREA":"源頭","LANE":" ","ALLEY":" ","HOUSE_NO":"５５之３號","E_COORD97":164606.42000000001,"N_COORD97":2568157.04,"ADDRESS":"源頭５５之３號","OBJECTID":179083},"geometry":{"x":164606.42000000179,"y":2568157.040000001}},{"attributes":{"ID":179085,"DIS_CODE":0,"TOWNNAME":"將軍區","LI":"保源里","LIN":"16鄰","STREET":" ","SECT":" ","MAREA":"源頭","LANE":" ","ALLEY":" ","HOUSE_NO":"５５之５號","E_COORD97":164624.94,"N_COORD97":2568159.7200000002,"ADDRESS":"源頭５５之５號","OBJECTID":179084},"geometry":{"x":164624.94000000041,"y":2568159.7200000044}},{"attributes":{"ID":179086,"DIS_CODE":0,"TOWNNAME":"將軍區","LI":"保源里","LIN":"16鄰","STREET":" ","SECT":" ","MAREA":"源頭","LANE":" ","ALLEY":" ","HOUSE_NO":"５５號","E_COORD97":164599.73999999999,"N_COORD97":2568221.1600000001,"ADDRESS":"源頭５５號","OBJECTID":179085},"geometry":{"x":164599.74000000115,"y":2568221.160000002}},{"attributes":{"ID":179087,"DIS_CODE":0,"TOWNNAME":"將軍區","LI":"廣山里","LIN":"16鄰","STREET":" ","SECT":" ","MAREA":"廣山","LANE":" ","ALLEY":" ","HOUSE_NO":"１５０號","E_COORD97":159618.17999999999,"N_COORD97":2569070.98,"ADDRESS":"廣山１５０號","OBJECTID":179086},"geometry":{"x":159618.1799999997,"y":2569070.9800000023}},{"attributes":{"ID":179088,"DIS_CODE":0,"TOWNNAME":"將軍區","LI":"廣山里","LIN":"16鄰","STREET":" ","SECT":" ","MAREA":"廣山","LANE":" ","ALLEY":" ","HOUSE_NO":"１５１號","E_COORD97":159642.45999999999,"N_COORD97":2569079.0899999999,"ADDRESS":"廣山１５１號","OBJECTID":179087},"geometry":{"x":159642.45999999996,"y":2569079.0900000017}},{"attributes":{"ID":179089,"DIS_CODE":0,"TOWNNAME":"將軍區","LI":"廣山里","LIN":"16鄰","STREET":" ","SECT":" ","MAREA":"廣山","LANE":" ","ALLEY":" ","HOUSE_NO":"１５３號","E_COORD97":159706.12,"N_COORD97":2569023.9900000002,"ADDRESS":"廣山１５３號","OBJECTID":179088},"geometry":{"x":159706.12000000197,"y":2569023.9900000002}},{"attributes":{"ID":179090,"DIS_CODE":0,"TOWNNAME":"將軍區","LI":"廣山里","LIN":"16鄰","STREET":" ","SECT":" ","MAREA":"廣山","LANE":" ","ALLEY":" ","HOUSE_NO":"１５４之１０號","E_COORD97":159680.45000000001,"N_COORD97":2569084.7400000002,"ADDRESS":"廣山１５４之１０號","OBJECTID":179089},"geometry":{"x":159680.45000000112,"y":2569084.7400000039}},{"attributes":{"ID":179091,"DIS_CODE":0,"TOWNNAME":"將軍區","LI":"廣山里","LIN":"16鄰","STREET":" ","SECT":" ","MAREA":"廣山","LANE":" ","ALLEY":" ","HOUSE_NO":"１５４之１號","E_COORD97":159678.41,"N_COORD97":2569045.5099999998,"ADDRESS":"廣山１５４之１號","OBJECTID":179090},"geometry":{"x":159678.41000000015,"y":2569045.5100000016}},{"attributes":{"ID":179092,"DIS_CODE":0,"TOWNNAME":"將軍區","LI":"廣山里","LIN":"16鄰","STREET":" ","SECT":" ","MAREA":"廣山","LANE":" ","ALLEY":" ","HOUSE_NO":"１５４之２號","E_COORD97":159678.73000000001,"N_COORD97":2569049.0699999998,"ADDRESS":"廣山１５４之２號","OBJECTID":179091},"geometry":{"x":159678.73000000231,"y":2569049.0700000022}},{"attributes":{"ID":179093,"DIS_CODE":0,"TOWNNAME":"將軍區","LI":"廣山里","LIN":"16鄰","STREET":" ","SECT":" ","MAREA":"廣山","LANE":" ","ALLEY":" ","HOUSE_NO":"１５４之９號","E_COORD97":159680.12,"N_COORD97":2569080.3900000001,"ADDRESS":"廣山１５４之９號","OBJECTID":179092},"geometry":{"x":159680.12000000011,"y":2569080.3900000043}},{"attributes":{"ID":179094,"DIS_CODE":0,"TOWNNAME":"將軍區","LI":"廣山里","LIN":"16鄰","STREET":" ","SECT":" ","MAREA":"廣山","LANE":" ","ALLEY":" ","HOUSE_NO":"１５４號","E_COORD97":159662.89000000001,"N_COORD97":2569060.3799999999,"ADDRESS":"廣山１５４號","OBJECTID":179093},"geometry":{"x":159662.88999999966,"y":2569060.379999999}},{"attributes":{"ID":179095,"DIS_CODE":0,"TOWNNAME":"將軍區","LI":"廣山里","LIN":"16鄰","STREET":" ","SECT":" ","MAREA":"廣山","LANE":" ","ALLEY":" ","HOUSE_NO":"１５７號","E_COORD97":159663.98000000001,"N_COORD97":2569009.79,"ADDRESS":"廣山１５７號","OBJECTID":179094},"geometry":{"x":159663.98000000138,"y":2569009.790000001}},{"attributes":{"ID":179096,"DIS_CODE":0,"TOWNNAME":"南區","LI":"興農里","LIN":"4鄰","STREET":"灣裡路","SECT":" ","MAREA":" ","LANE":"２１１巷","ALLEY":"７０弄","HOUSE_NO":"１０號","E_COORD97":166327.17000000001,"N_COORD97":2536548.5,"ADDRESS":"灣裡路２１１巷７０弄１０號","OBJECTID":179095},"geometry":{"x":166327.17000000086,"y":2536548.5000000037}},{"attributes":{"ID":179097,"DIS_CODE":0,"TOWNNAME":"南區","LI":"興農里","LIN":"4鄰","STREET":"灣裡路","SECT":" ","MAREA":" ","LANE":"２１１巷","ALLEY":"７０弄","HOUSE_NO":"１２號","E_COORD97":166330.07999999999,"N_COORD97":2536533.0299999998,"ADDRESS":"灣裡路２１１巷７０弄１２號","OBJECTID":179096},"geometry":{"x":166330.08000000101,"y":2536533.0299999993}},{"attributes":{"ID":179098,"DIS_CODE":0,"TOWNNAME":"將軍區","LI":"廣山里","LIN":"16鄰","STREET":" ","SECT":" ","MAREA":"廣山","LANE":" ","ALLEY":" ","HOUSE_NO":"１５８號","E_COORD97":159650.53,"N_COORD97":2569051.3700000001,"ADDRESS":"廣山１５８號","OBJECTID":179097},"geometry":{"x":159650.53000000026,"y":2569051.3700000029}},{"attributes":{"ID":179099,"DIS_CODE":0,"TOWNNAME":"南區","LI":"興農里","LIN":"4鄰","STREET":"灣裡路","SECT":" ","MAREA":" ","LANE":"２１１巷","ALLEY":"７０弄","HOUSE_NO":"１４號","E_COORD97":166335.01999999999,"N_COORD97":2536536.1699999999,"ADDRESS":"灣裡路２１１巷７０弄１４號","OBJECTID":179098},"geometry":{"x":166335.02000000048,"y":2536536.1699999999}},{"attributes":{"ID":179100,"DIS_CODE":0,"TOWNNAME":"南區","LI":"興農里","LIN":"4鄰","STREET":"灣裡路","SECT":" ","MAREA":" ","LANE":"２１１巷","ALLEY":"７０弄","HOUSE_NO":"１５號","E_COORD97":166416.56,"N_COORD97":2536546.3100000001,"ADDRESS":"灣裡路２１１巷７０弄１５號","OBJECTID":179099},"geometry":{"x":166416.55999999959,"y":2536546.3100000005}},{"attributes":{"ID":179101,"DIS_CODE":0,"TOWNNAME":"南區","LI":"興農里","LIN":"4鄰","STREET":"灣裡路","SECT":" ","MAREA":" ","LANE":"２１１巷","ALLEY":"７０弄","HOUSE_NO":"１７號","E_COORD97":166432.35999999999,"N_COORD97":2536540.9100000001,"ADDRESS":"灣裡路２１１巷７０弄１７號","OBJECTID":179100},"geometry":{"x":166432.36000000034,"y":2536540.9100000001}},{"attributes":{"ID":179102,"DIS_CODE":0,"TOWNNAME":"南區","LI":"興農里","LIN":"4鄰","STREET":"灣裡路","SECT":" ","MAREA":" ","LANE":"２１１巷","ALLEY":"７０弄","HOUSE_NO":"１９號","E_COORD97":166437.45999999999,"N_COORD97":2536551.0899999999,"ADDRESS":"灣裡路２１１巷７０弄１９號","OBJECTID":179101},"geometry":{"x":166437.46000000089,"y":2536551.0900000036}},{"attributes":{"ID":179103,"DIS_CODE":0,"TOWNNAME":"南區","LI":"興農里","LIN":"4鄰","STREET":"灣裡路","SECT":" ","MAREA":" ","LANE":"２６３巷","ALLEY":"６１弄","HOUSE_NO":"１４號","E_COORD97":166289,"N_COORD97":2536534.3100000001,"ADDRESS":"灣裡路２６３巷６１弄１４號","OBJECTID":179102},"geometry":{"x":166289,"y":2536534.3100000024}},{"attributes":{"ID":179104,"DIS_CODE":0,"TOWNNAME":"南區","LI":"興農里","LIN":"4鄰","STREET":"灣裡路","SECT":" ","MAREA":" ","LANE":"２６３巷","ALLEY":"６１弄","HOUSE_NO":"１６號","E_COORD97":166308.53,"N_COORD97":2536544.9100000001,"ADDRESS":"灣裡路２６３巷６１弄１６號","OBJECTID":179103},"geometry":{"x":166308.53000000119,"y":2536544.9100000001}},{"attributes":{"ID":179105,"DIS_CODE":0,"TOWNNAME":"南區","LI":"興農里","LIN":"6鄰","STREET":"灣裡路","SECT":" ","MAREA":" ","LANE":"２６３巷","ALLEY":"６７弄","HOUSE_NO":"６號","E_COORD97":166372.19,"N_COORD97":2536440.9300000002,"ADDRESS":"灣裡路２６３巷６７弄６號","OBJECTID":179104},"geometry":{"x":166372.19000000134,"y":2536440.9300000016}},{"attributes":{"ID":179106,"DIS_CODE":0,"TOWNNAME":"佳里區","LI":"六安里","LIN":"24鄰","STREET":"青年街","SECT":" ","MAREA":" ","LANE":" ","ALLEY":" ","HOUSE_NO":"１２７號","E_COORD97":165833.39999999999,"N_COORD97":2562995.0499999998,"ADDRESS":"青年街１２７號","OBJECTID":179105},"geometry":{"x":165833.4000000013,"y":2562995.0500000026}},{"attributes":{"ID":179107,"DIS_CODE":0,"TOWNNAME":"佳里區","LI":"六安里","LIN":"24鄰","STREET":"青年街","SECT":" ","MAREA":" ","LANE":" ","ALLEY":" ","HOUSE_NO":"１２９號","E_COORD97":165828.76000000001,"N_COORD97":2562995.3300000001,"ADDRESS":"青年街１２９號","OBJECTID":179106},"geometry":{"x":165828.75999999978,"y":2562995.3300000019}},{"attributes":{"ID":179108,"DIS_CODE":0,"TOWNNAME":"佳里區","LI":"六安里","LIN":"24鄰","STREET":"青年街","SECT":" ","MAREA":" ","LANE":" ","ALLEY":" ","HOUSE_NO":"１３３號","E_COORD97":165818.89000000001,"N_COORD97":2562994.46,"ADDRESS":"青年街１３３號","OBJECTID":179107},"geometry":{"x":165818.8900000006,"y":2562994.459999999}},{"attributes":{"ID":179109,"DIS_CODE":0,"TOWNNAME":"佳里區","LI":"六安里","LIN":"24鄰","STREET":"青年街","SECT":" ","MAREA":" ","LANE":" ","ALLEY":" ","HOUSE_NO":"１６３號","E_COORD97":165771.67000000001,"N_COORD97":2562984.6299999999,"ADDRESS":"青年街１６３號","OBJECTID":179108},"geometry":{"x":165771.67000000086,"y":2562984.6300000027}},{"attributes":{"ID":179110,"DIS_CODE":0,"TOWNNAME":"佳里區","LI":"六安里","LIN":"24鄰","STREET":"青年街","SECT":" ","MAREA":" ","LANE":" ","ALLEY":" ","HOUSE_NO":"１６７號","E_COORD97":165719.04000000001,"N_COORD97":2562999.5299999998,"ADDRESS":"青年街１６７號","OBJECTID":179109},"geometry":{"x":165719.04000000004,"y":2562999.5300000031}},{"attributes":{"ID":179111,"DIS_CODE":0,"TOWNNAME":"佳里區","LI":"六安里","LIN":"24鄰","STREET":"青年街","SECT":" ","MAREA":" ","LANE":" ","ALLEY":" ","HOUSE_NO":"１６９號之１","E_COORD97":165722.75,"N_COORD97":2562976.4100000001,"ADDRESS":"青年街１６９號之１","OBJECTID":179110},"geometry":{"x":165722.75,"y":2562976.4100000001}},{"attributes":{"ID":179112,"DIS_CODE":0,"TOWNNAME":"佳里區","LI":"六安里","LIN":"24鄰","STREET":"青年街","SECT":" ","MAREA":" ","LANE":" ","ALLEY":" ","HOUSE_NO":"１６９號","E_COORD97":165710.56,"N_COORD97":2562984.25,"ADDRESS":"青年街１６９號","OBJECTID":179111},"geometry":{"x":165710.56000000052,"y":2562984.25}},{"attributes":{"ID":179113,"DIS_CODE":0,"TOWNNAME":"善化區","LI":"東關里","LIN":" ","STREET":"中山路","SECT":" ","MAREA":" ","LANE":" ","ALLEY":" ","HOUSE_NO":"３７７之１２５號","E_COORD97":177466.03,"N_COORD97":2559062.52,"ADDRESS":"中山路３７７之１２５號","OBJECTID":179112},"geometry":{"x":177466.03000000119,"y":2559062.5199999996}},{"attributes":{"ID":179114,"DIS_CODE":0,"TOWNNAME":"善化區","LI":"光文里","LIN":" ","STREET":"建業路","SECT":" ","MAREA":" ","LANE":" ","ALLEY":" ","HOUSE_NO":"１８７號","E_COORD97":178666.64000000001,"N_COORD97":2559808.7799999998,"ADDRESS":"建業路１８７號","OBJECTID":179113},"geometry":{"x":178666.6400000006,"y":2559808.7800000012}},{"attributes":{"ID":179115,"DIS_CODE":0,"TOWNNAME":"善化區","LI":"北關里","LIN":" ","STREET":"進學路","SECT":" ","MAREA":" ","LANE":" ","ALLEY":" ","HOUSE_NO":"２５之１號","E_COORD97":177243.88,"N_COORD97":2559265.77,"ADDRESS":"進學路２５之１號","OBJECTID":179114},"geometry":{"x":177243.87999999989,"y":2559265.7700000014}},{"attributes":{"ID":179116,"DIS_CODE":0,"TOWNNAME":"善化區","LI":"光文里","LIN":"13鄰","STREET":"樹人路","SECT":" ","MAREA":" ","LANE":" ","ALLEY":" ","HOUSE_NO":"３８號","E_COORD97":178383.42999999999,"N_COORD97":2559008,"ADDRESS":"樹人路３８號","OBJECTID":179115},"geometry":{"x":178383.43000000063,"y":2559008.0000000019}},{"attributes":{"ID":179117,"DIS_CODE":0,"TOWNNAME":"善化區","LI":"東關里","LIN":"4鄰","STREET":"進學路","SECT":" ","MAREA":" ","LANE":" ","ALLEY":" ","HOUSE_NO":"８號","E_COORD97":177404.85999999999,"N_COORD97":2559153,"ADDRESS":"進學路８號","OBJECTID":179116},"geometry":{"x":177404.86000000127,"y":2559153.0000000019}},{"attributes":{"ID":179118,"DIS_CODE":0,"TOWNNAME":"善化區","LI":"光文里","LIN":" ","STREET":"中山路","SECT":" ","MAREA":" ","LANE":" ","ALLEY":" ","HOUSE_NO":"１５２號","E_COORD97":178462.39000000001,"N_COORD97":2559174.25,"ADDRESS":"中山路１５２號","OBJECTID":179117},"geometry":{"x":178462.38999999966,"y":2559174.2500000037}},{"attributes":{"ID":179119,"DIS_CODE":0,"TOWNNAME":"善化區","LI":"坐駕里","LIN":" ","STREET":"興華路","SECT":" ","MAREA":" ","LANE":" ","ALLEY":" ","HOUSE_NO":"２８４號","E_COORD97":177819.25,"N_COORD97":2558526.75,"ADDRESS":"興華路２８４號","OBJECTID":179118},"geometry":{"x":177819.25,"y":2558526.7500000037}},{"attributes":{"ID":179120,"DIS_CODE":0,"TOWNNAME":"善化區","LI":"東關里","LIN":"18鄰","STREET":"中興路","SECT":" ","MAREA":" ","LANE":" ","ALLEY":" ","HOUSE_NO":"３７號","E_COORD97":177654.17000000001,"N_COORD97":2558999.75,"ADDRESS":"中興路３７號","OBJECTID":179119},"geometry":{"x":177654.16999999899,"y":2558999.75}},{"attributes":{"ID":179121,"DIS_CODE":0,"TOWNNAME":"南區","LI":"興農里","LIN":"6鄰","STREET":"灣裡路","SECT":" ","MAREA":" ","LANE":"２６３巷","ALLEY":"６７弄","HOUSE_NO":"８號之１","E_COORD97":166362.75,"N_COORD97":2536448.6600000001,"ADDRESS":"灣裡路２６３巷６７弄８號之１","OBJECTID":179120},"geometry":{"x":166362.75000000093,"y":2536448.6600000001}},{"attributes":{"ID":179122,"DIS_CODE":0,"TOWNNAME":"南區","LI":"興農里","LIN":"6鄰","STREET":"灣裡路","SECT":" ","MAREA":" ","LANE":"２６３巷","ALLEY":"６７弄","HOUSE_NO":"２０號","E_COORD97":166382.04000000001,"N_COORD97":2536473.9300000002,"ADDRESS":"灣裡路２６３巷６７弄２０號","OBJECTID":179121},"geometry":{"x":166382.04000000004,"y":2536473.9300000034}},{"attributes":{"ID":179123,"DIS_CODE":0,"TOWNNAME":"南區","LI":"興農里","LIN":"6鄰","STREET":"灣裡路","SECT":" ","MAREA":" ","LANE":"２６３巷","ALLEY":"６７弄","HOUSE_NO":"２２號","E_COORD97":166390.09,"N_COORD97":2536476.5699999998,"ADDRESS":"灣裡路２６３巷６７弄２２號","OBJECTID":179122},"geometry":{"x":166390.08999999892,"y":2536476.5700000003}},{"attributes":{"ID":179124,"DIS_CODE":0,"TOWNNAME":"南區","LI":"興農里","LIN":"6鄰","STREET":"灣裡路","SECT":" ","MAREA":" ","LANE":"２６３巷","ALLEY":"６７弄","HOUSE_NO":"２４號","E_COORD97":166411.32999999999,"N_COORD97":2536484.79,"ADDRESS":"灣裡路２６３巷６７弄２４號","OBJECTID":179123},"geometry":{"x":166411.33000000101,"y":2536484.7900000028}},{"attributes":{"ID":179125,"DIS_CODE":0,"TOWNNAME":"南區","LI":"興農里","LIN":"6鄰","STREET":"灣裡路","SECT":" ","MAREA":" ","LANE":"２６３巷","ALLEY":"６７弄","HOUSE_NO":"２６號","E_COORD97":166412.35999999999,"N_COORD97":2536481.0600000001,"ADDRESS":"灣裡路２６３巷６７弄２６號","OBJECTID":179124},"geometry":{"x":166412.36000000034,"y":2536481.0600000042}},{"attributes":{"ID":179126,"DIS_CODE":0,"TOWNNAME":"南區","LI":"興農里","LIN":" ","STREET":"灣裡路","SECT":" ","MAREA":" ","LANE":"２６３巷","ALLEY":"３４弄","HOUSE_NO":"９之２號","E_COORD97":166258.34,"N_COORD97":2536376.3599999999,"ADDRESS":"灣裡路２６３巷３４弄９之２號","OBJECTID":179125},"geometry":{"x":166258.34000000078,"y":2536376.3600000013}},{"attributes":{"ID":179127,"DIS_CODE":0,"TOWNNAME":"南區","LI":"興農里","LIN":" ","STREET":"灣裡路","SECT":" ","MAREA":" ","LANE":"２６３巷","ALLEY":"６１弄","HOUSE_NO":"３號","E_COORD97":166274.22,"N_COORD97":2536449.1200000001,"ADDRESS":"灣裡路２６３巷６１弄３號","OBJECTID":179126},"geometry":{"x":166274.22000000067,"y":2536449.120000001}},{"attributes":{"ID":179128,"DIS_CODE":0,"TOWNNAME":"南區","LI":"興農里","LIN":" ","STREET":"灣裡路","SECT":" ","MAREA":" ","LANE":"２６３巷","ALLEY":"６１弄","HOUSE_NO":"１８號","E_COORD97":166322.45000000001,"N_COORD97":2536531.2400000002,"ADDRESS":"灣裡路２６３巷６１弄１８號","OBJECTID":179127},"geometry":{"x":166322.45000000112,"y":2536531.2400000021}},{"attributes":{"ID":179129,"DIS_CODE":0,"TOWNNAME":"南區","LI":"興農里","LIN":"12鄰","STREET":"明興路","SECT":" ","MAREA":" ","LANE":"１１２９巷","ALLEY":"１弄","HOUSE_NO":"１號","E_COORD97":166588.04000000001,"N_COORD97":2536503.2000000002,"ADDRESS":"明興路１１２９巷１弄１號","OBJECTID":179128},"geometry":{"x":166588.04000000097,"y":2536503.2000000011}},{"attributes":{"ID":179130,"DIS_CODE":0,"TOWNNAME":"安南區","LI":"理想里","LIN":"12鄰","STREET":"同安路","SECT":" ","MAREA":" ","LANE":"８０巷","ALLEY":"５８弄","HOUSE_NO":"１０號","E_COORD97":167016.31,"N_COORD97":2548822.8999999999,"ADDRESS":"同安路８０巷５８弄１０號","OBJECTID":179129},"geometry":{"x":167016.31000000052,"y":2548822.9000000041}},{"attributes":{"ID":179131,"DIS_CODE":0,"TOWNNAME":"安南區","LI":"理想里","LIN":"12鄰","STREET":"同安路","SECT":" ","MAREA":" ","LANE":"８０巷","ALLEY":"５８弄","HOUSE_NO":"１２號","E_COORD97":167012.14999999999,"N_COORD97":2548821.2400000002,"ADDRESS":"同安路８０巷５８弄１２號","OBJECTID":179130},"geometry":{"x":167012.15000000037,"y":2548821.2400000021}},{"attributes":{"ID":179132,"DIS_CODE":0,"TOWNNAME":"安南區","LI":"理想里","LIN":"12鄰","STREET":"同安路","SECT":" ","MAREA":" ","LANE":"８０巷","ALLEY":"５８弄","HOUSE_NO":"１６號","E_COORD97":167009.94,"N_COORD97":2548817.6400000001,"ADDRESS":"同安路８０巷５８弄１６號","OBJECTID":179131},"geometry":{"x":167009.94000000041,"y":2548817.6400000006}},{"attributes":{"ID":179133,"DIS_CODE":0,"TOWNNAME":"安南區","LI":"理想里","LIN":"12鄰","STREET":"同安路","SECT":" ","MAREA":" ","LANE":"８０巷","ALLEY":"５８弄","HOUSE_NO":"１８號","E_COORD97":167006.69,"N_COORD97":2548814.9700000002,"ADDRESS":"同安路８０巷５８弄１８號","OBJECTID":179132},"geometry":{"x":167006.69000000041,"y":2548814.9700000007}},{"attributes":{"ID":179134,"DIS_CODE":0,"TOWNNAME":"安南區","LI":"理想里","LIN":"12鄰","STREET":"同安路","SECT":" ","MAREA":" ","LANE":"８０巷","ALLEY":"５８弄","HOUSE_NO":"２０號","E_COORD97":167003.39000000001,"N_COORD97":2548812.3199999998,"ADDRESS":"同安路８０巷５８弄２０號","OBJECTID":179133},"geometry":{"x":167003.39000000153,"y":2548812.3200000003}},{"attributes":{"ID":179135,"DIS_CODE":0,"TOWNNAME":"安南區","LI":"理想里","LIN":"12鄰","STREET":"同安路","SECT":" ","MAREA":" ","LANE":"８０巷","ALLEY":"５８弄","HOUSE_NO":"２２號","E_COORD97":166999.87,"N_COORD97":2548809.7799999998,"ADDRESS":"同安路８０巷５８弄２２號","OBJECTID":179134},"geometry":{"x":166999.87000000011,"y":2548809.7800000012}},{"attributes":{"ID":179136,"DIS_CODE":0,"TOWNNAME":"安南區","LI":"理想里","LIN":"12鄰","STREET":"同安路","SECT":" ","MAREA":" ","LANE":"８０巷","ALLEY":"５８弄","HOUSE_NO":"２６號","E_COORD97":166995.97,"N_COORD97":2548807.4399999999,"ADDRESS":"同安路８０巷５８弄２６號","OBJECTID":179135},"geometry":{"x":166995.96999999881,"y":2548807.4399999995}},{"attributes":{"ID":179137,"DIS_CODE":0,"TOWNNAME":"安南區","LI":"理想里","LIN":"12鄰","STREET":"同安路","SECT":" ","MAREA":" ","LANE":"８０巷","ALLEY":"５８弄","HOUSE_NO":"２８號","E_COORD97":166992.84,"N_COORD97":2548804.71,"ADDRESS":"同安路８０巷５８弄２８號","OBJECTID":179136},"geometry":{"x":166992.84000000078,"y":2548804.7100000028}},{"attributes":{"ID":179138,"DIS_CODE":0,"TOWNNAME":"安南區","LI":"理想里","LIN":"12鄰","STREET":"同安路","SECT":" ","MAREA":" ","LANE":"８０巷","ALLEY":"５８弄","HOUSE_NO":"２號","E_COORD97":167023.79000000001,"N_COORD97":2548834.52,"ADDRESS":"同安路８０巷５８弄２號","OBJECTID":179137},"geometry":{"x":167023.79000000097,"y":2548834.5200000033}},{"attributes":{"ID":179139,"DIS_CODE":0,"TOWNNAME":"安南區","LI":"理想里","LIN":"12鄰","STREET":"同安路","SECT":" ","MAREA":" ","LANE":"８０巷","ALLEY":"５８弄","HOUSE_NO":"３０號","E_COORD97":166989.32999999999,"N_COORD97":2548801.7799999998,"ADDRESS":"同安路８０巷５８弄３０號","OBJECTID":179138},"geometry":{"x":166989.33000000101,"y":2548801.7799999993}},{"attributes":{"ID":179140,"DIS_CODE":0,"TOWNNAME":"安南區","LI":"理想里","LIN":"12鄰","STREET":"同安路","SECT":" ","MAREA":" ","LANE":"８０巷","ALLEY":"５８弄","HOUSE_NO":"６號","E_COORD97":167021.29999999999,"N_COORD97":2548830.3700000001,"ADDRESS":"同安路８０巷５８弄６號","OBJECTID":179139},"geometry":{"x":167021.30000000075,"y":2548830.3700000048}},{"attributes":{"ID":179141,"DIS_CODE":0,"TOWNNAME":"善化區","LI":"東關里","LIN":"18鄰","STREET":"中興路","SECT":" ","MAREA":" ","LANE":" ","ALLEY":" ","HOUSE_NO":"４３號","E_COORD97":177641.22,"N_COORD97":2559001.25,"ADDRESS":"中興路４３號","OBJECTID":179140},"geometry":{"x":177641.21999999974,"y":2559001.2500000037}},{"attributes":{"ID":179142,"DIS_CODE":0,"TOWNNAME":"善化區","LI":"西關里","LIN":"13鄰","STREET":"興農路","SECT":" ","MAREA":" ","LANE":" ","ALLEY":" ","HOUSE_NO":"２８７號","E_COORD97":175734.85000000001,"N_COORD97":2559021.0099999998,"ADDRESS":"興農路２８７號","OBJECTID":179141},"geometry":{"x":175734.84999999963,"y":2559021.0100000016}},{"attributes":{"ID":179143,"DIS_CODE":0,"TOWNNAME":"善化區","LI":"東關里","LIN":"4鄰","STREET":"進學路","SECT":" ","MAREA":" ","LANE":" ","ALLEY":" ","HOUSE_NO":"２８號","E_COORD97":177324.47,"N_COORD97":2559213.25,"ADDRESS":"進學路２８號","OBJECTID":179142},"geometry":{"x":177324.46999999974,"y":2559213.25}},{"attributes":{"ID":179144,"DIS_CODE":0,"TOWNNAME":"善化區","LI":"東關里","LIN":" ","STREET":"中山路","SECT":" ","MAREA":" ","LANE":" ","ALLEY":" ","HOUSE_NO":"３７７之２１號","E_COORD97":177440.25,"N_COORD97":2559068.77,"ADDRESS":"中山路３７７之２１號","OBJECTID":179143},"geometry":{"x":177440.25000000186,"y":2559068.7700000014}},{"attributes":{"ID":179145,"DIS_CODE":0,"TOWNNAME":"安南區","LI":"理想里","LIN":"12鄰","STREET":"同安路","SECT":" ","MAREA":" ","LANE":"８０巷","ALLEY":"５８弄","HOUSE_NO":"８號","E_COORD97":167019.63,"N_COORD97":2548826.77,"ADDRESS":"同安路８０巷５８弄８號","OBJECTID":179144},"geometry":{"x":167019.63000000082,"y":2548826.7700000014}},{"attributes":{"ID":179146,"DIS_CODE":0,"TOWNNAME":"安南區","LI":"理想里","LIN":"21鄰","STREET":"大安街","SECT":" ","MAREA":" ","LANE":"４６１巷","ALLEY":"３７弄","HOUSE_NO":"１０號","E_COORD97":167213.14000000001,"N_COORD97":2548669.2200000002,"ADDRESS":"大安街４６１巷３７弄１０號","OBJECTID":179145},"geometry":{"x":167213.13999999966,"y":2548669.2200000025}},{"attributes":{"ID":179147,"DIS_CODE":0,"TOWNNAME":"安南區","LI":"理想里","LIN":"21鄰","STREET":"大安街","SECT":" ","MAREA":" ","LANE":"４６１巷","ALLEY":"３７弄","HOUSE_NO":"１２號","E_COORD97":167211.92000000001,"N_COORD97":2548664.6899999999,"ADDRESS":"大安街４６１巷３７弄１２號","OBJECTID":179146},"geometry":{"x":167211.92000000179,"y":2548664.6900000013}},{"attributes":{"ID":179148,"DIS_CODE":0,"TOWNNAME":"安南區","LI":"理想里","LIN":"21鄰","STREET":"大安街","SECT":" ","MAREA":" ","LANE":"４６１巷","ALLEY":"３７弄","HOUSE_NO":"１４號","E_COORD97":167208.44,"N_COORD97":2548661.9100000001,"ADDRESS":"大安街４６１巷３７弄１４號","OBJECTID":179147},"geometry":{"x":167208.44000000041,"y":2548661.9100000001}},{"attributes":{"ID":179149,"DIS_CODE":0,"TOWNNAME":"安南區","LI":"海東里","LIN":"21鄰","STREET":"海東二街","SECT":" ","MAREA":" ","LANE":" ","ALLEY":" ","HOUSE_NO":"４９號","E_COORD97":166889.727659,"N_COORD97":2547894.1294100001,"ADDRESS":"海東二街４９號","OBJECTID":179148},"geometry":{"x":166889.72765900195,"y":2547894.1294140015}},{"attributes":{"ID":179150,"DIS_CODE":0,"TOWNNAME":"安南區","LI":"理想里","LIN":"21鄰","STREET":"大安街","SECT":" ","MAREA":" ","LANE":"４６１巷","ALLEY":"３７弄","HOUSE_NO":"１６號","E_COORD97":167206.70000000001,"N_COORD97":2548657.3799999999,"ADDRESS":"大安街４６１巷３７弄１６號","OBJECTID":179149},"geometry":{"x":167206.70000000019,"y":2548657.379999999}},{"attributes":{"ID":179151,"DIS_CODE":0,"TOWNNAME":"安南區","LI":"理想里","LIN":"21鄰","STREET":"大安街","SECT":" ","MAREA":" ","LANE":"４６１巷","ALLEY":"３７弄","HOUSE_NO":"１８號","E_COORD97":167204.79000000001,"N_COORD97":2548653.21,"ADDRESS":"大安街４６１巷３７弄１８號","OBJECTID":179150},"geometry":{"x":167204.79000000097,"y":2548653.2100000028}},{"attributes":{"ID":179152,"DIS_CODE":0,"TOWNNAME":"安南區","LI":"理想里","LIN":"21鄰","STREET":"大安街","SECT":" ","MAREA":" ","LANE":"４６１巷","ALLEY":"３７弄","HOUSE_NO":"２０號","E_COORD97":167201.64999999999,"N_COORD97":2548649.0299999998,"ADDRESS":"大安街４６１巷３７弄２０號","OBJECTID":179151},"geometry":{"x":167201.65000000037,"y":2548649.0300000012}},{"attributes":{"ID":179153,"DIS_CODE":0,"TOWNNAME":"安南區","LI":"理想里","LIN":"21鄰","STREET":"大安街","SECT":" ","MAREA":" ","LANE":"４６１巷","ALLEY":"３７弄","HOUSE_NO":"２２號","E_COORD97":167212.53,"N_COORD97":2548639.1299999999,"ADDRESS":"大安街４６１巷３７弄２２號","OBJECTID":179152},"geometry":{"x":167212.53000000026,"y":2548639.129999999}},{"attributes":{"ID":179154,"DIS_CODE":0,"TOWNNAME":"安南區","LI":"理想里","LIN":"21鄰","STREET":"大安街","SECT":" ","MAREA":" ","LANE":"４６１巷","ALLEY":"３７弄","HOUSE_NO":"２４號","E_COORD97":167213.73999999999,"N_COORD97":2548643.2799999998,"ADDRESS":"大安街４６１巷３７弄２４號","OBJECTID":179153},"geometry":{"x":167213.74000000115,"y":2548643.2800000012}},{"attributes":{"ID":179155,"DIS_CODE":0,"TOWNNAME":"安南區","LI":"理想里","LIN":"21鄰","STREET":"大安街","SECT":" ","MAREA":" ","LANE":"４６１巷","ALLEY":"３７弄","HOUSE_NO":"２６號","E_COORD97":167216.67999999999,"N_COORD97":2548647.4300000002,"ADDRESS":"大安街４６１巷３７弄２６號","OBJECTID":179154},"geometry":{"x":167216.68000000156,"y":2548647.4299999997}},{"attributes":{"ID":179156,"DIS_CODE":0,"TOWNNAME":"安南區","LI":"理想里","LIN":"21鄰","STREET":"大安街","SECT":" ","MAREA":" ","LANE":"４６１巷","ALLEY":"３７弄","HOUSE_NO":"２８號","E_COORD97":167218.92999999999,"N_COORD97":2548651.5800000001,"ADDRESS":"大安街４６１巷３７弄２８號","OBJECTID":179155},"geometry":{"x":167218.93000000063,"y":2548651.5800000038}},{"attributes":{"ID":179157,"DIS_CODE":0,"TOWNNAME":"安南區","LI":"理想里","LIN":"21鄰","STREET":"大安街","SECT":" ","MAREA":" ","LANE":"４６１巷","ALLEY":"３７弄","HOUSE_NO":"２號","E_COORD97":167220.81,"N_COORD97":2548684.5299999998,"ADDRESS":"大安街４６１巷３７弄２號","OBJECTID":179156},"geometry":{"x":167220.81000000145,"y":2548684.5299999993}},{"attributes":{"ID":179158,"DIS_CODE":0,"TOWNNAME":"安南區","LI":"理想里","LIN":"21鄰","STREET":"大安街","SECT":" ","MAREA":" ","LANE":"４６１巷","ALLEY":"３７弄","HOUSE_NO":"３０號","E_COORD97":167222.57000000001,"N_COORD97":2548655.73,"ADDRESS":"大安街４６１巷３７弄３０號","OBJECTID":179157},"geometry":{"x":167222.5700000003,"y":2548655.7300000023}},{"attributes":{"ID":179159,"DIS_CODE":0,"TOWNNAME":"安南區","LI":"理想里","LIN":"21鄰","STREET":"大安街","SECT":" ","MAREA":" ","LANE":"４６１巷","ALLEY":"３７弄","HOUSE_NO":"３２號","E_COORD97":167223.19,"N_COORD97":2548660.1000000001,"ADDRESS":"大安街４６１巷３７弄３２號","OBJECTID":179158},"geometry":{"x":167223.19000000134,"y":2548660.0999999996}},{"attributes":{"ID":179160,"DIS_CODE":0,"TOWNNAME":"安南區","LI":"理想里","LIN":"21鄰","STREET":"大安街","SECT":" ","MAREA":" ","LANE":"４６１巷","ALLEY":"３７弄","HOUSE_NO":"３４號","E_COORD97":167228.38,"N_COORD97":2548662.7999999998,"ADDRESS":"大安街４６１巷３７弄３４號","OBJECTID":179159},"geometry":{"x":167228.37999999989,"y":2548662.8000000007}},{"attributes":{"ID":179161,"DIS_CODE":0,"TOWNNAME":"安南區","LI":"理想里","LIN":"21鄰","STREET":"大安街","SECT":" ","MAREA":" ","LANE":"４６１巷","ALLEY":"３７弄","HOUSE_NO":"３６號","E_COORD97":167229.51000000001,"N_COORD97":2548667.98,"ADDRESS":"大安街４６１巷３７弄３６號","OBJECTID":179160},"geometry":{"x":167229.50999999978,"y":2548667.9800000004}},{"attributes":{"ID":179162,"DIS_CODE":0,"TOWNNAME":"安南區","LI":"溪頂里","LIN":"28鄰","STREET":"郡安路","SECT":"四段","MAREA":" ","LANE":"２７８巷","ALLEY":"１５弄","HOUSE_NO":"１０號","E_COORD97":168605.32999999999,"N_COORD97":2547558.23,"ADDRESS":"郡安路四段２７８巷１５弄１０號","OBJECTID":179161},"geometry":{"x":168605.33000000007,"y":2547558.2300000004}},{"attributes":{"ID":179163,"DIS_CODE":0,"TOWNNAME":"安南區","LI":"溪頂里","LIN":"27鄰","STREET":"郡安路","SECT":"四段","MAREA":" ","LANE":"２７８巷","ALLEY":"１５弄","HOUSE_NO":"１１號","E_COORD97":168644.42999999999,"N_COORD97":2547615.54,"ADDRESS":"郡安路四段２７８巷１５弄１１號","OBJECTID":179162},"geometry":{"x":168644.43000000063,"y":2547615.5399999991}},{"attributes":{"ID":179164,"DIS_CODE":0,"TOWNNAME":"新化區","LI":"太平里","LIN":"4鄰","STREET":"民生路","SECT":" ","MAREA":" ","LANE":"２１６巷","ALLEY":"１弄","HOUSE_NO":"６號","E_COORD97":179110.31,"N_COORD97":2548996.25,"ADDRESS":"民生路２１６巷１弄６號","OBJECTID":179163},"geometry":{"x":179110.30999999959,"y":2548996.2500000037}},{"attributes":{"ID":179165,"DIS_CODE":0,"TOWNNAME":"官田區","LI":"隆本里","LIN":"29鄰","STREET":"中山路","SECT":"二段","MAREA":" ","LANE":"５８巷","ALLEY":"２８弄","HOUSE_NO":"７號","E_COORD97":179108.23999999999,"N_COORD97":2566075.9399999999,"ADDRESS":"中山路二段５８巷２８弄７號","OBJECTID":179164},"geometry":{"x":179108.24000000022,"y":2566075.9400000013}},{"attributes":{"ID":179166,"DIS_CODE":0,"TOWNNAME":"官田區","LI":"隆本里","LIN":"29鄰","STREET":"中山路","SECT":"二段","MAREA":" ","LANE":"５８巷","ALLEY":"２８弄","HOUSE_NO":"８號","E_COORD97":179080.84,"N_COORD97":2566063.3799999999,"ADDRESS":"中山路二段５８巷２８弄８號","OBJECTID":179165},"geometry":{"x":179080.84000000078,"y":2566063.379999999}},{"attributes":{"ID":179167,"DIS_CODE":0,"TOWNNAME":"西港區","LI":"慶安里","LIN":"8鄰","STREET":"新興街","SECT":" ","MAREA":" ","LANE":"１０７巷","ALLEY":"１０弄","HOUSE_NO":"２６號","E_COORD97":168161.25,"N_COORD97":2558267.1299999999,"ADDRESS":"新興街１０７巷１０弄２６號","OBJECTID":179166},"geometry":{"x":168161.25000000093,"y":2558267.129999999}},{"attributes":{"ID":179168,"DIS_CODE":0,"TOWNNAME":"西港區","LI":"慶安里","LIN":"8鄰","STREET":"新興街","SECT":" ","MAREA":" ","LANE":"１０７巷","ALLEY":"１０弄","HOUSE_NO":"２７號","E_COORD97":168145.51000000001,"N_COORD97":2558271.6800000002,"ADDRESS":"新興街１０７巷１０弄２７號","OBJECTID":179167},"geometry":{"x":168145.51000000071,"y":2558271.6799999997}},{"attributes":{"ID":179169,"DIS_CODE":0,"TOWNNAME":"西港區","LI":"慶安里","LIN":"8鄰","STREET":"新興街","SECT":" ","MAREA":" ","LANE":"１０７巷","ALLEY":"１０弄","HOUSE_NO":"２８號","E_COORD97":168162.51999999999,"N_COORD97":2558272.9300000002,"ADDRESS":"新興街１０７巷１０弄２８號","OBJECTID":179168},"geometry":{"x":168162.52000000048,"y":2558272.9299999997}},{"attributes":{"ID":179170,"DIS_CODE":0,"TOWNNAME":"西港區","LI":"慶安里","LIN":"8鄰","STREET":"新興街","SECT":" ","MAREA":" ","LANE":"１０７巷","ALLEY":"１０弄","HOUSE_NO":"２９號","E_COORD97":168145.5,"N_COORD97":2558277.1699999999,"ADDRESS":"新興街１０７巷１０弄２９號","OBJECTID":179169},"geometry":{"x":168145.50000000186,"y":2558277.1700000018}},{"attributes":{"ID":179171,"DIS_CODE":0,"TOWNNAME":"善化區","LI":"文昌里","LIN":"17鄰","STREET":" ","SECT":" ","MAREA":"益民寮","LANE":" ","ALLEY":" ","HOUSE_NO":"１０６號","E_COORD97":178543.16,"N_COORD97":2557395.0099999998,"ADDRESS":"益民寮１０６號","OBJECTID":179170},"geometry":{"x":178543.16000000108,"y":2557395.0099999998}},{"attributes":{"ID":179172,"DIS_CODE":0,"TOWNNAME":"將軍區","LI":"廣山里","LIN":"16鄰","STREET":" ","SECT":" ","MAREA":"廣山","LANE":" ","ALLEY":" ","HOUSE_NO":"１５９號","E_COORD97":159627.06,"N_COORD97":2569042.48,"ADDRESS":"廣山１５９號","OBJECTID":179171},"geometry":{"x":159627.06000000052,"y":2569042.4800000042}},{"attributes":{"ID":179173,"DIS_CODE":0,"TOWNNAME":"西港區","LI":"慶安里","LIN":"8鄰","STREET":"新興街","SECT":" ","MAREA":" ","LANE":"１０７巷","ALLEY":"１０弄","HOUSE_NO":"２號","E_COORD97":168162.07000000001,"N_COORD97":2558213.2999999998,"ADDRESS":"新興街１０７巷１０弄２號","OBJECTID":179172},"geometry":{"x":168162.0700000003,"y":2558213.3000000026}},{"attributes":{"ID":179174,"DIS_CODE":0,"TOWNNAME":"西港區","LI":"慶安里","LIN":"8鄰","STREET":"新興街","SECT":" ","MAREA":" ","LANE":"１０７巷","ALLEY":"１０弄","HOUSE_NO":"３０號","E_COORD97":168162.10000000001,"N_COORD97":2558278.0299999998,"ADDRESS":"新興街１０７巷１０弄３０號","OBJECTID":179173},"geometry":{"x":168162.10000000056,"y":2558278.0300000012}},{"attributes":{"ID":179175,"DIS_CODE":0,"TOWNNAME":"西港區","LI":"慶安里","LIN":"8鄰","STREET":"新興街","SECT":" ","MAREA":" ","LANE":"１０７巷","ALLEY":"１０弄","HOUSE_NO":"３２號","E_COORD97":168161.54999999999,"N_COORD97":2558285.02,"ADDRESS":"新興街１０７巷１０弄３２號","OBJECTID":179174},"geometry":{"x":168161.54999999981,"y":2558285.0200000014}},{"attributes":{"ID":179176,"DIS_CODE":0,"TOWNNAME":"安南區","LI":"鹿耳里","LIN":"6鄰","STREET":"北汕尾二路","SECT":" ","MAREA":" ","LANE":"６６１巷","ALLEY":"１５弄","HOUSE_NO":"２６號","E_COORD97":160314.09,"N_COORD97":2548507.1899999999,"ADDRESS":"北汕尾二路６６１巷１５弄２６號","OBJECTID":179175},"geometry":{"x":160314.08999999985,"y":2548507.1899999995}},{"attributes":{"ID":179177,"DIS_CODE":0,"TOWNNAME":"安南區","LI":"鹿耳里","LIN":"6鄰","STREET":"北汕尾二路","SECT":" ","MAREA":" ","LANE":"６６１巷","ALLEY":"１５弄","HOUSE_NO":"２８號","E_COORD97":160308.09,"N_COORD97":2548504.8799999999,"ADDRESS":"北汕尾二路６６１巷１５弄２８號","OBJECTID":179176},"geometry":{"x":160308.09000000078,"y":2548504.879999999}},{"attributes":{"ID":179178,"DIS_CODE":0,"TOWNNAME":"安南區","LI":"鹿耳里","LIN":"6鄰","STREET":"北汕尾二路","SECT":" ","MAREA":" ","LANE":"６６１巷","ALLEY":"１５弄","HOUSE_NO":"３０號","E_COORD97":160300.70000000001,"N_COORD97":2548505.3500000001,"ADDRESS":"北汕尾二路６６１巷１５弄３０號","OBJECTID":179177},"geometry":{"x":160300.70000000205,"y":2548505.3499999996}},{"attributes":{"ID":179179,"DIS_CODE":0,"TOWNNAME":"西港區","LI":"慶安里","LIN":"8鄰","STREET":"新興街","SECT":" ","MAREA":" ","LANE":"１０７巷","ALLEY":"１０弄","HOUSE_NO":"３號","E_COORD97":168143.16,"N_COORD97":2558216.27,"ADDRESS":"新興街１０７巷１０弄３號","OBJECTID":179178},"geometry":{"x":168143.16000000108,"y":2558216.2699999996}},{"attributes":{"ID":179180,"DIS_CODE":0,"TOWNNAME":"西港區","LI":"慶安里","LIN":"8鄰","STREET":"新興街","SECT":" ","MAREA":" ","LANE":"１０７巷","ALLEY":"１０弄","HOUSE_NO":"４號","E_COORD97":168162.03,"N_COORD97":2558217.52,"ADDRESS":"新興街１０７巷１０弄４號","OBJECTID":179179},"geometry":{"x":168162.03000000026,"y":2558217.5199999996}},{"attributes":{"ID":179181,"DIS_CODE":0,"TOWNNAME":"西港區","LI":"慶安里","LIN":"8鄰","STREET":"新興街","SECT":" ","MAREA":" ","LANE":"１０７巷","ALLEY":"１０弄","HOUSE_NO":"５號","E_COORD97":168142.97,"N_COORD97":2558220.6400000001,"ADDRESS":"新興街１０７巷１０弄５號","OBJECTID":179180},"geometry":{"x":168142.96999999974,"y":2558220.6400000025}},{"attributes":{"ID":179182,"DIS_CODE":0,"TOWNNAME":"永康區","LI":"東橋里","LIN":"24鄰","STREET":"中正路","SECT":" ","MAREA":" ","LANE":"２１７巷","ALLEY":"３弄","HOUSE_NO":"４２號之１","E_COORD97":172859.12,"N_COORD97":2547917.79,"ADDRESS":"中正路２１７巷３弄４２號之１","OBJECTID":179181},"geometry":{"x":172859.12000000197,"y":2547917.790000001}},{"attributes":{"ID":179183,"DIS_CODE":0,"TOWNNAME":"永康區","LI":"南灣里","LIN":"4鄰","STREET":"大灣路","SECT":" ","MAREA":" ","LANE":"５３７巷","ALLEY":"１３弄","HOUSE_NO":"４號","E_COORD97":174489.48999999999,"N_COORD97":2544530.8700000001,"ADDRESS":"大灣路５３７巷１３弄４號","OBJECTID":179182},"geometry":{"x":174489.49000000115,"y":2544530.870000001}},{"attributes":{"ID":179184,"DIS_CODE":0,"TOWNNAME":"永康區","LI":"埔園里","LIN":"38鄰","STREET":"龍國街","SECT":" ","MAREA":" ","LANE":"１２８巷","ALLEY":"２５弄","HOUSE_NO":"２０號","E_COORD97":174249.85000000001,"N_COORD97":2547985.0299999998,"ADDRESS":"龍國街１２８巷２５弄２０號","OBJECTID":179183},"geometry":{"x":174249.84999999963,"y":2547985.0299999993}},{"attributes":{"ID":179185,"DIS_CODE":0,"TOWNNAME":"永康區","LI":"南灣里","LIN":"32鄰","STREET":"大灣一街","SECT":" ","MAREA":" ","LANE":"３７巷","ALLEY":"７弄","HOUSE_NO":"３號","E_COORD97":174296.25,"N_COORD97":2544834.02,"ADDRESS":"大灣一街３７巷７弄３號","OBJECTID":179184},"geometry":{"x":174296.25000000093,"y":2544834.0200000033}},{"attributes":{"ID":179186,"DIS_CODE":0,"TOWNNAME":"永康區","LI":"東灣里","LIN":"25鄰","STREET":"大灣二街","SECT":" ","MAREA":" ","LANE":"７１巷","ALLEY":"３９弄","HOUSE_NO":"１０號","E_COORD97":174841.85000000001,"N_COORD97":2544651.1699999999,"ADDRESS":"大灣二街７１巷３９弄１０號","OBJECTID":179185},"geometry":{"x":174841.84999999963,"y":2544651.1700000018}},{"attributes":{"ID":179187,"DIS_CODE":0,"TOWNNAME":"永康區","LI":"埔園里","LIN":"20鄰","STREET":"四維街","SECT":" ","MAREA":" ","LANE":"１０２巷","ALLEY":"２３弄","HOUSE_NO":"６號","E_COORD97":173440.26000000001,"N_COORD97":2548267.2400000002,"ADDRESS":"四維街１０２巷２３弄６號","OBJECTID":179186},"geometry":{"x":173440.25999999978,"y":2548267.2400000002}},{"attributes":{"ID":179188,"DIS_CODE":0,"TOWNNAME":"永康區","LI":"南灣里","LIN":"32鄰","STREET":"大灣一街","SECT":" ","MAREA":" ","LANE":"３７巷","ALLEY":"７弄","HOUSE_NO":"５號","E_COORD97":174292.25,"N_COORD97":2544835.52,"ADDRESS":"大灣一街３７巷７弄５號","OBJECTID":179187},"geometry":{"x":174292.25000000186,"y":2544835.5200000014}},{"attributes":{"ID":179189,"DIS_CODE":0,"TOWNNAME":"將軍區","LI":"廣山里","LIN":"16鄰","STREET":" ","SECT":" ","MAREA":"廣山","LANE":" ","ALLEY":" ","HOUSE_NO":"１６０號","E_COORD97":159641.07000000001,"N_COORD97":2569019.3700000001,"ADDRESS":"廣山１６０號","OBJECTID":179188},"geometry":{"x":159641.07000000123,"y":2569019.370000001}},{"attributes":{"ID":179190,"DIS_CODE":0,"TOWNNAME":"永康區","LI":"甲頂里","LIN":"5鄰","STREET":"中正南路","SECT":" ","MAREA":" ","LANE":"１６８巷","ALLEY":"２弄","HOUSE_NO":"１３０號","E_COORD97":169889.84,"N_COORD97":2546878.23,"ADDRESS":"中正南路１６８巷２弄１３０號","OBJECTID":179189},"geometry":{"x":169889.84000000078,"y":2546878.2300000023}},{"attributes":{"ID":179191,"DIS_CODE":0,"TOWNNAME":"永康區","LI":"西勢里","LIN":"25鄰","STREET":"廣興街","SECT":" ","MAREA":" ","LANE":"３８巷","ALLEY":"３４弄","HOUSE_NO":"２４號","E_COORD97":176020.14999999999,"N_COORD97":2546374.4900000002,"ADDRESS":"廣興街３８巷３４弄２４號","OBJECTID":179190},"geometry":{"x":176020.15000000037,"y":2546374.4900000021}},{"attributes":{"ID":179192,"DIS_CODE":0,"TOWNNAME":"永康區","LI":"西灣里","LIN":"43鄰","STREET":"大灣路","SECT":" ","MAREA":" ","LANE":"９４２巷","ALLEY":"３８８弄","HOUSE_NO":"２號","E_COORD97":173966.66,"N_COORD97":2545472.3599999999,"ADDRESS":"大灣路９４２巷３８８弄２號","OBJECTID":179191},"geometry":{"x":173966.66000000108,"y":2545472.3600000031}},{"attributes":{"ID":179193,"DIS_CODE":0,"TOWNNAME":"永康區","LI":"西灣里","LIN":"43鄰","STREET":"大灣路","SECT":" ","MAREA":" ","LANE":"９４２巷","ALLEY":"３７４弄","HOUSE_NO":"４１號","E_COORD97":174034.87,"N_COORD97":2545409.5499999998,"ADDRESS":"大灣路９４２巷３７４弄４１號","OBJECTID":179192},"geometry":{"x":174034.87000000011,"y":2545409.5500000026}},{"attributes":{"ID":179194,"DIS_CODE":0,"TOWNNAME":"永康區","LI":"西橋里","LIN":"20鄰","STREET":"大橋三街","SECT":" ","MAREA":" ","LANE":"５７巷","ALLEY":"７弄","HOUSE_NO":"２７號","E_COORD97":170546.26000000001,"N_COORD97":2546499.9900000002,"ADDRESS":"大橋三街５７巷７弄２７號","OBJECTID":179193},"geometry":{"x":170546.26000000071,"y":2546499.9900000021}},{"attributes":{"ID":179195,"DIS_CODE":0,"TOWNNAME":"永康區","LI":"西勢里","LIN":"18鄰","STREET":"富強路","SECT":"一段","MAREA":" ","LANE":"２巷","ALLEY":"８弄","HOUSE_NO":"１０號","E_COORD97":175467.62,"N_COORD97":2545967.5499999998,"ADDRESS":"富強路一段２巷８弄１０號","OBJECTID":179194},"geometry":{"x":175467.62000000011,"y":2545967.5500000045}},{"attributes":{"ID":179196,"DIS_CODE":0,"TOWNNAME":"永康區","LI":"西勢里","LIN":"26鄰","STREET":"廣興街","SECT":" ","MAREA":" ","LANE":"３８巷","ALLEY":"１４弄","HOUSE_NO":"１１號","E_COORD97":175940.79000000001,"N_COORD97":2546482.2400000002,"ADDRESS":"廣興街３８巷１４弄１１號","OBJECTID":179195},"geometry":{"x":175940.79000000004,"y":2546482.2400000021}},{"attributes":{"ID":179197,"DIS_CODE":0,"TOWNNAME":"永康區","LI":"尚頂里","LIN":"18鄰","STREET":"南台街","SECT":" ","MAREA":" ","LANE":"５４巷","ALLEY":"１８弄","HOUSE_NO":"９號","E_COORD97":170359.73999999999,"N_COORD97":2547120.7400000002,"ADDRESS":"南台街５４巷１８弄９號","OBJECTID":179196},"geometry":{"x":170359.74000000209,"y":2547120.7400000002}},{"attributes":{"ID":179198,"DIS_CODE":0,"TOWNNAME":"永康區","LI":"西勢里","LIN":"18鄰","STREET":"富強路","SECT":"一段","MAREA":" ","LANE":"２巷","ALLEY":"８弄","HOUSE_NO":"７６號","E_COORD97":175521.29999999999,"N_COORD97":2545984.3700000001,"ADDRESS":"富強路一段２巷８弄７６號","OBJECTID":179197},"geometry":{"x":175521.30000000075,"y":2545984.370000001}},{"attributes":{"ID":179199,"DIS_CODE":0,"TOWNNAME":"永康區","LI":"西橋里","LIN":"20鄰","STREET":"大橋三街","SECT":" ","MAREA":" ","LANE":"５７巷","ALLEY":"７弄","HOUSE_NO":"２３號","E_COORD97":170556.06,"N_COORD97":2546502.9900000002,"ADDRESS":"大橋三街５７巷７弄２３號","OBJECTID":179198},"geometry":{"x":170556.06000000052,"y":2546502.9900000039}},{"attributes":{"ID":179200,"DIS_CODE":0,"TOWNNAME":"永康區","LI":"西灣里","LIN":"43鄰","STREET":"大灣路","SECT":" ","MAREA":" ","LANE":"９４２巷","ALLEY":"３８８弄","HOUSE_NO":"２１號","E_COORD97":174028.78,"N_COORD97":2545479.25,"ADDRESS":"大灣路９４２巷３８８弄２１號","OBJECTID":179199},"geometry":{"x":174028.78000000026,"y":2545479.25}},{"attributes":{"ID":179201,"DIS_CODE":0,"TOWNNAME":"南區","LI":"田寮里","LIN":"24鄰","STREET":"大成路","SECT":"二段","MAREA":" ","LANE":" ","ALLEY":" ","HOUSE_NO":"２２號","E_COORD97":167661.53,"N_COORD97":2541749.7999999998,"ADDRESS":"大成路二段２２號","OBJECTID":179200},"geometry":{"x":167661.53000000119,"y":2541749.8000000007}}]}