{"displayFieldName":"TOWNNAME","fieldAliases":{"ID":"ID","DIS_CODE":"DIS_CODE","TOWNNAME":"TOWNNAME","LI":"LI","LIN":"LIN","STREET":"STREET","SECT":"SECT","MAREA":"MAREA","LANE":"LANE","ALLEY":"ALLEY","HOUSE_NO":"HOUSE_NO","E_COORD97":"E_COORD97","N_COORD97":"N_COORD97","ADDRESS":"ADDRESS","OBJECTID":"OBJECTID"},"geometryType":"esriGeometryPoint","spatialReference":{"wkid":102443,"latestWkid":3826},"fields":[{"name":"ID","type":"esriFieldTypeDouble","alias":"ID"},{"name":"DIS_CODE","type":"esriFieldTypeInteger","alias":"DIS_CODE"},{"name":"TOWNNAME","type":"esriFieldTypeString","alias":"TOWNNAME","length":8},{"name":"LI","type":"esriFieldTypeString","alias":"LI","length":8},{"name":"LIN","type":"esriFieldTypeString","alias":"LIN","length":12},{"name":"STREET","type":"esriFieldTypeString","alias":"STREET","length":20},{"name":"SECT","type":"esriFieldTypeString","alias":"SECT","length":8},{"name":"MAREA","type":"esriFieldTypeString","alias":"MAREA","length":12},{"name":"LANE","type":"esriFieldTypeString","alias":"LANE","length":10},{"name":"ALLEY","type":"esriFieldTypeString","alias":"ALLEY","length":10},{"name":"HOUSE_NO","type":"esriFieldTypeString","alias":"HOUSE_NO","length":20},{"name":"E_COORD97","type":"esriFieldTypeDouble","alias":"E_COORD97"},{"name":"N_COORD97","type":"esriFieldTypeDouble","alias":"N_COORD97"},{"name":"ADDRESS","type":"esriFieldTypeString","alias":"ADDRESS","length":50},{"name":"OBJECTID","type":"esriFieldTypeOID","alias":"OBJECTID"}],"features":[{"attributes":{"ID":221202,"DIS_CODE":0,"TOWNNAME":"安南區","LI":"溪心里","LIN":"9鄰","STREET":"海佃路","SECT":"二段","MAREA":" ","LANE":"６５３巷","ALLEY":" ","HOUSE_NO":"８０號","E_COORD97":166391.95000000001,"N_COORD97":2549439.1499999999,"ADDRESS":"海佃路二段６５３巷８０號","OBJECTID":221201},"geometry":{"x":166391.95000000112,"y":2549439.1500000022}},{"attributes":{"ID":221203,"DIS_CODE":0,"TOWNNAME":"安南區","LI":"溪心里","LIN":"9鄰","STREET":"海佃路","SECT":"二段","MAREA":" ","LANE":"６５３巷","ALLEY":" ","HOUSE_NO":"７８號","E_COORD97":166393.38,"N_COORD97":2549440.7400000002,"ADDRESS":"海佃路二段６５３巷７８號","OBJECTID":221202},"geometry":{"x":166393.38000000175,"y":2549440.7400000039}},{"attributes":{"ID":221204,"DIS_CODE":0,"TOWNNAME":"安南區","LI":"溪心里","LIN":"9鄰","STREET":"海佃路","SECT":"二段","MAREA":" ","LANE":"６５３巷","ALLEY":" ","HOUSE_NO":"７６號","E_COORD97":166394.95999999999,"N_COORD97":2549442.48,"ADDRESS":"海佃路二段６５３巷７６號","OBJECTID":221203},"geometry":{"x":166394.96000000089,"y":2549442.4799999986}},{"attributes":{"ID":221205,"DIS_CODE":0,"TOWNNAME":"安南區","LI":"溪心里","LIN":"9鄰","STREET":"海佃路","SECT":"二段","MAREA":" ","LANE":"６５３巷","ALLEY":" ","HOUSE_NO":"７２號","E_COORD97":166395.76000000001,"N_COORD97":2549444.8700000001,"ADDRESS":"海佃路二段６５３巷７２號","OBJECTID":221204},"geometry":{"x":166395.76000000164,"y":2549444.8700000029}},{"attributes":{"ID":221206,"DIS_CODE":0,"TOWNNAME":"安南區","LI":"溪心里","LIN":"9鄰","STREET":"海佃路","SECT":"二段","MAREA":" ","LANE":"６５３巷","ALLEY":" ","HOUSE_NO":"７０號","E_COORD97":166397.35000000001,"N_COORD97":2549447.0899999999,"ADDRESS":"海佃路二段６５３巷７０號","OBJECTID":221205},"geometry":{"x":166397.35000000056,"y":2549447.0899999999}},{"attributes":{"ID":221207,"DIS_CODE":0,"TOWNNAME":"安南區","LI":"溪心里","LIN":"9鄰","STREET":"海佃路","SECT":"二段","MAREA":" ","LANE":"６５３巷","ALLEY":" ","HOUSE_NO":"６８號","E_COORD97":166398.78,"N_COORD97":2549448.8300000001,"ADDRESS":"海佃路二段６５３巷６８號","OBJECTID":221206},"geometry":{"x":166398.78000000026,"y":2549448.8300000001}},{"attributes":{"ID":221208,"DIS_CODE":0,"TOWNNAME":"安南區","LI":"溪心里","LIN":"9鄰","STREET":"海佃路","SECT":"二段","MAREA":" ","LANE":"６５３巷","ALLEY":" ","HOUSE_NO":"６６號","E_COORD97":166399.57000000001,"N_COORD97":2549451.0600000001,"ADDRESS":"海佃路二段６５３巷６６號","OBJECTID":221207},"geometry":{"x":166399.57000000123,"y":2549451.0600000005}},{"attributes":{"ID":221209,"DIS_CODE":0,"TOWNNAME":"安南區","LI":"溪心里","LIN":"9鄰","STREET":"海佃路","SECT":"二段","MAREA":" ","LANE":"６５３巷","ALLEY":" ","HOUSE_NO":"６２號","E_COORD97":166400.20000000001,"N_COORD97":2549452.7999999998,"ADDRESS":"海佃路二段６５３巷６２號","OBJECTID":221208},"geometry":{"x":166400.20000000112,"y":2549452.8000000007}},{"attributes":{"ID":221210,"DIS_CODE":0,"TOWNNAME":"永康區","LI":"龍潭里","LIN":"14鄰","STREET":"龍橋街","SECT":" ","MAREA":" ","LANE":"９３巷","ALLEY":" ","HOUSE_NO":"１５號","E_COORD97":174699.67000000001,"N_COORD97":2548402.46,"ADDRESS":"龍橋街９３巷１５號","OBJECTID":221209},"geometry":{"x":174699.67000000179,"y":2548402.4600000046}},{"attributes":{"ID":221211,"DIS_CODE":0,"TOWNNAME":"永康區","LI":"龍潭里","LIN":"9鄰","STREET":"龍橋街","SECT":" ","MAREA":" ","LANE":"５３巷","ALLEY":" ","HOUSE_NO":"４８號","E_COORD97":174737.54000000001,"N_COORD97":2548261.0600000001,"ADDRESS":"龍橋街５３巷４８號","OBJECTID":221210},"geometry":{"x":174737.54000000004,"y":2548261.0600000005}},{"attributes":{"ID":221212,"DIS_CODE":0,"TOWNNAME":"仁德區","LI":"後壁里","LIN":"9鄰","STREET":"民安路","SECT":"二段","MAREA":" ","LANE":"１６６巷","ALLEY":" ","HOUSE_NO":"７號","E_COORD97":173735.42999999999,"N_COORD97":2538943.0600000001,"ADDRESS":"民安路二段１６６巷７號","OBJECTID":221211},"geometry":{"x":173735.43000000063,"y":2538943.0600000024}},{"attributes":{"ID":221213,"DIS_CODE":0,"TOWNNAME":"仁德區","LI":"田厝里","LIN":"9鄰","STREET":"田厝二街","SECT":" ","MAREA":" ","LANE":"６４巷","ALLEY":" ","HOUSE_NO":"３０號","E_COORD97":172464.38,"N_COORD97":2537729.25,"ADDRESS":"田厝二街６４巷３０號","OBJECTID":221212},"geometry":{"x":172464.38000000082,"y":2537729.25}},{"attributes":{"ID":221214,"DIS_CODE":0,"TOWNNAME":"仁德區","LI":"太子里","LIN":"9鄰","STREET":"太子路","SECT":" ","MAREA":" ","LANE":"１５０巷","ALLEY":" ","HOUSE_NO":"５號","E_COORD97":174427.22,"N_COORD97":2543555.2599999998,"ADDRESS":"太子路１５０巷５號","OBJECTID":221213},"geometry":{"x":174427.21999999974,"y":2543555.2600000016}},{"attributes":{"ID":221215,"DIS_CODE":0,"TOWNNAME":"仁德區","LI":"保安里","LIN":"9鄰","STREET":"文賢路","SECT":"一段","MAREA":" ","LANE":"８０５巷","ALLEY":" ","HOUSE_NO":"５號","E_COORD97":171574.98000000001,"N_COORD97":2536081.0800000001,"ADDRESS":"文賢路一段８０５巷５號","OBJECTID":221214},"geometry":{"x":171574.98000000045,"y":2536081.0800000019}},{"attributes":{"ID":221216,"DIS_CODE":0,"TOWNNAME":"仁德區","LI":"太子里","LIN":"9鄰","STREET":"太子路","SECT":" ","MAREA":" ","LANE":"１５０巷","ALLEY":" ","HOUSE_NO":"１號","E_COORD97":174427.10999999999,"N_COORD97":2543544.7599999998,"ADDRESS":"太子路１５０巷１號","OBJECTID":221215},"geometry":{"x":174427.11000000034,"y":2543544.7600000016}},{"attributes":{"ID":221217,"DIS_CODE":0,"TOWNNAME":"永康區","LI":"龍潭里","LIN":"40鄰","STREET":"永明街","SECT":" ","MAREA":" ","LANE":"３０２巷","ALLEY":" ","HOUSE_NO":"１６號","E_COORD97":174524.5,"N_COORD97":2547116.2400000002,"ADDRESS":"永明街３０２巷１６號","OBJECTID":221216},"geometry":{"x":174524.50000000186,"y":2547116.2400000021}},{"attributes":{"ID":221218,"DIS_CODE":0,"TOWNNAME":"永康區","LI":"龍潭里","LIN":"8鄰","STREET":"龍埔街","SECT":" ","MAREA":" ","LANE":"４６巷","ALLEY":" ","HOUSE_NO":"２號","E_COORD97":174763.34,"N_COORD97":2548234.4900000002,"ADDRESS":"龍埔街４６巷２號","OBJECTID":221217},"geometry":{"x":174763.34000000078,"y":2548234.4900000002}},{"attributes":{"ID":221219,"DIS_CODE":0,"TOWNNAME":"永康區","LI":"龍潭里","LIN":"12鄰","STREET":"龍橋街","SECT":" ","MAREA":" ","LANE":"４５巷","ALLEY":" ","HOUSE_NO":"８號","E_COORD97":174776.04000000001,"N_COORD97":2548340.9900000002,"ADDRESS":"龍橋街４５巷８號","OBJECTID":221218},"geometry":{"x":174776.04000000004,"y":2548340.9900000021}},{"attributes":{"ID":221220,"DIS_CODE":0,"TOWNNAME":"永康區","LI":"西勢里","LIN":"9鄰","STREET":"富強路","SECT":"一段","MAREA":" ","LANE":"３２０巷","ALLEY":" ","HOUSE_NO":"３號","E_COORD97":175757.13,"N_COORD97":2546699.9500000002,"ADDRESS":"富強路一段３２０巷３號","OBJECTID":221219},"geometry":{"x":175757.12999999989,"y":2546699.9500000011}},{"attributes":{"ID":221221,"DIS_CODE":0,"TOWNNAME":"永康區","LI":"\u25A0行里","LIN":"6鄰","STREET":"新行街","SECT":" ","MAREA":" ","LANE":"２１巷","ALLEY":" ","HOUSE_NO":"２４號","E_COORD97":172170.56,"N_COORD97":2548834.46,"ADDRESS":"新行街２１巷２４號","OBJECTID":221220},"geometry":{"x":172170.55999999959,"y":2548834.4600000028}},{"attributes":{"ID":221222,"DIS_CODE":0,"TOWNNAME":"永康區","LI":"龍潭里","LIN":"28鄰","STREET":"中山北路","SECT":" ","MAREA":" ","LANE":"３８５巷","ALLEY":" ","HOUSE_NO":"２２號之１","E_COORD97":174895.97,"N_COORD97":2547780.9500000002,"ADDRESS":"中山北路３８５巷２２號之１","OBJECTID":221221},"geometry":{"x":174895.97000000067,"y":2547780.9500000011}},{"attributes":{"ID":221223,"DIS_CODE":0,"TOWNNAME":"永康區","LI":"\u25A0行里","LIN":"4鄰","STREET":"新行街","SECT":" ","MAREA":" ","LANE":"４巷","ALLEY":" ","HOUSE_NO":"２０號","E_COORD97":172286.39000000001,"N_COORD97":2548774.7400000002,"ADDRESS":"新行街４巷２０號","OBJECTID":221222},"geometry":{"x":172286.38999999966,"y":2548774.7400000002}},{"attributes":{"ID":221224,"DIS_CODE":0,"TOWNNAME":"永康區","LI":"龍潭里","LIN":"8鄰","STREET":"龍埔街","SECT":" ","MAREA":" ","LANE":"４６巷","ALLEY":" ","HOUSE_NO":"５號","E_COORD97":174744.57000000001,"N_COORD97":2548280,"ADDRESS":"龍埔街４６巷５號","OBJECTID":221223},"geometry":{"x":174744.5700000003,"y":2548280.0000000019}},{"attributes":{"ID":221225,"DIS_CODE":0,"TOWNNAME":"永康區","LI":"龍潭里","LIN":"28鄰","STREET":"中山北路","SECT":" ","MAREA":" ","LANE":"３８５巷","ALLEY":" ","HOUSE_NO":"２０號之１","E_COORD97":174888.47,"N_COORD97":2547779.7000000002,"ADDRESS":"中山北路３８５巷２０號之１","OBJECTID":221224},"geometry":{"x":174888.46999999974,"y":2547779.7000000011}},{"attributes":{"ID":221226,"DIS_CODE":0,"TOWNNAME":"永康區","LI":"龍潭里","LIN":"40鄰","STREET":"永明街","SECT":" ","MAREA":" ","LANE":"３０２巷","ALLEY":" ","HOUSE_NO":"３號","E_COORD97":174546.73000000001,"N_COORD97":2547171.6600000001,"ADDRESS":"永明街３０２巷３號","OBJECTID":221225},"geometry":{"x":174546.73000000045,"y":2547171.6600000001}},{"attributes":{"ID":221227,"DIS_CODE":0,"TOWNNAME":"永康區","LI":"龍潭里","LIN":"1鄰","STREET":"龍國街","SECT":" ","MAREA":" ","LANE":"３３０巷","ALLEY":" ","HOUSE_NO":"３號","E_COORD97":174656.92999999999,"N_COORD97":2547975.2999999998,"ADDRESS":"龍國街３３０巷３號","OBJECTID":221226},"geometry":{"x":174656.93000000156,"y":2547975.3000000007}},{"attributes":{"ID":221228,"DIS_CODE":0,"TOWNNAME":"仁德區","LI":"田厝里","LIN":"9鄰","STREET":"田厝二街","SECT":" ","MAREA":" ","LANE":"６４巷","ALLEY":" ","HOUSE_NO":"４２號","E_COORD97":172453.19,"N_COORD97":2537770.7400000002,"ADDRESS":"田厝二街６４巷４２號","OBJECTID":221227},"geometry":{"x":172453.19000000041,"y":2537770.7399999984}},{"attributes":{"ID":221229,"DIS_CODE":0,"TOWNNAME":"永康區","LI":"埔園里","LIN":" ","STREET":"永大路","SECT":"三段","MAREA":" ","LANE":"３６０巷","ALLEY":" ","HOUSE_NO":"１１號","E_COORD97":174198.53,"N_COORD97":2548196.75,"ADDRESS":"永大路三段３６０巷１１號","OBJECTID":221228},"geometry":{"x":174198.53000000026,"y":2548196.7500000019}},{"attributes":{"ID":221230,"DIS_CODE":0,"TOWNNAME":"善化區","LI":"光文里","LIN":"20鄰","STREET":"和平路","SECT":" ","MAREA":" ","LANE":" ","ALLEY":" ","HOUSE_NO":"１１１號","E_COORD97":178120.56,"N_COORD97":2558859,"ADDRESS":"和平路１１１號","OBJECTID":221229},"geometry":{"x":178120.55999999959,"y":2558859}},{"attributes":{"ID":221231,"DIS_CODE":0,"TOWNNAME":"善化區","LI":"西關里","LIN":"13鄰","STREET":"興農路","SECT":" ","MAREA":" ","LANE":" ","ALLEY":" ","HOUSE_NO":"２７號","E_COORD97":176514.03,"N_COORD97":2559146.5099999998,"ADDRESS":"興農路２７號","OBJECTID":221230},"geometry":{"x":176514.03000000026,"y":2559146.5100000016}},{"attributes":{"ID":221232,"DIS_CODE":0,"TOWNNAME":"善化區","LI":"光文里","LIN":"24鄰","STREET":"中山路","SECT":" ","MAREA":" ","LANE":" ","ALLEY":" ","HOUSE_NO":"２０６號之１","E_COORD97":178276.64000000001,"N_COORD97":2559145.02,"ADDRESS":"中山路２０６號之１","OBJECTID":221231},"geometry":{"x":178276.6400000006,"y":2559145.0200000014}},{"attributes":{"ID":221233,"DIS_CODE":0,"TOWNNAME":"善化區","LI":"光文里","LIN":"24鄰","STREET":"中山路","SECT":" ","MAREA":" ","LANE":" ","ALLEY":" ","HOUSE_NO":"２０６號","E_COORD97":178279.84,"N_COORD97":2559146,"ADDRESS":"中山路２０６號","OBJECTID":221232},"geometry":{"x":178279.83999999985,"y":2559146.0000000019}},{"attributes":{"ID":221234,"DIS_CODE":0,"TOWNNAME":"善化區","LI":"光文里","LIN":"14鄰","STREET":"民生路","SECT":" ","MAREA":" ","LANE":" ","ALLEY":" ","HOUSE_NO":"１７６號","E_COORD97":178460.03,"N_COORD97":2558969.0099999998,"ADDRESS":"民生路１７６號","OBJECTID":221233},"geometry":{"x":178460.03000000026,"y":2558969.0100000016}},{"attributes":{"ID":221235,"DIS_CODE":0,"TOWNNAME":"善化區","LI":"光文里","LIN":"20鄰","STREET":"和平路","SECT":" ","MAREA":" ","LANE":" ","ALLEY":" ","HOUSE_NO":"１３９號","E_COORD97":178106.90998600001,"N_COORD97":2558967.0898199999,"ADDRESS":"和平路１３９號","OBJECTID":221234},"geometry":{"x":178106.90998600051,"y":2558967.089823002}},{"attributes":{"ID":221236,"DIS_CODE":0,"TOWNNAME":"歸仁區","LI":"許厝里","LIN":"9鄰","STREET":"仁愛南街","SECT":" ","MAREA":" ","LANE":"５６巷","ALLEY":" ","HOUSE_NO":"９號","E_COORD97":178237.63,"N_COORD97":2540493.1099999999,"ADDRESS":"仁愛南街５６巷９號","OBJECTID":221235},"geometry":{"x":178237.63000000175,"y":2540493.1099999994}},{"attributes":{"ID":221237,"DIS_CODE":0,"TOWNNAME":"善化區","LI":"東關里","LIN":"20鄰","STREET":"中山路","SECT":" ","MAREA":" ","LANE":" ","ALLEY":" ","HOUSE_NO":"３５１之３號","E_COORD97":177616.64999999999,"N_COORD97":2559082.02,"ADDRESS":"中山路３５１之３號","OBJECTID":221236},"geometry":{"x":177616.6500000013,"y":2559082.0199999996}},{"attributes":{"ID":221238,"DIS_CODE":0,"TOWNNAME":"善化區","LI":"東關里","LIN":"20鄰","STREET":"中山路","SECT":" ","MAREA":" ","LANE":" ","ALLEY":" ","HOUSE_NO":"３５１之１號","E_COORD97":177631.54000000001,"N_COORD97":2559080.77,"ADDRESS":"中山路３５１之１號","OBJECTID":221237},"geometry":{"x":177631.5400000019,"y":2559080.7699999996}},{"attributes":{"ID":221239,"DIS_CODE":0,"TOWNNAME":"善化區","LI":"光文里","LIN":"25鄰","STREET":"公園路","SECT":" ","MAREA":" ","LANE":" ","ALLEY":" ","HOUSE_NO":"８５號","E_COORD97":178125.76000000001,"N_COORD97":2559188,"ADDRESS":"公園路８５號","OBJECTID":221238},"geometry":{"x":178125.75999999978,"y":2559188}},{"attributes":{"ID":221240,"DIS_CODE":0,"TOWNNAME":"永康區","LI":"\u25A0行里","LIN":"38鄰","STREET":"仁愛街","SECT":" ","MAREA":" ","LANE":"１３８巷","ALLEY":" ","HOUSE_NO":"３２號","E_COORD97":172287.04000000001,"N_COORD97":2549641.7799999998,"ADDRESS":"仁愛街１３８巷３２號","OBJECTID":221239},"geometry":{"x":172287.04000000097,"y":2549641.7799999993}},{"attributes":{"ID":221241,"DIS_CODE":0,"TOWNNAME":"永康區","LI":"\u25A0行里","LIN":"27鄰","STREET":"中正南路","SECT":" ","MAREA":" ","LANE":"３６０巷","ALLEY":" ","HOUSE_NO":"３之２號","E_COORD97":171060.29000000001,"N_COORD97":2548166.0499999998,"ADDRESS":"中正南路３６０巷３之２號","OBJECTID":221240},"geometry":{"x":171060.29000000004,"y":2548166.0500000007}},{"attributes":{"ID":221242,"DIS_CODE":0,"TOWNNAME":"永康區","LI":"\u25A0行里","LIN":"38鄰","STREET":"仁愛街","SECT":" ","MAREA":" ","LANE":"１３８巷","ALLEY":" ","HOUSE_NO":"２８號","E_COORD97":172276.94,"N_COORD97":2549640.2799999998,"ADDRESS":"仁愛街１３８巷２８號","OBJECTID":221241},"geometry":{"x":172276.94000000041,"y":2549640.2800000012}},{"attributes":{"ID":221243,"DIS_CODE":0,"TOWNNAME":"善化區","LI":"坐駕里","LIN":"4鄰","STREET":"中正路","SECT":" ","MAREA":" ","LANE":" ","ALLEY":" ","HOUSE_NO":"４２６號","E_COORD97":177702.57000000001,"N_COORD97":2558904.75,"ADDRESS":"中正路４２６號","OBJECTID":221242},"geometry":{"x":177702.5700000003,"y":2558904.75}},{"attributes":{"ID":221244,"DIS_CODE":0,"TOWNNAME":"善化區","LI":"坐駕里","LIN":"18鄰","STREET":"興華路","SECT":" ","MAREA":" ","LANE":" ","ALLEY":" ","HOUSE_NO":"２３８之５號","E_COORD97":178147.26000000001,"N_COORD97":2558579.77,"ADDRESS":"興華路２３８之５號","OBJECTID":221243},"geometry":{"x":178147.26000000071,"y":2558579.7699999996}},{"attributes":{"ID":221245,"DIS_CODE":0,"TOWNNAME":"善化區","LI":"西關里","LIN":"13鄰","STREET":"興農路","SECT":" ","MAREA":" ","LANE":" ","ALLEY":" ","HOUSE_NO":"２３５號","E_COORD97":175785.73000000001,"N_COORD97":2558982.0099999998,"ADDRESS":"興農路２３５號","OBJECTID":221244},"geometry":{"x":175785.73000000045,"y":2558982.0099999998}},{"attributes":{"ID":221246,"DIS_CODE":0,"TOWNNAME":"中西區","LI":"法華里","LIN":"8鄰","STREET":"五妃街","SECT":" ","MAREA":" ","LANE":" ","ALLEY":" ","HOUSE_NO":"１號","E_COORD97":169110.09,"N_COORD97":2542553.5099999998,"ADDRESS":"五妃街１號","OBJECTID":221245},"geometry":{"x":169110.09000000078,"y":2542553.5100000016}},{"attributes":{"ID":221247,"DIS_CODE":0,"TOWNNAME":"大內區","LI":"內郭里","LIN":"4鄰","STREET":" ","SECT":" ","MAREA":"內庄","LANE":" ","ALLEY":" ","HOUSE_NO":"１８０號","E_COORD97":184744.17999999999,"N_COORD97":2557326.25,"ADDRESS":"內庄１８０號","OBJECTID":221246},"geometry":{"x":184744.1799999997,"y":2557326.2499999981}},{"attributes":{"ID":221248,"DIS_CODE":0,"TOWNNAME":"新化區","LI":"太平里","LIN":"9鄰","STREET":"中正路","SECT":" ","MAREA":" ","LANE":"６８６巷","ALLEY":" ","HOUSE_NO":"１４號","E_COORD97":178633.76000000001,"N_COORD97":2549581.25,"ADDRESS":"中正路６８６巷１４號","OBJECTID":221247},"geometry":{"x":178633.76000000071,"y":2549581.25}},{"attributes":{"ID":221249,"DIS_CODE":0,"TOWNNAME":"新化區","LI":"協興里","LIN":"9鄰","STREET":"太平街","SECT":" ","MAREA":" ","LANE":"１５０巷","ALLEY":" ","HOUSE_NO":"３４號","E_COORD97":178337.26999999999,"N_COORD97":2548777.25,"ADDRESS":"太平街１５０巷３４號","OBJECTID":221248},"geometry":{"x":178337.26999999955,"y":2548777.2500000019}},{"attributes":{"ID":221250,"DIS_CODE":0,"TOWNNAME":"新化區","LI":"太平里","LIN":"9鄰","STREET":"中正路","SECT":" ","MAREA":" ","LANE":"６８６巷","ALLEY":" ","HOUSE_NO":"７號","E_COORD97":178640.20999999999,"N_COORD97":2549588.25,"ADDRESS":"中正路６８６巷７號","OBJECTID":221249},"geometry":{"x":178640.20999999996,"y":2549588.25}},{"attributes":{"ID":221251,"DIS_CODE":0,"TOWNNAME":"永康區","LI":"龍潭里","LIN":"34鄰","STREET":"龍埔街","SECT":" ","MAREA":" ","LANE":"１８１巷","ALLEY":" ","HOUSE_NO":"２６號","E_COORD97":174446.89999999999,"N_COORD97":2548173.9399999999,"ADDRESS":"龍埔街１８１巷２６號","OBJECTID":221250},"geometry":{"x":174446.90000000037,"y":2548173.9400000032}},{"attributes":{"ID":221252,"DIS_CODE":0,"TOWNNAME":"永康區","LI":"龍潭里","LIN":"13鄰","STREET":"龍橋街","SECT":" ","MAREA":" ","LANE":"７９巷","ALLEY":" ","HOUSE_NO":"６號","E_COORD97":174724.94,"N_COORD97":2548414.2799999998,"ADDRESS":"龍橋街７９巷６號","OBJECTID":221251},"geometry":{"x":174724.94000000041,"y":2548414.2799999993}},{"attributes":{"ID":221253,"DIS_CODE":0,"TOWNNAME":"永康區","LI":"龍潭里","LIN":"44鄰","STREET":"永平街","SECT":" ","MAREA":" ","LANE":"２９８巷","ALLEY":" ","HOUSE_NO":"１之１２號","E_COORD97":174661.41,"N_COORD97":2547120.04,"ADDRESS":"永平街２９８巷１之１２號","OBJECTID":221252},"geometry":{"x":174661.41000000108,"y":2547120.040000001}},{"attributes":{"ID":221254,"DIS_CODE":0,"TOWNNAME":"東區","LI":"路東里","LIN":"9鄰","STREET":"林森路","SECT":"一段","MAREA":" ","LANE":"５８巷","ALLEY":" ","HOUSE_NO":"１３號","E_COORD97":169349.44,"N_COORD97":2542344.9199999999,"ADDRESS":"林森路一段５８巷１３號","OBJECTID":221253},"geometry":{"x":169349.44000000041,"y":2542344.9199999999}},{"attributes":{"ID":221255,"DIS_CODE":0,"TOWNNAME":"永康區","LI":"龍潭里","LIN":"44鄰","STREET":"中山北路","SECT":" ","MAREA":" ","LANE":"２６４巷","ALLEY":" ","HOUSE_NO":"２４４號","E_COORD97":174709.37,"N_COORD97":2547030.8399999999,"ADDRESS":"中山北路２６４巷２４４號","OBJECTID":221254},"geometry":{"x":174709.37000000104,"y":2547030.8399999999}},{"attributes":{"ID":221256,"DIS_CODE":0,"TOWNNAME":"東區","LI":"路東里","LIN":"9鄰","STREET":"林森路","SECT":"一段","MAREA":" ","LANE":"５８巷","ALLEY":" ","HOUSE_NO":"９號","E_COORD97":169338.20999999999,"N_COORD97":2542345.6299999999,"ADDRESS":"林森路一段５８巷９號","OBJECTID":221255},"geometry":{"x":169338.21000000089,"y":2542345.6300000008}},{"attributes":{"ID":221257,"DIS_CODE":0,"TOWNNAME":"東區","LI":"路東里","LIN":"9鄰","STREET":"林森路","SECT":"一段","MAREA":" ","LANE":"５８巷","ALLEY":" ","HOUSE_NO":"２號","E_COORD97":169307.48999999999,"N_COORD97":2542333.2799999998,"ADDRESS":"林森路一段５８巷２號","OBJECTID":221256},"geometry":{"x":169307.49000000115,"y":2542333.2800000031}},{"attributes":{"ID":221258,"DIS_CODE":0,"TOWNNAME":"學甲區","LI":"新達里","LIN":"9鄰","STREET":"中學路","SECT":" ","MAREA":" ","LANE":"３２巷","ALLEY":" ","HOUSE_NO":"１號","E_COORD97":166624.73999999999,"N_COORD97":2570717.7799999998,"ADDRESS":"中學路３２巷１號","OBJECTID":221257},"geometry":{"x":166624.74000000022,"y":2570717.7800000012}},{"attributes":{"ID":221259,"DIS_CODE":0,"TOWNNAME":"永康區","LI":"龍潭里","LIN":"44鄰","STREET":"永平街","SECT":" ","MAREA":" ","LANE":"２９８巷","ALLEY":" ","HOUSE_NO":"２之１２號","E_COORD97":174661.01000000001,"N_COORD97":2547103.79,"ADDRESS":"永平街２９８巷２之１２號","OBJECTID":221258},"geometry":{"x":174661.00999999978,"y":2547103.790000001}},{"attributes":{"ID":221260,"DIS_CODE":0,"TOWNNAME":"歸仁區","LI":"看西里","LIN":"9鄰","STREET":"仁愛五街","SECT":" ","MAREA":" ","LANE":"２巷","ALLEY":" ","HOUSE_NO":"１０號","E_COORD97":178329.82999999999,"N_COORD97":2540286.2000000002,"ADDRESS":"仁愛五街２巷１０號","OBJECTID":221259},"geometry":{"x":178329.83000000194,"y":2540286.2000000011}},{"attributes":{"ID":221261,"DIS_CODE":0,"TOWNNAME":"歸仁區","LI":"看東里","LIN":"9鄰","STREET":"成功路","SECT":"一段","MAREA":" ","LANE":"１０１巷","ALLEY":" ","HOUSE_NO":"３５號","E_COORD97":178727.60000000001,"N_COORD97":2540138.4500000002,"ADDRESS":"成功路一段１０１巷３５號","OBJECTID":221260},"geometry":{"x":178727.60000000149,"y":2540138.450000003}},{"attributes":{"ID":221262,"DIS_CODE":0,"TOWNNAME":"北區","LI":"小康里","LIN":"9鄰","STREET":"實踐街","SECT":" ","MAREA":" ","LANE":"１５巷","ALLEY":" ","HOUSE_NO":"３之１號","E_COORD97":169719.64000000001,"N_COORD97":2546151.48,"ADDRESS":"實踐街１５巷３之１號","OBJECTID":221261},"geometry":{"x":169719.6400000006,"y":2546151.4800000023}},{"attributes":{"ID":221263,"DIS_CODE":0,"TOWNNAME":"中西區","LI":"法華里","LIN":"10鄰","STREET":"五妃街","SECT":" ","MAREA":" ","LANE":" ","ALLEY":" ","HOUSE_NO":"２３號","E_COORD97":169033.98999999999,"N_COORD97":2542547.02,"ADDRESS":"五妃街２３號","OBJECTID":221262},"geometry":{"x":169033.98999999929,"y":2542547.0200000014}},{"attributes":{"ID":221264,"DIS_CODE":0,"TOWNNAME":"學甲區","LI":"中洲里","LIN":"28鄰","STREET":" ","SECT":" ","MAREA":"中洲","LANE":" ","ALLEY":" ","HOUSE_NO":"３５２號","E_COORD97":163748.13,"N_COORD97":2571861.1400000001,"ADDRESS":"中洲３５２號","OBJECTID":221263},"geometry":{"x":163748.12999999989,"y":2571861.1400000006}},{"attributes":{"ID":221265,"DIS_CODE":0,"TOWNNAME":"學甲區","LI":"中洲里","LIN":"28鄰","STREET":" ","SECT":" ","MAREA":"中洲","LANE":" ","ALLEY":" ","HOUSE_NO":"３５３號","E_COORD97":163753.26000000001,"N_COORD97":2571875.7799999998,"ADDRESS":"中洲３５３號","OBJECTID":221264},"geometry":{"x":163753.26000000071,"y":2571875.7799999993}},{"attributes":{"ID":221266,"DIS_CODE":0,"TOWNNAME":"學甲區","LI":"中洲里","LIN":"28鄰","STREET":" ","SECT":" ","MAREA":"中洲","LANE":" ","ALLEY":" ","HOUSE_NO":"３５４號","E_COORD97":163775.97,"N_COORD97":2571866.1899999999,"ADDRESS":"中洲３５４號","OBJECTID":221265},"geometry":{"x":163775.97000000067,"y":2571866.1899999995}},{"attributes":{"ID":221267,"DIS_CODE":0,"TOWNNAME":"學甲區","LI":"中洲里","LIN":"28鄰","STREET":" ","SECT":" ","MAREA":"中洲","LANE":" ","ALLEY":" ","HOUSE_NO":"３５５號之１","E_COORD97":163795.34,"N_COORD97":2571863.8900000001,"ADDRESS":"中洲３５５號之１","OBJECTID":221266},"geometry":{"x":163795.34000000078,"y":2571863.8900000043}},{"attributes":{"ID":221268,"DIS_CODE":0,"TOWNNAME":"學甲區","LI":"中洲里","LIN":"28鄰","STREET":" ","SECT":" ","MAREA":"中洲","LANE":" ","ALLEY":" ","HOUSE_NO":"３５５號","E_COORD97":163809.73999999999,"N_COORD97":2571864.8300000001,"ADDRESS":"中洲３５５號","OBJECTID":221267},"geometry":{"x":163809.74000000115,"y":2571864.8300000019}},{"attributes":{"ID":221269,"DIS_CODE":0,"TOWNNAME":"學甲區","LI":"中洲里","LIN":"28鄰","STREET":" ","SECT":" ","MAREA":"中洲","LANE":" ","ALLEY":" ","HOUSE_NO":"３５６號之６０","E_COORD97":163458.54999999999,"N_COORD97":2572466.2599999998,"ADDRESS":"中洲３５６號之６０","OBJECTID":221268},"geometry":{"x":163458.55000000075,"y":2572466.2599999998}},{"attributes":{"ID":221270,"DIS_CODE":0,"TOWNNAME":"學甲區","LI":"中洲里","LIN":"28鄰","STREET":" ","SECT":" ","MAREA":"中洲","LANE":" ","ALLEY":" ","HOUSE_NO":"３５６號","E_COORD97":163807.60000000001,"N_COORD97":2571881.5899999999,"ADDRESS":"中洲３５６號","OBJECTID":221269},"geometry":{"x":163807.59999999963,"y":2571881.5899999999}},{"attributes":{"ID":221271,"DIS_CODE":0,"TOWNNAME":"學甲區","LI":"中洲里","LIN":"28鄰","STREET":" ","SECT":" ","MAREA":"中洲","LANE":" ","ALLEY":" ","HOUSE_NO":"３５８號之１０","E_COORD97":163575.01000000001,"N_COORD97":2571958.8599999999,"ADDRESS":"中洲３５８號之１０","OBJECTID":221270},"geometry":{"x":163575.01000000164,"y":2571958.8600000013}},{"attributes":{"ID":221272,"DIS_CODE":0,"TOWNNAME":"北區","LI":"小康里","LIN":"9鄰","STREET":"實踐街","SECT":" ","MAREA":" ","LANE":"１５巷","ALLEY":" ","HOUSE_NO":"３號","E_COORD97":169715.09,"N_COORD97":2546161.8900000001,"ADDRESS":"實踐街１５巷３號","OBJECTID":221271},"geometry":{"x":169715.09000000078,"y":2546161.8900000025}},{"attributes":{"ID":221273,"DIS_CODE":0,"TOWNNAME":"歸仁區","LI":"崙頂里","LIN":"28鄰","STREET":"成功十街","SECT":" ","MAREA":" ","LANE":" ","ALLEY":" ","HOUSE_NO":"３８號","E_COORD97":177790.01000000001,"N_COORD97":2539674.8199999998,"ADDRESS":"成功十街３８號","OBJECTID":221272},"geometry":{"x":177790.00999999978,"y":2539674.8200000003}},{"attributes":{"ID":221274,"DIS_CODE":0,"TOWNNAME":"北區","LI":"小康里","LIN":"9鄰","STREET":"實踐街","SECT":" ","MAREA":" ","LANE":"１５巷","ALLEY":" ","HOUSE_NO":"５號","E_COORD97":169716.60999999999,"N_COORD97":2546176.6499999999,"ADDRESS":"實踐街１５巷５號","OBJECTID":221273},"geometry":{"x":169716.6100000022,"y":2546176.6500000041}},{"attributes":{"ID":221275,"DIS_CODE":0,"TOWNNAME":"新化區","LI":"\u25A0拔里","LIN":"11鄰","STREET":" ","SECT":" ","MAREA":"牧場","LANE":" ","ALLEY":" ","HOUSE_NO":"１８號","E_COORD97":181706.73000000001,"N_COORD97":2551128.25,"ADDRESS":"牧場１８號","OBJECTID":221274},"geometry":{"x":181706.73000000138,"y":2551128.25}},{"attributes":{"ID":221276,"DIS_CODE":0,"TOWNNAME":"北區","LI":"小康里","LIN":"9鄰","STREET":"實踐街","SECT":" ","MAREA":" ","LANE":"３巷","ALLEY":" ","HOUSE_NO":"１號","E_COORD97":169680.25,"N_COORD97":2546146.3700000001,"ADDRESS":"實踐街３巷１號","OBJECTID":221275},"geometry":{"x":169680.25000000093,"y":2546146.3700000029}},{"attributes":{"ID":221277,"DIS_CODE":0,"TOWNNAME":"北區","LI":"小康里","LIN":"9鄰","STREET":"公園路","SECT":" ","MAREA":" ","LANE":"９９４巷","ALLEY":" ","HOUSE_NO":"４８號","E_COORD97":169716.48000000001,"N_COORD97":2546287.5699999998,"ADDRESS":"公園路９９４巷４８號","OBJECTID":221276},"geometry":{"x":169716.48000000138,"y":2546287.5700000003}},{"attributes":{"ID":221278,"DIS_CODE":0,"TOWNNAME":"學甲區","LI":"中洲里","LIN":"28鄰","STREET":" ","SECT":" ","MAREA":"中洲","LANE":" ","ALLEY":" ","HOUSE_NO":"３５８號之２","E_COORD97":163369.85999999999,"N_COORD97":2572423.46,"ADDRESS":"中洲３５８號之２","OBJECTID":221277},"geometry":{"x":163369.8600000022,"y":2572423.4600000046}},{"attributes":{"ID":221279,"DIS_CODE":0,"TOWNNAME":"北區","LI":"小康里","LIN":"9鄰","STREET":"實踐街","SECT":" ","MAREA":" ","LANE":"１５巷","ALLEY":" ","HOUSE_NO":"２９號","E_COORD97":169717.95999999999,"N_COORD97":2546210.6200000001,"ADDRESS":"實踐街１５巷２９號","OBJECTID":221278},"geometry":{"x":169717.96000000089,"y":2546210.620000001}},{"attributes":{"ID":221280,"DIS_CODE":0,"TOWNNAME":"學甲區","LI":"中洲里","LIN":"28鄰","STREET":" ","SECT":" ","MAREA":"中洲","LANE":" ","ALLEY":" ","HOUSE_NO":"３５８號之５","E_COORD97":163700.95000000001,"N_COORD97":2572002.46,"ADDRESS":"中洲３５８號之５","OBJECTID":221279},"geometry":{"x":163700.95000000019,"y":2572002.4600000009}},{"attributes":{"ID":221281,"DIS_CODE":0,"TOWNNAME":"學甲區","LI":"中洲里","LIN":"28鄰","STREET":" ","SECT":" ","MAREA":"中洲","LANE":" ","ALLEY":" ","HOUSE_NO":"３５９號","E_COORD97":163778.39000000001,"N_COORD97":2571894.2200000002,"ADDRESS":"中洲３５９號","OBJECTID":221280},"geometry":{"x":163778.38999999966,"y":2571894.2200000007}},{"attributes":{"ID":221282,"DIS_CODE":0,"TOWNNAME":"北區","LI":"小康里","LIN":"9鄰","STREET":"實踐街","SECT":" ","MAREA":" ","LANE":"１５巷","ALLEY":" ","HOUSE_NO":"３１號","E_COORD97":169717.95999999999,"N_COORD97":2546241.4100000001,"ADDRESS":"實踐街１５巷３１號","OBJECTID":221281},"geometry":{"x":169717.96000000089,"y":2546241.4100000001}},{"attributes":{"ID":221283,"DIS_CODE":0,"TOWNNAME":"北區","LI":"小康里","LIN":"9鄰","STREET":"實踐街","SECT":" ","MAREA":" ","LANE":"１５巷","ALLEY":" ","HOUSE_NO":"３３號","E_COORD97":169721.60000000001,"N_COORD97":2546260.1200000001,"ADDRESS":"實踐街１５巷３３號","OBJECTID":221282},"geometry":{"x":169721.60000000056,"y":2546260.1200000029}},{"attributes":{"ID":221284,"DIS_CODE":0,"TOWNNAME":"北區","LI":"小康里","LIN":"9鄰","STREET":"實踐街","SECT":" ","MAREA":" ","LANE":"１５巷","ALLEY":" ","HOUSE_NO":"３５號","E_COORD97":169730.76000000001,"N_COORD97":2546270.9199999999,"ADDRESS":"實踐街１５巷３５號","OBJECTID":221283},"geometry":{"x":169730.76000000071,"y":2546270.9199999999}},{"attributes":{"ID":221285,"DIS_CODE":0,"TOWNNAME":"永康區","LI":"復興里","LIN":"28鄰","STREET":"興國街","SECT":" ","MAREA":" ","LANE":"１８７巷","ALLEY":" ","HOUSE_NO":"７號","E_COORD97":172325.20999999999,"N_COORD97":2544848.9900000002,"ADDRESS":"興國街１８７巷７號","OBJECTID":221284},"geometry":{"x":172325.21000000089,"y":2544848.9900000021}},{"attributes":{"ID":221286,"DIS_CODE":0,"TOWNNAME":"永康區","LI":"龍潭里","LIN":"24鄰","STREET":"中山北路","SECT":" ","MAREA":" ","LANE":"２６４巷","ALLEY":" ","HOUSE_NO":"１號","E_COORD97":174718.01999999999,"N_COORD97":2547662.0800000001,"ADDRESS":"中山北路２６４巷１號","OBJECTID":221285},"geometry":{"x":174718.01999999955,"y":2547662.0800000019}},{"attributes":{"ID":221287,"DIS_CODE":0,"TOWNNAME":"永康區","LI":"龍潭里","LIN":"44鄰","STREET":"中山北路","SECT":" ","MAREA":" ","LANE":"２６４巷","ALLEY":" ","HOUSE_NO":"２３８號","E_COORD97":174709.14000000001,"N_COORD97":2547043.3399999999,"ADDRESS":"中山北路２６４巷２３８號","OBJECTID":221286},"geometry":{"x":174709.13999999966,"y":2547043.3400000017}},{"attributes":{"ID":221288,"DIS_CODE":0,"TOWNNAME":"永康區","LI":"龍潭里","LIN":"44鄰","STREET":"中山北路","SECT":" ","MAREA":" ","LANE":"２６４巷","ALLEY":" ","HOUSE_NO":"２４０號","E_COORD97":174709.37,"N_COORD97":2547039.3399999999,"ADDRESS":"中山北路２６４巷２４０號","OBJECTID":221287},"geometry":{"x":174709.37000000104,"y":2547039.3400000036}},{"attributes":{"ID":221289,"DIS_CODE":0,"TOWNNAME":"北區","LI":"小康里","LIN":"9鄰","STREET":"實踐街","SECT":" ","MAREA":" ","LANE":"１５巷","ALLEY":" ","HOUSE_NO":"３７號","E_COORD97":169731.39999999999,"N_COORD97":2546275.6800000002,"ADDRESS":"實踐街１５巷３７號","OBJECTID":221288},"geometry":{"x":169731.40000000037,"y":2546275.6799999997}},{"attributes":{"ID":221290,"DIS_CODE":0,"TOWNNAME":"北區","LI":"小康里","LIN":"9鄰","STREET":"實踐街","SECT":" ","MAREA":" ","LANE":"１５巷","ALLEY":" ","HOUSE_NO":"３８號","E_COORD97":169734.04999999999,"N_COORD97":2546247.27,"ADDRESS":"實踐街１５巷３８號","OBJECTID":221289},"geometry":{"x":169734.05000000075,"y":2546247.2700000014}},{"attributes":{"ID":221291,"DIS_CODE":0,"TOWNNAME":"北區","LI":"小康里","LIN":"9鄰","STREET":"實踐街","SECT":" ","MAREA":" ","LANE":"１５巷","ALLEY":" ","HOUSE_NO":"３９號","E_COORD97":169731.57999999999,"N_COORD97":2546280.3399999999,"ADDRESS":"實踐街１５巷３９號","OBJECTID":221290},"geometry":{"x":169731.58000000007,"y":2546280.3400000017}},{"attributes":{"ID":221292,"DIS_CODE":0,"TOWNNAME":"北區","LI":"小康里","LIN":"9鄰","STREET":"實踐街","SECT":" ","MAREA":" ","LANE":"１５巷","ALLEY":" ","HOUSE_NO":"４１號","E_COORD97":169731.57999999999,"N_COORD97":2546284.8199999998,"ADDRESS":"實踐街１５巷４１號","OBJECTID":221291},"geometry":{"x":169731.58000000007,"y":2546284.8200000022}},{"attributes":{"ID":221293,"DIS_CODE":0,"TOWNNAME":"北區","LI":"永祥里","LIN":"9鄰","STREET":"實踐街","SECT":" ","MAREA":" ","LANE":"７１巷","ALLEY":" ","HOUSE_NO":"１０２號","E_COORD97":169994.63,"N_COORD97":2546294.4900000002,"ADDRESS":"實踐街７１巷１０２號","OBJECTID":221292},"geometry":{"x":169994.63000000082,"y":2546294.4900000002}},{"attributes":{"ID":221294,"DIS_CODE":0,"TOWNNAME":"北區","LI":"永祥里","LIN":"9鄰","STREET":"實踐街","SECT":" ","MAREA":" ","LANE":"７１巷","ALLEY":" ","HOUSE_NO":"１０４號","E_COORD97":169995.84,"N_COORD97":2546297.9300000002,"ADDRESS":"實踐街７１巷１０４號","OBJECTID":221293},"geometry":{"x":169995.84000000171,"y":2546297.9299999997}},{"attributes":{"ID":221295,"DIS_CODE":0,"TOWNNAME":"北區","LI":"永祥里","LIN":"9鄰","STREET":"實踐街","SECT":" ","MAREA":" ","LANE":"７１巷","ALLEY":" ","HOUSE_NO":"１０６號","E_COORD97":169996.87,"N_COORD97":2546301.29,"ADDRESS":"實踐街７１巷１０６號","OBJECTID":221294},"geometry":{"x":169996.87000000011,"y":2546301.290000001}},{"attributes":{"ID":221296,"DIS_CODE":0,"TOWNNAME":"歸仁區","LI":"辜厝里","LIN":"28鄰","STREET":"大順街","SECT":" ","MAREA":" ","LANE":" ","ALLEY":" ","HOUSE_NO":"７３號","E_COORD97":177266.39000000001,"N_COORD97":2540591.6800000002,"ADDRESS":"大順街７３號","OBJECTID":221295},"geometry":{"x":177266.3900000006,"y":2540591.6800000034}},{"attributes":{"ID":221297,"DIS_CODE":0,"TOWNNAME":"北區","LI":"永祥里","LIN":"9鄰","STREET":"實踐街","SECT":" ","MAREA":" ","LANE":"７１巷","ALLEY":" ","HOUSE_NO":"１０８號","E_COORD97":169997.56,"N_COORD97":2546304.48,"ADDRESS":"實踐街７１巷１０８號","OBJECTID":221296},"geometry":{"x":169997.56000000145,"y":2546304.4800000023}},{"attributes":{"ID":221298,"DIS_CODE":0,"TOWNNAME":"學甲區","LI":"光華里","LIN":"28鄰","STREET":" ","SECT":" ","MAREA":"筏子頭","LANE":" ","ALLEY":" ","HOUSE_NO":"２號","E_COORD97":164678.23000000001,"N_COORD97":2573697.0899999999,"ADDRESS":"筏子頭２號","OBJECTID":221297},"geometry":{"x":164678.23000000138,"y":2573697.0900000017}},{"attributes":{"ID":221299,"DIS_CODE":0,"TOWNNAME":"中西區","LI":"法華里","LIN":"12鄰","STREET":"健康路","SECT":"一段","MAREA":" ","LANE":" ","ALLEY":" ","HOUSE_NO":"１１４號","E_COORD97":168882.59,"N_COORD97":2542451.71,"ADDRESS":"健康路一段１１４號","OBJECTID":221298},"geometry":{"x":168882.59000000078,"y":2542451.7100000028}},{"attributes":{"ID":221300,"DIS_CODE":0,"TOWNNAME":"歸仁區","LI":"崙頂里","LIN":"28鄰","STREET":"成功十街","SECT":" ","MAREA":" ","LANE":" ","ALLEY":" ","HOUSE_NO":"９２號","E_COORD97":177794.94,"N_COORD97":2539779.5499999998,"ADDRESS":"成功十街９２號","OBJECTID":221299},"geometry":{"x":177794.94000000041,"y":2539779.5500000007}},{"attributes":{"ID":221301,"DIS_CODE":0,"TOWNNAME":"北區","LI":"永祥里","LIN":"9鄰","STREET":"實踐街","SECT":" ","MAREA":" ","LANE":"７１巷","ALLEY":" ","HOUSE_NO":"１１０號","E_COORD97":169998.95000000001,"N_COORD97":2546310.21,"ADDRESS":"實踐街７１巷１１０號","OBJECTID":221300},"geometry":{"x":169998.95000000205,"y":2546310.2100000028}},{"attributes":{"ID":221302,"DIS_CODE":0,"TOWNNAME":"北區","LI":"永祥里","LIN":"9鄰","STREET":"實踐街","SECT":" ","MAREA":" ","LANE":"７１巷","ALLEY":" ","HOUSE_NO":"１１２號","E_COORD97":169999.89000000001,"N_COORD97":2546314.3399999999,"ADDRESS":"實踐街７１巷１１２號","OBJECTID":221301},"geometry":{"x":169999.88999999966,"y":2546314.3400000017}},{"attributes":{"ID":221303,"DIS_CODE":0,"TOWNNAME":"北區","LI":"永祥里","LIN":"9鄰","STREET":"實踐街","SECT":" ","MAREA":" ","LANE":"７１巷","ALLEY":" ","HOUSE_NO":"１１４號","E_COORD97":170001.10000000001,"N_COORD97":2546318.1299999999,"ADDRESS":"實踐街７１巷１１４號","OBJECTID":221302},"geometry":{"x":170001.10000000056,"y":2546318.1300000008}},{"attributes":{"ID":221304,"DIS_CODE":0,"TOWNNAME":"北區","LI":"永祥里","LIN":"9鄰","STREET":"實踐街","SECT":" ","MAREA":" ","LANE":"７１巷","ALLEY":" ","HOUSE_NO":"１１６號","E_COORD97":170001.95999999999,"N_COORD97":2546321.1499999999,"ADDRESS":"實踐街７１巷１１６號","OBJECTID":221303},"geometry":{"x":170001.96000000183,"y":2546321.1500000004}},{"attributes":{"ID":221305,"DIS_CODE":0,"TOWNNAME":"北區","LI":"永祥里","LIN":"9鄰","STREET":"實踐街","SECT":" ","MAREA":" ","LANE":"７１巷","ALLEY":" ","HOUSE_NO":"１１８號","E_COORD97":170002.73999999999,"N_COORD97":2546324.0699999998,"ADDRESS":"實踐街７１巷１１８號","OBJECTID":221304},"geometry":{"x":170002.74000000115,"y":2546324.0700000022}},{"attributes":{"ID":221306,"DIS_CODE":0,"TOWNNAME":"永康區","LI":"新樹里","LIN":"2鄰","STREET":"富強路","SECT":"二段","MAREA":" ","LANE":"３２６巷","ALLEY":" ","HOUSE_NO":"１２號","E_COORD97":175632.20000000001,"N_COORD97":2547541.6499999999,"ADDRESS":"富強路二段３２６巷１２號","OBJECTID":221305},"geometry":{"x":175632.20000000112,"y":2547541.6500000004}},{"attributes":{"ID":221307,"DIS_CODE":0,"TOWNNAME":"永康區","LI":"復興里","LIN":"14鄰","STREET":"復興路","SECT":" ","MAREA":" ","LANE":"２８２巷","ALLEY":" ","HOUSE_NO":"１７號","E_COORD97":172357.85000000001,"N_COORD97":2544375.4300000002,"ADDRESS":"復興路２８２巷１７號","OBJECTID":221306},"geometry":{"x":172357.84999999963,"y":2544375.4299999997}},{"attributes":{"ID":221308,"DIS_CODE":0,"TOWNNAME":"永康區","LI":"網寮里","LIN":"12鄰","STREET":"永二街","SECT":" ","MAREA":" ","LANE":"２４４巷","ALLEY":" ","HOUSE_NO":"２５號","E_COORD97":173269.07999999999,"N_COORD97":2546515.9700000002,"ADDRESS":"永二街２４４巷２５號","OBJECTID":221307},"geometry":{"x":173269.08000000007,"y":2546515.9700000007}},{"attributes":{"ID":221309,"DIS_CODE":0,"TOWNNAME":"新營區","LI":"南興里","LIN":"9鄰","STREET":"和平路","SECT":" ","MAREA":" ","LANE":"１０２巷","ALLEY":" ","HOUSE_NO":"１４之１號","E_COORD97":179369.73000000001,"N_COORD97":2577614.5,"ADDRESS":"和平路１０２巷１４之１號","OBJECTID":221308},"geometry":{"x":179369.73000000045,"y":2577614.5}},{"attributes":{"ID":221310,"DIS_CODE":0,"TOWNNAME":"新營區","LI":"南興里","LIN":"9鄰","STREET":"和平路","SECT":" ","MAREA":" ","LANE":"１０２巷","ALLEY":" ","HOUSE_NO":"４０號","E_COORD97":179294.70000000001,"N_COORD97":2577618.1200000001,"ADDRESS":"和平路１０２巷４０號","OBJECTID":221309},"geometry":{"x":179294.70000000019,"y":2577618.120000001}},{"attributes":{"ID":221311,"DIS_CODE":0,"TOWNNAME":"新營區","LI":"忠政里","LIN":"9鄰","STREET":"中正路","SECT":" ","MAREA":" ","LANE":"３９巷","ALLEY":" ","HOUSE_NO":"３９號","E_COORD97":179976.48999999999,"N_COORD97":2579238.3999999999,"ADDRESS":"中正路３９巷３９號","OBJECTID":221310},"geometry":{"x":179976.49000000209,"y":2579238.4000000022}},{"attributes":{"ID":221312,"DIS_CODE":0,"TOWNNAME":"新營區","LI":"興業里","LIN":"9鄰","STREET":"中興路","SECT":" ","MAREA":" ","LANE":"１３巷","ALLEY":" ","HOUSE_NO":"５號","E_COORD97":180163.57000000001,"N_COORD97":2577981.6600000001,"ADDRESS":"中興路１３巷５號","OBJECTID":221311},"geometry":{"x":180163.5700000003,"y":2577981.660000002}},{"attributes":{"ID":221313,"DIS_CODE":0,"TOWNNAME":"永康區","LI":"網寮里","LIN":"13鄰","STREET":"永二街","SECT":" ","MAREA":" ","LANE":"２４４巷","ALLEY":" ","HOUSE_NO":"３８號","E_COORD97":173288.73999999999,"N_COORD97":2546578.0699999998,"ADDRESS":"永二街２４４巷３８號","OBJECTID":221312},"geometry":{"x":173288.74000000022,"y":2546578.0700000022}},{"attributes":{"ID":221314,"DIS_CODE":0,"TOWNNAME":"新營區","LI":"護鎮里","LIN":"9鄰","STREET":"中正路","SECT":" ","MAREA":" ","LANE":"４３９巷","ALLEY":" ","HOUSE_NO":"１３５號","E_COORD97":178812.82999999999,"N_COORD97":2579911.7599999998,"ADDRESS":"中正路４３９巷１３５號","OBJECTID":221313},"geometry":{"x":178812.83000000194,"y":2579911.7599999998}},{"attributes":{"ID":221315,"DIS_CODE":0,"TOWNNAME":"新營區","LI":"忠政里","LIN":"9鄰","STREET":"中正路","SECT":" ","MAREA":" ","LANE":"３９巷","ALLEY":" ","HOUSE_NO":"３３號之１","E_COORD97":180011.34,"N_COORD97":2579234.9700000002,"ADDRESS":"中正路３９巷３３號之１","OBJECTID":221314},"geometry":{"x":180011.34000000078,"y":2579234.9700000025}},{"attributes":{"ID":221316,"DIS_CODE":0,"TOWNNAME":"中西區","LI":"法華里","LIN":"14鄰","STREET":"五妃街","SECT":" ","MAREA":" ","LANE":" ","ALLEY":" ","HOUSE_NO":"７１號","E_COORD97":168923.14000000001,"N_COORD97":2542553.4100000001,"ADDRESS":"五妃街７１號","OBJECTID":221315},"geometry":{"x":168923.13999999966,"y":2542553.4099999983}},{"attributes":{"ID":221317,"DIS_CODE":0,"TOWNNAME":"永康區","LI":"龍潭里","LIN":"2鄰","STREET":"龍潭街","SECT":" ","MAREA":" ","LANE":"８９巷","ALLEY":" ","HOUSE_NO":"５號","E_COORD97":174795.66,"N_COORD97":2548080.3100000001,"ADDRESS":"龍潭街８９巷５號","OBJECTID":221316},"geometry":{"x":174795.66000000015,"y":2548080.3100000005}},{"attributes":{"ID":221318,"DIS_CODE":0,"TOWNNAME":"永康區","LI":"龍潭里","LIN":"42鄰","STREET":"永平街","SECT":" ","MAREA":" ","LANE":"７５９巷","ALLEY":" ","HOUSE_NO":"４８號","E_COORD97":174568.73000000001,"N_COORD97":2547052,"ADDRESS":"永平街７５９巷４８號","OBJECTID":221317},"geometry":{"x":174568.73000000045,"y":2547052.0000000037}},{"attributes":{"ID":221319,"DIS_CODE":0,"TOWNNAME":"中西區","LI":"法華里","LIN":"14鄰","STREET":"五妃街","SECT":" ","MAREA":" ","LANE":" ","ALLEY":" ","HOUSE_NO":"７３號","E_COORD97":168918.81,"N_COORD97":2542556.5499999998,"ADDRESS":"五妃街７３號","OBJECTID":221318},"geometry":{"x":168918.80999999959,"y":2542556.5500000045}},{"attributes":{"ID":221320,"DIS_CODE":0,"TOWNNAME":"永康區","LI":"網寮里","LIN":"8鄰","STREET":"永二街","SECT":" ","MAREA":" ","LANE":"２４４巷","ALLEY":" ","HOUSE_NO":"１號之１","E_COORD97":173249.37,"N_COORD97":2546328.8599999999,"ADDRESS":"永二街２４４巷１號之１","OBJECTID":221319},"geometry":{"x":173249.37000000104,"y":2546328.8599999994}},{"attributes":{"ID":221321,"DIS_CODE":0,"TOWNNAME":"永康區","LI":"新樹里","LIN":"1鄰","STREET":"富強路","SECT":"二段","MAREA":" ","LANE":"２７８巷","ALLEY":" ","HOUSE_NO":"１３號","E_COORD97":175686,"N_COORD97":2547437.8599999999,"ADDRESS":"富強路二段２７８巷１３號","OBJECTID":221320},"geometry":{"x":175686.00000000093,"y":2547437.8599999994}},{"attributes":{"ID":221322,"DIS_CODE":0,"TOWNNAME":"南區","LI":"新興里","LIN":"9鄰","STREET":"健康路","SECT":"二段","MAREA":" ","LANE":"５３巷","ALLEY":" ","HOUSE_NO":"５２號","E_COORD97":167527.60999999999,"N_COORD97":2542358.8599999999,"ADDRESS":"健康路二段５３巷５２號","OBJECTID":221321},"geometry":{"x":167527.61000000034,"y":2542358.8599999994}},{"attributes":{"ID":221323,"DIS_CODE":0,"TOWNNAME":"南區","LI":"新興里","LIN":"9鄰","STREET":"健康路","SECT":"二段","MAREA":" ","LANE":"５３巷","ALLEY":" ","HOUSE_NO":"５４號","E_COORD97":167522.97,"N_COORD97":2542360.1299999999,"ADDRESS":"健康路二段５３巷５４號","OBJECTID":221322},"geometry":{"x":167522.96999999974,"y":2542360.129999999}},{"attributes":{"ID":221324,"DIS_CODE":0,"TOWNNAME":"南區","LI":"新興里","LIN":"9鄰","STREET":"健康路","SECT":"二段","MAREA":" ","LANE":"５３巷","ALLEY":" ","HOUSE_NO":"５５號","E_COORD97":167532.84,"N_COORD97":2542339.4500000002,"ADDRESS":"健康路二段５３巷５５號","OBJECTID":221323},"geometry":{"x":167532.84000000171,"y":2542339.4500000011}},{"attributes":{"ID":221325,"DIS_CODE":0,"TOWNNAME":"南區","LI":"新興里","LIN":"9鄰","STREET":"健康路","SECT":"二段","MAREA":" ","LANE":"５３巷","ALLEY":" ","HOUSE_NO":"５６號","E_COORD97":167516.64999999999,"N_COORD97":2542359.7000000002,"ADDRESS":"健康路二段５３巷５６號","OBJECTID":221324},"geometry":{"x":167516.6500000013,"y":2542359.6999999993}},{"attributes":{"ID":221326,"DIS_CODE":0,"TOWNNAME":"南區","LI":"新興里","LIN":"9鄰","STREET":"健康路","SECT":"二段","MAREA":" ","LANE":"５３巷","ALLEY":" ","HOUSE_NO":"５７號","E_COORD97":167528.10999999999,"N_COORD97":2542339.29,"ADDRESS":"健康路二段５３巷５７號","OBJECTID":221325},"geometry":{"x":167528.1100000022,"y":2542339.2899999991}},{"attributes":{"ID":221327,"DIS_CODE":0,"TOWNNAME":"南區","LI":"新興里","LIN":"9鄰","STREET":"健康路","SECT":"二段","MAREA":" ","LANE":"５３巷","ALLEY":" ","HOUSE_NO":"５８號","E_COORD97":167510.57999999999,"N_COORD97":2542358.5299999998,"ADDRESS":"健康路二段５３巷５８號","OBJECTID":221326},"geometry":{"x":167510.58000000007,"y":2542358.5300000031}},{"attributes":{"ID":221328,"DIS_CODE":0,"TOWNNAME":"南區","LI":"新興里","LIN":"9鄰","STREET":"健康路","SECT":"二段","MAREA":" ","LANE":"５３巷","ALLEY":" ","HOUSE_NO":"５９號","E_COORD97":167523.31,"N_COORD97":2542339.29,"ADDRESS":"健康路二段５３巷５９號","OBJECTID":221327},"geometry":{"x":167523.31000000052,"y":2542339.2899999991}},{"attributes":{"ID":221329,"DIS_CODE":0,"TOWNNAME":"南區","LI":"新興里","LIN":"9鄰","STREET":"健康路","SECT":"二段","MAREA":" ","LANE":"５３巷","ALLEY":" ","HOUSE_NO":"６１號","E_COORD97":167518.67000000001,"N_COORD97":2542339.4500000002,"ADDRESS":"健康路二段５３巷６１號","OBJECTID":221328},"geometry":{"x":167518.66999999899,"y":2542339.4500000011}},{"attributes":{"ID":221330,"DIS_CODE":0,"TOWNNAME":"永康區","LI":"網寮里","LIN":"19鄰","STREET":"永二街","SECT":" ","MAREA":" ","LANE":"２２９巷","ALLEY":" ","HOUSE_NO":"１２號","E_COORD97":173452.09,"N_COORD97":2546253.3599999999,"ADDRESS":"永二街２２９巷１２號","OBJECTID":221329},"geometry":{"x":173452.08999999985,"y":2546253.3600000013}},{"attributes":{"ID":221331,"DIS_CODE":0,"TOWNNAME":"南區","LI":"新興里","LIN":"9鄰","STREET":"健康路","SECT":"二段","MAREA":" ","LANE":"５３巷","ALLEY":" ","HOUSE_NO":"６３號","E_COORD97":167514.88,"N_COORD97":2542339.71,"ADDRESS":"健康路二段５３巷６３號","OBJECTID":221330},"geometry":{"x":167514.87999999989,"y":2542339.7100000028}},{"attributes":{"ID":221332,"DIS_CODE":0,"TOWNNAME":"南區","LI":"新興里","LIN":"9鄰","STREET":"健康路","SECT":"二段","MAREA":" ","LANE":"５３巷","ALLEY":" ","HOUSE_NO":"６５號","E_COORD97":167510.57999999999,"N_COORD97":2542339.1200000001,"ADDRESS":"健康路二段５３巷６５號","OBJECTID":221331},"geometry":{"x":167510.58000000007,"y":2542339.120000001}},{"attributes":{"ID":221333,"DIS_CODE":0,"TOWNNAME":"北區","LI":"三德里","LIN":"9鄰","STREET":"長北街","SECT":" ","MAREA":" ","LANE":"７４巷","ALLEY":" ","HOUSE_NO":"８號","E_COORD97":168449.04000000001,"N_COORD97":2544685.5499999998,"ADDRESS":"長北街７４巷８號","OBJECTID":221332},"geometry":{"x":168449.04000000097,"y":2544685.5499999989}},{"attributes":{"ID":221334,"DIS_CODE":0,"TOWNNAME":"永康區","LI":"復興里","LIN":"28鄰","STREET":"興國街","SECT":" ","MAREA":" ","LANE":"１８７巷","ALLEY":" ","HOUSE_NO":"５號","E_COORD97":172317.79000000001,"N_COORD97":2544838.4900000002,"ADDRESS":"興國街１８７巷５號","OBJECTID":221333},"geometry":{"x":172317.79000000097,"y":2544838.4900000039}},{"attributes":{"ID":221335,"DIS_CODE":0,"TOWNNAME":"永康區","LI":"龍潭里","LIN":"3鄰","STREET":"龍國街","SECT":" ","MAREA":" ","LANE":"２９１巷","ALLEY":" ","HOUSE_NO":"２８號","E_COORD97":174646.75,"N_COORD97":2548093.1899999999,"ADDRESS":"龍國街２９１巷２８號","OBJECTID":221334},"geometry":{"x":174646.75000000093,"y":2548093.1899999995}},{"attributes":{"ID":221336,"DIS_CODE":0,"TOWNNAME":"安平區","LI":"建平里","LIN":"28鄰","STREET":"建平八街","SECT":" ","MAREA":" ","LANE":" ","ALLEY":" ","HOUSE_NO":"６６號","E_COORD97":165996.31,"N_COORD97":2543480.3399999999,"ADDRESS":"建平八街６６號","OBJECTID":221335},"geometry":{"x":165996.30999999959,"y":2543480.3400000017}},{"attributes":{"ID":221337,"DIS_CODE":0,"TOWNNAME":"永康區","LI":"龍潭里","LIN":"2鄰","STREET":"龍潭街","SECT":" ","MAREA":" ","LANE":"８９巷","ALLEY":" ","HOUSE_NO":"１號","E_COORD97":174805.82000000001,"N_COORD97":2548078.8100000001,"ADDRESS":"龍潭街８９巷１號","OBJECTID":221336},"geometry":{"x":174805.82000000216,"y":2548078.8100000024}},{"attributes":{"ID":221338,"DIS_CODE":0,"TOWNNAME":"北區","LI":"東興里","LIN":"9鄰","STREET":"小東路","SECT":" ","MAREA":" ","LANE":"３０７巷","ALLEY":" ","HOUSE_NO":"５６號","E_COORD97":171237.5,"N_COORD97":2544554.0699999998,"ADDRESS":"小東路３０７巷５６號","OBJECTID":221337},"geometry":{"x":171237.50000000186,"y":2544554.0700000022}},{"attributes":{"ID":221339,"DIS_CODE":0,"TOWNNAME":"北區","LI":"東興里","LIN":"9鄰","STREET":"小東路","SECT":" ","MAREA":" ","LANE":"３０７巷","ALLEY":" ","HOUSE_NO":"５８號","E_COORD97":171241.59,"N_COORD97":2544555.4300000002,"ADDRESS":"小東路３０７巷５８號","OBJECTID":221338},"geometry":{"x":171241.58999999985,"y":2544555.4299999997}},{"attributes":{"ID":221340,"DIS_CODE":0,"TOWNNAME":"歸仁區","LI":"看西里","LIN":"9鄰","STREET":"仁愛五街","SECT":" ","MAREA":" ","LANE":"２巷","ALLEY":" ","HOUSE_NO":"８號","E_COORD97":178322.38,"N_COORD97":2540288.2000000002,"ADDRESS":"仁愛五街２巷８號","OBJECTID":221339},"geometry":{"x":178322.38000000175,"y":2540288.1999999993}},{"attributes":{"ID":221341,"DIS_CODE":0,"TOWNNAME":"北區","LI":"東興里","LIN":"9鄰","STREET":"小東路","SECT":" ","MAREA":" ","LANE":"３０７巷","ALLEY":" ","HOUSE_NO":"６６號","E_COORD97":171258.42000000001,"N_COORD97":2544558.7400000002,"ADDRESS":"小東路３０７巷６６號","OBJECTID":221340},"geometry":{"x":171258.42000000179,"y":2544558.7400000039}},{"attributes":{"ID":221342,"DIS_CODE":0,"TOWNNAME":"歸仁區","LI":"辜厝里","LIN":"28鄰","STREET":"大吉二街","SECT":" ","MAREA":" ","LANE":" ","ALLEY":" ","HOUSE_NO":"９號","E_COORD97":177243.69,"N_COORD97":2540549.6800000002,"ADDRESS":"大吉二街９號","OBJECTID":221341},"geometry":{"x":177243.69000000041,"y":2540549.6799999997}},{"attributes":{"ID":221343,"DIS_CODE":0,"TOWNNAME":"北區","LI":"東興里","LIN":"9鄰","STREET":"小東路","SECT":" ","MAREA":" ","LANE":"３０７巷","ALLEY":" ","HOUSE_NO":"６８號","E_COORD97":171262.89000000001,"N_COORD97":2544559.6099999999,"ADDRESS":"小東路３０７巷６８號","OBJECTID":221342},"geometry":{"x":171262.88999999966,"y":2544559.6100000013}},{"attributes":{"ID":221344,"DIS_CODE":0,"TOWNNAME":"北區","LI":"東興里","LIN":"9鄰","STREET":"小東路","SECT":" ","MAREA":" ","LANE":"３０７巷","ALLEY":" ","HOUSE_NO":"７０號","E_COORD97":171266.78,"N_COORD97":2544560.29,"ADDRESS":"小東路３０７巷７０號","OBJECTID":221343},"geometry":{"x":171266.78000000119,"y":2544560.2900000028}},{"attributes":{"ID":221345,"DIS_CODE":0,"TOWNNAME":"北區","LI":"東興里","LIN":"9鄰","STREET":"小東路","SECT":" ","MAREA":" ","LANE":"３０７巷","ALLEY":" ","HOUSE_NO":"７２號","E_COORD97":171271.35999999999,"N_COORD97":2544561.1699999999,"ADDRESS":"小東路３０７巷７２號","OBJECTID":221344},"geometry":{"x":171271.36000000127,"y":2544561.1699999999}},{"attributes":{"ID":221346,"DIS_CODE":0,"TOWNNAME":"北區","LI":"中樓里","LIN":"9鄰","STREET":"前鋒路","SECT":" ","MAREA":" ","LANE":"３０６巷","ALLEY":" ","HOUSE_NO":"１３號","E_COORD97":169639.51999999999,"N_COORD97":2545031.8399999999,"ADDRESS":"前鋒路３０６巷１３號","OBJECTID":221345},"geometry":{"x":169639.51999999955,"y":2545031.8399999999}},{"attributes":{"ID":221347,"DIS_CODE":0,"TOWNNAME":"北區","LI":"中樓里","LIN":"9鄰","STREET":"前鋒路","SECT":" ","MAREA":" ","LANE":"３０６巷","ALLEY":" ","HOUSE_NO":"１５號","E_COORD97":169650.82000000001,"N_COORD97":2545035.3700000001,"ADDRESS":"前鋒路３０６巷１５號","OBJECTID":221346},"geometry":{"x":169650.82000000123,"y":2545035.370000001}},{"attributes":{"ID":221348,"DIS_CODE":0,"TOWNNAME":"北區","LI":"中樓里","LIN":"9鄰","STREET":"前鋒路","SECT":" ","MAREA":" ","LANE":"３０６巷","ALLEY":" ","HOUSE_NO":"１７號","E_COORD97":169661.88,"N_COORD97":2545038.5699999998,"ADDRESS":"前鋒路３０６巷１７號","OBJECTID":221347},"geometry":{"x":169661.88000000082,"y":2545038.5700000022}},{"attributes":{"ID":221349,"DIS_CODE":0,"TOWNNAME":"北區","LI":"中樓里","LIN":"9鄰","STREET":"前鋒路","SECT":" ","MAREA":" ","LANE":"３０６巷","ALLEY":" ","HOUSE_NO":"１號","E_COORD97":169612.42000000001,"N_COORD97":2545037.0499999998,"ADDRESS":"前鋒路３０６巷１號","OBJECTID":221348},"geometry":{"x":169612.42000000179,"y":2545037.0500000007}},{"attributes":{"ID":221350,"DIS_CODE":0,"TOWNNAME":"北區","LI":"中樓里","LIN":"9鄰","STREET":"前鋒路","SECT":" ","MAREA":" ","LANE":"３０６巷","ALLEY":" ","HOUSE_NO":"２３號","E_COORD97":169669.88,"N_COORD97":2545040.54,"ADDRESS":"前鋒路３０６巷２３號","OBJECTID":221349},"geometry":{"x":169669.87999999989,"y":2545040.540000001}},{"attributes":{"ID":221351,"DIS_CODE":0,"TOWNNAME":"北區","LI":"中樓里","LIN":"9鄰","STREET":"前鋒路","SECT":" ","MAREA":" ","LANE":"３０６巷","ALLEY":" ","HOUSE_NO":"３號","E_COORD97":169618.23999999999,"N_COORD97":2545024.0499999998,"ADDRESS":"前鋒路３０６巷３號","OBJECTID":221350},"geometry":{"x":169618.24000000022,"y":2545024.0500000007}},{"attributes":{"ID":221352,"DIS_CODE":0,"TOWNNAME":"北區","LI":"中樓里","LIN":"9鄰","STREET":"前鋒路","SECT":" ","MAREA":" ","LANE":"３０６巷","ALLEY":" ","HOUSE_NO":"５號","E_COORD97":169622.32999999999,"N_COORD97":2545024.4300000002,"ADDRESS":"前鋒路３０６巷５號","OBJECTID":221351},"geometry":{"x":169622.33000000101,"y":2545024.4299999978}},{"attributes":{"ID":221353,"DIS_CODE":0,"TOWNNAME":"北區","LI":"中樓里","LIN":"9鄰","STREET":"前鋒路","SECT":" ","MAREA":" ","LANE":"３０６巷","ALLEY":" ","HOUSE_NO":"７號","E_COORD97":169627.17000000001,"N_COORD97":2545028.6600000001,"ADDRESS":"前鋒路３０６巷７號","OBJECTID":221352},"geometry":{"x":169627.16999999993,"y":2545028.6600000001}},{"attributes":{"ID":221354,"DIS_CODE":0,"TOWNNAME":"北區","LI":"中樓里","LIN":"9鄰","STREET":"前鋒路","SECT":" ","MAREA":" ","LANE":"３０６巷","ALLEY":" ","HOUSE_NO":"９號","E_COORD97":169634.41,"N_COORD97":2545029.9500000002,"ADDRESS":"前鋒路３０６巷９號","OBJECTID":221353},"geometry":{"x":169634.41000000015,"y":2545029.9499999993}},{"attributes":{"ID":221355,"DIS_CODE":0,"TOWNNAME":"永康區","LI":"龍潭里","LIN":"44鄰","STREET":"永平街","SECT":" ","MAREA":" ","LANE":"２９８巷","ALLEY":" ","HOUSE_NO":"３之８號","E_COORD97":174660.16,"N_COORD97":2547120.04,"ADDRESS":"永平街２９８巷３之８號","OBJECTID":221354},"geometry":{"x":174660.16000000015,"y":2547120.040000001}},{"attributes":{"ID":221356,"DIS_CODE":0,"TOWNNAME":"永康區","LI":"龍潭里","LIN":"44鄰","STREET":"永平街","SECT":" ","MAREA":" ","LANE":"２９８巷","ALLEY":" ","HOUSE_NO":"１１之３號","E_COORD97":174653.62,"N_COORD97":2547150.1899999999,"ADDRESS":"永平街２９８巷１１之３號","OBJECTID":221355},"geometry":{"x":174653.62000000011,"y":2547150.1899999995}},{"attributes":{"ID":221357,"DIS_CODE":0,"TOWNNAME":"歸仁區","LI":"崙頂里","LIN":"28鄰","STREET":"成功十街","SECT":" ","MAREA":" ","LANE":" ","ALLEY":" ","HOUSE_NO":"４０號","E_COORD97":177807.31,"N_COORD97":2539668.8199999998,"ADDRESS":"成功十街４０號","OBJECTID":221356},"geometry":{"x":177807.31000000145,"y":2539668.8200000003}},{"attributes":{"ID":221358,"DIS_CODE":0,"TOWNNAME":"北區","LI":"中樓里","LIN":"9鄰","STREET":"前鋒路","SECT":" ","MAREA":" ","LANE":"３０６巷","ALLEY":" ","HOUSE_NO":"１２號","E_COORD97":169612.64999999999,"N_COORD97":2545017.6400000001,"ADDRESS":"前鋒路３０６巷１２號","OBJECTID":221357},"geometry":{"x":169612.65000000037,"y":2545017.6400000025}},{"attributes":{"ID":221359,"DIS_CODE":0,"TOWNNAME":"北區","LI":"中樓里","LIN":"9鄰","STREET":"前鋒路","SECT":" ","MAREA":" ","LANE":"３０６巷","ALLEY":" ","HOUSE_NO":"１４號","E_COORD97":169619.98000000001,"N_COORD97":2545018.3900000001,"ADDRESS":"前鋒路３０６巷１４號","OBJECTID":221358},"geometry":{"x":169619.98000000138,"y":2545018.3900000006}},{"attributes":{"ID":221360,"DIS_CODE":0,"TOWNNAME":"北區","LI":"中樓里","LIN":"9鄰","STREET":"前鋒路","SECT":" ","MAREA":" ","LANE":"３０６巷","ALLEY":" ","HOUSE_NO":"１６號","E_COORD97":169624.98000000001,"N_COORD97":2545018.77,"ADDRESS":"前鋒路３０６巷１６號","OBJECTID":221359},"geometry":{"x":169624.98000000138,"y":2545018.7700000033}},{"attributes":{"ID":221361,"DIS_CODE":0,"TOWNNAME":"北區","LI":"中樓里","LIN":"9鄰","STREET":"前鋒路","SECT":" ","MAREA":" ","LANE":"３０６巷","ALLEY":" ","HOUSE_NO":"２４號","E_COORD97":169655.63,"N_COORD97":2545027.6899999999,"ADDRESS":"前鋒路３０６巷２４號","OBJECTID":221360},"geometry":{"x":169655.63000000082,"y":2545027.6899999995}},{"attributes":{"ID":221362,"DIS_CODE":0,"TOWNNAME":"北區","LI":"中樓里","LIN":"9鄰","STREET":"前鋒路","SECT":" ","MAREA":" ","LANE":"３０６巷","ALLEY":" ","HOUSE_NO":"２６號","E_COORD97":169661.88,"N_COORD97":2545030.2599999998,"ADDRESS":"前鋒路３０６巷２６號","OBJECTID":221361},"geometry":{"x":169661.88000000082,"y":2545030.2600000016}},{"attributes":{"ID":221363,"DIS_CODE":0,"TOWNNAME":"北區","LI":"中樓里","LIN":"9鄰","STREET":"前鋒路","SECT":" ","MAREA":" ","LANE":"３０６巷","ALLEY":" ","HOUSE_NO":"２８號","E_COORD97":169668.20999999999,"N_COORD97":2545032.5,"ADDRESS":"前鋒路３０６巷２８號","OBJECTID":221362},"geometry":{"x":169668.21000000089,"y":2545032.5000000019}},{"attributes":{"ID":221364,"DIS_CODE":0,"TOWNNAME":"北區","LI":"中樓里","LIN":"9鄰","STREET":"前鋒路","SECT":" ","MAREA":" ","LANE":"３０６巷","ALLEY":" ","HOUSE_NO":"２號","E_COORD97":169579.91,"N_COORD97":2545004.9399999999,"ADDRESS":"前鋒路３０６巷２號","OBJECTID":221363},"geometry":{"x":169579.91000000015,"y":2545004.9400000013}},{"attributes":{"ID":221365,"DIS_CODE":0,"TOWNNAME":"北區","LI":"中樓里","LIN":"9鄰","STREET":"前鋒路","SECT":" ","MAREA":" ","LANE":"３０６巷","ALLEY":" ","HOUSE_NO":"３０號","E_COORD97":169672.70000000001,"N_COORD97":2545034.1800000002,"ADDRESS":"前鋒路３０６巷３０號","OBJECTID":221364},"geometry":{"x":169672.70000000019,"y":2545034.1800000016}},{"attributes":{"ID":221366,"DIS_CODE":0,"TOWNNAME":"永康區","LI":"復興里","LIN":"28鄰","STREET":"興國街","SECT":" ","MAREA":" ","LANE":"１８２巷","ALLEY":" ","HOUSE_NO":"９號","E_COORD97":172378.23000000001,"N_COORD97":2544935.4900000002,"ADDRESS":"興國街１８２巷９號","OBJECTID":221365},"geometry":{"x":172378.23000000045,"y":2544935.4900000002}},{"attributes":{"ID":221367,"DIS_CODE":0,"TOWNNAME":"永康區","LI":"龍潭里","LIN":"23鄰","STREET":"自強路","SECT":" ","MAREA":" ","LANE":"７５０巷","ALLEY":" ","HOUSE_NO":"３８號","E_COORD97":174482.60999999999,"N_COORD97":2548462.8799999999,"ADDRESS":"自強路７５０巷３８號","OBJECTID":221366},"geometry":{"x":174482.61000000034,"y":2548462.8800000008}},{"attributes":{"ID":221368,"DIS_CODE":0,"TOWNNAME":"歸仁區","LI":"武東里","LIN":"9鄰","STREET":"武東三街","SECT":" ","MAREA":" ","LANE":"５７巷","ALLEY":" ","HOUSE_NO":"１２號","E_COORD97":175110.69,"N_COORD97":2535210.25,"ADDRESS":"武東三街５７巷１２號","OBJECTID":221367},"geometry":{"x":175110.69000000134,"y":2535210.25}},{"attributes":{"ID":221369,"DIS_CODE":0,"TOWNNAME":"歸仁區","LI":"文化里","LIN":"9鄰","STREET":"民權一街","SECT":" ","MAREA":" ","LANE":"２５巷","ALLEY":" ","HOUSE_NO":"３號","E_COORD97":177122.25,"N_COORD97":2541385.3300000001,"ADDRESS":"民權一街２５巷３號","OBJECTID":221368},"geometry":{"x":177122.25000000093,"y":2541385.3300000019}},{"attributes":{"ID":221370,"DIS_CODE":0,"TOWNNAME":"歸仁區","LI":"六甲里","LIN":"9鄰","STREET":"凱旋路","SECT":"二段","MAREA":" ","LANE":"２５２巷","ALLEY":" ","HOUSE_NO":"８５號","E_COORD97":177043.82999999999,"N_COORD97":2539732.25,"ADDRESS":"凱旋路二段２５２巷８５號","OBJECTID":221369},"geometry":{"x":177043.83000000101,"y":2539732.25}},{"attributes":{"ID":221371,"DIS_CODE":0,"TOWNNAME":"中西區","LI":"法華里","LIN":"18鄰","STREET":"健康路","SECT":"一段","MAREA":" ","LANE":" ","ALLEY":" ","HOUSE_NO":"１２０號","E_COORD97":168857.39999999999,"N_COORD97":2542445.0899999999,"ADDRESS":"健康路一段１２０號","OBJECTID":221370},"geometry":{"x":168857.4000000013,"y":2542445.0900000017}},{"attributes":{"ID":221372,"DIS_CODE":0,"TOWNNAME":"中西區","LI":"法華里","LIN":"17鄰","STREET":"法華街","SECT":" ","MAREA":" ","LANE":" ","ALLEY":" ","HOUSE_NO":"１９２號","E_COORD97":168860.54999999999,"N_COORD97":2542477.3199999998,"ADDRESS":"法華街１９２號","OBJECTID":221371},"geometry":{"x":168860.55000000075,"y":2542477.3200000022}},{"attributes":{"ID":221373,"DIS_CODE":0,"TOWNNAME":"中西區","LI":"法華里","LIN":"17鄰","STREET":"法華街","SECT":" ","MAREA":" ","LANE":" ","ALLEY":" ","HOUSE_NO":"１９６號","E_COORD97":168854.25,"N_COORD97":2542476.9199999999,"ADDRESS":"法華街１９６號","OBJECTID":221372},"geometry":{"x":168854.25000000093,"y":2542476.9200000018}},{"attributes":{"ID":221374,"DIS_CODE":0,"TOWNNAME":"玉井區","LI":"玉井里","LIN":"9鄰","STREET":"中正路","SECT":" ","MAREA":" ","LANE":"５１巷","ALLEY":" ","HOUSE_NO":"１０號","E_COORD97":194798.85000000001,"N_COORD97":2558223.25,"ADDRESS":"中正路５１巷１０號","OBJECTID":221373},"geometry":{"x":194798.84999999963,"y":2558223.25}},{"attributes":{"ID":221375,"DIS_CODE":0,"TOWNNAME":"玉井區","LI":"玉井里","LIN":"9鄰","STREET":"中正路","SECT":" ","MAREA":" ","LANE":"５１巷","ALLEY":" ","HOUSE_NO":"１號","E_COORD97":194788.20999999999,"N_COORD97":2558181.2400000002,"ADDRESS":"中正路５１巷１號","OBJECTID":221374},"geometry":{"x":194788.20999999996,"y":2558181.2400000039}},{"attributes":{"ID":221376,"DIS_CODE":0,"TOWNNAME":"永康區","LI":"龍潭里","LIN":"38鄰","STREET":"中山北路","SECT":" ","MAREA":" ","LANE":"１６４巷","ALLEY":" ","HOUSE_NO":"８２號之１９","E_COORD97":174451.37,"N_COORD97":2547386.9199999999,"ADDRESS":"中山北路１６４巷８２號之１９","OBJECTID":221375},"geometry":{"x":174451.37000000104,"y":2547386.9199999999}},{"attributes":{"ID":221377,"DIS_CODE":0,"TOWNNAME":"永康區","LI":"網寮里","LIN":"19鄰","STREET":"永二街","SECT":" ","MAREA":" ","LANE":"２２９巷","ALLEY":" ","HOUSE_NO":"７號","E_COORD97":173429.14999999999,"N_COORD97":2546233.75,"ADDRESS":"永二街２２９巷７號","OBJECTID":221376},"geometry":{"x":173429.1500000013,"y":2546233.7500000019}},{"attributes":{"ID":221378,"DIS_CODE":0,"TOWNNAME":"永康區","LI":"網寮里","LIN":"8鄰","STREET":"永二街","SECT":" ","MAREA":" ","LANE":"２４４巷","ALLEY":" ","HOUSE_NO":"１號之１０","E_COORD97":173253.66,"N_COORD97":2546379.46,"ADDRESS":"永二街２４４巷１號之１０","OBJECTID":221377},"geometry":{"x":173253.66000000015,"y":2546379.4600000028}},{"attributes":{"ID":221379,"DIS_CODE":0,"TOWNNAME":"永康區","LI":"龍潭里","LIN":"44鄰","STREET":"永平街","SECT":" ","MAREA":" ","LANE":"２９８巷","ALLEY":" ","HOUSE_NO":"９之６號","E_COORD97":174662.76000000001,"N_COORD97":2547194.6000000001,"ADDRESS":"永平街２９８巷９之６號","OBJECTID":221378},"geometry":{"x":174662.75999999978,"y":2547194.6000000015}},{"attributes":{"ID":221380,"DIS_CODE":0,"TOWNNAME":"永康區","LI":"龍潭里","LIN":"14鄰","STREET":"龍中街","SECT":" ","MAREA":" ","LANE":"１７６巷","ALLEY":" ","HOUSE_NO":"６號","E_COORD97":174440.76000000001,"N_COORD97":2548366.9199999999,"ADDRESS":"龍中街１７６巷６號","OBJECTID":221379},"geometry":{"x":174440.75999999978,"y":2548366.9199999999}},{"attributes":{"ID":221381,"DIS_CODE":0,"TOWNNAME":"永康區","LI":"龍潭里","LIN":"44鄰","STREET":"永平街","SECT":" ","MAREA":" ","LANE":"２９８巷","ALLEY":" ","HOUSE_NO":"８之８號","E_COORD97":174660.16,"N_COORD97":2547120.04,"ADDRESS":"永平街２９８巷８之８號","OBJECTID":221380},"geometry":{"x":174660.16000000015,"y":2547120.040000001}},{"attributes":{"ID":221382,"DIS_CODE":0,"TOWNNAME":"永康區","LI":"蔦松里","LIN":"9鄰","STREET":"正北三路","SECT":" ","MAREA":" ","LANE":"１１３巷","ALLEY":" ","HOUSE_NO":"１６號","E_COORD97":174322.64999999999,"N_COORD97":2549968.5,"ADDRESS":"正北三路１１３巷１６號","OBJECTID":221381},"geometry":{"x":174322.6500000013,"y":2549968.5000000019}},{"attributes":{"ID":221383,"DIS_CODE":0,"TOWNNAME":"學甲區","LI":"慈福里","LIN":"9鄰","STREET":"民族路","SECT":" ","MAREA":" ","LANE":"１１巷","ALLEY":" ","HOUSE_NO":"１號","E_COORD97":166536,"N_COORD97":2570018.1400000001,"ADDRESS":"民族路１１巷１號","OBJECTID":221382},"geometry":{"x":166536,"y":2570018.1400000043}},{"attributes":{"ID":221384,"DIS_CODE":0,"TOWNNAME":"永康區","LI":"龍潭里","LIN":"23鄰","STREET":"自強路","SECT":" ","MAREA":" ","LANE":"７５０巷","ALLEY":" ","HOUSE_NO":"７２號","E_COORD97":174587.79999999999,"N_COORD97":2548457.1899999999,"ADDRESS":"自強路７５０巷７２號","OBJECTID":221383},"geometry":{"x":174587.79999999981,"y":2548457.1900000032}},{"attributes":{"ID":221385,"DIS_CODE":0,"TOWNNAME":"學甲區","LI":"慈福里","LIN":"9鄰","STREET":"建國東路","SECT":" ","MAREA":" ","LANE":"１８５巷","ALLEY":" ","HOUSE_NO":"２２號","E_COORD97":166663.42999999999,"N_COORD97":2569918.9100000001,"ADDRESS":"建國東路１８５巷２２號","OBJECTID":221384},"geometry":{"x":166663.4299999997,"y":2569918.910000002}},{"attributes":{"ID":221386,"DIS_CODE":0,"TOWNNAME":"學甲區","LI":"慈福里","LIN":"9鄰","STREET":"建國東路","SECT":" ","MAREA":" ","LANE":"１８５巷","ALLEY":" ","HOUSE_NO":"２６號","E_COORD97":166678.42999999999,"N_COORD97":2569917.7400000002,"ADDRESS":"建國東路１８５巷２６號","OBJECTID":221385},"geometry":{"x":166678.43000000063,"y":2569917.7400000002}},{"attributes":{"ID":221387,"DIS_CODE":0,"TOWNNAME":"永康區","LI":"龍潭里","LIN":"23鄰","STREET":"自強路","SECT":" ","MAREA":" ","LANE":"７５０巷","ALLEY":" ","HOUSE_NO":"５４號","E_COORD97":174521.98999999999,"N_COORD97":2548464.04,"ADDRESS":"自強路７５０巷５４號","OBJECTID":221386},"geometry":{"x":174521.99000000115,"y":2548464.0399999991}},{"attributes":{"ID":221388,"DIS_CODE":0,"TOWNNAME":"中西區","LI":"協和里","LIN":"1鄰","STREET":"文賢路","SECT":" ","MAREA":" ","LANE":" ","ALLEY":" ","HOUSE_NO":"１１３號","E_COORD97":167415.92999999999,"N_COORD97":2544683.8300000001,"ADDRESS":"文賢路１１３號","OBJECTID":221387},"geometry":{"x":167415.9299999997,"y":2544683.8300000019}},{"attributes":{"ID":221389,"DIS_CODE":0,"TOWNNAME":"中西區","LI":"協和里","LIN":"1鄰","STREET":"文賢路","SECT":" ","MAREA":" ","LANE":" ","ALLEY":" ","HOUSE_NO":"８５號","E_COORD97":167401.82000000001,"N_COORD97":2544630.7999999998,"ADDRESS":"文賢路８５號","OBJECTID":221388},"geometry":{"x":167401.82000000123,"y":2544630.8000000026}},{"attributes":{"ID":221390,"DIS_CODE":0,"TOWNNAME":"中西區","LI":"協和里","LIN":"1鄰","STREET":"文賢路","SECT":" ","MAREA":" ","LANE":" ","ALLEY":" ","HOUSE_NO":"８７號","E_COORD97":167402.64000000001,"N_COORD97":2544633.8300000001,"ADDRESS":"文賢路８７號","OBJECTID":221389},"geometry":{"x":167402.63999999966,"y":2544633.8300000019}},{"attributes":{"ID":221391,"DIS_CODE":0,"TOWNNAME":"中西區","LI":"協和里","LIN":"1鄰","STREET":"文賢路","SECT":" ","MAREA":" ","LANE":" ","ALLEY":" ","HOUSE_NO":"８９號","E_COORD97":167403.45000000001,"N_COORD97":2544636.3799999999,"ADDRESS":"文賢路８９號","OBJECTID":221390},"geometry":{"x":167403.44999999925,"y":2544636.379999999}},{"attributes":{"ID":221392,"DIS_CODE":0,"TOWNNAME":"中西區","LI":"協和里","LIN":"1鄰","STREET":"文賢路","SECT":" ","MAREA":" ","LANE":" ","ALLEY":" ","HOUSE_NO":"９１號","E_COORD97":167405.20999999999,"N_COORD97":2544639.2400000002,"ADDRESS":"文賢路９１號","OBJECTID":221391},"geometry":{"x":167405.21000000089,"y":2544639.2400000002}},{"attributes":{"ID":221393,"DIS_CODE":0,"TOWNNAME":"中西區","LI":"協和里","LIN":"1鄰","STREET":"文賢路","SECT":" ","MAREA":" ","LANE":" ","ALLEY":" ","HOUSE_NO":"９３號","E_COORD97":167408.35000000001,"N_COORD97":2544645.75,"ADDRESS":"文賢路９３號","OBJECTID":221392},"geometry":{"x":167408.34999999963,"y":2544645.75}},{"attributes":{"ID":221394,"DIS_CODE":0,"TOWNNAME":"中西區","LI":"協和里","LIN":"1鄰","STREET":"文賢路","SECT":" ","MAREA":" ","LANE":" ","ALLEY":" ","HOUSE_NO":"９９號","E_COORD97":167407.54000000001,"N_COORD97":2544655.1600000001,"ADDRESS":"文賢路９９號","OBJECTID":221393},"geometry":{"x":167407.54000000004,"y":2544655.160000002}},{"attributes":{"ID":221395,"DIS_CODE":0,"TOWNNAME":"中西區","LI":"安海里","LIN":"1鄰","STREET":"康樂街","SECT":" ","MAREA":" ","LANE":" ","ALLEY":" ","HOUSE_NO":"２４７號","E_COORD97":167482.12,"N_COORD97":2544010.7000000002,"ADDRESS":"康樂街２４７號","OBJECTID":221394},"geometry":{"x":167482.12000000104,"y":2544010.6999999993}},{"attributes":{"ID":221396,"DIS_CODE":0,"TOWNNAME":"中西區","LI":"協和里","LIN":"1鄰","STREET":"文賢路","SECT":" ","MAREA":" ","LANE":" ","ALLEY":" ","HOUSE_NO":"９１號之１","E_COORD97":167407.19,"N_COORD97":2544642.2599999998,"ADDRESS":"文賢路９１號之１","OBJECTID":221395},"geometry":{"x":167407.19000000227,"y":2544642.2599999998}},{"attributes":{"ID":221397,"DIS_CODE":0,"TOWNNAME":"中西區","LI":"安海里","LIN":"1鄰","STREET":"康樂街","SECT":" ","MAREA":" ","LANE":" ","ALLEY":" ","HOUSE_NO":"２４９號","E_COORD97":167484.37,"N_COORD97":2544016.8900000001,"ADDRESS":"康樂街２４９號","OBJECTID":221396},"geometry":{"x":167484.37000000104,"y":2544016.8900000025}},{"attributes":{"ID":221398,"DIS_CODE":0,"TOWNNAME":"中西區","LI":"安海里","LIN":"1鄰","STREET":"康樂街","SECT":" ","MAREA":" ","LANE":" ","ALLEY":" ","HOUSE_NO":"２３７號","E_COORD97":167469.16,"N_COORD97":2543981.79,"ADDRESS":"康樂街２３７號","OBJECTID":221397},"geometry":{"x":167469.16000000015,"y":2543981.790000001}},{"attributes":{"ID":221399,"DIS_CODE":0,"TOWNNAME":"中西區","LI":"法華里","LIN":"20鄰","STREET":"健康路","SECT":"一段","MAREA":" ","LANE":" ","ALLEY":" ","HOUSE_NO":"１６２號","E_COORD97":168731.56,"N_COORD97":2542450.0099999998,"ADDRESS":"健康路一段１６２號","OBJECTID":221398},"geometry":{"x":168731.56000000052,"y":2542450.0099999998}},{"attributes":{"ID":221400,"DIS_CODE":0,"TOWNNAME":"新營區","LI":"三仙里","LIN":"28鄰","STREET":"育德街","SECT":" ","MAREA":" ","LANE":" ","ALLEY":" ","HOUSE_NO":"５０號","E_COORD97":179600.35999999999,"N_COORD97":2579094,"ADDRESS":"育德街５０號","OBJECTID":221399},"geometry":{"x":179600.36000000034,"y":2579094}},{"attributes":{"ID":221401,"DIS_CODE":0,"TOWNNAME":"善化區","LI":"南關里","LIN":"13鄰","STREET":"自由路","SECT":" ","MAREA":" ","LANE":" ","ALLEY":" ","HOUSE_NO":"１９４號","E_COORD97":176922.14000000001,"N_COORD97":2558923.5,"ADDRESS":"自由路１９４號","OBJECTID":221400},"geometry":{"x":176922.1400000006,"y":2558923.5}}]}