{"displayFieldName":"TOWNNAME","fieldAliases":{"ID":"ID","DIS_CODE":"DIS_CODE","TOWNNAME":"TOWNNAME","LI":"LI","LIN":"LIN","STREET":"STREET","SECT":"SECT","MAREA":"MAREA","LANE":"LANE","ALLEY":"ALLEY","HOUSE_NO":"HOUSE_NO","E_COORD97":"E_COORD97","N_COORD97":"N_COORD97","ADDRESS":"ADDRESS","OBJECTID":"OBJECTID"},"geometryType":"esriGeometryPoint","spatialReference":{"wkid":102443,"latestWkid":3826},"fields":[{"name":"ID","type":"esriFieldTypeDouble","alias":"ID"},{"name":"DIS_CODE","type":"esriFieldTypeInteger","alias":"DIS_CODE"},{"name":"TOWNNAME","type":"esriFieldTypeString","alias":"TOWNNAME","length":8},{"name":"LI","type":"esriFieldTypeString","alias":"LI","length":8},{"name":"LIN","type":"esriFieldTypeString","alias":"LIN","length":12},{"name":"STREET","type":"esriFieldTypeString","alias":"STREET","length":20},{"name":"SECT","type":"esriFieldTypeString","alias":"SECT","length":8},{"name":"MAREA","type":"esriFieldTypeString","alias":"MAREA","length":12},{"name":"LANE","type":"esriFieldTypeString","alias":"LANE","length":10},{"name":"ALLEY","type":"esriFieldTypeString","alias":"ALLEY","length":10},{"name":"HOUSE_NO","type":"esriFieldTypeString","alias":"HOUSE_NO","length":20},{"name":"E_COORD97","type":"esriFieldTypeDouble","alias":"E_COORD97"},{"name":"N_COORD97","type":"esriFieldTypeDouble","alias":"N_COORD97"},{"name":"ADDRESS","type":"esriFieldTypeString","alias":"ADDRESS","length":50},{"name":"OBJECTID","type":"esriFieldTypeOID","alias":"OBJECTID"}],"features":[{"attributes":{"ID":2401,"DIS_CODE":0,"TOWNNAME":"安南區","LI":"安西里","LIN":"12鄰","STREET":"安通一街","SECT":" ","MAREA":" ","LANE":" ","ALLEY":" ","HOUSE_NO":"１５號","E_COORD97":168808.67000000001,"N_COORD97":2547812.23,"ADDRESS":"安通一街１５號","OBJECTID":2401},"geometry":{"x":168808.66999999899,"y":2547812.2300000004}},{"attributes":{"ID":2402,"DIS_CODE":0,"TOWNNAME":"安南區","LI":"安西里","LIN":"12鄰","STREET":"安通一街","SECT":" ","MAREA":" ","LANE":" ","ALLEY":" ","HOUSE_NO":"１７號","E_COORD97":168808.07999999999,"N_COORD97":2547817.54,"ADDRESS":"安通一街１７號","OBJECTID":2402},"geometry":{"x":168808.08000000101,"y":2547817.540000001}},{"attributes":{"ID":2403,"DIS_CODE":0,"TOWNNAME":"安南區","LI":"安西里","LIN":"12鄰","STREET":"安通一街","SECT":" ","MAREA":" ","LANE":" ","ALLEY":" ","HOUSE_NO":"１９號","E_COORD97":168808.07999999999,"N_COORD97":2547822.5699999998,"ADDRESS":"安通一街１９號","OBJECTID":2403},"geometry":{"x":168808.08000000101,"y":2547822.5700000022}},{"attributes":{"ID":2404,"DIS_CODE":0,"TOWNNAME":"鹽水區","LI":"岸內里","LIN":"8鄰","STREET":"和平路","SECT":" ","MAREA":" ","LANE":" ","ALLEY":" ","HOUSE_NO":"５７６號","E_COORD97":174830.01999999999,"N_COORD97":2580562.1400000001,"ADDRESS":"和平路５７６號","OBJECTID":2404},"geometry":{"x":174830.01999999955,"y":2580562.1400000043}},{"attributes":{"ID":2405,"DIS_CODE":0,"TOWNNAME":"鹽水區","LI":"岸內里","LIN":"8鄰","STREET":"和平路","SECT":" ","MAREA":" ","LANE":" ","ALLEY":" ","HOUSE_NO":"５７８號","E_COORD97":174825.85000000001,"N_COORD97":2580562.1200000001,"ADDRESS":"和平路５７８號","OBJECTID":2405},"geometry":{"x":174825.85000000056,"y":2580562.120000001}},{"attributes":{"ID":2406,"DIS_CODE":0,"TOWNNAME":"鹽水區","LI":"岸內里","LIN":"8鄰","STREET":"和平路","SECT":" ","MAREA":" ","LANE":" ","ALLEY":" ","HOUSE_NO":"５８０號","E_COORD97":174821.07000000001,"N_COORD97":2580561.5800000001,"ADDRESS":"和平路５８０號","OBJECTID":2406},"geometry":{"x":174821.07000000216,"y":2580561.5800000001}},{"attributes":{"ID":2407,"DIS_CODE":0,"TOWNNAME":"鹽水區","LI":"岸內里","LIN":"8鄰","STREET":"和平路","SECT":" ","MAREA":" ","LANE":" ","ALLEY":" ","HOUSE_NO":"５８２號","E_COORD97":174815.70000000001,"N_COORD97":2580561.6000000001,"ADDRESS":"和平路５８２號","OBJECTID":2407},"geometry":{"x":174815.70000000112,"y":2580561.6000000015}},{"attributes":{"ID":2408,"DIS_CODE":0,"TOWNNAME":"鹽水區","LI":"岸內里","LIN":"8鄰","STREET":"和平路","SECT":" ","MAREA":" ","LANE":" ","ALLEY":" ","HOUSE_NO":"５９２號","E_COORD97":174796.17000000001,"N_COORD97":2580563.0099999998,"ADDRESS":"和平路５９２號","OBJECTID":2408},"geometry":{"x":174796.17000000179,"y":2580563.0100000016}},{"attributes":{"ID":2409,"DIS_CODE":0,"TOWNNAME":"鹽水區","LI":"岸內里","LIN":"8鄰","STREET":"和平路","SECT":" ","MAREA":" ","LANE":" ","ALLEY":" ","HOUSE_NO":"６０６號","E_COORD97":174772.26000000001,"N_COORD97":2580559.5899999999,"ADDRESS":"和平路６０６號","OBJECTID":2409},"geometry":{"x":174772.26000000071,"y":2580559.5900000017}},{"attributes":{"ID":2410,"DIS_CODE":0,"TOWNNAME":"鹽水區","LI":"岸內里","LIN":"8鄰","STREET":"和平路","SECT":" ","MAREA":" ","LANE":" ","ALLEY":" ","HOUSE_NO":"６１２號","E_COORD97":174755.67999999999,"N_COORD97":2580552.46,"ADDRESS":"和平路６１２號","OBJECTID":2410},"geometry":{"x":174755.68000000063,"y":2580552.4600000009}},{"attributes":{"ID":2411,"DIS_CODE":0,"TOWNNAME":"鹽水區","LI":"岸內里","LIN":"8鄰","STREET":"和平路","SECT":" ","MAREA":" ","LANE":" ","ALLEY":" ","HOUSE_NO":"６１８號","E_COORD97":174747.09,"N_COORD97":2580556.52,"ADDRESS":"和平路６１８號","OBJECTID":2411},"geometry":{"x":174747.08999999985,"y":2580556.5200000014}},{"attributes":{"ID":2412,"DIS_CODE":0,"TOWNNAME":"鹽水區","LI":"岸內里","LIN":"8鄰","STREET":"和平路","SECT":" ","MAREA":" ","LANE":" ","ALLEY":" ","HOUSE_NO":"６２０號","E_COORD97":174742.44,"N_COORD97":2580556.4399999999,"ADDRESS":"和平路６２０號","OBJECTID":2412},"geometry":{"x":174742.44000000227,"y":2580556.4400000013}},{"attributes":{"ID":2413,"DIS_CODE":0,"TOWNNAME":"鹽水區","LI":"岸內里","LIN":"8鄰","STREET":"和平路","SECT":" ","MAREA":" ","LANE":" ","ALLEY":" ","HOUSE_NO":"６２２號","E_COORD97":174737.78,"N_COORD97":2580556.3599999999,"ADDRESS":"和平路６２２號","OBJECTID":2413},"geometry":{"x":174737.78000000026,"y":2580556.3600000013}},{"attributes":{"ID":2414,"DIS_CODE":0,"TOWNNAME":"鹽水區","LI":"岸內里","LIN":"8鄰","STREET":"和平路","SECT":" ","MAREA":" ","LANE":" ","ALLEY":" ","HOUSE_NO":"６２６號","E_COORD97":174733.13,"N_COORD97":2580556.29,"ADDRESS":"和平路６２６號","OBJECTID":2414},"geometry":{"x":174733.12999999989,"y":2580556.2900000028}},{"attributes":{"ID":2415,"DIS_CODE":0,"TOWNNAME":"鹽水區","LI":"岸內里","LIN":"8鄰","STREET":"和平路","SECT":" ","MAREA":" ","LANE":" ","ALLEY":" ","HOUSE_NO":"６２８號","E_COORD97":174728.47,"N_COORD97":2580556.21,"ADDRESS":"和平路６２８號","OBJECTID":2415},"geometry":{"x":174728.47000000067,"y":2580556.2100000028}},{"attributes":{"ID":2416,"DIS_CODE":0,"TOWNNAME":"鹽水區","LI":"岸內里","LIN":"8鄰","STREET":"和平路","SECT":" ","MAREA":" ","LANE":" ","ALLEY":" ","HOUSE_NO":"６３０號","E_COORD97":174723.82000000001,"N_COORD97":2580556.1299999999,"ADDRESS":"和平路６３０號","OBJECTID":2416},"geometry":{"x":174723.8200000003,"y":2580556.129999999}},{"attributes":{"ID":2417,"DIS_CODE":0,"TOWNNAME":"鹽水區","LI":"岸內里","LIN":"9鄰","STREET":"和平路","SECT":" ","MAREA":" ","LANE":" ","ALLEY":" ","HOUSE_NO":"６３８號","E_COORD97":174707.64000000001,"N_COORD97":2580555.1200000001,"ADDRESS":"和平路６３８號","OBJECTID":2417},"geometry":{"x":174707.63999999966,"y":2580555.120000001}},{"attributes":{"ID":2418,"DIS_CODE":0,"TOWNNAME":"鹽水區","LI":"岸內里","LIN":"9鄰","STREET":"和平路","SECT":" ","MAREA":" ","LANE":" ","ALLEY":" ","HOUSE_NO":"６４０號","E_COORD97":174703.03,"N_COORD97":2580554.9100000001,"ADDRESS":"和平路６４０號","OBJECTID":2418},"geometry":{"x":174703.03000000119,"y":2580554.9100000001}},{"attributes":{"ID":2419,"DIS_CODE":0,"TOWNNAME":"鹽水區","LI":"岸內里","LIN":"9鄰","STREET":"和平路","SECT":" ","MAREA":" ","LANE":" ","ALLEY":" ","HOUSE_NO":"６４２號","E_COORD97":174698.42000000001,"N_COORD97":2580554.7000000002,"ADDRESS":"和平路６４２號","OBJECTID":2419},"geometry":{"x":174698.42000000086,"y":2580554.7000000011}},{"attributes":{"ID":2420,"DIS_CODE":0,"TOWNNAME":"鹽水區","LI":"岸內里","LIN":"9鄰","STREET":"和平路","SECT":" ","MAREA":" ","LANE":" ","ALLEY":" ","HOUSE_NO":"６６０號","E_COORD97":174666.17000000001,"N_COORD97":2580553.2599999998,"ADDRESS":"和平路６６０號","OBJECTID":2420},"geometry":{"x":174666.17000000086,"y":2580553.2599999998}},{"attributes":{"ID":2421,"DIS_CODE":0,"TOWNNAME":"鹽水區","LI":"岸內里","LIN":"9鄰","STREET":"和平路","SECT":" ","MAREA":" ","LANE":" ","ALLEY":" ","HOUSE_NO":"６６２號","E_COORD97":174661.56,"N_COORD97":2580553.0499999998,"ADDRESS":"和平路６６２號","OBJECTID":2421},"geometry":{"x":174661.56000000052,"y":2580553.0500000026}},{"attributes":{"ID":2422,"DIS_CODE":0,"TOWNNAME":"鹽水區","LI":"岸內里","LIN":"9鄰","STREET":"和平路","SECT":" ","MAREA":" ","LANE":" ","ALLEY":" ","HOUSE_NO":"６６６號","E_COORD97":174656.95000000001,"N_COORD97":2580552.8500000001,"ADDRESS":"和平路６６６號","OBJECTID":2422},"geometry":{"x":174656.95000000019,"y":2580552.8500000034}},{"attributes":{"ID":2423,"DIS_CODE":0,"TOWNNAME":"鹽水區","LI":"岸內里","LIN":"9鄰","STREET":"和平路","SECT":" ","MAREA":" ","LANE":" ","ALLEY":" ","HOUSE_NO":"６６８號","E_COORD97":174652.35000000001,"N_COORD97":2580552.6400000001,"ADDRESS":"和平路６６８號","OBJECTID":2423},"geometry":{"x":174652.35000000149,"y":2580552.6400000025}},{"attributes":{"ID":2424,"DIS_CODE":0,"TOWNNAME":"鹽水區","LI":"岸內里","LIN":"9鄰","STREET":"和平路","SECT":" ","MAREA":" ","LANE":" ","ALLEY":" ","HOUSE_NO":"６７０號","E_COORD97":174647.73999999999,"N_COORD97":2580552.4300000002,"ADDRESS":"和平路６７０號","OBJECTID":2424},"geometry":{"x":174647.74000000022,"y":2580552.4300000034}},{"attributes":{"ID":2425,"DIS_CODE":0,"TOWNNAME":"鹽水區","LI":"岸內里","LIN":"9鄰","STREET":"和平路","SECT":" ","MAREA":" ","LANE":" ","ALLEY":" ","HOUSE_NO":"６７２號","E_COORD97":174643.13,"N_COORD97":2580552.23,"ADDRESS":"和平路６７２號","OBJECTID":2425},"geometry":{"x":174643.12999999989,"y":2580552.2300000023}},{"attributes":{"ID":2426,"DIS_CODE":0,"TOWNNAME":"鹽水區","LI":"岸內里","LIN":"11鄰","STREET":"朝琴路","SECT":" ","MAREA":" ","LANE":" ","ALLEY":" ","HOUSE_NO":"２５１號","E_COORD97":175832.95000000001,"N_COORD97":2580490.6400000001,"ADDRESS":"朝琴路２５１號","OBJECTID":2426},"geometry":{"x":175832.95000000019,"y":2580490.6399999987}},{"attributes":{"ID":2427,"DIS_CODE":0,"TOWNNAME":"鹽水區","LI":"岸內里","LIN":"11鄰","STREET":"朝琴路","SECT":" ","MAREA":" ","LANE":" ","ALLEY":" ","HOUSE_NO":"２５７號","E_COORD97":175846.14999999999,"N_COORD97":2580496.4100000001,"ADDRESS":"朝琴路２５７號","OBJECTID":2427},"geometry":{"x":175846.15000000224,"y":2580496.410000002}},{"attributes":{"ID":2428,"DIS_CODE":0,"TOWNNAME":"鹽水區","LI":"岸內里","LIN":"12鄰","STREET":"蔦松路","SECT":" ","MAREA":" ","LANE":" ","ALLEY":" ","HOUSE_NO":"１００號","E_COORD97":175573.48999999999,"N_COORD97":2580527.5099999998,"ADDRESS":"蔦松路１００號","OBJECTID":2428},"geometry":{"x":175573.49000000022,"y":2580527.5099999998}},{"attributes":{"ID":2429,"DIS_CODE":0,"TOWNNAME":"鹽水區","LI":"岸內里","LIN":"12鄰","STREET":"蔦松路","SECT":" ","MAREA":" ","LANE":" ","ALLEY":" ","HOUSE_NO":"１０２號","E_COORD97":175573.34,"N_COORD97":2580531.8500000001,"ADDRESS":"蔦松路１０２號","OBJECTID":2429},"geometry":{"x":175573.34000000078,"y":2580531.8499999996}},{"attributes":{"ID":2430,"DIS_CODE":0,"TOWNNAME":"鹽水區","LI":"岸內里","LIN":"12鄰","STREET":"蔦松路","SECT":" ","MAREA":" ","LANE":" ","ALLEY":" ","HOUSE_NO":"１０６號","E_COORD97":175573.17999999999,"N_COORD97":2580536.2000000002,"ADDRESS":"蔦松路１０６號","OBJECTID":2430},"geometry":{"x":175573.1799999997,"y":2580536.1999999993}},{"attributes":{"ID":2431,"DIS_CODE":0,"TOWNNAME":"鹽水區","LI":"岸內里","LIN":"12鄰","STREET":"蔦松路","SECT":" ","MAREA":" ","LANE":" ","ALLEY":" ","HOUSE_NO":"１０８號","E_COORD97":175573.03,"N_COORD97":2580540.54,"ADDRESS":"蔦松路１０８號","OBJECTID":2431},"geometry":{"x":175573.03000000119,"y":2580540.5399999972}},{"attributes":{"ID":2432,"DIS_CODE":0,"TOWNNAME":"鹽水區","LI":"岸內里","LIN":"12鄰","STREET":"蔦松路","SECT":" ","MAREA":" ","LANE":" ","ALLEY":" ","HOUSE_NO":"１１０號","E_COORD97":175572.87,"N_COORD97":2580544.8900000001,"ADDRESS":"蔦松路１１０號","OBJECTID":2432},"geometry":{"x":175572.87000000011,"y":2580544.8900000025}},{"attributes":{"ID":2433,"DIS_CODE":0,"TOWNNAME":"鹽水區","LI":"岸內里","LIN":"12鄰","STREET":"蔦松路","SECT":" ","MAREA":" ","LANE":" ","ALLEY":" ","HOUSE_NO":"１１２號","E_COORD97":175572.72,"N_COORD97":2580549.23,"ADDRESS":"蔦松路１１２號","OBJECTID":2433},"geometry":{"x":175572.72000000067,"y":2580549.2300000023}},{"attributes":{"ID":2434,"DIS_CODE":0,"TOWNNAME":"鹽水區","LI":"岸內里","LIN":"12鄰","STREET":"蔦松路","SECT":" ","MAREA":" ","LANE":" ","ALLEY":" ","HOUSE_NO":"１１８號","E_COORD97":175572.41,"N_COORD97":2580557.9300000002,"ADDRESS":"蔦松路１１８號","OBJECTID":2434},"geometry":{"x":175572.41000000015,"y":2580557.9299999997}},{"attributes":{"ID":2435,"DIS_CODE":0,"TOWNNAME":"鹽水區","LI":"岸內里","LIN":"12鄰","STREET":"蔦松路","SECT":" ","MAREA":" ","LANE":" ","ALLEY":" ","HOUSE_NO":"１２０號","E_COORD97":175572.25,"N_COORD97":2580562.27,"ADDRESS":"蔦松路１２０號","OBJECTID":2435},"geometry":{"x":175572.25000000186,"y":2580562.2699999996}},{"attributes":{"ID":2436,"DIS_CODE":0,"TOWNNAME":"鹽水區","LI":"岸內里","LIN":"12鄰","STREET":"蔦松路","SECT":" ","MAREA":" ","LANE":" ","ALLEY":" ","HOUSE_NO":"１２２號","E_COORD97":175572.09,"N_COORD97":2580566.6200000001,"ADDRESS":"蔦松路１２２號","OBJECTID":2436},"geometry":{"x":175572.09000000078,"y":2580566.6200000029}},{"attributes":{"ID":2437,"DIS_CODE":0,"TOWNNAME":"鹽水區","LI":"岸內里","LIN":"14鄰","STREET":"蔦松路","SECT":" ","MAREA":" ","LANE":" ","ALLEY":" ","HOUSE_NO":"１２號","E_COORD97":175586.14999999999,"N_COORD97":2580362.9900000002,"ADDRESS":"蔦松路１２號","OBJECTID":2437},"geometry":{"x":175586.15000000037,"y":2580362.9900000021}},{"attributes":{"ID":2438,"DIS_CODE":0,"TOWNNAME":"鹽水區","LI":"岸內里","LIN":"14鄰","STREET":"蔦松路","SECT":" ","MAREA":" ","LANE":" ","ALLEY":" ","HOUSE_NO":"１６號","E_COORD97":175586.04000000001,"N_COORD97":2580367.3199999998,"ADDRESS":"蔦松路１６號","OBJECTID":2438},"geometry":{"x":175586.04000000097,"y":2580367.320000004}},{"attributes":{"ID":2439,"DIS_CODE":0,"TOWNNAME":"鹽水區","LI":"岸內里","LIN":"14鄰","STREET":"蔦松路","SECT":" ","MAREA":" ","LANE":" ","ALLEY":" ","HOUSE_NO":"２０號","E_COORD97":175584.45999999999,"N_COORD97":2580375.9500000002,"ADDRESS":"蔦松路２０號","OBJECTID":2439},"geometry":{"x":175584.46000000089,"y":2580375.9500000011}},{"attributes":{"ID":2440,"DIS_CODE":0,"TOWNNAME":"鹽水區","LI":"岸內里","LIN":"14鄰","STREET":"蔦松路","SECT":" ","MAREA":" ","LANE":" ","ALLEY":" ","HOUSE_NO":"２２號","E_COORD97":175584.29999999999,"N_COORD97":2580380.6600000001,"ADDRESS":"蔦松路２２號","OBJECTID":2440},"geometry":{"x":175584.29999999981,"y":2580380.6600000001}},{"attributes":{"ID":2441,"DIS_CODE":0,"TOWNNAME":"鹽水區","LI":"岸內里","LIN":"13鄰","STREET":"蔦松路","SECT":" ","MAREA":" ","LANE":" ","ALLEY":" ","HOUSE_NO":"５８號","E_COORD97":175577.53,"N_COORD97":2580443.6499999999,"ADDRESS":"蔦松路５８號","OBJECTID":2441},"geometry":{"x":175577.53000000119,"y":2580443.6500000022}},{"attributes":{"ID":2442,"DIS_CODE":0,"TOWNNAME":"鹽水區","LI":"岸內里","LIN":"13鄰","STREET":"蔦松路","SECT":" ","MAREA":" ","LANE":" ","ALLEY":" ","HOUSE_NO":"６０號","E_COORD97":175577.37,"N_COORD97":2580448.5099999998,"ADDRESS":"蔦松路６０號","OBJECTID":2442},"geometry":{"x":175577.37000000011,"y":2580448.5099999998}},{"attributes":{"ID":2443,"DIS_CODE":0,"TOWNNAME":"鹽水區","LI":"岸內里","LIN":"13鄰","STREET":"蔦松路","SECT":" ","MAREA":" ","LANE":" ","ALLEY":" ","HOUSE_NO":"６２號","E_COORD97":175577.20999999999,"N_COORD97":2580453.3599999999,"ADDRESS":"蔦松路６２號","OBJECTID":2443},"geometry":{"x":175577.20999999996,"y":2580453.3599999994}},{"attributes":{"ID":2444,"DIS_CODE":0,"TOWNNAME":"鹽水區","LI":"岸內里","LIN":"13鄰","STREET":"蔦松路","SECT":" ","MAREA":" ","LANE":" ","ALLEY":" ","HOUSE_NO":"６６號","E_COORD97":175577.04999999999,"N_COORD97":2580458.2200000002,"ADDRESS":"蔦松路６６號","OBJECTID":2444},"geometry":{"x":175577.05000000075,"y":2580458.2200000007}},{"attributes":{"ID":2445,"DIS_CODE":0,"TOWNNAME":"鹽水區","LI":"岸內里","LIN":"13鄰","STREET":"蔦松路","SECT":" ","MAREA":" ","LANE":" ","ALLEY":" ","HOUSE_NO":"６８號","E_COORD97":175576.89000000001,"N_COORD97":2580463.0800000001,"ADDRESS":"蔦松路６８號","OBJECTID":2445},"geometry":{"x":175576.88999999966,"y":2580463.0800000001}},{"attributes":{"ID":2446,"DIS_CODE":0,"TOWNNAME":"鹽水區","LI":"岸內里","LIN":"14鄰","STREET":"蔦松路","SECT":" ","MAREA":" ","LANE":" ","ALLEY":" ","HOUSE_NO":"６號","E_COORD97":175586.44,"N_COORD97":2580350.1499999999,"ADDRESS":"蔦松路６號","OBJECTID":2446},"geometry":{"x":175586.43999999948,"y":2580350.1500000004}},{"attributes":{"ID":2447,"DIS_CODE":0,"TOWNNAME":"鹽水區","LI":"岸內里","LIN":"13鄰","STREET":"蔦松路","SECT":" ","MAREA":" ","LANE":" ","ALLEY":" ","HOUSE_NO":"７０號","E_COORD97":175576.73999999999,"N_COORD97":2580467.9300000002,"ADDRESS":"蔦松路７０號","OBJECTID":2447},"geometry":{"x":175576.74000000022,"y":2580467.9300000016}},{"attributes":{"ID":2448,"DIS_CODE":0,"TOWNNAME":"鹽水區","LI":"岸內里","LIN":"11鄰","STREET":"朝琴路","SECT":" ","MAREA":" ","LANE":" ","ALLEY":" ","HOUSE_NO":"２４５號","E_COORD97":175813.98000000001,"N_COORD97":2580474.1899999999,"ADDRESS":"朝琴路２４５號","OBJECTID":2448},"geometry":{"x":175813.98000000138,"y":2580474.1899999995}},{"attributes":{"ID":2449,"DIS_CODE":0,"TOWNNAME":"新化區","LI":"知義里","LIN":"1鄰","STREET":" ","SECT":" ","MAREA":"知母義","LANE":" ","ALLEY":" ","HOUSE_NO":"４３號之１","E_COORD97":179683.57000000001,"N_COORD97":2546988.25,"ADDRESS":"知母義４３號之１","OBJECTID":2449},"geometry":{"x":179683.57000000123,"y":2546988.25}},{"attributes":{"ID":2450,"DIS_CODE":0,"TOWNNAME":"北區","LI":"成德里","LIN":"22鄰","STREET":"中華北路","SECT":"二段","MAREA":" ","LANE":"１９４巷","ALLEY":" ","HOUSE_NO":"３９號","E_COORD97":168342.29999999999,"N_COORD97":2546724,"ADDRESS":"中華北路二段１９４巷３９號","OBJECTID":2450},"geometry":{"x":168342.30000000075,"y":2546724.0000000019}},{"attributes":{"ID":2451,"DIS_CODE":0,"TOWNNAME":"佳里區","LI":"忠仁里","LIN":"6鄰","STREET":"平等街","SECT":" ","MAREA":" ","LANE":" ","ALLEY":" ","HOUSE_NO":"１５２號","E_COORD97":165818.25,"N_COORD97":2561903.7999999998,"ADDRESS":"平等街１５２號","OBJECTID":2451},"geometry":{"x":165818.25000000093,"y":2561903.8000000045}},{"attributes":{"ID":2452,"DIS_CODE":0,"TOWNNAME":"中西區","LI":"西湖里","LIN":"9鄰","STREET":"民權路","SECT":"四段","MAREA":" ","LANE":" ","ALLEY":" ","HOUSE_NO":"１５２號","E_COORD97":166172.54999999999,"N_COORD97":2544434.7799999998,"ADDRESS":"民權路四段１５２號","OBJECTID":2452},"geometry":{"x":166172.55000000075,"y":2544434.7799999993}},{"attributes":{"ID":2453,"DIS_CODE":0,"TOWNNAME":"安平區","LI":"平安里","LIN":"19鄰","STREET":"安平路","SECT":" ","MAREA":" ","LANE":"６０６巷","ALLEY":"３５弄","HOUSE_NO":"８號","E_COORD97":164841.74697000001,"N_COORD97":2544541.1247200002,"ADDRESS":"安平路６０６巷３５弄８號","OBJECTID":2453},"geometry":{"x":164841.74697000068,"y":2544541.1247220021}},{"attributes":{"ID":2454,"DIS_CODE":0,"TOWNNAME":"安平區","LI":"國平里","LIN":"4鄰","STREET":"建平五街","SECT":" ","MAREA":" ","LANE":"１８４巷","ALLEY":" ","HOUSE_NO":"８號二樓之１７","E_COORD97":165592.51000000001,"N_COORD97":2543215.7200000002,"ADDRESS":"建平五街１８４巷８號二樓之１７","OBJECTID":2454},"geometry":{"x":165592.51000000071,"y":2543215.7200000007}},{"attributes":{"ID":2455,"DIS_CODE":0,"TOWNNAME":"安南區","LI":"海佃里","LIN":"7鄰","STREET":"國安街","SECT":" ","MAREA":" ","LANE":"５６巷","ALLEY":"４９弄","HOUSE_NO":"４２之１號","E_COORD97":166831.38,"N_COORD97":2547153.96,"ADDRESS":"國安街５６巷４９弄４２之１號","OBJECTID":2455},"geometry":{"x":166831.38000000082,"y":2547153.9600000009}},{"attributes":{"ID":2456,"DIS_CODE":0,"TOWNNAME":"東區","LI":"泉南里","LIN":"11鄰","STREET":"府連路","SECT":" ","MAREA":" ","LANE":"３３７巷","ALLEY":"１弄","HOUSE_NO":"２之１號","E_COORD97":169593.37,"N_COORD97":2542869.4100000001,"ADDRESS":"府連路３３７巷１弄２之１號","OBJECTID":2456},"geometry":{"x":169593.37000000011,"y":2542869.410000002}},{"attributes":{"ID":2457,"DIS_CODE":0,"TOWNNAME":"安定區","LI":"新吉里","LIN":"7鄰","STREET":" ","SECT":" ","MAREA":"新吉","LANE":" ","ALLEY":" ","HOUSE_NO":"５５之４３號","E_COORD97":168755.76999999999,"N_COORD97":2554010.2999999998,"ADDRESS":"新吉５５之４３號","OBJECTID":2457},"geometry":{"x":168755.77000000048,"y":2554010.3000000007}},{"attributes":{"ID":2458,"DIS_CODE":0,"TOWNNAME":"安南區","LI":"溪東里","LIN":"21鄰","STREET":"安富街","SECT":" ","MAREA":" ","LANE":" ","ALLEY":" ","HOUSE_NO":"１６６號","E_COORD97":168138.07000000001,"N_COORD97":2547681.3100000001,"ADDRESS":"安富街１６６號","OBJECTID":2458},"geometry":{"x":168138.0700000003,"y":2547681.3100000024}},{"attributes":{"ID":2459,"DIS_CODE":0,"TOWNNAME":"鹽水區","LI":"岸內里","LIN":"6鄰","STREET":" ","SECT":" ","MAREA":"岸內","LANE":" ","ALLEY":" ","HOUSE_NO":"７號","E_COORD97":174791.10999999999,"N_COORD97":2581019.4700000002,"ADDRESS":"岸內７號","OBJECTID":2459},"geometry":{"x":174791.11000000034,"y":2581019.4700000007}},{"attributes":{"ID":2460,"DIS_CODE":0,"TOWNNAME":"善化區","LI":"文昌里","LIN":"8鄰","STREET":"光復路","SECT":" ","MAREA":" ","LANE":" ","ALLEY":" ","HOUSE_NO":"１４２之１號","E_COORD97":177385.41,"N_COORD97":2558649.8300000001,"ADDRESS":"光復路１４２之１號","OBJECTID":2460},"geometry":{"x":177385.41000000108,"y":2558649.8300000019}},{"attributes":{"ID":2461,"DIS_CODE":0,"TOWNNAME":"佳里區","LI":"安西里","LIN":"18鄰","STREET":"光復路","SECT":" ","MAREA":" ","LANE":" ","ALLEY":" ","HOUSE_NO":"３６３號","E_COORD97":165480.76000000001,"N_COORD97":2562718.2999999998,"ADDRESS":"光復路３６３號","OBJECTID":2461},"geometry":{"x":165480.76000000071,"y":2562718.3000000026}},{"attributes":{"ID":2462,"DIS_CODE":0,"TOWNNAME":"安平區","LI":"文平里","LIN":"15鄰","STREET":"建平五街","SECT":" ","MAREA":" ","LANE":" ","ALLEY":" ","HOUSE_NO":"５９號之３","E_COORD97":165989.71801000001,"N_COORD97":2543118.86368,"ADDRESS":"建平五街５９號之３","OBJECTID":2462},"geometry":{"x":165989.71800999995,"y":2543118.8636800032}},{"attributes":{"ID":2463,"DIS_CODE":0,"TOWNNAME":"中西區","LI":"西湖里","LIN":"12鄰","STREET":"湖美一街","SECT":" ","MAREA":" ","LANE":"４３巷","ALLEY":" ","HOUSE_NO":"１６號","E_COORD97":166030.45000000001,"N_COORD97":2544608.7599999998,"ADDRESS":"湖美一街４３巷１６號","OBJECTID":2463},"geometry":{"x":166030.45000000205,"y":2544608.7600000035}},{"attributes":{"ID":2464,"DIS_CODE":0,"TOWNNAME":"東區","LI":"東門里","LIN":"8鄰","STREET":"前鋒路","SECT":" ","MAREA":" ","LANE":" ","ALLEY":" ","HOUSE_NO":"４４號","E_COORD97":169307.10999999999,"N_COORD97":2543476.4199999999,"ADDRESS":"前鋒路４４號","OBJECTID":2464},"geometry":{"x":169307.11000000127,"y":2543476.4200000018}},{"attributes":{"ID":2465,"DIS_CODE":0,"TOWNNAME":"善化區","LI":"小新里","LIN":"22鄰","STREET":"成功路","SECT":" ","MAREA":" ","LANE":" ","ALLEY":" ","HOUSE_NO":"２之５號","E_COORD97":180417.73000000001,"N_COORD97":2558489.48,"ADDRESS":"成功路２之５號","OBJECTID":2465},"geometry":{"x":180417.73000000138,"y":2558489.4800000023}},{"attributes":{"ID":2466,"DIS_CODE":0,"TOWNNAME":"歸仁區","LI":"後市里","LIN":"26鄰","STREET":"中山路","SECT":"二段","MAREA":" ","LANE":" ","ALLEY":" ","HOUSE_NO":"７２之１號","E_COORD97":177390.88,"N_COORD97":2540819.7400000002,"ADDRESS":"中山路二段７２之１號","OBJECTID":2466},"geometry":{"x":177390.88000000082,"y":2540819.7400000021}},{"attributes":{"ID":2467,"DIS_CODE":0,"TOWNNAME":"北區","LI":"安民里","LIN":"5鄰","STREET":"康樂街","SECT":" ","MAREA":" ","LANE":" ","ALLEY":" ","HOUSE_NO":"４３８之１號","E_COORD97":167816.60000000001,"N_COORD97":2544796.8199999998,"ADDRESS":"康樂街４３８之１號","OBJECTID":2467},"geometry":{"x":167816.59999999963,"y":2544796.8200000022}},{"attributes":{"ID":2468,"DIS_CODE":0,"TOWNNAME":"南區","LI":"明亮里","LIN":"23鄰","STREET":"金華路","SECT":"一段","MAREA":" ","LANE":" ","ALLEY":" ","HOUSE_NO":"４７２之１號","E_COORD97":167033.95000000001,"N_COORD97":2541491.7200000002,"ADDRESS":"金華路一段４７２之１號","OBJECTID":2468},"geometry":{"x":167033.95000000205,"y":2541491.7200000025}},{"attributes":{"ID":2469,"DIS_CODE":0,"TOWNNAME":"南區","LI":"同安里","LIN":"12鄰","STREET":"明興路","SECT":" ","MAREA":" ","LANE":" ","ALLEY":" ","HOUSE_NO":"１２２１號","E_COORD97":166442.06,"N_COORD97":2536187.3500000001,"ADDRESS":"明興路１２２１號","OBJECTID":2469},"geometry":{"x":166442.05999999959,"y":2536187.3500000015}},{"attributes":{"ID":2470,"DIS_CODE":0,"TOWNNAME":"安南區","LI":"溪墘里","LIN":"18鄰","STREET":"海佃路","SECT":"一段","MAREA":" ","LANE":"３８８巷","ALLEY":" ","HOUSE_NO":"４２之１號","E_COORD97":167231.92000000001,"N_COORD97":2547653.8199999998,"ADDRESS":"海佃路一段３８８巷４２之１號","OBJECTID":2470},"geometry":{"x":167231.91999999993,"y":2547653.8200000022}},{"attributes":{"ID":2471,"DIS_CODE":0,"TOWNNAME":"永康區","LI":"網寮里","LIN":"23鄰","STREET":"文化路","SECT":" ","MAREA":" ","LANE":" ","ALLEY":" ","HOUSE_NO":"１４２之１號","E_COORD97":173854.70000000001,"N_COORD97":2546225.4100000001,"ADDRESS":"文化路１４２之１號","OBJECTID":2471},"geometry":{"x":173854.70000000019,"y":2546225.4100000039}},{"attributes":{"ID":2472,"DIS_CODE":0,"TOWNNAME":"永康區","LI":"安康里","LIN":"14鄰","STREET":"中華路","SECT":" ","MAREA":" ","LANE":"６１９巷","ALLEY":"８８弄","HOUSE_NO":"５２之１號","E_COORD97":170925.70999999999,"N_COORD97":2546078.2400000002,"ADDRESS":"中華路６１９巷８８弄５２之１號","OBJECTID":2472},"geometry":{"x":170925.70999999903,"y":2546078.2400000021}},{"attributes":{"ID":2473,"DIS_CODE":0,"TOWNNAME":"歸仁區","LI":"歸南里","LIN":"11鄰","STREET":"民生南街","SECT":"二段","MAREA":" ","LANE":" ","ALLEY":" ","HOUSE_NO":"２５１號","E_COORD97":176088.69568100001,"N_COORD97":2540056.9212099998,"ADDRESS":"民生南街二段２５１號","OBJECTID":2473},"geometry":{"x":176088.69568100013,"y":2540056.9212140031}},{"attributes":{"ID":2474,"DIS_CODE":0,"TOWNNAME":"北區","LI":"成德里","LIN":"10鄰","STREET":"育德路","SECT":" ","MAREA":" ","LANE":" ","ALLEY":" ","HOUSE_NO":"３３８號","E_COORD97":168646.78,"N_COORD97":2545740.1299999999,"ADDRESS":"育德路３３８號","OBJECTID":2474},"geometry":{"x":168646.78000000026,"y":2545740.129999999}},{"attributes":{"ID":2475,"DIS_CODE":0,"TOWNNAME":"新化區","LI":"唪口里","LIN":"6鄰","STREET":" ","SECT":" ","MAREA":"唪口","LANE":" ","ALLEY":" ","HOUSE_NO":"５９號","E_COORD97":178068.10000000001,"N_COORD97":2549101.25,"ADDRESS":"大德路５９號","OBJECTID":2475},"geometry":{"x":178068.10000000149,"y":2549101.2500000037}},{"attributes":{"ID":2476,"DIS_CODE":0,"TOWNNAME":"佳里區","LI":"佳化里","LIN":"18鄰","STREET":" ","SECT":" ","MAREA":"佳里興","LANE":" ","ALLEY":" ","HOUSE_NO":"１７５號之１","E_COORD97":167269.82000000001,"N_COORD97":2565024.1000000001,"ADDRESS":"佳里興１７５號之１","OBJECTID":2476},"geometry":{"x":167269.8200000003,"y":2565024.1000000015}},{"attributes":{"ID":2477,"DIS_CODE":0,"TOWNNAME":"永康區","LI":"復華里","LIN":"24鄰","STREET":"國華街","SECT":" ","MAREA":" ","LANE":"１３２巷","ALLEY":"５弄","HOUSE_NO":"１２之１號","E_COORD97":172827.37,"N_COORD97":2546358.7400000002,"ADDRESS":"國華街１３２巷５弄１２之１號","OBJECTID":2477},"geometry":{"x":172827.37000000104,"y":2546358.7400000039}},{"attributes":{"ID":2478,"DIS_CODE":0,"TOWNNAME":"北區","LI":"正覺里","LIN":"4鄰","STREET":"公園路","SECT":" ","MAREA":" ","LANE":"５９７巷","ALLEY":" ","HOUSE_NO":"４２之１號","E_COORD97":169201.38,"N_COORD97":2546084.3900000001,"ADDRESS":"公園路５９７巷４２之１號","OBJECTID":2478},"geometry":{"x":169201.38000000082,"y":2546084.3900000025}},{"attributes":{"ID":2479,"DIS_CODE":0,"TOWNNAME":"東區","LI":"崇德里","LIN":"15鄰","STREET":"崇明十三街","SECT":" ","MAREA":" ","LANE":" ","ALLEY":" ","HOUSE_NO":"２號四樓之５","E_COORD97":170462.59,"N_COORD97":2541559.4100000001,"ADDRESS":"崇明十三街２號四樓之５","OBJECTID":2479},"geometry":{"x":170462.59000000078,"y":2541559.4100000001}},{"attributes":{"ID":2480,"DIS_CODE":0,"TOWNNAME":"北區","LI":"正覺里","LIN":"4鄰","STREET":"公園路","SECT":" ","MAREA":" ","LANE":"５９７巷","ALLEY":" ","HOUSE_NO":"２之１號","E_COORD97":169258.47,"N_COORD97":2546158.2599999998,"ADDRESS":"公園路５９７巷２之１號","OBJECTID":2480},"geometry":{"x":169258.46999999974,"y":2546158.2600000035}},{"attributes":{"ID":2481,"DIS_CODE":0,"TOWNNAME":"北區","LI":"新勝里","LIN":"11鄰","STREET":"長榮路","SECT":"五段","MAREA":" ","LANE":"１５１巷","ALLEY":" ","HOUSE_NO":"２之１號","E_COORD97":170051.32000000001,"N_COORD97":2545727.23,"ADDRESS":"長榮路五段１５１巷２之１號","OBJECTID":2481},"geometry":{"x":170051.32000000123,"y":2545727.2300000004}},{"attributes":{"ID":2482,"DIS_CODE":0,"TOWNNAME":"安平區","LI":"華平里","LIN":"8鄰","STREET":"健康二街","SECT":" ","MAREA":" ","LANE":" ","ALLEY":" ","HOUSE_NO":"５０２之２號","E_COORD97":165374.84,"N_COORD97":2543996.5,"ADDRESS":"健康二街５０２之２號","OBJECTID":2482},"geometry":{"x":165374.84000000171,"y":2543996.5}},{"attributes":{"ID":2483,"DIS_CODE":0,"TOWNNAME":"北區","LI":"裕民里","LIN":"1鄰","STREET":"成功路","SECT":" ","MAREA":" ","LANE":"６１４巷","ALLEY":" ","HOUSE_NO":"２之１號","E_COORD97":167472.79999999999,"N_COORD97":2544849.7999999998,"ADDRESS":"成功路６１４巷２之１號","OBJECTID":2483},"geometry":{"x":167472.80000000075,"y":2544849.8000000007}},{"attributes":{"ID":2484,"DIS_CODE":0,"TOWNNAME":"永康區","LI":"東橋里","LIN":"8鄰","STREET":"東橋一路","SECT":" ","MAREA":" ","LANE":" ","ALLEY":" ","HOUSE_NO":"９３號","E_COORD97":171529.54000000001,"N_COORD97":2546420.2999999998,"ADDRESS":"東橋一路９３號","OBJECTID":2484},"geometry":{"x":171529.54000000097,"y":2546420.3000000026}},{"attributes":{"ID":2485,"DIS_CODE":0,"TOWNNAME":"安平區","LI":"華平里","LIN":"9鄰","STREET":"怡平路","SECT":" ","MAREA":" ","LANE":"４１０巷","ALLEY":" ","HOUSE_NO":"２２號","E_COORD97":165418.56,"N_COORD97":2543883.4399999999,"ADDRESS":"怡平路４１０巷２２號","OBJECTID":2485},"geometry":{"x":165418.55999999959,"y":2543883.4399999995}},{"attributes":{"ID":2486,"DIS_CODE":0,"TOWNNAME":"安南區","LI":"佃東里","LIN":"20鄰","STREET":"十二佃路","SECT":" ","MAREA":" ","LANE":"１０巷","ALLEY":" ","HOUSE_NO":"９號","E_COORD97":165742.29000000001,"N_COORD97":2552124.5699999998,"ADDRESS":"十二佃路１０巷９號","OBJECTID":2486},"geometry":{"x":165742.29000000097,"y":2552124.5700000022}},{"attributes":{"ID":2487,"DIS_CODE":0,"TOWNNAME":"關廟區","LI":"關廟里","LIN":"2鄰","STREET":"忠孝街","SECT":" ","MAREA":" ","LANE":" ","ALLEY":" ","HOUSE_NO":"４１號","E_COORD97":180970.48999999999,"N_COORD97":2540140.25,"ADDRESS":"忠孝街４１號","OBJECTID":2487},"geometry":{"x":180970.49000000115,"y":2540140.25}},{"attributes":{"ID":2488,"DIS_CODE":0,"TOWNNAME":"南區","LI":"國宅里","LIN":"13鄰","STREET":"尊南街","SECT":" ","MAREA":" ","LANE":" ","ALLEY":" ","HOUSE_NO":"１２６號","E_COORD97":166834.44,"N_COORD97":2541994.1099999999,"ADDRESS":"尊南街１２６號","OBJECTID":2488},"geometry":{"x":166834.44000000134,"y":2541994.1099999994}},{"attributes":{"ID":2489,"DIS_CODE":0,"TOWNNAME":"新營區","LI":"埤寮里","LIN":"13鄰","STREET":"長榮路","SECT":"二段","MAREA":" ","LANE":" ","ALLEY":" ","HOUSE_NO":"６６號","E_COORD97":179934.54999999999,"N_COORD97":2579903.0800000001,"ADDRESS":"長榮路二段６６號","OBJECTID":2489},"geometry":{"x":179934.54999999981,"y":2579903.0800000001}},{"attributes":{"ID":2490,"DIS_CODE":0,"TOWNNAME":"安平區","LI":"平通里","LIN":"19鄰","STREET":"慶平路","SECT":" ","MAREA":" ","LANE":" ","ALLEY":" ","HOUSE_NO":"７０５號四樓之１３之","E_COORD97":164590.81,"N_COORD97":2544263.6200000001,"ADDRESS":"慶平路７０５號四樓之１３之１","OBJECTID":2490},"geometry":{"x":164590.80999999959,"y":2544263.620000001}},{"attributes":{"ID":2491,"DIS_CODE":0,"TOWNNAME":"安南區","LI":"安西里","LIN":"12鄰","STREET":"安通一街","SECT":" ","MAREA":" ","LANE":" ","ALLEY":" ","HOUSE_NO":"１號","E_COORD97":168803.64000000001,"N_COORD97":2547770.5600000001,"ADDRESS":"安通一街１號","OBJECTID":2491},"geometry":{"x":168803.64000000153,"y":2547770.5599999987}},{"attributes":{"ID":2492,"DIS_CODE":0,"TOWNNAME":"安南區","LI":"安西里","LIN":"12鄰","STREET":"安西路","SECT":" ","MAREA":" ","LANE":" ","ALLEY":" ","HOUSE_NO":"８８號","E_COORD97":168969.98000000001,"N_COORD97":2547887.04,"ADDRESS":"安西路８８號","OBJECTID":2492},"geometry":{"x":168969.98000000231,"y":2547887.0399999991}},{"attributes":{"ID":2493,"DIS_CODE":0,"TOWNNAME":"東區","LI":"龍山里","LIN":"18鄰","STREET":"東門路","SECT":"一段","MAREA":" ","LANE":" ","ALLEY":" ","HOUSE_NO":"２９８號四樓之１６","E_COORD97":169698.48000000001,"N_COORD97":2543053.2000000002,"ADDRESS":"東門路一段２９８號四樓之１６","OBJECTID":2493},"geometry":{"x":169698.48000000045,"y":2543053.2000000011}},{"attributes":{"ID":2494,"DIS_CODE":0,"TOWNNAME":"永康區","LI":"\u25A0洲里","LIN":"28鄰","STREET":"洲尾街","SECT":" ","MAREA":" ","LANE":"１５２巷","ALLEY":" ","HOUSE_NO":"７２之１號","E_COORD97":171163.53,"N_COORD97":2549103.6899999999,"ADDRESS":"洲尾街１５２巷７２之１號","OBJECTID":2494},"geometry":{"x":171163.53000000119,"y":2549103.6899999995}},{"attributes":{"ID":2495,"DIS_CODE":0,"TOWNNAME":"鹽水區","LI":"岸內里","LIN":"8鄰","STREET":"和平路","SECT":" ","MAREA":" ","LANE":" ","ALLEY":" ","HOUSE_NO":"５７０號","E_COORD97":174837.62,"N_COORD97":2580562.2200000002,"ADDRESS":"和平路５７０號","OBJECTID":2495},"geometry":{"x":174837.62000000104,"y":2580562.2200000025}},{"attributes":{"ID":2496,"DIS_CODE":0,"TOWNNAME":"鹽水區","LI":"岸內里","LIN":"8鄰","STREET":"和平路","SECT":" ","MAREA":" ","LANE":" ","ALLEY":" ","HOUSE_NO":"６０２號","E_COORD97":174777.01000000001,"N_COORD97":2580559.8700000001,"ADDRESS":"和平路６０２號","OBJECTID":2496},"geometry":{"x":174777.01000000071,"y":2580559.870000001}},{"attributes":{"ID":2497,"DIS_CODE":0,"TOWNNAME":"鹽水區","LI":"岸內里","LIN":"8鄰","STREET":"和平路","SECT":" ","MAREA":" ","LANE":"６１０巷","ALLEY":" ","HOUSE_NO":"１０號","E_COORD97":174767.82999999999,"N_COORD97":2580608.5,"ADDRESS":"和平路６１０巷１０號","OBJECTID":2497},"geometry":{"x":174767.83000000007,"y":2580608.5}},{"attributes":{"ID":2498,"DIS_CODE":0,"TOWNNAME":"鹽水區","LI":"岸內里","LIN":"8鄰","STREET":"和平路","SECT":" ","MAREA":" ","LANE":"６１０巷","ALLEY":" ","HOUSE_NO":"１號","E_COORD97":174772.73999999999,"N_COORD97":2580591.8599999999,"ADDRESS":"和平路６１０巷１號","OBJECTID":2498},"geometry":{"x":174772.74000000115,"y":2580591.8599999994}},{"attributes":{"ID":2499,"DIS_CODE":0,"TOWNNAME":"鹽水區","LI":"岸內里","LIN":"8鄰","STREET":"和平路","SECT":" ","MAREA":" ","LANE":"６１０巷","ALLEY":" ","HOUSE_NO":"２號","E_COORD97":174755.72,"N_COORD97":2580570.0800000001,"ADDRESS":"和平路６１０巷２號","OBJECTID":2499},"geometry":{"x":174755.72000000067,"y":2580570.0800000019}},{"attributes":{"ID":2500,"DIS_CODE":0,"TOWNNAME":"鹽水區","LI":"岸內里","LIN":"8鄰","STREET":"和平路","SECT":" ","MAREA":" ","LANE":"６１０巷","ALLEY":" ","HOUSE_NO":"３號","E_COORD97":174808.70000000001,"N_COORD97":2580634.3999999999,"ADDRESS":"和平路６１０巷３號","OBJECTID":2500},"geometry":{"x":174808.70000000112,"y":2580634.3999999985}},{"attributes":{"ID":2501,"DIS_CODE":0,"TOWNNAME":"鹽水區","LI":"岸內里","LIN":"8鄰","STREET":"和平路","SECT":" ","MAREA":" ","LANE":"６１０巷","ALLEY":" ","HOUSE_NO":"５號","E_COORD97":174793.5,"N_COORD97":2580583.1800000002,"ADDRESS":"和平路６１０巷５號","OBJECTID":2501},"geometry":{"x":174793.5,"y":2580583.1799999997}},{"attributes":{"ID":2502,"DIS_CODE":0,"TOWNNAME":"鹽水區","LI":"岸內里","LIN":"8鄰","STREET":"和平路","SECT":" ","MAREA":" ","LANE":"６３２巷","ALLEY":"１弄","HOUSE_NO":"１０號","E_COORD97":174736,"N_COORD97":2580593.2599999998,"ADDRESS":"和平路６３２巷１弄１０號","OBJECTID":2502},"geometry":{"x":174736,"y":2580593.2599999998}},{"attributes":{"ID":2503,"DIS_CODE":0,"TOWNNAME":"鹽水區","LI":"岸內里","LIN":"8鄰","STREET":"和平路","SECT":" ","MAREA":" ","LANE":"６３２巷","ALLEY":"１弄","HOUSE_NO":"１１號","E_COORD97":174746.67999999999,"N_COORD97":2580573.8199999998,"ADDRESS":"和平路６３２巷１弄１１號","OBJECTID":2503},"geometry":{"x":174746.68000000156,"y":2580573.8199999984}},{"attributes":{"ID":2504,"DIS_CODE":0,"TOWNNAME":"鹽水區","LI":"岸內里","LIN":"8鄰","STREET":"和平路","SECT":" ","MAREA":" ","LANE":"６３２巷","ALLEY":"１弄","HOUSE_NO":"８號","E_COORD97":174731.54999999999,"N_COORD97":2580592.9900000002,"ADDRESS":"和平路６３２巷１弄８號","OBJECTID":2504},"geometry":{"x":174731.55000000075,"y":2580592.9899999984}},{"attributes":{"ID":2505,"DIS_CODE":0,"TOWNNAME":"鹽水區","LI":"岸內里","LIN":"9鄰","STREET":"和平路","SECT":" ","MAREA":" ","LANE":"６３２巷","ALLEY":"２弄","HOUSE_NO":"１９號","E_COORD97":174654.19,"N_COORD97":2580571.6800000002,"ADDRESS":"和平路６３２巷２弄１９號","OBJECTID":2505},"geometry":{"x":174654.19000000227,"y":2580571.6800000016}},{"attributes":{"ID":2506,"DIS_CODE":0,"TOWNNAME":"鹽水區","LI":"岸內里","LIN":"9鄰","STREET":"和平路","SECT":" ","MAREA":" ","LANE":"６３２巷","ALLEY":"２弄","HOUSE_NO":"２０號","E_COORD97":174666.07999999999,"N_COORD97":2580592.0499999998,"ADDRESS":"和平路６３２巷２弄２０號","OBJECTID":2506},"geometry":{"x":174666.08000000007,"y":2580592.0500000007}},{"attributes":{"ID":2507,"DIS_CODE":0,"TOWNNAME":"鹽水區","LI":"岸內里","LIN":"9鄰","STREET":"和平路","SECT":" ","MAREA":" ","LANE":"６３２巷","ALLEY":"２弄","HOUSE_NO":"６號","E_COORD97":174702.98000000001,"N_COORD97":2580593.1499999999,"ADDRESS":"和平路６３２巷２弄６號","OBJECTID":2507},"geometry":{"x":174702.97999999952,"y":2580593.1500000022}},{"attributes":{"ID":2508,"DIS_CODE":0,"TOWNNAME":"鹽水區","LI":"岸內里","LIN":"8鄰","STREET":"和平路","SECT":" ","MAREA":" ","LANE":"６３２巷","ALLEY":"５弄","HOUSE_NO":"５號","E_COORD97":174732.73999999999,"N_COORD97":2580650.25,"ADDRESS":"和平路６３２巷５弄５號","OBJECTID":2508},"geometry":{"x":174732.74000000022,"y":2580650.2500000019}},{"attributes":{"ID":2509,"DIS_CODE":0,"TOWNNAME":"鹽水區","LI":"岸內里","LIN":"8鄰","STREET":"和平路","SECT":" ","MAREA":" ","LANE":"６３２巷","ALLEY":"５弄","HOUSE_NO":"７號","E_COORD97":174739.85999999999,"N_COORD97":2580650.52,"ADDRESS":"和平路６３２巷５弄７號","OBJECTID":2509},"geometry":{"x":174739.86000000127,"y":2580650.5200000014}},{"attributes":{"ID":2510,"DIS_CODE":0,"TOWNNAME":"鹽水區","LI":"岸內里","LIN":"9鄰","STREET":"和平路","SECT":" ","MAREA":" ","LANE":"６３２巷","ALLEY":"８弄","HOUSE_NO":"２７號","E_COORD97":174651.29999999999,"N_COORD97":2580652.21,"ADDRESS":"和平路６３２巷８弄２７號","OBJECTID":2510},"geometry":{"x":174651.30000000075,"y":2580652.2100000009}},{"attributes":{"ID":2511,"DIS_CODE":0,"TOWNNAME":"鹽水區","LI":"岸內里","LIN":"9鄰","STREET":"和平路","SECT":" ","MAREA":" ","LANE":"６３２巷","ALLEY":"８弄","HOUSE_NO":"３５號","E_COORD97":174633.76999999999,"N_COORD97":2580651.5099999998,"ADDRESS":"和平路６３２巷８弄３５號","OBJECTID":2511},"geometry":{"x":174633.76999999955,"y":2580651.5100000016}},{"attributes":{"ID":2512,"DIS_CODE":0,"TOWNNAME":"鹽水區","LI":"岸內里","LIN":"9鄰","STREET":"和平路","SECT":" ","MAREA":" ","LANE":"６３２巷","ALLEY":"８弄","HOUSE_NO":"７號","E_COORD97":174695.12,"N_COORD97":2580653.96,"ADDRESS":"和平路６３２巷８弄７號","OBJECTID":2512},"geometry":{"x":174695.12000000197,"y":2580653.9600000009}},{"attributes":{"ID":2513,"DIS_CODE":0,"TOWNNAME":"鹽水區","LI":"岸內里","LIN":"9鄰","STREET":"和平路","SECT":" ","MAREA":" ","LANE":" ","ALLEY":" ","HOUSE_NO":"６３６號","E_COORD97":174712.23999999999,"N_COORD97":2580555.3199999998,"ADDRESS":"和平路６３６號","OBJECTID":2513},"geometry":{"x":174712.24000000022,"y":2580555.3200000022}},{"attributes":{"ID":2514,"DIS_CODE":0,"TOWNNAME":"鹽水區","LI":"岸內里","LIN":"9鄰","STREET":"和平路","SECT":" ","MAREA":" ","LANE":" ","ALLEY":" ","HOUSE_NO":"６４６號","E_COORD97":174693.81,"N_COORD97":2580554.5,"ADDRESS":"和平路６４６號","OBJECTID":2514},"geometry":{"x":174693.81000000052,"y":2580554.5}},{"attributes":{"ID":2515,"DIS_CODE":0,"TOWNNAME":"鹽水區","LI":"岸內里","LIN":"9鄰","STREET":"和平路","SECT":" ","MAREA":" ","LANE":" ","ALLEY":" ","HOUSE_NO":"６４８號","E_COORD97":174689.20999999999,"N_COORD97":2580554.29,"ADDRESS":"和平路６４８號","OBJECTID":2515},"geometry":{"x":174689.21000000183,"y":2580554.290000001}},{"attributes":{"ID":2516,"DIS_CODE":0,"TOWNNAME":"鹽水區","LI":"岸內里","LIN":"9鄰","STREET":"和平路","SECT":" ","MAREA":" ","LANE":" ","ALLEY":" ","HOUSE_NO":"６５０號","E_COORD97":174684.60000000001,"N_COORD97":2580554.0899999999,"ADDRESS":"和平路６５０號","OBJECTID":2516},"geometry":{"x":174684.60000000149,"y":2580554.0899999999}},{"attributes":{"ID":2517,"DIS_CODE":0,"TOWNNAME":"鹽水區","LI":"岸內里","LIN":"9鄰","STREET":"和平路","SECT":" ","MAREA":" ","LANE":" ","ALLEY":" ","HOUSE_NO":"６５２號","E_COORD97":174679.98999999999,"N_COORD97":2580553.8799999999,"ADDRESS":"和平路６５２號","OBJECTID":2517},"geometry":{"x":174679.99000000022,"y":2580553.879999999}},{"attributes":{"ID":2518,"DIS_CODE":0,"TOWNNAME":"鹽水區","LI":"岸內里","LIN":"9鄰","STREET":"和平路","SECT":" ","MAREA":" ","LANE":" ","ALLEY":" ","HOUSE_NO":"６５６號","E_COORD97":174675.38,"N_COORD97":2580553.6699999999,"ADDRESS":"和平路６５６號","OBJECTID":2518},"geometry":{"x":174675.37999999989,"y":2580553.6699999999}},{"attributes":{"ID":2519,"DIS_CODE":0,"TOWNNAME":"鹽水區","LI":"岸內里","LIN":"9鄰","STREET":"和平路","SECT":" ","MAREA":" ","LANE":"６７８巷","ALLEY":" ","HOUSE_NO":"５號","E_COORD97":174622.04999999999,"N_COORD97":2580585.8999999999,"ADDRESS":"和平路６７８巷５號","OBJECTID":2519},"geometry":{"x":174622.04999999981,"y":2580585.9000000004}},{"attributes":{"ID":2520,"DIS_CODE":0,"TOWNNAME":"鹽水區","LI":"岸內里","LIN":"10鄰","STREET":"金和路","SECT":" ","MAREA":" ","LANE":" ","ALLEY":" ","HOUSE_NO":"２號","E_COORD97":174622.91,"N_COORD97":2580388.29,"ADDRESS":"金和路２號","OBJECTID":2520},"geometry":{"x":174622.91000000015,"y":2580388.2899999991}},{"attributes":{"ID":2521,"DIS_CODE":0,"TOWNNAME":"鹽水區","LI":"岸內里","LIN":"10鄰","STREET":" ","SECT":" ","MAREA":"新岸內","LANE":" ","ALLEY":" ","HOUSE_NO":"１之３６號","E_COORD97":174369.78,"N_COORD97":2580455.2000000002,"ADDRESS":"新岸內１之３６號","OBJECTID":2521},"geometry":{"x":174369.78000000026,"y":2580455.200000003}},{"attributes":{"ID":2522,"DIS_CODE":0,"TOWNNAME":"鹽水區","LI":"岸內里","LIN":"10鄰","STREET":" ","SECT":" ","MAREA":"新岸內","LANE":" ","ALLEY":" ","HOUSE_NO":"１號之２","E_COORD97":174397.12,"N_COORD97":2580626.4700000002,"ADDRESS":"新岸內１號之２","OBJECTID":2522},"geometry":{"x":174397.12000000104,"y":2580626.4700000007}},{"attributes":{"ID":2523,"DIS_CODE":0,"TOWNNAME":"鹽水區","LI":"岸內里","LIN":"10鄰","STREET":" ","SECT":" ","MAREA":"新岸內","LANE":" ","ALLEY":" ","HOUSE_NO":"１號之３","E_COORD97":174508.5,"N_COORD97":2580450.29,"ADDRESS":"新岸內１號之３","OBJECTID":2523},"geometry":{"x":174508.5,"y":2580450.2899999991}},{"attributes":{"ID":2524,"DIS_CODE":0,"TOWNNAME":"鹽水區","LI":"岸內里","LIN":"10鄰","STREET":" ","SECT":" ","MAREA":"新岸內","LANE":" ","ALLEY":" ","HOUSE_NO":"１號之７","E_COORD97":174241.67000000001,"N_COORD97":2580498.3399999999,"ADDRESS":"新岸內１號之７","OBJECTID":2524},"geometry":{"x":174241.66999999993,"y":2580498.3399999999}},{"attributes":{"ID":2525,"DIS_CODE":0,"TOWNNAME":"鹽水區","LI":"岸內里","LIN":"10鄰","STREET":" ","SECT":" ","MAREA":"新岸內","LANE":" ","ALLEY":" ","HOUSE_NO":"１號之８","E_COORD97":174409.5,"N_COORD97":2580627.1000000001,"ADDRESS":"新岸內１號之８","OBJECTID":2525},"geometry":{"x":174409.50000000093,"y":2580627.1000000015}},{"attributes":{"ID":2526,"DIS_CODE":0,"TOWNNAME":"鹽水區","LI":"岸內里","LIN":"10鄰","STREET":" ","SECT":" ","MAREA":"新岸內","LANE":" ","ALLEY":" ","HOUSE_NO":"１１０號","E_COORD97":174385.91,"N_COORD97":2581123.6299999999,"ADDRESS":"新岸內１１０號","OBJECTID":2526},"geometry":{"x":174385.91000000015,"y":2581123.6300000008}},{"attributes":{"ID":2527,"DIS_CODE":0,"TOWNNAME":"鹽水區","LI":"岸內里","LIN":"10鄰","STREET":" ","SECT":" ","MAREA":"新岸內","LANE":" ","ALLEY":" ","HOUSE_NO":"１１１號","E_COORD97":174391.98999999999,"N_COORD97":2581126.2200000002,"ADDRESS":"新岸內１１１號","OBJECTID":2527},"geometry":{"x":174391.99000000022,"y":2581126.2200000007}},{"attributes":{"ID":2528,"DIS_CODE":0,"TOWNNAME":"鹽水區","LI":"岸內里","LIN":"10鄰","STREET":" ","SECT":" ","MAREA":"新岸內","LANE":" ","ALLEY":" ","HOUSE_NO":"９６號","E_COORD97":174417.17999999999,"N_COORD97":2580993.0699999998,"ADDRESS":"新岸內９６號","OBJECTID":2528},"geometry":{"x":174417.1799999997,"y":2580993.0700000022}},{"attributes":{"ID":2529,"DIS_CODE":0,"TOWNNAME":"鹽水區","LI":"岸內里","LIN":"12鄰","STREET":"和平路","SECT":" ","MAREA":" ","LANE":" ","ALLEY":" ","HOUSE_NO":"１０１號","E_COORD97":175610.73000000001,"N_COORD97":2580572.48,"ADDRESS":"和平路１０１號","OBJECTID":2529},"geometry":{"x":175610.73000000138,"y":2580572.4800000004}},{"attributes":{"ID":2530,"DIS_CODE":0,"TOWNNAME":"鹽水區","LI":"岸內里","LIN":"12鄰","STREET":"和平路","SECT":" ","MAREA":" ","LANE":" ","ALLEY":" ","HOUSE_NO":"１０３號","E_COORD97":175606.45999999999,"N_COORD97":2580572.2799999998,"ADDRESS":"和平路１０３號","OBJECTID":2530},"geometry":{"x":175606.46000000089,"y":2580572.2799999993}},{"attributes":{"ID":2531,"DIS_CODE":0,"TOWNNAME":"鹽水區","LI":"岸內里","LIN":"12鄰","STREET":"和平路","SECT":" ","MAREA":" ","LANE":" ","ALLEY":" ","HOUSE_NO":"１１１號","E_COORD97":175589.35999999999,"N_COORD97":2580571.4900000002,"ADDRESS":"和平路１１１號","OBJECTID":2531},"geometry":{"x":175589.36000000127,"y":2580571.4900000002}},{"attributes":{"ID":2532,"DIS_CODE":0,"TOWNNAME":"鹽水區","LI":"岸內里","LIN":"12鄰","STREET":"和平路","SECT":" ","MAREA":" ","LANE":" ","ALLEY":" ","HOUSE_NO":"１１３號","E_COORD97":175585.09,"N_COORD97":2580571.29,"ADDRESS":"和平路１１３號","OBJECTID":2532},"geometry":{"x":175585.09000000078,"y":2580571.290000001}},{"attributes":{"ID":2533,"DIS_CODE":0,"TOWNNAME":"鹽水區","LI":"岸內里","LIN":"11鄰","STREET":"和平路","SECT":" ","MAREA":" ","LANE":" ","ALLEY":" ","HOUSE_NO":"４５號","E_COORD97":175802.48000000001,"N_COORD97":2580525.4399999999,"ADDRESS":"和平路４５號","OBJECTID":2533},"geometry":{"x":175802.48000000045,"y":2580525.4400000013}},{"attributes":{"ID":2534,"DIS_CODE":0,"TOWNNAME":"鹽水區","LI":"岸內里","LIN":"11鄰","STREET":"和平路","SECT":" ","MAREA":" ","LANE":" ","ALLEY":" ","HOUSE_NO":"４７號","E_COORD97":175798.69,"N_COORD97":2580527.9500000002,"ADDRESS":"和平路４７號","OBJECTID":2534},"geometry":{"x":175798.69000000134,"y":2580527.950000003}},{"attributes":{"ID":2535,"DIS_CODE":0,"TOWNNAME":"鹽水區","LI":"岸內里","LIN":"11鄰","STREET":"和平路","SECT":" ","MAREA":" ","LANE":" ","ALLEY":" ","HOUSE_NO":"４９號","E_COORD97":175794.89999999999,"N_COORD97":2580530.4500000002,"ADDRESS":"和平路４９號","OBJECTID":2535},"geometry":{"x":175794.90000000037,"y":2580530.4499999993}},{"attributes":{"ID":2536,"DIS_CODE":0,"TOWNNAME":"鹽水區","LI":"岸內里","LIN":"11鄰","STREET":"和平路","SECT":" ","MAREA":" ","LANE":" ","ALLEY":" ","HOUSE_NO":"５１號","E_COORD97":175791.10999999999,"N_COORD97":2580532.96,"ADDRESS":"和平路５１號","OBJECTID":2536},"geometry":{"x":175791.11000000127,"y":2580532.9600000046}},{"attributes":{"ID":2537,"DIS_CODE":0,"TOWNNAME":"鹽水區","LI":"岸內里","LIN":"11鄰","STREET":"和平路","SECT":" ","MAREA":" ","LANE":" ","ALLEY":" ","HOUSE_NO":"５３號","E_COORD97":175787.32999999999,"N_COORD97":2580535.4700000002,"ADDRESS":"和平路５３號","OBJECTID":2537},"geometry":{"x":175787.33000000101,"y":2580535.4700000007}},{"attributes":{"ID":2538,"DIS_CODE":0,"TOWNNAME":"鹽水區","LI":"岸內里","LIN":"11鄰","STREET":"和平路","SECT":" ","MAREA":" ","LANE":" ","ALLEY":" ","HOUSE_NO":"５５號","E_COORD97":175783.54000000001,"N_COORD97":2580537.9700000002,"ADDRESS":"和平路５５號","OBJECTID":2538},"geometry":{"x":175783.54000000004,"y":2580537.9700000007}},{"attributes":{"ID":2539,"DIS_CODE":0,"TOWNNAME":"鹽水區","LI":"岸內里","LIN":"11鄰","STREET":"和平路","SECT":" ","MAREA":" ","LANE":" ","ALLEY":" ","HOUSE_NO":"５７號","E_COORD97":175779.75,"N_COORD97":2580540.48,"ADDRESS":"和平路５７號","OBJECTID":2539},"geometry":{"x":175779.75000000093,"y":2580540.4800000023}},{"attributes":{"ID":2540,"DIS_CODE":0,"TOWNNAME":"鹽水區","LI":"岸內里","LIN":"11鄰","STREET":"和平路","SECT":" ","MAREA":" ","LANE":" ","ALLEY":" ","HOUSE_NO":"５９號","E_COORD97":175775.95999999999,"N_COORD97":2580542.9900000002,"ADDRESS":"和平路５９號","OBJECTID":2540},"geometry":{"x":175775.96000000089,"y":2580542.9900000021}},{"attributes":{"ID":2541,"DIS_CODE":0,"TOWNNAME":"鹽水區","LI":"岸內里","LIN":"11鄰","STREET":"和平路","SECT":" ","MAREA":" ","LANE":" ","ALLEY":" ","HOUSE_NO":"６１號","E_COORD97":175772.17999999999,"N_COORD97":2580545.4900000002,"ADDRESS":"和平路６１號","OBJECTID":2541},"geometry":{"x":175772.17999999877,"y":2580545.4899999984}},{"attributes":{"ID":2542,"DIS_CODE":0,"TOWNNAME":"鹽水區","LI":"岸內里","LIN":"11鄰","STREET":"和平路","SECT":" ","MAREA":" ","LANE":" ","ALLEY":" ","HOUSE_NO":"６３號","E_COORD97":175767.17000000001,"N_COORD97":2580549.3700000001,"ADDRESS":"和平路６３號","OBJECTID":2542},"geometry":{"x":175767.16999999993,"y":2580549.370000001}},{"attributes":{"ID":2543,"DIS_CODE":0,"TOWNNAME":"鹽水區","LI":"岸內里","LIN":"13鄰","STREET":"和平路","SECT":" ","MAREA":" ","LANE":"６５巷","ALLEY":" ","HOUSE_NO":"１０號","E_COORD97":175685.14999999999,"N_COORD97":2580501.1699999999,"ADDRESS":"和平路６５巷１０號","OBJECTID":2543},"geometry":{"x":175685.15000000224,"y":2580501.1700000018}},{"attributes":{"ID":2544,"DIS_CODE":0,"TOWNNAME":"鹽水區","LI":"岸內里","LIN":"11鄰","STREET":"和平路","SECT":" ","MAREA":" ","LANE":"６５巷","ALLEY":" ","HOUSE_NO":"１號二樓之１","E_COORD97":175699.75,"N_COORD97":2580529.6000000001,"ADDRESS":"和平路６５巷１號二樓之１","OBJECTID":2544},"geometry":{"x":175699.75000000093,"y":2580529.5999999996}},{"attributes":{"ID":2545,"DIS_CODE":0,"TOWNNAME":"鹽水區","LI":"岸內里","LIN":"11鄰","STREET":"和平路","SECT":" ","MAREA":" ","LANE":"６５巷","ALLEY":" ","HOUSE_NO":"１號二樓之９","E_COORD97":175699.75,"N_COORD97":2580529.6000000001,"ADDRESS":"和平路６５巷１號二樓之９","OBJECTID":2545},"geometry":{"x":175699.75000000093,"y":2580529.5999999996}},{"attributes":{"ID":2546,"DIS_CODE":0,"TOWNNAME":"鹽水區","LI":"岸內里","LIN":"11鄰","STREET":"和平路","SECT":" ","MAREA":" ","LANE":"６５巷","ALLEY":" ","HOUSE_NO":"１號三樓之１０","E_COORD97":175699.75,"N_COORD97":2580529.6000000001,"ADDRESS":"和平路６５巷１號三樓之１０","OBJECTID":2546},"geometry":{"x":175699.75000000093,"y":2580529.5999999996}},{"attributes":{"ID":2547,"DIS_CODE":0,"TOWNNAME":"鹽水區","LI":"岸內里","LIN":"11鄰","STREET":"和平路","SECT":" ","MAREA":" ","LANE":"６５巷","ALLEY":" ","HOUSE_NO":"１號三樓之８","E_COORD97":175699.75,"N_COORD97":2580529.6000000001,"ADDRESS":"和平路６５巷１號三樓之８","OBJECTID":2547},"geometry":{"x":175699.75000000093,"y":2580529.5999999996}},{"attributes":{"ID":2548,"DIS_CODE":0,"TOWNNAME":"鹽水區","LI":"岸內里","LIN":"11鄰","STREET":"和平路","SECT":" ","MAREA":" ","LANE":"６５巷","ALLEY":" ","HOUSE_NO":"１號六樓之１","E_COORD97":175699.75,"N_COORD97":2580529.6000000001,"ADDRESS":"和平路６５巷１號六樓之１","OBJECTID":2548},"geometry":{"x":175699.75000000093,"y":2580529.5999999996}},{"attributes":{"ID":2549,"DIS_CODE":0,"TOWNNAME":"鹽水區","LI":"岸內里","LIN":"11鄰","STREET":"和平路","SECT":" ","MAREA":" ","LANE":"６５巷","ALLEY":" ","HOUSE_NO":"１號六樓之８","E_COORD97":175699.75,"N_COORD97":2580529.6000000001,"ADDRESS":"和平路６５巷１號六樓之８","OBJECTID":2549},"geometry":{"x":175699.75000000093,"y":2580529.5999999996}},{"attributes":{"ID":2550,"DIS_CODE":0,"TOWNNAME":"鹽水區","LI":"岸內里","LIN":"11鄰","STREET":"和平路","SECT":" ","MAREA":" ","LANE":"６５巷","ALLEY":" ","HOUSE_NO":"１號四樓之７","E_COORD97":175699.75,"N_COORD97":2580529.6000000001,"ADDRESS":"和平路６５巷１號四樓之７","OBJECTID":2550},"geometry":{"x":175699.75000000093,"y":2580529.5999999996}},{"attributes":{"ID":2551,"DIS_CODE":0,"TOWNNAME":"鹽水區","LI":"岸內里","LIN":"13鄰","STREET":"和平路","SECT":" ","MAREA":" ","LANE":"６５巷","ALLEY":" ","HOUSE_NO":"２０號","E_COORD97":175684.95000000001,"N_COORD97":2580466.23,"ADDRESS":"和平路６５巷２０號","OBJECTID":2551},"geometry":{"x":175684.95000000112,"y":2580466.2300000042}},{"attributes":{"ID":2552,"DIS_CODE":0,"TOWNNAME":"鹽水區","LI":"岸內里","LIN":"13鄰","STREET":"和平路","SECT":" ","MAREA":" ","LANE":"６５巷","ALLEY":" ","HOUSE_NO":"２２號","E_COORD97":175685.25,"N_COORD97":2580458.8999999999,"ADDRESS":"和平路６５巷２２號","OBJECTID":2552},"geometry":{"x":175685.25,"y":2580458.9000000022}},{"attributes":{"ID":2553,"DIS_CODE":0,"TOWNNAME":"鹽水區","LI":"岸內里","LIN":"12鄰","STREET":"和平路","SECT":" ","MAREA":" ","LANE":"６５巷","ALLEY":"２弄","HOUSE_NO":"１０號","E_COORD97":175666.47,"N_COORD97":2580554.1899999999,"ADDRESS":"和平路６５巷２弄１０號","OBJECTID":2553},"geometry":{"x":175666.46999999974,"y":2580554.1900000013}},{"attributes":{"ID":2554,"DIS_CODE":0,"TOWNNAME":"鹽水區","LI":"岸內里","LIN":"12鄰","STREET":"和平路","SECT":" ","MAREA":" ","LANE":"６５巷","ALLEY":"２弄","HOUSE_NO":"１９號","E_COORD97":175635.64000000001,"N_COORD97":2580536,"ADDRESS":"和平路６５巷２弄１９號","OBJECTID":2554},"geometry":{"x":175635.6400000006,"y":2580536.0000000019}},{"attributes":{"ID":2555,"DIS_CODE":0,"TOWNNAME":"鹽水區","LI":"岸內里","LIN":"12鄰","STREET":"和平路","SECT":" ","MAREA":" ","LANE":"６５巷","ALLEY":"２弄","HOUSE_NO":"１號","E_COORD97":175683.16,"N_COORD97":2580540.73,"ADDRESS":"和平路６５巷２弄１號","OBJECTID":2555},"geometry":{"x":175683.16000000201,"y":2580540.7299999986}},{"attributes":{"ID":2556,"DIS_CODE":0,"TOWNNAME":"鹽水區","LI":"岸內里","LIN":"12鄰","STREET":"和平路","SECT":" ","MAREA":" ","LANE":"６５巷","ALLEY":"２弄","HOUSE_NO":"３２號","E_COORD97":175618.42000000001,"N_COORD97":2580552.5699999998,"ADDRESS":"和平路６５巷２弄３２號","OBJECTID":2556},"geometry":{"x":175618.42000000179,"y":2580552.5700000022}},{"attributes":{"ID":2557,"DIS_CODE":0,"TOWNNAME":"鹽水區","LI":"岸內里","LIN":"14鄰","STREET":"和平路","SECT":" ","MAREA":" ","LANE":"６５巷","ALLEY":" ","HOUSE_NO":"３０號","E_COORD97":175684.57999999999,"N_COORD97":2580432.52,"ADDRESS":"和平路６５巷３０號","OBJECTID":2557},"geometry":{"x":175684.58000000007,"y":2580432.5199999996}},{"attributes":{"ID":2558,"DIS_CODE":0,"TOWNNAME":"鹽水區","LI":"岸內里","LIN":"14鄰","STREET":"和平路","SECT":" ","MAREA":" ","LANE":"６５巷","ALLEY":" ","HOUSE_NO":"３２號","E_COORD97":175684.82000000001,"N_COORD97":2580427.5,"ADDRESS":"和平路６５巷３２號","OBJECTID":2558},"geometry":{"x":175684.8200000003,"y":2580427.5000000019}},{"attributes":{"ID":2559,"DIS_CODE":0,"TOWNNAME":"鹽水區","LI":"岸內里","LIN":"11鄰","STREET":"和平路","SECT":" ","MAREA":" ","LANE":"６５巷","ALLEY":"５弄","HOUSE_NO":"８號","E_COORD97":175709.54000000001,"N_COORD97":2580488.3100000001,"ADDRESS":"和平路６５巷５弄８號","OBJECTID":2559},"geometry":{"x":175709.54000000097,"y":2580488.3100000005}},{"attributes":{"ID":2560,"DIS_CODE":0,"TOWNNAME":"鹽水區","LI":"岸內里","LIN":"11鄰","STREET":"和平路","SECT":" ","MAREA":" ","LANE":"６５巷","ALLEY":"７弄","HOUSE_NO":"１０號","E_COORD97":175716.51999999999,"N_COORD97":2580456.4900000002,"ADDRESS":"和平路６５巷７弄１０號","OBJECTID":2560},"geometry":{"x":175716.51999999955,"y":2580456.4900000002}},{"attributes":{"ID":2561,"DIS_CODE":0,"TOWNNAME":"鹽水區","LI":"岸內里","LIN":"11鄰","STREET":"和平路","SECT":" ","MAREA":" ","LANE":"６５巷","ALLEY":"７弄","HOUSE_NO":"８號","E_COORD97":175711.41,"N_COORD97":2580456.5,"ADDRESS":"和平路６５巷７弄８號","OBJECTID":2561},"geometry":{"x":175711.41000000015,"y":2580456.5}},{"attributes":{"ID":2562,"DIS_CODE":0,"TOWNNAME":"鹽水區","LI":"岸內里","LIN":"11鄰","STREET":"和平路","SECT":" ","MAREA":" ","LANE":"６５巷","ALLEY":"７弄","HOUSE_NO":"９號","E_COORD97":175720.60999999999,"N_COORD97":2580473.5,"ADDRESS":"和平路６５巷７弄９號","OBJECTID":2562},"geometry":{"x":175720.61000000034,"y":2580473.5}},{"attributes":{"ID":2563,"DIS_CODE":0,"TOWNNAME":"鹽水區","LI":"岸內里","LIN":"12鄰","STREET":"和平路","SECT":" ","MAREA":" ","LANE":" ","ALLEY":" ","HOUSE_NO":"６７號","E_COORD97":175683.39999999999,"N_COORD97":2580575.8399999999,"ADDRESS":"和平路６７號","OBJECTID":2563},"geometry":{"x":175683.40000000224,"y":2580575.8399999999}},{"attributes":{"ID":2564,"DIS_CODE":0,"TOWNNAME":"鹽水區","LI":"岸內里","LIN":"12鄰","STREET":"和平路","SECT":" ","MAREA":" ","LANE":" ","ALLEY":" ","HOUSE_NO":"７１號","E_COORD97":175674.85000000001,"N_COORD97":2580575.4399999999,"ADDRESS":"和平路７１號","OBJECTID":2564},"geometry":{"x":175674.85000000056,"y":2580575.4399999995}},{"attributes":{"ID":2565,"DIS_CODE":0,"TOWNNAME":"鹽水區","LI":"岸內里","LIN":"12鄰","STREET":"和平路","SECT":" ","MAREA":" ","LANE":" ","ALLEY":" ","HOUSE_NO":"７５號","E_COORD97":175666.29999999999,"N_COORD97":2580575.0499999998,"ADDRESS":"和平路７５號","OBJECTID":2565},"geometry":{"x":175666.29999999981,"y":2580575.0500000007}},{"attributes":{"ID":2566,"DIS_CODE":0,"TOWNNAME":"鹽水區","LI":"岸內里","LIN":"12鄰","STREET":"和平路","SECT":" ","MAREA":" ","LANE":" ","ALLEY":" ","HOUSE_NO":"７７號","E_COORD97":175662.03,"N_COORD97":2580574.8500000001,"ADDRESS":"和平路７７號","OBJECTID":2566},"geometry":{"x":175662.03000000212,"y":2580574.8499999996}},{"attributes":{"ID":2567,"DIS_CODE":0,"TOWNNAME":"鹽水區","LI":"岸內里","LIN":"12鄰","STREET":"和平路","SECT":" ","MAREA":" ","LANE":" ","ALLEY":" ","HOUSE_NO":"７９號","E_COORD97":175657.75,"N_COORD97":2580574.6499999999,"ADDRESS":"和平路７９號","OBJECTID":2567},"geometry":{"x":175657.75,"y":2580574.6500000004}},{"attributes":{"ID":2568,"DIS_CODE":0,"TOWNNAME":"鹽水區","LI":"岸內里","LIN":"12鄰","STREET":"和平路","SECT":" ","MAREA":" ","LANE":" ","ALLEY":" ","HOUSE_NO":"８１號","E_COORD97":175653.48000000001,"N_COORD97":2580574.4500000002,"ADDRESS":"和平路８１號","OBJECTID":2568},"geometry":{"x":175653.48000000045,"y":2580574.4499999993}},{"attributes":{"ID":2569,"DIS_CODE":0,"TOWNNAME":"鹽水區","LI":"岸內里","LIN":"11鄰","STREET":"朝琴路","SECT":" ","MAREA":" ","LANE":" ","ALLEY":" ","HOUSE_NO":"２４１號","E_COORD97":175806.20000000001,"N_COORD97":2580468.5499999998,"ADDRESS":"朝琴路２４１號","OBJECTID":2569},"geometry":{"x":175806.20000000019,"y":2580468.5500000026}},{"attributes":{"ID":2570,"DIS_CODE":0,"TOWNNAME":"鹽水區","LI":"岸內里","LIN":"11鄰","STREET":"朝琴路","SECT":" ","MAREA":" ","LANE":" ","ALLEY":" ","HOUSE_NO":"２４７號","E_COORD97":175818.01999999999,"N_COORD97":2580477.52,"ADDRESS":"朝琴路２４７號","OBJECTID":2570},"geometry":{"x":175818.02000000048,"y":2580477.5200000014}},{"attributes":{"ID":2571,"DIS_CODE":0,"TOWNNAME":"鹽水區","LI":"岸內里","LIN":"11鄰","STREET":"朝琴路","SECT":" ","MAREA":" ","LANE":"２４９巷","ALLEY":" ","HOUSE_NO":"１０號","E_COORD97":175808.76999999999,"N_COORD97":2580501.02,"ADDRESS":"朝琴路２４９巷１０號","OBJECTID":2571},"geometry":{"x":175808.76999999862,"y":2580501.0200000014}},{"attributes":{"ID":2572,"DIS_CODE":0,"TOWNNAME":"鹽水區","LI":"岸內里","LIN":"11鄰","STREET":"朝琴路","SECT":" ","MAREA":" ","LANE":"２４９巷","ALLEY":" ","HOUSE_NO":"１６號","E_COORD97":175800.64999999999,"N_COORD97":2580505.7200000002,"ADDRESS":"朝琴路２４９巷１６號","OBJECTID":2572},"geometry":{"x":175800.6500000013,"y":2580505.7200000007}},{"attributes":{"ID":2573,"DIS_CODE":0,"TOWNNAME":"鹽水區","LI":"岸內里","LIN":"12鄰","STREET":"蔦松路","SECT":" ","MAREA":" ","LANE":" ","ALLEY":" ","HOUSE_NO":"１１６號","E_COORD97":175572.56,"N_COORD97":2580553.5800000001,"ADDRESS":"蔦松路１１６號","OBJECTID":2573},"geometry":{"x":175572.55999999959,"y":2580553.5800000001}},{"attributes":{"ID":2574,"DIS_CODE":0,"TOWNNAME":"鹽水區","LI":"岸內里","LIN":"12鄰","STREET":"蔦松路","SECT":" ","MAREA":" ","LANE":" ","ALLEY":" ","HOUSE_NO":"１２６號","E_COORD97":175571.94,"N_COORD97":2580570.96,"ADDRESS":"蔦松路１２６號","OBJECTID":2574},"geometry":{"x":175571.94000000134,"y":2580570.9600000028}},{"attributes":{"ID":2575,"DIS_CODE":0,"TOWNNAME":"鹽水區","LI":"岸內里","LIN":"14鄰","STREET":"蔦松路","SECT":" ","MAREA":" ","LANE":" ","ALLEY":" ","HOUSE_NO":"２６號","E_COORD97":175584.17999999999,"N_COORD97":2580385.27,"ADDRESS":"蔦松路２６號","OBJECTID":2575},"geometry":{"x":175584.18000000156,"y":2580385.2700000014}},{"attributes":{"ID":2576,"DIS_CODE":0,"TOWNNAME":"鹽水區","LI":"岸內里","LIN":"14鄰","STREET":"蔦松路","SECT":" ","MAREA":" ","LANE":"２８巷","ALLEY":" ","HOUSE_NO":"１０號","E_COORD97":175612.56,"N_COORD97":2580382.1200000001,"ADDRESS":"蔦松路２８巷１０號","OBJECTID":2576},"geometry":{"x":175612.56000000052,"y":2580382.120000001}},{"attributes":{"ID":2577,"DIS_CODE":0,"TOWNNAME":"鹽水區","LI":"岸內里","LIN":"14鄰","STREET":"蔦松路","SECT":" ","MAREA":" ","LANE":"２８巷","ALLEY":" ","HOUSE_NO":"１６號","E_COORD97":175620.84,"N_COORD97":2580382.7200000002,"ADDRESS":"蔦松路２８巷１６號","OBJECTID":2577},"geometry":{"x":175620.84000000078,"y":2580382.7200000025}},{"attributes":{"ID":2578,"DIS_CODE":0,"TOWNNAME":"鹽水區","LI":"岸內里","LIN":"14鄰","STREET":"蔦松路","SECT":" ","MAREA":" ","LANE":"２巷","ALLEY":" ","HOUSE_NO":"１號","E_COORD97":175601.92000000001,"N_COORD97":2580360.75,"ADDRESS":"蔦松路２巷１號","OBJECTID":2578},"geometry":{"x":175601.92000000086,"y":2580360.7500000037}},{"attributes":{"ID":2579,"DIS_CODE":0,"TOWNNAME":"鹽水區","LI":"岸內里","LIN":"14鄰","STREET":"蔦松路","SECT":" ","MAREA":" ","LANE":"５６巷","ALLEY":" ","HOUSE_NO":"４６號三樓之３","E_COORD97":175645.57999999999,"N_COORD97":2580411.73,"ADDRESS":"蔦松路５６巷４６號三樓之３","OBJECTID":2579},"geometry":{"x":175645.58000000007,"y":2580411.7300000004}},{"attributes":{"ID":2580,"DIS_CODE":0,"TOWNNAME":"鹽水區","LI":"岸內里","LIN":"14鄰","STREET":"蔦松路","SECT":" ","MAREA":" ","LANE":"５６巷","ALLEY":" ","HOUSE_NO":"４６號六樓之２","E_COORD97":175645.57999999999,"N_COORD97":2580411.73,"ADDRESS":"蔦松路５６巷４６號六樓之２","OBJECTID":2580},"geometry":{"x":175645.58000000007,"y":2580411.7300000004}},{"attributes":{"ID":2581,"DIS_CODE":0,"TOWNNAME":"鹽水區","LI":"岸內里","LIN":"14鄰","STREET":"蔦松路","SECT":" ","MAREA":" ","LANE":"５６巷","ALLEY":" ","HOUSE_NO":"５０號五樓之１","E_COORD97":175671.67000000001,"N_COORD97":2580432.2200000002,"ADDRESS":"蔦松路５６巷５０號五樓之１","OBJECTID":2581},"geometry":{"x":175671.67000000086,"y":2580432.2200000007}},{"attributes":{"ID":2582,"DIS_CODE":0,"TOWNNAME":"鹽水區","LI":"岸內里","LIN":"14鄰","STREET":"蔦松路","SECT":" ","MAREA":" ","LANE":"５６巷","ALLEY":" ","HOUSE_NO":"６號","E_COORD97":175594.92999999999,"N_COORD97":2580428.8999999999,"ADDRESS":"蔦松路５６巷６號","OBJECTID":2582},"geometry":{"x":175594.93000000063,"y":2580428.9000000022}},{"attributes":{"ID":2583,"DIS_CODE":0,"TOWNNAME":"鹽水區","LI":"岸內里","LIN":"13鄰","STREET":"蔦松路","SECT":" ","MAREA":" ","LANE":"７２巷","ALLEY":" ","HOUSE_NO":"１３號","E_COORD97":175625.56,"N_COORD97":2580485.4300000002,"ADDRESS":"蔦松路７２巷１３號","OBJECTID":2583},"geometry":{"x":175625.56000000145,"y":2580485.4300000016}},{"attributes":{"ID":2584,"DIS_CODE":0,"TOWNNAME":"鹽水區","LI":"岸內里","LIN":"13鄰","STREET":"蔦松路","SECT":" ","MAREA":" ","LANE":"７２巷","ALLEY":" ","HOUSE_NO":"２５號","E_COORD97":175659.32000000001,"N_COORD97":2580487.2000000002,"ADDRESS":"蔦松路７２巷２５號","OBJECTID":2584},"geometry":{"x":175659.3200000003,"y":2580487.2000000011}},{"attributes":{"ID":2585,"DIS_CODE":0,"TOWNNAME":"鹽水區","LI":"岸內里","LIN":"13鄰","STREET":"蔦松路","SECT":" ","MAREA":" ","LANE":"７２巷","ALLEY":" ","HOUSE_NO":"７號","E_COORD97":175608.67000000001,"N_COORD97":2580484.54,"ADDRESS":"蔦松路７２巷７號","OBJECTID":2585},"geometry":{"x":175608.67000000086,"y":2580484.540000001}},{"attributes":{"ID":2586,"DIS_CODE":0,"TOWNNAME":"鹽水區","LI":"岸內里","LIN":"13鄰","STREET":"蔦松路","SECT":" ","MAREA":" ","LANE":" ","ALLEY":" ","HOUSE_NO":"７６號","E_COORD97":175576.42000000001,"N_COORD97":2580478.0600000001,"ADDRESS":"蔦松路７６號","OBJECTID":2586},"geometry":{"x":175576.42000000086,"y":2580478.0600000024}},{"attributes":{"ID":2587,"DIS_CODE":0,"TOWNNAME":"鹽水區","LI":"岸內里","LIN":"13鄰","STREET":"蔦松路","SECT":" ","MAREA":" ","LANE":" ","ALLEY":" ","HOUSE_NO":"８０號","E_COORD97":175575.95000000001,"N_COORD97":2580488.0899999999,"ADDRESS":"蔦松路８０號","OBJECTID":2587},"geometry":{"x":175575.94999999925,"y":2580488.0900000017}},{"attributes":{"ID":2588,"DIS_CODE":0,"TOWNNAME":"鹽水區","LI":"岸內里","LIN":"13鄰","STREET":"蔦松路","SECT":" ","MAREA":" ","LANE":"９０巷","ALLEY":" ","HOUSE_NO":"１０號","E_COORD97":175607.66,"N_COORD97":2580502.21,"ADDRESS":"蔦松路９０巷１０號","OBJECTID":2588},"geometry":{"x":175607.66000000015,"y":2580502.2100000028}},{"attributes":{"ID":2589,"DIS_CODE":0,"TOWNNAME":"鹽水區","LI":"岸內里","LIN":"12鄰","STREET":"蔦松路","SECT":" ","MAREA":" ","LANE":"９０巷","ALLEY":" ","HOUSE_NO":"１９號","E_COORD97":175644.66,"N_COORD97":2580521.8300000001,"ADDRESS":"蔦松路９０巷１９號","OBJECTID":2589},"geometry":{"x":175644.66000000108,"y":2580521.8300000001}},{"attributes":{"ID":2590,"DIS_CODE":0,"TOWNNAME":"鹽水區","LI":"岸內里","LIN":"12鄰","STREET":"蔦松路","SECT":" ","MAREA":" ","LANE":"９０巷","ALLEY":" ","HOUSE_NO":"３３號","E_COORD97":175683.92999999999,"N_COORD97":2580524.7000000002,"ADDRESS":"蔦松路９０巷３３號","OBJECTID":2590},"geometry":{"x":175683.9299999997,"y":2580524.6999999993}},{"attributes":{"ID":2591,"DIS_CODE":0,"TOWNNAME":"新市區","LI":"新市里","LIN":"23鄰","STREET":"富林路","SECT":" ","MAREA":" ","LANE":" ","ALLEY":" ","HOUSE_NO":"５號","E_COORD97":177774.94484400001,"N_COORD97":2553581.9172700001,"ADDRESS":"富林路５號","OBJECTID":2591},"geometry":{"x":177774.94484400004,"y":2553581.9172670003}},{"attributes":{"ID":2592,"DIS_CODE":0,"TOWNNAME":"南區","LI":"明興里","LIN":"20鄰","STREET":"金華路","SECT":"一段","MAREA":" ","LANE":"８４巷","ALLEY":" ","HOUSE_NO":"６之１號","E_COORD97":166931.30322100001,"N_COORD97":2540425.50306,"ADDRESS":"金華路一段８４巷６之１號","OBJECTID":2592},"geometry":{"x":166931.30322100129,"y":2540425.5030569993}},{"attributes":{"ID":2593,"DIS_CODE":0,"TOWNNAME":"官田區","LI":"嘉南里","LIN":"7鄰","STREET":" ","SECT":" ","MAREA":" ","LANE":" ","ALLEY":" ","HOUSE_NO":"７０號之１７","E_COORD97":184880.05051299999,"N_COORD97":2567987.0024999999,"ADDRESS":"７０號之１７","OBJECTID":2593},"geometry":{"x":184880.05051300023,"y":2567987.0025010034}},{"attributes":{"ID":2594,"DIS_CODE":0,"TOWNNAME":"鹽水區","LI":"岸內里","LIN":"10鄰","STREET":" ","SECT":" ","MAREA":"新岸內","LANE":" ","ALLEY":" ","HOUSE_NO":"１２３號","E_COORD97":174343.54000000001,"N_COORD97":2581082.2200000002,"ADDRESS":"新岸內１２３號","OBJECTID":2594},"geometry":{"x":174343.54000000097,"y":2581082.2200000007}},{"attributes":{"ID":2595,"DIS_CODE":0,"TOWNNAME":"鹽水區","LI":"岸內里","LIN":"10鄰","STREET":" ","SECT":" ","MAREA":"新岸內","LANE":" ","ALLEY":" ","HOUSE_NO":"１２４號","E_COORD97":174337.59,"N_COORD97":2581077.7000000002,"ADDRESS":"新岸內１２４號","OBJECTID":2595},"geometry":{"x":174337.59000000078,"y":2581077.6999999993}},{"attributes":{"ID":2596,"DIS_CODE":0,"TOWNNAME":"鹽水區","LI":"岸內里","LIN":"10鄰","STREET":" ","SECT":" ","MAREA":"新岸內","LANE":" ","ALLEY":" ","HOUSE_NO":"１２５號","E_COORD97":174331.07000000001,"N_COORD97":2581073.2000000002,"ADDRESS":"新岸內１２５號","OBJECTID":2596},"geometry":{"x":174331.07000000216,"y":2581073.2000000011}},{"attributes":{"ID":2597,"DIS_CODE":0,"TOWNNAME":"新市區","LI":"永就里","LIN":"6鄰","STREET":" ","SECT":" ","MAREA":"永就","LANE":" ","ALLEY":" ","HOUSE_NO":"６４之９０號","E_COORD97":177811.300518,"N_COORD97":2551154.2366499999,"ADDRESS":"永就６４之９０號","OBJECTID":2597},"geometry":{"x":177811.30051799957,"y":2551154.2366480026}},{"attributes":{"ID":2598,"DIS_CODE":0,"TOWNNAME":"新市區","LI":"永就里","LIN":"3鄰","STREET":" ","SECT":" ","MAREA":"永就","LANE":" ","ALLEY":" ","HOUSE_NO":"３７之５號","E_COORD97":178490.32575399999,"N_COORD97":2551445.3771500001,"ADDRESS":"永就３７之５號","OBJECTID":2598},"geometry":{"x":178490.32575399987,"y":2551445.3771470021}},{"attributes":{"ID":2599,"DIS_CODE":0,"TOWNNAME":"新市區","LI":"永就里","LIN":"3鄰","STREET":" ","SECT":" ","MAREA":"永就","LANE":" ","ALLEY":" ","HOUSE_NO":"３７之７號","E_COORD97":178487.21569700001,"N_COORD97":2551445.5985699999,"ADDRESS":"永就３７之７號","OBJECTID":2599},"geometry":{"x":178487.21569699887,"y":2551445.5985669997}},{"attributes":{"ID":2600,"DIS_CODE":0,"TOWNNAME":"新市區","LI":"永就里","LIN":"3鄰","STREET":" ","SECT":" ","MAREA":"永就","LANE":" ","ALLEY":" ","HOUSE_NO":"３７之９號","E_COORD97":178484.34053399999,"N_COORD97":2551445.8947800002,"ADDRESS":"永就３７之９號","OBJECTID":2600},"geometry":{"x":178484.34053400066,"y":2551445.8947819993}}]}