{"displayFieldName":"TOWNNAME","fieldAliases":{"ID":"ID","DIS_CODE":"DIS_CODE","TOWNNAME":"TOWNNAME","LI":"LI","LIN":"LIN","STREET":"STREET","SECT":"SECT","MAREA":"MAREA","LANE":"LANE","ALLEY":"ALLEY","HOUSE_NO":"HOUSE_NO","E_COORD97":"E_COORD97","N_COORD97":"N_COORD97","ADDRESS":"ADDRESS","OBJECTID":"OBJECTID"},"geometryType":"esriGeometryPoint","spatialReference":{"wkid":102443,"latestWkid":3826},"fields":[{"name":"ID","type":"esriFieldTypeDouble","alias":"ID"},{"name":"DIS_CODE","type":"esriFieldTypeInteger","alias":"DIS_CODE"},{"name":"TOWNNAME","type":"esriFieldTypeString","alias":"TOWNNAME","length":8},{"name":"LI","type":"esriFieldTypeString","alias":"LI","length":8},{"name":"LIN","type":"esriFieldTypeString","alias":"LIN","length":12},{"name":"STREET","type":"esriFieldTypeString","alias":"STREET","length":20},{"name":"SECT","type":"esriFieldTypeString","alias":"SECT","length":8},{"name":"MAREA","type":"esriFieldTypeString","alias":"MAREA","length":12},{"name":"LANE","type":"esriFieldTypeString","alias":"LANE","length":10},{"name":"ALLEY","type":"esriFieldTypeString","alias":"ALLEY","length":10},{"name":"HOUSE_NO","type":"esriFieldTypeString","alias":"HOUSE_NO","length":20},{"name":"E_COORD97","type":"esriFieldTypeDouble","alias":"E_COORD97"},{"name":"N_COORD97","type":"esriFieldTypeDouble","alias":"N_COORD97"},{"name":"ADDRESS","type":"esriFieldTypeString","alias":"ADDRESS","length":50},{"name":"OBJECTID","type":"esriFieldTypeOID","alias":"OBJECTID"}],"features":[{"attributes":{"ID":558228,"DIS_CODE":0,"TOWNNAME":"北區","LI":"長德里","LIN":"9鄰","STREET":"西門路","SECT":"三段","MAREA":" ","LANE":" ","ALLEY":" ","HOUSE_NO":"２６８號","E_COORD97":168505.85999999999,"N_COORD97":2544995.9900000002,"ADDRESS":"西門路三段２６８號","OBJECTID":558201},"geometry":{"x":168505.86000000034,"y":2544995.9900000002}},{"attributes":{"ID":558229,"DIS_CODE":0,"TOWNNAME":"北區","LI":"長德里","LIN":"9鄰","STREET":"西門路","SECT":"三段","MAREA":" ","LANE":" ","ALLEY":" ","HOUSE_NO":"２７０號","E_COORD97":168508.17999999999,"N_COORD97":2544999.25,"ADDRESS":"西門路三段２７０號","OBJECTID":558202},"geometry":{"x":168508.1799999997,"y":2544999.2500000037}},{"attributes":{"ID":558230,"DIS_CODE":0,"TOWNNAME":"北區","LI":"長德里","LIN":"9鄰","STREET":"西門路","SECT":"三段","MAREA":" ","LANE":" ","ALLEY":" ","HOUSE_NO":"２７２號","E_COORD97":168511.70999999999,"N_COORD97":2545002.9900000002,"ADDRESS":"西門路三段２７２號","OBJECTID":558203},"geometry":{"x":168511.70999999996,"y":2545002.9900000002}},{"attributes":{"ID":558231,"DIS_CODE":0,"TOWNNAME":"北區","LI":"長德里","LIN":"9鄰","STREET":"西門路","SECT":"三段","MAREA":" ","LANE":" ","ALLEY":" ","HOUSE_NO":"２７４號","E_COORD97":168515.23999999999,"N_COORD97":2545006.8300000001,"ADDRESS":"西門路三段２７４號","OBJECTID":558204},"geometry":{"x":168515.23999999929,"y":2545006.8300000019}},{"attributes":{"ID":558232,"DIS_CODE":0,"TOWNNAME":"北區","LI":"長德里","LIN":"9鄰","STREET":"西門路","SECT":"三段","MAREA":" ","LANE":" ","ALLEY":" ","HOUSE_NO":"２７６號","E_COORD97":168516.67000000001,"N_COORD97":2545012.0800000001,"ADDRESS":"西門路三段２７６號","OBJECTID":558205},"geometry":{"x":168516.66999999993,"y":2545012.0800000001}},{"attributes":{"ID":558233,"DIS_CODE":0,"TOWNNAME":"北區","LI":"長德里","LIN":"9鄰","STREET":"西門路","SECT":"三段","MAREA":" ","LANE":" ","ALLEY":" ","HOUSE_NO":"２７８號","E_COORD97":168525.78,"N_COORD97":2545014.02,"ADDRESS":"西門路三段２７８號","OBJECTID":558206},"geometry":{"x":168525.78000000119,"y":2545014.0200000014}},{"attributes":{"ID":558234,"DIS_CODE":0,"TOWNNAME":"北區","LI":"長德里","LIN":"9鄰","STREET":"西門路","SECT":"三段","MAREA":" ","LANE":" ","ALLEY":" ","HOUSE_NO":"２８０號","E_COORD97":168530.10000000001,"N_COORD97":2545020.02,"ADDRESS":"西門路三段２８０號","OBJECTID":558207},"geometry":{"x":168530.09999999963,"y":2545020.0199999996}},{"attributes":{"ID":558235,"DIS_CODE":0,"TOWNNAME":"北區","LI":"長德里","LIN":"9鄰","STREET":"西門路","SECT":"三段","MAREA":" ","LANE":" ","ALLEY":" ","HOUSE_NO":"２８２號","E_COORD97":168533.53,"N_COORD97":2545023.6699999999,"ADDRESS":"西門路三段２８２號","OBJECTID":558208},"geometry":{"x":168533.53000000026,"y":2545023.6700000018}},{"attributes":{"ID":558236,"DIS_CODE":0,"TOWNNAME":"北區","LI":"長德里","LIN":"9鄰","STREET":"西門路","SECT":"三段","MAREA":" ","LANE":" ","ALLEY":" ","HOUSE_NO":"２８４號","E_COORD97":168535.20999999999,"N_COORD97":2545027.5099999998,"ADDRESS":"西門路三段２８４號","OBJECTID":558209},"geometry":{"x":168535.20999999996,"y":2545027.5100000035}},{"attributes":{"ID":558237,"DIS_CODE":0,"TOWNNAME":"北區","LI":"三德里","LIN":"9鄰","STREET":"公園南路","SECT":" ","MAREA":" ","LANE":" ","ALLEY":" ","HOUSE_NO":"２３９號","E_COORD97":168501.10000000001,"N_COORD97":2544718.2200000002,"ADDRESS":"公園南路２３９號","OBJECTID":558210},"geometry":{"x":168501.10000000056,"y":2544718.2199999988}},{"attributes":{"ID":558238,"DIS_CODE":0,"TOWNNAME":"北區","LI":"三德里","LIN":"9鄰","STREET":"公園南路","SECT":" ","MAREA":" ","LANE":" ","ALLEY":" ","HOUSE_NO":"２４１號","E_COORD97":168494.67000000001,"N_COORD97":2544720.4100000001,"ADDRESS":"公園南路２４１號","OBJECTID":558211},"geometry":{"x":168494.66999999993,"y":2544720.410000002}},{"attributes":{"ID":558239,"DIS_CODE":0,"TOWNNAME":"北區","LI":"三德里","LIN":"9鄰","STREET":"公園南路","SECT":" ","MAREA":" ","LANE":" ","ALLEY":" ","HOUSE_NO":"２４３號","E_COORD97":168489.95999999999,"N_COORD97":2544721.1899999999,"ADDRESS":"公園南路２４３號","OBJECTID":558212},"geometry":{"x":168489.96000000183,"y":2544721.1900000013}},{"attributes":{"ID":558240,"DIS_CODE":0,"TOWNNAME":"北區","LI":"三德里","LIN":"9鄰","STREET":"公園南路","SECT":" ","MAREA":" ","LANE":" ","ALLEY":" ","HOUSE_NO":"２４５號","E_COORD97":168483.84,"N_COORD97":2544720.7200000002,"ADDRESS":"公園南路２４５號","OBJECTID":558213},"geometry":{"x":168483.84000000171,"y":2544720.7200000007}},{"attributes":{"ID":558241,"DIS_CODE":0,"TOWNNAME":"北區","LI":"三德里","LIN":"9鄰","STREET":"公園南路","SECT":" ","MAREA":" ","LANE":" ","ALLEY":" ","HOUSE_NO":"２４７號","E_COORD97":168482.89999999999,"N_COORD97":2544716.02,"ADDRESS":"公園南路２４７號","OBJECTID":558214},"geometry":{"x":168482.9000000013,"y":2544716.0200000014}},{"attributes":{"ID":558242,"DIS_CODE":0,"TOWNNAME":"歸仁區","LI":"大潭里","LIN":"9鄰","STREET":"長榮路","SECT":"一段","MAREA":" ","LANE":" ","ALLEY":" ","HOUSE_NO":"３８４號","E_COORD97":175390.87,"N_COORD97":2534451.2799999998,"ADDRESS":"長榮路一段３８４號","OBJECTID":558215},"geometry":{"x":175390.87000000104,"y":2534451.2800000012}},{"attributes":{"ID":558243,"DIS_CODE":0,"TOWNNAME":"歸仁區","LI":"歸南里","LIN":"9鄰","STREET":"民生九街","SECT":" ","MAREA":" ","LANE":" ","ALLEY":" ","HOUSE_NO":"６３號","E_COORD97":176225.69,"N_COORD97":2540166.29,"ADDRESS":"民生九街６３號","OBJECTID":558216},"geometry":{"x":176225.69000000227,"y":2540166.2899999972}},{"attributes":{"ID":558244,"DIS_CODE":0,"TOWNNAME":"歸仁區","LI":"南保里","LIN":"9鄰","STREET":"文化八街","SECT":" ","MAREA":" ","LANE":" ","ALLEY":" ","HOUSE_NO":"２８號","E_COORD97":176757.34,"N_COORD97":2541289.3300000001,"ADDRESS":"文化八街２８號","OBJECTID":558217},"geometry":{"x":176757.33999999985,"y":2541289.3300000038}},{"attributes":{"ID":558245,"DIS_CODE":0,"TOWNNAME":"玉井區","LI":"玉井里","LIN":"9鄰","STREET":"富強街","SECT":" ","MAREA":" ","LANE":" ","ALLEY":" ","HOUSE_NO":"４７號","E_COORD97":194828.51000000001,"N_COORD97":2558241.25,"ADDRESS":"富強街４７號","OBJECTID":558218},"geometry":{"x":194828.50999999978,"y":2558241.25}},{"attributes":{"ID":558246,"DIS_CODE":0,"TOWNNAME":"玉井區","LI":"玉田里","LIN":"9鄰","STREET":"中華路","SECT":" ","MAREA":" ","LANE":" ","ALLEY":" ","HOUSE_NO":"６８號","E_COORD97":194954,"N_COORD97":2558038.25,"ADDRESS":"中華路６８號","OBJECTID":558219},"geometry":{"x":194954.00000000093,"y":2558038.2500000037}},{"attributes":{"ID":558247,"DIS_CODE":0,"TOWNNAME":"學甲區","LI":"慈福里","LIN":"9鄰","STREET":"民族路","SECT":" ","MAREA":" ","LANE":" ","ALLEY":" ","HOUSE_NO":"５號之１","E_COORD97":166531.48999999999,"N_COORD97":2570000.7799999998,"ADDRESS":"民族路５號之１","OBJECTID":558220},"geometry":{"x":166531.49000000022,"y":2570000.7799999993}},{"attributes":{"ID":558248,"DIS_CODE":0,"TOWNNAME":"學甲區","LI":"慈福里","LIN":"9鄰","STREET":"民族路","SECT":" ","MAREA":" ","LANE":" ","ALLEY":" ","HOUSE_NO":"５號之２","E_COORD97":166525.91,"N_COORD97":2570001.9300000002,"ADDRESS":"民族路５號之２","OBJECTID":558221},"geometry":{"x":166525.91000000108,"y":2570001.9300000016}},{"attributes":{"ID":558249,"DIS_CODE":0,"TOWNNAME":"學甲區","LI":"慈福里","LIN":"9鄰","STREET":"民族路","SECT":" ","MAREA":" ","LANE":" ","ALLEY":" ","HOUSE_NO":"５號之３","E_COORD97":166520.87,"N_COORD97":2570003.0699999998,"ADDRESS":"民族路５號之３","OBJECTID":558222},"geometry":{"x":166520.87000000197,"y":2570003.0700000003}},{"attributes":{"ID":558250,"DIS_CODE":0,"TOWNNAME":"學甲區","LI":"慈福里","LIN":"9鄰","STREET":"民族路","SECT":" ","MAREA":" ","LANE":" ","ALLEY":" ","HOUSE_NO":"５號之４","E_COORD97":166515.73000000001,"N_COORD97":2570003.9399999999,"ADDRESS":"民族路５號之４","OBJECTID":558223},"geometry":{"x":166515.73000000138,"y":2570003.9399999995}},{"attributes":{"ID":558251,"DIS_CODE":0,"TOWNNAME":"學甲區","LI":"慈福里","LIN":"9鄰","STREET":"民族路","SECT":" ","MAREA":" ","LANE":" ","ALLEY":" ","HOUSE_NO":"９號","E_COORD97":166542.64999999999,"N_COORD97":2570010.54,"ADDRESS":"民族路９號","OBJECTID":558224},"geometry":{"x":166542.65000000037,"y":2570010.5400000028}},{"attributes":{"ID":558252,"DIS_CODE":0,"TOWNNAME":"歸仁區","LI":"文化里","LIN":"9鄰","STREET":"文化北二街","SECT":" ","MAREA":" ","LANE":" ","ALLEY":" ","HOUSE_NO":"１４６號","E_COORD97":177076.06,"N_COORD97":2541375.3399999999,"ADDRESS":"文化北二街１４６號","OBJECTID":558225},"geometry":{"x":177076.05999999959,"y":2541375.3400000017}},{"attributes":{"ID":558253,"DIS_CODE":0,"TOWNNAME":"歸仁區","LI":"文化里","LIN":"9鄰","STREET":"文化北二街","SECT":" ","MAREA":" ","LANE":" ","ALLEY":" ","HOUSE_NO":"７９號","E_COORD97":177090.20999999999,"N_COORD97":2541386.3399999999,"ADDRESS":"文化北二街７９號","OBJECTID":558226},"geometry":{"x":177090.21000000089,"y":2541386.3399999999}},{"attributes":{"ID":558254,"DIS_CODE":0,"TOWNNAME":"東區","LI":"裕農里","LIN":"1鄰","STREET":"裕農路","SECT":" ","MAREA":" ","LANE":" ","ALLEY":" ","HOUSE_NO":"９７號","E_COORD97":170785.35999999999,"N_COORD97":2542957.4300000002,"ADDRESS":"裕農路９７號","OBJECTID":558227},"geometry":{"x":170785.36000000127,"y":2542957.4300000016}},{"attributes":{"ID":558255,"DIS_CODE":0,"TOWNNAME":"楠西區","LI":"東勢里","LIN":"9鄰","STREET":"水庫路","SECT":" ","MAREA":" ","LANE":" ","ALLEY":" ","HOUSE_NO":"２６２號","E_COORD97":197728.47,"N_COORD97":2564115.25,"ADDRESS":"水庫路２６２號","OBJECTID":558228},"geometry":{"x":197728.47000000067,"y":2564115.2500000019}},{"attributes":{"ID":558256,"DIS_CODE":0,"TOWNNAME":"南區","LI":"南都里","LIN":"9鄰","STREET":"中華南路","SECT":"二段","MAREA":" ","LANE":" ","ALLEY":" ","HOUSE_NO":"２５１號","E_COORD97":166619.07999999999,"N_COORD97":2540259.1400000001,"ADDRESS":"中華南路二段２５１號","OBJECTID":558229},"geometry":{"x":166619.08000000007,"y":2540259.1400000006}},{"attributes":{"ID":558257,"DIS_CODE":0,"TOWNNAME":"南區","LI":"南都里","LIN":"9鄰","STREET":"中華南路","SECT":"二段","MAREA":" ","LANE":" ","ALLEY":" ","HOUSE_NO":"２５３號","E_COORD97":166614.54999999999,"N_COORD97":2540256.6000000001,"ADDRESS":"中華南路二段２５３號","OBJECTID":558230},"geometry":{"x":166614.55000000075,"y":2540256.6000000034}},{"attributes":{"ID":558258,"DIS_CODE":0,"TOWNNAME":"南區","LI":"南都里","LIN":"9鄰","STREET":"中華南路","SECT":"二段","MAREA":" ","LANE":" ","ALLEY":" ","HOUSE_NO":"２５５號","E_COORD97":166610.03,"N_COORD97":2540258.8500000001,"ADDRESS":"中華南路二段２５５號","OBJECTID":558231},"geometry":{"x":166610.03000000119,"y":2540258.8500000015}},{"attributes":{"ID":558259,"DIS_CODE":0,"TOWNNAME":"南區","LI":"南都里","LIN":"9鄰","STREET":"中華南路","SECT":"二段","MAREA":" ","LANE":" ","ALLEY":" ","HOUSE_NO":"２５７號","E_COORD97":166605.79000000001,"N_COORD97":2540256.6000000001,"ADDRESS":"中華南路二段２５７號","OBJECTID":558232},"geometry":{"x":166605.79000000004,"y":2540256.6000000034}},{"attributes":{"ID":558260,"DIS_CODE":0,"TOWNNAME":"南區","LI":"南都里","LIN":"9鄰","STREET":"中華南路","SECT":"二段","MAREA":" ","LANE":" ","ALLEY":" ","HOUSE_NO":"２５９號","E_COORD97":166600.41,"N_COORD97":2540259.1400000001,"ADDRESS":"中華南路二段２５９號","OBJECTID":558233},"geometry":{"x":166600.41000000108,"y":2540259.1400000006}},{"attributes":{"ID":558261,"DIS_CODE":0,"TOWNNAME":"南區","LI":"南都里","LIN":"9鄰","STREET":"中華南路","SECT":"二段","MAREA":" ","LANE":" ","ALLEY":" ","HOUSE_NO":"２６１號","E_COORD97":166595.89000000001,"N_COORD97":2540256.8799999999,"ADDRESS":"中華南路二段２６１號","OBJECTID":558234},"geometry":{"x":166595.88999999966,"y":2540256.879999999}},{"attributes":{"ID":558262,"DIS_CODE":0,"TOWNNAME":"南區","LI":"南都里","LIN":"9鄰","STREET":"中華南路","SECT":"二段","MAREA":" ","LANE":" ","ALLEY":" ","HOUSE_NO":"２６３號","E_COORD97":166592.20999999999,"N_COORD97":2540258.8500000001,"ADDRESS":"中華南路二段２６３號","OBJECTID":558235},"geometry":{"x":166592.20999999996,"y":2540258.8500000015}},{"attributes":{"ID":558263,"DIS_CODE":0,"TOWNNAME":"南區","LI":"南都里","LIN":"9鄰","STREET":"中華南路","SECT":"二段","MAREA":" ","LANE":" ","ALLEY":" ","HOUSE_NO":"２６５號","E_COORD97":166587.97,"N_COORD97":2540256.8799999999,"ADDRESS":"中華南路二段２６５號","OBJECTID":558236},"geometry":{"x":166587.97000000067,"y":2540256.879999999}},{"attributes":{"ID":558264,"DIS_CODE":0,"TOWNNAME":"南區","LI":"南都里","LIN":"9鄰","STREET":"中華南路","SECT":"二段","MAREA":" ","LANE":" ","ALLEY":" ","HOUSE_NO":"２６７號","E_COORD97":166581.75,"N_COORD97":2540259.1400000001,"ADDRESS":"中華南路二段２６７號","OBJECTID":558237},"geometry":{"x":166581.75,"y":2540259.1400000006}},{"attributes":{"ID":558265,"DIS_CODE":0,"TOWNNAME":"南區","LI":"南都里","LIN":"9鄰","STREET":"中華南路","SECT":"二段","MAREA":" ","LANE":" ","ALLEY":" ","HOUSE_NO":"２６９號","E_COORD97":166577.51000000001,"N_COORD97":2540256.8799999999,"ADDRESS":"中華南路二段２６９號","OBJECTID":558238},"geometry":{"x":166577.51000000071,"y":2540256.879999999}},{"attributes":{"ID":558266,"DIS_CODE":0,"TOWNNAME":"南區","LI":"南都里","LIN":"9鄰","STREET":"中華南路","SECT":"二段","MAREA":" ","LANE":" ","ALLEY":" ","HOUSE_NO":"２７１號","E_COORD97":166573.54999999999,"N_COORD97":2540259.1400000001,"ADDRESS":"中華南路二段２７１號","OBJECTID":558239},"geometry":{"x":166573.55000000168,"y":2540259.1400000006}},{"attributes":{"ID":558267,"DIS_CODE":0,"TOWNNAME":"南區","LI":"南都里","LIN":"9鄰","STREET":"中華南路","SECT":"二段","MAREA":" ","LANE":" ","ALLEY":" ","HOUSE_NO":"２７３號","E_COORD97":166569.31,"N_COORD97":2540257.4399999999,"ADDRESS":"中華南路二段２７３號","OBJECTID":558240},"geometry":{"x":166569.30999999959,"y":2540257.4400000032}},{"attributes":{"ID":558268,"DIS_CODE":0,"TOWNNAME":"南區","LI":"南都里","LIN":"9鄰","STREET":"中華南路","SECT":"二段","MAREA":" ","LANE":" ","ALLEY":" ","HOUSE_NO":"２７５號","E_COORD97":166564.22,"N_COORD97":2540259.4199999999,"ADDRESS":"中華南路二段２７５號","OBJECTID":558241},"geometry":{"x":166564.22000000067,"y":2540259.4200000018}},{"attributes":{"ID":558269,"DIS_CODE":0,"TOWNNAME":"南區","LI":"南都里","LIN":"9鄰","STREET":"中華南路","SECT":"二段","MAREA":" ","LANE":" ","ALLEY":" ","HOUSE_NO":"２７７號","E_COORD97":166559.98000000001,"N_COORD97":2540257.1600000001,"ADDRESS":"中華南路二段２７７號","OBJECTID":558242},"geometry":{"x":166559.98000000138,"y":2540257.160000002}},{"attributes":{"ID":558270,"DIS_CODE":0,"TOWNNAME":"南區","LI":"南都里","LIN":"9鄰","STREET":"中華南路","SECT":"二段","MAREA":" ","LANE":" ","ALLEY":" ","HOUSE_NO":"２７９號","E_COORD97":166556.29999999999,"N_COORD97":2540259.4199999999,"ADDRESS":"中華南路二段２７９號","OBJECTID":558243},"geometry":{"x":166556.29999999981,"y":2540259.4200000018}},{"attributes":{"ID":558271,"DIS_CODE":0,"TOWNNAME":"南區","LI":"南都里","LIN":"9鄰","STREET":"中華南路","SECT":"二段","MAREA":" ","LANE":" ","ALLEY":" ","HOUSE_NO":"２８１號","E_COORD97":166551.78,"N_COORD97":2540257.4399999999,"ADDRESS":"中華南路二段２８１號","OBJECTID":558244},"geometry":{"x":166551.78000000026,"y":2540257.4400000032}},{"attributes":{"ID":558272,"DIS_CODE":0,"TOWNNAME":"南區","LI":"南都里","LIN":"9鄰","STREET":"南和路","SECT":" ","MAREA":" ","LANE":" ","ALLEY":" ","HOUSE_NO":"１２號之１","E_COORD97":166666.04000000001,"N_COORD97":2540106.5499999998,"ADDRESS":"南和路１２號之１","OBJECTID":558245},"geometry":{"x":166666.04000000097,"y":2540106.5500000026}},{"attributes":{"ID":558273,"DIS_CODE":0,"TOWNNAME":"南區","LI":"南都里","LIN":"9鄰","STREET":"南和路","SECT":" ","MAREA":" ","LANE":" ","ALLEY":" ","HOUSE_NO":"１２號之２","E_COORD97":166662.17000000001,"N_COORD97":2540103.6600000001,"ADDRESS":"南和路１２號之２","OBJECTID":558246},"geometry":{"x":166662.16999999993,"y":2540103.6600000001}},{"attributes":{"ID":558274,"DIS_CODE":0,"TOWNNAME":"南區","LI":"南都里","LIN":"9鄰","STREET":"南和路","SECT":" ","MAREA":" ","LANE":" ","ALLEY":" ","HOUSE_NO":"１２號之３","E_COORD97":166658.62,"N_COORD97":2540101.0800000001,"ADDRESS":"南和路１２號之３","OBJECTID":558247},"geometry":{"x":166658.62000000104,"y":2540101.0800000038}},{"attributes":{"ID":558275,"DIS_CODE":0,"TOWNNAME":"南區","LI":"南都里","LIN":"9鄰","STREET":"南和路","SECT":" ","MAREA":" ","LANE":" ","ALLEY":" ","HOUSE_NO":"１２號之４","E_COORD97":166652.17000000001,"N_COORD97":2540102.3700000001,"ADDRESS":"南和路１２號之４","OBJECTID":558248},"geometry":{"x":166652.16999999993,"y":2540102.370000001}},{"attributes":{"ID":558276,"DIS_CODE":0,"TOWNNAME":"南區","LI":"南都里","LIN":"9鄰","STREET":"南和路","SECT":" ","MAREA":" ","LANE":" ","ALLEY":" ","HOUSE_NO":"１２號之５","E_COORD97":166648.31,"N_COORD97":2540098.5099999998,"ADDRESS":"南和路１２號之５","OBJECTID":558249},"geometry":{"x":166648.31000000052,"y":2540098.5100000016}},{"attributes":{"ID":558277,"DIS_CODE":0,"TOWNNAME":"南區","LI":"南都里","LIN":"9鄰","STREET":"南和路","SECT":" ","MAREA":" ","LANE":" ","ALLEY":" ","HOUSE_NO":"６號","E_COORD97":166740.91,"N_COORD97":2540158.8700000001,"ADDRESS":"南和路６號","OBJECTID":558250},"geometry":{"x":166740.91000000201,"y":2540158.8700000029}},{"attributes":{"ID":558278,"DIS_CODE":0,"TOWNNAME":"南區","LI":"喜南里","LIN":"9鄰","STREET":"喜樹路","SECT":" ","MAREA":" ","LANE":" ","ALLEY":" ","HOUSE_NO":"２９０號","E_COORD97":165701.85000000001,"N_COORD97":2537843.23,"ADDRESS":"喜樹路２９０號","OBJECTID":558251},"geometry":{"x":165701.85000000056,"y":2537843.2300000023}},{"attributes":{"ID":558279,"DIS_CODE":0,"TOWNNAME":"南區","LI":"喜南里","LIN":"9鄰","STREET":"喜樹路","SECT":" ","MAREA":" ","LANE":" ","ALLEY":" ","HOUSE_NO":"２９２號","E_COORD97":165702.47,"N_COORD97":2537838.4500000002,"ADDRESS":"喜樹路２９２號","OBJECTID":558252},"geometry":{"x":165702.46999999974,"y":2537838.4499999993}},{"attributes":{"ID":558280,"DIS_CODE":0,"TOWNNAME":"南區","LI":"喜南里","LIN":"9鄰","STREET":"喜樹路","SECT":" ","MAREA":" ","LANE":" ","ALLEY":" ","HOUSE_NO":"２９４號","E_COORD97":165702.89000000001,"N_COORD97":2537836.3700000001,"ADDRESS":"喜樹路２９４號","OBJECTID":558253},"geometry":{"x":165702.88999999966,"y":2537836.3700000029}},{"attributes":{"ID":558281,"DIS_CODE":0,"TOWNNAME":"北區","LI":"安民里","LIN":"9鄰","STREET":"西門路","SECT":"三段","MAREA":" ","LANE":" ","ALLEY":" ","HOUSE_NO":"４１號","E_COORD97":168202.51999999999,"N_COORD97":2544653.6699999999,"ADDRESS":"西門路三段４１號","OBJECTID":558254},"geometry":{"x":168202.52000000142,"y":2544653.6700000037}},{"attributes":{"ID":558282,"DIS_CODE":0,"TOWNNAME":"北區","LI":"安民里","LIN":"9鄰","STREET":"西門路","SECT":"三段","MAREA":" ","LANE":" ","ALLEY":" ","HOUSE_NO":"４３號","E_COORD97":168254.57999999999,"N_COORD97":2544690.5899999999,"ADDRESS":"西門路三段４３號","OBJECTID":558255},"geometry":{"x":168254.58000000007,"y":2544690.5899999999}},{"attributes":{"ID":558283,"DIS_CODE":0,"TOWNNAME":"北區","LI":"安民里","LIN":"9鄰","STREET":"成功路","SECT":" ","MAREA":" ","LANE":" ","ALLEY":" ","HOUSE_NO":"３８２號","E_COORD97":168008.73000000001,"N_COORD97":2544530.02,"ADDRESS":"成功路３８２號","OBJECTID":558256},"geometry":{"x":168008.73000000231,"y":2544530.0200000014}},{"attributes":{"ID":558284,"DIS_CODE":0,"TOWNNAME":"北區","LI":"安民里","LIN":"9鄰","STREET":"成功路","SECT":" ","MAREA":" ","LANE":" ","ALLEY":" ","HOUSE_NO":"３８２號之１","E_COORD97":168005.29999999999,"N_COORD97":2544531.6200000001,"ADDRESS":"成功路３８２號之１","OBJECTID":558257},"geometry":{"x":168005.29999999981,"y":2544531.620000001}},{"attributes":{"ID":558285,"DIS_CODE":0,"TOWNNAME":"北區","LI":"安民里","LIN":"9鄰","STREET":"成功路","SECT":" ","MAREA":" ","LANE":" ","ALLEY":" ","HOUSE_NO":"３８４號","E_COORD97":167981.29999999999,"N_COORD97":2544540.7000000002,"ADDRESS":"成功路３８４號","OBJECTID":558258},"geometry":{"x":167981.30000000075,"y":2544540.700000003}},{"attributes":{"ID":558286,"DIS_CODE":0,"TOWNNAME":"北區","LI":"安民里","LIN":"9鄰","STREET":"成功路","SECT":" ","MAREA":" ","LANE":" ","ALLEY":" ","HOUSE_NO":"３８６號","E_COORD97":167974.45000000001,"N_COORD97":2544540.25,"ADDRESS":"成功路３８６號","OBJECTID":558259},"geometry":{"x":167974.45000000019,"y":2544540.25}},{"attributes":{"ID":558287,"DIS_CODE":0,"TOWNNAME":"歸仁區","LI":"文化里","LIN":"9鄰","STREET":"民權一街","SECT":" ","MAREA":" ","LANE":" ","ALLEY":" ","HOUSE_NO":"１號","E_COORD97":177049.60000000001,"N_COORD97":2541362.3300000001,"ADDRESS":"民權一街１號","OBJECTID":558260},"geometry":{"x":177049.60000000056,"y":2541362.3300000019}},{"attributes":{"ID":558288,"DIS_CODE":0,"TOWNNAME":"北區","LI":"安民里","LIN":"9鄰","STREET":"成功路","SECT":" ","MAREA":" ","LANE":" ","ALLEY":" ","HOUSE_NO":"３８８號","E_COORD97":167989.98999999999,"N_COORD97":2544544.8100000001,"ADDRESS":"成功路３８８號","OBJECTID":558261},"geometry":{"x":167989.99000000115,"y":2544544.8100000042}},{"attributes":{"ID":558289,"DIS_CODE":0,"TOWNNAME":"北區","LI":"安民里","LIN":"9鄰","STREET":"成功路","SECT":" ","MAREA":" ","LANE":" ","ALLEY":" ","HOUSE_NO":"３９４號","E_COORD97":167966.89999999999,"N_COORD97":2544544.5800000001,"ADDRESS":"成功路３９４號","OBJECTID":558262},"geometry":{"x":167966.90000000224,"y":2544544.5800000001}},{"attributes":{"ID":558290,"DIS_CODE":0,"TOWNNAME":"北區","LI":"安民里","LIN":"9鄰","STREET":"成功路","SECT":" ","MAREA":" ","LANE":" ","ALLEY":" ","HOUSE_NO":"３９２號","E_COORD97":167971.25,"N_COORD97":2544543.21,"ADDRESS":"成功路３９２號","OBJECTID":558263},"geometry":{"x":167971.25000000093,"y":2544543.2100000028}},{"attributes":{"ID":558291,"DIS_CODE":0,"TOWNNAME":"北區","LI":"安民里","LIN":"9鄰","STREET":"成功路","SECT":" ","MAREA":" ","LANE":" ","ALLEY":" ","HOUSE_NO":"３９６號","E_COORD97":167961.88,"N_COORD97":2544545.2400000002,"ADDRESS":"成功路３９６號","OBJECTID":558264},"geometry":{"x":167961.88000000082,"y":2544545.2400000039}},{"attributes":{"ID":558292,"DIS_CODE":0,"TOWNNAME":"南區","LI":"新生里","LIN":"9鄰","STREET":"大同路","SECT":"二段","MAREA":" ","LANE":" ","ALLEY":" ","HOUSE_NO":"１５２號","E_COORD97":169311.42999999999,"N_COORD97":2542083.1800000002,"ADDRESS":"大同路二段１５２號","OBJECTID":558265},"geometry":{"x":169311.4299999997,"y":2542083.1799999978}},{"attributes":{"ID":558293,"DIS_CODE":0,"TOWNNAME":"南區","LI":"新生里","LIN":"9鄰","STREET":"大同路","SECT":"二段","MAREA":" ","LANE":" ","ALLEY":" ","HOUSE_NO":"１５４號","E_COORD97":169321.5,"N_COORD97":2542086.7599999998,"ADDRESS":"大同路二段１５４號","OBJECTID":558266},"geometry":{"x":169321.5,"y":2542086.7600000016}},{"attributes":{"ID":558294,"DIS_CODE":0,"TOWNNAME":"南區","LI":"新生里","LIN":"9鄰","STREET":"大同路","SECT":"二段","MAREA":" ","LANE":" ","ALLEY":" ","HOUSE_NO":"１５６號","E_COORD97":169323.29999999999,"N_COORD97":2542080.8799999999,"ADDRESS":"大同路二段１５６號","OBJECTID":558267},"geometry":{"x":169323.30000000075,"y":2542080.879999999}},{"attributes":{"ID":558295,"DIS_CODE":0,"TOWNNAME":"南區","LI":"新生里","LIN":"9鄰","STREET":"大同路","SECT":"二段","MAREA":" ","LANE":" ","ALLEY":" ","HOUSE_NO":"１５８號","E_COORD97":169325.94,"N_COORD97":2542074.02,"ADDRESS":"大同路二段１５８號","OBJECTID":558268},"geometry":{"x":169325.94000000041,"y":2542074.0199999977}},{"attributes":{"ID":558296,"DIS_CODE":0,"TOWNNAME":"南區","LI":"新生里","LIN":"9鄰","STREET":"大同路","SECT":"二段","MAREA":" ","LANE":" ","ALLEY":" ","HOUSE_NO":"１６０號","E_COORD97":169327.72,"N_COORD97":2542066.6800000002,"ADDRESS":"大同路二段１６０號","OBJECTID":558269},"geometry":{"x":169327.72000000067,"y":2542066.6800000034}},{"attributes":{"ID":558297,"DIS_CODE":0,"TOWNNAME":"南區","LI":"新生里","LIN":"9鄰","STREET":"大同路","SECT":"二段","MAREA":" ","LANE":" ","ALLEY":" ","HOUSE_NO":"１６２號","E_COORD97":169329.98000000001,"N_COORD97":2542059.2599999998,"ADDRESS":"大同路二段１６２號","OBJECTID":558270},"geometry":{"x":169329.98000000138,"y":2542059.2600000035}},{"attributes":{"ID":558298,"DIS_CODE":0,"TOWNNAME":"北區","LI":"大道里","LIN":"9鄰","STREET":"北門路","SECT":"二段","MAREA":" ","LANE":" ","ALLEY":" ","HOUSE_NO":"５１１號","E_COORD97":169617.32000000001,"N_COORD97":2545589.4399999999,"ADDRESS":"北門路二段５１１號","OBJECTID":558271},"geometry":{"x":169617.32000000123,"y":2545589.4399999995}},{"attributes":{"ID":558299,"DIS_CODE":0,"TOWNNAME":"北區","LI":"大道里","LIN":"9鄰","STREET":"北門路","SECT":"二段","MAREA":" ","LANE":" ","ALLEY":" ","HOUSE_NO":"５１３號","E_COORD97":169618.70999999999,"N_COORD97":2545594.1400000001,"ADDRESS":"北門路二段５１３號","OBJECTID":558272},"geometry":{"x":169618.70999999996,"y":2545594.1400000025}},{"attributes":{"ID":558300,"DIS_CODE":0,"TOWNNAME":"北區","LI":"大道里","LIN":"9鄰","STREET":"北門路","SECT":"二段","MAREA":" ","LANE":" ","ALLEY":" ","HOUSE_NO":"５１５號","E_COORD97":169620.37,"N_COORD97":2545598.96,"ADDRESS":"北門路二段５１５號","OBJECTID":558273},"geometry":{"x":169620.37000000104,"y":2545598.9600000028}},{"attributes":{"ID":558301,"DIS_CODE":0,"TOWNNAME":"北區","LI":"大道里","LIN":"9鄰","STREET":"北門路","SECT":"二段","MAREA":" ","LANE":" ","ALLEY":" ","HOUSE_NO":"５１９號","E_COORD97":169623.54000000001,"N_COORD97":2545607.98,"ADDRESS":"北門路二段５１９號","OBJECTID":558274},"geometry":{"x":169623.5400000019,"y":2545607.9799999986}},{"attributes":{"ID":558302,"DIS_CODE":0,"TOWNNAME":"北區","LI":"大道里","LIN":"9鄰","STREET":"北門路","SECT":"二段","MAREA":" ","LANE":" ","ALLEY":" ","HOUSE_NO":"５２５號","E_COORD97":169629,"N_COORD97":2545620.8700000001,"ADDRESS":"北門路二段５２５號","OBJECTID":558275},"geometry":{"x":169629.00000000093,"y":2545620.8700000029}},{"attributes":{"ID":558303,"DIS_CODE":0,"TOWNNAME":"北區","LI":"大道里","LIN":"9鄰","STREET":"北門路","SECT":"二段","MAREA":" ","LANE":" ","ALLEY":" ","HOUSE_NO":"５２１號","E_COORD97":169625.06,"N_COORD97":2545612.04,"ADDRESS":"北門路二段５２１號","OBJECTID":558276},"geometry":{"x":169625.06000000052,"y":2545612.0399999991}},{"attributes":{"ID":558304,"DIS_CODE":0,"TOWNNAME":"北區","LI":"大道里","LIN":"9鄰","STREET":"北門路","SECT":"二段","MAREA":" ","LANE":" ","ALLEY":" ","HOUSE_NO":"５２３號","E_COORD97":169626.97,"N_COORD97":2545616.4900000002,"ADDRESS":"北門路二段５２３號","OBJECTID":558277},"geometry":{"x":169626.9700000016,"y":2545616.4900000002}},{"attributes":{"ID":558305,"DIS_CODE":0,"TOWNNAME":"北區","LI":"大道里","LIN":"9鄰","STREET":"北門路","SECT":"二段","MAREA":" ","LANE":" ","ALLEY":" ","HOUSE_NO":"５２９號","E_COORD97":169635.85000000001,"N_COORD97":2545643.3500000001,"ADDRESS":"北門路二段５２９號","OBJECTID":558278},"geometry":{"x":169635.84999999963,"y":2545643.3500000015}},{"attributes":{"ID":558306,"DIS_CODE":0,"TOWNNAME":"北區","LI":"大道里","LIN":"9鄰","STREET":"北門路","SECT":"二段","MAREA":" ","LANE":" ","ALLEY":" ","HOUSE_NO":"５４５號","E_COORD97":169646.48999999999,"N_COORD97":2545675.3399999999,"ADDRESS":"北門路二段５４５號","OBJECTID":558279},"geometry":{"x":169646.49000000115,"y":2545675.3399999999}},{"attributes":{"ID":558307,"DIS_CODE":0,"TOWNNAME":"北區","LI":"大道里","LIN":"9鄰","STREET":"北門路","SECT":"二段","MAREA":" ","LANE":" ","ALLEY":" ","HOUSE_NO":"５３７號","E_COORD97":169641.09,"N_COORD97":2545659.7799999998,"ADDRESS":"北門路二段５３７號","OBJECTID":558280},"geometry":{"x":169641.08999999985,"y":2545659.7800000012}},{"attributes":{"ID":558308,"DIS_CODE":0,"TOWNNAME":"北區","LI":"大道里","LIN":"9鄰","STREET":"北門路","SECT":"二段","MAREA":" ","LANE":" ","ALLEY":" ","HOUSE_NO":"５３３號","E_COORD97":169638.23000000001,"N_COORD97":2545652,"ADDRESS":"北門路二段５３３號","OBJECTID":558281},"geometry":{"x":169638.23000000138,"y":2545652.0000000019}},{"attributes":{"ID":558309,"DIS_CODE":0,"TOWNNAME":"北區","LI":"大道里","LIN":"9鄰","STREET":"北門路","SECT":"二段","MAREA":" ","LANE":" ","ALLEY":" ","HOUSE_NO":"５４１號","E_COORD97":169643.63,"N_COORD97":2545667.8799999999,"ADDRESS":"北門路二段５４１號","OBJECTID":558282},"geometry":{"x":169643.63000000082,"y":2545667.879999999}},{"attributes":{"ID":558310,"DIS_CODE":0,"TOWNNAME":"北區","LI":"大道里","LIN":"9鄰","STREET":"北門路","SECT":"二段","MAREA":" ","LANE":" ","ALLEY":" ","HOUSE_NO":"５３１號","E_COORD97":169636.95999999999,"N_COORD97":2545647.71,"ADDRESS":"北門路二段５３１號","OBJECTID":558283},"geometry":{"x":169636.95999999996,"y":2545647.7100000046}},{"attributes":{"ID":558311,"DIS_CODE":0,"TOWNNAME":"北區","LI":"大道里","LIN":"9鄰","STREET":"北門路","SECT":"二段","MAREA":" ","LANE":" ","ALLEY":" ","HOUSE_NO":"５３５號","E_COORD97":169639.5,"N_COORD97":2545656.1299999999,"ADDRESS":"北門路二段５３５號","OBJECTID":558284},"geometry":{"x":169639.50000000093,"y":2545656.129999999}},{"attributes":{"ID":558312,"DIS_CODE":0,"TOWNNAME":"北區","LI":"大道里","LIN":"9鄰","STREET":"北門路","SECT":"二段","MAREA":" ","LANE":" ","ALLEY":" ","HOUSE_NO":"５３９號","E_COORD97":169642.04000000001,"N_COORD97":2545663.9100000001,"ADDRESS":"北門路二段５３９號","OBJECTID":558285},"geometry":{"x":169642.03999999911,"y":2545663.910000002}},{"attributes":{"ID":558313,"DIS_CODE":0,"TOWNNAME":"北區","LI":"六甲里","LIN":"9鄰","STREET":"西門路","SECT":"四段","MAREA":" ","LANE":" ","ALLEY":" ","HOUSE_NO":"３４０號","E_COORD97":168990.57000000001,"N_COORD97":2546028.2999999998,"ADDRESS":"西門路四段３４０號","OBJECTID":558286},"geometry":{"x":168990.5700000003,"y":2546028.3000000026}},{"attributes":{"ID":558314,"DIS_CODE":0,"TOWNNAME":"新營區","LI":"三仙里","LIN":"9鄰","STREET":"正義街","SECT":" ","MAREA":" ","LANE":" ","ALLEY":" ","HOUSE_NO":"３７號","E_COORD97":179651.13,"N_COORD97":2578141.3599999999,"ADDRESS":"正義街３７號","OBJECTID":558287},"geometry":{"x":179651.12999999989,"y":2578141.3599999994}},{"attributes":{"ID":558315,"DIS_CODE":0,"TOWNNAME":"新營區","LI":"新東里","LIN":"9鄰","STREET":"東泰二街","SECT":" ","MAREA":" ","LANE":" ","ALLEY":" ","HOUSE_NO":"３５號","E_COORD97":181242.78,"N_COORD97":2579538.79,"ADDRESS":"東泰二街３５號","OBJECTID":558288},"geometry":{"x":181242.78000000119,"y":2579538.7899999972}},{"attributes":{"ID":558316,"DIS_CODE":0,"TOWNNAME":"新營區","LI":"王公里","LIN":"9鄰","STREET":"同濟街","SECT":" ","MAREA":" ","LANE":" ","ALLEY":" ","HOUSE_NO":"２２３號","E_COORD97":180432.92999999999,"N_COORD97":2579035.8199999998,"ADDRESS":"同濟街２２３號","OBJECTID":558289},"geometry":{"x":180432.93000000063,"y":2579035.8200000022}},{"attributes":{"ID":558317,"DIS_CODE":0,"TOWNNAME":"新營區","LI":"民權里","LIN":"9鄰","STREET":"博愛街","SECT":" ","MAREA":" ","LANE":" ","ALLEY":" ","HOUSE_NO":"３８號之２","E_COORD97":179868.25,"N_COORD97":2578150.3500000001,"ADDRESS":"博愛街３８號之２","OBJECTID":558290},"geometry":{"x":179868.25000000093,"y":2578150.3500000015}},{"attributes":{"ID":558318,"DIS_CODE":0,"TOWNNAME":"安平區","LI":"文平里","LIN":"9鄰","STREET":"建平七街","SECT":" ","MAREA":" ","LANE":" ","ALLEY":" ","HOUSE_NO":"２１０號","E_COORD97":166031.98000000001,"N_COORD97":2543279.2000000002,"ADDRESS":"建平七街２１０號","OBJECTID":558291},"geometry":{"x":166031.98000000045,"y":2543279.1999999993}},{"attributes":{"ID":558319,"DIS_CODE":0,"TOWNNAME":"安平區","LI":"文平里","LIN":"9鄰","STREET":"建平七街","SECT":" ","MAREA":" ","LANE":" ","ALLEY":" ","HOUSE_NO":"２１２號","E_COORD97":166026.45000000001,"N_COORD97":2543278.8999999999,"ADDRESS":"建平七街２１２號","OBJECTID":558292},"geometry":{"x":166026.45000000019,"y":2543278.9000000004}},{"attributes":{"ID":558320,"DIS_CODE":0,"TOWNNAME":"安平區","LI":"文平里","LIN":"9鄰","STREET":"建平七街","SECT":" ","MAREA":" ","LANE":" ","ALLEY":" ","HOUSE_NO":"２１４號","E_COORD97":166021.44,"N_COORD97":2543279.3700000001,"ADDRESS":"建平七街２１４號","OBJECTID":558293},"geometry":{"x":166021.44000000041,"y":2543279.370000001}},{"attributes":{"ID":558321,"DIS_CODE":0,"TOWNNAME":"安平區","LI":"文平里","LIN":"9鄰","STREET":"建平七街","SECT":" ","MAREA":" ","LANE":" ","ALLEY":" ","HOUSE_NO":"２１６號","E_COORD97":166017.12,"N_COORD97":2543280.0699999998,"ADDRESS":"建平七街２１６號","OBJECTID":558294},"geometry":{"x":166017.12000000011,"y":2543280.0700000003}},{"attributes":{"ID":558322,"DIS_CODE":0,"TOWNNAME":"安平區","LI":"文平里","LIN":"9鄰","STREET":"建平七街","SECT":" ","MAREA":" ","LANE":" ","ALLEY":" ","HOUSE_NO":"２１８號","E_COORD97":166012.57000000001,"N_COORD97":2543280.4199999999,"ADDRESS":"建平七街２１８號","OBJECTID":558295},"geometry":{"x":166012.5700000003,"y":2543280.4200000018}},{"attributes":{"ID":558323,"DIS_CODE":0,"TOWNNAME":"安平區","LI":"文平里","LIN":"9鄰","STREET":"建平七街","SECT":" ","MAREA":" ","LANE":" ","ALLEY":" ","HOUSE_NO":"２２０號","E_COORD97":166008.01999999999,"N_COORD97":2543280.8799999999,"ADDRESS":"建平七街２２０號","OBJECTID":558296},"geometry":{"x":166008.02000000048,"y":2543280.879999999}},{"attributes":{"ID":558324,"DIS_CODE":0,"TOWNNAME":"安平區","LI":"文平里","LIN":"9鄰","STREET":"建平七街","SECT":" ","MAREA":" ","LANE":" ","ALLEY":" ","HOUSE_NO":"２２２號","E_COORD97":166003.35000000001,"N_COORD97":2543281.1099999999,"ADDRESS":"建平七街２２２號","OBJECTID":558297},"geometry":{"x":166003.35000000149,"y":2543281.1100000013}},{"attributes":{"ID":558325,"DIS_CODE":0,"TOWNNAME":"安平區","LI":"文平里","LIN":"9鄰","STREET":"建平七街","SECT":" ","MAREA":" ","LANE":" ","ALLEY":" ","HOUSE_NO":"２２６號","E_COORD97":165998.10000000001,"N_COORD97":2543277.8500000001,"ADDRESS":"建平七街２２６號","OBJECTID":558298},"geometry":{"x":165998.09999999963,"y":2543277.8499999996}},{"attributes":{"ID":558326,"DIS_CODE":0,"TOWNNAME":"安平區","LI":"文平里","LIN":"9鄰","STREET":"建平七街","SECT":" ","MAREA":" ","LANE":" ","ALLEY":" ","HOUSE_NO":"２３２號","E_COORD97":165985.95999999999,"N_COORD97":2543279.3700000001,"ADDRESS":"建平七街２３２號","OBJECTID":558299},"geometry":{"x":165985.95999999903,"y":2543279.370000001}},{"attributes":{"ID":558327,"DIS_CODE":0,"TOWNNAME":"安平區","LI":"文平里","LIN":"9鄰","STREET":"建平七街","SECT":" ","MAREA":" ","LANE":" ","ALLEY":" ","HOUSE_NO":"２３６號","E_COORD97":165973.12,"N_COORD97":2543286.25,"ADDRESS":"建平七街２３６號","OBJECTID":558300},"geometry":{"x":165973.12000000011,"y":2543286.25}},{"attributes":{"ID":558328,"DIS_CODE":0,"TOWNNAME":"安平區","LI":"文平里","LIN":"9鄰","STREET":"建平七街","SECT":" ","MAREA":" ","LANE":" ","ALLEY":" ","HOUSE_NO":"２３８號","E_COORD97":165968.22,"N_COORD97":2543286.9500000002,"ADDRESS":"建平七街２３８號","OBJECTID":558301},"geometry":{"x":165968.21999999974,"y":2543286.9499999993}},{"attributes":{"ID":558329,"DIS_CODE":0,"TOWNNAME":"安平區","LI":"文平里","LIN":"9鄰","STREET":"建平七街","SECT":" ","MAREA":" ","LANE":" ","ALLEY":" ","HOUSE_NO":"１６８號","E_COORD97":166136.01999999999,"N_COORD97":2543264.8199999998,"ADDRESS":"建平七街１６８號","OBJECTID":558302},"geometry":{"x":166136.02000000142,"y":2543264.8200000003}},{"attributes":{"ID":558330,"DIS_CODE":0,"TOWNNAME":"安平區","LI":"文平里","LIN":"9鄰","STREET":"建平七街","SECT":" ","MAREA":" ","LANE":" ","ALLEY":" ","HOUSE_NO":"１７０號","E_COORD97":166130.41,"N_COORD97":2543265.7599999998,"ADDRESS":"建平七街１７０號","OBJECTID":558303},"geometry":{"x":166130.41000000015,"y":2543265.7599999998}},{"attributes":{"ID":558331,"DIS_CODE":0,"TOWNNAME":"安平區","LI":"文平里","LIN":"9鄰","STREET":"建平七街","SECT":" ","MAREA":" ","LANE":" ","ALLEY":" ","HOUSE_NO":"１７２號","E_COORD97":166123.04000000001,"N_COORD97":2543267.04,"ADDRESS":"建平七街１７２號","OBJECTID":558304},"geometry":{"x":166123.04000000097,"y":2543267.0400000028}},{"attributes":{"ID":558332,"DIS_CODE":0,"TOWNNAME":"安平區","LI":"怡平里","LIN":"9鄰","STREET":"建平十二街","SECT":" ","MAREA":" ","LANE":" ","ALLEY":" ","HOUSE_NO":"１４６號","E_COORD97":165791.64000000001,"N_COORD97":2544029.46,"ADDRESS":"建平十二街１４６號","OBJECTID":558305},"geometry":{"x":165791.6400000006,"y":2544029.4600000028}},{"attributes":{"ID":558333,"DIS_CODE":0,"TOWNNAME":"安平區","LI":"怡平里","LIN":"9鄰","STREET":"建平十二街","SECT":" ","MAREA":" ","LANE":" ","ALLEY":" ","HOUSE_NO":"１４２號","E_COORD97":165796.97,"N_COORD97":2544028.7599999998,"ADDRESS":"建平十二街１４２號","OBJECTID":558306},"geometry":{"x":165796.96999999974,"y":2544028.7599999979}},{"attributes":{"ID":558334,"DIS_CODE":0,"TOWNNAME":"新營區","LI":"民生里","LIN":"9鄰","STREET":"復興路","SECT":" ","MAREA":" ","LANE":" ","ALLEY":" ","HOUSE_NO":"１４４之６號","E_COORD97":179280.95000000001,"N_COORD97":2578040.1899999999,"ADDRESS":"復興路１４４之６號","OBJECTID":558307},"geometry":{"x":179280.95000000019,"y":2578040.1899999995}},{"attributes":{"ID":558335,"DIS_CODE":0,"TOWNNAME":"新營區","LI":"大宏里","LIN":"9鄰","STREET":"民族路","SECT":" ","MAREA":" ","LANE":" ","ALLEY":" ","HOUSE_NO":"２７號","E_COORD97":180250.56,"N_COORD97":2578800.77,"ADDRESS":"民族路２７號","OBJECTID":558308},"geometry":{"x":180250.56000000052,"y":2578800.7700000014}},{"attributes":{"ID":558336,"DIS_CODE":0,"TOWNNAME":"南區","LI":"文南里","LIN":"9鄰","STREET":"健康路","SECT":"二段","MAREA":" ","LANE":" ","ALLEY":" ","HOUSE_NO":"２６８號","E_COORD97":166951.32999999999,"N_COORD97":2542502.4199999999,"ADDRESS":"健康路二段２６８號","OBJECTID":558309},"geometry":{"x":166951.33000000007,"y":2542502.4200000037}},{"attributes":{"ID":558337,"DIS_CODE":0,"TOWNNAME":"南區","LI":"新昌里","LIN":"9鄰","STREET":"府緯街","SECT":" ","MAREA":" ","LANE":" ","ALLEY":" ","HOUSE_NO":"１０７號","E_COORD97":167559.76999999999,"N_COORD97":2542710.5600000001,"ADDRESS":"府緯街１０７號","OBJECTID":558310},"geometry":{"x":167559.76999999955,"y":2542710.5600000024}},{"attributes":{"ID":558338,"DIS_CODE":0,"TOWNNAME":"南區","LI":"新昌里","LIN":"9鄰","STREET":"府緯街","SECT":" ","MAREA":" ","LANE":" ","ALLEY":" ","HOUSE_NO":"１０９號","E_COORD97":167551.01000000001,"N_COORD97":2542712.1800000002,"ADDRESS":"府緯街１０９號","OBJECTID":558311},"geometry":{"x":167551.01000000071,"y":2542712.1800000016}},{"attributes":{"ID":558339,"DIS_CODE":0,"TOWNNAME":"歸仁區","LI":"六甲里","LIN":"9鄰","STREET":"中正南路","SECT":"一段","MAREA":" ","LANE":" ","ALLEY":" ","HOUSE_NO":"９５５號","E_COORD97":176186.12,"N_COORD97":2539380.2799999998,"ADDRESS":"中正南路一段９５５號","OBJECTID":558312},"geometry":{"x":176186.12000000011,"y":2539380.2800000031}},{"attributes":{"ID":558340,"DIS_CODE":0,"TOWNNAME":"北區","LI":"公園里","LIN":"9鄰","STREET":"公園南路","SECT":" ","MAREA":" ","LANE":" ","ALLEY":" ","HOUSE_NO":"６７號","E_COORD97":169129.5,"N_COORD97":2544535.23,"ADDRESS":"公園南路６７號","OBJECTID":558313},"geometry":{"x":169129.50000000093,"y":2544535.2300000042}},{"attributes":{"ID":558341,"DIS_CODE":0,"TOWNNAME":"北區","LI":"公園里","LIN":"9鄰","STREET":"公園南路","SECT":" ","MAREA":" ","LANE":" ","ALLEY":" ","HOUSE_NO":"６９號","E_COORD97":169123.94,"N_COORD97":2544537.2200000002,"ADDRESS":"公園南路６９號","OBJECTID":558314},"geometry":{"x":169123.94000000041,"y":2544537.2200000007}},{"attributes":{"ID":558342,"DIS_CODE":0,"TOWNNAME":"北區","LI":"公園里","LIN":"9鄰","STREET":"公園南路","SECT":" ","MAREA":" ","LANE":" ","ALLEY":" ","HOUSE_NO":"７１號","E_COORD97":169112.42000000001,"N_COORD97":2544540.5899999999,"ADDRESS":"公園南路７１號","OBJECTID":558315},"geometry":{"x":169112.42000000086,"y":2544540.5899999999}},{"attributes":{"ID":558343,"DIS_CODE":0,"TOWNNAME":"北區","LI":"公園里","LIN":"9鄰","STREET":"公園南路","SECT":" ","MAREA":" ","LANE":" ","ALLEY":" ","HOUSE_NO":"７１號地下一層","E_COORD97":169112.42000000001,"N_COORD97":2544540.5899999999,"ADDRESS":"公園南路７１號地下一層","OBJECTID":558316},"geometry":{"x":169112.42000000086,"y":2544540.5899999999}},{"attributes":{"ID":558344,"DIS_CODE":0,"TOWNNAME":"關廟區","LI":"深坑里","LIN":"9鄰","STREET":"深坑三街","SECT":" ","MAREA":" ","LANE":" ","ALLEY":" ","HOUSE_NO":"２３號","E_COORD97":181817.57000000001,"N_COORD97":2537838.2999999998,"ADDRESS":"深坑三街２３號","OBJECTID":558317},"geometry":{"x":181817.57000000123,"y":2537838.3000000007}},{"attributes":{"ID":558345,"DIS_CODE":0,"TOWNNAME":"新營區","LI":"新東里","LIN":"9鄰","STREET":"東泰二街","SECT":" ","MAREA":" ","LANE":" ","ALLEY":" ","HOUSE_NO":"２７號","E_COORD97":181221.64999999999,"N_COORD97":2579550.4100000001,"ADDRESS":"東泰二街２７號","OBJECTID":558318},"geometry":{"x":181221.65000000224,"y":2579550.410000002}},{"attributes":{"ID":558346,"DIS_CODE":0,"TOWNNAME":"新營區","LI":"中營里","LIN":"9鄰","STREET":"同濟街","SECT":" ","MAREA":" ","LANE":" ","ALLEY":" ","HOUSE_NO":"４０號","E_COORD97":180521.17000000001,"N_COORD97":2578269.0299999998,"ADDRESS":"同濟街４０號","OBJECTID":558319},"geometry":{"x":180521.17000000086,"y":2578269.0299999993}},{"attributes":{"ID":558347,"DIS_CODE":0,"TOWNNAME":"柳營區","LI":"光福里","LIN":"9鄰","STREET":"福中街","SECT":" ","MAREA":" ","LANE":" ","ALLEY":" ","HOUSE_NO":"１９號","E_COORD97":179826.81,"N_COORD97":2575160.77,"ADDRESS":"福中街１９號","OBJECTID":558320},"geometry":{"x":179826.81000000052,"y":2575160.7700000014}},{"attributes":{"ID":558348,"DIS_CODE":0,"TOWNNAME":"柳營區","LI":"光福里","LIN":"9鄰","STREET":"福中街","SECT":" ","MAREA":" ","LANE":" ","ALLEY":" ","HOUSE_NO":"１號","E_COORD97":179835.82000000001,"N_COORD97":2575125.2400000002,"ADDRESS":"福中街１號","OBJECTID":558321},"geometry":{"x":179835.82000000123,"y":2575125.2400000002}},{"attributes":{"ID":558349,"DIS_CODE":0,"TOWNNAME":"柳營區","LI":"光福里","LIN":"9鄰","STREET":"福中街","SECT":" ","MAREA":" ","LANE":" ","ALLEY":" ","HOUSE_NO":"２３號","E_COORD97":179826.51999999999,"N_COORD97":2575169.8300000001,"ADDRESS":"福中街２３號","OBJECTID":558322},"geometry":{"x":179826.52000000142,"y":2575169.8300000019}},{"attributes":{"ID":558350,"DIS_CODE":0,"TOWNNAME":"柳營區","LI":"光福里","LIN":"9鄰","STREET":"福中街","SECT":" ","MAREA":" ","LANE":" ","ALLEY":" ","HOUSE_NO":"２５號","E_COORD97":179826.31,"N_COORD97":2575174.0099999998,"ADDRESS":"福中街２５號","OBJECTID":558323},"geometry":{"x":179826.31000000145,"y":2575174.0099999998}},{"attributes":{"ID":558351,"DIS_CODE":0,"TOWNNAME":"柳營區","LI":"光福里","LIN":"9鄰","STREET":"福中街","SECT":" ","MAREA":" ","LANE":" ","ALLEY":" ","HOUSE_NO":"３１號","E_COORD97":179825.69,"N_COORD97":2575186.5699999998,"ADDRESS":"福中街３１號","OBJECTID":558324},"geometry":{"x":179825.69000000041,"y":2575186.5700000022}},{"attributes":{"ID":558352,"DIS_CODE":0,"TOWNNAME":"柳營區","LI":"光福里","LIN":"9鄰","STREET":"福中街","SECT":" ","MAREA":" ","LANE":" ","ALLEY":" ","HOUSE_NO":"３３號","E_COORD97":179825.48000000001,"N_COORD97":2575190.75,"ADDRESS":"福中街３３號","OBJECTID":558325},"geometry":{"x":179825.48000000045,"y":2575190.7500000019}},{"attributes":{"ID":558353,"DIS_CODE":0,"TOWNNAME":"柳營區","LI":"光福里","LIN":"9鄰","STREET":"福中街","SECT":" ","MAREA":" ","LANE":" ","ALLEY":" ","HOUSE_NO":"３號","E_COORD97":179830.04000000001,"N_COORD97":2575122.75,"ADDRESS":"福中街３號","OBJECTID":558326},"geometry":{"x":179830.04000000004,"y":2575122.7500000037}},{"attributes":{"ID":558354,"DIS_CODE":0,"TOWNNAME":"柳營區","LI":"光福里","LIN":"9鄰","STREET":"福中街","SECT":" ","MAREA":" ","LANE":" ","ALLEY":" ","HOUSE_NO":"５號","E_COORD97":179831.14000000001,"N_COORD97":2575129.8700000001,"ADDRESS":"福中街５號","OBJECTID":558327},"geometry":{"x":179831.1400000006,"y":2575129.8700000029}},{"attributes":{"ID":558355,"DIS_CODE":0,"TOWNNAME":"柳營區","LI":"光福里","LIN":"9鄰","STREET":"福中街","SECT":" ","MAREA":" ","LANE":" ","ALLEY":" ","HOUSE_NO":"７號","E_COORD97":179830.20999999999,"N_COORD97":2575134.6400000001,"ADDRESS":"福中街７號","OBJECTID":558328},"geometry":{"x":179830.20999999996,"y":2575134.6400000025}},{"attributes":{"ID":558356,"DIS_CODE":0,"TOWNNAME":"柳營區","LI":"光福里","LIN":"9鄰","STREET":"福中街","SECT":" ","MAREA":" ","LANE":" ","ALLEY":" ","HOUSE_NO":"９號","E_COORD97":179829.28,"N_COORD97":2575139.3999999999,"ADDRESS":"福中街９號","OBJECTID":558329},"geometry":{"x":179829.28000000119,"y":2575139.4000000022}},{"attributes":{"ID":558357,"DIS_CODE":0,"TOWNNAME":"歸仁區","LI":"七甲里","LIN":"9鄰","STREET":"七甲一街","SECT":" ","MAREA":" ","LANE":" ","ALLEY":" ","HOUSE_NO":"１０６號","E_COORD97":177632.94,"N_COORD97":2542576.6600000001,"ADDRESS":"七甲一街１０６號","OBJECTID":558330},"geometry":{"x":177632.94000000134,"y":2542576.660000002}},{"attributes":{"ID":558358,"DIS_CODE":0,"TOWNNAME":"北區","LI":"新勝里","LIN":"9鄰","STREET":"長榮路","SECT":"五段","MAREA":" ","LANE":" ","ALLEY":" ","HOUSE_NO":"３８號","E_COORD97":170125.28,"N_COORD97":2545583.3599999999,"ADDRESS":"長榮路五段３８號","OBJECTID":558331},"geometry":{"x":170125.28000000026,"y":2545583.3599999994}},{"attributes":{"ID":558359,"DIS_CODE":0,"TOWNNAME":"歸仁區","LI":"西埔里","LIN":"9鄰","STREET":"西埔一街","SECT":" ","MAREA":" ","LANE":" ","ALLEY":" ","HOUSE_NO":"１６７號","E_COORD97":177020.89000000001,"N_COORD97":2544635.25,"ADDRESS":"西埔一街１６７號","OBJECTID":558332},"geometry":{"x":177020.8900000006,"y":2544635.25}},{"attributes":{"ID":558360,"DIS_CODE":0,"TOWNNAME":"北區","LI":"華興里","LIN":"9鄰","STREET":"林森路","SECT":"三段","MAREA":" ","LANE":" ","ALLEY":" ","HOUSE_NO":"２１８號","E_COORD97":170545.97,"N_COORD97":2545190.5800000001,"ADDRESS":"林森路三段２１８號","OBJECTID":558333},"geometry":{"x":170545.97000000067,"y":2545190.5800000019}},{"attributes":{"ID":558361,"DIS_CODE":0,"TOWNNAME":"北區","LI":"華興里","LIN":"9鄰","STREET":"林森路","SECT":"三段","MAREA":" ","LANE":" ","ALLEY":" ","HOUSE_NO":"２２０號","E_COORD97":170541.14999999999,"N_COORD97":2545194.1200000001,"ADDRESS":"林森路三段２２０號","OBJECTID":558334},"geometry":{"x":170541.15000000037,"y":2545194.1200000048}},{"attributes":{"ID":558362,"DIS_CODE":0,"TOWNNAME":"北區","LI":"華興里","LIN":"9鄰","STREET":"林森路","SECT":"三段","MAREA":" ","LANE":" ","ALLEY":" ","HOUSE_NO":"２２４號","E_COORD97":170541.97,"N_COORD97":2545203.1800000002,"ADDRESS":"林森路三段２２４號","OBJECTID":558335},"geometry":{"x":170541.96999999974,"y":2545203.1800000016}},{"attributes":{"ID":558363,"DIS_CODE":0,"TOWNNAME":"北區","LI":"華興里","LIN":"9鄰","STREET":"林森路","SECT":"三段","MAREA":" ","LANE":" ","ALLEY":" ","HOUSE_NO":"２２６號","E_COORD97":170551.45999999999,"N_COORD97":2545202.0699999998,"ADDRESS":"林森路三段２２６號","OBJECTID":558336},"geometry":{"x":170551.46000000089,"y":2545202.0700000022}},{"attributes":{"ID":558364,"DIS_CODE":0,"TOWNNAME":"北區","LI":"新勝里","LIN":"9鄰","STREET":"長榮路","SECT":"五段","MAREA":" ","LANE":" ","ALLEY":" ","HOUSE_NO":"４０號","E_COORD97":170114.45999999999,"N_COORD97":2545582.1800000002,"ADDRESS":"長榮路五段４０號","OBJECTID":558337},"geometry":{"x":170114.46000000089,"y":2545582.1800000034}},{"attributes":{"ID":558365,"DIS_CODE":0,"TOWNNAME":"北區","LI":"興南里","LIN":"9鄰","STREET":"公園北路","SECT":" ","MAREA":" ","LANE":" ","ALLEY":" ","HOUSE_NO":"１５６號","E_COORD97":168809.88,"N_COORD97":2545084.5600000001,"ADDRESS":"公園北路１５６號","OBJECTID":558338},"geometry":{"x":168809.87999999989,"y":2545084.5600000005}},{"attributes":{"ID":558366,"DIS_CODE":0,"TOWNNAME":"北區","LI":"興南里","LIN":"9鄰","STREET":"公園北路","SECT":" ","MAREA":" ","LANE":" ","ALLEY":" ","HOUSE_NO":"１５６之６號","E_COORD97":168749.39000000001,"N_COORD97":2545100.1200000001,"ADDRESS":"公園北路１５６之６號","OBJECTID":558339},"geometry":{"x":168749.39000000153,"y":2545100.1200000029}},{"attributes":{"ID":558367,"DIS_CODE":0,"TOWNNAME":"北區","LI":"興南里","LIN":"9鄰","STREET":"公園北路","SECT":" ","MAREA":" ","LANE":" ","ALLEY":" ","HOUSE_NO":"１５６之９號","E_COORD97":168721.45000000001,"N_COORD97":2545106.9500000002,"ADDRESS":"公園北路１５６之９號","OBJECTID":558340},"geometry":{"x":168721.45000000112,"y":2545106.9500000011}},{"attributes":{"ID":558368,"DIS_CODE":0,"TOWNNAME":"北區","LI":"興南里","LIN":"9鄰","STREET":"公園北路","SECT":" ","MAREA":" ","LANE":" ","ALLEY":" ","HOUSE_NO":"１５６之１０號","E_COORD97":168710.34,"N_COORD97":2545109.0099999998,"ADDRESS":"公園北路１５６之１０號","OBJECTID":558341},"geometry":{"x":168710.33999999985,"y":2545109.0100000035}},{"attributes":{"ID":558369,"DIS_CODE":0,"TOWNNAME":"北區","LI":"興南里","LIN":"9鄰","STREET":"公園北路","SECT":" ","MAREA":" ","LANE":" ","ALLEY":" ","HOUSE_NO":"１５６之１１號","E_COORD97":168699.23000000001,"N_COORD97":2545111.71,"ADDRESS":"公園北路１５６之１１號","OBJECTID":558342},"geometry":{"x":168699.23000000138,"y":2545111.7100000009}},{"attributes":{"ID":558370,"DIS_CODE":0,"TOWNNAME":"北區","LI":"裕民里","LIN":"8鄰","STREET":"臨安路","SECT":"二段","MAREA":" ","LANE":" ","ALLEY":" ","HOUSE_NO":"７號","E_COORD97":167509.17999999999,"N_COORD97":2544776.9399999999,"ADDRESS":"臨安路二段７號","OBJECTID":558343},"geometry":{"x":167509.1799999997,"y":2544776.9400000032}},{"attributes":{"ID":558371,"DIS_CODE":0,"TOWNNAME":"南區","LI":"南華里","LIN":"9鄰","STREET":"中華南路","SECT":"二段","MAREA":" ","LANE":" ","ALLEY":" ","HOUSE_NO":"３３８號","E_COORD97":166558.70000000001,"N_COORD97":2540298.6299999999,"ADDRESS":"中華南路二段３３８號","OBJECTID":558344},"geometry":{"x":166558.70000000019,"y":2540298.629999999}},{"attributes":{"ID":558372,"DIS_CODE":0,"TOWNNAME":"南區","LI":"南華里","LIN":"9鄰","STREET":"中華南路","SECT":"二段","MAREA":" ","LANE":" ","ALLEY":" ","HOUSE_NO":"３４０號","E_COORD97":166554.37,"N_COORD97":2540298.6299999999,"ADDRESS":"中華南路二段３４０號","OBJECTID":558345},"geometry":{"x":166554.37000000011,"y":2540298.629999999}},{"attributes":{"ID":558373,"DIS_CODE":0,"TOWNNAME":"南區","LI":"南華里","LIN":"9鄰","STREET":"中華南路","SECT":"二段","MAREA":" ","LANE":" ","ALLEY":" ","HOUSE_NO":"３４２號","E_COORD97":166549.45000000001,"N_COORD97":2540298.5099999998,"ADDRESS":"中華南路二段３４２號","OBJECTID":558346},"geometry":{"x":166549.45000000112,"y":2540298.5100000016}},{"attributes":{"ID":558374,"DIS_CODE":0,"TOWNNAME":"南區","LI":"南華里","LIN":"9鄰","STREET":"中華南路","SECT":"二段","MAREA":" ","LANE":" ","ALLEY":" ","HOUSE_NO":"３４４號","E_COORD97":166544.22,"N_COORD97":2540298.3900000001,"ADDRESS":"中華南路二段３４４號","OBJECTID":558347},"geometry":{"x":166544.22000000067,"y":2540298.3900000006}},{"attributes":{"ID":558375,"DIS_CODE":0,"TOWNNAME":"南區","LI":"南華里","LIN":"9鄰","STREET":"中華南路","SECT":"二段","MAREA":" ","LANE":" ","ALLEY":" ","HOUSE_NO":"３４６號","E_COORD97":166539.29999999999,"N_COORD97":2540298.5099999998,"ADDRESS":"中華南路二段３４６號","OBJECTID":558348},"geometry":{"x":166539.29999999981,"y":2540298.5100000016}},{"attributes":{"ID":558376,"DIS_CODE":0,"TOWNNAME":"南區","LI":"南華里","LIN":"9鄰","STREET":"中華南路","SECT":"二段","MAREA":" ","LANE":" ","ALLEY":" ","HOUSE_NO":"３４８號","E_COORD97":166535.54999999999,"N_COORD97":2540298.5099999998,"ADDRESS":"中華南路二段３４８號","OBJECTID":558349},"geometry":{"x":166535.54999999981,"y":2540298.5100000016}},{"attributes":{"ID":558377,"DIS_CODE":0,"TOWNNAME":"南區","LI":"南華里","LIN":"9鄰","STREET":"中華南路","SECT":"二段","MAREA":" ","LANE":" ","ALLEY":" ","HOUSE_NO":"３５０號","E_COORD97":166530.63,"N_COORD97":2540298.27,"ADDRESS":"中華南路二段３５０號","OBJECTID":558350},"geometry":{"x":166530.63000000175,"y":2540298.2699999996}},{"attributes":{"ID":558378,"DIS_CODE":0,"TOWNNAME":"南區","LI":"南華里","LIN":"9鄰","STREET":"中華南路","SECT":"二段","MAREA":" ","LANE":" ","ALLEY":" ","HOUSE_NO":"３５２號","E_COORD97":166525.70999999999,"N_COORD97":2540298.1600000001,"ADDRESS":"中華南路二段３５２號","OBJECTID":558351},"geometry":{"x":166525.71000000089,"y":2540298.160000002}},{"attributes":{"ID":558379,"DIS_CODE":0,"TOWNNAME":"南區","LI":"南華里","LIN":"9鄰","STREET":"中華南路","SECT":"二段","MAREA":" ","LANE":" ","ALLEY":" ","HOUSE_NO":"３５４號","E_COORD97":166521.73000000001,"N_COORD97":2540298.3900000001,"ADDRESS":"中華南路二段３５４號","OBJECTID":558352},"geometry":{"x":166521.73000000045,"y":2540298.3900000006}},{"attributes":{"ID":558380,"DIS_CODE":0,"TOWNNAME":"南區","LI":"南華里","LIN":"9鄰","STREET":"中華南路","SECT":"二段","MAREA":" ","LANE":" ","ALLEY":" ","HOUSE_NO":"３５６號","E_COORD97":166517.51000000001,"N_COORD97":2540298.5099999998,"ADDRESS":"中華南路二段３５６號","OBJECTID":558353},"geometry":{"x":166517.50999999978,"y":2540298.5100000016}},{"attributes":{"ID":558381,"DIS_CODE":0,"TOWNNAME":"南區","LI":"南華里","LIN":"9鄰","STREET":"中華南路","SECT":"二段","MAREA":" ","LANE":" ","ALLEY":" ","HOUSE_NO":"３５８號","E_COORD97":166513.17999999999,"N_COORD97":2540298.27,"ADDRESS":"中華南路二段３５８號","OBJECTID":558354},"geometry":{"x":166513.18000000156,"y":2540298.2699999996}},{"attributes":{"ID":558382,"DIS_CODE":0,"TOWNNAME":"南區","LI":"南華里","LIN":"9鄰","STREET":"中華南路","SECT":"二段","MAREA":" ","LANE":" ","ALLEY":" ","HOUSE_NO":"３６０號","E_COORD97":166506.97,"N_COORD97":2540298.5099999998,"ADDRESS":"中華南路二段３６０號","OBJECTID":558355},"geometry":{"x":166506.97000000067,"y":2540298.5100000016}},{"attributes":{"ID":558383,"DIS_CODE":0,"TOWNNAME":"南區","LI":"南華里","LIN":"9鄰","STREET":"中華南路","SECT":"二段","MAREA":" ","LANE":" ","ALLEY":" ","HOUSE_NO":"３６２號","E_COORD97":166503.22,"N_COORD97":2540298.3900000001,"ADDRESS":"中華南路二段３６２號","OBJECTID":558356},"geometry":{"x":166503.22000000067,"y":2540298.3900000006}},{"attributes":{"ID":558384,"DIS_CODE":0,"TOWNNAME":"南區","LI":"南華里","LIN":"9鄰","STREET":"中華南路","SECT":"二段","MAREA":" ","LANE":" ","ALLEY":" ","HOUSE_NO":"３６４號","E_COORD97":166499.82000000001,"N_COORD97":2540298.5099999998,"ADDRESS":"中華南路二段３６４號","OBJECTID":558357},"geometry":{"x":166499.82000000123,"y":2540298.5100000016}},{"attributes":{"ID":558385,"DIS_CODE":0,"TOWNNAME":"南區","LI":"南華里","LIN":"9鄰","STREET":"中華南路","SECT":"二段","MAREA":" ","LANE":" ","ALLEY":" ","HOUSE_NO":"３６６號","E_COORD97":166496.19,"N_COORD97":2540298.2799999998,"ADDRESS":"中華南路二段３６６號","OBJECTID":558358},"geometry":{"x":166496.19000000041,"y":2540298.2799999993}},{"attributes":{"ID":558386,"DIS_CODE":0,"TOWNNAME":"新營區","LI":"民生里","LIN":"9鄰","STREET":"中華路","SECT":" ","MAREA":" ","LANE":" ","ALLEY":" ","HOUSE_NO":"９１之１號","E_COORD97":179269.94,"N_COORD97":2578143.23,"ADDRESS":"中華路９１之１號","OBJECTID":558359},"geometry":{"x":179269.94000000041,"y":2578143.2300000004}},{"attributes":{"ID":558387,"DIS_CODE":0,"TOWNNAME":"新營區","LI":"興安里","LIN":"9鄰","STREET":"新進路","SECT":" ","MAREA":" ","LANE":" ","ALLEY":" ","HOUSE_NO":"２８９號","E_COORD97":179952.38,"N_COORD97":2577775.5800000001,"ADDRESS":"新進路２８９號","OBJECTID":558360},"geometry":{"x":179952.37999999989,"y":2577775.5800000019}},{"attributes":{"ID":558388,"DIS_CODE":0,"TOWNNAME":"北區","LI":"成德里","LIN":"9鄰","STREET":"西門路","SECT":"四段","MAREA":" ","LANE":" ","ALLEY":" ","HOUSE_NO":"１５１號地下室之１","E_COORD97":168684.17000000001,"N_COORD97":2545594.02,"ADDRESS":"西門路四段１５１號地下室之１","OBJECTID":558361},"geometry":{"x":168684.17000000086,"y":2545594.0200000014}},{"attributes":{"ID":558389,"DIS_CODE":0,"TOWNNAME":"北區","LI":"成德里","LIN":"9鄰","STREET":"西門路","SECT":"四段","MAREA":" ","LANE":" ","ALLEY":" ","HOUSE_NO":"１５１號地下室之２","E_COORD97":168684.17000000001,"N_COORD97":2545594.02,"ADDRESS":"西門路四段１５１號地下室之２","OBJECTID":558362},"geometry":{"x":168684.17000000086,"y":2545594.0200000014}},{"attributes":{"ID":558390,"DIS_CODE":0,"TOWNNAME":"北區","LI":"成德里","LIN":"9鄰","STREET":"西門路","SECT":"四段","MAREA":" ","LANE":" ","ALLEY":" ","HOUSE_NO":"１５１號地下室之３","E_COORD97":168684.17000000001,"N_COORD97":2545594.02,"ADDRESS":"西門路四段１５１號地下室之３","OBJECTID":558363},"geometry":{"x":168684.17000000086,"y":2545594.0200000014}},{"attributes":{"ID":558391,"DIS_CODE":0,"TOWNNAME":"北區","LI":"成德里","LIN":"9鄰","STREET":"西門路","SECT":"四段","MAREA":" ","LANE":" ","ALLEY":" ","HOUSE_NO":"１５３號","E_COORD97":168783.29999999999,"N_COORD97":2545580.27,"ADDRESS":"西門路四段１５３號","OBJECTID":558364},"geometry":{"x":168783.29999999981,"y":2545580.2699999996}},{"attributes":{"ID":558392,"DIS_CODE":0,"TOWNNAME":"北區","LI":"成功里","LIN":"9鄰","STREET":"北成路","SECT":" ","MAREA":" ","LANE":" ","ALLEY":" ","HOUSE_NO":"１０號","E_COORD97":169198.94,"N_COORD97":2546539.5299999998,"ADDRESS":"北成路１０號","OBJECTID":558365},"geometry":{"x":169198.93999999948,"y":2546539.5300000012}},{"attributes":{"ID":558393,"DIS_CODE":0,"TOWNNAME":"歸仁區","LI":"新厝里","LIN":"9鄰","STREET":"和平南街","SECT":" ","MAREA":" ","LANE":" ","ALLEY":" ","HOUSE_NO":"１１２號","E_COORD97":177798.26999999999,"N_COORD97":2540511.27,"ADDRESS":"和平南街１１２號","OBJECTID":558366},"geometry":{"x":177798.26999999955,"y":2540511.2699999996}},{"attributes":{"ID":558394,"DIS_CODE":0,"TOWNNAME":"歸仁區","LI":"媽廟里","LIN":"9鄰","STREET":"和順路","SECT":"一段","MAREA":" ","LANE":" ","ALLEY":" ","HOUSE_NO":"１２２號","E_COORD97":177213.32000000001,"N_COORD97":2543713.7200000002,"ADDRESS":"和順路一段１２２號","OBJECTID":558367},"geometry":{"x":177213.32000000123,"y":2543713.7200000007}},{"attributes":{"ID":558395,"DIS_CODE":0,"TOWNNAME":"歸仁區","LI":"歸仁里","LIN":"9鄰","STREET":"大仁街","SECT":" ","MAREA":" ","LANE":" ","ALLEY":" ","HOUSE_NO":"４７號","E_COORD97":177947.64999999999,"N_COORD97":2540827.1699999999,"ADDRESS":"大仁街４７號","OBJECTID":558368},"geometry":{"x":177947.65000000037,"y":2540827.1700000018}},{"attributes":{"ID":558396,"DIS_CODE":0,"TOWNNAME":"歸仁區","LI":"媽廟里","LIN":"9鄰","STREET":"和順路","SECT":"一段","MAREA":" ","LANE":" ","ALLEY":" ","HOUSE_NO":"１９４號","E_COORD97":176980.12,"N_COORD97":2543723.25,"ADDRESS":"和順路一段１９４號","OBJECTID":558369},"geometry":{"x":176980.12000000197,"y":2543723.25}},{"attributes":{"ID":558397,"DIS_CODE":0,"TOWNNAME":"歸仁區","LI":"媽廟里","LIN":"9鄰","STREET":"和順路","SECT":"一段","MAREA":" ","LANE":" ","ALLEY":" ","HOUSE_NO":"２８６號","E_COORD97":176807.82000000001,"N_COORD97":2543711.25,"ADDRESS":"和順路一段２８６號","OBJECTID":558370},"geometry":{"x":176807.82000000216,"y":2543711.2500000019}},{"attributes":{"ID":558398,"DIS_CODE":0,"TOWNNAME":"歸仁區","LI":"歸仁里","LIN":"9鄰","STREET":"大仁街","SECT":" ","MAREA":" ","LANE":" ","ALLEY":" ","HOUSE_NO":"４５號","E_COORD97":177942.54999999999,"N_COORD97":2540825.1699999999,"ADDRESS":"大仁街４５號","OBJECTID":558371},"geometry":{"x":177942.54999999981,"y":2540825.1699999999}},{"attributes":{"ID":558399,"DIS_CODE":0,"TOWNNAME":"歸仁區","LI":"媽廟里","LIN":"9鄰","STREET":"和順路","SECT":"一段","MAREA":" ","LANE":" ","ALLEY":" ","HOUSE_NO":"１２６號","E_COORD97":177203.12,"N_COORD97":2543712.7200000002,"ADDRESS":"和順路一段１２６號","OBJECTID":558372},"geometry":{"x":177203.12000000011,"y":2543712.7200000025}},{"attributes":{"ID":558400,"DIS_CODE":0,"TOWNNAME":"歸仁區","LI":"新厝里","LIN":"9鄰","STREET":"公園路","SECT":" ","MAREA":" ","LANE":" ","ALLEY":" ","HOUSE_NO":"１９６號","E_COORD97":177743.57999999999,"N_COORD97":2540430.5,"ADDRESS":"公園路１９６號","OBJECTID":558373},"geometry":{"x":177743.58000000101,"y":2540430.5000000037}},{"attributes":{"ID":558401,"DIS_CODE":0,"TOWNNAME":"歸仁區","LI":"許厝里","LIN":"9鄰","STREET":"仁愛南街","SECT":" ","MAREA":" ","LANE":" ","ALLEY":" ","HOUSE_NO":"７０號","E_COORD97":178265.23000000001,"N_COORD97":2540479.25,"ADDRESS":"仁愛南街７０號","OBJECTID":558374},"geometry":{"x":178265.23000000138,"y":2540479.25}},{"attributes":{"ID":558402,"DIS_CODE":0,"TOWNNAME":"歸仁區","LI":"西埔里","LIN":"9鄰","STREET":"西埔一街","SECT":" ","MAREA":" ","LANE":" ","ALLEY":" ","HOUSE_NO":"１６９號","E_COORD97":177019.89000000001,"N_COORD97":2544639.25,"ADDRESS":"西埔一街１６９號","OBJECTID":558375},"geometry":{"x":177019.88999999966,"y":2544639.25}},{"attributes":{"ID":558403,"DIS_CODE":0,"TOWNNAME":"南區","LI":"新昌里","LIN":"9鄰","STREET":"府緯街","SECT":" ","MAREA":" ","LANE":" ","ALLEY":" ","HOUSE_NO":"８６號之２","E_COORD97":167686.62,"N_COORD97":2542750.4900000002,"ADDRESS":"府緯街８６號之２","OBJECTID":558376},"geometry":{"x":167686.62000000011,"y":2542750.4900000021}},{"attributes":{"ID":558404,"DIS_CODE":0,"TOWNNAME":"南區","LI":"新昌里","LIN":"9鄰","STREET":"府緯街","SECT":" ","MAREA":" ","LANE":" ","ALLEY":" ","HOUSE_NO":"８６號之３","E_COORD97":167686.62,"N_COORD97":2542745.6699999999,"ADDRESS":"府緯街８６號之３","OBJECTID":558377},"geometry":{"x":167686.62000000011,"y":2542745.6700000018}},{"attributes":{"ID":558405,"DIS_CODE":0,"TOWNNAME":"北區","LI":"元寶里","LIN":"9鄰","STREET":"北園街","SECT":" ","MAREA":" ","LANE":" ","ALLEY":" ","HOUSE_NO":"６之１號","E_COORD97":170388.98999999999,"N_COORD97":2545612.9300000002,"ADDRESS":"北園街６之１號","OBJECTID":558378},"geometry":{"x":170388.99000000115,"y":2545612.9299999997}},{"attributes":{"ID":558406,"DIS_CODE":0,"TOWNNAME":"北區","LI":"元寶里","LIN":"9鄰","STREET":"北園街","SECT":" ","MAREA":" ","LANE":" ","ALLEY":" ","HOUSE_NO":"６之２號","E_COORD97":170388.54000000001,"N_COORD97":2545616.9700000002,"ADDRESS":"北園街６之２號","OBJECTID":558379},"geometry":{"x":170388.54000000097,"y":2545616.9700000007}},{"attributes":{"ID":558407,"DIS_CODE":0,"TOWNNAME":"北區","LI":"元寶里","LIN":"9鄰","STREET":"北園街","SECT":" ","MAREA":" ","LANE":" ","ALLEY":" ","HOUSE_NO":"６號","E_COORD97":170390.10999999999,"N_COORD97":2545607.98,"ADDRESS":"北園街６號","OBJECTID":558380},"geometry":{"x":170390.11000000127,"y":2545607.9799999986}},{"attributes":{"ID":558408,"DIS_CODE":0,"TOWNNAME":"北區","LI":"新勝里","LIN":"9鄰","STREET":"長榮路","SECT":"五段","MAREA":" ","LANE":" ","ALLEY":" ","HOUSE_NO":"３０號之１","E_COORD97":170131.35999999999,"N_COORD97":2545551.8199999998,"ADDRESS":"長榮路五段３０號之１","OBJECTID":558381},"geometry":{"x":170131.36000000034,"y":2545551.8200000022}},{"attributes":{"ID":558409,"DIS_CODE":0,"TOWNNAME":"北區","LI":"新勝里","LIN":"9鄰","STREET":"長榮路","SECT":"五段","MAREA":" ","LANE":" ","ALLEY":" ","HOUSE_NO":"４２號","E_COORD97":170111.12,"N_COORD97":2545604.4500000002,"ADDRESS":"長榮路五段４２號","OBJECTID":558382},"geometry":{"x":170111.11999999918,"y":2545604.4500000011}},{"attributes":{"ID":558410,"DIS_CODE":0,"TOWNNAME":"北區","LI":"新勝里","LIN":"9鄰","STREET":"長榮路","SECT":"五段","MAREA":" ","LANE":" ","ALLEY":" ","HOUSE_NO":"４４號","E_COORD97":170120.48999999999,"N_COORD97":2545605.8100000001,"ADDRESS":"長榮路五段４４號","OBJECTID":558383},"geometry":{"x":170120.49000000022,"y":2545605.8099999987}},{"attributes":{"ID":558411,"DIS_CODE":0,"TOWNNAME":"北區","LI":"新勝里","LIN":"9鄰","STREET":"長榮路","SECT":"五段","MAREA":" ","LANE":" ","ALLEY":" ","HOUSE_NO":"４６號","E_COORD97":170118.47,"N_COORD97":2545617.0800000001,"ADDRESS":"長榮路五段４６號","OBJECTID":558384},"geometry":{"x":170118.46999999974,"y":2545617.0799999982}},{"attributes":{"ID":558412,"DIS_CODE":0,"TOWNNAME":"北區","LI":"新勝里","LIN":"9鄰","STREET":"長榮路","SECT":"五段","MAREA":" ","LANE":" ","ALLEY":" ","HOUSE_NO":"４８號","E_COORD97":170109.23000000001,"N_COORD97":2545615.3900000001,"ADDRESS":"長榮路五段４８號","OBJECTID":558385},"geometry":{"x":170109.23000000231,"y":2545615.3900000006}},{"attributes":{"ID":558413,"DIS_CODE":0,"TOWNNAME":"北區","LI":"新勝里","LIN":"9鄰","STREET":"長榮路","SECT":"五段","MAREA":" ","LANE":" ","ALLEY":" ","HOUSE_NO":"５６號","E_COORD97":170112.82000000001,"N_COORD97":2545632.9199999999,"ADDRESS":"長榮路五段５６號","OBJECTID":558386},"geometry":{"x":170112.8200000003,"y":2545632.9200000018}},{"attributes":{"ID":558414,"DIS_CODE":0,"TOWNNAME":"北區","LI":"新勝里","LIN":"9鄰","STREET":"長榮路","SECT":"五段","MAREA":" ","LANE":" ","ALLEY":" ","HOUSE_NO":"５８號","E_COORD97":170116.79000000001,"N_COORD97":2545632.2000000002,"ADDRESS":"長榮路五段５８號","OBJECTID":558387},"geometry":{"x":170116.7900000019,"y":2545632.1999999993}},{"attributes":{"ID":558415,"DIS_CODE":0,"TOWNNAME":"北區","LI":"新勝里","LIN":"9鄰","STREET":"長榮路","SECT":"五段","MAREA":" ","LANE":" ","ALLEY":" ","HOUSE_NO":"６０號","E_COORD97":170120.63,"N_COORD97":2545633.3700000001,"ADDRESS":"長榮路五段６０號","OBJECTID":558388},"geometry":{"x":170120.62999999989,"y":2545633.3700000048}},{"attributes":{"ID":558416,"DIS_CODE":0,"TOWNNAME":"北區","LI":"新勝里","LIN":"9鄰","STREET":"長榮路","SECT":"五段","MAREA":" ","LANE":" ","ALLEY":" ","HOUSE_NO":"６２號","E_COORD97":170104.60999999999,"N_COORD97":2545653.9399999999,"ADDRESS":"長榮路五段６２號","OBJECTID":558389},"geometry":{"x":170104.6099999994,"y":2545653.9399999995}},{"attributes":{"ID":558417,"DIS_CODE":0,"TOWNNAME":"北區","LI":"裕民里","LIN":"8鄰","STREET":"成功路","SECT":" ","MAREA":" ","LANE":" ","ALLEY":" ","HOUSE_NO":"５７４號","E_COORD97":167537.01000000001,"N_COORD97":2544720.75,"ADDRESS":"成功路５７４號","OBJECTID":558390},"geometry":{"x":167537.01000000071,"y":2544720.7499999981}},{"attributes":{"ID":558418,"DIS_CODE":0,"TOWNNAME":"北區","LI":"裕民里","LIN":"8鄰","STREET":"成功路","SECT":" ","MAREA":" ","LANE":" ","ALLEY":" ","HOUSE_NO":"５７６號","E_COORD97":167534.10000000001,"N_COORD97":2544723,"ADDRESS":"成功路５７６號","OBJECTID":558391},"geometry":{"x":167534.10000000149,"y":2544723.0000000019}},{"attributes":{"ID":558419,"DIS_CODE":0,"TOWNNAME":"北區","LI":"裕民里","LIN":"8鄰","STREET":"成功路","SECT":" ","MAREA":" ","LANE":" ","ALLEY":" ","HOUSE_NO":"５７８號","E_COORD97":167531.45000000001,"N_COORD97":2544726.1000000001,"ADDRESS":"成功路５７８號","OBJECTID":558392},"geometry":{"x":167531.45000000112,"y":2544726.1000000015}},{"attributes":{"ID":558420,"DIS_CODE":0,"TOWNNAME":"北區","LI":"裕民里","LIN":"8鄰","STREET":"成功路","SECT":" ","MAREA":" ","LANE":" ","ALLEY":" ","HOUSE_NO":"５８０號","E_COORD97":167529.07000000001,"N_COORD97":2544729.9100000001,"ADDRESS":"成功路５８０號","OBJECTID":558393},"geometry":{"x":167529.07000000123,"y":2544729.9100000001}},{"attributes":{"ID":558421,"DIS_CODE":0,"TOWNNAME":"北區","LI":"裕民里","LIN":"8鄰","STREET":"成功路","SECT":" ","MAREA":" ","LANE":" ","ALLEY":" ","HOUSE_NO":"５８２號","E_COORD97":167526.53,"N_COORD97":2544733.3999999999,"ADDRESS":"成功路５８２號","OBJECTID":558394},"geometry":{"x":167526.53000000026,"y":2544733.4000000004}},{"attributes":{"ID":558422,"DIS_CODE":0,"TOWNNAME":"北區","LI":"裕民里","LIN":"8鄰","STREET":"成功路","SECT":" ","MAREA":" ","LANE":" ","ALLEY":" ","HOUSE_NO":"５８６號之５","E_COORD97":167475.10999999999,"N_COORD97":2544791.6400000001,"ADDRESS":"成功路５８６號之５","OBJECTID":558395},"geometry":{"x":167475.11000000034,"y":2544791.6400000025}},{"attributes":{"ID":558423,"DIS_CODE":0,"TOWNNAME":"北區","LI":"裕民里","LIN":"8鄰","STREET":"成功路","SECT":" ","MAREA":" ","LANE":" ","ALLEY":" ","HOUSE_NO":"５８６號之６","E_COORD97":167471.04000000001,"N_COORD97":2544796.0600000001,"ADDRESS":"成功路５８６號之６","OBJECTID":558396},"geometry":{"x":167471.04000000097,"y":2544796.0600000005}},{"attributes":{"ID":558424,"DIS_CODE":0,"TOWNNAME":"北區","LI":"裕民里","LIN":"8鄰","STREET":"臨安路","SECT":"二段","MAREA":" ","LANE":" ","ALLEY":" ","HOUSE_NO":"１２號","E_COORD97":167538.10000000001,"N_COORD97":2544751.3500000001,"ADDRESS":"臨安路二段１２號","OBJECTID":558397},"geometry":{"x":167538.10000000056,"y":2544751.3500000015}},{"attributes":{"ID":558425,"DIS_CODE":0,"TOWNNAME":"南區","LI":"建南里","LIN":"9鄰","STREET":"德興路","SECT":" ","MAREA":" ","LANE":" ","ALLEY":" ","HOUSE_NO":"２７６號","E_COORD97":167200.98000000001,"N_COORD97":2540006.1099999999,"ADDRESS":"德興路２７６號","OBJECTID":558398},"geometry":{"x":167200.98000000138,"y":2540006.1100000013}},{"attributes":{"ID":558426,"DIS_CODE":0,"TOWNNAME":"南區","LI":"建南里","LIN":"9鄰","STREET":"德興路","SECT":" ","MAREA":" ","LANE":" ","ALLEY":" ","HOUSE_NO":"２７８號","E_COORD97":167201.20000000001,"N_COORD97":2540002.1000000001,"ADDRESS":"德興路２７８號","OBJECTID":558399},"geometry":{"x":167201.20000000019,"y":2540002.1000000034}},{"attributes":{"ID":558427,"DIS_CODE":0,"TOWNNAME":"南區","LI":"建南里","LIN":"9鄰","STREET":"德興路","SECT":" ","MAREA":" ","LANE":" ","ALLEY":" ","HOUSE_NO":"２７８號之１","E_COORD97":167201.20000000001,"N_COORD97":2539997.8500000001,"ADDRESS":"德興路２７８號之１","OBJECTID":558400},"geometry":{"x":167201.20000000019,"y":2539997.8500000015}}]}