{"displayFieldName":"TOWNNAME","fieldAliases":{"ID":"ID","DIS_CODE":"DIS_CODE","TOWNNAME":"TOWNNAME","LI":"LI","LIN":"LIN","STREET":"STREET","SECT":"SECT","MAREA":"MAREA","LANE":"LANE","ALLEY":"ALLEY","HOUSE_NO":"HOUSE_NO","E_COORD97":"E_COORD97","N_COORD97":"N_COORD97","ADDRESS":"ADDRESS","OBJECTID":"OBJECTID"},"geometryType":"esriGeometryPoint","spatialReference":{"wkid":102443,"latestWkid":3826},"fields":[{"name":"ID","type":"esriFieldTypeDouble","alias":"ID"},{"name":"DIS_CODE","type":"esriFieldTypeInteger","alias":"DIS_CODE"},{"name":"TOWNNAME","type":"esriFieldTypeString","alias":"TOWNNAME","length":8},{"name":"LI","type":"esriFieldTypeString","alias":"LI","length":8},{"name":"LIN","type":"esriFieldTypeString","alias":"LIN","length":12},{"name":"STREET","type":"esriFieldTypeString","alias":"STREET","length":20},{"name":"SECT","type":"esriFieldTypeString","alias":"SECT","length":8},{"name":"MAREA","type":"esriFieldTypeString","alias":"MAREA","length":12},{"name":"LANE","type":"esriFieldTypeString","alias":"LANE","length":10},{"name":"ALLEY","type":"esriFieldTypeString","alias":"ALLEY","length":10},{"name":"HOUSE_NO","type":"esriFieldTypeString","alias":"HOUSE_NO","length":20},{"name":"E_COORD97","type":"esriFieldTypeDouble","alias":"E_COORD97"},{"name":"N_COORD97","type":"esriFieldTypeDouble","alias":"N_COORD97"},{"name":"ADDRESS","type":"esriFieldTypeString","alias":"ADDRESS","length":50},{"name":"OBJECTID","type":"esriFieldTypeOID","alias":"OBJECTID"}],"features":[{"attributes":{"ID":230805,"DIS_CODE":0,"TOWNNAME":"安南區","LI":"公\u25A0里","LIN":"2鄰","STREET":"安興街","SECT":" ","MAREA":" ","LANE":"４３巷","ALLEY":" ","HOUSE_NO":"４號","E_COORD97":164357.10000000001,"N_COORD97":2552242.9100000001,"ADDRESS":"安興街４３巷４號","OBJECTID":230801},"geometry":{"x":164357.09999999963,"y":2552242.9100000001}},{"attributes":{"ID":230806,"DIS_CODE":0,"TOWNNAME":"安南區","LI":"海東里","LIN":"2鄰","STREET":"海環街","SECT":" ","MAREA":" ","LANE":"５９６巷","ALLEY":" ","HOUSE_NO":"２８號","E_COORD97":166477.64000000001,"N_COORD97":2549248.23,"ADDRESS":"海環街５９６巷２８號","OBJECTID":230802},"geometry":{"x":166477.63999999966,"y":2549248.2300000023}},{"attributes":{"ID":230807,"DIS_CODE":0,"TOWNNAME":"安南區","LI":"海東里","LIN":"2鄰","STREET":"海環街","SECT":" ","MAREA":" ","LANE":"５９６巷","ALLEY":" ","HOUSE_NO":"２號","E_COORD97":166418.95000000001,"N_COORD97":2549258.4199999999,"ADDRESS":"海環街５９６巷２號","OBJECTID":230803},"geometry":{"x":166418.95000000112,"y":2549258.4199999999}},{"attributes":{"ID":230808,"DIS_CODE":0,"TOWNNAME":"安南區","LI":"海東里","LIN":"2鄰","STREET":"海環街","SECT":" ","MAREA":" ","LANE":"５９６巷","ALLEY":" ","HOUSE_NO":"２０號","E_COORD97":166449.76999999999,"N_COORD97":2549242.7599999998,"ADDRESS":"海環街５９６巷２０號","OBJECTID":230804},"geometry":{"x":166449.77000000142,"y":2549242.7599999998}},{"attributes":{"ID":230809,"DIS_CODE":0,"TOWNNAME":"安南區","LI":"海東里","LIN":"2鄰","STREET":"海環街","SECT":" ","MAREA":" ","LANE":"５９６巷","ALLEY":" ","HOUSE_NO":"２２號","E_COORD97":166458.17999999999,"N_COORD97":2549244.4500000002,"ADDRESS":"海環街５９６巷２２號","OBJECTID":230805},"geometry":{"x":166458.1799999997,"y":2549244.4499999993}},{"attributes":{"ID":230810,"DIS_CODE":0,"TOWNNAME":"安南區","LI":"海東里","LIN":"2鄰","STREET":"海環街","SECT":" ","MAREA":" ","LANE":"５９６巷","ALLEY":" ","HOUSE_NO":"２４號","E_COORD97":166466.79999999999,"N_COORD97":2549246.7200000002,"ADDRESS":"海環街５９６巷２４號","OBJECTID":230806},"geometry":{"x":166466.80000000168,"y":2549246.7200000007}},{"attributes":{"ID":230811,"DIS_CODE":0,"TOWNNAME":"安南區","LI":"海東里","LIN":"2鄰","STREET":"海環街","SECT":" ","MAREA":" ","LANE":"５９６巷","ALLEY":" ","HOUSE_NO":"２６號","E_COORD97":166473.32000000001,"N_COORD97":2549247.23,"ADDRESS":"海環街５９６巷２６號","OBJECTID":230807},"geometry":{"x":166473.3200000003,"y":2549247.2300000004}},{"attributes":{"ID":230812,"DIS_CODE":0,"TOWNNAME":"安南區","LI":"海東里","LIN":"2鄰","STREET":"海環街","SECT":" ","MAREA":" ","LANE":"５９６巷","ALLEY":" ","HOUSE_NO":"３０號","E_COORD97":166481.48999999999,"N_COORD97":2549249,"ADDRESS":"海環街５９６巷３０號","OBJECTID":230808},"geometry":{"x":166481.49000000115,"y":2549249.0000000037}},{"attributes":{"ID":230813,"DIS_CODE":0,"TOWNNAME":"安南區","LI":"海東里","LIN":"2鄰","STREET":"海環街","SECT":" ","MAREA":" ","LANE":"５９６巷","ALLEY":" ","HOUSE_NO":"３２號","E_COORD97":166486.70000000001,"N_COORD97":2549253.79,"ADDRESS":"海環街５９６巷３２號","OBJECTID":230809},"geometry":{"x":166486.70000000112,"y":2549253.790000001}},{"attributes":{"ID":230814,"DIS_CODE":0,"TOWNNAME":"安南區","LI":"海東里","LIN":"2鄰","STREET":"海環街","SECT":" ","MAREA":" ","LANE":"５９６巷","ALLEY":" ","HOUSE_NO":"４０號","E_COORD97":166511.70999999999,"N_COORD97":2549255.9199999999,"ADDRESS":"海環街５９６巷４０號","OBJECTID":230810},"geometry":{"x":166511.71000000089,"y":2549255.9199999981}},{"attributes":{"ID":230815,"DIS_CODE":0,"TOWNNAME":"安南區","LI":"理想里","LIN":"2鄰","STREET":"同安路","SECT":" ","MAREA":" ","LANE":"３６巷","ALLEY":" ","HOUSE_NO":"６１號","E_COORD97":166922.39000000001,"N_COORD97":2548732.8100000001,"ADDRESS":"同安路３６巷６１號","OBJECTID":230811},"geometry":{"x":166922.3900000006,"y":2548732.8100000024}},{"attributes":{"ID":230816,"DIS_CODE":0,"TOWNNAME":"安南區","LI":"溪心里","LIN":"2鄰","STREET":"海佃路","SECT":"二段","MAREA":" ","LANE":"６２３巷","ALLEY":" ","HOUSE_NO":"２號","E_COORD97":166499.67000000001,"N_COORD97":2549489.5,"ADDRESS":"海佃路二段６２３巷２號","OBJECTID":230812},"geometry":{"x":166499.66999999993,"y":2549489.5000000037}},{"attributes":{"ID":230817,"DIS_CODE":0,"TOWNNAME":"安南區","LI":"溪心里","LIN":"2鄰","STREET":"海佃路","SECT":"二段","MAREA":" ","LANE":"６２３巷","ALLEY":" ","HOUSE_NO":"４號","E_COORD97":166496,"N_COORD97":2549485.3999999999,"ADDRESS":"海佃路二段６２３巷４號","OBJECTID":230813},"geometry":{"x":166495.99999999907,"y":2549485.4000000022}},{"attributes":{"ID":230818,"DIS_CODE":0,"TOWNNAME":"安南區","LI":"溪心里","LIN":"2鄰","STREET":"海佃路","SECT":"二段","MAREA":" ","LANE":"６２３巷","ALLEY":" ","HOUSE_NO":"６號","E_COORD97":166493.45999999999,"N_COORD97":2549481.1600000001,"ADDRESS":"海佃路二段６２３巷６號","OBJECTID":230814},"geometry":{"x":166493.46000000089,"y":2549481.1600000001}},{"attributes":{"ID":230819,"DIS_CODE":0,"TOWNNAME":"安南區","LI":"溪心里","LIN":"2鄰","STREET":"海佃路","SECT":"二段","MAREA":" ","LANE":"６２３巷","ALLEY":" ","HOUSE_NO":"８號","E_COORD97":166490.17000000001,"N_COORD97":2549476.54,"ADDRESS":"海佃路二段６２３巷８號","OBJECTID":230815},"geometry":{"x":166490.17000000086,"y":2549476.5399999991}},{"attributes":{"ID":230820,"DIS_CODE":0,"TOWNNAME":"安南區","LI":"梅花里","LIN":"2鄰","STREET":"安中路","SECT":"一段","MAREA":" ","LANE":"６１９巷","ALLEY":" ","HOUSE_NO":"７８號之１","E_COORD97":167767.07999999999,"N_COORD97":2548897.75,"ADDRESS":"安中路一段６１９巷７８號之１","OBJECTID":230816},"geometry":{"x":167767.08000000194,"y":2548897.7499999981}},{"attributes":{"ID":230821,"DIS_CODE":0,"TOWNNAME":"安南區","LI":"理想里","LIN":"2鄰","STREET":"同安路","SECT":" ","MAREA":" ","LANE":"３６巷","ALLEY":" ","HOUSE_NO":"６３號","E_COORD97":166923.42000000001,"N_COORD97":2548728.71,"ADDRESS":"同安路３６巷６３號","OBJECTID":230817},"geometry":{"x":166923.41999999993,"y":2548728.7100000009}},{"attributes":{"ID":230822,"DIS_CODE":0,"TOWNNAME":"安南區","LI":"理想里","LIN":"2鄰","STREET":"同安路","SECT":" ","MAREA":" ","LANE":"３６巷","ALLEY":" ","HOUSE_NO":"７１號","E_COORD97":166931.10999999999,"N_COORD97":2548713.2599999998,"ADDRESS":"同安路３６巷７１號","OBJECTID":230818},"geometry":{"x":166931.11000000034,"y":2548713.2599999998}},{"attributes":{"ID":230823,"DIS_CODE":0,"TOWNNAME":"安南區","LI":"理想里","LIN":"2鄰","STREET":"同安路","SECT":" ","MAREA":" ","LANE":"３６巷","ALLEY":" ","HOUSE_NO":"６５號","E_COORD97":166925.88,"N_COORD97":2548724.8100000001,"ADDRESS":"同安路３６巷６５號","OBJECTID":230819},"geometry":{"x":166925.88000000082,"y":2548724.8100000005}},{"attributes":{"ID":230824,"DIS_CODE":0,"TOWNNAME":"安南區","LI":"理想里","LIN":"2鄰","STREET":"同安路","SECT":" ","MAREA":" ","LANE":"３６巷","ALLEY":" ","HOUSE_NO":"６７號","E_COORD97":166927.32000000001,"N_COORD97":2548721.3199999998,"ADDRESS":"同安路３６巷６７號","OBJECTID":230820},"geometry":{"x":166927.32000000123,"y":2548721.3199999984}},{"attributes":{"ID":230825,"DIS_CODE":0,"TOWNNAME":"安南區","LI":"理想里","LIN":"2鄰","STREET":"同安路","SECT":" ","MAREA":" ","LANE":"３６巷","ALLEY":" ","HOUSE_NO":"６９號","E_COORD97":166929.17000000001,"N_COORD97":2548718.04,"ADDRESS":"同安路３６巷６９號","OBJECTID":230821},"geometry":{"x":166929.17000000086,"y":2548718.0399999991}},{"attributes":{"ID":230826,"DIS_CODE":0,"TOWNNAME":"安南區","LI":"理想里","LIN":"2鄰","STREET":"同安路","SECT":" ","MAREA":" ","LANE":"３６巷","ALLEY":" ","HOUSE_NO":"７３號","E_COORD97":166933.57000000001,"N_COORD97":2548709.8199999998,"ADDRESS":"同安路３６巷７３號","OBJECTID":230822},"geometry":{"x":166933.57000000123,"y":2548709.8200000003}},{"attributes":{"ID":230827,"DIS_CODE":0,"TOWNNAME":"善化區","LI":"嘉南里","LIN":"2鄰","STREET":" ","SECT":" ","MAREA":"茄拔","LANE":" ","ALLEY":" ","HOUSE_NO":"６３號之２","E_COORD97":181029.81,"N_COORD97":2559293.02,"ADDRESS":"茄拔６３號之２","OBJECTID":230823},"geometry":{"x":181029.81000000145,"y":2559293.0199999996}},{"attributes":{"ID":230828,"DIS_CODE":0,"TOWNNAME":"善化區","LI":"嘉南里","LIN":"2鄰","STREET":" ","SECT":" ","MAREA":"茄拔","LANE":" ","ALLEY":" ","HOUSE_NO":"３６０號","E_COORD97":181046.84,"N_COORD97":2557326.7599999998,"ADDRESS":"茄拔３６０號","OBJECTID":230824},"geometry":{"x":181046.84000000171,"y":2557326.7600000016}},{"attributes":{"ID":230829,"DIS_CODE":0,"TOWNNAME":"安南區","LI":"理想里","LIN":"2鄰","STREET":"同安路","SECT":" ","MAREA":" ","LANE":"３６巷","ALLEY":" ","HOUSE_NO":"７５號","E_COORD97":166935.53,"N_COORD97":2548706.54,"ADDRESS":"同安路３６巷７５號","OBJECTID":230825},"geometry":{"x":166935.53000000119,"y":2548706.540000001}},{"attributes":{"ID":230830,"DIS_CODE":0,"TOWNNAME":"東區","LI":"崇文里","LIN":"2鄰","STREET":"崇德十五街","SECT":" ","MAREA":" ","LANE":"９２巷","ALLEY":" ","HOUSE_NO":"１０號","E_COORD97":171056.79999999999,"N_COORD97":2541133.8999999999,"ADDRESS":"崇德十五街９２巷１０號","OBJECTID":230826},"geometry":{"x":171056.79999999981,"y":2541133.9000000022}},{"attributes":{"ID":230831,"DIS_CODE":0,"TOWNNAME":"東區","LI":"崇文里","LIN":"2鄰","STREET":"崇德十五街","SECT":" ","MAREA":" ","LANE":"９２巷","ALLEY":" ","HOUSE_NO":"１１號","E_COORD97":171070.57000000001,"N_COORD97":2541174.1800000002,"ADDRESS":"崇德十五街９２巷１１號","OBJECTID":230827},"geometry":{"x":171070.5700000003,"y":2541174.1799999997}},{"attributes":{"ID":230832,"DIS_CODE":0,"TOWNNAME":"東區","LI":"崇文里","LIN":"2鄰","STREET":"崇德十五街","SECT":" ","MAREA":" ","LANE":"９２巷","ALLEY":" ","HOUSE_NO":"１２號","E_COORD97":171058.10000000001,"N_COORD97":2541129.1299999999,"ADDRESS":"崇德十五街９２巷１２號","OBJECTID":230828},"geometry":{"x":171058.09999999963,"y":2541129.129999999}},{"attributes":{"ID":230833,"DIS_CODE":0,"TOWNNAME":"東區","LI":"崇文里","LIN":"2鄰","STREET":"崇德十五街","SECT":" ","MAREA":" ","LANE":"９２巷","ALLEY":" ","HOUSE_NO":"１３號","E_COORD97":171071.37,"N_COORD97":2541170.0099999998,"ADDRESS":"崇德十五街９２巷１３號","OBJECTID":230829},"geometry":{"x":171071.37000000104,"y":2541170.0100000016}},{"attributes":{"ID":230834,"DIS_CODE":0,"TOWNNAME":"善化區","LI":"嘉南里","LIN":"4鄰","STREET":" ","SECT":" ","MAREA":"茄拔","LANE":" ","ALLEY":" ","HOUSE_NO":"８２號之２","E_COORD97":181056.63,"N_COORD97":2559473.52,"ADDRESS":"茄拔８２號之２","OBJECTID":230830},"geometry":{"x":181056.62999999896,"y":2559473.5200000033}},{"attributes":{"ID":230835,"DIS_CODE":0,"TOWNNAME":"善化區","LI":"嘉北里","LIN":"4鄰","STREET":" ","SECT":" ","MAREA":"茄拔","LANE":" ","ALLEY":" ","HOUSE_NO":"３８號之１６","E_COORD97":181132.59,"N_COORD97":2559669.77,"ADDRESS":"茄拔３８號之１６","OBJECTID":230831},"geometry":{"x":181132.58999999985,"y":2559669.7700000014}},{"attributes":{"ID":230836,"DIS_CODE":0,"TOWNNAME":"善化區","LI":"嘉南里","LIN":"12鄰","STREET":" ","SECT":" ","MAREA":"茄拔","LANE":" ","ALLEY":" ","HOUSE_NO":"３６０號之５","E_COORD97":180621.57000000001,"N_COORD97":2559526.77,"ADDRESS":"茄拔３６０號之５","OBJECTID":230832},"geometry":{"x":180621.5700000003,"y":2559526.7700000014}},{"attributes":{"ID":230837,"DIS_CODE":0,"TOWNNAME":"善化區","LI":"坐駕里","LIN":"10鄰","STREET":"自強路","SECT":" ","MAREA":" ","LANE":"１１１巷","ALLEY":" ","HOUSE_NO":"５號","E_COORD97":177970.28,"N_COORD97":2558673.75,"ADDRESS":"自強路１１１巷５號","OBJECTID":230833},"geometry":{"x":177970.28000000026,"y":2558673.7500000019}},{"attributes":{"ID":230838,"DIS_CODE":0,"TOWNNAME":"善化區","LI":"坐駕里","LIN":"10鄰","STREET":"自強路","SECT":" ","MAREA":" ","LANE":"１２７巷","ALLEY":" ","HOUSE_NO":"６號","E_COORD97":177930.98999999999,"N_COORD97":2558667,"ADDRESS":"自強路１２７巷６號","OBJECTID":230834},"geometry":{"x":177930.99000000115,"y":2558667}},{"attributes":{"ID":230839,"DIS_CODE":0,"TOWNNAME":"善化區","LI":"胡厝里","LIN":"21鄰","STREET":"興農路","SECT":" ","MAREA":" ","LANE":"３６１巷","ALLEY":" ","HOUSE_NO":"３號","E_COORD97":175465.28,"N_COORD97":2558989,"ADDRESS":"興農路３６１巷３號","OBJECTID":230835},"geometry":{"x":175465.27999999933,"y":2558989}},{"attributes":{"ID":230840,"DIS_CODE":0,"TOWNNAME":"永康區","LI":"西勢里","LIN":"23鄰","STREET":"富強路","SECT":"一段","MAREA":" ","LANE":"１６８巷","ALLEY":" ","HOUSE_NO":"３０號","E_COORD97":175623.17999999999,"N_COORD97":2546235.1800000002,"ADDRESS":"富強路一段１６８巷３０號","OBJECTID":230836},"geometry":{"x":175623.18000000156,"y":2546235.1799999997}},{"attributes":{"ID":230841,"DIS_CODE":0,"TOWNNAME":"永康區","LI":"西勢里","LIN":"23鄰","STREET":"富強路","SECT":"一段","MAREA":" ","LANE":"１６８巷","ALLEY":" ","HOUSE_NO":"３２號","E_COORD97":175626.06,"N_COORD97":2546230.4399999999,"ADDRESS":"富強路一段１６８巷３２號","OBJECTID":230837},"geometry":{"x":175626.06000000052,"y":2546230.4399999995}},{"attributes":{"ID":230842,"DIS_CODE":0,"TOWNNAME":"永康區","LI":"西勢里","LIN":"23鄰","STREET":"富強路","SECT":"一段","MAREA":" ","LANE":"１６８巷","ALLEY":" ","HOUSE_NO":"３６號","E_COORD97":175629.35000000001,"N_COORD97":2546227.4399999999,"ADDRESS":"富強路一段１６８巷３６號","OBJECTID":230838},"geometry":{"x":175629.35000000056,"y":2546227.4399999995}},{"attributes":{"ID":230843,"DIS_CODE":0,"TOWNNAME":"善化區","LI":"坐駕里","LIN":"14鄰","STREET":"和平路","SECT":" ","MAREA":" ","LANE":"１５巷","ALLEY":" ","HOUSE_NO":"６號","E_COORD97":178150.14999999999,"N_COORD97":2558617.25,"ADDRESS":"和平路１５巷６號","OBJECTID":230839},"geometry":{"x":178150.1500000013,"y":2558617.25}},{"attributes":{"ID":230844,"DIS_CODE":0,"TOWNNAME":"東區","LI":"崇文里","LIN":"2鄰","STREET":"崇德十五街","SECT":" ","MAREA":" ","LANE":"９２巷","ALLEY":" ","HOUSE_NO":"１５號","E_COORD97":171072.56,"N_COORD97":2541165.6299999999,"ADDRESS":"崇德十五街９２巷１５號","OBJECTID":230840},"geometry":{"x":171072.56000000052,"y":2541165.6300000008}},{"attributes":{"ID":230845,"DIS_CODE":0,"TOWNNAME":"東區","LI":"崇文里","LIN":"2鄰","STREET":"崇德十五街","SECT":" ","MAREA":" ","LANE":"９２巷","ALLEY":" ","HOUSE_NO":"１６號","E_COORD97":171061.09,"N_COORD97":2541120.5699999998,"ADDRESS":"崇德十五街９２巷１６號","OBJECTID":230841},"geometry":{"x":171061.09000000078,"y":2541120.5700000003}},{"attributes":{"ID":230846,"DIS_CODE":0,"TOWNNAME":"善化區","LI":"嘉南里","LIN":"1鄰","STREET":" ","SECT":" ","MAREA":"茄拔","LANE":" ","ALLEY":" ","HOUSE_NO":"６０號之１２","E_COORD97":181267.06,"N_COORD97":2559492.77,"ADDRESS":"茄拔６０號之１２","OBJECTID":230842},"geometry":{"x":181267.06000000145,"y":2559492.7700000014}},{"attributes":{"ID":230847,"DIS_CODE":0,"TOWNNAME":"中西區","LI":"銀同里","LIN":"7鄰","STREET":"開山路","SECT":" ","MAREA":" ","LANE":"３５巷","ALLEY":" ","HOUSE_NO":"３３號","E_COORD97":168694.03,"N_COORD97":2543472.27,"ADDRESS":"開山路３５巷３３號","OBJECTID":230843},"geometry":{"x":168694.03000000026,"y":2543472.2699999996}},{"attributes":{"ID":230848,"DIS_CODE":0,"TOWNNAME":"中西區","LI":"銀同里","LIN":"7鄰","STREET":"開山路","SECT":" ","MAREA":" ","LANE":"３５巷","ALLEY":" ","HOUSE_NO":"３５號","E_COORD97":168697.06,"N_COORD97":2543467.5899999999,"ADDRESS":"開山路３５巷３５號","OBJECTID":230844},"geometry":{"x":168697.05999999959,"y":2543467.5900000036}},{"attributes":{"ID":230849,"DIS_CODE":0,"TOWNNAME":"中西區","LI":"銀同里","LIN":"7鄰","STREET":"開山路","SECT":" ","MAREA":" ","LANE":"３５巷","ALLEY":" ","HOUSE_NO":"３５號之１","E_COORD97":168699.26000000001,"N_COORD97":2543464.02,"ADDRESS":"開山路３５巷３５號之１","OBJECTID":230845},"geometry":{"x":168699.25999999978,"y":2543464.0199999977}},{"attributes":{"ID":230850,"DIS_CODE":0,"TOWNNAME":"東區","LI":"崇文里","LIN":"2鄰","STREET":"崇德十五街","SECT":" ","MAREA":" ","LANE":"９２巷","ALLEY":" ","HOUSE_NO":"２７號","E_COORD97":171081.42000000001,"N_COORD97":2541141.9700000002,"ADDRESS":"崇德十五街９２巷２７號","OBJECTID":230846},"geometry":{"x":171081.41999999993,"y":2541141.9700000007}},{"attributes":{"ID":230851,"DIS_CODE":0,"TOWNNAME":"東區","LI":"崇文里","LIN":"2鄰","STREET":"崇德十五街","SECT":" ","MAREA":" ","LANE":"９２巷","ALLEY":" ","HOUSE_NO":"２９號","E_COORD97":171082.32000000001,"N_COORD97":2541138.3900000001,"ADDRESS":"崇德十五街９２巷２９號","OBJECTID":230847},"geometry":{"x":171082.3200000003,"y":2541138.3900000025}},{"attributes":{"ID":230852,"DIS_CODE":0,"TOWNNAME":"安南區","LI":"新順里","LIN":"14鄰","STREET":"永安路","SECT":" ","MAREA":" ","LANE":" ","ALLEY":" ","HOUSE_NO":"１０８號","E_COORD97":170355.48000000001,"N_COORD97":2549347.9399999999,"ADDRESS":"永安路１０８號","OBJECTID":230848},"geometry":{"x":170355.48000000138,"y":2549347.9400000013}},{"attributes":{"ID":230853,"DIS_CODE":0,"TOWNNAME":"安南區","LI":"州北里","LIN":"14鄰","STREET":"安和路","SECT":"五段","MAREA":" ","LANE":" ","ALLEY":" ","HOUSE_NO":"１５１號","E_COORD97":169859.85999999999,"N_COORD97":2551803.4300000002,"ADDRESS":"安和路五段１５１號","OBJECTID":230849},"geometry":{"x":169859.86000000034,"y":2551803.4300000016}},{"attributes":{"ID":230854,"DIS_CODE":0,"TOWNNAME":"安南區","LI":"州北里","LIN":"14鄰","STREET":"安和路","SECT":"五段","MAREA":" ","LANE":" ","ALLEY":" ","HOUSE_NO":"１５３號","E_COORD97":169858.09,"N_COORD97":2551806.4199999999,"ADDRESS":"安和路五段１５３號","OBJECTID":230850},"geometry":{"x":169858.08999999985,"y":2551806.4200000018}},{"attributes":{"ID":230855,"DIS_CODE":0,"TOWNNAME":"永康區","LI":"復國里","LIN":"14鄰","STREET":"復國二路","SECT":" ","MAREA":" ","LANE":" ","ALLEY":" ","HOUSE_NO":"１８２號","E_COORD97":172934.23999999999,"N_COORD97":2545722.79,"ADDRESS":"復國二路１８２號","OBJECTID":230851},"geometry":{"x":172934.24000000022,"y":2545722.7899999991}},{"attributes":{"ID":230856,"DIS_CODE":0,"TOWNNAME":"永康區","LI":"埔園里","LIN":"14鄰","STREET":"中山路","SECT":" ","MAREA":" ","LANE":" ","ALLEY":" ","HOUSE_NO":"２４５號","E_COORD97":173654.98000000001,"N_COORD97":2548169.5,"ADDRESS":"中山路２４５號","OBJECTID":230852},"geometry":{"x":173654.98000000045,"y":2548169.5}},{"attributes":{"ID":230857,"DIS_CODE":0,"TOWNNAME":"永康區","LI":"復國里","LIN":"14鄰","STREET":"復國二路","SECT":" ","MAREA":" ","LANE":" ","ALLEY":" ","HOUSE_NO":"１３８號","E_COORD97":172907.92000000001,"N_COORD97":2545601.1699999999,"ADDRESS":"復國二路１３８號","OBJECTID":230853},"geometry":{"x":172907.92000000086,"y":2545601.1700000018}},{"attributes":{"ID":230858,"DIS_CODE":0,"TOWNNAME":"永康區","LI":"埔園里","LIN":"14鄰","STREET":"中山路","SECT":" ","MAREA":" ","LANE":" ","ALLEY":" ","HOUSE_NO":"２５９號","E_COORD97":173646.67999999999,"N_COORD97":2548204,"ADDRESS":"中山路２５９號","OBJECTID":230854},"geometry":{"x":173646.68000000156,"y":2548204}},{"attributes":{"ID":230859,"DIS_CODE":0,"TOWNNAME":"永康區","LI":"中華里","LIN":"14鄰","STREET":"忠義街","SECT":" ","MAREA":" ","LANE":" ","ALLEY":" ","HOUSE_NO":"３８號","E_COORD97":171729.34,"N_COORD97":2544437.5899999999,"ADDRESS":"忠義街３８號","OBJECTID":230855},"geometry":{"x":171729.33999999985,"y":2544437.5900000017}},{"attributes":{"ID":230860,"DIS_CODE":0,"TOWNNAME":"永康區","LI":"西勢里","LIN":"23鄰","STREET":"富強路","SECT":"一段","MAREA":" ","LANE":"１９４巷","ALLEY":" ","HOUSE_NO":"８０號","E_COORD97":175679.67000000001,"N_COORD97":2546184.9199999999,"ADDRESS":"富強路一段１９４巷８０號","OBJECTID":230856},"geometry":{"x":175679.67000000086,"y":2546184.9200000018}},{"attributes":{"ID":230861,"DIS_CODE":0,"TOWNNAME":"永康區","LI":"西勢里","LIN":"23鄰","STREET":"富強路","SECT":"一段","MAREA":" ","LANE":"１９４巷","ALLEY":" ","HOUSE_NO":"８２號","E_COORD97":175670.82000000001,"N_COORD97":2546178.3700000001,"ADDRESS":"富強路一段１９４巷８２號","OBJECTID":230857},"geometry":{"x":175670.82000000123,"y":2546178.370000001}},{"attributes":{"ID":230862,"DIS_CODE":0,"TOWNNAME":"東區","LI":"崇文里","LIN":"2鄰","STREET":"崇德十五街","SECT":" ","MAREA":" ","LANE":"９２巷","ALLEY":" ","HOUSE_NO":"２之１號","E_COORD97":171047.95000000001,"N_COORD97":2541161.5699999998,"ADDRESS":"崇德十五街９２巷２之１號","OBJECTID":230858},"geometry":{"x":171047.95000000019,"y":2541161.5700000003}},{"attributes":{"ID":230863,"DIS_CODE":0,"TOWNNAME":"東區","LI":"崇文里","LIN":"2鄰","STREET":"崇德十五街","SECT":" ","MAREA":" ","LANE":"９２巷","ALLEY":" ","HOUSE_NO":"２號","E_COORD97":171054.03,"N_COORD97":2541164.1499999999,"ADDRESS":"崇德十五街９２巷２號","OBJECTID":230859},"geometry":{"x":171054.03000000026,"y":2541164.1500000004}},{"attributes":{"ID":230864,"DIS_CODE":0,"TOWNNAME":"永康區","LI":"正強里","LIN":"2鄰","STREET":"中正路","SECT":" ","MAREA":" ","LANE":"１巷","ALLEY":" ","HOUSE_NO":"２９號之１","E_COORD97":173688.37,"N_COORD97":2547616.04,"ADDRESS":"中正路１巷２９號之１","OBJECTID":230860},"geometry":{"x":173688.37000000104,"y":2547616.0399999991}},{"attributes":{"ID":230865,"DIS_CODE":0,"TOWNNAME":"中西區","LI":"天后里","LIN":"13鄰","STREET":"赤嵌街","SECT":" ","MAREA":" ","LANE":"３巷","ALLEY":" ","HOUSE_NO":"１號","E_COORD97":168192.84,"N_COORD97":2544207.6200000001,"ADDRESS":"赤嵌街３巷１號","OBJECTID":230861},"geometry":{"x":168192.84000000078,"y":2544207.6200000048}},{"attributes":{"ID":230866,"DIS_CODE":0,"TOWNNAME":"中西區","LI":"天后里","LIN":"13鄰","STREET":"赤嵌街","SECT":" ","MAREA":" ","LANE":"１５巷","ALLEY":" ","HOUSE_NO":"５號","E_COORD97":168177.07999999999,"N_COORD97":2544252.7000000002,"ADDRESS":"赤嵌街１５巷５號","OBJECTID":230862},"geometry":{"x":168177.08000000007,"y":2544252.700000003}},{"attributes":{"ID":230867,"DIS_CODE":0,"TOWNNAME":"中西區","LI":"天后里","LIN":"13鄰","STREET":"赤嵌街","SECT":" ","MAREA":" ","LANE":"１５巷","ALLEY":" ","HOUSE_NO":"７號","E_COORD97":168173.29000000001,"N_COORD97":2544246.6200000001,"ADDRESS":"赤嵌街１５巷７號","OBJECTID":230863},"geometry":{"x":168173.29000000004,"y":2544246.620000001}},{"attributes":{"ID":230868,"DIS_CODE":0,"TOWNNAME":"中西區","LI":"天后里","LIN":"13鄰","STREET":"赤嵌街","SECT":" ","MAREA":" ","LANE":"１５巷","ALLEY":" ","HOUSE_NO":"７號之１","E_COORD97":168172.07000000001,"N_COORD97":2544239.73,"ADDRESS":"赤嵌街１５巷７號之１","OBJECTID":230864},"geometry":{"x":168172.0700000003,"y":2544239.7300000004}},{"attributes":{"ID":230869,"DIS_CODE":0,"TOWNNAME":"中西區","LI":"天后里","LIN":"13鄰","STREET":"赤嵌街","SECT":" ","MAREA":" ","LANE":"３巷","ALLEY":" ","HOUSE_NO":"１０號","E_COORD97":168190.87,"N_COORD97":2544225.7999999998,"ADDRESS":"赤嵌街３巷１０號","OBJECTID":230865},"geometry":{"x":168190.87000000104,"y":2544225.8000000007}},{"attributes":{"ID":230870,"DIS_CODE":0,"TOWNNAME":"中西區","LI":"天后里","LIN":"13鄰","STREET":"赤嵌街","SECT":" ","MAREA":" ","LANE":"３巷","ALLEY":" ","HOUSE_NO":"１２號","E_COORD97":168183.63,"N_COORD97":2544226.2400000002,"ADDRESS":"赤嵌街３巷１２號","OBJECTID":230866},"geometry":{"x":168183.63000000082,"y":2544226.2400000039}},{"attributes":{"ID":230871,"DIS_CODE":0,"TOWNNAME":"善化區","LI":"溪美里","LIN":"18鄰","STREET":" ","SECT":" ","MAREA":"溪尾","LANE":" ","ALLEY":" ","HOUSE_NO":"２１１號之１８","E_COORD97":177251.73999999999,"N_COORD97":2561295.52,"ADDRESS":"溪尾２１１號之１８","OBJECTID":230867},"geometry":{"x":177251.74000000022,"y":2561295.5200000014}},{"attributes":{"ID":230872,"DIS_CODE":0,"TOWNNAME":"善化區","LI":"溪美里","LIN":"18鄰","STREET":" ","SECT":" ","MAREA":"溪尾","LANE":" ","ALLEY":" ","HOUSE_NO":"２１１號之９","E_COORD97":177247.98000000001,"N_COORD97":2561332.77,"ADDRESS":"溪尾２１１號之９","OBJECTID":230868},"geometry":{"x":177247.98000000138,"y":2561332.7699999996}},{"attributes":{"ID":230873,"DIS_CODE":0,"TOWNNAME":"善化區","LI":"嘉南里","LIN":"13鄰","STREET":" ","SECT":" ","MAREA":"茄拔","LANE":" ","ALLEY":" ","HOUSE_NO":"３２１號","E_COORD97":180887.81,"N_COORD97":2559536.5099999998,"ADDRESS":"茄拔３２１號","OBJECTID":230869},"geometry":{"x":180887.81000000052,"y":2559536.5100000016}},{"attributes":{"ID":230874,"DIS_CODE":0,"TOWNNAME":"善化區","LI":"嘉南里","LIN":"1鄰","STREET":" ","SECT":" ","MAREA":"茄拔","LANE":" ","ALLEY":" ","HOUSE_NO":"６１號之２","E_COORD97":181083.59,"N_COORD97":2559377.02,"ADDRESS":"茄拔６１號之２","OBJECTID":230870},"geometry":{"x":181083.58999999985,"y":2559377.0199999996}},{"attributes":{"ID":230875,"DIS_CODE":0,"TOWNNAME":"善化區","LI":"嘉南里","LIN":"1鄰","STREET":" ","SECT":" ","MAREA":"茄拔","LANE":" ","ALLEY":" ","HOUSE_NO":"６０號之２７","E_COORD97":181326.78,"N_COORD97":2559460.52,"ADDRESS":"茄拔６０號之２７","OBJECTID":230871},"geometry":{"x":181326.78000000026,"y":2559460.5200000014}},{"attributes":{"ID":230876,"DIS_CODE":0,"TOWNNAME":"善化區","LI":"嘉南里","LIN":"12鄰","STREET":" ","SECT":" ","MAREA":"茄拔","LANE":" ","ALLEY":" ","HOUSE_NO":"３５０號之１０","E_COORD97":180592.73000000001,"N_COORD97":2559642.27,"ADDRESS":"茄拔３５０號之１０","OBJECTID":230872},"geometry":{"x":180592.73000000138,"y":2559642.2700000014}},{"attributes":{"ID":230877,"DIS_CODE":0,"TOWNNAME":"善化區","LI":"嘉南里","LIN":"12鄰","STREET":" ","SECT":" ","MAREA":"茄拔","LANE":" ","ALLEY":" ","HOUSE_NO":"３５５之１５號","E_COORD97":180687.84,"N_COORD97":2559599.77,"ADDRESS":"茄拔３５５之１５號","OBJECTID":230873},"geometry":{"x":180687.84000000078,"y":2559599.7699999996}},{"attributes":{"ID":230878,"DIS_CODE":0,"TOWNNAME":"善化區","LI":"嘉南里","LIN":"3鄰","STREET":" ","SECT":" ","MAREA":"茄拔","LANE":" ","ALLEY":" ","HOUSE_NO":"７６號之１１","E_COORD97":181022.14000000001,"N_COORD97":2559386.27,"ADDRESS":"茄拔７６號之１１","OBJECTID":230874},"geometry":{"x":181022.13999999966,"y":2559386.2699999996}},{"attributes":{"ID":230879,"DIS_CODE":0,"TOWNNAME":"永康區","LI":"三民里","LIN":"14鄰","STREET":"中正北路","SECT":" ","MAREA":" ","LANE":" ","ALLEY":" ","HOUSE_NO":"９５０號之７","E_COORD97":175634.84,"N_COORD97":2550645.29,"ADDRESS":"中正北路９５０號之７","OBJECTID":230875},"geometry":{"x":175634.84000000078,"y":2550645.2899999991}},{"attributes":{"ID":230880,"DIS_CODE":0,"TOWNNAME":"永康區","LI":"三合里","LIN":"14鄰","STREET":"南工街","SECT":" ","MAREA":" ","LANE":" ","ALLEY":" ","HOUSE_NO":"２１１號","E_COORD97":172022.20000000001,"N_COORD97":2545895.5,"ADDRESS":"南工街２１１號","OBJECTID":230876},"geometry":{"x":172022.20000000019,"y":2545895.4999999981}},{"attributes":{"ID":230881,"DIS_CODE":0,"TOWNNAME":"善化區","LI":"嘉南里","LIN":"4鄰","STREET":" ","SECT":" ","MAREA":"茄拔","LANE":" ","ALLEY":" ","HOUSE_NO":"８７號","E_COORD97":180984.23000000001,"N_COORD97":2559469.2599999998,"ADDRESS":"茄拔８７號","OBJECTID":230877},"geometry":{"x":180984.23000000138,"y":2559469.2600000016}},{"attributes":{"ID":230882,"DIS_CODE":0,"TOWNNAME":"永康區","LI":"五王里","LIN":"23鄰","STREET":"成功路","SECT":" ","MAREA":" ","LANE":"２４４巷","ALLEY":" ","HOUSE_NO":"３０號","E_COORD97":171391.28,"N_COORD97":2545837,"ADDRESS":"成功路２４４巷３０號","OBJECTID":230878},"geometry":{"x":171391.28000000026,"y":2545837}},{"attributes":{"ID":230883,"DIS_CODE":0,"TOWNNAME":"仁德區","LI":"保安里","LIN":"23鄰","STREET":"保學一街","SECT":" ","MAREA":" ","LANE":"１７巷","ALLEY":" ","HOUSE_NO":"７號","E_COORD97":171700.41,"N_COORD97":2535627.5,"ADDRESS":"保學一街１７巷７號","OBJECTID":230879},"geometry":{"x":171700.41000000015,"y":2535627.5000000019}},{"attributes":{"ID":230884,"DIS_CODE":0,"TOWNNAME":"永康區","LI":"五王里","LIN":"23鄰","STREET":"成功路","SECT":" ","MAREA":" ","LANE":"２４４巷","ALLEY":" ","HOUSE_NO":"３２號","E_COORD97":171393.01999999999,"N_COORD97":2545842.71,"ADDRESS":"成功路２４４巷３２號","OBJECTID":230880},"geometry":{"x":171393.02000000048,"y":2545842.7100000009}},{"attributes":{"ID":230885,"DIS_CODE":0,"TOWNNAME":"善化區","LI":"胡厝里","LIN":"27鄰","STREET":" ","SECT":" ","MAREA":"烏橋","LANE":" ","ALLEY":" ","HOUSE_NO":"４０號","E_COORD97":175338.23000000001,"N_COORD97":2558919.75,"ADDRESS":"烏橋４０號","OBJECTID":230881},"geometry":{"x":175338.23000000045,"y":2558919.7500000037}},{"attributes":{"ID":230886,"DIS_CODE":0,"TOWNNAME":"善化區","LI":"嘉南里","LIN":"1鄰","STREET":" ","SECT":" ","MAREA":"茄拔","LANE":" ","ALLEY":" ","HOUSE_NO":"６０號之１０","E_COORD97":181264.17999999999,"N_COORD97":2559478.02,"ADDRESS":"茄拔６０號之１０","OBJECTID":230882},"geometry":{"x":181264.1799999997,"y":2559478.0200000014}},{"attributes":{"ID":230887,"DIS_CODE":0,"TOWNNAME":"善化區","LI":"東昌里","LIN":"6鄰","STREET":" ","SECT":" ","MAREA":"東勢寮","LANE":" ","ALLEY":" ","HOUSE_NO":"６１號","E_COORD97":180542.79999999999,"N_COORD97":2561900.0099999998,"ADDRESS":"東勢寮６１號","OBJECTID":230883},"geometry":{"x":180542.79999999981,"y":2561900.0099999998}},{"attributes":{"ID":230888,"DIS_CODE":0,"TOWNNAME":"善化區","LI":"溪美里","LIN":"22鄰","STREET":" ","SECT":" ","MAREA":"溪尾","LANE":" ","ALLEY":" ","HOUSE_NO":"２００號","E_COORD97":176932.03,"N_COORD97":2561151.52,"ADDRESS":"溪尾２００號","OBJECTID":230884},"geometry":{"x":176932.03000000119,"y":2561151.5199999996}},{"attributes":{"ID":230889,"DIS_CODE":0,"TOWNNAME":"善化區","LI":"嘉北里","LIN":"4鄰","STREET":" ","SECT":" ","MAREA":"茄拔","LANE":" ","ALLEY":" ","HOUSE_NO":"３８號之１７","E_COORD97":181136.59,"N_COORD97":2559669.52,"ADDRESS":"茄拔３８號之１７","OBJECTID":230885},"geometry":{"x":181136.58999999892,"y":2559669.5199999996}},{"attributes":{"ID":230890,"DIS_CODE":0,"TOWNNAME":"善化區","LI":"嘉南里","LIN":"12鄰","STREET":" ","SECT":" ","MAREA":"茄拔","LANE":" ","ALLEY":" ","HOUSE_NO":"３６０號之８","E_COORD97":180621.06,"N_COORD97":2559513.52,"ADDRESS":"茄拔３６０號之８","OBJECTID":230886},"geometry":{"x":180621.05999999959,"y":2559513.5199999996}},{"attributes":{"ID":230891,"DIS_CODE":0,"TOWNNAME":"善化區","LI":"嘉南里","LIN":"12鄰","STREET":" ","SECT":" ","MAREA":"茄拔","LANE":" ","ALLEY":" ","HOUSE_NO":"３５５之１８號","E_COORD97":180673,"N_COORD97":2559609.52,"ADDRESS":"茄拔３５５之１８號","OBJECTID":230887},"geometry":{"x":180673.00000000186,"y":2559609.5200000014}},{"attributes":{"ID":230892,"DIS_CODE":0,"TOWNNAME":"中西區","LI":"天后里","LIN":"16鄰","STREET":"西門路","SECT":"二段","MAREA":" ","LANE":"３７２巷","ALLEY":" ","HOUSE_NO":"１２號","E_COORD97":168095.62,"N_COORD97":2544287.8399999999,"ADDRESS":"西門路二段３７２巷１２號","OBJECTID":230888},"geometry":{"x":168095.62000000197,"y":2544287.8400000017}},{"attributes":{"ID":230893,"DIS_CODE":0,"TOWNNAME":"中西區","LI":"天后里","LIN":"16鄰","STREET":"西門路","SECT":"二段","MAREA":" ","LANE":"３７２巷","ALLEY":" ","HOUSE_NO":"１４號","E_COORD97":168098.26000000001,"N_COORD97":2544285.8700000001,"ADDRESS":"西門路二段３７２巷１４號","OBJECTID":230889},"geometry":{"x":168098.26000000071,"y":2544285.870000001}},{"attributes":{"ID":230894,"DIS_CODE":0,"TOWNNAME":"善化區","LI":"嘉南里","LIN":"4鄰","STREET":" ","SECT":" ","MAREA":"茄拔","LANE":" ","ALLEY":" ","HOUSE_NO":"８３號","E_COORD97":181030.20999999999,"N_COORD97":2559473.0099999998,"ADDRESS":"茄拔８３號","OBJECTID":230890},"geometry":{"x":181030.20999999996,"y":2559473.0099999998}},{"attributes":{"ID":230895,"DIS_CODE":0,"TOWNNAME":"善化區","LI":"嘉南里","LIN":"4鄰","STREET":" ","SECT":" ","MAREA":"茄拔","LANE":" ","ALLEY":" ","HOUSE_NO":"８９之１號","E_COORD97":180969.39999999999,"N_COORD97":2559441.52,"ADDRESS":"茄拔８９之１號","OBJECTID":230891},"geometry":{"x":180969.4000000013,"y":2559441.5199999996}},{"attributes":{"ID":230896,"DIS_CODE":0,"TOWNNAME":"中西區","LI":"青年里","LIN":" ","STREET":"中山路","SECT":" ","MAREA":" ","LANE":"８巷","ALLEY":" ","HOUSE_NO":"１號","E_COORD97":168601.67999999999,"N_COORD97":2543710.5600000001,"ADDRESS":"中山路８巷１號","OBJECTID":230892},"geometry":{"x":168601.68000000156,"y":2543710.5600000024}},{"attributes":{"ID":230897,"DIS_CODE":0,"TOWNNAME":"仁德區","LI":"新田里","LIN":"5鄰","STREET":"勝利二街","SECT":" ","MAREA":" ","LANE":"２９巷","ALLEY":" ","HOUSE_NO":"１０號","E_COORD97":174914.10999999999,"N_COORD97":2539300.5099999998,"ADDRESS":"勝利二街２９巷１０號","OBJECTID":230893},"geometry":{"x":174914.1100000022,"y":2539300.5099999998}},{"attributes":{"ID":230898,"DIS_CODE":0,"TOWNNAME":"永康區","LI":"三合里","LIN":"14鄰","STREET":"南工街","SECT":" ","MAREA":" ","LANE":" ","ALLEY":" ","HOUSE_NO":"１９１號","E_COORD97":172019.25,"N_COORD97":2545853.7400000002,"ADDRESS":"南工街１９１號","OBJECTID":230894},"geometry":{"x":172019.25000000093,"y":2545853.7400000039}},{"attributes":{"ID":230899,"DIS_CODE":0,"TOWNNAME":"永康區","LI":"三合里","LIN":"14鄰","STREET":"南工街","SECT":" ","MAREA":" ","LANE":" ","ALLEY":" ","HOUSE_NO":"１９８號","E_COORD97":172038.82999999999,"N_COORD97":2545910.0099999998,"ADDRESS":"南工街１９８號","OBJECTID":230895},"geometry":{"x":172038.83000000194,"y":2545910.0100000016}},{"attributes":{"ID":230900,"DIS_CODE":0,"TOWNNAME":"永康區","LI":"三民里","LIN":"14鄰","STREET":"中正北路","SECT":" ","MAREA":" ","LANE":" ","ALLEY":" ","HOUSE_NO":"９５２號之３","E_COORD97":175664.84,"N_COORD97":2550671.5499999998,"ADDRESS":"中正北路９５２號之３","OBJECTID":230896},"geometry":{"x":175664.84000000078,"y":2550671.5500000007}},{"attributes":{"ID":230901,"DIS_CODE":0,"TOWNNAME":"永康區","LI":"西勢里","LIN":"23鄰","STREET":"富強路","SECT":"一段","MAREA":" ","LANE":"１９４巷","ALLEY":" ","HOUSE_NO":"３６號","E_COORD97":175677.47,"N_COORD97":2546273.0699999998,"ADDRESS":"富強路一段１９４巷３６號","OBJECTID":230897},"geometry":{"x":175677.47000000067,"y":2546273.0700000022}},{"attributes":{"ID":230902,"DIS_CODE":0,"TOWNNAME":"永康區","LI":"三合里","LIN":"23鄰","STREET":"南工街","SECT":" ","MAREA":" ","LANE":"３２３巷","ALLEY":" ","HOUSE_NO":"５號","E_COORD97":171791.57999999999,"N_COORD97":2546020.5,"ADDRESS":"南工街３２３巷５號","OBJECTID":230898},"geometry":{"x":171791.58000000101,"y":2546020.5}},{"attributes":{"ID":230903,"DIS_CODE":0,"TOWNNAME":"永康區","LI":"五王里","LIN":"23鄰","STREET":"成功路","SECT":" ","MAREA":" ","LANE":"２４４巷","ALLEY":" ","HOUSE_NO":"５５號","E_COORD97":171453.04000000001,"N_COORD97":2545897.77,"ADDRESS":"成功路２４４巷５５號","OBJECTID":230899},"geometry":{"x":171453.04000000097,"y":2545897.7700000014}},{"attributes":{"ID":230904,"DIS_CODE":0,"TOWNNAME":"永康區","LI":"東灣里","LIN":"23鄰","STREET":"大灣二街","SECT":" ","MAREA":" ","LANE":"３８巷","ALLEY":" ","HOUSE_NO":"２６號","E_COORD97":174930.23000000001,"N_COORD97":2544782.6000000001,"ADDRESS":"大灣二街３８巷２６號","OBJECTID":230900},"geometry":{"x":174930.23000000231,"y":2544782.6000000034}},{"attributes":{"ID":230905,"DIS_CODE":0,"TOWNNAME":"永康區","LI":"西勢里","LIN":"23鄰","STREET":"富強路","SECT":"一段","MAREA":" ","LANE":"１９４巷","ALLEY":" ","HOUSE_NO":"２８號","E_COORD97":175665.95999999999,"N_COORD97":2546283.8199999998,"ADDRESS":"富強路一段１９４巷２８號","OBJECTID":230901},"geometry":{"x":175665.96000000089,"y":2546283.820000004}},{"attributes":{"ID":230906,"DIS_CODE":0,"TOWNNAME":"永康區","LI":"勝利里","LIN":"23鄰","STREET":"中華一路","SECT":" ","MAREA":" ","LANE":"２０３巷","ALLEY":" ","HOUSE_NO":"３７號","E_COORD97":171448.87,"N_COORD97":2544861.5,"ADDRESS":"中華一路２０３巷３７號","OBJECTID":230902},"geometry":{"x":171448.87000000104,"y":2544861.4999999981}},{"attributes":{"ID":230907,"DIS_CODE":0,"TOWNNAME":"永康區","LI":"西灣里","LIN":"23鄰","STREET":"大勇路","SECT":" ","MAREA":" ","LANE":"６２巷","ALLEY":" ","HOUSE_NO":"２９號","E_COORD97":174295.59,"N_COORD97":2545428.5,"ADDRESS":"大勇路６２巷２９號","OBJECTID":230903},"geometry":{"x":174295.59000000078,"y":2545428.5000000019}},{"attributes":{"ID":230908,"DIS_CODE":0,"TOWNNAME":"善化區","LI":"胡厝里","LIN":"27鄰","STREET":" ","SECT":" ","MAREA":"烏橋","LANE":" ","ALLEY":" ","HOUSE_NO":"３６號","E_COORD97":175340.13,"N_COORD97":2558882,"ADDRESS":"烏橋３６號","OBJECTID":230904},"geometry":{"x":175340.12999999989,"y":2558882.0000000019}},{"attributes":{"ID":230909,"DIS_CODE":0,"TOWNNAME":"永康區","LI":"五王里","LIN":"23鄰","STREET":"成功路","SECT":" ","MAREA":" ","LANE":"２４４巷","ALLEY":" ","HOUSE_NO":"４０號","E_COORD97":171420.45999999999,"N_COORD97":2545864.2599999998,"ADDRESS":"成功路２４４巷４０號","OBJECTID":230905},"geometry":{"x":171420.45999999996,"y":2545864.2600000016}},{"attributes":{"ID":230910,"DIS_CODE":0,"TOWNNAME":"善化區","LI":"溪美里","LIN":"18鄰","STREET":" ","SECT":" ","MAREA":"溪尾","LANE":" ","ALLEY":" ","HOUSE_NO":"２１１號之１５","E_COORD97":177234.14000000001,"N_COORD97":2561316.02,"ADDRESS":"溪尾２１１號之１５","OBJECTID":230906},"geometry":{"x":177234.1400000006,"y":2561316.0200000014}},{"attributes":{"ID":230911,"DIS_CODE":0,"TOWNNAME":"永康區","LI":"永康里","LIN":"23鄰","STREET":"中山南路","SECT":" ","MAREA":" ","LANE":" ","ALLEY":" ","HOUSE_NO":"６１９號","E_COORD97":173569.66,"N_COORD97":2547228.9900000002,"ADDRESS":"中山南路６１９號","OBJECTID":230907},"geometry":{"x":173569.66000000108,"y":2547228.9900000021}},{"attributes":{"ID":230912,"DIS_CODE":0,"TOWNNAME":"善化區","LI":"嘉南里","LIN":"1鄰","STREET":" ","SECT":" ","MAREA":"茄拔","LANE":" ","ALLEY":" ","HOUSE_NO":"６０號之１４","E_COORD97":181261.70000000001,"N_COORD97":2559516.02,"ADDRESS":"茄拔６０號之１４","OBJECTID":230908},"geometry":{"x":181261.70000000205,"y":2559516.0199999996}},{"attributes":{"ID":230913,"DIS_CODE":0,"TOWNNAME":"南區","LI":"建南里","LIN":"2鄰","STREET":"永成路","SECT":"二段","MAREA":" ","LANE":"８８１巷","ALLEY":" ","HOUSE_NO":"５０號","E_COORD97":167327.38578700001,"N_COORD97":2540253.9481600001,"ADDRESS":"永成路二段８８１巷５０號","OBJECTID":230909},"geometry":{"x":167327.38578700088,"y":2540253.9481620025}},{"attributes":{"ID":230914,"DIS_CODE":0,"TOWNNAME":"善化區","LI":"溪美里","LIN":"6鄰","STREET":" ","SECT":" ","MAREA":"溪尾","LANE":" ","ALLEY":" ","HOUSE_NO":"５６號之６","E_COORD97":176866.59,"N_COORD97":2561195.02,"ADDRESS":"溪尾５６號之６","OBJECTID":230910},"geometry":{"x":176866.59000000171,"y":2561195.0199999996}},{"attributes":{"ID":230915,"DIS_CODE":0,"TOWNNAME":"永康區","LI":"尚頂里","LIN":"23鄰","STREET":"南台街","SECT":" ","MAREA":" ","LANE":" ","ALLEY":" ","HOUSE_NO":"３２號","E_COORD97":170412.82000000001,"N_COORD97":2546954.5,"ADDRESS":"南台街３２號","OBJECTID":230911},"geometry":{"x":170412.8200000003,"y":2546954.5000000019}},{"attributes":{"ID":230916,"DIS_CODE":0,"TOWNNAME":"永康區","LI":"尚頂里","LIN":"23鄰","STREET":"南台街","SECT":" ","MAREA":" ","LANE":" ","ALLEY":" ","HOUSE_NO":"２８號","E_COORD97":170427.29000000001,"N_COORD97":2546958.25,"ADDRESS":"南台街２８號","OBJECTID":230912},"geometry":{"x":170427.29000000097,"y":2546958.25}},{"attributes":{"ID":230917,"DIS_CODE":0,"TOWNNAME":"永康區","LI":"東灣里","LIN":"23鄰","STREET":"大灣一街","SECT":" ","MAREA":" ","LANE":" ","ALLEY":" ","HOUSE_NO":"２８１號","E_COORD97":175041.5,"N_COORD97":2544752.0899999999,"ADDRESS":"大灣一街２８１號","OBJECTID":230913},"geometry":{"x":175041.50000000186,"y":2544752.0899999999}},{"attributes":{"ID":230918,"DIS_CODE":0,"TOWNNAME":"永康區","LI":"尚頂里","LIN":"23鄰","STREET":"南台街","SECT":" ","MAREA":" ","LANE":" ","ALLEY":" ","HOUSE_NO":"３８號","E_COORD97":170395.89999999999,"N_COORD97":2546961.25,"ADDRESS":"南台街３８號","OBJECTID":230914},"geometry":{"x":170395.90000000037,"y":2546961.25}},{"attributes":{"ID":230919,"DIS_CODE":0,"TOWNNAME":"永康區","LI":"網寮里","LIN":"23鄰","STREET":"永吉路","SECT":" ","MAREA":" ","LANE":" ","ALLEY":" ","HOUSE_NO":"３７號","E_COORD97":174002.31,"N_COORD97":2546337.3700000001,"ADDRESS":"永吉路３７號","OBJECTID":230915},"geometry":{"x":174002.31000000052,"y":2546337.370000001}},{"attributes":{"ID":230920,"DIS_CODE":0,"TOWNNAME":"永康區","LI":"正強里","LIN":"23鄰","STREET":"自強路","SECT":" ","MAREA":" ","LANE":" ","ALLEY":" ","HOUSE_NO":"２８３號","E_COORD97":173346.07999999999,"N_COORD97":2547659,"ADDRESS":"自強路２８３號","OBJECTID":230916},"geometry":{"x":173346.08000000101,"y":2547659.0000000037}},{"attributes":{"ID":230921,"DIS_CODE":0,"TOWNNAME":"永康區","LI":"尚頂里","LIN":"23鄰","STREET":"南台街","SECT":" ","MAREA":" ","LANE":" ","ALLEY":" ","HOUSE_NO":"２１號","E_COORD97":170383.51999999999,"N_COORD97":2546946.4100000001,"ADDRESS":"南台街２１號","OBJECTID":230917},"geometry":{"x":170383.51999999955,"y":2546946.4100000001}},{"attributes":{"ID":230922,"DIS_CODE":0,"TOWNNAME":"永康區","LI":"東灣里","LIN":"23鄰","STREET":"大灣一街","SECT":" ","MAREA":" ","LANE":" ","ALLEY":" ","HOUSE_NO":"２９１號","E_COORD97":175062.16,"N_COORD97":2544776.04,"ADDRESS":"大灣一街２９１號","OBJECTID":230918},"geometry":{"x":175062.16000000015,"y":2544776.040000001}},{"attributes":{"ID":230923,"DIS_CODE":0,"TOWNNAME":"永康區","LI":"大灣里","LIN":"23鄰","STREET":"大灣路","SECT":" ","MAREA":" ","LANE":" ","ALLEY":" ","HOUSE_NO":"２３３號","E_COORD97":174939.41,"N_COORD97":2545251.25,"ADDRESS":"大灣路２３３號","OBJECTID":230919},"geometry":{"x":174939.41000000108,"y":2545251.2500000019}},{"attributes":{"ID":230924,"DIS_CODE":0,"TOWNNAME":"永康區","LI":"正強里","LIN":"23鄰","STREET":"自強路","SECT":" ","MAREA":" ","LANE":"２５５巷","ALLEY":" ","HOUSE_NO":"１４號","E_COORD97":173213.63,"N_COORD97":2547623.7400000002,"ADDRESS":"自強路２５５巷１４號","OBJECTID":230920},"geometry":{"x":173213.63000000082,"y":2547623.7400000021}},{"attributes":{"ID":230925,"DIS_CODE":0,"TOWNNAME":"永康區","LI":"南灣里","LIN":"23鄰","STREET":"大灣路","SECT":" ","MAREA":" ","LANE":"７６４巷","ALLEY":" ","HOUSE_NO":"７５號","E_COORD97":174216.10999999999,"N_COORD97":2544731.6699999999,"ADDRESS":"大灣路７６４巷７５號","OBJECTID":230921},"geometry":{"x":174216.11000000127,"y":2544731.6700000037}},{"attributes":{"ID":230926,"DIS_CODE":0,"TOWNNAME":"仁德區","LI":"後壁里","LIN":"25鄰","STREET":"德洋路","SECT":" ","MAREA":" ","LANE":"３０巷","ALLEY":" ","HOUSE_NO":"５號","E_COORD97":173158.29999999999,"N_COORD97":2539055.77,"ADDRESS":"德洋路３０巷５號","OBJECTID":230922},"geometry":{"x":173158.30000000075,"y":2539055.7700000014}},{"attributes":{"ID":230927,"DIS_CODE":0,"TOWNNAME":"仁德區","LI":"後壁里","LIN":"13鄰","STREET":"德善路","SECT":" ","MAREA":" ","LANE":"１３４巷","ALLEY":" ","HOUSE_NO":"１０號","E_COORD97":173539.45999999999,"N_COORD97":2538808.2599999998,"ADDRESS":"德善路１３４巷１０號","OBJECTID":230923},"geometry":{"x":173539.45999999996,"y":2538808.2600000016}},{"attributes":{"ID":230928,"DIS_CODE":0,"TOWNNAME":"仁德區","LI":"後壁里","LIN":"12鄰","STREET":"德南路","SECT":" ","MAREA":" ","LANE":"１８７巷","ALLEY":" ","HOUSE_NO":"３號","E_COORD97":173677.34,"N_COORD97":2538559.52,"ADDRESS":"德南路１８７巷３號","OBJECTID":230924},"geometry":{"x":173677.33999999985,"y":2538559.5200000014}},{"attributes":{"ID":230929,"DIS_CODE":0,"TOWNNAME":"仁德區","LI":"新田里","LIN":"14鄰","STREET":"北保路","SECT":" ","MAREA":" ","LANE":"１８０巷","ALLEY":" ","HOUSE_NO":"４號","E_COORD97":173484.98999999999,"N_COORD97":2539414.4900000002,"ADDRESS":"北保路１８０巷４號","OBJECTID":230925},"geometry":{"x":173484.99000000022,"y":2539414.4900000021}},{"attributes":{"ID":230930,"DIS_CODE":0,"TOWNNAME":"安南區","LI":"總頭里","LIN":"2鄰","STREET":"總安街","SECT":"二段","MAREA":" ","LANE":"３１５巷","ALLEY":" ","HOUSE_NO":"１３號","E_COORD97":168413.98000000001,"N_COORD97":2550429.8599999999,"ADDRESS":"總安街二段３１５巷１３號","OBJECTID":230926},"geometry":{"x":168413.98000000231,"y":2550429.8600000013}},{"attributes":{"ID":230931,"DIS_CODE":0,"TOWNNAME":"永康區","LI":"三合里","LIN":"14鄰","STREET":"南工街","SECT":" ","MAREA":" ","LANE":" ","ALLEY":" ","HOUSE_NO":"２２３號","E_COORD97":172023.48000000001,"N_COORD97":2545919.75,"ADDRESS":"南工街２２３號","OBJECTID":230927},"geometry":{"x":172023.48000000138,"y":2545919.75}},{"attributes":{"ID":230932,"DIS_CODE":0,"TOWNNAME":"永康區","LI":"三合里","LIN":"14鄰","STREET":"南工街","SECT":" ","MAREA":" ","LANE":" ","ALLEY":" ","HOUSE_NO":"２１５號","E_COORD97":172022.39999999999,"N_COORD97":2545904,"ADDRESS":"南工街２１５號","OBJECTID":230928},"geometry":{"x":172022.4000000013,"y":2545904.0000000019}},{"attributes":{"ID":230933,"DIS_CODE":0,"TOWNNAME":"永康區","LI":"崑山里","LIN":"1鄰","STREET":"大灣路","SECT":" ","MAREA":" ","LANE":" ","ALLEY":" ","HOUSE_NO":"７２７號","E_COORD97":173889.04999999999,"N_COORD97":2544456.8799999999,"ADDRESS":"大灣路７２７號","OBJECTID":230929},"geometry":{"x":173889.05000000075,"y":2544456.879999999}},{"attributes":{"ID":230934,"DIS_CODE":0,"TOWNNAME":"安南區","LI":"溪頂里","LIN":"23鄰","STREET":"泰安街","SECT":" ","MAREA":" ","LANE":"１６巷","ALLEY":" ","HOUSE_NO":"１８號","E_COORD97":168904.32999999999,"N_COORD97":2547537.1899999999,"ADDRESS":"泰安街１６巷１８號","OBJECTID":230930},"geometry":{"x":168904.33000000007,"y":2547537.1899999995}},{"attributes":{"ID":230935,"DIS_CODE":0,"TOWNNAME":"安南區","LI":"溪頂里","LIN":"23鄰","STREET":"泰安街","SECT":" ","MAREA":" ","LANE":"１６巷","ALLEY":" ","HOUSE_NO":"１１號","E_COORD97":168837.23000000001,"N_COORD97":2547565.04,"ADDRESS":"泰安街１６巷１１號","OBJECTID":230931},"geometry":{"x":168837.23000000045,"y":2547565.0399999991}},{"attributes":{"ID":230936,"DIS_CODE":0,"TOWNNAME":"安南區","LI":"溪頂里","LIN":"23鄰","STREET":"泰安街","SECT":" ","MAREA":" ","LANE":"１６巷","ALLEY":" ","HOUSE_NO":"１３號","E_COORD97":168841.12,"N_COORD97":2547565.04,"ADDRESS":"泰安街１６巷１３號","OBJECTID":230932},"geometry":{"x":168841.12000000011,"y":2547565.0399999991}},{"attributes":{"ID":230937,"DIS_CODE":0,"TOWNNAME":"安南區","LI":"溪頂里","LIN":"23鄰","STREET":"泰安街","SECT":" ","MAREA":" ","LANE":"１６巷","ALLEY":" ","HOUSE_NO":"１５號","E_COORD97":168895.5,"N_COORD97":2547560.46,"ADDRESS":"泰安街１６巷１５號","OBJECTID":230933},"geometry":{"x":168895.50000000093,"y":2547560.4600000009}},{"attributes":{"ID":230938,"DIS_CODE":0,"TOWNNAME":"安南區","LI":"溪頂里","LIN":"23鄰","STREET":"泰安街","SECT":" ","MAREA":" ","LANE":"１６巷","ALLEY":" ","HOUSE_NO":"１６號","E_COORD97":168898.20000000001,"N_COORD97":2547537.1699999999,"ADDRESS":"泰安街１６巷１６號","OBJECTID":230934},"geometry":{"x":168898.20000000019,"y":2547537.1699999999}},{"attributes":{"ID":230939,"DIS_CODE":0,"TOWNNAME":"安南區","LI":"溪頂里","LIN":"23鄰","STREET":"泰安街","SECT":" ","MAREA":" ","LANE":"１６巷","ALLEY":" ","HOUSE_NO":"１７號","E_COORD97":168901.60000000001,"N_COORD97":2547560.9100000001,"ADDRESS":"泰安街１６巷１７號","OBJECTID":230935},"geometry":{"x":168901.59999999963,"y":2547560.9099999983}},{"attributes":{"ID":230940,"DIS_CODE":0,"TOWNNAME":"安南區","LI":"溪頂里","LIN":"23鄰","STREET":"泰安街","SECT":" ","MAREA":" ","LANE":"１６巷","ALLEY":" ","HOUSE_NO":"１號","E_COORD97":168812.87,"N_COORD97":2547563.73,"ADDRESS":"泰安街１６巷１號","OBJECTID":230936},"geometry":{"x":168812.87000000104,"y":2547563.7300000023}},{"attributes":{"ID":230941,"DIS_CODE":0,"TOWNNAME":"安南區","LI":"溪頂里","LIN":"23鄰","STREET":"泰安街","SECT":" ","MAREA":" ","LANE":"１６巷","ALLEY":" ","HOUSE_NO":"２０號","E_COORD97":168916.66,"N_COORD97":2547536.7400000002,"ADDRESS":"泰安街１６巷２０號","OBJECTID":230937},"geometry":{"x":168916.66000000108,"y":2547536.7400000021}},{"attributes":{"ID":230942,"DIS_CODE":0,"TOWNNAME":"安南區","LI":"溪頂里","LIN":"23鄰","STREET":"泰安街","SECT":" ","MAREA":" ","LANE":"１６巷","ALLEY":" ","HOUSE_NO":"２１號","E_COORD97":168914.62,"N_COORD97":2547560.9900000002,"ADDRESS":"泰安街１６巷２１號","OBJECTID":230938},"geometry":{"x":168914.62000000104,"y":2547560.9900000021}},{"attributes":{"ID":230943,"DIS_CODE":0,"TOWNNAME":"安南區","LI":"溪頂里","LIN":"23鄰","STREET":"泰安街","SECT":" ","MAREA":" ","LANE":"１６巷","ALLEY":" ","HOUSE_NO":"２２號","E_COORD97":168921.70000000001,"N_COORD97":2547536.8900000001,"ADDRESS":"泰安街１６巷２２號","OBJECTID":230939},"geometry":{"x":168921.70000000019,"y":2547536.8900000006}},{"attributes":{"ID":230944,"DIS_CODE":0,"TOWNNAME":"仁德區","LI":"後壁里","LIN":"13鄰","STREET":"德善路","SECT":" ","MAREA":" ","LANE":"１０８巷","ALLEY":" ","HOUSE_NO":"２１號","E_COORD97":173501.84,"N_COORD97":2538769.77,"ADDRESS":"德善路１０８巷２１號","OBJECTID":230940},"geometry":{"x":173501.84000000078,"y":2538769.7699999996}},{"attributes":{"ID":230945,"DIS_CODE":0,"TOWNNAME":"永康區","LI":"三民里","LIN":"14鄰","STREET":"中正北路","SECT":" ","MAREA":" ","LANE":" ","ALLEY":" ","HOUSE_NO":"９５２號之８","E_COORD97":175679.92000000001,"N_COORD97":2550684.7999999998,"ADDRESS":"中正北路９５２號之８","OBJECTID":230941},"geometry":{"x":175679.92000000086,"y":2550684.8000000007}},{"attributes":{"ID":230946,"DIS_CODE":0,"TOWNNAME":"永康區","LI":"三合里","LIN":"14鄰","STREET":"南工街","SECT":" ","MAREA":" ","LANE":" ","ALLEY":" ","HOUSE_NO":"２０４號","E_COORD97":172039.63,"N_COORD97":2545922.5099999998,"ADDRESS":"南工街２０４號","OBJECTID":230942},"geometry":{"x":172039.62999999989,"y":2545922.5100000035}},{"attributes":{"ID":230947,"DIS_CODE":0,"TOWNNAME":"永康區","LI":"三合里","LIN":"14鄰","STREET":"南工街","SECT":" ","MAREA":" ","LANE":" ","ALLEY":" ","HOUSE_NO":"１９６號","E_COORD97":172038.32999999999,"N_COORD97":2545906.2599999998,"ADDRESS":"南工街１９６號","OBJECTID":230943},"geometry":{"x":172038.33000000007,"y":2545906.2599999998}},{"attributes":{"ID":230948,"DIS_CODE":0,"TOWNNAME":"永康區","LI":"三合里","LIN":"14鄰","STREET":"南工街","SECT":" ","MAREA":" ","LANE":" ","ALLEY":" ","HOUSE_NO":"１９５號","E_COORD97":172019.95000000001,"N_COORD97":2545861.7400000002,"ADDRESS":"南工街１９５號","OBJECTID":230944},"geometry":{"x":172019.95000000112,"y":2545861.7400000021}},{"attributes":{"ID":230949,"DIS_CODE":0,"TOWNNAME":"永康區","LI":"三民里","LIN":"14鄰","STREET":"中正北路","SECT":" ","MAREA":" ","LANE":" ","ALLEY":" ","HOUSE_NO":"９５２號之２","E_COORD97":175661.56,"N_COORD97":2550668.5499999998,"ADDRESS":"中正北路９５２號之２","OBJECTID":230945},"geometry":{"x":175661.56000000052,"y":2550668.5500000007}},{"attributes":{"ID":230950,"DIS_CODE":0,"TOWNNAME":"仁德區","LI":"成功里","LIN":"14鄰","STREET":"全福路","SECT":" ","MAREA":" ","LANE":" ","ALLEY":" ","HOUSE_NO":"２９號","E_COORD97":170905.07000000001,"N_COORD97":2539326.2400000002,"ADDRESS":"全福路２９號","OBJECTID":230946},"geometry":{"x":170905.07000000216,"y":2539326.2400000002}},{"attributes":{"ID":230951,"DIS_CODE":0,"TOWNNAME":"仁德區","LI":"成功里","LIN":"14鄰","STREET":"全福路","SECT":" ","MAREA":" ","LANE":" ","ALLEY":" ","HOUSE_NO":"４７號","E_COORD97":170943,"N_COORD97":2539322.9900000002,"ADDRESS":"全福路４７號","OBJECTID":230947},"geometry":{"x":170943.00000000093,"y":2539322.9900000021}},{"attributes":{"ID":230952,"DIS_CODE":0,"TOWNNAME":"仁德區","LI":"成功里","LIN":"14鄰","STREET":"全福路","SECT":" ","MAREA":" ","LANE":" ","ALLEY":" ","HOUSE_NO":"４４號","E_COORD97":170929.29000000001,"N_COORD97":2539306.5,"ADDRESS":"全福路４４號","OBJECTID":230948},"geometry":{"x":170929.29000000097,"y":2539306.5000000019}},{"attributes":{"ID":230953,"DIS_CODE":0,"TOWNNAME":"仁德區","LI":"成功里","LIN":"14鄰","STREET":"全福路","SECT":" ","MAREA":" ","LANE":" ","ALLEY":" ","HOUSE_NO":"３１號","E_COORD97":170909.37,"N_COORD97":2539325.9900000002,"ADDRESS":"全福路３１號","OBJECTID":230949},"geometry":{"x":170909.37000000011,"y":2539325.9900000021}},{"attributes":{"ID":230954,"DIS_CODE":0,"TOWNNAME":"東區","LI":"東明里","LIN":"14鄰","STREET":"怡東路","SECT":" ","MAREA":" ","LANE":" ","ALLEY":" ","HOUSE_NO":"７９號","E_COORD97":170839.89000000001,"N_COORD97":2543668,"ADDRESS":"怡東路７９號","OBJECTID":230950},"geometry":{"x":170839.8900000006,"y":2543667.9999999981}},{"attributes":{"ID":230955,"DIS_CODE":0,"TOWNNAME":"東區","LI":"東明里","LIN":"14鄰","STREET":"怡東路","SECT":" ","MAREA":" ","LANE":" ","ALLEY":" ","HOUSE_NO":"８７號","E_COORD97":170842.51999999999,"N_COORD97":2543684.96,"ADDRESS":"怡東路８７號","OBJECTID":230951},"geometry":{"x":170842.52000000048,"y":2543684.9600000009}},{"attributes":{"ID":230956,"DIS_CODE":0,"TOWNNAME":"安南區","LI":"溪頂里","LIN":"23鄰","STREET":"泰安街","SECT":" ","MAREA":" ","LANE":"１６巷","ALLEY":" ","HOUSE_NO":"９號","E_COORD97":168832.63,"N_COORD97":2547564.2400000002,"ADDRESS":"泰安街１６巷９號","OBJECTID":230952},"geometry":{"x":168832.62999999896,"y":2547564.2400000002}},{"attributes":{"ID":230957,"DIS_CODE":0,"TOWNNAME":"中西區","LI":"天后里","LIN":"23鄰","STREET":"赤嵌街","SECT":" ","MAREA":" ","LANE":"４５巷","ALLEY":" ","HOUSE_NO":"３號","E_COORD97":168215.98999999999,"N_COORD97":2544344.4100000001,"ADDRESS":"赤嵌街４５巷３號","OBJECTID":230953},"geometry":{"x":168215.99000000115,"y":2544344.410000002}},{"attributes":{"ID":230958,"DIS_CODE":0,"TOWNNAME":"中西區","LI":"天后里","LIN":"23鄰","STREET":"赤嵌街","SECT":" ","MAREA":" ","LANE":"４５巷","ALLEY":" ","HOUSE_NO":"５號","E_COORD97":168204.85999999999,"N_COORD97":2544360.9700000002,"ADDRESS":"赤嵌街４５巷５號","OBJECTID":230954},"geometry":{"x":168204.86000000127,"y":2544360.9700000044}},{"attributes":{"ID":230959,"DIS_CODE":0,"TOWNNAME":"中西區","LI":"天后里","LIN":"23鄰","STREET":"赤嵌街","SECT":" ","MAREA":" ","LANE":"４５巷","ALLEY":" ","HOUSE_NO":"６號","E_COORD97":168219.39000000001,"N_COORD97":2544349.77,"ADDRESS":"赤嵌街４５巷６號","OBJECTID":230955},"geometry":{"x":168219.3900000006,"y":2544349.7699999996}},{"attributes":{"ID":230960,"DIS_CODE":0,"TOWNNAME":"中西區","LI":"天后里","LIN":"23鄰","STREET":"赤嵌街","SECT":" ","MAREA":" ","LANE":"４５巷","ALLEY":" ","HOUSE_NO":"７號","E_COORD97":168206.87,"N_COORD97":2544364.3100000001,"ADDRESS":"赤嵌街４５巷７號","OBJECTID":230956},"geometry":{"x":168206.87000000011,"y":2544364.3100000005}},{"attributes":{"ID":230961,"DIS_CODE":0,"TOWNNAME":"善化區","LI":"胡家里","LIN":"13鄰","STREET":" ","SECT":" ","MAREA":"胡厝寮","LANE":" ","ALLEY":" ","HOUSE_NO":"６４之３號","E_COORD97":175376.67000000001,"N_COORD97":2560733.27,"ADDRESS":"胡厝寮６４之３號","OBJECTID":230957},"geometry":{"x":175376.67000000086,"y":2560733.2700000033}},{"attributes":{"ID":230962,"DIS_CODE":0,"TOWNNAME":"中西區","LI":"天后里","LIN":"23鄰","STREET":"赤嵌街","SECT":" ","MAREA":" ","LANE":"４５巷","ALLEY":" ","HOUSE_NO":"８號","E_COORD97":168220.98000000001,"N_COORD97":2544355.3300000001,"ADDRESS":"赤嵌街４５巷８號","OBJECTID":230958},"geometry":{"x":168220.98000000138,"y":2544355.3300000019}},{"attributes":{"ID":230963,"DIS_CODE":0,"TOWNNAME":"仁德區","LI":"後壁里","LIN":"15鄰","STREET":"德善路","SECT":" ","MAREA":" ","LANE":"１０８巷","ALLEY":" ","HOUSE_NO":"２之１號","E_COORD97":173443.34,"N_COORD97":2538819.54,"ADDRESS":"德善路１０８巷２之１號","OBJECTID":230959},"geometry":{"x":173443.33999999985,"y":2538819.540000001}},{"attributes":{"ID":230964,"DIS_CODE":0,"TOWNNAME":"仁德區","LI":"後壁里","LIN":"40鄰","STREET":"德善二街","SECT":" ","MAREA":" ","LANE":"１７巷","ALLEY":" ","HOUSE_NO":"１５號","E_COORD97":173508.16,"N_COORD97":2538937.5099999998,"ADDRESS":"德善二街１７巷１５號","OBJECTID":230960},"geometry":{"x":173508.16000000201,"y":2538937.5099999998}},{"attributes":{"ID":230965,"DIS_CODE":0,"TOWNNAME":"仁德區","LI":"後壁里","LIN":"28鄰","STREET":"德洋路","SECT":" ","MAREA":" ","LANE":"２５巷","ALLEY":" ","HOUSE_NO":"３３號","E_COORD97":173104.07000000001,"N_COORD97":2538935.2599999998,"ADDRESS":"德洋路２５巷３３號","OBJECTID":230961},"geometry":{"x":173104.07000000123,"y":2538935.2599999998}},{"attributes":{"ID":230966,"DIS_CODE":0,"TOWNNAME":"仁德區","LI":"太子里","LIN":"29鄰","STREET":"太子四街","SECT":" ","MAREA":" ","LANE":"２５巷","ALLEY":" ","HOUSE_NO":"１３號","E_COORD97":173139.31,"N_COORD97":2543095.7599999998,"ADDRESS":"太子四街２５巷１３號","OBJECTID":230962},"geometry":{"x":173139.31000000052,"y":2543095.7599999998}},{"attributes":{"ID":230967,"DIS_CODE":0,"TOWNNAME":"安南區","LI":"佃西里","LIN":"2鄰","STREET":"公學路","SECT":"四段","MAREA":" ","LANE":"１２６巷","ALLEY":" ","HOUSE_NO":"１２６號之１","E_COORD97":165284.19,"N_COORD97":2551959.8900000001,"ADDRESS":"公學路四段１２６巷１２６號之１","OBJECTID":230963},"geometry":{"x":165284.19000000041,"y":2551959.8900000025}},{"attributes":{"ID":230968,"DIS_CODE":0,"TOWNNAME":"中西區","LI":"萬昌里","LIN":"17鄰","STREET":"青年路","SECT":" ","MAREA":" ","LANE":"１３２巷","ALLEY":" ","HOUSE_NO":"２５號","E_COORD97":168930.37,"N_COORD97":2543522.4900000002,"ADDRESS":"青年路１３２巷２５號","OBJECTID":230964},"geometry":{"x":168930.37000000104,"y":2543522.4900000002}},{"attributes":{"ID":230969,"DIS_CODE":0,"TOWNNAME":"東區","LI":"東明里","LIN":"14鄰","STREET":"怡東路","SECT":" ","MAREA":" ","LANE":" ","ALLEY":" ","HOUSE_NO":"８９號","E_COORD97":170843.39999999999,"N_COORD97":2543689.3500000001,"ADDRESS":"怡東路８９號","OBJECTID":230965},"geometry":{"x":170843.40000000037,"y":2543689.3500000034}},{"attributes":{"ID":230970,"DIS_CODE":0,"TOWNNAME":"安南區","LI":"淵西里","LIN":"14鄰","STREET":"安中路","SECT":"四段","MAREA":" ","LANE":" ","ALLEY":" ","HOUSE_NO":"２９３號","E_COORD97":164516.32000000001,"N_COORD97":2550187.48,"ADDRESS":"安中路四段２９３號","OBJECTID":230966},"geometry":{"x":164516.32000000123,"y":2550187.4800000004}},{"attributes":{"ID":230971,"DIS_CODE":0,"TOWNNAME":"安南區","LI":"淵西里","LIN":"14鄰","STREET":"安中路","SECT":"四段","MAREA":" ","LANE":" ","ALLEY":" ","HOUSE_NO":"２９５號","E_COORD97":164511.48000000001,"N_COORD97":2550190.8599999999,"ADDRESS":"安中路四段２９５號","OBJECTID":230967},"geometry":{"x":164511.48000000045,"y":2550190.8599999994}},{"attributes":{"ID":230972,"DIS_CODE":0,"TOWNNAME":"安南區","LI":"淵西里","LIN":"14鄰","STREET":"安中路","SECT":"四段","MAREA":" ","LANE":" ","ALLEY":" ","HOUSE_NO":"３０９號","E_COORD97":164461.67999999999,"N_COORD97":2550216.1200000001,"ADDRESS":"安中路四段３０９號","OBJECTID":230968},"geometry":{"x":164461.6799999997,"y":2550216.1200000029}},{"attributes":{"ID":230973,"DIS_CODE":0,"TOWNNAME":"安南區","LI":"淵西里","LIN":"14鄰","STREET":"安中路","SECT":"四段","MAREA":" ","LANE":" ","ALLEY":" ","HOUSE_NO":"３１１號","E_COORD97":164457.73000000001,"N_COORD97":2550216.5299999998,"ADDRESS":"安中路四段３１１號","OBJECTID":230969},"geometry":{"x":164457.73000000138,"y":2550216.5299999993}},{"attributes":{"ID":230974,"DIS_CODE":0,"TOWNNAME":"安南區","LI":"佃西里","LIN":"2鄰","STREET":"公學路","SECT":"四段","MAREA":" ","LANE":"１２６巷","ALLEY":" ","HOUSE_NO":"１２６號之２","E_COORD97":165281.25,"N_COORD97":2551952.8999999999,"ADDRESS":"公學路四段１２６巷１２６號之２","OBJECTID":230970},"geometry":{"x":165281.25000000093,"y":2551952.9000000022}},{"attributes":{"ID":230975,"DIS_CODE":0,"TOWNNAME":"安南區","LI":"佃西里","LIN":"2鄰","STREET":"公學路","SECT":"四段","MAREA":" ","LANE":"１２６巷","ALLEY":" ","HOUSE_NO":"１２６號之３","E_COORD97":165275.73000000001,"N_COORD97":2551947.3900000001,"ADDRESS":"公學路四段１２６巷１２６號之３","OBJECTID":230971},"geometry":{"x":165275.73000000045,"y":2551947.3900000006}},{"attributes":{"ID":230976,"DIS_CODE":0,"TOWNNAME":"安南區","LI":"佃西里","LIN":"2鄰","STREET":"公學路","SECT":"四段","MAREA":" ","LANE":"１２６巷","ALLEY":" ","HOUSE_NO":"１２６號之５","E_COORD97":165270.20999999999,"N_COORD97":2551941.1400000001,"ADDRESS":"公學路四段１２６巷１２６號之５","OBJECTID":230972},"geometry":{"x":165270.20999999996,"y":2551941.1400000025}},{"attributes":{"ID":230977,"DIS_CODE":0,"TOWNNAME":"仁德區","LI":"新田里","LIN":"5鄰","STREET":"勝利二街","SECT":" ","MAREA":" ","LANE":"２９巷","ALLEY":" ","HOUSE_NO":"４號","E_COORD97":174891.07000000001,"N_COORD97":2539308.2599999998,"ADDRESS":"勝利二街２９巷４號","OBJECTID":230973},"geometry":{"x":174891.07000000123,"y":2539308.2599999998}},{"attributes":{"ID":230978,"DIS_CODE":0,"TOWNNAME":"仁德區","LI":"後壁里","LIN":"35鄰","STREET":"德洋二街","SECT":" ","MAREA":" ","LANE":"８巷","ALLEY":" ","HOUSE_NO":"２之１號","E_COORD97":172431.23000000001,"N_COORD97":2539404.5499999998,"ADDRESS":"德洋二街８巷２之１號","OBJECTID":230974},"geometry":{"x":172431.23000000045,"y":2539404.5500000026}},{"attributes":{"ID":230979,"DIS_CODE":0,"TOWNNAME":"善化區","LI":"東昌里","LIN":"11鄰","STREET":" ","SECT":" ","MAREA":"東勢寮","LANE":" ","ALLEY":" ","HOUSE_NO":"１０２號之２","E_COORD97":180107.64000000001,"N_COORD97":2561822.77,"ADDRESS":"東勢寮１０２號之２","OBJECTID":230975},"geometry":{"x":180107.6400000006,"y":2561822.7700000014}},{"attributes":{"ID":230980,"DIS_CODE":0,"TOWNNAME":"善化區","LI":"溪美里","LIN":"1鄰","STREET":" ","SECT":" ","MAREA":"溪尾","LANE":" ","ALLEY":" ","HOUSE_NO":"９７７之１號","E_COORD97":177158.23999999999,"N_COORD97":2560069.52,"ADDRESS":"溪尾９７７之１號","OBJECTID":230976},"geometry":{"x":177158.24000000115,"y":2560069.5199999996}},{"attributes":{"ID":230981,"DIS_CODE":0,"TOWNNAME":"善化區","LI":"胡厝里","LIN":"19鄰","STREET":" ","SECT":" ","MAREA":"西衛","LANE":" ","ALLEY":" ","HOUSE_NO":"２１號之２","E_COORD97":174383.07999999999,"N_COORD97":2559304.27,"ADDRESS":"西衛２１號之２","OBJECTID":230977},"geometry":{"x":174383.08000000007,"y":2559304.2699999996}},{"attributes":{"ID":230982,"DIS_CODE":0,"TOWNNAME":"善化區","LI":"胡家里","LIN":"9鄰","STREET":" ","SECT":" ","MAREA":"胡厝寮","LANE":" ","ALLEY":" ","HOUSE_NO":"８９之７號","E_COORD97":175385.72,"N_COORD97":2560528.77,"ADDRESS":"胡厝寮８９之７號","OBJECTID":230978},"geometry":{"x":175385.72000000067,"y":2560528.7699999996}},{"attributes":{"ID":230983,"DIS_CODE":0,"TOWNNAME":"仁德區","LI":"後壁里","LIN":"37鄰","STREET":"民安路","SECT":"一段","MAREA":" ","LANE":"３９２巷","ALLEY":" ","HOUSE_NO":"６號","E_COORD97":173133.44,"N_COORD97":2539339.5800000001,"ADDRESS":"民安路一段３９２巷６號","OBJECTID":230979},"geometry":{"x":173133.44000000041,"y":2539339.5800000019}},{"attributes":{"ID":230984,"DIS_CODE":0,"TOWNNAME":"仁德區","LI":"土庫里","LIN":"20鄰","STREET":"太子二街","SECT":" ","MAREA":" ","LANE":"１３８巷","ALLEY":" ","HOUSE_NO":"６號","E_COORD97":174462.57000000001,"N_COORD97":2543255,"ADDRESS":"太子二街１３８巷６號","OBJECTID":230980},"geometry":{"x":174462.5700000003,"y":2543255.0000000019}},{"attributes":{"ID":230985,"DIS_CODE":0,"TOWNNAME":"仁德區","LI":"後壁里","LIN":"25鄰","STREET":"德洋一街","SECT":" ","MAREA":" ","LANE":"１０巷","ALLEY":" ","HOUSE_NO":"６號","E_COORD97":173106.57000000001,"N_COORD97":2539097.27,"ADDRESS":"德洋一街１０巷６號","OBJECTID":230981},"geometry":{"x":173106.5700000003,"y":2539097.2700000014}},{"attributes":{"ID":230986,"DIS_CODE":0,"TOWNNAME":"仁德區","LI":"後壁里","LIN":"15鄰","STREET":"德南路","SECT":" ","MAREA":" ","LANE":"１３７巷","ALLEY":" ","HOUSE_NO":"６０號","E_COORD97":173613.13,"N_COORD97":2538662.02,"ADDRESS":"德南路１３７巷６０號","OBJECTID":230982},"geometry":{"x":173613.13000000175,"y":2538662.0199999996}},{"attributes":{"ID":230987,"DIS_CODE":0,"TOWNNAME":"仁德區","LI":"後壁里","LIN":"15鄰","STREET":"德南路","SECT":" ","MAREA":" ","LANE":"９５巷","ALLEY":" ","HOUSE_NO":"７號","E_COORD97":173490.89999999999,"N_COORD97":2538698.5099999998,"ADDRESS":"德南路９５巷７號","OBJECTID":230983},"geometry":{"x":173490.90000000037,"y":2538698.5100000016}},{"attributes":{"ID":230988,"DIS_CODE":0,"TOWNNAME":"仁德區","LI":"後壁里","LIN":"28鄰","STREET":"德洋路","SECT":" ","MAREA":" ","LANE":"４１巷","ALLEY":" ","HOUSE_NO":"３６號","E_COORD97":172845.42999999999,"N_COORD97":2539011.7599999998,"ADDRESS":"德洋路４１巷３６號","OBJECTID":230984},"geometry":{"x":172845.43000000063,"y":2539011.7600000016}},{"attributes":{"ID":230989,"DIS_CODE":0,"TOWNNAME":"仁德區","LI":"後壁里","LIN":"15鄰","STREET":"德南路","SECT":" ","MAREA":" ","LANE":"１３７巷","ALLEY":" ","HOUSE_NO":"７０號","E_COORD97":173627.92999999999,"N_COORD97":2538681.77,"ADDRESS":"德南路１３７巷７０號","OBJECTID":230985},"geometry":{"x":173627.93000000156,"y":2538681.7699999996}},{"attributes":{"ID":230990,"DIS_CODE":0,"TOWNNAME":"仁德區","LI":"新田里","LIN":"1鄰","STREET":"新田二街","SECT":" ","MAREA":" ","LANE":"１２０巷","ALLEY":" ","HOUSE_NO":"３８號","E_COORD97":174952,"N_COORD97":2539990,"ADDRESS":"新田二街１２０巷３８號","OBJECTID":230986},"geometry":{"x":174952.00000000093,"y":2539990.0000000019}},{"attributes":{"ID":230991,"DIS_CODE":0,"TOWNNAME":"仁德區","LI":"後壁里","LIN":"28鄰","STREET":"德洋路","SECT":" ","MAREA":" ","LANE":"３９巷","ALLEY":" ","HOUSE_NO":"９號","E_COORD97":173056.25,"N_COORD97":2538942.0099999998,"ADDRESS":"德洋路３９巷９號","OBJECTID":230987},"geometry":{"x":173056.25,"y":2538942.0100000035}},{"attributes":{"ID":230992,"DIS_CODE":0,"TOWNNAME":"仁德區","LI":"後壁里","LIN":"21鄰","STREET":"中正路","SECT":"二段","MAREA":" ","LANE":"９７巷","ALLEY":" ","HOUSE_NO":"５８號","E_COORD97":173109.29000000001,"N_COORD97":2538535.7799999998,"ADDRESS":"中正路二段９７巷５８號","OBJECTID":230988},"geometry":{"x":173109.29000000097,"y":2538535.7799999975}},{"attributes":{"ID":230993,"DIS_CODE":0,"TOWNNAME":"仁德區","LI":"後壁里","LIN":"28鄰","STREET":"德洋路","SECT":" ","MAREA":" ","LANE":"３９巷","ALLEY":" ","HOUSE_NO":"１１號","E_COORD97":173057.22,"N_COORD97":2538936.7599999998,"ADDRESS":"德洋路３９巷１１號","OBJECTID":230989},"geometry":{"x":173057.22000000067,"y":2538936.7600000035}},{"attributes":{"ID":230994,"DIS_CODE":0,"TOWNNAME":"東區","LI":"崇學里","LIN":"2鄰","STREET":"崇善路","SECT":" ","MAREA":" ","LANE":"１８２巷","ALLEY":" ","HOUSE_NO":"１１號","E_COORD97":170544.06,"N_COORD97":2542101.23,"ADDRESS":"崇善路１８２巷１１號","OBJECTID":230990},"geometry":{"x":170544.06000000052,"y":2542101.2300000023}},{"attributes":{"ID":230995,"DIS_CODE":0,"TOWNNAME":"東區","LI":"崇學里","LIN":"2鄰","STREET":"崇善路","SECT":" ","MAREA":" ","LANE":"１８２巷","ALLEY":" ","HOUSE_NO":"１３號","E_COORD97":170541.23000000001,"N_COORD97":2542097.9700000002,"ADDRESS":"崇善路１８２巷１３號","OBJECTID":230991},"geometry":{"x":170541.23000000045,"y":2542097.9700000007}},{"attributes":{"ID":230996,"DIS_CODE":0,"TOWNNAME":"東區","LI":"崇學里","LIN":"2鄰","STREET":"崇善路","SECT":" ","MAREA":" ","LANE":"１８２巷","ALLEY":" ","HOUSE_NO":"１５號","E_COORD97":170537.97,"N_COORD97":2542093.6299999999,"ADDRESS":"崇善路１８２巷１５號","OBJECTID":230992},"geometry":{"x":170537.97000000067,"y":2542093.6300000008}},{"attributes":{"ID":230997,"DIS_CODE":0,"TOWNNAME":"東區","LI":"崇學里","LIN":"2鄰","STREET":"崇善路","SECT":" ","MAREA":" ","LANE":"１８２巷","ALLEY":" ","HOUSE_NO":"１７號","E_COORD97":170535.57999999999,"N_COORD97":2542090.3700000001,"ADDRESS":"崇善路１８２巷１７號","OBJECTID":230993},"geometry":{"x":170535.58000000101,"y":2542090.3700000048}},{"attributes":{"ID":230998,"DIS_CODE":0,"TOWNNAME":"安南區","LI":"州北里","LIN":"2鄰","STREET":"安和路","SECT":"五段","MAREA":" ","LANE":"８１巷","ALLEY":" ","HOUSE_NO":"７６號","E_COORD97":169746.44,"N_COORD97":2551630.0800000001,"ADDRESS":"安和路五段８１巷７６號","OBJECTID":230994},"geometry":{"x":169746.44000000041,"y":2551630.0800000019}},{"attributes":{"ID":230999,"DIS_CODE":0,"TOWNNAME":"安南區","LI":"溪北里","LIN":"2鄰","STREET":"安和路","SECT":"一段","MAREA":" ","LANE":"９１巷","ALLEY":" ","HOUSE_NO":"７８號","E_COORD97":169241.66,"N_COORD97":2547508.46,"ADDRESS":"安和路一段９１巷７８號","OBJECTID":230995},"geometry":{"x":169241.66000000108,"y":2547508.4600000028}},{"attributes":{"ID":231000,"DIS_CODE":0,"TOWNNAME":"安南區","LI":"溪北里","LIN":"2鄰","STREET":"安和路","SECT":"一段","MAREA":" ","LANE":"９１巷","ALLEY":" ","HOUSE_NO":"８０號","E_COORD97":169235.03,"N_COORD97":2547506.6699999999,"ADDRESS":"安和路一段９１巷８０號","OBJECTID":230996},"geometry":{"x":169235.03000000026,"y":2547506.6699999999}},{"attributes":{"ID":231001,"DIS_CODE":0,"TOWNNAME":"安南區","LI":"溪北里","LIN":"2鄰","STREET":"安和路","SECT":"一段","MAREA":" ","LANE":"９１巷","ALLEY":" ","HOUSE_NO":"８２號","E_COORD97":169220.54000000001,"N_COORD97":2547501.5899999999,"ADDRESS":"安和路一段９１巷８２號","OBJECTID":230997},"geometry":{"x":169220.54000000097,"y":2547501.5899999999}},{"attributes":{"ID":231002,"DIS_CODE":0,"TOWNNAME":"北區","LI":"國姓里","LIN":"2鄰","STREET":"公園路","SECT":" ","MAREA":" ","LANE":"４３３巷","ALLEY":" ","HOUSE_NO":"１０號","E_COORD97":168955.92000000001,"N_COORD97":2545380.5600000001,"ADDRESS":"公園路４３３巷１０號","OBJECTID":230998},"geometry":{"x":168955.91999999993,"y":2545380.5600000042}},{"attributes":{"ID":231003,"DIS_CODE":0,"TOWNNAME":"新營區","LI":"護鎮里","LIN":"2鄰","STREET":"建國路","SECT":" ","MAREA":" ","LANE":"２４６巷","ALLEY":" ","HOUSE_NO":"６號","E_COORD97":179369.17000000001,"N_COORD97":2581066.3700000001,"ADDRESS":"建國路２４６巷６號","OBJECTID":230999},"geometry":{"x":179369.16999999993,"y":2581066.3700000048}},{"attributes":{"ID":231004,"DIS_CODE":0,"TOWNNAME":"六甲區","LI":"六甲里","LIN":"2鄰","STREET":"中華路","SECT":" ","MAREA":" ","LANE":"１０２巷","ALLEY":" ","HOUSE_NO":"１６號","E_COORD97":183236.57000000001,"N_COORD97":2569361.7200000002,"ADDRESS":"中華路１０２巷１６號","OBJECTID":231000},"geometry":{"x":183236.57000000123,"y":2569361.7200000007}}]}