{"displayFieldName":"TOWNNAME","fieldAliases":{"ID":"ID","DIS_CODE":"DIS_CODE","TOWNNAME":"TOWNNAME","LI":"LI","LIN":"LIN","STREET":"STREET","SECT":"SECT","MAREA":"MAREA","LANE":"LANE","ALLEY":"ALLEY","HOUSE_NO":"HOUSE_NO","E_COORD97":"E_COORD97","N_COORD97":"N_COORD97","ADDRESS":"ADDRESS","OBJECTID":"OBJECTID"},"geometryType":"esriGeometryPoint","spatialReference":{"wkid":102443,"latestWkid":3826},"fields":[{"name":"ID","type":"esriFieldTypeDouble","alias":"ID"},{"name":"DIS_CODE","type":"esriFieldTypeInteger","alias":"DIS_CODE"},{"name":"TOWNNAME","type":"esriFieldTypeString","alias":"TOWNNAME","length":8},{"name":"LI","type":"esriFieldTypeString","alias":"LI","length":8},{"name":"LIN","type":"esriFieldTypeString","alias":"LIN","length":12},{"name":"STREET","type":"esriFieldTypeString","alias":"STREET","length":20},{"name":"SECT","type":"esriFieldTypeString","alias":"SECT","length":8},{"name":"MAREA","type":"esriFieldTypeString","alias":"MAREA","length":12},{"name":"LANE","type":"esriFieldTypeString","alias":"LANE","length":10},{"name":"ALLEY","type":"esriFieldTypeString","alias":"ALLEY","length":10},{"name":"HOUSE_NO","type":"esriFieldTypeString","alias":"HOUSE_NO","length":20},{"name":"E_COORD97","type":"esriFieldTypeDouble","alias":"E_COORD97"},{"name":"N_COORD97","type":"esriFieldTypeDouble","alias":"N_COORD97"},{"name":"ADDRESS","type":"esriFieldTypeString","alias":"ADDRESS","length":50},{"name":"OBJECTID","type":"esriFieldTypeOID","alias":"OBJECTID"}],"features":[{"attributes":{"ID":374611,"DIS_CODE":0,"TOWNNAME":"歸仁區","LI":"辜厝里","LIN":"10鄰","STREET":"中正南路","SECT":"一段","MAREA":" ","LANE":"７６巷","ALLEY":" ","HOUSE_NO":"１９號八樓之１","E_COORD97":177517.48000000001,"N_COORD97":2540570.6000000001,"ADDRESS":"中正南路一段７６巷１９號八樓之１","OBJECTID":374601},"geometry":{"x":177517.48000000138,"y":2540570.5999999996}},{"attributes":{"ID":374612,"DIS_CODE":0,"TOWNNAME":"歸仁區","LI":"辜厝里","LIN":"10鄰","STREET":"中正南路","SECT":"一段","MAREA":" ","LANE":"７６巷","ALLEY":" ","HOUSE_NO":"１９號五樓之２","E_COORD97":177517.5,"N_COORD97":2540570.6000000001,"ADDRESS":"中正南路一段７６巷１９號五樓之２","OBJECTID":374602},"geometry":{"x":177517.5,"y":2540570.5999999996}},{"attributes":{"ID":374613,"DIS_CODE":0,"TOWNNAME":"北區","LI":"東興里","LIN":"10鄰","STREET":"小東路","SECT":" ","MAREA":" ","LANE":"４２３巷","ALLEY":" ","HOUSE_NO":"３號十樓之３","E_COORD97":171338.37,"N_COORD97":2544451.4199999999,"ADDRESS":"小東路４２３巷３號十樓之３","OBJECTID":374603},"geometry":{"x":171338.37000000011,"y":2544451.4199999999}},{"attributes":{"ID":374614,"DIS_CODE":0,"TOWNNAME":"北區","LI":"東興里","LIN":"10鄰","STREET":"小東路","SECT":" ","MAREA":" ","LANE":"４２３巷","ALLEY":" ","HOUSE_NO":"３號十樓之５","E_COORD97":171338.37,"N_COORD97":2544451.4199999999,"ADDRESS":"小東路４２３巷３號十樓之５","OBJECTID":374604},"geometry":{"x":171338.37000000011,"y":2544451.4199999999}},{"attributes":{"ID":374615,"DIS_CODE":0,"TOWNNAME":"北區","LI":"東興里","LIN":"10鄰","STREET":"小東路","SECT":" ","MAREA":" ","LANE":"４２３巷","ALLEY":" ","HOUSE_NO":"３號十一樓之１","E_COORD97":171338.37,"N_COORD97":2544451.4199999999,"ADDRESS":"小東路４２３巷３號十一樓之１","OBJECTID":374605},"geometry":{"x":171338.37000000011,"y":2544451.4199999999}},{"attributes":{"ID":374616,"DIS_CODE":0,"TOWNNAME":"北區","LI":"東興里","LIN":"10鄰","STREET":"小東路","SECT":" ","MAREA":" ","LANE":"４２３巷","ALLEY":" ","HOUSE_NO":"３號十一樓之２","E_COORD97":171338.37,"N_COORD97":2544451.4199999999,"ADDRESS":"小東路４２３巷３號十一樓之２","OBJECTID":374606},"geometry":{"x":171338.37000000011,"y":2544451.4199999999}},{"attributes":{"ID":374617,"DIS_CODE":0,"TOWNNAME":"北區","LI":"東興里","LIN":"10鄰","STREET":"小東路","SECT":" ","MAREA":" ","LANE":"４２３巷","ALLEY":" ","HOUSE_NO":"３號十一樓之３","E_COORD97":171338.37,"N_COORD97":2544451.4199999999,"ADDRESS":"小東路４２３巷３號十一樓之３","OBJECTID":374607},"geometry":{"x":171338.37000000011,"y":2544451.4199999999}},{"attributes":{"ID":374618,"DIS_CODE":0,"TOWNNAME":"北區","LI":"東興里","LIN":"10鄰","STREET":"小東路","SECT":" ","MAREA":" ","LANE":"４２３巷","ALLEY":" ","HOUSE_NO":"３號十一樓之５","E_COORD97":171338.37,"N_COORD97":2544451.4199999999,"ADDRESS":"小東路４２３巷３號十一樓之５","OBJECTID":374608},"geometry":{"x":171338.37000000011,"y":2544451.4199999999}},{"attributes":{"ID":374619,"DIS_CODE":0,"TOWNNAME":"北區","LI":"東興里","LIN":"10鄰","STREET":"小東路","SECT":" ","MAREA":" ","LANE":"４２３巷","ALLEY":" ","HOUSE_NO":"３號十二樓之１","E_COORD97":171338.37,"N_COORD97":2544451.4199999999,"ADDRESS":"小東路４２３巷３號十二樓之１","OBJECTID":374609},"geometry":{"x":171338.37000000011,"y":2544451.4199999999}},{"attributes":{"ID":374620,"DIS_CODE":0,"TOWNNAME":"北區","LI":"東興里","LIN":"10鄰","STREET":"小東路","SECT":" ","MAREA":" ","LANE":"４２３巷","ALLEY":" ","HOUSE_NO":"３號十二樓之２","E_COORD97":171338.37,"N_COORD97":2544451.4199999999,"ADDRESS":"小東路４２３巷３號十二樓之２","OBJECTID":374610},"geometry":{"x":171338.37000000011,"y":2544451.4199999999}},{"attributes":{"ID":374621,"DIS_CODE":0,"TOWNNAME":"北區","LI":"東興里","LIN":"10鄰","STREET":"小東路","SECT":" ","MAREA":" ","LANE":"４２３巷","ALLEY":" ","HOUSE_NO":"３號十二樓之３","E_COORD97":171338.37,"N_COORD97":2544451.4199999999,"ADDRESS":"小東路４２３巷３號十二樓之３","OBJECTID":374611},"geometry":{"x":171338.37000000011,"y":2544451.4199999999}},{"attributes":{"ID":374622,"DIS_CODE":0,"TOWNNAME":"北區","LI":"東興里","LIN":"10鄰","STREET":"小東路","SECT":" ","MAREA":" ","LANE":"４２３巷","ALLEY":" ","HOUSE_NO":"３號十二樓之５","E_COORD97":171338.37,"N_COORD97":2544451.4199999999,"ADDRESS":"小東路４２３巷３號十二樓之５","OBJECTID":374612},"geometry":{"x":171338.37000000011,"y":2544451.4199999999}},{"attributes":{"ID":374623,"DIS_CODE":0,"TOWNNAME":"北區","LI":"東興里","LIN":"10鄰","STREET":"小東路","SECT":" ","MAREA":" ","LANE":"４２３巷","ALLEY":" ","HOUSE_NO":"３號二樓之１","E_COORD97":171338.37,"N_COORD97":2544451.4199999999,"ADDRESS":"小東路４２３巷３號二樓之１","OBJECTID":374613},"geometry":{"x":171338.37000000011,"y":2544451.4199999999}},{"attributes":{"ID":374624,"DIS_CODE":0,"TOWNNAME":"北區","LI":"東興里","LIN":"10鄰","STREET":"小東路","SECT":" ","MAREA":" ","LANE":"４２３巷","ALLEY":" ","HOUSE_NO":"３號二樓之２","E_COORD97":171338.37,"N_COORD97":2544451.4199999999,"ADDRESS":"小東路４２３巷３號二樓之２","OBJECTID":374614},"geometry":{"x":171338.37000000011,"y":2544451.4199999999}},{"attributes":{"ID":374625,"DIS_CODE":0,"TOWNNAME":"北區","LI":"東興里","LIN":"10鄰","STREET":"小東路","SECT":" ","MAREA":" ","LANE":"４２３巷","ALLEY":" ","HOUSE_NO":"３號二樓之３","E_COORD97":171338.37,"N_COORD97":2544451.4199999999,"ADDRESS":"小東路４２３巷３號二樓之３","OBJECTID":374615},"geometry":{"x":171338.37000000011,"y":2544451.4199999999}},{"attributes":{"ID":374626,"DIS_CODE":0,"TOWNNAME":"北區","LI":"東興里","LIN":"10鄰","STREET":"小東路","SECT":" ","MAREA":" ","LANE":"４２３巷","ALLEY":" ","HOUSE_NO":"３號二樓之５","E_COORD97":171338.37,"N_COORD97":2544451.4199999999,"ADDRESS":"小東路４２３巷３號二樓之５","OBJECTID":374616},"geometry":{"x":171338.37000000011,"y":2544451.4199999999}},{"attributes":{"ID":374627,"DIS_CODE":0,"TOWNNAME":"北區","LI":"東興里","LIN":"10鄰","STREET":"小東路","SECT":" ","MAREA":" ","LANE":"４２３巷","ALLEY":" ","HOUSE_NO":"３號三樓之１","E_COORD97":171338.37,"N_COORD97":2544451.4199999999,"ADDRESS":"小東路４２３巷３號三樓之１","OBJECTID":374617},"geometry":{"x":171338.37000000011,"y":2544451.4199999999}},{"attributes":{"ID":374628,"DIS_CODE":0,"TOWNNAME":"北區","LI":"東興里","LIN":"10鄰","STREET":"小東路","SECT":" ","MAREA":" ","LANE":"４２３巷","ALLEY":" ","HOUSE_NO":"３號三樓之２","E_COORD97":171338.37,"N_COORD97":2544451.4199999999,"ADDRESS":"小東路４２３巷３號三樓之２","OBJECTID":374618},"geometry":{"x":171338.37000000011,"y":2544451.4199999999}},{"attributes":{"ID":374629,"DIS_CODE":0,"TOWNNAME":"北區","LI":"東興里","LIN":"10鄰","STREET":"小東路","SECT":" ","MAREA":" ","LANE":"４２３巷","ALLEY":" ","HOUSE_NO":"３號三樓之３","E_COORD97":171338.37,"N_COORD97":2544451.4199999999,"ADDRESS":"小東路４２３巷３號三樓之３","OBJECTID":374619},"geometry":{"x":171338.37000000011,"y":2544451.4199999999}},{"attributes":{"ID":374630,"DIS_CODE":0,"TOWNNAME":"北區","LI":"東興里","LIN":"10鄰","STREET":"小東路","SECT":" ","MAREA":" ","LANE":"４２３巷","ALLEY":" ","HOUSE_NO":"３號四樓之１","E_COORD97":171338.37,"N_COORD97":2544451.4199999999,"ADDRESS":"小東路４２３巷３號四樓之１","OBJECTID":374620},"geometry":{"x":171338.37000000011,"y":2544451.4199999999}},{"attributes":{"ID":374631,"DIS_CODE":0,"TOWNNAME":"北區","LI":"東興里","LIN":"10鄰","STREET":"小東路","SECT":" ","MAREA":" ","LANE":"４２３巷","ALLEY":" ","HOUSE_NO":"３號四樓之２","E_COORD97":171338.37,"N_COORD97":2544451.4199999999,"ADDRESS":"小東路４２３巷３號四樓之２","OBJECTID":374621},"geometry":{"x":171338.37000000011,"y":2544451.4199999999}},{"attributes":{"ID":374632,"DIS_CODE":0,"TOWNNAME":"北區","LI":"東興里","LIN":"10鄰","STREET":"小東路","SECT":" ","MAREA":" ","LANE":"４２３巷","ALLEY":" ","HOUSE_NO":"３號四樓之３","E_COORD97":171338.37,"N_COORD97":2544451.4199999999,"ADDRESS":"小東路４２３巷３號四樓之３","OBJECTID":374622},"geometry":{"x":171338.37000000011,"y":2544451.4199999999}},{"attributes":{"ID":374633,"DIS_CODE":0,"TOWNNAME":"北區","LI":"東興里","LIN":"10鄰","STREET":"小東路","SECT":" ","MAREA":" ","LANE":"４２３巷","ALLEY":" ","HOUSE_NO":"３號四樓之５","E_COORD97":171338.37,"N_COORD97":2544451.4199999999,"ADDRESS":"小東路４２３巷３號四樓之５","OBJECTID":374623},"geometry":{"x":171338.37000000011,"y":2544451.4199999999}},{"attributes":{"ID":374634,"DIS_CODE":0,"TOWNNAME":"北區","LI":"東興里","LIN":"10鄰","STREET":"小東路","SECT":" ","MAREA":" ","LANE":"４２３巷","ALLEY":" ","HOUSE_NO":"３號五樓之１","E_COORD97":171338.37,"N_COORD97":2544451.4199999999,"ADDRESS":"小東路４２３巷３號五樓之１","OBJECTID":374624},"geometry":{"x":171338.37000000011,"y":2544451.4199999999}},{"attributes":{"ID":374635,"DIS_CODE":0,"TOWNNAME":"北區","LI":"東興里","LIN":"10鄰","STREET":"小東路","SECT":" ","MAREA":" ","LANE":"４２３巷","ALLEY":" ","HOUSE_NO":"３號五樓之２","E_COORD97":171338.37,"N_COORD97":2544451.4199999999,"ADDRESS":"小東路４２３巷３號五樓之２","OBJECTID":374625},"geometry":{"x":171338.37000000011,"y":2544451.4199999999}},{"attributes":{"ID":374636,"DIS_CODE":0,"TOWNNAME":"北區","LI":"東興里","LIN":"10鄰","STREET":"小東路","SECT":" ","MAREA":" ","LANE":"４２３巷","ALLEY":" ","HOUSE_NO":"３號五樓之３","E_COORD97":171338.37,"N_COORD97":2544451.4199999999,"ADDRESS":"小東路４２３巷３號五樓之３","OBJECTID":374626},"geometry":{"x":171338.37000000011,"y":2544451.4199999999}},{"attributes":{"ID":374637,"DIS_CODE":0,"TOWNNAME":"北區","LI":"東興里","LIN":"10鄰","STREET":"小東路","SECT":" ","MAREA":" ","LANE":"４２３巷","ALLEY":" ","HOUSE_NO":"３號五樓之５","E_COORD97":171338.37,"N_COORD97":2544451.4199999999,"ADDRESS":"小東路４２３巷３號五樓之５","OBJECTID":374627},"geometry":{"x":171338.37000000011,"y":2544451.4199999999}},{"attributes":{"ID":374638,"DIS_CODE":0,"TOWNNAME":"北區","LI":"東興里","LIN":"10鄰","STREET":"小東路","SECT":" ","MAREA":" ","LANE":"４２３巷","ALLEY":" ","HOUSE_NO":"３號六樓之１","E_COORD97":171338.37,"N_COORD97":2544451.4199999999,"ADDRESS":"小東路４２３巷３號六樓之１","OBJECTID":374628},"geometry":{"x":171338.37000000011,"y":2544451.4199999999}},{"attributes":{"ID":374639,"DIS_CODE":0,"TOWNNAME":"北區","LI":"東興里","LIN":"10鄰","STREET":"小東路","SECT":" ","MAREA":" ","LANE":"４２３巷","ALLEY":" ","HOUSE_NO":"３號六樓之２","E_COORD97":171338.37,"N_COORD97":2544451.4199999999,"ADDRESS":"小東路４２３巷３號六樓之２","OBJECTID":374629},"geometry":{"x":171338.37000000011,"y":2544451.4199999999}},{"attributes":{"ID":374640,"DIS_CODE":0,"TOWNNAME":"北區","LI":"東興里","LIN":"10鄰","STREET":"小東路","SECT":" ","MAREA":" ","LANE":"４２３巷","ALLEY":" ","HOUSE_NO":"３號六樓之５","E_COORD97":171338.37,"N_COORD97":2544451.4199999999,"ADDRESS":"小東路４２３巷３號六樓之５","OBJECTID":374630},"geometry":{"x":171338.37000000011,"y":2544451.4199999999}},{"attributes":{"ID":374641,"DIS_CODE":0,"TOWNNAME":"北區","LI":"東興里","LIN":"10鄰","STREET":"小東路","SECT":" ","MAREA":" ","LANE":"４２３巷","ALLEY":" ","HOUSE_NO":"３號七樓之１","E_COORD97":171338.37,"N_COORD97":2544451.4199999999,"ADDRESS":"小東路４２３巷３號七樓之１","OBJECTID":374631},"geometry":{"x":171338.37000000011,"y":2544451.4199999999}},{"attributes":{"ID":374642,"DIS_CODE":0,"TOWNNAME":"北區","LI":"東興里","LIN":"10鄰","STREET":"小東路","SECT":" ","MAREA":" ","LANE":"４２３巷","ALLEY":" ","HOUSE_NO":"３號七樓之２","E_COORD97":171338.37,"N_COORD97":2544451.4199999999,"ADDRESS":"小東路４２３巷３號七樓之２","OBJECTID":374632},"geometry":{"x":171338.37000000011,"y":2544451.4199999999}},{"attributes":{"ID":374643,"DIS_CODE":0,"TOWNNAME":"北區","LI":"東興里","LIN":"10鄰","STREET":"小東路","SECT":" ","MAREA":" ","LANE":"４２３巷","ALLEY":" ","HOUSE_NO":"３號七樓之３","E_COORD97":171338.37,"N_COORD97":2544451.4199999999,"ADDRESS":"小東路４２３巷３號七樓之３","OBJECTID":374633},"geometry":{"x":171338.37000000011,"y":2544451.4199999999}},{"attributes":{"ID":374644,"DIS_CODE":0,"TOWNNAME":"北區","LI":"東興里","LIN":"10鄰","STREET":"小東路","SECT":" ","MAREA":" ","LANE":"４２３巷","ALLEY":" ","HOUSE_NO":"３號七樓之５","E_COORD97":171338.37,"N_COORD97":2544451.4199999999,"ADDRESS":"小東路４２３巷３號七樓之５","OBJECTID":374634},"geometry":{"x":171338.37000000011,"y":2544451.4199999999}},{"attributes":{"ID":374645,"DIS_CODE":0,"TOWNNAME":"北區","LI":"東興里","LIN":"10鄰","STREET":"小東路","SECT":" ","MAREA":" ","LANE":"４２３巷","ALLEY":" ","HOUSE_NO":"３號八樓之１","E_COORD97":171338.37,"N_COORD97":2544451.4199999999,"ADDRESS":"小東路４２３巷３號八樓之１","OBJECTID":374635},"geometry":{"x":171338.37000000011,"y":2544451.4199999999}},{"attributes":{"ID":374646,"DIS_CODE":0,"TOWNNAME":"北區","LI":"東興里","LIN":"10鄰","STREET":"小東路","SECT":" ","MAREA":" ","LANE":"４２３巷","ALLEY":" ","HOUSE_NO":"３號八樓之２","E_COORD97":171338.37,"N_COORD97":2544451.4199999999,"ADDRESS":"小東路４２３巷３號八樓之２","OBJECTID":374636},"geometry":{"x":171338.37000000011,"y":2544451.4199999999}},{"attributes":{"ID":374647,"DIS_CODE":0,"TOWNNAME":"北區","LI":"東興里","LIN":"10鄰","STREET":"小東路","SECT":" ","MAREA":" ","LANE":"４２３巷","ALLEY":" ","HOUSE_NO":"３號八樓之３","E_COORD97":171338.37,"N_COORD97":2544451.4199999999,"ADDRESS":"小東路４２３巷３號八樓之３","OBJECTID":374637},"geometry":{"x":171338.37000000011,"y":2544451.4199999999}},{"attributes":{"ID":374648,"DIS_CODE":0,"TOWNNAME":"北區","LI":"東興里","LIN":"10鄰","STREET":"小東路","SECT":" ","MAREA":" ","LANE":"４２３巷","ALLEY":" ","HOUSE_NO":"３號八樓之５","E_COORD97":171338.37,"N_COORD97":2544451.4199999999,"ADDRESS":"小東路４２３巷３號八樓之５","OBJECTID":374638},"geometry":{"x":171338.37000000011,"y":2544451.4199999999}},{"attributes":{"ID":374649,"DIS_CODE":0,"TOWNNAME":"北區","LI":"東興里","LIN":"10鄰","STREET":"小東路","SECT":" ","MAREA":" ","LANE":"４２３巷","ALLEY":" ","HOUSE_NO":"３號九樓之１","E_COORD97":171338.37,"N_COORD97":2544451.4199999999,"ADDRESS":"小東路４２３巷３號九樓之１","OBJECTID":374639},"geometry":{"x":171338.37000000011,"y":2544451.4199999999}},{"attributes":{"ID":374650,"DIS_CODE":0,"TOWNNAME":"北區","LI":"東興里","LIN":"10鄰","STREET":"小東路","SECT":" ","MAREA":" ","LANE":"４２３巷","ALLEY":" ","HOUSE_NO":"３號九樓之２","E_COORD97":171338.37,"N_COORD97":2544451.4199999999,"ADDRESS":"小東路４２３巷３號九樓之２","OBJECTID":374640},"geometry":{"x":171338.37000000011,"y":2544451.4199999999}},{"attributes":{"ID":374651,"DIS_CODE":0,"TOWNNAME":"北區","LI":"東興里","LIN":"10鄰","STREET":"小東路","SECT":" ","MAREA":" ","LANE":"４２３巷","ALLEY":" ","HOUSE_NO":"３號九樓之３","E_COORD97":171338.37,"N_COORD97":2544451.4199999999,"ADDRESS":"小東路４２３巷３號九樓之３","OBJECTID":374641},"geometry":{"x":171338.37000000011,"y":2544451.4199999999}},{"attributes":{"ID":374652,"DIS_CODE":0,"TOWNNAME":"北區","LI":"東興里","LIN":"10鄰","STREET":"小東路","SECT":" ","MAREA":" ","LANE":"４２３巷","ALLEY":" ","HOUSE_NO":"３號九樓之５","E_COORD97":171338.37,"N_COORD97":2544451.4199999999,"ADDRESS":"小東路４２３巷３號九樓之５","OBJECTID":374642},"geometry":{"x":171338.37000000011,"y":2544451.4199999999}},{"attributes":{"ID":374653,"DIS_CODE":0,"TOWNNAME":"北區","LI":"東興里","LIN":"10鄰","STREET":"小東路","SECT":" ","MAREA":" ","LANE":"４２３巷","ALLEY":" ","HOUSE_NO":"３號十樓之１","E_COORD97":171338.37,"N_COORD97":2544451.4199999999,"ADDRESS":"小東路４２３巷３號十樓之１","OBJECTID":374643},"geometry":{"x":171338.37000000011,"y":2544451.4199999999}},{"attributes":{"ID":374654,"DIS_CODE":0,"TOWNNAME":"北區","LI":"東興里","LIN":"10鄰","STREET":"小東路","SECT":" ","MAREA":" ","LANE":"４２３巷","ALLEY":" ","HOUSE_NO":"３號十樓之２","E_COORD97":171338.37,"N_COORD97":2544451.4199999999,"ADDRESS":"小東路４２３巷３號十樓之２","OBJECTID":374644},"geometry":{"x":171338.37000000011,"y":2544451.4199999999}},{"attributes":{"ID":374655,"DIS_CODE":0,"TOWNNAME":"北區","LI":"東興里","LIN":"10鄰","STREET":"小東路","SECT":" ","MAREA":" ","LANE":"４２３巷","ALLEY":" ","HOUSE_NO":"１號二樓之１","E_COORD97":171337.60999999999,"N_COORD97":2544404.3100000001,"ADDRESS":"小東路４２３巷１號二樓之１","OBJECTID":374645},"geometry":{"x":171337.61000000127,"y":2544404.3100000005}},{"attributes":{"ID":374656,"DIS_CODE":0,"TOWNNAME":"北區","LI":"東興里","LIN":"10鄰","STREET":"小東路","SECT":" ","MAREA":" ","LANE":"４２３巷","ALLEY":" ","HOUSE_NO":"１號二樓之２","E_COORD97":171337.60999999999,"N_COORD97":2544404.3100000001,"ADDRESS":"小東路４２３巷１號二樓之２","OBJECTID":374646},"geometry":{"x":171337.61000000127,"y":2544404.3100000005}},{"attributes":{"ID":374657,"DIS_CODE":0,"TOWNNAME":"北區","LI":"東興里","LIN":"10鄰","STREET":"小東路","SECT":" ","MAREA":" ","LANE":"４２３巷","ALLEY":" ","HOUSE_NO":"１號二樓之３","E_COORD97":171337.60999999999,"N_COORD97":2544404.3100000001,"ADDRESS":"小東路４２３巷１號二樓之３","OBJECTID":374647},"geometry":{"x":171337.61000000127,"y":2544404.3100000005}},{"attributes":{"ID":374658,"DIS_CODE":0,"TOWNNAME":"北區","LI":"東興里","LIN":"10鄰","STREET":"小東路","SECT":" ","MAREA":" ","LANE":"４２３巷","ALLEY":" ","HOUSE_NO":"１號二樓之５","E_COORD97":171337.60999999999,"N_COORD97":2544404.3100000001,"ADDRESS":"小東路４２３巷１號二樓之５","OBJECTID":374648},"geometry":{"x":171337.61000000127,"y":2544404.3100000005}},{"attributes":{"ID":374659,"DIS_CODE":0,"TOWNNAME":"北區","LI":"東興里","LIN":"10鄰","STREET":"小東路","SECT":" ","MAREA":" ","LANE":"４２３巷","ALLEY":" ","HOUSE_NO":"１號三樓之１","E_COORD97":171337.60999999999,"N_COORD97":2544404.3100000001,"ADDRESS":"小東路４２３巷１號三樓之１","OBJECTID":374649},"geometry":{"x":171337.61000000127,"y":2544404.3100000005}},{"attributes":{"ID":374660,"DIS_CODE":0,"TOWNNAME":"北區","LI":"東興里","LIN":"10鄰","STREET":"小東路","SECT":" ","MAREA":" ","LANE":"４２３巷","ALLEY":" ","HOUSE_NO":"１號三樓之２","E_COORD97":171337.60999999999,"N_COORD97":2544404.3100000001,"ADDRESS":"小東路４２３巷１號三樓之２","OBJECTID":374650},"geometry":{"x":171337.61000000127,"y":2544404.3100000005}},{"attributes":{"ID":374661,"DIS_CODE":0,"TOWNNAME":"北區","LI":"東興里","LIN":"10鄰","STREET":"小東路","SECT":" ","MAREA":" ","LANE":"４２３巷","ALLEY":" ","HOUSE_NO":"１號三樓之３","E_COORD97":171337.60999999999,"N_COORD97":2544404.3100000001,"ADDRESS":"小東路４２３巷１號三樓之３","OBJECTID":374651},"geometry":{"x":171337.61000000127,"y":2544404.3100000005}},{"attributes":{"ID":374662,"DIS_CODE":0,"TOWNNAME":"北區","LI":"東興里","LIN":"10鄰","STREET":"小東路","SECT":" ","MAREA":" ","LANE":"４２３巷","ALLEY":" ","HOUSE_NO":"１號三樓之５","E_COORD97":171337.60999999999,"N_COORD97":2544404.3100000001,"ADDRESS":"小東路４２３巷１號三樓之５","OBJECTID":374652},"geometry":{"x":171337.61000000127,"y":2544404.3100000005}},{"attributes":{"ID":374663,"DIS_CODE":0,"TOWNNAME":"北區","LI":"東興里","LIN":"10鄰","STREET":"小東路","SECT":" ","MAREA":" ","LANE":"４２３巷","ALLEY":" ","HOUSE_NO":"１號四樓之１","E_COORD97":171337.60999999999,"N_COORD97":2544404.3100000001,"ADDRESS":"小東路４２３巷１號四樓之１","OBJECTID":374653},"geometry":{"x":171337.61000000127,"y":2544404.3100000005}},{"attributes":{"ID":374664,"DIS_CODE":0,"TOWNNAME":"北區","LI":"東興里","LIN":"10鄰","STREET":"小東路","SECT":" ","MAREA":" ","LANE":"４２３巷","ALLEY":" ","HOUSE_NO":"１號四樓之２","E_COORD97":171337.60999999999,"N_COORD97":2544404.3100000001,"ADDRESS":"小東路４２３巷１號四樓之２","OBJECTID":374654},"geometry":{"x":171337.61000000127,"y":2544404.3100000005}},{"attributes":{"ID":374665,"DIS_CODE":0,"TOWNNAME":"北區","LI":"東興里","LIN":"10鄰","STREET":"小東路","SECT":" ","MAREA":" ","LANE":"４２３巷","ALLEY":" ","HOUSE_NO":"１號四樓之３","E_COORD97":171337.60999999999,"N_COORD97":2544404.3100000001,"ADDRESS":"小東路４２３巷１號四樓之３","OBJECTID":374655},"geometry":{"x":171337.61000000127,"y":2544404.3100000005}},{"attributes":{"ID":374666,"DIS_CODE":0,"TOWNNAME":"北區","LI":"東興里","LIN":"10鄰","STREET":"小東路","SECT":" ","MAREA":" ","LANE":"４２３巷","ALLEY":" ","HOUSE_NO":"１號四樓之５","E_COORD97":171337.60999999999,"N_COORD97":2544404.3100000001,"ADDRESS":"小東路４２３巷１號四樓之５","OBJECTID":374656},"geometry":{"x":171337.61000000127,"y":2544404.3100000005}},{"attributes":{"ID":374667,"DIS_CODE":0,"TOWNNAME":"北區","LI":"東興里","LIN":"10鄰","STREET":"小東路","SECT":" ","MAREA":" ","LANE":"４２３巷","ALLEY":" ","HOUSE_NO":"１號五樓之１","E_COORD97":171337.60999999999,"N_COORD97":2544404.3100000001,"ADDRESS":"小東路４２３巷１號五樓之１","OBJECTID":374657},"geometry":{"x":171337.61000000127,"y":2544404.3100000005}},{"attributes":{"ID":374668,"DIS_CODE":0,"TOWNNAME":"北區","LI":"東興里","LIN":"10鄰","STREET":"小東路","SECT":" ","MAREA":" ","LANE":"４２３巷","ALLEY":" ","HOUSE_NO":"１號五樓之２","E_COORD97":171337.60999999999,"N_COORD97":2544404.3100000001,"ADDRESS":"小東路４２３巷１號五樓之２","OBJECTID":374658},"geometry":{"x":171337.61000000127,"y":2544404.3100000005}},{"attributes":{"ID":374669,"DIS_CODE":0,"TOWNNAME":"北區","LI":"東興里","LIN":"10鄰","STREET":"小東路","SECT":" ","MAREA":" ","LANE":"４２３巷","ALLEY":" ","HOUSE_NO":"１號五樓之３","E_COORD97":171337.60999999999,"N_COORD97":2544404.3100000001,"ADDRESS":"小東路４２３巷１號五樓之３","OBJECTID":374659},"geometry":{"x":171337.61000000127,"y":2544404.3100000005}},{"attributes":{"ID":374670,"DIS_CODE":0,"TOWNNAME":"北區","LI":"東興里","LIN":"10鄰","STREET":"小東路","SECT":" ","MAREA":" ","LANE":"４２３巷","ALLEY":" ","HOUSE_NO":"１號五樓之５","E_COORD97":171337.60999999999,"N_COORD97":2544404.3100000001,"ADDRESS":"小東路４２３巷１號五樓之５","OBJECTID":374660},"geometry":{"x":171337.61000000127,"y":2544404.3100000005}},{"attributes":{"ID":374671,"DIS_CODE":0,"TOWNNAME":"北區","LI":"東興里","LIN":"10鄰","STREET":"小東路","SECT":" ","MAREA":" ","LANE":"４２３巷","ALLEY":" ","HOUSE_NO":"１號六樓之１","E_COORD97":171337.60999999999,"N_COORD97":2544404.3100000001,"ADDRESS":"小東路４２３巷１號六樓之１","OBJECTID":374661},"geometry":{"x":171337.61000000127,"y":2544404.3100000005}},{"attributes":{"ID":374672,"DIS_CODE":0,"TOWNNAME":"安平區","LI":"平安里","LIN":"9鄰","STREET":"安平路","SECT":" ","MAREA":" ","LANE":"４２６巷","ALLEY":" ","HOUSE_NO":"３０號之１","E_COORD97":165406.242489,"N_COORD97":2544385.7967099999,"ADDRESS":"安平路４２６巷３０號之１","OBJECTID":374662},"geometry":{"x":165406.24248900078,"y":2544385.796707999}},{"attributes":{"ID":374673,"DIS_CODE":0,"TOWNNAME":"北區","LI":"東興里","LIN":"10鄰","STREET":"小東路","SECT":" ","MAREA":" ","LANE":"４２３巷","ALLEY":" ","HOUSE_NO":"１號六樓之２","E_COORD97":171337.60999999999,"N_COORD97":2544404.3100000001,"ADDRESS":"小東路４２３巷１號六樓之２","OBJECTID":374663},"geometry":{"x":171337.61000000127,"y":2544404.3100000005}},{"attributes":{"ID":374674,"DIS_CODE":0,"TOWNNAME":"北區","LI":"東興里","LIN":"10鄰","STREET":"小東路","SECT":" ","MAREA":" ","LANE":"４２３巷","ALLEY":" ","HOUSE_NO":"１號六樓之３","E_COORD97":171337.60999999999,"N_COORD97":2544404.3100000001,"ADDRESS":"小東路４２３巷１號六樓之３","OBJECTID":374664},"geometry":{"x":171337.61000000127,"y":2544404.3100000005}},{"attributes":{"ID":374675,"DIS_CODE":0,"TOWNNAME":"北區","LI":"東興里","LIN":"10鄰","STREET":"小東路","SECT":" ","MAREA":" ","LANE":"４２３巷","ALLEY":" ","HOUSE_NO":"１號六樓之５","E_COORD97":171337.60999999999,"N_COORD97":2544404.3100000001,"ADDRESS":"小東路４２３巷１號六樓之５","OBJECTID":374665},"geometry":{"x":171337.61000000127,"y":2544404.3100000005}},{"attributes":{"ID":374676,"DIS_CODE":0,"TOWNNAME":"北區","LI":"東興里","LIN":"10鄰","STREET":"小東路","SECT":" ","MAREA":" ","LANE":"４２３巷","ALLEY":" ","HOUSE_NO":"１號七樓之１","E_COORD97":171337.60999999999,"N_COORD97":2544404.3100000001,"ADDRESS":"小東路４２３巷１號七樓之１","OBJECTID":374666},"geometry":{"x":171337.61000000127,"y":2544404.3100000005}},{"attributes":{"ID":374677,"DIS_CODE":0,"TOWNNAME":"北區","LI":"東興里","LIN":"10鄰","STREET":"小東路","SECT":" ","MAREA":" ","LANE":"４２３巷","ALLEY":" ","HOUSE_NO":"１號七樓之２","E_COORD97":171337.60999999999,"N_COORD97":2544404.3100000001,"ADDRESS":"小東路４２３巷１號七樓之２","OBJECTID":374667},"geometry":{"x":171337.61000000127,"y":2544404.3100000005}},{"attributes":{"ID":374678,"DIS_CODE":0,"TOWNNAME":"北區","LI":"東興里","LIN":"10鄰","STREET":"小東路","SECT":" ","MAREA":" ","LANE":"４２３巷","ALLEY":" ","HOUSE_NO":"１號七樓之３","E_COORD97":171337.60999999999,"N_COORD97":2544404.3100000001,"ADDRESS":"小東路４２３巷１號七樓之３","OBJECTID":374668},"geometry":{"x":171337.61000000127,"y":2544404.3100000005}},{"attributes":{"ID":374679,"DIS_CODE":0,"TOWNNAME":"北區","LI":"東興里","LIN":"10鄰","STREET":"小東路","SECT":" ","MAREA":" ","LANE":"４２３巷","ALLEY":" ","HOUSE_NO":"１號七樓之５","E_COORD97":171337.60999999999,"N_COORD97":2544404.3100000001,"ADDRESS":"小東路４２３巷１號七樓之５","OBJECTID":374669},"geometry":{"x":171337.61000000127,"y":2544404.3100000005}},{"attributes":{"ID":374680,"DIS_CODE":0,"TOWNNAME":"北區","LI":"東興里","LIN":"10鄰","STREET":"小東路","SECT":" ","MAREA":" ","LANE":"４２３巷","ALLEY":" ","HOUSE_NO":"１號八樓之１","E_COORD97":171337.60999999999,"N_COORD97":2544404.3100000001,"ADDRESS":"小東路４２３巷１號八樓之１","OBJECTID":374670},"geometry":{"x":171337.61000000127,"y":2544404.3100000005}},{"attributes":{"ID":374681,"DIS_CODE":0,"TOWNNAME":"北區","LI":"東興里","LIN":"10鄰","STREET":"小東路","SECT":" ","MAREA":" ","LANE":"４２３巷","ALLEY":" ","HOUSE_NO":"１號八樓之２","E_COORD97":171337.60999999999,"N_COORD97":2544404.3100000001,"ADDRESS":"小東路４２３巷１號八樓之２","OBJECTID":374671},"geometry":{"x":171337.61000000127,"y":2544404.3100000005}},{"attributes":{"ID":374682,"DIS_CODE":0,"TOWNNAME":"北區","LI":"東興里","LIN":"10鄰","STREET":"小東路","SECT":" ","MAREA":" ","LANE":"４２３巷","ALLEY":" ","HOUSE_NO":"１號八樓之３","E_COORD97":171337.60999999999,"N_COORD97":2544404.3100000001,"ADDRESS":"小東路４２３巷１號八樓之３","OBJECTID":374672},"geometry":{"x":171337.61000000127,"y":2544404.3100000005}},{"attributes":{"ID":374683,"DIS_CODE":0,"TOWNNAME":"北區","LI":"東興里","LIN":"10鄰","STREET":"小東路","SECT":" ","MAREA":" ","LANE":"４２３巷","ALLEY":" ","HOUSE_NO":"１號八樓之５","E_COORD97":171337.60999999999,"N_COORD97":2544404.3100000001,"ADDRESS":"小東路４２３巷１號八樓之５","OBJECTID":374673},"geometry":{"x":171337.61000000127,"y":2544404.3100000005}},{"attributes":{"ID":374684,"DIS_CODE":0,"TOWNNAME":"北區","LI":"東興里","LIN":"10鄰","STREET":"小東路","SECT":" ","MAREA":" ","LANE":"４２３巷","ALLEY":" ","HOUSE_NO":"１號九樓之１","E_COORD97":171337.60999999999,"N_COORD97":2544404.3100000001,"ADDRESS":"小東路４２３巷１號九樓之１","OBJECTID":374674},"geometry":{"x":171337.61000000127,"y":2544404.3100000005}},{"attributes":{"ID":374685,"DIS_CODE":0,"TOWNNAME":"北區","LI":"東興里","LIN":"10鄰","STREET":"小東路","SECT":" ","MAREA":" ","LANE":"４２３巷","ALLEY":" ","HOUSE_NO":"１號九樓之２","E_COORD97":171337.60999999999,"N_COORD97":2544404.3100000001,"ADDRESS":"小東路４２３巷１號九樓之２","OBJECTID":374675},"geometry":{"x":171337.61000000127,"y":2544404.3100000005}},{"attributes":{"ID":374686,"DIS_CODE":0,"TOWNNAME":"北區","LI":"東興里","LIN":"10鄰","STREET":"小東路","SECT":" ","MAREA":" ","LANE":"４２３巷","ALLEY":" ","HOUSE_NO":"１號九樓之３","E_COORD97":171337.60999999999,"N_COORD97":2544404.3100000001,"ADDRESS":"小東路４２３巷１號九樓之３","OBJECTID":374676},"geometry":{"x":171337.61000000127,"y":2544404.3100000005}},{"attributes":{"ID":374687,"DIS_CODE":0,"TOWNNAME":"北區","LI":"東興里","LIN":"10鄰","STREET":"小東路","SECT":" ","MAREA":" ","LANE":"４２３巷","ALLEY":" ","HOUSE_NO":"１號九樓之５","E_COORD97":171337.60999999999,"N_COORD97":2544404.3100000001,"ADDRESS":"小東路４２３巷１號九樓之５","OBJECTID":374677},"geometry":{"x":171337.61000000127,"y":2544404.3100000005}},{"attributes":{"ID":374688,"DIS_CODE":0,"TOWNNAME":"北區","LI":"東興里","LIN":"10鄰","STREET":"小東路","SECT":" ","MAREA":" ","LANE":"４２３巷","ALLEY":" ","HOUSE_NO":"１號十樓之１","E_COORD97":171337.60999999999,"N_COORD97":2544404.3100000001,"ADDRESS":"小東路４２３巷１號十樓之１","OBJECTID":374678},"geometry":{"x":171337.61000000127,"y":2544404.3100000005}},{"attributes":{"ID":374689,"DIS_CODE":0,"TOWNNAME":"北區","LI":"東興里","LIN":"10鄰","STREET":"小東路","SECT":" ","MAREA":" ","LANE":"４２３巷","ALLEY":" ","HOUSE_NO":"１號十樓之２","E_COORD97":171337.60999999999,"N_COORD97":2544404.3100000001,"ADDRESS":"小東路４２３巷１號十樓之２","OBJECTID":374679},"geometry":{"x":171337.61000000127,"y":2544404.3100000005}},{"attributes":{"ID":374690,"DIS_CODE":0,"TOWNNAME":"北區","LI":"東興里","LIN":"10鄰","STREET":"小東路","SECT":" ","MAREA":" ","LANE":"４２３巷","ALLEY":" ","HOUSE_NO":"１號十四樓之３","E_COORD97":171337.60999999999,"N_COORD97":2544404.3100000001,"ADDRESS":"小東路４２３巷１號十四樓之３","OBJECTID":374680},"geometry":{"x":171337.61000000127,"y":2544404.3100000005}},{"attributes":{"ID":374691,"DIS_CODE":0,"TOWNNAME":"北區","LI":"東興里","LIN":"10鄰","STREET":"小東路","SECT":" ","MAREA":" ","LANE":"４２３巷","ALLEY":" ","HOUSE_NO":"１號十四樓之５","E_COORD97":171337.60999999999,"N_COORD97":2544404.3100000001,"ADDRESS":"小東路４２３巷１號十四樓之５","OBJECTID":374681},"geometry":{"x":171337.61000000127,"y":2544404.3100000005}},{"attributes":{"ID":374692,"DIS_CODE":0,"TOWNNAME":"北區","LI":"五福里","LIN":"10鄰","STREET":"西門路","SECT":"三段","MAREA":" ","LANE":"２４巷","ALLEY":" ","HOUSE_NO":"１１號三樓之２","E_COORD97":168207.13,"N_COORD97":2544534.02,"ADDRESS":"西門路三段２４巷１１號三樓之２","OBJECTID":374682},"geometry":{"x":168207.12999999896,"y":2544534.0199999996}},{"attributes":{"ID":374693,"DIS_CODE":0,"TOWNNAME":"北區","LI":"五福里","LIN":"10鄰","STREET":"西門路","SECT":"三段","MAREA":" ","LANE":"２４巷","ALLEY":" ","HOUSE_NO":"１１號五樓之１","E_COORD97":168207.13,"N_COORD97":2544534.02,"ADDRESS":"西門路三段２４巷１１號五樓之１","OBJECTID":374683},"geometry":{"x":168207.12999999896,"y":2544534.0199999996}},{"attributes":{"ID":374694,"DIS_CODE":0,"TOWNNAME":"北區","LI":"五福里","LIN":"10鄰","STREET":"西門路","SECT":"三段","MAREA":" ","LANE":"２４巷","ALLEY":" ","HOUSE_NO":"１１號五樓之２","E_COORD97":168207.13,"N_COORD97":2544534.02,"ADDRESS":"西門路三段２４巷１１號五樓之２","OBJECTID":374684},"geometry":{"x":168207.12999999896,"y":2544534.0199999996}},{"attributes":{"ID":374695,"DIS_CODE":0,"TOWNNAME":"北區","LI":"五福里","LIN":"10鄰","STREET":"西門路","SECT":"三段","MAREA":" ","LANE":"２４巷","ALLEY":" ","HOUSE_NO":"１１號四樓之１","E_COORD97":168207.13,"N_COORD97":2544534.02,"ADDRESS":"西門路三段２４巷１１號四樓之１","OBJECTID":374685},"geometry":{"x":168207.12999999896,"y":2544534.0199999996}},{"attributes":{"ID":374696,"DIS_CODE":0,"TOWNNAME":"北區","LI":"五福里","LIN":"10鄰","STREET":"西門路","SECT":"三段","MAREA":" ","LANE":"２４巷","ALLEY":" ","HOUSE_NO":"１１號四樓之２","E_COORD97":168207.13,"N_COORD97":2544534.02,"ADDRESS":"西門路三段２４巷１１號四樓之２","OBJECTID":374686},"geometry":{"x":168207.12999999896,"y":2544534.0199999996}},{"attributes":{"ID":374697,"DIS_CODE":0,"TOWNNAME":"南區","LI":"新生里","LIN":"10鄰","STREET":"大同路","SECT":"二段","MAREA":" ","LANE":"１３６巷","ALLEY":" ","HOUSE_NO":"３號二樓之１","E_COORD97":169267.01999999999,"N_COORD97":2542145.5800000001,"ADDRESS":"大同路二段１３６巷３號二樓之１","OBJECTID":374687},"geometry":{"x":169267.01999999862,"y":2542145.5800000038}},{"attributes":{"ID":374698,"DIS_CODE":0,"TOWNNAME":"南區","LI":"新生里","LIN":"10鄰","STREET":"大同路","SECT":"二段","MAREA":" ","LANE":"１３６巷","ALLEY":" ","HOUSE_NO":"３號二樓之２","E_COORD97":169267.01999999999,"N_COORD97":2542145.5800000001,"ADDRESS":"大同路二段１３６巷３號二樓之２","OBJECTID":374688},"geometry":{"x":169267.01999999862,"y":2542145.5800000038}},{"attributes":{"ID":374699,"DIS_CODE":0,"TOWNNAME":"南區","LI":"新生里","LIN":"10鄰","STREET":"大同路","SECT":"二段","MAREA":" ","LANE":"１３６巷","ALLEY":" ","HOUSE_NO":"３號三樓之１","E_COORD97":169267.01999999999,"N_COORD97":2542145.5800000001,"ADDRESS":"大同路二段１３６巷３號三樓之１","OBJECTID":374689},"geometry":{"x":169267.01999999862,"y":2542145.5800000038}},{"attributes":{"ID":374700,"DIS_CODE":0,"TOWNNAME":"南區","LI":"新生里","LIN":"10鄰","STREET":"大同路","SECT":"二段","MAREA":" ","LANE":"１３６巷","ALLEY":" ","HOUSE_NO":"３號三樓之２","E_COORD97":169267.01999999999,"N_COORD97":2542145.5800000001,"ADDRESS":"大同路二段１３６巷３號三樓之２","OBJECTID":374690},"geometry":{"x":169267.01999999862,"y":2542145.5800000038}},{"attributes":{"ID":374701,"DIS_CODE":0,"TOWNNAME":"安南區","LI":"安慶里","LIN":"13鄰","STREET":"怡安路","SECT":"一段","MAREA":" ","LANE":" ","ALLEY":" ","HOUSE_NO":"８７號","E_COORD97":169343.95000000001,"N_COORD97":2548979.75,"ADDRESS":"怡安路一段８７號","OBJECTID":374691},"geometry":{"x":169343.95000000019,"y":2548979.7500000019}},{"attributes":{"ID":374702,"DIS_CODE":0,"TOWNNAME":"南區","LI":"新生里","LIN":"10鄰","STREET":"大同路","SECT":"二段","MAREA":" ","LANE":"１３６巷","ALLEY":" ","HOUSE_NO":"３號三樓之３","E_COORD97":169267.01999999999,"N_COORD97":2542145.5800000001,"ADDRESS":"大同路二段１３６巷３號三樓之３","OBJECTID":374692},"geometry":{"x":169267.01999999862,"y":2542145.5800000038}},{"attributes":{"ID":374703,"DIS_CODE":0,"TOWNNAME":"南區","LI":"新生里","LIN":"10鄰","STREET":"大同路","SECT":"二段","MAREA":" ","LANE":"１３６巷","ALLEY":" ","HOUSE_NO":"３號三樓之５","E_COORD97":169267.01999999999,"N_COORD97":2542145.5800000001,"ADDRESS":"大同路二段１３６巷３號三樓之５","OBJECTID":374693},"geometry":{"x":169267.01999999862,"y":2542145.5800000038}},{"attributes":{"ID":374704,"DIS_CODE":0,"TOWNNAME":"南區","LI":"新生里","LIN":"10鄰","STREET":"大同路","SECT":"二段","MAREA":" ","LANE":"１３６巷","ALLEY":" ","HOUSE_NO":"３號四樓之１","E_COORD97":169267.01999999999,"N_COORD97":2542145.5800000001,"ADDRESS":"大同路二段１３６巷３號四樓之１","OBJECTID":374694},"geometry":{"x":169267.01999999862,"y":2542145.5800000038}},{"attributes":{"ID":374705,"DIS_CODE":0,"TOWNNAME":"南區","LI":"新生里","LIN":"10鄰","STREET":"大同路","SECT":"二段","MAREA":" ","LANE":"１３６巷","ALLEY":" ","HOUSE_NO":"３號四樓之２","E_COORD97":169267.01999999999,"N_COORD97":2542145.5800000001,"ADDRESS":"大同路二段１３６巷３號四樓之２","OBJECTID":374695},"geometry":{"x":169267.01999999862,"y":2542145.5800000038}},{"attributes":{"ID":374706,"DIS_CODE":0,"TOWNNAME":"南區","LI":"新生里","LIN":"10鄰","STREET":"大同路","SECT":"二段","MAREA":" ","LANE":"１３６巷","ALLEY":" ","HOUSE_NO":"３號四樓之３","E_COORD97":169267.01999999999,"N_COORD97":2542145.5800000001,"ADDRESS":"大同路二段１３６巷３號四樓之３","OBJECTID":374696},"geometry":{"x":169267.01999999862,"y":2542145.5800000038}},{"attributes":{"ID":374707,"DIS_CODE":0,"TOWNNAME":"南區","LI":"新生里","LIN":"10鄰","STREET":"大同路","SECT":"二段","MAREA":" ","LANE":"１３６巷","ALLEY":" ","HOUSE_NO":"３號四樓之５","E_COORD97":169267.01999999999,"N_COORD97":2542145.5800000001,"ADDRESS":"大同路二段１３６巷３號四樓之５","OBJECTID":374697},"geometry":{"x":169267.01999999862,"y":2542145.5800000038}},{"attributes":{"ID":374708,"DIS_CODE":0,"TOWNNAME":"南區","LI":"新生里","LIN":"10鄰","STREET":"大同路","SECT":"二段","MAREA":" ","LANE":"１３６巷","ALLEY":" ","HOUSE_NO":"３號五樓之１","E_COORD97":169267.01999999999,"N_COORD97":2542145.5800000001,"ADDRESS":"大同路二段１３６巷３號五樓之１","OBJECTID":374698},"geometry":{"x":169267.01999999862,"y":2542145.5800000038}},{"attributes":{"ID":374709,"DIS_CODE":0,"TOWNNAME":"南區","LI":"新生里","LIN":"10鄰","STREET":"大同路","SECT":"二段","MAREA":" ","LANE":"１３６巷","ALLEY":" ","HOUSE_NO":"３號五樓之２","E_COORD97":169267.01999999999,"N_COORD97":2542145.5800000001,"ADDRESS":"大同路二段１３６巷３號五樓之２","OBJECTID":374699},"geometry":{"x":169267.01999999862,"y":2542145.5800000038}},{"attributes":{"ID":374710,"DIS_CODE":0,"TOWNNAME":"南區","LI":"新生里","LIN":"10鄰","STREET":"大同路","SECT":"二段","MAREA":" ","LANE":"１３６巷","ALLEY":" ","HOUSE_NO":"３號五樓之３","E_COORD97":169267.01999999999,"N_COORD97":2542145.5800000001,"ADDRESS":"大同路二段１３６巷３號五樓之３","OBJECTID":374700},"geometry":{"x":169267.01999999862,"y":2542145.5800000038}},{"attributes":{"ID":374711,"DIS_CODE":0,"TOWNNAME":"南區","LI":"新生里","LIN":"10鄰","STREET":"大同路","SECT":"二段","MAREA":" ","LANE":"１３６巷","ALLEY":" ","HOUSE_NO":"３號五樓之５","E_COORD97":169267.01999999999,"N_COORD97":2542145.5800000001,"ADDRESS":"大同路二段１３６巷３號五樓之５","OBJECTID":374701},"geometry":{"x":169267.01999999862,"y":2542145.5800000038}},{"attributes":{"ID":374712,"DIS_CODE":0,"TOWNNAME":"南區","LI":"新生里","LIN":"10鄰","STREET":"大同路","SECT":"二段","MAREA":" ","LANE":"１３６巷","ALLEY":" ","HOUSE_NO":"３號六樓之１","E_COORD97":169267.01999999999,"N_COORD97":2542145.5800000001,"ADDRESS":"大同路二段１３６巷３號六樓之１","OBJECTID":374702},"geometry":{"x":169267.01999999862,"y":2542145.5800000038}},{"attributes":{"ID":374713,"DIS_CODE":0,"TOWNNAME":"南區","LI":"新生里","LIN":"10鄰","STREET":"大同路","SECT":"二段","MAREA":" ","LANE":"１３６巷","ALLEY":" ","HOUSE_NO":"３號六樓之２","E_COORD97":169267.01999999999,"N_COORD97":2542145.5800000001,"ADDRESS":"大同路二段１３６巷３號六樓之２","OBJECTID":374703},"geometry":{"x":169267.01999999862,"y":2542145.5800000038}},{"attributes":{"ID":374714,"DIS_CODE":0,"TOWNNAME":"南區","LI":"新生里","LIN":"10鄰","STREET":"大同路","SECT":"二段","MAREA":" ","LANE":"１３６巷","ALLEY":" ","HOUSE_NO":"３號六樓之３","E_COORD97":169267.01999999999,"N_COORD97":2542145.5800000001,"ADDRESS":"大同路二段１３６巷３號六樓之３","OBJECTID":374704},"geometry":{"x":169267.01999999862,"y":2542145.5800000038}},{"attributes":{"ID":374715,"DIS_CODE":0,"TOWNNAME":"南區","LI":"新生里","LIN":"10鄰","STREET":"大同路","SECT":"二段","MAREA":" ","LANE":"１３６巷","ALLEY":" ","HOUSE_NO":"３號六樓之５","E_COORD97":169267.01999999999,"N_COORD97":2542145.5800000001,"ADDRESS":"大同路二段１３６巷３號六樓之５","OBJECTID":374705},"geometry":{"x":169267.01999999862,"y":2542145.5800000038}},{"attributes":{"ID":374716,"DIS_CODE":0,"TOWNNAME":"南區","LI":"新生里","LIN":"10鄰","STREET":"大同路","SECT":"二段","MAREA":" ","LANE":"１３６巷","ALLEY":" ","HOUSE_NO":"３號七樓之１","E_COORD97":169267.01999999999,"N_COORD97":2542145.5800000001,"ADDRESS":"大同路二段１３６巷３號七樓之１","OBJECTID":374706},"geometry":{"x":169267.01999999862,"y":2542145.5800000038}},{"attributes":{"ID":374717,"DIS_CODE":0,"TOWNNAME":"南區","LI":"新生里","LIN":"10鄰","STREET":"大同路","SECT":"二段","MAREA":" ","LANE":"１３６巷","ALLEY":" ","HOUSE_NO":"３號七樓之２","E_COORD97":169267.01999999999,"N_COORD97":2542145.5800000001,"ADDRESS":"大同路二段１３６巷３號七樓之２","OBJECTID":374707},"geometry":{"x":169267.01999999862,"y":2542145.5800000038}},{"attributes":{"ID":374718,"DIS_CODE":0,"TOWNNAME":"南區","LI":"新生里","LIN":"10鄰","STREET":"大同路","SECT":"二段","MAREA":" ","LANE":"１３６巷","ALLEY":" ","HOUSE_NO":"３號七樓之３","E_COORD97":169267.01999999999,"N_COORD97":2542145.5800000001,"ADDRESS":"大同路二段１３６巷３號七樓之３","OBJECTID":374708},"geometry":{"x":169267.01999999862,"y":2542145.5800000038}},{"attributes":{"ID":374719,"DIS_CODE":0,"TOWNNAME":"南區","LI":"新生里","LIN":"10鄰","STREET":"大同路","SECT":"二段","MAREA":" ","LANE":"１３６巷","ALLEY":" ","HOUSE_NO":"３號七樓之５","E_COORD97":169267.01999999999,"N_COORD97":2542145.5800000001,"ADDRESS":"大同路二段１３６巷３號七樓之５","OBJECTID":374709},"geometry":{"x":169267.01999999862,"y":2542145.5800000038}},{"attributes":{"ID":374720,"DIS_CODE":0,"TOWNNAME":"新化區","LI":"太平里","LIN":"10鄰","STREET":"中正路","SECT":" ","MAREA":" ","LANE":"７７７巷","ALLEY":" ","HOUSE_NO":"５號","E_COORD97":178655.60999999999,"N_COORD97":2549310.25,"ADDRESS":"中正路７７７巷５號","OBJECTID":374710},"geometry":{"x":178655.61000000127,"y":2549310.25}},{"attributes":{"ID":374721,"DIS_CODE":0,"TOWNNAME":"南區","LI":"新生里","LIN":"10鄰","STREET":"大同路","SECT":"二段","MAREA":" ","LANE":"１３６巷","ALLEY":" ","HOUSE_NO":"３號八樓之１","E_COORD97":169267.01999999999,"N_COORD97":2542145.5800000001,"ADDRESS":"大同路二段１３６巷３號八樓之１","OBJECTID":374711},"geometry":{"x":169267.01999999862,"y":2542145.5800000038}},{"attributes":{"ID":374722,"DIS_CODE":0,"TOWNNAME":"南區","LI":"新生里","LIN":"10鄰","STREET":"大同路","SECT":"二段","MAREA":" ","LANE":"１３６巷","ALLEY":" ","HOUSE_NO":"３號八樓之２","E_COORD97":169267.01999999999,"N_COORD97":2542145.5800000001,"ADDRESS":"大同路二段１３６巷３號八樓之２","OBJECTID":374712},"geometry":{"x":169267.01999999862,"y":2542145.5800000038}},{"attributes":{"ID":374723,"DIS_CODE":0,"TOWNNAME":"南區","LI":"新生里","LIN":"10鄰","STREET":"大同路","SECT":"二段","MAREA":" ","LANE":"１３６巷","ALLEY":" ","HOUSE_NO":"３號八樓之３","E_COORD97":169267.01999999999,"N_COORD97":2542145.5800000001,"ADDRESS":"大同路二段１３６巷３號八樓之３","OBJECTID":374713},"geometry":{"x":169267.01999999862,"y":2542145.5800000038}},{"attributes":{"ID":374724,"DIS_CODE":0,"TOWNNAME":"南區","LI":"新生里","LIN":"10鄰","STREET":"大同路","SECT":"二段","MAREA":" ","LANE":"１３６巷","ALLEY":" ","HOUSE_NO":"３號八樓之５","E_COORD97":169267.01999999999,"N_COORD97":2542145.5800000001,"ADDRESS":"大同路二段１３６巷３號八樓之５","OBJECTID":374714},"geometry":{"x":169267.01999999862,"y":2542145.5800000038}},{"attributes":{"ID":374725,"DIS_CODE":0,"TOWNNAME":"南區","LI":"新生里","LIN":"10鄰","STREET":"大同路","SECT":"二段","MAREA":" ","LANE":"１３６巷","ALLEY":" ","HOUSE_NO":"３號九樓之１","E_COORD97":169267.01999999999,"N_COORD97":2542145.5800000001,"ADDRESS":"大同路二段１３６巷３號九樓之１","OBJECTID":374715},"geometry":{"x":169267.01999999862,"y":2542145.5800000038}},{"attributes":{"ID":374726,"DIS_CODE":0,"TOWNNAME":"南區","LI":"新生里","LIN":"10鄰","STREET":"大同路","SECT":"二段","MAREA":" ","LANE":"１３６巷","ALLEY":" ","HOUSE_NO":"３號九樓之２","E_COORD97":169267.01999999999,"N_COORD97":2542145.5800000001,"ADDRESS":"大同路二段１３６巷３號九樓之２","OBJECTID":374716},"geometry":{"x":169267.01999999862,"y":2542145.5800000038}},{"attributes":{"ID":374727,"DIS_CODE":0,"TOWNNAME":"南區","LI":"新生里","LIN":"10鄰","STREET":"大同路","SECT":"二段","MAREA":" ","LANE":"１３６巷","ALLEY":" ","HOUSE_NO":"３號九樓之３","E_COORD97":169267.01999999999,"N_COORD97":2542145.5800000001,"ADDRESS":"大同路二段１３６巷３號九樓之３","OBJECTID":374717},"geometry":{"x":169267.01999999862,"y":2542145.5800000038}},{"attributes":{"ID":374728,"DIS_CODE":0,"TOWNNAME":"南區","LI":"新生里","LIN":"10鄰","STREET":"大同路","SECT":"二段","MAREA":" ","LANE":"１３６巷","ALLEY":" ","HOUSE_NO":"３號九樓之５","E_COORD97":169267.01999999999,"N_COORD97":2542145.5800000001,"ADDRESS":"大同路二段１３６巷３號九樓之５","OBJECTID":374718},"geometry":{"x":169267.01999999862,"y":2542145.5800000038}},{"attributes":{"ID":374729,"DIS_CODE":0,"TOWNNAME":"南區","LI":"新生里","LIN":"10鄰","STREET":"大同路","SECT":"二段","MAREA":" ","LANE":"１３６巷","ALLEY":" ","HOUSE_NO":"３號十樓之１","E_COORD97":169267.01999999999,"N_COORD97":2542145.5800000001,"ADDRESS":"大同路二段１３６巷３號十樓之１","OBJECTID":374719},"geometry":{"x":169267.01999999862,"y":2542145.5800000038}},{"attributes":{"ID":374730,"DIS_CODE":0,"TOWNNAME":"南區","LI":"新生里","LIN":"10鄰","STREET":"大同路","SECT":"二段","MAREA":" ","LANE":"１３６巷","ALLEY":" ","HOUSE_NO":"３號十樓之２","E_COORD97":169267.01999999999,"N_COORD97":2542145.5800000001,"ADDRESS":"大同路二段１３６巷３號十樓之２","OBJECTID":374720},"geometry":{"x":169267.01999999862,"y":2542145.5800000038}},{"attributes":{"ID":374731,"DIS_CODE":0,"TOWNNAME":"安平區","LI":"平安里","LIN":"9鄰","STREET":"安平路","SECT":" ","MAREA":" ","LANE":"４２６巷","ALLEY":" ","HOUSE_NO":"３０號之２","E_COORD97":165405.39485899999,"N_COORD97":2544385.7967099999,"ADDRESS":"安平路４２６巷３０號之２","OBJECTID":374721},"geometry":{"x":165405.39485899918,"y":2544385.796707999}},{"attributes":{"ID":374732,"DIS_CODE":0,"TOWNNAME":"南區","LI":"新生里","LIN":"10鄰","STREET":"大同路","SECT":"二段","MAREA":" ","LANE":"１３６巷","ALLEY":" ","HOUSE_NO":"３號十樓之３","E_COORD97":169267.01999999999,"N_COORD97":2542145.5800000001,"ADDRESS":"大同路二段１３６巷３號十樓之３","OBJECTID":374722},"geometry":{"x":169267.01999999862,"y":2542145.5800000038}},{"attributes":{"ID":374733,"DIS_CODE":0,"TOWNNAME":"南區","LI":"新生里","LIN":"10鄰","STREET":"大同路","SECT":"二段","MAREA":" ","LANE":"１３６巷","ALLEY":" ","HOUSE_NO":"３號十樓之５","E_COORD97":169267.01999999999,"N_COORD97":2542145.5800000001,"ADDRESS":"大同路二段１３６巷３號十樓之５","OBJECTID":374723},"geometry":{"x":169267.01999999862,"y":2542145.5800000038}},{"attributes":{"ID":374734,"DIS_CODE":0,"TOWNNAME":"南區","LI":"新生里","LIN":"10鄰","STREET":"大同路","SECT":"二段","MAREA":" ","LANE":"１３６巷","ALLEY":" ","HOUSE_NO":"３號十一樓之１","E_COORD97":169267.01999999999,"N_COORD97":2542145.5800000001,"ADDRESS":"大同路二段１３６巷３號十一樓之１","OBJECTID":374724},"geometry":{"x":169267.01999999862,"y":2542145.5800000038}},{"attributes":{"ID":374735,"DIS_CODE":0,"TOWNNAME":"南區","LI":"新生里","LIN":"10鄰","STREET":"大同路","SECT":"二段","MAREA":" ","LANE":"１３６巷","ALLEY":" ","HOUSE_NO":"３號十一樓之２","E_COORD97":169267.01999999999,"N_COORD97":2542145.5800000001,"ADDRESS":"大同路二段１３６巷３號十一樓之２","OBJECTID":374725},"geometry":{"x":169267.01999999862,"y":2542145.5800000038}},{"attributes":{"ID":374736,"DIS_CODE":0,"TOWNNAME":"南區","LI":"新生里","LIN":"10鄰","STREET":"大同路","SECT":"二段","MAREA":" ","LANE":"１３６巷","ALLEY":" ","HOUSE_NO":"３號十一樓之３","E_COORD97":169267.01999999999,"N_COORD97":2542145.5800000001,"ADDRESS":"大同路二段１３６巷３號十一樓之３","OBJECTID":374726},"geometry":{"x":169267.01999999862,"y":2542145.5800000038}},{"attributes":{"ID":374737,"DIS_CODE":0,"TOWNNAME":"南區","LI":"新生里","LIN":"10鄰","STREET":"大同路","SECT":"二段","MAREA":" ","LANE":"１３６巷","ALLEY":" ","HOUSE_NO":"３號十一樓之５","E_COORD97":169267.01999999999,"N_COORD97":2542145.5800000001,"ADDRESS":"大同路二段１３６巷３號十一樓之５","OBJECTID":374727},"geometry":{"x":169267.01999999862,"y":2542145.5800000038}},{"attributes":{"ID":374738,"DIS_CODE":0,"TOWNNAME":"南區","LI":"新生里","LIN":"10鄰","STREET":"大同路","SECT":"二段","MAREA":" ","LANE":"１３６巷","ALLEY":" ","HOUSE_NO":"３號十二樓之１","E_COORD97":169267.01999999999,"N_COORD97":2542145.5800000001,"ADDRESS":"大同路二段１３６巷３號十二樓之１","OBJECTID":374728},"geometry":{"x":169267.01999999862,"y":2542145.5800000038}},{"attributes":{"ID":374739,"DIS_CODE":0,"TOWNNAME":"南區","LI":"新生里","LIN":"10鄰","STREET":"大同路","SECT":"二段","MAREA":" ","LANE":"１３６巷","ALLEY":" ","HOUSE_NO":"３號十二樓之２","E_COORD97":169267.01999999999,"N_COORD97":2542145.5800000001,"ADDRESS":"大同路二段１３６巷３號十二樓之２","OBJECTID":374729},"geometry":{"x":169267.01999999862,"y":2542145.5800000038}},{"attributes":{"ID":374740,"DIS_CODE":0,"TOWNNAME":"北區","LI":"大道里","LIN":"10鄰","STREET":"北門路","SECT":"二段","MAREA":" ","LANE":"５２７巷","ALLEY":" ","HOUSE_NO":"１號二樓之２","E_COORD97":169606.60999999999,"N_COORD97":2545628.52,"ADDRESS":"北門路二段５２７巷１號二樓之２","OBJECTID":374730},"geometry":{"x":169606.61000000127,"y":2545628.5200000014}},{"attributes":{"ID":374741,"DIS_CODE":0,"TOWNNAME":"北區","LI":"大道里","LIN":"10鄰","STREET":"北門路","SECT":"二段","MAREA":" ","LANE":"５２７巷","ALLEY":" ","HOUSE_NO":"１號二樓之１","E_COORD97":169606.60999999999,"N_COORD97":2545628.52,"ADDRESS":"北門路二段５２７巷１號二樓之１","OBJECTID":374731},"geometry":{"x":169606.61000000127,"y":2545628.5200000014}},{"attributes":{"ID":374742,"DIS_CODE":0,"TOWNNAME":"北區","LI":"大道里","LIN":"10鄰","STREET":"北門路","SECT":"二段","MAREA":" ","LANE":"５２７巷","ALLEY":" ","HOUSE_NO":"１號三樓之３","E_COORD97":169606.60999999999,"N_COORD97":2545628.52,"ADDRESS":"北門路二段５２７巷１號三樓之３","OBJECTID":374732},"geometry":{"x":169606.61000000127,"y":2545628.5200000014}},{"attributes":{"ID":374743,"DIS_CODE":0,"TOWNNAME":"北區","LI":"大道里","LIN":"10鄰","STREET":"北門路","SECT":"二段","MAREA":" ","LANE":"５２７巷","ALLEY":" ","HOUSE_NO":"１號三樓之２","E_COORD97":169606.60999999999,"N_COORD97":2545628.52,"ADDRESS":"北門路二段５２７巷１號三樓之２","OBJECTID":374733},"geometry":{"x":169606.61000000127,"y":2545628.5200000014}},{"attributes":{"ID":374744,"DIS_CODE":0,"TOWNNAME":"北區","LI":"大道里","LIN":"10鄰","STREET":"北門路","SECT":"二段","MAREA":" ","LANE":"５２７巷","ALLEY":" ","HOUSE_NO":"１號三樓之１","E_COORD97":169606.60999999999,"N_COORD97":2545628.52,"ADDRESS":"北門路二段５２７巷１號三樓之１","OBJECTID":374734},"geometry":{"x":169606.61000000127,"y":2545628.5200000014}},{"attributes":{"ID":374745,"DIS_CODE":0,"TOWNNAME":"北區","LI":"大道里","LIN":"10鄰","STREET":"北門路","SECT":"二段","MAREA":" ","LANE":"５２７巷","ALLEY":" ","HOUSE_NO":"１號三樓之５","E_COORD97":169606.60999999999,"N_COORD97":2545628.52,"ADDRESS":"北門路二段５２７巷１號三樓之５","OBJECTID":374735},"geometry":{"x":169606.61000000127,"y":2545628.5200000014}},{"attributes":{"ID":374746,"DIS_CODE":0,"TOWNNAME":"北區","LI":"大道里","LIN":"10鄰","STREET":"北門路","SECT":"二段","MAREA":" ","LANE":"５２７巷","ALLEY":" ","HOUSE_NO":"１號四樓之３","E_COORD97":169606.60999999999,"N_COORD97":2545628.52,"ADDRESS":"北門路二段５２７巷１號四樓之３","OBJECTID":374736},"geometry":{"x":169606.61000000127,"y":2545628.5200000014}},{"attributes":{"ID":374747,"DIS_CODE":0,"TOWNNAME":"北區","LI":"大道里","LIN":"10鄰","STREET":"北門路","SECT":"二段","MAREA":" ","LANE":"５２７巷","ALLEY":" ","HOUSE_NO":"１號四樓之２","E_COORD97":169606.60999999999,"N_COORD97":2545628.52,"ADDRESS":"北門路二段５２７巷１號四樓之２","OBJECTID":374737},"geometry":{"x":169606.61000000127,"y":2545628.5200000014}},{"attributes":{"ID":374748,"DIS_CODE":0,"TOWNNAME":"北區","LI":"大道里","LIN":"10鄰","STREET":"北門路","SECT":"二段","MAREA":" ","LANE":"５２７巷","ALLEY":" ","HOUSE_NO":"１號四樓之１","E_COORD97":169606.60999999999,"N_COORD97":2545628.52,"ADDRESS":"北門路二段５２７巷１號四樓之１","OBJECTID":374738},"geometry":{"x":169606.61000000127,"y":2545628.5200000014}},{"attributes":{"ID":374749,"DIS_CODE":0,"TOWNNAME":"北區","LI":"大道里","LIN":"10鄰","STREET":"北門路","SECT":"二段","MAREA":" ","LANE":"５２７巷","ALLEY":" ","HOUSE_NO":"１號四樓之５","E_COORD97":169606.60999999999,"N_COORD97":2545628.52,"ADDRESS":"北門路二段５２７巷１號四樓之５","OBJECTID":374739},"geometry":{"x":169606.61000000127,"y":2545628.5200000014}},{"attributes":{"ID":374750,"DIS_CODE":0,"TOWNNAME":"北區","LI":"大道里","LIN":"10鄰","STREET":"北門路","SECT":"二段","MAREA":" ","LANE":"５２７巷","ALLEY":" ","HOUSE_NO":"１號五樓之３","E_COORD97":169606.60999999999,"N_COORD97":2545628.52,"ADDRESS":"北門路二段５２７巷１號五樓之３","OBJECTID":374740},"geometry":{"x":169606.61000000127,"y":2545628.5200000014}},{"attributes":{"ID":374751,"DIS_CODE":0,"TOWNNAME":"北區","LI":"大道里","LIN":"10鄰","STREET":"北門路","SECT":"二段","MAREA":" ","LANE":"５２７巷","ALLEY":" ","HOUSE_NO":"１號五樓之２","E_COORD97":169606.60999999999,"N_COORD97":2545628.52,"ADDRESS":"北門路二段５２７巷１號五樓之２","OBJECTID":374741},"geometry":{"x":169606.61000000127,"y":2545628.5200000014}},{"attributes":{"ID":374752,"DIS_CODE":0,"TOWNNAME":"北區","LI":"大道里","LIN":"10鄰","STREET":"北門路","SECT":"二段","MAREA":" ","LANE":"５２７巷","ALLEY":" ","HOUSE_NO":"１號五樓之１","E_COORD97":169606.60999999999,"N_COORD97":2545628.52,"ADDRESS":"北門路二段５２７巷１號五樓之１","OBJECTID":374742},"geometry":{"x":169606.61000000127,"y":2545628.5200000014}},{"attributes":{"ID":374753,"DIS_CODE":0,"TOWNNAME":"北區","LI":"大道里","LIN":"10鄰","STREET":"北門路","SECT":"二段","MAREA":" ","LANE":"５２７巷","ALLEY":" ","HOUSE_NO":"１號五樓之５","E_COORD97":169606.60999999999,"N_COORD97":2545628.52,"ADDRESS":"北門路二段５２７巷１號五樓之５","OBJECTID":374743},"geometry":{"x":169606.61000000127,"y":2545628.5200000014}},{"attributes":{"ID":374754,"DIS_CODE":0,"TOWNNAME":"北區","LI":"大道里","LIN":"10鄰","STREET":"北門路","SECT":"二段","MAREA":" ","LANE":"５２７巷","ALLEY":" ","HOUSE_NO":"１號六樓之３","E_COORD97":169606.60999999999,"N_COORD97":2545628.52,"ADDRESS":"北門路二段５２７巷１號六樓之３","OBJECTID":374744},"geometry":{"x":169606.61000000127,"y":2545628.5200000014}},{"attributes":{"ID":374755,"DIS_CODE":0,"TOWNNAME":"北區","LI":"大道里","LIN":"10鄰","STREET":"北門路","SECT":"二段","MAREA":" ","LANE":"５２７巷","ALLEY":" ","HOUSE_NO":"１號六樓之２","E_COORD97":169606.60999999999,"N_COORD97":2545628.52,"ADDRESS":"北門路二段５２７巷１號六樓之２","OBJECTID":374745},"geometry":{"x":169606.61000000127,"y":2545628.5200000014}},{"attributes":{"ID":374756,"DIS_CODE":0,"TOWNNAME":"北區","LI":"大道里","LIN":"10鄰","STREET":"北門路","SECT":"二段","MAREA":" ","LANE":"５２７巷","ALLEY":" ","HOUSE_NO":"１號六樓之１","E_COORD97":169606.60999999999,"N_COORD97":2545628.52,"ADDRESS":"北門路二段５２７巷１號六樓之１","OBJECTID":374746},"geometry":{"x":169606.61000000127,"y":2545628.5200000014}},{"attributes":{"ID":374757,"DIS_CODE":0,"TOWNNAME":"北區","LI":"大道里","LIN":"10鄰","STREET":"北門路","SECT":"二段","MAREA":" ","LANE":"５２７巷","ALLEY":" ","HOUSE_NO":"１號六樓之５","E_COORD97":169606.60999999999,"N_COORD97":2545628.52,"ADDRESS":"北門路二段５２７巷１號六樓之５","OBJECTID":374747},"geometry":{"x":169606.61000000127,"y":2545628.5200000014}},{"attributes":{"ID":374758,"DIS_CODE":0,"TOWNNAME":"北區","LI":"大道里","LIN":"10鄰","STREET":"北門路","SECT":"二段","MAREA":" ","LANE":"５２７巷","ALLEY":" ","HOUSE_NO":"１號七樓之３","E_COORD97":169606.60999999999,"N_COORD97":2545628.52,"ADDRESS":"北門路二段５２７巷１號七樓之３","OBJECTID":374748},"geometry":{"x":169606.61000000127,"y":2545628.5200000014}},{"attributes":{"ID":374759,"DIS_CODE":0,"TOWNNAME":"安南區","LI":"安順里","LIN":"13鄰","STREET":"育安街","SECT":" ","MAREA":" ","LANE":" ","ALLEY":" ","HOUSE_NO":"２６６號","E_COORD97":169606.38,"N_COORD97":2550114.9500000002,"ADDRESS":"育安街２６６號","OBJECTID":374749},"geometry":{"x":169606.38000000082,"y":2550114.9499999993}},{"attributes":{"ID":374760,"DIS_CODE":0,"TOWNNAME":"安平區","LI":"平安里","LIN":"9鄰","STREET":"安平路","SECT":" ","MAREA":" ","LANE":"４２６巷","ALLEY":" ","HOUSE_NO":"３０號之４","E_COORD97":165406.03058200001,"N_COORD97":2544385.7967099999,"ADDRESS":"安平路４２６巷３０號之４","OBJECTID":374750},"geometry":{"x":165406.0305820005,"y":2544385.796707999}},{"attributes":{"ID":374761,"DIS_CODE":0,"TOWNNAME":"北區","LI":"大道里","LIN":"10鄰","STREET":"北門路","SECT":"二段","MAREA":" ","LANE":"５２７巷","ALLEY":" ","HOUSE_NO":"１號七樓之２","E_COORD97":169606.60999999999,"N_COORD97":2545628.52,"ADDRESS":"北門路二段５２７巷１號七樓之２","OBJECTID":374751},"geometry":{"x":169606.61000000127,"y":2545628.5200000014}},{"attributes":{"ID":374762,"DIS_CODE":0,"TOWNNAME":"北區","LI":"大道里","LIN":"10鄰","STREET":"北門路","SECT":"二段","MAREA":" ","LANE":"５２７巷","ALLEY":" ","HOUSE_NO":"１號七樓之１","E_COORD97":169606.60999999999,"N_COORD97":2545628.52,"ADDRESS":"北門路二段５２７巷１號七樓之１","OBJECTID":374752},"geometry":{"x":169606.61000000127,"y":2545628.5200000014}},{"attributes":{"ID":374763,"DIS_CODE":0,"TOWNNAME":"北區","LI":"大道里","LIN":"10鄰","STREET":"北門路","SECT":"二段","MAREA":" ","LANE":"５２７巷","ALLEY":" ","HOUSE_NO":"１號七樓之５","E_COORD97":169606.60999999999,"N_COORD97":2545628.52,"ADDRESS":"北門路二段５２７巷１號七樓之５","OBJECTID":374753},"geometry":{"x":169606.61000000127,"y":2545628.5200000014}},{"attributes":{"ID":374764,"DIS_CODE":0,"TOWNNAME":"北區","LI":"大道里","LIN":"10鄰","STREET":"北門路","SECT":"二段","MAREA":" ","LANE":"５２７巷","ALLEY":" ","HOUSE_NO":"１號八樓之３","E_COORD97":169606.60999999999,"N_COORD97":2545628.52,"ADDRESS":"北門路二段５２７巷１號八樓之３","OBJECTID":374754},"geometry":{"x":169606.61000000127,"y":2545628.5200000014}},{"attributes":{"ID":374765,"DIS_CODE":0,"TOWNNAME":"北區","LI":"大道里","LIN":"10鄰","STREET":"北門路","SECT":"二段","MAREA":" ","LANE":"５２７巷","ALLEY":" ","HOUSE_NO":"１號八樓之２","E_COORD97":169606.60999999999,"N_COORD97":2545628.52,"ADDRESS":"北門路二段５２７巷１號八樓之２","OBJECTID":374755},"geometry":{"x":169606.61000000127,"y":2545628.5200000014}},{"attributes":{"ID":374766,"DIS_CODE":0,"TOWNNAME":"北區","LI":"大道里","LIN":"10鄰","STREET":"北門路","SECT":"二段","MAREA":" ","LANE":"５２７巷","ALLEY":" ","HOUSE_NO":"１號八樓之１","E_COORD97":169606.60999999999,"N_COORD97":2545628.52,"ADDRESS":"北門路二段５２７巷１號八樓之１","OBJECTID":374756},"geometry":{"x":169606.61000000127,"y":2545628.5200000014}},{"attributes":{"ID":374767,"DIS_CODE":0,"TOWNNAME":"北區","LI":"大道里","LIN":"10鄰","STREET":"北門路","SECT":"二段","MAREA":" ","LANE":"５２７巷","ALLEY":" ","HOUSE_NO":"１號八樓之５","E_COORD97":169606.60999999999,"N_COORD97":2545628.52,"ADDRESS":"北門路二段５２７巷１號八樓之５","OBJECTID":374757},"geometry":{"x":169606.61000000127,"y":2545628.5200000014}},{"attributes":{"ID":374768,"DIS_CODE":0,"TOWNNAME":"北區","LI":"大道里","LIN":"10鄰","STREET":"北門路","SECT":"二段","MAREA":" ","LANE":"５２７巷","ALLEY":" ","HOUSE_NO":"１號九樓之３","E_COORD97":169606.60999999999,"N_COORD97":2545628.52,"ADDRESS":"北門路二段５２７巷１號九樓之３","OBJECTID":374758},"geometry":{"x":169606.61000000127,"y":2545628.5200000014}},{"attributes":{"ID":374769,"DIS_CODE":0,"TOWNNAME":"北區","LI":"大道里","LIN":"10鄰","STREET":"北門路","SECT":"二段","MAREA":" ","LANE":"５２７巷","ALLEY":" ","HOUSE_NO":"１號九樓之２","E_COORD97":169606.60999999999,"N_COORD97":2545628.52,"ADDRESS":"北門路二段５２７巷１號九樓之２","OBJECTID":374759},"geometry":{"x":169606.61000000127,"y":2545628.5200000014}},{"attributes":{"ID":374770,"DIS_CODE":0,"TOWNNAME":"北區","LI":"大道里","LIN":"10鄰","STREET":"北門路","SECT":"二段","MAREA":" ","LANE":"５２７巷","ALLEY":" ","HOUSE_NO":"１號九樓之１","E_COORD97":169606.60999999999,"N_COORD97":2545628.52,"ADDRESS":"北門路二段５２７巷１號九樓之１","OBJECTID":374760},"geometry":{"x":169606.61000000127,"y":2545628.5200000014}},{"attributes":{"ID":374771,"DIS_CODE":0,"TOWNNAME":"北區","LI":"大道里","LIN":"10鄰","STREET":"北門路","SECT":"二段","MAREA":" ","LANE":"５２７巷","ALLEY":" ","HOUSE_NO":"１號九樓之５","E_COORD97":169606.60999999999,"N_COORD97":2545628.52,"ADDRESS":"北門路二段５２７巷１號九樓之５","OBJECTID":374761},"geometry":{"x":169606.61000000127,"y":2545628.5200000014}},{"attributes":{"ID":374772,"DIS_CODE":0,"TOWNNAME":"北區","LI":"大道里","LIN":"10鄰","STREET":"北門路","SECT":"二段","MAREA":" ","LANE":"５２７巷","ALLEY":" ","HOUSE_NO":"１號十樓之３","E_COORD97":169606.60999999999,"N_COORD97":2545628.52,"ADDRESS":"北門路二段５２７巷１號十樓之３","OBJECTID":374762},"geometry":{"x":169606.61000000127,"y":2545628.5200000014}},{"attributes":{"ID":374773,"DIS_CODE":0,"TOWNNAME":"北區","LI":"大道里","LIN":"10鄰","STREET":"北門路","SECT":"二段","MAREA":" ","LANE":"５２７巷","ALLEY":" ","HOUSE_NO":"１號十樓之２","E_COORD97":169606.60999999999,"N_COORD97":2545628.52,"ADDRESS":"北門路二段５２７巷１號十樓之２","OBJECTID":374763},"geometry":{"x":169606.61000000127,"y":2545628.5200000014}},{"attributes":{"ID":374774,"DIS_CODE":0,"TOWNNAME":"北區","LI":"大道里","LIN":"10鄰","STREET":"北門路","SECT":"二段","MAREA":" ","LANE":"５２７巷","ALLEY":" ","HOUSE_NO":"１號十樓之１","E_COORD97":169606.60999999999,"N_COORD97":2545628.52,"ADDRESS":"北門路二段５２７巷１號十樓之１","OBJECTID":374764},"geometry":{"x":169606.61000000127,"y":2545628.5200000014}},{"attributes":{"ID":374775,"DIS_CODE":0,"TOWNNAME":"北區","LI":"大道里","LIN":"10鄰","STREET":"北門路","SECT":"二段","MAREA":" ","LANE":"５２７巷","ALLEY":" ","HOUSE_NO":"１號十樓之５","E_COORD97":169606.60999999999,"N_COORD97":2545628.52,"ADDRESS":"北門路二段５２７巷１號十樓之５","OBJECTID":374765},"geometry":{"x":169606.61000000127,"y":2545628.5200000014}},{"attributes":{"ID":374776,"DIS_CODE":0,"TOWNNAME":"北區","LI":"大道里","LIN":"10鄰","STREET":"北門路","SECT":"二段","MAREA":" ","LANE":"５２７巷","ALLEY":" ","HOUSE_NO":"１號十一樓之３","E_COORD97":169606.60999999999,"N_COORD97":2545628.52,"ADDRESS":"北門路二段５２７巷１號十一樓之３","OBJECTID":374766},"geometry":{"x":169606.61000000127,"y":2545628.5200000014}},{"attributes":{"ID":374777,"DIS_CODE":0,"TOWNNAME":"北區","LI":"大道里","LIN":"10鄰","STREET":"北門路","SECT":"二段","MAREA":" ","LANE":"５２７巷","ALLEY":" ","HOUSE_NO":"１號十一樓之２","E_COORD97":169606.60999999999,"N_COORD97":2545628.52,"ADDRESS":"北門路二段５２７巷１號十一樓之２","OBJECTID":374767},"geometry":{"x":169606.61000000127,"y":2545628.5200000014}},{"attributes":{"ID":374778,"DIS_CODE":0,"TOWNNAME":"北區","LI":"大道里","LIN":"10鄰","STREET":"北門路","SECT":"二段","MAREA":" ","LANE":"５２７巷","ALLEY":" ","HOUSE_NO":"１號十一樓之１","E_COORD97":169606.60999999999,"N_COORD97":2545628.52,"ADDRESS":"北門路二段５２７巷１號十一樓之１","OBJECTID":374768},"geometry":{"x":169606.61000000127,"y":2545628.5200000014}},{"attributes":{"ID":374779,"DIS_CODE":0,"TOWNNAME":"北區","LI":"大道里","LIN":"10鄰","STREET":"北門路","SECT":"二段","MAREA":" ","LANE":"５２７巷","ALLEY":" ","HOUSE_NO":"１號十一樓之５","E_COORD97":169606.60999999999,"N_COORD97":2545628.52,"ADDRESS":"北門路二段５２７巷１號十一樓之５","OBJECTID":374769},"geometry":{"x":169606.61000000127,"y":2545628.5200000014}},{"attributes":{"ID":374780,"DIS_CODE":0,"TOWNNAME":"北區","LI":"大道里","LIN":"10鄰","STREET":"北門路","SECT":"二段","MAREA":" ","LANE":"５２７巷","ALLEY":" ","HOUSE_NO":"５號三樓之１","E_COORD97":169612.04000000001,"N_COORD97":2545606.1200000001,"ADDRESS":"北門路二段５２７巷５號三樓之１","OBJECTID":374770},"geometry":{"x":169612.04000000097,"y":2545606.1200000029}},{"attributes":{"ID":374781,"DIS_CODE":0,"TOWNNAME":"北區","LI":"大道里","LIN":"10鄰","STREET":"北門路","SECT":"二段","MAREA":" ","LANE":"５２７巷","ALLEY":" ","HOUSE_NO":"５號三樓之２","E_COORD97":169612.04000000001,"N_COORD97":2545606.1200000001,"ADDRESS":"北門路二段５２７巷５號三樓之２","OBJECTID":374771},"geometry":{"x":169612.04000000097,"y":2545606.1200000029}},{"attributes":{"ID":374782,"DIS_CODE":0,"TOWNNAME":"北區","LI":"大道里","LIN":"10鄰","STREET":"北門路","SECT":"二段","MAREA":" ","LANE":"５２７巷","ALLEY":" ","HOUSE_NO":"５號四樓之１","E_COORD97":169612.04000000001,"N_COORD97":2545606.1200000001,"ADDRESS":"北門路二段５２７巷５號四樓之１","OBJECTID":374772},"geometry":{"x":169612.04000000097,"y":2545606.1200000029}},{"attributes":{"ID":374783,"DIS_CODE":0,"TOWNNAME":"北區","LI":"大道里","LIN":"10鄰","STREET":"北門路","SECT":"二段","MAREA":" ","LANE":"５２７巷","ALLEY":" ","HOUSE_NO":"５號四樓之２","E_COORD97":169612.04000000001,"N_COORD97":2545606.1200000001,"ADDRESS":"北門路二段５２７巷５號四樓之２","OBJECTID":374773},"geometry":{"x":169612.04000000097,"y":2545606.1200000029}},{"attributes":{"ID":374784,"DIS_CODE":0,"TOWNNAME":"北區","LI":"大道里","LIN":"10鄰","STREET":"北門路","SECT":"二段","MAREA":" ","LANE":"５２７巷","ALLEY":" ","HOUSE_NO":"５號五樓之１","E_COORD97":169612.04000000001,"N_COORD97":2545606.1200000001,"ADDRESS":"北門路二段５２７巷５號五樓之１","OBJECTID":374774},"geometry":{"x":169612.04000000097,"y":2545606.1200000029}},{"attributes":{"ID":374785,"DIS_CODE":0,"TOWNNAME":"北區","LI":"大道里","LIN":"10鄰","STREET":"北門路","SECT":"二段","MAREA":" ","LANE":"５２７巷","ALLEY":" ","HOUSE_NO":"５號五樓之２","E_COORD97":169612.04000000001,"N_COORD97":2545606.1200000001,"ADDRESS":"北門路二段５２７巷５號五樓之２","OBJECTID":374775},"geometry":{"x":169612.04000000097,"y":2545606.1200000029}},{"attributes":{"ID":374786,"DIS_CODE":0,"TOWNNAME":"北區","LI":"大道里","LIN":"10鄰","STREET":"北門路","SECT":"二段","MAREA":" ","LANE":"５２７巷","ALLEY":" ","HOUSE_NO":"５號六樓之１","E_COORD97":169612.04000000001,"N_COORD97":2545606.1200000001,"ADDRESS":"北門路二段５２７巷５號六樓之１","OBJECTID":374776},"geometry":{"x":169612.04000000097,"y":2545606.1200000029}},{"attributes":{"ID":374787,"DIS_CODE":0,"TOWNNAME":"北區","LI":"大道里","LIN":"10鄰","STREET":"北門路","SECT":"二段","MAREA":" ","LANE":"５２７巷","ALLEY":" ","HOUSE_NO":"５號六樓之２","E_COORD97":169612.04000000001,"N_COORD97":2545606.1200000001,"ADDRESS":"北門路二段５２７巷５號六樓之２","OBJECTID":374777},"geometry":{"x":169612.04000000097,"y":2545606.1200000029}},{"attributes":{"ID":374788,"DIS_CODE":0,"TOWNNAME":"安南區","LI":"安順里","LIN":"13鄰","STREET":"育安街","SECT":" ","MAREA":" ","LANE":" ","ALLEY":" ","HOUSE_NO":"２６２號","E_COORD97":169605.85999999999,"N_COORD97":2550110.79,"ADDRESS":"育安街２６２號","OBJECTID":374778},"geometry":{"x":169605.86000000034,"y":2550110.790000001}},{"attributes":{"ID":374789,"DIS_CODE":0,"TOWNNAME":"安平區","LI":"平安里","LIN":"9鄰","STREET":"安平路","SECT":" ","MAREA":" ","LANE":"４２６巷","ALLEY":" ","HOUSE_NO":"３２號之１","E_COORD97":165407.302027,"N_COORD97":2544399.3433699999,"ADDRESS":"安平路４２６巷３２號之１","OBJECTID":374779},"geometry":{"x":165407.30202700105,"y":2544399.3433680031}},{"attributes":{"ID":374790,"DIS_CODE":0,"TOWNNAME":"北區","LI":"大道里","LIN":"10鄰","STREET":"北門路","SECT":"二段","MAREA":" ","LANE":"５２７巷","ALLEY":" ","HOUSE_NO":"５號七樓之１","E_COORD97":169612.04000000001,"N_COORD97":2545606.1200000001,"ADDRESS":"北門路二段５２７巷５號七樓之１","OBJECTID":374780},"geometry":{"x":169612.04000000097,"y":2545606.1200000029}},{"attributes":{"ID":374791,"DIS_CODE":0,"TOWNNAME":"北區","LI":"大道里","LIN":"10鄰","STREET":"北門路","SECT":"二段","MAREA":" ","LANE":"５２７巷","ALLEY":" ","HOUSE_NO":"５號七樓之２","E_COORD97":169612.04000000001,"N_COORD97":2545606.1200000001,"ADDRESS":"北門路二段５２７巷５號七樓之２","OBJECTID":374781},"geometry":{"x":169612.04000000097,"y":2545606.1200000029}},{"attributes":{"ID":374792,"DIS_CODE":0,"TOWNNAME":"安南區","LI":"海東里","LIN":"24鄰","STREET":"同安路","SECT":" ","MAREA":" ","LANE":"２２５巷","ALLEY":" ","HOUSE_NO":"４９號","E_COORD97":167108.01000000001,"N_COORD97":2549227.1200000001,"ADDRESS":"同安路２２５巷４９號","OBJECTID":374782},"geometry":{"x":167108.01000000071,"y":2549227.120000001}},{"attributes":{"ID":374793,"DIS_CODE":0,"TOWNNAME":"安南區","LI":"海東里","LIN":"24鄰","STREET":"同安路","SECT":" ","MAREA":" ","LANE":"２２５巷","ALLEY":" ","HOUSE_NO":"５１號","E_COORD97":167103.26999999999,"N_COORD97":2549229.79,"ADDRESS":"同安路２２５巷５１號","OBJECTID":374783},"geometry":{"x":167103.26999999955,"y":2549229.790000001}},{"attributes":{"ID":374794,"DIS_CODE":0,"TOWNNAME":"安南區","LI":"海東里","LIN":"24鄰","STREET":"同安路","SECT":" ","MAREA":" ","LANE":"２２５巷","ALLEY":" ","HOUSE_NO":"５３號","E_COORD97":167099.53,"N_COORD97":2549231.8999999999,"ADDRESS":"同安路２２５巷５３號","OBJECTID":374784},"geometry":{"x":167099.52999999933,"y":2549231.9000000004}},{"attributes":{"ID":374795,"DIS_CODE":0,"TOWNNAME":"安南區","LI":"海東里","LIN":"24鄰","STREET":"同安路","SECT":" ","MAREA":" ","LANE":"２２５巷","ALLEY":" ","HOUSE_NO":"９號","E_COORD97":167143.03,"N_COORD97":2549206.4100000001,"ADDRESS":"同安路２２５巷９號","OBJECTID":374785},"geometry":{"x":167143.03000000026,"y":2549206.410000002}},{"attributes":{"ID":374796,"DIS_CODE":0,"TOWNNAME":"安南區","LI":"海東里","LIN":"24鄰","STREET":"同安路","SECT":" ","MAREA":" ","LANE":"２２５巷","ALLEY":" ","HOUSE_NO":"１１號","E_COORD97":167139.07000000001,"N_COORD97":2549208.6099999999,"ADDRESS":"同安路２２５巷１１號","OBJECTID":374786},"geometry":{"x":167139.07000000123,"y":2549208.6099999994}},{"attributes":{"ID":374797,"DIS_CODE":0,"TOWNNAME":"安南區","LI":"海東里","LIN":"24鄰","STREET":"同安路","SECT":" ","MAREA":" ","LANE":"２２５巷","ALLEY":" ","HOUSE_NO":"１５號","E_COORD97":167131.48000000001,"N_COORD97":2549213.1499999999,"ADDRESS":"同安路２２５巷１５號","OBJECTID":374787},"geometry":{"x":167131.48000000138,"y":2549213.1500000004}},{"attributes":{"ID":374798,"DIS_CODE":0,"TOWNNAME":"安南區","LI":"海東里","LIN":"24鄰","STREET":"同安路","SECT":" ","MAREA":" ","LANE":"２２５巷","ALLEY":" ","HOUSE_NO":"１７號","E_COORD97":167127.44,"N_COORD97":2549215.77,"ADDRESS":"同安路２２５巷１７號","OBJECTID":374788},"geometry":{"x":167127.43999999948,"y":2549215.7699999977}},{"attributes":{"ID":374799,"DIS_CODE":0,"TOWNNAME":"安南區","LI":"海東里","LIN":"24鄰","STREET":"同安路","SECT":" ","MAREA":" ","LANE":"２２５巷","ALLEY":" ","HOUSE_NO":"２１號","E_COORD97":167118.34,"N_COORD97":2549205.8700000001,"ADDRESS":"同安路２２５巷２１號","OBJECTID":374789},"geometry":{"x":167118.33999999985,"y":2549205.870000001}},{"attributes":{"ID":374800,"DIS_CODE":0,"TOWNNAME":"安南區","LI":"海東里","LIN":"24鄰","STREET":"同安路","SECT":" ","MAREA":" ","LANE":"２２５巷","ALLEY":" ","HOUSE_NO":"２３號","E_COORD97":167121.98000000001,"N_COORD97":2549203.6000000001,"ADDRESS":"同安路２２５巷２３號","OBJECTID":374790},"geometry":{"x":167121.98000000045,"y":2549203.6000000034}},{"attributes":{"ID":374801,"DIS_CODE":0,"TOWNNAME":"安南區","LI":"海東里","LIN":"24鄰","STREET":"同安路","SECT":" ","MAREA":" ","LANE":"２２５巷","ALLEY":" ","HOUSE_NO":"２５號","E_COORD97":167126.23999999999,"N_COORD97":2549200.8599999999,"ADDRESS":"同安路２２５巷２５號","OBJECTID":374791},"geometry":{"x":167126.24000000022,"y":2549200.8599999994}},{"attributes":{"ID":374802,"DIS_CODE":0,"TOWNNAME":"安南區","LI":"海東里","LIN":"24鄰","STREET":"同安路","SECT":" ","MAREA":" ","LANE":"２２５巷","ALLEY":" ","HOUSE_NO":"２７號","E_COORD97":167129.92000000001,"N_COORD97":2549198.6400000001,"ADDRESS":"同安路２２５巷２７號","OBJECTID":374792},"geometry":{"x":167129.91999999993,"y":2549198.6400000025}},{"attributes":{"ID":374803,"DIS_CODE":0,"TOWNNAME":"安南區","LI":"海東里","LIN":"24鄰","STREET":"同安路","SECT":" ","MAREA":" ","LANE":"２２５巷","ALLEY":" ","HOUSE_NO":"２９號","E_COORD97":167122.35999999999,"N_COORD97":2549184.9500000002,"ADDRESS":"同安路２２５巷２９號","OBJECTID":374793},"geometry":{"x":167122.36000000034,"y":2549184.9500000011}},{"attributes":{"ID":374804,"DIS_CODE":0,"TOWNNAME":"安南區","LI":"海東里","LIN":"24鄰","STREET":"同安路","SECT":" ","MAREA":" ","LANE":"２２５巷","ALLEY":" ","HOUSE_NO":"３１號","E_COORD97":167118.38,"N_COORD97":2549186.8399999999,"ADDRESS":"同安路２２５巷３１號","OBJECTID":374794},"geometry":{"x":167118.37999999989,"y":2549186.8400000017}},{"attributes":{"ID":374805,"DIS_CODE":0,"TOWNNAME":"北區","LI":"大道里","LIN":"10鄰","STREET":"北門路","SECT":"二段","MAREA":" ","LANE":"５２７巷","ALLEY":" ","HOUSE_NO":"５號八樓之１","E_COORD97":169612.04000000001,"N_COORD97":2545606.1200000001,"ADDRESS":"北門路二段５２７巷５號八樓之１","OBJECTID":374795},"geometry":{"x":169612.04000000097,"y":2545606.1200000029}},{"attributes":{"ID":374806,"DIS_CODE":0,"TOWNNAME":"北區","LI":"大道里","LIN":"10鄰","STREET":"北門路","SECT":"二段","MAREA":" ","LANE":"５２７巷","ALLEY":" ","HOUSE_NO":"５號八樓之２","E_COORD97":169612.04000000001,"N_COORD97":2545606.1200000001,"ADDRESS":"北門路二段５２７巷５號八樓之２","OBJECTID":374796},"geometry":{"x":169612.04000000097,"y":2545606.1200000029}},{"attributes":{"ID":374807,"DIS_CODE":0,"TOWNNAME":"安南區","LI":"海東里","LIN":"24鄰","STREET":"同安路","SECT":" ","MAREA":" ","LANE":"２２５巷","ALLEY":" ","HOUSE_NO":"３７號","E_COORD97":167107.10000000001,"N_COORD97":2549195.9100000001,"ADDRESS":"同安路２２５巷３７號","OBJECTID":374797},"geometry":{"x":167107.10000000149,"y":2549195.910000002}},{"attributes":{"ID":374808,"DIS_CODE":0,"TOWNNAME":"安南區","LI":"海東里","LIN":"24鄰","STREET":"同安路","SECT":" ","MAREA":" ","LANE":"２２５巷","ALLEY":" ","HOUSE_NO":"３９號","E_COORD97":167103.81,"N_COORD97":2549198.6899999999,"ADDRESS":"同安路２２５巷３９號","OBJECTID":374798},"geometry":{"x":167103.81000000145,"y":2549198.6899999995}},{"attributes":{"ID":374809,"DIS_CODE":0,"TOWNNAME":"安南區","LI":"海東里","LIN":"24鄰","STREET":"同安路","SECT":" ","MAREA":" ","LANE":"２２５巷","ALLEY":" ","HOUSE_NO":"４５號","E_COORD97":167091.97,"N_COORD97":2549221.1099999999,"ADDRESS":"同安路２２５巷４５號","OBJECTID":374799},"geometry":{"x":167091.96999999974,"y":2549221.1100000013}},{"attributes":{"ID":374810,"DIS_CODE":0,"TOWNNAME":"安南區","LI":"學東里","LIN":"7鄰","STREET":"公學路","SECT":"六段","MAREA":" ","LANE":"４６９巷","ALLEY":" ","HOUSE_NO":"１９號","E_COORD97":162697.42000000001,"N_COORD97":2553135.1499999999,"ADDRESS":"公學路六段４６９巷１９號","OBJECTID":374800},"geometry":{"x":162697.41999999993,"y":2553135.1500000022}}]}