{"displayFieldName":"TOWNNAME","fieldAliases":{"ID":"ID","DIS_CODE":"DIS_CODE","TOWNNAME":"TOWNNAME","LI":"LI","LIN":"LIN","STREET":"STREET","SECT":"SECT","MAREA":"MAREA","LANE":"LANE","ALLEY":"ALLEY","HOUSE_NO":"HOUSE_NO","E_COORD97":"E_COORD97","N_COORD97":"N_COORD97","ADDRESS":"ADDRESS","OBJECTID":"OBJECTID"},"geometryType":"esriGeometryPoint","spatialReference":{"wkid":102443,"latestWkid":3826},"fields":[{"name":"ID","type":"esriFieldTypeDouble","alias":"ID"},{"name":"DIS_CODE","type":"esriFieldTypeInteger","alias":"DIS_CODE"},{"name":"TOWNNAME","type":"esriFieldTypeString","alias":"TOWNNAME","length":8},{"name":"LI","type":"esriFieldTypeString","alias":"LI","length":8},{"name":"LIN","type":"esriFieldTypeString","alias":"LIN","length":12},{"name":"STREET","type":"esriFieldTypeString","alias":"STREET","length":20},{"name":"SECT","type":"esriFieldTypeString","alias":"SECT","length":8},{"name":"MAREA","type":"esriFieldTypeString","alias":"MAREA","length":12},{"name":"LANE","type":"esriFieldTypeString","alias":"LANE","length":10},{"name":"ALLEY","type":"esriFieldTypeString","alias":"ALLEY","length":10},{"name":"HOUSE_NO","type":"esriFieldTypeString","alias":"HOUSE_NO","length":20},{"name":"E_COORD97","type":"esriFieldTypeDouble","alias":"E_COORD97"},{"name":"N_COORD97","type":"esriFieldTypeDouble","alias":"N_COORD97"},{"name":"ADDRESS","type":"esriFieldTypeString","alias":"ADDRESS","length":50},{"name":"OBJECTID","type":"esriFieldTypeOID","alias":"OBJECTID"}],"features":[{"attributes":{"ID":569228,"DIS_CODE":0,"TOWNNAME":"安平區","LI":"建平里","LIN":"28鄰","STREET":"永華路","SECT":"二段","MAREA":" ","LANE":" ","ALLEY":" ","HOUSE_NO":"２４８號十四樓之１","E_COORD97":165931.70999999999,"N_COORD97":2543434.98,"ADDRESS":"永華路二段２４８號十四樓之１","OBJECTID":569201},"geometry":{"x":165931.70999999903,"y":2543434.9800000042}},{"attributes":{"ID":569229,"DIS_CODE":0,"TOWNNAME":"安平區","LI":"建平里","LIN":"28鄰","STREET":"建平八街","SECT":" ","MAREA":" ","LANE":" ","ALLEY":" ","HOUSE_NO":"７２號六樓之５","E_COORD97":165940.76000000001,"N_COORD97":2543496.8300000001,"ADDRESS":"建平八街７２號六樓之５","OBJECTID":569202},"geometry":{"x":165940.75999999978,"y":2543496.8300000038}},{"attributes":{"ID":569230,"DIS_CODE":0,"TOWNNAME":"安平區","LI":"建平里","LIN":"28鄰","STREET":"永華路","SECT":"二段","MAREA":" ","LANE":" ","ALLEY":" ","HOUSE_NO":"２４８號十四樓之２","E_COORD97":165931.70999999999,"N_COORD97":2543434.98,"ADDRESS":"永華路二段２４８號十四樓之２","OBJECTID":569203},"geometry":{"x":165931.70999999903,"y":2543434.9800000042}},{"attributes":{"ID":569231,"DIS_CODE":0,"TOWNNAME":"安平區","LI":"建平里","LIN":"28鄰","STREET":"永華路","SECT":"二段","MAREA":" ","LANE":" ","ALLEY":" ","HOUSE_NO":"２４８號十四樓之３","E_COORD97":165931.70999999999,"N_COORD97":2543434.98,"ADDRESS":"永華路二段２４８號十四樓之３","OBJECTID":569204},"geometry":{"x":165931.70999999903,"y":2543434.9800000042}},{"attributes":{"ID":569232,"DIS_CODE":0,"TOWNNAME":"安平區","LI":"建平里","LIN":"28鄰","STREET":"永華路","SECT":"二段","MAREA":" ","LANE":" ","ALLEY":" ","HOUSE_NO":"２４８號十四樓之４","E_COORD97":165931.70999999999,"N_COORD97":2543434.98,"ADDRESS":"永華路二段２４８號十四樓之４","OBJECTID":569205},"geometry":{"x":165931.70999999903,"y":2543434.9800000042}},{"attributes":{"ID":569233,"DIS_CODE":0,"TOWNNAME":"安平區","LI":"建平里","LIN":"28鄰","STREET":"永華路","SECT":"二段","MAREA":" ","LANE":" ","ALLEY":" ","HOUSE_NO":"２４８號十四樓之５","E_COORD97":165931.70999999999,"N_COORD97":2543434.98,"ADDRESS":"永華路二段２４８號十四樓之５","OBJECTID":569206},"geometry":{"x":165931.70999999903,"y":2543434.9800000042}},{"attributes":{"ID":569234,"DIS_CODE":0,"TOWNNAME":"安平區","LI":"建平里","LIN":"28鄰","STREET":"永華路","SECT":"二段","MAREA":" ","LANE":" ","ALLEY":" ","HOUSE_NO":"２４８號十四樓之６","E_COORD97":165931.70999999999,"N_COORD97":2543434.98,"ADDRESS":"永華路二段２４８號十四樓之６","OBJECTID":569207},"geometry":{"x":165931.70999999903,"y":2543434.9800000042}},{"attributes":{"ID":569235,"DIS_CODE":0,"TOWNNAME":"安平區","LI":"建平里","LIN":"28鄰","STREET":"永華路","SECT":"二段","MAREA":" ","LANE":" ","ALLEY":" ","HOUSE_NO":"２４８號十四樓之７","E_COORD97":165931.70999999999,"N_COORD97":2543434.98,"ADDRESS":"永華路二段２４８號十四樓之７","OBJECTID":569208},"geometry":{"x":165931.70999999903,"y":2543434.9800000042}},{"attributes":{"ID":569236,"DIS_CODE":0,"TOWNNAME":"安平區","LI":"建平里","LIN":"28鄰","STREET":"永華路","SECT":"二段","MAREA":" ","LANE":" ","ALLEY":" ","HOUSE_NO":"２４８號十樓之１","E_COORD97":165931.70999999999,"N_COORD97":2543434.98,"ADDRESS":"永華路二段２４８號十樓之１","OBJECTID":569209},"geometry":{"x":165931.70999999903,"y":2543434.9800000042}},{"attributes":{"ID":569237,"DIS_CODE":0,"TOWNNAME":"安平區","LI":"建平里","LIN":"28鄰","STREET":"永華路","SECT":"二段","MAREA":" ","LANE":" ","ALLEY":" ","HOUSE_NO":"２４８號十樓之２","E_COORD97":165931.70999999999,"N_COORD97":2543434.98,"ADDRESS":"永華路二段２４８號十樓之２","OBJECTID":569210},"geometry":{"x":165931.70999999903,"y":2543434.9800000042}},{"attributes":{"ID":569238,"DIS_CODE":0,"TOWNNAME":"安平區","LI":"建平里","LIN":"28鄰","STREET":"永華路","SECT":"二段","MAREA":" ","LANE":" ","ALLEY":" ","HOUSE_NO":"２４８號十樓之３","E_COORD97":165931.70999999999,"N_COORD97":2543434.98,"ADDRESS":"永華路二段２４８號十樓之３","OBJECTID":569211},"geometry":{"x":165931.70999999903,"y":2543434.9800000042}},{"attributes":{"ID":569239,"DIS_CODE":0,"TOWNNAME":"安平區","LI":"建平里","LIN":"28鄰","STREET":"永華路","SECT":"二段","MAREA":" ","LANE":" ","ALLEY":" ","HOUSE_NO":"２４８號十樓之４","E_COORD97":165931.70999999999,"N_COORD97":2543434.98,"ADDRESS":"永華路二段２４８號十樓之４","OBJECTID":569212},"geometry":{"x":165931.70999999903,"y":2543434.9800000042}},{"attributes":{"ID":569240,"DIS_CODE":0,"TOWNNAME":"安平區","LI":"建平里","LIN":"28鄰","STREET":"永華路","SECT":"二段","MAREA":" ","LANE":" ","ALLEY":" ","HOUSE_NO":"２４８號十樓之５","E_COORD97":165931.70999999999,"N_COORD97":2543434.98,"ADDRESS":"永華路二段２４８號十樓之５","OBJECTID":569213},"geometry":{"x":165931.70999999903,"y":2543434.9800000042}},{"attributes":{"ID":569241,"DIS_CODE":0,"TOWNNAME":"安平區","LI":"建平里","LIN":"28鄰","STREET":"永華路","SECT":"二段","MAREA":" ","LANE":" ","ALLEY":" ","HOUSE_NO":"２４８號十樓之６","E_COORD97":165931.70999999999,"N_COORD97":2543434.98,"ADDRESS":"永華路二段２４８號十樓之６","OBJECTID":569214},"geometry":{"x":165931.70999999903,"y":2543434.9800000042}},{"attributes":{"ID":569242,"DIS_CODE":0,"TOWNNAME":"安平區","LI":"建平里","LIN":"28鄰","STREET":"永華路","SECT":"二段","MAREA":" ","LANE":" ","ALLEY":" ","HOUSE_NO":"２５０號一樓之１","E_COORD97":165918.16,"N_COORD97":2543437.2999999998,"ADDRESS":"永華路二段２５０號一樓之１","OBJECTID":569215},"geometry":{"x":165918.16000000015,"y":2543437.3000000026}},{"attributes":{"ID":569243,"DIS_CODE":0,"TOWNNAME":"安平區","LI":"建平里","LIN":"28鄰","STREET":"永華路","SECT":"二段","MAREA":" ","LANE":" ","ALLEY":" ","HOUSE_NO":"２５０號一樓之１０","E_COORD97":165918.16,"N_COORD97":2543437.2999999998,"ADDRESS":"永華路二段２５０號一樓之１０","OBJECTID":569216},"geometry":{"x":165918.16000000015,"y":2543437.3000000026}},{"attributes":{"ID":569244,"DIS_CODE":0,"TOWNNAME":"安平區","LI":"建平里","LIN":"28鄰","STREET":"永華路","SECT":"二段","MAREA":" ","LANE":" ","ALLEY":" ","HOUSE_NO":"２５０號一樓之１１","E_COORD97":165918.16,"N_COORD97":2543437.2999999998,"ADDRESS":"永華路二段２５０號一樓之１１","OBJECTID":569217},"geometry":{"x":165918.16000000015,"y":2543437.3000000026}},{"attributes":{"ID":569245,"DIS_CODE":0,"TOWNNAME":"安平區","LI":"建平里","LIN":"28鄰","STREET":"永華路","SECT":"二段","MAREA":" ","LANE":" ","ALLEY":" ","HOUSE_NO":"２５０號一樓之１２","E_COORD97":165918.16,"N_COORD97":2543437.2999999998,"ADDRESS":"永華路二段２５０號一樓之１２","OBJECTID":569218},"geometry":{"x":165918.16000000015,"y":2543437.3000000026}},{"attributes":{"ID":569246,"DIS_CODE":0,"TOWNNAME":"安平區","LI":"建平里","LIN":"28鄰","STREET":"永華路","SECT":"二段","MAREA":" ","LANE":" ","ALLEY":" ","HOUSE_NO":"２５０號一樓之１３","E_COORD97":165918.16,"N_COORD97":2543437.2999999998,"ADDRESS":"永華路二段２５０號一樓之１３","OBJECTID":569219},"geometry":{"x":165918.16000000015,"y":2543437.3000000026}},{"attributes":{"ID":569247,"DIS_CODE":0,"TOWNNAME":"安平區","LI":"建平里","LIN":"28鄰","STREET":"永華路","SECT":"二段","MAREA":" ","LANE":" ","ALLEY":" ","HOUSE_NO":"２５０號一樓之１４","E_COORD97":165918.16,"N_COORD97":2543437.2999999998,"ADDRESS":"永華路二段２５０號一樓之１４","OBJECTID":569220},"geometry":{"x":165918.16000000015,"y":2543437.3000000026}},{"attributes":{"ID":569248,"DIS_CODE":0,"TOWNNAME":"安平區","LI":"建平里","LIN":"28鄰","STREET":"永華路","SECT":"二段","MAREA":" ","LANE":" ","ALLEY":" ","HOUSE_NO":"２５０號一樓之１５","E_COORD97":165918.16,"N_COORD97":2543437.2999999998,"ADDRESS":"永華路二段２５０號一樓之１５","OBJECTID":569221},"geometry":{"x":165918.16000000015,"y":2543437.3000000026}},{"attributes":{"ID":569249,"DIS_CODE":0,"TOWNNAME":"安平區","LI":"建平里","LIN":"28鄰","STREET":"永華路","SECT":"二段","MAREA":" ","LANE":" ","ALLEY":" ","HOUSE_NO":"２５０號一樓之１６","E_COORD97":165918.16,"N_COORD97":2543437.2999999998,"ADDRESS":"永華路二段２５０號一樓之１６","OBJECTID":569222},"geometry":{"x":165918.16000000015,"y":2543437.3000000026}},{"attributes":{"ID":569250,"DIS_CODE":0,"TOWNNAME":"安平區","LI":"建平里","LIN":"28鄰","STREET":"永華路","SECT":"二段","MAREA":" ","LANE":" ","ALLEY":" ","HOUSE_NO":"２５０號一樓之１７","E_COORD97":165918.16,"N_COORD97":2543437.2999999998,"ADDRESS":"永華路二段２５０號一樓之１７","OBJECTID":569223},"geometry":{"x":165918.16000000015,"y":2543437.3000000026}},{"attributes":{"ID":569251,"DIS_CODE":0,"TOWNNAME":"安平區","LI":"建平里","LIN":"28鄰","STREET":"永華路","SECT":"二段","MAREA":" ","LANE":" ","ALLEY":" ","HOUSE_NO":"２５０號一樓之１８","E_COORD97":165918.16,"N_COORD97":2543437.2999999998,"ADDRESS":"永華路二段２５０號一樓之１８","OBJECTID":569224},"geometry":{"x":165918.16000000015,"y":2543437.3000000026}},{"attributes":{"ID":569252,"DIS_CODE":0,"TOWNNAME":"安平區","LI":"建平里","LIN":"28鄰","STREET":"永華路","SECT":"二段","MAREA":" ","LANE":" ","ALLEY":" ","HOUSE_NO":"２５０號一樓之１９","E_COORD97":165918.16,"N_COORD97":2543437.2999999998,"ADDRESS":"永華路二段２５０號一樓之１９","OBJECTID":569225},"geometry":{"x":165918.16000000015,"y":2543437.3000000026}},{"attributes":{"ID":569253,"DIS_CODE":0,"TOWNNAME":"安平區","LI":"建平里","LIN":"28鄰","STREET":"永華路","SECT":"二段","MAREA":" ","LANE":" ","ALLEY":" ","HOUSE_NO":"２５０號一樓之２","E_COORD97":165918.16,"N_COORD97":2543437.2999999998,"ADDRESS":"永華路二段２５０號一樓之２","OBJECTID":569226},"geometry":{"x":165918.16000000015,"y":2543437.3000000026}},{"attributes":{"ID":569254,"DIS_CODE":0,"TOWNNAME":"安平區","LI":"建平里","LIN":"28鄰","STREET":"永華路","SECT":"二段","MAREA":" ","LANE":" ","ALLEY":" ","HOUSE_NO":"２５０號一樓之２０","E_COORD97":165918.16,"N_COORD97":2543437.2999999998,"ADDRESS":"永華路二段２５０號一樓之２０","OBJECTID":569227},"geometry":{"x":165918.16000000015,"y":2543437.3000000026}},{"attributes":{"ID":569255,"DIS_CODE":0,"TOWNNAME":"安平區","LI":"建平里","LIN":"28鄰","STREET":"永華路","SECT":"二段","MAREA":" ","LANE":" ","ALLEY":" ","HOUSE_NO":"２５０號一樓之２１","E_COORD97":165918.16,"N_COORD97":2543437.2999999998,"ADDRESS":"永華路二段２５０號一樓之２１","OBJECTID":569228},"geometry":{"x":165918.16000000015,"y":2543437.3000000026}},{"attributes":{"ID":569256,"DIS_CODE":0,"TOWNNAME":"安平區","LI":"建平里","LIN":"28鄰","STREET":"永華路","SECT":"二段","MAREA":" ","LANE":" ","ALLEY":" ","HOUSE_NO":"２５０號一樓之２２","E_COORD97":165918.16,"N_COORD97":2543437.2999999998,"ADDRESS":"永華路二段２５０號一樓之２２","OBJECTID":569229},"geometry":{"x":165918.16000000015,"y":2543437.3000000026}},{"attributes":{"ID":569257,"DIS_CODE":0,"TOWNNAME":"安平區","LI":"建平里","LIN":"28鄰","STREET":"永華路","SECT":"二段","MAREA":" ","LANE":" ","ALLEY":" ","HOUSE_NO":"２５０號一樓之２３","E_COORD97":165918.16,"N_COORD97":2543437.2999999998,"ADDRESS":"永華路二段２５０號一樓之２３","OBJECTID":569230},"geometry":{"x":165918.16000000015,"y":2543437.3000000026}},{"attributes":{"ID":569258,"DIS_CODE":0,"TOWNNAME":"安平區","LI":"建平里","LIN":"28鄰","STREET":"永華路","SECT":"二段","MAREA":" ","LANE":" ","ALLEY":" ","HOUSE_NO":"２５０號一樓之２４","E_COORD97":165918.16,"N_COORD97":2543437.2999999998,"ADDRESS":"永華路二段２５０號一樓之２４","OBJECTID":569231},"geometry":{"x":165918.16000000015,"y":2543437.3000000026}},{"attributes":{"ID":569259,"DIS_CODE":0,"TOWNNAME":"安平區","LI":"建平里","LIN":"28鄰","STREET":"永華路","SECT":"二段","MAREA":" ","LANE":" ","ALLEY":" ","HOUSE_NO":"２５０號一樓之２５","E_COORD97":165918.16,"N_COORD97":2543437.2999999998,"ADDRESS":"永華路二段２５０號一樓之２５","OBJECTID":569232},"geometry":{"x":165918.16000000015,"y":2543437.3000000026}},{"attributes":{"ID":569260,"DIS_CODE":0,"TOWNNAME":"安平區","LI":"建平里","LIN":"28鄰","STREET":"永華路","SECT":"二段","MAREA":" ","LANE":" ","ALLEY":" ","HOUSE_NO":"２５０號一樓之２６","E_COORD97":165918.16,"N_COORD97":2543437.2999999998,"ADDRESS":"永華路二段２５０號一樓之２６","OBJECTID":569233},"geometry":{"x":165918.16000000015,"y":2543437.3000000026}},{"attributes":{"ID":569261,"DIS_CODE":0,"TOWNNAME":"安平區","LI":"建平里","LIN":"28鄰","STREET":"永華路","SECT":"二段","MAREA":" ","LANE":" ","ALLEY":" ","HOUSE_NO":"２５０號一樓之３","E_COORD97":165918.16,"N_COORD97":2543437.2999999998,"ADDRESS":"永華路二段２５０號一樓之３","OBJECTID":569234},"geometry":{"x":165918.16000000015,"y":2543437.3000000026}},{"attributes":{"ID":569262,"DIS_CODE":0,"TOWNNAME":"安平區","LI":"建平里","LIN":"28鄰","STREET":"永華路","SECT":"二段","MAREA":" ","LANE":" ","ALLEY":" ","HOUSE_NO":"２５０號一樓之４","E_COORD97":165918.16,"N_COORD97":2543437.2999999998,"ADDRESS":"永華路二段２５０號一樓之４","OBJECTID":569235},"geometry":{"x":165918.16000000015,"y":2543437.3000000026}},{"attributes":{"ID":569263,"DIS_CODE":0,"TOWNNAME":"安平區","LI":"建平里","LIN":"28鄰","STREET":"永華路","SECT":"二段","MAREA":" ","LANE":" ","ALLEY":" ","HOUSE_NO":"２５０號一樓之５","E_COORD97":165918.16,"N_COORD97":2543437.2999999998,"ADDRESS":"永華路二段２５０號一樓之５","OBJECTID":569236},"geometry":{"x":165918.16000000015,"y":2543437.3000000026}},{"attributes":{"ID":569264,"DIS_CODE":0,"TOWNNAME":"安平區","LI":"建平里","LIN":"28鄰","STREET":"永華路","SECT":"二段","MAREA":" ","LANE":" ","ALLEY":" ","HOUSE_NO":"２５０號一樓之６","E_COORD97":165918.16,"N_COORD97":2543437.2999999998,"ADDRESS":"永華路二段２５０號一樓之６","OBJECTID":569237},"geometry":{"x":165918.16000000015,"y":2543437.3000000026}},{"attributes":{"ID":569265,"DIS_CODE":0,"TOWNNAME":"安平區","LI":"建平里","LIN":"28鄰","STREET":"永華路","SECT":"二段","MAREA":" ","LANE":" ","ALLEY":" ","HOUSE_NO":"２５０號一樓之７","E_COORD97":165918.16,"N_COORD97":2543437.2999999998,"ADDRESS":"永華路二段２５０號一樓之７","OBJECTID":569238},"geometry":{"x":165918.16000000015,"y":2543437.3000000026}},{"attributes":{"ID":569266,"DIS_CODE":0,"TOWNNAME":"安平區","LI":"建平里","LIN":"28鄰","STREET":"永華路","SECT":"二段","MAREA":" ","LANE":" ","ALLEY":" ","HOUSE_NO":"２５０號一樓之８","E_COORD97":165918.16,"N_COORD97":2543437.2999999998,"ADDRESS":"永華路二段２５０號一樓之８","OBJECTID":569239},"geometry":{"x":165918.16000000015,"y":2543437.3000000026}},{"attributes":{"ID":569267,"DIS_CODE":0,"TOWNNAME":"安平區","LI":"建平里","LIN":"28鄰","STREET":"永華路","SECT":"二段","MAREA":" ","LANE":" ","ALLEY":" ","HOUSE_NO":"２５０號一樓之９","E_COORD97":165918.16,"N_COORD97":2543437.2999999998,"ADDRESS":"永華路二段２５０號一樓之９","OBJECTID":569240},"geometry":{"x":165918.16000000015,"y":2543437.3000000026}},{"attributes":{"ID":569268,"DIS_CODE":0,"TOWNNAME":"安平區","LI":"建平里","LIN":"28鄰","STREET":"永華路","SECT":"二段","MAREA":" ","LANE":" ","ALLEY":" ","HOUSE_NO":"２５０號二樓之１","E_COORD97":165918.16,"N_COORD97":2543437.2999999998,"ADDRESS":"永華路二段２５０號二樓之１","OBJECTID":569241},"geometry":{"x":165918.16000000015,"y":2543437.3000000026}},{"attributes":{"ID":569269,"DIS_CODE":0,"TOWNNAME":"安平區","LI":"建平里","LIN":"28鄰","STREET":"永華路","SECT":"二段","MAREA":" ","LANE":" ","ALLEY":" ","HOUSE_NO":"２５０號二樓之１０","E_COORD97":165918.16,"N_COORD97":2543437.2999999998,"ADDRESS":"永華路二段２５０號二樓之１０","OBJECTID":569242},"geometry":{"x":165918.16000000015,"y":2543437.3000000026}},{"attributes":{"ID":569270,"DIS_CODE":0,"TOWNNAME":"安平區","LI":"建平里","LIN":"28鄰","STREET":"永華路","SECT":"二段","MAREA":" ","LANE":" ","ALLEY":" ","HOUSE_NO":"２５０號二樓之１１","E_COORD97":165918.16,"N_COORD97":2543437.2999999998,"ADDRESS":"永華路二段２５０號二樓之１１","OBJECTID":569243},"geometry":{"x":165918.16000000015,"y":2543437.3000000026}},{"attributes":{"ID":569271,"DIS_CODE":0,"TOWNNAME":"安平區","LI":"建平里","LIN":"28鄰","STREET":"永華路","SECT":"二段","MAREA":" ","LANE":" ","ALLEY":" ","HOUSE_NO":"２５０號二樓之１２","E_COORD97":165918.16,"N_COORD97":2543437.2999999998,"ADDRESS":"永華路二段２５０號二樓之１２","OBJECTID":569244},"geometry":{"x":165918.16000000015,"y":2543437.3000000026}},{"attributes":{"ID":569272,"DIS_CODE":0,"TOWNNAME":"安平區","LI":"建平里","LIN":"28鄰","STREET":"永華路","SECT":"二段","MAREA":" ","LANE":" ","ALLEY":" ","HOUSE_NO":"２５０號二樓之１３","E_COORD97":165918.16,"N_COORD97":2543437.2999999998,"ADDRESS":"永華路二段２５０號二樓之１３","OBJECTID":569245},"geometry":{"x":165918.16000000015,"y":2543437.3000000026}},{"attributes":{"ID":569273,"DIS_CODE":0,"TOWNNAME":"安平區","LI":"建平里","LIN":"28鄰","STREET":"永華路","SECT":"二段","MAREA":" ","LANE":" ","ALLEY":" ","HOUSE_NO":"２５０號二樓之１４","E_COORD97":165918.16,"N_COORD97":2543437.2999999998,"ADDRESS":"永華路二段２５０號二樓之１４","OBJECTID":569246},"geometry":{"x":165918.16000000015,"y":2543437.3000000026}},{"attributes":{"ID":569274,"DIS_CODE":0,"TOWNNAME":"安平區","LI":"建平里","LIN":"28鄰","STREET":"永華路","SECT":"二段","MAREA":" ","LANE":" ","ALLEY":" ","HOUSE_NO":"２５０號二樓之１５","E_COORD97":165918.16,"N_COORD97":2543437.2999999998,"ADDRESS":"永華路二段２５０號二樓之１５","OBJECTID":569247},"geometry":{"x":165918.16000000015,"y":2543437.3000000026}},{"attributes":{"ID":569275,"DIS_CODE":0,"TOWNNAME":"安平區","LI":"建平里","LIN":"28鄰","STREET":"永華路","SECT":"二段","MAREA":" ","LANE":" ","ALLEY":" ","HOUSE_NO":"２５０號二樓之１６","E_COORD97":165918.16,"N_COORD97":2543437.2999999998,"ADDRESS":"永華路二段２５０號二樓之１６","OBJECTID":569248},"geometry":{"x":165918.16000000015,"y":2543437.3000000026}},{"attributes":{"ID":569276,"DIS_CODE":0,"TOWNNAME":"安平區","LI":"建平里","LIN":"28鄰","STREET":"永華路","SECT":"二段","MAREA":" ","LANE":" ","ALLEY":" ","HOUSE_NO":"２５０號二樓之１７","E_COORD97":165918.16,"N_COORD97":2543437.2999999998,"ADDRESS":"永華路二段２５０號二樓之１７","OBJECTID":569249},"geometry":{"x":165918.16000000015,"y":2543437.3000000026}},{"attributes":{"ID":569277,"DIS_CODE":0,"TOWNNAME":"安平區","LI":"建平里","LIN":"28鄰","STREET":"永華路","SECT":"二段","MAREA":" ","LANE":" ","ALLEY":" ","HOUSE_NO":"２５０號二樓之１８","E_COORD97":165918.16,"N_COORD97":2543437.2999999998,"ADDRESS":"永華路二段２５０號二樓之１８","OBJECTID":569250},"geometry":{"x":165918.16000000015,"y":2543437.3000000026}},{"attributes":{"ID":569278,"DIS_CODE":0,"TOWNNAME":"安平區","LI":"建平里","LIN":"28鄰","STREET":"永華路","SECT":"二段","MAREA":" ","LANE":" ","ALLEY":" ","HOUSE_NO":"２５０號二樓之１９","E_COORD97":165918.16,"N_COORD97":2543437.2999999998,"ADDRESS":"永華路二段２５０號二樓之１９","OBJECTID":569251},"geometry":{"x":165918.16000000015,"y":2543437.3000000026}},{"attributes":{"ID":569279,"DIS_CODE":0,"TOWNNAME":"安平區","LI":"建平里","LIN":"28鄰","STREET":"永華路","SECT":"二段","MAREA":" ","LANE":" ","ALLEY":" ","HOUSE_NO":"２５０號二樓之２","E_COORD97":165918.16,"N_COORD97":2543437.2999999998,"ADDRESS":"永華路二段２５０號二樓之２","OBJECTID":569252},"geometry":{"x":165918.16000000015,"y":2543437.3000000026}},{"attributes":{"ID":569280,"DIS_CODE":0,"TOWNNAME":"安平區","LI":"建平里","LIN":"28鄰","STREET":"永華路","SECT":"二段","MAREA":" ","LANE":" ","ALLEY":" ","HOUSE_NO":"２５０號二樓之２０","E_COORD97":165918.16,"N_COORD97":2543437.2999999998,"ADDRESS":"永華路二段２５０號二樓之２０","OBJECTID":569253},"geometry":{"x":165918.16000000015,"y":2543437.3000000026}},{"attributes":{"ID":569281,"DIS_CODE":0,"TOWNNAME":"安平區","LI":"建平里","LIN":"28鄰","STREET":"永華路","SECT":"二段","MAREA":" ","LANE":" ","ALLEY":" ","HOUSE_NO":"２５０號二樓之２１","E_COORD97":165918.16,"N_COORD97":2543437.2999999998,"ADDRESS":"永華路二段２５０號二樓之２１","OBJECTID":569254},"geometry":{"x":165918.16000000015,"y":2543437.3000000026}},{"attributes":{"ID":569282,"DIS_CODE":0,"TOWNNAME":"安平區","LI":"建平里","LIN":"28鄰","STREET":"永華路","SECT":"二段","MAREA":" ","LANE":" ","ALLEY":" ","HOUSE_NO":"２５０號二樓之２２","E_COORD97":165918.16,"N_COORD97":2543437.2999999998,"ADDRESS":"永華路二段２５０號二樓之２２","OBJECTID":569255},"geometry":{"x":165918.16000000015,"y":2543437.3000000026}},{"attributes":{"ID":569283,"DIS_CODE":0,"TOWNNAME":"安平區","LI":"建平里","LIN":"28鄰","STREET":"永華路","SECT":"二段","MAREA":" ","LANE":" ","ALLEY":" ","HOUSE_NO":"２５０號二樓之２３","E_COORD97":165918.16,"N_COORD97":2543437.2999999998,"ADDRESS":"永華路二段２５０號二樓之２３","OBJECTID":569256},"geometry":{"x":165918.16000000015,"y":2543437.3000000026}},{"attributes":{"ID":569284,"DIS_CODE":0,"TOWNNAME":"安平區","LI":"建平里","LIN":"28鄰","STREET":"永華路","SECT":"二段","MAREA":" ","LANE":" ","ALLEY":" ","HOUSE_NO":"２５０號二樓之２４","E_COORD97":165918.16,"N_COORD97":2543437.2999999998,"ADDRESS":"永華路二段２５０號二樓之２４","OBJECTID":569257},"geometry":{"x":165918.16000000015,"y":2543437.3000000026}},{"attributes":{"ID":569285,"DIS_CODE":0,"TOWNNAME":"安平區","LI":"建平里","LIN":"28鄰","STREET":"永華路","SECT":"二段","MAREA":" ","LANE":" ","ALLEY":" ","HOUSE_NO":"２５０號二樓之２５","E_COORD97":165918.16,"N_COORD97":2543437.2999999998,"ADDRESS":"永華路二段２５０號二樓之２５","OBJECTID":569258},"geometry":{"x":165918.16000000015,"y":2543437.3000000026}},{"attributes":{"ID":569286,"DIS_CODE":0,"TOWNNAME":"安平區","LI":"建平里","LIN":"28鄰","STREET":"永華路","SECT":"二段","MAREA":" ","LANE":" ","ALLEY":" ","HOUSE_NO":"２５０號二樓之３","E_COORD97":165918.16,"N_COORD97":2543437.2999999998,"ADDRESS":"永華路二段２５０號二樓之３","OBJECTID":569259},"geometry":{"x":165918.16000000015,"y":2543437.3000000026}},{"attributes":{"ID":569287,"DIS_CODE":0,"TOWNNAME":"安平區","LI":"建平里","LIN":"28鄰","STREET":"永華路","SECT":"二段","MAREA":" ","LANE":" ","ALLEY":" ","HOUSE_NO":"２５０號二樓之４","E_COORD97":165918.16,"N_COORD97":2543437.2999999998,"ADDRESS":"永華路二段２５０號二樓之４","OBJECTID":569260},"geometry":{"x":165918.16000000015,"y":2543437.3000000026}},{"attributes":{"ID":569288,"DIS_CODE":0,"TOWNNAME":"安平區","LI":"建平里","LIN":"28鄰","STREET":"永華路","SECT":"二段","MAREA":" ","LANE":" ","ALLEY":" ","HOUSE_NO":"２５０號二樓之５","E_COORD97":165918.16,"N_COORD97":2543437.2999999998,"ADDRESS":"永華路二段２５０號二樓之５","OBJECTID":569261},"geometry":{"x":165918.16000000015,"y":2543437.3000000026}},{"attributes":{"ID":569289,"DIS_CODE":0,"TOWNNAME":"安平區","LI":"建平里","LIN":"28鄰","STREET":"永華路","SECT":"二段","MAREA":" ","LANE":" ","ALLEY":" ","HOUSE_NO":"２５０號二樓之６","E_COORD97":165918.16,"N_COORD97":2543437.2999999998,"ADDRESS":"永華路二段２５０號二樓之６","OBJECTID":569262},"geometry":{"x":165918.16000000015,"y":2543437.3000000026}},{"attributes":{"ID":569290,"DIS_CODE":0,"TOWNNAME":"安平區","LI":"建平里","LIN":"28鄰","STREET":"永華路","SECT":"二段","MAREA":" ","LANE":" ","ALLEY":" ","HOUSE_NO":"２５０號二樓之７","E_COORD97":165918.16,"N_COORD97":2543437.2999999998,"ADDRESS":"永華路二段２５０號二樓之７","OBJECTID":569263},"geometry":{"x":165918.16000000015,"y":2543437.3000000026}},{"attributes":{"ID":569291,"DIS_CODE":0,"TOWNNAME":"安平區","LI":"建平里","LIN":"28鄰","STREET":"永華路","SECT":"二段","MAREA":" ","LANE":" ","ALLEY":" ","HOUSE_NO":"２５０號二樓之８","E_COORD97":165918.16,"N_COORD97":2543437.2999999998,"ADDRESS":"永華路二段２５０號二樓之８","OBJECTID":569264},"geometry":{"x":165918.16000000015,"y":2543437.3000000026}},{"attributes":{"ID":569292,"DIS_CODE":0,"TOWNNAME":"安平區","LI":"建平里","LIN":"28鄰","STREET":"永華路","SECT":"二段","MAREA":" ","LANE":" ","ALLEY":" ","HOUSE_NO":"２５０號二樓之９","E_COORD97":165918.16,"N_COORD97":2543437.2999999998,"ADDRESS":"永華路二段２５０號二樓之９","OBJECTID":569265},"geometry":{"x":165918.16000000015,"y":2543437.3000000026}},{"attributes":{"ID":569293,"DIS_CODE":0,"TOWNNAME":"安平區","LI":"建平里","LIN":"28鄰","STREET":"永華路","SECT":"二段","MAREA":" ","LANE":" ","ALLEY":" ","HOUSE_NO":"２５０號三樓之１","E_COORD97":165918.16,"N_COORD97":2543437.2999999998,"ADDRESS":"永華路二段２５０號三樓之１","OBJECTID":569266},"geometry":{"x":165918.16000000015,"y":2543437.3000000026}},{"attributes":{"ID":569294,"DIS_CODE":0,"TOWNNAME":"安平區","LI":"建平里","LIN":"28鄰","STREET":"永華路","SECT":"二段","MAREA":" ","LANE":" ","ALLEY":" ","HOUSE_NO":"２５０號三樓之１０","E_COORD97":165918.16,"N_COORD97":2543437.2999999998,"ADDRESS":"永華路二段２５０號三樓之１０","OBJECTID":569267},"geometry":{"x":165918.16000000015,"y":2543437.3000000026}},{"attributes":{"ID":569295,"DIS_CODE":0,"TOWNNAME":"安平區","LI":"建平里","LIN":"28鄰","STREET":"永華路","SECT":"二段","MAREA":" ","LANE":" ","ALLEY":" ","HOUSE_NO":"２５０號三樓之１１","E_COORD97":165918.16,"N_COORD97":2543437.2999999998,"ADDRESS":"永華路二段２５０號三樓之１１","OBJECTID":569268},"geometry":{"x":165918.16000000015,"y":2543437.3000000026}},{"attributes":{"ID":569296,"DIS_CODE":0,"TOWNNAME":"安平區","LI":"建平里","LIN":"28鄰","STREET":"永華路","SECT":"二段","MAREA":" ","LANE":" ","ALLEY":" ","HOUSE_NO":"２５０號三樓之１２","E_COORD97":165918.16,"N_COORD97":2543437.2999999998,"ADDRESS":"永華路二段２５０號三樓之１２","OBJECTID":569269},"geometry":{"x":165918.16000000015,"y":2543437.3000000026}},{"attributes":{"ID":569297,"DIS_CODE":0,"TOWNNAME":"安平區","LI":"建平里","LIN":"28鄰","STREET":"永華路","SECT":"二段","MAREA":" ","LANE":" ","ALLEY":" ","HOUSE_NO":"２５０號三樓之１３","E_COORD97":165918.16,"N_COORD97":2543437.2999999998,"ADDRESS":"永華路二段２５０號三樓之１３","OBJECTID":569270},"geometry":{"x":165918.16000000015,"y":2543437.3000000026}},{"attributes":{"ID":569298,"DIS_CODE":0,"TOWNNAME":"安平區","LI":"建平里","LIN":"28鄰","STREET":"永華路","SECT":"二段","MAREA":" ","LANE":" ","ALLEY":" ","HOUSE_NO":"２５０號三樓之１４","E_COORD97":165918.16,"N_COORD97":2543437.2999999998,"ADDRESS":"永華路二段２５０號三樓之１４","OBJECTID":569271},"geometry":{"x":165918.16000000015,"y":2543437.3000000026}},{"attributes":{"ID":569299,"DIS_CODE":0,"TOWNNAME":"安平區","LI":"建平里","LIN":"28鄰","STREET":"永華路","SECT":"二段","MAREA":" ","LANE":" ","ALLEY":" ","HOUSE_NO":"２５０號三樓之１５","E_COORD97":165918.16,"N_COORD97":2543437.2999999998,"ADDRESS":"永華路二段２５０號三樓之１５","OBJECTID":569272},"geometry":{"x":165918.16000000015,"y":2543437.3000000026}},{"attributes":{"ID":569300,"DIS_CODE":0,"TOWNNAME":"安平區","LI":"建平里","LIN":"28鄰","STREET":"永華路","SECT":"二段","MAREA":" ","LANE":" ","ALLEY":" ","HOUSE_NO":"２５０號三樓之１６","E_COORD97":165918.16,"N_COORD97":2543437.2999999998,"ADDRESS":"永華路二段２５０號三樓之１６","OBJECTID":569273},"geometry":{"x":165918.16000000015,"y":2543437.3000000026}},{"attributes":{"ID":569301,"DIS_CODE":0,"TOWNNAME":"安平區","LI":"建平里","LIN":"28鄰","STREET":"永華路","SECT":"二段","MAREA":" ","LANE":" ","ALLEY":" ","HOUSE_NO":"２５０號三樓之１７","E_COORD97":165918.16,"N_COORD97":2543437.2999999998,"ADDRESS":"永華路二段２５０號三樓之１７","OBJECTID":569274},"geometry":{"x":165918.16000000015,"y":2543437.3000000026}},{"attributes":{"ID":569302,"DIS_CODE":0,"TOWNNAME":"安平區","LI":"建平里","LIN":"28鄰","STREET":"永華路","SECT":"二段","MAREA":" ","LANE":" ","ALLEY":" ","HOUSE_NO":"２５０號三樓之１８","E_COORD97":165918.16,"N_COORD97":2543437.2999999998,"ADDRESS":"永華路二段２５０號三樓之１８","OBJECTID":569275},"geometry":{"x":165918.16000000015,"y":2543437.3000000026}},{"attributes":{"ID":569303,"DIS_CODE":0,"TOWNNAME":"安平區","LI":"建平里","LIN":"28鄰","STREET":"永華路","SECT":"二段","MAREA":" ","LANE":" ","ALLEY":" ","HOUSE_NO":"２５０號三樓之１９","E_COORD97":165918.16,"N_COORD97":2543437.2999999998,"ADDRESS":"永華路二段２５０號三樓之１９","OBJECTID":569276},"geometry":{"x":165918.16000000015,"y":2543437.3000000026}},{"attributes":{"ID":569304,"DIS_CODE":0,"TOWNNAME":"安平區","LI":"建平里","LIN":"28鄰","STREET":"建平八街","SECT":" ","MAREA":" ","LANE":" ","ALLEY":" ","HOUSE_NO":"７２號十樓之３","E_COORD97":165940.76000000001,"N_COORD97":2543496.8300000001,"ADDRESS":"建平八街７２號十樓之３","OBJECTID":569277},"geometry":{"x":165940.75999999978,"y":2543496.8300000038}},{"attributes":{"ID":569305,"DIS_CODE":0,"TOWNNAME":"安平區","LI":"建平里","LIN":"28鄰","STREET":"永華路","SECT":"二段","MAREA":" ","LANE":" ","ALLEY":" ","HOUSE_NO":"２５０號三樓之２","E_COORD97":165918.16,"N_COORD97":2543437.2999999998,"ADDRESS":"永華路二段２５０號三樓之２","OBJECTID":569278},"geometry":{"x":165918.16000000015,"y":2543437.3000000026}},{"attributes":{"ID":569306,"DIS_CODE":0,"TOWNNAME":"新營區","LI":"新南里","LIN":"28鄰","STREET":"明清街","SECT":" ","MAREA":" ","LANE":" ","ALLEY":" ","HOUSE_NO":"４６號三樓之１","E_COORD97":178260.20000000001,"N_COORD97":2578706.25,"ADDRESS":"明清街４６號三樓之１","OBJECTID":569279},"geometry":{"x":178260.20000000112,"y":2578706.2500000037}},{"attributes":{"ID":569307,"DIS_CODE":0,"TOWNNAME":"安平區","LI":"建平里","LIN":"28鄰","STREET":"永華路","SECT":"二段","MAREA":" ","LANE":" ","ALLEY":" ","HOUSE_NO":"２５０號三樓之２０","E_COORD97":165918.16,"N_COORD97":2543437.2999999998,"ADDRESS":"永華路二段２５０號三樓之２０","OBJECTID":569280},"geometry":{"x":165918.16000000015,"y":2543437.3000000026}},{"attributes":{"ID":569308,"DIS_CODE":0,"TOWNNAME":"安平區","LI":"建平里","LIN":"28鄰","STREET":"永華路","SECT":"二段","MAREA":" ","LANE":" ","ALLEY":" ","HOUSE_NO":"２５０號三樓之２１","E_COORD97":165918.16,"N_COORD97":2543437.2999999998,"ADDRESS":"永華路二段２５０號三樓之２１","OBJECTID":569281},"geometry":{"x":165918.16000000015,"y":2543437.3000000026}},{"attributes":{"ID":569309,"DIS_CODE":0,"TOWNNAME":"安平區","LI":"建平里","LIN":"28鄰","STREET":"永華路","SECT":"二段","MAREA":" ","LANE":" ","ALLEY":" ","HOUSE_NO":"２５０號三樓之２２","E_COORD97":165918.16,"N_COORD97":2543437.2999999998,"ADDRESS":"永華路二段２５０號三樓之２２","OBJECTID":569282},"geometry":{"x":165918.16000000015,"y":2543437.3000000026}},{"attributes":{"ID":569310,"DIS_CODE":0,"TOWNNAME":"安平區","LI":"建平里","LIN":"28鄰","STREET":"永華路","SECT":"二段","MAREA":" ","LANE":" ","ALLEY":" ","HOUSE_NO":"２５０號三樓之２３","E_COORD97":165918.16,"N_COORD97":2543437.2999999998,"ADDRESS":"永華路二段２５０號三樓之２３","OBJECTID":569283},"geometry":{"x":165918.16000000015,"y":2543437.3000000026}},{"attributes":{"ID":569311,"DIS_CODE":0,"TOWNNAME":"安平區","LI":"建平里","LIN":"28鄰","STREET":"永華路","SECT":"二段","MAREA":" ","LANE":" ","ALLEY":" ","HOUSE_NO":"２５０號三樓之２４","E_COORD97":165918.16,"N_COORD97":2543437.2999999998,"ADDRESS":"永華路二段２５０號三樓之２４","OBJECTID":569284},"geometry":{"x":165918.16000000015,"y":2543437.3000000026}},{"attributes":{"ID":569312,"DIS_CODE":0,"TOWNNAME":"安平區","LI":"建平里","LIN":"28鄰","STREET":"永華路","SECT":"二段","MAREA":" ","LANE":" ","ALLEY":" ","HOUSE_NO":"２５０號三樓之２５","E_COORD97":165918.16,"N_COORD97":2543437.2999999998,"ADDRESS":"永華路二段２５０號三樓之２５","OBJECTID":569285},"geometry":{"x":165918.16000000015,"y":2543437.3000000026}},{"attributes":{"ID":569313,"DIS_CODE":0,"TOWNNAME":"安平區","LI":"建平里","LIN":"28鄰","STREET":"永華路","SECT":"二段","MAREA":" ","LANE":" ","ALLEY":" ","HOUSE_NO":"２５０號三樓之３","E_COORD97":165918.16,"N_COORD97":2543437.2999999998,"ADDRESS":"永華路二段２５０號三樓之３","OBJECTID":569286},"geometry":{"x":165918.16000000015,"y":2543437.3000000026}},{"attributes":{"ID":569314,"DIS_CODE":0,"TOWNNAME":"安平區","LI":"建平里","LIN":"28鄰","STREET":"永華路","SECT":"二段","MAREA":" ","LANE":" ","ALLEY":" ","HOUSE_NO":"２５０號三樓之４","E_COORD97":165918.16,"N_COORD97":2543437.2999999998,"ADDRESS":"永華路二段２５０號三樓之４","OBJECTID":569287},"geometry":{"x":165918.16000000015,"y":2543437.3000000026}},{"attributes":{"ID":569315,"DIS_CODE":0,"TOWNNAME":"安平區","LI":"建平里","LIN":"28鄰","STREET":"永華路","SECT":"二段","MAREA":" ","LANE":" ","ALLEY":" ","HOUSE_NO":"２５０號三樓之５","E_COORD97":165918.16,"N_COORD97":2543437.2999999998,"ADDRESS":"永華路二段２５０號三樓之５","OBJECTID":569288},"geometry":{"x":165918.16000000015,"y":2543437.3000000026}},{"attributes":{"ID":569316,"DIS_CODE":0,"TOWNNAME":"安平區","LI":"建平里","LIN":"28鄰","STREET":"永華路","SECT":"二段","MAREA":" ","LANE":" ","ALLEY":" ","HOUSE_NO":"２５０號三樓之６","E_COORD97":165918.16,"N_COORD97":2543437.2999999998,"ADDRESS":"永華路二段２５０號三樓之６","OBJECTID":569289},"geometry":{"x":165918.16000000015,"y":2543437.3000000026}},{"attributes":{"ID":569317,"DIS_CODE":0,"TOWNNAME":"安平區","LI":"建平里","LIN":"28鄰","STREET":"永華路","SECT":"二段","MAREA":" ","LANE":" ","ALLEY":" ","HOUSE_NO":"２５０號三樓之７","E_COORD97":165918.16,"N_COORD97":2543437.2999999998,"ADDRESS":"永華路二段２５０號三樓之７","OBJECTID":569290},"geometry":{"x":165918.16000000015,"y":2543437.3000000026}},{"attributes":{"ID":569318,"DIS_CODE":0,"TOWNNAME":"安平區","LI":"建平里","LIN":"28鄰","STREET":"永華路","SECT":"二段","MAREA":" ","LANE":" ","ALLEY":" ","HOUSE_NO":"２５０號三樓之８","E_COORD97":165918.16,"N_COORD97":2543437.2999999998,"ADDRESS":"永華路二段２５０號三樓之８","OBJECTID":569291},"geometry":{"x":165918.16000000015,"y":2543437.3000000026}},{"attributes":{"ID":569319,"DIS_CODE":0,"TOWNNAME":"安平區","LI":"建平里","LIN":"28鄰","STREET":"永華路","SECT":"二段","MAREA":" ","LANE":" ","ALLEY":" ","HOUSE_NO":"２５０號三樓之９","E_COORD97":165918.16,"N_COORD97":2543437.2999999998,"ADDRESS":"永華路二段２５０號三樓之９","OBJECTID":569292},"geometry":{"x":165918.16000000015,"y":2543437.3000000026}},{"attributes":{"ID":569320,"DIS_CODE":0,"TOWNNAME":"安平區","LI":"建平里","LIN":"28鄰","STREET":"永華路","SECT":"二段","MAREA":" ","LANE":" ","ALLEY":" ","HOUSE_NO":"２５０號五樓之１","E_COORD97":165918.16,"N_COORD97":2543437.2999999998,"ADDRESS":"永華路二段２５０號五樓之１","OBJECTID":569293},"geometry":{"x":165918.16000000015,"y":2543437.3000000026}},{"attributes":{"ID":569321,"DIS_CODE":0,"TOWNNAME":"安平區","LI":"建平里","LIN":"28鄰","STREET":"永華路","SECT":"二段","MAREA":" ","LANE":" ","ALLEY":" ","HOUSE_NO":"２５０號五樓之１０","E_COORD97":165918.16,"N_COORD97":2543437.2999999998,"ADDRESS":"永華路二段２５０號五樓之１０","OBJECTID":569294},"geometry":{"x":165918.16000000015,"y":2543437.3000000026}},{"attributes":{"ID":569322,"DIS_CODE":0,"TOWNNAME":"安平區","LI":"建平里","LIN":"28鄰","STREET":"永華路","SECT":"二段","MAREA":" ","LANE":" ","ALLEY":" ","HOUSE_NO":"２５０號五樓之１１","E_COORD97":165918.16,"N_COORD97":2543437.2999999998,"ADDRESS":"永華路二段２５０號五樓之１１","OBJECTID":569295},"geometry":{"x":165918.16000000015,"y":2543437.3000000026}},{"attributes":{"ID":569323,"DIS_CODE":0,"TOWNNAME":"安平區","LI":"建平里","LIN":"28鄰","STREET":"永華路","SECT":"二段","MAREA":" ","LANE":" ","ALLEY":" ","HOUSE_NO":"２５０號五樓之１２","E_COORD97":165918.16,"N_COORD97":2543437.2999999998,"ADDRESS":"永華路二段２５０號五樓之１２","OBJECTID":569296},"geometry":{"x":165918.16000000015,"y":2543437.3000000026}},{"attributes":{"ID":569324,"DIS_CODE":0,"TOWNNAME":"安平區","LI":"建平里","LIN":"28鄰","STREET":"永華路","SECT":"二段","MAREA":" ","LANE":" ","ALLEY":" ","HOUSE_NO":"２５０號五樓之１３","E_COORD97":165918.16,"N_COORD97":2543437.2999999998,"ADDRESS":"永華路二段２５０號五樓之１３","OBJECTID":569297},"geometry":{"x":165918.16000000015,"y":2543437.3000000026}},{"attributes":{"ID":569325,"DIS_CODE":0,"TOWNNAME":"安平區","LI":"建平里","LIN":"28鄰","STREET":"永華路","SECT":"二段","MAREA":" ","LANE":" ","ALLEY":" ","HOUSE_NO":"２５０號五樓之１４","E_COORD97":165918.16,"N_COORD97":2543437.2999999998,"ADDRESS":"永華路二段２５０號五樓之１４","OBJECTID":569298},"geometry":{"x":165918.16000000015,"y":2543437.3000000026}},{"attributes":{"ID":569326,"DIS_CODE":0,"TOWNNAME":"安平區","LI":"建平里","LIN":"28鄰","STREET":"永華路","SECT":"二段","MAREA":" ","LANE":" ","ALLEY":" ","HOUSE_NO":"２５０號五樓之１５","E_COORD97":165918.16,"N_COORD97":2543437.2999999998,"ADDRESS":"永華路二段２５０號五樓之１５","OBJECTID":569299},"geometry":{"x":165918.16000000015,"y":2543437.3000000026}},{"attributes":{"ID":569327,"DIS_CODE":0,"TOWNNAME":"安平區","LI":"建平里","LIN":"28鄰","STREET":"永華路","SECT":"二段","MAREA":" ","LANE":" ","ALLEY":" ","HOUSE_NO":"２５０號五樓之１６","E_COORD97":165918.16,"N_COORD97":2543437.2999999998,"ADDRESS":"永華路二段２５０號五樓之１６","OBJECTID":569300},"geometry":{"x":165918.16000000015,"y":2543437.3000000026}},{"attributes":{"ID":569328,"DIS_CODE":0,"TOWNNAME":"安平區","LI":"建平里","LIN":"28鄰","STREET":"永華路","SECT":"二段","MAREA":" ","LANE":" ","ALLEY":" ","HOUSE_NO":"２５０號五樓之１７","E_COORD97":165918.16,"N_COORD97":2543437.2999999998,"ADDRESS":"永華路二段２５０號五樓之１７","OBJECTID":569301},"geometry":{"x":165918.16000000015,"y":2543437.3000000026}},{"attributes":{"ID":569329,"DIS_CODE":0,"TOWNNAME":"安平區","LI":"建平里","LIN":"28鄰","STREET":"永華路","SECT":"二段","MAREA":" ","LANE":" ","ALLEY":" ","HOUSE_NO":"２５０號五樓之１８","E_COORD97":165918.16,"N_COORD97":2543437.2999999998,"ADDRESS":"永華路二段２５０號五樓之１８","OBJECTID":569302},"geometry":{"x":165918.16000000015,"y":2543437.3000000026}},{"attributes":{"ID":569330,"DIS_CODE":0,"TOWNNAME":"安平區","LI":"建平里","LIN":"28鄰","STREET":"永華路","SECT":"二段","MAREA":" ","LANE":" ","ALLEY":" ","HOUSE_NO":"２５０號五樓之１９","E_COORD97":165918.16,"N_COORD97":2543437.2999999998,"ADDRESS":"永華路二段２５０號五樓之１９","OBJECTID":569303},"geometry":{"x":165918.16000000015,"y":2543437.3000000026}},{"attributes":{"ID":569331,"DIS_CODE":0,"TOWNNAME":"安平區","LI":"建平里","LIN":"28鄰","STREET":"永華路","SECT":"二段","MAREA":" ","LANE":" ","ALLEY":" ","HOUSE_NO":"２５０號五樓之２","E_COORD97":165918.16,"N_COORD97":2543437.2999999998,"ADDRESS":"永華路二段２５０號五樓之２","OBJECTID":569304},"geometry":{"x":165918.16000000015,"y":2543437.3000000026}},{"attributes":{"ID":569332,"DIS_CODE":0,"TOWNNAME":"安平區","LI":"建平里","LIN":"28鄰","STREET":"永華路","SECT":"二段","MAREA":" ","LANE":" ","ALLEY":" ","HOUSE_NO":"２５０號五樓之２０","E_COORD97":165918.16,"N_COORD97":2543437.2999999998,"ADDRESS":"永華路二段２５０號五樓之２０","OBJECTID":569305},"geometry":{"x":165918.16000000015,"y":2543437.3000000026}},{"attributes":{"ID":569333,"DIS_CODE":0,"TOWNNAME":"安平區","LI":"建平里","LIN":"28鄰","STREET":"永華路","SECT":"二段","MAREA":" ","LANE":" ","ALLEY":" ","HOUSE_NO":"２５０號五樓之２１","E_COORD97":165918.16,"N_COORD97":2543437.2999999998,"ADDRESS":"永華路二段２５０號五樓之２１","OBJECTID":569306},"geometry":{"x":165918.16000000015,"y":2543437.3000000026}},{"attributes":{"ID":569334,"DIS_CODE":0,"TOWNNAME":"安平區","LI":"建平里","LIN":"28鄰","STREET":"永華路","SECT":"二段","MAREA":" ","LANE":" ","ALLEY":" ","HOUSE_NO":"２５０號五樓之２２","E_COORD97":165918.16,"N_COORD97":2543437.2999999998,"ADDRESS":"永華路二段２５０號五樓之２２","OBJECTID":569307},"geometry":{"x":165918.16000000015,"y":2543437.3000000026}},{"attributes":{"ID":569335,"DIS_CODE":0,"TOWNNAME":"安平區","LI":"建平里","LIN":"28鄰","STREET":"永華路","SECT":"二段","MAREA":" ","LANE":" ","ALLEY":" ","HOUSE_NO":"２５０號五樓之２３","E_COORD97":165918.16,"N_COORD97":2543437.2999999998,"ADDRESS":"永華路二段２５０號五樓之２３","OBJECTID":569308},"geometry":{"x":165918.16000000015,"y":2543437.3000000026}},{"attributes":{"ID":569336,"DIS_CODE":0,"TOWNNAME":"安平區","LI":"建平里","LIN":"28鄰","STREET":"永華路","SECT":"二段","MAREA":" ","LANE":" ","ALLEY":" ","HOUSE_NO":"２５０號五樓之２４","E_COORD97":165918.16,"N_COORD97":2543437.2999999998,"ADDRESS":"永華路二段２５０號五樓之２４","OBJECTID":569309},"geometry":{"x":165918.16000000015,"y":2543437.3000000026}},{"attributes":{"ID":569337,"DIS_CODE":0,"TOWNNAME":"安平區","LI":"建平里","LIN":"28鄰","STREET":"永華路","SECT":"二段","MAREA":" ","LANE":" ","ALLEY":" ","HOUSE_NO":"２５０號五樓之２５","E_COORD97":165918.16,"N_COORD97":2543437.2999999998,"ADDRESS":"永華路二段２５０號五樓之２５","OBJECTID":569310},"geometry":{"x":165918.16000000015,"y":2543437.3000000026}},{"attributes":{"ID":569338,"DIS_CODE":0,"TOWNNAME":"安平區","LI":"建平里","LIN":"28鄰","STREET":"永華路","SECT":"二段","MAREA":" ","LANE":" ","ALLEY":" ","HOUSE_NO":"２５０號五樓之３","E_COORD97":165918.16,"N_COORD97":2543437.2999999998,"ADDRESS":"永華路二段２５０號五樓之３","OBJECTID":569311},"geometry":{"x":165918.16000000015,"y":2543437.3000000026}},{"attributes":{"ID":569339,"DIS_CODE":0,"TOWNNAME":"安平區","LI":"建平里","LIN":"28鄰","STREET":"永華路","SECT":"二段","MAREA":" ","LANE":" ","ALLEY":" ","HOUSE_NO":"２５０號五樓之４","E_COORD97":165918.16,"N_COORD97":2543437.2999999998,"ADDRESS":"永華路二段２５０號五樓之４","OBJECTID":569312},"geometry":{"x":165918.16000000015,"y":2543437.3000000026}},{"attributes":{"ID":569340,"DIS_CODE":0,"TOWNNAME":"安平區","LI":"建平里","LIN":"28鄰","STREET":"永華路","SECT":"二段","MAREA":" ","LANE":" ","ALLEY":" ","HOUSE_NO":"２５０號五樓之５","E_COORD97":165918.16,"N_COORD97":2543437.2999999998,"ADDRESS":"永華路二段２５０號五樓之５","OBJECTID":569313},"geometry":{"x":165918.16000000015,"y":2543437.3000000026}},{"attributes":{"ID":569341,"DIS_CODE":0,"TOWNNAME":"安平區","LI":"建平里","LIN":"28鄰","STREET":"永華路","SECT":"二段","MAREA":" ","LANE":" ","ALLEY":" ","HOUSE_NO":"２５０號五樓之６","E_COORD97":165918.16,"N_COORD97":2543437.2999999998,"ADDRESS":"永華路二段２５０號五樓之６","OBJECTID":569314},"geometry":{"x":165918.16000000015,"y":2543437.3000000026}},{"attributes":{"ID":569342,"DIS_CODE":0,"TOWNNAME":"安平區","LI":"建平里","LIN":"28鄰","STREET":"永華路","SECT":"二段","MAREA":" ","LANE":" ","ALLEY":" ","HOUSE_NO":"２５０號五樓之７","E_COORD97":165918.16,"N_COORD97":2543437.2999999998,"ADDRESS":"永華路二段２５０號五樓之７","OBJECTID":569315},"geometry":{"x":165918.16000000015,"y":2543437.3000000026}},{"attributes":{"ID":569343,"DIS_CODE":0,"TOWNNAME":"安平區","LI":"建平里","LIN":"28鄰","STREET":"永華路","SECT":"二段","MAREA":" ","LANE":" ","ALLEY":" ","HOUSE_NO":"２５０號五樓之８","E_COORD97":165918.16,"N_COORD97":2543437.2999999998,"ADDRESS":"永華路二段２５０號五樓之８","OBJECTID":569316},"geometry":{"x":165918.16000000015,"y":2543437.3000000026}},{"attributes":{"ID":569344,"DIS_CODE":0,"TOWNNAME":"安平區","LI":"建平里","LIN":"28鄰","STREET":"永華路","SECT":"二段","MAREA":" ","LANE":" ","ALLEY":" ","HOUSE_NO":"２５０號五樓之９","E_COORD97":165918.16,"N_COORD97":2543437.2999999998,"ADDRESS":"永華路二段２５０號五樓之９","OBJECTID":569317},"geometry":{"x":165918.16000000015,"y":2543437.3000000026}},{"attributes":{"ID":569345,"DIS_CODE":0,"TOWNNAME":"安平區","LI":"建平里","LIN":"28鄰","STREET":"永華路","SECT":"二段","MAREA":" ","LANE":" ","ALLEY":" ","HOUSE_NO":"２５０號六樓之１","E_COORD97":165918.16,"N_COORD97":2543437.2999999998,"ADDRESS":"永華路二段２５０號六樓之１","OBJECTID":569318},"geometry":{"x":165918.16000000015,"y":2543437.3000000026}},{"attributes":{"ID":569346,"DIS_CODE":0,"TOWNNAME":"安平區","LI":"建平里","LIN":"28鄰","STREET":"永華路","SECT":"二段","MAREA":" ","LANE":" ","ALLEY":" ","HOUSE_NO":"２５０號六樓之１０","E_COORD97":165918.16,"N_COORD97":2543437.2999999998,"ADDRESS":"永華路二段２５０號六樓之１０","OBJECTID":569319},"geometry":{"x":165918.16000000015,"y":2543437.3000000026}},{"attributes":{"ID":569347,"DIS_CODE":0,"TOWNNAME":"安平區","LI":"建平里","LIN":"28鄰","STREET":"永華路","SECT":"二段","MAREA":" ","LANE":" ","ALLEY":" ","HOUSE_NO":"２５０號六樓之１１","E_COORD97":165918.16,"N_COORD97":2543437.2999999998,"ADDRESS":"永華路二段２５０號六樓之１１","OBJECTID":569320},"geometry":{"x":165918.16000000015,"y":2543437.3000000026}},{"attributes":{"ID":569348,"DIS_CODE":0,"TOWNNAME":"安平區","LI":"建平里","LIN":"28鄰","STREET":"永華路","SECT":"二段","MAREA":" ","LANE":" ","ALLEY":" ","HOUSE_NO":"２５０號六樓之１２","E_COORD97":165918.16,"N_COORD97":2543437.2999999998,"ADDRESS":"永華路二段２５０號六樓之１２","OBJECTID":569321},"geometry":{"x":165918.16000000015,"y":2543437.3000000026}},{"attributes":{"ID":569349,"DIS_CODE":0,"TOWNNAME":"安平區","LI":"建平里","LIN":"28鄰","STREET":"永華路","SECT":"二段","MAREA":" ","LANE":" ","ALLEY":" ","HOUSE_NO":"２５０號六樓之１３","E_COORD97":165918.16,"N_COORD97":2543437.2999999998,"ADDRESS":"永華路二段２５０號六樓之１３","OBJECTID":569322},"geometry":{"x":165918.16000000015,"y":2543437.3000000026}},{"attributes":{"ID":569350,"DIS_CODE":0,"TOWNNAME":"安平區","LI":"建平里","LIN":"28鄰","STREET":"永華路","SECT":"二段","MAREA":" ","LANE":" ","ALLEY":" ","HOUSE_NO":"２５０號六樓之１４","E_COORD97":165918.16,"N_COORD97":2543437.2999999998,"ADDRESS":"永華路二段２５０號六樓之１４","OBJECTID":569323},"geometry":{"x":165918.16000000015,"y":2543437.3000000026}},{"attributes":{"ID":569351,"DIS_CODE":0,"TOWNNAME":"安平區","LI":"建平里","LIN":"28鄰","STREET":"永華路","SECT":"二段","MAREA":" ","LANE":" ","ALLEY":" ","HOUSE_NO":"２５０號六樓之１５","E_COORD97":165918.16,"N_COORD97":2543437.2999999998,"ADDRESS":"永華路二段２５０號六樓之１５","OBJECTID":569324},"geometry":{"x":165918.16000000015,"y":2543437.3000000026}},{"attributes":{"ID":569352,"DIS_CODE":0,"TOWNNAME":"安平區","LI":"建平里","LIN":"28鄰","STREET":"永華路","SECT":"二段","MAREA":" ","LANE":" ","ALLEY":" ","HOUSE_NO":"２５０號六樓之１６","E_COORD97":165918.16,"N_COORD97":2543437.2999999998,"ADDRESS":"永華路二段２５０號六樓之１６","OBJECTID":569325},"geometry":{"x":165918.16000000015,"y":2543437.3000000026}},{"attributes":{"ID":569353,"DIS_CODE":0,"TOWNNAME":"安平區","LI":"建平里","LIN":"28鄰","STREET":"永華路","SECT":"二段","MAREA":" ","LANE":" ","ALLEY":" ","HOUSE_NO":"２５０號六樓之１７","E_COORD97":165918.16,"N_COORD97":2543437.2999999998,"ADDRESS":"永華路二段２５０號六樓之１７","OBJECTID":569326},"geometry":{"x":165918.16000000015,"y":2543437.3000000026}},{"attributes":{"ID":569354,"DIS_CODE":0,"TOWNNAME":"安平區","LI":"建平里","LIN":"28鄰","STREET":"永華路","SECT":"二段","MAREA":" ","LANE":" ","ALLEY":" ","HOUSE_NO":"２５０號六樓之１８","E_COORD97":165918.16,"N_COORD97":2543437.2999999998,"ADDRESS":"永華路二段２５０號六樓之１８","OBJECTID":569327},"geometry":{"x":165918.16000000015,"y":2543437.3000000026}},{"attributes":{"ID":569355,"DIS_CODE":0,"TOWNNAME":"安平區","LI":"建平里","LIN":"28鄰","STREET":"永華路","SECT":"二段","MAREA":" ","LANE":" ","ALLEY":" ","HOUSE_NO":"２５０號六樓之２","E_COORD97":165918.16,"N_COORD97":2543437.2999999998,"ADDRESS":"永華路二段２５０號六樓之２","OBJECTID":569328},"geometry":{"x":165918.16000000015,"y":2543437.3000000026}},{"attributes":{"ID":569356,"DIS_CODE":0,"TOWNNAME":"安平區","LI":"建平里","LIN":"28鄰","STREET":"永華路","SECT":"二段","MAREA":" ","LANE":" ","ALLEY":" ","HOUSE_NO":"２５０號六樓之３","E_COORD97":165918.16,"N_COORD97":2543437.2999999998,"ADDRESS":"永華路二段２５０號六樓之３","OBJECTID":569329},"geometry":{"x":165918.16000000015,"y":2543437.3000000026}},{"attributes":{"ID":569357,"DIS_CODE":0,"TOWNNAME":"安平區","LI":"建平里","LIN":"28鄰","STREET":"永華路","SECT":"二段","MAREA":" ","LANE":" ","ALLEY":" ","HOUSE_NO":"２５０號六樓之４","E_COORD97":165918.16,"N_COORD97":2543437.2999999998,"ADDRESS":"永華路二段２５０號六樓之４","OBJECTID":569330},"geometry":{"x":165918.16000000015,"y":2543437.3000000026}},{"attributes":{"ID":569358,"DIS_CODE":0,"TOWNNAME":"安平區","LI":"建平里","LIN":"28鄰","STREET":"永華路","SECT":"二段","MAREA":" ","LANE":" ","ALLEY":" ","HOUSE_NO":"２５０號六樓之５","E_COORD97":165918.16,"N_COORD97":2543437.2999999998,"ADDRESS":"永華路二段２５０號六樓之５","OBJECTID":569331},"geometry":{"x":165918.16000000015,"y":2543437.3000000026}},{"attributes":{"ID":569359,"DIS_CODE":0,"TOWNNAME":"安平區","LI":"建平里","LIN":"28鄰","STREET":"永華路","SECT":"二段","MAREA":" ","LANE":" ","ALLEY":" ","HOUSE_NO":"２５０號六樓之６","E_COORD97":165918.16,"N_COORD97":2543437.2999999998,"ADDRESS":"永華路二段２５０號六樓之６","OBJECTID":569332},"geometry":{"x":165918.16000000015,"y":2543437.3000000026}},{"attributes":{"ID":569360,"DIS_CODE":0,"TOWNNAME":"安平區","LI":"建平里","LIN":"28鄰","STREET":"永華路","SECT":"二段","MAREA":" ","LANE":" ","ALLEY":" ","HOUSE_NO":"２５０號六樓之７","E_COORD97":165918.16,"N_COORD97":2543437.2999999998,"ADDRESS":"永華路二段２５０號六樓之７","OBJECTID":569333},"geometry":{"x":165918.16000000015,"y":2543437.3000000026}},{"attributes":{"ID":569361,"DIS_CODE":0,"TOWNNAME":"安平區","LI":"建平里","LIN":"28鄰","STREET":"永華路","SECT":"二段","MAREA":" ","LANE":" ","ALLEY":" ","HOUSE_NO":"２５０號六樓之８","E_COORD97":165918.16,"N_COORD97":2543437.2999999998,"ADDRESS":"永華路二段２５０號六樓之８","OBJECTID":569334},"geometry":{"x":165918.16000000015,"y":2543437.3000000026}},{"attributes":{"ID":569362,"DIS_CODE":0,"TOWNNAME":"安平區","LI":"建平里","LIN":"28鄰","STREET":"永華路","SECT":"二段","MAREA":" ","LANE":" ","ALLEY":" ","HOUSE_NO":"２５０號六樓之９","E_COORD97":165918.16,"N_COORD97":2543437.2999999998,"ADDRESS":"永華路二段２５０號六樓之９","OBJECTID":569335},"geometry":{"x":165918.16000000015,"y":2543437.3000000026}},{"attributes":{"ID":569363,"DIS_CODE":0,"TOWNNAME":"安平區","LI":"建平里","LIN":"28鄰","STREET":"永華路","SECT":"二段","MAREA":" ","LANE":" ","ALLEY":" ","HOUSE_NO":"２５０號四樓之１","E_COORD97":165918.16,"N_COORD97":2543437.2999999998,"ADDRESS":"永華路二段２５０號四樓之１","OBJECTID":569336},"geometry":{"x":165918.16000000015,"y":2543437.3000000026}},{"attributes":{"ID":569364,"DIS_CODE":0,"TOWNNAME":"安平區","LI":"建平里","LIN":"28鄰","STREET":"永華路","SECT":"二段","MAREA":" ","LANE":" ","ALLEY":" ","HOUSE_NO":"２５０號四樓之１０","E_COORD97":165918.16,"N_COORD97":2543437.2999999998,"ADDRESS":"永華路二段２５０號四樓之１０","OBJECTID":569337},"geometry":{"x":165918.16000000015,"y":2543437.3000000026}},{"attributes":{"ID":569365,"DIS_CODE":0,"TOWNNAME":"安平區","LI":"建平里","LIN":"28鄰","STREET":"永華路","SECT":"二段","MAREA":" ","LANE":" ","ALLEY":" ","HOUSE_NO":"２５０號四樓之１１","E_COORD97":165918.16,"N_COORD97":2543437.2999999998,"ADDRESS":"永華路二段２５０號四樓之１１","OBJECTID":569338},"geometry":{"x":165918.16000000015,"y":2543437.3000000026}},{"attributes":{"ID":569366,"DIS_CODE":0,"TOWNNAME":"安平區","LI":"建平里","LIN":"28鄰","STREET":"永華路","SECT":"二段","MAREA":" ","LANE":" ","ALLEY":" ","HOUSE_NO":"２５０號四樓之１２","E_COORD97":165918.16,"N_COORD97":2543437.2999999998,"ADDRESS":"永華路二段２５０號四樓之１２","OBJECTID":569339},"geometry":{"x":165918.16000000015,"y":2543437.3000000026}},{"attributes":{"ID":569367,"DIS_CODE":0,"TOWNNAME":"安平區","LI":"建平里","LIN":"28鄰","STREET":"永華路","SECT":"二段","MAREA":" ","LANE":" ","ALLEY":" ","HOUSE_NO":"２５０號四樓之１３","E_COORD97":165918.16,"N_COORD97":2543437.2999999998,"ADDRESS":"永華路二段２５０號四樓之１３","OBJECTID":569340},"geometry":{"x":165918.16000000015,"y":2543437.3000000026}},{"attributes":{"ID":569368,"DIS_CODE":0,"TOWNNAME":"安平區","LI":"建平里","LIN":"28鄰","STREET":"永華路","SECT":"二段","MAREA":" ","LANE":" ","ALLEY":" ","HOUSE_NO":"２５０號四樓之１４","E_COORD97":165918.16,"N_COORD97":2543437.2999999998,"ADDRESS":"永華路二段２５０號四樓之１４","OBJECTID":569341},"geometry":{"x":165918.16000000015,"y":2543437.3000000026}},{"attributes":{"ID":569369,"DIS_CODE":0,"TOWNNAME":"安平區","LI":"建平里","LIN":"28鄰","STREET":"永華路","SECT":"二段","MAREA":" ","LANE":" ","ALLEY":" ","HOUSE_NO":"２５０號四樓之１５","E_COORD97":165918.16,"N_COORD97":2543437.2999999998,"ADDRESS":"永華路二段２５０號四樓之１５","OBJECTID":569342},"geometry":{"x":165918.16000000015,"y":2543437.3000000026}},{"attributes":{"ID":569370,"DIS_CODE":0,"TOWNNAME":"安平區","LI":"建平里","LIN":"28鄰","STREET":"永華路","SECT":"二段","MAREA":" ","LANE":" ","ALLEY":" ","HOUSE_NO":"２５０號四樓之１６","E_COORD97":165918.16,"N_COORD97":2543437.2999999998,"ADDRESS":"永華路二段２５０號四樓之１６","OBJECTID":569343},"geometry":{"x":165918.16000000015,"y":2543437.3000000026}},{"attributes":{"ID":569371,"DIS_CODE":0,"TOWNNAME":"安平區","LI":"建平里","LIN":"28鄰","STREET":"永華路","SECT":"二段","MAREA":" ","LANE":" ","ALLEY":" ","HOUSE_NO":"２５０號四樓之１７","E_COORD97":165918.16,"N_COORD97":2543437.2999999998,"ADDRESS":"永華路二段２５０號四樓之１７","OBJECTID":569344},"geometry":{"x":165918.16000000015,"y":2543437.3000000026}},{"attributes":{"ID":569372,"DIS_CODE":0,"TOWNNAME":"安平區","LI":"建平里","LIN":"28鄰","STREET":"永華路","SECT":"二段","MAREA":" ","LANE":" ","ALLEY":" ","HOUSE_NO":"２５０號四樓之１８","E_COORD97":165918.16,"N_COORD97":2543437.2999999998,"ADDRESS":"永華路二段２５０號四樓之１８","OBJECTID":569345},"geometry":{"x":165918.16000000015,"y":2543437.3000000026}},{"attributes":{"ID":569373,"DIS_CODE":0,"TOWNNAME":"安平區","LI":"建平里","LIN":"28鄰","STREET":"永華路","SECT":"二段","MAREA":" ","LANE":" ","ALLEY":" ","HOUSE_NO":"２５０號四樓之１９","E_COORD97":165918.16,"N_COORD97":2543437.2999999998,"ADDRESS":"永華路二段２５０號四樓之１９","OBJECTID":569346},"geometry":{"x":165918.16000000015,"y":2543437.3000000026}},{"attributes":{"ID":569374,"DIS_CODE":0,"TOWNNAME":"安平區","LI":"建平里","LIN":"28鄰","STREET":"永華路","SECT":"二段","MAREA":" ","LANE":" ","ALLEY":" ","HOUSE_NO":"２５０號四樓之２","E_COORD97":165918.16,"N_COORD97":2543437.2999999998,"ADDRESS":"永華路二段２５０號四樓之２","OBJECTID":569347},"geometry":{"x":165918.16000000015,"y":2543437.3000000026}},{"attributes":{"ID":569375,"DIS_CODE":0,"TOWNNAME":"安平區","LI":"建平里","LIN":"28鄰","STREET":"永華路","SECT":"二段","MAREA":" ","LANE":" ","ALLEY":" ","HOUSE_NO":"２５０號四樓之２０","E_COORD97":165918.16,"N_COORD97":2543437.2999999998,"ADDRESS":"永華路二段２５０號四樓之２０","OBJECTID":569348},"geometry":{"x":165918.16000000015,"y":2543437.3000000026}},{"attributes":{"ID":569376,"DIS_CODE":0,"TOWNNAME":"安平區","LI":"建平里","LIN":"28鄰","STREET":"永華路","SECT":"二段","MAREA":" ","LANE":" ","ALLEY":" ","HOUSE_NO":"２５０號四樓之２１","E_COORD97":165918.16,"N_COORD97":2543437.2999999998,"ADDRESS":"永華路二段２５０號四樓之２１","OBJECTID":569349},"geometry":{"x":165918.16000000015,"y":2543437.3000000026}},{"attributes":{"ID":569377,"DIS_CODE":0,"TOWNNAME":"安平區","LI":"建平里","LIN":"28鄰","STREET":"永華路","SECT":"二段","MAREA":" ","LANE":" ","ALLEY":" ","HOUSE_NO":"２５０號四樓之３","E_COORD97":165918.16,"N_COORD97":2543437.2999999998,"ADDRESS":"永華路二段２５０號四樓之３","OBJECTID":569350},"geometry":{"x":165918.16000000015,"y":2543437.3000000026}},{"attributes":{"ID":569378,"DIS_CODE":0,"TOWNNAME":"安平區","LI":"建平里","LIN":"28鄰","STREET":"永華路","SECT":"二段","MAREA":" ","LANE":" ","ALLEY":" ","HOUSE_NO":"２５０號四樓之３之１","E_COORD97":165918.16,"N_COORD97":2543437.2999999998,"ADDRESS":"永華路二段２５０號四樓之３之１","OBJECTID":569351},"geometry":{"x":165918.16000000015,"y":2543437.3000000026}},{"attributes":{"ID":569379,"DIS_CODE":0,"TOWNNAME":"安平區","LI":"建平里","LIN":"28鄰","STREET":"永華路","SECT":"二段","MAREA":" ","LANE":" ","ALLEY":" ","HOUSE_NO":"２５０號四樓之５","E_COORD97":165918.16,"N_COORD97":2543437.2999999998,"ADDRESS":"永華路二段２５０號四樓之５","OBJECTID":569352},"geometry":{"x":165918.16000000015,"y":2543437.3000000026}},{"attributes":{"ID":569380,"DIS_CODE":0,"TOWNNAME":"安平區","LI":"建平里","LIN":"28鄰","STREET":"永華路","SECT":"二段","MAREA":" ","LANE":" ","ALLEY":" ","HOUSE_NO":"２５０號四樓之６","E_COORD97":165918.16,"N_COORD97":2543437.2999999998,"ADDRESS":"永華路二段２５０號四樓之６","OBJECTID":569353},"geometry":{"x":165918.16000000015,"y":2543437.3000000026}},{"attributes":{"ID":569381,"DIS_CODE":0,"TOWNNAME":"安平區","LI":"建平里","LIN":"28鄰","STREET":"永華路","SECT":"二段","MAREA":" ","LANE":" ","ALLEY":" ","HOUSE_NO":"２５０號四樓之７","E_COORD97":165918.16,"N_COORD97":2543437.2999999998,"ADDRESS":"永華路二段２５０號四樓之７","OBJECTID":569354},"geometry":{"x":165918.16000000015,"y":2543437.3000000026}},{"attributes":{"ID":569382,"DIS_CODE":0,"TOWNNAME":"安平區","LI":"建平里","LIN":"28鄰","STREET":"永華路","SECT":"二段","MAREA":" ","LANE":" ","ALLEY":" ","HOUSE_NO":"２５０號四樓之８","E_COORD97":165918.16,"N_COORD97":2543437.2999999998,"ADDRESS":"永華路二段２５０號四樓之８","OBJECTID":569355},"geometry":{"x":165918.16000000015,"y":2543437.3000000026}},{"attributes":{"ID":569383,"DIS_CODE":0,"TOWNNAME":"安平區","LI":"建平里","LIN":"28鄰","STREET":"永華路","SECT":"二段","MAREA":" ","LANE":" ","ALLEY":" ","HOUSE_NO":"２５０號四樓之９","E_COORD97":165918.16,"N_COORD97":2543437.2999999998,"ADDRESS":"永華路二段２５０號四樓之９","OBJECTID":569356},"geometry":{"x":165918.16000000015,"y":2543437.3000000026}},{"attributes":{"ID":569384,"DIS_CODE":0,"TOWNNAME":"安平區","LI":"建平里","LIN":"28鄰","STREET":"永華路","SECT":"二段","MAREA":" ","LANE":" ","ALLEY":" ","HOUSE_NO":"２５０號地下一樓之１","E_COORD97":165918.16,"N_COORD97":2543437.2999999998,"ADDRESS":"永華路二段２５０號地下一樓之１","OBJECTID":569357},"geometry":{"x":165918.16000000015,"y":2543437.3000000026}},{"attributes":{"ID":569385,"DIS_CODE":0,"TOWNNAME":"安平區","LI":"建平里","LIN":"28鄰","STREET":"永華路","SECT":"二段","MAREA":" ","LANE":" ","ALLEY":" ","HOUSE_NO":"２５０號地下一樓之１","E_COORD97":165918.16,"N_COORD97":2543437.2999999998,"ADDRESS":"永華路二段２５０號地下一樓之１０","OBJECTID":569358},"geometry":{"x":165918.16000000015,"y":2543437.3000000026}},{"attributes":{"ID":569386,"DIS_CODE":0,"TOWNNAME":"安平區","LI":"建平里","LIN":"28鄰","STREET":"永華路","SECT":"二段","MAREA":" ","LANE":" ","ALLEY":" ","HOUSE_NO":"２５０號地下一樓之１","E_COORD97":165918.16,"N_COORD97":2543437.2999999998,"ADDRESS":"永華路二段２５０號地下一樓之１１","OBJECTID":569359},"geometry":{"x":165918.16000000015,"y":2543437.3000000026}},{"attributes":{"ID":569387,"DIS_CODE":0,"TOWNNAME":"安平區","LI":"建平里","LIN":"28鄰","STREET":"永華路","SECT":"二段","MAREA":" ","LANE":" ","ALLEY":" ","HOUSE_NO":"２５０號地下一樓之１","E_COORD97":165918.16,"N_COORD97":2543437.2999999998,"ADDRESS":"永華路二段２５０號地下一樓之１２","OBJECTID":569360},"geometry":{"x":165918.16000000015,"y":2543437.3000000026}},{"attributes":{"ID":569388,"DIS_CODE":0,"TOWNNAME":"安平區","LI":"建平里","LIN":"28鄰","STREET":"永華路","SECT":"二段","MAREA":" ","LANE":" ","ALLEY":" ","HOUSE_NO":"２５０號地下一樓之１","E_COORD97":165918.16,"N_COORD97":2543437.2999999998,"ADDRESS":"永華路二段２５０號地下一樓之１３","OBJECTID":569361},"geometry":{"x":165918.16000000015,"y":2543437.3000000026}},{"attributes":{"ID":569389,"DIS_CODE":0,"TOWNNAME":"安平區","LI":"建平里","LIN":"28鄰","STREET":"永華路","SECT":"二段","MAREA":" ","LANE":" ","ALLEY":" ","HOUSE_NO":"２５０號地下一樓之１","E_COORD97":165918.16,"N_COORD97":2543437.2999999998,"ADDRESS":"永華路二段２５０號地下一樓之１４","OBJECTID":569362},"geometry":{"x":165918.16000000015,"y":2543437.3000000026}},{"attributes":{"ID":569390,"DIS_CODE":0,"TOWNNAME":"安平區","LI":"建平里","LIN":"28鄰","STREET":"永華路","SECT":"二段","MAREA":" ","LANE":" ","ALLEY":" ","HOUSE_NO":"２５０號地下一樓之１","E_COORD97":165918.16,"N_COORD97":2543437.2999999998,"ADDRESS":"永華路二段２５０號地下一樓之１５","OBJECTID":569363},"geometry":{"x":165918.16000000015,"y":2543437.3000000026}},{"attributes":{"ID":569391,"DIS_CODE":0,"TOWNNAME":"安平區","LI":"建平里","LIN":"28鄰","STREET":"永華路","SECT":"二段","MAREA":" ","LANE":" ","ALLEY":" ","HOUSE_NO":"２５０號地下一樓之１","E_COORD97":165918.16,"N_COORD97":2543437.2999999998,"ADDRESS":"永華路二段２５０號地下一樓之１６","OBJECTID":569364},"geometry":{"x":165918.16000000015,"y":2543437.3000000026}},{"attributes":{"ID":569392,"DIS_CODE":0,"TOWNNAME":"安平區","LI":"建平里","LIN":"28鄰","STREET":"永華路","SECT":"二段","MAREA":" ","LANE":" ","ALLEY":" ","HOUSE_NO":"２５０號地下一樓之１","E_COORD97":165918.16,"N_COORD97":2543437.2999999998,"ADDRESS":"永華路二段２５０號地下一樓之１７","OBJECTID":569365},"geometry":{"x":165918.16000000015,"y":2543437.3000000026}},{"attributes":{"ID":569393,"DIS_CODE":0,"TOWNNAME":"安平區","LI":"建平里","LIN":"28鄰","STREET":"永華路","SECT":"二段","MAREA":" ","LANE":" ","ALLEY":" ","HOUSE_NO":"２５０號地下一樓之１","E_COORD97":165918.16,"N_COORD97":2543437.2999999998,"ADDRESS":"永華路二段２５０號地下一樓之１８","OBJECTID":569366},"geometry":{"x":165918.16000000015,"y":2543437.3000000026}},{"attributes":{"ID":569394,"DIS_CODE":0,"TOWNNAME":"安平區","LI":"建平里","LIN":"28鄰","STREET":"永華路","SECT":"二段","MAREA":" ","LANE":" ","ALLEY":" ","HOUSE_NO":"２５０號地下一樓之１","E_COORD97":165918.16,"N_COORD97":2543437.2999999998,"ADDRESS":"永華路二段２５０號地下一樓之１９","OBJECTID":569367},"geometry":{"x":165918.16000000015,"y":2543437.3000000026}},{"attributes":{"ID":569395,"DIS_CODE":0,"TOWNNAME":"安平區","LI":"建平里","LIN":"28鄰","STREET":"永華路","SECT":"二段","MAREA":" ","LANE":" ","ALLEY":" ","HOUSE_NO":"２５０號地下一樓之２","E_COORD97":165918.16,"N_COORD97":2543437.2999999998,"ADDRESS":"永華路二段２５０號地下一樓之２","OBJECTID":569368},"geometry":{"x":165918.16000000015,"y":2543437.3000000026}},{"attributes":{"ID":569396,"DIS_CODE":0,"TOWNNAME":"安平區","LI":"建平里","LIN":"28鄰","STREET":"永華路","SECT":"二段","MAREA":" ","LANE":" ","ALLEY":" ","HOUSE_NO":"２５０號地下一樓之２","E_COORD97":165918.16,"N_COORD97":2543437.2999999998,"ADDRESS":"永華路二段２５０號地下一樓之２０","OBJECTID":569369},"geometry":{"x":165918.16000000015,"y":2543437.3000000026}},{"attributes":{"ID":569397,"DIS_CODE":0,"TOWNNAME":"安平區","LI":"建平里","LIN":"28鄰","STREET":"永華路","SECT":"二段","MAREA":" ","LANE":" ","ALLEY":" ","HOUSE_NO":"２５０號地下一樓之２","E_COORD97":165918.16,"N_COORD97":2543437.2999999998,"ADDRESS":"永華路二段２５０號地下一樓之２１","OBJECTID":569370},"geometry":{"x":165918.16000000015,"y":2543437.3000000026}},{"attributes":{"ID":569398,"DIS_CODE":0,"TOWNNAME":"安平區","LI":"建平里","LIN":"28鄰","STREET":"永華路","SECT":"二段","MAREA":" ","LANE":" ","ALLEY":" ","HOUSE_NO":"２５０號地下一樓之２","E_COORD97":165918.16,"N_COORD97":2543437.2999999998,"ADDRESS":"永華路二段２５０號地下一樓之２２","OBJECTID":569371},"geometry":{"x":165918.16000000015,"y":2543437.3000000026}},{"attributes":{"ID":569399,"DIS_CODE":0,"TOWNNAME":"安平區","LI":"建平里","LIN":"28鄰","STREET":"永華路","SECT":"二段","MAREA":" ","LANE":" ","ALLEY":" ","HOUSE_NO":"２５０號地下一樓之２","E_COORD97":165918.16,"N_COORD97":2543437.2999999998,"ADDRESS":"永華路二段２５０號地下一樓之２３","OBJECTID":569372},"geometry":{"x":165918.16000000015,"y":2543437.3000000026}},{"attributes":{"ID":569400,"DIS_CODE":0,"TOWNNAME":"安平區","LI":"建平里","LIN":"28鄰","STREET":"永華路","SECT":"二段","MAREA":" ","LANE":" ","ALLEY":" ","HOUSE_NO":"２５０號地下一樓之２","E_COORD97":165918.16,"N_COORD97":2543437.2999999998,"ADDRESS":"永華路二段２５０號地下一樓之２４","OBJECTID":569373},"geometry":{"x":165918.16000000015,"y":2543437.3000000026}},{"attributes":{"ID":569401,"DIS_CODE":0,"TOWNNAME":"安平區","LI":"建平里","LIN":"28鄰","STREET":"永華路","SECT":"二段","MAREA":" ","LANE":" ","ALLEY":" ","HOUSE_NO":"２５０號地下一樓之２","E_COORD97":165918.16,"N_COORD97":2543437.2999999998,"ADDRESS":"永華路二段２５０號地下一樓之２５","OBJECTID":569374},"geometry":{"x":165918.16000000015,"y":2543437.3000000026}},{"attributes":{"ID":569402,"DIS_CODE":0,"TOWNNAME":"安平區","LI":"建平里","LIN":"28鄰","STREET":"永華路","SECT":"二段","MAREA":" ","LANE":" ","ALLEY":" ","HOUSE_NO":"２５０號地下一樓之２","E_COORD97":165918.16,"N_COORD97":2543437.2999999998,"ADDRESS":"永華路二段２５０號地下一樓之２６","OBJECTID":569375},"geometry":{"x":165918.16000000015,"y":2543437.3000000026}},{"attributes":{"ID":569403,"DIS_CODE":0,"TOWNNAME":"安平區","LI":"建平里","LIN":"28鄰","STREET":"永華路","SECT":"二段","MAREA":" ","LANE":" ","ALLEY":" ","HOUSE_NO":"２５０號地下一樓之２","E_COORD97":165918.16,"N_COORD97":2543437.2999999998,"ADDRESS":"永華路二段２５０號地下一樓之２７","OBJECTID":569376},"geometry":{"x":165918.16000000015,"y":2543437.3000000026}},{"attributes":{"ID":569404,"DIS_CODE":0,"TOWNNAME":"安平區","LI":"建平里","LIN":"28鄰","STREET":"永華路","SECT":"二段","MAREA":" ","LANE":" ","ALLEY":" ","HOUSE_NO":"２５０號地下一樓之２","E_COORD97":165918.16,"N_COORD97":2543437.2999999998,"ADDRESS":"永華路二段２５０號地下一樓之２８","OBJECTID":569377},"geometry":{"x":165918.16000000015,"y":2543437.3000000026}},{"attributes":{"ID":569405,"DIS_CODE":0,"TOWNNAME":"安平區","LI":"建平里","LIN":"28鄰","STREET":"永華路","SECT":"二段","MAREA":" ","LANE":" ","ALLEY":" ","HOUSE_NO":"２５０號地下一樓之２","E_COORD97":165918.16,"N_COORD97":2543437.2999999998,"ADDRESS":"永華路二段２５０號地下一樓之２９","OBJECTID":569378},"geometry":{"x":165918.16000000015,"y":2543437.3000000026}},{"attributes":{"ID":569406,"DIS_CODE":0,"TOWNNAME":"安平區","LI":"建平里","LIN":"28鄰","STREET":"永華路","SECT":"二段","MAREA":" ","LANE":" ","ALLEY":" ","HOUSE_NO":"２５０號地下一樓之３","E_COORD97":165918.16,"N_COORD97":2543437.2999999998,"ADDRESS":"永華路二段２５０號地下一樓之３","OBJECTID":569379},"geometry":{"x":165918.16000000015,"y":2543437.3000000026}},{"attributes":{"ID":569407,"DIS_CODE":0,"TOWNNAME":"安平區","LI":"建平里","LIN":"28鄰","STREET":"永華路","SECT":"二段","MAREA":" ","LANE":" ","ALLEY":" ","HOUSE_NO":"２５０號地下一樓之３","E_COORD97":165918.16,"N_COORD97":2543437.2999999998,"ADDRESS":"永華路二段２５０號地下一樓之３０","OBJECTID":569380},"geometry":{"x":165918.16000000015,"y":2543437.3000000026}},{"attributes":{"ID":569408,"DIS_CODE":0,"TOWNNAME":"安平區","LI":"建平里","LIN":"28鄰","STREET":"永華路","SECT":"二段","MAREA":" ","LANE":" ","ALLEY":" ","HOUSE_NO":"２５０號地下一樓之３","E_COORD97":165918.16,"N_COORD97":2543437.2999999998,"ADDRESS":"永華路二段２５０號地下一樓之３１","OBJECTID":569381},"geometry":{"x":165918.16000000015,"y":2543437.3000000026}},{"attributes":{"ID":569409,"DIS_CODE":0,"TOWNNAME":"安平區","LI":"建平里","LIN":"28鄰","STREET":"永華路","SECT":"二段","MAREA":" ","LANE":" ","ALLEY":" ","HOUSE_NO":"２５０號地下一樓之３","E_COORD97":165918.16,"N_COORD97":2543437.2999999998,"ADDRESS":"永華路二段２５０號地下一樓之３２","OBJECTID":569382},"geometry":{"x":165918.16000000015,"y":2543437.3000000026}},{"attributes":{"ID":569410,"DIS_CODE":0,"TOWNNAME":"新營區","LI":"新南里","LIN":"28鄰","STREET":"明清街","SECT":" ","MAREA":" ","LANE":" ","ALLEY":" ","HOUSE_NO":"４６號三樓之５","E_COORD97":178260.35999999999,"N_COORD97":2578706.25,"ADDRESS":"明清街４６號三樓之５","OBJECTID":569383},"geometry":{"x":178260.3600000022,"y":2578706.2500000037}},{"attributes":{"ID":569411,"DIS_CODE":0,"TOWNNAME":"安平區","LI":"建平里","LIN":"28鄰","STREET":"永華路","SECT":"二段","MAREA":" ","LANE":" ","ALLEY":" ","HOUSE_NO":"２５０號地下一樓之３","E_COORD97":165918.16,"N_COORD97":2543437.2999999998,"ADDRESS":"永華路二段２５０號地下一樓之３３","OBJECTID":569384},"geometry":{"x":165918.16000000015,"y":2543437.3000000026}},{"attributes":{"ID":569412,"DIS_CODE":0,"TOWNNAME":"安平區","LI":"建平里","LIN":"28鄰","STREET":"永華路","SECT":"二段","MAREA":" ","LANE":" ","ALLEY":" ","HOUSE_NO":"２５０號地下一樓之３","E_COORD97":165918.16,"N_COORD97":2543437.2999999998,"ADDRESS":"永華路二段２５０號地下一樓之３４","OBJECTID":569385},"geometry":{"x":165918.16000000015,"y":2543437.3000000026}},{"attributes":{"ID":569413,"DIS_CODE":0,"TOWNNAME":"安平區","LI":"建平里","LIN":"28鄰","STREET":"永華路","SECT":"二段","MAREA":" ","LANE":" ","ALLEY":" ","HOUSE_NO":"２５０號地下一樓之３","E_COORD97":165918.16,"N_COORD97":2543437.2999999998,"ADDRESS":"永華路二段２５０號地下一樓之３５","OBJECTID":569386},"geometry":{"x":165918.16000000015,"y":2543437.3000000026}},{"attributes":{"ID":569414,"DIS_CODE":0,"TOWNNAME":"安平區","LI":"建平里","LIN":"28鄰","STREET":"永華路","SECT":"二段","MAREA":" ","LANE":" ","ALLEY":" ","HOUSE_NO":"２５０號地下一樓之３","E_COORD97":165918.16,"N_COORD97":2543437.2999999998,"ADDRESS":"永華路二段２５０號地下一樓之３６","OBJECTID":569387},"geometry":{"x":165918.16000000015,"y":2543437.3000000026}},{"attributes":{"ID":569415,"DIS_CODE":0,"TOWNNAME":"安平區","LI":"建平里","LIN":"28鄰","STREET":"永華路","SECT":"二段","MAREA":" ","LANE":" ","ALLEY":" ","HOUSE_NO":"２５０號地下一樓之３","E_COORD97":165918.16,"N_COORD97":2543437.2999999998,"ADDRESS":"永華路二段２５０號地下一樓之３７","OBJECTID":569388},"geometry":{"x":165918.16000000015,"y":2543437.3000000026}},{"attributes":{"ID":569416,"DIS_CODE":0,"TOWNNAME":"安平區","LI":"建平里","LIN":"28鄰","STREET":"永華路","SECT":"二段","MAREA":" ","LANE":" ","ALLEY":" ","HOUSE_NO":"２５０號地下一樓之３","E_COORD97":165918.16,"N_COORD97":2543437.2999999998,"ADDRESS":"永華路二段２５０號地下一樓之３８","OBJECTID":569389},"geometry":{"x":165918.16000000015,"y":2543437.3000000026}},{"attributes":{"ID":569417,"DIS_CODE":0,"TOWNNAME":"安平區","LI":"建平里","LIN":"28鄰","STREET":"永華路","SECT":"二段","MAREA":" ","LANE":" ","ALLEY":" ","HOUSE_NO":"２５０號地下一樓之３","E_COORD97":165918.16,"N_COORD97":2543437.2999999998,"ADDRESS":"永華路二段２５０號地下一樓之３９","OBJECTID":569390},"geometry":{"x":165918.16000000015,"y":2543437.3000000026}},{"attributes":{"ID":569418,"DIS_CODE":0,"TOWNNAME":"安平區","LI":"建平里","LIN":"28鄰","STREET":"永華路","SECT":"二段","MAREA":" ","LANE":" ","ALLEY":" ","HOUSE_NO":"２５０號地下一樓之４","E_COORD97":165918.16,"N_COORD97":2543437.2999999998,"ADDRESS":"永華路二段２５０號地下一樓之４","OBJECTID":569391},"geometry":{"x":165918.16000000015,"y":2543437.3000000026}},{"attributes":{"ID":569419,"DIS_CODE":0,"TOWNNAME":"安平區","LI":"建平里","LIN":"28鄰","STREET":"永華路","SECT":"二段","MAREA":" ","LANE":" ","ALLEY":" ","HOUSE_NO":"２５０號地下一樓之４","E_COORD97":165918.16,"N_COORD97":2543437.2999999998,"ADDRESS":"永華路二段２５０號地下一樓之４０","OBJECTID":569392},"geometry":{"x":165918.16000000015,"y":2543437.3000000026}},{"attributes":{"ID":569420,"DIS_CODE":0,"TOWNNAME":"安平區","LI":"建平里","LIN":"28鄰","STREET":"永華路","SECT":"二段","MAREA":" ","LANE":" ","ALLEY":" ","HOUSE_NO":"２５０號地下一樓之４","E_COORD97":165918.16,"N_COORD97":2543437.2999999998,"ADDRESS":"永華路二段２５０號地下一樓之４１","OBJECTID":569393},"geometry":{"x":165918.16000000015,"y":2543437.3000000026}},{"attributes":{"ID":569421,"DIS_CODE":0,"TOWNNAME":"安平區","LI":"建平里","LIN":"28鄰","STREET":"永華路","SECT":"二段","MAREA":" ","LANE":" ","ALLEY":" ","HOUSE_NO":"２５０號地下一樓之４","E_COORD97":165918.16,"N_COORD97":2543437.2999999998,"ADDRESS":"永華路二段２５０號地下一樓之４２","OBJECTID":569394},"geometry":{"x":165918.16000000015,"y":2543437.3000000026}},{"attributes":{"ID":569422,"DIS_CODE":0,"TOWNNAME":"安平區","LI":"建平里","LIN":"28鄰","STREET":"永華路","SECT":"二段","MAREA":" ","LANE":" ","ALLEY":" ","HOUSE_NO":"２５０號地下一樓之４","E_COORD97":165918.16,"N_COORD97":2543437.2999999998,"ADDRESS":"永華路二段２５０號地下一樓之４３","OBJECTID":569395},"geometry":{"x":165918.16000000015,"y":2543437.3000000026}},{"attributes":{"ID":569423,"DIS_CODE":0,"TOWNNAME":"安平區","LI":"建平里","LIN":"28鄰","STREET":"建平八街","SECT":" ","MAREA":" ","LANE":" ","ALLEY":" ","HOUSE_NO":"７２號六樓之６","E_COORD97":165940.76000000001,"N_COORD97":2543496.8300000001,"ADDRESS":"建平八街７２號六樓之６","OBJECTID":569396},"geometry":{"x":165940.75999999978,"y":2543496.8300000038}},{"attributes":{"ID":569424,"DIS_CODE":0,"TOWNNAME":"安平區","LI":"建平里","LIN":"28鄰","STREET":"永華路","SECT":"二段","MAREA":" ","LANE":" ","ALLEY":" ","HOUSE_NO":"２５０號地下一樓之４","E_COORD97":165918.16,"N_COORD97":2543437.2999999998,"ADDRESS":"永華路二段２５０號地下一樓之４３之１","OBJECTID":569397},"geometry":{"x":165918.16000000015,"y":2543437.3000000026}},{"attributes":{"ID":569425,"DIS_CODE":0,"TOWNNAME":"安平區","LI":"建平里","LIN":"28鄰","STREET":"永華路","SECT":"二段","MAREA":" ","LANE":" ","ALLEY":" ","HOUSE_NO":"２５０號地下一樓之４","E_COORD97":165918.16,"N_COORD97":2543437.2999999998,"ADDRESS":"永華路二段２５０號地下一樓之４５","OBJECTID":569398},"geometry":{"x":165918.16000000015,"y":2543437.3000000026}},{"attributes":{"ID":569426,"DIS_CODE":0,"TOWNNAME":"安平區","LI":"建平里","LIN":"28鄰","STREET":"永華路","SECT":"二段","MAREA":" ","LANE":" ","ALLEY":" ","HOUSE_NO":"２５０號地下一樓之４","E_COORD97":165918.16,"N_COORD97":2543437.2999999998,"ADDRESS":"永華路二段２５０號地下一樓之４６","OBJECTID":569399},"geometry":{"x":165918.16000000015,"y":2543437.3000000026}},{"attributes":{"ID":569427,"DIS_CODE":0,"TOWNNAME":"安平區","LI":"建平里","LIN":"28鄰","STREET":"永華路","SECT":"二段","MAREA":" ","LANE":" ","ALLEY":" ","HOUSE_NO":"２５０號地下一樓之４","E_COORD97":165918.16,"N_COORD97":2543437.2999999998,"ADDRESS":"永華路二段２５０號地下一樓之４７","OBJECTID":569400},"geometry":{"x":165918.16000000015,"y":2543437.3000000026}}]}