{"displayFieldName":"TOWNNAME","fieldAliases":{"ID":"ID","DIS_CODE":"DIS_CODE","TOWNNAME":"TOWNNAME","LI":"LI","LIN":"LIN","STREET":"STREET","SECT":"SECT","MAREA":"MAREA","LANE":"LANE","ALLEY":"ALLEY","HOUSE_NO":"HOUSE_NO","E_COORD97":"E_COORD97","N_COORD97":"N_COORD97","ADDRESS":"ADDRESS","OBJECTID":"OBJECTID"},"geometryType":"esriGeometryPoint","spatialReference":{"wkid":102443,"latestWkid":3826},"fields":[{"name":"ID","type":"esriFieldTypeDouble","alias":"ID"},{"name":"DIS_CODE","type":"esriFieldTypeInteger","alias":"DIS_CODE"},{"name":"TOWNNAME","type":"esriFieldTypeString","alias":"TOWNNAME","length":8},{"name":"LI","type":"esriFieldTypeString","alias":"LI","length":8},{"name":"LIN","type":"esriFieldTypeString","alias":"LIN","length":12},{"name":"STREET","type":"esriFieldTypeString","alias":"STREET","length":20},{"name":"SECT","type":"esriFieldTypeString","alias":"SECT","length":8},{"name":"MAREA","type":"esriFieldTypeString","alias":"MAREA","length":12},{"name":"LANE","type":"esriFieldTypeString","alias":"LANE","length":10},{"name":"ALLEY","type":"esriFieldTypeString","alias":"ALLEY","length":10},{"name":"HOUSE_NO","type":"esriFieldTypeString","alias":"HOUSE_NO","length":20},{"name":"E_COORD97","type":"esriFieldTypeDouble","alias":"E_COORD97"},{"name":"N_COORD97","type":"esriFieldTypeDouble","alias":"N_COORD97"},{"name":"ADDRESS","type":"esriFieldTypeString","alias":"ADDRESS","length":50},{"name":"OBJECTID","type":"esriFieldTypeOID","alias":"OBJECTID"}],"features":[{"attributes":{"ID":529828,"DIS_CODE":0,"TOWNNAME":"東區","LI":"德光里","LIN":"4鄰","STREET":"崇德路","SECT":" ","MAREA":" ","LANE":" ","ALLEY":" ","HOUSE_NO":"６４號地下層","E_COORD97":169806.54999999999,"N_COORD97":2542365.3999999999,"ADDRESS":"崇德路６４號地下層","OBJECTID":529801},"geometry":{"x":169806.55000000075,"y":2542365.4000000022}},{"attributes":{"ID":529829,"DIS_CODE":0,"TOWNNAME":"東區","LI":"德光里","LIN":"4鄰","STREET":"崇德路","SECT":" ","MAREA":" ","LANE":" ","ALLEY":" ","HOUSE_NO":"６８號","E_COORD97":169813.79999999999,"N_COORD97":2542348.25,"ADDRESS":"崇德路６８號","OBJECTID":529802},"geometry":{"x":169813.80000000075,"y":2542348.2500000019}},{"attributes":{"ID":529830,"DIS_CODE":0,"TOWNNAME":"東區","LI":"德光里","LIN":"4鄰","STREET":"崇德路","SECT":" ","MAREA":" ","LANE":" ","ALLEY":" ","HOUSE_NO":"７０號","E_COORD97":169819.39000000001,"N_COORD97":2542343.6000000001,"ADDRESS":"崇德路７０號","OBJECTID":529803},"geometry":{"x":169819.3900000006,"y":2542343.5999999996}},{"attributes":{"ID":529831,"DIS_CODE":0,"TOWNNAME":"安南區","LI":"大安里","LIN":"6鄰","STREET":"理安街","SECT":" ","MAREA":" ","LANE":" ","ALLEY":" ","HOUSE_NO":"１０２號","E_COORD97":167404.17000000001,"N_COORD97":2548071.4300000002,"ADDRESS":"理安街１０２號","OBJECTID":529804},"geometry":{"x":167404.17000000086,"y":2548071.4299999997}},{"attributes":{"ID":529832,"DIS_CODE":0,"TOWNNAME":"善化區","LI":"坐駕里","LIN":"6鄰","STREET":"建國路","SECT":" ","MAREA":" ","LANE":" ","ALLEY":" ","HOUSE_NO":"１５７號","E_COORD97":177954.23000000001,"N_COORD97":2559009.7799999998,"ADDRESS":"建國路１５７號","OBJECTID":529805},"geometry":{"x":177954.23000000045,"y":2559009.7799999993}},{"attributes":{"ID":529833,"DIS_CODE":0,"TOWNNAME":"善化區","LI":"南關里","LIN":"6鄰","STREET":"永安路","SECT":" ","MAREA":" ","LANE":" ","ALLEY":" ","HOUSE_NO":"３３號","E_COORD97":177138.23999999999,"N_COORD97":2558616.02,"ADDRESS":"永安路３３號","OBJECTID":529806},"geometry":{"x":177138.24000000022,"y":2558616.0200000033}},{"attributes":{"ID":529834,"DIS_CODE":0,"TOWNNAME":"善化區","LI":"南關里","LIN":"6鄰","STREET":"永安路","SECT":" ","MAREA":" ","LANE":" ","ALLEY":" ","HOUSE_NO":"２３號","E_COORD97":177145.19,"N_COORD97":2558596.02,"ADDRESS":"永安路２３號","OBJECTID":529807},"geometry":{"x":177145.19000000134,"y":2558596.0200000014}},{"attributes":{"ID":529835,"DIS_CODE":0,"TOWNNAME":"善化區","LI":"南關里","LIN":"6鄰","STREET":"永安路","SECT":" ","MAREA":" ","LANE":" ","ALLEY":" ","HOUSE_NO":"３０號","E_COORD97":177120,"N_COORD97":2558619.52,"ADDRESS":"永安路３０號","OBJECTID":529808},"geometry":{"x":177120.00000000093,"y":2558619.5200000014}},{"attributes":{"ID":529836,"DIS_CODE":0,"TOWNNAME":"善化區","LI":"南關里","LIN":"6鄰","STREET":"永安路","SECT":" ","MAREA":" ","LANE":" ","ALLEY":" ","HOUSE_NO":"２７號","E_COORD97":177142.42000000001,"N_COORD97":2558604.02,"ADDRESS":"永安路２７號","OBJECTID":529809},"geometry":{"x":177142.42000000179,"y":2558604.0199999996}},{"attributes":{"ID":529837,"DIS_CODE":0,"TOWNNAME":"善化區","LI":"西關里","LIN":"6鄰","STREET":"三民路","SECT":" ","MAREA":" ","LANE":" ","ALLEY":" ","HOUSE_NO":"７３號","E_COORD97":177079.70000000001,"N_COORD97":2559107.2599999998,"ADDRESS":"三民路７３號","OBJECTID":529810},"geometry":{"x":177079.70000000205,"y":2559107.2600000016}},{"attributes":{"ID":529838,"DIS_CODE":0,"TOWNNAME":"善化區","LI":"坐駕里","LIN":"6鄰","STREET":"民生路","SECT":" ","MAREA":" ","LANE":" ","ALLEY":" ","HOUSE_NO":"３８０號","E_COORD97":177951.34,"N_COORD97":2558889.7599999998,"ADDRESS":"民生路３８０號","OBJECTID":529811},"geometry":{"x":177951.34000000171,"y":2558889.7600000016}},{"attributes":{"ID":529839,"DIS_CODE":0,"TOWNNAME":"善化區","LI":"坐駕里","LIN":"6鄰","STREET":"民生路","SECT":" ","MAREA":" ","LANE":" ","ALLEY":" ","HOUSE_NO":"３９０號","E_COORD97":177925.34,"N_COORD97":2558886.7599999998,"ADDRESS":"民生路３９０號","OBJECTID":529812},"geometry":{"x":177925.33999999985,"y":2558886.7600000016}},{"attributes":{"ID":529840,"DIS_CODE":0,"TOWNNAME":"善化區","LI":"北關里","LIN":"6鄰","STREET":"中山路","SECT":" ","MAREA":" ","LANE":" ","ALLEY":" ","HOUSE_NO":"５０２號之１","E_COORD97":177197.62,"N_COORD97":2559148.52,"ADDRESS":"中山路５０２號之１","OBJECTID":529813},"geometry":{"x":177197.62000000104,"y":2559148.5200000014}},{"attributes":{"ID":529841,"DIS_CODE":0,"TOWNNAME":"善化區","LI":"坐駕里","LIN":"6鄰","STREET":"建國路","SECT":" ","MAREA":" ","LANE":" ","ALLEY":" ","HOUSE_NO":"１３１號","E_COORD97":177966.45999999999,"N_COORD97":2558932.5299999998,"ADDRESS":"建國路１３１號","OBJECTID":529814},"geometry":{"x":177966.46000000089,"y":2558932.5299999993}},{"attributes":{"ID":529842,"DIS_CODE":0,"TOWNNAME":"善化區","LI":"南關里","LIN":"6鄰","STREET":"文昌路","SECT":" ","MAREA":" ","LANE":" ","ALLEY":" ","HOUSE_NO":"１１１號","E_COORD97":177134.54000000001,"N_COORD97":2558662.2799999998,"ADDRESS":"文昌路１１１號","OBJECTID":529815},"geometry":{"x":177134.54000000004,"y":2558662.2800000012}},{"attributes":{"ID":529843,"DIS_CODE":0,"TOWNNAME":"善化區","LI":"南關里","LIN":"6鄰","STREET":"永安路","SECT":" ","MAREA":" ","LANE":" ","ALLEY":" ","HOUSE_NO":"２８號","E_COORD97":177121.31,"N_COORD97":2558615.52,"ADDRESS":"永安路２８號","OBJECTID":529816},"geometry":{"x":177121.31000000052,"y":2558615.5199999996}},{"attributes":{"ID":529844,"DIS_CODE":0,"TOWNNAME":"善化區","LI":"坐駕里","LIN":"6鄰","STREET":"建國路","SECT":" ","MAREA":" ","LANE":" ","ALLEY":" ","HOUSE_NO":"１３７號","E_COORD97":177964.16,"N_COORD97":2558946.0299999998,"ADDRESS":"建國路１３７號","OBJECTID":529817},"geometry":{"x":177964.16000000015,"y":2558946.0300000012}},{"attributes":{"ID":529845,"DIS_CODE":0,"TOWNNAME":"善化區","LI":"南關里","LIN":"6鄰","STREET":"永安路","SECT":" ","MAREA":" ","LANE":" ","ALLEY":" ","HOUSE_NO":"４１號","E_COORD97":177132.89000000001,"N_COORD97":2558631.77,"ADDRESS":"永安路４１號","OBJECTID":529818},"geometry":{"x":177132.8900000006,"y":2558631.7700000014}},{"attributes":{"ID":529846,"DIS_CODE":0,"TOWNNAME":"善化區","LI":"坐駕里","LIN":"6鄰","STREET":"建國路","SECT":" ","MAREA":" ","LANE":" ","ALLEY":" ","HOUSE_NO":"１２７號","E_COORD97":177967.81,"N_COORD97":2558923.7799999998,"ADDRESS":"建國路１２７號","OBJECTID":529819},"geometry":{"x":177967.80999999959,"y":2558923.7800000012}},{"attributes":{"ID":529847,"DIS_CODE":0,"TOWNNAME":"善化區","LI":"南關里","LIN":"6鄰","STREET":"永安路","SECT":" ","MAREA":" ","LANE":" ","ALLEY":" ","HOUSE_NO":"２９號","E_COORD97":177141.28,"N_COORD97":2558607.77,"ADDRESS":"永安路２９號","OBJECTID":529820},"geometry":{"x":177141.28000000026,"y":2558607.7700000014}},{"attributes":{"ID":529848,"DIS_CODE":0,"TOWNNAME":"善化區","LI":"南關里","LIN":"6鄰","STREET":"永安路","SECT":" ","MAREA":" ","LANE":" ","ALLEY":" ","HOUSE_NO":"３９號","E_COORD97":177133.97,"N_COORD97":2558628.02,"ADDRESS":"永安路３９號","OBJECTID":529821},"geometry":{"x":177133.97000000067,"y":2558628.0199999996}},{"attributes":{"ID":529849,"DIS_CODE":0,"TOWNNAME":"善化區","LI":"南關里","LIN":"6鄰","STREET":"永安路","SECT":" ","MAREA":" ","LANE":" ","ALLEY":" ","HOUSE_NO":"１８號","E_COORD97":177128.10999999999,"N_COORD97":2558597.27,"ADDRESS":"永安路１８號","OBJECTID":529822},"geometry":{"x":177128.11000000127,"y":2558597.2700000033}},{"attributes":{"ID":529850,"DIS_CODE":0,"TOWNNAME":"善化區","LI":"坐駕里","LIN":"6鄰","STREET":"建國路","SECT":" ","MAREA":" ","LANE":" ","ALLEY":" ","HOUSE_NO":"１４７號","E_COORD97":177957.78,"N_COORD97":2558987.7799999998,"ADDRESS":"建國路１４７號","OBJECTID":529823},"geometry":{"x":177957.78000000119,"y":2558987.7800000012}},{"attributes":{"ID":529851,"DIS_CODE":0,"TOWNNAME":"善化區","LI":"南關里","LIN":"6鄰","STREET":"文昌路","SECT":" ","MAREA":" ","LANE":" ","ALLEY":" ","HOUSE_NO":"１２３號","E_COORD97":177100.75,"N_COORD97":2558642.2799999998,"ADDRESS":"文昌路１２３號","OBJECTID":529824},"geometry":{"x":177100.75,"y":2558642.2800000012}},{"attributes":{"ID":529852,"DIS_CODE":0,"TOWNNAME":"善化區","LI":"南關里","LIN":"6鄰","STREET":"光復路","SECT":" ","MAREA":" ","LANE":" ","ALLEY":" ","HOUSE_NO":"２９７號","E_COORD97":177046.70999999999,"N_COORD97":2558507.7599999998,"ADDRESS":"光復路２９７號","OBJECTID":529825},"geometry":{"x":177046.70999999996,"y":2558507.7599999998}},{"attributes":{"ID":529853,"DIS_CODE":0,"TOWNNAME":"善化區","LI":"坐駕里","LIN":"6鄰","STREET":"建國路","SECT":" ","MAREA":" ","LANE":" ","ALLEY":" ","HOUSE_NO":"１５３號","E_COORD97":177955.17999999999,"N_COORD97":2559001.0299999998,"ADDRESS":"建國路１５３號","OBJECTID":529826},"geometry":{"x":177955.1799999997,"y":2559001.0299999993}},{"attributes":{"ID":529854,"DIS_CODE":0,"TOWNNAME":"善化區","LI":"坐駕里","LIN":"6鄰","STREET":"建國路","SECT":" ","MAREA":" ","LANE":" ","ALLEY":" ","HOUSE_NO":"１２１號","E_COORD97":177970.29999999999,"N_COORD97":2558910.2799999998,"ADDRESS":"建國路１２１號","OBJECTID":529827},"geometry":{"x":177970.30000000168,"y":2558910.2800000012}},{"attributes":{"ID":529855,"DIS_CODE":0,"TOWNNAME":"善化區","LI":"南關里","LIN":"6鄰","STREET":"文昌路","SECT":" ","MAREA":" ","LANE":" ","ALLEY":" ","HOUSE_NO":"５８號","E_COORD97":177120.14999999999,"N_COORD97":2558680.5299999998,"ADDRESS":"文昌路５８號","OBJECTID":529828},"geometry":{"x":177120.15000000037,"y":2558680.5300000012}},{"attributes":{"ID":529856,"DIS_CODE":0,"TOWNNAME":"善化區","LI":"東關里","LIN":"6鄰","STREET":"中山路","SECT":" ","MAREA":" ","LANE":" ","ALLEY":" ","HOUSE_NO":"４６０號","E_COORD97":177310.67000000001,"N_COORD97":2559133.5,"ADDRESS":"中山路４６０號","OBJECTID":529829},"geometry":{"x":177310.67000000086,"y":2559133.5}},{"attributes":{"ID":529857,"DIS_CODE":0,"TOWNNAME":"善化區","LI":"坐駕里","LIN":"6鄰","STREET":"建國路","SECT":" ","MAREA":" ","LANE":" ","ALLEY":" ","HOUSE_NO":"１６１號","E_COORD97":177952.76999999999,"N_COORD97":2559019.2799999998,"ADDRESS":"建國路１６１號","OBJECTID":529830},"geometry":{"x":177952.76999999955,"y":2559019.2799999993}},{"attributes":{"ID":529858,"DIS_CODE":0,"TOWNNAME":"善化區","LI":"南關里","LIN":"6鄰","STREET":"文昌路","SECT":" ","MAREA":" ","LANE":" ","ALLEY":" ","HOUSE_NO":"５６之１號","E_COORD97":177124.95000000001,"N_COORD97":2558681.7799999998,"ADDRESS":"文昌路５６之１號","OBJECTID":529831},"geometry":{"x":177124.95000000019,"y":2558681.7800000031}},{"attributes":{"ID":529859,"DIS_CODE":0,"TOWNNAME":"善化區","LI":"南關里","LIN":"6鄰","STREET":"文昌路","SECT":" ","MAREA":" ","LANE":" ","ALLEY":" ","HOUSE_NO":"５４號","E_COORD97":177140.28,"N_COORD97":2558687.7799999998,"ADDRESS":"文昌路５４號","OBJECTID":529832},"geometry":{"x":177140.28000000212,"y":2558687.7799999993}},{"attributes":{"ID":529860,"DIS_CODE":0,"TOWNNAME":"善化區","LI":"南關里","LIN":"6鄰","STREET":"永安路","SECT":" ","MAREA":" ","LANE":" ","ALLEY":" ","HOUSE_NO":"２０號","E_COORD97":177126.5,"N_COORD97":2558600.77,"ADDRESS":"永安路２０號","OBJECTID":529833},"geometry":{"x":177126.49999999907,"y":2558600.7700000033}},{"attributes":{"ID":529861,"DIS_CODE":0,"TOWNNAME":"善化區","LI":"南關里","LIN":"6鄰","STREET":"永安路","SECT":" ","MAREA":" ","LANE":" ","ALLEY":" ","HOUSE_NO":"４３號","E_COORD97":177131.07999999999,"N_COORD97":2558635.77,"ADDRESS":"永安路４３號","OBJECTID":529834},"geometry":{"x":177131.08000000007,"y":2558635.7700000014}},{"attributes":{"ID":529862,"DIS_CODE":0,"TOWNNAME":"善化區","LI":"南關里","LIN":"6鄰","STREET":"文昌路","SECT":" ","MAREA":" ","LANE":" ","ALLEY":" ","HOUSE_NO":"１１９號","E_COORD97":177111.64999999999,"N_COORD97":2558643.0299999998,"ADDRESS":"文昌路１１９號","OBJECTID":529835},"geometry":{"x":177111.65000000037,"y":2558643.0300000012}},{"attributes":{"ID":529863,"DIS_CODE":0,"TOWNNAME":"善化區","LI":"南關里","LIN":"6鄰","STREET":"永安路","SECT":" ","MAREA":" ","LANE":" ","ALLEY":" ","HOUSE_NO":"３６號","E_COORD97":177115.95000000001,"N_COORD97":2558631.52,"ADDRESS":"永安路３６號","OBJECTID":529836},"geometry":{"x":177115.95000000112,"y":2558631.5199999996}},{"attributes":{"ID":529864,"DIS_CODE":0,"TOWNNAME":"善化區","LI":"南關里","LIN":"6鄰","STREET":"文昌路","SECT":" ","MAREA":" ","LANE":" ","ALLEY":" ","HOUSE_NO":"５８之１號","E_COORD97":177116.06,"N_COORD97":2558681.2799999998,"ADDRESS":"文昌路５８之１號","OBJECTID":529837},"geometry":{"x":177116.06000000052,"y":2558681.2799999993}},{"attributes":{"ID":529865,"DIS_CODE":0,"TOWNNAME":"善化區","LI":"坐駕里","LIN":"6鄰","STREET":"青年路","SECT":" ","MAREA":" ","LANE":" ","ALLEY":" ","HOUSE_NO":"１６２號","E_COORD97":177849.62,"N_COORD97":2558888.5,"ADDRESS":"青年路１６２號","OBJECTID":529838},"geometry":{"x":177849.62000000011,"y":2558888.5000000019}},{"attributes":{"ID":529866,"DIS_CODE":0,"TOWNNAME":"善化區","LI":"坐駕里","LIN":"6鄰","STREET":"民生路","SECT":" ","MAREA":" ","LANE":" ","ALLEY":" ","HOUSE_NO":"４０８號","E_COORD97":177876.38,"N_COORD97":2558879.2599999998,"ADDRESS":"民生路４０８號","OBJECTID":529839},"geometry":{"x":177876.37999999989,"y":2558879.2600000016}},{"attributes":{"ID":529867,"DIS_CODE":0,"TOWNNAME":"善化區","LI":"西關里","LIN":"6鄰","STREET":"三民路","SECT":" ","MAREA":" ","LANE":" ","ALLEY":" ","HOUSE_NO":"７９號之１","E_COORD97":177109.87,"N_COORD97":2559126.27,"ADDRESS":"三民路７９號之１","OBJECTID":529840},"geometry":{"x":177109.87000000011,"y":2559126.2700000033}},{"attributes":{"ID":529868,"DIS_CODE":0,"TOWNNAME":"善化區","LI":"西關里","LIN":"6鄰","STREET":"三民路","SECT":" ","MAREA":" ","LANE":" ","ALLEY":" ","HOUSE_NO":"７９號","E_COORD97":177107.89000000001,"N_COORD97":2559121.5099999998,"ADDRESS":"三民路７９號","OBJECTID":529841},"geometry":{"x":177107.88999999966,"y":2559121.5100000035}},{"attributes":{"ID":529869,"DIS_CODE":0,"TOWNNAME":"善化區","LI":"西關里","LIN":"6鄰","STREET":"三民路","SECT":" ","MAREA":" ","LANE":" ","ALLEY":" ","HOUSE_NO":"８３號之１","E_COORD97":177111.54000000001,"N_COORD97":2559134.52,"ADDRESS":"三民路８３號之１","OBJECTID":529842},"geometry":{"x":177111.54000000097,"y":2559134.5200000033}},{"attributes":{"ID":529870,"DIS_CODE":0,"TOWNNAME":"善化區","LI":"坐駕里","LIN":"6鄰","STREET":"民生路","SECT":" ","MAREA":" ","LANE":" ","ALLEY":" ","HOUSE_NO":"３９２號之１","E_COORD97":177916.92999999999,"N_COORD97":2558883.02,"ADDRESS":"民生路３９２號之１","OBJECTID":529843},"geometry":{"x":177916.93000000063,"y":2558883.0199999996}},{"attributes":{"ID":529871,"DIS_CODE":0,"TOWNNAME":"善化區","LI":"坐駕里","LIN":"6鄰","STREET":"民生路","SECT":" ","MAREA":" ","LANE":" ","ALLEY":" ","HOUSE_NO":"３９８號","E_COORD97":177906.73000000001,"N_COORD97":2558884.0099999998,"ADDRESS":"民生路３９８號","OBJECTID":529844},"geometry":{"x":177906.73000000045,"y":2558884.0100000035}},{"attributes":{"ID":529872,"DIS_CODE":0,"TOWNNAME":"善化區","LI":"北關里","LIN":"6鄰","STREET":"中山路","SECT":" ","MAREA":" ","LANE":" ","ALLEY":" ","HOUSE_NO":"５０４號","E_COORD97":177189.57999999999,"N_COORD97":2559148.75,"ADDRESS":"中山路５０４號","OBJECTID":529845},"geometry":{"x":177189.58000000101,"y":2559148.75}},{"attributes":{"ID":529873,"DIS_CODE":0,"TOWNNAME":"善化區","LI":"坐駕里","LIN":"6鄰","STREET":"民生路","SECT":" ","MAREA":" ","LANE":" ","ALLEY":" ","HOUSE_NO":"３７８號","E_COORD97":177956.44,"N_COORD97":2558891.7599999998,"ADDRESS":"民生路３７８號","OBJECTID":529846},"geometry":{"x":177956.44000000227,"y":2558891.7599999998}},{"attributes":{"ID":529874,"DIS_CODE":0,"TOWNNAME":"永康區","LI":"網寮里","LIN":"6鄰","STREET":"永二街","SECT":" ","MAREA":" ","LANE":" ","ALLEY":" ","HOUSE_NO":"２３６號","E_COORD97":173263.29999999999,"N_COORD97":2546289.5899999999,"ADDRESS":"永二街２３６號","OBJECTID":529847},"geometry":{"x":173263.30000000075,"y":2546289.5900000017}},{"attributes":{"ID":529875,"DIS_CODE":0,"TOWNNAME":"永康區","LI":"蔦松里","LIN":"6鄰","STREET":"蔦松一街","SECT":" ","MAREA":" ","LANE":" ","ALLEY":" ","HOUSE_NO":"８２號","E_COORD97":173854.45999999999,"N_COORD97":2549480.8999999999,"ADDRESS":"蔦松一街８２號","OBJECTID":529848},"geometry":{"x":173854.45999999996,"y":2549480.9000000022}},{"attributes":{"ID":529876,"DIS_CODE":0,"TOWNNAME":"永康區","LI":"蔦松里","LIN":"6鄰","STREET":"蔦松一街","SECT":" ","MAREA":" ","LANE":" ","ALLEY":" ","HOUSE_NO":"２００號","E_COORD97":173636.72,"N_COORD97":2549715.2400000002,"ADDRESS":"蔦松一街２００號","OBJECTID":529849},"geometry":{"x":173636.72000000067,"y":2549715.2400000039}},{"attributes":{"ID":529877,"DIS_CODE":0,"TOWNNAME":"永康區","LI":"蔦松里","LIN":"6鄰","STREET":"蔦松一街","SECT":" ","MAREA":" ","LANE":" ","ALLEY":" ","HOUSE_NO":"７２號","E_COORD97":173895.76999999999,"N_COORD97":2549473.1299999999,"ADDRESS":"蔦松一街７２號","OBJECTID":529850},"geometry":{"x":173895.77000000048,"y":2549473.129999999}},{"attributes":{"ID":529878,"DIS_CODE":0,"TOWNNAME":"永康區","LI":"蔦松里","LIN":"6鄰","STREET":"蔦松一街","SECT":" ","MAREA":" ","LANE":" ","ALLEY":" ","HOUSE_NO":"２３２號","E_COORD97":173556.85000000001,"N_COORD97":2549813.9900000002,"ADDRESS":"蔦松一街２３２號","OBJECTID":529851},"geometry":{"x":173556.84999999963,"y":2549813.9900000002}},{"attributes":{"ID":529879,"DIS_CODE":0,"TOWNNAME":"永康區","LI":"\u25A0行里","LIN":"6鄰","STREET":"新行街","SECT":" ","MAREA":" ","LANE":" ","ALLEY":" ","HOUSE_NO":"２５號","E_COORD97":172231.73999999999,"N_COORD97":2548799.6400000001,"ADDRESS":"新行街２５號","OBJECTID":529852},"geometry":{"x":172231.74000000115,"y":2548799.6400000006}},{"attributes":{"ID":529880,"DIS_CODE":0,"TOWNNAME":"永康區","LI":"龍潭里","LIN":"6鄰","STREET":"龍埔街","SECT":" ","MAREA":" ","LANE":" ","ALLEY":" ","HOUSE_NO":"１０之１號","E_COORD97":174847.29000000001,"N_COORD97":2548196.5499999998,"ADDRESS":"龍埔街１０之１號","OBJECTID":529853},"geometry":{"x":174847.29000000004,"y":2548196.5500000026}},{"attributes":{"ID":529881,"DIS_CODE":0,"TOWNNAME":"永康區","LI":"蔦松里","LIN":"6鄰","STREET":"蔦松三街","SECT":" ","MAREA":" ","LANE":" ","ALLEY":" ","HOUSE_NO":"１３０號","E_COORD97":173955.12,"N_COORD97":2549708.7599999998,"ADDRESS":"蔦松三街１３０號","OBJECTID":529854},"geometry":{"x":173955.12000000011,"y":2549708.7600000016}},{"attributes":{"ID":529882,"DIS_CODE":0,"TOWNNAME":"永康區","LI":"網寮里","LIN":"6鄰","STREET":"永二街","SECT":" ","MAREA":" ","LANE":" ","ALLEY":" ","HOUSE_NO":"２２４號","E_COORD97":173284.35000000001,"N_COORD97":2546273.5899999999,"ADDRESS":"永二街２２４號","OBJECTID":529855},"geometry":{"x":173284.35000000149,"y":2546273.5899999999}},{"attributes":{"ID":529883,"DIS_CODE":0,"TOWNNAME":"東區","LI":"富強里","LIN":"6鄰","STREET":"中華東路","SECT":"二段","MAREA":" ","LANE":" ","ALLEY":" ","HOUSE_NO":"６２號","E_COORD97":171369.75,"N_COORD97":2542976.1899999999,"ADDRESS":"中華東路二段６２號","OBJECTID":529856},"geometry":{"x":171369.75000000186,"y":2542976.1900000013}},{"attributes":{"ID":529884,"DIS_CODE":0,"TOWNNAME":"東區","LI":"富強里","LIN":"6鄰","STREET":"中華東路","SECT":"二段","MAREA":" ","LANE":" ","ALLEY":" ","HOUSE_NO":"６６號","E_COORD97":171370.75,"N_COORD97":2542966.9399999999,"ADDRESS":"中華東路二段６６號","OBJECTID":529857},"geometry":{"x":171370.75,"y":2542966.9400000013}},{"attributes":{"ID":529885,"DIS_CODE":0,"TOWNNAME":"東區","LI":"富強里","LIN":"6鄰","STREET":"中華東路","SECT":"二段","MAREA":" ","LANE":" ","ALLEY":" ","HOUSE_NO":"９４號","E_COORD97":171359.20999999999,"N_COORD97":2542896.8500000001,"ADDRESS":"中華東路二段９４號","OBJECTID":529858},"geometry":{"x":171359.20999999996,"y":2542896.8500000015}},{"attributes":{"ID":529886,"DIS_CODE":0,"TOWNNAME":"東區","LI":"富強里","LIN":"6鄰","STREET":"中華東路","SECT":"二段","MAREA":" ","LANE":" ","ALLEY":" ","HOUSE_NO":"７４號","E_COORD97":171368.89999999999,"N_COORD97":2542947.6200000001,"ADDRESS":"中華東路二段７４號","OBJECTID":529859},"geometry":{"x":171368.90000000037,"y":2542947.6200000029}},{"attributes":{"ID":529887,"DIS_CODE":0,"TOWNNAME":"東區","LI":"富強里","LIN":"6鄰","STREET":"中華東路","SECT":"二段","MAREA":" ","LANE":" ","ALLEY":" ","HOUSE_NO":"７８號","E_COORD97":171368.76000000001,"N_COORD97":2542937.7999999998,"ADDRESS":"中華東路二段７８號","OBJECTID":529860},"geometry":{"x":171368.75999999978,"y":2542937.8000000007}},{"attributes":{"ID":529888,"DIS_CODE":0,"TOWNNAME":"東區","LI":"富強里","LIN":"6鄰","STREET":"中華東路","SECT":"二段","MAREA":" ","LANE":" ","ALLEY":" ","HOUSE_NO":"８０號","E_COORD97":171368.04000000001,"N_COORD97":2542932.25,"ADDRESS":"中華東路二段８０號","OBJECTID":529861},"geometry":{"x":171368.04000000097,"y":2542932.2500000019}},{"attributes":{"ID":529889,"DIS_CODE":0,"TOWNNAME":"東區","LI":"富強里","LIN":"6鄰","STREET":"中華東路","SECT":"二段","MAREA":" ","LANE":" ","ALLEY":" ","HOUSE_NO":"８８號","E_COORD97":171363.06,"N_COORD97":2542914.21,"ADDRESS":"中華東路二段８８號","OBJECTID":529862},"geometry":{"x":171363.05999999959,"y":2542914.2100000009}},{"attributes":{"ID":529890,"DIS_CODE":0,"TOWNNAME":"東區","LI":"富強里","LIN":"6鄰","STREET":"中華東路","SECT":"二段","MAREA":" ","LANE":" ","ALLEY":" ","HOUSE_NO":"９０號","E_COORD97":171361.63,"N_COORD97":2542909.6600000001,"ADDRESS":"中華東路二段９０號","OBJECTID":529863},"geometry":{"x":171361.62999999989,"y":2542909.6600000001}},{"attributes":{"ID":529891,"DIS_CODE":0,"TOWNNAME":"永康區","LI":"永康里","LIN":"6鄰","STREET":"中山北路","SECT":" ","MAREA":" ","LANE":" ","ALLEY":" ","HOUSE_NO":"８號","E_COORD97":173895.03,"N_COORD97":2547349,"ADDRESS":"中山北路８號","OBJECTID":529864},"geometry":{"x":173895.03000000026,"y":2547349}},{"attributes":{"ID":529892,"DIS_CODE":0,"TOWNNAME":"東區","LI":"崇文里","LIN":"6鄰","STREET":"崇德十七街","SECT":" ","MAREA":" ","LANE":" ","ALLEY":" ","HOUSE_NO":"１０１號","E_COORD97":171032.70999999999,"N_COORD97":2541090.3199999998,"ADDRESS":"崇德十七街１０１號","OBJECTID":529865},"geometry":{"x":171032.71000000183,"y":2541090.3200000022}},{"attributes":{"ID":529893,"DIS_CODE":0,"TOWNNAME":"東區","LI":"崇文里","LIN":"6鄰","STREET":"崇德十七街","SECT":" ","MAREA":" ","LANE":" ","ALLEY":" ","HOUSE_NO":"１０３號","E_COORD97":171037.89000000001,"N_COORD97":2541090.4199999999,"ADDRESS":"崇德十七街１０３號","OBJECTID":529866},"geometry":{"x":171037.89000000153,"y":2541090.4199999999}},{"attributes":{"ID":529894,"DIS_CODE":0,"TOWNNAME":"東區","LI":"崇文里","LIN":"6鄰","STREET":"崇德十七街","SECT":" ","MAREA":" ","LANE":" ","ALLEY":" ","HOUSE_NO":"１０５號","E_COORD97":171042.07000000001,"N_COORD97":2541095.29,"ADDRESS":"崇德十七街１０５號","OBJECTID":529867},"geometry":{"x":171042.0700000003,"y":2541095.2899999972}},{"attributes":{"ID":529895,"DIS_CODE":0,"TOWNNAME":"東區","LI":"崇文里","LIN":"6鄰","STREET":"崇德十七街","SECT":" ","MAREA":" ","LANE":" ","ALLEY":" ","HOUSE_NO":"１０７號","E_COORD97":171046.35000000001,"N_COORD97":2541096.0800000001,"ADDRESS":"崇德十七街１０７號","OBJECTID":529868},"geometry":{"x":171046.34999999963,"y":2541096.0800000019}},{"attributes":{"ID":529896,"DIS_CODE":0,"TOWNNAME":"東區","LI":"崇文里","LIN":"6鄰","STREET":"崇德十七街","SECT":" ","MAREA":" ","LANE":" ","ALLEY":" ","HOUSE_NO":"１０９號","E_COORD97":171050.32999999999,"N_COORD97":2541097.6800000002,"ADDRESS":"崇德十七街１０９號","OBJECTID":529869},"geometry":{"x":171050.33000000007,"y":2541097.6800000016}},{"attributes":{"ID":529897,"DIS_CODE":0,"TOWNNAME":"東區","LI":"崇文里","LIN":"6鄰","STREET":"崇德十七街","SECT":" ","MAREA":" ","LANE":" ","ALLEY":" ","HOUSE_NO":"１１１號","E_COORD97":171054.51999999999,"N_COORD97":2541098.9700000002,"ADDRESS":"崇德十七街１１１號","OBJECTID":529870},"geometry":{"x":171054.52000000048,"y":2541098.9700000007}},{"attributes":{"ID":529898,"DIS_CODE":0,"TOWNNAME":"東區","LI":"崇文里","LIN":"6鄰","STREET":"崇德十七街","SECT":" ","MAREA":" ","LANE":" ","ALLEY":" ","HOUSE_NO":"１１３號","E_COORD97":171058.60000000001,"N_COORD97":2541100.3599999999,"ADDRESS":"崇德十七街１１３號","OBJECTID":529871},"geometry":{"x":171058.60000000056,"y":2541100.3600000013}},{"attributes":{"ID":529899,"DIS_CODE":0,"TOWNNAME":"東區","LI":"崇文里","LIN":"6鄰","STREET":"崇德十七街","SECT":" ","MAREA":" ","LANE":" ","ALLEY":" ","HOUSE_NO":"１１３號之１","E_COORD97":171062.48000000001,"N_COORD97":2541101.5600000001,"ADDRESS":"崇德十七街１１３號之１","OBJECTID":529872},"geometry":{"x":171062.48000000138,"y":2541101.5600000005}},{"attributes":{"ID":529900,"DIS_CODE":0,"TOWNNAME":"東區","LI":"崇文里","LIN":"6鄰","STREET":"崇德十七街","SECT":" ","MAREA":" ","LANE":" ","ALLEY":" ","HOUSE_NO":"１１５號","E_COORD97":171066.76000000001,"N_COORD97":2541103.1499999999,"ADDRESS":"崇德十七街１１５號","OBJECTID":529873},"geometry":{"x":171066.76000000071,"y":2541103.1500000004}},{"attributes":{"ID":529901,"DIS_CODE":0,"TOWNNAME":"東區","LI":"崇文里","LIN":"6鄰","STREET":"崇德十七街","SECT":" ","MAREA":" ","LANE":" ","ALLEY":" ","HOUSE_NO":"１１７號","E_COORD97":171070.54000000001,"N_COORD97":2541104.54,"ADDRESS":"崇德十七街１１７號","OBJECTID":529874},"geometry":{"x":171070.54000000004,"y":2541104.540000001}},{"attributes":{"ID":529902,"DIS_CODE":0,"TOWNNAME":"東區","LI":"崇文里","LIN":"6鄰","STREET":"崇德十七街","SECT":" ","MAREA":" ","LANE":" ","ALLEY":" ","HOUSE_NO":"１１９號","E_COORD97":171074.51999999999,"N_COORD97":2541106.73,"ADDRESS":"崇德十七街１１９號","OBJECTID":529875},"geometry":{"x":171074.52000000048,"y":2541106.7300000004}},{"attributes":{"ID":529903,"DIS_CODE":0,"TOWNNAME":"東區","LI":"崇文里","LIN":"6鄰","STREET":"崇德十七街","SECT":" ","MAREA":" ","LANE":" ","ALLEY":" ","HOUSE_NO":"１號","E_COORD97":170825.10999999999,"N_COORD97":2541090.1400000001,"ADDRESS":"崇德十七街１號","OBJECTID":529876},"geometry":{"x":170825.1099999994,"y":2541090.1400000006}},{"attributes":{"ID":529904,"DIS_CODE":0,"TOWNNAME":"東區","LI":"崇文里","LIN":"6鄰","STREET":"崇德十七街","SECT":" ","MAREA":" ","LANE":" ","ALLEY":" ","HOUSE_NO":"２９號","E_COORD97":170864.92000000001,"N_COORD97":2541094.7599999998,"ADDRESS":"崇德十七街２９號","OBJECTID":529877},"geometry":{"x":170864.91999999899,"y":2541094.7599999998}},{"attributes":{"ID":529905,"DIS_CODE":0,"TOWNNAME":"東區","LI":"崇文里","LIN":"6鄰","STREET":"崇德十七街","SECT":" ","MAREA":" ","LANE":" ","ALLEY":" ","HOUSE_NO":"３１號","E_COORD97":170867.70999999999,"N_COORD97":2541094.0699999998,"ADDRESS":"崇德十七街３１號","OBJECTID":529878},"geometry":{"x":170867.70999999996,"y":2541094.0700000003}},{"attributes":{"ID":529906,"DIS_CODE":0,"TOWNNAME":"東區","LI":"崇文里","LIN":"6鄰","STREET":"崇德路","SECT":" ","MAREA":" ","LANE":" ","ALLEY":" ","HOUSE_NO":"６７１號","E_COORD97":170806.5,"N_COORD97":2541068.7599999998,"ADDRESS":"崇德路６７１號","OBJECTID":529879},"geometry":{"x":170806.5,"y":2541068.7599999998}},{"attributes":{"ID":529907,"DIS_CODE":0,"TOWNNAME":"永康區","LI":"蔦松里","LIN":"6鄰","STREET":"蔦松三街","SECT":" ","MAREA":" ","LANE":" ","ALLEY":" ","HOUSE_NO":"１６９號","E_COORD97":174034.32000000001,"N_COORD97":2549854.02,"ADDRESS":"蔦松三街１６９號","OBJECTID":529880},"geometry":{"x":174034.31999999937,"y":2549854.0199999996}},{"attributes":{"ID":529908,"DIS_CODE":0,"TOWNNAME":"永康區","LI":"復國里","LIN":"6鄰","STREET":"復國一路","SECT":" ","MAREA":" ","LANE":" ","ALLEY":" ","HOUSE_NO":"９８號","E_COORD97":172718.84,"N_COORD97":2544949.21,"ADDRESS":"復國一路９８號","OBJECTID":529881},"geometry":{"x":172718.84000000078,"y":2544949.2100000046}},{"attributes":{"ID":529909,"DIS_CODE":0,"TOWNNAME":"東區","LI":"崇信里","LIN":"6鄰","STREET":"崇信街","SECT":" ","MAREA":" ","LANE":" ","ALLEY":" ","HOUSE_NO":"３０號","E_COORD97":170687.51999999999,"N_COORD97":2542520.8799999999,"ADDRESS":"崇信街３０號","OBJECTID":529882},"geometry":{"x":170687.51999999955,"y":2542520.879999999}},{"attributes":{"ID":529910,"DIS_CODE":0,"TOWNNAME":"東區","LI":"崇信里","LIN":"6鄰","STREET":"崇信街","SECT":" ","MAREA":" ","LANE":" ","ALLEY":" ","HOUSE_NO":"１１號","E_COORD97":170697.32000000001,"N_COORD97":2542577.8500000001,"ADDRESS":"崇信街１１號","OBJECTID":529883},"geometry":{"x":170697.32000000123,"y":2542577.8500000015}},{"attributes":{"ID":529911,"DIS_CODE":0,"TOWNNAME":"東區","LI":"崇信里","LIN":"6鄰","STREET":"崇信街","SECT":" ","MAREA":" ","LANE":" ","ALLEY":" ","HOUSE_NO":"９號","E_COORD97":170695.85999999999,"N_COORD97":2542582.6499999999,"ADDRESS":"崇信街９號","OBJECTID":529884},"geometry":{"x":170695.86000000034,"y":2542582.6500000041}},{"attributes":{"ID":529912,"DIS_CODE":0,"TOWNNAME":"東區","LI":"崇信里","LIN":"6鄰","STREET":"崇信街","SECT":" ","MAREA":" ","LANE":" ","ALLEY":" ","HOUSE_NO":"１０號","E_COORD97":170681.38,"N_COORD97":2542558.7200000002,"ADDRESS":"崇信街１０號","OBJECTID":529885},"geometry":{"x":170681.37999999989,"y":2542558.7200000044}},{"attributes":{"ID":529913,"DIS_CODE":0,"TOWNNAME":"東區","LI":"崇信里","LIN":"6鄰","STREET":"崇信街","SECT":" ","MAREA":" ","LANE":" ","ALLEY":" ","HOUSE_NO":"１２號","E_COORD97":170682.35000000001,"N_COORD97":2542551.9100000001,"ADDRESS":"崇信街１２號","OBJECTID":529886},"geometry":{"x":170682.35000000056,"y":2542551.9100000001}},{"attributes":{"ID":529914,"DIS_CODE":0,"TOWNNAME":"東區","LI":"崇信里","LIN":"6鄰","STREET":"崇信街","SECT":" ","MAREA":" ","LANE":" ","ALLEY":" ","HOUSE_NO":"１６號","E_COORD97":170682.67999999999,"N_COORD97":2542545.1099999999,"ADDRESS":"崇信街１６號","OBJECTID":529887},"geometry":{"x":170682.6799999997,"y":2542545.1100000013}},{"attributes":{"ID":529915,"DIS_CODE":0,"TOWNNAME":"東區","LI":"崇信里","LIN":"6鄰","STREET":"崇信街","SECT":" ","MAREA":" ","LANE":" ","ALLEY":" ","HOUSE_NO":"２８號","E_COORD97":170687.73000000001,"N_COORD97":2542525.25,"ADDRESS":"崇信街２８號","OBJECTID":529888},"geometry":{"x":170687.73000000138,"y":2542525.2500000019}},{"attributes":{"ID":529916,"DIS_CODE":0,"TOWNNAME":"東區","LI":"崇信里","LIN":"6鄰","STREET":"崇信街","SECT":" ","MAREA":" ","LANE":" ","ALLEY":" ","HOUSE_NO":"２號","E_COORD97":170679.10999999999,"N_COORD97":2542578.7999999998,"ADDRESS":"崇信街２號","OBJECTID":529889},"geometry":{"x":170679.11000000034,"y":2542578.8000000045}},{"attributes":{"ID":529917,"DIS_CODE":0,"TOWNNAME":"東區","LI":"崇信里","LIN":"6鄰","STREET":"崇信街","SECT":" ","MAREA":" ","LANE":" ","ALLEY":" ","HOUSE_NO":"３２號","E_COORD97":170688.76999999999,"N_COORD97":2542516.73,"ADDRESS":"崇信街３２號","OBJECTID":529890},"geometry":{"x":170688.76999999955,"y":2542516.7300000004}},{"attributes":{"ID":529918,"DIS_CODE":0,"TOWNNAME":"東區","LI":"崇信里","LIN":"6鄰","STREET":"崇信街","SECT":" ","MAREA":" ","LANE":" ","ALLEY":" ","HOUSE_NO":"３４號","E_COORD97":170689.39999999999,"N_COORD97":2542512.3599999999,"ADDRESS":"崇信街３４號","OBJECTID":529891},"geometry":{"x":170689.40000000224,"y":2542512.3600000031}},{"attributes":{"ID":529919,"DIS_CODE":0,"TOWNNAME":"東區","LI":"崇信里","LIN":"6鄰","STREET":"崇信街","SECT":" ","MAREA":" ","LANE":" ","ALLEY":" ","HOUSE_NO":"３６號","E_COORD97":170690.64000000001,"N_COORD97":2542508,"ADDRESS":"崇信街３６號","OBJECTID":529892},"geometry":{"x":170690.6400000006,"y":2542508}},{"attributes":{"ID":529920,"DIS_CODE":0,"TOWNNAME":"東區","LI":"崇信里","LIN":"6鄰","STREET":"崇信街","SECT":" ","MAREA":" ","LANE":" ","ALLEY":" ","HOUSE_NO":"３８號","E_COORD97":170691.06,"N_COORD97":2542503.4300000002,"ADDRESS":"崇信街３８號","OBJECTID":529893},"geometry":{"x":170691.06000000052,"y":2542503.4300000016}},{"attributes":{"ID":529921,"DIS_CODE":0,"TOWNNAME":"東區","LI":"崇信里","LIN":"6鄰","STREET":"崇信街","SECT":" ","MAREA":" ","LANE":" ","ALLEY":" ","HOUSE_NO":"４０號","E_COORD97":170690.44,"N_COORD97":2542499.0600000001,"ADDRESS":"崇信街４０號","OBJECTID":529894},"geometry":{"x":170690.44000000041,"y":2542499.0600000024}},{"attributes":{"ID":529922,"DIS_CODE":0,"TOWNNAME":"東區","LI":"崇信里","LIN":"6鄰","STREET":"崇信街","SECT":" ","MAREA":" ","LANE":" ","ALLEY":" ","HOUSE_NO":"６號","E_COORD97":170679.10999999999,"N_COORD97":2542571.0299999998,"ADDRESS":"崇信街６號","OBJECTID":529895},"geometry":{"x":170679.11000000034,"y":2542571.0299999993}},{"attributes":{"ID":529923,"DIS_CODE":0,"TOWNNAME":"東區","LI":"崇信里","LIN":"6鄰","STREET":"崇信街","SECT":" ","MAREA":" ","LANE":" ","ALLEY":" ","HOUSE_NO":"８號","E_COORD97":170680.41,"N_COORD97":2542565.1899999999,"ADDRESS":"崇信街８號","OBJECTID":529896},"geometry":{"x":170680.41000000015,"y":2542565.1900000013}},{"attributes":{"ID":529924,"DIS_CODE":0,"TOWNNAME":"東區","LI":"崇信里","LIN":"6鄰","STREET":"崇信街","SECT":" ","MAREA":" ","LANE":" ","ALLEY":" ","HOUSE_NO":"２５號","E_COORD97":170703.87,"N_COORD97":2542535.8199999998,"ADDRESS":"崇信街２５號","OBJECTID":529897},"geometry":{"x":170703.87000000011,"y":2542535.8200000003}},{"attributes":{"ID":529925,"DIS_CODE":0,"TOWNNAME":"白河區","LI":"永安里","LIN":"6鄰","STREET":"國泰路","SECT":" ","MAREA":" ","LANE":" ","ALLEY":" ","HOUSE_NO":"１４３號","E_COORD97":189940.51999999999,"N_COORD97":2582979.2400000002,"ADDRESS":"國泰路１４３號","OBJECTID":529898},"geometry":{"x":189940.52000000048,"y":2582979.2400000021}},{"attributes":{"ID":529926,"DIS_CODE":0,"TOWNNAME":"白河區","LI":"永安里","LIN":"6鄰","STREET":"國泰路","SECT":" ","MAREA":" ","LANE":" ","ALLEY":" ","HOUSE_NO":"１４５號","E_COORD97":189921.78,"N_COORD97":2583006.8100000001,"ADDRESS":"國泰路１４５號","OBJECTID":529899},"geometry":{"x":189921.78000000026,"y":2583006.8100000024}},{"attributes":{"ID":529927,"DIS_CODE":0,"TOWNNAME":"麻豆區","LI":"巷口里","LIN":"6鄰","STREET":"興國路","SECT":" ","MAREA":" ","LANE":" ","ALLEY":" ","HOUSE_NO":"５５號","E_COORD97":173103.14000000001,"N_COORD97":2564103.5,"ADDRESS":"興國路５５號","OBJECTID":529900},"geometry":{"x":173103.1400000006,"y":2564103.5000000019}},{"attributes":{"ID":529928,"DIS_CODE":0,"TOWNNAME":"麻豆區","LI":"巷口里","LIN":"6鄰","STREET":"興國路","SECT":" ","MAREA":" ","LANE":" ","ALLEY":" ","HOUSE_NO":"５９號之１","E_COORD97":173009.56,"N_COORD97":2564120.6499999999,"ADDRESS":"興國路５９號之１","OBJECTID":529901},"geometry":{"x":173009.55999999959,"y":2564120.6500000004}},{"attributes":{"ID":529929,"DIS_CODE":0,"TOWNNAME":"麻豆區","LI":"巷口里","LIN":"6鄰","STREET":"興國路","SECT":" ","MAREA":" ","LANE":" ","ALLEY":" ","HOUSE_NO":"５９號","E_COORD97":172960.16,"N_COORD97":2564089.8999999999,"ADDRESS":"興國路５９號","OBJECTID":529902},"geometry":{"x":172960.16000000015,"y":2564089.9000000022}},{"attributes":{"ID":529930,"DIS_CODE":0,"TOWNNAME":"麻豆區","LI":"巷口里","LIN":"6鄰","STREET":"興國路","SECT":" ","MAREA":" ","LANE":" ","ALLEY":" ","HOUSE_NO":"６１號之１０","E_COORD97":173077.22,"N_COORD97":2563956.6299999999,"ADDRESS":"興國路６１號之１０","OBJECTID":529903},"geometry":{"x":173077.22000000067,"y":2563956.629999999}},{"attributes":{"ID":529931,"DIS_CODE":0,"TOWNNAME":"麻豆區","LI":"巷口里","LIN":"6鄰","STREET":"興國路","SECT":" ","MAREA":" ","LANE":" ","ALLEY":" ","HOUSE_NO":"６１號之１","E_COORD97":173005.28,"N_COORD97":2563968.3900000001,"ADDRESS":"興國路６１號之１","OBJECTID":529904},"geometry":{"x":173005.28000000026,"y":2563968.3900000025}},{"attributes":{"ID":529932,"DIS_CODE":0,"TOWNNAME":"麻豆區","LI":"巷口里","LIN":"6鄰","STREET":"興國路","SECT":" ","MAREA":" ","LANE":" ","ALLEY":" ","HOUSE_NO":"６１號之２","E_COORD97":172944.5,"N_COORD97":2564017.6299999999,"ADDRESS":"興國路６１號之２","OBJECTID":529905},"geometry":{"x":172944.49999999907,"y":2564017.629999999}},{"attributes":{"ID":529933,"DIS_CODE":0,"TOWNNAME":"麻豆區","LI":"巷口里","LIN":"6鄰","STREET":"興國路","SECT":" ","MAREA":" ","LANE":" ","ALLEY":" ","HOUSE_NO":"６１號之６","E_COORD97":172941.76000000001,"N_COORD97":2564028.0600000001,"ADDRESS":"興國路６１號之６","OBJECTID":529906},"geometry":{"x":172941.75999999978,"y":2564028.0600000024}},{"attributes":{"ID":529934,"DIS_CODE":0,"TOWNNAME":"佳里區","LI":"六安里","LIN":"6鄰","STREET":"信義二街","SECT":" ","MAREA":" ","LANE":" ","ALLEY":" ","HOUSE_NO":"１０４號","E_COORD97":166073.44,"N_COORD97":2562860.5099999998,"ADDRESS":"信義二街１０４號","OBJECTID":529907},"geometry":{"x":166073.44000000134,"y":2562860.5099999998}},{"attributes":{"ID":529935,"DIS_CODE":0,"TOWNNAME":"東區","LI":"成大里","LIN":"6鄰","STREET":"民族路","SECT":"一段","MAREA":" ","LANE":" ","ALLEY":" ","HOUSE_NO":"２７號","E_COORD97":169505.17000000001,"N_COORD97":2543861.6499999999,"ADDRESS":"民族路一段２７號","OBJECTID":529908},"geometry":{"x":169505.16999999993,"y":2543861.6500000022}},{"attributes":{"ID":529936,"DIS_CODE":0,"TOWNNAME":"東區","LI":"成大里","LIN":"6鄰","STREET":"民族路","SECT":"一段","MAREA":" ","LANE":" ","ALLEY":" ","HOUSE_NO":"２９號","E_COORD97":169498.84,"N_COORD97":2543861.4500000002,"ADDRESS":"民族路一段２９號","OBJECTID":529909},"geometry":{"x":169498.83999999985,"y":2543861.4500000011}},{"attributes":{"ID":529937,"DIS_CODE":0,"TOWNNAME":"東區","LI":"成大里","LIN":"6鄰","STREET":"民族路","SECT":"一段","MAREA":" ","LANE":" ","ALLEY":" ","HOUSE_NO":"３１號","E_COORD97":169478.56,"N_COORD97":2543863.8500000001,"ADDRESS":"民族路一段３１號","OBJECTID":529910},"geometry":{"x":169478.55999999959,"y":2543863.8499999996}},{"attributes":{"ID":529938,"DIS_CODE":0,"TOWNNAME":"東區","LI":"成大里","LIN":"6鄰","STREET":"育樂街","SECT":" ","MAREA":" ","LANE":" ","ALLEY":" ","HOUSE_NO":"１８４號","E_COORD97":169483.28,"N_COORD97":2543845.5499999998,"ADDRESS":"育樂街１８４號","OBJECTID":529911},"geometry":{"x":169483.28000000119,"y":2543845.5500000026}},{"attributes":{"ID":529939,"DIS_CODE":0,"TOWNNAME":"東區","LI":"成大里","LIN":"6鄰","STREET":"東寧路","SECT":"西段","MAREA":" ","LANE":" ","ALLEY":" ","HOUSE_NO":"１０８之１號","E_COORD97":169417.42000000001,"N_COORD97":2543809.4399999999,"ADDRESS":"東寧路西段１０８之１號","OBJECTID":529912},"geometry":{"x":169417.42000000179,"y":2543809.4399999995}},{"attributes":{"ID":529940,"DIS_CODE":0,"TOWNNAME":"東區","LI":"成大里","LIN":"6鄰","STREET":"東寧路","SECT":"西段","MAREA":" ","LANE":" ","ALLEY":" ","HOUSE_NO":"１０８號","E_COORD97":169426.29000000001,"N_COORD97":2543808.7200000002,"ADDRESS":"東寧路西段１０８號","OBJECTID":529913},"geometry":{"x":169426.29000000004,"y":2543808.7200000007}},{"attributes":{"ID":529941,"DIS_CODE":0,"TOWNNAME":"東區","LI":"成大里","LIN":"6鄰","STREET":"東寧路","SECT":"西段","MAREA":" ","LANE":" ","ALLEY":" ","HOUSE_NO":"１１０之１號","E_COORD97":169418.85000000001,"N_COORD97":2543831.23,"ADDRESS":"東寧路西段１１０之１號","OBJECTID":529914},"geometry":{"x":169418.84999999963,"y":2543831.2300000023}},{"attributes":{"ID":529942,"DIS_CODE":0,"TOWNNAME":"東區","LI":"成大里","LIN":"6鄰","STREET":"東寧路","SECT":"西段","MAREA":" ","LANE":" ","ALLEY":" ","HOUSE_NO":"１１０號","E_COORD97":169428.92000000001,"N_COORD97":2543829.79,"ADDRESS":"東寧路西段１１０號","OBJECTID":529915},"geometry":{"x":169428.91999999993,"y":2543829.7899999991}},{"attributes":{"ID":529943,"DIS_CODE":0,"TOWNNAME":"東區","LI":"成大里","LIN":"6鄰","STREET":"東寧路","SECT":"西段","MAREA":" ","LANE":" ","ALLEY":" ","HOUSE_NO":"１１２號","E_COORD97":169392.23999999999,"N_COORD97":2543836.02,"ADDRESS":"東寧路西段１１２號","OBJECTID":529916},"geometry":{"x":169392.24000000115,"y":2543836.0199999996}},{"attributes":{"ID":529944,"DIS_CODE":0,"TOWNNAME":"永康區","LI":"勝利里","LIN":"6鄰","STREET":"勝學路","SECT":" ","MAREA":" ","LANE":" ","ALLEY":" ","HOUSE_NO":"４０號","E_COORD97":171152.45999999999,"N_COORD97":2544650.0099999998,"ADDRESS":"勝學路４０號","OBJECTID":529917},"geometry":{"x":171152.45999999996,"y":2544650.0099999998}},{"attributes":{"ID":529945,"DIS_CODE":0,"TOWNNAME":"永康區","LI":"中華里","LIN":"6鄰","STREET":"華興街","SECT":" ","MAREA":" ","LANE":" ","ALLEY":" ","HOUSE_NO":"５７號","E_COORD97":171949.41,"N_COORD97":2544563.0899999999,"ADDRESS":"華興街５７號","OBJECTID":529918},"geometry":{"x":171949.41000000108,"y":2544563.0900000017}},{"attributes":{"ID":529946,"DIS_CODE":0,"TOWNNAME":"永康區","LI":"永康里","LIN":"6鄰","STREET":"中山南路","SECT":" ","MAREA":" ","LANE":" ","ALLEY":" ","HOUSE_NO":"１０８６號","E_COORD97":173798.23000000001,"N_COORD97":2547324.9900000002,"ADDRESS":"中山南路１０８６號","OBJECTID":529919},"geometry":{"x":173798.23000000138,"y":2547324.9900000021}},{"attributes":{"ID":529947,"DIS_CODE":0,"TOWNNAME":"安平區","LI":"華平里","LIN":"33鄰","STREET":"育平九街","SECT":" ","MAREA":" ","LANE":" ","ALLEY":" ","HOUSE_NO":"１４０號","E_COORD97":165124.64000000001,"N_COORD97":2543999.6800000002,"ADDRESS":"育平九街１４０號","OBJECTID":529920},"geometry":{"x":165124.63999999966,"y":2543999.6800000016}},{"attributes":{"ID":529948,"DIS_CODE":0,"TOWNNAME":"歸仁區","LI":"辜厝里","LIN":"33鄰","STREET":"大吉二街","SECT":" ","MAREA":" ","LANE":" ","ALLEY":" ","HOUSE_NO":"２８號","E_COORD97":177279.73999999999,"N_COORD97":2540531.6800000002,"ADDRESS":"大吉二街２８號","OBJECTID":529921},"geometry":{"x":177279.74000000115,"y":2540531.6800000016}},{"attributes":{"ID":529949,"DIS_CODE":0,"TOWNNAME":"歸仁區","LI":"許厝里","LIN":"33鄰","STREET":"公園路","SECT":" ","MAREA":" ","LANE":" ","ALLEY":" ","HOUSE_NO":"１４０號","E_COORD97":177893.23000000001,"N_COORD97":2540484.8199999998,"ADDRESS":"公園路１４０號","OBJECTID":529922},"geometry":{"x":177893.23000000045,"y":2540484.8200000003}},{"attributes":{"ID":529950,"DIS_CODE":0,"TOWNNAME":"歸仁區","LI":"許厝里","LIN":"33鄰","STREET":"公園路","SECT":" ","MAREA":" ","LANE":" ","ALLEY":" ","HOUSE_NO":"１４２號","E_COORD97":177889.13,"N_COORD97":2540484.8199999998,"ADDRESS":"公園路１４２號","OBJECTID":529923},"geometry":{"x":177889.13000000082,"y":2540484.8200000003}},{"attributes":{"ID":529951,"DIS_CODE":0,"TOWNNAME":"歸仁區","LI":"南興里","LIN":"33鄰","STREET":"民生北街","SECT":" ","MAREA":" ","LANE":" ","ALLEY":" ","HOUSE_NO":"９２號","E_COORD97":176279.10999999999,"N_COORD97":2541158.25,"ADDRESS":"民生北街９２號","OBJECTID":529924},"geometry":{"x":176279.11000000127,"y":2541158.2500000019}},{"attributes":{"ID":529952,"DIS_CODE":0,"TOWNNAME":"歸仁區","LI":"南保里","LIN":"33鄰","STREET":"中山路","SECT":"三段","MAREA":" ","LANE":" ","ALLEY":" ","HOUSE_NO":"３６號","E_COORD97":176867.66,"N_COORD97":2540889.25,"ADDRESS":"中山路三段３６號","OBJECTID":529925},"geometry":{"x":176867.66000000015,"y":2540889.25}},{"attributes":{"ID":529953,"DIS_CODE":0,"TOWNNAME":"歸仁區","LI":"南保里","LIN":"33鄰","STREET":"中山路","SECT":"三段","MAREA":" ","LANE":" ","ALLEY":" ","HOUSE_NO":"３０號","E_COORD97":176884.06,"N_COORD97":2540883.25,"ADDRESS":"中山路三段３０號","OBJECTID":529926},"geometry":{"x":176884.06000000052,"y":2540883.2500000037}},{"attributes":{"ID":529954,"DIS_CODE":0,"TOWNNAME":"歸仁區","LI":"南保里","LIN":"33鄰","STREET":"中山路","SECT":"三段","MAREA":" ","LANE":" ","ALLEY":" ","HOUSE_NO":"９８號","E_COORD97":176761.34,"N_COORD97":2540899.9700000002,"ADDRESS":"中山路三段９８號","OBJECTID":529927},"geometry":{"x":176761.34000000171,"y":2540899.9700000025}},{"attributes":{"ID":529955,"DIS_CODE":0,"TOWNNAME":"歸仁區","LI":"南保里","LIN":"33鄰","STREET":"中山路","SECT":"三段","MAREA":" ","LANE":" ","ALLEY":" ","HOUSE_NO":"５０號","E_COORD97":176857.35999999999,"N_COORD97":2540885.25,"ADDRESS":"中山路三段５０號","OBJECTID":529928},"geometry":{"x":176857.36000000127,"y":2540885.25}},{"attributes":{"ID":529956,"DIS_CODE":0,"TOWNNAME":"歸仁區","LI":"南保里","LIN":"33鄰","STREET":"中山路","SECT":"三段","MAREA":" ","LANE":" ","ALLEY":" ","HOUSE_NO":"７０號","E_COORD97":176811.26000000001,"N_COORD97":2540892.25,"ADDRESS":"中山路三段７０號","OBJECTID":529929},"geometry":{"x":176811.26000000071,"y":2540892.25}},{"attributes":{"ID":529957,"DIS_CODE":0,"TOWNNAME":"歸仁區","LI":"南保里","LIN":"33鄰","STREET":"中山路","SECT":"三段","MAREA":" ","LANE":" ","ALLEY":" ","HOUSE_NO":"９２號","E_COORD97":176775.73999999999,"N_COORD97":2540898.9700000002,"ADDRESS":"中山路三段９２號","OBJECTID":529930},"geometry":{"x":176775.74000000022,"y":2540898.9699999988}},{"attributes":{"ID":529958,"DIS_CODE":0,"TOWNNAME":"歸仁區","LI":"南保里","LIN":"33鄰","STREET":"中山路","SECT":"三段","MAREA":" ","LANE":" ","ALLEY":" ","HOUSE_NO":"１０號","E_COORD97":176941.45999999999,"N_COORD97":2540875.25,"ADDRESS":"中山路三段１０號","OBJECTID":529931},"geometry":{"x":176941.45999999996,"y":2540875.25}},{"attributes":{"ID":529959,"DIS_CODE":0,"TOWNNAME":"歸仁區","LI":"南保里","LIN":"33鄰","STREET":"中山路","SECT":"三段","MAREA":" ","LANE":" ","ALLEY":" ","HOUSE_NO":"５２號","E_COORD97":176853.26000000001,"N_COORD97":2540887.25,"ADDRESS":"中山路三段５２號","OBJECTID":529932},"geometry":{"x":176853.25999999885,"y":2540887.2500000019}},{"attributes":{"ID":529960,"DIS_CODE":0,"TOWNNAME":"歸仁區","LI":"南保里","LIN":"33鄰","STREET":"中山路","SECT":"三段","MAREA":" ","LANE":" ","ALLEY":" ","HOUSE_NO":"２號","E_COORD97":176951.51000000001,"N_COORD97":2540893.25,"ADDRESS":"中山路三段２號","OBJECTID":529933},"geometry":{"x":176951.50999999978,"y":2540893.2500000037}},{"attributes":{"ID":529961,"DIS_CODE":0,"TOWNNAME":"北區","LI":"成德里","LIN":"33鄰","STREET":"文成三路","SECT":" ","MAREA":" ","LANE":" ","ALLEY":" ","HOUSE_NO":"１４２號","E_COORD97":168738.89000000001,"N_COORD97":2546389.4700000002,"ADDRESS":"文成三路１４２號","OBJECTID":529934},"geometry":{"x":168738.88999999966,"y":2546389.4700000025}},{"attributes":{"ID":529962,"DIS_CODE":0,"TOWNNAME":"北區","LI":"成德里","LIN":"33鄰","STREET":"育德一街","SECT":" ","MAREA":" ","LANE":" ","ALLEY":" ","HOUSE_NO":"２７０號","E_COORD97":168576.22,"N_COORD97":2546440,"ADDRESS":"育德一街２７０號","OBJECTID":529935},"geometry":{"x":168576.22000000067,"y":2546440}},{"attributes":{"ID":529963,"DIS_CODE":0,"TOWNNAME":"北區","LI":"成德里","LIN":"33鄰","STREET":"育德一街","SECT":" ","MAREA":" ","LANE":" ","ALLEY":" ","HOUSE_NO":"２７２號","E_COORD97":168574.95000000001,"N_COORD97":2546444.4500000002,"ADDRESS":"育德一街２７２號","OBJECTID":529936},"geometry":{"x":168574.95000000205,"y":2546444.450000003}},{"attributes":{"ID":529964,"DIS_CODE":0,"TOWNNAME":"北區","LI":"成德里","LIN":"33鄰","STREET":"育德一街","SECT":" ","MAREA":" ","LANE":" ","ALLEY":" ","HOUSE_NO":"２７６號","E_COORD97":168573.67999999999,"N_COORD97":2546449.21,"ADDRESS":"育德一街２７６號","OBJECTID":529937},"geometry":{"x":168573.68000000063,"y":2546449.2100000028}},{"attributes":{"ID":529965,"DIS_CODE":0,"TOWNNAME":"北區","LI":"成德里","LIN":"33鄰","STREET":"育德一街","SECT":" ","MAREA":" ","LANE":" ","ALLEY":" ","HOUSE_NO":"２９２號","E_COORD97":168564.79000000001,"N_COORD97":2546481.6000000001,"ADDRESS":"育德一街２９２號","OBJECTID":529938},"geometry":{"x":168564.79000000097,"y":2546481.6000000015}},{"attributes":{"ID":529966,"DIS_CODE":0,"TOWNNAME":"北區","LI":"成德里","LIN":"33鄰","STREET":"育德一街","SECT":" ","MAREA":" ","LANE":" ","ALLEY":" ","HOUSE_NO":"２７８號","E_COORD97":168572.41,"N_COORD97":2546453.9700000002,"ADDRESS":"育德一街２７８號","OBJECTID":529939},"geometry":{"x":168572.41000000108,"y":2546453.9700000025}},{"attributes":{"ID":529967,"DIS_CODE":0,"TOWNNAME":"北區","LI":"成德里","LIN":"33鄰","STREET":"育德一街","SECT":" ","MAREA":" ","LANE":" ","ALLEY":" ","HOUSE_NO":"２８０號","E_COORD97":168571.14000000001,"N_COORD97":2546458.4199999999,"ADDRESS":"育德一街２８０號","OBJECTID":529940},"geometry":{"x":168571.13999999966,"y":2546458.4199999999}},{"attributes":{"ID":529968,"DIS_CODE":0,"TOWNNAME":"北區","LI":"成德里","LIN":"33鄰","STREET":"育德一街","SECT":" ","MAREA":" ","LANE":" ","ALLEY":" ","HOUSE_NO":"２８２號","E_COORD97":168569.87,"N_COORD97":2546463.1800000002,"ADDRESS":"育德一街２８２號","OBJECTID":529941},"geometry":{"x":168569.87000000011,"y":2546463.1799999997}},{"attributes":{"ID":529969,"DIS_CODE":0,"TOWNNAME":"北區","LI":"成德里","LIN":"33鄰","STREET":"育德一街","SECT":" ","MAREA":" ","LANE":" ","ALLEY":" ","HOUSE_NO":"２８６號","E_COORD97":168568.60000000001,"N_COORD97":2546467.6299999999,"ADDRESS":"育德一街２８６號","OBJECTID":529942},"geometry":{"x":168568.60000000056,"y":2546467.6300000008}},{"attributes":{"ID":529970,"DIS_CODE":0,"TOWNNAME":"北區","LI":"成德里","LIN":"33鄰","STREET":"育德一街","SECT":" ","MAREA":" ","LANE":" ","ALLEY":" ","HOUSE_NO":"２８８號","E_COORD97":168567.01000000001,"N_COORD97":2546472.3900000001,"ADDRESS":"育德一街２８８號","OBJECTID":529943},"geometry":{"x":168567.00999999978,"y":2546472.3900000006}},{"attributes":{"ID":529971,"DIS_CODE":0,"TOWNNAME":"北區","LI":"成德里","LIN":"33鄰","STREET":"育德一街","SECT":" ","MAREA":" ","LANE":" ","ALLEY":" ","HOUSE_NO":"２９０號","E_COORD97":168565.73999999999,"N_COORD97":2546476.8300000001,"ADDRESS":"育德一街２９０號","OBJECTID":529944},"geometry":{"x":168565.74000000022,"y":2546476.8300000038}},{"attributes":{"ID":529972,"DIS_CODE":0,"TOWNNAME":"新化區","LI":"東榮里","LIN":"33鄰","STREET":"信義路","SECT":" ","MAREA":" ","LANE":" ","ALLEY":" ","HOUSE_NO":"１９４號","E_COORD97":179191.32999999999,"N_COORD97":2548345.25,"ADDRESS":"信義路１９４號","OBJECTID":529945},"geometry":{"x":179191.33000000101,"y":2548345.2500000037}},{"attributes":{"ID":529973,"DIS_CODE":0,"TOWNNAME":"新化區","LI":"東榮里","LIN":"33鄰","STREET":"信義路","SECT":" ","MAREA":" ","LANE":" ","ALLEY":" ","HOUSE_NO":"２１４號","E_COORD97":179147.92999999999,"N_COORD97":2548339.25,"ADDRESS":"信義路２１４號","OBJECTID":529946},"geometry":{"x":179147.93000000063,"y":2548339.2500000019}},{"attributes":{"ID":529974,"DIS_CODE":0,"TOWNNAME":"新化區","LI":"東榮里","LIN":"33鄰","STREET":"信義路","SECT":" ","MAREA":" ","LANE":" ","ALLEY":" ","HOUSE_NO":"１９６號","E_COORD97":179186.23000000001,"N_COORD97":2548345.25,"ADDRESS":"信義路１９６號","OBJECTID":529947},"geometry":{"x":179186.23000000045,"y":2548345.2500000037}},{"attributes":{"ID":529975,"DIS_CODE":0,"TOWNNAME":"新化區","LI":"東榮里","LIN":"33鄰","STREET":"信義路","SECT":" ","MAREA":" ","LANE":" ","ALLEY":" ","HOUSE_NO":"２０４號","E_COORD97":179172.92999999999,"N_COORD97":2548342.25,"ADDRESS":"信義路２０４號","OBJECTID":529948},"geometry":{"x":179172.93000000156,"y":2548342.2500000019}},{"attributes":{"ID":529976,"DIS_CODE":0,"TOWNNAME":"玉井區","LI":"玉田里","LIN":"33鄰","STREET":"民族路","SECT":" ","MAREA":" ","LANE":" ","ALLEY":" ","HOUSE_NO":"２１８號","E_COORD97":195616.26999999999,"N_COORD97":2558006.6899999999,"ADDRESS":"民族路２１８號","OBJECTID":529949},"geometry":{"x":195616.27000000048,"y":2558006.6899999995}},{"attributes":{"ID":529977,"DIS_CODE":0,"TOWNNAME":"永康區","LI":"正強里","LIN":"33鄰","STREET":"四維街","SECT":" ","MAREA":" ","LANE":" ","ALLEY":" ","HOUSE_NO":"６１號","E_COORD97":173381.48000000001,"N_COORD97":2548089.7400000002,"ADDRESS":"四維街６１號","OBJECTID":529950},"geometry":{"x":173381.48000000138,"y":2548089.7400000002}},{"attributes":{"ID":529978,"DIS_CODE":0,"TOWNNAME":"永康區","LI":"\u25A0洲里","LIN":"33鄰","STREET":"洲尾街","SECT":" ","MAREA":" ","LANE":" ","ALLEY":" ","HOUSE_NO":"１３２號","E_COORD97":170942.29000000001,"N_COORD97":2549118.3100000001,"ADDRESS":"洲尾街１３２號","OBJECTID":529951},"geometry":{"x":170942.2900000019,"y":2549118.3100000042}},{"attributes":{"ID":529979,"DIS_CODE":0,"TOWNNAME":"永康區","LI":"\u25A0洲里","LIN":"33鄰","STREET":"洲尾街","SECT":" ","MAREA":" ","LANE":" ","ALLEY":" ","HOUSE_NO":"１３８號","E_COORD97":170954.97,"N_COORD97":2549116.4399999999,"ADDRESS":"洲尾街１３８號","OBJECTID":529952},"geometry":{"x":170954.97000000067,"y":2549116.4400000032}},{"attributes":{"ID":529980,"DIS_CODE":0,"TOWNNAME":"永康區","LI":"正強里","LIN":"33鄰","STREET":"四維街","SECT":" ","MAREA":" ","LANE":" ","ALLEY":" ","HOUSE_NO":"５９號","E_COORD97":173381.75,"N_COORD97":2548082.9500000002,"ADDRESS":"四維街５９號","OBJECTID":529953},"geometry":{"x":173381.75,"y":2548082.9500000011}},{"attributes":{"ID":529981,"DIS_CODE":0,"TOWNNAME":"永康區","LI":"正強里","LIN":"33鄰","STREET":"四維街","SECT":" ","MAREA":" ","LANE":" ","ALLEY":" ","HOUSE_NO":"５５號","E_COORD97":173386.81,"N_COORD97":2548072.8999999999,"ADDRESS":"四維街５５號","OBJECTID":529954},"geometry":{"x":173386.81000000052,"y":2548072.9000000004}},{"attributes":{"ID":529982,"DIS_CODE":0,"TOWNNAME":"永康區","LI":"正強里","LIN":"33鄰","STREET":"四維街","SECT":" ","MAREA":" ","LANE":" ","ALLEY":" ","HOUSE_NO":"５７號","E_COORD97":173387.59,"N_COORD97":2548079.4199999999,"ADDRESS":"四維街５７號","OBJECTID":529955},"geometry":{"x":173387.58999999985,"y":2548079.4199999981}},{"attributes":{"ID":529983,"DIS_CODE":0,"TOWNNAME":"永康區","LI":"正強里","LIN":"33鄰","STREET":"四維街","SECT":" ","MAREA":" ","LANE":" ","ALLEY":" ","HOUSE_NO":"５３號","E_COORD97":173394.42000000001,"N_COORD97":2548066.9900000002,"ADDRESS":"四維街５３號","OBJECTID":529956},"geometry":{"x":173394.42000000086,"y":2548066.9900000021}},{"attributes":{"ID":529984,"DIS_CODE":0,"TOWNNAME":"永康區","LI":"\u25A0洲里","LIN":"33鄰","STREET":"洲尾街","SECT":" ","MAREA":" ","LANE":" ","ALLEY":" ","HOUSE_NO":"１３０號","E_COORD97":170936.94,"N_COORD97":2549119.9100000001,"ADDRESS":"洲尾街１３０號","OBJECTID":529957},"geometry":{"x":170936.94000000134,"y":2549119.9100000001}},{"attributes":{"ID":529985,"DIS_CODE":0,"TOWNNAME":"永康區","LI":"正強里","LIN":"33鄰","STREET":"四維街","SECT":" ","MAREA":" ","LANE":" ","ALLEY":" ","HOUSE_NO":"６３號","E_COORD97":173381.48999999999,"N_COORD97":2548099.0600000001,"ADDRESS":"四維街６３號","OBJECTID":529958},"geometry":{"x":173381.49000000022,"y":2548099.0600000005}},{"attributes":{"ID":529986,"DIS_CODE":0,"TOWNNAME":"永康區","LI":"\u25A0洲里","LIN":"33鄰","STREET":"洲尾街","SECT":" ","MAREA":" ","LANE":" ","ALLEY":" ","HOUSE_NO":"１３６號","E_COORD97":170948.79999999999,"N_COORD97":2549116.0499999998,"ADDRESS":"洲尾街１３６號","OBJECTID":529959},"geometry":{"x":170948.80000000168,"y":2549116.0500000007}},{"attributes":{"ID":529987,"DIS_CODE":0,"TOWNNAME":"仁德區","LI":"仁義里","LIN":"33鄰","STREET":"中正路","SECT":"三段","MAREA":" ","LANE":" ","ALLEY":" ","HOUSE_NO":"４４號","E_COORD97":173345.45000000001,"N_COORD97":2541484.77,"ADDRESS":"中正路三段４４號","OBJECTID":529960},"geometry":{"x":173345.45000000112,"y":2541484.7699999996}},{"attributes":{"ID":529988,"DIS_CODE":0,"TOWNNAME":"永康區","LI":"永康里","LIN":"33鄰","STREET":"永大路","SECT":"二段","MAREA":" ","LANE":" ","ALLEY":" ","HOUSE_NO":"１３１２號","E_COORD97":174306.14999999999,"N_COORD97":2546910.27,"ADDRESS":"永大路二段１３１２號","OBJECTID":529961},"geometry":{"x":174306.15000000037,"y":2546910.2699999996}},{"attributes":{"ID":529989,"DIS_CODE":0,"TOWNNAME":"永康區","LI":"正強里","LIN":"33鄰","STREET":"埔園街","SECT":" ","MAREA":" ","LANE":" ","ALLEY":" ","HOUSE_NO":"４００號","E_COORD97":173323.31,"N_COORD97":2548151.96,"ADDRESS":"埔園街４００號","OBJECTID":529962},"geometry":{"x":173323.30999999959,"y":2548151.9600000028}},{"attributes":{"ID":529990,"DIS_CODE":0,"TOWNNAME":"永康區","LI":"正強里","LIN":"33鄰","STREET":"埔園街","SECT":" ","MAREA":" ","LANE":" ","ALLEY":" ","HOUSE_NO":"４０２號","E_COORD97":173317.98999999999,"N_COORD97":2548150.46,"ADDRESS":"埔園街４０２號","OBJECTID":529963},"geometry":{"x":173317.99000000115,"y":2548150.4600000009}},{"attributes":{"ID":529991,"DIS_CODE":0,"TOWNNAME":"永康區","LI":"永康里","LIN":"33鄰","STREET":"永康街","SECT":" ","MAREA":" ","LANE":" ","ALLEY":" ","HOUSE_NO":"３４６號","E_COORD97":174315.51000000001,"N_COORD97":2547050.5,"ADDRESS":"永康街３４６號","OBJECTID":529964},"geometry":{"x":174315.50999999978,"y":2547050.5}},{"attributes":{"ID":529992,"DIS_CODE":0,"TOWNNAME":"永康區","LI":"永康里","LIN":"33鄰","STREET":"永大路","SECT":"二段","MAREA":" ","LANE":" ","ALLEY":" ","HOUSE_NO":"１３１６號","E_COORD97":174305.64999999999,"N_COORD97":2546914.27,"ADDRESS":"永大路二段１３１６號","OBJECTID":529965},"geometry":{"x":174305.6500000013,"y":2546914.2700000014}},{"attributes":{"ID":529993,"DIS_CODE":0,"TOWNNAME":"永康區","LI":"永康里","LIN":"33鄰","STREET":"永大路","SECT":"二段","MAREA":" ","LANE":" ","ALLEY":" ","HOUSE_NO":"１３７０號","E_COORD97":174295.14999999999,"N_COORD97":2547007.8500000001,"ADDRESS":"永大路二段１３７０號","OBJECTID":529966},"geometry":{"x":174295.15000000224,"y":2547007.8499999996}},{"attributes":{"ID":529994,"DIS_CODE":0,"TOWNNAME":"永康區","LI":"永康里","LIN":"33鄰","STREET":"永大路","SECT":"二段","MAREA":" ","LANE":" ","ALLEY":" ","HOUSE_NO":"１３４８號","E_COORD97":174300.23000000001,"N_COORD97":2546965.5299999998,"ADDRESS":"永大路二段１３４８號","OBJECTID":529967},"geometry":{"x":174300.23000000138,"y":2546965.5299999993}},{"attributes":{"ID":529995,"DIS_CODE":0,"TOWNNAME":"永康區","LI":"正強里","LIN":"33鄰","STREET":"埔園街","SECT":" ","MAREA":" ","LANE":" ","ALLEY":" ","HOUSE_NO":"３８８號","E_COORD97":173344.54000000001,"N_COORD97":2548158.21,"ADDRESS":"埔園街３８８號","OBJECTID":529968},"geometry":{"x":173344.5400000019,"y":2548158.2100000028}},{"attributes":{"ID":529996,"DIS_CODE":0,"TOWNNAME":"永康區","LI":"正強里","LIN":"33鄰","STREET":"埔園街","SECT":" ","MAREA":" ","LANE":" ","ALLEY":" ","HOUSE_NO":"３３７號","E_COORD97":173282.89999999999,"N_COORD97":2548120.2400000002,"ADDRESS":"埔園街３３７號","OBJECTID":529969},"geometry":{"x":173282.89999999944,"y":2548120.2400000002}},{"attributes":{"ID":529997,"DIS_CODE":0,"TOWNNAME":"新化區","LI":"東榮里","LIN":"33鄰","STREET":"護安街","SECT":" ","MAREA":" ","LANE":" ","ALLEY":" ","HOUSE_NO":"７５號","E_COORD97":179196.17999999999,"N_COORD97":2548387.2599999998,"ADDRESS":"護安街７５號","OBJECTID":529970},"geometry":{"x":179196.1799999997,"y":2548387.2600000016}},{"attributes":{"ID":529998,"DIS_CODE":0,"TOWNNAME":"新化區","LI":"東榮里","LIN":"33鄰","STREET":"護安街","SECT":" ","MAREA":" ","LANE":" ","ALLEY":" ","HOUSE_NO":"７９號","E_COORD97":179194.78,"N_COORD97":2548395.2599999998,"ADDRESS":"護安街７９號","OBJECTID":529971},"geometry":{"x":179194.78000000212,"y":2548395.2599999998}},{"attributes":{"ID":529999,"DIS_CODE":0,"TOWNNAME":"新化區","LI":"東榮里","LIN":"33鄰","STREET":"信義路","SECT":" ","MAREA":" ","LANE":" ","ALLEY":" ","HOUSE_NO":"２００號","E_COORD97":179177.32999999999,"N_COORD97":2548343.25,"ADDRESS":"信義路２００號","OBJECTID":529972},"geometry":{"x":179177.33000000194,"y":2548343.2500000019}},{"attributes":{"ID":530000,"DIS_CODE":0,"TOWNNAME":"新化區","LI":"東榮里","LIN":"33鄰","STREET":"信義路","SECT":" ","MAREA":" ","LANE":" ","ALLEY":" ","HOUSE_NO":"２１６號","E_COORD97":179144.13,"N_COORD97":2548338.25,"ADDRESS":"信義路２１６號","OBJECTID":529973},"geometry":{"x":179144.12999999989,"y":2548338.2499999981}},{"attributes":{"ID":530001,"DIS_CODE":0,"TOWNNAME":"新化區","LI":"東榮里","LIN":"33鄰","STREET":"護安街","SECT":" ","MAREA":" ","LANE":" ","ALLEY":" ","HOUSE_NO":"５９號","E_COORD97":179201.88,"N_COORD97":2548356.2599999998,"ADDRESS":"護安街５９號","OBJECTID":529974},"geometry":{"x":179201.87999999989,"y":2548356.2600000016}},{"attributes":{"ID":530002,"DIS_CODE":0,"TOWNNAME":"新化區","LI":"東榮里","LIN":"33鄰","STREET":"護安街","SECT":" ","MAREA":" ","LANE":" ","ALLEY":" ","HOUSE_NO":"６１號","E_COORD97":179201.48000000001,"N_COORD97":2548360.2599999998,"ADDRESS":"護安街６１號","OBJECTID":529975},"geometry":{"x":179201.48000000045,"y":2548360.2599999998}},{"attributes":{"ID":530003,"DIS_CODE":0,"TOWNNAME":"仁德區","LI":"成功里","LIN":"33鄰","STREET":"成功一街","SECT":" ","MAREA":" ","LANE":" ","ALLEY":" ","HOUSE_NO":"４１號","E_COORD97":170537.70999999999,"N_COORD97":2540113.02,"ADDRESS":"成功一街４１號","OBJECTID":529976},"geometry":{"x":170537.71000000183,"y":2540113.0199999996}},{"attributes":{"ID":530004,"DIS_CODE":0,"TOWNNAME":"仁德區","LI":"仁義里","LIN":"33鄰","STREET":"中清五街","SECT":" ","MAREA":" ","LANE":" ","ALLEY":" ","HOUSE_NO":"９２號","E_COORD97":173447.70999999999,"N_COORD97":2541532.04,"ADDRESS":"中清五街９２號","OBJECTID":529977},"geometry":{"x":173447.70999999996,"y":2541532.040000001}},{"attributes":{"ID":530005,"DIS_CODE":0,"TOWNNAME":"仁德區","LI":"仁德里","LIN":"33鄰","STREET":"中山路","SECT":" ","MAREA":" ","LANE":" ","ALLEY":" ","HOUSE_NO":"７０８號","E_COORD97":172785.07000000001,"N_COORD97":2541502.2400000002,"ADDRESS":"中山路７０８號","OBJECTID":529978},"geometry":{"x":172785.07000000216,"y":2541502.2400000002}},{"attributes":{"ID":530006,"DIS_CODE":0,"TOWNNAME":"仁德區","LI":"後壁里","LIN":"33鄰","STREET":"文華路","SECT":"二段","MAREA":" ","LANE":" ","ALLEY":" ","HOUSE_NO":"１３３９號","E_COORD97":172076.01999999999,"N_COORD97":2539897.5699999998,"ADDRESS":"文華路二段１３３９號","OBJECTID":529979},"geometry":{"x":172076.02000000142,"y":2539897.5700000003}},{"attributes":{"ID":530007,"DIS_CODE":0,"TOWNNAME":"仁德區","LI":"成功里","LIN":"33鄰","STREET":"成功一街","SECT":" ","MAREA":" ","LANE":" ","ALLEY":" ","HOUSE_NO":"３７號","E_COORD97":170538,"N_COORD97":2540121.02,"ADDRESS":"成功一街３７號","OBJECTID":529980},"geometry":{"x":170538.00000000093,"y":2540121.0199999996}},{"attributes":{"ID":530008,"DIS_CODE":0,"TOWNNAME":"仁德區","LI":"仁義里","LIN":"33鄰","STREET":"中正路","SECT":"三段","MAREA":" ","LANE":" ","ALLEY":" ","HOUSE_NO":"３８號","E_COORD97":173332.17000000001,"N_COORD97":2541456.5299999998,"ADDRESS":"中正路三段３８號","OBJECTID":529981},"geometry":{"x":173332.17000000086,"y":2541456.5299999993}},{"attributes":{"ID":530009,"DIS_CODE":0,"TOWNNAME":"仁德區","LI":"仁德里","LIN":"33鄰","STREET":"中山路","SECT":" ","MAREA":" ","LANE":" ","ALLEY":" ","HOUSE_NO":"６７２號","E_COORD97":172876.89999999999,"N_COORD97":2541472.75,"ADDRESS":"中山路６７２號","OBJECTID":529982},"geometry":{"x":172876.9000000013,"y":2541472.7499999981}},{"attributes":{"ID":530010,"DIS_CODE":0,"TOWNNAME":"仁德區","LI":"太子里","LIN":"33鄰","STREET":"太子路","SECT":" ","MAREA":" ","LANE":" ","ALLEY":" ","HOUSE_NO":"４９１號","E_COORD97":174052.60000000001,"N_COORD97":2543495.5,"ADDRESS":"太子路４９１號","OBJECTID":529983},"geometry":{"x":174052.60000000056,"y":2543495.5000000037}},{"attributes":{"ID":530011,"DIS_CODE":0,"TOWNNAME":"仁德區","LI":"仁德里","LIN":"33鄰","STREET":"中山路","SECT":" ","MAREA":" ","LANE":" ","ALLEY":" ","HOUSE_NO":"６５０號","E_COORD97":172936.09,"N_COORD97":2541482.25,"ADDRESS":"中山路６５０號","OBJECTID":529984},"geometry":{"x":172936.09000000078,"y":2541482.25}},{"attributes":{"ID":530012,"DIS_CODE":0,"TOWNNAME":"仁德區","LI":"後壁里","LIN":"33鄰","STREET":"德洋二街","SECT":" ","MAREA":" ","LANE":" ","ALLEY":" ","HOUSE_NO":"６３號","E_COORD97":172352.95000000001,"N_COORD97":2539484.27,"ADDRESS":"德洋二街６３號","OBJECTID":529985},"geometry":{"x":172352.95000000019,"y":2539484.2699999996}},{"attributes":{"ID":530013,"DIS_CODE":0,"TOWNNAME":"永康區","LI":"正強里","LIN":"33鄰","STREET":"埔園街","SECT":" ","MAREA":" ","LANE":" ","ALLEY":" ","HOUSE_NO":"４１０號","E_COORD97":173296.01999999999,"N_COORD97":2548143.52,"ADDRESS":"埔園街４１０號","OBJECTID":529986},"geometry":{"x":173296.01999999955,"y":2548143.5200000014}},{"attributes":{"ID":530014,"DIS_CODE":0,"TOWNNAME":"永康區","LI":"永康里","LIN":"33鄰","STREET":"永大路","SECT":"二段","MAREA":" ","LANE":" ","ALLEY":" ","HOUSE_NO":"１３６２號","E_COORD97":174297.06,"N_COORD97":2546994.8500000001,"ADDRESS":"永大路二段１３６２號","OBJECTID":529987},"geometry":{"x":174297.06000000052,"y":2546994.8500000034}},{"attributes":{"ID":530015,"DIS_CODE":0,"TOWNNAME":"永康區","LI":"永康里","LIN":"33鄰","STREET":"永康街","SECT":" ","MAREA":" ","LANE":" ","ALLEY":" ","HOUSE_NO":"３４２號","E_COORD97":174310.79999999999,"N_COORD97":2547049.75,"ADDRESS":"永康街３４２號","OBJECTID":529988},"geometry":{"x":174310.80000000075,"y":2547049.75}},{"attributes":{"ID":530016,"DIS_CODE":0,"TOWNNAME":"永康區","LI":"勝利里","LIN":"33鄰","STREET":"中華路","SECT":" ","MAREA":" ","LANE":" ","ALLEY":" ","HOUSE_NO":"１號之５８","E_COORD97":171502.01000000001,"N_COORD97":2544353.0499999998,"ADDRESS":"中華路１號之５８","OBJECTID":529989},"geometry":{"x":171502.01000000071,"y":2544353.0500000007}},{"attributes":{"ID":530017,"DIS_CODE":0,"TOWNNAME":"永康區","LI":"永康里","LIN":"33鄰","STREET":"永大路","SECT":"二段","MAREA":" ","LANE":" ","ALLEY":" ","HOUSE_NO":"１３４６號","E_COORD97":174300.78,"N_COORD97":2546961.0299999998,"ADDRESS":"永大路二段１３４６號","OBJECTID":529990},"geometry":{"x":174300.78000000212,"y":2546961.0300000012}},{"attributes":{"ID":530018,"DIS_CODE":0,"TOWNNAME":"永康區","LI":"勝利里","LIN":"33鄰","STREET":"中華路","SECT":" ","MAREA":" ","LANE":" ","ALLEY":" ","HOUSE_NO":"１號之１１４","E_COORD97":171503.13,"N_COORD97":2544353.0499999998,"ADDRESS":"中華路１號之１１４","OBJECTID":529991},"geometry":{"x":171503.13000000082,"y":2544353.0500000007}},{"attributes":{"ID":530019,"DIS_CODE":0,"TOWNNAME":"永康區","LI":"勝利里","LIN":"33鄰","STREET":"中華路","SECT":" ","MAREA":" ","LANE":" ","ALLEY":" ","HOUSE_NO":"１號之１３３","E_COORD97":171503.20999999999,"N_COORD97":2544353.0499999998,"ADDRESS":"中華路１號之１３３","OBJECTID":529992},"geometry":{"x":171503.20999999996,"y":2544353.0500000007}},{"attributes":{"ID":530020,"DIS_CODE":0,"TOWNNAME":"永康區","LI":"永康里","LIN":"33鄰","STREET":"永大路","SECT":"二段","MAREA":" ","LANE":" ","ALLEY":" ","HOUSE_NO":"１３６０號","E_COORD97":174297.60000000001,"N_COORD97":2546990.1000000001,"ADDRESS":"永大路二段１３６０號","OBJECTID":529993},"geometry":{"x":174297.59999999963,"y":2546990.1000000015}},{"attributes":{"ID":530021,"DIS_CODE":0,"TOWNNAME":"永康區","LI":"永康里","LIN":"33鄰","STREET":"永康街","SECT":" ","MAREA":" ","LANE":" ","ALLEY":" ","HOUSE_NO":"３４８號","E_COORD97":174319.92000000001,"N_COORD97":2547050.75,"ADDRESS":"永康街３４８號","OBJECTID":529994},"geometry":{"x":174319.92000000179,"y":2547050.7500000019}},{"attributes":{"ID":530022,"DIS_CODE":0,"TOWNNAME":"永康區","LI":"埔園里","LIN":"33鄰","STREET":"自強路","SECT":" ","MAREA":" ","LANE":" ","ALLEY":" ","HOUSE_NO":"４４９號","E_COORD97":173853.57999999999,"N_COORD97":2548050.7400000002,"ADDRESS":"自強路４４９號","OBJECTID":529995},"geometry":{"x":173853.58000000101,"y":2548050.7400000039}},{"attributes":{"ID":530023,"DIS_CODE":0,"TOWNNAME":"永康區","LI":"埔園里","LIN":"33鄰","STREET":"自強路","SECT":" ","MAREA":" ","LANE":" ","ALLEY":" ","HOUSE_NO":"４７１號","E_COORD97":173888.92999999999,"N_COORD97":2548079,"ADDRESS":"自強路４７１號","OBJECTID":529996},"geometry":{"x":173888.93000000156,"y":2548078.9999999981}},{"attributes":{"ID":530024,"DIS_CODE":0,"TOWNNAME":"西港區","LI":"慶安里","LIN":"33鄰","STREET":"中山路","SECT":" ","MAREA":" ","LANE":" ","ALLEY":" ","HOUSE_NO":"１１９號之１","E_COORD97":168449.706596,"N_COORD97":2557480.4871999999,"ADDRESS":"中山路１１９號之１","OBJECTID":529997},"geometry":{"x":168449.70659600012,"y":2557480.4871979989}},{"attributes":{"ID":530025,"DIS_CODE":0,"TOWNNAME":"東區","LI":"關聖里","LIN":"18鄰","STREET":"裕和路","SECT":" ","MAREA":" ","LANE":" ","ALLEY":" ","HOUSE_NO":"３０６號","E_COORD97":172559.73000000001,"N_COORD97":2543116.9900000002,"ADDRESS":"裕和路３０６號","OBJECTID":529998},"geometry":{"x":172559.73000000045,"y":2543116.9900000021}},{"attributes":{"ID":530026,"DIS_CODE":0,"TOWNNAME":"東區","LI":"關聖里","LIN":"13鄰","STREET":"裕和路","SECT":" ","MAREA":" ","LANE":" ","ALLEY":" ","HOUSE_NO":"５０號","E_COORD97":172049.44,"N_COORD97":2543095.5800000001,"ADDRESS":"裕和路５０號","OBJECTID":529999},"geometry":{"x":172049.44000000134,"y":2543095.5800000019}},{"attributes":{"ID":530027,"DIS_CODE":0,"TOWNNAME":"西港區","LI":"慶安里","LIN":"33鄰","STREET":"中山路","SECT":" ","MAREA":" ","LANE":" ","ALLEY":" ","HOUSE_NO":"１１９號之２","E_COORD97":168446.91,"N_COORD97":2557486.6600000001,"ADDRESS":"中山路１１９號之２","OBJECTID":530000},"geometry":{"x":168446.91000000108,"y":2557486.6600000039}}]}