{"displayFieldName":"TOWNNAME","fieldAliases":{"ID":"ID","DIS_CODE":"DIS_CODE","TOWNNAME":"TOWNNAME","LI":"LI","LIN":"LIN","STREET":"STREET","SECT":"SECT","MAREA":"MAREA","LANE":"LANE","ALLEY":"ALLEY","HOUSE_NO":"HOUSE_NO","E_COORD97":"E_COORD97","N_COORD97":"N_COORD97","ADDRESS":"ADDRESS","OBJECTID":"OBJECTID"},"geometryType":"esriGeometryPoint","spatialReference":{"wkid":102443,"latestWkid":3826},"fields":[{"name":"ID","type":"esriFieldTypeDouble","alias":"ID"},{"name":"DIS_CODE","type":"esriFieldTypeInteger","alias":"DIS_CODE"},{"name":"TOWNNAME","type":"esriFieldTypeString","alias":"TOWNNAME","length":8},{"name":"LI","type":"esriFieldTypeString","alias":"LI","length":8},{"name":"LIN","type":"esriFieldTypeString","alias":"LIN","length":12},{"name":"STREET","type":"esriFieldTypeString","alias":"STREET","length":20},{"name":"SECT","type":"esriFieldTypeString","alias":"SECT","length":8},{"name":"MAREA","type":"esriFieldTypeString","alias":"MAREA","length":12},{"name":"LANE","type":"esriFieldTypeString","alias":"LANE","length":10},{"name":"ALLEY","type":"esriFieldTypeString","alias":"ALLEY","length":10},{"name":"HOUSE_NO","type":"esriFieldTypeString","alias":"HOUSE_NO","length":20},{"name":"E_COORD97","type":"esriFieldTypeDouble","alias":"E_COORD97"},{"name":"N_COORD97","type":"esriFieldTypeDouble","alias":"N_COORD97"},{"name":"ADDRESS","type":"esriFieldTypeString","alias":"ADDRESS","length":50},{"name":"OBJECTID","type":"esriFieldTypeOID","alias":"OBJECTID"}],"features":[{"attributes":{"ID":496228,"DIS_CODE":0,"TOWNNAME":"北區","LI":"成德里","LIN":"34鄰","STREET":"育德二路","SECT":" ","MAREA":" ","LANE":" ","ALLEY":" ","HOUSE_NO":"２９０號","E_COORD97":168395.85000000001,"N_COORD97":2546011.6099999999,"ADDRESS":"育德二路２９０號","OBJECTID":496201},"geometry":{"x":168395.85000000056,"y":2546011.6099999994}},{"attributes":{"ID":496229,"DIS_CODE":0,"TOWNNAME":"中西區","LI":"民主里","LIN":"7鄰","STREET":"保安路","SECT":" ","MAREA":" ","LANE":" ","ALLEY":" ","HOUSE_NO":"１７４號","E_COORD97":167275.59,"N_COORD97":2543524.9100000001,"ADDRESS":"保安路１７４號","OBJECTID":496202},"geometry":{"x":167275.59000000078,"y":2543524.910000002}},{"attributes":{"ID":496230,"DIS_CODE":0,"TOWNNAME":"中西區","LI":"民主里","LIN":"7鄰","STREET":"保安路","SECT":" ","MAREA":" ","LANE":" ","ALLEY":" ","HOUSE_NO":"１７６號","E_COORD97":167271.62,"N_COORD97":2543525.75,"ADDRESS":"保安路１７６號","OBJECTID":496203},"geometry":{"x":167271.62000000011,"y":2543525.7500000019}},{"attributes":{"ID":496231,"DIS_CODE":0,"TOWNNAME":"中西區","LI":"民主里","LIN":"7鄰","STREET":"保安路","SECT":" ","MAREA":" ","LANE":" ","ALLEY":" ","HOUSE_NO":"１７８號","E_COORD97":167266.07999999999,"N_COORD97":2543526.1699999999,"ADDRESS":"保安路１７８號","OBJECTID":496204},"geometry":{"x":167266.08000000007,"y":2543526.1700000018}},{"attributes":{"ID":496232,"DIS_CODE":0,"TOWNNAME":"中西區","LI":"民主里","LIN":"7鄰","STREET":"保安路","SECT":" ","MAREA":" ","LANE":" ","ALLEY":" ","HOUSE_NO":"１８０號","E_COORD97":167260.13,"N_COORD97":2543528.0499999998,"ADDRESS":"保安路１８０號","OBJECTID":496205},"geometry":{"x":167260.13000000082,"y":2543528.0500000007}},{"attributes":{"ID":496233,"DIS_CODE":0,"TOWNNAME":"中西區","LI":"民主里","LIN":"7鄰","STREET":"府前路","SECT":"二段","MAREA":" ","LANE":" ","ALLEY":" ","HOUSE_NO":"１８５號","E_COORD97":167227.76000000001,"N_COORD97":2543560.54,"ADDRESS":"府前路二段１８５號","OBJECTID":496206},"geometry":{"x":167227.75999999978,"y":2543560.5399999991}},{"attributes":{"ID":496234,"DIS_CODE":0,"TOWNNAME":"中西區","LI":"民主里","LIN":"7鄰","STREET":"府前路","SECT":"二段","MAREA":" ","LANE":" ","ALLEY":" ","HOUSE_NO":"１８９號","E_COORD97":167218.42000000001,"N_COORD97":2543560.8999999999,"ADDRESS":"府前路二段１８９號","OBJECTID":496207},"geometry":{"x":167218.41999999993,"y":2543560.9000000041}},{"attributes":{"ID":496235,"DIS_CODE":0,"TOWNNAME":"中西區","LI":"民主里","LIN":"7鄰","STREET":"府前路","SECT":"二段","MAREA":" ","LANE":" ","ALLEY":" ","HOUSE_NO":"１９１號","E_COORD97":167212.79999999999,"N_COORD97":2543561.6899999999,"ADDRESS":"府前路二段１９１號","OBJECTID":496208},"geometry":{"x":167212.80000000075,"y":2543561.6900000013}},{"attributes":{"ID":496236,"DIS_CODE":0,"TOWNNAME":"中西區","LI":"民主里","LIN":"7鄰","STREET":"府前路","SECT":"二段","MAREA":" ","LANE":" ","ALLEY":" ","HOUSE_NO":"１９５號","E_COORD97":167199.29000000001,"N_COORD97":2543562.1400000001,"ADDRESS":"府前路二段１９５號","OBJECTID":496209},"geometry":{"x":167199.2900000019,"y":2543562.1400000006}},{"attributes":{"ID":496237,"DIS_CODE":0,"TOWNNAME":"中西區","LI":"民主里","LIN":"7鄰","STREET":"府前路","SECT":"二段","MAREA":" ","LANE":" ","ALLEY":" ","HOUSE_NO":"１９９號","E_COORD97":167192.17999999999,"N_COORD97":2543564.8399999999,"ADDRESS":"府前路二段１９９號","OBJECTID":496210},"geometry":{"x":167192.1799999997,"y":2543564.8400000017}},{"attributes":{"ID":496238,"DIS_CODE":0,"TOWNNAME":"中西區","LI":"民主里","LIN":"7鄰","STREET":"府前路","SECT":"二段","MAREA":" ","LANE":" ","ALLEY":" ","HOUSE_NO":"２０１號","E_COORD97":167187.22,"N_COORD97":2543565.7400000002,"ADDRESS":"府前路二段２０１號","OBJECTID":496211},"geometry":{"x":167187.21999999974,"y":2543565.7400000021}},{"attributes":{"ID":496239,"DIS_CODE":0,"TOWNNAME":"中西區","LI":"民主里","LIN":"7鄰","STREET":"府前路","SECT":"二段","MAREA":" ","LANE":" ","ALLEY":" ","HOUSE_NO":"２０３號","E_COORD97":167183.17000000001,"N_COORD97":2543566.2999999998,"ADDRESS":"府前路二段２０３號","OBJECTID":496212},"geometry":{"x":167183.17000000179,"y":2543566.3000000026}},{"attributes":{"ID":496240,"DIS_CODE":0,"TOWNNAME":"中西區","LI":"民主里","LIN":"7鄰","STREET":"府前路","SECT":"二段","MAREA":" ","LANE":" ","ALLEY":" ","HOUSE_NO":"２０５號","E_COORD97":167178.89999999999,"N_COORD97":2543567.6499999999,"ADDRESS":"府前路二段２０５號","OBJECTID":496213},"geometry":{"x":167178.9000000013,"y":2543567.6500000004}},{"attributes":{"ID":496241,"DIS_CODE":0,"TOWNNAME":"中西區","LI":"民生里","LIN":"7鄰","STREET":"大智街","SECT":" ","MAREA":" ","LANE":" ","ALLEY":" ","HOUSE_NO":"１２０號","E_COORD97":167248.28,"N_COORD97":2543336.4900000002,"ADDRESS":"大智街１２０號","OBJECTID":496214},"geometry":{"x":167248.28000000026,"y":2543336.4900000039}},{"attributes":{"ID":496242,"DIS_CODE":0,"TOWNNAME":"中西區","LI":"民生里","LIN":"7鄰","STREET":"大智街","SECT":" ","MAREA":" ","LANE":" ","ALLEY":" ","HOUSE_NO":"１０４號","E_COORD97":167257.62,"N_COORD97":2543366.25,"ADDRESS":"大智街１０４號","OBJECTID":496215},"geometry":{"x":167257.62000000011,"y":2543366.2500000019}},{"attributes":{"ID":496243,"DIS_CODE":0,"TOWNNAME":"中西區","LI":"民生里","LIN":"7鄰","STREET":"大智街","SECT":" ","MAREA":" ","LANE":" ","ALLEY":" ","HOUSE_NO":"１０６號","E_COORD97":167256.85999999999,"N_COORD97":2543360.96,"ADDRESS":"大智街１０６號","OBJECTID":496216},"geometry":{"x":167256.8600000022,"y":2543360.9600000046}},{"attributes":{"ID":496244,"DIS_CODE":0,"TOWNNAME":"中西區","LI":"民生里","LIN":"7鄰","STREET":"大智街","SECT":" ","MAREA":" ","LANE":" ","ALLEY":" ","HOUSE_NO":"１０８號","E_COORD97":167256.10999999999,"N_COORD97":2543357.1699999999,"ADDRESS":"大智街１０８號","OBJECTID":496217},"geometry":{"x":167256.11000000034,"y":2543357.1699999999}},{"attributes":{"ID":496245,"DIS_CODE":0,"TOWNNAME":"中西區","LI":"民生里","LIN":"7鄰","STREET":"大智街","SECT":" ","MAREA":" ","LANE":" ","ALLEY":" ","HOUSE_NO":"１１０號","E_COORD97":167255.35000000001,"N_COORD97":2543353.3900000001,"ADDRESS":"大智街１１０號","OBJECTID":496218},"geometry":{"x":167255.34999999963,"y":2543353.3900000006}},{"attributes":{"ID":496246,"DIS_CODE":0,"TOWNNAME":"中西區","LI":"民生里","LIN":"7鄰","STREET":"大智街","SECT":" ","MAREA":" ","LANE":" ","ALLEY":" ","HOUSE_NO":"１１２號","E_COORD97":167253.82999999999,"N_COORD97":2543349.8599999999,"ADDRESS":"大智街１１２號","OBJECTID":496219},"geometry":{"x":167253.83000000101,"y":2543349.8600000031}},{"attributes":{"ID":496247,"DIS_CODE":0,"TOWNNAME":"中西區","LI":"民生里","LIN":"7鄰","STREET":"大智街","SECT":" ","MAREA":" ","LANE":" ","ALLEY":" ","HOUSE_NO":"１１４號","E_COORD97":167246.76000000001,"N_COORD97":2543353.3900000001,"ADDRESS":"大智街１１４號","OBJECTID":496220},"geometry":{"x":167246.76000000164,"y":2543353.3900000006}},{"attributes":{"ID":496248,"DIS_CODE":0,"TOWNNAME":"中西區","LI":"民生里","LIN":"7鄰","STREET":"大智街","SECT":" ","MAREA":" ","LANE":" ","ALLEY":" ","HOUSE_NO":"１１４號之１","E_COORD97":167240.70000000001,"N_COORD97":2543354.3999999999,"ADDRESS":"大智街１１４號之１","OBJECTID":496221},"geometry":{"x":167240.69999999925,"y":2543354.4000000022}},{"attributes":{"ID":496249,"DIS_CODE":0,"TOWNNAME":"中西區","LI":"民生里","LIN":"7鄰","STREET":"大智街","SECT":" ","MAREA":" ","LANE":" ","ALLEY":" ","HOUSE_NO":"９６號","E_COORD97":167262.42000000001,"N_COORD97":2543372.5600000001,"ADDRESS":"大智街９６號","OBJECTID":496222},"geometry":{"x":167262.41999999993,"y":2543372.5600000005}},{"attributes":{"ID":496250,"DIS_CODE":0,"TOWNNAME":"中西區","LI":"民生里","LIN":"7鄰","STREET":"大智街","SECT":" ","MAREA":" ","LANE":" ","ALLEY":" ","HOUSE_NO":"９６號之１","E_COORD97":167263.67999999999,"N_COORD97":2543378.6099999999,"ADDRESS":"大智街９６號之１","OBJECTID":496223},"geometry":{"x":167263.6799999997,"y":2543378.6100000031}},{"attributes":{"ID":496251,"DIS_CODE":0,"TOWNNAME":"中西區","LI":"民生里","LIN":"7鄰","STREET":"大智街","SECT":" ","MAREA":" ","LANE":" ","ALLEY":" ","HOUSE_NO":"９６號之２","E_COORD97":167264.69,"N_COORD97":2543385.4199999999,"ADDRESS":"大智街９６號之２","OBJECTID":496224},"geometry":{"x":167264.69000000041,"y":2543385.4200000018}},{"attributes":{"ID":496252,"DIS_CODE":0,"TOWNNAME":"中西區","LI":"民生里","LIN":"7鄰","STREET":"大勇街","SECT":" ","MAREA":" ","LANE":" ","ALLEY":" ","HOUSE_NO":"１１１號","E_COORD97":167238.17999999999,"N_COORD97":2543392.9900000002,"ADDRESS":"大勇街１１１號","OBJECTID":496225},"geometry":{"x":167238.1799999997,"y":2543392.9900000002}},{"attributes":{"ID":496253,"DIS_CODE":0,"TOWNNAME":"中西區","LI":"民生里","LIN":"7鄰","STREET":"大勇街","SECT":" ","MAREA":" ","LANE":" ","ALLEY":" ","HOUSE_NO":"１１５號","E_COORD97":167231.85999999999,"N_COORD97":2543390.9700000002,"ADDRESS":"大勇街１１５號","OBJECTID":496226},"geometry":{"x":167231.86000000127,"y":2543390.9699999988}},{"attributes":{"ID":496254,"DIS_CODE":0,"TOWNNAME":"中西區","LI":"民生里","LIN":"7鄰","STREET":"大勇街","SECT":" ","MAREA":" ","LANE":" ","ALLEY":" ","HOUSE_NO":"１１７號","E_COORD97":167228.82999999999,"N_COORD97":2543391.98,"ADDRESS":"大勇街１１７號","OBJECTID":496227},"geometry":{"x":167228.83000000007,"y":2543391.9800000023}},{"attributes":{"ID":496255,"DIS_CODE":0,"TOWNNAME":"中西區","LI":"民生里","LIN":"7鄰","STREET":"大勇街","SECT":" ","MAREA":" ","LANE":" ","ALLEY":" ","HOUSE_NO":"１１９號","E_COORD97":167226.16,"N_COORD97":2543397.7200000002,"ADDRESS":"大勇街１１９號","OBJECTID":496228},"geometry":{"x":167226.16000000108,"y":2543397.7200000025}},{"attributes":{"ID":496256,"DIS_CODE":0,"TOWNNAME":"中西區","LI":"民生里","LIN":"7鄰","STREET":"大智街","SECT":" ","MAREA":" ","LANE":" ","ALLEY":" ","HOUSE_NO":"１１４號之３","E_COORD97":167232.12,"N_COORD97":2543356.9199999999,"ADDRESS":"大智街１１４號之３","OBJECTID":496229},"geometry":{"x":167232.12000000011,"y":2543356.9200000037}},{"attributes":{"ID":496257,"DIS_CODE":0,"TOWNNAME":"中西區","LI":"民生里","LIN":"7鄰","STREET":"大智街","SECT":" ","MAREA":" ","LANE":" ","ALLEY":" ","HOUSE_NO":"１１４號之４","E_COORD97":167229.59,"N_COORD97":2543357.6800000002,"ADDRESS":"大智街１１４號之４","OBJECTID":496230},"geometry":{"x":167229.59000000078,"y":2543357.6799999997}},{"attributes":{"ID":496258,"DIS_CODE":0,"TOWNNAME":"中西區","LI":"民生里","LIN":"7鄰","STREET":"金華路","SECT":"三段","MAREA":" ","LANE":" ","ALLEY":" ","HOUSE_NO":"５４號","E_COORD97":167213.45000000001,"N_COORD97":2543360.4100000001,"ADDRESS":"金華路三段５４號","OBJECTID":496231},"geometry":{"x":167213.45000000019,"y":2543360.4100000039}},{"attributes":{"ID":496259,"DIS_CODE":0,"TOWNNAME":"中西區","LI":"民生里","LIN":"7鄰","STREET":"金華路","SECT":"三段","MAREA":" ","LANE":" ","ALLEY":" ","HOUSE_NO":"５８號","E_COORD97":167214.10999999999,"N_COORD97":2543364.8799999999,"ADDRESS":"金華路三段５８號","OBJECTID":496232},"geometry":{"x":167214.11000000034,"y":2543364.879999999}},{"attributes":{"ID":496260,"DIS_CODE":0,"TOWNNAME":"中西區","LI":"民生里","LIN":"7鄰","STREET":"金華路","SECT":"三段","MAREA":" ","LANE":" ","ALLEY":" ","HOUSE_NO":"６０號","E_COORD97":167214.44,"N_COORD97":2543371.9900000002,"ADDRESS":"金華路三段６０號","OBJECTID":496233},"geometry":{"x":167214.44000000134,"y":2543371.9900000002}},{"attributes":{"ID":496261,"DIS_CODE":0,"TOWNNAME":"中西區","LI":"民生里","LIN":"7鄰","STREET":"金華路","SECT":"三段","MAREA":" ","LANE":" ","ALLEY":" ","HOUSE_NO":"６２號","E_COORD97":167215.73000000001,"N_COORD97":2543385.4500000002,"ADDRESS":"金華路三段６２號","OBJECTID":496234},"geometry":{"x":167215.73000000138,"y":2543385.4499999993}},{"attributes":{"ID":496262,"DIS_CODE":0,"TOWNNAME":"中西區","LI":"民生里","LIN":"7鄰","STREET":"大智街","SECT":" ","MAREA":" ","LANE":" ","ALLEY":" ","HOUSE_NO":"１１８號","E_COORD97":167248.78,"N_COORD97":2543339.77,"ADDRESS":"大智街１１８號","OBJECTID":496235},"geometry":{"x":167248.78000000212,"y":2543339.7699999996}},{"attributes":{"ID":496263,"DIS_CODE":0,"TOWNNAME":"中西區","LI":"民生里","LIN":"7鄰","STREET":"大智街","SECT":" ","MAREA":" ","LANE":" ","ALLEY":" ","HOUSE_NO":"１２２號","E_COORD97":167243.73000000001,"N_COORD97":2543331.2000000002,"ADDRESS":"大智街１２２號","OBJECTID":496236},"geometry":{"x":167243.73000000045,"y":2543331.2000000011}},{"attributes":{"ID":496264,"DIS_CODE":0,"TOWNNAME":"中西區","LI":"民生里","LIN":"7鄰","STREET":"大智街","SECT":" ","MAREA":" ","LANE":" ","ALLEY":" ","HOUSE_NO":"１２４號","E_COORD97":167244.48999999999,"N_COORD97":2543326.23,"ADDRESS":"大智街１２４號","OBJECTID":496237},"geometry":{"x":167244.49000000115,"y":2543326.2300000023}},{"attributes":{"ID":496265,"DIS_CODE":0,"TOWNNAME":"中西區","LI":"民生里","LIN":"7鄰","STREET":"大智街","SECT":" ","MAREA":" ","LANE":" ","ALLEY":" ","HOUSE_NO":"１２６號","E_COORD97":167240.20000000001,"N_COORD97":2543321.6899999999,"ADDRESS":"大智街１２６號","OBJECTID":496238},"geometry":{"x":167240.20000000019,"y":2543321.6900000013}},{"attributes":{"ID":496266,"DIS_CODE":0,"TOWNNAME":"中西區","LI":"民生里","LIN":"7鄰","STREET":"大智街","SECT":" ","MAREA":" ","LANE":" ","ALLEY":" ","HOUSE_NO":"１２８號","E_COORD97":167239.44,"N_COORD97":2543312.3599999999,"ADDRESS":"大智街１２８號","OBJECTID":496239},"geometry":{"x":167239.44000000227,"y":2543312.3599999975}},{"attributes":{"ID":496267,"DIS_CODE":0,"TOWNNAME":"中西區","LI":"民生里","LIN":"7鄰","STREET":"武英街","SECT":" ","MAREA":" ","LANE":" ","ALLEY":" ","HOUSE_NO":"１０號","E_COORD97":167218.75,"N_COORD97":2543319.3399999999,"ADDRESS":"武英街１０號","OBJECTID":496240},"geometry":{"x":167218.75000000093,"y":2543319.3399999999}},{"attributes":{"ID":496268,"DIS_CODE":0,"TOWNNAME":"中西區","LI":"民生里","LIN":"7鄰","STREET":"武英街","SECT":" ","MAREA":" ","LANE":" ","ALLEY":" ","HOUSE_NO":"１２號","E_COORD97":167215.04000000001,"N_COORD97":2543319.5699999998,"ADDRESS":"武英街１２號","OBJECTID":496241},"geometry":{"x":167215.04000000097,"y":2543319.5700000022}},{"attributes":{"ID":496269,"DIS_CODE":0,"TOWNNAME":"中西區","LI":"民生里","LIN":"7鄰","STREET":"武英街","SECT":" ","MAREA":" ","LANE":" ","ALLEY":" ","HOUSE_NO":"１４號","E_COORD97":167204.17999999999,"N_COORD97":2543317.0499999998,"ADDRESS":"武英街１４號","OBJECTID":496242},"geometry":{"x":167204.1799999997,"y":2543317.0500000026}},{"attributes":{"ID":496270,"DIS_CODE":0,"TOWNNAME":"中西區","LI":"民生里","LIN":"7鄰","STREET":"武英街","SECT":" ","MAREA":" ","LANE":" ","ALLEY":" ","HOUSE_NO":"８號","E_COORD97":167222.69,"N_COORD97":2543318.1800000002,"ADDRESS":"武英街８號","OBJECTID":496243},"geometry":{"x":167222.69000000134,"y":2543318.1800000016}},{"attributes":{"ID":496271,"DIS_CODE":0,"TOWNNAME":"中西區","LI":"民生里","LIN":"7鄰","STREET":"金華路","SECT":"三段","MAREA":" ","LANE":" ","ALLEY":" ","HOUSE_NO":"３８號","E_COORD97":167205,"N_COORD97":2543323.3300000001,"ADDRESS":"金華路三段３８號","OBJECTID":496244},"geometry":{"x":167205.00000000093,"y":2543323.3300000001}},{"attributes":{"ID":496272,"DIS_CODE":0,"TOWNNAME":"中西區","LI":"民生里","LIN":"7鄰","STREET":"金華路","SECT":"三段","MAREA":" ","LANE":" ","ALLEY":" ","HOUSE_NO":"４０號","E_COORD97":167206,"N_COORD97":2543328.96,"ADDRESS":"金華路三段４０號","OBJECTID":496245},"geometry":{"x":167206,"y":2543328.9600000009}},{"attributes":{"ID":496273,"DIS_CODE":0,"TOWNNAME":"中西區","LI":"民生里","LIN":"7鄰","STREET":"金華路","SECT":"三段","MAREA":" ","LANE":" ","ALLEY":" ","HOUSE_NO":"４２號","E_COORD97":167206.32999999999,"N_COORD97":2543332.9199999999,"ADDRESS":"金華路三段４２號","OBJECTID":496246},"geometry":{"x":167206.33000000101,"y":2543332.9199999981}},{"attributes":{"ID":496274,"DIS_CODE":0,"TOWNNAME":"中西區","LI":"民生里","LIN":"7鄰","STREET":"金華路","SECT":"三段","MAREA":" ","LANE":" ","ALLEY":" ","HOUSE_NO":"４４號","E_COORD97":167206.98999999999,"N_COORD97":2543336.5600000001,"ADDRESS":"金華路三段４４號","OBJECTID":496247},"geometry":{"x":167206.99000000115,"y":2543336.5600000024}},{"attributes":{"ID":496275,"DIS_CODE":0,"TOWNNAME":"中西區","LI":"民生里","LIN":"7鄰","STREET":"金華路","SECT":"三段","MAREA":" ","LANE":" ","ALLEY":" ","HOUSE_NO":"４６號","E_COORD97":167207.98000000001,"N_COORD97":2543340.8599999999,"ADDRESS":"金華路三段４６號","OBJECTID":496248},"geometry":{"x":167207.98000000045,"y":2543340.8600000013}},{"attributes":{"ID":496276,"DIS_CODE":0,"TOWNNAME":"中西區","LI":"民生里","LIN":"7鄰","STREET":"金華路","SECT":"三段","MAREA":" ","LANE":" ","ALLEY":" ","HOUSE_NO":"４８號","E_COORD97":167208.64999999999,"N_COORD97":2543344,"ADDRESS":"金華路三段４８號","OBJECTID":496249},"geometry":{"x":167208.65000000037,"y":2543344.0000000019}},{"attributes":{"ID":496277,"DIS_CODE":0,"TOWNNAME":"中西區","LI":"民生里","LIN":"7鄰","STREET":"金華路","SECT":"三段","MAREA":" ","LANE":" ","ALLEY":" ","HOUSE_NO":"５０號","E_COORD97":167209.47,"N_COORD97":2543348.29,"ADDRESS":"金華路三段５０號","OBJECTID":496250},"geometry":{"x":167209.46999999974,"y":2543348.290000001}},{"attributes":{"ID":496278,"DIS_CODE":0,"TOWNNAME":"中西區","LI":"民生里","LIN":"7鄰","STREET":"金華路","SECT":"三段","MAREA":" ","LANE":" ","ALLEY":" ","HOUSE_NO":"５２號","E_COORD97":167210.14000000001,"N_COORD97":2543352.27,"ADDRESS":"金華路三段５２號","OBJECTID":496251},"geometry":{"x":167210.14000000153,"y":2543352.2700000014}},{"attributes":{"ID":496279,"DIS_CODE":0,"TOWNNAME":"中西區","LI":"安海里","LIN":"7鄰","STREET":"金華路","SECT":"三段","MAREA":" ","LANE":" ","ALLEY":" ","HOUSE_NO":"２０４號","E_COORD97":167323.97,"N_COORD97":2543869.4399999999,"ADDRESS":"金華路三段２０４號","OBJECTID":496252},"geometry":{"x":167323.97000000067,"y":2543869.4400000013}},{"attributes":{"ID":496280,"DIS_CODE":0,"TOWNNAME":"中西區","LI":"安海里","LIN":"7鄰","STREET":"金華路","SECT":"三段","MAREA":" ","LANE":" ","ALLEY":" ","HOUSE_NO":"２０６號","E_COORD97":167324.67999999999,"N_COORD97":2543872.48,"ADDRESS":"金華路三段２０６號","OBJECTID":496253},"geometry":{"x":167324.6799999997,"y":2543872.4800000042}},{"attributes":{"ID":496281,"DIS_CODE":0,"TOWNNAME":"中西區","LI":"安海里","LIN":"7鄰","STREET":"金華路","SECT":"三段","MAREA":" ","LANE":" ","ALLEY":" ","HOUSE_NO":"２０８號","E_COORD97":167331.84,"N_COORD97":2543881.23,"ADDRESS":"金華路三段２０８號","OBJECTID":496254},"geometry":{"x":167331.84000000078,"y":2543881.2300000023}},{"attributes":{"ID":496282,"DIS_CODE":0,"TOWNNAME":"中西區","LI":"安海里","LIN":"7鄰","STREET":"金華路","SECT":"三段","MAREA":" ","LANE":" ","ALLEY":" ","HOUSE_NO":"２１０號","E_COORD97":167332.73000000001,"N_COORD97":2543886.7599999998,"ADDRESS":"金華路三段２１０號","OBJECTID":496255},"geometry":{"x":167332.73000000138,"y":2543886.7600000035}},{"attributes":{"ID":496283,"DIS_CODE":0,"TOWNNAME":"中西區","LI":"安海里","LIN":"7鄰","STREET":"金華路","SECT":"三段","MAREA":" ","LANE":" ","ALLEY":" ","HOUSE_NO":"２１２號","E_COORD97":167334.51999999999,"N_COORD97":2543892.6499999999,"ADDRESS":"金華路三段２１２號","OBJECTID":496256},"geometry":{"x":167334.52000000142,"y":2543892.6500000022}},{"attributes":{"ID":496284,"DIS_CODE":0,"TOWNNAME":"中西區","LI":"安海里","LIN":"7鄰","STREET":"金華路","SECT":"三段","MAREA":" ","LANE":" ","ALLEY":" ","HOUSE_NO":"２１４號","E_COORD97":167336.66,"N_COORD97":2543903.3700000001,"ADDRESS":"金華路三段２１４號","OBJECTID":496257},"geometry":{"x":167336.66000000108,"y":2543903.370000001}},{"attributes":{"ID":496285,"DIS_CODE":0,"TOWNNAME":"中西區","LI":"安海里","LIN":"7鄰","STREET":"金華路","SECT":"三段","MAREA":" ","LANE":" ","ALLEY":" ","HOUSE_NO":"２１６號","E_COORD97":167334.88,"N_COORD97":2543897.48,"ADDRESS":"金華路三段２１６號","OBJECTID":496258},"geometry":{"x":167334.88000000082,"y":2543897.4800000023}},{"attributes":{"ID":496286,"DIS_CODE":0,"TOWNNAME":"中西區","LI":"三合里","LIN":"7鄰","STREET":"信義街","SECT":" ","MAREA":" ","LANE":" ","ALLEY":" ","HOUSE_NO":"１２號","E_COORD97":167616.16,"N_COORD97":2544468.6499999999,"ADDRESS":"信義街１２號","OBJECTID":496259},"geometry":{"x":167616.16000000108,"y":2544468.6500000022}},{"attributes":{"ID":496287,"DIS_CODE":0,"TOWNNAME":"中西區","LI":"三合里","LIN":"7鄰","STREET":"信義街","SECT":" ","MAREA":" ","LANE":" ","ALLEY":" ","HOUSE_NO":"１４號","E_COORD97":167612.95999999999,"N_COORD97":2544470.77,"ADDRESS":"信義街１４號","OBJECTID":496260},"geometry":{"x":167612.95999999996,"y":2544470.7700000014}},{"attributes":{"ID":496288,"DIS_CODE":0,"TOWNNAME":"中西區","LI":"三合里","LIN":"7鄰","STREET":"信義街","SECT":" ","MAREA":" ","LANE":" ","ALLEY":" ","HOUSE_NO":"１６號","E_COORD97":167609.72,"N_COORD97":2544472.2599999998,"ADDRESS":"信義街１６號","OBJECTID":496261},"geometry":{"x":167609.7200000016,"y":2544472.2599999998}},{"attributes":{"ID":496289,"DIS_CODE":0,"TOWNNAME":"中西區","LI":"三合里","LIN":"7鄰","STREET":"信義街","SECT":" ","MAREA":" ","LANE":" ","ALLEY":" ","HOUSE_NO":"２０號","E_COORD97":167617.26000000001,"N_COORD97":2544486.5,"ADDRESS":"信義街２０號","OBJECTID":496262},"geometry":{"x":167617.25999999978,"y":2544486.5000000019}},{"attributes":{"ID":496290,"DIS_CODE":0,"TOWNNAME":"中西區","LI":"三合里","LIN":"7鄰","STREET":"信義街","SECT":" ","MAREA":" ","LANE":" ","ALLEY":" ","HOUSE_NO":"２２號","E_COORD97":167613.64000000001,"N_COORD97":2544481.6299999999,"ADDRESS":"信義街２２號","OBJECTID":496263},"geometry":{"x":167613.64000000153,"y":2544481.6300000008}},{"attributes":{"ID":496291,"DIS_CODE":0,"TOWNNAME":"北區","LI":"成功里","LIN":"5鄰","STREET":"北成路","SECT":" ","MAREA":" ","LANE":" ","ALLEY":" ","HOUSE_NO":"７３號","E_COORD97":168991.14999999999,"N_COORD97":2546616.7000000002,"ADDRESS":"北成路７３號","OBJECTID":496264},"geometry":{"x":168991.1500000013,"y":2546616.7000000011}},{"attributes":{"ID":496292,"DIS_CODE":0,"TOWNNAME":"中西區","LI":"三合里","LIN":"7鄰","STREET":"信義街","SECT":" ","MAREA":" ","LANE":" ","ALLEY":" ","HOUSE_NO":"２４號","E_COORD97":167610.70000000001,"N_COORD97":2544477.5600000001,"ADDRESS":"信義街２４號","OBJECTID":496265},"geometry":{"x":167610.70000000112,"y":2544477.5600000005}},{"attributes":{"ID":496293,"DIS_CODE":0,"TOWNNAME":"中西區","LI":"三合里","LIN":"7鄰","STREET":"信義街","SECT":" ","MAREA":" ","LANE":" ","ALLEY":" ","HOUSE_NO":"２８號","E_COORD97":167607.29999999999,"N_COORD97":2544472.9199999999,"ADDRESS":"信義街２８號","OBJECTID":496266},"geometry":{"x":167607.29999999981,"y":2544472.9200000018}},{"attributes":{"ID":496294,"DIS_CODE":0,"TOWNNAME":"中西區","LI":"三合里","LIN":"7鄰","STREET":"信義街","SECT":" ","MAREA":" ","LANE":" ","ALLEY":" ","HOUSE_NO":"２號","E_COORD97":167633.34,"N_COORD97":2544454.8900000001,"ADDRESS":"信義街２號","OBJECTID":496267},"geometry":{"x":167633.34000000078,"y":2544454.8900000006}},{"attributes":{"ID":496295,"DIS_CODE":0,"TOWNNAME":"中西區","LI":"三合里","LIN":"7鄰","STREET":"信義街","SECT":" ","MAREA":" ","LANE":" ","ALLEY":" ","HOUSE_NO":"３０號","E_COORD97":167603.79000000001,"N_COORD97":2544472.9300000002,"ADDRESS":"信義街３０號","OBJECTID":496268},"geometry":{"x":167603.79000000004,"y":2544472.9300000016}},{"attributes":{"ID":496296,"DIS_CODE":0,"TOWNNAME":"中西區","LI":"三合里","LIN":"7鄰","STREET":"信義街","SECT":" ","MAREA":" ","LANE":" ","ALLEY":" ","HOUSE_NO":"３２號","E_COORD97":167602.37,"N_COORD97":2544474.1099999999,"ADDRESS":"信義街３２號","OBJECTID":496269},"geometry":{"x":167602.37000000197,"y":2544474.1100000013}},{"attributes":{"ID":496297,"DIS_CODE":0,"TOWNNAME":"中西區","LI":"三合里","LIN":"7鄰","STREET":"信義街","SECT":" ","MAREA":" ","LANE":" ","ALLEY":" ","HOUSE_NO":"３４號","E_COORD97":167598.87,"N_COORD97":2544475.5099999998,"ADDRESS":"信義街３４號","OBJECTID":496270},"geometry":{"x":167598.86999999918,"y":2544475.5100000016}},{"attributes":{"ID":496298,"DIS_CODE":0,"TOWNNAME":"中西區","LI":"三合里","LIN":"7鄰","STREET":"信義街","SECT":" ","MAREA":" ","LANE":" ","ALLEY":" ","HOUSE_NO":"３６號","E_COORD97":167593.37,"N_COORD97":2544476.4500000002,"ADDRESS":"信義街３６號","OBJECTID":496271},"geometry":{"x":167593.37000000011,"y":2544476.4499999993}},{"attributes":{"ID":496299,"DIS_CODE":0,"TOWNNAME":"中西區","LI":"三合里","LIN":"7鄰","STREET":"信義街","SECT":" ","MAREA":" ","LANE":" ","ALLEY":" ","HOUSE_NO":"３８號","E_COORD97":167590.85000000001,"N_COORD97":2544480.8500000001,"ADDRESS":"信義街３８號","OBJECTID":496272},"geometry":{"x":167590.85000000056,"y":2544480.8500000015}},{"attributes":{"ID":496300,"DIS_CODE":0,"TOWNNAME":"中西區","LI":"三合里","LIN":"7鄰","STREET":"信義街","SECT":" ","MAREA":" ","LANE":" ","ALLEY":" ","HOUSE_NO":"４０號","E_COORD97":167586.76999999999,"N_COORD97":2544483.0499999998,"ADDRESS":"信義街４０號","OBJECTID":496273},"geometry":{"x":167586.76999999955,"y":2544483.0500000026}},{"attributes":{"ID":496301,"DIS_CODE":0,"TOWNNAME":"中西區","LI":"三合里","LIN":"7鄰","STREET":"信義街","SECT":" ","MAREA":" ","LANE":" ","ALLEY":" ","HOUSE_NO":"４２之１號","E_COORD97":167580.64000000001,"N_COORD97":2544487.8999999999,"ADDRESS":"信義街４２之１號","OBJECTID":496274},"geometry":{"x":167580.63999999966,"y":2544487.9000000022}},{"attributes":{"ID":496302,"DIS_CODE":0,"TOWNNAME":"中西區","LI":"三合里","LIN":"7鄰","STREET":"信義街","SECT":" ","MAREA":" ","LANE":" ","ALLEY":" ","HOUSE_NO":"４２號","E_COORD97":167583.78,"N_COORD97":2544485.3999999999,"ADDRESS":"信義街４２號","OBJECTID":496275},"geometry":{"x":167583.78000000026,"y":2544485.4000000004}},{"attributes":{"ID":496303,"DIS_CODE":0,"TOWNNAME":"中西區","LI":"三合里","LIN":"7鄰","STREET":"信義街","SECT":" ","MAREA":" ","LANE":" ","ALLEY":" ","HOUSE_NO":"４號","E_COORD97":167628.98000000001,"N_COORD97":2544456.8599999999,"ADDRESS":"信義街４號","OBJECTID":496276},"geometry":{"x":167628.97999999952,"y":2544456.8599999994}},{"attributes":{"ID":496304,"DIS_CODE":0,"TOWNNAME":"中西區","LI":"三合里","LIN":"7鄰","STREET":"信義街","SECT":" ","MAREA":" ","LANE":" ","ALLEY":" ","HOUSE_NO":"６號","E_COORD97":167625.89999999999,"N_COORD97":2544459.54,"ADDRESS":"信義街６號","OBJECTID":496277},"geometry":{"x":167625.90000000037,"y":2544459.5399999991}},{"attributes":{"ID":496305,"DIS_CODE":0,"TOWNNAME":"中西區","LI":"三合里","LIN":"7鄰","STREET":"信義街","SECT":" ","MAREA":" ","LANE":" ","ALLEY":" ","HOUSE_NO":"８號","E_COORD97":167622.76000000001,"N_COORD97":2544463,"ADDRESS":"信義街８號","OBJECTID":496278},"geometry":{"x":167622.75999999978,"y":2544463.0000000019}},{"attributes":{"ID":496306,"DIS_CODE":0,"TOWNNAME":"中西區","LI":"三合里","LIN":"7鄰","STREET":"康樂街","SECT":" ","MAREA":" ","LANE":" ","ALLEY":" ","HOUSE_NO":"３６３號","E_COORD97":167648.28,"N_COORD97":2544444.6600000001,"ADDRESS":"康樂街３６３號","OBJECTID":496279},"geometry":{"x":167648.28000000026,"y":2544444.660000002}},{"attributes":{"ID":496307,"DIS_CODE":0,"TOWNNAME":"中西區","LI":"三合里","LIN":"7鄰","STREET":"康樂街","SECT":" ","MAREA":" ","LANE":" ","ALLEY":" ","HOUSE_NO":"３６５號","E_COORD97":167647.85999999999,"N_COORD97":2544451.8399999999,"ADDRESS":"康樂街３６５號","OBJECTID":496280},"geometry":{"x":167647.86000000034,"y":2544451.8399999999}},{"attributes":{"ID":496308,"DIS_CODE":0,"TOWNNAME":"中西區","LI":"三合里","LIN":"7鄰","STREET":"康樂街","SECT":" ","MAREA":" ","LANE":" ","ALLEY":" ","HOUSE_NO":"３６７號","E_COORD97":167648.14000000001,"N_COORD97":2544455.9199999999,"ADDRESS":"康樂街３６７號","OBJECTID":496281},"geometry":{"x":167648.1400000006,"y":2544455.9200000018}},{"attributes":{"ID":496309,"DIS_CODE":0,"TOWNNAME":"中西區","LI":"三合里","LIN":"7鄰","STREET":"康樂街","SECT":" ","MAREA":" ","LANE":" ","ALLEY":" ","HOUSE_NO":"３６９號","E_COORD97":167651.94,"N_COORD97":2544459.7200000002,"ADDRESS":"康樂街３６９號","OBJECTID":496282},"geometry":{"x":167651.94000000134,"y":2544459.7200000007}},{"attributes":{"ID":496310,"DIS_CODE":0,"TOWNNAME":"中西區","LI":"三合里","LIN":"7鄰","STREET":"康樂街","SECT":" ","MAREA":" ","LANE":" ","ALLEY":" ","HOUSE_NO":"３７１號","E_COORD97":167652.51000000001,"N_COORD97":2544464.9300000002,"ADDRESS":"康樂街３７１號","OBJECTID":496283},"geometry":{"x":167652.51000000071,"y":2544464.9299999978}},{"attributes":{"ID":496311,"DIS_CODE":0,"TOWNNAME":"中西區","LI":"三合里","LIN":"7鄰","STREET":"康樂街","SECT":" ","MAREA":" ","LANE":" ","ALLEY":" ","HOUSE_NO":"３７３號","E_COORD97":167655.47,"N_COORD97":2544469.4399999999,"ADDRESS":"康樂街３７３號","OBJECTID":496284},"geometry":{"x":167655.4700000016,"y":2544469.4400000013}},{"attributes":{"ID":496312,"DIS_CODE":0,"TOWNNAME":"中西區","LI":"三合里","LIN":"7鄰","STREET":"康樂街","SECT":" ","MAREA":" ","LANE":" ","ALLEY":" ","HOUSE_NO":"３７５號","E_COORD97":167657.85999999999,"N_COORD97":2544479.1499999999,"ADDRESS":"康樂街３７５號","OBJECTID":496285},"geometry":{"x":167657.86000000034,"y":2544479.1500000022}},{"attributes":{"ID":496313,"DIS_CODE":0,"TOWNNAME":"中西區","LI":"三合里","LIN":"7鄰","STREET":"忠孝街","SECT":" ","MAREA":" ","LANE":" ","ALLEY":" ","HOUSE_NO":"８７號","E_COORD97":167710.34,"N_COORD97":2544538.8599999999,"ADDRESS":"忠孝街８７號","OBJECTID":496286},"geometry":{"x":167710.33999999985,"y":2544538.8599999994}},{"attributes":{"ID":496314,"DIS_CODE":0,"TOWNNAME":"中西區","LI":"三合里","LIN":"7鄰","STREET":"忠孝街","SECT":" ","MAREA":" ","LANE":" ","ALLEY":" ","HOUSE_NO":"８９號","E_COORD97":167714.87,"N_COORD97":2544547.6800000002,"ADDRESS":"忠孝街８９號","OBJECTID":496287},"geometry":{"x":167714.87000000104,"y":2544547.6799999997}},{"attributes":{"ID":496315,"DIS_CODE":0,"TOWNNAME":"中西區","LI":"三合里","LIN":"7鄰","STREET":"忠孝街","SECT":" ","MAREA":" ","LANE":" ","ALLEY":" ","HOUSE_NO":"９１號","E_COORD97":167716.64999999999,"N_COORD97":2544551.6800000002,"ADDRESS":"忠孝街９１號","OBJECTID":496288},"geometry":{"x":167716.6500000013,"y":2544551.6800000034}},{"attributes":{"ID":496316,"DIS_CODE":0,"TOWNNAME":"中西區","LI":"三合里","LIN":"7鄰","STREET":"康樂街","SECT":" ","MAREA":" ","LANE":" ","ALLEY":" ","HOUSE_NO":"３５６號","E_COORD97":167699.29000000001,"N_COORD97":2544518.6299999999,"ADDRESS":"康樂街３５６號","OBJECTID":496289},"geometry":{"x":167699.29000000004,"y":2544518.6300000008}},{"attributes":{"ID":496317,"DIS_CODE":0,"TOWNNAME":"中西區","LI":"三合里","LIN":"7鄰","STREET":"康樂街","SECT":" ","MAREA":" ","LANE":" ","ALLEY":" ","HOUSE_NO":"３８９號","E_COORD97":167678.07999999999,"N_COORD97":2544523.1600000001,"ADDRESS":"康樂街３８９號","OBJECTID":496290},"geometry":{"x":167678.08000000007,"y":2544523.160000002}},{"attributes":{"ID":496318,"DIS_CODE":0,"TOWNNAME":"中西區","LI":"三合里","LIN":"7鄰","STREET":"康樂街","SECT":" ","MAREA":" ","LANE":" ","ALLEY":" ","HOUSE_NO":"３９３號","E_COORD97":167679.67000000001,"N_COORD97":2544532.7200000002,"ADDRESS":"康樂街３９３號","OBJECTID":496291},"geometry":{"x":167679.66999999899,"y":2544532.7200000025}},{"attributes":{"ID":496319,"DIS_CODE":0,"TOWNNAME":"中西區","LI":"三合里","LIN":"7鄰","STREET":"康樂街","SECT":" ","MAREA":" ","LANE":" ","ALLEY":" ","HOUSE_NO":"３９７號","E_COORD97":167684.70999999999,"N_COORD97":2544540.29,"ADDRESS":"康樂街３９７號","OBJECTID":496292},"geometry":{"x":167684.71000000183,"y":2544540.2900000028}},{"attributes":{"ID":496320,"DIS_CODE":0,"TOWNNAME":"中西區","LI":"三合里","LIN":"7鄰","STREET":"康樂街","SECT":" ","MAREA":" ","LANE":" ","ALLEY":" ","HOUSE_NO":"３９９號","E_COORD97":167688.39000000001,"N_COORD97":2544544.5800000001,"ADDRESS":"康樂街３９９號","OBJECTID":496293},"geometry":{"x":167688.3900000006,"y":2544544.5800000001}},{"attributes":{"ID":496321,"DIS_CODE":0,"TOWNNAME":"中西區","LI":"三合里","LIN":"7鄰","STREET":"康樂街","SECT":" ","MAREA":" ","LANE":" ","ALLEY":" ","HOUSE_NO":"４０３號","E_COORD97":167690.47,"N_COORD97":2544553.46,"ADDRESS":"康樂街４０３號","OBJECTID":496294},"geometry":{"x":167690.46999999974,"y":2544553.4600000009}},{"attributes":{"ID":496322,"DIS_CODE":0,"TOWNNAME":"中西區","LI":"三合里","LIN":"7鄰","STREET":"康樂街","SECT":" ","MAREA":" ","LANE":" ","ALLEY":" ","HOUSE_NO":"４０５號","E_COORD97":167693.04999999999,"N_COORD97":2544556.8500000001,"ADDRESS":"康樂街４０５號","OBJECTID":496295},"geometry":{"x":167693.05000000075,"y":2544556.8499999996}},{"attributes":{"ID":496323,"DIS_CODE":0,"TOWNNAME":"中西區","LI":"三合里","LIN":"7鄰","STREET":"康樂街","SECT":" ","MAREA":" ","LANE":" ","ALLEY":" ","HOUSE_NO":"４０７號","E_COORD97":167694.28,"N_COORD97":2544560.5299999998,"ADDRESS":"康樂街４０７號","OBJECTID":496296},"geometry":{"x":167694.28000000026,"y":2544560.5300000012}},{"attributes":{"ID":496324,"DIS_CODE":0,"TOWNNAME":"北區","LI":"成功里","LIN":"24鄰","STREET":"北成路","SECT":" ","MAREA":" ","LANE":" ","ALLEY":" ","HOUSE_NO":"１６６號","E_COORD97":168846.04999999999,"N_COORD97":2546724.2799999998,"ADDRESS":"北成路１６６號","OBJECTID":496297},"geometry":{"x":168846.04999999981,"y":2546724.2800000012}},{"attributes":{"ID":496325,"DIS_CODE":0,"TOWNNAME":"北區","LI":"成功里","LIN":"24鄰","STREET":"北成路","SECT":" ","MAREA":" ","LANE":" ","ALLEY":" ","HOUSE_NO":"１６８號","E_COORD97":168841.56,"N_COORD97":2546726.6899999999,"ADDRESS":"北成路１６８號","OBJECTID":496298},"geometry":{"x":168841.56000000052,"y":2546726.6899999995}},{"attributes":{"ID":496326,"DIS_CODE":0,"TOWNNAME":"北區","LI":"成功里","LIN":"24鄰","STREET":"北成路","SECT":" ","MAREA":" ","LANE":" ","ALLEY":" ","HOUSE_NO":"１７０號","E_COORD97":168837.23999999999,"N_COORD97":2546728.5899999999,"ADDRESS":"北成路１７０號","OBJECTID":496299},"geometry":{"x":168837.24000000022,"y":2546728.5899999999}},{"attributes":{"ID":496327,"DIS_CODE":0,"TOWNNAME":"北區","LI":"成功里","LIN":"24鄰","STREET":"北成路","SECT":" ","MAREA":" ","LANE":" ","ALLEY":" ","HOUSE_NO":"１７２號","E_COORD97":168832.67000000001,"N_COORD97":2546731,"ADDRESS":"北成路１７２號","OBJECTID":496300},"geometry":{"x":168832.67000000086,"y":2546731.0000000019}},{"attributes":{"ID":496328,"DIS_CODE":0,"TOWNNAME":"北區","LI":"成功里","LIN":"24鄰","STREET":"北成路","SECT":" ","MAREA":" ","LANE":" ","ALLEY":" ","HOUSE_NO":"１７４號","E_COORD97":168828.79000000001,"N_COORD97":2546733.1600000001,"ADDRESS":"北成路１７４號","OBJECTID":496301},"geometry":{"x":168828.79000000097,"y":2546733.160000002}},{"attributes":{"ID":496329,"DIS_CODE":0,"TOWNNAME":"北區","LI":"成功里","LIN":"24鄰","STREET":"北成路","SECT":" ","MAREA":" ","LANE":" ","ALLEY":" ","HOUSE_NO":"１７６號","E_COORD97":168824.73000000001,"N_COORD97":2546735.9199999999,"ADDRESS":"北成路１７６號","OBJECTID":496302},"geometry":{"x":168824.73000000138,"y":2546735.9199999999}},{"attributes":{"ID":496330,"DIS_CODE":0,"TOWNNAME":"北區","LI":"成功里","LIN":"24鄰","STREET":"北成路","SECT":" ","MAREA":" ","LANE":" ","ALLEY":" ","HOUSE_NO":"１７８號","E_COORD97":168820.59,"N_COORD97":2546738.5,"ADDRESS":"北成路１７８號","OBJECTID":496303},"geometry":{"x":168820.58999999985,"y":2546738.5}},{"attributes":{"ID":496331,"DIS_CODE":0,"TOWNNAME":"北區","LI":"成功里","LIN":"24鄰","STREET":"北成路","SECT":" ","MAREA":" ","LANE":" ","ALLEY":" ","HOUSE_NO":"１８０號","E_COORD97":168816.53,"N_COORD97":2546741.3500000001,"ADDRESS":"北成路１８０號","OBJECTID":496304},"geometry":{"x":168816.53000000026,"y":2546741.3500000015}},{"attributes":{"ID":496332,"DIS_CODE":0,"TOWNNAME":"北區","LI":"成功里","LIN":"24鄰","STREET":"北成路","SECT":" ","MAREA":" ","LANE":" ","ALLEY":" ","HOUSE_NO":"１８２號","E_COORD97":168811.95999999999,"N_COORD97":2546743.3300000001,"ADDRESS":"北成路１８２號","OBJECTID":496305},"geometry":{"x":168811.96000000183,"y":2546743.3300000001}},{"attributes":{"ID":496333,"DIS_CODE":0,"TOWNNAME":"北區","LI":"成功里","LIN":"24鄰","STREET":"北成路","SECT":" ","MAREA":" ","LANE":" ","ALLEY":" ","HOUSE_NO":"１８４號","E_COORD97":168807.22,"N_COORD97":2546745.9199999999,"ADDRESS":"北成路１８４號","OBJECTID":496306},"geometry":{"x":168807.22000000067,"y":2546745.9199999999}},{"attributes":{"ID":496334,"DIS_CODE":0,"TOWNNAME":"永康區","LI":"\u25A0洲里","LIN":"17鄰","STREET":"中正南路","SECT":" ","MAREA":" ","LANE":"７４３巷","ALLEY":"２弄","HOUSE_NO":"７號","E_COORD97":171615.26999999999,"N_COORD97":2548958.6800000002,"ADDRESS":"中正南路７４３巷２弄７號","OBJECTID":496307},"geometry":{"x":171615.27000000048,"y":2548958.6799999997}},{"attributes":{"ID":496335,"DIS_CODE":0,"TOWNNAME":"安南區","LI":"\u25A0田里","LIN":"7鄰","STREET":"\u25A0田路","SECT":" ","MAREA":" ","LANE":" ","ALLEY":" ","HOUSE_NO":"５０號","E_COORD97":162537.85000000001,"N_COORD97":2548303.27,"ADDRESS":"\u25A0田路５０號","OBJECTID":496308},"geometry":{"x":162537.84999999963,"y":2548303.2699999996}},{"attributes":{"ID":496336,"DIS_CODE":0,"TOWNNAME":"安南區","LI":"\u25A0田里","LIN":"7鄰","STREET":"\u25A0田路","SECT":" ","MAREA":" ","LANE":" ","ALLEY":" ","HOUSE_NO":"５２號","E_COORD97":162529.44,"N_COORD97":2548296.4399999999,"ADDRESS":"\u25A0田路５２號","OBJECTID":496309},"geometry":{"x":162529.44000000041,"y":2548296.4400000013}},{"attributes":{"ID":496337,"DIS_CODE":0,"TOWNNAME":"安南區","LI":"\u25A0田里","LIN":"7鄰","STREET":"\u25A0田路","SECT":" ","MAREA":" ","LANE":" ","ALLEY":" ","HOUSE_NO":"５６號","E_COORD97":162518.01000000001,"N_COORD97":2548290.7200000002,"ADDRESS":"\u25A0田路５６號","OBJECTID":496310},"geometry":{"x":162518.01000000071,"y":2548290.7200000007}},{"attributes":{"ID":496338,"DIS_CODE":0,"TOWNNAME":"安南區","LI":"\u25A0田里","LIN":"7鄰","STREET":"\u25A0田路","SECT":" ","MAREA":" ","LANE":" ","ALLEY":" ","HOUSE_NO":"５８號","E_COORD97":162506.73999999999,"N_COORD97":2548285.6400000001,"ADDRESS":"\u25A0田路５８號","OBJECTID":496311},"geometry":{"x":162506.74000000115,"y":2548285.6400000043}},{"attributes":{"ID":496339,"DIS_CODE":0,"TOWNNAME":"安南區","LI":"\u25A0田里","LIN":"7鄰","STREET":"\u25A0田路","SECT":" ","MAREA":" ","LANE":" ","ALLEY":" ","HOUSE_NO":"６０號","E_COORD97":162498.48000000001,"N_COORD97":2548278.5,"ADDRESS":"\u25A0田路６０號","OBJECTID":496312},"geometry":{"x":162498.48000000138,"y":2548278.5}},{"attributes":{"ID":496340,"DIS_CODE":0,"TOWNNAME":"安南區","LI":"\u25A0田里","LIN":"7鄰","STREET":"\u25A0田路","SECT":" ","MAREA":" ","LANE":" ","ALLEY":" ","HOUSE_NO":"６２號","E_COORD97":162488.48000000001,"N_COORD97":2548272.1499999999,"ADDRESS":"\u25A0田路６２號","OBJECTID":496313},"geometry":{"x":162488.48000000045,"y":2548272.1500000022}},{"attributes":{"ID":496341,"DIS_CODE":0,"TOWNNAME":"東區","LI":"裕聖里","LIN":"7鄰","STREET":"裕華一街","SECT":" ","MAREA":" ","LANE":" ","ALLEY":" ","HOUSE_NO":"４７號","E_COORD97":172797.56,"N_COORD97":2542215.0099999998,"ADDRESS":"裕華一街４７號","OBJECTID":496314},"geometry":{"x":172797.55999999959,"y":2542215.0100000016}},{"attributes":{"ID":496342,"DIS_CODE":0,"TOWNNAME":"東區","LI":"泉南里","LIN":"7鄰","STREET":"樹林街","SECT":"一段","MAREA":" ","LANE":" ","ALLEY":" ","HOUSE_NO":"４２號","E_COORD97":169608.22,"N_COORD97":2542941.9900000002,"ADDRESS":"樹林街一段４２號","OBJECTID":496315},"geometry":{"x":169608.21999999974,"y":2542941.9900000002}},{"attributes":{"ID":496343,"DIS_CODE":0,"TOWNNAME":"安南區","LI":"城中里","LIN":"7鄰","STREET":"安中路","SECT":"六段","MAREA":" ","LANE":" ","ALLEY":" ","HOUSE_NO":"６８５號","E_COORD97":160683.69,"N_COORD97":2551702.6200000001,"ADDRESS":"安中路六段６８５號","OBJECTID":496316},"geometry":{"x":160683.69000000041,"y":2551702.620000001}},{"attributes":{"ID":496344,"DIS_CODE":0,"TOWNNAME":"安南區","LI":"新順里","LIN":"7鄰","STREET":"總安街","SECT":"一段","MAREA":" ","LANE":" ","ALLEY":" ","HOUSE_NO":"３２１之８號","E_COORD97":169254.16,"N_COORD97":2550330.25,"ADDRESS":"總安街一段３２１之８號","OBJECTID":496317},"geometry":{"x":169254.16000000015,"y":2550330.2500000019}},{"attributes":{"ID":496345,"DIS_CODE":0,"TOWNNAME":"東區","LI":"裕聖里","LIN":"7鄰","STREET":"裕華一街","SECT":" ","MAREA":" ","LANE":" ","ALLEY":" ","HOUSE_NO":"３１號","E_COORD97":172758.98999999999,"N_COORD97":2542199.46,"ADDRESS":"裕華一街３１號","OBJECTID":496318},"geometry":{"x":172758.99000000115,"y":2542199.4600000028}},{"attributes":{"ID":496346,"DIS_CODE":0,"TOWNNAME":"東區","LI":"裕聖里","LIN":"7鄰","STREET":"裕華一街","SECT":" ","MAREA":" ","LANE":" ","ALLEY":" ","HOUSE_NO":"３３號","E_COORD97":172763.82999999999,"N_COORD97":2542202.0499999998,"ADDRESS":"裕華一街３３號","OBJECTID":496319},"geometry":{"x":172763.83000000007,"y":2542202.0500000026}},{"attributes":{"ID":496347,"DIS_CODE":0,"TOWNNAME":"東區","LI":"裕聖里","LIN":"7鄰","STREET":"裕華一街","SECT":" ","MAREA":" ","LANE":" ","ALLEY":" ","HOUSE_NO":"３５號","E_COORD97":172769.01999999999,"N_COORD97":2542199.46,"ADDRESS":"裕華一街３５號","OBJECTID":496320},"geometry":{"x":172769.01999999955,"y":2542199.4600000028}},{"attributes":{"ID":496348,"DIS_CODE":0,"TOWNNAME":"東區","LI":"裕聖里","LIN":"7鄰","STREET":"裕華一街","SECT":" ","MAREA":" ","LANE":" ","ALLEY":" ","HOUSE_NO":"３７號","E_COORD97":172769.88,"N_COORD97":2542215.5299999998,"ADDRESS":"裕華一街３７號","OBJECTID":496321},"geometry":{"x":172769.87999999989,"y":2542215.5299999993}},{"attributes":{"ID":496349,"DIS_CODE":0,"TOWNNAME":"東區","LI":"裕聖里","LIN":"7鄰","STREET":"裕華一街","SECT":" ","MAREA":" ","LANE":" ","ALLEY":" ","HOUSE_NO":"３９號","E_COORD97":172776.28,"N_COORD97":2542213.7999999998,"ADDRESS":"裕華一街３９號","OBJECTID":496322},"geometry":{"x":172776.28000000026,"y":2542213.8000000026}},{"attributes":{"ID":496350,"DIS_CODE":0,"TOWNNAME":"東區","LI":"裕聖里","LIN":"7鄰","STREET":"裕華一街","SECT":" ","MAREA":" ","LANE":" ","ALLEY":" ","HOUSE_NO":"４１號","E_COORD97":172780.60999999999,"N_COORD97":2542215.3599999999,"ADDRESS":"裕華一街４１號","OBJECTID":496323},"geometry":{"x":172780.61000000034,"y":2542215.3600000013}},{"attributes":{"ID":496351,"DIS_CODE":0,"TOWNNAME":"東區","LI":"裕聖里","LIN":"7鄰","STREET":"裕華一街","SECT":" ","MAREA":" ","LANE":" ","ALLEY":" ","HOUSE_NO":"４３號","E_COORD97":172787.53,"N_COORD97":2542214.1499999999,"ADDRESS":"裕華一街４３號","OBJECTID":496324},"geometry":{"x":172787.53000000119,"y":2542214.1500000022}},{"attributes":{"ID":496352,"DIS_CODE":0,"TOWNNAME":"東區","LI":"裕聖里","LIN":"7鄰","STREET":"裕華一街","SECT":" ","MAREA":" ","LANE":" ","ALLEY":" ","HOUSE_NO":"４５號","E_COORD97":172792.72,"N_COORD97":2542215.8799999999,"ADDRESS":"裕華一街４５號","OBJECTID":496325},"geometry":{"x":172792.72000000067,"y":2542215.879999999}},{"attributes":{"ID":496353,"DIS_CODE":0,"TOWNNAME":"東區","LI":"裕聖里","LIN":"7鄰","STREET":"裕華一街","SECT":" ","MAREA":" ","LANE":" ","ALLEY":" ","HOUSE_NO":"４９號","E_COORD97":172799.64000000001,"N_COORD97":2542201.1899999999,"ADDRESS":"裕華一街４９號","OBJECTID":496326},"geometry":{"x":172799.6400000006,"y":2542201.1899999995}},{"attributes":{"ID":496354,"DIS_CODE":0,"TOWNNAME":"東區","LI":"裕聖里","LIN":"7鄰","STREET":"裕華一街","SECT":" ","MAREA":" ","LANE":" ","ALLEY":" ","HOUSE_NO":"５１號","E_COORD97":172792.37,"N_COORD97":2542202.3999999999,"ADDRESS":"裕華一街５１號","OBJECTID":496327},"geometry":{"x":172792.37000000011,"y":2542202.4000000022}},{"attributes":{"ID":496355,"DIS_CODE":0,"TOWNNAME":"東區","LI":"裕聖里","LIN":"7鄰","STREET":"裕華一街","SECT":" ","MAREA":" ","LANE":" ","ALLEY":" ","HOUSE_NO":"５３號","E_COORD97":172787.53,"N_COORD97":2542199.46,"ADDRESS":"裕華一街５３號","OBJECTID":496328},"geometry":{"x":172787.53000000119,"y":2542199.4600000028}},{"attributes":{"ID":496356,"DIS_CODE":0,"TOWNNAME":"東區","LI":"裕聖里","LIN":"7鄰","STREET":"裕華一街","SECT":" ","MAREA":" ","LANE":" ","ALLEY":" ","HOUSE_NO":"５５號","E_COORD97":172780.95000000001,"N_COORD97":2542202.0499999998,"ADDRESS":"裕華一街５５號","OBJECTID":496329},"geometry":{"x":172780.95000000112,"y":2542202.0500000026}},{"attributes":{"ID":496357,"DIS_CODE":0,"TOWNNAME":"東區","LI":"泉南里","LIN":"7鄰","STREET":"樹林街","SECT":"一段","MAREA":" ","LANE":" ","ALLEY":" ","HOUSE_NO":"２６號","E_COORD97":169651.39999999999,"N_COORD97":2542929.3700000001,"ADDRESS":"樹林街一段２６號","OBJECTID":496330},"geometry":{"x":169651.40000000037,"y":2542929.3700000029}},{"attributes":{"ID":496358,"DIS_CODE":0,"TOWNNAME":"東區","LI":"泉南里","LIN":"7鄰","STREET":"樹林街","SECT":"一段","MAREA":" ","LANE":" ","ALLEY":" ","HOUSE_NO":"２８號","E_COORD97":169646.29999999999,"N_COORD97":2542929.8500000001,"ADDRESS":"樹林街一段２８號","OBJECTID":496331},"geometry":{"x":169646.29999999981,"y":2542929.8500000034}},{"attributes":{"ID":496359,"DIS_CODE":0,"TOWNNAME":"東區","LI":"泉南里","LIN":"7鄰","STREET":"樹林街","SECT":"一段","MAREA":" ","LANE":" ","ALLEY":" ","HOUSE_NO":"３０號","E_COORD97":169642.64000000001,"N_COORD97":2542931.4399999999,"ADDRESS":"樹林街一段３０號","OBJECTID":496332},"geometry":{"x":169642.63999999873,"y":2542931.4399999995}},{"attributes":{"ID":496360,"DIS_CODE":0,"TOWNNAME":"東區","LI":"泉南里","LIN":"7鄰","STREET":"樹林街","SECT":"一段","MAREA":" ","LANE":" ","ALLEY":" ","HOUSE_NO":"３２號","E_COORD97":169637.54999999999,"N_COORD97":2542932.5499999998,"ADDRESS":"樹林街一段３２號","OBJECTID":496333},"geometry":{"x":169637.55000000075,"y":2542932.5500000007}},{"attributes":{"ID":496361,"DIS_CODE":0,"TOWNNAME":"東區","LI":"泉南里","LIN":"7鄰","STREET":"光華街","SECT":" ","MAREA":" ","LANE":" ","ALLEY":" ","HOUSE_NO":"１９７號","E_COORD97":169650.48000000001,"N_COORD97":2542997.9100000001,"ADDRESS":"光華街１９７號","OBJECTID":496334},"geometry":{"x":169650.48000000138,"y":2542997.9100000039}},{"attributes":{"ID":496362,"DIS_CODE":0,"TOWNNAME":"東區","LI":"泉南里","LIN":"7鄰","STREET":"樹林街","SECT":"一段","MAREA":" ","LANE":" ","ALLEY":" ","HOUSE_NO":"４２之１號","E_COORD97":169602.92000000001,"N_COORD97":2542943.5099999998,"ADDRESS":"樹林街一段４２之１號","OBJECTID":496335},"geometry":{"x":169602.92000000086,"y":2542943.5100000016}},{"attributes":{"ID":496363,"DIS_CODE":0,"TOWNNAME":"東區","LI":"泉南里","LIN":"7鄰","STREET":"樹林街","SECT":"一段","MAREA":" ","LANE":" ","ALLEY":" ","HOUSE_NO":"４６號","E_COORD97":169597.62,"N_COORD97":2542945.02,"ADDRESS":"樹林街一段４６號","OBJECTID":496336},"geometry":{"x":169597.62000000197,"y":2542945.0199999996}},{"attributes":{"ID":496364,"DIS_CODE":0,"TOWNNAME":"東區","LI":"泉南里","LIN":"7鄰","STREET":"樹林街","SECT":"一段","MAREA":" ","LANE":" ","ALLEY":" ","HOUSE_NO":"４８號","E_COORD97":169593.53,"N_COORD97":2542947.29,"ADDRESS":"樹林街一段４８號","OBJECTID":496337},"geometry":{"x":169593.53000000119,"y":2542947.290000001}},{"attributes":{"ID":496365,"DIS_CODE":0,"TOWNNAME":"東區","LI":"崇成里","LIN":"7鄰","STREET":"崇德十二街","SECT":" ","MAREA":" ","LANE":" ","ALLEY":" ","HOUSE_NO":"５３號","E_COORD97":170920.78,"N_COORD97":2541364.6899999999,"ADDRESS":"崇德十二街５３號","OBJECTID":496338},"geometry":{"x":170920.78000000119,"y":2541364.6900000013}},{"attributes":{"ID":496366,"DIS_CODE":0,"TOWNNAME":"東區","LI":"崇成里","LIN":"7鄰","STREET":"崇德十二街","SECT":" ","MAREA":" ","LANE":" ","ALLEY":" ","HOUSE_NO":"５５號","E_COORD97":170925.32999999999,"N_COORD97":2541364.6899999999,"ADDRESS":"崇德十二街５５號","OBJECTID":496339},"geometry":{"x":170925.33000000101,"y":2541364.6900000013}},{"attributes":{"ID":496367,"DIS_CODE":0,"TOWNNAME":"東區","LI":"崇成里","LIN":"7鄰","STREET":"崇德十二街","SECT":" ","MAREA":" ","LANE":" ","ALLEY":" ","HOUSE_NO":"５７號","E_COORD97":170929.44,"N_COORD97":2541364.6899999999,"ADDRESS":"崇德十二街５７號","OBJECTID":496340},"geometry":{"x":170929.44000000041,"y":2541364.6900000013}},{"attributes":{"ID":496368,"DIS_CODE":0,"TOWNNAME":"東區","LI":"崇成里","LIN":"7鄰","STREET":"崇德十二街","SECT":" ","MAREA":" ","LANE":" ","ALLEY":" ","HOUSE_NO":"５７號之１","E_COORD97":170934.09,"N_COORD97":2541364.5800000001,"ADDRESS":"崇德十二街５７號之１","OBJECTID":496341},"geometry":{"x":170934.09000000078,"y":2541364.5800000001}},{"attributes":{"ID":496369,"DIS_CODE":0,"TOWNNAME":"東區","LI":"崇成里","LIN":"7鄰","STREET":"崇德十二街","SECT":" ","MAREA":" ","LANE":" ","ALLEY":" ","HOUSE_NO":"５７號之２","E_COORD97":170938.31,"N_COORD97":2541364.6899999999,"ADDRESS":"崇德十二街５７號之２","OBJECTID":496342},"geometry":{"x":170938.31000000145,"y":2541364.6900000013}},{"attributes":{"ID":496370,"DIS_CODE":0,"TOWNNAME":"東區","LI":"崇成里","LIN":"7鄰","STREET":"崇德十二街","SECT":" ","MAREA":" ","LANE":" ","ALLEY":" ","HOUSE_NO":"５９號","E_COORD97":170943.07999999999,"N_COORD97":2541364.6899999999,"ADDRESS":"崇德十二街５９號","OBJECTID":496343},"geometry":{"x":170943.08000000007,"y":2541364.6900000013}},{"attributes":{"ID":496371,"DIS_CODE":0,"TOWNNAME":"東區","LI":"崇成里","LIN":"7鄰","STREET":"崇德十二街","SECT":" ","MAREA":" ","LANE":" ","ALLEY":" ","HOUSE_NO":"６１號","E_COORD97":170948.81,"N_COORD97":2541364.79,"ADDRESS":"崇德十二街６１號","OBJECTID":496344},"geometry":{"x":170948.81000000052,"y":2541364.790000001}},{"attributes":{"ID":496372,"DIS_CODE":0,"TOWNNAME":"東區","LI":"崇成里","LIN":"7鄰","STREET":"崇德十二街","SECT":" ","MAREA":" ","LANE":" ","ALLEY":" ","HOUSE_NO":"６５號","E_COORD97":170961.59,"N_COORD97":2541366.52,"ADDRESS":"崇德十二街６５號","OBJECTID":496345},"geometry":{"x":170961.58999999985,"y":2541366.5200000014}},{"attributes":{"ID":496373,"DIS_CODE":0,"TOWNNAME":"東區","LI":"崇成里","LIN":"7鄰","STREET":"崇德十二街","SECT":" ","MAREA":" ","LANE":" ","ALLEY":" ","HOUSE_NO":"６９號","E_COORD97":170971.75,"N_COORD97":2541368.3599999999,"ADDRESS":"崇德十二街６９號","OBJECTID":496346},"geometry":{"x":170971.75000000093,"y":2541368.3599999994}},{"attributes":{"ID":496374,"DIS_CODE":0,"TOWNNAME":"東區","LI":"崇成里","LIN":"7鄰","STREET":"崇德十二街","SECT":" ","MAREA":" ","LANE":" ","ALLEY":" ","HOUSE_NO":"７５號","E_COORD97":170976.51000000001,"N_COORD97":2541371.7200000002,"ADDRESS":"崇德十二街７５號","OBJECTID":496347},"geometry":{"x":170976.51000000071,"y":2541371.7200000007}},{"attributes":{"ID":496375,"DIS_CODE":0,"TOWNNAME":"官田區","LI":"隆田里","LIN":"7鄰","STREET":"中山路","SECT":"一段","MAREA":" ","LANE":" ","ALLEY":" ","HOUSE_NO":"１３２號之１","E_COORD97":179942.07999999999,"N_COORD97":2565862.77,"ADDRESS":"中山路一段１３２號之１","OBJECTID":496348},"geometry":{"x":179942.08000000101,"y":2565862.7700000033}},{"attributes":{"ID":496376,"DIS_CODE":0,"TOWNNAME":"官田區","LI":"隆田里","LIN":"7鄰","STREET":"中山路","SECT":"一段","MAREA":" ","LANE":" ","ALLEY":" ","HOUSE_NO":"１３２號","E_COORD97":179912.73999999999,"N_COORD97":2565835.54,"ADDRESS":"中山路一段１３２號","OBJECTID":496349},"geometry":{"x":179912.74000000115,"y":2565835.5399999991}},{"attributes":{"ID":496377,"DIS_CODE":0,"TOWNNAME":"官田區","LI":"隆田里","LIN":"7鄰","STREET":"中山路","SECT":"一段","MAREA":" ","LANE":" ","ALLEY":" ","HOUSE_NO":"１３４號","E_COORD97":179896.92999999999,"N_COORD97":2565828.0499999998,"ADDRESS":"中山路一段１３４號","OBJECTID":496350},"geometry":{"x":179896.93000000063,"y":2565828.0499999989}},{"attributes":{"ID":496378,"DIS_CODE":0,"TOWNNAME":"官田區","LI":"隆田里","LIN":"7鄰","STREET":"中山路","SECT":"一段","MAREA":" ","LANE":" ","ALLEY":" ","HOUSE_NO":"１３８號","E_COORD97":179875.22,"N_COORD97":2565813.27,"ADDRESS":"中山路一段１３８號","OBJECTID":496351},"geometry":{"x":179875.22000000067,"y":2565813.2700000014}},{"attributes":{"ID":496379,"DIS_CODE":0,"TOWNNAME":"官田區","LI":"隆田里","LIN":"7鄰","STREET":"中山路","SECT":"一段","MAREA":" ","LANE":" ","ALLEY":" ","HOUSE_NO":"１４２號","E_COORD97":179871.13,"N_COORD97":2565813.6099999999,"ADDRESS":"中山路一段１４２號","OBJECTID":496352},"geometry":{"x":179871.12999999989,"y":2565813.6100000013}},{"attributes":{"ID":496380,"DIS_CODE":0,"TOWNNAME":"官田區","LI":"隆田里","LIN":"7鄰","STREET":"中山路","SECT":"一段","MAREA":" ","LANE":" ","ALLEY":" ","HOUSE_NO":"１４４號","E_COORD97":179867.39000000001,"N_COORD97":2565813.4199999999,"ADDRESS":"中山路一段１４４號","OBJECTID":496353},"geometry":{"x":179867.38999999966,"y":2565813.4199999999}},{"attributes":{"ID":496381,"DIS_CODE":0,"TOWNNAME":"官田區","LI":"隆田里","LIN":"7鄰","STREET":"中山路","SECT":"一段","MAREA":" ","LANE":" ","ALLEY":" ","HOUSE_NO":"１４８號","E_COORD97":179859.29999999999,"N_COORD97":2565813.3500000001,"ADDRESS":"中山路一段１４８號","OBJECTID":496354},"geometry":{"x":179859.30000000075,"y":2565813.3499999996}},{"attributes":{"ID":496382,"DIS_CODE":0,"TOWNNAME":"官田區","LI":"隆田里","LIN":"7鄰","STREET":"中山路","SECT":"一段","MAREA":" ","LANE":" ","ALLEY":" ","HOUSE_NO":"１５０號","E_COORD97":179855.62,"N_COORD97":2565813.3100000001,"ADDRESS":"中山路一段１５０號","OBJECTID":496355},"geometry":{"x":179855.62000000104,"y":2565813.3100000024}},{"attributes":{"ID":496383,"DIS_CODE":0,"TOWNNAME":"中西區","LI":"普濟里","LIN":"7鄰","STREET":"海安路","SECT":"二段","MAREA":" ","LANE":" ","ALLEY":" ","HOUSE_NO":"３０６號","E_COORD97":167812.07000000001,"N_COORD97":2544391.25,"ADDRESS":"海安路二段３０６號","OBJECTID":496356},"geometry":{"x":167812.07000000123,"y":2544391.25}},{"attributes":{"ID":496384,"DIS_CODE":0,"TOWNNAME":"中西區","LI":"民主里","LIN":"7鄰","STREET":"金華路","SECT":"三段","MAREA":" ","LANE":" ","ALLEY":" ","HOUSE_NO":"１２１號","E_COORD97":167227.75,"N_COORD97":2543553,"ADDRESS":"金華路三段１２１號","OBJECTID":496357},"geometry":{"x":167227.75,"y":2543553.0000000037}},{"attributes":{"ID":496385,"DIS_CODE":0,"TOWNNAME":"中西區","LI":"民主里","LIN":"7鄰","STREET":"府前路","SECT":"二段","MAREA":" ","LANE":" ","ALLEY":" ","HOUSE_NO":"２２９號","E_COORD97":167113.22,"N_COORD97":2543586.2200000002,"ADDRESS":"府前路二段２２９號","OBJECTID":496358},"geometry":{"x":167113.22000000067,"y":2543586.2200000044}},{"attributes":{"ID":496386,"DIS_CODE":0,"TOWNNAME":"安南區","LI":"學東里","LIN":"7鄰","STREET":"公學路","SECT":"六段","MAREA":" ","LANE":" ","ALLEY":" ","HOUSE_NO":"３５３號","E_COORD97":162759.34,"N_COORD97":2553180.4700000002,"ADDRESS":"公學路六段３５３號","OBJECTID":496359},"geometry":{"x":162759.34000000078,"y":2553180.4700000025}},{"attributes":{"ID":496387,"DIS_CODE":0,"TOWNNAME":"安南區","LI":"學東里","LIN":"7鄰","STREET":"公學路","SECT":"六段","MAREA":" ","LANE":" ","ALLEY":" ","HOUSE_NO":"３５５號","E_COORD97":162753.94,"N_COORD97":2553181.1099999999,"ADDRESS":"公學路六段３５５號","OBJECTID":496360},"geometry":{"x":162753.94000000227,"y":2553181.1100000013}},{"attributes":{"ID":496388,"DIS_CODE":0,"TOWNNAME":"安南區","LI":"原佃里","LIN":"7鄰","STREET":"安吉路","SECT":"一段","MAREA":" ","LANE":" ","ALLEY":" ","HOUSE_NO":"５３８之３０號","E_COORD97":167062.67000000001,"N_COORD97":2550321.6600000001,"ADDRESS":"安吉路一段５３８之３０號","OBJECTID":496361},"geometry":{"x":167062.67000000179,"y":2550321.6600000001}},{"attributes":{"ID":496389,"DIS_CODE":0,"TOWNNAME":"安南區","LI":"原佃里","LIN":"7鄰","STREET":"安吉路","SECT":"一段","MAREA":" ","LANE":" ","ALLEY":" ","HOUSE_NO":"４９２號","E_COORD97":166935.67000000001,"N_COORD97":2550030.7799999998,"ADDRESS":"安吉路一段４９２號","OBJECTID":496362},"geometry":{"x":166935.67000000179,"y":2550030.7800000012}},{"attributes":{"ID":496390,"DIS_CODE":0,"TOWNNAME":"安南區","LI":"原佃里","LIN":"7鄰","STREET":"安吉路","SECT":"一段","MAREA":" ","LANE":" ","ALLEY":" ","HOUSE_NO":"４９６號","E_COORD97":166935.67000000001,"N_COORD97":2550042.3700000001,"ADDRESS":"安吉路一段４９６號","OBJECTID":496363},"geometry":{"x":166935.67000000179,"y":2550042.3700000029}},{"attributes":{"ID":496391,"DIS_CODE":0,"TOWNNAME":"安南區","LI":"城中里","LIN":"7鄰","STREET":"安中路","SECT":"六段","MAREA":" ","LANE":" ","ALLEY":" ","HOUSE_NO":"６１５號","E_COORD97":160769.01999999999,"N_COORD97":2551541.04,"ADDRESS":"安中路六段６１５號","OBJECTID":496364},"geometry":{"x":160769.01999999862,"y":2551541.040000001}},{"attributes":{"ID":496392,"DIS_CODE":0,"TOWNNAME":"安南區","LI":"城西里","LIN":"7鄰","STREET":"安清路","SECT":"三段","MAREA":" ","LANE":" ","ALLEY":" ","HOUSE_NO":"５００號","E_COORD97":157068.35000000001,"N_COORD97":2549766.8799999999,"ADDRESS":"安清路三段５００號","OBJECTID":496365},"geometry":{"x":157068.35000000056,"y":2549766.879999999}},{"attributes":{"ID":496393,"DIS_CODE":0,"TOWNNAME":"安南區","LI":"東和里","LIN":"7鄰","STREET":"長和路","SECT":"一段","MAREA":" ","LANE":" ","ALLEY":" ","HOUSE_NO":"７０號","E_COORD97":171862.95999999999,"N_COORD97":2550496.3799999999,"ADDRESS":"長和路一段７０號","OBJECTID":496366},"geometry":{"x":171862.95999999996,"y":2550496.3800000027}},{"attributes":{"ID":496394,"DIS_CODE":0,"TOWNNAME":"安南區","LI":"東和里","LIN":"7鄰","STREET":"長和路","SECT":"一段","MAREA":" ","LANE":" ","ALLEY":" ","HOUSE_NO":"３５之１號","E_COORD97":171956.09,"N_COORD97":2550292.6400000001,"ADDRESS":"長和路一段３５之１號","OBJECTID":496367},"geometry":{"x":171956.09000000078,"y":2550292.6400000043}},{"attributes":{"ID":496395,"DIS_CODE":0,"TOWNNAME":"安南區","LI":"東和里","LIN":"7鄰","STREET":"長和路","SECT":"一段","MAREA":" ","LANE":" ","ALLEY":" ","HOUSE_NO":"３５之２號","E_COORD97":171946.29999999999,"N_COORD97":2550305.3399999999,"ADDRESS":"長和路一段３５之２號","OBJECTID":496368},"geometry":{"x":171946.30000000075,"y":2550305.3400000017}},{"attributes":{"ID":496396,"DIS_CODE":0,"TOWNNAME":"安南區","LI":"城北里","LIN":"7鄰","STREET":"安中路","SECT":"六段","MAREA":" ","LANE":" ","ALLEY":" ","HOUSE_NO":"４８６之３號","E_COORD97":161004.14000000001,"N_COORD97":2551332.8900000001,"ADDRESS":"安中路六段４８６之３號","OBJECTID":496369},"geometry":{"x":161004.14000000153,"y":2551332.8900000025}},{"attributes":{"ID":496397,"DIS_CODE":0,"TOWNNAME":"安南區","LI":"四草里","LIN":"7鄰","STREET":"四草大道","SECT":" ","MAREA":" ","LANE":" ","ALLEY":" ","HOUSE_NO":"１３８之８號","E_COORD97":161336.39999999999,"N_COORD97":2545119.6699999999,"ADDRESS":"四草大道１３８之８號","OBJECTID":496370},"geometry":{"x":161336.40000000037,"y":2545119.6700000018}},{"attributes":{"ID":496398,"DIS_CODE":0,"TOWNNAME":"麻豆區","LI":"穀興里","LIN":"7鄰","STREET":"興民街","SECT":" ","MAREA":" ","LANE":" ","ALLEY":" ","HOUSE_NO":"６８號之１","E_COORD97":172727.47,"N_COORD97":2565008.1200000001,"ADDRESS":"興民街６８號之１","OBJECTID":496371},"geometry":{"x":172727.4700000016,"y":2565008.1200000029}},{"attributes":{"ID":496399,"DIS_CODE":0,"TOWNNAME":"麻豆區","LI":"穀興里","LIN":"7鄰","STREET":"興民街","SECT":" ","MAREA":" ","LANE":" ","ALLEY":" ","HOUSE_NO":"７０號","E_COORD97":172722.48000000001,"N_COORD97":2565008.3799999999,"ADDRESS":"興民街７０號","OBJECTID":496372},"geometry":{"x":172722.48000000045,"y":2565008.3800000008}},{"attributes":{"ID":496400,"DIS_CODE":0,"TOWNNAME":"麻豆區","LI":"穀興里","LIN":"7鄰","STREET":"興民街","SECT":" ","MAREA":" ","LANE":" ","ALLEY":" ","HOUSE_NO":"７２號之１","E_COORD97":172712.45999999999,"N_COORD97":2565007.4399999999,"ADDRESS":"興民街７２號之１","OBJECTID":496373},"geometry":{"x":172712.45999999903,"y":2565007.4400000013}},{"attributes":{"ID":496401,"DIS_CODE":0,"TOWNNAME":"麻豆區","LI":"穀興里","LIN":"7鄰","STREET":"興民街","SECT":" ","MAREA":" ","LANE":" ","ALLEY":" ","HOUSE_NO":"７２號","E_COORD97":172717.01000000001,"N_COORD97":2565007.5499999998,"ADDRESS":"興民街７２號","OBJECTID":496374},"geometry":{"x":172717.00999999885,"y":2565007.5499999989}},{"attributes":{"ID":496402,"DIS_CODE":0,"TOWNNAME":"南區","LI":"光明里","LIN":"9鄰","STREET":"新興路","SECT":" ","MAREA":" ","LANE":"５３３巷","ALLEY":"６３弄","HOUSE_NO":"３號","E_COORD97":166682.26000000001,"N_COORD97":2541461.77,"ADDRESS":"新興路５３３巷６３弄３號","OBJECTID":496375},"geometry":{"x":166682.26000000164,"y":2541461.7699999996}},{"attributes":{"ID":496403,"DIS_CODE":0,"TOWNNAME":"麻豆區","LI":"穀興里","LIN":"7鄰","STREET":"興民街","SECT":" ","MAREA":" ","LANE":" ","ALLEY":" ","HOUSE_NO":"７４號之１","E_COORD97":172689.63,"N_COORD97":2565012.6699999999,"ADDRESS":"興民街７４號之１","OBJECTID":496376},"geometry":{"x":172689.63000000082,"y":2565012.6699999981}},{"attributes":{"ID":496404,"DIS_CODE":0,"TOWNNAME":"麻豆區","LI":"穀興里","LIN":"7鄰","STREET":"興民街","SECT":" ","MAREA":" ","LANE":" ","ALLEY":" ","HOUSE_NO":"７４號之２","E_COORD97":172683.51000000001,"N_COORD97":2565012.4100000001,"ADDRESS":"興民街７４號之２","OBJECTID":496377},"geometry":{"x":172683.51000000071,"y":2565012.410000002}},{"attributes":{"ID":496405,"DIS_CODE":0,"TOWNNAME":"麻豆區","LI":"穀興里","LIN":"7鄰","STREET":"興民街","SECT":" ","MAREA":" ","LANE":" ","ALLEY":" ","HOUSE_NO":"７４號之３","E_COORD97":172678.81,"N_COORD97":2565012.4399999999,"ADDRESS":"興民街７４號之３","OBJECTID":496378},"geometry":{"x":172678.80999999959,"y":2565012.4399999995}},{"attributes":{"ID":496406,"DIS_CODE":0,"TOWNNAME":"麻豆區","LI":"穀興里","LIN":"7鄰","STREET":"興民街","SECT":" ","MAREA":" ","LANE":" ","ALLEY":" ","HOUSE_NO":"７４號之６","E_COORD97":172698.72,"N_COORD97":2565019.3500000001,"ADDRESS":"興民街７４號之６","OBJECTID":496379},"geometry":{"x":172698.7200000016,"y":2565019.3500000015}},{"attributes":{"ID":496407,"DIS_CODE":0,"TOWNNAME":"麻豆區","LI":"穀興里","LIN":"7鄰","STREET":"興民街","SECT":" ","MAREA":" ","LANE":" ","ALLEY":" ","HOUSE_NO":"７４號","E_COORD97":172705.07000000001,"N_COORD97":2565016.23,"ADDRESS":"興民街７４號","OBJECTID":496380},"geometry":{"x":172705.0700000003,"y":2565016.2299999986}},{"attributes":{"ID":496408,"DIS_CODE":0,"TOWNNAME":"白河區","LI":"永安里","LIN":"7鄰","STREET":"西安街","SECT":" ","MAREA":" ","LANE":" ","ALLEY":" ","HOUSE_NO":"１５３號","E_COORD97":189648.59,"N_COORD97":2583009.2799999998,"ADDRESS":"西安街１５３號","OBJECTID":496381},"geometry":{"x":189648.59000000078,"y":2583009.2800000012}},{"attributes":{"ID":496409,"DIS_CODE":0,"TOWNNAME":"白河區","LI":"永安里","LIN":"7鄰","STREET":"西安街","SECT":" ","MAREA":" ","LANE":" ","ALLEY":" ","HOUSE_NO":"１５５號","E_COORD97":189648.01000000001,"N_COORD97":2583012.77,"ADDRESS":"西安街１５５號","OBJECTID":496382},"geometry":{"x":189648.00999999978,"y":2583012.7700000014}},{"attributes":{"ID":496410,"DIS_CODE":0,"TOWNNAME":"白河區","LI":"永安里","LIN":"7鄰","STREET":"西安街","SECT":" ","MAREA":" ","LANE":" ","ALLEY":" ","HOUSE_NO":"１５６號","E_COORD97":189668.32000000001,"N_COORD97":2583018.1499999999,"ADDRESS":"西安街１５６號","OBJECTID":496383},"geometry":{"x":189668.3200000003,"y":2583018.1500000004}},{"attributes":{"ID":496411,"DIS_CODE":0,"TOWNNAME":"白河區","LI":"永安里","LIN":"7鄰","STREET":"西安街","SECT":" ","MAREA":" ","LANE":" ","ALLEY":" ","HOUSE_NO":"１５７號","E_COORD97":189647.42000000001,"N_COORD97":2583016.98,"ADDRESS":"西安街１５７號","OBJECTID":496384},"geometry":{"x":189647.41999999993,"y":2583016.9800000004}},{"attributes":{"ID":496412,"DIS_CODE":0,"TOWNNAME":"白河區","LI":"永安里","LIN":"7鄰","STREET":"西安街","SECT":" ","MAREA":" ","LANE":" ","ALLEY":" ","HOUSE_NO":"１５８號","E_COORD97":189668.20000000001,"N_COORD97":2583023.0499999998,"ADDRESS":"西安街１５８號","OBJECTID":496385},"geometry":{"x":189668.20000000205,"y":2583023.0500000007}},{"attributes":{"ID":496413,"DIS_CODE":0,"TOWNNAME":"白河區","LI":"永安里","LIN":"7鄰","STREET":"西安街","SECT":" ","MAREA":" ","LANE":" ","ALLEY":" ","HOUSE_NO":"１５９號","E_COORD97":189647.57000000001,"N_COORD97":2583021.0699999998,"ADDRESS":"西安街１５９號","OBJECTID":496386},"geometry":{"x":189647.57000000123,"y":2583021.0700000022}},{"attributes":{"ID":496414,"DIS_CODE":0,"TOWNNAME":"白河區","LI":"永安里","LIN":"7鄰","STREET":"西安街","SECT":" ","MAREA":" ","LANE":" ","ALLEY":" ","HOUSE_NO":"１６０號","E_COORD97":189667.76000000001,"N_COORD97":2583026.9100000001,"ADDRESS":"西安街１６０號","OBJECTID":496387},"geometry":{"x":189667.76000000071,"y":2583026.9100000001}},{"attributes":{"ID":496415,"DIS_CODE":0,"TOWNNAME":"白河區","LI":"永安里","LIN":"7鄰","STREET":"西安街","SECT":" ","MAREA":" ","LANE":" ","ALLEY":" ","HOUSE_NO":"１６１號","E_COORD97":189646.69,"N_COORD97":2583025.54,"ADDRESS":"西安街１６１號","OBJECTID":496388},"geometry":{"x":189646.69000000134,"y":2583025.5399999991}},{"attributes":{"ID":496416,"DIS_CODE":0,"TOWNNAME":"白河區","LI":"永安里","LIN":"7鄰","STREET":"西安街","SECT":" ","MAREA":" ","LANE":" ","ALLEY":" ","HOUSE_NO":"１６２號","E_COORD97":189667.44,"N_COORD97":2583031.0899999999,"ADDRESS":"西安街１６２號","OBJECTID":496389},"geometry":{"x":189667.44000000134,"y":2583031.0900000017}},{"attributes":{"ID":496417,"DIS_CODE":0,"TOWNNAME":"白河區","LI":"永安里","LIN":"7鄰","STREET":"西安街","SECT":" ","MAREA":" ","LANE":" ","ALLEY":" ","HOUSE_NO":"１６３號","E_COORD97":189641.76000000001,"N_COORD97":2583029.8599999999,"ADDRESS":"西安街１６３號","OBJECTID":496390},"geometry":{"x":189641.75999999885,"y":2583029.8599999994}},{"attributes":{"ID":496418,"DIS_CODE":0,"TOWNNAME":"白河區","LI":"永安里","LIN":"7鄰","STREET":"西安街","SECT":" ","MAREA":" ","LANE":" ","ALLEY":" ","HOUSE_NO":"１６４號","E_COORD97":189667.09,"N_COORD97":2583035.6299999999,"ADDRESS":"西安街１６４號","OBJECTID":496391},"geometry":{"x":189667.09000000078,"y":2583035.6300000008}},{"attributes":{"ID":496419,"DIS_CODE":0,"TOWNNAME":"永康區","LI":"正強里","LIN":"7鄰","STREET":"正義街","SECT":" ","MAREA":" ","LANE":" ","ALLEY":" ","HOUSE_NO":"６６號","E_COORD97":173508.79000000001,"N_COORD97":2547630.5099999998,"ADDRESS":"正義街６６號","OBJECTID":496392},"geometry":{"x":173508.7900000019,"y":2547630.5099999998}},{"attributes":{"ID":496420,"DIS_CODE":0,"TOWNNAME":"永康區","LI":"北灣里","LIN":"7鄰","STREET":"信義街","SECT":" ","MAREA":" ","LANE":" ","ALLEY":" ","HOUSE_NO":"１４１號","E_COORD97":175112.34,"N_COORD97":2545615.96,"ADDRESS":"信義街１４１號","OBJECTID":496393},"geometry":{"x":175112.34000000078,"y":2545615.9600000028}},{"attributes":{"ID":496421,"DIS_CODE":0,"TOWNNAME":"永康區","LI":"北灣里","LIN":"7鄰","STREET":"大灣路","SECT":" ","MAREA":" ","LANE":" ","ALLEY":" ","HOUSE_NO":"１４０號","E_COORD97":175115.12,"N_COORD97":2545575.7400000002,"ADDRESS":"大灣路１４０號","OBJECTID":496394},"geometry":{"x":175115.12000000011,"y":2545575.7400000039}},{"attributes":{"ID":496422,"DIS_CODE":0,"TOWNNAME":"北區","LI":"元寶里","LIN":"7鄰","STREET":"北園街","SECT":" ","MAREA":" ","LANE":" ","ALLEY":" ","HOUSE_NO":"２２號七樓之１","E_COORD97":170389.20999999999,"N_COORD97":2545683.5299999998,"ADDRESS":"北園街２２號七樓之１","OBJECTID":496395},"geometry":{"x":170389.21000000089,"y":2545683.5299999993}},{"attributes":{"ID":496423,"DIS_CODE":0,"TOWNNAME":"北區","LI":"元寶里","LIN":"7鄰","STREET":"北園街","SECT":" ","MAREA":" ","LANE":" ","ALLEY":" ","HOUSE_NO":"２２號七樓之２","E_COORD97":170389.20999999999,"N_COORD97":2545683.5299999998,"ADDRESS":"北園街２２號七樓之２","OBJECTID":496396},"geometry":{"x":170389.21000000089,"y":2545683.5299999993}},{"attributes":{"ID":496424,"DIS_CODE":0,"TOWNNAME":"北區","LI":"元寶里","LIN":"7鄰","STREET":"北園街","SECT":" ","MAREA":" ","LANE":" ","ALLEY":" ","HOUSE_NO":"２２號七樓之３","E_COORD97":170389.20999999999,"N_COORD97":2545683.5299999998,"ADDRESS":"北園街２２號七樓之３","OBJECTID":496397},"geometry":{"x":170389.21000000089,"y":2545683.5299999993}},{"attributes":{"ID":496425,"DIS_CODE":0,"TOWNNAME":"北區","LI":"元寶里","LIN":"7鄰","STREET":"北園街","SECT":" ","MAREA":" ","LANE":" ","ALLEY":" ","HOUSE_NO":"２２號七樓之５","E_COORD97":170389.20999999999,"N_COORD97":2545683.5299999998,"ADDRESS":"北園街２２號七樓之５","OBJECTID":496398},"geometry":{"x":170389.21000000089,"y":2545683.5299999993}},{"attributes":{"ID":496426,"DIS_CODE":0,"TOWNNAME":"北區","LI":"元寶里","LIN":"7鄰","STREET":"北園街","SECT":" ","MAREA":" ","LANE":" ","ALLEY":" ","HOUSE_NO":"２２號七樓之６","E_COORD97":170389.20999999999,"N_COORD97":2545683.5299999998,"ADDRESS":"北園街２２號七樓之６","OBJECTID":496399},"geometry":{"x":170389.21000000089,"y":2545683.5299999993}},{"attributes":{"ID":496427,"DIS_CODE":0,"TOWNNAME":"北區","LI":"元寶里","LIN":"7鄰","STREET":"北園街","SECT":" ","MAREA":" ","LANE":" ","ALLEY":" ","HOUSE_NO":"２２號七樓之７","E_COORD97":170389.20999999999,"N_COORD97":2545683.5299999998,"ADDRESS":"北園街２２號七樓之７","OBJECTID":496400},"geometry":{"x":170389.21000000089,"y":2545683.5299999993}}]}