{"displayFieldName":"TOWNNAME","fieldAliases":{"ID":"ID","DIS_CODE":"DIS_CODE","TOWNNAME":"TOWNNAME","LI":"LI","LIN":"LIN","STREET":"STREET","SECT":"SECT","MAREA":"MAREA","LANE":"LANE","ALLEY":"ALLEY","HOUSE_NO":"HOUSE_NO","E_COORD97":"E_COORD97","N_COORD97":"N_COORD97","ADDRESS":"ADDRESS","OBJECTID":"OBJECTID"},"geometryType":"esriGeometryPoint","spatialReference":{"wkid":102443,"latestWkid":3826},"fields":[{"name":"ID","type":"esriFieldTypeDouble","alias":"ID"},{"name":"DIS_CODE","type":"esriFieldTypeInteger","alias":"DIS_CODE"},{"name":"TOWNNAME","type":"esriFieldTypeString","alias":"TOWNNAME","length":8},{"name":"LI","type":"esriFieldTypeString","alias":"LI","length":8},{"name":"LIN","type":"esriFieldTypeString","alias":"LIN","length":12},{"name":"STREET","type":"esriFieldTypeString","alias":"STREET","length":20},{"name":"SECT","type":"esriFieldTypeString","alias":"SECT","length":8},{"name":"MAREA","type":"esriFieldTypeString","alias":"MAREA","length":12},{"name":"LANE","type":"esriFieldTypeString","alias":"LANE","length":10},{"name":"ALLEY","type":"esriFieldTypeString","alias":"ALLEY","length":10},{"name":"HOUSE_NO","type":"esriFieldTypeString","alias":"HOUSE_NO","length":20},{"name":"E_COORD97","type":"esriFieldTypeDouble","alias":"E_COORD97"},{"name":"N_COORD97","type":"esriFieldTypeDouble","alias":"N_COORD97"},{"name":"ADDRESS","type":"esriFieldTypeString","alias":"ADDRESS","length":50},{"name":"OBJECTID","type":"esriFieldTypeOID","alias":"OBJECTID"}],"features":[{"attributes":{"ID":43601,"DIS_CODE":0,"TOWNNAME":"永康區","LI":"西勢里","LIN":"7鄰","STREET":"富強路","SECT":"一段","MAREA":" ","LANE":"２７９巷","ALLEY":"１３弄","HOUSE_NO":"１１號","E_COORD97":175625.35000000001,"N_COORD97":2546583.8700000001,"ADDRESS":"富強路一段２７９巷１３弄１１號","OBJECTID":43601},"geometry":{"x":175625.35000000149,"y":2546583.8700000029}},{"attributes":{"ID":43602,"DIS_CODE":0,"TOWNNAME":"永康區","LI":"西橋里","LIN":"7鄰","STREET":"中山南路","SECT":" ","MAREA":" ","LANE":"４３巷","ALLEY":"４０弄","HOUSE_NO":"９號","E_COORD97":170726.84,"N_COORD97":2545981.3599999999,"ADDRESS":"中山南路４３巷４０弄９號","OBJECTID":43602},"geometry":{"x":170726.84000000078,"y":2545981.3600000013}},{"attributes":{"ID":43603,"DIS_CODE":0,"TOWNNAME":"永康區","LI":"西勢里","LIN":"7鄰","STREET":"富強路","SECT":"一段","MAREA":" ","LANE":"２７９巷","ALLEY":"１３弄","HOUSE_NO":"２號","E_COORD97":175629.60999999999,"N_COORD97":2546603.2799999998,"ADDRESS":"富強路一段２７９巷１３弄２號","OBJECTID":43603},"geometry":{"x":175629.61000000127,"y":2546603.2800000012}},{"attributes":{"ID":43604,"DIS_CODE":0,"TOWNNAME":"新營區","LI":"新南里","LIN":"3鄰","STREET":"新北街","SECT":" ","MAREA":" ","LANE":" ","ALLEY":" ","HOUSE_NO":"５５號","E_COORD97":178815.07999999999,"N_COORD97":2578720.1099999999,"ADDRESS":"新北街５５號","OBJECTID":43604},"geometry":{"x":178815.08000000101,"y":2578720.1100000031}},{"attributes":{"ID":43605,"DIS_CODE":0,"TOWNNAME":"新營區","LI":"嘉芳里","LIN":"14鄰","STREET":"五福路","SECT":" ","MAREA":" ","LANE":" ","ALLEY":" ","HOUSE_NO":"１３２號","E_COORD97":176109.03,"N_COORD97":2578351.2999999998,"ADDRESS":"五福路１３２號","OBJECTID":43605},"geometry":{"x":176109.03000000026,"y":2578351.3000000026}},{"attributes":{"ID":43606,"DIS_CODE":0,"TOWNNAME":"安平區","LI":"金城里","LIN":"13鄰","STREET":"世平路","SECT":" ","MAREA":" ","LANE":" ","ALLEY":" ","HOUSE_NO":"４１號","E_COORD97":162832.85000000001,"N_COORD97":2544075.3700000001,"ADDRESS":"世平路４１號","OBJECTID":43606},"geometry":{"x":162832.84999999963,"y":2544075.3700000029}},{"attributes":{"ID":43607,"DIS_CODE":0,"TOWNNAME":"永康區","LI":"西勢里","LIN":"7鄰","STREET":"富強路","SECT":"一段","MAREA":" ","LANE":"２７９巷","ALLEY":"３１弄","HOUSE_NO":"１７號","E_COORD97":175549.85000000001,"N_COORD97":2546567.0800000001,"ADDRESS":"富強路一段２７９巷３１弄１７號","OBJECTID":43607},"geometry":{"x":175549.85000000056,"y":2546567.0800000019}},{"attributes":{"ID":43608,"DIS_CODE":0,"TOWNNAME":"永康區","LI":"西勢里","LIN":"7鄰","STREET":"富強路","SECT":"一段","MAREA":" ","LANE":"２７９巷","ALLEY":"３１弄","HOUSE_NO":"６號","E_COORD97":175574.56,"N_COORD97":2546618.8900000001,"ADDRESS":"富強路一段２７９巷３１弄６號","OBJECTID":43608},"geometry":{"x":175574.55999999866,"y":2546618.8900000006}},{"attributes":{"ID":43609,"DIS_CODE":0,"TOWNNAME":"永康區","LI":"西勢里","LIN":"7鄰","STREET":"富強路","SECT":"一段","MAREA":" ","LANE":"２２７巷","ALLEY":"４６弄","HOUSE_NO":"２０號","E_COORD97":175606.45999999999,"N_COORD97":2546562.3900000001,"ADDRESS":"富強路一段２２７巷４６弄２０號","OBJECTID":43609},"geometry":{"x":175606.46000000089,"y":2546562.3900000025}},{"attributes":{"ID":43610,"DIS_CODE":0,"TOWNNAME":"永康區","LI":"西勢里","LIN":"7鄰","STREET":"富強路","SECT":"一段","MAREA":" ","LANE":"２７９巷","ALLEY":"１２弄","HOUSE_NO":"２號","E_COORD97":175694.35000000001,"N_COORD97":2546634.3799999999,"ADDRESS":"富強路一段２７９巷１２弄２號","OBJECTID":43610},"geometry":{"x":175694.34999999963,"y":2546634.3799999971}},{"attributes":{"ID":43611,"DIS_CODE":0,"TOWNNAME":"永康區","LI":"西勢里","LIN":"7鄰","STREET":"富強路","SECT":"一段","MAREA":" ","LANE":"２２７巷","ALLEY":"４６弄","HOUSE_NO":"１５號","E_COORD97":175593.87,"N_COORD97":2546563.46,"ADDRESS":"富強路一段２２７巷４６弄１５號","OBJECTID":43611},"geometry":{"x":175593.87000000104,"y":2546563.4600000009}},{"attributes":{"ID":43612,"DIS_CODE":0,"TOWNNAME":"永康區","LI":"西勢里","LIN":"7鄰","STREET":"富強路","SECT":"一段","MAREA":" ","LANE":"２７９巷","ALLEY":"３１弄","HOUSE_NO":"１６號","E_COORD97":175560.97,"N_COORD97":2546603.6299999999,"ADDRESS":"富強路一段２７９巷３１弄１６號","OBJECTID":43612},"geometry":{"x":175560.97000000067,"y":2546603.6300000008}},{"attributes":{"ID":43613,"DIS_CODE":0,"TOWNNAME":"永康區","LI":"西勢里","LIN":"7鄰","STREET":"富強路","SECT":"一段","MAREA":" ","LANE":"２７９巷","ALLEY":"３１弄","HOUSE_NO":"１２號","E_COORD97":175564.17000000001,"N_COORD97":2546607.1299999999,"ADDRESS":"富強路一段２７９巷３１弄１２號","OBJECTID":43613},"geometry":{"x":175564.17000000179,"y":2546607.1300000008}},{"attributes":{"ID":43614,"DIS_CODE":0,"TOWNNAME":"永康區","LI":"西勢里","LIN":"7鄰","STREET":"富強路","SECT":"一段","MAREA":" ","LANE":"２２７巷","ALLEY":"４６弄","HOUSE_NO":"１８號","E_COORD97":175603.44,"N_COORD97":2546558.8999999999,"ADDRESS":"富強路一段２２７巷４６弄１８號","OBJECTID":43614},"geometry":{"x":175603.44000000227,"y":2546558.9000000022}},{"attributes":{"ID":43615,"DIS_CODE":0,"TOWNNAME":"永康區","LI":"西勢里","LIN":"7鄰","STREET":"富強路","SECT":"一段","MAREA":" ","LANE":"２７９巷","ALLEY":"３１弄","HOUSE_NO":"２號","E_COORD97":175580.01000000001,"N_COORD97":2546624.3900000001,"ADDRESS":"富強路一段２７９巷３１弄２號","OBJECTID":43615},"geometry":{"x":175580.00999999978,"y":2546624.3900000006}},{"attributes":{"ID":43616,"DIS_CODE":0,"TOWNNAME":"永康區","LI":"西勢里","LIN":"7鄰","STREET":"富強路","SECT":"一段","MAREA":" ","LANE":"２７９巷","ALLEY":"１２弄","HOUSE_NO":"１０號","E_COORD97":175690.04999999999,"N_COORD97":2546662.4500000002,"ADDRESS":"富強路一段２７９巷１２弄１０號","OBJECTID":43616},"geometry":{"x":175690.04999999981,"y":2546662.4500000011}},{"attributes":{"ID":43617,"DIS_CODE":0,"TOWNNAME":"永康區","LI":"西勢里","LIN":"7鄰","STREET":"富強路","SECT":"一段","MAREA":" ","LANE":"２２７巷","ALLEY":"４６弄","HOUSE_NO":"５號","E_COORD97":175576.48000000001,"N_COORD97":2546546.2200000002,"ADDRESS":"富強路一段２２７巷４６弄５號","OBJECTID":43617},"geometry":{"x":175576.48000000138,"y":2546546.2200000025}},{"attributes":{"ID":43618,"DIS_CODE":0,"TOWNNAME":"永康區","LI":"西勢里","LIN":"7鄰","STREET":"富強路","SECT":"一段","MAREA":" ","LANE":"２７９巷","ALLEY":"７弄","HOUSE_NO":"８號","E_COORD97":175644.44,"N_COORD97":2546580.3700000001,"ADDRESS":"富強路一段２７９巷７弄８號","OBJECTID":43618},"geometry":{"x":175644.44000000134,"y":2546580.3700000029}},{"attributes":{"ID":43619,"DIS_CODE":0,"TOWNNAME":"永康區","LI":"西勢里","LIN":"7鄰","STREET":"富強路","SECT":"一段","MAREA":" ","LANE":"２７９巷","ALLEY":"１３弄","HOUSE_NO":"５號","E_COORD97":175634.23999999999,"N_COORD97":2546594.1200000001,"ADDRESS":"富強路一段２７９巷１３弄５號","OBJECTID":43619},"geometry":{"x":175634.24000000115,"y":2546594.120000001}},{"attributes":{"ID":43620,"DIS_CODE":0,"TOWNNAME":"永康區","LI":"西勢里","LIN":"7鄰","STREET":"富強路","SECT":"一段","MAREA":" ","LANE":"２２７巷","ALLEY":"４６弄","HOUSE_NO":"７號","E_COORD97":175579.82999999999,"N_COORD97":2546549.9700000002,"ADDRESS":"富強路一段２２７巷４６弄７號","OBJECTID":43620},"geometry":{"x":175579.83000000007,"y":2546549.9700000007}},{"attributes":{"ID":43621,"DIS_CODE":0,"TOWNNAME":"永康區","LI":"西勢里","LIN":"7鄰","STREET":"富強路","SECT":"一段","MAREA":" ","LANE":"２７９巷","ALLEY":"３１弄","HOUSE_NO":"１９號","E_COORD97":175545.32000000001,"N_COORD97":2546562.3300000001,"ADDRESS":"富強路一段２７９巷３１弄１９號","OBJECTID":43621},"geometry":{"x":175545.32000000123,"y":2546562.3300000019}},{"attributes":{"ID":43622,"DIS_CODE":0,"TOWNNAME":"永康區","LI":"西勢里","LIN":"7鄰","STREET":"富強路","SECT":"一段","MAREA":" ","LANE":"２７９巷","ALLEY":"３１弄","HOUSE_NO":"２６號","E_COORD97":175535.20000000001,"N_COORD97":2546574.3700000001,"ADDRESS":"富強路一段２７９巷３１弄２６號","OBJECTID":43622},"geometry":{"x":175535.20000000019,"y":2546574.370000001}},{"attributes":{"ID":43623,"DIS_CODE":0,"TOWNNAME":"永康區","LI":"西勢里","LIN":"7鄰","STREET":"富強路","SECT":"一段","MAREA":" ","LANE":"２７９巷","ALLEY":"７弄","HOUSE_NO":"１２號","E_COORD97":175637.98999999999,"N_COORD97":2546572.3700000001,"ADDRESS":"富強路一段２７９巷７弄１２號","OBJECTID":43623},"geometry":{"x":175637.99000000022,"y":2546572.3700000048}},{"attributes":{"ID":43624,"DIS_CODE":0,"TOWNNAME":"永康區","LI":"西勢里","LIN":"7鄰","STREET":"富強路","SECT":"一段","MAREA":" ","LANE":"２７９巷","ALLEY":"３１弄","HOUSE_NO":"２２號","E_COORD97":175539.42000000001,"N_COORD97":2546578.8799999999,"ADDRESS":"富強路一段２７９巷３１弄２２號","OBJECTID":43624},"geometry":{"x":175539.42000000086,"y":2546578.879999999}},{"attributes":{"ID":43625,"DIS_CODE":0,"TOWNNAME":"永康區","LI":"西勢里","LIN":"7鄰","STREET":"富強路","SECT":"一段","MAREA":" ","LANE":"２７９巷","ALLEY":"７弄","HOUSE_NO":"４號","E_COORD97":175652.35000000001,"N_COORD97":2546593.3700000001,"ADDRESS":"富強路一段２７９巷７弄４號","OBJECTID":43625},"geometry":{"x":175652.35000000149,"y":2546593.3700000029}},{"attributes":{"ID":43626,"DIS_CODE":0,"TOWNNAME":"永康區","LI":"西勢里","LIN":"7鄰","STREET":"富強路","SECT":"一段","MAREA":" ","LANE":"２２７巷","ALLEY":"４６弄","HOUSE_NO":"１１號","E_COORD97":175587.42999999999,"N_COORD97":2546556.7200000002,"ADDRESS":"富強路一段２２７巷４６弄１１號","OBJECTID":43626},"geometry":{"x":175587.42999999877,"y":2546556.7200000025}},{"attributes":{"ID":43627,"DIS_CODE":0,"TOWNNAME":"永康區","LI":"西勢里","LIN":"7鄰","STREET":"富強路","SECT":"一段","MAREA":" ","LANE":"２７９巷","ALLEY":"３１弄","HOUSE_NO":"１８號","E_COORD97":175547.26000000001,"N_COORD97":2546587.6299999999,"ADDRESS":"富強路一段２７９巷３１弄１８號","OBJECTID":43627},"geometry":{"x":175547.25999999978,"y":2546587.629999999}},{"attributes":{"ID":43628,"DIS_CODE":0,"TOWNNAME":"永康區","LI":"西勢里","LIN":"7鄰","STREET":"富強路","SECT":"一段","MAREA":" ","LANE":"２７９巷","ALLEY":"１２弄","HOUSE_NO":"２１號","E_COORD97":175674.26999999999,"N_COORD97":2546681.9500000002,"ADDRESS":"富強路一段２７９巷１２弄２１號","OBJECTID":43628},"geometry":{"x":175674.26999999955,"y":2546681.950000003}},{"attributes":{"ID":43629,"DIS_CODE":0,"TOWNNAME":"永康區","LI":"西勢里","LIN":"7鄰","STREET":"富強路","SECT":"一段","MAREA":" ","LANE":"２７９巷","ALLEY":"１３弄","HOUSE_NO":"１２號","E_COORD97":175614.26000000001,"N_COORD97":2546585.7799999998,"ADDRESS":"富強路一段２７９巷１３弄１２號","OBJECTID":43629},"geometry":{"x":175614.26000000164,"y":2546585.7800000012}},{"attributes":{"ID":43630,"DIS_CODE":0,"TOWNNAME":"東區","LI":"裕農里","LIN":"7鄰","STREET":"裕農路","SECT":" ","MAREA":" ","LANE":"３４５巷","ALLEY":"１９弄","HOUSE_NO":"５號","E_COORD97":170963.67999999999,"N_COORD97":2543106.3799999999,"ADDRESS":"裕農路３４５巷１９弄５號","OBJECTID":43630},"geometry":{"x":170963.68000000063,"y":2543106.3800000008}},{"attributes":{"ID":43631,"DIS_CODE":0,"TOWNNAME":"永康區","LI":"西勢里","LIN":"7鄰","STREET":"富強路","SECT":"一段","MAREA":" ","LANE":"２７９巷","ALLEY":"３１弄","HOUSE_NO":"１１號","E_COORD97":175576.51999999999,"N_COORD97":2546596.8799999999,"ADDRESS":"富強路一段２７９巷３１弄１１號","OBJECTID":43631},"geometry":{"x":175576.51999999862,"y":2546596.879999999}},{"attributes":{"ID":43632,"DIS_CODE":0,"TOWNNAME":"永康區","LI":"甲頂里","LIN":"7鄰","STREET":"中正南路","SECT":" ","MAREA":" ","LANE":"５２巷","ALLEY":"７１弄","HOUSE_NO":"７號","E_COORD97":169907.82999999999,"N_COORD97":2546823.0800000001,"ADDRESS":"中正南路５２巷７１弄７號","OBJECTID":43632},"geometry":{"x":169907.83000000007,"y":2546823.0800000001}},{"attributes":{"ID":43633,"DIS_CODE":0,"TOWNNAME":"新營區","LI":"中營里","LIN":"5鄰","STREET":"中山路","SECT":" ","MAREA":" ","LANE":" ","ALLEY":" ","HOUSE_NO":"６號","E_COORD97":180740.79999999999,"N_COORD97":2578488.3799999999,"ADDRESS":"中山路６號","OBJECTID":43633},"geometry":{"x":180740.80000000075,"y":2578488.3800000008}},{"attributes":{"ID":43634,"DIS_CODE":0,"TOWNNAME":"新營區","LI":"護鎮里","LIN":" ","STREET":" ","SECT":" ","MAREA":"後鎮","LANE":" ","ALLEY":" ","HOUSE_NO":"９９之１號","E_COORD97":179081.12,"N_COORD97":2581005.7999999998,"ADDRESS":"後鎮９９之１號","OBJECTID":43634},"geometry":{"x":179081.12000000104,"y":2581005.8000000026}},{"attributes":{"ID":43635,"DIS_CODE":0,"TOWNNAME":"永康區","LI":"甲頂里","LIN":"7鄰","STREET":"中正南路","SECT":" ","MAREA":" ","LANE":"５２巷","ALLEY":"７１弄","HOUSE_NO":"１２號","E_COORD97":169925.32000000001,"N_COORD97":2546816.7400000002,"ADDRESS":"中正南路５２巷７１弄１２號","OBJECTID":43635},"geometry":{"x":169925.32000000216,"y":2546816.7400000039}},{"attributes":{"ID":43636,"DIS_CODE":0,"TOWNNAME":"永康區","LI":"甲頂里","LIN":"7鄰","STREET":"中正南路","SECT":" ","MAREA":" ","LANE":"１６８巷","ALLEY":"２弄","HOUSE_NO":"１１號","E_COORD97":169889.44,"N_COORD97":2546923.25,"ADDRESS":"中正南路１６８巷２弄１１號","OBJECTID":43636},"geometry":{"x":169889.44000000134,"y":2546923.25}},{"attributes":{"ID":43637,"DIS_CODE":0,"TOWNNAME":"永康區","LI":"甲頂里","LIN":"7鄰","STREET":"中正南路","SECT":" ","MAREA":" ","LANE":"５２巷","ALLEY":"７１弄","HOUSE_NO":"２４號","E_COORD97":169923.19,"N_COORD97":2546840.8999999999,"ADDRESS":"中正南路５２巷７１弄２４號","OBJECTID":43637},"geometry":{"x":169923.19000000134,"y":2546840.9000000022}},{"attributes":{"ID":43638,"DIS_CODE":0,"TOWNNAME":"東區","LI":"裕農里","LIN":"7鄰","STREET":"裕農路","SECT":" ","MAREA":" ","LANE":"３４５巷","ALLEY":"１９弄","HOUSE_NO":"１５號","E_COORD97":170930.97,"N_COORD97":2543107.8999999999,"ADDRESS":"裕農路３４５巷１９弄１５號","OBJECTID":43638},"geometry":{"x":170930.97000000067,"y":2543107.9000000022}},{"attributes":{"ID":43639,"DIS_CODE":0,"TOWNNAME":"南區","LI":"喜東里","LIN":"7鄰","STREET":"喜樹路","SECT":" ","MAREA":" ","LANE":"１５１巷","ALLEY":"２弄","HOUSE_NO":"６１號","E_COORD97":165902.92000000001,"N_COORD97":2537871.2599999998,"ADDRESS":"喜樹路１５１巷２弄６１號","OBJECTID":43639},"geometry":{"x":165902.91999999993,"y":2537871.2599999998}},{"attributes":{"ID":43640,"DIS_CODE":0,"TOWNNAME":"安南區","LI":"安西里","LIN":"7鄰","STREET":"安和路","SECT":"一段","MAREA":" ","LANE":"２８５巷","ALLEY":"２６弄","HOUSE_NO":"３號","E_COORD97":169192.98000000001,"N_COORD97":2548083.52,"ADDRESS":"安和路一段２８５巷２６弄３號","OBJECTID":43640},"geometry":{"x":169192.98000000045,"y":2548083.5200000014}},{"attributes":{"ID":43641,"DIS_CODE":0,"TOWNNAME":"安南區","LI":"安西里","LIN":"7鄰","STREET":"安和路","SECT":"一段","MAREA":" ","LANE":"２８５巷","ALLEY":"２６弄","HOUSE_NO":"７號","E_COORD97":169191.42000000001,"N_COORD97":2548092.1099999999,"ADDRESS":"安和路一段２８５巷２６弄７號","OBJECTID":43641},"geometry":{"x":169191.41999999993,"y":2548092.1100000013}},{"attributes":{"ID":43642,"DIS_CODE":0,"TOWNNAME":"新市區","LI":"大社里","LIN":"15鄰","STREET":" ","SECT":" ","MAREA":"大社","LANE":" ","ALLEY":" ","HOUSE_NO":"６０３號","E_COORD97":179585.79000000001,"N_COORD97":2554224.75,"ADDRESS":"大社６０３號","OBJECTID":43642},"geometry":{"x":179585.79000000004,"y":2554224.7500000019}},{"attributes":{"ID":43643,"DIS_CODE":0,"TOWNNAME":"安南區","LI":"安西里","LIN":"7鄰","STREET":"安和路","SECT":"一段","MAREA":" ","LANE":"２８５巷","ALLEY":"２６弄","HOUSE_NO":"５號","E_COORD97":169191.81,"N_COORD97":2548087.8199999998,"ADDRESS":"安和路一段２８５巷２６弄５號","OBJECTID":43643},"geometry":{"x":169191.80999999959,"y":2548087.8200000022}},{"attributes":{"ID":43644,"DIS_CODE":0,"TOWNNAME":"安南區","LI":"安東里","LIN":"7鄰","STREET":"安和路","SECT":"一段","MAREA":" ","LANE":"２８８巷","ALLEY":"１５弄","HOUSE_NO":"２６號","E_COORD97":169361.23000000001,"N_COORD97":2548128.8500000001,"ADDRESS":"安和路一段２８８巷１５弄２６號","OBJECTID":43644},"geometry":{"x":169361.23000000045,"y":2548128.8500000015}},{"attributes":{"ID":43645,"DIS_CODE":0,"TOWNNAME":"安南區","LI":"公親里","LIN":"7鄰","STREET":"公學路","SECT":"一段","MAREA":" ","LANE":"４２巷","ALLEY":"１５弄","HOUSE_NO":"６號","E_COORD97":168538.04000000001,"N_COORD97":2553124.1000000001,"ADDRESS":"公學路一段４２巷１５弄６號","OBJECTID":43645},"geometry":{"x":168538.04000000004,"y":2553124.1000000015}},{"attributes":{"ID":43646,"DIS_CODE":0,"TOWNNAME":"新營區","LI":"嘉芳里","LIN":" ","STREET":" ","SECT":" ","MAREA":"茄苳腳","LANE":" ","ALLEY":" ","HOUSE_NO":"４６之１３號","E_COORD97":176863.25,"N_COORD97":2578523.71,"ADDRESS":"茄苳腳４６之１３號","OBJECTID":43646},"geometry":{"x":176863.25,"y":2578523.7100000009}},{"attributes":{"ID":43647,"DIS_CODE":0,"TOWNNAME":"安定區","LI":"港口里","LIN":"15鄰","STREET":" ","SECT":" ","MAREA":"港口","LANE":" ","ALLEY":" ","HOUSE_NO":"３０１號","E_COORD97":171291.89000000001,"N_COORD97":2554739.25,"ADDRESS":"港口３０１號","OBJECTID":43647},"geometry":{"x":171291.88999999966,"y":2554739.25}},{"attributes":{"ID":43648,"DIS_CODE":0,"TOWNNAME":"安南區","LI":"公親里","LIN":"7鄰","STREET":"公學路","SECT":"一段","MAREA":" ","LANE":"４２巷","ALLEY":"１５弄","HOUSE_NO":"８號","E_COORD97":168529.60999999999,"N_COORD97":2553123.4500000002,"ADDRESS":"公學路一段４２巷１５弄８號","OBJECTID":43648},"geometry":{"x":168529.61000000034,"y":2553123.450000003}},{"attributes":{"ID":43649,"DIS_CODE":0,"TOWNNAME":"安南區","LI":"溪心里","LIN":"7鄰","STREET":"本原街","SECT":"二段","MAREA":" ","LANE":"１３２巷","ALLEY":"６０弄","HOUSE_NO":"１號","E_COORD97":166674.16,"N_COORD97":2550832.23,"ADDRESS":"本原街二段１３２巷６０弄１號","OBJECTID":43649},"geometry":{"x":166674.16000000015,"y":2550832.2300000023}},{"attributes":{"ID":43650,"DIS_CODE":0,"TOWNNAME":"安南區","LI":"新順里","LIN":"7鄰","STREET":"北安路","SECT":"三段","MAREA":" ","LANE":"７４５巷","ALLEY":"２０弄","HOUSE_NO":"１１號","E_COORD97":169114.64999999999,"N_COORD97":2549953.4100000001,"ADDRESS":"北安路三段７４５巷２０弄１１號","OBJECTID":43650},"geometry":{"x":169114.65000000224,"y":2549953.4100000001}},{"attributes":{"ID":43651,"DIS_CODE":0,"TOWNNAME":"安南區","LI":"新順里","LIN":"7鄰","STREET":"北安路","SECT":"三段","MAREA":" ","LANE":"７４５巷","ALLEY":"２０弄","HOUSE_NO":"１號","E_COORD97":169095.92999999999,"N_COORD97":2549939.7400000002,"ADDRESS":"北安路三段７４５巷２０弄１號","OBJECTID":43651},"geometry":{"x":169095.9299999997,"y":2549939.7400000021}},{"attributes":{"ID":43652,"DIS_CODE":0,"TOWNNAME":"安南區","LI":"新順里","LIN":"7鄰","STREET":"北安路","SECT":"三段","MAREA":" ","LANE":"７４５巷","ALLEY":"２０弄","HOUSE_NO":"５號","E_COORD97":169103.13,"N_COORD97":2549944.4100000001,"ADDRESS":"北安路三段７４５巷２０弄５號","OBJECTID":43652},"geometry":{"x":169103.12999999989,"y":2549944.4099999983}},{"attributes":{"ID":43653,"DIS_CODE":0,"TOWNNAME":"安南區","LI":"新順里","LIN":"7鄰","STREET":"北安路","SECT":"三段","MAREA":" ","LANE":"７４５巷","ALLEY":"２０弄","HOUSE_NO":"７號","E_COORD97":169107.45000000001,"N_COORD97":2549946.5699999998,"ADDRESS":"北安路三段７４５巷２０弄７號","OBJECTID":43653},"geometry":{"x":169107.45000000112,"y":2549946.5700000003}},{"attributes":{"ID":43654,"DIS_CODE":0,"TOWNNAME":"安南區","LI":"新順里","LIN":"7鄰","STREET":"北安路","SECT":"三段","MAREA":" ","LANE":"７４５巷","ALLEY":"２０弄","HOUSE_NO":"９號","E_COORD97":169111.04999999999,"N_COORD97":2549948.3700000001,"ADDRESS":"北安路三段７４５巷２０弄９號","OBJECTID":43654},"geometry":{"x":169111.04999999981,"y":2549948.370000001}},{"attributes":{"ID":43655,"DIS_CODE":0,"TOWNNAME":"安南區","LI":"新順里","LIN":"7鄰","STREET":"北安路","SECT":"三段","MAREA":" ","LANE":"７４５巷","ALLEY":"２０弄","HOUSE_NO":"２８號","E_COORD97":169121.13,"N_COORD97":2549931.1000000001,"ADDRESS":"北安路三段７４５巷２０弄２８號","OBJECTID":43655},"geometry":{"x":169121.13000000082,"y":2549931.0999999996}},{"attributes":{"ID":43656,"DIS_CODE":0,"TOWNNAME":"安定區","LI":"港南里","LIN":"15鄰","STREET":" ","SECT":" ","MAREA":"港口","LANE":" ","ALLEY":" ","HOUSE_NO":"１２８之２號","E_COORD97":171414.89000000001,"N_COORD97":2554405.2999999998,"ADDRESS":"港口１２８之２號","OBJECTID":43656},"geometry":{"x":171414.8900000006,"y":2554405.3000000026}},{"attributes":{"ID":43657,"DIS_CODE":0,"TOWNNAME":"安定區","LI":"新吉里","LIN":"15鄰","STREET":" ","SECT":" ","MAREA":"新吉","LANE":" ","ALLEY":" ","HOUSE_NO":"１４３號","E_COORD97":169087.32000000001,"N_COORD97":2554113.25,"ADDRESS":"新吉１４３號","OBJECTID":43657},"geometry":{"x":169087.3200000003,"y":2554113.2500000019}},{"attributes":{"ID":43658,"DIS_CODE":0,"TOWNNAME":"安定區","LI":"新吉里","LIN":"15鄰","STREET":" ","SECT":" ","MAREA":"新吉","LANE":" ","ALLEY":" ","HOUSE_NO":"１４２號","E_COORD97":169088.51999999999,"N_COORD97":2554102.25,"ADDRESS":"新吉１４２號","OBJECTID":43658},"geometry":{"x":169088.51999999955,"y":2554102.2500000037}},{"attributes":{"ID":43659,"DIS_CODE":0,"TOWNNAME":"安定區","LI":"新吉里","LIN":"15鄰","STREET":" ","SECT":" ","MAREA":"新吉","LANE":" ","ALLEY":" ","HOUSE_NO":"１３８號","E_COORD97":169089.82000000001,"N_COORD97":2554086.25,"ADDRESS":"新吉１３８號","OBJECTID":43659},"geometry":{"x":169089.82000000123,"y":2554086.2500000019}},{"attributes":{"ID":43660,"DIS_CODE":0,"TOWNNAME":"安定區","LI":"新吉里","LIN":"15鄰","STREET":" ","SECT":" ","MAREA":"新吉","LANE":" ","ALLEY":" ","HOUSE_NO":"１３９號","E_COORD97":169089.42000000001,"N_COORD97":2554090.25,"ADDRESS":"新吉１３９號","OBJECTID":43660},"geometry":{"x":169089.41999999993,"y":2554090.2500000019}},{"attributes":{"ID":43661,"DIS_CODE":0,"TOWNNAME":"安定區","LI":"新吉里","LIN":"15鄰","STREET":" ","SECT":" ","MAREA":"新吉","LANE":" ","ALLEY":" ","HOUSE_NO":"１５１號","E_COORD97":169059.51999999999,"N_COORD97":2554113.25,"ADDRESS":"新吉１５１號","OBJECTID":43661},"geometry":{"x":169059.51999999955,"y":2554113.2500000019}},{"attributes":{"ID":43662,"DIS_CODE":0,"TOWNNAME":"安定區","LI":"安定里","LIN":"15鄰","STREET":" ","SECT":" ","MAREA":"安定","LANE":" ","ALLEY":" ","HOUSE_NO":"１４１號","E_COORD97":171816.22,"N_COORD97":2557726.3199999998,"ADDRESS":"安定１４１號","OBJECTID":43662},"geometry":{"x":171816.22000000067,"y":2557726.320000004}},{"attributes":{"ID":43663,"DIS_CODE":0,"TOWNNAME":"安定區","LI":"管寮里","LIN":"15鄰","STREET":" ","SECT":" ","MAREA":"管寮","LANE":" ","ALLEY":" ","HOUSE_NO":"１３７號","E_COORD97":169886.09,"N_COORD97":2556269.25,"ADDRESS":"管寮１３７號","OBJECTID":43663},"geometry":{"x":169886.09000000078,"y":2556269.2500000019}},{"attributes":{"ID":43664,"DIS_CODE":0,"TOWNNAME":"安定區","LI":"管寮里","LIN":"15鄰","STREET":" ","SECT":" ","MAREA":"管寮","LANE":" ","ALLEY":" ","HOUSE_NO":"１３７號之１","E_COORD97":169873.73000000001,"N_COORD97":2556254.2999999998,"ADDRESS":"管寮１３７號之１","OBJECTID":43664},"geometry":{"x":169873.73000000138,"y":2556254.3000000007}},{"attributes":{"ID":43665,"DIS_CODE":0,"TOWNNAME":"安定區","LI":"港南里","LIN":"15鄰","STREET":" ","SECT":" ","MAREA":"港口","LANE":" ","ALLEY":" ","HOUSE_NO":"１２９號","E_COORD97":171463.79000000001,"N_COORD97":2554391.25,"ADDRESS":"港口１２９號","OBJECTID":43665},"geometry":{"x":171463.79000000004,"y":2554391.2500000019}},{"attributes":{"ID":43666,"DIS_CODE":0,"TOWNNAME":"安定區","LI":"新吉里","LIN":"15鄰","STREET":" ","SECT":" ","MAREA":"新吉","LANE":" ","ALLEY":" ","HOUSE_NO":"２１１號","E_COORD97":169073.04558000001,"N_COORD97":2554072.11729,"ADDRESS":"新吉２１１號","OBJECTID":43666},"geometry":{"x":169073.04558000062,"y":2554072.1172849983}},{"attributes":{"ID":43667,"DIS_CODE":0,"TOWNNAME":"安定區","LI":"新吉里","LIN":"15鄰","STREET":" ","SECT":" ","MAREA":"新吉","LANE":" ","ALLEY":" ","HOUSE_NO":"２１３號","E_COORD97":169064.99681099999,"N_COORD97":2554071.3764499999,"ADDRESS":"新吉２１３號","OBJECTID":43667},"geometry":{"x":169064.99681100063,"y":2554071.3764519989}},{"attributes":{"ID":43668,"DIS_CODE":0,"TOWNNAME":"安定區","LI":"蘇林里","LIN":"15鄰","STREET":" ","SECT":" ","MAREA":"蘇厝","LANE":" ","ALLEY":" ","HOUSE_NO":"１６３號","E_COORD97":173414.82000000001,"N_COORD97":2558921.25,"ADDRESS":"蘇厝１６３號","OBJECTID":43668},"geometry":{"x":173414.82000000123,"y":2558921.2500000019}},{"attributes":{"ID":43669,"DIS_CODE":0,"TOWNNAME":"安定區","LI":"蘇林里","LIN":"15鄰","STREET":" ","SECT":" ","MAREA":"蘇厝","LANE":" ","ALLEY":" ","HOUSE_NO":"１７０之２號","E_COORD97":173415.51999999999,"N_COORD97":2558886.2999999998,"ADDRESS":"蘇厝１７０之２號","OBJECTID":43669},"geometry":{"x":173415.52000000048,"y":2558886.3000000045}},{"attributes":{"ID":43670,"DIS_CODE":0,"TOWNNAME":"安定區","LI":"蘇林里","LIN":"15鄰","STREET":" ","SECT":" ","MAREA":"蘇厝","LANE":" ","ALLEY":" ","HOUSE_NO":"１６９號","E_COORD97":173396.22,"N_COORD97":2558865.25,"ADDRESS":"蘇厝１６９號","OBJECTID":43670},"geometry":{"x":173396.22000000067,"y":2558865.25}},{"attributes":{"ID":43671,"DIS_CODE":0,"TOWNNAME":"安定區","LI":"新吉里","LIN":"15鄰","STREET":" ","SECT":" ","MAREA":"新吉","LANE":" ","ALLEY":" ","HOUSE_NO":"２１０號","E_COORD97":169076.80520199999,"N_COORD97":2554072.32895,"ADDRESS":"新吉２１０號","OBJECTID":43671},"geometry":{"x":169076.80520199984,"y":2554072.3289519995}},{"attributes":{"ID":43672,"DIS_CODE":0,"TOWNNAME":"安定區","LI":"海寮里","LIN":"15鄰","STREET":" ","SECT":" ","MAREA":"海寮","LANE":" ","ALLEY":" ","HOUSE_NO":"１４３之１２號","E_COORD97":169130.98999999999,"N_COORD97":2555423.2999999998,"ADDRESS":"海寮１４３之１２號","OBJECTID":43672},"geometry":{"x":169130.99000000115,"y":2555423.3000000007}},{"attributes":{"ID":43673,"DIS_CODE":0,"TOWNNAME":"安定區","LI":"管寮里","LIN":"15鄰","STREET":" ","SECT":" ","MAREA":"管寮","LANE":" ","ALLEY":" ","HOUSE_NO":"１３４號","E_COORD97":169948.59,"N_COORD97":2556303.25,"ADDRESS":"管寮１３４號","OBJECTID":43673},"geometry":{"x":169948.59000000078,"y":2556303.2500000019}},{"attributes":{"ID":43674,"DIS_CODE":0,"TOWNNAME":"安定區","LI":"新吉里","LIN":"15鄰","STREET":" ","SECT":" ","MAREA":"新吉","LANE":" ","ALLEY":" ","HOUSE_NO":"２４５號","E_COORD97":169067.51999999999,"N_COORD97":2554058.25,"ADDRESS":"新吉２４５號","OBJECTID":43674},"geometry":{"x":169067.52000000048,"y":2554058.2500000037}},{"attributes":{"ID":43675,"DIS_CODE":0,"TOWNNAME":"新市區","LI":"社內里","LIN":"15鄰","STREET":" ","SECT":" ","MAREA":"社內","LANE":" ","ALLEY":" ","HOUSE_NO":"１５３之３號","E_COORD97":176219.73000000001,"N_COORD97":2553057.5499999998,"ADDRESS":"社內１５３之３號","OBJECTID":43675},"geometry":{"x":176219.73000000045,"y":2553057.5500000026}},{"attributes":{"ID":43676,"DIS_CODE":0,"TOWNNAME":"新市區","LI":"大社里","LIN":"15鄰","STREET":" ","SECT":" ","MAREA":"大社","LANE":" ","ALLEY":" ","HOUSE_NO":"５８３號","E_COORD97":179615.23999999999,"N_COORD97":2554385.5,"ADDRESS":"大社５８３號","OBJECTID":43676},"geometry":{"x":179615.24000000022,"y":2554385.5000000037}},{"attributes":{"ID":43677,"DIS_CODE":0,"TOWNNAME":"新市區","LI":"大社里","LIN":"15鄰","STREET":" ","SECT":" ","MAREA":"大社","LANE":" ","ALLEY":" ","HOUSE_NO":"５７９號","E_COORD97":179618.31,"N_COORD97":2554474.75,"ADDRESS":"大社５７９號","OBJECTID":43677},"geometry":{"x":179618.31000000052,"y":2554474.75}},{"attributes":{"ID":43678,"DIS_CODE":0,"TOWNNAME":"安南區","LI":"新順里","LIN":"7鄰","STREET":"北安路","SECT":"三段","MAREA":" ","LANE":"７４５巷","ALLEY":"２０弄","HOUSE_NO":"３０號","E_COORD97":169125.82000000001,"N_COORD97":2549932.8999999999,"ADDRESS":"北安路三段７４５巷２０弄３０號","OBJECTID":43678},"geometry":{"x":169125.82000000123,"y":2549932.9000000022}},{"attributes":{"ID":43679,"DIS_CODE":0,"TOWNNAME":"新市區","LI":"大營里","LIN":"15鄰","STREET":" ","SECT":" ","MAREA":"大營","LANE":" ","ALLEY":" ","HOUSE_NO":"２８５號","E_COORD97":178955.13,"N_COORD97":2555441,"ADDRESS":"大營２８５號","OBJECTID":43679},"geometry":{"x":178955.13000000082,"y":2555441.0000000019}},{"attributes":{"ID":43680,"DIS_CODE":0,"TOWNNAME":"後壁區","LI":"竹新里","LIN":"15鄰","STREET":" ","SECT":" ","MAREA":"新厝","LANE":" ","ALLEY":" ","HOUSE_NO":"３４號","E_COORD97":179194.13,"N_COORD97":2582276.0299999998,"ADDRESS":"新厝３４號","OBJECTID":43680},"geometry":{"x":179194.13000000082,"y":2582276.0299999993}},{"attributes":{"ID":43681,"DIS_CODE":0,"TOWNNAME":"佳里區","LI":"子龍里","LIN":"15鄰","STREET":" ","SECT":" ","MAREA":"子良廟","LANE":" ","ALLEY":" ","HOUSE_NO":"１６０號","E_COORD97":169064.97,"N_COORD97":2563763.5600000001,"ADDRESS":"子良廟１６０號","OBJECTID":43681},"geometry":{"x":169064.97000000067,"y":2563763.5600000024}},{"attributes":{"ID":43682,"DIS_CODE":0,"TOWNNAME":"佳里區","LI":"子龍里","LIN":"15鄰","STREET":" ","SECT":" ","MAREA":"子良廟","LANE":" ","ALLEY":" ","HOUSE_NO":"１６１號之１","E_COORD97":169053.78,"N_COORD97":2563817.2999999998,"ADDRESS":"子良廟１６１號之１","OBJECTID":43682},"geometry":{"x":169053.78000000026,"y":2563817.3000000026}},{"attributes":{"ID":43683,"DIS_CODE":0,"TOWNNAME":"佳里區","LI":"子龍里","LIN":"15鄰","STREET":" ","SECT":" ","MAREA":"子良廟","LANE":" ","ALLEY":" ","HOUSE_NO":"１６１號之２","E_COORD97":169052.79999999999,"N_COORD97":2563822.3799999999,"ADDRESS":"子良廟１６１號之２","OBJECTID":43683},"geometry":{"x":169052.79999999981,"y":2563822.379999999}},{"attributes":{"ID":43684,"DIS_CODE":0,"TOWNNAME":"佳里區","LI":"子龍里","LIN":"15鄰","STREET":" ","SECT":" ","MAREA":"子良廟","LANE":" ","ALLEY":" ","HOUSE_NO":"１６１號","E_COORD97":169053.88,"N_COORD97":2563812.1600000001,"ADDRESS":"子良廟１６１號","OBJECTID":43684},"geometry":{"x":169053.88000000082,"y":2563812.1600000001}},{"attributes":{"ID":43685,"DIS_CODE":0,"TOWNNAME":"佳里區","LI":"子龍里","LIN":"15鄰","STREET":" ","SECT":" ","MAREA":"子良廟","LANE":" ","ALLEY":" ","HOUSE_NO":"１６２號之１","E_COORD97":169030.87,"N_COORD97":2563848.2599999998,"ADDRESS":"子良廟１６２號之１","OBJECTID":43685},"geometry":{"x":169030.87000000011,"y":2563848.2599999998}},{"attributes":{"ID":43686,"DIS_CODE":0,"TOWNNAME":"佳里區","LI":"子龍里","LIN":"15鄰","STREET":" ","SECT":" ","MAREA":"子良廟","LANE":" ","ALLEY":" ","HOUSE_NO":"１６２號","E_COORD97":169029.64999999999,"N_COORD97":2563833.5600000001,"ADDRESS":"子良廟１６２號","OBJECTID":43686},"geometry":{"x":169029.64999999944,"y":2563833.5600000005}},{"attributes":{"ID":43687,"DIS_CODE":0,"TOWNNAME":"佳里區","LI":"子龍里","LIN":"15鄰","STREET":" ","SECT":" ","MAREA":"子良廟","LANE":" ","ALLEY":" ","HOUSE_NO":"１６３號","E_COORD97":169052.01000000001,"N_COORD97":2563841.6299999999,"ADDRESS":"子良廟１６３號","OBJECTID":43687},"geometry":{"x":169052.00999999885,"y":2563841.629999999}},{"attributes":{"ID":43688,"DIS_CODE":0,"TOWNNAME":"下營區","LI":"甲中里","LIN":"15鄰","STREET":" ","SECT":" ","MAREA":"十六甲","LANE":" ","ALLEY":" ","HOUSE_NO":"５７號之１１","E_COORD97":175968.72,"N_COORD97":2572351.6899999999,"ADDRESS":"十六甲５７號之１１","OBJECTID":43688},"geometry":{"x":175968.7200000016,"y":2572351.6899999995}},{"attributes":{"ID":43689,"DIS_CODE":0,"TOWNNAME":"下營區","LI":"甲中里","LIN":"15鄰","STREET":" ","SECT":" ","MAREA":"十六甲","LANE":" ","ALLEY":" ","HOUSE_NO":"５７號之１２","E_COORD97":175975.76000000001,"N_COORD97":2572351.3700000001,"ADDRESS":"十六甲５７號之１２","OBJECTID":43689},"geometry":{"x":175975.76000000071,"y":2572351.370000001}},{"attributes":{"ID":43690,"DIS_CODE":0,"TOWNNAME":"下營區","LI":"甲中里","LIN":"15鄰","STREET":" ","SECT":" ","MAREA":"十六甲","LANE":" ","ALLEY":" ","HOUSE_NO":"５７號之５","E_COORD97":175968.17999999999,"N_COORD97":2572228.79,"ADDRESS":"十六甲５７號之５","OBJECTID":43690},"geometry":{"x":175968.1799999997,"y":2572228.7899999991}},{"attributes":{"ID":43691,"DIS_CODE":0,"TOWNNAME":"下營區","LI":"甲中里","LIN":"15鄰","STREET":" ","SECT":" ","MAREA":"十六甲","LANE":" ","ALLEY":" ","HOUSE_NO":"５７號之６","E_COORD97":175964.17000000001,"N_COORD97":2572221.7000000002,"ADDRESS":"十六甲５７號之６","OBJECTID":43691},"geometry":{"x":175964.17000000179,"y":2572221.6999999993}},{"attributes":{"ID":43692,"DIS_CODE":0,"TOWNNAME":"下營區","LI":"甲中里","LIN":"15鄰","STREET":" ","SECT":" ","MAREA":"十六甲","LANE":" ","ALLEY":" ","HOUSE_NO":"５７號之７","E_COORD97":175933.57000000001,"N_COORD97":2572280.8300000001,"ADDRESS":"十六甲５７號之７","OBJECTID":43692},"geometry":{"x":175933.57000000123,"y":2572280.8300000038}},{"attributes":{"ID":43693,"DIS_CODE":0,"TOWNNAME":"下營區","LI":"後街里","LIN":" ","STREET":"人和三街","SECT":" ","MAREA":" ","LANE":" ","ALLEY":" ","HOUSE_NO":"２號","E_COORD97":174394.45999999999,"N_COORD97":2570777.8599999999,"ADDRESS":"人和三街２號","OBJECTID":43693},"geometry":{"x":174394.46000000089,"y":2570777.8599999975}},{"attributes":{"ID":43694,"DIS_CODE":0,"TOWNNAME":"下營區","LI":"甲中里","LIN":"15鄰","STREET":" ","SECT":" ","MAREA":"十六甲","LANE":" ","ALLEY":" ","HOUSE_NO":"５８號之１","E_COORD97":175936.57000000001,"N_COORD97":2572170.1299999999,"ADDRESS":"十六甲５８號之１","OBJECTID":43694},"geometry":{"x":175936.57000000123,"y":2572170.1300000008}},{"attributes":{"ID":43695,"DIS_CODE":0,"TOWNNAME":"下營區","LI":"甲中里","LIN":"15鄰","STREET":" ","SECT":" ","MAREA":"十六甲","LANE":" ","ALLEY":" ","HOUSE_NO":"５８號","E_COORD97":175921.67000000001,"N_COORD97":2572172.1600000001,"ADDRESS":"十六甲５８號","OBJECTID":43695},"geometry":{"x":175921.66999999899,"y":2572172.1600000001}},{"attributes":{"ID":43696,"DIS_CODE":0,"TOWNNAME":"下營區","LI":"甲中里","LIN":"15鄰","STREET":" ","SECT":" ","MAREA":"十六甲","LANE":" ","ALLEY":" ","HOUSE_NO":"５９號","E_COORD97":175894.48999999999,"N_COORD97":2572169.1499999999,"ADDRESS":"十六甲５９號","OBJECTID":43696},"geometry":{"x":175894.49000000209,"y":2572169.1500000004}},{"attributes":{"ID":43697,"DIS_CODE":0,"TOWNNAME":"下營區","LI":"甲中里","LIN":"15鄰","STREET":" ","SECT":" ","MAREA":"十六甲","LANE":" ","ALLEY":" ","HOUSE_NO":"６０號之１","E_COORD97":175914.54999999999,"N_COORD97":2572144.1000000001,"ADDRESS":"十六甲６０號之１","OBJECTID":43697},"geometry":{"x":175914.55000000075,"y":2572144.1000000015}},{"attributes":{"ID":43698,"DIS_CODE":0,"TOWNNAME":"關廟區","LI":"五甲里","LIN":"14鄰","STREET":"光復街","SECT":" ","MAREA":" ","LANE":"３７巷","ALLEY":"１０弄","HOUSE_NO":"７號","E_COORD97":181411.04000000001,"N_COORD97":2539282.2799999998,"ADDRESS":"光復街３７巷１０弄７號","OBJECTID":43698},"geometry":{"x":181411.04000000004,"y":2539282.2800000012}},{"attributes":{"ID":43699,"DIS_CODE":0,"TOWNNAME":"善化區","LI":"南關里","LIN":"7鄰","STREET":"三民路","SECT":" ","MAREA":" ","LANE":"六合巷","ALLEY":"９弄","HOUSE_NO":"１號","E_COORD97":176991.78,"N_COORD97":2558712.0099999998,"ADDRESS":"三民路六合巷９弄１號","OBJECTID":43699},"geometry":{"x":176991.78000000119,"y":2558712.0100000016}},{"attributes":{"ID":43700,"DIS_CODE":0,"TOWNNAME":"下營區","LI":"甲中里","LIN":"15鄰","STREET":" ","SECT":" ","MAREA":"十六甲","LANE":" ","ALLEY":" ","HOUSE_NO":"６０號","E_COORD97":175890.06,"N_COORD97":2572154.1200000001,"ADDRESS":"十六甲６０號","OBJECTID":43700},"geometry":{"x":175890.06000000145,"y":2572154.120000001}},{"attributes":{"ID":43701,"DIS_CODE":0,"TOWNNAME":"下營區","LI":"甲中里","LIN":"15鄰","STREET":" ","SECT":" ","MAREA":"十六甲","LANE":" ","ALLEY":" ","HOUSE_NO":"６１號之７","E_COORD97":176054.01999999999,"N_COORD97":2572082.75,"ADDRESS":"十六甲６１號之７","OBJECTID":43701},"geometry":{"x":176054.01999999955,"y":2572082.7500000019}},{"attributes":{"ID":43702,"DIS_CODE":0,"TOWNNAME":"七股區","LI":"七股里","LIN":"15鄰","STREET":" ","SECT":" ","MAREA":"七股","LANE":" ","ALLEY":" ","HOUSE_NO":"３號","E_COORD97":161212.37,"N_COORD97":2559348.1099999999,"ADDRESS":"七股３號","OBJECTID":43702},"geometry":{"x":161212.37000000011,"y":2559348.1100000013}},{"attributes":{"ID":43703,"DIS_CODE":0,"TOWNNAME":"善化區","LI":"南關里","LIN":"7鄰","STREET":"三民路","SECT":" ","MAREA":" ","LANE":"六合巷","ALLEY":"８弄","HOUSE_NO":"３號","E_COORD97":176997.95000000001,"N_COORD97":2558767.0099999998,"ADDRESS":"三民路六合巷８弄３號","OBJECTID":43703},"geometry":{"x":176997.95000000019,"y":2558767.0099999998}},{"attributes":{"ID":43704,"DIS_CODE":0,"TOWNNAME":"安南區","LI":"新順里","LIN":"7鄰","STREET":"北安路","SECT":"三段","MAREA":" ","LANE":"７４５巷","ALLEY":"４２弄","HOUSE_NO":"５６號","E_COORD97":169180.07000000001,"N_COORD97":2550104.0899999999,"ADDRESS":"北安路三段７４５巷４２弄５６號","OBJECTID":43704},"geometry":{"x":169180.07000000123,"y":2550104.0900000017}},{"attributes":{"ID":43705,"DIS_CODE":0,"TOWNNAME":"安南區","LI":"新順里","LIN":"7鄰","STREET":"北安路","SECT":"三段","MAREA":" ","LANE":"７４５巷","ALLEY":"４２弄","HOUSE_NO":"２９號","E_COORD97":169149.73000000001,"N_COORD97":2550076.2599999998,"ADDRESS":"北安路三段７４５巷４２弄２９號","OBJECTID":43705},"geometry":{"x":169149.73000000231,"y":2550076.2599999998}},{"attributes":{"ID":43706,"DIS_CODE":0,"TOWNNAME":"安南區","LI":"新順里","LIN":"7鄰","STREET":"北安路","SECT":"三段","MAREA":" ","LANE":"７４５巷","ALLEY":"４２弄","HOUSE_NO":"３１號","E_COORD97":169154.82000000001,"N_COORD97":2550074.73,"ADDRESS":"北安路三段７４５巷４２弄３１號","OBJECTID":43706},"geometry":{"x":169154.82000000123,"y":2550074.7299999986}},{"attributes":{"ID":43707,"DIS_CODE":0,"TOWNNAME":"安南區","LI":"新順里","LIN":"7鄰","STREET":"北安路","SECT":"三段","MAREA":" ","LANE":"７４５巷","ALLEY":"４２弄","HOUSE_NO":"３３號","E_COORD97":169159.66,"N_COORD97":2550077.27,"ADDRESS":"北安路三段７４５巷４２弄３３號","OBJECTID":43707},"geometry":{"x":169159.66000000015,"y":2550077.2700000033}},{"attributes":{"ID":43708,"DIS_CODE":0,"TOWNNAME":"新營區","LI":"嘉芳里","LIN":"10鄰","STREET":" ","SECT":" ","MAREA":"茄苳腳","LANE":" ","ALLEY":" ","HOUSE_NO":"４３號之１","E_COORD97":176855.25,"N_COORD97":2578605.6899999999,"ADDRESS":"茄苳腳４３之１號","OBJECTID":43708},"geometry":{"x":176855.24999999907,"y":2578605.6900000013}},{"attributes":{"ID":43709,"DIS_CODE":0,"TOWNNAME":"七股區","LI":"七股里","LIN":"15鄰","STREET":" ","SECT":" ","MAREA":"七股","LANE":" ","ALLEY":" ","HOUSE_NO":"４號","E_COORD97":161175.19,"N_COORD97":2559341.9900000002,"ADDRESS":"七股４號","OBJECTID":43709},"geometry":{"x":161175.19000000041,"y":2559341.9900000002}},{"attributes":{"ID":43710,"DIS_CODE":0,"TOWNNAME":"七股區","LI":"七股里","LIN":"15鄰","STREET":" ","SECT":" ","MAREA":"七股","LANE":" ","ALLEY":" ","HOUSE_NO":"２號之１","E_COORD97":161087.42000000001,"N_COORD97":2558840.25,"ADDRESS":"七股２號之１","OBJECTID":43710},"geometry":{"x":161087.42000000086,"y":2558840.25}},{"attributes":{"ID":43711,"DIS_CODE":0,"TOWNNAME":"安南區","LI":"新順里","LIN":"7鄰","STREET":"北安路","SECT":"三段","MAREA":" ","LANE":"７４５巷","ALLEY":"４２弄","HOUSE_NO":"３５號","E_COORD97":169165.51999999999,"N_COORD97":2550075.4900000002,"ADDRESS":"北安路三段７４５巷４２弄３５號","OBJECTID":43711},"geometry":{"x":169165.52000000142,"y":2550075.4900000002}},{"attributes":{"ID":43712,"DIS_CODE":0,"TOWNNAME":"東區","LI":"裕農里","LIN":"7鄰","STREET":"裕農路","SECT":" ","MAREA":" ","LANE":"３４５巷","ALLEY":"１９弄","HOUSE_NO":"６號","E_COORD97":170958.39000000001,"N_COORD97":2543135.4100000001,"ADDRESS":"裕農路３４５巷１９弄６號","OBJECTID":43712},"geometry":{"x":170958.3900000006,"y":2543135.4100000001}},{"attributes":{"ID":43713,"DIS_CODE":0,"TOWNNAME":"安南區","LI":"新順里","LIN":"7鄰","STREET":"北安路","SECT":"三段","MAREA":" ","LANE":"７４５巷","ALLEY":"４２弄","HOUSE_NO":"３７號","E_COORD97":169166.79999999999,"N_COORD97":2550060.73,"ADDRESS":"北安路三段７４５巷４２弄３７號","OBJECTID":43713},"geometry":{"x":169166.79999999981,"y":2550060.7300000004}},{"attributes":{"ID":43714,"DIS_CODE":0,"TOWNNAME":"安南區","LI":"新順里","LIN":"7鄰","STREET":"北安路","SECT":"三段","MAREA":" ","LANE":"７４５巷","ALLEY":"４２弄","HOUSE_NO":"３９號","E_COORD97":169160.67999999999,"N_COORD97":2550063.7799999998,"ADDRESS":"北安路三段７４５巷４２弄３９號","OBJECTID":43714},"geometry":{"x":169160.6799999997,"y":2550063.7800000012}},{"attributes":{"ID":43715,"DIS_CODE":0,"TOWNNAME":"安南區","LI":"新順里","LIN":"7鄰","STREET":"北安路","SECT":"三段","MAREA":" ","LANE":"７４５巷","ALLEY":"４２弄","HOUSE_NO":"４１號","E_COORD97":169156.85999999999,"N_COORD97":2550060.48,"ADDRESS":"北安路三段７４５巷４２弄４１號","OBJECTID":43715},"geometry":{"x":169156.86000000034,"y":2550060.4800000023}},{"attributes":{"ID":43716,"DIS_CODE":0,"TOWNNAME":"官田區","LI":"隆本里","LIN":"7鄰","STREET":"中華路","SECT":"二段","MAREA":" ","LANE":"８３巷","ALLEY":"５弄","HOUSE_NO":"１０號","E_COORD97":179808.23000000001,"N_COORD97":2566738.4199999999,"ADDRESS":"中華路二段８３巷５弄１０號","OBJECTID":43716},"geometry":{"x":179808.23000000045,"y":2566738.4200000018}},{"attributes":{"ID":43717,"DIS_CODE":0,"TOWNNAME":"官田區","LI":"隆本里","LIN":"7鄰","STREET":"中華路","SECT":"二段","MAREA":" ","LANE":"８３巷","ALLEY":"５弄","HOUSE_NO":"１２號","E_COORD97":179808.72,"N_COORD97":2566733.6899999999,"ADDRESS":"中華路二段８３巷５弄１２號","OBJECTID":43717},"geometry":{"x":179808.72000000067,"y":2566733.6899999995}},{"attributes":{"ID":43718,"DIS_CODE":0,"TOWNNAME":"官田區","LI":"隆本里","LIN":"7鄰","STREET":"中華路","SECT":"二段","MAREA":" ","LANE":"８３巷","ALLEY":"５弄","HOUSE_NO":"１６號","E_COORD97":179809.37,"N_COORD97":2566729.9199999999,"ADDRESS":"中華路二段８３巷５弄１６號","OBJECTID":43718},"geometry":{"x":179809.37000000197,"y":2566729.9199999981}},{"attributes":{"ID":43719,"DIS_CODE":0,"TOWNNAME":"官田區","LI":"隆本里","LIN":"7鄰","STREET":"中華路","SECT":"二段","MAREA":" ","LANE":"８３巷","ALLEY":"５弄","HOUSE_NO":"１８號","E_COORD97":179809.48000000001,"N_COORD97":2566726.4399999999,"ADDRESS":"中華路二段８３巷５弄１８號","OBJECTID":43719},"geometry":{"x":179809.48000000138,"y":2566726.4400000013}},{"attributes":{"ID":43720,"DIS_CODE":0,"TOWNNAME":"官田區","LI":"隆本里","LIN":"7鄰","STREET":"中華路","SECT":"二段","MAREA":" ","LANE":"８３巷","ALLEY":"５弄","HOUSE_NO":"２０號","E_COORD97":179810.26000000001,"N_COORD97":2566721.9500000002,"ADDRESS":"中華路二段８３巷５弄２０號","OBJECTID":43720},"geometry":{"x":179810.26000000071,"y":2566721.9499999993}},{"attributes":{"ID":43721,"DIS_CODE":0,"TOWNNAME":"官田區","LI":"隆本里","LIN":"7鄰","STREET":"中華路","SECT":"二段","MAREA":" ","LANE":"８３巷","ALLEY":"５弄","HOUSE_NO":"２２號","E_COORD97":179810.38,"N_COORD97":2566717.98,"ADDRESS":"中華路二段８３巷５弄２２號","OBJECTID":43721},"geometry":{"x":179810.37999999989,"y":2566717.9800000023}},{"attributes":{"ID":43722,"DIS_CODE":0,"TOWNNAME":"官田區","LI":"隆本里","LIN":"7鄰","STREET":"中華路","SECT":"二段","MAREA":" ","LANE":"８３巷","ALLEY":"５弄","HOUSE_NO":"２６號","E_COORD97":179810.82000000001,"N_COORD97":2566714.29,"ADDRESS":"中華路二段８３巷５弄２６號","OBJECTID":43722},"geometry":{"x":179810.8200000003,"y":2566714.290000001}},{"attributes":{"ID":43723,"DIS_CODE":0,"TOWNNAME":"官田區","LI":"隆本里","LIN":"7鄰","STREET":"中華路","SECT":"二段","MAREA":" ","LANE":"８３巷","ALLEY":"５弄","HOUSE_NO":"２８號","E_COORD97":179811.19,"N_COORD97":2566709.9399999999,"ADDRESS":"中華路二段８３巷５弄２８號","OBJECTID":43723},"geometry":{"x":179811.19000000134,"y":2566709.9400000013}},{"attributes":{"ID":43724,"DIS_CODE":0,"TOWNNAME":"官田區","LI":"隆本里","LIN":"7鄰","STREET":"中華路","SECT":"二段","MAREA":" ","LANE":"８３巷","ALLEY":"５弄","HOUSE_NO":"２號","E_COORD97":179805.35000000001,"N_COORD97":2566751.0800000001,"ADDRESS":"中華路二段８３巷５弄２號","OBJECTID":43724},"geometry":{"x":179805.34999999963,"y":2566751.0800000019}},{"attributes":{"ID":43725,"DIS_CODE":0,"TOWNNAME":"官田區","LI":"隆本里","LIN":"7鄰","STREET":"中華路","SECT":"二段","MAREA":" ","LANE":"８３巷","ALLEY":"５弄","HOUSE_NO":"３０號","E_COORD97":179812.09,"N_COORD97":2566706.6200000001,"ADDRESS":"中華路二段８３巷５弄３０號","OBJECTID":43725},"geometry":{"x":179812.08999999985,"y":2566706.6200000029}},{"attributes":{"ID":43726,"DIS_CODE":0,"TOWNNAME":"官田區","LI":"隆本里","LIN":"7鄰","STREET":"中華路","SECT":"二段","MAREA":" ","LANE":"８３巷","ALLEY":"５弄","HOUSE_NO":"３２號","E_COORD97":179812.17999999999,"N_COORD97":2566702.3999999999,"ADDRESS":"中華路二段８３巷５弄３２號","OBJECTID":43726},"geometry":{"x":179812.18000000063,"y":2566702.4000000004}},{"attributes":{"ID":43727,"DIS_CODE":0,"TOWNNAME":"官田區","LI":"隆本里","LIN":"7鄰","STREET":"中華路","SECT":"二段","MAREA":" ","LANE":"８３巷","ALLEY":"５弄","HOUSE_NO":"３６號","E_COORD97":179813.20000000001,"N_COORD97":2566698.6200000001,"ADDRESS":"中華路二段８３巷５弄３６號","OBJECTID":43727},"geometry":{"x":179813.20000000019,"y":2566698.620000001}},{"attributes":{"ID":43728,"DIS_CODE":0,"TOWNNAME":"官田區","LI":"隆本里","LIN":"7鄰","STREET":"中華路","SECT":"二段","MAREA":" ","LANE":"８３巷","ALLEY":"５弄","HOUSE_NO":"３８號","E_COORD97":179814.01999999999,"N_COORD97":2566694.23,"ADDRESS":"中華路二段８３巷５弄３８號","OBJECTID":43728},"geometry":{"x":179814.01999999955,"y":2566694.2300000004}},{"attributes":{"ID":43729,"DIS_CODE":0,"TOWNNAME":"安南區","LI":"大安里","LIN":"3鄰","STREET":"大安街","SECT":" ","MAREA":" ","LANE":"２６巷","ALLEY":"３弄","HOUSE_NO":"７號","E_COORD97":167142.37,"N_COORD97":2547906.52,"ADDRESS":"大安街２６巷３弄７號","OBJECTID":43729},"geometry":{"x":167142.37000000011,"y":2547906.5200000014}},{"attributes":{"ID":43730,"DIS_CODE":0,"TOWNNAME":"官田區","LI":"隆本里","LIN":"7鄰","STREET":"中華路","SECT":"二段","MAREA":" ","LANE":"８３巷","ALLEY":"５弄","HOUSE_NO":"４０號","E_COORD97":179815.01999999999,"N_COORD97":2566689.77,"ADDRESS":"中華路二段８３巷５弄４０號","OBJECTID":43730},"geometry":{"x":179815.02000000048,"y":2566689.7699999977}},{"attributes":{"ID":43731,"DIS_CODE":0,"TOWNNAME":"官田區","LI":"隆本里","LIN":"7鄰","STREET":"中華路","SECT":"二段","MAREA":" ","LANE":"８３巷","ALLEY":"５弄","HOUSE_NO":"６號","E_COORD97":179806.94,"N_COORD97":2566747.27,"ADDRESS":"中華路二段８３巷５弄６號","OBJECTID":43731},"geometry":{"x":179806.94000000041,"y":2566747.2699999996}},{"attributes":{"ID":43732,"DIS_CODE":0,"TOWNNAME":"新營區","LI":"新東里","LIN":"15鄰","STREET":"東安街","SECT":" ","MAREA":" ","LANE":" ","ALLEY":" ","HOUSE_NO":"６２號","E_COORD97":180948.91,"N_COORD97":2579638.0499999998,"ADDRESS":"東安街６２號","OBJECTID":43732},"geometry":{"x":180948.91000000108,"y":2579638.0500000026}},{"attributes":{"ID":43733,"DIS_CODE":0,"TOWNNAME":"永康區","LI":"\u25A0行里","LIN":"20鄰","STREET":"正南五街","SECT":" ","MAREA":" ","LANE":" ","ALLEY":" ","HOUSE_NO":"３９８號","E_COORD97":171791.23000000001,"N_COORD97":2548579.2799999998,"ADDRESS":"正南五街３９８號","OBJECTID":43733},"geometry":{"x":171791.23000000138,"y":2548579.2800000012}},{"attributes":{"ID":43734,"DIS_CODE":0,"TOWNNAME":"官田區","LI":"隆本里","LIN":"7鄰","STREET":"中華路","SECT":"二段","MAREA":" ","LANE":"８３巷","ALLEY":"５弄","HOUSE_NO":"８號","E_COORD97":179807.54999999999,"N_COORD97":2566742.8399999999,"ADDRESS":"中華路二段８３巷５弄８號","OBJECTID":43734},"geometry":{"x":179807.54999999981,"y":2566742.8399999999}},{"attributes":{"ID":43735,"DIS_CODE":0,"TOWNNAME":"仁德區","LI":"仁義里","LIN":"7鄰","STREET":"中山路","SECT":" ","MAREA":" ","LANE":"４４１巷","ALLEY":"１弄","HOUSE_NO":"２號","E_COORD97":173765.98000000001,"N_COORD97":2541240.5,"ADDRESS":"中山路４４１巷１弄２號","OBJECTID":43735},"geometry":{"x":173765.98000000138,"y":2541240.4999999981}},{"attributes":{"ID":43736,"DIS_CODE":0,"TOWNNAME":"東區","LI":"富裕里","LIN":"7鄰","STREET":"裕農路","SECT":" ","MAREA":" ","LANE":"２８８巷","ALLEY":"６０弄","HOUSE_NO":"３３號","E_COORD97":170922.41,"N_COORD97":2542846.9100000001,"ADDRESS":"裕農路２８８巷６０弄３３號","OBJECTID":43736},"geometry":{"x":170922.41000000015,"y":2542846.9100000001}},{"attributes":{"ID":43737,"DIS_CODE":0,"TOWNNAME":"東區","LI":"富裕里","LIN":"7鄰","STREET":"裕農路","SECT":" ","MAREA":" ","LANE":"２８８巷","ALLEY":"６０弄","HOUSE_NO":"３５號","E_COORD97":170926.64000000001,"N_COORD97":2542846.9100000001,"ADDRESS":"裕農路２８８巷６０弄３５號","OBJECTID":43737},"geometry":{"x":170926.6400000006,"y":2542846.9100000001}},{"attributes":{"ID":43738,"DIS_CODE":0,"TOWNNAME":"東區","LI":"富裕里","LIN":"7鄰","STREET":"裕農路","SECT":" ","MAREA":" ","LANE":"２８８巷","ALLEY":"６０弄","HOUSE_NO":"３７號","E_COORD97":170931.73000000001,"N_COORD97":2542847.5,"ADDRESS":"裕農路２８８巷６０弄３７號","OBJECTID":43738},"geometry":{"x":170931.73000000138,"y":2542847.5}},{"attributes":{"ID":43739,"DIS_CODE":0,"TOWNNAME":"東區","LI":"裕農里","LIN":"7鄰","STREET":"裕農路","SECT":" ","MAREA":" ","LANE":"３４５巷","ALLEY":"１９弄","HOUSE_NO":"１１號","E_COORD97":170940.88,"N_COORD97":2543111,"ADDRESS":"裕農路３４５巷１９弄１１號","OBJECTID":43739},"geometry":{"x":170940.87999999989,"y":2543111}},{"attributes":{"ID":43740,"DIS_CODE":0,"TOWNNAME":"東區","LI":"裕農里","LIN":"7鄰","STREET":"裕農路","SECT":" ","MAREA":" ","LANE":"３４５巷","ALLEY":"１９弄","HOUSE_NO":"１３號","E_COORD97":170935.92999999999,"N_COORD97":2543105.7200000002,"ADDRESS":"裕農路３４５巷１９弄１３號","OBJECTID":43740},"geometry":{"x":170935.93000000156,"y":2543105.7200000025}},{"attributes":{"ID":43741,"DIS_CODE":0,"TOWNNAME":"七股區","LI":"中寮里","LIN":"15鄰","STREET":" ","SECT":" ","MAREA":"中寮","LANE":" ","ALLEY":" ","HOUSE_NO":"１１６號","E_COORD97":158607.25,"N_COORD97":2561851.5899999999,"ADDRESS":"中寮１１６號","OBJECTID":43741},"geometry":{"x":158607.25000000093,"y":2561851.5900000017}},{"attributes":{"ID":43742,"DIS_CODE":0,"TOWNNAME":"東區","LI":"裕農里","LIN":"7鄰","STREET":"裕農路","SECT":" ","MAREA":" ","LANE":"３４５巷","ALLEY":"１９弄","HOUSE_NO":"１４號","E_COORD97":170934.94,"N_COORD97":2543128.4900000002,"ADDRESS":"裕農路３４５巷１９弄１４號","OBJECTID":43742},"geometry":{"x":170934.94000000227,"y":2543128.4900000002}},{"attributes":{"ID":43743,"DIS_CODE":0,"TOWNNAME":"東區","LI":"裕農里","LIN":"7鄰","STREET":"裕農路","SECT":" ","MAREA":" ","LANE":"３４５巷","ALLEY":"１９弄","HOUSE_NO":"１６號","E_COORD97":170927.67000000001,"N_COORD97":2543128.8199999998,"ADDRESS":"裕農路３４５巷１９弄１６號","OBJECTID":43743},"geometry":{"x":170927.66999999899,"y":2543128.8200000022}},{"attributes":{"ID":43744,"DIS_CODE":0,"TOWNNAME":"東區","LI":"裕農里","LIN":"7鄰","STREET":"裕農路","SECT":" ","MAREA":" ","LANE":"３４５巷","ALLEY":"１９弄","HOUSE_NO":"１號","E_COORD97":170963.01999999999,"N_COORD97":2543115.6200000001,"ADDRESS":"裕農路３４５巷１９弄１號","OBJECTID":43744},"geometry":{"x":170963.02000000048,"y":2543115.620000001}},{"attributes":{"ID":43745,"DIS_CODE":0,"TOWNNAME":"東區","LI":"裕農里","LIN":"7鄰","STREET":"裕農路","SECT":" ","MAREA":" ","LANE":"３４５巷","ALLEY":"１９弄","HOUSE_NO":"３號","E_COORD97":170957.73000000001,"N_COORD97":2543114.6299999999,"ADDRESS":"裕農路３４５巷１９弄３號","OBJECTID":43745},"geometry":{"x":170957.73000000045,"y":2543114.6300000008}},{"attributes":{"ID":43746,"DIS_CODE":0,"TOWNNAME":"東區","LI":"裕農里","LIN":"7鄰","STREET":"裕農路","SECT":" ","MAREA":" ","LANE":"３４５巷","ALLEY":"１９弄","HOUSE_NO":"４號","E_COORD97":170964.67000000001,"N_COORD97":2543136.73,"ADDRESS":"裕農路３４５巷１９弄４號","OBJECTID":43746},"geometry":{"x":170964.66999999993,"y":2543136.7300000004}},{"attributes":{"ID":43747,"DIS_CODE":0,"TOWNNAME":"東區","LI":"裕農里","LIN":"7鄰","STREET":"裕農路","SECT":" ","MAREA":" ","LANE":"３４５巷","ALLEY":"１９弄","HOUSE_NO":"７號","E_COORD97":170946.17000000001,"N_COORD97":2543102.4199999999,"ADDRESS":"裕農路３４５巷１９弄７號","OBJECTID":43747},"geometry":{"x":170946.16999999993,"y":2543102.4200000037}},{"attributes":{"ID":43748,"DIS_CODE":0,"TOWNNAME":"東區","LI":"裕農里","LIN":"7鄰","STREET":"裕農路","SECT":" ","MAREA":" ","LANE":"３４５巷","ALLEY":"１９弄","HOUSE_NO":"８號","E_COORD97":170952.45000000001,"N_COORD97":2543132.77,"ADDRESS":"裕農路３４５巷１９弄８號","OBJECTID":43748},"geometry":{"x":170952.45000000019,"y":2543132.7699999996}},{"attributes":{"ID":43749,"DIS_CODE":0,"TOWNNAME":"東區","LI":"裕農里","LIN":"7鄰","STREET":"裕農路","SECT":" ","MAREA":" ","LANE":"３４５巷","ALLEY":"１９弄","HOUSE_NO":"９號","E_COORD97":170948.14999999999,"N_COORD97":2543111.9900000002,"ADDRESS":"裕農路３４５巷１９弄９號","OBJECTID":43749},"geometry":{"x":170948.15000000037,"y":2543111.9900000002}},{"attributes":{"ID":43750,"DIS_CODE":0,"TOWNNAME":"東區","LI":"裕農里","LIN":"7鄰","STREET":"裕農路","SECT":" ","MAREA":" ","LANE":"３４５巷","ALLEY":"５弄","HOUSE_NO":"１０號","E_COORD97":170954.42999999999,"N_COORD97":2543086.2599999998,"ADDRESS":"裕農路３４５巷５弄１０號","OBJECTID":43750},"geometry":{"x":170954.4299999997,"y":2543086.2599999979}},{"attributes":{"ID":43751,"DIS_CODE":0,"TOWNNAME":"東區","LI":"裕農里","LIN":"7鄰","STREET":"裕農路","SECT":" ","MAREA":" ","LANE":"３４５巷","ALLEY":"５弄","HOUSE_NO":"１２號","E_COORD97":170948.14999999999,"N_COORD97":2543086.2599999998,"ADDRESS":"裕農路３４５巷５弄１２號","OBJECTID":43751},"geometry":{"x":170948.15000000037,"y":2543086.2599999979}},{"attributes":{"ID":43752,"DIS_CODE":0,"TOWNNAME":"東區","LI":"裕農里","LIN":"7鄰","STREET":"裕農路","SECT":" ","MAREA":" ","LANE":"３４５巷","ALLEY":"５弄","HOUSE_NO":"１４號","E_COORD97":170940.22,"N_COORD97":2543087.9100000001,"ADDRESS":"裕農路３４５巷５弄１４號","OBJECTID":43752},"geometry":{"x":170940.21999999974,"y":2543087.9100000001}},{"attributes":{"ID":43753,"DIS_CODE":0,"TOWNNAME":"東區","LI":"裕農里","LIN":"7鄰","STREET":"裕農路","SECT":" ","MAREA":" ","LANE":"３４５巷","ALLEY":"５弄","HOUSE_NO":"４號","E_COORD97":170963.01999999999,"N_COORD97":2543089.5600000001,"ADDRESS":"裕農路３４５巷５弄４號","OBJECTID":43753},"geometry":{"x":170963.02000000048,"y":2543089.5600000024}},{"attributes":{"ID":43754,"DIS_CODE":0,"TOWNNAME":"東區","LI":"裕農里","LIN":"7鄰","STREET":"裕農路","SECT":" ","MAREA":" ","LANE":"３４５巷","ALLEY":"５弄","HOUSE_NO":"８號","E_COORD97":170947.82000000001,"N_COORD97":2543095.5,"ADDRESS":"裕農路３４５巷５弄８號","OBJECTID":43754},"geometry":{"x":170947.82000000123,"y":2543095.5000000037}},{"attributes":{"ID":43755,"DIS_CODE":0,"TOWNNAME":"東區","LI":"裕農里","LIN":"7鄰","STREET":"裕農路","SECT":" ","MAREA":" ","LANE":"３４５巷","ALLEY":"５弄","HOUSE_NO":"２號","E_COORD97":170969.95000000001,"N_COORD97":2543091.21,"ADDRESS":"裕農路３４５巷５弄２號","OBJECTID":43755},"geometry":{"x":170969.95000000019,"y":2543091.209999999}},{"attributes":{"ID":43756,"DIS_CODE":0,"TOWNNAME":"東區","LI":"裕農里","LIN":"7鄰","STREET":"裕農路","SECT":" ","MAREA":" ","LANE":"３４５巷","ALLEY":"１９弄","HOUSE_NO":"２號","E_COORD97":170969.95000000001,"N_COORD97":2543138.3799999999,"ADDRESS":"裕農路３４５巷１９弄２號","OBJECTID":43756},"geometry":{"x":170969.95000000019,"y":2543138.379999999}},{"attributes":{"ID":43757,"DIS_CODE":0,"TOWNNAME":"東區","LI":"後甲里","LIN":"7鄰","STREET":"裕農路","SECT":" ","MAREA":" ","LANE":"６２１巷","ALLEY":"７２弄","HOUSE_NO":"１０號","E_COORD97":171648.31,"N_COORD97":2543437.6400000001,"ADDRESS":"裕農路６２１巷７２弄１０號","OBJECTID":43757},"geometry":{"x":171648.30999999959,"y":2543437.6400000043}},{"attributes":{"ID":43758,"DIS_CODE":0,"TOWNNAME":"下營區","LI":"開化里","LIN":"15鄰","STREET":" ","SECT":" ","MAREA":"中營","LANE":" ","ALLEY":" ","HOUSE_NO":"６３２號","E_COORD97":176245.59,"N_COORD97":2568373.29,"ADDRESS":"中營６３２號","OBJECTID":43758},"geometry":{"x":176245.58999999985,"y":2568373.2899999991}},{"attributes":{"ID":43759,"DIS_CODE":0,"TOWNNAME":"東區","LI":"後甲里","LIN":"7鄰","STREET":"裕農路","SECT":" ","MAREA":" ","LANE":"６２１巷","ALLEY":"７２弄","HOUSE_NO":"１２號","E_COORD97":171652.54999999999,"N_COORD97":2543437.9100000001,"ADDRESS":"裕農路６２１巷７２弄１２號","OBJECTID":43759},"geometry":{"x":171652.55000000075,"y":2543437.9100000001}},{"attributes":{"ID":43760,"DIS_CODE":0,"TOWNNAME":"東區","LI":"裕農里","LIN":"7鄰","STREET":"裕農路","SECT":" ","MAREA":" ","LANE":"３４５巷","ALLEY":"５弄","HOUSE_NO":"１號","E_COORD97":170980.51999999999,"N_COORD97":2543075.4500000002,"ADDRESS":"裕農路３４５巷５弄１號","OBJECTID":43760},"geometry":{"x":170980.51999999955,"y":2543075.4500000011}},{"attributes":{"ID":43761,"DIS_CODE":0,"TOWNNAME":"東區","LI":"富裕里","LIN":"7鄰","STREET":"裕農路","SECT":" ","MAREA":" ","LANE":"２８８巷","ALLEY":"６０弄","HOUSE_NO":"１０號","E_COORD97":170896.89999999999,"N_COORD97":2542898.7599999998,"ADDRESS":"裕農路２８８巷６０弄１０號","OBJECTID":43761},"geometry":{"x":170896.9000000013,"y":2542898.7599999998}},{"attributes":{"ID":43762,"DIS_CODE":0,"TOWNNAME":"東區","LI":"新東里","LIN":"7鄰","STREET":"衛國街","SECT":" ","MAREA":" ","LANE":"１０６巷","ALLEY":"１７弄","HOUSE_NO":"３１號","E_COORD97":170483.01000000001,"N_COORD97":2543030.0299999998,"ADDRESS":"衛國街１０６巷１７弄３１號","OBJECTID":43762},"geometry":{"x":170483.01000000071,"y":2543030.0300000031}},{"attributes":{"ID":43763,"DIS_CODE":0,"TOWNNAME":"東區","LI":"裕農里","LIN":"7鄰","STREET":"裕農路","SECT":" ","MAREA":" ","LANE":"３４５巷","ALLEY":"５弄","HOUSE_NO":"３號","E_COORD97":170971.28,"N_COORD97":2543072.8100000001,"ADDRESS":"裕農路３４５巷５弄３號","OBJECTID":43763},"geometry":{"x":170971.28000000026,"y":2543072.8100000005}},{"attributes":{"ID":43764,"DIS_CODE":0,"TOWNNAME":"東區","LI":"關聖里","LIN":"7鄰","STREET":"裕農路","SECT":" ","MAREA":" ","LANE":"６６８巷","ALLEY":"３５弄","HOUSE_NO":"６號","E_COORD97":171786.39000000001,"N_COORD97":2543089.0499999998,"ADDRESS":"裕農路６６８巷３５弄６號","OBJECTID":43764},"geometry":{"x":171786.38999999966,"y":2543089.0500000045}},{"attributes":{"ID":43765,"DIS_CODE":0,"TOWNNAME":"新營區","LI":"王公里","LIN":"17鄰","STREET":"大智街","SECT":" ","MAREA":" ","LANE":" ","ALLEY":" ","HOUSE_NO":"３４號","E_COORD97":180265.26999999999,"N_COORD97":2579313.4500000002,"ADDRESS":"大智街３４號","OBJECTID":43765},"geometry":{"x":180265.26999999955,"y":2579313.4499999993}},{"attributes":{"ID":43766,"DIS_CODE":0,"TOWNNAME":"七股區","LI":"七股里","LIN":"15鄰","STREET":" ","SECT":" ","MAREA":"七股","LANE":" ","ALLEY":" ","HOUSE_NO":"３號之２２","E_COORD97":161201.47,"N_COORD97":2559241.46,"ADDRESS":"七股３號之２２","OBJECTID":43766},"geometry":{"x":161201.46999999974,"y":2559241.4600000046}},{"attributes":{"ID":43767,"DIS_CODE":0,"TOWNNAME":"佳里區","LI":"六安里","LIN":"15鄰","STREET":" ","SECT":" ","MAREA":"六安","LANE":" ","ALLEY":" ","HOUSE_NO":"１１７號之１２","E_COORD97":166381.82999999999,"N_COORD97":2564261.0899999999,"ADDRESS":"六安１１７號之１２","OBJECTID":43767},"geometry":{"x":166381.83000000007,"y":2564261.0900000017}},{"attributes":{"ID":43768,"DIS_CODE":0,"TOWNNAME":"東區","LI":"關聖里","LIN":"7鄰","STREET":"裕農路","SECT":" ","MAREA":" ","LANE":"６６８巷","ALLEY":"３５弄","HOUSE_NO":"１４號","E_COORD97":171778.75,"N_COORD97":2543048.1699999999,"ADDRESS":"裕農路６６８巷３５弄１４號","OBJECTID":43768},"geometry":{"x":171778.75000000093,"y":2543048.1700000018}},{"attributes":{"ID":43769,"DIS_CODE":0,"TOWNNAME":"東區","LI":"關聖里","LIN":"7鄰","STREET":"裕農路","SECT":" ","MAREA":" ","LANE":"６６８巷","ALLEY":"３５弄","HOUSE_NO":"３６號","E_COORD97":171801.03,"N_COORD97":2543089.21,"ADDRESS":"裕農路６６８巷３５弄３６號","OBJECTID":43769},"geometry":{"x":171801.03000000119,"y":2543089.2100000028}},{"attributes":{"ID":43770,"DIS_CODE":0,"TOWNNAME":"東區","LI":"關聖里","LIN":"7鄰","STREET":"裕農路","SECT":" ","MAREA":" ","LANE":"６６８巷","ALLEY":"３５弄","HOUSE_NO":"１２號","E_COORD97":171778.26999999999,"N_COORD97":2543064.0800000001,"ADDRESS":"裕農路６６８巷３５弄１２號","OBJECTID":43770},"geometry":{"x":171778.27000000048,"y":2543064.0799999982}},{"attributes":{"ID":43771,"DIS_CODE":0,"TOWNNAME":"東區","LI":"關聖里","LIN":"7鄰","STREET":"裕農路","SECT":" ","MAREA":" ","LANE":"６６８巷","ALLEY":"３５弄","HOUSE_NO":"１８號","E_COORD97":171786.39000000001,"N_COORD97":2543048.1699999999,"ADDRESS":"裕農路６６８巷３５弄１８號","OBJECTID":43771},"geometry":{"x":171786.38999999966,"y":2543048.1700000018}},{"attributes":{"ID":43772,"DIS_CODE":0,"TOWNNAME":"東區","LI":"關聖里","LIN":"7鄰","STREET":"裕農路","SECT":" ","MAREA":" ","LANE":"６６８巷","ALLEY":"３５弄","HOUSE_NO":"２０號","E_COORD97":171791.16,"N_COORD97":2543046.1000000001,"ADDRESS":"裕農路６６８巷３５弄２０號","OBJECTID":43772},"geometry":{"x":171791.16000000108,"y":2543046.0999999996}},{"attributes":{"ID":43773,"DIS_CODE":0,"TOWNNAME":"東區","LI":"關聖里","LIN":"7鄰","STREET":"裕農路","SECT":" ","MAREA":" ","LANE":"６６８巷","ALLEY":"３５弄","HOUSE_NO":"２號","E_COORD97":171777.95000000001,"N_COORD97":2543089.8399999999,"ADDRESS":"裕農路６６８巷３５弄２號","OBJECTID":43773},"geometry":{"x":171777.95000000112,"y":2543089.8400000017}},{"attributes":{"ID":43774,"DIS_CODE":0,"TOWNNAME":"東區","LI":"關聖里","LIN":"7鄰","STREET":"裕農路","SECT":" ","MAREA":" ","LANE":"６６８巷","ALLEY":"３５弄","HOUSE_NO":"３０號","E_COORD97":171798.95999999999,"N_COORD97":2543072.0299999998,"ADDRESS":"裕農路６６８巷３５弄３０號","OBJECTID":43774},"geometry":{"x":171798.96000000183,"y":2543072.0300000012}},{"attributes":{"ID":43775,"DIS_CODE":0,"TOWNNAME":"東區","LI":"關聖里","LIN":"7鄰","STREET":"裕農路","SECT":" ","MAREA":" ","LANE":"６６８巷","ALLEY":"３５弄","HOUSE_NO":"３２號","E_COORD97":171800.23999999999,"N_COORD97":2543078.3900000001,"ADDRESS":"裕農路６６８巷３５弄３２號","OBJECTID":43775},"geometry":{"x":171800.24000000022,"y":2543078.3900000006}},{"attributes":{"ID":43776,"DIS_CODE":0,"TOWNNAME":"東區","LI":"關聖里","LIN":"7鄰","STREET":"裕農路","SECT":" ","MAREA":" ","LANE":"６６８巷","ALLEY":"３５弄","HOUSE_NO":"３４號","E_COORD97":171796.57000000001,"N_COORD97":2543091.4300000002,"ADDRESS":"裕農路６６８巷３５弄３４號","OBJECTID":43776},"geometry":{"x":171796.5700000003,"y":2543091.4299999997}},{"attributes":{"ID":43777,"DIS_CODE":0,"TOWNNAME":"東區","LI":"關聖里","LIN":"7鄰","STREET":"裕農路","SECT":" ","MAREA":" ","LANE":"６６８巷","ALLEY":"３５弄","HOUSE_NO":"３８號","E_COORD97":171804.22,"N_COORD97":2543092.23,"ADDRESS":"裕農路６６８巷３５弄３８號","OBJECTID":43777},"geometry":{"x":171804.22000000067,"y":2543092.2300000023}},{"attributes":{"ID":43778,"DIS_CODE":0,"TOWNNAME":"東區","LI":"關聖里","LIN":"7鄰","STREET":"裕農路","SECT":" ","MAREA":" ","LANE":"６６８巷","ALLEY":"３５弄","HOUSE_NO":"４號","E_COORD97":171782.73000000001,"N_COORD97":2543091.9100000001,"ADDRESS":"裕農路６６８巷３５弄４號","OBJECTID":43778},"geometry":{"x":171782.73000000138,"y":2543091.9100000001}},{"attributes":{"ID":43779,"DIS_CODE":0,"TOWNNAME":"東區","LI":"關聖里","LIN":"7鄰","STREET":"裕農路","SECT":" ","MAREA":" ","LANE":"６６８巷","ALLEY":"３５弄","HOUSE_NO":"８號","E_COORD97":171781.92999999999,"N_COORD97":2543077.6000000001,"ADDRESS":"裕農路６６８巷３５弄８號","OBJECTID":43779},"geometry":{"x":171781.93000000156,"y":2543077.6000000015}},{"attributes":{"ID":43780,"DIS_CODE":0,"TOWNNAME":"東區","LI":"關聖里","LIN":"7鄰","STREET":"裕農路","SECT":" ","MAREA":" ","LANE":"６６８巷","ALLEY":"３５弄","HOUSE_NO":"１０號","E_COORD97":171784.32000000001,"N_COORD97":2543067.5800000001,"ADDRESS":"裕農路６６８巷３５弄１０號","OBJECTID":43780},"geometry":{"x":171784.3200000003,"y":2543067.5800000038}},{"attributes":{"ID":43781,"DIS_CODE":0,"TOWNNAME":"東區","LI":"關聖里","LIN":"7鄰","STREET":"裕農路","SECT":" ","MAREA":" ","LANE":"６６８巷","ALLEY":"３５弄","HOUSE_NO":"１６號","E_COORD97":171782.73000000001,"N_COORD97":2543045.3100000001,"ADDRESS":"裕農路６６８巷３５弄１６號","OBJECTID":43781},"geometry":{"x":171782.73000000138,"y":2543045.3100000005}},{"attributes":{"ID":43782,"DIS_CODE":0,"TOWNNAME":"東區","LI":"裕農里","LIN":"7鄰","STREET":"裕農路","SECT":" ","MAREA":" ","LANE":"３４５巷","ALLEY":"１９弄","HOUSE_NO":"１０號","E_COORD97":170945.84,"N_COORD97":2543131.1299999999,"ADDRESS":"裕農路３４５巷１９弄１０號","OBJECTID":43782},"geometry":{"x":170945.84000000078,"y":2543131.1300000008}},{"attributes":{"ID":43783,"DIS_CODE":0,"TOWNNAME":"東區","LI":"東安里","LIN":"7鄰","STREET":"長榮路","SECT":"二段","MAREA":" ","LANE":"３２巷","ALLEY":"４６弄","HOUSE_NO":"３２號","E_COORD97":170090.12,"N_COORD97":2543050.21,"ADDRESS":"長榮路二段３２巷４６弄３２號","OBJECTID":43783},"geometry":{"x":170090.12000000011,"y":2543050.2100000009}},{"attributes":{"ID":43784,"DIS_CODE":0,"TOWNNAME":"東區","LI":"東安里","LIN":"7鄰","STREET":"長榮路","SECT":"二段","MAREA":" ","LANE":"３２巷","ALLEY":"４６弄","HOUSE_NO":"４０號","E_COORD97":170086.97,"N_COORD97":2543043.1800000002,"ADDRESS":"長榮路二段３２巷４６弄４０號","OBJECTID":43784},"geometry":{"x":170086.97000000067,"y":2543043.1800000016}},{"attributes":{"ID":43785,"DIS_CODE":0,"TOWNNAME":"東區","LI":"東安里","LIN":"7鄰","STREET":"長榮路","SECT":"二段","MAREA":" ","LANE":"３２巷","ALLEY":"４６弄","HOUSE_NO":"４２號","E_COORD97":170091.03,"N_COORD97":2543044.6800000002,"ADDRESS":"長榮路二段３２巷４６弄４２號","OBJECTID":43785},"geometry":{"x":170091.03000000026,"y":2543044.6799999997}},{"attributes":{"ID":43786,"DIS_CODE":0,"TOWNNAME":"東區","LI":"東安里","LIN":"7鄰","STREET":"長榮路","SECT":"二段","MAREA":" ","LANE":"３２巷","ALLEY":"４６弄","HOUSE_NO":"４６號","E_COORD97":170093.04999999999,"N_COORD97":2543045.8900000001,"ADDRESS":"長榮路二段３２巷４６弄４６號","OBJECTID":43786},"geometry":{"x":170093.05000000075,"y":2543045.8900000043}},{"attributes":{"ID":43787,"DIS_CODE":0,"TOWNNAME":"東區","LI":"東安里","LIN":"7鄰","STREET":"長榮路","SECT":"二段","MAREA":" ","LANE":"３２巷","ALLEY":"４６弄","HOUSE_NO":"１９３號","E_COORD97":170124.22,"N_COORD97":2543046.1299999999,"ADDRESS":"長榮路二段３２巷４６弄１９３號","OBJECTID":43787},"geometry":{"x":170124.22000000067,"y":2543046.1300000008}},{"attributes":{"ID":43788,"DIS_CODE":0,"TOWNNAME":"東區","LI":"東安里","LIN":"7鄰","STREET":"長榮路","SECT":"二段","MAREA":" ","LANE":"３２巷","ALLEY":"４６弄","HOUSE_NO":"１８７號","E_COORD97":170116.70000000001,"N_COORD97":2543049.7999999998,"ADDRESS":"長榮路二段３２巷４６弄１８７號","OBJECTID":43788},"geometry":{"x":170116.70000000019,"y":2543049.7999999989}},{"attributes":{"ID":43789,"DIS_CODE":0,"TOWNNAME":"下營區","LI":"開化里","LIN":"15鄰","STREET":" ","SECT":" ","MAREA":"中營","LANE":" ","ALLEY":" ","HOUSE_NO":"６３３號","E_COORD97":176273.75,"N_COORD97":2568389.3100000001,"ADDRESS":"中營６３３號","OBJECTID":43789},"geometry":{"x":176273.75,"y":2568389.3100000042}},{"attributes":{"ID":43790,"DIS_CODE":0,"TOWNNAME":"東區","LI":"東安里","LIN":"7鄰","STREET":"長榮路","SECT":"二段","MAREA":" ","LANE":"３２巷","ALLEY":"４６弄","HOUSE_NO":"１９９號","E_COORD97":170137.57000000001,"N_COORD97":2543037.1200000001,"ADDRESS":"長榮路二段３２巷４６弄１９９號","OBJECTID":43790},"geometry":{"x":170137.57000000123,"y":2543037.120000001}},{"attributes":{"ID":43791,"DIS_CODE":0,"TOWNNAME":"東區","LI":"東安里","LIN":"7鄰","STREET":"長榮路","SECT":"二段","MAREA":" ","LANE":"３２巷","ALLEY":"４６弄","HOUSE_NO":"２８號","E_COORD97":170100.73999999999,"N_COORD97":2543054.9300000002,"ADDRESS":"長榮路二段３２巷４６弄２８號","OBJECTID":43791},"geometry":{"x":170100.74000000115,"y":2543054.9300000034}},{"attributes":{"ID":43792,"DIS_CODE":0,"TOWNNAME":"東區","LI":"東安里","LIN":"7鄰","STREET":"長榮路","SECT":"二段","MAREA":" ","LANE":"３２巷","ALLEY":"４６弄","HOUSE_NO":"３０號","E_COORD97":170095.84,"N_COORD97":2543052.6600000001,"ADDRESS":"長榮路二段３２巷４６弄３０號","OBJECTID":43792},"geometry":{"x":170095.84000000171,"y":2543052.6600000001}},{"attributes":{"ID":43793,"DIS_CODE":0,"TOWNNAME":"東區","LI":"東安里","LIN":"7鄰","STREET":"長榮路","SECT":"二段","MAREA":" ","LANE":"３２巷","ALLEY":"４６弄","HOUSE_NO":"３４號","E_COORD97":170086.03,"N_COORD97":2543048.3900000001,"ADDRESS":"長榮路二段３２巷４６弄３４號","OBJECTID":43793},"geometry":{"x":170086.03000000026,"y":2543048.3900000006}},{"attributes":{"ID":43794,"DIS_CODE":0,"TOWNNAME":"東區","LI":"東安里","LIN":"7鄰","STREET":"長榮路","SECT":"二段","MAREA":" ","LANE":"３２巷","ALLEY":"４６弄","HOUSE_NO":"４８號","E_COORD97":170098.60999999999,"N_COORD97":2543048.4700000002,"ADDRESS":"長榮路二段３２巷４６弄４８號","OBJECTID":43794},"geometry":{"x":170098.61000000127,"y":2543048.4699999988}},{"attributes":{"ID":43795,"DIS_CODE":0,"TOWNNAME":"東區","LI":"東安里","LIN":"7鄰","STREET":"長榮路","SECT":"二段","MAREA":" ","LANE":"３２巷","ALLEY":"４６弄","HOUSE_NO":"５０號","E_COORD97":170100.35000000001,"N_COORD97":2543049.8700000001,"ADDRESS":"長榮路二段３２巷４６弄５０號","OBJECTID":43795},"geometry":{"x":170100.34999999963,"y":2543049.8700000048}},{"attributes":{"ID":43796,"DIS_CODE":0,"TOWNNAME":"新營區","LI":"民生里","LIN":"7鄰","STREET":"中華路","SECT":" ","MAREA":" ","LANE":" ","ALLEY":" ","HOUSE_NO":"８１號之６","E_COORD97":179343.73000000001,"N_COORD97":2578152.8500000001,"ADDRESS":"中華路８１號之６","OBJECTID":43796},"geometry":{"x":179343.73000000045,"y":2578152.8500000015}},{"attributes":{"ID":43797,"DIS_CODE":0,"TOWNNAME":"佳里區","LI":"六安里","LIN":"15鄰","STREET":" ","SECT":" ","MAREA":"六安","LANE":" ","ALLEY":" ","HOUSE_NO":"１１７號之１","E_COORD97":166027.85000000001,"N_COORD97":2564294.8199999998,"ADDRESS":"六安１１７號之１","OBJECTID":43797},"geometry":{"x":166027.85000000056,"y":2564294.8200000022}},{"attributes":{"ID":43798,"DIS_CODE":0,"TOWNNAME":"東區","LI":"東安里","LIN":"7鄰","STREET":"長榮路","SECT":"二段","MAREA":" ","LANE":"３２巷","ALLEY":"４６弄","HOUSE_NO":"５２號","E_COORD97":170103.29999999999,"N_COORD97":2543050.52,"ADDRESS":"長榮路二段３２巷４６弄５２號","OBJECTID":43798},"geometry":{"x":170103.30000000075,"y":2543050.5200000033}},{"attributes":{"ID":43799,"DIS_CODE":0,"TOWNNAME":"永康區","LI":"西橋里","LIN":"7鄰","STREET":"中山南路","SECT":" ","MAREA":" ","LANE":"４３巷","ALLEY":"４０弄","HOUSE_NO":"１５號","E_COORD97":170754.48000000001,"N_COORD97":2545994,"ADDRESS":"中山南路４３巷４０弄１５號","OBJECTID":43799},"geometry":{"x":170754.48000000045,"y":2545994.0000000037}},{"attributes":{"ID":43800,"DIS_CODE":0,"TOWNNAME":"永康區","LI":"甲頂里","LIN":"7鄰","STREET":"中正南路","SECT":" ","MAREA":" ","LANE":"１６８巷","ALLEY":"２弄","HOUSE_NO":"２９號","E_COORD97":169911.32999999999,"N_COORD97":2546897.9900000002,"ADDRESS":"中正南路１６８巷２弄２９號","OBJECTID":43800},"geometry":{"x":169911.32999999914,"y":2546897.9900000002}}]}