{"displayFieldName":"TOWNNAME","fieldAliases":{"ID":"ID","DIS_CODE":"DIS_CODE","TOWNNAME":"TOWNNAME","LI":"LI","LIN":"LIN","STREET":"STREET","SECT":"SECT","MAREA":"MAREA","LANE":"LANE","ALLEY":"ALLEY","HOUSE_NO":"HOUSE_NO","E_COORD97":"E_COORD97","N_COORD97":"N_COORD97","ADDRESS":"ADDRESS","OBJECTID":"OBJECTID"},"geometryType":"esriGeometryPoint","spatialReference":{"wkid":102443,"latestWkid":3826},"fields":[{"name":"ID","type":"esriFieldTypeDouble","alias":"ID"},{"name":"DIS_CODE","type":"esriFieldTypeInteger","alias":"DIS_CODE"},{"name":"TOWNNAME","type":"esriFieldTypeString","alias":"TOWNNAME","length":8},{"name":"LI","type":"esriFieldTypeString","alias":"LI","length":8},{"name":"LIN","type":"esriFieldTypeString","alias":"LIN","length":12},{"name":"STREET","type":"esriFieldTypeString","alias":"STREET","length":20},{"name":"SECT","type":"esriFieldTypeString","alias":"SECT","length":8},{"name":"MAREA","type":"esriFieldTypeString","alias":"MAREA","length":12},{"name":"LANE","type":"esriFieldTypeString","alias":"LANE","length":10},{"name":"ALLEY","type":"esriFieldTypeString","alias":"ALLEY","length":10},{"name":"HOUSE_NO","type":"esriFieldTypeString","alias":"HOUSE_NO","length":20},{"name":"E_COORD97","type":"esriFieldTypeDouble","alias":"E_COORD97"},{"name":"N_COORD97","type":"esriFieldTypeDouble","alias":"N_COORD97"},{"name":"ADDRESS","type":"esriFieldTypeString","alias":"ADDRESS","length":50},{"name":"OBJECTID","type":"esriFieldTypeOID","alias":"OBJECTID"}],"features":[{"attributes":{"ID":311409,"DIS_CODE":0,"TOWNNAME":"白河區","LI":"秀祐里","LIN":"4鄰","STREET":" ","SECT":" ","MAREA":"頂秀祐","LANE":" ","ALLEY":" ","HOUSE_NO":"５８號","E_COORD97":188855.75,"N_COORD97":2583319.98,"ADDRESS":"頂秀祐５８號","OBJECTID":311401},"geometry":{"x":188855.75000000186,"y":2583319.9800000023}},{"attributes":{"ID":311410,"DIS_CODE":0,"TOWNNAME":"白河區","LI":"秀祐里","LIN":"4鄰","STREET":" ","SECT":" ","MAREA":"頂秀祐","LANE":" ","ALLEY":" ","HOUSE_NO":"５９之３號","E_COORD97":188841.5,"N_COORD97":2583333.2000000002,"ADDRESS":"頂秀祐５９之３號","OBJECTID":311402},"geometry":{"x":188841.5,"y":2583333.1999999993}},{"attributes":{"ID":311411,"DIS_CODE":0,"TOWNNAME":"白河區","LI":"秀祐里","LIN":"4鄰","STREET":" ","SECT":" ","MAREA":"頂秀祐","LANE":" ","ALLEY":" ","HOUSE_NO":"５９號","E_COORD97":188836.79000000001,"N_COORD97":2583324.71,"ADDRESS":"頂秀祐５９號","OBJECTID":311403},"geometry":{"x":188836.7900000019,"y":2583324.7100000009}},{"attributes":{"ID":311412,"DIS_CODE":0,"TOWNNAME":"白河區","LI":"秀祐里","LIN":"4鄰","STREET":" ","SECT":" ","MAREA":"頂秀祐","LANE":" ","ALLEY":" ","HOUSE_NO":"６０之１０號","E_COORD97":188775.70000000001,"N_COORD97":2583365.23,"ADDRESS":"頂秀祐６０之１０號","OBJECTID":311404},"geometry":{"x":188775.70000000019,"y":2583365.2300000042}},{"attributes":{"ID":311413,"DIS_CODE":0,"TOWNNAME":"白河區","LI":"秀祐里","LIN":"4鄰","STREET":" ","SECT":" ","MAREA":"頂秀祐","LANE":" ","ALLEY":" ","HOUSE_NO":"６０之１１號","E_COORD97":188777.26999999999,"N_COORD97":2583369.0099999998,"ADDRESS":"頂秀祐６０之１１號","OBJECTID":311405},"geometry":{"x":188777.27000000048,"y":2583369.0099999998}},{"attributes":{"ID":311414,"DIS_CODE":0,"TOWNNAME":"白河區","LI":"秀祐里","LIN":"4鄰","STREET":" ","SECT":" ","MAREA":"頂秀祐","LANE":" ","ALLEY":" ","HOUSE_NO":"６０之１２號","E_COORD97":188778.73000000001,"N_COORD97":2583373.6600000001,"ADDRESS":"頂秀祐６０之１２號","OBJECTID":311406},"geometry":{"x":188778.73000000138,"y":2583373.660000002}},{"attributes":{"ID":311415,"DIS_CODE":0,"TOWNNAME":"白河區","LI":"秀祐里","LIN":"4鄰","STREET":" ","SECT":" ","MAREA":"頂秀祐","LANE":" ","ALLEY":" ","HOUSE_NO":"６０之１３號","E_COORD97":188779.41,"N_COORD97":2583377.9500000002,"ADDRESS":"頂秀祐６０之１３號","OBJECTID":311407},"geometry":{"x":188779.41000000015,"y":2583377.9499999993}},{"attributes":{"ID":311416,"DIS_CODE":0,"TOWNNAME":"白河區","LI":"秀祐里","LIN":"4鄰","STREET":" ","SECT":" ","MAREA":"頂秀祐","LANE":" ","ALLEY":" ","HOUSE_NO":"６０之１４號","E_COORD97":188780.85999999999,"N_COORD97":2583381.73,"ADDRESS":"頂秀祐６０之１４號","OBJECTID":311408},"geometry":{"x":188780.86000000127,"y":2583381.7300000004}},{"attributes":{"ID":311417,"DIS_CODE":0,"TOWNNAME":"東區","LI":"莊敬里","LIN":"7鄰","STREET":"東光路","SECT":"二段","MAREA":" ","LANE":"１２１巷","ALLEY":" ","HOUSE_NO":"５１號三樓","E_COORD97":171099.66,"N_COORD97":2544196.1000000001,"ADDRESS":"東光路二段１２１巷５１號三樓","OBJECTID":311409},"geometry":{"x":171099.66000000108,"y":2544196.1000000034}},{"attributes":{"ID":311418,"DIS_CODE":0,"TOWNNAME":"白河區","LI":"秀祐里","LIN":"4鄰","STREET":" ","SECT":" ","MAREA":"頂秀祐","LANE":" ","ALLEY":" ","HOUSE_NO":"６０之１５號","E_COORD97":188782.20999999999,"N_COORD97":2583386.0600000001,"ADDRESS":"頂秀祐６０之１５號","OBJECTID":311410},"geometry":{"x":188782.20999999996,"y":2583386.0600000005}},{"attributes":{"ID":311419,"DIS_CODE":0,"TOWNNAME":"白河區","LI":"秀祐里","LIN":"4鄰","STREET":" ","SECT":" ","MAREA":"頂秀祐","LANE":" ","ALLEY":" ","HOUSE_NO":"６０之１６號","E_COORD97":188783.82000000001,"N_COORD97":2583390.7999999998,"ADDRESS":"頂秀祐６０之１６號","OBJECTID":311411},"geometry":{"x":188783.8200000003,"y":2583390.8000000007}},{"attributes":{"ID":311420,"DIS_CODE":0,"TOWNNAME":"白河區","LI":"秀祐里","LIN":"4鄰","STREET":" ","SECT":" ","MAREA":"頂秀祐","LANE":" ","ALLEY":" ","HOUSE_NO":"６０之１７號","E_COORD97":188785.04000000001,"N_COORD97":2583395.0499999998,"ADDRESS":"頂秀祐６０之１７號","OBJECTID":311412},"geometry":{"x":188785.04000000097,"y":2583395.0500000026}},{"attributes":{"ID":311421,"DIS_CODE":0,"TOWNNAME":"白河區","LI":"秀祐里","LIN":"4鄰","STREET":" ","SECT":" ","MAREA":"頂秀祐","LANE":" ","ALLEY":" ","HOUSE_NO":"６０之１８號","E_COORD97":188787.04999999999,"N_COORD97":2583400.1699999999,"ADDRESS":"頂秀祐６０之１８號","OBJECTID":311413},"geometry":{"x":188787.04999999981,"y":2583400.1700000018}},{"attributes":{"ID":311422,"DIS_CODE":0,"TOWNNAME":"東區","LI":"莊敬里","LIN":"7鄰","STREET":"東光路","SECT":"二段","MAREA":" ","LANE":"１２１巷","ALLEY":" ","HOUSE_NO":"５１號四樓","E_COORD97":171099.66,"N_COORD97":2544196.1000000001,"ADDRESS":"東光路二段１２１巷５１號四樓","OBJECTID":311414},"geometry":{"x":171099.66000000108,"y":2544196.1000000034}},{"attributes":{"ID":311423,"DIS_CODE":0,"TOWNNAME":"東區","LI":"莊敬里","LIN":"7鄰","STREET":"東光路","SECT":"二段","MAREA":" ","LANE":"１２１巷","ALLEY":" ","HOUSE_NO":"５１號五樓","E_COORD97":171099.66,"N_COORD97":2544196.1000000001,"ADDRESS":"東光路二段１２１巷５１號五樓","OBJECTID":311415},"geometry":{"x":171099.66000000108,"y":2544196.1000000034}},{"attributes":{"ID":311424,"DIS_CODE":0,"TOWNNAME":"東區","LI":"莊敬里","LIN":"7鄰","STREET":"東光路","SECT":"二段","MAREA":" ","LANE":"１２１巷","ALLEY":" ","HOUSE_NO":"５１號六樓","E_COORD97":171099.66,"N_COORD97":2544196.1000000001,"ADDRESS":"東光路二段１２１巷５１號六樓","OBJECTID":311416},"geometry":{"x":171099.66000000108,"y":2544196.1000000034}},{"attributes":{"ID":311425,"DIS_CODE":0,"TOWNNAME":"佳里區","LI":"通興里","LIN":"4鄰","STREET":" ","SECT":" ","MAREA":"東勢寮","LANE":" ","ALLEY":" ","HOUSE_NO":"３號之１","E_COORD97":163923.03,"N_COORD97":2559978,"ADDRESS":"東勢寮３號之１","OBJECTID":311417},"geometry":{"x":163923.03000000119,"y":2559978}},{"attributes":{"ID":311426,"DIS_CODE":0,"TOWNNAME":"東區","LI":"莊敬里","LIN":"7鄰","STREET":"東光路","SECT":"二段","MAREA":" ","LANE":"１２１巷","ALLEY":" ","HOUSE_NO":"５１號七樓","E_COORD97":171099.66,"N_COORD97":2544196.1000000001,"ADDRESS":"東光路二段１２１巷５１號七樓","OBJECTID":311418},"geometry":{"x":171099.66000000108,"y":2544196.1000000034}},{"attributes":{"ID":311427,"DIS_CODE":0,"TOWNNAME":"安南區","LI":"新順里","LIN":"25鄰","STREET":"興安路","SECT":" ","MAREA":" ","LANE":" ","ALLEY":" ","HOUSE_NO":"５號","E_COORD97":169598.42000000001,"N_COORD97":2549046.96,"ADDRESS":"興安路５號","OBJECTID":311419},"geometry":{"x":169598.41999999993,"y":2549046.9600000028}},{"attributes":{"ID":311428,"DIS_CODE":0,"TOWNNAME":"東區","LI":"莊敬里","LIN":"7鄰","STREET":"東光路","SECT":"二段","MAREA":" ","LANE":"１２１巷","ALLEY":" ","HOUSE_NO":"５１號八樓","E_COORD97":171099.66,"N_COORD97":2544196.1000000001,"ADDRESS":"東光路二段１２１巷５１號八樓","OBJECTID":311420},"geometry":{"x":171099.66000000108,"y":2544196.1000000034}},{"attributes":{"ID":311429,"DIS_CODE":0,"TOWNNAME":"東區","LI":"莊敬里","LIN":"7鄰","STREET":"東光路","SECT":"二段","MAREA":" ","LANE":"１２１巷","ALLEY":" ","HOUSE_NO":"５１號二樓之１","E_COORD97":171099.66,"N_COORD97":2544196.1000000001,"ADDRESS":"東光路二段１２１巷５１號二樓之１","OBJECTID":311421},"geometry":{"x":171099.66000000108,"y":2544196.1000000034}},{"attributes":{"ID":311430,"DIS_CODE":0,"TOWNNAME":"東區","LI":"莊敬里","LIN":"7鄰","STREET":"東光路","SECT":"二段","MAREA":" ","LANE":"１２１巷","ALLEY":" ","HOUSE_NO":"５１號三樓之１","E_COORD97":171099.66,"N_COORD97":2544196.1000000001,"ADDRESS":"東光路二段１２１巷５１號三樓之１","OBJECTID":311422},"geometry":{"x":171099.66000000108,"y":2544196.1000000034}},{"attributes":{"ID":311431,"DIS_CODE":0,"TOWNNAME":"中西區","LI":"福安里","LIN":"7鄰","STREET":"府前路","SECT":"一段","MAREA":" ","LANE":"３４２巷","ALLEY":" ","HOUSE_NO":"１５號一樓之１","E_COORD97":167815.60999999999,"N_COORD97":2543512.6000000001,"ADDRESS":"府前路一段３４２巷１５號一樓之１","OBJECTID":311423},"geometry":{"x":167815.61000000034,"y":2543512.6000000015}},{"attributes":{"ID":311432,"DIS_CODE":0,"TOWNNAME":"中西區","LI":"福安里","LIN":"7鄰","STREET":"府前路","SECT":"一段","MAREA":" ","LANE":"３４２巷","ALLEY":" ","HOUSE_NO":"１５號一樓之２","E_COORD97":167803.51999999999,"N_COORD97":2543512.6000000001,"ADDRESS":"府前路一段３４２巷１５號一樓之２","OBJECTID":311424},"geometry":{"x":167803.51999999955,"y":2543512.6000000015}},{"attributes":{"ID":311433,"DIS_CODE":0,"TOWNNAME":"麻豆區","LI":"總榮里","LIN":"1鄰","STREET":" ","SECT":" ","MAREA":"總爺\u25A0","LANE":" ","ALLEY":" ","HOUSE_NO":"１００號","E_COORD97":174741.92999999999,"N_COORD97":2564701.6600000001,"ADDRESS":"總爺\u25A0１００號","OBJECTID":311425},"geometry":{"x":174741.93000000063,"y":2564701.660000002}},{"attributes":{"ID":311434,"DIS_CODE":0,"TOWNNAME":"麻豆區","LI":"總榮里","LIN":"4鄰","STREET":" ","SECT":" ","MAREA":"總爺\u25A0","LANE":" ","ALLEY":" ","HOUSE_NO":"３６號","E_COORD97":175071.53,"N_COORD97":2564478.4500000002,"ADDRESS":"總爺\u25A0３６號","OBJECTID":311426},"geometry":{"x":175071.53000000026,"y":2564478.4500000011}},{"attributes":{"ID":311435,"DIS_CODE":0,"TOWNNAME":"中西區","LI":"福安里","LIN":"7鄰","STREET":"府前路","SECT":"一段","MAREA":" ","LANE":"３４２巷","ALLEY":" ","HOUSE_NO":"１５號二樓之１","E_COORD97":167815.60999999999,"N_COORD97":2543512.6000000001,"ADDRESS":"府前路一段３４２巷１５號二樓之１","OBJECTID":311427},"geometry":{"x":167815.61000000034,"y":2543512.6000000015}},{"attributes":{"ID":311436,"DIS_CODE":0,"TOWNNAME":"麻豆區","LI":"總榮里","LIN":"4鄰","STREET":" ","SECT":" ","MAREA":"總爺\u25A0","LANE":" ","ALLEY":" ","HOUSE_NO":"３７號","E_COORD97":175070.29999999999,"N_COORD97":2564463.1000000001,"ADDRESS":"總爺\u25A0３７號","OBJECTID":311428},"geometry":{"x":175070.30000000075,"y":2564463.0999999996}},{"attributes":{"ID":311437,"DIS_CODE":0,"TOWNNAME":"麻豆區","LI":"總榮里","LIN":"4鄰","STREET":" ","SECT":" ","MAREA":"總爺\u25A0","LANE":" ","ALLEY":" ","HOUSE_NO":"３９號之１","E_COORD97":175086.84,"N_COORD97":2564452.3199999998,"ADDRESS":"總爺\u25A0３９號之１","OBJECTID":311429},"geometry":{"x":175086.84000000078,"y":2564452.3200000003}},{"attributes":{"ID":311438,"DIS_CODE":0,"TOWNNAME":"麻豆區","LI":"總榮里","LIN":"4鄰","STREET":" ","SECT":" ","MAREA":"總爺\u25A0","LANE":" ","ALLEY":" ","HOUSE_NO":"３９號","E_COORD97":175078.14000000001,"N_COORD97":2564449.1400000001,"ADDRESS":"總爺\u25A0３９號","OBJECTID":311430},"geometry":{"x":175078.1400000006,"y":2564449.1400000025}},{"attributes":{"ID":311439,"DIS_CODE":0,"TOWNNAME":"麻豆區","LI":"總榮里","LIN":"4鄰","STREET":" ","SECT":" ","MAREA":"總爺\u25A0","LANE":" ","ALLEY":" ","HOUSE_NO":"４０號之１","E_COORD97":175122.32000000001,"N_COORD97":2564439.8799999999,"ADDRESS":"總爺\u25A0４０號之１","OBJECTID":311431},"geometry":{"x":175122.3200000003,"y":2564439.879999999}},{"attributes":{"ID":311440,"DIS_CODE":0,"TOWNNAME":"麻豆區","LI":"總榮里","LIN":"4鄰","STREET":" ","SECT":" ","MAREA":"總爺\u25A0","LANE":" ","ALLEY":" ","HOUSE_NO":"４０號之２","E_COORD97":175096.39999999999,"N_COORD97":2564439.1600000001,"ADDRESS":"總爺\u25A0４０號之２","OBJECTID":311432},"geometry":{"x":175096.40000000037,"y":2564439.1600000001}},{"attributes":{"ID":311441,"DIS_CODE":0,"TOWNNAME":"安定區","LI":"新吉里","LIN":"12鄰","STREET":" ","SECT":" ","MAREA":"新吉","LANE":" ","ALLEY":" ","HOUSE_NO":"９９號","E_COORD97":169363.67000000001,"N_COORD97":2553973.25,"ADDRESS":"新吉９９號","OBJECTID":311433},"geometry":{"x":169363.67000000086,"y":2553973.2500000037}},{"attributes":{"ID":311442,"DIS_CODE":0,"TOWNNAME":"安定區","LI":"蘇林里","LIN":"13鄰","STREET":" ","SECT":" ","MAREA":"蘇厝","LANE":" ","ALLEY":" ","HOUSE_NO":"１４８之１號","E_COORD97":173470.62,"N_COORD97":2558906.2999999998,"ADDRESS":"蘇厝１４８之１號","OBJECTID":311434},"geometry":{"x":173470.62000000011,"y":2558906.3000000007}},{"attributes":{"ID":311443,"DIS_CODE":0,"TOWNNAME":"安南區","LI":"佃東里","LIN":"8鄰","STREET":"十二佃路","SECT":" ","MAREA":" ","LANE":"８１巷","ALLEY":" ","HOUSE_NO":"４９號","E_COORD97":165386,"N_COORD97":2551999.8900000001,"ADDRESS":"十二佃路８１巷４９號","OBJECTID":311435},"geometry":{"x":165386.00000000093,"y":2551999.8900000043}},{"attributes":{"ID":311444,"DIS_CODE":0,"TOWNNAME":"安南區","LI":"佃東里","LIN":"8鄰","STREET":"十二佃路","SECT":" ","MAREA":" ","LANE":"８１巷","ALLEY":" ","HOUSE_NO":"４３號","E_COORD97":165379.92999999999,"N_COORD97":2552022.7999999998,"ADDRESS":"十二佃路８１巷４３號","OBJECTID":311436},"geometry":{"x":165379.93000000063,"y":2552022.8000000007}},{"attributes":{"ID":311445,"DIS_CODE":0,"TOWNNAME":"安南區","LI":"佃東里","LIN":"8鄰","STREET":"十二佃路","SECT":" ","MAREA":" ","LANE":"８１巷","ALLEY":" ","HOUSE_NO":"４０號","E_COORD97":165359.03,"N_COORD97":2552022.7999999998,"ADDRESS":"十二佃路８１巷４０號","OBJECTID":311437},"geometry":{"x":165359.03000000119,"y":2552022.8000000007}},{"attributes":{"ID":311446,"DIS_CODE":0,"TOWNNAME":"安南區","LI":"佃東里","LIN":"8鄰","STREET":"十二佃路","SECT":" ","MAREA":" ","LANE":"４５巷","ALLEY":" ","HOUSE_NO":"２８號","E_COORD97":165429.70999999999,"N_COORD97":2552059.21,"ADDRESS":"十二佃路４５巷２８號","OBJECTID":311438},"geometry":{"x":165429.70999999996,"y":2552059.2100000046}},{"attributes":{"ID":311447,"DIS_CODE":0,"TOWNNAME":"安定區","LI":"蘇厝里","LIN":"13鄰","STREET":" ","SECT":" ","MAREA":"蘇厝","LANE":" ","ALLEY":" ","HOUSE_NO":"４０８號","E_COORD97":173036.32000000001,"N_COORD97":2558850.25,"ADDRESS":"蘇厝４０８號","OBJECTID":311439},"geometry":{"x":173036.32000000123,"y":2558850.2500000019}},{"attributes":{"ID":311448,"DIS_CODE":0,"TOWNNAME":"安南區","LI":"佃東里","LIN":"8鄰","STREET":"十二佃路","SECT":" ","MAREA":" ","LANE":"４５巷","ALLEY":" ","HOUSE_NO":"３０號","E_COORD97":165436.95999999999,"N_COORD97":2552042.5899999999,"ADDRESS":"十二佃路４５巷３０號","OBJECTID":311440},"geometry":{"x":165436.96000000089,"y":2552042.5900000017}},{"attributes":{"ID":311449,"DIS_CODE":0,"TOWNNAME":"中西區","LI":"福安里","LIN":"7鄰","STREET":"府前路","SECT":"一段","MAREA":" ","LANE":"３４２巷","ALLEY":" ","HOUSE_NO":"１５號二樓之２","E_COORD97":167803.51999999999,"N_COORD97":2543512.6000000001,"ADDRESS":"府前路一段３４２巷１５號二樓之２","OBJECTID":311441},"geometry":{"x":167803.51999999955,"y":2543512.6000000015}},{"attributes":{"ID":311450,"DIS_CODE":0,"TOWNNAME":"中西區","LI":"福安里","LIN":"7鄰","STREET":"府前路","SECT":"一段","MAREA":" ","LANE":"３４２巷","ALLEY":" ","HOUSE_NO":"１５號三樓之１","E_COORD97":167815.60999999999,"N_COORD97":2543512.6000000001,"ADDRESS":"府前路一段３４２巷１５號三樓之１","OBJECTID":311442},"geometry":{"x":167815.61000000034,"y":2543512.6000000015}},{"attributes":{"ID":311451,"DIS_CODE":0,"TOWNNAME":"中西區","LI":"福安里","LIN":"7鄰","STREET":"府前路","SECT":"一段","MAREA":" ","LANE":"３４２巷","ALLEY":" ","HOUSE_NO":"１５號三樓之２","E_COORD97":167803.51999999999,"N_COORD97":2543512.6000000001,"ADDRESS":"府前路一段３４２巷１５號三樓之２","OBJECTID":311443},"geometry":{"x":167803.51999999955,"y":2543512.6000000015}},{"attributes":{"ID":311452,"DIS_CODE":0,"TOWNNAME":"中西區","LI":"福安里","LIN":"7鄰","STREET":"府前路","SECT":"一段","MAREA":" ","LANE":"３４２巷","ALLEY":" ","HOUSE_NO":"１５號四樓之１","E_COORD97":167815.60999999999,"N_COORD97":2543512.6000000001,"ADDRESS":"府前路一段３４２巷１５號四樓之１","OBJECTID":311444},"geometry":{"x":167815.61000000034,"y":2543512.6000000015}},{"attributes":{"ID":311453,"DIS_CODE":0,"TOWNNAME":"中西區","LI":"福安里","LIN":"7鄰","STREET":"府前路","SECT":"一段","MAREA":" ","LANE":"３４２巷","ALLEY":" ","HOUSE_NO":"１５號四樓之２","E_COORD97":167803.51999999999,"N_COORD97":2543512.6000000001,"ADDRESS":"府前路一段３４２巷１５號四樓之２","OBJECTID":311445},"geometry":{"x":167803.51999999955,"y":2543512.6000000015}},{"attributes":{"ID":311454,"DIS_CODE":0,"TOWNNAME":"仁德區","LI":"新田里","LIN":"17鄰","STREET":"民安路","SECT":"二段","MAREA":" ","LANE":" ","ALLEY":" ","HOUSE_NO":"７７號六樓之２","E_COORD97":173501.32000000001,"N_COORD97":2539215.3100000001,"ADDRESS":"民安路二段７７號六樓之２","OBJECTID":311446},"geometry":{"x":173501.3200000003,"y":2539215.3100000042}},{"attributes":{"ID":311455,"DIS_CODE":0,"TOWNNAME":"仁德區","LI":"新田里","LIN":"17鄰","STREET":"民安路","SECT":"二段","MAREA":" ","LANE":" ","ALLEY":" ","HOUSE_NO":"７７號十樓之１","E_COORD97":173501.17999999999,"N_COORD97":2539215.3100000001,"ADDRESS":"民安路二段７７號十樓之１","OBJECTID":311447},"geometry":{"x":173501.18000000063,"y":2539215.3100000042}},{"attributes":{"ID":311456,"DIS_CODE":0,"TOWNNAME":"仁德區","LI":"新田里","LIN":"17鄰","STREET":"民安路","SECT":"二段","MAREA":" ","LANE":" ","ALLEY":" ","HOUSE_NO":"７７號九樓之１","E_COORD97":173501.17999999999,"N_COORD97":2539215.3100000001,"ADDRESS":"民安路二段７７號九樓之１","OBJECTID":311448},"geometry":{"x":173501.18000000063,"y":2539215.3100000042}},{"attributes":{"ID":311457,"DIS_CODE":0,"TOWNNAME":"仁德區","LI":"新田里","LIN":"17鄰","STREET":"民安路","SECT":"二段","MAREA":" ","LANE":" ","ALLEY":" ","HOUSE_NO":"７７號五樓之２","E_COORD97":173501.32000000001,"N_COORD97":2539215.3100000001,"ADDRESS":"民安路二段７７號五樓之２","OBJECTID":311449},"geometry":{"x":173501.3200000003,"y":2539215.3100000042}},{"attributes":{"ID":311458,"DIS_CODE":0,"TOWNNAME":"善化區","LI":"坐駕里","LIN":"17鄰","STREET":"文化路","SECT":" ","MAREA":" ","LANE":" ","ALLEY":" ","HOUSE_NO":"６號五樓之３","E_COORD97":177970.09,"N_COORD97":2558361.29,"ADDRESS":"文化路６號五樓之３","OBJECTID":311450},"geometry":{"x":177970.09000000171,"y":2558361.2899999991}},{"attributes":{"ID":311459,"DIS_CODE":0,"TOWNNAME":"安南區","LI":"安西里","LIN":"4鄰","STREET":"安和路","SECT":"一段","MAREA":" ","LANE":"２８５巷","ALLEY":" ","HOUSE_NO":"３３號之１","E_COORD97":169187.89999999999,"N_COORD97":2548045.0299999998,"ADDRESS":"安和路一段２８５巷３３號之１","OBJECTID":311451},"geometry":{"x":169187.9000000013,"y":2548045.0300000012}},{"attributes":{"ID":311460,"DIS_CODE":0,"TOWNNAME":"安南區","LI":"大安里","LIN":"8鄰","STREET":"大安街","SECT":" ","MAREA":" ","LANE":"１９４巷","ALLEY":" ","HOUSE_NO":"４號","E_COORD97":167395.26999999999,"N_COORD97":2548252.1800000002,"ADDRESS":"大安街１９４巷４號","OBJECTID":311452},"geometry":{"x":167395.26999999955,"y":2548252.1800000016}},{"attributes":{"ID":311461,"DIS_CODE":0,"TOWNNAME":"安南區","LI":"海西里","LIN":"15鄰","STREET":"海環街","SECT":" ","MAREA":" ","LANE":"３３５巷","ALLEY":" ","HOUSE_NO":"３號","E_COORD97":166066.09,"N_COORD97":2548822.75,"ADDRESS":"海環街３３５巷３號","OBJECTID":311453},"geometry":{"x":166066.08999999985,"y":2548822.75}},{"attributes":{"ID":311462,"DIS_CODE":0,"TOWNNAME":"安南區","LI":"淵東里","LIN":"4鄰","STREET":"智安二街","SECT":" ","MAREA":" ","LANE":"５０巷","ALLEY":" ","HOUSE_NO":"１３號","E_COORD97":165755.82999999999,"N_COORD97":2550253.0499999998,"ADDRESS":"智安二街５０巷１３號","OBJECTID":311454},"geometry":{"x":165755.83000000007,"y":2550253.0500000045}},{"attributes":{"ID":311463,"DIS_CODE":0,"TOWNNAME":"安南區","LI":"公親里","LIN":"1鄰","STREET":"公學路","SECT":"一段","MAREA":" ","LANE":"１２４巷","ALLEY":" ","HOUSE_NO":"８１號","E_COORD97":168069.17999999999,"N_COORD97":2553187.5800000001,"ADDRESS":"公學路一段１２４巷８１號","OBJECTID":311455},"geometry":{"x":168069.1799999997,"y":2553187.5800000001}},{"attributes":{"ID":311464,"DIS_CODE":0,"TOWNNAME":"安南區","LI":"公親里","LIN":"1鄰","STREET":"公學路","SECT":"一段","MAREA":" ","LANE":"１２４巷","ALLEY":" ","HOUSE_NO":"８５號","E_COORD97":168077.60999999999,"N_COORD97":2553162.96,"ADDRESS":"公學路一段１２４巷８５號","OBJECTID":311456},"geometry":{"x":168077.61000000127,"y":2553162.9600000028}},{"attributes":{"ID":311465,"DIS_CODE":0,"TOWNNAME":"仁德區","LI":"成功里","LIN":"7鄰","STREET":"保華路","SECT":" ","MAREA":" ","LANE":"１１７巷","ALLEY":" ","HOUSE_NO":"１６號二樓之２","E_COORD97":171142.69,"N_COORD97":2540005.2999999998,"ADDRESS":"保華路１１７巷１６號二樓之２","OBJECTID":311457},"geometry":{"x":171142.69000000041,"y":2540005.3000000045}},{"attributes":{"ID":311466,"DIS_CODE":0,"TOWNNAME":"仁德區","LI":"成功里","LIN":"7鄰","STREET":"保華路","SECT":" ","MAREA":" ","LANE":"１１７巷","ALLEY":" ","HOUSE_NO":"１６號三樓之２","E_COORD97":171142.69,"N_COORD97":2540005.2999999998,"ADDRESS":"保華路１１７巷１６號三樓之２","OBJECTID":311458},"geometry":{"x":171142.69000000041,"y":2540005.3000000045}},{"attributes":{"ID":311467,"DIS_CODE":0,"TOWNNAME":"佳里區","LI":"東寧里","LIN":"7鄰","STREET":"中山路","SECT":" ","MAREA":" ","LANE":"３４６巷","ALLEY":" ","HOUSE_NO":"２２號一樓之１","E_COORD97":165779.51000000001,"N_COORD97":2562463.1200000001,"ADDRESS":"中山路３４６巷２２號一樓之１","OBJECTID":311459},"geometry":{"x":165779.51000000071,"y":2562463.120000001}},{"attributes":{"ID":311468,"DIS_CODE":0,"TOWNNAME":"佳里區","LI":"東寧里","LIN":"7鄰","STREET":"中山路","SECT":" ","MAREA":" ","LANE":"３４６巷","ALLEY":" ","HOUSE_NO":"２２號一樓之２","E_COORD97":165779.51000000001,"N_COORD97":2562463.1200000001,"ADDRESS":"中山路３４６巷２２號一樓之２","OBJECTID":311460},"geometry":{"x":165779.51000000071,"y":2562463.120000001}},{"attributes":{"ID":311469,"DIS_CODE":0,"TOWNNAME":"佳里區","LI":"東寧里","LIN":"7鄰","STREET":"中山路","SECT":" ","MAREA":" ","LANE":"３４６巷","ALLEY":" ","HOUSE_NO":"２２號一樓之３","E_COORD97":165779.51000000001,"N_COORD97":2562463.1200000001,"ADDRESS":"中山路３４６巷２２號一樓之３","OBJECTID":311461},"geometry":{"x":165779.51000000071,"y":2562463.120000001}},{"attributes":{"ID":311470,"DIS_CODE":0,"TOWNNAME":"佳里區","LI":"東寧里","LIN":"7鄰","STREET":"中山路","SECT":" ","MAREA":" ","LANE":"３４６巷","ALLEY":" ","HOUSE_NO":"２２號二樓之１","E_COORD97":165779.51000000001,"N_COORD97":2562463.1200000001,"ADDRESS":"中山路３４６巷２２號二樓之１","OBJECTID":311462},"geometry":{"x":165779.51000000071,"y":2562463.120000001}},{"attributes":{"ID":311471,"DIS_CODE":0,"TOWNNAME":"善化區","LI":"坐駕里","LIN":"17鄰","STREET":"建國路","SECT":" ","MAREA":" ","LANE":" ","ALLEY":" ","HOUSE_NO":"１９號之９","E_COORD97":177998.85999999999,"N_COORD97":2558335.5299999998,"ADDRESS":"建國路１９號之９","OBJECTID":311463},"geometry":{"x":177998.86000000034,"y":2558335.5300000012}},{"attributes":{"ID":311472,"DIS_CODE":0,"TOWNNAME":"新營區","LI":"延平里","LIN":" ","STREET":"復興路","SECT":" ","MAREA":" ","LANE":" ","ALLEY":" ","HOUSE_NO":"１之８９號","E_COORD97":179713.92999999999,"N_COORD97":2577935.1299999999,"ADDRESS":"復興路１之８９號","OBJECTID":311464},"geometry":{"x":179713.93000000063,"y":2577935.129999999}},{"attributes":{"ID":311473,"DIS_CODE":0,"TOWNNAME":"新營區","LI":"新南里","LIN":"4鄰","STREET":"新北三街","SECT":" ","MAREA":" ","LANE":" ","ALLEY":" ","HOUSE_NO":"６之３號","E_COORD97":178655.39000000001,"N_COORD97":2578861.5899999999,"ADDRESS":"新北三街６之３號","OBJECTID":311465},"geometry":{"x":178655.38999999966,"y":2578861.5899999999}},{"attributes":{"ID":311474,"DIS_CODE":0,"TOWNNAME":"仁德區","LI":"成功里","LIN":"17鄰","STREET":"全福路","SECT":" ","MAREA":" ","LANE":" ","ALLEY":" ","HOUSE_NO":"９０號","E_COORD97":171064.29999999999,"N_COORD97":2539294.5,"ADDRESS":"全福路９０號","OBJECTID":311466},"geometry":{"x":171064.30000000075,"y":2539294.4999999981}},{"attributes":{"ID":311475,"DIS_CODE":0,"TOWNNAME":"仁德區","LI":"保安里","LIN":"17鄰","STREET":"中正路","SECT":"一段","MAREA":" ","LANE":" ","ALLEY":" ","HOUSE_NO":"７４號","E_COORD97":170927.13,"N_COORD97":2535523.02,"ADDRESS":"中正路一段７４號","OBJECTID":311467},"geometry":{"x":170927.13000000082,"y":2535523.0199999996}},{"attributes":{"ID":311476,"DIS_CODE":0,"TOWNNAME":"永康區","LI":"網寮里","LIN":"17鄰","STREET":"永興路","SECT":" ","MAREA":" ","LANE":" ","ALLEY":" ","HOUSE_NO":"４６７號","E_COORD97":173180.23000000001,"N_COORD97":2546927.75,"ADDRESS":"永興路４６７號","OBJECTID":311468},"geometry":{"x":173180.23000000045,"y":2546927.75}},{"attributes":{"ID":311477,"DIS_CODE":0,"TOWNNAME":"永康區","LI":"大橋里","LIN":"17鄰","STREET":"大橋一街","SECT":" ","MAREA":" ","LANE":" ","ALLEY":" ","HOUSE_NO":"１０５號","E_COORD97":170997.34,"N_COORD97":2546469.7400000002,"ADDRESS":"大橋一街１０５號","OBJECTID":311469},"geometry":{"x":170997.33999999985,"y":2546469.7400000002}},{"attributes":{"ID":311478,"DIS_CODE":0,"TOWNNAME":"永康區","LI":"中興里","LIN":"17鄰","STREET":"中華路","SECT":" ","MAREA":" ","LANE":" ","ALLEY":" ","HOUSE_NO":"２７６號","E_COORD97":171626.79000000001,"N_COORD97":2545166.5,"ADDRESS":"中華路２７６號","OBJECTID":311470},"geometry":{"x":171626.79000000004,"y":2545166.5}},{"attributes":{"ID":311479,"DIS_CODE":0,"TOWNNAME":"佳里區","LI":"六安里","LIN":"19鄰","STREET":"延平路","SECT":" ","MAREA":" ","LANE":"５７７巷","ALLEY":" ","HOUSE_NO":"１號","E_COORD97":165921.57000000001,"N_COORD97":2563517.6000000001,"ADDRESS":"延平路５７７巷１號","OBJECTID":311471},"geometry":{"x":165921.57000000123,"y":2563517.5999999978}},{"attributes":{"ID":311480,"DIS_CODE":0,"TOWNNAME":"佳里區","LI":"六安里","LIN":"19鄰","STREET":"延平路","SECT":" ","MAREA":" ","LANE":"５７７巷","ALLEY":" ","HOUSE_NO":"２１號","E_COORD97":165858.44,"N_COORD97":2563526.8300000001,"ADDRESS":"延平路５７７巷２１號","OBJECTID":311472},"geometry":{"x":165858.44000000134,"y":2563526.8300000038}},{"attributes":{"ID":311481,"DIS_CODE":0,"TOWNNAME":"佳里區","LI":"六安里","LIN":"19鄰","STREET":"延平路","SECT":" ","MAREA":" ","LANE":"５７７巷","ALLEY":" ","HOUSE_NO":"２３號","E_COORD97":165851.95000000001,"N_COORD97":2563527.9900000002,"ADDRESS":"延平路５７７巷２３號","OBJECTID":311473},"geometry":{"x":165851.95000000019,"y":2563527.9900000002}},{"attributes":{"ID":311482,"DIS_CODE":0,"TOWNNAME":"佳里區","LI":"六安里","LIN":"19鄰","STREET":"延平路","SECT":" ","MAREA":" ","LANE":"５７７巷","ALLEY":" ","HOUSE_NO":"２５號","E_COORD97":165845.28,"N_COORD97":2563528.98,"ADDRESS":"延平路５７７巷２５號","OBJECTID":311474},"geometry":{"x":165845.28000000212,"y":2563528.9800000004}},{"attributes":{"ID":311483,"DIS_CODE":0,"TOWNNAME":"佳里區","LI":"六安里","LIN":"19鄰","STREET":"延平路","SECT":" ","MAREA":" ","LANE":"５７７巷","ALLEY":" ","HOUSE_NO":"２７號","E_COORD97":165839.37,"N_COORD97":2563529.77,"ADDRESS":"延平路５７７巷２７號","OBJECTID":311475},"geometry":{"x":165839.37000000197,"y":2563529.7699999996}},{"attributes":{"ID":311484,"DIS_CODE":0,"TOWNNAME":"佳里區","LI":"六安里","LIN":"19鄰","STREET":"延平路","SECT":" ","MAREA":" ","LANE":"５７７巷","ALLEY":" ","HOUSE_NO":"２９號","E_COORD97":165832.63,"N_COORD97":2563530.9300000002,"ADDRESS":"延平路５７７巷２９號","OBJECTID":311476},"geometry":{"x":165832.63000000082,"y":2563530.9300000016}},{"attributes":{"ID":311485,"DIS_CODE":0,"TOWNNAME":"佳里區","LI":"六安里","LIN":"21鄰","STREET":"延平路","SECT":" ","MAREA":" ","LANE":"５７７巷","ALLEY":" ","HOUSE_NO":"２０號","E_COORD97":165898.32999999999,"N_COORD97":2563541.5699999998,"ADDRESS":"延平路５７７巷２０號","OBJECTID":311477},"geometry":{"x":165898.33000000007,"y":2563541.5700000003}},{"attributes":{"ID":311486,"DIS_CODE":0,"TOWNNAME":"佳里區","LI":"六安里","LIN":"21鄰","STREET":"延平路","SECT":" ","MAREA":" ","LANE":"５７７巷","ALLEY":" ","HOUSE_NO":"２２號","E_COORD97":165893.69,"N_COORD97":2563542.21,"ADDRESS":"延平路５７７巷２２號","OBJECTID":311478},"geometry":{"x":165893.69000000134,"y":2563542.2100000046}},{"attributes":{"ID":311487,"DIS_CODE":0,"TOWNNAME":"佳里區","LI":"六安里","LIN":"21鄰","STREET":"延平路","SECT":" ","MAREA":" ","LANE":"５７７巷","ALLEY":" ","HOUSE_NO":"２６號","E_COORD97":165889.28,"N_COORD97":2563542.6499999999,"ADDRESS":"延平路５７７巷２６號","OBJECTID":311479},"geometry":{"x":165889.28000000212,"y":2563542.6500000022}},{"attributes":{"ID":311488,"DIS_CODE":0,"TOWNNAME":"佳里區","LI":"六安里","LIN":"21鄰","STREET":"延平路","SECT":" ","MAREA":" ","LANE":"５７７巷","ALLEY":" ","HOUSE_NO":"２８號","E_COORD97":165884.5,"N_COORD97":2563543.3399999999,"ADDRESS":"延平路５７７巷２８號","OBJECTID":311480},"geometry":{"x":165884.50000000093,"y":2563543.339999998}},{"attributes":{"ID":311489,"DIS_CODE":0,"TOWNNAME":"永康區","LI":"六合里","LIN":"2鄰","STREET":"中山南路","SECT":" ","MAREA":" ","LANE":" ","ALLEY":" ","HOUSE_NO":"２之６號","E_COORD97":170709.95271700001,"N_COORD97":2545755.8109599999,"ADDRESS":"中山南路２之６號","OBJECTID":311481},"geometry":{"x":170709.95271699969,"y":2545755.8109620009}},{"attributes":{"ID":311490,"DIS_CODE":0,"TOWNNAME":"佳里區","LI":"六安里","LIN":"20鄰","STREET":"延平路","SECT":" ","MAREA":" ","LANE":"５７７巷","ALLEY":" ","HOUSE_NO":"４１號","E_COORD97":165777.54999999999,"N_COORD97":2563537.1899999999,"ADDRESS":"延平路５７７巷４１號","OBJECTID":311482},"geometry":{"x":165777.55000000075,"y":2563537.1899999976}},{"attributes":{"ID":311491,"DIS_CODE":0,"TOWNNAME":"佳里區","LI":"東寧里","LIN":"7鄰","STREET":"中山路","SECT":" ","MAREA":" ","LANE":"３４６巷","ALLEY":" ","HOUSE_NO":"２２號二樓之２","E_COORD97":165779.51000000001,"N_COORD97":2562463.1200000001,"ADDRESS":"中山路３４６巷２２號二樓之２","OBJECTID":311483},"geometry":{"x":165779.51000000071,"y":2562463.120000001}},{"attributes":{"ID":311492,"DIS_CODE":0,"TOWNNAME":"善化區","LI":"坐駕里","LIN":"17鄰","STREET":"文化路","SECT":" ","MAREA":" ","LANE":" ","ALLEY":" ","HOUSE_NO":"６號","E_COORD97":177953.73000000001,"N_COORD97":2558338.6200000001,"ADDRESS":"文化路６號","OBJECTID":311484},"geometry":{"x":177953.73000000045,"y":2558338.6200000048}},{"attributes":{"ID":311493,"DIS_CODE":0,"TOWNNAME":"佳里區","LI":"東寧里","LIN":"7鄰","STREET":"中山路","SECT":" ","MAREA":" ","LANE":"３４６巷","ALLEY":" ","HOUSE_NO":"２２號二樓之３","E_COORD97":165779.51000000001,"N_COORD97":2562463.1200000001,"ADDRESS":"中山路３４６巷２２號二樓之３","OBJECTID":311485},"geometry":{"x":165779.51000000071,"y":2562463.120000001}},{"attributes":{"ID":311494,"DIS_CODE":0,"TOWNNAME":"佳里區","LI":"東寧里","LIN":"7鄰","STREET":"中山路","SECT":" ","MAREA":" ","LANE":"３４６巷","ALLEY":" ","HOUSE_NO":"２２號二樓之４","E_COORD97":165779.51000000001,"N_COORD97":2562463.1200000001,"ADDRESS":"中山路３４６巷２２號二樓之４","OBJECTID":311486},"geometry":{"x":165779.51000000071,"y":2562463.120000001}},{"attributes":{"ID":311495,"DIS_CODE":0,"TOWNNAME":"佳里區","LI":"東寧里","LIN":"7鄰","STREET":"中山路","SECT":" ","MAREA":" ","LANE":"３４６巷","ALLEY":" ","HOUSE_NO":"２２號三樓之１","E_COORD97":165779.51000000001,"N_COORD97":2562463.1200000001,"ADDRESS":"中山路３４６巷２２號三樓之１","OBJECTID":311487},"geometry":{"x":165779.51000000071,"y":2562463.120000001}},{"attributes":{"ID":311496,"DIS_CODE":0,"TOWNNAME":"佳里區","LI":"東寧里","LIN":"7鄰","STREET":"中山路","SECT":" ","MAREA":" ","LANE":"３４６巷","ALLEY":" ","HOUSE_NO":"２２號三樓之２","E_COORD97":165779.51000000001,"N_COORD97":2562463.1200000001,"ADDRESS":"中山路３４６巷２２號三樓之２","OBJECTID":311488},"geometry":{"x":165779.51000000071,"y":2562463.120000001}},{"attributes":{"ID":311497,"DIS_CODE":0,"TOWNNAME":"佳里區","LI":"東寧里","LIN":"7鄰","STREET":"中山路","SECT":" ","MAREA":" ","LANE":"３４６巷","ALLEY":" ","HOUSE_NO":"２２號三樓之３","E_COORD97":165779.51000000001,"N_COORD97":2562463.1200000001,"ADDRESS":"中山路３４６巷２２號三樓之３","OBJECTID":311489},"geometry":{"x":165779.51000000071,"y":2562463.120000001}},{"attributes":{"ID":311498,"DIS_CODE":0,"TOWNNAME":"佳里區","LI":"東寧里","LIN":"7鄰","STREET":"中山路","SECT":" ","MAREA":" ","LANE":"３４６巷","ALLEY":" ","HOUSE_NO":"２２號三樓之４","E_COORD97":165779.51000000001,"N_COORD97":2562463.1200000001,"ADDRESS":"中山路３４６巷２２號三樓之４","OBJECTID":311490},"geometry":{"x":165779.51000000071,"y":2562463.120000001}},{"attributes":{"ID":311499,"DIS_CODE":0,"TOWNNAME":"佳里區","LI":"東寧里","LIN":"7鄰","STREET":"中山路","SECT":" ","MAREA":" ","LANE":"３４６巷","ALLEY":" ","HOUSE_NO":"２２號五樓之１","E_COORD97":165779.51000000001,"N_COORD97":2562463.1200000001,"ADDRESS":"中山路３４６巷２２號五樓之１","OBJECTID":311491},"geometry":{"x":165779.51000000071,"y":2562463.120000001}},{"attributes":{"ID":311500,"DIS_CODE":0,"TOWNNAME":"永康區","LI":"中興里","LIN":"17鄰","STREET":"中華路","SECT":" ","MAREA":" ","LANE":" ","ALLEY":" ","HOUSE_NO":"２８０號之３９","E_COORD97":171664.26000000001,"N_COORD97":2545278.48,"ADDRESS":"中華路２８０號之３９","OBJECTID":311492},"geometry":{"x":171664.25999999978,"y":2545278.4800000004}},{"attributes":{"ID":311501,"DIS_CODE":0,"TOWNNAME":"永康區","LI":"中興里","LIN":"17鄰","STREET":"中華路","SECT":" ","MAREA":" ","LANE":" ","ALLEY":" ","HOUSE_NO":"２２６號","E_COORD97":171640.20000000001,"N_COORD97":2545079.9900000002,"ADDRESS":"中華路２２６號","OBJECTID":311493},"geometry":{"x":171640.20000000112,"y":2545079.9900000021}},{"attributes":{"ID":311502,"DIS_CODE":0,"TOWNNAME":"永康區","LI":"中興里","LIN":"17鄰","STREET":"中華路","SECT":" ","MAREA":" ","LANE":" ","ALLEY":" ","HOUSE_NO":"２６６號","E_COORD97":171631.73000000001,"N_COORD97":2545143.7400000002,"ADDRESS":"中華路２６６號","OBJECTID":311494},"geometry":{"x":171631.73000000138,"y":2545143.7400000002}},{"attributes":{"ID":311503,"DIS_CODE":0,"TOWNNAME":"永康區","LI":"中興里","LIN":"17鄰","STREET":"中華路","SECT":" ","MAREA":" ","LANE":" ","ALLEY":" ","HOUSE_NO":"２３８號","E_COORD97":171638.62,"N_COORD97":2545106.5,"ADDRESS":"中華路２３８號","OBJECTID":311495},"geometry":{"x":171638.62000000197,"y":2545106.5000000019}},{"attributes":{"ID":311504,"DIS_CODE":0,"TOWNNAME":"永康區","LI":"中興里","LIN":"17鄰","STREET":"中華路","SECT":" ","MAREA":" ","LANE":" ","ALLEY":" ","HOUSE_NO":"２５８號","E_COORD97":171636.51000000001,"N_COORD97":2545124.7400000002,"ADDRESS":"中華路２５８號","OBJECTID":311496},"geometry":{"x":171636.50999999978,"y":2545124.7400000039}},{"attributes":{"ID":311505,"DIS_CODE":0,"TOWNNAME":"永康區","LI":"中興里","LIN":"17鄰","STREET":"中華路","SECT":" ","MAREA":" ","LANE":" ","ALLEY":" ","HOUSE_NO":"２７４號","E_COORD97":171628.01999999999,"N_COORD97":2545162,"ADDRESS":"中華路２７４號","OBJECTID":311497},"geometry":{"x":171628.01999999955,"y":2545162}},{"attributes":{"ID":311506,"DIS_CODE":0,"TOWNNAME":"永康區","LI":"中興里","LIN":"17鄰","STREET":"中華路","SECT":" ","MAREA":" ","LANE":" ","ALLEY":" ","HOUSE_NO":"２８０號之４３","E_COORD97":171627.53,"N_COORD97":2545186.0499999998,"ADDRESS":"中華路２８０號之４３","OBJECTID":311498},"geometry":{"x":171627.53000000212,"y":2545186.0500000007}},{"attributes":{"ID":311507,"DIS_CODE":0,"TOWNNAME":"永康區","LI":"中興里","LIN":"17鄰","STREET":"中華路","SECT":" ","MAREA":" ","LANE":" ","ALLEY":" ","HOUSE_NO":"２８０號之３４","E_COORD97":171644.92000000001,"N_COORD97":2545277.98,"ADDRESS":"中華路２８０號之３４","OBJECTID":311499},"geometry":{"x":171644.92000000179,"y":2545277.9800000004}},{"attributes":{"ID":311508,"DIS_CODE":0,"TOWNNAME":"永康區","LI":"大橋里","LIN":"17鄰","STREET":"大橋一街","SECT":" ","MAREA":" ","LANE":" ","ALLEY":" ","HOUSE_NO":"１１５號","E_COORD97":171017.79000000001,"N_COORD97":2546482.7400000002,"ADDRESS":"大橋一街１１５號","OBJECTID":311500},"geometry":{"x":171017.79000000004,"y":2546482.7400000002}},{"attributes":{"ID":311509,"DIS_CODE":0,"TOWNNAME":"永康區","LI":"大橋里","LIN":"17鄰","STREET":"大橋一街","SECT":" ","MAREA":" ","LANE":" ","ALLEY":" ","HOUSE_NO":"１３５號","E_COORD97":171040.39000000001,"N_COORD97":2546497.7400000002,"ADDRESS":"大橋一街１３５號","OBJECTID":311501},"geometry":{"x":171040.3900000006,"y":2546497.7400000039}},{"attributes":{"ID":311510,"DIS_CODE":0,"TOWNNAME":"永康區","LI":"勝利里","LIN":"17鄰","STREET":"勝學路","SECT":" ","MAREA":" ","LANE":" ","ALLEY":" ","HOUSE_NO":"１３２號","E_COORD97":171175.62,"N_COORD97":2544955.3599999999,"ADDRESS":"勝學路１３２號","OBJECTID":311502},"geometry":{"x":171175.62000000011,"y":2544955.3599999994}},{"attributes":{"ID":311511,"DIS_CODE":0,"TOWNNAME":"佳里區","LI":"建南里","LIN":"1鄰","STREET":"中山路","SECT":" ","MAREA":" ","LANE":" ","ALLEY":" ","HOUSE_NO":"３０１號","E_COORD97":165690.16,"N_COORD97":2562396.4199999999,"ADDRESS":"中山路３０１號","OBJECTID":311503},"geometry":{"x":165690.16000000108,"y":2562396.4199999999}},{"attributes":{"ID":311512,"DIS_CODE":0,"TOWNNAME":"歸仁區","LI":"新厝里","LIN":"27鄰","STREET":"中正五街","SECT":" ","MAREA":" ","LANE":"３９巷","ALLEY":" ","HOUSE_NO":"９號","E_COORD97":177058.32780599999,"N_COORD97":2540084.5938800001,"ADDRESS":"中正五街３９巷９號","OBJECTID":311504},"geometry":{"x":177058.32780599967,"y":2540084.5938769989}},{"attributes":{"ID":311513,"DIS_CODE":0,"TOWNNAME":"佳里區","LI":"六安里","LIN":"21鄰","STREET":"延平路","SECT":" ","MAREA":" ","LANE":"５７７巷","ALLEY":" ","HOUSE_NO":"３６號","E_COORD97":165870.57000000001,"N_COORD97":2563545.5,"ADDRESS":"延平路５７７巷３６號","OBJECTID":311505},"geometry":{"x":165870.57000000123,"y":2563545.5}},{"attributes":{"ID":311514,"DIS_CODE":0,"TOWNNAME":"佳里區","LI":"六安里","LIN":"21鄰","STREET":"延平路","SECT":" ","MAREA":" ","LANE":"５７７巷","ALLEY":" ","HOUSE_NO":"３８號","E_COORD97":165866.39000000001,"N_COORD97":2563546.3799999999,"ADDRESS":"延平路５７７巷３８號","OBJECTID":311506},"geometry":{"x":165866.3900000006,"y":2563546.3800000008}},{"attributes":{"ID":311515,"DIS_CODE":0,"TOWNNAME":"佳里區","LI":"六安里","LIN":"21鄰","STREET":"延平路","SECT":" ","MAREA":" ","LANE":"５７７巷","ALLEY":" ","HOUSE_NO":"４０號","E_COORD97":165861.66,"N_COORD97":2563547,"ADDRESS":"延平路５７７巷４０號","OBJECTID":311507},"geometry":{"x":165861.66000000108,"y":2563547.0000000019}},{"attributes":{"ID":311516,"DIS_CODE":0,"TOWNNAME":"佳里區","LI":"六安里","LIN":"21鄰","STREET":"延平路","SECT":" ","MAREA":" ","LANE":"５７７巷","ALLEY":" ","HOUSE_NO":"４２號","E_COORD97":165851.26000000001,"N_COORD97":2563548.4399999999,"ADDRESS":"延平路５７７巷４２號","OBJECTID":311508},"geometry":{"x":165851.25999999978,"y":2563548.4399999995}},{"attributes":{"ID":311517,"DIS_CODE":0,"TOWNNAME":"佳里區","LI":"六安里","LIN":"21鄰","STREET":"延平路","SECT":" ","MAREA":" ","LANE":"５７７巷","ALLEY":" ","HOUSE_NO":"４６號","E_COORD97":165846.66,"N_COORD97":2563549.4300000002,"ADDRESS":"延平路５７７巷４６號","OBJECTID":311509},"geometry":{"x":165846.66000000108,"y":2563549.4299999978}},{"attributes":{"ID":311518,"DIS_CODE":0,"TOWNNAME":"佳里區","LI":"六安里","LIN":"20鄰","STREET":"延平路","SECT":" ","MAREA":" ","LANE":"５７７巷","ALLEY":" ","HOUSE_NO":"５１號","E_COORD97":165746.73000000001,"N_COORD97":2563541.7999999998,"ADDRESS":"延平路５７７巷５１號","OBJECTID":311510},"geometry":{"x":165746.73000000045,"y":2563541.8000000026}},{"attributes":{"ID":311519,"DIS_CODE":0,"TOWNNAME":"佳里區","LI":"六安里","LIN":"20鄰","STREET":"延平路","SECT":" ","MAREA":" ","LANE":"５７７巷","ALLEY":" ","HOUSE_NO":"５３號","E_COORD97":165740.22,"N_COORD97":2563542.8700000001,"ADDRESS":"延平路５７７巷５３號","OBJECTID":311511},"geometry":{"x":165740.22000000067,"y":2563542.8700000029}},{"attributes":{"ID":311520,"DIS_CODE":0,"TOWNNAME":"佳里區","LI":"六安里","LIN":"20鄰","STREET":"延平路","SECT":" ","MAREA":" ","LANE":"５７７巷","ALLEY":" ","HOUSE_NO":"５５號","E_COORD97":165733.92000000001,"N_COORD97":2563543.5699999998,"ADDRESS":"延平路５７７巷５５號","OBJECTID":311512},"geometry":{"x":165733.92000000086,"y":2563543.5700000022}},{"attributes":{"ID":311521,"DIS_CODE":0,"TOWNNAME":"佳里區","LI":"六安里","LIN":"20鄰","STREET":"延平路","SECT":" ","MAREA":" ","LANE":"５７７巷","ALLEY":" ","HOUSE_NO":"５７號","E_COORD97":165727.45999999999,"N_COORD97":2563544.3399999999,"ADDRESS":"延平路５７７巷５７號","OBJECTID":311513},"geometry":{"x":165727.46000000089,"y":2563544.3400000017}},{"attributes":{"ID":311522,"DIS_CODE":0,"TOWNNAME":"佳里區","LI":"六安里","LIN":"20鄰","STREET":"延平路","SECT":" ","MAREA":" ","LANE":"５７７巷","ALLEY":" ","HOUSE_NO":"５９號","E_COORD97":165721.32000000001,"N_COORD97":2563545.1499999999,"ADDRESS":"延平路５７７巷５９號","OBJECTID":311514},"geometry":{"x":165721.32000000216,"y":2563545.1500000004}},{"attributes":{"ID":311523,"DIS_CODE":0,"TOWNNAME":"佳里區","LI":"六安里","LIN":"20鄰","STREET":"延平路","SECT":" ","MAREA":" ","LANE":"５７７巷","ALLEY":" ","HOUSE_NO":"６１號","E_COORD97":165713.84,"N_COORD97":2563546.4199999999,"ADDRESS":"延平路５７７巷６１號","OBJECTID":311515},"geometry":{"x":165713.84000000171,"y":2563546.4200000037}},{"attributes":{"ID":311524,"DIS_CODE":0,"TOWNNAME":"佳里區","LI":"六安里","LIN":"20鄰","STREET":"延平路","SECT":" ","MAREA":" ","LANE":"５７７巷","ALLEY":" ","HOUSE_NO":"６３號","E_COORD97":165709.06,"N_COORD97":2563546.9199999999,"ADDRESS":"延平路５７７巷６３號","OBJECTID":311516},"geometry":{"x":165709.06000000052,"y":2563546.9200000018}},{"attributes":{"ID":311525,"DIS_CODE":0,"TOWNNAME":"佳里區","LI":"六安里","LIN":"20鄰","STREET":"延平路","SECT":" ","MAREA":" ","LANE":"５７７巷","ALLEY":" ","HOUSE_NO":"６５號","E_COORD97":165701.19,"N_COORD97":2563548.4100000001,"ADDRESS":"延平路５７７巷６５號","OBJECTID":311517},"geometry":{"x":165701.19000000041,"y":2563548.410000002}},{"attributes":{"ID":311526,"DIS_CODE":0,"TOWNNAME":"佳里區","LI":"東寧里","LIN":"7鄰","STREET":"中山路","SECT":" ","MAREA":" ","LANE":"３４６巷","ALLEY":" ","HOUSE_NO":"２２號五樓之２","E_COORD97":165779.51000000001,"N_COORD97":2562463.1200000001,"ADDRESS":"中山路３４６巷２２號五樓之２","OBJECTID":311518},"geometry":{"x":165779.51000000071,"y":2562463.120000001}},{"attributes":{"ID":311527,"DIS_CODE":0,"TOWNNAME":"佳里區","LI":"東寧里","LIN":"7鄰","STREET":"中山路","SECT":" ","MAREA":" ","LANE":"３４６巷","ALLEY":" ","HOUSE_NO":"２２號五樓之３","E_COORD97":165779.51000000001,"N_COORD97":2562463.1200000001,"ADDRESS":"中山路３４６巷２２號五樓之３","OBJECTID":311519},"geometry":{"x":165779.51000000071,"y":2562463.120000001}},{"attributes":{"ID":311528,"DIS_CODE":0,"TOWNNAME":"仁德區","LI":"仁德里","LIN":"17鄰","STREET":"文華路","SECT":"三段","MAREA":" ","LANE":" ","ALLEY":" ","HOUSE_NO":"５３９號","E_COORD97":172454.39999999999,"N_COORD97":2541512.0699999998,"ADDRESS":"文華路三段５３９號","OBJECTID":311520},"geometry":{"x":172454.4000000013,"y":2541512.070000004}},{"attributes":{"ID":311529,"DIS_CODE":0,"TOWNNAME":"仁德區","LI":"太子里","LIN":"17鄰","STREET":"太興路","SECT":" ","MAREA":" ","LANE":" ","ALLEY":" ","HOUSE_NO":"１１９號","E_COORD97":174077.12,"N_COORD97":2543572.75,"ADDRESS":"太興路１１９號","OBJECTID":311521},"geometry":{"x":174077.12000000011,"y":2543572.7500000019}},{"attributes":{"ID":311530,"DIS_CODE":0,"TOWNNAME":"仁德區","LI":"仁義里","LIN":"17鄰","STREET":"義林一街","SECT":" ","MAREA":" ","LANE":" ","ALLEY":" ","HOUSE_NO":"２３７號","E_COORD97":174342.09,"N_COORD97":2541381.2599999998,"ADDRESS":"義林一街２３７號","OBJECTID":311522},"geometry":{"x":174342.08999999985,"y":2541381.2600000035}},{"attributes":{"ID":311531,"DIS_CODE":0,"TOWNNAME":"仁德區","LI":"仁義里","LIN":"17鄰","STREET":"義林一街","SECT":" ","MAREA":" ","LANE":" ","ALLEY":" ","HOUSE_NO":"２０１號","E_COORD97":174318.76000000001,"N_COORD97":2541291.7599999998,"ADDRESS":"義林一街２０１號","OBJECTID":311523},"geometry":{"x":174318.75999999978,"y":2541291.7599999998}},{"attributes":{"ID":311532,"DIS_CODE":0,"TOWNNAME":"仁德區","LI":"仁德里","LIN":"17鄰","STREET":"文華路","SECT":"三段","MAREA":" ","LANE":" ","ALLEY":" ","HOUSE_NO":"５１８號","E_COORD97":172479.5,"N_COORD97":2541536.3300000001,"ADDRESS":"文華路三段５１８號","OBJECTID":311524},"geometry":{"x":172479.5,"y":2541536.3300000001}},{"attributes":{"ID":311533,"DIS_CODE":0,"TOWNNAME":"仁德區","LI":"太子里","LIN":"17鄰","STREET":"太興路","SECT":" ","MAREA":" ","LANE":" ","ALLEY":" ","HOUSE_NO":"２６號","E_COORD97":174087.84,"N_COORD97":2543549.5099999998,"ADDRESS":"太興路２６號","OBJECTID":311525},"geometry":{"x":174087.83999999985,"y":2543549.5100000035}},{"attributes":{"ID":311534,"DIS_CODE":0,"TOWNNAME":"仁德區","LI":"仁德里","LIN":"17鄰","STREET":"文華路","SECT":"三段","MAREA":" ","LANE":" ","ALLEY":" ","HOUSE_NO":"５３１號","E_COORD97":172451.09,"N_COORD97":2541490.0699999998,"ADDRESS":"文華路三段５３１號","OBJECTID":311526},"geometry":{"x":172451.09000000078,"y":2541490.0700000003}},{"attributes":{"ID":311535,"DIS_CODE":0,"TOWNNAME":"仁德區","LI":"仁德里","LIN":"17鄰","STREET":"文華路","SECT":"三段","MAREA":" ","LANE":" ","ALLEY":" ","HOUSE_NO":"４４６號","E_COORD97":172453.03,"N_COORD97":2541290.8199999998,"ADDRESS":"文華路三段４４６號","OBJECTID":311527},"geometry":{"x":172453.03000000212,"y":2541290.8200000022}},{"attributes":{"ID":311536,"DIS_CODE":0,"TOWNNAME":"仁德區","LI":"太子里","LIN":"17鄰","STREET":"太子路","SECT":" ","MAREA":" ","LANE":" ","ALLEY":" ","HOUSE_NO":"２６２號","E_COORD97":174107.07000000001,"N_COORD97":2543515.2599999998,"ADDRESS":"太子路２６２號","OBJECTID":311528},"geometry":{"x":174107.0700000003,"y":2543515.2600000016}},{"attributes":{"ID":311537,"DIS_CODE":0,"TOWNNAME":"仁德區","LI":"仁義里","LIN":"17鄰","STREET":"義林一街","SECT":" ","MAREA":" ","LANE":" ","ALLEY":" ","HOUSE_NO":"２０３號","E_COORD97":174319.23000000001,"N_COORD97":2541295.7599999998,"ADDRESS":"義林一街２０３號","OBJECTID":311529},"geometry":{"x":174319.23000000045,"y":2541295.7599999998}},{"attributes":{"ID":311538,"DIS_CODE":0,"TOWNNAME":"仁德區","LI":"仁德里","LIN":"17鄰","STREET":"文華路","SECT":"三段","MAREA":" ","LANE":" ","ALLEY":" ","HOUSE_NO":"４５１號","E_COORD97":172405.29999999999,"N_COORD97":2541264.5800000001,"ADDRESS":"文華路三段４５１號","OBJECTID":311530},"geometry":{"x":172405.30000000075,"y":2541264.5800000019}},{"attributes":{"ID":311539,"DIS_CODE":0,"TOWNNAME":"仁德區","LI":"太子里","LIN":"17鄰","STREET":"太興路","SECT":" ","MAREA":" ","LANE":" ","ALLEY":" ","HOUSE_NO":"１２１號","E_COORD97":174080.41,"N_COORD97":2543577.75,"ADDRESS":"太興路１２１號","OBJECTID":311531},"geometry":{"x":174080.41000000015,"y":2543577.75}},{"attributes":{"ID":311540,"DIS_CODE":0,"TOWNNAME":"仁德區","LI":"仁德里","LIN":"17鄰","STREET":"文華路","SECT":"三段","MAREA":" ","LANE":" ","ALLEY":" ","HOUSE_NO":"５２９號","E_COORD97":172449.95999999999,"N_COORD97":2541484.5699999998,"ADDRESS":"文華路三段５２９號","OBJECTID":311532},"geometry":{"x":172449.96000000089,"y":2541484.570000004}},{"attributes":{"ID":311541,"DIS_CODE":0,"TOWNNAME":"仁德區","LI":"仁德里","LIN":"17鄰","STREET":"文華路","SECT":"三段","MAREA":" ","LANE":" ","ALLEY":" ","HOUSE_NO":"５４３號","E_COORD97":172457.07000000001,"N_COORD97":2541530.8199999998,"ADDRESS":"文華路三段５４３號","OBJECTID":311533},"geometry":{"x":172457.0700000003,"y":2541530.8200000022}},{"attributes":{"ID":311542,"DIS_CODE":0,"TOWNNAME":"仁德區","LI":"仁德里","LIN":"17鄰","STREET":"文華路","SECT":"三段","MAREA":" ","LANE":" ","ALLEY":" ","HOUSE_NO":"４４５號","E_COORD97":172402.37,"N_COORD97":2541252.5800000001,"ADDRESS":"文華路三段４４５號","OBJECTID":311534},"geometry":{"x":172402.37000000011,"y":2541252.5800000001}},{"attributes":{"ID":311543,"DIS_CODE":0,"TOWNNAME":"佳里區","LI":"東寧里","LIN":"7鄰","STREET":"中山路","SECT":" ","MAREA":" ","LANE":"３４６巷","ALLEY":" ","HOUSE_NO":"２２號五樓之４","E_COORD97":165779.51000000001,"N_COORD97":2562463.1200000001,"ADDRESS":"中山路３４６巷２２號五樓之４","OBJECTID":311535},"geometry":{"x":165779.51000000071,"y":2562463.120000001}},{"attributes":{"ID":311544,"DIS_CODE":0,"TOWNNAME":"佳里區","LI":"東寧里","LIN":"7鄰","STREET":"中山路","SECT":" ","MAREA":" ","LANE":"３４６巷","ALLEY":" ","HOUSE_NO":"２２號四樓之１","E_COORD97":165779.51000000001,"N_COORD97":2562463.1200000001,"ADDRESS":"中山路３４６巷２２號四樓之１","OBJECTID":311536},"geometry":{"x":165779.51000000071,"y":2562463.120000001}},{"attributes":{"ID":311545,"DIS_CODE":0,"TOWNNAME":"佳里區","LI":"東寧里","LIN":"7鄰","STREET":"中山路","SECT":" ","MAREA":" ","LANE":"３４６巷","ALLEY":" ","HOUSE_NO":"２２號四樓之２","E_COORD97":165779.51000000001,"N_COORD97":2562463.1200000001,"ADDRESS":"中山路３４６巷２２號四樓之２","OBJECTID":311537},"geometry":{"x":165779.51000000071,"y":2562463.120000001}},{"attributes":{"ID":311546,"DIS_CODE":0,"TOWNNAME":"佳里區","LI":"東寧里","LIN":"7鄰","STREET":"中山路","SECT":" ","MAREA":" ","LANE":"３４６巷","ALLEY":" ","HOUSE_NO":"２２號四樓之３","E_COORD97":165779.51000000001,"N_COORD97":2562463.1200000001,"ADDRESS":"中山路３４６巷２２號四樓之３","OBJECTID":311538},"geometry":{"x":165779.51000000071,"y":2562463.120000001}},{"attributes":{"ID":311547,"DIS_CODE":0,"TOWNNAME":"佳里區","LI":"通興里","LIN":"4鄰","STREET":" ","SECT":" ","MAREA":"東勢寮","LANE":" ","ALLEY":" ","HOUSE_NO":"１１號","E_COORD97":163893.16,"N_COORD97":2560088.3599999999,"ADDRESS":"東勢寮１１號","OBJECTID":311539},"geometry":{"x":163893.16000000201,"y":2560088.3600000031}},{"attributes":{"ID":311548,"DIS_CODE":0,"TOWNNAME":"佳里區","LI":"通興里","LIN":"4鄰","STREET":" ","SECT":" ","MAREA":"東勢寮","LANE":" ","ALLEY":" ","HOUSE_NO":"１號之１","E_COORD97":163969.78,"N_COORD97":2559943.46,"ADDRESS":"東勢寮１號之１","OBJECTID":311540},"geometry":{"x":163969.78000000026,"y":2559943.4600000046}},{"attributes":{"ID":311549,"DIS_CODE":0,"TOWNNAME":"佳里區","LI":"通興里","LIN":"4鄰","STREET":" ","SECT":" ","MAREA":"東勢寮","LANE":" ","ALLEY":" ","HOUSE_NO":"１號之２０","E_COORD97":164081.81,"N_COORD97":2559803.48,"ADDRESS":"東勢寮１號之２０","OBJECTID":311541},"geometry":{"x":164081.81000000052,"y":2559803.4799999986}},{"attributes":{"ID":311550,"DIS_CODE":0,"TOWNNAME":"佳里區","LI":"通興里","LIN":"4鄰","STREET":" ","SECT":" ","MAREA":"東勢寮","LANE":" ","ALLEY":" ","HOUSE_NO":"１號之２","E_COORD97":163983.66,"N_COORD97":2559926.4700000002,"ADDRESS":"東勢寮１號之２","OBJECTID":311542},"geometry":{"x":163983.66000000108,"y":2559926.4700000025}},{"attributes":{"ID":311551,"DIS_CODE":0,"TOWNNAME":"佳里區","LI":"通興里","LIN":"4鄰","STREET":" ","SECT":" ","MAREA":"東勢寮","LANE":" ","ALLEY":" ","HOUSE_NO":"１號","E_COORD97":163955.29000000001,"N_COORD97":2559938.8799999999,"ADDRESS":"東勢寮１號","OBJECTID":311543},"geometry":{"x":163955.29000000097,"y":2559938.8800000008}},{"attributes":{"ID":311552,"DIS_CODE":0,"TOWNNAME":"佳里區","LI":"東寧里","LIN":"7鄰","STREET":"中山路","SECT":" ","MAREA":" ","LANE":"３４６巷","ALLEY":" ","HOUSE_NO":"２２號四樓之４","E_COORD97":165779.51000000001,"N_COORD97":2562463.1200000001,"ADDRESS":"中山路３４６巷２２號四樓之４","OBJECTID":311544},"geometry":{"x":165779.51000000071,"y":2562463.120000001}},{"attributes":{"ID":311553,"DIS_CODE":0,"TOWNNAME":"中西區","LI":"大涼里","LIN":"7鄰","STREET":"府前路","SECT":"二段","MAREA":" ","LANE":"２５８巷","ALLEY":" ","HOUSE_NO":"６１號三樓","E_COORD97":167072.82999999999,"N_COORD97":2543910,"ADDRESS":"府前路二段２５８巷６１號三樓","OBJECTID":311545},"geometry":{"x":167072.83000000007,"y":2543910.0000000019}},{"attributes":{"ID":311554,"DIS_CODE":0,"TOWNNAME":"中西區","LI":"大涼里","LIN":"7鄰","STREET":"府前路","SECT":"二段","MAREA":" ","LANE":"２５８巷","ALLEY":" ","HOUSE_NO":"６１號四樓","E_COORD97":167072.82999999999,"N_COORD97":2543910,"ADDRESS":"府前路二段２５８巷６１號四樓","OBJECTID":311546},"geometry":{"x":167072.83000000007,"y":2543910.0000000019}},{"attributes":{"ID":311555,"DIS_CODE":0,"TOWNNAME":"佳里區","LI":"建南里","LIN":"7鄰","STREET":"建南街","SECT":" ","MAREA":" ","LANE":"１７９巷","ALLEY":" ","HOUSE_NO":"４號四樓","E_COORD97":165676.32000000001,"N_COORD97":2562209.4900000002,"ADDRESS":"建南街１７９巷４號四樓","OBJECTID":311547},"geometry":{"x":165676.3200000003,"y":2562209.4900000002}},{"attributes":{"ID":311556,"DIS_CODE":0,"TOWNNAME":"佳里區","LI":"通興里","LIN":"6鄰","STREET":" ","SECT":" ","MAREA":"東勢寮","LANE":" ","ALLEY":" ","HOUSE_NO":"２５號","E_COORD97":163804.39000000001,"N_COORD97":2560383.46,"ADDRESS":"東勢寮２５號","OBJECTID":311548},"geometry":{"x":163804.38999999873,"y":2560383.4600000009}},{"attributes":{"ID":311557,"DIS_CODE":0,"TOWNNAME":"佳里區","LI":"通興里","LIN":"6鄰","STREET":" ","SECT":" ","MAREA":"東勢寮","LANE":" ","ALLEY":" ","HOUSE_NO":"２６號之２","E_COORD97":163776.91,"N_COORD97":2560391.0299999998,"ADDRESS":"東勢寮２６號之２","OBJECTID":311549},"geometry":{"x":163776.91000000108,"y":2560391.0299999993}},{"attributes":{"ID":311558,"DIS_CODE":0,"TOWNNAME":"安南區","LI":"頂安里","LIN":"17鄰","STREET":"北安三街","SECT":" ","MAREA":" ","LANE":" ","ALLEY":" ","HOUSE_NO":"５號","E_COORD97":168375.67999999999,"N_COORD97":2548618.3999999999,"ADDRESS":"北安三街５號","OBJECTID":311550},"geometry":{"x":168375.6799999997,"y":2548618.4000000004}},{"attributes":{"ID":311559,"DIS_CODE":0,"TOWNNAME":"佳里區","LI":"通興里","LIN":"6鄰","STREET":" ","SECT":" ","MAREA":"東勢寮","LANE":" ","ALLEY":" ","HOUSE_NO":"２８號","E_COORD97":163768.48999999999,"N_COORD97":2560332.79,"ADDRESS":"東勢寮２６號","OBJECTID":311551},"geometry":{"x":163768.49000000022,"y":2560332.790000001}},{"attributes":{"ID":311560,"DIS_CODE":0,"TOWNNAME":"佳里區","LI":"通興里","LIN":"6鄰","STREET":" ","SECT":" ","MAREA":"東勢寮","LANE":" ","ALLEY":" ","HOUSE_NO":"２７號之１","E_COORD97":163764.37,"N_COORD97":2560368.7999999998,"ADDRESS":"東勢寮２７號之１","OBJECTID":311552},"geometry":{"x":163764.37000000197,"y":2560368.8000000026}},{"attributes":{"ID":311561,"DIS_CODE":0,"TOWNNAME":"佳里區","LI":"六安里","LIN":"25鄰","STREET":"林園街","SECT":" ","MAREA":" ","LANE":"１７４巷","ALLEY":" ","HOUSE_NO":"１號","E_COORD97":165622.29999999999,"N_COORD97":2562907.8300000001,"ADDRESS":"林園街１７４巷１號","OBJECTID":311553},"geometry":{"x":165622.29999999981,"y":2562907.8300000019}},{"attributes":{"ID":311562,"DIS_CODE":0,"TOWNNAME":"佳里區","LI":"六安里","LIN":"25鄰","STREET":"林園街","SECT":" ","MAREA":" ","LANE":"１７４巷","ALLEY":" ","HOUSE_NO":"２０號","E_COORD97":165640.88,"N_COORD97":2562951.75,"ADDRESS":"林園街１７４巷２０號","OBJECTID":311554},"geometry":{"x":165640.88000000082,"y":2562951.7500000019}},{"attributes":{"ID":311563,"DIS_CODE":0,"TOWNNAME":"佳里區","LI":"六安里","LIN":"25鄰","STREET":"林園街","SECT":" ","MAREA":" ","LANE":"１７４巷","ALLEY":" ","HOUSE_NO":"２４號","E_COORD97":165640.26999999999,"N_COORD97":2562959.8900000001,"ADDRESS":"林園街１７４巷２４號","OBJECTID":311555},"geometry":{"x":165640.26999999955,"y":2562959.8900000006}},{"attributes":{"ID":311564,"DIS_CODE":0,"TOWNNAME":"佳里區","LI":"六安里","LIN":"25鄰","STREET":"林園街","SECT":" ","MAREA":" ","LANE":"１７４巷","ALLEY":" ","HOUSE_NO":"２８號","E_COORD97":165643.92000000001,"N_COORD97":2562967.8100000001,"ADDRESS":"林園街１７４巷２８號","OBJECTID":311556},"geometry":{"x":165643.92000000179,"y":2562967.8100000005}},{"attributes":{"ID":311565,"DIS_CODE":0,"TOWNNAME":"佳里區","LI":"六安里","LIN":"25鄰","STREET":"林園街","SECT":" ","MAREA":" ","LANE":"１７４巷","ALLEY":" ","HOUSE_NO":"２號","E_COORD97":165643.85999999999,"N_COORD97":2562908.8799999999,"ADDRESS":"林園街１７４巷２號","OBJECTID":311557},"geometry":{"x":165643.86000000034,"y":2562908.8800000008}},{"attributes":{"ID":311566,"DIS_CODE":0,"TOWNNAME":"仁德區","LI":"仁德里","LIN":"17鄰","STREET":"文華路","SECT":"三段","MAREA":" ","LANE":" ","ALLEY":" ","HOUSE_NO":"４２５號","E_COORD97":172393.14999999999,"N_COORD97":2541210.5699999998,"ADDRESS":"文華路三段４２５號","OBJECTID":311558},"geometry":{"x":172393.15000000224,"y":2541210.5700000022}},{"attributes":{"ID":311567,"DIS_CODE":0,"TOWNNAME":"仁德區","LI":"仁德里","LIN":"17鄰","STREET":"文華路","SECT":"三段","MAREA":" ","LANE":" ","ALLEY":" ","HOUSE_NO":"４３９號","E_COORD97":172399.54999999999,"N_COORD97":2541240.5800000001,"ADDRESS":"文華路三段４３９號","OBJECTID":311559},"geometry":{"x":172399.54999999981,"y":2541240.5800000019}},{"attributes":{"ID":311568,"DIS_CODE":0,"TOWNNAME":"仁德區","LI":"仁德里","LIN":"17鄰","STREET":"文華路","SECT":"三段","MAREA":" ","LANE":" ","ALLEY":" ","HOUSE_NO":"５０９號","E_COORD97":172438.06,"N_COORD97":2541422.3199999998,"ADDRESS":"文華路三段５０９號","OBJECTID":311560},"geometry":{"x":172438.05999999959,"y":2541422.3200000022}},{"attributes":{"ID":311569,"DIS_CODE":0,"TOWNNAME":"仁德區","LI":"仁德里","LIN":"17鄰","STREET":"文華路","SECT":"三段","MAREA":" ","LANE":" ","ALLEY":" ","HOUSE_NO":"５０７號","E_COORD97":172437.39999999999,"N_COORD97":2541418.3199999998,"ADDRESS":"文華路三段５０７號","OBJECTID":311561},"geometry":{"x":172437.4000000013,"y":2541418.3199999984}},{"attributes":{"ID":311570,"DIS_CODE":0,"TOWNNAME":"仁德區","LI":"太子里","LIN":"17鄰","STREET":"太興路","SECT":" ","MAREA":" ","LANE":" ","ALLEY":" ","HOUSE_NO":"４８號","E_COORD97":174102.48000000001,"N_COORD97":2543591.25,"ADDRESS":"太興路４８號","OBJECTID":311562},"geometry":{"x":174102.48000000045,"y":2543591.25}},{"attributes":{"ID":311571,"DIS_CODE":0,"TOWNNAME":"佳里區","LI":"六安里","LIN":"25鄰","STREET":"林園街","SECT":" ","MAREA":" ","LANE":"１７４巷","ALLEY":" ","HOUSE_NO":"３號","E_COORD97":165623.20000000001,"N_COORD97":2562912.6000000001,"ADDRESS":"林園街１７４巷３號","OBJECTID":311563},"geometry":{"x":165623.20000000019,"y":2562912.6000000015}},{"attributes":{"ID":311572,"DIS_CODE":0,"TOWNNAME":"佳里區","LI":"六安里","LIN":"25鄰","STREET":"林園街","SECT":" ","MAREA":" ","LANE":"１７４巷","ALLEY":" ","HOUSE_NO":"５號","E_COORD97":165623.23000000001,"N_COORD97":2562917.48,"ADDRESS":"林園街１７４巷５號","OBJECTID":311564},"geometry":{"x":165623.23000000045,"y":2562917.4800000023}},{"attributes":{"ID":311573,"DIS_CODE":0,"TOWNNAME":"佳里區","LI":"安西里","LIN":"13鄰","STREET":"長安街","SECT":" ","MAREA":" ","LANE":"７３巷","ALLEY":" ","HOUSE_NO":"２號","E_COORD97":165398.73000000001,"N_COORD97":2562439.9700000002,"ADDRESS":"長安街７３巷２號","OBJECTID":311565},"geometry":{"x":165398.73000000138,"y":2562439.9700000025}},{"attributes":{"ID":311574,"DIS_CODE":0,"TOWNNAME":"佳里區","LI":"建南里","LIN":"7鄰","STREET":"建南街","SECT":" ","MAREA":" ","LANE":"１７９巷","ALLEY":" ","HOUSE_NO":"６號二樓","E_COORD97":165675.41,"N_COORD97":2562219.5,"ADDRESS":"建南街１７９巷６號二樓","OBJECTID":311566},"geometry":{"x":165675.41000000108,"y":2562219.5}},{"attributes":{"ID":311575,"DIS_CODE":0,"TOWNNAME":"佳里區","LI":"建南里","LIN":"7鄰","STREET":"建南街","SECT":" ","MAREA":" ","LANE":"１７９巷","ALLEY":" ","HOUSE_NO":"６號三樓","E_COORD97":165675.41,"N_COORD97":2562219.5,"ADDRESS":"建南街１７９巷６號三樓","OBJECTID":311567},"geometry":{"x":165675.41000000108,"y":2562219.5}},{"attributes":{"ID":311576,"DIS_CODE":0,"TOWNNAME":"仁德區","LI":"仁義里","LIN":"17鄰","STREET":"義林一街","SECT":" ","MAREA":" ","LANE":" ","ALLEY":" ","HOUSE_NO":"２１１號","E_COORD97":174323.32000000001,"N_COORD97":2541312.2599999998,"ADDRESS":"義林一街２１１號","OBJECTID":311568},"geometry":{"x":174323.32000000123,"y":2541312.2599999998}},{"attributes":{"ID":311577,"DIS_CODE":0,"TOWNNAME":"仁德區","LI":"仁德里","LIN":"17鄰","STREET":"文華路","SECT":"三段","MAREA":" ","LANE":" ","ALLEY":" ","HOUSE_NO":"４５５號","E_COORD97":172407.17999999999,"N_COORD97":2541272.8300000001,"ADDRESS":"文華路三段４５５號","OBJECTID":311569},"geometry":{"x":172407.1799999997,"y":2541272.8300000019}},{"attributes":{"ID":311578,"DIS_CODE":0,"TOWNNAME":"仁德區","LI":"仁德里","LIN":"17鄰","STREET":"文華路","SECT":"三段","MAREA":" ","LANE":" ","ALLEY":" ","HOUSE_NO":"４４１號","E_COORD97":172400.26999999999,"N_COORD97":2541244.3300000001,"ADDRESS":"文華路三段４４１號","OBJECTID":311570},"geometry":{"x":172400.27000000048,"y":2541244.3300000001}},{"attributes":{"ID":311579,"DIS_CODE":0,"TOWNNAME":"安南區","LI":"公\u25A0里","LIN":"6鄰","STREET":"育英街","SECT":" ","MAREA":" ","LANE":" ","ALLEY":" ","HOUSE_NO":"７２０之１號","E_COORD97":163798.12,"N_COORD97":2550729.5699999998,"ADDRESS":"育英街７２０之１號","OBJECTID":311571},"geometry":{"x":163798.12000000011,"y":2550729.5700000003}},{"attributes":{"ID":311580,"DIS_CODE":0,"TOWNNAME":"佳里區","LI":"建南里","LIN":"7鄰","STREET":"建南街","SECT":" ","MAREA":" ","LANE":"１７９巷","ALLEY":" ","HOUSE_NO":"６號四樓","E_COORD97":165675.41,"N_COORD97":2562219.5,"ADDRESS":"建南街１７９巷６號四樓","OBJECTID":311572},"geometry":{"x":165675.41000000108,"y":2562219.5}},{"attributes":{"ID":311581,"DIS_CODE":0,"TOWNNAME":"佳里區","LI":"建南里","LIN":"34鄰","STREET":" ","SECT":" ","MAREA":"建南","LANE":" ","ALLEY":" ","HOUSE_NO":"１０５號之９","E_COORD97":165802.32000000001,"N_COORD97":2559756.5299999998,"ADDRESS":"建南１０５號之９","OBJECTID":311573},"geometry":{"x":165802.3200000003,"y":2559756.5299999993}},{"attributes":{"ID":311582,"DIS_CODE":0,"TOWNNAME":"南區","LI":"新興里","LIN":"7鄰","STREET":"健康路","SECT":"二段","MAREA":" ","LANE":"５３巷","ALLEY":" ","HOUSE_NO":"１３號四樓之２","E_COORD97":167612.17000000001,"N_COORD97":2542410.5600000001,"ADDRESS":"健康路二段５３巷１３號四樓之２","OBJECTID":311574},"geometry":{"x":167612.17000000086,"y":2542410.5600000042}},{"attributes":{"ID":311583,"DIS_CODE":0,"TOWNNAME":"南區","LI":"新興里","LIN":"7鄰","STREET":"健康路","SECT":"二段","MAREA":" ","LANE":"５３巷","ALLEY":" ","HOUSE_NO":"１３號四樓之３","E_COORD97":167612.17000000001,"N_COORD97":2542410.5600000001,"ADDRESS":"健康路二段５３巷１３號四樓之３","OBJECTID":311575},"geometry":{"x":167612.17000000086,"y":2542410.5600000042}},{"attributes":{"ID":311584,"DIS_CODE":0,"TOWNNAME":"南區","LI":"新興里","LIN":"7鄰","STREET":"健康路","SECT":"二段","MAREA":" ","LANE":"５３巷","ALLEY":" ","HOUSE_NO":"１３號四樓之６","E_COORD97":167612.17000000001,"N_COORD97":2542410.5600000001,"ADDRESS":"健康路二段５３巷１３號四樓之６","OBJECTID":311576},"geometry":{"x":167612.17000000086,"y":2542410.5600000042}},{"attributes":{"ID":311585,"DIS_CODE":0,"TOWNNAME":"南區","LI":"新興里","LIN":"7鄰","STREET":"健康路","SECT":"二段","MAREA":" ","LANE":"５３巷","ALLEY":" ","HOUSE_NO":"１３號四樓之５","E_COORD97":167612.17000000001,"N_COORD97":2542410.5600000001,"ADDRESS":"健康路二段５３巷１３號四樓之５","OBJECTID":311577},"geometry":{"x":167612.17000000086,"y":2542410.5600000042}},{"attributes":{"ID":311586,"DIS_CODE":0,"TOWNNAME":"北區","LI":"延平里","LIN":"7鄰","STREET":"公園路","SECT":" ","MAREA":" ","LANE":"７７２巷","ALLEY":" ","HOUSE_NO":"２５號三樓","E_COORD97":169222.67000000001,"N_COORD97":2545721.8799999999,"ADDRESS":"公園路７７２巷２５號三樓","OBJECTID":311578},"geometry":{"x":169222.67000000086,"y":2545721.879999999}},{"attributes":{"ID":311587,"DIS_CODE":0,"TOWNNAME":"北區","LI":"延平里","LIN":"7鄰","STREET":"公園路","SECT":" ","MAREA":" ","LANE":"７７２巷","ALLEY":" ","HOUSE_NO":"２５號四樓","E_COORD97":169222.67000000001,"N_COORD97":2545721.8799999999,"ADDRESS":"公園路７７２巷２５號四樓","OBJECTID":311579},"geometry":{"x":169222.67000000086,"y":2545721.879999999}},{"attributes":{"ID":311588,"DIS_CODE":0,"TOWNNAME":"北區","LI":"中樓里","LIN":"7鄰","STREET":"東豐路","SECT":" ","MAREA":" ","LANE":"１３３巷","ALLEY":" ","HOUSE_NO":"２３號二樓之１","E_COORD97":169772.53,"N_COORD97":2544970.4300000002,"ADDRESS":"東豐路１３３巷２３號二樓之１","OBJECTID":311580},"geometry":{"x":169772.53000000026,"y":2544970.4300000034}},{"attributes":{"ID":311589,"DIS_CODE":0,"TOWNNAME":"歸仁區","LI":"南保里","LIN":"5鄰","STREET":"文化街","SECT":"三段","MAREA":" ","LANE":"１８巷","ALLEY":" ","HOUSE_NO":"３０號","E_COORD97":176893.64000000001,"N_COORD97":2541313.3300000001,"ADDRESS":"文化街三段１８巷３０號","OBJECTID":311581},"geometry":{"x":176893.6400000006,"y":2541313.3300000038}},{"attributes":{"ID":311590,"DIS_CODE":0,"TOWNNAME":"北區","LI":"中樓里","LIN":"7鄰","STREET":"東豐路","SECT":" ","MAREA":" ","LANE":"１３３巷","ALLEY":" ","HOUSE_NO":"２３號二樓之２","E_COORD97":169772.53,"N_COORD97":2544970.4300000002,"ADDRESS":"東豐路１３３巷２３號二樓之２","OBJECTID":311582},"geometry":{"x":169772.53000000026,"y":2544970.4300000034}},{"attributes":{"ID":311591,"DIS_CODE":0,"TOWNNAME":"安南區","LI":"東和里","LIN":"3鄰","STREET":"長和路","SECT":"一段","MAREA":" ","LANE":" ","ALLEY":" ","HOUSE_NO":"９０３號","E_COORD97":170699.20999999999,"N_COORD97":2551507.1800000002,"ADDRESS":"長和路一段９０３號","OBJECTID":311583},"geometry":{"x":170699.21000000089,"y":2551507.1799999997}},{"attributes":{"ID":311592,"DIS_CODE":0,"TOWNNAME":"北區","LI":"中樓里","LIN":"7鄰","STREET":"東豐路","SECT":" ","MAREA":" ","LANE":"１３３巷","ALLEY":" ","HOUSE_NO":"２３號三樓之１","E_COORD97":169772.53,"N_COORD97":2544970.4300000002,"ADDRESS":"東豐路１３３巷２３號三樓之１","OBJECTID":311584},"geometry":{"x":169772.53000000026,"y":2544970.4300000034}},{"attributes":{"ID":311593,"DIS_CODE":0,"TOWNNAME":"北區","LI":"中樓里","LIN":"7鄰","STREET":"東豐路","SECT":" ","MAREA":" ","LANE":"１３３巷","ALLEY":" ","HOUSE_NO":"２３號三樓之２","E_COORD97":169772.53,"N_COORD97":2544970.4300000002,"ADDRESS":"東豐路１３３巷２３號三樓之２","OBJECTID":311585},"geometry":{"x":169772.53000000026,"y":2544970.4300000034}},{"attributes":{"ID":311594,"DIS_CODE":0,"TOWNNAME":"北區","LI":"中樓里","LIN":"7鄰","STREET":"東豐路","SECT":" ","MAREA":" ","LANE":"１３３巷","ALLEY":" ","HOUSE_NO":"２３號五樓之１","E_COORD97":169772.53,"N_COORD97":2544970.4300000002,"ADDRESS":"東豐路１３３巷２３號五樓之１","OBJECTID":311586},"geometry":{"x":169772.53000000026,"y":2544970.4300000034}},{"attributes":{"ID":311595,"DIS_CODE":0,"TOWNNAME":"北區","LI":"中樓里","LIN":"7鄰","STREET":"東豐路","SECT":" ","MAREA":" ","LANE":"１３３巷","ALLEY":" ","HOUSE_NO":"２３號五樓之２","E_COORD97":169772.53,"N_COORD97":2544970.4300000002,"ADDRESS":"東豐路１３３巷２３號五樓之２","OBJECTID":311587},"geometry":{"x":169772.53000000026,"y":2544970.4300000034}},{"attributes":{"ID":311596,"DIS_CODE":0,"TOWNNAME":"安南區","LI":"安西里","LIN":"4鄰","STREET":"安和路","SECT":"一段","MAREA":" ","LANE":"２６３巷","ALLEY":" ","HOUSE_NO":"３６號","E_COORD97":169188.29000000001,"N_COORD97":2548031.7400000002,"ADDRESS":"安和路一段２６３巷３６號","OBJECTID":311588},"geometry":{"x":169188.29000000097,"y":2548031.7400000021}},{"attributes":{"ID":311597,"DIS_CODE":0,"TOWNNAME":"安南區","LI":"安西里","LIN":"4鄰","STREET":"安和路","SECT":"一段","MAREA":" ","LANE":"２６３巷","ALLEY":" ","HOUSE_NO":"４０號","E_COORD97":169169.5,"N_COORD97":2548031.7400000002,"ADDRESS":"安和路一段２６３巷４０號","OBJECTID":311589},"geometry":{"x":169169.50000000186,"y":2548031.7400000021}},{"attributes":{"ID":311598,"DIS_CODE":0,"TOWNNAME":"安南區","LI":"安西里","LIN":"4鄰","STREET":"安和路","SECT":"一段","MAREA":" ","LANE":"２６３巷","ALLEY":" ","HOUSE_NO":"４２號","E_COORD97":169176.54999999999,"N_COORD97":2548015.3300000001,"ADDRESS":"安和路一段２６３巷４２號","OBJECTID":311590},"geometry":{"x":169176.54999999981,"y":2548015.3300000001}},{"attributes":{"ID":311599,"DIS_CODE":0,"TOWNNAME":"安南區","LI":"安西里","LIN":"4鄰","STREET":"安和路","SECT":"一段","MAREA":" ","LANE":"２８５巷","ALLEY":" ","HOUSE_NO":"１１號","E_COORD97":169254.04000000001,"N_COORD97":2548066.9300000002,"ADDRESS":"安和路一段２８５巷１１號","OBJECTID":311591},"geometry":{"x":169254.0400000019,"y":2548066.9300000016}},{"attributes":{"ID":311600,"DIS_CODE":0,"TOWNNAME":"安南區","LI":"安西里","LIN":"4鄰","STREET":"安和路","SECT":"一段","MAREA":" ","LANE":"２８５巷","ALLEY":" ","HOUSE_NO":"１３號","E_COORD97":169248.73000000001,"N_COORD97":2548066.21,"ADDRESS":"安和路一段２８５巷１３號","OBJECTID":311592},"geometry":{"x":169248.73000000138,"y":2548066.2100000028}},{"attributes":{"ID":311601,"DIS_CODE":0,"TOWNNAME":"安南區","LI":"安西里","LIN":"4鄰","STREET":"安和路","SECT":"一段","MAREA":" ","LANE":"２８５巷","ALLEY":" ","HOUSE_NO":"１５號","E_COORD97":169239.32000000001,"N_COORD97":2548058.7400000002,"ADDRESS":"安和路一段２８５巷１５號","OBJECTID":311593},"geometry":{"x":169239.32000000123,"y":2548058.7400000021}},{"attributes":{"ID":311602,"DIS_CODE":0,"TOWNNAME":"安南區","LI":"安西里","LIN":"4鄰","STREET":"安和路","SECT":"一段","MAREA":" ","LANE":"２８５巷","ALLEY":" ","HOUSE_NO":"２３號","E_COORD97":169217.554951,"N_COORD97":2548071.16334,"ADDRESS":"安和路一段２８５巷２３號","OBJECTID":311594},"geometry":{"x":169217.55495100003,"y":2548071.1633410007}},{"attributes":{"ID":311603,"DIS_CODE":0,"TOWNNAME":"安南區","LI":"安西里","LIN":"4鄰","STREET":"安和路","SECT":"一段","MAREA":" ","LANE":"２８５巷","ALLEY":" ","HOUSE_NO":"２５號","E_COORD97":169207.85999999999,"N_COORD97":2548068.8700000001,"ADDRESS":"安和路一段２８５巷２５號","OBJECTID":311595},"geometry":{"x":169207.8599999994,"y":2548068.8700000029}},{"attributes":{"ID":311604,"DIS_CODE":0,"TOWNNAME":"北區","LI":"中樓里","LIN":"7鄰","STREET":"東豐路","SECT":" ","MAREA":" ","LANE":"１３３巷","ALLEY":" ","HOUSE_NO":"２３號四樓之１","E_COORD97":169772.53,"N_COORD97":2544970.4300000002,"ADDRESS":"東豐路１３３巷２３號四樓之１","OBJECTID":311596},"geometry":{"x":169772.53000000026,"y":2544970.4300000034}},{"attributes":{"ID":311605,"DIS_CODE":0,"TOWNNAME":"北區","LI":"中樓里","LIN":"7鄰","STREET":"東豐路","SECT":" ","MAREA":" ","LANE":"１３３巷","ALLEY":" ","HOUSE_NO":"２３號四樓之２","E_COORD97":169772.53,"N_COORD97":2544970.4300000002,"ADDRESS":"東豐路１３３巷２３號四樓之２","OBJECTID":311597},"geometry":{"x":169772.53000000026,"y":2544970.4300000034}},{"attributes":{"ID":311606,"DIS_CODE":0,"TOWNNAME":"北區","LI":"中樓里","LIN":"7鄰","STREET":"東豐路","SECT":" ","MAREA":" ","LANE":"１３３巷","ALLEY":" ","HOUSE_NO":"２９號二樓之１","E_COORD97":169768.20000000001,"N_COORD97":2544980.4399999999,"ADDRESS":"東豐路１３３巷２９號二樓之１","OBJECTID":311598},"geometry":{"x":169768.19999999925,"y":2544980.4400000032}},{"attributes":{"ID":311607,"DIS_CODE":0,"TOWNNAME":"北區","LI":"中樓里","LIN":"7鄰","STREET":"東豐路","SECT":" ","MAREA":" ","LANE":"１３３巷","ALLEY":" ","HOUSE_NO":"２９號二樓之２","E_COORD97":169768.20000000001,"N_COORD97":2544980.4399999999,"ADDRESS":"東豐路１３３巷２９號二樓之２","OBJECTID":311599},"geometry":{"x":169768.19999999925,"y":2544980.4400000032}},{"attributes":{"ID":311608,"DIS_CODE":0,"TOWNNAME":"北區","LI":"中樓里","LIN":"7鄰","STREET":"東豐路","SECT":" ","MAREA":" ","LANE":"１３３巷","ALLEY":" ","HOUSE_NO":"２９號三樓之１","E_COORD97":169768.20000000001,"N_COORD97":2544980.4399999999,"ADDRESS":"東豐路１３３巷２９號三樓之１","OBJECTID":311600},"geometry":{"x":169768.19999999925,"y":2544980.4400000032}}]}