{"displayFieldName":"TOWNNAME","fieldAliases":{"ID":"ID","DIS_CODE":"DIS_CODE","TOWNNAME":"TOWNNAME","LI":"LI","LIN":"LIN","STREET":"STREET","SECT":"SECT","MAREA":"MAREA","LANE":"LANE","ALLEY":"ALLEY","HOUSE_NO":"HOUSE_NO","E_COORD97":"E_COORD97","N_COORD97":"N_COORD97","ADDRESS":"ADDRESS","OBJECTID":"OBJECTID"},"geometryType":"esriGeometryPoint","spatialReference":{"wkid":102443,"latestWkid":3826},"fields":[{"name":"ID","type":"esriFieldTypeDouble","alias":"ID"},{"name":"DIS_CODE","type":"esriFieldTypeInteger","alias":"DIS_CODE"},{"name":"TOWNNAME","type":"esriFieldTypeString","alias":"TOWNNAME","length":8},{"name":"LI","type":"esriFieldTypeString","alias":"LI","length":8},{"name":"LIN","type":"esriFieldTypeString","alias":"LIN","length":12},{"name":"STREET","type":"esriFieldTypeString","alias":"STREET","length":20},{"name":"SECT","type":"esriFieldTypeString","alias":"SECT","length":8},{"name":"MAREA","type":"esriFieldTypeString","alias":"MAREA","length":12},{"name":"LANE","type":"esriFieldTypeString","alias":"LANE","length":10},{"name":"ALLEY","type":"esriFieldTypeString","alias":"ALLEY","length":10},{"name":"HOUSE_NO","type":"esriFieldTypeString","alias":"HOUSE_NO","length":20},{"name":"E_COORD97","type":"esriFieldTypeDouble","alias":"E_COORD97"},{"name":"N_COORD97","type":"esriFieldTypeDouble","alias":"N_COORD97"},{"name":"ADDRESS","type":"esriFieldTypeString","alias":"ADDRESS","length":50},{"name":"OBJECTID","type":"esriFieldTypeOID","alias":"OBJECTID"}],"features":[{"attributes":{"ID":512628,"DIS_CODE":0,"TOWNNAME":"北區","LI":"大和里","LIN":"1鄰","STREET":"文賢路","SECT":" ","MAREA":" ","LANE":" ","ALLEY":" ","HOUSE_NO":"６２１號","E_COORD97":167347.13,"N_COORD97":2545959.2400000002,"ADDRESS":"文賢路６２１號","OBJECTID":512601},"geometry":{"x":167347.12999999989,"y":2545959.2400000021}},{"attributes":{"ID":512629,"DIS_CODE":0,"TOWNNAME":"北區","LI":"大和里","LIN":"1鄰","STREET":"文賢路","SECT":" ","MAREA":" ","LANE":" ","ALLEY":" ","HOUSE_NO":"６２３號","E_COORD97":167346.75,"N_COORD97":2545963.5600000001,"ADDRESS":"文賢路６２３號","OBJECTID":512602},"geometry":{"x":167346.75,"y":2545963.5600000042}},{"attributes":{"ID":512630,"DIS_CODE":0,"TOWNNAME":"北區","LI":"大和里","LIN":"1鄰","STREET":"文賢路","SECT":" ","MAREA":" ","LANE":" ","ALLEY":" ","HOUSE_NO":"６２５號","E_COORD97":167346.5,"N_COORD97":2545967.8799999999,"ADDRESS":"文賢路６２５號","OBJECTID":512603},"geometry":{"x":167346.5,"y":2545967.8800000008}},{"attributes":{"ID":512631,"DIS_CODE":0,"TOWNNAME":"北區","LI":"大和里","LIN":"1鄰","STREET":"文賢路","SECT":" ","MAREA":" ","LANE":" ","ALLEY":" ","HOUSE_NO":"６２９號","E_COORD97":167345.48000000001,"N_COORD97":2545983.5,"ADDRESS":"文賢路６２９號","OBJECTID":512604},"geometry":{"x":167345.48000000045,"y":2545983.5}},{"attributes":{"ID":512632,"DIS_CODE":0,"TOWNNAME":"北區","LI":"大和里","LIN":"1鄰","STREET":"文賢路","SECT":" ","MAREA":" ","LANE":" ","ALLEY":" ","HOUSE_NO":"６４７號","E_COORD97":167344.34,"N_COORD97":2546021.4700000002,"ADDRESS":"文賢路６４７號","OBJECTID":512605},"geometry":{"x":167344.33999999985,"y":2546021.4700000007}},{"attributes":{"ID":512633,"DIS_CODE":0,"TOWNNAME":"北區","LI":"大和里","LIN":"1鄰","STREET":"文賢路","SECT":" ","MAREA":" ","LANE":" ","ALLEY":" ","HOUSE_NO":"６３１號","E_COORD97":167345.23000000001,"N_COORD97":2545988.0699999998,"ADDRESS":"文賢路６３１號","OBJECTID":512606},"geometry":{"x":167345.23000000045,"y":2545988.0700000022}},{"attributes":{"ID":512634,"DIS_CODE":0,"TOWNNAME":"北區","LI":"大和里","LIN":"1鄰","STREET":"文賢路","SECT":" ","MAREA":" ","LANE":" ","ALLEY":" ","HOUSE_NO":"６３３號","E_COORD97":167344.97,"N_COORD97":2545992.2599999998,"ADDRESS":"文賢路６３３號","OBJECTID":512607},"geometry":{"x":167344.96999999974,"y":2545992.2600000035}},{"attributes":{"ID":512635,"DIS_CODE":0,"TOWNNAME":"北區","LI":"大和里","LIN":"1鄰","STREET":"文賢路","SECT":" ","MAREA":" ","LANE":" ","ALLEY":" ","HOUSE_NO":"６３５號","E_COORD97":167344.85000000001,"N_COORD97":2545997.0899999999,"ADDRESS":"文賢路６３５號","OBJECTID":512608},"geometry":{"x":167344.85000000056,"y":2545997.0900000017}},{"attributes":{"ID":512636,"DIS_CODE":0,"TOWNNAME":"北區","LI":"大和里","LIN":"1鄰","STREET":"文賢路","SECT":" ","MAREA":" ","LANE":" ","ALLEY":" ","HOUSE_NO":"６３７號","E_COORD97":167344.59,"N_COORD97":2546001.1499999999,"ADDRESS":"文賢路６３７號","OBJECTID":512609},"geometry":{"x":167344.59000000171,"y":2546001.1500000022}},{"attributes":{"ID":512637,"DIS_CODE":0,"TOWNNAME":"北區","LI":"大和里","LIN":"1鄰","STREET":"文賢路","SECT":" ","MAREA":" ","LANE":" ","ALLEY":" ","HOUSE_NO":"６３９號","E_COORD97":167344.45999999999,"N_COORD97":2546005.5899999999,"ADDRESS":"文賢路６３９號","OBJECTID":512610},"geometry":{"x":167344.46000000089,"y":2546005.5899999999}},{"attributes":{"ID":512638,"DIS_CODE":0,"TOWNNAME":"北區","LI":"大和里","LIN":"1鄰","STREET":"文賢路","SECT":" ","MAREA":" ","LANE":" ","ALLEY":" ","HOUSE_NO":"６４１號","E_COORD97":167344.34,"N_COORD97":2546010.04,"ADDRESS":"文賢路６４１號","OBJECTID":512611},"geometry":{"x":167344.33999999985,"y":2546010.0400000028}},{"attributes":{"ID":512639,"DIS_CODE":0,"TOWNNAME":"北區","LI":"大和里","LIN":"1鄰","STREET":"文賢路","SECT":" ","MAREA":" ","LANE":" ","ALLEY":" ","HOUSE_NO":"６４３號","E_COORD97":167344.34,"N_COORD97":2546014.1000000001,"ADDRESS":"文賢路６４３號","OBJECTID":512612},"geometry":{"x":167344.33999999985,"y":2546014.1000000015}},{"attributes":{"ID":512640,"DIS_CODE":0,"TOWNNAME":"安平區","LI":"金城里","LIN":"13鄰","STREET":"安北路","SECT":" ","MAREA":" ","LANE":" ","ALLEY":" ","HOUSE_NO":"７１８號","E_COORD97":162517.94,"N_COORD97":2544263.1200000001,"ADDRESS":"安北路７１８號","OBJECTID":512613},"geometry":{"x":162517.94000000041,"y":2544263.1200000029}},{"attributes":{"ID":512641,"DIS_CODE":0,"TOWNNAME":"安平區","LI":"文平里","LIN":"24鄰","STREET":"永華二街","SECT":" ","MAREA":" ","LANE":" ","ALLEY":" ","HOUSE_NO":"１３號","E_COORD97":166328.31,"N_COORD97":2542864.5,"ADDRESS":"永華二街１３號","OBJECTID":512614},"geometry":{"x":166328.30999999959,"y":2542864.4999999981}},{"attributes":{"ID":512642,"DIS_CODE":0,"TOWNNAME":"北區","LI":"國興里","LIN":"1鄰","STREET":"開元路","SECT":" ","MAREA":" ","LANE":" ","ALLEY":" ","HOUSE_NO":"３５６號","E_COORD97":170498.76000000001,"N_COORD97":2545574.0099999998,"ADDRESS":"開元路３５６號","OBJECTID":512615},"geometry":{"x":170498.76000000071,"y":2545574.0100000016}},{"attributes":{"ID":512643,"DIS_CODE":0,"TOWNNAME":"安平區","LI":"金城里","LIN":"14鄰","STREET":"世平二街","SECT":" ","MAREA":" ","LANE":" ","ALLEY":" ","HOUSE_NO":"２８號","E_COORD97":162917.76999999999,"N_COORD97":2544065.48,"ADDRESS":"世平二街２８號","OBJECTID":512616},"geometry":{"x":162917.77000000048,"y":2544065.4800000042}},{"attributes":{"ID":512644,"DIS_CODE":0,"TOWNNAME":"安平區","LI":"億載里","LIN":"8鄰","STREET":"光州六街","SECT":" ","MAREA":" ","LANE":" ","ALLEY":" ","HOUSE_NO":"５６號","E_COORD97":164231.23000000001,"N_COORD97":2543550.54,"ADDRESS":"光州六街５６號","OBJECTID":512617},"geometry":{"x":164231.23000000045,"y":2543550.5399999991}},{"attributes":{"ID":512645,"DIS_CODE":0,"TOWNNAME":"安平區","LI":"億載里","LIN":"8鄰","STREET":"光州六街","SECT":" ","MAREA":" ","LANE":" ","ALLEY":" ","HOUSE_NO":"５８號","E_COORD97":164227.57000000001,"N_COORD97":2543549.6699999999,"ADDRESS":"光州六街５８號","OBJECTID":512618},"geometry":{"x":164227.5700000003,"y":2543549.6700000018}},{"attributes":{"ID":512646,"DIS_CODE":0,"TOWNNAME":"北區","LI":"大和里","LIN":"1鄰","STREET":"文賢路","SECT":" ","MAREA":" ","LANE":" ","ALLEY":" ","HOUSE_NO":"６４５號","E_COORD97":167344.34,"N_COORD97":2546017.9100000001,"ADDRESS":"文賢路６４５號","OBJECTID":512619},"geometry":{"x":167344.33999999985,"y":2546017.9100000001}},{"attributes":{"ID":512647,"DIS_CODE":0,"TOWNNAME":"北區","LI":"大和里","LIN":"1鄰","STREET":"文賢路","SECT":" ","MAREA":" ","LANE":" ","ALLEY":" ","HOUSE_NO":"６９３號","E_COORD97":167341.79999999999,"N_COORD97":2546097.9199999999,"ADDRESS":"文賢路６９３號","OBJECTID":512620},"geometry":{"x":167341.80000000075,"y":2546097.9200000018}},{"attributes":{"ID":512648,"DIS_CODE":0,"TOWNNAME":"安平區","LI":"建平里","LIN":"17鄰","STREET":"建平十一街","SECT":" ","MAREA":" ","LANE":" ","ALLEY":" ","HOUSE_NO":"９６號","E_COORD97":166188.20000000001,"N_COORD97":2543923.23,"ADDRESS":"建平十一街９６號","OBJECTID":512621},"geometry":{"x":166188.20000000205,"y":2543923.2300000004}},{"attributes":{"ID":512649,"DIS_CODE":0,"TOWNNAME":"北區","LI":"文元里","LIN":"1鄰","STREET":"北成路","SECT":" ","MAREA":" ","LANE":" ","ALLEY":" ","HOUSE_NO":"４８３號","E_COORD97":167828.10999999999,"N_COORD97":2546523.6099999999,"ADDRESS":"北成路４８３號","OBJECTID":512622},"geometry":{"x":167828.1100000022,"y":2546523.6099999994}},{"attributes":{"ID":512650,"DIS_CODE":0,"TOWNNAME":"北區","LI":"文元里","LIN":"1鄰","STREET":"北成路","SECT":" ","MAREA":" ","LANE":" ","ALLEY":" ","HOUSE_NO":"４８５號","E_COORD97":167824.26999999999,"N_COORD97":2546523.2999999998,"ADDRESS":"北成路４８５號","OBJECTID":512623},"geometry":{"x":167824.26999999955,"y":2546523.3000000026}},{"attributes":{"ID":512651,"DIS_CODE":0,"TOWNNAME":"北區","LI":"文元里","LIN":"1鄰","STREET":"北成路","SECT":" ","MAREA":" ","LANE":" ","ALLEY":" ","HOUSE_NO":"４８７號","E_COORD97":167820.14000000001,"N_COORD97":2546522.8300000001,"ADDRESS":"北成路４８７號","OBJECTID":512624},"geometry":{"x":167820.13999999966,"y":2546522.8300000001}},{"attributes":{"ID":512652,"DIS_CODE":0,"TOWNNAME":"北區","LI":"文元里","LIN":"1鄰","STREET":"北成路","SECT":" ","MAREA":" ","LANE":" ","ALLEY":" ","HOUSE_NO":"４８９號","E_COORD97":167815.85999999999,"N_COORD97":2546522.3500000001,"ADDRESS":"北成路４８９號","OBJECTID":512625},"geometry":{"x":167815.86000000034,"y":2546522.3499999996}},{"attributes":{"ID":512653,"DIS_CODE":0,"TOWNNAME":"北區","LI":"文元里","LIN":"1鄰","STREET":"北成路","SECT":" ","MAREA":" ","LANE":" ","ALLEY":" ","HOUSE_NO":"４９１號","E_COORD97":167811.73000000001,"N_COORD97":2546521.5600000001,"ADDRESS":"北成路４９１號","OBJECTID":512626},"geometry":{"x":167811.73000000045,"y":2546521.5600000005}},{"attributes":{"ID":512654,"DIS_CODE":0,"TOWNNAME":"北區","LI":"文元里","LIN":"1鄰","STREET":"北成路","SECT":" ","MAREA":" ","LANE":" ","ALLEY":" ","HOUSE_NO":"４９３號","E_COORD97":167807.92000000001,"N_COORD97":2546521.0800000001,"ADDRESS":"北成路４９３號","OBJECTID":512627},"geometry":{"x":167807.91999999993,"y":2546521.0800000001}},{"attributes":{"ID":512655,"DIS_CODE":0,"TOWNNAME":"北區","LI":"大道里","LIN":"1鄰","STREET":"北門路","SECT":"二段","MAREA":" ","LANE":" ","ALLEY":" ","HOUSE_NO":"５７８號","E_COORD97":169677.13,"N_COORD97":2545684.1499999999,"ADDRESS":"北門路二段５７８號","OBJECTID":512628},"geometry":{"x":169677.13000000082,"y":2545684.1500000004}},{"attributes":{"ID":512656,"DIS_CODE":0,"TOWNNAME":"北區","LI":"大道里","LIN":"1鄰","STREET":"北門路","SECT":"二段","MAREA":" ","LANE":" ","ALLEY":" ","HOUSE_NO":"５３８號","E_COORD97":169652.35999999999,"N_COORD97":2545601.2799999998,"ADDRESS":"北門路二段５３８號","OBJECTID":512629},"geometry":{"x":169652.36000000127,"y":2545601.2799999993}},{"attributes":{"ID":512657,"DIS_CODE":0,"TOWNNAME":"北區","LI":"大道里","LIN":"1鄰","STREET":"北門路","SECT":"二段","MAREA":" ","LANE":" ","ALLEY":" ","HOUSE_NO":"５４０號","E_COORD97":169654.26999999999,"N_COORD97":2545606.3599999999,"ADDRESS":"北門路二段５４０號","OBJECTID":512630},"geometry":{"x":169654.27000000048,"y":2545606.3599999994}},{"attributes":{"ID":512658,"DIS_CODE":0,"TOWNNAME":"北區","LI":"大道里","LIN":"1鄰","STREET":"北門路","SECT":"二段","MAREA":" ","LANE":" ","ALLEY":" ","HOUSE_NO":"５４２號","E_COORD97":169655.54000000001,"N_COORD97":2545611.1200000001,"ADDRESS":"北門路二段５４２號","OBJECTID":512631},"geometry":{"x":169655.54000000004,"y":2545611.1200000048}},{"attributes":{"ID":512659,"DIS_CODE":0,"TOWNNAME":"北區","LI":"大道里","LIN":"1鄰","STREET":"北門路","SECT":"二段","MAREA":" ","LANE":" ","ALLEY":" ","HOUSE_NO":"５４６號","E_COORD97":169657.28,"N_COORD97":2545616.3599999999,"ADDRESS":"北門路二段５４６號","OBJECTID":512632},"geometry":{"x":169657.28000000026,"y":2545616.3599999994}},{"attributes":{"ID":512660,"DIS_CODE":0,"TOWNNAME":"北區","LI":"大道里","LIN":"1鄰","STREET":"北門路","SECT":"二段","MAREA":" ","LANE":" ","ALLEY":" ","HOUSE_NO":"５４８號","E_COORD97":169659.03,"N_COORD97":2545621.9199999999,"ADDRESS":"北門路二段５４８號","OBJECTID":512633},"geometry":{"x":169659.03000000026,"y":2545621.9200000018}},{"attributes":{"ID":512661,"DIS_CODE":0,"TOWNNAME":"北區","LI":"大道里","LIN":"1鄰","STREET":"北門路","SECT":"二段","MAREA":" ","LANE":" ","ALLEY":" ","HOUSE_NO":"５５０號","E_COORD97":169660.29999999999,"N_COORD97":2545626.9900000002,"ADDRESS":"北門路二段５５０號","OBJECTID":512634},"geometry":{"x":169660.29999999981,"y":2545626.9900000002}},{"attributes":{"ID":512662,"DIS_CODE":0,"TOWNNAME":"北區","LI":"大道里","LIN":"1鄰","STREET":"北門路","SECT":"二段","MAREA":" ","LANE":" ","ALLEY":" ","HOUSE_NO":"５５２號","E_COORD97":169662.04000000001,"N_COORD97":2545631.6000000001,"ADDRESS":"北門路二段５５２號","OBJECTID":512635},"geometry":{"x":169662.04000000004,"y":2545631.6000000015}},{"attributes":{"ID":512663,"DIS_CODE":0,"TOWNNAME":"北區","LI":"大道里","LIN":"1鄰","STREET":"北門路","SECT":"二段","MAREA":" ","LANE":" ","ALLEY":" ","HOUSE_NO":"５５６號","E_COORD97":169663.47,"N_COORD97":2545636.21,"ADDRESS":"北門路二段５５６號","OBJECTID":512636},"geometry":{"x":169663.46999999974,"y":2545636.2100000009}},{"attributes":{"ID":512664,"DIS_CODE":0,"TOWNNAME":"北區","LI":"大道里","LIN":"1鄰","STREET":"北門路","SECT":"二段","MAREA":" ","LANE":" ","ALLEY":" ","HOUSE_NO":"５５８號","E_COORD97":169664.73999999999,"N_COORD97":2545640.6499999999,"ADDRESS":"北門路二段５５８號","OBJECTID":512637},"geometry":{"x":169664.74000000209,"y":2545640.6499999985}},{"attributes":{"ID":512665,"DIS_CODE":0,"TOWNNAME":"北區","LI":"大道里","LIN":"1鄰","STREET":"北門路","SECT":"二段","MAREA":" ","LANE":" ","ALLEY":" ","HOUSE_NO":"５７０號","E_COORD97":169671.57000000001,"N_COORD97":2545663.9900000002,"ADDRESS":"北門路二段５７０號","OBJECTID":512638},"geometry":{"x":169671.57000000123,"y":2545663.9900000002}},{"attributes":{"ID":512666,"DIS_CODE":0,"TOWNNAME":"南區","LI":"明興里","LIN":"1鄰","STREET":"新都路","SECT":" ","MAREA":" ","LANE":" ","ALLEY":" ","HOUSE_NO":"４７５號","E_COORD97":167137.72,"N_COORD97":2540867.6200000001,"ADDRESS":"新都路４７５號","OBJECTID":512639},"geometry":{"x":167137.71999999974,"y":2540867.620000001}},{"attributes":{"ID":512667,"DIS_CODE":0,"TOWNNAME":"南區","LI":"明興里","LIN":"1鄰","STREET":"新都路","SECT":" ","MAREA":" ","LANE":" ","ALLEY":" ","HOUSE_NO":"４７７號","E_COORD97":167134.48999999999,"N_COORD97":2540867.4500000002,"ADDRESS":"新都路４７７號","OBJECTID":512640},"geometry":{"x":167134.49000000115,"y":2540867.450000003}},{"attributes":{"ID":512668,"DIS_CODE":0,"TOWNNAME":"南區","LI":"明興里","LIN":"1鄰","STREET":"新都路","SECT":" ","MAREA":" ","LANE":" ","ALLEY":" ","HOUSE_NO":"４９７號","E_COORD97":167091.47,"N_COORD97":2540870.1600000001,"ADDRESS":"新都路４９７號","OBJECTID":512641},"geometry":{"x":167091.47000000067,"y":2540870.1600000039}},{"attributes":{"ID":512669,"DIS_CODE":0,"TOWNNAME":"南區","LI":"明興里","LIN":"1鄰","STREET":"新都路","SECT":" ","MAREA":" ","LANE":" ","ALLEY":" ","HOUSE_NO":"４９９號","E_COORD97":167087.59,"N_COORD97":2540870.8399999999,"ADDRESS":"新都路４９９號","OBJECTID":512642},"geometry":{"x":167087.59000000078,"y":2540870.8399999999}},{"attributes":{"ID":512670,"DIS_CODE":0,"TOWNNAME":"南區","LI":"明興里","LIN":"1鄰","STREET":"新都路","SECT":" ","MAREA":" ","LANE":" ","ALLEY":" ","HOUSE_NO":"５０１號","E_COORD97":167083.85000000001,"N_COORD97":2540871.8599999999,"ADDRESS":"新都路５０１號","OBJECTID":512643},"geometry":{"x":167083.85000000056,"y":2540871.8600000013}},{"attributes":{"ID":512671,"DIS_CODE":0,"TOWNNAME":"南區","LI":"明興里","LIN":"1鄰","STREET":"新都路","SECT":" ","MAREA":" ","LANE":" ","ALLEY":" ","HOUSE_NO":"５０３號","E_COORD97":167079.69,"N_COORD97":2540872.71,"ADDRESS":"新都路５０３號","OBJECTID":512644},"geometry":{"x":167079.69000000041,"y":2540872.7100000009}},{"attributes":{"ID":512672,"DIS_CODE":0,"TOWNNAME":"南區","LI":"明興里","LIN":"1鄰","STREET":"新都路","SECT":" ","MAREA":" ","LANE":" ","ALLEY":" ","HOUSE_NO":"５０７號","E_COORD97":167071.53,"N_COORD97":2540859.2799999998,"ADDRESS":"新都路５０７號","OBJECTID":512645},"geometry":{"x":167071.53000000119,"y":2540859.2800000012}},{"attributes":{"ID":512673,"DIS_CODE":0,"TOWNNAME":"南區","LI":"明興里","LIN":"1鄰","STREET":"新都路","SECT":" ","MAREA":" ","LANE":" ","ALLEY":" ","HOUSE_NO":"５０９號","E_COORD97":167064.39000000001,"N_COORD97":2540858.52,"ADDRESS":"新都路５０９號","OBJECTID":512646},"geometry":{"x":167064.39000000153,"y":2540858.5200000014}},{"attributes":{"ID":512674,"DIS_CODE":0,"TOWNNAME":"南區","LI":"明興里","LIN":"1鄰","STREET":"新都路","SECT":" ","MAREA":" ","LANE":" ","ALLEY":" ","HOUSE_NO":"５１１號","E_COORD97":167068.53,"N_COORD97":2540873.7000000002,"ADDRESS":"新都路５１１號","OBJECTID":512647},"geometry":{"x":167068.53000000026,"y":2540873.7000000011}},{"attributes":{"ID":512675,"DIS_CODE":0,"TOWNNAME":"南區","LI":"明興里","LIN":"1鄰","STREET":"新都路","SECT":" ","MAREA":" ","LANE":" ","ALLEY":" ","HOUSE_NO":"５１３號","E_COORD97":167062.57999999999,"N_COORD97":2540873.4399999999,"ADDRESS":"新都路５１３號","OBJECTID":512648},"geometry":{"x":167062.58000000101,"y":2540873.4399999995}},{"attributes":{"ID":512676,"DIS_CODE":0,"TOWNNAME":"南區","LI":"再興里","LIN":"1鄰","STREET":"健康路","SECT":"二段","MAREA":" ","LANE":" ","ALLEY":" ","HOUSE_NO":"１６１號","E_COORD97":167284.42000000001,"N_COORD97":2542452.5499999998,"ADDRESS":"健康路二段１６１號","OBJECTID":512649},"geometry":{"x":167284.41999999993,"y":2542452.5500000026}},{"attributes":{"ID":512677,"DIS_CODE":0,"TOWNNAME":"南區","LI":"再興里","LIN":"1鄰","STREET":"健康路","SECT":"二段","MAREA":" ","LANE":" ","ALLEY":" ","HOUSE_NO":"１６３號","E_COORD97":167279.87,"N_COORD97":2542452.77,"ADDRESS":"健康路二段１６３號","OBJECTID":512650},"geometry":{"x":167279.87000000011,"y":2542452.7700000014}},{"attributes":{"ID":512678,"DIS_CODE":0,"TOWNNAME":"南區","LI":"再興里","LIN":"1鄰","STREET":"健康路","SECT":"二段","MAREA":" ","LANE":" ","ALLEY":" ","HOUSE_NO":"１６５號","E_COORD97":167275.54000000001,"N_COORD97":2542453.5099999998,"ADDRESS":"健康路二段１６５號","OBJECTID":512651},"geometry":{"x":167275.53999999911,"y":2542453.5099999998}},{"attributes":{"ID":512679,"DIS_CODE":0,"TOWNNAME":"南區","LI":"再興里","LIN":"1鄰","STREET":"健康路","SECT":"二段","MAREA":" ","LANE":" ","ALLEY":" ","HOUSE_NO":"１６７號","E_COORD97":167271.09,"N_COORD97":2542453.5099999998,"ADDRESS":"健康路二段１６７號","OBJECTID":512652},"geometry":{"x":167271.08999999985,"y":2542453.5099999998}},{"attributes":{"ID":512680,"DIS_CODE":0,"TOWNNAME":"南區","LI":"明興里","LIN":"1鄰","STREET":"新都路","SECT":" ","MAREA":" ","LANE":" ","ALLEY":" ","HOUSE_NO":"５０５號","E_COORD97":167075.35000000001,"N_COORD97":2540850.79,"ADDRESS":"新都路５０５號","OBJECTID":512653},"geometry":{"x":167075.35000000056,"y":2540850.7899999991}},{"attributes":{"ID":512681,"DIS_CODE":0,"TOWNNAME":"北區","LI":"國姓里","LIN":"1鄰","STREET":"公園路","SECT":" ","MAREA":" ","LANE":" ","ALLEY":" ","HOUSE_NO":"３９５號","E_COORD97":169011.04999999999,"N_COORD97":2545244.5499999998,"ADDRESS":"公園路３９５號","OBJECTID":512654},"geometry":{"x":169011.04999999981,"y":2545244.5500000007}},{"attributes":{"ID":512682,"DIS_CODE":0,"TOWNNAME":"北區","LI":"力行里","LIN":"1鄰","STREET":"開南街","SECT":" ","MAREA":" ","LANE":" ","ALLEY":" ","HOUSE_NO":"２２３號之６","E_COORD97":170856.92000000001,"N_COORD97":2544964.4700000002,"ADDRESS":"開南街２２３號之６","OBJECTID":512655},"geometry":{"x":170856.92000000086,"y":2544964.4700000044}},{"attributes":{"ID":512683,"DIS_CODE":0,"TOWNNAME":"北區","LI":"國姓里","LIN":"1鄰","STREET":"公園路","SECT":" ","MAREA":" ","LANE":" ","ALLEY":" ","HOUSE_NO":"３７９號","E_COORD97":169019.54000000001,"N_COORD97":2545212.6200000001,"ADDRESS":"公園路３７９號","OBJECTID":512656},"geometry":{"x":169019.54000000004,"y":2545212.6200000029}},{"attributes":{"ID":512684,"DIS_CODE":0,"TOWNNAME":"安平區","LI":"漁光里","LIN":"6鄰","STREET":"漁光路","SECT":" ","MAREA":" ","LANE":" ","ALLEY":" ","HOUSE_NO":"５６號","E_COORD97":163893.14000000001,"N_COORD97":2542028.1200000001,"ADDRESS":"漁光路５６號","OBJECTID":512657},"geometry":{"x":163893.1400000006,"y":2542028.1200000029}},{"attributes":{"ID":512685,"DIS_CODE":0,"TOWNNAME":"北區","LI":"國興里","LIN":"1鄰","STREET":"開元路","SECT":" ","MAREA":" ","LANE":" ","ALLEY":" ","HOUSE_NO":"３５８號","E_COORD97":170502.70000000001,"N_COORD97":2545576.8799999999,"ADDRESS":"開元路３５８號","OBJECTID":512658},"geometry":{"x":170502.70000000112,"y":2545576.8800000027}},{"attributes":{"ID":512686,"DIS_CODE":0,"TOWNNAME":"北區","LI":"國興里","LIN":"1鄰","STREET":"開元路","SECT":" ","MAREA":" ","LANE":" ","ALLEY":" ","HOUSE_NO":"３５２號","E_COORD97":170490.31,"N_COORD97":2545568.25,"ADDRESS":"開元路３５２號","OBJECTID":512659},"geometry":{"x":170490.30999999959,"y":2545568.25}},{"attributes":{"ID":512687,"DIS_CODE":0,"TOWNNAME":"北區","LI":"仁愛里","LIN":"1鄰","STREET":"東豐路","SECT":" ","MAREA":" ","LANE":" ","ALLEY":" ","HOUSE_NO":"１６３號","E_COORD97":169928.73999999999,"N_COORD97":2544892.3300000001,"ADDRESS":"東豐路１６３號","OBJECTID":512660},"geometry":{"x":169928.74000000022,"y":2544892.3300000001}},{"attributes":{"ID":512688,"DIS_CODE":0,"TOWNNAME":"北區","LI":"仁愛里","LIN":"1鄰","STREET":"東豐路","SECT":" ","MAREA":" ","LANE":" ","ALLEY":" ","HOUSE_NO":"１６５號","E_COORD97":169935.39000000001,"N_COORD97":2544891.2599999998,"ADDRESS":"東豐路１６５號","OBJECTID":512661},"geometry":{"x":169935.38999999966,"y":2544891.2600000016}},{"attributes":{"ID":512689,"DIS_CODE":0,"TOWNNAME":"安平區","LI":"建平里","LIN":"8鄰","STREET":"府前路","SECT":"二段","MAREA":" ","LANE":" ","ALLEY":" ","HOUSE_NO":"５００號","E_COORD97":166602.13,"N_COORD97":2543728.48,"ADDRESS":"府前路二段５００號","OBJECTID":512662},"geometry":{"x":166602.13000000082,"y":2543728.4800000004}},{"attributes":{"ID":512690,"DIS_CODE":0,"TOWNNAME":"安平區","LI":"建平里","LIN":"8鄰","STREET":"府前路","SECT":"二段","MAREA":" ","LANE":" ","ALLEY":" ","HOUSE_NO":"５０２號","E_COORD97":166593.32999999999,"N_COORD97":2543729.2999999998,"ADDRESS":"府前路二段５０２號","OBJECTID":512663},"geometry":{"x":166593.33000000007,"y":2543729.3000000026}},{"attributes":{"ID":512691,"DIS_CODE":0,"TOWNNAME":"安平區","LI":"建平里","LIN":"8鄰","STREET":"府前路","SECT":"二段","MAREA":" ","LANE":" ","ALLEY":" ","HOUSE_NO":"５０４號","E_COORD97":166586.81,"N_COORD97":2543730.2400000002,"ADDRESS":"府前路二段５０４號","OBJECTID":512664},"geometry":{"x":166586.81000000145,"y":2543730.2400000002}},{"attributes":{"ID":512692,"DIS_CODE":0,"TOWNNAME":"安平區","LI":"建平里","LIN":"8鄰","STREET":"府前路","SECT":"二段","MAREA":" ","LANE":" ","ALLEY":" ","HOUSE_NO":"５４８號","E_COORD97":166500.79000000001,"N_COORD97":2543751.3300000001,"ADDRESS":"府前路二段５４８號","OBJECTID":512665},"geometry":{"x":166500.79000000004,"y":2543751.3300000019}},{"attributes":{"ID":512693,"DIS_CODE":0,"TOWNNAME":"安平區","LI":"建平里","LIN":"8鄰","STREET":"中華西路","SECT":"二段","MAREA":" ","LANE":" ","ALLEY":" ","HOUSE_NO":"３５１號","E_COORD97":166612.81,"N_COORD97":2543764.1699999999,"ADDRESS":"中華西路二段３５１號","OBJECTID":512666},"geometry":{"x":166612.81000000052,"y":2543764.1699999999}},{"attributes":{"ID":512694,"DIS_CODE":0,"TOWNNAME":"安平區","LI":"金城里","LIN":"14鄰","STREET":"世平四街","SECT":" ","MAREA":" ","LANE":" ","ALLEY":" ","HOUSE_NO":"３７號","E_COORD97":162953.85999999999,"N_COORD97":2544117.46,"ADDRESS":"世平四街３７號","OBJECTID":512667},"geometry":{"x":162953.86000000034,"y":2544117.4600000028}},{"attributes":{"ID":512695,"DIS_CODE":0,"TOWNNAME":"安平區","LI":"建平里","LIN":"8鄰","STREET":"府前三街","SECT":" ","MAREA":" ","LANE":" ","ALLEY":" ","HOUSE_NO":"１２１號","E_COORD97":166500.03,"N_COORD97":2543965.3599999999,"ADDRESS":"府前三街１２１號","OBJECTID":512668},"geometry":{"x":166500.03000000119,"y":2543965.3599999994}},{"attributes":{"ID":512696,"DIS_CODE":0,"TOWNNAME":"安平區","LI":"建平里","LIN":"8鄰","STREET":"府前三街","SECT":" ","MAREA":" ","LANE":" ","ALLEY":" ","HOUSE_NO":"１２３號","E_COORD97":166499.79999999999,"N_COORD97":2543969.52,"ADDRESS":"府前三街１２３號","OBJECTID":512669},"geometry":{"x":166499.79999999981,"y":2543969.5200000033}},{"attributes":{"ID":512697,"DIS_CODE":0,"TOWNNAME":"安平區","LI":"華平里","LIN":"1鄰","STREET":"慶平路","SECT":" ","MAREA":" ","LANE":" ","ALLEY":" ","HOUSE_NO":"５１９號","E_COORD97":165138.76999999999,"N_COORD97":2544201.4700000002,"ADDRESS":"慶平路５１９號","OBJECTID":512670},"geometry":{"x":165138.76999999955,"y":2544201.4700000044}},{"attributes":{"ID":512698,"DIS_CODE":0,"TOWNNAME":"北區","LI":"興北里","LIN":"1鄰","STREET":"北門路","SECT":"二段","MAREA":" ","LANE":" ","ALLEY":" ","HOUSE_NO":"１９６號","E_COORD97":169458.45000000001,"N_COORD97":2545131.96,"ADDRESS":"北門路二段１９６號","OBJECTID":512671},"geometry":{"x":169458.45000000112,"y":2545131.9600000028}},{"attributes":{"ID":512699,"DIS_CODE":0,"TOWNNAME":"北區","LI":"興北里","LIN":"1鄰","STREET":"北門路","SECT":"二段","MAREA":" ","LANE":" ","ALLEY":" ","HOUSE_NO":"１９８號","E_COORD97":169460.81,"N_COORD97":2545135.5800000001,"ADDRESS":"北門路二段１９８號","OBJECTID":512672},"geometry":{"x":169460.81000000052,"y":2545135.5799999982}},{"attributes":{"ID":512700,"DIS_CODE":0,"TOWNNAME":"北區","LI":"興北里","LIN":"1鄰","STREET":"北門路","SECT":"二段","MAREA":" ","LANE":" ","ALLEY":" ","HOUSE_NO":"２００號","E_COORD97":169461.53,"N_COORD97":2545139.02,"ADDRESS":"北門路二段２００號","OBJECTID":512673},"geometry":{"x":169461.53000000119,"y":2545139.0200000033}},{"attributes":{"ID":512701,"DIS_CODE":0,"TOWNNAME":"安平區","LI":"金城里","LIN":"11鄰","STREET":"同平路","SECT":" ","MAREA":" ","LANE":" ","ALLEY":" ","HOUSE_NO":"１９４號","E_COORD97":163100.95999999999,"N_COORD97":2543914.3199999998,"ADDRESS":"同平路１９４號","OBJECTID":512674},"geometry":{"x":163100.96000000183,"y":2543914.3200000022}},{"attributes":{"ID":512702,"DIS_CODE":0,"TOWNNAME":"安平區","LI":"建平里","LIN":"1鄰","STREET":"慶平路","SECT":" ","MAREA":" ","LANE":" ","ALLEY":" ","HOUSE_NO":"５４號","E_COORD97":166260.51999999999,"N_COORD97":2544188.9700000002,"ADDRESS":"慶平路５４號","OBJECTID":512675},"geometry":{"x":166260.52000000048,"y":2544188.9700000025}},{"attributes":{"ID":512703,"DIS_CODE":0,"TOWNNAME":"北區","LI":"興北里","LIN":"1鄰","STREET":"北門路","SECT":"二段","MAREA":" ","LANE":" ","ALLEY":" ","HOUSE_NO":"２０８號","E_COORD97":169466.97,"N_COORD97":2545152.46,"ADDRESS":"北門路二段２０８號","OBJECTID":512676},"geometry":{"x":169466.96999999974,"y":2545152.4600000028}},{"attributes":{"ID":512704,"DIS_CODE":0,"TOWNNAME":"北區","LI":"安民里","LIN":"1鄰","STREET":"海安路","SECT":"三段","MAREA":" ","LANE":" ","ALLEY":" ","HOUSE_NO":"６號","E_COORD97":167905.88,"N_COORD97":2544594.46,"ADDRESS":"海安路三段６號","OBJECTID":512677},"geometry":{"x":167905.88000000082,"y":2544594.4600000009}},{"attributes":{"ID":512705,"DIS_CODE":0,"TOWNNAME":"北區","LI":"安民里","LIN":"1鄰","STREET":"海安路","SECT":"三段","MAREA":" ","LANE":" ","ALLEY":" ","HOUSE_NO":"８號","E_COORD97":167907.01999999999,"N_COORD97":2544601.7599999998,"ADDRESS":"海安路三段８號","OBJECTID":512678},"geometry":{"x":167907.01999999955,"y":2544601.7599999979}},{"attributes":{"ID":512706,"DIS_CODE":0,"TOWNNAME":"永康區","LI":"大橋里","LIN":"1鄰","STREET":"中華路","SECT":" ","MAREA":" ","LANE":" ","ALLEY":" ","HOUSE_NO":"８６２號三樓之７","E_COORD97":170635.70999999999,"N_COORD97":2546605.79,"ADDRESS":"中華路８６２號三樓之７","OBJECTID":512679},"geometry":{"x":170635.70999999996,"y":2546605.790000001}},{"attributes":{"ID":512707,"DIS_CODE":0,"TOWNNAME":"永康區","LI":"大橋里","LIN":"1鄰","STREET":"中華路","SECT":" ","MAREA":" ","LANE":" ","ALLEY":" ","HOUSE_NO":"８６２號三樓之３","E_COORD97":170635.73000000001,"N_COORD97":2546605.79,"ADDRESS":"中華路８６２號三樓之３","OBJECTID":512680},"geometry":{"x":170635.73000000045,"y":2546605.790000001}},{"attributes":{"ID":512708,"DIS_CODE":0,"TOWNNAME":"永康區","LI":"大橋里","LIN":"1鄰","STREET":"中華路","SECT":" ","MAREA":" ","LANE":" ","ALLEY":" ","HOUSE_NO":"８６２號八樓之５","E_COORD97":170635.78,"N_COORD97":2546605.79,"ADDRESS":"中華路８６２號八樓之５","OBJECTID":512681},"geometry":{"x":170635.78000000212,"y":2546605.790000001}},{"attributes":{"ID":512709,"DIS_CODE":0,"TOWNNAME":"永康區","LI":"大橋里","LIN":"1鄰","STREET":"中華路","SECT":" ","MAREA":" ","LANE":" ","ALLEY":" ","HOUSE_NO":"８６２號七樓之２","E_COORD97":170635.76000000001,"N_COORD97":2546605.79,"ADDRESS":"中華路８６２號七樓之２","OBJECTID":512682},"geometry":{"x":170635.76000000071,"y":2546605.790000001}},{"attributes":{"ID":512710,"DIS_CODE":0,"TOWNNAME":"永康區","LI":"大橋里","LIN":"1鄰","STREET":"中華路","SECT":" ","MAREA":" ","LANE":" ","ALLEY":" ","HOUSE_NO":"８６２號七樓之６","E_COORD97":170635.73000000001,"N_COORD97":2546605.79,"ADDRESS":"中華路８６２號七樓之６","OBJECTID":512683},"geometry":{"x":170635.73000000045,"y":2546605.790000001}},{"attributes":{"ID":512711,"DIS_CODE":0,"TOWNNAME":"永康區","LI":"大橋里","LIN":"1鄰","STREET":"中華路","SECT":" ","MAREA":" ","LANE":" ","ALLEY":" ","HOUSE_NO":"９０８號二樓","E_COORD97":170542.12,"N_COORD97":2546672,"ADDRESS":"中華路９０８號二樓","OBJECTID":512684},"geometry":{"x":170542.12000000104,"y":2546672.0000000037}},{"attributes":{"ID":512712,"DIS_CODE":0,"TOWNNAME":"永康區","LI":"大橋里","LIN":"1鄰","STREET":"中華路","SECT":" ","MAREA":" ","LANE":" ","ALLEY":" ","HOUSE_NO":"８６２號七樓之７","E_COORD97":170635.70999999999,"N_COORD97":2546605.79,"ADDRESS":"中華路８６２號七樓之７","OBJECTID":512685},"geometry":{"x":170635.70999999996,"y":2546605.790000001}},{"attributes":{"ID":512713,"DIS_CODE":0,"TOWNNAME":"永康區","LI":"大橋里","LIN":"1鄰","STREET":"中華路","SECT":" ","MAREA":" ","LANE":" ","ALLEY":" ","HOUSE_NO":"８６２號五樓之３","E_COORD97":170635.73000000001,"N_COORD97":2546605.79,"ADDRESS":"中華路８６２號五樓之３","OBJECTID":512686},"geometry":{"x":170635.73000000045,"y":2546605.790000001}},{"attributes":{"ID":512714,"DIS_CODE":0,"TOWNNAME":"永康區","LI":"大橋里","LIN":"1鄰","STREET":"中華路","SECT":" ","MAREA":" ","LANE":" ","ALLEY":" ","HOUSE_NO":"８６２號五樓之１","E_COORD97":170635.63,"N_COORD97":2546605.79,"ADDRESS":"中華路８６２號五樓之１","OBJECTID":512687},"geometry":{"x":170635.62999999989,"y":2546605.790000001}},{"attributes":{"ID":512715,"DIS_CODE":0,"TOWNNAME":"永康區","LI":"大橋里","LIN":"1鄰","STREET":"中華路","SECT":" ","MAREA":" ","LANE":" ","ALLEY":" ","HOUSE_NO":"８６２號七樓之５","E_COORD97":170635.78,"N_COORD97":2546605.79,"ADDRESS":"中華路８６２號七樓之５","OBJECTID":512688},"geometry":{"x":170635.78000000212,"y":2546605.790000001}},{"attributes":{"ID":512716,"DIS_CODE":0,"TOWNNAME":"永康區","LI":"大橋里","LIN":"1鄰","STREET":"中華路","SECT":" ","MAREA":" ","LANE":" ","ALLEY":" ","HOUSE_NO":"８６２號三樓之２","E_COORD97":170635.76000000001,"N_COORD97":2546605.79,"ADDRESS":"中華路８６２號三樓之２","OBJECTID":512689},"geometry":{"x":170635.76000000071,"y":2546605.790000001}},{"attributes":{"ID":512717,"DIS_CODE":0,"TOWNNAME":"永康區","LI":"大橋里","LIN":"1鄰","STREET":"中華路","SECT":" ","MAREA":" ","LANE":" ","ALLEY":" ","HOUSE_NO":"８６２號三樓之５","E_COORD97":170635.78,"N_COORD97":2546605.79,"ADDRESS":"中華路８６２號三樓之５","OBJECTID":512690},"geometry":{"x":170635.78000000212,"y":2546605.790000001}},{"attributes":{"ID":512718,"DIS_CODE":0,"TOWNNAME":"永康區","LI":"大橋里","LIN":"1鄰","STREET":"中華路","SECT":" ","MAREA":" ","LANE":" ","ALLEY":" ","HOUSE_NO":"８６２號六樓之６","E_COORD97":170635.73000000001,"N_COORD97":2546605.79,"ADDRESS":"中華路８６２號六樓之６","OBJECTID":512691},"geometry":{"x":170635.73000000045,"y":2546605.790000001}},{"attributes":{"ID":512719,"DIS_CODE":0,"TOWNNAME":"永康區","LI":"大橋里","LIN":"1鄰","STREET":"中華路","SECT":" ","MAREA":" ","LANE":" ","ALLEY":" ","HOUSE_NO":"８６２號三樓之６","E_COORD97":170635.73000000001,"N_COORD97":2546605.79,"ADDRESS":"中華路８６２號三樓之６","OBJECTID":512692},"geometry":{"x":170635.73000000045,"y":2546605.790000001}},{"attributes":{"ID":512720,"DIS_CODE":0,"TOWNNAME":"永康區","LI":"大橋里","LIN":"1鄰","STREET":"中華路","SECT":" ","MAREA":" ","LANE":" ","ALLEY":" ","HOUSE_NO":"８６２號三樓之１","E_COORD97":170635.63,"N_COORD97":2546605.79,"ADDRESS":"中華路８６２號三樓之１","OBJECTID":512693},"geometry":{"x":170635.62999999989,"y":2546605.790000001}},{"attributes":{"ID":512721,"DIS_CODE":0,"TOWNNAME":"永康區","LI":"大橋里","LIN":"1鄰","STREET":"中華路","SECT":" ","MAREA":" ","LANE":" ","ALLEY":" ","HOUSE_NO":"８６２號六樓之５","E_COORD97":170635.78,"N_COORD97":2546605.79,"ADDRESS":"中華路８６２號六樓之５","OBJECTID":512694},"geometry":{"x":170635.78000000212,"y":2546605.790000001}},{"attributes":{"ID":512722,"DIS_CODE":0,"TOWNNAME":"永康區","LI":"大橋里","LIN":"1鄰","STREET":"中華路","SECT":" ","MAREA":" ","LANE":" ","ALLEY":" ","HOUSE_NO":"８６２號六樓之２","E_COORD97":170635.76000000001,"N_COORD97":2546605.79,"ADDRESS":"中華路８６２號六樓之２","OBJECTID":512695},"geometry":{"x":170635.76000000071,"y":2546605.790000001}},{"attributes":{"ID":512723,"DIS_CODE":0,"TOWNNAME":"安平區","LI":"建平里","LIN":"8鄰","STREET":"府前三街","SECT":" ","MAREA":" ","LANE":" ","ALLEY":" ","HOUSE_NO":"１３１號","E_COORD97":166503.13,"N_COORD97":2543986.29,"ADDRESS":"府前三街１３１號","OBJECTID":512696},"geometry":{"x":166503.12999999989,"y":2543986.2899999991}},{"attributes":{"ID":512724,"DIS_CODE":0,"TOWNNAME":"安平區","LI":"建平里","LIN":"8鄰","STREET":"府前三街","SECT":" ","MAREA":" ","LANE":" ","ALLEY":" ","HOUSE_NO":"１３５號","E_COORD97":166503.76000000001,"N_COORD97":2543991.4100000001,"ADDRESS":"府前三街１３５號","OBJECTID":512697},"geometry":{"x":166503.75999999978,"y":2543991.410000002}},{"attributes":{"ID":512725,"DIS_CODE":0,"TOWNNAME":"安平區","LI":"建平里","LIN":"8鄰","STREET":"府前三街","SECT":" ","MAREA":" ","LANE":" ","ALLEY":" ","HOUSE_NO":"１３６號","E_COORD97":166519.72,"N_COORD97":2543998.1299999999,"ADDRESS":"府前三街１３６號","OBJECTID":512698},"geometry":{"x":166519.7200000016,"y":2543998.129999999}},{"attributes":{"ID":512726,"DIS_CODE":0,"TOWNNAME":"安平區","LI":"建平里","LIN":"8鄰","STREET":"府前三街","SECT":" ","MAREA":" ","LANE":" ","ALLEY":" ","HOUSE_NO":"１３７號","E_COORD97":166504.79000000001,"N_COORD97":2543997.3100000001,"ADDRESS":"府前三街１３７號","OBJECTID":512699},"geometry":{"x":166504.79000000097,"y":2543997.3100000005}},{"attributes":{"ID":512727,"DIS_CODE":0,"TOWNNAME":"安平區","LI":"建平里","LIN":"8鄰","STREET":"府前三街","SECT":" ","MAREA":" ","LANE":" ","ALLEY":" ","HOUSE_NO":"１５５號","E_COORD97":166502.73999999999,"N_COORD97":2544040.3599999999,"ADDRESS":"府前三街１５５號","OBJECTID":512700},"geometry":{"x":166502.74000000022,"y":2544040.3599999994}},{"attributes":{"ID":512728,"DIS_CODE":0,"TOWNNAME":"永康區","LI":"大橋里","LIN":"1鄰","STREET":"中華路","SECT":" ","MAREA":" ","LANE":" ","ALLEY":" ","HOUSE_NO":"８６２號八樓之７","E_COORD97":170635.70999999999,"N_COORD97":2546605.79,"ADDRESS":"中華路８６２號八樓之７","OBJECTID":512701},"geometry":{"x":170635.70999999996,"y":2546605.790000001}},{"attributes":{"ID":512729,"DIS_CODE":0,"TOWNNAME":"永康區","LI":"大橋里","LIN":"1鄰","STREET":"中華路","SECT":" ","MAREA":" ","LANE":" ","ALLEY":" ","HOUSE_NO":"８６２號五樓之７","E_COORD97":170635.70999999999,"N_COORD97":2546605.79,"ADDRESS":"中華路８６２號五樓之７","OBJECTID":512702},"geometry":{"x":170635.70999999996,"y":2546605.790000001}},{"attributes":{"ID":512730,"DIS_CODE":0,"TOWNNAME":"永康區","LI":"大橋里","LIN":"1鄰","STREET":"中華路","SECT":" ","MAREA":" ","LANE":" ","ALLEY":" ","HOUSE_NO":"８６２號四樓之２","E_COORD97":170635.76000000001,"N_COORD97":2546605.79,"ADDRESS":"中華路８６２號四樓之２","OBJECTID":512703},"geometry":{"x":170635.76000000071,"y":2546605.790000001}},{"attributes":{"ID":512731,"DIS_CODE":0,"TOWNNAME":"永康區","LI":"大橋里","LIN":"1鄰","STREET":"中華路","SECT":" ","MAREA":" ","LANE":" ","ALLEY":" ","HOUSE_NO":"８６２號六樓之８","E_COORD97":170635.78,"N_COORD97":2546605.79,"ADDRESS":"中華路８６２號六樓之８","OBJECTID":512704},"geometry":{"x":170635.78000000212,"y":2546605.790000001}},{"attributes":{"ID":512732,"DIS_CODE":0,"TOWNNAME":"永康區","LI":"大橋里","LIN":"1鄰","STREET":"中華路","SECT":" ","MAREA":" ","LANE":" ","ALLEY":" ","HOUSE_NO":"８６２號八樓之１","E_COORD97":170635.63,"N_COORD97":2546605.79,"ADDRESS":"中華路８６２號八樓之１","OBJECTID":512705},"geometry":{"x":170635.62999999989,"y":2546605.790000001}},{"attributes":{"ID":512733,"DIS_CODE":0,"TOWNNAME":"永康區","LI":"大橋里","LIN":"1鄰","STREET":"中華路","SECT":" ","MAREA":" ","LANE":" ","ALLEY":" ","HOUSE_NO":"８６２號七樓之９","E_COORD97":170635.70999999999,"N_COORD97":2546605.79,"ADDRESS":"中華路８６２號七樓之９","OBJECTID":512706},"geometry":{"x":170635.70999999996,"y":2546605.790000001}},{"attributes":{"ID":512734,"DIS_CODE":0,"TOWNNAME":"永康區","LI":"大橋里","LIN":"1鄰","STREET":"中華路","SECT":" ","MAREA":" ","LANE":" ","ALLEY":" ","HOUSE_NO":"８６２號四樓之１","E_COORD97":170635.63,"N_COORD97":2546605.79,"ADDRESS":"中華路８６２號四樓之１","OBJECTID":512707},"geometry":{"x":170635.62999999989,"y":2546605.790000001}},{"attributes":{"ID":512735,"DIS_CODE":0,"TOWNNAME":"安平區","LI":"金城里","LIN":"8鄰","STREET":"世平五街","SECT":" ","MAREA":" ","LANE":" ","ALLEY":" ","HOUSE_NO":"１１號","E_COORD97":162959.29000000001,"N_COORD97":2544217.5099999998,"ADDRESS":"世平五街１１號","OBJECTID":512708},"geometry":{"x":162959.29000000004,"y":2544217.5100000016}},{"attributes":{"ID":512736,"DIS_CODE":0,"TOWNNAME":"永康區","LI":"大橋里","LIN":"1鄰","STREET":"中華路","SECT":" ","MAREA":" ","LANE":" ","ALLEY":" ","HOUSE_NO":"８６２號三樓之８","E_COORD97":170635.78,"N_COORD97":2546605.79,"ADDRESS":"中華路８６２號三樓之８","OBJECTID":512709},"geometry":{"x":170635.78000000212,"y":2546605.790000001}},{"attributes":{"ID":512737,"DIS_CODE":0,"TOWNNAME":"永康區","LI":"大橋里","LIN":"1鄰","STREET":"中華路","SECT":" ","MAREA":" ","LANE":" ","ALLEY":" ","HOUSE_NO":"８６２號四樓之８","E_COORD97":170635.78,"N_COORD97":2546605.79,"ADDRESS":"中華路８６２號四樓之８","OBJECTID":512710},"geometry":{"x":170635.78000000212,"y":2546605.790000001}},{"attributes":{"ID":512738,"DIS_CODE":0,"TOWNNAME":"永康區","LI":"五王里","LIN":"1鄰","STREET":"成功路","SECT":" ","MAREA":" ","LANE":" ","ALLEY":" ","HOUSE_NO":"６０號三樓之２","E_COORD97":171546.88,"N_COORD97":2545481.2999999998,"ADDRESS":"成功路６０號三樓之２","OBJECTID":512711},"geometry":{"x":171546.88000000082,"y":2545481.3000000026}},{"attributes":{"ID":512739,"DIS_CODE":0,"TOWNNAME":"永康區","LI":"大橋里","LIN":"1鄰","STREET":"中華路","SECT":" ","MAREA":" ","LANE":" ","ALLEY":" ","HOUSE_NO":"８６２號五樓之５","E_COORD97":170635.78,"N_COORD97":2546605.79,"ADDRESS":"中華路８６２號五樓之５","OBJECTID":512712},"geometry":{"x":170635.78000000212,"y":2546605.790000001}},{"attributes":{"ID":512740,"DIS_CODE":0,"TOWNNAME":"永康區","LI":"五王里","LIN":"1鄰","STREET":"成功路","SECT":" ","MAREA":" ","LANE":" ","ALLEY":" ","HOUSE_NO":"６４號五樓之１","E_COORD97":171547.16,"N_COORD97":2545487.0499999998,"ADDRESS":"成功路６４號五樓之１","OBJECTID":512713},"geometry":{"x":171547.16000000108,"y":2545487.0500000026}},{"attributes":{"ID":512741,"DIS_CODE":0,"TOWNNAME":"永康區","LI":"大橋里","LIN":"1鄰","STREET":"中華路","SECT":" ","MAREA":" ","LANE":" ","ALLEY":" ","HOUSE_NO":"８６２號八樓之２","E_COORD97":170635.76000000001,"N_COORD97":2546605.79,"ADDRESS":"中華路８６２號八樓之２","OBJECTID":512714},"geometry":{"x":170635.76000000071,"y":2546605.790000001}},{"attributes":{"ID":512742,"DIS_CODE":0,"TOWNNAME":"永康區","LI":"大橋里","LIN":"1鄰","STREET":"中華路","SECT":" ","MAREA":" ","LANE":" ","ALLEY":" ","HOUSE_NO":"８６２號八樓之９","E_COORD97":170635.70999999999,"N_COORD97":2546605.79,"ADDRESS":"中華路８６２號八樓之９","OBJECTID":512715},"geometry":{"x":170635.70999999996,"y":2546605.790000001}},{"attributes":{"ID":512743,"DIS_CODE":0,"TOWNNAME":"永康區","LI":"大橋里","LIN":"1鄰","STREET":"中華路","SECT":" ","MAREA":" ","LANE":" ","ALLEY":" ","HOUSE_NO":"８６２號五樓之９","E_COORD97":170635.70999999999,"N_COORD97":2546605.79,"ADDRESS":"中華路８６２號五樓之９","OBJECTID":512716},"geometry":{"x":170635.70999999996,"y":2546605.790000001}},{"attributes":{"ID":512744,"DIS_CODE":0,"TOWNNAME":"永康區","LI":"五王里","LIN":"1鄰","STREET":"成功路","SECT":" ","MAREA":" ","LANE":" ","ALLEY":" ","HOUSE_NO":"６０號五樓之２","E_COORD97":171546.88,"N_COORD97":2545481.2999999998,"ADDRESS":"成功路６０號五樓之２","OBJECTID":512717},"geometry":{"x":171546.88000000082,"y":2545481.3000000026}},{"attributes":{"ID":512745,"DIS_CODE":0,"TOWNNAME":"永康區","LI":"大橋里","LIN":"1鄰","STREET":"中華路","SECT":" ","MAREA":" ","LANE":" ","ALLEY":" ","HOUSE_NO":"８６２號七樓之１","E_COORD97":170635.63,"N_COORD97":2546605.79,"ADDRESS":"中華路８６２號七樓之１","OBJECTID":512718},"geometry":{"x":170635.62999999989,"y":2546605.790000001}},{"attributes":{"ID":512746,"DIS_CODE":0,"TOWNNAME":"永康區","LI":"五王里","LIN":"1鄰","STREET":"成功路","SECT":" ","MAREA":" ","LANE":" ","ALLEY":" ","HOUSE_NO":"６０號七樓之２","E_COORD97":171546.88,"N_COORD97":2545481.2999999998,"ADDRESS":"成功路６０號七樓之２","OBJECTID":512719},"geometry":{"x":171546.88000000082,"y":2545481.3000000026}},{"attributes":{"ID":512747,"DIS_CODE":0,"TOWNNAME":"永康區","LI":"大橋里","LIN":"1鄰","STREET":"中華路","SECT":" ","MAREA":" ","LANE":" ","ALLEY":" ","HOUSE_NO":"８６２號四樓之５","E_COORD97":170635.78,"N_COORD97":2546605.79,"ADDRESS":"中華路８６２號四樓之５","OBJECTID":512720},"geometry":{"x":170635.78000000212,"y":2546605.790000001}},{"attributes":{"ID":512748,"DIS_CODE":0,"TOWNNAME":"永康區","LI":"大橋里","LIN":"1鄰","STREET":"中華路","SECT":" ","MAREA":" ","LANE":" ","ALLEY":" ","HOUSE_NO":"８６２號七樓之３","E_COORD97":170635.73000000001,"N_COORD97":2546605.79,"ADDRESS":"中華路８６２號七樓之３","OBJECTID":512721},"geometry":{"x":170635.73000000045,"y":2546605.790000001}},{"attributes":{"ID":512749,"DIS_CODE":0,"TOWNNAME":"安平區","LI":"金城里","LIN":"4鄰","STREET":"湖內一街","SECT":" ","MAREA":" ","LANE":" ","ALLEY":" ","HOUSE_NO":"５８號","E_COORD97":163750.20999999999,"N_COORD97":2544300.8700000001,"ADDRESS":"湖內一街５８號","OBJECTID":512722},"geometry":{"x":163750.21000000183,"y":2544300.8700000048}},{"attributes":{"ID":512750,"DIS_CODE":0,"TOWNNAME":"安平區","LI":"建平里","LIN":"8鄰","STREET":"府前三街","SECT":" ","MAREA":" ","LANE":" ","ALLEY":" ","HOUSE_NO":"２７號","E_COORD97":166520.64000000001,"N_COORD97":2543818.71,"ADDRESS":"府前三街２７號","OBJECTID":512723},"geometry":{"x":166520.6400000006,"y":2543818.7100000009}},{"attributes":{"ID":512751,"DIS_CODE":0,"TOWNNAME":"永康區","LI":"五王里","LIN":"1鄰","STREET":"成功路","SECT":" ","MAREA":" ","LANE":" ","ALLEY":" ","HOUSE_NO":"６４號二樓之１","E_COORD97":171547.16,"N_COORD97":2545487.0499999998,"ADDRESS":"成功路６４號二樓之１","OBJECTID":512724},"geometry":{"x":171547.16000000108,"y":2545487.0500000026}},{"attributes":{"ID":512752,"DIS_CODE":0,"TOWNNAME":"永康區","LI":"五王里","LIN":"1鄰","STREET":"成功路","SECT":" ","MAREA":" ","LANE":" ","ALLEY":" ","HOUSE_NO":"６０號六樓之３","E_COORD97":171546.84,"N_COORD97":2545481.2999999998,"ADDRESS":"成功路６０號六樓之３","OBJECTID":512725},"geometry":{"x":171546.83999999892,"y":2545481.3000000026}},{"attributes":{"ID":512753,"DIS_CODE":0,"TOWNNAME":"永康區","LI":"五王里","LIN":"1鄰","STREET":"成功路","SECT":" ","MAREA":" ","LANE":" ","ALLEY":" ","HOUSE_NO":"６４號三樓之２","E_COORD97":171547.29999999999,"N_COORD97":2545487.0499999998,"ADDRESS":"成功路６４號三樓之２","OBJECTID":512726},"geometry":{"x":171547.30000000168,"y":2545487.0500000026}},{"attributes":{"ID":512754,"DIS_CODE":0,"TOWNNAME":"東區","LI":"崇明里","LIN":"1鄰","STREET":"中華東路","SECT":"三段","MAREA":" ","LANE":" ","ALLEY":" ","HOUSE_NO":"５０７號七樓","E_COORD97":169682.48000000001,"N_COORD97":2541461.7999999998,"ADDRESS":"中華東路三段５０７號七樓","OBJECTID":512727},"geometry":{"x":169682.48000000138,"y":2541461.8000000007}},{"attributes":{"ID":512755,"DIS_CODE":0,"TOWNNAME":"東區","LI":"崇明里","LIN":"1鄰","STREET":"中華東路","SECT":"三段","MAREA":" ","LANE":" ","ALLEY":" ","HOUSE_NO":"５０７號七樓之１","E_COORD97":169682.48000000001,"N_COORD97":2541461.7999999998,"ADDRESS":"中華東路三段５０７號七樓之１","OBJECTID":512728},"geometry":{"x":169682.48000000138,"y":2541461.8000000007}},{"attributes":{"ID":512756,"DIS_CODE":0,"TOWNNAME":"東區","LI":"崇明里","LIN":"1鄰","STREET":"中華東路","SECT":"三段","MAREA":" ","LANE":" ","ALLEY":" ","HOUSE_NO":"５０７號七樓之２","E_COORD97":169682.48000000001,"N_COORD97":2541461.7999999998,"ADDRESS":"中華東路三段５０７號七樓之２","OBJECTID":512729},"geometry":{"x":169682.48000000138,"y":2541461.8000000007}},{"attributes":{"ID":512757,"DIS_CODE":0,"TOWNNAME":"東區","LI":"崇明里","LIN":"1鄰","STREET":"中華東路","SECT":"三段","MAREA":" ","LANE":" ","ALLEY":" ","HOUSE_NO":"５０７號七樓之３","E_COORD97":169682.48000000001,"N_COORD97":2541461.7999999998,"ADDRESS":"中華東路三段５０７號七樓之３","OBJECTID":512730},"geometry":{"x":169682.48000000138,"y":2541461.8000000007}},{"attributes":{"ID":512758,"DIS_CODE":0,"TOWNNAME":"東區","LI":"崇明里","LIN":"1鄰","STREET":"中華東路","SECT":"三段","MAREA":" ","LANE":" ","ALLEY":" ","HOUSE_NO":"５０７號三樓之１","E_COORD97":169682.48000000001,"N_COORD97":2541461.7999999998,"ADDRESS":"中華東路三段５０７號三樓之１","OBJECTID":512731},"geometry":{"x":169682.48000000138,"y":2541461.8000000007}},{"attributes":{"ID":512759,"DIS_CODE":0,"TOWNNAME":"東區","LI":"崇明里","LIN":"1鄰","STREET":"中華東路","SECT":"三段","MAREA":" ","LANE":" ","ALLEY":" ","HOUSE_NO":"５０７號五樓","E_COORD97":169682.48000000001,"N_COORD97":2541461.7999999998,"ADDRESS":"中華東路三段５０７號五樓","OBJECTID":512732},"geometry":{"x":169682.48000000138,"y":2541461.8000000007}},{"attributes":{"ID":512760,"DIS_CODE":0,"TOWNNAME":"東區","LI":"崇明里","LIN":"1鄰","STREET":"中華東路","SECT":"三段","MAREA":" ","LANE":" ","ALLEY":" ","HOUSE_NO":"５０７號五樓之１","E_COORD97":169682.48000000001,"N_COORD97":2541461.7999999998,"ADDRESS":"中華東路三段５０７號五樓之１","OBJECTID":512733},"geometry":{"x":169682.48000000138,"y":2541461.8000000007}},{"attributes":{"ID":512761,"DIS_CODE":0,"TOWNNAME":"東區","LI":"崇明里","LIN":"1鄰","STREET":"中華東路","SECT":"三段","MAREA":" ","LANE":" ","ALLEY":" ","HOUSE_NO":"５０７號五樓之２","E_COORD97":169682.48000000001,"N_COORD97":2541461.7999999998,"ADDRESS":"中華東路三段５０７號五樓之２","OBJECTID":512734},"geometry":{"x":169682.48000000138,"y":2541461.8000000007}},{"attributes":{"ID":512762,"DIS_CODE":0,"TOWNNAME":"東區","LI":"崇明里","LIN":"1鄰","STREET":"中華東路","SECT":"三段","MAREA":" ","LANE":" ","ALLEY":" ","HOUSE_NO":"５０７號五樓之３","E_COORD97":169682.48000000001,"N_COORD97":2541461.7999999998,"ADDRESS":"中華東路三段５０７號五樓之３","OBJECTID":512735},"geometry":{"x":169682.48000000138,"y":2541461.8000000007}},{"attributes":{"ID":512763,"DIS_CODE":0,"TOWNNAME":"東區","LI":"崇明里","LIN":"1鄰","STREET":"中華東路","SECT":"三段","MAREA":" ","LANE":" ","ALLEY":" ","HOUSE_NO":"５０７號六樓","E_COORD97":169682.48000000001,"N_COORD97":2541461.7999999998,"ADDRESS":"中華東路三段５０７號六樓","OBJECTID":512736},"geometry":{"x":169682.48000000138,"y":2541461.8000000007}},{"attributes":{"ID":512764,"DIS_CODE":0,"TOWNNAME":"東區","LI":"崇明里","LIN":"1鄰","STREET":"中華東路","SECT":"三段","MAREA":" ","LANE":" ","ALLEY":" ","HOUSE_NO":"５０７號六樓之２","E_COORD97":169682.48000000001,"N_COORD97":2541461.7999999998,"ADDRESS":"中華東路三段５０７號六樓之２","OBJECTID":512737},"geometry":{"x":169682.48000000138,"y":2541461.8000000007}},{"attributes":{"ID":512765,"DIS_CODE":0,"TOWNNAME":"東區","LI":"崇明里","LIN":"1鄰","STREET":"中華東路","SECT":"三段","MAREA":" ","LANE":" ","ALLEY":" ","HOUSE_NO":"５０７號六樓之３","E_COORD97":169682.48000000001,"N_COORD97":2541461.7999999998,"ADDRESS":"中華東路三段５０７號六樓之３","OBJECTID":512738},"geometry":{"x":169682.48000000138,"y":2541461.8000000007}},{"attributes":{"ID":512766,"DIS_CODE":0,"TOWNNAME":"安平區","LI":"建平里","LIN":"15鄰","STREET":"建平十二街","SECT":" ","MAREA":" ","LANE":" ","ALLEY":" ","HOUSE_NO":"９２號","E_COORD97":166179.95999999999,"N_COORD97":2543973.6699999999,"ADDRESS":"建平十二街９２號","OBJECTID":512739},"geometry":{"x":166179.96000000089,"y":2543973.6700000018}},{"attributes":{"ID":512767,"DIS_CODE":0,"TOWNNAME":"東區","LI":"崇明里","LIN":"1鄰","STREET":"中華東路","SECT":"三段","MAREA":" ","LANE":" ","ALLEY":" ","HOUSE_NO":"５０７號四樓","E_COORD97":169682.48000000001,"N_COORD97":2541461.7999999998,"ADDRESS":"中華東路三段５０７號四樓","OBJECTID":512740},"geometry":{"x":169682.48000000138,"y":2541461.8000000007}},{"attributes":{"ID":512768,"DIS_CODE":0,"TOWNNAME":"東區","LI":"崇明里","LIN":"1鄰","STREET":"中華東路","SECT":"三段","MAREA":" ","LANE":" ","ALLEY":" ","HOUSE_NO":"５０７號四樓之１","E_COORD97":169682.48000000001,"N_COORD97":2541461.7999999998,"ADDRESS":"中華東路三段５０７號四樓之１","OBJECTID":512741},"geometry":{"x":169682.48000000138,"y":2541461.8000000007}},{"attributes":{"ID":512769,"DIS_CODE":0,"TOWNNAME":"東區","LI":"崇明里","LIN":"1鄰","STREET":"中華東路","SECT":"三段","MAREA":" ","LANE":" ","ALLEY":" ","HOUSE_NO":"５０７號四樓之２","E_COORD97":169682.48000000001,"N_COORD97":2541461.7999999998,"ADDRESS":"中華東路三段５０７號四樓之２","OBJECTID":512742},"geometry":{"x":169682.48000000138,"y":2541461.8000000007}},{"attributes":{"ID":512770,"DIS_CODE":0,"TOWNNAME":"東區","LI":"崇明里","LIN":"1鄰","STREET":"中華東路","SECT":"三段","MAREA":" ","LANE":" ","ALLEY":" ","HOUSE_NO":"５０７號四樓之３","E_COORD97":169682.48000000001,"N_COORD97":2541461.7999999998,"ADDRESS":"中華東路三段５０７號四樓之３","OBJECTID":512743},"geometry":{"x":169682.48000000138,"y":2541461.8000000007}},{"attributes":{"ID":512771,"DIS_CODE":0,"TOWNNAME":"東區","LI":"富強里","LIN":"1鄰","STREET":"裕農路","SECT":" ","MAREA":" ","LANE":" ","ALLEY":" ","HOUSE_NO":"２９８號七樓","E_COORD97":170908.97,"N_COORD97":2542987.1400000001,"ADDRESS":"裕農路２９８號七樓","OBJECTID":512744},"geometry":{"x":170908.97000000067,"y":2542987.1400000025}},{"attributes":{"ID":512772,"DIS_CODE":0,"TOWNNAME":"東區","LI":"富強里","LIN":"1鄰","STREET":"裕農路","SECT":" ","MAREA":" ","LANE":" ","ALLEY":" ","HOUSE_NO":"２９８號七樓之２","E_COORD97":170908.97,"N_COORD97":2542987.1400000001,"ADDRESS":"裕農路２９８號七樓之２","OBJECTID":512745},"geometry":{"x":170908.97000000067,"y":2542987.1400000025}},{"attributes":{"ID":512773,"DIS_CODE":0,"TOWNNAME":"東區","LI":"富強里","LIN":"1鄰","STREET":"裕農路","SECT":" ","MAREA":" ","LANE":" ","ALLEY":" ","HOUSE_NO":"２９８號九樓","E_COORD97":170908.97,"N_COORD97":2542987.1400000001,"ADDRESS":"裕農路２９８號九樓","OBJECTID":512746},"geometry":{"x":170908.97000000067,"y":2542987.1400000025}},{"attributes":{"ID":512774,"DIS_CODE":0,"TOWNNAME":"東區","LI":"富強里","LIN":"1鄰","STREET":"裕農路","SECT":" ","MAREA":" ","LANE":" ","ALLEY":" ","HOUSE_NO":"２９８號九樓之２","E_COORD97":170908.97,"N_COORD97":2542987.1400000001,"ADDRESS":"裕農路２９８號九樓之２","OBJECTID":512747},"geometry":{"x":170908.97000000067,"y":2542987.1400000025}},{"attributes":{"ID":512775,"DIS_CODE":0,"TOWNNAME":"東區","LI":"富強里","LIN":"1鄰","STREET":"裕農路","SECT":" ","MAREA":" ","LANE":" ","ALLEY":" ","HOUSE_NO":"２９８號九樓之３","E_COORD97":170908.97,"N_COORD97":2542987.1400000001,"ADDRESS":"裕農路２９８號九樓之３","OBJECTID":512748},"geometry":{"x":170908.97000000067,"y":2542987.1400000025}},{"attributes":{"ID":512776,"DIS_CODE":0,"TOWNNAME":"東區","LI":"富強里","LIN":"1鄰","STREET":"裕農路","SECT":" ","MAREA":" ","LANE":" ","ALLEY":" ","HOUSE_NO":"２９８號八樓","E_COORD97":170908.97,"N_COORD97":2542987.1400000001,"ADDRESS":"裕農路２９８號八樓","OBJECTID":512749},"geometry":{"x":170908.97000000067,"y":2542987.1400000025}},{"attributes":{"ID":512777,"DIS_CODE":0,"TOWNNAME":"東區","LI":"富強里","LIN":"1鄰","STREET":"裕農路","SECT":" ","MAREA":" ","LANE":" ","ALLEY":" ","HOUSE_NO":"２９８號八樓之２","E_COORD97":170908.97,"N_COORD97":2542987.1400000001,"ADDRESS":"裕農路２９８號八樓之２","OBJECTID":512750},"geometry":{"x":170908.97000000067,"y":2542987.1400000025}},{"attributes":{"ID":512778,"DIS_CODE":0,"TOWNNAME":"東區","LI":"富強里","LIN":"1鄰","STREET":"裕農路","SECT":" ","MAREA":" ","LANE":" ","ALLEY":" ","HOUSE_NO":"２９８號八樓之３","E_COORD97":170908.97,"N_COORD97":2542987.1400000001,"ADDRESS":"裕農路２９８號八樓之３","OBJECTID":512751},"geometry":{"x":170908.97000000067,"y":2542987.1400000025}},{"attributes":{"ID":512779,"DIS_CODE":0,"TOWNNAME":"東區","LI":"富強里","LIN":"1鄰","STREET":"裕農路","SECT":" ","MAREA":" ","LANE":" ","ALLEY":" ","HOUSE_NO":"２９８號十一樓","E_COORD97":170908.97,"N_COORD97":2542987.1400000001,"ADDRESS":"裕農路２９８號十一樓","OBJECTID":512752},"geometry":{"x":170908.97000000067,"y":2542987.1400000025}},{"attributes":{"ID":512780,"DIS_CODE":0,"TOWNNAME":"東區","LI":"富強里","LIN":"1鄰","STREET":"裕農路","SECT":" ","MAREA":" ","LANE":" ","ALLEY":" ","HOUSE_NO":"２９８號十一樓之１","E_COORD97":170908.97,"N_COORD97":2542987.1400000001,"ADDRESS":"裕農路２９８號十一樓之１","OBJECTID":512753},"geometry":{"x":170908.97000000067,"y":2542987.1400000025}},{"attributes":{"ID":512781,"DIS_CODE":0,"TOWNNAME":"東區","LI":"富強里","LIN":"1鄰","STREET":"裕農路","SECT":" ","MAREA":" ","LANE":" ","ALLEY":" ","HOUSE_NO":"２９８號十一樓之２","E_COORD97":170908.97,"N_COORD97":2542987.1400000001,"ADDRESS":"裕農路２９８號十一樓之２","OBJECTID":512754},"geometry":{"x":170908.97000000067,"y":2542987.1400000025}},{"attributes":{"ID":512782,"DIS_CODE":0,"TOWNNAME":"東區","LI":"富強里","LIN":"1鄰","STREET":"裕農路","SECT":" ","MAREA":" ","LANE":" ","ALLEY":" ","HOUSE_NO":"２９８號十一樓之３","E_COORD97":170908.97,"N_COORD97":2542987.1400000001,"ADDRESS":"裕農路２９８號十一樓之３","OBJECTID":512755},"geometry":{"x":170908.97000000067,"y":2542987.1400000025}},{"attributes":{"ID":512783,"DIS_CODE":0,"TOWNNAME":"東區","LI":"富強里","LIN":"1鄰","STREET":"裕農路","SECT":" ","MAREA":" ","LANE":" ","ALLEY":" ","HOUSE_NO":"２９８號十二樓之１","E_COORD97":170908.97,"N_COORD97":2542987.1400000001,"ADDRESS":"裕農路２９８號十二樓之１","OBJECTID":512756},"geometry":{"x":170908.97000000067,"y":2542987.1400000025}},{"attributes":{"ID":512784,"DIS_CODE":0,"TOWNNAME":"東區","LI":"富強里","LIN":"1鄰","STREET":"裕農路","SECT":" ","MAREA":" ","LANE":" ","ALLEY":" ","HOUSE_NO":"２９８號十二樓之２","E_COORD97":170908.97,"N_COORD97":2542987.1400000001,"ADDRESS":"裕農路２９８號十二樓之２","OBJECTID":512757},"geometry":{"x":170908.97000000067,"y":2542987.1400000025}},{"attributes":{"ID":512785,"DIS_CODE":0,"TOWNNAME":"東區","LI":"富強里","LIN":"1鄰","STREET":"裕農路","SECT":" ","MAREA":" ","LANE":" ","ALLEY":" ","HOUSE_NO":"２９８號十二樓之３","E_COORD97":170908.97,"N_COORD97":2542987.1400000001,"ADDRESS":"裕農路２９８號十二樓之３","OBJECTID":512758},"geometry":{"x":170908.97000000067,"y":2542987.1400000025}},{"attributes":{"ID":512786,"DIS_CODE":0,"TOWNNAME":"東區","LI":"富強里","LIN":"1鄰","STREET":"裕農路","SECT":" ","MAREA":" ","LANE":" ","ALLEY":" ","HOUSE_NO":"２９８號十三樓之１","E_COORD97":170908.97,"N_COORD97":2542987.1400000001,"ADDRESS":"裕農路２９８號十三樓之１","OBJECTID":512759},"geometry":{"x":170908.97000000067,"y":2542987.1400000025}},{"attributes":{"ID":512787,"DIS_CODE":0,"TOWNNAME":"東區","LI":"富強里","LIN":"1鄰","STREET":"裕農路","SECT":" ","MAREA":" ","LANE":" ","ALLEY":" ","HOUSE_NO":"２９８號十三樓之２","E_COORD97":170908.97,"N_COORD97":2542987.1400000001,"ADDRESS":"裕農路２９８號十三樓之２","OBJECTID":512760},"geometry":{"x":170908.97000000067,"y":2542987.1400000025}},{"attributes":{"ID":512788,"DIS_CODE":0,"TOWNNAME":"東區","LI":"富強里","LIN":"1鄰","STREET":"裕農路","SECT":" ","MAREA":" ","LANE":" ","ALLEY":" ","HOUSE_NO":"２９８號十三樓之３","E_COORD97":170908.97,"N_COORD97":2542987.1400000001,"ADDRESS":"裕農路２９８號十三樓之３","OBJECTID":512761},"geometry":{"x":170908.97000000067,"y":2542987.1400000025}},{"attributes":{"ID":512789,"DIS_CODE":0,"TOWNNAME":"東區","LI":"富強里","LIN":"1鄰","STREET":"裕農路","SECT":" ","MAREA":" ","LANE":" ","ALLEY":" ","HOUSE_NO":"２９８號十樓","E_COORD97":170908.97,"N_COORD97":2542987.1400000001,"ADDRESS":"裕農路２９８號十樓","OBJECTID":512762},"geometry":{"x":170908.97000000067,"y":2542987.1400000025}},{"attributes":{"ID":512790,"DIS_CODE":0,"TOWNNAME":"東區","LI":"富強里","LIN":"1鄰","STREET":"裕農路","SECT":" ","MAREA":" ","LANE":" ","ALLEY":" ","HOUSE_NO":"２９８號十樓之２","E_COORD97":170908.97,"N_COORD97":2542987.1400000001,"ADDRESS":"裕農路２９８號十樓之２","OBJECTID":512763},"geometry":{"x":170908.97000000067,"y":2542987.1400000025}},{"attributes":{"ID":512791,"DIS_CODE":0,"TOWNNAME":"東區","LI":"富強里","LIN":"1鄰","STREET":"裕農路","SECT":" ","MAREA":" ","LANE":" ","ALLEY":" ","HOUSE_NO":"２９８號十樓之３","E_COORD97":170908.97,"N_COORD97":2542987.1400000001,"ADDRESS":"裕農路２９８號十樓之３","OBJECTID":512764},"geometry":{"x":170908.97000000067,"y":2542987.1400000025}},{"attributes":{"ID":512792,"DIS_CODE":0,"TOWNNAME":"東區","LI":"富強里","LIN":"1鄰","STREET":"裕農路","SECT":" ","MAREA":" ","LANE":" ","ALLEY":" ","HOUSE_NO":"２９８號五樓","E_COORD97":170908.97,"N_COORD97":2542987.1400000001,"ADDRESS":"裕農路２９８號五樓","OBJECTID":512765},"geometry":{"x":170908.97000000067,"y":2542987.1400000025}},{"attributes":{"ID":512793,"DIS_CODE":0,"TOWNNAME":"東區","LI":"富強里","LIN":"1鄰","STREET":"裕農路","SECT":" ","MAREA":" ","LANE":" ","ALLEY":" ","HOUSE_NO":"２９８號五樓之１","E_COORD97":170908.97,"N_COORD97":2542987.1400000001,"ADDRESS":"裕農路２９８號五樓之１","OBJECTID":512766},"geometry":{"x":170908.97000000067,"y":2542987.1400000025}},{"attributes":{"ID":512794,"DIS_CODE":0,"TOWNNAME":"東區","LI":"富強里","LIN":"1鄰","STREET":"裕農路","SECT":" ","MAREA":" ","LANE":" ","ALLEY":" ","HOUSE_NO":"２９８號五樓之２","E_COORD97":170908.97,"N_COORD97":2542987.1400000001,"ADDRESS":"裕農路２９８號五樓之２","OBJECTID":512767},"geometry":{"x":170908.97000000067,"y":2542987.1400000025}},{"attributes":{"ID":512795,"DIS_CODE":0,"TOWNNAME":"東區","LI":"富強里","LIN":"1鄰","STREET":"裕農路","SECT":" ","MAREA":" ","LANE":" ","ALLEY":" ","HOUSE_NO":"２９８號六樓之１","E_COORD97":170908.97,"N_COORD97":2542987.1400000001,"ADDRESS":"裕農路２９８號六樓之１","OBJECTID":512768},"geometry":{"x":170908.97000000067,"y":2542987.1400000025}},{"attributes":{"ID":512796,"DIS_CODE":0,"TOWNNAME":"東區","LI":"富強里","LIN":"1鄰","STREET":"裕農路","SECT":" ","MAREA":" ","LANE":" ","ALLEY":" ","HOUSE_NO":"２９８號六樓之２","E_COORD97":170908.97,"N_COORD97":2542987.1400000001,"ADDRESS":"裕農路２９８號六樓之２","OBJECTID":512769},"geometry":{"x":170908.97000000067,"y":2542987.1400000025}},{"attributes":{"ID":512797,"DIS_CODE":0,"TOWNNAME":"東區","LI":"富強里","LIN":"1鄰","STREET":"裕農路","SECT":" ","MAREA":" ","LANE":" ","ALLEY":" ","HOUSE_NO":"２９８號六樓之３","E_COORD97":170908.97,"N_COORD97":2542987.1400000001,"ADDRESS":"裕農路２９８號六樓之３","OBJECTID":512770},"geometry":{"x":170908.97000000067,"y":2542987.1400000025}},{"attributes":{"ID":512798,"DIS_CODE":0,"TOWNNAME":"東區","LI":"富強里","LIN":"1鄰","STREET":"裕農路","SECT":" ","MAREA":" ","LANE":" ","ALLEY":" ","HOUSE_NO":"３０８號七樓","E_COORD97":170937.63,"N_COORD97":2543003.2000000002,"ADDRESS":"裕農路３０８號七樓","OBJECTID":512771},"geometry":{"x":170937.62999999989,"y":2543003.2000000011}},{"attributes":{"ID":512799,"DIS_CODE":0,"TOWNNAME":"東區","LI":"富強里","LIN":"1鄰","STREET":"裕農路","SECT":" ","MAREA":" ","LANE":" ","ALLEY":" ","HOUSE_NO":"３０８號七樓之３","E_COORD97":170937.63,"N_COORD97":2543003.2000000002,"ADDRESS":"裕農路３０８號七樓之３","OBJECTID":512772},"geometry":{"x":170937.62999999989,"y":2543003.2000000011}},{"attributes":{"ID":512800,"DIS_CODE":0,"TOWNNAME":"東區","LI":"富強里","LIN":"1鄰","STREET":"裕農路","SECT":" ","MAREA":" ","LANE":" ","ALLEY":" ","HOUSE_NO":"３０８號九樓","E_COORD97":170937.63,"N_COORD97":2543003.2000000002,"ADDRESS":"裕農路３０８號九樓","OBJECTID":512773},"geometry":{"x":170937.62999999989,"y":2543003.2000000011}},{"attributes":{"ID":512801,"DIS_CODE":0,"TOWNNAME":"東區","LI":"富強里","LIN":"1鄰","STREET":"裕農路","SECT":" ","MAREA":" ","LANE":" ","ALLEY":" ","HOUSE_NO":"３０８號九樓之１","E_COORD97":170937.63,"N_COORD97":2543003.2000000002,"ADDRESS":"裕農路３０８號九樓之１","OBJECTID":512774},"geometry":{"x":170937.62999999989,"y":2543003.2000000011}},{"attributes":{"ID":512802,"DIS_CODE":0,"TOWNNAME":"東區","LI":"富強里","LIN":"1鄰","STREET":"裕農路","SECT":" ","MAREA":" ","LANE":" ","ALLEY":" ","HOUSE_NO":"３０８號九樓之２","E_COORD97":170937.63,"N_COORD97":2543003.2000000002,"ADDRESS":"裕農路３０８號九樓之２","OBJECTID":512775},"geometry":{"x":170937.62999999989,"y":2543003.2000000011}},{"attributes":{"ID":512803,"DIS_CODE":0,"TOWNNAME":"東區","LI":"富強里","LIN":"1鄰","STREET":"裕農路","SECT":" ","MAREA":" ","LANE":" ","ALLEY":" ","HOUSE_NO":"３０８號八樓","E_COORD97":170937.63,"N_COORD97":2543003.2000000002,"ADDRESS":"裕農路３０８號八樓","OBJECTID":512776},"geometry":{"x":170937.62999999989,"y":2543003.2000000011}},{"attributes":{"ID":512804,"DIS_CODE":0,"TOWNNAME":"安平區","LI":"怡平里","LIN":"15鄰","STREET":"建平十一街","SECT":" ","MAREA":" ","LANE":" ","ALLEY":" ","HOUSE_NO":"２６１號","E_COORD97":165715.70000000001,"N_COORD97":2543966.79,"ADDRESS":"建平十一街２６１號","OBJECTID":512777},"geometry":{"x":165715.70000000112,"y":2543966.7899999991}},{"attributes":{"ID":512805,"DIS_CODE":0,"TOWNNAME":"安平區","LI":"怡平里","LIN":"15鄰","STREET":"建平十一街","SECT":" ","MAREA":" ","LANE":" ","ALLEY":" ","HOUSE_NO":"２６３號","E_COORD97":165711.32000000001,"N_COORD97":2543967.6699999999,"ADDRESS":"建平十一街２６３號","OBJECTID":512778},"geometry":{"x":165711.32000000123,"y":2543967.6699999999}},{"attributes":{"ID":512806,"DIS_CODE":0,"TOWNNAME":"安平區","LI":"怡平里","LIN":"15鄰","STREET":"建平十一街","SECT":" ","MAREA":" ","LANE":" ","ALLEY":" ","HOUSE_NO":"２６５號","E_COORD97":165707.23000000001,"N_COORD97":2543967.96,"ADDRESS":"建平十一街２６５號","OBJECTID":512779},"geometry":{"x":165707.23000000138,"y":2543967.9600000046}},{"attributes":{"ID":512807,"DIS_CODE":0,"TOWNNAME":"安平區","LI":"怡平里","LIN":"15鄰","STREET":"建平十一街","SECT":" ","MAREA":" ","LANE":" ","ALLEY":" ","HOUSE_NO":"２６７號","E_COORD97":165702.54999999999,"N_COORD97":2543967.6699999999,"ADDRESS":"建平十一街２６７號","OBJECTID":512780},"geometry":{"x":165702.55000000075,"y":2543967.6699999999}},{"attributes":{"ID":512808,"DIS_CODE":0,"TOWNNAME":"東區","LI":"富強里","LIN":"1鄰","STREET":"裕農路","SECT":" ","MAREA":" ","LANE":" ","ALLEY":" ","HOUSE_NO":"３０８號八樓之１","E_COORD97":170937.63,"N_COORD97":2543003.2000000002,"ADDRESS":"裕農路３０８號八樓之１","OBJECTID":512781},"geometry":{"x":170937.62999999989,"y":2543003.2000000011}},{"attributes":{"ID":512809,"DIS_CODE":0,"TOWNNAME":"東區","LI":"富強里","LIN":"1鄰","STREET":"裕農路","SECT":" ","MAREA":" ","LANE":" ","ALLEY":" ","HOUSE_NO":"３０８號八樓之３","E_COORD97":170937.63,"N_COORD97":2543003.2000000002,"ADDRESS":"裕農路３０８號八樓之３","OBJECTID":512782},"geometry":{"x":170937.62999999989,"y":2543003.2000000011}},{"attributes":{"ID":512810,"DIS_CODE":0,"TOWNNAME":"東區","LI":"富強里","LIN":"1鄰","STREET":"裕農路","SECT":" ","MAREA":" ","LANE":" ","ALLEY":" ","HOUSE_NO":"３０８號十一樓之１","E_COORD97":170937.63,"N_COORD97":2543003.2000000002,"ADDRESS":"裕農路３０８號十一樓之１","OBJECTID":512783},"geometry":{"x":170937.62999999989,"y":2543003.2000000011}},{"attributes":{"ID":512811,"DIS_CODE":0,"TOWNNAME":"東區","LI":"富強里","LIN":"1鄰","STREET":"裕農路","SECT":" ","MAREA":" ","LANE":" ","ALLEY":" ","HOUSE_NO":"３０８號十二樓之２","E_COORD97":170937.63,"N_COORD97":2543003.2000000002,"ADDRESS":"裕農路３０８號十二樓之２","OBJECTID":512784},"geometry":{"x":170937.62999999989,"y":2543003.2000000011}},{"attributes":{"ID":512812,"DIS_CODE":0,"TOWNNAME":"東區","LI":"富強里","LIN":"1鄰","STREET":"裕農路","SECT":" ","MAREA":" ","LANE":" ","ALLEY":" ","HOUSE_NO":"３０８號十三樓之１","E_COORD97":170937.63,"N_COORD97":2543003.2000000002,"ADDRESS":"裕農路３０８號十三樓之１","OBJECTID":512785},"geometry":{"x":170937.62999999989,"y":2543003.2000000011}},{"attributes":{"ID":512813,"DIS_CODE":0,"TOWNNAME":"東區","LI":"富強里","LIN":"1鄰","STREET":"裕農路","SECT":" ","MAREA":" ","LANE":" ","ALLEY":" ","HOUSE_NO":"３０８號十三樓之３","E_COORD97":170937.63,"N_COORD97":2543003.2000000002,"ADDRESS":"裕農路３０８號十三樓之３","OBJECTID":512786},"geometry":{"x":170937.62999999989,"y":2543003.2000000011}},{"attributes":{"ID":512814,"DIS_CODE":0,"TOWNNAME":"東區","LI":"富強里","LIN":"1鄰","STREET":"裕農路","SECT":" ","MAREA":" ","LANE":" ","ALLEY":" ","HOUSE_NO":"３０８號十樓","E_COORD97":170937.63,"N_COORD97":2543003.2000000002,"ADDRESS":"裕農路３０８號十樓","OBJECTID":512787},"geometry":{"x":170937.62999999989,"y":2543003.2000000011}},{"attributes":{"ID":512815,"DIS_CODE":0,"TOWNNAME":"東區","LI":"富強里","LIN":"1鄰","STREET":"裕農路","SECT":" ","MAREA":" ","LANE":" ","ALLEY":" ","HOUSE_NO":"３０８號十樓之２","E_COORD97":170937.63,"N_COORD97":2543003.2000000002,"ADDRESS":"裕農路３０８號十樓之２","OBJECTID":512788},"geometry":{"x":170937.62999999989,"y":2543003.2000000011}},{"attributes":{"ID":512816,"DIS_CODE":0,"TOWNNAME":"東區","LI":"富強里","LIN":"1鄰","STREET":"裕農路","SECT":" ","MAREA":" ","LANE":" ","ALLEY":" ","HOUSE_NO":"３０８號十樓之３","E_COORD97":170937.63,"N_COORD97":2543003.2000000002,"ADDRESS":"裕農路３０８號十樓之３","OBJECTID":512789},"geometry":{"x":170937.62999999989,"y":2543003.2000000011}},{"attributes":{"ID":512817,"DIS_CODE":0,"TOWNNAME":"東區","LI":"富強里","LIN":"1鄰","STREET":"裕農路","SECT":" ","MAREA":" ","LANE":" ","ALLEY":" ","HOUSE_NO":"３０８號五樓之２","E_COORD97":170937.63,"N_COORD97":2543003.2000000002,"ADDRESS":"裕農路３０８號五樓之２","OBJECTID":512790},"geometry":{"x":170937.62999999989,"y":2543003.2000000011}},{"attributes":{"ID":512818,"DIS_CODE":0,"TOWNNAME":"東區","LI":"富強里","LIN":"1鄰","STREET":"裕農路","SECT":" ","MAREA":" ","LANE":" ","ALLEY":" ","HOUSE_NO":"３０８號六樓之２","E_COORD97":170937.63,"N_COORD97":2543003.2000000002,"ADDRESS":"裕農路３０８號六樓之２","OBJECTID":512791},"geometry":{"x":170937.62999999989,"y":2543003.2000000011}},{"attributes":{"ID":512819,"DIS_CODE":0,"TOWNNAME":"東區","LI":"崇明里","LIN":"1鄰","STREET":"中華東路","SECT":"三段","MAREA":" ","LANE":" ","ALLEY":" ","HOUSE_NO":"５０７號六樓之１","E_COORD97":169682.48000000001,"N_COORD97":2541461.7999999998,"ADDRESS":"中華東路三段５０７號六樓之１","OBJECTID":512792},"geometry":{"x":169682.48000000138,"y":2541461.8000000007}},{"attributes":{"ID":512820,"DIS_CODE":0,"TOWNNAME":"東區","LI":"富強里","LIN":"1鄰","STREET":"裕農路","SECT":" ","MAREA":" ","LANE":" ","ALLEY":" ","HOUSE_NO":"３０８號八樓之２","E_COORD97":170937.63,"N_COORD97":2543003.2000000002,"ADDRESS":"裕農路３０８號八樓之２","OBJECTID":512793},"geometry":{"x":170937.62999999989,"y":2543003.2000000011}},{"attributes":{"ID":512821,"DIS_CODE":0,"TOWNNAME":"東區","LI":"富強里","LIN":"1鄰","STREET":"裕農路","SECT":" ","MAREA":" ","LANE":" ","ALLEY":" ","HOUSE_NO":"３０８號十四樓","E_COORD97":170937.63,"N_COORD97":2543003.2000000002,"ADDRESS":"裕農路３０８號十四樓","OBJECTID":512794},"geometry":{"x":170937.62999999989,"y":2543003.2000000011}},{"attributes":{"ID":512822,"DIS_CODE":0,"TOWNNAME":"東區","LI":"富強里","LIN":"1鄰","STREET":"裕農路","SECT":" ","MAREA":" ","LANE":" ","ALLEY":" ","HOUSE_NO":"３０８號五樓之３","E_COORD97":170937.63,"N_COORD97":2543003.2000000002,"ADDRESS":"裕農路３０８號五樓之３","OBJECTID":512795},"geometry":{"x":170937.62999999989,"y":2543003.2000000011}},{"attributes":{"ID":512823,"DIS_CODE":0,"TOWNNAME":"東區","LI":"富強里","LIN":"1鄰","STREET":"裕農路","SECT":" ","MAREA":" ","LANE":" ","ALLEY":" ","HOUSE_NO":"２９８號七樓之３","E_COORD97":170908.97,"N_COORD97":2542987.1400000001,"ADDRESS":"裕農路２９８號七樓之３","OBJECTID":512796},"geometry":{"x":170908.97000000067,"y":2542987.1400000025}},{"attributes":{"ID":512824,"DIS_CODE":0,"TOWNNAME":"東區","LI":"富強里","LIN":"1鄰","STREET":"裕農路","SECT":" ","MAREA":" ","LANE":" ","ALLEY":" ","HOUSE_NO":"３０８號十二樓","E_COORD97":170937.63,"N_COORD97":2543003.2000000002,"ADDRESS":"裕農路３０８號十二樓","OBJECTID":512797},"geometry":{"x":170937.62999999989,"y":2543003.2000000011}},{"attributes":{"ID":512825,"DIS_CODE":0,"TOWNNAME":"東區","LI":"崇明里","LIN":"1鄰","STREET":"中華東路","SECT":"三段","MAREA":" ","LANE":" ","ALLEY":" ","HOUSE_NO":"５０７號三樓","E_COORD97":169682.48000000001,"N_COORD97":2541461.7999999998,"ADDRESS":"中華東路三段５０７號三樓","OBJECTID":512798},"geometry":{"x":169682.48000000138,"y":2541461.8000000007}},{"attributes":{"ID":512826,"DIS_CODE":0,"TOWNNAME":"東區","LI":"崇明里","LIN":"1鄰","STREET":"中華東路","SECT":"三段","MAREA":" ","LANE":" ","ALLEY":" ","HOUSE_NO":"５０７號三樓之２","E_COORD97":169682.48000000001,"N_COORD97":2541461.7999999998,"ADDRESS":"中華東路三段５０７號三樓之２","OBJECTID":512799},"geometry":{"x":169682.48000000138,"y":2541461.8000000007}},{"attributes":{"ID":512827,"DIS_CODE":0,"TOWNNAME":"東區","LI":"崇明里","LIN":"1鄰","STREET":"中華東路","SECT":"三段","MAREA":" ","LANE":" ","ALLEY":" ","HOUSE_NO":"５０７號三樓之３","E_COORD97":169682.48000000001,"N_COORD97":2541461.7999999998,"ADDRESS":"中華東路三段５０７號三樓之３","OBJECTID":512800},"geometry":{"x":169682.48000000138,"y":2541461.8000000007}}]}