{"displayFieldName":"TOWNNAME","fieldAliases":{"ID":"ID","DIS_CODE":"DIS_CODE","TOWNNAME":"TOWNNAME","LI":"LI","LIN":"LIN","STREET":"STREET","SECT":"SECT","MAREA":"MAREA","LANE":"LANE","ALLEY":"ALLEY","HOUSE_NO":"HOUSE_NO","E_COORD97":"E_COORD97","N_COORD97":"N_COORD97","ADDRESS":"ADDRESS","OBJECTID":"OBJECTID"},"geometryType":"esriGeometryPoint","spatialReference":{"wkid":102443,"latestWkid":3826},"fields":[{"name":"ID","type":"esriFieldTypeDouble","alias":"ID"},{"name":"DIS_CODE","type":"esriFieldTypeInteger","alias":"DIS_CODE"},{"name":"TOWNNAME","type":"esriFieldTypeString","alias":"TOWNNAME","length":8},{"name":"LI","type":"esriFieldTypeString","alias":"LI","length":8},{"name":"LIN","type":"esriFieldTypeString","alias":"LIN","length":12},{"name":"STREET","type":"esriFieldTypeString","alias":"STREET","length":20},{"name":"SECT","type":"esriFieldTypeString","alias":"SECT","length":8},{"name":"MAREA","type":"esriFieldTypeString","alias":"MAREA","length":12},{"name":"LANE","type":"esriFieldTypeString","alias":"LANE","length":10},{"name":"ALLEY","type":"esriFieldTypeString","alias":"ALLEY","length":10},{"name":"HOUSE_NO","type":"esriFieldTypeString","alias":"HOUSE_NO","length":20},{"name":"E_COORD97","type":"esriFieldTypeDouble","alias":"E_COORD97"},{"name":"N_COORD97","type":"esriFieldTypeDouble","alias":"N_COORD97"},{"name":"ADDRESS","type":"esriFieldTypeString","alias":"ADDRESS","length":50},{"name":"OBJECTID","type":"esriFieldTypeOID","alias":"OBJECTID"}],"features":[{"attributes":{"ID":549028,"DIS_CODE":0,"TOWNNAME":"中西區","LI":"民主里","LIN":"10鄰","STREET":"友愛街","SECT":" ","MAREA":" ","LANE":" ","ALLEY":" ","HOUSE_NO":"３６３號四樓","E_COORD97":167368.14999999999,"N_COORD97":2543680.0499999998,"ADDRESS":"友愛街３６３號四樓","OBJECTID":549001},"geometry":{"x":167368.15000000037,"y":2543680.0500000026}},{"attributes":{"ID":549029,"DIS_CODE":0,"TOWNNAME":"東區","LI":"虎尾里","LIN":"10鄰","STREET":"東門路","SECT":"三段","MAREA":" ","LANE":" ","ALLEY":" ","HOUSE_NO":"１０１號七樓","E_COORD97":171300.14000000001,"N_COORD97":2542191.2200000002,"ADDRESS":"東門路三段１０１號七樓","OBJECTID":549002},"geometry":{"x":171300.13999999966,"y":2542191.2200000007}},{"attributes":{"ID":549030,"DIS_CODE":0,"TOWNNAME":"東區","LI":"虎尾里","LIN":"10鄰","STREET":"東門路","SECT":"三段","MAREA":" ","LANE":" ","ALLEY":" ","HOUSE_NO":"１０１號七樓之１","E_COORD97":171300.14000000001,"N_COORD97":2542191.2200000002,"ADDRESS":"東門路三段１０１號七樓之１","OBJECTID":549003},"geometry":{"x":171300.13999999966,"y":2542191.2200000007}},{"attributes":{"ID":549031,"DIS_CODE":0,"TOWNNAME":"東區","LI":"虎尾里","LIN":"10鄰","STREET":"東門路","SECT":"三段","MAREA":" ","LANE":" ","ALLEY":" ","HOUSE_NO":"１０１號七樓之２","E_COORD97":171300.14000000001,"N_COORD97":2542191.2200000002,"ADDRESS":"東門路三段１０１號七樓之２","OBJECTID":549004},"geometry":{"x":171300.13999999966,"y":2542191.2200000007}},{"attributes":{"ID":549032,"DIS_CODE":0,"TOWNNAME":"東區","LI":"虎尾里","LIN":"10鄰","STREET":"東門路","SECT":"三段","MAREA":" ","LANE":" ","ALLEY":" ","HOUSE_NO":"１０１號七樓之３","E_COORD97":171300.14000000001,"N_COORD97":2542191.2200000002,"ADDRESS":"東門路三段１０１號七樓之３","OBJECTID":549005},"geometry":{"x":171300.13999999966,"y":2542191.2200000007}},{"attributes":{"ID":549033,"DIS_CODE":0,"TOWNNAME":"東區","LI":"虎尾里","LIN":"10鄰","STREET":"東門路","SECT":"三段","MAREA":" ","LANE":" ","ALLEY":" ","HOUSE_NO":"１０１號九樓","E_COORD97":171300.14000000001,"N_COORD97":2542191.2200000002,"ADDRESS":"東門路三段１０１號九樓","OBJECTID":549006},"geometry":{"x":171300.13999999966,"y":2542191.2200000007}},{"attributes":{"ID":549034,"DIS_CODE":0,"TOWNNAME":"東區","LI":"虎尾里","LIN":"10鄰","STREET":"東門路","SECT":"三段","MAREA":" ","LANE":" ","ALLEY":" ","HOUSE_NO":"１０１號九樓之１","E_COORD97":171300.14000000001,"N_COORD97":2542191.2200000002,"ADDRESS":"東門路三段１０１號九樓之１","OBJECTID":549007},"geometry":{"x":171300.13999999966,"y":2542191.2200000007}},{"attributes":{"ID":549035,"DIS_CODE":0,"TOWNNAME":"東區","LI":"虎尾里","LIN":"10鄰","STREET":"東門路","SECT":"三段","MAREA":" ","LANE":" ","ALLEY":" ","HOUSE_NO":"１０１號九樓之２","E_COORD97":171300.14000000001,"N_COORD97":2542191.2200000002,"ADDRESS":"東門路三段１０１號九樓之２","OBJECTID":549008},"geometry":{"x":171300.13999999966,"y":2542191.2200000007}},{"attributes":{"ID":549036,"DIS_CODE":0,"TOWNNAME":"東區","LI":"虎尾里","LIN":"10鄰","STREET":"東門路","SECT":"三段","MAREA":" ","LANE":" ","ALLEY":" ","HOUSE_NO":"１０１號九樓之３","E_COORD97":171300.14000000001,"N_COORD97":2542191.2200000002,"ADDRESS":"東門路三段１０１號九樓之３","OBJECTID":549009},"geometry":{"x":171300.13999999966,"y":2542191.2200000007}},{"attributes":{"ID":549037,"DIS_CODE":0,"TOWNNAME":"東區","LI":"虎尾里","LIN":"10鄰","STREET":"東門路","SECT":"三段","MAREA":" ","LANE":" ","ALLEY":" ","HOUSE_NO":"１０１號二樓","E_COORD97":171300.14000000001,"N_COORD97":2542191.2200000002,"ADDRESS":"東門路三段１０１號二樓","OBJECTID":549010},"geometry":{"x":171300.13999999966,"y":2542191.2200000007}},{"attributes":{"ID":549038,"DIS_CODE":0,"TOWNNAME":"東區","LI":"虎尾里","LIN":"10鄰","STREET":"東門路","SECT":"三段","MAREA":" ","LANE":" ","ALLEY":" ","HOUSE_NO":"１０１號八樓","E_COORD97":171300.14000000001,"N_COORD97":2542191.2200000002,"ADDRESS":"東門路三段１０１號八樓","OBJECTID":549011},"geometry":{"x":171300.13999999966,"y":2542191.2200000007}},{"attributes":{"ID":549039,"DIS_CODE":0,"TOWNNAME":"東區","LI":"虎尾里","LIN":"10鄰","STREET":"東門路","SECT":"三段","MAREA":" ","LANE":" ","ALLEY":" ","HOUSE_NO":"１０１號八樓之１","E_COORD97":171300.14000000001,"N_COORD97":2542191.2200000002,"ADDRESS":"東門路三段１０１號八樓之１","OBJECTID":549012},"geometry":{"x":171300.13999999966,"y":2542191.2200000007}},{"attributes":{"ID":549040,"DIS_CODE":0,"TOWNNAME":"東區","LI":"虎尾里","LIN":"10鄰","STREET":"東門路","SECT":"三段","MAREA":" ","LANE":" ","ALLEY":" ","HOUSE_NO":"１０１號八樓之２","E_COORD97":171300.14000000001,"N_COORD97":2542191.2200000002,"ADDRESS":"東門路三段１０１號八樓之２","OBJECTID":549013},"geometry":{"x":171300.13999999966,"y":2542191.2200000007}},{"attributes":{"ID":549041,"DIS_CODE":0,"TOWNNAME":"東區","LI":"虎尾里","LIN":"10鄰","STREET":"東門路","SECT":"三段","MAREA":" ","LANE":" ","ALLEY":" ","HOUSE_NO":"１０１號八樓之３","E_COORD97":171300.14000000001,"N_COORD97":2542191.2200000002,"ADDRESS":"東門路三段１０１號八樓之３","OBJECTID":549014},"geometry":{"x":171300.13999999966,"y":2542191.2200000007}},{"attributes":{"ID":549042,"DIS_CODE":0,"TOWNNAME":"東區","LI":"虎尾里","LIN":"10鄰","STREET":"東門路","SECT":"三段","MAREA":" ","LANE":" ","ALLEY":" ","HOUSE_NO":"１０１號十一樓","E_COORD97":171300.14000000001,"N_COORD97":2542191.2200000002,"ADDRESS":"東門路三段１０１號十一樓","OBJECTID":549015},"geometry":{"x":171300.13999999966,"y":2542191.2200000007}},{"attributes":{"ID":549043,"DIS_CODE":0,"TOWNNAME":"東區","LI":"虎尾里","LIN":"10鄰","STREET":"東門路","SECT":"三段","MAREA":" ","LANE":" ","ALLEY":" ","HOUSE_NO":"１０１號十一樓之１","E_COORD97":171300.14000000001,"N_COORD97":2542191.2200000002,"ADDRESS":"東門路三段１０１號十一樓之１","OBJECTID":549016},"geometry":{"x":171300.13999999966,"y":2542191.2200000007}},{"attributes":{"ID":549044,"DIS_CODE":0,"TOWNNAME":"東區","LI":"虎尾里","LIN":"10鄰","STREET":"東門路","SECT":"三段","MAREA":" ","LANE":" ","ALLEY":" ","HOUSE_NO":"１０１號十一樓之２","E_COORD97":171300.14000000001,"N_COORD97":2542191.2200000002,"ADDRESS":"東門路三段１０１號十一樓之２","OBJECTID":549017},"geometry":{"x":171300.13999999966,"y":2542191.2200000007}},{"attributes":{"ID":549045,"DIS_CODE":0,"TOWNNAME":"東區","LI":"虎尾里","LIN":"10鄰","STREET":"東門路","SECT":"三段","MAREA":" ","LANE":" ","ALLEY":" ","HOUSE_NO":"１０１號十一樓之３","E_COORD97":171300.14000000001,"N_COORD97":2542191.2200000002,"ADDRESS":"東門路三段１０１號十一樓之３","OBJECTID":549018},"geometry":{"x":171300.13999999966,"y":2542191.2200000007}},{"attributes":{"ID":549046,"DIS_CODE":0,"TOWNNAME":"東區","LI":"崇成里","LIN":"10鄰","STREET":"崇德十四街","SECT":" ","MAREA":" ","LANE":" ","ALLEY":" ","HOUSE_NO":"４０號","E_COORD97":170909.47,"N_COORD97":2541225.4700000002,"ADDRESS":"崇德十四街４０號","OBJECTID":549019},"geometry":{"x":170909.46999999974,"y":2541225.4700000025}},{"attributes":{"ID":549047,"DIS_CODE":0,"TOWNNAME":"東區","LI":"虎尾里","LIN":"10鄰","STREET":"東門路","SECT":"三段","MAREA":" ","LANE":" ","ALLEY":" ","HOUSE_NO":"１０１號十二樓","E_COORD97":171300.14000000001,"N_COORD97":2542191.2200000002,"ADDRESS":"東門路三段１０１號十二樓","OBJECTID":549020},"geometry":{"x":171300.13999999966,"y":2542191.2200000007}},{"attributes":{"ID":549048,"DIS_CODE":0,"TOWNNAME":"東區","LI":"虎尾里","LIN":"10鄰","STREET":"東門路","SECT":"三段","MAREA":" ","LANE":" ","ALLEY":" ","HOUSE_NO":"１０１號十二樓之１","E_COORD97":171300.14000000001,"N_COORD97":2542191.2200000002,"ADDRESS":"東門路三段１０１號十二樓之１","OBJECTID":549021},"geometry":{"x":171300.13999999966,"y":2542191.2200000007}},{"attributes":{"ID":549049,"DIS_CODE":0,"TOWNNAME":"東區","LI":"虎尾里","LIN":"10鄰","STREET":"東門路","SECT":"三段","MAREA":" ","LANE":" ","ALLEY":" ","HOUSE_NO":"１０１號十二樓之２","E_COORD97":171300.14000000001,"N_COORD97":2542191.2200000002,"ADDRESS":"東門路三段１０１號十二樓之２","OBJECTID":549022},"geometry":{"x":171300.13999999966,"y":2542191.2200000007}},{"attributes":{"ID":549050,"DIS_CODE":0,"TOWNNAME":"東區","LI":"虎尾里","LIN":"10鄰","STREET":"東門路","SECT":"三段","MAREA":" ","LANE":" ","ALLEY":" ","HOUSE_NO":"１０１號十二樓之３","E_COORD97":171300.14000000001,"N_COORD97":2542191.2200000002,"ADDRESS":"東門路三段１０１號十二樓之３","OBJECTID":549023},"geometry":{"x":171300.13999999966,"y":2542191.2200000007}},{"attributes":{"ID":549051,"DIS_CODE":0,"TOWNNAME":"東區","LI":"虎尾里","LIN":"10鄰","STREET":"東門路","SECT":"三段","MAREA":" ","LANE":" ","ALLEY":" ","HOUSE_NO":"１０１號十樓","E_COORD97":171300.14000000001,"N_COORD97":2542191.2200000002,"ADDRESS":"東門路三段１０１號十樓","OBJECTID":549024},"geometry":{"x":171300.13999999966,"y":2542191.2200000007}},{"attributes":{"ID":549052,"DIS_CODE":0,"TOWNNAME":"東區","LI":"虎尾里","LIN":"10鄰","STREET":"東門路","SECT":"三段","MAREA":" ","LANE":" ","ALLEY":" ","HOUSE_NO":"１０１號十樓之１","E_COORD97":171300.14000000001,"N_COORD97":2542191.2200000002,"ADDRESS":"東門路三段１０１號十樓之１","OBJECTID":549025},"geometry":{"x":171300.13999999966,"y":2542191.2200000007}},{"attributes":{"ID":549053,"DIS_CODE":0,"TOWNNAME":"東區","LI":"虎尾里","LIN":"10鄰","STREET":"東門路","SECT":"三段","MAREA":" ","LANE":" ","ALLEY":" ","HOUSE_NO":"１０１號十樓之２","E_COORD97":171300.14000000001,"N_COORD97":2542191.2200000002,"ADDRESS":"東門路三段１０１號十樓之２","OBJECTID":549026},"geometry":{"x":171300.13999999966,"y":2542191.2200000007}},{"attributes":{"ID":549054,"DIS_CODE":0,"TOWNNAME":"東區","LI":"虎尾里","LIN":"10鄰","STREET":"東門路","SECT":"三段","MAREA":" ","LANE":" ","ALLEY":" ","HOUSE_NO":"１０１號十樓之３","E_COORD97":171300.14000000001,"N_COORD97":2542191.2200000002,"ADDRESS":"東門路三段１０１號十樓之３","OBJECTID":549027},"geometry":{"x":171300.13999999966,"y":2542191.2200000007}},{"attributes":{"ID":549055,"DIS_CODE":0,"TOWNNAME":"東區","LI":"虎尾里","LIN":"10鄰","STREET":"東門路","SECT":"三段","MAREA":" ","LANE":" ","ALLEY":" ","HOUSE_NO":"１０１號三樓","E_COORD97":171300.14000000001,"N_COORD97":2542191.2200000002,"ADDRESS":"東門路三段１０１號三樓","OBJECTID":549028},"geometry":{"x":171300.13999999966,"y":2542191.2200000007}},{"attributes":{"ID":549056,"DIS_CODE":0,"TOWNNAME":"東區","LI":"虎尾里","LIN":"10鄰","STREET":"東門路","SECT":"三段","MAREA":" ","LANE":" ","ALLEY":" ","HOUSE_NO":"１０１號三樓之１","E_COORD97":171300.14000000001,"N_COORD97":2542191.2200000002,"ADDRESS":"東門路三段１０１號三樓之１","OBJECTID":549029},"geometry":{"x":171300.13999999966,"y":2542191.2200000007}},{"attributes":{"ID":549057,"DIS_CODE":0,"TOWNNAME":"東區","LI":"虎尾里","LIN":"10鄰","STREET":"東門路","SECT":"三段","MAREA":" ","LANE":" ","ALLEY":" ","HOUSE_NO":"１０１號三樓之２","E_COORD97":171300.14000000001,"N_COORD97":2542191.2200000002,"ADDRESS":"東門路三段１０１號三樓之２","OBJECTID":549030},"geometry":{"x":171300.13999999966,"y":2542191.2200000007}},{"attributes":{"ID":549058,"DIS_CODE":0,"TOWNNAME":"東區","LI":"裕聖里","LIN":"10鄰","STREET":"裕孝三街","SECT":" ","MAREA":" ","LANE":" ","ALLEY":" ","HOUSE_NO":"５６號二樓","E_COORD97":172538.79999999999,"N_COORD97":2542030.6699999999,"ADDRESS":"裕孝三街５６號二樓","OBJECTID":549031},"geometry":{"x":172538.79999999888,"y":2542030.6700000018}},{"attributes":{"ID":549059,"DIS_CODE":0,"TOWNNAME":"東區","LI":"虎尾里","LIN":"10鄰","STREET":"東門路","SECT":"三段","MAREA":" ","LANE":" ","ALLEY":" ","HOUSE_NO":"１０１號三樓之３","E_COORD97":171300.14000000001,"N_COORD97":2542191.2200000002,"ADDRESS":"東門路三段１０１號三樓之３","OBJECTID":549032},"geometry":{"x":171300.13999999966,"y":2542191.2200000007}},{"attributes":{"ID":549060,"DIS_CODE":0,"TOWNNAME":"東區","LI":"虎尾里","LIN":"10鄰","STREET":"東門路","SECT":"三段","MAREA":" ","LANE":" ","ALLEY":" ","HOUSE_NO":"１０１號五樓","E_COORD97":171300.14000000001,"N_COORD97":2542191.2200000002,"ADDRESS":"東門路三段１０１號五樓","OBJECTID":549033},"geometry":{"x":171300.13999999966,"y":2542191.2200000007}},{"attributes":{"ID":549061,"DIS_CODE":0,"TOWNNAME":"東區","LI":"虎尾里","LIN":"10鄰","STREET":"東門路","SECT":"三段","MAREA":" ","LANE":" ","ALLEY":" ","HOUSE_NO":"１０１號五樓之１","E_COORD97":171300.14000000001,"N_COORD97":2542191.2200000002,"ADDRESS":"東門路三段１０１號五樓之１","OBJECTID":549034},"geometry":{"x":171300.13999999966,"y":2542191.2200000007}},{"attributes":{"ID":549062,"DIS_CODE":0,"TOWNNAME":"東區","LI":"裕聖里","LIN":"10鄰","STREET":"裕孝三街","SECT":" ","MAREA":" ","LANE":" ","ALLEY":" ","HOUSE_NO":"５６號六樓","E_COORD97":172538.79999999999,"N_COORD97":2542030.6699999999,"ADDRESS":"裕孝三街５６號六樓","OBJECTID":549035},"geometry":{"x":172538.79999999888,"y":2542030.6700000018}},{"attributes":{"ID":549063,"DIS_CODE":0,"TOWNNAME":"東區","LI":"虎尾里","LIN":"10鄰","STREET":"東門路","SECT":"三段","MAREA":" ","LANE":" ","ALLEY":" ","HOUSE_NO":"１０１號五樓之２","E_COORD97":171300.14000000001,"N_COORD97":2542191.2200000002,"ADDRESS":"東門路三段１０１號五樓之２","OBJECTID":549036},"geometry":{"x":171300.13999999966,"y":2542191.2200000007}},{"attributes":{"ID":549064,"DIS_CODE":0,"TOWNNAME":"東區","LI":"虎尾里","LIN":"10鄰","STREET":"東門路","SECT":"三段","MAREA":" ","LANE":" ","ALLEY":" ","HOUSE_NO":"１０１號五樓之３","E_COORD97":171300.14000000001,"N_COORD97":2542191.2200000002,"ADDRESS":"東門路三段１０１號五樓之３","OBJECTID":549037},"geometry":{"x":171300.13999999966,"y":2542191.2200000007}},{"attributes":{"ID":549065,"DIS_CODE":0,"TOWNNAME":"東區","LI":"虎尾里","LIN":"10鄰","STREET":"東門路","SECT":"三段","MAREA":" ","LANE":" ","ALLEY":" ","HOUSE_NO":"１０１號五樓之４","E_COORD97":171300.14000000001,"N_COORD97":2542191.2200000002,"ADDRESS":"東門路三段１０１號五樓之４","OBJECTID":549038},"geometry":{"x":171300.13999999966,"y":2542191.2200000007}},{"attributes":{"ID":549066,"DIS_CODE":0,"TOWNNAME":"東區","LI":"虎尾里","LIN":"10鄰","STREET":"東門路","SECT":"三段","MAREA":" ","LANE":" ","ALLEY":" ","HOUSE_NO":"１０１號五樓之５","E_COORD97":171300.14000000001,"N_COORD97":2542191.2200000002,"ADDRESS":"東門路三段１０１號五樓之５","OBJECTID":549039},"geometry":{"x":171300.13999999966,"y":2542191.2200000007}},{"attributes":{"ID":549067,"DIS_CODE":0,"TOWNNAME":"東區","LI":"虎尾里","LIN":"10鄰","STREET":"東門路","SECT":"三段","MAREA":" ","LANE":" ","ALLEY":" ","HOUSE_NO":"１０１號五樓之６","E_COORD97":171300.14000000001,"N_COORD97":2542191.2200000002,"ADDRESS":"東門路三段１０１號五樓之６","OBJECTID":549040},"geometry":{"x":171300.13999999966,"y":2542191.2200000007}},{"attributes":{"ID":549068,"DIS_CODE":0,"TOWNNAME":"東區","LI":"虎尾里","LIN":"10鄰","STREET":"東門路","SECT":"三段","MAREA":" ","LANE":" ","ALLEY":" ","HOUSE_NO":"１０１號五樓之７","E_COORD97":171300.14000000001,"N_COORD97":2542191.2200000002,"ADDRESS":"東門路三段１０１號五樓之７","OBJECTID":549041},"geometry":{"x":171300.13999999966,"y":2542191.2200000007}},{"attributes":{"ID":549069,"DIS_CODE":0,"TOWNNAME":"善化區","LI":"文正里","LIN":"14鄰","STREET":"興農路","SECT":" ","MAREA":" ","LANE":" ","ALLEY":" ","HOUSE_NO":"３２號","E_COORD97":176550.64999999999,"N_COORD97":2559183.2599999998,"ADDRESS":"興農路３２號","OBJECTID":549042},"geometry":{"x":176550.65000000037,"y":2559183.2599999998}},{"attributes":{"ID":549070,"DIS_CODE":0,"TOWNNAME":"東區","LI":"虎尾里","LIN":"10鄰","STREET":"東門路","SECT":"三段","MAREA":" ","LANE":" ","ALLEY":" ","HOUSE_NO":"１０１號六樓","E_COORD97":171300.14000000001,"N_COORD97":2542191.2200000002,"ADDRESS":"東門路三段１０１號六樓","OBJECTID":549043},"geometry":{"x":171300.13999999966,"y":2542191.2200000007}},{"attributes":{"ID":549071,"DIS_CODE":0,"TOWNNAME":"東區","LI":"虎尾里","LIN":"10鄰","STREET":"東門路","SECT":"三段","MAREA":" ","LANE":" ","ALLEY":" ","HOUSE_NO":"１０１號六樓之１","E_COORD97":171300.14000000001,"N_COORD97":2542191.2200000002,"ADDRESS":"東門路三段１０１號六樓之１","OBJECTID":549044},"geometry":{"x":171300.13999999966,"y":2542191.2200000007}},{"attributes":{"ID":549072,"DIS_CODE":0,"TOWNNAME":"東區","LI":"虎尾里","LIN":"10鄰","STREET":"東門路","SECT":"三段","MAREA":" ","LANE":" ","ALLEY":" ","HOUSE_NO":"１０１號六樓之２","E_COORD97":171300.14000000001,"N_COORD97":2542191.2200000002,"ADDRESS":"東門路三段１０１號六樓之２","OBJECTID":549045},"geometry":{"x":171300.13999999966,"y":2542191.2200000007}},{"attributes":{"ID":549073,"DIS_CODE":0,"TOWNNAME":"東區","LI":"虎尾里","LIN":"10鄰","STREET":"東門路","SECT":"三段","MAREA":" ","LANE":" ","ALLEY":" ","HOUSE_NO":"１０１號六樓之３","E_COORD97":171300.14000000001,"N_COORD97":2542191.2200000002,"ADDRESS":"東門路三段１０１號六樓之３","OBJECTID":549046},"geometry":{"x":171300.13999999966,"y":2542191.2200000007}},{"attributes":{"ID":549074,"DIS_CODE":0,"TOWNNAME":"東區","LI":"虎尾里","LIN":"10鄰","STREET":"東門路","SECT":"三段","MAREA":" ","LANE":" ","ALLEY":" ","HOUSE_NO":"１０１號四樓","E_COORD97":171300.14000000001,"N_COORD97":2542191.2200000002,"ADDRESS":"東門路三段１０１號四樓","OBJECTID":549047},"geometry":{"x":171300.13999999966,"y":2542191.2200000007}},{"attributes":{"ID":549075,"DIS_CODE":0,"TOWNNAME":"東區","LI":"虎尾里","LIN":"10鄰","STREET":"東門路","SECT":"三段","MAREA":" ","LANE":" ","ALLEY":" ","HOUSE_NO":"１０１號四樓之１","E_COORD97":171300.14000000001,"N_COORD97":2542191.2200000002,"ADDRESS":"東門路三段１０１號四樓之１","OBJECTID":549048},"geometry":{"x":171300.13999999966,"y":2542191.2200000007}},{"attributes":{"ID":549076,"DIS_CODE":0,"TOWNNAME":"東區","LI":"虎尾里","LIN":"10鄰","STREET":"東門路","SECT":"三段","MAREA":" ","LANE":" ","ALLEY":" ","HOUSE_NO":"１０１號四樓之２","E_COORD97":171300.14000000001,"N_COORD97":2542191.2200000002,"ADDRESS":"東門路三段１０１號四樓之２","OBJECTID":549049},"geometry":{"x":171300.13999999966,"y":2542191.2200000007}},{"attributes":{"ID":549077,"DIS_CODE":0,"TOWNNAME":"東區","LI":"虎尾里","LIN":"10鄰","STREET":"東門路","SECT":"三段","MAREA":" ","LANE":" ","ALLEY":" ","HOUSE_NO":"１０１號四樓之３","E_COORD97":171300.14000000001,"N_COORD97":2542191.2200000002,"ADDRESS":"東門路三段１０１號四樓之３","OBJECTID":549050},"geometry":{"x":171300.13999999966,"y":2542191.2200000007}},{"attributes":{"ID":549078,"DIS_CODE":0,"TOWNNAME":"東區","LI":"虎尾里","LIN":"10鄰","STREET":"東門路","SECT":"三段","MAREA":" ","LANE":" ","ALLEY":" ","HOUSE_NO":"１０１號四樓之５","E_COORD97":171300.14000000001,"N_COORD97":2542191.2200000002,"ADDRESS":"東門路三段１０１號四樓之５","OBJECTID":549051},"geometry":{"x":171300.13999999966,"y":2542191.2200000007}},{"attributes":{"ID":549079,"DIS_CODE":0,"TOWNNAME":"東區","LI":"虎尾里","LIN":"10鄰","STREET":"東門路","SECT":"三段","MAREA":" ","LANE":" ","ALLEY":" ","HOUSE_NO":"１０１號四樓之６","E_COORD97":171300.14000000001,"N_COORD97":2542191.2200000002,"ADDRESS":"東門路三段１０１號四樓之６","OBJECTID":549052},"geometry":{"x":171300.13999999966,"y":2542191.2200000007}},{"attributes":{"ID":549080,"DIS_CODE":0,"TOWNNAME":"東區","LI":"虎尾里","LIN":"10鄰","STREET":"東門路","SECT":"三段","MAREA":" ","LANE":" ","ALLEY":" ","HOUSE_NO":"１０１號四樓之７","E_COORD97":171300.14000000001,"N_COORD97":2542191.2200000002,"ADDRESS":"東門路三段１０１號四樓之７","OBJECTID":549053},"geometry":{"x":171300.13999999966,"y":2542191.2200000007}},{"attributes":{"ID":549081,"DIS_CODE":0,"TOWNNAME":"東區","LI":"虎尾里","LIN":"10鄰","STREET":"東門路","SECT":"三段","MAREA":" ","LANE":" ","ALLEY":" ","HOUSE_NO":"１０１號四樓之８","E_COORD97":171300.14000000001,"N_COORD97":2542191.2200000002,"ADDRESS":"東門路三段１０１號四樓之８","OBJECTID":549054},"geometry":{"x":171300.13999999966,"y":2542191.2200000007}},{"attributes":{"ID":549082,"DIS_CODE":0,"TOWNNAME":"東區","LI":"裕聖里","LIN":"10鄰","STREET":"裕孝三街","SECT":" ","MAREA":" ","LANE":" ","ALLEY":" ","HOUSE_NO":"５０號四樓","E_COORD97":172539.54999999999,"N_COORD97":2542058.6699999999,"ADDRESS":"裕孝三街５０號四樓","OBJECTID":549055},"geometry":{"x":172539.55000000075,"y":2542058.6699999999}},{"attributes":{"ID":549083,"DIS_CODE":0,"TOWNNAME":"東區","LI":"裕聖里","LIN":"10鄰","STREET":"裕孝三街","SECT":" ","MAREA":" ","LANE":" ","ALLEY":" ","HOUSE_NO":"５０號二樓","E_COORD97":172539.54999999999,"N_COORD97":2542058.6699999999,"ADDRESS":"裕孝三街５０號二樓","OBJECTID":549056},"geometry":{"x":172539.55000000075,"y":2542058.6699999999}},{"attributes":{"ID":549084,"DIS_CODE":0,"TOWNNAME":"東區","LI":"裕聖里","LIN":"10鄰","STREET":"裕孝三街","SECT":" ","MAREA":" ","LANE":" ","ALLEY":" ","HOUSE_NO":"５０號三樓","E_COORD97":172539.54999999999,"N_COORD97":2542058.6699999999,"ADDRESS":"裕孝三街５０號三樓","OBJECTID":549057},"geometry":{"x":172539.55000000075,"y":2542058.6699999999}},{"attributes":{"ID":549085,"DIS_CODE":0,"TOWNNAME":"東區","LI":"裕聖里","LIN":"10鄰","STREET":"裕孝三街","SECT":" ","MAREA":" ","LANE":" ","ALLEY":" ","HOUSE_NO":"５０號五樓","E_COORD97":172539.54999999999,"N_COORD97":2542058.6699999999,"ADDRESS":"裕孝三街５０號五樓","OBJECTID":549058},"geometry":{"x":172539.55000000075,"y":2542058.6699999999}},{"attributes":{"ID":549086,"DIS_CODE":0,"TOWNNAME":"東區","LI":"裕聖里","LIN":"10鄰","STREET":"裕孝三街","SECT":" ","MAREA":" ","LANE":" ","ALLEY":" ","HOUSE_NO":"５０號六樓","E_COORD97":172539.54999999999,"N_COORD97":2542058.6699999999,"ADDRESS":"裕孝三街５０號六樓","OBJECTID":549059},"geometry":{"x":172539.55000000075,"y":2542058.6699999999}},{"attributes":{"ID":549087,"DIS_CODE":0,"TOWNNAME":"東區","LI":"裕聖里","LIN":"10鄰","STREET":"裕孝三街","SECT":" ","MAREA":" ","LANE":" ","ALLEY":" ","HOUSE_NO":"５２號二樓","E_COORD97":172539.54999999999,"N_COORD97":2542048.9900000002,"ADDRESS":"裕孝三街５２號二樓","OBJECTID":549060},"geometry":{"x":172539.55000000075,"y":2542048.9900000021}},{"attributes":{"ID":549088,"DIS_CODE":0,"TOWNNAME":"東區","LI":"裕聖里","LIN":"10鄰","STREET":"裕孝三街","SECT":" ","MAREA":" ","LANE":" ","ALLEY":" ","HOUSE_NO":"５２號三樓","E_COORD97":172539.54999999999,"N_COORD97":2542048.9900000002,"ADDRESS":"裕孝三街５２號三樓","OBJECTID":549061},"geometry":{"x":172539.55000000075,"y":2542048.9900000021}},{"attributes":{"ID":549089,"DIS_CODE":0,"TOWNNAME":"東區","LI":"裕聖里","LIN":"10鄰","STREET":"裕孝三街","SECT":" ","MAREA":" ","LANE":" ","ALLEY":" ","HOUSE_NO":"５２號五樓","E_COORD97":172539.54999999999,"N_COORD97":2542048.9900000002,"ADDRESS":"裕孝三街５２號五樓","OBJECTID":549062},"geometry":{"x":172539.55000000075,"y":2542048.9900000021}},{"attributes":{"ID":549090,"DIS_CODE":0,"TOWNNAME":"東區","LI":"裕聖里","LIN":"10鄰","STREET":"裕孝三街","SECT":" ","MAREA":" ","LANE":" ","ALLEY":" ","HOUSE_NO":"５２號六樓","E_COORD97":172539.54999999999,"N_COORD97":2542048.9900000002,"ADDRESS":"裕孝三街５２號六樓","OBJECTID":549063},"geometry":{"x":172539.55000000075,"y":2542048.9900000021}},{"attributes":{"ID":549091,"DIS_CODE":0,"TOWNNAME":"東區","LI":"裕聖里","LIN":"10鄰","STREET":"裕孝三街","SECT":" ","MAREA":" ","LANE":" ","ALLEY":" ","HOUSE_NO":"５２號四樓","E_COORD97":172539.54999999999,"N_COORD97":2542048.9900000002,"ADDRESS":"裕孝三街５２號四樓","OBJECTID":549064},"geometry":{"x":172539.55000000075,"y":2542048.9900000021}},{"attributes":{"ID":549092,"DIS_CODE":0,"TOWNNAME":"東區","LI":"裕聖里","LIN":"10鄰","STREET":"裕孝三街","SECT":" ","MAREA":" ","LANE":" ","ALLEY":" ","HOUSE_NO":"５４號二樓","E_COORD97":172539.10000000001,"N_COORD97":2542040.0499999998,"ADDRESS":"裕孝三街５４號二樓","OBJECTID":549065},"geometry":{"x":172539.10000000056,"y":2542040.0500000007}},{"attributes":{"ID":549093,"DIS_CODE":0,"TOWNNAME":"東區","LI":"裕聖里","LIN":"10鄰","STREET":"裕孝三街","SECT":" ","MAREA":" ","LANE":" ","ALLEY":" ","HOUSE_NO":"５４號三樓","E_COORD97":172539.10000000001,"N_COORD97":2542040.0499999998,"ADDRESS":"裕孝三街５４號三樓","OBJECTID":549066},"geometry":{"x":172539.10000000056,"y":2542040.0500000007}},{"attributes":{"ID":549094,"DIS_CODE":0,"TOWNNAME":"東區","LI":"裕聖里","LIN":"10鄰","STREET":"裕孝三街","SECT":" ","MAREA":" ","LANE":" ","ALLEY":" ","HOUSE_NO":"５４號五樓","E_COORD97":172539.10000000001,"N_COORD97":2542040.0499999998,"ADDRESS":"裕孝三街５４號五樓","OBJECTID":549067},"geometry":{"x":172539.10000000056,"y":2542040.0500000007}},{"attributes":{"ID":549095,"DIS_CODE":0,"TOWNNAME":"東區","LI":"裕聖里","LIN":"10鄰","STREET":"裕孝三街","SECT":" ","MAREA":" ","LANE":" ","ALLEY":" ","HOUSE_NO":"５４號六樓","E_COORD97":172539.10000000001,"N_COORD97":2542040.0499999998,"ADDRESS":"裕孝三街５４號六樓","OBJECTID":549068},"geometry":{"x":172539.10000000056,"y":2542040.0500000007}},{"attributes":{"ID":549096,"DIS_CODE":0,"TOWNNAME":"東區","LI":"裕聖里","LIN":"10鄰","STREET":"裕孝三街","SECT":" ","MAREA":" ","LANE":" ","ALLEY":" ","HOUSE_NO":"５４號四樓","E_COORD97":172539.10000000001,"N_COORD97":2542040.0499999998,"ADDRESS":"裕孝三街５４號四樓","OBJECTID":549069},"geometry":{"x":172539.10000000056,"y":2542040.0500000007}},{"attributes":{"ID":549097,"DIS_CODE":0,"TOWNNAME":"東區","LI":"裕聖里","LIN":"10鄰","STREET":"裕孝三街","SECT":" ","MAREA":" ","LANE":" ","ALLEY":" ","HOUSE_NO":"５６號三樓","E_COORD97":172538.79999999999,"N_COORD97":2542030.6699999999,"ADDRESS":"裕孝三街５６號三樓","OBJECTID":549070},"geometry":{"x":172538.79999999888,"y":2542030.6700000018}},{"attributes":{"ID":549098,"DIS_CODE":0,"TOWNNAME":"東區","LI":"裕聖里","LIN":"10鄰","STREET":"裕孝三街","SECT":" ","MAREA":" ","LANE":" ","ALLEY":" ","HOUSE_NO":"５６號五樓","E_COORD97":172538.79999999999,"N_COORD97":2542030.6699999999,"ADDRESS":"裕孝三街５６號五樓","OBJECTID":549071},"geometry":{"x":172538.79999999888,"y":2542030.6700000018}},{"attributes":{"ID":549099,"DIS_CODE":0,"TOWNNAME":"東區","LI":"裕聖里","LIN":"10鄰","STREET":"裕孝三街","SECT":" ","MAREA":" ","LANE":" ","ALLEY":" ","HOUSE_NO":"５６號四樓","E_COORD97":172538.79999999999,"N_COORD97":2542030.6699999999,"ADDRESS":"裕孝三街５６號四樓","OBJECTID":549072},"geometry":{"x":172538.79999999888,"y":2542030.6700000018}},{"attributes":{"ID":549100,"DIS_CODE":0,"TOWNNAME":"東區","LI":"裕聖里","LIN":"10鄰","STREET":"裕孝三街","SECT":" ","MAREA":" ","LANE":" ","ALLEY":" ","HOUSE_NO":"５８號二樓","E_COORD97":172537.60999999999,"N_COORD97":2542023.2200000002,"ADDRESS":"裕孝三街５８號二樓","OBJECTID":549073},"geometry":{"x":172537.61000000127,"y":2542023.2200000044}},{"attributes":{"ID":549101,"DIS_CODE":0,"TOWNNAME":"東區","LI":"裕聖里","LIN":"10鄰","STREET":"裕孝三街","SECT":" ","MAREA":" ","LANE":" ","ALLEY":" ","HOUSE_NO":"５８號三樓","E_COORD97":172537.60999999999,"N_COORD97":2542023.2200000002,"ADDRESS":"裕孝三街５８號三樓","OBJECTID":549074},"geometry":{"x":172537.61000000127,"y":2542023.2200000044}},{"attributes":{"ID":549102,"DIS_CODE":0,"TOWNNAME":"東區","LI":"裕聖里","LIN":"10鄰","STREET":"裕孝三街","SECT":" ","MAREA":" ","LANE":" ","ALLEY":" ","HOUSE_NO":"５８號五樓","E_COORD97":172537.60999999999,"N_COORD97":2542023.2200000002,"ADDRESS":"裕孝三街５８號五樓","OBJECTID":549075},"geometry":{"x":172537.61000000127,"y":2542023.2200000044}},{"attributes":{"ID":549103,"DIS_CODE":0,"TOWNNAME":"東區","LI":"裕聖里","LIN":"10鄰","STREET":"裕孝三街","SECT":" ","MAREA":" ","LANE":" ","ALLEY":" ","HOUSE_NO":"５８號六樓","E_COORD97":172537.60999999999,"N_COORD97":2542023.2200000002,"ADDRESS":"裕孝三街５８號六樓","OBJECTID":549076},"geometry":{"x":172537.61000000127,"y":2542023.2200000044}},{"attributes":{"ID":549104,"DIS_CODE":0,"TOWNNAME":"東區","LI":"裕聖里","LIN":"10鄰","STREET":"裕孝三街","SECT":" ","MAREA":" ","LANE":" ","ALLEY":" ","HOUSE_NO":"５８號四樓","E_COORD97":172537.60999999999,"N_COORD97":2542023.2200000002,"ADDRESS":"裕孝三街５８號四樓","OBJECTID":549077},"geometry":{"x":172537.61000000127,"y":2542023.2200000044}},{"attributes":{"ID":549105,"DIS_CODE":0,"TOWNNAME":"東區","LI":"裕聖里","LIN":"10鄰","STREET":"裕孝三街","SECT":" ","MAREA":" ","LANE":" ","ALLEY":" ","HOUSE_NO":"６０號二樓","E_COORD97":172537.01000000001,"N_COORD97":2542015.48,"ADDRESS":"裕孝三街６０號二樓","OBJECTID":549078},"geometry":{"x":172537.00999999978,"y":2542015.4800000023}},{"attributes":{"ID":549106,"DIS_CODE":0,"TOWNNAME":"東區","LI":"裕聖里","LIN":"10鄰","STREET":"裕孝三街","SECT":" ","MAREA":" ","LANE":" ","ALLEY":" ","HOUSE_NO":"６０號三樓","E_COORD97":172537.01000000001,"N_COORD97":2542015.48,"ADDRESS":"裕孝三街６０號三樓","OBJECTID":549079},"geometry":{"x":172537.00999999978,"y":2542015.4800000023}},{"attributes":{"ID":549107,"DIS_CODE":0,"TOWNNAME":"東區","LI":"裕聖里","LIN":"10鄰","STREET":"裕孝三街","SECT":" ","MAREA":" ","LANE":" ","ALLEY":" ","HOUSE_NO":"６０號五樓","E_COORD97":172537.01000000001,"N_COORD97":2542015.48,"ADDRESS":"裕孝三街６０號五樓","OBJECTID":549080},"geometry":{"x":172537.00999999978,"y":2542015.4800000023}},{"attributes":{"ID":549108,"DIS_CODE":0,"TOWNNAME":"東區","LI":"裕聖里","LIN":"10鄰","STREET":"裕孝三街","SECT":" ","MAREA":" ","LANE":" ","ALLEY":" ","HOUSE_NO":"６０號六樓","E_COORD97":172537.01000000001,"N_COORD97":2542015.48,"ADDRESS":"裕孝三街６０號六樓","OBJECTID":549081},"geometry":{"x":172537.00999999978,"y":2542015.4800000023}},{"attributes":{"ID":549109,"DIS_CODE":0,"TOWNNAME":"東區","LI":"裕聖里","LIN":"10鄰","STREET":"裕孝三街","SECT":" ","MAREA":" ","LANE":" ","ALLEY":" ","HOUSE_NO":"６０號四樓","E_COORD97":172537.01000000001,"N_COORD97":2542015.48,"ADDRESS":"裕孝三街６０號四樓","OBJECTID":549082},"geometry":{"x":172537.00999999978,"y":2542015.4800000023}},{"attributes":{"ID":549110,"DIS_CODE":0,"TOWNNAME":"東區","LI":"成大里","LIN":"10鄰","STREET":"育樂街","SECT":" ","MAREA":" ","LANE":" ","ALLEY":" ","HOUSE_NO":"１７４號二樓","E_COORD97":169484.82000000001,"N_COORD97":2543895.4300000002,"ADDRESS":"育樂街１７４號二樓","OBJECTID":549083},"geometry":{"x":169484.82000000123,"y":2543895.4299999978}},{"attributes":{"ID":549111,"DIS_CODE":0,"TOWNNAME":"東區","LI":"成大里","LIN":"10鄰","STREET":"民族路","SECT":"一段","MAREA":" ","LANE":" ","ALLEY":" ","HOUSE_NO":"９０號五樓之１","E_COORD97":169391.75,"N_COORD97":2543909.7400000002,"ADDRESS":"民族路一段９０號五樓之１","OBJECTID":549084},"geometry":{"x":169391.75000000093,"y":2543909.7400000002}},{"attributes":{"ID":549112,"DIS_CODE":0,"TOWNNAME":"東區","LI":"成大里","LIN":"10鄰","STREET":"民族路","SECT":"一段","MAREA":" ","LANE":" ","ALLEY":" ","HOUSE_NO":"９０號五樓之２","E_COORD97":169391.75,"N_COORD97":2543909.7400000002,"ADDRESS":"民族路一段９０號五樓之２","OBJECTID":549085},"geometry":{"x":169391.75000000093,"y":2543909.7400000002}},{"attributes":{"ID":549113,"DIS_CODE":0,"TOWNNAME":"東區","LI":"成大里","LIN":"10鄰","STREET":"民族路","SECT":"一段","MAREA":" ","LANE":" ","ALLEY":" ","HOUSE_NO":"９０號五樓之３","E_COORD97":169391.75,"N_COORD97":2543909.7400000002,"ADDRESS":"民族路一段９０號五樓之３","OBJECTID":549086},"geometry":{"x":169391.75000000093,"y":2543909.7400000002}},{"attributes":{"ID":549114,"DIS_CODE":0,"TOWNNAME":"歸仁區","LI":"八甲里","LIN":"10鄰","STREET":"大明街","SECT":" ","MAREA":" ","LANE":" ","ALLEY":" ","HOUSE_NO":"３號十樓之１","E_COORD97":177727.14999999999,"N_COORD97":2541923.6200000001,"ADDRESS":"大明街３號十樓之１","OBJECTID":549087},"geometry":{"x":177727.15000000037,"y":2541923.6200000029}},{"attributes":{"ID":549115,"DIS_CODE":0,"TOWNNAME":"東區","LI":"成大里","LIN":"10鄰","STREET":"民族路","SECT":"一段","MAREA":" ","LANE":" ","ALLEY":" ","HOUSE_NO":"９０號六樓之１","E_COORD97":169391.75,"N_COORD97":2543909.7400000002,"ADDRESS":"民族路一段９０號六樓之１","OBJECTID":549088},"geometry":{"x":169391.75000000093,"y":2543909.7400000002}},{"attributes":{"ID":549116,"DIS_CODE":0,"TOWNNAME":"東區","LI":"成大里","LIN":"10鄰","STREET":"民族路","SECT":"一段","MAREA":" ","LANE":" ","ALLEY":" ","HOUSE_NO":"９０號六樓之２","E_COORD97":169391.75,"N_COORD97":2543909.7400000002,"ADDRESS":"民族路一段９０號六樓之２","OBJECTID":549089},"geometry":{"x":169391.75000000093,"y":2543909.7400000002}},{"attributes":{"ID":549117,"DIS_CODE":0,"TOWNNAME":"東區","LI":"成大里","LIN":"10鄰","STREET":"民族路","SECT":"一段","MAREA":" ","LANE":" ","ALLEY":" ","HOUSE_NO":"９０號六樓之３","E_COORD97":169391.75,"N_COORD97":2543909.7400000002,"ADDRESS":"民族路一段９０號六樓之３","OBJECTID":549090},"geometry":{"x":169391.75000000093,"y":2543909.7400000002}},{"attributes":{"ID":549118,"DIS_CODE":0,"TOWNNAME":"東區","LI":"成大里","LIN":"10鄰","STREET":"民族路","SECT":"一段","MAREA":" ","LANE":" ","ALLEY":" ","HOUSE_NO":"９０號四樓之１","E_COORD97":169391.75,"N_COORD97":2543909.7400000002,"ADDRESS":"民族路一段９０號四樓之１","OBJECTID":549091},"geometry":{"x":169391.75000000093,"y":2543909.7400000002}},{"attributes":{"ID":549119,"DIS_CODE":0,"TOWNNAME":"東區","LI":"成大里","LIN":"10鄰","STREET":"民族路","SECT":"一段","MAREA":" ","LANE":" ","ALLEY":" ","HOUSE_NO":"９０號四樓之２","E_COORD97":169391.75,"N_COORD97":2543909.7400000002,"ADDRESS":"民族路一段９０號四樓之２","OBJECTID":549092},"geometry":{"x":169391.75000000093,"y":2543909.7400000002}},{"attributes":{"ID":549120,"DIS_CODE":0,"TOWNNAME":"東區","LI":"成大里","LIN":"10鄰","STREET":"民族路","SECT":"一段","MAREA":" ","LANE":" ","ALLEY":" ","HOUSE_NO":"９０號四樓之３","E_COORD97":169391.75,"N_COORD97":2543909.7400000002,"ADDRESS":"民族路一段９０號四樓之３","OBJECTID":549093},"geometry":{"x":169391.75000000093,"y":2543909.7400000002}},{"attributes":{"ID":549121,"DIS_CODE":0,"TOWNNAME":"東區","LI":"成大里","LIN":"10鄰","STREET":"民族路","SECT":"一段","MAREA":" ","LANE":" ","ALLEY":" ","HOUSE_NO":"９２號七樓之１","E_COORD97":169369.79000000001,"N_COORD97":2543910.21,"ADDRESS":"民族路一段９２號七樓之１","OBJECTID":549094},"geometry":{"x":169369.79000000097,"y":2543910.2100000009}},{"attributes":{"ID":549122,"DIS_CODE":0,"TOWNNAME":"東區","LI":"成大里","LIN":"10鄰","STREET":"民族路","SECT":"一段","MAREA":" ","LANE":" ","ALLEY":" ","HOUSE_NO":"９２號七樓之２","E_COORD97":169369.79000000001,"N_COORD97":2543910.21,"ADDRESS":"民族路一段９２號七樓之２","OBJECTID":549095},"geometry":{"x":169369.79000000097,"y":2543910.2100000009}},{"attributes":{"ID":549123,"DIS_CODE":0,"TOWNNAME":"東區","LI":"成大里","LIN":"10鄰","STREET":"民族路","SECT":"一段","MAREA":" ","LANE":" ","ALLEY":" ","HOUSE_NO":"９２號七樓之３","E_COORD97":169369.79000000001,"N_COORD97":2543910.21,"ADDRESS":"民族路一段９２號七樓之３","OBJECTID":549096},"geometry":{"x":169369.79000000097,"y":2543910.2100000009}},{"attributes":{"ID":549124,"DIS_CODE":0,"TOWNNAME":"東區","LI":"成大里","LIN":"10鄰","STREET":"民族路","SECT":"一段","MAREA":" ","LANE":" ","ALLEY":" ","HOUSE_NO":"９２號九樓之１","E_COORD97":169369.79000000001,"N_COORD97":2543910.21,"ADDRESS":"民族路一段９２號九樓之１","OBJECTID":549097},"geometry":{"x":169369.79000000097,"y":2543910.2100000009}},{"attributes":{"ID":549125,"DIS_CODE":0,"TOWNNAME":"東區","LI":"成大里","LIN":"10鄰","STREET":"民族路","SECT":"一段","MAREA":" ","LANE":" ","ALLEY":" ","HOUSE_NO":"９２號九樓之２","E_COORD97":169369.79000000001,"N_COORD97":2543910.21,"ADDRESS":"民族路一段９２號九樓之２","OBJECTID":549098},"geometry":{"x":169369.79000000097,"y":2543910.2100000009}},{"attributes":{"ID":549126,"DIS_CODE":0,"TOWNNAME":"東區","LI":"成大里","LIN":"10鄰","STREET":"民族路","SECT":"一段","MAREA":" ","LANE":" ","ALLEY":" ","HOUSE_NO":"９２號九樓之３","E_COORD97":169369.79000000001,"N_COORD97":2543910.21,"ADDRESS":"民族路一段９２號九樓之３","OBJECTID":549099},"geometry":{"x":169369.79000000097,"y":2543910.2100000009}},{"attributes":{"ID":549127,"DIS_CODE":0,"TOWNNAME":"東區","LI":"成大里","LIN":"10鄰","STREET":"民族路","SECT":"一段","MAREA":" ","LANE":" ","ALLEY":" ","HOUSE_NO":"９２號二樓","E_COORD97":169369.79000000001,"N_COORD97":2543910.21,"ADDRESS":"民族路一段９２號二樓","OBJECTID":549100},"geometry":{"x":169369.79000000097,"y":2543910.2100000009}},{"attributes":{"ID":549128,"DIS_CODE":0,"TOWNNAME":"東區","LI":"成大里","LIN":"10鄰","STREET":"民族路","SECT":"一段","MAREA":" ","LANE":" ","ALLEY":" ","HOUSE_NO":"９２號八樓之１","E_COORD97":169369.79000000001,"N_COORD97":2543910.21,"ADDRESS":"民族路一段９２號八樓之１","OBJECTID":549101},"geometry":{"x":169369.79000000097,"y":2543910.2100000009}},{"attributes":{"ID":549129,"DIS_CODE":0,"TOWNNAME":"東區","LI":"成大里","LIN":"10鄰","STREET":"民族路","SECT":"一段","MAREA":" ","LANE":" ","ALLEY":" ","HOUSE_NO":"９２號八樓之２","E_COORD97":169369.79000000001,"N_COORD97":2543910.21,"ADDRESS":"民族路一段９２號八樓之２","OBJECTID":549102},"geometry":{"x":169369.79000000097,"y":2543910.2100000009}},{"attributes":{"ID":549130,"DIS_CODE":0,"TOWNNAME":"東區","LI":"成大里","LIN":"10鄰","STREET":"民族路","SECT":"一段","MAREA":" ","LANE":" ","ALLEY":" ","HOUSE_NO":"９２號八樓之３","E_COORD97":169369.79000000001,"N_COORD97":2543910.21,"ADDRESS":"民族路一段９２號八樓之３","OBJECTID":549103},"geometry":{"x":169369.79000000097,"y":2543910.2100000009}},{"attributes":{"ID":549131,"DIS_CODE":0,"TOWNNAME":"東區","LI":"成大里","LIN":"10鄰","STREET":"民族路","SECT":"一段","MAREA":" ","LANE":" ","ALLEY":" ","HOUSE_NO":"９２號三樓","E_COORD97":169369.79000000001,"N_COORD97":2543910.21,"ADDRESS":"民族路一段９２號三樓","OBJECTID":549104},"geometry":{"x":169369.79000000097,"y":2543910.2100000009}},{"attributes":{"ID":549132,"DIS_CODE":0,"TOWNNAME":"東區","LI":"成大里","LIN":"10鄰","STREET":"民族路","SECT":"一段","MAREA":" ","LANE":" ","ALLEY":" ","HOUSE_NO":"９２號五樓之１","E_COORD97":169369.79000000001,"N_COORD97":2543910.21,"ADDRESS":"民族路一段９２號五樓之１","OBJECTID":549105},"geometry":{"x":169369.79000000097,"y":2543910.2100000009}},{"attributes":{"ID":549133,"DIS_CODE":0,"TOWNNAME":"東區","LI":"成大里","LIN":"10鄰","STREET":"民族路","SECT":"一段","MAREA":" ","LANE":" ","ALLEY":" ","HOUSE_NO":"９２號五樓之２","E_COORD97":169369.79000000001,"N_COORD97":2543910.21,"ADDRESS":"民族路一段９２號五樓之２","OBJECTID":549106},"geometry":{"x":169369.79000000097,"y":2543910.2100000009}},{"attributes":{"ID":549134,"DIS_CODE":0,"TOWNNAME":"東區","LI":"成大里","LIN":"10鄰","STREET":"民族路","SECT":"一段","MAREA":" ","LANE":" ","ALLEY":" ","HOUSE_NO":"９２號五樓之３","E_COORD97":169369.79000000001,"N_COORD97":2543910.21,"ADDRESS":"民族路一段９２號五樓之３","OBJECTID":549107},"geometry":{"x":169369.79000000097,"y":2543910.2100000009}},{"attributes":{"ID":549135,"DIS_CODE":0,"TOWNNAME":"東區","LI":"成大里","LIN":"10鄰","STREET":"民族路","SECT":"一段","MAREA":" ","LANE":" ","ALLEY":" ","HOUSE_NO":"９２號六樓之１","E_COORD97":169369.79000000001,"N_COORD97":2543910.21,"ADDRESS":"民族路一段９２號六樓之１","OBJECTID":549108},"geometry":{"x":169369.79000000097,"y":2543910.2100000009}},{"attributes":{"ID":549136,"DIS_CODE":0,"TOWNNAME":"東區","LI":"成大里","LIN":"10鄰","STREET":"民族路","SECT":"一段","MAREA":" ","LANE":" ","ALLEY":" ","HOUSE_NO":"９２號六樓之２","E_COORD97":169369.79000000001,"N_COORD97":2543910.21,"ADDRESS":"民族路一段９２號六樓之２","OBJECTID":549109},"geometry":{"x":169369.79000000097,"y":2543910.2100000009}},{"attributes":{"ID":549137,"DIS_CODE":0,"TOWNNAME":"東區","LI":"成大里","LIN":"10鄰","STREET":"民族路","SECT":"一段","MAREA":" ","LANE":" ","ALLEY":" ","HOUSE_NO":"９２號六樓之３","E_COORD97":169369.79000000001,"N_COORD97":2543910.21,"ADDRESS":"民族路一段９２號六樓之３","OBJECTID":549110},"geometry":{"x":169369.79000000097,"y":2543910.2100000009}},{"attributes":{"ID":549138,"DIS_CODE":0,"TOWNNAME":"東區","LI":"成大里","LIN":"10鄰","STREET":"民族路","SECT":"一段","MAREA":" ","LANE":" ","ALLEY":" ","HOUSE_NO":"９２號四樓之１","E_COORD97":169369.79000000001,"N_COORD97":2543910.21,"ADDRESS":"民族路一段９２號四樓之１","OBJECTID":549111},"geometry":{"x":169369.79000000097,"y":2543910.2100000009}},{"attributes":{"ID":549139,"DIS_CODE":0,"TOWNNAME":"東區","LI":"成大里","LIN":"10鄰","STREET":"民族路","SECT":"一段","MAREA":" ","LANE":" ","ALLEY":" ","HOUSE_NO":"９２號四樓之２","E_COORD97":169369.79000000001,"N_COORD97":2543910.21,"ADDRESS":"民族路一段９２號四樓之２","OBJECTID":549112},"geometry":{"x":169369.79000000097,"y":2543910.2100000009}},{"attributes":{"ID":549140,"DIS_CODE":0,"TOWNNAME":"東區","LI":"成大里","LIN":"10鄰","STREET":"民族路","SECT":"一段","MAREA":" ","LANE":" ","ALLEY":" ","HOUSE_NO":"９２號四樓之３","E_COORD97":169369.79000000001,"N_COORD97":2543910.21,"ADDRESS":"民族路一段９２號四樓之３","OBJECTID":549113},"geometry":{"x":169369.79000000097,"y":2543910.2100000009}},{"attributes":{"ID":549141,"DIS_CODE":0,"TOWNNAME":"中西區","LI":"安海里","LIN":"10鄰","STREET":"金華路","SECT":"三段","MAREA":" ","LANE":" ","ALLEY":" ","HOUSE_NO":"２２７號二樓","E_COORD97":167310.07000000001,"N_COORD97":2543940.5899999999,"ADDRESS":"金華路三段２２７號二樓","OBJECTID":549114},"geometry":{"x":167310.07000000123,"y":2543940.5899999999}},{"attributes":{"ID":549142,"DIS_CODE":0,"TOWNNAME":"中西區","LI":"安海里","LIN":"10鄰","STREET":"金華路","SECT":"三段","MAREA":" ","LANE":" ","ALLEY":" ","HOUSE_NO":"２２７號三樓","E_COORD97":167310.07000000001,"N_COORD97":2543940.5899999999,"ADDRESS":"金華路三段２２７號三樓","OBJECTID":549115},"geometry":{"x":167310.07000000123,"y":2543940.5899999999}},{"attributes":{"ID":549143,"DIS_CODE":0,"TOWNNAME":"中西區","LI":"安海里","LIN":"10鄰","STREET":"金華路","SECT":"三段","MAREA":" ","LANE":" ","ALLEY":" ","HOUSE_NO":"２２７號四樓","E_COORD97":167310.07000000001,"N_COORD97":2543940.5899999999,"ADDRESS":"金華路三段２２７號四樓","OBJECTID":549116},"geometry":{"x":167310.07000000123,"y":2543940.5899999999}},{"attributes":{"ID":549144,"DIS_CODE":0,"TOWNNAME":"中西區","LI":"赤嵌里","LIN":"10鄰","STREET":"公園路","SECT":" ","MAREA":" ","LANE":" ","ALLEY":" ","HOUSE_NO":"１１７號二樓之１","E_COORD97":168616,"N_COORD97":2544141.8599999999,"ADDRESS":"公園路１１７號二樓之１","OBJECTID":549117},"geometry":{"x":168616,"y":2544141.8599999994}},{"attributes":{"ID":549145,"DIS_CODE":0,"TOWNNAME":"中西區","LI":"赤嵌里","LIN":"10鄰","STREET":"公園路","SECT":" ","MAREA":" ","LANE":" ","ALLEY":" ","HOUSE_NO":"１１７號二樓之２","E_COORD97":168616,"N_COORD97":2544141.8599999999,"ADDRESS":"公園路１１７號二樓之２","OBJECTID":549118},"geometry":{"x":168616,"y":2544141.8599999994}},{"attributes":{"ID":549146,"DIS_CODE":0,"TOWNNAME":"東區","LI":"崇文里","LIN":"10鄰","STREET":"崇德十八街","SECT":" ","MAREA":" ","LANE":" ","ALLEY":" ","HOUSE_NO":"１２號二樓","E_COORD97":170852.34,"N_COORD97":2541017.1600000001,"ADDRESS":"崇德十八街１２號二樓","OBJECTID":549119},"geometry":{"x":170852.34000000078,"y":2541017.160000002}},{"attributes":{"ID":549147,"DIS_CODE":0,"TOWNNAME":"東區","LI":"崇文里","LIN":"10鄰","STREET":"崇德十八街","SECT":" ","MAREA":" ","LANE":" ","ALLEY":" ","HOUSE_NO":"１２號三樓","E_COORD97":170852.34,"N_COORD97":2541017.1600000001,"ADDRESS":"崇德十八街１２號三樓","OBJECTID":549120},"geometry":{"x":170852.34000000078,"y":2541017.160000002}},{"attributes":{"ID":549148,"DIS_CODE":0,"TOWNNAME":"東區","LI":"崇文里","LIN":"10鄰","STREET":"崇德十八街","SECT":" ","MAREA":" ","LANE":" ","ALLEY":" ","HOUSE_NO":"１２號五樓","E_COORD97":170852.34,"N_COORD97":2541017.1600000001,"ADDRESS":"崇德十八街１２號五樓","OBJECTID":549121},"geometry":{"x":170852.34000000078,"y":2541017.160000002}},{"attributes":{"ID":549149,"DIS_CODE":0,"TOWNNAME":"東區","LI":"崇文里","LIN":"10鄰","STREET":"崇德十八街","SECT":" ","MAREA":" ","LANE":" ","ALLEY":" ","HOUSE_NO":"１２號六樓","E_COORD97":170852.34,"N_COORD97":2541017.1600000001,"ADDRESS":"崇德十八街１２號六樓","OBJECTID":549122},"geometry":{"x":170852.34000000078,"y":2541017.160000002}},{"attributes":{"ID":549150,"DIS_CODE":0,"TOWNNAME":"東區","LI":"崇文里","LIN":"10鄰","STREET":"崇德十八街","SECT":" ","MAREA":" ","LANE":" ","ALLEY":" ","HOUSE_NO":"１２號四樓","E_COORD97":170852.34,"N_COORD97":2541017.1600000001,"ADDRESS":"崇德十八街１２號四樓","OBJECTID":549123},"geometry":{"x":170852.34000000078,"y":2541017.160000002}},{"attributes":{"ID":549151,"DIS_CODE":0,"TOWNNAME":"東區","LI":"崇文里","LIN":"10鄰","STREET":"崇德十八街","SECT":" ","MAREA":" ","LANE":" ","ALLEY":" ","HOUSE_NO":"１４號二樓","E_COORD97":170852.14000000001,"N_COORD97":2541008.1000000001,"ADDRESS":"崇德十八街１４號二樓","OBJECTID":549124},"geometry":{"x":170852.1400000006,"y":2541008.0999999996}},{"attributes":{"ID":549152,"DIS_CODE":0,"TOWNNAME":"東區","LI":"崇文里","LIN":"10鄰","STREET":"崇德十八街","SECT":" ","MAREA":" ","LANE":" ","ALLEY":" ","HOUSE_NO":"１４號三樓","E_COORD97":170852.14000000001,"N_COORD97":2541008.1000000001,"ADDRESS":"崇德十八街１４號三樓","OBJECTID":549125},"geometry":{"x":170852.1400000006,"y":2541008.0999999996}},{"attributes":{"ID":549153,"DIS_CODE":0,"TOWNNAME":"東區","LI":"崇文里","LIN":"10鄰","STREET":"崇德十八街","SECT":" ","MAREA":" ","LANE":" ","ALLEY":" ","HOUSE_NO":"１４號五樓","E_COORD97":170852.14000000001,"N_COORD97":2541008.1000000001,"ADDRESS":"崇德十八街１４號五樓","OBJECTID":549126},"geometry":{"x":170852.1400000006,"y":2541008.0999999996}},{"attributes":{"ID":549154,"DIS_CODE":0,"TOWNNAME":"東區","LI":"崇文里","LIN":"10鄰","STREET":"崇德十八街","SECT":" ","MAREA":" ","LANE":" ","ALLEY":" ","HOUSE_NO":"１４號六樓","E_COORD97":170852.14000000001,"N_COORD97":2541008.1000000001,"ADDRESS":"崇德十八街１４號六樓","OBJECTID":549127},"geometry":{"x":170852.1400000006,"y":2541008.0999999996}},{"attributes":{"ID":549155,"DIS_CODE":0,"TOWNNAME":"東區","LI":"崇文里","LIN":"10鄰","STREET":"崇德十八街","SECT":" ","MAREA":" ","LANE":" ","ALLEY":" ","HOUSE_NO":"１４號四樓","E_COORD97":170852.14000000001,"N_COORD97":2541008.1000000001,"ADDRESS":"崇德十八街１４號四樓","OBJECTID":549128},"geometry":{"x":170852.1400000006,"y":2541008.0999999996}},{"attributes":{"ID":549156,"DIS_CODE":0,"TOWNNAME":"東區","LI":"崇文里","LIN":"10鄰","STREET":"崇德十八街","SECT":" ","MAREA":" ","LANE":" ","ALLEY":" ","HOUSE_NO":"１６號二樓","E_COORD97":170859.60000000001,"N_COORD97":2541007.9100000001,"ADDRESS":"崇德十八街１６號二樓","OBJECTID":549129},"geometry":{"x":170859.59999999963,"y":2541007.910000002}},{"attributes":{"ID":549157,"DIS_CODE":0,"TOWNNAME":"東區","LI":"崇文里","LIN":"10鄰","STREET":"崇德十八街","SECT":" ","MAREA":" ","LANE":" ","ALLEY":" ","HOUSE_NO":"１６號三樓","E_COORD97":170859.60000000001,"N_COORD97":2541007.9100000001,"ADDRESS":"崇德十八街１６號三樓","OBJECTID":549130},"geometry":{"x":170859.59999999963,"y":2541007.910000002}},{"attributes":{"ID":549158,"DIS_CODE":0,"TOWNNAME":"東區","LI":"崇文里","LIN":"10鄰","STREET":"崇德十八街","SECT":" ","MAREA":" ","LANE":" ","ALLEY":" ","HOUSE_NO":"１６號五樓","E_COORD97":170859.60000000001,"N_COORD97":2541007.9100000001,"ADDRESS":"崇德十八街１６號五樓","OBJECTID":549131},"geometry":{"x":170859.59999999963,"y":2541007.910000002}},{"attributes":{"ID":549159,"DIS_CODE":0,"TOWNNAME":"東區","LI":"崇文里","LIN":"10鄰","STREET":"崇德十八街","SECT":" ","MAREA":" ","LANE":" ","ALLEY":" ","HOUSE_NO":"１６號六樓","E_COORD97":170859.60000000001,"N_COORD97":2541007.9100000001,"ADDRESS":"崇德十八街１６號六樓","OBJECTID":549132},"geometry":{"x":170859.59999999963,"y":2541007.910000002}},{"attributes":{"ID":549160,"DIS_CODE":0,"TOWNNAME":"東區","LI":"崇文里","LIN":"10鄰","STREET":"崇德十八街","SECT":" ","MAREA":" ","LANE":" ","ALLEY":" ","HOUSE_NO":"１６號四樓","E_COORD97":170859.60000000001,"N_COORD97":2541007.9100000001,"ADDRESS":"崇德十八街１６號四樓","OBJECTID":549133},"geometry":{"x":170859.59999999963,"y":2541007.910000002}},{"attributes":{"ID":549161,"DIS_CODE":0,"TOWNNAME":"東區","LI":"崇文里","LIN":"10鄰","STREET":"崇德十八街","SECT":" ","MAREA":" ","LANE":" ","ALLEY":" ","HOUSE_NO":"１８號二樓","E_COORD97":170866.47,"N_COORD97":2541008.1000000001,"ADDRESS":"崇德十八街１８號二樓","OBJECTID":549134},"geometry":{"x":170866.47000000067,"y":2541008.0999999996}},{"attributes":{"ID":549162,"DIS_CODE":0,"TOWNNAME":"東區","LI":"崇文里","LIN":"10鄰","STREET":"崇德十八街","SECT":" ","MAREA":" ","LANE":" ","ALLEY":" ","HOUSE_NO":"１８號三樓","E_COORD97":170866.47,"N_COORD97":2541008.1000000001,"ADDRESS":"崇德十八街１８號三樓","OBJECTID":549135},"geometry":{"x":170866.47000000067,"y":2541008.0999999996}},{"attributes":{"ID":549163,"DIS_CODE":0,"TOWNNAME":"東區","LI":"崇文里","LIN":"10鄰","STREET":"崇德十八街","SECT":" ","MAREA":" ","LANE":" ","ALLEY":" ","HOUSE_NO":"１８號五樓","E_COORD97":170866.47,"N_COORD97":2541008.1000000001,"ADDRESS":"崇德十八街１８號五樓","OBJECTID":549136},"geometry":{"x":170866.47000000067,"y":2541008.0999999996}},{"attributes":{"ID":549164,"DIS_CODE":0,"TOWNNAME":"東區","LI":"崇文里","LIN":"10鄰","STREET":"崇德十八街","SECT":" ","MAREA":" ","LANE":" ","ALLEY":" ","HOUSE_NO":"１８號六樓","E_COORD97":170866.47,"N_COORD97":2541008.1000000001,"ADDRESS":"崇德十八街１８號六樓","OBJECTID":549137},"geometry":{"x":170866.47000000067,"y":2541008.0999999996}},{"attributes":{"ID":549165,"DIS_CODE":0,"TOWNNAME":"東區","LI":"崇文里","LIN":"10鄰","STREET":"崇德十八街","SECT":" ","MAREA":" ","LANE":" ","ALLEY":" ","HOUSE_NO":"１８號四樓","E_COORD97":170866.47,"N_COORD97":2541008.1000000001,"ADDRESS":"崇德十八街１８號四樓","OBJECTID":549138},"geometry":{"x":170866.47000000067,"y":2541008.0999999996}},{"attributes":{"ID":549166,"DIS_CODE":0,"TOWNNAME":"東區","LI":"崇文里","LIN":"10鄰","STREET":"崇德十八街","SECT":" ","MAREA":" ","LANE":" ","ALLEY":" ","HOUSE_NO":"２０號二樓","E_COORD97":170864.78,"N_COORD97":2541017.2599999998,"ADDRESS":"崇德十八街２０號二樓","OBJECTID":549139},"geometry":{"x":170864.78000000212,"y":2541017.2599999998}},{"attributes":{"ID":549167,"DIS_CODE":0,"TOWNNAME":"東區","LI":"崇文里","LIN":"10鄰","STREET":"崇德十八街","SECT":" ","MAREA":" ","LANE":" ","ALLEY":" ","HOUSE_NO":"２０號三樓","E_COORD97":170864.78,"N_COORD97":2541017.2599999998,"ADDRESS":"崇德十八街２０號三樓","OBJECTID":549140},"geometry":{"x":170864.78000000212,"y":2541017.2599999998}},{"attributes":{"ID":549168,"DIS_CODE":0,"TOWNNAME":"東區","LI":"崇文里","LIN":"10鄰","STREET":"崇德十八街","SECT":" ","MAREA":" ","LANE":" ","ALLEY":" ","HOUSE_NO":"２０號五樓","E_COORD97":170864.78,"N_COORD97":2541017.2599999998,"ADDRESS":"崇德十八街２０號五樓","OBJECTID":549141},"geometry":{"x":170864.78000000212,"y":2541017.2599999998}},{"attributes":{"ID":549169,"DIS_CODE":0,"TOWNNAME":"東區","LI":"崇文里","LIN":"10鄰","STREET":"崇德十八街","SECT":" ","MAREA":" ","LANE":" ","ALLEY":" ","HOUSE_NO":"２０號六樓","E_COORD97":170864.78,"N_COORD97":2541017.2599999998,"ADDRESS":"崇德十八街２０號六樓","OBJECTID":549142},"geometry":{"x":170864.78000000212,"y":2541017.2599999998}},{"attributes":{"ID":549170,"DIS_CODE":0,"TOWNNAME":"東區","LI":"崇文里","LIN":"10鄰","STREET":"崇德十八街","SECT":" ","MAREA":" ","LANE":" ","ALLEY":" ","HOUSE_NO":"２０號四樓","E_COORD97":170864.78,"N_COORD97":2541017.2599999998,"ADDRESS":"崇德十八街２０號四樓","OBJECTID":549143},"geometry":{"x":170864.78000000212,"y":2541017.2599999998}},{"attributes":{"ID":549171,"DIS_CODE":0,"TOWNNAME":"東區","LI":"崇文里","LIN":"10鄰","STREET":"崇德十八街","SECT":" ","MAREA":" ","LANE":" ","ALLEY":" ","HOUSE_NO":"６４號二樓","E_COORD97":170957.66,"N_COORD97":2541012.1800000002,"ADDRESS":"崇德十八街６４號二樓","OBJECTID":549144},"geometry":{"x":170957.66000000108,"y":2541012.1800000034}},{"attributes":{"ID":549172,"DIS_CODE":0,"TOWNNAME":"東區","LI":"崇文里","LIN":"10鄰","STREET":"崇德十八街","SECT":" ","MAREA":" ","LANE":" ","ALLEY":" ","HOUSE_NO":"６４號三樓","E_COORD97":170957.66,"N_COORD97":2541012.1800000002,"ADDRESS":"崇德十八街６４號三樓","OBJECTID":549145},"geometry":{"x":170957.66000000108,"y":2541012.1800000034}},{"attributes":{"ID":549173,"DIS_CODE":0,"TOWNNAME":"東區","LI":"崇文里","LIN":"10鄰","STREET":"崇德十八街","SECT":" ","MAREA":" ","LANE":" ","ALLEY":" ","HOUSE_NO":"６４號五樓","E_COORD97":170957.66,"N_COORD97":2541012.1800000002,"ADDRESS":"崇德十八街６４號五樓","OBJECTID":549146},"geometry":{"x":170957.66000000108,"y":2541012.1800000034}},{"attributes":{"ID":549174,"DIS_CODE":0,"TOWNNAME":"東區","LI":"崇文里","LIN":"10鄰","STREET":"崇德十八街","SECT":" ","MAREA":" ","LANE":" ","ALLEY":" ","HOUSE_NO":"６４號六樓","E_COORD97":170957.66,"N_COORD97":2541012.1800000002,"ADDRESS":"崇德十八街６４號六樓","OBJECTID":549147},"geometry":{"x":170957.66000000108,"y":2541012.1800000034}},{"attributes":{"ID":549175,"DIS_CODE":0,"TOWNNAME":"東區","LI":"崇文里","LIN":"10鄰","STREET":"崇德十八街","SECT":" ","MAREA":" ","LANE":" ","ALLEY":" ","HOUSE_NO":"６４號四樓","E_COORD97":170957.66,"N_COORD97":2541012.1800000002,"ADDRESS":"崇德十八街６４號四樓","OBJECTID":549148},"geometry":{"x":170957.66000000108,"y":2541012.1800000034}},{"attributes":{"ID":549176,"DIS_CODE":0,"TOWNNAME":"東區","LI":"崇文里","LIN":"10鄰","STREET":"崇德十八街","SECT":" ","MAREA":" ","LANE":" ","ALLEY":" ","HOUSE_NO":"６６號二樓","E_COORD97":170964.92999999999,"N_COORD97":2541012.3799999999,"ADDRESS":"崇德十八街６６號二樓","OBJECTID":549149},"geometry":{"x":170964.93000000063,"y":2541012.379999999}},{"attributes":{"ID":549177,"DIS_CODE":0,"TOWNNAME":"東區","LI":"崇文里","LIN":"10鄰","STREET":"崇德十八街","SECT":" ","MAREA":" ","LANE":" ","ALLEY":" ","HOUSE_NO":"６６號三樓","E_COORD97":170964.92999999999,"N_COORD97":2541012.3799999999,"ADDRESS":"崇德十八街６６號三樓","OBJECTID":549150},"geometry":{"x":170964.93000000063,"y":2541012.379999999}},{"attributes":{"ID":549178,"DIS_CODE":0,"TOWNNAME":"東區","LI":"崇文里","LIN":"10鄰","STREET":"崇德十八街","SECT":" ","MAREA":" ","LANE":" ","ALLEY":" ","HOUSE_NO":"６６號五樓","E_COORD97":170964.92999999999,"N_COORD97":2541012.3799999999,"ADDRESS":"崇德十八街６６號五樓","OBJECTID":549151},"geometry":{"x":170964.93000000063,"y":2541012.379999999}},{"attributes":{"ID":549179,"DIS_CODE":0,"TOWNNAME":"東區","LI":"崇文里","LIN":"10鄰","STREET":"崇德十八街","SECT":" ","MAREA":" ","LANE":" ","ALLEY":" ","HOUSE_NO":"６６號六樓","E_COORD97":170964.92999999999,"N_COORD97":2541012.3799999999,"ADDRESS":"崇德十八街６６號六樓","OBJECTID":549152},"geometry":{"x":170964.93000000063,"y":2541012.379999999}},{"attributes":{"ID":549180,"DIS_CODE":0,"TOWNNAME":"東區","LI":"崇文里","LIN":"10鄰","STREET":"崇德十八街","SECT":" ","MAREA":" ","LANE":" ","ALLEY":" ","HOUSE_NO":"６６號四樓","E_COORD97":170964.92999999999,"N_COORD97":2541012.3799999999,"ADDRESS":"崇德十八街６６號四樓","OBJECTID":549153},"geometry":{"x":170964.93000000063,"y":2541012.379999999}},{"attributes":{"ID":549181,"DIS_CODE":0,"TOWNNAME":"東區","LI":"崇成里","LIN":"10鄰","STREET":"崇德十四街","SECT":" ","MAREA":" ","LANE":" ","ALLEY":" ","HOUSE_NO":"４２號","E_COORD97":170913.69,"N_COORD97":2541225.3599999999,"ADDRESS":"崇德十四街４２號","OBJECTID":549154},"geometry":{"x":170913.69000000134,"y":2541225.3600000013}},{"attributes":{"ID":549182,"DIS_CODE":0,"TOWNNAME":"新營區","LI":"忠政里","LIN":"10鄰","STREET":"中正路","SECT":" ","MAREA":" ","LANE":" ","ALLEY":" ","HOUSE_NO":"５３之８號八樓","E_COORD97":180021.48999999999,"N_COORD97":2579496.2999999998,"ADDRESS":"中正路５３之８號八樓","OBJECTID":549155},"geometry":{"x":180021.49000000022,"y":2579496.2999999989}},{"attributes":{"ID":549183,"DIS_CODE":0,"TOWNNAME":"新化區","LI":"護國里","LIN":"10鄰","STREET":"中山路","SECT":" ","MAREA":" ","LANE":" ","ALLEY":" ","HOUSE_NO":"９８號之３１","E_COORD97":179487.64000000001,"N_COORD97":2549062.2599999998,"ADDRESS":"中山路９８號之３１","OBJECTID":549156},"geometry":{"x":179487.63999999966,"y":2549062.2599999998}},{"attributes":{"ID":549184,"DIS_CODE":0,"TOWNNAME":"永康區","LI":"正強里","LIN":"10鄰","STREET":"正義街","SECT":" ","MAREA":" ","LANE":" ","ALLEY":" ","HOUSE_NO":"１０３號","E_COORD97":173407.35000000001,"N_COORD97":2547543.9300000002,"ADDRESS":"正義街１０３號","OBJECTID":549157},"geometry":{"x":173407.34999999963,"y":2547543.9300000016}},{"attributes":{"ID":549185,"DIS_CODE":0,"TOWNNAME":"新化區","LI":"護國里","LIN":"10鄰","STREET":"中山路","SECT":" ","MAREA":" ","LANE":" ","ALLEY":" ","HOUSE_NO":"７０號","E_COORD97":179806.76000000001,"N_COORD97":2549410.25,"ADDRESS":"中山路７０號","OBJECTID":549158},"geometry":{"x":179806.76000000071,"y":2549410.2500000019}},{"attributes":{"ID":549186,"DIS_CODE":0,"TOWNNAME":"新化區","LI":"護國里","LIN":"10鄰","STREET":"中山路","SECT":" ","MAREA":" ","LANE":" ","ALLEY":" ","HOUSE_NO":"９８號之６","E_COORD97":179547.60999999999,"N_COORD97":2549047.2599999998,"ADDRESS":"中山路９８號之６","OBJECTID":549159},"geometry":{"x":179547.61000000127,"y":2549047.2600000016}},{"attributes":{"ID":549187,"DIS_CODE":0,"TOWNNAME":"東區","LI":"崇信里","LIN":"10鄰","STREET":"崇信街","SECT":" ","MAREA":" ","LANE":" ","ALLEY":" ","HOUSE_NO":"１００號七樓","E_COORD97":170742.56,"N_COORD97":2542330.0600000001,"ADDRESS":"崇信街１００號七樓","OBJECTID":549160},"geometry":{"x":170742.55999999959,"y":2542330.0600000024}},{"attributes":{"ID":549188,"DIS_CODE":0,"TOWNNAME":"東區","LI":"崇信里","LIN":"10鄰","STREET":"崇信街","SECT":" ","MAREA":" ","LANE":" ","ALLEY":" ","HOUSE_NO":"１００號七樓之１","E_COORD97":170742.56,"N_COORD97":2542330.0600000001,"ADDRESS":"崇信街１００號七樓之１","OBJECTID":549161},"geometry":{"x":170742.55999999959,"y":2542330.0600000024}},{"attributes":{"ID":549189,"DIS_CODE":0,"TOWNNAME":"東區","LI":"崇信里","LIN":"10鄰","STREET":"崇信街","SECT":" ","MAREA":" ","LANE":" ","ALLEY":" ","HOUSE_NO":"１００號七樓之２","E_COORD97":170742.56,"N_COORD97":2542330.0600000001,"ADDRESS":"崇信街１００號七樓之２","OBJECTID":549162},"geometry":{"x":170742.55999999959,"y":2542330.0600000024}},{"attributes":{"ID":549190,"DIS_CODE":0,"TOWNNAME":"東區","LI":"崇信里","LIN":"10鄰","STREET":"崇信街","SECT":" ","MAREA":" ","LANE":" ","ALLEY":" ","HOUSE_NO":"１００號九樓","E_COORD97":170742.56,"N_COORD97":2542330.0600000001,"ADDRESS":"崇信街１００號九樓","OBJECTID":549163},"geometry":{"x":170742.55999999959,"y":2542330.0600000024}},{"attributes":{"ID":549191,"DIS_CODE":0,"TOWNNAME":"東區","LI":"崇信里","LIN":"10鄰","STREET":"崇信街","SECT":" ","MAREA":" ","LANE":" ","ALLEY":" ","HOUSE_NO":"１００號九樓之１","E_COORD97":170742.56,"N_COORD97":2542330.0600000001,"ADDRESS":"崇信街１００號九樓之１","OBJECTID":549164},"geometry":{"x":170742.55999999959,"y":2542330.0600000024}},{"attributes":{"ID":549192,"DIS_CODE":0,"TOWNNAME":"東區","LI":"崇信里","LIN":"10鄰","STREET":"崇信街","SECT":" ","MAREA":" ","LANE":" ","ALLEY":" ","HOUSE_NO":"１００號九樓之２","E_COORD97":170742.56,"N_COORD97":2542330.0600000001,"ADDRESS":"崇信街１００號九樓之２","OBJECTID":549165},"geometry":{"x":170742.55999999959,"y":2542330.0600000024}},{"attributes":{"ID":549193,"DIS_CODE":0,"TOWNNAME":"東區","LI":"崇信里","LIN":"10鄰","STREET":"崇信街","SECT":" ","MAREA":" ","LANE":" ","ALLEY":" ","HOUSE_NO":"１００號八樓","E_COORD97":170742.56,"N_COORD97":2542330.0600000001,"ADDRESS":"崇信街１００號八樓","OBJECTID":549166},"geometry":{"x":170742.55999999959,"y":2542330.0600000024}},{"attributes":{"ID":549194,"DIS_CODE":0,"TOWNNAME":"東區","LI":"崇信里","LIN":"10鄰","STREET":"崇信街","SECT":" ","MAREA":" ","LANE":" ","ALLEY":" ","HOUSE_NO":"１００號八樓之１","E_COORD97":170742.56,"N_COORD97":2542330.0600000001,"ADDRESS":"崇信街１００號八樓之１","OBJECTID":549167},"geometry":{"x":170742.55999999959,"y":2542330.0600000024}},{"attributes":{"ID":549195,"DIS_CODE":0,"TOWNNAME":"東區","LI":"崇信里","LIN":"10鄰","STREET":"崇信街","SECT":" ","MAREA":" ","LANE":" ","ALLEY":" ","HOUSE_NO":"１００號八樓之２","E_COORD97":170742.56,"N_COORD97":2542330.0600000001,"ADDRESS":"崇信街１００號八樓之２","OBJECTID":549168},"geometry":{"x":170742.55999999959,"y":2542330.0600000024}},{"attributes":{"ID":549196,"DIS_CODE":0,"TOWNNAME":"東區","LI":"崇信里","LIN":"10鄰","STREET":"崇信街","SECT":" ","MAREA":" ","LANE":" ","ALLEY":" ","HOUSE_NO":"１００號十一樓","E_COORD97":170742.56,"N_COORD97":2542330.0600000001,"ADDRESS":"崇信街１００號十一樓","OBJECTID":549169},"geometry":{"x":170742.55999999959,"y":2542330.0600000024}},{"attributes":{"ID":549197,"DIS_CODE":0,"TOWNNAME":"東區","LI":"崇信里","LIN":"10鄰","STREET":"崇信街","SECT":" ","MAREA":" ","LANE":" ","ALLEY":" ","HOUSE_NO":"１００號十一樓之１","E_COORD97":170742.56,"N_COORD97":2542330.0600000001,"ADDRESS":"崇信街１００號十一樓之１","OBJECTID":549170},"geometry":{"x":170742.55999999959,"y":2542330.0600000024}},{"attributes":{"ID":549198,"DIS_CODE":0,"TOWNNAME":"東區","LI":"崇信里","LIN":"10鄰","STREET":"崇信街","SECT":" ","MAREA":" ","LANE":" ","ALLEY":" ","HOUSE_NO":"１００號十樓","E_COORD97":170742.56,"N_COORD97":2542330.0600000001,"ADDRESS":"崇信街１００號十樓","OBJECTID":549171},"geometry":{"x":170742.55999999959,"y":2542330.0600000024}},{"attributes":{"ID":549199,"DIS_CODE":0,"TOWNNAME":"東區","LI":"崇信里","LIN":"10鄰","STREET":"崇信街","SECT":" ","MAREA":" ","LANE":" ","ALLEY":" ","HOUSE_NO":"１００號十樓之１","E_COORD97":170742.56,"N_COORD97":2542330.0600000001,"ADDRESS":"崇信街１００號十樓之１","OBJECTID":549172},"geometry":{"x":170742.55999999959,"y":2542330.0600000024}},{"attributes":{"ID":549200,"DIS_CODE":0,"TOWNNAME":"東區","LI":"崇信里","LIN":"10鄰","STREET":"崇信街","SECT":" ","MAREA":" ","LANE":" ","ALLEY":" ","HOUSE_NO":"１００號十樓之２","E_COORD97":170742.56,"N_COORD97":2542330.0600000001,"ADDRESS":"崇信街１００號十樓之２","OBJECTID":549173},"geometry":{"x":170742.55999999959,"y":2542330.0600000024}},{"attributes":{"ID":549201,"DIS_CODE":0,"TOWNNAME":"東區","LI":"崇信里","LIN":"10鄰","STREET":"崇信街","SECT":" ","MAREA":" ","LANE":" ","ALLEY":" ","HOUSE_NO":"１００號五樓","E_COORD97":170742.56,"N_COORD97":2542330.0600000001,"ADDRESS":"崇信街１００號五樓","OBJECTID":549174},"geometry":{"x":170742.55999999959,"y":2542330.0600000024}},{"attributes":{"ID":549202,"DIS_CODE":0,"TOWNNAME":"東區","LI":"崇信里","LIN":"10鄰","STREET":"崇信街","SECT":" ","MAREA":" ","LANE":" ","ALLEY":" ","HOUSE_NO":"１００號五樓之１","E_COORD97":170742.56,"N_COORD97":2542330.0600000001,"ADDRESS":"崇信街１００號五樓之１","OBJECTID":549175},"geometry":{"x":170742.55999999959,"y":2542330.0600000024}},{"attributes":{"ID":549203,"DIS_CODE":0,"TOWNNAME":"東區","LI":"崇信里","LIN":"10鄰","STREET":"崇信街","SECT":" ","MAREA":" ","LANE":" ","ALLEY":" ","HOUSE_NO":"１００號五樓之２","E_COORD97":170742.56,"N_COORD97":2542330.0600000001,"ADDRESS":"崇信街１００號五樓之２","OBJECTID":549176},"geometry":{"x":170742.55999999959,"y":2542330.0600000024}},{"attributes":{"ID":549204,"DIS_CODE":0,"TOWNNAME":"東區","LI":"崇成里","LIN":"10鄰","STREET":"崇德十四街","SECT":" ","MAREA":" ","LANE":" ","ALLEY":" ","HOUSE_NO":"５號","E_COORD97":170833.62,"N_COORD97":2541257.5,"ADDRESS":"崇德十四街５號","OBJECTID":549177},"geometry":{"x":170833.62000000104,"y":2541257.4999999981}},{"attributes":{"ID":549205,"DIS_CODE":0,"TOWNNAME":"東區","LI":"崇信里","LIN":"10鄰","STREET":"崇信街","SECT":" ","MAREA":" ","LANE":" ","ALLEY":" ","HOUSE_NO":"１００號六樓","E_COORD97":170742.56,"N_COORD97":2542330.0600000001,"ADDRESS":"崇信街１００號六樓","OBJECTID":549178},"geometry":{"x":170742.55999999959,"y":2542330.0600000024}},{"attributes":{"ID":549206,"DIS_CODE":0,"TOWNNAME":"東區","LI":"崇信里","LIN":"10鄰","STREET":"崇信街","SECT":" ","MAREA":" ","LANE":" ","ALLEY":" ","HOUSE_NO":"１００號六樓之１","E_COORD97":170742.56,"N_COORD97":2542330.0600000001,"ADDRESS":"崇信街１００號六樓之１","OBJECTID":549179},"geometry":{"x":170742.55999999959,"y":2542330.0600000024}},{"attributes":{"ID":549207,"DIS_CODE":0,"TOWNNAME":"東區","LI":"崇信里","LIN":"10鄰","STREET":"崇信街","SECT":" ","MAREA":" ","LANE":" ","ALLEY":" ","HOUSE_NO":"１００號六樓之２","E_COORD97":170742.56,"N_COORD97":2542330.0600000001,"ADDRESS":"崇信街１００號六樓之２","OBJECTID":549180},"geometry":{"x":170742.55999999959,"y":2542330.0600000024}},{"attributes":{"ID":549208,"DIS_CODE":0,"TOWNNAME":"東區","LI":"崇信里","LIN":"10鄰","STREET":"崇信街","SECT":" ","MAREA":" ","LANE":" ","ALLEY":" ","HOUSE_NO":"１００號四樓","E_COORD97":170742.56,"N_COORD97":2542330.0600000001,"ADDRESS":"崇信街１００號四樓","OBJECTID":549181},"geometry":{"x":170742.55999999959,"y":2542330.0600000024}},{"attributes":{"ID":549209,"DIS_CODE":0,"TOWNNAME":"東區","LI":"崇信里","LIN":"10鄰","STREET":"崇信街","SECT":" ","MAREA":" ","LANE":" ","ALLEY":" ","HOUSE_NO":"１００號四樓之１","E_COORD97":170742.56,"N_COORD97":2542330.0600000001,"ADDRESS":"崇信街１００號四樓之１","OBJECTID":549182},"geometry":{"x":170742.55999999959,"y":2542330.0600000024}},{"attributes":{"ID":549210,"DIS_CODE":0,"TOWNNAME":"東區","LI":"崇信里","LIN":"10鄰","STREET":"崇信街","SECT":" ","MAREA":" ","LANE":" ","ALLEY":" ","HOUSE_NO":"１００號四樓之２","E_COORD97":170742.56,"N_COORD97":2542330.0600000001,"ADDRESS":"崇信街１００號四樓之２","OBJECTID":549183},"geometry":{"x":170742.55999999959,"y":2542330.0600000024}},{"attributes":{"ID":549211,"DIS_CODE":0,"TOWNNAME":"東區","LI":"崇信里","LIN":"10鄰","STREET":"崇信街","SECT":" ","MAREA":" ","LANE":" ","ALLEY":" ","HOUSE_NO":"１１６號七樓","E_COORD97":170755.56,"N_COORD97":2542292.9700000002,"ADDRESS":"崇信街１１６號七樓","OBJECTID":549184},"geometry":{"x":170755.56000000052,"y":2542292.9700000025}},{"attributes":{"ID":549212,"DIS_CODE":0,"TOWNNAME":"東區","LI":"崇信里","LIN":"10鄰","STREET":"崇信街","SECT":" ","MAREA":" ","LANE":" ","ALLEY":" ","HOUSE_NO":"１１６號七樓之１","E_COORD97":170755.56,"N_COORD97":2542292.9700000002,"ADDRESS":"崇信街１１６號七樓之１","OBJECTID":549185},"geometry":{"x":170755.56000000052,"y":2542292.9700000025}},{"attributes":{"ID":549213,"DIS_CODE":0,"TOWNNAME":"東區","LI":"崇信里","LIN":"10鄰","STREET":"崇信街","SECT":" ","MAREA":" ","LANE":" ","ALLEY":" ","HOUSE_NO":"１１６號七樓之２","E_COORD97":170755.56,"N_COORD97":2542292.9700000002,"ADDRESS":"崇信街１１６號七樓之２","OBJECTID":549186},"geometry":{"x":170755.56000000052,"y":2542292.9700000025}},{"attributes":{"ID":549214,"DIS_CODE":0,"TOWNNAME":"東區","LI":"崇信里","LIN":"10鄰","STREET":"崇信街","SECT":" ","MAREA":" ","LANE":" ","ALLEY":" ","HOUSE_NO":"１１６號九樓","E_COORD97":170755.56,"N_COORD97":2542292.9700000002,"ADDRESS":"崇信街１１６號九樓","OBJECTID":549187},"geometry":{"x":170755.56000000052,"y":2542292.9700000025}},{"attributes":{"ID":549215,"DIS_CODE":0,"TOWNNAME":"東區","LI":"崇信里","LIN":"10鄰","STREET":"崇信街","SECT":" ","MAREA":" ","LANE":" ","ALLEY":" ","HOUSE_NO":"１１６號九樓之１","E_COORD97":170755.56,"N_COORD97":2542292.9700000002,"ADDRESS":"崇信街１１６號九樓之１","OBJECTID":549188},"geometry":{"x":170755.56000000052,"y":2542292.9700000025}},{"attributes":{"ID":549216,"DIS_CODE":0,"TOWNNAME":"東區","LI":"崇信里","LIN":"10鄰","STREET":"崇信街","SECT":" ","MAREA":" ","LANE":" ","ALLEY":" ","HOUSE_NO":"１１６號九樓之２","E_COORD97":170755.56,"N_COORD97":2542292.9700000002,"ADDRESS":"崇信街１１６號九樓之２","OBJECTID":549189},"geometry":{"x":170755.56000000052,"y":2542292.9700000025}},{"attributes":{"ID":549217,"DIS_CODE":0,"TOWNNAME":"東區","LI":"崇信里","LIN":"10鄰","STREET":"崇信街","SECT":" ","MAREA":" ","LANE":" ","ALLEY":" ","HOUSE_NO":"１１６號八樓","E_COORD97":170755.56,"N_COORD97":2542292.9700000002,"ADDRESS":"崇信街１１６號八樓","OBJECTID":549190},"geometry":{"x":170755.56000000052,"y":2542292.9700000025}},{"attributes":{"ID":549218,"DIS_CODE":0,"TOWNNAME":"東區","LI":"崇信里","LIN":"10鄰","STREET":"崇信街","SECT":" ","MAREA":" ","LANE":" ","ALLEY":" ","HOUSE_NO":"１１６號八樓之１","E_COORD97":170755.56,"N_COORD97":2542292.9700000002,"ADDRESS":"崇信街１１６號八樓之１","OBJECTID":549191},"geometry":{"x":170755.56000000052,"y":2542292.9700000025}},{"attributes":{"ID":549219,"DIS_CODE":0,"TOWNNAME":"東區","LI":"崇信里","LIN":"10鄰","STREET":"崇信街","SECT":" ","MAREA":" ","LANE":" ","ALLEY":" ","HOUSE_NO":"１１６號八樓之２","E_COORD97":170755.56,"N_COORD97":2542292.9700000002,"ADDRESS":"崇信街１１６號八樓之２","OBJECTID":549192},"geometry":{"x":170755.56000000052,"y":2542292.9700000025}},{"attributes":{"ID":549220,"DIS_CODE":0,"TOWNNAME":"東區","LI":"崇信里","LIN":"10鄰","STREET":"崇信街","SECT":" ","MAREA":" ","LANE":" ","ALLEY":" ","HOUSE_NO":"１１６號十一樓","E_COORD97":170755.56,"N_COORD97":2542292.9700000002,"ADDRESS":"崇信街１１６號十一樓","OBJECTID":549193},"geometry":{"x":170755.56000000052,"y":2542292.9700000025}},{"attributes":{"ID":549221,"DIS_CODE":0,"TOWNNAME":"東區","LI":"崇信里","LIN":"10鄰","STREET":"崇信街","SECT":" ","MAREA":" ","LANE":" ","ALLEY":" ","HOUSE_NO":"１１６號十一樓之１","E_COORD97":170755.56,"N_COORD97":2542292.9700000002,"ADDRESS":"崇信街１１６號十一樓之１","OBJECTID":549194},"geometry":{"x":170755.56000000052,"y":2542292.9700000025}},{"attributes":{"ID":549222,"DIS_CODE":0,"TOWNNAME":"東區","LI":"崇信里","LIN":"10鄰","STREET":"崇信街","SECT":" ","MAREA":" ","LANE":" ","ALLEY":" ","HOUSE_NO":"１１６號十樓","E_COORD97":170755.56,"N_COORD97":2542292.9700000002,"ADDRESS":"崇信街１１６號十樓","OBJECTID":549195},"geometry":{"x":170755.56000000052,"y":2542292.9700000025}},{"attributes":{"ID":549223,"DIS_CODE":0,"TOWNNAME":"東區","LI":"崇信里","LIN":"10鄰","STREET":"崇信街","SECT":" ","MAREA":" ","LANE":" ","ALLEY":" ","HOUSE_NO":"１１６號十樓之１","E_COORD97":170755.56,"N_COORD97":2542292.9700000002,"ADDRESS":"崇信街１１６號十樓之１","OBJECTID":549196},"geometry":{"x":170755.56000000052,"y":2542292.9700000025}},{"attributes":{"ID":549224,"DIS_CODE":0,"TOWNNAME":"東區","LI":"崇信里","LIN":"10鄰","STREET":"崇信街","SECT":" ","MAREA":" ","LANE":" ","ALLEY":" ","HOUSE_NO":"１１６號十樓之２","E_COORD97":170755.56,"N_COORD97":2542292.9700000002,"ADDRESS":"崇信街１１６號十樓之２","OBJECTID":549197},"geometry":{"x":170755.56000000052,"y":2542292.9700000025}},{"attributes":{"ID":549225,"DIS_CODE":0,"TOWNNAME":"東區","LI":"崇信里","LIN":"10鄰","STREET":"崇信街","SECT":" ","MAREA":" ","LANE":" ","ALLEY":" ","HOUSE_NO":"１１６號五樓","E_COORD97":170755.56,"N_COORD97":2542292.9700000002,"ADDRESS":"崇信街１１６號五樓","OBJECTID":549198},"geometry":{"x":170755.56000000052,"y":2542292.9700000025}},{"attributes":{"ID":549226,"DIS_CODE":0,"TOWNNAME":"東區","LI":"崇信里","LIN":"10鄰","STREET":"崇信街","SECT":" ","MAREA":" ","LANE":" ","ALLEY":" ","HOUSE_NO":"１１６號五樓之１","E_COORD97":170755.56,"N_COORD97":2542292.9700000002,"ADDRESS":"崇信街１１６號五樓之１","OBJECTID":549199},"geometry":{"x":170755.56000000052,"y":2542292.9700000025}},{"attributes":{"ID":549227,"DIS_CODE":0,"TOWNNAME":"東區","LI":"崇信里","LIN":"10鄰","STREET":"崇信街","SECT":" ","MAREA":" ","LANE":" ","ALLEY":" ","HOUSE_NO":"１１６號五樓之２","E_COORD97":170755.56,"N_COORD97":2542292.9700000002,"ADDRESS":"崇信街１１６號五樓之２","OBJECTID":549200},"geometry":{"x":170755.56000000052,"y":2542292.9700000025}}]}