{"displayFieldName":"TOWNNAME","fieldAliases":{"ID":"ID","DIS_CODE":"DIS_CODE","TOWNNAME":"TOWNNAME","LI":"LI","LIN":"LIN","STREET":"STREET","SECT":"SECT","MAREA":"MAREA","LANE":"LANE","ALLEY":"ALLEY","HOUSE_NO":"HOUSE_NO","E_COORD97":"E_COORD97","N_COORD97":"N_COORD97","ADDRESS":"ADDRESS","OBJECTID":"OBJECTID"},"geometryType":"esriGeometryPoint","spatialReference":{"wkid":102443,"latestWkid":3826},"fields":[{"name":"ID","type":"esriFieldTypeDouble","alias":"ID"},{"name":"DIS_CODE","type":"esriFieldTypeInteger","alias":"DIS_CODE"},{"name":"TOWNNAME","type":"esriFieldTypeString","alias":"TOWNNAME","length":8},{"name":"LI","type":"esriFieldTypeString","alias":"LI","length":8},{"name":"LIN","type":"esriFieldTypeString","alias":"LIN","length":12},{"name":"STREET","type":"esriFieldTypeString","alias":"STREET","length":20},{"name":"SECT","type":"esriFieldTypeString","alias":"SECT","length":8},{"name":"MAREA","type":"esriFieldTypeString","alias":"MAREA","length":12},{"name":"LANE","type":"esriFieldTypeString","alias":"LANE","length":10},{"name":"ALLEY","type":"esriFieldTypeString","alias":"ALLEY","length":10},{"name":"HOUSE_NO","type":"esriFieldTypeString","alias":"HOUSE_NO","length":20},{"name":"E_COORD97","type":"esriFieldTypeDouble","alias":"E_COORD97"},{"name":"N_COORD97","type":"esriFieldTypeDouble","alias":"N_COORD97"},{"name":"ADDRESS","type":"esriFieldTypeString","alias":"ADDRESS","length":50},{"name":"OBJECTID","type":"esriFieldTypeOID","alias":"OBJECTID"}],"features":[{"attributes":{"ID":270206,"DIS_CODE":0,"TOWNNAME":"歸仁區","LI":"歸南里","LIN":"8鄰","STREET":"中正十六街","SECT":" ","MAREA":" ","LANE":"２１巷","ALLEY":" ","HOUSE_NO":"１２號","E_COORD97":176527.10999999999,"N_COORD97":2539926.9500000002,"ADDRESS":"中正十六街２１巷１２號","OBJECTID":270201},"geometry":{"x":176527.11000000034,"y":2539926.9499999993}},{"attributes":{"ID":270207,"DIS_CODE":0,"TOWNNAME":"歸仁區","LI":"歸南里","LIN":"8鄰","STREET":"中正十六街","SECT":" ","MAREA":" ","LANE":"２１巷","ALLEY":" ","HOUSE_NO":"２號","E_COORD97":176554.56,"N_COORD97":2539921.9500000002,"ADDRESS":"中正十六街２１巷２號","OBJECTID":270202},"geometry":{"x":176554.56000000145,"y":2539921.9500000011}},{"attributes":{"ID":270208,"DIS_CODE":0,"TOWNNAME":"新化區","LI":"知義里","LIN":"3鄰","STREET":" ","SECT":" ","MAREA":"知母義","LANE":" ","ALLEY":" ","HOUSE_NO":"１０３號之１","E_COORD97":179842.35000000001,"N_COORD97":2547245.2599999998,"ADDRESS":"知母義１０３號之１","OBJECTID":270203},"geometry":{"x":179842.34999999963,"y":2547245.2599999998}},{"attributes":{"ID":270209,"DIS_CODE":0,"TOWNNAME":"安平區","LI":"億載里","LIN":"8鄰","STREET":"永華十一街","SECT":" ","MAREA":" ","LANE":"４９巷","ALLEY":" ","HOUSE_NO":"３８號","E_COORD97":163980.29000000001,"N_COORD97":2543486.3199999998,"ADDRESS":"永華十一街４９巷３８號","OBJECTID":270204},"geometry":{"x":163980.2900000019,"y":2543486.3200000003}},{"attributes":{"ID":270210,"DIS_CODE":0,"TOWNNAME":"安平區","LI":"億載里","LIN":"8鄰","STREET":"永華十一街","SECT":" ","MAREA":" ","LANE":"４９巷","ALLEY":" ","HOUSE_NO":"３６號","E_COORD97":163983.45999999999,"N_COORD97":2543486.48,"ADDRESS":"永華十一街４９巷３６號","OBJECTID":270205},"geometry":{"x":163983.45999999996,"y":2543486.4800000023}},{"attributes":{"ID":270211,"DIS_CODE":0,"TOWNNAME":"新化區","LI":"知義里","LIN":"3鄰","STREET":" ","SECT":" ","MAREA":"知母義","LANE":" ","ALLEY":" ","HOUSE_NO":"１４２號","E_COORD97":179803.72,"N_COORD97":2547111.25,"ADDRESS":"知母義１４２號","OBJECTID":270206},"geometry":{"x":179803.72000000067,"y":2547111.2500000037}},{"attributes":{"ID":270212,"DIS_CODE":0,"TOWNNAME":"新化區","LI":"唪口里","LIN":"3鄰","STREET":"大德路","SECT":" ","MAREA":" ","LANE":" ","ALLEY":" ","HOUSE_NO":"８４號之２０","E_COORD97":178225.57000000001,"N_COORD97":2549515.2599999998,"ADDRESS":"大德路８４號之２０","OBJECTID":270207},"geometry":{"x":178225.57000000123,"y":2549515.2600000016}},{"attributes":{"ID":270213,"DIS_CODE":0,"TOWNNAME":"新營區","LI":"興業里","LIN":"8鄰","STREET":"公誠街","SECT":" ","MAREA":" ","LANE":"９巷","ALLEY":" ","HOUSE_NO":"５號","E_COORD97":180320.25,"N_COORD97":2578019.6899999999,"ADDRESS":"公誠街９巷５號","OBJECTID":270208},"geometry":{"x":180320.24999999907,"y":2578019.6899999995}},{"attributes":{"ID":270214,"DIS_CODE":0,"TOWNNAME":"歸仁區","LI":"歸南里","LIN":"8鄰","STREET":"中正十六街","SECT":" ","MAREA":" ","LANE":"２１巷","ALLEY":" ","HOUSE_NO":"７號","E_COORD97":176537.70999999999,"N_COORD97":2539914.9500000002,"ADDRESS":"中正十六街２１巷７號","OBJECTID":270209},"geometry":{"x":176537.71000000089,"y":2539914.9500000011}},{"attributes":{"ID":270215,"DIS_CODE":0,"TOWNNAME":"新化區","LI":"羊林里","LIN":"3鄰","STREET":" ","SECT":" ","MAREA":"\u25A0拔林","LANE":" ","ALLEY":" ","HOUSE_NO":"４１５號之２","E_COORD97":183771.98000000001,"N_COORD97":2551784.2599999998,"ADDRESS":"\u25A0拔林４１５號之２","OBJECTID":270210},"geometry":{"x":183771.98000000045,"y":2551784.2600000016}},{"attributes":{"ID":270216,"DIS_CODE":0,"TOWNNAME":"新化區","LI":"羊林里","LIN":"3鄰","STREET":" ","SECT":" ","MAREA":"\u25A0拔林","LANE":" ","ALLEY":" ","HOUSE_NO":"４２１號之１","E_COORD97":183762.14999999999,"N_COORD97":2551752.2599999998,"ADDRESS":"\u25A0拔林４２１號之１","OBJECTID":270211},"geometry":{"x":183762.15000000037,"y":2551752.2600000035}},{"attributes":{"ID":270217,"DIS_CODE":0,"TOWNNAME":"新化區","LI":"豐榮里","LIN":"3鄰","STREET":" ","SECT":" ","MAREA":"洋子","LANE":" ","ALLEY":" ","HOUSE_NO":"７７號之１","E_COORD97":178022.06,"N_COORD97":2548230.2599999998,"ADDRESS":"洋子７７號之１","OBJECTID":270212},"geometry":{"x":178022.05999999959,"y":2548230.2600000016}},{"attributes":{"ID":270218,"DIS_CODE":0,"TOWNNAME":"歸仁區","LI":"大潭里","LIN":"8鄰","STREET":"長榮路","SECT":"一段","MAREA":" ","LANE":"２００巷","ALLEY":" ","HOUSE_NO":"２１號","E_COORD97":175095.01999999999,"N_COORD97":2534494.9700000002,"ADDRESS":"長榮路一段２００巷２１號","OBJECTID":270213},"geometry":{"x":175095.01999999955,"y":2534494.9700000044}},{"attributes":{"ID":270219,"DIS_CODE":0,"TOWNNAME":"新化區","LI":"豐榮里","LIN":"3鄰","STREET":" ","SECT":" ","MAREA":"洋子","LANE":" ","ALLEY":" ","HOUSE_NO":"５９號之１","E_COORD97":178042.26000000001,"N_COORD97":2548292.2599999998,"ADDRESS":"洋子５９號之１","OBJECTID":270214},"geometry":{"x":178042.26000000071,"y":2548292.2600000016}},{"attributes":{"ID":270220,"DIS_CODE":0,"TOWNNAME":"新化區","LI":"豐榮里","LIN":"3鄰","STREET":" ","SECT":" ","MAREA":"洋子","LANE":" ","ALLEY":" ","HOUSE_NO":"５０號","E_COORD97":178037.03,"N_COORD97":2548222.25,"ADDRESS":"洋子５０號","OBJECTID":270215},"geometry":{"x":178037.03000000212,"y":2548222.25}},{"attributes":{"ID":270221,"DIS_CODE":0,"TOWNNAME":"玉井區","LI":"竹圍里","LIN":"8鄰","STREET":"中正路","SECT":" ","MAREA":" ","LANE":"６６０巷","ALLEY":" ","HOUSE_NO":"３號","E_COORD97":195827.25,"N_COORD97":2558919.3300000001,"ADDRESS":"中正路６６０巷３號","OBJECTID":270216},"geometry":{"x":195827.25,"y":2558919.3300000038}},{"attributes":{"ID":270222,"DIS_CODE":0,"TOWNNAME":"新化區","LI":"豐榮里","LIN":"3鄰","STREET":" ","SECT":" ","MAREA":"洋子","LANE":" ","ALLEY":" ","HOUSE_NO":"４６號","E_COORD97":178063.14226299999,"N_COORD97":2548201.3254999998,"ADDRESS":"洋子４６號","OBJECTID":270217},"geometry":{"x":178063.1422629999,"y":2548201.325503001}},{"attributes":{"ID":270223,"DIS_CODE":0,"TOWNNAME":"新化區","LI":"知義里","LIN":"3鄰","STREET":" ","SECT":" ","MAREA":"知母義","LANE":" ","ALLEY":" ","HOUSE_NO":"１０３號之５","E_COORD97":179821.57999999999,"N_COORD97":2547241.2599999998,"ADDRESS":"知母義１０３號之５","OBJECTID":270218},"geometry":{"x":179821.58000000194,"y":2547241.2600000016}},{"attributes":{"ID":270224,"DIS_CODE":0,"TOWNNAME":"玉井區","LI":"竹圍里","LIN":"8鄰","STREET":"中正路","SECT":" ","MAREA":" ","LANE":"６６０巷","ALLEY":" ","HOUSE_NO":"１０號","E_COORD97":195819.10000000001,"N_COORD97":2558896.54,"ADDRESS":"中正路６６０巷１０號","OBJECTID":270219},"geometry":{"x":195819.10000000056,"y":2558896.5400000028}},{"attributes":{"ID":270225,"DIS_CODE":0,"TOWNNAME":"新化區","LI":"知義里","LIN":"3鄰","STREET":" ","SECT":" ","MAREA":"知母義","LANE":" ","ALLEY":" ","HOUSE_NO":"１４４號之４","E_COORD97":179789.66,"N_COORD97":2547081.2599999998,"ADDRESS":"知母義１４４號之４","OBJECTID":270220},"geometry":{"x":179789.66000000108,"y":2547081.2600000016}},{"attributes":{"ID":270226,"DIS_CODE":0,"TOWNNAME":"新化區","LI":"\u25A0拔里","LIN":"3鄰","STREET":" ","SECT":" ","MAREA":"\u25A0拔林","LANE":" ","ALLEY":" ","HOUSE_NO":"１４９號","E_COORD97":183811.72,"N_COORD97":2552125.25,"ADDRESS":"\u25A0拔林１４９號","OBJECTID":270221},"geometry":{"x":183811.71999999974,"y":2552125.25}},{"attributes":{"ID":270227,"DIS_CODE":0,"TOWNNAME":"新化區","LI":"山\u25A0里","LIN":"3鄰","STREET":" ","SECT":" ","MAREA":"頂山\u25A0","LANE":" ","ALLEY":" ","HOUSE_NO":"９４號","E_COORD97":179607.78,"N_COORD97":2546604.25,"ADDRESS":"頂山\u25A0９４號","OBJECTID":270222},"geometry":{"x":179607.78000000026,"y":2546604.2500000019}},{"attributes":{"ID":270228,"DIS_CODE":0,"TOWNNAME":"新化區","LI":"\u25A0拔里","LIN":"3鄰","STREET":" ","SECT":" ","MAREA":"\u25A0拔林","LANE":" ","ALLEY":" ","HOUSE_NO":"１５３號","E_COORD97":183902.32000000001,"N_COORD97":2552165.25,"ADDRESS":"\u25A0拔林１５３號","OBJECTID":270223},"geometry":{"x":183902.32000000123,"y":2552165.25}},{"attributes":{"ID":270229,"DIS_CODE":0,"TOWNNAME":"玉井區","LI":"玉井里","LIN":"8鄰","STREET":"民生路","SECT":" ","MAREA":" ","LANE":"４２巷","ALLEY":" ","HOUSE_NO":"１５號","E_COORD97":194834.48999999999,"N_COORD97":2558290.2799999998,"ADDRESS":"民生路４２巷１５號","OBJECTID":270224},"geometry":{"x":194834.49000000022,"y":2558290.2799999993}},{"attributes":{"ID":270230,"DIS_CODE":0,"TOWNNAME":"玉井區","LI":"竹圍里","LIN":"8鄰","STREET":"中正路","SECT":" ","MAREA":" ","LANE":"６６０巷","ALLEY":" ","HOUSE_NO":"２號","E_COORD97":195808.06,"N_COORD97":2558907.5499999998,"ADDRESS":"中正路６６０巷２號","OBJECTID":270225},"geometry":{"x":195808.05999999959,"y":2558907.5500000007}},{"attributes":{"ID":270231,"DIS_CODE":0,"TOWNNAME":"學甲區","LI":"慈福里","LIN":"8鄰","STREET":"民族路","SECT":" ","MAREA":" ","LANE":"３３巷","ALLEY":" ","HOUSE_NO":"２號","E_COORD97":166569.5,"N_COORD97":2570169.5699999998,"ADDRESS":"民族路３３巷２號","OBJECTID":270226},"geometry":{"x":166569.50000000093,"y":2570169.5700000003}},{"attributes":{"ID":270232,"DIS_CODE":0,"TOWNNAME":"新化區","LI":"崙頂里","LIN":"3鄰","STREET":" ","SECT":" ","MAREA":"崙子頂","LANE":" ","ALLEY":" ","HOUSE_NO":"１２９號之１","E_COORD97":176790.45999999999,"N_COORD97":2546666.2599999998,"ADDRESS":"崙子頂１２９號之１","OBJECTID":270227},"geometry":{"x":176790.45999999996,"y":2546666.2599999998}},{"attributes":{"ID":270233,"DIS_CODE":0,"TOWNNAME":"新化區","LI":"觀音里","LIN":"3鄰","STREET":"民族街","SECT":" ","MAREA":" ","LANE":" ","ALLEY":" ","HOUSE_NO":"８號","E_COORD97":178899.01000000001,"N_COORD97":2548474.25,"ADDRESS":"民族街８號","OBJECTID":270228},"geometry":{"x":178899.00999999978,"y":2548474.2500000037}},{"attributes":{"ID":270234,"DIS_CODE":0,"TOWNNAME":"新化區","LI":"太平里","LIN":"3鄰","STREET":"太平街","SECT":" ","MAREA":" ","LANE":" ","ALLEY":" ","HOUSE_NO":"１３號之２","E_COORD97":179022.03,"N_COORD97":2548822.2599999998,"ADDRESS":"太平街１３號之２","OBJECTID":270229},"geometry":{"x":179022.03000000212,"y":2548822.2599999998}},{"attributes":{"ID":270235,"DIS_CODE":0,"TOWNNAME":"北區","LI":"延平里","LIN":"8鄰","STREET":"公園路","SECT":" ","MAREA":" ","LANE":"７７２巷","ALLEY":" ","HOUSE_NO":"４３號","E_COORD97":169261.41,"N_COORD97":2545701.2400000002,"ADDRESS":"公園路７７２巷４３號","OBJECTID":270230},"geometry":{"x":169261.41000000015,"y":2545701.2400000039}},{"attributes":{"ID":270236,"DIS_CODE":0,"TOWNNAME":"新化區","LI":"\u25A0拔里","LIN":"3鄰","STREET":" ","SECT":" ","MAREA":"\u25A0拔林","LANE":" ","ALLEY":" ","HOUSE_NO":"１０４號","E_COORD97":183554.72,"N_COORD97":2551991.25,"ADDRESS":"\u25A0拔林１０４號","OBJECTID":270231},"geometry":{"x":183554.7200000016,"y":2551991.2500000019}},{"attributes":{"ID":270237,"DIS_CODE":0,"TOWNNAME":"新化區","LI":"崙頂里","LIN":"3鄰","STREET":" ","SECT":" ","MAREA":"崙子頂","LANE":" ","ALLEY":" ","HOUSE_NO":"１１４號","E_COORD97":176804.06647600001,"N_COORD97":2546714.68457,"ADDRESS":"崙子頂１１４號","OBJECTID":270232},"geometry":{"x":176804.06647599954,"y":2546714.6845679991}},{"attributes":{"ID":270238,"DIS_CODE":0,"TOWNNAME":"新化區","LI":"\u25A0拔里","LIN":"3鄰","STREET":" ","SECT":" ","MAREA":"\u25A0拔林","LANE":" ","ALLEY":" ","HOUSE_NO":"１０６號","E_COORD97":183568.22,"N_COORD97":2551994.25,"ADDRESS":"\u25A0拔林１０６號","OBJECTID":270233},"geometry":{"x":183568.2200000016,"y":2551994.2500000019}},{"attributes":{"ID":270239,"DIS_CODE":0,"TOWNNAME":"北區","LI":"延平里","LIN":"8鄰","STREET":"公園路","SECT":" ","MAREA":" ","LANE":"７７２巷","ALLEY":" ","HOUSE_NO":"４５號","E_COORD97":169269.41,"N_COORD97":2545698.21,"ADDRESS":"公園路７７２巷４５號","OBJECTID":270234},"geometry":{"x":169269.41000000015,"y":2545698.2100000009}},{"attributes":{"ID":270240,"DIS_CODE":0,"TOWNNAME":"北區","LI":"延平里","LIN":"8鄰","STREET":"公園路","SECT":" ","MAREA":" ","LANE":"７７２巷","ALLEY":" ","HOUSE_NO":"４７號","E_COORD97":169277.29000000001,"N_COORD97":2545693.3999999999,"ADDRESS":"公園路７７２巷４７號","OBJECTID":270235},"geometry":{"x":169277.29000000004,"y":2545693.4000000041}},{"attributes":{"ID":270241,"DIS_CODE":0,"TOWNNAME":"新化區","LI":"羊林里","LIN":"3鄰","STREET":" ","SECT":" ","MAREA":"\u25A0拔林","LANE":" ","ALLEY":" ","HOUSE_NO":"４２２號","E_COORD97":183738.82000000001,"N_COORD97":2551735.25,"ADDRESS":"\u25A0拔林４２２號","OBJECTID":270236},"geometry":{"x":183738.8200000003,"y":2551735.25}},{"attributes":{"ID":270242,"DIS_CODE":0,"TOWNNAME":"北區","LI":"延平里","LIN":"8鄰","STREET":"公園路","SECT":" ","MAREA":" ","LANE":"７７２巷","ALLEY":" ","HOUSE_NO":"４９號","E_COORD97":169281.60999999999,"N_COORD97":2545692.3199999998,"ADDRESS":"公園路７７２巷４９號","OBJECTID":270237},"geometry":{"x":169281.61000000127,"y":2545692.3200000003}},{"attributes":{"ID":270243,"DIS_CODE":0,"TOWNNAME":"北區","LI":"延平里","LIN":"8鄰","STREET":"公園路","SECT":" ","MAREA":" ","LANE":"７７２巷","ALLEY":" ","HOUSE_NO":"５１號","E_COORD97":169286.37,"N_COORD97":2545691.46,"ADDRESS":"公園路７７２巷５１號","OBJECTID":270238},"geometry":{"x":169286.37000000104,"y":2545691.4600000028}},{"attributes":{"ID":270244,"DIS_CODE":0,"TOWNNAME":"新化區","LI":"崙頂里","LIN":"3鄰","STREET":" ","SECT":" ","MAREA":"崙子頂","LANE":" ","ALLEY":" ","HOUSE_NO":"１３１號","E_COORD97":176784.32999999999,"N_COORD97":2546690.25,"ADDRESS":"崙子頂１３１號","OBJECTID":270239},"geometry":{"x":176784.33000000101,"y":2546690.25}},{"attributes":{"ID":270245,"DIS_CODE":0,"TOWNNAME":"北區","LI":"延平里","LIN":"8鄰","STREET":"公園路","SECT":" ","MAREA":" ","LANE":"７７２巷","ALLEY":" ","HOUSE_NO":"５２號","E_COORD97":169266.38,"N_COORD97":2545688.71,"ADDRESS":"公園路７７２巷５２號","OBJECTID":270240},"geometry":{"x":169266.37999999989,"y":2545688.7100000046}},{"attributes":{"ID":270246,"DIS_CODE":0,"TOWNNAME":"新化區","LI":"\u25A0拔里","LIN":"3鄰","STREET":" ","SECT":" ","MAREA":"\u25A0拔林","LANE":" ","ALLEY":" ","HOUSE_NO":"１０６號之１","E_COORD97":183576.45000000001,"N_COORD97":2552002.2599999998,"ADDRESS":"\u25A0拔林１０６號之１","OBJECTID":270241},"geometry":{"x":183576.45000000112,"y":2552002.2599999998}},{"attributes":{"ID":270247,"DIS_CODE":0,"TOWNNAME":"新化區","LI":"崙頂里","LIN":"3鄰","STREET":" ","SECT":" ","MAREA":"崙子頂","LANE":" ","ALLEY":" ","HOUSE_NO":"１１３號之１","E_COORD97":176822.76000000001,"N_COORD97":2546728.2599999998,"ADDRESS":"崙子頂１１３號之１","OBJECTID":270242},"geometry":{"x":176822.75999999885,"y":2546728.2600000016}},{"attributes":{"ID":270248,"DIS_CODE":0,"TOWNNAME":"新化區","LI":"羊林里","LIN":"3鄰","STREET":" ","SECT":" ","MAREA":"\u25A0拔林","LANE":" ","ALLEY":" ","HOUSE_NO":"４１７號之１","E_COORD97":183734.95000000001,"N_COORD97":2551752.2599999998,"ADDRESS":"\u25A0拔林４１７號之１","OBJECTID":270243},"geometry":{"x":183734.95000000205,"y":2551752.2600000035}},{"attributes":{"ID":270249,"DIS_CODE":0,"TOWNNAME":"新化區","LI":"崙頂里","LIN":"3鄰","STREET":" ","SECT":" ","MAREA":"崙子頂","LANE":" ","ALLEY":" ","HOUSE_NO":"１３０號","E_COORD97":176766.53,"N_COORD97":2546667.25,"ADDRESS":"崙子頂１３０號","OBJECTID":270244},"geometry":{"x":176766.53000000026,"y":2546667.2500000037}},{"attributes":{"ID":270250,"DIS_CODE":0,"TOWNNAME":"永康區","LI":"北灣里","LIN":"20鄰","STREET":"大安街","SECT":" ","MAREA":" ","LANE":" ","ALLEY":" ","HOUSE_NO":"４７２號","E_COORD97":174572.79999999999,"N_COORD97":2545977.21,"ADDRESS":"大安街４７２號","OBJECTID":270245},"geometry":{"x":174572.79999999981,"y":2545977.2100000028}},{"attributes":{"ID":270251,"DIS_CODE":0,"TOWNNAME":"新營區","LI":"大宏里","LIN":"2鄰","STREET":"民治路","SECT":" ","MAREA":" ","LANE":" ","ALLEY":" ","HOUSE_NO":"２５號之３","E_COORD97":180369.76191999999,"N_COORD97":2578821.78461,"ADDRESS":"民治路２５號之３","OBJECTID":270246},"geometry":{"x":180369.76192000043,"y":2578821.7846099976}},{"attributes":{"ID":270252,"DIS_CODE":0,"TOWNNAME":"新化區","LI":"崙頂里","LIN":"3鄰","STREET":" ","SECT":" ","MAREA":"崙子頂","LANE":" ","ALLEY":" ","HOUSE_NO":"１１３號之２","E_COORD97":176831.57999999999,"N_COORD97":2546732.2599999998,"ADDRESS":"崙子頂１１３號之２","OBJECTID":270247},"geometry":{"x":176831.58000000101,"y":2546732.2600000016}},{"attributes":{"ID":270253,"DIS_CODE":0,"TOWNNAME":"新化區","LI":"崙頂里","LIN":"3鄰","STREET":" ","SECT":" ","MAREA":"崙子頂","LANE":" ","ALLEY":" ","HOUSE_NO":"１８３號之１","E_COORD97":176648.16,"N_COORD97":2546718.2599999998,"ADDRESS":"崙子頂１８３號之１","OBJECTID":270248},"geometry":{"x":176648.16000000108,"y":2546718.2600000016}},{"attributes":{"ID":270254,"DIS_CODE":0,"TOWNNAME":"新化區","LI":"羊林里","LIN":"3鄰","STREET":" ","SECT":" ","MAREA":"\u25A0拔林","LANE":" ","ALLEY":" ","HOUSE_NO":"４２６號之１","E_COORD97":183763.75,"N_COORD97":2551719.2599999998,"ADDRESS":"\u25A0拔林４２６號之１","OBJECTID":270249},"geometry":{"x":183763.75000000093,"y":2551719.2600000016}},{"attributes":{"ID":270255,"DIS_CODE":0,"TOWNNAME":"北區","LI":"延平里","LIN":"8鄰","STREET":"長榮路","SECT":"五段","MAREA":" ","LANE":"４０１巷","ALLEY":" ","HOUSE_NO":"１５３號","E_COORD97":169284.42000000001,"N_COORD97":2545707.1099999999,"ADDRESS":"長榮路五段４０１巷１５３號","OBJECTID":270250},"geometry":{"x":169284.41999999993,"y":2545707.1099999994}},{"attributes":{"ID":270256,"DIS_CODE":0,"TOWNNAME":"北區","LI":"延平里","LIN":"8鄰","STREET":"長榮路","SECT":"五段","MAREA":" ","LANE":"４０１巷","ALLEY":" ","HOUSE_NO":"１５９號","E_COORD97":169272.53,"N_COORD97":2545673.96,"ADDRESS":"長榮路五段４０１巷１５９號","OBJECTID":270251},"geometry":{"x":169272.53000000026,"y":2545673.9600000028}},{"attributes":{"ID":270257,"DIS_CODE":0,"TOWNNAME":"北區","LI":"大豐里","LIN":"8鄰","STREET":"文賢路","SECT":" ","MAREA":" ","LANE":"３１３巷","ALLEY":" ","HOUSE_NO":"３２號","E_COORD97":167227.48999999999,"N_COORD97":2545265.0299999998,"ADDRESS":"文賢路３１３巷３２號","OBJECTID":270252},"geometry":{"x":167227.49000000115,"y":2545265.0300000012}},{"attributes":{"ID":270258,"DIS_CODE":0,"TOWNNAME":"北區","LI":"大豐里","LIN":"8鄰","STREET":"文賢路","SECT":" ","MAREA":" ","LANE":"３６５巷","ALLEY":" ","HOUSE_NO":"１１號","E_COORD97":167296.54000000001,"N_COORD97":2545370.54,"ADDRESS":"文賢路３６５巷１１號","OBJECTID":270253},"geometry":{"x":167296.54000000097,"y":2545370.540000001}},{"attributes":{"ID":270259,"DIS_CODE":0,"TOWNNAME":"新化區","LI":"崙頂里","LIN":"3鄰","STREET":" ","SECT":" ","MAREA":"崙子頂","LANE":" ","ALLEY":" ","HOUSE_NO":"１２０號之９","E_COORD97":176791.87,"N_COORD97":2546602.2599999998,"ADDRESS":"崙子頂１２０號之９","OBJECTID":270254},"geometry":{"x":176791.86999999918,"y":2546602.2600000035}},{"attributes":{"ID":270260,"DIS_CODE":0,"TOWNNAME":"永康區","LI":"北灣里","LIN":"29鄰","STREET":"文賢街","SECT":" ","MAREA":" ","LANE":" ","ALLEY":" ","HOUSE_NO":"９０號","E_COORD97":175375.67999999999,"N_COORD97":2545397.3900000001,"ADDRESS":"文賢街９０號","OBJECTID":270255},"geometry":{"x":175375.68000000156,"y":2545397.3900000006}},{"attributes":{"ID":270261,"DIS_CODE":0,"TOWNNAME":"新化區","LI":"崙頂里","LIN":"3鄰","STREET":" ","SECT":" ","MAREA":"崙子頂","LANE":" ","ALLEY":" ","HOUSE_NO":"１３１號之３","E_COORD97":176774.78,"N_COORD97":2546690.2599999998,"ADDRESS":"崙子頂１３１號之３","OBJECTID":270256},"geometry":{"x":176774.78000000119,"y":2546690.2599999979}},{"attributes":{"ID":270262,"DIS_CODE":0,"TOWNNAME":"新化區","LI":"清水里","LIN":"3鄰","STREET":"民治路","SECT":" ","MAREA":" ","LANE":" ","ALLEY":" ","HOUSE_NO":"１３１號","E_COORD97":178673.60999999999,"N_COORD97":2548342.25,"ADDRESS":"民治路１３１號","OBJECTID":270257},"geometry":{"x":178673.61000000034,"y":2548342.2500000019}},{"attributes":{"ID":270263,"DIS_CODE":0,"TOWNNAME":"新化區","LI":"唪口里","LIN":"3鄰","STREET":"大德路","SECT":" ","MAREA":" ","LANE":" ","ALLEY":" ","HOUSE_NO":"８４號之１０","E_COORD97":178249.76999999999,"N_COORD97":2549494.2599999998,"ADDRESS":"大德路８４號之１０","OBJECTID":270258},"geometry":{"x":178249.76999999955,"y":2549494.2600000035}},{"attributes":{"ID":270264,"DIS_CODE":0,"TOWNNAME":"新化區","LI":"竹林里","LIN":"3鄰","STREET":"中山路","SECT":" ","MAREA":" ","LANE":" ","ALLEY":" ","HOUSE_NO":"３８４號之１","E_COORD97":178822.34,"N_COORD97":2548421.2599999998,"ADDRESS":"中山路３８４號之１","OBJECTID":270259},"geometry":{"x":178822.33999999985,"y":2548421.2600000016}},{"attributes":{"ID":270265,"DIS_CODE":0,"TOWNNAME":"新化區","LI":"北勢里","LIN":"3鄰","STREET":" ","SECT":" ","MAREA":"北勢","LANE":" ","ALLEY":" ","HOUSE_NO":"５９號之１","E_COORD97":177403.35999999999,"N_COORD97":2549600.2599999998,"ADDRESS":"北勢５９號之１","OBJECTID":270260},"geometry":{"x":177403.36000000127,"y":2549600.2600000016}},{"attributes":{"ID":270266,"DIS_CODE":0,"TOWNNAME":"北區","LI":"大豐里","LIN":"8鄰","STREET":"文賢路","SECT":" ","MAREA":" ","LANE":"３６５巷","ALLEY":" ","HOUSE_NO":"１３號","E_COORD97":167292.48000000001,"N_COORD97":2545369.7599999998,"ADDRESS":"文賢路３６５巷１３號","OBJECTID":270261},"geometry":{"x":167292.48000000138,"y":2545369.7600000016}},{"attributes":{"ID":270267,"DIS_CODE":0,"TOWNNAME":"北區","LI":"大豐里","LIN":"8鄰","STREET":"文賢路","SECT":" ","MAREA":" ","LANE":"３６５巷","ALLEY":" ","HOUSE_NO":"１５號","E_COORD97":167279.13,"N_COORD97":2545370.6499999999,"ADDRESS":"文賢路３６５巷１５號","OBJECTID":270262},"geometry":{"x":167279.12999999989,"y":2545370.6500000022}},{"attributes":{"ID":270268,"DIS_CODE":0,"TOWNNAME":"新化區","LI":"\u25A0拔里","LIN":"3鄰","STREET":" ","SECT":" ","MAREA":"\u25A0拔林","LANE":" ","ALLEY":" ","HOUSE_NO":"１２８號之１","E_COORD97":183691.25,"N_COORD97":2552089.2599999998,"ADDRESS":"\u25A0拔林１２８號之１","OBJECTID":270263},"geometry":{"x":183691.25,"y":2552089.2600000016}},{"attributes":{"ID":270269,"DIS_CODE":0,"TOWNNAME":"新化區","LI":"\u25A0拔里","LIN":"3鄰","STREET":" ","SECT":" ","MAREA":"\u25A0拔林","LANE":" ","ALLEY":" ","HOUSE_NO":"１６１號","E_COORD97":184022.32000000001,"N_COORD97":2552222.25,"ADDRESS":"\u25A0拔林１６１號","OBJECTID":270264},"geometry":{"x":184022.3200000003,"y":2552222.25}},{"attributes":{"ID":270270,"DIS_CODE":0,"TOWNNAME":"新化區","LI":"北勢里","LIN":"3鄰","STREET":" ","SECT":" ","MAREA":"北勢","LANE":" ","ALLEY":" ","HOUSE_NO":"６２號之８","E_COORD97":177389.29000000001,"N_COORD97":2549677.2599999998,"ADDRESS":"北勢６２號之８","OBJECTID":270265},"geometry":{"x":177389.29000000097,"y":2549677.2599999979}},{"attributes":{"ID":270271,"DIS_CODE":0,"TOWNNAME":"北區","LI":"大豐里","LIN":"8鄰","STREET":"文賢路","SECT":" ","MAREA":" ","LANE":"３６５巷","ALLEY":" ","HOUSE_NO":"１７號","E_COORD97":167274.72,"N_COORD97":2545371.6000000001,"ADDRESS":"文賢路３６５巷１７號","OBJECTID":270266},"geometry":{"x":167274.72000000067,"y":2545371.5999999996}},{"attributes":{"ID":270272,"DIS_CODE":0,"TOWNNAME":"北區","LI":"大豐里","LIN":"8鄰","STREET":"文賢路","SECT":" ","MAREA":" ","LANE":"３６５巷","ALLEY":" ","HOUSE_NO":"１９號","E_COORD97":167270.31,"N_COORD97":2545372.0299999998,"ADDRESS":"文賢路３６５巷１９號","OBJECTID":270267},"geometry":{"x":167270.31000000052,"y":2545372.0299999993}},{"attributes":{"ID":270273,"DIS_CODE":0,"TOWNNAME":"新化區","LI":"山\u25A0里","LIN":"3鄰","STREET":" ","SECT":" ","MAREA":"頂山\u25A0","LANE":" ","ALLEY":" ","HOUSE_NO":"９４號之１","E_COORD97":179623.31,"N_COORD97":2546611.2599999998,"ADDRESS":"頂山\u25A0９４號之１","OBJECTID":270268},"geometry":{"x":179623.31000000052,"y":2546611.2599999998}},{"attributes":{"ID":270274,"DIS_CODE":0,"TOWNNAME":"新化區","LI":"豐榮里","LIN":"3鄰","STREET":" ","SECT":" ","MAREA":"洋子","LANE":" ","ALLEY":" ","HOUSE_NO":"１６４號之２","E_COORD97":178082.97,"N_COORD97":2548180.8500000001,"ADDRESS":"洋子１６４號之２","OBJECTID":270269},"geometry":{"x":178082.97000000067,"y":2548180.8499999996}},{"attributes":{"ID":270275,"DIS_CODE":0,"TOWNNAME":"北區","LI":"大豐里","LIN":"8鄰","STREET":"文賢路","SECT":" ","MAREA":" ","LANE":"３６５巷","ALLEY":" ","HOUSE_NO":"２１號","E_COORD97":167265.29999999999,"N_COORD97":2545372.5499999998,"ADDRESS":"文賢路３６５巷２１號","OBJECTID":270270},"geometry":{"x":167265.30000000075,"y":2545372.5500000007}},{"attributes":{"ID":270276,"DIS_CODE":0,"TOWNNAME":"北區","LI":"大豐里","LIN":"8鄰","STREET":"文賢路","SECT":" ","MAREA":" ","LANE":"３６５巷","ALLEY":" ","HOUSE_NO":"２３號","E_COORD97":167261.67000000001,"N_COORD97":2545372.98,"ADDRESS":"文賢路３６５巷２３號","OBJECTID":270271},"geometry":{"x":167261.67000000086,"y":2545372.9800000004}},{"attributes":{"ID":270277,"DIS_CODE":0,"TOWNNAME":"北區","LI":"大豐里","LIN":"8鄰","STREET":"文賢路","SECT":" ","MAREA":" ","LANE":"３６５巷","ALLEY":" ","HOUSE_NO":"２５號","E_COORD97":167256.22,"N_COORD97":2545373.5899999999,"ADDRESS":"文賢路３６５巷２５號","OBJECTID":270272},"geometry":{"x":167256.22000000067,"y":2545373.5900000017}},{"attributes":{"ID":270278,"DIS_CODE":0,"TOWNNAME":"北區","LI":"大豐里","LIN":"8鄰","STREET":"文賢路","SECT":" ","MAREA":" ","LANE":"３６５巷","ALLEY":" ","HOUSE_NO":"２７號","E_COORD97":167251.73000000001,"N_COORD97":2545373.7599999998,"ADDRESS":"文賢路３６５巷２７號","OBJECTID":270273},"geometry":{"x":167251.73000000138,"y":2545373.7599999998}},{"attributes":{"ID":270279,"DIS_CODE":0,"TOWNNAME":"歸仁區","LI":"崙頂里","LIN":"8鄰","STREET":"崙頂三街","SECT":" ","MAREA":" ","LANE":"６８巷","ALLEY":" ","HOUSE_NO":"１號","E_COORD97":177994.91,"N_COORD97":2539904.1099999999,"ADDRESS":"崙頂三街６８巷１號","OBJECTID":270274},"geometry":{"x":177994.91000000015,"y":2539904.1100000013}},{"attributes":{"ID":270280,"DIS_CODE":0,"TOWNNAME":"歸仁區","LI":"八甲里","LIN":"8鄰","STREET":"大光一街","SECT":" ","MAREA":" ","LANE":"６２巷","ALLEY":" ","HOUSE_NO":"７號","E_COORD97":177869.22,"N_COORD97":2541814.6099999999,"ADDRESS":"大光一街６２巷７號","OBJECTID":270275},"geometry":{"x":177869.22000000067,"y":2541814.6099999994}},{"attributes":{"ID":270281,"DIS_CODE":0,"TOWNNAME":"歸仁區","LI":"八甲里","LIN":"8鄰","STREET":"大光一街","SECT":" ","MAREA":" ","LANE":"６２巷","ALLEY":" ","HOUSE_NO":"１３號","E_COORD97":177892.97,"N_COORD97":2541808.6099999999,"ADDRESS":"大光一街６２巷１３號","OBJECTID":270276},"geometry":{"x":177892.97000000067,"y":2541808.6099999994}},{"attributes":{"ID":270282,"DIS_CODE":0,"TOWNNAME":"楠西區","LI":"東勢里","LIN":"8鄰","STREET":"忠孝路","SECT":" ","MAREA":" ","LANE":"５１巷","ALLEY":" ","HOUSE_NO":"３０號","E_COORD97":197664.23999999999,"N_COORD97":2564101.25,"ADDRESS":"忠孝路５１巷３０號","OBJECTID":270277},"geometry":{"x":197664.24000000209,"y":2564101.2500000019}},{"attributes":{"ID":270283,"DIS_CODE":0,"TOWNNAME":"楠西區","LI":"東勢里","LIN":"8鄰","STREET":"東勢路","SECT":" ","MAREA":" ","LANE":"１２６巷","ALLEY":" ","HOUSE_NO":"１１號","E_COORD97":197517.62,"N_COORD97":2564081.29,"ADDRESS":"東勢路１２６巷１１號","OBJECTID":270278},"geometry":{"x":197517.62000000104,"y":2564081.2899999991}},{"attributes":{"ID":270284,"DIS_CODE":0,"TOWNNAME":"北區","LI":"賢北里","LIN":"3鄰","STREET":"中華北路","SECT":"一段","MAREA":" ","LANE":" ","ALLEY":" ","HOUSE_NO":"１０９號","E_COORD97":166479.60999999999,"N_COORD97":2545519.2999999998,"ADDRESS":"中華北路一段１０９號","OBJECTID":270279},"geometry":{"x":166479.61000000034,"y":2545519.3000000026}},{"attributes":{"ID":270285,"DIS_CODE":0,"TOWNNAME":"安平區","LI":"建平里","LIN":"3鄰","STREET":"慶平路","SECT":" ","MAREA":" ","LANE":" ","ALLEY":" ","HOUSE_NO":"３３號","E_COORD97":166316.17999999999,"N_COORD97":2544146.8799999999,"ADDRESS":"慶平路３３號","OBJECTID":270280},"geometry":{"x":166316.1799999997,"y":2544146.8800000008}},{"attributes":{"ID":270286,"DIS_CODE":0,"TOWNNAME":"安平區","LI":"建平里","LIN":"3鄰","STREET":"建平十七街","SECT":" ","MAREA":" ","LANE":" ","ALLEY":" ","HOUSE_NO":"４７號","E_COORD97":166144.63,"N_COORD97":2544221.0099999998,"ADDRESS":"建平十七街４７號","OBJECTID":270281},"geometry":{"x":166144.63000000082,"y":2544221.0100000016}},{"attributes":{"ID":270287,"DIS_CODE":0,"TOWNNAME":"楠西區","LI":"東勢里","LIN":"8鄰","STREET":"忠孝路","SECT":" ","MAREA":" ","LANE":"５１巷","ALLEY":" ","HOUSE_NO":"３２號","E_COORD97":197671.04000000001,"N_COORD97":2564107.25,"ADDRESS":"忠孝路５１巷３２號","OBJECTID":270282},"geometry":{"x":197671.04000000097,"y":2564107.2500000037}},{"attributes":{"ID":270288,"DIS_CODE":0,"TOWNNAME":"安平區","LI":"平安里","LIN":"3鄰","STREET":"安平路","SECT":" ","MAREA":" ","LANE":"９８巷","ALLEY":" ","HOUSE_NO":"１８號","E_COORD97":166382.37,"N_COORD97":2544377.4900000002,"ADDRESS":"安平路９８巷１８號","OBJECTID":270283},"geometry":{"x":166382.37000000104,"y":2544377.4900000021}},{"attributes":{"ID":270289,"DIS_CODE":0,"TOWNNAME":"安平區","LI":"平安里","LIN":"3鄰","STREET":"安平路","SECT":" ","MAREA":" ","LANE":"９８巷","ALLEY":" ","HOUSE_NO":"１９號","E_COORD97":166368.16,"N_COORD97":2544380.5499999998,"ADDRESS":"安平路９８巷１９號","OBJECTID":270284},"geometry":{"x":166368.16000000108,"y":2544380.5500000045}},{"attributes":{"ID":270290,"DIS_CODE":0,"TOWNNAME":"新營區","LI":"民生里","LIN":"8鄰","STREET":"復興路","SECT":" ","MAREA":" ","LANE":"１４８巷","ALLEY":" ","HOUSE_NO":"１１之５號","E_COORD97":179335.25,"N_COORD97":2578104.1600000001,"ADDRESS":"復興路１４８巷１１之５號","OBJECTID":270285},"geometry":{"x":179335.25,"y":2578104.160000002}},{"attributes":{"ID":270291,"DIS_CODE":0,"TOWNNAME":"新營區","LI":"民權里","LIN":"8鄰","STREET":"博愛街","SECT":" ","MAREA":" ","LANE":"７５巷","ALLEY":" ","HOUSE_NO":"４號","E_COORD97":179837.97,"N_COORD97":2578116.1000000001,"ADDRESS":"博愛街７５巷４號","OBJECTID":270286},"geometry":{"x":179837.97000000067,"y":2578116.0999999996}},{"attributes":{"ID":270292,"DIS_CODE":0,"TOWNNAME":"安平區","LI":"建平里","LIN":"3鄰","STREET":"建平十七街","SECT":" ","MAREA":" ","LANE":" ","ALLEY":" ","HOUSE_NO":"４９號","E_COORD97":166138.78,"N_COORD97":2544221.4500000002,"ADDRESS":"建平十七街４９號","OBJECTID":270287},"geometry":{"x":166138.78000000119,"y":2544221.4500000011}},{"attributes":{"ID":270293,"DIS_CODE":0,"TOWNNAME":"新營區","LI":"忠政里","LIN":"8鄰","STREET":"中正路","SECT":" ","MAREA":" ","LANE":"３７巷","ALLEY":" ","HOUSE_NO":"９８號","E_COORD97":179964.78,"N_COORD97":2579167.5899999999,"ADDRESS":"中正路３７巷９８號","OBJECTID":270288},"geometry":{"x":179964.78000000119,"y":2579167.5899999999}},{"attributes":{"ID":270294,"DIS_CODE":0,"TOWNNAME":"南區","LI":"永寧里","LIN":"8鄰","STREET":"灣裡路","SECT":" ","MAREA":" ","LANE":"８８巷","ALLEY":" ","HOUSE_NO":"２１３號之２","E_COORD97":165954.32000000001,"N_COORD97":2536438.9199999999,"ADDRESS":"灣裡路８８巷２１３號之２","OBJECTID":270289},"geometry":{"x":165954.3200000003,"y":2536438.9199999999}},{"attributes":{"ID":270295,"DIS_CODE":0,"TOWNNAME":"安平區","LI":"建平里","LIN":"3鄰","STREET":"建平十七街","SECT":" ","MAREA":" ","LANE":" ","ALLEY":" ","HOUSE_NO":"５１號","E_COORD97":166133.34,"N_COORD97":2544221.8599999999,"ADDRESS":"建平十七街５１號","OBJECTID":270290},"geometry":{"x":166133.34000000078,"y":2544221.8600000013}},{"attributes":{"ID":270296,"DIS_CODE":0,"TOWNNAME":"安平區","LI":"建平里","LIN":"3鄰","STREET":"建平十七街","SECT":" ","MAREA":" ","LANE":" ","ALLEY":" ","HOUSE_NO":"５３號","E_COORD97":166126.84,"N_COORD97":2544222.3500000001,"ADDRESS":"建平十七街５３號","OBJECTID":270291},"geometry":{"x":166126.83999999985,"y":2544222.3500000015}},{"attributes":{"ID":270297,"DIS_CODE":0,"TOWNNAME":"永康區","LI":"龍潭里","LIN":"3鄰","STREET":"龍國街","SECT":" ","MAREA":" ","LANE":" ","ALLEY":" ","HOUSE_NO":"２７３號","E_COORD97":174601.09,"N_COORD97":2548042.8399999999,"ADDRESS":"龍國街２７３號","OBJECTID":270292},"geometry":{"x":174601.08999999985,"y":2548042.8400000036}},{"attributes":{"ID":270298,"DIS_CODE":0,"TOWNNAME":"南區","LI":"永寧里","LIN":"8鄰","STREET":"灣裡路","SECT":" ","MAREA":" ","LANE":"８８巷","ALLEY":" ","HOUSE_NO":"２１５號","E_COORD97":165960.42999999999,"N_COORD97":2536438.6000000001,"ADDRESS":"灣裡路８８巷２１５號","OBJECTID":270293},"geometry":{"x":165960.42999999877,"y":2536438.5999999996}},{"attributes":{"ID":270299,"DIS_CODE":0,"TOWNNAME":"南區","LI":"永寧里","LIN":"8鄰","STREET":"灣裡路","SECT":" ","MAREA":" ","LANE":"８８巷","ALLEY":" ","HOUSE_NO":"２１７號","E_COORD97":165963.66,"N_COORD97":2536443.75,"ADDRESS":"灣裡路８８巷２１７號","OBJECTID":270294},"geometry":{"x":165963.66000000108,"y":2536443.75}},{"attributes":{"ID":270300,"DIS_CODE":0,"TOWNNAME":"南區","LI":"永寧里","LIN":"8鄰","STREET":"灣裡路","SECT":" ","MAREA":" ","LANE":"２８２巷","ALLEY":" ","HOUSE_NO":"２０號","E_COORD97":166039.56,"N_COORD97":2536403.3799999999,"ADDRESS":"灣裡路２８２巷２０號","OBJECTID":270295},"geometry":{"x":166039.56000000052,"y":2536403.3800000008}},{"attributes":{"ID":270301,"DIS_CODE":0,"TOWNNAME":"南區","LI":"鯤鯓里","LIN":"8鄰","STREET":"鯤鯓路","SECT":" ","MAREA":" ","LANE":"１０４巷","ALLEY":" ","HOUSE_NO":"３５號","E_COORD97":164956.57000000001,"N_COORD97":2540056.5299999998,"ADDRESS":"鯤鯓路１０４巷３５號","OBJECTID":270296},"geometry":{"x":164956.56999999937,"y":2540056.5300000031}},{"attributes":{"ID":270302,"DIS_CODE":0,"TOWNNAME":"南區","LI":"鯤鯓里","LIN":"8鄰","STREET":"鯤鯓路","SECT":" ","MAREA":" ","LANE":"１０４巷","ALLEY":" ","HOUSE_NO":"３７號","E_COORD97":164960.75,"N_COORD97":2540075.02,"ADDRESS":"鯤鯓路１０４巷３７號","OBJECTID":270297},"geometry":{"x":164960.75000000093,"y":2540075.0200000014}},{"attributes":{"ID":270303,"DIS_CODE":0,"TOWNNAME":"永康區","LI":"網寮里","LIN":"3鄰","STREET":"永和街","SECT":" ","MAREA":" ","LANE":" ","ALLEY":" ","HOUSE_NO":"２２３號","E_COORD97":173408.28,"N_COORD97":2546547.2799999998,"ADDRESS":"永和街２２３號","OBJECTID":270298},"geometry":{"x":173408.28000000119,"y":2546547.2799999975}},{"attributes":{"ID":270304,"DIS_CODE":0,"TOWNNAME":"永康區","LI":"北灣里","LIN":"3鄰","STREET":"文賢街","SECT":" ","MAREA":" ","LANE":" ","ALLEY":" ","HOUSE_NO":"１３８號","E_COORD97":175387.69,"N_COORD97":2545575.6200000001,"ADDRESS":"文賢街１３８號","OBJECTID":270299},"geometry":{"x":175387.69000000041,"y":2545575.6200000029}},{"attributes":{"ID":270305,"DIS_CODE":0,"TOWNNAME":"永康區","LI":"王行里","LIN":"1鄰","STREET":"王行路","SECT":" ","MAREA":" ","LANE":" ","ALLEY":" ","HOUSE_NO":"１６號之１","E_COORD97":175676.04000000001,"N_COORD97":2547982.1800000002,"ADDRESS":"王行路１６號之１","OBJECTID":270300},"geometry":{"x":175676.04000000097,"y":2547982.1799999997}},{"attributes":{"ID":270306,"DIS_CODE":0,"TOWNNAME":"永康區","LI":"六合里","LIN":"9鄰","STREET":"新興街","SECT":" ","MAREA":" ","LANE":" ","ALLEY":" ","HOUSE_NO":"７８號之１","E_COORD97":171163.67000000001,"N_COORD97":2545834.9700000002,"ADDRESS":"新興街７８號之１","OBJECTID":270301},"geometry":{"x":171163.67000000086,"y":2545834.9700000007}},{"attributes":{"ID":270307,"DIS_CODE":0,"TOWNNAME":"南化區","LI":"北平里","LIN":"3鄰","STREET":" ","SECT":" ","MAREA":"北平","LANE":" ","ALLEY":" ","HOUSE_NO":"３２之３號","E_COORD97":196140.76000000001,"N_COORD97":2552028.6899999999,"ADDRESS":"北平３２之３號","OBJECTID":270302},"geometry":{"x":196140.75999999978,"y":2552028.6900000013}},{"attributes":{"ID":270308,"DIS_CODE":0,"TOWNNAME":"北區","LI":"仁愛里","LIN":"8鄰","STREET":"東豐路","SECT":" ","MAREA":" ","LANE":"２２７巷","ALLEY":" ","HOUSE_NO":"１１號","E_COORD97":170089.35999999999,"N_COORD97":2544909.02,"ADDRESS":"東豐路２２７巷１１號","OBJECTID":270303},"geometry":{"x":170089.3599999994,"y":2544909.0200000014}},{"attributes":{"ID":270309,"DIS_CODE":0,"TOWNNAME":"北區","LI":"仁愛里","LIN":"8鄰","STREET":"東豐路","SECT":" ","MAREA":" ","LANE":"２２７巷","ALLEY":" ","HOUSE_NO":"１３號","E_COORD97":170087.85999999999,"N_COORD97":2544913.3300000001,"ADDRESS":"東豐路２２７巷１３號","OBJECTID":270304},"geometry":{"x":170087.8600000022,"y":2544913.3300000001}},{"attributes":{"ID":270310,"DIS_CODE":0,"TOWNNAME":"北區","LI":"仁愛里","LIN":"8鄰","STREET":"東豐路","SECT":" ","MAREA":" ","LANE":"２２７巷","ALLEY":" ","HOUSE_NO":"１５號","E_COORD97":170086.54999999999,"N_COORD97":2544917.7599999998,"ADDRESS":"東豐路２２７巷１５號","OBJECTID":270305},"geometry":{"x":170086.55000000075,"y":2544917.7600000016}},{"attributes":{"ID":270311,"DIS_CODE":0,"TOWNNAME":"北區","LI":"仁愛里","LIN":"8鄰","STREET":"東豐路","SECT":" ","MAREA":" ","LANE":"２２７巷","ALLEY":" ","HOUSE_NO":"１７號","E_COORD97":170085.75,"N_COORD97":2544922.27,"ADDRESS":"東豐路２２７巷１７號","OBJECTID":270306},"geometry":{"x":170085.75,"y":2544922.2699999996}},{"attributes":{"ID":270312,"DIS_CODE":0,"TOWNNAME":"北區","LI":"仁愛里","LIN":"8鄰","STREET":"東豐路","SECT":" ","MAREA":" ","LANE":"２２７巷","ALLEY":" ","HOUSE_NO":"１９號","E_COORD97":170083.94,"N_COORD97":2544926.6800000002,"ADDRESS":"東豐路２２７巷１９號","OBJECTID":270307},"geometry":{"x":170083.94000000227,"y":2544926.6799999997}},{"attributes":{"ID":270313,"DIS_CODE":0,"TOWNNAME":"永康區","LI":"龍潭里","LIN":"3鄰","STREET":"龍國街","SECT":" ","MAREA":" ","LANE":" ","ALLEY":" ","HOUSE_NO":"２７１號","E_COORD97":174595.04999999999,"N_COORD97":2548044.8900000001,"ADDRESS":"龍國街２７１號","OBJECTID":270308},"geometry":{"x":174595.04999999888,"y":2548044.8900000025}},{"attributes":{"ID":270314,"DIS_CODE":0,"TOWNNAME":"北區","LI":"仁愛里","LIN":"8鄰","STREET":"東豐路","SECT":" ","MAREA":" ","LANE":"２２７巷","ALLEY":" ","HOUSE_NO":"１號","E_COORD97":170097.69,"N_COORD97":2544887.6699999999,"ADDRESS":"東豐路２２７巷１號","OBJECTID":270309},"geometry":{"x":170097.69000000134,"y":2544887.6700000037}},{"attributes":{"ID":270315,"DIS_CODE":0,"TOWNNAME":"北區","LI":"仁愛里","LIN":"8鄰","STREET":"東豐路","SECT":" ","MAREA":" ","LANE":"２２７巷","ALLEY":" ","HOUSE_NO":"２１號","E_COORD97":170083.84,"N_COORD97":2544930.6899999999,"ADDRESS":"東豐路２２７巷２１號","OBJECTID":270310},"geometry":{"x":170083.83999999985,"y":2544930.6899999995}},{"attributes":{"ID":270316,"DIS_CODE":0,"TOWNNAME":"永康區","LI":"甲頂里","LIN":"3鄰","STREET":"中華路","SECT":" ","MAREA":" ","LANE":" ","ALLEY":" ","HOUSE_NO":"１０１４號","E_COORD97":169500.34,"N_COORD97":2547079.3199999998,"ADDRESS":"中華路１０１４號","OBJECTID":270311},"geometry":{"x":169500.33999999985,"y":2547079.3200000003}},{"attributes":{"ID":270317,"DIS_CODE":0,"TOWNNAME":"新營區","LI":"中營里","LIN":"3鄰","STREET":"中山路","SECT":" ","MAREA":" ","LANE":" ","ALLEY":" ","HOUSE_NO":"６０之３號","E_COORD97":180450.13,"N_COORD97":2578346.2799999998,"ADDRESS":"中山路６０之３號","OBJECTID":270312},"geometry":{"x":180450.13000000082,"y":2578346.2800000012}},{"attributes":{"ID":270318,"DIS_CODE":0,"TOWNNAME":"永康區","LI":"正強里","LIN":"25鄰","STREET":"中正路","SECT":" ","MAREA":" ","LANE":" ","ALLEY":" ","HOUSE_NO":"１３１號","E_COORD97":173347.39999999999,"N_COORD97":2547876,"ADDRESS":"中正路１３１號","OBJECTID":270313},"geometry":{"x":173347.40000000224,"y":2547876.0000000019}},{"attributes":{"ID":270319,"DIS_CODE":0,"TOWNNAME":"歸仁區","LI":"崙頂里","LIN":"3鄰","STREET":"成功八街","SECT":" ","MAREA":" ","LANE":" ","ALLEY":" ","HOUSE_NO":"１０６號","E_COORD97":178119.76999999999,"N_COORD97":2540027.9300000002,"ADDRESS":"成功八街１０６號","OBJECTID":270314},"geometry":{"x":178119.77000000048,"y":2540027.9300000016}},{"attributes":{"ID":270320,"DIS_CODE":0,"TOWNNAME":"北區","LI":"仁愛里","LIN":"8鄰","STREET":"東豐路","SECT":" ","MAREA":" ","LANE":"２２７巷","ALLEY":" ","HOUSE_NO":"２３號","E_COORD97":170082.64000000001,"N_COORD97":2544935.5099999998,"ADDRESS":"東豐路２２７巷２３號","OBJECTID":270315},"geometry":{"x":170082.6400000006,"y":2544935.5099999998}},{"attributes":{"ID":270321,"DIS_CODE":0,"TOWNNAME":"北區","LI":"仁愛里","LIN":"8鄰","STREET":"東豐路","SECT":" ","MAREA":" ","LANE":"２２７巷","ALLEY":" ","HOUSE_NO":"２５號","E_COORD97":170082.44,"N_COORD97":2544939.21,"ADDRESS":"東豐路２２７巷２５號","OBJECTID":270316},"geometry":{"x":170082.44000000134,"y":2544939.2100000046}},{"attributes":{"ID":270322,"DIS_CODE":0,"TOWNNAME":"北區","LI":"仁愛里","LIN":"8鄰","STREET":"東豐路","SECT":" ","MAREA":" ","LANE":"２２７巷","ALLEY":" ","HOUSE_NO":"２７號","E_COORD97":170080.82999999999,"N_COORD97":2544944.3300000001,"ADDRESS":"東豐路２２７巷２７號","OBJECTID":270317},"geometry":{"x":170080.82999999914,"y":2544944.3300000038}},{"attributes":{"ID":270323,"DIS_CODE":0,"TOWNNAME":"北區","LI":"仁愛里","LIN":"8鄰","STREET":"東豐路","SECT":" ","MAREA":" ","LANE":"２２７巷","ALLEY":" ","HOUSE_NO":"２９號","E_COORD97":170079.82999999999,"N_COORD97":2544948.1400000001,"ADDRESS":"東豐路２２７巷２９號","OBJECTID":270318},"geometry":{"x":170079.83000000101,"y":2544948.1400000006}},{"attributes":{"ID":270324,"DIS_CODE":0,"TOWNNAME":"北區","LI":"仁愛里","LIN":"8鄰","STREET":"東豐路","SECT":" ","MAREA":" ","LANE":"２２７巷","ALLEY":" ","HOUSE_NO":"３１號","E_COORD97":170078.92999999999,"N_COORD97":2544953.25,"ADDRESS":"東豐路２２７巷３１號","OBJECTID":270319},"geometry":{"x":170078.93000000063,"y":2544953.25}},{"attributes":{"ID":270325,"DIS_CODE":0,"TOWNNAME":"北區","LI":"仁愛里","LIN":"8鄰","STREET":"東豐路","SECT":" ","MAREA":" ","LANE":"２２７巷","ALLEY":" ","HOUSE_NO":"３３號","E_COORD97":170077.62,"N_COORD97":2544957.2599999998,"ADDRESS":"東豐路２２７巷３３號","OBJECTID":270320},"geometry":{"x":170077.62000000104,"y":2544957.2599999998}},{"attributes":{"ID":270326,"DIS_CODE":0,"TOWNNAME":"北區","LI":"文元里","LIN":"8鄰","STREET":"中華北路","SECT":"二段","MAREA":" ","LANE":"５３巷","ALLEY":" ","HOUSE_NO":"１１號","E_COORD97":167582.54000000001,"N_COORD97":2546565.96,"ADDRESS":"中華北路二段５３巷１１號","OBJECTID":270321},"geometry":{"x":167582.5400000019,"y":2546565.9600000028}},{"attributes":{"ID":270327,"DIS_CODE":0,"TOWNNAME":"北區","LI":"文元里","LIN":"8鄰","STREET":"中華北路","SECT":"二段","MAREA":" ","LANE":"５３巷","ALLEY":" ","HOUSE_NO":"１３號","E_COORD97":167583.85000000001,"N_COORD97":2546562.0299999998,"ADDRESS":"中華北路二段５３巷１３號","OBJECTID":270322},"geometry":{"x":167583.85000000056,"y":2546562.0299999993}},{"attributes":{"ID":270328,"DIS_CODE":0,"TOWNNAME":"北區","LI":"文元里","LIN":"8鄰","STREET":"中華北路","SECT":"二段","MAREA":" ","LANE":"５３巷","ALLEY":" ","HOUSE_NO":"１５號","E_COORD97":167584.51000000001,"N_COORD97":2546557.6600000001,"ADDRESS":"中華北路二段５３巷１５號","OBJECTID":270323},"geometry":{"x":167584.51000000071,"y":2546557.6600000001}},{"attributes":{"ID":270329,"DIS_CODE":0,"TOWNNAME":"歸仁區","LI":"崙頂里","LIN":"3鄰","STREET":"成功八街","SECT":" ","MAREA":" ","LANE":" ","ALLEY":" ","HOUSE_NO":"８２號","E_COORD97":178132.91,"N_COORD97":2539968.4500000002,"ADDRESS":"成功八街８２號","OBJECTID":270324},"geometry":{"x":178132.91000000108,"y":2539968.4499999993}},{"attributes":{"ID":270330,"DIS_CODE":0,"TOWNNAME":"山上區","LI":"明和里","LIN":"3鄰","STREET":" ","SECT":" ","MAREA":"明和","LANE":" ","ALLEY":" ","HOUSE_NO":"１０３號","E_COORD97":183138.5,"N_COORD97":2556294.6800000002,"ADDRESS":"明和１０３號","OBJECTID":270325},"geometry":{"x":183138.50000000093,"y":2556294.6799999997}},{"attributes":{"ID":270331,"DIS_CODE":0,"TOWNNAME":"山上區","LI":"明和里","LIN":"3鄰","STREET":" ","SECT":" ","MAREA":"明和","LANE":" ","ALLEY":" ","HOUSE_NO":"１２５號之１","E_COORD97":183181.67000000001,"N_COORD97":2556239.6000000001,"ADDRESS":"明和１２５之１號","OBJECTID":270326},"geometry":{"x":183181.66999999993,"y":2556239.6000000015}},{"attributes":{"ID":270332,"DIS_CODE":0,"TOWNNAME":"山上區","LI":"明和里","LIN":"3鄰","STREET":" ","SECT":" ","MAREA":"明和","LANE":" ","ALLEY":" ","HOUSE_NO":"１２６號","E_COORD97":183141.85000000001,"N_COORD97":2556262.46,"ADDRESS":"明和１２６號","OBJECTID":270327},"geometry":{"x":183141.85000000149,"y":2556262.4600000028}},{"attributes":{"ID":270333,"DIS_CODE":0,"TOWNNAME":"將軍區","LI":"三吉里","LIN":"3鄰","STREET":" ","SECT":" ","MAREA":"三吉","LANE":" ","ALLEY":" ","HOUSE_NO":"１５號","E_COORD97":161344.29000000001,"N_COORD97":2567512.54,"ADDRESS":"三吉１５號","OBJECTID":270328},"geometry":{"x":161344.2900000019,"y":2567512.540000001}},{"attributes":{"ID":270334,"DIS_CODE":0,"TOWNNAME":"將軍區","LI":"三吉里","LIN":"3鄰","STREET":" ","SECT":" ","MAREA":"三吉","LANE":" ","ALLEY":" ","HOUSE_NO":"１７號","E_COORD97":161315.47,"N_COORD97":2567516.3500000001,"ADDRESS":"三吉１７號","OBJECTID":270329},"geometry":{"x":161315.4700000016,"y":2567516.3499999996}},{"attributes":{"ID":270335,"DIS_CODE":0,"TOWNNAME":"永康區","LI":"甲頂里","LIN":"3鄰","STREET":"中華路","SECT":" ","MAREA":" ","LANE":" ","ALLEY":" ","HOUSE_NO":"１０１６號","E_COORD97":169495.60999999999,"N_COORD97":2547078.1400000001,"ADDRESS":"中華路１０１６號","OBJECTID":270330},"geometry":{"x":169495.61000000034,"y":2547078.1400000006}},{"attributes":{"ID":270336,"DIS_CODE":0,"TOWNNAME":"永康區","LI":"甲頂里","LIN":"3鄰","STREET":"中華路","SECT":" ","MAREA":" ","LANE":" ","ALLEY":" ","HOUSE_NO":"１０１８號","E_COORD97":169491.57999999999,"N_COORD97":2547078.3500000001,"ADDRESS":"中華路１０１８號","OBJECTID":270331},"geometry":{"x":169491.58000000101,"y":2547078.3499999996}},{"attributes":{"ID":270337,"DIS_CODE":0,"TOWNNAME":"永康區","LI":"甲頂里","LIN":"3鄰","STREET":"中華路","SECT":" ","MAREA":" ","LANE":" ","ALLEY":" ","HOUSE_NO":"１０２０號","E_COORD97":169488.82999999999,"N_COORD97":2547077.9300000002,"ADDRESS":"中華路１０２０號","OBJECTID":270332},"geometry":{"x":169488.83000000007,"y":2547077.9299999997}},{"attributes":{"ID":270338,"DIS_CODE":0,"TOWNNAME":"安定區","LI":"港尾里","LIN":"3鄰","STREET":" ","SECT":" ","MAREA":"港子尾","LANE":" ","ALLEY":" ","HOUSE_NO":"６之５號","E_COORD97":171543.42000000001,"N_COORD97":2556173.8900000001,"ADDRESS":"港子尾６之５號","OBJECTID":270333},"geometry":{"x":171543.42000000086,"y":2556173.8900000025}},{"attributes":{"ID":270339,"DIS_CODE":0,"TOWNNAME":"關廟區","LI":"下湖里","LIN":"3鄰","STREET":"關新路","SECT":"一段","MAREA":" ","LANE":" ","ALLEY":" ","HOUSE_NO":"４５６號","E_COORD97":179282.23999999999,"N_COORD97":2543035.2999999998,"ADDRESS":"關新路一段４５６號","OBJECTID":270334},"geometry":{"x":179282.24000000115,"y":2543035.3000000007}},{"attributes":{"ID":270340,"DIS_CODE":0,"TOWNNAME":"關廟區","LI":"布袋里","LIN":"3鄰","STREET":"長文街","SECT":" ","MAREA":" ","LANE":" ","ALLEY":" ","HOUSE_NO":"６號","E_COORD97":183089.69,"N_COORD97":2535545.2999999998,"ADDRESS":"長文街６號","OBJECTID":270335},"geometry":{"x":183089.69000000134,"y":2535545.3000000026}},{"attributes":{"ID":270341,"DIS_CODE":0,"TOWNNAME":"關廟區","LI":"布袋里","LIN":"3鄰","STREET":"長文街","SECT":" ","MAREA":" ","LANE":" ","ALLEY":" ","HOUSE_NO":"１２號","E_COORD97":183077.09,"N_COORD97":2535537.2999999998,"ADDRESS":"長文街１２號","OBJECTID":270336},"geometry":{"x":183077.08999999985,"y":2535537.3000000026}},{"attributes":{"ID":270342,"DIS_CODE":0,"TOWNNAME":"後壁區","LI":"嘉田里","LIN":"3鄰","STREET":" ","SECT":" ","MAREA":"上茄苳","LANE":" ","ALLEY":" ","HOUSE_NO":"２５號","E_COORD97":186748.01999999999,"N_COORD97":2587266.8100000001,"ADDRESS":"上茄苳２５號","OBJECTID":270337},"geometry":{"x":186748.02000000142,"y":2587266.8099999987}},{"attributes":{"ID":270343,"DIS_CODE":0,"TOWNNAME":"新市區","LI":"永就里","LIN":"3鄰","STREET":" ","SECT":" ","MAREA":"永就","LANE":" ","ALLEY":" ","HOUSE_NO":"３７之１號","E_COORD97":178501.82000000001,"N_COORD97":2551417.0499999998,"ADDRESS":"永就３７之１號","OBJECTID":270338},"geometry":{"x":178501.82000000123,"y":2551417.0500000026}},{"attributes":{"ID":270344,"DIS_CODE":0,"TOWNNAME":"楠西區","LI":"照興里","LIN":"3鄰","STREET":" ","SECT":" ","MAREA":"興北","LANE":" ","ALLEY":" ","HOUSE_NO":"３０號","E_COORD97":195542.67000000001,"N_COORD97":2563265.25,"ADDRESS":"興北３０號","OBJECTID":270339},"geometry":{"x":195542.67000000086,"y":2563265.25}},{"attributes":{"ID":270345,"DIS_CODE":0,"TOWNNAME":"關廟區","LI":"布袋里","LIN":"3鄰","STREET":"長文街","SECT":" ","MAREA":" ","LANE":" ","ALLEY":" ","HOUSE_NO":"２８號","E_COORD97":182827.04000000001,"N_COORD97":2535564.2999999998,"ADDRESS":"長文街２８號","OBJECTID":270340},"geometry":{"x":182827.04000000004,"y":2535564.3000000026}},{"attributes":{"ID":270346,"DIS_CODE":0,"TOWNNAME":"北區","LI":"文元里","LIN":"8鄰","STREET":"中華北路","SECT":"二段","MAREA":" ","LANE":"５３巷","ALLEY":" ","HOUSE_NO":"１７號","E_COORD97":167585.16,"N_COORD97":2546553.9500000002,"ADDRESS":"中華北路二段５３巷１７號","OBJECTID":270341},"geometry":{"x":167585.16000000201,"y":2546553.9500000011}},{"attributes":{"ID":270347,"DIS_CODE":0,"TOWNNAME":"北區","LI":"文元里","LIN":"8鄰","STREET":"中華北路","SECT":"二段","MAREA":" ","LANE":"５３巷","ALLEY":" ","HOUSE_NO":"１９號","E_COORD97":167585.82000000001,"N_COORD97":2546550.02,"ADDRESS":"中華北路二段５３巷１９號","OBJECTID":270342},"geometry":{"x":167585.81999999937,"y":2546550.0200000014}},{"attributes":{"ID":270348,"DIS_CODE":0,"TOWNNAME":"北區","LI":"文元里","LIN":"8鄰","STREET":"中華北路","SECT":"二段","MAREA":" ","LANE":"５３巷","ALLEY":" ","HOUSE_NO":"２１號","E_COORD97":167586.26000000001,"N_COORD97":2546545.2200000002,"ADDRESS":"中華北路二段５３巷２１號","OBJECTID":270343},"geometry":{"x":167586.26000000071,"y":2546545.2200000007}},{"attributes":{"ID":270349,"DIS_CODE":0,"TOWNNAME":"北區","LI":"文元里","LIN":"8鄰","STREET":"中華北路","SECT":"二段","MAREA":" ","LANE":"５３巷","ALLEY":" ","HOUSE_NO":"２３號","E_COORD97":167587.35000000001,"N_COORD97":2546541.5,"ADDRESS":"中華北路二段５３巷２３號","OBJECTID":270344},"geometry":{"x":167587.35000000056,"y":2546541.5000000019}},{"attributes":{"ID":270350,"DIS_CODE":0,"TOWNNAME":"關廟區","LI":"深坑里","LIN":"3鄰","STREET":"南雄路","SECT":"一段","MAREA":" ","LANE":" ","ALLEY":" ","HOUSE_NO":"４０７號","E_COORD97":181760.51999999999,"N_COORD97":2537571.2999999998,"ADDRESS":"南雄路一段４０７號","OBJECTID":270345},"geometry":{"x":181760.51999999862,"y":2537571.3000000045}},{"attributes":{"ID":270351,"DIS_CODE":0,"TOWNNAME":"關廟區","LI":"布袋里","LIN":"3鄰","STREET":" ","SECT":" ","MAREA":"布袋","LANE":" ","ALLEY":" ","HOUSE_NO":"１４５號","E_COORD97":182968.98999999999,"N_COORD97":2535904.25,"ADDRESS":"布袋１４５號","OBJECTID":270346},"geometry":{"x":182968.99000000115,"y":2535904.2500000019}},{"attributes":{"ID":270352,"DIS_CODE":0,"TOWNNAME":"北區","LI":"重興里","LIN":"1鄰","STREET":"林森路","SECT":"三段","MAREA":" ","LANE":"７５巷","ALLEY":" ","HOUSE_NO":"５號","E_COORD97":170484.57000000001,"N_COORD97":2544816.3599999999,"ADDRESS":"林森路三段７５巷５號","OBJECTID":270347},"geometry":{"x":170484.56999999937,"y":2544816.3599999994}},{"attributes":{"ID":270353,"DIS_CODE":0,"TOWNNAME":"北區","LI":"文元里","LIN":"8鄰","STREET":"中華北路","SECT":"二段","MAREA":" ","LANE":"５３巷","ALLEY":" ","HOUSE_NO":"３號","E_COORD97":167579.25,"N_COORD97":2546582.0099999998,"ADDRESS":"中華北路二段５３巷３號","OBJECTID":270348},"geometry":{"x":167579.25000000186,"y":2546582.0099999998}},{"attributes":{"ID":270354,"DIS_CODE":0,"TOWNNAME":"永康區","LI":"北灣里","LIN":"39鄰","STREET":"大同街","SECT":" ","MAREA":" ","LANE":" ","ALLEY":" ","HOUSE_NO":"６４８號","E_COORD97":174627.32999999999,"N_COORD97":2546354.2000000002,"ADDRESS":"大同街６４８號","OBJECTID":270349},"geometry":{"x":174627.32999999914,"y":2546354.1999999993}},{"attributes":{"ID":270355,"DIS_CODE":0,"TOWNNAME":"善化區","LI":"文昌里","LIN":"13鄰","STREET":"文昌路","SECT":" ","MAREA":" ","LANE":" ","ALLEY":" ","HOUSE_NO":"２４號","E_COORD97":177488.69,"N_COORD97":2558809.0299999998,"ADDRESS":"文昌路２４號","OBJECTID":270350},"geometry":{"x":177488.69000000134,"y":2558809.0300000031}},{"attributes":{"ID":270356,"DIS_CODE":0,"TOWNNAME":"關廟區","LI":"布袋里","LIN":"3鄰","STREET":"長文街","SECT":" ","MAREA":" ","LANE":"６２巷","ALLEY":" ","HOUSE_NO":"２號","E_COORD97":182989.89000000001,"N_COORD97":2535515.2999999998,"ADDRESS":"長文街６２２號","OBJECTID":270351},"geometry":{"x":182989.88999999966,"y":2535515.3000000007}},{"attributes":{"ID":270357,"DIS_CODE":0,"TOWNNAME":"關廟區","LI":"布袋里","LIN":"3鄰","STREET":"長文街","SECT":" ","MAREA":" ","LANE":" ","ALLEY":" ","HOUSE_NO":"９０號","E_COORD97":182936.44,"N_COORD97":2535471.2999999998,"ADDRESS":"長文街９０號","OBJECTID":270352},"geometry":{"x":182936.44000000041,"y":2535471.3000000007}},{"attributes":{"ID":270358,"DIS_CODE":0,"TOWNNAME":"北區","LI":"文元里","LIN":"8鄰","STREET":"中華北路","SECT":"二段","MAREA":" ","LANE":"５３巷","ALLEY":" ","HOUSE_NO":"５號","E_COORD97":167580.45000000001,"N_COORD97":2546578.4199999999,"ADDRESS":"中華北路二段５３巷５號","OBJECTID":270353},"geometry":{"x":167580.45000000112,"y":2546578.4200000018}},{"attributes":{"ID":270359,"DIS_CODE":0,"TOWNNAME":"北區","LI":"文元里","LIN":"8鄰","STREET":"中華北路","SECT":"二段","MAREA":" ","LANE":"５３巷","ALLEY":" ","HOUSE_NO":"７號","E_COORD97":167581.41,"N_COORD97":2546573.8700000001,"ADDRESS":"中華北路二段５３巷７號","OBJECTID":270354},"geometry":{"x":167581.41000000015,"y":2546573.8700000029}},{"attributes":{"ID":270360,"DIS_CODE":0,"TOWNNAME":"北區","LI":"文元里","LIN":"8鄰","STREET":"中華北路","SECT":"二段","MAREA":" ","LANE":"５３巷","ALLEY":" ","HOUSE_NO":"９號","E_COORD97":167582.13,"N_COORD97":2546569.8100000001,"ADDRESS":"中華北路二段５３巷９號","OBJECTID":270355},"geometry":{"x":167582.13000000082,"y":2546569.8100000024}},{"attributes":{"ID":270361,"DIS_CODE":0,"TOWNNAME":"北區","LI":"成德里","LIN":"8鄰","STREET":"西門路","SECT":"四段","MAREA":" ","LANE":"６５巷","ALLEY":" ","HOUSE_NO":"１２０號","E_COORD97":168433.98999999999,"N_COORD97":2545499.48,"ADDRESS":"西門路四段６５巷１２０號","OBJECTID":270356},"geometry":{"x":168433.99000000209,"y":2545499.4799999986}},{"attributes":{"ID":270362,"DIS_CODE":0,"TOWNNAME":"關廟區","LI":"深坑里","LIN":"3鄰","STREET":"南雄路","SECT":"一段","MAREA":" ","LANE":" ","ALLEY":" ","HOUSE_NO":"４０１號","E_COORD97":181767.01999999999,"N_COORD97":2537561.2999999998,"ADDRESS":"南雄路一段４０１號","OBJECTID":270357},"geometry":{"x":181767.01999999955,"y":2537561.3000000026}},{"attributes":{"ID":270363,"DIS_CODE":0,"TOWNNAME":"北區","LI":"成德里","LIN":"8鄰","STREET":"西門路","SECT":"四段","MAREA":" ","LANE":"６５巷","ALLEY":" ","HOUSE_NO":"１２２號","E_COORD97":168429.39000000001,"N_COORD97":2545502.3300000001,"ADDRESS":"西門路四段６５巷１２２號","OBJECTID":270358},"geometry":{"x":168429.3900000006,"y":2545502.3300000001}},{"attributes":{"ID":270364,"DIS_CODE":0,"TOWNNAME":"新市區","LI":"港墘里","LIN":"3鄰","STREET":"三民街","SECT":" ","MAREA":" ","LANE":" ","ALLEY":" ","HOUSE_NO":"３０之１號","E_COORD97":178522.32000000001,"N_COORD97":2553381.0499999998,"ADDRESS":"三民街３０之１號","OBJECTID":270359},"geometry":{"x":178522.32000000123,"y":2553381.0500000007}},{"attributes":{"ID":270365,"DIS_CODE":0,"TOWNNAME":"永康區","LI":"正強里","LIN":"39鄰","STREET":"中正路","SECT":" ","MAREA":" ","LANE":" ","ALLEY":" ","HOUSE_NO":"２３４號","E_COORD97":173249.60000000001,"N_COORD97":2547909.7400000002,"ADDRESS":"中正路２３４號","OBJECTID":270360},"geometry":{"x":173249.59999999963,"y":2547909.7400000021}},{"attributes":{"ID":270366,"DIS_CODE":0,"TOWNNAME":"新市區","LI":"三舍里","LIN":"3鄰","STREET":" ","SECT":" ","MAREA":"三舍","LANE":" ","ALLEY":" ","HOUSE_NO":"６３之５號","E_COORD97":177923.53,"N_COORD97":2554415.7999999998,"ADDRESS":"三舍６３之５號","OBJECTID":270361},"geometry":{"x":177923.53000000212,"y":2554415.8000000026}},{"attributes":{"ID":270367,"DIS_CODE":0,"TOWNNAME":"新市區","LI":"三舍里","LIN":"3鄰","STREET":" ","SECT":" ","MAREA":"三舍","LANE":" ","ALLEY":" ","HOUSE_NO":"６１之１號","E_COORD97":177881.20999999999,"N_COORD97":2554433.7999999998,"ADDRESS":"三舍６１之１號","OBJECTID":270362},"geometry":{"x":177881.21000000183,"y":2554433.8000000007}},{"attributes":{"ID":270368,"DIS_CODE":0,"TOWNNAME":"新市區","LI":"三舍里","LIN":"3鄰","STREET":" ","SECT":" ","MAREA":"三舍","LANE":" ","ALLEY":" ","HOUSE_NO":"５５之１２號","E_COORD97":177777.76000000001,"N_COORD97":2554383.5499999998,"ADDRESS":"三舍５５之１２號","OBJECTID":270363},"geometry":{"x":177777.76000000071,"y":2554383.5500000026}},{"attributes":{"ID":270369,"DIS_CODE":0,"TOWNNAME":"北區","LI":"成德里","LIN":"8鄰","STREET":"西門路","SECT":"四段","MAREA":" ","LANE":"６５巷","ALLEY":" ","HOUSE_NO":"１２６號","E_COORD97":168423.98999999999,"N_COORD97":2545505.6699999999,"ADDRESS":"西門路四段６５巷１２６號","OBJECTID":270364},"geometry":{"x":168423.99000000115,"y":2545505.6700000018}},{"attributes":{"ID":270370,"DIS_CODE":0,"TOWNNAME":"北區","LI":"成德里","LIN":"8鄰","STREET":"西門路","SECT":"四段","MAREA":" ","LANE":"６５巷","ALLEY":" ","HOUSE_NO":"１２８號","E_COORD97":168418.42999999999,"N_COORD97":2545509,"ADDRESS":"西門路四段６５巷１２８號","OBJECTID":270365},"geometry":{"x":168418.4299999997,"y":2545508.9999999981}},{"attributes":{"ID":270371,"DIS_CODE":0,"TOWNNAME":"北區","LI":"成德里","LIN":"8鄰","STREET":"西門路","SECT":"四段","MAREA":" ","LANE":"６５巷","ALLEY":" ","HOUSE_NO":"１４６號","E_COORD97":168385.57000000001,"N_COORD97":2545526.9399999999,"ADDRESS":"西門路四段６５巷１４６號","OBJECTID":270366},"geometry":{"x":168385.5700000003,"y":2545526.9400000013}},{"attributes":{"ID":270372,"DIS_CODE":0,"TOWNNAME":"北區","LI":"成德里","LIN":"8鄰","STREET":"西門路","SECT":"四段","MAREA":" ","LANE":"６５巷","ALLEY":" ","HOUSE_NO":"１５０號","E_COORD97":168376.67999999999,"N_COORD97":2545531.7799999998,"ADDRESS":"西門路四段６５巷１５０號","OBJECTID":270367},"geometry":{"x":168376.68000000063,"y":2545531.7800000012}},{"attributes":{"ID":270373,"DIS_CODE":0,"TOWNNAME":"北區","LI":"成德里","LIN":"8鄰","STREET":"西門路","SECT":"四段","MAREA":" ","LANE":"６５巷","ALLEY":" ","HOUSE_NO":"１４８號","E_COORD97":168381.44,"N_COORD97":2545529.2400000002,"ADDRESS":"西門路四段６５巷１４８號","OBJECTID":270368},"geometry":{"x":168381.44000000041,"y":2545529.2400000021}},{"attributes":{"ID":270374,"DIS_CODE":0,"TOWNNAME":"北區","LI":"成德里","LIN":"8鄰","STREET":"西門路","SECT":"四段","MAREA":" ","LANE":"６５巷","ALLEY":" ","HOUSE_NO":"１５６號","E_COORD97":168367,"N_COORD97":2545537.8100000001,"ADDRESS":"西門路四段６５巷１５６號","OBJECTID":270369},"geometry":{"x":168367,"y":2545537.8100000005}},{"attributes":{"ID":270375,"DIS_CODE":0,"TOWNNAME":"北區","LI":"成德里","LIN":"8鄰","STREET":"西門路","SECT":"四段","MAREA":" ","LANE":"６５巷","ALLEY":" ","HOUSE_NO":"１５２號","E_COORD97":168372.07999999999,"N_COORD97":2545534.96,"ADDRESS":"西門路四段６５巷１５２號","OBJECTID":270370},"geometry":{"x":168372.07999999914,"y":2545534.9600000028}},{"attributes":{"ID":270376,"DIS_CODE":0,"TOWNNAME":"南區","LI":"明興里","LIN":"8鄰","STREET":"金華路","SECT":"一段","MAREA":" ","LANE":"１４０巷","ALLEY":" ","HOUSE_NO":"１號","E_COORD97":166951.78,"N_COORD97":2540614.7200000002,"ADDRESS":"金華路一段１４０巷１號","OBJECTID":270371},"geometry":{"x":166951.78000000026,"y":2540614.7200000007}},{"attributes":{"ID":270377,"DIS_CODE":0,"TOWNNAME":"永康區","LI":"北灣里","LIN":"39鄰","STREET":"永大路","SECT":"二段","MAREA":" ","LANE":" ","ALLEY":" ","HOUSE_NO":"９７６號","E_COORD97":174473.72,"N_COORD97":2546337.52,"ADDRESS":"永大路二段９７６號","OBJECTID":270372},"geometry":{"x":174473.72000000067,"y":2546337.5200000014}},{"attributes":{"ID":270378,"DIS_CODE":0,"TOWNNAME":"南區","LI":"明興里","LIN":"8鄰","STREET":"金華路","SECT":"一段","MAREA":" ","LANE":"１４０巷","ALLEY":" ","HOUSE_NO":"３２號","E_COORD97":166995.20000000001,"N_COORD97":2540596.4300000002,"ADDRESS":"金華路一段１４０巷３２號","OBJECTID":270373},"geometry":{"x":166995.20000000112,"y":2540596.4299999997}},{"attributes":{"ID":270379,"DIS_CODE":0,"TOWNNAME":"南區","LI":"明興里","LIN":"8鄰","STREET":"金華路","SECT":"一段","MAREA":" ","LANE":"１４０巷","ALLEY":" ","HOUSE_NO":"３號","E_COORD97":166955.51999999999,"N_COORD97":2540614.4700000002,"ADDRESS":"金華路一段１４０巷３號","OBJECTID":270374},"geometry":{"x":166955.52000000048,"y":2540614.4700000044}},{"attributes":{"ID":270380,"DIS_CODE":0,"TOWNNAME":"南區","LI":"明興里","LIN":"8鄰","STREET":"金華路","SECT":"一段","MAREA":" ","LANE":"１４０巷","ALLEY":" ","HOUSE_NO":"５號","E_COORD97":166960.70000000001,"N_COORD97":2540614.1299999999,"ADDRESS":"金華路一段１４０巷５號","OBJECTID":270375},"geometry":{"x":166960.70000000019,"y":2540614.129999999}},{"attributes":{"ID":270381,"DIS_CODE":0,"TOWNNAME":"北區","LI":"長榮里","LIN":"23鄰","STREET":"開元路","SECT":" ","MAREA":" ","LANE":"３３３巷","ALLEY":" ","HOUSE_NO":"５號","E_COORD97":170200.22,"N_COORD97":2545440,"ADDRESS":"開元路３３３巷５號","OBJECTID":270376},"geometry":{"x":170200.22000000067,"y":2545440}},{"attributes":{"ID":270382,"DIS_CODE":0,"TOWNNAME":"東區","LI":"崇德里","LIN":"8鄰","STREET":"崇德七街","SECT":" ","MAREA":" ","LANE":"２０巷","ALLEY":" ","HOUSE_NO":"３２號二樓","E_COORD97":170881.39999999999,"N_COORD97":2541706.0699999998,"ADDRESS":"崇德七街２０巷３２號二樓","OBJECTID":270377},"geometry":{"x":170881.4000000013,"y":2541706.0700000022}},{"attributes":{"ID":270383,"DIS_CODE":0,"TOWNNAME":"善化區","LI":"南關里","LIN":"8鄰","STREET":"光復路","SECT":" ","MAREA":" ","LANE":"４３８巷","ALLEY":" ","HOUSE_NO":"１號四樓之２","E_COORD97":176866.95999999999,"N_COORD97":2558798.25,"ADDRESS":"光復路４３８巷１號四樓之２","OBJECTID":270378},"geometry":{"x":176866.95999999996,"y":2558798.2500000019}},{"attributes":{"ID":270384,"DIS_CODE":0,"TOWNNAME":"東區","LI":"東聖里","LIN":"8鄰","STREET":"富農街","SECT":"二段","MAREA":" ","LANE":"４３巷","ALLEY":" ","HOUSE_NO":"２０號二樓之１","E_COORD97":171618.76000000001,"N_COORD97":2542995.1899999999,"ADDRESS":"富農街二段４３巷２０號二樓之１","OBJECTID":270379},"geometry":{"x":171618.76000000164,"y":2542995.1900000032}},{"attributes":{"ID":270385,"DIS_CODE":0,"TOWNNAME":"東區","LI":"東聖里","LIN":"8鄰","STREET":"富農街","SECT":"二段","MAREA":" ","LANE":"４３巷","ALLEY":" ","HOUSE_NO":"１６號四樓之１","E_COORD97":171619.51000000001,"N_COORD97":2542973.6299999999,"ADDRESS":"富農街二段４３巷１６號四樓之１","OBJECTID":270380},"geometry":{"x":171619.50999999978,"y":2542973.629999999}},{"attributes":{"ID":270386,"DIS_CODE":0,"TOWNNAME":"東區","LI":"東聖里","LIN":"8鄰","STREET":"富農街","SECT":"二段","MAREA":" ","LANE":"４３巷","ALLEY":" ","HOUSE_NO":"１２號五樓之１","E_COORD97":171602.85999999999,"N_COORD97":2542971.3999999999,"ADDRESS":"富農街二段４３巷１２號五樓之１","OBJECTID":270381},"geometry":{"x":171602.86000000034,"y":2542971.4000000022}},{"attributes":{"ID":270387,"DIS_CODE":0,"TOWNNAME":"東區","LI":"東聖里","LIN":"8鄰","STREET":"富農街","SECT":"二段","MAREA":" ","LANE":"４３巷","ALLEY":" ","HOUSE_NO":"１０號三樓之１","E_COORD97":171590.57999999999,"N_COORD97":2542971.5800000001,"ADDRESS":"富農街二段４３巷１０號三樓之１","OBJECTID":270382},"geometry":{"x":171590.58000000007,"y":2542971.5800000001}},{"attributes":{"ID":270388,"DIS_CODE":0,"TOWNNAME":"東區","LI":"東聖里","LIN":"8鄰","STREET":"富農街","SECT":"二段","MAREA":" ","LANE":"４３巷","ALLEY":" ","HOUSE_NO":"１６號三樓之１","E_COORD97":171619.51000000001,"N_COORD97":2542973.6299999999,"ADDRESS":"富農街二段４３巷１６號三樓之１","OBJECTID":270383},"geometry":{"x":171619.50999999978,"y":2542973.629999999}},{"attributes":{"ID":270389,"DIS_CODE":0,"TOWNNAME":"東區","LI":"東聖里","LIN":"8鄰","STREET":"富農街","SECT":"二段","MAREA":" ","LANE":"４３巷","ALLEY":" ","HOUSE_NO":"１６號五樓之１","E_COORD97":171619.51000000001,"N_COORD97":2542973.6299999999,"ADDRESS":"富農街二段４３巷１６號五樓之１","OBJECTID":270384},"geometry":{"x":171619.50999999978,"y":2542973.629999999}},{"attributes":{"ID":270390,"DIS_CODE":0,"TOWNNAME":"東區","LI":"東聖里","LIN":"8鄰","STREET":"富農街","SECT":"二段","MAREA":" ","LANE":"４３巷","ALLEY":" ","HOUSE_NO":"１６號五樓之２","E_COORD97":171619.51000000001,"N_COORD97":2542973.6299999999,"ADDRESS":"富農街二段４３巷１６號五樓之２","OBJECTID":270385},"geometry":{"x":171619.50999999978,"y":2542973.629999999}},{"attributes":{"ID":270391,"DIS_CODE":0,"TOWNNAME":"永康區","LI":"北灣里","LIN":"18鄰","STREET":"大安街","SECT":" ","MAREA":" ","LANE":" ","ALLEY":" ","HOUSE_NO":"４４０號","E_COORD97":174599.67000000001,"N_COORD97":2545874.6600000001,"ADDRESS":"大安街４４０號","OBJECTID":270386},"geometry":{"x":174599.67000000179,"y":2545874.6600000039}},{"attributes":{"ID":270392,"DIS_CODE":0,"TOWNNAME":"善化區","LI":"光文里","LIN":"14鄰","STREET":"大成路","SECT":" ","MAREA":" ","LANE":" ","ALLEY":" ","HOUSE_NO":"１６４號","E_COORD97":178472.92000000001,"N_COORD97":2558893,"ADDRESS":"大成路１６４號","OBJECTID":270387},"geometry":{"x":178472.91999999899,"y":2558893}},{"attributes":{"ID":270393,"DIS_CODE":0,"TOWNNAME":"善化區","LI":"坐駕里","LIN":" ","STREET":"自立路","SECT":" ","MAREA":" ","LANE":" ","ALLEY":" ","HOUSE_NO":"４號","E_COORD97":178275.20000000001,"N_COORD97":2558685.25,"ADDRESS":"自立路４號","OBJECTID":270388},"geometry":{"x":178275.20000000112,"y":2558685.25}},{"attributes":{"ID":270394,"DIS_CODE":0,"TOWNNAME":"東區","LI":"東聖里","LIN":"8鄰","STREET":"富農街","SECT":"二段","MAREA":" ","LANE":"４３巷","ALLEY":" ","HOUSE_NO":"１８號三樓之３","E_COORD97":171620.44,"N_COORD97":2542984.9700000002,"ADDRESS":"富農街二段４３巷１８號三樓之３","OBJECTID":270389},"geometry":{"x":171620.44000000134,"y":2542984.9700000025}},{"attributes":{"ID":270395,"DIS_CODE":0,"TOWNNAME":"東區","LI":"東聖里","LIN":"8鄰","STREET":"富農街","SECT":"二段","MAREA":" ","LANE":"４３巷","ALLEY":" ","HOUSE_NO":"１８號三樓之４","E_COORD97":171620.44,"N_COORD97":2542984.9700000002,"ADDRESS":"富農街二段４３巷１８號三樓之４","OBJECTID":270390},"geometry":{"x":171620.44000000134,"y":2542984.9700000025}},{"attributes":{"ID":270396,"DIS_CODE":0,"TOWNNAME":"東區","LI":"東聖里","LIN":"8鄰","STREET":"富農街","SECT":"二段","MAREA":" ","LANE":"４３巷","ALLEY":" ","HOUSE_NO":"１８號四樓之３","E_COORD97":171620.44,"N_COORD97":2542984.9700000002,"ADDRESS":"富農街二段４３巷１８號四樓之３","OBJECTID":270391},"geometry":{"x":171620.44000000134,"y":2542984.9700000025}},{"attributes":{"ID":270397,"DIS_CODE":0,"TOWNNAME":"東區","LI":"東聖里","LIN":"8鄰","STREET":"富農街","SECT":"二段","MAREA":" ","LANE":"４３巷","ALLEY":" ","HOUSE_NO":"１８號五樓之１","E_COORD97":171620.44,"N_COORD97":2542984.9700000002,"ADDRESS":"富農街二段４３巷１８號五樓之１","OBJECTID":270392},"geometry":{"x":171620.44000000134,"y":2542984.9700000025}},{"attributes":{"ID":270398,"DIS_CODE":0,"TOWNNAME":"東區","LI":"東聖里","LIN":"8鄰","STREET":"富農街","SECT":"二段","MAREA":" ","LANE":"４３巷","ALLEY":" ","HOUSE_NO":"１８號五樓之３","E_COORD97":171620.44,"N_COORD97":2542984.9700000002,"ADDRESS":"富農街二段４３巷１８號五樓之３","OBJECTID":270393},"geometry":{"x":171620.44000000134,"y":2542984.9700000025}},{"attributes":{"ID":270399,"DIS_CODE":0,"TOWNNAME":"東區","LI":"東聖里","LIN":"8鄰","STREET":"富農街","SECT":"二段","MAREA":" ","LANE":"４３巷","ALLEY":" ","HOUSE_NO":"２０號三樓之１","E_COORD97":171618.76000000001,"N_COORD97":2542995.1899999999,"ADDRESS":"富農街二段４３巷２０號三樓之１","OBJECTID":270394},"geometry":{"x":171618.76000000164,"y":2542995.1900000032}},{"attributes":{"ID":270400,"DIS_CODE":0,"TOWNNAME":"東區","LI":"東聖里","LIN":"8鄰","STREET":"富農街","SECT":"二段","MAREA":" ","LANE":"４３巷","ALLEY":" ","HOUSE_NO":"２０號三樓之３","E_COORD97":171618.76000000001,"N_COORD97":2542995.1899999999,"ADDRESS":"富農街二段４３巷２０號三樓之３","OBJECTID":270395},"geometry":{"x":171618.76000000164,"y":2542995.1900000032}},{"attributes":{"ID":270401,"DIS_CODE":0,"TOWNNAME":"東區","LI":"東聖里","LIN":"8鄰","STREET":"富農街","SECT":"二段","MAREA":" ","LANE":"４３巷","ALLEY":" ","HOUSE_NO":"２０號四樓之４","E_COORD97":171618.76000000001,"N_COORD97":2542995.1899999999,"ADDRESS":"富農街二段４３巷２０號四樓之４","OBJECTID":270396},"geometry":{"x":171618.76000000164,"y":2542995.1900000032}},{"attributes":{"ID":270402,"DIS_CODE":0,"TOWNNAME":"東區","LI":"東聖里","LIN":"8鄰","STREET":"富農街","SECT":"二段","MAREA":" ","LANE":"４３巷","ALLEY":" ","HOUSE_NO":"２０號五樓之１","E_COORD97":171618.76000000001,"N_COORD97":2542995.1899999999,"ADDRESS":"富農街二段４３巷２０號五樓之１","OBJECTID":270397},"geometry":{"x":171618.76000000164,"y":2542995.1900000032}},{"attributes":{"ID":270403,"DIS_CODE":0,"TOWNNAME":"東區","LI":"東聖里","LIN":"8鄰","STREET":"富農街","SECT":"二段","MAREA":" ","LANE":"４３巷","ALLEY":" ","HOUSE_NO":"２０號五樓之２","E_COORD97":171618.76000000001,"N_COORD97":2542995.1899999999,"ADDRESS":"富農街二段４３巷２０號五樓之２","OBJECTID":270398},"geometry":{"x":171618.76000000164,"y":2542995.1900000032}},{"attributes":{"ID":270404,"DIS_CODE":0,"TOWNNAME":"北區","LI":"長榮里","LIN":"17鄰","STREET":"長榮路","SECT":"五段","MAREA":" ","LANE":"４１巷","ALLEY":" ","HOUSE_NO":"５８號","E_COORD97":169922.38,"N_COORD97":2545563.6200000001,"ADDRESS":"長榮路五段４１巷５８號","OBJECTID":270399},"geometry":{"x":169922.37999999989,"y":2545563.6199999992}},{"attributes":{"ID":270405,"DIS_CODE":0,"TOWNNAME":"永康區","LI":"安康里","LIN":"8鄰","STREET":"中山南路","SECT":" ","MAREA":" ","LANE":"１１９巷","ALLEY":" ","HOUSE_NO":"５２號四樓","E_COORD97":171090.56,"N_COORD97":2546008.5099999998,"ADDRESS":"中山南路１１９巷５２號四樓","OBJECTID":270400},"geometry":{"x":171090.55999999959,"y":2546008.5100000016}}]}