{"displayFieldName":"TOWNNAME","fieldAliases":{"ID":"ID","DIS_CODE":"DIS_CODE","TOWNNAME":"TOWNNAME","LI":"LI","LIN":"LIN","STREET":"STREET","SECT":"SECT","MAREA":"MAREA","LANE":"LANE","ALLEY":"ALLEY","HOUSE_NO":"HOUSE_NO","E_COORD97":"E_COORD97","N_COORD97":"N_COORD97","ADDRESS":"ADDRESS","OBJECTID":"OBJECTID"},"geometryType":"esriGeometryPoint","spatialReference":{"wkid":102443,"latestWkid":3826},"fields":[{"name":"ID","type":"esriFieldTypeDouble","alias":"ID"},{"name":"DIS_CODE","type":"esriFieldTypeInteger","alias":"DIS_CODE"},{"name":"TOWNNAME","type":"esriFieldTypeString","alias":"TOWNNAME","length":8},{"name":"LI","type":"esriFieldTypeString","alias":"LI","length":8},{"name":"LIN","type":"esriFieldTypeString","alias":"LIN","length":12},{"name":"STREET","type":"esriFieldTypeString","alias":"STREET","length":20},{"name":"SECT","type":"esriFieldTypeString","alias":"SECT","length":8},{"name":"MAREA","type":"esriFieldTypeString","alias":"MAREA","length":12},{"name":"LANE","type":"esriFieldTypeString","alias":"LANE","length":10},{"name":"ALLEY","type":"esriFieldTypeString","alias":"ALLEY","length":10},{"name":"HOUSE_NO","type":"esriFieldTypeString","alias":"HOUSE_NO","length":20},{"name":"E_COORD97","type":"esriFieldTypeDouble","alias":"E_COORD97"},{"name":"N_COORD97","type":"esriFieldTypeDouble","alias":"N_COORD97"},{"name":"ADDRESS","type":"esriFieldTypeString","alias":"ADDRESS","length":50},{"name":"OBJECTID","type":"esriFieldTypeOID","alias":"OBJECTID"}],"features":[{"attributes":{"ID":478626,"DIS_CODE":0,"TOWNNAME":"北區","LI":"永祥里","LIN":"20鄰","STREET":"大武街","SECT":" ","MAREA":" ","LANE":" ","ALLEY":" ","HOUSE_NO":"５６８號","E_COORD97":170280.03,"N_COORD97":2546416.48,"ADDRESS":"大武街５６８號","OBJECTID":478601},"geometry":{"x":170280.03000000119,"y":2546416.4800000023}},{"attributes":{"ID":478627,"DIS_CODE":0,"TOWNNAME":"北區","LI":"永祥里","LIN":"20鄰","STREET":"大武街","SECT":" ","MAREA":" ","LANE":" ","ALLEY":" ","HOUSE_NO":"５７０號","E_COORD97":170283.98999999999,"N_COORD97":2546416.75,"ADDRESS":"大武街５７０號","OBJECTID":478602},"geometry":{"x":170283.99000000115,"y":2546416.7500000019}},{"attributes":{"ID":478628,"DIS_CODE":0,"TOWNNAME":"北區","LI":"永祥里","LIN":"20鄰","STREET":"大武街","SECT":" ","MAREA":" ","LANE":" ","ALLEY":" ","HOUSE_NO":"５７２號","E_COORD97":170287.60999999999,"N_COORD97":2546416.8100000001,"ADDRESS":"大武街５７２號","OBJECTID":478603},"geometry":{"x":170287.61000000034,"y":2546416.8100000024}},{"attributes":{"ID":478629,"DIS_CODE":0,"TOWNNAME":"北區","LI":"永祥里","LIN":"20鄰","STREET":"大武街","SECT":" ","MAREA":" ","LANE":" ","ALLEY":" ","HOUSE_NO":"５７４號","E_COORD97":170290.97,"N_COORD97":2546417.3399999999,"ADDRESS":"大武街５７４號","OBJECTID":478604},"geometry":{"x":170290.96999999974,"y":2546417.3399999999}},{"attributes":{"ID":478630,"DIS_CODE":0,"TOWNNAME":"北區","LI":"永祥里","LIN":"20鄰","STREET":"大武街","SECT":" ","MAREA":" ","LANE":" ","ALLEY":" ","HOUSE_NO":"５７６號","E_COORD97":170294.85999999999,"N_COORD97":2546417.6000000001,"ADDRESS":"大武街５７６號","OBJECTID":478605},"geometry":{"x":170294.86000000127,"y":2546417.6000000015}},{"attributes":{"ID":478631,"DIS_CODE":0,"TOWNNAME":"北區","LI":"永祥里","LIN":"20鄰","STREET":"大武街","SECT":" ","MAREA":" ","LANE":" ","ALLEY":" ","HOUSE_NO":"５７８號","E_COORD97":170298.94,"N_COORD97":2546416.29,"ADDRESS":"大武街５７８號","OBJECTID":478606},"geometry":{"x":170298.94000000041,"y":2546416.290000001}},{"attributes":{"ID":478632,"DIS_CODE":0,"TOWNNAME":"北區","LI":"永祥里","LIN":"20鄰","STREET":"大武街","SECT":" ","MAREA":" ","LANE":" ","ALLEY":" ","HOUSE_NO":"５８０號","E_COORD97":170302.10999999999,"N_COORD97":2546417.0800000001,"ADDRESS":"大武街５８０號","OBJECTID":478607},"geometry":{"x":170302.11000000127,"y":2546417.0800000001}},{"attributes":{"ID":478633,"DIS_CODE":0,"TOWNNAME":"北區","LI":"永祥里","LIN":"20鄰","STREET":"大武街","SECT":" ","MAREA":" ","LANE":" ","ALLEY":" ","HOUSE_NO":"５８２號","E_COORD97":170305.34,"N_COORD97":2546415.71,"ADDRESS":"大武街５８２號","OBJECTID":478608},"geometry":{"x":170305.33999999985,"y":2546415.7100000009}},{"attributes":{"ID":478634,"DIS_CODE":0,"TOWNNAME":"北區","LI":"永祥里","LIN":"20鄰","STREET":"大武街","SECT":" ","MAREA":" ","LANE":" ","ALLEY":" ","HOUSE_NO":"５８６號","E_COORD97":170318.79000000001,"N_COORD97":2546422.2599999998,"ADDRESS":"大武街５８６號","OBJECTID":478609},"geometry":{"x":170318.79000000097,"y":2546422.2599999998}},{"attributes":{"ID":478635,"DIS_CODE":0,"TOWNNAME":"北區","LI":"永祥里","LIN":"20鄰","STREET":"大武街","SECT":" ","MAREA":" ","LANE":" ","ALLEY":" ","HOUSE_NO":"５９９號","E_COORD97":170223.29999999999,"N_COORD97":2546428.5899999999,"ADDRESS":"大武街５９９號","OBJECTID":478610},"geometry":{"x":170223.30000000168,"y":2546428.5900000017}},{"attributes":{"ID":478636,"DIS_CODE":0,"TOWNNAME":"北區","LI":"永祥里","LIN":"20鄰","STREET":"大武街","SECT":" ","MAREA":" ","LANE":" ","ALLEY":" ","HOUSE_NO":"６０１號","E_COORD97":170228.10000000001,"N_COORD97":2546428.6499999999,"ADDRESS":"大武街６０１號","OBJECTID":478611},"geometry":{"x":170228.10000000056,"y":2546428.6500000022}},{"attributes":{"ID":478637,"DIS_CODE":0,"TOWNNAME":"北區","LI":"永祥里","LIN":"20鄰","STREET":"大武街","SECT":" ","MAREA":" ","LANE":" ","ALLEY":" ","HOUSE_NO":"６０３號","E_COORD97":170232.17999999999,"N_COORD97":2546427.6699999999,"ADDRESS":"大武街６０３號","OBJECTID":478612},"geometry":{"x":170232.1799999997,"y":2546427.6700000018}},{"attributes":{"ID":478638,"DIS_CODE":0,"TOWNNAME":"北區","LI":"永祥里","LIN":"20鄰","STREET":"大武街","SECT":" ","MAREA":" ","LANE":" ","ALLEY":" ","HOUSE_NO":"６０５號","E_COORD97":170236,"N_COORD97":2546428.8399999999,"ADDRESS":"大武街６０５號","OBJECTID":478613},"geometry":{"x":170236.00000000093,"y":2546428.8400000036}},{"attributes":{"ID":478639,"DIS_CODE":0,"TOWNNAME":"北區","LI":"永祥里","LIN":"20鄰","STREET":"大武街","SECT":" ","MAREA":" ","LANE":" ","ALLEY":" ","HOUSE_NO":"６０７號","E_COORD97":170240.48999999999,"N_COORD97":2546427.0499999998,"ADDRESS":"大武街６０７號","OBJECTID":478614},"geometry":{"x":170240.49000000022,"y":2546427.0500000007}},{"attributes":{"ID":478640,"DIS_CODE":0,"TOWNNAME":"北區","LI":"永祥里","LIN":"20鄰","STREET":"大武街","SECT":" ","MAREA":" ","LANE":" ","ALLEY":" ","HOUSE_NO":"６０９號","E_COORD97":170244.84,"N_COORD97":2546428.8399999999,"ADDRESS":"大武街６０９號","OBJECTID":478615},"geometry":{"x":170244.83999999985,"y":2546428.8400000036}},{"attributes":{"ID":478641,"DIS_CODE":0,"TOWNNAME":"北區","LI":"永祥里","LIN":"20鄰","STREET":"大武街","SECT":" ","MAREA":" ","LANE":" ","ALLEY":" ","HOUSE_NO":"６１１號","E_COORD97":170248.42999999999,"N_COORD97":2546427.5299999998,"ADDRESS":"大武街６１１號","OBJECTID":478616},"geometry":{"x":170248.43000000063,"y":2546427.5300000012}},{"attributes":{"ID":478642,"DIS_CODE":0,"TOWNNAME":"北區","LI":"永祥里","LIN":"20鄰","STREET":"大武街","SECT":" ","MAREA":" ","LANE":" ","ALLEY":" ","HOUSE_NO":"６１３號","E_COORD97":170252.44,"N_COORD97":2546428.4300000002,"ADDRESS":"大武街６１３號","OBJECTID":478617},"geometry":{"x":170252.44000000134,"y":2546428.4300000034}},{"attributes":{"ID":478643,"DIS_CODE":0,"TOWNNAME":"北區","LI":"永祥里","LIN":"20鄰","STREET":"大武街","SECT":" ","MAREA":" ","LANE":" ","ALLEY":" ","HOUSE_NO":"６１５號","E_COORD97":170256.10000000001,"N_COORD97":2546427.6000000001,"ADDRESS":"大武街６１５號","OBJECTID":478618},"geometry":{"x":170256.09999999963,"y":2546427.6000000015}},{"attributes":{"ID":478644,"DIS_CODE":0,"TOWNNAME":"北區","LI":"永祥里","LIN":"20鄰","STREET":"大武街","SECT":" ","MAREA":" ","LANE":" ","ALLEY":" ","HOUSE_NO":"６１７號","E_COORD97":170260.79999999999,"N_COORD97":2546427.8700000001,"ADDRESS":"大武街６１７號","OBJECTID":478619},"geometry":{"x":170260.80000000075,"y":2546427.8700000029}},{"attributes":{"ID":478645,"DIS_CODE":0,"TOWNNAME":"北區","LI":"永祥里","LIN":"20鄰","STREET":"大武街","SECT":" ","MAREA":" ","LANE":" ","ALLEY":" ","HOUSE_NO":"６１９號","E_COORD97":170264.81,"N_COORD97":2546428.98,"ADDRESS":"大武街６１９號","OBJECTID":478620},"geometry":{"x":170264.80999999959,"y":2546428.9800000023}},{"attributes":{"ID":478646,"DIS_CODE":0,"TOWNNAME":"北區","LI":"永祥里","LIN":"20鄰","STREET":"大武街","SECT":" ","MAREA":" ","LANE":" ","ALLEY":" ","HOUSE_NO":"６２１號","E_COORD97":170268.32999999999,"N_COORD97":2546427.73,"ADDRESS":"大武街６２１號","OBJECTID":478621},"geometry":{"x":170268.33000000007,"y":2546427.7300000023}},{"attributes":{"ID":478647,"DIS_CODE":0,"TOWNNAME":"北區","LI":"永祥里","LIN":"20鄰","STREET":"大武街","SECT":" ","MAREA":" ","LANE":" ","ALLEY":" ","HOUSE_NO":"６２３號","E_COORD97":170272.41,"N_COORD97":2546427.6000000001,"ADDRESS":"大武街６２３號","OBJECTID":478622},"geometry":{"x":170272.41000000108,"y":2546427.6000000015}},{"attributes":{"ID":478648,"DIS_CODE":0,"TOWNNAME":"北區","LI":"永祥里","LIN":"20鄰","STREET":"大武街","SECT":" ","MAREA":" ","LANE":" ","ALLEY":" ","HOUSE_NO":"６２５號","E_COORD97":170276.38,"N_COORD97":2546430.7000000002,"ADDRESS":"大武街６２５號","OBJECTID":478623},"geometry":{"x":170276.37999999989,"y":2546430.7000000011}},{"attributes":{"ID":478649,"DIS_CODE":0,"TOWNNAME":"北區","LI":"永祥里","LIN":"20鄰","STREET":"大武街","SECT":" ","MAREA":" ","LANE":" ","ALLEY":" ","HOUSE_NO":"６２７號","E_COORD97":170280.17999999999,"N_COORD97":2546430.5699999998,"ADDRESS":"大武街６２７號","OBJECTID":478624},"geometry":{"x":170280.18000000063,"y":2546430.5700000003}},{"attributes":{"ID":478650,"DIS_CODE":0,"TOWNNAME":"北區","LI":"永祥里","LIN":"20鄰","STREET":"大武街","SECT":" ","MAREA":" ","LANE":" ","ALLEY":" ","HOUSE_NO":"６２９號","E_COORD97":170285.01000000001,"N_COORD97":2546430.8399999999,"ADDRESS":"大武街６２９號","OBJECTID":478625},"geometry":{"x":170285.01000000071,"y":2546430.8399999999}},{"attributes":{"ID":478651,"DIS_CODE":0,"TOWNNAME":"北區","LI":"永祥里","LIN":"20鄰","STREET":"大武街","SECT":" ","MAREA":" ","LANE":" ","ALLEY":" ","HOUSE_NO":"６３１號","E_COORD97":170288.95000000001,"N_COORD97":2546430.9100000001,"ADDRESS":"大武街６３１號","OBJECTID":478626},"geometry":{"x":170288.95000000112,"y":2546430.9100000001}},{"attributes":{"ID":478652,"DIS_CODE":0,"TOWNNAME":"北區","LI":"永祥里","LIN":"20鄰","STREET":"大武街","SECT":" ","MAREA":" ","LANE":" ","ALLEY":" ","HOUSE_NO":"６３３號","E_COORD97":170293.09,"N_COORD97":2546431.3900000001,"ADDRESS":"大武街６３３號","OBJECTID":478627},"geometry":{"x":170293.09000000078,"y":2546431.3900000006}},{"attributes":{"ID":478653,"DIS_CODE":0,"TOWNNAME":"北區","LI":"永祥里","LIN":"20鄰","STREET":"大武街","SECT":" ","MAREA":" ","LANE":" ","ALLEY":" ","HOUSE_NO":"６３５號","E_COORD97":170297.31,"N_COORD97":2546431.46,"ADDRESS":"大武街６３５號","OBJECTID":478628},"geometry":{"x":170297.30999999959,"y":2546431.4600000009}},{"attributes":{"ID":478654,"DIS_CODE":0,"TOWNNAME":"北區","LI":"永祥里","LIN":"20鄰","STREET":"大武街","SECT":" ","MAREA":" ","LANE":" ","ALLEY":" ","HOUSE_NO":"６３７號","E_COORD97":170300.82999999999,"N_COORD97":2546431.6000000001,"ADDRESS":"大武街６３７號","OBJECTID":478629},"geometry":{"x":170300.83000000007,"y":2546431.6000000015}},{"attributes":{"ID":478655,"DIS_CODE":0,"TOWNNAME":"北區","LI":"永祥里","LIN":"20鄰","STREET":"大武街","SECT":" ","MAREA":" ","LANE":" ","ALLEY":" ","HOUSE_NO":"６３９號","E_COORD97":170305.25,"N_COORD97":2546431.9500000002,"ADDRESS":"大武街６３９號","OBJECTID":478630},"geometry":{"x":170305.25000000186,"y":2546431.9500000011}},{"attributes":{"ID":478656,"DIS_CODE":0,"TOWNNAME":"北區","LI":"永祥里","LIN":"20鄰","STREET":"大武街","SECT":" ","MAREA":" ","LANE":" ","ALLEY":" ","HOUSE_NO":"６４１號","E_COORD97":170309.12,"N_COORD97":2546432.3399999999,"ADDRESS":"大武街６４１號","OBJECTID":478631},"geometry":{"x":170309.12000000011,"y":2546432.3400000036}},{"attributes":{"ID":478657,"DIS_CODE":0,"TOWNNAME":"北區","LI":"永祥里","LIN":"20鄰","STREET":"大武街","SECT":" ","MAREA":" ","LANE":" ","ALLEY":" ","HOUSE_NO":"６４３號","E_COORD97":170313.76000000001,"N_COORD97":2546432.4900000002,"ADDRESS":"大武街６４３號","OBJECTID":478632},"geometry":{"x":170313.76000000071,"y":2546432.4900000021}},{"attributes":{"ID":478658,"DIS_CODE":0,"TOWNNAME":"北區","LI":"永祥里","LIN":"20鄰","STREET":"大武街","SECT":" ","MAREA":" ","LANE":" ","ALLEY":" ","HOUSE_NO":"６４５號","E_COORD97":170319.22,"N_COORD97":2546432.8300000001,"ADDRESS":"大武街６４５號","OBJECTID":478633},"geometry":{"x":170319.22000000067,"y":2546432.8300000038}},{"attributes":{"ID":478659,"DIS_CODE":0,"TOWNNAME":"北區","LI":"永祥里","LIN":"20鄰","STREET":"大武街","SECT":" ","MAREA":" ","LANE":" ","ALLEY":" ","HOUSE_NO":"６４７號","E_COORD97":170324.19,"N_COORD97":2546433.25,"ADDRESS":"大武街６４７號","OBJECTID":478634},"geometry":{"x":170324.19000000041,"y":2546433.2500000037}},{"attributes":{"ID":478660,"DIS_CODE":0,"TOWNNAME":"北區","LI":"永祥里","LIN":"20鄰","STREET":"大武街","SECT":" ","MAREA":" ","LANE":" ","ALLEY":" ","HOUSE_NO":"６４９號","E_COORD97":170329.29999999999,"N_COORD97":2546434.1400000001,"ADDRESS":"大武街６４９號","OBJECTID":478635},"geometry":{"x":170329.29999999981,"y":2546434.1400000006}},{"attributes":{"ID":478661,"DIS_CODE":0,"TOWNNAME":"南區","LI":"新興里","LIN":"20鄰","STREET":"新興路","SECT":" ","MAREA":" ","LANE":" ","ALLEY":" ","HOUSE_NO":"２３４號","E_COORD97":167210.28,"N_COORD97":2541918.4300000002,"ADDRESS":"新興路２３４號","OBJECTID":478636},"geometry":{"x":167210.28000000119,"y":2541918.4299999997}},{"attributes":{"ID":478662,"DIS_CODE":0,"TOWNNAME":"南區","LI":"新興里","LIN":"20鄰","STREET":"新興路","SECT":" ","MAREA":" ","LANE":" ","ALLEY":" ","HOUSE_NO":"２３８號","E_COORD97":167202.48000000001,"N_COORD97":2541902.8599999999,"ADDRESS":"新興路２３８號","OBJECTID":478637},"geometry":{"x":167202.48000000138,"y":2541902.8600000013}},{"attributes":{"ID":478663,"DIS_CODE":0,"TOWNNAME":"南區","LI":"新興里","LIN":"20鄰","STREET":"新興路","SECT":" ","MAREA":" ","LANE":" ","ALLEY":" ","HOUSE_NO":"２４０號","E_COORD97":167195.44,"N_COORD97":2541898.48,"ADDRESS":"新興路２４０號","OBJECTID":478638},"geometry":{"x":167195.44000000227,"y":2541898.4800000004}},{"attributes":{"ID":478664,"DIS_CODE":0,"TOWNNAME":"南區","LI":"新興里","LIN":"20鄰","STREET":"新興路","SECT":" ","MAREA":" ","LANE":" ","ALLEY":" ","HOUSE_NO":"２５６號","E_COORD97":167160.45000000001,"N_COORD97":2541871.7999999998,"ADDRESS":"新興路２５６號","OBJECTID":478639},"geometry":{"x":167160.45000000019,"y":2541871.8000000026}},{"attributes":{"ID":478665,"DIS_CODE":0,"TOWNNAME":"南區","LI":"新興里","LIN":"20鄰","STREET":"新興路","SECT":" ","MAREA":" ","LANE":" ","ALLEY":" ","HOUSE_NO":"２６０號","E_COORD97":167157.41,"N_COORD97":2541870.2799999998,"ADDRESS":"新興路２６０號","OBJECTID":478640},"geometry":{"x":167157.41000000015,"y":2541870.2800000012}},{"attributes":{"ID":478666,"DIS_CODE":0,"TOWNNAME":"南區","LI":"新興里","LIN":"20鄰","STREET":"新興路","SECT":" ","MAREA":" ","LANE":" ","ALLEY":" ","HOUSE_NO":"２６２號","E_COORD97":167149.79999999999,"N_COORD97":2541866.8599999999,"ADDRESS":"新興路２６２號","OBJECTID":478641},"geometry":{"x":167149.79999999888,"y":2541866.8599999994}},{"attributes":{"ID":478667,"DIS_CODE":0,"TOWNNAME":"南區","LI":"新興里","LIN":"20鄰","STREET":"新興路","SECT":" ","MAREA":" ","LANE":" ","ALLEY":" ","HOUSE_NO":"２７６號","E_COORD97":167130.39999999999,"N_COORD97":2541850.7000000002,"ADDRESS":"新興路２７６號","OBJECTID":478642},"geometry":{"x":167130.40000000037,"y":2541850.6999999993}},{"attributes":{"ID":478668,"DIS_CODE":0,"TOWNNAME":"南區","LI":"新興里","LIN":"20鄰","STREET":"新興路","SECT":" ","MAREA":" ","LANE":" ","ALLEY":" ","HOUSE_NO":"２７８號","E_COORD97":167124.98999999999,"N_COORD97":2541851.5,"ADDRESS":"新興路２７８號","OBJECTID":478643},"geometry":{"x":167124.99000000022,"y":2541851.5000000019}},{"attributes":{"ID":478669,"DIS_CODE":0,"TOWNNAME":"南區","LI":"新興里","LIN":"20鄰","STREET":"新興路","SECT":" ","MAREA":" ","LANE":" ","ALLEY":" ","HOUSE_NO":"２８０號","E_COORD97":167121.78,"N_COORD97":2541848.5,"ADDRESS":"新興路２８０號","OBJECTID":478644},"geometry":{"x":167121.78000000212,"y":2541848.5000000019}},{"attributes":{"ID":478670,"DIS_CODE":0,"TOWNNAME":"南區","LI":"新興里","LIN":"20鄰","STREET":"新興路","SECT":" ","MAREA":" ","LANE":" ","ALLEY":" ","HOUSE_NO":"２８２號","E_COORD97":167119.98000000001,"N_COORD97":2541841.8900000001,"ADDRESS":"新興路２８２號","OBJECTID":478645},"geometry":{"x":167119.98000000045,"y":2541841.8900000006}},{"attributes":{"ID":478671,"DIS_CODE":0,"TOWNNAME":"南區","LI":"新興里","LIN":"20鄰","STREET":"新興路","SECT":" ","MAREA":" ","LANE":" ","ALLEY":" ","HOUSE_NO":"２８４號","E_COORD97":167114.37,"N_COORD97":2541840.4900000002,"ADDRESS":"新興路２８４號","OBJECTID":478646},"geometry":{"x":167114.37000000104,"y":2541840.4900000002}},{"attributes":{"ID":478672,"DIS_CODE":0,"TOWNNAME":"南區","LI":"新興里","LIN":"20鄰","STREET":"新興路","SECT":" ","MAREA":" ","LANE":" ","ALLEY":" ","HOUSE_NO":"２８６號","E_COORD97":167111.95999999999,"N_COORD97":2541835.0800000001,"ADDRESS":"新興路２８６號","OBJECTID":478647},"geometry":{"x":167111.96000000089,"y":2541835.0800000019}},{"attributes":{"ID":478673,"DIS_CODE":0,"TOWNNAME":"南區","LI":"新興里","LIN":"20鄰","STREET":"新興路","SECT":" ","MAREA":" ","LANE":" ","ALLEY":" ","HOUSE_NO":"２９０號","E_COORD97":167102.94,"N_COORD97":2541835.8900000001,"ADDRESS":"新興路２９０號","OBJECTID":478648},"geometry":{"x":167102.94000000134,"y":2541835.8900000025}},{"attributes":{"ID":478674,"DIS_CODE":0,"TOWNNAME":"南區","LI":"新興里","LIN":"20鄰","STREET":"新興路","SECT":" ","MAREA":" ","LANE":" ","ALLEY":" ","HOUSE_NO":"２９２號","E_COORD97":167101.54000000001,"N_COORD97":2541829.48,"ADDRESS":"新興路２９２號","OBJECTID":478649},"geometry":{"x":167101.54000000097,"y":2541829.4800000023}},{"attributes":{"ID":478675,"DIS_CODE":0,"TOWNNAME":"南區","LI":"新興里","LIN":"20鄰","STREET":"新興路","SECT":" ","MAREA":" ","LANE":" ","ALLEY":" ","HOUSE_NO":"２９４號","E_COORD97":167095.51999999999,"N_COORD97":2541828.7799999998,"ADDRESS":"新興路２９４號","OBJECTID":478650},"geometry":{"x":167095.52000000142,"y":2541828.7800000012}},{"attributes":{"ID":478676,"DIS_CODE":0,"TOWNNAME":"南區","LI":"新興里","LIN":"20鄰","STREET":"新興路","SECT":" ","MAREA":" ","LANE":" ","ALLEY":" ","HOUSE_NO":"２９６號","E_COORD97":167093.92000000001,"N_COORD97":2541824.77,"ADDRESS":"新興路２９６號","OBJECTID":478651},"geometry":{"x":167093.92000000086,"y":2541824.7699999977}},{"attributes":{"ID":478677,"DIS_CODE":0,"TOWNNAME":"南區","LI":"新興里","LIN":"20鄰","STREET":"新興路","SECT":" ","MAREA":" ","LANE":" ","ALLEY":" ","HOUSE_NO":"２９８號","E_COORD97":167090.51000000001,"N_COORD97":2541822.5699999998,"ADDRESS":"新興路２９８號","OBJECTID":478652},"geometry":{"x":167090.50999999978,"y":2541822.5700000003}},{"attributes":{"ID":478678,"DIS_CODE":0,"TOWNNAME":"南區","LI":"新興里","LIN":"20鄰","STREET":"新興路","SECT":" ","MAREA":" ","LANE":" ","ALLEY":" ","HOUSE_NO":"３００號","E_COORD97":167087.89999999999,"N_COORD97":2541820.5699999998,"ADDRESS":"新興路３００號","OBJECTID":478653},"geometry":{"x":167087.9000000013,"y":2541820.570000004}},{"attributes":{"ID":478679,"DIS_CODE":0,"TOWNNAME":"南區","LI":"新興里","LIN":"20鄰","STREET":"新興路","SECT":" ","MAREA":" ","LANE":" ","ALLEY":" ","HOUSE_NO":"３０２號","E_COORD97":167085.10000000001,"N_COORD97":2541818.1699999999,"ADDRESS":"新興路３０２號","OBJECTID":478654},"geometry":{"x":167085.10000000056,"y":2541818.1699999999}},{"attributes":{"ID":478680,"DIS_CODE":0,"TOWNNAME":"南區","LI":"新興里","LIN":"20鄰","STREET":"新興路","SECT":" ","MAREA":" ","LANE":" ","ALLEY":" ","HOUSE_NO":"３０４號","E_COORD97":167082.48999999999,"N_COORD97":2541815.3599999999,"ADDRESS":"新興路３０４號","OBJECTID":478655},"geometry":{"x":167082.49000000022,"y":2541815.3600000013}},{"attributes":{"ID":478681,"DIS_CODE":0,"TOWNNAME":"南區","LI":"新興里","LIN":"20鄰","STREET":"新興路","SECT":" ","MAREA":" ","LANE":" ","ALLEY":" ","HOUSE_NO":"３０６號","E_COORD97":167079.48000000001,"N_COORD97":2541811.7599999998,"ADDRESS":"新興路３０６號","OBJECTID":478656},"geometry":{"x":167079.48000000045,"y":2541811.7600000035}},{"attributes":{"ID":478682,"DIS_CODE":0,"TOWNNAME":"歸仁區","LI":"崙頂里","LIN":"20鄰","STREET":"大成路","SECT":" ","MAREA":" ","LANE":" ","ALLEY":" ","HOUSE_NO":"１７９號","E_COORD97":177782.75,"N_COORD97":2540169.2999999998,"ADDRESS":"大成路１７９號","OBJECTID":478657},"geometry":{"x":177782.75000000186,"y":2540169.3000000026}},{"attributes":{"ID":478683,"DIS_CODE":0,"TOWNNAME":"歸仁區","LI":"新厝里","LIN":"20鄰","STREET":"大成路","SECT":" ","MAREA":" ","LANE":" ","ALLEY":" ","HOUSE_NO":"９２號","E_COORD97":177666.09,"N_COORD97":2540319.1800000002,"ADDRESS":"大成路９２號","OBJECTID":478658},"geometry":{"x":177666.08999999985,"y":2540319.1799999997}},{"attributes":{"ID":478684,"DIS_CODE":0,"TOWNNAME":"歸仁區","LI":"辜厝里","LIN":"20鄰","STREET":"中正南路","SECT":"一段","MAREA":" ","LANE":" ","ALLEY":" ","HOUSE_NO":"１５２號","E_COORD97":177438.85999999999,"N_COORD97":2540430.9500000002,"ADDRESS":"中正南路一段１５２號","OBJECTID":478659},"geometry":{"x":177438.86000000127,"y":2540430.9500000011}},{"attributes":{"ID":478685,"DIS_CODE":0,"TOWNNAME":"北區","LI":"成德里","LIN":"20鄰","STREET":"文成二路","SECT":" ","MAREA":" ","LANE":" ","ALLEY":" ","HOUSE_NO":"２００號","E_COORD97":168510.13,"N_COORD97":2546185.27,"ADDRESS":"文成二路２００號","OBJECTID":478660},"geometry":{"x":168510.12999999989,"y":2546185.2700000033}},{"attributes":{"ID":478686,"DIS_CODE":0,"TOWNNAME":"北區","LI":"成德里","LIN":"20鄰","STREET":"育德二路","SECT":" ","MAREA":" ","LANE":" ","ALLEY":" ","HOUSE_NO":"３８０號","E_COORD97":168296.29999999999,"N_COORD97":2546237.04,"ADDRESS":"育德二路３８０號","OBJECTID":478661},"geometry":{"x":168296.30000000075,"y":2546237.0400000028}},{"attributes":{"ID":478687,"DIS_CODE":0,"TOWNNAME":"玉井區","LI":"玉田里","LIN":"20鄰","STREET":"中山路","SECT":" ","MAREA":" ","LANE":" ","ALLEY":" ","HOUSE_NO":"１３１號","E_COORD97":195287.64999999999,"N_COORD97":2557928.25,"ADDRESS":"中山路１３１號","OBJECTID":478662},"geometry":{"x":195287.65000000037,"y":2557928.25}},{"attributes":{"ID":478688,"DIS_CODE":0,"TOWNNAME":"玉井區","LI":"玉井里","LIN":"20鄰","STREET":"太子街","SECT":" ","MAREA":" ","LANE":" ","ALLEY":" ","HOUSE_NO":"７１號","E_COORD97":194769.69,"N_COORD97":2558073.25,"ADDRESS":"太子街７１號","OBJECTID":478663},"geometry":{"x":194769.69000000134,"y":2558073.2500000019}},{"attributes":{"ID":478689,"DIS_CODE":0,"TOWNNAME":"玉井區","LI":"玉田里","LIN":"20鄰","STREET":"中山路","SECT":" ","MAREA":" ","LANE":" ","ALLEY":" ","HOUSE_NO":"１５９號","E_COORD97":195286.95999999999,"N_COORD97":2558006.25,"ADDRESS":"中山路１５９號","OBJECTID":478664},"geometry":{"x":195286.95999999996,"y":2558006.25}},{"attributes":{"ID":478690,"DIS_CODE":0,"TOWNNAME":"學甲區","LI":"慈福里","LIN":"20鄰","STREET":"成功路","SECT":" ","MAREA":" ","LANE":" ","ALLEY":" ","HOUSE_NO":"３３號","E_COORD97":166167.98000000001,"N_COORD97":2570329.21,"ADDRESS":"成功路３３號","OBJECTID":478665},"geometry":{"x":166167.98000000138,"y":2570329.2100000009}},{"attributes":{"ID":478691,"DIS_CODE":0,"TOWNNAME":"學甲區","LI":"慈福里","LIN":"20鄰","STREET":"成功路","SECT":" ","MAREA":" ","LANE":" ","ALLEY":" ","HOUSE_NO":"３５號","E_COORD97":166168.95000000001,"N_COORD97":2570335.0600000001,"ADDRESS":"成功路３５號","OBJECTID":478666},"geometry":{"x":166168.95000000019,"y":2570335.0600000024}},{"attributes":{"ID":478692,"DIS_CODE":0,"TOWNNAME":"學甲區","LI":"明宜里","LIN":"20鄰","STREET":"信義路","SECT":" ","MAREA":" ","LANE":" ","ALLEY":" ","HOUSE_NO":"６８號之１","E_COORD97":165928.14000000001,"N_COORD97":2570576.2599999998,"ADDRESS":"信義路６８號之１","OBJECTID":478667},"geometry":{"x":165928.13999999966,"y":2570576.2600000016}},{"attributes":{"ID":478693,"DIS_CODE":0,"TOWNNAME":"學甲區","LI":"明宜里","LIN":"20鄰","STREET":"信義路","SECT":" ","MAREA":" ","LANE":" ","ALLEY":" ","HOUSE_NO":"６８號","E_COORD97":165927.20999999999,"N_COORD97":2570570.8799999999,"ADDRESS":"信義路６８號","OBJECTID":478668},"geometry":{"x":165927.21000000089,"y":2570570.8800000027}},{"attributes":{"ID":478694,"DIS_CODE":0,"TOWNNAME":"學甲區","LI":"明宜里","LIN":"20鄰","STREET":"信義路","SECT":" ","MAREA":" ","LANE":" ","ALLEY":" ","HOUSE_NO":"７０號","E_COORD97":165929.01999999999,"N_COORD97":2570580.23,"ADDRESS":"信義路７０號","OBJECTID":478669},"geometry":{"x":165929.01999999955,"y":2570580.2300000042}},{"attributes":{"ID":478695,"DIS_CODE":0,"TOWNNAME":"學甲區","LI":"明宜里","LIN":"20鄰","STREET":"信義路","SECT":" ","MAREA":" ","LANE":" ","ALLEY":" ","HOUSE_NO":"７２號之１","E_COORD97":165930.81,"N_COORD97":2570596.6299999999,"ADDRESS":"信義路７２號之１","OBJECTID":478670},"geometry":{"x":165930.81000000145,"y":2570596.6300000008}},{"attributes":{"ID":478696,"DIS_CODE":0,"TOWNNAME":"學甲區","LI":"明宜里","LIN":"20鄰","STREET":"信義路","SECT":" ","MAREA":" ","LANE":" ","ALLEY":" ","HOUSE_NO":"７２號","E_COORD97":165929.32000000001,"N_COORD97":2570587.3300000001,"ADDRESS":"信義路７２號","OBJECTID":478671},"geometry":{"x":165929.3200000003,"y":2570587.3300000019}},{"attributes":{"ID":478697,"DIS_CODE":0,"TOWNNAME":"學甲區","LI":"明宜里","LIN":"20鄰","STREET":"信義路","SECT":" ","MAREA":" ","LANE":" ","ALLEY":" ","HOUSE_NO":"７６號之１","E_COORD97":165932.23999999999,"N_COORD97":2570603.21,"ADDRESS":"信義路７６號之１","OBJECTID":478672},"geometry":{"x":165932.24000000115,"y":2570603.2100000009}},{"attributes":{"ID":478698,"DIS_CODE":0,"TOWNNAME":"學甲區","LI":"明宜里","LIN":"20鄰","STREET":"信義路","SECT":" ","MAREA":" ","LANE":" ","ALLEY":" ","HOUSE_NO":"７６號","E_COORD97":165934.48999999999,"N_COORD97":2570608.48,"ADDRESS":"信義路７６號","OBJECTID":478673},"geometry":{"x":165934.49000000022,"y":2570608.4800000004}},{"attributes":{"ID":478699,"DIS_CODE":0,"TOWNNAME":"學甲區","LI":"明宜里","LIN":"20鄰","STREET":"信義路","SECT":" ","MAREA":" ","LANE":" ","ALLEY":" ","HOUSE_NO":"７８號","E_COORD97":165939.16,"N_COORD97":2570621.6499999999,"ADDRESS":"信義路７８號","OBJECTID":478674},"geometry":{"x":165939.16000000201,"y":2570621.6500000022}},{"attributes":{"ID":478700,"DIS_CODE":0,"TOWNNAME":"學甲區","LI":"明宜里","LIN":"20鄰","STREET":"信義路","SECT":" ","MAREA":" ","LANE":" ","ALLEY":" ","HOUSE_NO":"８０號","E_COORD97":165940.34,"N_COORD97":2570627.7400000002,"ADDRESS":"信義路８０號","OBJECTID":478675},"geometry":{"x":165940.33999999985,"y":2570627.7400000021}},{"attributes":{"ID":478701,"DIS_CODE":0,"TOWNNAME":"學甲區","LI":"明宜里","LIN":"20鄰","STREET":"信義路","SECT":" ","MAREA":" ","LANE":" ","ALLEY":" ","HOUSE_NO":"８２號","E_COORD97":165941.20999999999,"N_COORD97":2570632.6000000001,"ADDRESS":"信義路８２號","OBJECTID":478676},"geometry":{"x":165941.20999999996,"y":2570632.5999999996}},{"attributes":{"ID":478702,"DIS_CODE":0,"TOWNNAME":"學甲區","LI":"明宜里","LIN":"20鄰","STREET":"信義路","SECT":" ","MAREA":" ","LANE":" ","ALLEY":" ","HOUSE_NO":"８４號","E_COORD97":165942.16,"N_COORD97":2570637.46,"ADDRESS":"信義路８４號","OBJECTID":478677},"geometry":{"x":165942.16000000015,"y":2570637.4600000028}},{"attributes":{"ID":478703,"DIS_CODE":0,"TOWNNAME":"學甲區","LI":"明宜里","LIN":"20鄰","STREET":"信義路","SECT":" ","MAREA":" ","LANE":" ","ALLEY":" ","HOUSE_NO":"８６號","E_COORD97":165943.12,"N_COORD97":2570641.8999999999,"ADDRESS":"信義路８６號","OBJECTID":478678},"geometry":{"x":165943.12000000104,"y":2570641.9000000004}},{"attributes":{"ID":478704,"DIS_CODE":0,"TOWNNAME":"學甲區","LI":"明宜里","LIN":"20鄰","STREET":"信義路","SECT":" ","MAREA":" ","LANE":" ","ALLEY":" ","HOUSE_NO":"８８號","E_COORD97":165944.10000000001,"N_COORD97":2570646.04,"ADDRESS":"信義路８８號","OBJECTID":478679},"geometry":{"x":165944.10000000149,"y":2570646.0399999991}},{"attributes":{"ID":478705,"DIS_CODE":0,"TOWNNAME":"學甲區","LI":"明宜里","LIN":"20鄰","STREET":"信義路","SECT":" ","MAREA":" ","LANE":" ","ALLEY":" ","HOUSE_NO":"９０號","E_COORD97":165948.39999999999,"N_COORD97":2570666.9300000002,"ADDRESS":"信義路９０號","OBJECTID":478680},"geometry":{"x":165948.4000000013,"y":2570666.9300000016}},{"attributes":{"ID":478706,"DIS_CODE":0,"TOWNNAME":"學甲區","LI":"明宜里","LIN":"20鄰","STREET":"重信路","SECT":" ","MAREA":" ","LANE":" ","ALLEY":" ","HOUSE_NO":"１８號之１","E_COORD97":165982.98999999999,"N_COORD97":2570625.1099999999,"ADDRESS":"重信路１８號之１","OBJECTID":478681},"geometry":{"x":165982.99000000115,"y":2570625.1100000013}},{"attributes":{"ID":478707,"DIS_CODE":0,"TOWNNAME":"學甲區","LI":"明宜里","LIN":"20鄰","STREET":"重信路","SECT":" ","MAREA":" ","LANE":" ","ALLEY":" ","HOUSE_NO":"１８號之２","E_COORD97":165974.22,"N_COORD97":2570613.0699999998,"ADDRESS":"重信路１８號之２","OBJECTID":478682},"geometry":{"x":165974.22000000067,"y":2570613.0700000022}},{"attributes":{"ID":478708,"DIS_CODE":0,"TOWNNAME":"學甲區","LI":"明宜里","LIN":"20鄰","STREET":"重信路","SECT":" ","MAREA":" ","LANE":" ","ALLEY":" ","HOUSE_NO":"１８號","E_COORD97":165970.29000000001,"N_COORD97":2570613.6600000001,"ADDRESS":"重信路１８號","OBJECTID":478683},"geometry":{"x":165970.2900000019,"y":2570613.6600000001}},{"attributes":{"ID":478709,"DIS_CODE":0,"TOWNNAME":"學甲區","LI":"明宜里","LIN":"20鄰","STREET":"重信路","SECT":" ","MAREA":" ","LANE":" ","ALLEY":" ","HOUSE_NO":"２０號","E_COORD97":165966.45000000001,"N_COORD97":2570628.71,"ADDRESS":"重信路２０號","OBJECTID":478684},"geometry":{"x":165966.45000000112,"y":2570628.7100000028}},{"attributes":{"ID":478710,"DIS_CODE":0,"TOWNNAME":"學甲區","LI":"明宜里","LIN":"20鄰","STREET":"重信路","SECT":" ","MAREA":" ","LANE":" ","ALLEY":" ","HOUSE_NO":"２２號","E_COORD97":165956.01000000001,"N_COORD97":2570627.9700000002,"ADDRESS":"重信路２２號","OBJECTID":478685},"geometry":{"x":165956.00999999978,"y":2570627.9700000007}},{"attributes":{"ID":478711,"DIS_CODE":0,"TOWNNAME":"學甲區","LI":"明宜里","LIN":"20鄰","STREET":"重信路","SECT":" ","MAREA":" ","LANE":" ","ALLEY":" ","HOUSE_NO":"２３號","E_COORD97":165971.59,"N_COORD97":2570596.96,"ADDRESS":"重信路２３號","OBJECTID":478686},"geometry":{"x":165971.59000000171,"y":2570596.9600000028}},{"attributes":{"ID":478712,"DIS_CODE":0,"TOWNNAME":"學甲區","LI":"明宜里","LIN":"20鄰","STREET":"重信路","SECT":" ","MAREA":" ","LANE":" ","ALLEY":" ","HOUSE_NO":"２５號","E_COORD97":165961.75,"N_COORD97":2570598.8500000001,"ADDRESS":"重信路２５號","OBJECTID":478687},"geometry":{"x":165961.75,"y":2570598.8500000034}},{"attributes":{"ID":478713,"DIS_CODE":0,"TOWNNAME":"學甲區","LI":"明宜里","LIN":"20鄰","STREET":"重信路","SECT":" ","MAREA":" ","LANE":" ","ALLEY":" ","HOUSE_NO":"２７號","E_COORD97":165955.29999999999,"N_COORD97":2570597.3399999999,"ADDRESS":"重信路２７號","OBJECTID":478688},"geometry":{"x":165955.30000000075,"y":2570597.3399999999}},{"attributes":{"ID":478714,"DIS_CODE":0,"TOWNNAME":"學甲區","LI":"明宜里","LIN":"20鄰","STREET":"重信路","SECT":" ","MAREA":" ","LANE":" ","ALLEY":" ","HOUSE_NO":"２９號之１","E_COORD97":165948.82999999999,"N_COORD97":2570601.21,"ADDRESS":"重信路２９號之１","OBJECTID":478689},"geometry":{"x":165948.83000000101,"y":2570601.2100000046}},{"attributes":{"ID":478715,"DIS_CODE":0,"TOWNNAME":"學甲區","LI":"明宜里","LIN":"20鄰","STREET":"重信路","SECT":" ","MAREA":" ","LANE":" ","ALLEY":" ","HOUSE_NO":"２９號之２","E_COORD97":165952.01000000001,"N_COORD97":2570597.6899999999,"ADDRESS":"重信路２９號之２","OBJECTID":478690},"geometry":{"x":165952.01000000071,"y":2570597.6900000013}},{"attributes":{"ID":478716,"DIS_CODE":0,"TOWNNAME":"學甲區","LI":"明宜里","LIN":"20鄰","STREET":"重信路","SECT":" ","MAREA":" ","LANE":" ","ALLEY":" ","HOUSE_NO":"２９號","E_COORD97":165945.51000000001,"N_COORD97":2570602.04,"ADDRESS":"重信路２９號","OBJECTID":478691},"geometry":{"x":165945.51000000071,"y":2570602.0399999991}},{"attributes":{"ID":478717,"DIS_CODE":0,"TOWNNAME":"歸仁區","LI":"八甲里","LIN":"20鄰","STREET":"大仁街","SECT":" ","MAREA":" ","LANE":" ","ALLEY":" ","HOUSE_NO":"２７０號","E_COORD97":178347.57000000001,"N_COORD97":2541262.1099999999,"ADDRESS":"大仁街２７０號","OBJECTID":478692},"geometry":{"x":178347.57000000123,"y":2541262.1099999994}},{"attributes":{"ID":478718,"DIS_CODE":0,"TOWNNAME":"歸仁區","LI":"八甲里","LIN":"20鄰","STREET":"大仁三街","SECT":" ","MAREA":" ","LANE":" ","ALLEY":" ","HOUSE_NO":"５５號","E_COORD97":178320.89000000001,"N_COORD97":2541380.2400000002,"ADDRESS":"大仁三街５５號","OBJECTID":478693},"geometry":{"x":178320.8900000006,"y":2541380.2400000002}},{"attributes":{"ID":478719,"DIS_CODE":0,"TOWNNAME":"歸仁區","LI":"八甲里","LIN":"20鄰","STREET":"大仁三街","SECT":" ","MAREA":" ","LANE":" ","ALLEY":" ","HOUSE_NO":"１００號","E_COORD97":178235.14000000001,"N_COORD97":2541424.25,"ADDRESS":"大仁三街１００號","OBJECTID":478694},"geometry":{"x":178235.13999999966,"y":2541424.25}},{"attributes":{"ID":478720,"DIS_CODE":0,"TOWNNAME":"安平區","LI":"怡平里","LIN":"25鄰","STREET":"永華路","SECT":"二段","MAREA":" ","LANE":" ","ALLEY":" ","HOUSE_NO":"５０２號","E_COORD97":165394.89000000001,"N_COORD97":2543514.8500000001,"ADDRESS":"永華路二段５０２號","OBJECTID":478695},"geometry":{"x":165394.8900000006,"y":2543514.8499999996}},{"attributes":{"ID":478721,"DIS_CODE":0,"TOWNNAME":"新營區","LI":"民權里","LIN":" ","STREET":"信義街","SECT":" ","MAREA":" ","LANE":" ","ALLEY":" ","HOUSE_NO":"１９號","E_COORD97":179943.75,"N_COORD97":2578175.3999999999,"ADDRESS":"信義街１９號","OBJECTID":478696},"geometry":{"x":179943.75,"y":2578175.4000000004}},{"attributes":{"ID":478722,"DIS_CODE":0,"TOWNNAME":"楠西區","LI":"楠西里","LIN":"20鄰","STREET":"民族路","SECT":" ","MAREA":" ","LANE":" ","ALLEY":" ","HOUSE_NO":"３７號","E_COORD97":197034.94,"N_COORD97":2563912.29,"ADDRESS":"民族路３７號","OBJECTID":478697},"geometry":{"x":197034.94000000041,"y":2563912.2899999991}},{"attributes":{"ID":478723,"DIS_CODE":0,"TOWNNAME":"楠西區","LI":"楠西里","LIN":"20鄰","STREET":"民族路","SECT":" ","MAREA":" ","LANE":" ","ALLEY":" ","HOUSE_NO":"６０號","E_COORD97":197017.04000000001,"N_COORD97":2563976.29,"ADDRESS":"民族路６０號","OBJECTID":478698},"geometry":{"x":197017.04000000004,"y":2563976.2899999991}},{"attributes":{"ID":478724,"DIS_CODE":0,"TOWNNAME":"楠西區","LI":"楠西里","LIN":"20鄰","STREET":"民族路","SECT":" ","MAREA":" ","LANE":" ","ALLEY":" ","HOUSE_NO":"４７號","E_COORD97":197035.44,"N_COORD97":2563934.29,"ADDRESS":"民族路４７號","OBJECTID":478699},"geometry":{"x":197035.44000000041,"y":2563934.290000001}},{"attributes":{"ID":478725,"DIS_CODE":0,"TOWNNAME":"楠西區","LI":"楠西里","LIN":"20鄰","STREET":"民族路","SECT":" ","MAREA":" ","LANE":" ","ALLEY":" ","HOUSE_NO":"３１號","E_COORD97":197032.64000000001,"N_COORD97":2563894.29,"ADDRESS":"民族路３１號","OBJECTID":478700},"geometry":{"x":197032.6400000006,"y":2563894.2899999991}},{"attributes":{"ID":478726,"DIS_CODE":0,"TOWNNAME":"楠西區","LI":"楠西里","LIN":"20鄰","STREET":"民族路","SECT":" ","MAREA":" ","LANE":" ","ALLEY":" ","HOUSE_NO":"６２號","E_COORD97":197017.04000000001,"N_COORD97":2563982.29,"ADDRESS":"民族路６２號","OBJECTID":478701},"geometry":{"x":197017.04000000004,"y":2563982.2899999991}},{"attributes":{"ID":478727,"DIS_CODE":0,"TOWNNAME":"楠西區","LI":"東勢里","LIN":"20鄰","STREET":"民權路","SECT":" ","MAREA":" ","LANE":" ","ALLEY":" ","HOUSE_NO":"８６號","E_COORD97":197504.23999999999,"N_COORD97":2564254.29,"ADDRESS":"民權路８６號","OBJECTID":478702},"geometry":{"x":197504.24000000022,"y":2564254.2899999991}},{"attributes":{"ID":478728,"DIS_CODE":0,"TOWNNAME":"柳營區","LI":"東昇里","LIN":"20鄰","STREET":"十美街","SECT":" ","MAREA":" ","LANE":" ","ALLEY":" ","HOUSE_NO":"２３６號","E_COORD97":180389.07999999999,"N_COORD97":2575552.21,"ADDRESS":"十美街２３６號","OBJECTID":478703},"geometry":{"x":180389.08000000007,"y":2575552.2100000028}},{"attributes":{"ID":478729,"DIS_CODE":0,"TOWNNAME":"柳營區","LI":"東昇里","LIN":"20鄰","STREET":"十美街","SECT":" ","MAREA":" ","LANE":" ","ALLEY":" ","HOUSE_NO":"２３８號","E_COORD97":180384.97,"N_COORD97":2575552.1299999999,"ADDRESS":"十美街２３８號","OBJECTID":478704},"geometry":{"x":180384.97000000067,"y":2575552.129999999}},{"attributes":{"ID":478730,"DIS_CODE":0,"TOWNNAME":"柳營區","LI":"東昇里","LIN":"20鄰","STREET":"十美街","SECT":" ","MAREA":" ","LANE":" ","ALLEY":" ","HOUSE_NO":"２４２號","E_COORD97":180380.87,"N_COORD97":2575552.0600000001,"ADDRESS":"十美街２４２號","OBJECTID":478705},"geometry":{"x":180380.87000000104,"y":2575552.0600000024}},{"attributes":{"ID":478731,"DIS_CODE":0,"TOWNNAME":"柳營區","LI":"東昇里","LIN":"20鄰","STREET":"十美街","SECT":" ","MAREA":" ","LANE":" ","ALLEY":" ","HOUSE_NO":"２４６號","E_COORD97":180376.76999999999,"N_COORD97":2575551.98,"ADDRESS":"十美街２４６號","OBJECTID":478706},"geometry":{"x":180376.76999999955,"y":2575551.9800000042}},{"attributes":{"ID":478732,"DIS_CODE":0,"TOWNNAME":"新營區","LI":"新南里","LIN":"20鄰","STREET":"復興路","SECT":" ","MAREA":" ","LANE":" ","ALLEY":" ","HOUSE_NO":"５００號","E_COORD97":178274.07000000001,"N_COORD97":2578266.46,"ADDRESS":"復興路５００號","OBJECTID":478707},"geometry":{"x":178274.07000000216,"y":2578266.4600000028}},{"attributes":{"ID":478733,"DIS_CODE":0,"TOWNNAME":"新營區","LI":"民權里","LIN":"20鄰","STREET":"仁愛街","SECT":" ","MAREA":" ","LANE":" ","ALLEY":" ","HOUSE_NO":"４７號之７","E_COORD97":179748.12,"N_COORD97":2578284.9199999999,"ADDRESS":"仁愛街４７號之７","OBJECTID":478708},"geometry":{"x":179748.12000000011,"y":2578284.9200000018}},{"attributes":{"ID":478734,"DIS_CODE":0,"TOWNNAME":"新營區","LI":"新北里","LIN":"20鄰","STREET":"金華路","SECT":"一段","MAREA":" ","LANE":" ","ALLEY":" ","HOUSE_NO":"３７２號","E_COORD97":179037.39000000001,"N_COORD97":2579157.6099999999,"ADDRESS":"金華路一段３７２號","OBJECTID":478709},"geometry":{"x":179037.38999999873,"y":2579157.6100000031}},{"attributes":{"ID":478735,"DIS_CODE":0,"TOWNNAME":"新營區","LI":"新北里","LIN":"20鄰","STREET":"金華路","SECT":"一段","MAREA":" ","LANE":" ","ALLEY":" ","HOUSE_NO":"３５６號","E_COORD97":179062.04000000001,"N_COORD97":2579180.75,"ADDRESS":"金華路一段３５６號","OBJECTID":478710},"geometry":{"x":179062.04000000004,"y":2579180.7500000037}},{"attributes":{"ID":478736,"DIS_CODE":0,"TOWNNAME":"新營區","LI":"王公里","LIN":"20鄰","STREET":"樂利街","SECT":" ","MAREA":" ","LANE":" ","ALLEY":" ","HOUSE_NO":"２０號","E_COORD97":180401.01000000001,"N_COORD97":2579257.4500000002,"ADDRESS":"樂利街２０號","OBJECTID":478711},"geometry":{"x":180401.00999999978,"y":2579257.4500000011}},{"attributes":{"ID":478737,"DIS_CODE":0,"TOWNNAME":"新營區","LI":"三仙里","LIN":"20鄰","STREET":"三民路","SECT":" ","MAREA":" ","LANE":" ","ALLEY":" ","HOUSE_NO":"１４８之５號","E_COORD97":179494.07000000001,"N_COORD97":2578393.5600000001,"ADDRESS":"三民路１４８之５號","OBJECTID":478712},"geometry":{"x":179494.0700000003,"y":2578393.5600000024}},{"attributes":{"ID":478738,"DIS_CODE":0,"TOWNNAME":"新營區","LI":"新南里","LIN":"20鄰","STREET":"復興路","SECT":" ","MAREA":" ","LANE":" ","ALLEY":" ","HOUSE_NO":"４０８號","E_COORD97":178457.07000000001,"N_COORD97":2578233.46,"ADDRESS":"復興路４０８號","OBJECTID":478713},"geometry":{"x":178457.06999999937,"y":2578233.4600000009}},{"attributes":{"ID":478739,"DIS_CODE":0,"TOWNNAME":"新營區","LI":"三仙里","LIN":"20鄰","STREET":"三民路","SECT":" ","MAREA":" ","LANE":" ","ALLEY":" ","HOUSE_NO":"１４０之３４號","E_COORD97":179549.07000000001,"N_COORD97":2578446.46,"ADDRESS":"三民路１４０之３４號","OBJECTID":478714},"geometry":{"x":179549.07000000123,"y":2578446.4600000009}},{"attributes":{"ID":478740,"DIS_CODE":0,"TOWNNAME":"新營區","LI":"三仙里","LIN":"20鄰","STREET":"三民路","SECT":" ","MAREA":" ","LANE":" ","ALLEY":" ","HOUSE_NO":"１４８號之３","E_COORD97":179506.39999999999,"N_COORD97":2578396.8199999998,"ADDRESS":"三民路１４８號之３","OBJECTID":478715},"geometry":{"x":179506.4000000013,"y":2578396.8200000003}},{"attributes":{"ID":478741,"DIS_CODE":0,"TOWNNAME":"南區","LI":"南華里","LIN":"20鄰","STREET":"金華路","SECT":"一段","MAREA":" ","LANE":" ","ALLEY":" ","HOUSE_NO":"３１號","E_COORD97":166855.35000000001,"N_COORD97":2540315.4399999999,"ADDRESS":"金華路一段３１號","OBJECTID":478716},"geometry":{"x":166855.34999999963,"y":2540315.4400000013}},{"attributes":{"ID":478742,"DIS_CODE":0,"TOWNNAME":"安平區","LI":"怡平里","LIN":"20鄰","STREET":"文平路","SECT":" ","MAREA":" ","LANE":" ","ALLEY":" ","HOUSE_NO":"４３９號","E_COORD97":165792.85999999999,"N_COORD97":2543806.9900000002,"ADDRESS":"文平路４３９號","OBJECTID":478717},"geometry":{"x":165792.86000000127,"y":2543806.9900000002}},{"attributes":{"ID":478743,"DIS_CODE":0,"TOWNNAME":"安平區","LI":"怡平里","LIN":"20鄰","STREET":"文平路","SECT":" ","MAREA":" ","LANE":" ","ALLEY":" ","HOUSE_NO":"４４１號","E_COORD97":165794.16,"N_COORD97":2543811.21,"ADDRESS":"文平路４４１號","OBJECTID":478718},"geometry":{"x":165794.16000000108,"y":2543811.2100000028}},{"attributes":{"ID":478744,"DIS_CODE":0,"TOWNNAME":"安平區","LI":"怡平里","LIN":"20鄰","STREET":"怡平路","SECT":" ","MAREA":" ","LANE":" ","ALLEY":" ","HOUSE_NO":"３４４號","E_COORD97":165750.10000000001,"N_COORD97":2543795.0800000001,"ADDRESS":"怡平路３４４號","OBJECTID":478719},"geometry":{"x":165750.09999999963,"y":2543795.0800000001}},{"attributes":{"ID":478745,"DIS_CODE":0,"TOWNNAME":"安平區","LI":"怡平里","LIN":"20鄰","STREET":"怡平路","SECT":" ","MAREA":" ","LANE":" ","ALLEY":" ","HOUSE_NO":"３４６號","E_COORD97":165745.87,"N_COORD97":2543795.0800000001,"ADDRESS":"怡平路３４６號","OBJECTID":478720},"geometry":{"x":165745.87000000011,"y":2543795.0800000001}},{"attributes":{"ID":478746,"DIS_CODE":0,"TOWNNAME":"安平區","LI":"怡平里","LIN":"20鄰","STREET":"怡平路","SECT":" ","MAREA":" ","LANE":" ","ALLEY":" ","HOUSE_NO":"３４８號","E_COORD97":165738.72,"N_COORD97":2543793.46,"ADDRESS":"怡平路３４８號","OBJECTID":478721},"geometry":{"x":165738.72000000067,"y":2543793.4600000009}},{"attributes":{"ID":478747,"DIS_CODE":0,"TOWNNAME":"安平區","LI":"怡平里","LIN":"20鄰","STREET":"怡平路","SECT":" ","MAREA":" ","LANE":" ","ALLEY":" ","HOUSE_NO":"３５０號","E_COORD97":165733.85000000001,"N_COORD97":2543792.8100000001,"ADDRESS":"怡平路３５０號","OBJECTID":478722},"geometry":{"x":165733.85000000149,"y":2543792.8100000024}},{"attributes":{"ID":478748,"DIS_CODE":0,"TOWNNAME":"安平區","LI":"怡平里","LIN":"20鄰","STREET":"怡平路","SECT":" ","MAREA":" ","LANE":" ","ALLEY":" ","HOUSE_NO":"３５２號","E_COORD97":165728.64999999999,"N_COORD97":2543793.1400000001,"ADDRESS":"怡平路３５２號","OBJECTID":478723},"geometry":{"x":165728.65000000037,"y":2543793.1399999987}},{"attributes":{"ID":478749,"DIS_CODE":0,"TOWNNAME":"安平區","LI":"怡平里","LIN":"20鄰","STREET":"怡平路","SECT":" ","MAREA":" ","LANE":" ","ALLEY":" ","HOUSE_NO":"３５４號","E_COORD97":165723.13,"N_COORD97":2543794.1099999999,"ADDRESS":"怡平路３５４號","OBJECTID":478724},"geometry":{"x":165723.12999999989,"y":2543794.1099999994}},{"attributes":{"ID":478750,"DIS_CODE":0,"TOWNNAME":"安平區","LI":"怡平里","LIN":"20鄰","STREET":"怡平路","SECT":" ","MAREA":" ","LANE":" ","ALLEY":" ","HOUSE_NO":"３５６號","E_COORD97":165718.57999999999,"N_COORD97":2543794.1099999999,"ADDRESS":"怡平路３５６號","OBJECTID":478725},"geometry":{"x":165718.58000000007,"y":2543794.1099999994}},{"attributes":{"ID":478751,"DIS_CODE":0,"TOWNNAME":"安平區","LI":"怡平里","LIN":"20鄰","STREET":"怡平路","SECT":" ","MAREA":" ","LANE":" ","ALLEY":" ","HOUSE_NO":"３５８號","E_COORD97":165714.03,"N_COORD97":2543794.1099999999,"ADDRESS":"怡平路３５８號","OBJECTID":478726},"geometry":{"x":165714.03000000026,"y":2543794.1099999994}},{"attributes":{"ID":478752,"DIS_CODE":0,"TOWNNAME":"安平區","LI":"怡平里","LIN":"20鄰","STREET":"怡平路","SECT":" ","MAREA":" ","LANE":" ","ALLEY":" ","HOUSE_NO":"３６０號","E_COORD97":165709.48000000001,"N_COORD97":2543795.0800000001,"ADDRESS":"怡平路３６０號","OBJECTID":478727},"geometry":{"x":165709.48000000045,"y":2543795.0800000001}},{"attributes":{"ID":478753,"DIS_CODE":0,"TOWNNAME":"安平區","LI":"怡平里","LIN":"20鄰","STREET":"怡平路","SECT":" ","MAREA":" ","LANE":" ","ALLEY":" ","HOUSE_NO":"３６２號","E_COORD97":165703.31,"N_COORD97":2543794.7599999998,"ADDRESS":"怡平路３６２號","OBJECTID":478728},"geometry":{"x":165703.30999999959,"y":2543794.7599999998}},{"attributes":{"ID":478754,"DIS_CODE":0,"TOWNNAME":"安平區","LI":"怡平里","LIN":"20鄰","STREET":"怡平路","SECT":" ","MAREA":" ","LANE":" ","ALLEY":" ","HOUSE_NO":"３６４號","E_COORD97":165697.45999999999,"N_COORD97":2543796.3799999999,"ADDRESS":"怡平路３６４號","OBJECTID":478729},"geometry":{"x":165697.45999999996,"y":2543796.379999999}},{"attributes":{"ID":478755,"DIS_CODE":0,"TOWNNAME":"安平區","LI":"怡平里","LIN":"20鄰","STREET":"怡平路","SECT":" ","MAREA":" ","LANE":" ","ALLEY":" ","HOUSE_NO":"３６６號","E_COORD97":165692.91,"N_COORD97":2543797.0299999998,"ADDRESS":"怡平路３６６號","OBJECTID":478730},"geometry":{"x":165692.91000000015,"y":2543797.0300000012}},{"attributes":{"ID":478756,"DIS_CODE":0,"TOWNNAME":"安平區","LI":"怡平里","LIN":"20鄰","STREET":"怡平路","SECT":" ","MAREA":" ","LANE":" ","ALLEY":" ","HOUSE_NO":"３６８號","E_COORD97":165689.32999999999,"N_COORD97":2543798.3300000001,"ADDRESS":"怡平路３６８號","OBJECTID":478731},"geometry":{"x":165689.33000000101,"y":2543798.3300000038}},{"attributes":{"ID":478757,"DIS_CODE":0,"TOWNNAME":"安平區","LI":"怡平里","LIN":"20鄰","STREET":"怡平路","SECT":" ","MAREA":" ","LANE":" ","ALLEY":" ","HOUSE_NO":"３７０號","E_COORD97":165683.16,"N_COORD97":2543798.3300000001,"ADDRESS":"怡平路３７０號","OBJECTID":478732},"geometry":{"x":165683.16000000201,"y":2543798.3300000038}},{"attributes":{"ID":478758,"DIS_CODE":0,"TOWNNAME":"安平區","LI":"文平里","LIN":"20鄰","STREET":"建平一街","SECT":" ","MAREA":" ","LANE":" ","ALLEY":" ","HOUSE_NO":"１０７號","E_COORD97":165735.66,"N_COORD97":2542756.3399999999,"ADDRESS":"建平一街１０７號","OBJECTID":478733},"geometry":{"x":165735.66000000201,"y":2542756.3399999999}},{"attributes":{"ID":478759,"DIS_CODE":0,"TOWNNAME":"安平區","LI":"文平里","LIN":"20鄰","STREET":"建平一街","SECT":" ","MAREA":" ","LANE":" ","ALLEY":" ","HOUSE_NO":"１０９號","E_COORD97":165731.06,"N_COORD97":2542757.2400000002,"ADDRESS":"建平一街１０９號","OBJECTID":478734},"geometry":{"x":165731.06000000052,"y":2542757.2400000002}},{"attributes":{"ID":478760,"DIS_CODE":0,"TOWNNAME":"東區","LI":"大德里","LIN":"20鄰","STREET":"立德十一路","SECT":" ","MAREA":" ","LANE":" ","ALLEY":" ","HOUSE_NO":"２號八樓","E_COORD97":169417.32999999999,"N_COORD97":2542072.04,"ADDRESS":"立德十一路２號八樓","OBJECTID":478735},"geometry":{"x":169417.33000000007,"y":2542072.0399999991}},{"attributes":{"ID":478761,"DIS_CODE":0,"TOWNNAME":"安平區","LI":"文平里","LIN":"20鄰","STREET":"建平一街","SECT":" ","MAREA":" ","LANE":" ","ALLEY":" ","HOUSE_NO":"１１１號","E_COORD97":165727.06,"N_COORD97":2542758.04,"ADDRESS":"建平一街１１１號","OBJECTID":478736},"geometry":{"x":165727.05999999959,"y":2542758.0399999991}},{"attributes":{"ID":478762,"DIS_CODE":0,"TOWNNAME":"安平區","LI":"文平里","LIN":"20鄰","STREET":"建平一街","SECT":" ","MAREA":" ","LANE":" ","ALLEY":" ","HOUSE_NO":"１１３號","E_COORD97":165723.26999999999,"N_COORD97":2542758.7400000002,"ADDRESS":"建平一街１１３號","OBJECTID":478737},"geometry":{"x":165723.27000000048,"y":2542758.7400000021}},{"attributes":{"ID":478763,"DIS_CODE":0,"TOWNNAME":"安平區","LI":"文平里","LIN":"20鄰","STREET":"建平一街","SECT":" ","MAREA":" ","LANE":" ","ALLEY":" ","HOUSE_NO":"１１５號","E_COORD97":165718.87,"N_COORD97":2542759.04,"ADDRESS":"建平一街１１５號","OBJECTID":478738},"geometry":{"x":165718.86999999918,"y":2542759.040000001}},{"attributes":{"ID":478764,"DIS_CODE":0,"TOWNNAME":"學甲區","LI":"慈福里","LIN":"20鄰","STREET":"濟生路","SECT":" ","MAREA":" ","LANE":" ","ALLEY":" ","HOUSE_NO":"１３８號","E_COORD97":166159.07999999999,"N_COORD97":2570320.4700000002,"ADDRESS":"濟生路１３８號","OBJECTID":478739},"geometry":{"x":166159.08000000101,"y":2570320.4700000007}},{"attributes":{"ID":478765,"DIS_CODE":0,"TOWNNAME":"學甲區","LI":"慈福里","LIN":"20鄰","STREET":"濟生路","SECT":" ","MAREA":" ","LANE":" ","ALLEY":" ","HOUSE_NO":"１４０號","E_COORD97":166155.07000000001,"N_COORD97":2570320.9199999999,"ADDRESS":"濟生路１４０號","OBJECTID":478740},"geometry":{"x":166155.06999999937,"y":2570320.9200000018}},{"attributes":{"ID":478766,"DIS_CODE":0,"TOWNNAME":"學甲區","LI":"慈福里","LIN":"20鄰","STREET":"濟生路","SECT":" ","MAREA":" ","LANE":" ","ALLEY":" ","HOUSE_NO":"１４２號","E_COORD97":166150.63,"N_COORD97":2570321.6200000001,"ADDRESS":"濟生路１４２號","OBJECTID":478741},"geometry":{"x":166150.62999999989,"y":2570321.6200000029}},{"attributes":{"ID":478767,"DIS_CODE":0,"TOWNNAME":"學甲區","LI":"慈福里","LIN":"20鄰","STREET":"濟生路","SECT":" ","MAREA":" ","LANE":" ","ALLEY":" ","HOUSE_NO":"１４４號","E_COORD97":166146.64999999999,"N_COORD97":2570322.2599999998,"ADDRESS":"濟生路１４４號","OBJECTID":478742},"geometry":{"x":166146.6500000013,"y":2570322.2600000016}},{"attributes":{"ID":478768,"DIS_CODE":0,"TOWNNAME":"學甲區","LI":"慈福里","LIN":"20鄰","STREET":"濟生路","SECT":" ","MAREA":" ","LANE":" ","ALLEY":" ","HOUSE_NO":"１４６號","E_COORD97":166140.60000000001,"N_COORD97":2570345.1299999999,"ADDRESS":"濟生路１４６號","OBJECTID":478743},"geometry":{"x":166140.5999999987,"y":2570345.1300000027}},{"attributes":{"ID":478769,"DIS_CODE":0,"TOWNNAME":"南區","LI":"廣州里","LIN":"20鄰","STREET":"福吉四街","SECT":" ","MAREA":" ","LANE":" ","ALLEY":" ","HOUSE_NO":"２７號","E_COORD97":167256.56,"N_COORD97":2542633.4900000002,"ADDRESS":"福吉四街２７號","OBJECTID":478744},"geometry":{"x":167256.56000000052,"y":2542633.4900000002}},{"attributes":{"ID":478770,"DIS_CODE":0,"TOWNNAME":"北區","LI":"成德里","LIN":"20鄰","STREET":"文成一路","SECT":" ","MAREA":" ","LANE":" ","ALLEY":" ","HOUSE_NO":"１６０號","E_COORD97":168396.85999999999,"N_COORD97":2546072.5499999998,"ADDRESS":"文成一路１６０號","OBJECTID":478745},"geometry":{"x":168396.86000000034,"y":2546072.5500000045}},{"attributes":{"ID":478771,"DIS_CODE":0,"TOWNNAME":"東區","LI":"富裕里","LIN":"20鄰","STREET":"裕豐街","SECT":" ","MAREA":" ","LANE":" ","ALLEY":" ","HOUSE_NO":"１２號三樓","E_COORD97":170771.32999999999,"N_COORD97":2542705.7999999998,"ADDRESS":"裕豐街１２號三樓","OBJECTID":478746},"geometry":{"x":170771.33000000101,"y":2542705.8000000026}},{"attributes":{"ID":478772,"DIS_CODE":0,"TOWNNAME":"北區","LI":"成德里","LIN":"20鄰","STREET":"文成一路","SECT":" ","MAREA":" ","LANE":" ","ALLEY":" ","HOUSE_NO":"１５２號","E_COORD97":168414.64000000001,"N_COORD97":2546072.6800000002,"ADDRESS":"文成一路１５２號","OBJECTID":478747},"geometry":{"x":168414.63999999966,"y":2546072.6799999997}},{"attributes":{"ID":478773,"DIS_CODE":0,"TOWNNAME":"北區","LI":"成德里","LIN":"20鄰","STREET":"文成一路","SECT":" ","MAREA":" ","LANE":" ","ALLEY":" ","HOUSE_NO":"１５６號","E_COORD97":168407.53,"N_COORD97":2546072.6800000002,"ADDRESS":"文成一路１５６號","OBJECTID":478748},"geometry":{"x":168407.53000000026,"y":2546072.6799999997}},{"attributes":{"ID":478774,"DIS_CODE":0,"TOWNNAME":"北區","LI":"成德里","LIN":"20鄰","STREET":"文成一路","SECT":" ","MAREA":" ","LANE":" ","ALLEY":" ","HOUSE_NO":"１６２號","E_COORD97":168389.75,"N_COORD97":2546072.9300000002,"ADDRESS":"文成一路１６２號","OBJECTID":478749},"geometry":{"x":168389.75000000093,"y":2546072.9300000016}},{"attributes":{"ID":478775,"DIS_CODE":0,"TOWNNAME":"北區","LI":"成德里","LIN":"20鄰","STREET":"文成一路","SECT":" ","MAREA":" ","LANE":" ","ALLEY":" ","HOUSE_NO":"１６８之１號","E_COORD97":168370.19,"N_COORD97":2546073.8199999998,"ADDRESS":"文成一路１６８之１號","OBJECTID":478750},"geometry":{"x":168370.19000000227,"y":2546073.820000004}},{"attributes":{"ID":478776,"DIS_CODE":0,"TOWNNAME":"北區","LI":"成德里","LIN":"20鄰","STREET":"文成三路","SECT":" ","MAREA":" ","LANE":" ","ALLEY":" ","HOUSE_NO":"１９５號","E_COORD97":168488.67999999999,"N_COORD97":2546348.7200000002,"ADDRESS":"文成三路１９５號","OBJECTID":478751},"geometry":{"x":168488.68000000063,"y":2546348.7200000007}},{"attributes":{"ID":478777,"DIS_CODE":0,"TOWNNAME":"北區","LI":"成德里","LIN":"20鄰","STREET":"文成二路","SECT":" ","MAREA":" ","LANE":" ","ALLEY":" ","HOUSE_NO":"２１０號","E_COORD97":168489.17999999999,"N_COORD97":2546186.4100000001,"ADDRESS":"文成二路２１０號","OBJECTID":478752},"geometry":{"x":168489.1799999997,"y":2546186.4100000001}},{"attributes":{"ID":478778,"DIS_CODE":0,"TOWNNAME":"北區","LI":"成德里","LIN":"20鄰","STREET":"文成二路","SECT":" ","MAREA":" ","LANE":" ","ALLEY":" ","HOUSE_NO":"２１８號","E_COORD97":168459.59,"N_COORD97":2546185.6499999999,"ADDRESS":"文成二路２１８號","OBJECTID":478753},"geometry":{"x":168459.58999999985,"y":2546185.6500000004}},{"attributes":{"ID":478779,"DIS_CODE":0,"TOWNNAME":"北區","LI":"成德里","LIN":"20鄰","STREET":"文成二路","SECT":" ","MAREA":" ","LANE":" ","ALLEY":" ","HOUSE_NO":"２２０號","E_COORD97":168452.60000000001,"N_COORD97":2546185.7799999998,"ADDRESS":"文成二路２２０號","OBJECTID":478754},"geometry":{"x":168452.59999999963,"y":2546185.7800000012}},{"attributes":{"ID":478780,"DIS_CODE":0,"TOWNNAME":"北區","LI":"成德里","LIN":"20鄰","STREET":"文成二路","SECT":" ","MAREA":" ","LANE":" ","ALLEY":" ","HOUSE_NO":"２２２號","E_COORD97":168445.87,"N_COORD97":2546186.0299999998,"ADDRESS":"文成二路２２２號","OBJECTID":478755},"geometry":{"x":168445.87000000011,"y":2546186.0299999993}},{"attributes":{"ID":478781,"DIS_CODE":0,"TOWNNAME":"北區","LI":"成德里","LIN":"20鄰","STREET":"文成二路","SECT":" ","MAREA":" ","LANE":" ","ALLEY":" ","HOUSE_NO":"２２６號","E_COORD97":168438.76000000001,"N_COORD97":2546186.3500000001,"ADDRESS":"文成二路２２６號","OBJECTID":478756},"geometry":{"x":168438.76000000071,"y":2546186.3499999996}},{"attributes":{"ID":478782,"DIS_CODE":0,"TOWNNAME":"北區","LI":"成德里","LIN":"20鄰","STREET":"文成二路","SECT":" ","MAREA":" ","LANE":" ","ALLEY":" ","HOUSE_NO":"２２８號","E_COORD97":168432.92000000001,"N_COORD97":2546186.48,"ADDRESS":"文成二路２２８號","OBJECTID":478757},"geometry":{"x":168432.92000000086,"y":2546186.4800000004}},{"attributes":{"ID":478783,"DIS_CODE":0,"TOWNNAME":"北區","LI":"成德里","LIN":"20鄰","STREET":"文成二路","SECT":" ","MAREA":" ","LANE":" ","ALLEY":" ","HOUSE_NO":"２３６號","E_COORD97":168411.07000000001,"N_COORD97":2546188,"ADDRESS":"文成二路２３６號","OBJECTID":478758},"geometry":{"x":168411.0700000003,"y":2546188.0000000019}},{"attributes":{"ID":478784,"DIS_CODE":0,"TOWNNAME":"北區","LI":"成德里","LIN":"20鄰","STREET":"文成二路","SECT":" ","MAREA":" ","LANE":" ","ALLEY":" ","HOUSE_NO":"２３８號","E_COORD97":168405.23000000001,"N_COORD97":2546188,"ADDRESS":"文成二路２３８號","OBJECTID":478759},"geometry":{"x":168405.23000000045,"y":2546188.0000000019}},{"attributes":{"ID":478785,"DIS_CODE":0,"TOWNNAME":"北區","LI":"成德里","LIN":"20鄰","STREET":"文成二路","SECT":" ","MAREA":" ","LANE":" ","ALLEY":" ","HOUSE_NO":"２４０號","E_COORD97":168399.26000000001,"N_COORD97":2546188.1299999999,"ADDRESS":"文成二路２４０號","OBJECTID":478760},"geometry":{"x":168399.25999999978,"y":2546188.129999999}},{"attributes":{"ID":478786,"DIS_CODE":0,"TOWNNAME":"北區","LI":"成德里","LIN":"20鄰","STREET":"文成二路","SECT":" ","MAREA":" ","LANE":" ","ALLEY":" ","HOUSE_NO":"２４２號","E_COORD97":168392.66,"N_COORD97":2546188.2599999998,"ADDRESS":"文成二路２４２號","OBJECTID":478761},"geometry":{"x":168392.66000000108,"y":2546188.2599999998}},{"attributes":{"ID":478787,"DIS_CODE":0,"TOWNNAME":"北區","LI":"成德里","LIN":"20鄰","STREET":"文成三路","SECT":" ","MAREA":" ","LANE":" ","ALLEY":" ","HOUSE_NO":"１９７號","E_COORD97":168480.54000000001,"N_COORD97":2546347.0099999998,"ADDRESS":"文成三路１９７號","OBJECTID":478762},"geometry":{"x":168480.54000000004,"y":2546347.0100000016}},{"attributes":{"ID":478788,"DIS_CODE":0,"TOWNNAME":"北區","LI":"成德里","LIN":"20鄰","STREET":"文成三路","SECT":" ","MAREA":" ","LANE":" ","ALLEY":" ","HOUSE_NO":"２２３號","E_COORD97":168423.57999999999,"N_COORD97":2546335.8999999999,"ADDRESS":"文成三路２２３號","OBJECTID":478763},"geometry":{"x":168423.58000000101,"y":2546335.9000000004}},{"attributes":{"ID":478789,"DIS_CODE":0,"TOWNNAME":"北區","LI":"成德里","LIN":"20鄰","STREET":"文成三路","SECT":" ","MAREA":" ","LANE":" ","ALLEY":" ","HOUSE_NO":"２２５號","E_COORD97":168418.37,"N_COORD97":2546334.5,"ADDRESS":"文成三路２２５號","OBJECTID":478764},"geometry":{"x":168418.37000000104,"y":2546334.5000000019}},{"attributes":{"ID":478790,"DIS_CODE":0,"TOWNNAME":"北區","LI":"成德里","LIN":"20鄰","STREET":"文成三路","SECT":" ","MAREA":" ","LANE":" ","ALLEY":" ","HOUSE_NO":"２２７號","E_COORD97":168412.78,"N_COORD97":2546332.4700000002,"ADDRESS":"文成三路２２７號","OBJECTID":478765},"geometry":{"x":168412.78000000026,"y":2546332.4700000007}},{"attributes":{"ID":478791,"DIS_CODE":0,"TOWNNAME":"北區","LI":"成德里","LIN":"20鄰","STREET":"文成三路","SECT":" ","MAREA":" ","LANE":" ","ALLEY":" ","HOUSE_NO":"２２９號","E_COORD97":168407.07000000001,"N_COORD97":2546331.0800000001,"ADDRESS":"文成三路２２９號","OBJECTID":478766},"geometry":{"x":168407.07000000123,"y":2546331.0800000001}},{"attributes":{"ID":478792,"DIS_CODE":0,"TOWNNAME":"北區","LI":"成德里","LIN":"20鄰","STREET":"文成三路","SECT":" ","MAREA":" ","LANE":" ","ALLEY":" ","HOUSE_NO":"２３１號","E_COORD97":168401.73999999999,"N_COORD97":2546330.1899999999,"ADDRESS":"文成三路２３１號","OBJECTID":478767},"geometry":{"x":168401.74000000209,"y":2546330.1899999995}},{"attributes":{"ID":478793,"DIS_CODE":0,"TOWNNAME":"北區","LI":"成德里","LIN":"20鄰","STREET":"文成三路","SECT":" ","MAREA":" ","LANE":" ","ALLEY":" ","HOUSE_NO":"２３３號","E_COORD97":168395.89000000001,"N_COORD97":2546328.6600000001,"ADDRESS":"文成三路２３３號","OBJECTID":478768},"geometry":{"x":168395.8900000006,"y":2546328.6600000039}},{"attributes":{"ID":478794,"DIS_CODE":0,"TOWNNAME":"南區","LI":"郡南里","LIN":"20鄰","STREET":"中華南路","SECT":"二段","MAREA":" ","LANE":" ","ALLEY":" ","HOUSE_NO":"７２號","E_COORD97":167330.23000000001,"N_COORD97":2540325.2599999998,"ADDRESS":"中華南路二段７２號","OBJECTID":478769},"geometry":{"x":167330.23000000045,"y":2540325.2599999998}},{"attributes":{"ID":478795,"DIS_CODE":0,"TOWNNAME":"南區","LI":"郡南里","LIN":"20鄰","STREET":"中華南路","SECT":"二段","MAREA":" ","LANE":" ","ALLEY":" ","HOUSE_NO":"１００號","E_COORD97":167269.76000000001,"N_COORD97":2540312.8999999999,"ADDRESS":"中華南路二段１００號","OBJECTID":478770},"geometry":{"x":167269.75999999978,"y":2540312.9000000041}},{"attributes":{"ID":478796,"DIS_CODE":0,"TOWNNAME":"永康區","LI":"勝利里","LIN":"20鄰","STREET":"勝學路","SECT":" ","MAREA":" ","LANE":" ","ALLEY":" ","HOUSE_NO":"２３７號十三樓之１","E_COORD97":171182.54999999999,"N_COORD97":2545265.6699999999,"ADDRESS":"勝學路２３７號十三樓之１","OBJECTID":478771},"geometry":{"x":171182.54999999981,"y":2545265.6699999999}},{"attributes":{"ID":478797,"DIS_CODE":0,"TOWNNAME":"永康區","LI":"復國里","LIN":"20鄰","STREET":"國華街","SECT":" ","MAREA":" ","LANE":" ","ALLEY":" ","HOUSE_NO":"５９號七樓之２","E_COORD97":172823.54999999999,"N_COORD97":2545757.4199999999,"ADDRESS":"國華街５９號七樓之２","OBJECTID":478772},"geometry":{"x":172823.54999999888,"y":2545757.4200000037}},{"attributes":{"ID":478798,"DIS_CODE":0,"TOWNNAME":"永康區","LI":"復國里","LIN":"20鄰","STREET":"國華街","SECT":" ","MAREA":" ","LANE":" ","ALLEY":" ","HOUSE_NO":"５９號九樓之２","E_COORD97":172823.54999999999,"N_COORD97":2545757.4199999999,"ADDRESS":"國華街５９號九樓之２","OBJECTID":478773},"geometry":{"x":172823.54999999888,"y":2545757.4200000037}},{"attributes":{"ID":478799,"DIS_CODE":0,"TOWNNAME":"永康區","LI":"復國里","LIN":"20鄰","STREET":"國華街","SECT":" ","MAREA":" ","LANE":" ","ALLEY":" ","HOUSE_NO":"５９號五樓之１","E_COORD97":172823.42000000001,"N_COORD97":2545757.4199999999,"ADDRESS":"國華街５９號五樓之１","OBJECTID":478774},"geometry":{"x":172823.42000000086,"y":2545757.4200000037}},{"attributes":{"ID":478800,"DIS_CODE":0,"TOWNNAME":"永康區","LI":"勝利里","LIN":"20鄰","STREET":"勝學路","SECT":" ","MAREA":" ","LANE":" ","ALLEY":" ","HOUSE_NO":"２３７號五樓之２","E_COORD97":171181.44,"N_COORD97":2545265.6699999999,"ADDRESS":"勝學路２３７號五樓之２","OBJECTID":478775},"geometry":{"x":171181.44000000134,"y":2545265.6699999999}},{"attributes":{"ID":478801,"DIS_CODE":0,"TOWNNAME":"永康區","LI":"復國里","LIN":"20鄰","STREET":"國華街","SECT":" ","MAREA":" ","LANE":" ","ALLEY":" ","HOUSE_NO":"５７號九樓之１","E_COORD97":172811.06,"N_COORD97":2545757.6699999999,"ADDRESS":"國華街５７號九樓之１","OBJECTID":478776},"geometry":{"x":172811.05999999959,"y":2545757.6699999999}},{"attributes":{"ID":478802,"DIS_CODE":0,"TOWNNAME":"永康區","LI":"復國里","LIN":"20鄰","STREET":"國華街","SECT":" ","MAREA":" ","LANE":" ","ALLEY":" ","HOUSE_NO":"５７號十樓之１","E_COORD97":172811.06,"N_COORD97":2545757.6699999999,"ADDRESS":"國華街５７號十樓之１","OBJECTID":478777},"geometry":{"x":172811.05999999959,"y":2545757.6699999999}},{"attributes":{"ID":478803,"DIS_CODE":0,"TOWNNAME":"永康區","LI":"復國里","LIN":"20鄰","STREET":"國華街","SECT":" ","MAREA":" ","LANE":" ","ALLEY":" ","HOUSE_NO":"５９號十樓之１","E_COORD97":172823.42000000001,"N_COORD97":2545757.4199999999,"ADDRESS":"國華街５９號十樓之１","OBJECTID":478778},"geometry":{"x":172823.42000000086,"y":2545757.4200000037}},{"attributes":{"ID":478804,"DIS_CODE":0,"TOWNNAME":"永康區","LI":"復國里","LIN":"20鄰","STREET":"國華街","SECT":" ","MAREA":" ","LANE":" ","ALLEY":" ","HOUSE_NO":"５７號十一樓之２","E_COORD97":172812.44,"N_COORD97":2545757.6699999999,"ADDRESS":"國華街５７號十一樓之２","OBJECTID":478779},"geometry":{"x":172812.44000000041,"y":2545757.6699999999}},{"attributes":{"ID":478805,"DIS_CODE":0,"TOWNNAME":"永康區","LI":"復國里","LIN":"20鄰","STREET":"國華街","SECT":" ","MAREA":" ","LANE":" ","ALLEY":" ","HOUSE_NO":"５５號十樓之４","E_COORD97":172799.45000000001,"N_COORD97":2545761.4199999999,"ADDRESS":"國華街５５號十樓之４","OBJECTID":478780},"geometry":{"x":172799.45000000205,"y":2545761.4200000018}},{"attributes":{"ID":478806,"DIS_CODE":0,"TOWNNAME":"永康區","LI":"復國里","LIN":"20鄰","STREET":"國華街","SECT":" ","MAREA":" ","LANE":" ","ALLEY":" ","HOUSE_NO":"５５號三樓之３","E_COORD97":172799.51999999999,"N_COORD97":2545761.4199999999,"ADDRESS":"國華街５５號三樓之３","OBJECTID":478781},"geometry":{"x":172799.51999999955,"y":2545761.4200000018}},{"attributes":{"ID":478807,"DIS_CODE":0,"TOWNNAME":"永康區","LI":"復國里","LIN":"20鄰","STREET":"國華街","SECT":" ","MAREA":" ","LANE":" ","ALLEY":" ","HOUSE_NO":"５９號六樓之２","E_COORD97":172823.54999999999,"N_COORD97":2545757.4199999999,"ADDRESS":"國華街５９號六樓之２","OBJECTID":478782},"geometry":{"x":172823.54999999888,"y":2545757.4200000037}},{"attributes":{"ID":478808,"DIS_CODE":0,"TOWNNAME":"永康區","LI":"復國里","LIN":"20鄰","STREET":"國華街","SECT":" ","MAREA":" ","LANE":" ","ALLEY":" ","HOUSE_NO":"５７號十三樓之１","E_COORD97":172812.31,"N_COORD97":2545757.6699999999,"ADDRESS":"國華街５７號十三樓之１","OBJECTID":478783},"geometry":{"x":172812.31000000052,"y":2545757.6699999999}},{"attributes":{"ID":478809,"DIS_CODE":0,"TOWNNAME":"永康區","LI":"復國里","LIN":"20鄰","STREET":"國華街","SECT":" ","MAREA":" ","LANE":" ","ALLEY":" ","HOUSE_NO":"５５號七樓之２","E_COORD97":172799.54999999999,"N_COORD97":2545761.4199999999,"ADDRESS":"國華街５５號七樓之２","OBJECTID":478784},"geometry":{"x":172799.54999999981,"y":2545761.4200000018}},{"attributes":{"ID":478810,"DIS_CODE":0,"TOWNNAME":"永康區","LI":"復國里","LIN":"20鄰","STREET":"國華街","SECT":" ","MAREA":" ","LANE":" ","ALLEY":" ","HOUSE_NO":"５７號四樓之１","E_COORD97":172811.06,"N_COORD97":2545757.6699999999,"ADDRESS":"國華街５７號四樓之１","OBJECTID":478785},"geometry":{"x":172811.05999999959,"y":2545757.6699999999}},{"attributes":{"ID":478811,"DIS_CODE":0,"TOWNNAME":"永康區","LI":"復國里","LIN":"20鄰","STREET":"國華街","SECT":" ","MAREA":" ","LANE":" ","ALLEY":" ","HOUSE_NO":"６３號五樓之３","E_COORD97":172819.39999999999,"N_COORD97":2545744.3100000001,"ADDRESS":"國華街６３號五樓之３","OBJECTID":478786},"geometry":{"x":172819.40000000037,"y":2545744.3100000005}},{"attributes":{"ID":478812,"DIS_CODE":0,"TOWNNAME":"東區","LI":"富裕里","LIN":"20鄰","STREET":"裕豐街","SECT":" ","MAREA":" ","LANE":" ","ALLEY":" ","HOUSE_NO":"２號七樓","E_COORD97":170718.54000000001,"N_COORD97":2542700.1800000002,"ADDRESS":"裕豐街２號七樓","OBJECTID":478787},"geometry":{"x":170718.5400000019,"y":2542700.1799999997}},{"attributes":{"ID":478813,"DIS_CODE":0,"TOWNNAME":"永康區","LI":"五王里","LIN":"20鄰","STREET":"成功路","SECT":" ","MAREA":" ","LANE":" ","ALLEY":" ","HOUSE_NO":"１２１號六樓之１","E_COORD97":171408.35999999999,"N_COORD97":2545647.54,"ADDRESS":"成功路１２１號六樓之１","OBJECTID":478788},"geometry":{"x":171408.3600000022,"y":2545647.540000001}},{"attributes":{"ID":478814,"DIS_CODE":0,"TOWNNAME":"永康區","LI":"復國里","LIN":"20鄰","STREET":"國華街","SECT":" ","MAREA":" ","LANE":" ","ALLEY":" ","HOUSE_NO":"５７號六樓之２","E_COORD97":172811.19,"N_COORD97":2545757.6699999999,"ADDRESS":"國華街５７號六樓之２","OBJECTID":478789},"geometry":{"x":172811.19000000041,"y":2545757.6699999999}},{"attributes":{"ID":478815,"DIS_CODE":0,"TOWNNAME":"永康區","LI":"復國里","LIN":"20鄰","STREET":"國華街","SECT":" ","MAREA":" ","LANE":" ","ALLEY":" ","HOUSE_NO":"５７號六樓之１","E_COORD97":172811.06,"N_COORD97":2545757.6699999999,"ADDRESS":"國華街５７號六樓之１","OBJECTID":478790},"geometry":{"x":172811.05999999959,"y":2545757.6699999999}},{"attributes":{"ID":478816,"DIS_CODE":0,"TOWNNAME":"永康區","LI":"復國里","LIN":"20鄰","STREET":"國華街","SECT":" ","MAREA":" ","LANE":" ","ALLEY":" ","HOUSE_NO":"５５號十五樓之４","E_COORD97":172800.70000000001,"N_COORD97":2545761.4199999999,"ADDRESS":"國華街５５號十五樓之４","OBJECTID":478791},"geometry":{"x":172800.70000000019,"y":2545761.4200000018}},{"attributes":{"ID":478817,"DIS_CODE":0,"TOWNNAME":"永康區","LI":"復國里","LIN":"20鄰","STREET":"國華街","SECT":" ","MAREA":" ","LANE":" ","ALLEY":" ","HOUSE_NO":"５７號八樓之２","E_COORD97":172811.19,"N_COORD97":2545757.6699999999,"ADDRESS":"國華街５７號八樓之２","OBJECTID":478792},"geometry":{"x":172811.19000000041,"y":2545757.6699999999}},{"attributes":{"ID":478818,"DIS_CODE":0,"TOWNNAME":"永康區","LI":"復國里","LIN":"20鄰","STREET":"國華街","SECT":" ","MAREA":" ","LANE":" ","ALLEY":" ","HOUSE_NO":"５７號十三樓之２","E_COORD97":172812.44,"N_COORD97":2545757.6699999999,"ADDRESS":"國華街５７號十三樓之２","OBJECTID":478793},"geometry":{"x":172812.44000000041,"y":2545757.6699999999}},{"attributes":{"ID":478819,"DIS_CODE":0,"TOWNNAME":"永康區","LI":"復國里","LIN":"20鄰","STREET":"國華街","SECT":" ","MAREA":" ","LANE":" ","ALLEY":" ","HOUSE_NO":"５７號九樓之２","E_COORD97":172811.19,"N_COORD97":2545757.6699999999,"ADDRESS":"國華街５７號九樓之２","OBJECTID":478794},"geometry":{"x":172811.19000000041,"y":2545757.6699999999}},{"attributes":{"ID":478820,"DIS_CODE":0,"TOWNNAME":"永康區","LI":"復國里","LIN":"20鄰","STREET":"國華街","SECT":" ","MAREA":" ","LANE":" ","ALLEY":" ","HOUSE_NO":"６３號十四樓之３","E_COORD97":172820.64999999999,"N_COORD97":2545744.3100000001,"ADDRESS":"國華街６３號十四樓之３","OBJECTID":478795},"geometry":{"x":172820.6500000013,"y":2545744.3100000005}},{"attributes":{"ID":478821,"DIS_CODE":0,"TOWNNAME":"永康區","LI":"復國里","LIN":"20鄰","STREET":"國華街","SECT":" ","MAREA":" ","LANE":" ","ALLEY":" ","HOUSE_NO":"６１號五樓之２","E_COORD97":172830.35999999999,"N_COORD97":2545750.4199999999,"ADDRESS":"國華街６１號五樓之２","OBJECTID":478796},"geometry":{"x":172830.36000000034,"y":2545750.4200000037}},{"attributes":{"ID":478822,"DIS_CODE":0,"TOWNNAME":"永康區","LI":"復國里","LIN":"20鄰","STREET":"國華街","SECT":" ","MAREA":" ","LANE":" ","ALLEY":" ","HOUSE_NO":"５５號八樓之３","E_COORD97":172799.51999999999,"N_COORD97":2545761.4199999999,"ADDRESS":"國華街５５號八樓之３","OBJECTID":478797},"geometry":{"x":172799.51999999955,"y":2545761.4200000018}},{"attributes":{"ID":478823,"DIS_CODE":0,"TOWNNAME":"永康區","LI":"復國里","LIN":"20鄰","STREET":"國華街","SECT":" ","MAREA":" ","LANE":" ","ALLEY":" ","HOUSE_NO":"６３號六樓之２","E_COORD97":172819.42999999999,"N_COORD97":2545744.3100000001,"ADDRESS":"國華街６３號六樓之２","OBJECTID":478798},"geometry":{"x":172819.43000000063,"y":2545744.3100000005}},{"attributes":{"ID":478824,"DIS_CODE":0,"TOWNNAME":"永康區","LI":"復國里","LIN":"20鄰","STREET":"國華街","SECT":" ","MAREA":" ","LANE":" ","ALLEY":" ","HOUSE_NO":"６１號四樓之１","E_COORD97":172830.23000000001,"N_COORD97":2545750.4199999999,"ADDRESS":"國華街６１號四樓之１","OBJECTID":478799},"geometry":{"x":172830.23000000138,"y":2545750.4200000037}},{"attributes":{"ID":478825,"DIS_CODE":0,"TOWNNAME":"永康區","LI":"復國里","LIN":"20鄰","STREET":"國華街","SECT":" ","MAREA":" ","LANE":" ","ALLEY":" ","HOUSE_NO":"６３號六樓之１","E_COORD97":172819.29999999999,"N_COORD97":2545744.3100000001,"ADDRESS":"國華街６３號六樓之１","OBJECTID":478800},"geometry":{"x":172819.30000000075,"y":2545744.3100000005}}]}