{"displayFieldName":"TOWNNAME","fieldAliases":{"ID":"ID","DIS_CODE":"DIS_CODE","TOWNNAME":"TOWNNAME","LI":"LI","LIN":"LIN","STREET":"STREET","SECT":"SECT","MAREA":"MAREA","LANE":"LANE","ALLEY":"ALLEY","HOUSE_NO":"HOUSE_NO","E_COORD97":"E_COORD97","N_COORD97":"N_COORD97","ADDRESS":"ADDRESS","OBJECTID":"OBJECTID"},"geometryType":"esriGeometryPoint","spatialReference":{"wkid":102443,"latestWkid":3826},"fields":[{"name":"ID","type":"esriFieldTypeDouble","alias":"ID"},{"name":"DIS_CODE","type":"esriFieldTypeInteger","alias":"DIS_CODE"},{"name":"TOWNNAME","type":"esriFieldTypeString","alias":"TOWNNAME","length":8},{"name":"LI","type":"esriFieldTypeString","alias":"LI","length":8},{"name":"LIN","type":"esriFieldTypeString","alias":"LIN","length":12},{"name":"STREET","type":"esriFieldTypeString","alias":"STREET","length":20},{"name":"SECT","type":"esriFieldTypeString","alias":"SECT","length":8},{"name":"MAREA","type":"esriFieldTypeString","alias":"MAREA","length":12},{"name":"LANE","type":"esriFieldTypeString","alias":"LANE","length":10},{"name":"ALLEY","type":"esriFieldTypeString","alias":"ALLEY","length":10},{"name":"HOUSE_NO","type":"esriFieldTypeString","alias":"HOUSE_NO","length":20},{"name":"E_COORD97","type":"esriFieldTypeDouble","alias":"E_COORD97"},{"name":"N_COORD97","type":"esriFieldTypeDouble","alias":"N_COORD97"},{"name":"ADDRESS","type":"esriFieldTypeString","alias":"ADDRESS","length":50},{"name":"OBJECTID","type":"esriFieldTypeOID","alias":"OBJECTID"}],"features":[{"attributes":{"ID":558428,"DIS_CODE":0,"TOWNNAME":"安平區","LI":"港仔里","LIN":"9鄰","STREET":"安平路","SECT":" ","MAREA":" ","LANE":" ","ALLEY":" ","HOUSE_NO":"１２９號","E_COORD97":164187.42999999999,"N_COORD97":2544511.27,"ADDRESS":"安平路１２９號","OBJECTID":558401},"geometry":{"x":164187.43000000156,"y":2544511.2700000014}},{"attributes":{"ID":558429,"DIS_CODE":0,"TOWNNAME":"安平區","LI":"港仔里","LIN":"9鄰","STREET":"安平路","SECT":" ","MAREA":" ","LANE":" ","ALLEY":" ","HOUSE_NO":"１３１號","E_COORD97":164183.5,"N_COORD97":2544512.3799999999,"ADDRESS":"安平路１３１號","OBJECTID":558402},"geometry":{"x":164183.5,"y":2544512.3800000027}},{"attributes":{"ID":558430,"DIS_CODE":0,"TOWNNAME":"安平區","LI":"港仔里","LIN":"9鄰","STREET":"安平路","SECT":" ","MAREA":" ","LANE":" ","ALLEY":" ","HOUSE_NO":"１３３號","E_COORD97":164174.01999999999,"N_COORD97":2544514.1899999999,"ADDRESS":"安平路１３３號","OBJECTID":558403},"geometry":{"x":164174.01999999955,"y":2544514.1900000032}},{"attributes":{"ID":558431,"DIS_CODE":0,"TOWNNAME":"安平區","LI":"港仔里","LIN":"9鄰","STREET":"安平路","SECT":" ","MAREA":" ","LANE":" ","ALLEY":" ","HOUSE_NO":"１３５號","E_COORD97":164166.35999999999,"N_COORD97":2544516.4100000001,"ADDRESS":"安平路１３５號","OBJECTID":558404},"geometry":{"x":164166.3599999994,"y":2544516.4099999983}},{"attributes":{"ID":558432,"DIS_CODE":0,"TOWNNAME":"安平區","LI":"港仔里","LIN":"9鄰","STREET":"安平路","SECT":" ","MAREA":" ","LANE":" ","ALLEY":" ","HOUSE_NO":"１３７號","E_COORD97":164160.70999999999,"N_COORD97":2544517.52,"ADDRESS":"安平路１３７號","OBJECTID":558405},"geometry":{"x":164160.71000000089,"y":2544517.5199999996}},{"attributes":{"ID":558433,"DIS_CODE":0,"TOWNNAME":"安平區","LI":"港仔里","LIN":"9鄰","STREET":"安平路","SECT":" ","MAREA":" ","LANE":" ","ALLEY":" ","HOUSE_NO":"１３９號","E_COORD97":164153.95000000001,"N_COORD97":2544519.0299999998,"ADDRESS":"安平路１３９號","OBJECTID":558406},"geometry":{"x":164153.95000000205,"y":2544519.0300000012}},{"attributes":{"ID":558434,"DIS_CODE":0,"TOWNNAME":"安平區","LI":"港仔里","LIN":"9鄰","STREET":"安平路","SECT":" ","MAREA":" ","LANE":" ","ALLEY":" ","HOUSE_NO":"１４１號","E_COORD97":164147.70000000001,"N_COORD97":2544519.4300000002,"ADDRESS":"安平路１４１號","OBJECTID":558407},"geometry":{"x":164147.70000000112,"y":2544519.4300000034}},{"attributes":{"ID":558435,"DIS_CODE":0,"TOWNNAME":"安平區","LI":"港仔里","LIN":"9鄰","STREET":"安平路","SECT":" ","MAREA":" ","LANE":" ","ALLEY":" ","HOUSE_NO":"１４３號","E_COORD97":164143.67000000001,"N_COORD97":2544521.04,"ADDRESS":"安平路１４３號","OBJECTID":558408},"geometry":{"x":164143.67000000179,"y":2544521.0399999991}},{"attributes":{"ID":558436,"DIS_CODE":0,"TOWNNAME":"安平區","LI":"港仔里","LIN":"9鄰","STREET":"安平路","SECT":" ","MAREA":" ","LANE":" ","ALLEY":" ","HOUSE_NO":"１４５號","E_COORD97":164139.03,"N_COORD97":2544521.3500000001,"ADDRESS":"安平路１４５號","OBJECTID":558409},"geometry":{"x":164139.03000000026,"y":2544521.3500000015}},{"attributes":{"ID":558437,"DIS_CODE":0,"TOWNNAME":"安平區","LI":"港仔里","LIN":"9鄰","STREET":"安平路","SECT":" ","MAREA":" ","LANE":" ","ALLEY":" ","HOUSE_NO":"１４９號","E_COORD97":164126.72,"N_COORD97":2544526.2799999998,"ADDRESS":"安平路１４９號","OBJECTID":558410},"geometry":{"x":164126.72000000067,"y":2544526.2799999993}},{"attributes":{"ID":558438,"DIS_CODE":0,"TOWNNAME":"安平區","LI":"港仔里","LIN":"9鄰","STREET":"安平路","SECT":" ","MAREA":" ","LANE":" ","ALLEY":" ","HOUSE_NO":"１５１號","E_COORD97":164119.66,"N_COORD97":2544527.8999999999,"ADDRESS":"安平路１５１號","OBJECTID":558411},"geometry":{"x":164119.66000000015,"y":2544527.9000000022}},{"attributes":{"ID":558439,"DIS_CODE":0,"TOWNNAME":"安平區","LI":"港仔里","LIN":"9鄰","STREET":"安平路","SECT":" ","MAREA":" ","LANE":" ","ALLEY":" ","HOUSE_NO":"１２３號","E_COORD97":164224.97,"N_COORD97":2544502.9100000001,"ADDRESS":"安平路１２３號","OBJECTID":558412},"geometry":{"x":164224.97000000067,"y":2544502.9099999983}},{"attributes":{"ID":558440,"DIS_CODE":0,"TOWNNAME":"南區","LI":"文南里","LIN":"9鄰","STREET":"長南街","SECT":" ","MAREA":" ","LANE":" ","ALLEY":" ","HOUSE_NO":"３８號","E_COORD97":166974,"N_COORD97":2542628.8300000001,"ADDRESS":"長南街３８號","OBJECTID":558413},"geometry":{"x":166973.99999999907,"y":2542628.8300000038}},{"attributes":{"ID":558441,"DIS_CODE":0,"TOWNNAME":"新營區","LI":"永生里","LIN":"9鄰","STREET":"康樂街","SECT":" ","MAREA":" ","LANE":" ","ALLEY":" ","HOUSE_NO":"１之４號","E_COORD97":180092.12,"N_COORD97":2577922.2599999998,"ADDRESS":"康樂街１之４號","OBJECTID":558414},"geometry":{"x":180092.12000000011,"y":2577922.2599999998}},{"attributes":{"ID":558442,"DIS_CODE":0,"TOWNNAME":"南區","LI":"新昌里","LIN":"9鄰","STREET":"府緯街","SECT":" ","MAREA":" ","LANE":" ","ALLEY":" ","HOUSE_NO":"８７號","E_COORD97":167638.37,"N_COORD97":2542703.98,"ADDRESS":"府緯街８７號","OBJECTID":558415},"geometry":{"x":167638.37000000104,"y":2542703.9800000023}},{"attributes":{"ID":558443,"DIS_CODE":0,"TOWNNAME":"南區","LI":"竹溪里","LIN":"9鄰","STREET":"南門路","SECT":" ","MAREA":" ","LANE":" ","ALLEY":" ","HOUSE_NO":"３０７號","E_COORD97":168365.07999999999,"N_COORD97":2541980.7599999998,"ADDRESS":"南門路３０７號","OBJECTID":558416},"geometry":{"x":168365.08000000007,"y":2541980.7599999998}},{"attributes":{"ID":558444,"DIS_CODE":0,"TOWNNAME":"南區","LI":"竹溪里","LIN":"9鄰","STREET":"南門路","SECT":" ","MAREA":" ","LANE":" ","ALLEY":" ","HOUSE_NO":"３０９號","E_COORD97":168364.41,"N_COORD97":2541975.3300000001,"ADDRESS":"南門路３０９號","OBJECTID":558417},"geometry":{"x":168364.41000000015,"y":2541975.3300000019}},{"attributes":{"ID":558445,"DIS_CODE":0,"TOWNNAME":"南區","LI":"竹溪里","LIN":"9鄰","STREET":"南門路","SECT":" ","MAREA":" ","LANE":" ","ALLEY":" ","HOUSE_NO":"３１１號","E_COORD97":168363.39000000001,"N_COORD97":2541971.9399999999,"ADDRESS":"南門路３１１號","OBJECTID":558418},"geometry":{"x":168363.3900000006,"y":2541971.9399999995}},{"attributes":{"ID":558446,"DIS_CODE":0,"TOWNNAME":"南區","LI":"竹溪里","LIN":"9鄰","STREET":"南門路","SECT":" ","MAREA":" ","LANE":" ","ALLEY":" ","HOUSE_NO":"３１３號","E_COORD97":168362.37,"N_COORD97":2541967.2000000002,"ADDRESS":"南門路３１３號","OBJECTID":558419},"geometry":{"x":168362.37000000104,"y":2541967.1999999993}},{"attributes":{"ID":558447,"DIS_CODE":0,"TOWNNAME":"南區","LI":"竹溪里","LIN":"9鄰","STREET":"南門路","SECT":" ","MAREA":" ","LANE":" ","ALLEY":" ","HOUSE_NO":"３１５號","E_COORD97":168361.35000000001,"N_COORD97":2541962.46,"ADDRESS":"南門路３１５號","OBJECTID":558420},"geometry":{"x":168361.35000000149,"y":2541962.4600000009}},{"attributes":{"ID":558448,"DIS_CODE":0,"TOWNNAME":"歸仁區","LI":"文化里","LIN":"9鄰","STREET":"民權北路","SECT":" ","MAREA":" ","LANE":" ","ALLEY":" ","HOUSE_NO":"１５０號","E_COORD97":177023.76000000001,"N_COORD97":2541360.25,"ADDRESS":"民權北路１５０號","OBJECTID":558421},"geometry":{"x":177023.75999999978,"y":2541360.25}},{"attributes":{"ID":558449,"DIS_CODE":0,"TOWNNAME":"南區","LI":"竹溪里","LIN":"9鄰","STREET":"體育路","SECT":" ","MAREA":" ","LANE":" ","ALLEY":" ","HOUSE_NO":"１０號之１８","E_COORD97":168590.13,"N_COORD97":2542092.1299999999,"ADDRESS":"體育路１０號之１８","OBJECTID":558422},"geometry":{"x":168590.12999999989,"y":2542092.129999999}},{"attributes":{"ID":558450,"DIS_CODE":0,"TOWNNAME":"南區","LI":"竹溪里","LIN":"9鄰","STREET":"體育路","SECT":" ","MAREA":" ","LANE":" ","ALLEY":" ","HOUSE_NO":"１０號之４","E_COORD97":168686.79999999999,"N_COORD97":2542017.79,"ADDRESS":"體育路１０號之４","OBJECTID":558423},"geometry":{"x":168686.79999999981,"y":2542017.7900000028}},{"attributes":{"ID":558451,"DIS_CODE":0,"TOWNNAME":"南區","LI":"竹溪里","LIN":"9鄰","STREET":"體育路","SECT":" ","MAREA":" ","LANE":" ","ALLEY":" ","HOUSE_NO":"１０號之５","E_COORD97":168689.09,"N_COORD97":2542031.9300000002,"ADDRESS":"體育路１０號之５","OBJECTID":558424},"geometry":{"x":168689.09000000078,"y":2542031.9300000016}},{"attributes":{"ID":558452,"DIS_CODE":0,"TOWNNAME":"安平區","LI":"文平里","LIN":"9鄰","STREET":"建平七街","SECT":" ","MAREA":" ","LANE":" ","ALLEY":" ","HOUSE_NO":"２４６之１號","E_COORD97":165947.32999999999,"N_COORD97":2543288.6200000001,"ADDRESS":"建平七街２４６之１號","OBJECTID":558425},"geometry":{"x":165947.33000000007,"y":2543288.6199999992}},{"attributes":{"ID":558453,"DIS_CODE":0,"TOWNNAME":"安平區","LI":"文平里","LIN":"9鄰","STREET":"建平七街","SECT":" ","MAREA":" ","LANE":" ","ALLEY":" ","HOUSE_NO":"２４６號","E_COORD97":165952.47,"N_COORD97":2543287.2799999998,"ADDRESS":"建平七街２４６號","OBJECTID":558426},"geometry":{"x":165952.47000000067,"y":2543287.2800000012}},{"attributes":{"ID":558454,"DIS_CODE":0,"TOWNNAME":"南區","LI":"大成里","LIN":"9鄰","STREET":"新興東路","SECT":" ","MAREA":" ","LANE":" ","ALLEY":" ","HOUSE_NO":"２７６號","E_COORD97":167791.48000000001,"N_COORD97":2542292.3500000001,"ADDRESS":"新興東路２７６號","OBJECTID":558427},"geometry":{"x":167791.48000000045,"y":2542292.3500000034}},{"attributes":{"ID":558455,"DIS_CODE":0,"TOWNNAME":"南區","LI":"大成里","LIN":"9鄰","STREET":"新興東路","SECT":" ","MAREA":" ","LANE":" ","ALLEY":" ","HOUSE_NO":"２７６號地下室","E_COORD97":167791.48000000001,"N_COORD97":2542292.3500000001,"ADDRESS":"新興東路２７６號地下室","OBJECTID":558428},"geometry":{"x":167791.48000000045,"y":2542292.3500000034}},{"attributes":{"ID":558456,"DIS_CODE":0,"TOWNNAME":"南區","LI":"大成里","LIN":"9鄰","STREET":"新興東路","SECT":" ","MAREA":" ","LANE":" ","ALLEY":" ","HOUSE_NO":"２７８號","E_COORD97":167780.39999999999,"N_COORD97":2542290.5099999998,"ADDRESS":"新興東路２７８號","OBJECTID":558429},"geometry":{"x":167780.40000000224,"y":2542290.5099999998}},{"attributes":{"ID":558457,"DIS_CODE":0,"TOWNNAME":"南區","LI":"大成里","LIN":"9鄰","STREET":"新興東路","SECT":" ","MAREA":" ","LANE":" ","ALLEY":" ","HOUSE_NO":"２８０號","E_COORD97":167776.14999999999,"N_COORD97":2542290.5099999998,"ADDRESS":"新興東路２８０號","OBJECTID":558430},"geometry":{"x":167776.1500000013,"y":2542290.5099999998}},{"attributes":{"ID":558458,"DIS_CODE":0,"TOWNNAME":"南區","LI":"大成里","LIN":"9鄰","STREET":"新興東路","SECT":" ","MAREA":" ","LANE":" ","ALLEY":" ","HOUSE_NO":"２８２號","E_COORD97":167771.72,"N_COORD97":2542290.7000000002,"ADDRESS":"新興東路２８２號","OBJECTID":558431},"geometry":{"x":167771.71999999974,"y":2542290.7000000011}},{"attributes":{"ID":558459,"DIS_CODE":0,"TOWNNAME":"南區","LI":"大成里","LIN":"9鄰","STREET":"西門路","SECT":"一段","MAREA":" ","LANE":" ","ALLEY":" ","HOUSE_NO":"３４０號","E_COORD97":167766.92000000001,"N_COORD97":2542290.5099999998,"ADDRESS":"西門路一段３４０號","OBJECTID":558432},"geometry":{"x":167766.92000000086,"y":2542290.5099999998}},{"attributes":{"ID":558460,"DIS_CODE":0,"TOWNNAME":"安平區","LI":"建平里","LIN":"9鄰","STREET":"建平十五街","SECT":" ","MAREA":" ","LANE":" ","ALLEY":" ","HOUSE_NO":"１３９號","E_COORD97":166210.82000000001,"N_COORD97":2544099.2799999998,"ADDRESS":"建平十五街１３９號","OBJECTID":558433},"geometry":{"x":166210.8200000003,"y":2544099.2799999993}},{"attributes":{"ID":558461,"DIS_CODE":0,"TOWNNAME":"安平區","LI":"建平里","LIN":"9鄰","STREET":"建平十五街","SECT":" ","MAREA":" ","LANE":" ","ALLEY":" ","HOUSE_NO":"１４１號","E_COORD97":166207.01000000001,"N_COORD97":2544099.6000000001,"ADDRESS":"建平十五街１４１號","OBJECTID":558434},"geometry":{"x":166207.00999999978,"y":2544099.5999999996}},{"attributes":{"ID":558462,"DIS_CODE":0,"TOWNNAME":"安平區","LI":"建平里","LIN":"9鄰","STREET":"建平十五街","SECT":" ","MAREA":" ","LANE":" ","ALLEY":" ","HOUSE_NO":"１４３號","E_COORD97":166203.75,"N_COORD97":2544099.9300000002,"ADDRESS":"建平十五街１４３號","OBJECTID":558435},"geometry":{"x":166203.75,"y":2544099.9300000016}},{"attributes":{"ID":558463,"DIS_CODE":0,"TOWNNAME":"安平區","LI":"建平里","LIN":"9鄰","STREET":"建平十五街","SECT":" ","MAREA":" ","LANE":" ","ALLEY":" ","HOUSE_NO":"１４５號","E_COORD97":166198.53,"N_COORD97":2544100.4700000002,"ADDRESS":"建平十五街１４５號","OBJECTID":558436},"geometry":{"x":166198.53000000119,"y":2544100.4700000025}},{"attributes":{"ID":558464,"DIS_CODE":0,"TOWNNAME":"安平區","LI":"建平里","LIN":"9鄰","STREET":"建平十五街","SECT":" ","MAREA":" ","LANE":" ","ALLEY":" ","HOUSE_NO":"１４７號","E_COORD97":166194.35000000001,"N_COORD97":2544101.3399999999,"ADDRESS":"建平十五街１４７號","OBJECTID":558437},"geometry":{"x":166194.34999999963,"y":2544101.3400000017}},{"attributes":{"ID":558465,"DIS_CODE":0,"TOWNNAME":"安平區","LI":"建平里","LIN":"9鄰","STREET":"建平十五街","SECT":" ","MAREA":" ","LANE":" ","ALLEY":" ","HOUSE_NO":"１４９號","E_COORD97":166189.35000000001,"N_COORD97":2544101.7799999998,"ADDRESS":"建平十五街１４９號","OBJECTID":558438},"geometry":{"x":166189.34999999963,"y":2544101.7799999993}},{"attributes":{"ID":558466,"DIS_CODE":0,"TOWNNAME":"安平區","LI":"建平里","LIN":"9鄰","STREET":"建平十五街","SECT":" ","MAREA":" ","LANE":" ","ALLEY":" ","HOUSE_NO":"１５１號","E_COORD97":166185.76000000001,"N_COORD97":2544102.21,"ADDRESS":"建平十五街１５１號","OBJECTID":558439},"geometry":{"x":166185.76000000071,"y":2544102.2100000028}},{"attributes":{"ID":558467,"DIS_CODE":0,"TOWNNAME":"安平區","LI":"建平里","LIN":"9鄰","STREET":"建平十五街","SECT":" ","MAREA":" ","LANE":" ","ALLEY":" ","HOUSE_NO":"１５３號","E_COORD97":166181.07999999999,"N_COORD97":2544102.6499999999,"ADDRESS":"建平十五街１５３號","OBJECTID":558440},"geometry":{"x":166181.08000000101,"y":2544102.6500000022}},{"attributes":{"ID":558468,"DIS_CODE":0,"TOWNNAME":"安平區","LI":"建平里","LIN":"9鄰","STREET":"建平十五街","SECT":" ","MAREA":" ","LANE":" ","ALLEY":" ","HOUSE_NO":"１５９號","E_COORD97":166150.23999999999,"N_COORD97":2544104.8900000001,"ADDRESS":"建平十五街１５９號","OBJECTID":558441},"geometry":{"x":166150.24000000022,"y":2544104.8900000025}},{"attributes":{"ID":558469,"DIS_CODE":0,"TOWNNAME":"安平區","LI":"建平里","LIN":"9鄰","STREET":"建平十五街","SECT":" ","MAREA":" ","LANE":" ","ALLEY":" ","HOUSE_NO":"１６１號","E_COORD97":166146.07999999999,"N_COORD97":2544104.77,"ADDRESS":"建平十五街１６１號","OBJECTID":558442},"geometry":{"x":166146.08000000007,"y":2544104.7700000014}},{"attributes":{"ID":558470,"DIS_CODE":0,"TOWNNAME":"安平區","LI":"建平里","LIN":"9鄰","STREET":"建平十五街","SECT":" ","MAREA":" ","LANE":" ","ALLEY":" ","HOUSE_NO":"１６３號","E_COORD97":166142.16,"N_COORD97":2544105.3700000001,"ADDRESS":"建平十五街１６３號","OBJECTID":558443},"geometry":{"x":166142.16000000015,"y":2544105.3700000029}},{"attributes":{"ID":558471,"DIS_CODE":0,"TOWNNAME":"安平區","LI":"建平里","LIN":"9鄰","STREET":"建平十五街","SECT":" ","MAREA":" ","LANE":" ","ALLEY":" ","HOUSE_NO":"１６５號","E_COORD97":166138,"N_COORD97":2544105.7200000002,"ADDRESS":"建平十五街１６５號","OBJECTID":558444},"geometry":{"x":166138,"y":2544105.7200000025}},{"attributes":{"ID":558472,"DIS_CODE":0,"TOWNNAME":"安平區","LI":"建平里","LIN":"9鄰","STREET":"建平十五街","SECT":" ","MAREA":" ","LANE":" ","ALLEY":" ","HOUSE_NO":"１６７號","E_COORD97":166133.95999999999,"N_COORD97":2544106.0800000001,"ADDRESS":"建平十五街１６７號","OBJECTID":558445},"geometry":{"x":166133.96000000089,"y":2544106.0800000019}},{"attributes":{"ID":558473,"DIS_CODE":0,"TOWNNAME":"安平區","LI":"建平里","LIN":"9鄰","STREET":"建平十五街","SECT":" ","MAREA":" ","LANE":" ","ALLEY":" ","HOUSE_NO":"１６９號","E_COORD97":166129.67999999999,"N_COORD97":2544106.3199999998,"ADDRESS":"建平十五街１６９號","OBJECTID":558446},"geometry":{"x":166129.6799999997,"y":2544106.3200000003}},{"attributes":{"ID":558474,"DIS_CODE":0,"TOWNNAME":"歸仁區","LI":"看西里","LIN":"9鄰","STREET":"仁愛五街","SECT":" ","MAREA":" ","LANE":" ","ALLEY":" ","HOUSE_NO":"６號","E_COORD97":178312.78,"N_COORD97":2540311.2000000002,"ADDRESS":"仁愛五街６號","OBJECTID":558447},"geometry":{"x":178312.78000000026,"y":2540311.2000000011}},{"attributes":{"ID":558475,"DIS_CODE":0,"TOWNNAME":"歸仁區","LI":"後市里","LIN":"9鄰","STREET":"中山五街","SECT":" ","MAREA":" ","LANE":" ","ALLEY":" ","HOUSE_NO":"６６號","E_COORD97":177086.19,"N_COORD97":2540689.25,"ADDRESS":"中山五街６６號","OBJECTID":558448},"geometry":{"x":177086.19000000041,"y":2540689.25}},{"attributes":{"ID":558476,"DIS_CODE":0,"TOWNNAME":"歸仁區","LI":"看西里","LIN":"9鄰","STREET":"仁愛五街","SECT":" ","MAREA":" ","LANE":" ","ALLEY":" ","HOUSE_NO":"８號","E_COORD97":178317.88,"N_COORD97":2540311.2000000002,"ADDRESS":"仁愛五街８號","OBJECTID":558449},"geometry":{"x":178317.88000000082,"y":2540311.2000000011}},{"attributes":{"ID":558477,"DIS_CODE":0,"TOWNNAME":"歸仁區","LI":"看西里","LIN":"9鄰","STREET":"仁愛五街","SECT":" ","MAREA":" ","LANE":" ","ALLEY":" ","HOUSE_NO":"２６號","E_COORD97":178356.13,"N_COORD97":2540311.2000000002,"ADDRESS":"仁愛五街２６號","OBJECTID":558450},"geometry":{"x":178356.12999999989,"y":2540311.2000000011}},{"attributes":{"ID":558478,"DIS_CODE":0,"TOWNNAME":"新營區","LI":"民權里","LIN":"9鄰","STREET":"博愛街","SECT":" ","MAREA":" ","LANE":" ","ALLEY":" ","HOUSE_NO":"２２號之１","E_COORD97":179929.48999999999,"N_COORD97":2578155.6000000001,"ADDRESS":"博愛街２２號之１","OBJECTID":558451},"geometry":{"x":179929.49000000115,"y":2578155.6000000015}},{"attributes":{"ID":558479,"DIS_CODE":0,"TOWNNAME":"新營區","LI":"三仙里","LIN":"9鄰","STREET":"中華路","SECT":" ","MAREA":" ","LANE":" ","ALLEY":" ","HOUSE_NO":"５１號","E_COORD97":179575.57000000001,"N_COORD97":2578184.8999999999,"ADDRESS":"中華路５１號","OBJECTID":558452},"geometry":{"x":179575.5700000003,"y":2578184.9000000022}},{"attributes":{"ID":558480,"DIS_CODE":0,"TOWNNAME":"永康區","LI":"永康里","LIN":"9鄰","STREET":"永中街","SECT":" ","MAREA":" ","LANE":" ","ALLEY":" ","HOUSE_NO":"４３號","E_COORD97":173906.01000000001,"N_COORD97":2547180.9900000002,"ADDRESS":"永中街４３號","OBJECTID":558453},"geometry":{"x":173906.01000000071,"y":2547180.9900000039}},{"attributes":{"ID":558481,"DIS_CODE":0,"TOWNNAME":"東區","LI":"德光里","LIN":"9鄰","STREET":"崇學路","SECT":" ","MAREA":" ","LANE":" ","ALLEY":" ","HOUSE_NO":"６７號","E_COORD97":170129.95000000001,"N_COORD97":2542068.4399999999,"ADDRESS":"崇學路６７號","OBJECTID":558454},"geometry":{"x":170129.95000000112,"y":2542068.4400000013}},{"attributes":{"ID":558482,"DIS_CODE":0,"TOWNNAME":"東區","LI":"南聖里","LIN":"9鄰","STREET":"裕忠路","SECT":" ","MAREA":" ","LANE":" ","ALLEY":" ","HOUSE_NO":"６２號","E_COORD97":172184.79000000001,"N_COORD97":2543187.3799999999,"ADDRESS":"裕忠路６２號","OBJECTID":558455},"geometry":{"x":172184.78999999911,"y":2543187.3800000008}},{"attributes":{"ID":558483,"DIS_CODE":0,"TOWNNAME":"東區","LI":"德光里","LIN":"9鄰","STREET":"崇學路","SECT":" ","MAREA":" ","LANE":" ","ALLEY":" ","HOUSE_NO":"６１號","E_COORD97":170113.32999999999,"N_COORD97":2542063.0800000001,"ADDRESS":"崇學路６１號","OBJECTID":558456},"geometry":{"x":170113.33000000101,"y":2542063.0800000001}},{"attributes":{"ID":558484,"DIS_CODE":0,"TOWNNAME":"東區","LI":"德光里","LIN":"9鄰","STREET":"崇德路","SECT":" ","MAREA":" ","LANE":" ","ALLEY":" ","HOUSE_NO":"１９６號","E_COORD97":170115.35999999999,"N_COORD97":2542108.3399999999,"ADDRESS":"崇德路１９６號","OBJECTID":558457},"geometry":{"x":170115.36000000127,"y":2542108.3399999999}},{"attributes":{"ID":558485,"DIS_CODE":0,"TOWNNAME":"東區","LI":"德光里","LIN":"9鄰","STREET":"崇德路","SECT":" ","MAREA":" ","LANE":" ","ALLEY":" ","HOUSE_NO":"１９８號","E_COORD97":170136.89999999999,"N_COORD97":2542101.27,"ADDRESS":"崇德路１９８號","OBJECTID":558458},"geometry":{"x":170136.9000000013,"y":2542101.2700000014}},{"attributes":{"ID":558486,"DIS_CODE":0,"TOWNNAME":"東區","LI":"德光里","LIN":"9鄰","STREET":"崇學路","SECT":" ","MAREA":" ","LANE":" ","ALLEY":" ","HOUSE_NO":"１１號","E_COORD97":170065.35000000001,"N_COORD97":2542047.8799999999,"ADDRESS":"崇學路１１號","OBJECTID":558459},"geometry":{"x":170065.35000000056,"y":2542047.8800000008}},{"attributes":{"ID":558487,"DIS_CODE":0,"TOWNNAME":"東區","LI":"德光里","LIN":"9鄰","STREET":"崇學路","SECT":" ","MAREA":" ","LANE":" ","ALLEY":" ","HOUSE_NO":"１３號","E_COORD97":170070.35999999999,"N_COORD97":2542049.8500000001,"ADDRESS":"崇學路１３號","OBJECTID":558460},"geometry":{"x":170070.36000000034,"y":2542049.8500000015}},{"attributes":{"ID":558488,"DIS_CODE":0,"TOWNNAME":"東區","LI":"德光里","LIN":"9鄰","STREET":"崇學路","SECT":" ","MAREA":" ","LANE":" ","ALLEY":" ","HOUSE_NO":"１５號","E_COORD97":170075.38,"N_COORD97":2542051.6299999999,"ADDRESS":"崇學路１５號","OBJECTID":558461},"geometry":{"x":170075.38000000175,"y":2542051.629999999}},{"attributes":{"ID":558489,"DIS_CODE":0,"TOWNNAME":"東區","LI":"德光里","LIN":"9鄰","STREET":"崇學路","SECT":" ","MAREA":" ","LANE":" ","ALLEY":" ","HOUSE_NO":"１７號","E_COORD97":170080.92999999999,"N_COORD97":2542053.2400000002,"ADDRESS":"崇學路１７號","OBJECTID":558462},"geometry":{"x":170080.9299999997,"y":2542053.2400000039}},{"attributes":{"ID":558490,"DIS_CODE":0,"TOWNNAME":"東區","LI":"德光里","LIN":"9鄰","STREET":"崇學路","SECT":" ","MAREA":" ","LANE":" ","ALLEY":" ","HOUSE_NO":"１９號","E_COORD97":170086.66,"N_COORD97":2542053.7799999998,"ADDRESS":"崇學路１９號","OBJECTID":558463},"geometry":{"x":170086.66000000015,"y":2542053.7799999993}},{"attributes":{"ID":558491,"DIS_CODE":0,"TOWNNAME":"東區","LI":"德光里","LIN":"9鄰","STREET":"崇學路","SECT":" ","MAREA":" ","LANE":" ","ALLEY":" ","HOUSE_NO":"１９號地下一層","E_COORD97":170086.66,"N_COORD97":2542053.7799999998,"ADDRESS":"崇學路１９號地下一層","OBJECTID":558464},"geometry":{"x":170086.66000000015,"y":2542053.7799999993}},{"attributes":{"ID":558492,"DIS_CODE":0,"TOWNNAME":"東區","LI":"德光里","LIN":"9鄰","STREET":"崇學路","SECT":" ","MAREA":" ","LANE":" ","ALLEY":" ","HOUSE_NO":"１號","E_COORD97":170036.70000000001,"N_COORD97":2542038.9399999999,"ADDRESS":"崇學路１號","OBJECTID":558465},"geometry":{"x":170036.70000000112,"y":2542038.9400000013}},{"attributes":{"ID":558493,"DIS_CODE":0,"TOWNNAME":"東區","LI":"德光里","LIN":"9鄰","STREET":"崇學路","SECT":" ","MAREA":" ","LANE":" ","ALLEY":" ","HOUSE_NO":"２１號","E_COORD97":170090.76999999999,"N_COORD97":2542054.8500000001,"ADDRESS":"崇學路２１號","OBJECTID":558466},"geometry":{"x":170090.76999999955,"y":2542054.8499999978}},{"attributes":{"ID":558494,"DIS_CODE":0,"TOWNNAME":"東區","LI":"德光里","LIN":"9鄰","STREET":"崇學路","SECT":" ","MAREA":" ","LANE":" ","ALLEY":" ","HOUSE_NO":"２３號","E_COORD97":170095.60999999999,"N_COORD97":2542056.6400000001,"ADDRESS":"崇學路２３號","OBJECTID":558467},"geometry":{"x":170095.61000000034,"y":2542056.6400000006}},{"attributes":{"ID":558495,"DIS_CODE":0,"TOWNNAME":"東區","LI":"德光里","LIN":"9鄰","STREET":"崇學路","SECT":" ","MAREA":" ","LANE":" ","ALLEY":" ","HOUSE_NO":"２５號","E_COORD97":170099.54999999999,"N_COORD97":2542057.8900000001,"ADDRESS":"崇學路２５號","OBJECTID":558468},"geometry":{"x":170099.55000000168,"y":2542057.8900000006}},{"attributes":{"ID":558496,"DIS_CODE":0,"TOWNNAME":"東區","LI":"德光里","LIN":"9鄰","STREET":"崇學路","SECT":" ","MAREA":" ","LANE":" ","ALLEY":" ","HOUSE_NO":"６９號","E_COORD97":170135.81,"N_COORD97":2542070.3999999999,"ADDRESS":"崇學路６９號","OBJECTID":558469},"geometry":{"x":170135.80999999959,"y":2542070.4000000022}},{"attributes":{"ID":558497,"DIS_CODE":0,"TOWNNAME":"東區","LI":"德光里","LIN":"9鄰","STREET":"崇學路","SECT":" ","MAREA":" ","LANE":" ","ALLEY":" ","HOUSE_NO":"７１號","E_COORD97":170140.85999999999,"N_COORD97":2542071.8599999999,"ADDRESS":"崇學路７１號","OBJECTID":558470},"geometry":{"x":170140.86000000127,"y":2542071.8600000031}},{"attributes":{"ID":558498,"DIS_CODE":0,"TOWNNAME":"東區","LI":"德光里","LIN":"9鄰","STREET":"崇學路","SECT":" ","MAREA":" ","LANE":" ","ALLEY":" ","HOUSE_NO":"７３號","E_COORD97":170146.07000000001,"N_COORD97":2542073.1600000001,"ADDRESS":"崇學路７３號","OBJECTID":558471},"geometry":{"x":170146.07000000123,"y":2542073.1600000001}},{"attributes":{"ID":558499,"DIS_CODE":0,"TOWNNAME":"東區","LI":"德光里","LIN":"9鄰","STREET":"崇學路","SECT":" ","MAREA":" ","LANE":" ","ALLEY":" ","HOUSE_NO":"７５號","E_COORD97":170151.44,"N_COORD97":2542074.6299999999,"ADDRESS":"崇學路７５號","OBJECTID":558472},"geometry":{"x":170151.44000000041,"y":2542074.629999999}},{"attributes":{"ID":558500,"DIS_CODE":0,"TOWNNAME":"東區","LI":"德光里","LIN":"9鄰","STREET":"崇學路","SECT":" ","MAREA":" ","LANE":" ","ALLEY":" ","HOUSE_NO":"７７號","E_COORD97":170156.48999999999,"N_COORD97":2542076.5800000001,"ADDRESS":"崇學路７７號","OBJECTID":558473},"geometry":{"x":170156.49000000115,"y":2542076.5800000001}},{"attributes":{"ID":558501,"DIS_CODE":0,"TOWNNAME":"東區","LI":"德光里","LIN":"9鄰","STREET":"崇學路","SECT":" ","MAREA":" ","LANE":" ","ALLEY":" ","HOUSE_NO":"７９號","E_COORD97":170160.73000000001,"N_COORD97":2542078.3700000001,"ADDRESS":"崇學路７９號","OBJECTID":558474},"geometry":{"x":170160.73000000138,"y":2542078.3700000029}},{"attributes":{"ID":558502,"DIS_CODE":0,"TOWNNAME":"東區","LI":"德光里","LIN":"9鄰","STREET":"崇學路","SECT":" ","MAREA":" ","LANE":" ","ALLEY":" ","HOUSE_NO":"８１號地下一層","E_COORD97":170164.64000000001,"N_COORD97":2542079.8300000001,"ADDRESS":"崇學路８１號地下一層","OBJECTID":558475},"geometry":{"x":170164.63999999966,"y":2542079.8300000019}},{"attributes":{"ID":558503,"DIS_CODE":0,"TOWNNAME":"東區","LI":"德光里","LIN":"9鄰","STREET":"崇學路","SECT":" ","MAREA":" ","LANE":" ","ALLEY":" ","HOUSE_NO":"８１號地下二層","E_COORD97":170164.64000000001,"N_COORD97":2542079.8300000001,"ADDRESS":"崇學路８１號地下二層","OBJECTID":558476},"geometry":{"x":170164.63999999966,"y":2542079.8300000019}},{"attributes":{"ID":558504,"DIS_CODE":0,"TOWNNAME":"東區","LI":"德光里","LIN":"9鄰","STREET":"崇學路","SECT":" ","MAREA":" ","LANE":" ","ALLEY":" ","HOUSE_NO":"８１號地下二層之１","E_COORD97":170164.64000000001,"N_COORD97":2542079.8300000001,"ADDRESS":"崇學路８１號地下二層之１","OBJECTID":558477},"geometry":{"x":170164.63999999966,"y":2542079.8300000019}},{"attributes":{"ID":558505,"DIS_CODE":0,"TOWNNAME":"東區","LI":"南聖里","LIN":"9鄰","STREET":"裕誠街","SECT":" ","MAREA":" ","LANE":" ","ALLEY":" ","HOUSE_NO":"２號","E_COORD97":172048.60000000001,"N_COORD97":2543209.5600000001,"ADDRESS":"裕誠街２號","OBJECTID":558478},"geometry":{"x":172048.60000000056,"y":2543209.5600000005}},{"attributes":{"ID":558506,"DIS_CODE":0,"TOWNNAME":"仁德區","LI":"上崙里","LIN":"9鄰","STREET":"德善路","SECT":" ","MAREA":" ","LANE":" ","ALLEY":" ","HOUSE_NO":"３２１號","E_COORD97":173972.79000000001,"N_COORD97":2538494.7599999998,"ADDRESS":"德善路３２１號","OBJECTID":558479},"geometry":{"x":173972.79000000004,"y":2538494.7599999998}},{"attributes":{"ID":558507,"DIS_CODE":0,"TOWNNAME":"仁德區","LI":"後壁里","LIN":"9鄰","STREET":"德善二街","SECT":" ","MAREA":" ","LANE":" ","ALLEY":" ","HOUSE_NO":"６４號","E_COORD97":173713.95000000001,"N_COORD97":2538990.02,"ADDRESS":"德善二街６４號","OBJECTID":558480},"geometry":{"x":173713.95000000019,"y":2538990.0200000014}},{"attributes":{"ID":558508,"DIS_CODE":0,"TOWNNAME":"仁德區","LI":"仁義里","LIN":"9鄰","STREET":"仁義一街","SECT":" ","MAREA":" ","LANE":" ","ALLEY":" ","HOUSE_NO":"１３８號","E_COORD97":173622.48000000001,"N_COORD97":2541177.2599999998,"ADDRESS":"仁義一街１３８號","OBJECTID":558481},"geometry":{"x":173622.48000000045,"y":2541177.2599999998}},{"attributes":{"ID":558509,"DIS_CODE":0,"TOWNNAME":"仁德區","LI":"新田里","LIN":"9鄰","STREET":"北保路","SECT":" ","MAREA":" ","LANE":" ","ALLEY":" ","HOUSE_NO":"１６７號","E_COORD97":173459.04000000001,"N_COORD97":2539459.9900000002,"ADDRESS":"北保路１６７號","OBJECTID":558482},"geometry":{"x":173459.04000000004,"y":2539459.9900000002}},{"attributes":{"ID":558510,"DIS_CODE":0,"TOWNNAME":"仁德區","LI":"仁德里","LIN":"9鄰","STREET":"中正路","SECT":"二段","MAREA":" ","LANE":" ","ALLEY":" ","HOUSE_NO":"１１７５號","E_COORD97":173304.23999999999,"N_COORD97":2541109.6499999999,"ADDRESS":"中正路二段１１７５號","OBJECTID":558483},"geometry":{"x":173304.24000000209,"y":2541109.6500000004}},{"attributes":{"ID":558511,"DIS_CODE":0,"TOWNNAME":"佳里區","LI":"忠仁里","LIN":"9鄰","STREET":"興中街","SECT":" ","MAREA":" ","LANE":" ","ALLEY":" ","HOUSE_NO":"２３號","E_COORD97":165976.44,"N_COORD97":2562189.3500000001,"ADDRESS":"興中街２３號","OBJECTID":558484},"geometry":{"x":165976.44000000227,"y":2562189.3499999996}},{"attributes":{"ID":558512,"DIS_CODE":0,"TOWNNAME":"佳里區","LI":"忠仁里","LIN":"9鄰","STREET":"興中街","SECT":" ","MAREA":" ","LANE":" ","ALLEY":" ","HOUSE_NO":"２５號","E_COORD97":165972.07999999999,"N_COORD97":2562188.6299999999,"ADDRESS":"興中街２５號","OBJECTID":558485},"geometry":{"x":165972.08000000101,"y":2562188.6300000008}},{"attributes":{"ID":558513,"DIS_CODE":0,"TOWNNAME":"佳里區","LI":"忠仁里","LIN":"9鄰","STREET":"興中街","SECT":" ","MAREA":" ","LANE":" ","ALLEY":" ","HOUSE_NO":"２７號","E_COORD97":165967.85000000001,"N_COORD97":2562187.9500000002,"ADDRESS":"興中街２７號","OBJECTID":558486},"geometry":{"x":165967.85000000149,"y":2562187.9499999993}},{"attributes":{"ID":558514,"DIS_CODE":0,"TOWNNAME":"中西區","LI":"郡王里","LIN":"9鄰","STREET":"樹林街","SECT":"二段","MAREA":" ","LANE":" ","ALLEY":" ","HOUSE_NO":"１８６號","E_COORD97":168575.10999999999,"N_COORD97":2542918.6200000001,"ADDRESS":"樹林街二段１８６號","OBJECTID":558487},"geometry":{"x":168575.11000000034,"y":2542918.620000001}},{"attributes":{"ID":558515,"DIS_CODE":0,"TOWNNAME":"中西區","LI":"郡王里","LIN":"9鄰","STREET":"樹林街","SECT":"二段","MAREA":" ","LANE":" ","ALLEY":" ","HOUSE_NO":"１９２號","E_COORD97":168523.84,"N_COORD97":2542928.54,"ADDRESS":"樹林街二段１９２號","OBJECTID":558488},"geometry":{"x":168523.83999999985,"y":2542928.540000001}},{"attributes":{"ID":558516,"DIS_CODE":0,"TOWNNAME":"中西區","LI":"郡王里","LIN":"9鄰","STREET":"樹林街","SECT":"二段","MAREA":" ","LANE":" ","ALLEY":" ","HOUSE_NO":"１９６號","E_COORD97":168517.25,"N_COORD97":2542928.6600000001,"ADDRESS":"樹林街二段１９６號","OBJECTID":558489},"geometry":{"x":168517.25000000093,"y":2542928.660000002}},{"attributes":{"ID":558517,"DIS_CODE":0,"TOWNNAME":"中西區","LI":"郡王里","LIN":"9鄰","STREET":"樹林街","SECT":"二段","MAREA":" ","LANE":" ","ALLEY":" ","HOUSE_NO":"１９８號","E_COORD97":168510.89000000001,"N_COORD97":2542930.1400000001,"ADDRESS":"樹林街二段１９８號","OBJECTID":558490},"geometry":{"x":168510.8900000006,"y":2542930.1400000025}},{"attributes":{"ID":558518,"DIS_CODE":0,"TOWNNAME":"中西區","LI":"郡王里","LIN":"9鄰","STREET":"樹林街","SECT":"二段","MAREA":" ","LANE":" ","ALLEY":" ","HOUSE_NO":"２００號","E_COORD97":168504.89000000001,"N_COORD97":2542931.27,"ADDRESS":"樹林街二段２００號","OBJECTID":558491},"geometry":{"x":168504.88999999966,"y":2542931.2700000014}},{"attributes":{"ID":558519,"DIS_CODE":0,"TOWNNAME":"中西區","LI":"文賢里","LIN":"9鄰","STREET":"和善街","SECT":" ","MAREA":" ","LANE":" ","ALLEY":" ","HOUSE_NO":"９５號","E_COORD97":166950.10999999999,"N_COORD97":2544753.7799999998,"ADDRESS":"和善街９５號","OBJECTID":558492},"geometry":{"x":166950.1100000022,"y":2544753.7799999975}},{"attributes":{"ID":558520,"DIS_CODE":0,"TOWNNAME":"中西區","LI":"郡王里","LIN":"9鄰","STREET":"樹林街","SECT":"二段","MAREA":" ","LANE":" ","ALLEY":" ","HOUSE_NO":"２０２號","E_COORD97":168498.60000000001,"N_COORD97":2542932.1699999999,"ADDRESS":"樹林街二段２０２號","OBJECTID":558493},"geometry":{"x":168498.5999999987,"y":2542932.1700000018}},{"attributes":{"ID":558521,"DIS_CODE":0,"TOWNNAME":"中西區","LI":"郡王里","LIN":"9鄰","STREET":"樹林街","SECT":"二段","MAREA":" ","LANE":" ","ALLEY":" ","HOUSE_NO":"２０６號","E_COORD97":168486.10999999999,"N_COORD97":2542934.2000000002,"ADDRESS":"樹林街二段２０６號","OBJECTID":558494},"geometry":{"x":168486.11000000127,"y":2542934.2000000011}},{"attributes":{"ID":558522,"DIS_CODE":0,"TOWNNAME":"中西區","LI":"郡王里","LIN":"9鄰","STREET":"樹林街","SECT":"二段","MAREA":" ","LANE":" ","ALLEY":" ","HOUSE_NO":"２０８號","E_COORD97":168479.98000000001,"N_COORD97":2542934.8900000001,"ADDRESS":"樹林街二段２０８號","OBJECTID":558495},"geometry":{"x":168479.97999999952,"y":2542934.8900000025}},{"attributes":{"ID":558523,"DIS_CODE":0,"TOWNNAME":"中西區","LI":"郡王里","LIN":"9鄰","STREET":"樹林街","SECT":"二段","MAREA":" ","LANE":" ","ALLEY":" ","HOUSE_NO":"２１０號","E_COORD97":168476.19,"N_COORD97":2542936.0600000001,"ADDRESS":"樹林街二段２１０號","OBJECTID":558496},"geometry":{"x":168476.19000000041,"y":2542936.0600000042}},{"attributes":{"ID":558524,"DIS_CODE":0,"TOWNNAME":"中西區","LI":"郡王里","LIN":"9鄰","STREET":"樹林街","SECT":"二段","MAREA":" ","LANE":" ","ALLEY":" ","HOUSE_NO":"２０４號","E_COORD97":168491.69,"N_COORD97":2542933.3399999999,"ADDRESS":"樹林街二段２０４號","OBJECTID":558497},"geometry":{"x":168491.69000000041,"y":2542933.3400000036}},{"attributes":{"ID":558525,"DIS_CODE":0,"TOWNNAME":"永康區","LI":"埔園里","LIN":"9鄰","STREET":"中山路","SECT":" ","MAREA":" ","LANE":" ","ALLEY":" ","HOUSE_NO":"１１５號","E_COORD97":173737.69,"N_COORD97":2547846.7400000002,"ADDRESS":"中山路１１５號","OBJECTID":558498},"geometry":{"x":173737.69000000134,"y":2547846.7400000002}},{"attributes":{"ID":558526,"DIS_CODE":0,"TOWNNAME":"永康區","LI":"埔園里","LIN":"9鄰","STREET":"中山路","SECT":" ","MAREA":" ","LANE":" ","ALLEY":" ","HOUSE_NO":"１１９號","E_COORD97":173734.95000000001,"N_COORD97":2547858.75,"ADDRESS":"中山路１１９號","OBJECTID":558499},"geometry":{"x":173734.94999999925,"y":2547858.7500000019}},{"attributes":{"ID":558527,"DIS_CODE":0,"TOWNNAME":"永康區","LI":"烏竹里","LIN":"9鄰","STREET":"龍橋街","SECT":" ","MAREA":" ","LANE":" ","ALLEY":" ","HOUSE_NO":"３９６號","E_COORD97":174472.48999999999,"N_COORD97":2549166.6099999999,"ADDRESS":"龍橋街３９６號","OBJECTID":558500},"geometry":{"x":174472.49000000115,"y":2549166.6100000013}},{"attributes":{"ID":558528,"DIS_CODE":0,"TOWNNAME":"仁德區","LI":"一甲里","LIN":"9鄰","STREET":"中正路","SECT":"三段","MAREA":" ","LANE":" ","ALLEY":" ","HOUSE_NO":"３０８號","E_COORD97":173773.04000000001,"N_COORD97":2542249.02,"ADDRESS":"中正路三段３０８號","OBJECTID":558501},"geometry":{"x":173773.04000000004,"y":2542249.0199999996}},{"attributes":{"ID":558529,"DIS_CODE":0,"TOWNNAME":"仁德區","LI":"一甲里","LIN":"9鄰","STREET":"中正路","SECT":"三段","MAREA":" ","LANE":" ","ALLEY":" ","HOUSE_NO":"２２０號","E_COORD97":173546.64999999999,"N_COORD97":2541934.02,"ADDRESS":"中正路三段２２０號","OBJECTID":558502},"geometry":{"x":173546.65000000037,"y":2541934.0199999996}},{"attributes":{"ID":558530,"DIS_CODE":0,"TOWNNAME":"新化區","LI":"太平里","LIN":"9鄰","STREET":"中正路","SECT":" ","MAREA":" ","LANE":" ","ALLEY":" ","HOUSE_NO":"６９０號之５６","E_COORD97":179171.20999999999,"N_COORD97":2550222.2599999998,"ADDRESS":"中正路６９０號之５６","OBJECTID":558503},"geometry":{"x":179171.21000000183,"y":2550222.2599999998}},{"attributes":{"ID":558531,"DIS_CODE":0,"TOWNNAME":"南區","LI":"新昌里","LIN":"9鄰","STREET":"府緯街","SECT":" ","MAREA":" ","LANE":" ","ALLEY":" ","HOUSE_NO":"９０號","E_COORD97":167662.48999999999,"N_COORD97":2542732.4900000002,"ADDRESS":"府緯街９０號","OBJECTID":558504},"geometry":{"x":167662.49000000022,"y":2542732.4900000002}},{"attributes":{"ID":558532,"DIS_CODE":0,"TOWNNAME":"南區","LI":"新昌里","LIN":"9鄰","STREET":"府緯街","SECT":" ","MAREA":" ","LANE":" ","ALLEY":" ","HOUSE_NO":"９３號","E_COORD97":167626.45999999999,"N_COORD97":2542705.8999999999,"ADDRESS":"府緯街９３號","OBJECTID":558505},"geometry":{"x":167626.45999999996,"y":2542705.9000000004}},{"attributes":{"ID":558533,"DIS_CODE":0,"TOWNNAME":"新化區","LI":"護國里","LIN":"9鄰","STREET":"中山路","SECT":" ","MAREA":" ","LANE":" ","ALLEY":" ","HOUSE_NO":"１１５號之７","E_COORD97":179668.25,"N_COORD97":2549127.2599999998,"ADDRESS":"中山路１１５號之７","OBJECTID":558506},"geometry":{"x":179668.25000000093,"y":2549127.2599999998}},{"attributes":{"ID":558534,"DIS_CODE":0,"TOWNNAME":"西港區","LI":"慶安里","LIN":"9鄰","STREET":"新興街","SECT":" ","MAREA":" ","LANE":" ","ALLEY":" ","HOUSE_NO":"１０８號之１０","E_COORD97":168243.20000000001,"N_COORD97":2558266.5099999998,"ADDRESS":"新興街１０８號之１０","OBJECTID":558507},"geometry":{"x":168243.20000000112,"y":2558266.5099999998}},{"attributes":{"ID":558535,"DIS_CODE":0,"TOWNNAME":"西港區","LI":"慶安里","LIN":"9鄰","STREET":"新興街","SECT":" ","MAREA":" ","LANE":" ","ALLEY":" ","HOUSE_NO":"１０８號之１１","E_COORD97":168260.64999999999,"N_COORD97":2558263.7999999998,"ADDRESS":"新興街１０８號之１１","OBJECTID":558508},"geometry":{"x":168260.6500000013,"y":2558263.8000000026}},{"attributes":{"ID":558536,"DIS_CODE":0,"TOWNNAME":"西港區","LI":"慶安里","LIN":"9鄰","STREET":"新興街","SECT":" ","MAREA":" ","LANE":" ","ALLEY":" ","HOUSE_NO":"１０８號之１２","E_COORD97":168261.64000000001,"N_COORD97":2558270.04,"ADDRESS":"新興街１０８號之１２","OBJECTID":558509},"geometry":{"x":168261.6400000006,"y":2558270.040000001}},{"attributes":{"ID":558537,"DIS_CODE":0,"TOWNNAME":"西港區","LI":"慶安里","LIN":"9鄰","STREET":"新興街","SECT":" ","MAREA":" ","LANE":" ","ALLEY":" ","HOUSE_NO":"１０８號之１３","E_COORD97":168228.70000000001,"N_COORD97":2558295.04,"ADDRESS":"新興街１０８號之１３","OBJECTID":558510},"geometry":{"x":168228.70000000019,"y":2558295.0399999991}},{"attributes":{"ID":558538,"DIS_CODE":0,"TOWNNAME":"西港區","LI":"慶安里","LIN":"9鄰","STREET":"新興街","SECT":" ","MAREA":" ","LANE":" ","ALLEY":" ","HOUSE_NO":"１０８號之１４","E_COORD97":168258.32999999999,"N_COORD97":2558284.73,"ADDRESS":"新興街１０８號之１４","OBJECTID":558511},"geometry":{"x":168258.33000000007,"y":2558284.7300000023}},{"attributes":{"ID":558539,"DIS_CODE":0,"TOWNNAME":"西港區","LI":"慶安里","LIN":"9鄰","STREET":"新興街","SECT":" ","MAREA":" ","LANE":" ","ALLEY":" ","HOUSE_NO":"１０８號之１５","E_COORD97":168264.70000000001,"N_COORD97":2558282.9100000001,"ADDRESS":"新興街１０８號之１５","OBJECTID":558512},"geometry":{"x":168264.70000000205,"y":2558282.910000002}},{"attributes":{"ID":558540,"DIS_CODE":0,"TOWNNAME":"西港區","LI":"慶安里","LIN":"9鄰","STREET":"新興街","SECT":" ","MAREA":" ","LANE":" ","ALLEY":" ","HOUSE_NO":"１０８號之１６","E_COORD97":168271.45000000001,"N_COORD97":2558281.2999999998,"ADDRESS":"新興街１０８號之１６","OBJECTID":558513},"geometry":{"x":168271.45000000205,"y":2558281.3000000007}},{"attributes":{"ID":558541,"DIS_CODE":0,"TOWNNAME":"西港區","LI":"慶安里","LIN":"9鄰","STREET":"新興街","SECT":" ","MAREA":" ","LANE":" ","ALLEY":" ","HOUSE_NO":"１０８號之１７","E_COORD97":168277.82999999999,"N_COORD97":2558280.4700000002,"ADDRESS":"新興街１０８號之１７","OBJECTID":558514},"geometry":{"x":168277.83000000101,"y":2558280.4700000007}},{"attributes":{"ID":558542,"DIS_CODE":0,"TOWNNAME":"西港區","LI":"慶安里","LIN":"9鄰","STREET":"新興街","SECT":" ","MAREA":" ","LANE":" ","ALLEY":" ","HOUSE_NO":"１０８號之１８","E_COORD97":168284.45999999999,"N_COORD97":2558279.1200000001,"ADDRESS":"新興街１０８號之１８","OBJECTID":558515},"geometry":{"x":168284.45999999996,"y":2558279.1200000029}},{"attributes":{"ID":558543,"DIS_CODE":0,"TOWNNAME":"西港區","LI":"慶安里","LIN":"9鄰","STREET":"新興街","SECT":" ","MAREA":" ","LANE":" ","ALLEY":" ","HOUSE_NO":"１０８號之１９","E_COORD97":168290.41,"N_COORD97":2558278.2799999998,"ADDRESS":"新興街１０８號之１９","OBJECTID":558516},"geometry":{"x":168290.41000000201,"y":2558278.2800000031}},{"attributes":{"ID":558544,"DIS_CODE":0,"TOWNNAME":"西港區","LI":"慶安里","LIN":"9鄰","STREET":"新興街","SECT":" ","MAREA":" ","LANE":" ","ALLEY":" ","HOUSE_NO":"１０８號之１","E_COORD97":168216.76000000001,"N_COORD97":2558252.9500000002,"ADDRESS":"新興街１０８號之１","OBJECTID":558517},"geometry":{"x":168216.76000000071,"y":2558252.9499999974}},{"attributes":{"ID":558545,"DIS_CODE":0,"TOWNNAME":"永康區","LI":"西勢里","LIN":"9鄰","STREET":"富強路","SECT":"一段","MAREA":" ","LANE":" ","ALLEY":" ","HOUSE_NO":"３５０號","E_COORD97":175726.95000000001,"N_COORD97":2546749.73,"ADDRESS":"富強路一段３５０號","OBJECTID":558518},"geometry":{"x":175726.95000000205,"y":2546749.7300000023}},{"attributes":{"ID":558546,"DIS_CODE":0,"TOWNNAME":"東區","LI":"文聖里","LIN":"9鄰","STREET":"裕農三街","SECT":" ","MAREA":" ","LANE":" ","ALLEY":" ","HOUSE_NO":"１７５之８號","E_COORD97":172083.79000000001,"N_COORD97":2542712.8100000001,"ADDRESS":"裕農三街１７５之８號","OBJECTID":558519},"geometry":{"x":172083.79000000097,"y":2542712.8100000005}},{"attributes":{"ID":558547,"DIS_CODE":0,"TOWNNAME":"東區","LI":"文聖里","LIN":"9鄰","STREET":"裕興街","SECT":" ","MAREA":" ","LANE":" ","ALLEY":" ","HOUSE_NO":"８５號","E_COORD97":172091.32999999999,"N_COORD97":2542665.23,"ADDRESS":"裕興街８５號","OBJECTID":558520},"geometry":{"x":172091.32999999914,"y":2542665.2300000023}},{"attributes":{"ID":558548,"DIS_CODE":0,"TOWNNAME":"東區","LI":"文聖里","LIN":"9鄰","STREET":"裕興街","SECT":" ","MAREA":" ","LANE":" ","ALLEY":" ","HOUSE_NO":"８７號","E_COORD97":172096.85999999999,"N_COORD97":2542665.23,"ADDRESS":"裕興街８７號","OBJECTID":558521},"geometry":{"x":172096.86000000127,"y":2542665.2300000023}},{"attributes":{"ID":558549,"DIS_CODE":0,"TOWNNAME":"東區","LI":"南聖里","LIN":"9鄰","STREET":"裕和路","SECT":" ","MAREA":" ","LANE":" ","ALLEY":" ","HOUSE_NO":"７１號","E_COORD97":172118.78,"N_COORD97":2543143.8799999999,"ADDRESS":"裕和路７１號","OBJECTID":558522},"geometry":{"x":172118.78000000026,"y":2543143.8800000008}},{"attributes":{"ID":558550,"DIS_CODE":0,"TOWNNAME":"東區","LI":"崇善里","LIN":"9鄰","STREET":"崇善四街","SECT":" ","MAREA":" ","LANE":" ","ALLEY":" ","HOUSE_NO":"３號","E_COORD97":171000.06,"N_COORD97":2541699.1499999999,"ADDRESS":"崇善四街３號","OBJECTID":558523},"geometry":{"x":171000.06000000052,"y":2541699.1500000022}},{"attributes":{"ID":558551,"DIS_CODE":0,"TOWNNAME":"仁德區","LI":"仁義里","LIN":"9鄰","STREET":"仁義三街","SECT":" ","MAREA":" ","LANE":" ","ALLEY":" ","HOUSE_NO":"１１５號","E_COORD97":173639.76000000001,"N_COORD97":2541134.02,"ADDRESS":"仁義三街１１５號","OBJECTID":558524},"geometry":{"x":173639.76000000071,"y":2541134.0199999996}},{"attributes":{"ID":558552,"DIS_CODE":0,"TOWNNAME":"中西區","LI":"三民里","LIN":"9鄰","STREET":"中山路","SECT":" ","MAREA":" ","LANE":" ","ALLEY":" ","HOUSE_NO":"７３號","E_COORD97":168714.69,"N_COORD97":2543843.98,"ADDRESS":"中山路７３號","OBJECTID":558525},"geometry":{"x":168714.69000000134,"y":2543843.9800000004}},{"attributes":{"ID":558553,"DIS_CODE":0,"TOWNNAME":"中西區","LI":"五妃里","LIN":"9鄰","STREET":"南門路","SECT":" ","MAREA":" ","LANE":" ","ALLEY":" ","HOUSE_NO":"２２３號之１","E_COORD97":168409.32000000001,"N_COORD97":2542805.7599999998,"ADDRESS":"南門路２２３號之１","OBJECTID":558526},"geometry":{"x":168409.3200000003,"y":2542805.7600000016}},{"attributes":{"ID":558554,"DIS_CODE":0,"TOWNNAME":"中西區","LI":"五妃里","LIN":"9鄰","STREET":"南門路","SECT":" ","MAREA":" ","LANE":" ","ALLEY":" ","HOUSE_NO":"２２３號之２","E_COORD97":168408.59,"N_COORD97":2542799.46,"ADDRESS":"南門路２２３號之２","OBJECTID":558527},"geometry":{"x":168408.58999999985,"y":2542799.4600000028}},{"attributes":{"ID":558555,"DIS_CODE":0,"TOWNNAME":"中西區","LI":"五妃里","LIN":"9鄰","STREET":"南門路","SECT":" ","MAREA":" ","LANE":" ","ALLEY":" ","HOUSE_NO":"２２３號之３","E_COORD97":168407.98999999999,"N_COORD97":2542792.79,"ADDRESS":"南門路２２３號之３","OBJECTID":558528},"geometry":{"x":168407.99000000022,"y":2542792.7899999991}},{"attributes":{"ID":558556,"DIS_CODE":0,"TOWNNAME":"中西區","LI":"五妃里","LIN":"9鄰","STREET":"南門路","SECT":" ","MAREA":" ","LANE":" ","ALLEY":" ","HOUSE_NO":"２２３號之４","E_COORD97":168407.26000000001,"N_COORD97":2542786,"ADDRESS":"南門路２２３號之４","OBJECTID":558529},"geometry":{"x":168407.25999999978,"y":2542786}},{"attributes":{"ID":558557,"DIS_CODE":0,"TOWNNAME":"中西區","LI":"五妃里","LIN":"9鄰","STREET":"南門路","SECT":" ","MAREA":" ","LANE":" ","ALLEY":" ","HOUSE_NO":"２２３號之５","E_COORD97":168406.64999999999,"N_COORD97":2542780.4300000002,"ADDRESS":"南門路２２３號之５","OBJECTID":558530},"geometry":{"x":168406.6500000013,"y":2542780.4300000016}},{"attributes":{"ID":558558,"DIS_CODE":0,"TOWNNAME":"中西區","LI":"五妃里","LIN":"9鄰","STREET":"南寧街","SECT":" ","MAREA":" ","LANE":" ","ALLEY":" ","HOUSE_NO":"３１號","E_COORD97":168459.04000000001,"N_COORD97":2542788.8999999999,"ADDRESS":"南寧街３１號","OBJECTID":558531},"geometry":{"x":168459.04000000097,"y":2542788.9000000022}},{"attributes":{"ID":558559,"DIS_CODE":0,"TOWNNAME":"中西區","LI":"五妃里","LIN":"9鄰","STREET":"南寧街","SECT":" ","MAREA":" ","LANE":" ","ALLEY":" ","HOUSE_NO":"３３號","E_COORD97":168452.79000000001,"N_COORD97":2542797.2000000002,"ADDRESS":"南寧街３３號","OBJECTID":558532},"geometry":{"x":168452.79000000097,"y":2542797.1999999993}},{"attributes":{"ID":558560,"DIS_CODE":0,"TOWNNAME":"中西區","LI":"五妃里","LIN":"9鄰","STREET":"南寧街","SECT":" ","MAREA":" ","LANE":" ","ALLEY":" ","HOUSE_NO":"３５號","E_COORD97":168445.64000000001,"N_COORD97":2542797.8300000001,"ADDRESS":"南寧街３５號","OBJECTID":558533},"geometry":{"x":168445.63999999966,"y":2542797.8300000001}},{"attributes":{"ID":558561,"DIS_CODE":0,"TOWNNAME":"中西區","LI":"五妃里","LIN":"9鄰","STREET":"南寧街","SECT":" ","MAREA":" ","LANE":" ","ALLEY":" ","HOUSE_NO":"４１號","E_COORD97":168424.98000000001,"N_COORD97":2542804.4300000002,"ADDRESS":"南寧街４１號","OBJECTID":558534},"geometry":{"x":168424.98000000045,"y":2542804.4300000016}},{"attributes":{"ID":558562,"DIS_CODE":0,"TOWNNAME":"中西區","LI":"五妃里","LIN":"9鄰","STREET":"南寧街","SECT":" ","MAREA":" ","LANE":" ","ALLEY":" ","HOUSE_NO":"４３號","E_COORD97":168418.42999999999,"N_COORD97":2542804.4300000002,"ADDRESS":"南寧街４３號","OBJECTID":558535},"geometry":{"x":168418.4299999997,"y":2542804.4300000016}},{"attributes":{"ID":558563,"DIS_CODE":0,"TOWNNAME":"東區","LI":"崇成里","LIN":"9鄰","STREET":"崇德十三街","SECT":" ","MAREA":" ","LANE":" ","ALLEY":" ","HOUSE_NO":"２０號","E_COORD97":170866.41,"N_COORD97":2541280.8900000001,"ADDRESS":"崇德十三街２０號","OBJECTID":558536},"geometry":{"x":170866.41000000015,"y":2541280.8900000025}},{"attributes":{"ID":558564,"DIS_CODE":0,"TOWNNAME":"中西區","LI":"仙草里","LIN":"9鄰","STREET":"府緯街","SECT":" ","MAREA":" ","LANE":" ","ALLEY":" ","HOUSE_NO":"５８號","E_COORD97":167822.17000000001,"N_COORD97":2542732.2200000002,"ADDRESS":"府緯街５８號","OBJECTID":558537},"geometry":{"x":167822.17000000179,"y":2542732.2200000025}},{"attributes":{"ID":558565,"DIS_CODE":0,"TOWNNAME":"中西區","LI":"仙草里","LIN":"9鄰","STREET":"府緯街","SECT":" ","MAREA":" ","LANE":" ","ALLEY":" ","HOUSE_NO":"４３號","E_COORD97":167841.89999999999,"N_COORD97":2542711.52,"ADDRESS":"府緯街４３號","OBJECTID":558538},"geometry":{"x":167841.9000000013,"y":2542711.5200000033}},{"attributes":{"ID":558566,"DIS_CODE":0,"TOWNNAME":"中西區","LI":"仙草里","LIN":"9鄰","STREET":"府緯街","SECT":" ","MAREA":" ","LANE":" ","ALLEY":" ","HOUSE_NO":"４６號","E_COORD97":167856.17999999999,"N_COORD97":2542730.4900000002,"ADDRESS":"府緯街４６號","OBJECTID":558539},"geometry":{"x":167856.18000000063,"y":2542730.4900000021}},{"attributes":{"ID":558567,"DIS_CODE":0,"TOWNNAME":"善化區","LI":"西關里","LIN":"9鄰","STREET":"復興街","SECT":" ","MAREA":" ","LANE":" ","ALLEY":" ","HOUSE_NO":"３２號","E_COORD97":177033.85999999999,"N_COORD97":2559055.2599999998,"ADDRESS":"復興街３２號","OBJECTID":558540},"geometry":{"x":177033.86000000034,"y":2559055.2600000035}},{"attributes":{"ID":558568,"DIS_CODE":0,"TOWNNAME":"東區","LI":"大學里","LIN":"9鄰","STREET":"長榮路","SECT":"三段","MAREA":" ","LANE":" ","ALLEY":" ","HOUSE_NO":"１號","E_COORD97":170169.01999999999,"N_COORD97":2543649.1099999999,"ADDRESS":"長榮路三段１號","OBJECTID":558541},"geometry":{"x":170169.02000000142,"y":2543649.1099999994}},{"attributes":{"ID":558569,"DIS_CODE":0,"TOWNNAME":"東區","LI":"龍山里","LIN":"9鄰","STREET":"東門路","SECT":"二段","MAREA":" ","LANE":" ","ALLEY":" ","HOUSE_NO":"１５２號","E_COORD97":170159.79999999999,"N_COORD97":2542914.9900000002,"ADDRESS":"東門路二段１５２號","OBJECTID":558542},"geometry":{"x":170159.79999999981,"y":2542914.9900000002}},{"attributes":{"ID":558570,"DIS_CODE":0,"TOWNNAME":"東區","LI":"龍山里","LIN":"9鄰","STREET":"東門路","SECT":"二段","MAREA":" ","LANE":" ","ALLEY":" ","HOUSE_NO":"１５４號","E_COORD97":170169.25,"N_COORD97":2542908.46,"ADDRESS":"東門路二段１５４號","OBJECTID":558543},"geometry":{"x":170169.25,"y":2542908.4600000009}},{"attributes":{"ID":558571,"DIS_CODE":0,"TOWNNAME":"永康區","LI":"\u25A0行里","LIN":"9鄰","STREET":"中正路","SECT":" ","MAREA":" ","LANE":" ","ALLEY":" ","HOUSE_NO":"４０３號之３","E_COORD97":172337.04000000001,"N_COORD97":2548367.6699999999,"ADDRESS":"中正路４０３號之３","OBJECTID":558544},"geometry":{"x":172337.04000000004,"y":2548367.6700000018}},{"attributes":{"ID":558572,"DIS_CODE":0,"TOWNNAME":"永康區","LI":"\u25A0行里","LIN":"9鄰","STREET":"中正路","SECT":" ","MAREA":" ","LANE":" ","ALLEY":" ","HOUSE_NO":"３８３號","E_COORD97":172431.14000000001,"N_COORD97":2548442.6299999999,"ADDRESS":"中正路３８３號","OBJECTID":558545},"geometry":{"x":172431.13999999966,"y":2548442.629999999}},{"attributes":{"ID":558573,"DIS_CODE":0,"TOWNNAME":"中西區","LI":"天后里","LIN":"9鄰","STREET":"新美街","SECT":" ","MAREA":" ","LANE":" ","ALLEY":" ","HOUSE_NO":"１０３號","E_COORD97":168063.28,"N_COORD97":2544126.1099999999,"ADDRESS":"新美街１０３號","OBJECTID":558546},"geometry":{"x":168063.28000000119,"y":2544126.1100000013}},{"attributes":{"ID":558574,"DIS_CODE":0,"TOWNNAME":"中西區","LI":"天后里","LIN":"9鄰","STREET":"新美街","SECT":" ","MAREA":" ","LANE":" ","ALLEY":" ","HOUSE_NO":"１０５號","E_COORD97":168066.10000000001,"N_COORD97":2544130.27,"ADDRESS":"新美街１０５號","OBJECTID":558547},"geometry":{"x":168066.09999999963,"y":2544130.2699999977}},{"attributes":{"ID":558575,"DIS_CODE":0,"TOWNNAME":"中西區","LI":"天后里","LIN":"9鄰","STREET":"新美街","SECT":" ","MAREA":" ","LANE":" ","ALLEY":" ","HOUSE_NO":"１０７號","E_COORD97":168065.16,"N_COORD97":2544136.1699999999,"ADDRESS":"新美街１０７號","OBJECTID":558548},"geometry":{"x":168065.16000000108,"y":2544136.1700000018}},{"attributes":{"ID":558576,"DIS_CODE":0,"TOWNNAME":"中西區","LI":"天后里","LIN":"9鄰","STREET":"新美街","SECT":" ","MAREA":" ","LANE":" ","ALLEY":" ","HOUSE_NO":"１０９號","E_COORD97":168065.29999999999,"N_COORD97":2544141.9399999999,"ADDRESS":"新美街１０９號","OBJECTID":558549},"geometry":{"x":168065.30000000168,"y":2544141.9399999995}},{"attributes":{"ID":558577,"DIS_CODE":0,"TOWNNAME":"中西區","LI":"天后里","LIN":"9鄰","STREET":"新美街","SECT":" ","MAREA":" ","LANE":" ","ALLEY":" ","HOUSE_NO":"１１１號","E_COORD97":168065.70000000001,"N_COORD97":2544145.02,"ADDRESS":"新美街１１１號","OBJECTID":558550},"geometry":{"x":168065.70000000019,"y":2544145.0199999996}},{"attributes":{"ID":558578,"DIS_CODE":0,"TOWNNAME":"中西區","LI":"天后里","LIN":"9鄰","STREET":"新美街","SECT":" ","MAREA":" ","LANE":" ","ALLEY":" ","HOUSE_NO":"１１３號","E_COORD97":168068.12,"N_COORD97":2544148.6400000001,"ADDRESS":"新美街１１３號","OBJECTID":558551},"geometry":{"x":168068.12000000011,"y":2544148.6400000006}},{"attributes":{"ID":558579,"DIS_CODE":0,"TOWNNAME":"中西區","LI":"天后里","LIN":"9鄰","STREET":"新美街","SECT":" ","MAREA":" ","LANE":" ","ALLEY":" ","HOUSE_NO":"１１５號","E_COORD97":168068.38,"N_COORD97":2544150.79,"ADDRESS":"新美街１１５號","OBJECTID":558552},"geometry":{"x":168068.38000000082,"y":2544150.790000001}},{"attributes":{"ID":558580,"DIS_CODE":0,"TOWNNAME":"中西區","LI":"天后里","LIN":"9鄰","STREET":"新美街","SECT":" ","MAREA":" ","LANE":" ","ALLEY":" ","HOUSE_NO":"１１７號","E_COORD97":168068.92000000001,"N_COORD97":2544152.6600000001,"ADDRESS":"新美街１１７號","OBJECTID":558553},"geometry":{"x":168068.91999999993,"y":2544152.660000002}},{"attributes":{"ID":558581,"DIS_CODE":0,"TOWNNAME":"中西區","LI":"天后里","LIN":"9鄰","STREET":"新美街","SECT":" ","MAREA":" ","LANE":" ","ALLEY":" ","HOUSE_NO":"１１９號","E_COORD97":168076.57999999999,"N_COORD97":2544156.8799999999,"ADDRESS":"新美街１１９號","OBJECTID":558554},"geometry":{"x":168076.58000000007,"y":2544156.8800000008}},{"attributes":{"ID":558582,"DIS_CODE":0,"TOWNNAME":"中西區","LI":"天后里","LIN":"9鄰","STREET":"新美街","SECT":" ","MAREA":" ","LANE":" ","ALLEY":" ","HOUSE_NO":"１２１號","E_COORD97":168078.45999999999,"N_COORD97":2544160.1000000001,"ADDRESS":"新美街１２１號","OBJECTID":558555},"geometry":{"x":168078.46000000089,"y":2544160.1000000015}},{"attributes":{"ID":558583,"DIS_CODE":0,"TOWNNAME":"中西區","LI":"天后里","LIN":"9鄰","STREET":"新美街","SECT":" ","MAREA":" ","LANE":" ","ALLEY":" ","HOUSE_NO":"１２３號","E_COORD97":168075.23999999999,"N_COORD97":2544165.3300000001,"ADDRESS":"新美街１２３號","OBJECTID":558556},"geometry":{"x":168075.24000000115,"y":2544165.3300000019}},{"attributes":{"ID":558584,"DIS_CODE":0,"TOWNNAME":"中西區","LI":"天后里","LIN":"9鄰","STREET":"新美街","SECT":" ","MAREA":" ","LANE":" ","ALLEY":" ","HOUSE_NO":"１２７號","E_COORD97":168068.79999999999,"N_COORD97":2544174.1800000002,"ADDRESS":"新美街１２７號","OBJECTID":558557},"geometry":{"x":168068.80000000168,"y":2544174.1799999997}},{"attributes":{"ID":558585,"DIS_CODE":0,"TOWNNAME":"中西區","LI":"天后里","LIN":"9鄰","STREET":"新美街","SECT":" ","MAREA":" ","LANE":" ","ALLEY":" ","HOUSE_NO":"１３５號","E_COORD97":168077.25,"N_COORD97":2544185.1800000002,"ADDRESS":"新美街１３５號","OBJECTID":558558},"geometry":{"x":168077.25,"y":2544185.1799999978}},{"attributes":{"ID":558586,"DIS_CODE":0,"TOWNNAME":"中西區","LI":"天后里","LIN":"9鄰","STREET":"新美街","SECT":" ","MAREA":" ","LANE":" ","ALLEY":" ","HOUSE_NO":"１３７號","E_COORD97":168078.45999999999,"N_COORD97":2544190,"ADDRESS":"新美街１３７號","OBJECTID":558559},"geometry":{"x":168078.46000000089,"y":2544190}},{"attributes":{"ID":558587,"DIS_CODE":0,"TOWNNAME":"安南區","LI":"安順里","LIN":"9鄰","STREET":"安和路","SECT":"四段","MAREA":" ","LANE":" ","ALLEY":" ","HOUSE_NO":"１３７號","E_COORD97":169909.47,"N_COORD97":2550428.1200000001,"ADDRESS":"安和路四段１３７號","OBJECTID":558560},"geometry":{"x":169909.46999999974,"y":2550428.120000001}},{"attributes":{"ID":558588,"DIS_CODE":0,"TOWNNAME":"安南區","LI":"安順里","LIN":"9鄰","STREET":"安和路","SECT":"四段","MAREA":" ","LANE":" ","ALLEY":" ","HOUSE_NO":"１２５號","E_COORD97":169914.60999999999,"N_COORD97":2550399.04,"ADDRESS":"安和路四段１２５號","OBJECTID":558561},"geometry":{"x":169914.61000000034,"y":2550399.0399999991}},{"attributes":{"ID":558589,"DIS_CODE":0,"TOWNNAME":"安南區","LI":"安順里","LIN":"9鄰","STREET":"安和路","SECT":"四段","MAREA":" ","LANE":" ","ALLEY":" ","HOUSE_NO":"１２７號之１","E_COORD97":169913.92999999999,"N_COORD97":2550403.1600000001,"ADDRESS":"安和路四段１２７號之１","OBJECTID":558562},"geometry":{"x":169913.93000000063,"y":2550403.1600000001}},{"attributes":{"ID":558590,"DIS_CODE":0,"TOWNNAME":"中西區","LI":"文賢里","LIN":"9鄰","STREET":"和善街","SECT":" ","MAREA":" ","LANE":" ","ALLEY":" ","HOUSE_NO":"９７號","E_COORD97":166949.22,"N_COORD97":2544756.4199999999,"ADDRESS":"和善街９７號","OBJECTID":558563},"geometry":{"x":166949.22000000067,"y":2544756.4199999999}},{"attributes":{"ID":558591,"DIS_CODE":0,"TOWNNAME":"安南區","LI":"城北里","LIN":"9鄰","STREET":"城北路","SECT":" ","MAREA":" ","LANE":" ","ALLEY":" ","HOUSE_NO":"７３號","E_COORD97":160958.42999999999,"N_COORD97":2551567.27,"ADDRESS":"城北路７３號","OBJECTID":558564},"geometry":{"x":160958.43000000063,"y":2551567.2699999996}},{"attributes":{"ID":558592,"DIS_CODE":0,"TOWNNAME":"安南區","LI":"城北里","LIN":"9鄰","STREET":"城北路","SECT":" ","MAREA":" ","LANE":" ","ALLEY":" ","HOUSE_NO":"６７號","E_COORD97":160950.92999999999,"N_COORD97":2551557.1200000001,"ADDRESS":"城北路６７號","OBJECTID":558565},"geometry":{"x":160950.9299999997,"y":2551557.120000001}},{"attributes":{"ID":558593,"DIS_CODE":0,"TOWNNAME":"安南區","LI":"城北里","LIN":"9鄰","STREET":"城北路","SECT":" ","MAREA":" ","LANE":" ","ALLEY":" ","HOUSE_NO":"６９號","E_COORD97":160953.42999999999,"N_COORD97":2551560.7799999998,"ADDRESS":"城北路６９號","OBJECTID":558566},"geometry":{"x":160953.43000000063,"y":2551560.7799999993}},{"attributes":{"ID":558594,"DIS_CODE":0,"TOWNNAME":"安南區","LI":"城北里","LIN":"9鄰","STREET":"城北路","SECT":" ","MAREA":" ","LANE":" ","ALLEY":" ","HOUSE_NO":"４３號","E_COORD97":160903.72,"N_COORD97":2551531.0800000001,"ADDRESS":"城北路４３號","OBJECTID":558567},"geometry":{"x":160903.72000000067,"y":2551531.0800000019}},{"attributes":{"ID":558595,"DIS_CODE":0,"TOWNNAME":"安南區","LI":"城北里","LIN":"9鄰","STREET":"城北路","SECT":" ","MAREA":" ","LANE":" ","ALLEY":" ","HOUSE_NO":"９５號","E_COORD97":160988.91,"N_COORD97":2551592.3999999999,"ADDRESS":"城北路９５號","OBJECTID":558568},"geometry":{"x":160988.91000000015,"y":2551592.3999999985}},{"attributes":{"ID":558596,"DIS_CODE":0,"TOWNNAME":"安南區","LI":"城北里","LIN":"9鄰","STREET":"城北路","SECT":" ","MAREA":" ","LANE":" ","ALLEY":" ","HOUSE_NO":"３１號","E_COORD97":160888.39999999999,"N_COORD97":2551525.0899999999,"ADDRESS":"城北路３１號","OBJECTID":558569},"geometry":{"x":160888.4000000013,"y":2551525.0899999999}},{"attributes":{"ID":558597,"DIS_CODE":0,"TOWNNAME":"安南區","LI":"城北里","LIN":"9鄰","STREET":"城北路","SECT":" ","MAREA":" ","LANE":" ","ALLEY":" ","HOUSE_NO":"１７號","E_COORD97":160860.73999999999,"N_COORD97":2551510.8900000001,"ADDRESS":"城北路１７號","OBJECTID":558570},"geometry":{"x":160860.74000000022,"y":2551510.8900000006}},{"attributes":{"ID":558598,"DIS_CODE":0,"TOWNNAME":"安南區","LI":"城北里","LIN":"9鄰","STREET":"城北路","SECT":" ","MAREA":" ","LANE":" ","ALLEY":" ","HOUSE_NO":"１１號","E_COORD97":160845.19,"N_COORD97":2551501.4100000001,"ADDRESS":"城北路１１號","OBJECTID":558571},"geometry":{"x":160845.19000000227,"y":2551501.410000002}},{"attributes":{"ID":558599,"DIS_CODE":0,"TOWNNAME":"安南區","LI":"城北里","LIN":"9鄰","STREET":"尊安街","SECT":" ","MAREA":" ","LANE":" ","ALLEY":" ","HOUSE_NO":"４３號","E_COORD97":160895.60999999999,"N_COORD97":2551601.7000000002,"ADDRESS":"尊安街４３號","OBJECTID":558572},"geometry":{"x":160895.61000000127,"y":2551601.6999999993}},{"attributes":{"ID":558600,"DIS_CODE":0,"TOWNNAME":"安南區","LI":"城東里","LIN":"9鄰","STREET":"城北路","SECT":" ","MAREA":" ","LANE":" ","ALLEY":" ","HOUSE_NO":"１２４號","E_COORD97":161031.70000000001,"N_COORD97":2551635.6600000001,"ADDRESS":"城北路１２４號","OBJECTID":558573},"geometry":{"x":161031.70000000112,"y":2551635.660000002}},{"attributes":{"ID":558601,"DIS_CODE":0,"TOWNNAME":"安南區","LI":"城東里","LIN":"9鄰","STREET":"城北路","SECT":" ","MAREA":" ","LANE":" ","ALLEY":" ","HOUSE_NO":"１３０號","E_COORD97":161029.53,"N_COORD97":2551649.5299999998,"ADDRESS":"城北路１３０號","OBJECTID":558574},"geometry":{"x":161029.53000000119,"y":2551649.5300000012}},{"attributes":{"ID":558602,"DIS_CODE":0,"TOWNNAME":"安南區","LI":"淵東里","LIN":"9鄰","STREET":"本原街","SECT":"三段","MAREA":" ","LANE":" ","ALLEY":" ","HOUSE_NO":"３０７號","E_COORD97":165334.69,"N_COORD97":2550173.48,"ADDRESS":"本原街三段３０７號","OBJECTID":558575},"geometry":{"x":165334.69000000134,"y":2550173.4800000004}},{"attributes":{"ID":558603,"DIS_CODE":0,"TOWNNAME":"安南區","LI":"淵東里","LIN":"9鄰","STREET":"本原街","SECT":"三段","MAREA":" ","LANE":" ","ALLEY":" ","HOUSE_NO":"２９３號","E_COORD97":165339.56,"N_COORD97":2550195.1200000001,"ADDRESS":"本原街三段２９３號","OBJECTID":558576},"geometry":{"x":165339.56000000052,"y":2550195.1200000048}},{"attributes":{"ID":558604,"DIS_CODE":0,"TOWNNAME":"安南區","LI":"城北里","LIN":"9鄰","STREET":"安中路","SECT":"六段","MAREA":" ","LANE":" ","ALLEY":" ","HOUSE_NO":"６００號之１","E_COORD97":160822.64999999999,"N_COORD97":2551512.3799999999,"ADDRESS":"安中路六段６００號之１","OBJECTID":558577},"geometry":{"x":160822.65000000037,"y":2551512.379999999}},{"attributes":{"ID":558605,"DIS_CODE":0,"TOWNNAME":"安南區","LI":"城北里","LIN":"9鄰","STREET":"安中路","SECT":"六段","MAREA":" ","LANE":" ","ALLEY":" ","HOUSE_NO":"６０８號","E_COORD97":160794.39999999999,"N_COORD97":2551551.6200000001,"ADDRESS":"安中路六段６０８號","OBJECTID":558578},"geometry":{"x":160794.39999999944,"y":2551551.6200000029}},{"attributes":{"ID":558606,"DIS_CODE":0,"TOWNNAME":"安南區","LI":"城北里","LIN":"9鄰","STREET":"安中路","SECT":"六段","MAREA":" ","LANE":" ","ALLEY":" ","HOUSE_NO":"６１０號","E_COORD97":160792.67999999999,"N_COORD97":2551554.8199999998,"ADDRESS":"安中路六段６１０號","OBJECTID":558579},"geometry":{"x":160792.68000000063,"y":2551554.8200000003}},{"attributes":{"ID":558607,"DIS_CODE":0,"TOWNNAME":"安南區","LI":"城北里","LIN":"9鄰","STREET":"城安東街","SECT":" ","MAREA":" ","LANE":" ","ALLEY":" ","HOUSE_NO":"４１號","E_COORD97":160779.37,"N_COORD97":2551646.4399999999,"ADDRESS":"城安東街４１號","OBJECTID":558580},"geometry":{"x":160779.37000000104,"y":2551646.4400000013}},{"attributes":{"ID":558608,"DIS_CODE":0,"TOWNNAME":"安南區","LI":"佃西里","LIN":"9鄰","STREET":"公學路","SECT":"四段","MAREA":" ","LANE":" ","ALLEY":" ","HOUSE_NO":"３８９號","E_COORD97":165060.38,"N_COORD97":2551698.46,"ADDRESS":"公學路四段３８９號","OBJECTID":558581},"geometry":{"x":165060.37999999989,"y":2551698.4600000028}},{"attributes":{"ID":558609,"DIS_CODE":0,"TOWNNAME":"安南區","LI":"佃西里","LIN":"9鄰","STREET":"公學路","SECT":"四段","MAREA":" ","LANE":" ","ALLEY":" ","HOUSE_NO":"３９１號","E_COORD97":165056.76000000001,"N_COORD97":2551700.1499999999,"ADDRESS":"公學路四段３９１號","OBJECTID":558582},"geometry":{"x":165056.76000000071,"y":2551700.1500000022}},{"attributes":{"ID":558610,"DIS_CODE":0,"TOWNNAME":"安南區","LI":"佃西里","LIN":"9鄰","STREET":"公學路","SECT":"四段","MAREA":" ","LANE":" ","ALLEY":" ","HOUSE_NO":"３８７號","E_COORD97":165063.76999999999,"N_COORD97":2551694.1099999999,"ADDRESS":"公學路四段３８７號","OBJECTID":558583},"geometry":{"x":165063.77000000048,"y":2551694.1099999994}},{"attributes":{"ID":558611,"DIS_CODE":0,"TOWNNAME":"安南區","LI":"佃西里","LIN":"9鄰","STREET":"公學路","SECT":"四段","MAREA":" ","LANE":" ","ALLEY":" ","HOUSE_NO":"３９３號","E_COORD97":165052.39999999999,"N_COORD97":2551701.3599999999,"ADDRESS":"公學路四段３９３號","OBJECTID":558584},"geometry":{"x":165052.40000000037,"y":2551701.3600000013}},{"attributes":{"ID":558612,"DIS_CODE":0,"TOWNNAME":"安南區","LI":"佃西里","LIN":"9鄰","STREET":"公學路","SECT":"四段","MAREA":" ","LANE":" ","ALLEY":" ","HOUSE_NO":"３９５號","E_COORD97":165049.26000000001,"N_COORD97":2551701.3599999999,"ADDRESS":"公學路四段３９５號","OBJECTID":558585},"geometry":{"x":165049.25999999978,"y":2551701.3600000013}},{"attributes":{"ID":558613,"DIS_CODE":0,"TOWNNAME":"安南區","LI":"佃西里","LIN":"9鄰","STREET":"公學路","SECT":"四段","MAREA":" ","LANE":" ","ALLEY":" ","HOUSE_NO":"３９７號","E_COORD97":165046.35999999999,"N_COORD97":2551704.2599999998,"ADDRESS":"公學路四段３９７號","OBJECTID":558586},"geometry":{"x":165046.3600000022,"y":2551704.2599999998}},{"attributes":{"ID":558614,"DIS_CODE":0,"TOWNNAME":"安南區","LI":"溪東里","LIN":"9鄰","STREET":"府安路","SECT":"五段","MAREA":" ","LANE":" ","ALLEY":" ","HOUSE_NO":"９號","E_COORD97":168485.79999999999,"N_COORD97":2547232,"ADDRESS":"府安路五段９號","OBJECTID":558587},"geometry":{"x":168485.80000000168,"y":2547232.0000000019}},{"attributes":{"ID":558615,"DIS_CODE":0,"TOWNNAME":"安南區","LI":"溪東里","LIN":"9鄰","STREET":"府安路","SECT":"五段","MAREA":" ","LANE":" ","ALLEY":" ","HOUSE_NO":"１０號","E_COORD97":168483.29000000001,"N_COORD97":2547223.52,"ADDRESS":"府安路五段１０號","OBJECTID":558588},"geometry":{"x":168483.29000000097,"y":2547223.5199999996}},{"attributes":{"ID":558616,"DIS_CODE":0,"TOWNNAME":"中西區","LI":"光賢里","LIN":"9鄰","STREET":"和善街","SECT":" ","MAREA":" ","LANE":" ","ALLEY":" ","HOUSE_NO":"１１２號","E_COORD97":166918.12,"N_COORD97":2544816.0699999998,"ADDRESS":"和善街１１２號","OBJECTID":558589},"geometry":{"x":166918.12000000104,"y":2544816.0700000003}},{"attributes":{"ID":558617,"DIS_CODE":0,"TOWNNAME":"中西區","LI":"光賢里","LIN":"9鄰","STREET":"和善街","SECT":" ","MAREA":" ","LANE":" ","ALLEY":" ","HOUSE_NO":"１２０號","E_COORD97":166904.35999999999,"N_COORD97":2544827.9199999999,"ADDRESS":"和善街１２０號","OBJECTID":558590},"geometry":{"x":166904.3600000022,"y":2544827.9199999999}},{"attributes":{"ID":558618,"DIS_CODE":0,"TOWNNAME":"中西區","LI":"光賢里","LIN":"9鄰","STREET":"和善街","SECT":" ","MAREA":" ","LANE":" ","ALLEY":" ","HOUSE_NO":"１００號","E_COORD97":166848.26999999999,"N_COORD97":2544874.7000000002,"ADDRESS":"和善街１００號","OBJECTID":558591},"geometry":{"x":166848.27000000048,"y":2544874.7000000011}},{"attributes":{"ID":558619,"DIS_CODE":0,"TOWNNAME":"中西區","LI":"光賢里","LIN":"9鄰","STREET":"和善街","SECT":" ","MAREA":" ","LANE":" ","ALLEY":" ","HOUSE_NO":"１０２號","E_COORD97":166936.29000000001,"N_COORD97":2544801.9700000002,"ADDRESS":"和善街１０２號","OBJECTID":558592},"geometry":{"x":166936.29000000004,"y":2544801.9700000025}},{"attributes":{"ID":558620,"DIS_CODE":0,"TOWNNAME":"中西區","LI":"光賢里","LIN":"9鄰","STREET":"和善街","SECT":" ","MAREA":" ","LANE":" ","ALLEY":" ","HOUSE_NO":"１０４號","E_COORD97":166932.72,"N_COORD97":2544805.0600000001,"ADDRESS":"和善街１０４號","OBJECTID":558593},"geometry":{"x":166932.71999999974,"y":2544805.0600000024}},{"attributes":{"ID":558621,"DIS_CODE":0,"TOWNNAME":"中西區","LI":"光賢里","LIN":"9鄰","STREET":"和善街","SECT":" ","MAREA":" ","LANE":" ","ALLEY":" ","HOUSE_NO":"１０８號","E_COORD97":166925.53,"N_COORD97":2544810.77,"ADDRESS":"和善街１０８號","OBJECTID":558594},"geometry":{"x":166925.53000000119,"y":2544810.7699999996}},{"attributes":{"ID":558622,"DIS_CODE":0,"TOWNNAME":"中西區","LI":"光賢里","LIN":"9鄰","STREET":"和善街","SECT":" ","MAREA":" ","LANE":" ","ALLEY":" ","HOUSE_NO":"１１０號","E_COORD97":166921.72,"N_COORD97":2544813.3100000001,"ADDRESS":"和善街１１０號","OBJECTID":558595},"geometry":{"x":166921.72000000067,"y":2544813.3100000024}},{"attributes":{"ID":558623,"DIS_CODE":0,"TOWNNAME":"中西區","LI":"光賢里","LIN":"9鄰","STREET":"和善街","SECT":" ","MAREA":" ","LANE":" ","ALLEY":" ","HOUSE_NO":"１１２之１號","E_COORD97":166914.73000000001,"N_COORD97":2544819.2400000002,"ADDRESS":"和善街１１２之１號","OBJECTID":558596},"geometry":{"x":166914.73000000045,"y":2544819.2400000002}},{"attributes":{"ID":558624,"DIS_CODE":0,"TOWNNAME":"中西區","LI":"光賢里","LIN":"9鄰","STREET":"和善街","SECT":" ","MAREA":" ","LANE":" ","ALLEY":" ","HOUSE_NO":"１１６號","E_COORD97":166911.13,"N_COORD97":2544821.7799999998,"ADDRESS":"和善街１１６號","OBJECTID":558597},"geometry":{"x":166911.13000000082,"y":2544821.7800000031}},{"attributes":{"ID":558625,"DIS_CODE":0,"TOWNNAME":"中西區","LI":"光賢里","LIN":"9鄰","STREET":"和善街","SECT":" ","MAREA":" ","LANE":" ","ALLEY":" ","HOUSE_NO":"１１８號","E_COORD97":166907.75,"N_COORD97":2544824.7400000002,"ADDRESS":"和善街１１８號","OBJECTID":558598},"geometry":{"x":166907.75,"y":2544824.7400000002}},{"attributes":{"ID":558626,"DIS_CODE":0,"TOWNNAME":"中西區","LI":"光賢里","LIN":"9鄰","STREET":"和善街","SECT":" ","MAREA":" ","LANE":" ","ALLEY":" ","HOUSE_NO":"１２２號","E_COORD97":166939.87,"N_COORD97":2544798.3799999999,"ADDRESS":"和善街１２２號","OBJECTID":558599},"geometry":{"x":166939.87000000104,"y":2544798.3800000008}},{"attributes":{"ID":558627,"DIS_CODE":0,"TOWNNAME":"中西區","LI":"光賢里","LIN":"9鄰","STREET":"和善街","SECT":" ","MAREA":" ","LANE":" ","ALLEY":" ","HOUSE_NO":"１２４號","E_COORD97":166896.73999999999,"N_COORD97":2544835.54,"ADDRESS":"和善街１２４號","OBJECTID":558600},"geometry":{"x":166896.74000000115,"y":2544835.5399999991}}]}