{"displayFieldName":"TOWNNAME","fieldAliases":{"ID":"ID","DIS_CODE":"DIS_CODE","TOWNNAME":"TOWNNAME","LI":"LI","LIN":"LIN","STREET":"STREET","SECT":"SECT","MAREA":"MAREA","LANE":"LANE","ALLEY":"ALLEY","HOUSE_NO":"HOUSE_NO","E_COORD97":"E_COORD97","N_COORD97":"N_COORD97","ADDRESS":"ADDRESS","OBJECTID":"OBJECTID"},"geometryType":"esriGeometryPoint","spatialReference":{"wkid":102443,"latestWkid":3826},"fields":[{"name":"ID","type":"esriFieldTypeDouble","alias":"ID"},{"name":"DIS_CODE","type":"esriFieldTypeInteger","alias":"DIS_CODE"},{"name":"TOWNNAME","type":"esriFieldTypeString","alias":"TOWNNAME","length":8},{"name":"LI","type":"esriFieldTypeString","alias":"LI","length":8},{"name":"LIN","type":"esriFieldTypeString","alias":"LIN","length":12},{"name":"STREET","type":"esriFieldTypeString","alias":"STREET","length":20},{"name":"SECT","type":"esriFieldTypeString","alias":"SECT","length":8},{"name":"MAREA","type":"esriFieldTypeString","alias":"MAREA","length":12},{"name":"LANE","type":"esriFieldTypeString","alias":"LANE","length":10},{"name":"ALLEY","type":"esriFieldTypeString","alias":"ALLEY","length":10},{"name":"HOUSE_NO","type":"esriFieldTypeString","alias":"HOUSE_NO","length":20},{"name":"E_COORD97","type":"esriFieldTypeDouble","alias":"E_COORD97"},{"name":"N_COORD97","type":"esriFieldTypeDouble","alias":"N_COORD97"},{"name":"ADDRESS","type":"esriFieldTypeString","alias":"ADDRESS","length":50},{"name":"OBJECTID","type":"esriFieldTypeOID","alias":"OBJECTID"}],"features":[{"attributes":{"ID":497628,"DIS_CODE":0,"TOWNNAME":"安平區","LI":"建平里","LIN":"7鄰","STREET":"府前四街","SECT":" ","MAREA":" ","LANE":" ","ALLEY":" ","HOUSE_NO":"９８號","E_COORD97":166468.69,"N_COORD97":2543980.48,"ADDRESS":"府前四街９８號","OBJECTID":497601},"geometry":{"x":166468.69000000134,"y":2543980.4800000004}},{"attributes":{"ID":497629,"DIS_CODE":0,"TOWNNAME":"安平區","LI":"怡平里","LIN":"7鄰","STREET":"慶平路","SECT":" ","MAREA":" ","LANE":" ","ALLEY":" ","HOUSE_NO":"１９８之１號","E_COORD97":165805.07999999999,"N_COORD97":2544197.48,"ADDRESS":"慶平路１９８之１號","OBJECTID":497602},"geometry":{"x":165805.08000000007,"y":2544197.4800000004}},{"attributes":{"ID":497630,"DIS_CODE":0,"TOWNNAME":"安平區","LI":"建平里","LIN":"7鄰","STREET":"建平十七街","SECT":" ","MAREA":" ","LANE":" ","ALLEY":" ","HOUSE_NO":"１號","E_COORD97":166432.73000000001,"N_COORD97":2544183.4199999999,"ADDRESS":"建平十七街１號","OBJECTID":497603},"geometry":{"x":166432.73000000138,"y":2544183.4199999999}},{"attributes":{"ID":497631,"DIS_CODE":0,"TOWNNAME":"安平區","LI":"建平里","LIN":"7鄰","STREET":"府前路","SECT":"二段","MAREA":" ","LANE":" ","ALLEY":" ","HOUSE_NO":"６２４號","E_COORD97":166344.07999999999,"N_COORD97":2543787.1200000001,"ADDRESS":"府前路二段６２４號","OBJECTID":497604},"geometry":{"x":166344.08000000007,"y":2543787.1200000048}},{"attributes":{"ID":497632,"DIS_CODE":0,"TOWNNAME":"安平區","LI":"建平里","LIN":"7鄰","STREET":"府前四街","SECT":" ","MAREA":" ","LANE":" ","ALLEY":" ","HOUSE_NO":"１３３號","E_COORD97":166437.94,"N_COORD97":2544067.0600000001,"ADDRESS":"府前四街１３３號","OBJECTID":497605},"geometry":{"x":166437.94000000134,"y":2544067.0600000005}},{"attributes":{"ID":497633,"DIS_CODE":0,"TOWNNAME":"安平區","LI":"漁光里","LIN":"7鄰","STREET":"漁光路","SECT":" ","MAREA":" ","LANE":" ","ALLEY":" ","HOUSE_NO":"１９７號之１","E_COORD97":163036.87,"N_COORD97":2542793.8399999999,"ADDRESS":"漁光路１９７號之１","OBJECTID":497606},"geometry":{"x":163036.87000000011,"y":2542793.8399999999}},{"attributes":{"ID":497634,"DIS_CODE":0,"TOWNNAME":"安平區","LI":"金城里","LIN":"7鄰","STREET":"州平二街","SECT":" ","MAREA":" ","LANE":" ","ALLEY":" ","HOUSE_NO":"５６號","E_COORD97":162997.82999999999,"N_COORD97":2544224.7799999998,"ADDRESS":"州平二街５６號","OBJECTID":497607},"geometry":{"x":162997.83000000007,"y":2544224.7799999993}},{"attributes":{"ID":497635,"DIS_CODE":0,"TOWNNAME":"安平區","LI":"建平里","LIN":"7鄰","STREET":"府前四街","SECT":" ","MAREA":" ","LANE":" ","ALLEY":" ","HOUSE_NO":"１０７號","E_COORD97":166430.42999999999,"N_COORD97":2544010.7799999998,"ADDRESS":"府前四街１０７號","OBJECTID":497608},"geometry":{"x":166430.43000000063,"y":2544010.7799999993}},{"attributes":{"ID":497636,"DIS_CODE":0,"TOWNNAME":"安平區","LI":"漁光里","LIN":"7鄰","STREET":"漁光路","SECT":" ","MAREA":" ","LANE":" ","ALLEY":" ","HOUSE_NO":"１３２之５號","E_COORD97":163479.48999999999,"N_COORD97":2542630.0800000001,"ADDRESS":"漁光路１３２之５號","OBJECTID":497609},"geometry":{"x":163479.49000000115,"y":2542630.0799999982}},{"attributes":{"ID":497637,"DIS_CODE":0,"TOWNNAME":"安平區","LI":"漁光里","LIN":"7鄰","STREET":"漁光路","SECT":" ","MAREA":" ","LANE":" ","ALLEY":" ","HOUSE_NO":"１３２之６號","E_COORD97":163474.60000000001,"N_COORD97":2542638.8300000001,"ADDRESS":"漁光路１３２之６號","OBJECTID":497610},"geometry":{"x":163474.60000000056,"y":2542638.8300000038}},{"attributes":{"ID":497638,"DIS_CODE":0,"TOWNNAME":"安平區","LI":"漁光里","LIN":"7鄰","STREET":"漁光路","SECT":" ","MAREA":" ","LANE":" ","ALLEY":" ","HOUSE_NO":"１３２之７號","E_COORD97":163471.66,"N_COORD97":2542654.7799999998,"ADDRESS":"漁光路１３２之７號","OBJECTID":497611},"geometry":{"x":163471.66000000108,"y":2542654.7799999993}},{"attributes":{"ID":497639,"DIS_CODE":0,"TOWNNAME":"歸仁區","LI":"新厝里","LIN":"25鄰","STREET":"大成六街","SECT":" ","MAREA":" ","LANE":" ","ALLEY":" ","HOUSE_NO":"６６號","E_COORD97":177529.64000000001,"N_COORD97":2540251.1800000002,"ADDRESS":"大成六街６６號","OBJECTID":497612},"geometry":{"x":177529.63999999966,"y":2540251.1799999997}},{"attributes":{"ID":497640,"DIS_CODE":0,"TOWNNAME":"歸仁區","LI":"辜厝里","LIN":"43鄰","STREET":"民權九街","SECT":" ","MAREA":" ","LANE":" ","ALLEY":" ","HOUSE_NO":"８３號","E_COORD97":177166.04999999999,"N_COORD97":2540355.2999999998,"ADDRESS":"民權九街８３號","OBJECTID":497613},"geometry":{"x":177166.04999999981,"y":2540355.3000000026}},{"attributes":{"ID":497641,"DIS_CODE":0,"TOWNNAME":"安平區","LI":"建平里","LIN":"7鄰","STREET":"府前四街","SECT":" ","MAREA":" ","LANE":" ","ALLEY":" ","HOUSE_NO":"１１８號","E_COORD97":166471.67999999999,"N_COORD97":2544030.7999999998,"ADDRESS":"府前四街１１８號","OBJECTID":497614},"geometry":{"x":166471.6799999997,"y":2544030.8000000026}},{"attributes":{"ID":497642,"DIS_CODE":0,"TOWNNAME":"善化區","LI":"文昌里","LIN":"15鄰","STREET":"永福路","SECT":" ","MAREA":" ","LANE":" ","ALLEY":" ","HOUSE_NO":"２７號八樓","E_COORD97":177596.67000000001,"N_COORD97":2558870.75,"ADDRESS":"永福路２７號八樓","OBJECTID":497615},"geometry":{"x":177596.67000000179,"y":2558870.75}},{"attributes":{"ID":497643,"DIS_CODE":0,"TOWNNAME":"新營區","LI":"新南里","LIN":"7鄰","STREET":"新北街","SECT":" ","MAREA":" ","LANE":" ","ALLEY":" ","HOUSE_NO":"２５５號","E_COORD97":178615.04999999999,"N_COORD97":2579181.79,"ADDRESS":"新北街２５５號","OBJECTID":497616},"geometry":{"x":178615.05000000075,"y":2579181.7899999991}},{"attributes":{"ID":497644,"DIS_CODE":0,"TOWNNAME":"新營區","LI":"中營里","LIN":"7鄰","STREET":"中山路","SECT":" ","MAREA":" ","LANE":" ","ALLEY":" ","HOUSE_NO":"３號","E_COORD97":180726.04000000001,"N_COORD97":2578378.8100000001,"ADDRESS":"中山路３號","OBJECTID":497617},"geometry":{"x":180726.04000000097,"y":2578378.8100000024}},{"attributes":{"ID":497645,"DIS_CODE":0,"TOWNNAME":"新營區","LI":"民權里","LIN":"7鄰","STREET":"文化街","SECT":" ","MAREA":" ","LANE":" ","ALLEY":" ","HOUSE_NO":"１８之２號","E_COORD97":179841.47,"N_COORD97":2578081.8199999998,"ADDRESS":"文化街１８之２號","OBJECTID":497618},"geometry":{"x":179841.46999999974,"y":2578081.8200000003}},{"attributes":{"ID":497646,"DIS_CODE":0,"TOWNNAME":"新營區","LI":"民生里","LIN":"7鄰","STREET":"中華路","SECT":" ","MAREA":" ","LANE":" ","ALLEY":" ","HOUSE_NO":"９２號","E_COORD97":179314.70000000001,"N_COORD97":2578187.25,"ADDRESS":"中華路９２號","OBJECTID":497619},"geometry":{"x":179314.70000000112,"y":2578187.2499999981}},{"attributes":{"ID":497647,"DIS_CODE":0,"TOWNNAME":"新營區","LI":"民權里","LIN":"7鄰","STREET":"文化街","SECT":" ","MAREA":" ","LANE":" ","ALLEY":" ","HOUSE_NO":"３０號之１","E_COORD97":179808.51000000001,"N_COORD97":2578090.8300000001,"ADDRESS":"文化街３０號之１","OBJECTID":497620},"geometry":{"x":179808.51000000071,"y":2578090.8300000001}},{"attributes":{"ID":497648,"DIS_CODE":0,"TOWNNAME":"新營區","LI":"中營里","LIN":"7鄰","STREET":"新進路","SECT":" ","MAREA":" ","LANE":" ","ALLEY":" ","HOUSE_NO":"１５號","E_COORD97":180676.91,"N_COORD97":2578342.5099999998,"ADDRESS":"新進路１５號","OBJECTID":497621},"geometry":{"x":180676.91000000015,"y":2578342.5100000016}},{"attributes":{"ID":497649,"DIS_CODE":0,"TOWNNAME":"新營區","LI":"民權里","LIN":"7鄰","STREET":"文化街","SECT":" ","MAREA":" ","LANE":" ","ALLEY":" ","HOUSE_NO":"２０號","E_COORD97":179808.35999999999,"N_COORD97":2578084.1299999999,"ADDRESS":"文化街２０號","OBJECTID":497622},"geometry":{"x":179808.36000000127,"y":2578084.129999999}},{"attributes":{"ID":497650,"DIS_CODE":0,"TOWNNAME":"新營區","LI":"興安里","LIN":"7鄰","STREET":"新進路","SECT":" ","MAREA":" ","LANE":" ","ALLEY":" ","HOUSE_NO":"２２１號","E_COORD97":180072.41,"N_COORD97":2577848.1099999999,"ADDRESS":"新進路２２１號","OBJECTID":497623},"geometry":{"x":180072.41000000108,"y":2577848.1099999994}},{"attributes":{"ID":497651,"DIS_CODE":0,"TOWNNAME":"新營區","LI":"新南里","LIN":"7鄰","STREET":"新北五街","SECT":" ","MAREA":" ","LANE":" ","ALLEY":" ","HOUSE_NO":"６８號","E_COORD97":178638.32000000001,"N_COORD97":2578975.6800000002,"ADDRESS":"新北五街６８號","OBJECTID":497624},"geometry":{"x":178638.3200000003,"y":2578975.6800000016}},{"attributes":{"ID":497652,"DIS_CODE":0,"TOWNNAME":"柳營區","LI":"中埕里","LIN":"7鄰","STREET":"中山西路","SECT":"二段","MAREA":" ","LANE":" ","ALLEY":" ","HOUSE_NO":"１０９號","E_COORD97":179888.91,"N_COORD97":2575095.0699999998,"ADDRESS":"中山西路二段１０９號","OBJECTID":497625},"geometry":{"x":179888.91000000201,"y":2575095.0700000022}},{"attributes":{"ID":497653,"DIS_CODE":0,"TOWNNAME":"柳營區","LI":"東昇里","LIN":"7鄰","STREET":"中山西路","SECT":"二段","MAREA":" ","LANE":" ","ALLEY":" ","HOUSE_NO":"１０號","E_COORD97":180133.06,"N_COORD97":2575211.3199999998,"ADDRESS":"中山西路二段１０號","OBJECTID":497626},"geometry":{"x":180133.06000000145,"y":2575211.3200000022}},{"attributes":{"ID":497654,"DIS_CODE":0,"TOWNNAME":"柳營區","LI":"中埕里","LIN":"7鄰","STREET":"中山西路","SECT":"二段","MAREA":" ","LANE":" ","ALLEY":" ","HOUSE_NO":"１１１號","E_COORD97":179883.82000000001,"N_COORD97":2575095.1400000001,"ADDRESS":"中山西路二段１１１號","OBJECTID":497627},"geometry":{"x":179883.8200000003,"y":2575095.1400000006}},{"attributes":{"ID":497655,"DIS_CODE":0,"TOWNNAME":"柳營區","LI":"中埕里","LIN":"7鄰","STREET":"中山西路","SECT":"二段","MAREA":" ","LANE":" ","ALLEY":" ","HOUSE_NO":"１１３號","E_COORD97":179876.78,"N_COORD97":2575097,"ADDRESS":"中山西路二段１１３號","OBJECTID":497628},"geometry":{"x":179876.78000000119,"y":2575097.0000000037}},{"attributes":{"ID":497656,"DIS_CODE":0,"TOWNNAME":"柳營區","LI":"中埕里","LIN":"7鄰","STREET":"中山西路","SECT":"二段","MAREA":" ","LANE":" ","ALLEY":" ","HOUSE_NO":"１１５號","E_COORD97":179860.85999999999,"N_COORD97":2575102.6899999999,"ADDRESS":"中山西路二段１１５號","OBJECTID":497629},"geometry":{"x":179860.86000000127,"y":2575102.6900000013}},{"attributes":{"ID":497657,"DIS_CODE":0,"TOWNNAME":"柳營區","LI":"中埕里","LIN":"7鄰","STREET":"中山西路","SECT":"二段","MAREA":" ","LANE":" ","ALLEY":" ","HOUSE_NO":"１１７號","E_COORD97":179855.10000000001,"N_COORD97":2575102,"ADDRESS":"中山西路二段１１７號","OBJECTID":497630},"geometry":{"x":179855.10000000056,"y":2575102.0000000019}},{"attributes":{"ID":497658,"DIS_CODE":0,"TOWNNAME":"柳營區","LI":"東昇里","LIN":"7鄰","STREET":"中山西路","SECT":"二段","MAREA":" ","LANE":" ","ALLEY":" ","HOUSE_NO":"１２號","E_COORD97":180129.44,"N_COORD97":2575207.5800000001,"ADDRESS":"中山西路二段１２號","OBJECTID":497631},"geometry":{"x":180129.44000000041,"y":2575207.5800000001}},{"attributes":{"ID":497659,"DIS_CODE":0,"TOWNNAME":"柳營區","LI":"中埕里","LIN":"7鄰","STREET":"中山西路","SECT":"二段","MAREA":" ","LANE":" ","ALLEY":" ","HOUSE_NO":"１４８號","E_COORD97":179869.91,"N_COORD97":2575129.77,"ADDRESS":"中山西路二段１４８號","OBJECTID":497632},"geometry":{"x":179869.91000000015,"y":2575129.7700000014}},{"attributes":{"ID":497660,"DIS_CODE":0,"TOWNNAME":"柳營區","LI":"中埕里","LIN":"7鄰","STREET":"中山西路","SECT":"二段","MAREA":" ","LANE":" ","ALLEY":" ","HOUSE_NO":"１５０號","E_COORD97":179864.60999999999,"N_COORD97":2575131.3599999999,"ADDRESS":"中山西路二段１５０號","OBJECTID":497633},"geometry":{"x":179864.61000000127,"y":2575131.3600000031}},{"attributes":{"ID":497661,"DIS_CODE":0,"TOWNNAME":"柳營區","LI":"中埕里","LIN":"7鄰","STREET":"中山西路","SECT":"二段","MAREA":" ","LANE":" ","ALLEY":" ","HOUSE_NO":"１５２號","E_COORD97":179860.22,"N_COORD97":2575130.4100000001,"ADDRESS":"中山西路二段１５２號","OBJECTID":497634},"geometry":{"x":179860.21999999974,"y":2575130.4100000001}},{"attributes":{"ID":497662,"DIS_CODE":0,"TOWNNAME":"柳營區","LI":"中埕里","LIN":"7鄰","STREET":"中山西路","SECT":"二段","MAREA":" ","LANE":" ","ALLEY":" ","HOUSE_NO":"１５６號","E_COORD97":179855.82000000001,"N_COORD97":2575129.77,"ADDRESS":"中山西路二段１５６號","OBJECTID":497635},"geometry":{"x":179855.82000000216,"y":2575129.7700000014}},{"attributes":{"ID":497663,"DIS_CODE":0,"TOWNNAME":"柳營區","LI":"中埕里","LIN":"7鄰","STREET":"中山西路","SECT":"二段","MAREA":" ","LANE":" ","ALLEY":" ","HOUSE_NO":"１５８號","E_COORD97":179850.56,"N_COORD97":2575128.7000000002,"ADDRESS":"中山西路二段１５８號","OBJECTID":497636},"geometry":{"x":179850.56000000052,"y":2575128.700000003}},{"attributes":{"ID":497664,"DIS_CODE":0,"TOWNNAME":"柳營區","LI":"士林里","LIN":"7鄰","STREET":"中山西路","SECT":"三段","MAREA":" ","LANE":" ","ALLEY":" ","HOUSE_NO":"８８號","E_COORD97":179499.66,"N_COORD97":2575106.2799999998,"ADDRESS":"中山西路三段８８號","OBJECTID":497637},"geometry":{"x":179499.66000000108,"y":2575106.2800000012}},{"attributes":{"ID":497665,"DIS_CODE":0,"TOWNNAME":"柳營區","LI":"士林里","LIN":"7鄰","STREET":"中山西路","SECT":"三段","MAREA":" ","LANE":" ","ALLEY":" ","HOUSE_NO":"９８號","E_COORD97":179477.14000000001,"N_COORD97":2575102.5099999998,"ADDRESS":"中山西路三段９８號","OBJECTID":497638},"geometry":{"x":179477.1400000006,"y":2575102.5099999998}},{"attributes":{"ID":497666,"DIS_CODE":0,"TOWNNAME":"柳營區","LI":"東昇里","LIN":"7鄰","STREET":"成功街","SECT":" ","MAREA":" ","LANE":" ","ALLEY":" ","HOUSE_NO":"２５號","E_COORD97":180074.42000000001,"N_COORD97":2575309.4100000001,"ADDRESS":"成功街２５號","OBJECTID":497639},"geometry":{"x":180074.41999999993,"y":2575309.410000002}},{"attributes":{"ID":497667,"DIS_CODE":0,"TOWNNAME":"柳營區","LI":"東昇里","LIN":"7鄰","STREET":"成功街","SECT":" ","MAREA":" ","LANE":" ","ALLEY":" ","HOUSE_NO":"３１號","E_COORD97":180061.78,"N_COORD97":2575309.52,"ADDRESS":"成功街３１號","OBJECTID":497640},"geometry":{"x":180061.78000000119,"y":2575309.5199999996}},{"attributes":{"ID":497668,"DIS_CODE":0,"TOWNNAME":"南區","LI":"文南里","LIN":"7鄰","STREET":"長南街","SECT":" ","MAREA":" ","LANE":" ","ALLEY":" ","HOUSE_NO":"５號","E_COORD97":167056.35999999999,"N_COORD97":2542601.4700000002,"ADDRESS":"長南街５號","OBJECTID":497641},"geometry":{"x":167056.36000000034,"y":2542601.4700000044}},{"attributes":{"ID":497669,"DIS_CODE":0,"TOWNNAME":"南區","LI":"明德里","LIN":"7鄰","STREET":"新都路","SECT":" ","MAREA":" ","LANE":" ","ALLEY":" ","HOUSE_NO":"２１６號之１","E_COORD97":167988.97,"N_COORD97":2541193.1699999999,"ADDRESS":"新都路２１６號之１","OBJECTID":497642},"geometry":{"x":167988.96999999974,"y":2541193.1700000018}},{"attributes":{"ID":497670,"DIS_CODE":0,"TOWNNAME":"歸仁區","LI":"崙頂里","LIN":"7鄰","STREET":"成功八街","SECT":" ","MAREA":" ","LANE":" ","ALLEY":" ","HOUSE_NO":"６５號","E_COORD97":178108.07000000001,"N_COORD97":2539972.6800000002,"ADDRESS":"成功八街６５號","OBJECTID":497643},"geometry":{"x":178108.07000000216,"y":2539972.6800000016}},{"attributes":{"ID":497671,"DIS_CODE":0,"TOWNNAME":"歸仁區","LI":"看西里","LIN":"7鄰","STREET":"信義南路","SECT":" ","MAREA":" ","LANE":" ","ALLEY":" ","HOUSE_NO":"１７３號","E_COORD97":178134.95999999999,"N_COORD97":2540267.4900000002,"ADDRESS":"信義南路１７３號","OBJECTID":497644},"geometry":{"x":178134.95999999996,"y":2540267.4900000002}},{"attributes":{"ID":497672,"DIS_CODE":0,"TOWNNAME":"歸仁區","LI":"許厝里","LIN":"7鄰","STREET":"中山路","SECT":"一段","MAREA":" ","LANE":" ","ALLEY":" ","HOUSE_NO":"４５１號","E_COORD97":178111.91,"N_COORD97":2540700.25,"ADDRESS":"中山路一段４５１號","OBJECTID":497645},"geometry":{"x":178111.91000000015,"y":2540700.2500000037}},{"attributes":{"ID":497673,"DIS_CODE":0,"TOWNNAME":"歸仁區","LI":"辜厝里","LIN":"7鄰","STREET":"大順二街","SECT":" ","MAREA":" ","LANE":" ","ALLEY":" ","HOUSE_NO":"５號","E_COORD97":177480.17000000001,"N_COORD97":2540570.5899999999,"ADDRESS":"大順二街５號","OBJECTID":497646},"geometry":{"x":177480.17000000086,"y":2540570.5899999999}},{"attributes":{"ID":497674,"DIS_CODE":0,"TOWNNAME":"歸仁區","LI":"許厝里","LIN":"7鄰","STREET":"中山路","SECT":"一段","MAREA":" ","LANE":" ","ALLEY":" ","HOUSE_NO":"４１７號","E_COORD97":178185.70999999999,"N_COORD97":2540691.25,"ADDRESS":"中山路一段４１７號","OBJECTID":497647},"geometry":{"x":178185.70999999996,"y":2540691.2500000019}},{"attributes":{"ID":497675,"DIS_CODE":0,"TOWNNAME":"歸仁區","LI":"許厝里","LIN":"7鄰","STREET":"仁愛八街","SECT":" ","MAREA":" ","LANE":" ","ALLEY":" ","HOUSE_NO":"２２號","E_COORD97":178217.82999999999,"N_COORD97":2540644.25,"ADDRESS":"仁愛八街２２號","OBJECTID":497648},"geometry":{"x":178217.83000000194,"y":2540644.25}},{"attributes":{"ID":497676,"DIS_CODE":0,"TOWNNAME":"歸仁區","LI":"看東里","LIN":"7鄰","STREET":"成功一街","SECT":" ","MAREA":" ","LANE":" ","ALLEY":" ","HOUSE_NO":"７８號","E_COORD97":178559.85000000001,"N_COORD97":2540052.4500000002,"ADDRESS":"成功一街７８號","OBJECTID":497649},"geometry":{"x":178559.85000000056,"y":2540052.4499999993}},{"attributes":{"ID":497677,"DIS_CODE":0,"TOWNNAME":"安平區","LI":"平安里","LIN":"6鄰","STREET":"安平路","SECT":" ","MAREA":" ","LANE":"３７０巷","ALLEY":"１弄","HOUSE_NO":"１０號二樓","E_COORD97":165443.20562699999,"N_COORD97":2544353.2911800002,"ADDRESS":"安平路３７０巷１弄１０號二樓","OBJECTID":497650},"geometry":{"x":165443.20562700089,"y":2544353.2911840044}},{"attributes":{"ID":497678,"DIS_CODE":0,"TOWNNAME":"歸仁區","LI":"許厝里","LIN":"7鄰","STREET":"仁愛八街","SECT":" ","MAREA":" ","LANE":" ","ALLEY":" ","HOUSE_NO":"１９號","E_COORD97":178207.26000000001,"N_COORD97":2540629.4199999999,"ADDRESS":"仁愛八街１９號","OBJECTID":497651},"geometry":{"x":178207.25999999978,"y":2540629.4199999999}},{"attributes":{"ID":497679,"DIS_CODE":0,"TOWNNAME":"歸仁區","LI":"看西里","LIN":"7鄰","STREET":"信義南路","SECT":" ","MAREA":" ","LANE":" ","ALLEY":" ","HOUSE_NO":"１６９號","E_COORD97":178134.95999999999,"N_COORD97":2540275.4900000002,"ADDRESS":"信義南路１６９號","OBJECTID":497652},"geometry":{"x":178134.95999999996,"y":2540275.4900000021}},{"attributes":{"ID":497680,"DIS_CODE":0,"TOWNNAME":"歸仁區","LI":"許厝里","LIN":"7鄰","STREET":"仁愛八街","SECT":" ","MAREA":" ","LANE":" ","ALLEY":" ","HOUSE_NO":"３１號","E_COORD97":178178.56,"N_COORD97":2540628.4199999999,"ADDRESS":"仁愛八街３１號","OBJECTID":497653},"geometry":{"x":178178.56000000145,"y":2540628.4200000018}},{"attributes":{"ID":497681,"DIS_CODE":0,"TOWNNAME":"歸仁區","LI":"許厝里","LIN":"7鄰","STREET":"仁愛八街","SECT":" ","MAREA":" ","LANE":" ","ALLEY":" ","HOUSE_NO":"１５號","E_COORD97":178217.56,"N_COORD97":2540629.4199999999,"ADDRESS":"仁愛八街１５號","OBJECTID":497654},"geometry":{"x":178217.56000000145,"y":2540629.4199999999}},{"attributes":{"ID":497682,"DIS_CODE":0,"TOWNNAME":"歸仁區","LI":"許厝里","LIN":"7鄰","STREET":"仁愛八街","SECT":" ","MAREA":" ","LANE":" ","ALLEY":" ","HOUSE_NO":"３８號","E_COORD97":178172.73000000001,"N_COORD97":2540647.25,"ADDRESS":"仁愛八街３８號","OBJECTID":497655},"geometry":{"x":178172.73000000045,"y":2540647.2500000019}},{"attributes":{"ID":497683,"DIS_CODE":0,"TOWNNAME":"歸仁區","LI":"歸南里","LIN":"7鄰","STREET":"中正南路","SECT":"一段","MAREA":" ","LANE":" ","ALLEY":" ","HOUSE_NO":"６８６號","E_COORD97":176538.56,"N_COORD97":2539794.9500000002,"ADDRESS":"中正南路一段６８６號","OBJECTID":497656},"geometry":{"x":176538.55999999959,"y":2539794.9499999993}},{"attributes":{"ID":497684,"DIS_CODE":0,"TOWNNAME":"歸仁區","LI":"許厝里","LIN":"7鄰","STREET":"仁愛八街","SECT":" ","MAREA":" ","LANE":" ","ALLEY":" ","HOUSE_NO":"２５號","E_COORD97":178195.06,"N_COORD97":2540631.4199999999,"ADDRESS":"仁愛八街２５號","OBJECTID":497657},"geometry":{"x":178195.05999999959,"y":2540631.4200000018}},{"attributes":{"ID":497685,"DIS_CODE":0,"TOWNNAME":"歸仁區","LI":"看西里","LIN":"7鄰","STREET":"信義南路","SECT":" ","MAREA":" ","LANE":" ","ALLEY":" ","HOUSE_NO":"１８５號","E_COORD97":178133.76000000001,"N_COORD97":2540243.4900000002,"ADDRESS":"信義南路１８５號","OBJECTID":497658},"geometry":{"x":178133.76000000071,"y":2540243.4900000002}},{"attributes":{"ID":497686,"DIS_CODE":0,"TOWNNAME":"歸仁區","LI":"許厝里","LIN":"7鄰","STREET":"中山路","SECT":"一段","MAREA":" ","LANE":" ","ALLEY":" ","HOUSE_NO":"４４９號","E_COORD97":178122.10999999999,"N_COORD97":2540698.25,"ADDRESS":"中山路一段４４９號","OBJECTID":497659},"geometry":{"x":178122.11000000127,"y":2540698.2500000019}},{"attributes":{"ID":497687,"DIS_CODE":0,"TOWNNAME":"歸仁區","LI":"看東里","LIN":"7鄰","STREET":"成功一街","SECT":" ","MAREA":" ","LANE":" ","ALLEY":" ","HOUSE_NO":"８２之１號","E_COORD97":178544.85000000001,"N_COORD97":2540039.4500000002,"ADDRESS":"成功一街８２之１號","OBJECTID":497660},"geometry":{"x":178544.85000000056,"y":2540039.4499999993}},{"attributes":{"ID":497688,"DIS_CODE":0,"TOWNNAME":"歸仁區","LI":"崙頂里","LIN":"7鄰","STREET":"崙頂一街","SECT":" ","MAREA":" ","LANE":" ","ALLEY":" ","HOUSE_NO":"４６號","E_COORD97":177965.91,"N_COORD97":2539961.1099999999,"ADDRESS":"崙頂一街４６號","OBJECTID":497661},"geometry":{"x":177965.91000000015,"y":2539961.1100000031}},{"attributes":{"ID":497689,"DIS_CODE":0,"TOWNNAME":"歸仁區","LI":"南興里","LIN":"7鄰","STREET":"民生二街","SECT":" ","MAREA":" ","LANE":" ","ALLEY":" ","HOUSE_NO":"７７號","E_COORD97":176088.01000000001,"N_COORD97":2541292.25,"ADDRESS":"民生二街７７號","OBJECTID":497662},"geometry":{"x":176088.00999999978,"y":2541292.25}},{"attributes":{"ID":497690,"DIS_CODE":0,"TOWNNAME":"歸仁區","LI":"南興里","LIN":"7鄰","STREET":"民生二街","SECT":" ","MAREA":" ","LANE":" ","ALLEY":" ","HOUSE_NO":"８７號","E_COORD97":176089.10999999999,"N_COORD97":2541313.25,"ADDRESS":"民生二街８７號","OBJECTID":497663},"geometry":{"x":176089.11000000127,"y":2541313.25}},{"attributes":{"ID":497691,"DIS_CODE":0,"TOWNNAME":"歸仁區","LI":"崙頂里","LIN":"7鄰","STREET":"崙頂一街","SECT":" ","MAREA":" ","LANE":" ","ALLEY":" ","HOUSE_NO":"６０號","E_COORD97":177980.97,"N_COORD97":2539975.6800000002,"ADDRESS":"崙頂一街６０號","OBJECTID":497664},"geometry":{"x":177980.9700000016,"y":2539975.6800000016}},{"attributes":{"ID":497692,"DIS_CODE":0,"TOWNNAME":"歸仁區","LI":"崙頂里","LIN":"7鄰","STREET":"崙頂一街","SECT":" ","MAREA":" ","LANE":" ","ALLEY":" ","HOUSE_NO":"５０號","E_COORD97":177970.01000000001,"N_COORD97":2539949.1099999999,"ADDRESS":"崙頂一街５０號","OBJECTID":497665},"geometry":{"x":177970.00999999978,"y":2539949.1100000013}},{"attributes":{"ID":497693,"DIS_CODE":0,"TOWNNAME":"歸仁區","LI":"南興里","LIN":"7鄰","STREET":"民生二街","SECT":" ","MAREA":" ","LANE":" ","ALLEY":" ","HOUSE_NO":"６７號","E_COORD97":176081.69,"N_COORD97":2541320.29,"ADDRESS":"民生二街６７號","OBJECTID":497666},"geometry":{"x":176081.69000000134,"y":2541320.290000001}},{"attributes":{"ID":497694,"DIS_CODE":0,"TOWNNAME":"歸仁區","LI":"南興里","LIN":"7鄰","STREET":"民生二街","SECT":" ","MAREA":" ","LANE":" ","ALLEY":" ","HOUSE_NO":"９１號","E_COORD97":176094.98999999999,"N_COORD97":2541322.29,"ADDRESS":"民生二街９１號","OBJECTID":497667},"geometry":{"x":176094.99000000115,"y":2541322.2899999991}},{"attributes":{"ID":497695,"DIS_CODE":0,"TOWNNAME":"歸仁區","LI":"南興里","LIN":"7鄰","STREET":"民生二街","SECT":" ","MAREA":" ","LANE":" ","ALLEY":" ","HOUSE_NO":"５３號","E_COORD97":176122.69,"N_COORD97":2541330.29,"ADDRESS":"民生二街５３號","OBJECTID":497668},"geometry":{"x":176122.69000000134,"y":2541330.290000001}},{"attributes":{"ID":497696,"DIS_CODE":0,"TOWNNAME":"歸仁區","LI":"六甲里","LIN":"7鄰","STREET":"中正十五街","SECT":" ","MAREA":" ","LANE":" ","ALLEY":" ","HOUSE_NO":"１１７號","E_COORD97":176460.45999999999,"N_COORD97":2539432.25,"ADDRESS":"中正十五街１１７號","OBJECTID":497669},"geometry":{"x":176460.45999999996,"y":2539432.2500000037}},{"attributes":{"ID":497697,"DIS_CODE":0,"TOWNNAME":"歸仁區","LI":"六甲里","LIN":"7鄰","STREET":"中正十五街","SECT":" ","MAREA":" ","LANE":" ","ALLEY":" ","HOUSE_NO":"１２１號","E_COORD97":176462.56,"N_COORD97":2539444.25,"ADDRESS":"中正十五街１２１號","OBJECTID":497670},"geometry":{"x":176462.55999999959,"y":2539444.25}},{"attributes":{"ID":497698,"DIS_CODE":0,"TOWNNAME":"歸仁區","LI":"六甲里","LIN":"7鄰","STREET":"中正十五街","SECT":" ","MAREA":" ","LANE":" ","ALLEY":" ","HOUSE_NO":"１０７號","E_COORD97":176455.16,"N_COORD97":2539402.25,"ADDRESS":"中正十五街１０７號","OBJECTID":497671},"geometry":{"x":176455.16000000108,"y":2539402.2500000019}},{"attributes":{"ID":497699,"DIS_CODE":0,"TOWNNAME":"歸仁區","LI":"六甲里","LIN":"7鄰","STREET":"中正十五街","SECT":" ","MAREA":" ","LANE":" ","ALLEY":" ","HOUSE_NO":"１３３號","E_COORD97":176467.85999999999,"N_COORD97":2539479.25,"ADDRESS":"中正十五街１３３號","OBJECTID":497672},"geometry":{"x":176467.86000000034,"y":2539479.2499999981}},{"attributes":{"ID":497700,"DIS_CODE":0,"TOWNNAME":"歸仁區","LI":"六甲里","LIN":"7鄰","STREET":"中正十五街","SECT":" ","MAREA":" ","LANE":" ","ALLEY":" ","HOUSE_NO":"１４１號","E_COORD97":176471.06,"N_COORD97":2539502.25,"ADDRESS":"中正十五街１４１號","OBJECTID":497673},"geometry":{"x":176471.05999999959,"y":2539502.25}},{"attributes":{"ID":497701,"DIS_CODE":0,"TOWNNAME":"歸仁區","LI":"六甲里","LIN":"7鄰","STREET":"中正十五街","SECT":" ","MAREA":" ","LANE":" ","ALLEY":" ","HOUSE_NO":"１２５號","E_COORD97":176463.66,"N_COORD97":2539455.25,"ADDRESS":"中正十五街１２５號","OBJECTID":497674},"geometry":{"x":176463.66000000108,"y":2539455.25}},{"attributes":{"ID":497702,"DIS_CODE":0,"TOWNNAME":"歸仁區","LI":"六甲里","LIN":"7鄰","STREET":"中正十五街","SECT":" ","MAREA":" ","LANE":" ","ALLEY":" ","HOUSE_NO":"１４３號","E_COORD97":176472.16,"N_COORD97":2539509.25,"ADDRESS":"中正十五街１４３號","OBJECTID":497675},"geometry":{"x":176472.16000000108,"y":2539509.25}},{"attributes":{"ID":497703,"DIS_CODE":0,"TOWNNAME":"歸仁區","LI":"西埔里","LIN":"7鄰","STREET":"西埔一街","SECT":" ","MAREA":" ","LANE":" ","ALLEY":" ","HOUSE_NO":"３６號","E_COORD97":177183.92000000001,"N_COORD97":2544213.25,"ADDRESS":"西埔一街３６號","OBJECTID":497676},"geometry":{"x":177183.91999999993,"y":2544213.2500000019}},{"attributes":{"ID":497704,"DIS_CODE":0,"TOWNNAME":"歸仁區","LI":"南興里","LIN":"7鄰","STREET":"民生二街","SECT":" ","MAREA":" ","LANE":" ","ALLEY":" ","HOUSE_NO":"８９號","E_COORD97":176094.98999999999,"N_COORD97":2541318.29,"ADDRESS":"民生二街８９號","OBJECTID":497677},"geometry":{"x":176094.99000000115,"y":2541318.2899999991}},{"attributes":{"ID":497705,"DIS_CODE":0,"TOWNNAME":"歸仁區","LI":"六甲里","LIN":"7鄰","STREET":"中正十五街","SECT":" ","MAREA":" ","LANE":" ","ALLEY":" ","HOUSE_NO":"１４５號","E_COORD97":176473.16,"N_COORD97":2539514.25,"ADDRESS":"中正十五街１４５號","OBJECTID":497678},"geometry":{"x":176473.16000000201,"y":2539514.2500000019}},{"attributes":{"ID":497706,"DIS_CODE":0,"TOWNNAME":"歸仁區","LI":"六甲里","LIN":"7鄰","STREET":"中正十五街","SECT":" ","MAREA":" ","LANE":" ","ALLEY":" ","HOUSE_NO":"１３９號","E_COORD97":176470.06,"N_COORD97":2539495.25,"ADDRESS":"中正十五街１３９號","OBJECTID":497679},"geometry":{"x":176470.06000000052,"y":2539495.25}},{"attributes":{"ID":497707,"DIS_CODE":0,"TOWNNAME":"歸仁區","LI":"六甲里","LIN":"7鄰","STREET":"中正十五街","SECT":" ","MAREA":" ","LANE":" ","ALLEY":" ","HOUSE_NO":"１３７號","E_COORD97":176468.95999999999,"N_COORD97":2539491.25,"ADDRESS":"中正十五街１３７號","OBJECTID":497680},"geometry":{"x":176468.95999999996,"y":2539491.2500000019}},{"attributes":{"ID":497708,"DIS_CODE":0,"TOWNNAME":"歸仁區","LI":"六甲里","LIN":"7鄰","STREET":"中正十五街","SECT":" ","MAREA":" ","LANE":" ","ALLEY":" ","HOUSE_NO":"１１９號","E_COORD97":176460.45999999999,"N_COORD97":2539438.25,"ADDRESS":"中正十五街１１９號","OBJECTID":497681},"geometry":{"x":176460.45999999996,"y":2539438.25}},{"attributes":{"ID":497709,"DIS_CODE":0,"TOWNNAME":"歸仁區","LI":"六甲里","LIN":"7鄰","STREET":"中正十五街","SECT":" ","MAREA":" ","LANE":" ","ALLEY":" ","HOUSE_NO":"１０９號","E_COORD97":176456.26000000001,"N_COORD97":2539409.25,"ADDRESS":"中正十五街１０９號","OBJECTID":497682},"geometry":{"x":176456.25999999978,"y":2539409.2500000019}},{"attributes":{"ID":497710,"DIS_CODE":0,"TOWNNAME":"歸仁區","LI":"六甲里","LIN":"7鄰","STREET":"中正十五街","SECT":" ","MAREA":" ","LANE":" ","ALLEY":" ","HOUSE_NO":"１２９號","E_COORD97":176465.76000000001,"N_COORD97":2539468.25,"ADDRESS":"中正十五街１２９號","OBJECTID":497683},"geometry":{"x":176465.76000000071,"y":2539468.25}},{"attributes":{"ID":497711,"DIS_CODE":0,"TOWNNAME":"歸仁區","LI":"六甲里","LIN":"7鄰","STREET":"中正十五街","SECT":" ","MAREA":" ","LANE":" ","ALLEY":" ","HOUSE_NO":"１３１號","E_COORD97":176465.85999999999,"N_COORD97":2539473.25,"ADDRESS":"中正十五街１３１號","OBJECTID":497684},"geometry":{"x":176465.86000000127,"y":2539473.2500000019}},{"attributes":{"ID":497712,"DIS_CODE":0,"TOWNNAME":"歸仁區","LI":"六甲里","LIN":"7鄰","STREET":"中正十五街","SECT":" ","MAREA":" ","LANE":" ","ALLEY":" ","HOUSE_NO":"１３５號","E_COORD97":176468.95999999999,"N_COORD97":2539484.25,"ADDRESS":"中正十五街１３５號","OBJECTID":497685},"geometry":{"x":176468.95999999996,"y":2539484.2500000019}},{"attributes":{"ID":497713,"DIS_CODE":0,"TOWNNAME":"歸仁區","LI":"西埔里","LIN":"7鄰","STREET":"西埔一街","SECT":" ","MAREA":" ","LANE":" ","ALLEY":" ","HOUSE_NO":"５９號","E_COORD97":177123.92000000001,"N_COORD97":2544309.25,"ADDRESS":"西埔一街５９號","OBJECTID":497686},"geometry":{"x":177123.92000000086,"y":2544309.25}},{"attributes":{"ID":497714,"DIS_CODE":0,"TOWNNAME":"歸仁區","LI":"西埔里","LIN":"7鄰","STREET":"西埔一街","SECT":" ","MAREA":" ","LANE":" ","ALLEY":" ","HOUSE_NO":"５１號","E_COORD97":177130.01999999999,"N_COORD97":2544294.25,"ADDRESS":"西埔一街５１號","OBJECTID":497687},"geometry":{"x":177130.02000000048,"y":2544294.2500000019}},{"attributes":{"ID":497715,"DIS_CODE":0,"TOWNNAME":"歸仁區","LI":"六甲里","LIN":"7鄰","STREET":"中正十五街","SECT":" ","MAREA":" ","LANE":" ","ALLEY":" ","HOUSE_NO":"１２３號","E_COORD97":176462.56,"N_COORD97":2539450.25,"ADDRESS":"中正十五街１２３號","OBJECTID":497688},"geometry":{"x":176462.55999999959,"y":2539450.2500000019}},{"attributes":{"ID":497716,"DIS_CODE":0,"TOWNNAME":"歸仁區","LI":"六甲里","LIN":"7鄰","STREET":"中正十五街","SECT":" ","MAREA":" ","LANE":" ","ALLEY":" ","HOUSE_NO":"１１３號","E_COORD97":176458.35999999999,"N_COORD97":2539421.25,"ADDRESS":"中正十五街１１３號","OBJECTID":497689},"geometry":{"x":176458.3600000022,"y":2539421.25}},{"attributes":{"ID":497717,"DIS_CODE":0,"TOWNNAME":"歸仁區","LI":"後市里","LIN":"7鄰","STREET":"大吉一街","SECT":" ","MAREA":" ","LANE":" ","ALLEY":" ","HOUSE_NO":"４６號","E_COORD97":177146.70999999999,"N_COORD97":2540688.25,"ADDRESS":"大吉一街４６號","OBJECTID":497690},"geometry":{"x":177146.70999999996,"y":2540688.25}},{"attributes":{"ID":497718,"DIS_CODE":0,"TOWNNAME":"歸仁區","LI":"後市里","LIN":"7鄰","STREET":"大吉一街","SECT":" ","MAREA":" ","LANE":" ","ALLEY":" ","HOUSE_NO":"２８號","E_COORD97":177146.91,"N_COORD97":2540725.25,"ADDRESS":"大吉一街２８號","OBJECTID":497691},"geometry":{"x":177146.91000000015,"y":2540725.2500000019}},{"attributes":{"ID":497719,"DIS_CODE":0,"TOWNNAME":"歸仁區","LI":"後市里","LIN":"7鄰","STREET":"大吉一街","SECT":" ","MAREA":" ","LANE":" ","ALLEY":" ","HOUSE_NO":"４０號","E_COORD97":177146.81,"N_COORD97":2540700.25,"ADDRESS":"大吉一街４０號","OBJECTID":497692},"geometry":{"x":177146.81000000052,"y":2540700.2500000037}},{"attributes":{"ID":497720,"DIS_CODE":0,"TOWNNAME":"玉井區","LI":"玉田里","LIN":"7鄰","STREET":"民主街","SECT":" ","MAREA":" ","LANE":" ","ALLEY":" ","HOUSE_NO":"９５號","E_COORD97":195012.84,"N_COORD97":2558083.2799999998,"ADDRESS":"民主街９５號","OBJECTID":497693},"geometry":{"x":195012.83999999985,"y":2558083.2799999993}},{"attributes":{"ID":497721,"DIS_CODE":0,"TOWNNAME":"玉井區","LI":"中正里","LIN":"7鄰","STREET":"福德街","SECT":" ","MAREA":" ","LANE":" ","ALLEY":" ","HOUSE_NO":"３０號","E_COORD97":195529.23000000001,"N_COORD97":2558735.27,"ADDRESS":"福德街３０號","OBJECTID":497694},"geometry":{"x":195529.23000000138,"y":2558735.2699999996}},{"attributes":{"ID":497722,"DIS_CODE":0,"TOWNNAME":"玉井區","LI":"玉田里","LIN":"7鄰","STREET":"民主街","SECT":" ","MAREA":" ","LANE":" ","ALLEY":" ","HOUSE_NO":"７９號","E_COORD97":194997.54000000001,"N_COORD97":2558056.29,"ADDRESS":"民主街７９號","OBJECTID":497695},"geometry":{"x":194997.54000000097,"y":2558056.2899999991}},{"attributes":{"ID":497723,"DIS_CODE":0,"TOWNNAME":"玉井區","LI":"中正里","LIN":"7鄰","STREET":"福德街","SECT":" ","MAREA":" ","LANE":" ","ALLEY":" ","HOUSE_NO":"４０號","E_COORD97":195519.84,"N_COORD97":2558734.27,"ADDRESS":"福德街４０號","OBJECTID":497696},"geometry":{"x":195519.83999999985,"y":2558734.2700000014}},{"attributes":{"ID":497724,"DIS_CODE":0,"TOWNNAME":"玉井區","LI":"玉田里","LIN":"7鄰","STREET":"民主街","SECT":" ","MAREA":" ","LANE":" ","ALLEY":" ","HOUSE_NO":"８３號","E_COORD97":195007.54000000001,"N_COORD97":2558055.29,"ADDRESS":"民主街８３號","OBJECTID":497697},"geometry":{"x":195007.54000000097,"y":2558055.290000001}},{"attributes":{"ID":497725,"DIS_CODE":0,"TOWNNAME":"玉井區","LI":"玉田里","LIN":"7鄰","STREET":"民主街","SECT":" ","MAREA":" ","LANE":" ","ALLEY":" ","HOUSE_NO":"６７號","E_COORD97":194966.32999999999,"N_COORD97":2558063.2799999998,"ADDRESS":"民主街６７號","OBJECTID":497698},"geometry":{"x":194966.33000000194,"y":2558063.2799999993}},{"attributes":{"ID":497726,"DIS_CODE":0,"TOWNNAME":"玉井區","LI":"中正里","LIN":"7鄰","STREET":"中正路","SECT":" ","MAREA":" ","LANE":" ","ALLEY":" ","HOUSE_NO":"５２１號","E_COORD97":195582.95999999999,"N_COORD97":2558744.25,"ADDRESS":"中正路５２１號","OBJECTID":497699},"geometry":{"x":195582.96000000089,"y":2558744.2500000019}},{"attributes":{"ID":497727,"DIS_CODE":0,"TOWNNAME":"玉井區","LI":"玉田里","LIN":"7鄰","STREET":"民族路","SECT":" ","MAREA":" ","LANE":" ","ALLEY":" ","HOUSE_NO":"２０號","E_COORD97":194981.13,"N_COORD97":2558096.2799999998,"ADDRESS":"民族路２０號","OBJECTID":497700},"geometry":{"x":194981.13000000175,"y":2558096.2800000012}},{"attributes":{"ID":497728,"DIS_CODE":0,"TOWNNAME":"玉井區","LI":"玉田里","LIN":"7鄰","STREET":"民族路","SECT":" ","MAREA":" ","LANE":" ","ALLEY":" ","HOUSE_NO":"２２號","E_COORD97":194985.82999999999,"N_COORD97":2558095.2799999998,"ADDRESS":"民族路２２號","OBJECTID":497701},"geometry":{"x":194985.83000000007,"y":2558095.2800000031}},{"attributes":{"ID":497729,"DIS_CODE":0,"TOWNNAME":"玉井區","LI":"玉田里","LIN":"7鄰","STREET":"民主街","SECT":" ","MAREA":" ","LANE":" ","ALLEY":" ","HOUSE_NO":"８９號","E_COORD97":195020.42999999999,"N_COORD97":2558063.2799999998,"ADDRESS":"民主街８９號","OBJECTID":497702},"geometry":{"x":195020.4299999997,"y":2558063.2799999993}},{"attributes":{"ID":497730,"DIS_CODE":0,"TOWNNAME":"玉井區","LI":"中正里","LIN":"7鄰","STREET":"店仔街","SECT":" ","MAREA":" ","LANE":" ","ALLEY":" ","HOUSE_NO":"４７號","E_COORD97":195547.51000000001,"N_COORD97":2558762.25,"ADDRESS":"店仔街４７號","OBJECTID":497703},"geometry":{"x":195547.50999999978,"y":2558762.25}},{"attributes":{"ID":497731,"DIS_CODE":0,"TOWNNAME":"玉井區","LI":"中正里","LIN":"7鄰","STREET":"店仔街","SECT":" ","MAREA":" ","LANE":" ","ALLEY":" ","HOUSE_NO":"３７號","E_COORD97":195543.92000000001,"N_COORD97":2558738.25,"ADDRESS":"店仔街３７號","OBJECTID":497704},"geometry":{"x":195543.92000000086,"y":2558738.2500000019}},{"attributes":{"ID":497732,"DIS_CODE":0,"TOWNNAME":"歸仁區","LI":"歸仁里","LIN":"7鄰","STREET":"中山路","SECT":"一段","MAREA":" ","LANE":" ","ALLEY":" ","HOUSE_NO":"５２６號","E_COORD97":177796.51000000001,"N_COORD97":2540769.1800000002,"ADDRESS":"中山路一段５２６號","OBJECTID":497705},"geometry":{"x":177796.51000000071,"y":2540769.1800000016}},{"attributes":{"ID":497733,"DIS_CODE":0,"TOWNNAME":"歸仁區","LI":"許厝里","LIN":"7鄰","STREET":"仁愛八街","SECT":" ","MAREA":" ","LANE":" ","ALLEY":" ","HOUSE_NO":"５２號","E_COORD97":178128.63,"N_COORD97":2540649.25,"ADDRESS":"仁愛八街５２號","OBJECTID":497706},"geometry":{"x":178128.62999999989,"y":2540649.2500000037}},{"attributes":{"ID":497734,"DIS_CODE":0,"TOWNNAME":"歸仁區","LI":"歸仁里","LIN":"7鄰","STREET":"中山路","SECT":"一段","MAREA":" ","LANE":" ","ALLEY":" ","HOUSE_NO":"５３４號","E_COORD97":177779.10999999999,"N_COORD97":2540770.1800000002,"ADDRESS":"中山路一段５３４號","OBJECTID":497707},"geometry":{"x":177779.11000000127,"y":2540770.1799999997}},{"attributes":{"ID":497735,"DIS_CODE":0,"TOWNNAME":"歸仁區","LI":"歸仁里","LIN":"7鄰","STREET":"中山路","SECT":"一段","MAREA":" ","LANE":" ","ALLEY":" ","HOUSE_NO":"５３６號","E_COORD97":177775.01000000001,"N_COORD97":2540771.1800000002,"ADDRESS":"中山路一段５３６號","OBJECTID":497708},"geometry":{"x":177775.00999999978,"y":2540771.1799999978}},{"attributes":{"ID":497736,"DIS_CODE":0,"TOWNNAME":"歸仁區","LI":"歸仁里","LIN":"7鄰","STREET":"中山路","SECT":"一段","MAREA":" ","LANE":" ","ALLEY":" ","HOUSE_NO":"５２４號","E_COORD97":177800.60999999999,"N_COORD97":2540768.1800000002,"ADDRESS":"中山路一段５２４號","OBJECTID":497709},"geometry":{"x":177800.61000000034,"y":2540768.1800000034}},{"attributes":{"ID":497737,"DIS_CODE":0,"TOWNNAME":"歸仁區","LI":"新厝里","LIN":"7鄰","STREET":"中正三街","SECT":" ","MAREA":" ","LANE":" ","ALLEY":" ","HOUSE_NO":"３７號","E_COORD97":177710.88,"N_COORD97":2540571.9300000002,"ADDRESS":"中正三街３７號","OBJECTID":497710},"geometry":{"x":177710.88000000082,"y":2540571.9299999997}},{"attributes":{"ID":497738,"DIS_CODE":0,"TOWNNAME":"歸仁區","LI":"新厝里","LIN":"7鄰","STREET":"中正三街","SECT":" ","MAREA":" ","LANE":" ","ALLEY":" ","HOUSE_NO":"３３號","E_COORD97":177702.67999999999,"N_COORD97":2540574.9300000002,"ADDRESS":"中正三街３３號","OBJECTID":497711},"geometry":{"x":177702.6799999997,"y":2540574.9299999997}},{"attributes":{"ID":497739,"DIS_CODE":0,"TOWNNAME":"歸仁區","LI":"歸仁里","LIN":"7鄰","STREET":"中山路","SECT":"一段","MAREA":" ","LANE":" ","ALLEY":" ","HOUSE_NO":"５６０號","E_COORD97":177726.81,"N_COORD97":2540778.1800000002,"ADDRESS":"中山路一段５６０號","OBJECTID":497712},"geometry":{"x":177726.80999999959,"y":2540778.1800000034}},{"attributes":{"ID":497740,"DIS_CODE":0,"TOWNNAME":"南區","LI":"文南里","LIN":"7鄰","STREET":"長南街","SECT":" ","MAREA":" ","LANE":" ","ALLEY":" ","HOUSE_NO":"１５號","E_COORD97":167037.34,"N_COORD97":2542605.27,"ADDRESS":"長南街１５號","OBJECTID":497713},"geometry":{"x":167037.33999999985,"y":2542605.2700000014}},{"attributes":{"ID":497741,"DIS_CODE":0,"TOWNNAME":"歸仁區","LI":"歸南里","LIN":"9鄰","STREET":"民生南街","SECT":"二段","MAREA":" ","LANE":" ","ALLEY":" ","HOUSE_NO":"１號","E_COORD97":176237.76000000001,"N_COORD97":2540419.25,"ADDRESS":"民生南街二段１號","OBJECTID":497714},"geometry":{"x":176237.75999999978,"y":2540419.2500000019}},{"attributes":{"ID":497742,"DIS_CODE":0,"TOWNNAME":"歸仁區","LI":"新厝里","LIN":"25鄰","STREET":"大成六街","SECT":" ","MAREA":" ","LANE":" ","ALLEY":" ","HOUSE_NO":"１０２號","E_COORD97":177586.09,"N_COORD97":2540209.1800000002,"ADDRESS":"大成六街１０２號","OBJECTID":497715},"geometry":{"x":177586.08999999985,"y":2540209.1800000016}},{"attributes":{"ID":497743,"DIS_CODE":0,"TOWNNAME":"歸仁區","LI":"歸仁里","LIN":"8鄰","STREET":"大通一街","SECT":" ","MAREA":" ","LANE":" ","ALLEY":" ","HOUSE_NO":"８３號","E_COORD97":177872.20999999999,"N_COORD97":2540956.4900000002,"ADDRESS":"大通一街８３號","OBJECTID":497716},"geometry":{"x":177872.20999999996,"y":2540956.4900000039}},{"attributes":{"ID":497744,"DIS_CODE":0,"TOWNNAME":"麻豆區","LI":"巷口里","LIN":"7鄰","STREET":"民族路","SECT":" ","MAREA":" ","LANE":" ","ALLEY":" ","HOUSE_NO":"２９號之３","E_COORD97":173197.76000000001,"N_COORD97":2564460.7200000002,"ADDRESS":"民族路２９號之３","OBJECTID":497717},"geometry":{"x":173197.75999999978,"y":2564460.7200000044}},{"attributes":{"ID":497745,"DIS_CODE":0,"TOWNNAME":"麻豆區","LI":"巷口里","LIN":"7鄰","STREET":"民族路","SECT":" ","MAREA":" ","LANE":" ","ALLEY":" ","HOUSE_NO":"２９號之５","E_COORD97":173201.82999999999,"N_COORD97":2564461.2000000002,"ADDRESS":"民族路２９號之５","OBJECTID":497718},"geometry":{"x":173201.83000000194,"y":2564461.1999999993}},{"attributes":{"ID":497746,"DIS_CODE":0,"TOWNNAME":"麻豆區","LI":"巷口里","LIN":"7鄰","STREET":"民族路","SECT":" ","MAREA":" ","LANE":" ","ALLEY":" ","HOUSE_NO":"２９號之６","E_COORD97":173205.89000000001,"N_COORD97":2564461.6800000002,"ADDRESS":"民族路２９號之６","OBJECTID":497719},"geometry":{"x":173205.88999999966,"y":2564461.6799999997}},{"attributes":{"ID":497747,"DIS_CODE":0,"TOWNNAME":"麻豆區","LI":"巷口里","LIN":"7鄰","STREET":"民族路","SECT":" ","MAREA":" ","LANE":" ","ALLEY":" ","HOUSE_NO":"２９號之７","E_COORD97":173209.95999999999,"N_COORD97":2564462.1499999999,"ADDRESS":"民族路２９號之７","OBJECTID":497720},"geometry":{"x":173209.96000000089,"y":2564462.1500000022}},{"attributes":{"ID":497748,"DIS_CODE":0,"TOWNNAME":"麻豆區","LI":"巷口里","LIN":"7鄰","STREET":"民族路","SECT":" ","MAREA":" ","LANE":" ","ALLEY":" ","HOUSE_NO":"２９號之８","E_COORD97":173214.03,"N_COORD97":2564462.6299999999,"ADDRESS":"民族路２９號之８","OBJECTID":497721},"geometry":{"x":173214.03000000026,"y":2564462.6299999971}},{"attributes":{"ID":497749,"DIS_CODE":0,"TOWNNAME":"麻豆區","LI":"巷口里","LIN":"7鄰","STREET":"民族路","SECT":" ","MAREA":" ","LANE":" ","ALLEY":" ","HOUSE_NO":"２９號之９","E_COORD97":173218.09,"N_COORD97":2564463.1099999999,"ADDRESS":"民族路２９號之９","OBJECTID":497722},"geometry":{"x":173218.08999999985,"y":2564463.1099999994}},{"attributes":{"ID":497750,"DIS_CODE":0,"TOWNNAME":"麻豆區","LI":"巷口里","LIN":"7鄰","STREET":"民族路","SECT":" ","MAREA":" ","LANE":" ","ALLEY":" ","HOUSE_NO":"３５號","E_COORD97":173179.51000000001,"N_COORD97":2564433.3999999999,"ADDRESS":"民族路３５號","OBJECTID":497723},"geometry":{"x":173179.50999999978,"y":2564433.4000000022}},{"attributes":{"ID":497751,"DIS_CODE":0,"TOWNNAME":"麻豆區","LI":"巷口里","LIN":"7鄰","STREET":"民族路","SECT":" ","MAREA":" ","LANE":" ","ALLEY":" ","HOUSE_NO":"３７號","E_COORD97":173197.17000000001,"N_COORD97":2564436.3199999998,"ADDRESS":"民族路３７號","OBJECTID":497724},"geometry":{"x":173197.16999999993,"y":2564436.3200000022}},{"attributes":{"ID":497752,"DIS_CODE":0,"TOWNNAME":"麻豆區","LI":"巷口里","LIN":"7鄰","STREET":"民族路","SECT":" ","MAREA":" ","LANE":" ","ALLEY":" ","HOUSE_NO":"３９號","E_COORD97":173188.67000000001,"N_COORD97":2564408.9300000002,"ADDRESS":"民族路３９號","OBJECTID":497725},"geometry":{"x":173188.66999999993,"y":2564408.9300000016}},{"attributes":{"ID":497753,"DIS_CODE":0,"TOWNNAME":"麻豆區","LI":"巷口里","LIN":"7鄰","STREET":"民族路","SECT":" ","MAREA":" ","LANE":" ","ALLEY":" ","HOUSE_NO":"４１號","E_COORD97":173214.31,"N_COORD97":2564415.3999999999,"ADDRESS":"民族路４１號","OBJECTID":497726},"geometry":{"x":173214.30999999959,"y":2564415.4000000022}},{"attributes":{"ID":497754,"DIS_CODE":0,"TOWNNAME":"麻豆區","LI":"巷口里","LIN":"7鄰","STREET":"民族路","SECT":" ","MAREA":" ","LANE":" ","ALLEY":" ","HOUSE_NO":"４３號","E_COORD97":173203.51000000001,"N_COORD97":2564405.1899999999,"ADDRESS":"民族路４３號","OBJECTID":497727},"geometry":{"x":173203.50999999885,"y":2564405.1899999976}},{"attributes":{"ID":497755,"DIS_CODE":0,"TOWNNAME":"麻豆區","LI":"巷口里","LIN":"7鄰","STREET":"民族路","SECT":" ","MAREA":" ","LANE":" ","ALLEY":" ","HOUSE_NO":"４７號","E_COORD97":173231.29000000001,"N_COORD97":2564417.0499999998,"ADDRESS":"民族路４７號","OBJECTID":497728},"geometry":{"x":173231.29000000097,"y":2564417.0500000007}},{"attributes":{"ID":497756,"DIS_CODE":0,"TOWNNAME":"歸仁區","LI":"新厝里","LIN":"4鄰","STREET":"復興路","SECT":" ","MAREA":" ","LANE":" ","ALLEY":" ","HOUSE_NO":"９４號","E_COORD97":177774.62,"N_COORD97":2540635.25,"ADDRESS":"復興路９４號","OBJECTID":497729},"geometry":{"x":177774.62000000011,"y":2540635.25}},{"attributes":{"ID":497757,"DIS_CODE":0,"TOWNNAME":"麻豆區","LI":"\u25A0江里","LIN":"7鄰","STREET":"民權路","SECT":" ","MAREA":" ","LANE":" ","ALLEY":" ","HOUSE_NO":"３２號之１","E_COORD97":173364.88,"N_COORD97":2564449.8799999999,"ADDRESS":"民權路３２號之１","OBJECTID":497730},"geometry":{"x":173364.87999999989,"y":2564449.879999999}},{"attributes":{"ID":497758,"DIS_CODE":0,"TOWNNAME":"麻豆區","LI":"\u25A0江里","LIN":"7鄰","STREET":"民權路","SECT":" ","MAREA":" ","LANE":" ","ALLEY":" ","HOUSE_NO":"３２號之２","E_COORD97":173365.92999999999,"N_COORD97":2564445.3599999999,"ADDRESS":"民權路３２號之２","OBJECTID":497731},"geometry":{"x":173365.93000000063,"y":2564445.3600000013}},{"attributes":{"ID":497759,"DIS_CODE":0,"TOWNNAME":"麻豆區","LI":"\u25A0江里","LIN":"7鄰","STREET":"民權路","SECT":" ","MAREA":" ","LANE":" ","ALLEY":" ","HOUSE_NO":"３２號之３","E_COORD97":173366.41,"N_COORD97":2564454.3700000001,"ADDRESS":"民權路３２號之３","OBJECTID":497732},"geometry":{"x":173366.41000000108,"y":2564454.3700000029}},{"attributes":{"ID":497760,"DIS_CODE":0,"TOWNNAME":"麻豆區","LI":"\u25A0江里","LIN":"7鄰","STREET":"民權路","SECT":" ","MAREA":" ","LANE":" ","ALLEY":" ","HOUSE_NO":"３２號","E_COORD97":173366.76000000001,"N_COORD97":2564458.8300000001,"ADDRESS":"民權路３２號","OBJECTID":497733},"geometry":{"x":173366.76000000071,"y":2564458.8300000001}},{"attributes":{"ID":497761,"DIS_CODE":0,"TOWNNAME":"麻豆區","LI":"\u25A0江里","LIN":"7鄰","STREET":"民權路","SECT":" ","MAREA":" ","LANE":" ","ALLEY":" ","HOUSE_NO":"３４號","E_COORD97":173371.64000000001,"N_COORD97":2564438.2000000002,"ADDRESS":"民權路３４號","OBJECTID":497734},"geometry":{"x":173371.63999999966,"y":2564438.1999999993}},{"attributes":{"ID":497762,"DIS_CODE":0,"TOWNNAME":"麻豆區","LI":"\u25A0江里","LIN":"7鄰","STREET":"民權路","SECT":" ","MAREA":" ","LANE":" ","ALLEY":" ","HOUSE_NO":"３６號","E_COORD97":173371.07999999999,"N_COORD97":2564422.9900000002,"ADDRESS":"民權路３６號","OBJECTID":497735},"geometry":{"x":173371.08000000007,"y":2564422.9900000002}},{"attributes":{"ID":497763,"DIS_CODE":0,"TOWNNAME":"麻豆區","LI":"\u25A0江里","LIN":"7鄰","STREET":"民權路","SECT":" ","MAREA":" ","LANE":" ","ALLEY":" ","HOUSE_NO":"３８號","E_COORD97":173352.66,"N_COORD97":2564428.46,"ADDRESS":"民權路３８號","OBJECTID":497736},"geometry":{"x":173352.66000000108,"y":2564428.4600000009}},{"attributes":{"ID":497764,"DIS_CODE":0,"TOWNNAME":"麻豆區","LI":"\u25A0江里","LIN":"7鄰","STREET":"民權路","SECT":" ","MAREA":" ","LANE":" ","ALLEY":" ","HOUSE_NO":"４０號","E_COORD97":173318.63,"N_COORD97":2564424.8599999999,"ADDRESS":"民權路４０號","OBJECTID":497737},"geometry":{"x":173318.63000000082,"y":2564424.8600000013}},{"attributes":{"ID":497765,"DIS_CODE":0,"TOWNNAME":"麻豆區","LI":"\u25A0江里","LIN":"7鄰","STREET":"民權路","SECT":" ","MAREA":" ","LANE":" ","ALLEY":" ","HOUSE_NO":"４２號","E_COORD97":173302.48000000001,"N_COORD97":2564419.7200000002,"ADDRESS":"民權路４２號","OBJECTID":497738},"geometry":{"x":173302.48000000045,"y":2564419.7199999988}},{"attributes":{"ID":497766,"DIS_CODE":0,"TOWNNAME":"麻豆區","LI":"\u25A0江里","LIN":"7鄰","STREET":"民權路","SECT":" ","MAREA":" ","LANE":" ","ALLEY":" ","HOUSE_NO":"４４號","E_COORD97":173343.66,"N_COORD97":2564410.0499999998,"ADDRESS":"民權路４４號","OBJECTID":497739},"geometry":{"x":173343.66000000201,"y":2564410.0500000007}},{"attributes":{"ID":497767,"DIS_CODE":0,"TOWNNAME":"麻豆區","LI":"\u25A0江里","LIN":"7鄰","STREET":"民權路","SECT":" ","MAREA":" ","LANE":" ","ALLEY":" ","HOUSE_NO":"４６號","E_COORD97":173368.20999999999,"N_COORD97":2564407.2599999998,"ADDRESS":"民權路４６號","OBJECTID":497740},"geometry":{"x":173368.20999999996,"y":2564407.2599999998}},{"attributes":{"ID":497768,"DIS_CODE":0,"TOWNNAME":"麻豆區","LI":"\u25A0江里","LIN":"7鄰","STREET":"民權路","SECT":" ","MAREA":" ","LANE":" ","ALLEY":" ","HOUSE_NO":"５０號之１","E_COORD97":173373.70000000001,"N_COORD97":2564355.0800000001,"ADDRESS":"民權路５０號之１","OBJECTID":497741},"geometry":{"x":173373.70000000019,"y":2564355.0800000001}},{"attributes":{"ID":497769,"DIS_CODE":0,"TOWNNAME":"麻豆區","LI":"\u25A0江里","LIN":"7鄰","STREET":"民權路","SECT":" ","MAREA":" ","LANE":" ","ALLEY":" ","HOUSE_NO":"５０號之４","E_COORD97":173390.57000000001,"N_COORD97":2564336.79,"ADDRESS":"民權路５０號之４","OBJECTID":497742},"geometry":{"x":173390.57000000123,"y":2564336.790000001}},{"attributes":{"ID":497770,"DIS_CODE":0,"TOWNNAME":"麻豆區","LI":"\u25A0江里","LIN":"7鄰","STREET":"民權路","SECT":" ","MAREA":" ","LANE":" ","ALLEY":" ","HOUSE_NO":"５０號","E_COORD97":173389.38,"N_COORD97":2564351.02,"ADDRESS":"民權路５０號","OBJECTID":497743},"geometry":{"x":173389.38000000175,"y":2564351.0199999996}},{"attributes":{"ID":497771,"DIS_CODE":0,"TOWNNAME":"麻豆區","LI":"\u25A0江里","LIN":"7鄰","STREET":"民權路","SECT":" ","MAREA":" ","LANE":" ","ALLEY":" ","HOUSE_NO":"５２號","E_COORD97":173363.22,"N_COORD97":2564334.0600000001,"ADDRESS":"民權路５２號","OBJECTID":497744},"geometry":{"x":173363.2200000016,"y":2564334.0600000024}},{"attributes":{"ID":497772,"DIS_CODE":0,"TOWNNAME":"麻豆區","LI":"\u25A0江里","LIN":"7鄰","STREET":"民權路","SECT":" ","MAREA":" ","LANE":" ","ALLEY":" ","HOUSE_NO":"５６號之１","E_COORD97":173348.67999999999,"N_COORD97":2564296.48,"ADDRESS":"民權路５６號之１","OBJECTID":497745},"geometry":{"x":173348.68000000063,"y":2564296.4800000023}},{"attributes":{"ID":497773,"DIS_CODE":0,"TOWNNAME":"麻豆區","LI":"\u25A0江里","LIN":"7鄰","STREET":"民權路","SECT":" ","MAREA":" ","LANE":" ","ALLEY":" ","HOUSE_NO":"５６號","E_COORD97":173384.20999999999,"N_COORD97":2564316.8599999999,"ADDRESS":"民權路５６號","OBJECTID":497746},"geometry":{"x":173384.21000000089,"y":2564316.8600000013}},{"attributes":{"ID":497774,"DIS_CODE":0,"TOWNNAME":"麻豆區","LI":"\u25A0江里","LIN":"7鄰","STREET":"民權路","SECT":" ","MAREA":" ","LANE":" ","ALLEY":" ","HOUSE_NO":"５８號","E_COORD97":173332.25,"N_COORD97":2564384.8799999999,"ADDRESS":"民權路５８號","OBJECTID":497747},"geometry":{"x":173332.25,"y":2564384.879999999}},{"attributes":{"ID":497775,"DIS_CODE":0,"TOWNNAME":"麻豆區","LI":"\u25A0江里","LIN":"7鄰","STREET":"民權路","SECT":" ","MAREA":" ","LANE":" ","ALLEY":" ","HOUSE_NO":"６０號","E_COORD97":173332.60000000001,"N_COORD97":2564346.1400000001,"ADDRESS":"民權路６０號","OBJECTID":497748},"geometry":{"x":173332.59999999963,"y":2564346.1400000025}},{"attributes":{"ID":497776,"DIS_CODE":0,"TOWNNAME":"麻豆區","LI":"\u25A0江里","LIN":"7鄰","STREET":"民權路","SECT":" ","MAREA":" ","LANE":" ","ALLEY":" ","HOUSE_NO":"６２號","E_COORD97":173329.94,"N_COORD97":2564329.1499999999,"ADDRESS":"民權路６２號","OBJECTID":497749},"geometry":{"x":173329.94000000041,"y":2564329.1500000022}},{"attributes":{"ID":497777,"DIS_CODE":0,"TOWNNAME":"麻豆區","LI":"\u25A0江里","LIN":"7鄰","STREET":"民權路","SECT":" ","MAREA":" ","LANE":" ","ALLEY":" ","HOUSE_NO":"６４號之１","E_COORD97":173391.29999999999,"N_COORD97":2564318.48,"ADDRESS":"民權路６４號之１","OBJECTID":497750},"geometry":{"x":173391.29999999981,"y":2564318.4800000004}},{"attributes":{"ID":497778,"DIS_CODE":0,"TOWNNAME":"麻豆區","LI":"\u25A0江里","LIN":"7鄰","STREET":"民權路","SECT":" ","MAREA":" ","LANE":" ","ALLEY":" ","HOUSE_NO":"６４號","E_COORD97":173400.03,"N_COORD97":2564320.6099999999,"ADDRESS":"民權路６４號","OBJECTID":497751},"geometry":{"x":173400.03000000026,"y":2564320.6099999994}},{"attributes":{"ID":497779,"DIS_CODE":0,"TOWNNAME":"麻豆區","LI":"\u25A0江里","LIN":"7鄰","STREET":"民權路","SECT":" ","MAREA":" ","LANE":" ","ALLEY":" ","HOUSE_NO":"６６號之１","E_COORD97":173419.39999999999,"N_COORD97":2564290.0699999998,"ADDRESS":"民權路６６號之１","OBJECTID":497752},"geometry":{"x":173419.4000000013,"y":2564290.0700000022}},{"attributes":{"ID":497780,"DIS_CODE":0,"TOWNNAME":"麻豆區","LI":"\u25A0江里","LIN":"7鄰","STREET":"民權路","SECT":" ","MAREA":" ","LANE":" ","ALLEY":" ","HOUSE_NO":"６６號之２","E_COORD97":173412.14000000001,"N_COORD97":2564299.7000000002,"ADDRESS":"民權路６６號之２","OBJECTID":497753},"geometry":{"x":173412.13999999966,"y":2564299.6999999974}},{"attributes":{"ID":497781,"DIS_CODE":0,"TOWNNAME":"麻豆區","LI":"\u25A0江里","LIN":"7鄰","STREET":"民權路","SECT":" ","MAREA":" ","LANE":" ","ALLEY":" ","HOUSE_NO":"６６號之３","E_COORD97":173407.67000000001,"N_COORD97":2564309.9500000002,"ADDRESS":"民權路６６號之３","OBJECTID":497754},"geometry":{"x":173407.66999999993,"y":2564309.9500000011}},{"attributes":{"ID":497782,"DIS_CODE":0,"TOWNNAME":"北區","LI":"公園里","LIN":"7鄰","STREET":"北忠街","SECT":" ","MAREA":" ","LANE":" ","ALLEY":" ","HOUSE_NO":"６８號","E_COORD97":169092.57000000001,"N_COORD97":2544398.3300000001,"ADDRESS":"北忠街６８號","OBJECTID":497755},"geometry":{"x":169092.5700000003,"y":2544398.3300000038}},{"attributes":{"ID":497783,"DIS_CODE":0,"TOWNNAME":"北區","LI":"正風里","LIN":"7鄰","STREET":"公園路","SECT":" ","MAREA":" ","LANE":" ","ALLEY":" ","HOUSE_NO":"９５４號","E_COORD97":169456.69,"N_COORD97":2546260.7200000002,"ADDRESS":"公園路９５４號","OBJECTID":497756},"geometry":{"x":169456.69000000227,"y":2546260.7200000007}},{"attributes":{"ID":497784,"DIS_CODE":0,"TOWNNAME":"北區","LI":"正風里","LIN":"7鄰","STREET":"公園路","SECT":" ","MAREA":" ","LANE":" ","ALLEY":" ","HOUSE_NO":"９５６號","E_COORD97":169458.48000000001,"N_COORD97":2546263.0699999998,"ADDRESS":"公園路９５６號","OBJECTID":497757},"geometry":{"x":169458.48000000138,"y":2546263.0700000022}},{"attributes":{"ID":497785,"DIS_CODE":0,"TOWNNAME":"北區","LI":"正風里","LIN":"7鄰","STREET":"公園路","SECT":" ","MAREA":" ","LANE":" ","ALLEY":" ","HOUSE_NO":"９５８號","E_COORD97":169460.10000000001,"N_COORD97":2546265.5800000001,"ADDRESS":"公園路９５８號","OBJECTID":497758},"geometry":{"x":169460.10000000056,"y":2546265.5800000019}},{"attributes":{"ID":497786,"DIS_CODE":0,"TOWNNAME":"安南區","LI":"安富里","LIN":"11鄰","STREET":"安富街","SECT":" ","MAREA":" ","LANE":"２５１巷","ALLEY":"１４弄","HOUSE_NO":"４８號","E_COORD97":167343.372669,"N_COORD97":2547373.6811199998,"ADDRESS":"安富街２５１巷１４弄４８號","OBJECTID":497759},"geometry":{"x":167343.37266900018,"y":2547373.6811229996}},{"attributes":{"ID":497787,"DIS_CODE":0,"TOWNNAME":"仁德區","LI":"後壁里","LIN":"12鄰","STREET":"德南路","SECT":" ","MAREA":" ","LANE":"２５１巷","ALLEY":"２９弄","HOUSE_NO":"３０號","E_COORD97":173822.73292800001,"N_COORD97":2538528.0639499999,"ADDRESS":"德南路２５１巷２９弄３０號","OBJECTID":497760},"geometry":{"x":173822.73292800039,"y":2538528.0639490001}},{"attributes":{"ID":497788,"DIS_CODE":0,"TOWNNAME":"北區","LI":"正風里","LIN":"7鄰","STREET":"公園路","SECT":" ","MAREA":" ","LANE":" ","ALLEY":" ","HOUSE_NO":"９６０號","E_COORD97":169464.73000000001,"N_COORD97":2546272.1600000001,"ADDRESS":"公園路９６０號","OBJECTID":497761},"geometry":{"x":169464.73000000045,"y":2546272.160000002}},{"attributes":{"ID":497789,"DIS_CODE":0,"TOWNNAME":"北區","LI":"正風里","LIN":"7鄰","STREET":"公園路","SECT":" ","MAREA":" ","LANE":" ","ALLEY":" ","HOUSE_NO":"９６８號","E_COORD97":169476.09,"N_COORD97":2546285.7999999998,"ADDRESS":"公園路９６８號","OBJECTID":497762},"geometry":{"x":169476.09000000078,"y":2546285.8000000026}},{"attributes":{"ID":497790,"DIS_CODE":0,"TOWNNAME":"北區","LI":"正風里","LIN":"7鄰","STREET":"公園路","SECT":" ","MAREA":" ","LANE":" ","ALLEY":" ","HOUSE_NO":"９７０號","E_COORD97":169479.98999999999,"N_COORD97":2546293.2599999998,"ADDRESS":"公園路９７０號","OBJECTID":497763},"geometry":{"x":169479.99000000209,"y":2546293.2599999998}},{"attributes":{"ID":497791,"DIS_CODE":0,"TOWNNAME":"北區","LI":"正風里","LIN":"7鄰","STREET":"公園路","SECT":" ","MAREA":" ","LANE":" ","ALLEY":" ","HOUSE_NO":"９７２號","E_COORD97":169488.59,"N_COORD97":2546300.5299999998,"ADDRESS":"公園路９７２號","OBJECTID":497764},"geometry":{"x":169488.58999999985,"y":2546300.5299999993}},{"attributes":{"ID":497792,"DIS_CODE":0,"TOWNNAME":"北區","LI":"正風里","LIN":"7鄰","STREET":"公園路","SECT":" ","MAREA":" ","LANE":" ","ALLEY":" ","HOUSE_NO":"９７６號","E_COORD97":169492.23999999999,"N_COORD97":2546305.96,"ADDRESS":"公園路９７６號","OBJECTID":497765},"geometry":{"x":169492.24000000115,"y":2546305.9600000009}},{"attributes":{"ID":497793,"DIS_CODE":0,"TOWNNAME":"鹽水區","LI":"中境里","LIN":"7鄰","STREET":"中山路","SECT":" ","MAREA":" ","LANE":" ","ALLEY":" ","HOUSE_NO":"６號","E_COORD97":175050.54999999999,"N_COORD97":2579916.1000000001,"ADDRESS":"中山路６號","OBJECTID":497766},"geometry":{"x":175050.54999999981,"y":2579916.0999999996}},{"attributes":{"ID":497794,"DIS_CODE":0,"TOWNNAME":"北區","LI":"正風里","LIN":"7鄰","STREET":"公園路","SECT":" ","MAREA":" ","LANE":" ","ALLEY":" ","HOUSE_NO":"９７８號","E_COORD97":169493.54000000001,"N_COORD97":2546307.5800000001,"ADDRESS":"公園路９７８號","OBJECTID":497767},"geometry":{"x":169493.54000000097,"y":2546307.5800000001}},{"attributes":{"ID":497795,"DIS_CODE":0,"TOWNNAME":"北區","LI":"正風里","LIN":"7鄰","STREET":"公園路","SECT":" ","MAREA":" ","LANE":" ","ALLEY":" ","HOUSE_NO":"９７８號之１","E_COORD97":169495.16,"N_COORD97":2546310.8199999998,"ADDRESS":"公園路９７８號之１","OBJECTID":497768},"geometry":{"x":169495.16000000015,"y":2546310.820000004}},{"attributes":{"ID":497796,"DIS_CODE":0,"TOWNNAME":"北區","LI":"正風里","LIN":"7鄰","STREET":"公園路","SECT":" ","MAREA":" ","LANE":" ","ALLEY":" ","HOUSE_NO":"９８０號","E_COORD97":169496.54000000001,"N_COORD97":2546313.6600000001,"ADDRESS":"公園路９８０號","OBJECTID":497769},"geometry":{"x":169496.54000000097,"y":2546313.6600000001}},{"attributes":{"ID":497797,"DIS_CODE":0,"TOWNNAME":"北區","LI":"正風里","LIN":"7鄰","STREET":"公園路","SECT":" ","MAREA":" ","LANE":" ","ALLEY":" ","HOUSE_NO":"９８２號","E_COORD97":169501.463212,"N_COORD97":2546320.9104900002,"ADDRESS":"公園路９８２號","OBJECTID":497770},"geometry":{"x":169501.46321199927,"y":2546320.9104859997}},{"attributes":{"ID":497798,"DIS_CODE":0,"TOWNNAME":"北區","LI":"正風里","LIN":"7鄰","STREET":"公園路","SECT":" ","MAREA":" ","LANE":" ","ALLEY":" ","HOUSE_NO":"９８２號之１","E_COORD97":169503.53,"N_COORD97":2546323.3300000001,"ADDRESS":"公園路９８２號之１","OBJECTID":497771},"geometry":{"x":169503.53000000212,"y":2546323.3300000001}},{"attributes":{"ID":497799,"DIS_CODE":0,"TOWNNAME":"北區","LI":"正風里","LIN":"7鄰","STREET":"公園路","SECT":" ","MAREA":" ","LANE":" ","ALLEY":" ","HOUSE_NO":"９８４號","E_COORD97":169505.67999999999,"N_COORD97":2546326.2799999998,"ADDRESS":"公園路９８４號","OBJECTID":497772},"geometry":{"x":169505.68000000063,"y":2546326.2799999993}},{"attributes":{"ID":497800,"DIS_CODE":0,"TOWNNAME":"北區","LI":"正風里","LIN":"7鄰","STREET":"公園路","SECT":" ","MAREA":" ","LANE":" ","ALLEY":" ","HOUSE_NO":"９８４號之１","E_COORD97":169508.20000000001,"N_COORD97":2546328.9900000002,"ADDRESS":"公園路９８４號之１","OBJECTID":497773},"geometry":{"x":169508.20000000019,"y":2546328.9900000002}},{"attributes":{"ID":497801,"DIS_CODE":0,"TOWNNAME":"北區","LI":"正風里","LIN":"7鄰","STREET":"公園路","SECT":" ","MAREA":" ","LANE":" ","ALLEY":" ","HOUSE_NO":"９８６號","E_COORD97":169510.91,"N_COORD97":2546332.3399999999,"ADDRESS":"公園路９８６號","OBJECTID":497774},"geometry":{"x":169510.91000000201,"y":2546332.3399999999}},{"attributes":{"ID":497802,"DIS_CODE":0,"TOWNNAME":"北區","LI":"正風里","LIN":"7鄰","STREET":"公園路","SECT":" ","MAREA":" ","LANE":" ","ALLEY":" ","HOUSE_NO":"９８８號","E_COORD97":169512.37,"N_COORD97":2546334.2799999998,"ADDRESS":"公園路９８８號","OBJECTID":497775},"geometry":{"x":169512.37000000011,"y":2546334.2800000012}},{"attributes":{"ID":497803,"DIS_CODE":0,"TOWNNAME":"北區","LI":"正風里","LIN":"7鄰","STREET":"公園路","SECT":" ","MAREA":" ","LANE":" ","ALLEY":" ","HOUSE_NO":"９９０號","E_COORD97":169515.04999999999,"N_COORD97":2546337.6000000001,"ADDRESS":"公園路９９０號","OBJECTID":497776},"geometry":{"x":169515.05000000075,"y":2546337.5999999996}},{"attributes":{"ID":497804,"DIS_CODE":0,"TOWNNAME":"北區","LI":"正風里","LIN":"7鄰","STREET":"公園路","SECT":" ","MAREA":" ","LANE":" ","ALLEY":" ","HOUSE_NO":"９９２號","E_COORD97":169517.48000000001,"N_COORD97":2546341.25,"ADDRESS":"公園路９９２號","OBJECTID":497777},"geometry":{"x":169517.48000000231,"y":2546341.25}},{"attributes":{"ID":497805,"DIS_CODE":0,"TOWNNAME":"六甲區","LI":"二甲里","LIN":"7鄰","STREET":"光復街","SECT":" ","MAREA":" ","LANE":" ","ALLEY":" ","HOUSE_NO":"１７７號","E_COORD97":182895.23000000001,"N_COORD97":2569974.8999999999,"ADDRESS":"光復街１７７號","OBJECTID":497778},"geometry":{"x":182895.23000000045,"y":2569974.9000000004}},{"attributes":{"ID":497806,"DIS_CODE":0,"TOWNNAME":"六甲區","LI":"二甲里","LIN":"7鄰","STREET":"民權街","SECT":" ","MAREA":" ","LANE":" ","ALLEY":" ","HOUSE_NO":"３１２號","E_COORD97":182881.66,"N_COORD97":2569800.79,"ADDRESS":"民權街３１２號","OBJECTID":497779},"geometry":{"x":182881.66000000108,"y":2569800.7899999991}},{"attributes":{"ID":497807,"DIS_CODE":0,"TOWNNAME":"六甲區","LI":"二甲里","LIN":"7鄰","STREET":"民權街","SECT":" ","MAREA":" ","LANE":" ","ALLEY":" ","HOUSE_NO":"３１６號","E_COORD97":182878.41,"N_COORD97":2569801.3199999998,"ADDRESS":"民權街３１６號","OBJECTID":497780},"geometry":{"x":182878.41000000015,"y":2569801.3200000003}},{"attributes":{"ID":497808,"DIS_CODE":0,"TOWNNAME":"六甲區","LI":"二甲里","LIN":"7鄰","STREET":"民權街","SECT":" ","MAREA":" ","LANE":" ","ALLEY":" ","HOUSE_NO":"３１８號","E_COORD97":182874.20999999999,"N_COORD97":2569802.1200000001,"ADDRESS":"民權街３１８號","OBJECTID":497781},"geometry":{"x":182874.21000000089,"y":2569802.1200000029}},{"attributes":{"ID":497809,"DIS_CODE":0,"TOWNNAME":"六甲區","LI":"二甲里","LIN":"7鄰","STREET":"民權街","SECT":" ","MAREA":" ","LANE":" ","ALLEY":" ","HOUSE_NO":"３２８號","E_COORD97":182853.97,"N_COORD97":2569817.6000000001,"ADDRESS":"民權街３２８號","OBJECTID":497782},"geometry":{"x":182853.96999999974,"y":2569817.6000000015}},{"attributes":{"ID":497810,"DIS_CODE":0,"TOWNNAME":"六甲區","LI":"二甲里","LIN":"7鄰","STREET":"民權街","SECT":" ","MAREA":" ","LANE":" ","ALLEY":" ","HOUSE_NO":"３３８號","E_COORD97":182838.17999999999,"N_COORD97":2569810.8700000001,"ADDRESS":"民權街３３８號","OBJECTID":497783},"geometry":{"x":182838.18000000063,"y":2569810.8700000029}},{"attributes":{"ID":497811,"DIS_CODE":0,"TOWNNAME":"六甲區","LI":"二甲里","LIN":"7鄰","STREET":"民權街","SECT":" ","MAREA":" ","LANE":" ","ALLEY":" ","HOUSE_NO":"３４０號","E_COORD97":182834.23000000001,"N_COORD97":2569811.7799999998,"ADDRESS":"民權街３４０號","OBJECTID":497784},"geometry":{"x":182834.23000000045,"y":2569811.7799999993}},{"attributes":{"ID":497812,"DIS_CODE":0,"TOWNNAME":"六甲區","LI":"二甲里","LIN":"7鄰","STREET":"光復街","SECT":" ","MAREA":" ","LANE":" ","ALLEY":" ","HOUSE_NO":"１７１號","E_COORD97":182914.82000000001,"N_COORD97":2569966.0800000001,"ADDRESS":"光復街１７１號","OBJECTID":497785},"geometry":{"x":182914.8200000003,"y":2569966.0800000001}},{"attributes":{"ID":497813,"DIS_CODE":0,"TOWNNAME":"六甲區","LI":"二甲里","LIN":"7鄰","STREET":"光復街","SECT":" ","MAREA":" ","LANE":" ","ALLEY":" ","HOUSE_NO":"１７３號","E_COORD97":182907.29000000001,"N_COORD97":2569968.9100000001,"ADDRESS":"光復街１７３號","OBJECTID":497786},"geometry":{"x":182907.29000000097,"y":2569968.910000002}},{"attributes":{"ID":497814,"DIS_CODE":0,"TOWNNAME":"六甲區","LI":"二甲里","LIN":"7鄰","STREET":"光復街","SECT":" ","MAREA":" ","LANE":" ","ALLEY":" ","HOUSE_NO":"１８３號","E_COORD97":182887.81,"N_COORD97":2569975.9300000002,"ADDRESS":"光復街１８３號","OBJECTID":497787},"geometry":{"x":182887.81000000145,"y":2569975.9300000016}},{"attributes":{"ID":497815,"DIS_CODE":0,"TOWNNAME":"六甲區","LI":"二甲里","LIN":"7鄰","STREET":"光復街","SECT":" ","MAREA":" ","LANE":" ","ALLEY":" ","HOUSE_NO":"１８７號","E_COORD97":182879.26999999999,"N_COORD97":2569978.7000000002,"ADDRESS":"光復街１８７號","OBJECTID":497788},"geometry":{"x":182879.26999999955,"y":2569978.6999999974}},{"attributes":{"ID":497816,"DIS_CODE":0,"TOWNNAME":"六甲區","LI":"甲南里","LIN":"7鄰","STREET":"忠孝街","SECT":" ","MAREA":" ","LANE":" ","ALLEY":" ","HOUSE_NO":"５１號","E_COORD97":183855.62,"N_COORD97":2569569,"ADDRESS":"忠孝街５１號","OBJECTID":497789},"geometry":{"x":183855.62000000011,"y":2569569.0000000019}},{"attributes":{"ID":497817,"DIS_CODE":0,"TOWNNAME":"六甲區","LI":"甲南里","LIN":"7鄰","STREET":"忠孝街","SECT":" ","MAREA":" ","LANE":" ","ALLEY":" ","HOUSE_NO":"５７號","E_COORD97":183862.23999999999,"N_COORD97":2569586.1099999999,"ADDRESS":"忠孝街５７號","OBJECTID":497790},"geometry":{"x":183862.24000000115,"y":2569586.1099999975}},{"attributes":{"ID":497818,"DIS_CODE":0,"TOWNNAME":"六甲區","LI":"甲南里","LIN":"7鄰","STREET":"忠孝街","SECT":" ","MAREA":" ","LANE":" ","ALLEY":" ","HOUSE_NO":"５９號","E_COORD97":183863.73999999999,"N_COORD97":2569589.1699999999,"ADDRESS":"忠孝街５９號","OBJECTID":497791},"geometry":{"x":183863.74000000115,"y":2569589.1699999999}},{"attributes":{"ID":497819,"DIS_CODE":0,"TOWNNAME":"六甲區","LI":"甲南里","LIN":"7鄰","STREET":"忠孝街","SECT":" ","MAREA":" ","LANE":" ","ALLEY":" ","HOUSE_NO":"６１號","E_COORD97":183866.66,"N_COORD97":2569593.6099999999,"ADDRESS":"忠孝街６１號","OBJECTID":497792},"geometry":{"x":183866.66000000015,"y":2569593.6100000013}},{"attributes":{"ID":497820,"DIS_CODE":0,"TOWNNAME":"歸仁區","LI":"歸南里","LIN":"17鄰","STREET":"民生南街","SECT":"二段","MAREA":" ","LANE":" ","ALLEY":" ","HOUSE_NO":"８８號","E_COORD97":176198.81,"N_COORD97":2540370.25,"ADDRESS":"民生南街二段８８號","OBJECTID":497793},"geometry":{"x":176198.81000000052,"y":2540370.25}},{"attributes":{"ID":497821,"DIS_CODE":0,"TOWNNAME":"麻豆區","LI":"穀興里","LIN":"7鄰","STREET":"自由路","SECT":" ","MAREA":" ","LANE":" ","ALLEY":" ","HOUSE_NO":"３２號之１８","E_COORD97":172611.39000000001,"N_COORD97":2565022.75,"ADDRESS":"自由路３２號之１８","OBJECTID":497794},"geometry":{"x":172611.3900000006,"y":2565022.7500000037}},{"attributes":{"ID":497822,"DIS_CODE":0,"TOWNNAME":"麻豆區","LI":"穀興里","LIN":"7鄰","STREET":"自由路","SECT":" ","MAREA":" ","LANE":" ","ALLEY":" ","HOUSE_NO":"３２號之１９","E_COORD97":172610.07999999999,"N_COORD97":2565026.8399999999,"ADDRESS":"自由路３２號之１９","OBJECTID":497795},"geometry":{"x":172610.07999999914,"y":2565026.8400000017}},{"attributes":{"ID":497823,"DIS_CODE":0,"TOWNNAME":"麻豆區","LI":"穀興里","LIN":"7鄰","STREET":"自由路","SECT":" ","MAREA":" ","LANE":" ","ALLEY":" ","HOUSE_NO":"３２號之２０","E_COORD97":172608.79999999999,"N_COORD97":2565030.6200000001,"ADDRESS":"自由路３２號之２０","OBJECTID":497796},"geometry":{"x":172608.80000000075,"y":2565030.620000001}},{"attributes":{"ID":497824,"DIS_CODE":0,"TOWNNAME":"麻豆區","LI":"穀興里","LIN":"7鄰","STREET":"自由路","SECT":" ","MAREA":" ","LANE":" ","ALLEY":" ","HOUSE_NO":"３２號之２１","E_COORD97":172607.51999999999,"N_COORD97":2565034.6499999999,"ADDRESS":"自由路３２號之２１","OBJECTID":497797},"geometry":{"x":172607.51999999955,"y":2565034.6500000022}},{"attributes":{"ID":497825,"DIS_CODE":0,"TOWNNAME":"歸仁區","LI":"八甲里","LIN":"7鄰","STREET":"大光一街","SECT":" ","MAREA":" ","LANE":" ","ALLEY":" ","HOUSE_NO":"１５號","E_COORD97":177845.51999999999,"N_COORD97":2541695.6099999999,"ADDRESS":"大光一街１５號","OBJECTID":497798},"geometry":{"x":177845.52000000048,"y":2541695.6099999994}},{"attributes":{"ID":497826,"DIS_CODE":0,"TOWNNAME":"歸仁區","LI":"文化里","LIN":"7鄰","STREET":"文化三街","SECT":" ","MAREA":" ","LANE":" ","ALLEY":" ","HOUSE_NO":"６２號","E_COORD97":177225.06,"N_COORD97":2541339.3399999999,"ADDRESS":"文化三街６２號","OBJECTID":497799},"geometry":{"x":177225.05999999959,"y":2541339.3399999999}},{"attributes":{"ID":497827,"DIS_CODE":0,"TOWNNAME":"歸仁區","LI":"八甲里","LIN":"7鄰","STREET":"中正北路","SECT":"一段","MAREA":" ","LANE":" ","ALLEY":" ","HOUSE_NO":"２００號","E_COORD97":177827.45000000001,"N_COORD97":2541621.6099999999,"ADDRESS":"中正北路一段２００號","OBJECTID":497800},"geometry":{"x":177827.45000000112,"y":2541621.6099999994}}]}