{"displayFieldName":"TOWNNAME","fieldAliases":{"ID":"ID","DIS_CODE":"DIS_CODE","TOWNNAME":"TOWNNAME","LI":"LI","LIN":"LIN","STREET":"STREET","SECT":"SECT","MAREA":"MAREA","LANE":"LANE","ALLEY":"ALLEY","HOUSE_NO":"HOUSE_NO","E_COORD97":"E_COORD97","N_COORD97":"N_COORD97","ADDRESS":"ADDRESS","OBJECTID":"OBJECTID"},"geometryType":"esriGeometryPoint","spatialReference":{"wkid":102443,"latestWkid":3826},"fields":[{"name":"ID","type":"esriFieldTypeDouble","alias":"ID"},{"name":"DIS_CODE","type":"esriFieldTypeInteger","alias":"DIS_CODE"},{"name":"TOWNNAME","type":"esriFieldTypeString","alias":"TOWNNAME","length":8},{"name":"LI","type":"esriFieldTypeString","alias":"LI","length":8},{"name":"LIN","type":"esriFieldTypeString","alias":"LIN","length":12},{"name":"STREET","type":"esriFieldTypeString","alias":"STREET","length":20},{"name":"SECT","type":"esriFieldTypeString","alias":"SECT","length":8},{"name":"MAREA","type":"esriFieldTypeString","alias":"MAREA","length":12},{"name":"LANE","type":"esriFieldTypeString","alias":"LANE","length":10},{"name":"ALLEY","type":"esriFieldTypeString","alias":"ALLEY","length":10},{"name":"HOUSE_NO","type":"esriFieldTypeString","alias":"HOUSE_NO","length":20},{"name":"E_COORD97","type":"esriFieldTypeDouble","alias":"E_COORD97"},{"name":"N_COORD97","type":"esriFieldTypeDouble","alias":"N_COORD97"},{"name":"ADDRESS","type":"esriFieldTypeString","alias":"ADDRESS","length":50},{"name":"OBJECTID","type":"esriFieldTypeOID","alias":"OBJECTID"}],"features":[{"attributes":{"ID":619628,"DIS_CODE":0,"TOWNNAME":"麻豆區","LI":"東角里","LIN":"2鄰","STREET":"文昌路","SECT":" ","MAREA":" ","LANE":" ","ALLEY":" ","HOUSE_NO":"６號之９八樓","E_COORD97":173485.78,"N_COORD97":2564899.25,"ADDRESS":"文昌路６號之９八樓","OBJECTID":619601},"geometry":{"x":173485.78000000119,"y":2564899.25}},{"attributes":{"ID":619629,"DIS_CODE":0,"TOWNNAME":"麻豆區","LI":"東角里","LIN":"2鄰","STREET":"文昌路","SECT":" ","MAREA":" ","LANE":" ","ALLEY":" ","HOUSE_NO":"６號之９三樓","E_COORD97":173485.78,"N_COORD97":2564899.25,"ADDRESS":"文昌路６號之９三樓","OBJECTID":619602},"geometry":{"x":173485.78000000119,"y":2564899.25}},{"attributes":{"ID":619630,"DIS_CODE":0,"TOWNNAME":"麻豆區","LI":"東角里","LIN":"2鄰","STREET":"文昌路","SECT":" ","MAREA":" ","LANE":" ","ALLEY":" ","HOUSE_NO":"６號之９五樓","E_COORD97":173485.78,"N_COORD97":2564899.25,"ADDRESS":"文昌路６號之９五樓","OBJECTID":619603},"geometry":{"x":173485.78000000119,"y":2564899.25}},{"attributes":{"ID":619631,"DIS_CODE":0,"TOWNNAME":"麻豆區","LI":"東角里","LIN":"2鄰","STREET":"文昌路","SECT":" ","MAREA":" ","LANE":" ","ALLEY":" ","HOUSE_NO":"６號之９六樓","E_COORD97":173485.78,"N_COORD97":2564899.25,"ADDRESS":"文昌路６號之９六樓","OBJECTID":619604},"geometry":{"x":173485.78000000119,"y":2564899.25}},{"attributes":{"ID":619632,"DIS_CODE":0,"TOWNNAME":"麻豆區","LI":"東角里","LIN":"2鄰","STREET":"文昌路","SECT":" ","MAREA":" ","LANE":" ","ALLEY":" ","HOUSE_NO":"６號之９四樓","E_COORD97":173485.78,"N_COORD97":2564899.25,"ADDRESS":"文昌路６號之９四樓","OBJECTID":619605},"geometry":{"x":173485.78000000119,"y":2564899.25}},{"attributes":{"ID":619633,"DIS_CODE":0,"TOWNNAME":"中西區","LI":"郡王里","LIN":"2鄰","STREET":"樹林街","SECT":"二段","MAREA":" ","LANE":" ","ALLEY":" ","HOUSE_NO":"８８號一樓","E_COORD97":168903.88,"N_COORD97":2542987.3599999999,"ADDRESS":"樹林街二段８８號一樓","OBJECTID":619606},"geometry":{"x":168903.88000000175,"y":2542987.3600000031}},{"attributes":{"ID":619634,"DIS_CODE":0,"TOWNNAME":"中西區","LI":"郡王里","LIN":"2鄰","STREET":"樹林街","SECT":"二段","MAREA":" ","LANE":" ","ALLEY":" ","HOUSE_NO":"８８號三樓","E_COORD97":168903.88,"N_COORD97":2542987.3599999999,"ADDRESS":"樹林街二段８８號三樓","OBJECTID":619607},"geometry":{"x":168903.88000000175,"y":2542987.3600000031}},{"attributes":{"ID":619635,"DIS_CODE":0,"TOWNNAME":"中西區","LI":"郡王里","LIN":"2鄰","STREET":"樹林街","SECT":"二段","MAREA":" ","LANE":" ","ALLEY":" ","HOUSE_NO":"８８號四樓","E_COORD97":168903.88,"N_COORD97":2542987.3599999999,"ADDRESS":"樹林街二段８８號四樓","OBJECTID":619608},"geometry":{"x":168903.88000000175,"y":2542987.3600000031}},{"attributes":{"ID":619636,"DIS_CODE":0,"TOWNNAME":"中西區","LI":"永華里","LIN":"2鄰","STREET":"府前路","SECT":"一段","MAREA":" ","LANE":" ","ALLEY":" ","HOUSE_NO":"１８０號二樓之１","E_COORD97":168582.76000000001,"N_COORD97":2543302.29,"ADDRESS":"府前路一段１８０號二樓之１","OBJECTID":619609},"geometry":{"x":168582.76000000071,"y":2543302.2899999991}},{"attributes":{"ID":619637,"DIS_CODE":0,"TOWNNAME":"中西區","LI":"永華里","LIN":"2鄰","STREET":"府前路","SECT":"一段","MAREA":" ","LANE":" ","ALLEY":" ","HOUSE_NO":"１８０號二樓之２","E_COORD97":168582.76000000001,"N_COORD97":2543302.29,"ADDRESS":"府前路一段１８０號二樓之２","OBJECTID":619610},"geometry":{"x":168582.76000000071,"y":2543302.2899999991}},{"attributes":{"ID":619638,"DIS_CODE":0,"TOWNNAME":"中西區","LI":"永華里","LIN":"2鄰","STREET":"府前路","SECT":"一段","MAREA":" ","LANE":" ","ALLEY":" ","HOUSE_NO":"１８０號三樓之１","E_COORD97":168582.76000000001,"N_COORD97":2543302.29,"ADDRESS":"府前路一段１８０號三樓之１","OBJECTID":619611},"geometry":{"x":168582.76000000071,"y":2543302.2899999991}},{"attributes":{"ID":619639,"DIS_CODE":0,"TOWNNAME":"中西區","LI":"永華里","LIN":"2鄰","STREET":"府前路","SECT":"一段","MAREA":" ","LANE":" ","ALLEY":" ","HOUSE_NO":"１８０號三樓之２","E_COORD97":168582.76000000001,"N_COORD97":2543302.29,"ADDRESS":"府前路一段１８０號三樓之２","OBJECTID":619612},"geometry":{"x":168582.76000000071,"y":2543302.2899999991}},{"attributes":{"ID":619640,"DIS_CODE":0,"TOWNNAME":"中西區","LI":"永華里","LIN":"2鄰","STREET":"府前路","SECT":"一段","MAREA":" ","LANE":" ","ALLEY":" ","HOUSE_NO":"１８０號四樓之１","E_COORD97":168582.76000000001,"N_COORD97":2543302.29,"ADDRESS":"府前路一段１８０號四樓之１","OBJECTID":619613},"geometry":{"x":168582.76000000071,"y":2543302.2899999991}},{"attributes":{"ID":619641,"DIS_CODE":0,"TOWNNAME":"中西區","LI":"永華里","LIN":"2鄰","STREET":"府前路","SECT":"一段","MAREA":" ","LANE":" ","ALLEY":" ","HOUSE_NO":"１８０號四樓之２","E_COORD97":168582.76000000001,"N_COORD97":2543302.29,"ADDRESS":"府前路一段１８０號四樓之２","OBJECTID":619614},"geometry":{"x":168582.76000000071,"y":2543302.2899999991}},{"attributes":{"ID":619642,"DIS_CODE":0,"TOWNNAME":"中西區","LI":"青年里","LIN":"2鄰","STREET":"萬昌街","SECT":" ","MAREA":" ","LANE":" ","ALLEY":" ","HOUSE_NO":"９６號八樓","E_COORD97":169084.47,"N_COORD97":2543664.3999999999,"ADDRESS":"萬昌街９６號八樓","OBJECTID":619615},"geometry":{"x":169084.46999999881,"y":2543664.4000000004}},{"attributes":{"ID":619643,"DIS_CODE":0,"TOWNNAME":"中西區","LI":"青年里","LIN":"2鄰","STREET":"萬昌街","SECT":" ","MAREA":" ","LANE":" ","ALLEY":" ","HOUSE_NO":"９６號五樓","E_COORD97":169084.47,"N_COORD97":2543664.3999999999,"ADDRESS":"萬昌街９６號五樓","OBJECTID":619616},"geometry":{"x":169084.46999999881,"y":2543664.4000000004}},{"attributes":{"ID":619644,"DIS_CODE":0,"TOWNNAME":"中西區","LI":"青年里","LIN":"2鄰","STREET":"萬昌街","SECT":" ","MAREA":" ","LANE":" ","ALLEY":" ","HOUSE_NO":"９６號六樓","E_COORD97":169084.47,"N_COORD97":2543664.3999999999,"ADDRESS":"萬昌街９６號六樓","OBJECTID":619617},"geometry":{"x":169084.46999999881,"y":2543664.4000000004}},{"attributes":{"ID":619645,"DIS_CODE":0,"TOWNNAME":"中西區","LI":"青年里","LIN":"2鄰","STREET":"萬昌街","SECT":" ","MAREA":" ","LANE":" ","ALLEY":" ","HOUSE_NO":"９８號八樓","E_COORD97":169079.34,"N_COORD97":2543669.1299999999,"ADDRESS":"萬昌街９８號八樓","OBJECTID":619618},"geometry":{"x":169079.34000000078,"y":2543669.129999999}},{"attributes":{"ID":619646,"DIS_CODE":0,"TOWNNAME":"中西區","LI":"青年里","LIN":"2鄰","STREET":"萬昌街","SECT":" ","MAREA":" ","LANE":" ","ALLEY":" ","HOUSE_NO":"９８號三樓","E_COORD97":169079.34,"N_COORD97":2543669.1299999999,"ADDRESS":"萬昌街９８號三樓","OBJECTID":619619},"geometry":{"x":169079.34000000078,"y":2543669.129999999}},{"attributes":{"ID":619647,"DIS_CODE":0,"TOWNNAME":"中西區","LI":"青年里","LIN":"2鄰","STREET":"萬昌街","SECT":" ","MAREA":" ","LANE":" ","ALLEY":" ","HOUSE_NO":"９８號五樓","E_COORD97":169079.34,"N_COORD97":2543669.1299999999,"ADDRESS":"萬昌街９８號五樓","OBJECTID":619620},"geometry":{"x":169079.34000000078,"y":2543669.129999999}},{"attributes":{"ID":619648,"DIS_CODE":0,"TOWNNAME":"中西區","LI":"青年里","LIN":"2鄰","STREET":"萬昌街","SECT":" ","MAREA":" ","LANE":" ","ALLEY":" ","HOUSE_NO":"９８號六樓","E_COORD97":169079.34,"N_COORD97":2543669.1299999999,"ADDRESS":"萬昌街９８號六樓","OBJECTID":619621},"geometry":{"x":169079.34000000078,"y":2543669.129999999}},{"attributes":{"ID":619649,"DIS_CODE":0,"TOWNNAME":"中西區","LI":"青年里","LIN":"2鄰","STREET":"萬昌街","SECT":" ","MAREA":" ","LANE":" ","ALLEY":" ","HOUSE_NO":"９８號四樓","E_COORD97":169079.34,"N_COORD97":2543669.1299999999,"ADDRESS":"萬昌街９８號四樓","OBJECTID":619622},"geometry":{"x":169079.34000000078,"y":2543669.129999999}},{"attributes":{"ID":619650,"DIS_CODE":0,"TOWNNAME":"永康區","LI":"蔦松里","LIN":"2鄰","STREET":"中正北路","SECT":" ","MAREA":" ","LANE":" ","ALLEY":" ","HOUSE_NO":"５３３號四樓之１","E_COORD97":173895.10999999999,"N_COORD97":2549210.29,"ADDRESS":"中正北路５３３號四樓之１","OBJECTID":619623},"geometry":{"x":173895.1099999994,"y":2549210.290000001}},{"attributes":{"ID":619651,"DIS_CODE":0,"TOWNNAME":"永康區","LI":"蔦松里","LIN":"2鄰","STREET":"中正北路","SECT":" ","MAREA":" ","LANE":" ","ALLEY":" ","HOUSE_NO":"５３１號五樓之２","E_COORD97":173911.82000000001,"N_COORD97":2549195.7799999998,"ADDRESS":"中正北路５３１號五樓之２","OBJECTID":619624},"geometry":{"x":173911.8200000003,"y":2549195.7800000012}},{"attributes":{"ID":619652,"DIS_CODE":0,"TOWNNAME":"永康區","LI":"復華里","LIN":"2鄰","STREET":"復國二路","SECT":" ","MAREA":" ","LANE":" ","ALLEY":" ","HOUSE_NO":"２６２號四樓之３","E_COORD97":173025.51000000001,"N_COORD97":2545985.3500000001,"ADDRESS":"復國二路２６２號四樓之３","OBJECTID":619625},"geometry":{"x":173025.50999999885,"y":2545985.3500000015}},{"attributes":{"ID":619653,"DIS_CODE":0,"TOWNNAME":"永康區","LI":"復華里","LIN":"2鄰","STREET":"復國二路","SECT":" ","MAREA":" ","LANE":" ","ALLEY":" ","HOUSE_NO":"２６０號三樓之１","E_COORD97":173012.89999999999,"N_COORD97":2546005.6400000001,"ADDRESS":"復國二路２６０號三樓之１","OBJECTID":619626},"geometry":{"x":173012.90000000037,"y":2546005.6400000006}},{"attributes":{"ID":619654,"DIS_CODE":0,"TOWNNAME":"永康區","LI":"復華里","LIN":"2鄰","STREET":"復國二路","SECT":" ","MAREA":" ","LANE":" ","ALLEY":" ","HOUSE_NO":"２６０號二樓之１","E_COORD97":173012.89999999999,"N_COORD97":2546005.6400000001,"ADDRESS":"復國二路２６０號二樓之１","OBJECTID":619627},"geometry":{"x":173012.90000000037,"y":2546005.6400000006}},{"attributes":{"ID":619655,"DIS_CODE":0,"TOWNNAME":"永康區","LI":"蔦松里","LIN":"2鄰","STREET":"中正北路","SECT":" ","MAREA":" ","LANE":" ","ALLEY":" ","HOUSE_NO":"５３１號十樓之２","E_COORD97":173911.82000000001,"N_COORD97":2549195.7799999998,"ADDRESS":"中正北路５３１號十樓之２","OBJECTID":619628},"geometry":{"x":173911.8200000003,"y":2549195.7800000012}},{"attributes":{"ID":619656,"DIS_CODE":0,"TOWNNAME":"永康區","LI":"蔦松里","LIN":"2鄰","STREET":"中正北路","SECT":" ","MAREA":" ","LANE":" ","ALLEY":" ","HOUSE_NO":"５３１號八樓之２","E_COORD97":173911.82000000001,"N_COORD97":2549195.7799999998,"ADDRESS":"中正北路５３１號八樓之２","OBJECTID":619629},"geometry":{"x":173911.8200000003,"y":2549195.7800000012}},{"attributes":{"ID":619657,"DIS_CODE":0,"TOWNNAME":"永康區","LI":"蔦松里","LIN":"2鄰","STREET":"中正北路","SECT":" ","MAREA":" ","LANE":" ","ALLEY":" ","HOUSE_NO":"５３３號五樓之２","E_COORD97":173895.23999999999,"N_COORD97":2549210.29,"ADDRESS":"中正北路５３３號五樓之２","OBJECTID":619630},"geometry":{"x":173895.24000000022,"y":2549210.290000001}},{"attributes":{"ID":619658,"DIS_CODE":0,"TOWNNAME":"永康區","LI":"蔦松里","LIN":"2鄰","STREET":"中正北路","SECT":" ","MAREA":" ","LANE":" ","ALLEY":" ","HOUSE_NO":"５３１號七樓之３","E_COORD97":173911.79000000001,"N_COORD97":2549195.7799999998,"ADDRESS":"中正北路５３１號七樓之３","OBJECTID":619631},"geometry":{"x":173911.79000000004,"y":2549195.7800000012}},{"attributes":{"ID":619659,"DIS_CODE":0,"TOWNNAME":"永康區","LI":"蔦松里","LIN":"2鄰","STREET":"中正北路","SECT":" ","MAREA":" ","LANE":" ","ALLEY":" ","HOUSE_NO":"５３１號九樓之１","E_COORD97":173911.69,"N_COORD97":2549195.7799999998,"ADDRESS":"中正北路５３１號九樓之１","OBJECTID":619632},"geometry":{"x":173911.69000000227,"y":2549195.7800000012}},{"attributes":{"ID":619660,"DIS_CODE":0,"TOWNNAME":"永康區","LI":"復華里","LIN":"2鄰","STREET":"復國二路","SECT":" ","MAREA":" ","LANE":" ","ALLEY":" ","HOUSE_NO":"２６０號三樓之２","E_COORD97":173013.04000000001,"N_COORD97":2546005.6400000001,"ADDRESS":"復國二路２６０號三樓之２","OBJECTID":619633},"geometry":{"x":173013.04000000004,"y":2546005.6400000006}},{"attributes":{"ID":619661,"DIS_CODE":0,"TOWNNAME":"永康區","LI":"復華里","LIN":"2鄰","STREET":"復國二路","SECT":" ","MAREA":" ","LANE":" ","ALLEY":" ","HOUSE_NO":"２６０號四樓之２","E_COORD97":173013.04000000001,"N_COORD97":2546005.6400000001,"ADDRESS":"復國二路２６０號四樓之２","OBJECTID":619634},"geometry":{"x":173013.04000000004,"y":2546005.6400000006}},{"attributes":{"ID":619662,"DIS_CODE":0,"TOWNNAME":"永康區","LI":"蔦松里","LIN":"2鄰","STREET":"中正北路","SECT":" ","MAREA":" ","LANE":" ","ALLEY":" ","HOUSE_NO":"５３１號十三樓之３","E_COORD97":173913.04000000001,"N_COORD97":2549195.7799999998,"ADDRESS":"中正北路５３１號十三樓之３","OBJECTID":619635},"geometry":{"x":173913.04000000097,"y":2549195.7800000012}},{"attributes":{"ID":619663,"DIS_CODE":0,"TOWNNAME":"永康區","LI":"復華里","LIN":"2鄰","STREET":"復國二路","SECT":" ","MAREA":" ","LANE":" ","ALLEY":" ","HOUSE_NO":"２６０號五樓之１","E_COORD97":173012.89999999999,"N_COORD97":2546005.6400000001,"ADDRESS":"復國二路２６０號五樓之１","OBJECTID":619636},"geometry":{"x":173012.90000000037,"y":2546005.6400000006}},{"attributes":{"ID":619664,"DIS_CODE":0,"TOWNNAME":"永康區","LI":"復華里","LIN":"2鄰","STREET":"復國二路","SECT":" ","MAREA":" ","LANE":" ","ALLEY":" ","HOUSE_NO":"２６０號三樓之３","E_COORD97":173013,"N_COORD97":2546005.6400000001,"ADDRESS":"復國二路２６０號三樓之３","OBJECTID":619637},"geometry":{"x":173013.00000000093,"y":2546005.6400000006}},{"attributes":{"ID":619665,"DIS_CODE":0,"TOWNNAME":"永康區","LI":"蔦松里","LIN":"2鄰","STREET":"中正北路","SECT":" ","MAREA":" ","LANE":" ","ALLEY":" ","HOUSE_NO":"５３３號五樓之３","E_COORD97":173895.20999999999,"N_COORD97":2549210.29,"ADDRESS":"中正北路５３３號五樓之３","OBJECTID":619638},"geometry":{"x":173895.20999999996,"y":2549210.290000001}},{"attributes":{"ID":619666,"DIS_CODE":0,"TOWNNAME":"永康區","LI":"復華里","LIN":"2鄰","STREET":"復國二路","SECT":" ","MAREA":" ","LANE":" ","ALLEY":" ","HOUSE_NO":"２６２號六樓之３","E_COORD97":173025.51000000001,"N_COORD97":2545985.3500000001,"ADDRESS":"復國二路２６２號六樓之３","OBJECTID":619639},"geometry":{"x":173025.50999999885,"y":2545985.3500000015}},{"attributes":{"ID":619667,"DIS_CODE":0,"TOWNNAME":"永康區","LI":"蔦松里","LIN":"2鄰","STREET":"中正北路","SECT":" ","MAREA":" ","LANE":" ","ALLEY":" ","HOUSE_NO":"５３１號十三樓之１","E_COORD97":173912.94,"N_COORD97":2549195.7799999998,"ADDRESS":"中正北路５３１號十三樓之１","OBJECTID":619640},"geometry":{"x":173912.94000000041,"y":2549195.7800000012}},{"attributes":{"ID":619668,"DIS_CODE":0,"TOWNNAME":"永康區","LI":"蔦松里","LIN":"2鄰","STREET":"中正北路","SECT":" ","MAREA":" ","LANE":" ","ALLEY":" ","HOUSE_NO":"５３１號四樓之１","E_COORD97":173911.69,"N_COORD97":2549195.7799999998,"ADDRESS":"中正北路５３１號四樓之１","OBJECTID":619641},"geometry":{"x":173911.69000000227,"y":2549195.7800000012}},{"attributes":{"ID":619669,"DIS_CODE":0,"TOWNNAME":"永康區","LI":"蔦松里","LIN":"2鄰","STREET":"中正北路","SECT":" ","MAREA":" ","LANE":" ","ALLEY":" ","HOUSE_NO":"５３１號七樓之２","E_COORD97":173911.82000000001,"N_COORD97":2549195.7799999998,"ADDRESS":"中正北路５３１號七樓之２","OBJECTID":619642},"geometry":{"x":173911.8200000003,"y":2549195.7800000012}},{"attributes":{"ID":619670,"DIS_CODE":0,"TOWNNAME":"永康區","LI":"復華里","LIN":"2鄰","STREET":"復國二路","SECT":" ","MAREA":" ","LANE":" ","ALLEY":" ","HOUSE_NO":"２６０號六樓之１","E_COORD97":173012.89999999999,"N_COORD97":2546005.6400000001,"ADDRESS":"復國二路２６０號六樓之１","OBJECTID":619643},"geometry":{"x":173012.90000000037,"y":2546005.6400000006}},{"attributes":{"ID":619671,"DIS_CODE":0,"TOWNNAME":"永康區","LI":"復華里","LIN":"2鄰","STREET":"復國二路","SECT":" ","MAREA":" ","LANE":" ","ALLEY":" ","HOUSE_NO":"２６２號五樓之１","E_COORD97":173025.41,"N_COORD97":2545985.3500000001,"ADDRESS":"復國二路２６２號五樓之１","OBJECTID":619644},"geometry":{"x":173025.41000000108,"y":2545985.3500000015}},{"attributes":{"ID":619672,"DIS_CODE":0,"TOWNNAME":"永康區","LI":"蔦松里","LIN":"2鄰","STREET":"中正北路","SECT":" ","MAREA":" ","LANE":" ","ALLEY":" ","HOUSE_NO":"５３１號十一樓之２","E_COORD97":173913.07000000001,"N_COORD97":2549195.7799999998,"ADDRESS":"中正北路５３１號十一樓之２","OBJECTID":619645},"geometry":{"x":173913.07000000123,"y":2549195.7800000012}},{"attributes":{"ID":619673,"DIS_CODE":0,"TOWNNAME":"永康區","LI":"蔦松里","LIN":"2鄰","STREET":"中正北路","SECT":" ","MAREA":" ","LANE":" ","ALLEY":" ","HOUSE_NO":"５３３號八樓之１","E_COORD97":173895.10999999999,"N_COORD97":2549210.29,"ADDRESS":"中正北路５３３號八樓之１","OBJECTID":619646},"geometry":{"x":173895.1099999994,"y":2549210.290000001}},{"attributes":{"ID":619674,"DIS_CODE":0,"TOWNNAME":"永康區","LI":"復華里","LIN":"2鄰","STREET":"復國二路","SECT":" ","MAREA":" ","LANE":" ","ALLEY":" ","HOUSE_NO":"２６６號二樓之２","E_COORD97":173055.82999999999,"N_COORD97":2545984.1299999999,"ADDRESS":"復國二路２６６號二樓之２","OBJECTID":619647},"geometry":{"x":173055.83000000007,"y":2545984.129999999}},{"attributes":{"ID":619675,"DIS_CODE":0,"TOWNNAME":"永康區","LI":"復華里","LIN":"2鄰","STREET":"復國二路","SECT":" ","MAREA":" ","LANE":" ","ALLEY":" ","HOUSE_NO":"２６８號之３三樓之３","E_COORD97":173029.07999999999,"N_COORD97":2546012.6299999999,"ADDRESS":"復國二路２６８號之３三樓之３","OBJECTID":619648},"geometry":{"x":173029.08000000101,"y":2546012.6300000027}},{"attributes":{"ID":619676,"DIS_CODE":0,"TOWNNAME":"永康區","LI":"復華里","LIN":"2鄰","STREET":"復國二路","SECT":" ","MAREA":" ","LANE":" ","ALLEY":" ","HOUSE_NO":"２６８號二樓之１","E_COORD97":173058.17999999999,"N_COORD97":2546005.3300000001,"ADDRESS":"復國二路２６８號二樓之１","OBJECTID":619649},"geometry":{"x":173058.17999999877,"y":2546005.3300000038}},{"attributes":{"ID":619677,"DIS_CODE":0,"TOWNNAME":"永康區","LI":"復華里","LIN":"2鄰","STREET":"復國二路","SECT":" ","MAREA":" ","LANE":" ","ALLEY":" ","HOUSE_NO":"２６８號之３四樓之３","E_COORD97":173029.07999999999,"N_COORD97":2546012.6299999999,"ADDRESS":"復國二路２６８號之３四樓之３","OBJECTID":619650},"geometry":{"x":173029.08000000101,"y":2546012.6300000027}},{"attributes":{"ID":619678,"DIS_CODE":0,"TOWNNAME":"永康區","LI":"復華里","LIN":"2鄰","STREET":"復國二路","SECT":" ","MAREA":" ","LANE":" ","ALLEY":" ","HOUSE_NO":"２６８號之３三樓之２","E_COORD97":173029.12,"N_COORD97":2546012.6299999999,"ADDRESS":"復國二路２６８號之３三樓之２","OBJECTID":619651},"geometry":{"x":173029.12000000104,"y":2546012.6300000027}},{"attributes":{"ID":619679,"DIS_CODE":0,"TOWNNAME":"永康區","LI":"復華里","LIN":"2鄰","STREET":"復國二路","SECT":" ","MAREA":" ","LANE":" ","ALLEY":" ","HOUSE_NO":"２６８號之３六樓之３","E_COORD97":173029.07999999999,"N_COORD97":2546012.6299999999,"ADDRESS":"復國二路２６８號之３六樓之３","OBJECTID":619652},"geometry":{"x":173029.08000000101,"y":2546012.6300000027}},{"attributes":{"ID":619680,"DIS_CODE":0,"TOWNNAME":"永康區","LI":"復華里","LIN":"2鄰","STREET":"復國二路","SECT":" ","MAREA":" ","LANE":" ","ALLEY":" ","HOUSE_NO":"２６８號之３二樓之１","E_COORD97":173028.98000000001,"N_COORD97":2546012.6299999999,"ADDRESS":"復國二路２６８號之３二樓之１","OBJECTID":619653},"geometry":{"x":173028.98000000138,"y":2546012.6300000027}},{"attributes":{"ID":619681,"DIS_CODE":0,"TOWNNAME":"永康區","LI":"復華里","LIN":"2鄰","STREET":"復國二路","SECT":" ","MAREA":" ","LANE":" ","ALLEY":" ","HOUSE_NO":"２６８號之３七樓之２","E_COORD97":173029.12,"N_COORD97":2546012.6299999999,"ADDRESS":"復國二路２６８號之３七樓之２","OBJECTID":619654},"geometry":{"x":173029.12000000104,"y":2546012.6300000027}},{"attributes":{"ID":619682,"DIS_CODE":0,"TOWNNAME":"永康區","LI":"復華里","LIN":"2鄰","STREET":"復國二路","SECT":" ","MAREA":" ","LANE":" ","ALLEY":" ","HOUSE_NO":"２６８號三樓之２","E_COORD97":173058.31,"N_COORD97":2546005.3300000001,"ADDRESS":"復國二路２６８號三樓之２","OBJECTID":619655},"geometry":{"x":173058.30999999959,"y":2546005.3300000038}},{"attributes":{"ID":619683,"DIS_CODE":0,"TOWNNAME":"永康區","LI":"復華里","LIN":"2鄰","STREET":"復國二路","SECT":" ","MAREA":" ","LANE":" ","ALLEY":" ","HOUSE_NO":"２６８號三樓之１","E_COORD97":173058.17999999999,"N_COORD97":2546005.3300000001,"ADDRESS":"復國二路２６８號三樓之１","OBJECTID":619656},"geometry":{"x":173058.17999999877,"y":2546005.3300000038}},{"attributes":{"ID":619684,"DIS_CODE":0,"TOWNNAME":"永康區","LI":"復華里","LIN":"2鄰","STREET":"復國二路","SECT":" ","MAREA":" ","LANE":" ","ALLEY":" ","HOUSE_NO":"２６８號二樓之４","E_COORD97":173058.20000000001,"N_COORD97":2546005.3300000001,"ADDRESS":"復國二路２６８號二樓之４","OBJECTID":619657},"geometry":{"x":173058.20000000019,"y":2546005.3300000038}},{"attributes":{"ID":619685,"DIS_CODE":0,"TOWNNAME":"永康區","LI":"復華里","LIN":"2鄰","STREET":"復國二路","SECT":" ","MAREA":" ","LANE":" ","ALLEY":" ","HOUSE_NO":"２６８號之３五樓之２","E_COORD97":173029.12,"N_COORD97":2546012.6299999999,"ADDRESS":"復國二路２６８號之３五樓之２","OBJECTID":619658},"geometry":{"x":173029.12000000104,"y":2546012.6300000027}},{"attributes":{"ID":619686,"DIS_CODE":0,"TOWNNAME":"永康區","LI":"復華里","LIN":"2鄰","STREET":"復國二路","SECT":" ","MAREA":" ","LANE":" ","ALLEY":" ","HOUSE_NO":"２６８號之３六樓之４","E_COORD97":173029.01000000001,"N_COORD97":2546012.6299999999,"ADDRESS":"復國二路２６８號之３六樓之４","OBJECTID":619659},"geometry":{"x":173029.01000000164,"y":2546012.6300000027}},{"attributes":{"ID":619687,"DIS_CODE":0,"TOWNNAME":"永康區","LI":"復華里","LIN":"2鄰","STREET":"復國二路","SECT":" ","MAREA":" ","LANE":" ","ALLEY":" ","HOUSE_NO":"２６８號之３二樓之３","E_COORD97":173029.07999999999,"N_COORD97":2546012.6299999999,"ADDRESS":"復國二路２６８號之３二樓之３","OBJECTID":619660},"geometry":{"x":173029.08000000101,"y":2546012.6300000027}},{"attributes":{"ID":619688,"DIS_CODE":0,"TOWNNAME":"永康區","LI":"復華里","LIN":"2鄰","STREET":"復國二路","SECT":" ","MAREA":" ","LANE":" ","ALLEY":" ","HOUSE_NO":"２６８號之３四樓之２","E_COORD97":173029.12,"N_COORD97":2546012.6299999999,"ADDRESS":"復國二路２６８號之３四樓之２","OBJECTID":619661},"geometry":{"x":173029.12000000104,"y":2546012.6300000027}},{"attributes":{"ID":619689,"DIS_CODE":0,"TOWNNAME":"永康區","LI":"復華里","LIN":"2鄰","STREET":"復國二路","SECT":" ","MAREA":" ","LANE":" ","ALLEY":" ","HOUSE_NO":"２６８號之３七樓之４","E_COORD97":173029.01000000001,"N_COORD97":2546012.6299999999,"ADDRESS":"復國二路２６８號之３七樓之４","OBJECTID":619662},"geometry":{"x":173029.01000000164,"y":2546012.6300000027}},{"attributes":{"ID":619690,"DIS_CODE":0,"TOWNNAME":"永康區","LI":"復華里","LIN":"2鄰","STREET":"復國二路","SECT":" ","MAREA":" ","LANE":" ","ALLEY":" ","HOUSE_NO":"２６８號之３四樓之４","E_COORD97":173029.01000000001,"N_COORD97":2546012.6299999999,"ADDRESS":"復國二路２６８號之３四樓之４","OBJECTID":619663},"geometry":{"x":173029.01000000164,"y":2546012.6300000027}},{"attributes":{"ID":619691,"DIS_CODE":0,"TOWNNAME":"永康區","LI":"復華里","LIN":"2鄰","STREET":"復國二路","SECT":" ","MAREA":" ","LANE":" ","ALLEY":" ","HOUSE_NO":"２６８號之３三樓之４","E_COORD97":173029.01000000001,"N_COORD97":2546012.6299999999,"ADDRESS":"復國二路２６８號之３三樓之４","OBJECTID":619664},"geometry":{"x":173029.01000000164,"y":2546012.6300000027}},{"attributes":{"ID":619692,"DIS_CODE":0,"TOWNNAME":"永康區","LI":"復華里","LIN":"2鄰","STREET":"復國二路","SECT":" ","MAREA":" ","LANE":" ","ALLEY":" ","HOUSE_NO":"２６８號之３六樓之２","E_COORD97":173029.12,"N_COORD97":2546012.6299999999,"ADDRESS":"復國二路２６８號之３六樓之２","OBJECTID":619665},"geometry":{"x":173029.12000000104,"y":2546012.6300000027}},{"attributes":{"ID":619693,"DIS_CODE":0,"TOWNNAME":"永康區","LI":"復華里","LIN":"2鄰","STREET":"復國二路","SECT":" ","MAREA":" ","LANE":" ","ALLEY":" ","HOUSE_NO":"２６８號三樓之４","E_COORD97":173058.20000000001,"N_COORD97":2546005.3300000001,"ADDRESS":"復國二路２６８號三樓之４","OBJECTID":619666},"geometry":{"x":173058.20000000019,"y":2546005.3300000038}},{"attributes":{"ID":619694,"DIS_CODE":0,"TOWNNAME":"永康區","LI":"復華里","LIN":"2鄰","STREET":"復國二路","SECT":" ","MAREA":" ","LANE":" ","ALLEY":" ","HOUSE_NO":"２６８號之３四樓之１","E_COORD97":173028.98000000001,"N_COORD97":2546012.6299999999,"ADDRESS":"復國二路２６８號之３四樓之１","OBJECTID":619667},"geometry":{"x":173028.98000000138,"y":2546012.6300000027}},{"attributes":{"ID":619695,"DIS_CODE":0,"TOWNNAME":"仁德區","LI":"田厝里","LIN":"2鄰","STREET":"保安路","SECT":"二段","MAREA":" ","LANE":" ","ALLEY":" ","HOUSE_NO":"５９４號","E_COORD97":172693.87,"N_COORD97":2537572.3100000001,"ADDRESS":"保安路二段５９４號","OBJECTID":619668},"geometry":{"x":172693.87000000011,"y":2537572.3100000024}},{"attributes":{"ID":619696,"DIS_CODE":0,"TOWNNAME":"仁德區","LI":"仁德里","LIN":"2鄰","STREET":"中正路","SECT":"二段","MAREA":" ","LANE":" ","ALLEY":" ","HOUSE_NO":"７１９號","E_COORD97":173456.66,"N_COORD97":2540156.52,"ADDRESS":"中正路二段７１９號","OBJECTID":619669},"geometry":{"x":173456.66000000015,"y":2540156.5200000014}},{"attributes":{"ID":619697,"DIS_CODE":0,"TOWNNAME":"東區","LI":"莊敬里","LIN":"2鄰","STREET":"東和路","SECT":" ","MAREA":" ","LANE":" ","ALLEY":" ","HOUSE_NO":"４１號","E_COORD97":171030.60000000001,"N_COORD97":2544334.3900000001,"ADDRESS":"東和路４１號","OBJECTID":619670},"geometry":{"x":171030.59999999963,"y":2544334.3900000043}},{"attributes":{"ID":619698,"DIS_CODE":0,"TOWNNAME":"永康區","LI":"蔦松里","LIN":"2鄰","STREET":"中正北路","SECT":" ","MAREA":" ","LANE":" ","ALLEY":" ","HOUSE_NO":"５２３之６號","E_COORD97":173860.92999999999,"N_COORD97":2549180.29,"ADDRESS":"中正北路５２３之６號","OBJECTID":619671},"geometry":{"x":173860.93000000063,"y":2549180.2899999991}},{"attributes":{"ID":619699,"DIS_CODE":0,"TOWNNAME":"永康區","LI":"崑山里","LIN":"2鄰","STREET":"大灣路","SECT":" ","MAREA":" ","LANE":" ","ALLEY":" ","HOUSE_NO":"８６７號","E_COORD97":173665.53,"N_COORD97":2544406.9199999999,"ADDRESS":"大灣路８６７號","OBJECTID":619672},"geometry":{"x":173665.53000000119,"y":2544406.9199999999}},{"attributes":{"ID":619700,"DIS_CODE":0,"TOWNNAME":"永康區","LI":"崑山里","LIN":"2鄰","STREET":"大灣路","SECT":" ","MAREA":" ","LANE":" ","ALLEY":" ","HOUSE_NO":"８７５號","E_COORD97":173650.14000000001,"N_COORD97":2544403.9199999999,"ADDRESS":"大灣路８７５號","OBJECTID":619673},"geometry":{"x":173650.14000000153,"y":2544403.9199999999}},{"attributes":{"ID":619701,"DIS_CODE":0,"TOWNNAME":"永康區","LI":"崑山里","LIN":"2鄰","STREET":"大灣路","SECT":" ","MAREA":" ","LANE":" ","ALLEY":" ","HOUSE_NO":"８７７號","E_COORD97":173646.14999999999,"N_COORD97":2544402.9199999999,"ADDRESS":"大灣路８７７號","OBJECTID":619674},"geometry":{"x":173646.1500000013,"y":2544402.9199999999}},{"attributes":{"ID":619702,"DIS_CODE":0,"TOWNNAME":"永康區","LI":"三合里","LIN":"2鄰","STREET":"南工街","SECT":" ","MAREA":" ","LANE":" ","ALLEY":" ","HOUSE_NO":"１３號","E_COORD97":172101.20000000001,"N_COORD97":2545494.3300000001,"ADDRESS":"南工街１３號","OBJECTID":619675},"geometry":{"x":172101.20000000112,"y":2545494.3300000019}},{"attributes":{"ID":619703,"DIS_CODE":0,"TOWNNAME":"永康區","LI":"大橋里","LIN":"2鄰","STREET":"中華路","SECT":" ","MAREA":" ","LANE":" ","ALLEY":" ","HOUSE_NO":"８４２號","E_COORD97":170702.10000000001,"N_COORD97":2546556.5,"ADDRESS":"中華路８４２號","OBJECTID":619676},"geometry":{"x":170702.09999999963,"y":2546556.5}},{"attributes":{"ID":619704,"DIS_CODE":0,"TOWNNAME":"永康區","LI":"大橋里","LIN":"2鄰","STREET":"中華路","SECT":" ","MAREA":" ","LANE":" ","ALLEY":" ","HOUSE_NO":"８３６號","E_COORD97":170711.72,"N_COORD97":2546549.75,"ADDRESS":"中華路８３６號","OBJECTID":619677},"geometry":{"x":170711.71999999974,"y":2546549.7500000019}},{"attributes":{"ID":619705,"DIS_CODE":0,"TOWNNAME":"永康區","LI":"三民里","LIN":"2鄰","STREET":"三民街","SECT":" ","MAREA":" ","LANE":" ","ALLEY":" ","HOUSE_NO":"１３２號","E_COORD97":172809.17000000001,"N_COORD97":2550351.1000000001,"ADDRESS":"三民街１３２號","OBJECTID":619678},"geometry":{"x":172809.16999999993,"y":2550351.1000000015}},{"attributes":{"ID":619706,"DIS_CODE":0,"TOWNNAME":"永康區","LI":"中興里","LIN":"2鄰","STREET":"中山東路","SECT":" ","MAREA":" ","LANE":" ","ALLEY":" ","HOUSE_NO":"４３５號","E_COORD97":171975.60000000001,"N_COORD97":2545013.7400000002,"ADDRESS":"中山東路４３５號","OBJECTID":619679},"geometry":{"x":171975.60000000149,"y":2545013.7400000021}},{"attributes":{"ID":619707,"DIS_CODE":0,"TOWNNAME":"永康區","LI":"大橋里","LIN":"2鄰","STREET":"中華路","SECT":" ","MAREA":" ","LANE":" ","ALLEY":" ","HOUSE_NO":"８５０號","E_COORD97":170688.51999999999,"N_COORD97":2546565.4900000002,"ADDRESS":"中華路８５０號","OBJECTID":619680},"geometry":{"x":170688.51999999955,"y":2546565.4900000021}},{"attributes":{"ID":619708,"DIS_CODE":0,"TOWNNAME":"永康區","LI":"大橋里","LIN":"2鄰","STREET":"中華路","SECT":" ","MAREA":" ","LANE":" ","ALLEY":" ","HOUSE_NO":"８４０號","E_COORD97":170705.22,"N_COORD97":2546554.25,"ADDRESS":"中華路８４０號","OBJECTID":619681},"geometry":{"x":170705.2200000016,"y":2546554.25}},{"attributes":{"ID":619709,"DIS_CODE":0,"TOWNNAME":"永康區","LI":"大灣里","LIN":"2鄰","STREET":"中灣一街","SECT":" ","MAREA":" ","LANE":" ","ALLEY":" ","HOUSE_NO":"２５號","E_COORD97":174776.44,"N_COORD97":2545586.2799999998,"ADDRESS":"中灣一街２５號","OBJECTID":619682},"geometry":{"x":174776.44000000134,"y":2545586.2800000012}},{"attributes":{"ID":619710,"DIS_CODE":0,"TOWNNAME":"永康區","LI":"大灣里","LIN":"2鄰","STREET":"中灣一街","SECT":" ","MAREA":" ","LANE":" ","ALLEY":" ","HOUSE_NO":"２８號","E_COORD97":174744.38,"N_COORD97":2545623.1499999999,"ADDRESS":"中灣一街２８號","OBJECTID":619683},"geometry":{"x":174744.38000000082,"y":2545623.1500000004}},{"attributes":{"ID":619711,"DIS_CODE":0,"TOWNNAME":"永康區","LI":"大灣里","LIN":"2鄰","STREET":"中灣一街","SECT":" ","MAREA":" ","LANE":" ","ALLEY":" ","HOUSE_NO":"３１號","E_COORD97":174757.54999999999,"N_COORD97":2545602.5899999999,"ADDRESS":"中灣一街３１號","OBJECTID":619684},"geometry":{"x":174757.54999999981,"y":2545602.5899999999}},{"attributes":{"ID":619712,"DIS_CODE":0,"TOWNNAME":"永康區","LI":"大橋里","LIN":"2鄰","STREET":"中華路","SECT":" ","MAREA":" ","LANE":" ","ALLEY":" ","HOUSE_NO":"８５４號","E_COORD97":170670.29999999999,"N_COORD97":2546578.48,"ADDRESS":"中華路８５４號","OBJECTID":619685},"geometry":{"x":170670.29999999981,"y":2546578.4800000023}},{"attributes":{"ID":619713,"DIS_CODE":0,"TOWNNAME":"永康區","LI":"大灣里","LIN":"2鄰","STREET":"中灣一街","SECT":" ","MAREA":" ","LANE":" ","ALLEY":" ","HOUSE_NO":"２２號","E_COORD97":174753,"N_COORD97":2545624.6499999999,"ADDRESS":"中灣一街２２號","OBJECTID":619686},"geometry":{"x":174753,"y":2545624.6500000022}},{"attributes":{"ID":619714,"DIS_CODE":0,"TOWNNAME":"永康區","LI":"大灣里","LIN":"2鄰","STREET":"中灣一街","SECT":" ","MAREA":" ","LANE":" ","ALLEY":" ","HOUSE_NO":"５６號","E_COORD97":174680.53,"N_COORD97":2545610.0099999998,"ADDRESS":"中灣一街５６號","OBJECTID":619687},"geometry":{"x":174680.53000000212,"y":2545610.0099999998}},{"attributes":{"ID":619715,"DIS_CODE":0,"TOWNNAME":"永康區","LI":"五王里","LIN":"2鄰","STREET":"成功路","SECT":" ","MAREA":" ","LANE":" ","ALLEY":" ","HOUSE_NO":"８９號","E_COORD97":171456.17000000001,"N_COORD97":2545555.7599999998,"ADDRESS":"成功路８９號","OBJECTID":619688},"geometry":{"x":171456.16999999993,"y":2545555.7600000016}},{"attributes":{"ID":619716,"DIS_CODE":0,"TOWNNAME":"永康區","LI":"大橋里","LIN":"2鄰","STREET":"中華路","SECT":" ","MAREA":" ","LANE":" ","ALLEY":" ","HOUSE_NO":"８４８號","E_COORD97":170692.01000000001,"N_COORD97":2546563.2400000002,"ADDRESS":"中華路８４８號","OBJECTID":619689},"geometry":{"x":170692.01000000071,"y":2546563.2400000021}},{"attributes":{"ID":619717,"DIS_CODE":0,"TOWNNAME":"永康區","LI":"五王里","LIN":"2鄰","STREET":"成功路","SECT":" ","MAREA":" ","LANE":" ","ALLEY":" ","HOUSE_NO":"３９號","E_COORD97":171504.42999999999,"N_COORD97":2545468.8999999999,"ADDRESS":"成功路３９號","OBJECTID":619690},"geometry":{"x":171504.43000000063,"y":2545468.9000000004}},{"attributes":{"ID":619718,"DIS_CODE":0,"TOWNNAME":"永康區","LI":"大橋里","LIN":"2鄰","STREET":"大橋三街","SECT":" ","MAREA":" ","LANE":" ","ALLEY":" ","HOUSE_NO":"８６號","E_COORD97":170660.38,"N_COORD97":2546585.7400000002,"ADDRESS":"大橋三街８６號","OBJECTID":619691},"geometry":{"x":170660.38000000082,"y":2546585.7399999984}},{"attributes":{"ID":619719,"DIS_CODE":0,"TOWNNAME":"永康區","LI":"大灣里","LIN":"2鄰","STREET":"中灣一街","SECT":" ","MAREA":" ","LANE":" ","ALLEY":" ","HOUSE_NO":"１９號","E_COORD97":174784.72,"N_COORD97":2545616.73,"ADDRESS":"中灣一街１９號","OBJECTID":619692},"geometry":{"x":174784.71999999974,"y":2545616.7300000042}},{"attributes":{"ID":619720,"DIS_CODE":0,"TOWNNAME":"永康區","LI":"大灣里","LIN":"2鄰","STREET":"中灣一街","SECT":" ","MAREA":" ","LANE":" ","ALLEY":" ","HOUSE_NO":"５８號","E_COORD97":174686.66,"N_COORD97":2545615.3900000001,"ADDRESS":"中灣一街５８號","OBJECTID":619693},"geometry":{"x":174686.66000000108,"y":2545615.3900000006}},{"attributes":{"ID":619721,"DIS_CODE":0,"TOWNNAME":"東區","LI":"莊敬里","LIN":"2鄰","STREET":"東和路","SECT":" ","MAREA":" ","LANE":" ","ALLEY":" ","HOUSE_NO":"１１號","E_COORD97":171093.47,"N_COORD97":2544341.27,"ADDRESS":"東和路１１號","OBJECTID":619694},"geometry":{"x":171093.4700000016,"y":2544341.2700000014}},{"attributes":{"ID":619722,"DIS_CODE":0,"TOWNNAME":"東區","LI":"莊敬里","LIN":"2鄰","STREET":"東和路","SECT":" ","MAREA":" ","LANE":" ","ALLEY":" ","HOUSE_NO":"１５號","E_COORD97":171085.89000000001,"N_COORD97":2544339.4500000002,"ADDRESS":"東和路１５號","OBJECTID":619695},"geometry":{"x":171085.8900000006,"y":2544339.4500000011}},{"attributes":{"ID":619723,"DIS_CODE":0,"TOWNNAME":"東區","LI":"莊敬里","LIN":"2鄰","STREET":"東和路","SECT":" ","MAREA":" ","LANE":" ","ALLEY":" ","HOUSE_NO":"１７號","E_COORD97":171080.92999999999,"N_COORD97":2544341.6099999999,"ADDRESS":"東和路１７號","OBJECTID":619696},"geometry":{"x":171080.9299999997,"y":2544341.6100000031}},{"attributes":{"ID":619724,"DIS_CODE":0,"TOWNNAME":"東區","LI":"莊敬里","LIN":"2鄰","STREET":"東和路","SECT":" ","MAREA":" ","LANE":" ","ALLEY":" ","HOUSE_NO":"１９號","E_COORD97":171077.04999999999,"N_COORD97":2544337.7400000002,"ADDRESS":"東和路１９號","OBJECTID":619697},"geometry":{"x":171077.04999999981,"y":2544337.7400000002}},{"attributes":{"ID":619725,"DIS_CODE":0,"TOWNNAME":"東區","LI":"莊敬里","LIN":"2鄰","STREET":"東和路","SECT":" ","MAREA":" ","LANE":" ","ALLEY":" ","HOUSE_NO":"１號","E_COORD97":171114.41,"N_COORD97":2544347.3199999998,"ADDRESS":"東和路１號","OBJECTID":619698},"geometry":{"x":171114.40999999922,"y":2544347.3200000003}},{"attributes":{"ID":619726,"DIS_CODE":0,"TOWNNAME":"東區","LI":"莊敬里","LIN":"2鄰","STREET":"東和路","SECT":" ","MAREA":" ","LANE":" ","ALLEY":" ","HOUSE_NO":"２１號","E_COORD97":171072.26000000001,"N_COORD97":2544340.25,"ADDRESS":"東和路２１號","OBJECTID":619699},"geometry":{"x":171072.25999999978,"y":2544340.25}},{"attributes":{"ID":619727,"DIS_CODE":0,"TOWNNAME":"東區","LI":"莊敬里","LIN":"2鄰","STREET":"東和路","SECT":" ","MAREA":" ","LANE":" ","ALLEY":" ","HOUSE_NO":"２３號","E_COORD97":171068.64999999999,"N_COORD97":2544336.8199999998,"ADDRESS":"東和路２３號","OBJECTID":619700},"geometry":{"x":171068.65000000037,"y":2544336.8200000003}},{"attributes":{"ID":619728,"DIS_CODE":0,"TOWNNAME":"東區","LI":"莊敬里","LIN":"2鄰","STREET":"東和路","SECT":" ","MAREA":" ","LANE":" ","ALLEY":" ","HOUSE_NO":"２７號","E_COORD97":171060.44,"N_COORD97":2544335.3799999999,"ADDRESS":"東和路２７號","OBJECTID":619701},"geometry":{"x":171060.44000000227,"y":2544335.379999999}},{"attributes":{"ID":619729,"DIS_CODE":0,"TOWNNAME":"東區","LI":"莊敬里","LIN":"2鄰","STREET":"東和路","SECT":" ","MAREA":" ","LANE":" ","ALLEY":" ","HOUSE_NO":"３１號","E_COORD97":171052.14999999999,"N_COORD97":2544333.8500000001,"ADDRESS":"東和路３１號","OBJECTID":619702},"geometry":{"x":171052.15000000224,"y":2544333.8500000015}},{"attributes":{"ID":619730,"DIS_CODE":0,"TOWNNAME":"東區","LI":"莊敬里","LIN":"2鄰","STREET":"東和路","SECT":" ","MAREA":" ","LANE":" ","ALLEY":" ","HOUSE_NO":"３３號","E_COORD97":171047.28,"N_COORD97":2544335.8300000001,"ADDRESS":"東和路３３號","OBJECTID":619703},"geometry":{"x":171047.28000000026,"y":2544335.8300000001}},{"attributes":{"ID":619731,"DIS_CODE":0,"TOWNNAME":"東區","LI":"莊敬里","LIN":"2鄰","STREET":"東和路","SECT":" ","MAREA":" ","LANE":" ","ALLEY":" ","HOUSE_NO":"３５號","E_COORD97":171044.20999999999,"N_COORD97":2544332.3100000001,"ADDRESS":"東和路３５號","OBJECTID":619704},"geometry":{"x":171044.20999999996,"y":2544332.3100000024}},{"attributes":{"ID":619732,"DIS_CODE":0,"TOWNNAME":"東區","LI":"莊敬里","LIN":"2鄰","STREET":"東和路","SECT":" ","MAREA":" ","LANE":" ","ALLEY":" ","HOUSE_NO":"９號","E_COORD97":171097.44,"N_COORD97":2544344.7799999998,"ADDRESS":"東和路９號","OBJECTID":619705},"geometry":{"x":171097.44000000041,"y":2544344.7800000012}},{"attributes":{"ID":619733,"DIS_CODE":0,"TOWNNAME":"東區","LI":"莊敬里","LIN":"2鄰","STREET":"東和路","SECT":" ","MAREA":" ","LANE":" ","ALLEY":" ","HOUSE_NO":"３號","E_COORD97":171110.62,"N_COORD97":2544344.7999999998,"ADDRESS":"東和路３號","OBJECTID":619706},"geometry":{"x":171110.62000000011,"y":2544344.8000000007}},{"attributes":{"ID":619734,"DIS_CODE":0,"TOWNNAME":"東區","LI":"莊敬里","LIN":"2鄰","STREET":"東和路","SECT":" ","MAREA":" ","LANE":" ","ALLEY":" ","HOUSE_NO":"１３號","E_COORD97":171088.87,"N_COORD97":2544343.1499999999,"ADDRESS":"東和路１３號","OBJECTID":619707},"geometry":{"x":171088.87000000011,"y":2544343.1500000022}},{"attributes":{"ID":619735,"DIS_CODE":0,"TOWNNAME":"東區","LI":"莊敬里","LIN":"2鄰","STREET":"東和路","SECT":" ","MAREA":" ","LANE":" ","ALLEY":" ","HOUSE_NO":"２５號","E_COORD97":171063.95999999999,"N_COORD97":2544339.8900000001,"ADDRESS":"東和路２５號","OBJECTID":619708},"geometry":{"x":171063.96000000089,"y":2544339.8900000006}},{"attributes":{"ID":619736,"DIS_CODE":0,"TOWNNAME":"東區","LI":"莊敬里","LIN":"2鄰","STREET":"東和路","SECT":" ","MAREA":" ","LANE":" ","ALLEY":" ","HOUSE_NO":"２９號","E_COORD97":171055.94,"N_COORD97":2544336.8199999998,"ADDRESS":"東和路２９號","OBJECTID":619709},"geometry":{"x":171055.94000000134,"y":2544336.8200000003}},{"attributes":{"ID":619737,"DIS_CODE":0,"TOWNNAME":"東區","LI":"泉南里","LIN":"2鄰","STREET":"府東街","SECT":" ","MAREA":" ","LANE":" ","ALLEY":" ","HOUSE_NO":"２２３號","E_COORD97":169337.14999999999,"N_COORD97":2543078.7400000002,"ADDRESS":"府東街２２３號","OBJECTID":619710},"geometry":{"x":169337.1500000013,"y":2543078.7400000002}},{"attributes":{"ID":619738,"DIS_CODE":0,"TOWNNAME":"東區","LI":"泉南里","LIN":"2鄰","STREET":"府東街","SECT":" ","MAREA":" ","LANE":" ","ALLEY":" ","HOUSE_NO":"２２９號","E_COORD97":169335.89000000001,"N_COORD97":2543112.2599999998,"ADDRESS":"府東街２２９號","OBJECTID":619711},"geometry":{"x":169335.89000000153,"y":2543112.2599999998}},{"attributes":{"ID":619739,"DIS_CODE":0,"TOWNNAME":"東區","LI":"泉南里","LIN":"2鄰","STREET":"府東街","SECT":" ","MAREA":" ","LANE":" ","ALLEY":" ","HOUSE_NO":"２３３號","E_COORD97":169326.70999999999,"N_COORD97":2543115.5899999999,"ADDRESS":"府東街２３３號","OBJECTID":619712},"geometry":{"x":169326.70999999996,"y":2543115.5900000017}},{"attributes":{"ID":619740,"DIS_CODE":0,"TOWNNAME":"東區","LI":"泉南里","LIN":"2鄰","STREET":"府東街","SECT":" ","MAREA":" ","LANE":" ","ALLEY":" ","HOUSE_NO":"２３５號","E_COORD97":169321.95999999999,"N_COORD97":2543116.6899999999,"ADDRESS":"府東街２３５號","OBJECTID":619713},"geometry":{"x":169321.95999999996,"y":2543116.6899999995}},{"attributes":{"ID":619741,"DIS_CODE":0,"TOWNNAME":"東區","LI":"泉南里","LIN":"2鄰","STREET":"府東街","SECT":" ","MAREA":" ","LANE":" ","ALLEY":" ","HOUSE_NO":"２３７號","E_COORD97":169318.16,"N_COORD97":2543118.4300000002,"ADDRESS":"府東街２３７號","OBJECTID":619714},"geometry":{"x":169318.16000000108,"y":2543118.4299999997}},{"attributes":{"ID":619742,"DIS_CODE":0,"TOWNNAME":"東區","LI":"泉南里","LIN":"2鄰","STREET":"府東街","SECT":" ","MAREA":" ","LANE":" ","ALLEY":" ","HOUSE_NO":"２４４號","E_COORD97":169341.44,"N_COORD97":2543136.7000000002,"ADDRESS":"府東街２４４號","OBJECTID":619715},"geometry":{"x":169341.44000000227,"y":2543136.6999999993}},{"attributes":{"ID":619743,"DIS_CODE":0,"TOWNNAME":"東區","LI":"泉南里","LIN":"2鄰","STREET":"府東街","SECT":" ","MAREA":" ","LANE":" ","ALLEY":" ","HOUSE_NO":"２４８號","E_COORD97":169337.25,"N_COORD97":2543138.27,"ADDRESS":"府東街２４８號","OBJECTID":619716},"geometry":{"x":169337.25000000186,"y":2543138.2700000014}},{"attributes":{"ID":619744,"DIS_CODE":0,"TOWNNAME":"東區","LI":"泉南里","LIN":"2鄰","STREET":"府東街","SECT":" ","MAREA":" ","LANE":" ","ALLEY":" ","HOUSE_NO":"２５２號","E_COORD97":169322.60999999999,"N_COORD97":2543142.6600000001,"ADDRESS":"府東街２５２號","OBJECTID":619717},"geometry":{"x":169322.61000000034,"y":2543142.660000002}},{"attributes":{"ID":619745,"DIS_CODE":0,"TOWNNAME":"東區","LI":"泉南里","LIN":"2鄰","STREET":"府東街","SECT":" ","MAREA":" ","LANE":" ","ALLEY":" ","HOUSE_NO":"２５４號","E_COORD97":169318.95000000001,"N_COORD97":2543144.3300000001,"ADDRESS":"府東街２５４號","OBJECTID":619718},"geometry":{"x":169318.95000000019,"y":2543144.3300000019}},{"attributes":{"ID":619746,"DIS_CODE":0,"TOWNNAME":"東區","LI":"泉南里","LIN":"2鄰","STREET":"府東街","SECT":" ","MAREA":" ","LANE":" ","ALLEY":" ","HOUSE_NO":"２５６號","E_COORD97":169314.23999999999,"N_COORD97":2543145.5800000001,"ADDRESS":"府東街２５６號","OBJECTID":619719},"geometry":{"x":169314.24000000115,"y":2543145.5800000038}},{"attributes":{"ID":619747,"DIS_CODE":0,"TOWNNAME":"東區","LI":"泉南里","LIN":"2鄰","STREET":"府東街","SECT":" ","MAREA":" ","LANE":" ","ALLEY":" ","HOUSE_NO":"２５８號","E_COORD97":169307.97,"N_COORD97":2543145.5800000001,"ADDRESS":"府東街２５８號","OBJECTID":619720},"geometry":{"x":169307.96999999974,"y":2543145.5800000038}},{"attributes":{"ID":619748,"DIS_CODE":0,"TOWNNAME":"中西區","LI":"文賢里","LIN":"2鄰","STREET":"文和街","SECT":" ","MAREA":" ","LANE":" ","ALLEY":" ","HOUSE_NO":"２２號","E_COORD97":167263.64000000001,"N_COORD97":2544970.0299999998,"ADDRESS":"文和街２２號","OBJECTID":619721},"geometry":{"x":167263.63999999966,"y":2544970.0300000012}},{"attributes":{"ID":619749,"DIS_CODE":0,"TOWNNAME":"東區","LI":"泉南里","LIN":"2鄰","STREET":"府東街","SECT":" ","MAREA":" ","LANE":" ","ALLEY":" ","HOUSE_NO":"２３６號","E_COORD97":169371.76999999999,"N_COORD97":2543117.6800000002,"ADDRESS":"府東街２３６號","OBJECTID":619722},"geometry":{"x":169371.76999999955,"y":2543117.6800000034}},{"attributes":{"ID":619750,"DIS_CODE":0,"TOWNNAME":"東區","LI":"泉南里","LIN":"2鄰","STREET":"府東街","SECT":" ","MAREA":" ","LANE":" ","ALLEY":" ","HOUSE_NO":"２３１號","E_COORD97":169330.82000000001,"N_COORD97":2543113.5299999998,"ADDRESS":"府東街２３１號","OBJECTID":619723},"geometry":{"x":169330.82000000123,"y":2543113.5299999993}},{"attributes":{"ID":619751,"DIS_CODE":0,"TOWNNAME":"東區","LI":"泉南里","LIN":"2鄰","STREET":"府東街","SECT":" ","MAREA":" ","LANE":" ","ALLEY":" ","HOUSE_NO":"２１９號","E_COORD97":169358.04000000001,"N_COORD97":2543078.27,"ADDRESS":"府東街２１９號","OBJECTID":619724},"geometry":{"x":169358.04000000097,"y":2543078.2699999996}},{"attributes":{"ID":619752,"DIS_CODE":0,"TOWNNAME":"中西區","LI":"文賢里","LIN":"2鄰","STREET":"文和街","SECT":" ","MAREA":" ","LANE":" ","ALLEY":" ","HOUSE_NO":"２４號","E_COORD97":167261.23000000001,"N_COORD97":2544965.9700000002,"ADDRESS":"文和街２４號","OBJECTID":619725},"geometry":{"x":167261.23000000231,"y":2544965.9700000025}},{"attributes":{"ID":619753,"DIS_CODE":0,"TOWNNAME":"永康區","LI":"五王里","LIN":"2鄰","STREET":"成功路","SECT":" ","MAREA":" ","LANE":" ","ALLEY":" ","HOUSE_NO":"１０５號","E_COORD97":171433.62,"N_COORD97":2545597.27,"ADDRESS":"成功路１０５號","OBJECTID":619726},"geometry":{"x":171433.62000000104,"y":2545597.2699999996}},{"attributes":{"ID":619754,"DIS_CODE":0,"TOWNNAME":"永康區","LI":"大灣里","LIN":"2鄰","STREET":"中灣一街","SECT":" ","MAREA":" ","LANE":" ","ALLEY":" ","HOUSE_NO":"３６號","E_COORD97":174729.14999999999,"N_COORD97":2545621.5800000001,"ADDRESS":"中灣一街３６號","OBJECTID":619727},"geometry":{"x":174729.1500000013,"y":2545621.5800000019}},{"attributes":{"ID":619755,"DIS_CODE":0,"TOWNNAME":"永康區","LI":"五王里","LIN":"2鄰","STREET":"成功路","SECT":" ","MAREA":" ","LANE":" ","ALLEY":" ","HOUSE_NO":"６１號","E_COORD97":171480.51999999999,"N_COORD97":2545510.6600000001,"ADDRESS":"成功路６１號","OBJECTID":619728},"geometry":{"x":171480.51999999955,"y":2545510.6600000001}},{"attributes":{"ID":619756,"DIS_CODE":0,"TOWNNAME":"永康區","LI":"大橋里","LIN":"2鄰","STREET":"大橋二街","SECT":" ","MAREA":" ","LANE":" ","ALLEY":" ","HOUSE_NO":"８１號","E_COORD97":170775.41,"N_COORD97":2546564.7000000002,"ADDRESS":"大橋二街８１號","OBJECTID":619729},"geometry":{"x":170775.40999999922,"y":2546564.6999999974}},{"attributes":{"ID":619757,"DIS_CODE":0,"TOWNNAME":"中西區","LI":"文賢里","LIN":"2鄰","STREET":"文和街","SECT":" ","MAREA":" ","LANE":" ","ALLEY":" ","HOUSE_NO":"２８號","E_COORD97":167255.51999999999,"N_COORD97":2544960.3999999999,"ADDRESS":"文和街２８號","OBJECTID":619730},"geometry":{"x":167255.52000000048,"y":2544960.4000000004}},{"attributes":{"ID":619758,"DIS_CODE":0,"TOWNNAME":"中西區","LI":"文賢里","LIN":"2鄰","STREET":"文和街","SECT":" ","MAREA":" ","LANE":" ","ALLEY":" ","HOUSE_NO":"３０號","E_COORD97":167251.70999999999,"N_COORD97":2544956.3399999999,"ADDRESS":"文和街３０號","OBJECTID":619731},"geometry":{"x":167251.70999999996,"y":2544956.3399999999}},{"attributes":{"ID":619759,"DIS_CODE":0,"TOWNNAME":"永康區","LI":"大灣里","LIN":"2鄰","STREET":"大安街","SECT":" ","MAREA":" ","LANE":" ","ALLEY":" ","HOUSE_NO":"３５８號","E_COORD97":174661,"N_COORD97":2545665.3500000001,"ADDRESS":"大安街３５８號","OBJECTID":619732},"geometry":{"x":174661,"y":2545665.3499999996}},{"attributes":{"ID":619760,"DIS_CODE":0,"TOWNNAME":"永康區","LI":"崑山里","LIN":"2鄰","STREET":"大灣路","SECT":" ","MAREA":" ","LANE":" ","ALLEY":" ","HOUSE_NO":"８８３號","E_COORD97":173634.26999999999,"N_COORD97":2544401.1200000001,"ADDRESS":"大灣路８８３號","OBJECTID":619733},"geometry":{"x":173634.27000000048,"y":2544401.1200000048}},{"attributes":{"ID":619761,"DIS_CODE":0,"TOWNNAME":"中西區","LI":"西賢里","LIN":"2鄰","STREET":"湖美街","SECT":" ","MAREA":" ","LANE":" ","ALLEY":" ","HOUSE_NO":"５９號","E_COORD97":165902.57000000001,"N_COORD97":2544593.9500000002,"ADDRESS":"湖美街５９號","OBJECTID":619734},"geometry":{"x":165902.57000000216,"y":2544593.9500000011}},{"attributes":{"ID":619762,"DIS_CODE":0,"TOWNNAME":"永康區","LI":"崑山里","LIN":"2鄰","STREET":"大灣路","SECT":" ","MAREA":" ","LANE":" ","ALLEY":" ","HOUSE_NO":"８８５號","E_COORD97":173629.67000000001,"N_COORD97":2544400.1200000001,"ADDRESS":"大灣路８８５號","OBJECTID":619735},"geometry":{"x":173629.66999999993,"y":2544400.120000001}},{"attributes":{"ID":619763,"DIS_CODE":0,"TOWNNAME":"永康區","LI":"崑山里","LIN":"2鄰","STREET":"大灣路","SECT":" ","MAREA":" ","LANE":" ","ALLEY":" ","HOUSE_NO":"８４３號","E_COORD97":173707.78,"N_COORD97":2544417.3999999999,"ADDRESS":"大灣路８４３號","OBJECTID":619736},"geometry":{"x":173707.78000000119,"y":2544417.4000000004}},{"attributes":{"ID":619764,"DIS_CODE":0,"TOWNNAME":"仁德區","LI":"保安里","LIN":"2鄰","STREET":"文賢路","SECT":"一段","MAREA":" ","LANE":" ","ALLEY":" ","HOUSE_NO":"５４１號","E_COORD97":171131.31,"N_COORD97":2536996.3300000001,"ADDRESS":"文賢路一段５４１號","OBJECTID":619737},"geometry":{"x":171131.30999999959,"y":2536996.3300000001}},{"attributes":{"ID":619765,"DIS_CODE":0,"TOWNNAME":"仁德區","LI":"仁德里","LIN":"2鄰","STREET":"中正路","SECT":"二段","MAREA":" ","LANE":" ","ALLEY":" ","HOUSE_NO":"７３５號","E_COORD97":173460.28,"N_COORD97":2540205.2799999998,"ADDRESS":"中正路二段７３５號","OBJECTID":619738},"geometry":{"x":173460.28000000119,"y":2540205.2800000012}},{"attributes":{"ID":619766,"DIS_CODE":0,"TOWNNAME":"仁德區","LI":"保安里","LIN":"2鄰","STREET":"文賢路","SECT":"一段","MAREA":" ","LANE":" ","ALLEY":" ","HOUSE_NO":"５５２號","E_COORD97":171116.45000000001,"N_COORD97":2536909.5800000001,"ADDRESS":"文賢路一段５５２號","OBJECTID":619739},"geometry":{"x":171116.45000000112,"y":2536909.5800000001}},{"attributes":{"ID":619767,"DIS_CODE":0,"TOWNNAME":"中西區","LI":"西賢里","LIN":"2鄰","STREET":"湖美街","SECT":" ","MAREA":" ","LANE":" ","ALLEY":" ","HOUSE_NO":"６３號","E_COORD97":165891.76000000001,"N_COORD97":2544593.79,"ADDRESS":"湖美街６３號","OBJECTID":619740},"geometry":{"x":165891.75999999978,"y":2544593.7899999991}},{"attributes":{"ID":619768,"DIS_CODE":0,"TOWNNAME":"仁德區","LI":"保安里","LIN":"2鄰","STREET":"文賢路","SECT":"一段","MAREA":" ","LANE":" ","ALLEY":" ","HOUSE_NO":"５４２號","E_COORD97":171102.76000000001,"N_COORD97":2536931.0699999998,"ADDRESS":"文賢路一段５４２號","OBJECTID":619741},"geometry":{"x":171102.75999999978,"y":2536931.0700000003}},{"attributes":{"ID":619769,"DIS_CODE":0,"TOWNNAME":"仁德區","LI":"保安里","LIN":"2鄰","STREET":"文賢路","SECT":"一段","MAREA":" ","LANE":" ","ALLEY":" ","HOUSE_NO":"５５７號","E_COORD97":171133.67000000001,"N_COORD97":2536966.0699999998,"ADDRESS":"文賢路一段５５７號","OBJECTID":619742},"geometry":{"x":171133.67000000086,"y":2536966.0700000022}},{"attributes":{"ID":619770,"DIS_CODE":0,"TOWNNAME":"中西區","LI":"西賢里","LIN":"2鄰","STREET":"湖美街","SECT":" ","MAREA":" ","LANE":" ","ALLEY":" ","HOUSE_NO":"６５號","E_COORD97":165887.95000000001,"N_COORD97":2544593.1600000001,"ADDRESS":"湖美街６５號","OBJECTID":619743},"geometry":{"x":165887.94999999925,"y":2544593.1600000039}},{"attributes":{"ID":619771,"DIS_CODE":0,"TOWNNAME":"仁德區","LI":"保安里","LIN":"2鄰","STREET":"文賢路","SECT":"一段","MAREA":" ","LANE":" ","ALLEY":" ","HOUSE_NO":"５０８之２０號","E_COORD97":170974.64999999999,"N_COORD97":2537057.8199999998,"ADDRESS":"文賢路一段５０８之２０號","OBJECTID":619744},"geometry":{"x":170974.6500000013,"y":2537057.8200000003}},{"attributes":{"ID":619772,"DIS_CODE":0,"TOWNNAME":"仁德區","LI":"保安里","LIN":"2鄰","STREET":"文賢路","SECT":"一段","MAREA":" ","LANE":" ","ALLEY":" ","HOUSE_NO":"５４５號","E_COORD97":171129.69,"N_COORD97":2536989.0800000001,"ADDRESS":"文賢路一段５４５號","OBJECTID":619745},"geometry":{"x":171129.69000000041,"y":2536989.0800000019}},{"attributes":{"ID":619773,"DIS_CODE":0,"TOWNNAME":"仁德區","LI":"保安里","LIN":"2鄰","STREET":"文賢路","SECT":"一段","MAREA":" ","LANE":" ","ALLEY":" ","HOUSE_NO":"５５０號","E_COORD97":171116.23000000001,"N_COORD97":2536913.5800000001,"ADDRESS":"文賢路一段５５０號","OBJECTID":619746},"geometry":{"x":171116.23000000138,"y":2536913.5800000001}},{"attributes":{"ID":619774,"DIS_CODE":0,"TOWNNAME":"仁德區","LI":"保安里","LIN":"2鄰","STREET":"文賢路","SECT":"一段","MAREA":" ","LANE":" ","ALLEY":" ","HOUSE_NO":"５４９號","E_COORD97":171131.35000000001,"N_COORD97":2536980.8300000001,"ADDRESS":"文賢路一段５４９號","OBJECTID":619747},"geometry":{"x":171131.35000000149,"y":2536980.8300000019}},{"attributes":{"ID":619775,"DIS_CODE":0,"TOWNNAME":"仁德區","LI":"保安里","LIN":"2鄰","STREET":"文賢路","SECT":"一段","MAREA":" ","LANE":" ","ALLEY":" ","HOUSE_NO":"５３３號","E_COORD97":171127.54000000001,"N_COORD97":2537013.3300000001,"ADDRESS":"文賢路一段５３３號","OBJECTID":619748},"geometry":{"x":171127.54000000097,"y":2537013.3300000001}},{"attributes":{"ID":619776,"DIS_CODE":0,"TOWNNAME":"中西區","LI":"西賢里","LIN":"2鄰","STREET":"湖美街","SECT":" ","MAREA":" ","LANE":" ","ALLEY":" ","HOUSE_NO":"７１號","E_COORD97":165887.47,"N_COORD97":2544622.0299999998,"ADDRESS":"湖美街７１號","OBJECTID":619749},"geometry":{"x":165887.4700000016,"y":2544622.0299999993}},{"attributes":{"ID":619777,"DIS_CODE":0,"TOWNNAME":"中西區","LI":"西賢里","LIN":"2鄰","STREET":"湖美街","SECT":" ","MAREA":" ","LANE":" ","ALLEY":" ","HOUSE_NO":"８１號","E_COORD97":165930.10999999999,"N_COORD97":2544624.54,"ADDRESS":"湖美街８１號","OBJECTID":619750},"geometry":{"x":165930.11000000127,"y":2544624.540000001}},{"attributes":{"ID":619778,"DIS_CODE":0,"TOWNNAME":"中西區","LI":"西賢里","LIN":"2鄰","STREET":"湖美街","SECT":" ","MAREA":" ","LANE":" ","ALLEY":" ","HOUSE_NO":"８３號","E_COORD97":165925.82000000001,"N_COORD97":2544630.73,"ADDRESS":"湖美街８３號","OBJECTID":619751},"geometry":{"x":165925.8200000003,"y":2544630.7300000023}},{"attributes":{"ID":619779,"DIS_CODE":0,"TOWNNAME":"中西區","LI":"西湖里","LIN":"2鄰","STREET":"中華西路","SECT":"二段","MAREA":" ","LANE":" ","ALLEY":" ","HOUSE_NO":"６４５號","E_COORD97":166588.45999999999,"N_COORD97":2544606.9199999999,"ADDRESS":"中華西路二段６４５號","OBJECTID":619752},"geometry":{"x":166588.46000000089,"y":2544606.9199999999}},{"attributes":{"ID":619780,"DIS_CODE":0,"TOWNNAME":"中西區","LI":"西湖里","LIN":"2鄰","STREET":"中華西路","SECT":"二段","MAREA":" ","LANE":" ","ALLEY":" ","HOUSE_NO":"６４７號","E_COORD97":166614.60999999999,"N_COORD97":2544603.96,"ADDRESS":"中華西路二段６４７號","OBJECTID":619753},"geometry":{"x":166614.61000000127,"y":2544603.9600000009}},{"attributes":{"ID":619781,"DIS_CODE":0,"TOWNNAME":"中西區","LI":"西湖里","LIN":"2鄰","STREET":"中華西路","SECT":"二段","MAREA":" ","LANE":" ","ALLEY":" ","HOUSE_NO":"５７９號","E_COORD97":166591.42000000001,"N_COORD97":2544446.54,"ADDRESS":"中華西路二段５７９號","OBJECTID":619754},"geometry":{"x":166591.42000000179,"y":2544446.5399999991}},{"attributes":{"ID":619782,"DIS_CODE":0,"TOWNNAME":"中西區","LI":"西湖里","LIN":"2鄰","STREET":"中華西路","SECT":"二段","MAREA":" ","LANE":" ","ALLEY":" ","HOUSE_NO":"６３１號","E_COORD97":166610.66,"N_COORD97":2544573.4100000001,"ADDRESS":"中華西路二段６３１號","OBJECTID":619755},"geometry":{"x":166610.66000000108,"y":2544573.4100000001}},{"attributes":{"ID":619783,"DIS_CODE":0,"TOWNNAME":"善化區","LI":"東關里","LIN":"2鄰","STREET":"中山路","SECT":" ","MAREA":" ","LANE":" ","ALLEY":" ","HOUSE_NO":"３８２號","E_COORD97":177493.57999999999,"N_COORD97":2559114.25,"ADDRESS":"中山路３８２號","OBJECTID":619756},"geometry":{"x":177493.58000000007,"y":2559114.2500000019}},{"attributes":{"ID":619784,"DIS_CODE":0,"TOWNNAME":"善化區","LI":"坐駕里","LIN":"2鄰","STREET":"中山路","SECT":" ","MAREA":" ","LANE":" ","ALLEY":" ","HOUSE_NO":"３１５號之１","E_COORD97":177798.17999999999,"N_COORD97":2559072.0699999998,"ADDRESS":"中山路３１５號之１","OBJECTID":619757},"geometry":{"x":177798.18000000156,"y":2559072.0700000022}},{"attributes":{"ID":619785,"DIS_CODE":0,"TOWNNAME":"善化區","LI":"坐駕里","LIN":"2鄰","STREET":"中山路","SECT":" ","MAREA":" ","LANE":" ","ALLEY":" ","HOUSE_NO":"３３３號之３","E_COORD97":177752.95000000001,"N_COORD97":2559044.7000000002,"ADDRESS":"中山路３３３號之３","OBJECTID":619758},"geometry":{"x":177752.95000000112,"y":2559044.6999999974}},{"attributes":{"ID":619786,"DIS_CODE":0,"TOWNNAME":"中西區","LI":"文賢里","LIN":"2鄰","STREET":"文和街","SECT":" ","MAREA":" ","LANE":" ","ALLEY":" ","HOUSE_NO":"３８號","E_COORD97":167239.37,"N_COORD97":2544943.0899999999,"ADDRESS":"文和街３８號","OBJECTID":619759},"geometry":{"x":167239.37000000011,"y":2544943.0900000017}},{"attributes":{"ID":619787,"DIS_CODE":0,"TOWNNAME":"中西區","LI":"文賢里","LIN":"2鄰","STREET":"文和街","SECT":" ","MAREA":" ","LANE":" ","ALLEY":" ","HOUSE_NO":"４０號","E_COORD97":167235.69,"N_COORD97":2544940.6800000002,"ADDRESS":"文和街４０號","OBJECTID":619760},"geometry":{"x":167235.69000000041,"y":2544940.6799999997}},{"attributes":{"ID":619788,"DIS_CODE":0,"TOWNNAME":"中西區","LI":"文賢里","LIN":"2鄰","STREET":"文和街","SECT":" ","MAREA":" ","LANE":" ","ALLEY":" ","HOUSE_NO":"５６號","E_COORD97":167210.12,"N_COORD97":2544915.6699999999,"ADDRESS":"文和街５６號","OBJECTID":619761},"geometry":{"x":167210.12000000011,"y":2544915.6700000018}},{"attributes":{"ID":619789,"DIS_CODE":0,"TOWNNAME":"中西區","LI":"元安里","LIN":"2鄰","STREET":"國華街","SECT":"二段","MAREA":" ","LANE":" ","ALLEY":" ","HOUSE_NO":"１７號底層","E_COORD97":167592.39999999999,"N_COORD97":2543175.1000000001,"ADDRESS":"國華街二段１７號底層","OBJECTID":619762},"geometry":{"x":167592.4000000013,"y":2543175.0999999996}},{"attributes":{"ID":619790,"DIS_CODE":0,"TOWNNAME":"中西區","LI":"元安里","LIN":"2鄰","STREET":"國華街","SECT":"二段","MAREA":" ","LANE":" ","ALLEY":" ","HOUSE_NO":"１９號","E_COORD97":167588.26999999999,"N_COORD97":2543181.4700000002,"ADDRESS":"國華街二段１９號","OBJECTID":619763},"geometry":{"x":167588.26999999955,"y":2543181.4700000025}},{"attributes":{"ID":619791,"DIS_CODE":0,"TOWNNAME":"中西區","LI":"元安里","LIN":"2鄰","STREET":"國華街","SECT":"二段","MAREA":" ","LANE":" ","ALLEY":" ","HOUSE_NO":"２１號","E_COORD97":167589.98000000001,"N_COORD97":2543191.73,"ADDRESS":"國華街二段２１號","OBJECTID":619764},"geometry":{"x":167589.97999999952,"y":2543191.7300000004}},{"attributes":{"ID":619792,"DIS_CODE":0,"TOWNNAME":"中西區","LI":"文賢里","LIN":"2鄰","STREET":"文和街","SECT":" ","MAREA":" ","LANE":" ","ALLEY":" ","HOUSE_NO":"６２號","E_COORD97":167197.63,"N_COORD97":2544901.6000000001,"ADDRESS":"文和街６２號","OBJECTID":619765},"geometry":{"x":167197.63000000082,"y":2544901.6000000015}},{"attributes":{"ID":619793,"DIS_CODE":0,"TOWNNAME":"中西區","LI":"文賢里","LIN":"2鄰","STREET":"文和街","SECT":" ","MAREA":" ","LANE":" ","ALLEY":" ","HOUSE_NO":"４２號之１","E_COORD97":167226.54999999999,"N_COORD97":2544945.3300000001,"ADDRESS":"文和街４２號之１","OBJECTID":619766},"geometry":{"x":167226.55000000075,"y":2544945.3300000019}},{"attributes":{"ID":619794,"DIS_CODE":0,"TOWNNAME":"中西區","LI":"文賢里","LIN":"2鄰","STREET":"文和街","SECT":" ","MAREA":" ","LANE":" ","ALLEY":" ","HOUSE_NO":"４２號之２","E_COORD97":167223.5,"N_COORD97":2544947.5099999998,"ADDRESS":"文和街４２號之２","OBJECTID":619767},"geometry":{"x":167223.50000000093,"y":2544947.5100000016}},{"attributes":{"ID":619795,"DIS_CODE":0,"TOWNNAME":"中西區","LI":"文賢里","LIN":"2鄰","STREET":"文和街","SECT":" ","MAREA":" ","LANE":" ","ALLEY":" ","HOUSE_NO":"４２號之３","E_COORD97":167220.89000000001,"N_COORD97":2544949.9700000002,"ADDRESS":"文和街４２號之３","OBJECTID":619768},"geometry":{"x":167220.8900000006,"y":2544949.9700000007}},{"attributes":{"ID":619796,"DIS_CODE":0,"TOWNNAME":"中西區","LI":"文賢里","LIN":"2鄰","STREET":"文和街","SECT":" ","MAREA":" ","LANE":" ","ALLEY":" ","HOUSE_NO":"４２號之５","E_COORD97":167218.13,"N_COORD97":2544953.46,"ADDRESS":"文和街４２號之５","OBJECTID":619769},"geometry":{"x":167218.12999999989,"y":2544953.4600000009}},{"attributes":{"ID":619797,"DIS_CODE":0,"TOWNNAME":"中西區","LI":"文賢里","LIN":"2鄰","STREET":"文和街","SECT":" ","MAREA":" ","LANE":" ","ALLEY":" ","HOUSE_NO":"４４之５號","E_COORD97":167210.85999999999,"N_COORD97":2544946.7799999998,"ADDRESS":"文和街４４之５號","OBJECTID":619770},"geometry":{"x":167210.86000000034,"y":2544946.7799999993}},{"attributes":{"ID":619798,"DIS_CODE":0,"TOWNNAME":"中西區","LI":"文賢里","LIN":"2鄰","STREET":"文和街","SECT":" ","MAREA":" ","LANE":" ","ALLEY":" ","HOUSE_NO":"４４號","E_COORD97":167229.73000000001,"N_COORD97":2544932.0600000001,"ADDRESS":"文和街４４號","OBJECTID":619771},"geometry":{"x":167229.73000000138,"y":2544932.0600000005}},{"attributes":{"ID":619799,"DIS_CODE":0,"TOWNNAME":"中西區","LI":"文賢里","LIN":"2鄰","STREET":"文和街","SECT":" ","MAREA":" ","LANE":" ","ALLEY":" ","HOUSE_NO":"４４號之１","E_COORD97":167219.87,"N_COORD97":2544938.2200000002,"ADDRESS":"文和街４４號之１","OBJECTID":619772},"geometry":{"x":167219.87000000104,"y":2544938.2200000007}},{"attributes":{"ID":619800,"DIS_CODE":0,"TOWNNAME":"中西區","LI":"文賢里","LIN":"2鄰","STREET":"文和街","SECT":" ","MAREA":" ","LANE":" ","ALLEY":" ","HOUSE_NO":"４４號之２","E_COORD97":167217.10999999999,"N_COORD97":2544940.98,"ADDRESS":"文和街４４號之２","OBJECTID":619773},"geometry":{"x":167217.11000000034,"y":2544940.9800000023}},{"attributes":{"ID":619801,"DIS_CODE":0,"TOWNNAME":"中西區","LI":"文賢里","LIN":"2鄰","STREET":"文和街","SECT":" ","MAREA":" ","LANE":" ","ALLEY":" ","HOUSE_NO":"４４號之３","E_COORD97":167214.48999999999,"N_COORD97":2544943.2999999998,"ADDRESS":"文和街４４號之３","OBJECTID":619774},"geometry":{"x":167214.49000000022,"y":2544943.3000000026}},{"attributes":{"ID":619802,"DIS_CODE":0,"TOWNNAME":"中西區","LI":"文賢里","LIN":"2鄰","STREET":"文和街","SECT":" ","MAREA":" ","LANE":" ","ALLEY":" ","HOUSE_NO":"４６號","E_COORD97":167225.95000000001,"N_COORD97":2544930.0299999998,"ADDRESS":"文和街４６號","OBJECTID":619775},"geometry":{"x":167225.95000000112,"y":2544930.0300000012}},{"attributes":{"ID":619803,"DIS_CODE":0,"TOWNNAME":"中西區","LI":"文賢里","LIN":"2鄰","STREET":"文和街","SECT":" ","MAREA":" ","LANE":" ","ALLEY":" ","HOUSE_NO":"４８號","E_COORD97":167223.92000000001,"N_COORD97":2544927.4199999999,"ADDRESS":"文和街４８號","OBJECTID":619776},"geometry":{"x":167223.92000000086,"y":2544927.4200000018}},{"attributes":{"ID":619804,"DIS_CODE":0,"TOWNNAME":"中西區","LI":"文賢里","LIN":"2鄰","STREET":"文和街","SECT":" ","MAREA":" ","LANE":" ","ALLEY":" ","HOUSE_NO":"５４號","E_COORD97":167214.32999999999,"N_COORD97":2544917.7000000002,"ADDRESS":"文和街５４號","OBJECTID":619777},"geometry":{"x":167214.33000000194,"y":2544917.7000000011}},{"attributes":{"ID":619805,"DIS_CODE":0,"TOWNNAME":"中西區","LI":"文賢里","LIN":"2鄰","STREET":"文和街","SECT":" ","MAREA":" ","LANE":" ","ALLEY":" ","HOUSE_NO":"７２號","E_COORD97":167179.48999999999,"N_COORD97":2544885.96,"ADDRESS":"文和街７２號","OBJECTID":619778},"geometry":{"x":167179.49000000209,"y":2544885.9600000009}},{"attributes":{"ID":619806,"DIS_CODE":0,"TOWNNAME":"中西區","LI":"文賢里","LIN":"2鄰","STREET":"文和街","SECT":" ","MAREA":" ","LANE":" ","ALLEY":" ","HOUSE_NO":"７２號之１","E_COORD97":167177.70999999999,"N_COORD97":2544896.5899999999,"ADDRESS":"文和街７２號之１","OBJECTID":619779},"geometry":{"x":167177.71000000183,"y":2544896.5899999999}},{"attributes":{"ID":619807,"DIS_CODE":0,"TOWNNAME":"中西區","LI":"文賢里","LIN":"2鄰","STREET":"文和街","SECT":" ","MAREA":" ","LANE":" ","ALLEY":" ","HOUSE_NO":"７２號之２","E_COORD97":167174.85000000001,"N_COORD97":2544898.6499999999,"ADDRESS":"文和街７２號之２","OBJECTID":619780},"geometry":{"x":167174.85000000149,"y":2544898.6500000022}},{"attributes":{"ID":619808,"DIS_CODE":0,"TOWNNAME":"中西區","LI":"文賢里","LIN":"2鄰","STREET":"文和街","SECT":" ","MAREA":" ","LANE":" ","ALLEY":" ","HOUSE_NO":"７２號之３","E_COORD97":167171.44,"N_COORD97":2544901.02,"ADDRESS":"文和街７２號之３","OBJECTID":619781},"geometry":{"x":167171.44000000041,"y":2544901.0199999996}},{"attributes":{"ID":619809,"DIS_CODE":0,"TOWNNAME":"中西區","LI":"文賢里","LIN":"2鄰","STREET":"文和街","SECT":" ","MAREA":" ","LANE":" ","ALLEY":" ","HOUSE_NO":"７２號之４","E_COORD97":167168.82999999999,"N_COORD97":2544903,"ADDRESS":"文和街７２號之４","OBJECTID":619782},"geometry":{"x":167168.83000000101,"y":2544903.0000000019}},{"attributes":{"ID":619810,"DIS_CODE":0,"TOWNNAME":"中西區","LI":"文賢里","LIN":"2鄰","STREET":"文和街","SECT":" ","MAREA":" ","LANE":" ","ALLEY":" ","HOUSE_NO":"７４號之３","E_COORD97":167165.5,"N_COORD97":2544893.2599999998,"ADDRESS":"文和街７４號之３","OBJECTID":619783},"geometry":{"x":167165.5,"y":2544893.2599999998}},{"attributes":{"ID":619811,"DIS_CODE":0,"TOWNNAME":"中西區","LI":"文賢里","LIN":"2鄰","STREET":"文和街","SECT":" ","MAREA":" ","LANE":" ","ALLEY":" ","HOUSE_NO":"７４號之５","E_COORD97":167163.04000000001,"N_COORD97":2544897.0699999998,"ADDRESS":"文和街７４號之５","OBJECTID":619784},"geometry":{"x":167163.04000000004,"y":2544897.0700000022}},{"attributes":{"ID":619812,"DIS_CODE":0,"TOWNNAME":"中西區","LI":"文賢里","LIN":"2鄰","STREET":"文和街","SECT":" ","MAREA":" ","LANE":" ","ALLEY":" ","HOUSE_NO":"８２號","E_COORD97":167167.98999999999,"N_COORD97":2544874.3300000001,"ADDRESS":"文和街８２號","OBJECTID":619785},"geometry":{"x":167167.99000000115,"y":2544874.3300000019}},{"attributes":{"ID":619813,"DIS_CODE":0,"TOWNNAME":"中西區","LI":"文賢里","LIN":"2鄰","STREET":"文和街","SECT":" ","MAREA":" ","LANE":" ","ALLEY":" ","HOUSE_NO":"８４號","E_COORD97":167165.54000000001,"N_COORD97":2544870.5,"ADDRESS":"文和街８４號","OBJECTID":619786},"geometry":{"x":167165.5400000019,"y":2544870.5}},{"attributes":{"ID":619814,"DIS_CODE":0,"TOWNNAME":"中西區","LI":"文賢里","LIN":"2鄰","STREET":"文和街","SECT":" ","MAREA":" ","LANE":" ","ALLEY":" ","HOUSE_NO":"８４號之１","E_COORD97":167160.42999999999,"N_COORD97":2544873.8199999998,"ADDRESS":"文和街８４號之１","OBJECTID":619787},"geometry":{"x":167160.4299999997,"y":2544873.8200000022}},{"attributes":{"ID":619815,"DIS_CODE":0,"TOWNNAME":"中西區","LI":"文賢里","LIN":"2鄰","STREET":"文和街","SECT":" ","MAREA":" ","LANE":" ","ALLEY":" ","HOUSE_NO":"８４號之２","E_COORD97":167157.01999999999,"N_COORD97":2544877.9399999999,"ADDRESS":"文和街８４號之２","OBJECTID":619788},"geometry":{"x":167157.02000000048,"y":2544877.9399999995}},{"attributes":{"ID":619816,"DIS_CODE":0,"TOWNNAME":"中西區","LI":"文賢里","LIN":"2鄰","STREET":"文和街","SECT":" ","MAREA":" ","LANE":" ","ALLEY":" ","HOUSE_NO":"８４號之４","E_COORD97":167153.85000000001,"N_COORD97":2544881.5800000001,"ADDRESS":"文和街８４號之４","OBJECTID":619789},"geometry":{"x":167153.84999999963,"y":2544881.5800000038}},{"attributes":{"ID":619817,"DIS_CODE":0,"TOWNNAME":"中西區","LI":"文賢里","LIN":"2鄰","STREET":"文和街","SECT":" ","MAREA":" ","LANE":" ","ALLEY":" ","HOUSE_NO":"８４號之５","E_COORD97":167152.19,"N_COORD97":2544883.0899999999,"ADDRESS":"文和街８４號之５","OBJECTID":619790},"geometry":{"x":167152.19000000041,"y":2544883.0899999999}},{"attributes":{"ID":619818,"DIS_CODE":0,"TOWNNAME":"中西區","LI":"文賢里","LIN":"2鄰","STREET":"文和街","SECT":" ","MAREA":" ","LANE":" ","ALLEY":" ","HOUSE_NO":"８４號之６","E_COORD97":167149.54000000001,"N_COORD97":2544885.9399999999,"ADDRESS":"文和街８４號之６","OBJECTID":619791},"geometry":{"x":167149.54000000004,"y":2544885.9400000013}},{"attributes":{"ID":619819,"DIS_CODE":0,"TOWNNAME":"中西區","LI":"文賢里","LIN":"2鄰","STREET":"文和街","SECT":" ","MAREA":" ","LANE":" ","ALLEY":" ","HOUSE_NO":"８８號","E_COORD97":167161.67000000001,"N_COORD97":2544862.3500000001,"ADDRESS":"文和街８８號","OBJECTID":619792},"geometry":{"x":167161.67000000086,"y":2544862.3500000034}},{"attributes":{"ID":619820,"DIS_CODE":0,"TOWNNAME":"中西區","LI":"文賢里","LIN":"2鄰","STREET":"文和街","SECT":" ","MAREA":" ","LANE":" ","ALLEY":" ","HOUSE_NO":"８８號之１","E_COORD97":167158.82000000001,"N_COORD97":2544864.7200000002,"ADDRESS":"文和街８８號之１","OBJECTID":619793},"geometry":{"x":167158.82000000216,"y":2544864.7200000025}},{"attributes":{"ID":619821,"DIS_CODE":0,"TOWNNAME":"中西區","LI":"文賢里","LIN":"2鄰","STREET":"文和街","SECT":" ","MAREA":" ","LANE":" ","ALLEY":" ","HOUSE_NO":"８８號之２","E_COORD97":167155.81,"N_COORD97":2544866.7799999998,"ADDRESS":"文和街８８號之２","OBJECTID":619794},"geometry":{"x":167155.80999999959,"y":2544866.7800000012}},{"attributes":{"ID":619822,"DIS_CODE":0,"TOWNNAME":"中西區","LI":"文賢里","LIN":"2鄰","STREET":"文和街","SECT":" ","MAREA":" ","LANE":" ","ALLEY":" ","HOUSE_NO":"８８號之３","E_COORD97":167154.06,"N_COORD97":2544869.8700000001,"ADDRESS":"文和街８８號之３","OBJECTID":619795},"geometry":{"x":167154.05999999959,"y":2544869.870000001}},{"attributes":{"ID":619823,"DIS_CODE":0,"TOWNNAME":"中西區","LI":"文賢里","LIN":"2鄰","STREET":"文和街","SECT":" ","MAREA":" ","LANE":" ","ALLEY":" ","HOUSE_NO":"８８號之４","E_COORD97":167151.67999999999,"N_COORD97":2544871.9300000002,"ADDRESS":"文和街８８號之４","OBJECTID":619796},"geometry":{"x":167151.6799999997,"y":2544871.9300000034}},{"attributes":{"ID":619824,"DIS_CODE":0,"TOWNNAME":"中西區","LI":"文賢里","LIN":"2鄰","STREET":"文和街","SECT":" ","MAREA":" ","LANE":" ","ALLEY":" ","HOUSE_NO":"８８號之５","E_COORD97":167148.67000000001,"N_COORD97":2544874.54,"ADDRESS":"文和街８８號之５","OBJECTID":619797},"geometry":{"x":167148.66999999993,"y":2544874.540000001}},{"attributes":{"ID":619825,"DIS_CODE":0,"TOWNNAME":"中西區","LI":"文賢里","LIN":"2鄰","STREET":"文和街","SECT":" ","MAREA":" ","LANE":" ","ALLEY":" ","HOUSE_NO":"８８號之６","E_COORD97":167147.01000000001,"N_COORD97":2544877.3100000001,"ADDRESS":"文和街８８號之６","OBJECTID":619798},"geometry":{"x":167147.01000000071,"y":2544877.3100000042}},{"attributes":{"ID":619826,"DIS_CODE":0,"TOWNNAME":"中西區","LI":"文賢里","LIN":"2鄰","STREET":"文和街","SECT":" ","MAREA":" ","LANE":" ","ALLEY":" ","HOUSE_NO":"８８號之７","E_COORD97":167144.31,"N_COORD97":2544880.6400000001,"ADDRESS":"文和街８８號之７","OBJECTID":619799},"geometry":{"x":167144.30999999959,"y":2544880.6400000006}},{"attributes":{"ID":619827,"DIS_CODE":0,"TOWNNAME":"中西區","LI":"文賢里","LIN":"2鄰","STREET":"文和街","SECT":" ","MAREA":" ","LANE":" ","ALLEY":" ","HOUSE_NO":"９０號","E_COORD97":167153.59,"N_COORD97":2544861.9399999999,"ADDRESS":"文和街９０號","OBJECTID":619800},"geometry":{"x":167153.59000000078,"y":2544861.9400000013}}]}