{"displayFieldName":"TOWNNAME","fieldAliases":{"ID":"ID","DIS_CODE":"DIS_CODE","TOWNNAME":"TOWNNAME","LI":"LI","LIN":"LIN","STREET":"STREET","SECT":"SECT","MAREA":"MAREA","LANE":"LANE","ALLEY":"ALLEY","HOUSE_NO":"HOUSE_NO","E_COORD97":"E_COORD97","N_COORD97":"N_COORD97","ADDRESS":"ADDRESS","OBJECTID":"OBJECTID"},"geometryType":"esriGeometryPoint","spatialReference":{"wkid":102443,"latestWkid":3826},"fields":[{"name":"ID","type":"esriFieldTypeDouble","alias":"ID"},{"name":"DIS_CODE","type":"esriFieldTypeInteger","alias":"DIS_CODE"},{"name":"TOWNNAME","type":"esriFieldTypeString","alias":"TOWNNAME","length":8},{"name":"LI","type":"esriFieldTypeString","alias":"LI","length":8},{"name":"LIN","type":"esriFieldTypeString","alias":"LIN","length":12},{"name":"STREET","type":"esriFieldTypeString","alias":"STREET","length":20},{"name":"SECT","type":"esriFieldTypeString","alias":"SECT","length":8},{"name":"MAREA","type":"esriFieldTypeString","alias":"MAREA","length":12},{"name":"LANE","type":"esriFieldTypeString","alias":"LANE","length":10},{"name":"ALLEY","type":"esriFieldTypeString","alias":"ALLEY","length":10},{"name":"HOUSE_NO","type":"esriFieldTypeString","alias":"HOUSE_NO","length":20},{"name":"E_COORD97","type":"esriFieldTypeDouble","alias":"E_COORD97"},{"name":"N_COORD97","type":"esriFieldTypeDouble","alias":"N_COORD97"},{"name":"ADDRESS","type":"esriFieldTypeString","alias":"ADDRESS","length":50},{"name":"OBJECTID","type":"esriFieldTypeOID","alias":"OBJECTID"}],"features":[{"attributes":{"ID":32201,"DIS_CODE":0,"TOWNNAME":"大內區","LI":"石湖里","LIN":"8鄰","STREET":" ","SECT":" ","MAREA":"石子瀨","LANE":" ","ALLEY":" ","HOUSE_NO":"３０５號之７","E_COORD97":183768.67999999999,"N_COORD97":2558577.2999999998,"ADDRESS":"石子瀨３０５號之７","OBJECTID":32201},"geometry":{"x":183768.68000000063,"y":2558577.3000000007}},{"attributes":{"ID":32202,"DIS_CODE":0,"TOWNNAME":"大內區","LI":"石湖里","LIN":"8鄰","STREET":" ","SECT":" ","MAREA":"石子瀨","LANE":" ","ALLEY":" ","HOUSE_NO":"３０６之３號","E_COORD97":183760.47,"N_COORD97":2558422.2999999998,"ADDRESS":"石子瀨３０６之３號","OBJECTID":32202},"geometry":{"x":183760.47000000067,"y":2558422.3000000026}},{"attributes":{"ID":32203,"DIS_CODE":0,"TOWNNAME":"大內區","LI":"內江里","LIN":"8鄰","STREET":" ","SECT":" ","MAREA":"內庄","LANE":" ","ALLEY":" ","HOUSE_NO":"２９６號","E_COORD97":184514.98000000001,"N_COORD97":2557288.25,"ADDRESS":"內庄２９６號","OBJECTID":32203},"geometry":{"x":184514.98000000231,"y":2557288.25}},{"attributes":{"ID":32204,"DIS_CODE":0,"TOWNNAME":"大內區","LI":"內郭里","LIN":"8鄰","STREET":" ","SECT":" ","MAREA":"後堀","LANE":" ","ALLEY":" ","HOUSE_NO":"２１之１號","E_COORD97":185708.66,"N_COORD97":2557476.3199999998,"ADDRESS":"後堀２１之１號","OBJECTID":32204},"geometry":{"x":185708.66000000108,"y":2557476.3200000022}},{"attributes":{"ID":32205,"DIS_CODE":0,"TOWNNAME":"大內區","LI":"石湖里","LIN":"8鄰","STREET":" ","SECT":" ","MAREA":"石子瀨","LANE":" ","ALLEY":" ","HOUSE_NO":"３０７號之１","E_COORD97":183837.5,"N_COORD97":2558440.2999999998,"ADDRESS":"石子瀨３０７號之１","OBJECTID":32205},"geometry":{"x":183837.5,"y":2558440.3000000026}},{"attributes":{"ID":32206,"DIS_CODE":0,"TOWNNAME":"大內區","LI":"二溪里","LIN":"8鄰","STREET":" ","SECT":" ","MAREA":"二重溪","LANE":" ","ALLEY":" ","HOUSE_NO":"２２５號之１","E_COORD97":188794.28,"N_COORD97":2560186.3100000001,"ADDRESS":"二重溪２２５號之１","OBJECTID":32206},"geometry":{"x":188794.28000000026,"y":2560186.3100000024}},{"attributes":{"ID":32207,"DIS_CODE":0,"TOWNNAME":"大內區","LI":"環湖里","LIN":"8鄰","STREET":" ","SECT":" ","MAREA":"環湖","LANE":" ","ALLEY":" ","HOUSE_NO":"１１０號","E_COORD97":190335.98999999999,"N_COORD97":2560718.25,"ADDRESS":"環湖１１０號","OBJECTID":32207},"geometry":{"x":190335.99000000115,"y":2560718.2500000019}},{"attributes":{"ID":32208,"DIS_CODE":0,"TOWNNAME":"大內區","LI":"石湖里","LIN":"8鄰","STREET":" ","SECT":" ","MAREA":"石子瀨","LANE":" ","ALLEY":" ","HOUSE_NO":"３０１號","E_COORD97":183916.47,"N_COORD97":2558474.25,"ADDRESS":"石子瀨３０１號","OBJECTID":32208},"geometry":{"x":183916.47000000067,"y":2558474.25}},{"attributes":{"ID":32209,"DIS_CODE":0,"TOWNNAME":"大內區","LI":"內江里","LIN":"8鄰","STREET":" ","SECT":" ","MAREA":"內庄","LANE":" ","ALLEY":" ","HOUSE_NO":"２９４號","E_COORD97":184519.17999999999,"N_COORD97":2557314.25,"ADDRESS":"內庄２９４號","OBJECTID":32209},"geometry":{"x":184519.1799999997,"y":2557314.2500000019}},{"attributes":{"ID":32210,"DIS_CODE":0,"TOWNNAME":"大內區","LI":"二溪里","LIN":"8鄰","STREET":" ","SECT":" ","MAREA":"二重溪","LANE":" ","ALLEY":" ","HOUSE_NO":"２１６號之５","E_COORD97":189010.42999999999,"N_COORD97":2559040.3100000001,"ADDRESS":"二重溪２１６號之５","OBJECTID":32210},"geometry":{"x":189010.43000000063,"y":2559040.3100000024}},{"attributes":{"ID":32211,"DIS_CODE":0,"TOWNNAME":"大內區","LI":"石林里","LIN":"8鄰","STREET":" ","SECT":" ","MAREA":"石子瀨","LANE":" ","ALLEY":" ","HOUSE_NO":"１９２號","E_COORD97":183969.57000000001,"N_COORD97":2558169.25,"ADDRESS":"石子瀨１９２號","OBJECTID":32211},"geometry":{"x":183969.5700000003,"y":2558169.25}},{"attributes":{"ID":32212,"DIS_CODE":0,"TOWNNAME":"大內區","LI":"石城里","LIN":"8鄰","STREET":" ","SECT":" ","MAREA":"石子瀨","LANE":" ","ALLEY":" ","HOUSE_NO":"７５號之７","E_COORD97":184214.32999999999,"N_COORD97":2557717.2999999998,"ADDRESS":"石子瀨７５號之７","OBJECTID":32212},"geometry":{"x":184214.33000000101,"y":2557717.3000000026}},{"attributes":{"ID":32213,"DIS_CODE":0,"TOWNNAME":"大內區","LI":"頭社里","LIN":"8鄰","STREET":" ","SECT":" ","MAREA":"頭社","LANE":" ","ALLEY":" ","HOUSE_NO":"８４號之１０","E_COORD97":186512.38,"N_COORD97":2560816.2999999998,"ADDRESS":"頭社８４號之１０","OBJECTID":32213},"geometry":{"x":186512.38000000082,"y":2560816.3000000026}},{"attributes":{"ID":32214,"DIS_CODE":0,"TOWNNAME":"大內區","LI":"石城里","LIN":"8鄰","STREET":" ","SECT":" ","MAREA":"石子瀨","LANE":" ","ALLEY":" ","HOUSE_NO":"７７號之５","E_COORD97":184050.31,"N_COORD97":2557723.2999999998,"ADDRESS":"石子瀨７７號之５","OBJECTID":32214},"geometry":{"x":184050.30999999959,"y":2557723.2999999989}},{"attributes":{"ID":32215,"DIS_CODE":0,"TOWNNAME":"大內區","LI":"頭社里","LIN":"8鄰","STREET":" ","SECT":" ","MAREA":"頭社","LANE":" ","ALLEY":" ","HOUSE_NO":"８４號之３","E_COORD97":186568.37,"N_COORD97":2560905.2999999998,"ADDRESS":"頭社８４號之３","OBJECTID":32215},"geometry":{"x":186568.37000000104,"y":2560905.3000000026}},{"attributes":{"ID":32216,"DIS_CODE":0,"TOWNNAME":"大內區","LI":"石城里","LIN":"8鄰","STREET":" ","SECT":" ","MAREA":"石子瀨","LANE":" ","ALLEY":" ","HOUSE_NO":"７３號之１１","E_COORD97":184244.29999999999,"N_COORD97":2557843.2999999998,"ADDRESS":"石子瀨７３號之１１","OBJECTID":32216},"geometry":{"x":184244.30000000168,"y":2557843.3000000026}},{"attributes":{"ID":32217,"DIS_CODE":0,"TOWNNAME":"大內區","LI":"石林里","LIN":"8鄰","STREET":" ","SECT":" ","MAREA":"石子瀨","LANE":" ","ALLEY":" ","HOUSE_NO":"１９７號","E_COORD97":183949.47,"N_COORD97":2558204.25,"ADDRESS":"石子瀨１９７號","OBJECTID":32217},"geometry":{"x":183949.46999999974,"y":2558204.2499999981}},{"attributes":{"ID":32218,"DIS_CODE":0,"TOWNNAME":"大內區","LI":"石城里","LIN":"8鄰","STREET":" ","SECT":" ","MAREA":"石子瀨","LANE":" ","ALLEY":" ","HOUSE_NO":"７７號之１","E_COORD97":184185.85000000001,"N_COORD97":2557870.2999999998,"ADDRESS":"石子瀨７７號之１","OBJECTID":32218},"geometry":{"x":184185.84999999963,"y":2557870.3000000026}},{"attributes":{"ID":32219,"DIS_CODE":0,"TOWNNAME":"大內區","LI":"石城里","LIN":"8鄰","STREET":" ","SECT":" ","MAREA":"石子瀨","LANE":" ","ALLEY":" ","HOUSE_NO":"７３號之６","E_COORD97":184232.56,"N_COORD97":2557868.2999999998,"ADDRESS":"石子瀨７３號之６","OBJECTID":32219},"geometry":{"x":184232.56000000052,"y":2557868.3000000007}},{"attributes":{"ID":32220,"DIS_CODE":0,"TOWNNAME":"新市區","LI":"新市里","LIN":"8鄰","STREET":"民生路","SECT":" ","MAREA":" ","LANE":"２巷","ALLEY":"１２弄","HOUSE_NO":"２號","E_COORD97":177422.5,"N_COORD97":2553161.7200000002,"ADDRESS":"民生路２巷１２弄２號","OBJECTID":32220},"geometry":{"x":177422.5,"y":2553161.7200000025}},{"attributes":{"ID":32221,"DIS_CODE":0,"TOWNNAME":"新市區","LI":"新市里","LIN":"8鄰","STREET":"民生路","SECT":" ","MAREA":" ","LANE":"２巷","ALLEY":"１２弄","HOUSE_NO":"３號","E_COORD97":177421.25,"N_COORD97":2553165.3100000001,"ADDRESS":"民生路２巷１２弄３號","OBJECTID":32221},"geometry":{"x":177421.25,"y":2553165.3100000005}},{"attributes":{"ID":32222,"DIS_CODE":0,"TOWNNAME":"新市區","LI":"新市里","LIN":"8鄰","STREET":"民生路","SECT":" ","MAREA":" ","LANE":"２巷","ALLEY":"１２弄","HOUSE_NO":"５號","E_COORD97":177424.98000000001,"N_COORD97":2553166.5699999998,"ADDRESS":"民生路２巷１２弄５號","OBJECTID":32222},"geometry":{"x":177424.98000000045,"y":2553166.5700000003}},{"attributes":{"ID":32223,"DIS_CODE":0,"TOWNNAME":"新市區","LI":"新市里","LIN":"8鄰","STREET":"民生路","SECT":" ","MAREA":" ","LANE":"２巷","ALLEY":"１２弄","HOUSE_NO":"１０號","E_COORD97":177435.47,"N_COORD97":2553165.75,"ADDRESS":"民生路２巷１２弄１０號","OBJECTID":32223},"geometry":{"x":177435.47000000067,"y":2553165.75}},{"attributes":{"ID":32224,"DIS_CODE":0,"TOWNNAME":"新市區","LI":"新市里","LIN":"8鄰","STREET":"民生路","SECT":" ","MAREA":" ","LANE":"２巷","ALLEY":"１２弄","HOUSE_NO":"１１號","E_COORD97":177437.54000000001,"N_COORD97":2553170.6400000001,"ADDRESS":"民生路２巷１２弄１１號","OBJECTID":32224},"geometry":{"x":177437.54000000004,"y":2553170.6400000006}},{"attributes":{"ID":32225,"DIS_CODE":0,"TOWNNAME":"新市區","LI":"新市里","LIN":"8鄰","STREET":"民生路","SECT":" ","MAREA":" ","LANE":"２巷","ALLEY":"１２弄","HOUSE_NO":"１２號","E_COORD97":177439.03,"N_COORD97":2553166.96,"ADDRESS":"民生路２巷１２弄１２號","OBJECTID":32225},"geometry":{"x":177439.03000000119,"y":2553166.9600000028}},{"attributes":{"ID":32226,"DIS_CODE":0,"TOWNNAME":"新市區","LI":"新市里","LIN":"8鄰","STREET":"民生路","SECT":" ","MAREA":" ","LANE":"２巷","ALLEY":"１２弄","HOUSE_NO":"１３號","E_COORD97":177441.44,"N_COORD97":2553171.6800000002,"ADDRESS":"民生路２巷１２弄１３號","OBJECTID":32226},"geometry":{"x":177441.44000000134,"y":2553171.6799999997}},{"attributes":{"ID":32227,"DIS_CODE":0,"TOWNNAME":"新市區","LI":"新市里","LIN":"8鄰","STREET":"民生路","SECT":" ","MAREA":" ","LANE":"２巷","ALLEY":"１２弄","HOUSE_NO":"１５號","E_COORD97":177445.26999999999,"N_COORD97":2553173.04,"ADDRESS":"民生路２巷１２弄１５號","OBJECTID":32227},"geometry":{"x":177445.27000000048,"y":2553173.0399999991}},{"attributes":{"ID":32228,"DIS_CODE":0,"TOWNNAME":"新市區","LI":"新市里","LIN":"8鄰","STREET":"民生路","SECT":" ","MAREA":" ","LANE":"２巷","ALLEY":"１２弄","HOUSE_NO":"１６號","E_COORD97":177443.01999999999,"N_COORD97":2553168.3599999999,"ADDRESS":"民生路２巷１２弄１６號","OBJECTID":32228},"geometry":{"x":177443.02000000142,"y":2553168.3600000031}},{"attributes":{"ID":32229,"DIS_CODE":0,"TOWNNAME":"新市區","LI":"新市里","LIN":"8鄰","STREET":"民生路","SECT":" ","MAREA":" ","LANE":"２巷","ALLEY":"１２弄","HOUSE_NO":"１８號","E_COORD97":177446.79000000001,"N_COORD97":2553169.6699999999,"ADDRESS":"民生路２巷１２弄１８號","OBJECTID":32229},"geometry":{"x":177446.7900000019,"y":2553169.6699999999}},{"attributes":{"ID":32230,"DIS_CODE":0,"TOWNNAME":"永康區","LI":"王行里","LIN":"8鄰","STREET":"王行路","SECT":" ","MAREA":" ","LANE":"２１７巷","ALLEY":"２弄","HOUSE_NO":"１０號","E_COORD97":175430.45999999999,"N_COORD97":2548437.3999999999,"ADDRESS":"王行路２１７巷２弄１０號","OBJECTID":32230},"geometry":{"x":175430.46000000089,"y":2548437.4000000022}},{"attributes":{"ID":32231,"DIS_CODE":0,"TOWNNAME":"永康區","LI":"王行里","LIN":"8鄰","STREET":"王行路","SECT":" ","MAREA":" ","LANE":"２１７巷","ALLEY":"２弄","HOUSE_NO":"１２號","E_COORD97":175429.47,"N_COORD97":2548442.0899999999,"ADDRESS":"王行路２１７巷２弄１２號","OBJECTID":32231},"geometry":{"x":175429.46999999974,"y":2548442.0900000017}},{"attributes":{"ID":32232,"DIS_CODE":0,"TOWNNAME":"永康區","LI":"王行里","LIN":"8鄰","STREET":"王行路","SECT":" ","MAREA":" ","LANE":"２１７巷","ALLEY":"２弄","HOUSE_NO":"１６號","E_COORD97":175430.16,"N_COORD97":2548449.0299999998,"ADDRESS":"王行路２１７巷２弄１６號","OBJECTID":32232},"geometry":{"x":175430.16000000015,"y":2548449.0300000012}},{"attributes":{"ID":32233,"DIS_CODE":0,"TOWNNAME":"永康區","LI":"網寮里","LIN":"8鄰","STREET":"永二街","SECT":" ","MAREA":" ","LANE":"２４４巷","ALLEY":"６弄","HOUSE_NO":"２４號","E_COORD97":173323.26999999999,"N_COORD97":2546350.0899999999,"ADDRESS":"永二街２４４巷６弄２４號","OBJECTID":32233},"geometry":{"x":173323.26999999955,"y":2546350.0900000017}},{"attributes":{"ID":32234,"DIS_CODE":0,"TOWNNAME":"永康區","LI":"西勢里","LIN":"8鄰","STREET":"西勢路","SECT":" ","MAREA":" ","LANE":"１９９巷","ALLEY":"４７弄","HOUSE_NO":"８號","E_COORD97":175881.92000000001,"N_COORD97":2546692.4700000002,"ADDRESS":"西勢路１９９巷４７弄８號","OBJECTID":32234},"geometry":{"x":175881.92000000086,"y":2546692.4700000007}},{"attributes":{"ID":32235,"DIS_CODE":0,"TOWNNAME":"永康區","LI":"西勢里","LIN":"8鄰","STREET":"廣興街","SECT":" ","MAREA":" ","LANE":"２５巷","ALLEY":"１弄","HOUSE_NO":"８號","E_COORD97":175772.31,"N_COORD97":2546618.5,"ADDRESS":"廣興街２５巷１弄８號","OBJECTID":32235},"geometry":{"x":175772.30999999959,"y":2546618.5000000019}},{"attributes":{"ID":32236,"DIS_CODE":0,"TOWNNAME":"永康區","LI":"安康里","LIN":"8鄰","STREET":"中山南路","SECT":" ","MAREA":" ","LANE":"１１９巷","ALLEY":"１１弄","HOUSE_NO":"１號","E_COORD97":171027.92999999999,"N_COORD97":2546004,"ADDRESS":"中山南路１１９巷１１弄１號","OBJECTID":32236},"geometry":{"x":171027.93000000063,"y":2546003.9999999981}},{"attributes":{"ID":32237,"DIS_CODE":0,"TOWNNAME":"永康區","LI":"東橋里","LIN":"8鄰","STREET":"中山南路","SECT":" ","MAREA":" ","LANE":"１９５巷","ALLEY":"２４弄","HOUSE_NO":"２５號","E_COORD97":171560.10999999999,"N_COORD97":2546361.0800000001,"ADDRESS":"中山南路１９５巷２４弄２５號","OBJECTID":32237},"geometry":{"x":171560.11000000034,"y":2546361.0800000019}},{"attributes":{"ID":32238,"DIS_CODE":0,"TOWNNAME":"永康區","LI":"建國里","LIN":"8鄰","STREET":"復國一路","SECT":" ","MAREA":" ","LANE":"６巷","ALLEY":"６６弄","HOUSE_NO":"１號","E_COORD97":172814.67000000001,"N_COORD97":2544688.5299999998,"ADDRESS":"復國一路６巷６６弄１號","OBJECTID":32238},"geometry":{"x":172814.67000000086,"y":2544688.5300000012}},{"attributes":{"ID":32239,"DIS_CODE":0,"TOWNNAME":"永康區","LI":"\u25A0行里","LIN":"8鄰","STREET":"中正一街","SECT":" ","MAREA":" ","LANE":"３２巷","ALLEY":"１５弄","HOUSE_NO":"７號","E_COORD97":172911.79999999999,"N_COORD97":2548426.1699999999,"ADDRESS":"中正一街３２巷１５弄７號","OBJECTID":32239},"geometry":{"x":172911.80000000168,"y":2548426.1699999999}},{"attributes":{"ID":32240,"DIS_CODE":0,"TOWNNAME":"永康區","LI":"安康里","LIN":"8鄰","STREET":"中山南路","SECT":" ","MAREA":" ","LANE":"１１９巷","ALLEY":"１１弄","HOUSE_NO":"６號","E_COORD97":171027.51999999999,"N_COORD97":2546019.5,"ADDRESS":"中山南路１１９巷１１弄６號","OBJECTID":32240},"geometry":{"x":171027.52000000048,"y":2546019.5}},{"attributes":{"ID":32241,"DIS_CODE":0,"TOWNNAME":"永康區","LI":"\u25A0行里","LIN":"8鄰","STREET":"中正一街","SECT":" ","MAREA":" ","LANE":"３２巷","ALLEY":"６弄","HOUSE_NO":"１６號","E_COORD97":172900.31,"N_COORD97":2548302.8500000001,"ADDRESS":"中正一街３２巷６弄１６號","OBJECTID":32241},"geometry":{"x":172900.31000000052,"y":2548302.8499999996}},{"attributes":{"ID":32242,"DIS_CODE":0,"TOWNNAME":"永康區","LI":"網寮里","LIN":"8鄰","STREET":"永二街","SECT":" ","MAREA":" ","LANE":"２４４巷","ALLEY":"６弄","HOUSE_NO":"１６號","E_COORD97":173304.85999999999,"N_COORD97":2546361.8300000001,"ADDRESS":"永二街２４４巷６弄１６號","OBJECTID":32242},"geometry":{"x":173304.86000000034,"y":2546361.8300000019}},{"attributes":{"ID":32243,"DIS_CODE":0,"TOWNNAME":"仁德區","LI":"新田里","LIN":"8鄰","STREET":"北保路","SECT":" ","MAREA":" ","LANE":"１８３巷","ALLEY":"１弄","HOUSE_NO":"４號","E_COORD97":173496.12,"N_COORD97":2539468.75,"ADDRESS":"北保路１８３巷１弄４號","OBJECTID":32243},"geometry":{"x":173496.12000000011,"y":2539468.75}},{"attributes":{"ID":32244,"DIS_CODE":0,"TOWNNAME":"大內區","LI":"頭社里","LIN":"8鄰","STREET":" ","SECT":" ","MAREA":"頭社","LANE":" ","ALLEY":" ","HOUSE_NO":"１０３之２號","E_COORD97":186596.79000000001,"N_COORD97":2561083.2999999998,"ADDRESS":"頭社１０３之２號","OBJECTID":32244},"geometry":{"x":186596.79000000004,"y":2561083.3000000045}},{"attributes":{"ID":32245,"DIS_CODE":0,"TOWNNAME":"大內區","LI":"頭社里","LIN":"8鄰","STREET":" ","SECT":" ","MAREA":"頭社","LANE":" ","ALLEY":" ","HOUSE_NO":"８４號之９","E_COORD97":186531.16,"N_COORD97":2560735.2999999998,"ADDRESS":"頭社８４號之９","OBJECTID":32245},"geometry":{"x":186531.16000000108,"y":2560735.3000000026}},{"attributes":{"ID":32246,"DIS_CODE":0,"TOWNNAME":"仁德區","LI":"新田里","LIN":"8鄰","STREET":"北保路","SECT":" ","MAREA":" ","LANE":"１８３巷","ALLEY":"２弄","HOUSE_NO":"７號","E_COORD97":173567.57999999999,"N_COORD97":2539433.9900000002,"ADDRESS":"北保路１８３巷２弄７號","OBJECTID":32246},"geometry":{"x":173567.58000000007,"y":2539433.9900000039}},{"attributes":{"ID":32247,"DIS_CODE":0,"TOWNNAME":"仁德區","LI":"新田里","LIN":"8鄰","STREET":"北保路","SECT":" ","MAREA":" ","LANE":"１８３巷","ALLEY":"１弄","HOUSE_NO":"１０號","E_COORD97":173482.10000000001,"N_COORD97":2539476.5,"ADDRESS":"北保路１８３巷１弄１０號","OBJECTID":32247},"geometry":{"x":173482.09999999963,"y":2539476.5}},{"attributes":{"ID":32248,"DIS_CODE":0,"TOWNNAME":"中西區","LI":"光賢里","LIN":"8鄰","STREET":"武聖路","SECT":" ","MAREA":" ","LANE":"６９巷","ALLEY":"１１３弄","HOUSE_NO":"２０號","E_COORD97":167025.95000000001,"N_COORD97":2544819.1200000001,"ADDRESS":"武聖路６９巷１１３弄２０號","OBJECTID":32248},"geometry":{"x":167025.95000000112,"y":2544819.1200000029}},{"attributes":{"ID":32249,"DIS_CODE":0,"TOWNNAME":"安南區","LI":"淵中里","LIN":"8鄰","STREET":"安中路","SECT":"四段","MAREA":" ","LANE":"４巷","ALLEY":"４８弄","HOUSE_NO":"４２號","E_COORD97":165251.34,"N_COORD97":2550268.52,"ADDRESS":"安中路四段４巷４８弄４２號","OBJECTID":32249},"geometry":{"x":165251.34000000078,"y":2550268.5199999977}},{"attributes":{"ID":32250,"DIS_CODE":0,"TOWNNAME":"安南區","LI":"淵中里","LIN":"8鄰","STREET":"安中路","SECT":"四段","MAREA":" ","LANE":"４巷","ALLEY":"４８弄","HOUSE_NO":"４０號","E_COORD97":165247.54000000001,"N_COORD97":2550266.8900000001,"ADDRESS":"安中路四段４巷４８弄４０號","OBJECTID":32250},"geometry":{"x":165247.54000000004,"y":2550266.8900000006}},{"attributes":{"ID":32251,"DIS_CODE":0,"TOWNNAME":"安南區","LI":"淵中里","LIN":"8鄰","STREET":"安中路","SECT":"四段","MAREA":" ","LANE":"４巷","ALLEY":"４８弄","HOUSE_NO":"２０號","E_COORD97":165230.07999999999,"N_COORD97":2550234.1200000001,"ADDRESS":"安中路四段４巷４８弄２０號","OBJECTID":32251},"geometry":{"x":165230.08000000101,"y":2550234.120000001}},{"attributes":{"ID":32252,"DIS_CODE":0,"TOWNNAME":"安南區","LI":"淵中里","LIN":"8鄰","STREET":"安中路","SECT":"四段","MAREA":" ","LANE":"４巷","ALLEY":"４８弄","HOUSE_NO":"２２號","E_COORD97":165234.62,"N_COORD97":2550236.77,"ADDRESS":"安中路四段４巷４８弄２２號","OBJECTID":32252},"geometry":{"x":165234.62000000104,"y":2550236.7700000033}},{"attributes":{"ID":32253,"DIS_CODE":0,"TOWNNAME":"麻豆區","LI":"油車里","LIN":"8鄰","STREET":" ","SECT":" ","MAREA":"油車","LANE":" ","ALLEY":" ","HOUSE_NO":"３３號","E_COORD97":172589.16,"N_COORD97":2565471.52,"ADDRESS":"油車３３號","OBJECTID":32253},"geometry":{"x":172589.16000000015,"y":2565471.5200000014}},{"attributes":{"ID":32254,"DIS_CODE":0,"TOWNNAME":"安南區","LI":"淵中里","LIN":"8鄰","STREET":"安中路","SECT":"四段","MAREA":" ","LANE":"４巷","ALLEY":"４８弄","HOUSE_NO":"２２號之１","E_COORD97":165238.69,"N_COORD97":2550239.48,"ADDRESS":"安中路四段４巷４８弄２２號之１","OBJECTID":32254},"geometry":{"x":165238.69000000041,"y":2550239.4800000042}},{"attributes":{"ID":32255,"DIS_CODE":0,"TOWNNAME":"安南區","LI":"淵中里","LIN":"8鄰","STREET":"安中路","SECT":"四段","MAREA":" ","LANE":"４巷","ALLEY":"４８弄","HOUSE_NO":"２２號之２","E_COORD97":165242.94,"N_COORD97":2550242.8300000001,"ADDRESS":"安中路四段４巷４８弄２２號之２","OBJECTID":32255},"geometry":{"x":165242.94000000134,"y":2550242.8300000001}},{"attributes":{"ID":32256,"DIS_CODE":0,"TOWNNAME":"安南區","LI":"淵中里","LIN":"8鄰","STREET":"安中路","SECT":"四段","MAREA":" ","LANE":"４巷","ALLEY":"４８弄","HOUSE_NO":"２２號之３","E_COORD97":165247.10000000001,"N_COORD97":2550245.6299999999,"ADDRESS":"安中路四段４巷４８弄２２號之３","OBJECTID":32256},"geometry":{"x":165247.09999999963,"y":2550245.629999999}},{"attributes":{"ID":32257,"DIS_CODE":0,"TOWNNAME":"安南區","LI":"淵中里","LIN":"8鄰","STREET":"安中路","SECT":"四段","MAREA":" ","LANE":"４巷","ALLEY":"４８弄","HOUSE_NO":"２４號","E_COORD97":165251.25,"N_COORD97":2550247.1600000001,"ADDRESS":"安中路四段４巷４８弄２４號","OBJECTID":32257},"geometry":{"x":165251.25,"y":2550247.1600000001}},{"attributes":{"ID":32258,"DIS_CODE":0,"TOWNNAME":"安南區","LI":"淵中里","LIN":"8鄰","STREET":"安中路","SECT":"四段","MAREA":" ","LANE":"４巷","ALLEY":"４８弄","HOUSE_NO":"２６號","E_COORD97":165221.45999999999,"N_COORD97":2550248.54,"ADDRESS":"安中路四段４巷４８弄２６號","OBJECTID":32258},"geometry":{"x":165221.46000000183,"y":2550248.540000001}},{"attributes":{"ID":32259,"DIS_CODE":0,"TOWNNAME":"安南區","LI":"淵中里","LIN":"8鄰","STREET":"安中路","SECT":"四段","MAREA":" ","LANE":"４巷","ALLEY":"４８弄","HOUSE_NO":"２６號之１","E_COORD97":165215.60000000001,"N_COORD97":2550248,"ADDRESS":"安中路四段４巷４８弄２６號之１","OBJECTID":32259},"geometry":{"x":165215.60000000056,"y":2550248}},{"attributes":{"ID":32260,"DIS_CODE":0,"TOWNNAME":"安南區","LI":"淵中里","LIN":"8鄰","STREET":"安中路","SECT":"四段","MAREA":" ","LANE":"４巷","ALLEY":"４８弄","HOUSE_NO":"２６號之２","E_COORD97":165211,"N_COORD97":2550245.9300000002,"ADDRESS":"安中路四段４巷４８弄２６號之２","OBJECTID":32260},"geometry":{"x":165210.99999999907,"y":2550245.9300000034}},{"attributes":{"ID":32261,"DIS_CODE":0,"TOWNNAME":"安南區","LI":"淵中里","LIN":"8鄰","STREET":"安中路","SECT":"四段","MAREA":" ","LANE":"４巷","ALLEY":"４８弄","HOUSE_NO":"２６號之３","E_COORD97":165206.22,"N_COORD97":2550244.1299999999,"ADDRESS":"安中路四段４巷４８弄２６號之３","OBJECTID":32261},"geometry":{"x":165206.22000000067,"y":2550244.1300000008}},{"attributes":{"ID":32262,"DIS_CODE":0,"TOWNNAME":"安南區","LI":"淵中里","LIN":"8鄰","STREET":"安中路","SECT":"四段","MAREA":" ","LANE":"４巷","ALLEY":"４８弄","HOUSE_NO":"２８號","E_COORD97":165201.26000000001,"N_COORD97":2550240.0800000001,"ADDRESS":"安中路四段４巷４８弄２８號","OBJECTID":32262},"geometry":{"x":165201.26000000071,"y":2550240.0800000001}},{"attributes":{"ID":32263,"DIS_CODE":0,"TOWNNAME":"安南區","LI":"安慶里","LIN":"8鄰","STREET":"長溪路","SECT":"一段","MAREA":" ","LANE":"３４２巷","ALLEY":"３８弄","HOUSE_NO":"１０號","E_COORD97":168741.51999999999,"N_COORD97":2548930.5099999998,"ADDRESS":"長溪路一段３４２巷３８弄１０號","OBJECTID":32263},"geometry":{"x":168741.51999999862,"y":2548930.5100000016}},{"attributes":{"ID":32264,"DIS_CODE":0,"TOWNNAME":"安南區","LI":"安慶里","LIN":"8鄰","STREET":"長溪路","SECT":"一段","MAREA":" ","LANE":"３４２巷","ALLEY":"３８弄","HOUSE_NO":"１２號","E_COORD97":168745.73000000001,"N_COORD97":2548930.3300000001,"ADDRESS":"長溪路一段３４２巷３８弄１２號","OBJECTID":32264},"geometry":{"x":168745.73000000045,"y":2548930.3300000001}},{"attributes":{"ID":32265,"DIS_CODE":0,"TOWNNAME":"安南區","LI":"安慶里","LIN":"8鄰","STREET":"長溪路","SECT":"一段","MAREA":" ","LANE":"３４２巷","ALLEY":"３８弄","HOUSE_NO":"１６號","E_COORD97":168752.95000000001,"N_COORD97":2548940.0600000001,"ADDRESS":"長溪路一段３４２巷３８弄１６號","OBJECTID":32265},"geometry":{"x":168752.95000000205,"y":2548940.0600000005}},{"attributes":{"ID":32266,"DIS_CODE":0,"TOWNNAME":"歸仁區","LI":"文化里","LIN":"23鄰","STREET":"大德路","SECT":" ","MAREA":" ","LANE":" ","ALLEY":" ","HOUSE_NO":"２５５號","E_COORD97":177107.81,"N_COORD97":2541521.6699999999,"ADDRESS":"大德路２５５號","OBJECTID":32266},"geometry":{"x":177107.81000000052,"y":2541521.6700000018}},{"attributes":{"ID":32267,"DIS_CODE":0,"TOWNNAME":"歸仁區","LI":"文化里","LIN":"19鄰","STREET":"文化北二街","SECT":" ","MAREA":" ","LANE":" ","ALLEY":" ","HOUSE_NO":"３６號","E_COORD97":177190.10999999999,"N_COORD97":2541474.3399999999,"ADDRESS":"文化北二街３６號","OBJECTID":32267},"geometry":{"x":177190.11000000034,"y":2541474.3399999999}},{"attributes":{"ID":32268,"DIS_CODE":0,"TOWNNAME":"安南區","LI":"安慶里","LIN":"8鄰","STREET":"長溪路","SECT":"一段","MAREA":" ","LANE":"３４２巷","ALLEY":"３８弄","HOUSE_NO":"１８號","E_COORD97":168753.29000000001,"N_COORD97":2548934.9700000002,"ADDRESS":"長溪路一段３４２巷３８弄１８號","OBJECTID":32268},"geometry":{"x":168753.29000000004,"y":2548934.9700000025}},{"attributes":{"ID":32269,"DIS_CODE":0,"TOWNNAME":"安南區","LI":"安慶里","LIN":"8鄰","STREET":"長溪路","SECT":"一段","MAREA":" ","LANE":"３４２巷","ALLEY":"３８弄","HOUSE_NO":"２０號","E_COORD97":168754.38,"N_COORD97":2548929.8500000001,"ADDRESS":"長溪路一段３４２巷３８弄２０號","OBJECTID":32269},"geometry":{"x":168754.37999999989,"y":2548929.8499999996}},{"attributes":{"ID":32270,"DIS_CODE":0,"TOWNNAME":"安南區","LI":"安慶里","LIN":"8鄰","STREET":"長溪路","SECT":"一段","MAREA":" ","LANE":"３４２巷","ALLEY":"３８弄","HOUSE_NO":"２１號","E_COORD97":168759.09,"N_COORD97":2548952.4100000001,"ADDRESS":"長溪路一段３４２巷３８弄２１號","OBJECTID":32270},"geometry":{"x":168759.09000000078,"y":2548952.410000002}},{"attributes":{"ID":32271,"DIS_CODE":0,"TOWNNAME":"安南區","LI":"安慶里","LIN":"8鄰","STREET":"長溪路","SECT":"一段","MAREA":" ","LANE":"３４２巷","ALLEY":"３８弄","HOUSE_NO":"２２號","E_COORD97":168755.04000000001,"N_COORD97":2548924.6200000001,"ADDRESS":"長溪路一段３４２巷３８弄２２號","OBJECTID":32271},"geometry":{"x":168755.04000000004,"y":2548924.6200000029}},{"attributes":{"ID":32272,"DIS_CODE":0,"TOWNNAME":"安南區","LI":"安慶里","LIN":"8鄰","STREET":"長溪路","SECT":"一段","MAREA":" ","LANE":"３４２巷","ALLEY":"３８弄","HOUSE_NO":"２３號","E_COORD97":168758.45000000001,"N_COORD97":2548958.4700000002,"ADDRESS":"長溪路一段３４２巷３８弄２３號","OBJECTID":32272},"geometry":{"x":168758.45000000112,"y":2548958.4700000025}},{"attributes":{"ID":32273,"DIS_CODE":0,"TOWNNAME":"大內區","LI":"石城里","LIN":"8鄰","STREET":" ","SECT":" ","MAREA":"石子瀨","LANE":" ","ALLEY":" ","HOUSE_NO":"７３號之８","E_COORD97":184235.89999999999,"N_COORD97":2557859.2999999998,"ADDRESS":"石子瀨７３號之８","OBJECTID":32273},"geometry":{"x":184235.9000000013,"y":2557859.3000000045}},{"attributes":{"ID":32274,"DIS_CODE":0,"TOWNNAME":"安南區","LI":"安慶里","LIN":"8鄰","STREET":"長溪路","SECT":"一段","MAREA":" ","LANE":"３４２巷","ALLEY":"３８弄","HOUSE_NO":"２４號","E_COORD97":168755.37,"N_COORD97":2548919.27,"ADDRESS":"長溪路一段３４２巷３８弄２４號","OBJECTID":32274},"geometry":{"x":168755.37000000104,"y":2548919.2700000014}},{"attributes":{"ID":32275,"DIS_CODE":0,"TOWNNAME":"安南區","LI":"安慶里","LIN":"8鄰","STREET":"長溪路","SECT":"一段","MAREA":" ","LANE":"３４２巷","ALLEY":"３８弄","HOUSE_NO":"２５號","E_COORD97":168758.20000000001,"N_COORD97":2548964.5299999998,"ADDRESS":"長溪路一段３４２巷３８弄２５號","OBJECTID":32275},"geometry":{"x":168758.20000000112,"y":2548964.5300000012}},{"attributes":{"ID":32276,"DIS_CODE":0,"TOWNNAME":"安南區","LI":"安慶里","LIN":"8鄰","STREET":"長溪路","SECT":"一段","MAREA":" ","LANE":"３４２巷","ALLEY":"３８弄","HOUSE_NO":"２８號","E_COORD97":168770.85999999999,"N_COORD97":2548916.7599999998,"ADDRESS":"長溪路一段３４２巷３８弄２８號","OBJECTID":32276},"geometry":{"x":168770.86000000127,"y":2548916.7599999998}},{"attributes":{"ID":32277,"DIS_CODE":0,"TOWNNAME":"安南區","LI":"安慶里","LIN":"8鄰","STREET":"長溪路","SECT":"一段","MAREA":" ","LANE":"３４２巷","ALLEY":"３８弄","HOUSE_NO":"３０號","E_COORD97":168772.5,"N_COORD97":2548921.6699999999,"ADDRESS":"長溪路一段３４２巷３８弄３０號","OBJECTID":32277},"geometry":{"x":168772.5,"y":2548921.6699999999}},{"attributes":{"ID":32278,"DIS_CODE":0,"TOWNNAME":"安南區","LI":"安慶里","LIN":"8鄰","STREET":"長溪路","SECT":"一段","MAREA":" ","LANE":"３４２巷","ALLEY":"３８弄","HOUSE_NO":"３１號","E_COORD97":168755.54999999999,"N_COORD97":2548981.4399999999,"ADDRESS":"長溪路一段３４２巷３８弄３１號","OBJECTID":32278},"geometry":{"x":168755.55000000075,"y":2548981.4400000013}},{"attributes":{"ID":32279,"DIS_CODE":0,"TOWNNAME":"安南區","LI":"安慶里","LIN":"8鄰","STREET":"長溪路","SECT":"一段","MAREA":" ","LANE":"３４２巷","ALLEY":"３８弄","HOUSE_NO":"３２號","E_COORD97":168771.95000000001,"N_COORD97":2548926.5800000001,"ADDRESS":"長溪路一段３４２巷３８弄３２號","OBJECTID":32279},"geometry":{"x":168771.95000000112,"y":2548926.5800000019}},{"attributes":{"ID":32280,"DIS_CODE":0,"TOWNNAME":"玉井區","LI":"玉田里","LIN":"14鄰","STREET":"民權路","SECT":" ","MAREA":" ","LANE":" ","ALLEY":" ","HOUSE_NO":"１２０號","E_COORD97":194747.98999999999,"N_COORD97":2557904.29,"ADDRESS":"民權路１２０號","OBJECTID":32280},"geometry":{"x":194747.99000000022,"y":2557904.2899999991}},{"attributes":{"ID":32281,"DIS_CODE":0,"TOWNNAME":"安平區","LI":"華平里","LIN":"14鄰","STREET":"永華路","SECT":"二段","MAREA":" ","LANE":" ","ALLEY":" ","HOUSE_NO":"６４８號","E_COORD97":165279.60999999999,"N_COORD97":2543526.8799999999,"ADDRESS":"永華路二段６４８號","OBJECTID":32281},"geometry":{"x":165279.61000000034,"y":2543526.8800000008}},{"attributes":{"ID":32282,"DIS_CODE":0,"TOWNNAME":"安平區","LI":"華平里","LIN":"14鄰","STREET":"永華路","SECT":"二段","MAREA":" ","LANE":" ","ALLEY":" ","HOUSE_NO":"６６０號","E_COORD97":165261.60000000001,"N_COORD97":2543525.3199999998,"ADDRESS":"永華路二段６６０號","OBJECTID":32282},"geometry":{"x":165261.60000000056,"y":2543525.3200000022}},{"attributes":{"ID":32283,"DIS_CODE":0,"TOWNNAME":"安平區","LI":"華平里","LIN":"14鄰","STREET":"永華路","SECT":"二段","MAREA":" ","LANE":" ","ALLEY":" ","HOUSE_NO":"６６２號","E_COORD97":165257.57000000001,"N_COORD97":2543525.77,"ADDRESS":"永華路二段６６２號","OBJECTID":32283},"geometry":{"x":165257.57000000123,"y":2543525.7699999996}},{"attributes":{"ID":32284,"DIS_CODE":0,"TOWNNAME":"安平區","LI":"華平里","LIN":"14鄰","STREET":"永華路","SECT":"二段","MAREA":" ","LANE":" ","ALLEY":" ","HOUSE_NO":"６６４號","E_COORD97":165253.88,"N_COORD97":2543526.3300000001,"ADDRESS":"永華路二段６６４號","OBJECTID":32284},"geometry":{"x":165253.87999999989,"y":2543526.3300000001}},{"attributes":{"ID":32285,"DIS_CODE":0,"TOWNNAME":"學甲區","LI":"仁得里","LIN":"1鄰","STREET":"八德街","SECT":" ","MAREA":" ","LANE":" ","ALLEY":" ","HOUSE_NO":"１２號","E_COORD97":166342.39999999999,"N_COORD97":2569709.1800000002,"ADDRESS":"八德街１２號","OBJECTID":32285},"geometry":{"x":166342.40000000037,"y":2569709.1800000016}},{"attributes":{"ID":32286,"DIS_CODE":0,"TOWNNAME":"學甲區","LI":"仁得里","LIN":"1鄰","STREET":"八德街","SECT":" ","MAREA":" ","LANE":" ","ALLEY":" ","HOUSE_NO":"１３號","E_COORD97":166320.97,"N_COORD97":2569682.6099999999,"ADDRESS":"八德街１３號","OBJECTID":32286},"geometry":{"x":166320.96999999974,"y":2569682.6100000013}},{"attributes":{"ID":32287,"DIS_CODE":0,"TOWNNAME":"學甲區","LI":"仁得里","LIN":"1鄰","STREET":"八德街","SECT":" ","MAREA":" ","LANE":" ","ALLEY":" ","HOUSE_NO":"１４號","E_COORD97":166338.56,"N_COORD97":2569708.5699999998,"ADDRESS":"八德街１４號","OBJECTID":32287},"geometry":{"x":166338.55999999959,"y":2569708.5700000003}},{"attributes":{"ID":32288,"DIS_CODE":0,"TOWNNAME":"東山區","LI":"東中里","LIN":"24鄰","STREET":"東仁街","SECT":" ","MAREA":" ","LANE":" ","ALLEY":" ","HOUSE_NO":"４１號","E_COORD97":188802.79000000001,"N_COORD97":2579825.6299999999,"ADDRESS":"東仁街４１號","OBJECTID":32288},"geometry":{"x":188802.7900000019,"y":2579825.6300000008}},{"attributes":{"ID":32289,"DIS_CODE":0,"TOWNNAME":"東山區","LI":"東中里","LIN":"24鄰","STREET":"東仁街","SECT":" ","MAREA":" ","LANE":" ","ALLEY":" ","HOUSE_NO":"５３號","E_COORD97":188773.94,"N_COORD97":2579834.9700000002,"ADDRESS":"東仁街５３號","OBJECTID":32289},"geometry":{"x":188773.94000000134,"y":2579834.9700000025}},{"attributes":{"ID":32290,"DIS_CODE":0,"TOWNNAME":"東山區","LI":"東中里","LIN":"24鄰","STREET":"東仁街","SECT":" ","MAREA":" ","LANE":" ","ALLEY":" ","HOUSE_NO":"５９號","E_COORD97":188763.13,"N_COORD97":2579842.4900000002,"ADDRESS":"東仁街５９號","OBJECTID":32290},"geometry":{"x":188763.13000000175,"y":2579842.4900000002}},{"attributes":{"ID":32291,"DIS_CODE":0,"TOWNNAME":"東山區","LI":"東中里","LIN":"24鄰","STREET":"東仁街","SECT":" ","MAREA":" ","LANE":" ","ALLEY":" ","HOUSE_NO":"６１號","E_COORD97":188758.95999999999,"N_COORD97":2579843.98,"ADDRESS":"東仁街６１號","OBJECTID":32291},"geometry":{"x":188758.95999999996,"y":2579843.9799999986}},{"attributes":{"ID":32292,"DIS_CODE":0,"TOWNNAME":"柳營區","LI":"八翁里","LIN":"14鄰","STREET":" ","SECT":" ","MAREA":"八老爺","LANE":" ","ALLEY":" ","HOUSE_NO":"１１６號","E_COORD97":178255.20000000001,"N_COORD97":2574188.98,"ADDRESS":"八老爺１１６號","OBJECTID":32292},"geometry":{"x":178255.20000000112,"y":2574188.9800000042}},{"attributes":{"ID":32293,"DIS_CODE":0,"TOWNNAME":"大內區","LI":"曲溪里","LIN":"8鄰","STREET":" ","SECT":" ","MAREA":"二重溪","LANE":" ","ALLEY":" ","HOUSE_NO":"７３號","E_COORD97":187332.89000000001,"N_COORD97":2557716.3100000001,"ADDRESS":"二重溪７３號","OBJECTID":32293},"geometry":{"x":187332.88999999966,"y":2557716.3100000042}},{"attributes":{"ID":32294,"DIS_CODE":0,"TOWNNAME":"大內區","LI":"頭社里","LIN":"8鄰","STREET":" ","SECT":" ","MAREA":"頭社","LANE":" ","ALLEY":" ","HOUSE_NO":"８４之３０號","E_COORD97":186085.29000000001,"N_COORD97":2560166.2999999998,"ADDRESS":"頭社８４之３０號","OBJECTID":32294},"geometry":{"x":186085.29000000004,"y":2560166.3000000007}},{"attributes":{"ID":32295,"DIS_CODE":0,"TOWNNAME":"大內區","LI":"石城里","LIN":"8鄰","STREET":" ","SECT":" ","MAREA":"石子瀨","LANE":" ","ALLEY":" ","HOUSE_NO":"７５之１２號","E_COORD97":184153.67000000001,"N_COORD97":2557721.2999999998,"ADDRESS":"石子瀨７５之１２號","OBJECTID":32295},"geometry":{"x":184153.67000000179,"y":2557721.3000000026}},{"attributes":{"ID":32296,"DIS_CODE":0,"TOWNNAME":"大內區","LI":"石城里","LIN":"8鄰","STREET":" ","SECT":" ","MAREA":"石子瀨","LANE":" ","ALLEY":" ","HOUSE_NO":"７４號之１４","E_COORD97":184276.03,"N_COORD97":2557756.2999999998,"ADDRESS":"石子瀨７４號之１４","OBJECTID":32296},"geometry":{"x":184276.03000000119,"y":2557756.3000000007}},{"attributes":{"ID":32297,"DIS_CODE":0,"TOWNNAME":"安平區","LI":"華平里","LIN":"14鄰","STREET":"永華路","SECT":"二段","MAREA":" ","LANE":" ","ALLEY":" ","HOUSE_NO":"６６６號","E_COORD97":165249.07000000001,"N_COORD97":2543526.77,"ADDRESS":"永華路二段６６６號","OBJECTID":32297},"geometry":{"x":165249.07000000123,"y":2543526.7699999977}},{"attributes":{"ID":32298,"DIS_CODE":0,"TOWNNAME":"安平區","LI":"華平里","LIN":"14鄰","STREET":"永華路","SECT":"二段","MAREA":" ","LANE":" ","ALLEY":" ","HOUSE_NO":"６６８號","E_COORD97":165245.26000000001,"N_COORD97":2543527.3300000001,"ADDRESS":"永華路二段６６８號","OBJECTID":32298},"geometry":{"x":165245.26000000071,"y":2543527.3300000038}},{"attributes":{"ID":32299,"DIS_CODE":0,"TOWNNAME":"大內區","LI":"頭社里","LIN":"8鄰","STREET":" ","SECT":" ","MAREA":"頭社","LANE":" ","ALLEY":" ","HOUSE_NO":"８４號之８","E_COORD97":186727.01999999999,"N_COORD97":2560936.2999999998,"ADDRESS":"頭社８４號之８","OBJECTID":32299},"geometry":{"x":186727.01999999955,"y":2560936.3000000007}},{"attributes":{"ID":32300,"DIS_CODE":0,"TOWNNAME":"大內區","LI":"頭社里","LIN":"8鄰","STREET":" ","SECT":" ","MAREA":"頭社","LANE":" ","ALLEY":" ","HOUSE_NO":"１０３號","E_COORD97":186577.69,"N_COORD97":2561112.25,"ADDRESS":"頭社１０３號","OBJECTID":32300},"geometry":{"x":186577.69000000041,"y":2561112.25}},{"attributes":{"ID":32301,"DIS_CODE":0,"TOWNNAME":"大內區","LI":"曲溪里","LIN":"8鄰","STREET":" ","SECT":" ","MAREA":"二重溪","LANE":" ","ALLEY":" ","HOUSE_NO":"７４號","E_COORD97":187315.59,"N_COORD97":2557708.3100000001,"ADDRESS":"二重溪７４號","OBJECTID":32301},"geometry":{"x":187315.59000000171,"y":2557708.3100000005}},{"attributes":{"ID":32302,"DIS_CODE":0,"TOWNNAME":"大內區","LI":"頭社里","LIN":"8鄰","STREET":" ","SECT":" ","MAREA":"頭社","LANE":" ","ALLEY":" ","HOUSE_NO":"１０４號","E_COORD97":186555.48999999999,"N_COORD97":2561104.25,"ADDRESS":"頭社１０４號","OBJECTID":32302},"geometry":{"x":186555.49000000209,"y":2561104.2500000019}},{"attributes":{"ID":32303,"DIS_CODE":0,"TOWNNAME":"大內區","LI":"石城里","LIN":"8鄰","STREET":" ","SECT":" ","MAREA":"石子瀨","LANE":" ","ALLEY":" ","HOUSE_NO":"７７號之２","E_COORD97":184113.89000000001,"N_COORD97":2557776.2999999998,"ADDRESS":"石子瀨７７號之２","OBJECTID":32303},"geometry":{"x":184113.88999999966,"y":2557776.3000000007}},{"attributes":{"ID":32304,"DIS_CODE":0,"TOWNNAME":"大內區","LI":"石林里","LIN":"8鄰","STREET":" ","SECT":" ","MAREA":"石子瀨","LANE":" ","ALLEY":" ","HOUSE_NO":"１９５號之１","E_COORD97":184014.5,"N_COORD97":2558190.2999999998,"ADDRESS":"石子瀨１９５號之１","OBJECTID":32304},"geometry":{"x":184014.50000000093,"y":2558190.3000000007}},{"attributes":{"ID":32305,"DIS_CODE":0,"TOWNNAME":"大內區","LI":"石城里","LIN":"8鄰","STREET":" ","SECT":" ","MAREA":"石子瀨","LANE":" ","ALLEY":" ","HOUSE_NO":"７３號之１０","E_COORD97":184241.04999999999,"N_COORD97":2557848.2999999998,"ADDRESS":"石子瀨７３號之１０","OBJECTID":32305},"geometry":{"x":184241.05000000075,"y":2557848.3000000007}},{"attributes":{"ID":32306,"DIS_CODE":0,"TOWNNAME":"安南區","LI":"安慶里","LIN":"8鄰","STREET":"長溪路","SECT":"一段","MAREA":" ","LANE":"３４２巷","ALLEY":"３８弄","HOUSE_NO":"３３號","E_COORD97":168775,"N_COORD97":2548984.6000000001,"ADDRESS":"長溪路一段３４２巷３８弄３３號","OBJECTID":32306},"geometry":{"x":168775.00000000093,"y":2548984.6000000015}},{"attributes":{"ID":32307,"DIS_CODE":0,"TOWNNAME":"將軍區","LI":"玉山里","LIN":"7鄰","STREET":" ","SECT":" ","MAREA":"玉山","LANE":" ","ALLEY":" ","HOUSE_NO":"５７號","E_COORD97":160306.56,"N_COORD97":2567682.2799999998,"ADDRESS":"玉山５７號","OBJECTID":32307},"geometry":{"x":160306.56000000052,"y":2567682.2799999993}},{"attributes":{"ID":32308,"DIS_CODE":0,"TOWNNAME":"大內區","LI":"頭社里","LIN":"8鄰","STREET":" ","SECT":" ","MAREA":"頭社","LANE":" ","ALLEY":" ","HOUSE_NO":"１０６號","E_COORD97":186526.98999999999,"N_COORD97":2561080.25,"ADDRESS":"頭社１０６號","OBJECTID":32308},"geometry":{"x":186526.99000000115,"y":2561080.2500000019}},{"attributes":{"ID":32309,"DIS_CODE":0,"TOWNNAME":"大內區","LI":"石林里","LIN":"8鄰","STREET":" ","SECT":" ","MAREA":"石子瀨","LANE":" ","ALLEY":" ","HOUSE_NO":"１９８號之１","E_COORD97":184009.5,"N_COORD97":2558198.2999999998,"ADDRESS":"石子瀨１９８號之１","OBJECTID":32309},"geometry":{"x":184009.50000000093,"y":2558198.3000000045}},{"attributes":{"ID":32310,"DIS_CODE":0,"TOWNNAME":"大內區","LI":"石林里","LIN":"8鄰","STREET":" ","SECT":" ","MAREA":"石子瀨","LANE":" ","ALLEY":" ","HOUSE_NO":"１９５號","E_COORD97":183990.87,"N_COORD97":2558207.25,"ADDRESS":"石子瀨１９５號","OBJECTID":32310},"geometry":{"x":183990.87000000011,"y":2558207.25}},{"attributes":{"ID":32311,"DIS_CODE":0,"TOWNNAME":"大內區","LI":"頭社里","LIN":"8鄰","STREET":" ","SECT":" ","MAREA":"頭社","LANE":" ","ALLEY":" ","HOUSE_NO":"８４之２號","E_COORD97":186703.31,"N_COORD97":2560943.2999999998,"ADDRESS":"頭社８４號之２","OBJECTID":32311},"geometry":{"x":186703.30999999959,"y":2560943.3000000007}},{"attributes":{"ID":32312,"DIS_CODE":0,"TOWNNAME":"大內區","LI":"石城里","LIN":"8鄰","STREET":" ","SECT":" ","MAREA":"石子瀨","LANE":" ","ALLEY":" ","HOUSE_NO":"７４號之４","E_COORD97":184280.38,"N_COORD97":2557760.2999999998,"ADDRESS":"石子瀨７４號之４","OBJECTID":32312},"geometry":{"x":184280.37999999989,"y":2557760.3000000007}},{"attributes":{"ID":32313,"DIS_CODE":0,"TOWNNAME":"大內區","LI":"曲溪里","LIN":"8鄰","STREET":" ","SECT":" ","MAREA":"二重溪","LANE":" ","ALLEY":" ","HOUSE_NO":"７２號之１","E_COORD97":187325.03,"N_COORD97":2557794.3100000001,"ADDRESS":"二重溪７２號之１","OBJECTID":32313},"geometry":{"x":187325.03000000212,"y":2557794.3100000042}},{"attributes":{"ID":32314,"DIS_CODE":0,"TOWNNAME":"大內區","LI":"石城里","LIN":"8鄰","STREET":" ","SECT":" ","MAREA":"石子瀨","LANE":" ","ALLEY":" ","HOUSE_NO":"７４號之１５","E_COORD97":184222.66,"N_COORD97":2557779.2999999998,"ADDRESS":"石子瀨７４號之１５","OBJECTID":32314},"geometry":{"x":184222.66000000015,"y":2557779.3000000026}},{"attributes":{"ID":32315,"DIS_CODE":0,"TOWNNAME":"大內區","LI":"石城里","LIN":"8鄰","STREET":" ","SECT":" ","MAREA":"石子瀨","LANE":" ","ALLEY":" ","HOUSE_NO":"７４號之１３","E_COORD97":184278.79999999999,"N_COORD97":2557758.2999999998,"ADDRESS":"石子瀨７４號之１３","OBJECTID":32315},"geometry":{"x":184278.80000000075,"y":2557758.3000000026}},{"attributes":{"ID":32316,"DIS_CODE":0,"TOWNNAME":"大內區","LI":"曲溪里","LIN":"8鄰","STREET":" ","SECT":" ","MAREA":"二重溪","LANE":" ","ALLEY":" ","HOUSE_NO":"７５號之１","E_COORD97":187342.53,"N_COORD97":2557684.3100000001,"ADDRESS":"二重溪７５號之１","OBJECTID":32316},"geometry":{"x":187342.53000000119,"y":2557684.3100000005}},{"attributes":{"ID":32317,"DIS_CODE":0,"TOWNNAME":"大內區","LI":"石城里","LIN":"8鄰","STREET":" ","SECT":" ","MAREA":"石子瀨","LANE":" ","ALLEY":" ","HOUSE_NO":"７５號之３","E_COORD97":184108.64999999999,"N_COORD97":2557650.2999999998,"ADDRESS":"石子瀨７５號之３","OBJECTID":32317},"geometry":{"x":184108.6500000013,"y":2557650.3000000026}},{"attributes":{"ID":32318,"DIS_CODE":0,"TOWNNAME":"大內區","LI":"頭社里","LIN":"8鄰","STREET":" ","SECT":" ","MAREA":"頭社","LANE":" ","ALLEY":" ","HOUSE_NO":"８４號之１７","E_COORD97":186794.89999999999,"N_COORD97":2560841.2999999998,"ADDRESS":"頭社８４號之１７","OBJECTID":32318},"geometry":{"x":186794.90000000037,"y":2560841.3000000007}},{"attributes":{"ID":32319,"DIS_CODE":0,"TOWNNAME":"麻豆區","LI":"油車里","LIN":"8鄰","STREET":" ","SECT":" ","MAREA":"油車","LANE":" ","ALLEY":" ","HOUSE_NO":"３４號之１","E_COORD97":172557.47,"N_COORD97":2565467.6000000001,"ADDRESS":"油車３４號之１","OBJECTID":32319},"geometry":{"x":172557.46999999974,"y":2565467.6000000015}},{"attributes":{"ID":32320,"DIS_CODE":0,"TOWNNAME":"大內區","LI":"石城里","LIN":"8鄰","STREET":" ","SECT":" ","MAREA":"石子瀨","LANE":" ","ALLEY":" ","HOUSE_NO":"７５之１１號","E_COORD97":184037.57000000001,"N_COORD97":2557711.2999999998,"ADDRESS":"石子瀨７５之１１號","OBJECTID":32320},"geometry":{"x":184037.5700000003,"y":2557711.3000000026}},{"attributes":{"ID":32321,"DIS_CODE":0,"TOWNNAME":"大內區","LI":"石林里","LIN":"8鄰","STREET":" ","SECT":" ","MAREA":"石子瀨","LANE":" ","ALLEY":" ","HOUSE_NO":"１９７號之１","E_COORD97":183960.10000000001,"N_COORD97":2558206.2999999998,"ADDRESS":"石子瀨１９７號之１","OBJECTID":32321},"geometry":{"x":183960.09999999963,"y":2558206.3000000026}},{"attributes":{"ID":32322,"DIS_CODE":0,"TOWNNAME":"大內區","LI":"石林里","LIN":"8鄰","STREET":" ","SECT":" ","MAREA":"石子瀨","LANE":" ","ALLEY":" ","HOUSE_NO":"１９１號之３","E_COORD97":183934.60000000001,"N_COORD97":2558202.2999999998,"ADDRESS":"石子瀨１９１號之３","OBJECTID":32322},"geometry":{"x":183934.59999999963,"y":2558202.3000000026}},{"attributes":{"ID":32323,"DIS_CODE":0,"TOWNNAME":"大內區","LI":"頭社里","LIN":"8鄰","STREET":" ","SECT":" ","MAREA":"頭社","LANE":" ","ALLEY":" ","HOUSE_NO":"８４號之１６","E_COORD97":186614.23000000001,"N_COORD97":2560926.2999999998,"ADDRESS":"頭社８４號之１６","OBJECTID":32323},"geometry":{"x":186614.23000000138,"y":2560926.3000000007}},{"attributes":{"ID":32324,"DIS_CODE":0,"TOWNNAME":"大內區","LI":"石城里","LIN":"8鄰","STREET":" ","SECT":" ","MAREA":"石子瀨","LANE":" ","ALLEY":" ","HOUSE_NO":"７６號之１０","E_COORD97":184151.54999999999,"N_COORD97":2557806.2999999998,"ADDRESS":"石子瀨７６號之１０","OBJECTID":32324},"geometry":{"x":184151.55000000075,"y":2557806.3000000026}},{"attributes":{"ID":32325,"DIS_CODE":0,"TOWNNAME":"大內區","LI":"石城里","LIN":"8鄰","STREET":" ","SECT":" ","MAREA":"石子瀨","LANE":" ","ALLEY":" ","HOUSE_NO":"７４號之７","E_COORD97":184261.13,"N_COORD97":2557747.2999999998,"ADDRESS":"石子瀨７４號之７","OBJECTID":32325},"geometry":{"x":184261.13000000082,"y":2557747.3000000045}},{"attributes":{"ID":32326,"DIS_CODE":0,"TOWNNAME":"大內區","LI":"石城里","LIN":"8鄰","STREET":" ","SECT":" ","MAREA":"石子瀨","LANE":" ","ALLEY":" ","HOUSE_NO":"７１號","E_COORD97":184208.92000000001,"N_COORD97":2557899.25,"ADDRESS":"石子瀨７１號","OBJECTID":32326},"geometry":{"x":184208.91999999993,"y":2557899.2500000037}},{"attributes":{"ID":32327,"DIS_CODE":0,"TOWNNAME":"大內區","LI":"頭社里","LIN":"8鄰","STREET":" ","SECT":" ","MAREA":"頭社","LANE":" ","ALLEY":" ","HOUSE_NO":"８４之２５號","E_COORD97":186877.98999999999,"N_COORD97":2560867.2999999998,"ADDRESS":"頭社８４之２５號","OBJECTID":32327},"geometry":{"x":186877.99000000115,"y":2560867.3000000026}},{"attributes":{"ID":32328,"DIS_CODE":0,"TOWNNAME":"大內區","LI":"頭社里","LIN":"8鄰","STREET":" ","SECT":" ","MAREA":"頭社","LANE":" ","ALLEY":" ","HOUSE_NO":"８４號之１８","E_COORD97":186805.67000000001,"N_COORD97":2560903.2999999998,"ADDRESS":"頭社８４號之１８","OBJECTID":32328},"geometry":{"x":186805.67000000086,"y":2560903.3000000007}},{"attributes":{"ID":32329,"DIS_CODE":0,"TOWNNAME":"大內區","LI":"石城里","LIN":"8鄰","STREET":" ","SECT":" ","MAREA":"石子瀨","LANE":" ","ALLEY":" ","HOUSE_NO":"７０號","E_COORD97":184231.92000000001,"N_COORD97":2557905.25,"ADDRESS":"石子瀨７０號","OBJECTID":32329},"geometry":{"x":184231.92000000086,"y":2557905.25}},{"attributes":{"ID":32330,"DIS_CODE":0,"TOWNNAME":"大內區","LI":"曲溪里","LIN":"8鄰","STREET":" ","SECT":" ","MAREA":"二重溪","LANE":" ","ALLEY":" ","HOUSE_NO":"７７號之１","E_COORD97":187293.13,"N_COORD97":2557702.3100000001,"ADDRESS":"二重溪７７號之１","OBJECTID":32330},"geometry":{"x":187293.12999999989,"y":2557702.3100000005}},{"attributes":{"ID":32331,"DIS_CODE":0,"TOWNNAME":"大內區","LI":"頭社里","LIN":"8鄰","STREET":" ","SECT":" ","MAREA":"頭社","LANE":" ","ALLEY":" ","HOUSE_NO":"８４之２６號","E_COORD97":186760.79000000001,"N_COORD97":2560916.2999999998,"ADDRESS":"頭社８４之２６號","OBJECTID":32331},"geometry":{"x":186760.79000000097,"y":2560916.3000000007}},{"attributes":{"ID":32332,"DIS_CODE":0,"TOWNNAME":"大內區","LI":"石林里","LIN":"8鄰","STREET":" ","SECT":" ","MAREA":"石子瀨","LANE":" ","ALLEY":" ","HOUSE_NO":"１９１之２號","E_COORD97":183931.57000000001,"N_COORD97":2558201.2999999998,"ADDRESS":"石子瀨１９１之２號","OBJECTID":32332},"geometry":{"x":183931.57000000123,"y":2558201.2999999989}},{"attributes":{"ID":32333,"DIS_CODE":0,"TOWNNAME":"大內區","LI":"石城里","LIN":"8鄰","STREET":" ","SECT":" ","MAREA":"石子瀨","LANE":" ","ALLEY":" ","HOUSE_NO":"７５號之２","E_COORD97":184124.69,"N_COORD97":2557654.2999999998,"ADDRESS":"石子瀨７５號之２","OBJECTID":32333},"geometry":{"x":184124.69000000041,"y":2557654.3000000007}},{"attributes":{"ID":32334,"DIS_CODE":0,"TOWNNAME":"安平區","LI":"華平里","LIN":"14鄰","STREET":"永華路","SECT":"二段","MAREA":" ","LANE":" ","ALLEY":" ","HOUSE_NO":"６７０號","E_COORD97":165240.79000000001,"N_COORD97":2543528.1099999999,"ADDRESS":"永華路二段６７０號","OBJECTID":32334},"geometry":{"x":165240.79000000004,"y":2543528.1100000031}},{"attributes":{"ID":32335,"DIS_CODE":0,"TOWNNAME":"歸仁區","LI":"南保里","LIN":"50鄰","STREET":"大順街","SECT":" ","MAREA":" ","LANE":" ","ALLEY":" ","HOUSE_NO":"２７５號","E_COORD97":176693.47,"N_COORD97":2540597.25,"ADDRESS":"大順街２７５號","OBJECTID":32335},"geometry":{"x":176693.46999999974,"y":2540597.25}},{"attributes":{"ID":32336,"DIS_CODE":0,"TOWNNAME":"東山區","LI":"東中里","LIN":"24鄰","STREET":"東仁街","SECT":" ","MAREA":" ","LANE":" ","ALLEY":" ","HOUSE_NO":"６３號","E_COORD97":188754.53,"N_COORD97":2579845.6200000001,"ADDRESS":"東仁街６３號","OBJECTID":32336},"geometry":{"x":188754.53000000119,"y":2579845.620000001}},{"attributes":{"ID":32337,"DIS_CODE":0,"TOWNNAME":"東山區","LI":"東中里","LIN":"24鄰","STREET":"東仁街","SECT":" ","MAREA":" ","LANE":" ","ALLEY":" ","HOUSE_NO":"６５號","E_COORD97":188750.42000000001,"N_COORD97":2579847.0600000001,"ADDRESS":"東仁街６５號","OBJECTID":32337},"geometry":{"x":188750.41999999993,"y":2579847.0600000042}},{"attributes":{"ID":32338,"DIS_CODE":0,"TOWNNAME":"東山區","LI":"東中里","LIN":"24鄰","STREET":"東仁街","SECT":" ","MAREA":" ","LANE":" ","ALLEY":" ","HOUSE_NO":"６９號","E_COORD97":188742.10999999999,"N_COORD97":2579849.9399999999,"ADDRESS":"東仁街６９號","OBJECTID":32338},"geometry":{"x":188742.11000000127,"y":2579849.9399999995}},{"attributes":{"ID":32339,"DIS_CODE":0,"TOWNNAME":"東山區","LI":"東中里","LIN":"25鄰","STREET":"成功街","SECT":" ","MAREA":" ","LANE":" ","ALLEY":" ","HOUSE_NO":"１８號","E_COORD97":188790.29000000001,"N_COORD97":2579915.1299999999,"ADDRESS":"成功街１８號","OBJECTID":32339},"geometry":{"x":188790.29000000004,"y":2579915.129999999}},{"attributes":{"ID":32340,"DIS_CODE":0,"TOWNNAME":"東山區","LI":"東中里","LIN":"25鄰","STREET":"成功街","SECT":" ","MAREA":" ","LANE":" ","ALLEY":" ","HOUSE_NO":"２０號","E_COORD97":188789.67999999999,"N_COORD97":2579921.23,"ADDRESS":"成功街２０號","OBJECTID":32340},"geometry":{"x":188789.68000000156,"y":2579921.2300000023}},{"attributes":{"ID":32341,"DIS_CODE":0,"TOWNNAME":"東山區","LI":"東中里","LIN":"25鄰","STREET":"成功街","SECT":" ","MAREA":" ","LANE":" ","ALLEY":" ","HOUSE_NO":"２２號","E_COORD97":188789.60000000001,"N_COORD97":2579926.1200000001,"ADDRESS":"成功街２２號","OBJECTID":32341},"geometry":{"x":188789.59999999963,"y":2579926.1200000029}},{"attributes":{"ID":32342,"DIS_CODE":0,"TOWNNAME":"東山區","LI":"東中里","LIN":"25鄰","STREET":"成功街","SECT":" ","MAREA":" ","LANE":" ","ALLEY":" ","HOUSE_NO":"２６號","E_COORD97":188789.69,"N_COORD97":2579930.6000000001,"ADDRESS":"成功街２６號","OBJECTID":32342},"geometry":{"x":188789.69000000041,"y":2579930.6000000034}},{"attributes":{"ID":32343,"DIS_CODE":0,"TOWNNAME":"東山區","LI":"東中里","LIN":"25鄰","STREET":"成功街","SECT":" ","MAREA":" ","LANE":" ","ALLEY":" ","HOUSE_NO":"２８號","E_COORD97":188788.97,"N_COORD97":2579935.4100000001,"ADDRESS":"成功街２８號","OBJECTID":32343},"geometry":{"x":188788.96999999974,"y":2579935.4100000001}},{"attributes":{"ID":32344,"DIS_CODE":0,"TOWNNAME":"安南區","LI":"安慶里","LIN":"8鄰","STREET":"長溪路","SECT":"一段","MAREA":" ","LANE":"３４２巷","ALLEY":"３８弄","HOUSE_NO":"３４號","E_COORD97":168769.88,"N_COORD97":2548934.21,"ADDRESS":"長溪路一段３４２巷３８弄３４號","OBJECTID":32344},"geometry":{"x":168769.87999999989,"y":2548934.2100000028}},{"attributes":{"ID":32345,"DIS_CODE":0,"TOWNNAME":"安南區","LI":"安慶里","LIN":"8鄰","STREET":"長溪路","SECT":"一段","MAREA":" ","LANE":"３４２巷","ALLEY":"３８弄","HOUSE_NO":"３５號","E_COORD97":168776.51999999999,"N_COORD97":2548978.6600000001,"ADDRESS":"長溪路一段３４２巷３８弄３５號","OBJECTID":32345},"geometry":{"x":168776.51999999955,"y":2548978.6600000001}},{"attributes":{"ID":32346,"DIS_CODE":0,"TOWNNAME":"安南區","LI":"安慶里","LIN":"8鄰","STREET":"長溪路","SECT":"一段","MAREA":" ","LANE":"３４２巷","ALLEY":"３８弄","HOUSE_NO":"３７號","E_COORD97":168778.04000000001,"N_COORD97":2548973.1099999999,"ADDRESS":"長溪路一段３４２巷３８弄３７號","OBJECTID":32346},"geometry":{"x":168778.04000000097,"y":2548973.1100000013}},{"attributes":{"ID":32347,"DIS_CODE":0,"TOWNNAME":"安南區","LI":"安慶里","LIN":"8鄰","STREET":"長溪路","SECT":"一段","MAREA":" ","LANE":"３４２巷","ALLEY":"３８弄","HOUSE_NO":"３８號","E_COORD97":168769.76999999999,"N_COORD97":2548942.0600000001,"ADDRESS":"長溪路一段３４２巷３８弄３８號","OBJECTID":32347},"geometry":{"x":168769.76999999955,"y":2548942.0600000024}},{"attributes":{"ID":32348,"DIS_CODE":0,"TOWNNAME":"安南區","LI":"安慶里","LIN":"8鄰","STREET":"長溪路","SECT":"一段","MAREA":" ","LANE":"３４２巷","ALLEY":"３８弄","HOUSE_NO":"３９號","E_COORD97":168779.17000000001,"N_COORD97":2548967.0499999998,"ADDRESS":"長溪路一段３４２巷３８弄３９號","OBJECTID":32348},"geometry":{"x":168779.16999999993,"y":2548967.0500000007}},{"attributes":{"ID":32349,"DIS_CODE":0,"TOWNNAME":"安南區","LI":"總頭里","LIN":"8鄰","STREET":"長溪路","SECT":"二段","MAREA":" ","LANE":"６７１巷","ALLEY":"５１弄","HOUSE_NO":"３８號","E_COORD97":168093.20000000001,"N_COORD97":2550702.5099999998,"ADDRESS":"長溪路二段６７１巷５１弄３８號","OBJECTID":32349},"geometry":{"x":168093.20000000019,"y":2550702.5099999998}},{"attributes":{"ID":32350,"DIS_CODE":0,"TOWNNAME":"安南區","LI":"總頭里","LIN":"8鄰","STREET":"長溪路","SECT":"二段","MAREA":" ","LANE":"６７１巷","ALLEY":"５１弄","HOUSE_NO":"３９號","E_COORD97":168118.57000000001,"N_COORD97":2550695.3599999999,"ADDRESS":"長溪路二段６７１巷５１弄３９號","OBJECTID":32350},"geometry":{"x":168118.57000000123,"y":2550695.3599999994}},{"attributes":{"ID":32351,"DIS_CODE":0,"TOWNNAME":"安南區","LI":"總頭里","LIN":"8鄰","STREET":"長溪路","SECT":"二段","MAREA":" ","LANE":"６７１巷","ALLEY":"５１弄","HOUSE_NO":"４０號","E_COORD97":168092.10000000001,"N_COORD97":2550697.5699999998,"ADDRESS":"長溪路二段６７１巷５１弄４０號","OBJECTID":32351},"geometry":{"x":168092.10000000056,"y":2550697.5700000022}},{"attributes":{"ID":32352,"DIS_CODE":0,"TOWNNAME":"安南區","LI":"總頭里","LIN":"8鄰","STREET":"長溪路","SECT":"二段","MAREA":" ","LANE":"６７１巷","ALLEY":"５１弄","HOUSE_NO":"４１號","E_COORD97":168118.57000000001,"N_COORD97":2550690.4100000001,"ADDRESS":"長溪路二段６７１巷５１弄４１號","OBJECTID":32352},"geometry":{"x":168118.57000000123,"y":2550690.4100000039}},{"attributes":{"ID":32353,"DIS_CODE":0,"TOWNNAME":"安南區","LI":"總頭里","LIN":"8鄰","STREET":"長溪路","SECT":"二段","MAREA":" ","LANE":"６７１巷","ALLEY":"５１弄","HOUSE_NO":"４２號","E_COORD97":168091.54999999999,"N_COORD97":2550693.71,"ADDRESS":"長溪路二段６７１巷５１弄４２號","OBJECTID":32353},"geometry":{"x":168091.55000000075,"y":2550693.7100000028}},{"attributes":{"ID":32354,"DIS_CODE":0,"TOWNNAME":"安南區","LI":"總頭里","LIN":"8鄰","STREET":"長溪路","SECT":"二段","MAREA":" ","LANE":"６７１巷","ALLEY":"８１弄","HOUSE_NO":"１０號","E_COORD97":168079.66,"N_COORD97":2550659.5099999998,"ADDRESS":"長溪路二段６７１巷８１弄１０號","OBJECTID":32354},"geometry":{"x":168079.66000000015,"y":2550659.5100000016}},{"attributes":{"ID":32355,"DIS_CODE":0,"TOWNNAME":"安南區","LI":"總頭里","LIN":"8鄰","STREET":"長溪路","SECT":"二段","MAREA":" ","LANE":"６７１巷","ALLEY":"８１弄","HOUSE_NO":"１１號","E_COORD97":168084.17999999999,"N_COORD97":2550684.3399999999,"ADDRESS":"長溪路二段６７１巷８１弄１１號","OBJECTID":32355},"geometry":{"x":168084.1799999997,"y":2550684.3400000017}},{"attributes":{"ID":32356,"DIS_CODE":0,"TOWNNAME":"安南區","LI":"總頭里","LIN":"8鄰","STREET":"長溪路","SECT":"二段","MAREA":" ","LANE":"６７１巷","ALLEY":"８１弄","HOUSE_NO":"１２號","E_COORD97":168085.07999999999,"N_COORD97":2550658.1600000001,"ADDRESS":"長溪路二段６７１巷８１弄１２號","OBJECTID":32356},"geometry":{"x":168085.08000000007,"y":2550658.1600000039}},{"attributes":{"ID":32357,"DIS_CODE":0,"TOWNNAME":"安南區","LI":"總頭里","LIN":"8鄰","STREET":"長溪路","SECT":"二段","MAREA":" ","LANE":"６７１巷","ALLEY":"８１弄","HOUSE_NO":"１３號","E_COORD97":168089.60999999999,"N_COORD97":2550683.8900000001,"ADDRESS":"長溪路二段６７１巷８１弄１３號","OBJECTID":32357},"geometry":{"x":168089.61000000127,"y":2550683.8900000006}},{"attributes":{"ID":32358,"DIS_CODE":0,"TOWNNAME":"安南區","LI":"總頭里","LIN":"8鄰","STREET":"長溪路","SECT":"二段","MAREA":" ","LANE":"６７１巷","ALLEY":"８１弄","HOUSE_NO":"１５號","E_COORD97":168094.13,"N_COORD97":2550682.0800000001,"ADDRESS":"長溪路二段６７１巷８１弄１５號","OBJECTID":32358},"geometry":{"x":168094.13000000082,"y":2550682.0800000001}},{"attributes":{"ID":32359,"DIS_CODE":0,"TOWNNAME":"安南區","LI":"總頭里","LIN":"8鄰","STREET":"長溪路","SECT":"二段","MAREA":" ","LANE":"６７１巷","ALLEY":"８１弄","HOUSE_NO":"１６號","E_COORD97":168089.60999999999,"N_COORD97":2550656.8100000001,"ADDRESS":"長溪路二段６７１巷８１弄１６號","OBJECTID":32359},"geometry":{"x":168089.61000000127,"y":2550656.8100000005}},{"attributes":{"ID":32360,"DIS_CODE":0,"TOWNNAME":"東山區","LI":"東中里","LIN":"25鄰","STREET":"成功街","SECT":" ","MAREA":" ","LANE":" ","ALLEY":" ","HOUSE_NO":"３０號","E_COORD97":188788.57000000001,"N_COORD97":2579940.75,"ADDRESS":"成功街３０號","OBJECTID":32360},"geometry":{"x":188788.5700000003,"y":2579940.7500000019}},{"attributes":{"ID":32361,"DIS_CODE":0,"TOWNNAME":"東山區","LI":"東中里","LIN":"25鄰","STREET":"成功街","SECT":" ","MAREA":" ","LANE":" ","ALLEY":" ","HOUSE_NO":"３２號","E_COORD97":188808.73999999999,"N_COORD97":2579932.5299999998,"ADDRESS":"成功街３２號","OBJECTID":32361},"geometry":{"x":188808.74000000115,"y":2579932.5300000012}},{"attributes":{"ID":32362,"DIS_CODE":0,"TOWNNAME":"東山區","LI":"東中里","LIN":"25鄰","STREET":"和平街","SECT":" ","MAREA":" ","LANE":" ","ALLEY":" ","HOUSE_NO":"１０號","E_COORD97":188871.23000000001,"N_COORD97":2579892.8799999999,"ADDRESS":"和平街１０號","OBJECTID":32362},"geometry":{"x":188871.23000000045,"y":2579892.879999999}},{"attributes":{"ID":32363,"DIS_CODE":0,"TOWNNAME":"東山區","LI":"東中里","LIN":"25鄰","STREET":"和平街","SECT":" ","MAREA":" ","LANE":" ","ALLEY":" ","HOUSE_NO":"１２號","E_COORD97":188867.39999999999,"N_COORD97":2579893.6699999999,"ADDRESS":"和平街１２號","OBJECTID":32363},"geometry":{"x":188867.4000000013,"y":2579893.6700000018}},{"attributes":{"ID":32364,"DIS_CODE":0,"TOWNNAME":"東山區","LI":"東中里","LIN":"25鄰","STREET":"和平街","SECT":" ","MAREA":" ","LANE":" ","ALLEY":" ","HOUSE_NO":"１６號","E_COORD97":188862.66,"N_COORD97":2579894.9700000002,"ADDRESS":"和平街１６號","OBJECTID":32364},"geometry":{"x":188862.66000000015,"y":2579894.9700000007}},{"attributes":{"ID":32365,"DIS_CODE":0,"TOWNNAME":"東山區","LI":"東中里","LIN":"25鄰","STREET":"和平街","SECT":" ","MAREA":" ","LANE":" ","ALLEY":" ","HOUSE_NO":"１８號","E_COORD97":188858.73999999999,"N_COORD97":2579895.7999999998,"ADDRESS":"和平街１８號","OBJECTID":32365},"geometry":{"x":188858.74000000022,"y":2579895.8000000007}},{"attributes":{"ID":32366,"DIS_CODE":0,"TOWNNAME":"東山區","LI":"東中里","LIN":"25鄰","STREET":"和平街","SECT":" ","MAREA":" ","LANE":" ","ALLEY":" ","HOUSE_NO":"１號","E_COORD97":188878.54999999999,"N_COORD97":2579877.54,"ADDRESS":"和平街１號","OBJECTID":32366},"geometry":{"x":188878.54999999981,"y":2579877.540000001}},{"attributes":{"ID":32367,"DIS_CODE":0,"TOWNNAME":"東山區","LI":"東中里","LIN":"25鄰","STREET":"和平街","SECT":" ","MAREA":" ","LANE":" ","ALLEY":" ","HOUSE_NO":"２０號","E_COORD97":188854.59,"N_COORD97":2579896.7599999998,"ADDRESS":"和平街２０號","OBJECTID":32367},"geometry":{"x":188854.58999999985,"y":2579896.7600000016}},{"attributes":{"ID":32368,"DIS_CODE":0,"TOWNNAME":"大內區","LI":"石城里","LIN":"8鄰","STREET":" ","SECT":" ","MAREA":"石子瀨","LANE":" ","ALLEY":" ","HOUSE_NO":"７３號之７","E_COORD97":184234.42999999999,"N_COORD97":2557863.2999999998,"ADDRESS":"石子瀨７３號之７","OBJECTID":32368},"geometry":{"x":184234.4299999997,"y":2557863.3000000026}},{"attributes":{"ID":32369,"DIS_CODE":0,"TOWNNAME":"大內區","LI":"石城里","LIN":"8鄰","STREET":" ","SECT":" ","MAREA":"石子瀨","LANE":" ","ALLEY":" ","HOUSE_NO":"７１號之１","E_COORD97":184198.95000000001,"N_COORD97":2557941.2999999998,"ADDRESS":"石子瀨７１號之１","OBJECTID":32369},"geometry":{"x":184198.95000000019,"y":2557941.3000000026}},{"attributes":{"ID":32370,"DIS_CODE":0,"TOWNNAME":"大內區","LI":"石城里","LIN":"8鄰","STREET":" ","SECT":" ","MAREA":"石子瀨","LANE":" ","ALLEY":" ","HOUSE_NO":"７３號之３","E_COORD97":184228.75,"N_COORD97":2557832.2999999998,"ADDRESS":"石子瀨７３號之３","OBJECTID":32370},"geometry":{"x":184228.75,"y":2557832.3000000026}},{"attributes":{"ID":32371,"DIS_CODE":0,"TOWNNAME":"大內區","LI":"石林里","LIN":"8鄰","STREET":" ","SECT":" ","MAREA":"石子瀨","LANE":" ","ALLEY":" ","HOUSE_NO":"１９１號","E_COORD97":183937.47,"N_COORD97":2558203.25,"ADDRESS":"石子瀨１９１號","OBJECTID":32371},"geometry":{"x":183937.46999999974,"y":2558203.25}},{"attributes":{"ID":32372,"DIS_CODE":0,"TOWNNAME":"大內區","LI":"頭社里","LIN":"8鄰","STREET":" ","SECT":" ","MAREA":"頭社","LANE":" ","ALLEY":" ","HOUSE_NO":"１０８號之６","E_COORD97":186501.63,"N_COORD97":2561197.2999999998,"ADDRESS":"頭社１０８號之６","OBJECTID":32372},"geometry":{"x":186501.62999999896,"y":2561197.3000000007}},{"attributes":{"ID":32373,"DIS_CODE":0,"TOWNNAME":"安南區","LI":"總頭里","LIN":"8鄰","STREET":"長溪路","SECT":"二段","MAREA":" ","LANE":"６７１巷","ALLEY":"８１弄","HOUSE_NO":"１７號","E_COORD97":168099.10000000001,"N_COORD97":2550682.98,"ADDRESS":"長溪路二段６７１巷８１弄１７號","OBJECTID":32373},"geometry":{"x":168099.10000000056,"y":2550682.9800000004}},{"attributes":{"ID":32374,"DIS_CODE":0,"TOWNNAME":"安南區","LI":"總頭里","LIN":"8鄰","STREET":"長溪路","SECT":"二段","MAREA":" ","LANE":"６７１巷","ALLEY":"８１弄","HOUSE_NO":"１８號","E_COORD97":168095.03,"N_COORD97":2550655.8999999999,"ADDRESS":"長溪路二段６７１巷８１弄１８號","OBJECTID":32374},"geometry":{"x":168095.03000000119,"y":2550655.9000000004}},{"attributes":{"ID":32375,"DIS_CODE":0,"TOWNNAME":"安南區","LI":"總頭里","LIN":"8鄰","STREET":"長溪路","SECT":"二段","MAREA":" ","LANE":"６７１巷","ALLEY":"８１弄","HOUSE_NO":"１９號","E_COORD97":168111.76000000001,"N_COORD97":2550681.6299999999,"ADDRESS":"長溪路二段６７１巷８１弄１９號","OBJECTID":32375},"geometry":{"x":168111.76000000071,"y":2550681.6300000008}},{"attributes":{"ID":32376,"DIS_CODE":0,"TOWNNAME":"安南區","LI":"總頭里","LIN":"8鄰","STREET":"長溪路","SECT":"二段","MAREA":" ","LANE":"６７１巷","ALLEY":"８１弄","HOUSE_NO":"２１號","E_COORD97":168115.82999999999,"N_COORD97":2550680.2799999998,"ADDRESS":"長溪路二段６７１巷８１弄２１號","OBJECTID":32376},"geometry":{"x":168115.83000000007,"y":2550680.2800000031}},{"attributes":{"ID":32377,"DIS_CODE":0,"TOWNNAME":"安南區","LI":"總頭里","LIN":"8鄰","STREET":"長溪路","SECT":"二段","MAREA":" ","LANE":"６７１巷","ALLEY":"８１弄","HOUSE_NO":"２２號","E_COORD97":168106.32999999999,"N_COORD97":2550652.29,"ADDRESS":"長溪路二段６７１巷８１弄２２號","OBJECTID":32377},"geometry":{"x":168106.33000000101,"y":2550652.2899999991}},{"attributes":{"ID":32378,"DIS_CODE":0,"TOWNNAME":"安南區","LI":"總頭里","LIN":"8鄰","STREET":"長溪路","SECT":"二段","MAREA":" ","LANE":"６７１巷","ALLEY":"８１弄","HOUSE_NO":"２３號","E_COORD97":168121.26000000001,"N_COORD97":2550679.8199999998,"ADDRESS":"長溪路二段６７１巷８１弄２３號","OBJECTID":32378},"geometry":{"x":168121.25999999978,"y":2550679.8200000003}},{"attributes":{"ID":32379,"DIS_CODE":0,"TOWNNAME":"永康區","LI":"建國里","LIN":"8鄰","STREET":"復國一路","SECT":" ","MAREA":" ","LANE":"６巷","ALLEY":"６６弄","HOUSE_NO":"１０號","E_COORD97":172800.54000000001,"N_COORD97":2544674.2799999998,"ADDRESS":"復國一路６巷６６弄１０號","OBJECTID":32379},"geometry":{"x":172800.54000000097,"y":2544674.2800000012}},{"attributes":{"ID":32380,"DIS_CODE":0,"TOWNNAME":"安南區","LI":"總頭里","LIN":"8鄰","STREET":"長溪路","SECT":"二段","MAREA":" ","LANE":"６７１巷","ALLEY":"８１弄","HOUSE_NO":"２５號","E_COORD97":168124.87,"N_COORD97":2550676.6699999999,"ADDRESS":"長溪路二段６７１巷８１弄２５號","OBJECTID":32380},"geometry":{"x":168124.87000000104,"y":2550676.6699999999}},{"attributes":{"ID":32381,"DIS_CODE":0,"TOWNNAME":"安南區","LI":"總頭里","LIN":"8鄰","STREET":"長溪路","SECT":"二段","MAREA":" ","LANE":"６７１巷","ALLEY":"８１弄","HOUSE_NO":"２６號","E_COORD97":168112.66,"N_COORD97":2550653.1899999999,"ADDRESS":"長溪路二段６７１巷８１弄２６號","OBJECTID":32381},"geometry":{"x":168112.66000000108,"y":2550653.1899999995}},{"attributes":{"ID":32382,"DIS_CODE":0,"TOWNNAME":"安南區","LI":"總頭里","LIN":"8鄰","STREET":"長溪路","SECT":"二段","MAREA":" ","LANE":"６７１巷","ALLEY":"８１弄","HOUSE_NO":"２８號","E_COORD97":168117.19,"N_COORD97":2550652.7400000002,"ADDRESS":"長溪路二段６７１巷８１弄２８號","OBJECTID":32382},"geometry":{"x":168117.19000000041,"y":2550652.7400000021}},{"attributes":{"ID":32383,"DIS_CODE":0,"TOWNNAME":"安南區","LI":"公\u25A0里","LIN":"8鄰","STREET":"安興街","SECT":" ","MAREA":" ","LANE":"１８１巷","ALLEY":"６３弄","HOUSE_NO":"１９號","E_COORD97":164048.38,"N_COORD97":2551952.5600000001,"ADDRESS":"安興街１８１巷６３弄１９號","OBJECTID":32383},"geometry":{"x":164048.37999999989,"y":2551952.5600000024}},{"attributes":{"ID":32384,"DIS_CODE":0,"TOWNNAME":"佳里區","LI":"鎮山里","LIN":"8鄰","STREET":"仁愛路","SECT":" ","MAREA":" ","LANE":"１４６巷","ALLEY":"２６弄","HOUSE_NO":"１１號","E_COORD97":166417.07999999999,"N_COORD97":2561472.1800000002,"ADDRESS":"仁愛路１４６巷２６弄１１號","OBJECTID":32384},"geometry":{"x":166417.08000000007,"y":2561472.1799999997}},{"attributes":{"ID":32385,"DIS_CODE":0,"TOWNNAME":"佳里區","LI":"鎮山里","LIN":"8鄰","STREET":"仁愛路","SECT":" ","MAREA":" ","LANE":"１４６巷","ALLEY":"２６弄","HOUSE_NO":"１３號","E_COORD97":166417.20999999999,"N_COORD97":2561476.48,"ADDRESS":"仁愛路１４６巷２６弄１３號","OBJECTID":32385},"geometry":{"x":166417.21000000089,"y":2561476.4800000023}},{"attributes":{"ID":32386,"DIS_CODE":0,"TOWNNAME":"佳里區","LI":"鎮山里","LIN":"8鄰","STREET":"仁愛路","SECT":" ","MAREA":" ","LANE":"１４６巷","ALLEY":"２６弄","HOUSE_NO":"１５號","E_COORD97":166416.67000000001,"N_COORD97":2561480.8700000001,"ADDRESS":"仁愛路１４６巷２６弄１５號","OBJECTID":32386},"geometry":{"x":166416.66999999993,"y":2561480.8700000029}},{"attributes":{"ID":32387,"DIS_CODE":0,"TOWNNAME":"大內區","LI":"石城里","LIN":"8鄰","STREET":" ","SECT":" ","MAREA":"石子瀨","LANE":" ","ALLEY":" ","HOUSE_NO":"７６號之１","E_COORD97":184196.54999999999,"N_COORD97":2557831.2999999998,"ADDRESS":"石子瀨７６號之１","OBJECTID":32387},"geometry":{"x":184196.54999999981,"y":2557831.3000000007}},{"attributes":{"ID":32388,"DIS_CODE":0,"TOWNNAME":"大內區","LI":"石城里","LIN":"8鄰","STREET":" ","SECT":" ","MAREA":"石子瀨","LANE":" ","ALLEY":" ","HOUSE_NO":"７５號之１","E_COORD97":184153.45000000001,"N_COORD97":2557695.2999999998,"ADDRESS":"石子瀨７５號之１","OBJECTID":32388},"geometry":{"x":184153.45000000019,"y":2557695.3000000007}},{"attributes":{"ID":32389,"DIS_CODE":0,"TOWNNAME":"大內區","LI":"石城里","LIN":"8鄰","STREET":" ","SECT":" ","MAREA":"石子瀨","LANE":" ","ALLEY":" ","HOUSE_NO":"７６號","E_COORD97":184184.01999999999,"N_COORD97":2557828.25,"ADDRESS":"石子瀨７６號","OBJECTID":32389},"geometry":{"x":184184.01999999955,"y":2557828.2500000037}},{"attributes":{"ID":32390,"DIS_CODE":0,"TOWNNAME":"北區","LI":"延平里","LIN":"14鄰","STREET":"長榮路","SECT":"五段","MAREA":" ","LANE":"４３５巷","ALLEY":" ","HOUSE_NO":"２號","E_COORD97":169244.14999999999,"N_COORD97":2545948.5,"ADDRESS":"長榮路五段４３５巷２號","OBJECTID":32390},"geometry":{"x":169244.1500000013,"y":2545948.5}},{"attributes":{"ID":32391,"DIS_CODE":0,"TOWNNAME":"歸仁區","LI":"西埔里","LIN":"14鄰","STREET":"西埔二街","SECT":" ","MAREA":" ","LANE":" ","ALLEY":" ","HOUSE_NO":"６３號","E_COORD97":176789.44,"N_COORD97":2544734.25,"ADDRESS":"西埔二街６３號","OBJECTID":32391},"geometry":{"x":176789.44000000041,"y":2544734.25}},{"attributes":{"ID":32392,"DIS_CODE":0,"TOWNNAME":"大內區","LI":"石城里","LIN":"8鄰","STREET":" ","SECT":" ","MAREA":"石子瀨","LANE":" ","ALLEY":" ","HOUSE_NO":"７４號之９","E_COORD97":184254.84,"N_COORD97":2557742.2999999998,"ADDRESS":"石子瀨７４號之９","OBJECTID":32392},"geometry":{"x":184254.84000000078,"y":2557742.3000000007}},{"attributes":{"ID":32393,"DIS_CODE":0,"TOWNNAME":"大內區","LI":"二溪里","LIN":"8鄰","STREET":" ","SECT":" ","MAREA":"二重溪","LANE":" ","ALLEY":" ","HOUSE_NO":"２２１號之１","E_COORD97":188680.98000000001,"N_COORD97":2560081.3100000001,"ADDRESS":"二重溪２２１號之１","OBJECTID":32393},"geometry":{"x":188680.98000000045,"y":2560081.3100000005}},{"attributes":{"ID":32394,"DIS_CODE":0,"TOWNNAME":"歸仁區","LI":"媽廟里","LIN":"14鄰","STREET":"中正北路","SECT":"三段","MAREA":" ","LANE":" ","ALLEY":" ","HOUSE_NO":"１２２號","E_COORD97":177607.76000000001,"N_COORD97":2543822.7200000002,"ADDRESS":"中正北路三段１２２號","OBJECTID":32394},"geometry":{"x":177607.76000000164,"y":2543822.7200000007}},{"attributes":{"ID":32395,"DIS_CODE":0,"TOWNNAME":"歸仁區","LI":"看東里","LIN":"14鄰","STREET":"忠孝南路","SECT":" ","MAREA":" ","LANE":" ","ALLEY":" ","HOUSE_NO":"２３號","E_COORD97":178524.85999999999,"N_COORD97":2540575.6400000001,"ADDRESS":"忠孝南路２３號","OBJECTID":32395},"geometry":{"x":178524.8600000022,"y":2540575.6399999987}},{"attributes":{"ID":32396,"DIS_CODE":0,"TOWNNAME":"歸仁區","LI":"歸仁里","LIN":"14鄰","STREET":"信義北路","SECT":" ","MAREA":" ","LANE":" ","ALLEY":" ","HOUSE_NO":"１１８號","E_COORD97":177964.69,"N_COORD97":2541107.1099999999,"ADDRESS":"信義北路１１８號","OBJECTID":32396},"geometry":{"x":177964.69000000041,"y":2541107.1100000031}},{"attributes":{"ID":32397,"DIS_CODE":0,"TOWNNAME":"歸仁區","LI":"西埔里","LIN":"14鄰","STREET":"西埔二街","SECT":" ","MAREA":" ","LANE":" ","ALLEY":" ","HOUSE_NO":"７５號","E_COORD97":176753.64000000001,"N_COORD97":2544733.25,"ADDRESS":"西埔二街７５號","OBJECTID":32397},"geometry":{"x":176753.63999999966,"y":2544733.25}},{"attributes":{"ID":32398,"DIS_CODE":0,"TOWNNAME":"歸仁區","LI":"八甲里","LIN":"14鄰","STREET":"大明三街","SECT":" ","MAREA":" ","LANE":" ","ALLEY":" ","HOUSE_NO":"６５號","E_COORD97":178068.12,"N_COORD97":2541709.6099999999,"ADDRESS":"大明三街６５號","OBJECTID":32398},"geometry":{"x":178068.12000000011,"y":2541709.6099999994}},{"attributes":{"ID":32399,"DIS_CODE":0,"TOWNNAME":"歸仁區","LI":"西埔里","LIN":"14鄰","STREET":"西埔二街","SECT":" ","MAREA":" ","LANE":" ","ALLEY":" ","HOUSE_NO":"６７號","E_COORD97":176778.23999999999,"N_COORD97":2544736.25,"ADDRESS":"西埔二街６７號","OBJECTID":32399},"geometry":{"x":176778.24000000115,"y":2544736.25}},{"attributes":{"ID":32400,"DIS_CODE":0,"TOWNNAME":"玉井區","LI":"望明里","LIN":"14鄰","STREET":" ","SECT":" ","MAREA":"望明","LANE":" ","ALLEY":" ","HOUSE_NO":"１５４號","E_COORD97":192565.88,"N_COORD97":2556037.25,"ADDRESS":"望明１５４號","OBJECTID":32400},"geometry":{"x":192565.88000000082,"y":2556037.25}}]}