{"displayFieldName":"TOWNNAME","fieldAliases":{"ID":"ID","DIS_CODE":"DIS_CODE","TOWNNAME":"TOWNNAME","LI":"LI","LIN":"LIN","STREET":"STREET","SECT":"SECT","MAREA":"MAREA","LANE":"LANE","ALLEY":"ALLEY","HOUSE_NO":"HOUSE_NO","E_COORD97":"E_COORD97","N_COORD97":"N_COORD97","ADDRESS":"ADDRESS","OBJECTID":"OBJECTID"},"geometryType":"esriGeometryPoint","spatialReference":{"wkid":102443,"latestWkid":3826},"fields":[{"name":"ID","type":"esriFieldTypeDouble","alias":"ID"},{"name":"DIS_CODE","type":"esriFieldTypeInteger","alias":"DIS_CODE"},{"name":"TOWNNAME","type":"esriFieldTypeString","alias":"TOWNNAME","length":8},{"name":"LI","type":"esriFieldTypeString","alias":"LI","length":8},{"name":"LIN","type":"esriFieldTypeString","alias":"LIN","length":12},{"name":"STREET","type":"esriFieldTypeString","alias":"STREET","length":20},{"name":"SECT","type":"esriFieldTypeString","alias":"SECT","length":8},{"name":"MAREA","type":"esriFieldTypeString","alias":"MAREA","length":12},{"name":"LANE","type":"esriFieldTypeString","alias":"LANE","length":10},{"name":"ALLEY","type":"esriFieldTypeString","alias":"ALLEY","length":10},{"name":"HOUSE_NO","type":"esriFieldTypeString","alias":"HOUSE_NO","length":20},{"name":"E_COORD97","type":"esriFieldTypeDouble","alias":"E_COORD97"},{"name":"N_COORD97","type":"esriFieldTypeDouble","alias":"N_COORD97"},{"name":"ADDRESS","type":"esriFieldTypeString","alias":"ADDRESS","length":50},{"name":"OBJECTID","type":"esriFieldTypeOID","alias":"OBJECTID"}],"features":[{"attributes":{"ID":646028,"DIS_CODE":0,"TOWNNAME":"仁德區","LI":"仁和里","LIN":"7鄰","STREET":"和愛街","SECT":" ","MAREA":" ","LANE":" ","ALLEY":" ","HOUSE_NO":"１３號四樓之３","E_COORD97":170453.64999999999,"N_COORD97":2540119.5299999998,"ADDRESS":"和愛街１３號四樓之３","OBJECTID":646001},"geometry":{"x":170453.64999999944,"y":2540119.5299999993}},{"attributes":{"ID":646029,"DIS_CODE":0,"TOWNNAME":"仁德區","LI":"仁和里","LIN":"7鄰","STREET":"和愛街","SECT":" ","MAREA":" ","LANE":" ","ALLEY":" ","HOUSE_NO":"１３號四樓之５","E_COORD97":170453.64999999999,"N_COORD97":2540119.5299999998,"ADDRESS":"和愛街１３號四樓之５","OBJECTID":646002},"geometry":{"x":170453.64999999944,"y":2540119.5299999993}},{"attributes":{"ID":646030,"DIS_CODE":0,"TOWNNAME":"仁德區","LI":"仁和里","LIN":"7鄰","STREET":"和愛街","SECT":" ","MAREA":" ","LANE":" ","ALLEY":" ","HOUSE_NO":"１３號五樓之１","E_COORD97":170453.64999999999,"N_COORD97":2540119.5299999998,"ADDRESS":"和愛街１３號五樓之１","OBJECTID":646003},"geometry":{"x":170453.64999999944,"y":2540119.5299999993}},{"attributes":{"ID":646031,"DIS_CODE":0,"TOWNNAME":"仁德區","LI":"仁和里","LIN":"7鄰","STREET":"和愛街","SECT":" ","MAREA":" ","LANE":" ","ALLEY":" ","HOUSE_NO":"１３號五樓之２","E_COORD97":170453.64999999999,"N_COORD97":2540119.5299999998,"ADDRESS":"和愛街１３號五樓之２","OBJECTID":646004},"geometry":{"x":170453.64999999944,"y":2540119.5299999993}},{"attributes":{"ID":646032,"DIS_CODE":0,"TOWNNAME":"仁德區","LI":"仁和里","LIN":"7鄰","STREET":"和愛街","SECT":" ","MAREA":" ","LANE":" ","ALLEY":" ","HOUSE_NO":"１３號五樓之３","E_COORD97":170453.64999999999,"N_COORD97":2540119.5299999998,"ADDRESS":"和愛街１３號五樓之３","OBJECTID":646005},"geometry":{"x":170453.64999999944,"y":2540119.5299999993}},{"attributes":{"ID":646033,"DIS_CODE":0,"TOWNNAME":"仁德區","LI":"仁和里","LIN":"7鄰","STREET":"和愛街","SECT":" ","MAREA":" ","LANE":" ","ALLEY":" ","HOUSE_NO":"１３號五樓之５","E_COORD97":170453.64999999999,"N_COORD97":2540119.5299999998,"ADDRESS":"和愛街１３號五樓之５","OBJECTID":646006},"geometry":{"x":170453.64999999944,"y":2540119.5299999993}},{"attributes":{"ID":646034,"DIS_CODE":0,"TOWNNAME":"仁德區","LI":"仁和里","LIN":"7鄰","STREET":"和愛街","SECT":" ","MAREA":" ","LANE":" ","ALLEY":" ","HOUSE_NO":"１３號六樓之１","E_COORD97":170453.64999999999,"N_COORD97":2540119.5299999998,"ADDRESS":"和愛街１３號六樓之１","OBJECTID":646007},"geometry":{"x":170453.64999999944,"y":2540119.5299999993}},{"attributes":{"ID":646035,"DIS_CODE":0,"TOWNNAME":"仁德區","LI":"仁和里","LIN":"7鄰","STREET":"和愛街","SECT":" ","MAREA":" ","LANE":" ","ALLEY":" ","HOUSE_NO":"１３號六樓之２","E_COORD97":170453.64999999999,"N_COORD97":2540119.5299999998,"ADDRESS":"和愛街１３號六樓之２","OBJECTID":646008},"geometry":{"x":170453.64999999944,"y":2540119.5299999993}},{"attributes":{"ID":646036,"DIS_CODE":0,"TOWNNAME":"仁德區","LI":"仁和里","LIN":"7鄰","STREET":"和愛街","SECT":" ","MAREA":" ","LANE":" ","ALLEY":" ","HOUSE_NO":"１３號六樓之３","E_COORD97":170453.64999999999,"N_COORD97":2540119.5299999998,"ADDRESS":"和愛街１３號六樓之３","OBJECTID":646009},"geometry":{"x":170453.64999999944,"y":2540119.5299999993}},{"attributes":{"ID":646037,"DIS_CODE":0,"TOWNNAME":"仁德區","LI":"仁和里","LIN":"7鄰","STREET":"和愛街","SECT":" ","MAREA":" ","LANE":" ","ALLEY":" ","HOUSE_NO":"１３號六樓之５","E_COORD97":170453.64999999999,"N_COORD97":2540119.5299999998,"ADDRESS":"和愛街１３號六樓之５","OBJECTID":646010},"geometry":{"x":170453.64999999944,"y":2540119.5299999993}},{"attributes":{"ID":646038,"DIS_CODE":0,"TOWNNAME":"仁德區","LI":"仁和里","LIN":"7鄰","STREET":"和愛街","SECT":" ","MAREA":" ","LANE":" ","ALLEY":" ","HOUSE_NO":"１３號七樓之１","E_COORD97":170453.64999999999,"N_COORD97":2540119.5299999998,"ADDRESS":"和愛街１３號七樓之１","OBJECTID":646011},"geometry":{"x":170453.64999999944,"y":2540119.5299999993}},{"attributes":{"ID":646039,"DIS_CODE":0,"TOWNNAME":"仁德區","LI":"仁和里","LIN":"7鄰","STREET":"和愛街","SECT":" ","MAREA":" ","LANE":" ","ALLEY":" ","HOUSE_NO":"１３號七樓之２","E_COORD97":170453.64999999999,"N_COORD97":2540119.5299999998,"ADDRESS":"和愛街１３號七樓之２","OBJECTID":646012},"geometry":{"x":170453.64999999944,"y":2540119.5299999993}},{"attributes":{"ID":646040,"DIS_CODE":0,"TOWNNAME":"仁德區","LI":"仁和里","LIN":"7鄰","STREET":"和愛街","SECT":" ","MAREA":" ","LANE":" ","ALLEY":" ","HOUSE_NO":"１３號七樓之３","E_COORD97":170453.64999999999,"N_COORD97":2540119.5299999998,"ADDRESS":"和愛街１３號七樓之３","OBJECTID":646013},"geometry":{"x":170453.64999999944,"y":2540119.5299999993}},{"attributes":{"ID":646041,"DIS_CODE":0,"TOWNNAME":"仁德區","LI":"仁和里","LIN":"7鄰","STREET":"和愛街","SECT":" ","MAREA":" ","LANE":" ","ALLEY":" ","HOUSE_NO":"１３號七樓之５","E_COORD97":170453.64999999999,"N_COORD97":2540119.5299999998,"ADDRESS":"和愛街１３號七樓之５","OBJECTID":646014},"geometry":{"x":170453.64999999944,"y":2540119.5299999993}},{"attributes":{"ID":646042,"DIS_CODE":0,"TOWNNAME":"仁德區","LI":"仁和里","LIN":"7鄰","STREET":"和愛街","SECT":" ","MAREA":" ","LANE":" ","ALLEY":" ","HOUSE_NO":"１３號八樓之１","E_COORD97":170453.64999999999,"N_COORD97":2540119.5299999998,"ADDRESS":"和愛街１３號八樓之１","OBJECTID":646015},"geometry":{"x":170453.64999999944,"y":2540119.5299999993}},{"attributes":{"ID":646043,"DIS_CODE":0,"TOWNNAME":"仁德區","LI":"仁和里","LIN":"7鄰","STREET":"和愛街","SECT":" ","MAREA":" ","LANE":" ","ALLEY":" ","HOUSE_NO":"１３號八樓之２","E_COORD97":170453.64999999999,"N_COORD97":2540119.5299999998,"ADDRESS":"和愛街１３號八樓之２","OBJECTID":646016},"geometry":{"x":170453.64999999944,"y":2540119.5299999993}},{"attributes":{"ID":646044,"DIS_CODE":0,"TOWNNAME":"仁德區","LI":"仁和里","LIN":"7鄰","STREET":"和愛街","SECT":" ","MAREA":" ","LANE":" ","ALLEY":" ","HOUSE_NO":"１３號八樓之３","E_COORD97":170453.64999999999,"N_COORD97":2540119.5299999998,"ADDRESS":"和愛街１３號八樓之３","OBJECTID":646017},"geometry":{"x":170453.64999999944,"y":2540119.5299999993}},{"attributes":{"ID":646045,"DIS_CODE":0,"TOWNNAME":"仁德區","LI":"仁和里","LIN":"7鄰","STREET":"和愛街","SECT":" ","MAREA":" ","LANE":" ","ALLEY":" ","HOUSE_NO":"１３號八樓之５","E_COORD97":170453.64999999999,"N_COORD97":2540119.5299999998,"ADDRESS":"和愛街１３號八樓之５","OBJECTID":646018},"geometry":{"x":170453.64999999944,"y":2540119.5299999993}},{"attributes":{"ID":646046,"DIS_CODE":0,"TOWNNAME":"仁德區","LI":"仁和里","LIN":"7鄰","STREET":"和愛街","SECT":" ","MAREA":" ","LANE":" ","ALLEY":" ","HOUSE_NO":"１３號九樓之１","E_COORD97":170453.64999999999,"N_COORD97":2540119.5299999998,"ADDRESS":"和愛街１３號九樓之１","OBJECTID":646019},"geometry":{"x":170453.64999999944,"y":2540119.5299999993}},{"attributes":{"ID":646047,"DIS_CODE":0,"TOWNNAME":"仁德區","LI":"仁和里","LIN":"7鄰","STREET":"和愛街","SECT":" ","MAREA":" ","LANE":" ","ALLEY":" ","HOUSE_NO":"１３號九樓之２","E_COORD97":170453.64999999999,"N_COORD97":2540119.5299999998,"ADDRESS":"和愛街１３號九樓之２","OBJECTID":646020},"geometry":{"x":170453.64999999944,"y":2540119.5299999993}},{"attributes":{"ID":646048,"DIS_CODE":0,"TOWNNAME":"仁德區","LI":"仁和里","LIN":"7鄰","STREET":"和愛街","SECT":" ","MAREA":" ","LANE":" ","ALLEY":" ","HOUSE_NO":"１３號九樓之３","E_COORD97":170453.64999999999,"N_COORD97":2540119.5299999998,"ADDRESS":"和愛街１３號九樓之３","OBJECTID":646021},"geometry":{"x":170453.64999999944,"y":2540119.5299999993}},{"attributes":{"ID":646049,"DIS_CODE":0,"TOWNNAME":"仁德區","LI":"仁和里","LIN":"7鄰","STREET":"和愛街","SECT":" ","MAREA":" ","LANE":" ","ALLEY":" ","HOUSE_NO":"１３號九樓之５","E_COORD97":170453.64999999999,"N_COORD97":2540119.5299999998,"ADDRESS":"和愛街１３號九樓之５","OBJECTID":646022},"geometry":{"x":170453.64999999944,"y":2540119.5299999993}},{"attributes":{"ID":646050,"DIS_CODE":0,"TOWNNAME":"仁德區","LI":"仁和里","LIN":"7鄰","STREET":"和愛街","SECT":" ","MAREA":" ","LANE":" ","ALLEY":" ","HOUSE_NO":"１３號十樓之１","E_COORD97":170453.64999999999,"N_COORD97":2540119.5299999998,"ADDRESS":"和愛街１３號十樓之１","OBJECTID":646023},"geometry":{"x":170453.64999999944,"y":2540119.5299999993}},{"attributes":{"ID":646051,"DIS_CODE":0,"TOWNNAME":"仁德區","LI":"仁和里","LIN":"7鄰","STREET":"和愛街","SECT":" ","MAREA":" ","LANE":" ","ALLEY":" ","HOUSE_NO":"１３號十樓之２","E_COORD97":170453.64999999999,"N_COORD97":2540119.5299999998,"ADDRESS":"和愛街１３號十樓之２","OBJECTID":646024},"geometry":{"x":170453.64999999944,"y":2540119.5299999993}},{"attributes":{"ID":646052,"DIS_CODE":0,"TOWNNAME":"仁德區","LI":"仁和里","LIN":"7鄰","STREET":"和愛街","SECT":" ","MAREA":" ","LANE":" ","ALLEY":" ","HOUSE_NO":"１３號十樓之３","E_COORD97":170453.64999999999,"N_COORD97":2540119.5299999998,"ADDRESS":"和愛街１３號十樓之３","OBJECTID":646025},"geometry":{"x":170453.64999999944,"y":2540119.5299999993}},{"attributes":{"ID":646053,"DIS_CODE":0,"TOWNNAME":"仁德區","LI":"仁和里","LIN":"7鄰","STREET":"和愛街","SECT":" ","MAREA":" ","LANE":" ","ALLEY":" ","HOUSE_NO":"１３號十樓之５","E_COORD97":170453.64999999999,"N_COORD97":2540119.5299999998,"ADDRESS":"和愛街１３號十樓之５","OBJECTID":646026},"geometry":{"x":170453.64999999944,"y":2540119.5299999993}},{"attributes":{"ID":646054,"DIS_CODE":0,"TOWNNAME":"仁德區","LI":"仁和里","LIN":"7鄰","STREET":"和愛街","SECT":" ","MAREA":" ","LANE":" ","ALLEY":" ","HOUSE_NO":"１３號十一樓之１","E_COORD97":170453.64999999999,"N_COORD97":2540119.5299999998,"ADDRESS":"和愛街１３號十一樓之１","OBJECTID":646027},"geometry":{"x":170453.64999999944,"y":2540119.5299999993}},{"attributes":{"ID":646055,"DIS_CODE":0,"TOWNNAME":"仁德區","LI":"仁和里","LIN":"7鄰","STREET":"和愛街","SECT":" ","MAREA":" ","LANE":" ","ALLEY":" ","HOUSE_NO":"１３號十一樓之２","E_COORD97":170453.64999999999,"N_COORD97":2540119.5299999998,"ADDRESS":"和愛街１３號十一樓之２","OBJECTID":646028},"geometry":{"x":170453.64999999944,"y":2540119.5299999993}},{"attributes":{"ID":646056,"DIS_CODE":0,"TOWNNAME":"仁德區","LI":"仁和里","LIN":"7鄰","STREET":"和愛街","SECT":" ","MAREA":" ","LANE":" ","ALLEY":" ","HOUSE_NO":"１３號十一樓之３","E_COORD97":170453.64999999999,"N_COORD97":2540119.5299999998,"ADDRESS":"和愛街１３號十一樓之３","OBJECTID":646029},"geometry":{"x":170453.64999999944,"y":2540119.5299999993}},{"attributes":{"ID":646057,"DIS_CODE":0,"TOWNNAME":"仁德區","LI":"仁和里","LIN":"7鄰","STREET":"和愛街","SECT":" ","MAREA":" ","LANE":" ","ALLEY":" ","HOUSE_NO":"１３號十一樓之５","E_COORD97":170453.64999999999,"N_COORD97":2540119.5299999998,"ADDRESS":"和愛街１３號十一樓之５","OBJECTID":646030},"geometry":{"x":170453.64999999944,"y":2540119.5299999993}},{"attributes":{"ID":646058,"DIS_CODE":0,"TOWNNAME":"仁德區","LI":"仁和里","LIN":"7鄰","STREET":"和愛街","SECT":" ","MAREA":" ","LANE":" ","ALLEY":" ","HOUSE_NO":"１３號十二樓之１","E_COORD97":170453.64999999999,"N_COORD97":2540119.5299999998,"ADDRESS":"和愛街１３號十二樓之１","OBJECTID":646031},"geometry":{"x":170453.64999999944,"y":2540119.5299999993}},{"attributes":{"ID":646059,"DIS_CODE":0,"TOWNNAME":"仁德區","LI":"仁和里","LIN":"7鄰","STREET":"和愛街","SECT":" ","MAREA":" ","LANE":" ","ALLEY":" ","HOUSE_NO":"１３號十二樓之２","E_COORD97":170453.64999999999,"N_COORD97":2540119.5299999998,"ADDRESS":"和愛街１３號十二樓之２","OBJECTID":646032},"geometry":{"x":170453.64999999944,"y":2540119.5299999993}},{"attributes":{"ID":646060,"DIS_CODE":0,"TOWNNAME":"仁德區","LI":"仁和里","LIN":"7鄰","STREET":"和愛街","SECT":" ","MAREA":" ","LANE":" ","ALLEY":" ","HOUSE_NO":"１３號十二樓之３","E_COORD97":170453.64999999999,"N_COORD97":2540119.5299999998,"ADDRESS":"和愛街１３號十二樓之３","OBJECTID":646033},"geometry":{"x":170453.64999999944,"y":2540119.5299999993}},{"attributes":{"ID":646061,"DIS_CODE":0,"TOWNNAME":"仁德區","LI":"仁和里","LIN":"7鄰","STREET":"和愛街","SECT":" ","MAREA":" ","LANE":" ","ALLEY":" ","HOUSE_NO":"１３號十二樓之５","E_COORD97":170453.64999999999,"N_COORD97":2540119.5299999998,"ADDRESS":"和愛街１３號十二樓之５","OBJECTID":646034},"geometry":{"x":170453.64999999944,"y":2540119.5299999993}},{"attributes":{"ID":646062,"DIS_CODE":0,"TOWNNAME":"仁德區","LI":"仁和里","LIN":"7鄰","STREET":"和愛街","SECT":" ","MAREA":" ","LANE":" ","ALLEY":" ","HOUSE_NO":"１３號十三樓之１","E_COORD97":170453.64999999999,"N_COORD97":2540119.5299999998,"ADDRESS":"和愛街１３號十三樓之１","OBJECTID":646035},"geometry":{"x":170453.64999999944,"y":2540119.5299999993}},{"attributes":{"ID":646063,"DIS_CODE":0,"TOWNNAME":"仁德區","LI":"仁和里","LIN":"7鄰","STREET":"和愛街","SECT":" ","MAREA":" ","LANE":" ","ALLEY":" ","HOUSE_NO":"１３號十三樓之２","E_COORD97":170453.64999999999,"N_COORD97":2540119.5299999998,"ADDRESS":"和愛街１３號十三樓之２","OBJECTID":646036},"geometry":{"x":170453.64999999944,"y":2540119.5299999993}},{"attributes":{"ID":646064,"DIS_CODE":0,"TOWNNAME":"永康區","LI":"大橋里","LIN":"8鄰","STREET":"大橋三街","SECT":" ","MAREA":" ","LANE":"１９９巷","ALLEY":" ","HOUSE_NO":"５０號","E_COORD97":170914.37209200001,"N_COORD97":2546866.88796,"ADDRESS":"大橋三街１９９巷５０號","OBJECTID":646037},"geometry":{"x":170914.37209200114,"y":2546866.8879639991}},{"attributes":{"ID":646065,"DIS_CODE":0,"TOWNNAME":"仁德區","LI":"仁和里","LIN":"7鄰","STREET":"和愛街","SECT":" ","MAREA":" ","LANE":" ","ALLEY":" ","HOUSE_NO":"１３號十三樓之３","E_COORD97":170453.64999999999,"N_COORD97":2540119.5299999998,"ADDRESS":"和愛街１３號十三樓之３","OBJECTID":646038},"geometry":{"x":170453.64999999944,"y":2540119.5299999993}},{"attributes":{"ID":646066,"DIS_CODE":0,"TOWNNAME":"仁德區","LI":"仁和里","LIN":"7鄰","STREET":"和愛街","SECT":" ","MAREA":" ","LANE":" ","ALLEY":" ","HOUSE_NO":"１３號十三樓之５","E_COORD97":170453.64999999999,"N_COORD97":2540119.5299999998,"ADDRESS":"和愛街１３號十三樓之５","OBJECTID":646039},"geometry":{"x":170453.64999999944,"y":2540119.5299999993}},{"attributes":{"ID":646067,"DIS_CODE":0,"TOWNNAME":"永康區","LI":"大橋里","LIN":"8鄰","STREET":"大橋三街","SECT":" ","MAREA":" ","LANE":"１９９巷","ALLEY":" ","HOUSE_NO":"５２號","E_COORD97":170917.55136099999,"N_COORD97":2546869.2163,"ADDRESS":"大橋三街１９９巷５２號","OBJECTID":646040},"geometry":{"x":170917.5513610011,"y":2546869.2162960023}},{"attributes":{"ID":646068,"DIS_CODE":0,"TOWNNAME":"永康區","LI":"大橋里","LIN":"8鄰","STREET":"大橋三街","SECT":" ","MAREA":" ","LANE":"１９９巷","ALLEY":" ","HOUSE_NO":"５６號","E_COORD97":170921.36648500001,"N_COORD97":2546871.96796,"ADDRESS":"大橋三街１９９巷５６號","OBJECTID":646041},"geometry":{"x":170921.36648499966,"y":2546871.9679620024}},{"attributes":{"ID":646069,"DIS_CODE":0,"TOWNNAME":"永康區","LI":"大橋里","LIN":"8鄰","STREET":"大橋三街","SECT":" ","MAREA":" ","LANE":"１９９巷","ALLEY":" ","HOUSE_NO":"５８號","E_COORD97":170924.757705,"N_COORD97":2546874.5079600001,"ADDRESS":"大橋三街１９９巷５８號","OBJECTID":646042},"geometry":{"x":170924.75770500116,"y":2546874.5079600029}},{"attributes":{"ID":646070,"DIS_CODE":0,"TOWNNAME":"永康區","LI":"大橋里","LIN":"8鄰","STREET":"大橋三街","SECT":" ","MAREA":" ","LANE":"１９９巷","ALLEY":" ","HOUSE_NO":"６０號","E_COORD97":170927.93697499999,"N_COORD97":2546876.4129599999,"ADDRESS":"大橋三街１９９巷６０號","OBJECTID":646043},"geometry":{"x":170927.93697500043,"y":2546876.412959002}},{"attributes":{"ID":646071,"DIS_CODE":0,"TOWNNAME":"新營區","LI":"延平里","LIN":"1鄰","STREET":"武侯街","SECT":" ","MAREA":" ","LANE":" ","ALLEY":" ","HOUSE_NO":"２號","E_COORD97":179707.048947,"N_COORD97":2577677.7815999999,"ADDRESS":"武侯街２號","OBJECTID":646044},"geometry":{"x":179707.04894699994,"y":2577677.7816000003}},{"attributes":{"ID":646072,"DIS_CODE":0,"TOWNNAME":"永康區","LI":"大橋里","LIN":"8鄰","STREET":"大橋三街","SECT":" ","MAREA":" ","LANE":"１９９巷","ALLEY":" ","HOUSE_NO":"６２號","E_COORD97":170931.32819599999,"N_COORD97":2546878.7412899998,"ADDRESS":"大橋三街１９９巷６２號","OBJECTID":646045},"geometry":{"x":170931.32819600031,"y":2546878.7412909996}},{"attributes":{"ID":646073,"DIS_CODE":0,"TOWNNAME":"新營區","LI":"延平里","LIN":"1鄰","STREET":"武侯街","SECT":" ","MAREA":" ","LANE":" ","ALLEY":" ","HOUSE_NO":"２之１號","E_COORD97":179705.353561,"N_COORD97":2577680.9566000002,"ADDRESS":"武侯街２之１號","OBJECTID":646046},"geometry":{"x":179705.3535610009,"y":2577680.9565980006}},{"attributes":{"ID":646074,"DIS_CODE":0,"TOWNNAME":"永康區","LI":"大橋里","LIN":"8鄰","STREET":"大橋三街","SECT":" ","MAREA":" ","LANE":"１９９巷","ALLEY":" ","HOUSE_NO":"６６號","E_COORD97":170934.507465,"N_COORD97":2546880.6462900001,"ADDRESS":"大橋三街１９９巷６６號","OBJECTID":646047},"geometry":{"x":170934.50746500026,"y":2546880.6462900005}},{"attributes":{"ID":646075,"DIS_CODE":0,"TOWNNAME":"永康區","LI":"大橋里","LIN":"8鄰","STREET":"大橋三街","SECT":" ","MAREA":" ","LANE":"１９９巷","ALLEY":" ","HOUSE_NO":"６８號","E_COORD97":170938.11063700001,"N_COORD97":2546882.3396200002,"ADDRESS":"大橋三街１９９巷６８號","OBJECTID":646048},"geometry":{"x":170938.11063700076,"y":2546882.3396230023}},{"attributes":{"ID":646076,"DIS_CODE":0,"TOWNNAME":"永康區","LI":"大橋里","LIN":"8鄰","STREET":"大橋三街","SECT":" ","MAREA":" ","LANE":"１９９巷","ALLEY":" ","HOUSE_NO":"７０號","E_COORD97":170941.501858,"N_COORD97":2546885.7262900001,"ADDRESS":"大橋三街１９９巷７０號","OBJECTID":646049},"geometry":{"x":170941.50185800157,"y":2546885.726288002}},{"attributes":{"ID":646077,"DIS_CODE":0,"TOWNNAME":"新營區","LI":"延平里","LIN":"1鄰","STREET":"武侯街","SECT":" ","MAREA":" ","LANE":" ","ALLEY":" ","HOUSE_NO":"４號","E_COORD97":179725.27435399999,"N_COORD97":2577693.6565899998,"ADDRESS":"武侯街４號","OBJECTID":646050},"geometry":{"x":179725.27435400151,"y":2577693.6565920021}},{"attributes":{"ID":646078,"DIS_CODE":0,"TOWNNAME":"仁德區","LI":"仁和里","LIN":"8鄰","STREET":"和愛街","SECT":" ","MAREA":" ","LANE":" ","ALLEY":" ","HOUSE_NO":"６號二樓之１","E_COORD97":170386.70999999999,"N_COORD97":2540084.0899999999,"ADDRESS":"和愛街６號二樓之１","OBJECTID":646051},"geometry":{"x":170386.71000000183,"y":2540084.0900000036}},{"attributes":{"ID":646079,"DIS_CODE":0,"TOWNNAME":"新營區","LI":"延平里","LIN":"1鄰","STREET":"武侯街","SECT":" ","MAREA":" ","LANE":" ","ALLEY":" ","HOUSE_NO":"６號","E_COORD97":179714.46626399999,"N_COORD97":2577694.07993,"ADDRESS":"武侯街６號","OBJECTID":646052},"geometry":{"x":179714.46626400203,"y":2577694.0799250007}},{"attributes":{"ID":646080,"DIS_CODE":0,"TOWNNAME":"仁德區","LI":"仁和里","LIN":"8鄰","STREET":"和愛街","SECT":" ","MAREA":" ","LANE":" ","ALLEY":" ","HOUSE_NO":"６號二樓之２","E_COORD97":170386.70999999999,"N_COORD97":2540084.0899999999,"ADDRESS":"和愛街６號二樓之２","OBJECTID":646053},"geometry":{"x":170386.71000000183,"y":2540084.0900000036}},{"attributes":{"ID":646081,"DIS_CODE":0,"TOWNNAME":"仁德區","LI":"仁和里","LIN":"8鄰","STREET":"和愛街","SECT":" ","MAREA":" ","LANE":" ","ALLEY":" ","HOUSE_NO":"６號二樓之３","E_COORD97":170386.70999999999,"N_COORD97":2540084.0899999999,"ADDRESS":"和愛街６號二樓之３","OBJECTID":646054},"geometry":{"x":170386.71000000183,"y":2540084.0900000036}},{"attributes":{"ID":646082,"DIS_CODE":0,"TOWNNAME":"仁德區","LI":"仁和里","LIN":"8鄰","STREET":"和愛街","SECT":" ","MAREA":" ","LANE":" ","ALLEY":" ","HOUSE_NO":"６號二樓之５","E_COORD97":170386.70999999999,"N_COORD97":2540084.0899999999,"ADDRESS":"和愛街６號二樓之５","OBJECTID":646055},"geometry":{"x":170386.71000000183,"y":2540084.0900000036}},{"attributes":{"ID":646083,"DIS_CODE":0,"TOWNNAME":"永康區","LI":"西灣里","LIN":"18鄰","STREET":"民族路","SECT":" ","MAREA":" ","LANE":" ","ALLEY":" ","HOUSE_NO":"５３６號","E_COORD97":174447.38821599999,"N_COORD97":2545496.6645399998,"ADDRESS":"民族路５３６號","OBJECTID":646056},"geometry":{"x":174447.38821600005,"y":2545496.6645379998}},{"attributes":{"ID":646084,"DIS_CODE":0,"TOWNNAME":"新營區","LI":"延平里","LIN":"1鄰","STREET":"武侯街","SECT":" ","MAREA":" ","LANE":" ","ALLEY":" ","HOUSE_NO":"８之１號","E_COORD97":179701.327017,"N_COORD97":2577689.3174299998,"ADDRESS":"武侯街８之１號","OBJECTID":646057},"geometry":{"x":179701.32701700181,"y":2577689.317427}},{"attributes":{"ID":646085,"DIS_CODE":0,"TOWNNAME":"新營區","LI":"延平里","LIN":"1鄰","STREET":"武侯街","SECT":" ","MAREA":" ","LANE":" ","ALLEY":" ","HOUSE_NO":"１０號","E_COORD97":179699.207784,"N_COORD97":2577695.6674199998,"ADDRESS":"武侯街１０號","OBJECTID":646058},"geometry":{"x":179699.20778400078,"y":2577695.6674240027}},{"attributes":{"ID":646086,"DIS_CODE":0,"TOWNNAME":"新營區","LI":"延平里","LIN":"1鄰","STREET":"武侯街","SECT":" ","MAREA":" ","LANE":" ","ALLEY":" ","HOUSE_NO":"１２號","E_COORD97":179704.08202100001,"N_COORD97":2577706.8857499999,"ADDRESS":"武侯街１２號","OBJECTID":646059},"geometry":{"x":179704.08202100173,"y":2577706.8857509997}},{"attributes":{"ID":646087,"DIS_CODE":0,"TOWNNAME":"新營區","LI":"延平里","LIN":"1鄰","STREET":"武侯街","SECT":" ","MAREA":" ","LANE":" ","ALLEY":" ","HOUSE_NO":"１６號","E_COORD97":179700.05547699999,"N_COORD97":2577715.9874100001,"ADDRESS":"武侯街１６號","OBJECTID":646060},"geometry":{"x":179700.05547699984,"y":2577715.9874130003}},{"attributes":{"ID":646088,"DIS_CODE":0,"TOWNNAME":"永康區","LI":"五王里","LIN":"1鄰","STREET":"中華二路","SECT":" ","MAREA":" ","LANE":" ","ALLEY":" ","HOUSE_NO":"１６０號","E_COORD97":171702.61895500001,"N_COORD97":2545442.1603999999,"ADDRESS":"中華二路１６０號","OBJECTID":646061},"geometry":{"x":171702.61895500124,"y":2545442.1604000013}},{"attributes":{"ID":646089,"DIS_CODE":0,"TOWNNAME":"安南區","LI":"長安里","LIN":"19鄰","STREET":"公學路","SECT":"二段","MAREA":" ","LANE":" ","ALLEY":" ","HOUSE_NO":"２６６號","E_COORD97":167382.70434299999,"N_COORD97":2552117.4715499999,"ADDRESS":"公學路二段２６６號","OBJECTID":646062},"geometry":{"x":167382.70434300229,"y":2552117.4715470001}},{"attributes":{"ID":646090,"DIS_CODE":0,"TOWNNAME":"永康區","LI":"龍潭里","LIN":"2鄰","STREET":"龍潭街","SECT":" ","MAREA":" ","LANE":"７５巷","ALLEY":" ","HOUSE_NO":"２７號","E_COORD97":174729.071486,"N_COORD97":2548058.9939899999,"ADDRESS":"龍潭街７５巷２７號","OBJECTID":646063},"geometry":{"x":174729.07148599904,"y":2548058.9939869996}},{"attributes":{"ID":646091,"DIS_CODE":0,"TOWNNAME":"永康區","LI":"龍潭里","LIN":"2鄰","STREET":"龍潭街","SECT":" ","MAREA":" ","LANE":"７５巷","ALLEY":" ","HOUSE_NO":"２９號","E_COORD97":174725.89221699999,"N_COORD97":2548060.2639899999,"ADDRESS":"龍潭街７５巷２９號","OBJECTID":646064},"geometry":{"x":174725.89221699908,"y":2548060.2639870029}},{"attributes":{"ID":646092,"DIS_CODE":0,"TOWNNAME":"新營區","LI":"忠政里","LIN":"24鄰","STREET":"健康路","SECT":" ","MAREA":" ","LANE":" ","ALLEY":" ","HOUSE_NO":"２３２號","E_COORD97":179670.67214899999,"N_COORD97":2579466.7662,"ADDRESS":"健康路２３２號","OBJECTID":646065},"geometry":{"x":179670.67214899976,"y":2579466.7661980018}},{"attributes":{"ID":646093,"DIS_CODE":0,"TOWNNAME":"永康區","LI":"龍潭里","LIN":"2鄰","STREET":"龍潭街","SECT":" ","MAREA":" ","LANE":"７５巷","ALLEY":" ","HOUSE_NO":"３１號","E_COORD97":174721.22928900001,"N_COORD97":2548061.5339899999,"ADDRESS":"龍潭街７５巷３１號","OBJECTID":646066},"geometry":{"x":174721.22928899992,"y":2548061.5339860041}},{"attributes":{"ID":646094,"DIS_CODE":0,"TOWNNAME":"永康區","LI":"龍潭里","LIN":"2鄰","STREET":"龍潭街","SECT":" ","MAREA":" ","LANE":"７５巷","ALLEY":" ","HOUSE_NO":"３３號","E_COORD97":174717.62611700001,"N_COORD97":2548062.8039899999,"ADDRESS":"龍潭街７５巷３３號","OBJECTID":646067},"geometry":{"x":174717.62611700129,"y":2548062.8039849997}},{"attributes":{"ID":646095,"DIS_CODE":0,"TOWNNAME":"永康區","LI":"龍潭里","LIN":"2鄰","STREET":"龍潭街","SECT":" ","MAREA":" ","LANE":"７５巷","ALLEY":" ","HOUSE_NO":"３５號","E_COORD97":174714.022945,"N_COORD97":2548063.6506500002,"ADDRESS":"龍潭街７５巷３５號","OBJECTID":646068},"geometry":{"x":174714.02294499986,"y":2548063.6506510004}},{"attributes":{"ID":646096,"DIS_CODE":0,"TOWNNAME":"永康區","LI":"龍潭里","LIN":"2鄰","STREET":"龍潭街","SECT":" ","MAREA":" ","LANE":"７５巷","ALLEY":" ","HOUSE_NO":"３７號","E_COORD97":174710.20782099999,"N_COORD97":2548065.3439799999,"ADDRESS":"龍潭街７５巷３７號","OBJECTID":646069},"geometry":{"x":174710.2078210013,"y":2548065.3439840022}},{"attributes":{"ID":646097,"DIS_CODE":0,"TOWNNAME":"永康區","LI":"龍潭里","LIN":"2鄰","STREET":"龍潭街","SECT":" ","MAREA":" ","LANE":"７５巷","ALLEY":" ","HOUSE_NO":"３９號","E_COORD97":174706.816601,"N_COORD97":2548066.6139799999,"ADDRESS":"龍潭街７５巷３９號","OBJECTID":646070},"geometry":{"x":174706.81660100073,"y":2548066.6139830034}},{"attributes":{"ID":646098,"DIS_CODE":0,"TOWNNAME":"新營區","LI":"忠政里","LIN":"24鄰","STREET":"健康路","SECT":" ","MAREA":" ","LANE":" ","ALLEY":" ","HOUSE_NO":"２１０號","E_COORD97":179672.04869900001,"N_COORD97":2579413.6378899999,"ADDRESS":"健康路２１０號","OBJECTID":646071},"geometry":{"x":179672.04869900178,"y":2579413.6378940027}},{"attributes":{"ID":646099,"DIS_CODE":0,"TOWNNAME":"仁德區","LI":"新田里","LIN":"4鄰","STREET":"勝利路","SECT":" ","MAREA":" ","LANE":"１３２巷","ALLEY":"１２弄","HOUSE_NO":"３０號","E_COORD97":174378.959668,"N_COORD97":2539422.88766,"ADDRESS":"勝利路１３２巷１２弄３０號","OBJECTID":646072},"geometry":{"x":174378.95966800209,"y":2539422.8876569998}},{"attributes":{"ID":646100,"DIS_CODE":0,"TOWNNAME":"永康區","LI":"南灣里","LIN":"16鄰","STREET":"大灣一街","SECT":" ","MAREA":" ","LANE":" ","ALLEY":" ","HOUSE_NO":"１１３號","E_COORD97":174531.53288000001,"N_COORD97":2544711.48746,"ADDRESS":"大灣一街１１３號","OBJECTID":646073},"geometry":{"x":174531.53287999891,"y":2544711.4874620009}},{"attributes":{"ID":646101,"DIS_CODE":0,"TOWNNAME":"安南區","LI":"長安里","LIN":"2鄰","STREET":"長溪路","SECT":"三段","MAREA":" ","LANE":"３７３巷","ALLEY":"３８弄","HOUSE_NO":"２３號","E_COORD97":167563.31263,"N_COORD97":2551950.57247,"ADDRESS":"長溪路三段３７３巷３８弄２３號","OBJECTID":646074},"geometry":{"x":167563.31263000052,"y":2551950.5724710021}},{"attributes":{"ID":646102,"DIS_CODE":0,"TOWNNAME":"安南區","LI":"長安里","LIN":"2鄰","STREET":"長溪路","SECT":"三段","MAREA":" ","LANE":"３７３巷","ALLEY":"３８弄","HOUSE_NO":"２１號","E_COORD97":167568.28835700001,"N_COORD97":2551953.8533000001,"ADDRESS":"長溪路三段３７３巷３８弄２１號","OBJECTID":646075},"geometry":{"x":167568.28835699987,"y":2551953.853302002}},{"attributes":{"ID":646103,"DIS_CODE":0,"TOWNNAME":"安南區","LI":"長安里","LIN":"2鄰","STREET":"長溪路","SECT":"三段","MAREA":" ","LANE":"３７３巷","ALLEY":"５１弄","HOUSE_NO":"１５號","E_COORD97":167607.88243600001,"N_COORD97":2551842.4108600002,"ADDRESS":"長溪路三段３７３巷５１弄１５號","OBJECTID":646076},"geometry":{"x":167607.88243599981,"y":2551842.4108620007}},{"attributes":{"ID":646104,"DIS_CODE":0,"TOWNNAME":"安南區","LI":"長安里","LIN":"5鄰","STREET":"長溪路","SECT":"三段","MAREA":" ","LANE":"４０５巷","ALLEY":"４０弄","HOUSE_NO":"７６號","E_COORD97":167409.27684000001,"N_COORD97":2551998.1974499999,"ADDRESS":"長溪路三段４０５巷４０弄７６號","OBJECTID":646077},"geometry":{"x":167409.27684000041,"y":2551998.1974450033}},{"attributes":{"ID":646105,"DIS_CODE":0,"TOWNNAME":"安南區","LI":"長安里","LIN":"4鄰","STREET":"長溪路","SECT":"三段","MAREA":" ","LANE":"３７３巷","ALLEY":" ","HOUSE_NO":"６５之１號","E_COORD97":167481.26607499999,"N_COORD97":2551857.4391899998,"ADDRESS":"長溪路三段３７３巷６５之１號","OBJECTID":646078},"geometry":{"x":167481.2660750011,"y":2551857.4391879998}},{"attributes":{"ID":646106,"DIS_CODE":0,"TOWNNAME":"安南區","LI":"長安里","LIN":"23鄰","STREET":"長溪路","SECT":"三段","MAREA":" ","LANE":"３７３巷","ALLEY":"２１弄","HOUSE_NO":"８０號","E_COORD97":167569.347022,"N_COORD97":2551770.0208999999,"ADDRESS":"長溪路三段３７３巷２１弄８０號","OBJECTID":646079},"geometry":{"x":167569.3470220007,"y":2551770.0209020041}},{"attributes":{"ID":646107,"DIS_CODE":0,"TOWNNAME":"仁德區","LI":"新田里","LIN":"4鄰","STREET":"義林南路","SECT":" ","MAREA":" ","LANE":"９６１巷","ALLEY":"１３６弄","HOUSE_NO":"１５１號","E_COORD97":173869.620176,"N_COORD97":2539337.2685400001,"ADDRESS":"義林南路９６１巷１３６弄１５１號","OBJECTID":646080},"geometry":{"x":173869.62017600052,"y":2539337.2685370017}},{"attributes":{"ID":646108,"DIS_CODE":0,"TOWNNAME":"永康區","LI":"埔園里","LIN":"31鄰","STREET":"八德街","SECT":" ","MAREA":" ","LANE":" ","ALLEY":" ","HOUSE_NO":"３０８號","E_COORD97":173664.016233,"N_COORD97":2548593.0287000001,"ADDRESS":"八德街３０８號","OBJECTID":646081},"geometry":{"x":173664.01623299997,"y":2548593.0286989976}},{"attributes":{"ID":646109,"DIS_CODE":0,"TOWNNAME":"永康區","LI":"埔園里","LIN":"31鄰","STREET":"八德街","SECT":" ","MAREA":" ","LANE":" ","ALLEY":" ","HOUSE_NO":"３０６號","E_COORD97":173670.16282,"N_COORD97":2548592.60537,"ADDRESS":"八德街３０６號","OBJECTID":646082},"geometry":{"x":173670.16282000206,"y":2548592.605365999}},{"attributes":{"ID":646110,"DIS_CODE":0,"TOWNNAME":"永康區","LI":"埔園里","LIN":"31鄰","STREET":"八德街","SECT":" ","MAREA":" ","LANE":" ","ALLEY":" ","HOUSE_NO":"３０２號","E_COORD97":173671.95260399999,"N_COORD97":2548592.37898,"ADDRESS":"八德街３０２號","OBJECTID":646083},"geometry":{"x":173671.95260399953,"y":2548592.3789810017}},{"attributes":{"ID":646111,"DIS_CODE":0,"TOWNNAME":"永康區","LI":"埔園里","LIN":"31鄰","STREET":"八德街","SECT":" ","MAREA":" ","LANE":" ","ALLEY":" ","HOUSE_NO":"３１０號","E_COORD97":173658.92940200001,"N_COORD97":2548593.2403699998,"ADDRESS":"八德街３１０號","OBJECTID":646084},"geometry":{"x":173658.92940199934,"y":2548593.2403650004}},{"attributes":{"ID":646112,"DIS_CODE":0,"TOWNNAME":"安南區","LI":"長安里","LIN":"20鄰","STREET":"長溪路","SECT":"三段","MAREA":" ","LANE":" ","ALLEY":" ","HOUSE_NO":"４０６號","E_COORD97":167675.213544,"N_COORD97":2552068.8940699999,"ADDRESS":"長溪路三段４０６號","OBJECTID":646085},"geometry":{"x":167675.21354399994,"y":2552068.894073002}},{"attributes":{"ID":646113,"DIS_CODE":0,"TOWNNAME":"安南區","LI":"長安里","LIN":"20鄰","STREET":"長溪路","SECT":"三段","MAREA":" ","LANE":" ","ALLEY":" ","HOUSE_NO":"４１０號","E_COORD97":167665.05035800001,"N_COORD97":2552066.9890700001,"ADDRESS":"長溪路三段４１０號","OBJECTID":646086},"geometry":{"x":167665.05035800114,"y":2552066.9890740011}},{"attributes":{"ID":646114,"DIS_CODE":0,"TOWNNAME":"新營區","LI":"忠政里","LIN":"24鄰","STREET":"健康路","SECT":" ","MAREA":" ","LANE":" ","ALLEY":" ","HOUSE_NO":"８６號","E_COORD97":179673.74849999999,"N_COORD97":2579118.8490300002,"ADDRESS":"健康路８６號","OBJECTID":646087},"geometry":{"x":179673.74849999975,"y":2579118.8490280025}},{"attributes":{"ID":646115,"DIS_CODE":0,"TOWNNAME":"楠西區","LI":"東勢里","LIN":"19鄰","STREET":"水庫路","SECT":" ","MAREA":" ","LANE":" ","ALLEY":" ","HOUSE_NO":"５６０號","E_COORD97":197621.03329799999,"N_COORD97":2563436.9512,"ADDRESS":"水庫路５６０號","OBJECTID":646088},"geometry":{"x":197621.03329800069,"y":2563436.9511949997}},{"attributes":{"ID":646116,"DIS_CODE":0,"TOWNNAME":"新營區","LI":"忠政里","LIN":"24鄰","STREET":"健康路","SECT":" ","MAREA":" ","LANE":" ","ALLEY":" ","HOUSE_NO":"３２號","E_COORD97":179685.40202199999,"N_COORD97":2578963.6974499999,"ADDRESS":"健康路３２號","OBJECTID":646089},"geometry":{"x":179685.4020220004,"y":2578963.6974449996}},{"attributes":{"ID":646117,"DIS_CODE":0,"TOWNNAME":"安南區","LI":"長安里","LIN":"8鄰","STREET":"長溪路","SECT":"三段","MAREA":" ","LANE":" ","ALLEY":" ","HOUSE_NO":"４４９號","E_COORD97":167574.42861500001,"N_COORD97":2552095.1407300001,"ADDRESS":"長溪路三段４４９號","OBJECTID":646090},"geometry":{"x":167574.42861500103,"y":2552095.1407260019}},{"attributes":{"ID":646118,"DIS_CODE":0,"TOWNNAME":"新營區","LI":"延平里","LIN":"1鄰","STREET":"南昌街","SECT":" ","MAREA":" ","LANE":" ","ALLEY":" ","HOUSE_NO":"２號","E_COORD97":179744.983224,"N_COORD97":2577670.3732699999,"ADDRESS":"南昌街２號","OBJECTID":646091},"geometry":{"x":179744.98322399985,"y":2577670.3732709996}},{"attributes":{"ID":646119,"DIS_CODE":0,"TOWNNAME":"安南區","LI":"長安里","LIN":"8鄰","STREET":"長溪路","SECT":"三段","MAREA":" ","LANE":" ","ALLEY":" ","HOUSE_NO":"４４３號","E_COORD97":167579.51020799999,"N_COORD97":2552095.7757299999,"ADDRESS":"長溪路三段４４３號","OBJECTID":646092},"geometry":{"x":167579.51020800136,"y":2552095.7757260017}},{"attributes":{"ID":646120,"DIS_CODE":0,"TOWNNAME":"安南區","LI":"長安里","LIN":"8鄰","STREET":"長溪路","SECT":"三段","MAREA":" ","LANE":" ","ALLEY":" ","HOUSE_NO":"４６３號","E_COORD97":167547.96198399999,"N_COORD97":2552119.0590499998,"ADDRESS":"長溪路三段４６３號","OBJECTID":646093},"geometry":{"x":167547.9619840011,"y":2552119.0590460021}},{"attributes":{"ID":646121,"DIS_CODE":0,"TOWNNAME":"新營區","LI":"延平里","LIN":"1鄰","STREET":"南昌街","SECT":" ","MAREA":" ","LANE":" ","ALLEY":" ","HOUSE_NO":"４號","E_COORD97":179740.32091099999,"N_COORD97":2577670.4791000001,"ADDRESS":"南昌街４號","OBJECTID":646094},"geometry":{"x":179740.32091100048,"y":2577670.4791039992}},{"attributes":{"ID":646122,"DIS_CODE":0,"TOWNNAME":"安南區","LI":"長安里","LIN":"8鄰","STREET":"長溪路","SECT":"三段","MAREA":" ","LANE":" ","ALLEY":" ","HOUSE_NO":"４４２號","E_COORD97":167635.19599899999,"N_COORD97":2552109.1107200002,"ADDRESS":"長溪路三段４４２號","OBJECTID":646095},"geometry":{"x":167635.19599900022,"y":2552109.1107180007}},{"attributes":{"ID":646123,"DIS_CODE":0,"TOWNNAME":"新營區","LI":"延平里","LIN":"1鄰","STREET":"南昌街","SECT":" ","MAREA":" ","LANE":" ","ALLEY":" ","HOUSE_NO":"６號","E_COORD97":179736.294368,"N_COORD97":2577670.9024399999,"ADDRESS":"南昌街６號","OBJECTID":646096},"geometry":{"x":179736.2943680007,"y":2577670.9024369977}},{"attributes":{"ID":646124,"DIS_CODE":0,"TOWNNAME":"新營區","LI":"延平里","LIN":"1鄰","STREET":"南昌街","SECT":" ","MAREA":" ","LANE":" ","ALLEY":" ","HOUSE_NO":"６之１號","E_COORD97":179732.69167100001,"N_COORD97":2577670.9024399999,"ADDRESS":"南昌街６之１號","OBJECTID":646097},"geometry":{"x":179732.69167100079,"y":2577670.9024369977}},{"attributes":{"ID":646125,"DIS_CODE":0,"TOWNNAME":"新營區","LI":"延平里","LIN":"1鄰","STREET":"南昌街","SECT":" ","MAREA":" ","LANE":" ","ALLEY":" ","HOUSE_NO":"８號","E_COORD97":179726.75781700001,"N_COORD97":2577671.32577,"ADDRESS":"南昌街８號","OBJECTID":646098},"geometry":{"x":179726.75781700015,"y":2577671.3257700019}},{"attributes":{"ID":646126,"DIS_CODE":0,"TOWNNAME":"新營區","LI":"延平里","LIN":"1鄰","STREET":"南昌街","SECT":" ","MAREA":" ","LANE":" ","ALLEY":" ","HOUSE_NO":"１０號","E_COORD97":179720.82396400001,"N_COORD97":2577670.4791000001,"ADDRESS":"南昌街１０號","OBJECTID":646099},"geometry":{"x":179720.82396399975,"y":2577670.4791039992}},{"attributes":{"ID":646127,"DIS_CODE":0,"TOWNNAME":"新營區","LI":"延平里","LIN":"1鄰","STREET":"南昌街","SECT":" ","MAREA":" ","LANE":" ","ALLEY":" ","HOUSE_NO":"１２號","E_COORD97":179716.161651,"N_COORD97":2577670.2674400001,"ADDRESS":"南昌街１２號","OBJECTID":646100},"geometry":{"x":179716.16165100038,"y":2577670.2674380019}},{"attributes":{"ID":646128,"DIS_CODE":0,"TOWNNAME":"新營區","LI":"延平里","LIN":"1鄰","STREET":"南昌街","SECT":" ","MAREA":" ","LANE":" ","ALLEY":" ","HOUSE_NO":"１４號","E_COORD97":179711.075491,"N_COORD97":2577670.05577,"ADDRESS":"南昌街１４號","OBJECTID":646101},"geometry":{"x":179711.0754910009,"y":2577670.0557710007}},{"attributes":{"ID":646129,"DIS_CODE":0,"TOWNNAME":"安南區","LI":"淵東里","LIN":"4鄰","STREET":"仁安路","SECT":" ","MAREA":" ","LANE":" ","ALLEY":" ","HOUSE_NO":"１６３號","E_COORD97":165842.426672,"N_COORD97":2550222.6185900001,"ADDRESS":"仁安路１６３號","OBJECTID":646102},"geometry":{"x":165842.42667200044,"y":2550222.6185930017}},{"attributes":{"ID":646130,"DIS_CODE":0,"TOWNNAME":"安南區","LI":"淵東里","LIN":"4鄰","STREET":"仁安路","SECT":" ","MAREA":" ","LANE":" ","ALLEY":" ","HOUSE_NO":"１６５號","E_COORD97":165847.93457300001,"N_COORD97":2550223.46526,"ADDRESS":"仁安路１６５號","OBJECTID":646103},"geometry":{"x":165847.93457300123,"y":2550223.4652590025}},{"attributes":{"ID":646131,"DIS_CODE":0,"TOWNNAME":"安南區","LI":"淵東里","LIN":"4鄰","STREET":"仁安路","SECT":" ","MAREA":" ","LANE":" ","ALLEY":" ","HOUSE_NO":"１６７號","E_COORD97":165853.230633,"N_COORD97":2550224.94692,"ADDRESS":"仁安路１６７號","OBJECTID":646104},"geometry":{"x":165853.23063299991,"y":2550224.9469249994}},{"attributes":{"ID":646132,"DIS_CODE":0,"TOWNNAME":"安南區","LI":"淵東里","LIN":"4鄰","STREET":"仁安路","SECT":" ","MAREA":" ","LANE":" ","ALLEY":" ","HOUSE_NO":"１６９號","E_COORD97":165858.31484899999,"N_COORD97":2550226.21692,"ADDRESS":"仁安路１６９號","OBJECTID":646105},"geometry":{"x":165858.31484900042,"y":2550226.2169240043}},{"attributes":{"ID":646133,"DIS_CODE":0,"TOWNNAME":"安南區","LI":"淵東里","LIN":"4鄰","STREET":"智安三街","SECT":" ","MAREA":" ","LANE":" ","ALLEY":" ","HOUSE_NO":"７５號","E_COORD97":165847.93457300001,"N_COORD97":2550239.1285799998,"ADDRESS":"智安三街７５號","OBJECTID":646106},"geometry":{"x":165847.93457300123,"y":2550239.1285840031}},{"attributes":{"ID":646134,"DIS_CODE":0,"TOWNNAME":"安南區","LI":"淵東里","LIN":"4鄰","STREET":"智安三街","SECT":" ","MAREA":" ","LANE":" ","ALLEY":" ","HOUSE_NO":"７７號","E_COORD97":165843.274041,"N_COORD97":2550242.09192,"ADDRESS":"智安三街７７號","OBJECTID":646107},"geometry":{"x":165843.27404099982,"y":2550242.0919160005}},{"attributes":{"ID":646135,"DIS_CODE":0,"TOWNNAME":"永康區","LI":"埔園里","LIN":"31鄰","STREET":"八德街","SECT":" ","MAREA":" ","LANE":"３２６巷","ALLEY":"４２弄","HOUSE_NO":"２２號","E_COORD97":173681.27846,"N_COORD97":2548696.4130899999,"ADDRESS":"八德街３２６巷４２弄２２號","OBJECTID":646108},"geometry":{"x":173681.27846000064,"y":2548696.4130920004}},{"attributes":{"ID":646136,"DIS_CODE":0,"TOWNNAME":"永康區","LI":"埔園里","LIN":"31鄰","STREET":"八德街","SECT":" ","MAREA":" ","LANE":"３２６巷","ALLEY":"４２弄","HOUSE_NO":"１８號","E_COORD97":173670.89284700001,"N_COORD97":2548697.2597599998,"ADDRESS":"八德街３２６巷４２弄１８號","OBJECTID":646109},"geometry":{"x":173670.89284700155,"y":2548697.2597580012}},{"attributes":{"ID":646137,"DIS_CODE":0,"TOWNNAME":"永康區","LI":"埔園里","LIN":"31鄰","STREET":"八德街","SECT":" ","MAREA":" ","LANE":"３２６巷","ALLEY":"４２弄","HOUSE_NO":"２８號","E_COORD97":173698.87041800001,"N_COORD97":2548694.7197599998,"ADDRESS":"八德街３２６巷４２弄２８號","OBJECTID":646110},"geometry":{"x":173698.87041800097,"y":2548694.7197590023}},{"attributes":{"ID":646138,"DIS_CODE":0,"TOWNNAME":"永康區","LI":"埔園里","LIN":"31鄰","STREET":"八德街","SECT":" ","MAREA":" ","LANE":"３２６巷","ALLEY":"４２弄","HOUSE_NO":"２０號","E_COORD97":173676.19162900001,"N_COORD97":2548697.0480900002,"ADDRESS":"八德街３２６巷４２弄２０號","OBJECTID":646111},"geometry":{"x":173676.19162900001,"y":2548697.0480909999}},{"attributes":{"ID":646139,"DIS_CODE":0,"TOWNNAME":"永康區","LI":"埔園里","LIN":"31鄰","STREET":"八德街","SECT":" ","MAREA":" ","LANE":"３２６巷","ALLEY":"４２弄","HOUSE_NO":"３０號","E_COORD97":173703.32139500001,"N_COORD97":2548694.5080900001,"ADDRESS":"八德街３２６巷４２弄３０號","OBJECTID":646112},"geometry":{"x":173703.32139500044,"y":2548694.5080929995}},{"attributes":{"ID":646140,"DIS_CODE":0,"TOWNNAME":"永康區","LI":"埔園里","LIN":"31鄰","STREET":"八德街","SECT":" ","MAREA":" ","LANE":"３２６巷","ALLEY":"４２弄","HOUSE_NO":"３２號","E_COORD97":173708.620177,"N_COORD97":2548694.7197599998,"ADDRESS":"八德街３２６巷４２弄３２號","OBJECTID":646113},"geometry":{"x":173708.6201769989,"y":2548694.7197590023}},{"attributes":{"ID":646141,"DIS_CODE":0,"TOWNNAME":"永康區","LI":"埔園里","LIN":"31鄰","STREET":"八德街","SECT":" ","MAREA":" ","LANE":"３２６巷","ALLEY":"４２弄","HOUSE_NO":"３６號","E_COORD97":173712.647252,"N_COORD97":2548694.2964300001,"ADDRESS":"八德街３２６巷４２弄３６號","OBJECTID":646114},"geometry":{"x":173712.64725200087,"y":2548694.2964259982}},{"attributes":{"ID":646142,"DIS_CODE":0,"TOWNNAME":"新營區","LI":"忠政里","LIN":"20鄰","STREET":"府西路","SECT":" ","MAREA":" ","LANE":" ","ALLEY":" ","HOUSE_NO":"２４２號","E_COORD97":179812.572747,"N_COORD97":2579636.9326999998,"ADDRESS":"府西路２４２號","OBJECTID":646115},"geometry":{"x":179812.57274700142,"y":2579636.9326980002}},{"attributes":{"ID":646143,"DIS_CODE":0,"TOWNNAME":"永康區","LI":"埔園里","LIN":"31鄰","STREET":"八德街","SECT":" ","MAREA":" ","LANE":"３２６巷","ALLEY":"４２弄","HOUSE_NO":"３８號","E_COORD97":173716.03847299999,"N_COORD97":2548694.2964300001,"ADDRESS":"八德街３２６巷４２弄３８號","OBJECTID":646116},"geometry":{"x":173716.03847300075,"y":2548694.2964259982}},{"attributes":{"ID":646144,"DIS_CODE":0,"TOWNNAME":"永康區","LI":"埔園里","LIN":"31鄰","STREET":"八德街","SECT":" ","MAREA":" ","LANE":"３２６巷","ALLEY":"４２弄","HOUSE_NO":"５０號","E_COORD97":173719.005791,"N_COORD97":2548694.7197599998,"ADDRESS":"八德街３２６巷４２弄５０號","OBJECTID":646117},"geometry":{"x":173719.00579100009,"y":2548694.7197590023}},{"attributes":{"ID":646145,"DIS_CODE":0,"TOWNNAME":"永康區","LI":"埔園里","LIN":"31鄰","STREET":"八德街","SECT":" ","MAREA":" ","LANE":"３２６巷","ALLEY":"４２弄","HOUSE_NO":"５２號","E_COORD97":173721.76115800001,"N_COORD97":2548694.7197599998,"ADDRESS":"八德街３２６巷４２弄５２號","OBJECTID":646118},"geometry":{"x":173721.76115800068,"y":2548694.7197590023}},{"attributes":{"ID":646146,"DIS_CODE":0,"TOWNNAME":"永康區","LI":"埔園里","LIN":"31鄰","STREET":"八德街","SECT":" ","MAREA":" ","LANE":"３２６巷","ALLEY":"４２弄","HOUSE_NO":"５６號","E_COORD97":173724.304573,"N_COORD97":2548694.5080900001,"ADDRESS":"八德街３２６巷４２弄５６號","OBJECTID":646119},"geometry":{"x":173724.30457300134,"y":2548694.5080929995}},{"attributes":{"ID":646147,"DIS_CODE":0,"TOWNNAME":"永康區","LI":"埔園里","LIN":"31鄰","STREET":"八德街","SECT":" ","MAREA":" ","LANE":"３２６巷","ALLEY":"４２弄","HOUSE_NO":"５８號","E_COORD97":173726.847989,"N_COORD97":2548694.08476,"ADDRESS":"八德街３２６巷４２弄５８號","OBJECTID":646120},"geometry":{"x":173726.84798900131,"y":2548694.0847600009}},{"attributes":{"ID":646148,"DIS_CODE":0,"TOWNNAME":"永康區","LI":"埔園里","LIN":"31鄰","STREET":"八德街","SECT":" ","MAREA":" ","LANE":"３２６巷","ALLEY":"４２弄","HOUSE_NO":"６０號","E_COORD97":173729.39140399999,"N_COORD97":2548695.35476,"ADDRESS":"八德街３２６巷４２弄６０號","OBJECTID":646121},"geometry":{"x":173729.39140400011,"y":2548695.3547590021}},{"attributes":{"ID":646149,"DIS_CODE":0,"TOWNNAME":"新營區","LI":"忠政里","LIN":"25鄰","STREET":"府西路","SECT":" ","MAREA":" ","LANE":" ","ALLEY":" ","HOUSE_NO":"１４６號","E_COORD97":179815.75098000001,"N_COORD97":2579454.5819600001,"ADDRESS":"府西路１４６號","OBJECTID":646122},"geometry":{"x":179815.75098000001,"y":2579454.581962999}},{"attributes":{"ID":646150,"DIS_CODE":0,"TOWNNAME":"永康區","LI":"埔園里","LIN":"31鄰","STREET":"八德街","SECT":" ","MAREA":" ","LANE":"３００巷","ALLEY":"１弄","HOUSE_NO":"１號","E_COORD97":173677.03943500001,"N_COORD97":2548612.59314,"ADDRESS":"八德街３００巷１弄１號","OBJECTID":646123},"geometry":{"x":173677.03943500016,"y":2548612.5931370016}},{"attributes":{"ID":646151,"DIS_CODE":0,"TOWNNAME":"永康區","LI":"埔園里","LIN":"31鄰","STREET":"八德街","SECT":" ","MAREA":" ","LANE":"３２６巷","ALLEY":"４２弄","HOUSE_NO":"２６號","E_COORD97":173683.821876,"N_COORD97":2548695.9897599998,"ADDRESS":"八德街３２６巷４２弄２６號","OBJECTID":646124},"geometry":{"x":173683.82187600061,"y":2548695.9897590019}},{"attributes":{"ID":646152,"DIS_CODE":0,"TOWNNAME":"安南區","LI":"長安里","LIN":"14鄰","STREET":"長溪路","SECT":"三段","MAREA":" ","LANE":"３８０巷","ALLEY":"１２５弄","HOUSE_NO":"１３５號","E_COORD97":167909.39029099999,"N_COORD97":2552304.0556100002,"ADDRESS":"長溪路三段３８０巷１２５弄１３５號","OBJECTID":646125},"geometry":{"x":167909.39029099979,"y":2552304.0556130037}},{"attributes":{"ID":646153,"DIS_CODE":0,"TOWNNAME":"安南區","LI":"長安里","LIN":"14鄰","STREET":"長溪路","SECT":"三段","MAREA":" ","LANE":"３８０巷","ALLEY":"１２５弄","HOUSE_NO":"１３７號","E_COORD97":167905.15562999999,"N_COORD97":2552300.6689499998,"ADDRESS":"長溪路三段３８０巷１２５弄１３７號","OBJECTID":646126},"geometry":{"x":167905.15563000087,"y":2552300.6689480022}},{"attributes":{"ID":646154,"DIS_CODE":0,"TOWNNAME":"安南區","LI":"長安里","LIN":"14鄰","STREET":"長溪路","SECT":"三段","MAREA":" ","LANE":"３８０巷","ALLEY":"１２５弄","HOUSE_NO":"１３９號","E_COORD97":167901.55616899999,"N_COORD97":2552297.9172800002,"ADDRESS":"長溪路三段３８０巷１２５弄１３９號","OBJECTID":646127},"geometry":{"x":167901.55616900045,"y":2552297.9172830004}},{"attributes":{"ID":646155,"DIS_CODE":0,"TOWNNAME":"安南區","LI":"長安里","LIN":"14鄰","STREET":"長溪路","SECT":"三段","MAREA":" ","LANE":"３８０巷","ALLEY":"１２５弄","HOUSE_NO":"１４１號","E_COORD97":167897.956707,"N_COORD97":2552294.95395,"ADDRESS":"長溪路三段３８０巷１２５弄１４１號","OBJECTID":646128},"geometry":{"x":167897.9567069998,"y":2552294.9539509993}},{"attributes":{"ID":646156,"DIS_CODE":0,"TOWNNAME":"安南區","LI":"長安里","LIN":"14鄰","STREET":"長溪路","SECT":"三段","MAREA":" ","LANE":"３８０巷","ALLEY":"１２５弄","HOUSE_NO":"１４３號","E_COORD97":167894.992444,"N_COORD97":2552291.9906199998,"ADDRESS":"長溪路三段３８０巷１２５弄１４３號","OBJECTID":646129},"geometry":{"x":167894.99244400021,"y":2552291.9906200003}},{"attributes":{"ID":646157,"DIS_CODE":0,"TOWNNAME":"安南區","LI":"長安里","LIN":"14鄰","STREET":"長溪路","SECT":"三段","MAREA":" ","LANE":"３８０巷","ALLEY":"１２５弄","HOUSE_NO":"１４５號","E_COORD97":167891.604716,"N_COORD97":2552289.0272900001,"ADDRESS":"長溪路三段３８０巷１２５弄１４５號","OBJECTID":646130},"geometry":{"x":167891.60471600201,"y":2552289.0272880029}},{"attributes":{"ID":646158,"DIS_CODE":0,"TOWNNAME":"安南區","LI":"長安里","LIN":"14鄰","STREET":"長溪路","SECT":"三段","MAREA":" ","LANE":"３８０巷","ALLEY":"１２５弄","HOUSE_NO":"１４７號","E_COORD97":167888.640453,"N_COORD97":2552286.4872900001,"ADDRESS":"長溪路三段３８０巷１２５弄１４７號","OBJECTID":646131},"geometry":{"x":167888.64045299962,"y":2552286.4872890022}},{"attributes":{"ID":646159,"DIS_CODE":0,"TOWNNAME":"安南區","LI":"長安里","LIN":"14鄰","STREET":"長溪路","SECT":"三段","MAREA":" ","LANE":"３８０巷","ALLEY":"１２５弄","HOUSE_NO":"１４９號","E_COORD97":167885.67619,"N_COORD97":2552284.5822899998,"ADDRESS":"長溪路三段３８０巷１２５弄１４９號","OBJECTID":646132},"geometry":{"x":167885.67619000189,"y":2552284.5822899994}},{"attributes":{"ID":646160,"DIS_CODE":0,"TOWNNAME":"安南區","LI":"長安里","LIN":"14鄰","STREET":"長溪路","SECT":"三段","MAREA":" ","LANE":"３８０巷","ALLEY":"１２５弄","HOUSE_NO":"１５１號","E_COORD97":167882.07672899999,"N_COORD97":2552282.8889600001,"ADDRESS":"長溪路三段３８０巷１２５弄１５１號","OBJECTID":646133},"geometry":{"x":167882.07672900055,"y":2552282.8889579996}},{"attributes":{"ID":646161,"DIS_CODE":0,"TOWNNAME":"安南區","LI":"長安里","LIN":"14鄰","STREET":"長溪路","SECT":"三段","MAREA":" ","LANE":"３８０巷","ALLEY":"１２５弄","HOUSE_NO":"１５３號","E_COORD97":167878.68900000001,"N_COORD97":2552280.13729,"ADDRESS":"長溪路三段３８０巷１２５弄１５３號","OBJECTID":646134},"geometry":{"x":167878.68900000025,"y":2552280.1372929998}},{"attributes":{"ID":646162,"DIS_CODE":0,"TOWNNAME":"安南區","LI":"長安里","LIN":"14鄰","STREET":"長溪路","SECT":"三段","MAREA":" ","LANE":"３８０巷","ALLEY":"１２５弄","HOUSE_NO":"１５５號","E_COORD97":167874.66607199999,"N_COORD97":2552277.5972899999,"ADDRESS":"長溪路三段３８０巷１２５弄１５５號","OBJECTID":646135},"geometry":{"x":167874.66607199982,"y":2552277.597293999}},{"attributes":{"ID":646163,"DIS_CODE":0,"TOWNNAME":"安南區","LI":"長安里","LIN":"14鄰","STREET":"長溪路","SECT":"三段","MAREA":" ","LANE":"３８０巷","ALLEY":"１２５弄","HOUSE_NO":"１５７號","E_COORD97":167872.337008,"N_COORD97":2552275.26896,"ADDRESS":"長溪路三段３８０巷１２５弄１５７號","OBJECTID":646136},"geometry":{"x":167872.33700800035,"y":2552275.2689620014}},{"attributes":{"ID":646164,"DIS_CODE":0,"TOWNNAME":"安南區","LI":"長安里","LIN":"14鄰","STREET":"長溪路","SECT":"三段","MAREA":" ","LANE":"３８０巷","ALLEY":"１２５弄","HOUSE_NO":"１５９號","E_COORD97":167869.161013,"N_COORD97":2552273.3639600002,"ADDRESS":"長溪路三段３８０巷１２５弄１５９號","OBJECTID":646137},"geometry":{"x":167869.16101299971,"y":2552273.3639630023}},{"attributes":{"ID":646165,"DIS_CODE":0,"TOWNNAME":"安南區","LI":"長安里","LIN":"14鄰","STREET":"長溪路","SECT":"三段","MAREA":" ","LANE":"３８０巷","ALLEY":"１２５弄","HOUSE_NO":"１６１號","E_COORD97":167865.985017,"N_COORD97":2552270.40063,"ADDRESS":"長溪路三段３８０巷１２５弄１６１號","OBJECTID":646138},"geometry":{"x":167865.98501699977,"y":2552270.4006309994}},{"attributes":{"ID":646166,"DIS_CODE":0,"TOWNNAME":"安南區","LI":"長安里","LIN":"14鄰","STREET":"長溪路","SECT":"三段","MAREA":" ","LANE":"３８０巷","ALLEY":"１２５弄","HOUSE_NO":"１６３號","E_COORD97":167861.96208900001,"N_COORD97":2552268.0723000001,"ADDRESS":"長溪路三段３８０巷１２５弄１６３號","OBJECTID":646139},"geometry":{"x":167861.9620890012,"y":2552268.0722990017}},{"attributes":{"ID":646167,"DIS_CODE":0,"TOWNNAME":"安南區","LI":"長安里","LIN":"14鄰","STREET":"長溪路","SECT":"三段","MAREA":" ","LANE":"３８０巷","ALLEY":"１２５弄","HOUSE_NO":"１９９號","E_COORD97":167905.15562999999,"N_COORD97":2552312.5222700001,"ADDRESS":"長溪路三段３８０巷１２５弄１９９號","OBJECTID":646140},"geometry":{"x":167905.15563000087,"y":2552312.5222750027}},{"attributes":{"ID":646168,"DIS_CODE":0,"TOWNNAME":"安南區","LI":"長安里","LIN":"14鄰","STREET":"長溪路","SECT":"三段","MAREA":" ","LANE":"３８０巷","ALLEY":"１２５弄","HOUSE_NO":"１９７號","E_COORD97":167901.34443600001,"N_COORD97":2552310.4056099998,"ADDRESS":"長溪路三段３８０巷１２５弄１９７號","OBJECTID":646141},"geometry":{"x":167901.3444360001,"y":2552310.4056100007}},{"attributes":{"ID":646169,"DIS_CODE":0,"TOWNNAME":"安南區","LI":"長安里","LIN":"14鄰","STREET":"長溪路","SECT":"三段","MAREA":" ","LANE":"３８０巷","ALLEY":"１２５弄","HOUSE_NO":"１９５號","E_COORD97":167898.16844000001,"N_COORD97":2552308.0772799999,"ADDRESS":"長溪路三段３８０巷１２５弄１９５號","OBJECTID":646142},"geometry":{"x":167898.16844000015,"y":2552308.0772779994}},{"attributes":{"ID":646170,"DIS_CODE":0,"TOWNNAME":"安南區","LI":"長安里","LIN":"14鄰","STREET":"長溪路","SECT":"三段","MAREA":" ","LANE":"３８０巷","ALLEY":"１２５弄","HOUSE_NO":"１９３號","E_COORD97":167894.992444,"N_COORD97":2552305.1139500001,"ADDRESS":"長溪路三段３８０巷１２５弄１９３號","OBJECTID":646143},"geometry":{"x":167894.99244400021,"y":2552305.1139460001}},{"attributes":{"ID":646171,"DIS_CODE":0,"TOWNNAME":"安南區","LI":"長安里","LIN":"14鄰","STREET":"長溪路","SECT":"三段","MAREA":" ","LANE":"３８０巷","ALLEY":"１２５弄","HOUSE_NO":"１９１號","E_COORD97":167891.39298199999,"N_COORD97":2552302.9972799998,"ADDRESS":"長溪路三段３８０巷１２５弄１９１號","OBJECTID":646144},"geometry":{"x":167891.39298199955,"y":2552302.9972799998}},{"attributes":{"ID":646172,"DIS_CODE":0,"TOWNNAME":"安南區","LI":"長安里","LIN":"14鄰","STREET":"長溪路","SECT":"三段","MAREA":" ","LANE":"３８０巷","ALLEY":"１２５弄","HOUSE_NO":"１８９號","E_COORD97":167888.42872,"N_COORD97":2552300.4572800002,"ADDRESS":"長溪路三段３８０巷１２５弄１８９號","OBJECTID":646145},"geometry":{"x":167888.42872000113,"y":2552300.4572820012}},{"attributes":{"ID":646173,"DIS_CODE":0,"TOWNNAME":"安南區","LI":"長安里","LIN":"14鄰","STREET":"長溪路","SECT":"三段","MAREA":" ","LANE":"３８０巷","ALLEY":"１２５弄","HOUSE_NO":"１８７號","E_COORD97":167885.04099099999,"N_COORD97":2552298.7639500001,"ADDRESS":"長溪路三段３８０巷１２５弄１８７號","OBJECTID":646146},"geometry":{"x":167885.04099100176,"y":2552298.7639490031}},{"attributes":{"ID":646174,"DIS_CODE":0,"TOWNNAME":"安南區","LI":"長安里","LIN":"14鄰","STREET":"長溪路","SECT":"三段","MAREA":" ","LANE":"３８０巷","ALLEY":"１２５弄","HOUSE_NO":"１８５號","E_COORD97":167881.018063,"N_COORD97":2552295.1656200001,"ADDRESS":"長溪路三段３８０巷１２５弄１８５號","OBJECTID":646147},"geometry":{"x":167881.01806300133,"y":2552295.1656180006}},{"attributes":{"ID":646175,"DIS_CODE":0,"TOWNNAME":"安南區","LI":"長安里","LIN":"14鄰","STREET":"長溪路","SECT":"三段","MAREA":" ","LANE":"３８０巷","ALLEY":"１２５弄","HOUSE_NO":"１８３號","E_COORD97":167877.842068,"N_COORD97":2552293.0489500002,"ADDRESS":"長溪路三段３８０巷１２５弄１８３號","OBJECTID":646148},"geometry":{"x":167877.8420680007,"y":2552293.0489520039}},{"attributes":{"ID":646176,"DIS_CODE":0,"TOWNNAME":"安南區","LI":"長安里","LIN":"14鄰","STREET":"長溪路","SECT":"三段","MAREA":" ","LANE":"３８０巷","ALLEY":"１２５弄","HOUSE_NO":"１８１號","E_COORD97":167874.03087300001,"N_COORD97":2552290.5089500002,"ADDRESS":"長溪路三段３８０巷１２５弄１８１號","OBJECTID":646149},"geometry":{"x":167874.03087299969,"y":2552290.5089539997}},{"attributes":{"ID":646177,"DIS_CODE":0,"TOWNNAME":"安南區","LI":"長安里","LIN":"14鄰","STREET":"長溪路","SECT":"三段","MAREA":" ","LANE":"３８０巷","ALLEY":"１２５弄","HOUSE_NO":"１７９號","E_COORD97":167869.58447900001,"N_COORD97":2552287.33396,"ADDRESS":"長溪路三段３８０巷１２５弄１７９號","OBJECTID":646150},"geometry":{"x":167869.58447900228,"y":2552287.3339559995}},{"attributes":{"ID":646178,"DIS_CODE":0,"TOWNNAME":"安南區","LI":"長安里","LIN":"14鄰","STREET":"長溪路","SECT":"三段","MAREA":" ","LANE":"３８０巷","ALLEY":"１２５弄","HOUSE_NO":"１７７號","E_COORD97":167866.19675,"N_COORD97":2552284.5822899998,"ADDRESS":"長溪路三段３８０巷１２５弄１７７號","OBJECTID":646151},"geometry":{"x":167866.19675000198,"y":2552284.5822899994}},{"attributes":{"ID":646179,"DIS_CODE":0,"TOWNNAME":"安南區","LI":"長安里","LIN":"14鄰","STREET":"長溪路","SECT":"三段","MAREA":" ","LANE":"３８０巷","ALLEY":"１２５弄","HOUSE_NO":"１７５號","E_COORD97":167861.96208900001,"N_COORD97":2552281.19563,"ADDRESS":"長溪路三段３８０巷１２５弄１７５號","OBJECTID":646152},"geometry":{"x":167861.9620890012,"y":2552281.1956250034}},{"attributes":{"ID":646180,"DIS_CODE":0,"TOWNNAME":"六甲區","LI":"甲東里","LIN":"11鄰","STREET":"裕農街","SECT":" ","MAREA":" ","LANE":"２００巷","ALLEY":" ","HOUSE_NO":"２８號","E_COORD97":184944.03796700001,"N_COORD97":2569882.0430200002,"ADDRESS":"裕農街２００巷２８號","OBJECTID":646153},"geometry":{"x":184944.03796700016,"y":2569882.0430220012}},{"attributes":{"ID":646181,"DIS_CODE":0,"TOWNNAME":"新營區","LI":"延平里","LIN":"1鄰","STREET":"新進路","SECT":"二段","MAREA":" ","LANE":" ","ALLEY":" ","HOUSE_NO":"２號","E_COORD97":179766.42880299999,"N_COORD97":2577751.3357299999,"ADDRESS":"新進路二段２號","OBJECTID":646154},"geometry":{"x":179766.42880299967,"y":2577751.3357270006}},{"attributes":{"ID":646182,"DIS_CODE":0,"TOWNNAME":"永康區","LI":"埔園里","LIN":"31鄰","STREET":"八德街","SECT":" ","MAREA":" ","LANE":"３００巷","ALLEY":"１弄","HOUSE_NO":"１０號","E_COORD97":173663.05064900001,"N_COORD97":2548623.81146,"ADDRESS":"八德街３００巷１弄１０號","OBJECTID":646155},"geometry":{"x":173663.05064900033,"y":2548623.8114640024}},{"attributes":{"ID":646183,"DIS_CODE":0,"TOWNNAME":"中西區","LI":"法華里","LIN":"25鄰","STREET":"慶中街","SECT":" ","MAREA":" ","LANE":" ","ALLEY":" ","HOUSE_NO":"１６號","E_COORD97":168548.04769100001,"N_COORD97":2542550.8035599999,"ADDRESS":"慶中街１６號","OBJECTID":646156},"geometry":{"x":168548.04769099876,"y":2542550.8035579994}},{"attributes":{"ID":646184,"DIS_CODE":0,"TOWNNAME":"新營區","LI":"延平里","LIN":"1鄰","STREET":"新進路","SECT":"二段","MAREA":" ","LANE":" ","ALLEY":" ","HOUSE_NO":"３號","E_COORD97":179751.382247,"N_COORD97":2577730.1690699998,"ADDRESS":"新進路二段３號","OBJECTID":646157},"geometry":{"x":179751.382247,"y":2577730.169072004}},{"attributes":{"ID":646185,"DIS_CODE":0,"TOWNNAME":"安南區","LI":"長安里","LIN":"21鄰","STREET":"長溪路","SECT":"三段","MAREA":" ","LANE":"３８０巷","ALLEY":"１２５弄","HOUSE_NO":"７６號","E_COORD97":167921.35320799999,"N_COORD97":2552314.9035200002,"ADDRESS":"長溪路三段３８０巷１２５弄７６號","OBJECTID":646158},"geometry":{"x":167921.35320800077,"y":2552314.9035240039}},{"attributes":{"ID":646186,"DIS_CODE":0,"TOWNNAME":"新營區","LI":"延平里","LIN":"1鄰","STREET":"新進路","SECT":"二段","MAREA":" ","LANE":" ","ALLEY":" ","HOUSE_NO":"４號","E_COORD97":179759.22341000001,"N_COORD97":2577753.0290600001,"ADDRESS":"新進路二段４號","OBJECTID":646159},"geometry":{"x":179759.22341000009,"y":2577753.0290600043}},{"attributes":{"ID":646187,"DIS_CODE":0,"TOWNNAME":"安南區","LI":"長安里","LIN":"21鄰","STREET":"長溪路","SECT":"三段","MAREA":" ","LANE":"３８０巷","ALLEY":"１２５弄","HOUSE_NO":"７８號","E_COORD97":167917.33027999999,"N_COORD97":2552320.61852,"ADDRESS":"長溪路三段３８０巷１２５弄７８號","OBJECTID":646160},"geometry":{"x":167917.33028000034,"y":2552320.6185210031}},{"attributes":{"ID":646188,"DIS_CODE":0,"TOWNNAME":"六甲區","LI":"甲東里","LIN":"11鄰","STREET":"裕農街","SECT":" ","MAREA":" ","LANE":"２００巷","ALLEY":" ","HOUSE_NO":"９號","E_COORD97":184455.62279600001,"N_COORD97":2570084.6079099998,"ADDRESS":"裕農街２００巷９號","OBJECTID":646161},"geometry":{"x":184455.62279599998,"y":2570084.607912004}},{"attributes":{"ID":646189,"DIS_CODE":0,"TOWNNAME":"安南區","LI":"長安里","LIN":"21鄰","STREET":"長溪路","SECT":"三段","MAREA":" ","LANE":"３８０巷","ALLEY":"１２５弄","HOUSE_NO":"８０號","E_COORD97":167913.73081899999,"N_COORD97":2552326.75685,"ADDRESS":"長溪路三段３８０巷１２５弄８０號","OBJECTID":646162},"geometry":{"x":167913.730818999,"y":2552326.7568510007}},{"attributes":{"ID":646190,"DIS_CODE":0,"TOWNNAME":"安南區","LI":"長安里","LIN":"21鄰","STREET":"長溪路","SECT":"三段","MAREA":" ","LANE":"３８０巷","ALLEY":"１２５弄","HOUSE_NO":"８２號","E_COORD97":167910.34309000001,"N_COORD97":2552331.8368500001,"ADDRESS":"長溪路三段３８０巷１２５弄８２號","OBJECTID":646163},"geometry":{"x":167910.34308999963,"y":2552331.8368480001}},{"attributes":{"ID":646191,"DIS_CODE":0,"TOWNNAME":"永康區","LI":"埔園里","LIN":"31鄰","STREET":"八德街","SECT":" ","MAREA":" ","LANE":"３００巷","ALLEY":"２弄","HOUSE_NO":"１號","E_COORD97":173693.14773299999,"N_COORD97":2548623.3881299999,"ADDRESS":"八德街３００巷２弄１號","OBJECTID":646164},"geometry":{"x":173693.14773300104,"y":2548623.3881310001}},{"attributes":{"ID":646192,"DIS_CODE":0,"TOWNNAME":"新營區","LI":"延平里","LIN":"1鄰","STREET":"新進路","SECT":"二段","MAREA":" ","LANE":" ","ALLEY":" ","HOUSE_NO":"５號","E_COORD97":179747.14378000001,"N_COORD97":2577730.1690699998,"ADDRESS":"新進路二段５號","OBJECTID":646165},"geometry":{"x":179747.14378000144,"y":2577730.169072004}},{"attributes":{"ID":646193,"DIS_CODE":0,"TOWNNAME":"新營區","LI":"延平里","LIN":"1鄰","STREET":"新進路","SECT":"二段","MAREA":" ","LANE":" ","ALLEY":" ","HOUSE_NO":"７號","E_COORD97":179741.63377300001,"N_COORD97":2577729.9574099998,"ADDRESS":"新進路二段７號","OBJECTID":646166},"geometry":{"x":179741.63377300091,"y":2577729.9574050028}},{"attributes":{"ID":646194,"DIS_CODE":0,"TOWNNAME":"安南區","LI":"長安里","LIN":"21鄰","STREET":"長溪路","SECT":"三段","MAREA":" ","LANE":"３８０巷","ALLEY":" ","HOUSE_NO":"１８９號","E_COORD97":167926.434801,"N_COORD97":2552348.1351700001,"ADDRESS":"長溪路三段３８０巷１８９號","OBJECTID":646167},"geometry":{"x":167926.4348010011,"y":2552348.1351730041}},{"attributes":{"ID":646195,"DIS_CODE":0,"TOWNNAME":"新營區","LI":"延平里","LIN":"1鄰","STREET":"新進路","SECT":"二段","MAREA":" ","LANE":" ","ALLEY":" ","HOUSE_NO":"８號","E_COORD97":179748.41532,"N_COORD97":2577753.2407300002,"ADDRESS":"新進路二段８號","OBJECTID":646168},"geometry":{"x":179748.41532000061,"y":2577753.2407260016}},{"attributes":{"ID":646196,"DIS_CODE":0,"TOWNNAME":"安南區","LI":"長安里","LIN":"21鄰","STREET":"長溪路","SECT":"三段","MAREA":" ","LANE":"３８０巷","ALLEY":" ","HOUSE_NO":"１９１號","E_COORD97":167921.988407,"N_COORD97":2552345.5951700001,"ADDRESS":"長溪路三段３８０巷１９１號","OBJECTID":646169},"geometry":{"x":167921.9884070009,"y":2552345.5951739997}},{"attributes":{"ID":646197,"DIS_CODE":0,"TOWNNAME":"安南區","LI":"長安里","LIN":"21鄰","STREET":"長溪路","SECT":"三段","MAREA":" ","LANE":"３８０巷","ALLEY":" ","HOUSE_NO":"１９３號","E_COORD97":167918.600679,"N_COORD97":2552343.6901799999,"ADDRESS":"長溪路三段３８０巷１９３號","OBJECTID":646170},"geometry":{"x":167918.60067899991,"y":2552343.6901750006}},{"attributes":{"ID":646198,"DIS_CODE":0,"TOWNNAME":"安南區","LI":"長安里","LIN":"21鄰","STREET":"長溪路","SECT":"三段","MAREA":" ","LANE":"３８０巷","ALLEY":" ","HOUSE_NO":"１９５號","E_COORD97":167914.78948400001,"N_COORD97":2552342.2085099998,"ADDRESS":"長溪路三段３８０巷１９５號","OBJECTID":646171},"geometry":{"x":167914.78948399983,"y":2552342.2085089982}},{"attributes":{"ID":646199,"DIS_CODE":0,"TOWNNAME":"安南區","LI":"長安里","LIN":"21鄰","STREET":"長溪路","SECT":"三段","MAREA":" ","LANE":"３８０巷","ALLEY":" ","HOUSE_NO":"１９７號","E_COORD97":167910.34309000001,"N_COORD97":2552340.5151800001,"ADDRESS":"長溪路三段３８０巷１９７號","OBJECTID":646172},"geometry":{"x":167910.34308999963,"y":2552340.5151770003}},{"attributes":{"ID":646200,"DIS_CODE":0,"TOWNNAME":"永康區","LI":"埔園里","LIN":"31鄰","STREET":"八德街","SECT":" ","MAREA":" ","LANE":"３００巷","ALLEY":"１弄","HOUSE_NO":"７號","E_COORD97":173667.50162600001,"N_COORD97":2548613.86314,"ADDRESS":"八德街３００巷１弄７號","OBJECTID":646173},"geometry":{"x":173667.50162600074,"y":2548613.8631360009}},{"attributes":{"ID":646201,"DIS_CODE":0,"TOWNNAME":"新營區","LI":"延平里","LIN":"1鄰","STREET":"新進路","SECT":"二段","MAREA":" ","LANE":" ","ALLEY":" ","HOUSE_NO":"１３號","E_COORD97":179732.52106999999,"N_COORD97":2577730.5924,"ADDRESS":"新進路二段１３號","OBJECTID":646174},"geometry":{"x":179732.52106999978,"y":2577730.5924050026}},{"attributes":{"ID":646202,"DIS_CODE":0,"TOWNNAME":"安南區","LI":"長安里","LIN":"21鄰","STREET":"長溪路","SECT":"三段","MAREA":" ","LANE":"３８０巷","ALLEY":" ","HOUSE_NO":"１９９號","E_COORD97":167907.80229299999,"N_COORD97":2552337.3401799998,"ADDRESS":"長溪路三段３８０巷１９９號","OBJECTID":646175},"geometry":{"x":167907.80229299981,"y":2552337.340179}},{"attributes":{"ID":646203,"DIS_CODE":0,"TOWNNAME":"永康區","LI":"埔園里","LIN":"31鄰","STREET":"八德街","SECT":" ","MAREA":" ","LANE":"３００巷","ALLEY":"１弄","HOUSE_NO":"８號","E_COORD97":173667.077724,"N_COORD97":2548624.0231300001,"ADDRESS":"八德街３００巷１弄８號","OBJECTID":646176},"geometry":{"x":173667.07772400137,"y":2548624.023130998}},{"attributes":{"ID":646204,"DIS_CODE":0,"TOWNNAME":"永康區","LI":"埔園里","LIN":"31鄰","STREET":"八德街","SECT":" ","MAREA":" ","LANE":"３００巷","ALLEY":"２弄","HOUSE_NO":"７號","E_COORD97":173707.13651800001,"N_COORD97":2548622.7531300001,"ADDRESS":"八德街３００巷２弄７號","OBJECTID":646177},"geometry":{"x":173707.13651799969,"y":2548622.7531320024}},{"attributes":{"ID":646205,"DIS_CODE":0,"TOWNNAME":"永康區","LI":"埔園里","LIN":"31鄰","STREET":"八德街","SECT":" ","MAREA":" ","LANE":"３００巷","ALLEY":"２弄","HOUSE_NO":"９號","E_COORD97":173710.73968999999,"N_COORD97":2548622.54146,"ADDRESS":"八德街３００巷２弄９號","OBJECTID":646178},"geometry":{"x":173710.73969000019,"y":2548622.541465003}},{"attributes":{"ID":646206,"DIS_CODE":0,"TOWNNAME":"六甲區","LI":"甲東里","LIN":"12鄰","STREET":"裕農街","SECT":" ","MAREA":" ","LANE":" ","ALLEY":" ","HOUSE_NO":"２２５號","E_COORD97":184269.51447699999,"N_COORD97":2570000.1529600001,"ADDRESS":"裕農街２２５號","OBJECTID":646179},"geometry":{"x":184269.51447699964,"y":2570000.1529580001}},{"attributes":{"ID":646207,"DIS_CODE":0,"TOWNNAME":"永康區","LI":"埔園里","LIN":"31鄰","STREET":"八德街","SECT":" ","MAREA":" ","LANE":" ","ALLEY":" ","HOUSE_NO":"２８８號","E_COORD97":173688.060902,"N_COORD97":2548590.1564799999,"ADDRESS":"八德街２８８號","OBJECTID":646180},"geometry":{"x":173688.06090200134,"y":2548590.1564819999}},{"attributes":{"ID":646208,"DIS_CODE":0,"TOWNNAME":"永康區","LI":"埔園里","LIN":"31鄰","STREET":"八德街","SECT":" ","MAREA":" ","LANE":" ","ALLEY":" ","HOUSE_NO":"２９０號","E_COORD97":173684.24577899999,"N_COORD97":2548590.1564799999,"ADDRESS":"八德街２９０號","OBJECTID":646181},"geometry":{"x":173684.24577900115,"y":2548590.1564819999}},{"attributes":{"ID":646209,"DIS_CODE":0,"TOWNNAME":"永康區","LI":"埔園里","LIN":"31鄰","STREET":"八德街","SECT":" ","MAREA":" ","LANE":" ","ALLEY":" ","HOUSE_NO":"２９２號","E_COORD97":173681.066509,"N_COORD97":2548591.0031499998,"ADDRESS":"八德街２９２號","OBJECTID":646182},"geometry":{"x":173681.06650900003,"y":2548591.0031489991}},{"attributes":{"ID":646210,"DIS_CODE":0,"TOWNNAME":"新營區","LI":"延平里","LIN":"1鄰","STREET":"新進路","SECT":"二段","MAREA":" ","LANE":" ","ALLEY":" ","HOUSE_NO":"１７號","E_COORD97":179721.92490300001,"N_COORD97":2577728.1582399998,"ADDRESS":"新進路二段１７號","OBJECTID":646183},"geometry":{"x":179721.92490299977,"y":2577728.1582400035}},{"attributes":{"ID":646211,"DIS_CODE":0,"TOWNNAME":"新營區","LI":"延平里","LIN":"1鄰","STREET":"新進路","SECT":"二段","MAREA":" ","LANE":" ","ALLEY":" ","HOUSE_NO":"１９號","E_COORD97":179716.838743,"N_COORD97":2577726.6765700001,"ADDRESS":"新進路二段１９號","OBJECTID":646184},"geometry":{"x":179716.83874300122,"y":2577726.6765740011}},{"attributes":{"ID":646212,"DIS_CODE":0,"TOWNNAME":"永康區","LI":"埔園里","LIN":"31鄰","STREET":"八德街","SECT":" ","MAREA":" ","LANE":" ","ALLEY":" ","HOUSE_NO":"２９６號","E_COORD97":173679.158948,"N_COORD97":2548591.2148199999,"ADDRESS":"八德街２９６號","OBJECTID":646185},"geometry":{"x":173679.15894800145,"y":2548591.2148150019}},{"attributes":{"ID":646213,"DIS_CODE":0,"TOWNNAME":"安南區","LI":"長安里","LIN":"23鄰","STREET":"長溪路","SECT":"三段","MAREA":" ","LANE":"３７３巷","ALLEY":"２１弄","HOUSE_NO":"２１６之９號","E_COORD97":167473.855419,"N_COORD97":2551657.2026300002,"ADDRESS":"長溪路三段３７３巷２１弄２１６之９號","OBJECTID":646186},"geometry":{"x":167473.85541899968,"y":2551657.2026290018}},{"attributes":{"ID":646214,"DIS_CODE":0,"TOWNNAME":"新營區","LI":"埤寮里","LIN":"3鄰","STREET":" ","SECT":" ","MAREA":"許丑","LANE":" ","ALLEY":" ","HOUSE_NO":"３７號","E_COORD97":179822.07931299999,"N_COORD97":2581018.0481500002,"ADDRESS":"許丑３７號","OBJECTID":646187},"geometry":{"x":179822.0793129988,"y":2581018.0481530018}},{"attributes":{"ID":646215,"DIS_CODE":0,"TOWNNAME":"新營區","LI":"延平里","LIN":"1鄰","STREET":"新進路","SECT":"二段","MAREA":" ","LANE":" ","ALLEY":" ","HOUSE_NO":"２３號","E_COORD97":179712.17642900001,"N_COORD97":2577725.4065700001,"ADDRESS":"新進路二段２３號","OBJECTID":646188},"geometry":{"x":179712.17642899975,"y":2577725.4065740015}},{"attributes":{"ID":646216,"DIS_CODE":0,"TOWNNAME":"永康區","LI":"埔園里","LIN":"31鄰","STREET":"八德街","SECT":" ","MAREA":" ","LANE":" ","ALLEY":" ","HOUSE_NO":"２９８號","E_COORD97":173676.827483,"N_COORD97":2548591.10898,"ADDRESS":"八德街２９８號","OBJECTID":646189},"geometry":{"x":173676.8274829993,"y":2548591.1089820005}},{"attributes":{"ID":646217,"DIS_CODE":0,"TOWNNAME":"永康區","LI":"埔園里","LIN":"31鄰","STREET":"八德街","SECT":" ","MAREA":" ","LANE":"３００巷","ALLEY":"２弄","HOUSE_NO":"２號","E_COORD97":173691.452123,"N_COORD97":2548611.4289699998,"ADDRESS":"八德街３００巷２弄２號","OBJECTID":646190},"geometry":{"x":173691.45212300122,"y":2548611.4289710019}},{"attributes":{"ID":646218,"DIS_CODE":0,"TOWNNAME":"新營區","LI":"延平里","LIN":"1鄰","STREET":"新進路","SECT":"二段","MAREA":" ","LANE":" ","ALLEY":" ","HOUSE_NO":"２２號","E_COORD97":179718.32220600001,"N_COORD97":2577751.8648899999,"ADDRESS":"新進路二段２２號","OBJECTID":646191},"geometry":{"x":179718.32220599987,"y":2577751.8648930006}},{"attributes":{"ID":646219,"DIS_CODE":0,"TOWNNAME":"歸仁區","LI":"南興里","LIN":"4鄰","STREET":"民生北街","SECT":" ","MAREA":" ","LANE":"１３６巷","ALLEY":" ","HOUSE_NO":"１０號","E_COORD97":176321.292758,"N_COORD97":2541340.8681800002,"ADDRESS":"民生北街１３６巷１０號","OBJECTID":646192},"geometry":{"x":176321.29275800101,"y":2541340.868183}},{"attributes":{"ID":646220,"DIS_CODE":0,"TOWNNAME":"歸仁區","LI":"南興里","LIN":"4鄰","STREET":"民生北街","SECT":" ","MAREA":" ","LANE":"１３６巷","ALLEY":" ","HOUSE_NO":"１２號","E_COORD97":176325.95692699999,"N_COORD97":2541338.5398499998,"ADDRESS":"民生北街１３６巷１２號","OBJECTID":646193},"geometry":{"x":176325.95692700054,"y":2541338.5398510024}},{"attributes":{"ID":646221,"DIS_CODE":0,"TOWNNAME":"歸仁區","LI":"南興里","LIN":"4鄰","STREET":"民生北街","SECT":" ","MAREA":" ","LANE":"１３６巷","ALLEY":" ","HOUSE_NO":"１６號","E_COORD97":176330.40908899999,"N_COORD97":2541338.7515199999,"ADDRESS":"民生北街１３６巷１６號","OBJECTID":646194},"geometry":{"x":176330.40908900183,"y":2541338.7515169997}},{"attributes":{"ID":646222,"DIS_CODE":0,"TOWNNAME":"新營區","LI":"忠政里","LIN":"24鄰","STREET":"健康路","SECT":" ","MAREA":" ","LANE":" ","ALLEY":" ","HOUSE_NO":"６０號","E_COORD97":179677.43328200001,"N_COORD97":2579045.0485299998,"ADDRESS":"健康路６０號","OBJECTID":646195},"geometry":{"x":179677.43328200001,"y":2579045.0485340003}},{"attributes":{"ID":646223,"DIS_CODE":0,"TOWNNAME":"歸仁區","LI":"南興里","LIN":"4鄰","STREET":"民生北街","SECT":" ","MAREA":" ","LANE":"１３６巷","ALLEY":" ","HOUSE_NO":"１８號","E_COORD97":176336.13329699999,"N_COORD97":2541338.1165200002,"ADDRESS":"民生北街１３６巷１８號","OBJECTID":646196},"geometry":{"x":176336.13329700008,"y":2541338.1165180039}},{"attributes":{"ID":646224,"DIS_CODE":0,"TOWNNAME":"歸仁區","LI":"南興里","LIN":"4鄰","STREET":"民生北街","SECT":" ","MAREA":" ","LANE":"１３６巷","ALLEY":" ","HOUSE_NO":"２０號","E_COORD97":176340.58545899999,"N_COORD97":2541338.1165200002,"ADDRESS":"民生北街１３６巷２０號","OBJECTID":646197},"geometry":{"x":176340.58545900136,"y":2541338.1165180039}},{"attributes":{"ID":646225,"DIS_CODE":0,"TOWNNAME":"新營區","LI":"延平里","LIN":"1鄰","STREET":"新進路","SECT":"二段","MAREA":" ","LANE":" ","ALLEY":" ","HOUSE_NO":"２７號","E_COORD97":179695.75237100001,"N_COORD97":2577731.9153200001,"ADDRESS":"新進路二段２７號","OBJECTID":646198},"geometry":{"x":179695.75237100013,"y":2577731.9153209999}},{"attributes":{"ID":646226,"DIS_CODE":0,"TOWNNAME":"歸仁區","LI":"南興里","LIN":"4鄰","STREET":"民生北街","SECT":" ","MAREA":" ","LANE":"１３６巷","ALLEY":" ","HOUSE_NO":"２２號","E_COORD97":176346.30966699999,"N_COORD97":2541337.0581899998,"ADDRESS":"民生北街１３６巷２２號","OBJECTID":646199},"geometry":{"x":176346.30966699962,"y":2541337.058185}},{"attributes":{"ID":646227,"DIS_CODE":0,"TOWNNAME":"歸仁區","LI":"南興里","LIN":"4鄰","STREET":"民生北街","SECT":" ","MAREA":" ","LANE":"１３６巷","ALLEY":" ","HOUSE_NO":"２６號","E_COORD97":176351.60986,"N_COORD97":2541336.2115199999,"ADDRESS":"民生北街１３６巷２６號","OBJECTID":646200},"geometry":{"x":176351.6098600002,"y":2541336.2115189992}}]}