{"displayFieldName":"TOWNNAME","fieldAliases":{"ID":"ID","DIS_CODE":"DIS_CODE","TOWNNAME":"TOWNNAME","LI":"LI","LIN":"LIN","STREET":"STREET","SECT":"SECT","MAREA":"MAREA","LANE":"LANE","ALLEY":"ALLEY","HOUSE_NO":"HOUSE_NO","E_COORD97":"E_COORD97","N_COORD97":"N_COORD97","ADDRESS":"ADDRESS","OBJECTID":"OBJECTID"},"geometryType":"esriGeometryPoint","spatialReference":{"wkid":102443,"latestWkid":3826},"fields":[{"name":"ID","type":"esriFieldTypeDouble","alias":"ID"},{"name":"DIS_CODE","type":"esriFieldTypeInteger","alias":"DIS_CODE"},{"name":"TOWNNAME","type":"esriFieldTypeString","alias":"TOWNNAME","length":8},{"name":"LI","type":"esriFieldTypeString","alias":"LI","length":8},{"name":"LIN","type":"esriFieldTypeString","alias":"LIN","length":12},{"name":"STREET","type":"esriFieldTypeString","alias":"STREET","length":20},{"name":"SECT","type":"esriFieldTypeString","alias":"SECT","length":8},{"name":"MAREA","type":"esriFieldTypeString","alias":"MAREA","length":12},{"name":"LANE","type":"esriFieldTypeString","alias":"LANE","length":10},{"name":"ALLEY","type":"esriFieldTypeString","alias":"ALLEY","length":10},{"name":"HOUSE_NO","type":"esriFieldTypeString","alias":"HOUSE_NO","length":20},{"name":"E_COORD97","type":"esriFieldTypeDouble","alias":"E_COORD97"},{"name":"N_COORD97","type":"esriFieldTypeDouble","alias":"N_COORD97"},{"name":"ADDRESS","type":"esriFieldTypeString","alias":"ADDRESS","length":50},{"name":"OBJECTID","type":"esriFieldTypeOID","alias":"OBJECTID"}],"features":[{"attributes":{"ID":541228,"DIS_CODE":0,"TOWNNAME":"北區","LI":"成德里","LIN":"12鄰","STREET":"立賢路","SECT":"一段","MAREA":" ","LANE":" ","ALLEY":" ","HOUSE_NO":"５２９號","E_COORD97":168208.26000000001,"N_COORD97":2545551.0299999998,"ADDRESS":"立賢路一段５２９號","OBJECTID":541201},"geometry":{"x":168208.26000000071,"y":2545551.0299999993}},{"attributes":{"ID":541229,"DIS_CODE":0,"TOWNNAME":"北區","LI":"成德里","LIN":"12鄰","STREET":"立賢路","SECT":"一段","MAREA":" ","LANE":" ","ALLEY":" ","HOUSE_NO":"６０３號","E_COORD97":168023.63,"N_COORD97":2545555.7999999998,"ADDRESS":"立賢路一段６０３號","OBJECTID":541202},"geometry":{"x":168023.62999999989,"y":2545555.8000000026}},{"attributes":{"ID":541230,"DIS_CODE":0,"TOWNNAME":"北區","LI":"成德里","LIN":"12鄰","STREET":"立賢路","SECT":"一段","MAREA":" ","LANE":" ","ALLEY":" ","HOUSE_NO":"５８５號","E_COORD97":168079.59,"N_COORD97":2545561.75,"ADDRESS":"立賢路一段５８５號","OBJECTID":541203},"geometry":{"x":168079.58999999985,"y":2545561.7500000037}},{"attributes":{"ID":541231,"DIS_CODE":0,"TOWNNAME":"北區","LI":"成德里","LIN":"12鄰","STREET":"立賢路","SECT":"一段","MAREA":" ","LANE":" ","ALLEY":" ","HOUSE_NO":"５８７號","E_COORD97":168073.56,"N_COORD97":2545561.75,"ADDRESS":"立賢路一段５８７號","OBJECTID":541204},"geometry":{"x":168073.56000000145,"y":2545561.7500000037}},{"attributes":{"ID":541232,"DIS_CODE":0,"TOWNNAME":"北區","LI":"成德里","LIN":"12鄰","STREET":"立賢路","SECT":"一段","MAREA":" ","LANE":" ","ALLEY":" ","HOUSE_NO":"５８９號","E_COORD97":168068.32000000001,"N_COORD97":2545561.1200000001,"ADDRESS":"立賢路一段５８９號","OBJECTID":541205},"geometry":{"x":168068.3200000003,"y":2545561.1200000029}},{"attributes":{"ID":541233,"DIS_CODE":0,"TOWNNAME":"北區","LI":"成德里","LIN":"12鄰","STREET":"立賢路","SECT":"一段","MAREA":" ","LANE":" ","ALLEY":" ","HOUSE_NO":"５９１號","E_COORD97":168061.64999999999,"N_COORD97":2545560.7999999998,"ADDRESS":"立賢路一段５９１號","OBJECTID":541206},"geometry":{"x":168061.65000000037,"y":2545560.8000000007}},{"attributes":{"ID":541234,"DIS_CODE":0,"TOWNNAME":"北區","LI":"成德里","LIN":"12鄰","STREET":"立賢路","SECT":"一段","MAREA":" ","LANE":" ","ALLEY":" ","HOUSE_NO":"５９３號","E_COORD97":168054.82999999999,"N_COORD97":2545560.1600000001,"ADDRESS":"立賢路一段５９３號","OBJECTID":541207},"geometry":{"x":168054.83000000007,"y":2545560.160000002}},{"attributes":{"ID":541235,"DIS_CODE":0,"TOWNNAME":"北區","LI":"成德里","LIN":"12鄰","STREET":"立賢路","SECT":"一段","MAREA":" ","LANE":" ","ALLEY":" ","HOUSE_NO":"５９５號","E_COORD97":168049.10999999999,"N_COORD97":2545559.5299999998,"ADDRESS":"立賢路一段５９５號","OBJECTID":541208},"geometry":{"x":168049.11000000127,"y":2545559.5300000012}},{"attributes":{"ID":541236,"DIS_CODE":0,"TOWNNAME":"北區","LI":"成德里","LIN":"12鄰","STREET":"立賢路","SECT":"一段","MAREA":" ","LANE":" ","ALLEY":" ","HOUSE_NO":"５９７號","E_COORD97":168043.07999999999,"N_COORD97":2545558.4199999999,"ADDRESS":"立賢路一段５９７號","OBJECTID":541209},"geometry":{"x":168043.08000000007,"y":2545558.4200000018}},{"attributes":{"ID":541237,"DIS_CODE":0,"TOWNNAME":"北區","LI":"成德里","LIN":"12鄰","STREET":"立賢路","SECT":"一段","MAREA":" ","LANE":" ","ALLEY":" ","HOUSE_NO":"５９９號","E_COORD97":168037.60000000001,"N_COORD97":2545557.7000000002,"ADDRESS":"立賢路一段５９９號","OBJECTID":541210},"geometry":{"x":168037.60000000149,"y":2545557.6999999974}},{"attributes":{"ID":541238,"DIS_CODE":0,"TOWNNAME":"北區","LI":"成德里","LIN":"12鄰","STREET":"立賢路","SECT":"一段","MAREA":" ","LANE":" ","ALLEY":" ","HOUSE_NO":"６０１號","E_COORD97":168030.92999999999,"N_COORD97":2545556.75,"ADDRESS":"立賢路一段６０１號","OBJECTID":541211},"geometry":{"x":168030.93000000063,"y":2545556.75}},{"attributes":{"ID":541239,"DIS_CODE":0,"TOWNNAME":"北區","LI":"五福里","LIN":"12鄰","STREET":"成功路","SECT":" ","MAREA":" ","LANE":" ","ALLEY":" ","HOUSE_NO":"２４０號","E_COORD97":168279.01999999999,"N_COORD97":2544425.4700000002,"ADDRESS":"成功路２４０號","OBJECTID":541212},"geometry":{"x":168279.02000000048,"y":2544425.4700000044}},{"attributes":{"ID":541240,"DIS_CODE":0,"TOWNNAME":"北區","LI":"五福里","LIN":"12鄰","STREET":"成功路","SECT":" ","MAREA":" ","LANE":" ","ALLEY":" ","HOUSE_NO":"２４６號","E_COORD97":168267.85999999999,"N_COORD97":2544433.5499999998,"ADDRESS":"成功路２４６號","OBJECTID":541213},"geometry":{"x":168267.86000000127,"y":2544433.5500000007}},{"attributes":{"ID":541241,"DIS_CODE":0,"TOWNNAME":"北區","LI":"五福里","LIN":"12鄰","STREET":"成功路","SECT":" ","MAREA":" ","LANE":" ","ALLEY":" ","HOUSE_NO":"２５０號","E_COORD97":168259.41,"N_COORD97":2544433.77,"ADDRESS":"成功路２５０號","OBJECTID":541214},"geometry":{"x":168259.41000000015,"y":2544433.7700000014}},{"attributes":{"ID":541242,"DIS_CODE":0,"TOWNNAME":"北區","LI":"五福里","LIN":"12鄰","STREET":"成功路","SECT":" ","MAREA":" ","LANE":" ","ALLEY":" ","HOUSE_NO":"２５２號","E_COORD97":168254.92000000001,"N_COORD97":2544433.3599999999,"ADDRESS":"成功路２５２號","OBJECTID":541215},"geometry":{"x":168254.92000000086,"y":2544433.3599999994}},{"attributes":{"ID":541243,"DIS_CODE":0,"TOWNNAME":"北區","LI":"五福里","LIN":"12鄰","STREET":"成功路","SECT":" ","MAREA":" ","LANE":" ","ALLEY":" ","HOUSE_NO":"２５２號之１","E_COORD97":168257.64000000001,"N_COORD97":2544441.6699999999,"ADDRESS":"成功路２５２號之１","OBJECTID":541216},"geometry":{"x":168257.63999999873,"y":2544441.6700000018}},{"attributes":{"ID":541244,"DIS_CODE":0,"TOWNNAME":"北區","LI":"五福里","LIN":"12鄰","STREET":"成功路","SECT":" ","MAREA":" ","LANE":" ","ALLEY":" ","HOUSE_NO":"２７２號","E_COORD97":168221.64999999999,"N_COORD97":2544446.71,"ADDRESS":"成功路２７２號","OBJECTID":541217},"geometry":{"x":168221.6500000013,"y":2544446.7100000009}},{"attributes":{"ID":541245,"DIS_CODE":0,"TOWNNAME":"北區","LI":"五福里","LIN":"12鄰","STREET":"成功路","SECT":" ","MAREA":" ","LANE":" ","ALLEY":" ","HOUSE_NO":"２７４號","E_COORD97":168216.20000000001,"N_COORD97":2544449.5699999998,"ADDRESS":"成功路２７４號","OBJECTID":541218},"geometry":{"x":168216.20000000112,"y":2544449.5700000022}},{"attributes":{"ID":541246,"DIS_CODE":0,"TOWNNAME":"北區","LI":"五福里","LIN":"12鄰","STREET":"成功路","SECT":" ","MAREA":" ","LANE":" ","ALLEY":" ","HOUSE_NO":"２７６號","E_COORD97":168210.07000000001,"N_COORD97":2544452.71,"ADDRESS":"成功路２７６號","OBJECTID":541219},"geometry":{"x":168210.07000000123,"y":2544452.7100000009}},{"attributes":{"ID":541247,"DIS_CODE":0,"TOWNNAME":"北區","LI":"五福里","LIN":"12鄰","STREET":"自強街","SECT":" ","MAREA":" ","LANE":" ","ALLEY":" ","HOUSE_NO":"２號","E_COORD97":168216.72,"N_COORD97":2544462.29,"ADDRESS":"自強街２號","OBJECTID":541220},"geometry":{"x":168216.7200000016,"y":2544462.2900000028}},{"attributes":{"ID":541248,"DIS_CODE":0,"TOWNNAME":"北區","LI":"五福里","LIN":"12鄰","STREET":"自強街","SECT":" ","MAREA":" ","LANE":" ","ALLEY":" ","HOUSE_NO":"２之１號","E_COORD97":168218.28,"N_COORD97":2544466.71,"ADDRESS":"自強街２之１號","OBJECTID":541221},"geometry":{"x":168218.28000000026,"y":2544466.7100000009}},{"attributes":{"ID":541249,"DIS_CODE":0,"TOWNNAME":"北區","LI":"五福里","LIN":"12鄰","STREET":"自強街","SECT":" ","MAREA":" ","LANE":" ","ALLEY":" ","HOUSE_NO":"６號","E_COORD97":168220.70999999999,"N_COORD97":2544471.1200000001,"ADDRESS":"自強街６號","OBJECTID":541222},"geometry":{"x":168220.71000000089,"y":2544471.120000001}},{"attributes":{"ID":541250,"DIS_CODE":0,"TOWNNAME":"北區","LI":"五福里","LIN":"12鄰","STREET":"自強街","SECT":" ","MAREA":" ","LANE":" ","ALLEY":" ","HOUSE_NO":"８號","E_COORD97":168234.39999999999,"N_COORD97":2544463.4300000002,"ADDRESS":"自強街８號","OBJECTID":541223},"geometry":{"x":168234.40000000037,"y":2544463.4300000016}},{"attributes":{"ID":541251,"DIS_CODE":0,"TOWNNAME":"仁德區","LI":"保安里","LIN":"12鄰","STREET":"開發一路","SECT":" ","MAREA":" ","LANE":" ","ALLEY":" ","HOUSE_NO":"１號三樓","E_COORD97":172319.01000000001,"N_COORD97":2535875.02,"ADDRESS":"開發一路１號三樓","OBJECTID":541224},"geometry":{"x":172319.01000000071,"y":2535875.0199999996}},{"attributes":{"ID":541252,"DIS_CODE":0,"TOWNNAME":"北區","LI":"大豐里","LIN":"12鄰","STREET":"和緯路","SECT":"四段","MAREA":" ","LANE":" ","ALLEY":" ","HOUSE_NO":"１１９號","E_COORD97":167067.06,"N_COORD97":2545469.4300000002,"ADDRESS":"和緯路四段１１９號","OBJECTID":541225},"geometry":{"x":167067.06000000052,"y":2545469.4300000016}},{"attributes":{"ID":541253,"DIS_CODE":0,"TOWNNAME":"北區","LI":"大豐里","LIN":"12鄰","STREET":"和緯路","SECT":"四段","MAREA":" ","LANE":" ","ALLEY":" ","HOUSE_NO":"１２１號","E_COORD97":167063.12,"N_COORD97":2545467.71,"ADDRESS":"和緯路四段１２１號","OBJECTID":541226},"geometry":{"x":167063.12000000011,"y":2545467.7100000009}},{"attributes":{"ID":541254,"DIS_CODE":0,"TOWNNAME":"北區","LI":"大豐里","LIN":"12鄰","STREET":"和緯路","SECT":"四段","MAREA":" ","LANE":" ","ALLEY":" ","HOUSE_NO":"１２３號","E_COORD97":167059.47,"N_COORD97":2545466.4199999999,"ADDRESS":"和緯路四段１２３號","OBJECTID":541227},"geometry":{"x":167059.47000000067,"y":2545466.4200000018}},{"attributes":{"ID":541255,"DIS_CODE":0,"TOWNNAME":"北區","LI":"大豐里","LIN":"12鄰","STREET":"和緯路","SECT":"四段","MAREA":" ","LANE":" ","ALLEY":" ","HOUSE_NO":"１２５號","E_COORD97":167055.51000000001,"N_COORD97":2545465.1200000001,"ADDRESS":"和緯路四段１２５號","OBJECTID":541228},"geometry":{"x":167055.51000000071,"y":2545465.120000001}},{"attributes":{"ID":541256,"DIS_CODE":0,"TOWNNAME":"北區","LI":"大豐里","LIN":"12鄰","STREET":"和緯路","SECT":"四段","MAREA":" ","LANE":" ","ALLEY":" ","HOUSE_NO":"１２７號","E_COORD97":167052.35999999999,"N_COORD97":2545462.9700000002,"ADDRESS":"和緯路四段１２７號","OBJECTID":541229},"geometry":{"x":167052.36000000127,"y":2545462.9700000025}},{"attributes":{"ID":541257,"DIS_CODE":0,"TOWNNAME":"北區","LI":"大豐里","LIN":"12鄰","STREET":"和緯路","SECT":"四段","MAREA":" ","LANE":" ","ALLEY":" ","HOUSE_NO":"１２９號","E_COORD97":167047.54999999999,"N_COORD97":2545461.25,"ADDRESS":"和緯路四段１２９號","OBJECTID":541230},"geometry":{"x":167047.54999999981,"y":2545461.2500000019}},{"attributes":{"ID":541258,"DIS_CODE":0,"TOWNNAME":"北區","LI":"大豐里","LIN":"12鄰","STREET":"和緯路","SECT":"四段","MAREA":" ","LANE":" ","ALLEY":" ","HOUSE_NO":"１３１號","E_COORD97":167044.54999999999,"N_COORD97":2545459.46,"ADDRESS":"和緯路四段１３１號","OBJECTID":541231},"geometry":{"x":167044.54999999981,"y":2545459.4600000046}},{"attributes":{"ID":541259,"DIS_CODE":0,"TOWNNAME":"北區","LI":"大豐里","LIN":"12鄰","STREET":"和緯路","SECT":"四段","MAREA":" ","LANE":" ","ALLEY":" ","HOUSE_NO":"１３３號","E_COORD97":167041.10999999999,"N_COORD97":2545457.2400000002,"ADDRESS":"和緯路四段１３３號","OBJECTID":541232},"geometry":{"x":167041.11000000034,"y":2545457.2400000039}},{"attributes":{"ID":541260,"DIS_CODE":0,"TOWNNAME":"北區","LI":"大豐里","LIN":"12鄰","STREET":"和緯路","SECT":"四段","MAREA":" ","LANE":" ","ALLEY":" ","HOUSE_NO":"１３５號","E_COORD97":167037.16,"N_COORD97":2545455.6699999999,"ADDRESS":"和緯路四段１３５號","OBJECTID":541233},"geometry":{"x":167037.16000000015,"y":2545455.6699999999}},{"attributes":{"ID":541261,"DIS_CODE":0,"TOWNNAME":"北區","LI":"大豐里","LIN":"12鄰","STREET":"和緯路","SECT":"四段","MAREA":" ","LANE":" ","ALLEY":" ","HOUSE_NO":"１３７號","E_COORD97":167033.01000000001,"N_COORD97":2545453.4500000002,"ADDRESS":"和緯路四段１３７號","OBJECTID":541234},"geometry":{"x":167033.00999999978,"y":2545453.4499999993}},{"attributes":{"ID":541262,"DIS_CODE":0,"TOWNNAME":"北區","LI":"小康里","LIN":"12鄰","STREET":"大武街","SECT":" ","MAREA":" ","LANE":" ","ALLEY":" ","HOUSE_NO":"２１５號","E_COORD97":169644.26000000001,"N_COORD97":2546126.8799999999,"ADDRESS":"大武街２１５號","OBJECTID":541235},"geometry":{"x":169644.26000000071,"y":2546126.8800000008}},{"attributes":{"ID":541263,"DIS_CODE":0,"TOWNNAME":"北區","LI":"小康里","LIN":"12鄰","STREET":"大武街","SECT":" ","MAREA":" ","LANE":" ","ALLEY":" ","HOUSE_NO":"２１７號","E_COORD97":169644.26000000001,"N_COORD97":2546130.8500000001,"ADDRESS":"大武街２１７號","OBJECTID":541236},"geometry":{"x":169644.26000000071,"y":2546130.8500000015}},{"attributes":{"ID":541264,"DIS_CODE":0,"TOWNNAME":"北區","LI":"小康里","LIN":"12鄰","STREET":"大武街","SECT":" ","MAREA":" ","LANE":" ","ALLEY":" ","HOUSE_NO":"２１９號","E_COORD97":169644.45000000001,"N_COORD97":2546136.1499999999,"ADDRESS":"大武街２１９號","OBJECTID":541237},"geometry":{"x":169644.44999999925,"y":2546136.1500000022}},{"attributes":{"ID":541265,"DIS_CODE":0,"TOWNNAME":"北區","LI":"小康里","LIN":"12鄰","STREET":"大武街","SECT":" ","MAREA":" ","LANE":" ","ALLEY":" ","HOUSE_NO":"２２７號","E_COORD97":169649.54000000001,"N_COORD97":2546145.6200000001,"ADDRESS":"大武街２２７號","OBJECTID":541238},"geometry":{"x":169649.54000000097,"y":2546145.620000001}},{"attributes":{"ID":541266,"DIS_CODE":0,"TOWNNAME":"北區","LI":"小康里","LIN":"12鄰","STREET":"大武街","SECT":" ","MAREA":" ","LANE":" ","ALLEY":" ","HOUSE_NO":"２２９號","E_COORD97":169650.67999999999,"N_COORD97":2546150.9100000001,"ADDRESS":"大武街２２９號","OBJECTID":541239},"geometry":{"x":169650.6799999997,"y":2546150.9100000039}},{"attributes":{"ID":541267,"DIS_CODE":0,"TOWNNAME":"北區","LI":"小康里","LIN":"12鄰","STREET":"大武街","SECT":" ","MAREA":" ","LANE":" ","ALLEY":" ","HOUSE_NO":"２３１號","E_COORD97":169652.01000000001,"N_COORD97":2546158.1099999999,"ADDRESS":"大武街２３１號","OBJECTID":541240},"geometry":{"x":169652.00999999978,"y":2546158.1099999994}},{"attributes":{"ID":541268,"DIS_CODE":0,"TOWNNAME":"北區","LI":"小康里","LIN":"12鄰","STREET":"大武街","SECT":" ","MAREA":" ","LANE":" ","ALLEY":" ","HOUSE_NO":"２３３號","E_COORD97":169652.39000000001,"N_COORD97":2546162.8399999999,"ADDRESS":"大武街２３３號","OBJECTID":541241},"geometry":{"x":169652.38999999966,"y":2546162.8399999999}},{"attributes":{"ID":541269,"DIS_CODE":0,"TOWNNAME":"北區","LI":"小康里","LIN":"12鄰","STREET":"大武街","SECT":" ","MAREA":" ","LANE":" ","ALLEY":" ","HOUSE_NO":"２３５號","E_COORD97":169652.39000000001,"N_COORD97":2546167.3799999999,"ADDRESS":"大武街２３５號","OBJECTID":541242},"geometry":{"x":169652.38999999966,"y":2546167.3800000008}},{"attributes":{"ID":541270,"DIS_CODE":0,"TOWNNAME":"北區","LI":"小康里","LIN":"12鄰","STREET":"大武街","SECT":" ","MAREA":" ","LANE":" ","ALLEY":" ","HOUSE_NO":"２３７號","E_COORD97":169652.76000000001,"N_COORD97":2546170.4100000001,"ADDRESS":"大武街２３７號","OBJECTID":541243},"geometry":{"x":169652.76000000071,"y":2546170.4100000001}},{"attributes":{"ID":541271,"DIS_CODE":0,"TOWNNAME":"北區","LI":"小康里","LIN":"12鄰","STREET":"大武街","SECT":" ","MAREA":" ","LANE":" ","ALLEY":" ","HOUSE_NO":"２３９號","E_COORD97":169652.95000000001,"N_COORD97":2546173.8100000001,"ADDRESS":"大武街２３９號","OBJECTID":541244},"geometry":{"x":169652.94999999925,"y":2546173.8100000024}},{"attributes":{"ID":541272,"DIS_CODE":0,"TOWNNAME":"北區","LI":"小康里","LIN":"12鄰","STREET":"大武街","SECT":" ","MAREA":" ","LANE":" ","ALLEY":" ","HOUSE_NO":"２４１號之１","E_COORD97":169650.29999999999,"N_COORD97":2546181.5699999998,"ADDRESS":"大武街２４１號之１","OBJECTID":541245},"geometry":{"x":169650.30000000168,"y":2546181.5700000022}},{"attributes":{"ID":541273,"DIS_CODE":0,"TOWNNAME":"北區","LI":"小康里","LIN":"12鄰","STREET":"大武街","SECT":" ","MAREA":" ","LANE":" ","ALLEY":" ","HOUSE_NO":"２４３號之１","E_COORD97":169654.63,"N_COORD97":2546187.8199999998,"ADDRESS":"大武街２４３號之１","OBJECTID":541246},"geometry":{"x":169654.62999999989,"y":2546187.8200000003}},{"attributes":{"ID":541274,"DIS_CODE":0,"TOWNNAME":"北區","LI":"小康里","LIN":"12鄰","STREET":"大武街","SECT":" ","MAREA":" ","LANE":" ","ALLEY":" ","HOUSE_NO":"２４５號","E_COORD97":169657.53,"N_COORD97":2546198.6299999999,"ADDRESS":"大武街２４５號","OBJECTID":541247},"geometry":{"x":169657.53000000026,"y":2546198.6299999971}},{"attributes":{"ID":541275,"DIS_CODE":0,"TOWNNAME":"北區","LI":"小康里","LIN":"12鄰","STREET":"大武街","SECT":" ","MAREA":" ","LANE":" ","ALLEY":" ","HOUSE_NO":"２４５號之１","E_COORD97":169647.35999999999,"N_COORD97":2546197.9900000002,"ADDRESS":"大武街２４５號之１","OBJECTID":541248},"geometry":{"x":169647.36000000127,"y":2546197.9900000039}},{"attributes":{"ID":541276,"DIS_CODE":0,"TOWNNAME":"北區","LI":"小康里","LIN":"12鄰","STREET":"大武街","SECT":" ","MAREA":" ","LANE":" ","ALLEY":" ","HOUSE_NO":"２４５號之２","E_COORD97":169641.32000000001,"N_COORD97":2546198.8199999998,"ADDRESS":"大武街２４５號之２","OBJECTID":541249},"geometry":{"x":169641.32000000123,"y":2546198.8199999984}},{"attributes":{"ID":541277,"DIS_CODE":0,"TOWNNAME":"北區","LI":"小康里","LIN":"12鄰","STREET":"大武街","SECT":" ","MAREA":" ","LANE":" ","ALLEY":" ","HOUSE_NO":"２４５號之３","E_COORD97":169634.45000000001,"N_COORD97":2546198.9100000001,"ADDRESS":"大武街２４５號之３","OBJECTID":541250},"geometry":{"x":169634.45000000205,"y":2546198.910000002}},{"attributes":{"ID":541278,"DIS_CODE":0,"TOWNNAME":"北區","LI":"小康里","LIN":"12鄰","STREET":"大武街","SECT":" ","MAREA":" ","LANE":" ","ALLEY":" ","HOUSE_NO":"２４７號","E_COORD97":169660.54999999999,"N_COORD97":2546207.6000000001,"ADDRESS":"大武街２４７號","OBJECTID":541251},"geometry":{"x":169660.55000000168,"y":2546207.6000000015}},{"attributes":{"ID":541279,"DIS_CODE":0,"TOWNNAME":"北區","LI":"小康里","LIN":"12鄰","STREET":"大武街","SECT":" ","MAREA":" ","LANE":" ","ALLEY":" ","HOUSE_NO":"２４７號之１","E_COORD97":169652.03,"N_COORD97":2546208.1499999999,"ADDRESS":"大武街２４７號之１","OBJECTID":541252},"geometry":{"x":169652.03000000026,"y":2546208.1500000022}},{"attributes":{"ID":541280,"DIS_CODE":0,"TOWNNAME":"北區","LI":"小康里","LIN":"12鄰","STREET":"大武街","SECT":" ","MAREA":" ","LANE":" ","ALLEY":" ","HOUSE_NO":"２４７號之２","E_COORD97":169644.62,"N_COORD97":2546208.7000000002,"ADDRESS":"大武街２４７號之２","OBJECTID":541253},"geometry":{"x":169644.62000000011,"y":2546208.6999999974}},{"attributes":{"ID":541281,"DIS_CODE":0,"TOWNNAME":"北區","LI":"小康里","LIN":"12鄰","STREET":"大武街","SECT":" ","MAREA":" ","LANE":" ","ALLEY":" ","HOUSE_NO":"２４７號之３","E_COORD97":169636.64999999999,"N_COORD97":2546209.0600000001,"ADDRESS":"大武街２４７號之３","OBJECTID":541254},"geometry":{"x":169636.65000000224,"y":2546209.0600000024}},{"attributes":{"ID":541282,"DIS_CODE":0,"TOWNNAME":"北區","LI":"小康里","LIN":"12鄰","STREET":"大武街","SECT":" ","MAREA":" ","LANE":" ","ALLEY":" ","HOUSE_NO":"２４９號","E_COORD97":169643.14999999999,"N_COORD97":2546215.29,"ADDRESS":"大武街２４９號","OBJECTID":541255},"geometry":{"x":169643.15000000037,"y":2546215.290000001}},{"attributes":{"ID":541283,"DIS_CODE":0,"TOWNNAME":"北區","LI":"小康里","LIN":"12鄰","STREET":"大武街","SECT":" ","MAREA":" ","LANE":" ","ALLEY":" ","HOUSE_NO":"２５５號","E_COORD97":169657.89000000001,"N_COORD97":2546223.4399999999,"ADDRESS":"大武街２５５號","OBJECTID":541256},"geometry":{"x":169657.88999999873,"y":2546223.4399999995}},{"attributes":{"ID":541284,"DIS_CODE":0,"TOWNNAME":"北區","LI":"振興里","LIN":"12鄰","STREET":"長榮路","SECT":"四段","MAREA":" ","LANE":" ","ALLEY":" ","HOUSE_NO":"９５號","E_COORD97":170279.60999999999,"N_COORD97":2545058.6800000002,"ADDRESS":"長榮路四段９５號","OBJECTID":541257},"geometry":{"x":170279.61000000127,"y":2545058.6799999997}},{"attributes":{"ID":541285,"DIS_CODE":0,"TOWNNAME":"永康區","LI":"二王里","LIN":"12鄰","STREET":"永二街","SECT":" ","MAREA":" ","LANE":" ","ALLEY":" ","HOUSE_NO":"４２１號十四樓之１","E_COORD97":172803.62,"N_COORD97":2546573.79,"ADDRESS":"永二街４２１號十四樓之１","OBJECTID":541258},"geometry":{"x":172803.62000000104,"y":2546573.7899999991}},{"attributes":{"ID":541286,"DIS_CODE":0,"TOWNNAME":"東區","LI":"泉南里","LIN":"12鄰","STREET":"光華街","SECT":" ","MAREA":" ","LANE":" ","ALLEY":" ","HOUSE_NO":"２２７號二樓","E_COORD97":169504.06,"N_COORD97":2543035.21,"ADDRESS":"光華街２２７號二樓","OBJECTID":541259},"geometry":{"x":169504.05999999959,"y":2543035.2100000028}},{"attributes":{"ID":541287,"DIS_CODE":0,"TOWNNAME":"東區","LI":"泉南里","LIN":"12鄰","STREET":"光華街","SECT":" ","MAREA":" ","LANE":" ","ALLEY":" ","HOUSE_NO":"２２７號三樓","E_COORD97":169504.06,"N_COORD97":2543035.21,"ADDRESS":"光華街２２７號三樓","OBJECTID":541260},"geometry":{"x":169504.05999999959,"y":2543035.2100000028}},{"attributes":{"ID":541288,"DIS_CODE":0,"TOWNNAME":"東區","LI":"泉南里","LIN":"12鄰","STREET":"光華街","SECT":" ","MAREA":" ","LANE":" ","ALLEY":" ","HOUSE_NO":"２２７號三樓之１","E_COORD97":169504.06,"N_COORD97":2543035.21,"ADDRESS":"光華街２２７號三樓之１","OBJECTID":541261},"geometry":{"x":169504.05999999959,"y":2543035.2100000028}},{"attributes":{"ID":541289,"DIS_CODE":0,"TOWNNAME":"東區","LI":"泉南里","LIN":"12鄰","STREET":"光華街","SECT":" ","MAREA":" ","LANE":" ","ALLEY":" ","HOUSE_NO":"２２７號三樓之２","E_COORD97":169504.06,"N_COORD97":2543035.21,"ADDRESS":"光華街２２７號三樓之２","OBJECTID":541262},"geometry":{"x":169504.05999999959,"y":2543035.2100000028}},{"attributes":{"ID":541290,"DIS_CODE":0,"TOWNNAME":"東區","LI":"泉南里","LIN":"12鄰","STREET":"光華街","SECT":" ","MAREA":" ","LANE":" ","ALLEY":" ","HOUSE_NO":"２２７號三樓之３","E_COORD97":169504.06,"N_COORD97":2543035.21,"ADDRESS":"光華街２２７號三樓之３","OBJECTID":541263},"geometry":{"x":169504.05999999959,"y":2543035.2100000028}},{"attributes":{"ID":541291,"DIS_CODE":0,"TOWNNAME":"東區","LI":"泉南里","LIN":"12鄰","STREET":"光華街","SECT":" ","MAREA":" ","LANE":" ","ALLEY":" ","HOUSE_NO":"２２７號三樓之４","E_COORD97":169504.06,"N_COORD97":2543035.21,"ADDRESS":"光華街２２７號三樓之４","OBJECTID":541264},"geometry":{"x":169504.05999999959,"y":2543035.2100000028}},{"attributes":{"ID":541292,"DIS_CODE":0,"TOWNNAME":"東區","LI":"泉南里","LIN":"12鄰","STREET":"光華街","SECT":" ","MAREA":" ","LANE":" ","ALLEY":" ","HOUSE_NO":"２２７號三樓之５","E_COORD97":169504.06,"N_COORD97":2543035.21,"ADDRESS":"光華街２２７號三樓之５","OBJECTID":541265},"geometry":{"x":169504.05999999959,"y":2543035.2100000028}},{"attributes":{"ID":541293,"DIS_CODE":0,"TOWNNAME":"東區","LI":"泉南里","LIN":"12鄰","STREET":"光華街","SECT":" ","MAREA":" ","LANE":" ","ALLEY":" ","HOUSE_NO":"２２７號三樓之６","E_COORD97":169504.06,"N_COORD97":2543035.21,"ADDRESS":"光華街２２７號三樓之６","OBJECTID":541266},"geometry":{"x":169504.05999999959,"y":2543035.2100000028}},{"attributes":{"ID":541294,"DIS_CODE":0,"TOWNNAME":"東區","LI":"泉南里","LIN":"12鄰","STREET":"光華街","SECT":" ","MAREA":" ","LANE":" ","ALLEY":" ","HOUSE_NO":"２２７號七樓","E_COORD97":169504.06,"N_COORD97":2543035.21,"ADDRESS":"光華街２２７號七樓","OBJECTID":541267},"geometry":{"x":169504.05999999959,"y":2543035.2100000028}},{"attributes":{"ID":541295,"DIS_CODE":0,"TOWNNAME":"東區","LI":"泉南里","LIN":"12鄰","STREET":"光華街","SECT":" ","MAREA":" ","LANE":" ","ALLEY":" ","HOUSE_NO":"２２７號七樓之１","E_COORD97":169504.06,"N_COORD97":2543035.21,"ADDRESS":"光華街２２７號七樓之１","OBJECTID":541268},"geometry":{"x":169504.05999999959,"y":2543035.2100000028}},{"attributes":{"ID":541296,"DIS_CODE":0,"TOWNNAME":"東區","LI":"泉南里","LIN":"12鄰","STREET":"光華街","SECT":" ","MAREA":" ","LANE":" ","ALLEY":" ","HOUSE_NO":"２２７號七樓之２","E_COORD97":169504.06,"N_COORD97":2543035.21,"ADDRESS":"光華街２２７號七樓之２","OBJECTID":541269},"geometry":{"x":169504.05999999959,"y":2543035.2100000028}},{"attributes":{"ID":541297,"DIS_CODE":0,"TOWNNAME":"東區","LI":"泉南里","LIN":"12鄰","STREET":"光華街","SECT":" ","MAREA":" ","LANE":" ","ALLEY":" ","HOUSE_NO":"２２７號七樓之３","E_COORD97":169504.06,"N_COORD97":2543035.21,"ADDRESS":"光華街２２７號七樓之３","OBJECTID":541270},"geometry":{"x":169504.05999999959,"y":2543035.2100000028}},{"attributes":{"ID":541298,"DIS_CODE":0,"TOWNNAME":"東區","LI":"莊敬里","LIN":"12鄰","STREET":"東光路","SECT":"二段","MAREA":" ","LANE":" ","ALLEY":" ","HOUSE_NO":"４６號七樓","E_COORD97":171235.53,"N_COORD97":2544100.6000000001,"ADDRESS":"東光路二段４６號七樓","OBJECTID":541271},"geometry":{"x":171235.53000000026,"y":2544100.5999999996}},{"attributes":{"ID":541299,"DIS_CODE":0,"TOWNNAME":"東區","LI":"莊敬里","LIN":"12鄰","STREET":"東光路","SECT":"二段","MAREA":" ","LANE":" ","ALLEY":" ","HOUSE_NO":"４６號五樓","E_COORD97":171235.53,"N_COORD97":2544100.6000000001,"ADDRESS":"東光路二段４６號五樓","OBJECTID":541272},"geometry":{"x":171235.53000000026,"y":2544100.5999999996}},{"attributes":{"ID":541300,"DIS_CODE":0,"TOWNNAME":"東區","LI":"莊敬里","LIN":"12鄰","STREET":"東光路","SECT":"二段","MAREA":" ","LANE":" ","ALLEY":" ","HOUSE_NO":"４６號三樓","E_COORD97":171235.53,"N_COORD97":2544100.6000000001,"ADDRESS":"東光路二段４６號三樓","OBJECTID":541273},"geometry":{"x":171235.53000000026,"y":2544100.5999999996}},{"attributes":{"ID":541301,"DIS_CODE":0,"TOWNNAME":"東區","LI":"莊敬里","LIN":"12鄰","STREET":"東光路","SECT":"二段","MAREA":" ","LANE":" ","ALLEY":" ","HOUSE_NO":"４６號三樓之１","E_COORD97":171235.53,"N_COORD97":2544100.6000000001,"ADDRESS":"東光路二段４６號三樓之１","OBJECTID":541274},"geometry":{"x":171235.53000000026,"y":2544100.5999999996}},{"attributes":{"ID":541302,"DIS_CODE":0,"TOWNNAME":"東區","LI":"莊敬里","LIN":"12鄰","STREET":"東光路","SECT":"二段","MAREA":" ","LANE":" ","ALLEY":" ","HOUSE_NO":"４６號五樓之１","E_COORD97":171235.53,"N_COORD97":2544100.6000000001,"ADDRESS":"東光路二段４６號五樓之１","OBJECTID":541275},"geometry":{"x":171235.53000000026,"y":2544100.5999999996}},{"attributes":{"ID":541303,"DIS_CODE":0,"TOWNNAME":"東區","LI":"莊敬里","LIN":"12鄰","STREET":"東光路","SECT":"二段","MAREA":" ","LANE":" ","ALLEY":" ","HOUSE_NO":"４６號六樓","E_COORD97":171235.53,"N_COORD97":2544100.6000000001,"ADDRESS":"東光路二段４６號六樓","OBJECTID":541276},"geometry":{"x":171235.53000000026,"y":2544100.5999999996}},{"attributes":{"ID":541304,"DIS_CODE":0,"TOWNNAME":"東區","LI":"莊敬里","LIN":"12鄰","STREET":"東光路","SECT":"二段","MAREA":" ","LANE":" ","ALLEY":" ","HOUSE_NO":"４６號四樓","E_COORD97":171235.53,"N_COORD97":2544100.6000000001,"ADDRESS":"東光路二段４６號四樓","OBJECTID":541277},"geometry":{"x":171235.53000000026,"y":2544100.5999999996}},{"attributes":{"ID":541305,"DIS_CODE":0,"TOWNNAME":"東區","LI":"莊敬里","LIN":"12鄰","STREET":"東光路","SECT":"二段","MAREA":" ","LANE":" ","ALLEY":" ","HOUSE_NO":"４６號四樓之１","E_COORD97":171235.53,"N_COORD97":2544100.6000000001,"ADDRESS":"東光路二段４６號四樓之１","OBJECTID":541278},"geometry":{"x":171235.53000000026,"y":2544100.5999999996}},{"attributes":{"ID":541306,"DIS_CODE":0,"TOWNNAME":"東區","LI":"崇德里","LIN":"12鄰","STREET":"崇德十一街","SECT":" ","MAREA":" ","LANE":" ","ALLEY":" ","HOUSE_NO":"５６號二樓","E_COORD97":170945.53,"N_COORD97":2541444.9900000002,"ADDRESS":"崇德十一街５６號二樓","OBJECTID":541279},"geometry":{"x":170945.53000000026,"y":2541444.9900000021}},{"attributes":{"ID":541307,"DIS_CODE":0,"TOWNNAME":"東區","LI":"崇德里","LIN":"12鄰","STREET":"崇德十一街","SECT":" ","MAREA":" ","LANE":" ","ALLEY":" ","HOUSE_NO":"５６號三樓","E_COORD97":170945.53,"N_COORD97":2541444.9900000002,"ADDRESS":"崇德十一街５６號三樓","OBJECTID":541280},"geometry":{"x":170945.53000000026,"y":2541444.9900000021}},{"attributes":{"ID":541308,"DIS_CODE":0,"TOWNNAME":"東區","LI":"崇德里","LIN":"12鄰","STREET":"崇德十一街","SECT":" ","MAREA":" ","LANE":" ","ALLEY":" ","HOUSE_NO":"５６號三樓之１","E_COORD97":170945.53,"N_COORD97":2541444.9900000002,"ADDRESS":"崇德十一街５６號三樓之１","OBJECTID":541281},"geometry":{"x":170945.53000000026,"y":2541444.9900000021}},{"attributes":{"ID":541309,"DIS_CODE":0,"TOWNNAME":"東區","LI":"崇德里","LIN":"12鄰","STREET":"崇德十一街","SECT":" ","MAREA":" ","LANE":" ","ALLEY":" ","HOUSE_NO":"５６號四樓","E_COORD97":170945.53,"N_COORD97":2541444.9900000002,"ADDRESS":"崇德十一街５６號四樓","OBJECTID":541282},"geometry":{"x":170945.53000000026,"y":2541444.9900000021}},{"attributes":{"ID":541310,"DIS_CODE":0,"TOWNNAME":"東區","LI":"崇德里","LIN":"12鄰","STREET":"崇德十一街","SECT":" ","MAREA":" ","LANE":" ","ALLEY":" ","HOUSE_NO":"５４號三樓","E_COORD97":170937.92000000001,"N_COORD97":2541443.1600000001,"ADDRESS":"崇德十一街５４號三樓","OBJECTID":541283},"geometry":{"x":170937.92000000179,"y":2541443.1600000039}},{"attributes":{"ID":541311,"DIS_CODE":0,"TOWNNAME":"東區","LI":"崇德里","LIN":"12鄰","STREET":"崇德十一街","SECT":" ","MAREA":" ","LANE":" ","ALLEY":" ","HOUSE_NO":"５４號五樓","E_COORD97":170937.92000000001,"N_COORD97":2541443.1600000001,"ADDRESS":"崇德十一街５４號五樓","OBJECTID":541284},"geometry":{"x":170937.92000000179,"y":2541443.1600000039}},{"attributes":{"ID":541312,"DIS_CODE":0,"TOWNNAME":"東區","LI":"崇德里","LIN":"12鄰","STREET":"崇德十一街","SECT":" ","MAREA":" ","LANE":" ","ALLEY":" ","HOUSE_NO":"５４號六樓","E_COORD97":170937.92000000001,"N_COORD97":2541443.1600000001,"ADDRESS":"崇德十一街５４號六樓","OBJECTID":541285},"geometry":{"x":170937.92000000179,"y":2541443.1600000039}},{"attributes":{"ID":541313,"DIS_CODE":0,"TOWNNAME":"東區","LI":"崇德里","LIN":"12鄰","STREET":"崇德十一街","SECT":" ","MAREA":" ","LANE":" ","ALLEY":" ","HOUSE_NO":"５４號四樓","E_COORD97":170937.92000000001,"N_COORD97":2541443.1600000001,"ADDRESS":"崇德十一街５４號四樓","OBJECTID":541286},"geometry":{"x":170937.92000000179,"y":2541443.1600000039}},{"attributes":{"ID":541314,"DIS_CODE":0,"TOWNNAME":"東區","LI":"崇德里","LIN":"12鄰","STREET":"崇德十一街","SECT":" ","MAREA":" ","LANE":" ","ALLEY":" ","HOUSE_NO":"５６號五樓","E_COORD97":170945.53,"N_COORD97":2541444.9900000002,"ADDRESS":"崇德十一街５６號五樓","OBJECTID":541287},"geometry":{"x":170945.53000000026,"y":2541444.9900000021}},{"attributes":{"ID":541315,"DIS_CODE":0,"TOWNNAME":"東區","LI":"崇德里","LIN":"12鄰","STREET":"崇德十一街","SECT":" ","MAREA":" ","LANE":" ","ALLEY":" ","HOUSE_NO":"５６號五樓之１","E_COORD97":170945.53,"N_COORD97":2541444.9900000002,"ADDRESS":"崇德十一街５６號五樓之１","OBJECTID":541288},"geometry":{"x":170945.53000000026,"y":2541444.9900000021}},{"attributes":{"ID":541316,"DIS_CODE":0,"TOWNNAME":"東區","LI":"崇德里","LIN":"12鄰","STREET":"崇德十一街","SECT":" ","MAREA":" ","LANE":" ","ALLEY":" ","HOUSE_NO":"５６號六樓","E_COORD97":170945.53,"N_COORD97":2541444.9900000002,"ADDRESS":"崇德十一街５６號六樓","OBJECTID":541289},"geometry":{"x":170945.53000000026,"y":2541444.9900000021}},{"attributes":{"ID":541317,"DIS_CODE":0,"TOWNNAME":"東區","LI":"崇德里","LIN":"12鄰","STREET":"崇德十一街","SECT":" ","MAREA":" ","LANE":" ","ALLEY":" ","HOUSE_NO":"５６號二樓之１","E_COORD97":170945.53,"N_COORD97":2541444.9900000002,"ADDRESS":"崇德十一街５６號二樓之１","OBJECTID":541290},"geometry":{"x":170945.53000000026,"y":2541444.9900000021}},{"attributes":{"ID":541318,"DIS_CODE":0,"TOWNNAME":"東區","LI":"崇德里","LIN":"12鄰","STREET":"崇德十一街","SECT":" ","MAREA":" ","LANE":" ","ALLEY":" ","HOUSE_NO":"５４號二樓","E_COORD97":170937.92000000001,"N_COORD97":2541443.1600000001,"ADDRESS":"崇德十一街５４號二樓","OBJECTID":541291},"geometry":{"x":170937.92000000179,"y":2541443.1600000039}},{"attributes":{"ID":541319,"DIS_CODE":0,"TOWNNAME":"永康區","LI":"二王里","LIN":"12鄰","STREET":"永二街","SECT":" ","MAREA":" ","LANE":" ","ALLEY":" ","HOUSE_NO":"４１５號十三樓之１","E_COORD97":172846.42000000001,"N_COORD97":2546612.0499999998,"ADDRESS":"永二街４１５號十三樓之１","OBJECTID":541292},"geometry":{"x":172846.41999999993,"y":2546612.0500000026}},{"attributes":{"ID":541320,"DIS_CODE":0,"TOWNNAME":"仁德區","LI":"保安里","LIN":"12鄰","STREET":"開發一路","SECT":" ","MAREA":" ","LANE":" ","ALLEY":" ","HOUSE_NO":"５號四樓","E_COORD97":172331.62,"N_COORD97":2535886.27,"ADDRESS":"開發一路５號四樓","OBJECTID":541293},"geometry":{"x":172331.62000000011,"y":2535886.2700000014}},{"attributes":{"ID":541321,"DIS_CODE":0,"TOWNNAME":"仁德區","LI":"仁德里","LIN":"12鄰","STREET":"四維街","SECT":" ","MAREA":" ","LANE":" ","ALLEY":" ","HOUSE_NO":"２１號一樓之４","E_COORD97":173262.26000000001,"N_COORD97":2541501.79,"ADDRESS":"四維街２１號一樓之４","OBJECTID":541294},"geometry":{"x":173262.25999999978,"y":2541501.7899999991}},{"attributes":{"ID":541322,"DIS_CODE":0,"TOWNNAME":"仁德區","LI":"仁德里","LIN":"12鄰","STREET":"四維街","SECT":" ","MAREA":" ","LANE":" ","ALLEY":" ","HOUSE_NO":"２１號二樓之８","E_COORD97":173262.39000000001,"N_COORD97":2541501.79,"ADDRESS":"四維街２１號二樓之８","OBJECTID":541295},"geometry":{"x":173262.3900000006,"y":2541501.7899999991}},{"attributes":{"ID":541323,"DIS_CODE":0,"TOWNNAME":"仁德區","LI":"仁德里","LIN":"12鄰","STREET":"四維街","SECT":" ","MAREA":" ","LANE":" ","ALLEY":" ","HOUSE_NO":"２１號五樓之３","E_COORD97":173262.34,"N_COORD97":2541501.79,"ADDRESS":"四維街２１號五樓之３","OBJECTID":541296},"geometry":{"x":173262.33999999985,"y":2541501.7899999991}},{"attributes":{"ID":541324,"DIS_CODE":0,"TOWNNAME":"仁德區","LI":"仁德里","LIN":"12鄰","STREET":"四維街","SECT":" ","MAREA":" ","LANE":" ","ALLEY":" ","HOUSE_NO":"２１號五樓之５","E_COORD97":173262.39000000001,"N_COORD97":2541501.79,"ADDRESS":"四維街２１號五樓之５","OBJECTID":541297},"geometry":{"x":173262.3900000006,"y":2541501.7899999991}},{"attributes":{"ID":541325,"DIS_CODE":0,"TOWNNAME":"東區","LI":"東門里","LIN":"12鄰","STREET":"新樓街","SECT":" ","MAREA":" ","LANE":" ","ALLEY":" ","HOUSE_NO":"４５號三樓","E_COORD97":169523.32999999999,"N_COORD97":2543354.8500000001,"ADDRESS":"新樓街４５號三樓","OBJECTID":541298},"geometry":{"x":169523.33000000194,"y":2543354.8500000015}},{"attributes":{"ID":541326,"DIS_CODE":0,"TOWNNAME":"仁德區","LI":"仁德里","LIN":"12鄰","STREET":"四維街","SECT":" ","MAREA":" ","LANE":" ","ALLEY":" ","HOUSE_NO":"２１號二樓之５","E_COORD97":173262.39000000001,"N_COORD97":2541501.79,"ADDRESS":"四維街２１號二樓之５","OBJECTID":541299},"geometry":{"x":173262.3900000006,"y":2541501.7899999991}},{"attributes":{"ID":541327,"DIS_CODE":0,"TOWNNAME":"仁德區","LI":"保安里","LIN":"12鄰","STREET":"永德路","SECT":" ","MAREA":" ","LANE":" ","ALLEY":" ","HOUSE_NO":"９號二樓","E_COORD97":172071.98000000001,"N_COORD97":2536093.02,"ADDRESS":"永德路９號二樓","OBJECTID":541300},"geometry":{"x":172071.98000000045,"y":2536093.0199999996}},{"attributes":{"ID":541328,"DIS_CODE":0,"TOWNNAME":"仁德區","LI":"仁德里","LIN":"12鄰","STREET":"四維街","SECT":" ","MAREA":" ","LANE":" ","ALLEY":" ","HOUSE_NO":"２１號五樓之７","E_COORD97":173262.32000000001,"N_COORD97":2541501.79,"ADDRESS":"四維街２１號五樓之７","OBJECTID":541301},"geometry":{"x":173262.3200000003,"y":2541501.7899999991}},{"attributes":{"ID":541329,"DIS_CODE":0,"TOWNNAME":"善化區","LI":"坐駕里","LIN":"12鄰","STREET":"大成路","SECT":" ","MAREA":" ","LANE":" ","ALLEY":" ","HOUSE_NO":"２９１號四樓","E_COORD97":178156.63,"N_COORD97":2558809.5,"ADDRESS":"大成路２９１號四樓","OBJECTID":541302},"geometry":{"x":178156.63000000082,"y":2558809.4999999981}},{"attributes":{"ID":541330,"DIS_CODE":0,"TOWNNAME":"善化區","LI":"坐駕里","LIN":"12鄰","STREET":"大成路","SECT":" ","MAREA":" ","LANE":" ","ALLEY":" ","HOUSE_NO":"２９１號二樓","E_COORD97":178156.63,"N_COORD97":2558809.5,"ADDRESS":"大成路２９１號二樓","OBJECTID":541303},"geometry":{"x":178156.63000000082,"y":2558809.4999999981}},{"attributes":{"ID":541331,"DIS_CODE":0,"TOWNNAME":"善化區","LI":"坐駕里","LIN":"12鄰","STREET":"大成路","SECT":" ","MAREA":" ","LANE":" ","ALLEY":" ","HOUSE_NO":"２９１號六樓","E_COORD97":178156.63,"N_COORD97":2558809.5,"ADDRESS":"大成路２９１號六樓","OBJECTID":541304},"geometry":{"x":178156.63000000082,"y":2558809.4999999981}},{"attributes":{"ID":541332,"DIS_CODE":0,"TOWNNAME":"善化區","LI":"坐駕里","LIN":"12鄰","STREET":"大成路","SECT":" ","MAREA":" ","LANE":" ","ALLEY":" ","HOUSE_NO":"２９１號三樓","E_COORD97":178156.63,"N_COORD97":2558809.5,"ADDRESS":"大成路２９１號三樓","OBJECTID":541305},"geometry":{"x":178156.63000000082,"y":2558809.4999999981}},{"attributes":{"ID":541333,"DIS_CODE":0,"TOWNNAME":"中西區","LI":"保安里","LIN":"12鄰","STREET":"國華街","SECT":"二段","MAREA":" ","LANE":" ","ALLEY":" ","HOUSE_NO":"１５９號四樓","E_COORD97":167684.60999999999,"N_COORD97":2543644.5299999998,"ADDRESS":"國華街二段１５９號四樓","OBJECTID":541306},"geometry":{"x":167684.61000000127,"y":2543644.5300000012}},{"attributes":{"ID":541334,"DIS_CODE":0,"TOWNNAME":"東區","LI":"龍山里","LIN":"12鄰","STREET":"東門路","SECT":"一段","MAREA":" ","LANE":" ","ALLEY":" ","HOUSE_NO":"３５８號十樓之１","E_COORD97":169853.26000000001,"N_COORD97":2543007.4700000002,"ADDRESS":"東門路一段３５８號十樓之１","OBJECTID":541307},"geometry":{"x":169853.25999999978,"y":2543007.4700000007}},{"attributes":{"ID":541335,"DIS_CODE":0,"TOWNNAME":"東區","LI":"龍山里","LIN":"12鄰","STREET":"東門路","SECT":"一段","MAREA":" ","LANE":" ","ALLEY":" ","HOUSE_NO":"３５８號十樓之２","E_COORD97":169853.26000000001,"N_COORD97":2543007.4700000002,"ADDRESS":"東門路一段３５８號十樓之２","OBJECTID":541308},"geometry":{"x":169853.25999999978,"y":2543007.4700000007}},{"attributes":{"ID":541336,"DIS_CODE":0,"TOWNNAME":"東區","LI":"龍山里","LIN":"12鄰","STREET":"長榮路","SECT":"一段","MAREA":" ","LANE":" ","ALLEY":" ","HOUSE_NO":"２５６號三樓","E_COORD97":169923.89000000001,"N_COORD97":2542985.9199999999,"ADDRESS":"長榮路一段２５６號三樓","OBJECTID":541309},"geometry":{"x":169923.88999999966,"y":2542985.9199999999}},{"attributes":{"ID":541337,"DIS_CODE":0,"TOWNNAME":"東區","LI":"龍山里","LIN":"12鄰","STREET":"長榮路","SECT":"一段","MAREA":" ","LANE":" ","ALLEY":" ","HOUSE_NO":"２５６號三樓之１","E_COORD97":169923.89000000001,"N_COORD97":2542985.9199999999,"ADDRESS":"長榮路一段２５６號三樓之１","OBJECTID":541310},"geometry":{"x":169923.88999999966,"y":2542985.9199999999}},{"attributes":{"ID":541338,"DIS_CODE":0,"TOWNNAME":"東區","LI":"龍山里","LIN":"12鄰","STREET":"長榮路","SECT":"一段","MAREA":" ","LANE":" ","ALLEY":" ","HOUSE_NO":"２５６號四樓","E_COORD97":169923.89000000001,"N_COORD97":2542985.9199999999,"ADDRESS":"長榮路一段２５６號四樓","OBJECTID":541311},"geometry":{"x":169923.88999999966,"y":2542985.9199999999}},{"attributes":{"ID":541339,"DIS_CODE":0,"TOWNNAME":"東區","LI":"龍山里","LIN":"12鄰","STREET":"長榮路","SECT":"一段","MAREA":" ","LANE":" ","ALLEY":" ","HOUSE_NO":"２５６號四樓之１","E_COORD97":169923.89000000001,"N_COORD97":2542985.9199999999,"ADDRESS":"長榮路一段２５６號四樓之１","OBJECTID":541312},"geometry":{"x":169923.88999999966,"y":2542985.9199999999}},{"attributes":{"ID":541340,"DIS_CODE":0,"TOWNNAME":"東區","LI":"龍山里","LIN":"12鄰","STREET":"長榮路","SECT":"一段","MAREA":" ","LANE":" ","ALLEY":" ","HOUSE_NO":"２５６號四樓之２","E_COORD97":169923.89000000001,"N_COORD97":2542985.9199999999,"ADDRESS":"長榮路一段２５６號四樓之２","OBJECTID":541313},"geometry":{"x":169923.88999999966,"y":2542985.9199999999}},{"attributes":{"ID":541341,"DIS_CODE":0,"TOWNNAME":"東區","LI":"龍山里","LIN":"12鄰","STREET":"長榮路","SECT":"一段","MAREA":" ","LANE":" ","ALLEY":" ","HOUSE_NO":"２５６號四樓之３","E_COORD97":169923.89000000001,"N_COORD97":2542985.9199999999,"ADDRESS":"長榮路一段２５６號四樓之３","OBJECTID":541314},"geometry":{"x":169923.88999999966,"y":2542985.9199999999}},{"attributes":{"ID":541342,"DIS_CODE":0,"TOWNNAME":"東區","LI":"龍山里","LIN":"12鄰","STREET":"長榮路","SECT":"一段","MAREA":" ","LANE":" ","ALLEY":" ","HOUSE_NO":"２５６號四樓之４","E_COORD97":169923.89000000001,"N_COORD97":2542985.9199999999,"ADDRESS":"長榮路一段２５６號四樓之４","OBJECTID":541315},"geometry":{"x":169923.88999999966,"y":2542985.9199999999}},{"attributes":{"ID":541343,"DIS_CODE":0,"TOWNNAME":"東區","LI":"龍山里","LIN":"12鄰","STREET":"長榮路","SECT":"一段","MAREA":" ","LANE":" ","ALLEY":" ","HOUSE_NO":"２５６號四樓之５","E_COORD97":169923.89000000001,"N_COORD97":2542985.9199999999,"ADDRESS":"長榮路一段２５６號四樓之５","OBJECTID":541316},"geometry":{"x":169923.88999999966,"y":2542985.9199999999}},{"attributes":{"ID":541344,"DIS_CODE":0,"TOWNNAME":"佳里區","LI":"東寧里","LIN":"12鄰","STREET":"和平街","SECT":" ","MAREA":" ","LANE":" ","ALLEY":" ","HOUSE_NO":"２６號","E_COORD97":166016.28,"N_COORD97":2562522.6699999999,"ADDRESS":"和平街２６號","OBJECTID":541317},"geometry":{"x":166016.27999999933,"y":2562522.6699999999}},{"attributes":{"ID":541345,"DIS_CODE":0,"TOWNNAME":"東區","LI":"龍山里","LIN":"12鄰","STREET":"長榮路","SECT":"一段","MAREA":" ","LANE":" ","ALLEY":" ","HOUSE_NO":"２５６號四樓之６","E_COORD97":169923.89000000001,"N_COORD97":2542985.9199999999,"ADDRESS":"長榮路一段２５６號四樓之６","OBJECTID":541318},"geometry":{"x":169923.88999999966,"y":2542985.9199999999}},{"attributes":{"ID":541346,"DIS_CODE":0,"TOWNNAME":"東區","LI":"龍山里","LIN":"12鄰","STREET":"長榮路","SECT":"一段","MAREA":" ","LANE":" ","ALLEY":" ","HOUSE_NO":"２５６號四樓之７","E_COORD97":169923.89000000001,"N_COORD97":2542985.9199999999,"ADDRESS":"長榮路一段２５６號四樓之７","OBJECTID":541319},"geometry":{"x":169923.88999999966,"y":2542985.9199999999}},{"attributes":{"ID":541347,"DIS_CODE":0,"TOWNNAME":"東區","LI":"龍山里","LIN":"12鄰","STREET":"長榮路","SECT":"一段","MAREA":" ","LANE":" ","ALLEY":" ","HOUSE_NO":"２５６號四樓之８","E_COORD97":169923.89000000001,"N_COORD97":2542985.9199999999,"ADDRESS":"長榮路一段２５６號四樓之８","OBJECTID":541320},"geometry":{"x":169923.88999999966,"y":2542985.9199999999}},{"attributes":{"ID":541348,"DIS_CODE":0,"TOWNNAME":"東區","LI":"龍山里","LIN":"12鄰","STREET":"長榮路","SECT":"一段","MAREA":" ","LANE":" ","ALLEY":" ","HOUSE_NO":"２５６號五樓","E_COORD97":169923.89000000001,"N_COORD97":2542985.9199999999,"ADDRESS":"長榮路一段２５６號五樓","OBJECTID":541321},"geometry":{"x":169923.88999999966,"y":2542985.9199999999}},{"attributes":{"ID":541349,"DIS_CODE":0,"TOWNNAME":"東區","LI":"龍山里","LIN":"12鄰","STREET":"長榮路","SECT":"一段","MAREA":" ","LANE":" ","ALLEY":" ","HOUSE_NO":"２５６號五樓之１","E_COORD97":169923.89000000001,"N_COORD97":2542985.9199999999,"ADDRESS":"長榮路一段２５６號五樓之１","OBJECTID":541322},"geometry":{"x":169923.88999999966,"y":2542985.9199999999}},{"attributes":{"ID":541350,"DIS_CODE":0,"TOWNNAME":"東區","LI":"龍山里","LIN":"12鄰","STREET":"長榮路","SECT":"一段","MAREA":" ","LANE":" ","ALLEY":" ","HOUSE_NO":"２５６號五樓之２","E_COORD97":169923.89000000001,"N_COORD97":2542985.9199999999,"ADDRESS":"長榮路一段２５６號五樓之２","OBJECTID":541323},"geometry":{"x":169923.88999999966,"y":2542985.9199999999}},{"attributes":{"ID":541351,"DIS_CODE":0,"TOWNNAME":"東區","LI":"龍山里","LIN":"12鄰","STREET":"長榮路","SECT":"一段","MAREA":" ","LANE":" ","ALLEY":" ","HOUSE_NO":"２５６號五樓之３","E_COORD97":169923.89000000001,"N_COORD97":2542985.9199999999,"ADDRESS":"長榮路一段２５６號五樓之３","OBJECTID":541324},"geometry":{"x":169923.88999999966,"y":2542985.9199999999}},{"attributes":{"ID":541352,"DIS_CODE":0,"TOWNNAME":"東區","LI":"龍山里","LIN":"12鄰","STREET":"長榮路","SECT":"一段","MAREA":" ","LANE":" ","ALLEY":" ","HOUSE_NO":"２５６號五樓之４","E_COORD97":169923.89000000001,"N_COORD97":2542985.9199999999,"ADDRESS":"長榮路一段２５６號五樓之４","OBJECTID":541325},"geometry":{"x":169923.88999999966,"y":2542985.9199999999}},{"attributes":{"ID":541353,"DIS_CODE":0,"TOWNNAME":"東區","LI":"龍山里","LIN":"12鄰","STREET":"長榮路","SECT":"一段","MAREA":" ","LANE":" ","ALLEY":" ","HOUSE_NO":"２５６號五樓之５","E_COORD97":169923.89000000001,"N_COORD97":2542985.9199999999,"ADDRESS":"長榮路一段２５６號五樓之５","OBJECTID":541326},"geometry":{"x":169923.88999999966,"y":2542985.9199999999}},{"attributes":{"ID":541354,"DIS_CODE":0,"TOWNNAME":"東區","LI":"龍山里","LIN":"12鄰","STREET":"長榮路","SECT":"一段","MAREA":" ","LANE":" ","ALLEY":" ","HOUSE_NO":"２５６號五樓之６","E_COORD97":169923.89000000001,"N_COORD97":2542985.9199999999,"ADDRESS":"長榮路一段２５６號五樓之６","OBJECTID":541327},"geometry":{"x":169923.88999999966,"y":2542985.9199999999}},{"attributes":{"ID":541355,"DIS_CODE":0,"TOWNNAME":"東區","LI":"龍山里","LIN":"12鄰","STREET":"長榮路","SECT":"一段","MAREA":" ","LANE":" ","ALLEY":" ","HOUSE_NO":"２５６號五樓之７","E_COORD97":169923.89000000001,"N_COORD97":2542985.9199999999,"ADDRESS":"長榮路一段２５６號五樓之７","OBJECTID":541328},"geometry":{"x":169923.88999999966,"y":2542985.9199999999}},{"attributes":{"ID":541356,"DIS_CODE":0,"TOWNNAME":"東區","LI":"龍山里","LIN":"12鄰","STREET":"長榮路","SECT":"一段","MAREA":" ","LANE":" ","ALLEY":" ","HOUSE_NO":"２５６號五樓之８","E_COORD97":169923.89000000001,"N_COORD97":2542985.9199999999,"ADDRESS":"長榮路一段２５６號五樓之８","OBJECTID":541329},"geometry":{"x":169923.88999999966,"y":2542985.9199999999}},{"attributes":{"ID":541357,"DIS_CODE":0,"TOWNNAME":"東區","LI":"龍山里","LIN":"12鄰","STREET":"長榮路","SECT":"一段","MAREA":" ","LANE":" ","ALLEY":" ","HOUSE_NO":"２５６號五樓之９","E_COORD97":169923.89000000001,"N_COORD97":2542985.9199999999,"ADDRESS":"長榮路一段２５６號五樓之９","OBJECTID":541330},"geometry":{"x":169923.88999999966,"y":2542985.9199999999}},{"attributes":{"ID":541358,"DIS_CODE":0,"TOWNNAME":"永康區","LI":"二王里","LIN":"12鄰","STREET":"永二街","SECT":" ","MAREA":" ","LANE":" ","ALLEY":" ","HOUSE_NO":"４１５號九樓之３","E_COORD97":172845.26999999999,"N_COORD97":2546612.0499999998,"ADDRESS":"永二街４１５號九樓之３","OBJECTID":541331},"geometry":{"x":172845.26999999955,"y":2546612.0500000026}},{"attributes":{"ID":541359,"DIS_CODE":0,"TOWNNAME":"東區","LI":"龍山里","LIN":"12鄰","STREET":"長榮路","SECT":"一段","MAREA":" ","LANE":" ","ALLEY":" ","HOUSE_NO":"２５６號五樓之１０","E_COORD97":169923.89000000001,"N_COORD97":2542985.9199999999,"ADDRESS":"長榮路一段２５６號五樓之１０","OBJECTID":541332},"geometry":{"x":169923.88999999966,"y":2542985.9199999999}},{"attributes":{"ID":541360,"DIS_CODE":0,"TOWNNAME":"東區","LI":"龍山里","LIN":"12鄰","STREET":"長榮路","SECT":"一段","MAREA":" ","LANE":" ","ALLEY":" ","HOUSE_NO":"２５６號六樓","E_COORD97":169923.89000000001,"N_COORD97":2542985.9199999999,"ADDRESS":"長榮路一段２５６號六樓","OBJECTID":541333},"geometry":{"x":169923.88999999966,"y":2542985.9199999999}},{"attributes":{"ID":541361,"DIS_CODE":0,"TOWNNAME":"東區","LI":"龍山里","LIN":"12鄰","STREET":"長榮路","SECT":"一段","MAREA":" ","LANE":" ","ALLEY":" ","HOUSE_NO":"２５６號六樓之１","E_COORD97":169923.89000000001,"N_COORD97":2542985.9199999999,"ADDRESS":"長榮路一段２５６號六樓之１","OBJECTID":541334},"geometry":{"x":169923.88999999966,"y":2542985.9199999999}},{"attributes":{"ID":541362,"DIS_CODE":0,"TOWNNAME":"東區","LI":"龍山里","LIN":"12鄰","STREET":"長榮路","SECT":"一段","MAREA":" ","LANE":" ","ALLEY":" ","HOUSE_NO":"２５６號六樓之２","E_COORD97":169923.89000000001,"N_COORD97":2542985.9199999999,"ADDRESS":"長榮路一段２５６號六樓之２","OBJECTID":541335},"geometry":{"x":169923.88999999966,"y":2542985.9199999999}},{"attributes":{"ID":541363,"DIS_CODE":0,"TOWNNAME":"東區","LI":"龍山里","LIN":"12鄰","STREET":"長榮路","SECT":"一段","MAREA":" ","LANE":" ","ALLEY":" ","HOUSE_NO":"２５６號六樓之３","E_COORD97":169923.89000000001,"N_COORD97":2542985.9199999999,"ADDRESS":"長榮路一段２５６號六樓之３","OBJECTID":541336},"geometry":{"x":169923.88999999966,"y":2542985.9199999999}},{"attributes":{"ID":541364,"DIS_CODE":0,"TOWNNAME":"東區","LI":"龍山里","LIN":"12鄰","STREET":"長榮路","SECT":"一段","MAREA":" ","LANE":" ","ALLEY":" ","HOUSE_NO":"２５６號六樓之４","E_COORD97":169923.89000000001,"N_COORD97":2542985.9199999999,"ADDRESS":"長榮路一段２５６號六樓之４","OBJECTID":541337},"geometry":{"x":169923.88999999966,"y":2542985.9199999999}},{"attributes":{"ID":541365,"DIS_CODE":0,"TOWNNAME":"東區","LI":"龍山里","LIN":"12鄰","STREET":"長榮路","SECT":"一段","MAREA":" ","LANE":" ","ALLEY":" ","HOUSE_NO":"２５６號六樓之５","E_COORD97":169923.89000000001,"N_COORD97":2542985.9199999999,"ADDRESS":"長榮路一段２５６號六樓之５","OBJECTID":541338},"geometry":{"x":169923.88999999966,"y":2542985.9199999999}},{"attributes":{"ID":541366,"DIS_CODE":0,"TOWNNAME":"東區","LI":"龍山里","LIN":"12鄰","STREET":"長榮路","SECT":"一段","MAREA":" ","LANE":" ","ALLEY":" ","HOUSE_NO":"２５６號六樓之６","E_COORD97":169923.89000000001,"N_COORD97":2542985.9199999999,"ADDRESS":"長榮路一段２５６號六樓之６","OBJECTID":541339},"geometry":{"x":169923.88999999966,"y":2542985.9199999999}},{"attributes":{"ID":541367,"DIS_CODE":0,"TOWNNAME":"東區","LI":"龍山里","LIN":"12鄰","STREET":"長榮路","SECT":"一段","MAREA":" ","LANE":" ","ALLEY":" ","HOUSE_NO":"２５６號六樓之７","E_COORD97":169923.89000000001,"N_COORD97":2542985.9199999999,"ADDRESS":"長榮路一段２５６號六樓之７","OBJECTID":541340},"geometry":{"x":169923.88999999966,"y":2542985.9199999999}},{"attributes":{"ID":541368,"DIS_CODE":0,"TOWNNAME":"東區","LI":"龍山里","LIN":"12鄰","STREET":"長榮路","SECT":"一段","MAREA":" ","LANE":" ","ALLEY":" ","HOUSE_NO":"２５６號六樓之８","E_COORD97":169923.89000000001,"N_COORD97":2542985.9199999999,"ADDRESS":"長榮路一段２５６號六樓之８","OBJECTID":541341},"geometry":{"x":169923.88999999966,"y":2542985.9199999999}},{"attributes":{"ID":541369,"DIS_CODE":0,"TOWNNAME":"東區","LI":"龍山里","LIN":"12鄰","STREET":"長榮路","SECT":"一段","MAREA":" ","LANE":" ","ALLEY":" ","HOUSE_NO":"２５６號七樓","E_COORD97":169923.89000000001,"N_COORD97":2542985.9199999999,"ADDRESS":"長榮路一段２５６號七樓","OBJECTID":541342},"geometry":{"x":169923.88999999966,"y":2542985.9199999999}},{"attributes":{"ID":541370,"DIS_CODE":0,"TOWNNAME":"東區","LI":"龍山里","LIN":"12鄰","STREET":"長榮路","SECT":"一段","MAREA":" ","LANE":" ","ALLEY":" ","HOUSE_NO":"２５６號七樓之１","E_COORD97":169923.89000000001,"N_COORD97":2542985.9199999999,"ADDRESS":"長榮路一段２５６號七樓之１","OBJECTID":541343},"geometry":{"x":169923.88999999966,"y":2542985.9199999999}},{"attributes":{"ID":541371,"DIS_CODE":0,"TOWNNAME":"東區","LI":"龍山里","LIN":"12鄰","STREET":"長榮路","SECT":"一段","MAREA":" ","LANE":" ","ALLEY":" ","HOUSE_NO":"２５６號七樓之２","E_COORD97":169923.89000000001,"N_COORD97":2542985.9199999999,"ADDRESS":"長榮路一段２５６號七樓之２","OBJECTID":541344},"geometry":{"x":169923.88999999966,"y":2542985.9199999999}},{"attributes":{"ID":541372,"DIS_CODE":0,"TOWNNAME":"東區","LI":"龍山里","LIN":"12鄰","STREET":"長榮路","SECT":"一段","MAREA":" ","LANE":" ","ALLEY":" ","HOUSE_NO":"２５６號七樓之３","E_COORD97":169923.89000000001,"N_COORD97":2542985.9199999999,"ADDRESS":"長榮路一段２５６號七樓之３","OBJECTID":541345},"geometry":{"x":169923.88999999966,"y":2542985.9199999999}},{"attributes":{"ID":541373,"DIS_CODE":0,"TOWNNAME":"永康區","LI":"二王里","LIN":"12鄰","STREET":"永二街","SECT":" ","MAREA":" ","LANE":" ","ALLEY":" ","HOUSE_NO":"４１５號九樓之２","E_COORD97":172845.29999999999,"N_COORD97":2546612.0499999998,"ADDRESS":"永二街４１５號九樓之２","OBJECTID":541346},"geometry":{"x":172845.29999999981,"y":2546612.0500000026}},{"attributes":{"ID":541374,"DIS_CODE":0,"TOWNNAME":"東區","LI":"龍山里","LIN":"12鄰","STREET":"長榮路","SECT":"一段","MAREA":" ","LANE":" ","ALLEY":" ","HOUSE_NO":"２５６號七樓之４","E_COORD97":169923.89000000001,"N_COORD97":2542985.9199999999,"ADDRESS":"長榮路一段２５６號七樓之４","OBJECTID":541347},"geometry":{"x":169923.88999999966,"y":2542985.9199999999}},{"attributes":{"ID":541375,"DIS_CODE":0,"TOWNNAME":"東區","LI":"龍山里","LIN":"12鄰","STREET":"長榮路","SECT":"一段","MAREA":" ","LANE":" ","ALLEY":" ","HOUSE_NO":"２５６號七樓之５","E_COORD97":169923.89000000001,"N_COORD97":2542985.9199999999,"ADDRESS":"長榮路一段２５６號七樓之５","OBJECTID":541348},"geometry":{"x":169923.88999999966,"y":2542985.9199999999}},{"attributes":{"ID":541376,"DIS_CODE":0,"TOWNNAME":"東區","LI":"龍山里","LIN":"12鄰","STREET":"長榮路","SECT":"一段","MAREA":" ","LANE":" ","ALLEY":" ","HOUSE_NO":"２５６號七樓之６","E_COORD97":169923.89000000001,"N_COORD97":2542985.9199999999,"ADDRESS":"長榮路一段２５６號七樓之６","OBJECTID":541349},"geometry":{"x":169923.88999999966,"y":2542985.9199999999}},{"attributes":{"ID":541377,"DIS_CODE":0,"TOWNNAME":"東區","LI":"龍山里","LIN":"12鄰","STREET":"長榮路","SECT":"一段","MAREA":" ","LANE":" ","ALLEY":" ","HOUSE_NO":"２５６號七樓之７","E_COORD97":169923.89000000001,"N_COORD97":2542985.9199999999,"ADDRESS":"長榮路一段２５６號七樓之７","OBJECTID":541350},"geometry":{"x":169923.88999999966,"y":2542985.9199999999}},{"attributes":{"ID":541378,"DIS_CODE":0,"TOWNNAME":"東區","LI":"龍山里","LIN":"12鄰","STREET":"長榮路","SECT":"一段","MAREA":" ","LANE":" ","ALLEY":" ","HOUSE_NO":"２５６號七樓之８","E_COORD97":169923.89000000001,"N_COORD97":2542985.9199999999,"ADDRESS":"長榮路一段２５６號七樓之８","OBJECTID":541351},"geometry":{"x":169923.88999999966,"y":2542985.9199999999}},{"attributes":{"ID":541379,"DIS_CODE":0,"TOWNNAME":"東區","LI":"龍山里","LIN":"12鄰","STREET":"長榮路","SECT":"一段","MAREA":" ","LANE":" ","ALLEY":" ","HOUSE_NO":"２５６號七樓之９","E_COORD97":169923.89000000001,"N_COORD97":2542985.9199999999,"ADDRESS":"長榮路一段２５６號七樓之９","OBJECTID":541352},"geometry":{"x":169923.88999999966,"y":2542985.9199999999}},{"attributes":{"ID":541380,"DIS_CODE":0,"TOWNNAME":"東區","LI":"龍山里","LIN":"12鄰","STREET":"長榮路","SECT":"一段","MAREA":" ","LANE":" ","ALLEY":" ","HOUSE_NO":"２５６號八樓","E_COORD97":169923.89000000001,"N_COORD97":2542985.9199999999,"ADDRESS":"長榮路一段２５６號八樓","OBJECTID":541353},"geometry":{"x":169923.88999999966,"y":2542985.9199999999}},{"attributes":{"ID":541381,"DIS_CODE":0,"TOWNNAME":"東區","LI":"龍山里","LIN":"12鄰","STREET":"長榮路","SECT":"一段","MAREA":" ","LANE":" ","ALLEY":" ","HOUSE_NO":"２５６號八樓之１","E_COORD97":169923.89000000001,"N_COORD97":2542985.9199999999,"ADDRESS":"長榮路一段２５６號八樓之１","OBJECTID":541354},"geometry":{"x":169923.88999999966,"y":2542985.9199999999}},{"attributes":{"ID":541382,"DIS_CODE":0,"TOWNNAME":"東區","LI":"龍山里","LIN":"12鄰","STREET":"長榮路","SECT":"一段","MAREA":" ","LANE":" ","ALLEY":" ","HOUSE_NO":"２５６號八樓之２","E_COORD97":169923.89000000001,"N_COORD97":2542985.9199999999,"ADDRESS":"長榮路一段２５６號八樓之２","OBJECTID":541355},"geometry":{"x":169923.88999999966,"y":2542985.9199999999}},{"attributes":{"ID":541383,"DIS_CODE":0,"TOWNNAME":"東區","LI":"龍山里","LIN":"12鄰","STREET":"長榮路","SECT":"一段","MAREA":" ","LANE":" ","ALLEY":" ","HOUSE_NO":"２５６號八樓之３","E_COORD97":169923.89000000001,"N_COORD97":2542985.9199999999,"ADDRESS":"長榮路一段２５６號八樓之３","OBJECTID":541356},"geometry":{"x":169923.88999999966,"y":2542985.9199999999}},{"attributes":{"ID":541384,"DIS_CODE":0,"TOWNNAME":"東區","LI":"龍山里","LIN":"12鄰","STREET":"長榮路","SECT":"一段","MAREA":" ","LANE":" ","ALLEY":" ","HOUSE_NO":"２５６號八樓之４","E_COORD97":169923.89000000001,"N_COORD97":2542985.9199999999,"ADDRESS":"長榮路一段２５６號八樓之４","OBJECTID":541357},"geometry":{"x":169923.88999999966,"y":2542985.9199999999}},{"attributes":{"ID":541385,"DIS_CODE":0,"TOWNNAME":"東區","LI":"龍山里","LIN":"12鄰","STREET":"長榮路","SECT":"一段","MAREA":" ","LANE":" ","ALLEY":" ","HOUSE_NO":"２５６號八樓之５","E_COORD97":169923.89000000001,"N_COORD97":2542985.9199999999,"ADDRESS":"長榮路一段２５６號八樓之５","OBJECTID":541358},"geometry":{"x":169923.88999999966,"y":2542985.9199999999}},{"attributes":{"ID":541386,"DIS_CODE":0,"TOWNNAME":"東區","LI":"龍山里","LIN":"12鄰","STREET":"長榮路","SECT":"一段","MAREA":" ","LANE":" ","ALLEY":" ","HOUSE_NO":"２５６號八樓之６","E_COORD97":169923.89000000001,"N_COORD97":2542985.9199999999,"ADDRESS":"長榮路一段２５６號八樓之６","OBJECTID":541359},"geometry":{"x":169923.88999999966,"y":2542985.9199999999}},{"attributes":{"ID":541387,"DIS_CODE":0,"TOWNNAME":"東區","LI":"龍山里","LIN":"12鄰","STREET":"長榮路","SECT":"一段","MAREA":" ","LANE":" ","ALLEY":" ","HOUSE_NO":"２５６號八樓之７","E_COORD97":169923.89000000001,"N_COORD97":2542985.9199999999,"ADDRESS":"長榮路一段２５６號八樓之７","OBJECTID":541360},"geometry":{"x":169923.88999999966,"y":2542985.9199999999}},{"attributes":{"ID":541388,"DIS_CODE":0,"TOWNNAME":"東區","LI":"龍山里","LIN":"12鄰","STREET":"長榮路","SECT":"一段","MAREA":" ","LANE":" ","ALLEY":" ","HOUSE_NO":"２５６號八樓之８","E_COORD97":169923.89000000001,"N_COORD97":2542985.9199999999,"ADDRESS":"長榮路一段２５６號八樓之８","OBJECTID":541361},"geometry":{"x":169923.88999999966,"y":2542985.9199999999}},{"attributes":{"ID":541389,"DIS_CODE":0,"TOWNNAME":"東區","LI":"龍山里","LIN":"12鄰","STREET":"長榮路","SECT":"一段","MAREA":" ","LANE":" ","ALLEY":" ","HOUSE_NO":"２５６號九樓","E_COORD97":169923.89000000001,"N_COORD97":2542985.9199999999,"ADDRESS":"長榮路一段２５６號九樓","OBJECTID":541362},"geometry":{"x":169923.88999999966,"y":2542985.9199999999}},{"attributes":{"ID":541390,"DIS_CODE":0,"TOWNNAME":"東區","LI":"龍山里","LIN":"12鄰","STREET":"長榮路","SECT":"一段","MAREA":" ","LANE":" ","ALLEY":" ","HOUSE_NO":"２５６號十樓","E_COORD97":169923.89000000001,"N_COORD97":2542985.9199999999,"ADDRESS":"長榮路一段２５６號十樓","OBJECTID":541363},"geometry":{"x":169923.88999999966,"y":2542985.9199999999}},{"attributes":{"ID":541391,"DIS_CODE":0,"TOWNNAME":"東區","LI":"龍山里","LIN":"12鄰","STREET":"長榮路","SECT":"一段","MAREA":" ","LANE":" ","ALLEY":" ","HOUSE_NO":"２５６號十樓之１","E_COORD97":169923.89000000001,"N_COORD97":2542985.9199999999,"ADDRESS":"長榮路一段２５６號十樓之１","OBJECTID":541364},"geometry":{"x":169923.88999999966,"y":2542985.9199999999}},{"attributes":{"ID":541392,"DIS_CODE":0,"TOWNNAME":"東區","LI":"龍山里","LIN":"12鄰","STREET":"長榮路","SECT":"一段","MAREA":" ","LANE":" ","ALLEY":" ","HOUSE_NO":"２５６號十樓之２","E_COORD97":169923.89000000001,"N_COORD97":2542985.9199999999,"ADDRESS":"長榮路一段２５６號十樓之２","OBJECTID":541365},"geometry":{"x":169923.88999999966,"y":2542985.9199999999}},{"attributes":{"ID":541393,"DIS_CODE":0,"TOWNNAME":"東區","LI":"龍山里","LIN":"12鄰","STREET":"長榮路","SECT":"一段","MAREA":" ","LANE":" ","ALLEY":" ","HOUSE_NO":"２５６號十樓之３","E_COORD97":169923.89000000001,"N_COORD97":2542985.9199999999,"ADDRESS":"長榮路一段２５６號十樓之３","OBJECTID":541366},"geometry":{"x":169923.88999999966,"y":2542985.9199999999}},{"attributes":{"ID":541394,"DIS_CODE":0,"TOWNNAME":"東區","LI":"龍山里","LIN":"12鄰","STREET":"長榮路","SECT":"一段","MAREA":" ","LANE":" ","ALLEY":" ","HOUSE_NO":"２５６號十樓之４","E_COORD97":169923.89000000001,"N_COORD97":2542985.9199999999,"ADDRESS":"長榮路一段２５６號十樓之４","OBJECTID":541367},"geometry":{"x":169923.88999999966,"y":2542985.9199999999}},{"attributes":{"ID":541395,"DIS_CODE":0,"TOWNNAME":"東區","LI":"龍山里","LIN":"12鄰","STREET":"長榮路","SECT":"一段","MAREA":" ","LANE":" ","ALLEY":" ","HOUSE_NO":"２５６號十樓之５","E_COORD97":169923.89000000001,"N_COORD97":2542985.9199999999,"ADDRESS":"長榮路一段２５６號十樓之５","OBJECTID":541368},"geometry":{"x":169923.88999999966,"y":2542985.9199999999}},{"attributes":{"ID":541396,"DIS_CODE":0,"TOWNNAME":"東區","LI":"龍山里","LIN":"12鄰","STREET":"長榮路","SECT":"一段","MAREA":" ","LANE":" ","ALLEY":" ","HOUSE_NO":"２５６號十樓之６","E_COORD97":169923.89000000001,"N_COORD97":2542985.9199999999,"ADDRESS":"長榮路一段２５６號十樓之６","OBJECTID":541369},"geometry":{"x":169923.88999999966,"y":2542985.9199999999}},{"attributes":{"ID":541397,"DIS_CODE":0,"TOWNNAME":"東區","LI":"龍山里","LIN":"12鄰","STREET":"長榮路","SECT":"一段","MAREA":" ","LANE":" ","ALLEY":" ","HOUSE_NO":"２５６號十樓之７","E_COORD97":169923.89000000001,"N_COORD97":2542985.9199999999,"ADDRESS":"長榮路一段２５６號十樓之７","OBJECTID":541370},"geometry":{"x":169923.88999999966,"y":2542985.9199999999}},{"attributes":{"ID":541398,"DIS_CODE":0,"TOWNNAME":"東區","LI":"龍山里","LIN":"12鄰","STREET":"長榮路","SECT":"一段","MAREA":" ","LANE":" ","ALLEY":" ","HOUSE_NO":"２５６號十樓之８","E_COORD97":169923.89000000001,"N_COORD97":2542985.9199999999,"ADDRESS":"長榮路一段２５６號十樓之８","OBJECTID":541371},"geometry":{"x":169923.88999999966,"y":2542985.9199999999}},{"attributes":{"ID":541399,"DIS_CODE":0,"TOWNNAME":"東區","LI":"龍山里","LIN":"12鄰","STREET":"長榮路","SECT":"一段","MAREA":" ","LANE":" ","ALLEY":" ","HOUSE_NO":"２５６號十一樓","E_COORD97":169923.89000000001,"N_COORD97":2542985.9199999999,"ADDRESS":"長榮路一段２５６號十一樓","OBJECTID":541372},"geometry":{"x":169923.88999999966,"y":2542985.9199999999}},{"attributes":{"ID":541400,"DIS_CODE":0,"TOWNNAME":"東區","LI":"龍山里","LIN":"12鄰","STREET":"長榮路","SECT":"一段","MAREA":" ","LANE":" ","ALLEY":" ","HOUSE_NO":"２５６號十二樓","E_COORD97":169923.89000000001,"N_COORD97":2542985.9199999999,"ADDRESS":"長榮路一段２５６號十二樓","OBJECTID":541373},"geometry":{"x":169923.88999999966,"y":2542985.9199999999}},{"attributes":{"ID":541401,"DIS_CODE":0,"TOWNNAME":"東區","LI":"龍山里","LIN":"12鄰","STREET":"長榮路","SECT":"一段","MAREA":" ","LANE":" ","ALLEY":" ","HOUSE_NO":"２５６號十二樓之１","E_COORD97":169923.89000000001,"N_COORD97":2542985.9199999999,"ADDRESS":"長榮路一段２５６號十二樓之１","OBJECTID":541374},"geometry":{"x":169923.88999999966,"y":2542985.9199999999}},{"attributes":{"ID":541402,"DIS_CODE":0,"TOWNNAME":"永康區","LI":"二王里","LIN":"12鄰","STREET":"永二街","SECT":" ","MAREA":" ","LANE":" ","ALLEY":" ","HOUSE_NO":"４１９號六樓之２","E_COORD97":172827.70000000001,"N_COORD97":2546575.54,"ADDRESS":"永二街４１９號六樓之２","OBJECTID":541375},"geometry":{"x":172827.70000000019,"y":2546575.5399999991}},{"attributes":{"ID":541403,"DIS_CODE":0,"TOWNNAME":"東區","LI":"龍山里","LIN":"12鄰","STREET":"長榮路","SECT":"一段","MAREA":" ","LANE":" ","ALLEY":" ","HOUSE_NO":"２５６號十二樓之２","E_COORD97":169923.89000000001,"N_COORD97":2542985.9199999999,"ADDRESS":"長榮路一段２５６號十二樓之２","OBJECTID":541376},"geometry":{"x":169923.88999999966,"y":2542985.9199999999}},{"attributes":{"ID":541404,"DIS_CODE":0,"TOWNNAME":"東區","LI":"龍山里","LIN":"12鄰","STREET":"長榮路","SECT":"一段","MAREA":" ","LANE":" ","ALLEY":" ","HOUSE_NO":"２５６號十二樓之３","E_COORD97":169923.89000000001,"N_COORD97":2542985.9199999999,"ADDRESS":"長榮路一段２５６號十二樓之３","OBJECTID":541377},"geometry":{"x":169923.88999999966,"y":2542985.9199999999}},{"attributes":{"ID":541405,"DIS_CODE":0,"TOWNNAME":"東區","LI":"龍山里","LIN":"12鄰","STREET":"長榮路","SECT":"一段","MAREA":" ","LANE":" ","ALLEY":" ","HOUSE_NO":"２５６號十二樓之４","E_COORD97":169923.89000000001,"N_COORD97":2542985.9199999999,"ADDRESS":"長榮路一段２５６號十二樓之４","OBJECTID":541378},"geometry":{"x":169923.88999999966,"y":2542985.9199999999}},{"attributes":{"ID":541406,"DIS_CODE":0,"TOWNNAME":"東區","LI":"龍山里","LIN":"12鄰","STREET":"長榮路","SECT":"一段","MAREA":" ","LANE":" ","ALLEY":" ","HOUSE_NO":"２５６號十二樓之５","E_COORD97":169923.89000000001,"N_COORD97":2542985.9199999999,"ADDRESS":"長榮路一段２５６號十二樓之５","OBJECTID":541379},"geometry":{"x":169923.88999999966,"y":2542985.9199999999}},{"attributes":{"ID":541407,"DIS_CODE":0,"TOWNNAME":"東區","LI":"龍山里","LIN":"12鄰","STREET":"長榮路","SECT":"一段","MAREA":" ","LANE":" ","ALLEY":" ","HOUSE_NO":"２５６號十二樓之６","E_COORD97":169923.89000000001,"N_COORD97":2542985.9199999999,"ADDRESS":"長榮路一段２５６號十二樓之６","OBJECTID":541380},"geometry":{"x":169923.88999999966,"y":2542985.9199999999}},{"attributes":{"ID":541408,"DIS_CODE":0,"TOWNNAME":"東區","LI":"龍山里","LIN":"12鄰","STREET":"長榮路","SECT":"一段","MAREA":" ","LANE":" ","ALLEY":" ","HOUSE_NO":"２５６號十二樓之７","E_COORD97":169923.89000000001,"N_COORD97":2542985.9199999999,"ADDRESS":"長榮路一段２５６號十二樓之７","OBJECTID":541381},"geometry":{"x":169923.88999999966,"y":2542985.9199999999}},{"attributes":{"ID":541409,"DIS_CODE":0,"TOWNNAME":"東區","LI":"龍山里","LIN":"12鄰","STREET":"長榮路","SECT":"一段","MAREA":" ","LANE":" ","ALLEY":" ","HOUSE_NO":"２５６號十二樓之８","E_COORD97":169923.89000000001,"N_COORD97":2542985.9199999999,"ADDRESS":"長榮路一段２５６號十二樓之８","OBJECTID":541382},"geometry":{"x":169923.88999999966,"y":2542985.9199999999}},{"attributes":{"ID":541410,"DIS_CODE":0,"TOWNNAME":"東區","LI":"龍山里","LIN":"12鄰","STREET":"長榮路","SECT":"一段","MAREA":" ","LANE":" ","ALLEY":" ","HOUSE_NO":"２５６號十二樓之９","E_COORD97":169923.89000000001,"N_COORD97":2542985.9199999999,"ADDRESS":"長榮路一段２５６號十二樓之９","OBJECTID":541383},"geometry":{"x":169923.88999999966,"y":2542985.9199999999}},{"attributes":{"ID":541411,"DIS_CODE":0,"TOWNNAME":"東區","LI":"龍山里","LIN":"12鄰","STREET":"長榮路","SECT":"一段","MAREA":" ","LANE":" ","ALLEY":" ","HOUSE_NO":"２５６號十二樓之１０","E_COORD97":169923.89000000001,"N_COORD97":2542985.9199999999,"ADDRESS":"長榮路一段２５６號十二樓之１０","OBJECTID":541384},"geometry":{"x":169923.88999999966,"y":2542985.9199999999}},{"attributes":{"ID":541412,"DIS_CODE":0,"TOWNNAME":"東區","LI":"龍山里","LIN":"12鄰","STREET":"長榮路","SECT":"一段","MAREA":" ","LANE":" ","ALLEY":" ","HOUSE_NO":"２４６號四樓","E_COORD97":169905.42000000001,"N_COORD97":2542945.8799999999,"ADDRESS":"長榮路一段２４６號四樓","OBJECTID":541385},"geometry":{"x":169905.41999999993,"y":2542945.8800000027}},{"attributes":{"ID":541413,"DIS_CODE":0,"TOWNNAME":"東區","LI":"龍山里","LIN":"12鄰","STREET":"長榮路","SECT":"一段","MAREA":" ","LANE":" ","ALLEY":" ","HOUSE_NO":"２４６號五樓","E_COORD97":169905.42000000001,"N_COORD97":2542945.8799999999,"ADDRESS":"長榮路一段２４６號五樓","OBJECTID":541386},"geometry":{"x":169905.41999999993,"y":2542945.8800000027}},{"attributes":{"ID":541414,"DIS_CODE":0,"TOWNNAME":"東區","LI":"龍山里","LIN":"12鄰","STREET":"長榮路","SECT":"一段","MAREA":" ","LANE":" ","ALLEY":" ","HOUSE_NO":"２４６號六樓","E_COORD97":169905.42000000001,"N_COORD97":2542945.8799999999,"ADDRESS":"長榮路一段２４６號六樓","OBJECTID":541387},"geometry":{"x":169905.41999999993,"y":2542945.8800000027}},{"attributes":{"ID":541415,"DIS_CODE":0,"TOWNNAME":"東區","LI":"龍山里","LIN":"12鄰","STREET":"長榮路","SECT":"一段","MAREA":" ","LANE":" ","ALLEY":" ","HOUSE_NO":"２４６號七樓","E_COORD97":169905.42000000001,"N_COORD97":2542945.8799999999,"ADDRESS":"長榮路一段２４６號七樓","OBJECTID":541388},"geometry":{"x":169905.41999999993,"y":2542945.8800000027}},{"attributes":{"ID":541416,"DIS_CODE":0,"TOWNNAME":"東區","LI":"龍山里","LIN":"12鄰","STREET":"長榮路","SECT":"一段","MAREA":" ","LANE":" ","ALLEY":" ","HOUSE_NO":"２４６號八樓","E_COORD97":169905.42000000001,"N_COORD97":2542945.8799999999,"ADDRESS":"長榮路一段２４６號八樓","OBJECTID":541389},"geometry":{"x":169905.41999999993,"y":2542945.8800000027}},{"attributes":{"ID":541417,"DIS_CODE":0,"TOWNNAME":"東區","LI":"龍山里","LIN":"12鄰","STREET":"長榮路","SECT":"一段","MAREA":" ","LANE":" ","ALLEY":" ","HOUSE_NO":"２４６號九樓","E_COORD97":169905.42000000001,"N_COORD97":2542945.8799999999,"ADDRESS":"長榮路一段２４６號九樓","OBJECTID":541390},"geometry":{"x":169905.41999999993,"y":2542945.8800000027}},{"attributes":{"ID":541418,"DIS_CODE":0,"TOWNNAME":"東區","LI":"龍山里","LIN":"12鄰","STREET":"長榮路","SECT":"一段","MAREA":" ","LANE":" ","ALLEY":" ","HOUSE_NO":"２４６號十樓","E_COORD97":169905.42000000001,"N_COORD97":2542945.8799999999,"ADDRESS":"長榮路一段２４６號十樓","OBJECTID":541391},"geometry":{"x":169905.41999999993,"y":2542945.8800000027}},{"attributes":{"ID":541419,"DIS_CODE":0,"TOWNNAME":"東區","LI":"龍山里","LIN":"12鄰","STREET":"長榮路","SECT":"一段","MAREA":" ","LANE":" ","ALLEY":" ","HOUSE_NO":"２４６號十一樓","E_COORD97":169905.42000000001,"N_COORD97":2542945.8799999999,"ADDRESS":"長榮路一段２４６號十一樓","OBJECTID":541392},"geometry":{"x":169905.41999999993,"y":2542945.8800000027}},{"attributes":{"ID":541420,"DIS_CODE":0,"TOWNNAME":"東區","LI":"龍山里","LIN":"12鄰","STREET":"長榮路","SECT":"一段","MAREA":" ","LANE":" ","ALLEY":" ","HOUSE_NO":"２４６號十二樓","E_COORD97":169905.42000000001,"N_COORD97":2542945.8799999999,"ADDRESS":"長榮路一段２４６號十二樓","OBJECTID":541393},"geometry":{"x":169905.41999999993,"y":2542945.8800000027}},{"attributes":{"ID":541421,"DIS_CODE":0,"TOWNNAME":"東區","LI":"龍山里","LIN":"12鄰","STREET":"長榮路","SECT":"一段","MAREA":" ","LANE":" ","ALLEY":" ","HOUSE_NO":"２４８號四樓","E_COORD97":169907.03,"N_COORD97":2542952.6800000002,"ADDRESS":"長榮路一段２４８號四樓","OBJECTID":541394},"geometry":{"x":169907.03000000119,"y":2542952.6800000016}},{"attributes":{"ID":541422,"DIS_CODE":0,"TOWNNAME":"東區","LI":"龍山里","LIN":"12鄰","STREET":"長榮路","SECT":"一段","MAREA":" ","LANE":" ","ALLEY":" ","HOUSE_NO":"２４８號五樓","E_COORD97":169907.03,"N_COORD97":2542952.6800000002,"ADDRESS":"長榮路一段２４８號五樓","OBJECTID":541395},"geometry":{"x":169907.03000000119,"y":2542952.6800000016}},{"attributes":{"ID":541423,"DIS_CODE":0,"TOWNNAME":"東區","LI":"龍山里","LIN":"12鄰","STREET":"長榮路","SECT":"一段","MAREA":" ","LANE":" ","ALLEY":" ","HOUSE_NO":"２４８號六樓","E_COORD97":169907.03,"N_COORD97":2542952.6800000002,"ADDRESS":"長榮路一段２４８號六樓","OBJECTID":541396},"geometry":{"x":169907.03000000119,"y":2542952.6800000016}},{"attributes":{"ID":541424,"DIS_CODE":0,"TOWNNAME":"東區","LI":"龍山里","LIN":"12鄰","STREET":"長榮路","SECT":"一段","MAREA":" ","LANE":" ","ALLEY":" ","HOUSE_NO":"２４８號七樓","E_COORD97":169907.03,"N_COORD97":2542952.6800000002,"ADDRESS":"長榮路一段２４８號七樓","OBJECTID":541397},"geometry":{"x":169907.03000000119,"y":2542952.6800000016}},{"attributes":{"ID":541425,"DIS_CODE":0,"TOWNNAME":"東區","LI":"龍山里","LIN":"12鄰","STREET":"長榮路","SECT":"一段","MAREA":" ","LANE":" ","ALLEY":" ","HOUSE_NO":"２４８號八樓","E_COORD97":169907.03,"N_COORD97":2542952.6800000002,"ADDRESS":"長榮路一段２４８號八樓","OBJECTID":541398},"geometry":{"x":169907.03000000119,"y":2542952.6800000016}},{"attributes":{"ID":541426,"DIS_CODE":0,"TOWNNAME":"東區","LI":"龍山里","LIN":"12鄰","STREET":"長榮路","SECT":"一段","MAREA":" ","LANE":" ","ALLEY":" ","HOUSE_NO":"２４８號九樓","E_COORD97":169907.03,"N_COORD97":2542952.6800000002,"ADDRESS":"長榮路一段２４８號九樓","OBJECTID":541399},"geometry":{"x":169907.03000000119,"y":2542952.6800000016}},{"attributes":{"ID":541427,"DIS_CODE":0,"TOWNNAME":"東區","LI":"龍山里","LIN":"12鄰","STREET":"長榮路","SECT":"一段","MAREA":" ","LANE":" ","ALLEY":" ","HOUSE_NO":"２４８號十樓","E_COORD97":169907.03,"N_COORD97":2542952.6800000002,"ADDRESS":"長榮路一段２４８號十樓","OBJECTID":541400},"geometry":{"x":169907.03000000119,"y":2542952.6800000016}}]}