{"displayFieldName":"TOWNNAME","fieldAliases":{"ID":"ID","DIS_CODE":"DIS_CODE","TOWNNAME":"TOWNNAME","LI":"LI","LIN":"LIN","STREET":"STREET","SECT":"SECT","MAREA":"MAREA","LANE":"LANE","ALLEY":"ALLEY","HOUSE_NO":"HOUSE_NO","E_COORD97":"E_COORD97","N_COORD97":"N_COORD97","ADDRESS":"ADDRESS","OBJECTID":"OBJECTID"},"geometryType":"esriGeometryPoint","spatialReference":{"wkid":102443,"latestWkid":3826},"fields":[{"name":"ID","type":"esriFieldTypeDouble","alias":"ID"},{"name":"DIS_CODE","type":"esriFieldTypeInteger","alias":"DIS_CODE"},{"name":"TOWNNAME","type":"esriFieldTypeString","alias":"TOWNNAME","length":8},{"name":"LI","type":"esriFieldTypeString","alias":"LI","length":8},{"name":"LIN","type":"esriFieldTypeString","alias":"LIN","length":12},{"name":"STREET","type":"esriFieldTypeString","alias":"STREET","length":20},{"name":"SECT","type":"esriFieldTypeString","alias":"SECT","length":8},{"name":"MAREA","type":"esriFieldTypeString","alias":"MAREA","length":12},{"name":"LANE","type":"esriFieldTypeString","alias":"LANE","length":10},{"name":"ALLEY","type":"esriFieldTypeString","alias":"ALLEY","length":10},{"name":"HOUSE_NO","type":"esriFieldTypeString","alias":"HOUSE_NO","length":20},{"name":"E_COORD97","type":"esriFieldTypeDouble","alias":"E_COORD97"},{"name":"N_COORD97","type":"esriFieldTypeDouble","alias":"N_COORD97"},{"name":"ADDRESS","type":"esriFieldTypeString","alias":"ADDRESS","length":50},{"name":"OBJECTID","type":"esriFieldTypeOID","alias":"OBJECTID"}],"features":[{"attributes":{"ID":501228,"DIS_CODE":0,"TOWNNAME":"南區","LI":"金華里","LIN":"24鄰","STREET":"惠南街","SECT":" ","MAREA":" ","LANE":" ","ALLEY":" ","HOUSE_NO":"１０１號","E_COORD97":166731.13,"N_COORD97":2542330.2000000002,"ADDRESS":"惠南街１０１號","OBJECTID":501201},"geometry":{"x":166731.13000000082,"y":2542330.200000003}},{"attributes":{"ID":501229,"DIS_CODE":0,"TOWNNAME":"南區","LI":"金華里","LIN":"24鄰","STREET":"惠南街","SECT":" ","MAREA":" ","LANE":" ","ALLEY":" ","HOUSE_NO":"１０３號","E_COORD97":166729.76999999999,"N_COORD97":2542334.2799999998,"ADDRESS":"惠南街１０３號","OBJECTID":501202},"geometry":{"x":166729.77000000048,"y":2542334.2800000012}},{"attributes":{"ID":501230,"DIS_CODE":0,"TOWNNAME":"北區","LI":"正覺里","LIN":"14鄰","STREET":"西門路","SECT":"四段","MAREA":" ","LANE":" ","ALLEY":" ","HOUSE_NO":"５５２號之１","E_COORD97":169236.54999999999,"N_COORD97":2546452,"ADDRESS":"西門路四段５５２號之１","OBJECTID":501203},"geometry":{"x":169236.54999999888,"y":2546452.0000000037}},{"attributes":{"ID":501231,"DIS_CODE":0,"TOWNNAME":"北區","LI":"正覺里","LIN":"14鄰","STREET":"西門路","SECT":"四段","MAREA":" ","LANE":" ","ALLEY":" ","HOUSE_NO":"５５６號","E_COORD97":169246.42000000001,"N_COORD97":2546461.21,"ADDRESS":"西門路四段５５６號","OBJECTID":501204},"geometry":{"x":169246.42000000086,"y":2546461.209999999}},{"attributes":{"ID":501232,"DIS_CODE":0,"TOWNNAME":"北區","LI":"正覺里","LIN":"14鄰","STREET":"西門路","SECT":"四段","MAREA":" ","LANE":" ","ALLEY":" ","HOUSE_NO":"５５８號","E_COORD97":169249.66,"N_COORD97":2546464.2599999998,"ADDRESS":"西門路四段５５８號","OBJECTID":501205},"geometry":{"x":169249.66000000015,"y":2546464.2600000016}},{"attributes":{"ID":501233,"DIS_CODE":0,"TOWNNAME":"北區","LI":"正覺里","LIN":"14鄰","STREET":"西門路","SECT":"四段","MAREA":" ","LANE":" ","ALLEY":" ","HOUSE_NO":"５６０號","E_COORD97":169252.23999999999,"N_COORD97":2546467.3100000001,"ADDRESS":"西門路四段５６０號","OBJECTID":501206},"geometry":{"x":169252.24000000022,"y":2546467.3100000042}},{"attributes":{"ID":501234,"DIS_CODE":0,"TOWNNAME":"北區","LI":"正覺里","LIN":"14鄰","STREET":"西門路","SECT":"四段","MAREA":" ","LANE":" ","ALLEY":" ","HOUSE_NO":"５６２號","E_COORD97":169256.82000000001,"N_COORD97":2546471.3100000001,"ADDRESS":"西門路四段５６２號","OBJECTID":501207},"geometry":{"x":169256.8200000003,"y":2546471.3100000024}},{"attributes":{"ID":501235,"DIS_CODE":0,"TOWNNAME":"北區","LI":"正覺里","LIN":"14鄰","STREET":"西門路","SECT":"四段","MAREA":" ","LANE":" ","ALLEY":" ","HOUSE_NO":"５６４號","E_COORD97":169257.87,"N_COORD97":2546474.7400000002,"ADDRESS":"西門路四段５６４號","OBJECTID":501208},"geometry":{"x":169257.87000000011,"y":2546474.7400000021}},{"attributes":{"ID":501236,"DIS_CODE":0,"TOWNNAME":"北區","LI":"正覺里","LIN":"14鄰","STREET":"西門路","SECT":"四段","MAREA":" ","LANE":" ","ALLEY":" ","HOUSE_NO":"５６６號","E_COORD97":169261.87,"N_COORD97":2546478.0800000001,"ADDRESS":"西門路四段５６６號","OBJECTID":501209},"geometry":{"x":169261.87000000197,"y":2546478.0800000001}},{"attributes":{"ID":501237,"DIS_CODE":0,"TOWNNAME":"北區","LI":"正覺里","LIN":"14鄰","STREET":"西門路","SECT":"四段","MAREA":" ","LANE":" ","ALLEY":" ","HOUSE_NO":"５６８號","E_COORD97":169264.37,"N_COORD97":2546482.0800000001,"ADDRESS":"西門路四段５６８號","OBJECTID":501210},"geometry":{"x":169264.37000000104,"y":2546482.0800000038}},{"attributes":{"ID":501238,"DIS_CODE":0,"TOWNNAME":"北區","LI":"正覺里","LIN":"14鄰","STREET":"西門路","SECT":"四段","MAREA":" ","LANE":" ","ALLEY":" ","HOUSE_NO":"５７０號","E_COORD97":169267.70000000001,"N_COORD97":2546485.8900000001,"ADDRESS":"西門路四段５７０號","OBJECTID":501211},"geometry":{"x":169267.70000000019,"y":2546485.8900000006}},{"attributes":{"ID":501239,"DIS_CODE":0,"TOWNNAME":"北區","LI":"正覺里","LIN":"14鄰","STREET":"西門路","SECT":"四段","MAREA":" ","LANE":" ","ALLEY":" ","HOUSE_NO":"５７４號","E_COORD97":169272.47,"N_COORD97":2546496,"ADDRESS":"西門路四段５７４號","OBJECTID":501212},"geometry":{"x":169272.46999999974,"y":2546496.0000000037}},{"attributes":{"ID":501240,"DIS_CODE":0,"TOWNNAME":"北區","LI":"正覺里","LIN":"14鄰","STREET":"西門路","SECT":"四段","MAREA":" ","LANE":" ","ALLEY":" ","HOUSE_NO":"５７６號","E_COORD97":169275.29000000001,"N_COORD97":2546499,"ADDRESS":"西門路四段５７６號","OBJECTID":501213},"geometry":{"x":169275.29000000004,"y":2546498.9999999981}},{"attributes":{"ID":501241,"DIS_CODE":0,"TOWNNAME":"北區","LI":"正覺里","LIN":"14鄰","STREET":"西門路","SECT":"四段","MAREA":" ","LANE":" ","ALLEY":" ","HOUSE_NO":"５７８號","E_COORD97":169279.23000000001,"N_COORD97":2546502.7599999998,"ADDRESS":"西門路四段５７８號","OBJECTID":501214},"geometry":{"x":169279.23000000138,"y":2546502.7599999998}},{"attributes":{"ID":501242,"DIS_CODE":0,"TOWNNAME":"北區","LI":"正覺里","LIN":"14鄰","STREET":"西門路","SECT":"四段","MAREA":" ","LANE":" ","ALLEY":" ","HOUSE_NO":"５８０號","E_COORD97":169281.67999999999,"N_COORD97":2546506.4199999999,"ADDRESS":"西門路四段５８０號","OBJECTID":501215},"geometry":{"x":169281.68000000063,"y":2546506.4200000037}},{"attributes":{"ID":501243,"DIS_CODE":0,"TOWNNAME":"北區","LI":"正覺里","LIN":"14鄰","STREET":"西門路","SECT":"四段","MAREA":" ","LANE":" ","ALLEY":" ","HOUSE_NO":"５８２號","E_COORD97":169285.06,"N_COORD97":2546511.1099999999,"ADDRESS":"西門路四段５８２號","OBJECTID":501216},"geometry":{"x":169285.05999999959,"y":2546511.1099999994}},{"attributes":{"ID":501244,"DIS_CODE":0,"TOWNNAME":"北區","LI":"正覺里","LIN":"14鄰","STREET":"西門路","SECT":"四段","MAREA":" ","LANE":" ","ALLEY":" ","HOUSE_NO":"５８４號","E_COORD97":169286.75,"N_COORD97":2546514.1099999999,"ADDRESS":"西門路四段５８４號","OBJECTID":501217},"geometry":{"x":169286.75000000093,"y":2546514.1099999994}},{"attributes":{"ID":501245,"DIS_CODE":0,"TOWNNAME":"北區","LI":"正覺里","LIN":"14鄰","STREET":"西門路","SECT":"四段","MAREA":" ","LANE":" ","ALLEY":" ","HOUSE_NO":"５８６號","E_COORD97":169289.76000000001,"N_COORD97":2546517.8999999999,"ADDRESS":"西門路四段５８６號","OBJECTID":501218},"geometry":{"x":169289.76000000071,"y":2546517.9000000022}},{"attributes":{"ID":501246,"DIS_CODE":0,"TOWNNAME":"北區","LI":"正覺里","LIN":"14鄰","STREET":"西門路","SECT":"四段","MAREA":" ","LANE":" ","ALLEY":" ","HOUSE_NO":"５８８號","E_COORD97":169292.20999999999,"N_COORD97":2546520.4300000002,"ADDRESS":"西門路四段５８８號","OBJECTID":501219},"geometry":{"x":169292.21000000089,"y":2546520.4300000016}},{"attributes":{"ID":501247,"DIS_CODE":0,"TOWNNAME":"北區","LI":"正覺里","LIN":"14鄰","STREET":"西門路","SECT":"四段","MAREA":" ","LANE":" ","ALLEY":" ","HOUSE_NO":"５９０號","E_COORD97":169294.92999999999,"N_COORD97":2546523.25,"ADDRESS":"西門路四段５９０號","OBJECTID":501220},"geometry":{"x":169294.93000000156,"y":2546523.25}},{"attributes":{"ID":501248,"DIS_CODE":0,"TOWNNAME":"北區","LI":"正覺里","LIN":"14鄰","STREET":"西門路","SECT":"四段","MAREA":" ","LANE":" ","ALLEY":" ","HOUSE_NO":"５９２號","E_COORD97":169297.56,"N_COORD97":2546526.5299999998,"ADDRESS":"西門路四段５９２號","OBJECTID":501221},"geometry":{"x":169297.56000000052,"y":2546526.5300000012}},{"attributes":{"ID":501249,"DIS_CODE":0,"TOWNNAME":"北區","LI":"正覺里","LIN":"14鄰","STREET":"西門路","SECT":"四段","MAREA":" ","LANE":" ","ALLEY":" ","HOUSE_NO":"５９４號","E_COORD97":169300.76000000001,"N_COORD97":2546530.8599999999,"ADDRESS":"西門路四段５９４號","OBJECTID":501222},"geometry":{"x":169300.75999999978,"y":2546530.8600000013}},{"attributes":{"ID":501250,"DIS_CODE":0,"TOWNNAME":"北區","LI":"正覺里","LIN":"14鄰","STREET":"西門路","SECT":"四段","MAREA":" ","LANE":" ","ALLEY":" ","HOUSE_NO":"５９６號","E_COORD97":169303.29999999999,"N_COORD97":2546533.2000000002,"ADDRESS":"西門路四段５９６號","OBJECTID":501223},"geometry":{"x":169303.30000000075,"y":2546533.1999999993}},{"attributes":{"ID":501251,"DIS_CODE":0,"TOWNNAME":"北區","LI":"正覺里","LIN":"14鄰","STREET":"西門路","SECT":"四段","MAREA":" ","LANE":" ","ALLEY":" ","HOUSE_NO":"５９８號","E_COORD97":169305.92999999999,"N_COORD97":2546536.6800000002,"ADDRESS":"西門路四段５９８號","OBJECTID":501224},"geometry":{"x":169305.93000000063,"y":2546536.6799999997}},{"attributes":{"ID":501252,"DIS_CODE":0,"TOWNNAME":"北區","LI":"正覺里","LIN":"14鄰","STREET":"西門路","SECT":"四段","MAREA":" ","LANE":" ","ALLEY":" ","HOUSE_NO":"６００號","E_COORD97":169307.98999999999,"N_COORD97":2546540.2400000002,"ADDRESS":"西門路四段６００號","OBJECTID":501225},"geometry":{"x":169307.99000000022,"y":2546540.2400000002}},{"attributes":{"ID":501253,"DIS_CODE":0,"TOWNNAME":"北區","LI":"正覺里","LIN":"14鄰","STREET":"西門路","SECT":"四段","MAREA":" ","LANE":" ","ALLEY":" ","HOUSE_NO":"６０２號","E_COORD97":169311.19,"N_COORD97":2546542.9700000002,"ADDRESS":"西門路四段６０２號","OBJECTID":501226},"geometry":{"x":169311.19000000134,"y":2546542.9700000007}},{"attributes":{"ID":501254,"DIS_CODE":0,"TOWNNAME":"北區","LI":"正覺里","LIN":"14鄰","STREET":"西門路","SECT":"四段","MAREA":" ","LANE":" ","ALLEY":" ","HOUSE_NO":"６０４號","E_COORD97":169314.23999999999,"N_COORD97":2546547.23,"ADDRESS":"西門路四段６０４號","OBJECTID":501227},"geometry":{"x":169314.24000000115,"y":2546547.2300000023}},{"attributes":{"ID":501255,"DIS_CODE":0,"TOWNNAME":"北區","LI":"正覺里","LIN":"14鄰","STREET":"西門路","SECT":"四段","MAREA":" ","LANE":" ","ALLEY":" ","HOUSE_NO":"６０６號","E_COORD97":169316.73000000001,"N_COORD97":2546549.4399999999,"ADDRESS":"西門路四段６０６號","OBJECTID":501228},"geometry":{"x":169316.73000000045,"y":2546549.4399999995}},{"attributes":{"ID":501256,"DIS_CODE":0,"TOWNNAME":"北區","LI":"正覺里","LIN":"14鄰","STREET":"西門路","SECT":"四段","MAREA":" ","LANE":" ","ALLEY":" ","HOUSE_NO":"６０８號","E_COORD97":169320.10999999999,"N_COORD97":2546553.0099999998,"ADDRESS":"西門路四段６０８號","OBJECTID":501229},"geometry":{"x":169320.11000000127,"y":2546553.0099999979}},{"attributes":{"ID":501257,"DIS_CODE":0,"TOWNNAME":"麻豆區","LI":"東角里","LIN":"14鄰","STREET":"同仁街","SECT":" ","MAREA":" ","LANE":" ","ALLEY":" ","HOUSE_NO":"１０號","E_COORD97":173779.53,"N_COORD97":2564670.9399999999,"ADDRESS":"同仁街１０號","OBJECTID":501230},"geometry":{"x":173779.53000000026,"y":2564670.9399999995}},{"attributes":{"ID":501258,"DIS_CODE":0,"TOWNNAME":"麻豆區","LI":"東角里","LIN":"14鄰","STREET":"同仁街","SECT":" ","MAREA":" ","LANE":" ","ALLEY":" ","HOUSE_NO":"１２號","E_COORD97":173779.03,"N_COORD97":2564648.6899999999,"ADDRESS":"同仁街１２號","OBJECTID":501231},"geometry":{"x":173779.03000000119,"y":2564648.6899999995}},{"attributes":{"ID":501259,"DIS_CODE":0,"TOWNNAME":"六甲區","LI":"二甲里","LIN":"14鄰","STREET":"民權街","SECT":" ","MAREA":" ","LANE":" ","ALLEY":" ","HOUSE_NO":"２３２號","E_COORD97":183053.10000000001,"N_COORD97":2569746.3500000001,"ADDRESS":"民權街２３２號","OBJECTID":501232},"geometry":{"x":183053.09999999963,"y":2569746.3499999996}},{"attributes":{"ID":501260,"DIS_CODE":0,"TOWNNAME":"六甲區","LI":"二甲里","LIN":"14鄰","STREET":"民權街","SECT":" ","MAREA":" ","LANE":" ","ALLEY":" ","HOUSE_NO":"２３４之１號","E_COORD97":183052.95000000001,"N_COORD97":2569766.7999999998,"ADDRESS":"民權街２３４之１號","OBJECTID":501233},"geometry":{"x":183052.95000000019,"y":2569766.8000000026}},{"attributes":{"ID":501261,"DIS_CODE":0,"TOWNNAME":"六甲區","LI":"二甲里","LIN":"14鄰","STREET":"民權街","SECT":" ","MAREA":" ","LANE":" ","ALLEY":" ","HOUSE_NO":"２３４號","E_COORD97":183048.16,"N_COORD97":2569748.1200000001,"ADDRESS":"民權街２３４號","OBJECTID":501234},"geometry":{"x":183048.16000000015,"y":2569748.1200000029}},{"attributes":{"ID":501262,"DIS_CODE":0,"TOWNNAME":"六甲區","LI":"二甲里","LIN":"14鄰","STREET":"民權街","SECT":" ","MAREA":" ","LANE":" ","ALLEY":" ","HOUSE_NO":"２３６號","E_COORD97":183043.48999999999,"N_COORD97":2569749.9500000002,"ADDRESS":"民權街２３６號","OBJECTID":501235},"geometry":{"x":183043.49000000115,"y":2569749.950000003}},{"attributes":{"ID":501263,"DIS_CODE":0,"TOWNNAME":"六甲區","LI":"二甲里","LIN":"14鄰","STREET":"光復街","SECT":" ","MAREA":" ","LANE":" ","ALLEY":" ","HOUSE_NO":"９５號","E_COORD97":183086.76000000001,"N_COORD97":2569914.5299999998,"ADDRESS":"光復街９５號","OBJECTID":501236},"geometry":{"x":183086.76000000071,"y":2569914.5299999993}},{"attributes":{"ID":501264,"DIS_CODE":0,"TOWNNAME":"安平區","LI":"平安里","LIN":"8鄰","STREET":"安平路","SECT":" ","MAREA":" ","LANE":" ","ALLEY":" ","HOUSE_NO":"４２８號七樓之２","E_COORD97":165312.51999999999,"N_COORD97":2544327.4700000002,"ADDRESS":"安平路４２８號七樓之２","OBJECTID":501237},"geometry":{"x":165312.52000000048,"y":2544327.4700000025}},{"attributes":{"ID":501265,"DIS_CODE":0,"TOWNNAME":"歸仁區","LI":"崙頂里","LIN":"8鄰","STREET":"崙頂五街","SECT":" ","MAREA":" ","LANE":" ","ALLEY":" ","HOUSE_NO":"５１號","E_COORD97":177978.13,"N_COORD97":2539849.25,"ADDRESS":"崙頂五街５１號","OBJECTID":501238},"geometry":{"x":177978.12999999989,"y":2539849.2500000037}},{"attributes":{"ID":501266,"DIS_CODE":0,"TOWNNAME":"安平區","LI":"平安里","LIN":"8鄰","STREET":"安平路","SECT":" ","MAREA":" ","LANE":" ","ALLEY":" ","HOUSE_NO":"４２８號九樓之１","E_COORD97":165312.51999999999,"N_COORD97":2544327.4700000002,"ADDRESS":"安平路４２８號九樓之１","OBJECTID":501239},"geometry":{"x":165312.52000000048,"y":2544327.4700000025}},{"attributes":{"ID":501267,"DIS_CODE":0,"TOWNNAME":"安平區","LI":"平安里","LIN":"8鄰","STREET":"安平路","SECT":" ","MAREA":" ","LANE":" ","ALLEY":" ","HOUSE_NO":"４２８號九樓之２","E_COORD97":165312.51999999999,"N_COORD97":2544327.4700000002,"ADDRESS":"安平路４２８號九樓之２","OBJECTID":501240},"geometry":{"x":165312.52000000048,"y":2544327.4700000025}},{"attributes":{"ID":501268,"DIS_CODE":0,"TOWNNAME":"安平區","LI":"平安里","LIN":"8鄰","STREET":"安平路","SECT":" ","MAREA":" ","LANE":" ","ALLEY":" ","HOUSE_NO":"４２８號二樓","E_COORD97":165312.51999999999,"N_COORD97":2544327.4700000002,"ADDRESS":"安平路４２８號二樓","OBJECTID":501241},"geometry":{"x":165312.52000000048,"y":2544327.4700000025}},{"attributes":{"ID":501269,"DIS_CODE":0,"TOWNNAME":"安平區","LI":"平安里","LIN":"8鄰","STREET":"安平路","SECT":" ","MAREA":" ","LANE":" ","ALLEY":" ","HOUSE_NO":"４２８號八樓之１","E_COORD97":165312.51999999999,"N_COORD97":2544327.4700000002,"ADDRESS":"安平路４２８號八樓之１","OBJECTID":501242},"geometry":{"x":165312.52000000048,"y":2544327.4700000025}},{"attributes":{"ID":501270,"DIS_CODE":0,"TOWNNAME":"安平區","LI":"平安里","LIN":"8鄰","STREET":"安平路","SECT":" ","MAREA":" ","LANE":" ","ALLEY":" ","HOUSE_NO":"４２８號八樓之２","E_COORD97":165312.51999999999,"N_COORD97":2544327.4700000002,"ADDRESS":"安平路４２８號八樓之２","OBJECTID":501243},"geometry":{"x":165312.52000000048,"y":2544327.4700000025}},{"attributes":{"ID":501271,"DIS_CODE":0,"TOWNNAME":"安平區","LI":"平安里","LIN":"8鄰","STREET":"安平路","SECT":" ","MAREA":" ","LANE":" ","ALLEY":" ","HOUSE_NO":"４２８號十一樓之１","E_COORD97":165312.51999999999,"N_COORD97":2544327.4700000002,"ADDRESS":"安平路４２８號十一樓之１","OBJECTID":501244},"geometry":{"x":165312.52000000048,"y":2544327.4700000025}},{"attributes":{"ID":501272,"DIS_CODE":0,"TOWNNAME":"安平區","LI":"平安里","LIN":"8鄰","STREET":"安平路","SECT":" ","MAREA":" ","LANE":" ","ALLEY":" ","HOUSE_NO":"４２８號十一樓之２","E_COORD97":165312.51999999999,"N_COORD97":2544327.4700000002,"ADDRESS":"安平路４２８號十一樓之２","OBJECTID":501245},"geometry":{"x":165312.52000000048,"y":2544327.4700000025}},{"attributes":{"ID":501273,"DIS_CODE":0,"TOWNNAME":"安平區","LI":"平安里","LIN":"8鄰","STREET":"安平路","SECT":" ","MAREA":" ","LANE":" ","ALLEY":" ","HOUSE_NO":"４２８號十二樓之１","E_COORD97":165312.51999999999,"N_COORD97":2544327.4700000002,"ADDRESS":"安平路４２８號十二樓之１","OBJECTID":501246},"geometry":{"x":165312.52000000048,"y":2544327.4700000025}},{"attributes":{"ID":501274,"DIS_CODE":0,"TOWNNAME":"安平區","LI":"平安里","LIN":"8鄰","STREET":"安平路","SECT":" ","MAREA":" ","LANE":" ","ALLEY":" ","HOUSE_NO":"４２８號十二樓之２","E_COORD97":165312.51999999999,"N_COORD97":2544327.4700000002,"ADDRESS":"安平路４２８號十二樓之２","OBJECTID":501247},"geometry":{"x":165312.52000000048,"y":2544327.4700000025}},{"attributes":{"ID":501275,"DIS_CODE":0,"TOWNNAME":"安平區","LI":"平安里","LIN":"8鄰","STREET":"安平路","SECT":" ","MAREA":" ","LANE":" ","ALLEY":" ","HOUSE_NO":"４２８號十三樓之１","E_COORD97":165312.51999999999,"N_COORD97":2544327.4700000002,"ADDRESS":"安平路４２８號十三樓之１","OBJECTID":501248},"geometry":{"x":165312.52000000048,"y":2544327.4700000025}},{"attributes":{"ID":501276,"DIS_CODE":0,"TOWNNAME":"安平區","LI":"平安里","LIN":"8鄰","STREET":"安平路","SECT":" ","MAREA":" ","LANE":" ","ALLEY":" ","HOUSE_NO":"４２８號十三樓之２","E_COORD97":165312.51999999999,"N_COORD97":2544327.4700000002,"ADDRESS":"安平路４２８號十三樓之２","OBJECTID":501249},"geometry":{"x":165312.52000000048,"y":2544327.4700000025}},{"attributes":{"ID":501277,"DIS_CODE":0,"TOWNNAME":"安平區","LI":"平安里","LIN":"8鄰","STREET":"安平路","SECT":" ","MAREA":" ","LANE":" ","ALLEY":" ","HOUSE_NO":"４２８號十樓之１","E_COORD97":165312.51999999999,"N_COORD97":2544327.4700000002,"ADDRESS":"安平路４２８號十樓之１","OBJECTID":501250},"geometry":{"x":165312.52000000048,"y":2544327.4700000025}},{"attributes":{"ID":501278,"DIS_CODE":0,"TOWNNAME":"安平區","LI":"平安里","LIN":"8鄰","STREET":"安平路","SECT":" ","MAREA":" ","LANE":" ","ALLEY":" ","HOUSE_NO":"４２８號十樓之２","E_COORD97":165312.51999999999,"N_COORD97":2544327.4700000002,"ADDRESS":"安平路４２８號十樓之２","OBJECTID":501251},"geometry":{"x":165312.52000000048,"y":2544327.4700000025}},{"attributes":{"ID":501279,"DIS_CODE":0,"TOWNNAME":"安平區","LI":"平安里","LIN":"8鄰","STREET":"安平路","SECT":" ","MAREA":" ","LANE":" ","ALLEY":" ","HOUSE_NO":"４２８號三樓之１","E_COORD97":165312.51999999999,"N_COORD97":2544327.4700000002,"ADDRESS":"安平路４２８號三樓之１","OBJECTID":501252},"geometry":{"x":165312.52000000048,"y":2544327.4700000025}},{"attributes":{"ID":501280,"DIS_CODE":0,"TOWNNAME":"安平區","LI":"平安里","LIN":"8鄰","STREET":"安平路","SECT":" ","MAREA":" ","LANE":" ","ALLEY":" ","HOUSE_NO":"４２８號三樓之２","E_COORD97":165312.51999999999,"N_COORD97":2544327.4700000002,"ADDRESS":"安平路４２８號三樓之２","OBJECTID":501253},"geometry":{"x":165312.52000000048,"y":2544327.4700000025}},{"attributes":{"ID":501281,"DIS_CODE":0,"TOWNNAME":"安平區","LI":"平安里","LIN":"8鄰","STREET":"安平路","SECT":" ","MAREA":" ","LANE":" ","ALLEY":" ","HOUSE_NO":"４２８號五樓之１","E_COORD97":165312.51999999999,"N_COORD97":2544327.4700000002,"ADDRESS":"安平路４２８號五樓之１","OBJECTID":501254},"geometry":{"x":165312.52000000048,"y":2544327.4700000025}},{"attributes":{"ID":501282,"DIS_CODE":0,"TOWNNAME":"安平區","LI":"平安里","LIN":"8鄰","STREET":"安平路","SECT":" ","MAREA":" ","LANE":" ","ALLEY":" ","HOUSE_NO":"４２８號五樓之２","E_COORD97":165312.51999999999,"N_COORD97":2544327.4700000002,"ADDRESS":"安平路４２８號五樓之２","OBJECTID":501255},"geometry":{"x":165312.52000000048,"y":2544327.4700000025}},{"attributes":{"ID":501283,"DIS_CODE":0,"TOWNNAME":"安平區","LI":"平安里","LIN":"8鄰","STREET":"安平路","SECT":" ","MAREA":" ","LANE":" ","ALLEY":" ","HOUSE_NO":"４２８號六樓之１","E_COORD97":165312.51999999999,"N_COORD97":2544327.4700000002,"ADDRESS":"安平路４２８號六樓之１","OBJECTID":501256},"geometry":{"x":165312.52000000048,"y":2544327.4700000025}},{"attributes":{"ID":501284,"DIS_CODE":0,"TOWNNAME":"安平區","LI":"平安里","LIN":"8鄰","STREET":"安平路","SECT":" ","MAREA":" ","LANE":" ","ALLEY":" ","HOUSE_NO":"４２８號六樓之２","E_COORD97":165312.51999999999,"N_COORD97":2544327.4700000002,"ADDRESS":"安平路４２８號六樓之２","OBJECTID":501257},"geometry":{"x":165312.52000000048,"y":2544327.4700000025}},{"attributes":{"ID":501285,"DIS_CODE":0,"TOWNNAME":"安平區","LI":"平安里","LIN":"8鄰","STREET":"安平路","SECT":" ","MAREA":" ","LANE":" ","ALLEY":" ","HOUSE_NO":"４２８號四樓之１","E_COORD97":165312.51999999999,"N_COORD97":2544327.4700000002,"ADDRESS":"安平路４２８號四樓之１","OBJECTID":501258},"geometry":{"x":165312.52000000048,"y":2544327.4700000025}},{"attributes":{"ID":501286,"DIS_CODE":0,"TOWNNAME":"安平區","LI":"平安里","LIN":"8鄰","STREET":"安平路","SECT":" ","MAREA":" ","LANE":" ","ALLEY":" ","HOUSE_NO":"４２８號四樓之２","E_COORD97":165312.51999999999,"N_COORD97":2544327.4700000002,"ADDRESS":"安平路４２８號四樓之２","OBJECTID":501259},"geometry":{"x":165312.52000000048,"y":2544327.4700000025}},{"attributes":{"ID":501287,"DIS_CODE":0,"TOWNNAME":"永康區","LI":"正強里","LIN":"8鄰","STREET":"正義街","SECT":" ","MAREA":" ","LANE":" ","ALLEY":" ","HOUSE_NO":"５９號","E_COORD97":173541.97,"N_COORD97":2547622.4500000002,"ADDRESS":"正義街５９號","OBJECTID":501260},"geometry":{"x":173541.97000000067,"y":2547622.4500000011}},{"attributes":{"ID":501288,"DIS_CODE":0,"TOWNNAME":"佳里區","LI":"鎮山里","LIN":"8鄰","STREET":"佳東路","SECT":" ","MAREA":" ","LANE":" ","ALLEY":" ","HOUSE_NO":"７６號","E_COORD97":166486,"N_COORD97":2561518.1000000001,"ADDRESS":"佳東路７６號","OBJECTID":501261},"geometry":{"x":166486.00000000186,"y":2561518.1000000015}},{"attributes":{"ID":501289,"DIS_CODE":0,"TOWNNAME":"佳里區","LI":"鎮山里","LIN":"8鄰","STREET":"佳東路","SECT":" ","MAREA":" ","LANE":" ","ALLEY":" ","HOUSE_NO":"７７號","E_COORD97":166407.12,"N_COORD97":2561537.8500000001,"ADDRESS":"佳東路７７號","OBJECTID":501262},"geometry":{"x":166407.11999999918,"y":2561537.8500000015}},{"attributes":{"ID":501290,"DIS_CODE":0,"TOWNNAME":"永康區","LI":"正強里","LIN":"8鄰","STREET":"永正路","SECT":" ","MAREA":" ","LANE":" ","ALLEY":" ","HOUSE_NO":"６９號","E_COORD97":173531.14999999999,"N_COORD97":2547455,"ADDRESS":"永正路６９號","OBJECTID":501263},"geometry":{"x":173531.1500000013,"y":2547455}},{"attributes":{"ID":501291,"DIS_CODE":0,"TOWNNAME":"南區","LI":"南華里","LIN":"5鄰","STREET":"中華南路","SECT":"二段","MAREA":" ","LANE":" ","ALLEY":" ","HOUSE_NO":"３６８號","E_COORD97":166484.75,"N_COORD97":2540298.8599999999,"ADDRESS":"中華南路二段３６８號","OBJECTID":501264},"geometry":{"x":166484.75000000093,"y":2540298.8600000013}},{"attributes":{"ID":501292,"DIS_CODE":0,"TOWNNAME":"南區","LI":"南華里","LIN":"5鄰","STREET":"中華南路","SECT":"二段","MAREA":" ","LANE":" ","ALLEY":" ","HOUSE_NO":"３７０號","E_COORD97":166481,"N_COORD97":2540298.8599999999,"ADDRESS":"中華南路二段３７０號","OBJECTID":501265},"geometry":{"x":166481.00000000093,"y":2540298.8600000013}},{"attributes":{"ID":501293,"DIS_CODE":0,"TOWNNAME":"南區","LI":"南華里","LIN":"5鄰","STREET":"中華南路","SECT":"二段","MAREA":" ","LANE":" ","ALLEY":" ","HOUSE_NO":"３７２號","E_COORD97":166475.26000000001,"N_COORD97":2540298.8599999999,"ADDRESS":"中華南路二段３７２號","OBJECTID":501266},"geometry":{"x":166475.25999999978,"y":2540298.8600000013}},{"attributes":{"ID":501294,"DIS_CODE":0,"TOWNNAME":"南區","LI":"南華里","LIN":"5鄰","STREET":"中華南路","SECT":"二段","MAREA":" ","LANE":" ","ALLEY":" ","HOUSE_NO":"３７４號","E_COORD97":166471.51000000001,"N_COORD97":2540298.6299999999,"ADDRESS":"中華南路二段３７４號","OBJECTID":501267},"geometry":{"x":166471.50999999978,"y":2540298.629999999}},{"attributes":{"ID":501295,"DIS_CODE":0,"TOWNNAME":"南區","LI":"南華里","LIN":"5鄰","STREET":"中華南路","SECT":"二段","MAREA":" ","LANE":" ","ALLEY":" ","HOUSE_NO":"３７６號","E_COORD97":166465.89000000001,"N_COORD97":2540298.7400000002,"ADDRESS":"中華南路二段３７６號","OBJECTID":501268},"geometry":{"x":166465.89000000153,"y":2540298.7400000002}},{"attributes":{"ID":501296,"DIS_CODE":0,"TOWNNAME":"安南區","LI":"長安里","LIN":"8鄰","STREET":"長溪路","SECT":"三段","MAREA":" ","LANE":" ","ALLEY":" ","HOUSE_NO":"４６１號之１","E_COORD97":167552.16,"N_COORD97":2552119.3999999999,"ADDRESS":"長溪路三段４６１號之１","OBJECTID":501269},"geometry":{"x":167552.16000000015,"y":2552119.4000000022}},{"attributes":{"ID":501297,"DIS_CODE":0,"TOWNNAME":"安南區","LI":"長安里","LIN":"8鄰","STREET":"長溪路","SECT":"三段","MAREA":" ","LANE":" ","ALLEY":" ","HOUSE_NO":"４６１號之２","E_COORD97":167554.84,"N_COORD97":2552116.3900000001,"ADDRESS":"長溪路三段４６１號之２","OBJECTID":501270},"geometry":{"x":167554.84000000171,"y":2552116.3900000025}},{"attributes":{"ID":501298,"DIS_CODE":0,"TOWNNAME":"安南區","LI":"長安里","LIN":"8鄰","STREET":"長溪路","SECT":"三段","MAREA":" ","LANE":" ","ALLEY":" ","HOUSE_NO":"４６１號之３","E_COORD97":167557.92000000001,"N_COORD97":2552112.3100000001,"ADDRESS":"長溪路三段４６１號之３","OBJECTID":501271},"geometry":{"x":167557.92000000086,"y":2552112.3100000042}},{"attributes":{"ID":501299,"DIS_CODE":0,"TOWNNAME":"安南區","LI":"長安里","LIN":"8鄰","STREET":"長溪路","SECT":"三段","MAREA":" ","LANE":" ","ALLEY":" ","HOUSE_NO":"４７２號","E_COORD97":167632.34,"N_COORD97":2552153.8599999999,"ADDRESS":"長溪路三段４７２號","OBJECTID":501272},"geometry":{"x":167632.33999999985,"y":2552153.8599999994}},{"attributes":{"ID":501300,"DIS_CODE":0,"TOWNNAME":"安南區","LI":"長安里","LIN":"8鄰","STREET":"長溪路","SECT":"三段","MAREA":" ","LANE":" ","ALLEY":" ","HOUSE_NO":"４７６號","E_COORD97":167577.32000000001,"N_COORD97":2552150.0299999998,"ADDRESS":"長溪路三段４７６號","OBJECTID":501273},"geometry":{"x":167577.31999999937,"y":2552150.0300000031}},{"attributes":{"ID":501301,"DIS_CODE":0,"TOWNNAME":"安南區","LI":"總頭里","LIN":"8鄰","STREET":"長溪路","SECT":"二段","MAREA":" ","LANE":" ","ALLEY":" ","HOUSE_NO":"６１５號","E_COORD97":168201.48000000001,"N_COORD97":2550751.1000000001,"ADDRESS":"長溪路二段６１５號","OBJECTID":501274},"geometry":{"x":168201.48000000045,"y":2550751.1000000015}},{"attributes":{"ID":501302,"DIS_CODE":0,"TOWNNAME":"安南區","LI":"總頭里","LIN":"8鄰","STREET":"長溪路","SECT":"二段","MAREA":" ","LANE":" ","ALLEY":" ","HOUSE_NO":"６１９號","E_COORD97":168198.17999999999,"N_COORD97":2550766.5099999998,"ADDRESS":"長溪路二段６１９號","OBJECTID":501275},"geometry":{"x":168198.18000000156,"y":2550766.5099999998}},{"attributes":{"ID":501303,"DIS_CODE":0,"TOWNNAME":"安南區","LI":"總頭里","LIN":"8鄰","STREET":"長溪路","SECT":"二段","MAREA":" ","LANE":" ","ALLEY":" ","HOUSE_NO":"６２１號","E_COORD97":168193.20999999999,"N_COORD97":2550775.8700000001,"ADDRESS":"長溪路二段６２１號","OBJECTID":501276},"geometry":{"x":168193.21000000183,"y":2550775.870000001}},{"attributes":{"ID":501304,"DIS_CODE":0,"TOWNNAME":"安南區","LI":"總頭里","LIN":"8鄰","STREET":"長溪路","SECT":"二段","MAREA":" ","LANE":" ","ALLEY":" ","HOUSE_NO":"６３６號","E_COORD97":168208.64999999999,"N_COORD97":2550812.2000000002,"ADDRESS":"長溪路二段６３６號","OBJECTID":501277},"geometry":{"x":168208.65000000037,"y":2550812.1999999993}},{"attributes":{"ID":501305,"DIS_CODE":0,"TOWNNAME":"安南區","LI":"總頭里","LIN":"8鄰","STREET":"長溪路","SECT":"二段","MAREA":" ","LANE":" ","ALLEY":" ","HOUSE_NO":"６４８號","E_COORD97":168221.57999999999,"N_COORD97":2550850.3999999999,"ADDRESS":"長溪路二段６４８號","OBJECTID":501278},"geometry":{"x":168221.58000000101,"y":2550850.4000000041}},{"attributes":{"ID":501306,"DIS_CODE":0,"TOWNNAME":"安南區","LI":"總頭里","LIN":"8鄰","STREET":"長溪路","SECT":"二段","MAREA":" ","LANE":" ","ALLEY":" ","HOUSE_NO":"６５０號","E_COORD97":168211.64999999999,"N_COORD97":2550844.8999999999,"ADDRESS":"長溪路二段６５０號","OBJECTID":501279},"geometry":{"x":168211.6500000013,"y":2550844.9000000022}},{"attributes":{"ID":501307,"DIS_CODE":0,"TOWNNAME":"安南區","LI":"總頭里","LIN":"8鄰","STREET":"長溪路","SECT":"二段","MAREA":" ","LANE":" ","ALLEY":" ","HOUSE_NO":"６５２號","E_COORD97":168219.37,"N_COORD97":2550860.3100000001,"ADDRESS":"長溪路二段６５２號","OBJECTID":501280},"geometry":{"x":168219.37000000197,"y":2550860.3100000005}},{"attributes":{"ID":501308,"DIS_CODE":0,"TOWNNAME":"安南區","LI":"總頭里","LIN":"8鄰","STREET":"長溪路","SECT":"二段","MAREA":" ","LANE":" ","ALLEY":" ","HOUSE_NO":"６５４號","E_COORD97":168208.89999999999,"N_COORD97":2550868.5699999998,"ADDRESS":"長溪路二段６５４號","OBJECTID":501281},"geometry":{"x":168208.90000000037,"y":2550868.5700000003}},{"attributes":{"ID":501309,"DIS_CODE":0,"TOWNNAME":"安南區","LI":"總頭里","LIN":"8鄰","STREET":"長溪路","SECT":"二段","MAREA":" ","LANE":" ","ALLEY":" ","HOUSE_NO":"６５８號","E_COORD97":168197.87,"N_COORD97":2550840.4900000002,"ADDRESS":"長溪路二段６５８號","OBJECTID":501282},"geometry":{"x":168197.87000000104,"y":2550840.4900000021}},{"attributes":{"ID":501310,"DIS_CODE":0,"TOWNNAME":"安南區","LI":"總頭里","LIN":"8鄰","STREET":"長溪路","SECT":"二段","MAREA":" ","LANE":" ","ALLEY":" ","HOUSE_NO":"６６８號","E_COORD97":168194.01000000001,"N_COORD97":2550854.8100000001,"ADDRESS":"長溪路二段６６８號","OBJECTID":501283},"geometry":{"x":168194.00999999978,"y":2550854.8100000024}},{"attributes":{"ID":501311,"DIS_CODE":0,"TOWNNAME":"安南區","LI":"總頭里","LIN":"8鄰","STREET":"長溪路","SECT":"二段","MAREA":" ","LANE":" ","ALLEY":" ","HOUSE_NO":"６７０號","E_COORD97":168192.35000000001,"N_COORD97":2550858.1099999999,"ADDRESS":"長溪路二段６７０號","OBJECTID":501284},"geometry":{"x":168192.35000000056,"y":2550858.1100000031}},{"attributes":{"ID":501312,"DIS_CODE":0,"TOWNNAME":"安南區","LI":"總頭里","LIN":"8鄰","STREET":"長溪路","SECT":"二段","MAREA":" ","LANE":" ","ALLEY":" ","HOUSE_NO":"６７２號","E_COORD97":168190.14999999999,"N_COORD97":2550861.96,"ADDRESS":"長溪路二段６７２號","OBJECTID":501285},"geometry":{"x":168190.15000000037,"y":2550861.9600000028}},{"attributes":{"ID":501313,"DIS_CODE":0,"TOWNNAME":"安南區","LI":"總頭里","LIN":"8鄰","STREET":"長溪路","SECT":"二段","MAREA":" ","LANE":" ","ALLEY":" ","HOUSE_NO":"６７４號","E_COORD97":168189.60000000001,"N_COORD97":2550866.3700000001,"ADDRESS":"長溪路二段６７４號","OBJECTID":501286},"geometry":{"x":168189.59999999963,"y":2550866.370000001}},{"attributes":{"ID":501314,"DIS_CODE":0,"TOWNNAME":"安南區","LI":"總頭里","LIN":"8鄰","STREET":"長溪路","SECT":"二段","MAREA":" ","LANE":" ","ALLEY":" ","HOUSE_NO":"６７５號","E_COORD97":168113.06,"N_COORD97":2550947.8799999999,"ADDRESS":"長溪路二段６７５號","OBJECTID":501287},"geometry":{"x":168113.06000000052,"y":2550947.8800000008}},{"attributes":{"ID":501315,"DIS_CODE":0,"TOWNNAME":"安南區","LI":"公親里","LIN":"8鄰","STREET":"公學路","SECT":"一段","MAREA":" ","LANE":" ","ALLEY":" ","HOUSE_NO":"１６７號之２","E_COORD97":168143.81,"N_COORD97":2553045.73,"ADDRESS":"公學路一段１６７號之２","OBJECTID":501288},"geometry":{"x":168143.80999999959,"y":2553045.7300000023}},{"attributes":{"ID":501316,"DIS_CODE":0,"TOWNNAME":"安南區","LI":"學東里","LIN":"8鄰","STREET":"公學路","SECT":"六段","MAREA":" ","LANE":" ","ALLEY":" ","HOUSE_NO":"５０６號之１６","E_COORD97":162596.29999999999,"N_COORD97":2553222.7400000002,"ADDRESS":"公學路六段５０６號之１６","OBJECTID":501289},"geometry":{"x":162596.29999999981,"y":2553222.7400000002}},{"attributes":{"ID":501317,"DIS_CODE":0,"TOWNNAME":"安南區","LI":"州北里","LIN":"8鄰","STREET":"北安路","SECT":"四段","MAREA":" ","LANE":" ","ALLEY":" ","HOUSE_NO":"３８８號","E_COORD97":169503.60000000001,"N_COORD97":2551532.9300000002,"ADDRESS":"北安路四段３８８號","OBJECTID":501290},"geometry":{"x":169503.59999999963,"y":2551532.9299999997}},{"attributes":{"ID":501318,"DIS_CODE":0,"TOWNNAME":"安南區","LI":"城南里","LIN":"8鄰","STREET":"城西街","SECT":"一段","MAREA":" ","LANE":" ","ALLEY":" ","HOUSE_NO":"２３７號之１","E_COORD97":160385.62,"N_COORD97":2551186.5,"ADDRESS":"城西街一段２３７號之１","OBJECTID":501291},"geometry":{"x":160385.62000000011,"y":2551186.5}},{"attributes":{"ID":501319,"DIS_CODE":0,"TOWNNAME":"安南區","LI":"城南里","LIN":"8鄰","STREET":"城西街","SECT":"一段","MAREA":" ","LANE":" ","ALLEY":" ","HOUSE_NO":"２３７號之２","E_COORD97":160382.13,"N_COORD97":2551183.27,"ADDRESS":"城西街一段２３７號之２","OBJECTID":501292},"geometry":{"x":160382.12999999896,"y":2551183.2700000014}},{"attributes":{"ID":501320,"DIS_CODE":0,"TOWNNAME":"中西區","LI":"三合里","LIN":"8鄰","STREET":"成功路","SECT":" ","MAREA":" ","LANE":" ","ALLEY":" ","HOUSE_NO":"４２１號","E_COORD97":167715.70999999999,"N_COORD97":2544599.3700000001,"ADDRESS":"成功路４２１號","OBJECTID":501293},"geometry":{"x":167715.71000000089,"y":2544599.3700000048}},{"attributes":{"ID":501321,"DIS_CODE":0,"TOWNNAME":"中西區","LI":"三合里","LIN":"8鄰","STREET":"成功路","SECT":" ","MAREA":" ","LANE":" ","ALLEY":" ","HOUSE_NO":"４２５號","E_COORD97":167704.57000000001,"N_COORD97":2544602.8199999998,"ADDRESS":"成功路４２５號","OBJECTID":501294},"geometry":{"x":167704.57000000216,"y":2544602.8200000022}},{"attributes":{"ID":501322,"DIS_CODE":0,"TOWNNAME":"中西區","LI":"三合里","LIN":"8鄰","STREET":"成功路","SECT":" ","MAREA":" ","LANE":" ","ALLEY":" ","HOUSE_NO":"４２９號","E_COORD97":167698.10000000001,"N_COORD97":2544606.46,"ADDRESS":"成功路４２９號","OBJECTID":501295},"geometry":{"x":167698.09999999963,"y":2544606.4600000028}},{"attributes":{"ID":501323,"DIS_CODE":0,"TOWNNAME":"中西區","LI":"三合里","LIN":"8鄰","STREET":"成功路","SECT":" ","MAREA":" ","LANE":" ","ALLEY":" ","HOUSE_NO":"４３１號","E_COORD97":167689.5,"N_COORD97":2544598.6899999999,"ADDRESS":"成功路４３１號","OBJECTID":501296},"geometry":{"x":167689.50000000186,"y":2544598.6900000032}},{"attributes":{"ID":501324,"DIS_CODE":0,"TOWNNAME":"中西區","LI":"三合里","LIN":"8鄰","STREET":"成功路","SECT":" ","MAREA":" ","LANE":" ","ALLEY":" ","HOUSE_NO":"４３５號","E_COORD97":167682.95000000001,"N_COORD97":2544601.0099999998,"ADDRESS":"成功路４３５號","OBJECTID":501297},"geometry":{"x":167682.95000000019,"y":2544601.0100000016}},{"attributes":{"ID":501325,"DIS_CODE":0,"TOWNNAME":"中西區","LI":"三合里","LIN":"8鄰","STREET":"成功路","SECT":" ","MAREA":" ","LANE":" ","ALLEY":" ","HOUSE_NO":"４３７號","E_COORD97":167678.98999999999,"N_COORD97":2544602.2400000002,"ADDRESS":"成功路４３７號","OBJECTID":501298},"geometry":{"x":167678.99000000022,"y":2544602.2400000002}},{"attributes":{"ID":501326,"DIS_CODE":0,"TOWNNAME":"中西區","LI":"三合里","LIN":"8鄰","STREET":"成功路","SECT":" ","MAREA":" ","LANE":" ","ALLEY":" ","HOUSE_NO":"４４１號","E_COORD97":167670.39999999999,"N_COORD97":2544605.5099999998,"ADDRESS":"成功路４４１號","OBJECTID":501299},"geometry":{"x":167670.4000000013,"y":2544605.5099999998}},{"attributes":{"ID":501327,"DIS_CODE":0,"TOWNNAME":"中西區","LI":"三合里","LIN":"8鄰","STREET":"成功路","SECT":" ","MAREA":" ","LANE":" ","ALLEY":" ","HOUSE_NO":"４４３號","E_COORD97":167665.89000000001,"N_COORD97":2544608.1000000001,"ADDRESS":"成功路４４３號","OBJECTID":501300},"geometry":{"x":167665.88999999966,"y":2544608.0999999996}},{"attributes":{"ID":501328,"DIS_CODE":0,"TOWNNAME":"東區","LI":"崇成里","LIN":"8鄰","STREET":"崇德十三街","SECT":" ","MAREA":" ","LANE":" ","ALLEY":" ","HOUSE_NO":"４１號","E_COORD97":170909.82000000001,"N_COORD97":2541311.3399999999,"ADDRESS":"崇德十三街４１號","OBJECTID":501301},"geometry":{"x":170909.8200000003,"y":2541311.3399999999}},{"attributes":{"ID":501329,"DIS_CODE":0,"TOWNNAME":"中西區","LI":"保安里","LIN":"8鄰","STREET":"國華街","SECT":"二段","MAREA":" ","LANE":" ","ALLEY":" ","HOUSE_NO":"１１９之１號","E_COORD97":167657.59,"N_COORD97":2543539.4399999999,"ADDRESS":"國華街二段１１９之１號","OBJECTID":501302},"geometry":{"x":167657.58999999985,"y":2543539.4400000032}},{"attributes":{"ID":501330,"DIS_CODE":0,"TOWNNAME":"中西區","LI":"保安里","LIN":"8鄰","STREET":"國華街","SECT":"二段","MAREA":" ","LANE":" ","ALLEY":" ","HOUSE_NO":"１１９號","E_COORD97":167656.39000000001,"N_COORD97":2543536,"ADDRESS":"國華街二段１１９號","OBJECTID":501303},"geometry":{"x":167656.3900000006,"y":2543536.0000000037}},{"attributes":{"ID":501331,"DIS_CODE":0,"TOWNNAME":"中西區","LI":"保安里","LIN":"8鄰","STREET":"國華街","SECT":"二段","MAREA":" ","LANE":" ","ALLEY":" ","HOUSE_NO":"１３４號","E_COORD97":167669.98000000001,"N_COORD97":2543500.0699999998,"ADDRESS":"國華街二段１３４號","OBJECTID":501304},"geometry":{"x":167669.98000000138,"y":2543500.0700000022}},{"attributes":{"ID":501332,"DIS_CODE":0,"TOWNNAME":"中西區","LI":"保安里","LIN":"8鄰","STREET":"國華街","SECT":"二段","MAREA":" ","LANE":" ","ALLEY":" ","HOUSE_NO":"１３６號","E_COORD97":167668.42999999999,"N_COORD97":2543504.54,"ADDRESS":"國華街二段１３６號","OBJECTID":501305},"geometry":{"x":167668.43000000063,"y":2543504.5400000028}},{"attributes":{"ID":501333,"DIS_CODE":0,"TOWNNAME":"中西區","LI":"保安里","LIN":"8鄰","STREET":"國華街","SECT":"二段","MAREA":" ","LANE":" ","ALLEY":" ","HOUSE_NO":"１３８號","E_COORD97":167670.32999999999,"N_COORD97":2543509.3500000001,"ADDRESS":"國華街二段１３８號","OBJECTID":501306},"geometry":{"x":167670.33000000194,"y":2543509.3499999978}},{"attributes":{"ID":501334,"DIS_CODE":0,"TOWNNAME":"中西區","LI":"保安里","LIN":"8鄰","STREET":"國華街","SECT":"二段","MAREA":" ","LANE":" ","ALLEY":" ","HOUSE_NO":"１４０號","E_COORD97":167670.85000000001,"N_COORD97":2543512.9199999999,"ADDRESS":"國華街二段１４０號","OBJECTID":501307},"geometry":{"x":167670.84999999963,"y":2543512.9200000037}},{"attributes":{"ID":501335,"DIS_CODE":0,"TOWNNAME":"中西區","LI":"保安里","LIN":"8鄰","STREET":"國華街","SECT":"二段","MAREA":" ","LANE":" ","ALLEY":" ","HOUSE_NO":"１４６號","E_COORD97":167674.79999999999,"N_COORD97":2543527.75,"ADDRESS":"國華街二段１４６號","OBJECTID":501308},"geometry":{"x":167674.79999999981,"y":2543527.7500000037}},{"attributes":{"ID":501336,"DIS_CODE":0,"TOWNNAME":"佳里區","LI":"鎮山里","LIN":"8鄰","STREET":"佳東路","SECT":" ","MAREA":" ","LANE":" ","ALLEY":" ","HOUSE_NO":"５１號","E_COORD97":166440.81,"N_COORD97":2561474.6600000001,"ADDRESS":"佳東路５１號","OBJECTID":501309},"geometry":{"x":166440.80999999959,"y":2561474.660000002}},{"attributes":{"ID":501337,"DIS_CODE":0,"TOWNNAME":"佳里區","LI":"鎮山里","LIN":"8鄰","STREET":"佳東路","SECT":" ","MAREA":" ","LANE":" ","ALLEY":" ","HOUSE_NO":"５３號","E_COORD97":166440.22,"N_COORD97":2561479.0099999998,"ADDRESS":"佳東路５３號","OBJECTID":501310},"geometry":{"x":166440.22000000067,"y":2561479.0100000016}},{"attributes":{"ID":501338,"DIS_CODE":0,"TOWNNAME":"佳里區","LI":"鎮山里","LIN":"8鄰","STREET":"佳東路","SECT":" ","MAREA":" ","LANE":" ","ALLEY":" ","HOUSE_NO":"１８９號","E_COORD97":166392,"N_COORD97":2561855.7999999998,"ADDRESS":"佳東路１８９號","OBJECTID":501311},"geometry":{"x":166392,"y":2561855.8000000007}},{"attributes":{"ID":501339,"DIS_CODE":0,"TOWNNAME":"佳里區","LI":"鎮山里","LIN":"8鄰","STREET":"佳東路","SECT":" ","MAREA":" ","LANE":" ","ALLEY":" ","HOUSE_NO":"１９２號","E_COORD97":166447.14999999999,"N_COORD97":2561713.48,"ADDRESS":"佳東路１９２號","OBJECTID":501312},"geometry":{"x":166447.15000000037,"y":2561713.4800000023}},{"attributes":{"ID":501340,"DIS_CODE":0,"TOWNNAME":"佳里區","LI":"鎮山里","LIN":"8鄰","STREET":"佳東路","SECT":" ","MAREA":" ","LANE":" ","ALLEY":" ","HOUSE_NO":"２１１號","E_COORD97":166358.76999999999,"N_COORD97":2561874.3799999999,"ADDRESS":"佳東路２１１號","OBJECTID":501313},"geometry":{"x":166358.77000000048,"y":2561874.3800000027}},{"attributes":{"ID":501341,"DIS_CODE":0,"TOWNNAME":"佳里區","LI":"鎮山里","LIN":"8鄰","STREET":"佳東路","SECT":" ","MAREA":" ","LANE":" ","ALLEY":" ","HOUSE_NO":"２１５號","E_COORD97":166380.01999999999,"N_COORD97":2561920.77,"ADDRESS":"佳東路２１５號","OBJECTID":501314},"geometry":{"x":166380.01999999955,"y":2561920.7700000014}},{"attributes":{"ID":501342,"DIS_CODE":0,"TOWNNAME":"佳里區","LI":"鎮山里","LIN":"8鄰","STREET":"佳東路","SECT":" ","MAREA":" ","LANE":" ","ALLEY":" ","HOUSE_NO":"２１７號","E_COORD97":166379.25,"N_COORD97":2561924.8700000001,"ADDRESS":"佳東路２１７號","OBJECTID":501315},"geometry":{"x":166379.25000000093,"y":2561924.8700000029}},{"attributes":{"ID":501343,"DIS_CODE":0,"TOWNNAME":"佳里區","LI":"鎮山里","LIN":"8鄰","STREET":"佳東路","SECT":" ","MAREA":" ","LANE":" ","ALLEY":" ","HOUSE_NO":"２１９號","E_COORD97":166378.69,"N_COORD97":2561929.5099999998,"ADDRESS":"佳東路２１９號","OBJECTID":501316},"geometry":{"x":166378.69000000134,"y":2561929.5100000016}},{"attributes":{"ID":501344,"DIS_CODE":0,"TOWNNAME":"佳里區","LI":"鎮山里","LIN":"8鄰","STREET":"佳東路","SECT":" ","MAREA":" ","LANE":" ","ALLEY":" ","HOUSE_NO":"２２１號","E_COORD97":166378.10000000001,"N_COORD97":2561933.8999999999,"ADDRESS":"佳東路２２１號","OBJECTID":501317},"geometry":{"x":166378.10000000149,"y":2561933.9000000022}},{"attributes":{"ID":501345,"DIS_CODE":0,"TOWNNAME":"佳里區","LI":"鎮山里","LIN":"8鄰","STREET":"佳東路","SECT":" ","MAREA":" ","LANE":" ","ALLEY":" ","HOUSE_NO":"２２３號","E_COORD97":166377.35999999999,"N_COORD97":2561937.9700000002,"ADDRESS":"佳東路２２３號","OBJECTID":501318},"geometry":{"x":166377.36000000127,"y":2561937.9700000025}},{"attributes":{"ID":501346,"DIS_CODE":0,"TOWNNAME":"佳里區","LI":"鎮山里","LIN":"8鄰","STREET":"佳東路","SECT":" ","MAREA":" ","LANE":" ","ALLEY":" ","HOUSE_NO":"２２５號","E_COORD97":166376.51000000001,"N_COORD97":2561942.54,"ADDRESS":"佳東路２２５號","OBJECTID":501319},"geometry":{"x":166376.50999999978,"y":2561942.540000001}},{"attributes":{"ID":501347,"DIS_CODE":0,"TOWNNAME":"佳里區","LI":"鎮山里","LIN":"8鄰","STREET":"佳東路","SECT":" ","MAREA":" ","LANE":" ","ALLEY":" ","HOUSE_NO":"２２７號","E_COORD97":166376.01999999999,"N_COORD97":2561946.79,"ADDRESS":"佳東路２２７號","OBJECTID":501320},"geometry":{"x":166376.01999999955,"y":2561946.790000001}},{"attributes":{"ID":501348,"DIS_CODE":0,"TOWNNAME":"佳里區","LI":"鎮山里","LIN":"8鄰","STREET":"佳東路","SECT":" ","MAREA":" ","LANE":" ","ALLEY":" ","HOUSE_NO":"２２９號","E_COORD97":166375.39000000001,"N_COORD97":2561950.5699999998,"ADDRESS":"佳東路２２９號","OBJECTID":501321},"geometry":{"x":166375.38999999966,"y":2561950.5700000022}},{"attributes":{"ID":501349,"DIS_CODE":0,"TOWNNAME":"佳里區","LI":"鎮山里","LIN":"8鄰","STREET":"佳東路","SECT":" ","MAREA":" ","LANE":" ","ALLEY":" ","HOUSE_NO":"２３１號","E_COORD97":166374.82000000001,"N_COORD97":2561954.9300000002,"ADDRESS":"佳東路２３１號","OBJECTID":501322},"geometry":{"x":166374.8200000003,"y":2561954.9299999997}},{"attributes":{"ID":501350,"DIS_CODE":0,"TOWNNAME":"佳里區","LI":"鎮山里","LIN":"8鄰","STREET":"佳東路","SECT":" ","MAREA":" ","LANE":" ","ALLEY":" ","HOUSE_NO":"２３３號","E_COORD97":166374.23000000001,"N_COORD97":2561959.2599999998,"ADDRESS":"佳東路２３３號","OBJECTID":501323},"geometry":{"x":166374.23000000045,"y":2561959.2599999998}},{"attributes":{"ID":501351,"DIS_CODE":0,"TOWNNAME":"佳里區","LI":"鎮山里","LIN":"8鄰","STREET":"佳東路","SECT":" ","MAREA":" ","LANE":" ","ALLEY":" ","HOUSE_NO":"２５號","E_COORD97":166444.42000000001,"N_COORD97":2561428.3500000001,"ADDRESS":"佳東路２５號","OBJECTID":501324},"geometry":{"x":166444.42000000086,"y":2561428.3500000015}},{"attributes":{"ID":501352,"DIS_CODE":0,"TOWNNAME":"佳里區","LI":"鎮山里","LIN":"8鄰","STREET":"佳東路","SECT":" ","MAREA":" ","LANE":" ","ALLEY":" ","HOUSE_NO":"２９８號","E_COORD97":166434.23999999999,"N_COORD97":2561861.48,"ADDRESS":"佳東路２９８號","OBJECTID":501325},"geometry":{"x":166434.24000000115,"y":2561861.4799999986}},{"attributes":{"ID":501353,"DIS_CODE":0,"TOWNNAME":"佳里區","LI":"安西里","LIN":"8鄰","STREET":"和平街","SECT":" ","MAREA":" ","LANE":" ","ALLEY":" ","HOUSE_NO":"１２１號","E_COORD97":165681.06,"N_COORD97":2562493.4900000002,"ADDRESS":"和平街１２１號","OBJECTID":501326},"geometry":{"x":165681.05999999959,"y":2562493.4900000021}},{"attributes":{"ID":501354,"DIS_CODE":0,"TOWNNAME":"佳里區","LI":"東寧里","LIN":"8鄰","STREET":"和平街","SECT":" ","MAREA":" ","LANE":" ","ALLEY":" ","HOUSE_NO":"１２２號","E_COORD97":165760.54999999999,"N_COORD97":2562524.0499999998,"ADDRESS":"和平街１２２號","OBJECTID":501327},"geometry":{"x":165760.55000000075,"y":2562524.0500000026}},{"attributes":{"ID":501355,"DIS_CODE":0,"TOWNNAME":"佳里區","LI":"東寧里","LIN":"8鄰","STREET":"和平街","SECT":" ","MAREA":" ","LANE":" ","ALLEY":" ","HOUSE_NO":"１２４號","E_COORD97":165756.10999999999,"N_COORD97":2562524.0099999998,"ADDRESS":"和平街１２４號","OBJECTID":501328},"geometry":{"x":165756.11000000034,"y":2562524.0099999998}},{"attributes":{"ID":501356,"DIS_CODE":0,"TOWNNAME":"佳里區","LI":"東寧里","LIN":"8鄰","STREET":"和平街","SECT":" ","MAREA":" ","LANE":" ","ALLEY":" ","HOUSE_NO":"１２６號","E_COORD97":165751.73000000001,"N_COORD97":2562523.98,"ADDRESS":"和平街１２６號","OBJECTID":501329},"geometry":{"x":165751.73000000045,"y":2562523.9800000023}},{"attributes":{"ID":501357,"DIS_CODE":0,"TOWNNAME":"佳里區","LI":"東寧里","LIN":"8鄰","STREET":"和平街","SECT":" ","MAREA":" ","LANE":" ","ALLEY":" ","HOUSE_NO":"１２８號","E_COORD97":165747.5,"N_COORD97":2562523.9100000001,"ADDRESS":"和平街１２８號","OBJECTID":501330},"geometry":{"x":165747.50000000093,"y":2562523.910000002}},{"attributes":{"ID":501358,"DIS_CODE":0,"TOWNNAME":"佳里區","LI":"安西里","LIN":"8鄰","STREET":"和平街","SECT":" ","MAREA":" ","LANE":" ","ALLEY":" ","HOUSE_NO":"１２９號","E_COORD97":165661.48999999999,"N_COORD97":2562491.46,"ADDRESS":"和平街１２９號","OBJECTID":501331},"geometry":{"x":165661.49000000115,"y":2562491.4600000009}},{"attributes":{"ID":501359,"DIS_CODE":0,"TOWNNAME":"佳里區","LI":"東寧里","LIN":"8鄰","STREET":"和平街","SECT":" ","MAREA":" ","LANE":" ","ALLEY":" ","HOUSE_NO":"１３０號","E_COORD97":165742.95000000001,"N_COORD97":2562523.5600000001,"ADDRESS":"和平街１３０號","OBJECTID":501332},"geometry":{"x":165742.95000000112,"y":2562523.5600000024}},{"attributes":{"ID":501360,"DIS_CODE":0,"TOWNNAME":"佳里區","LI":"東寧里","LIN":"8鄰","STREET":"和平街","SECT":" ","MAREA":" ","LANE":" ","ALLEY":" ","HOUSE_NO":"１３４號","E_COORD97":165734.60999999999,"N_COORD97":2562520.5899999999,"ADDRESS":"和平街１３４號","OBJECTID":501333},"geometry":{"x":165734.6100000022,"y":2562520.5899999999}},{"attributes":{"ID":501361,"DIS_CODE":0,"TOWNNAME":"佳里區","LI":"東寧里","LIN":"8鄰","STREET":"和平街","SECT":" ","MAREA":" ","LANE":" ","ALLEY":" ","HOUSE_NO":"１３６號","E_COORD97":165730.38,"N_COORD97":2562520.5600000001,"ADDRESS":"和平街１３６號","OBJECTID":501334},"geometry":{"x":165730.37999999989,"y":2562520.5600000024}},{"attributes":{"ID":501362,"DIS_CODE":0,"TOWNNAME":"佳里區","LI":"東寧里","LIN":"8鄰","STREET":"和平街","SECT":" ","MAREA":" ","LANE":" ","ALLEY":" ","HOUSE_NO":"１３８號","E_COORD97":165723.22,"N_COORD97":2562520.73,"ADDRESS":"和平街１３８號","OBJECTID":501335},"geometry":{"x":165723.22000000067,"y":2562520.7300000004}},{"attributes":{"ID":501363,"DIS_CODE":0,"TOWNNAME":"歸仁區","LI":"辜厝里","LIN":"8鄰","STREET":"中正南路","SECT":"一段","MAREA":" ","LANE":" ","ALLEY":" ","HOUSE_NO":"６８號","E_COORD97":177587.03,"N_COORD97":2540584.0099999998,"ADDRESS":"中正南路一段６８號","OBJECTID":501336},"geometry":{"x":177587.03000000026,"y":2540584.0100000016}},{"attributes":{"ID":501364,"DIS_CODE":0,"TOWNNAME":"歸仁區","LI":"文化里","LIN":"8鄰","STREET":"民權一街","SECT":" ","MAREA":" ","LANE":" ","ALLEY":" ","HOUSE_NO":"３５號","E_COORD97":177139.41,"N_COORD97":2541360.25,"ADDRESS":"民權一街３５號","OBJECTID":501337},"geometry":{"x":177139.41000000108,"y":2541360.25}},{"attributes":{"ID":501365,"DIS_CODE":0,"TOWNNAME":"歸仁區","LI":"後市里","LIN":"8鄰","STREET":"中山五街","SECT":" ","MAREA":" ","LANE":" ","ALLEY":" ","HOUSE_NO":"４５號","E_COORD97":177101.59,"N_COORD97":2540699.25,"ADDRESS":"中山五街４５號","OBJECTID":501338},"geometry":{"x":177101.58999999985,"y":2540699.25}},{"attributes":{"ID":501366,"DIS_CODE":0,"TOWNNAME":"關廟區","LI":"布袋里","LIN":"8鄰","STREET":"長文街","SECT":" ","MAREA":" ","LANE":" ","ALLEY":" ","HOUSE_NO":"３２７號","E_COORD97":182068.44,"N_COORD97":2535031.25,"ADDRESS":"長文街３２７號","OBJECTID":501339},"geometry":{"x":182068.44000000041,"y":2535031.2500000037}},{"attributes":{"ID":501367,"DIS_CODE":0,"TOWNNAME":"關廟區","LI":"田中里","LIN":"8鄰","STREET":"南雄南路","SECT":" ","MAREA":" ","LANE":" ","ALLEY":" ","HOUSE_NO":"６４７號","E_COORD97":183446.34,"N_COORD97":2533597.25,"ADDRESS":"南雄南路６４７號","OBJECTID":501340},"geometry":{"x":183446.34000000078,"y":2533597.2500000037}},{"attributes":{"ID":501368,"DIS_CODE":0,"TOWNNAME":"關廟區","LI":"田中里","LIN":"8鄰","STREET":"南雄南路","SECT":" ","MAREA":" ","LANE":" ","ALLEY":" ","HOUSE_NO":"５６０號","E_COORD97":183605.04000000001,"N_COORD97":2533822.2999999998,"ADDRESS":"南雄南路５６０號","OBJECTID":501341},"geometry":{"x":183605.04000000004,"y":2533822.3000000026}},{"attributes":{"ID":501369,"DIS_CODE":0,"TOWNNAME":"關廟區","LI":"東勢里","LIN":"8鄰","STREET":"四維街","SECT":" ","MAREA":" ","LANE":" ","ALLEY":" ","HOUSE_NO":"６號","E_COORD97":181965.45999999999,"N_COORD97":2539472.25,"ADDRESS":"四維街６號","OBJECTID":501342},"geometry":{"x":181965.46000000089,"y":2539472.25}},{"attributes":{"ID":501370,"DIS_CODE":0,"TOWNNAME":"關廟區","LI":"五甲里","LIN":"8鄰","STREET":"五慧街","SECT":" ","MAREA":" ","LANE":" ","ALLEY":" ","HOUSE_NO":"６６號","E_COORD97":181118.51999999999,"N_COORD97":2539255.25,"ADDRESS":"五慧街６６號","OBJECTID":501343},"geometry":{"x":181118.52000000048,"y":2539255.25}},{"attributes":{"ID":501371,"DIS_CODE":0,"TOWNNAME":"關廟區","LI":"五甲里","LIN":"8鄰","STREET":"五慧街","SECT":" ","MAREA":" ","LANE":" ","ALLEY":" ","HOUSE_NO":"３６號","E_COORD97":181180.32000000001,"N_COORD97":2539259.25,"ADDRESS":"五慧街３６號","OBJECTID":501344},"geometry":{"x":181180.32000000123,"y":2539259.2500000037}},{"attributes":{"ID":501372,"DIS_CODE":0,"TOWNNAME":"關廟區","LI":"五甲里","LIN":"8鄰","STREET":"五慧街","SECT":" ","MAREA":" ","LANE":" ","ALLEY":" ","HOUSE_NO":"５３號","E_COORD97":181156.92000000001,"N_COORD97":2539243.25,"ADDRESS":"五慧街５３號","OBJECTID":501345},"geometry":{"x":181156.92000000086,"y":2539243.2500000019}},{"attributes":{"ID":501373,"DIS_CODE":0,"TOWNNAME":"關廟區","LI":"北勢里","LIN":"8鄰","STREET":"成功路","SECT":" ","MAREA":" ","LANE":" ","ALLEY":" ","HOUSE_NO":"１１８號","E_COORD97":181652.17000000001,"N_COORD97":2540441.27,"ADDRESS":"成功路１１８號","OBJECTID":501346},"geometry":{"x":181652.17000000086,"y":2540441.2699999996}},{"attributes":{"ID":501374,"DIS_CODE":0,"TOWNNAME":"關廟區","LI":"松腳里","LIN":"8鄰","STREET":"四維街","SECT":" ","MAREA":" ","LANE":" ","ALLEY":" ","HOUSE_NO":"１３１號","E_COORD97":181864.66,"N_COORD97":2539772.25,"ADDRESS":"四維街１３１號","OBJECTID":501347},"geometry":{"x":181864.66000000015,"y":2539772.2500000019}},{"attributes":{"ID":501375,"DIS_CODE":0,"TOWNNAME":"關廟區","LI":"新埔里","LIN":"8鄰","STREET":"新埔三街","SECT":" ","MAREA":" ","LANE":" ","ALLEY":" ","HOUSE_NO":"１１７號","E_COORD97":181202.72,"N_COORD97":2541106.25,"ADDRESS":"新埔三街１１７號","OBJECTID":501348},"geometry":{"x":181202.71999999974,"y":2541106.25}},{"attributes":{"ID":501376,"DIS_CODE":0,"TOWNNAME":"關廟區","LI":"香洋里","LIN":"8鄰","STREET":"中央路","SECT":" ","MAREA":" ","LANE":" ","ALLEY":" ","HOUSE_NO":"２３７號","E_COORD97":181072.06,"N_COORD97":2540115.3199999998,"ADDRESS":"中央路２３７號","OBJECTID":501349},"geometry":{"x":181072.05999999866,"y":2540115.3200000003}},{"attributes":{"ID":501377,"DIS_CODE":0,"TOWNNAME":"關廟區","LI":"香洋里","LIN":"8鄰","STREET":"中央路","SECT":" ","MAREA":" ","LANE":" ","ALLEY":" ","HOUSE_NO":"２５３號","E_COORD97":181030.56,"N_COORD97":2540125.3199999998,"ADDRESS":"中央路２５３號","OBJECTID":501350},"geometry":{"x":181030.56000000052,"y":2540125.3200000003}},{"attributes":{"ID":501378,"DIS_CODE":0,"TOWNNAME":"關廟區","LI":"新埔里","LIN":"8鄰","STREET":"新埔三街","SECT":" ","MAREA":" ","LANE":" ","ALLEY":" ","HOUSE_NO":"１２３號","E_COORD97":181217.72,"N_COORD97":2541107.25,"ADDRESS":"新埔三街１２３號","OBJECTID":501351},"geometry":{"x":181217.72000000067,"y":2541107.2500000019}},{"attributes":{"ID":501379,"DIS_CODE":0,"TOWNNAME":"關廟區","LI":"關廟里","LIN":"8鄰","STREET":"民生街","SECT":" ","MAREA":" ","LANE":" ","ALLEY":" ","HOUSE_NO":"１３０號","E_COORD97":180868.59,"N_COORD97":2539764.29,"ADDRESS":"民生街１３０號","OBJECTID":501352},"geometry":{"x":180868.58999999985,"y":2539764.290000001}},{"attributes":{"ID":501380,"DIS_CODE":0,"TOWNNAME":"關廟區","LI":"香洋里","LIN":"8鄰","STREET":"中央路","SECT":" ","MAREA":" ","LANE":" ","ALLEY":" ","HOUSE_NO":"２５９號","E_COORD97":181018.66,"N_COORD97":2540129.3199999998,"ADDRESS":"中央路２５９號","OBJECTID":501353},"geometry":{"x":181018.66000000108,"y":2540129.3200000003}},{"attributes":{"ID":501381,"DIS_CODE":0,"TOWNNAME":"關廟區","LI":"南花里","LIN":"8鄰","STREET":"四維街","SECT":" ","MAREA":" ","LANE":" ","ALLEY":" ","HOUSE_NO":"２３３號","E_COORD97":181852.35999999999,"N_COORD97":2540224.25,"ADDRESS":"四維街２３３號","OBJECTID":501354},"geometry":{"x":181852.3600000022,"y":2540224.25}},{"attributes":{"ID":501382,"DIS_CODE":0,"TOWNNAME":"關廟區","LI":"龜洞里","LIN":"8鄰","STREET":"南雄南路","SECT":" ","MAREA":" ","LANE":" ","ALLEY":" ","HOUSE_NO":"６８５號","E_COORD97":183410.34,"N_COORD97":2533481.25,"ADDRESS":"南雄南路６８５號","OBJECTID":501355},"geometry":{"x":183410.34000000078,"y":2533481.25}},{"attributes":{"ID":501383,"DIS_CODE":0,"TOWNNAME":"關廟區","LI":"香洋里","LIN":"8鄰","STREET":"中央路","SECT":" ","MAREA":" ","LANE":" ","ALLEY":" ","HOUSE_NO":"２６９號","E_COORD97":180994.16,"N_COORD97":2540136.3199999998,"ADDRESS":"中央路２６９號","OBJECTID":501356},"geometry":{"x":180994.16000000201,"y":2540136.3200000003}},{"attributes":{"ID":501384,"DIS_CODE":0,"TOWNNAME":"關廟區","LI":"龜洞里","LIN":"8鄰","STREET":"南雄南路","SECT":" ","MAREA":" ","LANE":" ","ALLEY":" ","HOUSE_NO":"６９５號","E_COORD97":183387.23999999999,"N_COORD97":2533463.25,"ADDRESS":"南雄南路６９５號","OBJECTID":501357},"geometry":{"x":183387.24000000209,"y":2533463.25}},{"attributes":{"ID":501385,"DIS_CODE":0,"TOWNNAME":"關廟區","LI":"新埔里","LIN":"8鄰","STREET":"新埔三街","SECT":" ","MAREA":" ","LANE":" ","ALLEY":" ","HOUSE_NO":"１３５號","E_COORD97":181242.32000000001,"N_COORD97":2541107.25,"ADDRESS":"新埔三街１３５號","OBJECTID":501358},"geometry":{"x":181242.32000000216,"y":2541107.2500000019}},{"attributes":{"ID":501386,"DIS_CODE":0,"TOWNNAME":"關廟區","LI":"關廟里","LIN":"8鄰","STREET":"民生街","SECT":" ","MAREA":" ","LANE":" ","ALLEY":" ","HOUSE_NO":"１３８號","E_COORD97":180860.59,"N_COORD97":2539774.29,"ADDRESS":"民生街１３８號","OBJECTID":501359},"geometry":{"x":180860.59000000078,"y":2539774.290000001}},{"attributes":{"ID":501387,"DIS_CODE":0,"TOWNNAME":"關廟區","LI":"香洋里","LIN":"8鄰","STREET":"中央路","SECT":" ","MAREA":" ","LANE":" ","ALLEY":" ","HOUSE_NO":"２４１號","E_COORD97":181065.16,"N_COORD97":2540116.3199999998,"ADDRESS":"中央路２４１號","OBJECTID":501360},"geometry":{"x":181065.16000000015,"y":2540116.3200000003}},{"attributes":{"ID":501388,"DIS_CODE":0,"TOWNNAME":"關廟區","LI":"龜洞里","LIN":"8鄰","STREET":"官崙街","SECT":" ","MAREA":" ","LANE":" ","ALLEY":" ","HOUSE_NO":"６６號","E_COORD97":183476.14000000001,"N_COORD97":2533363.2999999998,"ADDRESS":"官崙街６６號","OBJECTID":501361},"geometry":{"x":183476.1400000006,"y":2533363.3000000007}},{"attributes":{"ID":501389,"DIS_CODE":0,"TOWNNAME":"關廟區","LI":"香洋里","LIN":"8鄰","STREET":"中央路","SECT":" ","MAREA":" ","LANE":" ","ALLEY":" ","HOUSE_NO":"２６３號","E_COORD97":181008.35999999999,"N_COORD97":2540132.3199999998,"ADDRESS":"中央路２６３號","OBJECTID":501362},"geometry":{"x":181008.36000000127,"y":2540132.3200000003}},{"attributes":{"ID":501390,"DIS_CODE":0,"TOWNNAME":"關廟區","LI":"香洋里","LIN":"8鄰","STREET":"中央路","SECT":" ","MAREA":" ","LANE":" ","ALLEY":" ","HOUSE_NO":"２５７號","E_COORD97":181021.76000000001,"N_COORD97":2540128.3199999998,"ADDRESS":"中央路２５７號","OBJECTID":501363},"geometry":{"x":181021.75999999885,"y":2540128.3200000022}},{"attributes":{"ID":501391,"DIS_CODE":0,"TOWNNAME":"關廟區","LI":"南花里","LIN":"8鄰","STREET":"四維街","SECT":" ","MAREA":" ","LANE":" ","ALLEY":" ","HOUSE_NO":"２３５號","E_COORD97":181852.76000000001,"N_COORD97":2540230.25,"ADDRESS":"四維街２３５號","OBJECTID":501364},"geometry":{"x":181852.76000000071,"y":2540230.2500000019}},{"attributes":{"ID":501392,"DIS_CODE":0,"TOWNNAME":"關廟區","LI":"新埔里","LIN":"8鄰","STREET":"北新街","SECT":" ","MAREA":" ","LANE":" ","ALLEY":" ","HOUSE_NO":"３５０號","E_COORD97":181272.48999999999,"N_COORD97":2541106.25,"ADDRESS":"北新街３５０號","OBJECTID":501365},"geometry":{"x":181272.49000000115,"y":2541106.25}},{"attributes":{"ID":501393,"DIS_CODE":0,"TOWNNAME":"關廟區","LI":"香洋里","LIN":"8鄰","STREET":"中央路","SECT":" ","MAREA":" ","LANE":" ","ALLEY":" ","HOUSE_NO":"２６５號","E_COORD97":181002.95999999999,"N_COORD97":2540134.3199999998,"ADDRESS":"中央路２６５號","OBJECTID":501366},"geometry":{"x":181002.95999999996,"y":2540134.3200000022}},{"attributes":{"ID":501394,"DIS_CODE":0,"TOWNNAME":"關廟區","LI":"新埔里","LIN":"8鄰","STREET":"北新街","SECT":" ","MAREA":" ","LANE":" ","ALLEY":" ","HOUSE_NO":"３５２號","E_COORD97":181266.79000000001,"N_COORD97":2541108.25,"ADDRESS":"北新街３５２號","OBJECTID":501367},"geometry":{"x":181266.79000000097,"y":2541108.2500000019}},{"attributes":{"ID":501395,"DIS_CODE":0,"TOWNNAME":"關廟區","LI":"南花里","LIN":"8鄰","STREET":"四維街","SECT":" ","MAREA":" ","LANE":" ","ALLEY":" ","HOUSE_NO":"２５３號","E_COORD97":181854.35999999999,"N_COORD97":2540239.25,"ADDRESS":"四維街２５３號","OBJECTID":501368},"geometry":{"x":181854.36000000127,"y":2540239.2500000019}},{"attributes":{"ID":501396,"DIS_CODE":0,"TOWNNAME":"關廟區","LI":"埤頭里","LIN":"8鄰","STREET":"保東路","SECT":" ","MAREA":" ","LANE":" ","ALLEY":" ","HOUSE_NO":"８０號","E_COORD97":178894.17000000001,"N_COORD97":2544032.2999999998,"ADDRESS":"保東路８０號","OBJECTID":501369},"geometry":{"x":178894.17000000086,"y":2544032.3000000007}},{"attributes":{"ID":501397,"DIS_CODE":0,"TOWNNAME":"安平區","LI":"建平里","LIN":"8鄰","STREET":"中華西路","SECT":"二段","MAREA":" ","LANE":" ","ALLEY":" ","HOUSE_NO":"４８９號","E_COORD97":166581.67999999999,"N_COORD97":2544151.23,"ADDRESS":"中華西路二段４８９號","OBJECTID":501370},"geometry":{"x":166581.68000000063,"y":2544151.2300000004}},{"attributes":{"ID":501398,"DIS_CODE":0,"TOWNNAME":"安平區","LI":"石門里","LIN":"8鄰","STREET":"安北路","SECT":" ","MAREA":" ","LANE":" ","ALLEY":" ","HOUSE_NO":"３６號之３","E_COORD97":164655.22,"N_COORD97":2544526.6200000001,"ADDRESS":"安北路３６號之３","OBJECTID":501371},"geometry":{"x":164655.22000000067,"y":2544526.6200000029}},{"attributes":{"ID":501399,"DIS_CODE":0,"TOWNNAME":"安平區","LI":"億載里","LIN":"8鄰","STREET":"平豐路","SECT":" ","MAREA":" ","LANE":" ","ALLEY":" ","HOUSE_NO":"１３９號","E_COORD97":164286.73999999999,"N_COORD97":2543562.2999999998,"ADDRESS":"平豐路１３９號","OBJECTID":501372},"geometry":{"x":164286.74000000022,"y":2543562.3000000026}},{"attributes":{"ID":501400,"DIS_CODE":0,"TOWNNAME":"安平區","LI":"億載里","LIN":"8鄰","STREET":"平豐路","SECT":" ","MAREA":" ","LANE":" ","ALLEY":" ","HOUSE_NO":"１４１號","E_COORD97":164286.26000000001,"N_COORD97":2543569.6000000001,"ADDRESS":"平豐路１４１號","OBJECTID":501373},"geometry":{"x":164286.25999999978,"y":2543569.6000000015}},{"attributes":{"ID":501401,"DIS_CODE":0,"TOWNNAME":"鹽水區","LI":"武廟里","LIN":"8鄰","STREET":"武廟路","SECT":" ","MAREA":" ","LANE":" ","ALLEY":" ","HOUSE_NO":"６１號之２","E_COORD97":174882.82999999999,"N_COORD97":2580199.2400000002,"ADDRESS":"武廟路６１號之２","OBJECTID":501374},"geometry":{"x":174882.83000000007,"y":2580199.2400000021}},{"attributes":{"ID":501402,"DIS_CODE":0,"TOWNNAME":"鹽水區","LI":"武廟里","LIN":"8鄰","STREET":"武廟路","SECT":" ","MAREA":" ","LANE":" ","ALLEY":" ","HOUSE_NO":"６１號","E_COORD97":174893.31,"N_COORD97":2580181.1600000001,"ADDRESS":"武廟路６１號","OBJECTID":501375},"geometry":{"x":174893.31000000145,"y":2580181.1600000001}},{"attributes":{"ID":501403,"DIS_CODE":0,"TOWNNAME":"鹽水區","LI":"橋南里","LIN":"8鄰","STREET":"南太路","SECT":" ","MAREA":" ","LANE":" ","ALLEY":" ","HOUSE_NO":"１２號","E_COORD97":175390.67000000001,"N_COORD97":2578878.3399999999,"ADDRESS":"南太路１２號","OBJECTID":501376},"geometry":{"x":175390.66999999993,"y":2578878.3400000036}},{"attributes":{"ID":501404,"DIS_CODE":0,"TOWNNAME":"鹽水區","LI":"橋南里","LIN":"8鄰","STREET":"南太路","SECT":" ","MAREA":" ","LANE":" ","ALLEY":" ","HOUSE_NO":"１４號","E_COORD97":175399.45999999999,"N_COORD97":2578875.98,"ADDRESS":"南太路１４號","OBJECTID":501377},"geometry":{"x":175399.46000000183,"y":2578875.9800000023}},{"attributes":{"ID":501405,"DIS_CODE":0,"TOWNNAME":"鹽水區","LI":"橋南里","LIN":"8鄰","STREET":"南太路","SECT":" ","MAREA":" ","LANE":" ","ALLEY":" ","HOUSE_NO":"１６號","E_COORD97":175392.62,"N_COORD97":2578864.4700000002,"ADDRESS":"南太路１６號","OBJECTID":501378},"geometry":{"x":175392.62000000011,"y":2578864.4699999988}},{"attributes":{"ID":501406,"DIS_CODE":0,"TOWNNAME":"鹽水區","LI":"橋南里","LIN":"8鄰","STREET":"南太路","SECT":" ","MAREA":" ","LANE":" ","ALLEY":" ","HOUSE_NO":"１８號","E_COORD97":175395.48999999999,"N_COORD97":2578856.6699999999,"ADDRESS":"南太路１８號","OBJECTID":501379},"geometry":{"x":175395.49000000022,"y":2578856.6700000018}},{"attributes":{"ID":501407,"DIS_CODE":0,"TOWNNAME":"鹽水區","LI":"橋南里","LIN":"8鄰","STREET":"南太路","SECT":" ","MAREA":" ","LANE":" ","ALLEY":" ","HOUSE_NO":"２０號","E_COORD97":175408.23000000001,"N_COORD97":2578854.3599999999,"ADDRESS":"南太路２０號","OBJECTID":501380},"geometry":{"x":175408.23000000231,"y":2578854.3600000013}},{"attributes":{"ID":501408,"DIS_CODE":0,"TOWNNAME":"鹽水區","LI":"橋南里","LIN":"8鄰","STREET":"南太路","SECT":" ","MAREA":" ","LANE":" ","ALLEY":" ","HOUSE_NO":"２４號","E_COORD97":175422.5,"N_COORD97":2578852.0899999999,"ADDRESS":"南太路２４號","OBJECTID":501381},"geometry":{"x":175422.5,"y":2578852.0899999999}},{"attributes":{"ID":501409,"DIS_CODE":0,"TOWNNAME":"鹽水區","LI":"橋南里","LIN":"8鄰","STREET":"南太路","SECT":" ","MAREA":" ","LANE":" ","ALLEY":" ","HOUSE_NO":"２６號","E_COORD97":175425.76000000001,"N_COORD97":2578848.04,"ADDRESS":"南太路２６號","OBJECTID":501382},"geometry":{"x":175425.75999999978,"y":2578848.0399999991}},{"attributes":{"ID":501410,"DIS_CODE":0,"TOWNNAME":"鹽水區","LI":"橋南里","LIN":"8鄰","STREET":"南太路","SECT":" ","MAREA":" ","LANE":" ","ALLEY":" ","HOUSE_NO":"２８號之１","E_COORD97":175386.95000000001,"N_COORD97":2578771.7400000002,"ADDRESS":"南太路２８號之１","OBJECTID":501383},"geometry":{"x":175386.95000000112,"y":2578771.7400000021}},{"attributes":{"ID":501411,"DIS_CODE":0,"TOWNNAME":"鹽水區","LI":"橋南里","LIN":"8鄰","STREET":"南太路","SECT":" ","MAREA":" ","LANE":" ","ALLEY":" ","HOUSE_NO":"２８號","E_COORD97":175423.22,"N_COORD97":2578829.21,"ADDRESS":"南太路２８號","OBJECTID":501384},"geometry":{"x":175423.22000000067,"y":2578829.209999999}},{"attributes":{"ID":501412,"DIS_CODE":0,"TOWNNAME":"鹽水區","LI":"橋南里","LIN":"8鄰","STREET":"南門路","SECT":" ","MAREA":" ","LANE":" ","ALLEY":" ","HOUSE_NO":"１８４號","E_COORD97":175367.14000000001,"N_COORD97":2579003.3500000001,"ADDRESS":"南門路１８４號","OBJECTID":501385},"geometry":{"x":175367.13999999966,"y":2579003.3500000034}},{"attributes":{"ID":501413,"DIS_CODE":0,"TOWNNAME":"鹽水區","LI":"橋南里","LIN":"8鄰","STREET":"南門路","SECT":" ","MAREA":" ","LANE":" ","ALLEY":" ","HOUSE_NO":"１８６號","E_COORD97":175370.07999999999,"N_COORD97":2579000.5600000001,"ADDRESS":"南門路１８６號","OBJECTID":501386},"geometry":{"x":175370.08000000101,"y":2579000.5600000024}},{"attributes":{"ID":501414,"DIS_CODE":0,"TOWNNAME":"鹽水區","LI":"橋南里","LIN":"8鄰","STREET":"南門路","SECT":" ","MAREA":" ","LANE":" ","ALLEY":" ","HOUSE_NO":"１９０號","E_COORD97":175376.76000000001,"N_COORD97":2578993.4700000002,"ADDRESS":"南門路１９０號","OBJECTID":501387},"geometry":{"x":175376.75999999885,"y":2578993.4700000044}},{"attributes":{"ID":501415,"DIS_CODE":0,"TOWNNAME":"鹽水區","LI":"橋南里","LIN":"8鄰","STREET":"南門路","SECT":" ","MAREA":" ","LANE":" ","ALLEY":" ","HOUSE_NO":"１９４號","E_COORD97":175376.51000000001,"N_COORD97":2578983.71,"ADDRESS":"南門路１９４號","OBJECTID":501388},"geometry":{"x":175376.50999999978,"y":2578983.7100000009}},{"attributes":{"ID":501416,"DIS_CODE":0,"TOWNNAME":"鹽水區","LI":"橋南里","LIN":"8鄰","STREET":"南門路","SECT":" ","MAREA":" ","LANE":" ","ALLEY":" ","HOUSE_NO":"１９６號","E_COORD97":175377.01999999999,"N_COORD97":2578979.0899999999,"ADDRESS":"南門路１９６號","OBJECTID":501389},"geometry":{"x":175377.02000000048,"y":2578979.0900000017}},{"attributes":{"ID":501417,"DIS_CODE":0,"TOWNNAME":"鹽水區","LI":"橋南里","LIN":"8鄰","STREET":"南門路","SECT":" ","MAREA":" ","LANE":" ","ALLEY":" ","HOUSE_NO":"１９８號","E_COORD97":175377.35999999999,"N_COORD97":2578974.9500000002,"ADDRESS":"南門路１９８號","OBJECTID":501390},"geometry":{"x":175377.36000000127,"y":2578974.9499999974}},{"attributes":{"ID":501418,"DIS_CODE":0,"TOWNNAME":"鹽水區","LI":"橋南里","LIN":"8鄰","STREET":"南門路","SECT":" ","MAREA":" ","LANE":" ","ALLEY":" ","HOUSE_NO":"２００號","E_COORD97":175381.81,"N_COORD97":2578969.6499999999,"ADDRESS":"南門路２００號","OBJECTID":501391},"geometry":{"x":175381.81000000052,"y":2578969.6500000022}},{"attributes":{"ID":501419,"DIS_CODE":0,"TOWNNAME":"鹽水區","LI":"水正里","LIN":"8鄰","STREET":"康樂路","SECT":" ","MAREA":" ","LANE":" ","ALLEY":" ","HOUSE_NO":"２１號之１","E_COORD97":175133.23000000001,"N_COORD97":2579773.54,"ADDRESS":"康樂路２１號之１","OBJECTID":501392},"geometry":{"x":175133.23000000045,"y":2579773.5399999991}},{"attributes":{"ID":501420,"DIS_CODE":0,"TOWNNAME":"鹽水區","LI":"水正里","LIN":"8鄰","STREET":"康樂路","SECT":" ","MAREA":" ","LANE":" ","ALLEY":" ","HOUSE_NO":"２１號","E_COORD97":175144.45000000001,"N_COORD97":2579772.73,"ADDRESS":"康樂路２１號","OBJECTID":501393},"geometry":{"x":175144.45000000112,"y":2579772.7300000023}},{"attributes":{"ID":501421,"DIS_CODE":0,"TOWNNAME":"鹽水區","LI":"水正里","LIN":"8鄰","STREET":"康樂路","SECT":" ","MAREA":" ","LANE":" ","ALLEY":" ","HOUSE_NO":"３３號","E_COORD97":175141.42000000001,"N_COORD97":2579799.9100000001,"ADDRESS":"康樂路３３號","OBJECTID":501394},"geometry":{"x":175141.41999999993,"y":2579799.9100000001}},{"attributes":{"ID":501422,"DIS_CODE":0,"TOWNNAME":"鹽水區","LI":"水正里","LIN":"8鄰","STREET":"康樂路","SECT":" ","MAREA":" ","LANE":" ","ALLEY":" ","HOUSE_NO":"３５號","E_COORD97":175142.06,"N_COORD97":2579805.3799999999,"ADDRESS":"康樂路３５號","OBJECTID":501395},"geometry":{"x":175142.05999999959,"y":2579805.379999999}},{"attributes":{"ID":501423,"DIS_CODE":0,"TOWNNAME":"鹽水區","LI":"水正里","LIN":"8鄰","STREET":"康樂路","SECT":" ","MAREA":" ","LANE":" ","ALLEY":" ","HOUSE_NO":"３７號","E_COORD97":175142.14000000001,"N_COORD97":2579809.98,"ADDRESS":"康樂路３７號","OBJECTID":501396},"geometry":{"x":175142.1400000006,"y":2579809.9800000004}},{"attributes":{"ID":501424,"DIS_CODE":0,"TOWNNAME":"北區","LI":"大港里","LIN":"8鄰","STREET":"大興街","SECT":" ","MAREA":" ","LANE":" ","ALLEY":" ","HOUSE_NO":"２４８號","E_COORD97":166712.17999999999,"N_COORD97":2545712.8500000001,"ADDRESS":"大興街２４８號","OBJECTID":501397},"geometry":{"x":166712.18000000063,"y":2545712.8499999996}},{"attributes":{"ID":501425,"DIS_CODE":0,"TOWNNAME":"北區","LI":"大和里","LIN":"8鄰","STREET":"文賢路","SECT":" ","MAREA":" ","LANE":" ","ALLEY":" ","HOUSE_NO":"７９７號","E_COORD97":167313.88,"N_COORD97":2546294.8799999999,"ADDRESS":"文賢路７９７號","OBJECTID":501398},"geometry":{"x":167313.88000000175,"y":2546294.879999999}},{"attributes":{"ID":501426,"DIS_CODE":0,"TOWNNAME":"北區","LI":"大和里","LIN":"8鄰","STREET":"文賢路","SECT":" ","MAREA":" ","LANE":" ","ALLEY":" ","HOUSE_NO":"７３７號","E_COORD97":167328.5,"N_COORD97":2546171.21,"ADDRESS":"文賢路７３７號","OBJECTID":501399},"geometry":{"x":167328.50000000186,"y":2546171.2100000028}},{"attributes":{"ID":501427,"DIS_CODE":0,"TOWNNAME":"北區","LI":"大和里","LIN":"8鄰","STREET":"文賢路","SECT":" ","MAREA":" ","LANE":" ","ALLEY":" ","HOUSE_NO":"７３９號","E_COORD97":167328.42999999999,"N_COORD97":2546175.98,"ADDRESS":"文賢路７３９號","OBJECTID":501400},"geometry":{"x":167328.4299999997,"y":2546175.9800000023}}]}