{"displayFieldName":"TOWNNAME","fieldAliases":{"ID":"ID","DIS_CODE":"DIS_CODE","TOWNNAME":"TOWNNAME","LI":"LI","LIN":"LIN","STREET":"STREET","SECT":"SECT","MAREA":"MAREA","LANE":"LANE","ALLEY":"ALLEY","HOUSE_NO":"HOUSE_NO","E_COORD97":"E_COORD97","N_COORD97":"N_COORD97","ADDRESS":"ADDRESS","OBJECTID":"OBJECTID"},"geometryType":"esriGeometryPoint","spatialReference":{"wkid":102443,"latestWkid":3826},"fields":[{"name":"ID","type":"esriFieldTypeDouble","alias":"ID"},{"name":"DIS_CODE","type":"esriFieldTypeInteger","alias":"DIS_CODE"},{"name":"TOWNNAME","type":"esriFieldTypeString","alias":"TOWNNAME","length":8},{"name":"LI","type":"esriFieldTypeString","alias":"LI","length":8},{"name":"LIN","type":"esriFieldTypeString","alias":"LIN","length":12},{"name":"STREET","type":"esriFieldTypeString","alias":"STREET","length":20},{"name":"SECT","type":"esriFieldTypeString","alias":"SECT","length":8},{"name":"MAREA","type":"esriFieldTypeString","alias":"MAREA","length":12},{"name":"LANE","type":"esriFieldTypeString","alias":"LANE","length":10},{"name":"ALLEY","type":"esriFieldTypeString","alias":"ALLEY","length":10},{"name":"HOUSE_NO","type":"esriFieldTypeString","alias":"HOUSE_NO","length":20},{"name":"E_COORD97","type":"esriFieldTypeDouble","alias":"E_COORD97"},{"name":"N_COORD97","type":"esriFieldTypeDouble","alias":"N_COORD97"},{"name":"ADDRESS","type":"esriFieldTypeString","alias":"ADDRESS","length":50},{"name":"OBJECTID","type":"esriFieldTypeOID","alias":"OBJECTID"}],"features":[{"attributes":{"ID":349610,"DIS_CODE":0,"TOWNNAME":"學甲區","LI":"明宜里","LIN":"8鄰","STREET":"民權路","SECT":" ","MAREA":" ","LANE":" ","ALLEY":" ","HOUSE_NO":"２５２號","E_COORD97":165688.79999999999,"N_COORD97":2570556.1400000001,"ADDRESS":"民權路２５２號","OBJECTID":349601},"geometry":{"x":165688.80000000075,"y":2570556.1400000006}},{"attributes":{"ID":349611,"DIS_CODE":0,"TOWNNAME":"南區","LI":"鯤鯓里","LIN":"18鄰","STREET":"鯤鯓路","SECT":" ","MAREA":" ","LANE":"１０２巷","ALLEY":" ","HOUSE_NO":"６１號","E_COORD97":165094.67999999999,"N_COORD97":2540275.2400000002,"ADDRESS":"鯤鯓路１０２巷６１號","OBJECTID":349602},"geometry":{"x":165094.68000000063,"y":2540275.2400000002}},{"attributes":{"ID":349612,"DIS_CODE":0,"TOWNNAME":"南區","LI":"鯤鯓里","LIN":"18鄰","STREET":"鯤鯓路","SECT":" ","MAREA":" ","LANE":"１０２巷","ALLEY":" ","HOUSE_NO":"６３號","E_COORD97":165089.85000000001,"N_COORD97":2540274.8799999999,"ADDRESS":"鯤鯓路１０２巷６３號","OBJECTID":349603},"geometry":{"x":165089.85000000056,"y":2540274.8800000008}},{"attributes":{"ID":349613,"DIS_CODE":0,"TOWNNAME":"南區","LI":"鯤鯓里","LIN":"18鄰","STREET":"鯤鯓路","SECT":" ","MAREA":" ","LANE":"１０２巷","ALLEY":" ","HOUSE_NO":"６５號","E_COORD97":165083.09,"N_COORD97":2540274.1499999999,"ADDRESS":"鯤鯓路１０２巷６５號","OBJECTID":349604},"geometry":{"x":165083.08999999892,"y":2540274.1500000022}},{"attributes":{"ID":349614,"DIS_CODE":0,"TOWNNAME":"永康區","LI":"西灣里","LIN":"42鄰","STREET":"大灣路","SECT":" ","MAREA":" ","LANE":"９４２巷","ALLEY":" ","HOUSE_NO":"４９５號","E_COORD97":173957.84,"N_COORD97":2545473.25,"ADDRESS":"大灣路９４２巷４９５號","OBJECTID":349605},"geometry":{"x":173957.84000000078,"y":2545473.25}},{"attributes":{"ID":349615,"DIS_CODE":0,"TOWNNAME":"楠西區","LI":"灣丘里","LIN":"18鄰","STREET":" ","SECT":" ","MAREA":"鳳興","LANE":" ","ALLEY":" ","HOUSE_NO":"６３號之４","E_COORD97":202497.42999999999,"N_COORD97":2562576.2999999998,"ADDRESS":"鳳興６３號之４","OBJECTID":349606},"geometry":{"x":202497.43000000063,"y":2562576.3000000026}},{"attributes":{"ID":349616,"DIS_CODE":0,"TOWNNAME":"柳營區","LI":"八翁里","LIN":"18鄰","STREET":" ","SECT":" ","MAREA":"八老爺","LANE":" ","ALLEY":" ","HOUSE_NO":"３９之４８號","E_COORD97":177608.32000000001,"N_COORD97":2574804.7200000002,"ADDRESS":"八老爺３９之４８號","OBJECTID":349607},"geometry":{"x":177608.32000000123,"y":2574804.7200000044}},{"attributes":{"ID":349617,"DIS_CODE":0,"TOWNNAME":"永康區","LI":"西灣里","LIN":"47鄰","STREET":"大灣路","SECT":" ","MAREA":" ","LANE":"９４２巷","ALLEY":" ","HOUSE_NO":"５６５號","E_COORD97":173948.32000000001,"N_COORD97":2545617.75,"ADDRESS":"大灣路９４２巷５６５號","OBJECTID":349608},"geometry":{"x":173948.32000000123,"y":2545617.75}},{"attributes":{"ID":349618,"DIS_CODE":0,"TOWNNAME":"永康區","LI":"成功里","LIN":"15鄰","STREET":"忠孝路","SECT":" ","MAREA":" ","LANE":"１９５巷","ALLEY":" ","HOUSE_NO":"３５號","E_COORD97":171961.19,"N_COORD97":2544810.75,"ADDRESS":"忠孝路１９５巷３５號","OBJECTID":349609},"geometry":{"x":171961.19000000134,"y":2544810.7500000019}},{"attributes":{"ID":349619,"DIS_CODE":0,"TOWNNAME":"永康區","LI":"成功里","LIN":"41鄰","STREET":"中華路","SECT":" ","MAREA":" ","LANE":"１５４巷","ALLEY":" ","HOUSE_NO":"２９號","E_COORD97":171702.98000000001,"N_COORD97":2544899.5099999998,"ADDRESS":"中華路１５４巷２９號","OBJECTID":349610},"geometry":{"x":171702.98000000138,"y":2544899.5100000016}},{"attributes":{"ID":349620,"DIS_CODE":0,"TOWNNAME":"永康區","LI":"永康里","LIN":"2鄰","STREET":"中山北路","SECT":" ","MAREA":" ","LANE":"７９巷","ALLEY":" ","HOUSE_NO":"１１號","E_COORD97":173998.72,"N_COORD97":2547445.5,"ADDRESS":"中山北路７９巷１１號","OBJECTID":349611},"geometry":{"x":173998.71999999974,"y":2547445.5000000019}},{"attributes":{"ID":349621,"DIS_CODE":0,"TOWNNAME":"永康區","LI":"西橋里","LIN":"20鄰","STREET":"大橋三街","SECT":" ","MAREA":" ","LANE":"５７巷","ALLEY":" ","HOUSE_NO":"５號","E_COORD97":170570.39999999999,"N_COORD97":2546535,"ADDRESS":"大橋三街５７巷５號","OBJECTID":349612},"geometry":{"x":170570.40000000037,"y":2546535}},{"attributes":{"ID":349622,"DIS_CODE":0,"TOWNNAME":"永康區","LI":"西灣里","LIN":"42鄰","STREET":"大灣路","SECT":" ","MAREA":" ","LANE":"９４２巷","ALLEY":" ","HOUSE_NO":"４８７號","E_COORD97":173952.34,"N_COORD97":2545457.7400000002,"ADDRESS":"大灣路９４２巷４８７號","OBJECTID":349613},"geometry":{"x":173952.33999999892,"y":2545457.7400000021}},{"attributes":{"ID":349623,"DIS_CODE":0,"TOWNNAME":"永康區","LI":"成功里","LIN":"37鄰","STREET":"中華路","SECT":" ","MAREA":" ","LANE":"１５４巷","ALLEY":" ","HOUSE_NO":"８１號","E_COORD97":171813.01999999999,"N_COORD97":2544909.9900000002,"ADDRESS":"中華路１５４巷８１號","OBJECTID":349614},"geometry":{"x":171813.01999999955,"y":2544909.9900000021}},{"attributes":{"ID":349624,"DIS_CODE":0,"TOWNNAME":"永康區","LI":"西灣里","LIN":"19鄰","STREET":"大安街","SECT":" ","MAREA":" ","LANE":"３３３巷","ALLEY":" ","HOUSE_NO":"１１號","E_COORD97":174572.78,"N_COORD97":2545731.8399999999,"ADDRESS":"大安街３３３巷１１號","OBJECTID":349615},"geometry":{"x":174572.78000000119,"y":2545731.8400000017}},{"attributes":{"ID":349625,"DIS_CODE":0,"TOWNNAME":"永康區","LI":"正強里","LIN":"14鄰","STREET":"自強路","SECT":" ","MAREA":" ","LANE":"１８８巷","ALLEY":" ","HOUSE_NO":"６１號","E_COORD97":173230.87,"N_COORD97":2547316.0800000001,"ADDRESS":"自強路１８８巷６１號","OBJECTID":349616},"geometry":{"x":173230.87000000104,"y":2547316.0800000038}},{"attributes":{"ID":349626,"DIS_CODE":0,"TOWNNAME":"永康區","LI":"安康里","LIN":"14鄰","STREET":"中華路","SECT":" ","MAREA":" ","LANE":"６１９巷","ALLEY":" ","HOUSE_NO":"８６號","E_COORD97":170872.76000000001,"N_COORD97":2546008,"ADDRESS":"中華路６１９巷８６號","OBJECTID":349617},"geometry":{"x":170872.76000000164,"y":2546008.0000000019}},{"attributes":{"ID":349627,"DIS_CODE":0,"TOWNNAME":"學甲區","LI":"明宜里","LIN":"8鄰","STREET":"民權路","SECT":" ","MAREA":" ","LANE":" ","ALLEY":" ","HOUSE_NO":"２５０號","E_COORD97":165688.57000000001,"N_COORD97":2570551.1099999999,"ADDRESS":"民權路２５０號","OBJECTID":349618},"geometry":{"x":165688.5700000003,"y":2570551.1099999994}},{"attributes":{"ID":349628,"DIS_CODE":0,"TOWNNAME":"學甲區","LI":"明宜里","LIN":"8鄰","STREET":"民權路","SECT":" ","MAREA":" ","LANE":" ","ALLEY":" ","HOUSE_NO":"２４８號","E_COORD97":165687.92999999999,"N_COORD97":2570546.2999999998,"ADDRESS":"民權路２４８號","OBJECTID":349619},"geometry":{"x":165687.93000000063,"y":2570546.3000000026}},{"attributes":{"ID":349629,"DIS_CODE":0,"TOWNNAME":"永康區","LI":"王行里","LIN":"1鄰","STREET":"王行路","SECT":" ","MAREA":" ","LANE":" ","ALLEY":" ","HOUSE_NO":"２１８號","E_COORD97":175667.20999999999,"N_COORD97":2548155.2999999998,"ADDRESS":"王行路２１８號","OBJECTID":349620},"geometry":{"x":175667.20999999903,"y":2548155.3000000007}},{"attributes":{"ID":349630,"DIS_CODE":0,"TOWNNAME":"新營區","LI":"太北里","LIN":"18鄰","STREET":" ","SECT":" ","MAREA":"太子宮","LANE":" ","ALLEY":" ","HOUSE_NO":"８之３８號","E_COORD97":176193.79999999999,"N_COORD97":2577239.0499999998,"ADDRESS":"太子宮８之３８號","OBJECTID":349621},"geometry":{"x":176193.80000000168,"y":2577239.0500000007}},{"attributes":{"ID":349631,"DIS_CODE":0,"TOWNNAME":"柳營區","LI":"東昇里","LIN":"18鄰","STREET":"十美街","SECT":" ","MAREA":" ","LANE":"２０８巷","ALLEY":" ","HOUSE_NO":"１０號","E_COORD97":180456.37,"N_COORD97":2575579.52,"ADDRESS":"十美街２０８巷１０號","OBJECTID":349622},"geometry":{"x":180456.37000000011,"y":2575579.5200000014}},{"attributes":{"ID":349632,"DIS_CODE":0,"TOWNNAME":"柳營區","LI":"東昇里","LIN":"18鄰","STREET":"十美街","SECT":" ","MAREA":" ","LANE":"２０８巷","ALLEY":" ","HOUSE_NO":"１２號","E_COORD97":180456.38,"N_COORD97":2575584.1099999999,"ADDRESS":"十美街２０８巷１２號","OBJECTID":349623},"geometry":{"x":180456.37999999989,"y":2575584.1100000031}},{"attributes":{"ID":349633,"DIS_CODE":0,"TOWNNAME":"柳營區","LI":"東昇里","LIN":"18鄰","STREET":"十美街","SECT":" ","MAREA":" ","LANE":"２０８巷","ALLEY":" ","HOUSE_NO":"１６號","E_COORD97":180456.39999999999,"N_COORD97":2575588.6899999999,"ADDRESS":"十美街２０８巷１６號","OBJECTID":349624},"geometry":{"x":180456.40000000037,"y":2575588.6899999995}},{"attributes":{"ID":349634,"DIS_CODE":0,"TOWNNAME":"柳營區","LI":"東昇里","LIN":"18鄰","STREET":"十美街","SECT":" ","MAREA":" ","LANE":"２０８巷","ALLEY":" ","HOUSE_NO":"１８號","E_COORD97":180456.42000000001,"N_COORD97":2575593.27,"ADDRESS":"十美街２０８巷１８號","OBJECTID":349625},"geometry":{"x":180456.42000000179,"y":2575593.2700000033}},{"attributes":{"ID":349635,"DIS_CODE":0,"TOWNNAME":"柳營區","LI":"東昇里","LIN":"18鄰","STREET":"十美街","SECT":" ","MAREA":" ","LANE":"２０８巷","ALLEY":" ","HOUSE_NO":"２０號","E_COORD97":180456.42999999999,"N_COORD97":2575597.8599999999,"ADDRESS":"十美街２０８巷２０號","OBJECTID":349626},"geometry":{"x":180456.43000000063,"y":2575597.8599999994}},{"attributes":{"ID":349636,"DIS_CODE":0,"TOWNNAME":"柳營區","LI":"東昇里","LIN":"18鄰","STREET":"十美街","SECT":" ","MAREA":" ","LANE":"２０８巷","ALLEY":" ","HOUSE_NO":"２６號","E_COORD97":180456.03,"N_COORD97":2575607.0600000001,"ADDRESS":"十美街２０８巷２６號","OBJECTID":349627},"geometry":{"x":180456.03000000212,"y":2575607.0600000024}},{"attributes":{"ID":349637,"DIS_CODE":0,"TOWNNAME":"柳營區","LI":"東昇里","LIN":"18鄰","STREET":"十美街","SECT":" ","MAREA":" ","LANE":"２０８巷","ALLEY":" ","HOUSE_NO":"２８號","E_COORD97":180456.07999999999,"N_COORD97":2575611.7599999998,"ADDRESS":"十美街２０８巷２８號","OBJECTID":349628},"geometry":{"x":180456.08000000101,"y":2575611.7600000016}},{"attributes":{"ID":349638,"DIS_CODE":0,"TOWNNAME":"柳營區","LI":"東昇里","LIN":"18鄰","STREET":"十美街","SECT":" ","MAREA":" ","LANE":"２０８巷","ALLEY":" ","HOUSE_NO":"２號","E_COORD97":180456.32000000001,"N_COORD97":2575565.77,"ADDRESS":"十美街２０８巷２號","OBJECTID":349629},"geometry":{"x":180456.32000000123,"y":2575565.7699999977}},{"attributes":{"ID":349639,"DIS_CODE":0,"TOWNNAME":"永康區","LI":"西灣里","LIN":"15鄰","STREET":"大安街","SECT":" ","MAREA":" ","LANE":"９７巷","ALLEY":" ","HOUSE_NO":"５８號","E_COORD97":174410.16,"N_COORD97":2545109,"ADDRESS":"大安街９７巷５８號","OBJECTID":349630},"geometry":{"x":174410.16000000108,"y":2545108.9999999981}},{"attributes":{"ID":349640,"DIS_CODE":0,"TOWNNAME":"永康區","LI":"成功里","LIN":"35鄰","STREET":"中華路","SECT":" ","MAREA":" ","LANE":"１５４巷","ALLEY":" ","HOUSE_NO":"９８號","E_COORD97":171841.20999999999,"N_COORD97":2544890.0600000001,"ADDRESS":"中華路１５４巷９８號","OBJECTID":349631},"geometry":{"x":171841.21000000183,"y":2544890.0600000024}},{"attributes":{"ID":349641,"DIS_CODE":0,"TOWNNAME":"東區","LI":"東門里","LIN":"6鄰","STREET":"前鋒路","SECT":" ","MAREA":" ","LANE":"６３巷","ALLEY":" ","HOUSE_NO":"２號四樓","E_COORD97":169269.20000000001,"N_COORD97":2543486.73,"ADDRESS":"前鋒路６３巷２號四樓","OBJECTID":349632},"geometry":{"x":169269.20000000019,"y":2543486.7300000004}},{"attributes":{"ID":349642,"DIS_CODE":0,"TOWNNAME":"佳里區","LI":"東寧里","LIN":"6鄰","STREET":"中山路","SECT":" ","MAREA":" ","LANE":"３４６巷","ALLEY":" ","HOUSE_NO":"１８號一樓","E_COORD97":165751.04000000001,"N_COORD97":2562452.29,"ADDRESS":"中山路３４６巷１８號一樓","OBJECTID":349633},"geometry":{"x":165751.04000000004,"y":2562452.290000001}},{"attributes":{"ID":349643,"DIS_CODE":0,"TOWNNAME":"永康區","LI":"成功里","LIN":"42鄰","STREET":"中華路","SECT":" ","MAREA":" ","LANE":"１５４巷","ALLEY":" ","HOUSE_NO":"４４號","E_COORD97":171727.87,"N_COORD97":2544884.25,"ADDRESS":"中華路１５４巷４４號","OBJECTID":349634},"geometry":{"x":171727.87000000011,"y":2544884.2500000019}},{"attributes":{"ID":349644,"DIS_CODE":0,"TOWNNAME":"學甲區","LI":"明宜里","LIN":"8鄰","STREET":"中山路","SECT":" ","MAREA":" ","LANE":" ","ALLEY":" ","HOUSE_NO":"１８３號之１","E_COORD97":165721.32000000001,"N_COORD97":2570565.8500000001,"ADDRESS":"中山路１８３號之１","OBJECTID":349635},"geometry":{"x":165721.32000000216,"y":2570565.8500000015}},{"attributes":{"ID":349645,"DIS_CODE":0,"TOWNNAME":"學甲區","LI":"明宜里","LIN":"8鄰","STREET":"民權路","SECT":" ","MAREA":" ","LANE":" ","ALLEY":" ","HOUSE_NO":"２４２號","E_COORD97":165688.56,"N_COORD97":2570536.4100000001,"ADDRESS":"民權路２４２號","OBJECTID":349636},"geometry":{"x":165688.56000000052,"y":2570536.4100000001}},{"attributes":{"ID":349646,"DIS_CODE":0,"TOWNNAME":"學甲區","LI":"明宜里","LIN":"8鄰","STREET":"民權路","SECT":" ","MAREA":" ","LANE":" ","ALLEY":" ","HOUSE_NO":"２４０號","E_COORD97":165688.26000000001,"N_COORD97":2570530.8599999999,"ADDRESS":"民權路２４０號","OBJECTID":349637},"geometry":{"x":165688.25999999978,"y":2570530.8600000013}},{"attributes":{"ID":349647,"DIS_CODE":0,"TOWNNAME":"學甲區","LI":"明宜里","LIN":"8鄰","STREET":"民權路","SECT":" ","MAREA":" ","LANE":" ","ALLEY":" ","HOUSE_NO":"２３８號","E_COORD97":165688.16,"N_COORD97":2570525.9900000002,"ADDRESS":"民權路２３８號","OBJECTID":349638},"geometry":{"x":165688.15999999922,"y":2570525.9900000002}},{"attributes":{"ID":349648,"DIS_CODE":0,"TOWNNAME":"學甲區","LI":"明宜里","LIN":"8鄰","STREET":"民權路","SECT":" ","MAREA":" ","LANE":" ","ALLEY":" ","HOUSE_NO":"２３６號","E_COORD97":165688.64000000001,"N_COORD97":2570519.77,"ADDRESS":"民權路２３６號","OBJECTID":349639},"geometry":{"x":165688.6400000006,"y":2570519.7699999996}},{"attributes":{"ID":349649,"DIS_CODE":0,"TOWNNAME":"學甲區","LI":"明宜里","LIN":"8鄰","STREET":"中山路","SECT":" ","MAREA":" ","LANE":" ","ALLEY":" ","HOUSE_NO":"１８３號之２","E_COORD97":165716.09,"N_COORD97":2570566.4500000002,"ADDRESS":"中山路１８３號之２","OBJECTID":349640},"geometry":{"x":165716.09000000078,"y":2570566.4499999993}},{"attributes":{"ID":349650,"DIS_CODE":0,"TOWNNAME":"學甲區","LI":"明宜里","LIN":"8鄰","STREET":"中山路","SECT":" ","MAREA":" ","LANE":" ","ALLEY":" ","HOUSE_NO":"１８３號之３","E_COORD97":165711.60999999999,"N_COORD97":2570567.5099999998,"ADDRESS":"中山路１８３號之３","OBJECTID":349641},"geometry":{"x":165711.61000000127,"y":2570567.5100000016}},{"attributes":{"ID":349651,"DIS_CODE":0,"TOWNNAME":"永康區","LI":"建國里","LIN":"1鄰","STREET":"復興路","SECT":" ","MAREA":" ","LANE":" ","ALLEY":" ","HOUSE_NO":"２０號","E_COORD97":173105.89999999999,"N_COORD97":2544342.2599999998,"ADDRESS":"復興路２０號","OBJECTID":349642},"geometry":{"x":173105.90000000037,"y":2544342.2600000016}},{"attributes":{"ID":349652,"DIS_CODE":0,"TOWNNAME":"新營區","LI":"永生里","LIN":"18鄰","STREET":"新進路","SECT":" ","MAREA":" ","LANE":"３１８巷","ALLEY":" ","HOUSE_NO":"８號","E_COORD97":179947.13,"N_COORD97":2577843.1499999999,"ADDRESS":"新進路３１８巷８號","OBJECTID":349643},"geometry":{"x":179947.13000000082,"y":2577843.1500000022}},{"attributes":{"ID":349653,"DIS_CODE":0,"TOWNNAME":"新營區","LI":"南興里","LIN":"18鄰","STREET":"建業路","SECT":" ","MAREA":" ","LANE":"１６７巷","ALLEY":" ","HOUSE_NO":"８號","E_COORD97":178352.62,"N_COORD97":2577462.0499999998,"ADDRESS":"建業路１６７巷８號","OBJECTID":349644},"geometry":{"x":178352.62000000011,"y":2577462.0500000026}},{"attributes":{"ID":349654,"DIS_CODE":0,"TOWNNAME":"新營區","LI":"南興里","LIN":"18鄰","STREET":"建業路","SECT":" ","MAREA":" ","LANE":"１５７巷","ALLEY":" ","HOUSE_NO":"４２號","E_COORD97":178378.06,"N_COORD97":2577384.4199999999,"ADDRESS":"建業路１５７巷４２號","OBJECTID":349645},"geometry":{"x":178378.05999999959,"y":2577384.4199999999}},{"attributes":{"ID":349655,"DIS_CODE":0,"TOWNNAME":"南區","LI":"大恩里","LIN":"18鄰","STREET":"國民路","SECT":" ","MAREA":" ","LANE":"１６５巷","ALLEY":" ","HOUSE_NO":"２３號","E_COORD97":169178.66,"N_COORD97":2540810.1899999999,"ADDRESS":"國民路１６５巷２３號","OBJECTID":349646},"geometry":{"x":169178.66000000201,"y":2540810.1899999995}},{"attributes":{"ID":349656,"DIS_CODE":0,"TOWNNAME":"南區","LI":"大恩里","LIN":"18鄰","STREET":"國民路","SECT":" ","MAREA":" ","LANE":"１６５巷","ALLEY":" ","HOUSE_NO":"２５號","E_COORD97":169177.59,"N_COORD97":2540805.46,"ADDRESS":"國民路１６５巷２５號","OBJECTID":349647},"geometry":{"x":169177.59000000078,"y":2540805.4600000028}},{"attributes":{"ID":349657,"DIS_CODE":0,"TOWNNAME":"南區","LI":"大恩里","LIN":"18鄰","STREET":"國民路","SECT":" ","MAREA":" ","LANE":"１６５巷","ALLEY":" ","HOUSE_NO":"２７號","E_COORD97":169177.59,"N_COORD97":2540801.1699999999,"ADDRESS":"國民路１６５巷２７號","OBJECTID":349648},"geometry":{"x":169177.59000000078,"y":2540801.1699999999}},{"attributes":{"ID":349658,"DIS_CODE":0,"TOWNNAME":"南區","LI":"大恩里","LIN":"18鄰","STREET":"國民路","SECT":" ","MAREA":" ","LANE":"１６５巷","ALLEY":" ","HOUSE_NO":"２９號","E_COORD97":169174.48000000001,"N_COORD97":2540796.6699999999,"ADDRESS":"國民路１６５巷２９號","OBJECTID":349649},"geometry":{"x":169174.48000000045,"y":2540796.6700000018}},{"attributes":{"ID":349659,"DIS_CODE":0,"TOWNNAME":"南區","LI":"大恩里","LIN":"18鄰","STREET":"國民路","SECT":" ","MAREA":" ","LANE":"１６５巷","ALLEY":" ","HOUSE_NO":"３１號","E_COORD97":169173.62,"N_COORD97":2540792.5899999999,"ADDRESS":"國民路１６５巷３１號","OBJECTID":349650},"geometry":{"x":169173.62000000011,"y":2540792.5900000036}},{"attributes":{"ID":349660,"DIS_CODE":0,"TOWNNAME":"南區","LI":"大恩里","LIN":"18鄰","STREET":"國民路","SECT":" ","MAREA":" ","LANE":"１６５巷","ALLEY":" ","HOUSE_NO":"３３號","E_COORD97":169173.22,"N_COORD97":2540788.3199999998,"ADDRESS":"國民路１６５巷３３號","OBJECTID":349651},"geometry":{"x":169173.22000000067,"y":2540788.3200000022}},{"attributes":{"ID":349661,"DIS_CODE":0,"TOWNNAME":"永康區","LI":"西橋里","LIN":"24鄰","STREET":"大橋三街","SECT":" ","MAREA":" ","LANE":"５７巷","ALLEY":" ","HOUSE_NO":"２８號","E_COORD97":170544.48000000001,"N_COORD97":2546569.4900000002,"ADDRESS":"大橋三街５７巷２８號","OBJECTID":349652},"geometry":{"x":170544.48000000045,"y":2546569.4900000002}},{"attributes":{"ID":349662,"DIS_CODE":0,"TOWNNAME":"永康區","LI":"成功里","LIN":"31鄰","STREET":"中華一路","SECT":" ","MAREA":" ","LANE":"３９巷","ALLEY":" ","HOUSE_NO":"６０號","E_COORD97":171877.10000000001,"N_COORD97":2544853.96,"ADDRESS":"中華一路３９巷６０號","OBJECTID":349653},"geometry":{"x":171877.0999999987,"y":2544853.9600000028}},{"attributes":{"ID":349663,"DIS_CODE":0,"TOWNNAME":"佳里區","LI":"東寧里","LIN":"6鄰","STREET":"中山路","SECT":" ","MAREA":" ","LANE":"３４６巷","ALLEY":" ","HOUSE_NO":"１８號二樓","E_COORD97":165751.04000000001,"N_COORD97":2562452.29,"ADDRESS":"中山路３４６巷１８號二樓","OBJECTID":349654},"geometry":{"x":165751.04000000004,"y":2562452.290000001}},{"attributes":{"ID":349664,"DIS_CODE":0,"TOWNNAME":"佳里區","LI":"東寧里","LIN":"6鄰","STREET":"中山路","SECT":" ","MAREA":" ","LANE":"３４６巷","ALLEY":" ","HOUSE_NO":"１８號三樓","E_COORD97":165751.04000000001,"N_COORD97":2562452.29,"ADDRESS":"中山路３４６巷１８號三樓","OBJECTID":349655},"geometry":{"x":165751.04000000004,"y":2562452.290000001}},{"attributes":{"ID":349665,"DIS_CODE":0,"TOWNNAME":"佳里區","LI":"東寧里","LIN":"6鄰","STREET":"中山路","SECT":" ","MAREA":" ","LANE":"３４６巷","ALLEY":" ","HOUSE_NO":"１８號四樓","E_COORD97":165751.04000000001,"N_COORD97":2562452.29,"ADDRESS":"中山路３４６巷１８號四樓","OBJECTID":349656},"geometry":{"x":165751.04000000004,"y":2562452.290000001}},{"attributes":{"ID":349666,"DIS_CODE":0,"TOWNNAME":"佳里區","LI":"東寧里","LIN":"6鄰","STREET":"中山路","SECT":" ","MAREA":" ","LANE":"３４６巷","ALLEY":" ","HOUSE_NO":"１９號一樓","E_COORD97":165756.70000000001,"N_COORD97":2562453.1600000001,"ADDRESS":"中山路３４６巷１９號一樓","OBJECTID":349657},"geometry":{"x":165756.70000000019,"y":2562453.1599999983}},{"attributes":{"ID":349667,"DIS_CODE":0,"TOWNNAME":"佳里區","LI":"東寧里","LIN":"6鄰","STREET":"中山路","SECT":" ","MAREA":" ","LANE":"３４６巷","ALLEY":" ","HOUSE_NO":"１９號二樓","E_COORD97":165756.70000000001,"N_COORD97":2562453.1600000001,"ADDRESS":"中山路３４６巷１９號二樓","OBJECTID":349658},"geometry":{"x":165756.70000000019,"y":2562453.1599999983}},{"attributes":{"ID":349668,"DIS_CODE":0,"TOWNNAME":"永康區","LI":"復華里","LIN":"6鄰","STREET":"國華街","SECT":" ","MAREA":" ","LANE":"１０２巷","ALLEY":" ","HOUSE_NO":"９８號十二樓之１","E_COORD97":173003.19,"N_COORD97":2546180.0800000001,"ADDRESS":"國華街１０２巷９８號十二樓之１","OBJECTID":349659},"geometry":{"x":173003.19000000134,"y":2546180.0800000038}},{"attributes":{"ID":349669,"DIS_CODE":0,"TOWNNAME":"永康區","LI":"復華里","LIN":"6鄰","STREET":"國華街","SECT":" ","MAREA":" ","LANE":"１０２巷","ALLEY":" ","HOUSE_NO":"９８號三樓之２","E_COORD97":173002.07000000001,"N_COORD97":2546180.0800000001,"ADDRESS":"國華街１０２巷９８號三樓之２","OBJECTID":349660},"geometry":{"x":173002.07000000216,"y":2546180.0800000038}},{"attributes":{"ID":349670,"DIS_CODE":0,"TOWNNAME":"永康區","LI":"復華里","LIN":"6鄰","STREET":"國華街","SECT":" ","MAREA":" ","LANE":"１０２巷","ALLEY":" ","HOUSE_NO":"１００號十二樓之２","E_COORD97":172987.07000000001,"N_COORD97":2546184.3300000001,"ADDRESS":"國華街１０２巷１００號十二樓之２","OBJECTID":349661},"geometry":{"x":172987.07000000123,"y":2546184.3300000001}},{"attributes":{"ID":349671,"DIS_CODE":0,"TOWNNAME":"學甲區","LI":"明宜里","LIN":"8鄰","STREET":"中山路","SECT":" ","MAREA":" ","LANE":" ","ALLEY":" ","HOUSE_NO":"１８３號之４","E_COORD97":165707.48000000001,"N_COORD97":2570569.0299999998,"ADDRESS":"中山路１８３號之４","OBJECTID":349662},"geometry":{"x":165707.48000000138,"y":2570569.0299999993}},{"attributes":{"ID":349672,"DIS_CODE":0,"TOWNNAME":"學甲區","LI":"明宜里","LIN":"8鄰","STREET":"中山路","SECT":" ","MAREA":" ","LANE":" ","ALLEY":" ","HOUSE_NO":"１８３號之５","E_COORD97":165702.60000000001,"N_COORD97":2570569.4900000002,"ADDRESS":"中山路１８３號之５","OBJECTID":349663},"geometry":{"x":165702.59999999963,"y":2570569.4900000021}},{"attributes":{"ID":349673,"DIS_CODE":0,"TOWNNAME":"學甲區","LI":"明宜里","LIN":"8鄰","STREET":"中山路","SECT":" ","MAREA":" ","LANE":" ","ALLEY":" ","HOUSE_NO":"１８３號之６","E_COORD97":165693.47,"N_COORD97":2570570.7200000002,"ADDRESS":"中山路１８３號之６","OBJECTID":349664},"geometry":{"x":165693.46999999974,"y":2570570.7200000025}},{"attributes":{"ID":349674,"DIS_CODE":0,"TOWNNAME":"學甲區","LI":"明宜里","LIN":"8鄰","STREET":"中山路","SECT":" ","MAREA":" ","LANE":" ","ALLEY":" ","HOUSE_NO":"１８３號之７","E_COORD97":165713.5,"N_COORD97":2570556.21,"ADDRESS":"中山路１８３號之７","OBJECTID":349665},"geometry":{"x":165713.50000000093,"y":2570556.2100000009}},{"attributes":{"ID":349675,"DIS_CODE":0,"TOWNNAME":"學甲區","LI":"明宜里","LIN":"8鄰","STREET":"中山路","SECT":" ","MAREA":" ","LANE":" ","ALLEY":" ","HOUSE_NO":"１８３號之８","E_COORD97":165712.32999999999,"N_COORD97":2570551.0600000001,"ADDRESS":"中山路１８３號之８","OBJECTID":349666},"geometry":{"x":165712.32999999914,"y":2570551.0600000024}},{"attributes":{"ID":349676,"DIS_CODE":0,"TOWNNAME":"學甲區","LI":"明宜里","LIN":"8鄰","STREET":"中山路","SECT":" ","MAREA":" ","LANE":" ","ALLEY":" ","HOUSE_NO":"１８３號之９","E_COORD97":165711.38,"N_COORD97":2570545.9500000002,"ADDRESS":"中山路１８３號之９","OBJECTID":349667},"geometry":{"x":165711.37999999989,"y":2570545.9499999993}},{"attributes":{"ID":349677,"DIS_CODE":0,"TOWNNAME":"學甲區","LI":"明宜里","LIN":"8鄰","STREET":"中山路","SECT":" ","MAREA":" ","LANE":" ","ALLEY":" ","HOUSE_NO":"１８３號","E_COORD97":165730.42000000001,"N_COORD97":2570563.6499999999,"ADDRESS":"中山路１８３號","OBJECTID":349668},"geometry":{"x":165730.42000000179,"y":2570563.6500000041}},{"attributes":{"ID":349678,"DIS_CODE":0,"TOWNNAME":"學甲區","LI":"明宜里","LIN":"8鄰","STREET":"民權路","SECT":" ","MAREA":" ","LANE":" ","ALLEY":" ","HOUSE_NO":"１７１號","E_COORD97":165661.23999999999,"N_COORD97":2570494.8900000001,"ADDRESS":"民權路１７１號","OBJECTID":349669},"geometry":{"x":165661.24000000115,"y":2570494.8900000025}},{"attributes":{"ID":349679,"DIS_CODE":0,"TOWNNAME":"學甲區","LI":"明宜里","LIN":"8鄰","STREET":"民權路","SECT":" ","MAREA":" ","LANE":" ","ALLEY":" ","HOUSE_NO":"１６９號","E_COORD97":165660.79999999999,"N_COORD97":2570490.8399999999,"ADDRESS":"民權路１６９號","OBJECTID":349670},"geometry":{"x":165660.79999999981,"y":2570490.8400000017}},{"attributes":{"ID":349680,"DIS_CODE":0,"TOWNNAME":"南區","LI":"大恩里","LIN":"18鄰","STREET":"國民路","SECT":" ","MAREA":" ","LANE":"１６５巷","ALLEY":" ","HOUSE_NO":"３７號","E_COORD97":169169.89000000001,"N_COORD97":2540777.9100000001,"ADDRESS":"國民路１６５巷３７號","OBJECTID":349671},"geometry":{"x":169169.89000000153,"y":2540777.910000002}},{"attributes":{"ID":349681,"DIS_CODE":0,"TOWNNAME":"南區","LI":"大恩里","LIN":"18鄰","STREET":"國民路","SECT":" ","MAREA":" ","LANE":"１６５巷","ALLEY":" ","HOUSE_NO":"３９號","E_COORD97":169168.60000000001,"N_COORD97":2540773.5099999998,"ADDRESS":"國民路１６５巷３９號","OBJECTID":349672},"geometry":{"x":169168.60000000056,"y":2540773.5100000016}},{"attributes":{"ID":349682,"DIS_CODE":0,"TOWNNAME":"南區","LI":"大恩里","LIN":"18鄰","STREET":"國民路","SECT":" ","MAREA":" ","LANE":"１６５巷","ALLEY":" ","HOUSE_NO":"４１號","E_COORD97":169168.17000000001,"N_COORD97":2540769.9700000002,"ADDRESS":"國民路１６５巷４１號","OBJECTID":349673},"geometry":{"x":169168.17000000179,"y":2540769.9700000007}},{"attributes":{"ID":349683,"DIS_CODE":0,"TOWNNAME":"南區","LI":"大恩里","LIN":"18鄰","STREET":"國民路","SECT":" ","MAREA":" ","LANE":"１６５巷","ALLEY":" ","HOUSE_NO":"４３號","E_COORD97":169166.56,"N_COORD97":2540766.1099999999,"ADDRESS":"國民路１６５巷４３號","OBJECTID":349674},"geometry":{"x":169166.55999999959,"y":2540766.1100000013}},{"attributes":{"ID":349684,"DIS_CODE":0,"TOWNNAME":"南區","LI":"大恩里","LIN":"18鄰","STREET":"國民路","SECT":" ","MAREA":" ","LANE":"１６５巷","ALLEY":" ","HOUSE_NO":"４５號","E_COORD97":169165.81,"N_COORD97":2540761.46,"ADDRESS":"國民路１６５巷４５號","OBJECTID":349675},"geometry":{"x":169165.81000000052,"y":2540761.4600000028}},{"attributes":{"ID":349685,"DIS_CODE":0,"TOWNNAME":"南區","LI":"大恩里","LIN":"18鄰","STREET":"國民路","SECT":" ","MAREA":" ","LANE":"１６５巷","ALLEY":" ","HOUSE_NO":"４７號","E_COORD97":169164.20000000001,"N_COORD97":2540756.9900000002,"ADDRESS":"國民路１６５巷４７號","OBJECTID":349676},"geometry":{"x":169164.20000000019,"y":2540756.9900000021}},{"attributes":{"ID":349686,"DIS_CODE":0,"TOWNNAME":"南區","LI":"大恩里","LIN":"18鄰","STREET":"國民路","SECT":" ","MAREA":" ","LANE":"１６５巷","ALLEY":" ","HOUSE_NO":"４９號","E_COORD97":169163.45000000001,"N_COORD97":2540753.1299999999,"ADDRESS":"國民路１６５巷４９號","OBJECTID":349677},"geometry":{"x":169163.45000000112,"y":2540753.129999999}},{"attributes":{"ID":349687,"DIS_CODE":0,"TOWNNAME":"永康區","LI":"復華里","LIN":"6鄰","STREET":"國華街","SECT":" ","MAREA":" ","LANE":"１０２巷","ALLEY":" ","HOUSE_NO":"９８號四樓之１","E_COORD97":173001.94,"N_COORD97":2546180.0800000001,"ADDRESS":"國華街１０２巷９８號四樓之１","OBJECTID":349678},"geometry":{"x":173001.94000000134,"y":2546180.0800000038}},{"attributes":{"ID":349688,"DIS_CODE":0,"TOWNNAME":"永康區","LI":"復華里","LIN":"6鄰","STREET":"國華街","SECT":" ","MAREA":" ","LANE":"１０２巷","ALLEY":" ","HOUSE_NO":"９６號六樓之１","E_COORD97":173016.94,"N_COORD97":2546176.0800000001,"ADDRESS":"國華街１０２巷９６號六樓之１","OBJECTID":349679},"geometry":{"x":173016.94000000134,"y":2546176.0800000001}},{"attributes":{"ID":349689,"DIS_CODE":0,"TOWNNAME":"永康區","LI":"復華里","LIN":"6鄰","STREET":"國華街","SECT":" ","MAREA":" ","LANE":"１０２巷","ALLEY":" ","HOUSE_NO":"９６號十樓之２","E_COORD97":173017.07000000001,"N_COORD97":2546176.0800000001,"ADDRESS":"國華街１０２巷９６號十樓之２","OBJECTID":349680},"geometry":{"x":173017.0700000003,"y":2546176.0800000001}},{"attributes":{"ID":349690,"DIS_CODE":0,"TOWNNAME":"中西區","LI":"赤嵌里","LIN":"6鄰","STREET":"廣慈街","SECT":" ","MAREA":" ","LANE":"３２巷","ALLEY":" ","HOUSE_NO":"２號七樓之１","E_COORD97":168687.70999999999,"N_COORD97":2544068.0699999998,"ADDRESS":"廣慈街３２巷２號七樓之１","OBJECTID":349681},"geometry":{"x":168687.70999999996,"y":2544068.070000004}},{"attributes":{"ID":349691,"DIS_CODE":0,"TOWNNAME":"永康區","LI":"成功里","LIN":"41鄰","STREET":"中華路","SECT":" ","MAREA":" ","LANE":"１５４巷","ALLEY":" ","HOUSE_NO":"６５號","E_COORD97":171769.79999999999,"N_COORD97":2544890.7599999998,"ADDRESS":"中華路１５４巷６５號","OBJECTID":349682},"geometry":{"x":171769.80000000075,"y":2544890.7600000016}},{"attributes":{"ID":349692,"DIS_CODE":0,"TOWNNAME":"永康區","LI":"甲頂里","LIN":"6鄰","STREET":"中正南路","SECT":" ","MAREA":" ","LANE":"１６８巷","ALLEY":" ","HOUSE_NO":"２３號","E_COORD97":169944.87,"N_COORD97":2546883.4300000002,"ADDRESS":"中正南路１６８巷２３號","OBJECTID":349683},"geometry":{"x":169944.87000000011,"y":2546883.4300000016}},{"attributes":{"ID":349693,"DIS_CODE":0,"TOWNNAME":"中西區","LI":"赤嵌里","LIN":"6鄰","STREET":"廣慈街","SECT":" ","MAREA":" ","LANE":"３２巷","ALLEY":" ","HOUSE_NO":"２號七樓之２","E_COORD97":168687.70999999999,"N_COORD97":2544068.0699999998,"ADDRESS":"廣慈街３２巷２號七樓之２","OBJECTID":349684},"geometry":{"x":168687.70999999996,"y":2544068.070000004}},{"attributes":{"ID":349694,"DIS_CODE":0,"TOWNNAME":"中西區","LI":"赤嵌里","LIN":"6鄰","STREET":"廣慈街","SECT":" ","MAREA":" ","LANE":"３２巷","ALLEY":" ","HOUSE_NO":"２號七樓之３","E_COORD97":168687.70999999999,"N_COORD97":2544068.0699999998,"ADDRESS":"廣慈街３２巷２號七樓之３","OBJECTID":349685},"geometry":{"x":168687.70999999996,"y":2544068.070000004}},{"attributes":{"ID":349695,"DIS_CODE":0,"TOWNNAME":"中西區","LI":"赤嵌里","LIN":"6鄰","STREET":"廣慈街","SECT":" ","MAREA":" ","LANE":"３２巷","ALLEY":" ","HOUSE_NO":"２號七樓之４","E_COORD97":168687.70999999999,"N_COORD97":2544068.0699999998,"ADDRESS":"廣慈街３２巷２號七樓之４","OBJECTID":349686},"geometry":{"x":168687.70999999996,"y":2544068.070000004}},{"attributes":{"ID":349696,"DIS_CODE":0,"TOWNNAME":"中西區","LI":"赤嵌里","LIN":"6鄰","STREET":"廣慈街","SECT":" ","MAREA":" ","LANE":"３２巷","ALLEY":" ","HOUSE_NO":"２號七樓之５","E_COORD97":168687.70999999999,"N_COORD97":2544068.0699999998,"ADDRESS":"廣慈街３２巷２號七樓之５","OBJECTID":349687},"geometry":{"x":168687.70999999996,"y":2544068.070000004}},{"attributes":{"ID":349697,"DIS_CODE":0,"TOWNNAME":"中西區","LI":"赤嵌里","LIN":"6鄰","STREET":"廣慈街","SECT":" ","MAREA":" ","LANE":"３２巷","ALLEY":" ","HOUSE_NO":"２號二樓之１","E_COORD97":168687.70999999999,"N_COORD97":2544068.0699999998,"ADDRESS":"廣慈街３２巷２號二樓之１","OBJECTID":349688},"geometry":{"x":168687.70999999996,"y":2544068.070000004}},{"attributes":{"ID":349698,"DIS_CODE":0,"TOWNNAME":"學甲區","LI":"明宜里","LIN":"8鄰","STREET":"民權路","SECT":" ","MAREA":" ","LANE":" ","ALLEY":" ","HOUSE_NO":"１６７號","E_COORD97":165660.35999999999,"N_COORD97":2570486.7799999998,"ADDRESS":"民權路１６７號","OBJECTID":349689},"geometry":{"x":165660.36000000127,"y":2570486.7799999975}},{"attributes":{"ID":349699,"DIS_CODE":0,"TOWNNAME":"學甲區","LI":"明宜里","LIN":"8鄰","STREET":"民權路","SECT":" ","MAREA":" ","LANE":" ","ALLEY":" ","HOUSE_NO":"１６５號","E_COORD97":165659.92999999999,"N_COORD97":2570482.73,"ADDRESS":"民權路１６５號","OBJECTID":349690},"geometry":{"x":165659.9299999997,"y":2570482.7300000023}},{"attributes":{"ID":349700,"DIS_CODE":0,"TOWNNAME":"學甲區","LI":"明宜里","LIN":"8鄰","STREET":"民權路","SECT":" ","MAREA":" ","LANE":" ","ALLEY":" ","HOUSE_NO":"１６３號","E_COORD97":165659.48999999999,"N_COORD97":2570478.6800000002,"ADDRESS":"民權路１６３號","OBJECTID":349691},"geometry":{"x":165659.49000000115,"y":2570478.6800000016}},{"attributes":{"ID":349701,"DIS_CODE":0,"TOWNNAME":"學甲區","LI":"明宜里","LIN":"8鄰","STREET":"民權路","SECT":" ","MAREA":" ","LANE":" ","ALLEY":" ","HOUSE_NO":"１６１號","E_COORD97":165659.06,"N_COORD97":2570474.6299999999,"ADDRESS":"民權路１６１號","OBJECTID":349692},"geometry":{"x":165659.05999999959,"y":2570474.6300000008}},{"attributes":{"ID":349702,"DIS_CODE":0,"TOWNNAME":"學甲區","LI":"明宜里","LIN":"8鄰","STREET":"民權路","SECT":" ","MAREA":" ","LANE":" ","ALLEY":" ","HOUSE_NO":"１５９號","E_COORD97":165658.62,"N_COORD97":2570470.5699999998,"ADDRESS":"民權路１５９號","OBJECTID":349693},"geometry":{"x":165658.62000000104,"y":2570470.5700000022}},{"attributes":{"ID":349703,"DIS_CODE":0,"TOWNNAME":"學甲區","LI":"明宜里","LIN":"8鄰","STREET":"民權路","SECT":" ","MAREA":" ","LANE":" ","ALLEY":" ","HOUSE_NO":"１５７號","E_COORD97":165658.17999999999,"N_COORD97":2570466.52,"ADDRESS":"民權路１５７號","OBJECTID":349694},"geometry":{"x":165658.1799999997,"y":2570466.5200000014}},{"attributes":{"ID":349704,"DIS_CODE":0,"TOWNNAME":"學甲區","LI":"明宜里","LIN":"8鄰","STREET":"民權路","SECT":" ","MAREA":" ","LANE":" ","ALLEY":" ","HOUSE_NO":"１５５號","E_COORD97":165657.75,"N_COORD97":2570462.4700000002,"ADDRESS":"民權路１５５號","OBJECTID":349695},"geometry":{"x":165657.75000000093,"y":2570462.4700000007}},{"attributes":{"ID":349705,"DIS_CODE":0,"TOWNNAME":"南區","LI":"省躬里","LIN":"18鄰","STREET":"灣裡路","SECT":" ","MAREA":" ","LANE":"８８巷","ALLEY":" ","HOUSE_NO":"４０號","E_COORD97":165838.60000000001,"N_COORD97":2536829.1699999999,"ADDRESS":"灣裡路８８巷４０號","OBJECTID":349696},"geometry":{"x":165838.59999999963,"y":2536829.1700000018}},{"attributes":{"ID":349706,"DIS_CODE":0,"TOWNNAME":"南區","LI":"省躬里","LIN":"18鄰","STREET":"灣裡路","SECT":" ","MAREA":" ","LANE":"８８巷","ALLEY":" ","HOUSE_NO":"４２號","E_COORD97":165839.14999999999,"N_COORD97":2536814.54,"ADDRESS":"灣裡路８８巷４２號","OBJECTID":349697},"geometry":{"x":165839.15000000037,"y":2536814.5399999991}},{"attributes":{"ID":349707,"DIS_CODE":0,"TOWNNAME":"中西區","LI":"赤嵌里","LIN":"6鄰","STREET":"廣慈街","SECT":" ","MAREA":" ","LANE":"３２巷","ALLEY":" ","HOUSE_NO":"２號二樓之２","E_COORD97":168687.70999999999,"N_COORD97":2544068.0699999998,"ADDRESS":"廣慈街３２巷２號二樓之２","OBJECTID":349698},"geometry":{"x":168687.70999999996,"y":2544068.070000004}},{"attributes":{"ID":349708,"DIS_CODE":0,"TOWNNAME":"中西區","LI":"赤嵌里","LIN":"6鄰","STREET":"廣慈街","SECT":" ","MAREA":" ","LANE":"３２巷","ALLEY":" ","HOUSE_NO":"２號三樓之１","E_COORD97":168687.70999999999,"N_COORD97":2544068.0699999998,"ADDRESS":"廣慈街３２巷２號三樓之１","OBJECTID":349699},"geometry":{"x":168687.70999999996,"y":2544068.070000004}},{"attributes":{"ID":349709,"DIS_CODE":0,"TOWNNAME":"中西區","LI":"赤嵌里","LIN":"6鄰","STREET":"廣慈街","SECT":" ","MAREA":" ","LANE":"３２巷","ALLEY":" ","HOUSE_NO":"２號三樓之２","E_COORD97":168687.70999999999,"N_COORD97":2544068.0699999998,"ADDRESS":"廣慈街３２巷２號三樓之２","OBJECTID":349700},"geometry":{"x":168687.70999999996,"y":2544068.070000004}},{"attributes":{"ID":349710,"DIS_CODE":0,"TOWNNAME":"中西區","LI":"赤嵌里","LIN":"6鄰","STREET":"廣慈街","SECT":" ","MAREA":" ","LANE":"３２巷","ALLEY":" ","HOUSE_NO":"２號三樓之３","E_COORD97":168687.70999999999,"N_COORD97":2544068.0699999998,"ADDRESS":"廣慈街３２巷２號三樓之３","OBJECTID":349701},"geometry":{"x":168687.70999999996,"y":2544068.070000004}},{"attributes":{"ID":349711,"DIS_CODE":0,"TOWNNAME":"中西區","LI":"赤嵌里","LIN":"6鄰","STREET":"廣慈街","SECT":" ","MAREA":" ","LANE":"３２巷","ALLEY":" ","HOUSE_NO":"２號三樓之４","E_COORD97":168687.70999999999,"N_COORD97":2544068.0699999998,"ADDRESS":"廣慈街３２巷２號三樓之４","OBJECTID":349702},"geometry":{"x":168687.70999999996,"y":2544068.070000004}},{"attributes":{"ID":349712,"DIS_CODE":0,"TOWNNAME":"中西區","LI":"赤嵌里","LIN":"6鄰","STREET":"廣慈街","SECT":" ","MAREA":" ","LANE":"３２巷","ALLEY":" ","HOUSE_NO":"２號五樓之１","E_COORD97":168687.70999999999,"N_COORD97":2544068.0699999998,"ADDRESS":"廣慈街３２巷２號五樓之１","OBJECTID":349703},"geometry":{"x":168687.70999999996,"y":2544068.070000004}},{"attributes":{"ID":349713,"DIS_CODE":0,"TOWNNAME":"中西區","LI":"赤嵌里","LIN":"6鄰","STREET":"廣慈街","SECT":" ","MAREA":" ","LANE":"３２巷","ALLEY":" ","HOUSE_NO":"２號五樓之２","E_COORD97":168687.70999999999,"N_COORD97":2544068.0699999998,"ADDRESS":"廣慈街３２巷２號五樓之２","OBJECTID":349704},"geometry":{"x":168687.70999999996,"y":2544068.070000004}},{"attributes":{"ID":349714,"DIS_CODE":0,"TOWNNAME":"中西區","LI":"赤嵌里","LIN":"6鄰","STREET":"廣慈街","SECT":" ","MAREA":" ","LANE":"３２巷","ALLEY":" ","HOUSE_NO":"２號五樓之３","E_COORD97":168687.70999999999,"N_COORD97":2544068.0699999998,"ADDRESS":"廣慈街３２巷２號五樓之３","OBJECTID":349705},"geometry":{"x":168687.70999999996,"y":2544068.070000004}},{"attributes":{"ID":349715,"DIS_CODE":0,"TOWNNAME":"中西區","LI":"赤嵌里","LIN":"6鄰","STREET":"廣慈街","SECT":" ","MAREA":" ","LANE":"３２巷","ALLEY":" ","HOUSE_NO":"２號五樓之４","E_COORD97":168687.70999999999,"N_COORD97":2544068.0699999998,"ADDRESS":"廣慈街３２巷２號五樓之４","OBJECTID":349706},"geometry":{"x":168687.70999999996,"y":2544068.070000004}},{"attributes":{"ID":349716,"DIS_CODE":0,"TOWNNAME":"中西區","LI":"赤嵌里","LIN":"6鄰","STREET":"廣慈街","SECT":" ","MAREA":" ","LANE":"３２巷","ALLEY":" ","HOUSE_NO":"２號六樓之１","E_COORD97":168687.70999999999,"N_COORD97":2544068.0699999998,"ADDRESS":"廣慈街３２巷２號六樓之１","OBJECTID":349707},"geometry":{"x":168687.70999999996,"y":2544068.070000004}},{"attributes":{"ID":349717,"DIS_CODE":0,"TOWNNAME":"中西區","LI":"赤嵌里","LIN":"6鄰","STREET":"廣慈街","SECT":" ","MAREA":" ","LANE":"３２巷","ALLEY":" ","HOUSE_NO":"２號六樓之２","E_COORD97":168687.70999999999,"N_COORD97":2544068.0699999998,"ADDRESS":"廣慈街３２巷２號六樓之２","OBJECTID":349708},"geometry":{"x":168687.70999999996,"y":2544068.070000004}},{"attributes":{"ID":349718,"DIS_CODE":0,"TOWNNAME":"永康區","LI":"甲頂里","LIN":"6鄰","STREET":"中正南路","SECT":" ","MAREA":" ","LANE":"１６８巷","ALLEY":" ","HOUSE_NO":"２７號","E_COORD97":169945.53,"N_COORD97":2546875.4300000002,"ADDRESS":"中正南路１６８巷２７號","OBJECTID":349709},"geometry":{"x":169945.53000000026,"y":2546875.4299999997}},{"attributes":{"ID":349719,"DIS_CODE":0,"TOWNNAME":"中西區","LI":"赤嵌里","LIN":"6鄰","STREET":"廣慈街","SECT":" ","MAREA":" ","LANE":"３２巷","ALLEY":" ","HOUSE_NO":"２號四樓之６","E_COORD97":168687.70999999999,"N_COORD97":2544068.0699999998,"ADDRESS":"廣慈街３２巷２號四樓之６","OBJECTID":349710},"geometry":{"x":168687.70999999996,"y":2544068.070000004}},{"attributes":{"ID":349720,"DIS_CODE":0,"TOWNNAME":"永康區","LI":"成功里","LIN":"38鄰","STREET":"中華路","SECT":" ","MAREA":" ","LANE":"１５４巷","ALLEY":" ","HOUSE_NO":"８６號","E_COORD97":171813.62,"N_COORD97":2544894.8799999999,"ADDRESS":"中華路１５４巷８６號","OBJECTID":349711},"geometry":{"x":171813.62000000104,"y":2544894.879999999}},{"attributes":{"ID":349721,"DIS_CODE":0,"TOWNNAME":"永康區","LI":"成功里","LIN":"31鄰","STREET":"中華路","SECT":" ","MAREA":" ","LANE":"１３４巷","ALLEY":" ","HOUSE_NO":"８９號","E_COORD97":171819.76999999999,"N_COORD97":2544844.98,"ADDRESS":"中華路１３４巷８９號","OBJECTID":349712},"geometry":{"x":171819.76999999955,"y":2544844.9800000004}},{"attributes":{"ID":349722,"DIS_CODE":0,"TOWNNAME":"中西區","LI":"元安里","LIN":"6鄰","STREET":"建安街","SECT":" ","MAREA":" ","LANE":"６１巷","ALLEY":" ","HOUSE_NO":"７號","E_COORD97":167495.57000000001,"N_COORD97":2543215.1400000001,"ADDRESS":"建安街６１巷７號","OBJECTID":349713},"geometry":{"x":167495.5700000003,"y":2543215.1400000025}},{"attributes":{"ID":349723,"DIS_CODE":0,"TOWNNAME":"永康區","LI":"西灣里","LIN":"42鄰","STREET":"大灣路","SECT":" ","MAREA":" ","LANE":"９４２巷","ALLEY":" ","HOUSE_NO":"４６３號","E_COORD97":173936.63,"N_COORD97":2545411.5,"ADDRESS":"大灣路９４２巷４６３號","OBJECTID":349714},"geometry":{"x":173936.62999999989,"y":2545411.5000000019}},{"attributes":{"ID":349724,"DIS_CODE":0,"TOWNNAME":"永康區","LI":"甲頂里","LIN":"7鄰","STREET":"中正南路","SECT":" ","MAREA":" ","LANE":"５２巷","ALLEY":" ","HOUSE_NO":"７７號","E_COORD97":170183.04000000001,"N_COORD97":2546832.75,"ADDRESS":"中正南路５２巷７７號","OBJECTID":349715},"geometry":{"x":170183.04000000097,"y":2546832.75}},{"attributes":{"ID":349725,"DIS_CODE":0,"TOWNNAME":"永康區","LI":"安康里","LIN":"6鄰","STREET":"中華西街","SECT":" ","MAREA":" ","LANE":"２３０巷","ALLEY":" ","HOUSE_NO":"１１號","E_COORD97":170737.62,"N_COORD97":2546420,"ADDRESS":"中華西街２３０巷１１號","OBJECTID":349716},"geometry":{"x":170737.62000000011,"y":2546420}},{"attributes":{"ID":349726,"DIS_CODE":0,"TOWNNAME":"永康區","LI":"成功里","LIN":"41鄰","STREET":"中華路","SECT":" ","MAREA":" ","LANE":"１５４巷","ALLEY":" ","HOUSE_NO":"５７號","E_COORD97":171754.85999999999,"N_COORD97":2544892.7599999998,"ADDRESS":"中華路１５４巷５７號","OBJECTID":349717},"geometry":{"x":171754.86000000127,"y":2544892.7599999998}},{"attributes":{"ID":349727,"DIS_CODE":0,"TOWNNAME":"永康區","LI":"安康里","LIN":"10鄰","STREET":"中山南路","SECT":" ","MAREA":" ","LANE":"１２３巷","ALLEY":" ","HOUSE_NO":"３５號","E_COORD97":170944.85999999999,"N_COORD97":2546021.25,"ADDRESS":"中山南路１２３巷３５號","OBJECTID":349718},"geometry":{"x":170944.86000000034,"y":2546021.25}},{"attributes":{"ID":349728,"DIS_CODE":0,"TOWNNAME":"永康區","LI":"成功里","LIN":"13鄰","STREET":"忠孝路","SECT":" ","MAREA":" ","LANE":"２０７巷","ALLEY":" ","HOUSE_NO":"４１號","E_COORD97":171948.03,"N_COORD97":2544912.54,"ADDRESS":"忠孝路２０７巷４１號","OBJECTID":349719},"geometry":{"x":171948.03000000119,"y":2544912.540000001}},{"attributes":{"ID":349729,"DIS_CODE":0,"TOWNNAME":"中西區","LI":"民生里","LIN":"6鄰","STREET":"永華路","SECT":"一段","MAREA":" ","LANE":"２５０巷","ALLEY":" ","HOUSE_NO":"２號七樓之２","E_COORD97":167025.42000000001,"N_COORD97":2543276,"ADDRESS":"永華路一段２５０巷２號七樓之２","OBJECTID":349720},"geometry":{"x":167025.42000000179,"y":2543276.0000000019}},{"attributes":{"ID":349730,"DIS_CODE":0,"TOWNNAME":"中西區","LI":"民生里","LIN":"6鄰","STREET":"永華路","SECT":"一段","MAREA":" ","LANE":"２５０巷","ALLEY":" ","HOUSE_NO":"２號七樓之３","E_COORD97":167025.42000000001,"N_COORD97":2543276,"ADDRESS":"永華路一段２５０巷２號七樓之３","OBJECTID":349721},"geometry":{"x":167025.42000000179,"y":2543276.0000000019}},{"attributes":{"ID":349731,"DIS_CODE":0,"TOWNNAME":"中西區","LI":"民生里","LIN":"6鄰","STREET":"永華路","SECT":"一段","MAREA":" ","LANE":"２５０巷","ALLEY":" ","HOUSE_NO":"２號七樓之４","E_COORD97":167025.42000000001,"N_COORD97":2543276,"ADDRESS":"永華路一段２５０巷２號七樓之４","OBJECTID":349722},"geometry":{"x":167025.42000000179,"y":2543276.0000000019}},{"attributes":{"ID":349732,"DIS_CODE":0,"TOWNNAME":"學甲區","LI":"明宜里","LIN":"8鄰","STREET":"民權路","SECT":" ","MAREA":" ","LANE":" ","ALLEY":" ","HOUSE_NO":"１５３號","E_COORD97":165657.31,"N_COORD97":2570458.4199999999,"ADDRESS":"民權路１５３號","OBJECTID":349723},"geometry":{"x":165657.30999999959,"y":2570458.4199999999}},{"attributes":{"ID":349733,"DIS_CODE":0,"TOWNNAME":"學甲區","LI":"明宜里","LIN":"8鄰","STREET":"民權路","SECT":" ","MAREA":" ","LANE":" ","ALLEY":" ","HOUSE_NO":"１５１號","E_COORD97":165656.88,"N_COORD97":2570454.3599999999,"ADDRESS":"民權路１５１號","OBJECTID":349724},"geometry":{"x":165656.87999999989,"y":2570454.3599999994}},{"attributes":{"ID":349734,"DIS_CODE":0,"TOWNNAME":"南區","LI":"省躬里","LIN":"18鄰","STREET":"灣裡路","SECT":" ","MAREA":" ","LANE":"８８巷","ALLEY":" ","HOUSE_NO":"４４號","E_COORD97":165837.79000000001,"N_COORD97":2536809.6499999999,"ADDRESS":"灣裡路８８巷４４號","OBJECTID":349725},"geometry":{"x":165837.79000000004,"y":2536809.6500000022}},{"attributes":{"ID":349735,"DIS_CODE":0,"TOWNNAME":"南區","LI":"省躬里","LIN":"18鄰","STREET":"灣裡路","SECT":" ","MAREA":" ","LANE":"８８巷","ALLEY":" ","HOUSE_NO":"４６號","E_COORD97":165839.14999999999,"N_COORD97":2536805.5699999998,"ADDRESS":"灣裡路８８巷４６號","OBJECTID":349726},"geometry":{"x":165839.15000000037,"y":2536805.5700000003}},{"attributes":{"ID":349736,"DIS_CODE":0,"TOWNNAME":"南區","LI":"省躬里","LIN":"18鄰","STREET":"灣裡路","SECT":" ","MAREA":" ","LANE":"８８巷","ALLEY":" ","HOUSE_NO":"４８號","E_COORD97":165823.89999999999,"N_COORD97":2536798.23,"ADDRESS":"灣裡路８８巷４８號","OBJECTID":349727},"geometry":{"x":165823.90000000037,"y":2536798.2300000042}},{"attributes":{"ID":349737,"DIS_CODE":0,"TOWNNAME":"南區","LI":"省躬里","LIN":"18鄰","STREET":"灣裡路","SECT":" ","MAREA":" ","LANE":"８８巷","ALLEY":" ","HOUSE_NO":"５０號","E_COORD97":165836.42000000001,"N_COORD97":2536794.1499999999,"ADDRESS":"灣裡路８８巷５０號","OBJECTID":349728},"geometry":{"x":165836.41999999993,"y":2536794.1500000004}},{"attributes":{"ID":349738,"DIS_CODE":0,"TOWNNAME":"南區","LI":"省躬里","LIN":"18鄰","STREET":"灣裡路","SECT":" ","MAREA":" ","LANE":"８８巷","ALLEY":" ","HOUSE_NO":"５０號之１","E_COORD97":165821.17000000001,"N_COORD97":2536790.8900000001,"ADDRESS":"灣裡路８８巷５０號之１","OBJECTID":349729},"geometry":{"x":165821.16999999993,"y":2536790.8900000025}},{"attributes":{"ID":349739,"DIS_CODE":0,"TOWNNAME":"中西區","LI":"民生里","LIN":"6鄰","STREET":"永華路","SECT":"一段","MAREA":" ","LANE":"２５０巷","ALLEY":" ","HOUSE_NO":"２號七樓之５","E_COORD97":167025.42000000001,"N_COORD97":2543276,"ADDRESS":"永華路一段２５０巷２號七樓之５","OBJECTID":349730},"geometry":{"x":167025.42000000179,"y":2543276.0000000019}},{"attributes":{"ID":349740,"DIS_CODE":0,"TOWNNAME":"中西區","LI":"民生里","LIN":"6鄰","STREET":"永華路","SECT":"一段","MAREA":" ","LANE":"２５０巷","ALLEY":" ","HOUSE_NO":"２號七樓之６","E_COORD97":167025.42000000001,"N_COORD97":2543276,"ADDRESS":"永華路一段２５０巷２號七樓之６","OBJECTID":349731},"geometry":{"x":167025.42000000179,"y":2543276.0000000019}},{"attributes":{"ID":349741,"DIS_CODE":0,"TOWNNAME":"中西區","LI":"民生里","LIN":"6鄰","STREET":"永華路","SECT":"一段","MAREA":" ","LANE":"２５０巷","ALLEY":" ","HOUSE_NO":"２號七樓之７","E_COORD97":167025.42000000001,"N_COORD97":2543276,"ADDRESS":"永華路一段２５０巷２號七樓之７","OBJECTID":349732},"geometry":{"x":167025.42000000179,"y":2543276.0000000019}},{"attributes":{"ID":349742,"DIS_CODE":0,"TOWNNAME":"中西區","LI":"民生里","LIN":"6鄰","STREET":"永華路","SECT":"一段","MAREA":" ","LANE":"２５０巷","ALLEY":" ","HOUSE_NO":"２號七樓之８","E_COORD97":167025.42000000001,"N_COORD97":2543276,"ADDRESS":"永華路一段２５０巷２號七樓之８","OBJECTID":349733},"geometry":{"x":167025.42000000179,"y":2543276.0000000019}},{"attributes":{"ID":349743,"DIS_CODE":0,"TOWNNAME":"中西區","LI":"民生里","LIN":"6鄰","STREET":"永華路","SECT":"一段","MAREA":" ","LANE":"２５０巷","ALLEY":" ","HOUSE_NO":"２號二樓之１","E_COORD97":167025.42000000001,"N_COORD97":2543276,"ADDRESS":"永華路一段２５０巷２號二樓之１","OBJECTID":349734},"geometry":{"x":167025.42000000179,"y":2543276.0000000019}},{"attributes":{"ID":349744,"DIS_CODE":0,"TOWNNAME":"中西區","LI":"民生里","LIN":"6鄰","STREET":"永華路","SECT":"一段","MAREA":" ","LANE":"２５０巷","ALLEY":" ","HOUSE_NO":"２號二樓之２","E_COORD97":167025.42000000001,"N_COORD97":2543276,"ADDRESS":"永華路一段２５０巷２號二樓之２","OBJECTID":349735},"geometry":{"x":167025.42000000179,"y":2543276.0000000019}},{"attributes":{"ID":349745,"DIS_CODE":0,"TOWNNAME":"永康區","LI":"成功里","LIN":"41鄰","STREET":"中華路","SECT":" ","MAREA":" ","LANE":"１５４巷","ALLEY":" ","HOUSE_NO":"４９號","E_COORD97":171740.04999999999,"N_COORD97":2544894.7599999998,"ADDRESS":"中華路１５４巷４９號","OBJECTID":349736},"geometry":{"x":171740.04999999981,"y":2544894.7600000016}},{"attributes":{"ID":349746,"DIS_CODE":0,"TOWNNAME":"永康區","LI":"成功里","LIN":"15鄰","STREET":"忠孝路","SECT":" ","MAREA":" ","LANE":"１９５巷","ALLEY":" ","HOUSE_NO":"３３號","E_COORD97":171967.91,"N_COORD97":2544810.5,"ADDRESS":"忠孝路１９５巷３３號","OBJECTID":349737},"geometry":{"x":171967.91000000108,"y":2544810.5}},{"attributes":{"ID":349747,"DIS_CODE":0,"TOWNNAME":"永康區","LI":"西灣里","LIN":"15鄰","STREET":"大安街","SECT":" ","MAREA":" ","LANE":"９７巷","ALLEY":" ","HOUSE_NO":"３６號","E_COORD97":174446.17000000001,"N_COORD97":2545080.02,"ADDRESS":"大安街９７巷３６號","OBJECTID":349738},"geometry":{"x":174446.16999999993,"y":2545080.0199999996}},{"attributes":{"ID":349748,"DIS_CODE":0,"TOWNNAME":"中西區","LI":"民生里","LIN":"6鄰","STREET":"永華路","SECT":"一段","MAREA":" ","LANE":"２５０巷","ALLEY":" ","HOUSE_NO":"２號二樓之３","E_COORD97":167025.42000000001,"N_COORD97":2543276,"ADDRESS":"永華路一段２５０巷２號二樓之３","OBJECTID":349739},"geometry":{"x":167025.42000000179,"y":2543276.0000000019}},{"attributes":{"ID":349749,"DIS_CODE":0,"TOWNNAME":"中西區","LI":"民生里","LIN":"6鄰","STREET":"永華路","SECT":"一段","MAREA":" ","LANE":"２５０巷","ALLEY":" ","HOUSE_NO":"２號二樓之４","E_COORD97":167025.42000000001,"N_COORD97":2543276,"ADDRESS":"永華路一段２５０巷２號二樓之４","OBJECTID":349740},"geometry":{"x":167025.42000000179,"y":2543276.0000000019}},{"attributes":{"ID":349750,"DIS_CODE":0,"TOWNNAME":"學甲區","LI":"明宜里","LIN":"8鄰","STREET":"民權路","SECT":" ","MAREA":" ","LANE":" ","ALLEY":" ","HOUSE_NO":"１８１號","E_COORD97":165662,"N_COORD97":2570515.96,"ADDRESS":"民權路１８１號","OBJECTID":349741},"geometry":{"x":165662.00000000186,"y":2570515.9600000028}},{"attributes":{"ID":349751,"DIS_CODE":0,"TOWNNAME":"學甲區","LI":"明宜里","LIN":"8鄰","STREET":"民權路","SECT":" ","MAREA":" ","LANE":" ","ALLEY":" ","HOUSE_NO":"１７９號","E_COORD97":165661.37,"N_COORD97":2570511.8199999998,"ADDRESS":"民權路１７９號","OBJECTID":349742},"geometry":{"x":165661.37000000197,"y":2570511.8200000022}},{"attributes":{"ID":349752,"DIS_CODE":0,"TOWNNAME":"學甲區","LI":"明宜里","LIN":"8鄰","STREET":"民權路","SECT":" ","MAREA":" ","LANE":" ","ALLEY":" ","HOUSE_NO":"１７７號","E_COORD97":165660.75,"N_COORD97":2570507.6800000002,"ADDRESS":"民權路１７７號","OBJECTID":349743},"geometry":{"x":165660.75000000093,"y":2570507.6799999997}},{"attributes":{"ID":349753,"DIS_CODE":0,"TOWNNAME":"學甲區","LI":"明宜里","LIN":"8鄰","STREET":"民權路","SECT":" ","MAREA":" ","LANE":" ","ALLEY":" ","HOUSE_NO":"１７５號","E_COORD97":165660.12,"N_COORD97":2570503.54,"ADDRESS":"民權路１７５號","OBJECTID":349744},"geometry":{"x":165660.12000000104,"y":2570503.540000001}},{"attributes":{"ID":349754,"DIS_CODE":0,"TOWNNAME":"學甲區","LI":"明宜里","LIN":"8鄰","STREET":"民權路","SECT":" ","MAREA":" ","LANE":" ","ALLEY":" ","HOUSE_NO":"１７３號","E_COORD97":165659.48999999999,"N_COORD97":2570499.3999999999,"ADDRESS":"民權路１７３號","OBJECTID":349745},"geometry":{"x":165659.49000000115,"y":2570499.4000000004}},{"attributes":{"ID":349755,"DIS_CODE":0,"TOWNNAME":"學甲區","LI":"光華里","LIN":"18鄰","STREET":" ","SECT":" ","MAREA":"新筏子頭","LANE":" ","ALLEY":" ","HOUSE_NO":"１２７號","E_COORD97":164944.63,"N_COORD97":2571659.3300000001,"ADDRESS":"新筏子頭１２７號","OBJECTID":349746},"geometry":{"x":164944.63000000082,"y":2571659.3300000001}},{"attributes":{"ID":349756,"DIS_CODE":0,"TOWNNAME":"南區","LI":"府南里","LIN":"18鄰","STREET":"大成路","SECT":"二段","MAREA":" ","LANE":"１７７巷","ALLEY":" ","HOUSE_NO":"２號","E_COORD97":167219.81,"N_COORD97":2541693.77,"ADDRESS":"大成路二段１７７巷２號","OBJECTID":349747},"geometry":{"x":167219.81000000052,"y":2541693.7700000014}},{"attributes":{"ID":349757,"DIS_CODE":0,"TOWNNAME":"中西區","LI":"民生里","LIN":"6鄰","STREET":"永華路","SECT":"一段","MAREA":" ","LANE":"２５０巷","ALLEY":" ","HOUSE_NO":"２號二樓之５","E_COORD97":167025.42000000001,"N_COORD97":2543276,"ADDRESS":"永華路一段２５０巷２號二樓之５","OBJECTID":349748},"geometry":{"x":167025.42000000179,"y":2543276.0000000019}},{"attributes":{"ID":349758,"DIS_CODE":0,"TOWNNAME":"中西區","LI":"民生里","LIN":"6鄰","STREET":"永華路","SECT":"一段","MAREA":" ","LANE":"２５０巷","ALLEY":" ","HOUSE_NO":"２號二樓之６","E_COORD97":167025.42000000001,"N_COORD97":2543276,"ADDRESS":"永華路一段２５０巷２號二樓之６","OBJECTID":349749},"geometry":{"x":167025.42000000179,"y":2543276.0000000019}},{"attributes":{"ID":349759,"DIS_CODE":0,"TOWNNAME":"中西區","LI":"民生里","LIN":"6鄰","STREET":"永華路","SECT":"一段","MAREA":" ","LANE":"２５０巷","ALLEY":" ","HOUSE_NO":"２號三樓之２","E_COORD97":167025.42000000001,"N_COORD97":2543276,"ADDRESS":"永華路一段２５０巷２號三樓之２","OBJECTID":349750},"geometry":{"x":167025.42000000179,"y":2543276.0000000019}},{"attributes":{"ID":349760,"DIS_CODE":0,"TOWNNAME":"中西區","LI":"民生里","LIN":"6鄰","STREET":"永華路","SECT":"一段","MAREA":" ","LANE":"２５０巷","ALLEY":" ","HOUSE_NO":"２號三樓之３","E_COORD97":167025.42000000001,"N_COORD97":2543276,"ADDRESS":"永華路一段２５０巷２號三樓之３","OBJECTID":349751},"geometry":{"x":167025.42000000179,"y":2543276.0000000019}},{"attributes":{"ID":349761,"DIS_CODE":0,"TOWNNAME":"中西區","LI":"民生里","LIN":"6鄰","STREET":"永華路","SECT":"一段","MAREA":" ","LANE":"２５０巷","ALLEY":" ","HOUSE_NO":"２號三樓之５","E_COORD97":167025.42000000001,"N_COORD97":2543276,"ADDRESS":"永華路一段２５０巷２號三樓之５","OBJECTID":349752},"geometry":{"x":167025.42000000179,"y":2543276.0000000019}},{"attributes":{"ID":349762,"DIS_CODE":0,"TOWNNAME":"學甲區","LI":"明宜里","LIN":"8鄰","STREET":"中山路","SECT":" ","MAREA":" ","LANE":" ","ALLEY":" ","HOUSE_NO":"１８７號","E_COORD97":165652.89999999999,"N_COORD97":2570570.6800000002,"ADDRESS":"中山路１８７號","OBJECTID":349753},"geometry":{"x":165652.90000000224,"y":2570570.6800000016}},{"attributes":{"ID":349763,"DIS_CODE":0,"TOWNNAME":"北區","LI":"文成里","LIN":"18鄰","STREET":"文賢路","SECT":" ","MAREA":" ","LANE":"２１８巷","ALLEY":" ","HOUSE_NO":"１２號","E_COORD97":167409.92000000001,"N_COORD97":2544948.8399999999,"ADDRESS":"文賢路２１８巷１２號","OBJECTID":349754},"geometry":{"x":167409.91999999993,"y":2544948.8400000017}},{"attributes":{"ID":349764,"DIS_CODE":0,"TOWNNAME":"北區","LI":"文成里","LIN":"18鄰","STREET":"文賢路","SECT":" ","MAREA":" ","LANE":"２１８巷","ALLEY":" ","HOUSE_NO":"１４號","E_COORD97":167413.35999999999,"N_COORD97":2544950.5499999998,"ADDRESS":"文賢路２１８巷１４號","OBJECTID":349755},"geometry":{"x":167413.36000000127,"y":2544950.5500000026}},{"attributes":{"ID":349765,"DIS_CODE":0,"TOWNNAME":"北區","LI":"文成里","LIN":"18鄰","STREET":"文賢路","SECT":" ","MAREA":" ","LANE":"２１８巷","ALLEY":" ","HOUSE_NO":"１６號","E_COORD97":167417.54000000001,"N_COORD97":2544953.0099999998,"ADDRESS":"文賢路２１８巷１６號","OBJECTID":349756},"geometry":{"x":167417.54000000004,"y":2544953.0100000035}},{"attributes":{"ID":349766,"DIS_CODE":0,"TOWNNAME":"北區","LI":"文成里","LIN":"18鄰","STREET":"文賢路","SECT":" ","MAREA":" ","LANE":"２１８巷","ALLEY":" ","HOUSE_NO":"１８號","E_COORD97":167421.95999999999,"N_COORD97":2544953.5,"ADDRESS":"文賢路２１８巷１８號","OBJECTID":349757},"geometry":{"x":167421.96000000183,"y":2544953.5000000019}},{"attributes":{"ID":349767,"DIS_CODE":0,"TOWNNAME":"北區","LI":"文成里","LIN":"18鄰","STREET":"文賢路","SECT":" ","MAREA":" ","LANE":"２１８巷","ALLEY":" ","HOUSE_NO":"２０號","E_COORD97":167425.89999999999,"N_COORD97":2544955.71,"ADDRESS":"文賢路２１８巷２０號","OBJECTID":349758},"geometry":{"x":167425.90000000037,"y":2544955.7100000009}},{"attributes":{"ID":349768,"DIS_CODE":0,"TOWNNAME":"北區","LI":"文成里","LIN":"18鄰","STREET":"文賢路","SECT":" ","MAREA":" ","LANE":"２１８巷","ALLEY":" ","HOUSE_NO":"２２號","E_COORD97":167430.81,"N_COORD97":2544957.4300000002,"ADDRESS":"文賢路２１８巷２２號","OBJECTID":349759},"geometry":{"x":167430.80999999959,"y":2544957.4300000016}},{"attributes":{"ID":349769,"DIS_CODE":0,"TOWNNAME":"北區","LI":"文成里","LIN":"18鄰","STREET":"文賢路","SECT":" ","MAREA":" ","LANE":"２１８巷","ALLEY":" ","HOUSE_NO":"２４號","E_COORD97":167434.5,"N_COORD97":2544959.1499999999,"ADDRESS":"文賢路２１８巷２４號","OBJECTID":349760},"geometry":{"x":167434.5,"y":2544959.1499999985}},{"attributes":{"ID":349770,"DIS_CODE":0,"TOWNNAME":"北區","LI":"文成里","LIN":"18鄰","STREET":"文賢路","SECT":" ","MAREA":" ","LANE":"２１８巷","ALLEY":" ","HOUSE_NO":"２６號","E_COORD97":167438.42999999999,"N_COORD97":2544959.3900000001,"ADDRESS":"文賢路２１８巷２６號","OBJECTID":349761},"geometry":{"x":167438.4299999997,"y":2544959.3900000025}},{"attributes":{"ID":349771,"DIS_CODE":0,"TOWNNAME":"北區","LI":"文成里","LIN":"18鄰","STREET":"文賢路","SECT":" ","MAREA":" ","LANE":"２１８巷","ALLEY":" ","HOUSE_NO":"６號","E_COORD97":167392.45999999999,"N_COORD97":2544937.79,"ADDRESS":"文賢路２１８巷６號","OBJECTID":349762},"geometry":{"x":167392.45999999996,"y":2544937.790000001}},{"attributes":{"ID":349772,"DIS_CODE":0,"TOWNNAME":"北區","LI":"文成里","LIN":"18鄰","STREET":"文賢路","SECT":" ","MAREA":" ","LANE":"２１８巷","ALLEY":" ","HOUSE_NO":"８號","E_COORD97":167397.63,"N_COORD97":2544938.5299999998,"ADDRESS":"文賢路２１８巷８號","OBJECTID":349763},"geometry":{"x":167397.63000000082,"y":2544938.5299999975}},{"attributes":{"ID":349773,"DIS_CODE":0,"TOWNNAME":"中西區","LI":"民生里","LIN":"6鄰","STREET":"永華路","SECT":"一段","MAREA":" ","LANE":"２５０巷","ALLEY":" ","HOUSE_NO":"２號三樓之６","E_COORD97":167025.42000000001,"N_COORD97":2543276,"ADDRESS":"永華路一段２５０巷２號三樓之６","OBJECTID":349764},"geometry":{"x":167025.42000000179,"y":2543276.0000000019}},{"attributes":{"ID":349774,"DIS_CODE":0,"TOWNNAME":"中西區","LI":"民生里","LIN":"6鄰","STREET":"永華路","SECT":"一段","MAREA":" ","LANE":"２５０巷","ALLEY":" ","HOUSE_NO":"２號三樓之７","E_COORD97":167025.42000000001,"N_COORD97":2543276,"ADDRESS":"永華路一段２５０巷２號三樓之７","OBJECTID":349765},"geometry":{"x":167025.42000000179,"y":2543276.0000000019}},{"attributes":{"ID":349775,"DIS_CODE":0,"TOWNNAME":"中西區","LI":"民生里","LIN":"6鄰","STREET":"永華路","SECT":"一段","MAREA":" ","LANE":"２５０巷","ALLEY":" ","HOUSE_NO":"２號三樓之８","E_COORD97":167025.42000000001,"N_COORD97":2543276,"ADDRESS":"永華路一段２５０巷２號三樓之８","OBJECTID":349766},"geometry":{"x":167025.42000000179,"y":2543276.0000000019}},{"attributes":{"ID":349776,"DIS_CODE":0,"TOWNNAME":"中西區","LI":"民生里","LIN":"6鄰","STREET":"永華路","SECT":"一段","MAREA":" ","LANE":"２５０巷","ALLEY":" ","HOUSE_NO":"２號三樓之９","E_COORD97":167025.42000000001,"N_COORD97":2543276,"ADDRESS":"永華路一段２５０巷２號三樓之９","OBJECTID":349767},"geometry":{"x":167025.42000000179,"y":2543276.0000000019}},{"attributes":{"ID":349777,"DIS_CODE":0,"TOWNNAME":"中西區","LI":"民生里","LIN":"6鄰","STREET":"永華路","SECT":"一段","MAREA":" ","LANE":"２５０巷","ALLEY":" ","HOUSE_NO":"２號五樓之１","E_COORD97":167025.42000000001,"N_COORD97":2543276,"ADDRESS":"永華路一段２５０巷２號五樓之１","OBJECTID":349768},"geometry":{"x":167025.42000000179,"y":2543276.0000000019}},{"attributes":{"ID":349778,"DIS_CODE":0,"TOWNNAME":"中西區","LI":"民生里","LIN":"6鄰","STREET":"永華路","SECT":"一段","MAREA":" ","LANE":"２５０巷","ALLEY":" ","HOUSE_NO":"２號五樓之１０","E_COORD97":167025.42000000001,"N_COORD97":2543276,"ADDRESS":"永華路一段２５０巷２號五樓之１０","OBJECTID":349769},"geometry":{"x":167025.42000000179,"y":2543276.0000000019}},{"attributes":{"ID":349779,"DIS_CODE":0,"TOWNNAME":"學甲區","LI":"明宜里","LIN":"8鄰","STREET":"中山路","SECT":" ","MAREA":" ","LANE":" ","ALLEY":" ","HOUSE_NO":"１８９號之３","E_COORD97":165558.70000000001,"N_COORD97":2570598.7200000002,"ADDRESS":"中山路１８９號之３","OBJECTID":349770},"geometry":{"x":165558.70000000019,"y":2570598.7200000025}},{"attributes":{"ID":349780,"DIS_CODE":0,"TOWNNAME":"學甲區","LI":"明宜里","LIN":"8鄰","STREET":"中山路","SECT":" ","MAREA":" ","LANE":" ","ALLEY":" ","HOUSE_NO":"１９１號之１２","E_COORD97":165470.73000000001,"N_COORD97":2570640.9900000002,"ADDRESS":"中山路１９１號之１２","OBJECTID":349771},"geometry":{"x":165470.73000000045,"y":2570640.9900000002}},{"attributes":{"ID":349781,"DIS_CODE":0,"TOWNNAME":"學甲區","LI":"明宜里","LIN":"8鄰","STREET":"中山路","SECT":" ","MAREA":" ","LANE":" ","ALLEY":" ","HOUSE_NO":"１９１號之１","E_COORD97":165558.97,"N_COORD97":2570621.9900000002,"ADDRESS":"中山路１９１號之１","OBJECTID":349772},"geometry":{"x":165558.97000000067,"y":2570621.9900000039}},{"attributes":{"ID":349782,"DIS_CODE":0,"TOWNNAME":"學甲區","LI":"明宜里","LIN":"8鄰","STREET":"中山路","SECT":" ","MAREA":" ","LANE":" ","ALLEY":" ","HOUSE_NO":"１９１號之２","E_COORD97":165545.04000000001,"N_COORD97":2570624.3599999999,"ADDRESS":"中山路１９１號之２","OBJECTID":349773},"geometry":{"x":165545.04000000097,"y":2570624.3599999994}},{"attributes":{"ID":349783,"DIS_CODE":0,"TOWNNAME":"學甲區","LI":"明宜里","LIN":"8鄰","STREET":"中山路","SECT":" ","MAREA":" ","LANE":" ","ALLEY":" ","HOUSE_NO":"１９１號之３","E_COORD97":165537.47,"N_COORD97":2570625.73,"ADDRESS":"中山路１９１號之３","OBJECTID":349774},"geometry":{"x":165537.46999999974,"y":2570625.7300000023}},{"attributes":{"ID":349784,"DIS_CODE":0,"TOWNNAME":"學甲區","LI":"明宜里","LIN":"8鄰","STREET":"中山路","SECT":" ","MAREA":" ","LANE":" ","ALLEY":" ","HOUSE_NO":"１９１號之４","E_COORD97":165520.98000000001,"N_COORD97":2570629.9300000002,"ADDRESS":"中山路１９１號之４","OBJECTID":349775},"geometry":{"x":165520.98000000138,"y":2570629.9300000016}},{"attributes":{"ID":349785,"DIS_CODE":0,"TOWNNAME":"學甲區","LI":"明宜里","LIN":"8鄰","STREET":"中山路","SECT":" ","MAREA":" ","LANE":" ","ALLEY":" ","HOUSE_NO":"１９１號之６","E_COORD97":165501.20999999999,"N_COORD97":2570634.7400000002,"ADDRESS":"中山路１９１號之６","OBJECTID":349776},"geometry":{"x":165501.21000000183,"y":2570634.7400000021}},{"attributes":{"ID":349786,"DIS_CODE":0,"TOWNNAME":"學甲區","LI":"明宜里","LIN":"8鄰","STREET":"中山路","SECT":" ","MAREA":" ","LANE":" ","ALLEY":" ","HOUSE_NO":"１９１號之７","E_COORD97":165502.51999999999,"N_COORD97":2570618.6000000001,"ADDRESS":"中山路１９１號之７","OBJECTID":349777},"geometry":{"x":165502.52000000048,"y":2570618.6000000015}},{"attributes":{"ID":349787,"DIS_CODE":0,"TOWNNAME":"學甲區","LI":"明宜里","LIN":"8鄰","STREET":"中山路","SECT":" ","MAREA":" ","LANE":" ","ALLEY":" ","HOUSE_NO":"１９１號之８","E_COORD97":165492.82000000001,"N_COORD97":2570636.48,"ADDRESS":"中山路１９１號之８","OBJECTID":349778},"geometry":{"x":165492.82000000123,"y":2570636.4800000023}},{"attributes":{"ID":349788,"DIS_CODE":0,"TOWNNAME":"學甲區","LI":"明宜里","LIN":"8鄰","STREET":"中山路","SECT":" ","MAREA":" ","LANE":" ","ALLEY":" ","HOUSE_NO":"１９１號","E_COORD97":165572,"N_COORD97":2570634.04,"ADDRESS":"中山路１９１號","OBJECTID":349779},"geometry":{"x":165572,"y":2570634.0400000028}},{"attributes":{"ID":349789,"DIS_CODE":0,"TOWNNAME":"南區","LI":"郡南里","LIN":"18鄰","STREET":"德興路","SECT":" ","MAREA":" ","LANE":"１６１巷","ALLEY":" ","HOUSE_NO":"１６號","E_COORD97":167262.34,"N_COORD97":2540393.9300000002,"ADDRESS":"德興路１６１巷１６號","OBJECTID":349780},"geometry":{"x":167262.34000000078,"y":2540393.9300000016}},{"attributes":{"ID":349790,"DIS_CODE":0,"TOWNNAME":"南區","LI":"郡南里","LIN":"18鄰","STREET":"德興路","SECT":" ","MAREA":" ","LANE":"１６１巷","ALLEY":" ","HOUSE_NO":"１８號","E_COORD97":167267.60999999999,"N_COORD97":2540393.23,"ADDRESS":"德興路１６１巷１８號","OBJECTID":349781},"geometry":{"x":167267.61000000127,"y":2540393.2300000023}},{"attributes":{"ID":349791,"DIS_CODE":0,"TOWNNAME":"南區","LI":"郡南里","LIN":"18鄰","STREET":"德興路","SECT":" ","MAREA":" ","LANE":"１６１巷","ALLEY":" ","HOUSE_NO":"２０號","E_COORD97":167272.89000000001,"N_COORD97":2540393.23,"ADDRESS":"德興路１６１巷２０號","OBJECTID":349782},"geometry":{"x":167272.89000000153,"y":2540393.2300000023}},{"attributes":{"ID":349792,"DIS_CODE":0,"TOWNNAME":"南區","LI":"郡南里","LIN":"18鄰","STREET":"德興路","SECT":" ","MAREA":" ","LANE":"１６１巷","ALLEY":" ","HOUSE_NO":"２２號","E_COORD97":167277.81,"N_COORD97":2540394.2799999998,"ADDRESS":"德興路１６１巷２２號","OBJECTID":349783},"geometry":{"x":167277.80999999959,"y":2540394.2800000012}},{"attributes":{"ID":349793,"DIS_CODE":0,"TOWNNAME":"南區","LI":"郡南里","LIN":"18鄰","STREET":"德興路","SECT":" ","MAREA":" ","LANE":"１６１巷","ALLEY":" ","HOUSE_NO":"２４號","E_COORD97":167282.38,"N_COORD97":2540392.8700000001,"ADDRESS":"德興路１６１巷２４號","OBJECTID":349784},"geometry":{"x":167282.38000000082,"y":2540392.8700000029}},{"attributes":{"ID":349794,"DIS_CODE":0,"TOWNNAME":"南區","LI":"郡南里","LIN":"18鄰","STREET":"德興路","SECT":" ","MAREA":" ","LANE":"１６１巷","ALLEY":" ","HOUSE_NO":"２６號","E_COORD97":167287.29999999999,"N_COORD97":2540394.6299999999,"ADDRESS":"德興路１６１巷２６號","OBJECTID":349785},"geometry":{"x":167287.30000000168,"y":2540394.6300000027}},{"attributes":{"ID":349795,"DIS_CODE":0,"TOWNNAME":"中西區","LI":"民生里","LIN":"6鄰","STREET":"永華路","SECT":"一段","MAREA":" ","LANE":"２５０巷","ALLEY":" ","HOUSE_NO":"２號五樓之２","E_COORD97":167025.42000000001,"N_COORD97":2543276,"ADDRESS":"永華路一段２５０巷２號五樓之２","OBJECTID":349786},"geometry":{"x":167025.42000000179,"y":2543276.0000000019}},{"attributes":{"ID":349796,"DIS_CODE":0,"TOWNNAME":"中西區","LI":"民生里","LIN":"6鄰","STREET":"永華路","SECT":"一段","MAREA":" ","LANE":"２５０巷","ALLEY":" ","HOUSE_NO":"２號五樓之３","E_COORD97":167025.42000000001,"N_COORD97":2543276,"ADDRESS":"永華路一段２５０巷２號五樓之３","OBJECTID":349787},"geometry":{"x":167025.42000000179,"y":2543276.0000000019}},{"attributes":{"ID":349797,"DIS_CODE":0,"TOWNNAME":"中西區","LI":"民生里","LIN":"6鄰","STREET":"永華路","SECT":"一段","MAREA":" ","LANE":"２５０巷","ALLEY":" ","HOUSE_NO":"２號五樓之４","E_COORD97":167025.42000000001,"N_COORD97":2543276,"ADDRESS":"永華路一段２５０巷２號五樓之４","OBJECTID":349788},"geometry":{"x":167025.42000000179,"y":2543276.0000000019}},{"attributes":{"ID":349798,"DIS_CODE":0,"TOWNNAME":"中西區","LI":"民生里","LIN":"6鄰","STREET":"永華路","SECT":"一段","MAREA":" ","LANE":"２５０巷","ALLEY":" ","HOUSE_NO":"２號五樓之５","E_COORD97":167025.42000000001,"N_COORD97":2543276,"ADDRESS":"永華路一段２５０巷２號五樓之５","OBJECTID":349789},"geometry":{"x":167025.42000000179,"y":2543276.0000000019}},{"attributes":{"ID":349799,"DIS_CODE":0,"TOWNNAME":"中西區","LI":"民生里","LIN":"6鄰","STREET":"永華路","SECT":"一段","MAREA":" ","LANE":"２５０巷","ALLEY":" ","HOUSE_NO":"２號五樓之６","E_COORD97":167025.42000000001,"N_COORD97":2543276,"ADDRESS":"永華路一段２５０巷２號五樓之６","OBJECTID":349790},"geometry":{"x":167025.42000000179,"y":2543276.0000000019}},{"attributes":{"ID":349800,"DIS_CODE":0,"TOWNNAME":"學甲區","LI":"明宜里","LIN":"8鄰","STREET":"中山路","SECT":" ","MAREA":" ","LANE":" ","ALLEY":" ","HOUSE_NO":"１９３號之１","E_COORD97":165537.10999999999,"N_COORD97":2570664.29,"ADDRESS":"中山路１９３號之１","OBJECTID":349791},"geometry":{"x":165537.11000000034,"y":2570664.290000001}},{"attributes":{"ID":349801,"DIS_CODE":0,"TOWNNAME":"學甲區","LI":"明宜里","LIN":"8鄰","STREET":"中山路","SECT":" ","MAREA":" ","LANE":" ","ALLEY":" ","HOUSE_NO":"１９３號","E_COORD97":165540.92000000001,"N_COORD97":2570640.2400000002,"ADDRESS":"中山路１９３號","OBJECTID":349792},"geometry":{"x":165540.92000000086,"y":2570640.2400000002}},{"attributes":{"ID":349802,"DIS_CODE":0,"TOWNNAME":"學甲區","LI":"明宜里","LIN":"8鄰","STREET":"中山路","SECT":" ","MAREA":" ","LANE":" ","ALLEY":" ","HOUSE_NO":"１９５號","E_COORD97":165524.35000000001,"N_COORD97":2570682.9900000002,"ADDRESS":"中山路１９５號","OBJECTID":349793},"geometry":{"x":165524.35000000056,"y":2570682.9900000039}},{"attributes":{"ID":349803,"DIS_CODE":0,"TOWNNAME":"學甲區","LI":"明宜里","LIN":"8鄰","STREET":"中山路","SECT":" ","MAREA":" ","LANE":" ","ALLEY":" ","HOUSE_NO":"１９７號","E_COORD97":165511.5,"N_COORD97":2570686.6299999999,"ADDRESS":"中山路１９７號","OBJECTID":349794},"geometry":{"x":165511.50000000093,"y":2570686.629999999}},{"attributes":{"ID":349804,"DIS_CODE":0,"TOWNNAME":"學甲區","LI":"明宜里","LIN":"8鄰","STREET":"中山路","SECT":" ","MAREA":" ","LANE":" ","ALLEY":" ","HOUSE_NO":"１９９號","E_COORD97":165478.25,"N_COORD97":2570695.6099999999,"ADDRESS":"中山路１９９號","OBJECTID":349795},"geometry":{"x":165478.25,"y":2570695.6100000013}},{"attributes":{"ID":349805,"DIS_CODE":0,"TOWNNAME":"中西區","LI":"民生里","LIN":"6鄰","STREET":"永華路","SECT":"一段","MAREA":" ","LANE":"２５０巷","ALLEY":" ","HOUSE_NO":"２號五樓之７","E_COORD97":167025.42000000001,"N_COORD97":2543276,"ADDRESS":"永華路一段２５０巷２號五樓之７","OBJECTID":349796},"geometry":{"x":167025.42000000179,"y":2543276.0000000019}},{"attributes":{"ID":349806,"DIS_CODE":0,"TOWNNAME":"中西區","LI":"民生里","LIN":"6鄰","STREET":"永華路","SECT":"一段","MAREA":" ","LANE":"２５０巷","ALLEY":" ","HOUSE_NO":"２號五樓之８","E_COORD97":167025.42000000001,"N_COORD97":2543276,"ADDRESS":"永華路一段２５０巷２號五樓之８","OBJECTID":349797},"geometry":{"x":167025.42000000179,"y":2543276.0000000019}},{"attributes":{"ID":349807,"DIS_CODE":0,"TOWNNAME":"中西區","LI":"民生里","LIN":"6鄰","STREET":"永華路","SECT":"一段","MAREA":" ","LANE":"２５０巷","ALLEY":" ","HOUSE_NO":"２號五樓之９","E_COORD97":167025.42000000001,"N_COORD97":2543276,"ADDRESS":"永華路一段２５０巷２號五樓之９","OBJECTID":349798},"geometry":{"x":167025.42000000179,"y":2543276.0000000019}},{"attributes":{"ID":349808,"DIS_CODE":0,"TOWNNAME":"中西區","LI":"民生里","LIN":"6鄰","STREET":"永華路","SECT":"一段","MAREA":" ","LANE":"２５０巷","ALLEY":" ","HOUSE_NO":"２號六樓之１","E_COORD97":167025.42000000001,"N_COORD97":2543276,"ADDRESS":"永華路一段２５０巷２號六樓之１","OBJECTID":349799},"geometry":{"x":167025.42000000179,"y":2543276.0000000019}},{"attributes":{"ID":349809,"DIS_CODE":0,"TOWNNAME":"中西區","LI":"民生里","LIN":"6鄰","STREET":"永華路","SECT":"一段","MAREA":" ","LANE":"２５０巷","ALLEY":" ","HOUSE_NO":"２號六樓之１０","E_COORD97":167025.42000000001,"N_COORD97":2543276,"ADDRESS":"永華路一段２５０巷２號六樓之１０","OBJECTID":349800},"geometry":{"x":167025.42000000179,"y":2543276.0000000019}}]}