{"displayFieldName":"TOWNNAME","fieldAliases":{"ID":"ID","DIS_CODE":"DIS_CODE","TOWNNAME":"TOWNNAME","LI":"LI","LIN":"LIN","STREET":"STREET","SECT":"SECT","MAREA":"MAREA","LANE":"LANE","ALLEY":"ALLEY","HOUSE_NO":"HOUSE_NO","E_COORD97":"E_COORD97","N_COORD97":"N_COORD97","ADDRESS":"ADDRESS","OBJECTID":"OBJECTID"},"geometryType":"esriGeometryPoint","spatialReference":{"wkid":102443,"latestWkid":3826},"fields":[{"name":"ID","type":"esriFieldTypeDouble","alias":"ID"},{"name":"DIS_CODE","type":"esriFieldTypeInteger","alias":"DIS_CODE"},{"name":"TOWNNAME","type":"esriFieldTypeString","alias":"TOWNNAME","length":8},{"name":"LI","type":"esriFieldTypeString","alias":"LI","length":8},{"name":"LIN","type":"esriFieldTypeString","alias":"LIN","length":12},{"name":"STREET","type":"esriFieldTypeString","alias":"STREET","length":20},{"name":"SECT","type":"esriFieldTypeString","alias":"SECT","length":8},{"name":"MAREA","type":"esriFieldTypeString","alias":"MAREA","length":12},{"name":"LANE","type":"esriFieldTypeString","alias":"LANE","length":10},{"name":"ALLEY","type":"esriFieldTypeString","alias":"ALLEY","length":10},{"name":"HOUSE_NO","type":"esriFieldTypeString","alias":"HOUSE_NO","length":20},{"name":"E_COORD97","type":"esriFieldTypeDouble","alias":"E_COORD97"},{"name":"N_COORD97","type":"esriFieldTypeDouble","alias":"N_COORD97"},{"name":"ADDRESS","type":"esriFieldTypeString","alias":"ADDRESS","length":50},{"name":"OBJECTID","type":"esriFieldTypeOID","alias":"OBJECTID"}],"features":[{"attributes":{"ID":267606,"DIS_CODE":0,"TOWNNAME":"佳里區","LI":"禮化里","LIN":"3鄰","STREET":" ","SECT":" ","MAREA":"佳里興","LANE":" ","ALLEY":" ","HOUSE_NO":"２５２號之２","E_COORD97":167137.95000000001,"N_COORD97":2565729.2799999998,"ADDRESS":"佳里興２５２號之２","OBJECTID":267601},"geometry":{"x":167137.95000000112,"y":2565729.2799999993}},{"attributes":{"ID":267607,"DIS_CODE":0,"TOWNNAME":"東區","LI":"崇文里","LIN":"3鄰","STREET":"崇德十六街","SECT":" ","MAREA":" ","LANE":" ","ALLEY":" ","HOUSE_NO":"５３號","E_COORD97":170966.09,"N_COORD97":2541143,"ADDRESS":"崇德十六街５３號","OBJECTID":267602},"geometry":{"x":170966.09000000078,"y":2541143.0000000019}},{"attributes":{"ID":267608,"DIS_CODE":0,"TOWNNAME":"東區","LI":"大智里","LIN":"14鄰","STREET":"長東街","SECT":" ","MAREA":" ","LANE":"１４３巷","ALLEY":" ","HOUSE_NO":"２６號","E_COORD97":171085.35000000001,"N_COORD97":2540087.3999999999,"ADDRESS":"長東街１４３巷２６號","OBJECTID":267603},"geometry":{"x":171085.34999999963,"y":2540087.4000000004}},{"attributes":{"ID":267609,"DIS_CODE":0,"TOWNNAME":"六甲區","LI":"甲東里","LIN":"13鄰","STREET":"裕農街","SECT":" ","MAREA":" ","LANE":"２８９巷","ALLEY":" ","HOUSE_NO":"１１號","E_COORD97":184108.09,"N_COORD97":2569936.0800000001,"ADDRESS":"裕農街２８９巷１１號","OBJECTID":267604},"geometry":{"x":184108.08999999985,"y":2569936.0800000001}},{"attributes":{"ID":267610,"DIS_CODE":0,"TOWNNAME":"六甲區","LI":"甲東里","LIN":"13鄰","STREET":"裕農街","SECT":" ","MAREA":" ","LANE":"２８９巷","ALLEY":" ","HOUSE_NO":"１３號","E_COORD97":184108.13,"N_COORD97":2569931.46,"ADDRESS":"裕農街２８９巷１３號","OBJECTID":267605},"geometry":{"x":184108.13000000175,"y":2569931.4600000046}},{"attributes":{"ID":267611,"DIS_CODE":0,"TOWNNAME":"六甲區","LI":"甲東里","LIN":"13鄰","STREET":"裕農街","SECT":" ","MAREA":" ","LANE":"２８９巷","ALLEY":" ","HOUSE_NO":"１５號","E_COORD97":184107.20999999999,"N_COORD97":2569927.1600000001,"ADDRESS":"裕農街２８９巷１５號","OBJECTID":267606},"geometry":{"x":184107.20999999996,"y":2569927.160000002}},{"attributes":{"ID":267612,"DIS_CODE":0,"TOWNNAME":"六甲區","LI":"甲東里","LIN":"13鄰","STREET":"裕農街","SECT":" ","MAREA":" ","LANE":"２８９巷","ALLEY":" ","HOUSE_NO":"１７號","E_COORD97":184107.14000000001,"N_COORD97":2569922.9399999999,"ADDRESS":"裕農街２８９巷１７號","OBJECTID":267607},"geometry":{"x":184107.13999999966,"y":2569922.9399999976}},{"attributes":{"ID":267613,"DIS_CODE":0,"TOWNNAME":"中西區","LI":"保安里","LIN":"3鄰","STREET":"西門路","SECT":"二段","MAREA":" ","LANE":" ","ALLEY":" ","HOUSE_NO":"１號","E_COORD97":167721.23000000001,"N_COORD97":2543431.98,"ADDRESS":"西門路二段１號","OBJECTID":267608},"geometry":{"x":167721.23000000138,"y":2543431.9800000023}},{"attributes":{"ID":267614,"DIS_CODE":0,"TOWNNAME":"安南區","LI":"四草里","LIN":"4鄰","STREET":"大眾六街","SECT":" ","MAREA":" ","LANE":" ","ALLEY":" ","HOUSE_NO":"２號","E_COORD97":160637.35634,"N_COORD97":2546436.3470600001,"ADDRESS":"大眾六街２號","OBJECTID":267609},"geometry":{"x":160637.35634000227,"y":2546436.3470600024}},{"attributes":{"ID":267615,"DIS_CODE":0,"TOWNNAME":"六甲區","LI":"甲東里","LIN":"13鄰","STREET":"裕農街","SECT":" ","MAREA":" ","LANE":"２８９巷","ALLEY":" ","HOUSE_NO":"１９號","E_COORD97":184106.12,"N_COORD97":2569917.2000000002,"ADDRESS":"裕農街２８９巷１９號","OBJECTID":267610},"geometry":{"x":184106.12000000011,"y":2569917.1999999993}},{"attributes":{"ID":267616,"DIS_CODE":0,"TOWNNAME":"永康區","LI":"\u25A0洲里","LIN":"14鄰","STREET":"中正南路","SECT":" ","MAREA":" ","LANE":"７７９巷","ALLEY":" ","HOUSE_NO":"３４號","E_COORD97":171598.69,"N_COORD97":2549020.5,"ADDRESS":"中正南路７７９巷３４號","OBJECTID":267611},"geometry":{"x":171598.69000000041,"y":2549020.5}},{"attributes":{"ID":267617,"DIS_CODE":0,"TOWNNAME":"永康區","LI":"\u25A0洲里","LIN":"14鄰","STREET":"中正南路","SECT":" ","MAREA":" ","LANE":"７７９巷","ALLEY":" ","HOUSE_NO":"５號","E_COORD97":171638.84,"N_COORD97":2548972.6800000002,"ADDRESS":"中正南路７７９巷５號","OBJECTID":267612},"geometry":{"x":171638.84000000078,"y":2548972.6800000034}},{"attributes":{"ID":267618,"DIS_CODE":0,"TOWNNAME":"永康區","LI":"\u25A0洲里","LIN":"14鄰","STREET":"中正南路","SECT":" ","MAREA":" ","LANE":"７７９巷","ALLEY":" ","HOUSE_NO":"２０號","E_COORD97":171622.19,"N_COORD97":2549004.25,"ADDRESS":"中正南路７７９巷２０號","OBJECTID":267613},"geometry":{"x":171622.19000000134,"y":2549004.2500000019}},{"attributes":{"ID":267619,"DIS_CODE":0,"TOWNNAME":"永康區","LI":"\u25A0洲里","LIN":"14鄰","STREET":"中正南路","SECT":" ","MAREA":" ","LANE":"７７９巷","ALLEY":" ","HOUSE_NO":"１８號","E_COORD97":171625.29999999999,"N_COORD97":2549002.25,"ADDRESS":"中正南路７７９巷１８號","OBJECTID":267614},"geometry":{"x":171625.30000000168,"y":2549002.25}},{"attributes":{"ID":267620,"DIS_CODE":0,"TOWNNAME":"安南區","LI":"大安里","LIN":"14鄰","STREET":"義安街","SECT":" ","MAREA":" ","LANE":"８６巷","ALLEY":" ","HOUSE_NO":"５號","E_COORD97":167475.78,"N_COORD97":2548055.6499999999,"ADDRESS":"義安街８６巷５號","OBJECTID":267615},"geometry":{"x":167475.78000000026,"y":2548055.6500000022}},{"attributes":{"ID":267621,"DIS_CODE":0,"TOWNNAME":"安南區","LI":"大安里","LIN":"14鄰","STREET":"義安街","SECT":" ","MAREA":" ","LANE":"８６巷","ALLEY":" ","HOUSE_NO":"２４號","E_COORD97":167490.69,"N_COORD97":2548013.0699999998,"ADDRESS":"義安街８６巷２４號","OBJECTID":267616},"geometry":{"x":167490.69000000134,"y":2548013.0700000003}},{"attributes":{"ID":267622,"DIS_CODE":0,"TOWNNAME":"安南區","LI":"大安里","LIN":"14鄰","STREET":"義安街","SECT":" ","MAREA":" ","LANE":"８６巷","ALLEY":" ","HOUSE_NO":"２８號","E_COORD97":167497.29000000001,"N_COORD97":2548007.9100000001,"ADDRESS":"義安街８６巷２８號","OBJECTID":267617},"geometry":{"x":167497.29000000004,"y":2548007.9100000001}},{"attributes":{"ID":267623,"DIS_CODE":0,"TOWNNAME":"安南區","LI":"安西里","LIN":"14鄰","STREET":"安和路","SECT":"一段","MAREA":" ","LANE":"１５９巷","ALLEY":" ","HOUSE_NO":"１２２號","E_COORD97":169184.59,"N_COORD97":2547960.5899999999,"ADDRESS":"安和路一段１５９巷１２２號","OBJECTID":267618},"geometry":{"x":169184.59000000078,"y":2547960.5900000017}},{"attributes":{"ID":267624,"DIS_CODE":0,"TOWNNAME":"安南區","LI":"安西里","LIN":"14鄰","STREET":"安和路","SECT":"一段","MAREA":" ","LANE":"１５９巷","ALLEY":" ","HOUSE_NO":"１２４號","E_COORD97":169183.41,"N_COORD97":2547964.8900000001,"ADDRESS":"安和路一段１５９巷１２４號","OBJECTID":267619},"geometry":{"x":169183.41000000015,"y":2547964.8900000006}},{"attributes":{"ID":267625,"DIS_CODE":0,"TOWNNAME":"善化區","LI":"坐駕里","LIN":"14鄰","STREET":"大成路","SECT":" ","MAREA":" ","LANE":"３６７巷","ALLEY":" ","HOUSE_NO":"４９號","E_COORD97":178268.45000000001,"N_COORD97":2558616.5,"ADDRESS":"大成路３６７巷４９號","OBJECTID":267620},"geometry":{"x":178268.45000000112,"y":2558616.5000000037}},{"attributes":{"ID":267626,"DIS_CODE":0,"TOWNNAME":"善化區","LI":"坐駕里","LIN":"14鄰","STREET":"和平路","SECT":" ","MAREA":" ","LANE":"１６巷","ALLEY":" ","HOUSE_NO":"４號","E_COORD97":178210.75,"N_COORD97":2558625.75,"ADDRESS":"和平路１６巷４號","OBJECTID":267621},"geometry":{"x":178210.75,"y":2558625.7500000019}},{"attributes":{"ID":267627,"DIS_CODE":0,"TOWNNAME":"善化區","LI":"坐駕里","LIN":"14鄰","STREET":"大成路","SECT":" ","MAREA":" ","LANE":"３６７巷","ALLEY":" ","HOUSE_NO":"４７號","E_COORD97":178250.98000000001,"N_COORD97":2558614.75,"ADDRESS":"大成路３６７巷４７號","OBJECTID":267622},"geometry":{"x":178250.98000000045,"y":2558614.7500000037}},{"attributes":{"ID":267628,"DIS_CODE":0,"TOWNNAME":"永康區","LI":"龍潭里","LIN":"14鄰","STREET":"龍中街","SECT":" ","MAREA":" ","LANE":"１７６巷","ALLEY":" ","HOUSE_NO":"１０號","E_COORD97":174452.67000000001,"N_COORD97":2548365.6699999999,"ADDRESS":"龍中街１７６巷１０號","OBJECTID":267623},"geometry":{"x":174452.67000000086,"y":2548365.6699999999}},{"attributes":{"ID":267629,"DIS_CODE":0,"TOWNNAME":"永康區","LI":"網寮里","LIN":"14鄰","STREET":"永勝街","SECT":" ","MAREA":" ","LANE":"２４６巷","ALLEY":" ","HOUSE_NO":"２號","E_COORD97":173373.35000000001,"N_COORD97":2546611.2400000002,"ADDRESS":"永勝街２４６巷２號","OBJECTID":267624},"geometry":{"x":173373.34999999963,"y":2546611.2400000021}},{"attributes":{"ID":267630,"DIS_CODE":0,"TOWNNAME":"永康區","LI":"復興里","LIN":"14鄰","STREET":"復興路","SECT":" ","MAREA":" ","LANE":"２９６巷","ALLEY":" ","HOUSE_NO":"１６號","E_COORD97":172343.07000000001,"N_COORD97":2544367.5299999998,"ADDRESS":"復興路２９６巷１６號","OBJECTID":267625},"geometry":{"x":172343.07000000123,"y":2544367.5299999993}},{"attributes":{"ID":267631,"DIS_CODE":0,"TOWNNAME":"永康區","LI":"龍潭里","LIN":"14鄰","STREET":"龍埔街","SECT":" ","MAREA":" ","LANE":"１５０巷","ALLEY":" ","HOUSE_NO":"１７號","E_COORD97":174430.48000000001,"N_COORD97":2548334.9900000002,"ADDRESS":"龍埔街１５０巷１７號","OBJECTID":267626},"geometry":{"x":174430.48000000138,"y":2548334.9900000021}},{"attributes":{"ID":267632,"DIS_CODE":0,"TOWNNAME":"永康區","LI":"龍潭里","LIN":"14鄰","STREET":"龍橋街","SECT":" ","MAREA":" ","LANE":"５３巷","ALLEY":" ","HOUSE_NO":"４０號","E_COORD97":174724.35000000001,"N_COORD97":2548313.9500000002,"ADDRESS":"龍橋街５３巷４０號","OBJECTID":267627},"geometry":{"x":174724.34999999963,"y":2548313.9500000011}},{"attributes":{"ID":267633,"DIS_CODE":0,"TOWNNAME":"永康區","LI":"復興里","LIN":"14鄰","STREET":"復興路","SECT":" ","MAREA":" ","LANE":"２８２巷","ALLEY":" ","HOUSE_NO":"３５號","E_COORD97":172368.67999999999,"N_COORD97":2544391.52,"ADDRESS":"復興路２８２巷３５號","OBJECTID":267628},"geometry":{"x":172368.68000000063,"y":2544391.5199999996}},{"attributes":{"ID":267634,"DIS_CODE":0,"TOWNNAME":"永康區","LI":"龍潭里","LIN":"14鄰","STREET":"龍埔街","SECT":" ","MAREA":" ","LANE":"１５０巷","ALLEY":" ","HOUSE_NO":"１１號","E_COORD97":174433.12,"N_COORD97":2548312,"ADDRESS":"龍埔街１５０巷１１號","OBJECTID":267629},"geometry":{"x":174433.12000000011,"y":2548312}},{"attributes":{"ID":267635,"DIS_CODE":0,"TOWNNAME":"永康區","LI":"龍潭里","LIN":"14鄰","STREET":"龍橋街","SECT":" ","MAREA":" ","LANE":"９３巷","ALLEY":" ","HOUSE_NO":"２７號","E_COORD97":174667.84,"N_COORD97":2548349.8199999998,"ADDRESS":"龍橋街９３巷２７號","OBJECTID":267630},"geometry":{"x":174667.84000000171,"y":2548349.8200000022}},{"attributes":{"ID":267636,"DIS_CODE":0,"TOWNNAME":"永康區","LI":"龍潭里","LIN":"14鄰","STREET":"龍橋街","SECT":" ","MAREA":" ","LANE":"６５巷","ALLEY":" ","HOUSE_NO":"１６號","E_COORD97":174738.23999999999,"N_COORD97":2548351.2400000002,"ADDRESS":"龍橋街６５巷１６號","OBJECTID":267631},"geometry":{"x":174738.24000000022,"y":2548351.2400000002}},{"attributes":{"ID":267637,"DIS_CODE":0,"TOWNNAME":"永康區","LI":"網寮里","LIN":"14鄰","STREET":"永勝街","SECT":" ","MAREA":" ","LANE":"２４６巷","ALLEY":" ","HOUSE_NO":"６號","E_COORD97":173378.70000000001,"N_COORD97":2546608.9900000002,"ADDRESS":"永勝街２４６巷６號","OBJECTID":267632},"geometry":{"x":173378.70000000019,"y":2546608.9900000021}},{"attributes":{"ID":267638,"DIS_CODE":0,"TOWNNAME":"永康區","LI":"龍潭里","LIN":"14鄰","STREET":"龍埔街","SECT":" ","MAREA":" ","LANE":"７８巷","ALLEY":" ","HOUSE_NO":"１１號","E_COORD97":174623.44,"N_COORD97":2548303.8300000001,"ADDRESS":"龍埔街７８巷１１號","OBJECTID":267633},"geometry":{"x":174623.44000000041,"y":2548303.8300000001}},{"attributes":{"ID":267639,"DIS_CODE":0,"TOWNNAME":"永康區","LI":"復興里","LIN":"14鄰","STREET":"復興路","SECT":" ","MAREA":" ","LANE":"２９６巷","ALLEY":" ","HOUSE_NO":"１４號","E_COORD97":172342.95999999999,"N_COORD97":2544364.7799999998,"ADDRESS":"復興路２９６巷１４號","OBJECTID":267634},"geometry":{"x":172342.96000000183,"y":2544364.7800000012}},{"attributes":{"ID":267640,"DIS_CODE":0,"TOWNNAME":"東區","LI":"和平里","LIN":"14鄰","STREET":"東門路","SECT":"三段","MAREA":" ","LANE":"２２６巷","ALLEY":" ","HOUSE_NO":"１２１號","E_COORD97":171410.10999999999,"N_COORD97":2541867.3500000001,"ADDRESS":"東門路三段２２６巷１２１號","OBJECTID":267635},"geometry":{"x":171410.1100000022,"y":2541867.3499999996}},{"attributes":{"ID":267641,"DIS_CODE":0,"TOWNNAME":"中西區","LI":"大涼里","LIN":"3鄰","STREET":"環河街","SECT":" ","MAREA":" ","LANE":" ","ALLEY":" ","HOUSE_NO":"４號","E_COORD97":167149.64999999999,"N_COORD97":2543621.0499999998,"ADDRESS":"環河街４號","OBJECTID":267636},"geometry":{"x":167149.65000000037,"y":2543621.0499999989}},{"attributes":{"ID":267642,"DIS_CODE":0,"TOWNNAME":"東區","LI":"和平里","LIN":"14鄰","STREET":"東門路","SECT":"三段","MAREA":" ","LANE":"２２６巷","ALLEY":" ","HOUSE_NO":"１２３號","E_COORD97":171406.34,"N_COORD97":2541867.3500000001,"ADDRESS":"東門路三段２２６巷１２３號","OBJECTID":267637},"geometry":{"x":171406.34000000171,"y":2541867.3499999996}},{"attributes":{"ID":267643,"DIS_CODE":0,"TOWNNAME":"東區","LI":"和平里","LIN":"14鄰","STREET":"東門路","SECT":"三段","MAREA":" ","LANE":"２２６巷","ALLEY":" ","HOUSE_NO":"１２５號","E_COORD97":171401.62,"N_COORD97":2541867.73,"ADDRESS":"東門路三段２２６巷１２５號","OBJECTID":267638},"geometry":{"x":171401.62000000104,"y":2541867.7300000023}},{"attributes":{"ID":267644,"DIS_CODE":0,"TOWNNAME":"永康區","LI":"復國里","LIN":"14鄰","STREET":"復國二路","SECT":" ","MAREA":" ","LANE":"１７８巷","ALLEY":" ","HOUSE_NO":"８號之１３","E_COORD97":172944.51000000001,"N_COORD97":2545631.3399999999,"ADDRESS":"復國二路１７８巷８號之１３","OBJECTID":267639},"geometry":{"x":172944.51000000071,"y":2545631.3399999999}},{"attributes":{"ID":267645,"DIS_CODE":0,"TOWNNAME":"永康區","LI":"復國里","LIN":"14鄰","STREET":"復國二路","SECT":" ","MAREA":" ","LANE":"１４０巷","ALLEY":" ","HOUSE_NO":"８號","E_COORD97":172923.81,"N_COORD97":2545598.7799999998,"ADDRESS":"復國二路１４０巷８號","OBJECTID":267640},"geometry":{"x":172923.81000000052,"y":2545598.7800000012}},{"attributes":{"ID":267646,"DIS_CODE":0,"TOWNNAME":"永康區","LI":"復華里","LIN":"14鄰","STREET":"國華街","SECT":" ","MAREA":" ","LANE":"９４巷","ALLEY":" ","HOUSE_NO":"３０號","E_COORD97":172940.62,"N_COORD97":2545889.75,"ADDRESS":"國華街９４巷３０號","OBJECTID":267641},"geometry":{"x":172940.62000000197,"y":2545889.75}},{"attributes":{"ID":267647,"DIS_CODE":0,"TOWNNAME":"永康區","LI":"復國里","LIN":"14鄰","STREET":"復國二路","SECT":" ","MAREA":" ","LANE":"１４０巷","ALLEY":" ","HOUSE_NO":"１４號","E_COORD97":172939.82999999999,"N_COORD97":2545595.5299999998,"ADDRESS":"復國二路１４０巷１４號","OBJECTID":267642},"geometry":{"x":172939.83000000101,"y":2545595.5299999993}},{"attributes":{"ID":267648,"DIS_CODE":0,"TOWNNAME":"東區","LI":"崇信里","LIN":"14鄰","STREET":"崇學路","SECT":" ","MAREA":" ","LANE":"１４２巷","ALLEY":" ","HOUSE_NO":"２０號","E_COORD97":170546.44,"N_COORD97":2542341.1699999999,"ADDRESS":"崇學路１４２巷２０號","OBJECTID":267643},"geometry":{"x":170546.44000000041,"y":2542341.1699999981}},{"attributes":{"ID":267649,"DIS_CODE":0,"TOWNNAME":"東區","LI":"崇信里","LIN":"14鄰","STREET":"崇學路","SECT":" ","MAREA":" ","LANE":"１４２巷","ALLEY":" ","HOUSE_NO":"２２之１號","E_COORD97":170555.01000000001,"N_COORD97":2542333.6600000001,"ADDRESS":"崇學路１４２巷２２之１號","OBJECTID":267644},"geometry":{"x":170555.00999999978,"y":2542333.6600000001}},{"attributes":{"ID":267650,"DIS_CODE":0,"TOWNNAME":"東區","LI":"崇信里","LIN":"14鄰","STREET":"崇學路","SECT":" ","MAREA":" ","LANE":"１４２巷","ALLEY":" ","HOUSE_NO":"２２號","E_COORD97":170550.41,"N_COORD97":2542337.6200000001,"ADDRESS":"崇學路１４２巷２２號","OBJECTID":267645},"geometry":{"x":170550.41000000108,"y":2542337.6200000029}},{"attributes":{"ID":267651,"DIS_CODE":0,"TOWNNAME":"東區","LI":"崇信里","LIN":"14鄰","STREET":"崇學路","SECT":" ","MAREA":" ","LANE":"１４２巷","ALLEY":" ","HOUSE_NO":"２６號","E_COORD97":170559.39999999999,"N_COORD97":2542330.1099999999,"ADDRESS":"崇學路１４２巷２６號","OBJECTID":267646},"geometry":{"x":170559.4000000013,"y":2542330.1099999994}},{"attributes":{"ID":267652,"DIS_CODE":0,"TOWNNAME":"下營區","LI":"宅內里","LIN":"3鄰","STREET":"永安街","SECT":" ","MAREA":" ","LANE":" ","ALLEY":" ","HOUSE_NO":"１０７號","E_COORD97":174084.5,"N_COORD97":2570671.7200000002,"ADDRESS":"永安街１０７號","OBJECTID":267647},"geometry":{"x":174084.50000000093,"y":2570671.7200000044}},{"attributes":{"ID":267653,"DIS_CODE":0,"TOWNNAME":"下營區","LI":"宅內里","LIN":"3鄰","STREET":"永安街","SECT":" ","MAREA":" ","LANE":" ","ALLEY":" ","HOUSE_NO":"１３２號","E_COORD97":174115.84,"N_COORD97":2570633.3100000001,"ADDRESS":"永安街１３２號","OBJECTID":267648},"geometry":{"x":174115.84000000078,"y":2570633.3100000005}},{"attributes":{"ID":267654,"DIS_CODE":0,"TOWNNAME":"佳里區","LI":"東寧里","LIN":"14鄰","STREET":"延平路","SECT":" ","MAREA":" ","LANE":"３５０巷","ALLEY":" ","HOUSE_NO":"１號","E_COORD97":165891.67000000001,"N_COORD97":2562484.2200000002,"ADDRESS":"延平路３５０巷１號","OBJECTID":267649},"geometry":{"x":165891.67000000086,"y":2562484.2200000044}},{"attributes":{"ID":267655,"DIS_CODE":0,"TOWNNAME":"下營區","LI":"茅港里","LIN":"3鄰","STREET":" ","SECT":" ","MAREA":"茅港尾","LANE":" ","ALLEY":" ","HOUSE_NO":"４２號","E_COORD97":176414.70000000001,"N_COORD97":2569411.8300000001,"ADDRESS":"茅港尾４２號","OBJECTID":267650},"geometry":{"x":176414.70000000019,"y":2569411.8300000001}},{"attributes":{"ID":267656,"DIS_CODE":0,"TOWNNAME":"下營區","LI":"茅港里","LIN":"3鄰","STREET":" ","SECT":" ","MAREA":"茅港尾","LANE":" ","ALLEY":" ","HOUSE_NO":"３５號","E_COORD97":176617.67999999999,"N_COORD97":2569334.48,"ADDRESS":"茅港尾３５號","OBJECTID":267651},"geometry":{"x":176617.6799999997,"y":2569334.4800000023}},{"attributes":{"ID":267657,"DIS_CODE":0,"TOWNNAME":"下營區","LI":"茅港里","LIN":"3鄰","STREET":" ","SECT":" ","MAREA":"茅港尾","LANE":" ","ALLEY":" ","HOUSE_NO":"３７號","E_COORD97":176583.76999999999,"N_COORD97":2569356.8300000001,"ADDRESS":"茅港尾３７號","OBJECTID":267652},"geometry":{"x":176583.77000000048,"y":2569356.8300000001}},{"attributes":{"ID":267658,"DIS_CODE":0,"TOWNNAME":"佳里區","LI":"安西里","LIN":"14鄰","STREET":"長安街","SECT":" ","MAREA":" ","LANE":"９４巷","ALLEY":" ","HOUSE_NO":"１號","E_COORD97":165456.26000000001,"N_COORD97":2562531.6299999999,"ADDRESS":"長安街９４巷１號","OBJECTID":267653},"geometry":{"x":165456.25999999978,"y":2562531.6300000008}},{"attributes":{"ID":267659,"DIS_CODE":0,"TOWNNAME":"下營區","LI":"茅港里","LIN":"3鄰","STREET":" ","SECT":" ","MAREA":"茅港尾","LANE":" ","ALLEY":" ","HOUSE_NO":"３８號之１","E_COORD97":176607.89999999999,"N_COORD97":2569348.0800000001,"ADDRESS":"茅港尾３８號之１","OBJECTID":267654},"geometry":{"x":176607.9000000013,"y":2569348.0800000019}},{"attributes":{"ID":267660,"DIS_CODE":0,"TOWNNAME":"下營區","LI":"茅港里","LIN":"3鄰","STREET":" ","SECT":" ","MAREA":"茅港尾","LANE":" ","ALLEY":" ","HOUSE_NO":"３８號之２","E_COORD97":176612.45999999999,"N_COORD97":2569346.2799999998,"ADDRESS":"茅港尾３８號之２","OBJECTID":267655},"geometry":{"x":176612.45999999996,"y":2569346.2799999993}},{"attributes":{"ID":267661,"DIS_CODE":0,"TOWNNAME":"佳里區","LI":"安西里","LIN":"14鄰","STREET":"長安街","SECT":" ","MAREA":" ","LANE":"９４巷","ALLEY":" ","HOUSE_NO":"２號","E_COORD97":165456.28,"N_COORD97":2562535.6899999999,"ADDRESS":"長安街９４巷２號","OBJECTID":267656},"geometry":{"x":165456.28000000026,"y":2562535.6899999995}},{"attributes":{"ID":267662,"DIS_CODE":0,"TOWNNAME":"永康區","LI":"網寮里","LIN":"14鄰","STREET":"永勝街","SECT":" ","MAREA":" ","LANE":"２４６巷","ALLEY":" ","HOUSE_NO":"１６號","E_COORD97":173399.14999999999,"N_COORD97":2546600.2400000002,"ADDRESS":"永勝街２４６巷１６號","OBJECTID":267657},"geometry":{"x":173399.15000000037,"y":2546600.2400000021}},{"attributes":{"ID":267663,"DIS_CODE":0,"TOWNNAME":"新營區","LI":"新南里","LIN":"14鄰","STREET":"民治路","SECT":" ","MAREA":" ","LANE":"３００巷","ALLEY":" ","HOUSE_NO":"４８號","E_COORD97":178660.14000000001,"N_COORD97":2578607.8999999999,"ADDRESS":"民治路３００巷４８號","OBJECTID":267658},"geometry":{"x":178660.1400000006,"y":2578607.9000000022}},{"attributes":{"ID":267664,"DIS_CODE":0,"TOWNNAME":"下營區","LI":"茅港里","LIN":"3鄰","STREET":" ","SECT":" ","MAREA":"茅港尾","LANE":" ","ALLEY":" ","HOUSE_NO":"３８號","E_COORD97":176598.44,"N_COORD97":2569361.9199999999,"ADDRESS":"茅港尾３８號","OBJECTID":267659},"geometry":{"x":176598.43999999948,"y":2569361.9200000018}},{"attributes":{"ID":267665,"DIS_CODE":0,"TOWNNAME":"下營區","LI":"茅港里","LIN":"3鄰","STREET":" ","SECT":" ","MAREA":"茅港尾","LANE":" ","ALLEY":" ","HOUSE_NO":"３９號","E_COORD97":176601.98999999999,"N_COORD97":2569378.79,"ADDRESS":"茅港尾３９號","OBJECTID":267660},"geometry":{"x":176601.99000000115,"y":2569378.790000001}},{"attributes":{"ID":267666,"DIS_CODE":0,"TOWNNAME":"下營區","LI":"茅港里","LIN":"3鄰","STREET":" ","SECT":" ","MAREA":"茅港尾","LANE":" ","ALLEY":" ","HOUSE_NO":"４１號","E_COORD97":176114.29000000001,"N_COORD97":2569417.7000000002,"ADDRESS":"茅港尾４１號","OBJECTID":267661},"geometry":{"x":176114.2900000019,"y":2569417.7000000011}},{"attributes":{"ID":267667,"DIS_CODE":0,"TOWNNAME":"下營區","LI":"茅港里","LIN":"3鄰","STREET":" ","SECT":" ","MAREA":"茅港尾","LANE":" ","ALLEY":" ","HOUSE_NO":"４３號之１０","E_COORD97":176335.5,"N_COORD97":2569114.2200000002,"ADDRESS":"茅港尾４３號之１０","OBJECTID":267662},"geometry":{"x":176335.50000000093,"y":2569114.2200000007}},{"attributes":{"ID":267668,"DIS_CODE":0,"TOWNNAME":"下營區","LI":"茅港里","LIN":"3鄰","STREET":" ","SECT":" ","MAREA":"茅港尾","LANE":" ","ALLEY":" ","HOUSE_NO":"４３號之１１","E_COORD97":176275.39999999999,"N_COORD97":2569104.1400000001,"ADDRESS":"茅港尾４３號之１１","OBJECTID":267663},"geometry":{"x":176275.4000000013,"y":2569104.1400000025}},{"attributes":{"ID":267669,"DIS_CODE":0,"TOWNNAME":"下營區","LI":"茅港里","LIN":"3鄰","STREET":" ","SECT":" ","MAREA":"茅港尾","LANE":" ","ALLEY":" ","HOUSE_NO":"４３號之１６","E_COORD97":176684.14000000001,"N_COORD97":2569122.6899999999,"ADDRESS":"茅港尾４３號之１６","OBJECTID":267664},"geometry":{"x":176684.13999999966,"y":2569122.6900000013}},{"attributes":{"ID":267670,"DIS_CODE":0,"TOWNNAME":"下營區","LI":"茅港里","LIN":"3鄰","STREET":" ","SECT":" ","MAREA":"茅港尾","LANE":" ","ALLEY":" ","HOUSE_NO":"４３號之３","E_COORD97":176128.23999999999,"N_COORD97":2569299.5,"ADDRESS":"茅港尾４３號之３","OBJECTID":267665},"geometry":{"x":176128.24000000022,"y":2569299.5000000037}},{"attributes":{"ID":267671,"DIS_CODE":0,"TOWNNAME":"下營區","LI":"茅港里","LIN":"3鄰","STREET":" ","SECT":" ","MAREA":"茅港尾","LANE":" ","ALLEY":" ","HOUSE_NO":"４３號之５","E_COORD97":176176.23999999999,"N_COORD97":2569357.75,"ADDRESS":"茅港尾４３號之５","OBJECTID":267666},"geometry":{"x":176176.24000000115,"y":2569357.75}},{"attributes":{"ID":267672,"DIS_CODE":0,"TOWNNAME":"永康區","LI":"北灣里","LIN":"3鄰","STREET":"信義街","SECT":" ","MAREA":" ","LANE":" ","ALLEY":" ","HOUSE_NO":"８３號","E_COORD97":175305.82000000001,"N_COORD97":2545641.5699999998,"ADDRESS":"信義街８３號","OBJECTID":267667},"geometry":{"x":175305.82000000216,"y":2545641.570000004}},{"attributes":{"ID":267673,"DIS_CODE":0,"TOWNNAME":"永康區","LI":"正強里","LIN":"3鄰","STREET":"永正路","SECT":" ","MAREA":" ","LANE":" ","ALLEY":" ","HOUSE_NO":"１０５號","E_COORD97":173507.07999999999,"N_COORD97":2547572.3900000001,"ADDRESS":"永正路１０５號","OBJECTID":267668},"geometry":{"x":173507.08000000101,"y":2547572.3900000025}},{"attributes":{"ID":267674,"DIS_CODE":0,"TOWNNAME":"新營區","LI":"新南里","LIN":"14鄰","STREET":"民治路","SECT":" ","MAREA":" ","LANE":"２３０巷","ALLEY":" ","HOUSE_NO":"５５號","E_COORD97":178662.25,"N_COORD97":2578633.3700000001,"ADDRESS":"民治路２３０巷５５號","OBJECTID":267669},"geometry":{"x":178662.25,"y":2578633.3700000029}},{"attributes":{"ID":267675,"DIS_CODE":0,"TOWNNAME":"永康區","LI":"北灣里","LIN":"3鄰","STREET":"信義街","SECT":" ","MAREA":" ","LANE":" ","ALLEY":" ","HOUSE_NO":"９１號之２","E_COORD97":175275.47,"N_COORD97":2545637.2599999998,"ADDRESS":"信義街９１號之２","OBJECTID":267670},"geometry":{"x":175275.4700000016,"y":2545637.2600000016}},{"attributes":{"ID":267676,"DIS_CODE":0,"TOWNNAME":"永康區","LI":"北灣里","LIN":"3鄰","STREET":"信義街","SECT":" ","MAREA":" ","LANE":" ","ALLEY":" ","HOUSE_NO":"８７號之３","E_COORD97":175295.54999999999,"N_COORD97":2545624.9900000002,"ADDRESS":"信義街８７號之３","OBJECTID":267671},"geometry":{"x":175295.55000000075,"y":2545624.9900000039}},{"attributes":{"ID":267677,"DIS_CODE":0,"TOWNNAME":"永康區","LI":"南灣里","LIN":"3鄰","STREET":"大灣一街","SECT":" ","MAREA":" ","LANE":" ","ALLEY":" ","HOUSE_NO":"１６０號","E_COORD97":174664.23999999999,"N_COORD97":2544613.7400000002,"ADDRESS":"大灣一街１６０號","OBJECTID":267672},"geometry":{"x":174664.24000000115,"y":2544613.7400000021}},{"attributes":{"ID":267678,"DIS_CODE":0,"TOWNNAME":"永康區","LI":"復國里","LIN":"3鄰","STREET":"復國一路","SECT":" ","MAREA":" ","LANE":" ","ALLEY":" ","HOUSE_NO":"４０號","E_COORD97":172726.51000000001,"N_COORD97":2544788.7799999998,"ADDRESS":"復國一路４０號","OBJECTID":267673},"geometry":{"x":172726.50999999978,"y":2544788.7800000012}},{"attributes":{"ID":267679,"DIS_CODE":0,"TOWNNAME":"永康區","LI":"龍潭里","LIN":"3鄰","STREET":"龍安街","SECT":" ","MAREA":" ","LANE":" ","ALLEY":" ","HOUSE_NO":"６２號","E_COORD97":174595.76999999999,"N_COORD97":2548175.3700000001,"ADDRESS":"龍安街６２號","OBJECTID":267674},"geometry":{"x":174595.77000000048,"y":2548175.370000001}},{"attributes":{"ID":267680,"DIS_CODE":0,"TOWNNAME":"北區","LI":"中樓里","LIN":"14鄰","STREET":"開元路","SECT":" ","MAREA":" ","LANE":"９０巷","ALLEY":" ","HOUSE_NO":"１１號","E_COORD97":169802.16,"N_COORD97":2545152.9100000001,"ADDRESS":"開元路９０巷１１號","OBJECTID":267675},"geometry":{"x":169802.16000000015,"y":2545152.9100000001}},{"attributes":{"ID":267681,"DIS_CODE":0,"TOWNNAME":"北區","LI":"中樓里","LIN":"14鄰","STREET":"開元路","SECT":" ","MAREA":" ","LANE":"９０巷","ALLEY":" ","HOUSE_NO":"１３號","E_COORD97":169825.31,"N_COORD97":2545158.6600000001,"ADDRESS":"開元路９０巷１３號","OBJECTID":267676},"geometry":{"x":169825.31000000052,"y":2545158.6600000001}},{"attributes":{"ID":267682,"DIS_CODE":0,"TOWNNAME":"麻豆區","LI":"中民里","LIN":"3鄰","STREET":" ","SECT":" ","MAREA":"謝厝寮","LANE":" ","ALLEY":" ","HOUSE_NO":"９８號","E_COORD97":171749.45000000001,"N_COORD97":2560772.0099999998,"ADDRESS":"謝厝寮９８號","OBJECTID":267677},"geometry":{"x":171749.45000000019,"y":2560772.0099999998}},{"attributes":{"ID":267683,"DIS_CODE":0,"TOWNNAME":"北區","LI":"中樓里","LIN":"14鄰","STREET":"開元路","SECT":" ","MAREA":" ","LANE":"９０巷","ALLEY":" ","HOUSE_NO":"１７號","E_COORD97":169837.04000000001,"N_COORD97":2545164.0099999998,"ADDRESS":"開元路９０巷１７號","OBJECTID":267678},"geometry":{"x":169837.0400000019,"y":2545164.0100000016}},{"attributes":{"ID":267684,"DIS_CODE":0,"TOWNNAME":"新營區","LI":"護鎮里","LIN":"3鄰","STREET":" ","SECT":" ","MAREA":"後鎮","LANE":" ","ALLEY":" ","HOUSE_NO":"２５號","E_COORD97":179271.35999999999,"N_COORD97":2581083.4500000002,"ADDRESS":"後鎮２５號","OBJECTID":267679},"geometry":{"x":179271.36000000127,"y":2581083.4499999993}},{"attributes":{"ID":267685,"DIS_CODE":0,"TOWNNAME":"將軍區","LI":"西華里","LIN":"3鄰","STREET":" ","SECT":" ","MAREA":"西華","LANE":" ","ALLEY":" ","HOUSE_NO":"５８之３號","E_COORD97":163771.37,"N_COORD97":2566218.8999999999,"ADDRESS":"西華５８之３號","OBJECTID":267680},"geometry":{"x":163771.37000000104,"y":2566218.9000000041}},{"attributes":{"ID":267686,"DIS_CODE":0,"TOWNNAME":"北區","LI":"中樓里","LIN":"14鄰","STREET":"開元路","SECT":" ","MAREA":" ","LANE":"９０巷","ALLEY":" ","HOUSE_NO":"１９號","E_COORD97":169842.60000000001,"N_COORD97":2545165.6600000001,"ADDRESS":"開元路９０巷１９號","OBJECTID":267681},"geometry":{"x":169842.59999999963,"y":2545165.6599999983}},{"attributes":{"ID":267687,"DIS_CODE":0,"TOWNNAME":"北區","LI":"中樓里","LIN":"14鄰","STREET":"開元路","SECT":" ","MAREA":" ","LANE":"９０巷","ALLEY":" ","HOUSE_NO":"２３號","E_COORD97":169854.75,"N_COORD97":2545168.7400000002,"ADDRESS":"開元路９０巷２３號","OBJECTID":267682},"geometry":{"x":169854.75000000093,"y":2545168.7400000039}},{"attributes":{"ID":267688,"DIS_CODE":0,"TOWNNAME":"將軍區","LI":"西華里","LIN":"3鄰","STREET":" ","SECT":" ","MAREA":"西華","LANE":" ","ALLEY":" ","HOUSE_NO":"５８之４５號","E_COORD97":163715.75,"N_COORD97":2566264.29,"ADDRESS":"西華５８之４５號","OBJECTID":267683},"geometry":{"x":163715.75,"y":2566264.2899999991}},{"attributes":{"ID":267689,"DIS_CODE":0,"TOWNNAME":"北區","LI":"中樓里","LIN":"14鄰","STREET":"開元路","SECT":" ","MAREA":" ","LANE":"９０巷","ALLEY":" ","HOUSE_NO":"２５號","E_COORD97":169857.53,"N_COORD97":2545177.2799999998,"ADDRESS":"開元路９０巷２５號","OBJECTID":267684},"geometry":{"x":169857.53000000026,"y":2545177.2799999993}},{"attributes":{"ID":267690,"DIS_CODE":0,"TOWNNAME":"將軍區","LI":"西華里","LIN":"3鄰","STREET":" ","SECT":" ","MAREA":"西華","LANE":" ","ALLEY":" ","HOUSE_NO":"５８之６０號","E_COORD97":163703.69,"N_COORD97":2566160.8399999999,"ADDRESS":"西華５８之６０號","OBJECTID":267685},"geometry":{"x":163703.69000000134,"y":2566160.8400000036}},{"attributes":{"ID":267691,"DIS_CODE":0,"TOWNNAME":"北區","LI":"中樓里","LIN":"14鄰","STREET":"開元路","SECT":" ","MAREA":" ","LANE":"９０巷","ALLEY":" ","HOUSE_NO":"２７號","E_COORD97":169858.76000000001,"N_COORD97":2545173.4700000002,"ADDRESS":"開元路９０巷２７號","OBJECTID":267686},"geometry":{"x":169858.75999999978,"y":2545173.4700000007}},{"attributes":{"ID":267692,"DIS_CODE":0,"TOWNNAME":"永康區","LI":"龍潭里","LIN":"3鄰","STREET":"龍安街","SECT":" ","MAREA":" ","LANE":" ","ALLEY":" ","HOUSE_NO":"３２號","E_COORD97":174585.95999999999,"N_COORD97":2548107.3500000001,"ADDRESS":"龍安街３２號","OBJECTID":267687},"geometry":{"x":174585.96000000089,"y":2548107.3500000015}},{"attributes":{"ID":267693,"DIS_CODE":0,"TOWNNAME":"將軍區","LI":"西華里","LIN":"3鄰","STREET":" ","SECT":" ","MAREA":"西華","LANE":" ","ALLEY":" ","HOUSE_NO":"５８之６２號","E_COORD97":163699.41,"N_COORD97":2566160.8199999998,"ADDRESS":"西華５８之６２號","OBJECTID":267688},"geometry":{"x":163699.41000000015,"y":2566160.8200000003}},{"attributes":{"ID":267694,"DIS_CODE":0,"TOWNNAME":"將軍區","LI":"西華里","LIN":"3鄰","STREET":" ","SECT":" ","MAREA":"西華","LANE":" ","ALLEY":" ","HOUSE_NO":"５８之６４號","E_COORD97":163694.95999999999,"N_COORD97":2566160.5,"ADDRESS":"西華５８之６４號","OBJECTID":267689},"geometry":{"x":163694.96000000089,"y":2566160.5000000019}},{"attributes":{"ID":267695,"DIS_CODE":0,"TOWNNAME":"將軍區","LI":"西華里","LIN":"3鄰","STREET":" ","SECT":" ","MAREA":"西華","LANE":" ","ALLEY":" ","HOUSE_NO":"５８之６６號","E_COORD97":163690.51999999999,"N_COORD97":2566160.4199999999,"ADDRESS":"西華５８之６６號","OBJECTID":267690},"geometry":{"x":163690.52000000048,"y":2566160.4200000037}},{"attributes":{"ID":267696,"DIS_CODE":0,"TOWNNAME":"將軍區","LI":"西華里","LIN":"3鄰","STREET":" ","SECT":" ","MAREA":"西華","LANE":" ","ALLEY":" ","HOUSE_NO":"５８之６號","E_COORD97":163759.41,"N_COORD97":2566257.8199999998,"ADDRESS":"西華５８之６號","OBJECTID":267691},"geometry":{"x":163759.41000000108,"y":2566257.8200000022}},{"attributes":{"ID":267697,"DIS_CODE":0,"TOWNNAME":"將軍區","LI":"西華里","LIN":"3鄰","STREET":" ","SECT":" ","MAREA":"西華","LANE":" ","ALLEY":" ","HOUSE_NO":"５８之７號","E_COORD97":163758.07000000001,"N_COORD97":2566261.96,"ADDRESS":"西華５８之７號","OBJECTID":267692},"geometry":{"x":163758.06999999937,"y":2566261.9600000009}},{"attributes":{"ID":267698,"DIS_CODE":0,"TOWNNAME":"將軍區","LI":"西華里","LIN":"3鄰","STREET":" ","SECT":" ","MAREA":"西華","LANE":" ","ALLEY":" ","HOUSE_NO":"５８之８號","E_COORD97":163756.31,"N_COORD97":2566265.7400000002,"ADDRESS":"西華５８之８號","OBJECTID":267693},"geometry":{"x":163756.31000000052,"y":2566265.7400000002}},{"attributes":{"ID":267699,"DIS_CODE":0,"TOWNNAME":"將軍區","LI":"西華里","LIN":"3鄰","STREET":" ","SECT":" ","MAREA":"西華","LANE":" ","ALLEY":" ","HOUSE_NO":"５８之９號","E_COORD97":163754.89999999999,"N_COORD97":2566269.6099999999,"ADDRESS":"西華５８之９號","OBJECTID":267694},"geometry":{"x":163754.9000000013,"y":2566269.6099999994}},{"attributes":{"ID":267700,"DIS_CODE":0,"TOWNNAME":"永康區","LI":"新樹里","LIN":"3鄰","STREET":"富強路","SECT":"二段","MAREA":" ","LANE":" ","ALLEY":" ","HOUSE_NO":"３５５號","E_COORD97":175547.57000000001,"N_COORD97":2547636.77,"ADDRESS":"富強路二段３５５號","OBJECTID":267695},"geometry":{"x":175547.5700000003,"y":2547636.7700000014}},{"attributes":{"ID":267701,"DIS_CODE":0,"TOWNNAME":"永康區","LI":"龍潭里","LIN":"3鄰","STREET":"龍國街","SECT":" ","MAREA":" ","LANE":" ","ALLEY":" ","HOUSE_NO":"３０５號","E_COORD97":174668.26999999999,"N_COORD97":2548024.3500000001,"ADDRESS":"龍國街３０５號","OBJECTID":267696},"geometry":{"x":174668.27000000048,"y":2548024.3499999996}},{"attributes":{"ID":267702,"DIS_CODE":0,"TOWNNAME":"北區","LI":"中樓里","LIN":"14鄰","STREET":"開元路","SECT":" ","MAREA":" ","LANE":"９０巷","ALLEY":" ","HOUSE_NO":"３１號","E_COORD97":169860.92000000001,"N_COORD97":2545166.48,"ADDRESS":"開元路９０巷３１號","OBJECTID":267697},"geometry":{"x":169860.91999999993,"y":2545166.4800000004}},{"attributes":{"ID":267703,"DIS_CODE":0,"TOWNNAME":"北區","LI":"中樓里","LIN":"14鄰","STREET":"開元路","SECT":" ","MAREA":" ","LANE":"９０巷","ALLEY":" ","HOUSE_NO":"４１號","E_COORD97":169807.95999999999,"N_COORD97":2545143.1099999999,"ADDRESS":"開元路９０巷４１號","OBJECTID":267698},"geometry":{"x":169807.95999999996,"y":2545143.1100000013}},{"attributes":{"ID":267704,"DIS_CODE":0,"TOWNNAME":"北區","LI":"中樓里","LIN":"14鄰","STREET":"開元路","SECT":" ","MAREA":" ","LANE":"９０巷","ALLEY":" ","HOUSE_NO":"５號","E_COORD97":169799.69,"N_COORD97":2545166.0699999998,"ADDRESS":"開元路９０巷５號","OBJECTID":267699},"geometry":{"x":169799.69000000134,"y":2545166.0700000003}},{"attributes":{"ID":267705,"DIS_CODE":0,"TOWNNAME":"將軍區","LI":"忠興里","LIN":"3鄰","STREET":" ","SECT":" ","MAREA":"忠興","LANE":" ","ALLEY":" ","HOUSE_NO":"３８之１號","E_COORD97":163679.26999999999,"N_COORD97":2566794.21,"ADDRESS":"忠興３８之１號","OBJECTID":267700},"geometry":{"x":163679.26999999955,"y":2566794.2100000028}},{"attributes":{"ID":267706,"DIS_CODE":0,"TOWNNAME":"北區","LI":"中樓里","LIN":"14鄰","STREET":"開元路","SECT":" ","MAREA":" ","LANE":"９０巷","ALLEY":" ","HOUSE_NO":"７號","E_COORD97":169800.31,"N_COORD97":2545161.75,"ADDRESS":"開元路９０巷７號","OBJECTID":267701},"geometry":{"x":169800.30999999959,"y":2545161.7500000037}},{"attributes":{"ID":267707,"DIS_CODE":0,"TOWNNAME":"北區","LI":"大道里","LIN":"14鄰","STREET":"北門路","SECT":"二段","MAREA":" ","LANE":"５２７巷","ALLEY":" ","HOUSE_NO":"２５號","E_COORD97":169513.29000000001,"N_COORD97":2545619.3799999999,"ADDRESS":"北門路二段５２７巷２５號","OBJECTID":267702},"geometry":{"x":169513.2900000019,"y":2545619.379999999}},{"attributes":{"ID":267708,"DIS_CODE":0,"TOWNNAME":"將軍區","LI":"忠興里","LIN":"3鄰","STREET":" ","SECT":" ","MAREA":"忠興","LANE":" ","ALLEY":" ","HOUSE_NO":"３８號","E_COORD97":163691.12,"N_COORD97":2566804.0899999999,"ADDRESS":"忠興３８號","OBJECTID":267703},"geometry":{"x":163691.12000000011,"y":2566804.0900000017}},{"attributes":{"ID":267709,"DIS_CODE":0,"TOWNNAME":"北區","LI":"大道里","LIN":"14鄰","STREET":"北門路","SECT":"二段","MAREA":" ","LANE":"５２７巷","ALLEY":" ","HOUSE_NO":"２７號","E_COORD97":169528.20999999999,"N_COORD97":2545620.8900000001,"ADDRESS":"北門路二段５２７巷２７號","OBJECTID":267704},"geometry":{"x":169528.20999999996,"y":2545620.8900000006}},{"attributes":{"ID":267710,"DIS_CODE":0,"TOWNNAME":"北區","LI":"振興里","LIN":"14鄰","STREET":"開元路","SECT":" ","MAREA":" ","LANE":"２１２巷","ALLEY":" ","HOUSE_NO":"５６號","E_COORD97":170298.25,"N_COORD97":2545175.73,"ADDRESS":"開元路２１２巷５６號","OBJECTID":267705},"geometry":{"x":170298.24999999907,"y":2545175.7299999986}},{"attributes":{"ID":267711,"DIS_CODE":0,"TOWNNAME":"將軍區","LI":"忠興里","LIN":"3鄰","STREET":" ","SECT":" ","MAREA":"忠興","LANE":" ","ALLEY":" ","HOUSE_NO":"４０之１號","E_COORD97":163727.17000000001,"N_COORD97":2566796.1099999999,"ADDRESS":"忠興４０之１號","OBJECTID":267706},"geometry":{"x":163727.17000000086,"y":2566796.1100000031}},{"attributes":{"ID":267712,"DIS_CODE":0,"TOWNNAME":"南區","LI":"文華里","LIN":"14鄰","STREET":"金華路","SECT":"二段","MAREA":" ","LANE":"３８５巷","ALLEY":" ","HOUSE_NO":"１０號","E_COORD97":167089.45999999999,"N_COORD97":2543025.3700000001,"ADDRESS":"金華路二段３８５巷１０號","OBJECTID":267707},"geometry":{"x":167089.45999999996,"y":2543025.370000001}},{"attributes":{"ID":267713,"DIS_CODE":0,"TOWNNAME":"將軍區","LI":"忠興里","LIN":"3鄰","STREET":" ","SECT":" ","MAREA":"忠興","LANE":" ","ALLEY":" ","HOUSE_NO":"４１之１號","E_COORD97":163758.84,"N_COORD97":2566794.3799999999,"ADDRESS":"忠興４１之１號","OBJECTID":267708},"geometry":{"x":163758.83999999985,"y":2566794.3800000008}},{"attributes":{"ID":267714,"DIS_CODE":0,"TOWNNAME":"將軍區","LI":"忠興里","LIN":"3鄰","STREET":" ","SECT":" ","MAREA":"忠興","LANE":" ","ALLEY":" ","HOUSE_NO":"４１之６號","E_COORD97":163793.19,"N_COORD97":2566795.3799999999,"ADDRESS":"忠興４１之６號","OBJECTID":267709},"geometry":{"x":163793.19000000227,"y":2566795.3800000008}},{"attributes":{"ID":267715,"DIS_CODE":0,"TOWNNAME":"將軍區","LI":"忠興里","LIN":"3鄰","STREET":" ","SECT":" ","MAREA":"忠興","LANE":" ","ALLEY":" ","HOUSE_NO":"４１之７號","E_COORD97":163798.26000000001,"N_COORD97":2566795.2999999998,"ADDRESS":"忠興４１之７號","OBJECTID":267710},"geometry":{"x":163798.25999999978,"y":2566795.3000000007}},{"attributes":{"ID":267716,"DIS_CODE":0,"TOWNNAME":"將軍區","LI":"忠興里","LIN":"3鄰","STREET":" ","SECT":" ","MAREA":"忠興","LANE":" ","ALLEY":" ","HOUSE_NO":"４１之８號","E_COORD97":163802.97,"N_COORD97":2566795.25,"ADDRESS":"忠興４１之８號","OBJECTID":267711},"geometry":{"x":163802.97000000067,"y":2566795.25}},{"attributes":{"ID":267717,"DIS_CODE":0,"TOWNNAME":"南區","LI":"文華里","LIN":"14鄰","STREET":"金華路","SECT":"二段","MAREA":" ","LANE":"３８５巷","ALLEY":" ","HOUSE_NO":"１２號","E_COORD97":167084.16,"N_COORD97":2543025.6400000001,"ADDRESS":"金華路二段３８５巷１２號","OBJECTID":267712},"geometry":{"x":167084.16000000108,"y":2543025.6400000006}},{"attributes":{"ID":267718,"DIS_CODE":0,"TOWNNAME":"新營區","LI":"護鎮里","LIN":"3鄰","STREET":" ","SECT":" ","MAREA":"後鎮","LANE":" ","ALLEY":" ","HOUSE_NO":"２７號","E_COORD97":179255.91,"N_COORD97":2581060.27,"ADDRESS":"後鎮２７號","OBJECTID":267713},"geometry":{"x":179255.91000000015,"y":2581060.2699999996}},{"attributes":{"ID":267719,"DIS_CODE":0,"TOWNNAME":"六甲區","LI":"中社里","LIN":"3鄰","STREET":" ","SECT":" ","MAREA":"中社","LANE":" ","ALLEY":" ","HOUSE_NO":"８７號","E_COORD97":181134.20000000001,"N_COORD97":2570800.9500000002,"ADDRESS":"中社８７號","OBJECTID":267714},"geometry":{"x":181134.20000000019,"y":2570800.950000003}},{"attributes":{"ID":267720,"DIS_CODE":0,"TOWNNAME":"南區","LI":"文華里","LIN":"14鄰","STREET":"金華路","SECT":"二段","MAREA":" ","LANE":"３８５巷","ALLEY":" ","HOUSE_NO":"１６號","E_COORD97":167074.10000000001,"N_COORD97":2543026.8999999999,"ADDRESS":"金華路二段３８５巷１６號","OBJECTID":267715},"geometry":{"x":167074.09999999963,"y":2543026.9000000004}},{"attributes":{"ID":267721,"DIS_CODE":0,"TOWNNAME":"歸仁區","LI":"南保里","LIN":"55鄰","STREET":"民權南路","SECT":" ","MAREA":" ","LANE":"１９６巷","ALLEY":" ","HOUSE_NO":"１４號","E_COORD97":176909.92000000001,"N_COORD97":2540368.3399999999,"ADDRESS":"民權南路１９６巷１４號","OBJECTID":267716},"geometry":{"x":176909.91999999993,"y":2540368.3400000017}},{"attributes":{"ID":267722,"DIS_CODE":0,"TOWNNAME":"白河區","LI":"廣安里","LIN":"3鄰","STREET":" ","SECT":" ","MAREA":"枋子林","LANE":" ","ALLEY":" ","HOUSE_NO":"１號","E_COORD97":189112.76999999999,"N_COORD97":2587296.1800000002,"ADDRESS":"枋子林１號","OBJECTID":267717},"geometry":{"x":189112.77000000142,"y":2587296.1799999997}},{"attributes":{"ID":267723,"DIS_CODE":0,"TOWNNAME":"白河區","LI":"崁頭里","LIN":"3鄰","STREET":" ","SECT":" ","MAREA":"崁子頭","LANE":" ","ALLEY":" ","HOUSE_NO":"２９號","E_COORD97":190610.01999999999,"N_COORD97":2580669.1299999999,"ADDRESS":"崁子頭２９號","OBJECTID":267718},"geometry":{"x":190610.02000000048,"y":2580669.1300000027}},{"attributes":{"ID":267724,"DIS_CODE":0,"TOWNNAME":"白河區","LI":"崁頭里","LIN":"3鄰","STREET":" ","SECT":" ","MAREA":"崁子頭","LANE":" ","ALLEY":" ","HOUSE_NO":"３０號","E_COORD97":190632.16,"N_COORD97":2580660.73,"ADDRESS":"崁子頭３０號","OBJECTID":267719},"geometry":{"x":190632.16000000015,"y":2580660.7300000023}},{"attributes":{"ID":267725,"DIS_CODE":0,"TOWNNAME":"白河區","LI":"崁頭里","LIN":"3鄰","STREET":" ","SECT":" ","MAREA":"崁子頭","LANE":" ","ALLEY":" ","HOUSE_NO":"３１號","E_COORD97":190657.29999999999,"N_COORD97":2580654.2400000002,"ADDRESS":"崁子頭３１號","OBJECTID":267720},"geometry":{"x":190657.30000000075,"y":2580654.2400000002}},{"attributes":{"ID":267726,"DIS_CODE":0,"TOWNNAME":"白河區","LI":"崁頭里","LIN":"3鄰","STREET":" ","SECT":" ","MAREA":"崁子頭","LANE":" ","ALLEY":" ","HOUSE_NO":"３２號","E_COORD97":190681.98000000001,"N_COORD97":2580687.9700000002,"ADDRESS":"崁子頭３２號","OBJECTID":267721},"geometry":{"x":190681.98000000231,"y":2580687.9700000007}},{"attributes":{"ID":267727,"DIS_CODE":0,"TOWNNAME":"白河區","LI":"崁頭里","LIN":"3鄰","STREET":" ","SECT":" ","MAREA":"崁子頭","LANE":" ","ALLEY":" ","HOUSE_NO":"３３之１號","E_COORD97":190715.09,"N_COORD97":2580644.8300000001,"ADDRESS":"崁子頭３３之１號","OBJECTID":267722},"geometry":{"x":190715.09000000078,"y":2580644.8300000038}},{"attributes":{"ID":267728,"DIS_CODE":0,"TOWNNAME":"白河區","LI":"崁頭里","LIN":"3鄰","STREET":" ","SECT":" ","MAREA":"崁子頭","LANE":" ","ALLEY":" ","HOUSE_NO":"３３之２號","E_COORD97":190863.17999999999,"N_COORD97":2580574.6299999999,"ADDRESS":"崁子頭３３之２號","OBJECTID":267723},"geometry":{"x":190863.18000000063,"y":2580574.6300000008}},{"attributes":{"ID":267729,"DIS_CODE":0,"TOWNNAME":"白河區","LI":"崁頭里","LIN":"3鄰","STREET":" ","SECT":" ","MAREA":"崁子頭","LANE":" ","ALLEY":" ","HOUSE_NO":"３３之３號","E_COORD97":190702.70000000001,"N_COORD97":2580622.8500000001,"ADDRESS":"崁子頭３３之３號","OBJECTID":267724},"geometry":{"x":190702.70000000112,"y":2580622.8499999996}},{"attributes":{"ID":267730,"DIS_CODE":0,"TOWNNAME":"白河區","LI":"崁頭里","LIN":"3鄰","STREET":" ","SECT":" ","MAREA":"崁子頭","LANE":" ","ALLEY":" ","HOUSE_NO":"３３之６號","E_COORD97":190757.26000000001,"N_COORD97":2580621.02,"ADDRESS":"崁子頭３３之６號","OBJECTID":267725},"geometry":{"x":190757.26000000164,"y":2580621.0200000014}},{"attributes":{"ID":267731,"DIS_CODE":0,"TOWNNAME":"白河區","LI":"崁頭里","LIN":"3鄰","STREET":" ","SECT":" ","MAREA":"崁子頭","LANE":" ","ALLEY":" ","HOUSE_NO":"３３號","E_COORD97":190681.64000000001,"N_COORD97":2580640.4399999999,"ADDRESS":"崁子頭３３號","OBJECTID":267726},"geometry":{"x":190681.63999999873,"y":2580640.4400000032}},{"attributes":{"ID":267732,"DIS_CODE":0,"TOWNNAME":"白河區","LI":"草店里","LIN":"3鄰","STREET":" ","SECT":" ","MAREA":"草店","LANE":" ","ALLEY":" ","HOUSE_NO":"２０之１號","E_COORD97":192220.19,"N_COORD97":2587909.5600000001,"ADDRESS":"草店２０之１號","OBJECTID":267727},"geometry":{"x":192220.19000000134,"y":2587909.5600000042}},{"attributes":{"ID":267733,"DIS_CODE":0,"TOWNNAME":"白河區","LI":"草店里","LIN":"3鄰","STREET":" ","SECT":" ","MAREA":"草店","LANE":" ","ALLEY":" ","HOUSE_NO":"２０號","E_COORD97":192219.67000000001,"N_COORD97":2587923.2400000002,"ADDRESS":"草店２０號","OBJECTID":267728},"geometry":{"x":192219.67000000086,"y":2587923.2400000002}},{"attributes":{"ID":267734,"DIS_CODE":0,"TOWNNAME":"白河區","LI":"秀祐里","LIN":"3鄰","STREET":" ","SECT":" ","MAREA":"頂秀祐","LANE":" ","ALLEY":" ","HOUSE_NO":"３５號","E_COORD97":188886.25,"N_COORD97":2583404.3599999999,"ADDRESS":"頂秀祐３５號","OBJECTID":267729},"geometry":{"x":188886.25000000186,"y":2583404.3600000013}},{"attributes":{"ID":267735,"DIS_CODE":0,"TOWNNAME":"白河區","LI":"秀祐里","LIN":"3鄰","STREET":" ","SECT":" ","MAREA":"頂秀祐","LANE":" ","ALLEY":" ","HOUSE_NO":"３６之２號","E_COORD97":188931.64999999999,"N_COORD97":2583434.9100000001,"ADDRESS":"頂秀祐３６之２號","OBJECTID":267730},"geometry":{"x":188931.6500000013,"y":2583434.9100000039}},{"attributes":{"ID":267736,"DIS_CODE":0,"TOWNNAME":"白河區","LI":"秀祐里","LIN":"3鄰","STREET":" ","SECT":" ","MAREA":"頂秀祐","LANE":" ","ALLEY":" ","HOUSE_NO":"３６號","E_COORD97":188919.47,"N_COORD97":2583418.6099999999,"ADDRESS":"頂秀祐３６號","OBJECTID":267731},"geometry":{"x":188919.46999999974,"y":2583418.6099999994}},{"attributes":{"ID":267737,"DIS_CODE":0,"TOWNNAME":"白河區","LI":"秀祐里","LIN":"3鄰","STREET":" ","SECT":" ","MAREA":"頂秀祐","LANE":" ","ALLEY":" ","HOUSE_NO":"３８之１號","E_COORD97":188882.75,"N_COORD97":2583420.6899999999,"ADDRESS":"頂秀祐３８之１號","OBJECTID":267732},"geometry":{"x":188882.75000000186,"y":2583420.6899999995}},{"attributes":{"ID":267738,"DIS_CODE":0,"TOWNNAME":"白河區","LI":"秀祐里","LIN":"3鄰","STREET":" ","SECT":" ","MAREA":"頂秀祐","LANE":" ","ALLEY":" ","HOUSE_NO":"３８號","E_COORD97":188879.04000000001,"N_COORD97":2583384.3500000001,"ADDRESS":"頂秀祐３８號","OBJECTID":267733},"geometry":{"x":188879.03999999911,"y":2583384.3500000015}},{"attributes":{"ID":267739,"DIS_CODE":0,"TOWNNAME":"白河區","LI":"秀祐里","LIN":"3鄰","STREET":" ","SECT":" ","MAREA":"頂秀祐","LANE":" ","ALLEY":" ","HOUSE_NO":"３９號","E_COORD97":188879.13,"N_COORD97":2583444.0299999998,"ADDRESS":"頂秀祐３９號","OBJECTID":267734},"geometry":{"x":188879.13000000082,"y":2583444.0300000012}},{"attributes":{"ID":267740,"DIS_CODE":0,"TOWNNAME":"白河區","LI":"秀祐里","LIN":"3鄰","STREET":" ","SECT":" ","MAREA":"頂秀祐","LANE":" ","ALLEY":" ","HOUSE_NO":"４０之１號","E_COORD97":188885.72,"N_COORD97":2583476.77,"ADDRESS":"頂秀祐４０之１號","OBJECTID":267735},"geometry":{"x":188885.71999999974,"y":2583476.7700000014}},{"attributes":{"ID":267741,"DIS_CODE":0,"TOWNNAME":"白河區","LI":"秀祐里","LIN":"3鄰","STREET":" ","SECT":" ","MAREA":"頂秀祐","LANE":" ","ALLEY":" ","HOUSE_NO":"４０號","E_COORD97":188865.45999999999,"N_COORD97":2583469,"ADDRESS":"頂秀祐４０號","OBJECTID":267736},"geometry":{"x":188865.45999999996,"y":2583469.0000000019}},{"attributes":{"ID":267742,"DIS_CODE":0,"TOWNNAME":"白河區","LI":"秀祐里","LIN":"3鄰","STREET":" ","SECT":" ","MAREA":"頂秀祐","LANE":" ","ALLEY":" ","HOUSE_NO":"４１號","E_COORD97":188862.07999999999,"N_COORD97":2583478.79,"ADDRESS":"頂秀祐４１號","OBJECTID":267737},"geometry":{"x":188862.08000000101,"y":2583478.7900000028}},{"attributes":{"ID":267743,"DIS_CODE":0,"TOWNNAME":"白河區","LI":"秀祐里","LIN":"3鄰","STREET":" ","SECT":" ","MAREA":"頂秀祐","LANE":" ","ALLEY":" ","HOUSE_NO":"４２號","E_COORD97":188858.78,"N_COORD97":2583493.6099999999,"ADDRESS":"頂秀祐４２號","OBJECTID":267738},"geometry":{"x":188858.78000000026,"y":2583493.6100000031}},{"attributes":{"ID":267744,"DIS_CODE":0,"TOWNNAME":"白河區","LI":"秀祐里","LIN":"3鄰","STREET":" ","SECT":" ","MAREA":"頂秀祐","LANE":" ","ALLEY":" ","HOUSE_NO":"４３之３號","E_COORD97":188844.64999999999,"N_COORD97":2583513.0299999998,"ADDRESS":"頂秀祐４３之３號","OBJECTID":267739},"geometry":{"x":188844.65000000037,"y":2583513.0299999993}},{"attributes":{"ID":267745,"DIS_CODE":0,"TOWNNAME":"白河區","LI":"秀祐里","LIN":"3鄰","STREET":" ","SECT":" ","MAREA":"頂秀祐","LANE":" ","ALLEY":" ","HOUSE_NO":"４９號","E_COORD97":188810.62,"N_COORD97":2583489.2000000002,"ADDRESS":"頂秀祐４９號","OBJECTID":267740},"geometry":{"x":188810.62000000011,"y":2583489.1999999993}},{"attributes":{"ID":267746,"DIS_CODE":0,"TOWNNAME":"麻豆區","LI":"中民里","LIN":"3鄰","STREET":" ","SECT":" ","MAREA":"謝厝寮","LANE":" ","ALLEY":" ","HOUSE_NO":"９５號之１","E_COORD97":171772.95000000001,"N_COORD97":2560797.6200000001,"ADDRESS":"謝厝寮９５號之１","OBJECTID":267741},"geometry":{"x":171772.95000000019,"y":2560797.6200000029}},{"attributes":{"ID":267747,"DIS_CODE":0,"TOWNNAME":"麻豆區","LI":"中民里","LIN":"3鄰","STREET":" ","SECT":" ","MAREA":"謝厝寮","LANE":" ","ALLEY":" ","HOUSE_NO":"９６號","E_COORD97":171767.09,"N_COORD97":2560789.7200000002,"ADDRESS":"謝厝寮９６號","OBJECTID":267742},"geometry":{"x":171767.08999999985,"y":2560789.7200000025}},{"attributes":{"ID":267748,"DIS_CODE":0,"TOWNNAME":"麻豆區","LI":"中民里","LIN":"3鄰","STREET":" ","SECT":" ","MAREA":"謝厝寮","LANE":" ","ALLEY":" ","HOUSE_NO":"９７號","E_COORD97":171779.76000000001,"N_COORD97":2560761.6699999999,"ADDRESS":"謝厝寮９７號","OBJECTID":267743},"geometry":{"x":171779.76000000164,"y":2560761.6700000018}},{"attributes":{"ID":267749,"DIS_CODE":0,"TOWNNAME":"安南區","LI":"州南里","LIN":"28鄰","STREET":"長和路","SECT":"二段","MAREA":" ","LANE":"１４０巷","ALLEY":" ","HOUSE_NO":"２５號","E_COORD97":170138.70999999999,"N_COORD97":2551628.3100000001,"ADDRESS":"長和路二段１４０巷２５號","OBJECTID":267744},"geometry":{"x":170138.70999999996,"y":2551628.3100000024}},{"attributes":{"ID":267750,"DIS_CODE":0,"TOWNNAME":"麻豆區","LI":"中民里","LIN":"3鄰","STREET":" ","SECT":" ","MAREA":"謝厝寮","LANE":" ","ALLEY":" ","HOUSE_NO":"９９號之１","E_COORD97":171776.89999999999,"N_COORD97":2560755.7000000002,"ADDRESS":"謝厝寮９９號之１","OBJECTID":267745},"geometry":{"x":171776.90000000037,"y":2560755.6999999993}},{"attributes":{"ID":267751,"DIS_CODE":0,"TOWNNAME":"安定區","LI":"管寮里","LIN":"3鄰","STREET":" ","SECT":" ","MAREA":"管寮","LANE":" ","ALLEY":" ","HOUSE_NO":"２４號","E_COORD97":170178.34,"N_COORD97":2556281.25,"ADDRESS":"管寮２４號","OBJECTID":267746},"geometry":{"x":170178.33999999985,"y":2556281.25}},{"attributes":{"ID":267752,"DIS_CODE":0,"TOWNNAME":"安定區","LI":"中榮里","LIN":"3鄰","STREET":" ","SECT":" ","MAREA":"許中營","LANE":" ","ALLEY":" ","HOUSE_NO":"３０之２０號","E_COORD97":172450.39000000001,"N_COORD97":2554945.2999999998,"ADDRESS":"許中營３０之２０號","OBJECTID":267747},"geometry":{"x":172450.3900000006,"y":2554945.3000000007}},{"attributes":{"ID":267753,"DIS_CODE":0,"TOWNNAME":"安定區","LI":"海寮里","LIN":"3鄰","STREET":" ","SECT":" ","MAREA":"海寮","LANE":" ","ALLEY":" ","HOUSE_NO":"３０之３號","E_COORD97":169506.39000000001,"N_COORD97":2555257.2999999998,"ADDRESS":"海寮３０之３號","OBJECTID":267748},"geometry":{"x":169506.38999999966,"y":2555257.3000000007}},{"attributes":{"ID":267754,"DIS_CODE":0,"TOWNNAME":"麻豆區","LI":"中民里","LIN":"3鄰","STREET":" ","SECT":" ","MAREA":"謝厝寮","LANE":" ","ALLEY":" ","HOUSE_NO":"１０１號之１０","E_COORD97":171829.31,"N_COORD97":2560548.7799999998,"ADDRESS":"謝厝寮１０１號之１０","OBJECTID":267749},"geometry":{"x":171829.30999999959,"y":2560548.7799999993}},{"attributes":{"ID":267755,"DIS_CODE":0,"TOWNNAME":"麻豆區","LI":"中民里","LIN":"3鄰","STREET":" ","SECT":" ","MAREA":"謝厝寮","LANE":" ","ALLEY":" ","HOUSE_NO":"１０１號之１","E_COORD97":171706.73999999999,"N_COORD97":2560736.75,"ADDRESS":"謝厝寮１０１號之１","OBJECTID":267750},"geometry":{"x":171706.74000000022,"y":2560736.75}},{"attributes":{"ID":267756,"DIS_CODE":0,"TOWNNAME":"麻豆區","LI":"中民里","LIN":"3鄰","STREET":" ","SECT":" ","MAREA":"謝厝寮","LANE":" ","ALLEY":" ","HOUSE_NO":"１０１號之２","E_COORD97":171699.47,"N_COORD97":2560724.0499999998,"ADDRESS":"謝厝寮１０１號之２","OBJECTID":267751},"geometry":{"x":171699.46999999974,"y":2560724.0500000007}},{"attributes":{"ID":267757,"DIS_CODE":0,"TOWNNAME":"麻豆區","LI":"中民里","LIN":"3鄰","STREET":" ","SECT":" ","MAREA":"謝厝寮","LANE":" ","ALLEY":" ","HOUSE_NO":"１０１號之３３","E_COORD97":171869.06,"N_COORD97":2560680.7400000002,"ADDRESS":"謝厝寮１０１號之３３","OBJECTID":267752},"geometry":{"x":171869.06000000145,"y":2560680.7400000021}},{"attributes":{"ID":267758,"DIS_CODE":0,"TOWNNAME":"麻豆區","LI":"中民里","LIN":"3鄰","STREET":" ","SECT":" ","MAREA":"謝厝寮","LANE":" ","ALLEY":" ","HOUSE_NO":"１０１號之３５","E_COORD97":172663.23000000001,"N_COORD97":2560386.96,"ADDRESS":"謝厝寮１０１號之３５","OBJECTID":267753},"geometry":{"x":172663.23000000045,"y":2560386.9600000009}},{"attributes":{"ID":267759,"DIS_CODE":0,"TOWNNAME":"安南區","LI":"四草里","LIN":"4鄰","STREET":"大眾六街","SECT":" ","MAREA":" ","LANE":" ","ALLEY":" ","HOUSE_NO":"８號","E_COORD97":160630.36721,"N_COORD97":2546444.6020499999,"ADDRESS":"大眾六街８號","OBJECTID":267754},"geometry":{"x":160630.36721000168,"y":2546444.6020500008}},{"attributes":{"ID":267760,"DIS_CODE":0,"TOWNNAME":"安南區","LI":"新順里","LIN":"7鄰","STREET":"北安路","SECT":"三段","MAREA":" ","LANE":"７４５巷","ALLEY":" ","HOUSE_NO":"７８之１號","E_COORD97":169194.66,"N_COORD97":2550187.9199999999,"ADDRESS":"北安路三段７４５巷７８之１號","OBJECTID":267755},"geometry":{"x":169194.66000000108,"y":2550187.9199999999}},{"attributes":{"ID":267761,"DIS_CODE":0,"TOWNNAME":"安南區","LI":"佃東里","LIN":"3鄰","STREET":"十二佃路","SECT":" ","MAREA":" ","LANE":" ","ALLEY":" ","HOUSE_NO":"２３號","E_COORD97":165632.48000000001,"N_COORD97":2552080.21,"ADDRESS":"十二佃路２３號","OBJECTID":267756},"geometry":{"x":165632.48000000138,"y":2552080.2100000028}},{"attributes":{"ID":267762,"DIS_CODE":0,"TOWNNAME":"安南區","LI":"佃東里","LIN":"3鄰","STREET":"十二佃路","SECT":" ","MAREA":" ","LANE":" ","ALLEY":" ","HOUSE_NO":"２１號","E_COORD97":165654.34,"N_COORD97":2552069.2999999998,"ADDRESS":"十二佃路２１號","OBJECTID":267757},"geometry":{"x":165654.33999999985,"y":2552069.3000000026}},{"attributes":{"ID":267763,"DIS_CODE":0,"TOWNNAME":"安南區","LI":"安順里","LIN":"3鄰","STREET":"育安街","SECT":" ","MAREA":" ","LANE":" ","ALLEY":" ","HOUSE_NO":"１４５號","E_COORD97":169560.22,"N_COORD97":2549914.3799999999,"ADDRESS":"育安街１４５號","OBJECTID":267758},"geometry":{"x":169560.21999999974,"y":2549914.3800000008}},{"attributes":{"ID":267764,"DIS_CODE":0,"TOWNNAME":"安定區","LI":"港口里","LIN":"3鄰","STREET":" ","SECT":" ","MAREA":"港口","LANE":" ","ALLEY":" ","HOUSE_NO":"２５３之７０號","E_COORD97":171645.34,"N_COORD97":2554903.2999999998,"ADDRESS":"港口２５３之７０號","OBJECTID":267759},"geometry":{"x":171645.34000000171,"y":2554903.3000000026}},{"attributes":{"ID":267765,"DIS_CODE":0,"TOWNNAME":"安南區","LI":"東和里","LIN":"7鄰","STREET":"長和路","SECT":"一段","MAREA":" ","LANE":"２２２巷","ALLEY":" ","HOUSE_NO":"４０之３號","E_COORD97":171818.29999999999,"N_COORD97":2550733.8900000001,"ADDRESS":"長和路一段２２２巷４０之３號","OBJECTID":267760},"geometry":{"x":171818.29999999888,"y":2550733.8900000006}},{"attributes":{"ID":267766,"DIS_CODE":0,"TOWNNAME":"安定區","LI":"管寮里","LIN":"3鄰","STREET":" ","SECT":" ","MAREA":"管寮","LANE":" ","ALLEY":" ","HOUSE_NO":"２３號","E_COORD97":170119.14000000001,"N_COORD97":2556352.25,"ADDRESS":"管寮２３號","OBJECTID":267761},"geometry":{"x":170119.14000000153,"y":2556352.25}},{"attributes":{"ID":267767,"DIS_CODE":0,"TOWNNAME":"安定區","LI":"新吉里","LIN":"3鄰","STREET":" ","SECT":" ","MAREA":"新吉","LANE":" ","ALLEY":" ","HOUSE_NO":"２４號之９","E_COORD97":169529.48999999999,"N_COORD97":2554103.2999999998,"ADDRESS":"新吉２４號之９","OBJECTID":267762},"geometry":{"x":169529.49000000115,"y":2554103.3000000026}},{"attributes":{"ID":267768,"DIS_CODE":0,"TOWNNAME":"安定區","LI":"管寮里","LIN":"3鄰","STREET":" ","SECT":" ","MAREA":"管寮","LANE":" ","ALLEY":" ","HOUSE_NO":"２４之１２號","E_COORD97":170199.39000000001,"N_COORD97":2556271.2999999998,"ADDRESS":"管寮２４之１２號","OBJECTID":267763},"geometry":{"x":170199.3900000006,"y":2556271.3000000007}},{"attributes":{"ID":267769,"DIS_CODE":0,"TOWNNAME":"安定區","LI":"新吉里","LIN":"3鄰","STREET":" ","SECT":" ","MAREA":"新吉","LANE":" ","ALLEY":" ","HOUSE_NO":"２５之８號","E_COORD97":169500.76999999999,"N_COORD97":2554138.2999999998,"ADDRESS":"新吉２５之８號","OBJECTID":267764},"geometry":{"x":169500.76999999955,"y":2554138.3000000007}},{"attributes":{"ID":267770,"DIS_CODE":0,"TOWNNAME":"安定區","LI":"蘇厝里","LIN":"3鄰","STREET":" ","SECT":" ","MAREA":"蘇厝","LANE":" ","ALLEY":" ","HOUSE_NO":"３０４號之２","E_COORD97":173077.59,"N_COORD97":2558173.2999999998,"ADDRESS":"蘇厝３０４號之２","OBJECTID":267765},"geometry":{"x":173077.58999999985,"y":2558173.3000000007}},{"attributes":{"ID":267771,"DIS_CODE":0,"TOWNNAME":"安定區","LI":"港尾里","LIN":"3鄰","STREET":" ","SECT":" ","MAREA":"港子尾","LANE":" ","ALLEY":" ","HOUSE_NO":"１之２４號","E_COORD97":171754.000642,"N_COORD97":2556458.27886,"ADDRESS":"港子尾１之２４號","OBJECTID":267766},"geometry":{"x":171754.00064199977,"y":2556458.2788640037}},{"attributes":{"ID":267772,"DIS_CODE":0,"TOWNNAME":"安南區","LI":"東和里","LIN":"7鄰","STREET":"長和路","SECT":"一段","MAREA":" ","LANE":"２巷","ALLEY":" ","HOUSE_NO":"４２之２號","E_COORD97":172037.53,"N_COORD97":2550458.2999999998,"ADDRESS":"長和路一段２巷４２之２號","OBJECTID":267767},"geometry":{"x":172037.53000000026,"y":2550458.3000000026}},{"attributes":{"ID":267773,"DIS_CODE":0,"TOWNNAME":"安南區","LI":"佃東里","LIN":"3鄰","STREET":"十二佃路","SECT":" ","MAREA":" ","LANE":"１７巷","ALLEY":" ","HOUSE_NO":"３５號","E_COORD97":165636.73000000001,"N_COORD97":2552016.5800000001,"ADDRESS":"十二佃路１７巷３５號","OBJECTID":267768},"geometry":{"x":165636.73000000045,"y":2552016.5800000019}},{"attributes":{"ID":267774,"DIS_CODE":0,"TOWNNAME":"安南區","LI":"溪心里","LIN":"3鄰","STREET":"安吉路","SECT":"一段","MAREA":" ","LANE":" ","ALLEY":" ","HOUSE_NO":"４６３號","E_COORD97":166849.61636099999,"N_COORD97":2549804.7243300001,"ADDRESS":"安吉路一段４６３號","OBJECTID":267769},"geometry":{"x":166849.61636100058,"y":2549804.7243310027}},{"attributes":{"ID":267775,"DIS_CODE":0,"TOWNNAME":"永康區","LI":"六合里","LIN":"4鄰","STREET":"新興街","SECT":" ","MAREA":" ","LANE":" ","ALLEY":" ","HOUSE_NO":"１０１號","E_COORD97":171084.53,"N_COORD97":2545807.5,"ADDRESS":"新興街１０１號","OBJECTID":267770},"geometry":{"x":171084.53000000026,"y":2545807.5000000037}},{"attributes":{"ID":267776,"DIS_CODE":0,"TOWNNAME":"佳里區","LI":"東寧里","LIN":"3鄰","STREET":"延平路","SECT":" ","MAREA":" ","LANE":" ","ALLEY":" ","HOUSE_NO":"２８９號","E_COORD97":165851.5,"N_COORD97":2562370.02,"ADDRESS":"延平路２８９號","OBJECTID":267771},"geometry":{"x":165851.5,"y":2562370.0200000014}},{"attributes":{"ID":267777,"DIS_CODE":0,"TOWNNAME":"佳里區","LI":"東寧里","LIN":"3鄰","STREET":"延平路","SECT":" ","MAREA":" ","LANE":" ","ALLEY":" ","HOUSE_NO":"２９１號","E_COORD97":165851.29999999999,"N_COORD97":2562373.8999999999,"ADDRESS":"延平路２９１號","OBJECTID":267772},"geometry":{"x":165851.29999999888,"y":2562373.8999999985}},{"attributes":{"ID":267778,"DIS_CODE":0,"TOWNNAME":"安南區","LI":"東和里","LIN":"7鄰","STREET":"長和路","SECT":"一段","MAREA":" ","LANE":"２巷","ALLEY":" ","HOUSE_NO":"４２之３號","E_COORD97":172041.97,"N_COORD97":2550457.8199999998,"ADDRESS":"長和路一段２巷４２之３號","OBJECTID":267773},"geometry":{"x":172041.96999999974,"y":2550457.8200000022}},{"attributes":{"ID":267779,"DIS_CODE":0,"TOWNNAME":"安南區","LI":"東和里","LIN":"7鄰","STREET":"長和路","SECT":"一段","MAREA":" ","LANE":"２２２巷","ALLEY":" ","HOUSE_NO":"４０之２號","E_COORD97":171811.95000000001,"N_COORD97":2550738.02,"ADDRESS":"長和路一段２２２巷４０之２號","OBJECTID":267774},"geometry":{"x":171811.95000000019,"y":2550738.0200000014}},{"attributes":{"ID":267780,"DIS_CODE":0,"TOWNNAME":"安南區","LI":"州南里","LIN":"28鄰","STREET":"長和路","SECT":"二段","MAREA":" ","LANE":"１４６巷","ALLEY":" ","HOUSE_NO":"４５號","E_COORD97":170023.67999999999,"N_COORD97":2551626.8700000001,"ADDRESS":"長和路二段１４６巷４５號","OBJECTID":267775},"geometry":{"x":170023.6799999997,"y":2551626.870000001}},{"attributes":{"ID":267781,"DIS_CODE":0,"TOWNNAME":"安南區","LI":"布袋里","LIN":"7鄰","STREET":"長和路","SECT":"四段","MAREA":" ","LANE":"２００巷","ALLEY":" ","HOUSE_NO":"９號","E_COORD97":168791.01999999999,"N_COORD97":2551730.4399999999,"ADDRESS":"長和路四段２００巷９號","OBJECTID":267776},"geometry":{"x":168791.02000000048,"y":2551730.4400000032}},{"attributes":{"ID":267782,"DIS_CODE":0,"TOWNNAME":"佳里區","LI":"東寧里","LIN":"3鄰","STREET":"延平路","SECT":" ","MAREA":" ","LANE":" ","ALLEY":" ","HOUSE_NO":"２９３號","E_COORD97":165850.39000000001,"N_COORD97":2562381.6800000002,"ADDRESS":"延平路２９３號","OBJECTID":267777},"geometry":{"x":165850.38999999966,"y":2562381.6800000034}},{"attributes":{"ID":267783,"DIS_CODE":0,"TOWNNAME":"佳里區","LI":"東寧里","LIN":"3鄰","STREET":"延平路","SECT":" ","MAREA":" ","LANE":" ","ALLEY":" ","HOUSE_NO":"２９５號","E_COORD97":165850.14000000001,"N_COORD97":2562385.8199999998,"ADDRESS":"延平路２９５號","OBJECTID":267778},"geometry":{"x":165850.13999999966,"y":2562385.8200000022}},{"attributes":{"ID":267784,"DIS_CODE":0,"TOWNNAME":"佳里區","LI":"東寧里","LIN":"3鄰","STREET":"延平路","SECT":" ","MAREA":" ","LANE":" ","ALLEY":" ","HOUSE_NO":"２９７號","E_COORD97":165849.92000000001,"N_COORD97":2562389.8999999999,"ADDRESS":"延平路２９７號","OBJECTID":267779},"geometry":{"x":165849.91999999993,"y":2562389.9000000004}},{"attributes":{"ID":267785,"DIS_CODE":0,"TOWNNAME":"佳里區","LI":"東寧里","LIN":"3鄰","STREET":"延平路","SECT":" ","MAREA":" ","LANE":" ","ALLEY":" ","HOUSE_NO":"２９９號","E_COORD97":165849.41,"N_COORD97":2562394.2200000002,"ADDRESS":"延平路２９９號","OBJECTID":267780},"geometry":{"x":165849.41000000201,"y":2562394.2200000025}},{"attributes":{"ID":267786,"DIS_CODE":0,"TOWNNAME":"佳里區","LI":"東寧里","LIN":"3鄰","STREET":"延平路","SECT":" ","MAREA":" ","LANE":" ","ALLEY":" ","HOUSE_NO":"３０１號","E_COORD97":165849.20000000001,"N_COORD97":2562398.29,"ADDRESS":"延平路３０１號","OBJECTID":267781},"geometry":{"x":165849.20000000112,"y":2562398.290000001}},{"attributes":{"ID":267787,"DIS_CODE":0,"TOWNNAME":"佳里區","LI":"東寧里","LIN":"3鄰","STREET":"延平路","SECT":" ","MAREA":" ","LANE":" ","ALLEY":" ","HOUSE_NO":"３０５號","E_COORD97":165849.32000000001,"N_COORD97":2562408.6200000001,"ADDRESS":"延平路３０５號","OBJECTID":267782},"geometry":{"x":165849.3200000003,"y":2562408.6200000029}},{"attributes":{"ID":267788,"DIS_CODE":0,"TOWNNAME":"東區","LI":"圍下里","LIN":"9鄰","STREET":"勝利路","SECT":" ","MAREA":" ","LANE":" ","ALLEY":" ","HOUSE_NO":"９１號","E_COORD97":169799.54000000001,"N_COORD97":2543613.0299999998,"ADDRESS":"勝利路９１號","OBJECTID":267783},"geometry":{"x":169799.54000000004,"y":2543613.0300000031}},{"attributes":{"ID":267789,"DIS_CODE":0,"TOWNNAME":"東區","LI":"圍下里","LIN":"9鄰","STREET":"勝利路","SECT":" ","MAREA":" ","LANE":" ","ALLEY":" ","HOUSE_NO":"９５號","E_COORD97":169800.82999999999,"N_COORD97":2543624.8300000001,"ADDRESS":"勝利路９５號","OBJECTID":267784},"geometry":{"x":169800.83000000007,"y":2543624.8300000001}},{"attributes":{"ID":267790,"DIS_CODE":0,"TOWNNAME":"東區","LI":"圍下里","LIN":"9鄰","STREET":"勝利路","SECT":" ","MAREA":" ","LANE":" ","ALLEY":" ","HOUSE_NO":"９７號","E_COORD97":169801.81,"N_COORD97":2543630.1699999999,"ADDRESS":"勝利路９７號","OBJECTID":267785},"geometry":{"x":169801.80999999959,"y":2543630.1700000018}},{"attributes":{"ID":267791,"DIS_CODE":0,"TOWNNAME":"東區","LI":"大學里","LIN":"17鄰","STREET":"東寧路","SECT":" ","MAREA":" ","LANE":" ","ALLEY":" ","HOUSE_NO":"７３號","E_COORD97":170274.20000000001,"N_COORD97":2543624.02,"ADDRESS":"東寧路７３號","OBJECTID":267786},"geometry":{"x":170274.20000000112,"y":2543624.0200000014}},{"attributes":{"ID":267792,"DIS_CODE":0,"TOWNNAME":"東區","LI":"大學里","LIN":"17鄰","STREET":"東寧路","SECT":" ","MAREA":" ","LANE":" ","ALLEY":" ","HOUSE_NO":"７７號","E_COORD97":170285.98999999999,"N_COORD97":2543621.1699999999,"ADDRESS":"東寧路７７號","OBJECTID":267787},"geometry":{"x":170285.99000000022,"y":2543621.1700000018}},{"attributes":{"ID":267793,"DIS_CODE":0,"TOWNNAME":"東區","LI":"大學里","LIN":"17鄰","STREET":"東寧路","SECT":" ","MAREA":" ","LANE":" ","ALLEY":" ","HOUSE_NO":"８１號","E_COORD97":170299.01999999999,"N_COORD97":2543614.1600000001,"ADDRESS":"東寧路８１號","OBJECTID":267788},"geometry":{"x":170299.01999999955,"y":2543614.160000002}},{"attributes":{"ID":267794,"DIS_CODE":0,"TOWNNAME":"東區","LI":"大學里","LIN":"17鄰","STREET":"東寧路","SECT":" ","MAREA":" ","LANE":" ","ALLEY":" ","HOUSE_NO":"８５號","E_COORD97":170310.06,"N_COORD97":2543612.3999999999,"ADDRESS":"東寧路８５號","OBJECTID":267789},"geometry":{"x":170310.06000000052,"y":2543612.4000000022}},{"attributes":{"ID":267795,"DIS_CODE":0,"TOWNNAME":"東區","LI":"大學里","LIN":"17鄰","STREET":"東寧路","SECT":" ","MAREA":" ","LANE":" ","ALLEY":" ","HOUSE_NO":"８７號","E_COORD97":170315.84,"N_COORD97":2543610.7799999998,"ADDRESS":"東寧路８７號","OBJECTID":267790},"geometry":{"x":170315.83999999985,"y":2543610.7799999993}},{"attributes":{"ID":267796,"DIS_CODE":0,"TOWNNAME":"安南區","LI":"東和里","LIN":"7鄰","STREET":"環館三路","SECT":" ","MAREA":" ","LANE":"１３巷","ALLEY":" ","HOUSE_NO":"７號","E_COORD97":171523.99608400001,"N_COORD97":2551585.3328999998,"ADDRESS":"環館三路１３巷７號","OBJECTID":267791},"geometry":{"x":171523.99608400092,"y":2551585.3329030015}},{"attributes":{"ID":267797,"DIS_CODE":0,"TOWNNAME":"安南區","LI":"東和里","LIN":"7鄰","STREET":"環館三路","SECT":" ","MAREA":" ","LANE":"１３巷","ALLEY":" ","HOUSE_NO":"２號","E_COORD97":171539.67204,"N_COORD97":2551614.4370499998,"ADDRESS":"環館三路１３巷２號","OBJECTID":267792},"geometry":{"x":171539.67204000056,"y":2551614.4370530006}},{"attributes":{"ID":267798,"DIS_CODE":0,"TOWNNAME":"安南區","LI":"東和里","LIN":"7鄰","STREET":"環館三路","SECT":" ","MAREA":" ","LANE":"１３巷","ALLEY":" ","HOUSE_NO":"６號","E_COORD97":171532.681411,"N_COORD97":2551613.3787199999,"ADDRESS":"環館三路１３巷６號","OBJECTID":267793},"geometry":{"x":171532.6814110009,"y":2551613.3787210025}},{"attributes":{"ID":267799,"DIS_CODE":0,"TOWNNAME":"安南區","LI":"東和里","LIN":"7鄰","STREET":"環館三路","SECT":" ","MAREA":" ","LANE":"１３巷","ALLEY":" ","HOUSE_NO":"８號","E_COORD97":171525.69078199999,"N_COORD97":2551613.3787199999,"ADDRESS":"環館三路１３巷８號","OBJECTID":267794},"geometry":{"x":171525.69078200124,"y":2551613.3787210025}},{"attributes":{"ID":267800,"DIS_CODE":0,"TOWNNAME":"安南區","LI":"東和里","LIN":"7鄰","STREET":"環館三路","SECT":" ","MAREA":" ","LANE":"１３巷","ALLEY":" ","HOUSE_NO":"１６號","E_COORD97":171505.56624300001,"N_COORD97":2551609.5687199999,"ADDRESS":"環館三路１３巷１６號","OBJECTID":267795},"geometry":{"x":171505.5662429994,"y":2551609.5687230024}},{"attributes":{"ID":267801,"DIS_CODE":0,"TOWNNAME":"安南區","LI":"東和里","LIN":"7鄰","STREET":"環館三路","SECT":" ","MAREA":" ","LANE":"１３巷","ALLEY":" ","HOUSE_NO":"１８號","E_COORD97":171500.90582399999,"N_COORD97":2551608.2987199998,"ADDRESS":"環館三路１３巷１８號","OBJECTID":267796},"geometry":{"x":171500.90582400002,"y":2551608.2987230029}},{"attributes":{"ID":267802,"DIS_CODE":0,"TOWNNAME":"安南區","LI":"東和里","LIN":"7鄰","STREET":"環館三路","SECT":" ","MAREA":" ","LANE":"１３巷","ALLEY":" ","HOUSE_NO":"２０號","E_COORD97":171492.64417099999,"N_COORD97":2551606.8170599998,"ADDRESS":"環館三路１３巷２０號","OBJECTID":267797},"geometry":{"x":171492.64417100139,"y":2551606.8170580026}},{"attributes":{"ID":267803,"DIS_CODE":0,"TOWNNAME":"安南區","LI":"東和里","LIN":"7鄰","STREET":"環館三路","SECT":" ","MAREA":" ","LANE":"１３巷","ALLEY":" ","HOUSE_NO":"２２號","E_COORD97":171487.34823999999,"N_COORD97":2551605.5470599998,"ADDRESS":"環館三路１３巷２２號","OBJECTID":267798},"geometry":{"x":171487.3482400002,"y":2551605.547058003}},{"attributes":{"ID":267804,"DIS_CODE":0,"TOWNNAME":"安南區","LI":"東和里","LIN":"7鄰","STREET":"環館三路","SECT":" ","MAREA":" ","LANE":"１３巷","ALLEY":" ","HOUSE_NO":"２６號","E_COORD97":171480.35761000001,"N_COORD97":2551604.91206,"ADDRESS":"環館三路１３巷２６號","OBJECTID":267799},"geometry":{"x":171480.3576100003,"y":2551604.9120590016}},{"attributes":{"ID":267805,"DIS_CODE":0,"TOWNNAME":"安南區","LI":"東和里","LIN":"7鄰","STREET":"環館三路","SECT":" ","MAREA":" ","LANE":"１３巷","ALLEY":" ","HOUSE_NO":"２８號","E_COORD97":171473.57881899999,"N_COORD97":2551603.8537300001,"ADDRESS":"環館三路１３巷２８號","OBJECTID":267800},"geometry":{"x":171473.57881899923,"y":2551603.8537259996}}]}