{"displayFieldName":"TOWNNAME","fieldAliases":{"ID":"ID","DIS_CODE":"DIS_CODE","TOWNNAME":"TOWNNAME","LI":"LI","LIN":"LIN","STREET":"STREET","SECT":"SECT","MAREA":"MAREA","LANE":"LANE","ALLEY":"ALLEY","HOUSE_NO":"HOUSE_NO","E_COORD97":"E_COORD97","N_COORD97":"N_COORD97","ADDRESS":"ADDRESS","OBJECTID":"OBJECTID"},"geometryType":"esriGeometryPoint","spatialReference":{"wkid":102443,"latestWkid":3826},"fields":[{"name":"ID","type":"esriFieldTypeDouble","alias":"ID"},{"name":"DIS_CODE","type":"esriFieldTypeInteger","alias":"DIS_CODE"},{"name":"TOWNNAME","type":"esriFieldTypeString","alias":"TOWNNAME","length":8},{"name":"LI","type":"esriFieldTypeString","alias":"LI","length":8},{"name":"LIN","type":"esriFieldTypeString","alias":"LIN","length":12},{"name":"STREET","type":"esriFieldTypeString","alias":"STREET","length":20},{"name":"SECT","type":"esriFieldTypeString","alias":"SECT","length":8},{"name":"MAREA","type":"esriFieldTypeString","alias":"MAREA","length":12},{"name":"LANE","type":"esriFieldTypeString","alias":"LANE","length":10},{"name":"ALLEY","type":"esriFieldTypeString","alias":"ALLEY","length":10},{"name":"HOUSE_NO","type":"esriFieldTypeString","alias":"HOUSE_NO","length":20},{"name":"E_COORD97","type":"esriFieldTypeDouble","alias":"E_COORD97"},{"name":"N_COORD97","type":"esriFieldTypeDouble","alias":"N_COORD97"},{"name":"ADDRESS","type":"esriFieldTypeString","alias":"ADDRESS","length":50},{"name":"OBJECTID","type":"esriFieldTypeOID","alias":"OBJECTID"}],"features":[{"attributes":{"ID":234605,"DIS_CODE":0,"TOWNNAME":"安南區","LI":"國安里","LIN":"4鄰","STREET":"國安街","SECT":" ","MAREA":" ","LANE":"１５６巷","ALLEY":" ","HOUSE_NO":"１６７號","E_COORD97":166638.04999999999,"N_COORD97":2547409.1299999999,"ADDRESS":"國安街１５６巷１６７號","OBJECTID":234601},"geometry":{"x":166638.05000000168,"y":2547409.1300000027}},{"attributes":{"ID":234606,"DIS_CODE":0,"TOWNNAME":"永康區","LI":"復興里","LIN":"4鄰","STREET":"復興路","SECT":" ","MAREA":" ","LANE":"４２３巷","ALLEY":" ","HOUSE_NO":"７１號","E_COORD97":172223.07999999999,"N_COORD97":2544253.2799999998,"ADDRESS":"復興路４２３巷７１號","OBJECTID":234602},"geometry":{"x":172223.08000000007,"y":2544253.2800000012}},{"attributes":{"ID":234607,"DIS_CODE":0,"TOWNNAME":"永康區","LI":"復興里","LIN":"5鄰","STREET":"復興路","SECT":" ","MAREA":" ","LANE":"４２３巷","ALLEY":" ","HOUSE_NO":"１１號","E_COORD97":172125.04000000001,"N_COORD97":2544291.27,"ADDRESS":"復興路４２３巷１１號","OBJECTID":234603},"geometry":{"x":172125.04000000004,"y":2544291.2700000014}},{"attributes":{"ID":234608,"DIS_CODE":0,"TOWNNAME":"永康區","LI":"復興里","LIN":"5鄰","STREET":"復興路","SECT":" ","MAREA":" ","LANE":"４２３巷","ALLEY":" ","HOUSE_NO":"１７號","E_COORD97":172132.04999999999,"N_COORD97":2544274.7799999998,"ADDRESS":"復興路４２３巷１７號","OBJECTID":234604},"geometry":{"x":172132.05000000168,"y":2544274.7799999993}},{"attributes":{"ID":234609,"DIS_CODE":0,"TOWNNAME":"永康區","LI":"復興里","LIN":"14鄰","STREET":"復興路","SECT":" ","MAREA":" ","LANE":"２８２巷","ALLEY":" ","HOUSE_NO":"６號","E_COORD97":172385.56,"N_COORD97":2544372.6499999999,"ADDRESS":"復興路２８２巷６號","OBJECTID":234605},"geometry":{"x":172385.55999999959,"y":2544372.6499999985}},{"attributes":{"ID":234610,"DIS_CODE":0,"TOWNNAME":"永康區","LI":"復興里","LIN":"4鄰","STREET":"復興路","SECT":" ","MAREA":" ","LANE":"４２３巷","ALLEY":" ","HOUSE_NO":"３７號","E_COORD97":172167.70000000001,"N_COORD97":2544284.27,"ADDRESS":"復興路４２３巷３７號","OBJECTID":234606},"geometry":{"x":172167.70000000112,"y":2544284.2700000014}},{"attributes":{"ID":234611,"DIS_CODE":0,"TOWNNAME":"永康區","LI":"復興里","LIN":"4鄰","STREET":"復興路","SECT":" ","MAREA":" ","LANE":"４２３巷","ALLEY":" ","HOUSE_NO":"４５號","E_COORD97":172182.39999999999,"N_COORD97":2544278.5299999998,"ADDRESS":"復興路４２３巷４５號","OBJECTID":234607},"geometry":{"x":172182.40000000037,"y":2544278.5300000012}},{"attributes":{"ID":234612,"DIS_CODE":0,"TOWNNAME":"永康區","LI":"網寮里","LIN":"26鄰","STREET":"永興路","SECT":" ","MAREA":" ","LANE":"１０５巷","ALLEY":" ","HOUSE_NO":"１５號","E_COORD97":173931.97,"N_COORD97":2546528.3100000001,"ADDRESS":"永興路１０５巷１５號","OBJECTID":234608},"geometry":{"x":173931.96999999974,"y":2546528.3100000042}},{"attributes":{"ID":234613,"DIS_CODE":0,"TOWNNAME":"安平區","LI":"億載里","LIN":"16鄰","STREET":"光州路","SECT":" ","MAREA":" ","LANE":" ","ALLEY":" ","HOUSE_NO":"３６號","E_COORD97":164012.39000000001,"N_COORD97":2543000.5299999998,"ADDRESS":"光州路３６號","OBJECTID":234609},"geometry":{"x":164012.38999999966,"y":2543000.5300000012}},{"attributes":{"ID":234614,"DIS_CODE":0,"TOWNNAME":"永康區","LI":"復華里","LIN":"25鄰","STREET":"復華八街","SECT":" ","MAREA":" ","LANE":"５１巷","ALLEY":" ","HOUSE_NO":"４１號","E_COORD97":172674.29999999999,"N_COORD97":2546429.3700000001,"ADDRESS":"復華八街５１巷４１號","OBJECTID":234610},"geometry":{"x":172674.29999999981,"y":2546429.370000001}},{"attributes":{"ID":234615,"DIS_CODE":0,"TOWNNAME":"永康區","LI":"復華里","LIN":"13鄰","STREET":"復國二路","SECT":" ","MAREA":" ","LANE":"２０５巷","ALLEY":" ","HOUSE_NO":"１９號","E_COORD97":172930.54000000001,"N_COORD97":2545989.02,"ADDRESS":"復國二路２０５巷１９號","OBJECTID":234611},"geometry":{"x":172930.54000000004,"y":2545989.0199999996}},{"attributes":{"ID":234616,"DIS_CODE":0,"TOWNNAME":"永康區","LI":"復興里","LIN":"4鄰","STREET":"復興路","SECT":" ","MAREA":" ","LANE":"４２３巷","ALLEY":" ","HOUSE_NO":"１０８號","E_COORD97":172224.01000000001,"N_COORD97":2543946.7799999998,"ADDRESS":"復興路４２３巷１０８號","OBJECTID":234612},"geometry":{"x":172224.01000000071,"y":2543946.7799999975}},{"attributes":{"ID":234617,"DIS_CODE":0,"TOWNNAME":"永康區","LI":"網寮里","LIN":"13鄰","STREET":"永和街","SECT":" ","MAREA":" ","LANE":"２４９巷","ALLEY":" ","HOUSE_NO":"１６號","E_COORD97":173305.17999999999,"N_COORD97":2546563.1800000002,"ADDRESS":"永和街２４９巷１６號","OBJECTID":234613},"geometry":{"x":173305.1799999997,"y":2546563.1800000016}},{"attributes":{"ID":234618,"DIS_CODE":0,"TOWNNAME":"永康區","LI":"網寮里","LIN":"13鄰","STREET":"永和街","SECT":" ","MAREA":" ","LANE":"２４９巷","ALLEY":" ","HOUSE_NO":"１８號","E_COORD97":173303.35999999999,"N_COORD97":2546557.1899999999,"ADDRESS":"永和街２４９巷１８號","OBJECTID":234614},"geometry":{"x":173303.36000000034,"y":2546557.1899999995}},{"attributes":{"ID":234619,"DIS_CODE":0,"TOWNNAME":"永康區","LI":"網寮里","LIN":"5鄰","STREET":"永二街","SECT":" ","MAREA":" ","LANE":"１４５巷","ALLEY":" ","HOUSE_NO":"１６號","E_COORD97":173559.09,"N_COORD97":2546386.7400000002,"ADDRESS":"永二街１４５巷１６號","OBJECTID":234615},"geometry":{"x":173559.08999999892,"y":2546386.7400000021}},{"attributes":{"ID":234620,"DIS_CODE":0,"TOWNNAME":"永康區","LI":"網寮里","LIN":"13鄰","STREET":"永和街","SECT":" ","MAREA":" ","LANE":"２４９巷","ALLEY":" ","HOUSE_NO":"７號","E_COORD97":173316.01999999999,"N_COORD97":2546571.6800000002,"ADDRESS":"永和街２４９巷７號","OBJECTID":234616},"geometry":{"x":173316.02000000048,"y":2546571.6799999997}},{"attributes":{"ID":234621,"DIS_CODE":0,"TOWNNAME":"永康區","LI":"復國里","LIN":"5鄰","STREET":"復國一路","SECT":" ","MAREA":" ","LANE":"９０巷","ALLEY":" ","HOUSE_NO":"１７號","E_COORD97":172748.67000000001,"N_COORD97":2544972.5299999998,"ADDRESS":"復國一路９０巷１７號","OBJECTID":234617},"geometry":{"x":172748.67000000086,"y":2544972.5300000031}},{"attributes":{"ID":234622,"DIS_CODE":0,"TOWNNAME":"永康區","LI":"網寮里","LIN":"20鄰","STREET":"文化路","SECT":" ","MAREA":" ","LANE":"３２３巷","ALLEY":" ","HOUSE_NO":"３２號","E_COORD97":173366.31,"N_COORD97":2546085.2400000002,"ADDRESS":"文化路３２３巷３２號","OBJECTID":234618},"geometry":{"x":173366.31000000052,"y":2546085.2400000021}},{"attributes":{"ID":234623,"DIS_CODE":0,"TOWNNAME":"永康區","LI":"網寮里","LIN":"20鄰","STREET":"文化路","SECT":" ","MAREA":" ","LANE":"３２３巷","ALLEY":" ","HOUSE_NO":"１２號","E_COORD97":173392.29000000001,"N_COORD97":2546135.5800000001,"ADDRESS":"文化路３２３巷１２號","OBJECTID":234619},"geometry":{"x":173392.29000000097,"y":2546135.5800000001}},{"attributes":{"ID":234624,"DIS_CODE":0,"TOWNNAME":"永康區","LI":"網寮里","LIN":"26鄰","STREET":"永興路","SECT":" ","MAREA":" ","LANE":"１０５巷","ALLEY":" ","HOUSE_NO":"１１號","E_COORD97":173929.28,"N_COORD97":2546536.3100000001,"ADDRESS":"永興路１０５巷１１號","OBJECTID":234620},"geometry":{"x":173929.28000000026,"y":2546536.3100000024}},{"attributes":{"ID":234625,"DIS_CODE":0,"TOWNNAME":"永康區","LI":"網寮里","LIN":"25鄰","STREET":"永大一路","SECT":" ","MAREA":" ","LANE":"１６０巷","ALLEY":" ","HOUSE_NO":"６８號","E_COORD97":173820.29999999999,"N_COORD97":2546567.2400000002,"ADDRESS":"永大一路１６０巷６８號","OBJECTID":234621},"geometry":{"x":173820.29999999981,"y":2546567.2400000021}},{"attributes":{"ID":234626,"DIS_CODE":0,"TOWNNAME":"永康區","LI":"復興里","LIN":"4鄰","STREET":"復興路","SECT":" ","MAREA":" ","LANE":"４２３巷","ALLEY":" ","HOUSE_NO":"５５號","E_COORD97":172221.62,"N_COORD97":2544286.77,"ADDRESS":"復興路４２３巷５５號","OBJECTID":234622},"geometry":{"x":172221.61999999918,"y":2544286.7700000014}},{"attributes":{"ID":234627,"DIS_CODE":0,"TOWNNAME":"麻豆區","LI":"小埤里","LIN":"6鄰","STREET":" ","SECT":" ","MAREA":"小埤頭","LANE":" ","ALLEY":" ","HOUSE_NO":"３１號之１３","E_COORD97":171549.31,"N_COORD97":2566012.5600000001,"ADDRESS":"小埤頭３１號之１３","OBJECTID":234623},"geometry":{"x":171549.31000000052,"y":2566012.5600000024}},{"attributes":{"ID":234628,"DIS_CODE":0,"TOWNNAME":"鹽水區","LI":"歡雅里","LIN":"16鄰","STREET":" ","SECT":" ","MAREA":"倒茄苳","LANE":" ","ALLEY":" ","HOUSE_NO":"１１號","E_COORD97":172593.45999999999,"N_COORD97":2576038.1099999999,"ADDRESS":"倒茄苳１１號","OBJECTID":234624},"geometry":{"x":172593.45999999996,"y":2576038.1100000031}},{"attributes":{"ID":234629,"DIS_CODE":0,"TOWNNAME":"永康區","LI":"勝利里","LIN":"5鄰","STREET":"勝學路","SECT":" ","MAREA":" ","LANE":"６１巷","ALLEY":" ","HOUSE_NO":"９號","E_COORD97":171109.89999999999,"N_COORD97":2544734.5,"ADDRESS":"勝學路６１巷９號","OBJECTID":234625},"geometry":{"x":171109.9000000013,"y":2544734.5000000019}},{"attributes":{"ID":234630,"DIS_CODE":0,"TOWNNAME":"永康區","LI":"網寮里","LIN":"20鄰","STREET":"文化路","SECT":" ","MAREA":" ","LANE":"３２３巷","ALLEY":" ","HOUSE_NO":"６號","E_COORD97":173399.42999999999,"N_COORD97":2546132.0800000001,"ADDRESS":"文化路３２３巷６號","OBJECTID":234626},"geometry":{"x":173399.43000000063,"y":2546132.0800000001}},{"attributes":{"ID":234631,"DIS_CODE":0,"TOWNNAME":"鹽水區","LI":"歡雅里","LIN":"16鄰","STREET":" ","SECT":" ","MAREA":"倒茄苳","LANE":" ","ALLEY":" ","HOUSE_NO":"１號","E_COORD97":172622.51000000001,"N_COORD97":2576048.52,"ADDRESS":"倒茄苳１號","OBJECTID":234627},"geometry":{"x":172622.51000000071,"y":2576048.5199999996}},{"attributes":{"ID":234632,"DIS_CODE":0,"TOWNNAME":"永康區","LI":"網寮里","LIN":"25鄰","STREET":"永大一路","SECT":" ","MAREA":" ","LANE":"１６０巷","ALLEY":" ","HOUSE_NO":"３１號","E_COORD97":173812.01999999999,"N_COORD97":2546528.5899999999,"ADDRESS":"永大一路１６０巷３１號","OBJECTID":234628},"geometry":{"x":173812.02000000142,"y":2546528.5899999999}},{"attributes":{"ID":234633,"DIS_CODE":0,"TOWNNAME":"永康區","LI":"復華里","LIN":"32鄰","STREET":"復華十街","SECT":" ","MAREA":" ","LANE":"３９巷","ALLEY":" ","HOUSE_NO":"１５號","E_COORD97":172594.70999999999,"N_COORD97":2546352.02,"ADDRESS":"復華十街３９巷１５號","OBJECTID":234629},"geometry":{"x":172594.71000000089,"y":2546352.0199999996}},{"attributes":{"ID":234634,"DIS_CODE":0,"TOWNNAME":"鹽水區","LI":"歡雅里","LIN":"16鄰","STREET":" ","SECT":" ","MAREA":"倒茄苳","LANE":" ","ALLEY":" ","HOUSE_NO":"３之１號","E_COORD97":172687.94,"N_COORD97":2575971.1200000001,"ADDRESS":"倒茄苳３之１號","OBJECTID":234630},"geometry":{"x":172687.94000000134,"y":2575971.120000001}},{"attributes":{"ID":234635,"DIS_CODE":0,"TOWNNAME":"鹽水區","LI":"歡雅里","LIN":"16鄰","STREET":" ","SECT":" ","MAREA":"倒茄苳","LANE":" ","ALLEY":" ","HOUSE_NO":"３號之１","E_COORD97":172687.94,"N_COORD97":2575971.1200000001,"ADDRESS":"倒茄苳３號之１","OBJECTID":234631},"geometry":{"x":172687.94000000134,"y":2575971.120000001}},{"attributes":{"ID":234636,"DIS_CODE":0,"TOWNNAME":"鹽水區","LI":"歡雅里","LIN":"16鄰","STREET":" ","SECT":" ","MAREA":"倒茄苳","LANE":" ","ALLEY":" ","HOUSE_NO":"３號之２","E_COORD97":172667.22,"N_COORD97":2575991.5899999999,"ADDRESS":"倒茄苳３號之２","OBJECTID":234632},"geometry":{"x":172667.22000000067,"y":2575991.5900000036}},{"attributes":{"ID":234637,"DIS_CODE":0,"TOWNNAME":"鹽水區","LI":"歡雅里","LIN":"16鄰","STREET":" ","SECT":" ","MAREA":"倒茄苳","LANE":" ","ALLEY":" ","HOUSE_NO":"３號","E_COORD97":172639.94,"N_COORD97":2575991.2599999998,"ADDRESS":"倒茄苳３號","OBJECTID":234633},"geometry":{"x":172639.94000000041,"y":2575991.2600000016}},{"attributes":{"ID":234638,"DIS_CODE":0,"TOWNNAME":"永康區","LI":"網寮里","LIN":"20鄰","STREET":"文化路","SECT":" ","MAREA":" ","LANE":"３２３巷","ALLEY":" ","HOUSE_NO":"３號","E_COORD97":173429.31,"N_COORD97":2546121.6099999999,"ADDRESS":"文化路３２３巷３號","OBJECTID":234634},"geometry":{"x":173429.31000000052,"y":2546121.6100000031}},{"attributes":{"ID":234639,"DIS_CODE":0,"TOWNNAME":"永康區","LI":"復華里","LIN":"34鄰","STREET":"復國一路","SECT":" ","MAREA":" ","LANE":"４７５巷","ALLEY":" ","HOUSE_NO":"１８號","E_COORD97":172561.70000000001,"N_COORD97":2546102.6800000002,"ADDRESS":"復國一路４７５巷１８號","OBJECTID":234635},"geometry":{"x":172561.70000000019,"y":2546102.6800000016}},{"attributes":{"ID":234640,"DIS_CODE":0,"TOWNNAME":"永康區","LI":"復華里","LIN":"38鄰","STREET":"復華七街","SECT":" ","MAREA":" ","LANE":"３２巷","ALLEY":" ","HOUSE_NO":"４１號","E_COORD97":172733.12,"N_COORD97":2545897.0299999998,"ADDRESS":"復華七街３２巷４１號","OBJECTID":234636},"geometry":{"x":172733.12000000011,"y":2545897.0299999993}},{"attributes":{"ID":234641,"DIS_CODE":0,"TOWNNAME":"永康區","LI":"復華里","LIN":"25鄰","STREET":"復華八街","SECT":" ","MAREA":" ","LANE":"４７巷","ALLEY":" ","HOUSE_NO":"３４號","E_COORD97":172698.39000000001,"N_COORD97":2546385.9300000002,"ADDRESS":"復華八街４７巷３４號","OBJECTID":234637},"geometry":{"x":172698.38999999966,"y":2546385.9299999997}},{"attributes":{"ID":234642,"DIS_CODE":0,"TOWNNAME":"永康區","LI":"網寮里","LIN":"5鄰","STREET":"永二街","SECT":" ","MAREA":" ","LANE":"１４５巷","ALLEY":" ","HOUSE_NO":"２１號","E_COORD97":173608.85000000001,"N_COORD97":2546382.3700000001,"ADDRESS":"永二街１４５巷２１號","OBJECTID":234638},"geometry":{"x":173608.85000000056,"y":2546382.3699999992}},{"attributes":{"ID":234643,"DIS_CODE":0,"TOWNNAME":"永康區","LI":"新樹里","LIN":"4鄰","STREET":"富強路","SECT":"二段","MAREA":" ","LANE":"３９８巷","ALLEY":" ","HOUSE_NO":"１９３號之１８","E_COORD97":176095.98999999999,"N_COORD97":2547694.1099999999,"ADDRESS":"富強路二段３９８巷１９３號之１８","OBJECTID":234639},"geometry":{"x":176095.99000000022,"y":2547694.1099999994}},{"attributes":{"ID":234644,"DIS_CODE":0,"TOWNNAME":"永康區","LI":"蔦松里","LIN":"5鄰","STREET":"蔦松一街","SECT":" ","MAREA":" ","LANE":"２４１巷","ALLEY":" ","HOUSE_NO":"１０２號之１","E_COORD97":173367.19,"N_COORD97":2549772.04,"ADDRESS":"蔦松一街２４１巷１０２號之１","OBJECTID":234640},"geometry":{"x":173367.19000000041,"y":2549772.0399999991}},{"attributes":{"ID":234645,"DIS_CODE":0,"TOWNNAME":"永康區","LI":"龍潭里","LIN":"38鄰","STREET":"中山北路","SECT":" ","MAREA":" ","LANE":"１６４巷","ALLEY":" ","HOUSE_NO":"８０號之６","E_COORD97":174453.95000000001,"N_COORD97":2547365.7999999998,"ADDRESS":"中山北路１６４巷８０號之６","OBJECTID":234641},"geometry":{"x":174453.95000000205,"y":2547365.8000000045}},{"attributes":{"ID":234646,"DIS_CODE":0,"TOWNNAME":"永康區","LI":"網寮里","LIN":"20鄰","STREET":"永二街","SECT":" ","MAREA":" ","LANE":"２４５巷","ALLEY":" ","HOUSE_NO":"２０號之４","E_COORD97":173315.26000000001,"N_COORD97":2546185.71,"ADDRESS":"永二街２４５巷２０號之４","OBJECTID":234642},"geometry":{"x":173315.25999999978,"y":2546185.7100000009}},{"attributes":{"ID":234647,"DIS_CODE":0,"TOWNNAME":"永康區","LI":"網寮里","LIN":"20鄰","STREET":"永二街","SECT":" ","MAREA":" ","LANE":"２４５巷","ALLEY":" ","HOUSE_NO":"６號","E_COORD97":173314.5,"N_COORD97":2546206.5,"ADDRESS":"永二街２４５巷６號","OBJECTID":234643},"geometry":{"x":173314.50000000093,"y":2546206.5}},{"attributes":{"ID":234648,"DIS_CODE":0,"TOWNNAME":"鹽水區","LI":"歡雅里","LIN":"16鄰","STREET":" ","SECT":" ","MAREA":"倒茄苳","LANE":" ","ALLEY":" ","HOUSE_NO":"９號","E_COORD97":172614.41,"N_COORD97":2576026.6600000001,"ADDRESS":"倒茄苳９號","OBJECTID":234644},"geometry":{"x":172614.41000000015,"y":2576026.660000002}},{"attributes":{"ID":234649,"DIS_CODE":0,"TOWNNAME":"北區","LI":"成德里","LIN":"16鄰","STREET":"文成一路","SECT":" ","MAREA":" ","LANE":"６巷","ALLEY":" ","HOUSE_NO":"３６號","E_COORD97":168859.72,"N_COORD97":2546076.27,"ADDRESS":"文成一路６巷３６號","OBJECTID":234645},"geometry":{"x":168859.72000000067,"y":2546076.2699999977}},{"attributes":{"ID":234650,"DIS_CODE":0,"TOWNNAME":"永康區","LI":"復華里","LIN":"40鄰","STREET":"復華六街","SECT":" ","MAREA":" ","LANE":"８８巷","ALLEY":" ","HOUSE_NO":"６號","E_COORD97":172659.48000000001,"N_COORD97":2545877.21,"ADDRESS":"復華六街８８巷６號","OBJECTID":234646},"geometry":{"x":172659.48000000138,"y":2545877.2100000009}},{"attributes":{"ID":234651,"DIS_CODE":0,"TOWNNAME":"永康區","LI":"復華里","LIN":"4鄰","STREET":"復國二路","SECT":" ","MAREA":" ","LANE":"２４３巷","ALLEY":" ","HOUSE_NO":"１４號","E_COORD97":172970.38,"N_COORD97":2546131.0699999998,"ADDRESS":"復國二路２４３巷１４號","OBJECTID":234647},"geometry":{"x":172970.37999999989,"y":2546131.0700000022}},{"attributes":{"ID":234652,"DIS_CODE":0,"TOWNNAME":"永康區","LI":"網寮里","LIN":"5鄰","STREET":"永二街","SECT":" ","MAREA":" ","LANE":"１４５巷","ALLEY":" ","HOUSE_NO":"１４號","E_COORD97":173563.88,"N_COORD97":2546394.7400000002,"ADDRESS":"永二街１４５巷１４號","OBJECTID":234648},"geometry":{"x":173563.87999999896,"y":2546394.7400000002}},{"attributes":{"ID":234653,"DIS_CODE":0,"TOWNNAME":"永康區","LI":"復興里","LIN":"13鄰","STREET":"復興路","SECT":" ","MAREA":" ","LANE":"２８２巷","ALLEY":" ","HOUSE_NO":"３號","E_COORD97":172367.78,"N_COORD97":2544356.0299999998,"ADDRESS":"復興路２８２巷３號","OBJECTID":234649},"geometry":{"x":172367.78000000026,"y":2544356.0300000012}},{"attributes":{"ID":234654,"DIS_CODE":0,"TOWNNAME":"永康區","LI":"網寮里","LIN":"20鄰","STREET":"永二街","SECT":" ","MAREA":" ","LANE":"２４５巷","ALLEY":" ","HOUSE_NO":"２０號之３","E_COORD97":173295.82999999999,"N_COORD97":2546183.54,"ADDRESS":"永二街２４５巷２０號之３","OBJECTID":234650},"geometry":{"x":173295.83000000101,"y":2546183.540000001}},{"attributes":{"ID":234655,"DIS_CODE":0,"TOWNNAME":"永康區","LI":"網寮里","LIN":"20鄰","STREET":"永二街","SECT":" ","MAREA":" ","LANE":"２４５巷","ALLEY":" ","HOUSE_NO":"５號","E_COORD97":173327.39999999999,"N_COORD97":2546185.9900000002,"ADDRESS":"永二街２４５巷５號","OBJECTID":234651},"geometry":{"x":173327.4000000013,"y":2546185.9900000002}},{"attributes":{"ID":234656,"DIS_CODE":0,"TOWNNAME":"永康區","LI":"復興里","LIN":"25鄰","STREET":"復興路","SECT":" ","MAREA":" ","LANE":"４２９巷","ALLEY":" ","HOUSE_NO":"９３號","E_COORD97":172280.12,"N_COORD97":2543846.6699999999,"ADDRESS":"復興路４２９巷９３號","OBJECTID":234652},"geometry":{"x":172280.12000000104,"y":2543846.6700000037}},{"attributes":{"ID":234657,"DIS_CODE":0,"TOWNNAME":"永康區","LI":"網寮里","LIN":"25鄰","STREET":"永春街","SECT":" ","MAREA":" ","LANE":"９６巷","ALLEY":" ","HOUSE_NO":"１２號","E_COORD97":173761.73999999999,"N_COORD97":2546529.73,"ADDRESS":"永春街９６巷１２號","OBJECTID":234653},"geometry":{"x":173761.74000000022,"y":2546529.7300000023}},{"attributes":{"ID":234658,"DIS_CODE":0,"TOWNNAME":"永康區","LI":"復華里","LIN":"4鄰","STREET":"復國二路","SECT":" ","MAREA":" ","LANE":"２４３巷","ALLEY":" ","HOUSE_NO":"８號","E_COORD97":172980.35000000001,"N_COORD97":2546125.8199999998,"ADDRESS":"復國二路２４３巷８號","OBJECTID":234654},"geometry":{"x":172980.34999999963,"y":2546125.8200000022}},{"attributes":{"ID":234659,"DIS_CODE":0,"TOWNNAME":"永康區","LI":"網寮里","LIN":"5鄰","STREET":"永勝街","SECT":" ","MAREA":" ","LANE":"１０６巷","ALLEY":" ","HOUSE_NO":"１１號","E_COORD97":173573.66,"N_COORD97":2546357.4300000002,"ADDRESS":"永勝街１０６巷１１號","OBJECTID":234655},"geometry":{"x":173573.66000000015,"y":2546357.4300000016}},{"attributes":{"ID":234660,"DIS_CODE":0,"TOWNNAME":"南區","LI":"明興里","LIN":"16鄰","STREET":"德興路","SECT":" ","MAREA":" ","LANE":"１６４巷","ALLEY":" ","HOUSE_NO":"６５號","E_COORD97":167082.97,"N_COORD97":2540296.0099999998,"ADDRESS":"德興路１６４巷６５號","OBJECTID":234656},"geometry":{"x":167082.97000000067,"y":2540296.0100000016}},{"attributes":{"ID":234661,"DIS_CODE":0,"TOWNNAME":"新化區","LI":"全興里","LIN":"16鄰","STREET":" ","SECT":" ","MAREA":"竹子\u25A0","LANE":" ","ALLEY":" ","HOUSE_NO":"２４７號之４９７","E_COORD97":178279.07999999999,"N_COORD97":2546664.2599999998,"ADDRESS":"竹子\u25A0２４７號之４９７","OBJECTID":234657},"geometry":{"x":178279.08000000101,"y":2546664.2600000016}},{"attributes":{"ID":234662,"DIS_CODE":0,"TOWNNAME":"新化區","LI":"全興里","LIN":"16鄰","STREET":" ","SECT":" ","MAREA":"竹子\u25A0","LANE":" ","ALLEY":" ","HOUSE_NO":"２４７號之３９８","E_COORD97":178244.69,"N_COORD97":2546677.2599999998,"ADDRESS":"竹子\u25A0２４７號之３９８","OBJECTID":234658},"geometry":{"x":178244.69000000227,"y":2546677.2600000016}},{"attributes":{"ID":234663,"DIS_CODE":0,"TOWNNAME":"新化區","LI":"全興里","LIN":"16鄰","STREET":" ","SECT":" ","MAREA":"竹子\u25A0","LANE":" ","ALLEY":" ","HOUSE_NO":"２４７號之５５６","E_COORD97":178240.07999999999,"N_COORD97":2546636.2599999998,"ADDRESS":"竹子\u25A0２４７號之５５６","OBJECTID":234659},"geometry":{"x":178240.08000000101,"y":2546636.2600000035}},{"attributes":{"ID":234664,"DIS_CODE":0,"TOWNNAME":"南區","LI":"明興里","LIN":"16鄰","STREET":"德興路","SECT":" ","MAREA":" ","LANE":"１６４巷","ALLEY":" ","HOUSE_NO":"６７號","E_COORD97":167087.42999999999,"N_COORD97":2540297.4199999999,"ADDRESS":"德興路１６４巷６７號","OBJECTID":234660},"geometry":{"x":167087.4299999997,"y":2540297.4199999999}},{"attributes":{"ID":234665,"DIS_CODE":0,"TOWNNAME":"南區","LI":"明興里","LIN":"16鄰","STREET":"德興路","SECT":" ","MAREA":" ","LANE":"１６４巷","ALLEY":" ","HOUSE_NO":"６９號","E_COORD97":167092.31,"N_COORD97":2540298.4900000002,"ADDRESS":"德興路１６４巷６９號","OBJECTID":234661},"geometry":{"x":167092.31000000052,"y":2540298.4900000039}},{"attributes":{"ID":234666,"DIS_CODE":0,"TOWNNAME":"永康區","LI":"復興里","LIN":"25鄰","STREET":"復興路","SECT":" ","MAREA":" ","LANE":"４２９巷","ALLEY":" ","HOUSE_NO":"９１號","E_COORD97":172275.25,"N_COORD97":2543858.96,"ADDRESS":"復興路４２９巷９１號","OBJECTID":234662},"geometry":{"x":172275.25000000093,"y":2543858.9600000009}},{"attributes":{"ID":234667,"DIS_CODE":0,"TOWNNAME":"永康區","LI":"網寮里","LIN":"24鄰","STREET":"永春街","SECT":" ","MAREA":" ","LANE":"３６巷","ALLEY":" ","HOUSE_NO":"３２號","E_COORD97":173823.78,"N_COORD97":2546393.7000000002,"ADDRESS":"永春街３６巷３２號","OBJECTID":234663},"geometry":{"x":173823.78000000026,"y":2546393.6999999993}},{"attributes":{"ID":234668,"DIS_CODE":0,"TOWNNAME":"永康區","LI":"復華里","LIN":"4鄰","STREET":"復國二路","SECT":" ","MAREA":" ","LANE":"２４３巷","ALLEY":" ","HOUSE_NO":"１８號","E_COORD97":172963.03,"N_COORD97":2546134.5699999998,"ADDRESS":"復國二路２４３巷１８號","OBJECTID":234664},"geometry":{"x":172963.03000000026,"y":2546134.5700000022}},{"attributes":{"ID":234669,"DIS_CODE":0,"TOWNNAME":"永康區","LI":"復興里","LIN":"18鄰","STREET":"復興路","SECT":" ","MAREA":" ","LANE":"３５６巷","ALLEY":" ","HOUSE_NO":"７５號","E_COORD97":172329.72,"N_COORD97":2544502.5800000001,"ADDRESS":"復興路３５６巷７５號","OBJECTID":234665},"geometry":{"x":172329.72000000067,"y":2544502.5800000019}},{"attributes":{"ID":234670,"DIS_CODE":0,"TOWNNAME":"永康區","LI":"復興里","LIN":"20鄰","STREET":"復興路","SECT":" ","MAREA":" ","LANE":"３５６巷","ALLEY":" ","HOUSE_NO":"４４號","E_COORD97":172312.39999999999,"N_COORD97":2544443.0899999999,"ADDRESS":"復興路３５６巷４４號","OBJECTID":234666},"geometry":{"x":172312.4000000013,"y":2544443.0899999999}},{"attributes":{"ID":234671,"DIS_CODE":0,"TOWNNAME":"安南區","LI":"城東里","LIN":"14鄰","STREET":"城北路","SECT":" ","MAREA":" ","LANE":" ","ALLEY":" ","HOUSE_NO":"４３４號","E_COORD97":160918.20999999999,"N_COORD97":2552279.6600000001,"ADDRESS":"城北路４３４號","OBJECTID":234667},"geometry":{"x":160918.21000000089,"y":2552279.660000002}},{"attributes":{"ID":234672,"DIS_CODE":0,"TOWNNAME":"安南區","LI":"安慶里","LIN":"14鄰","STREET":"安中路","SECT":"一段","MAREA":" ","LANE":" ","ALLEY":" ","HOUSE_NO":"８７之１１號","E_COORD97":168978.56,"N_COORD97":2548344.73,"ADDRESS":"安中路一段８７之１１號","OBJECTID":234668},"geometry":{"x":168978.55999999866,"y":2548344.7300000004}},{"attributes":{"ID":234673,"DIS_CODE":0,"TOWNNAME":"東區","LI":"東門里","LIN":"14鄰","STREET":"慶東街","SECT":" ","MAREA":" ","LANE":" ","ALLEY":" ","HOUSE_NO":"９２號","E_COORD97":169654.23000000001,"N_COORD97":2543163.4100000001,"ADDRESS":"慶東街９２號","OBJECTID":234669},"geometry":{"x":169654.23000000045,"y":2543163.4100000001}},{"attributes":{"ID":234674,"DIS_CODE":0,"TOWNNAME":"東區","LI":"裕農里","LIN":"20鄰","STREET":"裕豐街","SECT":" ","MAREA":" ","LANE":"２２２巷","ALLEY":" ","HOUSE_NO":"４２號","E_COORD97":170914.82000000001,"N_COORD97":2543212.98,"ADDRESS":"裕豐街２２２巷４２號","OBJECTID":234670},"geometry":{"x":170914.8200000003,"y":2543212.9800000004}},{"attributes":{"ID":234675,"DIS_CODE":0,"TOWNNAME":"安定區","LI":"蘇厝里","LIN":"14鄰","STREET":" ","SECT":" ","MAREA":"蘇厝","LANE":" ","ALLEY":" ","HOUSE_NO":"４１８號","E_COORD97":173073.51999999999,"N_COORD97":2558693.25,"ADDRESS":"蘇厝４１８號","OBJECTID":234671},"geometry":{"x":173073.52000000048,"y":2558693.2500000019}},{"attributes":{"ID":234676,"DIS_CODE":0,"TOWNNAME":"東區","LI":"崇學里","LIN":"12鄰","STREET":"崇明十街","SECT":" ","MAREA":" ","LANE":"７０巷","ALLEY":" ","HOUSE_NO":"２６號","E_COORD97":170250.29999999999,"N_COORD97":2541824.5600000001,"ADDRESS":"崇明十街７０巷２６號","OBJECTID":234672},"geometry":{"x":170250.29999999888,"y":2541824.5600000024}},{"attributes":{"ID":234677,"DIS_CODE":0,"TOWNNAME":"東區","LI":"崇學里","LIN":"12鄰","STREET":"崇明十街","SECT":" ","MAREA":" ","LANE":"７０巷","ALLEY":" ","HOUSE_NO":"２８號","E_COORD97":170254.34,"N_COORD97":2541820.02,"ADDRESS":"崇明十街７０巷２８號","OBJECTID":234673},"geometry":{"x":170254.34000000078,"y":2541820.0200000033}},{"attributes":{"ID":234678,"DIS_CODE":0,"TOWNNAME":"安南區","LI":"城東里","LIN":"14鄰","STREET":"城北路","SECT":" ","MAREA":" ","LANE":" ","ALLEY":" ","HOUSE_NO":"４８４之１１號","E_COORD97":160919.41398499999,"N_COORD97":2552427.6275800001,"ADDRESS":"城北路４８４之１１號","OBJECTID":234674},"geometry":{"x":160919.41398499999,"y":2552427.6275820024}},{"attributes":{"ID":234679,"DIS_CODE":0,"TOWNNAME":"北區","LI":"成德里","LIN":"16鄰","STREET":"文成一路","SECT":" ","MAREA":" ","LANE":"６巷","ALLEY":" ","HOUSE_NO":"１０號","E_COORD97":168921.51000000001,"N_COORD97":2546063.0899999999,"ADDRESS":"文成一路６巷１０號","OBJECTID":234675},"geometry":{"x":168921.50999999885,"y":2546063.0899999999}},{"attributes":{"ID":234680,"DIS_CODE":0,"TOWNNAME":"永康區","LI":"復興里","LIN":"4鄰","STREET":"復興路","SECT":" ","MAREA":" ","LANE":"４２３巷","ALLEY":" ","HOUSE_NO":"７９號","E_COORD97":172221.16,"N_COORD97":2544233.5800000001,"ADDRESS":"復興路４２３巷７９號","OBJECTID":234676},"geometry":{"x":172221.16000000015,"y":2544233.5800000001}},{"attributes":{"ID":234681,"DIS_CODE":0,"TOWNNAME":"永康區","LI":"網寮里","LIN":"25鄰","STREET":"永春街","SECT":" ","MAREA":" ","LANE":"９６巷","ALLEY":" ","HOUSE_NO":"１０號","E_COORD97":173757.19,"N_COORD97":2546529.98,"ADDRESS":"永春街９６巷１０號","OBJECTID":234677},"geometry":{"x":173757.19000000041,"y":2546529.9800000004}},{"attributes":{"ID":234682,"DIS_CODE":0,"TOWNNAME":"東區","LI":"東門里","LIN":"14鄰","STREET":"東門路","SECT":"一段","MAREA":" ","LANE":" ","ALLEY":" ","HOUSE_NO":"１６１號","E_COORD97":169534.23000000001,"N_COORD97":2543160.73,"ADDRESS":"東門路一段１６１號","OBJECTID":234678},"geometry":{"x":169534.23000000045,"y":2543160.7300000004}},{"attributes":{"ID":234683,"DIS_CODE":0,"TOWNNAME":"東區","LI":"東門里","LIN":"14鄰","STREET":"東門路","SECT":"一段","MAREA":" ","LANE":" ","ALLEY":" ","HOUSE_NO":"１６３號","E_COORD97":169548.39000000001,"N_COORD97":2543174.7799999998,"ADDRESS":"東門路一段１６３號","OBJECTID":234679},"geometry":{"x":169548.3900000006,"y":2543174.7800000012}},{"attributes":{"ID":234684,"DIS_CODE":0,"TOWNNAME":"東區","LI":"東門里","LIN":"14鄰","STREET":"東門路","SECT":"一段","MAREA":" ","LANE":" ","ALLEY":" ","HOUSE_NO":"１６５號","E_COORD97":169554.95000000001,"N_COORD97":2543186.8100000001,"ADDRESS":"東門路一段１６５號","OBJECTID":234680},"geometry":{"x":169554.95000000112,"y":2543186.8100000024}},{"attributes":{"ID":234685,"DIS_CODE":0,"TOWNNAME":"東區","LI":"東門里","LIN":"14鄰","STREET":"東門路","SECT":"一段","MAREA":" ","LANE":" ","ALLEY":" ","HOUSE_NO":"１６７號","E_COORD97":169541.79000000001,"N_COORD97":2543156.9500000002,"ADDRESS":"東門路一段１６７號","OBJECTID":234681},"geometry":{"x":169541.79000000004,"y":2543156.9500000011}},{"attributes":{"ID":234686,"DIS_CODE":0,"TOWNNAME":"永康區","LI":"復興里","LIN":"25鄰","STREET":"復興路","SECT":" ","MAREA":" ","LANE":"４２９巷","ALLEY":" ","HOUSE_NO":"１３２號之１","E_COORD97":172292.45000000001,"N_COORD97":2543753.5,"ADDRESS":"復興路４２９巷１３２號之１","OBJECTID":234682},"geometry":{"x":172292.45000000205,"y":2543753.5000000019}},{"attributes":{"ID":234687,"DIS_CODE":0,"TOWNNAME":"永康區","LI":"復興里","LIN":"25鄰","STREET":"復興路","SECT":" ","MAREA":" ","LANE":"４２９巷","ALLEY":" ","HOUSE_NO":"１０８號","E_COORD97":172294.78,"N_COORD97":2543817.9199999999,"ADDRESS":"復興路４２９巷１０８號","OBJECTID":234683},"geometry":{"x":172294.78000000026,"y":2543817.9200000037}},{"attributes":{"ID":234688,"DIS_CODE":0,"TOWNNAME":"永康區","LI":"新樹里","LIN":"4鄰","STREET":"富強路","SECT":"二段","MAREA":" ","LANE":"３９８巷","ALLEY":" ","HOUSE_NO":"１３２號","E_COORD97":176003.67999999999,"N_COORD97":2547627.27,"ADDRESS":"富強路二段３９８巷１３２號","OBJECTID":234684},"geometry":{"x":176003.68000000063,"y":2547627.2700000014}},{"attributes":{"ID":234689,"DIS_CODE":0,"TOWNNAME":"永康區","LI":"龍潭里","LIN":"4鄰","STREET":"龍潭街","SECT":" ","MAREA":" ","LANE":"１２１巷","ALLEY":" ","HOUSE_NO":"１號","E_COORD97":174852.29999999999,"N_COORD97":2548159.75,"ADDRESS":"龍潭街１２１巷１號","OBJECTID":234685},"geometry":{"x":174852.29999999981,"y":2548159.7500000019}},{"attributes":{"ID":234690,"DIS_CODE":0,"TOWNNAME":"永康區","LI":"復興里","LIN":"25鄰","STREET":"復興路","SECT":" ","MAREA":" ","LANE":"４２９巷","ALLEY":" ","HOUSE_NO":"８９號","E_COORD97":172270.76000000001,"N_COORD97":2543856.46,"ADDRESS":"復興路４２９巷８９號","OBJECTID":234686},"geometry":{"x":172270.75999999978,"y":2543856.4600000028}},{"attributes":{"ID":234691,"DIS_CODE":0,"TOWNNAME":"永康區","LI":"復華里","LIN":"41鄰","STREET":"復華六街","SECT":" ","MAREA":" ","LANE":"８８巷","ALLEY":" ","HOUSE_NO":"３號","E_COORD97":172647.06,"N_COORD97":2545877.2999999998,"ADDRESS":"復華六街８８巷３號","OBJECTID":234687},"geometry":{"x":172647.06000000145,"y":2545877.2999999989}},{"attributes":{"ID":234692,"DIS_CODE":0,"TOWNNAME":"永康區","LI":"二王里","LIN":"46鄰","STREET":"南工街","SECT":" ","MAREA":" ","LANE":"２１４巷","ALLEY":" ","HOUSE_NO":"２２號","E_COORD97":172049.29000000001,"N_COORD97":2546015.75,"ADDRESS":"南工街２１４巷２２號","OBJECTID":234688},"geometry":{"x":172049.2900000019,"y":2546015.75}},{"attributes":{"ID":234693,"DIS_CODE":0,"TOWNNAME":"永康區","LI":"二王里","LIN":"20鄰","STREET":"中山南路","SECT":" ","MAREA":" ","LANE":"６４４巷","ALLEY":" ","HOUSE_NO":"３６號","E_COORD97":172389.72,"N_COORD97":2546564.5099999998,"ADDRESS":"中山南路６４４巷３６號","OBJECTID":234689},"geometry":{"x":172389.71999999974,"y":2546564.5100000016}},{"attributes":{"ID":234694,"DIS_CODE":0,"TOWNNAME":"安南區","LI":"安西里","LIN":"8鄰","STREET":"安中路","SECT":"一段","MAREA":" ","LANE":"２９巷","ALLEY":" ","HOUSE_NO":"４６號","E_COORD97":169087.04374299999,"N_COORD97":2548198.3036099998,"ADDRESS":"安中路一段２９巷４６號","OBJECTID":234690},"geometry":{"x":169087.04374300037,"y":2548198.3036049996}},{"attributes":{"ID":234695,"DIS_CODE":0,"TOWNNAME":"仁德區","LI":"後壁里","LIN":"42鄰","STREET":"德崙路","SECT":" ","MAREA":" ","LANE":"４８巷","ALLEY":" ","HOUSE_NO":"６號","E_COORD97":173295.20999999999,"N_COORD97":2538543.02,"ADDRESS":"德崙路４８巷６號","OBJECTID":234691},"geometry":{"x":173295.20999999996,"y":2538543.0200000014}},{"attributes":{"ID":234696,"DIS_CODE":0,"TOWNNAME":"麻豆區","LI":"小埤里","LIN":"6鄰","STREET":" ","SECT":" ","MAREA":"小埤頭","LANE":" ","ALLEY":" ","HOUSE_NO":"３１號之２３","E_COORD97":171531.45000000001,"N_COORD97":2565996.3300000001,"ADDRESS":"小埤頭３１號之２３","OBJECTID":234692},"geometry":{"x":171531.45000000205,"y":2565996.3300000019}},{"attributes":{"ID":234697,"DIS_CODE":0,"TOWNNAME":"仁德區","LI":"新田里","LIN":"4鄰","STREET":"新田路","SECT":" ","MAREA":" ","LANE":"１９９巷","ALLEY":" ","HOUSE_NO":"８號","E_COORD97":174463.26999999999,"N_COORD97":2539602.25,"ADDRESS":"新田路１９９巷８號","OBJECTID":234693},"geometry":{"x":174463.27000000048,"y":2539602.2500000019}},{"attributes":{"ID":234698,"DIS_CODE":0,"TOWNNAME":"仁德區","LI":"後壁里","LIN":"18鄰","STREET":"德南路","SECT":" ","MAREA":" ","LANE":"７０巷","ALLEY":" ","HOUSE_NO":"１８號","E_COORD97":173355.70000000001,"N_COORD97":2538624.2599999998,"ADDRESS":"德南路７０巷１８號","OBJECTID":234694},"geometry":{"x":173355.70000000112,"y":2538624.2599999998}},{"attributes":{"ID":234699,"DIS_CODE":0,"TOWNNAME":"官田區","LI":"隆田里","LIN":"8鄰","STREET":"勝利路","SECT":" ","MAREA":" ","LANE":"３１巷","ALLEY":" ","HOUSE_NO":"９號","E_COORD97":179942.94,"N_COORD97":2565871.0299999998,"ADDRESS":"勝利路３１巷９號","OBJECTID":234695},"geometry":{"x":179942.94000000041,"y":2565871.0300000031}},{"attributes":{"ID":234700,"DIS_CODE":0,"TOWNNAME":"永康區","LI":"王行里","LIN":"4鄰","STREET":"育樂街","SECT":" ","MAREA":" ","LANE":"１６７巷","ALLEY":" ","HOUSE_NO":"９號","E_COORD97":175007.81,"N_COORD97":2548303.71,"ADDRESS":"育樂街１６７巷９號","OBJECTID":234696},"geometry":{"x":175007.80999999959,"y":2548303.7100000028}},{"attributes":{"ID":234701,"DIS_CODE":0,"TOWNNAME":"新市區","LI":"新和里","LIN":"39鄰","STREET":"中正路","SECT":" ","MAREA":" ","LANE":"１９５巷","ALLEY":" ","HOUSE_NO":"５號","E_COORD97":177391.34,"N_COORD97":2552903.25,"ADDRESS":"中正路１９５巷５號","OBJECTID":234697},"geometry":{"x":177391.33999999985,"y":2552903.2500000019}},{"attributes":{"ID":234702,"DIS_CODE":0,"TOWNNAME":"仁德區","LI":"新田里","LIN":"4鄰","STREET":"新田路","SECT":" ","MAREA":" ","LANE":"２４０巷","ALLEY":" ","HOUSE_NO":"２之２號","E_COORD97":174528.26999999999,"N_COORD97":2539590.7999999998,"ADDRESS":"新田路２４０巷２之２號","OBJECTID":234698},"geometry":{"x":174528.26999999955,"y":2539590.8000000007}},{"attributes":{"ID":234703,"DIS_CODE":0,"TOWNNAME":"仁德區","LI":"後壁里","LIN":"25鄰","STREET":"德洋一街","SECT":" ","MAREA":" ","LANE":"２１巷","ALLEY":" ","HOUSE_NO":"５號","E_COORD97":173066.39000000001,"N_COORD97":2539146.0099999998,"ADDRESS":"德洋一街２１巷５號","OBJECTID":234699},"geometry":{"x":173066.38999999966,"y":2539146.0100000016}},{"attributes":{"ID":234704,"DIS_CODE":0,"TOWNNAME":"新市區","LI":"新和里","LIN":"42鄰","STREET":"勝利街","SECT":" ","MAREA":" ","LANE":"１２巷","ALLEY":" ","HOUSE_NO":"８號","E_COORD97":177383.10000000001,"N_COORD97":2552985.0099999998,"ADDRESS":"勝利街１２巷８號","OBJECTID":234700},"geometry":{"x":177383.0999999987,"y":2552985.0100000016}},{"attributes":{"ID":234705,"DIS_CODE":0,"TOWNNAME":"新市區","LI":"新和里","LIN":"42鄰","STREET":"信義街","SECT":" ","MAREA":" ","LANE":"１０６巷","ALLEY":" ","HOUSE_NO":"１３３號","E_COORD97":177339.39999999999,"N_COORD97":2553019.77,"ADDRESS":"信義街１０６巷１３３號","OBJECTID":234701},"geometry":{"x":177339.40000000037,"y":2553019.7699999977}},{"attributes":{"ID":234706,"DIS_CODE":0,"TOWNNAME":"新市區","LI":"新和里","LIN":"46鄰","STREET":"和平街","SECT":" ","MAREA":" ","LANE":"２１２巷","ALLEY":" ","HOUSE_NO":"１４號","E_COORD97":177336.54000000001,"N_COORD97":2553254,"ADDRESS":"和平街２１２巷１４號","OBJECTID":234702},"geometry":{"x":177336.5400000019,"y":2553254.0000000019}},{"attributes":{"ID":234707,"DIS_CODE":0,"TOWNNAME":"安南區","LI":"安富里","LIN":"32鄰","STREET":"府安路","SECT":"五段","MAREA":" ","LANE":"１６２巷","ALLEY":" ","HOUSE_NO":"８號","E_COORD97":167780.95999999999,"N_COORD97":2547056.6400000001,"ADDRESS":"府安路五段１６２巷８號","OBJECTID":234703},"geometry":{"x":167780.95999999996,"y":2547056.6400000006}},{"attributes":{"ID":234708,"DIS_CODE":0,"TOWNNAME":"安南區","LI":"溪心里","LIN":"13鄰","STREET":"安中路","SECT":"三段","MAREA":" ","LANE":"１５３巷","ALLEY":" ","HOUSE_NO":"３６號","E_COORD97":165961.63,"N_COORD97":2549727.3900000001,"ADDRESS":"安中路三段１５３巷３６號","OBJECTID":234704},"geometry":{"x":165961.63000000082,"y":2549727.3900000006}},{"attributes":{"ID":234709,"DIS_CODE":0,"TOWNNAME":"安南區","LI":"新順里","LIN":"25鄰","STREET":"培安路","SECT":" ","MAREA":" ","LANE":"１９５巷","ALLEY":" ","HOUSE_NO":"４３號","E_COORD97":169283.63,"N_COORD97":2549214.5299999998,"ADDRESS":"培安路１９５巷４３號","OBJECTID":234705},"geometry":{"x":169283.63000000175,"y":2549214.5300000012}},{"attributes":{"ID":234710,"DIS_CODE":0,"TOWNNAME":"麻豆區","LI":"大埕里","LIN":"7鄰","STREET":" ","SECT":" ","MAREA":"大埕","LANE":" ","ALLEY":" ","HOUSE_NO":"８號之１","E_COORD97":173282.04000000001,"N_COORD97":2565113.2599999998,"ADDRESS":"大埕８號之１","OBJECTID":234706},"geometry":{"x":173282.04000000097,"y":2565113.2599999998}},{"attributes":{"ID":234711,"DIS_CODE":0,"TOWNNAME":"安南區","LI":"海西里","LIN":"16鄰","STREET":"海前路","SECT":" ","MAREA":" ","LANE":" ","ALLEY":" ","HOUSE_NO":"９１號","E_COORD97":166690.32436699999,"N_COORD97":2547906.6762600001,"ADDRESS":"海前路９１號","OBJECTID":234707},"geometry":{"x":166690.32436700072,"y":2547906.676260002}},{"attributes":{"ID":234712,"DIS_CODE":0,"TOWNNAME":"安南區","LI":"海西里","LIN":"16鄰","STREET":"海前路","SECT":" ","MAREA":" ","LANE":" ","ALLEY":" ","HOUSE_NO":"９３號","E_COORD97":166688.41884999999,"N_COORD97":2547918.3179199998,"ADDRESS":"海前路９３號","OBJECTID":234708},"geometry":{"x":166688.41885000095,"y":2547918.3179210015}},{"attributes":{"ID":234713,"DIS_CODE":0,"TOWNNAME":"北區","LI":"成功里","LIN":"16鄰","STREET":"北成路","SECT":" ","MAREA":" ","LANE":"１２８巷","ALLEY":" ","HOUSE_NO":"１６號","E_COORD97":168944.88,"N_COORD97":2546728.8599999999,"ADDRESS":"北成路１２８巷１６號","OBJECTID":234709},"geometry":{"x":168944.88000000082,"y":2546728.8599999994}},{"attributes":{"ID":234714,"DIS_CODE":0,"TOWNNAME":"北區","LI":"成功里","LIN":"16鄰","STREET":"北成路","SECT":" ","MAREA":" ","LANE":"１２８巷","ALLEY":" ","HOUSE_NO":"１０號","E_COORD97":168938.69,"N_COORD97":2546714.9500000002,"ADDRESS":"北成路１２８巷１０號","OBJECTID":234710},"geometry":{"x":168938.69000000134,"y":2546714.9499999993}},{"attributes":{"ID":234715,"DIS_CODE":0,"TOWNNAME":"北區","LI":"成功里","LIN":"16鄰","STREET":"北成路","SECT":" ","MAREA":" ","LANE":"１２８巷","ALLEY":" ","HOUSE_NO":"１２號","E_COORD97":168941.16,"N_COORD97":2546719.2799999998,"ADDRESS":"北成路１２８巷１２號","OBJECTID":234711},"geometry":{"x":168941.16000000015,"y":2546719.2799999993}},{"attributes":{"ID":234716,"DIS_CODE":0,"TOWNNAME":"永康區","LI":"北灣里","LIN":"4鄰","STREET":"信義街","SECT":" ","MAREA":" ","LANE":"６２巷","ALLEY":" ","HOUSE_NO":"３５號","E_COORD97":175415.17999999999,"N_COORD97":2545764.23,"ADDRESS":"信義街６２巷３５號","OBJECTID":234712},"geometry":{"x":175415.18000000063,"y":2545764.2300000004}},{"attributes":{"ID":234717,"DIS_CODE":0,"TOWNNAME":"永康區","LI":"北灣里","LIN":"39鄰","STREET":"大同街","SECT":" ","MAREA":" ","LANE":"４２５巷","ALLEY":" ","HOUSE_NO":"２０號","E_COORD97":174576.32999999999,"N_COORD97":2546322.0699999998,"ADDRESS":"大同街４２５巷２０號","OBJECTID":234713},"geometry":{"x":174576.33000000007,"y":2546322.0700000003}},{"attributes":{"ID":234718,"DIS_CODE":0,"TOWNNAME":"永康區","LI":"龍潭里","LIN":"43鄰","STREET":"國民路","SECT":" ","MAREA":" ","LANE":"２３１巷","ALLEY":" ","HOUSE_NO":"４９號二樓","E_COORD97":174612.10000000001,"N_COORD97":2547019.8199999998,"ADDRESS":"國民路２３１巷４９號二樓","OBJECTID":234714},"geometry":{"x":174612.10000000056,"y":2547019.8200000022}},{"attributes":{"ID":234719,"DIS_CODE":0,"TOWNNAME":"永康區","LI":"安康里","LIN":"24鄰","STREET":"中華路","SECT":" ","MAREA":" ","LANE":"７０３巷","ALLEY":" ","HOUSE_NO":"６２號四樓","E_COORD97":170760.39999999999,"N_COORD97":2546251,"ADDRESS":"中華路７０３巷６２號四樓","OBJECTID":234715},"geometry":{"x":170760.40000000037,"y":2546251}},{"attributes":{"ID":234720,"DIS_CODE":0,"TOWNNAME":"永康區","LI":"龍潭里","LIN":"43鄰","STREET":"國民路","SECT":" ","MAREA":" ","LANE":"２３１巷","ALLEY":" ","HOUSE_NO":"４７號五樓","E_COORD97":174612.01999999999,"N_COORD97":2547023.3199999998,"ADDRESS":"國民路２３１巷４７號五樓","OBJECTID":234716},"geometry":{"x":174612.02000000142,"y":2547023.3200000022}},{"attributes":{"ID":234721,"DIS_CODE":0,"TOWNNAME":"永康區","LI":"\u25A0行里","LIN":"39鄰","STREET":"永安路","SECT":" ","MAREA":" ","LANE":"１０５巷","ALLEY":" ","HOUSE_NO":"２３號六樓","E_COORD97":172727.29000000001,"N_COORD97":2549229.3799999999,"ADDRESS":"永安路１０５巷２３號六樓","OBJECTID":234717},"geometry":{"x":172727.28999999911,"y":2549229.3800000008}},{"attributes":{"ID":234722,"DIS_CODE":0,"TOWNNAME":"永康區","LI":"\u25A0行里","LIN":"39鄰","STREET":"永安路","SECT":" ","MAREA":" ","LANE":"１０５巷","ALLEY":" ","HOUSE_NO":"２３號二樓","E_COORD97":172727.29000000001,"N_COORD97":2549229.3799999999,"ADDRESS":"永安路１０５巷２３號二樓","OBJECTID":234718},"geometry":{"x":172727.28999999911,"y":2549229.3800000008}},{"attributes":{"ID":234723,"DIS_CODE":0,"TOWNNAME":"永康區","LI":"復華里","LIN":"32鄰","STREET":"國華街","SECT":" ","MAREA":" ","LANE":"１６２巷","ALLEY":" ","HOUSE_NO":"３號","E_COORD97":172571.95999999999,"N_COORD97":2546322.25,"ADDRESS":"國華街１６２巷３號","OBJECTID":234719},"geometry":{"x":172571.96000000183,"y":2546322.2500000019}},{"attributes":{"ID":234724,"DIS_CODE":0,"TOWNNAME":"永康區","LI":"復國里","LIN":"4鄰","STREET":"復國一路","SECT":" ","MAREA":" ","LANE":"６８巷","ALLEY":" ","HOUSE_NO":"２９號","E_COORD97":172793.34,"N_COORD97":2544878.0299999998,"ADDRESS":"復國一路６８巷２９號","OBJECTID":234720},"geometry":{"x":172793.34000000078,"y":2544878.0300000012}},{"attributes":{"ID":234725,"DIS_CODE":0,"TOWNNAME":"永康區","LI":"復國里","LIN":"4鄰","STREET":"復國一路","SECT":" ","MAREA":" ","LANE":"６８巷","ALLEY":" ","HOUSE_NO":"１１號","E_COORD97":172757.54000000001,"N_COORD97":2544876.5299999998,"ADDRESS":"復國一路６８巷１１號","OBJECTID":234721},"geometry":{"x":172757.54000000004,"y":2544876.5299999993}},{"attributes":{"ID":234726,"DIS_CODE":0,"TOWNNAME":"東區","LI":"東門里","LIN":"14鄰","STREET":"東門路","SECT":"一段","MAREA":" ","LANE":" ","ALLEY":" ","HOUSE_NO":"１６９號","E_COORD97":169545.75,"N_COORD97":2543155.96,"ADDRESS":"東門路一段１６９號","OBJECTID":234722},"geometry":{"x":169545.75000000186,"y":2543155.9600000009}},{"attributes":{"ID":234727,"DIS_CODE":0,"TOWNNAME":"東區","LI":"東門里","LIN":"14鄰","STREET":"東門路","SECT":"一段","MAREA":" ","LANE":" ","ALLEY":" ","HOUSE_NO":"１７１號","E_COORD97":169549.20999999999,"N_COORD97":2543153.98,"ADDRESS":"東門路一段１７１號","OBJECTID":234723},"geometry":{"x":169549.20999999903,"y":2543153.9800000023}},{"attributes":{"ID":234728,"DIS_CODE":0,"TOWNNAME":"東區","LI":"東門里","LIN":"14鄰","STREET":"東門路","SECT":"一段","MAREA":" ","LANE":" ","ALLEY":" ","HOUSE_NO":"１７３號","E_COORD97":169553.42000000001,"N_COORD97":2543152.8700000001,"ADDRESS":"東門路一段１７３號","OBJECTID":234724},"geometry":{"x":169553.42000000086,"y":2543152.8700000029}},{"attributes":{"ID":234729,"DIS_CODE":0,"TOWNNAME":"新營區","LI":"土庫里","LIN":"16鄰","STREET":" ","SECT":" ","MAREA":"卯舍","LANE":" ","ALLEY":" ","HOUSE_NO":"１０號","E_COORD97":181949.67999999999,"N_COORD97":2580192.6899999999,"ADDRESS":"卯舍１０號","OBJECTID":234725},"geometry":{"x":181949.68000000156,"y":2580192.6899999995}},{"attributes":{"ID":234730,"DIS_CODE":0,"TOWNNAME":"東區","LI":"東門里","LIN":"14鄰","STREET":"東門路","SECT":"一段","MAREA":" ","LANE":" ","ALLEY":" ","HOUSE_NO":"１７５號","E_COORD97":169560.01000000001,"N_COORD97":2543173.5499999998,"ADDRESS":"東門路一段１７５號","OBJECTID":234726},"geometry":{"x":169560.00999999978,"y":2543173.5499999989}},{"attributes":{"ID":234731,"DIS_CODE":0,"TOWNNAME":"安南區","LI":"海西里","LIN":"16鄰","STREET":"海前路","SECT":" ","MAREA":" ","LANE":" ","ALLEY":" ","HOUSE_NO":"９７號","E_COORD97":166685.45471300001,"N_COORD97":2547940.1195700001,"ADDRESS":"海前路９７號","OBJECTID":234727},"geometry":{"x":166685.45471300092,"y":2547940.1195749994}},{"attributes":{"ID":234732,"DIS_CODE":0,"TOWNNAME":"安南區","LI":"海西里","LIN":"16鄰","STREET":"海前路","SECT":" ","MAREA":" ","LANE":" ","ALLEY":" ","HOUSE_NO":"９９號","E_COORD97":166683.54919600001,"N_COORD97":2547951.7612399999,"ADDRESS":"海前路９９號","OBJECTID":234728},"geometry":{"x":166683.54919600021,"y":2547951.7612360027}},{"attributes":{"ID":234733,"DIS_CODE":0,"TOWNNAME":"北區","LI":"大和里","LIN":"16鄰","STREET":"文賢路","SECT":" ","MAREA":" ","LANE":"７９９巷","ALLEY":" ","HOUSE_NO":"６０號","E_COORD97":167151.92999999999,"N_COORD97":2546273.4199999999,"ADDRESS":"文賢路７９９巷６０號","OBJECTID":234729},"geometry":{"x":167151.9299999997,"y":2546273.4200000018}},{"attributes":{"ID":234734,"DIS_CODE":0,"TOWNNAME":"北區","LI":"公園里","LIN":"16鄰","STREET":"成功路","SECT":" ","MAREA":" ","LANE":"２２巷","ALLEY":" ","HOUSE_NO":"６號","E_COORD97":168909.69,"N_COORD97":2544298.9199999999,"ADDRESS":"成功路２２巷６號","OBJECTID":234730},"geometry":{"x":168909.69000000134,"y":2544298.9199999999}},{"attributes":{"ID":234735,"DIS_CODE":0,"TOWNNAME":"仁德區","LI":"太子里","LIN":"32鄰","STREET":"太子路","SECT":" ","MAREA":" ","LANE":"４９５巷","ALLEY":" ","HOUSE_NO":"５號","E_COORD97":174023.29000000001,"N_COORD97":2543480.75,"ADDRESS":"太子路４９５巷５號","OBJECTID":234731},"geometry":{"x":174023.29000000097,"y":2543480.7500000019}},{"attributes":{"ID":234736,"DIS_CODE":0,"TOWNNAME":"東區","LI":"大智里","LIN":"27鄰","STREET":"德東街","SECT":" ","MAREA":" ","LANE":"２３５巷","ALLEY":" ","HOUSE_NO":"１００號","E_COORD97":171430.76999999999,"N_COORD97":2540318.7400000002,"ADDRESS":"德東街２３５巷１００號","OBJECTID":234732},"geometry":{"x":171430.77000000048,"y":2540318.7400000021}},{"attributes":{"ID":234737,"DIS_CODE":0,"TOWNNAME":"安南區","LI":"理想里","LIN":"2鄰","STREET":"同安路","SECT":" ","MAREA":" ","LANE":"５２巷","ALLEY":" ","HOUSE_NO":"４２號","E_COORD97":166944.17999999999,"N_COORD97":2548733.3599999999,"ADDRESS":"同安路５２巷４２號","OBJECTID":234733},"geometry":{"x":166944.18000000063,"y":2548733.3599999994}},{"attributes":{"ID":234738,"DIS_CODE":0,"TOWNNAME":"安南區","LI":"淵中里","LIN":"19鄰","STREET":"安中路","SECT":"四段","MAREA":" ","LANE":"１９７巷","ALLEY":" ","HOUSE_NO":"３０號","E_COORD97":164734.32999999999,"N_COORD97":2550008.7200000002,"ADDRESS":"安中路四段１９７巷３０號","OBJECTID":234734},"geometry":{"x":164734.33000000194,"y":2550008.7200000025}},{"attributes":{"ID":234739,"DIS_CODE":0,"TOWNNAME":"永康區","LI":"五王里","LIN":"18鄰","STREET":"成功路","SECT":" ","MAREA":" ","LANE":"１８８巷","ALLEY":" ","HOUSE_NO":"１４號","E_COORD97":171469.45999999999,"N_COORD97":2545685.02,"ADDRESS":"成功路１８８巷１４號","OBJECTID":234735},"geometry":{"x":171469.45999999996,"y":2545685.0200000033}},{"attributes":{"ID":234740,"DIS_CODE":0,"TOWNNAME":"永康區","LI":"中興里","LIN":"25鄰","STREET":"中華路","SECT":" ","MAREA":" ","LANE":"２１６巷","ALLEY":" ","HOUSE_NO":"３號之３","E_COORD97":171725.42999999999,"N_COORD97":2545151.04,"ADDRESS":"中華路２１６巷３號之３","OBJECTID":234736},"geometry":{"x":171725.4299999997,"y":2545151.0399999991}},{"attributes":{"ID":234741,"DIS_CODE":0,"TOWNNAME":"永康區","LI":"五王里","LIN":"26鄰","STREET":"五福街","SECT":" ","MAREA":" ","LANE":"８２巷","ALLEY":" ","HOUSE_NO":"１２號","E_COORD97":171485.14999999999,"N_COORD97":2545921.5,"ADDRESS":"五福街８２巷１２號","OBJECTID":234737},"geometry":{"x":171485.1500000013,"y":2545921.5}},{"attributes":{"ID":234742,"DIS_CODE":0,"TOWNNAME":"永康區","LI":"三民里","LIN":"4鄰","STREET":"三民街","SECT":" ","MAREA":" ","LANE":"１１２巷","ALLEY":" ","HOUSE_NO":"２６號","E_COORD97":172943.60999999999,"N_COORD97":2550346.04,"ADDRESS":"三民街１１２巷２６號","OBJECTID":234738},"geometry":{"x":172943.61000000034,"y":2550346.0400000028}},{"attributes":{"ID":234743,"DIS_CODE":0,"TOWNNAME":"安南區","LI":"海南里","LIN":" ","STREET":"府安路","SECT":"七段","MAREA":" ","LANE":"４８巷","ALLEY":" ","HOUSE_NO":"２１號","E_COORD97":165922.34,"N_COORD97":2546008.25,"ADDRESS":"府安路七段４８巷２１號","OBJECTID":234739},"geometry":{"x":165922.34000000171,"y":2546008.25}},{"attributes":{"ID":234744,"DIS_CODE":0,"TOWNNAME":"北區","LI":"賢北里","LIN":"17鄰","STREET":"賢北街","SECT":" ","MAREA":" ","LANE":"２７巷","ALLEY":" ","HOUSE_NO":"１０５號","E_COORD97":166032.19,"N_COORD97":2545283.98,"ADDRESS":"賢北街２７巷１０５號","OBJECTID":234740},"geometry":{"x":166032.19000000041,"y":2545283.9800000023}},{"attributes":{"ID":234745,"DIS_CODE":0,"TOWNNAME":"北區","LI":"小康里","LIN":"4鄰","STREET":"實踐街","SECT":" ","MAREA":" ","LANE":"３９巷","ALLEY":" ","HOUSE_NO":"５７號","E_COORD97":169910.67000000001,"N_COORD97":2546250.7999999998,"ADDRESS":"實踐街３９巷５７號","OBJECTID":234741},"geometry":{"x":169910.67000000179,"y":2546250.8000000026}},{"attributes":{"ID":234746,"DIS_CODE":0,"TOWNNAME":"安平區","LI":"華平里","LIN":"26鄰","STREET":"健康二街","SECT":" ","MAREA":" ","LANE":"４１９巷","ALLEY":" ","HOUSE_NO":"２１號","E_COORD97":165246.04999999999,"N_COORD97":2543713.1200000001,"ADDRESS":"健康二街４１９巷２１號","OBJECTID":234742},"geometry":{"x":165246.04999999888,"y":2543713.1200000029}},{"attributes":{"ID":234747,"DIS_CODE":0,"TOWNNAME":"南區","LI":"鯤鯓里","LIN":"19鄰","STREET":"鯤鯓路","SECT":" ","MAREA":" ","LANE":"１０２巷","ALLEY":" ","HOUSE_NO":"３７號","E_COORD97":165057.67999999999,"N_COORD97":2540190.9300000002,"ADDRESS":"鯤鯓路１０２巷３７號","OBJECTID":234743},"geometry":{"x":165057.68000000063,"y":2540190.9300000016}},{"attributes":{"ID":234748,"DIS_CODE":0,"TOWNNAME":"新營區","LI":"南紙里","LIN":" ","STREET":"太子路","SECT":" ","MAREA":" ","LANE":"１５３巷","ALLEY":" ","HOUSE_NO":"６５之１號","E_COORD97":177972.87,"N_COORD97":2577705.3999999999,"ADDRESS":"太子路１５３巷６５之１號","OBJECTID":234744},"geometry":{"x":177972.87000000011,"y":2577705.4000000041}},{"attributes":{"ID":234749,"DIS_CODE":0,"TOWNNAME":"新營區","LI":"忠政里","LIN":"20鄰","STREET":"府西路","SECT":" ","MAREA":" ","LANE":"２５７巷","ALLEY":" ","HOUSE_NO":"１５號","E_COORD97":179740.13,"N_COORD97":2579671.4399999999,"ADDRESS":"府西路２５７巷１５號","OBJECTID":234745},"geometry":{"x":179740.13000000082,"y":2579671.4400000013}},{"attributes":{"ID":234750,"DIS_CODE":0,"TOWNNAME":"新營區","LI":"民生里","LIN":"25鄰","STREET":"民生路","SECT":" ","MAREA":" ","LANE":"１６３巷","ALLEY":" ","HOUSE_NO":"２３號","E_COORD97":179150.26000000001,"N_COORD97":2578644.3100000001,"ADDRESS":"民生路１６３巷２３號","OBJECTID":234746},"geometry":{"x":179150.25999999885,"y":2578644.3100000005}},{"attributes":{"ID":234751,"DIS_CODE":0,"TOWNNAME":"東區","LI":"東聖里","LIN":"8鄰","STREET":"富農街","SECT":"二段","MAREA":" ","LANE":"４３巷","ALLEY":" ","HOUSE_NO":"１８號二樓之２","E_COORD97":171620.44,"N_COORD97":2542984.9700000002,"ADDRESS":"富農街二段４３巷１８號二樓之２","OBJECTID":234747},"geometry":{"x":171620.44000000134,"y":2542984.9700000025}},{"attributes":{"ID":234752,"DIS_CODE":0,"TOWNNAME":"東區","LI":"東聖里","LIN":"8鄰","STREET":"富農街","SECT":"二段","MAREA":" ","LANE":"４３巷","ALLEY":" ","HOUSE_NO":"２０號三樓之４","E_COORD97":171618.76000000001,"N_COORD97":2542995.1899999999,"ADDRESS":"富農街二段４３巷２０號三樓之４","OBJECTID":234748},"geometry":{"x":171618.76000000164,"y":2542995.1900000032}},{"attributes":{"ID":234753,"DIS_CODE":0,"TOWNNAME":"永康區","LI":"\u25A0行里","LIN":"20鄰","STREET":"正南五街","SECT":" ","MAREA":" ","LANE":"２８９巷","ALLEY":" ","HOUSE_NO":"８２號五樓","E_COORD97":171805.63,"N_COORD97":2548310.3700000001,"ADDRESS":"正南五街２８９巷８２號五樓","OBJECTID":234749},"geometry":{"x":171805.62999999989,"y":2548310.370000001}},{"attributes":{"ID":234754,"DIS_CODE":0,"TOWNNAME":"北區","LI":"成德里","LIN":"1鄰","STREET":"西門路","SECT":"四段","MAREA":" ","LANE":"７巷","ALLEY":" ","HOUSE_NO":"６７號三樓","E_COORD97":168450.98000000001,"N_COORD97":2545275.1699999999,"ADDRESS":"西門路四段７巷６７號三樓","OBJECTID":234750},"geometry":{"x":168450.98000000045,"y":2545275.1700000018}},{"attributes":{"ID":234755,"DIS_CODE":0,"TOWNNAME":"安南區","LI":"佃東里","LIN":"4鄰","STREET":"公學路","SECT":"四段","MAREA":" ","LANE":"１２２巷","ALLEY":" ","HOUSE_NO":"９２號","E_COORD97":165596.76000000001,"N_COORD97":2552297.3999999999,"ADDRESS":"公學路四段１２２巷９２號","OBJECTID":234751},"geometry":{"x":165596.75999999978,"y":2552297.4000000004}},{"attributes":{"ID":234756,"DIS_CODE":0,"TOWNNAME":"安南區","LI":"原佃里","LIN":"7鄰","STREET":"本原街","SECT":"一段","MAREA":" ","LANE":"１９５巷","ALLEY":" ","HOUSE_NO":"１０４號之１","E_COORD97":167463.57999999999,"N_COORD97":2550147.0699999998,"ADDRESS":"本原街一段１９５巷１０４號之１","OBJECTID":234752},"geometry":{"x":167463.58000000194,"y":2550147.070000004}},{"attributes":{"ID":234757,"DIS_CODE":0,"TOWNNAME":"安南區","LI":"原佃里","LIN":"7鄰","STREET":"本原街","SECT":"一段","MAREA":" ","LANE":"１９５巷","ALLEY":" ","HOUSE_NO":"１１２號","E_COORD97":167449.41,"N_COORD97":2550125.8100000001,"ADDRESS":"本原街一段１９５巷１１２號","OBJECTID":234753},"geometry":{"x":167449.40999999922,"y":2550125.8100000024}},{"attributes":{"ID":234758,"DIS_CODE":0,"TOWNNAME":"南區","LI":"文南里","LIN":"4鄰","STREET":"金華路","SECT":"二段","MAREA":" ","LANE":"２８９巷","ALLEY":" ","HOUSE_NO":"７號","E_COORD97":167071.07999999999,"N_COORD97":2542777.3500000001,"ADDRESS":"金華路二段２８９巷７號","OBJECTID":234754},"geometry":{"x":167071.08000000101,"y":2542777.3500000034}},{"attributes":{"ID":234759,"DIS_CODE":0,"TOWNNAME":"玉井區","LI":"玉田里","LIN":"43鄰","STREET":"大成路","SECT":" ","MAREA":" ","LANE":"１６１巷","ALLEY":" ","HOUSE_NO":"１２號","E_COORD97":195621.01000000001,"N_COORD97":2557903.27,"ADDRESS":"大成路１６１巷１２號","OBJECTID":234755},"geometry":{"x":195621.01000000071,"y":2557903.2700000014}},{"attributes":{"ID":234760,"DIS_CODE":0,"TOWNNAME":"歸仁區","LI":"歸仁里","LIN":"15鄰","STREET":"信義北路","SECT":" ","MAREA":" ","LANE":"９６巷","ALLEY":" ","HOUSE_NO":"８號","E_COORD97":178024.47,"N_COORD97":2541030.1099999999,"ADDRESS":"信義北路９６巷８號","OBJECTID":234756},"geometry":{"x":178024.46999999974,"y":2541030.1100000013}},{"attributes":{"ID":234761,"DIS_CODE":0,"TOWNNAME":"東區","LI":"東門里","LIN":"14鄰","STREET":"東門路","SECT":"一段","MAREA":" ","LANE":" ","ALLEY":" ","HOUSE_NO":"１７７號","E_COORD97":169568.63,"N_COORD97":2543194.2000000002,"ADDRESS":"東門路一段１７７號","OBJECTID":234757},"geometry":{"x":169568.63000000082,"y":2543194.1999999993}},{"attributes":{"ID":234762,"DIS_CODE":0,"TOWNNAME":"東區","LI":"東門里","LIN":"14鄰","STREET":"東門路","SECT":"一段","MAREA":" ","LANE":" ","ALLEY":" ","HOUSE_NO":"１７９號","E_COORD97":169568.53,"N_COORD97":2543171.9199999999,"ADDRESS":"東門路一段１７９號","OBJECTID":234758},"geometry":{"x":169568.53000000119,"y":2543171.9200000018}},{"attributes":{"ID":234763,"DIS_CODE":0,"TOWNNAME":"東區","LI":"東門里","LIN":"14鄰","STREET":"東門路","SECT":"一段","MAREA":" ","LANE":" ","ALLEY":" ","HOUSE_NO":"１８１號","E_COORD97":169559.60000000001,"N_COORD97":2543151.3900000001,"ADDRESS":"東門路一段１８１號","OBJECTID":234759},"geometry":{"x":169559.59999999963,"y":2543151.3900000025}},{"attributes":{"ID":234764,"DIS_CODE":0,"TOWNNAME":"關廟區","LI":"北花里","LIN":"16鄰","STREET":"中正路","SECT":" ","MAREA":" ","LANE":"２４０巷","ALLEY":" ","HOUSE_NO":"１６號","E_COORD97":183213.81,"N_COORD97":2540923.25,"ADDRESS":"中正路２４０巷１６號","OBJECTID":234760},"geometry":{"x":183213.81000000052,"y":2540923.25}},{"attributes":{"ID":234765,"DIS_CODE":0,"TOWNNAME":"關廟區","LI":"北花里","LIN":"16鄰","STREET":"中正路","SECT":" ","MAREA":" ","LANE":"２０２巷","ALLEY":" ","HOUSE_NO":"１號","E_COORD97":183287.45999999999,"N_COORD97":2540940.25,"ADDRESS":"中正路２０２巷１號","OBJECTID":234761},"geometry":{"x":183287.46000000089,"y":2540940.25}},{"attributes":{"ID":234766,"DIS_CODE":0,"TOWNNAME":"關廟區","LI":"北花里","LIN":"16鄰","STREET":"中正路","SECT":" ","MAREA":" ","LANE":"２４０巷","ALLEY":" ","HOUSE_NO":"１２號","E_COORD97":183215.01000000001,"N_COORD97":2540919.25,"ADDRESS":"中正路２４０巷１２號","OBJECTID":234762},"geometry":{"x":183215.00999999978,"y":2540919.25}},{"attributes":{"ID":234767,"DIS_CODE":0,"TOWNNAME":"關廟區","LI":"香洋里","LIN":"16鄰","STREET":"中央路","SECT":" ","MAREA":" ","LANE":"８２巷","ALLEY":" ","HOUSE_NO":"６０號","E_COORD97":181540.16,"N_COORD97":2540137.3100000001,"ADDRESS":"中央路８２巷６０號","OBJECTID":234763},"geometry":{"x":181540.16000000108,"y":2540137.3100000042}},{"attributes":{"ID":234768,"DIS_CODE":0,"TOWNNAME":"關廟區","LI":"香洋里","LIN":"16鄰","STREET":"花園一街","SECT":" ","MAREA":" ","LANE":"２７９巷","ALLEY":" ","HOUSE_NO":"１３號","E_COORD97":181462.81,"N_COORD97":2540136.48,"ADDRESS":"花園一街２７９巷１３號","OBJECTID":234764},"geometry":{"x":181462.81000000052,"y":2540136.4800000023}},{"attributes":{"ID":234769,"DIS_CODE":0,"TOWNNAME":"北區","LI":"公園里","LIN":"16鄰","STREET":"成功路","SECT":" ","MAREA":" ","LANE":"２２巷","ALLEY":" ","HOUSE_NO":"２號","E_COORD97":168897.85000000001,"N_COORD97":2544286.6699999999,"ADDRESS":"成功路２２巷２號","OBJECTID":234765},"geometry":{"x":168897.85000000056,"y":2544286.6699999999}},{"attributes":{"ID":234770,"DIS_CODE":0,"TOWNNAME":"歸仁區","LI":"大廟里","LIN":"17鄰","STREET":"保吉路","SECT":" ","MAREA":" ","LANE":"１７５巷","ALLEY":" ","HOUSE_NO":"３９號","E_COORD97":176044.32000000001,"N_COORD97":2545253.25,"ADDRESS":"保吉路１７５巷３９號","OBJECTID":234766},"geometry":{"x":176044.3200000003,"y":2545253.2500000037}},{"attributes":{"ID":234771,"DIS_CODE":0,"TOWNNAME":"南化區","LI":"南化里","LIN":"16鄰","STREET":" ","SECT":" ","MAREA":"南化","LANE":" ","ALLEY":" ","HOUSE_NO":"３０６號","E_COORD97":198998.64000000001,"N_COORD97":2548231.75,"ADDRESS":"南化３０６號","OBJECTID":234767},"geometry":{"x":198998.6400000006,"y":2548231.75}},{"attributes":{"ID":234772,"DIS_CODE":0,"TOWNNAME":"南化區","LI":"西埔里","LIN":"16鄰","STREET":" ","SECT":" ","MAREA":"西埔","LANE":" ","ALLEY":" ","HOUSE_NO":"２０４號之１","E_COORD97":192889.73000000001,"N_COORD97":2548395.7999999998,"ADDRESS":"西埔２０４號之１","OBJECTID":234768},"geometry":{"x":192889.73000000138,"y":2548395.8000000007}},{"attributes":{"ID":234773,"DIS_CODE":0,"TOWNNAME":"南化區","LI":"南化里","LIN":"16鄰","STREET":" ","SECT":" ","MAREA":"南化","LANE":" ","ALLEY":" ","HOUSE_NO":"３１３之１號","E_COORD97":198984.84,"N_COORD97":2548342.7999999998,"ADDRESS":"南化３１３之１號","OBJECTID":234769},"geometry":{"x":198984.83999999985,"y":2548342.8000000026}},{"attributes":{"ID":234774,"DIS_CODE":0,"TOWNNAME":"歸仁區","LI":"六甲里","LIN":"42鄰","STREET":"六甲二街","SECT":" ","MAREA":" ","LANE":"６９巷","ALLEY":" ","HOUSE_NO":"８號","E_COORD97":175953.47,"N_COORD97":2539331.25,"ADDRESS":"六甲二街６９巷８號","OBJECTID":234770},"geometry":{"x":175953.4700000016,"y":2539331.2500000019}},{"attributes":{"ID":234775,"DIS_CODE":0,"TOWNNAME":"歸仁區","LI":"大廟里","LIN":"4鄰","STREET":"和順路","SECT":"二段","MAREA":" ","LANE":"１５１巷","ALLEY":" ","HOUSE_NO":"６５號","E_COORD97":176185.25,"N_COORD97":2543476.98,"ADDRESS":"和順路二段１５１巷６５號","OBJECTID":234771},"geometry":{"x":176185.25,"y":2543476.9800000023}},{"attributes":{"ID":234776,"DIS_CODE":0,"TOWNNAME":"安平區","LI":"石門里","LIN":"4鄰","STREET":"安北路","SECT":" ","MAREA":" ","LANE":"１６巷","ALLEY":" ","HOUSE_NO":"２５號","E_COORD97":164734.35000000001,"N_COORD97":2544548.7999999998,"ADDRESS":"安北路１６巷２５號","OBJECTID":234772},"geometry":{"x":164734.35000000056,"y":2544548.8000000026}},{"attributes":{"ID":234777,"DIS_CODE":0,"TOWNNAME":"東區","LI":"東門里","LIN":"14鄰","STREET":"東門路","SECT":"一段","MAREA":" ","LANE":" ","ALLEY":" ","HOUSE_NO":"１８３號","E_COORD97":169563.81,"N_COORD97":2543149.8999999999,"ADDRESS":"東門路一段１８３號","OBJECTID":234773},"geometry":{"x":169563.81000000052,"y":2543149.9000000004}},{"attributes":{"ID":234778,"DIS_CODE":0,"TOWNNAME":"東區","LI":"東門里","LIN":"14鄰","STREET":"東門路","SECT":"一段","MAREA":" ","LANE":" ","ALLEY":" ","HOUSE_NO":"１８５號","E_COORD97":169568.01000000001,"N_COORD97":2543148.4199999999,"ADDRESS":"東門路一段１８５號","OBJECTID":234774},"geometry":{"x":169568.01000000071,"y":2543148.4199999999}},{"attributes":{"ID":234779,"DIS_CODE":0,"TOWNNAME":"東區","LI":"東門里","LIN":"14鄰","STREET":"東門路","SECT":"一段","MAREA":" ","LANE":" ","ALLEY":" ","HOUSE_NO":"１８７號","E_COORD97":169580.64999999999,"N_COORD97":2543144.5699999998,"ADDRESS":"東門路一段１８７號","OBJECTID":234775},"geometry":{"x":169580.65000000224,"y":2543144.5700000003}},{"attributes":{"ID":234780,"DIS_CODE":0,"TOWNNAME":"東區","LI":"東門里","LIN":"14鄰","STREET":"東門路","SECT":"一段","MAREA":" ","LANE":" ","ALLEY":" ","HOUSE_NO":"１９１號","E_COORD97":169608.01000000001,"N_COORD97":2543134.1200000001,"ADDRESS":"東門路一段１９１號","OBJECTID":234776},"geometry":{"x":169608.00999999885,"y":2543134.1200000029}},{"attributes":{"ID":234781,"DIS_CODE":0,"TOWNNAME":"東區","LI":"東門里","LIN":"14鄰","STREET":"東門路","SECT":"一段","MAREA":" ","LANE":" ","ALLEY":" ","HOUSE_NO":"１９３號","E_COORD97":169612.82999999999,"N_COORD97":2543132.7799999998,"ADDRESS":"東門路一段１９３號","OBJECTID":234777},"geometry":{"x":169612.83000000007,"y":2543132.7799999993}},{"attributes":{"ID":234782,"DIS_CODE":0,"TOWNNAME":"東區","LI":"東門里","LIN":"14鄰","STREET":"東門路","SECT":"一段","MAREA":" ","LANE":" ","ALLEY":" ","HOUSE_NO":"１９５號","E_COORD97":169618.44,"N_COORD97":2543132.7000000002,"ADDRESS":"東門路一段１９５號","OBJECTID":234778},"geometry":{"x":169618.44000000134,"y":2543132.6999999993}},{"attributes":{"ID":234783,"DIS_CODE":0,"TOWNNAME":"北區","LI":"公園里","LIN":"16鄰","STREET":"成功路","SECT":" ","MAREA":" ","LANE":"２２巷","ALLEY":" ","HOUSE_NO":"４號","E_COORD97":168904.54999999999,"N_COORD97":2544294.79,"ADDRESS":"成功路２２巷４號","OBJECTID":234779},"geometry":{"x":168904.55000000075,"y":2544294.7899999991}},{"attributes":{"ID":234784,"DIS_CODE":0,"TOWNNAME":"北區","LI":"公園里","LIN":"16鄰","STREET":"成功路","SECT":" ","MAREA":" ","LANE":"２２巷","ALLEY":" ","HOUSE_NO":"２６號","E_COORD97":168929.42999999999,"N_COORD97":2544357.5,"ADDRESS":"成功路２２巷２６號","OBJECTID":234780},"geometry":{"x":168929.43000000063,"y":2544357.5000000019}},{"attributes":{"ID":234785,"DIS_CODE":0,"TOWNNAME":"北區","LI":"公園里","LIN":"16鄰","STREET":"成功路","SECT":" ","MAREA":" ","LANE":"２２巷","ALLEY":" ","HOUSE_NO":"２８號","E_COORD97":168931.28,"N_COORD97":2544361.21,"ADDRESS":"成功路２２巷２８號","OBJECTID":234781},"geometry":{"x":168931.28000000119,"y":2544361.2100000009}},{"attributes":{"ID":234786,"DIS_CODE":0,"TOWNNAME":"北區","LI":"公園里","LIN":"16鄰","STREET":"成功路","SECT":" ","MAREA":" ","LANE":"２２巷","ALLEY":" ","HOUSE_NO":"３０號","E_COORD97":168933.56,"N_COORD97":2544367.0499999998,"ADDRESS":"成功路２２巷３０號","OBJECTID":234782},"geometry":{"x":168933.56000000052,"y":2544367.0500000045}},{"attributes":{"ID":234787,"DIS_CODE":0,"TOWNNAME":"北區","LI":"公園里","LIN":"16鄰","STREET":"成功路","SECT":" ","MAREA":" ","LANE":"２２巷","ALLEY":" ","HOUSE_NO":"３２號","E_COORD97":168937.54999999999,"N_COORD97":2544372.1699999999,"ADDRESS":"成功路２２巷３２號","OBJECTID":234783},"geometry":{"x":168937.54999999981,"y":2544372.1700000037}},{"attributes":{"ID":234788,"DIS_CODE":0,"TOWNNAME":"北區","LI":"公園里","LIN":"16鄰","STREET":"成功路","SECT":" ","MAREA":" ","LANE":"２２巷","ALLEY":" ","HOUSE_NO":"３４號","E_COORD97":168940.26000000001,"N_COORD97":2544379.1499999999,"ADDRESS":"成功路２２巷３４號","OBJECTID":234784},"geometry":{"x":168940.26000000164,"y":2544379.1500000004}},{"attributes":{"ID":234789,"DIS_CODE":0,"TOWNNAME":"北區","LI":"公園里","LIN":"16鄰","STREET":"成功路","SECT":" ","MAREA":" ","LANE":"２２巷","ALLEY":" ","HOUSE_NO":"３６號","E_COORD97":168944.54000000001,"N_COORD97":2544387.98,"ADDRESS":"成功路２２巷３６號","OBJECTID":234785},"geometry":{"x":168944.54000000097,"y":2544387.9800000023}},{"attributes":{"ID":234790,"DIS_CODE":0,"TOWNNAME":"北區","LI":"公園里","LIN":"16鄰","STREET":"成功路","SECT":" ","MAREA":" ","LANE":"２２巷","ALLEY":" ","HOUSE_NO":"３號","E_COORD97":168882.16,"N_COORD97":2544389.9199999999,"ADDRESS":"成功路２２巷３號","OBJECTID":234786},"geometry":{"x":168882.16000000108,"y":2544389.9199999999}},{"attributes":{"ID":234791,"DIS_CODE":0,"TOWNNAME":"北區","LI":"公園里","LIN":"16鄰","STREET":"成功路","SECT":" ","MAREA":" ","LANE":"２２巷","ALLEY":" ","HOUSE_NO":"３８號","E_COORD97":168946.84,"N_COORD97":2544394.1499999999,"ADDRESS":"成功路２２巷３８號","OBJECTID":234787},"geometry":{"x":168946.84000000078,"y":2544394.1500000022}},{"attributes":{"ID":234792,"DIS_CODE":0,"TOWNNAME":"北區","LI":"公園里","LIN":"16鄰","STREET":"成功路","SECT":" ","MAREA":" ","LANE":"２２巷","ALLEY":" ","HOUSE_NO":"４０號","E_COORD97":168949.03,"N_COORD97":2544398.7000000002,"ADDRESS":"成功路２２巷４０號","OBJECTID":234788},"geometry":{"x":168949.03000000212,"y":2544398.700000003}},{"attributes":{"ID":234793,"DIS_CODE":0,"TOWNNAME":"關廟區","LI":"五甲里","LIN":"16鄰","STREET":"東安街","SECT":" ","MAREA":" ","LANE":" ","ALLEY":" ","HOUSE_NO":"１３８號","E_COORD97":181445.23999999999,"N_COORD97":2539447.6600000001,"ADDRESS":"東安街１３８號","OBJECTID":234789},"geometry":{"x":181445.24000000115,"y":2539447.660000002}},{"attributes":{"ID":234794,"DIS_CODE":0,"TOWNNAME":"永康區","LI":"\u25A0行里","LIN":"8鄰","STREET":"中正五街","SECT":" ","MAREA":" ","LANE":" ","ALLEY":" ","HOUSE_NO":"７０號","E_COORD97":172721.37,"N_COORD97":2548440.7400000002,"ADDRESS":"中正五街７０號","OBJECTID":234790},"geometry":{"x":172721.37000000011,"y":2548440.7400000039}},{"attributes":{"ID":234795,"DIS_CODE":0,"TOWNNAME":"永康區","LI":"\u25A0行里","LIN":"8鄰","STREET":"中正五街","SECT":" ","MAREA":" ","LANE":" ","ALLEY":" ","HOUSE_NO":"７５號","E_COORD97":172841.32999999999,"N_COORD97":2548486.75,"ADDRESS":"中正五街７５號","OBJECTID":234791},"geometry":{"x":172841.33000000101,"y":2548486.75}},{"attributes":{"ID":234796,"DIS_CODE":0,"TOWNNAME":"永康區","LI":"\u25A0洲里","LIN":"7鄰","STREET":"三村二街","SECT":" ","MAREA":" ","LANE":" ","ALLEY":" ","HOUSE_NO":"９２號","E_COORD97":171776.17000000001,"N_COORD97":2549524.75,"ADDRESS":"三村二街９２號","OBJECTID":234792},"geometry":{"x":171776.17000000086,"y":2549524.75}},{"attributes":{"ID":234797,"DIS_CODE":0,"TOWNNAME":"新營區","LI":"興安里","LIN":"9鄰","STREET":"新進路","SECT":" ","MAREA":" ","LANE":"２８１巷","ALLEY":" ","HOUSE_NO":"２之２號","E_COORD97":179961.378926,"N_COORD97":2577789.6030600001,"ADDRESS":"新進路２８１巷２之２號","OBJECTID":234793},"geometry":{"x":179961.37892600056,"y":2577789.6030620001}},{"attributes":{"ID":234798,"DIS_CODE":0,"TOWNNAME":"永康區","LI":"甲頂里","LIN":" ","STREET":"中華路","SECT":" ","MAREA":" ","LANE":" ","ALLEY":" ","HOUSE_NO":"１０４２號","E_COORD97":169460.92000000001,"N_COORD97":2547073.7000000002,"ADDRESS":"中華路１０４２號","OBJECTID":234794},"geometry":{"x":169460.91999999993,"y":2547073.700000003}},{"attributes":{"ID":234799,"DIS_CODE":0,"TOWNNAME":"永康區","LI":"甲頂里","LIN":" ","STREET":"中央路","SECT":" ","MAREA":" ","LANE":" ","ALLEY":" ","HOUSE_NO":"２９號","E_COORD97":169629.38,"N_COORD97":2547023.0600000001,"ADDRESS":"中央路２９號","OBJECTID":234795},"geometry":{"x":169629.37999999896,"y":2547023.0600000024}},{"attributes":{"ID":234800,"DIS_CODE":0,"TOWNNAME":"永康區","LI":"六合里","LIN":" ","STREET":"新興街","SECT":" ","MAREA":" ","LANE":" ","ALLEY":" ","HOUSE_NO":"３０號","E_COORD97":171012.14999999999,"N_COORD97":2545774.7400000002,"ADDRESS":"新興街３０號","OBJECTID":234796},"geometry":{"x":171012.1500000013,"y":2545774.7400000002}},{"attributes":{"ID":234801,"DIS_CODE":0,"TOWNNAME":"永康區","LI":"南灣里","LIN":" ","STREET":"南興路","SECT":" ","MAREA":" ","LANE":" ","ALLEY":" ","HOUSE_NO":"６９之４號","E_COORD97":174183.07000000001,"N_COORD97":2544275.7000000002,"ADDRESS":"南興路６９之４號","OBJECTID":234797},"geometry":{"x":174183.0700000003,"y":2544275.6999999993}},{"attributes":{"ID":234802,"DIS_CODE":0,"TOWNNAME":"永康區","LI":"\u25A0洲里","LIN":"5鄰","STREET":"仁愛街","SECT":" ","MAREA":" ","LANE":" ","ALLEY":" ","HOUSE_NO":"７７號","E_COORD97":172018.39000000001,"N_COORD97":2549410.7799999998,"ADDRESS":"仁愛街７７號","OBJECTID":234798},"geometry":{"x":172018.3900000006,"y":2549410.7799999993}},{"attributes":{"ID":234803,"DIS_CODE":0,"TOWNNAME":"永康區","LI":"\u25A0洲里","LIN":"14鄰","STREET":"\u25A0洲一街","SECT":" ","MAREA":" ","LANE":" ","ALLEY":" ","HOUSE_NO":"４６號","E_COORD97":171561.67000000001,"N_COORD97":2549021.27,"ADDRESS":"\u25A0洲一街４６號","OBJECTID":234799},"geometry":{"x":171561.66999999899,"y":2549021.2699999996}},{"attributes":{"ID":234804,"DIS_CODE":0,"TOWNNAME":"永康區","LI":"五王里","LIN":" ","STREET":"中華路","SECT":" ","MAREA":" ","LANE":" ","ALLEY":" ","HOUSE_NO":"４７４號","E_COORD97":171320.57999999999,"N_COORD97":2545725.75,"ADDRESS":"中華路４７４號","OBJECTID":234800},"geometry":{"x":171320.58000000101,"y":2545725.7500000019}}]}