{"displayFieldName":"TOWNNAME","fieldAliases":{"ID":"ID","DIS_CODE":"DIS_CODE","TOWNNAME":"TOWNNAME","LI":"LI","LIN":"LIN","STREET":"STREET","SECT":"SECT","MAREA":"MAREA","LANE":"LANE","ALLEY":"ALLEY","HOUSE_NO":"HOUSE_NO","E_COORD97":"E_COORD97","N_COORD97":"N_COORD97","ADDRESS":"ADDRESS","OBJECTID":"OBJECTID"},"geometryType":"esriGeometryPoint","spatialReference":{"wkid":102443,"latestWkid":3826},"fields":[{"name":"ID","type":"esriFieldTypeDouble","alias":"ID"},{"name":"DIS_CODE","type":"esriFieldTypeInteger","alias":"DIS_CODE"},{"name":"TOWNNAME","type":"esriFieldTypeString","alias":"TOWNNAME","length":8},{"name":"LI","type":"esriFieldTypeString","alias":"LI","length":8},{"name":"LIN","type":"esriFieldTypeString","alias":"LIN","length":12},{"name":"STREET","type":"esriFieldTypeString","alias":"STREET","length":20},{"name":"SECT","type":"esriFieldTypeString","alias":"SECT","length":8},{"name":"MAREA","type":"esriFieldTypeString","alias":"MAREA","length":12},{"name":"LANE","type":"esriFieldTypeString","alias":"LANE","length":10},{"name":"ALLEY","type":"esriFieldTypeString","alias":"ALLEY","length":10},{"name":"HOUSE_NO","type":"esriFieldTypeString","alias":"HOUSE_NO","length":20},{"name":"E_COORD97","type":"esriFieldTypeDouble","alias":"E_COORD97"},{"name":"N_COORD97","type":"esriFieldTypeDouble","alias":"N_COORD97"},{"name":"ADDRESS","type":"esriFieldTypeString","alias":"ADDRESS","length":50},{"name":"OBJECTID","type":"esriFieldTypeOID","alias":"OBJECTID"}],"features":[{"attributes":{"ID":7401,"DIS_CODE":0,"TOWNNAME":"北區","LI":"三德里","LIN":"9鄰","STREET":"長北街","SECT":" ","MAREA":" ","LANE":"７４巷","ALLEY":" ","HOUSE_NO":"４號","E_COORD97":168446.13,"N_COORD97":2544678.98,"ADDRESS":"長北街７４巷４號","OBJECTID":7401},"geometry":{"x":168446.12999999896,"y":2544678.9799999986}},{"attributes":{"ID":7402,"DIS_CODE":0,"TOWNNAME":"北區","LI":"和順里","LIN":"9鄰","STREET":"育德路","SECT":" ","MAREA":" ","LANE":"１７巷","ALLEY":" ","HOUSE_NO":"１號","E_COORD97":168271.56,"N_COORD97":2545170.9700000002,"ADDRESS":"育德路１７巷１號","OBJECTID":7402},"geometry":{"x":168271.55999999959,"y":2545170.9699999988}},{"attributes":{"ID":7403,"DIS_CODE":0,"TOWNNAME":"六甲區","LI":"七甲里","LIN":"9鄰","STREET":"七甲街","SECT":" ","MAREA":" ","LANE":"９２巷","ALLEY":" ","HOUSE_NO":"５號","E_COORD97":183126.98999999999,"N_COORD97":2569064.98,"ADDRESS":"七甲街９２巷５號","OBJECTID":7403},"geometry":{"x":183126.99000000115,"y":2569064.9800000004}},{"attributes":{"ID":7404,"DIS_CODE":0,"TOWNNAME":"新營區","LI":"新東里","LIN":"9鄰","STREET":"東仁街","SECT":" ","MAREA":" ","LANE":"４３巷","ALLEY":" ","HOUSE_NO":"９號","E_COORD97":181254.45000000001,"N_COORD97":2579638.8399999999,"ADDRESS":"東仁街４３巷９號","OBJECTID":7404},"geometry":{"x":181254.45000000019,"y":2579638.8400000017}},{"attributes":{"ID":7405,"DIS_CODE":0,"TOWNNAME":"關廟區","LI":"關廟里","LIN":"9鄰","STREET":"民生街","SECT":" ","MAREA":" ","LANE":"８７巷","ALLEY":" ","HOUSE_NO":"７號","E_COORD97":180887.14000000001,"N_COORD97":2539681.29,"ADDRESS":"民生街８７巷７號","OBJECTID":7405},"geometry":{"x":180887.1400000006,"y":2539681.2899999991}},{"attributes":{"ID":7406,"DIS_CODE":0,"TOWNNAME":"東區","LI":"崇善里","LIN":"9鄰","STREET":"仁和路","SECT":" ","MAREA":" ","LANE":"７０巷","ALLEY":" ","HOUSE_NO":"９號","E_COORD97":171055.89000000001,"N_COORD97":2541772.6699999999,"ADDRESS":"仁和路７０巷９號","OBJECTID":7406},"geometry":{"x":171055.88999999966,"y":2541772.6700000018}},{"attributes":{"ID":7407,"DIS_CODE":0,"TOWNNAME":"安平區","LI":"平安里","LIN":"9鄰","STREET":"安平路","SECT":" ","MAREA":" ","LANE":"４２６巷","ALLEY":" ","HOUSE_NO":"３８號之３","E_COORD97":165357.39780499999,"N_COORD97":2544413.31336,"ADDRESS":"安平路４２６巷３８號之３","OBJECTID":7407},"geometry":{"x":165357.39780500159,"y":2544413.31336}},{"attributes":{"ID":7408,"DIS_CODE":0,"TOWNNAME":"新營區","LI":"新東里","LIN":"27鄰","STREET":"東光街","SECT":" ","MAREA":" ","LANE":"４０巷","ALLEY":" ","HOUSE_NO":"１３號","E_COORD97":180649.75587200001,"N_COORD97":2579588.24939,"ADDRESS":"東光街４０巷１３號","OBJECTID":7408},"geometry":{"x":180649.75587200094,"y":2579588.2493910007}},{"attributes":{"ID":7409,"DIS_CODE":0,"TOWNNAME":"歸仁區","LI":"看東里","LIN":"8鄰","STREET":"成功一街","SECT":" ","MAREA":" ","LANE":"１２７巷","ALLEY":" ","HOUSE_NO":"９號","E_COORD97":178562.38675599999,"N_COORD97":2539998.2744,"ADDRESS":"成功一街１２７巷９號","OBJECTID":7409},"geometry":{"x":178562.38675600011,"y":2539998.2743950002}},{"attributes":{"ID":7410,"DIS_CODE":0,"TOWNNAME":"新營區","LI":"大宏里","LIN":"29鄰","STREET":"開元路","SECT":" ","MAREA":" ","LANE":"５９巷","ALLEY":" ","HOUSE_NO":"５號","E_COORD97":180819.91,"N_COORD97":2578780.3799999999,"ADDRESS":"開元路５９巷５號","OBJECTID":7410},"geometry":{"x":180819.91000000108,"y":2578780.3800000008}},{"attributes":{"ID":7411,"DIS_CODE":0,"TOWNNAME":"仁德區","LI":"上崙里","LIN":"20鄰","STREET":"上崙一街","SECT":" ","MAREA":" ","LANE":"５６巷","ALLEY":" ","HOUSE_NO":"８號","E_COORD97":173797.60890799999,"N_COORD97":2538016.642,"ADDRESS":"上崙一街５６巷８號","OBJECTID":7411},"geometry":{"x":173797.60890800133,"y":2538016.6419980023}},{"attributes":{"ID":7412,"DIS_CODE":0,"TOWNNAME":"永康區","LI":"尚頂里","LIN":"29鄰","STREET":"南台街","SECT":" ","MAREA":" ","LANE":"８９巷","ALLEY":" ","HOUSE_NO":"１號","E_COORD97":170203.81,"N_COORD97":2547008.3500000001,"ADDRESS":"南台街８９巷１號","OBJECTID":7412},"geometry":{"x":170203.80999999959,"y":2547008.3500000034}},{"attributes":{"ID":7413,"DIS_CODE":0,"TOWNNAME":"安南區","LI":"頂安里","LIN":"5鄰","STREET":"長溪路","SECT":"一段","MAREA":" ","LANE":"４０６巷","ALLEY":" ","HOUSE_NO":"５７號","E_COORD97":168678.30206799999,"N_COORD97":2549114.7790399999,"ADDRESS":"長溪路一段４０６巷５７號","OBJECTID":7413},"geometry":{"x":168678.30206799973,"y":2549114.7790380027}},{"attributes":{"ID":7414,"DIS_CODE":0,"TOWNNAME":"東區","LI":"東明里","LIN":"20鄰","STREET":"東安路","SECT":" ","MAREA":" ","LANE":"４８巷","ALLEY":" ","HOUSE_NO":"９號","E_COORD97":170716.73000000001,"N_COORD97":2543640.5,"ADDRESS":"東安路４８巷９號","OBJECTID":7414},"geometry":{"x":170716.73000000138,"y":2543640.5}},{"attributes":{"ID":7415,"DIS_CODE":0,"TOWNNAME":"東區","LI":"東明里","LIN":"6鄰","STREET":"怡東路","SECT":" ","MAREA":" ","LANE":"７２巷","ALLEY":" ","HOUSE_NO":"７號","E_COORD97":170901.39999999999,"N_COORD97":2543650.7200000002,"ADDRESS":"怡東路７２巷７號","OBJECTID":7415},"geometry":{"x":170901.4000000013,"y":2543650.7200000044}},{"attributes":{"ID":7416,"DIS_CODE":0,"TOWNNAME":"永康區","LI":"中華里","LIN":"23鄰","STREET":"忠勇街","SECT":" ","MAREA":" ","LANE":"６３巷","ALLEY":" ","HOUSE_NO":"２號","E_COORD97":171885.07999999999,"N_COORD97":2544628.7000000002,"ADDRESS":"忠勇街６３巷２號","OBJECTID":7416},"geometry":{"x":171885.08000000101,"y":2544628.6999999993}},{"attributes":{"ID":7417,"DIS_CODE":0,"TOWNNAME":"仁德區","LI":"太子里","LIN":"1鄰","STREET":"長興路","SECT":" ","MAREA":" ","LANE":"１２巷","ALLEY":" ","HOUSE_NO":"７號","E_COORD97":174155.46088299999,"N_COORD97":2543547.7648499999,"ADDRESS":"長興路１２巷７號","OBJECTID":7417},"geometry":{"x":174155.46088300087,"y":2543547.7648450024}},{"attributes":{"ID":7418,"DIS_CODE":0,"TOWNNAME":"永康區","LI":"北灣里","LIN":"1鄰","STREET":"大同街","SECT":" ","MAREA":" ","LANE":"８巷","ALLEY":" ","HOUSE_NO":"２號","E_COORD97":175330.29999999999,"N_COORD97":2545434.4700000002,"ADDRESS":"大同街８巷２號","OBJECTID":7418},"geometry":{"x":175330.29999999981,"y":2545434.4700000007}},{"attributes":{"ID":7419,"DIS_CODE":0,"TOWNNAME":"東區","LI":"德光里","LIN":"16鄰","STREET":"德光街","SECT":" ","MAREA":" ","LANE":"６２巷","ALLEY":" ","HOUSE_NO":"３號","E_COORD97":170220.62,"N_COORD97":2542373.6000000001,"ADDRESS":"德光街６２巷３號","OBJECTID":7419},"geometry":{"x":170220.62000000011,"y":2542373.6000000015}},{"attributes":{"ID":7420,"DIS_CODE":0,"TOWNNAME":"東區","LI":"新東里","LIN":"13鄰","STREET":"裕農路","SECT":" ","MAREA":" ","LANE":"２９巷","ALLEY":" ","HOUSE_NO":"１號","E_COORD97":170583.64999999999,"N_COORD97":2542894.8500000001,"ADDRESS":"裕農路２９巷１號","OBJECTID":7420},"geometry":{"x":170583.65000000037,"y":2542894.8499999996}},{"attributes":{"ID":7421,"DIS_CODE":0,"TOWNNAME":"東區","LI":"小東里","LIN":"18鄰","STREET":"東和路","SECT":" ","MAREA":" ","LANE":"５７巷","ALLEY":" ","HOUSE_NO":"８號","E_COORD97":170976.20000000001,"N_COORD97":2544269.6600000001,"ADDRESS":"東和路５７巷８號","OBJECTID":7421},"geometry":{"x":170976.20000000019,"y":2544269.6600000001}},{"attributes":{"ID":7422,"DIS_CODE":0,"TOWNNAME":"佳里區","LI":"安西里","LIN":"11鄰","STREET":"長安街","SECT":" ","MAREA":" ","LANE":"２５巷","ALLEY":" ","HOUSE_NO":"１號","E_COORD97":165390.75,"N_COORD97":2562331.7000000002,"ADDRESS":"長安街２５巷１號","OBJECTID":7422},"geometry":{"x":165390.75000000186,"y":2562331.7000000011}},{"attributes":{"ID":7423,"DIS_CODE":0,"TOWNNAME":"中西區","LI":"仙草里","LIN":"11鄰","STREET":"府緯街","SECT":" ","MAREA":" ","LANE":"９巷","ALLEY":" ","HOUSE_NO":"１號","E_COORD97":167943.48000000001,"N_COORD97":2542689.1200000001,"ADDRESS":"府緯街９巷１號","OBJECTID":7423},"geometry":{"x":167943.48000000138,"y":2542689.1200000029}},{"attributes":{"ID":7424,"DIS_CODE":0,"TOWNNAME":"永康區","LI":"中興里","LIN":"27鄰","STREET":"中興街","SECT":" ","MAREA":" ","LANE":"６９巷","ALLEY":" ","HOUSE_NO":"６號","E_COORD97":172044.62,"N_COORD97":2545300,"ADDRESS":"中興街６９巷６號","OBJECTID":7424},"geometry":{"x":172044.62000000011,"y":2545300.0000000019}},{"attributes":{"ID":7425,"DIS_CODE":0,"TOWNNAME":"永康區","LI":"勝利里","LIN":"6鄰","STREET":"勝學路","SECT":" ","MAREA":" ","LANE":"４６巷","ALLEY":" ","HOUSE_NO":"３號","E_COORD97":171174.51000000001,"N_COORD97":2544668.5099999998,"ADDRESS":"勝學路４６巷３號","OBJECTID":7425},"geometry":{"x":171174.51000000164,"y":2544668.5100000016}},{"attributes":{"ID":7426,"DIS_CODE":0,"TOWNNAME":"六甲區","LI":"七甲里","LIN":"11鄰","STREET":"七甲街","SECT":" ","MAREA":" ","LANE":"８６巷","ALLEY":" ","HOUSE_NO":"１號","E_COORD97":183139.29999999999,"N_COORD97":2569028.5099999998,"ADDRESS":"七甲街８６巷１號","OBJECTID":7426},"geometry":{"x":183139.30000000075,"y":2569028.5100000016}},{"attributes":{"ID":7427,"DIS_CODE":0,"TOWNNAME":"中西區","LI":"大涼里","LIN":"13鄰","STREET":"金城街","SECT":" ","MAREA":" ","LANE":" ","ALLEY":" ","HOUSE_NO":"５９號","E_COORD97":166889.66,"N_COORD97":2543698.25,"ADDRESS":"金城街５９號","OBJECTID":7427},"geometry":{"x":166889.66000000015,"y":2543698.2500000019}},{"attributes":{"ID":7428,"DIS_CODE":0,"TOWNNAME":"永康區","LI":"中興里","LIN":"12鄰","STREET":"中興街","SECT":" ","MAREA":" ","LANE":"４５巷","ALLEY":" ","HOUSE_NO":"７號","E_COORD97":172051.89999999999,"N_COORD97":2545211.5,"ADDRESS":"中興街４５巷７號","OBJECTID":7428},"geometry":{"x":172051.90000000037,"y":2545211.5000000019}},{"attributes":{"ID":7429,"DIS_CODE":0,"TOWNNAME":"新營區","LI":"新東里","LIN":"22鄰","STREET":"東明街","SECT":" ","MAREA":" ","LANE":"８０巷","ALLEY":" ","HOUSE_NO":"５號","E_COORD97":180829.76000000001,"N_COORD97":2579794.7599999998,"ADDRESS":"東明街８０巷５號","OBJECTID":7429},"geometry":{"x":180829.75999999978,"y":2579794.7600000016}},{"attributes":{"ID":7430,"DIS_CODE":0,"TOWNNAME":"東山區","LI":"東中里","LIN":"22鄰","STREET":"中興路","SECT":" ","MAREA":" ","LANE":"６８巷","ALLEY":" ","HOUSE_NO":"５號","E_COORD97":189029.32999999999,"N_COORD97":2580180.1699999999,"ADDRESS":"中興路６８巷５號","OBJECTID":7430},"geometry":{"x":189029.33000000007,"y":2580180.1699999999}},{"attributes":{"ID":7431,"DIS_CODE":0,"TOWNNAME":"關廟區","LI":"北勢里","LIN":"22鄰","STREET":"北美街","SECT":" ","MAREA":" ","LANE":"６３巷","ALLEY":" ","HOUSE_NO":"２號","E_COORD97":181468.73999999999,"N_COORD97":2540439.2999999998,"ADDRESS":"北美街６３巷２號","OBJECTID":7431},"geometry":{"x":181468.74000000115,"y":2540439.3000000045}},{"attributes":{"ID":7432,"DIS_CODE":0,"TOWNNAME":"麻豆區","LI":"東角里","LIN":"5鄰","STREET":"忠孝路","SECT":" ","MAREA":" ","LANE":"３１巷","ALLEY":" ","HOUSE_NO":"６號","E_COORD97":173738.23999999999,"N_COORD97":2565063.25,"ADDRESS":"忠孝路３１巷６號","OBJECTID":7432},"geometry":{"x":173738.24000000209,"y":2565063.2500000037}},{"attributes":{"ID":7433,"DIS_CODE":0,"TOWNNAME":"永康區","LI":"三合里","LIN":"5鄰","STREET":"南工街","SECT":" ","MAREA":" ","LANE":"８２巷","ALLEY":" ","HOUSE_NO":"６號","E_COORD97":172127.26000000001,"N_COORD97":2545680.0800000001,"ADDRESS":"南工街８２巷６號","OBJECTID":7433},"geometry":{"x":172127.26000000164,"y":2545680.0800000001}},{"attributes":{"ID":7434,"DIS_CODE":0,"TOWNNAME":"東區","LI":"崇學里","LIN":"5鄰","STREET":"崇德四街","SECT":" ","MAREA":" ","LANE":"５巷","ALLEY":" ","HOUSE_NO":"４號","E_COORD97":170526.59,"N_COORD97":2541961.52,"ADDRESS":"崇德四街５巷４號","OBJECTID":7434},"geometry":{"x":170526.59000000171,"y":2541961.5199999996}},{"attributes":{"ID":7435,"DIS_CODE":0,"TOWNNAME":"歸仁區","LI":"西埔里","LIN":"6鄰","STREET":"西埔三街","SECT":" ","MAREA":" ","LANE":"５１巷","ALLEY":"９０弄","HOUSE_NO":"８號","E_COORD97":177025.10146400001,"N_COORD97":2543948.88173,"ADDRESS":"西埔三街５１巷９０弄８號","OBJECTID":7435},"geometry":{"x":177025.10146400053,"y":2543948.8817309998}},{"attributes":{"ID":7436,"DIS_CODE":0,"TOWNNAME":"北區","LI":"和順里","LIN":"18鄰","STREET":"民德路","SECT":" ","MAREA":" ","LANE":"９５巷","ALLEY":" ","HOUSE_NO":"７號","E_COORD97":168205.92000000001,"N_COORD97":2545113.5299999998,"ADDRESS":"民德路９５巷７號","OBJECTID":7436},"geometry":{"x":168205.92000000086,"y":2545113.5299999993}},{"attributes":{"ID":7437,"DIS_CODE":0,"TOWNNAME":"佳里區","LI":"東寧里","LIN":"18鄰","STREET":"和平街","SECT":" ","MAREA":" ","LANE":"１巷","ALLEY":" ","HOUSE_NO":"１號","E_COORD97":166122.59,"N_COORD97":2562457.48,"ADDRESS":"和平街１巷１號","OBJECTID":7437},"geometry":{"x":166122.59000000078,"y":2562457.4800000004}},{"attributes":{"ID":7438,"DIS_CODE":0,"TOWNNAME":"新化區","LI":"護國里","LIN":"8鄰","STREET":"信義路","SECT":" ","MAREA":" ","LANE":"８６巷","ALLEY":" ","HOUSE_NO":"４號","E_COORD97":179839.28,"N_COORD97":2548756.25,"ADDRESS":"信義路８６巷４號","OBJECTID":7438},"geometry":{"x":179839.28000000119,"y":2548756.2500000019}},{"attributes":{"ID":7439,"DIS_CODE":0,"TOWNNAME":"善化區","LI":"南關里","LIN":" ","STREET":"南科北路","SECT":" ","MAREA":" ","LANE":" ","ALLEY":" ","HOUSE_NO":"５號","E_COORD97":175329.73999999999,"N_COORD97":2556949,"ADDRESS":"南科北路５號","OBJECTID":7439},"geometry":{"x":175329.74000000022,"y":2556949.0000000019}},{"attributes":{"ID":7440,"DIS_CODE":0,"TOWNNAME":"善化區","LI":"東關里","LIN":"17鄰","STREET":"新興街","SECT":" ","MAREA":" ","LANE":" ","ALLEY":" ","HOUSE_NO":"２號","E_COORD97":177626.66,"N_COORD97":2558977.25,"ADDRESS":"新興街２號","OBJECTID":7440},"geometry":{"x":177626.66000000015,"y":2558977.2499999981}},{"attributes":{"ID":7441,"DIS_CODE":0,"TOWNNAME":"新營區","LI":"新南里","LIN":"20鄰","STREET":"復興路","SECT":" ","MAREA":" ","LANE":" ","ALLEY":" ","HOUSE_NO":"４１６號","E_COORD97":178436.59,"N_COORD97":2578230.2400000002,"ADDRESS":"復興路４１６號","OBJECTID":7441},"geometry":{"x":178436.59000000078,"y":2578230.2400000002}},{"attributes":{"ID":7442,"DIS_CODE":0,"TOWNNAME":"玉井區","LI":"玉井里","LIN":"20鄰","STREET":"民主街","SECT":" ","MAREA":" ","LANE":" ","ALLEY":" ","HOUSE_NO":"７號","E_COORD97":194726.88,"N_COORD97":2558004.2799999998,"ADDRESS":"民主街７號","OBJECTID":7442},"geometry":{"x":194726.88000000175,"y":2558004.2800000012}},{"attributes":{"ID":7443,"DIS_CODE":0,"TOWNNAME":"永康區","LI":"復國里","LIN":"36鄰","STREET":"興國街","SECT":" ","MAREA":" ","LANE":" ","ALLEY":" ","HOUSE_NO":"８號","E_COORD97":172686.38,"N_COORD97":2544700.4900000002,"ADDRESS":"興國街８號","OBJECTID":7443},"geometry":{"x":172686.38000000082,"y":2544700.4900000021}},{"attributes":{"ID":7444,"DIS_CODE":0,"TOWNNAME":"麻豆區","LI":"大埕里","LIN":"5鄰","STREET":"文昌路","SECT":" ","MAREA":" ","LANE":" ","ALLEY":" ","HOUSE_NO":"２５號","E_COORD97":173474.51999999999,"N_COORD97":2565072.6400000001,"ADDRESS":"文昌路２５號","OBJECTID":7444},"geometry":{"x":173474.52000000142,"y":2565072.6400000025}},{"attributes":{"ID":7445,"DIS_CODE":0,"TOWNNAME":"東區","LI":"崇信里","LIN":"6鄰","STREET":"崇信街","SECT":" ","MAREA":" ","LANE":" ","ALLEY":" ","HOUSE_NO":"４３號","E_COORD97":170724.66,"N_COORD97":2542455.2999999998,"ADDRESS":"崇信街４３號","OBJECTID":7445},"geometry":{"x":170724.66000000201,"y":2542455.3000000007}},{"attributes":{"ID":7446,"DIS_CODE":0,"TOWNNAME":"白河區","LI":"庄內里","LIN":"5鄰","STREET":"長安路","SECT":" ","MAREA":" ","LANE":" ","ALLEY":" ","HOUSE_NO":"７號","E_COORD97":190794.29999999999,"N_COORD97":2583490.8300000001,"ADDRESS":"長安路７號","OBJECTID":7446},"geometry":{"x":190794.29999999888,"y":2583490.8300000019}},{"attributes":{"ID":7447,"DIS_CODE":0,"TOWNNAME":"仁德區","LI":"後壁里","LIN":"34鄰","STREET":"德洋二街","SECT":" ","MAREA":" ","LANE":"５巷","ALLEY":" ","HOUSE_NO":"８號","E_COORD97":172490.45999999999,"N_COORD97":2539354.5099999998,"ADDRESS":"德洋二街５巷８號","OBJECTID":7447},"geometry":{"x":172490.46000000183,"y":2539354.5099999998}},{"attributes":{"ID":7448,"DIS_CODE":0,"TOWNNAME":"關廟區","LI":"布袋里","LIN":"5鄰","STREET":"長文街","SECT":" ","MAREA":" ","LANE":" ","ALLEY":" ","HOUSE_NO":"３號","E_COORD97":183094.48999999999,"N_COORD97":2535531.25,"ADDRESS":"長文街３號","OBJECTID":7448},"geometry":{"x":183094.49000000115,"y":2535531.2500000019}},{"attributes":{"ID":7449,"DIS_CODE":0,"TOWNNAME":"永康區","LI":"\u25A0行里","LIN":" ","STREET":"正南五街","SECT":" ","MAREA":" ","LANE":" ","ALLEY":" ","HOUSE_NO":"５號","E_COORD97":171710.76999999999,"N_COORD97":2548687.25,"ADDRESS":"正南五街５號","OBJECTID":7449},"geometry":{"x":171710.76999999955,"y":2548687.25}},{"attributes":{"ID":7450,"DIS_CODE":0,"TOWNNAME":"永康區","LI":"三民里","LIN":" ","STREET":"三民街","SECT":" ","MAREA":" ","LANE":" ","ALLEY":" ","HOUSE_NO":"９號","E_COORD97":172854.07000000001,"N_COORD97":2550352.29,"ADDRESS":"三民街９號","OBJECTID":7450},"geometry":{"x":172854.0700000003,"y":2550352.290000001}},{"attributes":{"ID":7451,"DIS_CODE":0,"TOWNNAME":"永康區","LI":"\u25A0行里","LIN":"34鄰","STREET":"新行街","SECT":" ","MAREA":" ","LANE":" ","ALLEY":" ","HOUSE_NO":"１７１號","E_COORD97":172324.76000000001,"N_COORD97":2549194.7999999998,"ADDRESS":"新行街１７１號","OBJECTID":7451},"geometry":{"x":172324.75999999978,"y":2549194.8000000026}},{"attributes":{"ID":7452,"DIS_CODE":0,"TOWNNAME":"永康區","LI":"復華里","LIN":" ","STREET":"復華十街","SECT":" ","MAREA":" ","LANE":" ","ALLEY":" ","HOUSE_NO":"１號","E_COORD97":172503.32999999999,"N_COORD97":2546160.8500000001,"ADDRESS":"復華十街１號","OBJECTID":7452},"geometry":{"x":172503.33000000194,"y":2546160.8500000034}},{"attributes":{"ID":7453,"DIS_CODE":0,"TOWNNAME":"麻豆區","LI":"大埕里","LIN":"18鄰","STREET":"平等路","SECT":" ","MAREA":" ","LANE":" ","ALLEY":" ","HOUSE_NO":"５號","E_COORD97":173020.62,"N_COORD97":2564940.4700000002,"ADDRESS":"平等路５號","OBJECTID":7453},"geometry":{"x":173020.62000000104,"y":2564940.4700000044}},{"attributes":{"ID":7454,"DIS_CODE":0,"TOWNNAME":"安南區","LI":"溪頂里","LIN":"18鄰","STREET":"賢安街","SECT":" ","MAREA":" ","LANE":" ","ALLEY":" ","HOUSE_NO":"５號","E_COORD97":168711.70000000001,"N_COORD97":2547413.79,"ADDRESS":"賢安街５號","OBJECTID":7454},"geometry":{"x":168711.70000000019,"y":2547413.7899999991}},{"attributes":{"ID":7455,"DIS_CODE":0,"TOWNNAME":"安南區","LI":"新順里","LIN":"18鄰","STREET":"育安四街","SECT":" ","MAREA":" ","LANE":" ","ALLEY":" ","HOUSE_NO":"１號","E_COORD97":169664.41,"N_COORD97":2549497.77,"ADDRESS":"育安四街１號","OBJECTID":7455},"geometry":{"x":169664.41000000015,"y":2549497.7700000014}},{"attributes":{"ID":7456,"DIS_CODE":0,"TOWNNAME":"南區","LI":"光明里","LIN":"17鄰","STREET":"新建路","SECT":" ","MAREA":" ","LANE":"１７巷","ALLEY":" ","HOUSE_NO":"１號","E_COORD97":166479.60000000001,"N_COORD97":2541516.3999999999,"ADDRESS":"新建路１７巷１號","OBJECTID":7456},"geometry":{"x":166479.59999999963,"y":2541516.4000000041}},{"attributes":{"ID":7457,"DIS_CODE":0,"TOWNNAME":"麻豆區","LI":"\u25A0江里","LIN":"18鄰","STREET":"民權路","SECT":" ","MAREA":" ","LANE":" ","ALLEY":" ","HOUSE_NO":"３號","E_COORD97":173384.76000000001,"N_COORD97":2564781.4700000002,"ADDRESS":"民權路３號","OBJECTID":7457},"geometry":{"x":173384.75999999978,"y":2564781.4700000025}},{"attributes":{"ID":7458,"DIS_CODE":0,"TOWNNAME":"北區","LI":"成德里","LIN":"18鄰","STREET":"育成路","SECT":" ","MAREA":" ","LANE":" ","ALLEY":" ","HOUSE_NO":"８７號","E_COORD97":168827.70000000001,"N_COORD97":2546409.27,"ADDRESS":"育成路８７號","OBJECTID":7458},"geometry":{"x":168827.70000000112,"y":2546409.2700000014}},{"attributes":{"ID":7459,"DIS_CODE":0,"TOWNNAME":"中西區","LI":"光賢里","LIN":"20鄰","STREET":"光賢街","SECT":" ","MAREA":" ","LANE":" ","ALLEY":" ","HOUSE_NO":"９號","E_COORD97":166668.67000000001,"N_COORD97":2544997.3100000001,"ADDRESS":"光賢街９號","OBJECTID":7459},"geometry":{"x":166668.66999999993,"y":2544997.3100000024}},{"attributes":{"ID":7460,"DIS_CODE":0,"TOWNNAME":"中西區","LI":"開山里","LIN":"20鄰","STREET":"大埔街","SECT":" ","MAREA":" ","LANE":" ","ALLEY":" ","HOUSE_NO":"７號","E_COORD97":168993.56,"N_COORD97":2543026.5,"ADDRESS":"大埔街７號","OBJECTID":7460},"geometry":{"x":168993.55999999959,"y":2543026.5}},{"attributes":{"ID":7461,"DIS_CODE":0,"TOWNNAME":"中西區","LI":"開山里","LIN":"20鄰","STREET":"大埔街","SECT":" ","MAREA":" ","LANE":" ","ALLEY":" ","HOUSE_NO":"９號","E_COORD97":168988.84,"N_COORD97":2543028.2400000002,"ADDRESS":"大埔街９號","OBJECTID":7461},"geometry":{"x":168988.83999999892,"y":2543028.2400000002}},{"attributes":{"ID":7462,"DIS_CODE":0,"TOWNNAME":"新營區","LI":"三仙里","LIN":"8鄰","STREET":"博愛街","SECT":" ","MAREA":" ","LANE":"８４巷","ALLEY":" ","HOUSE_NO":"３號","E_COORD97":179686.76000000001,"N_COORD97":2578153.3599999999,"ADDRESS":"博愛街８４巷３號","OBJECTID":7462},"geometry":{"x":179686.76000000071,"y":2578153.3600000013}},{"attributes":{"ID":7463,"DIS_CODE":0,"TOWNNAME":"佳里區","LI":"建南里","LIN":"26鄰","STREET":"復興路","SECT":" ","MAREA":" ","LANE":" ","ALLEY":" ","HOUSE_NO":"４８號","E_COORD97":165412.60999999999,"N_COORD97":2561709.7000000002,"ADDRESS":"復興路４８號","OBJECTID":7463},"geometry":{"x":165412.61000000127,"y":2561709.700000003}},{"attributes":{"ID":7464,"DIS_CODE":0,"TOWNNAME":"北區","LI":"延平里","LIN":"7鄰","STREET":"公園路","SECT":" ","MAREA":" ","LANE":" ","ALLEY":" ","HOUSE_NO":"７７４號","E_COORD97":169137.67000000001,"N_COORD97":2545741.1000000001,"ADDRESS":"公園路７７４號","OBJECTID":7464},"geometry":{"x":169137.67000000179,"y":2545741.0999999996}},{"attributes":{"ID":7465,"DIS_CODE":0,"TOWNNAME":"安平區","LI":"建平里","LIN":"28鄰","STREET":"永華路","SECT":"二段","MAREA":" ","LANE":" ","ALLEY":" ","HOUSE_NO":"２號","E_COORD97":166536.29000000001,"N_COORD97":2543405.71,"ADDRESS":"永華路二段２號","OBJECTID":7465},"geometry":{"x":166536.29000000004,"y":2543405.7100000009}},{"attributes":{"ID":7466,"DIS_CODE":0,"TOWNNAME":"安平區","LI":"建平里","LIN":"28鄰","STREET":"永華路","SECT":"二段","MAREA":" ","LANE":" ","ALLEY":" ","HOUSE_NO":"６號","E_COORD97":166418.23999999999,"N_COORD97":2543370.1099999999,"ADDRESS":"永華路二段６號","OBJECTID":7466},"geometry":{"x":166418.24000000022,"y":2543370.1100000013}},{"attributes":{"ID":7467,"DIS_CODE":0,"TOWNNAME":"南區","LI":"金華里","LIN":"25鄰","STREET":"賢南街","SECT":" ","MAREA":" ","LANE":" ","ALLEY":" ","HOUSE_NO":"８３號","E_COORD97":166679.60999999999,"N_COORD97":2542383.8599999999,"ADDRESS":"賢南街８３號","OBJECTID":7467},"geometry":{"x":166679.61000000127,"y":2542383.8600000031}},{"attributes":{"ID":7468,"DIS_CODE":0,"TOWNNAME":"永康區","LI":"永康里","LIN":"25鄰","STREET":"埔聖街","SECT":" ","MAREA":" ","LANE":" ","ALLEY":" ","HOUSE_NO":"１５８號","E_COORD97":174095.95000000001,"N_COORD97":2547622.8900000001,"ADDRESS":"埔聖街１５８號","OBJECTID":7468},"geometry":{"x":174095.95000000019,"y":2547622.8900000043}},{"attributes":{"ID":7469,"DIS_CODE":0,"TOWNNAME":"麻豆區","LI":"大埕里","LIN":"8鄰","STREET":" ","SECT":" ","MAREA":"大埕","LANE":" ","ALLEY":" ","HOUSE_NO":"１５號之３１","E_COORD97":173167.49543000001,"N_COORD97":2565386.76131,"ADDRESS":"大埕１５號之３１","OBJECTID":7469},"geometry":{"x":173167.49543000013,"y":2565386.76131}},{"attributes":{"ID":7470,"DIS_CODE":0,"TOWNNAME":"麻豆區","LI":"大埕里","LIN":"8鄰","STREET":" ","SECT":" ","MAREA":"大埕","LANE":" ","ALLEY":" ","HOUSE_NO":"１５號之３３","E_COORD97":173157.00419000001,"N_COORD97":2565380.83464,"ADDRESS":"大埕１５號之３３","OBJECTID":7470},"geometry":{"x":173157.00418999977,"y":2565380.8346400037}},{"attributes":{"ID":7471,"DIS_CODE":0,"TOWNNAME":"新營區","LI":"王公里","LIN":"32鄰","STREET":"大德街","SECT":" ","MAREA":" ","LANE":" ","ALLEY":" ","HOUSE_NO":"６號","E_COORD97":180180.07999999999,"N_COORD97":2579532.02,"ADDRESS":"大德街６號","OBJECTID":7471},"geometry":{"x":180180.08000000007,"y":2579532.0200000014}},{"attributes":{"ID":7472,"DIS_CODE":0,"TOWNNAME":"安平區","LI":"石門里","LIN":"18鄰","STREET":"\u25A0忠街","SECT":" ","MAREA":" ","LANE":" ","ALLEY":" ","HOUSE_NO":"５號","E_COORD97":164383.32999999999,"N_COORD97":2544584.8999999999,"ADDRESS":"\u25A0忠街５號","OBJECTID":7472},"geometry":{"x":164383.32999999914,"y":2544584.9000000041}},{"attributes":{"ID":7473,"DIS_CODE":0,"TOWNNAME":"仁德區","LI":"仁德里","LIN":"43鄰","STREET":"中山路","SECT":" ","MAREA":" ","LANE":" ","ALLEY":" ","HOUSE_NO":"９１６號","E_COORD97":171967.32000000001,"N_COORD97":2541732.2400000002,"ADDRESS":"中山路９１６號","OBJECTID":7473},"geometry":{"x":171967.3200000003,"y":2541732.2400000021}},{"attributes":{"ID":7474,"DIS_CODE":0,"TOWNNAME":"新市區","LI":"新和里","LIN":"41鄰","STREET":"西寧街","SECT":" ","MAREA":" ","LANE":" ","ALLEY":" ","HOUSE_NO":"１號","E_COORD97":177154.76000000001,"N_COORD97":2552901.25,"ADDRESS":"西寧街１號","OBJECTID":7474},"geometry":{"x":177154.75999999978,"y":2552901.25}},{"attributes":{"ID":7475,"DIS_CODE":0,"TOWNNAME":"安南區","LI":"安西里","LIN":"13鄰","STREET":"安通路","SECT":"四段","MAREA":" ","LANE":" ","ALLEY":" ","HOUSE_NO":"１號","E_COORD97":169359.57999999999,"N_COORD97":2547783.5899999999,"ADDRESS":"安通路四段１號","OBJECTID":7475},"geometry":{"x":169359.58000000101,"y":2547783.5900000036}},{"attributes":{"ID":7476,"DIS_CODE":0,"TOWNNAME":"新營區","LI":"王公里","LIN":"18鄰","STREET":"樂利街","SECT":" ","MAREA":" ","LANE":" ","ALLEY":" ","HOUSE_NO":"９號","E_COORD97":180179.81,"N_COORD97":2579266.2400000002,"ADDRESS":"樂利街９號","OBJECTID":7476},"geometry":{"x":180179.80999999959,"y":2579266.2400000021}},{"attributes":{"ID":7477,"DIS_CODE":0,"TOWNNAME":"新營區","LI":"新東里","LIN":"15鄰","STREET":"東安街","SECT":" ","MAREA":" ","LANE":" ","ALLEY":" ","HOUSE_NO":"６號","E_COORD97":180950.85000000001,"N_COORD97":2579555.21,"ADDRESS":"東安街６號","OBJECTID":7477},"geometry":{"x":180950.84999999963,"y":2579555.2100000046}},{"attributes":{"ID":7478,"DIS_CODE":0,"TOWNNAME":"七股區","LI":"義合里","LIN":"6鄰","STREET":" ","SECT":" ","MAREA":"義合","LANE":" ","ALLEY":" ","HOUSE_NO":"４４號","E_COORD97":162449.71233000001,"N_COORD97":2555960.9731600001,"ADDRESS":"義合４４號","OBJECTID":7478},"geometry":{"x":162449.71233000141,"y":2555960.9731630012}},{"attributes":{"ID":7479,"DIS_CODE":0,"TOWNNAME":"仁德區","LI":"仁愛里","LIN":"10鄰","STREET":" ","SECT":" ","MAREA":"仁愛","LANE":" ","ALLEY":" ","HOUSE_NO":"１８８號","E_COORD97":170296.349754,"N_COORD97":2539958.5499999998,"ADDRESS":"仁愛１８８號","OBJECTID":7479},"geometry":{"x":170296.34975400101,"y":2539958.5500000007}},{"attributes":{"ID":7480,"DIS_CODE":0,"TOWNNAME":"山上區","LI":"明和里","LIN":"23鄰","STREET":" ","SECT":" ","MAREA":"北勢洲","LANE":" ","ALLEY":" ","HOUSE_NO":"５３號之１","E_COORD97":181821.41472199999,"N_COORD97":2556643.5140399998,"ADDRESS":"北勢洲５３號之１","OBJECTID":7480},"geometry":{"x":181821.41472199932,"y":2556643.514038004}},{"attributes":{"ID":7481,"DIS_CODE":0,"TOWNNAME":"新化區","LI":"協興里","LIN":"16鄰","STREET":"大新路","SECT":" ","MAREA":" ","LANE":"３７巷","ALLEY":" ","HOUSE_NO":"２之１號","E_COORD97":178171.48000000001,"N_COORD97":2548588.25,"ADDRESS":"大新路３７巷２之１號","OBJECTID":7481},"geometry":{"x":178171.48000000231,"y":2548588.25}},{"attributes":{"ID":7482,"DIS_CODE":0,"TOWNNAME":"新營區","LI":"王公里","LIN":"23鄰","STREET":"樂仁街","SECT":" ","MAREA":" ","LANE":"１６巷","ALLEY":" ","HOUSE_NO":"１１號","E_COORD97":180559.47581100001,"N_COORD97":2579112.1699600001,"ADDRESS":"樂仁街１６巷１１號","OBJECTID":7482},"geometry":{"x":180559.47581100091,"y":2579112.1699650027}},{"attributes":{"ID":7483,"DIS_CODE":0,"TOWNNAME":"永康區","LI":"光復里","LIN":"7鄰","STREET":"復國路","SECT":" ","MAREA":" ","LANE":"５３巷","ALLEY":" ","HOUSE_NO":"１５０號","E_COORD97":172491.25099,"N_COORD97":2544444.2882699999,"ADDRESS":"復國路５３巷１５０號","OBJECTID":7483},"geometry":{"x":172491.25098999962,"y":2544444.288265001}},{"attributes":{"ID":7484,"DIS_CODE":0,"TOWNNAME":"新化區","LI":"觀音里","LIN":"4鄰","STREET":"仁愛街","SECT":" ","MAREA":" ","LANE":"６５巷","ALLEY":" ","HOUSE_NO":"９號","E_COORD97":178984.28,"N_COORD97":2548542.25,"ADDRESS":"仁愛街６５巷９號","OBJECTID":7484},"geometry":{"x":178984.28000000026,"y":2548542.2500000019}},{"attributes":{"ID":7485,"DIS_CODE":0,"TOWNNAME":"安南區","LI":"\u25A0田里","LIN":"1鄰","STREET":"大眾路","SECT":" ","MAREA":" ","LANE":"１０１巷","ALLEY":" ","HOUSE_NO":"１２６號","E_COORD97":161977.86452900001,"N_COORD97":2547411.0364700002,"ADDRESS":"大眾路１０１巷１２６號","OBJECTID":7485},"geometry":{"x":161977.86452899966,"y":2547411.0364670027}},{"attributes":{"ID":7486,"DIS_CODE":0,"TOWNNAME":"安南區","LI":"公\u25A0里","LIN":"1鄰","STREET":"安興街","SECT":" ","MAREA":" ","LANE":" ","ALLEY":" ","HOUSE_NO":"６號","E_COORD97":164457.35000000001,"N_COORD97":2552333.4399999999,"ADDRESS":"安興街６號","OBJECTID":7486},"geometry":{"x":164457.35000000149,"y":2552333.4399999995}},{"attributes":{"ID":7487,"DIS_CODE":0,"TOWNNAME":"學甲區","LI":"仁得里","LIN":"1鄰","STREET":"四維街","SECT":" ","MAREA":" ","LANE":" ","ALLEY":" ","HOUSE_NO":"６０號","E_COORD97":166111.32000000001,"N_COORD97":2569794.8700000001,"ADDRESS":"四維街６０號","OBJECTID":7487},"geometry":{"x":166111.32000000123,"y":2569794.870000001}},{"attributes":{"ID":7488,"DIS_CODE":0,"TOWNNAME":"北區","LI":"小康里","LIN":"1鄰","STREET":"大武街","SECT":" ","MAREA":" ","LANE":" ","ALLEY":" ","HOUSE_NO":"３６８號","E_COORD97":169831.91,"N_COORD97":2546391.9900000002,"ADDRESS":"大武街３６８號","OBJECTID":7488},"geometry":{"x":169831.91000000108,"y":2546391.9900000021}},{"attributes":{"ID":7489,"DIS_CODE":0,"TOWNNAME":"佳里區","LI":"安西里","LIN":"39鄰","STREET":"佳西路","SECT":" ","MAREA":" ","LANE":" ","ALLEY":" ","HOUSE_NO":"２５０號","E_COORD97":164795.85000000001,"N_COORD97":2562669.2999999998,"ADDRESS":"佳西路２５０號","OBJECTID":7489},"geometry":{"x":164795.84999999963,"y":2562669.3000000007}},{"attributes":{"ID":7490,"DIS_CODE":0,"TOWNNAME":"歸仁區","LI":"新厝里","LIN":"19鄰","STREET":"大成二街","SECT":" ","MAREA":" ","LANE":" ","ALLEY":" ","HOUSE_NO":"３號","E_COORD97":177614.98999999999,"N_COORD97":2540361.1800000002,"ADDRESS":"大成二街３號","OBJECTID":7490},"geometry":{"x":177614.99000000022,"y":2540361.1800000034}},{"attributes":{"ID":7491,"DIS_CODE":0,"TOWNNAME":"麻豆區","LI":"穀興里","LIN":"8鄰","STREET":"興華街","SECT":" ","MAREA":" ","LANE":" ","ALLEY":" ","HOUSE_NO":"１１號","E_COORD97":172991.10999999999,"N_COORD97":2564859.1600000001,"ADDRESS":"興華街１１號","OBJECTID":7491},"geometry":{"x":172991.11000000034,"y":2564859.1600000001}},{"attributes":{"ID":7492,"DIS_CODE":0,"TOWNNAME":"北區","LI":"裕民里","LIN":"8鄰","STREET":"金華路","SECT":"五段","MAREA":" ","LANE":" ","ALLEY":" ","HOUSE_NO":"３號","E_COORD97":167586.67999999999,"N_COORD97":2544702.8599999999,"ADDRESS":"金華路五段３號","OBJECTID":7492},"geometry":{"x":167586.68000000063,"y":2544702.8600000031}},{"attributes":{"ID":7493,"DIS_CODE":0,"TOWNNAME":"新化區","LI":"護國里","LIN":"8鄰","STREET":"信義路","SECT":" ","MAREA":" ","LANE":" ","ALLEY":" ","HOUSE_NO":"２號之２","E_COORD97":181624.635396,"N_COORD97":2548728.37537,"ADDRESS":"信義路２號之２","OBJECTID":7493},"geometry":{"x":181624.63539600093,"y":2548728.3753689993}},{"attributes":{"ID":7494,"DIS_CODE":0,"TOWNNAME":"中西區","LI":"民生里","LIN":"7鄰","STREET":"武英街","SECT":" ","MAREA":" ","LANE":" ","ALLEY":" ","HOUSE_NO":"４號","E_COORD97":167228.82999999999,"N_COORD97":2543310.3399999999,"ADDRESS":"武英街４號","OBJECTID":7494},"geometry":{"x":167228.83000000007,"y":2543310.3400000017}},{"attributes":{"ID":7495,"DIS_CODE":0,"TOWNNAME":"仁德區","LI":"新田里","LIN":"7鄰","STREET":"新田路","SECT":" ","MAREA":" ","LANE":" ","ALLEY":" ","HOUSE_NO":"８號","E_COORD97":174424.07000000001,"N_COORD97":2538929.7400000002,"ADDRESS":"新田路８號","OBJECTID":7495},"geometry":{"x":174424.0700000003,"y":2538929.7400000002}},{"attributes":{"ID":7496,"DIS_CODE":0,"TOWNNAME":"歸仁區","LI":"辜厝里","LIN":"7鄰","STREET":"大順二街","SECT":" ","MAREA":" ","LANE":" ","ALLEY":" ","HOUSE_NO":"３號","E_COORD97":177478.17000000001,"N_COORD97":2540567.5899999999,"ADDRESS":"大順二街３號","OBJECTID":7496},"geometry":{"x":177478.17000000086,"y":2540567.5899999999}},{"attributes":{"ID":7497,"DIS_CODE":0,"TOWNNAME":"玉井區","LI":"玉田里","LIN":"7鄰","STREET":"民族路","SECT":" ","MAREA":" ","LANE":" ","ALLEY":" ","HOUSE_NO":"２號","E_COORD97":194942.28,"N_COORD97":2558104.2799999998,"ADDRESS":"民族路２號","OBJECTID":7497},"geometry":{"x":194942.28000000026,"y":2558104.2799999993}},{"attributes":{"ID":7498,"DIS_CODE":0,"TOWNNAME":"六甲區","LI":"甲東里","LIN":"7鄰","STREET":"四維街","SECT":" ","MAREA":" ","LANE":" ","ALLEY":" ","HOUSE_NO":"７號","E_COORD97":183918.60000000001,"N_COORD97":2570195.4399999999,"ADDRESS":"四維街７號","OBJECTID":7498},"geometry":{"x":183918.60000000056,"y":2570195.4400000013}},{"attributes":{"ID":7499,"DIS_CODE":0,"TOWNNAME":"關廟區","LI":"五甲里","LIN":"7鄰","STREET":"五慧街","SECT":" ","MAREA":" ","LANE":" ","ALLEY":" ","HOUSE_NO":"８號","E_COORD97":181250.87,"N_COORD97":2539266.25,"ADDRESS":"五慧街８號","OBJECTID":7499},"geometry":{"x":181250.87000000104,"y":2539266.2500000019}},{"attributes":{"ID":7500,"DIS_CODE":0,"TOWNNAME":"善化區","LI":"北關里","LIN":"7鄰","STREET":"博愛路","SECT":" ","MAREA":" ","LANE":" ","ALLEY":" ","HOUSE_NO":"１號","E_COORD97":177270.16,"N_COORD97":2559202.7599999998,"ADDRESS":"博愛路１號","OBJECTID":7500},"geometry":{"x":177270.16000000108,"y":2559202.7599999998}},{"attributes":{"ID":7501,"DIS_CODE":0,"TOWNNAME":"鹽水區","LI":"福得里","LIN":"4鄰","STREET":"清泉路","SECT":" ","MAREA":" ","LANE":" ","ALLEY":" ","HOUSE_NO":"１號","E_COORD97":175277.39999999999,"N_COORD97":2580010.7400000002,"ADDRESS":"清泉路１號","OBJECTID":7501},"geometry":{"x":175277.40000000037,"y":2580010.7400000002}},{"attributes":{"ID":7502,"DIS_CODE":0,"TOWNNAME":"鹽水區","LI":"武廟里","LIN":"13鄰","STREET":"民生街","SECT":" ","MAREA":" ","LANE":" ","ALLEY":" ","HOUSE_NO":"３１號","E_COORD97":175083.54999999999,"N_COORD97":2580169.3500000001,"ADDRESS":"民生街３１號","OBJECTID":7502},"geometry":{"x":175083.55000000075,"y":2580169.3499999996}},{"attributes":{"ID":7503,"DIS_CODE":0,"TOWNNAME":"新市區","LI":"永就里","LIN":"15鄰","STREET":"永華二街","SECT":" ","MAREA":" ","LANE":" ","ALLEY":" ","HOUSE_NO":"８號","E_COORD97":177680.29000000001,"N_COORD97":2551019,"ADDRESS":"永華二街８號","OBJECTID":7503},"geometry":{"x":177680.29000000004,"y":2551019.0000000019}},{"attributes":{"ID":7504,"DIS_CODE":0,"TOWNNAME":"永康區","LI":"甲頂里","LIN":"15鄰","STREET":"正新街","SECT":" ","MAREA":" ","LANE":" ","ALLEY":" ","HOUSE_NO":"１號","E_COORD97":170437.66,"N_COORD97":2546614.6099999999,"ADDRESS":"正新街１號","OBJECTID":7504},"geometry":{"x":170437.66000000015,"y":2546614.6100000013}},{"attributes":{"ID":7505,"DIS_CODE":0,"TOWNNAME":"中西區","LI":"永華里","LIN":"15鄰","STREET":"友愛街","SECT":" ","MAREA":" ","LANE":" ","ALLEY":" ","HOUSE_NO":"３號","E_COORD97":168599.14999999999,"N_COORD97":2543503.5899999999,"ADDRESS":"友愛街３號","OBJECTID":7505},"geometry":{"x":168599.15000000224,"y":2543503.5899999999}},{"attributes":{"ID":7506,"DIS_CODE":0,"TOWNNAME":"佳里區","LI":"鎮山里","LIN":"15鄰","STREET":"安南路","SECT":" ","MAREA":" ","LANE":" ","ALLEY":" ","HOUSE_NO":"５號","E_COORD97":166077.37,"N_COORD97":2561442.8399999999,"ADDRESS":"安南路５號","OBJECTID":7506},"geometry":{"x":166077.37000000104,"y":2561442.8400000017}},{"attributes":{"ID":7507,"DIS_CODE":0,"TOWNNAME":"安平區","LI":"億載里","LIN":" ","STREET":"光州路","SECT":" ","MAREA":" ","LANE":" ","ALLEY":" ","HOUSE_NO":"２號","E_COORD97":163742.51000000001,"N_COORD97":2543160.6899999999,"ADDRESS":"光州路２號","OBJECTID":7507},"geometry":{"x":163742.50999999978,"y":2543160.6899999995}},{"attributes":{"ID":7508,"DIS_CODE":0,"TOWNNAME":"新營區","LI":"中營里","LIN":"7鄰","STREET":"新進路","SECT":" ","MAREA":" ","LANE":" ","ALLEY":" ","HOUSE_NO":"９號","E_COORD97":180689.01999999999,"N_COORD97":2578360.1600000001,"ADDRESS":"新進路９號","OBJECTID":7508},"geometry":{"x":180689.01999999955,"y":2578360.1600000001}},{"attributes":{"ID":7509,"DIS_CODE":0,"TOWNNAME":"麻豆區","LI":"大埕里","LIN":"14鄰","STREET":"新興街","SECT":" ","MAREA":" ","LANE":" ","ALLEY":" ","HOUSE_NO":"１號之７","E_COORD97":172983.23000000001,"N_COORD97":2565178.4500000002,"ADDRESS":"新興街１號之７","OBJECTID":7509},"geometry":{"x":172983.23000000138,"y":2565178.4499999993}},{"attributes":{"ID":7510,"DIS_CODE":0,"TOWNNAME":"鹽水區","LI":"橋南里","LIN":"7鄰","STREET":"忠孝路","SECT":" ","MAREA":" ","LANE":" ","ALLEY":" ","HOUSE_NO":"２２號","E_COORD97":175942.89000000001,"N_COORD97":2578887.6899999999,"ADDRESS":"忠孝路２２號","OBJECTID":7510},"geometry":{"x":175942.8900000006,"y":2578887.6899999995}},{"attributes":{"ID":7511,"DIS_CODE":0,"TOWNNAME":"安南區","LI":"\u25A0田里","LIN":"7鄰","STREET":"科技一路","SECT":" ","MAREA":" ","LANE":" ","ALLEY":" ","HOUSE_NO":"７號","E_COORD97":163129.75,"N_COORD97":2549193.9199999999,"ADDRESS":"科技一路７號","OBJECTID":7511},"geometry":{"x":163129.75000000093,"y":2549193.9199999999}},{"attributes":{"ID":7512,"DIS_CODE":0,"TOWNNAME":"中西區","LI":"建國里","LIN":"15鄰","STREET":"新美街","SECT":" ","MAREA":" ","LANE":" ","ALLEY":" ","HOUSE_NO":"１１號","E_COORD97":167987.38,"N_COORD97":2543907.4399999999,"ADDRESS":"新美街１１號","OBJECTID":7512},"geometry":{"x":167987.38000000082,"y":2543907.4399999995}},{"attributes":{"ID":7513,"DIS_CODE":0,"TOWNNAME":"北區","LI":"成德里","LIN":"15鄰","STREET":"文成一路","SECT":" ","MAREA":" ","LANE":" ","ALLEY":" ","HOUSE_NO":"１７號","E_COORD97":168884.54000000001,"N_COORD97":2546000.0699999998,"ADDRESS":"文成一路１７號","OBJECTID":7513},"geometry":{"x":168884.54000000097,"y":2546000.0700000003}},{"attributes":{"ID":7514,"DIS_CODE":0,"TOWNNAME":"玉井區","LI":"玉井里","LIN":"15鄰","STREET":"中華路","SECT":" ","MAREA":" ","LANE":" ","ALLEY":" ","HOUSE_NO":"２２號","E_COORD97":194918.22,"N_COORD97":2558139.25,"ADDRESS":"中華路２２號","OBJECTID":7514},"geometry":{"x":194918.22000000067,"y":2558139.25}},{"attributes":{"ID":7515,"DIS_CODE":0,"TOWNNAME":"新營區","LI":"新東里","LIN":"15鄰","STREET":"東泰路","SECT":" ","MAREA":" ","LANE":" ","ALLEY":" ","HOUSE_NO":"１３號","E_COORD97":181119.42999999999,"N_COORD97":2579579.6800000002,"ADDRESS":"東泰路１３號","OBJECTID":7515},"geometry":{"x":181119.43000000063,"y":2579579.6799999997}},{"attributes":{"ID":7516,"DIS_CODE":0,"TOWNNAME":"東區","LI":"關聖里","LIN":"15鄰","STREET":"裕孝路","SECT":" ","MAREA":" ","LANE":" ","ALLEY":" ","HOUSE_NO":"８０號","E_COORD97":172425.01000000001,"N_COORD97":2543105.2999999998,"ADDRESS":"裕孝路８０號","OBJECTID":7516},"geometry":{"x":172425.00999999978,"y":2543105.3000000026}},{"attributes":{"ID":7517,"DIS_CODE":0,"TOWNNAME":"永康區","LI":"中華里","LIN":"15鄰","STREET":"華興街","SECT":" ","MAREA":" ","LANE":" ","ALLEY":" ","HOUSE_NO":"１１５號","E_COORD97":171742.23000000001,"N_COORD97":2544562.3199999998,"ADDRESS":"華興街１１５號","OBJECTID":7517},"geometry":{"x":171742.23000000138,"y":2544562.3200000022}},{"attributes":{"ID":7518,"DIS_CODE":0,"TOWNNAME":"善化區","LI":"光文里","LIN":"15鄰","STREET":"樹人路","SECT":" ","MAREA":" ","LANE":" ","ALLEY":" ","HOUSE_NO":"１號","E_COORD97":178371.31,"N_COORD97":2558901,"ADDRESS":"樹人路１號","OBJECTID":7518},"geometry":{"x":178371.30999999959,"y":2558900.9999999981}},{"attributes":{"ID":7519,"DIS_CODE":0,"TOWNNAME":"永康區","LI":"龍潭里","LIN":"15鄰","STREET":"龍橋街","SECT":" ","MAREA":" ","LANE":" ","ALLEY":" ","HOUSE_NO":"２號","E_COORD97":174899.01000000001,"N_COORD97":2548300.7799999998,"ADDRESS":"龍橋街２號","OBJECTID":7519},"geometry":{"x":174899.01000000071,"y":2548300.7800000012}},{"attributes":{"ID":7520,"DIS_CODE":0,"TOWNNAME":"東區","LI":"東明里","LIN":"1鄰","STREET":"東興路","SECT":" ","MAREA":" ","LANE":" ","ALLEY":" ","HOUSE_NO":"１號","E_COORD97":170895.35999999999,"N_COORD97":2543408.6899999999,"ADDRESS":"東興路１號","OBJECTID":7520},"geometry":{"x":170895.36000000127,"y":2543408.6900000032}},{"attributes":{"ID":7521,"DIS_CODE":0,"TOWNNAME":"新市區","LI":"新和里","LIN":"1鄰","STREET":"中華路","SECT":" ","MAREA":" ","LANE":" ","ALLEY":" ","HOUSE_NO":"９號","E_COORD97":177298.06,"N_COORD97":2551984,"ADDRESS":"中華路９號","OBJECTID":7521},"geometry":{"x":177298.05999999959,"y":2551984}},{"attributes":{"ID":7522,"DIS_CODE":0,"TOWNNAME":"新市區","LI":"港墘里","LIN":"1鄰","STREET":"民族路","SECT":" ","MAREA":" ","LANE":" ","ALLEY":" ","HOUSE_NO":"８號","E_COORD97":178631.17999999999,"N_COORD97":2553932.54,"ADDRESS":"民族路８號","OBJECTID":7522},"geometry":{"x":178631.18000000063,"y":2553932.5399999991}},{"attributes":{"ID":7523,"DIS_CODE":0,"TOWNNAME":"中西區","LI":"三民里","LIN":"1鄰","STREET":"中山路","SECT":" ","MAREA":" ","LANE":" ","ALLEY":" ","HOUSE_NO":"５號二樓","E_COORD97":168538.76000000001,"N_COORD97":2543735.1699999999,"ADDRESS":"中山路５號二樓","OBJECTID":7523},"geometry":{"x":168538.76000000071,"y":2543735.1700000018}},{"attributes":{"ID":7524,"DIS_CODE":0,"TOWNNAME":"鹽水區","LI":"福得里","LIN":"1鄰","STREET":"朝琴路","SECT":" ","MAREA":" ","LANE":" ","ALLEY":" ","HOUSE_NO":"２號","E_COORD97":175169.64000000001,"N_COORD97":2579976.9100000001,"ADDRESS":"朝琴路２號","OBJECTID":7524},"geometry":{"x":175169.6400000006,"y":2579976.910000002}},{"attributes":{"ID":7525,"DIS_CODE":0,"TOWNNAME":"南區","LI":"文華里","LIN":"15鄰","STREET":"德南街","SECT":" ","MAREA":" ","LANE":" ","ALLEY":" ","HOUSE_NO":"７７號","E_COORD97":166769.97,"N_COORD97":2543031.4300000002,"ADDRESS":"德南街７７號","OBJECTID":7525},"geometry":{"x":166769.96999999974,"y":2543031.4300000016}},{"attributes":{"ID":7526,"DIS_CODE":0,"TOWNNAME":"安平區","LI":"建平里","LIN":"7鄰","STREET":"建平十街","SECT":" ","MAREA":" ","LANE":" ","ALLEY":" ","HOUSE_NO":"８號","E_COORD97":166395.01000000001,"N_COORD97":2543835.21,"ADDRESS":"建平十街８號","OBJECTID":7526},"geometry":{"x":166395.00999999978,"y":2543835.2100000028}},{"attributes":{"ID":7527,"DIS_CODE":0,"TOWNNAME":"北區","LI":"公園里","LIN":"1鄰","STREET":"北忠街","SECT":" ","MAREA":" ","LANE":" ","ALLEY":" ","HOUSE_NO":"７號五樓","E_COORD97":169230.57999999999,"N_COORD97":2544338.5600000001,"ADDRESS":"北忠街７號五樓","OBJECTID":7527},"geometry":{"x":169230.58000000101,"y":2544338.5600000005}},{"attributes":{"ID":7528,"DIS_CODE":0,"TOWNNAME":"北區","LI":"玉皇里","LIN":"1鄰","STREET":"北華街","SECT":" ","MAREA":" ","LANE":" ","ALLEY":" ","HOUSE_NO":"１０８號","E_COORD97":168693.76999999999,"N_COORD97":2544643.8399999999,"ADDRESS":"北華街１０８號","OBJECTID":7528},"geometry":{"x":168693.76999999955,"y":2544643.8400000017}},{"attributes":{"ID":7529,"DIS_CODE":0,"TOWNNAME":"關廟區","LI":"下湖里","LIN":"1鄰","STREET":"下湖一街","SECT":" ","MAREA":" ","LANE":" ","ALLEY":" ","HOUSE_NO":"３３號","E_COORD97":179147.39000000001,"N_COORD97":2542727.2999999998,"ADDRESS":"下湖一街３３號","OBJECTID":7529},"geometry":{"x":179147.38999999966,"y":2542727.3000000007}},{"attributes":{"ID":7530,"DIS_CODE":0,"TOWNNAME":"北區","LI":"華興里","LIN":"1鄰","STREET":"開南街","SECT":" ","MAREA":" ","LANE":" ","ALLEY":" ","HOUSE_NO":"１號","E_COORD97":170287.82999999999,"N_COORD97":2545393.9500000002,"ADDRESS":"開南街１號","OBJECTID":7530},"geometry":{"x":170287.83000000194,"y":2545393.9500000011}},{"attributes":{"ID":7531,"DIS_CODE":0,"TOWNNAME":"南區","LI":"再興里","LIN":"1鄰","STREET":"三官路","SECT":" ","MAREA":" ","LANE":" ","ALLEY":" ","HOUSE_NO":"４號","E_COORD97":167328.29999999999,"N_COORD97":2542422.8199999998,"ADDRESS":"三官路４號","OBJECTID":7531},"geometry":{"x":167328.30000000075,"y":2542422.8200000022}},{"attributes":{"ID":7532,"DIS_CODE":0,"TOWNNAME":"麻豆區","LI":"保安里","LIN":"1鄰","STREET":"中正路","SECT":" ","MAREA":" ","LANE":" ","ALLEY":" ","HOUSE_NO":"９號","E_COORD97":173059.78,"N_COORD97":2564871.46,"ADDRESS":"中正路９號","OBJECTID":7532},"geometry":{"x":173059.78000000026,"y":2564871.4600000009}},{"attributes":{"ID":7533,"DIS_CODE":0,"TOWNNAME":"白河區","LI":"庄內里","LIN":"1鄰","STREET":"裕農路","SECT":" ","MAREA":" ","LANE":" ","ALLEY":" ","HOUSE_NO":"５６號","E_COORD97":191141.57999999999,"N_COORD97":2583541.0600000001,"ADDRESS":"裕農路５６號","OBJECTID":7533},"geometry":{"x":191141.58000000007,"y":2583541.0600000005}},{"attributes":{"ID":7534,"DIS_CODE":0,"TOWNNAME":"安平區","LI":"國平里","LIN":"31鄰","STREET":"健康三街","SECT":" ","MAREA":" ","LANE":" ","ALLEY":" ","HOUSE_NO":"８號","E_COORD97":164701.79999999999,"N_COORD97":2542885.1099999999,"ADDRESS":"健康三街８號","OBJECTID":7534},"geometry":{"x":164701.79999999981,"y":2542885.1100000013}},{"attributes":{"ID":7535,"DIS_CODE":0,"TOWNNAME":"仁德區","LI":"太子里","LIN":"35鄰","STREET":"太子二街","SECT":" ","MAREA":" ","LANE":" ","ALLEY":" ","HOUSE_NO":"４號","E_COORD97":174270.85000000001,"N_COORD97":2543473.5,"ADDRESS":"太子二街４號","OBJECTID":7535},"geometry":{"x":174270.85000000149,"y":2543473.5}},{"attributes":{"ID":7536,"DIS_CODE":0,"TOWNNAME":"歸仁區","LI":"許厝里","LIN":"31鄰","STREET":"和平南街","SECT":" ","MAREA":" ","LANE":" ","ALLEY":" ","HOUSE_NO":"２９號","E_COORD97":177830.70999999999,"N_COORD97":2540663.5299999998,"ADDRESS":"和平南街２９號","OBJECTID":7536},"geometry":{"x":177830.71000000089,"y":2540663.5300000031}},{"attributes":{"ID":7537,"DIS_CODE":0,"TOWNNAME":"佳里區","LI":"建南里","LIN":"31鄰","STREET":"南勢街","SECT":" ","MAREA":" ","LANE":" ","ALLEY":" ","HOUSE_NO":"２９５號","E_COORD97":165643.73000000001,"N_COORD97":2560861.1499999999,"ADDRESS":"南勢街２９５號","OBJECTID":7537},"geometry":{"x":165643.73000000045,"y":2560861.1500000022}},{"attributes":{"ID":7538,"DIS_CODE":0,"TOWNNAME":"南區","LI":"文華里","LIN":"17鄰","STREET":"德南街","SECT":" ","MAREA":" ","LANE":" ","ALLEY":" ","HOUSE_NO":"２０號","E_COORD97":166852.29000000001,"N_COORD97":2543126.1299999999,"ADDRESS":"德南街２０號","OBJECTID":7538},"geometry":{"x":166852.29000000097,"y":2543126.129999999}},{"attributes":{"ID":7539,"DIS_CODE":0,"TOWNNAME":"善化區","LI":"坐駕里","LIN":"6鄰","STREET":"建國路","SECT":" ","MAREA":" ","LANE":" ","ALLEY":" ","HOUSE_NO":"１２９號","E_COORD97":177966.89999999999,"N_COORD97":2558928.2799999998,"ADDRESS":"建國路１２９號","OBJECTID":7539},"geometry":{"x":177966.90000000224,"y":2558928.2799999993}},{"attributes":{"ID":7540,"DIS_CODE":0,"TOWNNAME":"學甲區","LI":"仁得里","LIN":"6鄰","STREET":"成功路","SECT":" ","MAREA":" ","LANE":" ","ALLEY":" ","HOUSE_NO":"２６號","E_COORD97":166178.66,"N_COORD97":2570273.4100000001,"ADDRESS":"成功路２６號","OBJECTID":7540},"geometry":{"x":166178.66000000108,"y":2570273.4100000039}},{"attributes":{"ID":7541,"DIS_CODE":0,"TOWNNAME":"柳營區","LI":"士林里","LIN":"6鄰","STREET":"士賢街","SECT":" ","MAREA":" ","LANE":" ","ALLEY":" ","HOUSE_NO":"６號","E_COORD97":179491.5,"N_COORD97":2575283.0499999998,"ADDRESS":"士賢街６號","OBJECTID":7541},"geometry":{"x":179491.50000000186,"y":2575283.0500000007}},{"attributes":{"ID":7542,"DIS_CODE":0,"TOWNNAME":"學甲區","LI":"新榮里","LIN":"6鄰","STREET":"華宗路","SECT":" ","MAREA":" ","LANE":" ","ALLEY":" ","HOUSE_NO":"１號","E_COORD97":166497.29000000001,"N_COORD97":2568794.73,"ADDRESS":"華宗路１號","OBJECTID":7542},"geometry":{"x":166497.29000000004,"y":2568794.7300000023}},{"attributes":{"ID":7543,"DIS_CODE":0,"TOWNNAME":"學甲區","LI":"新榮里","LIN":"6鄰","STREET":"華宗路","SECT":" ","MAREA":" ","LANE":" ","ALLEY":" ","HOUSE_NO":"２號之３","E_COORD97":166577.29999999999,"N_COORD97":2568774.9199999999,"ADDRESS":"華宗路２號之３","OBJECTID":7543},"geometry":{"x":166577.30000000075,"y":2568774.9200000018}},{"attributes":{"ID":7544,"DIS_CODE":0,"TOWNNAME":"中西區","LI":"元安里","LIN":"13鄰","STREET":"大德街","SECT":" ","MAREA":" ","LANE":" ","ALLEY":" ","HOUSE_NO":"２號","E_COORD97":167582.85000000001,"N_COORD97":2543411.2400000002,"ADDRESS":"大德街２號","OBJECTID":7544},"geometry":{"x":167582.84999999963,"y":2543411.2400000002}},{"attributes":{"ID":7545,"DIS_CODE":0,"TOWNNAME":"中西區","LI":"元安里","LIN":"5鄰","STREET":"大德街","SECT":" ","MAREA":" ","LANE":" ","ALLEY":" ","HOUSE_NO":"９９號","E_COORD97":167554.66,"N_COORD97":2543160.8799999999,"ADDRESS":"大德街９９號","OBJECTID":7545},"geometry":{"x":167554.66000000201,"y":2543160.8800000008}},{"attributes":{"ID":7546,"DIS_CODE":0,"TOWNNAME":"永康區","LI":"永康里","LIN":"41鄰","STREET":"永福街","SECT":" ","MAREA":" ","LANE":" ","ALLEY":" ","HOUSE_NO":"８５號","E_COORD97":174276.64000000001,"N_COORD97":2546600.7400000002,"ADDRESS":"永福街８５號","OBJECTID":7546},"geometry":{"x":174276.63999999966,"y":2546600.7400000021}},{"attributes":{"ID":7547,"DIS_CODE":0,"TOWNNAME":"中西區","LI":"元安里","LIN":"6鄰","STREET":"大德街","SECT":" ","MAREA":" ","LANE":" ","ALLEY":" ","HOUSE_NO":"９６號","E_COORD97":167521.48000000001,"N_COORD97":2543194.0299999998,"ADDRESS":"大德街９６號","OBJECTID":7547},"geometry":{"x":167521.48000000045,"y":2543194.0300000012}},{"attributes":{"ID":7548,"DIS_CODE":0,"TOWNNAME":"東區","LI":"忠孝里","LIN":"33鄰","STREET":"崇明二街","SECT":" ","MAREA":" ","LANE":" ","ALLEY":" ","HOUSE_NO":"７號","E_COORD97":169543.14999999999,"N_COORD97":2542395.71,"ADDRESS":"崇明二街７號","OBJECTID":7548},"geometry":{"x":169543.15000000037,"y":2542395.7100000009}},{"attributes":{"ID":7549,"DIS_CODE":0,"TOWNNAME":"北區","LI":"成德里","LIN":"6鄰","STREET":"育德路","SECT":" ","MAREA":" ","LANE":" ","ALLEY":" ","HOUSE_NO":"８５號","E_COORD97":168418.73000000001,"N_COORD97":2545361.2999999998,"ADDRESS":"育德路８５號","OBJECTID":7549},"geometry":{"x":168418.73000000045,"y":2545361.3000000007}},{"attributes":{"ID":7550,"DIS_CODE":0,"TOWNNAME":"新化區","LI":"太平里","LIN":"6鄰","STREET":"民生路","SECT":" ","MAREA":" ","LANE":" ","ALLEY":" ","HOUSE_NO":"２６６號","E_COORD97":178983.20999999999,"N_COORD97":2549126.25,"ADDRESS":"民生路２６６號","OBJECTID":7550},"geometry":{"x":178983.21000000089,"y":2549126.2500000019}},{"attributes":{"ID":7551,"DIS_CODE":0,"TOWNNAME":"東區","LI":"崇善里","LIN":"6鄰","STREET":"崇善六街","SECT":" ","MAREA":" ","LANE":" ","ALLEY":" ","HOUSE_NO":"３５號","E_COORD97":171108.19,"N_COORD97":2541538.1000000001,"ADDRESS":"崇善六街３５號","OBJECTID":7551},"geometry":{"x":171108.19000000134,"y":2541538.1000000034}},{"attributes":{"ID":7552,"DIS_CODE":0,"TOWNNAME":"麻豆區","LI":"巷口里","LIN":"6鄰","STREET":"建南街","SECT":" ","MAREA":" ","LANE":" ","ALLEY":" ","HOUSE_NO":"３號","E_COORD97":173043.35999999999,"N_COORD97":2564261.9399999999,"ADDRESS":"建南街３號","OBJECTID":7552},"geometry":{"x":173043.36000000034,"y":2564261.9400000013}},{"attributes":{"ID":7553,"DIS_CODE":0,"TOWNNAME":"歸仁區","LI":"許厝里","LIN":"33鄰","STREET":"公園八街","SECT":" ","MAREA":" ","LANE":" ","ALLEY":" ","HOUSE_NO":"５號","E_COORD97":177871.48000000001,"N_COORD97":2540496.8199999998,"ADDRESS":"公園八街５號","OBJECTID":7553},"geometry":{"x":177871.48000000231,"y":2540496.8200000022}},{"attributes":{"ID":7554,"DIS_CODE":0,"TOWNNAME":"仁德區","LI":"後壁里","LIN":"19鄰","STREET":"德崙路","SECT":" ","MAREA":" ","LANE":" ","ALLEY":" ","HOUSE_NO":"３號","E_COORD97":173226.73000000001,"N_COORD97":2538641.52,"ADDRESS":"德崙路３號","OBJECTID":7554},"geometry":{"x":173226.73000000138,"y":2538641.5199999996}},{"attributes":{"ID":7555,"DIS_CODE":0,"TOWNNAME":"仁德區","LI":"土庫里","LIN":"10鄰","STREET":"土庫路","SECT":" ","MAREA":" ","LANE":" ","ALLEY":" ","HOUSE_NO":"５１號","E_COORD97":174226.01999999999,"N_COORD97":2543338.75,"ADDRESS":"土庫路５１號","OBJECTID":7555},"geometry":{"x":174226.02000000048,"y":2543338.7500000019}},{"attributes":{"ID":7556,"DIS_CODE":0,"TOWNNAME":"永康區","LI":"埔園里","LIN":"5鄰","STREET":"聖龍街","SECT":" ","MAREA":" ","LANE":" ","ALLEY":" ","HOUSE_NO":"９號","E_COORD97":173807.69,"N_COORD97":2547786.25,"ADDRESS":"聖龍街９號","OBJECTID":7556},"geometry":{"x":173807.69000000041,"y":2547786.2500000019}},{"attributes":{"ID":7557,"DIS_CODE":0,"TOWNNAME":"玉井區","LI":"玉田里","LIN":"30鄰","STREET":"仁愛街","SECT":" ","MAREA":" ","LANE":" ","ALLEY":" ","HOUSE_NO":"１號","E_COORD97":195519.67999999999,"N_COORD97":2557596.2799999998,"ADDRESS":"仁愛街１號","OBJECTID":7557},"geometry":{"x":195519.68000000156,"y":2557596.2799999993}},{"attributes":{"ID":7558,"DIS_CODE":0,"TOWNNAME":"永康區","LI":"復國里","LIN":"19鄰","STREET":"國華街","SECT":" ","MAREA":" ","LANE":" ","ALLEY":" ","HOUSE_NO":"６５號","E_COORD97":172839.25,"N_COORD97":2545749.3700000001,"ADDRESS":"國華街６５號","OBJECTID":7558},"geometry":{"x":172839.25,"y":2545749.3700000029}},{"attributes":{"ID":7559,"DIS_CODE":0,"TOWNNAME":"南區","LI":"明興里","LIN":"6鄰","STREET":"永仁街","SECT":" ","MAREA":" ","LANE":" ","ALLEY":" ","HOUSE_NO":"１號","E_COORD97":167083.26000000001,"N_COORD97":2540678.4199999999,"ADDRESS":"永仁街１號","OBJECTID":7559},"geometry":{"x":167083.25999999978,"y":2540678.4200000037}},{"attributes":{"ID":7560,"DIS_CODE":0,"TOWNNAME":"下營區","LI":"新興里","LIN":"19鄰","STREET":"新興街","SECT":" ","MAREA":" ","LANE":" ","ALLEY":" ","HOUSE_NO":"１６號","E_COORD97":175079.72,"N_COORD97":2570714.4399999999,"ADDRESS":"新興街１６號","OBJECTID":7560},"geometry":{"x":175079.71999999974,"y":2570714.4400000013}},{"attributes":{"ID":7561,"DIS_CODE":0,"TOWNNAME":"佳里區","LI":"安西里","LIN":"19鄰","STREET":"忠孝路","SECT":" ","MAREA":" ","LANE":" ","ALLEY":" ","HOUSE_NO":"７５號","E_COORD97":165501.81,"N_COORD97":2562869.4700000002,"ADDRESS":"忠孝路７５號","OBJECTID":7561},"geometry":{"x":165501.81000000145,"y":2562869.4700000025}},{"attributes":{"ID":7562,"DIS_CODE":0,"TOWNNAME":"歸仁區","LI":"六甲里","LIN":"19鄰","STREET":"六甲路","SECT":" ","MAREA":" ","LANE":" ","ALLEY":" ","HOUSE_NO":"４５１號","E_COORD97":175406.07000000001,"N_COORD97":2539265.25,"ADDRESS":"六甲路４５１號","OBJECTID":7562},"geometry":{"x":175406.07000000123,"y":2539265.25}},{"attributes":{"ID":7563,"DIS_CODE":0,"TOWNNAME":"中西區","LI":"永華里","LIN":"19鄰","STREET":"中正路","SECT":" ","MAREA":" ","LANE":" ","ALLEY":" ","HOUSE_NO":"７號","E_COORD97":168347.70999999999,"N_COORD97":2543620.4199999999,"ADDRESS":"中正路７號","OBJECTID":7563},"geometry":{"x":168347.71000000089,"y":2543620.4199999999}},{"attributes":{"ID":7564,"DIS_CODE":0,"TOWNNAME":"仁德區","LI":"太子里","LIN":"44鄰","STREET":"太子路","SECT":" ","MAREA":" ","LANE":" ","ALLEY":" ","HOUSE_NO":"９１號","E_COORD97":174967.42999999999,"N_COORD97":2543526.0099999998,"ADDRESS":"太子路９１號","OBJECTID":7564},"geometry":{"x":174967.43000000063,"y":2543526.0100000016}},{"attributes":{"ID":7565,"DIS_CODE":0,"TOWNNAME":"新市區","LI":"新和里","LIN":"44鄰","STREET":"民生路","SECT":" ","MAREA":" ","LANE":" ","ALLEY":" ","HOUSE_NO":"９號","E_COORD97":177377.26999999999,"N_COORD97":2553129.79,"ADDRESS":"民生路９號","OBJECTID":7565},"geometry":{"x":177377.27000000048,"y":2553129.7899999991}},{"attributes":{"ID":7566,"DIS_CODE":0,"TOWNNAME":"新營區","LI":"大宏里","LIN":"12鄰","STREET":"綠川路","SECT":" ","MAREA":" ","LANE":" ","ALLEY":" ","HOUSE_NO":"１８號","E_COORD97":180847.91,"N_COORD97":2578820.1200000001,"ADDRESS":"綠川路１８號","OBJECTID":7566},"geometry":{"x":180847.91000000015,"y":2578820.1200000048}},{"attributes":{"ID":7567,"DIS_CODE":0,"TOWNNAME":"麻豆區","LI":"穀興里","LIN":"12鄰","STREET":"中山路","SECT":" ","MAREA":" ","LANE":" ","ALLEY":" ","HOUSE_NO":"８０號","E_COORD97":172795.01999999999,"N_COORD97":2564841.23,"ADDRESS":"中山路８０號","OBJECTID":7567},"geometry":{"x":172795.02000000048,"y":2564841.2300000023}},{"attributes":{"ID":7568,"DIS_CODE":0,"TOWNNAME":"中西區","LI":"民權里","LIN":"12鄰","STREET":"神農街","SECT":" ","MAREA":" ","LANE":" ","ALLEY":" ","HOUSE_NO":"９１號","E_COORD97":167596.82999999999,"N_COORD97":2544248.6099999999,"ADDRESS":"神農街９１號","OBJECTID":7568},"geometry":{"x":167596.83000000007,"y":2544248.6099999994}},{"attributes":{"ID":7569,"DIS_CODE":0,"TOWNNAME":"新市區","LI":"新和里","LIN":"12鄰","STREET":"可口街","SECT":" ","MAREA":" ","LANE":" ","ALLEY":" ","HOUSE_NO":"２號","E_COORD97":177569.76000000001,"N_COORD97":2552366,"ADDRESS":"可口街２號","OBJECTID":7569},"geometry":{"x":177569.75999999978,"y":2552366.0000000019}},{"attributes":{"ID":7570,"DIS_CODE":0,"TOWNNAME":"佳里區","LI":"安西里","LIN":"12鄰","STREET":"公園路","SECT":" ","MAREA":" ","LANE":" ","ALLEY":" ","HOUSE_NO":"３４２號","E_COORD97":165290.16,"N_COORD97":2562225.98,"ADDRESS":"公園路３４２號","OBJECTID":7570},"geometry":{"x":165290.16000000108,"y":2562225.9800000023}},{"attributes":{"ID":7571,"DIS_CODE":0,"TOWNNAME":"下營區","LI":"下營里","LIN":"12鄰","STREET":"中正北路","SECT":" ","MAREA":" ","LANE":" ","ALLEY":" ","HOUSE_NO":"６號","E_COORD97":174550.10000000001,"N_COORD97":2570544.6000000001,"ADDRESS":"中正北路６號","OBJECTID":7571},"geometry":{"x":174550.09999999963,"y":2570544.5999999996}},{"attributes":{"ID":7572,"DIS_CODE":0,"TOWNNAME":"永康區","LI":"埔園里","LIN":"8鄰","STREET":"中山路","SECT":" ","MAREA":" ","LANE":" ","ALLEY":" ","HOUSE_NO":"９７號","E_COORD97":173746.35999999999,"N_COORD97":2547807.1899999999,"ADDRESS":"中山路９７號","OBJECTID":7572},"geometry":{"x":173746.36000000127,"y":2547807.1900000013}},{"attributes":{"ID":7573,"DIS_CODE":0,"TOWNNAME":"永康區","LI":"埔園里","LIN":"8鄰","STREET":"中山路","SECT":" ","MAREA":" ","LANE":" ","ALLEY":" ","HOUSE_NO":"８９號","E_COORD97":173750.73999999999,"N_COORD97":2547792.25,"ADDRESS":"中山路８９號","OBJECTID":7573},"geometry":{"x":173750.74000000115,"y":2547792.25}},{"attributes":{"ID":7574,"DIS_CODE":0,"TOWNNAME":"永康區","LI":"大灣里","LIN":"12鄰","STREET":"大灣路","SECT":" ","MAREA":" ","LANE":" ","ALLEY":" ","HOUSE_NO":"２８２號","E_COORD97":174938.26999999999,"N_COORD97":2545305.3900000001,"ADDRESS":"大灣路２８２號","OBJECTID":7574},"geometry":{"x":174938.27000000048,"y":2545305.3900000025}},{"attributes":{"ID":7575,"DIS_CODE":0,"TOWNNAME":"學甲區","LI":"仁得里","LIN":"12鄰","STREET":"民權路","SECT":" ","MAREA":" ","LANE":" ","ALLEY":" ","HOUSE_NO":"７８號","E_COORD97":166005.20000000001,"N_COORD97":2570189.5800000001,"ADDRESS":"民權路７８號","OBJECTID":7575},"geometry":{"x":166005.20000000112,"y":2570189.5800000001}},{"attributes":{"ID":7576,"DIS_CODE":0,"TOWNNAME":"學甲區","LI":"慈福里","LIN":"12鄰","STREET":"綿和路","SECT":" ","MAREA":" ","LANE":" ","ALLEY":" ","HOUSE_NO":"１１號","E_COORD97":166529.70000000001,"N_COORD97":2570307.8199999998,"ADDRESS":"綿和路１１號","OBJECTID":7576},"geometry":{"x":166529.70000000019,"y":2570307.8199999984}},{"attributes":{"ID":7577,"DIS_CODE":0,"TOWNNAME":"善化區","LI":"南關里","LIN":"7鄰","STREET":"三民路","SECT":" ","MAREA":" ","LANE":" ","ALLEY":" ","HOUSE_NO":"３號","E_COORD97":177027.72,"N_COORD97":2558792.5099999998,"ADDRESS":"三民路３號","OBJECTID":7577},"geometry":{"x":177027.71999999974,"y":2558792.5100000035}},{"attributes":{"ID":7578,"DIS_CODE":0,"TOWNNAME":"中西區","LI":"元安里","LIN":"12鄰","STREET":"大勇街","SECT":" ","MAREA":" ","LANE":" ","ALLEY":" ","HOUSE_NO":"４號之２","E_COORD97":167523.75,"N_COORD97":2543346.8599999999,"ADDRESS":"大勇街４號之２","OBJECTID":7578},"geometry":{"x":167523.75000000093,"y":2543346.8600000013}},{"attributes":{"ID":7579,"DIS_CODE":0,"TOWNNAME":"善化區","LI":"光文里","LIN":"12鄰","STREET":"忠孝路","SECT":" ","MAREA":" ","LANE":" ","ALLEY":" ","HOUSE_NO":"４號","E_COORD97":178660.73999999999,"N_COORD97":2558967.4900000002,"ADDRESS":"忠孝路４號","OBJECTID":7579},"geometry":{"x":178660.74000000022,"y":2558967.4900000021}},{"attributes":{"ID":7580,"DIS_CODE":0,"TOWNNAME":"北區","LI":"大和里","LIN":"10鄰","STREET":"大港街","SECT":" ","MAREA":" ","LANE":" ","ALLEY":" ","HOUSE_NO":"２號","E_COORD97":167318.04000000001,"N_COORD97":2546135.3300000001,"ADDRESS":"大港街２號","OBJECTID":7580},"geometry":{"x":167318.0400000019,"y":2546135.3300000019}},{"attributes":{"ID":7581,"DIS_CODE":0,"TOWNNAME":"新市區","LI":"新市里","LIN":"10鄰","STREET":"中興街","SECT":" ","MAREA":" ","LANE":" ","ALLEY":" ","HOUSE_NO":"６號","E_COORD97":177796.87,"N_COORD97":2553219.75,"ADDRESS":"中興街６號","OBJECTID":7581},"geometry":{"x":177796.87000000011,"y":2553219.75}},{"attributes":{"ID":7582,"DIS_CODE":0,"TOWNNAME":"中西區","LI":"郡西里","LIN":"10鄰","STREET":"大仁街","SECT":" ","MAREA":" ","LANE":" ","ALLEY":" ","HOUSE_NO":"４３號","E_COORD97":167397.64000000001,"N_COORD97":2543423.54,"ADDRESS":"大仁街４３號","OBJECTID":7582},"geometry":{"x":167397.63999999966,"y":2543423.540000001}},{"attributes":{"ID":7583,"DIS_CODE":0,"TOWNNAME":"中西區","LI":"文賢里","LIN":"10鄰","STREET":"和真街","SECT":" ","MAREA":" ","LANE":" ","ALLEY":" ","HOUSE_NO":"７６號","E_COORD97":166883.26000000001,"N_COORD97":2544622.6800000002,"ADDRESS":"和真街７６號","OBJECTID":7583},"geometry":{"x":166883.25999999978,"y":2544622.6800000034}},{"attributes":{"ID":7584,"DIS_CODE":0,"TOWNNAME":"東區","LI":"東聖里","LIN":"10鄰","STREET":"富農街","SECT":"二段","MAREA":" ","LANE":" ","ALLEY":" ","HOUSE_NO":"３號","E_COORD97":171614.44,"N_COORD97":2542830.0899999999,"ADDRESS":"富農街二段３號","OBJECTID":7584},"geometry":{"x":171614.44000000041,"y":2542830.0900000036}},{"attributes":{"ID":7585,"DIS_CODE":0,"TOWNNAME":"新營區","LI":"新東里","LIN":"10鄰","STREET":"東昌街","SECT":" ","MAREA":" ","LANE":" ","ALLEY":" ","HOUSE_NO":"７號","E_COORD97":181309.76999999999,"N_COORD97":2579599.27,"ADDRESS":"東昌街７號","OBJECTID":7585},"geometry":{"x":181309.77000000142,"y":2579599.2699999996}},{"attributes":{"ID":7586,"DIS_CODE":0,"TOWNNAME":"佳里區","LI":"六安里","LIN":"10鄰","STREET":"延平路","SECT":" ","MAREA":" ","LANE":" ","ALLEY":" ","HOUSE_NO":"６１８號","E_COORD97":165944.79000000001,"N_COORD97":2563232.6699999999,"ADDRESS":"延平路６１８號","OBJECTID":7586},"geometry":{"x":165944.78999999911,"y":2563232.6699999981}},{"attributes":{"ID":7587,"DIS_CODE":0,"TOWNNAME":"玉井區","LI":"玉田里","LIN":"10鄰","STREET":"神農街","SECT":" ","MAREA":" ","LANE":" ","ALLEY":" ","HOUSE_NO":"８號","E_COORD97":194923.34,"N_COORD97":2557937.2799999998,"ADDRESS":"神農街８號","OBJECTID":7587},"geometry":{"x":194923.33999999985,"y":2557937.2800000012}},{"attributes":{"ID":7588,"DIS_CODE":0,"TOWNNAME":"關廟區","LI":"山西里","LIN":"10鄰","STREET":"文衡路","SECT":" ","MAREA":" ","LANE":" ","ALLEY":" ","HOUSE_NO":"２３６號","E_COORD97":180919.34,"N_COORD97":2540638.3300000001,"ADDRESS":"文衡路２３６號","OBJECTID":7588},"geometry":{"x":180919.33999999985,"y":2540638.3299999982}},{"attributes":{"ID":7589,"DIS_CODE":0,"TOWNNAME":"新營區","LI":"新東里","LIN":"10鄰","STREET":"東林街","SECT":" ","MAREA":" ","LANE":" ","ALLEY":" ","HOUSE_NO":"５號","E_COORD97":181330.87,"N_COORD97":2579783.5699999998,"ADDRESS":"東林街５號","OBJECTID":7589},"geometry":{"x":181330.87000000011,"y":2579783.5700000022}},{"attributes":{"ID":7590,"DIS_CODE":0,"TOWNNAME":"安平區","LI":"石門里","LIN":"10鄰","STREET":"安北路","SECT":" ","MAREA":" ","LANE":" ","ALLEY":" ","HOUSE_NO":"９號","E_COORD97":164664.85000000001,"N_COORD97":2544469.3700000001,"ADDRESS":"安北路９號","OBJECTID":7590},"geometry":{"x":164664.85000000056,"y":2544469.370000001}},{"attributes":{"ID":7591,"DIS_CODE":0,"TOWNNAME":"官田區","LI":"隆田里","LIN":"10鄰","STREET":"自強街","SECT":" ","MAREA":" ","LANE":" ","ALLEY":" ","HOUSE_NO":"８號","E_COORD97":180125.67000000001,"N_COORD97":2565830.02,"ADDRESS":"自強街８號","OBJECTID":7591},"geometry":{"x":180125.66999999993,"y":2565830.0199999996}},{"attributes":{"ID":7592,"DIS_CODE":0,"TOWNNAME":"仁德區","LI":"土庫里","LIN":"10鄰","STREET":"土庫路","SECT":" ","MAREA":" ","LANE":" ","ALLEY":" ","HOUSE_NO":"９７號","E_COORD97":174282.79000000001,"N_COORD97":2543186.9900000002,"ADDRESS":"土庫路９７號","OBJECTID":7592},"geometry":{"x":174282.79000000004,"y":2543186.9899999984}},{"attributes":{"ID":7593,"DIS_CODE":0,"TOWNNAME":"安平區","LI":"建平里","LIN":"21鄰","STREET":"平通路","SECT":" ","MAREA":" ","LANE":" ","ALLEY":" ","HOUSE_NO":"２６號","E_COORD97":166174.98999999999,"N_COORD97":2543669.6499999999,"ADDRESS":"平通路２６號","OBJECTID":7593},"geometry":{"x":166174.99000000115,"y":2543669.6500000004}},{"attributes":{"ID":7594,"DIS_CODE":0,"TOWNNAME":"南區","LI":"文華里","LIN":"21鄰","STREET":"文南二街","SECT":" ","MAREA":" ","LANE":" ","ALLEY":" ","HOUSE_NO":"８號","E_COORD97":166931.84,"N_COORD97":2542993.52,"ADDRESS":"文南二街８號","OBJECTID":7594},"geometry":{"x":166931.83999999985,"y":2542993.5200000014}},{"attributes":{"ID":7595,"DIS_CODE":0,"TOWNNAME":"新市區","LI":"港墘里","LIN":"21鄰","STREET":"南昌街","SECT":" ","MAREA":" ","LANE":" ","ALLEY":" ","HOUSE_NO":"９號","E_COORD97":177981.85000000001,"N_COORD97":2552771.0800000001,"ADDRESS":"南昌街９號","OBJECTID":7595},"geometry":{"x":177981.85000000056,"y":2552771.0800000038}},{"attributes":{"ID":7596,"DIS_CODE":0,"TOWNNAME":"東區","LI":"圍下里","LIN":"13鄰","STREET":"前鋒路","SECT":" ","MAREA":" ","LANE":" ","ALLEY":" ","HOUSE_NO":"８０號","E_COORD97":169352.70999999999,"N_COORD97":2543630.8399999999,"ADDRESS":"前鋒路８０號","OBJECTID":7596},"geometry":{"x":169352.71000000183,"y":2543630.8399999999}},{"attributes":{"ID":7597,"DIS_CODE":0,"TOWNNAME":"白河區","LI":"永安里","LIN":"21鄰","STREET":"西安街","SECT":" ","MAREA":" ","LANE":" ","ALLEY":" ","HOUSE_NO":"３號","E_COORD97":189906.42999999999,"N_COORD97":2582704.04,"ADDRESS":"西安街３號","OBJECTID":7597},"geometry":{"x":189906.4299999997,"y":2582704.0400000028}},{"attributes":{"ID":7598,"DIS_CODE":0,"TOWNNAME":"永康區","LI":"甲頂里","LIN":"15鄰","STREET":"正新街","SECT":" ","MAREA":" ","LANE":" ","ALLEY":" ","HOUSE_NO":"２號","E_COORD97":170451.29999999999,"N_COORD97":2546633.3599999999,"ADDRESS":"正新街２號","OBJECTID":7598},"geometry":{"x":170451.29999999981,"y":2546633.3600000013}},{"attributes":{"ID":7599,"DIS_CODE":0,"TOWNNAME":"佳里區","LI":"建南里","LIN":"21鄰","STREET":"祥和五街","SECT":" ","MAREA":" ","LANE":" ","ALLEY":" ","HOUSE_NO":"４９號","E_COORD97":165753.01000000001,"N_COORD97":2561469.3700000001,"ADDRESS":"祥和五街４９號","OBJECTID":7599},"geometry":{"x":165753.00999999978,"y":2561469.370000001}},{"attributes":{"ID":7600,"DIS_CODE":0,"TOWNNAME":"新營區","LI":"永生里","LIN":"21鄰","STREET":"延平路","SECT":" ","MAREA":" ","LANE":" ","ALLEY":" ","HOUSE_NO":"３９號","E_COORD97":179801.09,"N_COORD97":2577840.5099999998,"ADDRESS":"延平路３９號","OBJECTID":7600},"geometry":{"x":179801.09000000078,"y":2577840.5100000016}}]}