{"displayFieldName":"TOWNNAME","fieldAliases":{"ID":"ID","DIS_CODE":"DIS_CODE","TOWNNAME":"TOWNNAME","LI":"LI","LIN":"LIN","STREET":"STREET","SECT":"SECT","MAREA":"MAREA","LANE":"LANE","ALLEY":"ALLEY","HOUSE_NO":"HOUSE_NO","E_COORD97":"E_COORD97","N_COORD97":"N_COORD97","ADDRESS":"ADDRESS","OBJECTID":"OBJECTID"},"geometryType":"esriGeometryPoint","spatialReference":{"wkid":102443,"latestWkid":3826},"fields":[{"name":"ID","type":"esriFieldTypeDouble","alias":"ID"},{"name":"DIS_CODE","type":"esriFieldTypeInteger","alias":"DIS_CODE"},{"name":"TOWNNAME","type":"esriFieldTypeString","alias":"TOWNNAME","length":8},{"name":"LI","type":"esriFieldTypeString","alias":"LI","length":8},{"name":"LIN","type":"esriFieldTypeString","alias":"LIN","length":12},{"name":"STREET","type":"esriFieldTypeString","alias":"STREET","length":20},{"name":"SECT","type":"esriFieldTypeString","alias":"SECT","length":8},{"name":"MAREA","type":"esriFieldTypeString","alias":"MAREA","length":12},{"name":"LANE","type":"esriFieldTypeString","alias":"LANE","length":10},{"name":"ALLEY","type":"esriFieldTypeString","alias":"ALLEY","length":10},{"name":"HOUSE_NO","type":"esriFieldTypeString","alias":"HOUSE_NO","length":20},{"name":"E_COORD97","type":"esriFieldTypeDouble","alias":"E_COORD97"},{"name":"N_COORD97","type":"esriFieldTypeDouble","alias":"N_COORD97"},{"name":"ADDRESS","type":"esriFieldTypeString","alias":"ADDRESS","length":50},{"name":"OBJECTID","type":"esriFieldTypeOID","alias":"OBJECTID"}],"features":[{"attributes":{"ID":372011,"DIS_CODE":0,"TOWNNAME":"歸仁區","LI":"歸仁里","LIN":"10鄰","STREET":"信義北路","SECT":" ","MAREA":" ","LANE":"５７巷","ALLEY":" ","HOUSE_NO":"６號","E_COORD97":177942.41,"N_COORD97":2540941.48,"ADDRESS":"信義北路５７巷６號","OBJECTID":372001},"geometry":{"x":177942.41000000015,"y":2540941.4800000004}},{"attributes":{"ID":372012,"DIS_CODE":0,"TOWNNAME":"歸仁區","LI":"新厝里","LIN":"10鄰","STREET":"中正三街","SECT":" ","MAREA":" ","LANE":"５６巷","ALLEY":" ","HOUSE_NO":"４９號","E_COORD97":177715.70999999999,"N_COORD97":2540459.5,"ADDRESS":"中正三街５６巷４９號","OBJECTID":372002},"geometry":{"x":177715.71000000089,"y":2540459.5}},{"attributes":{"ID":372013,"DIS_CODE":0,"TOWNNAME":"歸仁區","LI":"新厝里","LIN":"10鄰","STREET":"中正三街","SECT":" ","MAREA":" ","LANE":"５６巷","ALLEY":" ","HOUSE_NO":"４８號","E_COORD97":177720.91,"N_COORD97":2540474.5,"ADDRESS":"中正三街５６巷４８號","OBJECTID":372003},"geometry":{"x":177720.91000000108,"y":2540474.5000000037}},{"attributes":{"ID":372014,"DIS_CODE":0,"TOWNNAME":"歸仁區","LI":"新厝里","LIN":"10鄰","STREET":"中正三街","SECT":" ","MAREA":" ","LANE":"５６巷","ALLEY":" ","HOUSE_NO":"５０號","E_COORD97":177715.81,"N_COORD97":2540473.5,"ADDRESS":"中正三街５６巷５０號","OBJECTID":372004},"geometry":{"x":177715.81000000145,"y":2540473.5}},{"attributes":{"ID":372015,"DIS_CODE":0,"TOWNNAME":"歸仁區","LI":"新厝里","LIN":"10鄰","STREET":"中正三街","SECT":" ","MAREA":" ","LANE":"４６巷","ALLEY":" ","HOUSE_NO":"２６號","E_COORD97":177700.38,"N_COORD97":2540511.5600000001,"ADDRESS":"中正三街４６巷２６號","OBJECTID":372005},"geometry":{"x":177700.38000000175,"y":2540511.5600000005}},{"attributes":{"ID":372016,"DIS_CODE":0,"TOWNNAME":"歸仁區","LI":"歸南里","LIN":"10鄰","STREET":"民生九街","SECT":" ","MAREA":" ","LANE":"１３３巷","ALLEY":" ","HOUSE_NO":"２４號","E_COORD97":176288.01000000001,"N_COORD97":2540054.25,"ADDRESS":"民生九街１３３巷２４號","OBJECTID":372006},"geometry":{"x":176288.01000000071,"y":2540054.25}},{"attributes":{"ID":372017,"DIS_CODE":0,"TOWNNAME":"永康區","LI":"龍潭里","LIN":"10鄰","STREET":"龍橋街","SECT":" ","MAREA":" ","LANE":"３巷","ALLEY":" ","HOUSE_NO":"１號","E_COORD97":174877.76999999999,"N_COORD97":2548287.46,"ADDRESS":"龍橋街３巷１號","OBJECTID":372007},"geometry":{"x":174877.76999999955,"y":2548287.4600000028}},{"attributes":{"ID":372018,"DIS_CODE":0,"TOWNNAME":"歸仁區","LI":"歸南里","LIN":"10鄰","STREET":"民生九街","SECT":" ","MAREA":" ","LANE":"１３３巷","ALLEY":" ","HOUSE_NO":"２７號","E_COORD97":176282.01000000001,"N_COORD97":2540083.25,"ADDRESS":"民生九街１３３巷２７號","OBJECTID":372008},"geometry":{"x":176282.00999999885,"y":2540083.2500000019}},{"attributes":{"ID":372019,"DIS_CODE":0,"TOWNNAME":"歸仁區","LI":"南保里","LIN":"10鄰","STREET":"文化十街","SECT":" ","MAREA":" ","LANE":"２８巷","ALLEY":" ","HOUSE_NO":"８號","E_COORD97":176708.73999999999,"N_COORD97":2541324.3300000001,"ADDRESS":"文化十街２８巷８號","OBJECTID":372009},"geometry":{"x":176708.74000000115,"y":2541324.3300000019}},{"attributes":{"ID":372020,"DIS_CODE":0,"TOWNNAME":"歸仁區","LI":"文化里","LIN":"10鄰","STREET":"民族北街","SECT":" ","MAREA":" ","LANE":"２３７巷","ALLEY":" ","HOUSE_NO":"９號","E_COORD97":177437.70000000001,"N_COORD97":2541475.3300000001,"ADDRESS":"民族北街２３７巷９號","OBJECTID":372010},"geometry":{"x":177437.70000000112,"y":2541475.3300000001}},{"attributes":{"ID":372021,"DIS_CODE":0,"TOWNNAME":"歸仁區","LI":"西埔里","LIN":"10鄰","STREET":"西埔一街","SECT":" ","MAREA":" ","LANE":"３００巷","ALLEY":" ","HOUSE_NO":"３２號","E_COORD97":177206.94,"N_COORD97":2544764.9500000002,"ADDRESS":"西埔一街３００巷３２號","OBJECTID":372011},"geometry":{"x":177206.94000000041,"y":2544764.9499999993}},{"attributes":{"ID":372022,"DIS_CODE":0,"TOWNNAME":"新營區","LI":"新北里","LIN":"10鄰","STREET":"長榮路","SECT":"二段","MAREA":" ","LANE":"２７１巷","ALLEY":" ","HOUSE_NO":"１６號","E_COORD97":179245.48000000001,"N_COORD97":2579749.0899999999,"ADDRESS":"長榮路二段２７１巷１６號","OBJECTID":372012},"geometry":{"x":179245.48000000045,"y":2579749.0900000017}},{"attributes":{"ID":372023,"DIS_CODE":0,"TOWNNAME":"新營區","LI":"新北里","LIN":"10鄰","STREET":"長榮路","SECT":"二段","MAREA":" ","LANE":"２７１巷","ALLEY":" ","HOUSE_NO":"２號","E_COORD97":179243.38,"N_COORD97":2579771.25,"ADDRESS":"長榮路二段２７１巷２號","OBJECTID":372013},"geometry":{"x":179243.38000000082,"y":2579771.2500000019}},{"attributes":{"ID":372024,"DIS_CODE":0,"TOWNNAME":"新營區","LI":"新北里","LIN":"10鄰","STREET":"長榮路","SECT":"二段","MAREA":" ","LANE":"２７１巷","ALLEY":" ","HOUSE_NO":"１號","E_COORD97":179258.69,"N_COORD97":2579777.8199999998,"ADDRESS":"長榮路二段２７１巷１號","OBJECTID":372014},"geometry":{"x":179258.69000000134,"y":2579777.8200000022}},{"attributes":{"ID":372025,"DIS_CODE":0,"TOWNNAME":"新營區","LI":"南紙里","LIN":"10鄰","STREET":"南紙街","SECT":" ","MAREA":" ","LANE":"５４巷","ALLEY":" ","HOUSE_NO":"２號","E_COORD97":177783.92000000001,"N_COORD97":2577681.8799999999,"ADDRESS":"南紙街５４巷２號","OBJECTID":372015},"geometry":{"x":177783.92000000086,"y":2577681.8800000008}},{"attributes":{"ID":372026,"DIS_CODE":0,"TOWNNAME":"歸仁區","LI":"歸南里","LIN":"10鄰","STREET":"民生九街","SECT":" ","MAREA":" ","LANE":"１３３巷","ALLEY":" ","HOUSE_NO":"５１號","E_COORD97":176343.89000000001,"N_COORD97":2540030.29,"ADDRESS":"民生九街１３３巷５１號","OBJECTID":372016},"geometry":{"x":176343.89000000153,"y":2540030.2899999991}},{"attributes":{"ID":372027,"DIS_CODE":0,"TOWNNAME":"北區","LI":"元寶里","LIN":"10鄰","STREET":"北園街","SECT":" ","MAREA":" ","LANE":"８巷","ALLEY":" ","HOUSE_NO":"２號","E_COORD97":170389.44,"N_COORD97":2545640.1299999999,"ADDRESS":"北園街８巷２號","OBJECTID":372017},"geometry":{"x":170389.44000000134,"y":2545640.1300000008}},{"attributes":{"ID":372028,"DIS_CODE":0,"TOWNNAME":"北區","LI":"元寶里","LIN":"10鄰","STREET":"北園街","SECT":" ","MAREA":" ","LANE":"８巷","ALLEY":" ","HOUSE_NO":"６號","E_COORD97":170395.73999999999,"N_COORD97":2545641.0299999998,"ADDRESS":"北園街８巷６號","OBJECTID":372018},"geometry":{"x":170395.74000000115,"y":2545641.0300000012}},{"attributes":{"ID":372029,"DIS_CODE":0,"TOWNNAME":"北區","LI":"裕民里","LIN":"10鄰","STREET":"成功路","SECT":" ","MAREA":" ","LANE":"６００巷","ALLEY":" ","HOUSE_NO":"１０號","E_COORD97":167537.54999999999,"N_COORD97":2544824.8399999999,"ADDRESS":"成功路６００巷１０號","OBJECTID":372019},"geometry":{"x":167537.54999999981,"y":2544824.8399999999}},{"attributes":{"ID":372030,"DIS_CODE":0,"TOWNNAME":"北區","LI":"裕民里","LIN":"10鄰","STREET":"成功路","SECT":" ","MAREA":" ","LANE":"６００巷","ALLEY":" ","HOUSE_NO":"１１號","E_COORD97":167505.39999999999,"N_COORD97":2544839.79,"ADDRESS":"成功路６００巷１１號","OBJECTID":372020},"geometry":{"x":167505.40000000037,"y":2544839.790000001}},{"attributes":{"ID":372031,"DIS_CODE":0,"TOWNNAME":"北區","LI":"裕民里","LIN":"10鄰","STREET":"成功路","SECT":" ","MAREA":" ","LANE":"６００巷","ALLEY":" ","HOUSE_NO":"１２號","E_COORD97":167541.98000000001,"N_COORD97":2544826.3199999998,"ADDRESS":"成功路６００巷１２號","OBJECTID":372021},"geometry":{"x":167541.98000000045,"y":2544826.3200000022}},{"attributes":{"ID":372032,"DIS_CODE":0,"TOWNNAME":"北區","LI":"裕民里","LIN":"10鄰","STREET":"成功路","SECT":" ","MAREA":" ","LANE":"６００巷","ALLEY":" ","HOUSE_NO":"１３號","E_COORD97":167508.35999999999,"N_COORD97":2544842,"ADDRESS":"成功路６００巷１３號","OBJECTID":372022},"geometry":{"x":167508.36000000127,"y":2544842.0000000019}},{"attributes":{"ID":372033,"DIS_CODE":0,"TOWNNAME":"北區","LI":"裕民里","LIN":"10鄰","STREET":"成功路","SECT":" ","MAREA":" ","LANE":"６００巷","ALLEY":" ","HOUSE_NO":"１４號","E_COORD97":167544.92999999999,"N_COORD97":2544829.6400000001,"ADDRESS":"成功路６００巷１４號","OBJECTID":372023},"geometry":{"x":167544.9299999997,"y":2544829.6400000006}},{"attributes":{"ID":372034,"DIS_CODE":0,"TOWNNAME":"北區","LI":"裕民里","LIN":"10鄰","STREET":"成功路","SECT":" ","MAREA":" ","LANE":"６００巷","ALLEY":" ","HOUSE_NO":"１５號","E_COORD97":167513.16,"N_COORD97":2544843.1099999999,"ADDRESS":"成功路６００巷１５號","OBJECTID":372024},"geometry":{"x":167513.16000000015,"y":2544843.1099999975}},{"attributes":{"ID":372035,"DIS_CODE":0,"TOWNNAME":"北區","LI":"裕民里","LIN":"10鄰","STREET":"成功路","SECT":" ","MAREA":" ","LANE":"６００巷","ALLEY":" ","HOUSE_NO":"１６號","E_COORD97":167549.73999999999,"N_COORD97":2544833.3300000001,"ADDRESS":"成功路６００巷１６號","OBJECTID":372025},"geometry":{"x":167549.74000000115,"y":2544833.3300000019}},{"attributes":{"ID":372036,"DIS_CODE":0,"TOWNNAME":"北區","LI":"裕民里","LIN":"10鄰","STREET":"成功路","SECT":" ","MAREA":" ","LANE":"６００巷","ALLEY":" ","HOUSE_NO":"１７號","E_COORD97":167517.23000000001,"N_COORD97":2544844.5800000001,"ADDRESS":"成功路６００巷１７號","OBJECTID":372026},"geometry":{"x":167517.23000000231,"y":2544844.5800000019}},{"attributes":{"ID":372037,"DIS_CODE":0,"TOWNNAME":"北區","LI":"裕民里","LIN":"10鄰","STREET":"成功路","SECT":" ","MAREA":" ","LANE":"６００巷","ALLEY":" ","HOUSE_NO":"１８號","E_COORD97":167552.32000000001,"N_COORD97":2544834.4399999999,"ADDRESS":"成功路６００巷１８號","OBJECTID":372027},"geometry":{"x":167552.32000000123,"y":2544834.4400000032}},{"attributes":{"ID":372038,"DIS_CODE":0,"TOWNNAME":"北區","LI":"裕民里","LIN":"10鄰","STREET":"成功路","SECT":" ","MAREA":" ","LANE":"６００巷","ALLEY":" ","HOUSE_NO":"１９號","E_COORD97":167521.66,"N_COORD97":2544844.21,"ADDRESS":"成功路６００巷１９號","OBJECTID":372028},"geometry":{"x":167521.66000000015,"y":2544844.2100000046}},{"attributes":{"ID":372039,"DIS_CODE":0,"TOWNNAME":"北區","LI":"裕民里","LIN":"10鄰","STREET":"成功路","SECT":" ","MAREA":" ","LANE":"６００巷","ALLEY":" ","HOUSE_NO":"１號","E_COORD97":167477.69,"N_COORD97":2544830.5600000001,"ADDRESS":"成功路６００巷１號","OBJECTID":372029},"geometry":{"x":167477.69000000041,"y":2544830.5600000005}},{"attributes":{"ID":372040,"DIS_CODE":0,"TOWNNAME":"北區","LI":"裕民里","LIN":"10鄰","STREET":"成功路","SECT":" ","MAREA":" ","LANE":"６００巷","ALLEY":" ","HOUSE_NO":"２０號","E_COORD97":167563.04000000001,"N_COORD97":2544829.27,"ADDRESS":"成功路６００巷２０號","OBJECTID":372030},"geometry":{"x":167563.04000000004,"y":2544829.2700000014}},{"attributes":{"ID":372041,"DIS_CODE":0,"TOWNNAME":"北區","LI":"裕民里","LIN":"10鄰","STREET":"成功路","SECT":" ","MAREA":" ","LANE":"６００巷","ALLEY":" ","HOUSE_NO":"２１號","E_COORD97":167527.20000000001,"N_COORD97":2544847.54,"ADDRESS":"成功路６００巷２１號","OBJECTID":372031},"geometry":{"x":167527.19999999925,"y":2544847.540000001}},{"attributes":{"ID":372042,"DIS_CODE":0,"TOWNNAME":"北區","LI":"裕民里","LIN":"10鄰","STREET":"成功路","SECT":" ","MAREA":" ","LANE":"６００巷","ALLEY":" ","HOUSE_NO":"３號","E_COORD97":167483.97,"N_COORD97":2544831.6699999999,"ADDRESS":"成功路６００巷３號","OBJECTID":372032},"geometry":{"x":167483.96999999974,"y":2544831.6699999999}},{"attributes":{"ID":372043,"DIS_CODE":0,"TOWNNAME":"北區","LI":"裕民里","LIN":"10鄰","STREET":"成功路","SECT":" ","MAREA":" ","LANE":"６００巷","ALLEY":" ","HOUSE_NO":"２２號","E_COORD97":167570.42999999999,"N_COORD97":2544831.1200000001,"ADDRESS":"成功路６００巷２２號","OBJECTID":372033},"geometry":{"x":167570.4299999997,"y":2544831.120000001}},{"attributes":{"ID":372044,"DIS_CODE":0,"TOWNNAME":"北區","LI":"裕民里","LIN":"10鄰","STREET":"成功路","SECT":" ","MAREA":" ","LANE":"６００巷","ALLEY":" ","HOUSE_NO":"２５號","E_COORD97":167533.10999999999,"N_COORD97":2544849.3799999999,"ADDRESS":"成功路６００巷２５號","OBJECTID":372034},"geometry":{"x":167533.1100000022,"y":2544849.3800000008}},{"attributes":{"ID":372045,"DIS_CODE":0,"TOWNNAME":"北區","LI":"裕民里","LIN":"10鄰","STREET":"成功路","SECT":" ","MAREA":" ","LANE":"６００巷","ALLEY":" ","HOUSE_NO":"２７號","E_COORD97":167537.54999999999,"N_COORD97":2544851.5899999999,"ADDRESS":"成功路６００巷２７號","OBJECTID":372035},"geometry":{"x":167537.54999999981,"y":2544851.5900000017}},{"attributes":{"ID":372046,"DIS_CODE":0,"TOWNNAME":"北區","LI":"裕民里","LIN":"10鄰","STREET":"成功路","SECT":" ","MAREA":" ","LANE":"６００巷","ALLEY":" ","HOUSE_NO":"２９號","E_COORD97":167543.82999999999,"N_COORD97":2544851.96,"ADDRESS":"成功路６００巷２９號","OBJECTID":372036},"geometry":{"x":167543.83000000101,"y":2544851.9600000009}},{"attributes":{"ID":372047,"DIS_CODE":0,"TOWNNAME":"北區","LI":"裕民里","LIN":"10鄰","STREET":"成功路","SECT":" ","MAREA":" ","LANE":"６００巷","ALLEY":" ","HOUSE_NO":"２號","E_COORD97":167507.62,"N_COORD97":2544815.6200000001,"ADDRESS":"成功路６００巷２號","OBJECTID":372037},"geometry":{"x":167507.62000000104,"y":2544815.6200000029}},{"attributes":{"ID":372048,"DIS_CODE":0,"TOWNNAME":"北區","LI":"裕民里","LIN":"10鄰","STREET":"成功路","SECT":" ","MAREA":" ","LANE":"６００巷","ALLEY":" ","HOUSE_NO":"３１號","E_COORD97":167547.51999999999,"N_COORD97":2544853.8100000001,"ADDRESS":"成功路６００巷３１號","OBJECTID":372038},"geometry":{"x":167547.51999999955,"y":2544853.8100000024}},{"attributes":{"ID":372049,"DIS_CODE":0,"TOWNNAME":"北區","LI":"裕民里","LIN":"10鄰","STREET":"成功路","SECT":" ","MAREA":" ","LANE":"６００巷","ALLEY":" ","HOUSE_NO":"３３號","E_COORD97":167552.69,"N_COORD97":2544856.02,"ADDRESS":"成功路６００巷３３號","OBJECTID":372039},"geometry":{"x":167552.69000000041,"y":2544856.0199999996}},{"attributes":{"ID":372050,"DIS_CODE":0,"TOWNNAME":"北區","LI":"裕民里","LIN":"10鄰","STREET":"成功路","SECT":" ","MAREA":" ","LANE":"６００巷","ALLEY":" ","HOUSE_NO":"３５號","E_COORD97":167556.76000000001,"N_COORD97":2544858.2400000002,"ADDRESS":"成功路６００巷３５號","OBJECTID":372040},"geometry":{"x":167556.75999999978,"y":2544858.2400000021}},{"attributes":{"ID":372051,"DIS_CODE":0,"TOWNNAME":"北區","LI":"裕民里","LIN":"10鄰","STREET":"成功路","SECT":" ","MAREA":" ","LANE":"６００巷","ALLEY":" ","HOUSE_NO":"３６號","E_COORD97":167620.79999999999,"N_COORD97":2544858.04,"ADDRESS":"成功路６００巷３６號","OBJECTID":372041},"geometry":{"x":167620.79999999981,"y":2544858.040000001}},{"attributes":{"ID":372052,"DIS_CODE":0,"TOWNNAME":"北區","LI":"裕民里","LIN":"10鄰","STREET":"成功路","SECT":" ","MAREA":" ","LANE":"６００巷","ALLEY":" ","HOUSE_NO":"３７號","E_COORD97":167561.19,"N_COORD97":2544860.0800000001,"ADDRESS":"成功路６００巷３７號","OBJECTID":372042},"geometry":{"x":167561.19000000041,"y":2544860.0800000001}},{"attributes":{"ID":372053,"DIS_CODE":0,"TOWNNAME":"北區","LI":"裕民里","LIN":"10鄰","STREET":"成功路","SECT":" ","MAREA":" ","LANE":"６００巷","ALLEY":" ","HOUSE_NO":"４２號","E_COORD97":167634.20000000001,"N_COORD97":2544859.25,"ADDRESS":"成功路６００巷４２號","OBJECTID":372043},"geometry":{"x":167634.20000000205,"y":2544859.25}},{"attributes":{"ID":372054,"DIS_CODE":0,"TOWNNAME":"北區","LI":"裕民里","LIN":"10鄰","STREET":"成功路","SECT":" ","MAREA":" ","LANE":"６００巷","ALLEY":" ","HOUSE_NO":"４號","E_COORD97":167516.12,"N_COORD97":2544818.5699999998,"ADDRESS":"成功路６００巷４號","OBJECTID":372044},"geometry":{"x":167516.12000000104,"y":2544818.5700000022}},{"attributes":{"ID":372055,"DIS_CODE":0,"TOWNNAME":"北區","LI":"裕民里","LIN":"10鄰","STREET":"成功路","SECT":" ","MAREA":" ","LANE":"６００巷","ALLEY":" ","HOUSE_NO":"５號","E_COORD97":167490.26000000001,"N_COORD97":2544832.4100000001,"ADDRESS":"成功路６００巷５號","OBJECTID":372045},"geometry":{"x":167490.25999999978,"y":2544832.410000002}},{"attributes":{"ID":372056,"DIS_CODE":0,"TOWNNAME":"北區","LI":"裕民里","LIN":"10鄰","STREET":"成功路","SECT":" ","MAREA":" ","LANE":"６００巷","ALLEY":" ","HOUSE_NO":"６號","E_COORD97":167522.03,"N_COORD97":2544818.2000000002,"ADDRESS":"成功路６００巷６號","OBJECTID":372046},"geometry":{"x":167522.03000000119,"y":2544818.1999999993}},{"attributes":{"ID":372057,"DIS_CODE":0,"TOWNNAME":"北區","LI":"裕民里","LIN":"10鄰","STREET":"成功路","SECT":" ","MAREA":" ","LANE":"６００巷","ALLEY":" ","HOUSE_NO":"７號","E_COORD97":167497.28,"N_COORD97":2544835.3599999999,"ADDRESS":"成功路６００巷７號","OBJECTID":372047},"geometry":{"x":167497.28000000026,"y":2544835.3600000013}},{"attributes":{"ID":372058,"DIS_CODE":0,"TOWNNAME":"北區","LI":"裕民里","LIN":"10鄰","STREET":"成功路","SECT":" ","MAREA":" ","LANE":"６００巷","ALLEY":" ","HOUSE_NO":"８號","E_COORD97":167533.48000000001,"N_COORD97":2544823,"ADDRESS":"成功路６００巷８號","OBJECTID":372048},"geometry":{"x":167533.48000000045,"y":2544823}},{"attributes":{"ID":372059,"DIS_CODE":0,"TOWNNAME":"南區","LI":"府南里","LIN":"10鄰","STREET":"永成路","SECT":"三段","MAREA":" ","LANE":"３５７巷","ALLEY":" ","HOUSE_NO":"１５號","E_COORD97":167417.54000000001,"N_COORD97":2541247.2400000002,"ADDRESS":"永成路三段３５７巷１５號","OBJECTID":372049},"geometry":{"x":167417.54000000004,"y":2541247.2400000021}},{"attributes":{"ID":372060,"DIS_CODE":0,"TOWNNAME":"南區","LI":"府南里","LIN":"10鄰","STREET":"永成路","SECT":"三段","MAREA":" ","LANE":"３５７巷","ALLEY":" ","HOUSE_NO":"１７號","E_COORD97":167415.89999999999,"N_COORD97":2541251.6800000002,"ADDRESS":"永成路三段３５７巷１７號","OBJECTID":372050},"geometry":{"x":167415.90000000224,"y":2541251.6799999997}},{"attributes":{"ID":372061,"DIS_CODE":0,"TOWNNAME":"南區","LI":"府南里","LIN":"10鄰","STREET":"永成路","SECT":"三段","MAREA":" ","LANE":"３５７巷","ALLEY":" ","HOUSE_NO":"１９號","E_COORD97":167414.76999999999,"N_COORD97":2541255.75,"ADDRESS":"永成路三段３５７巷１９號","OBJECTID":372051},"geometry":{"x":167414.77000000048,"y":2541255.7499999981}},{"attributes":{"ID":372062,"DIS_CODE":0,"TOWNNAME":"南區","LI":"府南里","LIN":"10鄰","STREET":"永成路","SECT":"三段","MAREA":" ","LANE":"３５７巷","ALLEY":" ","HOUSE_NO":"２１號","E_COORD97":167412,"N_COORD97":2541260.5899999999,"ADDRESS":"永成路三段３５７巷２１號","OBJECTID":372052},"geometry":{"x":167412.00000000093,"y":2541260.5900000036}},{"attributes":{"ID":372063,"DIS_CODE":0,"TOWNNAME":"南區","LI":"府南里","LIN":"10鄰","STREET":"永成路","SECT":"三段","MAREA":" ","LANE":"３５７巷","ALLEY":" ","HOUSE_NO":"２３號","E_COORD97":167410.79000000001,"N_COORD97":2541265.4399999999,"ADDRESS":"永成路三段３５７巷２３號","OBJECTID":372053},"geometry":{"x":167410.79000000004,"y":2541265.4400000013}},{"attributes":{"ID":372064,"DIS_CODE":0,"TOWNNAME":"南區","LI":"府南里","LIN":"10鄰","STREET":"永成路","SECT":"三段","MAREA":" ","LANE":"３５７巷","ALLEY":" ","HOUSE_NO":"２號","E_COORD97":167469.63,"N_COORD97":2541283.3500000001,"ADDRESS":"永成路三段３５７巷２號","OBJECTID":372054},"geometry":{"x":167469.62999999989,"y":2541283.3500000015}},{"attributes":{"ID":372065,"DIS_CODE":0,"TOWNNAME":"南區","LI":"興農里","LIN":"10鄰","STREET":"灣裡路","SECT":" ","MAREA":" ","LANE":"２６３巷","ALLEY":" ","HOUSE_NO":"６０號","E_COORD97":166429.32000000001,"N_COORD97":2536315.8799999999,"ADDRESS":"灣裡路２６３巷６０號","OBJECTID":372055},"geometry":{"x":166429.3200000003,"y":2536315.8800000008}},{"attributes":{"ID":372066,"DIS_CODE":0,"TOWNNAME":"西港區","LI":"慶安里","LIN":"13鄰","STREET":"進學街","SECT":" ","MAREA":" ","LANE":"６１巷","ALLEY":" ","HOUSE_NO":"１１號","E_COORD97":168112.35000000001,"N_COORD97":2558013.1400000001,"ADDRESS":"進學街６１巷１１號","OBJECTID":372056},"geometry":{"x":168112.35000000149,"y":2558013.1400000025}},{"attributes":{"ID":372067,"DIS_CODE":0,"TOWNNAME":"西港區","LI":"慶安里","LIN":"13鄰","STREET":"進學街","SECT":" ","MAREA":" ","LANE":"６１巷","ALLEY":" ","HOUSE_NO":"１３號","E_COORD97":168111.98999999999,"N_COORD97":2558009.1899999999,"ADDRESS":"進學街６１巷１３號","OBJECTID":372057},"geometry":{"x":168111.99000000209,"y":2558009.1900000013}},{"attributes":{"ID":372068,"DIS_CODE":0,"TOWNNAME":"西港區","LI":"慶安里","LIN":"13鄰","STREET":"進學街","SECT":" ","MAREA":" ","LANE":"６１巷","ALLEY":" ","HOUSE_NO":"１５號","E_COORD97":168111.5,"N_COORD97":2558005.27,"ADDRESS":"進學街６１巷１５號","OBJECTID":372058},"geometry":{"x":168111.49999999907,"y":2558005.2700000014}},{"attributes":{"ID":372069,"DIS_CODE":0,"TOWNNAME":"西港區","LI":"慶安里","LIN":"13鄰","STREET":"進學街","SECT":" ","MAREA":" ","LANE":"６１巷","ALLEY":" ","HOUSE_NO":"１７號","E_COORD97":168137.60000000001,"N_COORD97":2558017,"ADDRESS":"進學街６１巷１７號","OBJECTID":372059},"geometry":{"x":168137.60000000149,"y":2558017.0000000019}},{"attributes":{"ID":372070,"DIS_CODE":0,"TOWNNAME":"西港區","LI":"慶安里","LIN":"13鄰","STREET":"進學街","SECT":" ","MAREA":" ","LANE":"６１巷","ALLEY":" ","HOUSE_NO":"１９號","E_COORD97":168136.95000000001,"N_COORD97":2558013.1499999999,"ADDRESS":"進學街６１巷１９號","OBJECTID":372060},"geometry":{"x":168136.95000000019,"y":2558013.1500000022}},{"attributes":{"ID":372071,"DIS_CODE":0,"TOWNNAME":"西港區","LI":"慶安里","LIN":"13鄰","STREET":"進學街","SECT":" ","MAREA":" ","LANE":"６１巷","ALLEY":" ","HOUSE_NO":"１號","E_COORD97":168116.57000000001,"N_COORD97":2558035.5699999998,"ADDRESS":"進學街６１巷１號","OBJECTID":372061},"geometry":{"x":168116.57000000216,"y":2558035.5700000003}},{"attributes":{"ID":372072,"DIS_CODE":0,"TOWNNAME":"西港區","LI":"慶安里","LIN":"13鄰","STREET":"進學街","SECT":" ","MAREA":" ","LANE":"６１巷","ALLEY":" ","HOUSE_NO":"２１號","E_COORD97":168136.82999999999,"N_COORD97":2558009.0099999998,"ADDRESS":"進學街６１巷２１號","OBJECTID":372062},"geometry":{"x":168136.83000000101,"y":2558009.0099999979}},{"attributes":{"ID":372073,"DIS_CODE":0,"TOWNNAME":"西港區","LI":"慶安里","LIN":"13鄰","STREET":"進學街","SECT":" ","MAREA":" ","LANE":"６１巷","ALLEY":" ","HOUSE_NO":"２３號","E_COORD97":168137.09,"N_COORD97":2558005.3900000001,"ADDRESS":"進學街６１巷２３號","OBJECTID":372063},"geometry":{"x":168137.09000000078,"y":2558005.3900000025}},{"attributes":{"ID":372074,"DIS_CODE":0,"TOWNNAME":"西港區","LI":"慶安里","LIN":"13鄰","STREET":"進學街","SECT":" ","MAREA":" ","LANE":"６１巷","ALLEY":" ","HOUSE_NO":"２５號","E_COORD97":168113.73000000001,"N_COORD97":2557998.9399999999,"ADDRESS":"進學街６１巷２５號","OBJECTID":372064},"geometry":{"x":168113.73000000045,"y":2557998.9399999995}},{"attributes":{"ID":372075,"DIS_CODE":0,"TOWNNAME":"西港區","LI":"慶安里","LIN":"13鄰","STREET":"進學街","SECT":" ","MAREA":" ","LANE":"６１巷","ALLEY":" ","HOUSE_NO":"２７號","E_COORD97":168116.66,"N_COORD97":2557982.8199999998,"ADDRESS":"進學街６１巷２７號","OBJECTID":372065},"geometry":{"x":168116.66000000015,"y":2557982.8200000003}},{"attributes":{"ID":372076,"DIS_CODE":0,"TOWNNAME":"南區","LI":"竹溪里","LIN":"10鄰","STREET":"體育路","SECT":" ","MAREA":" ","LANE":"４３巷","ALLEY":" ","HOUSE_NO":"３８號","E_COORD97":168787.73000000001,"N_COORD97":2542187.1099999999,"ADDRESS":"體育路４３巷３８號","OBJECTID":372066},"geometry":{"x":168787.73000000138,"y":2542187.1099999994}},{"attributes":{"ID":372077,"DIS_CODE":0,"TOWNNAME":"南區","LI":"竹溪里","LIN":"10鄰","STREET":"體育路","SECT":" ","MAREA":" ","LANE":"４３巷","ALLEY":" ","HOUSE_NO":"４０號","E_COORD97":168779.75,"N_COORD97":2542187.1099999999,"ADDRESS":"體育路４３巷４０號","OBJECTID":372067},"geometry":{"x":168779.75000000093,"y":2542187.1099999994}},{"attributes":{"ID":372078,"DIS_CODE":0,"TOWNNAME":"南區","LI":"竹溪里","LIN":"10鄰","STREET":"體育路","SECT":" ","MAREA":" ","LANE":"４３巷","ALLEY":" ","HOUSE_NO":"４２號","E_COORD97":168777.32000000001,"N_COORD97":2542186.77,"ADDRESS":"體育路４３巷４２號","OBJECTID":372068},"geometry":{"x":168777.3200000003,"y":2542186.7699999996}},{"attributes":{"ID":372079,"DIS_CODE":0,"TOWNNAME":"安平區","LI":"平通里","LIN":"10鄰","STREET":"育平九街","SECT":" ","MAREA":" ","LANE":"２４６巷","ALLEY":" ","HOUSE_NO":"２０號","E_COORD97":164919.48000000001,"N_COORD97":2544070.6600000001,"ADDRESS":"育平九街２４６巷２０號","OBJECTID":372069},"geometry":{"x":164919.48000000045,"y":2544070.6600000039}},{"attributes":{"ID":372080,"DIS_CODE":0,"TOWNNAME":"安平區","LI":"怡平里","LIN":"10鄰","STREET":"建平十二街","SECT":" ","MAREA":" ","LANE":"１４８巷","ALLEY":" ","HOUSE_NO":"２３號","E_COORD97":165780.37,"N_COORD97":2544080.1899999999,"ADDRESS":"建平十二街１４８巷２３號","OBJECTID":372070},"geometry":{"x":165780.37000000104,"y":2544080.1900000032}},{"attributes":{"ID":372081,"DIS_CODE":0,"TOWNNAME":"安平區","LI":"怡平里","LIN":"10鄰","STREET":"建平十二街","SECT":" ","MAREA":" ","LANE":"１４８巷","ALLEY":" ","HOUSE_NO":"２５號","E_COORD97":165780.89999999999,"N_COORD97":2544086.29,"ADDRESS":"建平十二街１４８巷２５號","OBJECTID":372071},"geometry":{"x":165780.9000000013,"y":2544086.290000001}},{"attributes":{"ID":372082,"DIS_CODE":0,"TOWNNAME":"安平區","LI":"怡平里","LIN":"10鄰","STREET":"建平十二街","SECT":" ","MAREA":" ","LANE":"１４８巷","ALLEY":" ","HOUSE_NO":"１８號","E_COORD97":165797.35999999999,"N_COORD97":2544091.8599999999,"ADDRESS":"建平十二街１４８巷１８號","OBJECTID":372072},"geometry":{"x":165797.3600000022,"y":2544091.8599999994}},{"attributes":{"ID":372083,"DIS_CODE":0,"TOWNNAME":"安平區","LI":"怡平里","LIN":"10鄰","STREET":"建平十二街","SECT":" ","MAREA":" ","LANE":"１４８巷","ALLEY":" ","HOUSE_NO":"２０號","E_COORD97":165799.54000000001,"N_COORD97":2544105.7599999998,"ADDRESS":"建平十二街１４８巷２０號","OBJECTID":372073},"geometry":{"x":165799.54000000097,"y":2544105.7599999998}},{"attributes":{"ID":372084,"DIS_CODE":0,"TOWNNAME":"南區","LI":"大忠里","LIN":"10鄰","STREET":"中華南路","SECT":"一段","MAREA":" ","LANE":"９７巷","ALLEY":" ","HOUSE_NO":"２９號","E_COORD97":169268.10000000001,"N_COORD97":2541245.21,"ADDRESS":"中華南路一段９７巷２９號","OBJECTID":372074},"geometry":{"x":169268.09999999963,"y":2541245.2100000028}},{"attributes":{"ID":372085,"DIS_CODE":0,"TOWNNAME":"南區","LI":"大忠里","LIN":"10鄰","STREET":"中華南路","SECT":"一段","MAREA":" ","LANE":"９７巷","ALLEY":" ","HOUSE_NO":"３４號","E_COORD97":169250.16,"N_COORD97":2541203.1299999999,"ADDRESS":"中華南路一段９７巷３４號","OBJECTID":372075},"geometry":{"x":169250.16000000108,"y":2541203.1300000008}},{"attributes":{"ID":372086,"DIS_CODE":0,"TOWNNAME":"南區","LI":"大忠里","LIN":"10鄰","STREET":"中華南路","SECT":"一段","MAREA":" ","LANE":"９７巷","ALLEY":" ","HOUSE_NO":"３６號","E_COORD97":169250.63,"N_COORD97":2541198.8999999999,"ADDRESS":"中華南路一段９７巷３６號","OBJECTID":372076},"geometry":{"x":169250.62999999989,"y":2541198.9000000022}},{"attributes":{"ID":372087,"DIS_CODE":0,"TOWNNAME":"南區","LI":"大忠里","LIN":"10鄰","STREET":"中華南路","SECT":"一段","MAREA":" ","LANE":"９７巷","ALLEY":" ","HOUSE_NO":"３８號","E_COORD97":169251.10000000001,"N_COORD97":2541195.1499999999,"ADDRESS":"中華南路一段９７巷３８號","OBJECTID":372077},"geometry":{"x":169251.09999999963,"y":2541195.1500000004}},{"attributes":{"ID":372088,"DIS_CODE":0,"TOWNNAME":"南區","LI":"大忠里","LIN":"10鄰","STREET":"中華南路","SECT":"一段","MAREA":" ","LANE":"９７巷","ALLEY":" ","HOUSE_NO":"４０號","E_COORD97":169251.79999999999,"N_COORD97":2541189.0499999998,"ADDRESS":"中華南路一段９７巷４０號","OBJECTID":372078},"geometry":{"x":169251.79999999888,"y":2541189.0500000007}},{"attributes":{"ID":372089,"DIS_CODE":0,"TOWNNAME":"歸仁區","LI":"崙頂里","LIN":"10鄰","STREET":"成功路","SECT":"二段","MAREA":" ","LANE":"８８巷","ALLEY":" ","HOUSE_NO":"１７號","E_COORD97":178029.94,"N_COORD97":2539807.25,"ADDRESS":"成功路二段８８巷１７號","OBJECTID":372079},"geometry":{"x":178029.94000000134,"y":2539807.25}},{"attributes":{"ID":372090,"DIS_CODE":0,"TOWNNAME":"歸仁區","LI":"許厝里","LIN":"10鄰","STREET":"公園路","SECT":" ","MAREA":" ","LANE":"３９巷","ALLEY":" ","HOUSE_NO":"２４號","E_COORD97":178169.92000000001,"N_COORD97":2540487.1000000001,"ADDRESS":"公園路３９巷２４號","OBJECTID":372080},"geometry":{"x":178169.92000000086,"y":2540487.1000000034}},{"attributes":{"ID":372091,"DIS_CODE":0,"TOWNNAME":"楠西區","LI":"楠西里","LIN":"10鄰","STREET":"中華路","SECT":" ","MAREA":" ","LANE":"７３巷","ALLEY":" ","HOUSE_NO":"１５號之１","E_COORD97":197247.60000000001,"N_COORD97":2564125.2999999998,"ADDRESS":"中華路７３巷１５號之１","OBJECTID":372081},"geometry":{"x":197247.60000000056,"y":2564125.3000000026}},{"attributes":{"ID":372092,"DIS_CODE":0,"TOWNNAME":"新化區","LI":"豐榮里","LIN":"10鄰","STREET":"信義路","SECT":" ","MAREA":" ","LANE":"４８４巷","ALLEY":" ","HOUSE_NO":"６號","E_COORD97":178445.92999999999,"N_COORD97":2548303.25,"ADDRESS":"信義路４８４巷６號","OBJECTID":372082},"geometry":{"x":178445.93000000063,"y":2548303.25}},{"attributes":{"ID":372093,"DIS_CODE":0,"TOWNNAME":"新化區","LI":"協興里","LIN":"10鄰","STREET":"正新路","SECT":" ","MAREA":" ","LANE":"３４１巷","ALLEY":" ","HOUSE_NO":"５６號","E_COORD97":178428.26999999999,"N_COORD97":2548814.25,"ADDRESS":"正新路３４１巷５６號","OBJECTID":372083},"geometry":{"x":178428.27000000048,"y":2548814.2500000019}},{"attributes":{"ID":372094,"DIS_CODE":0,"TOWNNAME":"新化區","LI":"護國里","LIN":"10鄰","STREET":"民生路","SECT":" ","MAREA":" ","LANE":"１８６巷","ALLEY":" ","HOUSE_NO":"８１號","E_COORD97":179227.16,"N_COORD97":2549223.25,"ADDRESS":"民生路１８６巷８１號","OBJECTID":372084},"geometry":{"x":179227.16000000015,"y":2549223.2499999981}},{"attributes":{"ID":372095,"DIS_CODE":0,"TOWNNAME":"新化區","LI":"豐榮里","LIN":"10鄰","STREET":"信義路","SECT":" ","MAREA":" ","LANE":"４８４巷","ALLEY":" ","HOUSE_NO":"１７號","E_COORD97":178392.48000000001,"N_COORD97":2548333.25,"ADDRESS":"信義路４８４巷１７號","OBJECTID":372085},"geometry":{"x":178392.48000000138,"y":2548333.2500000019}},{"attributes":{"ID":372096,"DIS_CODE":0,"TOWNNAME":"新化區","LI":"協興里","LIN":"10鄰","STREET":"正新路","SECT":" ","MAREA":" ","LANE":"３４１巷","ALLEY":" ","HOUSE_NO":"１７號","E_COORD97":178451.76999999999,"N_COORD97":2548806.25,"ADDRESS":"正新路３４１巷１７號","OBJECTID":372086},"geometry":{"x":178451.77000000142,"y":2548806.2500000037}},{"attributes":{"ID":372097,"DIS_CODE":0,"TOWNNAME":"新化區","LI":"協興里","LIN":"10鄰","STREET":"正新路","SECT":" ","MAREA":" ","LANE":"３４１巷","ALLEY":" ","HOUSE_NO":"２７號","E_COORD97":178429.67000000001,"N_COORD97":2548796.25,"ADDRESS":"正新路３４１巷２７號","OBJECTID":372087},"geometry":{"x":178429.67000000086,"y":2548796.2500000037}},{"attributes":{"ID":372098,"DIS_CODE":0,"TOWNNAME":"新化區","LI":"協興里","LIN":"10鄰","STREET":"正新路","SECT":" ","MAREA":" ","LANE":"３４１巷","ALLEY":" ","HOUSE_NO":"４８號","E_COORD97":178440.57000000001,"N_COORD97":2548817.25,"ADDRESS":"正新路３４１巷４８號","OBJECTID":372088},"geometry":{"x":178440.57000000123,"y":2548817.2500000019}},{"attributes":{"ID":372099,"DIS_CODE":0,"TOWNNAME":"新化區","LI":"豐榮里","LIN":"10鄰","STREET":"信義路","SECT":" ","MAREA":" ","LANE":"４８４巷","ALLEY":" ","HOUSE_NO":"３２號","E_COORD97":178390.78,"N_COORD97":2548358.25,"ADDRESS":"信義路４８４巷３２號","OBJECTID":372089},"geometry":{"x":178390.78000000026,"y":2548358.25}},{"attributes":{"ID":372100,"DIS_CODE":0,"TOWNNAME":"新化區","LI":"協興里","LIN":"10鄰","STREET":"正新路","SECT":" ","MAREA":" ","LANE":"３４１巷","ALLEY":" ","HOUSE_NO":"６８號","E_COORD97":178398.26999999999,"N_COORD97":2548807.25,"ADDRESS":"正新路３４１巷６８號","OBJECTID":372090},"geometry":{"x":178398.26999999955,"y":2548807.2500000019}},{"attributes":{"ID":372101,"DIS_CODE":0,"TOWNNAME":"新化區","LI":"豐榮里","LIN":"10鄰","STREET":"信義路","SECT":" ","MAREA":" ","LANE":"４８４巷","ALLEY":" ","HOUSE_NO":"１８號","E_COORD97":178427.78,"N_COORD97":2548321.25,"ADDRESS":"信義路４８４巷１８號","OBJECTID":372091},"geometry":{"x":178427.78000000026,"y":2548321.25}},{"attributes":{"ID":372102,"DIS_CODE":0,"TOWNNAME":"新化區","LI":"協興里","LIN":"10鄰","STREET":"正新路","SECT":" ","MAREA":" ","LANE":"３６３巷","ALLEY":" ","HOUSE_NO":"２２號","E_COORD97":178470.57000000001,"N_COORD97":2548902.25,"ADDRESS":"正新路３６３巷２２號","OBJECTID":372092},"geometry":{"x":178470.5700000003,"y":2548902.2500000019}},{"attributes":{"ID":372103,"DIS_CODE":0,"TOWNNAME":"新化區","LI":"協興里","LIN":"10鄰","STREET":"正新路","SECT":" ","MAREA":" ","LANE":"３６３巷","ALLEY":" ","HOUSE_NO":"４２號","E_COORD97":178429.26999999999,"N_COORD97":2548894.25,"ADDRESS":"正新路３６３巷４２號","OBJECTID":372093},"geometry":{"x":178429.26999999955,"y":2548894.25}},{"attributes":{"ID":372104,"DIS_CODE":0,"TOWNNAME":"新化區","LI":"協興里","LIN":"10鄰","STREET":"正新路","SECT":" ","MAREA":" ","LANE":"３６３巷","ALLEY":" ","HOUSE_NO":"３５號","E_COORD97":178445.87,"N_COORD97":2548861.25,"ADDRESS":"正新路３６３巷３５號","OBJECTID":372094},"geometry":{"x":178445.87000000011,"y":2548861.2500000019}},{"attributes":{"ID":372105,"DIS_CODE":0,"TOWNNAME":"新化區","LI":"協興里","LIN":"10鄰","STREET":"正新路","SECT":" ","MAREA":" ","LANE":"３４１巷","ALLEY":" ","HOUSE_NO":"７２號","E_COORD97":178389.87,"N_COORD97":2548807.25,"ADDRESS":"正新路３４１巷７２號","OBJECTID":372095},"geometry":{"x":178389.87000000011,"y":2548807.2500000019}},{"attributes":{"ID":372106,"DIS_CODE":0,"TOWNNAME":"新化區","LI":"協興里","LIN":"10鄰","STREET":"正新路","SECT":" ","MAREA":" ","LANE":"３４１巷","ALLEY":" ","HOUSE_NO":"５２號","E_COORD97":178431.76999999999,"N_COORD97":2548814.25,"ADDRESS":"正新路３４１巷５２號","OBJECTID":372096},"geometry":{"x":178431.77000000048,"y":2548814.2500000019}},{"attributes":{"ID":372107,"DIS_CODE":0,"TOWNNAME":"新化區","LI":"豐榮里","LIN":"10鄰","STREET":"信義路","SECT":" ","MAREA":" ","LANE":"４７０巷","ALLEY":" ","HOUSE_NO":"１０號","E_COORD97":178521.57999999999,"N_COORD97":2548320.2400000002,"ADDRESS":"信義路４７０巷１０號","OBJECTID":372097},"geometry":{"x":178521.58000000101,"y":2548320.2400000002}},{"attributes":{"ID":372108,"DIS_CODE":0,"TOWNNAME":"新化區","LI":"協興里","LIN":"10鄰","STREET":"正新路","SECT":" ","MAREA":" ","LANE":"３４１巷","ALLEY":" ","HOUSE_NO":"７８號","E_COORD97":178381.26999999999,"N_COORD97":2548805.25,"ADDRESS":"正新路３４１巷７８號","OBJECTID":372098},"geometry":{"x":178381.27000000048,"y":2548805.25}},{"attributes":{"ID":372109,"DIS_CODE":0,"TOWNNAME":"新化區","LI":"協興里","LIN":"10鄰","STREET":"正新路","SECT":" ","MAREA":" ","LANE":"３６３巷","ALLEY":" ","HOUSE_NO":"５號","E_COORD97":178497.32000000001,"N_COORD97":2548869.25,"ADDRESS":"正新路３６３巷５號","OBJECTID":372099},"geometry":{"x":178497.3200000003,"y":2548869.25}},{"attributes":{"ID":372110,"DIS_CODE":0,"TOWNNAME":"新化區","LI":"協興里","LIN":"10鄰","STREET":"正新路","SECT":" ","MAREA":" ","LANE":"３６３巷","ALLEY":" ","HOUSE_NO":"２７號","E_COORD97":178463.47,"N_COORD97":2548864.25,"ADDRESS":"正新路３６３巷２７號","OBJECTID":372100},"geometry":{"x":178463.46999999974,"y":2548864.2500000037}},{"attributes":{"ID":372111,"DIS_CODE":0,"TOWNNAME":"新化區","LI":"協興里","LIN":"10鄰","STREET":"正新路","SECT":" ","MAREA":" ","LANE":"３６３巷","ALLEY":" ","HOUSE_NO":"１９號","E_COORD97":178478.17000000001,"N_COORD97":2548846.25,"ADDRESS":"正新路３６３巷１９號","OBJECTID":372101},"geometry":{"x":178478.17000000179,"y":2548846.25}},{"attributes":{"ID":372112,"DIS_CODE":0,"TOWNNAME":"新化區","LI":"協興里","LIN":"10鄰","STREET":"正新路","SECT":" ","MAREA":" ","LANE":"３６３巷","ALLEY":" ","HOUSE_NO":"３２號","E_COORD97":178447.26999999999,"N_COORD97":2548896.25,"ADDRESS":"正新路３６３巷３２號","OBJECTID":372102},"geometry":{"x":178447.27000000048,"y":2548896.25}},{"attributes":{"ID":372113,"DIS_CODE":0,"TOWNNAME":"新化區","LI":"協興里","LIN":"10鄰","STREET":"正新路","SECT":" ","MAREA":" ","LANE":"３６３巷","ALLEY":" ","HOUSE_NO":"４３號","E_COORD97":178429.17000000001,"N_COORD97":2548858.25,"ADDRESS":"正新路３６３巷４３號","OBJECTID":372103},"geometry":{"x":178429.17000000086,"y":2548858.2500000019}},{"attributes":{"ID":372114,"DIS_CODE":0,"TOWNNAME":"新化區","LI":"協興里","LIN":"10鄰","STREET":"正新路","SECT":" ","MAREA":" ","LANE":"３６３巷","ALLEY":" ","HOUSE_NO":"１７號","E_COORD97":178478.67000000001,"N_COORD97":2548843.25,"ADDRESS":"正新路３６３巷１７號","OBJECTID":372104},"geometry":{"x":178478.67000000086,"y":2548843.25}},{"attributes":{"ID":372115,"DIS_CODE":0,"TOWNNAME":"新化區","LI":"協興里","LIN":"10鄰","STREET":"正新路","SECT":" ","MAREA":" ","LANE":"３６３巷","ALLEY":" ","HOUSE_NO":"４５號","E_COORD97":178424.76999999999,"N_COORD97":2548857.25,"ADDRESS":"正新路３６３巷４５號","OBJECTID":372105},"geometry":{"x":178424.77000000048,"y":2548857.2500000037}},{"attributes":{"ID":372116,"DIS_CODE":0,"TOWNNAME":"新化區","LI":"協興里","LIN":"10鄰","STREET":"正新路","SECT":" ","MAREA":" ","LANE":"３６３巷","ALLEY":" ","HOUSE_NO":"７號","E_COORD97":178493.32000000001,"N_COORD97":2548868.25,"ADDRESS":"正新路３６３巷７號","OBJECTID":372106},"geometry":{"x":178493.32000000123,"y":2548868.2500000019}},{"attributes":{"ID":372117,"DIS_CODE":0,"TOWNNAME":"安平區","LI":"平通里","LIN":"10鄰","STREET":"育平九街","SECT":" ","MAREA":" ","LANE":"２４６巷","ALLEY":" ","HOUSE_NO":"２１號","E_COORD97":164892.39331399999,"N_COORD97":2544072.6801700001,"ADDRESS":"育平九街２４６巷２１號","OBJECTID":372107},"geometry":{"x":164892.39331400022,"y":2544072.6801689994}},{"attributes":{"ID":372118,"DIS_CODE":0,"TOWNNAME":"永康區","LI":"崑山里","LIN":"10鄰","STREET":"崑大路","SECT":" ","MAREA":" ","LANE":" ","ALLEY":" ","HOUSE_NO":"２６７號","E_COORD97":173188.45999999999,"N_COORD97":2544302.1099999999,"ADDRESS":"崑大路２６７號","OBJECTID":372108},"geometry":{"x":173188.45999999996,"y":2544302.1100000013}},{"attributes":{"ID":372119,"DIS_CODE":0,"TOWNNAME":"中西區","LI":"元安里","LIN":"10鄰","STREET":"國華街","SECT":"二段","MAREA":" ","LANE":"８１巷","ALLEY":" ","HOUSE_NO":"１１號","E_COORD97":167604.60999999999,"N_COORD97":2543371.1400000001,"ADDRESS":"國華街二段８１巷１１號","OBJECTID":372109},"geometry":{"x":167604.61000000127,"y":2543371.1400000025}},{"attributes":{"ID":372120,"DIS_CODE":0,"TOWNNAME":"中西區","LI":"元安里","LIN":"10鄰","STREET":"國華街","SECT":"二段","MAREA":" ","LANE":"８１巷","ALLEY":" ","HOUSE_NO":"１３號","E_COORD97":167603.42999999999,"N_COORD97":2543377.3300000001,"ADDRESS":"國華街二段８１巷１３號","OBJECTID":372110},"geometry":{"x":167603.43000000063,"y":2543377.3300000001}},{"attributes":{"ID":372121,"DIS_CODE":0,"TOWNNAME":"中西區","LI":"元安里","LIN":"10鄰","STREET":"國華街","SECT":"二段","MAREA":" ","LANE":"８１巷","ALLEY":" ","HOUSE_NO":"１５號","E_COORD97":167603.54000000001,"N_COORD97":2543381.1800000002,"ADDRESS":"國華街二段８１巷１５號","OBJECTID":372111},"geometry":{"x":167603.54000000097,"y":2543381.1799999997}},{"attributes":{"ID":372122,"DIS_CODE":0,"TOWNNAME":"中西區","LI":"元安里","LIN":"10鄰","STREET":"國華街","SECT":"二段","MAREA":" ","LANE":"８１巷","ALLEY":" ","HOUSE_NO":"１７號","E_COORD97":167603.64999999999,"N_COORD97":2543385.77,"ADDRESS":"國華街二段８１巷１７號","OBJECTID":372112},"geometry":{"x":167603.65000000037,"y":2543385.7700000014}},{"attributes":{"ID":372123,"DIS_CODE":0,"TOWNNAME":"中西區","LI":"元安里","LIN":"10鄰","STREET":"國華街","SECT":"二段","MAREA":" ","LANE":"８１巷","ALLEY":" ","HOUSE_NO":"１９號","E_COORD97":167603.32999999999,"N_COORD97":2543390.25,"ADDRESS":"國華街二段８１巷１９號","OBJECTID":372113},"geometry":{"x":167603.33000000101,"y":2543390.25}},{"attributes":{"ID":372124,"DIS_CODE":0,"TOWNNAME":"中西區","LI":"元安里","LIN":"10鄰","STREET":"國華街","SECT":"二段","MAREA":" ","LANE":"８１巷","ALLEY":" ","HOUSE_NO":"２１號","E_COORD97":167603.64999999999,"N_COORD97":2543394.9500000002,"ADDRESS":"國華街二段８１巷２１號","OBJECTID":372114},"geometry":{"x":167603.65000000037,"y":2543394.9499999993}},{"attributes":{"ID":372125,"DIS_CODE":0,"TOWNNAME":"中西區","LI":"元安里","LIN":"10鄰","STREET":"國華街","SECT":"二段","MAREA":" ","LANE":"８１巷","ALLEY":" ","HOUSE_NO":"５號","E_COORD97":167616.94,"N_COORD97":2543395.3700000001,"ADDRESS":"國華街二段８１巷５號","OBJECTID":372115},"geometry":{"x":167616.94000000041,"y":2543395.3699999992}},{"attributes":{"ID":372126,"DIS_CODE":0,"TOWNNAME":"中西區","LI":"元安里","LIN":"10鄰","STREET":"國華街","SECT":"二段","MAREA":" ","LANE":"８１巷","ALLEY":" ","HOUSE_NO":"７號","E_COORD97":167611.26999999999,"N_COORD97":2543395.48,"ADDRESS":"國華街二段８１巷７號","OBJECTID":372116},"geometry":{"x":167611.27000000048,"y":2543395.4800000023}},{"attributes":{"ID":372127,"DIS_CODE":0,"TOWNNAME":"中西區","LI":"元安里","LIN":"10鄰","STREET":"西門路","SECT":"一段","MAREA":" ","LANE":"７６１巷","ALLEY":" ","HOUSE_NO":"１３號","E_COORD97":167672.13,"N_COORD97":2543377.4700000002,"ADDRESS":"西門路一段７６１巷１３號","OBJECTID":372117},"geometry":{"x":167672.13000000082,"y":2543377.4700000044}},{"attributes":{"ID":372128,"DIS_CODE":0,"TOWNNAME":"中西區","LI":"元安里","LIN":"10鄰","STREET":"西門路","SECT":"一段","MAREA":" ","LANE":"７６１巷","ALLEY":" ","HOUSE_NO":"１５號","E_COORD97":167669.48000000001,"N_COORD97":2543377.8999999999,"ADDRESS":"西門路一段７６１巷１５號","OBJECTID":372118},"geometry":{"x":167669.48000000045,"y":2543377.9000000041}},{"attributes":{"ID":372129,"DIS_CODE":0,"TOWNNAME":"東區","LI":"路東里","LIN":"10鄰","STREET":"林森路","SECT":"一段","MAREA":" ","LANE":"５６巷","ALLEY":" ","HOUSE_NO":"１１號","E_COORD97":169346.23000000001,"N_COORD97":2542376.25,"ADDRESS":"林森路一段５６巷１１號","OBJECTID":372119},"geometry":{"x":169346.23000000231,"y":2542376.2500000019}},{"attributes":{"ID":372130,"DIS_CODE":0,"TOWNNAME":"中西區","LI":"元安里","LIN":"10鄰","STREET":"西門路","SECT":"一段","MAREA":" ","LANE":"７６１巷","ALLEY":" ","HOUSE_NO":"１７號","E_COORD97":167665.60999999999,"N_COORD97":2543377.6200000001,"ADDRESS":"西門路一段７６１巷１７號","OBJECTID":372120},"geometry":{"x":167665.61000000127,"y":2543377.6200000029}},{"attributes":{"ID":372131,"DIS_CODE":0,"TOWNNAME":"中西區","LI":"元安里","LIN":"10鄰","STREET":"西門路","SECT":"一段","MAREA":" ","LANE":"７６１巷","ALLEY":" ","HOUSE_NO":"１９號","E_COORD97":167662.60000000001,"N_COORD97":2543377.4700000002,"ADDRESS":"西門路一段７６１巷１９號","OBJECTID":372121},"geometry":{"x":167662.59999999963,"y":2543377.4700000044}},{"attributes":{"ID":372132,"DIS_CODE":0,"TOWNNAME":"永康區","LI":"安康里","LIN":"10鄰","STREET":"中山南路","SECT":" ","MAREA":" ","LANE":"１２３巷","ALLEY":" ","HOUSE_NO":"２９號","E_COORD97":170953.26000000001,"N_COORD97":2546007.25,"ADDRESS":"中山南路１２３巷２９號","OBJECTID":372122},"geometry":{"x":170953.26000000071,"y":2546007.2500000019}},{"attributes":{"ID":372133,"DIS_CODE":0,"TOWNNAME":"永康區","LI":"安康里","LIN":"10鄰","STREET":"中華路","SECT":" ","MAREA":" ","LANE":"６１９巷","ALLEY":" ","HOUSE_NO":"５７號","E_COORD97":170877.79000000001,"N_COORD97":2545992,"ADDRESS":"中華路６１９巷５７號","OBJECTID":372123},"geometry":{"x":170877.78999999911,"y":2545992.0000000019}},{"attributes":{"ID":372134,"DIS_CODE":0,"TOWNNAME":"中西區","LI":"民主里","LIN":"10鄰","STREET":"尊王路","SECT":" ","MAREA":" ","LANE":"１３８巷","ALLEY":" ","HOUSE_NO":"１０號","E_COORD97":167351.26000000001,"N_COORD97":2543662.79,"ADDRESS":"尊王路１３８巷１０號","OBJECTID":372124},"geometry":{"x":167351.25999999978,"y":2543662.790000001}},{"attributes":{"ID":372135,"DIS_CODE":0,"TOWNNAME":"中西區","LI":"民主里","LIN":"10鄰","STREET":"尊王路","SECT":" ","MAREA":" ","LANE":"１３８巷","ALLEY":" ","HOUSE_NO":"１２號","E_COORD97":167353.04999999999,"N_COORD97":2543668.48,"ADDRESS":"尊王路１３８巷１２號","OBJECTID":372125},"geometry":{"x":167353.04999999981,"y":2543668.4800000004}},{"attributes":{"ID":372136,"DIS_CODE":0,"TOWNNAME":"中西區","LI":"民主里","LIN":"10鄰","STREET":"尊王路","SECT":" ","MAREA":" ","LANE":"１３８巷","ALLEY":" ","HOUSE_NO":"１６號","E_COORD97":167353.82999999999,"N_COORD97":2543672.3799999999,"ADDRESS":"尊王路１３８巷１６號","OBJECTID":372126},"geometry":{"x":167353.83000000101,"y":2543672.3800000008}},{"attributes":{"ID":372137,"DIS_CODE":0,"TOWNNAME":"中西區","LI":"民主里","LIN":"10鄰","STREET":"尊王路","SECT":" ","MAREA":" ","LANE":"１３８巷","ALLEY":" ","HOUSE_NO":"６號","E_COORD97":167349.48000000001,"N_COORD97":2543654.77,"ADDRESS":"尊王路１３８巷６號","OBJECTID":372127},"geometry":{"x":167349.48000000231,"y":2543654.7699999996}},{"attributes":{"ID":372138,"DIS_CODE":0,"TOWNNAME":"中西區","LI":"民主里","LIN":"10鄰","STREET":"尊王路","SECT":" ","MAREA":" ","LANE":"１３８巷","ALLEY":" ","HOUSE_NO":"８號","E_COORD97":167350.26000000001,"N_COORD97":2543658.8900000001,"ADDRESS":"尊王路１３８巷８號","OBJECTID":372128},"geometry":{"x":167350.26000000164,"y":2543658.8900000006}},{"attributes":{"ID":372139,"DIS_CODE":0,"TOWNNAME":"東區","LI":"德光里","LIN":"10鄰","STREET":"崇學路","SECT":" ","MAREA":" ","LANE":"１３５巷","ALLEY":" ","HOUSE_NO":"１１號","E_COORD97":170252.26000000001,"N_COORD97":2542214.8900000001,"ADDRESS":"崇學路１３５巷１１號","OBJECTID":372129},"geometry":{"x":170252.26000000164,"y":2542214.8899999987}},{"attributes":{"ID":372140,"DIS_CODE":0,"TOWNNAME":"東區","LI":"德光里","LIN":"10鄰","STREET":"崇學路","SECT":" ","MAREA":" ","LANE":"１３５巷","ALLEY":" ","HOUSE_NO":"１號","E_COORD97":170273.60000000001,"N_COORD97":2542197.77,"ADDRESS":"崇學路１３５巷１號","OBJECTID":372130},"geometry":{"x":170273.60000000149,"y":2542197.7699999977}},{"attributes":{"ID":372141,"DIS_CODE":0,"TOWNNAME":"東區","LI":"德光里","LIN":"10鄰","STREET":"崇學路","SECT":" ","MAREA":" ","LANE":"１３５巷","ALLEY":" ","HOUSE_NO":"３號","E_COORD97":170269.70000000001,"N_COORD97":2542200.77,"ADDRESS":"崇學路１３５巷３號","OBJECTID":372131},"geometry":{"x":170269.70000000019,"y":2542200.7699999996}},{"attributes":{"ID":372142,"DIS_CODE":0,"TOWNNAME":"東區","LI":"德光里","LIN":"10鄰","STREET":"崇學路","SECT":" ","MAREA":" ","LANE":"１３５巷","ALLEY":" ","HOUSE_NO":"５號","E_COORD97":170265.19,"N_COORD97":2542204.0800000001,"ADDRESS":"崇學路１３５巷５號","OBJECTID":372132},"geometry":{"x":170265.18999999948,"y":2542204.0800000019}},{"attributes":{"ID":372143,"DIS_CODE":0,"TOWNNAME":"東區","LI":"德光里","LIN":"10鄰","STREET":"崇學路","SECT":" ","MAREA":" ","LANE":"１３５巷","ALLEY":" ","HOUSE_NO":"７號","E_COORD97":170260.98000000001,"N_COORD97":2542207.6800000002,"ADDRESS":"崇學路１３５巷７號","OBJECTID":372133},"geometry":{"x":170260.98000000045,"y":2542207.6799999997}},{"attributes":{"ID":372144,"DIS_CODE":0,"TOWNNAME":"東區","LI":"德光里","LIN":"10鄰","STREET":"崇學路","SECT":" ","MAREA":" ","LANE":"１３５巷","ALLEY":" ","HOUSE_NO":"９號","E_COORD97":170256.76999999999,"N_COORD97":2542210.6800000002,"ADDRESS":"崇學路１３５巷９號","OBJECTID":372134},"geometry":{"x":170256.76999999955,"y":2542210.6799999997}},{"attributes":{"ID":372145,"DIS_CODE":0,"TOWNNAME":"南區","LI":"明亮里","LIN":"10鄰","STREET":"新都路","SECT":" ","MAREA":" ","LANE":"４６２巷","ALLEY":" ","HOUSE_NO":"１７號","E_COORD97":167259.85999999999,"N_COORD97":2540921.4900000002,"ADDRESS":"新都路４６２巷１７號","OBJECTID":372135},"geometry":{"x":167259.86000000034,"y":2540921.4900000002}},{"attributes":{"ID":372146,"DIS_CODE":0,"TOWNNAME":"南區","LI":"明亮里","LIN":"10鄰","STREET":"新都路","SECT":" ","MAREA":" ","LANE":"４６２巷","ALLEY":" ","HOUSE_NO":"１９號","E_COORD97":167239.78,"N_COORD97":2540926.1899999999,"ADDRESS":"新都路４６２巷１９號","OBJECTID":372136},"geometry":{"x":167239.78000000026,"y":2540926.1899999995}},{"attributes":{"ID":372147,"DIS_CODE":0,"TOWNNAME":"南區","LI":"明亮里","LIN":"10鄰","STREET":"新都路","SECT":" ","MAREA":" ","LANE":"４６２巷","ALLEY":" ","HOUSE_NO":"２１號","E_COORD97":167243.54999999999,"N_COORD97":2540934.96,"ADDRESS":"新都路４６２巷２１號","OBJECTID":372137},"geometry":{"x":167243.55000000075,"y":2540934.9600000028}},{"attributes":{"ID":372148,"DIS_CODE":0,"TOWNNAME":"南區","LI":"明亮里","LIN":"10鄰","STREET":"新都路","SECT":" ","MAREA":" ","LANE":"４６２巷","ALLEY":" ","HOUSE_NO":"２３號","E_COORD97":167261.73999999999,"N_COORD97":2540927.7599999998,"ADDRESS":"新都路４６２巷２３號","OBJECTID":372138},"geometry":{"x":167261.74000000115,"y":2540927.7600000016}},{"attributes":{"ID":372149,"DIS_CODE":0,"TOWNNAME":"南區","LI":"明亮里","LIN":"10鄰","STREET":"新都路","SECT":" ","MAREA":" ","LANE":"４６２巷","ALLEY":" ","HOUSE_NO":"３７號","E_COORD97":167251.07999999999,"N_COORD97":2540959.0899999999,"ADDRESS":"新都路４６２巷３７號","OBJECTID":372139},"geometry":{"x":167251.08000000007,"y":2540959.0900000017}},{"attributes":{"ID":372150,"DIS_CODE":0,"TOWNNAME":"南區","LI":"明亮里","LIN":"10鄰","STREET":"新都路","SECT":" ","MAREA":" ","LANE":"４６２巷","ALLEY":" ","HOUSE_NO":"３９號","E_COORD97":167268.98999999999,"N_COORD97":2540953.29,"ADDRESS":"新都路４６２巷３９號","OBJECTID":372140},"geometry":{"x":167268.99000000022,"y":2540953.2900000028}},{"attributes":{"ID":372151,"DIS_CODE":0,"TOWNNAME":"南區","LI":"明亮里","LIN":"10鄰","STREET":"新都路","SECT":" ","MAREA":" ","LANE":"４６２巷","ALLEY":" ","HOUSE_NO":"３３號","E_COORD97":167267.42000000001,"N_COORD97":2540949.48,"ADDRESS":"新都路４６２巷３３號","OBJECTID":372141},"geometry":{"x":167267.41999999993,"y":2540949.4800000004}},{"attributes":{"ID":372152,"DIS_CODE":0,"TOWNNAME":"東區","LI":"路東里","LIN":"10鄰","STREET":"林森路","SECT":"一段","MAREA":" ","LANE":"５６巷","ALLEY":" ","HOUSE_NO":"１號","E_COORD97":169312.64000000001,"N_COORD97":2542381.1299999999,"ADDRESS":"林森路一段５６巷１號","OBJECTID":372142},"geometry":{"x":169312.6400000006,"y":2542381.1299999971}},{"attributes":{"ID":372153,"DIS_CODE":0,"TOWNNAME":"中西區","LI":"仙草里","LIN":"10鄰","STREET":"府緯街","SECT":" ","MAREA":" ","LANE":"４巷","ALLEY":" ","HOUSE_NO":"６號","E_COORD97":167924.04000000001,"N_COORD97":2542780.0899999999,"ADDRESS":"府緯街４巷６號","OBJECTID":372143},"geometry":{"x":167924.04000000097,"y":2542780.0900000017}},{"attributes":{"ID":372154,"DIS_CODE":0,"TOWNNAME":"中西區","LI":"仙草里","LIN":"10鄰","STREET":"府緯街","SECT":" ","MAREA":" ","LANE":"４巷","ALLEY":" ","HOUSE_NO":"１號","E_COORD97":167934.97,"N_COORD97":2542757.5699999998,"ADDRESS":"府緯街４巷１號","OBJECTID":372144},"geometry":{"x":167934.96999999974,"y":2542757.5700000022}},{"attributes":{"ID":372155,"DIS_CODE":0,"TOWNNAME":"中西區","LI":"仙草里","LIN":"10鄰","STREET":"府緯街","SECT":" ","MAREA":" ","LANE":"４巷","ALLEY":" ","HOUSE_NO":"１號底一層","E_COORD97":167934.97,"N_COORD97":2542757.5699999998,"ADDRESS":"府緯街４巷１號底一層","OBJECTID":372145},"geometry":{"x":167934.96999999974,"y":2542757.5700000022}},{"attributes":{"ID":372156,"DIS_CODE":0,"TOWNNAME":"中西區","LI":"仙草里","LIN":"10鄰","STREET":"府緯街","SECT":" ","MAREA":" ","LANE":"４巷","ALLEY":" ","HOUSE_NO":"５號","E_COORD97":167922.64999999999,"N_COORD97":2542761.8300000001,"ADDRESS":"府緯街４巷５號","OBJECTID":372146},"geometry":{"x":167922.65000000037,"y":2542761.8300000019}},{"attributes":{"ID":372157,"DIS_CODE":0,"TOWNNAME":"中西區","LI":"仙草里","LIN":"10鄰","STREET":"府緯街","SECT":" ","MAREA":" ","LANE":"４巷","ALLEY":" ","HOUSE_NO":"７號","E_COORD97":167910.16,"N_COORD97":2542757.3700000001,"ADDRESS":"府緯街４巷７號","OBJECTID":372147},"geometry":{"x":167910.16000000015,"y":2542757.370000001}},{"attributes":{"ID":372158,"DIS_CODE":0,"TOWNNAME":"南區","LI":"郡南里","LIN":"10鄰","STREET":"永成路","SECT":"三段","MAREA":" ","LANE":"１２１巷","ALLEY":" ","HOUSE_NO":"２號","E_COORD97":167470.10000000001,"N_COORD97":2540706.5299999998,"ADDRESS":"永成路三段１２１巷２號","OBJECTID":372148},"geometry":{"x":167470.10000000056,"y":2540706.5299999993}},{"attributes":{"ID":372159,"DIS_CODE":0,"TOWNNAME":"南區","LI":"郡南里","LIN":"10鄰","STREET":"永成路","SECT":"三段","MAREA":" ","LANE":"１２１巷","ALLEY":" ","HOUSE_NO":"１１號","E_COORD97":167449.23000000001,"N_COORD97":2540684.04,"ADDRESS":"永成路三段１２１巷１１號","OBJECTID":372149},"geometry":{"x":167449.23000000045,"y":2540684.040000001}},{"attributes":{"ID":372160,"DIS_CODE":0,"TOWNNAME":"南區","LI":"郡南里","LIN":"10鄰","STREET":"永成路","SECT":"三段","MAREA":" ","LANE":"１２１巷","ALLEY":" ","HOUSE_NO":"１３號","E_COORD97":167444.37,"N_COORD97":2540683.5800000001,"ADDRESS":"永成路三段１２１巷１３號","OBJECTID":372150},"geometry":{"x":167444.37000000011,"y":2540683.5800000001}},{"attributes":{"ID":372161,"DIS_CODE":0,"TOWNNAME":"南區","LI":"郡南里","LIN":"10鄰","STREET":"永成路","SECT":"三段","MAREA":" ","LANE":"１２１巷","ALLEY":" ","HOUSE_NO":"４５號","E_COORD97":167367.97,"N_COORD97":2540687.8500000001,"ADDRESS":"永成路三段１２１巷４５號","OBJECTID":372151},"geometry":{"x":167367.97000000067,"y":2540687.8499999996}},{"attributes":{"ID":372162,"DIS_CODE":0,"TOWNNAME":"南區","LI":"喜南里","LIN":"10鄰","STREET":"喜樹路","SECT":" ","MAREA":" ","LANE":"２７０巷","ALLEY":" ","HOUSE_NO":"１１號","E_COORD97":165658.64000000001,"N_COORD97":2537865.4199999999,"ADDRESS":"喜樹路２７０巷１１號","OBJECTID":372152},"geometry":{"x":165658.63999999966,"y":2537865.4200000018}},{"attributes":{"ID":372163,"DIS_CODE":0,"TOWNNAME":"永康區","LI":"神洲里","LIN":"10鄰","STREET":"忠孝路","SECT":" ","MAREA":" ","LANE":"１５２巷","ALLEY":" ","HOUSE_NO":"４１號","E_COORD97":172208.98000000001,"N_COORD97":2545091.25,"ADDRESS":"忠孝路１５２巷４１號","OBJECTID":372153},"geometry":{"x":172208.98000000045,"y":2545091.2500000019}},{"attributes":{"ID":372164,"DIS_CODE":0,"TOWNNAME":"東區","LI":"路東里","LIN":"10鄰","STREET":"林森路","SECT":"一段","MAREA":" ","LANE":"５６巷","ALLEY":" ","HOUSE_NO":"２５號","E_COORD97":169370.78,"N_COORD97":2542373.5,"ADDRESS":"林森路一段５６巷２５號","OBJECTID":372154},"geometry":{"x":169370.78000000026,"y":2542373.5000000019}},{"attributes":{"ID":372165,"DIS_CODE":0,"TOWNNAME":"東區","LI":"路東里","LIN":"10鄰","STREET":"林森路","SECT":"一段","MAREA":" ","LANE":"５６巷","ALLEY":" ","HOUSE_NO":"２７號","E_COORD97":169379.25,"N_COORD97":2542372.23,"ADDRESS":"林森路一段５６巷２７號","OBJECTID":372155},"geometry":{"x":169379.25,"y":2542372.2300000042}},{"attributes":{"ID":372166,"DIS_CODE":0,"TOWNNAME":"善化區","LI":"西關里","LIN":"10鄰","STREET":"復興街","SECT":" ","MAREA":" ","LANE":"３６巷","ALLEY":" ","HOUSE_NO":"１０號","E_COORD97":176993.82999999999,"N_COORD97":2559118.5099999998,"ADDRESS":"復興街３６巷１０號","OBJECTID":372156},"geometry":{"x":176993.82999999914,"y":2559118.5100000016}},{"attributes":{"ID":372167,"DIS_CODE":0,"TOWNNAME":"仁德區","LI":"一甲里","LIN":"10鄰","STREET":"忠義路","SECT":" ","MAREA":" ","LANE":"２４２巷","ALLEY":" ","HOUSE_NO":"２號","E_COORD97":173654.23999999999,"N_COORD97":2541912.7599999998,"ADDRESS":"忠義路２４２巷２號","OBJECTID":372157},"geometry":{"x":173654.24000000115,"y":2541912.7599999998}},{"attributes":{"ID":372168,"DIS_CODE":0,"TOWNNAME":"新化區","LI":"太平里","LIN":"10鄰","STREET":"中正路","SECT":" ","MAREA":" ","LANE":"７７７巷","ALLEY":" ","HOUSE_NO":"３５之６號","E_COORD97":178665.16,"N_COORD97":2549212.2599999998,"ADDRESS":"中正路７７７巷３５之６號","OBJECTID":372158},"geometry":{"x":178665.16000000108,"y":2549212.2599999998}},{"attributes":{"ID":372169,"DIS_CODE":0,"TOWNNAME":"新化區","LI":"協興里","LIN":"10鄰","STREET":"太平街","SECT":" ","MAREA":" ","LANE":"１３４巷","ALLEY":" ","HOUSE_NO":"７８號","E_COORD97":178512.76999999999,"N_COORD97":2548798.25,"ADDRESS":"太平街１３４巷７８號","OBJECTID":372159},"geometry":{"x":178512.77000000142,"y":2548798.25}},{"attributes":{"ID":372170,"DIS_CODE":0,"TOWNNAME":"新化區","LI":"協興里","LIN":"10鄰","STREET":"正新路","SECT":" ","MAREA":" ","LANE":"３４１巷","ALLEY":" ","HOUSE_NO":"４２號","E_COORD97":178449.67000000001,"N_COORD97":2548818.25,"ADDRESS":"正新路３４１巷４２號","OBJECTID":372160},"geometry":{"x":178449.67000000086,"y":2548818.25}},{"attributes":{"ID":372171,"DIS_CODE":0,"TOWNNAME":"南區","LI":"新昌里","LIN":"10鄰","STREET":"西門路","SECT":"一段","MAREA":" ","LANE":"５７５巷","ALLEY":" ","HOUSE_NO":"１８號","E_COORD97":167664.42000000001,"N_COORD97":2542781.2000000002,"ADDRESS":"西門路一段５７５巷１８號","OBJECTID":372161},"geometry":{"x":167664.41999999899,"y":2542781.200000003}},{"attributes":{"ID":372172,"DIS_CODE":0,"TOWNNAME":"南區","LI":"新昌里","LIN":"10鄰","STREET":"西門路","SECT":"一段","MAREA":" ","LANE":"５７５巷","ALLEY":" ","HOUSE_NO":"１９號","E_COORD97":167659.26999999999,"N_COORD97":2542764.9399999999,"ADDRESS":"西門路一段５７５巷１９號","OBJECTID":372162},"geometry":{"x":167659.26999999955,"y":2542764.9399999995}},{"attributes":{"ID":372173,"DIS_CODE":0,"TOWNNAME":"永康區","LI":"復國里","LIN":"10鄰","STREET":"復國二路","SECT":" ","MAREA":" ","LANE":"８７巷","ALLEY":" ","HOUSE_NO":"１號","E_COORD97":172848.92000000001,"N_COORD97":2545369.7799999998,"ADDRESS":"復國二路８７巷１號","OBJECTID":372163},"geometry":{"x":172848.92000000086,"y":2545369.7799999993}},{"attributes":{"ID":372174,"DIS_CODE":0,"TOWNNAME":"南區","LI":"新昌里","LIN":"10鄰","STREET":"西門路","SECT":"一段","MAREA":" ","LANE":"５７５巷","ALLEY":" ","HOUSE_NO":"２０號","E_COORD97":167660.56,"N_COORD97":2542781.2000000002,"ADDRESS":"西門路一段５７５巷２０號","OBJECTID":372164},"geometry":{"x":167660.56000000052,"y":2542781.200000003}},{"attributes":{"ID":372175,"DIS_CODE":0,"TOWNNAME":"南區","LI":"新昌里","LIN":"10鄰","STREET":"西門路","SECT":"一段","MAREA":" ","LANE":"５７５巷","ALLEY":" ","HOUSE_NO":"２１號","E_COORD97":167654.76999999999,"N_COORD97":2542764.9399999999,"ADDRESS":"西門路一段５７５巷２１號","OBJECTID":372165},"geometry":{"x":167654.76999999955,"y":2542764.9399999995}},{"attributes":{"ID":372176,"DIS_CODE":0,"TOWNNAME":"南區","LI":"新昌里","LIN":"10鄰","STREET":"西門路","SECT":"一段","MAREA":" ","LANE":"５７５巷","ALLEY":" ","HOUSE_NO":"２２號","E_COORD97":167656.38,"N_COORD97":2542781.8500000001,"ADDRESS":"西門路一段５７５巷２２號","OBJECTID":372166},"geometry":{"x":167656.38000000175,"y":2542781.8500000015}},{"attributes":{"ID":372177,"DIS_CODE":0,"TOWNNAME":"南區","LI":"新昌里","LIN":"10鄰","STREET":"西門路","SECT":"一段","MAREA":" ","LANE":"５７５巷","ALLEY":" ","HOUSE_NO":"２３號","E_COORD97":167651.23000000001,"N_COORD97":2542764.9399999999,"ADDRESS":"西門路一段５７５巷２３號","OBJECTID":372167},"geometry":{"x":167651.23000000231,"y":2542764.9399999995}},{"attributes":{"ID":372178,"DIS_CODE":0,"TOWNNAME":"西港區","LI":"慶安里","LIN":"26鄰","STREET":"新興街","SECT":" ","MAREA":" ","LANE":"１２巷","ALLEY":" ","HOUSE_NO":"５號","E_COORD97":168264.76000000001,"N_COORD97":2557784.8100000001,"ADDRESS":"新興街１２巷５號","OBJECTID":372168},"geometry":{"x":168264.75999999978,"y":2557784.8100000024}},{"attributes":{"ID":372179,"DIS_CODE":0,"TOWNNAME":"西港區","LI":"慶安里","LIN":"8鄰","STREET":"新興街","SECT":" ","MAREA":" ","LANE":"１０７巷","ALLEY":" ","HOUSE_NO":"４號","E_COORD97":168168.79999999999,"N_COORD97":2558197,"ADDRESS":"新興街１０７巷４號","OBJECTID":372169},"geometry":{"x":168168.80000000168,"y":2558197.0000000019}},{"attributes":{"ID":372180,"DIS_CODE":0,"TOWNNAME":"西港區","LI":"慶安里","LIN":"8鄰","STREET":"新興街","SECT":" ","MAREA":" ","LANE":"１０７巷","ALLEY":" ","HOUSE_NO":"５０號","E_COORD97":168038.39999999999,"N_COORD97":2558223.98,"ADDRESS":"新興街１０７巷５０號","OBJECTID":372170},"geometry":{"x":168038.4000000013,"y":2558223.9800000042}},{"attributes":{"ID":372181,"DIS_CODE":0,"TOWNNAME":"東區","LI":"富強里","LIN":"10鄰","STREET":"中華東路","SECT":"二段","MAREA":" ","LANE":"２２６巷","ALLEY":" ","HOUSE_NO":"６９號","E_COORD97":171088.60000000001,"N_COORD97":2542724.21,"ADDRESS":"中華東路二段２２６巷６９號","OBJECTID":372171},"geometry":{"x":171088.59999999963,"y":2542724.2100000009}},{"attributes":{"ID":372182,"DIS_CODE":0,"TOWNNAME":"中西區","LI":"天后里","LIN":"10鄰","STREET":"民族路","SECT":"二段","MAREA":" ","LANE":"３９１巷","ALLEY":" ","HOUSE_NO":"１０號","E_COORD97":168105.16,"N_COORD97":2544163.46,"ADDRESS":"民族路二段３９１巷１０號","OBJECTID":372172},"geometry":{"x":168105.16000000015,"y":2544163.4600000009}},{"attributes":{"ID":372183,"DIS_CODE":0,"TOWNNAME":"中西區","LI":"天后里","LIN":"10鄰","STREET":"民族路","SECT":"二段","MAREA":" ","LANE":"３９１巷","ALLEY":" ","HOUSE_NO":"１２號","E_COORD97":168104.84,"N_COORD97":2544159.3799999999,"ADDRESS":"民族路二段３９１巷１２號","OBJECTID":372173},"geometry":{"x":168104.84000000078,"y":2544159.3799999971}},{"attributes":{"ID":372184,"DIS_CODE":0,"TOWNNAME":"中西區","LI":"天后里","LIN":"10鄰","STREET":"民族路","SECT":"二段","MAREA":" ","LANE":"３９１巷","ALLEY":" ","HOUSE_NO":"１４號","E_COORD97":168106.31,"N_COORD97":2544154,"ADDRESS":"民族路二段３９１巷１４號","OBJECTID":372174},"geometry":{"x":168106.31000000052,"y":2544154.0000000019}},{"attributes":{"ID":372185,"DIS_CODE":0,"TOWNNAME":"中西區","LI":"天后里","LIN":"10鄰","STREET":"民族路","SECT":"二段","MAREA":" ","LANE":"３９１巷","ALLEY":" ","HOUSE_NO":"１６號","E_COORD97":168097.12,"N_COORD97":2544158.4500000002,"ADDRESS":"民族路二段３９１巷１６號","OBJECTID":372175},"geometry":{"x":168097.12000000011,"y":2544158.4499999993}},{"attributes":{"ID":372186,"DIS_CODE":0,"TOWNNAME":"中西區","LI":"天后里","LIN":"10鄰","STREET":"民族路","SECT":"二段","MAREA":" ","LANE":"３９１巷","ALLEY":" ","HOUSE_NO":"１８號","E_COORD97":168092.23000000001,"N_COORD97":2544160.9900000002,"ADDRESS":"民族路二段３９１巷１８號","OBJECTID":372176},"geometry":{"x":168092.23000000138,"y":2544160.9900000021}},{"attributes":{"ID":372187,"DIS_CODE":0,"TOWNNAME":"中西區","LI":"天后里","LIN":"10鄰","STREET":"民族路","SECT":"二段","MAREA":" ","LANE":"３９１巷","ALLEY":" ","HOUSE_NO":"２０號","E_COORD97":168089.48000000001,"N_COORD97":2544161.02,"ADDRESS":"民族路二段３９１巷２０號","OBJECTID":372177},"geometry":{"x":168089.48000000045,"y":2544161.0199999996}},{"attributes":{"ID":372188,"DIS_CODE":0,"TOWNNAME":"中西區","LI":"天后里","LIN":"10鄰","STREET":"民族路","SECT":"二段","MAREA":" ","LANE":"３９１巷","ALLEY":" ","HOUSE_NO":"２號","E_COORD97":168104.17999999999,"N_COORD97":2544184.3599999999,"ADDRESS":"民族路二段３９１巷２號","OBJECTID":372178},"geometry":{"x":168104.1799999997,"y":2544184.3600000013}},{"attributes":{"ID":372189,"DIS_CODE":0,"TOWNNAME":"中西區","LI":"天后里","LIN":"10鄰","STREET":"民族路","SECT":"二段","MAREA":" ","LANE":"３９１巷","ALLEY":" ","HOUSE_NO":"６號","E_COORD97":168107.12,"N_COORD97":2544170.3199999998,"ADDRESS":"民族路二段３９１巷６號","OBJECTID":372179},"geometry":{"x":168107.12000000011,"y":2544170.3200000003}},{"attributes":{"ID":372190,"DIS_CODE":0,"TOWNNAME":"中西區","LI":"天后里","LIN":"10鄰","STREET":"民族路","SECT":"二段","MAREA":" ","LANE":"３９１巷","ALLEY":" ","HOUSE_NO":"８號","E_COORD97":168106.92000000001,"N_COORD97":2544166.7400000002,"ADDRESS":"民族路二段３９１巷８號","OBJECTID":372180},"geometry":{"x":168106.92000000179,"y":2544166.7400000021}},{"attributes":{"ID":372191,"DIS_CODE":0,"TOWNNAME":"西港區","LI":"慶安里","LIN":"28鄰","STREET":"新興街","SECT":" ","MAREA":" ","LANE":"１５巷","ALLEY":" ","HOUSE_NO":"１０號","E_COORD97":168185.48000000001,"N_COORD97":2557777.3700000001,"ADDRESS":"新興街１５巷１０號","OBJECTID":372181},"geometry":{"x":168185.48000000138,"y":2557777.3699999992}},{"attributes":{"ID":372192,"DIS_CODE":0,"TOWNNAME":"西港區","LI":"慶安里","LIN":"28鄰","STREET":"新興街","SECT":" ","MAREA":" ","LANE":"１５巷","ALLEY":" ","HOUSE_NO":"１１號","E_COORD97":168123.5,"N_COORD97":2557746.1699999999,"ADDRESS":"新興街１５巷１１號","OBJECTID":372182},"geometry":{"x":168123.50000000186,"y":2557746.1699999999}},{"attributes":{"ID":372193,"DIS_CODE":0,"TOWNNAME":"西港區","LI":"慶安里","LIN":"28鄰","STREET":"新興街","SECT":" ","MAREA":" ","LANE":"１５巷","ALLEY":" ","HOUSE_NO":"１２號","E_COORD97":168181.01000000001,"N_COORD97":2557776.5299999998,"ADDRESS":"新興街１５巷１２號","OBJECTID":372183},"geometry":{"x":168181.01000000071,"y":2557776.5299999993}},{"attributes":{"ID":372194,"DIS_CODE":0,"TOWNNAME":"西港區","LI":"慶安里","LIN":"28鄰","STREET":"新興街","SECT":" ","MAREA":" ","LANE":"１５巷","ALLEY":" ","HOUSE_NO":"１３號","E_COORD97":168118.79999999999,"N_COORD97":2557745.75,"ADDRESS":"新興街１５巷１３號","OBJECTID":372184},"geometry":{"x":168118.79999999981,"y":2557745.75}},{"attributes":{"ID":372195,"DIS_CODE":0,"TOWNNAME":"西港區","LI":"慶安里","LIN":"28鄰","STREET":"新興街","SECT":" ","MAREA":" ","LANE":"１５巷","ALLEY":" ","HOUSE_NO":"１４號","E_COORD97":168176.45000000001,"N_COORD97":2557774.9199999999,"ADDRESS":"新興街１５巷１４號","OBJECTID":372185},"geometry":{"x":168176.44999999925,"y":2557774.9199999999}},{"attributes":{"ID":372196,"DIS_CODE":0,"TOWNNAME":"安南區","LI":"安慶里","LIN":"10鄰","STREET":"長溪路","SECT":"一段","MAREA":" ","LANE":"１６８巷","ALLEY":" ","HOUSE_NO":"３３１號","E_COORD97":168778.32999999999,"N_COORD97":2548840.2599999998,"ADDRESS":"長溪路一段１６８巷３３１號","OBJECTID":372186},"geometry":{"x":168778.33000000007,"y":2548840.2600000016}},{"attributes":{"ID":372197,"DIS_CODE":0,"TOWNNAME":"安南區","LI":"州北里","LIN":"10鄰","STREET":"安和路","SECT":"五段","MAREA":" ","LANE":"１７１巷","ALLEY":" ","HOUSE_NO":"１１０號","E_COORD97":169610.85999999999,"N_COORD97":2551746.4199999999,"ADDRESS":"安和路五段１７１巷１１０號","OBJECTID":372187},"geometry":{"x":169610.86000000034,"y":2551746.4199999999}},{"attributes":{"ID":372198,"DIS_CODE":0,"TOWNNAME":"安南區","LI":"州南里","LIN":"10鄰","STREET":"安和路","SECT":"四段","MAREA":" ","LANE":"５８９巷","ALLEY":" ","HOUSE_NO":"１１號","E_COORD97":169874.06,"N_COORD97":2551461.8799999999,"ADDRESS":"安和路四段５８９巷１１號","OBJECTID":372188},"geometry":{"x":169874.06000000052,"y":2551461.879999999}},{"attributes":{"ID":372199,"DIS_CODE":0,"TOWNNAME":"安南區","LI":"佃東里","LIN":"10鄰","STREET":"公學路","SECT":"四段","MAREA":" ","LANE":"１２２巷","ALLEY":" ","HOUSE_NO":"７號","E_COORD97":165583.42999999999,"N_COORD97":2552046.54,"ADDRESS":"公學路四段１２２巷７號","OBJECTID":372189},"geometry":{"x":165583.4299999997,"y":2552046.5399999991}},{"attributes":{"ID":372200,"DIS_CODE":0,"TOWNNAME":"安南區","LI":"長安里","LIN":"10鄰","STREET":"公學路","SECT":"二段","MAREA":" ","LANE":"１２５巷","ALLEY":" ","HOUSE_NO":"４６號","E_COORD97":167732.41,"N_COORD97":2552182.8599999999,"ADDRESS":"公學路二段１２５巷４６號","OBJECTID":372190},"geometry":{"x":167732.41000000015,"y":2552182.8600000013}},{"attributes":{"ID":372201,"DIS_CODE":0,"TOWNNAME":"安南區","LI":"南興里","LIN":"10鄰","STREET":"安興街","SECT":" ","MAREA":" ","LANE":"６３２巷","ALLEY":" ","HOUSE_NO":"８５號","E_COORD97":163761.19,"N_COORD97":2552480.3300000001,"ADDRESS":"安興街６３２巷８５號","OBJECTID":372191},"geometry":{"x":163761.19000000134,"y":2552480.3300000001}},{"attributes":{"ID":372202,"DIS_CODE":0,"TOWNNAME":"安南區","LI":"南興里","LIN":"10鄰","STREET":"公學路","SECT":"五段","MAREA":" ","LANE":"６９７巷","ALLEY":" ","HOUSE_NO":"１００號","E_COORD97":163821.44,"N_COORD97":2552557.9399999999,"ADDRESS":"公學路五段６９７巷１００號","OBJECTID":372192},"geometry":{"x":163821.44000000041,"y":2552557.9400000032}},{"attributes":{"ID":372203,"DIS_CODE":0,"TOWNNAME":"安南區","LI":"城北里","LIN":"10鄰","STREET":"安中路","SECT":"六段","MAREA":" ","LANE":"４２９巷","ALLEY":" ","HOUSE_NO":"２９號","E_COORD97":161147.98999999999,"N_COORD97":2551223.77,"ADDRESS":"安中路六段４２９巷２９號","OBJECTID":372193},"geometry":{"x":161147.99000000209,"y":2551223.7700000014}},{"attributes":{"ID":372204,"DIS_CODE":0,"TOWNNAME":"安南區","LI":"城北里","LIN":"10鄰","STREET":"安中路","SECT":"六段","MAREA":" ","LANE":"４２９巷","ALLEY":" ","HOUSE_NO":"１００號","E_COORD97":161198.87,"N_COORD97":2551077.6000000001,"ADDRESS":"安中路六段４２９巷１００號","OBJECTID":372194},"geometry":{"x":161198.87000000011,"y":2551077.5999999996}},{"attributes":{"ID":372205,"DIS_CODE":0,"TOWNNAME":"安南區","LI":"城東里","LIN":"10鄰","STREET":"城北路","SECT":" ","MAREA":" ","LANE":"１２７巷","ALLEY":" ","HOUSE_NO":"１７號","E_COORD97":160962.26999999999,"N_COORD97":2551681.6899999999,"ADDRESS":"城北路１２７巷１７號","OBJECTID":372195},"geometry":{"x":160962.26999999862,"y":2551681.6900000013}},{"attributes":{"ID":372206,"DIS_CODE":0,"TOWNNAME":"安南區","LI":"海西里","LIN":"10鄰","STREET":"海環街","SECT":" ","MAREA":" ","LANE":"２５６巷","ALLEY":" ","HOUSE_NO":"６９號","E_COORD97":166334.60000000001,"N_COORD97":2548796.7400000002,"ADDRESS":"海環街２５６巷６９號","OBJECTID":372196},"geometry":{"x":166334.60000000056,"y":2548796.7400000039}},{"attributes":{"ID":372207,"DIS_CODE":0,"TOWNNAME":"安南區","LI":"海西里","LIN":"10鄰","STREET":"海環街","SECT":" ","MAREA":" ","LANE":"２５６巷","ALLEY":" ","HOUSE_NO":"５８號","E_COORD97":166275.98999999999,"N_COORD97":2548734.46,"ADDRESS":"海環街２５６巷５８號","OBJECTID":372197},"geometry":{"x":166275.99000000209,"y":2548734.459999999}},{"attributes":{"ID":372208,"DIS_CODE":0,"TOWNNAME":"安南區","LI":"新順里","LIN":"10鄰","STREET":"政安路","SECT":" ","MAREA":" ","LANE":"２５０巷","ALLEY":" ","HOUSE_NO":"２０２號","E_COORD97":169996.14999999999,"N_COORD97":2548828.1800000002,"ADDRESS":"政安路２５０巷２０２號","OBJECTID":372198},"geometry":{"x":169996.15000000224,"y":2548828.1800000016}},{"attributes":{"ID":372209,"DIS_CODE":0,"TOWNNAME":"安南區","LI":"溪心里","LIN":"10鄰","STREET":"仁安八街","SECT":" ","MAREA":" ","LANE":"２８巷","ALLEY":" ","HOUSE_NO":"１號","E_COORD97":166217.23999999999,"N_COORD97":2549848.9700000002,"ADDRESS":"仁安八街２８巷１號","OBJECTID":372199},"geometry":{"x":166217.24000000115,"y":2549848.9700000007}},{"attributes":{"ID":372210,"DIS_CODE":0,"TOWNNAME":"安南區","LI":"溪心里","LIN":"10鄰","STREET":"仁安八街","SECT":" ","MAREA":" ","LANE":"２８巷","ALLEY":" ","HOUSE_NO":"２號","E_COORD97":166204.79999999999,"N_COORD97":2549831.6099999999,"ADDRESS":"仁安八街２８巷２號","OBJECTID":372200},"geometry":{"x":166204.80000000075,"y":2549831.6100000013}}]}