{"displayFieldName":"TOWNNAME","fieldAliases":{"ID":"ID","DIS_CODE":"DIS_CODE","TOWNNAME":"TOWNNAME","LI":"LI","LIN":"LIN","STREET":"STREET","SECT":"SECT","MAREA":"MAREA","LANE":"LANE","ALLEY":"ALLEY","HOUSE_NO":"HOUSE_NO","E_COORD97":"E_COORD97","N_COORD97":"N_COORD97","ADDRESS":"ADDRESS","OBJECTID":"OBJECTID"},"geometryType":"esriGeometryPoint","spatialReference":{"wkid":102443,"latestWkid":3826},"fields":[{"name":"ID","type":"esriFieldTypeDouble","alias":"ID"},{"name":"DIS_CODE","type":"esriFieldTypeInteger","alias":"DIS_CODE"},{"name":"TOWNNAME","type":"esriFieldTypeString","alias":"TOWNNAME","length":8},{"name":"LI","type":"esriFieldTypeString","alias":"LI","length":8},{"name":"LIN","type":"esriFieldTypeString","alias":"LIN","length":12},{"name":"STREET","type":"esriFieldTypeString","alias":"STREET","length":20},{"name":"SECT","type":"esriFieldTypeString","alias":"SECT","length":8},{"name":"MAREA","type":"esriFieldTypeString","alias":"MAREA","length":12},{"name":"LANE","type":"esriFieldTypeString","alias":"LANE","length":10},{"name":"ALLEY","type":"esriFieldTypeString","alias":"ALLEY","length":10},{"name":"HOUSE_NO","type":"esriFieldTypeString","alias":"HOUSE_NO","length":20},{"name":"E_COORD97","type":"esriFieldTypeDouble","alias":"E_COORD97"},{"name":"N_COORD97","type":"esriFieldTypeDouble","alias":"N_COORD97"},{"name":"ADDRESS","type":"esriFieldTypeString","alias":"ADDRESS","length":50},{"name":"OBJECTID","type":"esriFieldTypeOID","alias":"OBJECTID"}],"features":[{"attributes":{"ID":469026,"DIS_CODE":0,"TOWNNAME":"關廟區","LI":"北花里","LIN":"5鄰","STREET":"園東街","SECT":" ","MAREA":" ","LANE":" ","ALLEY":" ","HOUSE_NO":"１４５號","E_COORD97":182027.51000000001,"N_COORD97":2540237.25,"ADDRESS":"園東街１４５號","OBJECTID":469001},"geometry":{"x":182027.51000000071,"y":2540237.25}},{"attributes":{"ID":469027,"DIS_CODE":0,"TOWNNAME":"關廟區","LI":"南花里","LIN":"5鄰","STREET":"花園一街","SECT":" ","MAREA":" ","LANE":" ","ALLEY":" ","HOUSE_NO":"３７號","E_COORD97":182096.23999999999,"N_COORD97":2540160.25,"ADDRESS":"花園一街３７號","OBJECTID":469002},"geometry":{"x":182096.24000000115,"y":2540160.25}},{"attributes":{"ID":469028,"DIS_CODE":0,"TOWNNAME":"關廟區","LI":"布袋里","LIN":"5鄰","STREET":"長文街","SECT":" ","MAREA":" ","LANE":" ","ALLEY":" ","HOUSE_NO":"５９號","E_COORD97":183006.39000000001,"N_COORD97":2535472.2999999998,"ADDRESS":"長文街５９號","OBJECTID":469003},"geometry":{"x":183006.3900000006,"y":2535472.2999999989}},{"attributes":{"ID":469029,"DIS_CODE":0,"TOWNNAME":"關廟區","LI":"山西里","LIN":"5鄰","STREET":"文衡路","SECT":" ","MAREA":" ","LANE":" ","ALLEY":" ","HOUSE_NO":"８７號","E_COORD97":180894.29000000001,"N_COORD97":2540276.3300000001,"ADDRESS":"文衡路８７號","OBJECTID":469004},"geometry":{"x":180894.29000000004,"y":2540276.3300000019}},{"attributes":{"ID":469030,"DIS_CODE":0,"TOWNNAME":"關廟區","LI":"松腳里","LIN":"5鄰","STREET":"中山路","SECT":"一段","MAREA":" ","LANE":" ","ALLEY":" ","HOUSE_NO":"９號","E_COORD97":182092.26000000001,"N_COORD97":2539944.2799999998,"ADDRESS":"中山路一段９號","OBJECTID":469005},"geometry":{"x":182092.26000000071,"y":2539944.2800000012}},{"attributes":{"ID":469031,"DIS_CODE":0,"TOWNNAME":"關廟區","LI":"香洋里","LIN":"5鄰","STREET":"忠孝街","SECT":" ","MAREA":" ","LANE":" ","ALLEY":" ","HOUSE_NO":"１１０號","E_COORD97":181019.14000000001,"N_COORD97":2540253.25,"ADDRESS":"忠孝街１１０號","OBJECTID":469006},"geometry":{"x":181019.14000000153,"y":2540253.2500000019}},{"attributes":{"ID":469032,"DIS_CODE":0,"TOWNNAME":"關廟區","LI":"新埔里","LIN":"5鄰","STREET":"新埔三街","SECT":" ","MAREA":" ","LANE":" ","ALLEY":" ","HOUSE_NO":"１３號","E_COORD97":181170.76999999999,"N_COORD97":2540961.25,"ADDRESS":"新埔三街１３號","OBJECTID":469007},"geometry":{"x":181170.77000000142,"y":2540961.2500000037}},{"attributes":{"ID":469033,"DIS_CODE":0,"TOWNNAME":"關廟區","LI":"關廟里","LIN":"5鄰","STREET":"文化街","SECT":" ","MAREA":" ","LANE":" ","ALLEY":" ","HOUSE_NO":"１５號","E_COORD97":180708.89000000001,"N_COORD97":2539970.3300000001,"ADDRESS":"文化街１５號","OBJECTID":469008},"geometry":{"x":180708.89000000153,"y":2539970.3299999982}},{"attributes":{"ID":469034,"DIS_CODE":0,"TOWNNAME":"關廟區","LI":"北勢里","LIN":"5鄰","STREET":"成功路","SECT":" ","MAREA":" ","LANE":" ","ALLEY":" ","HOUSE_NO":"１２１號","E_COORD97":181569.97,"N_COORD97":2540445.27,"ADDRESS":"成功路１２１號","OBJECTID":469009},"geometry":{"x":181569.97000000067,"y":2540445.2700000033}},{"attributes":{"ID":469035,"DIS_CODE":0,"TOWNNAME":"關廟區","LI":"北勢里","LIN":"5鄰","STREET":"成功路","SECT":" ","MAREA":" ","LANE":" ","ALLEY":" ","HOUSE_NO":"１０１號","E_COORD97":181606.47,"N_COORD97":2540434.27,"ADDRESS":"成功路１０１號","OBJECTID":469010},"geometry":{"x":181606.46999999974,"y":2540434.2699999996}},{"attributes":{"ID":469036,"DIS_CODE":0,"TOWNNAME":"關廟區","LI":"南花里","LIN":"5鄰","STREET":"旺萊路","SECT":" ","MAREA":" ","LANE":" ","ALLEY":" ","HOUSE_NO":"５０１號","E_COORD97":182160.73999999999,"N_COORD97":2540116.25,"ADDRESS":"旺萊路５０１號","OBJECTID":469011},"geometry":{"x":182160.74000000115,"y":2540116.25}},{"attributes":{"ID":469037,"DIS_CODE":0,"TOWNNAME":"關廟區","LI":"香洋里","LIN":"5鄰","STREET":"南雄路","SECT":"二段","MAREA":" ","LANE":" ","ALLEY":" ","HOUSE_NO":"９９號","E_COORD97":181126.64000000001,"N_COORD97":2540268.2799999998,"ADDRESS":"南雄路二段９９號","OBJECTID":469012},"geometry":{"x":181126.6400000006,"y":2540268.2799999975}},{"attributes":{"ID":469038,"DIS_CODE":0,"TOWNNAME":"關廟區","LI":"香洋里","LIN":"5鄰","STREET":"南雄路","SECT":"二段","MAREA":" ","LANE":" ","ALLEY":" ","HOUSE_NO":"１０３號","E_COORD97":181129.48999999999,"N_COORD97":2540277.2799999998,"ADDRESS":"南雄路二段１０３號","OBJECTID":469013},"geometry":{"x":181129.49000000115,"y":2540277.2799999993}},{"attributes":{"ID":469039,"DIS_CODE":0,"TOWNNAME":"關廟區","LI":"埤頭里","LIN":"5鄰","STREET":"關新路","SECT":"一段","MAREA":" ","LANE":" ","ALLEY":" ","HOUSE_NO":"８６９號","E_COORD97":179075.76999999999,"N_COORD97":2543972.2999999998,"ADDRESS":"關新路一段８６９號","OBJECTID":469014},"geometry":{"x":179075.77000000048,"y":2543972.3000000045}},{"attributes":{"ID":469040,"DIS_CODE":0,"TOWNNAME":"關廟區","LI":"埤頭里","LIN":"5鄰","STREET":"關新路","SECT":"一段","MAREA":" ","LANE":" ","ALLEY":" ","HOUSE_NO":"８６７號","E_COORD97":179076.57000000001,"N_COORD97":2543968.2999999998,"ADDRESS":"關新路一段８６７號","OBJECTID":469015},"geometry":{"x":179076.57000000123,"y":2543968.3000000007}},{"attributes":{"ID":469041,"DIS_CODE":0,"TOWNNAME":"關廟區","LI":"龜洞里","LIN":"5鄰","STREET":"南橋街","SECT":" ","MAREA":" ","LANE":" ","ALLEY":" ","HOUSE_NO":"５１號","E_COORD97":182153.84,"N_COORD97":2532619.2999999998,"ADDRESS":"南橋街５１號","OBJECTID":469016},"geometry":{"x":182153.84000000171,"y":2532619.3000000026}},{"attributes":{"ID":469042,"DIS_CODE":0,"TOWNNAME":"關廟區","LI":"埤頭里","LIN":"5鄰","STREET":"關新路","SECT":"二段","MAREA":" ","LANE":" ","ALLEY":" ","HOUSE_NO":"３０號","E_COORD97":179101.07000000001,"N_COORD97":2544094.2999999998,"ADDRESS":"關新路二段３０號","OBJECTID":469017},"geometry":{"x":179101.0700000003,"y":2544094.3000000045}},{"attributes":{"ID":469043,"DIS_CODE":0,"TOWNNAME":"關廟區","LI":"埤頭里","LIN":"5鄰","STREET":"關新一街","SECT":" ","MAREA":" ","LANE":" ","ALLEY":" ","HOUSE_NO":"１號","E_COORD97":179137.32000000001,"N_COORD97":2543909.2999999998,"ADDRESS":"關新一街１號","OBJECTID":469018},"geometry":{"x":179137.32000000123,"y":2543909.3000000026}},{"attributes":{"ID":469044,"DIS_CODE":0,"TOWNNAME":"關廟區","LI":"埤頭里","LIN":"5鄰","STREET":"關新路","SECT":"一段","MAREA":" ","LANE":" ","ALLEY":" ","HOUSE_NO":"８７３號","E_COORD97":179074.57000000001,"N_COORD97":2543982.2999999998,"ADDRESS":"關新路一段８７３號","OBJECTID":469019},"geometry":{"x":179074.57000000123,"y":2543982.3000000045}},{"attributes":{"ID":469045,"DIS_CODE":0,"TOWNNAME":"關廟區","LI":"埤頭里","LIN":"5鄰","STREET":"關新路","SECT":"一段","MAREA":" ","LANE":" ","ALLEY":" ","HOUSE_NO":"７７８號","E_COORD97":179127.32000000001,"N_COORD97":2543881.29,"ADDRESS":"關新路一段７７８號","OBJECTID":469020},"geometry":{"x":179127.32000000123,"y":2543881.2899999991}},{"attributes":{"ID":469046,"DIS_CODE":0,"TOWNNAME":"關廟區","LI":"關廟里","LIN":"5鄰","STREET":"文化街","SECT":" ","MAREA":" ","LANE":" ","ALLEY":" ","HOUSE_NO":"２５號","E_COORD97":180726.89000000001,"N_COORD97":2539960.3300000001,"ADDRESS":"文化街２５號","OBJECTID":469021},"geometry":{"x":180726.88999999966,"y":2539960.3300000038}},{"attributes":{"ID":469047,"DIS_CODE":0,"TOWNNAME":"關廟區","LI":"關廟里","LIN":"5鄰","STREET":"文化街","SECT":" ","MAREA":" ","LANE":" ","ALLEY":" ","HOUSE_NO":"４９號","E_COORD97":180697.39000000001,"N_COORD97":2539934.3300000001,"ADDRESS":"文化街４９號","OBJECTID":469022},"geometry":{"x":180697.3900000006,"y":2539934.3300000019}},{"attributes":{"ID":469048,"DIS_CODE":0,"TOWNNAME":"關廟區","LI":"香洋里","LIN":"5鄰","STREET":"南雄路","SECT":"二段","MAREA":" ","LANE":" ","ALLEY":" ","HOUSE_NO":"８７號","E_COORD97":181120.54000000001,"N_COORD97":2540236.2799999998,"ADDRESS":"南雄路二段８７號","OBJECTID":469023},"geometry":{"x":181120.54000000097,"y":2540236.2800000012}},{"attributes":{"ID":469049,"DIS_CODE":0,"TOWNNAME":"關廟區","LI":"埤頭里","LIN":"5鄰","STREET":"關新路","SECT":"一段","MAREA":" ","LANE":" ","ALLEY":" ","HOUSE_NO":"７９８號","E_COORD97":179139.22,"N_COORD97":2543919.2999999998,"ADDRESS":"關新路一段７９８號","OBJECTID":469024},"geometry":{"x":179139.22000000067,"y":2543919.3000000026}},{"attributes":{"ID":469050,"DIS_CODE":0,"TOWNNAME":"關廟區","LI":"關廟里","LIN":"5鄰","STREET":"文化街","SECT":" ","MAREA":" ","LANE":" ","ALLEY":" ","HOUSE_NO":"６３號","E_COORD97":180719.98999999999,"N_COORD97":2539924.3300000001,"ADDRESS":"文化街６３號","OBJECTID":469025},"geometry":{"x":180719.99000000022,"y":2539924.3300000019}},{"attributes":{"ID":469051,"DIS_CODE":0,"TOWNNAME":"關廟區","LI":"關廟里","LIN":"5鄰","STREET":"文化街","SECT":" ","MAREA":" ","LANE":" ","ALLEY":" ","HOUSE_NO":"５３號","E_COORD97":180706.59,"N_COORD97":2539934.3300000001,"ADDRESS":"文化街５３號","OBJECTID":469026},"geometry":{"x":180706.59000000078,"y":2539934.3300000019}},{"attributes":{"ID":469052,"DIS_CODE":0,"TOWNNAME":"關廟區","LI":"埤頭里","LIN":"5鄰","STREET":"關新路","SECT":"一段","MAREA":" ","LANE":" ","ALLEY":" ","HOUSE_NO":"８７５號","E_COORD97":179074.57000000001,"N_COORD97":2543985.2999999998,"ADDRESS":"關新路一段８７５號","OBJECTID":469027},"geometry":{"x":179074.57000000123,"y":2543985.3000000007}},{"attributes":{"ID":469053,"DIS_CODE":0,"TOWNNAME":"關廟區","LI":"關廟里","LIN":"5鄰","STREET":"文化街","SECT":" ","MAREA":" ","LANE":" ","ALLEY":" ","HOUSE_NO":"２７號","E_COORD97":180721.59,"N_COORD97":2539959.3300000001,"ADDRESS":"文化街２７號","OBJECTID":469028},"geometry":{"x":180721.59000000078,"y":2539959.3300000001}},{"attributes":{"ID":469054,"DIS_CODE":0,"TOWNNAME":"關廟區","LI":"關廟里","LIN":"5鄰","STREET":"文化街","SECT":" ","MAREA":" ","LANE":" ","ALLEY":" ","HOUSE_NO":"３７號","E_COORD97":180699.69,"N_COORD97":2539959.3300000001,"ADDRESS":"文化街３７號","OBJECTID":469029},"geometry":{"x":180699.69000000134,"y":2539959.3300000001}},{"attributes":{"ID":469055,"DIS_CODE":0,"TOWNNAME":"關廟區","LI":"關廟里","LIN":"5鄰","STREET":"文化街","SECT":" ","MAREA":" ","LANE":" ","ALLEY":" ","HOUSE_NO":"５７號","E_COORD97":180715.09,"N_COORD97":2539935.3300000001,"ADDRESS":"文化街５７號","OBJECTID":469030},"geometry":{"x":180715.09000000078,"y":2539935.3300000001}},{"attributes":{"ID":469056,"DIS_CODE":0,"TOWNNAME":"關廟區","LI":"關廟里","LIN":"5鄰","STREET":"文化街","SECT":" ","MAREA":" ","LANE":" ","ALLEY":" ","HOUSE_NO":"５１號","E_COORD97":180702.39000000001,"N_COORD97":2539934.3300000001,"ADDRESS":"文化街５１號","OBJECTID":469031},"geometry":{"x":180702.3900000006,"y":2539934.3300000019}},{"attributes":{"ID":469057,"DIS_CODE":0,"TOWNNAME":"關廟區","LI":"關廟里","LIN":"5鄰","STREET":"文化街","SECT":" ","MAREA":" ","LANE":" ","ALLEY":" ","HOUSE_NO":"４７號","E_COORD97":180693.19,"N_COORD97":2539934.3300000001,"ADDRESS":"文化街４７號","OBJECTID":469032},"geometry":{"x":180693.19000000134,"y":2539934.3300000019}},{"attributes":{"ID":469058,"DIS_CODE":0,"TOWNNAME":"關廟區","LI":"關廟里","LIN":"5鄰","STREET":"文化街","SECT":" ","MAREA":" ","LANE":" ","ALLEY":" ","HOUSE_NO":"８５號","E_COORD97":180701.98999999999,"N_COORD97":2539894.3300000001,"ADDRESS":"文化街８５號","OBJECTID":469033},"geometry":{"x":180701.98999999929,"y":2539894.3300000001}},{"attributes":{"ID":469059,"DIS_CODE":0,"TOWNNAME":"關廟區","LI":"埤頭里","LIN":"5鄰","STREET":"關新路","SECT":"一段","MAREA":" ","LANE":" ","ALLEY":" ","HOUSE_NO":"８００號","E_COORD97":179138.42000000001,"N_COORD97":2543935.2999999998,"ADDRESS":"關新路一段８００號","OBJECTID":469034},"geometry":{"x":179138.41999999993,"y":2543935.3000000026}},{"attributes":{"ID":469060,"DIS_CODE":0,"TOWNNAME":"關廟區","LI":"埤頭里","LIN":"5鄰","STREET":"關新路","SECT":"一段","MAREA":" ","LANE":" ","ALLEY":" ","HOUSE_NO":"７８２號","E_COORD97":179121.07000000001,"N_COORD97":2543897.2999999998,"ADDRESS":"關新路一段７８２號","OBJECTID":469035},"geometry":{"x":179121.0700000003,"y":2543897.2999999989}},{"attributes":{"ID":469061,"DIS_CODE":0,"TOWNNAME":"關廟區","LI":"香洋里","LIN":"5鄰","STREET":"中正路","SECT":" ","MAREA":" ","LANE":" ","ALLEY":" ","HOUSE_NO":"９９５號","E_COORD97":181045.95999999999,"N_COORD97":2540306.25,"ADDRESS":"中正路９９５號","OBJECTID":469036},"geometry":{"x":181045.95999999996,"y":2540306.25}},{"attributes":{"ID":469062,"DIS_CODE":0,"TOWNNAME":"關廟區","LI":"南花里","LIN":"5鄰","STREET":"園東街","SECT":" ","MAREA":" ","LANE":" ","ALLEY":" ","HOUSE_NO":"９６號","E_COORD97":182027.35999999999,"N_COORD97":2540144.25,"ADDRESS":"園東街９６號","OBJECTID":469037},"geometry":{"x":182027.36000000127,"y":2540144.2500000019}},{"attributes":{"ID":469063,"DIS_CODE":0,"TOWNNAME":"關廟區","LI":"關廟里","LIN":"5鄰","STREET":"中山路","SECT":"二段","MAREA":" ","LANE":" ","ALLEY":" ","HOUSE_NO":"２１１號","E_COORD97":180408.16,"N_COORD97":2540115.2799999998,"ADDRESS":"中山路二段２１１號","OBJECTID":469038},"geometry":{"x":180408.16000000108,"y":2540115.2799999993}},{"attributes":{"ID":469064,"DIS_CODE":0,"TOWNNAME":"關廟區","LI":"關廟里","LIN":"5鄰","STREET":"中山路","SECT":"二段","MAREA":" ","LANE":" ","ALLEY":" ","HOUSE_NO":"２３９號","E_COORD97":180070.76000000001,"N_COORD97":2540170.2799999998,"ADDRESS":"中山路二段２３９號","OBJECTID":469039},"geometry":{"x":180070.75999999885,"y":2540170.2800000031}},{"attributes":{"ID":469065,"DIS_CODE":0,"TOWNNAME":"關廟區","LI":"北花里","LIN":"5鄰","STREET":"花園一街","SECT":" ","MAREA":" ","LANE":" ","ALLEY":" ","HOUSE_NO":"５６號","E_COORD97":182039.04000000001,"N_COORD97":2540184.25,"ADDRESS":"花園一街５６號","OBJECTID":469040},"geometry":{"x":182039.0400000019,"y":2540184.25}},{"attributes":{"ID":469066,"DIS_CODE":0,"TOWNNAME":"關廟區","LI":"新光里","LIN":"5鄰","STREET":"北寮街","SECT":" ","MAREA":" ","LANE":" ","ALLEY":" ","HOUSE_NO":"２３號","E_COORD97":184013.97,"N_COORD97":2541806.2999999998,"ADDRESS":"北寮街２３號","OBJECTID":469041},"geometry":{"x":184013.96999999881,"y":2541806.3000000026}},{"attributes":{"ID":469067,"DIS_CODE":0,"TOWNNAME":"關廟區","LI":"關廟里","LIN":"5鄰","STREET":"中山路","SECT":"二段","MAREA":" ","LANE":" ","ALLEY":" ","HOUSE_NO":"２３５號","E_COORD97":180175.56,"N_COORD97":2540163.2799999998,"ADDRESS":"中山路二段２３５號","OBJECTID":469042},"geometry":{"x":180175.56000000052,"y":2540163.2800000031}},{"attributes":{"ID":469068,"DIS_CODE":0,"TOWNNAME":"關廟區","LI":"龜洞里","LIN":"5鄰","STREET":"南橋街","SECT":" ","MAREA":" ","LANE":" ","ALLEY":" ","HOUSE_NO":"９０號","E_COORD97":182104.64000000001,"N_COORD97":2532498.2999999998,"ADDRESS":"南橋街９０號","OBJECTID":469043},"geometry":{"x":182104.6400000006,"y":2532498.3000000007}},{"attributes":{"ID":469069,"DIS_CODE":0,"TOWNNAME":"關廟區","LI":"關廟里","LIN":"5鄰","STREET":"文化街","SECT":" ","MAREA":" ","LANE":" ","ALLEY":" ","HOUSE_NO":"３號","E_COORD97":180706.54000000001,"N_COORD97":2539995.3300000001,"ADDRESS":"文化街３號","OBJECTID":469044},"geometry":{"x":180706.53999999911,"y":2539995.3300000019}},{"attributes":{"ID":469070,"DIS_CODE":0,"TOWNNAME":"關廟區","LI":"新埔里","LIN":"5鄰","STREET":"新埔三街","SECT":" ","MAREA":" ","LANE":" ","ALLEY":" ","HOUSE_NO":"１５號","E_COORD97":181166.17000000001,"N_COORD97":2540962.25,"ADDRESS":"新埔三街１５號","OBJECTID":469045},"geometry":{"x":181166.16999999993,"y":2540962.2500000019}},{"attributes":{"ID":469071,"DIS_CODE":0,"TOWNNAME":"佳里區","LI":"安西里","LIN":"13鄰","STREET":"長安街","SECT":" ","MAREA":" ","LANE":" ","ALLEY":" ","HOUSE_NO":"６５號","E_COORD97":165412.66,"N_COORD97":2562411.04,"ADDRESS":"長安街６５號","OBJECTID":469046},"geometry":{"x":165412.66000000108,"y":2562411.0399999991}},{"attributes":{"ID":469072,"DIS_CODE":0,"TOWNNAME":"佳里區","LI":"安西里","LIN":"13鄰","STREET":"長安街","SECT":" ","MAREA":" ","LANE":" ","ALLEY":" ","HOUSE_NO":"６７號","E_COORD97":165412.98000000001,"N_COORD97":2562415.02,"ADDRESS":"長安街６７號","OBJECTID":469047},"geometry":{"x":165412.98000000045,"y":2562415.0199999996}},{"attributes":{"ID":469073,"DIS_CODE":0,"TOWNNAME":"關廟區","LI":"香洋里","LIN":"5鄰","STREET":"南雄路","SECT":"二段","MAREA":" ","LANE":" ","ALLEY":" ","HOUSE_NO":"７９號","E_COORD97":181116.34,"N_COORD97":2540216.2799999998,"ADDRESS":"南雄路二段７９號","OBJECTID":469048},"geometry":{"x":181116.34000000171,"y":2540216.2799999993}},{"attributes":{"ID":469074,"DIS_CODE":0,"TOWNNAME":"關廟區","LI":"關廟里","LIN":"5鄰","STREET":"中山路","SECT":"二段","MAREA":" ","LANE":" ","ALLEY":" ","HOUSE_NO":"２０７號","E_COORD97":180456.56,"N_COORD97":2540106.2799999998,"ADDRESS":"中山路二段２０７號","OBJECTID":469049},"geometry":{"x":180456.55999999959,"y":2540106.2800000012}},{"attributes":{"ID":469075,"DIS_CODE":0,"TOWNNAME":"關廟區","LI":"五甲里","LIN":"5鄰","STREET":"五福路","SECT":" ","MAREA":" ","LANE":" ","ALLEY":" ","HOUSE_NO":"３５號","E_COORD97":181341.51999999999,"N_COORD97":2538888.25,"ADDRESS":"五福路３５號","OBJECTID":469050},"geometry":{"x":181341.51999999955,"y":2538888.25}},{"attributes":{"ID":469076,"DIS_CODE":0,"TOWNNAME":"關廟區","LI":"關廟里","LIN":"5鄰","STREET":"中山路","SECT":"二段","MAREA":" ","LANE":" ","ALLEY":" ","HOUSE_NO":"１５１號","E_COORD97":180810.01000000001,"N_COORD97":2540036.6800000002,"ADDRESS":"中山路二段１５１號","OBJECTID":469051},"geometry":{"x":180810.01000000164,"y":2540036.6800000016}},{"attributes":{"ID":469077,"DIS_CODE":0,"TOWNNAME":"關廟區","LI":"南花里","LIN":"5鄰","STREET":"園東街","SECT":" ","MAREA":" ","LANE":" ","ALLEY":" ","HOUSE_NO":"８８號","E_COORD97":182025.06,"N_COORD97":2540130.25,"ADDRESS":"園東街８８號","OBJECTID":469052},"geometry":{"x":182025.06000000052,"y":2540130.2499999981}},{"attributes":{"ID":469078,"DIS_CODE":0,"TOWNNAME":"新化區","LI":"中央里","LIN":"5鄰","STREET":"大同街","SECT":" ","MAREA":" ","LANE":" ","ALLEY":" ","HOUSE_NO":"１３１號之１","E_COORD97":178951.45999999999,"N_COORD97":2548366.2599999998,"ADDRESS":"大同街１３１號之１","OBJECTID":469053},"geometry":{"x":178951.46000000089,"y":2548366.2600000016}},{"attributes":{"ID":469079,"DIS_CODE":0,"TOWNNAME":"新化區","LI":"中央里","LIN":"5鄰","STREET":"大同街","SECT":" ","MAREA":" ","LANE":" ","ALLEY":" ","HOUSE_NO":"１３９號","E_COORD97":178964.92999999999,"N_COORD97":2548385.25,"ADDRESS":"大同街１３９號","OBJECTID":469054},"geometry":{"x":178964.93000000063,"y":2548385.25}},{"attributes":{"ID":469080,"DIS_CODE":0,"TOWNNAME":"新化區","LI":"中央里","LIN":"5鄰","STREET":"大同街","SECT":" ","MAREA":" ","LANE":" ","ALLEY":" ","HOUSE_NO":"１４１號","E_COORD97":178964.03,"N_COORD97":2548388.25,"ADDRESS":"大同街１４１號","OBJECTID":469055},"geometry":{"x":178964.03000000026,"y":2548388.25}},{"attributes":{"ID":469081,"DIS_CODE":0,"TOWNNAME":"新化區","LI":"豐榮里","LIN":"5鄰","STREET":"中山路","SECT":" ","MAREA":" ","LANE":" ","ALLEY":" ","HOUSE_NO":"７８５號","E_COORD97":177764.60999999999,"N_COORD97":2548388.25,"ADDRESS":"中山路７８５號","OBJECTID":469056},"geometry":{"x":177764.61000000034,"y":2548388.25}},{"attributes":{"ID":469082,"DIS_CODE":0,"TOWNNAME":"新化區","LI":"中央里","LIN":"5鄰","STREET":"中山路","SECT":" ","MAREA":" ","LANE":" ","ALLEY":" ","HOUSE_NO":"３１３號","E_COORD97":178939.10999999999,"N_COORD97":2548409.25,"ADDRESS":"中山路３１３號","OBJECTID":469057},"geometry":{"x":178939.11000000127,"y":2548409.25}},{"attributes":{"ID":469083,"DIS_CODE":0,"TOWNNAME":"南區","LI":"喜東里","LIN":"5鄰","STREET":"喜樹路","SECT":" ","MAREA":" ","LANE":" ","ALLEY":" ","HOUSE_NO":"４５號之１１","E_COORD97":165909.60999999999,"N_COORD97":2538636.4300000002,"ADDRESS":"喜樹路４５號之１１","OBJECTID":469058},"geometry":{"x":165909.61000000127,"y":2538636.4299999997}},{"attributes":{"ID":469084,"DIS_CODE":0,"TOWNNAME":"南區","LI":"喜東里","LIN":"5鄰","STREET":"喜樹路","SECT":" ","MAREA":" ","LANE":" ","ALLEY":" ","HOUSE_NO":"４５號之２","E_COORD97":165906.32999999999,"N_COORD97":2538671.4300000002,"ADDRESS":"喜樹路４５號之２","OBJECTID":469059},"geometry":{"x":165906.33000000101,"y":2538671.4300000016}},{"attributes":{"ID":469085,"DIS_CODE":0,"TOWNNAME":"南區","LI":"喜東里","LIN":"5鄰","STREET":"喜樹路","SECT":" ","MAREA":" ","LANE":" ","ALLEY":" ","HOUSE_NO":"４５號之３","E_COORD97":165906.37,"N_COORD97":2538666.7599999998,"ADDRESS":"喜樹路４５號之３","OBJECTID":469060},"geometry":{"x":165906.37000000011,"y":2538666.7600000016}},{"attributes":{"ID":469086,"DIS_CODE":0,"TOWNNAME":"南區","LI":"喜東里","LIN":"5鄰","STREET":"喜樹路","SECT":" ","MAREA":" ","LANE":" ","ALLEY":" ","HOUSE_NO":"４５號之５","E_COORD97":165906.76999999999,"N_COORD97":2538662.7799999998,"ADDRESS":"喜樹路４５號之５","OBJECTID":469061},"geometry":{"x":165906.76999999955,"y":2538662.7800000012}},{"attributes":{"ID":469087,"DIS_CODE":0,"TOWNNAME":"南區","LI":"喜東里","LIN":"5鄰","STREET":"喜樹路","SECT":" ","MAREA":" ","LANE":" ","ALLEY":" ","HOUSE_NO":"４５號之６","E_COORD97":165907.31,"N_COORD97":2538658.8399999999,"ADDRESS":"喜樹路４５號之６","OBJECTID":469062},"geometry":{"x":165907.31000000052,"y":2538658.8400000017}},{"attributes":{"ID":469088,"DIS_CODE":0,"TOWNNAME":"南區","LI":"喜東里","LIN":"5鄰","STREET":"喜樹路","SECT":" ","MAREA":" ","LANE":" ","ALLEY":" ","HOUSE_NO":"４５號之７","E_COORD97":165908.07999999999,"N_COORD97":2538653.9300000002,"ADDRESS":"喜樹路４５號之７","OBJECTID":469063},"geometry":{"x":165908.08000000101,"y":2538653.9300000034}},{"attributes":{"ID":469089,"DIS_CODE":0,"TOWNNAME":"南區","LI":"喜東里","LIN":"5鄰","STREET":"喜樹路","SECT":" ","MAREA":" ","LANE":" ","ALLEY":" ","HOUSE_NO":"４５號之８","E_COORD97":165908.07999999999,"N_COORD97":2538649.7799999998,"ADDRESS":"喜樹路４５號之８","OBJECTID":469064},"geometry":{"x":165908.08000000101,"y":2538649.7799999993}},{"attributes":{"ID":469090,"DIS_CODE":0,"TOWNNAME":"南區","LI":"喜東里","LIN":"5鄰","STREET":"喜樹路","SECT":" ","MAREA":" ","LANE":" ","ALLEY":" ","HOUSE_NO":"４５號之９","E_COORD97":165908.73999999999,"N_COORD97":2538645.0699999998,"ADDRESS":"喜樹路４５號之９","OBJECTID":469065},"geometry":{"x":165908.74000000115,"y":2538645.0700000022}},{"attributes":{"ID":469091,"DIS_CODE":0,"TOWNNAME":"南區","LI":"白雪里","LIN":"5鄰","STREET":"利南街","SECT":" ","MAREA":" ","LANE":" ","ALLEY":" ","HOUSE_NO":"４１號","E_COORD97":166840.82000000001,"N_COORD97":2541150.2000000002,"ADDRESS":"利南街４１號","OBJECTID":469066},"geometry":{"x":166840.82000000123,"y":2541150.1999999974}},{"attributes":{"ID":469092,"DIS_CODE":0,"TOWNNAME":"北區","LI":"新勝里","LIN":"5鄰","STREET":"北園街","SECT":" ","MAREA":" ","LANE":" ","ALLEY":" ","HOUSE_NO":"５５號","E_COORD97":170355.01000000001,"N_COORD97":2545575.3799999999,"ADDRESS":"北園街５５號","OBJECTID":469067},"geometry":{"x":170355.00999999978,"y":2545575.379999999}},{"attributes":{"ID":469093,"DIS_CODE":0,"TOWNNAME":"北區","LI":"新勝里","LIN":"5鄰","STREET":"北園街","SECT":" ","MAREA":" ","LANE":" ","ALLEY":" ","HOUSE_NO":"５７號","E_COORD97":170355.32000000001,"N_COORD97":2545579.96,"ADDRESS":"北園街５７號","OBJECTID":469068},"geometry":{"x":170355.3200000003,"y":2545579.9600000009}},{"attributes":{"ID":469094,"DIS_CODE":0,"TOWNNAME":"北區","LI":"新勝里","LIN":"5鄰","STREET":"北園街","SECT":" ","MAREA":" ","LANE":" ","ALLEY":" ","HOUSE_NO":"５９號","E_COORD97":170355.09,"N_COORD97":2545582.96,"ADDRESS":"北園街５９號","OBJECTID":469069},"geometry":{"x":170355.08999999985,"y":2545582.9600000028}},{"attributes":{"ID":469095,"DIS_CODE":0,"TOWNNAME":"北區","LI":"新勝里","LIN":"5鄰","STREET":"北園街","SECT":" ","MAREA":" ","LANE":" ","ALLEY":" ","HOUSE_NO":"６１號","E_COORD97":170354.14000000001,"N_COORD97":2545588.04,"ADDRESS":"北園街６１號","OBJECTID":469070},"geometry":{"x":170354.13999999966,"y":2545588.0399999991}},{"attributes":{"ID":469096,"DIS_CODE":0,"TOWNNAME":"北區","LI":"新勝里","LIN":"5鄰","STREET":"北園街","SECT":" ","MAREA":" ","LANE":" ","ALLEY":" ","HOUSE_NO":"６３號","E_COORD97":170364.45999999999,"N_COORD97":2545594.6099999999,"ADDRESS":"北園街６３號","OBJECTID":469071},"geometry":{"x":170364.45999999996,"y":2545594.6099999994}},{"attributes":{"ID":469097,"DIS_CODE":0,"TOWNNAME":"北區","LI":"新勝里","LIN":"5鄰","STREET":"北園街","SECT":" ","MAREA":" ","LANE":" ","ALLEY":" ","HOUSE_NO":"６５號","E_COORD97":170363.81,"N_COORD97":2545598.5800000001,"ADDRESS":"北園街６５號","OBJECTID":469072},"geometry":{"x":170363.81000000052,"y":2545598.5800000019}},{"attributes":{"ID":469098,"DIS_CODE":0,"TOWNNAME":"北區","LI":"新勝里","LIN":"5鄰","STREET":"北園街","SECT":" ","MAREA":" ","LANE":" ","ALLEY":" ","HOUSE_NO":"６７號","E_COORD97":170362.95999999999,"N_COORD97":2545604.3300000001,"ADDRESS":"北園街６７號","OBJECTID":469073},"geometry":{"x":170362.95999999903,"y":2545604.3300000001}},{"attributes":{"ID":469099,"DIS_CODE":0,"TOWNNAME":"北區","LI":"新勝里","LIN":"5鄰","STREET":"北園街","SECT":" ","MAREA":" ","LANE":" ","ALLEY":" ","HOUSE_NO":"６９號","E_COORD97":170362.51000000001,"N_COORD97":2545608.75,"ADDRESS":"北園街６９號","OBJECTID":469074},"geometry":{"x":170362.51000000164,"y":2545608.75}},{"attributes":{"ID":469100,"DIS_CODE":0,"TOWNNAME":"北區","LI":"新勝里","LIN":"5鄰","STREET":"北園街","SECT":" ","MAREA":" ","LANE":" ","ALLEY":" ","HOUSE_NO":"７１號","E_COORD97":170362.44,"N_COORD97":2545613.6899999999,"ADDRESS":"北園街７１號","OBJECTID":469075},"geometry":{"x":170362.44000000134,"y":2545613.6900000013}},{"attributes":{"ID":469101,"DIS_CODE":0,"TOWNNAME":"北區","LI":"新勝里","LIN":"5鄰","STREET":"北園街","SECT":" ","MAREA":" ","LANE":" ","ALLEY":" ","HOUSE_NO":"７１號之１","E_COORD97":170361.92000000001,"N_COORD97":2545618.4300000002,"ADDRESS":"北園街７１號之１","OBJECTID":469076},"geometry":{"x":170361.92000000086,"y":2545618.4300000016}},{"attributes":{"ID":469102,"DIS_CODE":0,"TOWNNAME":"北區","LI":"新勝里","LIN":"5鄰","STREET":"北園街","SECT":" ","MAREA":" ","LANE":" ","ALLEY":" ","HOUSE_NO":"７１號之２","E_COORD97":170361.39999999999,"N_COORD97":2545623.6000000001,"ADDRESS":"北園街７１號之２","OBJECTID":469077},"geometry":{"x":170361.40000000037,"y":2545623.6000000034}},{"attributes":{"ID":469103,"DIS_CODE":0,"TOWNNAME":"北區","LI":"新勝里","LIN":"5鄰","STREET":"北園街","SECT":" ","MAREA":" ","LANE":" ","ALLEY":" ","HOUSE_NO":"７３號","E_COORD97":170360.62,"N_COORD97":2545628.23,"ADDRESS":"北園街７３號","OBJECTID":469078},"geometry":{"x":170360.62000000104,"y":2545628.2300000023}},{"attributes":{"ID":469104,"DIS_CODE":0,"TOWNNAME":"北區","LI":"中樓里","LIN":"5鄰","STREET":"東豐路","SECT":" ","MAREA":" ","LANE":" ","ALLEY":" ","HOUSE_NO":"２７之１號","E_COORD97":169490.07000000001,"N_COORD97":2544966.3300000001,"ADDRESS":"東豐路２７之１號","OBJECTID":469079},"geometry":{"x":169490.07000000123,"y":2544966.3300000001}},{"attributes":{"ID":469105,"DIS_CODE":0,"TOWNNAME":"南區","LI":"郡南里","LIN":"5鄰","STREET":"永興一街","SECT":" ","MAREA":" ","LANE":" ","ALLEY":" ","HOUSE_NO":"１５號","E_COORD97":167251.17999999999,"N_COORD97":2540701.8399999999,"ADDRESS":"永興一街１５號","OBJECTID":469080},"geometry":{"x":167251.18000000063,"y":2540701.8399999999}},{"attributes":{"ID":469106,"DIS_CODE":0,"TOWNNAME":"南區","LI":"郡南里","LIN":"5鄰","STREET":"永興一街","SECT":" ","MAREA":" ","LANE":" ","ALLEY":" ","HOUSE_NO":"９號","E_COORD97":167275.79000000001,"N_COORD97":2540697.3700000001,"ADDRESS":"永興一街９號","OBJECTID":469081},"geometry":{"x":167275.79000000097,"y":2540697.3700000029}},{"attributes":{"ID":469107,"DIS_CODE":0,"TOWNNAME":"南區","LI":"大恩里","LIN":"5鄰","STREET":"國民路","SECT":" ","MAREA":" ","LANE":" ","ALLEY":" ","HOUSE_NO":"１０號","E_COORD97":169536.89999999999,"N_COORD97":2540908.3799999999,"ADDRESS":"國民路１０號","OBJECTID":469082},"geometry":{"x":169536.9000000013,"y":2540908.3800000027}},{"attributes":{"ID":469108,"DIS_CODE":0,"TOWNNAME":"南區","LI":"大恩里","LIN":"5鄰","STREET":"國民路","SECT":" ","MAREA":" ","LANE":" ","ALLEY":" ","HOUSE_NO":"１４號","E_COORD97":169528.10999999999,"N_COORD97":2540907.0299999998,"ADDRESS":"國民路１４號","OBJECTID":469083},"geometry":{"x":169528.11000000034,"y":2540907.0299999993}},{"attributes":{"ID":469109,"DIS_CODE":0,"TOWNNAME":"南區","LI":"大恩里","LIN":"5鄰","STREET":"國民路","SECT":" ","MAREA":" ","LANE":" ","ALLEY":" ","HOUSE_NO":"１６號","E_COORD97":169524.01999999999,"N_COORD97":2540906.9199999999,"ADDRESS":"國民路１６號","OBJECTID":469084},"geometry":{"x":169524.01999999955,"y":2540906.9200000018}},{"attributes":{"ID":469110,"DIS_CODE":0,"TOWNNAME":"南區","LI":"大恩里","LIN":"5鄰","STREET":"國民路","SECT":" ","MAREA":" ","LANE":" ","ALLEY":" ","HOUSE_NO":"１８號","E_COORD97":169519.82000000001,"N_COORD97":2540906.5800000001,"ADDRESS":"國民路１８號","OBJECTID":469085},"geometry":{"x":169519.8200000003,"y":2540906.5800000001}},{"attributes":{"ID":469111,"DIS_CODE":0,"TOWNNAME":"南區","LI":"大恩里","LIN":"5鄰","STREET":"國民路","SECT":" ","MAREA":" ","LANE":" ","ALLEY":" ","HOUSE_NO":"６號","E_COORD97":169544.89999999999,"N_COORD97":2540908.46,"ADDRESS":"國民路６號","OBJECTID":469086},"geometry":{"x":169544.90000000037,"y":2540908.4600000009}},{"attributes":{"ID":469112,"DIS_CODE":0,"TOWNNAME":"南區","LI":"大恩里","LIN":"5鄰","STREET":"國民路","SECT":" ","MAREA":" ","LANE":" ","ALLEY":" ","HOUSE_NO":"８號","E_COORD97":169540.81,"N_COORD97":2540907.5800000001,"ADDRESS":"國民路８號","OBJECTID":469087},"geometry":{"x":169540.80999999959,"y":2540907.5800000001}},{"attributes":{"ID":469113,"DIS_CODE":0,"TOWNNAME":"南區","LI":"大恩里","LIN":"5鄰","STREET":"國民路","SECT":" ","MAREA":" ","LANE":" ","ALLEY":" ","HOUSE_NO":"１２號","E_COORD97":169532.42000000001,"N_COORD97":2540907.4700000002,"ADDRESS":"國民路１２號","OBJECTID":469088},"geometry":{"x":169532.41999999993,"y":2540907.4700000025}},{"attributes":{"ID":469114,"DIS_CODE":0,"TOWNNAME":"南區","LI":"郡南里","LIN":"5鄰","STREET":"永興二街","SECT":" ","MAREA":" ","LANE":" ","ALLEY":" ","HOUSE_NO":"１６號","E_COORD97":167275.85000000001,"N_COORD97":2540676.1099999999,"ADDRESS":"永興二街１６號","OBJECTID":469089},"geometry":{"x":167275.84999999963,"y":2540676.1099999994}},{"attributes":{"ID":469115,"DIS_CODE":0,"TOWNNAME":"南區","LI":"再興里","LIN":"5鄰","STREET":"新慶街","SECT":" ","MAREA":" ","LANE":" ","ALLEY":" ","HOUSE_NO":"３０號之３","E_COORD97":167221.39999999999,"N_COORD97":2542341.6600000001,"ADDRESS":"新慶街３０號之３","OBJECTID":469090},"geometry":{"x":167221.4000000013,"y":2542341.6600000039}},{"attributes":{"ID":469116,"DIS_CODE":0,"TOWNNAME":"南區","LI":"大恩里","LIN":"5鄰","STREET":"國民路","SECT":" ","MAREA":" ","LANE":" ","ALLEY":" ","HOUSE_NO":"３３號","E_COORD97":169484.38,"N_COORD97":2540866.9199999999,"ADDRESS":"國民路３３號","OBJECTID":469091},"geometry":{"x":169484.38000000082,"y":2540866.9199999999}},{"attributes":{"ID":469117,"DIS_CODE":0,"TOWNNAME":"南區","LI":"白雪里","LIN":"5鄰","STREET":"利南街","SECT":" ","MAREA":" ","LANE":" ","ALLEY":" ","HOUSE_NO":"４５號","E_COORD97":166834.09,"N_COORD97":2541155.1899999999,"ADDRESS":"利南街４５號","OBJECTID":469092},"geometry":{"x":166834.08999999985,"y":2541155.1900000013}},{"attributes":{"ID":469118,"DIS_CODE":0,"TOWNNAME":"鹽水區","LI":"水仙里","LIN":"5鄰","STREET":"西門路","SECT":" ","MAREA":" ","LANE":" ","ALLEY":" ","HOUSE_NO":"１１號","E_COORD97":174941.72,"N_COORD97":2579680.9300000002,"ADDRESS":"西門路１１號","OBJECTID":469093},"geometry":{"x":174941.72000000067,"y":2579680.9300000034}},{"attributes":{"ID":469119,"DIS_CODE":0,"TOWNNAME":"鹽水區","LI":"水仙里","LIN":"5鄰","STREET":"西門路","SECT":" ","MAREA":" ","LANE":" ","ALLEY":" ","HOUSE_NO":"１３號之１","E_COORD97":174955.98000000001,"N_COORD97":2579724.73,"ADDRESS":"西門路１３號之１","OBJECTID":469094},"geometry":{"x":174955.98000000138,"y":2579724.7300000023}},{"attributes":{"ID":469120,"DIS_CODE":0,"TOWNNAME":"鹽水區","LI":"水仙里","LIN":"5鄰","STREET":"西門路","SECT":" ","MAREA":" ","LANE":" ","ALLEY":" ","HOUSE_NO":"１３號之２","E_COORD97":174955.5,"N_COORD97":2579729.1200000001,"ADDRESS":"西門路１３號之２","OBJECTID":469095},"geometry":{"x":174955.50000000093,"y":2579729.1200000029}},{"attributes":{"ID":469121,"DIS_CODE":0,"TOWNNAME":"鹽水區","LI":"水仙里","LIN":"5鄰","STREET":"西門路","SECT":" ","MAREA":" ","LANE":" ","ALLEY":" ","HOUSE_NO":"１３號","E_COORD97":174965.85999999999,"N_COORD97":2579695.1400000001,"ADDRESS":"西門路１３號","OBJECTID":469096},"geometry":{"x":174965.86000000034,"y":2579695.1400000025}},{"attributes":{"ID":469122,"DIS_CODE":0,"TOWNNAME":"鹽水區","LI":"水仙里","LIN":"5鄰","STREET":"西門路","SECT":" ","MAREA":" ","LANE":" ","ALLEY":" ","HOUSE_NO":"１４號之１","E_COORD97":174988.32000000001,"N_COORD97":2579717.4700000002,"ADDRESS":"西門路１４號之１","OBJECTID":469097},"geometry":{"x":174988.3200000003,"y":2579717.4700000007}},{"attributes":{"ID":469123,"DIS_CODE":0,"TOWNNAME":"鹽水區","LI":"水仙里","LIN":"5鄰","STREET":"西門路","SECT":" ","MAREA":" ","LANE":" ","ALLEY":" ","HOUSE_NO":"１４號","E_COORD97":174987.60000000001,"N_COORD97":2579724.3199999998,"ADDRESS":"西門路１４號","OBJECTID":469098},"geometry":{"x":174987.59999999963,"y":2579724.3200000022}},{"attributes":{"ID":469124,"DIS_CODE":0,"TOWNNAME":"鹽水區","LI":"水仙里","LIN":"5鄰","STREET":"西門路","SECT":" ","MAREA":" ","LANE":" ","ALLEY":" ","HOUSE_NO":"１６號之１","E_COORD97":174991.42000000001,"N_COORD97":2579736.1000000001,"ADDRESS":"西門路１６號之１","OBJECTID":469099},"geometry":{"x":174991.42000000086,"y":2579736.0999999996}},{"attributes":{"ID":469125,"DIS_CODE":0,"TOWNNAME":"鹽水區","LI":"水仙里","LIN":"5鄰","STREET":"西門路","SECT":" ","MAREA":" ","LANE":" ","ALLEY":" ","HOUSE_NO":"１６號","E_COORD97":174996.29999999999,"N_COORD97":2579756.6000000001,"ADDRESS":"西門路１６號","OBJECTID":469100},"geometry":{"x":174996.29999999981,"y":2579756.5999999996}},{"attributes":{"ID":469126,"DIS_CODE":0,"TOWNNAME":"鹽水區","LI":"水仙里","LIN":"5鄰","STREET":"西門路","SECT":" ","MAREA":" ","LANE":" ","ALLEY":" ","HOUSE_NO":"１７號之１","E_COORD97":174906.57000000001,"N_COORD97":2579712.9300000002,"ADDRESS":"西門路１７號之１","OBJECTID":469101},"geometry":{"x":174906.57000000123,"y":2579712.9300000016}},{"attributes":{"ID":469127,"DIS_CODE":0,"TOWNNAME":"鹽水區","LI":"水仙里","LIN":"5鄰","STREET":"西門路","SECT":" ","MAREA":" ","LANE":" ","ALLEY":" ","HOUSE_NO":"１７號之２","E_COORD97":174895.70999999999,"N_COORD97":2579712.1600000001,"ADDRESS":"西門路１７號之２","OBJECTID":469102},"geometry":{"x":174895.70999999996,"y":2579712.1600000001}},{"attributes":{"ID":469128,"DIS_CODE":0,"TOWNNAME":"鹽水區","LI":"水仙里","LIN":"5鄰","STREET":"西門路","SECT":" ","MAREA":" ","LANE":" ","ALLEY":" ","HOUSE_NO":"７號","E_COORD97":174963.91,"N_COORD97":2579658.8199999998,"ADDRESS":"西門路７號","OBJECTID":469103},"geometry":{"x":174963.91000000015,"y":2579658.820000004}},{"attributes":{"ID":469129,"DIS_CODE":0,"TOWNNAME":"鹽水區","LI":"水仙里","LIN":"5鄰","STREET":"西門路","SECT":" ","MAREA":" ","LANE":" ","ALLEY":" ","HOUSE_NO":"９號","E_COORD97":174944.79000000001,"N_COORD97":2579688.0099999998,"ADDRESS":"西門路９號","OBJECTID":469104},"geometry":{"x":174944.7900000019,"y":2579688.0100000016}},{"attributes":{"ID":469130,"DIS_CODE":0,"TOWNNAME":"鹽水區","LI":"武廟里","LIN":"5鄰","STREET":"武廟路","SECT":" ","MAREA":" ","LANE":" ","ALLEY":" ","HOUSE_NO":"２４號","E_COORD97":174919.79000000001,"N_COORD97":2580064.6200000001,"ADDRESS":"武廟路２４號","OBJECTID":469105},"geometry":{"x":174919.79000000097,"y":2580064.6200000029}},{"attributes":{"ID":469131,"DIS_CODE":0,"TOWNNAME":"鹽水區","LI":"武廟里","LIN":"5鄰","STREET":"武廟路","SECT":" ","MAREA":" ","LANE":" ","ALLEY":" ","HOUSE_NO":"２６號","E_COORD97":174919.88,"N_COORD97":2580069.8300000001,"ADDRESS":"武廟路２６號","OBJECTID":469106},"geometry":{"x":174919.87999999989,"y":2580069.8300000019}},{"attributes":{"ID":469132,"DIS_CODE":0,"TOWNNAME":"鹽水區","LI":"武廟里","LIN":"5鄰","STREET":"武廟路","SECT":" ","MAREA":" ","LANE":" ","ALLEY":" ","HOUSE_NO":"２８號","E_COORD97":174919.72,"N_COORD97":2580074.8300000001,"ADDRESS":"武廟路２８號","OBJECTID":469107},"geometry":{"x":174919.72000000067,"y":2580074.8300000001}},{"attributes":{"ID":469133,"DIS_CODE":0,"TOWNNAME":"鹽水區","LI":"武廟里","LIN":"5鄰","STREET":"武廟路","SECT":" ","MAREA":" ","LANE":" ","ALLEY":" ","HOUSE_NO":"３０號","E_COORD97":174920.26000000001,"N_COORD97":2580080.27,"ADDRESS":"武廟路３０號","OBJECTID":469108},"geometry":{"x":174920.25999999978,"y":2580080.2700000014}},{"attributes":{"ID":469134,"DIS_CODE":0,"TOWNNAME":"鹽水區","LI":"武廟里","LIN":"5鄰","STREET":"武廟路","SECT":" ","MAREA":" ","LANE":" ","ALLEY":" ","HOUSE_NO":"３２號","E_COORD97":174920.09,"N_COORD97":2580085.25,"ADDRESS":"武廟路３２號","OBJECTID":469109},"geometry":{"x":174920.08999999985,"y":2580085.25}},{"attributes":{"ID":469135,"DIS_CODE":0,"TOWNNAME":"鹽水區","LI":"武廟里","LIN":"5鄰","STREET":"武廟路","SECT":" ","MAREA":" ","LANE":" ","ALLEY":" ","HOUSE_NO":"３４號","E_COORD97":174920.56,"N_COORD97":2580090.48,"ADDRESS":"武廟路３４號","OBJECTID":469110},"geometry":{"x":174920.56000000052,"y":2580090.4800000004}},{"attributes":{"ID":469136,"DIS_CODE":0,"TOWNNAME":"鹽水區","LI":"武廟里","LIN":"5鄰","STREET":"武廟路","SECT":" ","MAREA":" ","LANE":" ","ALLEY":" ","HOUSE_NO":"３６號","E_COORD97":174942.91,"N_COORD97":2580095.1400000001,"ADDRESS":"武廟路３６號","OBJECTID":469111},"geometry":{"x":174942.91000000108,"y":2580095.1400000025}},{"attributes":{"ID":469137,"DIS_CODE":0,"TOWNNAME":"鹽水區","LI":"武廟里","LIN":"5鄰","STREET":"武廟路","SECT":" ","MAREA":" ","LANE":" ","ALLEY":" ","HOUSE_NO":"３８號","E_COORD97":174942.98000000001,"N_COORD97":2580099.6200000001,"ADDRESS":"武廟路３８號","OBJECTID":469112},"geometry":{"x":174942.98000000045,"y":2580099.6200000029}},{"attributes":{"ID":469138,"DIS_CODE":0,"TOWNNAME":"鹽水區","LI":"武廟里","LIN":"5鄰","STREET":"武廟路","SECT":" ","MAREA":" ","LANE":" ","ALLEY":" ","HOUSE_NO":"４２號","E_COORD97":174923.20999999999,"N_COORD97":2580096.21,"ADDRESS":"武廟路４２號","OBJECTID":469113},"geometry":{"x":174923.21000000183,"y":2580096.2100000009}},{"attributes":{"ID":469139,"DIS_CODE":0,"TOWNNAME":"安平區","LI":"漁光里","LIN":"5鄰","STREET":"漁光路","SECT":" ","MAREA":" ","LANE":" ","ALLEY":" ","HOUSE_NO":"１２３號","E_COORD97":163992.62,"N_COORD97":2542007.79,"ADDRESS":"漁光路１２３號","OBJECTID":469114},"geometry":{"x":163992.62000000011,"y":2542007.790000001}},{"attributes":{"ID":469140,"DIS_CODE":0,"TOWNNAME":"安平區","LI":"海頭里","LIN":"5鄰","STREET":"中興街","SECT":" ","MAREA":" ","LANE":" ","ALLEY":" ","HOUSE_NO":"１２之１號","E_COORD97":164281.67999999999,"N_COORD97":2544682.96,"ADDRESS":"中興街１２之１號","OBJECTID":469115},"geometry":{"x":164281.6799999997,"y":2544682.959999999}},{"attributes":{"ID":469141,"DIS_CODE":0,"TOWNNAME":"鹽水區","LI":"義稠里","LIN":"5鄰","STREET":"金和路","SECT":" ","MAREA":" ","LANE":" ","ALLEY":" ","HOUSE_NO":"１９８號","E_COORD97":174088.57999999999,"N_COORD97":2580519.4700000002,"ADDRESS":"金和路１９８號","OBJECTID":469116},"geometry":{"x":174088.58000000101,"y":2580519.4700000025}},{"attributes":{"ID":469142,"DIS_CODE":0,"TOWNNAME":"鹽水區","LI":"義稠里","LIN":"5鄰","STREET":"金和路","SECT":" ","MAREA":" ","LANE":" ","ALLEY":" ","HOUSE_NO":"２００號","E_COORD97":174083.39999999999,"N_COORD97":2580519.9500000002,"ADDRESS":"金和路２００號","OBJECTID":469117},"geometry":{"x":174083.4000000013,"y":2580519.9499999993}},{"attributes":{"ID":469143,"DIS_CODE":0,"TOWNNAME":"鹽水區","LI":"義稠里","LIN":"5鄰","STREET":"金和路","SECT":" ","MAREA":" ","LANE":" ","ALLEY":" ","HOUSE_NO":"２０８號","E_COORD97":174060.82999999999,"N_COORD97":2580524.0099999998,"ADDRESS":"金和路２０８號","OBJECTID":469118},"geometry":{"x":174060.83000000007,"y":2580524.0099999998}},{"attributes":{"ID":469144,"DIS_CODE":0,"TOWNNAME":"鹽水區","LI":"義稠里","LIN":"5鄰","STREET":"金和路","SECT":" ","MAREA":" ","LANE":" ","ALLEY":" ","HOUSE_NO":"２１０號","E_COORD97":174056.14000000001,"N_COORD97":2580524.77,"ADDRESS":"金和路２１０號","OBJECTID":469119},"geometry":{"x":174056.1400000006,"y":2580524.7699999996}},{"attributes":{"ID":469145,"DIS_CODE":0,"TOWNNAME":"鹽水區","LI":"義稠里","LIN":"5鄰","STREET":"金和路","SECT":" ","MAREA":" ","LANE":" ","ALLEY":" ","HOUSE_NO":"２１２號","E_COORD97":174052.28,"N_COORD97":2580526.1400000001,"ADDRESS":"金和路２１２號","OBJECTID":469120},"geometry":{"x":174052.28000000119,"y":2580526.1400000025}},{"attributes":{"ID":469146,"DIS_CODE":0,"TOWNNAME":"鹽水區","LI":"義稠里","LIN":"5鄰","STREET":"金和路","SECT":" ","MAREA":" ","LANE":" ","ALLEY":" ","HOUSE_NO":"２１４號","E_COORD97":174047.42000000001,"N_COORD97":2580526.71,"ADDRESS":"金和路２１４號","OBJECTID":469121},"geometry":{"x":174047.42000000086,"y":2580526.7100000009}},{"attributes":{"ID":469147,"DIS_CODE":0,"TOWNNAME":"鹽水區","LI":"義稠里","LIN":"5鄰","STREET":"金和路","SECT":" ","MAREA":" ","LANE":" ","ALLEY":" ","HOUSE_NO":"２１６號","E_COORD97":174042.16,"N_COORD97":2580527.8799999999,"ADDRESS":"金和路２１６號","OBJECTID":469122},"geometry":{"x":174042.16000000201,"y":2580527.879999999}},{"attributes":{"ID":469148,"DIS_CODE":0,"TOWNNAME":"鹽水區","LI":"義稠里","LIN":"5鄰","STREET":"金和路","SECT":" ","MAREA":" ","LANE":" ","ALLEY":" ","HOUSE_NO":"２１８號","E_COORD97":174036.29000000001,"N_COORD97":2580526.3700000001,"ADDRESS":"金和路２１８號","OBJECTID":469123},"geometry":{"x":174036.29000000097,"y":2580526.370000001}},{"attributes":{"ID":469149,"DIS_CODE":0,"TOWNNAME":"鹽水區","LI":"義稠里","LIN":"5鄰","STREET":"金和路","SECT":" ","MAREA":" ","LANE":" ","ALLEY":" ","HOUSE_NO":"２２０號","E_COORD97":174029.57000000001,"N_COORD97":2580530.1099999999,"ADDRESS":"金和路２２０號","OBJECTID":469124},"geometry":{"x":174029.57000000123,"y":2580530.1099999994}},{"attributes":{"ID":469150,"DIS_CODE":0,"TOWNNAME":"鹽水區","LI":"福得里","LIN":"5鄰","STREET":"康樂路","SECT":" ","MAREA":" ","LANE":" ","ALLEY":" ","HOUSE_NO":"１４２號","E_COORD97":175276.95000000001,"N_COORD97":2579985.7400000002,"ADDRESS":"康樂路１４２號","OBJECTID":469125},"geometry":{"x":175276.95000000019,"y":2579985.7400000021}},{"attributes":{"ID":469151,"DIS_CODE":0,"TOWNNAME":"鹽水區","LI":"福得里","LIN":"5鄰","STREET":"康樂路","SECT":" ","MAREA":" ","LANE":" ","ALLEY":" ","HOUSE_NO":"１４４號","E_COORD97":175281.54000000001,"N_COORD97":2579989.8999999999,"ADDRESS":"康樂路１４４號","OBJECTID":469126},"geometry":{"x":175281.54000000004,"y":2579989.9000000004}},{"attributes":{"ID":469152,"DIS_CODE":0,"TOWNNAME":"鹽水區","LI":"福得里","LIN":"5鄰","STREET":"康樂路","SECT":" ","MAREA":" ","LANE":" ","ALLEY":" ","HOUSE_NO":"１４６號之１","E_COORD97":175288.45000000001,"N_COORD97":2579978.8399999999,"ADDRESS":"康樂路１４６號之１","OBJECTID":469127},"geometry":{"x":175288.45000000112,"y":2579978.8399999999}},{"attributes":{"ID":469153,"DIS_CODE":0,"TOWNNAME":"鹽水區","LI":"福得里","LIN":"5鄰","STREET":"康樂路","SECT":" ","MAREA":" ","LANE":" ","ALLEY":" ","HOUSE_NO":"１４６號之２","E_COORD97":175291.26000000001,"N_COORD97":2579975.2400000002,"ADDRESS":"康樂路１４６號之２","OBJECTID":469128},"geometry":{"x":175291.26000000071,"y":2579975.2400000021}},{"attributes":{"ID":469154,"DIS_CODE":0,"TOWNNAME":"鹽水區","LI":"福得里","LIN":"5鄰","STREET":"康樂路","SECT":" ","MAREA":" ","LANE":" ","ALLEY":" ","HOUSE_NO":"１４６號之３","E_COORD97":175293.89999999999,"N_COORD97":2579971.0299999998,"ADDRESS":"康樂路１４６號之３","OBJECTID":469129},"geometry":{"x":175293.9000000013,"y":2579971.0299999993}},{"attributes":{"ID":469155,"DIS_CODE":0,"TOWNNAME":"鹽水區","LI":"福得里","LIN":"5鄰","STREET":"康樂路","SECT":" ","MAREA":" ","LANE":" ","ALLEY":" ","HOUSE_NO":"１４６號之４","E_COORD97":175296.26999999999,"N_COORD97":2579968.0299999998,"ADDRESS":"康樂路１４６號之４","OBJECTID":469130},"geometry":{"x":175296.26999999955,"y":2579968.0300000031}},{"attributes":{"ID":469156,"DIS_CODE":0,"TOWNNAME":"鹽水區","LI":"福得里","LIN":"5鄰","STREET":"康樂路","SECT":" ","MAREA":" ","LANE":" ","ALLEY":" ","HOUSE_NO":"１４６號之５","E_COORD97":175299.63,"N_COORD97":2579961.4300000002,"ADDRESS":"康樂路１４６號之５","OBJECTID":469131},"geometry":{"x":175299.62999999989,"y":2579961.4299999997}},{"attributes":{"ID":469157,"DIS_CODE":0,"TOWNNAME":"鹽水區","LI":"福得里","LIN":"5鄰","STREET":"康樂路","SECT":" ","MAREA":" ","LANE":" ","ALLEY":" ","HOUSE_NO":"１４６號之６","E_COORD97":175304.23000000001,"N_COORD97":2579954.4199999999,"ADDRESS":"康樂路１４６號之６","OBJECTID":469132},"geometry":{"x":175304.23000000045,"y":2579954.4199999999}},{"attributes":{"ID":469158,"DIS_CODE":0,"TOWNNAME":"鹽水區","LI":"福得里","LIN":"5鄰","STREET":"康樂路","SECT":" ","MAREA":" ","LANE":" ","ALLEY":" ","HOUSE_NO":"１４６號","E_COORD97":175286.13,"N_COORD97":2579993.8199999998,"ADDRESS":"康樂路１４６號","OBJECTID":469133},"geometry":{"x":175286.12999999989,"y":2579993.8200000003}},{"attributes":{"ID":469159,"DIS_CODE":0,"TOWNNAME":"鹽水區","LI":"福得里","LIN":"5鄰","STREET":"康樂路","SECT":" ","MAREA":" ","LANE":" ","ALLEY":" ","HOUSE_NO":"１４７號","E_COORD97":175306.34,"N_COORD97":2580023.0800000001,"ADDRESS":"康樂路１４７號","OBJECTID":469134},"geometry":{"x":175306.33999999985,"y":2580023.0800000038}},{"attributes":{"ID":469160,"DIS_CODE":0,"TOWNNAME":"鹽水區","LI":"福得里","LIN":"5鄰","STREET":"康樂路","SECT":" ","MAREA":" ","LANE":" ","ALLEY":" ","HOUSE_NO":"１４９號","E_COORD97":175310.48000000001,"N_COORD97":2580024.7000000002,"ADDRESS":"康樂路１４９號","OBJECTID":469135},"geometry":{"x":175310.48000000138,"y":2580024.700000003}},{"attributes":{"ID":469161,"DIS_CODE":0,"TOWNNAME":"鹽水區","LI":"福得里","LIN":"5鄰","STREET":"康樂路","SECT":" ","MAREA":" ","LANE":" ","ALLEY":" ","HOUSE_NO":"１５１號","E_COORD97":175314.62,"N_COORD97":2580026.3199999998,"ADDRESS":"康樂路１５１號","OBJECTID":469136},"geometry":{"x":175314.62000000011,"y":2580026.3200000022}},{"attributes":{"ID":469162,"DIS_CODE":0,"TOWNNAME":"鹽水區","LI":"水正里","LIN":"5鄰","STREET":"康樂路","SECT":" ","MAREA":" ","LANE":" ","ALLEY":" ","HOUSE_NO":"７３號","E_COORD97":175154.60999999999,"N_COORD97":2579895.6200000001,"ADDRESS":"康樂路７３號","OBJECTID":469137},"geometry":{"x":175154.6099999994,"y":2579895.6200000029}},{"attributes":{"ID":469163,"DIS_CODE":0,"TOWNNAME":"鹽水區","LI":"水正里","LIN":"5鄰","STREET":"康樂路","SECT":" ","MAREA":" ","LANE":" ","ALLEY":" ","HOUSE_NO":"７５號","E_COORD97":175156.45999999999,"N_COORD97":2579900.04,"ADDRESS":"康樂路７５號","OBJECTID":469138},"geometry":{"x":175156.45999999996,"y":2579900.0400000028}},{"attributes":{"ID":469164,"DIS_CODE":0,"TOWNNAME":"北區","LI":"成功里","LIN":"5鄰","STREET":"北成路","SECT":" ","MAREA":" ","LANE":" ","ALLEY":" ","HOUSE_NO":"４９號","E_COORD97":169065.91,"N_COORD97":2546578.54,"ADDRESS":"北成路４９號","OBJECTID":469139},"geometry":{"x":169065.91000000015,"y":2546578.5399999991}},{"attributes":{"ID":469165,"DIS_CODE":0,"TOWNNAME":"北區","LI":"成功里","LIN":"5鄰","STREET":"北成路","SECT":" ","MAREA":" ","LANE":" ","ALLEY":" ","HOUSE_NO":"５１號","E_COORD97":169059.72,"N_COORD97":2546581.5600000001,"ADDRESS":"北成路５１號","OBJECTID":469140},"geometry":{"x":169059.72000000067,"y":2546581.5600000024}},{"attributes":{"ID":469166,"DIS_CODE":0,"TOWNNAME":"北區","LI":"成功里","LIN":"5鄰","STREET":"北成路","SECT":" ","MAREA":" ","LANE":" ","ALLEY":" ","HOUSE_NO":"５３號","E_COORD97":169054.01000000001,"N_COORD97":2546584.4100000001,"ADDRESS":"北成路５３號","OBJECTID":469141},"geometry":{"x":169054.01000000071,"y":2546584.4100000001}},{"attributes":{"ID":469167,"DIS_CODE":0,"TOWNNAME":"北區","LI":"成功里","LIN":"5鄰","STREET":"北成路","SECT":" ","MAREA":" ","LANE":" ","ALLEY":" ","HOUSE_NO":"５５號","E_COORD97":169048.60999999999,"N_COORD97":2546587.1099999999,"ADDRESS":"北成路５５號","OBJECTID":469142},"geometry":{"x":169048.6100000022,"y":2546587.1100000013}},{"attributes":{"ID":469168,"DIS_CODE":0,"TOWNNAME":"北區","LI":"成功里","LIN":"5鄰","STREET":"北成路","SECT":" ","MAREA":" ","LANE":" ","ALLEY":" ","HOUSE_NO":"５７號","E_COORD97":169042.10000000001,"N_COORD97":2546589.3399999999,"ADDRESS":"北成路５７號","OBJECTID":469143},"geometry":{"x":169042.09999999963,"y":2546589.3400000017}},{"attributes":{"ID":469169,"DIS_CODE":0,"TOWNNAME":"南區","LI":"大恩里","LIN":"5鄰","STREET":"大同路","SECT":"二段","MAREA":" ","LANE":" ","ALLEY":" ","HOUSE_NO":"６７８號之３","E_COORD97":169565.01999999999,"N_COORD97":2540934.02,"ADDRESS":"大同路二段６７８號之３","OBJECTID":469144},"geometry":{"x":169565.01999999955,"y":2540934.0199999996}},{"attributes":{"ID":469170,"DIS_CODE":0,"TOWNNAME":"南區","LI":"喜東里","LIN":"5鄰","STREET":"喜樹路","SECT":" ","MAREA":" ","LANE":" ","ALLEY":" ","HOUSE_NO":"６５號之１","E_COORD97":165931.44,"N_COORD97":2538520.3500000001,"ADDRESS":"喜樹路６５號之１","OBJECTID":469145},"geometry":{"x":165931.44000000134,"y":2538520.3500000015}},{"attributes":{"ID":469171,"DIS_CODE":0,"TOWNNAME":"南區","LI":"喜北里","LIN":"5鄰","STREET":"喜樹路","SECT":" ","MAREA":" ","LANE":" ","ALLEY":" ","HOUSE_NO":"７６號","E_COORD97":165873.04000000001,"N_COORD97":2538460.5,"ADDRESS":"喜樹路７６號","OBJECTID":469146},"geometry":{"x":165873.04000000004,"y":2538460.5000000037}},{"attributes":{"ID":469172,"DIS_CODE":0,"TOWNNAME":"南區","LI":"喜北里","LIN":"5鄰","STREET":"喜樹路","SECT":" ","MAREA":" ","LANE":" ","ALLEY":" ","HOUSE_NO":"７６號之１","E_COORD97":165873.48999999999,"N_COORD97":2538447.4399999999,"ADDRESS":"喜樹路７６號之１","OBJECTID":469147},"geometry":{"x":165873.49000000022,"y":2538447.4400000013}},{"attributes":{"ID":469173,"DIS_CODE":0,"TOWNNAME":"南區","LI":"大恩里","LIN":"5鄰","STREET":"大同路","SECT":"二段","MAREA":" ","LANE":" ","ALLEY":" ","HOUSE_NO":"６９０號","E_COORD97":169573.07999999999,"N_COORD97":2540919.25,"ADDRESS":"大同路二段６９０號","OBJECTID":469148},"geometry":{"x":169573.08000000101,"y":2540919.25}},{"attributes":{"ID":469174,"DIS_CODE":0,"TOWNNAME":"南區","LI":"大恩里","LIN":"5鄰","STREET":"國民路","SECT":" ","MAREA":" ","LANE":" ","ALLEY":" ","HOUSE_NO":"２號","E_COORD97":169564.47,"N_COORD97":2540903.1400000001,"ADDRESS":"國民路２號","OBJECTID":469149},"geometry":{"x":169564.47000000067,"y":2540903.1400000006}},{"attributes":{"ID":469175,"DIS_CODE":0,"TOWNNAME":"南區","LI":"大恩里","LIN":"5鄰","STREET":"國民路","SECT":" ","MAREA":" ","LANE":" ","ALLEY":" ","HOUSE_NO":"２號之１","E_COORD97":169555.29999999999,"N_COORD97":2540902.04,"ADDRESS":"國民路２號之１","OBJECTID":469150},"geometry":{"x":169555.30000000168,"y":2540902.040000001}},{"attributes":{"ID":469176,"DIS_CODE":0,"TOWNNAME":"南區","LI":"喜東里","LIN":"5鄰","STREET":"喜樹路","SECT":" ","MAREA":" ","LANE":" ","ALLEY":" ","HOUSE_NO":"４７號之１","E_COORD97":165929.78,"N_COORD97":2538615.0299999998,"ADDRESS":"喜樹路４７號之１","OBJECTID":469151},"geometry":{"x":165929.78000000026,"y":2538615.0299999993}},{"attributes":{"ID":469177,"DIS_CODE":0,"TOWNNAME":"新化區","LI":"協興里","LIN":"5鄰","STREET":"中山路","SECT":" ","MAREA":" ","LANE":" ","ALLEY":" ","HOUSE_NO":"５８８號","E_COORD97":178363.51000000001,"N_COORD97":2548483.25,"ADDRESS":"中山路５８８號","OBJECTID":469152},"geometry":{"x":178363.50999999978,"y":2548483.25}},{"attributes":{"ID":469178,"DIS_CODE":0,"TOWNNAME":"新化區","LI":"協興里","LIN":"5鄰","STREET":"中山路","SECT":" ","MAREA":" ","LANE":" ","ALLEY":" ","HOUSE_NO":"５９２號","E_COORD97":178353.81,"N_COORD97":2548485.25,"ADDRESS":"中山路５９２號","OBJECTID":469153},"geometry":{"x":178353.81000000052,"y":2548485.2500000019}},{"attributes":{"ID":469179,"DIS_CODE":0,"TOWNNAME":"新化區","LI":"武安里","LIN":"5鄰","STREET":"中正路","SECT":" ","MAREA":" ","LANE":" ","ALLEY":" ","HOUSE_NO":"３４５號","E_COORD97":179110.20999999999,"N_COORD97":2548227.25,"ADDRESS":"中正路３４５號","OBJECTID":469154},"geometry":{"x":179110.21000000183,"y":2548227.2500000019}},{"attributes":{"ID":469180,"DIS_CODE":0,"TOWNNAME":"新化區","LI":"觀音里","LIN":"5鄰","STREET":"民族街","SECT":" ","MAREA":" ","LANE":" ","ALLEY":" ","HOUSE_NO":"２２號","E_COORD97":178905.35999999999,"N_COORD97":2548528.25,"ADDRESS":"民族街２２號","OBJECTID":469155},"geometry":{"x":178905.36000000034,"y":2548528.2500000037}},{"attributes":{"ID":469181,"DIS_CODE":0,"TOWNNAME":"新化區","LI":"協興里","LIN":"5鄰","STREET":"中山路","SECT":" ","MAREA":" ","LANE":" ","ALLEY":" ","HOUSE_NO":"５６８號","E_COORD97":178412.51000000001,"N_COORD97":2548467.25,"ADDRESS":"中山路５６８號","OBJECTID":469156},"geometry":{"x":178412.50999999978,"y":2548467.2500000037}},{"attributes":{"ID":469182,"DIS_CODE":0,"TOWNNAME":"新化區","LI":"竹林里","LIN":"5鄰","STREET":"民族街","SECT":" ","MAREA":" ","LANE":" ","ALLEY":" ","HOUSE_NO":"４３號","E_COORD97":178876.16,"N_COORD97":2548560.25,"ADDRESS":"民族街４３號","OBJECTID":469157},"geometry":{"x":178876.16000000015,"y":2548560.2500000019}},{"attributes":{"ID":469183,"DIS_CODE":0,"TOWNNAME":"關廟區","LI":"關廟里","LIN":"5鄰","STREET":"文化街","SECT":" ","MAREA":" ","LANE":" ","ALLEY":" ","HOUSE_NO":"７７號","E_COORD97":180687.79000000001,"N_COORD97":2539923.3300000001,"ADDRESS":"文化街７７號","OBJECTID":469158},"geometry":{"x":180687.79000000004,"y":2539923.3300000038}},{"attributes":{"ID":469184,"DIS_CODE":0,"TOWNNAME":"北區","LI":"成功里","LIN":"5鄰","STREET":"北成路","SECT":" ","MAREA":" ","LANE":" ","ALLEY":" ","HOUSE_NO":"７１號","E_COORD97":169009.39999999999,"N_COORD97":2546607.4300000002,"ADDRESS":"北成路７１號","OBJECTID":469159},"geometry":{"x":169009.40000000224,"y":2546607.4299999997}},{"attributes":{"ID":469185,"DIS_CODE":0,"TOWNNAME":"北區","LI":"大港里","LIN":"5鄰","STREET":"大興街","SECT":" ","MAREA":" ","LANE":" ","ALLEY":" ","HOUSE_NO":"１７８號","E_COORD97":166862.04999999999,"N_COORD97":2545691.5,"ADDRESS":"大興街１７８號","OBJECTID":469160},"geometry":{"x":166862.05000000075,"y":2545691.5}},{"attributes":{"ID":469186,"DIS_CODE":0,"TOWNNAME":"北區","LI":"大港里","LIN":"5鄰","STREET":"大興街","SECT":" ","MAREA":" ","LANE":" ","ALLEY":" ","HOUSE_NO":"１８２號","E_COORD97":166855.53,"N_COORD97":2545690.1899999999,"ADDRESS":"大興街１８２號","OBJECTID":469161},"geometry":{"x":166855.53000000212,"y":2545690.1899999995}},{"attributes":{"ID":469187,"DIS_CODE":0,"TOWNNAME":"北區","LI":"大港里","LIN":"5鄰","STREET":"大興街","SECT":" ","MAREA":" ","LANE":" ","ALLEY":" ","HOUSE_NO":"１８６號","E_COORD97":166843.79000000001,"N_COORD97":2545695.0299999998,"ADDRESS":"大興街１８６號","OBJECTID":469162},"geometry":{"x":166843.79000000097,"y":2545695.0300000031}},{"attributes":{"ID":469188,"DIS_CODE":0,"TOWNNAME":"北區","LI":"大港里","LIN":"5鄰","STREET":"大興街","SECT":" ","MAREA":" ","LANE":" ","ALLEY":" ","HOUSE_NO":"１８８號","E_COORD97":166838.01999999999,"N_COORD97":2545699.1200000001,"ADDRESS":"大興街１８８號","OBJECTID":469163},"geometry":{"x":166838.02000000142,"y":2545699.1199999992}},{"attributes":{"ID":469189,"DIS_CODE":0,"TOWNNAME":"北區","LI":"大港里","LIN":"5鄰","STREET":"大興街","SECT":" ","MAREA":" ","LANE":" ","ALLEY":" ","HOUSE_NO":"１９０號","E_COORD97":166834.48000000001,"N_COORD97":2545698.5699999998,"ADDRESS":"大興街１９０號","OBJECTID":469164},"geometry":{"x":166834.48000000138,"y":2545698.5700000003}},{"attributes":{"ID":469190,"DIS_CODE":0,"TOWNNAME":"關廟區","LI":"關廟里","LIN":"5鄰","STREET":"中山路","SECT":"二段","MAREA":" ","LANE":" ","ALLEY":" ","HOUSE_NO":"２５５號","E_COORD97":179808.95999999999,"N_COORD97":2540233.2799999998,"ADDRESS":"中山路二段２５５號","OBJECTID":469165},"geometry":{"x":179808.96000000089,"y":2540233.2799999993}},{"attributes":{"ID":469191,"DIS_CODE":0,"TOWNNAME":"關廟區","LI":"關廟里","LIN":"5鄰","STREET":"中山路","SECT":"二段","MAREA":" ","LANE":" ","ALLEY":" ","HOUSE_NO":"２２９號","E_COORD97":180263.45999999999,"N_COORD97":2540147.2799999998,"ADDRESS":"中山路二段２２９號","OBJECTID":469166},"geometry":{"x":180263.46000000089,"y":2540147.2800000012}},{"attributes":{"ID":469192,"DIS_CODE":0,"TOWNNAME":"關廟區","LI":"南花里","LIN":"5鄰","STREET":"花園一街","SECT":" ","MAREA":" ","LANE":" ","ALLEY":" ","HOUSE_NO":"３９號","E_COORD97":182089.64000000001,"N_COORD97":2540162.25,"ADDRESS":"花園一街３９號","OBJECTID":469167},"geometry":{"x":182089.6400000006,"y":2540162.2500000019}},{"attributes":{"ID":469193,"DIS_CODE":0,"TOWNNAME":"關廟區","LI":"關廟里","LIN":"5鄰","STREET":"中山路","SECT":"二段","MAREA":" ","LANE":" ","ALLEY":" ","HOUSE_NO":"１８５號","E_COORD97":180699.85999999999,"N_COORD97":2540056.2799999998,"ADDRESS":"中山路二段１８５號","OBJECTID":469168},"geometry":{"x":180699.86000000127,"y":2540056.2800000012}},{"attributes":{"ID":469194,"DIS_CODE":0,"TOWNNAME":"關廟區","LI":"關廟里","LIN":"5鄰","STREET":"中山路","SECT":"二段","MAREA":" ","LANE":" ","ALLEY":" ","HOUSE_NO":"２６１號","E_COORD97":179712.66,"N_COORD97":2540255.2799999998,"ADDRESS":"中山路二段２６１號","OBJECTID":469169},"geometry":{"x":179712.66000000201,"y":2540255.2800000012}},{"attributes":{"ID":469195,"DIS_CODE":0,"TOWNNAME":"關廟區","LI":"南花里","LIN":"5鄰","STREET":"園東街","SECT":" ","MAREA":" ","LANE":" ","ALLEY":" ","HOUSE_NO":"９８號","E_COORD97":182027.76000000001,"N_COORD97":2540149.25,"ADDRESS":"園東街９８號","OBJECTID":469170},"geometry":{"x":182027.76000000071,"y":2540149.25}},{"attributes":{"ID":469196,"DIS_CODE":0,"TOWNNAME":"關廟區","LI":"關廟里","LIN":"5鄰","STREET":"中山路","SECT":"二段","MAREA":" ","LANE":" ","ALLEY":" ","HOUSE_NO":"２５９號","E_COORD97":179775.95999999999,"N_COORD97":2540243.2799999998,"ADDRESS":"中山路二段２５９號","OBJECTID":469171},"geometry":{"x":179775.95999999996,"y":2540243.2799999993}},{"attributes":{"ID":469197,"DIS_CODE":0,"TOWNNAME":"關廟區","LI":"北勢里","LIN":"5鄰","STREET":"成功路","SECT":" ","MAREA":" ","LANE":" ","ALLEY":" ","HOUSE_NO":"１１３號","E_COORD97":181580.76999999999,"N_COORD97":2540441.27,"ADDRESS":"成功路１１３號","OBJECTID":469172},"geometry":{"x":181580.76999999955,"y":2540441.2699999996}},{"attributes":{"ID":469198,"DIS_CODE":0,"TOWNNAME":"關廟區","LI":"關廟里","LIN":"5鄰","STREET":"中山路","SECT":"二段","MAREA":" ","LANE":" ","ALLEY":" ","HOUSE_NO":"２５６號","E_COORD97":179865.06,"N_COORD97":2540267.2799999998,"ADDRESS":"中山路二段２５６號","OBJECTID":469173},"geometry":{"x":179865.05999999866,"y":2540267.2799999993}},{"attributes":{"ID":469199,"DIS_CODE":0,"TOWNNAME":"關廟區","LI":"關廟里","LIN":"5鄰","STREET":"文化街","SECT":" ","MAREA":" ","LANE":" ","ALLEY":" ","HOUSE_NO":"１３號","E_COORD97":180704.69,"N_COORD97":2539970.3300000001,"ADDRESS":"文化街１３號","OBJECTID":469174},"geometry":{"x":180704.69000000134,"y":2539970.3299999982}},{"attributes":{"ID":469200,"DIS_CODE":0,"TOWNNAME":"關廟區","LI":"香洋里","LIN":"5鄰","STREET":"農會路","SECT":" ","MAREA":" ","LANE":" ","ALLEY":" ","HOUSE_NO":"１０７號","E_COORD97":181089.73999999999,"N_COORD97":2540251.2799999998,"ADDRESS":"農會路１０７號","OBJECTID":469175},"geometry":{"x":181089.74000000022,"y":2540251.2799999975}},{"attributes":{"ID":469201,"DIS_CODE":0,"TOWNNAME":"關廟區","LI":"龜洞里","LIN":"5鄰","STREET":"南橋街","SECT":" ","MAREA":" ","LANE":" ","ALLEY":" ","HOUSE_NO":"５８號","E_COORD97":182169.34,"N_COORD97":2532673.25,"ADDRESS":"南橋街５８號","OBJECTID":469176},"geometry":{"x":182169.34000000078,"y":2532673.2500000019}},{"attributes":{"ID":469202,"DIS_CODE":0,"TOWNNAME":"關廟區","LI":"香洋里","LIN":"5鄰","STREET":"南雄路","SECT":"二段","MAREA":" ","LANE":" ","ALLEY":" ","HOUSE_NO":"８５號","E_COORD97":181119.73999999999,"N_COORD97":2540232.2799999998,"ADDRESS":"南雄路二段８５號","OBJECTID":469177},"geometry":{"x":181119.74000000115,"y":2540232.2800000012}},{"attributes":{"ID":469203,"DIS_CODE":0,"TOWNNAME":"關廟區","LI":"關廟里","LIN":"5鄰","STREET":"文化街","SECT":" ","MAREA":" ","LANE":" ","ALLEY":" ","HOUSE_NO":"７號","E_COORD97":180690.73999999999,"N_COORD97":2539969.3300000001,"ADDRESS":"文化街７號","OBJECTID":469178},"geometry":{"x":180690.74000000115,"y":2539969.3300000001}},{"attributes":{"ID":469204,"DIS_CODE":0,"TOWNNAME":"關廟區","LI":"新光里","LIN":"5鄰","STREET":"北寮街","SECT":" ","MAREA":" ","LANE":" ","ALLEY":" ","HOUSE_NO":"４６號","E_COORD97":184116.97,"N_COORD97":2541829.25,"ADDRESS":"北寮街４６號","OBJECTID":469179},"geometry":{"x":184116.96999999974,"y":2541829.2500000037}},{"attributes":{"ID":469205,"DIS_CODE":0,"TOWNNAME":"關廟區","LI":"布袋里","LIN":"5鄰","STREET":"長文街","SECT":" ","MAREA":" ","LANE":" ","ALLEY":" ","HOUSE_NO":"１５０號","E_COORD97":182808.64000000001,"N_COORD97":2535383.2999999998,"ADDRESS":"長文街１５０號","OBJECTID":469180},"geometry":{"x":182808.63999999966,"y":2535383.3000000007}},{"attributes":{"ID":469206,"DIS_CODE":0,"TOWNNAME":"關廟區","LI":"關廟里","LIN":"5鄰","STREET":"文化街","SECT":" ","MAREA":" ","LANE":" ","ALLEY":" ","HOUSE_NO":"５號","E_COORD97":180685.44,"N_COORD97":2539969.3300000001,"ADDRESS":"文化街５號","OBJECTID":469181},"geometry":{"x":180685.44000000041,"y":2539969.3300000001}},{"attributes":{"ID":469207,"DIS_CODE":0,"TOWNNAME":"關廟區","LI":"北勢里","LIN":"5鄰","STREET":"成功路","SECT":" ","MAREA":" ","LANE":" ","ALLEY":" ","HOUSE_NO":"１２７號","E_COORD97":181555.07000000001,"N_COORD97":2540450.27,"ADDRESS":"成功路１２７號","OBJECTID":469182},"geometry":{"x":181555.07000000123,"y":2540450.2699999996}},{"attributes":{"ID":469208,"DIS_CODE":0,"TOWNNAME":"關廟區","LI":"香洋里","LIN":"5鄰","STREET":"忠孝街","SECT":" ","MAREA":" ","LANE":" ","ALLEY":" ","HOUSE_NO":"１３２號","E_COORD97":181032.54000000001,"N_COORD97":2540297.25,"ADDRESS":"忠孝街１３２號","OBJECTID":469183},"geometry":{"x":181032.54000000097,"y":2540297.2500000019}},{"attributes":{"ID":469209,"DIS_CODE":0,"TOWNNAME":"關廟區","LI":"五甲里","LIN":"5鄰","STREET":"五福路","SECT":" ","MAREA":" ","LANE":" ","ALLEY":" ","HOUSE_NO":"５１號","E_COORD97":181316.22,"N_COORD97":2538855.25,"ADDRESS":"五福路５１號","OBJECTID":469184},"geometry":{"x":181316.21999999974,"y":2538855.25}},{"attributes":{"ID":469210,"DIS_CODE":0,"TOWNNAME":"關廟區","LI":"關廟里","LIN":"5鄰","STREET":"中山路","SECT":"二段","MAREA":" ","LANE":" ","ALLEY":" ","HOUSE_NO":"２４９號","E_COORD97":179864.66,"N_COORD97":2540187.2799999998,"ADDRESS":"中山路二段２４９號","OBJECTID":469185},"geometry":{"x":179864.66000000015,"y":2540187.2800000031}},{"attributes":{"ID":469211,"DIS_CODE":0,"TOWNNAME":"關廟區","LI":"關廟里","LIN":"5鄰","STREET":"中山路","SECT":"二段","MAREA":" ","LANE":" ","ALLEY":" ","HOUSE_NO":"２３７號","E_COORD97":180127.95999999999,"N_COORD97":2540172.2799999998,"ADDRESS":"中山路二段２３７號","OBJECTID":469186},"geometry":{"x":180127.96000000089,"y":2540172.2799999993}},{"attributes":{"ID":469212,"DIS_CODE":0,"TOWNNAME":"關廟區","LI":"北勢里","LIN":"5鄰","STREET":"成功路","SECT":" ","MAREA":" ","LANE":" ","ALLEY":" ","HOUSE_NO":"１１９號","E_COORD97":181574.17000000001,"N_COORD97":2540444.27,"ADDRESS":"成功路１１９號","OBJECTID":469187},"geometry":{"x":181574.17000000086,"y":2540444.2699999996}},{"attributes":{"ID":469213,"DIS_CODE":0,"TOWNNAME":"關廟區","LI":"關廟里","LIN":"5鄰","STREET":"中山路","SECT":"二段","MAREA":" ","LANE":" ","ALLEY":" ","HOUSE_NO":"２５３號","E_COORD97":179838.95999999999,"N_COORD97":2540231.2799999998,"ADDRESS":"中山路二段２５３號","OBJECTID":469188},"geometry":{"x":179838.95999999996,"y":2540231.2800000031}},{"attributes":{"ID":469214,"DIS_CODE":0,"TOWNNAME":"關廟區","LI":"關廟里","LIN":"5鄰","STREET":"文化街","SECT":" ","MAREA":" ","LANE":" ","ALLEY":" ","HOUSE_NO":"９號","E_COORD97":180694.64000000001,"N_COORD97":2539970.3300000001,"ADDRESS":"文化街９號","OBJECTID":469189},"geometry":{"x":180694.63999999966,"y":2539970.3299999982}},{"attributes":{"ID":469215,"DIS_CODE":0,"TOWNNAME":"關廟區","LI":"北勢里","LIN":"5鄰","STREET":"成功路","SECT":" ","MAREA":" ","LANE":" ","ALLEY":" ","HOUSE_NO":"１０７號","E_COORD97":181593.07000000001,"N_COORD97":2540437.27,"ADDRESS":"成功路１０７號","OBJECTID":469190},"geometry":{"x":181593.0700000003,"y":2540437.2699999996}},{"attributes":{"ID":469216,"DIS_CODE":0,"TOWNNAME":"關廟區","LI":"北勢里","LIN":"5鄰","STREET":"成功路","SECT":" ","MAREA":" ","LANE":" ","ALLEY":" ","HOUSE_NO":"１２３號","E_COORD97":181565.37,"N_COORD97":2540446.27,"ADDRESS":"成功路１２３號","OBJECTID":469191},"geometry":{"x":181565.37000000011,"y":2540446.2700000014}},{"attributes":{"ID":469217,"DIS_CODE":0,"TOWNNAME":"關廟區","LI":"南花里","LIN":"5鄰","STREET":"園東街","SECT":" ","MAREA":" ","LANE":" ","ALLEY":" ","HOUSE_NO":"１００號","E_COORD97":182029.41,"N_COORD97":2540152.25,"ADDRESS":"園東街１００號","OBJECTID":469192},"geometry":{"x":182029.41000000015,"y":2540152.2500000019}},{"attributes":{"ID":469218,"DIS_CODE":0,"TOWNNAME":"關廟區","LI":"南花里","LIN":"5鄰","STREET":"園東街","SECT":" ","MAREA":" ","LANE":" ","ALLEY":" ","HOUSE_NO":"１０６號","E_COORD97":182030.20999999999,"N_COORD97":2540161.25,"ADDRESS":"園東街１０６號","OBJECTID":469193},"geometry":{"x":182030.20999999996,"y":2540161.2500000019}},{"attributes":{"ID":469219,"DIS_CODE":0,"TOWNNAME":"關廟區","LI":"北勢里","LIN":"5鄰","STREET":"成功路","SECT":" ","MAREA":" ","LANE":" ","ALLEY":" ","HOUSE_NO":"１０３號","E_COORD97":181601.47,"N_COORD97":2540435.27,"ADDRESS":"成功路１０３號","OBJECTID":469194},"geometry":{"x":181601.46999999974,"y":2540435.2700000014}},{"attributes":{"ID":469220,"DIS_CODE":0,"TOWNNAME":"關廟區","LI":"新光里","LIN":"5鄰","STREET":"北寮街","SECT":" ","MAREA":" ","LANE":" ","ALLEY":" ","HOUSE_NO":"３３號","E_COORD97":184039.87,"N_COORD97":2541832.25,"ADDRESS":"北寮街３３號","OBJECTID":469195},"geometry":{"x":184039.87000000011,"y":2541832.2500000037}},{"attributes":{"ID":469221,"DIS_CODE":0,"TOWNNAME":"關廟區","LI":"關廟里","LIN":"5鄰","STREET":"文化街","SECT":" ","MAREA":" ","LANE":" ","ALLEY":" ","HOUSE_NO":"３１號","E_COORD97":180712.69,"N_COORD97":2539959.3300000001,"ADDRESS":"文化街３１號","OBJECTID":469196},"geometry":{"x":180712.68999999948,"y":2539959.3300000001}},{"attributes":{"ID":469222,"DIS_CODE":0,"TOWNNAME":"關廟區","LI":"關廟里","LIN":"5鄰","STREET":"文化街","SECT":" ","MAREA":" ","LANE":" ","ALLEY":" ","HOUSE_NO":"２３號","E_COORD97":180726.19,"N_COORD97":2539971.3300000001,"ADDRESS":"文化街２３號","OBJECTID":469197},"geometry":{"x":180726.19000000041,"y":2539971.3300000019}},{"attributes":{"ID":469223,"DIS_CODE":0,"TOWNNAME":"關廟區","LI":"埤頭里","LIN":"5鄰","STREET":"關新路","SECT":"一段","MAREA":" ","LANE":" ","ALLEY":" ","HOUSE_NO":"８３６號","E_COORD97":179105.87,"N_COORD97":2544013.25,"ADDRESS":"關新路一段８３６號","OBJECTID":469198},"geometry":{"x":179105.87000000197,"y":2544013.2500000019}},{"attributes":{"ID":469224,"DIS_CODE":0,"TOWNNAME":"關廟區","LI":"埤頭里","LIN":"5鄰","STREET":"關新路","SECT":"一段","MAREA":" ","LANE":" ","ALLEY":" ","HOUSE_NO":"７９２號","E_COORD97":179115.67000000001,"N_COORD97":2543927.2999999998,"ADDRESS":"關新路一段７９２號","OBJECTID":469199},"geometry":{"x":179115.67000000086,"y":2543927.3000000007}},{"attributes":{"ID":469225,"DIS_CODE":0,"TOWNNAME":"關廟區","LI":"埤頭里","LIN":"5鄰","STREET":"關新路","SECT":"一段","MAREA":" ","LANE":" ","ALLEY":" ","HOUSE_NO":"８３２號","E_COORD97":179106.87,"N_COORD97":2543978.2999999998,"ADDRESS":"關新路一段８３２號","OBJECTID":469200},"geometry":{"x":179106.87000000011,"y":2543978.3000000007}}]}