{"displayFieldName":"TOWNNAME","fieldAliases":{"ID":"ID","DIS_CODE":"DIS_CODE","TOWNNAME":"TOWNNAME","LI":"LI","LIN":"LIN","STREET":"STREET","SECT":"SECT","MAREA":"MAREA","LANE":"LANE","ALLEY":"ALLEY","HOUSE_NO":"HOUSE_NO","E_COORD97":"E_COORD97","N_COORD97":"N_COORD97","ADDRESS":"ADDRESS","OBJECTID":"OBJECTID"},"geometryType":"esriGeometryPoint","spatialReference":{"wkid":102443,"latestWkid":3826},"fields":[{"name":"ID","type":"esriFieldTypeDouble","alias":"ID"},{"name":"DIS_CODE","type":"esriFieldTypeInteger","alias":"DIS_CODE"},{"name":"TOWNNAME","type":"esriFieldTypeString","alias":"TOWNNAME","length":8},{"name":"LI","type":"esriFieldTypeString","alias":"LI","length":8},{"name":"LIN","type":"esriFieldTypeString","alias":"LIN","length":12},{"name":"STREET","type":"esriFieldTypeString","alias":"STREET","length":20},{"name":"SECT","type":"esriFieldTypeString","alias":"SECT","length":8},{"name":"MAREA","type":"esriFieldTypeString","alias":"MAREA","length":12},{"name":"LANE","type":"esriFieldTypeString","alias":"LANE","length":10},{"name":"ALLEY","type":"esriFieldTypeString","alias":"ALLEY","length":10},{"name":"HOUSE_NO","type":"esriFieldTypeString","alias":"HOUSE_NO","length":20},{"name":"E_COORD97","type":"esriFieldTypeDouble","alias":"E_COORD97"},{"name":"N_COORD97","type":"esriFieldTypeDouble","alias":"N_COORD97"},{"name":"ADDRESS","type":"esriFieldTypeString","alias":"ADDRESS","length":50},{"name":"OBJECTID","type":"esriFieldTypeOID","alias":"OBJECTID"}],"features":[{"attributes":{"ID":304009,"DIS_CODE":0,"TOWNNAME":"安南區","LI":"理想里","LIN":"7鄰","STREET":"海佃路","SECT":"二段","MAREA":" ","LANE":"１７６巷","ALLEY":" ","HOUSE_NO":"１號","E_COORD97":167008.64000000001,"N_COORD97":2548196.5699999998,"ADDRESS":"海佃路二段１７６巷１號","OBJECTID":304001},"geometry":{"x":167008.6400000006,"y":2548196.5700000003}},{"attributes":{"ID":304010,"DIS_CODE":0,"TOWNNAME":"安南區","LI":"頂安里","LIN":" ","STREET":"頂安街","SECT":" ","MAREA":" ","LANE":"４９７巷","ALLEY":" ","HOUSE_NO":"１０號","E_COORD97":168771.53,"N_COORD97":2549282.8999999999,"ADDRESS":"頂安街４９７巷１０號","OBJECTID":304002},"geometry":{"x":168771.53000000119,"y":2549282.9000000004}},{"attributes":{"ID":304011,"DIS_CODE":0,"TOWNNAME":"安南區","LI":"頂安里","LIN":"18鄰","STREET":"怡安路","SECT":"一段","MAREA":" ","LANE":"４４７巷","ALLEY":" ","HOUSE_NO":"８號","E_COORD97":168553.31,"N_COORD97":2549179.9900000002,"ADDRESS":"怡安路一段４４７巷８號","OBJECTID":304003},"geometry":{"x":168553.31000000145,"y":2549179.9900000002}},{"attributes":{"ID":304012,"DIS_CODE":0,"TOWNNAME":"安南區","LI":"頂安里","LIN":" ","STREET":"安中路","SECT":"一段","MAREA":" ","LANE":"３５４巷","ALLEY":" ","HOUSE_NO":"１號","E_COORD97":168471.88,"N_COORD97":2548754.0800000001,"ADDRESS":"安中路一段３５４巷１號","OBJECTID":304004},"geometry":{"x":168471.88000000082,"y":2548754.0800000019}},{"attributes":{"ID":304013,"DIS_CODE":0,"TOWNNAME":"安南區","LI":"頂安里","LIN":"20鄰","STREET":"長溪路","SECT":"一段","MAREA":" ","LANE":"３８７巷","ALLEY":" ","HOUSE_NO":"５號","E_COORD97":168623.92999999999,"N_COORD97":2548855.7000000002,"ADDRESS":"長溪路一段３８７巷５號","OBJECTID":304005},"geometry":{"x":168623.93000000063,"y":2548855.6999999993}},{"attributes":{"ID":304014,"DIS_CODE":0,"TOWNNAME":"中西區","LI":"西賢里","LIN":"7鄰","STREET":"和緯路","SECT":"五段","MAREA":" ","LANE":" ","ALLEY":" ","HOUSE_NO":"２８５號","E_COORD97":165883.38,"N_COORD97":2545051.3399999999,"ADDRESS":"和緯路五段２８５號","OBJECTID":304006},"geometry":{"x":165883.38000000082,"y":2545051.3399999999}},{"attributes":{"ID":304015,"DIS_CODE":0,"TOWNNAME":"安南區","LI":"東和里","LIN":"7鄰","STREET":"環館三路","SECT":" ","MAREA":" ","LANE":" ","ALLEY":" ","HOUSE_NO":"１號","E_COORD97":171560.43208999999,"N_COORD97":2551546.0687600002,"ADDRESS":"環館三路１號","OBJECTID":304007},"geometry":{"x":171560.43209000118,"y":2551546.0687569994}},{"attributes":{"ID":304016,"DIS_CODE":0,"TOWNNAME":"安南區","LI":"東和里","LIN":"7鄰","STREET":"環館三路","SECT":" ","MAREA":" ","LANE":" ","ALLEY":" ","HOUSE_NO":"７號","E_COORD97":171559.37290399999,"N_COORD97":2551576.3370699999,"ADDRESS":"環館三路７號","OBJECTID":304008},"geometry":{"x":171559.37290399987,"y":2551576.3370740023}},{"attributes":{"ID":304017,"DIS_CODE":0,"TOWNNAME":"安南區","LI":"東和里","LIN":"7鄰","STREET":"環館路","SECT":" ","MAREA":" ","LANE":" ","ALLEY":" ","HOUSE_NO":"５１２號","E_COORD97":171203.07999999999,"N_COORD97":2551406.8100000001,"ADDRESS":"環館路５１２號","OBJECTID":304009},"geometry":{"x":171203.07999999914,"y":2551406.8100000042}},{"attributes":{"ID":304018,"DIS_CODE":0,"TOWNNAME":"安南區","LI":"頂安里","LIN":"4鄰","STREET":"長溪路","SECT":"一段","MAREA":" ","LANE":"４９０巷","ALLEY":" ","HOUSE_NO":"６號","E_COORD97":168522.91,"N_COORD97":2549092.29,"ADDRESS":"長溪路一段４９０巷６號","OBJECTID":304010},"geometry":{"x":168522.91000000108,"y":2549092.2899999991}},{"attributes":{"ID":304019,"DIS_CODE":0,"TOWNNAME":"安南區","LI":"新順里","LIN":" ","STREET":"北安路","SECT":"三段","MAREA":" ","LANE":"７４５巷","ALLEY":" ","HOUSE_NO":"２４之１號","E_COORD97":169077.57000000001,"N_COORD97":2549940.8199999998,"ADDRESS":"北安路三段７４５巷２４之１號","OBJECTID":304011},"geometry":{"x":169077.56999999937,"y":2549940.8200000003}},{"attributes":{"ID":304020,"DIS_CODE":0,"TOWNNAME":"關廟區","LI":"松腳里","LIN":"8鄰","STREET":"四維街","SECT":" ","MAREA":" ","LANE":"１７２巷","ALLEY":" ","HOUSE_NO":"２號","E_COORD97":181899.45999999999,"N_COORD97":2539788.25,"ADDRESS":"四維街１７２巷２號","OBJECTID":304012},"geometry":{"x":181899.46000000089,"y":2539788.2500000019}},{"attributes":{"ID":304021,"DIS_CODE":0,"TOWNNAME":"安平區","LI":"海頭里","LIN":"8鄰","STREET":"古堡街","SECT":" ","MAREA":" ","LANE":"５３巷","ALLEY":" ","HOUSE_NO":"１號","E_COORD97":164041.63,"N_COORD97":2544627.3900000001,"ADDRESS":"古堡街５３巷１號","OBJECTID":304013},"geometry":{"x":164041.62999999989,"y":2544627.3900000025}},{"attributes":{"ID":304022,"DIS_CODE":0,"TOWNNAME":"北區","LI":"長榮里","LIN":"8鄰","STREET":"長榮路","SECT":"五段","MAREA":" ","LANE":"４１巷","ALLEY":" ","HOUSE_NO":"１２號","E_COORD97":170029.20999999999,"N_COORD97":2545541.1499999999,"ADDRESS":"長榮路五段４１巷１２號","OBJECTID":304014},"geometry":{"x":170029.21000000183,"y":2545541.1500000004}},{"attributes":{"ID":304023,"DIS_CODE":0,"TOWNNAME":"東山區","LI":"東中里","LIN":"8鄰","STREET":"中興南路","SECT":" ","MAREA":" ","LANE":"２８巷","ALLEY":" ","HOUSE_NO":"１號","E_COORD97":188996.62,"N_COORD97":2579790.1800000002,"ADDRESS":"中興南路２８巷１號","OBJECTID":304015},"geometry":{"x":188996.62000000011,"y":2579790.1799999997}},{"attributes":{"ID":304024,"DIS_CODE":0,"TOWNNAME":"新營區","LI":"嘉芳里","LIN":" ","STREET":"復興路","SECT":" ","MAREA":" ","LANE":"８０３巷","ALLEY":" ","HOUSE_NO":"１８號","E_COORD97":177115.07999999999,"N_COORD97":2578512.4300000002,"ADDRESS":"復興路８０３巷１８號","OBJECTID":304016},"geometry":{"x":177115.08000000101,"y":2578512.4300000016}},{"attributes":{"ID":304025,"DIS_CODE":0,"TOWNNAME":"東山區","LI":"東中里","LIN":"8鄰","STREET":"公園路","SECT":" ","MAREA":" ","LANE":"３６巷","ALLEY":" ","HOUSE_NO":"１０號","E_COORD97":189146.75,"N_COORD97":2579759.04,"ADDRESS":"公園路３６巷１０號","OBJECTID":304017},"geometry":{"x":189146.75,"y":2579759.040000001}},{"attributes":{"ID":304026,"DIS_CODE":0,"TOWNNAME":"東山區","LI":"東中里","LIN":"8鄰","STREET":"公園路","SECT":" ","MAREA":" ","LANE":"３６巷","ALLEY":" ","HOUSE_NO":"１５號","E_COORD97":189149.23999999999,"N_COORD97":2579782.5699999998,"ADDRESS":"公園路３６巷１５號","OBJECTID":304018},"geometry":{"x":189149.24000000209,"y":2579782.570000004}},{"attributes":{"ID":304027,"DIS_CODE":0,"TOWNNAME":"東山區","LI":"東中里","LIN":"8鄰","STREET":"公園路","SECT":" ","MAREA":" ","LANE":"３６巷","ALLEY":" ","HOUSE_NO":"１６號","E_COORD97":189152.35000000001,"N_COORD97":2579765.7200000002,"ADDRESS":"公園路３６巷１６號","OBJECTID":304019},"geometry":{"x":189152.34999999963,"y":2579765.7200000025}},{"attributes":{"ID":304028,"DIS_CODE":0,"TOWNNAME":"東山區","LI":"東中里","LIN":"8鄰","STREET":"公園路","SECT":" ","MAREA":" ","LANE":"３６巷","ALLEY":" ","HOUSE_NO":"１７號","E_COORD97":189152.20999999999,"N_COORD97":2579786.7599999998,"ADDRESS":"公園路３６巷１７號","OBJECTID":304020},"geometry":{"x":189152.20999999996,"y":2579786.7599999998}},{"attributes":{"ID":304029,"DIS_CODE":0,"TOWNNAME":"東山區","LI":"東中里","LIN":"8鄰","STREET":"公園路","SECT":" ","MAREA":" ","LANE":"３６巷","ALLEY":" ","HOUSE_NO":"１９號","E_COORD97":189154.54000000001,"N_COORD97":2579790.3599999999,"ADDRESS":"公園路３６巷１９號","OBJECTID":304021},"geometry":{"x":189154.54000000097,"y":2579790.3600000013}},{"attributes":{"ID":304030,"DIS_CODE":0,"TOWNNAME":"東山區","LI":"東中里","LIN":"8鄰","STREET":"公園路","SECT":" ","MAREA":" ","LANE":"３６巷","ALLEY":" ","HOUSE_NO":"２１號","E_COORD97":189157.63,"N_COORD97":2579794.2999999998,"ADDRESS":"公園路３６巷２１號","OBJECTID":304022},"geometry":{"x":189157.62999999989,"y":2579794.3000000007}},{"attributes":{"ID":304031,"DIS_CODE":0,"TOWNNAME":"東山區","LI":"東中里","LIN":"8鄰","STREET":"公園路","SECT":" ","MAREA":" ","LANE":"３６巷","ALLEY":" ","HOUSE_NO":"２３號","E_COORD97":189160.59,"N_COORD97":2579797.9700000002,"ADDRESS":"公園路３６巷２３號","OBJECTID":304023},"geometry":{"x":189160.59000000078,"y":2579797.9700000025}},{"attributes":{"ID":304032,"DIS_CODE":0,"TOWNNAME":"東山區","LI":"東中里","LIN":"8鄰","STREET":"公園路","SECT":" ","MAREA":" ","LANE":"３６巷","ALLEY":" ","HOUSE_NO":"２５號","E_COORD97":189163.59,"N_COORD97":2579801.5499999998,"ADDRESS":"公園路３６巷２５號","OBJECTID":304024},"geometry":{"x":189163.59000000078,"y":2579801.5500000026}},{"attributes":{"ID":304033,"DIS_CODE":0,"TOWNNAME":"東山區","LI":"東中里","LIN":"8鄰","STREET":"公園路","SECT":" ","MAREA":" ","LANE":"３６巷","ALLEY":" ","HOUSE_NO":"２７號","E_COORD97":189166.79999999999,"N_COORD97":2579804.98,"ADDRESS":"公園路３６巷２７號","OBJECTID":304025},"geometry":{"x":189166.79999999981,"y":2579804.9800000023}},{"attributes":{"ID":304034,"DIS_CODE":0,"TOWNNAME":"東山區","LI":"東中里","LIN":"8鄰","STREET":"公園路","SECT":" ","MAREA":" ","LANE":"３６巷","ALLEY":" ","HOUSE_NO":"２９號","E_COORD97":189170.13,"N_COORD97":2579808.5499999998,"ADDRESS":"公園路３６巷２９號","OBJECTID":304026},"geometry":{"x":189170.13000000082,"y":2579808.5500000007}},{"attributes":{"ID":304035,"DIS_CODE":0,"TOWNNAME":"東山區","LI":"東中里","LIN":"8鄰","STREET":"公園路","SECT":" ","MAREA":" ","LANE":"３６巷","ALLEY":" ","HOUSE_NO":"２號","E_COORD97":189137.73000000001,"N_COORD97":2579749.1699999999,"ADDRESS":"公園路３６巷２號","OBJECTID":304027},"geometry":{"x":189137.73000000231,"y":2579749.1699999999}},{"attributes":{"ID":304036,"DIS_CODE":0,"TOWNNAME":"東山區","LI":"東中里","LIN":"8鄰","STREET":"公園路","SECT":" ","MAREA":" ","LANE":"３６巷","ALLEY":" ","HOUSE_NO":"６號","E_COORD97":189140.85000000001,"N_COORD97":2579752.6200000001,"ADDRESS":"公園路３６巷６號","OBJECTID":304028},"geometry":{"x":189140.84999999963,"y":2579752.6200000029}},{"attributes":{"ID":304037,"DIS_CODE":0,"TOWNNAME":"東山區","LI":"東中里","LIN":"8鄰","STREET":"公園路","SECT":" ","MAREA":" ","LANE":"３６巷","ALLEY":" ","HOUSE_NO":"８號","E_COORD97":189143.98000000001,"N_COORD97":2579755.98,"ADDRESS":"公園路３６巷８號","OBJECTID":304029},"geometry":{"x":189143.98000000045,"y":2579755.9800000042}},{"attributes":{"ID":304038,"DIS_CODE":0,"TOWNNAME":"新營區","LI":"興安里","LIN":"8鄰","STREET":"新進路","SECT":" ","MAREA":" ","LANE":"２８１巷","ALLEY":" ","HOUSE_NO":"３號","E_COORD97":179983.73999999999,"N_COORD97":2577793.1499999999,"ADDRESS":"新進路２８１巷３號","OBJECTID":304030},"geometry":{"x":179983.74000000115,"y":2577793.1500000022}},{"attributes":{"ID":304039,"DIS_CODE":0,"TOWNNAME":"新營區","LI":"新北里","LIN":"8鄰","STREET":"三興街","SECT":" ","MAREA":" ","LANE":"２７５巷","ALLEY":" ","HOUSE_NO":"４８號","E_COORD97":179217.54000000001,"N_COORD97":2579663.96,"ADDRESS":"三興街２７５巷４８號","OBJECTID":304031},"geometry":{"x":179217.54000000004,"y":2579663.9600000009}},{"attributes":{"ID":304040,"DIS_CODE":0,"TOWNNAME":"新營區","LI":"南紙里","LIN":"8鄰","STREET":"太子路","SECT":" ","MAREA":" ","LANE":"１３９巷","ALLEY":" ","HOUSE_NO":"１００號","E_COORD97":177990.48999999999,"N_COORD97":2577591.1899999999,"ADDRESS":"太子路１３９巷１００號","OBJECTID":304032},"geometry":{"x":177990.49000000115,"y":2577591.1900000013}},{"attributes":{"ID":304041,"DIS_CODE":0,"TOWNNAME":"新營區","LI":"新東里","LIN":"8鄰","STREET":"東泰路","SECT":" ","MAREA":" ","LANE":"６巷","ALLEY":" ","HOUSE_NO":"２７號","E_COORD97":181202.73999999999,"N_COORD97":2579445.2799999998,"ADDRESS":"東泰路６巷２７號","OBJECTID":304033},"geometry":{"x":181202.74000000115,"y":2579445.2800000012}},{"attributes":{"ID":304042,"DIS_CODE":0,"TOWNNAME":"新營區","LI":"新東里","LIN":"8鄰","STREET":"東泰路","SECT":" ","MAREA":" ","LANE":"６巷","ALLEY":" ","HOUSE_NO":"５２號","E_COORD97":181232.25,"N_COORD97":2579421.8900000001,"ADDRESS":"東泰路６巷５２號","OBJECTID":304034},"geometry":{"x":181232.24999999907,"y":2579421.8900000025}},{"attributes":{"ID":304043,"DIS_CODE":0,"TOWNNAME":"新營區","LI":"民榮里","LIN":"8鄰","STREET":"和平路","SECT":" ","MAREA":" ","LANE":"３２巷","ALLEY":" ","HOUSE_NO":"７號","E_COORD97":179358.73999999999,"N_COORD97":2577803.8599999999,"ADDRESS":"和平路３２巷７號","OBJECTID":304035},"geometry":{"x":179358.74000000022,"y":2577803.8600000013}},{"attributes":{"ID":304044,"DIS_CODE":0,"TOWNNAME":"新營區","LI":"新東里","LIN":"8鄰","STREET":"東泰路","SECT":" ","MAREA":" ","LANE":"６巷","ALLEY":" ","HOUSE_NO":"７號","E_COORD97":181160.53,"N_COORD97":2579442.1499999999,"ADDRESS":"東泰路６巷７號","OBJECTID":304036},"geometry":{"x":181160.53000000026,"y":2579442.1500000004}},{"attributes":{"ID":304045,"DIS_CODE":0,"TOWNNAME":"安南區","LI":"東和里","LIN":"7鄰","STREET":"環館路","SECT":" ","MAREA":" ","LANE":" ","ALLEY":" ","HOUSE_NO":"５１６號","E_COORD97":171193.56,"N_COORD97":2551401.52,"ADDRESS":"環館路５１６號","OBJECTID":304037},"geometry":{"x":171193.55999999959,"y":2551401.5200000014}},{"attributes":{"ID":304046,"DIS_CODE":0,"TOWNNAME":"安南區","LI":"東和里","LIN":"7鄰","STREET":"環館路","SECT":" ","MAREA":" ","LANE":" ","ALLEY":" ","HOUSE_NO":"５１８號","E_COORD97":171182.97,"N_COORD97":2551395.6899999999,"ADDRESS":"環館路５１８號","OBJECTID":304038},"geometry":{"x":171182.96999999974,"y":2551395.6899999995}},{"attributes":{"ID":304047,"DIS_CODE":0,"TOWNNAME":"安南區","LI":"新順里","LIN":" ","STREET":"總安街","SECT":"一段","MAREA":" ","LANE":"３４２巷","ALLEY":" ","HOUSE_NO":"２５號","E_COORD97":169244.54000000001,"N_COORD97":2550424.1600000001,"ADDRESS":"總安街一段３４２巷２５號","OBJECTID":304039},"geometry":{"x":169244.54000000097,"y":2550424.1599999983}},{"attributes":{"ID":304048,"DIS_CODE":0,"TOWNNAME":"安南區","LI":"溪心里","LIN":"4鄰","STREET":"本原街","SECT":"二段","MAREA":" ","LANE":"１０６巷","ALLEY":" ","HOUSE_NO":"６３號","E_COORD97":166918,"N_COORD97":2550940.4700000002,"ADDRESS":"本原街二段１０６巷６３號","OBJECTID":304040},"geometry":{"x":166918,"y":2550940.4700000007}},{"attributes":{"ID":304049,"DIS_CODE":0,"TOWNNAME":"安南區","LI":"溪心里","LIN":"7鄰","STREET":"本原街","SECT":"二段","MAREA":" ","LANE":"１１６巷","ALLEY":" ","HOUSE_NO":"２４號","E_COORD97":166765.07999999999,"N_COORD97":2550866.3300000001,"ADDRESS":"本原街二段１１６巷２４號","OBJECTID":304041},"geometry":{"x":166765.08000000194,"y":2550866.3300000001}},{"attributes":{"ID":304050,"DIS_CODE":0,"TOWNNAME":"安南區","LI":"溪心里","LIN":"15鄰","STREET":"功安三街","SECT":" ","MAREA":" ","LANE":"１７５巷","ALLEY":" ","HOUSE_NO":"６號","E_COORD97":165978.09,"N_COORD97":2550313.9700000002,"ADDRESS":"功安三街１７５巷６號","OBJECTID":304042},"geometry":{"x":165978.08999999985,"y":2550313.9700000007}},{"attributes":{"ID":304051,"DIS_CODE":0,"TOWNNAME":"安南區","LI":"溪心里","LIN":"15鄰","STREET":"功安三街","SECT":" ","MAREA":" ","LANE":"１７５巷","ALLEY":" ","HOUSE_NO":"１０號","E_COORD97":165971.42999999999,"N_COORD97":2550307.4500000002,"ADDRESS":"功安三街１７５巷１０號","OBJECTID":304043},"geometry":{"x":165971.43000000063,"y":2550307.4500000011}},{"attributes":{"ID":304052,"DIS_CODE":0,"TOWNNAME":"安南區","LI":"溪北里","LIN":" ","STREET":"安和路","SECT":"一段","MAREA":" ","LANE":"１２３巷","ALLEY":" ","HOUSE_NO":"１７號","E_COORD97":169405.28515700001,"N_COORD97":2547633.5971300001,"ADDRESS":"安和路一段１２３巷１７號","OBJECTID":304044},"geometry":{"x":169405.28515699971,"y":2547633.5971300006}},{"attributes":{"ID":304053,"DIS_CODE":0,"TOWNNAME":"安南區","LI":"溪北里","LIN":" ","STREET":"府安路","SECT":"四段","MAREA":" ","LANE":"３４巷","ALLEY":" ","HOUSE_NO":"１８號","E_COORD97":169377.20000000001,"N_COORD97":2547357.5800000001,"ADDRESS":"府安路四段３４巷１８號","OBJECTID":304045},"geometry":{"x":169377.20000000112,"y":2547357.5800000019}},{"attributes":{"ID":304054,"DIS_CODE":0,"TOWNNAME":"新營區","LI":"新東里","LIN":"8鄰","STREET":"東泰路","SECT":" ","MAREA":" ","LANE":"６巷","ALLEY":" ","HOUSE_NO":"４２號","E_COORD97":181212.87,"N_COORD97":2579420.8700000001,"ADDRESS":"東泰路６巷４２號","OBJECTID":304046},"geometry":{"x":181212.87000000011,"y":2579420.870000001}},{"attributes":{"ID":304055,"DIS_CODE":0,"TOWNNAME":"安南區","LI":"東和里","LIN":"7鄰","STREET":"環館路","SECT":" ","MAREA":" ","LANE":" ","ALLEY":" ","HOUSE_NO":"５２０號","E_COORD97":171176.10000000001,"N_COORD97":2551390.3999999999,"ADDRESS":"環館路５２０號","OBJECTID":304047},"geometry":{"x":171176.10000000056,"y":2551390.4000000022}},{"attributes":{"ID":304056,"DIS_CODE":0,"TOWNNAME":"安南區","LI":"東和里","LIN":"7鄰","STREET":"環館五路","SECT":" ","MAREA":" ","LANE":" ","ALLEY":" ","HOUSE_NO":"５號","E_COORD97":171249.60000000001,"N_COORD97":2551473.6400000001,"ADDRESS":"環館五路５號","OBJECTID":304048},"geometry":{"x":171249.59999999963,"y":2551473.6400000025}},{"attributes":{"ID":304057,"DIS_CODE":0,"TOWNNAME":"安南區","LI":"東和里","LIN":"7鄰","STREET":"環館五路","SECT":" ","MAREA":" ","LANE":" ","ALLEY":" ","HOUSE_NO":"７號","E_COORD97":171246.57999999999,"N_COORD97":2551479.5099999998,"ADDRESS":"環館五路７號","OBJECTID":304049},"geometry":{"x":171246.58000000007,"y":2551479.5100000035}},{"attributes":{"ID":304058,"DIS_CODE":0,"TOWNNAME":"安南區","LI":"東和里","LIN":"7鄰","STREET":"環館五路","SECT":" ","MAREA":" ","LANE":" ","ALLEY":" ","HOUSE_NO":"９號","E_COORD97":171243.25,"N_COORD97":2551486.3399999999,"ADDRESS":"環館五路９號","OBJECTID":304050},"geometry":{"x":171243.25000000093,"y":2551486.3399999999}},{"attributes":{"ID":304059,"DIS_CODE":0,"TOWNNAME":"安南區","LI":"東和里","LIN":"7鄰","STREET":"環館五路","SECT":" ","MAREA":" ","LANE":" ","ALLEY":" ","HOUSE_NO":"１１號","E_COORD97":171241.34,"N_COORD97":2551492.6899999999,"ADDRESS":"環館五路１１號","OBJECTID":304051},"geometry":{"x":171241.33999999985,"y":2551492.6900000013}},{"attributes":{"ID":304060,"DIS_CODE":0,"TOWNNAME":"安南區","LI":"東和里","LIN":"7鄰","STREET":"慶和路","SECT":"二段","MAREA":" ","LANE":" ","ALLEY":" ","HOUSE_NO":"５８號","E_COORD97":171238.95000000001,"N_COORD97":2550341.3799999999,"ADDRESS":"慶和路二段５８號","OBJECTID":304052},"geometry":{"x":171238.95000000019,"y":2550341.3800000008}},{"attributes":{"ID":304061,"DIS_CODE":0,"TOWNNAME":"中西區","LI":"西湖里","LIN":"17鄰","STREET":"湖美二街","SECT":" ","MAREA":" ","LANE":" ","ALLEY":" ","HOUSE_NO":"５４號","E_COORD97":166144.57000000001,"N_COORD97":2544689.9500000002,"ADDRESS":"湖美二街５４號","OBJECTID":304053},"geometry":{"x":166144.5700000003,"y":2544689.9500000011}},{"attributes":{"ID":304062,"DIS_CODE":0,"TOWNNAME":"後壁區","LI":"竹新里","LIN":"4鄰","STREET":" ","SECT":" ","MAREA":"竹圍後","LANE":" ","ALLEY":" ","HOUSE_NO":"３７號之６","E_COORD97":178462.03,"N_COORD97":2582386,"ADDRESS":"竹圍後３７號之６","OBJECTID":304054},"geometry":{"x":178462.03000000026,"y":2582386}},{"attributes":{"ID":304063,"DIS_CODE":0,"TOWNNAME":"安南區","LI":"溪北里","LIN":" ","STREET":"文安街","SECT":" ","MAREA":" ","LANE":"１巷","ALLEY":" ","HOUSE_NO":"１號","E_COORD97":169419.85999999999,"N_COORD97":2547474.1499999999,"ADDRESS":"文安街１巷１號","OBJECTID":304055},"geometry":{"x":169419.8600000022,"y":2547474.1500000004}},{"attributes":{"ID":304064,"DIS_CODE":0,"TOWNNAME":"安南區","LI":"溪北里","LIN":" ","STREET":"安和路","SECT":"一段","MAREA":" ","LANE":"１０１巷","ALLEY":" ","HOUSE_NO":"１６號","E_COORD97":169432.39000000001,"N_COORD97":2547602.7599999998,"ADDRESS":"安和路一段１０１巷１６號","OBJECTID":304056},"geometry":{"x":169432.38999999966,"y":2547602.7600000035}},{"attributes":{"ID":304065,"DIS_CODE":0,"TOWNNAME":"安南區","LI":"溪北里","LIN":" ","STREET":"安和路","SECT":"一段","MAREA":" ","LANE":"１０１巷","ALLEY":" ","HOUSE_NO":"１８號","E_COORD97":169427.35999999999,"N_COORD97":2547601.2200000002,"ADDRESS":"安和路一段１０１巷１８號","OBJECTID":304057},"geometry":{"x":169427.36000000127,"y":2547601.2200000025}},{"attributes":{"ID":304066,"DIS_CODE":0,"TOWNNAME":"安南區","LI":"溪北里","LIN":" ","STREET":"安和路","SECT":"一段","MAREA":" ","LANE":"１０１巷","ALLEY":" ","HOUSE_NO":"２０號","E_COORD97":169421.70000000001,"N_COORD97":2547600.77,"ADDRESS":"安和路一段１０１巷２０號","OBJECTID":304058},"geometry":{"x":169421.70000000019,"y":2547600.7699999996}},{"attributes":{"ID":304067,"DIS_CODE":0,"TOWNNAME":"新營區","LI":"王公里","LIN":"8鄰","STREET":"民治路","SECT":" ","MAREA":" ","LANE":"２６巷","ALLEY":" ","HOUSE_NO":"９之１號","E_COORD97":180246.29999999999,"N_COORD97":2578957,"ADDRESS":"民治路２６巷９之１號","OBJECTID":304059},"geometry":{"x":180246.29999999981,"y":2578957.0000000019}},{"attributes":{"ID":304068,"DIS_CODE":0,"TOWNNAME":"新營區","LI":"民權里","LIN":"8鄰","STREET":"博愛街","SECT":" ","MAREA":" ","LANE":"６１巷","ALLEY":" ","HOUSE_NO":"１號之３","E_COORD97":179902.51000000001,"N_COORD97":2578118.0699999998,"ADDRESS":"博愛街６１巷１號之３","OBJECTID":304060},"geometry":{"x":179902.50999999978,"y":2578118.0700000022}},{"attributes":{"ID":304069,"DIS_CODE":0,"TOWNNAME":"新營區","LI":"興業里","LIN":"8鄰","STREET":"公誠街","SECT":" ","MAREA":" ","LANE":"９巷","ALLEY":" ","HOUSE_NO":"１５號","E_COORD97":180365.45000000001,"N_COORD97":2578017.27,"ADDRESS":"公誠街９巷１５號","OBJECTID":304061},"geometry":{"x":180365.45000000112,"y":2578017.2700000033}},{"attributes":{"ID":304070,"DIS_CODE":0,"TOWNNAME":"新營區","LI":"民權里","LIN":"8鄰","STREET":"博愛街","SECT":" ","MAREA":" ","LANE":"６１巷","ALLEY":" ","HOUSE_NO":"１號之４","E_COORD97":179898.34,"N_COORD97":2578115.8799999999,"ADDRESS":"博愛街６１巷１號之４","OBJECTID":304062},"geometry":{"x":179898.33999999985,"y":2578115.8800000008}},{"attributes":{"ID":304071,"DIS_CODE":0,"TOWNNAME":"新營區","LI":"民權里","LIN":"8鄰","STREET":"博愛街","SECT":" ","MAREA":" ","LANE":"６１巷","ALLEY":" ","HOUSE_NO":"９號","E_COORD97":179881.67000000001,"N_COORD97":2578080.4500000002,"ADDRESS":"博愛街６１巷９號","OBJECTID":304063},"geometry":{"x":179881.66999999899,"y":2578080.4500000011}},{"attributes":{"ID":304072,"DIS_CODE":0,"TOWNNAME":"新營區","LI":"南興里","LIN":"8鄰","STREET":"建業路","SECT":" ","MAREA":" ","LANE":"７８巷","ALLEY":" ","HOUSE_NO":"９號","E_COORD97":179322.54000000001,"N_COORD97":2577519.4199999999,"ADDRESS":"建業路７８巷９號","OBJECTID":304064},"geometry":{"x":179322.54000000004,"y":2577519.4200000018}},{"attributes":{"ID":304073,"DIS_CODE":0,"TOWNNAME":"新營區","LI":"興業里","LIN":"8鄰","STREET":"公誠街","SECT":" ","MAREA":" ","LANE":"９巷","ALLEY":" ","HOUSE_NO":"１１之１號","E_COORD97":180350.56,"N_COORD97":2578017.3999999999,"ADDRESS":"公誠街９巷１１之１號","OBJECTID":304065},"geometry":{"x":180350.56000000052,"y":2578017.4000000041}},{"attributes":{"ID":304074,"DIS_CODE":0,"TOWNNAME":"新營區","LI":"民榮里","LIN":"8鄰","STREET":"和平路","SECT":" ","MAREA":" ","LANE":"３２巷","ALLEY":" ","HOUSE_NO":"１７號","E_COORD97":179307.79000000001,"N_COORD97":2577803,"ADDRESS":"和平路３２巷１７號","OBJECTID":304066},"geometry":{"x":179307.79000000004,"y":2577803.0000000019}},{"attributes":{"ID":304075,"DIS_CODE":0,"TOWNNAME":"安平區","LI":"石門里","LIN":"20鄰","STREET":"\u25A0忠街","SECT":" ","MAREA":" ","LANE":" ","ALLEY":" ","HOUSE_NO":"１號之４","E_COORD97":164397.89999999999,"N_COORD97":2544577.0699999998,"ADDRESS":"\u25A0忠街１號之４","OBJECTID":304067},"geometry":{"x":164397.90000000037,"y":2544577.0700000022}},{"attributes":{"ID":304076,"DIS_CODE":0,"TOWNNAME":"東區","LI":"大福里","LIN":"6鄰","STREET":"大同路","SECT":"二段","MAREA":" ","LANE":" ","ALLEY":" ","HOUSE_NO":"２４５號之２二樓之２","E_COORD97":169445.67000000001,"N_COORD97":2541762.29,"ADDRESS":"大同路二段２４５號之２二樓之２","OBJECTID":304068},"geometry":{"x":169445.66999999993,"y":2541762.2899999991}},{"attributes":{"ID":304077,"DIS_CODE":0,"TOWNNAME":"安平區","LI":"育平里","LIN":"18鄰","STREET":"育平四街","SECT":" ","MAREA":" ","LANE":" ","ALLEY":" ","HOUSE_NO":"３６號","E_COORD97":164646.84,"N_COORD97":2543405.96,"ADDRESS":"育平四街３６號","OBJECTID":304069},"geometry":{"x":164646.83999999985,"y":2543405.9600000028}},{"attributes":{"ID":304078,"DIS_CODE":0,"TOWNNAME":"安平區","LI":"育平里","LIN":"18鄰","STREET":"育平四街","SECT":" ","MAREA":" ","LANE":" ","ALLEY":" ","HOUSE_NO":"３８號","E_COORD97":164641.51000000001,"N_COORD97":2543404.7999999998,"ADDRESS":"育平四街３８號","OBJECTID":304070},"geometry":{"x":164641.51000000071,"y":2543404.8000000007}},{"attributes":{"ID":304079,"DIS_CODE":0,"TOWNNAME":"安南區","LI":"顯宮里","LIN":"2鄰","STREET":"媽祖宮路","SECT":" ","MAREA":" ","LANE":" ","ALLEY":" ","HOUSE_NO":"１３１號","E_COORD97":160558.51999999999,"N_COORD97":2548810.5600000001,"ADDRESS":"媽祖宮路１３１號","OBJECTID":304071},"geometry":{"x":160558.51999999955,"y":2548810.5600000005}},{"attributes":{"ID":304080,"DIS_CODE":0,"TOWNNAME":"新營區","LI":"興業里","LIN":"8鄰","STREET":"公誠街","SECT":" ","MAREA":" ","LANE":"９巷","ALLEY":" ","HOUSE_NO":"１５之３號","E_COORD97":180367.95000000001,"N_COORD97":2578017.3199999998,"ADDRESS":"公誠街９巷１５之３號","OBJECTID":304072},"geometry":{"x":180367.95000000019,"y":2578017.3200000003}},{"attributes":{"ID":304081,"DIS_CODE":0,"TOWNNAME":"新營區","LI":"興業里","LIN":" ","STREET":"公誠街","SECT":" ","MAREA":" ","LANE":"９巷","ALLEY":" ","HOUSE_NO":"１４之１號","E_COORD97":180358.67000000001,"N_COORD97":2578001.8599999999,"ADDRESS":"公誠街９巷１４之１號","OBJECTID":304073},"geometry":{"x":180358.67000000086,"y":2578001.8599999994}},{"attributes":{"ID":304082,"DIS_CODE":0,"TOWNNAME":"新營區","LI":"南興里","LIN":"7鄰","STREET":"和平路","SECT":" ","MAREA":" ","LANE":"９５巷","ALLEY":" ","HOUSE_NO":"２２號之２","E_COORD97":179478.17999999999,"N_COORD97":2577601.8100000001,"ADDRESS":"和平街９５巷２２之２號","OBJECTID":304074},"geometry":{"x":179478.18000000063,"y":2577601.8100000024}},{"attributes":{"ID":304083,"DIS_CODE":0,"TOWNNAME":"新營區","LI":"忠政里","LIN":"5鄰","STREET":"安和街","SECT":" ","MAREA":" ","LANE":"７巷","ALLEY":" ","HOUSE_NO":"７號","E_COORD97":180066.10999999999,"N_COORD97":2579218.04,"ADDRESS":"安和街７巷７號","OBJECTID":304075},"geometry":{"x":180066.11000000127,"y":2579218.0399999991}},{"attributes":{"ID":304084,"DIS_CODE":0,"TOWNNAME":"新營區","LI":"民權里","LIN":"8鄰","STREET":"博愛街","SECT":" ","MAREA":" ","LANE":"６１巷","ALLEY":" ","HOUSE_NO":"７號","E_COORD97":179873.57999999999,"N_COORD97":2578088.2400000002,"ADDRESS":"博愛街６１巷７號","OBJECTID":304076},"geometry":{"x":179873.58000000007,"y":2578088.2400000002}},{"attributes":{"ID":304085,"DIS_CODE":0,"TOWNNAME":"新營區","LI":"興業里","LIN":"8鄰","STREET":"公誠街","SECT":" ","MAREA":" ","LANE":"９巷","ALLEY":" ","HOUSE_NO":"１３之２號","E_COORD97":180359.76999999999,"N_COORD97":2578017.3599999999,"ADDRESS":"公誠街９巷１３之２號","OBJECTID":304077},"geometry":{"x":180359.76999999955,"y":2578017.3600000013}},{"attributes":{"ID":304086,"DIS_CODE":0,"TOWNNAME":"新營區","LI":"民榮里","LIN":"8鄰","STREET":"和平路","SECT":" ","MAREA":" ","LANE":"３２巷","ALLEY":" ","HOUSE_NO":"７之８號","E_COORD97":179356.98000000001,"N_COORD97":2577769.6000000001,"ADDRESS":"和平路３２巷７之８號","OBJECTID":304078},"geometry":{"x":179356.98000000138,"y":2577769.5999999996}},{"attributes":{"ID":304087,"DIS_CODE":0,"TOWNNAME":"東山區","LI":"東中里","LIN":"8鄰","STREET":"民享街","SECT":" ","MAREA":" ","LANE":"１０巷","ALLEY":" ","HOUSE_NO":"１號","E_COORD97":189010.29999999999,"N_COORD97":2579803.8100000001,"ADDRESS":"民享街１０巷１號","OBJECTID":304079},"geometry":{"x":189010.29999999981,"y":2579803.8100000005}},{"attributes":{"ID":304088,"DIS_CODE":0,"TOWNNAME":"新營區","LI":"忠政里","LIN":"12鄰","STREET":"府西路","SECT":" ","MAREA":" ","LANE":"２０２巷","ALLEY":" ","HOUSE_NO":"５５號","E_COORD97":179965.59,"N_COORD97":2579545.2200000002,"ADDRESS":"府西路２０２巷５５號","OBJECTID":304080},"geometry":{"x":179965.59000000078,"y":2579545.2200000025}},{"attributes":{"ID":304089,"DIS_CODE":0,"TOWNNAME":"鹽水區","LI":"水仙里","LIN":"8鄰","STREET":"中山路","SECT":" ","MAREA":" ","LANE":"３巷","ALLEY":" ","HOUSE_NO":"２９號","E_COORD97":175043.95000000001,"N_COORD97":2579847.8900000001,"ADDRESS":"中山路３巷２９號","OBJECTID":304081},"geometry":{"x":175043.95000000112,"y":2579847.8900000006}},{"attributes":{"ID":304090,"DIS_CODE":0,"TOWNNAME":"關廟區","LI":"田中里","LIN":"8鄰","STREET":"南雄南路","SECT":" ","MAREA":" ","LANE":"５８１巷","ALLEY":" ","HOUSE_NO":"５號","E_COORD97":183525.29000000001,"N_COORD97":2533701.2999999998,"ADDRESS":"南雄南路５８１巷５號","OBJECTID":304082},"geometry":{"x":183525.29000000004,"y":2533701.3000000007}},{"attributes":{"ID":304091,"DIS_CODE":0,"TOWNNAME":"關廟區","LI":"東勢里","LIN":"8鄰","STREET":"四維街","SECT":" ","MAREA":" ","LANE":"１２巷","ALLEY":" ","HOUSE_NO":"１０號","E_COORD97":181997.66,"N_COORD97":2539484.25,"ADDRESS":"四維街１２巷１０號","OBJECTID":304083},"geometry":{"x":181997.66000000201,"y":2539484.2500000019}},{"attributes":{"ID":304092,"DIS_CODE":0,"TOWNNAME":"關廟區","LI":"松腳里","LIN":"8鄰","STREET":"四維街","SECT":" ","MAREA":" ","LANE":"１４５巷","ALLEY":" ","HOUSE_NO":"１３號","E_COORD97":181820.81,"N_COORD97":2539796.25,"ADDRESS":"四維街１４５巷１３號","OBJECTID":304084},"geometry":{"x":181820.80999999959,"y":2539796.2500000019}},{"attributes":{"ID":304093,"DIS_CODE":0,"TOWNNAME":"關廟區","LI":"東勢里","LIN":"8鄰","STREET":"四維街","SECT":" ","MAREA":" ","LANE":"７２巷","ALLEY":" ","HOUSE_NO":"１０號","E_COORD97":181944.35999999999,"N_COORD97":2539547.25,"ADDRESS":"四維街７２巷１０號","OBJECTID":304085},"geometry":{"x":181944.36000000127,"y":2539547.2500000037}},{"attributes":{"ID":304094,"DIS_CODE":0,"TOWNNAME":"安平區","LI":"育平里","LIN":"18鄰","STREET":"育平四街","SECT":" ","MAREA":" ","LANE":" ","ALLEY":" ","HOUSE_NO":"４０號","E_COORD97":164631.72,"N_COORD97":2543404.3700000001,"ADDRESS":"育平四街４０號","OBJECTID":304086},"geometry":{"x":164631.72000000067,"y":2543404.370000001}},{"attributes":{"ID":304095,"DIS_CODE":0,"TOWNNAME":"安南區","LI":"顯宮里","LIN":"2鄰","STREET":"媽祖宮路","SECT":" ","MAREA":" ","LANE":" ","ALLEY":" ","HOUSE_NO":"１３３號","E_COORD97":160554.81,"N_COORD97":2548809.2999999998,"ADDRESS":"媽祖宮路１３３號","OBJECTID":304087},"geometry":{"x":160554.80999999959,"y":2548809.3000000007}},{"attributes":{"ID":304096,"DIS_CODE":0,"TOWNNAME":"安南區","LI":"總頭里","LIN":"2鄰","STREET":"總安街","SECT":"二段","MAREA":" ","LANE":" ","ALLEY":" ","HOUSE_NO":"２４１號之１","E_COORD97":168597.89000000001,"N_COORD97":2550411.5800000001,"ADDRESS":"總安街二段２４１號之１","OBJECTID":304088},"geometry":{"x":168597.88999999966,"y":2550411.5800000019}},{"attributes":{"ID":304097,"DIS_CODE":0,"TOWNNAME":"安南區","LI":"顯宮里","LIN":"1鄰","STREET":"媽祖宮路","SECT":" ","MAREA":" ","LANE":" ","ALLEY":" ","HOUSE_NO":"１５７號","E_COORD97":160511.20000000001,"N_COORD97":2548785.5600000001,"ADDRESS":"媽祖宮路１５７號","OBJECTID":304089},"geometry":{"x":160511.20000000112,"y":2548785.5600000024}},{"attributes":{"ID":304098,"DIS_CODE":0,"TOWNNAME":"安南區","LI":"顯宮里","LIN":"1鄰","STREET":"媽祖宮路","SECT":" ","MAREA":" ","LANE":" ","ALLEY":" ","HOUSE_NO":"１５１號","E_COORD97":160523.44,"N_COORD97":2548794.6299999999,"ADDRESS":"媽祖宮路１５１號","OBJECTID":304090},"geometry":{"x":160523.44000000134,"y":2548794.629999999}},{"attributes":{"ID":304099,"DIS_CODE":0,"TOWNNAME":"安南區","LI":"顯宮里","LIN":"2鄰","STREET":"媽祖宮路","SECT":" ","MAREA":" ","LANE":" ","ALLEY":" ","HOUSE_NO":"１３５號","E_COORD97":160551.45999999999,"N_COORD97":2548808.3900000001,"ADDRESS":"媽祖宮路１３５號","OBJECTID":304091},"geometry":{"x":160551.46000000089,"y":2548808.3900000006}},{"attributes":{"ID":304100,"DIS_CODE":0,"TOWNNAME":"關廟區","LI":"田中里","LIN":"8鄰","STREET":"南雄南路","SECT":" ","MAREA":" ","LANE":"６５１巷","ALLEY":" ","HOUSE_NO":"５號","E_COORD97":183475.84,"N_COORD97":2533608.25,"ADDRESS":"南雄南路６５１巷５號","OBJECTID":304092},"geometry":{"x":183475.83999999985,"y":2533608.2500000019}},{"attributes":{"ID":304101,"DIS_CODE":0,"TOWNNAME":"關廟區","LI":"東勢里","LIN":"8鄰","STREET":"四維街","SECT":" ","MAREA":" ","LANE":"１２巷","ALLEY":" ","HOUSE_NO":"２號","E_COORD97":181975.70999999999,"N_COORD97":2539483.25,"ADDRESS":"四維街１２巷２號","OBJECTID":304093},"geometry":{"x":181975.71000000089,"y":2539483.2500000019}},{"attributes":{"ID":304102,"DIS_CODE":0,"TOWNNAME":"關廟區","LI":"山西里","LIN":"8鄰","STREET":"文衡路","SECT":" ","MAREA":" ","LANE":"１９５巷","ALLEY":" ","HOUSE_NO":"９號","E_COORD97":180865.26000000001,"N_COORD97":2540683.3300000001,"ADDRESS":"文衡路１９５巷９號","OBJECTID":304094},"geometry":{"x":180865.25999999978,"y":2540683.3300000019}},{"attributes":{"ID":304103,"DIS_CODE":0,"TOWNNAME":"關廟區","LI":"山西里","LIN":"8鄰","STREET":"文衡路","SECT":" ","MAREA":" ","LANE":"１９５巷","ALLEY":" ","HOUSE_NO":"５號","E_COORD97":180864.85999999999,"N_COORD97":2540672.3300000001,"ADDRESS":"文衡路１９５巷５號","OBJECTID":304095},"geometry":{"x":180864.86000000127,"y":2540672.3300000038}},{"attributes":{"ID":304104,"DIS_CODE":0,"TOWNNAME":"關廟區","LI":"山西里","LIN":"8鄰","STREET":"文衡路","SECT":" ","MAREA":" ","LANE":"１９５巷","ALLEY":" ","HOUSE_NO":"２２號","E_COORD97":180846.91,"N_COORD97":2540697.3300000001,"ADDRESS":"文衡路１９５巷２２號","OBJECTID":304096},"geometry":{"x":180846.91000000108,"y":2540697.3300000019}},{"attributes":{"ID":304105,"DIS_CODE":0,"TOWNNAME":"關廟區","LI":"山西里","LIN":"8鄰","STREET":"文衡路","SECT":" ","MAREA":" ","LANE":"１９５巷","ALLEY":" ","HOUSE_NO":"２號","E_COORD97":180865.66,"N_COORD97":2540708.3300000001,"ADDRESS":"文衡路１９５巷２號","OBJECTID":304097},"geometry":{"x":180865.66000000108,"y":2540708.3300000001}},{"attributes":{"ID":304106,"DIS_CODE":0,"TOWNNAME":"關廟區","LI":"五甲里","LIN":"8鄰","STREET":"大富街","SECT":" ","MAREA":" ","LANE":"１２１巷","ALLEY":" ","HOUSE_NO":"２號","E_COORD97":181057.37,"N_COORD97":2539237.25,"ADDRESS":"大富街１２１巷２號","OBJECTID":304098},"geometry":{"x":181057.37000000104,"y":2539237.25}},{"attributes":{"ID":304107,"DIS_CODE":0,"TOWNNAME":"新營區","LI":"南興里","LIN":"9鄰","STREET":"和平路","SECT":" ","MAREA":" ","LANE":"１０２巷","ALLEY":" ","HOUSE_NO":"２０號之２","E_COORD97":179354.47,"N_COORD97":2577615.6800000002,"ADDRESS":"和平路１０２巷２０之２號","OBJECTID":304099},"geometry":{"x":179354.47000000067,"y":2577615.6800000016}},{"attributes":{"ID":304108,"DIS_CODE":0,"TOWNNAME":"關廟區","LI":"東勢里","LIN":"8鄰","STREET":"松安街","SECT":" ","MAREA":" ","LANE":"６３巷","ALLEY":" ","HOUSE_NO":"１２號","E_COORD97":181993.57000000001,"N_COORD97":2539582.3199999998,"ADDRESS":"松安街６３巷１２號","OBJECTID":304100},"geometry":{"x":181993.57000000123,"y":2539582.3200000022}},{"attributes":{"ID":304109,"DIS_CODE":0,"TOWNNAME":"關廟區","LI":"東勢里","LIN":"8鄰","STREET":"旺萊路","SECT":" ","MAREA":" ","LANE":"２６１巷","ALLEY":" ","HOUSE_NO":"４６號","E_COORD97":181984.09,"N_COORD97":2539538.25,"ADDRESS":"旺萊路２６１巷４６號","OBJECTID":304101},"geometry":{"x":181984.08999999985,"y":2539538.2500000019}},{"attributes":{"ID":304110,"DIS_CODE":0,"TOWNNAME":"關廟區","LI":"深坑里","LIN":"8鄰","STREET":"南雄路","SECT":"一段","MAREA":" ","LANE":"４２２巷","ALLEY":" ","HOUSE_NO":"３２號","E_COORD97":181756.76999999999,"N_COORD97":2537794.2799999998,"ADDRESS":"南雄路一段４２２巷３２號","OBJECTID":304102},"geometry":{"x":181756.76999999955,"y":2537794.2800000012}},{"attributes":{"ID":304111,"DIS_CODE":0,"TOWNNAME":"關廟區","LI":"龜洞里","LIN":"8鄰","STREET":"官崙街","SECT":" ","MAREA":" ","LANE":"５６巷","ALLEY":" ","HOUSE_NO":"１５號","E_COORD97":183431.39000000001,"N_COORD97":2533357.2999999998,"ADDRESS":"官崙街５６巷１５號","OBJECTID":304103},"geometry":{"x":183431.39000000153,"y":2533357.3000000026}},{"attributes":{"ID":304112,"DIS_CODE":0,"TOWNNAME":"關廟區","LI":"東勢里","LIN":"8鄰","STREET":"旺萊路","SECT":" ","MAREA":" ","LANE":"２６１巷","ALLEY":" ","HOUSE_NO":"５６號","E_COORD97":181967.59,"N_COORD97":2539534.25,"ADDRESS":"旺萊路２６１巷５６號","OBJECTID":304104},"geometry":{"x":181967.59000000078,"y":2539534.2500000019}},{"attributes":{"ID":304113,"DIS_CODE":0,"TOWNNAME":"關廟區","LI":"松腳里","LIN":"8鄰","STREET":"勝利街","SECT":" ","MAREA":" ","LANE":"８巷","ALLEY":" ","HOUSE_NO":"１號","E_COORD97":181831.76999999999,"N_COORD97":2539755.2599999998,"ADDRESS":"勝利街８巷１號","OBJECTID":304105},"geometry":{"x":181831.76999999862,"y":2539755.2600000016}},{"attributes":{"ID":304114,"DIS_CODE":0,"TOWNNAME":"關廟區","LI":"東勢里","LIN":"8鄰","STREET":"旺萊路","SECT":" ","MAREA":" ","LANE":"２６１巷","ALLEY":" ","HOUSE_NO":"３３號","E_COORD97":181984.79000000001,"N_COORD97":2539522.25,"ADDRESS":"旺萊路２６１巷３３號","OBJECTID":304106},"geometry":{"x":181984.7900000019,"y":2539522.25}},{"attributes":{"ID":304115,"DIS_CODE":0,"TOWNNAME":"關廟區","LI":"松腳里","LIN":"8鄰","STREET":"勝利街","SECT":" ","MAREA":" ","LANE":"８巷","ALLEY":" ","HOUSE_NO":"３號","E_COORD97":181831.76999999999,"N_COORD97":2539762.2599999998,"ADDRESS":"勝利街８巷３號","OBJECTID":304107},"geometry":{"x":181831.76999999862,"y":2539762.2599999998}},{"attributes":{"ID":304116,"DIS_CODE":0,"TOWNNAME":"安平區","LI":"育平里","LIN":"18鄰","STREET":"育平四街","SECT":" ","MAREA":" ","LANE":" ","ALLEY":" ","HOUSE_NO":"４２號","E_COORD97":164626.97,"N_COORD97":2543405.3799999999,"ADDRESS":"育平四街４２號","OBJECTID":304108},"geometry":{"x":164626.97000000067,"y":2543405.379999999}},{"attributes":{"ID":304117,"DIS_CODE":0,"TOWNNAME":"安平區","LI":"育平里","LIN":"18鄰","STREET":"育平路","SECT":" ","MAREA":" ","LANE":" ","ALLEY":" ","HOUSE_NO":"２０２號","E_COORD97":164605.82999999999,"N_COORD97":2543384.0600000001,"ADDRESS":"育平路２０２號","OBJECTID":304109},"geometry":{"x":164605.83000000101,"y":2543384.0600000024}},{"attributes":{"ID":304118,"DIS_CODE":0,"TOWNNAME":"安平區","LI":"育平里","LIN":"18鄰","STREET":"育平路","SECT":" ","MAREA":" ","LANE":" ","ALLEY":" ","HOUSE_NO":"２０４號","E_COORD97":164606.54999999999,"N_COORD97":2543388.7999999998,"ADDRESS":"育平路２０４號","OBJECTID":304110},"geometry":{"x":164606.54999999981,"y":2543388.7999999989}},{"attributes":{"ID":304119,"DIS_CODE":0,"TOWNNAME":"安平區","LI":"育平里","LIN":"18鄰","STREET":"育平路","SECT":" ","MAREA":" ","LANE":" ","ALLEY":" ","HOUSE_NO":"２０６號","E_COORD97":164608.85999999999,"N_COORD97":2543392.8300000001,"ADDRESS":"育平路２０６號","OBJECTID":304111},"geometry":{"x":164608.8599999994,"y":2543392.8300000019}},{"attributes":{"ID":304120,"DIS_CODE":0,"TOWNNAME":"安平區","LI":"育平里","LIN":"18鄰","STREET":"育平路","SECT":" ","MAREA":" ","LANE":" ","ALLEY":" ","HOUSE_NO":"２０８號","E_COORD97":164615.17000000001,"N_COORD97":2543407.8300000001,"ADDRESS":"育平路２０８號","OBJECTID":304112},"geometry":{"x":164615.17000000086,"y":2543407.8300000001}},{"attributes":{"ID":304121,"DIS_CODE":0,"TOWNNAME":"安南區","LI":"溪墘里","LIN":"4鄰","STREET":"海佃路","SECT":"一段","MAREA":" ","LANE":"１８８巷","ALLEY":" ","HOUSE_NO":"２３號","E_COORD97":167235,"N_COORD97":2547277.54,"ADDRESS":"海佃路一段１８８巷２３號","OBJECTID":304113},"geometry":{"x":167235,"y":2547277.5399999972}},{"attributes":{"ID":304122,"DIS_CODE":0,"TOWNNAME":"安南區","LI":"溪墘里","LIN":" ","STREET":"海佃路","SECT":"一段","MAREA":" ","LANE":"４００巷","ALLEY":" ","HOUSE_NO":"３８號","E_COORD97":167184.23999999999,"N_COORD97":2547678.77,"ADDRESS":"海佃路一段４００巷３８號","OBJECTID":304114},"geometry":{"x":167184.24000000022,"y":2547678.7699999996}},{"attributes":{"ID":304123,"DIS_CODE":0,"TOWNNAME":"關廟區","LI":"深坑里","LIN":"8鄰","STREET":"深坑三街","SECT":" ","MAREA":" ","LANE":"３０巷","ALLEY":" ","HOUSE_NO":"１０號","E_COORD97":181802.76999999999,"N_COORD97":2537786.2799999998,"ADDRESS":"深坑三街３０巷１０號","OBJECTID":304115},"geometry":{"x":181802.76999999955,"y":2537786.2799999993}},{"attributes":{"ID":304124,"DIS_CODE":0,"TOWNNAME":"關廟區","LI":"深坑里","LIN":"8鄰","STREET":"南雄路","SECT":"一段","MAREA":" ","LANE":"４２２巷","ALLEY":" ","HOUSE_NO":"４２號","E_COORD97":181750.12,"N_COORD97":2537818.2999999998,"ADDRESS":"南雄路一段４２２巷４２號","OBJECTID":304116},"geometry":{"x":181750.12000000011,"y":2537818.3000000007}},{"attributes":{"ID":304125,"DIS_CODE":0,"TOWNNAME":"關廟區","LI":"深坑里","LIN":"8鄰","STREET":"南雄路","SECT":"一段","MAREA":" ","LANE":" ","ALLEY":" ","HOUSE_NO":"４６３號","E_COORD97":181685.17000000001,"N_COORD97":2537702.2999999998,"ADDRESS":"南雄路一段４６３號","OBJECTID":304117},"geometry":{"x":181685.16999999993,"y":2537702.3000000007}},{"attributes":{"ID":304126,"DIS_CODE":0,"TOWNNAME":"關廟區","LI":"東勢里","LIN":"8鄰","STREET":"四維街","SECT":" ","MAREA":" ","LANE":"７２巷","ALLEY":" ","HOUSE_NO":"２１號","E_COORD97":181991.95999999999,"N_COORD97":2539557.25,"ADDRESS":"四維街７２巷２１號","OBJECTID":304118},"geometry":{"x":181991.95999999903,"y":2539557.2499999981}},{"attributes":{"ID":304127,"DIS_CODE":0,"TOWNNAME":"仁德區","LI":"仁義里","LIN":"17鄰","STREET":"義林九街","SECT":" ","MAREA":" ","LANE":" ","ALLEY":" ","HOUSE_NO":"５號","E_COORD97":174304.95999999999,"N_COORD97":2541322.5099999998,"ADDRESS":"義林九街５號","OBJECTID":304119},"geometry":{"x":174304.96000000089,"y":2541322.5100000016}},{"attributes":{"ID":304128,"DIS_CODE":0,"TOWNNAME":"關廟區","LI":"深坑里","LIN":"8鄰","STREET":"南雄路","SECT":"一段","MAREA":" ","LANE":"４９２巷","ALLEY":" ","HOUSE_NO":"１２號","E_COORD97":181707.92000000001,"N_COORD97":2537835.2999999998,"ADDRESS":"南雄路一段４９２巷１２號","OBJECTID":304120},"geometry":{"x":181707.92000000086,"y":2537835.2999999989}},{"attributes":{"ID":304129,"DIS_CODE":0,"TOWNNAME":"關廟區","LI":"深坑里","LIN":"8鄰","STREET":"南雄路","SECT":"一段","MAREA":" ","LANE":"４９２巷","ALLEY":" ","HOUSE_NO":"１６號","E_COORD97":181703.72,"N_COORD97":2537835.2999999998,"ADDRESS":"南雄路一段４９２巷１６號","OBJECTID":304121},"geometry":{"x":181703.72000000067,"y":2537835.2999999989}},{"attributes":{"ID":304130,"DIS_CODE":0,"TOWNNAME":"關廟區","LI":"深坑里","LIN":"8鄰","STREET":"深坑三街","SECT":" ","MAREA":" ","LANE":" ","ALLEY":" ","HOUSE_NO":"１６號","E_COORD97":181771.17000000001,"N_COORD97":2537827.2999999998,"ADDRESS":"深坑三街１６號","OBJECTID":304122},"geometry":{"x":181771.16999999993,"y":2537827.3000000007}},{"attributes":{"ID":304131,"DIS_CODE":0,"TOWNNAME":"關廟區","LI":"龜洞里","LIN":"8鄰","STREET":"官崙街","SECT":" ","MAREA":" ","LANE":"５６巷","ALLEY":" ","HOUSE_NO":"９號","E_COORD97":183442.48999999999,"N_COORD97":2533362.2999999998,"ADDRESS":"官崙街５６巷９號","OBJECTID":304123},"geometry":{"x":183442.49000000022,"y":2533362.3000000007}},{"attributes":{"ID":304132,"DIS_CODE":0,"TOWNNAME":"關廟區","LI":"南花里","LIN":"8鄰","STREET":"四維街","SECT":" ","MAREA":" ","LANE":"２６１巷","ALLEY":" ","HOUSE_NO":"１３號","E_COORD97":181813.91,"N_COORD97":2540263.25,"ADDRESS":"四維街２６１巷１３號","OBJECTID":304124},"geometry":{"x":181813.91000000015,"y":2540263.2500000019}},{"attributes":{"ID":304133,"DIS_CODE":0,"TOWNNAME":"關廟區","LI":"龜洞里","LIN":"8鄰","STREET":"官崙街","SECT":" ","MAREA":" ","LANE":"５６巷","ALLEY":" ","HOUSE_NO":"２１號","E_COORD97":183419.39000000001,"N_COORD97":2533352.2999999998,"ADDRESS":"官崙街５６巷２１號","OBJECTID":304125},"geometry":{"x":183419.38999999966,"y":2533352.3000000007}},{"attributes":{"ID":304134,"DIS_CODE":0,"TOWNNAME":"關廟區","LI":"深坑里","LIN":"8鄰","STREET":"南雄路","SECT":"一段","MAREA":" ","LANE":"４９２巷","ALLEY":" ","HOUSE_NO":"２號","E_COORD97":181704.82000000001,"N_COORD97":2537827.2999999998,"ADDRESS":"南雄路一段４９２巷２號","OBJECTID":304126},"geometry":{"x":181704.8200000003,"y":2537827.3000000007}},{"attributes":{"ID":304135,"DIS_CODE":0,"TOWNNAME":"關廟區","LI":"北花里","LIN":"8鄰","STREET":"四維街","SECT":" ","MAREA":" ","LANE":"３８８巷","ALLEY":" ","HOUSE_NO":"１８號","E_COORD97":181941.01000000001,"N_COORD97":2540296.25,"ADDRESS":"四維街３８８巷１８號","OBJECTID":304127},"geometry":{"x":181941.01000000071,"y":2540296.25}},{"attributes":{"ID":304136,"DIS_CODE":0,"TOWNNAME":"後壁區","LI":"竹新里","LIN":"4鄰","STREET":" ","SECT":" ","MAREA":"竹圍後","LANE":" ","ALLEY":" ","HOUSE_NO":"３１號","E_COORD97":178585.87,"N_COORD97":2582395.7200000002,"ADDRESS":"竹圍後３１號","OBJECTID":304128},"geometry":{"x":178585.87000000104,"y":2582395.7200000044}},{"attributes":{"ID":304137,"DIS_CODE":0,"TOWNNAME":"關廟區","LI":"龜洞里","LIN":"8鄰","STREET":"官崙街","SECT":" ","MAREA":" ","LANE":"５６巷","ALLEY":" ","HOUSE_NO":"１９號","E_COORD97":183423.29000000001,"N_COORD97":2533353.2999999998,"ADDRESS":"官崙街５６巷１９號","OBJECTID":304129},"geometry":{"x":183423.29000000004,"y":2533353.2999999989}},{"attributes":{"ID":304138,"DIS_CODE":0,"TOWNNAME":"後壁區","LI":"竹新里","LIN":"4鄰","STREET":" ","SECT":" ","MAREA":"竹圍後","LANE":" ","ALLEY":" ","HOUSE_NO":"３２號之１","E_COORD97":178538.48999999999,"N_COORD97":2582420.0299999998,"ADDRESS":"竹圍後３２號之１","OBJECTID":304130},"geometry":{"x":178538.49000000022,"y":2582420.0300000012}},{"attributes":{"ID":304139,"DIS_CODE":0,"TOWNNAME":"關廟區","LI":"龜洞里","LIN":"8鄰","STREET":"官崙街","SECT":" ","MAREA":" ","LANE":"５６巷","ALLEY":" ","HOUSE_NO":"１１號","E_COORD97":183438.59,"N_COORD97":2533361.2999999998,"ADDRESS":"官崙街５６巷１１號","OBJECTID":304131},"geometry":{"x":183438.58999999892,"y":2533361.3000000026}},{"attributes":{"ID":304140,"DIS_CODE":0,"TOWNNAME":"後壁區","LI":"竹新里","LIN":"4鄰","STREET":" ","SECT":" ","MAREA":"竹圍後","LANE":" ","ALLEY":" ","HOUSE_NO":"３２號","E_COORD97":178551.82000000001,"N_COORD97":2582412.4500000002,"ADDRESS":"竹圍後３２號","OBJECTID":304132},"geometry":{"x":178551.8200000003,"y":2582412.4499999993}},{"attributes":{"ID":304141,"DIS_CODE":0,"TOWNNAME":"關廟區","LI":"北花里","LIN":"8鄰","STREET":"四維街","SECT":" ","MAREA":" ","LANE":"３８８巷","ALLEY":" ","HOUSE_NO":"１１號","E_COORD97":181935.20999999999,"N_COORD97":2540302.25,"ADDRESS":"四維街３８８巷１１號","OBJECTID":304133},"geometry":{"x":181935.21000000089,"y":2540302.25}},{"attributes":{"ID":304142,"DIS_CODE":0,"TOWNNAME":"北區","LI":"大山里","LIN":"8鄰","STREET":"精忠街","SECT":" ","MAREA":" ","LANE":"１０３巷","ALLEY":" ","HOUSE_NO":"６０號之１","E_COORD97":169214.64000000001,"N_COORD97":2545410.96,"ADDRESS":"精忠街１０３巷６０號之１","OBJECTID":304134},"geometry":{"x":169214.6400000006,"y":2545410.9600000009}},{"attributes":{"ID":304143,"DIS_CODE":0,"TOWNNAME":"後壁區","LI":"竹新里","LIN":"4鄰","STREET":" ","SECT":" ","MAREA":"竹圍後","LANE":" ","ALLEY":" ","HOUSE_NO":"３３號之１","E_COORD97":178543.67999999999,"N_COORD97":2582391.25,"ADDRESS":"竹圍後３３號之１","OBJECTID":304135},"geometry":{"x":178543.6799999997,"y":2582391.2499999981}},{"attributes":{"ID":304144,"DIS_CODE":0,"TOWNNAME":"安平區","LI":"育平里","LIN":"18鄰","STREET":"育平路","SECT":" ","MAREA":" ","LANE":" ","ALLEY":" ","HOUSE_NO":"２１０號","E_COORD97":164616.89999999999,"N_COORD97":2543414.1499999999,"ADDRESS":"育平路２１０號","OBJECTID":304136},"geometry":{"x":164616.90000000037,"y":2543414.1500000022}},{"attributes":{"ID":304145,"DIS_CODE":0,"TOWNNAME":"安平區","LI":"育平里","LIN":"18鄰","STREET":"育平路","SECT":" ","MAREA":" ","LANE":" ","ALLEY":" ","HOUSE_NO":"２１２號","E_COORD97":164690.60999999999,"N_COORD97":2543415.9199999999,"ADDRESS":"育平路２１２號","OBJECTID":304137},"geometry":{"x":164690.61000000127,"y":2543415.9200000018}},{"attributes":{"ID":304146,"DIS_CODE":0,"TOWNNAME":"後壁區","LI":"竹新里","LIN":"4鄰","STREET":" ","SECT":" ","MAREA":"竹圍後","LANE":" ","ALLEY":" ","HOUSE_NO":"３３號","E_COORD97":178553.32999999999,"N_COORD97":2582388.5499999998,"ADDRESS":"竹圍後３３號","OBJECTID":304138},"geometry":{"x":178553.33000000007,"y":2582388.5500000007}},{"attributes":{"ID":304147,"DIS_CODE":0,"TOWNNAME":"安平區","LI":"育平里","LIN":"18鄰","STREET":"育平路","SECT":" ","MAREA":" ","LANE":" ","ALLEY":" ","HOUSE_NO":"２１２號地下一層之１","E_COORD97":164690.60999999999,"N_COORD97":2543415.9199999999,"ADDRESS":"育平路２１２號地下一層之１","OBJECTID":304139},"geometry":{"x":164690.61000000127,"y":2543415.9200000018}},{"attributes":{"ID":304148,"DIS_CODE":0,"TOWNNAME":"後壁區","LI":"竹新里","LIN":"5鄰","STREET":" ","SECT":" ","MAREA":"竹圍後","LANE":" ","ALLEY":" ","HOUSE_NO":"３８號之２９","E_COORD97":178519.14000000001,"N_COORD97":2582566.25,"ADDRESS":"竹圍後３８號之２９","OBJECTID":304140},"geometry":{"x":178519.1400000006,"y":2582566.25}},{"attributes":{"ID":304149,"DIS_CODE":0,"TOWNNAME":"後壁區","LI":"頂安里","LIN":"1鄰","STREET":" ","SECT":" ","MAREA":"頂寮","LANE":" ","ALLEY":" ","HOUSE_NO":"３號","E_COORD97":184278.60000000001,"N_COORD97":2581608.2000000002,"ADDRESS":"頂寮３號","OBJECTID":304141},"geometry":{"x":184278.59999999963,"y":2581608.2000000011}},{"attributes":{"ID":304150,"DIS_CODE":0,"TOWNNAME":"後壁區","LI":"竹新里","LIN":"1鄰","STREET":" ","SECT":" ","MAREA":"竹圍後","LANE":" ","ALLEY":" ","HOUSE_NO":"３號之１０","E_COORD97":178524.35999999999,"N_COORD97":2582639.2000000002,"ADDRESS":"竹圍後３號之１０","OBJECTID":304142},"geometry":{"x":178524.36000000034,"y":2582639.2000000011}},{"attributes":{"ID":304151,"DIS_CODE":0,"TOWNNAME":"後壁區","LI":"竹新里","LIN":"1鄰","STREET":" ","SECT":" ","MAREA":"竹圍後","LANE":" ","ALLEY":" ","HOUSE_NO":"３號","E_COORD97":178620.10999999999,"N_COORD97":2582649.4100000001,"ADDRESS":"竹圍後３號","OBJECTID":304143},"geometry":{"x":178620.11000000127,"y":2582649.410000002}},{"attributes":{"ID":304152,"DIS_CODE":0,"TOWNNAME":"永康區","LI":"崑山里","LIN":"26鄰","STREET":"大灣路","SECT":" ","MAREA":" ","LANE":"９４２巷","ALLEY":" ","HOUSE_NO":"１５５號","E_COORD97":173706.42999999999,"N_COORD97":2544754.5,"ADDRESS":"大灣路９４２巷１５５號","OBJECTID":304144},"geometry":{"x":173706.43000000063,"y":2544754.5000000019}},{"attributes":{"ID":304153,"DIS_CODE":0,"TOWNNAME":"後壁區","LI":"竹新里","LIN":"1鄰","STREET":" ","SECT":" ","MAREA":"竹圍後","LANE":" ","ALLEY":" ","HOUSE_NO":"４號","E_COORD97":178611.26000000001,"N_COORD97":2582632.29,"ADDRESS":"竹圍後４號","OBJECTID":304145},"geometry":{"x":178611.26000000164,"y":2582632.290000001}},{"attributes":{"ID":304154,"DIS_CODE":0,"TOWNNAME":"後壁區","LI":"竹新里","LIN":"6鄰","STREET":" ","SECT":" ","MAREA":"竹圍後","LANE":" ","ALLEY":" ","HOUSE_NO":"４８號之６","E_COORD97":178302.98000000001,"N_COORD97":2582379.8199999998,"ADDRESS":"竹圍後４８號之６","OBJECTID":304146},"geometry":{"x":178302.98000000045,"y":2582379.8200000003}},{"attributes":{"ID":304155,"DIS_CODE":0,"TOWNNAME":"永康區","LI":"埔園里","LIN":"39鄰","STREET":"聖龍街","SECT":" ","MAREA":" ","LANE":"１６５巷","ALLEY":" ","HOUSE_NO":"２３號","E_COORD97":174279.87,"N_COORD97":2547934.6800000002,"ADDRESS":"聖龍街１６５巷２３號","OBJECTID":304147},"geometry":{"x":174279.87000000104,"y":2547934.6799999997}},{"attributes":{"ID":304156,"DIS_CODE":0,"TOWNNAME":"後壁區","LI":"竹新里","LIN":"6鄰","STREET":" ","SECT":" ","MAREA":"竹圍後","LANE":" ","ALLEY":" ","HOUSE_NO":"５０號","E_COORD97":178345.45999999999,"N_COORD97":2582367.3599999999,"ADDRESS":"竹圍後５０號","OBJECTID":304148},"geometry":{"x":178345.45999999996,"y":2582367.3600000013}},{"attributes":{"ID":304157,"DIS_CODE":0,"TOWNNAME":"永康區","LI":"崑山里","LIN":"32鄰","STREET":"崑山街","SECT":" ","MAREA":" ","LANE":"１３６巷","ALLEY":" ","HOUSE_NO":"１４號","E_COORD97":174057.79000000001,"N_COORD97":2544827.4900000002,"ADDRESS":"崑山街１３６巷１４號","OBJECTID":304149},"geometry":{"x":174057.79000000004,"y":2544827.4900000002}},{"attributes":{"ID":304158,"DIS_CODE":0,"TOWNNAME":"北區","LI":"大山里","LIN":"8鄰","STREET":"精忠街","SECT":" ","MAREA":" ","LANE":"１０３巷","ALLEY":" ","HOUSE_NO":"６２號","E_COORD97":169228.26000000001,"N_COORD97":2545417.0800000001,"ADDRESS":"精忠街１０３巷６２號","OBJECTID":304150},"geometry":{"x":169228.25999999978,"y":2545417.0799999982}},{"attributes":{"ID":304159,"DIS_CODE":0,"TOWNNAME":"安平區","LI":"育平里","LIN":"18鄰","STREET":"育平路","SECT":" ","MAREA":" ","LANE":" ","ALLEY":" ","HOUSE_NO":"２１２號地下一層之２","E_COORD97":164690.60999999999,"N_COORD97":2543415.9199999999,"ADDRESS":"育平路２１２號地下一層之２","OBJECTID":304151},"geometry":{"x":164690.61000000127,"y":2543415.9200000018}},{"attributes":{"ID":304160,"DIS_CODE":0,"TOWNNAME":"安平區","LI":"育平里","LIN":"18鄰","STREET":"育平路","SECT":" ","MAREA":" ","LANE":" ","ALLEY":" ","HOUSE_NO":"２１２號地下二層","E_COORD97":164690.60999999999,"N_COORD97":2543415.9199999999,"ADDRESS":"育平路２１２號地下二層","OBJECTID":304152},"geometry":{"x":164690.61000000127,"y":2543415.9200000018}},{"attributes":{"ID":304161,"DIS_CODE":0,"TOWNNAME":"安南區","LI":"鳳凰里","LIN":"20鄰","STREET":"怡安路","SECT":"二段","MAREA":" ","LANE":" ","ALLEY":" ","HOUSE_NO":"５０７號","E_COORD97":167637.92999999999,"N_COORD97":2549421.9199999999,"ADDRESS":"怡安路二段５０７號","OBJECTID":304153},"geometry":{"x":167637.93000000063,"y":2549421.9199999999}},{"attributes":{"ID":304162,"DIS_CODE":0,"TOWNNAME":"學甲區","LI":"新達里","LIN":"17鄰","STREET":" ","SECT":" ","MAREA":"山寮","LANE":" ","ALLEY":" ","HOUSE_NO":"２０號","E_COORD97":167739.67000000001,"N_COORD97":2570575.0800000001,"ADDRESS":"山寮２０號","OBJECTID":304154},"geometry":{"x":167739.67000000086,"y":2570575.0800000019}},{"attributes":{"ID":304163,"DIS_CODE":0,"TOWNNAME":"後壁區","LI":"頂長里","LIN":"4鄰","STREET":" ","SECT":" ","MAREA":"長短樹","LANE":" ","ALLEY":" ","HOUSE_NO":"２８號之１７","E_COORD97":181291.60999999999,"N_COORD97":2584908.98,"ADDRESS":"長短樹２８號之１７","OBJECTID":304155},"geometry":{"x":181291.61000000127,"y":2584908.9800000004}},{"attributes":{"ID":304164,"DIS_CODE":0,"TOWNNAME":"後壁區","LI":"頂長里","LIN":"4鄰","STREET":" ","SECT":" ","MAREA":"長短樹","LANE":" ","ALLEY":" ","HOUSE_NO":"２８號之３７","E_COORD97":180935.70999999999,"N_COORD97":2584685.04,"ADDRESS":"長短樹２８號之３７","OBJECTID":304156},"geometry":{"x":180935.70999999996,"y":2584685.040000001}},{"attributes":{"ID":304165,"DIS_CODE":0,"TOWNNAME":"後壁區","LI":"頂長里","LIN":"4鄰","STREET":" ","SECT":" ","MAREA":"長短樹","LANE":" ","ALLEY":" ","HOUSE_NO":"２８號之７","E_COORD97":181389.79000000001,"N_COORD97":2584965.8999999999,"ADDRESS":"長短樹２８號之７","OBJECTID":304157},"geometry":{"x":181389.7900000019,"y":2584965.9000000004}},{"attributes":{"ID":304166,"DIS_CODE":0,"TOWNNAME":"後壁區","LI":"頂長里","LIN":"4鄰","STREET":" ","SECT":" ","MAREA":"長短樹","LANE":" ","ALLEY":" ","HOUSE_NO":"２８號之８","E_COORD97":181377.19,"N_COORD97":2584973.8500000001,"ADDRESS":"長短樹２８號之８","OBJECTID":304158},"geometry":{"x":181377.18999999948,"y":2584973.8500000034}},{"attributes":{"ID":304167,"DIS_CODE":0,"TOWNNAME":"永康區","LI":"二王里","LIN":"29鄰","STREET":"中山南路","SECT":" ","MAREA":" ","LANE":" ","ALLEY":" ","HOUSE_NO":"５６６之１號","E_COORD97":172217.384276,"N_COORD97":2546569.7384700002,"ADDRESS":"中山南路５６６之１號","OBJECTID":304159},"geometry":{"x":172217.38427600171,"y":2546569.7384699993}},{"attributes":{"ID":304168,"DIS_CODE":0,"TOWNNAME":"永康區","LI":"崑山里","LIN":"26鄰","STREET":"大灣路","SECT":" ","MAREA":" ","LANE":"９４２巷","ALLEY":" ","HOUSE_NO":"１０９號","E_COORD97":173676.57999999999,"N_COORD97":2544658.6099999999,"ADDRESS":"大灣路９４２巷１０９號","OBJECTID":304160},"geometry":{"x":173676.58000000101,"y":2544658.6099999994}},{"attributes":{"ID":304169,"DIS_CODE":0,"TOWNNAME":"永康區","LI":"埔園里","LIN":"39鄰","STREET":"聖龍街","SECT":" ","MAREA":" ","LANE":"１６５巷","ALLEY":" ","HOUSE_NO":"４０號","E_COORD97":174291.32999999999,"N_COORD97":2547947.8700000001,"ADDRESS":"聖龍街１６５巷４０號","OBJECTID":304161},"geometry":{"x":174291.33000000007,"y":2547947.870000001}},{"attributes":{"ID":304170,"DIS_CODE":0,"TOWNNAME":"後壁區","LI":"頂長里","LIN":"4鄰","STREET":" ","SECT":" ","MAREA":"長短樹","LANE":" ","ALLEY":" ","HOUSE_NO":"２８號","E_COORD97":181370.14999999999,"N_COORD97":2585029.6499999999,"ADDRESS":"長短樹２８號","OBJECTID":304162},"geometry":{"x":181370.15000000037,"y":2585029.6500000004}},{"attributes":{"ID":304171,"DIS_CODE":0,"TOWNNAME":"北區","LI":"大山里","LIN":"8鄰","STREET":"精忠街","SECT":" ","MAREA":" ","LANE":"１０３巷","ALLEY":" ","HOUSE_NO":"６４號","E_COORD97":169231.32999999999,"N_COORD97":2545415.6200000001,"ADDRESS":"精忠街１０３巷６４號","OBJECTID":304163},"geometry":{"x":169231.33000000007,"y":2545415.6200000029}},{"attributes":{"ID":304172,"DIS_CODE":0,"TOWNNAME":"後壁區","LI":"頂長里","LIN":"4鄰","STREET":" ","SECT":" ","MAREA":"長短樹","LANE":" ","ALLEY":" ","HOUSE_NO":"２９號","E_COORD97":181365.22,"N_COORD97":2585055.8799999999,"ADDRESS":"長短樹２９號","OBJECTID":304164},"geometry":{"x":181365.22000000067,"y":2585055.8800000008}},{"attributes":{"ID":304173,"DIS_CODE":0,"TOWNNAME":"後壁區","LI":"頂長里","LIN":"4鄰","STREET":" ","SECT":" ","MAREA":"長短樹","LANE":" ","ALLEY":" ","HOUSE_NO":"３０號","E_COORD97":181353.76000000001,"N_COORD97":2585075.6600000001,"ADDRESS":"長短樹３０號","OBJECTID":304165},"geometry":{"x":181353.75999999978,"y":2585075.660000002}},{"attributes":{"ID":304174,"DIS_CODE":0,"TOWNNAME":"北區","LI":"大山里","LIN":"8鄰","STREET":"精忠街","SECT":" ","MAREA":" ","LANE":"１０３巷","ALLEY":" ","HOUSE_NO":"６６號","E_COORD97":169234.17999999999,"N_COORD97":2545415.3199999998,"ADDRESS":"精忠街１０３巷６６號","OBJECTID":304166},"geometry":{"x":169234.18000000063,"y":2545415.3200000003}},{"attributes":{"ID":304175,"DIS_CODE":0,"TOWNNAME":"北區","LI":"大山里","LIN":"8鄰","STREET":"精忠街","SECT":" ","MAREA":" ","LANE":"１０３巷","ALLEY":" ","HOUSE_NO":"６８號","E_COORD97":169237.26000000001,"N_COORD97":2545414.6200000001,"ADDRESS":"精忠街１０３巷６８號","OBJECTID":304167},"geometry":{"x":169237.26000000071,"y":2545414.6200000048}},{"attributes":{"ID":304176,"DIS_CODE":0,"TOWNNAME":"後壁區","LI":"頂長里","LIN":"4鄰","STREET":" ","SECT":" ","MAREA":"長短樹","LANE":" ","ALLEY":" ","HOUSE_NO":"３１號之１","E_COORD97":181383.54999999999,"N_COORD97":2585102.1899999999,"ADDRESS":"長短樹３１號之１","OBJECTID":304168},"geometry":{"x":181383.54999999981,"y":2585102.1899999995}},{"attributes":{"ID":304177,"DIS_CODE":0,"TOWNNAME":"北區","LI":"大山里","LIN":"8鄰","STREET":"精忠街","SECT":" ","MAREA":" ","LANE":"１０３巷","ALLEY":" ","HOUSE_NO":"７０號","E_COORD97":169239.79999999999,"N_COORD97":2545414.0099999998,"ADDRESS":"精忠街１０３巷７０號","OBJECTID":304169},"geometry":{"x":169239.79999999981,"y":2545414.0100000035}},{"attributes":{"ID":304178,"DIS_CODE":0,"TOWNNAME":"北區","LI":"大山里","LIN":"8鄰","STREET":"精忠街","SECT":" ","MAREA":" ","LANE":"１０３巷","ALLEY":" ","HOUSE_NO":"７２號","E_COORD97":169243.34,"N_COORD97":2545412.9300000002,"ADDRESS":"精忠街１０３巷７２號","OBJECTID":304170},"geometry":{"x":169243.34000000171,"y":2545412.9299999997}},{"attributes":{"ID":304179,"DIS_CODE":0,"TOWNNAME":"北區","LI":"大山里","LIN":"8鄰","STREET":"精忠街","SECT":" ","MAREA":" ","LANE":"１０３巷","ALLEY":" ","HOUSE_NO":"７４號","E_COORD97":169249.44,"N_COORD97":2545412.0099999998,"ADDRESS":"精忠街１０３巷７４號","OBJECTID":304171},"geometry":{"x":169249.44000000041,"y":2545412.0100000016}},{"attributes":{"ID":304180,"DIS_CODE":0,"TOWNNAME":"北區","LI":"大山里","LIN":"8鄰","STREET":"精忠街","SECT":" ","MAREA":" ","LANE":"１０３巷","ALLEY":" ","HOUSE_NO":"７６號","E_COORD97":169253.60000000001,"N_COORD97":2545411.0099999998,"ADDRESS":"精忠街１０３巷７６號","OBJECTID":304172},"geometry":{"x":169253.60000000056,"y":2545411.0100000016}},{"attributes":{"ID":304181,"DIS_CODE":0,"TOWNNAME":"北區","LI":"大山里","LIN":"8鄰","STREET":"精忠街","SECT":" ","MAREA":" ","LANE":"１０３巷","ALLEY":" ","HOUSE_NO":"７８號","E_COORD97":169256.51999999999,"N_COORD97":2545410.3900000001,"ADDRESS":"精忠街１０３巷７８號","OBJECTID":304173},"geometry":{"x":169256.51999999955,"y":2545410.3900000025}},{"attributes":{"ID":304182,"DIS_CODE":0,"TOWNNAME":"北區","LI":"大山里","LIN":"8鄰","STREET":"精忠街","SECT":" ","MAREA":" ","LANE":"１０３巷","ALLEY":" ","HOUSE_NO":"８０號","E_COORD97":169259.60000000001,"N_COORD97":2545409.5499999998,"ADDRESS":"精忠街１０３巷８０號","OBJECTID":304174},"geometry":{"x":169259.59999999963,"y":2545409.5500000026}},{"attributes":{"ID":304183,"DIS_CODE":0,"TOWNNAME":"北區","LI":"大山里","LIN":"8鄰","STREET":"精忠街","SECT":" ","MAREA":" ","LANE":"１０３巷","ALLEY":" ","HOUSE_NO":"８２號","E_COORD97":169262.51999999999,"N_COORD97":2545409.0099999998,"ADDRESS":"精忠街１０３巷８２號","OBJECTID":304175},"geometry":{"x":169262.52000000048,"y":2545409.0099999998}},{"attributes":{"ID":304184,"DIS_CODE":0,"TOWNNAME":"北區","LI":"大山里","LIN":"8鄰","STREET":"精忠街","SECT":" ","MAREA":" ","LANE":"１０３巷","ALLEY":" ","HOUSE_NO":"８４號","E_COORD97":169266.45000000001,"N_COORD97":2545408.7000000002,"ADDRESS":"精忠街１０３巷８４號","OBJECTID":304176},"geometry":{"x":169266.44999999925,"y":2545408.700000003}},{"attributes":{"ID":304185,"DIS_CODE":0,"TOWNNAME":"安南區","LI":"鳳凰里","LIN":"20鄰","STREET":"怡安路","SECT":"二段","MAREA":" ","LANE":" ","ALLEY":" ","HOUSE_NO":"５０５號","E_COORD97":167644.42999999999,"N_COORD97":2549420.6499999999,"ADDRESS":"怡安路二段５０５號","OBJECTID":304177},"geometry":{"x":167644.43000000063,"y":2549420.6500000004}},{"attributes":{"ID":304186,"DIS_CODE":0,"TOWNNAME":"安南區","LI":"鳳凰里","LIN":"20鄰","STREET":"怡安路","SECT":"二段","MAREA":" ","LANE":" ","ALLEY":" ","HOUSE_NO":"５０３號","E_COORD97":167650.162943,"N_COORD97":2549418.2062300001,"ADDRESS":"怡安路二段５０３號","OBJECTID":304178},"geometry":{"x":167650.16294299997,"y":2549418.2062299997}},{"attributes":{"ID":304187,"DIS_CODE":0,"TOWNNAME":"安南區","LI":"鳳凰里","LIN":"20鄰","STREET":"怡安路","SECT":"二段","MAREA":" ","LANE":" ","ALLEY":" ","HOUSE_NO":"５０１號","E_COORD97":167656.72666700001,"N_COORD97":2549417.1479000002,"ADDRESS":"怡安路二段５０１號","OBJECTID":304179},"geometry":{"x":167656.72666700091,"y":2549417.1478970014}},{"attributes":{"ID":304188,"DIS_CODE":0,"TOWNNAME":"永康區","LI":"神洲里","LIN":"4鄰","STREET":"忠孝路","SECT":" ","MAREA":" ","LANE":"３８巷","ALLEY":" ","HOUSE_NO":"２４號","E_COORD97":172175.95999999999,"N_COORD97":2544699.7400000002,"ADDRESS":"忠孝路３８巷２４號","OBJECTID":304180},"geometry":{"x":172175.96000000089,"y":2544699.7400000002}},{"attributes":{"ID":304189,"DIS_CODE":0,"TOWNNAME":"永康區","LI":"崑山里","LIN":"26鄰","STREET":"大灣路","SECT":" ","MAREA":" ","LANE":"９４２巷","ALLEY":" ","HOUSE_NO":"１２３號","E_COORD97":173685.10000000001,"N_COORD97":2544692,"ADDRESS":"大灣路９４２巷１２３號","OBJECTID":304181},"geometry":{"x":173685.10000000056,"y":2544691.9999999981}},{"attributes":{"ID":304190,"DIS_CODE":0,"TOWNNAME":"永康區","LI":"中華里","LIN":"4鄰","STREET":"忠勇街","SECT":" ","MAREA":" ","LANE":"３２巷","ALLEY":" ","HOUSE_NO":"１６號","E_COORD97":171976.16,"N_COORD97":2544419.5,"ADDRESS":"忠勇街３２巷１６號","OBJECTID":304182},"geometry":{"x":171976.16000000108,"y":2544419.5}},{"attributes":{"ID":304191,"DIS_CODE":0,"TOWNNAME":"永康區","LI":"西橋里","LIN":" ","STREET":"大橋三街","SECT":" ","MAREA":" ","LANE":"１０巷","ALLEY":" ","HOUSE_NO":"１６之９號","E_COORD97":170529.85000000001,"N_COORD97":2546302.0499999998,"ADDRESS":"大橋三街１０巷１６之９號","OBJECTID":304183},"geometry":{"x":170529.85000000056,"y":2546302.0500000007}},{"attributes":{"ID":304192,"DIS_CODE":0,"TOWNNAME":"永康區","LI":"復興里","LIN":" ","STREET":"復興路","SECT":" ","MAREA":" ","LANE":"４２９巷","ALLEY":" ","HOUSE_NO":"４２７之６號","E_COORD97":172120.72,"N_COORD97":2543915.71,"ADDRESS":"復興路４２９巷４２７之６號","OBJECTID":304184},"geometry":{"x":172120.7200000016,"y":2543915.7100000028}},{"attributes":{"ID":304193,"DIS_CODE":0,"TOWNNAME":"永康區","LI":"甲頂里","LIN":" ","STREET":"中正南路","SECT":" ","MAREA":" ","LANE":"５２巷","ALLEY":" ","HOUSE_NO":"６０號","E_COORD97":169906.82999999999,"N_COORD97":2546780.5099999998,"ADDRESS":"中正南路５２巷６０號","OBJECTID":304185},"geometry":{"x":169906.83000000101,"y":2546780.5100000035}},{"attributes":{"ID":304194,"DIS_CODE":0,"TOWNNAME":"永康區","LI":"\u25A0洲里","LIN":"5鄰","STREET":"仁愛街","SECT":" ","MAREA":" ","LANE":"１０３巷","ALLEY":" ","HOUSE_NO":"７０號","E_COORD97":171907.70000000001,"N_COORD97":2549552.5299999998,"ADDRESS":"仁愛街１０３巷７０號","OBJECTID":304186},"geometry":{"x":171907.70000000205,"y":2549552.5299999993}},{"attributes":{"ID":304195,"DIS_CODE":0,"TOWNNAME":"永康區","LI":"大橋里","LIN":" ","STREET":"大橋一街","SECT":" ","MAREA":" ","LANE":"１９７巷","ALLEY":" ","HOUSE_NO":"２９４號","E_COORD97":171188.35000000001,"N_COORD97":2546565.4900000002,"ADDRESS":"大橋一街１９７巷２９４號","OBJECTID":304187},"geometry":{"x":171188.34999999963,"y":2546565.4900000021}},{"attributes":{"ID":304196,"DIS_CODE":0,"TOWNNAME":"永康區","LI":"大橋里","LIN":" ","STREET":"大橋三街","SECT":" ","MAREA":" ","LANE":"１９９巷","ALLEY":" ","HOUSE_NO":"５４號","E_COORD97":170825.17999999999,"N_COORD97":2546790.9900000002,"ADDRESS":"大橋三街１９９巷５４號","OBJECTID":304188},"geometry":{"x":170825.1799999997,"y":2546790.9900000039}},{"attributes":{"ID":304197,"DIS_CODE":0,"TOWNNAME":"北區","LI":"大山里","LIN":"8鄰","STREET":"精忠街","SECT":" ","MAREA":" ","LANE":"１０３巷","ALLEY":" ","HOUSE_NO":"８６號","E_COORD97":169273.04999999999,"N_COORD97":2545405.9300000002,"ADDRESS":"精忠街１０３巷８６號","OBJECTID":304189},"geometry":{"x":169273.05000000075,"y":2545405.9300000016}},{"attributes":{"ID":304198,"DIS_CODE":0,"TOWNNAME":"北區","LI":"大山里","LIN":"8鄰","STREET":"精忠街","SECT":" ","MAREA":" ","LANE":"１０３巷","ALLEY":" ","HOUSE_NO":"８８號","E_COORD97":169275.60000000001,"N_COORD97":2545404.0800000001,"ADDRESS":"精忠街１０３巷８８號","OBJECTID":304190},"geometry":{"x":169275.60000000056,"y":2545404.0800000019}},{"attributes":{"ID":304199,"DIS_CODE":0,"TOWNNAME":"北區","LI":"大山里","LIN":"8鄰","STREET":"精忠街","SECT":" ","MAREA":" ","LANE":"１０３巷","ALLEY":" ","HOUSE_NO":"９２號","E_COORD97":169282.07000000001,"N_COORD97":2545402.7000000002,"ADDRESS":"精忠街１０３巷９２號","OBJECTID":304191},"geometry":{"x":169282.0700000003,"y":2545402.7000000011}},{"attributes":{"ID":304200,"DIS_CODE":0,"TOWNNAME":"北區","LI":"大山里","LIN":"8鄰","STREET":"精忠街","SECT":" ","MAREA":" ","LANE":"１０３巷","ALLEY":" ","HOUSE_NO":"９４號","E_COORD97":169285.91,"N_COORD97":2545405.0099999998,"ADDRESS":"精忠街１０３巷９４號","OBJECTID":304192},"geometry":{"x":169285.91000000108,"y":2545405.0100000016}},{"attributes":{"ID":304201,"DIS_CODE":0,"TOWNNAME":"北區","LI":"大山里","LIN":"8鄰","STREET":"精忠街","SECT":" ","MAREA":" ","LANE":"１０３巷","ALLEY":" ","HOUSE_NO":"９４號之１","E_COORD97":169289.53,"N_COORD97":2545402.0099999998,"ADDRESS":"精忠街１０３巷９４號之１","OBJECTID":304193},"geometry":{"x":169289.53000000026,"y":2545402.0100000016}},{"attributes":{"ID":304202,"DIS_CODE":0,"TOWNNAME":"北區","LI":"大山里","LIN":"8鄰","STREET":"精忠街","SECT":" ","MAREA":" ","LANE":"１０３巷","ALLEY":" ","HOUSE_NO":"９６號","E_COORD97":169294.38,"N_COORD97":2545410.3900000001,"ADDRESS":"精忠街１０３巷９６號","OBJECTID":304194},"geometry":{"x":169294.38000000082,"y":2545410.3900000025}},{"attributes":{"ID":304203,"DIS_CODE":0,"TOWNNAME":"安南區","LI":"鳳凰里","LIN":"20鄰","STREET":"怡安路","SECT":"二段","MAREA":" ","LANE":" ","ALLEY":" ","HOUSE_NO":"４９９號","E_COORD97":167663.07865800001,"N_COORD97":2549415.45456,"ADDRESS":"怡安路二段４９９號","OBJECTID":304195},"geometry":{"x":167663.07865799963,"y":2549415.4545649979}},{"attributes":{"ID":304204,"DIS_CODE":0,"TOWNNAME":"安平區","LI":"港仔里","LIN":"1鄰","STREET":"安平路","SECT":" ","MAREA":" ","LANE":" ","ALLEY":" ","HOUSE_NO":"４９號","E_COORD97":164559.60000000001,"N_COORD97":2544441.3799999999,"ADDRESS":"安平路４９號","OBJECTID":304196},"geometry":{"x":164559.60000000056,"y":2544441.3800000008}},{"attributes":{"ID":304205,"DIS_CODE":0,"TOWNNAME":"安南區","LI":"鳳凰里","LIN":"20鄰","STREET":"怡安路","SECT":"二段","MAREA":" ","LANE":" ","ALLEY":" ","HOUSE_NO":"４９７號","E_COORD97":167669.43064999999,"N_COORD97":2549413.7612299998,"ADDRESS":"怡安路二段４９７號","OBJECTID":304197},"geometry":{"x":167669.43064999953,"y":2549413.7612320017}},{"attributes":{"ID":304206,"DIS_CODE":0,"TOWNNAME":"安平區","LI":"國平里","LIN":"20鄰","STREET":"建平七街","SECT":" ","MAREA":" ","LANE":" ","ALLEY":" ","HOUSE_NO":"６７７號五樓","E_COORD97":164850.32999999999,"N_COORD97":2543412.3599999999,"ADDRESS":"建平七街６７７號五樓","OBJECTID":304198},"geometry":{"x":164850.33000000101,"y":2543412.3600000013}},{"attributes":{"ID":304207,"DIS_CODE":0,"TOWNNAME":"北區","LI":"成德里","LIN":"20鄰","STREET":"文成三路","SECT":" ","MAREA":" ","LANE":" ","ALLEY":" ","HOUSE_NO":"２５９號","E_COORD97":168341.76000000001,"N_COORD97":2546312.3900000001,"ADDRESS":"文成三路２５９號","OBJECTID":304199},"geometry":{"x":168341.75999999885,"y":2546312.3900000025}},{"attributes":{"ID":304208,"DIS_CODE":0,"TOWNNAME":"北區","LI":"成德里","LIN":"20鄰","STREET":"文成二街","SECT":" ","MAREA":" ","LANE":" ","ALLEY":" ","HOUSE_NO":"１５５號","E_COORD97":168511.37,"N_COORD97":2546160.7000000002,"ADDRESS":"文成二街１５５號","OBJECTID":304200},"geometry":{"x":168511.37000000104,"y":2546160.6999999993}}]}