{"displayFieldName":"TOWNNAME","fieldAliases":{"ID":"ID","DIS_CODE":"DIS_CODE","TOWNNAME":"TOWNNAME","LI":"LI","LIN":"LIN","STREET":"STREET","SECT":"SECT","MAREA":"MAREA","LANE":"LANE","ALLEY":"ALLEY","HOUSE_NO":"HOUSE_NO","E_COORD97":"E_COORD97","N_COORD97":"N_COORD97","ADDRESS":"ADDRESS","OBJECTID":"OBJECTID"},"geometryType":"esriGeometryPoint","spatialReference":{"wkid":102443,"latestWkid":3826},"fields":[{"name":"ID","type":"esriFieldTypeDouble","alias":"ID"},{"name":"DIS_CODE","type":"esriFieldTypeInteger","alias":"DIS_CODE"},{"name":"TOWNNAME","type":"esriFieldTypeString","alias":"TOWNNAME","length":8},{"name":"LI","type":"esriFieldTypeString","alias":"LI","length":8},{"name":"LIN","type":"esriFieldTypeString","alias":"LIN","length":12},{"name":"STREET","type":"esriFieldTypeString","alias":"STREET","length":20},{"name":"SECT","type":"esriFieldTypeString","alias":"SECT","length":8},{"name":"MAREA","type":"esriFieldTypeString","alias":"MAREA","length":12},{"name":"LANE","type":"esriFieldTypeString","alias":"LANE","length":10},{"name":"ALLEY","type":"esriFieldTypeString","alias":"ALLEY","length":10},{"name":"HOUSE_NO","type":"esriFieldTypeString","alias":"HOUSE_NO","length":20},{"name":"E_COORD97","type":"esriFieldTypeDouble","alias":"E_COORD97"},{"name":"N_COORD97","type":"esriFieldTypeDouble","alias":"N_COORD97"},{"name":"ADDRESS","type":"esriFieldTypeString","alias":"ADDRESS","length":50},{"name":"OBJECTID","type":"esriFieldTypeOID","alias":"OBJECTID"}],"features":[{"attributes":{"ID":346810,"DIS_CODE":0,"TOWNNAME":"中西區","LI":"西湖里","LIN":"6鄰","STREET":"頂美一街","SECT":" ","MAREA":" ","LANE":"７６巷","ALLEY":" ","HOUSE_NO":"１３號","E_COORD97":166349.82999999999,"N_COORD97":2544690.5600000001,"ADDRESS":"頂美一街７６巷１３號","OBJECTID":346801},"geometry":{"x":166349.83000000194,"y":2544690.5600000024}},{"attributes":{"ID":346811,"DIS_CODE":0,"TOWNNAME":"中西區","LI":"西湖里","LIN":"6鄰","STREET":"頂美一街","SECT":" ","MAREA":" ","LANE":"７６巷","ALLEY":" ","HOUSE_NO":"１４號","E_COORD97":166350.56,"N_COORD97":2544670.5800000001,"ADDRESS":"頂美一街７６巷１４號","OBJECTID":346802},"geometry":{"x":166350.55999999959,"y":2544670.5800000001}},{"attributes":{"ID":346812,"DIS_CODE":0,"TOWNNAME":"中西區","LI":"西湖里","LIN":"6鄰","STREET":"頂美一街","SECT":" ","MAREA":" ","LANE":"７６巷","ALLEY":" ","HOUSE_NO":"１５號","E_COORD97":166355.67000000001,"N_COORD97":2544690.7999999998,"ADDRESS":"頂美一街７６巷１５號","OBJECTID":346803},"geometry":{"x":166355.66999999993,"y":2544690.8000000045}},{"attributes":{"ID":346813,"DIS_CODE":0,"TOWNNAME":"中西區","LI":"西湖里","LIN":"6鄰","STREET":"頂美一街","SECT":" ","MAREA":" ","LANE":"７６巷","ALLEY":" ","HOUSE_NO":"１６號","E_COORD97":166356.64000000001,"N_COORD97":2544670.3399999999,"ADDRESS":"頂美一街７６巷１６號","OBJECTID":346804},"geometry":{"x":166356.63999999966,"y":2544670.3400000017}},{"attributes":{"ID":346814,"DIS_CODE":0,"TOWNNAME":"中西區","LI":"西湖里","LIN":"6鄰","STREET":"頂美一街","SECT":" ","MAREA":" ","LANE":"７６巷","ALLEY":" ","HOUSE_NO":"１７號","E_COORD97":166361.98999999999,"N_COORD97":2544691.0499999998,"ADDRESS":"頂美一街７６巷１７號","OBJECTID":346805},"geometry":{"x":166361.99000000022,"y":2544691.0500000007}},{"attributes":{"ID":346815,"DIS_CODE":0,"TOWNNAME":"中西區","LI":"西湖里","LIN":"6鄰","STREET":"頂美一街","SECT":" ","MAREA":" ","LANE":"７６巷","ALLEY":" ","HOUSE_NO":"１８號","E_COORD97":166362.72,"N_COORD97":2544670.5800000001,"ADDRESS":"頂美一街７６巷１８號","OBJECTID":346806},"geometry":{"x":166362.72000000067,"y":2544670.5800000001}},{"attributes":{"ID":346816,"DIS_CODE":0,"TOWNNAME":"中西區","LI":"西湖里","LIN":"6鄰","STREET":"頂美一街","SECT":" ","MAREA":" ","LANE":"７６巷","ALLEY":" ","HOUSE_NO":"１９號","E_COORD97":166366.85999999999,"N_COORD97":2544691.04,"ADDRESS":"頂美一街７６巷１９號","OBJECTID":346807},"geometry":{"x":166366.8600000022,"y":2544691.0400000028}},{"attributes":{"ID":346817,"DIS_CODE":0,"TOWNNAME":"中西區","LI":"西湖里","LIN":"6鄰","STREET":"頂美一街","SECT":" ","MAREA":" ","LANE":"７６巷","ALLEY":" ","HOUSE_NO":"１號","E_COORD97":166308.45999999999,"N_COORD97":2544689.3399999999,"ADDRESS":"頂美一街７６巷１號","OBJECTID":346808},"geometry":{"x":166308.46000000089,"y":2544689.3399999999}},{"attributes":{"ID":346818,"DIS_CODE":0,"TOWNNAME":"永康區","LI":"三合里","LIN":"6鄰","STREET":"南工街","SECT":" ","MAREA":" ","LANE":"１３０巷","ALLEY":" ","HOUSE_NO":"５號","E_COORD97":172128.91,"N_COORD97":2545796.5600000001,"ADDRESS":"南工街１３０巷５號","OBJECTID":346809},"geometry":{"x":172128.91000000108,"y":2545796.5600000005}},{"attributes":{"ID":346819,"DIS_CODE":0,"TOWNNAME":"中西區","LI":"西湖里","LIN":"6鄰","STREET":"頂美一街","SECT":" ","MAREA":" ","LANE":"７６巷","ALLEY":" ","HOUSE_NO":"２０號","E_COORD97":166368.32000000001,"N_COORD97":2544670.8300000001,"ADDRESS":"頂美一街７６巷２０號","OBJECTID":346810},"geometry":{"x":166368.3200000003,"y":2544670.8300000019}},{"attributes":{"ID":346820,"DIS_CODE":0,"TOWNNAME":"永康區","LI":"二王里","LIN":"8鄰","STREET":"二王路","SECT":" ","MAREA":" ","LANE":" ","ALLEY":" ","HOUSE_NO":"１８號十三樓之２","E_COORD97":172980.59,"N_COORD97":2546822.5499999998,"ADDRESS":"二王路１８號十三樓之２","OBJECTID":346811},"geometry":{"x":172980.58999999985,"y":2546822.5500000026}},{"attributes":{"ID":346821,"DIS_CODE":0,"TOWNNAME":"永康區","LI":"二王里","LIN":"8鄰","STREET":"二王路","SECT":" ","MAREA":" ","LANE":" ","ALLEY":" ","HOUSE_NO":"１０號六樓之３","E_COORD97":172986.07999999999,"N_COORD97":2546837.98,"ADDRESS":"二王路１０號六樓之３","OBJECTID":346812},"geometry":{"x":172986.08000000007,"y":2546837.9800000004}},{"attributes":{"ID":346822,"DIS_CODE":0,"TOWNNAME":"永康區","LI":"二王里","LIN":"8鄰","STREET":"二王路","SECT":" ","MAREA":" ","LANE":" ","ALLEY":" ","HOUSE_NO":"１０號四樓之１","E_COORD97":172985.98000000001,"N_COORD97":2546837.98,"ADDRESS":"二王路１０號四樓之１","OBJECTID":346813},"geometry":{"x":172985.98000000231,"y":2546837.9800000004}},{"attributes":{"ID":346823,"DIS_CODE":0,"TOWNNAME":"永康區","LI":"二王里","LIN":"8鄰","STREET":"二王路","SECT":" ","MAREA":" ","LANE":" ","ALLEY":" ","HOUSE_NO":"１０號七樓之１","E_COORD97":172985.98000000001,"N_COORD97":2546837.98,"ADDRESS":"二王路１０號七樓之１","OBJECTID":346814},"geometry":{"x":172985.98000000231,"y":2546837.9800000004}},{"attributes":{"ID":346824,"DIS_CODE":0,"TOWNNAME":"永康區","LI":"五王里","LIN":"38鄰","STREET":"中華路","SECT":" ","MAREA":" ","LANE":"５７８巷","ALLEY":" ","HOUSE_NO":"１７號之１１","E_COORD97":171333.57000000001,"N_COORD97":2545989.54,"ADDRESS":"中華路５７８巷１７號之１１","OBJECTID":346815},"geometry":{"x":171333.5700000003,"y":2545989.5400000028}},{"attributes":{"ID":346825,"DIS_CODE":0,"TOWNNAME":"永康區","LI":"五王里","LIN":"38鄰","STREET":"中華路","SECT":" ","MAREA":" ","LANE":"５７８巷","ALLEY":" ","HOUSE_NO":"１７號之２１","E_COORD97":171333.57000000001,"N_COORD97":2545989.54,"ADDRESS":"中華路５７８巷１７號之２１","OBJECTID":346816},"geometry":{"x":171333.5700000003,"y":2545989.5400000028}},{"attributes":{"ID":346826,"DIS_CODE":0,"TOWNNAME":"永康區","LI":"五王里","LIN":"38鄰","STREET":"中華路","SECT":" ","MAREA":" ","LANE":"５７８巷","ALLEY":" ","HOUSE_NO":"１７號之２８","E_COORD97":171333.72,"N_COORD97":2545989.54,"ADDRESS":"中華路５７８巷１７號之２８","OBJECTID":346817},"geometry":{"x":171333.71999999974,"y":2545989.5400000028}},{"attributes":{"ID":346827,"DIS_CODE":0,"TOWNNAME":"永康區","LI":"五王里","LIN":"38鄰","STREET":"中華路","SECT":" ","MAREA":" ","LANE":"５７８巷","ALLEY":" ","HOUSE_NO":"１７號之３２","E_COORD97":171333.70000000001,"N_COORD97":2545989.54,"ADDRESS":"中華路５７８巷１７號之３２","OBJECTID":346818},"geometry":{"x":171333.70000000112,"y":2545989.5400000028}},{"attributes":{"ID":346828,"DIS_CODE":0,"TOWNNAME":"永康區","LI":"五王里","LIN":"38鄰","STREET":"中華路","SECT":" ","MAREA":" ","LANE":"５７８巷","ALLEY":" ","HOUSE_NO":"１７號之５１","E_COORD97":171333.57000000001,"N_COORD97":2545989.54,"ADDRESS":"中華路５７８巷１７號之５１","OBJECTID":346819},"geometry":{"x":171333.5700000003,"y":2545989.5400000028}},{"attributes":{"ID":346829,"DIS_CODE":0,"TOWNNAME":"永康區","LI":"\u25A0行里","LIN":"38鄰","STREET":"仁愛街","SECT":" ","MAREA":" ","LANE":"１３６巷","ALLEY":" ","HOUSE_NO":"３５號","E_COORD97":172251.87,"N_COORD97":2549609.77,"ADDRESS":"仁愛街１３６巷３５號","OBJECTID":346820},"geometry":{"x":172251.87000000011,"y":2549609.7700000014}},{"attributes":{"ID":346830,"DIS_CODE":0,"TOWNNAME":"永康區","LI":"崑山里","LIN":"38鄰","STREET":"崑山街","SECT":" ","MAREA":" ","LANE":"２０３巷","ALLEY":" ","HOUSE_NO":"１７號","E_COORD97":174013.09,"N_COORD97":2545008.2999999998,"ADDRESS":"崑山街２０３巷１７號","OBJECTID":346821},"geometry":{"x":174013.08999999985,"y":2545008.3000000007}},{"attributes":{"ID":346831,"DIS_CODE":0,"TOWNNAME":"永康區","LI":"崑山里","LIN":"38鄰","STREET":"崑山街","SECT":" ","MAREA":" ","LANE":"１８３巷","ALLEY":" ","HOUSE_NO":"２０號","E_COORD97":174002.19,"N_COORD97":2544977.1699999999,"ADDRESS":"崑山街１８３巷２０號","OBJECTID":346822},"geometry":{"x":174002.19000000134,"y":2544977.1700000018}},{"attributes":{"ID":346832,"DIS_CODE":0,"TOWNNAME":"永康區","LI":"崑山里","LIN":"38鄰","STREET":"崑山街","SECT":" ","MAREA":" ","LANE":"１８３巷","ALLEY":" ","HOUSE_NO":"２號","E_COORD97":174036.79999999999,"N_COORD97":2544960.3500000001,"ADDRESS":"崑山街１８３巷２號","OBJECTID":346823},"geometry":{"x":174036.79999999981,"y":2544960.3499999978}},{"attributes":{"ID":346833,"DIS_CODE":0,"TOWNNAME":"永康區","LI":"勝利里","LIN":"38鄰","STREET":"勝利街","SECT":" ","MAREA":" ","LANE":"１９７巷","ALLEY":" ","HOUSE_NO":"２號之１","E_COORD97":171348.28,"N_COORD97":2545136.79,"ADDRESS":"勝利街１９７巷２號之１","OBJECTID":346824},"geometry":{"x":171348.28000000119,"y":2545136.7900000028}},{"attributes":{"ID":346834,"DIS_CODE":0,"TOWNNAME":"東區","LI":"忠孝里","LIN":"38鄰","STREET":"中華東路","SECT":"三段","MAREA":" ","LANE":"３８０巷","ALLEY":" ","HOUSE_NO":"５７號","E_COORD97":169975.76999999999,"N_COORD97":2541712.8999999999,"ADDRESS":"中華東路三段３８０巷５７號","OBJECTID":346825},"geometry":{"x":169975.77000000142,"y":2541712.8999999985}},{"attributes":{"ID":346835,"DIS_CODE":0,"TOWNNAME":"佳里區","LI":"鎮山里","LIN":"1鄰","STREET":"平等街","SECT":" ","MAREA":" ","LANE":" ","ALLEY":" ","HOUSE_NO":"１２５號","E_COORD97":165855.5,"N_COORD97":2561884.8500000001,"ADDRESS":"平等街１２５號","OBJECTID":346826},"geometry":{"x":165855.50000000093,"y":2561884.8499999996}},{"attributes":{"ID":346836,"DIS_CODE":0,"TOWNNAME":"佳里區","LI":"鎮山里","LIN":"1鄰","STREET":"平等街","SECT":" ","MAREA":" ","LANE":" ","ALLEY":" ","HOUSE_NO":"１２７號","E_COORD97":165851.23000000001,"N_COORD97":2561884.3999999999,"ADDRESS":"平等街１２７號","OBJECTID":346827},"geometry":{"x":165851.23000000138,"y":2561884.4000000004}},{"attributes":{"ID":346837,"DIS_CODE":0,"TOWNNAME":"佳里區","LI":"鎮山里","LIN":"1鄰","STREET":"平等街","SECT":" ","MAREA":" ","LANE":" ","ALLEY":" ","HOUSE_NO":"１２９號","E_COORD97":165846.76000000001,"N_COORD97":2561883.8300000001,"ADDRESS":"平等街１２９號","OBJECTID":346828},"geometry":{"x":165846.76000000071,"y":2561883.8300000019}},{"attributes":{"ID":346838,"DIS_CODE":0,"TOWNNAME":"佳里區","LI":"鎮山里","LIN":"1鄰","STREET":"平等街","SECT":" ","MAREA":" ","LANE":" ","ALLEY":" ","HOUSE_NO":"１３１號","E_COORD97":165842.35999999999,"N_COORD97":2561882.8100000001,"ADDRESS":"平等街１３１號","OBJECTID":346829},"geometry":{"x":165842.36000000034,"y":2561882.8100000005}},{"attributes":{"ID":346839,"DIS_CODE":0,"TOWNNAME":"佳里區","LI":"鎮山里","LIN":"1鄰","STREET":"平等街","SECT":" ","MAREA":" ","LANE":" ","ALLEY":" ","HOUSE_NO":"１３３號","E_COORD97":165837.84,"N_COORD97":2561882.27,"ADDRESS":"平等街１３３號","OBJECTID":346830},"geometry":{"x":165837.84000000078,"y":2561882.2699999977}},{"attributes":{"ID":346840,"DIS_CODE":0,"TOWNNAME":"佳里區","LI":"鎮山里","LIN":"1鄰","STREET":"平等街","SECT":" ","MAREA":" ","LANE":" ","ALLEY":" ","HOUSE_NO":"１３５號","E_COORD97":165833.48000000001,"N_COORD97":2561881.4399999999,"ADDRESS":"平等街１３５號","OBJECTID":346831},"geometry":{"x":165833.48000000045,"y":2561881.4400000032}},{"attributes":{"ID":346841,"DIS_CODE":0,"TOWNNAME":"永康區","LI":"北灣里","LIN":"1鄰","STREET":"大同街","SECT":" ","MAREA":" ","LANE":" ","ALLEY":" ","HOUSE_NO":"５２號","E_COORD97":175239.17000000001,"N_COORD97":2545441.0299999998,"ADDRESS":"大同街５２號","OBJECTID":346832},"geometry":{"x":175239.17000000086,"y":2545441.0300000012}},{"attributes":{"ID":346842,"DIS_CODE":0,"TOWNNAME":"中西區","LI":"郡王里","LIN":"1鄰","STREET":"法華街","SECT":" ","MAREA":" ","LANE":" ","ALLEY":" ","HOUSE_NO":"６號","E_COORD97":169080.92999999999,"N_COORD97":2542813.1299999999,"ADDRESS":"法華街６號","OBJECTID":346833},"geometry":{"x":169080.9299999997,"y":2542813.1300000008}},{"attributes":{"ID":346843,"DIS_CODE":0,"TOWNNAME":"永康區","LI":"六合里","LIN":"1鄰","STREET":"新興街","SECT":" ","MAREA":" ","LANE":" ","ALLEY":" ","HOUSE_NO":"６號地下一層之３","E_COORD97":170921.87,"N_COORD97":2545737.29,"ADDRESS":"新興街６號地下一層之３","OBJECTID":346834},"geometry":{"x":170921.87000000104,"y":2545737.290000001}},{"attributes":{"ID":346844,"DIS_CODE":0,"TOWNNAME":"安平區","LI":"怡平里","LIN":"24鄰","STREET":"文平路","SECT":" ","MAREA":" ","LANE":" ","ALLEY":" ","HOUSE_NO":"３５３號","E_COORD97":165766.70000000001,"N_COORD97":2543570.9900000002,"ADDRESS":"文平路３５３號","OBJECTID":346835},"geometry":{"x":165766.70000000112,"y":2543570.9900000021}},{"attributes":{"ID":346845,"DIS_CODE":0,"TOWNNAME":"安平區","LI":"怡平里","LIN":"24鄰","STREET":"文平路","SECT":" ","MAREA":" ","LANE":" ","ALLEY":" ","HOUSE_NO":"３５５號","E_COORD97":165767.81,"N_COORD97":2543576.7000000002,"ADDRESS":"文平路３５５號","OBJECTID":346836},"geometry":{"x":165767.80999999959,"y":2543576.6999999993}},{"attributes":{"ID":346846,"DIS_CODE":0,"TOWNNAME":"安平區","LI":"怡平里","LIN":"24鄰","STREET":"文平路","SECT":" ","MAREA":" ","LANE":" ","ALLEY":" ","HOUSE_NO":"３５７號","E_COORD97":165768.60999999999,"N_COORD97":2543581.6299999999,"ADDRESS":"文平路３５７號","OBJECTID":346837},"geometry":{"x":165768.61000000127,"y":2543581.6300000027}},{"attributes":{"ID":346847,"DIS_CODE":0,"TOWNNAME":"安平區","LI":"怡平里","LIN":"24鄰","STREET":"文平路","SECT":" ","MAREA":" ","LANE":" ","ALLEY":" ","HOUSE_NO":"３５９號","E_COORD97":165768.76000000001,"N_COORD97":2543586.71,"ADDRESS":"文平路３５９號","OBJECTID":346838},"geometry":{"x":165768.76000000071,"y":2543586.7100000028}},{"attributes":{"ID":346848,"DIS_CODE":0,"TOWNNAME":"安平區","LI":"怡平里","LIN":"24鄰","STREET":"文平路","SECT":" ","MAREA":" ","LANE":" ","ALLEY":" ","HOUSE_NO":"３６１號","E_COORD97":165770.19,"N_COORD97":2543591.1499999999,"ADDRESS":"文平路３６１號","OBJECTID":346839},"geometry":{"x":165770.19000000134,"y":2543591.1500000022}},{"attributes":{"ID":346849,"DIS_CODE":0,"TOWNNAME":"安平區","LI":"怡平里","LIN":"24鄰","STREET":"文平路","SECT":" ","MAREA":" ","LANE":" ","ALLEY":" ","HOUSE_NO":"３６３號","E_COORD97":165770.73999999999,"N_COORD97":2543597.02,"ADDRESS":"文平路３６３號","OBJECTID":346840},"geometry":{"x":165770.73999999929,"y":2543597.0200000014}},{"attributes":{"ID":346850,"DIS_CODE":0,"TOWNNAME":"歸仁區","LI":"後市里","LIN":"38鄰","STREET":"中山八街","SECT":" ","MAREA":" ","LANE":"４６巷","ALLEY":" ","HOUSE_NO":"１號","E_COORD97":177233.13,"N_COORD97":2541020.7400000002,"ADDRESS":"中山八街４６巷１號","OBJECTID":346841},"geometry":{"x":177233.13000000082,"y":2541020.7400000002}},{"attributes":{"ID":346851,"DIS_CODE":0,"TOWNNAME":"歸仁區","LI":"後市里","LIN":"38鄰","STREET":"中山八街","SECT":" ","MAREA":" ","LANE":"４６巷","ALLEY":" ","HOUSE_NO":"７號","E_COORD97":177244.42999999999,"N_COORD97":2541019.7400000002,"ADDRESS":"中山八街４６巷７號","OBJECTID":346842},"geometry":{"x":177244.43000000063,"y":2541019.7400000021}},{"attributes":{"ID":346852,"DIS_CODE":0,"TOWNNAME":"中西區","LI":"西湖里","LIN":"6鄰","STREET":"頂美一街","SECT":" ","MAREA":" ","LANE":"７６巷","ALLEY":" ","HOUSE_NO":"２１號","E_COORD97":166379.51000000001,"N_COORD97":2544691.29,"ADDRESS":"頂美一街７６巷２１號","OBJECTID":346843},"geometry":{"x":166379.51000000071,"y":2544691.2899999991}},{"attributes":{"ID":346853,"DIS_CODE":0,"TOWNNAME":"中西區","LI":"西湖里","LIN":"6鄰","STREET":"頂美一街","SECT":" ","MAREA":" ","LANE":"７６巷","ALLEY":" ","HOUSE_NO":"２２號","E_COORD97":166380.23999999999,"N_COORD97":2544671.0699999998,"ADDRESS":"頂美一街７６巷２２號","OBJECTID":346844},"geometry":{"x":166380.24000000115,"y":2544671.0700000003}},{"attributes":{"ID":346854,"DIS_CODE":0,"TOWNNAME":"中西區","LI":"西湖里","LIN":"6鄰","STREET":"頂美一街","SECT":" ","MAREA":" ","LANE":"７６巷","ALLEY":" ","HOUSE_NO":"２３號","E_COORD97":166385.60000000001,"N_COORD97":2544691.5299999998,"ADDRESS":"頂美一街７６巷２３號","OBJECTID":346845},"geometry":{"x":166385.60000000056,"y":2544691.5300000012}},{"attributes":{"ID":346855,"DIS_CODE":0,"TOWNNAME":"中西區","LI":"西湖里","LIN":"6鄰","STREET":"頂美一街","SECT":" ","MAREA":" ","LANE":"７６巷","ALLEY":" ","HOUSE_NO":"２４號","E_COORD97":166386.32999999999,"N_COORD97":2544671.5499999998,"ADDRESS":"頂美一街７６巷２４號","OBJECTID":346846},"geometry":{"x":166386.33000000007,"y":2544671.5500000007}},{"attributes":{"ID":346856,"DIS_CODE":0,"TOWNNAME":"中西區","LI":"西湖里","LIN":"6鄰","STREET":"頂美一街","SECT":" ","MAREA":" ","LANE":"７６巷","ALLEY":" ","HOUSE_NO":"２５號","E_COORD97":166390.70999999999,"N_COORD97":2544691.04,"ADDRESS":"頂美一街７６巷２５號","OBJECTID":346847},"geometry":{"x":166390.70999999996,"y":2544691.0400000028}},{"attributes":{"ID":346857,"DIS_CODE":0,"TOWNNAME":"中西區","LI":"西湖里","LIN":"6鄰","STREET":"頂美一街","SECT":" ","MAREA":" ","LANE":"７６巷","ALLEY":" ","HOUSE_NO":"２６號","E_COORD97":166391.44,"N_COORD97":2544671.7999999998,"ADDRESS":"頂美一街７６巷２６號","OBJECTID":346848},"geometry":{"x":166391.44000000041,"y":2544671.8000000026}},{"attributes":{"ID":346858,"DIS_CODE":0,"TOWNNAME":"中西區","LI":"西湖里","LIN":"6鄰","STREET":"頂美一街","SECT":" ","MAREA":" ","LANE":"７６巷","ALLEY":" ","HOUSE_NO":"２８號","E_COORD97":166396.54999999999,"N_COORD97":2544671.3100000001,"ADDRESS":"頂美一街７６巷２８號","OBJECTID":346849},"geometry":{"x":166396.54999999981,"y":2544671.3100000024}},{"attributes":{"ID":346859,"DIS_CODE":0,"TOWNNAME":"永康區","LI":"二王里","LIN":"8鄰","STREET":"二王路","SECT":" ","MAREA":" ","LANE":" ","ALLEY":" ","HOUSE_NO":"１０號十四樓之１","E_COORD97":172987.23000000001,"N_COORD97":2546837.98,"ADDRESS":"二王路１０號十四樓之１","OBJECTID":346850},"geometry":{"x":172987.23000000045,"y":2546837.9800000004}},{"attributes":{"ID":346860,"DIS_CODE":0,"TOWNNAME":"永康區","LI":"二王里","LIN":"8鄰","STREET":"二王路","SECT":" ","MAREA":" ","LANE":" ","ALLEY":" ","HOUSE_NO":"１６號六樓之２","E_COORD97":172975.17999999999,"N_COORD97":2546819.7999999998,"ADDRESS":"二王路１６號六樓之２","OBJECTID":346851},"geometry":{"x":172975.17999999877,"y":2546819.7999999989}},{"attributes":{"ID":346861,"DIS_CODE":0,"TOWNNAME":"中西區","LI":"西湖里","LIN":"6鄰","STREET":"頂美一街","SECT":" ","MAREA":" ","LANE":"７６巷","ALLEY":" ","HOUSE_NO":"２９號","E_COORD97":166401.89999999999,"N_COORD97":2544692.02,"ADDRESS":"頂美一街７６巷２９號","OBJECTID":346852},"geometry":{"x":166401.90000000037,"y":2544692.0200000014}},{"attributes":{"ID":346862,"DIS_CODE":0,"TOWNNAME":"中西區","LI":"西湖里","LIN":"6鄰","STREET":"頂美一街","SECT":" ","MAREA":" ","LANE":"７６巷","ALLEY":" ","HOUSE_NO":"２號","E_COORD97":166308.70000000001,"N_COORD97":2544669.6099999999,"ADDRESS":"頂美一街７６巷２號","OBJECTID":346853},"geometry":{"x":166308.70000000112,"y":2544669.6099999994}},{"attributes":{"ID":346863,"DIS_CODE":0,"TOWNNAME":"中西區","LI":"西湖里","LIN":"6鄰","STREET":"頂美一街","SECT":" ","MAREA":" ","LANE":"７６巷","ALLEY":" ","HOUSE_NO":"３０號","E_COORD97":166401.89999999999,"N_COORD97":2544672.04,"ADDRESS":"頂美一街７６巷３０號","OBJECTID":346854},"geometry":{"x":166401.90000000037,"y":2544672.040000001}},{"attributes":{"ID":346864,"DIS_CODE":0,"TOWNNAME":"中西區","LI":"西湖里","LIN":"6鄰","STREET":"頂美一街","SECT":" ","MAREA":" ","LANE":"７６巷","ALLEY":" ","HOUSE_NO":"３號","E_COORD97":166315.03,"N_COORD97":2544689.1000000001,"ADDRESS":"頂美一街７６巷３號","OBJECTID":346855},"geometry":{"x":166315.03000000119,"y":2544689.1000000015}},{"attributes":{"ID":346865,"DIS_CODE":0,"TOWNNAME":"中西區","LI":"西湖里","LIN":"6鄰","STREET":"頂美一街","SECT":" ","MAREA":" ","LANE":"７６巷","ALLEY":" ","HOUSE_NO":"４號","E_COORD97":166315.03,"N_COORD97":2544669.8500000001,"ADDRESS":"頂美一街７６巷４號","OBJECTID":346856},"geometry":{"x":166315.03000000119,"y":2544669.8500000015}},{"attributes":{"ID":346866,"DIS_CODE":0,"TOWNNAME":"中西區","LI":"西湖里","LIN":"6鄰","STREET":"頂美一街","SECT":" ","MAREA":" ","LANE":"７６巷","ALLEY":" ","HOUSE_NO":"５號","E_COORD97":166320.38,"N_COORD97":2544689.1000000001,"ADDRESS":"頂美一街７６巷５號","OBJECTID":346857},"geometry":{"x":166320.37999999896,"y":2544689.1000000015}},{"attributes":{"ID":346867,"DIS_CODE":0,"TOWNNAME":"中西區","LI":"西湖里","LIN":"6鄰","STREET":"頂美一街","SECT":" ","MAREA":" ","LANE":"７６巷","ALLEY":" ","HOUSE_NO":"６號","E_COORD97":166320.38,"N_COORD97":2544669.6099999999,"ADDRESS":"頂美一街７６巷６號","OBJECTID":346858},"geometry":{"x":166320.37999999896,"y":2544669.6099999994}},{"attributes":{"ID":346868,"DIS_CODE":0,"TOWNNAME":"中西區","LI":"西湖里","LIN":"6鄰","STREET":"頂美一街","SECT":" ","MAREA":" ","LANE":"７６巷","ALLEY":" ","HOUSE_NO":"７號","E_COORD97":166326.22,"N_COORD97":2544689.3399999999,"ADDRESS":"頂美一街７６巷７號","OBJECTID":346859},"geometry":{"x":166326.21999999974,"y":2544689.3399999999}},{"attributes":{"ID":346869,"DIS_CODE":0,"TOWNNAME":"中西區","LI":"西湖里","LIN":"6鄰","STREET":"頂美一街","SECT":" ","MAREA":" ","LANE":"７６巷","ALLEY":" ","HOUSE_NO":"８號","E_COORD97":166326.95000000001,"N_COORD97":2544669.6099999999,"ADDRESS":"頂美一街７６巷８號","OBJECTID":346860},"geometry":{"x":166326.95000000019,"y":2544669.6099999994}},{"attributes":{"ID":346870,"DIS_CODE":0,"TOWNNAME":"中西區","LI":"西湖里","LIN":"6鄰","STREET":"頂美一街","SECT":" ","MAREA":" ","LANE":"７６巷","ALLEY":" ","HOUSE_NO":"９號","E_COORD97":166337.66,"N_COORD97":2544691.29,"ADDRESS":"頂美一街７６巷９號","OBJECTID":346861},"geometry":{"x":166337.66000000108,"y":2544691.2899999991}},{"attributes":{"ID":346871,"DIS_CODE":0,"TOWNNAME":"中西區","LI":"西湖里","LIN":"6鄰","STREET":"頂美一街","SECT":" ","MAREA":" ","LANE":"８２巷","ALLEY":" ","HOUSE_NO":"１０號","E_COORD97":166337.04999999999,"N_COORD97":2544702.8100000001,"ADDRESS":"頂美一街８２巷１０號","OBJECTID":346862},"geometry":{"x":166337.04999999981,"y":2544702.8100000005}},{"attributes":{"ID":346872,"DIS_CODE":0,"TOWNNAME":"中西區","LI":"西湖里","LIN":"6鄰","STREET":"頂美一街","SECT":" ","MAREA":" ","LANE":"８２巷","ALLEY":" ","HOUSE_NO":"１２號","E_COORD97":166343.62,"N_COORD97":2544702.8100000001,"ADDRESS":"頂美一街８２巷１２號","OBJECTID":346863},"geometry":{"x":166343.62000000104,"y":2544702.8100000005}},{"attributes":{"ID":346873,"DIS_CODE":0,"TOWNNAME":"中西區","LI":"西湖里","LIN":"6鄰","STREET":"頂美一街","SECT":" ","MAREA":" ","LANE":"８２巷","ALLEY":" ","HOUSE_NO":"１４號","E_COORD97":166349.20999999999,"N_COORD97":2544702.5600000001,"ADDRESS":"頂美一街８２巷１４號","OBJECTID":346864},"geometry":{"x":166349.21000000089,"y":2544702.5600000042}},{"attributes":{"ID":346874,"DIS_CODE":0,"TOWNNAME":"中西區","LI":"西湖里","LIN":"6鄰","STREET":"頂美一街","SECT":" ","MAREA":" ","LANE":"８２巷","ALLEY":" ","HOUSE_NO":"１６號","E_COORD97":166355.04999999999,"N_COORD97":2544703.29,"ADDRESS":"頂美一街８２巷１６號","OBJECTID":346865},"geometry":{"x":166355.05000000075,"y":2544703.290000001}},{"attributes":{"ID":346875,"DIS_CODE":0,"TOWNNAME":"中西區","LI":"西湖里","LIN":"6鄰","STREET":"頂美一街","SECT":" ","MAREA":" ","LANE":"８２巷","ALLEY":" ","HOUSE_NO":"１８號","E_COORD97":166361.14000000001,"N_COORD97":2544703.7799999998,"ADDRESS":"頂美一街８２巷１８號","OBJECTID":346866},"geometry":{"x":166361.1400000006,"y":2544703.7800000012}},{"attributes":{"ID":346876,"DIS_CODE":0,"TOWNNAME":"中西區","LI":"西湖里","LIN":"6鄰","STREET":"頂美一街","SECT":" ","MAREA":" ","LANE":"８２巷","ALLEY":" ","HOUSE_NO":"２０號","E_COORD97":166367.45999999999,"N_COORD97":2544704.27,"ADDRESS":"頂美一街８２巷２０號","OBJECTID":346867},"geometry":{"x":166367.46000000183,"y":2544704.2700000014}},{"attributes":{"ID":346877,"DIS_CODE":0,"TOWNNAME":"中西區","LI":"西湖里","LIN":"6鄰","STREET":"頂美一街","SECT":" ","MAREA":" ","LANE":"８２巷","ALLEY":" ","HOUSE_NO":"２２號","E_COORD97":166378.66,"N_COORD97":2544703.7799999998,"ADDRESS":"頂美一街８２巷２２號","OBJECTID":346868},"geometry":{"x":166378.66000000108,"y":2544703.7800000012}},{"attributes":{"ID":346878,"DIS_CODE":0,"TOWNNAME":"中西區","LI":"西湖里","LIN":"6鄰","STREET":"頂美一街","SECT":" ","MAREA":" ","LANE":"８２巷","ALLEY":" ","HOUSE_NO":"２４號","E_COORD97":166384.73999999999,"N_COORD97":2544703.54,"ADDRESS":"頂美一街８２巷２４號","OBJECTID":346869},"geometry":{"x":166384.74000000115,"y":2544703.5399999991}},{"attributes":{"ID":346879,"DIS_CODE":0,"TOWNNAME":"中西區","LI":"西湖里","LIN":"6鄰","STREET":"頂美一街","SECT":" ","MAREA":" ","LANE":"８２巷","ALLEY":" ","HOUSE_NO":"２６號","E_COORD97":166390.34,"N_COORD97":2544704.02,"ADDRESS":"頂美一街８２巷２６號","OBJECTID":346870},"geometry":{"x":166390.34000000171,"y":2544704.0199999996}},{"attributes":{"ID":346880,"DIS_CODE":0,"TOWNNAME":"中西區","LI":"西湖里","LIN":"6鄰","STREET":"頂美一街","SECT":" ","MAREA":" ","LANE":"８２巷","ALLEY":" ","HOUSE_NO":"２號","E_COORD97":166308.09,"N_COORD97":2544702.0800000001,"ADDRESS":"頂美一街８２巷２號","OBJECTID":346871},"geometry":{"x":166308.08999999985,"y":2544702.0800000038}},{"attributes":{"ID":346881,"DIS_CODE":0,"TOWNNAME":"中西區","LI":"西湖里","LIN":"6鄰","STREET":"頂美一街","SECT":" ","MAREA":" ","LANE":"８２巷","ALLEY":" ","HOUSE_NO":"３０號","E_COORD97":166401.29000000001,"N_COORD97":2544704.5099999998,"ADDRESS":"頂美一街８２巷３０號","OBJECTID":346872},"geometry":{"x":166401.29000000097,"y":2544704.5099999998}},{"attributes":{"ID":346882,"DIS_CODE":0,"TOWNNAME":"中西區","LI":"西湖里","LIN":"6鄰","STREET":"頂美一街","SECT":" ","MAREA":" ","LANE":"８２巷","ALLEY":" ","HOUSE_NO":"４號","E_COORD97":166313.92999999999,"N_COORD97":2544702.5600000001,"ADDRESS":"頂美一街８２巷４號","OBJECTID":346873},"geometry":{"x":166313.93000000063,"y":2544702.5600000042}},{"attributes":{"ID":346883,"DIS_CODE":0,"TOWNNAME":"中西區","LI":"西湖里","LIN":"6鄰","STREET":"頂美一街","SECT":" ","MAREA":" ","LANE":"８２巷","ALLEY":" ","HOUSE_NO":"６號","E_COORD97":166319.76999999999,"N_COORD97":2544702.3199999998,"ADDRESS":"頂美一街８２巷６號","OBJECTID":346874},"geometry":{"x":166319.77000000048,"y":2544702.3200000003}},{"attributes":{"ID":346884,"DIS_CODE":0,"TOWNNAME":"中西區","LI":"西湖里","LIN":"6鄰","STREET":"頂美一街","SECT":" ","MAREA":" ","LANE":"８２巷","ALLEY":" ","HOUSE_NO":"２８號","E_COORD97":166396.42000000001,"N_COORD97":2544703.7799999998,"ADDRESS":"頂美一街８２巷２８號","OBJECTID":346875},"geometry":{"x":166396.41999999899,"y":2544703.7800000012}},{"attributes":{"ID":346885,"DIS_CODE":0,"TOWNNAME":"仁德區","LI":"仁義里","LIN":"6鄰","STREET":"中山路","SECT":" ","MAREA":" ","LANE":"４７７巷","ALLEY":" ","HOUSE_NO":"９號","E_COORD97":173659.57000000001,"N_COORD97":2541225.5,"ADDRESS":"中山路４７７巷９號","OBJECTID":346876},"geometry":{"x":173659.5700000003,"y":2541225.5}},{"attributes":{"ID":346886,"DIS_CODE":0,"TOWNNAME":"仁德區","LI":"仁義里","LIN":"6鄰","STREET":"中山路","SECT":" ","MAREA":" ","LANE":"４４１巷","ALLEY":" ","HOUSE_NO":"１９號","E_COORD97":173762.89000000001,"N_COORD97":2541193.9900000002,"ADDRESS":"中山路４４１巷１９號","OBJECTID":346877},"geometry":{"x":173762.8900000006,"y":2541193.9900000021}},{"attributes":{"ID":346887,"DIS_CODE":0,"TOWNNAME":"仁德區","LI":"大甲里","LIN":"6鄰","STREET":"行大街","SECT":" ","MAREA":" ","LANE":"３０７巷","ALLEY":" ","HOUSE_NO":"１７號","E_COORD97":169708.95999999999,"N_COORD97":2535126.75,"ADDRESS":"行大街３０７巷１７號","OBJECTID":346878},"geometry":{"x":169708.96000000089,"y":2535126.7500000019}},{"attributes":{"ID":346888,"DIS_CODE":0,"TOWNNAME":"永康區","LI":"復華里","LIN":"38鄰","STREET":"復華七街","SECT":" ","MAREA":" ","LANE":"３２巷","ALLEY":" ","HOUSE_NO":"４５號二樓之２","E_COORD97":172722.70000000001,"N_COORD97":2545891.2999999998,"ADDRESS":"復華七街３２巷４５號二樓之２","OBJECTID":346879},"geometry":{"x":172722.70000000019,"y":2545891.3000000045}},{"attributes":{"ID":346889,"DIS_CODE":0,"TOWNNAME":"永康區","LI":"復華里","LIN":"38鄰","STREET":"復華七街","SECT":" ","MAREA":" ","LANE":"３２巷","ALLEY":" ","HOUSE_NO":"４１號九樓之２","E_COORD97":172737.89000000001,"N_COORD97":2545897.0499999998,"ADDRESS":"復華七街３２巷４１號九樓之２","OBJECTID":346880},"geometry":{"x":172737.88999999966,"y":2545897.0500000026}},{"attributes":{"ID":346890,"DIS_CODE":0,"TOWNNAME":"永康區","LI":"復華里","LIN":"38鄰","STREET":"復華七街","SECT":" ","MAREA":" ","LANE":"３２巷","ALLEY":" ","HOUSE_NO":"２３號五樓之２","E_COORD97":172707.75,"N_COORD97":2545918.7999999998,"ADDRESS":"復華七街３２巷２３號五樓之２","OBJECTID":346881},"geometry":{"x":172707.75000000093,"y":2545918.8000000026}},{"attributes":{"ID":346891,"DIS_CODE":0,"TOWNNAME":"永康區","LI":"復華里","LIN":"38鄰","STREET":"復華七街","SECT":" ","MAREA":" ","LANE":"３２巷","ALLEY":" ","HOUSE_NO":"４１號三樓之１","E_COORD97":172737.76000000001,"N_COORD97":2545897.0499999998,"ADDRESS":"復華七街３２巷４１號三樓之１","OBJECTID":346882},"geometry":{"x":172737.76000000071,"y":2545897.0500000026}},{"attributes":{"ID":346892,"DIS_CODE":0,"TOWNNAME":"永康區","LI":"復華里","LIN":"38鄰","STREET":"復華七街","SECT":" ","MAREA":" ","LANE":"３２巷","ALLEY":" ","HOUSE_NO":"４５號十樓之２","E_COORD97":172722.70000000001,"N_COORD97":2545891.2999999998,"ADDRESS":"復華七街３２巷４５號十樓之２","OBJECTID":346883},"geometry":{"x":172722.70000000019,"y":2545891.3000000045}},{"attributes":{"ID":346893,"DIS_CODE":0,"TOWNNAME":"永康區","LI":"復華里","LIN":"38鄰","STREET":"復華七街","SECT":" ","MAREA":" ","LANE":"３２巷","ALLEY":" ","HOUSE_NO":"４５號四樓之１","E_COORD97":172722.57000000001,"N_COORD97":2545891.2999999998,"ADDRESS":"復華七街３２巷４５號四樓之１","OBJECTID":346884},"geometry":{"x":172722.57000000123,"y":2545891.3000000045}},{"attributes":{"ID":346894,"DIS_CODE":0,"TOWNNAME":"永康區","LI":"復華里","LIN":"38鄰","STREET":"復華七街","SECT":" ","MAREA":" ","LANE":"３２巷","ALLEY":" ","HOUSE_NO":"４５號三樓之１","E_COORD97":172722.57000000001,"N_COORD97":2545891.2999999998,"ADDRESS":"復華七街３２巷４５號三樓之１","OBJECTID":346885},"geometry":{"x":172722.57000000123,"y":2545891.3000000045}},{"attributes":{"ID":346895,"DIS_CODE":0,"TOWNNAME":"永康區","LI":"復華里","LIN":"38鄰","STREET":"復華七街","SECT":" ","MAREA":" ","LANE":"３２巷","ALLEY":" ","HOUSE_NO":"２３號八樓之２","E_COORD97":172707.75,"N_COORD97":2545918.7999999998,"ADDRESS":"復華七街３２巷２３號八樓之２","OBJECTID":346886},"geometry":{"x":172707.75000000093,"y":2545918.8000000026}},{"attributes":{"ID":346896,"DIS_CODE":0,"TOWNNAME":"永康區","LI":"復華里","LIN":"38鄰","STREET":"復華七街","SECT":" ","MAREA":" ","LANE":"３２巷","ALLEY":" ","HOUSE_NO":"２３號四樓之２","E_COORD97":172707.75,"N_COORD97":2545918.7999999998,"ADDRESS":"復華七街３２巷２３號四樓之２","OBJECTID":346887},"geometry":{"x":172707.75000000093,"y":2545918.8000000026}},{"attributes":{"ID":346897,"DIS_CODE":0,"TOWNNAME":"永康區","LI":"復華里","LIN":"38鄰","STREET":"復華七街","SECT":" ","MAREA":" ","LANE":"３２巷","ALLEY":" ","HOUSE_NO":"４１號七樓之２","E_COORD97":172737.89000000001,"N_COORD97":2545897.0499999998,"ADDRESS":"復華七街３２巷４１號七樓之２","OBJECTID":346888},"geometry":{"x":172737.88999999966,"y":2545897.0500000026}},{"attributes":{"ID":346898,"DIS_CODE":0,"TOWNNAME":"永康區","LI":"復華里","LIN":"38鄰","STREET":"復華七街","SECT":" ","MAREA":" ","LANE":"３２巷","ALLEY":" ","HOUSE_NO":"２３號三樓","E_COORD97":172705.48000000001,"N_COORD97":2545918.7799999998,"ADDRESS":"復華七街３２巷２３號三樓","OBJECTID":346889},"geometry":{"x":172705.48000000045,"y":2545918.7799999993}},{"attributes":{"ID":346899,"DIS_CODE":0,"TOWNNAME":"永康區","LI":"復華里","LIN":"38鄰","STREET":"復華七街","SECT":" ","MAREA":" ","LANE":"３２巷","ALLEY":" ","HOUSE_NO":"２３號十一樓之２","E_COORD97":172709,"N_COORD97":2545918.7999999998,"ADDRESS":"復華七街３２巷２３號十一樓之２","OBJECTID":346890},"geometry":{"x":172709.00000000186,"y":2545918.8000000026}},{"attributes":{"ID":346900,"DIS_CODE":0,"TOWNNAME":"永康區","LI":"二王里","LIN":"8鄰","STREET":"二王路","SECT":" ","MAREA":" ","LANE":" ","ALLEY":" ","HOUSE_NO":"１６號三樓之３","E_COORD97":172975.14999999999,"N_COORD97":2546819.7999999998,"ADDRESS":"二王路１６號三樓之３","OBJECTID":346891},"geometry":{"x":172975.1500000013,"y":2546819.7999999989}},{"attributes":{"ID":346901,"DIS_CODE":0,"TOWNNAME":"永康區","LI":"二王里","LIN":"8鄰","STREET":"二王路","SECT":" ","MAREA":" ","LANE":" ","ALLEY":" ","HOUSE_NO":"１０號十四樓之２","E_COORD97":172987.35999999999,"N_COORD97":2546837.98,"ADDRESS":"二王路１０號十四樓之２","OBJECTID":346892},"geometry":{"x":172987.36000000127,"y":2546837.9800000004}},{"attributes":{"ID":346902,"DIS_CODE":0,"TOWNNAME":"永康區","LI":"二王里","LIN":"8鄰","STREET":"二王路","SECT":" ","MAREA":" ","LANE":" ","ALLEY":" ","HOUSE_NO":"１６號七樓之３","E_COORD97":172975.14999999999,"N_COORD97":2546819.7999999998,"ADDRESS":"二王路１６號七樓之３","OBJECTID":346893},"geometry":{"x":172975.1500000013,"y":2546819.7999999989}},{"attributes":{"ID":346903,"DIS_CODE":0,"TOWNNAME":"永康區","LI":"二王里","LIN":"8鄰","STREET":"二王路","SECT":" ","MAREA":" ","LANE":" ","ALLEY":" ","HOUSE_NO":"１８號十樓之１","E_COORD97":172979.20999999999,"N_COORD97":2546822.5499999998,"ADDRESS":"二王路１８號十樓之１","OBJECTID":346894},"geometry":{"x":172979.21000000089,"y":2546822.5500000026}},{"attributes":{"ID":346904,"DIS_CODE":0,"TOWNNAME":"永康區","LI":"二王里","LIN":"8鄰","STREET":"二王路","SECT":" ","MAREA":" ","LANE":" ","ALLEY":" ","HOUSE_NO":"１０號十三樓之２","E_COORD97":172987.35999999999,"N_COORD97":2546837.98,"ADDRESS":"二王路１０號十三樓之２","OBJECTID":346895},"geometry":{"x":172987.36000000127,"y":2546837.9800000004}},{"attributes":{"ID":346905,"DIS_CODE":0,"TOWNNAME":"永康區","LI":"二王里","LIN":"8鄰","STREET":"二王路","SECT":" ","MAREA":" ","LANE":" ","ALLEY":" ","HOUSE_NO":"１８號五樓之２","E_COORD97":172979.34,"N_COORD97":2546822.5499999998,"ADDRESS":"二王路１８號五樓之２","OBJECTID":346896},"geometry":{"x":172979.34000000171,"y":2546822.5500000026}},{"attributes":{"ID":346906,"DIS_CODE":0,"TOWNNAME":"永康區","LI":"二王里","LIN":"8鄰","STREET":"二王路","SECT":" ","MAREA":" ","LANE":" ","ALLEY":" ","HOUSE_NO":"１６號七樓之２","E_COORD97":172975.17999999999,"N_COORD97":2546819.7999999998,"ADDRESS":"二王路１６號七樓之２","OBJECTID":346897},"geometry":{"x":172975.17999999877,"y":2546819.7999999989}},{"attributes":{"ID":346907,"DIS_CODE":0,"TOWNNAME":"永康區","LI":"二王里","LIN":"8鄰","STREET":"二王路","SECT":" ","MAREA":" ","LANE":" ","ALLEY":" ","HOUSE_NO":"１０號五樓之１","E_COORD97":172985.98000000001,"N_COORD97":2546837.98,"ADDRESS":"二王路１０號五樓之１","OBJECTID":346898},"geometry":{"x":172985.98000000231,"y":2546837.9800000004}},{"attributes":{"ID":346908,"DIS_CODE":0,"TOWNNAME":"永康區","LI":"二王里","LIN":"8鄰","STREET":"二王路","SECT":" ","MAREA":" ","LANE":" ","ALLEY":" ","HOUSE_NO":"１０號五樓之３","E_COORD97":172986.07999999999,"N_COORD97":2546837.98,"ADDRESS":"二王路１０號五樓之３","OBJECTID":346899},"geometry":{"x":172986.08000000007,"y":2546837.9800000004}},{"attributes":{"ID":346909,"DIS_CODE":0,"TOWNNAME":"永康區","LI":"二王里","LIN":"8鄰","STREET":"二王路","SECT":" ","MAREA":" ","LANE":" ","ALLEY":" ","HOUSE_NO":"１０號十樓之２","E_COORD97":172986.10999999999,"N_COORD97":2546837.98,"ADDRESS":"二王路１０號十樓之２","OBJECTID":346900},"geometry":{"x":172986.11000000034,"y":2546837.9800000004}},{"attributes":{"ID":346910,"DIS_CODE":0,"TOWNNAME":"永康區","LI":"二王里","LIN":"8鄰","STREET":"二王路","SECT":" ","MAREA":" ","LANE":" ","ALLEY":" ","HOUSE_NO":"１０號八樓之２","E_COORD97":172986.10999999999,"N_COORD97":2546837.98,"ADDRESS":"二王路１０號八樓之２","OBJECTID":346901},"geometry":{"x":172986.11000000034,"y":2546837.9800000004}},{"attributes":{"ID":346911,"DIS_CODE":0,"TOWNNAME":"永康區","LI":"二王里","LIN":"8鄰","STREET":"二王路","SECT":" ","MAREA":" ","LANE":" ","ALLEY":" ","HOUSE_NO":"１８號十二樓之１","E_COORD97":172980.45999999999,"N_COORD97":2546822.5499999998,"ADDRESS":"二王路１８號十二樓之１","OBJECTID":346902},"geometry":{"x":172980.46000000183,"y":2546822.5500000026}},{"attributes":{"ID":346912,"DIS_CODE":0,"TOWNNAME":"永康區","LI":"二王里","LIN":"8鄰","STREET":"二王路","SECT":" ","MAREA":" ","LANE":" ","ALLEY":" ","HOUSE_NO":"１８號十一樓之１","E_COORD97":172980.45999999999,"N_COORD97":2546822.5499999998,"ADDRESS":"二王路１８號十一樓之１","OBJECTID":346903},"geometry":{"x":172980.46000000183,"y":2546822.5500000026}},{"attributes":{"ID":346913,"DIS_CODE":0,"TOWNNAME":"永康區","LI":"二王里","LIN":"8鄰","STREET":"二王路","SECT":" ","MAREA":" ","LANE":" ","ALLEY":" ","HOUSE_NO":"１０號五樓之２","E_COORD97":172986.10999999999,"N_COORD97":2546837.98,"ADDRESS":"二王路１０號五樓之２","OBJECTID":346904},"geometry":{"x":172986.11000000034,"y":2546837.9800000004}},{"attributes":{"ID":346914,"DIS_CODE":0,"TOWNNAME":"東區","LI":"忠孝里","LIN":"38鄰","STREET":"中華東路","SECT":"三段","MAREA":" ","LANE":"３８０巷","ALLEY":" ","HOUSE_NO":"６９號七樓","E_COORD97":169962.5,"N_COORD97":2541745.1099999999,"ADDRESS":"中華東路三段３８０巷６９號七樓","OBJECTID":346905},"geometry":{"x":169962.5,"y":2541745.1100000013}},{"attributes":{"ID":346915,"DIS_CODE":0,"TOWNNAME":"東區","LI":"忠孝里","LIN":"38鄰","STREET":"中華東路","SECT":"三段","MAREA":" ","LANE":"３８０巷","ALLEY":" ","HOUSE_NO":"６９號七樓之１","E_COORD97":169962.5,"N_COORD97":2541745.1099999999,"ADDRESS":"中華東路三段３８０巷６９號七樓之１","OBJECTID":346906},"geometry":{"x":169962.5,"y":2541745.1100000013}},{"attributes":{"ID":346916,"DIS_CODE":0,"TOWNNAME":"東區","LI":"忠孝里","LIN":"38鄰","STREET":"中華東路","SECT":"三段","MAREA":" ","LANE":"３８０巷","ALLEY":" ","HOUSE_NO":"６９號七樓之２","E_COORD97":169962.5,"N_COORD97":2541745.1099999999,"ADDRESS":"中華東路三段３８０巷６９號七樓之２","OBJECTID":346907},"geometry":{"x":169962.5,"y":2541745.1100000013}},{"attributes":{"ID":346917,"DIS_CODE":0,"TOWNNAME":"東區","LI":"忠孝里","LIN":"38鄰","STREET":"中華東路","SECT":"三段","MAREA":" ","LANE":"３８０巷","ALLEY":" ","HOUSE_NO":"６９號七樓之３","E_COORD97":169962.5,"N_COORD97":2541745.1099999999,"ADDRESS":"中華東路三段３８０巷６９號七樓之３","OBJECTID":346908},"geometry":{"x":169962.5,"y":2541745.1100000013}},{"attributes":{"ID":346918,"DIS_CODE":0,"TOWNNAME":"東區","LI":"忠孝里","LIN":"38鄰","STREET":"中華東路","SECT":"三段","MAREA":" ","LANE":"３８０巷","ALLEY":" ","HOUSE_NO":"６９號二樓","E_COORD97":169962.5,"N_COORD97":2541745.1099999999,"ADDRESS":"中華東路三段３８０巷６９號二樓","OBJECTID":346909},"geometry":{"x":169962.5,"y":2541745.1100000013}},{"attributes":{"ID":346919,"DIS_CODE":0,"TOWNNAME":"東區","LI":"忠孝里","LIN":"38鄰","STREET":"中華東路","SECT":"三段","MAREA":" ","LANE":"３８０巷","ALLEY":" ","HOUSE_NO":"６９號二樓之１","E_COORD97":169962.5,"N_COORD97":2541745.1099999999,"ADDRESS":"中華東路三段３８０巷６９號二樓之１","OBJECTID":346910},"geometry":{"x":169962.5,"y":2541745.1100000013}},{"attributes":{"ID":346920,"DIS_CODE":0,"TOWNNAME":"東區","LI":"忠孝里","LIN":"38鄰","STREET":"中華東路","SECT":"三段","MAREA":" ","LANE":"３８０巷","ALLEY":" ","HOUSE_NO":"６９號二樓之２","E_COORD97":169962.5,"N_COORD97":2541745.1099999999,"ADDRESS":"中華東路三段３８０巷６９號二樓之２","OBJECTID":346911},"geometry":{"x":169962.5,"y":2541745.1100000013}},{"attributes":{"ID":346921,"DIS_CODE":0,"TOWNNAME":"東區","LI":"忠孝里","LIN":"38鄰","STREET":"中華東路","SECT":"三段","MAREA":" ","LANE":"３８０巷","ALLEY":" ","HOUSE_NO":"６９號二樓之３","E_COORD97":169962.5,"N_COORD97":2541745.1099999999,"ADDRESS":"中華東路三段３８０巷６９號二樓之３","OBJECTID":346912},"geometry":{"x":169962.5,"y":2541745.1100000013}},{"attributes":{"ID":346922,"DIS_CODE":0,"TOWNNAME":"東區","LI":"忠孝里","LIN":"38鄰","STREET":"中華東路","SECT":"三段","MAREA":" ","LANE":"３８０巷","ALLEY":" ","HOUSE_NO":"６９號三樓","E_COORD97":169962.5,"N_COORD97":2541745.1099999999,"ADDRESS":"中華東路三段３８０巷６９號三樓","OBJECTID":346913},"geometry":{"x":169962.5,"y":2541745.1100000013}},{"attributes":{"ID":346923,"DIS_CODE":0,"TOWNNAME":"東區","LI":"忠孝里","LIN":"38鄰","STREET":"中華東路","SECT":"三段","MAREA":" ","LANE":"３８０巷","ALLEY":" ","HOUSE_NO":"６９號三樓之１","E_COORD97":169962.5,"N_COORD97":2541745.1099999999,"ADDRESS":"中華東路三段３８０巷６９號三樓之１","OBJECTID":346914},"geometry":{"x":169962.5,"y":2541745.1100000013}},{"attributes":{"ID":346924,"DIS_CODE":0,"TOWNNAME":"東區","LI":"忠孝里","LIN":"38鄰","STREET":"中華東路","SECT":"三段","MAREA":" ","LANE":"３８０巷","ALLEY":" ","HOUSE_NO":"６９號三樓之２","E_COORD97":169962.5,"N_COORD97":2541745.1099999999,"ADDRESS":"中華東路三段３８０巷６９號三樓之２","OBJECTID":346915},"geometry":{"x":169962.5,"y":2541745.1100000013}},{"attributes":{"ID":346925,"DIS_CODE":0,"TOWNNAME":"仁德區","LI":"仁德里","LIN":"6鄰","STREET":"仁德三街","SECT":" ","MAREA":" ","LANE":"３５巷","ALLEY":" ","HOUSE_NO":"７號","E_COORD97":173254.01999999999,"N_COORD97":2540951.02,"ADDRESS":"仁德三街３５巷７號","OBJECTID":346916},"geometry":{"x":173254.01999999955,"y":2540951.0199999996}},{"attributes":{"ID":346926,"DIS_CODE":0,"TOWNNAME":"仁德區","LI":"仁義里","LIN":"6鄰","STREET":"中山路","SECT":" ","MAREA":" ","LANE":"３７９巷","ALLEY":" ","HOUSE_NO":"２號","E_COORD97":173873.67999999999,"N_COORD97":2541211.4900000002,"ADDRESS":"中山路３７９巷２號","OBJECTID":346917},"geometry":{"x":173873.68000000156,"y":2541211.4900000021}},{"attributes":{"ID":346927,"DIS_CODE":0,"TOWNNAME":"仁德區","LI":"仁德里","LIN":"6鄰","STREET":"仁德三街","SECT":" ","MAREA":" ","LANE":"１９巷","ALLEY":" ","HOUSE_NO":"４號","E_COORD97":173286.97,"N_COORD97":2540959.02,"ADDRESS":"仁德三街１９巷４號","OBJECTID":346918},"geometry":{"x":173286.9700000016,"y":2540959.0200000014}},{"attributes":{"ID":346928,"DIS_CODE":0,"TOWNNAME":"仁德區","LI":"大甲里","LIN":"6鄰","STREET":"行大街","SECT":" ","MAREA":" ","LANE":"３０７巷","ALLEY":" ","HOUSE_NO":"３３之１號","E_COORD97":169716.01999999999,"N_COORD97":2535095.54,"ADDRESS":"行大街３０７巷３３之１號","OBJECTID":346919},"geometry":{"x":169716.01999999955,"y":2535095.5399999991}},{"attributes":{"ID":346929,"DIS_CODE":0,"TOWNNAME":"仁德區","LI":"仁德里","LIN":"6鄰","STREET":"仁德三街","SECT":" ","MAREA":" ","LANE":"４７巷","ALLEY":" ","HOUSE_NO":"８號","E_COORD97":173192.09,"N_COORD97":2540951.77,"ADDRESS":"仁德三街４７巷８號","OBJECTID":346920},"geometry":{"x":173192.09000000078,"y":2540951.7700000014}},{"attributes":{"ID":346930,"DIS_CODE":0,"TOWNNAME":"永康區","LI":"二王里","LIN":"8鄰","STREET":"二王路","SECT":" ","MAREA":" ","LANE":" ","ALLEY":" ","HOUSE_NO":"１６號九樓之１","E_COORD97":172975.04999999999,"N_COORD97":2546819.7999999998,"ADDRESS":"二王路１６號九樓之１","OBJECTID":346921},"geometry":{"x":172975.05000000075,"y":2546819.7999999989}},{"attributes":{"ID":346931,"DIS_CODE":0,"TOWNNAME":"永康區","LI":"二王里","LIN":"8鄰","STREET":"二王路","SECT":" ","MAREA":" ","LANE":" ","ALLEY":" ","HOUSE_NO":"１０號十四樓之３","E_COORD97":172987.32999999999,"N_COORD97":2546837.98,"ADDRESS":"二王路１０號十四樓之３","OBJECTID":346922},"geometry":{"x":172987.33000000101,"y":2546837.9800000004}},{"attributes":{"ID":346932,"DIS_CODE":0,"TOWNNAME":"永康區","LI":"二王里","LIN":"8鄰","STREET":"二王路","SECT":" ","MAREA":" ","LANE":" ","ALLEY":" ","HOUSE_NO":"１０號十樓之３","E_COORD97":172986.07999999999,"N_COORD97":2546837.98,"ADDRESS":"二王路１０號十樓之３","OBJECTID":346923},"geometry":{"x":172986.08000000007,"y":2546837.9800000004}},{"attributes":{"ID":346933,"DIS_CODE":0,"TOWNNAME":"永康區","LI":"二王里","LIN":"8鄰","STREET":"二王路","SECT":" ","MAREA":" ","LANE":" ","ALLEY":" ","HOUSE_NO":"１０號十五樓之１","E_COORD97":172987.23000000001,"N_COORD97":2546837.98,"ADDRESS":"二王路１０號十五樓之１","OBJECTID":346924},"geometry":{"x":172987.23000000045,"y":2546837.9800000004}},{"attributes":{"ID":346934,"DIS_CODE":0,"TOWNNAME":"永康區","LI":"二王里","LIN":"8鄰","STREET":"二王路","SECT":" ","MAREA":" ","LANE":" ","ALLEY":" ","HOUSE_NO":"１６號六樓之１","E_COORD97":172975.04999999999,"N_COORD97":2546819.7999999998,"ADDRESS":"二王路１６號六樓之１","OBJECTID":346925},"geometry":{"x":172975.05000000075,"y":2546819.7999999989}},{"attributes":{"ID":346935,"DIS_CODE":0,"TOWNNAME":"永康區","LI":"二王里","LIN":"8鄰","STREET":"二王路","SECT":" ","MAREA":" ","LANE":" ","ALLEY":" ","HOUSE_NO":"１６號十五樓之１","E_COORD97":172976.29999999999,"N_COORD97":2546819.7999999998,"ADDRESS":"二王路１６號十五樓之１","OBJECTID":346926},"geometry":{"x":172976.30000000168,"y":2546819.7999999989}},{"attributes":{"ID":346936,"DIS_CODE":0,"TOWNNAME":"永康區","LI":"二王里","LIN":"8鄰","STREET":"二王路","SECT":" ","MAREA":" ","LANE":" ","ALLEY":" ","HOUSE_NO":"１６號十七樓之１","E_COORD97":172976.29999999999,"N_COORD97":2546819.7999999998,"ADDRESS":"二王路１６號十七樓之１","OBJECTID":346927},"geometry":{"x":172976.30000000168,"y":2546819.7999999989}},{"attributes":{"ID":346937,"DIS_CODE":0,"TOWNNAME":"永康區","LI":"二王里","LIN":"8鄰","STREET":"二王路","SECT":" ","MAREA":" ","LANE":" ","ALLEY":" ","HOUSE_NO":"１６號十五樓之３","E_COORD97":172976.39999999999,"N_COORD97":2546819.7999999998,"ADDRESS":"二王路１６號十五樓之３","OBJECTID":346928},"geometry":{"x":172976.4000000013,"y":2546819.7999999989}},{"attributes":{"ID":346938,"DIS_CODE":0,"TOWNNAME":"中西區","LI":"永華里","LIN":"8鄰","STREET":"府中街","SECT":" ","MAREA":" ","LANE":" ","ALLEY":" ","HOUSE_NO":"１３２號三樓","E_COORD97":168524.67999999999,"N_COORD97":2543413.5099999998,"ADDRESS":"府中街１３２號三樓","OBJECTID":346929},"geometry":{"x":168524.6799999997,"y":2543413.5099999979}},{"attributes":{"ID":346939,"DIS_CODE":0,"TOWNNAME":"中西區","LI":"永華里","LIN":"8鄰","STREET":"府中街","SECT":" ","MAREA":" ","LANE":" ","ALLEY":" ","HOUSE_NO":"１３２號四樓","E_COORD97":168524.67999999999,"N_COORD97":2543413.5099999998,"ADDRESS":"府中街１３２號四樓","OBJECTID":346930},"geometry":{"x":168524.6799999997,"y":2543413.5099999979}},{"attributes":{"ID":346940,"DIS_CODE":0,"TOWNNAME":"永康區","LI":"復國里","LIN":"8鄰","STREET":"復國二路","SECT":" ","MAREA":" ","LANE":" ","ALLEY":" ","HOUSE_NO":"５６號","E_COORD97":172847.88,"N_COORD97":2545093.5299999998,"ADDRESS":"復國二路５６號","OBJECTID":346931},"geometry":{"x":172847.87999999989,"y":2545093.5299999993}},{"attributes":{"ID":346941,"DIS_CODE":0,"TOWNNAME":"永康區","LI":"三合里","LIN":"8鄰","STREET":"南工街","SECT":" ","MAREA":" ","LANE":" ","ALLEY":" ","HOUSE_NO":"１４３號","E_COORD97":172090.14000000001,"N_COORD97":2545807.4100000001,"ADDRESS":"南工街１４３號","OBJECTID":346932},"geometry":{"x":172090.13999999966,"y":2545807.4100000001}},{"attributes":{"ID":346942,"DIS_CODE":0,"TOWNNAME":"永康區","LI":"二王里","LIN":"8鄰","STREET":"中山南路","SECT":" ","MAREA":" ","LANE":" ","ALLEY":" ","HOUSE_NO":"８１０號","E_COORD97":172815.60999999999,"N_COORD97":2546801.6400000001,"ADDRESS":"中山南路８１０號","OBJECTID":346933},"geometry":{"x":172815.61000000127,"y":2546801.6400000025}},{"attributes":{"ID":346943,"DIS_CODE":0,"TOWNNAME":"永康區","LI":"二王里","LIN":"8鄰","STREET":"中山南路","SECT":" ","MAREA":" ","LANE":" ","ALLEY":" ","HOUSE_NO":"７９８號","E_COORD97":172795.29999999999,"N_COORD97":2546794.8900000001,"ADDRESS":"中山南路７９８號","OBJECTID":346934},"geometry":{"x":172795.30000000075,"y":2546794.8900000006}},{"attributes":{"ID":346944,"DIS_CODE":0,"TOWNNAME":"安南區","LI":"國安里","LIN":"6鄰","STREET":"國安街","SECT":" ","MAREA":" ","LANE":"２１０巷","ALLEY":" ","HOUSE_NO":"３９號","E_COORD97":166563,"N_COORD97":2547051.5,"ADDRESS":"國安街２１０巷３９號","OBJECTID":346935},"geometry":{"x":166563.00000000093,"y":2547051.5}},{"attributes":{"ID":346945,"DIS_CODE":0,"TOWNNAME":"安南區","LI":"國安里","LIN":"6鄰","STREET":"國安街","SECT":" ","MAREA":" ","LANE":"２１０巷","ALLEY":" ","HOUSE_NO":"１０號","E_COORD97":166613.51999999999,"N_COORD97":2546993.1699999999,"ADDRESS":"國安街２１０巷１０號","OBJECTID":346936},"geometry":{"x":166613.51999999955,"y":2546993.1700000037}},{"attributes":{"ID":346946,"DIS_CODE":0,"TOWNNAME":"安南區","LI":"國安里","LIN":"6鄰","STREET":"國安街","SECT":" ","MAREA":" ","LANE":"２１０巷","ALLEY":" ","HOUSE_NO":"１１號","E_COORD97":166575.39000000001,"N_COORD97":2546989.48,"ADDRESS":"國安街２１０巷１１號","OBJECTID":346937},"geometry":{"x":166575.38999999966,"y":2546989.4800000023}},{"attributes":{"ID":346947,"DIS_CODE":0,"TOWNNAME":"安南區","LI":"國安里","LIN":"6鄰","STREET":"國安街","SECT":" ","MAREA":" ","LANE":"２１０巷","ALLEY":" ","HOUSE_NO":"１２號","E_COORD97":166613.07999999999,"N_COORD97":2546996.52,"ADDRESS":"國安街２１０巷１２號","OBJECTID":346938},"geometry":{"x":166613.08000000101,"y":2546996.5199999996}},{"attributes":{"ID":346948,"DIS_CODE":0,"TOWNNAME":"安南區","LI":"國安里","LIN":"6鄰","STREET":"國安街","SECT":" ","MAREA":" ","LANE":"２１０巷","ALLEY":" ","HOUSE_NO":"１４號","E_COORD97":166611.56,"N_COORD97":2547002.0800000001,"ADDRESS":"國安街２１０巷１４號","OBJECTID":346939},"geometry":{"x":166611.55999999959,"y":2547002.0800000019}},{"attributes":{"ID":346949,"DIS_CODE":0,"TOWNNAME":"安南區","LI":"國安里","LIN":"6鄰","STREET":"國安街","SECT":" ","MAREA":" ","LANE":"２１０巷","ALLEY":" ","HOUSE_NO":"１５號","E_COORD97":166573.70000000001,"N_COORD97":2546998.9199999999,"ADDRESS":"國安街２１０巷１５號","OBJECTID":346940},"geometry":{"x":166573.70000000112,"y":2546998.9200000018}},{"attributes":{"ID":346950,"DIS_CODE":0,"TOWNNAME":"安南區","LI":"國安里","LIN":"6鄰","STREET":"國安街","SECT":" ","MAREA":" ","LANE":"２１０巷","ALLEY":" ","HOUSE_NO":"１６號","E_COORD97":166610.69,"N_COORD97":2547006.2000000002,"ADDRESS":"國安街２１０巷１６號","OBJECTID":346941},"geometry":{"x":166610.69000000134,"y":2547006.2000000011}},{"attributes":{"ID":346951,"DIS_CODE":0,"TOWNNAME":"安南區","LI":"國安里","LIN":"6鄰","STREET":"國安街","SECT":" ","MAREA":" ","LANE":"２１０巷","ALLEY":" ","HOUSE_NO":"１７號","E_COORD97":166572.78,"N_COORD97":2547003.0099999998,"ADDRESS":"國安街２１０巷１７號","OBJECTID":346942},"geometry":{"x":166572.78000000119,"y":2547003.0099999998}},{"attributes":{"ID":346952,"DIS_CODE":0,"TOWNNAME":"安南區","LI":"國安里","LIN":"6鄰","STREET":"國安街","SECT":" ","MAREA":" ","LANE":"２１０巷","ALLEY":" ","HOUSE_NO":"１８號","E_COORD97":166610.13,"N_COORD97":2547010.3500000001,"ADDRESS":"國安街２１０巷１８號","OBJECTID":346943},"geometry":{"x":166610.12999999989,"y":2547010.3499999996}},{"attributes":{"ID":346953,"DIS_CODE":0,"TOWNNAME":"安南區","LI":"國安里","LIN":"6鄰","STREET":"國安街","SECT":" ","MAREA":" ","LANE":"２１０巷","ALLEY":" ","HOUSE_NO":"１９號","E_COORD97":166572.16,"N_COORD97":2547007.6899999999,"ADDRESS":"國安街２１０巷１９號","OBJECTID":346944},"geometry":{"x":166572.16000000108,"y":2547007.6899999995}},{"attributes":{"ID":346954,"DIS_CODE":0,"TOWNNAME":"安南區","LI":"國安里","LIN":"6鄰","STREET":"國安街","SECT":" ","MAREA":" ","LANE":"２１０巷","ALLEY":" ","HOUSE_NO":"１號","E_COORD97":166578.62,"N_COORD97":2546967.6200000001,"ADDRESS":"國安街２１０巷１號","OBJECTID":346945},"geometry":{"x":166578.62000000104,"y":2546967.6200000048}},{"attributes":{"ID":346955,"DIS_CODE":0,"TOWNNAME":"安南區","LI":"國安里","LIN":"6鄰","STREET":"國安街","SECT":" ","MAREA":" ","LANE":"２１０巷","ALLEY":" ","HOUSE_NO":"２０號","E_COORD97":166609.45000000001,"N_COORD97":2547014.9100000001,"ADDRESS":"國安街２１０巷２０號","OBJECTID":346946},"geometry":{"x":166609.45000000019,"y":2547014.9100000001}},{"attributes":{"ID":346956,"DIS_CODE":0,"TOWNNAME":"安南區","LI":"國安里","LIN":"6鄰","STREET":"國安街","SECT":" ","MAREA":" ","LANE":"２１０巷","ALLEY":" ","HOUSE_NO":"２１號","E_COORD97":166570.91,"N_COORD97":2547012.0299999998,"ADDRESS":"國安街２１０巷２１號","OBJECTID":346947},"geometry":{"x":166570.91000000015,"y":2547012.0299999993}},{"attributes":{"ID":346957,"DIS_CODE":0,"TOWNNAME":"安南區","LI":"國安里","LIN":"6鄰","STREET":"國安街","SECT":" ","MAREA":" ","LANE":"２１０巷","ALLEY":" ","HOUSE_NO":"２２號","E_COORD97":166609.06,"N_COORD97":2547019.3799999999,"ADDRESS":"國安街２１０巷２２號","OBJECTID":346948},"geometry":{"x":166609.06000000052,"y":2547019.379999999}},{"attributes":{"ID":346958,"DIS_CODE":0,"TOWNNAME":"安南區","LI":"國安里","LIN":"6鄰","STREET":"國安街","SECT":" ","MAREA":" ","LANE":"２１０巷","ALLEY":" ","HOUSE_NO":"２３號","E_COORD97":166570.38,"N_COORD97":2547016.7799999998,"ADDRESS":"國安街２１０巷２３號","OBJECTID":346949},"geometry":{"x":166570.38000000082,"y":2547016.7800000012}},{"attributes":{"ID":346959,"DIS_CODE":0,"TOWNNAME":"安南區","LI":"國安里","LIN":"6鄰","STREET":"國安街","SECT":" ","MAREA":" ","LANE":"２１０巷","ALLEY":" ","HOUSE_NO":"２４號","E_COORD97":166608.38,"N_COORD97":2547023.8500000001,"ADDRESS":"國安街２１０巷２４號","OBJECTID":346950},"geometry":{"x":166608.37999999989,"y":2547023.8499999996}},{"attributes":{"ID":346960,"DIS_CODE":0,"TOWNNAME":"安南區","LI":"國安里","LIN":"6鄰","STREET":"國安街","SECT":" ","MAREA":" ","LANE":"２１０巷","ALLEY":" ","HOUSE_NO":"２５號","E_COORD97":166569.38,"N_COORD97":2547020.8500000001,"ADDRESS":"國安街２１０巷２５號","OBJECTID":346951},"geometry":{"x":166569.37999999989,"y":2547020.8499999996}},{"attributes":{"ID":346961,"DIS_CODE":0,"TOWNNAME":"安南區","LI":"國安里","LIN":"6鄰","STREET":"國安街","SECT":" ","MAREA":" ","LANE":"２１０巷","ALLEY":" ","HOUSE_NO":"２６號","E_COORD97":166607.48999999999,"N_COORD97":2547028.5499999998,"ADDRESS":"國安街２１０巷２６號","OBJECTID":346952},"geometry":{"x":166607.49000000022,"y":2547028.5500000045}},{"attributes":{"ID":346962,"DIS_CODE":0,"TOWNNAME":"安南區","LI":"國安里","LIN":"6鄰","STREET":"國安街","SECT":" ","MAREA":" ","LANE":"２１０巷","ALLEY":" ","HOUSE_NO":"２７號","E_COORD97":166568.45000000001,"N_COORD97":2547024.71,"ADDRESS":"國安街２１０巷２７號","OBJECTID":346953},"geometry":{"x":166568.45000000112,"y":2547024.7100000028}},{"attributes":{"ID":346963,"DIS_CODE":0,"TOWNNAME":"安南區","LI":"國安里","LIN":"6鄰","STREET":"國安街","SECT":" ","MAREA":" ","LANE":"２１０巷","ALLEY":" ","HOUSE_NO":"２８號","E_COORD97":166606.81,"N_COORD97":2547032.9199999999,"ADDRESS":"國安街２１０巷２８號","OBJECTID":346954},"geometry":{"x":166606.80999999959,"y":2547032.9200000018}},{"attributes":{"ID":346964,"DIS_CODE":0,"TOWNNAME":"安南區","LI":"國安里","LIN":"6鄰","STREET":"國安街","SECT":" ","MAREA":" ","LANE":"２１０巷","ALLEY":" ","HOUSE_NO":"２９號","E_COORD97":166568.07000000001,"N_COORD97":2547029.3199999998,"ADDRESS":"國安街２１０巷２９號","OBJECTID":346955},"geometry":{"x":166568.0700000003,"y":2547029.3200000003}},{"attributes":{"ID":346965,"DIS_CODE":0,"TOWNNAME":"安南區","LI":"國安里","LIN":"6鄰","STREET":"國安街","SECT":" ","MAREA":" ","LANE":"２１０巷","ALLEY":" ","HOUSE_NO":"３０號","E_COORD97":166605.75,"N_COORD97":2547036.8999999999,"ADDRESS":"國安街２１０巷３０號","OBJECTID":346956},"geometry":{"x":166605.75,"y":2547036.9000000022}},{"attributes":{"ID":346966,"DIS_CODE":0,"TOWNNAME":"永康區","LI":"網寮里","LIN":"6鄰","STREET":"永二街","SECT":" ","MAREA":" ","LANE":"１９６巷","ALLEY":" ","HOUSE_NO":"９號","E_COORD97":173339.17000000001,"N_COORD97":2546268.0499999998,"ADDRESS":"永二街１９６巷９號","OBJECTID":346957},"geometry":{"x":173339.17000000086,"y":2546268.0500000007}},{"attributes":{"ID":346967,"DIS_CODE":0,"TOWNNAME":"安南區","LI":"國安里","LIN":"6鄰","STREET":"國安街","SECT":" ","MAREA":" ","LANE":"２１０巷","ALLEY":" ","HOUSE_NO":"３２號","E_COORD97":166604.87,"N_COORD97":2547041.46,"ADDRESS":"國安街２１０巷３２號","OBJECTID":346958},"geometry":{"x":166604.87000000011,"y":2547041.4600000009}},{"attributes":{"ID":346968,"DIS_CODE":0,"TOWNNAME":"安南區","LI":"國安里","LIN":"6鄰","STREET":"國安街","SECT":" ","MAREA":" ","LANE":"２１０巷","ALLEY":" ","HOUSE_NO":"３３號","E_COORD97":166565.53,"N_COORD97":2547039.1699999999,"ADDRESS":"國安街２１０巷３３號","OBJECTID":346959},"geometry":{"x":166565.52999999933,"y":2547039.1699999999}},{"attributes":{"ID":346969,"DIS_CODE":0,"TOWNNAME":"安南區","LI":"國安里","LIN":"6鄰","STREET":"國安街","SECT":" ","MAREA":" ","LANE":"２１０巷","ALLEY":" ","HOUSE_NO":"３４號","E_COORD97":166604.29000000001,"N_COORD97":2547045.77,"ADDRESS":"國安街２１０巷３４號","OBJECTID":346960},"geometry":{"x":166604.2900000019,"y":2547045.7699999996}},{"attributes":{"ID":346970,"DIS_CODE":0,"TOWNNAME":"安南區","LI":"國安里","LIN":"6鄰","STREET":"國安街","SECT":" ","MAREA":" ","LANE":"２１０巷","ALLEY":" ","HOUSE_NO":"３７號","E_COORD97":166563.38,"N_COORD97":2547047.3300000001,"ADDRESS":"國安街２１０巷３７號","OBJECTID":346961},"geometry":{"x":166563.38000000082,"y":2547047.3300000019}},{"attributes":{"ID":346971,"DIS_CODE":0,"TOWNNAME":"安南區","LI":"國安里","LIN":"6鄰","STREET":"國安街","SECT":" ","MAREA":" ","LANE":"２１０巷","ALLEY":" ","HOUSE_NO":"３號","E_COORD97":166578.07999999999,"N_COORD97":2546972.3100000001,"ADDRESS":"國安街２１０巷３號","OBJECTID":346962},"geometry":{"x":166578.08000000007,"y":2546972.3100000042}},{"attributes":{"ID":346972,"DIS_CODE":0,"TOWNNAME":"安南區","LI":"國安里","LIN":"6鄰","STREET":"國安街","SECT":" ","MAREA":" ","LANE":"２１０巷","ALLEY":" ","HOUSE_NO":"４０號","E_COORD97":166601.56,"N_COORD97":2547059.6899999999,"ADDRESS":"國安街２１０巷４０號","OBJECTID":346963},"geometry":{"x":166601.55999999959,"y":2547059.6899999995}},{"attributes":{"ID":346973,"DIS_CODE":0,"TOWNNAME":"永康區","LI":"二王里","LIN":"8鄰","STREET":"中山南路","SECT":" ","MAREA":" ","LANE":" ","ALLEY":" ","HOUSE_NO":"８５８號","E_COORD97":172947.51999999999,"N_COORD97":2546837.6000000001,"ADDRESS":"中山南路８５８號","OBJECTID":346964},"geometry":{"x":172947.52000000048,"y":2546837.6000000015}},{"attributes":{"ID":346974,"DIS_CODE":0,"TOWNNAME":"安南區","LI":"國安里","LIN":"6鄰","STREET":"國安街","SECT":" ","MAREA":" ","LANE":"２１０巷","ALLEY":" ","HOUSE_NO":"４１號","E_COORD97":166562,"N_COORD97":2547055.8799999999,"ADDRESS":"國安街２１０巷４１號","OBJECTID":346965},"geometry":{"x":166562,"y":2547055.8800000008}},{"attributes":{"ID":346975,"DIS_CODE":0,"TOWNNAME":"安南區","LI":"國安里","LIN":"6鄰","STREET":"國安街","SECT":" ","MAREA":" ","LANE":"２１０巷","ALLEY":" ","HOUSE_NO":"４５號","E_COORD97":166560.54000000001,"N_COORD97":2547064.8900000001,"ADDRESS":"國安街２１０巷４５號","OBJECTID":346966},"geometry":{"x":166560.54000000097,"y":2547064.8900000025}},{"attributes":{"ID":346976,"DIS_CODE":0,"TOWNNAME":"安南區","LI":"國安里","LIN":"6鄰","STREET":"國安街","SECT":" ","MAREA":" ","LANE":"２１０巷","ALLEY":" ","HOUSE_NO":"４６號","E_COORD97":166598.84,"N_COORD97":2547072.6000000001,"ADDRESS":"國安街２１０巷４６號","OBJECTID":346967},"geometry":{"x":166598.84000000171,"y":2547072.6000000015}},{"attributes":{"ID":346977,"DIS_CODE":0,"TOWNNAME":"安南區","LI":"國安里","LIN":"6鄰","STREET":"國安街","SECT":" ","MAREA":" ","LANE":"２１０巷","ALLEY":" ","HOUSE_NO":"４７號","E_COORD97":166560.31,"N_COORD97":2547069.3399999999,"ADDRESS":"國安街２１０巷４７號","OBJECTID":346968},"geometry":{"x":166560.31000000052,"y":2547069.3399999999}},{"attributes":{"ID":346978,"DIS_CODE":0,"TOWNNAME":"安南區","LI":"國安里","LIN":"6鄰","STREET":"國安街","SECT":" ","MAREA":" ","LANE":"２１０巷","ALLEY":" ","HOUSE_NO":"４９號","E_COORD97":166559.54000000001,"N_COORD97":2547073.4500000002,"ADDRESS":"國安街２１０巷４９號","OBJECTID":346969},"geometry":{"x":166559.54000000004,"y":2547073.4499999993}},{"attributes":{"ID":346979,"DIS_CODE":0,"TOWNNAME":"安南區","LI":"國安里","LIN":"6鄰","STREET":"國安街","SECT":" ","MAREA":" ","LANE":"２１０巷","ALLEY":" ","HOUSE_NO":"４號","E_COORD97":166615.98000000001,"N_COORD97":2546980.21,"ADDRESS":"國安街２１０巷４號","OBJECTID":346970},"geometry":{"x":166615.98000000138,"y":2546980.2100000046}},{"attributes":{"ID":346980,"DIS_CODE":0,"TOWNNAME":"安南區","LI":"國安里","LIN":"6鄰","STREET":"國安街","SECT":" ","MAREA":" ","LANE":"２１０巷","ALLEY":" ","HOUSE_NO":"５０號","E_COORD97":166597.57000000001,"N_COORD97":2547081.2000000002,"ADDRESS":"國安街２１０巷５０號","OBJECTID":346971},"geometry":{"x":166597.57000000216,"y":2547081.2000000011}},{"attributes":{"ID":346981,"DIS_CODE":0,"TOWNNAME":"安南區","LI":"國安里","LIN":"6鄰","STREET":"國安街","SECT":" ","MAREA":" ","LANE":"２１０巷","ALLEY":" ","HOUSE_NO":"５１號","E_COORD97":166558.45999999999,"N_COORD97":2547078.3700000001,"ADDRESS":"國安街２１０巷５１號","OBJECTID":346972},"geometry":{"x":166558.45999999996,"y":2547078.3700000029}},{"attributes":{"ID":346982,"DIS_CODE":0,"TOWNNAME":"安南區","LI":"國安里","LIN":"6鄰","STREET":"國安街","SECT":" ","MAREA":" ","LANE":"２１０巷","ALLEY":" ","HOUSE_NO":"５２號","E_COORD97":166596.41,"N_COORD97":2547086.0600000001,"ADDRESS":"國安街２１０巷５２號","OBJECTID":346973},"geometry":{"x":166596.41000000015,"y":2547086.0600000042}},{"attributes":{"ID":346983,"DIS_CODE":0,"TOWNNAME":"安南區","LI":"國安里","LIN":"6鄰","STREET":"國安街","SECT":" ","MAREA":" ","LANE":"２１０巷","ALLEY":" ","HOUSE_NO":"５３號","E_COORD97":166558.76999999999,"N_COORD97":2547082.7400000002,"ADDRESS":"國安街２１０巷５３號","OBJECTID":346974},"geometry":{"x":166558.77000000048,"y":2547082.7400000002}},{"attributes":{"ID":346984,"DIS_CODE":0,"TOWNNAME":"安南區","LI":"國安里","LIN":"6鄰","STREET":"國安街","SECT":" ","MAREA":" ","LANE":"２１０巷","ALLEY":" ","HOUSE_NO":"５４號","E_COORD97":166595.63,"N_COORD97":2547090.71,"ADDRESS":"國安街２１０巷５４號","OBJECTID":346975},"geometry":{"x":166595.63000000082,"y":2547090.7100000009}},{"attributes":{"ID":346985,"DIS_CODE":0,"TOWNNAME":"安南區","LI":"國安里","LIN":"6鄰","STREET":"國安街","SECT":" ","MAREA":" ","LANE":"２１０巷","ALLEY":" ","HOUSE_NO":"５５號","E_COORD97":166558.85000000001,"N_COORD97":2547087.4199999999,"ADDRESS":"國安街２１０巷５５號","OBJECTID":346976},"geometry":{"x":166558.84999999963,"y":2547087.4200000018}},{"attributes":{"ID":346986,"DIS_CODE":0,"TOWNNAME":"安南區","LI":"國安里","LIN":"6鄰","STREET":"國安街","SECT":" ","MAREA":" ","LANE":"２１０巷","ALLEY":" ","HOUSE_NO":"５６號","E_COORD97":166594.85000000001,"N_COORD97":2547094.79,"ADDRESS":"國安街２１０巷５６號","OBJECTID":346977},"geometry":{"x":166594.84999999963,"y":2547094.7899999991}},{"attributes":{"ID":346987,"DIS_CODE":0,"TOWNNAME":"安南區","LI":"國安里","LIN":"6鄰","STREET":"國安街","SECT":" ","MAREA":" ","LANE":"２１０巷","ALLEY":" ","HOUSE_NO":"５號","E_COORD97":166577.85000000001,"N_COORD97":2546976.9900000002,"ADDRESS":"國安街２１０巷５號","OBJECTID":346978},"geometry":{"x":166577.84999999963,"y":2546976.9900000002}},{"attributes":{"ID":346988,"DIS_CODE":0,"TOWNNAME":"安南區","LI":"國安里","LIN":"6鄰","STREET":"國安街","SECT":" ","MAREA":" ","LANE":"２１０巷","ALLEY":" ","HOUSE_NO":"６號","E_COORD97":166615.25,"N_COORD97":2546984.6499999999,"ADDRESS":"國安街２１０巷６號","OBJECTID":346979},"geometry":{"x":166615.25000000093,"y":2546984.6500000022}},{"attributes":{"ID":346989,"DIS_CODE":0,"TOWNNAME":"安南區","LI":"國安里","LIN":"6鄰","STREET":"國安街","SECT":" ","MAREA":" ","LANE":"２１０巷","ALLEY":" ","HOUSE_NO":"７號","E_COORD97":166576.85000000001,"N_COORD97":2546981.2400000002,"ADDRESS":"國安街２１０巷７號","OBJECTID":346980},"geometry":{"x":166576.85000000056,"y":2546981.2400000002}},{"attributes":{"ID":346990,"DIS_CODE":0,"TOWNNAME":"安南區","LI":"國安里","LIN":"6鄰","STREET":"國安街","SECT":" ","MAREA":" ","LANE":"２１０巷","ALLEY":" ","HOUSE_NO":"８號","E_COORD97":166614.45000000001,"N_COORD97":2546988.2599999998,"ADDRESS":"國安街２１０巷８號","OBJECTID":346981},"geometry":{"x":166614.45000000019,"y":2546988.2599999998}},{"attributes":{"ID":346991,"DIS_CODE":0,"TOWNNAME":"安南區","LI":"國安里","LIN":"6鄰","STREET":"國安街","SECT":" ","MAREA":" ","LANE":"２１０巷","ALLEY":" ","HOUSE_NO":"９號","E_COORD97":166575.54000000001,"N_COORD97":2546985.23,"ADDRESS":"國安街２１０巷９號","OBJECTID":346982},"geometry":{"x":166575.5400000019,"y":2546985.2300000004}},{"attributes":{"ID":346992,"DIS_CODE":0,"TOWNNAME":"安南區","LI":"溪頂里","LIN":"6鄰","STREET":"府安路","SECT":"四段","MAREA":" ","LANE":"１６２巷","ALLEY":" ","HOUSE_NO":"３號","E_COORD97":168779.20000000001,"N_COORD97":2547267.52,"ADDRESS":"府安路四段１６２巷３號","OBJECTID":346983},"geometry":{"x":168779.20000000019,"y":2547267.5199999996}},{"attributes":{"ID":346993,"DIS_CODE":0,"TOWNNAME":"安南區","LI":"溪頂里","LIN":"6鄰","STREET":"府安路","SECT":"四段","MAREA":" ","LANE":"１６２巷","ALLEY":" ","HOUSE_NO":"４號","E_COORD97":168801.26000000001,"N_COORD97":2547269.7599999998,"ADDRESS":"府安路四段１６２巷４號","OBJECTID":346984},"geometry":{"x":168801.26000000164,"y":2547269.7599999998}},{"attributes":{"ID":346994,"DIS_CODE":0,"TOWNNAME":"安南區","LI":"溪頂里","LIN":"6鄰","STREET":"府安路","SECT":"四段","MAREA":" ","LANE":"１６２巷","ALLEY":" ","HOUSE_NO":"５號","E_COORD97":168778.64000000001,"N_COORD97":2547273.79,"ADDRESS":"府安路四段１６２巷５號","OBJECTID":346985},"geometry":{"x":168778.6400000006,"y":2547273.790000001}},{"attributes":{"ID":346995,"DIS_CODE":0,"TOWNNAME":"安南區","LI":"溪頂里","LIN":"6鄰","STREET":"府安路","SECT":"四段","MAREA":" ","LANE":"１６２巷","ALLEY":" ","HOUSE_NO":"６號","E_COORD97":168800.84,"N_COORD97":2547275.48,"ADDRESS":"府安路四段１６２巷６號","OBJECTID":346986},"geometry":{"x":168800.84000000171,"y":2547275.4800000004}},{"attributes":{"ID":346996,"DIS_CODE":0,"TOWNNAME":"安南區","LI":"溪頂里","LIN":"6鄰","STREET":"府安路","SECT":"四段","MAREA":" ","LANE":"１６２巷","ALLEY":" ","HOUSE_NO":"７號","E_COORD97":168777.66,"N_COORD97":2547280.3500000001,"ADDRESS":"府安路四段１６２巷７號","OBJECTID":346987},"geometry":{"x":168777.66000000108,"y":2547280.3500000015}},{"attributes":{"ID":346997,"DIS_CODE":0,"TOWNNAME":"安南區","LI":"溪頂里","LIN":"6鄰","STREET":"府安路","SECT":"四段","MAREA":" ","LANE":"１６２巷","ALLEY":" ","HOUSE_NO":"８號","E_COORD97":168800.42000000001,"N_COORD97":2547282.1699999999,"ADDRESS":"府安路四段１６２巷８號","OBJECTID":346988},"geometry":{"x":168800.42000000179,"y":2547282.1700000018}},{"attributes":{"ID":346998,"DIS_CODE":0,"TOWNNAME":"善化區","LI":"坐駕里","LIN":"6鄰","STREET":"青年路","SECT":" ","MAREA":" ","LANE":"１６６巷","ALLEY":" ","HOUSE_NO":"２號之１","E_COORD97":177873.69,"N_COORD97":2558897.77,"ADDRESS":"青年路１６６巷２號之１","OBJECTID":346989},"geometry":{"x":177873.69000000134,"y":2558897.7699999996}},{"attributes":{"ID":346999,"DIS_CODE":0,"TOWNNAME":"永康區","LI":"新樹里","LIN":"6鄰","STREET":"西勢路","SECT":" ","MAREA":" ","LANE":"２２８巷","ALLEY":" ","HOUSE_NO":"１２號","E_COORD97":175789.69,"N_COORD97":2546817.6899999999,"ADDRESS":"西勢路２２８巷１２號","OBJECTID":346990},"geometry":{"x":175789.69000000041,"y":2546817.6900000013}},{"attributes":{"ID":347000,"DIS_CODE":0,"TOWNNAME":"永康區","LI":"網寮里","LIN":"6鄰","STREET":"永二街","SECT":" ","MAREA":" ","LANE":"１９６巷","ALLEY":" ","HOUSE_NO":"１４號","E_COORD97":173346.38,"N_COORD97":2546283.7400000002,"ADDRESS":"永二街１９６巷１４號","OBJECTID":346991},"geometry":{"x":173346.37999999989,"y":2546283.7400000002}},{"attributes":{"ID":347001,"DIS_CODE":0,"TOWNNAME":"永康區","LI":"新樹里","LIN":"6鄰","STREET":"西勢路","SECT":" ","MAREA":" ","LANE":"２２８巷","ALLEY":" ","HOUSE_NO":"１４號","E_COORD97":175809.97,"N_COORD97":2546814.6800000002,"ADDRESS":"西勢路２２８巷１４號","OBJECTID":346992},"geometry":{"x":175809.97000000067,"y":2546814.6800000016}},{"attributes":{"ID":347002,"DIS_CODE":0,"TOWNNAME":"永康區","LI":"網寮里","LIN":"6鄰","STREET":"永二街","SECT":" ","MAREA":" ","LANE":"１９６巷","ALLEY":" ","HOUSE_NO":"１７號","E_COORD97":173323.72,"N_COORD97":2546281.0499999998,"ADDRESS":"永二街１９６巷１７號","OBJECTID":346993},"geometry":{"x":173323.71999999974,"y":2546281.0500000007}},{"attributes":{"ID":347003,"DIS_CODE":0,"TOWNNAME":"永康區","LI":"網寮里","LIN":"6鄰","STREET":"永二街","SECT":" ","MAREA":" ","LANE":"１９６巷","ALLEY":" ","HOUSE_NO":"７號","E_COORD97":173343.51000000001,"N_COORD97":2546265.0499999998,"ADDRESS":"永二街１９６巷７號","OBJECTID":346994},"geometry":{"x":173343.50999999978,"y":2546265.0500000007}},{"attributes":{"ID":347004,"DIS_CODE":0,"TOWNNAME":"永康區","LI":"網寮里","LIN":"6鄰","STREET":"永二街","SECT":" ","MAREA":" ","LANE":"１９６巷","ALLEY":" ","HOUSE_NO":"２號","E_COORD97":173370.57000000001,"N_COORD97":2546263.7400000002,"ADDRESS":"永二街１９６巷２號","OBJECTID":346995},"geometry":{"x":173370.57000000123,"y":2546263.7399999984}},{"attributes":{"ID":347005,"DIS_CODE":0,"TOWNNAME":"永康區","LI":"網寮里","LIN":"6鄰","STREET":"永二街","SECT":" ","MAREA":" ","LANE":"１９６巷","ALLEY":" ","HOUSE_NO":"８號","E_COORD97":173357.38,"N_COORD97":2546273.9900000002,"ADDRESS":"永二街１９６巷８號","OBJECTID":346996},"geometry":{"x":173357.38000000082,"y":2546273.9900000021}},{"attributes":{"ID":347006,"DIS_CODE":0,"TOWNNAME":"永康區","LI":"蔦松里","LIN":"6鄰","STREET":"蔦松三街","SECT":" ","MAREA":" ","LANE":"１４７巷","ALLEY":" ","HOUSE_NO":"１６號","E_COORD97":173987.07999999999,"N_COORD97":2549832.3199999998,"ADDRESS":"蔦松三街１４７巷１６號","OBJECTID":346997},"geometry":{"x":173987.08000000101,"y":2549832.3200000003}},{"attributes":{"ID":347007,"DIS_CODE":0,"TOWNNAME":"善化區","LI":"坐駕里","LIN":"6鄰","STREET":"青年路","SECT":" ","MAREA":" ","LANE":"１６６巷","ALLEY":" ","HOUSE_NO":"１０號","E_COORD97":177892.25,"N_COORD97":2558900.75,"ADDRESS":"青年路１６６巷１０號","OBJECTID":346998},"geometry":{"x":177892.25,"y":2558900.7500000019}},{"attributes":{"ID":347008,"DIS_CODE":0,"TOWNNAME":"安南區","LI":"幸福里","LIN":"6鄰","STREET":"國安街","SECT":" ","MAREA":" ","LANE":"１５５巷","ALLEY":" ","HOUSE_NO":"３７號","E_COORD97":166775.78,"N_COORD97":2546854.0600000001,"ADDRESS":"國安街１５５巷３７號","OBJECTID":346999},"geometry":{"x":166775.77999999933,"y":2546854.0600000005}},{"attributes":{"ID":347009,"DIS_CODE":0,"TOWNNAME":"安南區","LI":"幸福里","LIN":"6鄰","STREET":"國安街","SECT":" ","MAREA":" ","LANE":"１５５巷","ALLEY":" ","HOUSE_NO":"４１號","E_COORD97":166780.26999999999,"N_COORD97":2546842.3900000001,"ADDRESS":"國安街１５５巷４１號","OBJECTID":347000},"geometry":{"x":166780.27000000142,"y":2546842.3900000006}}]}