{"displayFieldName":"TOWNNAME","fieldAliases":{"ID":"ID","DIS_CODE":"DIS_CODE","TOWNNAME":"TOWNNAME","LI":"LI","LIN":"LIN","STREET":"STREET","SECT":"SECT","MAREA":"MAREA","LANE":"LANE","ALLEY":"ALLEY","HOUSE_NO":"HOUSE_NO","E_COORD97":"E_COORD97","N_COORD97":"N_COORD97","ADDRESS":"ADDRESS","OBJECTID":"OBJECTID"},"geometryType":"esriGeometryPoint","spatialReference":{"wkid":102443,"latestWkid":3826},"fields":[{"name":"ID","type":"esriFieldTypeDouble","alias":"ID"},{"name":"DIS_CODE","type":"esriFieldTypeInteger","alias":"DIS_CODE"},{"name":"TOWNNAME","type":"esriFieldTypeString","alias":"TOWNNAME","length":8},{"name":"LI","type":"esriFieldTypeString","alias":"LI","length":8},{"name":"LIN","type":"esriFieldTypeString","alias":"LIN","length":12},{"name":"STREET","type":"esriFieldTypeString","alias":"STREET","length":20},{"name":"SECT","type":"esriFieldTypeString","alias":"SECT","length":8},{"name":"MAREA","type":"esriFieldTypeString","alias":"MAREA","length":12},{"name":"LANE","type":"esriFieldTypeString","alias":"LANE","length":10},{"name":"ALLEY","type":"esriFieldTypeString","alias":"ALLEY","length":10},{"name":"HOUSE_NO","type":"esriFieldTypeString","alias":"HOUSE_NO","length":20},{"name":"E_COORD97","type":"esriFieldTypeDouble","alias":"E_COORD97"},{"name":"N_COORD97","type":"esriFieldTypeDouble","alias":"N_COORD97"},{"name":"ADDRESS","type":"esriFieldTypeString","alias":"ADDRESS","length":50},{"name":"OBJECTID","type":"esriFieldTypeOID","alias":"OBJECTID"}],"features":[{"attributes":{"ID":471026,"DIS_CODE":0,"TOWNNAME":"新市區","LI":"新和里","LIN":"38鄰","STREET":"成功街","SECT":" ","MAREA":" ","LANE":" ","ALLEY":" ","HOUSE_NO":"４２號","E_COORD97":177469.23000000001,"N_COORD97":2552719.77,"ADDRESS":"成功街４２號","OBJECTID":471001},"geometry":{"x":177469.23000000045,"y":2552719.7700000014}},{"attributes":{"ID":471027,"DIS_CODE":0,"TOWNNAME":"新市區","LI":"新和里","LIN":"38鄰","STREET":"成功街","SECT":" ","MAREA":" ","LANE":" ","ALLEY":" ","HOUSE_NO":"２６號","E_COORD97":177460.76999999999,"N_COORD97":2552637.52,"ADDRESS":"成功街２６號","OBJECTID":471002},"geometry":{"x":177460.77000000048,"y":2552637.5199999996}},{"attributes":{"ID":471028,"DIS_CODE":0,"TOWNNAME":"新市區","LI":"新和里","LIN":"38鄰","STREET":"成功街","SECT":" ","MAREA":" ","LANE":" ","ALLEY":" ","HOUSE_NO":"３８號","E_COORD97":177467.76999999999,"N_COORD97":2552708.77,"ADDRESS":"成功街３８號","OBJECTID":471003},"geometry":{"x":177467.76999999955,"y":2552708.7700000014}},{"attributes":{"ID":471029,"DIS_CODE":0,"TOWNNAME":"新市區","LI":"新和里","LIN":"38鄰","STREET":"成功街","SECT":" ","MAREA":" ","LANE":" ","ALLEY":" ","HOUSE_NO":"２７號","E_COORD97":177454.37,"N_COORD97":2552699.02,"ADDRESS":"成功街２７號","OBJECTID":471004},"geometry":{"x":177454.37000000011,"y":2552699.0199999996}},{"attributes":{"ID":471030,"DIS_CODE":0,"TOWNNAME":"東區","LI":"富強里","LIN":"31鄰","STREET":"裕農路","SECT":" ","MAREA":" ","LANE":" ","ALLEY":" ","HOUSE_NO":"３６４號","E_COORD97":171068.47,"N_COORD97":2543061.9300000002,"ADDRESS":"裕農路３６４號","OBJECTID":471005},"geometry":{"x":171068.47000000067,"y":2543061.9300000016}},{"attributes":{"ID":471031,"DIS_CODE":0,"TOWNNAME":"永康區","LI":"崑山里","LIN":"38鄰","STREET":"國光三街","SECT":" ","MAREA":" ","LANE":" ","ALLEY":" ","HOUSE_NO":"３８號","E_COORD97":174014.70000000001,"N_COORD97":2544915.8399999999,"ADDRESS":"國光三街３８號","OBJECTID":471006},"geometry":{"x":174014.69999999925,"y":2544915.8399999999}},{"attributes":{"ID":471032,"DIS_CODE":0,"TOWNNAME":"仁德區","LI":"後壁里","LIN":"38鄰","STREET":"民安路","SECT":"二段","MAREA":" ","LANE":" ","ALLEY":" ","HOUSE_NO":"８２號","E_COORD97":173505.57999999999,"N_COORD97":2539170.8199999998,"ADDRESS":"民安路二段８２號","OBJECTID":471007},"geometry":{"x":173505.58000000101,"y":2539170.820000004}},{"attributes":{"ID":471033,"DIS_CODE":0,"TOWNNAME":"仁德區","LI":"後壁里","LIN":"38鄰","STREET":"德安路","SECT":" ","MAREA":" ","LANE":" ","ALLEY":" ","HOUSE_NO":"６０號","E_COORD97":173422.38,"N_COORD97":2539157.8199999998,"ADDRESS":"德安路６０號","OBJECTID":471008},"geometry":{"x":173422.38000000082,"y":2539157.8200000022}},{"attributes":{"ID":471034,"DIS_CODE":0,"TOWNNAME":"永康區","LI":"崑山里","LIN":"38鄰","STREET":"崑山街","SECT":" ","MAREA":" ","LANE":" ","ALLEY":" ","HOUSE_NO":"２０１號之１","E_COORD97":174060.14000000001,"N_COORD97":2544993.6899999999,"ADDRESS":"崑山街２０１號之１","OBJECTID":471009},"geometry":{"x":174060.13999999966,"y":2544993.6900000013}},{"attributes":{"ID":471035,"DIS_CODE":0,"TOWNNAME":"永康區","LI":"崑山里","LIN":"38鄰","STREET":"崑山街","SECT":" ","MAREA":" ","LANE":" ","ALLEY":" ","HOUSE_NO":"１９９號","E_COORD97":174058.06,"N_COORD97":2544984.6000000001,"ADDRESS":"崑山街１９９號","OBJECTID":471010},"geometry":{"x":174058.06000000052,"y":2544984.5999999996}},{"attributes":{"ID":471036,"DIS_CODE":0,"TOWNNAME":"東區","LI":"大智里","LIN":"38鄰","STREET":"崇善路","SECT":" ","MAREA":" ","LANE":" ","ALLEY":" ","HOUSE_NO":"１０００號","E_COORD97":171619.79999999999,"N_COORD97":2540319.96,"ADDRESS":"崇善路１０００號","OBJECTID":471011},"geometry":{"x":171619.79999999981,"y":2540319.9600000046}},{"attributes":{"ID":471037,"DIS_CODE":0,"TOWNNAME":"永康區","LI":"\u25A0洲里","LIN":"38鄰","STREET":"\u25A0行路","SECT":" ","MAREA":" ","LANE":" ","ALLEY":" ","HOUSE_NO":"１９２號之３","E_COORD97":171313.51000000001,"N_COORD97":2549202.7400000002,"ADDRESS":"\u25A0行路１９２號之３","OBJECTID":471012},"geometry":{"x":171313.51000000164,"y":2549202.7400000002}},{"attributes":{"ID":471038,"DIS_CODE":0,"TOWNNAME":"永康區","LI":"崑山里","LIN":"38鄰","STREET":"崑山街","SECT":" ","MAREA":" ","LANE":" ","ALLEY":" ","HOUSE_NO":"１９５號","E_COORD97":174055.14000000001,"N_COORD97":2544976.3500000001,"ADDRESS":"崑山街１９５號","OBJECTID":471013},"geometry":{"x":174055.13999999966,"y":2544976.3499999996}},{"attributes":{"ID":471039,"DIS_CODE":0,"TOWNNAME":"仁德區","LI":"後壁里","LIN":"38鄰","STREET":"德安路","SECT":" ","MAREA":" ","LANE":" ","ALLEY":" ","HOUSE_NO":"５４號","E_COORD97":173414.88,"N_COORD97":2539167.3199999998,"ADDRESS":"德安路５４號","OBJECTID":471014},"geometry":{"x":173414.88000000175,"y":2539167.320000004}},{"attributes":{"ID":471040,"DIS_CODE":0,"TOWNNAME":"仁德區","LI":"後壁里","LIN":"38鄰","STREET":"德安路","SECT":" ","MAREA":" ","LANE":" ","ALLEY":" ","HOUSE_NO":"１１號","E_COORD97":173422.57000000001,"N_COORD97":2539190.5699999998,"ADDRESS":"德安路１１號","OBJECTID":471015},"geometry":{"x":173422.57000000216,"y":2539190.5700000022}},{"attributes":{"ID":471041,"DIS_CODE":0,"TOWNNAME":"永康區","LI":"埔園里","LIN":"38鄰","STREET":"龍國街","SECT":" ","MAREA":" ","LANE":" ","ALLEY":" ","HOUSE_NO":"１３０號","E_COORD97":174222.95000000001,"N_COORD97":2548061.3500000001,"ADDRESS":"龍國街１３０號","OBJECTID":471016},"geometry":{"x":174222.95000000019,"y":2548061.3499999996}},{"attributes":{"ID":471042,"DIS_CODE":0,"TOWNNAME":"永康區","LI":"埔園里","LIN":"38鄰","STREET":"龍國街","SECT":" ","MAREA":" ","LANE":" ","ALLEY":" ","HOUSE_NO":"１３２號","E_COORD97":174227.35000000001,"N_COORD97":2548060.8599999999,"ADDRESS":"龍國街１３２號","OBJECTID":471017},"geometry":{"x":174227.35000000056,"y":2548060.8599999994}},{"attributes":{"ID":471043,"DIS_CODE":0,"TOWNNAME":"永康區","LI":"埔園里","LIN":"38鄰","STREET":"龍國街","SECT":" ","MAREA":" ","LANE":" ","ALLEY":" ","HOUSE_NO":"１３６號","E_COORD97":174231.76999999999,"N_COORD97":2548060.4100000001,"ADDRESS":"龍國街１３６號","OBJECTID":471018},"geometry":{"x":174231.76999999955,"y":2548060.410000002}},{"attributes":{"ID":471044,"DIS_CODE":0,"TOWNNAME":"永康區","LI":"埔園里","LIN":"38鄰","STREET":"龍國街","SECT":" ","MAREA":" ","LANE":" ","ALLEY":" ","HOUSE_NO":"１３８號","E_COORD97":174236.17999999999,"N_COORD97":2548059.5899999999,"ADDRESS":"龍國街１３８號","OBJECTID":471019},"geometry":{"x":174236.1799999997,"y":2548059.5900000017}},{"attributes":{"ID":471045,"DIS_CODE":0,"TOWNNAME":"永康區","LI":"埔園里","LIN":"38鄰","STREET":"龍國街","SECT":" ","MAREA":" ","LANE":" ","ALLEY":" ","HOUSE_NO":"１４０號","E_COORD97":174240.67000000001,"N_COORD97":2548058.8399999999,"ADDRESS":"龍國街１４０號","OBJECTID":471020},"geometry":{"x":174240.67000000086,"y":2548058.8399999999}},{"attributes":{"ID":471046,"DIS_CODE":0,"TOWNNAME":"永康區","LI":"埔園里","LIN":"38鄰","STREET":"龍國街","SECT":" ","MAREA":" ","LANE":" ","ALLEY":" ","HOUSE_NO":"１４２號","E_COORD97":174245.23000000001,"N_COORD97":2548058.3900000001,"ADDRESS":"龍國街１４２號","OBJECTID":471021},"geometry":{"x":174245.23000000045,"y":2548058.3900000025}},{"attributes":{"ID":471047,"DIS_CODE":0,"TOWNNAME":"永康區","LI":"埔園里","LIN":"38鄰","STREET":"龍國街","SECT":" ","MAREA":" ","LANE":" ","ALLEY":" ","HOUSE_NO":"１４６號","E_COORD97":174249.57000000001,"N_COORD97":2548057.9399999999,"ADDRESS":"龍國街１４６號","OBJECTID":471022},"geometry":{"x":174249.5700000003,"y":2548057.9399999995}},{"attributes":{"ID":471048,"DIS_CODE":0,"TOWNNAME":"永康區","LI":"埔園里","LIN":"38鄰","STREET":"龍國街","SECT":" ","MAREA":" ","LANE":" ","ALLEY":" ","HOUSE_NO":"１４８號","E_COORD97":174253.91,"N_COORD97":2548057.1200000001,"ADDRESS":"龍國街１４８號","OBJECTID":471023},"geometry":{"x":174253.90999999922,"y":2548057.1200000029}},{"attributes":{"ID":471049,"DIS_CODE":0,"TOWNNAME":"永康區","LI":"埔園里","LIN":"38鄰","STREET":"龍國街","SECT":" ","MAREA":" ","LANE":" ","ALLEY":" ","HOUSE_NO":"１５０號","E_COORD97":174258.32999999999,"N_COORD97":2548056.4500000002,"ADDRESS":"龍國街１５０號","OBJECTID":471024},"geometry":{"x":174258.33000000101,"y":2548056.4500000011}},{"attributes":{"ID":471050,"DIS_CODE":0,"TOWNNAME":"永康區","LI":"埔園里","LIN":"38鄰","STREET":"龍國街","SECT":" ","MAREA":" ","LANE":" ","ALLEY":" ","HOUSE_NO":"１５２號","E_COORD97":174262.59,"N_COORD97":2548056.0699999998,"ADDRESS":"龍國街１５２號","OBJECTID":471025},"geometry":{"x":174262.58999999892,"y":2548056.0700000022}},{"attributes":{"ID":471051,"DIS_CODE":0,"TOWNNAME":"永康區","LI":"埔園里","LIN":"38鄰","STREET":"龍國街","SECT":" ","MAREA":" ","LANE":" ","ALLEY":" ","HOUSE_NO":"１５６號","E_COORD97":174266.85000000001,"N_COORD97":2548055.3300000001,"ADDRESS":"龍國街１５６號","OBJECTID":471026},"geometry":{"x":174266.84999999963,"y":2548055.3300000001}},{"attributes":{"ID":471052,"DIS_CODE":0,"TOWNNAME":"永康區","LI":"埔園里","LIN":"38鄰","STREET":"龍國街","SECT":" ","MAREA":" ","LANE":" ","ALLEY":" ","HOUSE_NO":"１５６號","E_COORD97":174271.48999999999,"N_COORD97":2548054.6499999999,"ADDRESS":"龍國街１５６號","OBJECTID":471027},"geometry":{"x":174271.49000000022,"y":2548054.6500000041}},{"attributes":{"ID":471053,"DIS_CODE":0,"TOWNNAME":"仁德區","LI":"後壁里","LIN":"38鄰","STREET":"德安路","SECT":" ","MAREA":" ","LANE":" ","ALLEY":" ","HOUSE_NO":"５２號","E_COORD97":173412.07000000001,"N_COORD97":2539170.3199999998,"ADDRESS":"德安路５２號","OBJECTID":471028},"geometry":{"x":173412.0700000003,"y":2539170.3200000003}},{"attributes":{"ID":471054,"DIS_CODE":0,"TOWNNAME":"歸仁區","LI":"後市里","LIN":"38鄰","STREET":"民權三街","SECT":" ","MAREA":" ","LANE":" ","ALLEY":" ","HOUSE_NO":"１１２之１號","E_COORD97":177262.78,"N_COORD97":2541062.75,"ADDRESS":"民權三街１１２之１號","OBJECTID":471029},"geometry":{"x":177262.78000000119,"y":2541062.7500000037}},{"attributes":{"ID":471055,"DIS_CODE":0,"TOWNNAME":"安平區","LI":"育平里","LIN":"38鄰","STREET":"育平路","SECT":" ","MAREA":" ","LANE":" ","ALLEY":" ","HOUSE_NO":"１１號","E_COORD97":164502.70999999999,"N_COORD97":2542958.0600000001,"ADDRESS":"育平路１１號","OBJECTID":471030},"geometry":{"x":164502.71000000183,"y":2542958.0600000024}},{"attributes":{"ID":471056,"DIS_CODE":0,"TOWNNAME":"安平區","LI":"育平里","LIN":"38鄰","STREET":"育平路","SECT":" ","MAREA":" ","LANE":" ","ALLEY":" ","HOUSE_NO":"１５號","E_COORD97":164504.45000000001,"N_COORD97":2542967.7400000002,"ADDRESS":"育平路１５號","OBJECTID":471031},"geometry":{"x":164504.45000000019,"y":2542967.7400000002}},{"attributes":{"ID":471057,"DIS_CODE":0,"TOWNNAME":"安平區","LI":"育平里","LIN":"38鄰","STREET":"育平路","SECT":" ","MAREA":" ","LANE":" ","ALLEY":" ","HOUSE_NO":"１７號","E_COORD97":164505.09,"N_COORD97":2542971.3900000001,"ADDRESS":"育平路１７號","OBJECTID":471032},"geometry":{"x":164505.09000000171,"y":2542971.3900000043}},{"attributes":{"ID":471058,"DIS_CODE":0,"TOWNNAME":"安平區","LI":"育平里","LIN":"38鄰","STREET":"育平路","SECT":" ","MAREA":" ","LANE":" ","ALLEY":" ","HOUSE_NO":"１９號","E_COORD97":164505.41,"N_COORD97":2542974.5699999998,"ADDRESS":"育平路１９號","OBJECTID":471033},"geometry":{"x":164505.41000000108,"y":2542974.5700000022}},{"attributes":{"ID":471059,"DIS_CODE":0,"TOWNNAME":"安平區","LI":"育平里","LIN":"38鄰","STREET":"育平路","SECT":" ","MAREA":" ","LANE":" ","ALLEY":" ","HOUSE_NO":"２１號","E_COORD97":164506.35999999999,"N_COORD97":2542977.7400000002,"ADDRESS":"育平路２１號","OBJECTID":471034},"geometry":{"x":164506.36000000127,"y":2542977.7400000002}},{"attributes":{"ID":471060,"DIS_CODE":0,"TOWNNAME":"安平區","LI":"育平里","LIN":"38鄰","STREET":"育平路","SECT":" ","MAREA":" ","LANE":" ","ALLEY":" ","HOUSE_NO":"２３號","E_COORD97":164507.14999999999,"N_COORD97":2542981.5499999998,"ADDRESS":"育平路２３號","OBJECTID":471035},"geometry":{"x":164507.1500000013,"y":2542981.5500000026}},{"attributes":{"ID":471061,"DIS_CODE":0,"TOWNNAME":"安平區","LI":"育平里","LIN":"38鄰","STREET":"育平路","SECT":" ","MAREA":" ","LANE":" ","ALLEY":" ","HOUSE_NO":"２５號","E_COORD97":164507.63,"N_COORD97":2542984.8900000001,"ADDRESS":"育平路２５號","OBJECTID":471036},"geometry":{"x":164507.62999999989,"y":2542984.8900000043}},{"attributes":{"ID":471062,"DIS_CODE":0,"TOWNNAME":"安平區","LI":"育平里","LIN":"38鄰","STREET":"育平路","SECT":" ","MAREA":" ","LANE":" ","ALLEY":" ","HOUSE_NO":"２７號","E_COORD97":164508.26000000001,"N_COORD97":2542988.0600000001,"ADDRESS":"育平路２７號","OBJECTID":471037},"geometry":{"x":164508.25999999978,"y":2542988.0600000024}},{"attributes":{"ID":471063,"DIS_CODE":0,"TOWNNAME":"安平區","LI":"育平里","LIN":"38鄰","STREET":"育平路","SECT":" ","MAREA":" ","LANE":" ","ALLEY":" ","HOUSE_NO":"２９號","E_COORD97":164508.73999999999,"N_COORD97":2542992.1899999999,"ADDRESS":"育平路２９號","OBJECTID":471038},"geometry":{"x":164508.74000000115,"y":2542992.1900000013}},{"attributes":{"ID":471064,"DIS_CODE":0,"TOWNNAME":"安平區","LI":"育平里","LIN":"38鄰","STREET":"育平路","SECT":" ","MAREA":" ","LANE":" ","ALLEY":" ","HOUSE_NO":"３１號","E_COORD97":164509.22,"N_COORD97":2542995.2000000002,"ADDRESS":"育平路３１號","OBJECTID":471039},"geometry":{"x":164509.2200000016,"y":2542995.2000000011}},{"attributes":{"ID":471065,"DIS_CODE":0,"TOWNNAME":"安平區","LI":"育平里","LIN":"38鄰","STREET":"育平路","SECT":" ","MAREA":" ","LANE":" ","ALLEY":" ","HOUSE_NO":"９號","E_COORD97":164501.12,"N_COORD97":2542952.3399999999,"ADDRESS":"育平路９號","OBJECTID":471040},"geometry":{"x":164501.12000000011,"y":2542952.3399999999}},{"attributes":{"ID":471066,"DIS_CODE":0,"TOWNNAME":"安平區","LI":"育平里","LIN":"38鄰","STREET":"育平一街","SECT":" ","MAREA":" ","LANE":" ","ALLEY":" ","HOUSE_NO":"１２號","E_COORD97":164461.79000000001,"N_COORD97":2542953.5499999998,"ADDRESS":"育平一街１２號","OBJECTID":471041},"geometry":{"x":164461.79000000097,"y":2542953.5500000045}},{"attributes":{"ID":471067,"DIS_CODE":0,"TOWNNAME":"安平區","LI":"育平里","LIN":"38鄰","STREET":"育平路","SECT":" ","MAREA":" ","LANE":" ","ALLEY":" ","HOUSE_NO":"１３號","E_COORD97":164503.34,"N_COORD97":2542962.8199999998,"ADDRESS":"育平路１３號","OBJECTID":471042},"geometry":{"x":164503.33999999892,"y":2542962.8200000022}},{"attributes":{"ID":471068,"DIS_CODE":0,"TOWNNAME":"東區","LI":"富裕里","LIN":"4鄰","STREET":"裕農路","SECT":" ","MAREA":" ","LANE":" ","ALLEY":" ","HOUSE_NO":"５６號地下一層","E_COORD97":170626.98999999999,"N_COORD97":2542823.23,"ADDRESS":"裕農路５６號地下一層","OBJECTID":471043},"geometry":{"x":170626.99000000022,"y":2542823.2300000042}},{"attributes":{"ID":471069,"DIS_CODE":0,"TOWNNAME":"玉井區","LI":"玉田里","LIN":"38鄰","STREET":"大智街","SECT":" ","MAREA":" ","LANE":" ","ALLEY":" ","HOUSE_NO":"５５號","E_COORD97":195191.01000000001,"N_COORD97":2557971.2400000002,"ADDRESS":"大智街５５號","OBJECTID":471044},"geometry":{"x":195191.01000000071,"y":2557971.2400000021}},{"attributes":{"ID":471070,"DIS_CODE":0,"TOWNNAME":"玉井區","LI":"玉田里","LIN":"38鄰","STREET":"大仁街","SECT":" ","MAREA":" ","LANE":" ","ALLEY":" ","HOUSE_NO":"２號","E_COORD97":195192.76000000001,"N_COORD97":2557954.2400000002,"ADDRESS":"大仁街２號","OBJECTID":471045},"geometry":{"x":195192.76000000071,"y":2557954.2400000021}},{"attributes":{"ID":471071,"DIS_CODE":0,"TOWNNAME":"玉井區","LI":"玉田里","LIN":"38鄰","STREET":"大智街","SECT":" ","MAREA":" ","LANE":" ","ALLEY":" ","HOUSE_NO":"７號","E_COORD97":195187.95999999999,"N_COORD97":2558086.2400000002,"ADDRESS":"大智街７號","OBJECTID":471046},"geometry":{"x":195187.96000000089,"y":2558086.2400000039}},{"attributes":{"ID":471072,"DIS_CODE":0,"TOWNNAME":"玉井區","LI":"玉田里","LIN":"38鄰","STREET":"大智街","SECT":" ","MAREA":" ","LANE":" ","ALLEY":" ","HOUSE_NO":"２１號","E_COORD97":195197.82000000001,"N_COORD97":2558049.25,"ADDRESS":"大智街２１號","OBJECTID":471047},"geometry":{"x":195197.82000000123,"y":2558049.2500000019}},{"attributes":{"ID":471073,"DIS_CODE":0,"TOWNNAME":"玉井區","LI":"玉田里","LIN":"38鄰","STREET":"大仁街","SECT":" ","MAREA":" ","LANE":" ","ALLEY":" ","HOUSE_NO":"１號","E_COORD97":195190.95999999999,"N_COORD97":2557964.2400000002,"ADDRESS":"大仁街１號","OBJECTID":471048},"geometry":{"x":195190.96000000089,"y":2557964.2400000039}},{"attributes":{"ID":471074,"DIS_CODE":0,"TOWNNAME":"玉井區","LI":"玉田里","LIN":"38鄰","STREET":"大仁街","SECT":" ","MAREA":" ","LANE":" ","ALLEY":" ","HOUSE_NO":"２６號","E_COORD97":195248.01000000001,"N_COORD97":2557990.2400000002,"ADDRESS":"大仁街２６號","OBJECTID":471049},"geometry":{"x":195248.01000000164,"y":2557990.2400000002}},{"attributes":{"ID":471075,"DIS_CODE":0,"TOWNNAME":"玉井區","LI":"玉田里","LIN":"38鄰","STREET":"大仁街","SECT":" ","MAREA":" ","LANE":" ","ALLEY":" ","HOUSE_NO":"２５號","E_COORD97":195212.01000000001,"N_COORD97":2558036.25,"ADDRESS":"大仁街２５號","OBJECTID":471050},"geometry":{"x":195212.00999999978,"y":2558036.2500000019}},{"attributes":{"ID":471076,"DIS_CODE":0,"TOWNNAME":"玉井區","LI":"玉田里","LIN":"38鄰","STREET":"大仁街","SECT":" ","MAREA":" ","LANE":" ","ALLEY":" ","HOUSE_NO":"３３號","E_COORD97":195230.60999999999,"N_COORD97":2558034.25,"ADDRESS":"大仁街３３號","OBJECTID":471051},"geometry":{"x":195230.61000000034,"y":2558034.25}},{"attributes":{"ID":471077,"DIS_CODE":0,"TOWNNAME":"永康區","LI":"崑山里","LIN":"38鄰","STREET":"崑山街","SECT":" ","MAREA":" ","LANE":" ","ALLEY":" ","HOUSE_NO":"１９１號五樓之３","E_COORD97":174057,"N_COORD97":2544968.3999999999,"ADDRESS":"崑山街１９１號五樓之３","OBJECTID":471052},"geometry":{"x":174057.00000000093,"y":2544968.4000000022}},{"attributes":{"ID":471078,"DIS_CODE":0,"TOWNNAME":"永康區","LI":"崑山里","LIN":"38鄰","STREET":"崑山街","SECT":" ","MAREA":" ","LANE":" ","ALLEY":" ","HOUSE_NO":"１９１號四樓之２","E_COORD97":174057.04000000001,"N_COORD97":2544968.3999999999,"ADDRESS":"崑山街１９１號四樓之２","OBJECTID":471053},"geometry":{"x":174057.04000000097,"y":2544968.4000000022}},{"attributes":{"ID":471079,"DIS_CODE":0,"TOWNNAME":"永康區","LI":"崑山里","LIN":"38鄰","STREET":"崑山街","SECT":" ","MAREA":" ","LANE":" ","ALLEY":" ","HOUSE_NO":"２０１號四樓","E_COORD97":174061.87,"N_COORD97":2544988.6099999999,"ADDRESS":"崑山街２０１號四樓","OBJECTID":471054},"geometry":{"x":174061.87000000011,"y":2544988.6099999994}},{"attributes":{"ID":471080,"DIS_CODE":0,"TOWNNAME":"永康區","LI":"崑山里","LIN":"38鄰","STREET":"崑山街","SECT":" ","MAREA":" ","LANE":" ","ALLEY":" ","HOUSE_NO":"１９１號七樓之４","E_COORD97":174056.92999999999,"N_COORD97":2544968.3999999999,"ADDRESS":"崑山街１９１號七樓之４","OBJECTID":471055},"geometry":{"x":174056.93000000063,"y":2544968.4000000022}},{"attributes":{"ID":471081,"DIS_CODE":0,"TOWNNAME":"永康區","LI":"崑山里","LIN":"38鄰","STREET":"崑山街","SECT":" ","MAREA":" ","LANE":" ","ALLEY":" ","HOUSE_NO":"１９３號七樓之１","E_COORD97":174058.26999999999,"N_COORD97":2544972.3999999999,"ADDRESS":"崑山街１９３號七樓之１","OBJECTID":471056},"geometry":{"x":174058.27000000048,"y":2544972.4000000022}},{"attributes":{"ID":471082,"DIS_CODE":0,"TOWNNAME":"東區","LI":"中西里","LIN":"38鄰","STREET":"長榮路","SECT":"二段","MAREA":" ","LANE":" ","ALLEY":" ","HOUSE_NO":"１５７號七樓","E_COORD97":170176.75,"N_COORD97":2543543.7200000002,"ADDRESS":"長榮路二段１５７號七樓","OBJECTID":471057},"geometry":{"x":170176.75000000093,"y":2543543.7200000025}},{"attributes":{"ID":471083,"DIS_CODE":0,"TOWNNAME":"東區","LI":"中西里","LIN":"38鄰","STREET":"長榮路","SECT":"二段","MAREA":" ","LANE":" ","ALLEY":" ","HOUSE_NO":"１５７號二樓","E_COORD97":170176.75,"N_COORD97":2543543.7200000002,"ADDRESS":"長榮路二段１５７號二樓","OBJECTID":471058},"geometry":{"x":170176.75000000093,"y":2543543.7200000025}},{"attributes":{"ID":471084,"DIS_CODE":0,"TOWNNAME":"東區","LI":"中西里","LIN":"38鄰","STREET":"長榮路","SECT":"二段","MAREA":" ","LANE":" ","ALLEY":" ","HOUSE_NO":"１５７號三樓","E_COORD97":170176.75,"N_COORD97":2543543.7200000002,"ADDRESS":"長榮路二段１５７號三樓","OBJECTID":471059},"geometry":{"x":170176.75000000093,"y":2543543.7200000025}},{"attributes":{"ID":471085,"DIS_CODE":0,"TOWNNAME":"東區","LI":"中西里","LIN":"38鄰","STREET":"長榮路","SECT":"二段","MAREA":" ","LANE":" ","ALLEY":" ","HOUSE_NO":"１５７號五樓","E_COORD97":170176.75,"N_COORD97":2543543.7200000002,"ADDRESS":"長榮路二段１５７號五樓","OBJECTID":471060},"geometry":{"x":170176.75000000093,"y":2543543.7200000025}},{"attributes":{"ID":471086,"DIS_CODE":0,"TOWNNAME":"東區","LI":"中西里","LIN":"38鄰","STREET":"長榮路","SECT":"二段","MAREA":" ","LANE":" ","ALLEY":" ","HOUSE_NO":"１５７號六樓","E_COORD97":170176.75,"N_COORD97":2543543.7200000002,"ADDRESS":"長榮路二段１５７號六樓","OBJECTID":471061},"geometry":{"x":170176.75000000093,"y":2543543.7200000025}},{"attributes":{"ID":471087,"DIS_CODE":0,"TOWNNAME":"東區","LI":"中西里","LIN":"38鄰","STREET":"長榮路","SECT":"二段","MAREA":" ","LANE":" ","ALLEY":" ","HOUSE_NO":"１５７號四樓","E_COORD97":170176.75,"N_COORD97":2543543.7200000002,"ADDRESS":"長榮路二段１５７號四樓","OBJECTID":471062},"geometry":{"x":170176.75000000093,"y":2543543.7200000025}},{"attributes":{"ID":471088,"DIS_CODE":0,"TOWNNAME":"東區","LI":"中西里","LIN":"38鄰","STREET":"長榮路","SECT":"二段","MAREA":" ","LANE":" ","ALLEY":" ","HOUSE_NO":"１６３號七樓","E_COORD97":170179.12,"N_COORD97":2543567.3999999999,"ADDRESS":"長榮路二段１６３號七樓","OBJECTID":471063},"geometry":{"x":170179.12000000197,"y":2543567.3999999985}},{"attributes":{"ID":471089,"DIS_CODE":0,"TOWNNAME":"東區","LI":"中西里","LIN":"38鄰","STREET":"長榮路","SECT":"二段","MAREA":" ","LANE":" ","ALLEY":" ","HOUSE_NO":"１６３號二樓","E_COORD97":170179.12,"N_COORD97":2543567.3999999999,"ADDRESS":"長榮路二段１６３號二樓","OBJECTID":471064},"geometry":{"x":170179.12000000197,"y":2543567.3999999985}},{"attributes":{"ID":471090,"DIS_CODE":0,"TOWNNAME":"東區","LI":"中西里","LIN":"38鄰","STREET":"長榮路","SECT":"二段","MAREA":" ","LANE":" ","ALLEY":" ","HOUSE_NO":"１６３號三樓","E_COORD97":170179.12,"N_COORD97":2543567.3999999999,"ADDRESS":"長榮路二段１６３號三樓","OBJECTID":471065},"geometry":{"x":170179.12000000197,"y":2543567.3999999985}},{"attributes":{"ID":471091,"DIS_CODE":0,"TOWNNAME":"東區","LI":"中西里","LIN":"38鄰","STREET":"長榮路","SECT":"二段","MAREA":" ","LANE":" ","ALLEY":" ","HOUSE_NO":"１６３號三樓之１","E_COORD97":170179.12,"N_COORD97":2543567.3999999999,"ADDRESS":"長榮路二段１６３號三樓之１","OBJECTID":471066},"geometry":{"x":170179.12000000197,"y":2543567.3999999985}},{"attributes":{"ID":471092,"DIS_CODE":0,"TOWNNAME":"東區","LI":"中西里","LIN":"38鄰","STREET":"長榮路","SECT":"二段","MAREA":" ","LANE":" ","ALLEY":" ","HOUSE_NO":"１６３號三樓之２","E_COORD97":170179.12,"N_COORD97":2543567.3999999999,"ADDRESS":"長榮路二段１６３號三樓之２","OBJECTID":471067},"geometry":{"x":170179.12000000197,"y":2543567.3999999985}},{"attributes":{"ID":471093,"DIS_CODE":0,"TOWNNAME":"東區","LI":"中西里","LIN":"38鄰","STREET":"長榮路","SECT":"二段","MAREA":" ","LANE":" ","ALLEY":" ","HOUSE_NO":"１６３號三樓之３","E_COORD97":170179.12,"N_COORD97":2543567.3999999999,"ADDRESS":"長榮路二段１６３號三樓之３","OBJECTID":471068},"geometry":{"x":170179.12000000197,"y":2543567.3999999985}},{"attributes":{"ID":471094,"DIS_CODE":0,"TOWNNAME":"東區","LI":"富裕里","LIN":"20鄰","STREET":"裕豐街","SECT":" ","MAREA":" ","LANE":" ","ALLEY":" ","HOUSE_NO":"２號","E_COORD97":170718.54000000001,"N_COORD97":2542700.1800000002,"ADDRESS":"裕豐街２號","OBJECTID":471069},"geometry":{"x":170718.5400000019,"y":2542700.1799999997}},{"attributes":{"ID":471095,"DIS_CODE":0,"TOWNNAME":"東區","LI":"富裕里","LIN":"21鄰","STREET":"裕豐街","SECT":" ","MAREA":" ","LANE":" ","ALLEY":" ","HOUSE_NO":"３２號","E_COORD97":170711.98999999999,"N_COORD97":2542719.6000000001,"ADDRESS":"裕豐街３２號","OBJECTID":471070},"geometry":{"x":170711.99000000022,"y":2542719.5999999996}},{"attributes":{"ID":471096,"DIS_CODE":0,"TOWNNAME":"東區","LI":"新東里","LIN":"4鄰","STREET":"林森路","SECT":"二段","MAREA":" ","LANE":" ","ALLEY":" ","HOUSE_NO":"１０號","E_COORD97":170312.17999999999,"N_COORD97":2542917.6200000001,"ADDRESS":"林森路二段１０號","OBJECTID":471071},"geometry":{"x":170312.18000000156,"y":2542917.620000001}},{"attributes":{"ID":471097,"DIS_CODE":0,"TOWNNAME":"東區","LI":"中西里","LIN":"38鄰","STREET":"長榮路","SECT":"二段","MAREA":" ","LANE":" ","ALLEY":" ","HOUSE_NO":"１６３號五樓","E_COORD97":170179.12,"N_COORD97":2543567.3999999999,"ADDRESS":"長榮路二段１６３號五樓","OBJECTID":471072},"geometry":{"x":170179.12000000197,"y":2543567.3999999985}},{"attributes":{"ID":471098,"DIS_CODE":0,"TOWNNAME":"東區","LI":"中西里","LIN":"38鄰","STREET":"長榮路","SECT":"二段","MAREA":" ","LANE":" ","ALLEY":" ","HOUSE_NO":"１６３號五樓之１","E_COORD97":170179.12,"N_COORD97":2543567.3999999999,"ADDRESS":"長榮路二段１６３號五樓之１","OBJECTID":471073},"geometry":{"x":170179.12000000197,"y":2543567.3999999985}},{"attributes":{"ID":471099,"DIS_CODE":0,"TOWNNAME":"東區","LI":"中西里","LIN":"38鄰","STREET":"長榮路","SECT":"二段","MAREA":" ","LANE":" ","ALLEY":" ","HOUSE_NO":"１６３號五樓之２","E_COORD97":170179.12,"N_COORD97":2543567.3999999999,"ADDRESS":"長榮路二段１６３號五樓之２","OBJECTID":471074},"geometry":{"x":170179.12000000197,"y":2543567.3999999985}},{"attributes":{"ID":471100,"DIS_CODE":0,"TOWNNAME":"東區","LI":"中西里","LIN":"38鄰","STREET":"長榮路","SECT":"二段","MAREA":" ","LANE":" ","ALLEY":" ","HOUSE_NO":"１６３號五樓之３","E_COORD97":170179.12,"N_COORD97":2543567.3999999999,"ADDRESS":"長榮路二段１６３號五樓之３","OBJECTID":471075},"geometry":{"x":170179.12000000197,"y":2543567.3999999985}},{"attributes":{"ID":471101,"DIS_CODE":0,"TOWNNAME":"東區","LI":"中西里","LIN":"38鄰","STREET":"長榮路","SECT":"二段","MAREA":" ","LANE":" ","ALLEY":" ","HOUSE_NO":"１６３號六樓","E_COORD97":170179.12,"N_COORD97":2543567.3999999999,"ADDRESS":"長榮路二段１６３號六樓","OBJECTID":471076},"geometry":{"x":170179.12000000197,"y":2543567.3999999985}},{"attributes":{"ID":471102,"DIS_CODE":0,"TOWNNAME":"東區","LI":"中西里","LIN":"38鄰","STREET":"長榮路","SECT":"二段","MAREA":" ","LANE":" ","ALLEY":" ","HOUSE_NO":"１６３號六樓之１","E_COORD97":170179.12,"N_COORD97":2543567.3999999999,"ADDRESS":"長榮路二段１６３號六樓之１","OBJECTID":471077},"geometry":{"x":170179.12000000197,"y":2543567.3999999985}},{"attributes":{"ID":471103,"DIS_CODE":0,"TOWNNAME":"東區","LI":"中西里","LIN":"38鄰","STREET":"長榮路","SECT":"二段","MAREA":" ","LANE":" ","ALLEY":" ","HOUSE_NO":"１６３號四樓","E_COORD97":170179.12,"N_COORD97":2543567.3999999999,"ADDRESS":"長榮路二段１６３號四樓","OBJECTID":471078},"geometry":{"x":170179.12000000197,"y":2543567.3999999985}},{"attributes":{"ID":471104,"DIS_CODE":0,"TOWNNAME":"東區","LI":"中西里","LIN":"38鄰","STREET":"長榮路","SECT":"二段","MAREA":" ","LANE":" ","ALLEY":" ","HOUSE_NO":"１６３號四樓之１","E_COORD97":170179.12,"N_COORD97":2543567.3999999999,"ADDRESS":"長榮路二段１６３號四樓之１","OBJECTID":471079},"geometry":{"x":170179.12000000197,"y":2543567.3999999985}},{"attributes":{"ID":471105,"DIS_CODE":0,"TOWNNAME":"東區","LI":"中西里","LIN":"38鄰","STREET":"長榮路","SECT":"二段","MAREA":" ","LANE":" ","ALLEY":" ","HOUSE_NO":"１６３號四樓之２","E_COORD97":170179.12,"N_COORD97":2543567.3999999999,"ADDRESS":"長榮路二段１６３號四樓之２","OBJECTID":471080},"geometry":{"x":170179.12000000197,"y":2543567.3999999985}},{"attributes":{"ID":471106,"DIS_CODE":0,"TOWNNAME":"東區","LI":"中西里","LIN":"38鄰","STREET":"長榮路","SECT":"二段","MAREA":" ","LANE":" ","ALLEY":" ","HOUSE_NO":"１６３號四樓之３","E_COORD97":170179.12,"N_COORD97":2543567.3999999999,"ADDRESS":"長榮路二段１６３號四樓之３","OBJECTID":471081},"geometry":{"x":170179.12000000197,"y":2543567.3999999985}},{"attributes":{"ID":471107,"DIS_CODE":0,"TOWNNAME":"東區","LI":"中西里","LIN":"38鄰","STREET":"長榮路","SECT":"二段","MAREA":" ","LANE":" ","ALLEY":" ","HOUSE_NO":"１７１號三樓","E_COORD97":170181.04000000001,"N_COORD97":2543590.9199999999,"ADDRESS":"長榮路二段１７１號三樓","OBJECTID":471082},"geometry":{"x":170181.04000000004,"y":2543590.9200000037}},{"attributes":{"ID":471108,"DIS_CODE":0,"TOWNNAME":"東區","LI":"中西里","LIN":"38鄰","STREET":"長榮路","SECT":"二段","MAREA":" ","LANE":" ","ALLEY":" ","HOUSE_NO":"７３號七樓","E_COORD97":170077.64000000001,"N_COORD97":2543413.6400000001,"ADDRESS":"長榮路二段７３號七樓","OBJECTID":471083},"geometry":{"x":170077.63999999966,"y":2543413.6400000043}},{"attributes":{"ID":471109,"DIS_CODE":0,"TOWNNAME":"東區","LI":"中西里","LIN":"38鄰","STREET":"長榮路","SECT":"二段","MAREA":" ","LANE":" ","ALLEY":" ","HOUSE_NO":"７３號三樓","E_COORD97":170077.64000000001,"N_COORD97":2543413.6400000001,"ADDRESS":"長榮路二段７３號三樓","OBJECTID":471084},"geometry":{"x":170077.63999999966,"y":2543413.6400000043}},{"attributes":{"ID":471110,"DIS_CODE":0,"TOWNNAME":"東區","LI":"中西里","LIN":"38鄰","STREET":"長榮路","SECT":"二段","MAREA":" ","LANE":" ","ALLEY":" ","HOUSE_NO":"７３號五樓","E_COORD97":170077.64000000001,"N_COORD97":2543413.6400000001,"ADDRESS":"長榮路二段７３號五樓","OBJECTID":471085},"geometry":{"x":170077.63999999966,"y":2543413.6400000043}},{"attributes":{"ID":471111,"DIS_CODE":0,"TOWNNAME":"東區","LI":"中西里","LIN":"38鄰","STREET":"長榮路","SECT":"二段","MAREA":" ","LANE":" ","ALLEY":" ","HOUSE_NO":"７３號六樓","E_COORD97":170077.64000000001,"N_COORD97":2543413.6400000001,"ADDRESS":"長榮路二段７３號六樓","OBJECTID":471086},"geometry":{"x":170077.63999999966,"y":2543413.6400000043}},{"attributes":{"ID":471112,"DIS_CODE":0,"TOWNNAME":"東區","LI":"中西里","LIN":"38鄰","STREET":"長榮路","SECT":"二段","MAREA":" ","LANE":" ","ALLEY":" ","HOUSE_NO":"７３號四樓","E_COORD97":170077.64000000001,"N_COORD97":2543413.6400000001,"ADDRESS":"長榮路二段７３號四樓","OBJECTID":471087},"geometry":{"x":170077.63999999966,"y":2543413.6400000043}},{"attributes":{"ID":471113,"DIS_CODE":0,"TOWNNAME":"東區","LI":"中西里","LIN":"38鄰","STREET":"長榮路","SECT":"二段","MAREA":" ","LANE":" ","ALLEY":" ","HOUSE_NO":"７５號七樓","E_COORD97":170081.89000000001,"N_COORD97":2543420.2400000002,"ADDRESS":"長榮路二段７５號七樓","OBJECTID":471088},"geometry":{"x":170081.89000000153,"y":2543420.2400000021}},{"attributes":{"ID":471114,"DIS_CODE":0,"TOWNNAME":"東區","LI":"中西里","LIN":"38鄰","STREET":"長榮路","SECT":"二段","MAREA":" ","LANE":" ","ALLEY":" ","HOUSE_NO":"７５號三樓","E_COORD97":170081.89000000001,"N_COORD97":2543420.2400000002,"ADDRESS":"長榮路二段７５號三樓","OBJECTID":471089},"geometry":{"x":170081.89000000153,"y":2543420.2400000021}},{"attributes":{"ID":471115,"DIS_CODE":0,"TOWNNAME":"東區","LI":"中西里","LIN":"38鄰","STREET":"長榮路","SECT":"二段","MAREA":" ","LANE":" ","ALLEY":" ","HOUSE_NO":"７５號五樓","E_COORD97":170081.89000000001,"N_COORD97":2543420.2400000002,"ADDRESS":"長榮路二段７５號五樓","OBJECTID":471090},"geometry":{"x":170081.89000000153,"y":2543420.2400000021}},{"attributes":{"ID":471116,"DIS_CODE":0,"TOWNNAME":"東區","LI":"中西里","LIN":"38鄰","STREET":"長榮路","SECT":"二段","MAREA":" ","LANE":" ","ALLEY":" ","HOUSE_NO":"７５號六樓","E_COORD97":170081.89000000001,"N_COORD97":2543420.2400000002,"ADDRESS":"長榮路二段７５號六樓","OBJECTID":471091},"geometry":{"x":170081.89000000153,"y":2543420.2400000021}},{"attributes":{"ID":471117,"DIS_CODE":0,"TOWNNAME":"東區","LI":"中西里","LIN":"38鄰","STREET":"長榮路","SECT":"二段","MAREA":" ","LANE":" ","ALLEY":" ","HOUSE_NO":"７５號四樓","E_COORD97":170081.89000000001,"N_COORD97":2543420.2400000002,"ADDRESS":"長榮路二段７５號四樓","OBJECTID":471092},"geometry":{"x":170081.89000000153,"y":2543420.2400000021}},{"attributes":{"ID":471118,"DIS_CODE":0,"TOWNNAME":"東區","LI":"富裕里","LIN":"12鄰","STREET":"裕豐街","SECT":" ","MAREA":" ","LANE":" ","ALLEY":" ","HOUSE_NO":"８２號","E_COORD97":170731.63,"N_COORD97":2542830.8300000001,"ADDRESS":"裕豐街８２號","OBJECTID":471093},"geometry":{"x":170731.63000000082,"y":2542830.8300000001}},{"attributes":{"ID":471119,"DIS_CODE":0,"TOWNNAME":"歸仁區","LI":"後市里","LIN":"38鄰","STREET":"中山八街","SECT":" ","MAREA":" ","LANE":" ","ALLEY":" ","HOUSE_NO":"７８號","E_COORD97":177183.72,"N_COORD97":2541024.71,"ADDRESS":"中山八街７８號","OBJECTID":471094},"geometry":{"x":177183.71999999974,"y":2541024.7100000028}},{"attributes":{"ID":471120,"DIS_CODE":0,"TOWNNAME":"東區","LI":"新東里","LIN":"25鄰","STREET":"裕農路","SECT":" ","MAREA":" ","LANE":" ","ALLEY":" ","HOUSE_NO":"２７號之１０","E_COORD97":170535.09,"N_COORD97":2542899.1000000001,"ADDRESS":"裕農路２７號之１０","OBJECTID":471095},"geometry":{"x":170535.09000000078,"y":2542899.1000000015}},{"attributes":{"ID":471121,"DIS_CODE":0,"TOWNNAME":"東區","LI":"崇文里","LIN":"38鄰","STREET":"崇德二十五街","SECT":" ","MAREA":" ","LANE":" ","ALLEY":" ","HOUSE_NO":"１８號七樓","E_COORD97":170886.44,"N_COORD97":2540644.6699999999,"ADDRESS":"崇德二十五街１８號七樓","OBJECTID":471096},"geometry":{"x":170886.44000000134,"y":2540644.6699999999}},{"attributes":{"ID":471122,"DIS_CODE":0,"TOWNNAME":"東區","LI":"崇文里","LIN":"38鄰","STREET":"崇德二十五街","SECT":" ","MAREA":" ","LANE":" ","ALLEY":" ","HOUSE_NO":"１８號九樓","E_COORD97":170886.44,"N_COORD97":2540644.6699999999,"ADDRESS":"崇德二十五街１８號九樓","OBJECTID":471097},"geometry":{"x":170886.44000000134,"y":2540644.6699999999}},{"attributes":{"ID":471123,"DIS_CODE":0,"TOWNNAME":"東區","LI":"崇文里","LIN":"38鄰","STREET":"崇德二十五街","SECT":" ","MAREA":" ","LANE":" ","ALLEY":" ","HOUSE_NO":"１８號二樓","E_COORD97":170886.44,"N_COORD97":2540644.6699999999,"ADDRESS":"崇德二十五街１８號二樓","OBJECTID":471098},"geometry":{"x":170886.44000000134,"y":2540644.6699999999}},{"attributes":{"ID":471124,"DIS_CODE":0,"TOWNNAME":"東區","LI":"崇文里","LIN":"38鄰","STREET":"崇德二十五街","SECT":" ","MAREA":" ","LANE":" ","ALLEY":" ","HOUSE_NO":"１８號八樓","E_COORD97":170886.44,"N_COORD97":2540644.6699999999,"ADDRESS":"崇德二十五街１８號八樓","OBJECTID":471099},"geometry":{"x":170886.44000000134,"y":2540644.6699999999}},{"attributes":{"ID":471125,"DIS_CODE":0,"TOWNNAME":"東區","LI":"崇文里","LIN":"38鄰","STREET":"崇德二十五街","SECT":" ","MAREA":" ","LANE":" ","ALLEY":" ","HOUSE_NO":"１８號十一樓","E_COORD97":170886.44,"N_COORD97":2540644.6699999999,"ADDRESS":"崇德二十五街１８號十一樓","OBJECTID":471100},"geometry":{"x":170886.44000000134,"y":2540644.6699999999}},{"attributes":{"ID":471126,"DIS_CODE":0,"TOWNNAME":"東區","LI":"崇文里","LIN":"38鄰","STREET":"崇德二十五街","SECT":" ","MAREA":" ","LANE":" ","ALLEY":" ","HOUSE_NO":"１８號十二樓","E_COORD97":170886.44,"N_COORD97":2540644.6699999999,"ADDRESS":"崇德二十五街１８號十二樓","OBJECTID":471101},"geometry":{"x":170886.44000000134,"y":2540644.6699999999}},{"attributes":{"ID":471127,"DIS_CODE":0,"TOWNNAME":"東區","LI":"新東里","LIN":"25鄰","STREET":"裕農路","SECT":" ","MAREA":" ","LANE":" ","ALLEY":" ","HOUSE_NO":"２７號之１２","E_COORD97":170548.82000000001,"N_COORD97":2542867.73,"ADDRESS":"裕農路２７號之１２","OBJECTID":471102},"geometry":{"x":170548.8200000003,"y":2542867.7300000023}},{"attributes":{"ID":471128,"DIS_CODE":0,"TOWNNAME":"東區","LI":"崇文里","LIN":"38鄰","STREET":"崇德二十五街","SECT":" ","MAREA":" ","LANE":" ","ALLEY":" ","HOUSE_NO":"１８號十樓","E_COORD97":170886.44,"N_COORD97":2540644.6699999999,"ADDRESS":"崇德二十五街１８號十樓","OBJECTID":471103},"geometry":{"x":170886.44000000134,"y":2540644.6699999999}},{"attributes":{"ID":471129,"DIS_CODE":0,"TOWNNAME":"東區","LI":"崇文里","LIN":"38鄰","STREET":"崇德二十五街","SECT":" ","MAREA":" ","LANE":" ","ALLEY":" ","HOUSE_NO":"１８號三樓","E_COORD97":170886.44,"N_COORD97":2540644.6699999999,"ADDRESS":"崇德二十五街１８號三樓","OBJECTID":471104},"geometry":{"x":170886.44000000134,"y":2540644.6699999999}},{"attributes":{"ID":471130,"DIS_CODE":0,"TOWNNAME":"東區","LI":"崇文里","LIN":"38鄰","STREET":"崇德二十五街","SECT":" ","MAREA":" ","LANE":" ","ALLEY":" ","HOUSE_NO":"１８號五樓","E_COORD97":170886.44,"N_COORD97":2540644.6699999999,"ADDRESS":"崇德二十五街１８號五樓","OBJECTID":471105},"geometry":{"x":170886.44000000134,"y":2540644.6699999999}},{"attributes":{"ID":471131,"DIS_CODE":0,"TOWNNAME":"東區","LI":"崇文里","LIN":"38鄰","STREET":"崇德二十五街","SECT":" ","MAREA":" ","LANE":" ","ALLEY":" ","HOUSE_NO":"１８號六樓","E_COORD97":170886.44,"N_COORD97":2540644.6699999999,"ADDRESS":"崇德二十五街１８號六樓","OBJECTID":471106},"geometry":{"x":170886.44000000134,"y":2540644.6699999999}},{"attributes":{"ID":471132,"DIS_CODE":0,"TOWNNAME":"東區","LI":"崇文里","LIN":"38鄰","STREET":"崇德二十五街","SECT":" ","MAREA":" ","LANE":" ","ALLEY":" ","HOUSE_NO":"１８號四樓","E_COORD97":170886.44,"N_COORD97":2540644.6699999999,"ADDRESS":"崇德二十五街１８號四樓","OBJECTID":471107},"geometry":{"x":170886.44000000134,"y":2540644.6699999999}},{"attributes":{"ID":471133,"DIS_CODE":0,"TOWNNAME":"東區","LI":"崇文里","LIN":"38鄰","STREET":"崇德二十五街","SECT":" ","MAREA":" ","LANE":" ","ALLEY":" ","HOUSE_NO":"２０號七樓","E_COORD97":170900.09,"N_COORD97":2540645.1600000001,"ADDRESS":"崇德二十五街２０號七樓","OBJECTID":471108},"geometry":{"x":170900.09000000078,"y":2540645.1600000001}},{"attributes":{"ID":471134,"DIS_CODE":0,"TOWNNAME":"東區","LI":"崇文里","LIN":"38鄰","STREET":"崇德二十五街","SECT":" ","MAREA":" ","LANE":" ","ALLEY":" ","HOUSE_NO":"２０號九樓","E_COORD97":170900.09,"N_COORD97":2540645.1600000001,"ADDRESS":"崇德二十五街２０號九樓","OBJECTID":471109},"geometry":{"x":170900.09000000078,"y":2540645.1600000001}},{"attributes":{"ID":471135,"DIS_CODE":0,"TOWNNAME":"東區","LI":"崇文里","LIN":"38鄰","STREET":"崇德二十五街","SECT":" ","MAREA":" ","LANE":" ","ALLEY":" ","HOUSE_NO":"２０號二樓","E_COORD97":170900.09,"N_COORD97":2540645.1600000001,"ADDRESS":"崇德二十五街２０號二樓","OBJECTID":471110},"geometry":{"x":170900.09000000078,"y":2540645.1600000001}},{"attributes":{"ID":471136,"DIS_CODE":0,"TOWNNAME":"東區","LI":"崇文里","LIN":"38鄰","STREET":"崇德二十五街","SECT":" ","MAREA":" ","LANE":" ","ALLEY":" ","HOUSE_NO":"２０號八樓","E_COORD97":170900.09,"N_COORD97":2540645.1600000001,"ADDRESS":"崇德二十五街２０號八樓","OBJECTID":471111},"geometry":{"x":170900.09000000078,"y":2540645.1600000001}},{"attributes":{"ID":471137,"DIS_CODE":0,"TOWNNAME":"東區","LI":"崇文里","LIN":"38鄰","STREET":"崇德二十五街","SECT":" ","MAREA":" ","LANE":" ","ALLEY":" ","HOUSE_NO":"２０號十一樓","E_COORD97":170900.09,"N_COORD97":2540645.1600000001,"ADDRESS":"崇德二十五街２０號十一樓","OBJECTID":471112},"geometry":{"x":170900.09000000078,"y":2540645.1600000001}},{"attributes":{"ID":471138,"DIS_CODE":0,"TOWNNAME":"東區","LI":"崇文里","LIN":"38鄰","STREET":"崇德二十五街","SECT":" ","MAREA":" ","LANE":" ","ALLEY":" ","HOUSE_NO":"２０號十二樓","E_COORD97":170900.09,"N_COORD97":2540645.1600000001,"ADDRESS":"崇德二十五街２０號十二樓","OBJECTID":471113},"geometry":{"x":170900.09000000078,"y":2540645.1600000001}},{"attributes":{"ID":471139,"DIS_CODE":0,"TOWNNAME":"東區","LI":"崇文里","LIN":"38鄰","STREET":"崇德二十五街","SECT":" ","MAREA":" ","LANE":" ","ALLEY":" ","HOUSE_NO":"２０號十樓","E_COORD97":170900.09,"N_COORD97":2540645.1600000001,"ADDRESS":"崇德二十五街２０號十樓","OBJECTID":471114},"geometry":{"x":170900.09000000078,"y":2540645.1600000001}},{"attributes":{"ID":471140,"DIS_CODE":0,"TOWNNAME":"東區","LI":"崇文里","LIN":"38鄰","STREET":"崇德二十五街","SECT":" ","MAREA":" ","LANE":" ","ALLEY":" ","HOUSE_NO":"２０號三樓","E_COORD97":170900.09,"N_COORD97":2540645.1600000001,"ADDRESS":"崇德二十五街２０號三樓","OBJECTID":471115},"geometry":{"x":170900.09000000078,"y":2540645.1600000001}},{"attributes":{"ID":471141,"DIS_CODE":0,"TOWNNAME":"東區","LI":"崇文里","LIN":"38鄰","STREET":"崇德二十五街","SECT":" ","MAREA":" ","LANE":" ","ALLEY":" ","HOUSE_NO":"２０號五樓","E_COORD97":170900.09,"N_COORD97":2540645.1600000001,"ADDRESS":"崇德二十五街２０號五樓","OBJECTID":471116},"geometry":{"x":170900.09000000078,"y":2540645.1600000001}},{"attributes":{"ID":471142,"DIS_CODE":0,"TOWNNAME":"東區","LI":"崇文里","LIN":"38鄰","STREET":"崇德二十五街","SECT":" ","MAREA":" ","LANE":" ","ALLEY":" ","HOUSE_NO":"２０號六樓","E_COORD97":170900.09,"N_COORD97":2540645.1600000001,"ADDRESS":"崇德二十五街２０號六樓","OBJECTID":471117},"geometry":{"x":170900.09000000078,"y":2540645.1600000001}},{"attributes":{"ID":471143,"DIS_CODE":0,"TOWNNAME":"東區","LI":"崇文里","LIN":"38鄰","STREET":"崇德二十五街","SECT":" ","MAREA":" ","LANE":" ","ALLEY":" ","HOUSE_NO":"２０號四樓","E_COORD97":170900.09,"N_COORD97":2540645.1600000001,"ADDRESS":"崇德二十五街２０號四樓","OBJECTID":471118},"geometry":{"x":170900.09000000078,"y":2540645.1600000001}},{"attributes":{"ID":471144,"DIS_CODE":0,"TOWNNAME":"東區","LI":"崇文里","LIN":"38鄰","STREET":"崇德二十五街","SECT":" ","MAREA":" ","LANE":" ","ALLEY":" ","HOUSE_NO":"２２號七樓","E_COORD97":170914.76999999999,"N_COORD97":2540645.2599999998,"ADDRESS":"崇德二十五街２２號七樓","OBJECTID":471119},"geometry":{"x":170914.77000000142,"y":2540645.2599999979}},{"attributes":{"ID":471145,"DIS_CODE":0,"TOWNNAME":"東區","LI":"崇文里","LIN":"38鄰","STREET":"崇德二十五街","SECT":" ","MAREA":" ","LANE":" ","ALLEY":" ","HOUSE_NO":"２２號九樓","E_COORD97":170914.76999999999,"N_COORD97":2540645.2599999998,"ADDRESS":"崇德二十五街２２號九樓","OBJECTID":471120},"geometry":{"x":170914.77000000142,"y":2540645.2599999979}},{"attributes":{"ID":471146,"DIS_CODE":0,"TOWNNAME":"東區","LI":"崇文里","LIN":"38鄰","STREET":"崇德二十五街","SECT":" ","MAREA":" ","LANE":" ","ALLEY":" ","HOUSE_NO":"２２號二樓","E_COORD97":170914.76999999999,"N_COORD97":2540645.2599999998,"ADDRESS":"崇德二十五街２２號二樓","OBJECTID":471121},"geometry":{"x":170914.77000000142,"y":2540645.2599999979}},{"attributes":{"ID":471147,"DIS_CODE":0,"TOWNNAME":"東區","LI":"崇文里","LIN":"38鄰","STREET":"崇德二十五街","SECT":" ","MAREA":" ","LANE":" ","ALLEY":" ","HOUSE_NO":"２２號八樓","E_COORD97":170914.76999999999,"N_COORD97":2540645.2599999998,"ADDRESS":"崇德二十五街２２號八樓","OBJECTID":471122},"geometry":{"x":170914.77000000142,"y":2540645.2599999979}},{"attributes":{"ID":471148,"DIS_CODE":0,"TOWNNAME":"東區","LI":"崇文里","LIN":"38鄰","STREET":"崇德二十五街","SECT":" ","MAREA":" ","LANE":" ","ALLEY":" ","HOUSE_NO":"２２號十一樓","E_COORD97":170914.76999999999,"N_COORD97":2540645.2599999998,"ADDRESS":"崇德二十五街２２號十一樓","OBJECTID":471123},"geometry":{"x":170914.77000000142,"y":2540645.2599999979}},{"attributes":{"ID":471149,"DIS_CODE":0,"TOWNNAME":"東區","LI":"崇文里","LIN":"38鄰","STREET":"崇德二十五街","SECT":" ","MAREA":" ","LANE":" ","ALLEY":" ","HOUSE_NO":"２２號十二樓","E_COORD97":170914.76999999999,"N_COORD97":2540645.2599999998,"ADDRESS":"崇德二十五街２２號十二樓","OBJECTID":471124},"geometry":{"x":170914.77000000142,"y":2540645.2599999979}},{"attributes":{"ID":471150,"DIS_CODE":0,"TOWNNAME":"東區","LI":"崇文里","LIN":"38鄰","STREET":"崇德二十五街","SECT":" ","MAREA":" ","LANE":" ","ALLEY":" ","HOUSE_NO":"２２號十樓","E_COORD97":170914.76999999999,"N_COORD97":2540645.2599999998,"ADDRESS":"崇德二十五街２２號十樓","OBJECTID":471125},"geometry":{"x":170914.77000000142,"y":2540645.2599999979}},{"attributes":{"ID":471151,"DIS_CODE":0,"TOWNNAME":"東區","LI":"崇文里","LIN":"38鄰","STREET":"崇德二十五街","SECT":" ","MAREA":" ","LANE":" ","ALLEY":" ","HOUSE_NO":"２２號三樓","E_COORD97":170914.76999999999,"N_COORD97":2540645.2599999998,"ADDRESS":"崇德二十五街２２號三樓","OBJECTID":471126},"geometry":{"x":170914.77000000142,"y":2540645.2599999979}},{"attributes":{"ID":471152,"DIS_CODE":0,"TOWNNAME":"東區","LI":"崇文里","LIN":"38鄰","STREET":"崇德二十五街","SECT":" ","MAREA":" ","LANE":" ","ALLEY":" ","HOUSE_NO":"２２號五樓","E_COORD97":170914.76999999999,"N_COORD97":2540645.2599999998,"ADDRESS":"崇德二十五街２２號五樓","OBJECTID":471127},"geometry":{"x":170914.77000000142,"y":2540645.2599999979}},{"attributes":{"ID":471153,"DIS_CODE":0,"TOWNNAME":"東區","LI":"崇文里","LIN":"38鄰","STREET":"崇德二十五街","SECT":" ","MAREA":" ","LANE":" ","ALLEY":" ","HOUSE_NO":"２２號六樓","E_COORD97":170914.76999999999,"N_COORD97":2540645.2599999998,"ADDRESS":"崇德二十五街２２號六樓","OBJECTID":471128},"geometry":{"x":170914.77000000142,"y":2540645.2599999979}},{"attributes":{"ID":471154,"DIS_CODE":0,"TOWNNAME":"東區","LI":"崇文里","LIN":"38鄰","STREET":"崇德二十五街","SECT":" ","MAREA":" ","LANE":" ","ALLEY":" ","HOUSE_NO":"２２號四樓","E_COORD97":170914.76999999999,"N_COORD97":2540645.2599999998,"ADDRESS":"崇德二十五街２２號四樓","OBJECTID":471129},"geometry":{"x":170914.77000000142,"y":2540645.2599999979}},{"attributes":{"ID":471155,"DIS_CODE":0,"TOWNNAME":"東區","LI":"崇文里","LIN":"38鄰","STREET":"崇德二十五街","SECT":" ","MAREA":" ","LANE":" ","ALLEY":" ","HOUSE_NO":"２６號七樓","E_COORD97":170931.89000000001,"N_COORD97":2540645.46,"ADDRESS":"崇德二十五街２６號七樓","OBJECTID":471130},"geometry":{"x":170931.8900000006,"y":2540645.4600000046}},{"attributes":{"ID":471156,"DIS_CODE":0,"TOWNNAME":"東區","LI":"崇文里","LIN":"38鄰","STREET":"崇德二十五街","SECT":" ","MAREA":" ","LANE":" ","ALLEY":" ","HOUSE_NO":"２６號九樓","E_COORD97":170931.89000000001,"N_COORD97":2540645.46,"ADDRESS":"崇德二十五街２６號九樓","OBJECTID":471131},"geometry":{"x":170931.8900000006,"y":2540645.4600000046}},{"attributes":{"ID":471157,"DIS_CODE":0,"TOWNNAME":"東區","LI":"崇文里","LIN":"38鄰","STREET":"崇德二十五街","SECT":" ","MAREA":" ","LANE":" ","ALLEY":" ","HOUSE_NO":"２６號二樓","E_COORD97":170931.89000000001,"N_COORD97":2540645.46,"ADDRESS":"崇德二十五街２６號二樓","OBJECTID":471132},"geometry":{"x":170931.8900000006,"y":2540645.4600000046}},{"attributes":{"ID":471158,"DIS_CODE":0,"TOWNNAME":"東區","LI":"崇文里","LIN":"38鄰","STREET":"崇德二十五街","SECT":" ","MAREA":" ","LANE":" ","ALLEY":" ","HOUSE_NO":"２６號八樓","E_COORD97":170931.89000000001,"N_COORD97":2540645.46,"ADDRESS":"崇德二十五街２６號八樓","OBJECTID":471133},"geometry":{"x":170931.8900000006,"y":2540645.4600000046}},{"attributes":{"ID":471159,"DIS_CODE":0,"TOWNNAME":"東區","LI":"崇文里","LIN":"38鄰","STREET":"崇德二十五街","SECT":" ","MAREA":" ","LANE":" ","ALLEY":" ","HOUSE_NO":"２６號十一樓","E_COORD97":170931.89000000001,"N_COORD97":2540645.46,"ADDRESS":"崇德二十五街２６號十一樓","OBJECTID":471134},"geometry":{"x":170931.8900000006,"y":2540645.4600000046}},{"attributes":{"ID":471160,"DIS_CODE":0,"TOWNNAME":"東區","LI":"崇文里","LIN":"38鄰","STREET":"崇德二十五街","SECT":" ","MAREA":" ","LANE":" ","ALLEY":" ","HOUSE_NO":"２６號十二樓","E_COORD97":170931.89000000001,"N_COORD97":2540645.46,"ADDRESS":"崇德二十五街２６號十二樓","OBJECTID":471135},"geometry":{"x":170931.8900000006,"y":2540645.4600000046}},{"attributes":{"ID":471161,"DIS_CODE":0,"TOWNNAME":"東區","LI":"崇文里","LIN":"38鄰","STREET":"崇德二十五街","SECT":" ","MAREA":" ","LANE":" ","ALLEY":" ","HOUSE_NO":"２６號十樓","E_COORD97":170931.89000000001,"N_COORD97":2540645.46,"ADDRESS":"崇德二十五街２６號十樓","OBJECTID":471136},"geometry":{"x":170931.8900000006,"y":2540645.4600000046}},{"attributes":{"ID":471162,"DIS_CODE":0,"TOWNNAME":"東區","LI":"崇文里","LIN":"38鄰","STREET":"崇德二十五街","SECT":" ","MAREA":" ","LANE":" ","ALLEY":" ","HOUSE_NO":"２６號三樓","E_COORD97":170931.89000000001,"N_COORD97":2540645.46,"ADDRESS":"崇德二十五街２６號三樓","OBJECTID":471137},"geometry":{"x":170931.8900000006,"y":2540645.4600000046}},{"attributes":{"ID":471163,"DIS_CODE":0,"TOWNNAME":"東區","LI":"崇文里","LIN":"38鄰","STREET":"崇德二十五街","SECT":" ","MAREA":" ","LANE":" ","ALLEY":" ","HOUSE_NO":"２６號五樓","E_COORD97":170931.89000000001,"N_COORD97":2540645.46,"ADDRESS":"崇德二十五街２６號五樓","OBJECTID":471138},"geometry":{"x":170931.8900000006,"y":2540645.4600000046}},{"attributes":{"ID":471164,"DIS_CODE":0,"TOWNNAME":"東區","LI":"崇文里","LIN":"38鄰","STREET":"崇德二十五街","SECT":" ","MAREA":" ","LANE":" ","ALLEY":" ","HOUSE_NO":"２６號六樓","E_COORD97":170931.89000000001,"N_COORD97":2540645.46,"ADDRESS":"崇德二十五街２６號六樓","OBJECTID":471139},"geometry":{"x":170931.8900000006,"y":2540645.4600000046}},{"attributes":{"ID":471165,"DIS_CODE":0,"TOWNNAME":"東區","LI":"崇文里","LIN":"38鄰","STREET":"崇德二十五街","SECT":" ","MAREA":" ","LANE":" ","ALLEY":" ","HOUSE_NO":"２６號四樓","E_COORD97":170931.89000000001,"N_COORD97":2540645.46,"ADDRESS":"崇德二十五街２６號四樓","OBJECTID":471140},"geometry":{"x":170931.8900000006,"y":2540645.4600000046}},{"attributes":{"ID":471166,"DIS_CODE":0,"TOWNNAME":"東區","LI":"崇文里","LIN":"38鄰","STREET":"崇德二十五街","SECT":" ","MAREA":" ","LANE":" ","ALLEY":" ","HOUSE_NO":"２８號七樓","E_COORD97":170946.72,"N_COORD97":2540645.2599999998,"ADDRESS":"崇德二十五街２８號七樓","OBJECTID":471141},"geometry":{"x":170946.72000000067,"y":2540645.2599999979}},{"attributes":{"ID":471167,"DIS_CODE":0,"TOWNNAME":"東區","LI":"崇文里","LIN":"38鄰","STREET":"崇德二十五街","SECT":" ","MAREA":" ","LANE":" ","ALLEY":" ","HOUSE_NO":"２８號九樓","E_COORD97":170946.72,"N_COORD97":2540645.2599999998,"ADDRESS":"崇德二十五街２８號九樓","OBJECTID":471142},"geometry":{"x":170946.72000000067,"y":2540645.2599999979}},{"attributes":{"ID":471168,"DIS_CODE":0,"TOWNNAME":"東區","LI":"崇文里","LIN":"38鄰","STREET":"崇德二十五街","SECT":" ","MAREA":" ","LANE":" ","ALLEY":" ","HOUSE_NO":"２８號二樓","E_COORD97":170946.72,"N_COORD97":2540645.2599999998,"ADDRESS":"崇德二十五街２８號二樓","OBJECTID":471143},"geometry":{"x":170946.72000000067,"y":2540645.2599999979}},{"attributes":{"ID":471169,"DIS_CODE":0,"TOWNNAME":"東區","LI":"崇文里","LIN":"38鄰","STREET":"崇德二十五街","SECT":" ","MAREA":" ","LANE":" ","ALLEY":" ","HOUSE_NO":"２８號八樓","E_COORD97":170946.72,"N_COORD97":2540645.2599999998,"ADDRESS":"崇德二十五街２８號八樓","OBJECTID":471144},"geometry":{"x":170946.72000000067,"y":2540645.2599999979}},{"attributes":{"ID":471170,"DIS_CODE":0,"TOWNNAME":"東區","LI":"崇文里","LIN":"38鄰","STREET":"崇德二十五街","SECT":" ","MAREA":" ","LANE":" ","ALLEY":" ","HOUSE_NO":"２８號十一樓","E_COORD97":170946.72,"N_COORD97":2540645.2599999998,"ADDRESS":"崇德二十五街２８號十一樓","OBJECTID":471145},"geometry":{"x":170946.72000000067,"y":2540645.2599999979}},{"attributes":{"ID":471171,"DIS_CODE":0,"TOWNNAME":"東區","LI":"崇文里","LIN":"38鄰","STREET":"崇德二十五街","SECT":" ","MAREA":" ","LANE":" ","ALLEY":" ","HOUSE_NO":"２８號十二樓","E_COORD97":170946.72,"N_COORD97":2540645.2599999998,"ADDRESS":"崇德二十五街２８號十二樓","OBJECTID":471146},"geometry":{"x":170946.72000000067,"y":2540645.2599999979}},{"attributes":{"ID":471172,"DIS_CODE":0,"TOWNNAME":"東區","LI":"崇文里","LIN":"38鄰","STREET":"崇德二十五街","SECT":" ","MAREA":" ","LANE":" ","ALLEY":" ","HOUSE_NO":"２８號十樓","E_COORD97":170946.72,"N_COORD97":2540645.2599999998,"ADDRESS":"崇德二十五街２８號十樓","OBJECTID":471147},"geometry":{"x":170946.72000000067,"y":2540645.2599999979}},{"attributes":{"ID":471173,"DIS_CODE":0,"TOWNNAME":"東區","LI":"崇文里","LIN":"38鄰","STREET":"崇德二十五街","SECT":" ","MAREA":" ","LANE":" ","ALLEY":" ","HOUSE_NO":"２８號三樓","E_COORD97":170946.72,"N_COORD97":2540645.2599999998,"ADDRESS":"崇德二十五街２８號三樓","OBJECTID":471148},"geometry":{"x":170946.72000000067,"y":2540645.2599999979}},{"attributes":{"ID":471174,"DIS_CODE":0,"TOWNNAME":"東區","LI":"崇文里","LIN":"38鄰","STREET":"崇德二十五街","SECT":" ","MAREA":" ","LANE":" ","ALLEY":" ","HOUSE_NO":"２８號五樓","E_COORD97":170946.72,"N_COORD97":2540645.2599999998,"ADDRESS":"崇德二十五街２８號五樓","OBJECTID":471149},"geometry":{"x":170946.72000000067,"y":2540645.2599999979}},{"attributes":{"ID":471175,"DIS_CODE":0,"TOWNNAME":"東區","LI":"崇文里","LIN":"38鄰","STREET":"崇德二十五街","SECT":" ","MAREA":" ","LANE":" ","ALLEY":" ","HOUSE_NO":"２８號六樓","E_COORD97":170946.72,"N_COORD97":2540645.2599999998,"ADDRESS":"崇德二十五街２８號六樓","OBJECTID":471150},"geometry":{"x":170946.72000000067,"y":2540645.2599999979}},{"attributes":{"ID":471176,"DIS_CODE":0,"TOWNNAME":"東區","LI":"崇文里","LIN":"38鄰","STREET":"崇德二十五街","SECT":" ","MAREA":" ","LANE":" ","ALLEY":" ","HOUSE_NO":"２８號四樓","E_COORD97":170946.72,"N_COORD97":2540645.2599999998,"ADDRESS":"崇德二十五街２８號四樓","OBJECTID":471151},"geometry":{"x":170946.72000000067,"y":2540645.2599999979}},{"attributes":{"ID":471177,"DIS_CODE":0,"TOWNNAME":"東區","LI":"崇文里","LIN":"38鄰","STREET":"崇德二十五街","SECT":" ","MAREA":" ","LANE":" ","ALLEY":" ","HOUSE_NO":"３０號七樓","E_COORD97":170946.42000000001,"N_COORD97":2540631.9399999999,"ADDRESS":"崇德二十五街３０號七樓","OBJECTID":471152},"geometry":{"x":170946.42000000179,"y":2540631.9400000013}},{"attributes":{"ID":471178,"DIS_CODE":0,"TOWNNAME":"東區","LI":"崇文里","LIN":"38鄰","STREET":"崇德二十五街","SECT":" ","MAREA":" ","LANE":" ","ALLEY":" ","HOUSE_NO":"３０號九樓","E_COORD97":170946.42000000001,"N_COORD97":2540631.9399999999,"ADDRESS":"崇德二十五街３０號九樓","OBJECTID":471153},"geometry":{"x":170946.42000000179,"y":2540631.9400000013}},{"attributes":{"ID":471179,"DIS_CODE":0,"TOWNNAME":"東區","LI":"崇文里","LIN":"38鄰","STREET":"崇德二十五街","SECT":" ","MAREA":" ","LANE":" ","ALLEY":" ","HOUSE_NO":"３０號二樓","E_COORD97":170946.42000000001,"N_COORD97":2540631.9399999999,"ADDRESS":"崇德二十五街３０號二樓","OBJECTID":471154},"geometry":{"x":170946.42000000179,"y":2540631.9400000013}},{"attributes":{"ID":471180,"DIS_CODE":0,"TOWNNAME":"東區","LI":"崇文里","LIN":"38鄰","STREET":"崇德二十五街","SECT":" ","MAREA":" ","LANE":" ","ALLEY":" ","HOUSE_NO":"３０號八樓","E_COORD97":170946.42000000001,"N_COORD97":2540631.9399999999,"ADDRESS":"崇德二十五街３０號八樓","OBJECTID":471155},"geometry":{"x":170946.42000000179,"y":2540631.9400000013}},{"attributes":{"ID":471181,"DIS_CODE":0,"TOWNNAME":"東區","LI":"崇文里","LIN":"38鄰","STREET":"崇德二十五街","SECT":" ","MAREA":" ","LANE":" ","ALLEY":" ","HOUSE_NO":"３０號十一樓","E_COORD97":170946.42000000001,"N_COORD97":2540631.9399999999,"ADDRESS":"崇德二十五街３０號十一樓","OBJECTID":471156},"geometry":{"x":170946.42000000179,"y":2540631.9400000013}},{"attributes":{"ID":471182,"DIS_CODE":0,"TOWNNAME":"東區","LI":"崇文里","LIN":"38鄰","STREET":"崇德二十五街","SECT":" ","MAREA":" ","LANE":" ","ALLEY":" ","HOUSE_NO":"３０號十二樓","E_COORD97":170946.42000000001,"N_COORD97":2540631.9399999999,"ADDRESS":"崇德二十五街３０號十二樓","OBJECTID":471157},"geometry":{"x":170946.42000000179,"y":2540631.9400000013}},{"attributes":{"ID":471183,"DIS_CODE":0,"TOWNNAME":"東區","LI":"崇文里","LIN":"38鄰","STREET":"崇德二十五街","SECT":" ","MAREA":" ","LANE":" ","ALLEY":" ","HOUSE_NO":"３０號十樓","E_COORD97":170946.42000000001,"N_COORD97":2540631.9399999999,"ADDRESS":"崇德二十五街３０號十樓","OBJECTID":471158},"geometry":{"x":170946.42000000179,"y":2540631.9400000013}},{"attributes":{"ID":471184,"DIS_CODE":0,"TOWNNAME":"東區","LI":"崇文里","LIN":"38鄰","STREET":"崇德二十五街","SECT":" ","MAREA":" ","LANE":" ","ALLEY":" ","HOUSE_NO":"３０號三樓","E_COORD97":170946.42000000001,"N_COORD97":2540631.9399999999,"ADDRESS":"崇德二十五街３０號三樓","OBJECTID":471159},"geometry":{"x":170946.42000000179,"y":2540631.9400000013}},{"attributes":{"ID":471185,"DIS_CODE":0,"TOWNNAME":"東區","LI":"崇文里","LIN":"38鄰","STREET":"崇德二十五街","SECT":" ","MAREA":" ","LANE":" ","ALLEY":" ","HOUSE_NO":"３０號五樓","E_COORD97":170946.42000000001,"N_COORD97":2540631.9399999999,"ADDRESS":"崇德二十五街３０號五樓","OBJECTID":471160},"geometry":{"x":170946.42000000179,"y":2540631.9400000013}},{"attributes":{"ID":471186,"DIS_CODE":0,"TOWNNAME":"東區","LI":"崇文里","LIN":"38鄰","STREET":"崇德二十五街","SECT":" ","MAREA":" ","LANE":" ","ALLEY":" ","HOUSE_NO":"３０號六樓","E_COORD97":170946.42000000001,"N_COORD97":2540631.9399999999,"ADDRESS":"崇德二十五街３０號六樓","OBJECTID":471161},"geometry":{"x":170946.42000000179,"y":2540631.9400000013}},{"attributes":{"ID":471187,"DIS_CODE":0,"TOWNNAME":"東區","LI":"崇文里","LIN":"38鄰","STREET":"崇德二十五街","SECT":" ","MAREA":" ","LANE":" ","ALLEY":" ","HOUSE_NO":"３０號四樓","E_COORD97":170946.42000000001,"N_COORD97":2540631.9399999999,"ADDRESS":"崇德二十五街３０號四樓","OBJECTID":471162},"geometry":{"x":170946.42000000179,"y":2540631.9400000013}},{"attributes":{"ID":471188,"DIS_CODE":0,"TOWNNAME":"永康區","LI":"崑山里","LIN":"38鄰","STREET":"崑山街","SECT":" ","MAREA":" ","LANE":" ","ALLEY":" ","HOUSE_NO":"１９３號五樓之４","E_COORD97":174058.29999999999,"N_COORD97":2544972.3999999999,"ADDRESS":"崑山街１９３號五樓之４","OBJECTID":471163},"geometry":{"x":174058.30000000075,"y":2544972.4000000022}},{"attributes":{"ID":471189,"DIS_CODE":0,"TOWNNAME":"永康區","LI":"埔園里","LIN":"38鄰","STREET":"龍中街","SECT":" ","MAREA":" ","LANE":" ","ALLEY":" ","HOUSE_NO":"３５９號三樓之１","E_COORD97":174402.70000000001,"N_COORD97":2547932.0800000001,"ADDRESS":"龍中街３５９號三樓之１","OBJECTID":471164},"geometry":{"x":174402.70000000019,"y":2547932.0800000001}},{"attributes":{"ID":471190,"DIS_CODE":0,"TOWNNAME":"永康區","LI":"崑山里","LIN":"38鄰","STREET":"崑山街","SECT":" ","MAREA":" ","LANE":" ","ALLEY":" ","HOUSE_NO":"１９３號三樓之２","E_COORD97":174058.41,"N_COORD97":2544972.3999999999,"ADDRESS":"崑山街１９３號三樓之２","OBJECTID":471165},"geometry":{"x":174058.41000000015,"y":2544972.4000000022}},{"attributes":{"ID":471191,"DIS_CODE":0,"TOWNNAME":"永康區","LI":"崑山里","LIN":"38鄰","STREET":"崑山街","SECT":" ","MAREA":" ","LANE":" ","ALLEY":" ","HOUSE_NO":"１９１號三樓之４","E_COORD97":174056.92999999999,"N_COORD97":2544968.3999999999,"ADDRESS":"崑山街１９１號三樓之４","OBJECTID":471166},"geometry":{"x":174056.93000000063,"y":2544968.4000000022}},{"attributes":{"ID":471192,"DIS_CODE":0,"TOWNNAME":"歸仁區","LI":"後市里","LIN":"38鄰","STREET":"中山八街","SECT":" ","MAREA":" ","LANE":" ","ALLEY":" ","HOUSE_NO":"８０號","E_COORD97":177179.92999999999,"N_COORD97":2541025.0299999998,"ADDRESS":"中山八街８０號","OBJECTID":471167},"geometry":{"x":177179.93000000063,"y":2541025.0299999993}},{"attributes":{"ID":471193,"DIS_CODE":0,"TOWNNAME":"永康區","LI":"龍潭里","LIN":"38鄰","STREET":"國民路","SECT":" ","MAREA":" ","LANE":" ","ALLEY":" ","HOUSE_NO":"５１號","E_COORD97":174307.01000000001,"N_COORD97":2547392.0699999998,"ADDRESS":"國民路５１號","OBJECTID":471168},"geometry":{"x":174307.00999999978,"y":2547392.0700000022}},{"attributes":{"ID":471194,"DIS_CODE":0,"TOWNNAME":"永康區","LI":"西灣里","LIN":"38鄰","STREET":"大勇路","SECT":" ","MAREA":" ","LANE":" ","ALLEY":" ","HOUSE_NO":"１２９號","E_COORD97":174256.47,"N_COORD97":2545609.3399999999,"ADDRESS":"大勇路１２９號","OBJECTID":471169},"geometry":{"x":174256.46999999881,"y":2545609.3400000017}},{"attributes":{"ID":471195,"DIS_CODE":0,"TOWNNAME":"歸仁區","LI":"後市里","LIN":"38鄰","STREET":"中山八街","SECT":" ","MAREA":" ","LANE":" ","ALLEY":" ","HOUSE_NO":"２３號","E_COORD97":177214.57999999999,"N_COORD97":2541012.29,"ADDRESS":"中山八街２３號","OBJECTID":471170},"geometry":{"x":177214.58000000101,"y":2541012.290000001}},{"attributes":{"ID":471196,"DIS_CODE":0,"TOWNNAME":"歸仁區","LI":"六甲里","LIN":"38鄰","STREET":"六甲八街","SECT":" ","MAREA":" ","LANE":" ","ALLEY":" ","HOUSE_NO":"１９９號","E_COORD97":175277.77267999999,"N_COORD97":2539851.8690900002,"ADDRESS":"六甲八街１９９號","OBJECTID":471171},"geometry":{"x":175277.77268000226,"y":2539851.8690910004}},{"attributes":{"ID":471197,"DIS_CODE":0,"TOWNNAME":"歸仁區","LI":"南興里","LIN":"38鄰","STREET":"中山十街","SECT":" ","MAREA":" ","LANE":" ","ALLEY":" ","HOUSE_NO":"７０號","E_COORD97":175705.66,"N_COORD97":2541184.25,"ADDRESS":"中山十街７０號","OBJECTID":471172},"geometry":{"x":175705.66000000108,"y":2541184.25}},{"attributes":{"ID":471198,"DIS_CODE":0,"TOWNNAME":"歸仁區","LI":"南興里","LIN":"38鄰","STREET":"中山十街","SECT":" ","MAREA":" ","LANE":" ","ALLEY":" ","HOUSE_NO":"６６號","E_COORD97":175704.56,"N_COORD97":2541176.25,"ADDRESS":"中山十街６６號","OBJECTID":471173},"geometry":{"x":175704.55999999959,"y":2541176.2500000019}},{"attributes":{"ID":471199,"DIS_CODE":0,"TOWNNAME":"歸仁區","LI":"六甲里","LIN":"38鄰","STREET":"六甲八街","SECT":" ","MAREA":" ","LANE":" ","ALLEY":" ","HOUSE_NO":"１７７號","E_COORD97":175293.02713500001,"N_COORD97":2539786.1995399999,"ADDRESS":"六甲八街１７７號","OBJECTID":471174},"geometry":{"x":175293.02713499963,"y":2539786.1995429993}},{"attributes":{"ID":471200,"DIS_CODE":0,"TOWNNAME":"歸仁區","LI":"六甲里","LIN":"38鄰","STREET":"六甲八街","SECT":" ","MAREA":" ","LANE":" ","ALLEY":" ","HOUSE_NO":"１４７之１號","E_COORD97":175227.77196899999,"N_COORD97":2539715.9791600001,"ADDRESS":"六甲八街１４７之１號","OBJECTID":471175},"geometry":{"x":175227.77196899988,"y":2539715.9791640025}},{"attributes":{"ID":471201,"DIS_CODE":0,"TOWNNAME":"歸仁區","LI":"六甲里","LIN":"38鄰","STREET":"六甲八街","SECT":" ","MAREA":" ","LANE":" ","ALLEY":" ","HOUSE_NO":"１８５號","E_COORD97":175279.70000000001,"N_COORD97":2539809.73,"ADDRESS":"六甲八街１８５號","OBJECTID":471176},"geometry":{"x":175279.70000000112,"y":2539809.7300000023}},{"attributes":{"ID":471202,"DIS_CODE":0,"TOWNNAME":"玉井區","LI":"玉田里","LIN":"38鄰","STREET":"大仁街","SECT":" ","MAREA":" ","LANE":" ","ALLEY":" ","HOUSE_NO":"２２號","E_COORD97":195235.20999999999,"N_COORD97":2557982.2400000002,"ADDRESS":"大仁街２２號","OBJECTID":471177},"geometry":{"x":195235.21000000089,"y":2557982.2400000021}},{"attributes":{"ID":471203,"DIS_CODE":0,"TOWNNAME":"北區","LI":"成德里","LIN":"38鄰","STREET":"育德二路","SECT":" ","MAREA":" ","LANE":" ","ALLEY":" ","HOUSE_NO":"５２５號","E_COORD97":168149.72,"N_COORD97":2546642.8799999999,"ADDRESS":"育德二路５２５號","OBJECTID":471178},"geometry":{"x":168149.71999999974,"y":2546642.8800000008}},{"attributes":{"ID":471204,"DIS_CODE":0,"TOWNNAME":"北區","LI":"成德里","LIN":"38鄰","STREET":"育德二路","SECT":" ","MAREA":" ","LANE":" ","ALLEY":" ","HOUSE_NO":"５２７號","E_COORD97":168143.85000000001,"N_COORD97":2546641.6099999999,"ADDRESS":"育德二路５２７號","OBJECTID":471179},"geometry":{"x":168143.84999999963,"y":2546641.6100000013}},{"attributes":{"ID":471205,"DIS_CODE":0,"TOWNNAME":"北區","LI":"成德里","LIN":"38鄰","STREET":"育德二路","SECT":" ","MAREA":" ","LANE":" ","ALLEY":" ","HOUSE_NO":"５２９號","E_COORD97":168138.14000000001,"N_COORD97":2546639.7000000002,"ADDRESS":"育德二路５２９號","OBJECTID":471180},"geometry":{"x":168138.1400000006,"y":2546639.700000003}},{"attributes":{"ID":471206,"DIS_CODE":0,"TOWNNAME":"北區","LI":"成德里","LIN":"38鄰","STREET":"育德二路","SECT":" ","MAREA":" ","LANE":" ","ALLEY":" ","HOUSE_NO":"５３１號","E_COORD97":168132.73999999999,"N_COORD97":2546637.96,"ADDRESS":"育德二路５３１號","OBJECTID":471181},"geometry":{"x":168132.74000000115,"y":2546637.9600000009}},{"attributes":{"ID":471207,"DIS_CODE":0,"TOWNNAME":"永康區","LI":"勝利里","LIN":"18鄰","STREET":"勝學路","SECT":" ","MAREA":" ","LANE":" ","ALLEY":" ","HOUSE_NO":"１８２號","E_COORD97":171194.41,"N_COORD97":2545089.7599999998,"ADDRESS":"勝學路１８２號","OBJECTID":471182},"geometry":{"x":171194.41000000108,"y":2545089.7599999998}},{"attributes":{"ID":471208,"DIS_CODE":0,"TOWNNAME":"永康區","LI":"龍潭里","LIN":" ","STREET":"永明街","SECT":" ","MAREA":" ","LANE":" ","ALLEY":" ","HOUSE_NO":"３４０之６號","E_COORD97":174574.03,"N_COORD97":2547105.79,"ADDRESS":"永明街３４０之６號","OBJECTID":471183},"geometry":{"x":174574.03000000119,"y":2547105.7899999991}},{"attributes":{"ID":471209,"DIS_CODE":0,"TOWNNAME":"永康區","LI":"網寮里","LIN":"5鄰","STREET":"永二街","SECT":" ","MAREA":" ","LANE":" ","ALLEY":" ","HOUSE_NO":"１５３號","E_COORD97":173500.51999999999,"N_COORD97":2546414.27,"ADDRESS":"永二街１５３號","OBJECTID":471184},"geometry":{"x":173500.52000000048,"y":2546414.2699999996}},{"attributes":{"ID":471210,"DIS_CODE":0,"TOWNNAME":"永康區","LI":"永康里","LIN":" ","STREET":"永正路","SECT":" ","MAREA":" ","LANE":" ","ALLEY":" ","HOUSE_NO":"８１之３號","E_COORD97":173530.63,"N_COORD97":2547469.0499999998,"ADDRESS":"永正路８１之３號","OBJECTID":471185},"geometry":{"x":173530.63000000082,"y":2547469.0499999989}},{"attributes":{"ID":471211,"DIS_CODE":0,"TOWNNAME":"永康區","LI":"復國里","LIN":" ","STREET":"復國一路","SECT":" ","MAREA":" ","LANE":" ","ALLEY":" ","HOUSE_NO":"２７５號","E_COORD97":172733.92000000001,"N_COORD97":2545489.7799999998,"ADDRESS":"復國一路２７５號","OBJECTID":471186},"geometry":{"x":172733.92000000086,"y":2545489.7800000031}},{"attributes":{"ID":471212,"DIS_CODE":0,"TOWNNAME":"永康區","LI":"\u25A0行里","LIN":"31鄰","STREET":"仁愛街","SECT":" ","MAREA":" ","LANE":" ","ALLEY":" ","HOUSE_NO":"４號","E_COORD97":171884.41,"N_COORD97":2549111.8900000001,"ADDRESS":"仁愛街４號","OBJECTID":471187},"geometry":{"x":171884.41000000108,"y":2549111.8900000025}},{"attributes":{"ID":471213,"DIS_CODE":0,"TOWNNAME":"永康區","LI":"\u25A0行里","LIN":"5鄰","STREET":"新行街","SECT":" ","MAREA":" ","LANE":" ","ALLEY":" ","HOUSE_NO":"２７號","E_COORD97":172233.98000000001,"N_COORD97":2548802.6400000001,"ADDRESS":"新行街２７號","OBJECTID":471188},"geometry":{"x":172233.98000000138,"y":2548802.6400000025}},{"attributes":{"ID":471214,"DIS_CODE":0,"TOWNNAME":"永康區","LI":"網寮里","LIN":"24鄰","STREET":"永華路","SECT":" ","MAREA":" ","LANE":" ","ALLEY":" ","HOUSE_NO":"４２１號","E_COORD97":173874.53,"N_COORD97":2546475.2999999998,"ADDRESS":"永華路４２１號","OBJECTID":471189},"geometry":{"x":173874.53000000026,"y":2546475.3000000026}},{"attributes":{"ID":471215,"DIS_CODE":0,"TOWNNAME":"永康區","LI":"崑山里","LIN":"34鄰","STREET":"大仁街","SECT":" ","MAREA":" ","LANE":" ","ALLEY":" ","HOUSE_NO":"１５５號","E_COORD97":173879.95000000001,"N_COORD97":2544943.9199999999,"ADDRESS":"大仁街１５５號","OBJECTID":471190},"geometry":{"x":173879.95000000112,"y":2544943.9200000018}},{"attributes":{"ID":471216,"DIS_CODE":0,"TOWNNAME":"永康區","LI":"\u25A0洲里","LIN":"4鄰","STREET":"\u25A0洲二街","SECT":" ","MAREA":" ","LANE":" ","ALLEY":" ","HOUSE_NO":"１０７號","E_COORD97":171603.60000000001,"N_COORD97":2549295.9900000002,"ADDRESS":"\u25A0洲二街１０７號","OBJECTID":471191},"geometry":{"x":171603.59999999963,"y":2549295.9900000002}},{"attributes":{"ID":471217,"DIS_CODE":0,"TOWNNAME":"北區","LI":"成德里","LIN":"38鄰","STREET":"中華北路","SECT":"二段","MAREA":" ","LANE":" ","ALLEY":" ","HOUSE_NO":"１５６號","E_COORD97":168096.63,"N_COORD97":2546796.46,"ADDRESS":"中華北路二段１５６號","OBJECTID":471192},"geometry":{"x":168096.62999999989,"y":2546796.4600000028}},{"attributes":{"ID":471218,"DIS_CODE":0,"TOWNNAME":"歸仁區","LI":"後市里","LIN":"38鄰","STREET":"中山八街","SECT":" ","MAREA":" ","LANE":" ","ALLEY":" ","HOUSE_NO":"２５號","E_COORD97":177210.67999999999,"N_COORD97":2541012.5499999998,"ADDRESS":"中山八街２５號","OBJECTID":471193},"geometry":{"x":177210.68000000063,"y":2541012.5500000007}},{"attributes":{"ID":471219,"DIS_CODE":0,"TOWNNAME":"歸仁區","LI":"後市里","LIN":"38鄰","STREET":"中山八街","SECT":" ","MAREA":" ","LANE":" ","ALLEY":" ","HOUSE_NO":"３３號","E_COORD97":177194.62,"N_COORD97":2541014.21,"ADDRESS":"中山八街３３號","OBJECTID":471194},"geometry":{"x":177194.62000000011,"y":2541014.2100000028}},{"attributes":{"ID":471220,"DIS_CODE":0,"TOWNNAME":"歸仁區","LI":"南興里","LIN":"38鄰","STREET":"中山路","SECT":"三段","MAREA":" ","LANE":" ","ALLEY":" ","HOUSE_NO":"４６０號","E_COORD97":175901.16,"N_COORD97":2541013.2799999998,"ADDRESS":"中山路三段４６０號","OBJECTID":471195},"geometry":{"x":175901.16000000015,"y":2541013.2799999993}},{"attributes":{"ID":471221,"DIS_CODE":0,"TOWNNAME":"歸仁區","LI":"南興里","LIN":"38鄰","STREET":"中山十街","SECT":" ","MAREA":" ","LANE":" ","ALLEY":" ","HOUSE_NO":"４８號","E_COORD97":175699.26000000001,"N_COORD97":2541136.25,"ADDRESS":"中山十街４８號","OBJECTID":471196},"geometry":{"x":175699.26000000071,"y":2541136.25}},{"attributes":{"ID":471222,"DIS_CODE":0,"TOWNNAME":"歸仁區","LI":"南興里","LIN":"38鄰","STREET":"中山十街","SECT":" ","MAREA":" ","LANE":" ","ALLEY":" ","HOUSE_NO":"５４號","E_COORD97":175701.35999999999,"N_COORD97":2541149.25,"ADDRESS":"中山十街５４號","OBJECTID":471197},"geometry":{"x":175701.36000000127,"y":2541149.25}},{"attributes":{"ID":471223,"DIS_CODE":0,"TOWNNAME":"歸仁區","LI":"許厝里","LIN":"38鄰","STREET":"公園路","SECT":" ","MAREA":" ","LANE":" ","ALLEY":" ","HOUSE_NO":"５８號","E_COORD97":178053.04000000001,"N_COORD97":2540543.2799999998,"ADDRESS":"公園路５８號","OBJECTID":471198},"geometry":{"x":178053.04000000004,"y":2540543.2800000031}},{"attributes":{"ID":471224,"DIS_CODE":0,"TOWNNAME":"永康區","LI":"正強里","LIN":" ","STREET":"正強街","SECT":" ","MAREA":" ","LANE":" ","ALLEY":" ","HOUSE_NO":"１６８之３號","E_COORD97":173340.29000000001,"N_COORD97":2547495.5600000001,"ADDRESS":"正強街１６８之３號","OBJECTID":471199},"geometry":{"x":173340.29000000004,"y":2547495.5600000005}},{"attributes":{"ID":471225,"DIS_CODE":0,"TOWNNAME":"永康區","LI":"成功里","LIN":" ","STREET":"中華路","SECT":" ","MAREA":" ","LANE":" ","ALLEY":" ","HOUSE_NO":"１８６號","E_COORD97":169906.60000000001,"N_COORD97":2547108.2400000002,"ADDRESS":"中華路１８６號","OBJECTID":471200},"geometry":{"x":169906.59999999963,"y":2547108.2400000039}}]}