{"displayFieldName":"TOWNNAME","fieldAliases":{"ID":"ID","DIS_CODE":"DIS_CODE","TOWNNAME":"TOWNNAME","LI":"LI","LIN":"LIN","STREET":"STREET","SECT":"SECT","MAREA":"MAREA","LANE":"LANE","ALLEY":"ALLEY","HOUSE_NO":"HOUSE_NO","E_COORD97":"E_COORD97","N_COORD97":"N_COORD97","ADDRESS":"ADDRESS","OBJECTID":"OBJECTID"},"geometryType":"esriGeometryPoint","spatialReference":{"wkid":102443,"latestWkid":3826},"fields":[{"name":"ID","type":"esriFieldTypeDouble","alias":"ID"},{"name":"DIS_CODE","type":"esriFieldTypeInteger","alias":"DIS_CODE"},{"name":"TOWNNAME","type":"esriFieldTypeString","alias":"TOWNNAME","length":8},{"name":"LI","type":"esriFieldTypeString","alias":"LI","length":8},{"name":"LIN","type":"esriFieldTypeString","alias":"LIN","length":12},{"name":"STREET","type":"esriFieldTypeString","alias":"STREET","length":20},{"name":"SECT","type":"esriFieldTypeString","alias":"SECT","length":8},{"name":"MAREA","type":"esriFieldTypeString","alias":"MAREA","length":12},{"name":"LANE","type":"esriFieldTypeString","alias":"LANE","length":10},{"name":"ALLEY","type":"esriFieldTypeString","alias":"ALLEY","length":10},{"name":"HOUSE_NO","type":"esriFieldTypeString","alias":"HOUSE_NO","length":20},{"name":"E_COORD97","type":"esriFieldTypeDouble","alias":"E_COORD97"},{"name":"N_COORD97","type":"esriFieldTypeDouble","alias":"N_COORD97"},{"name":"ADDRESS","type":"esriFieldTypeString","alias":"ADDRESS","length":50},{"name":"OBJECTID","type":"esriFieldTypeOID","alias":"OBJECTID"}],"features":[{"attributes":{"ID":246005,"DIS_CODE":0,"TOWNNAME":"佳里區","LI":"安西里","LIN":"53鄰","STREET":"佳安西路","SECT":" ","MAREA":" ","LANE":"７巷","ALLEY":" ","HOUSE_NO":"３５號","E_COORD97":163649.14999999999,"N_COORD97":2562227.1600000001,"ADDRESS":"佳安西路７巷３５號","OBJECTID":246001},"geometry":{"x":163649.14999999944,"y":2562227.160000002}},{"attributes":{"ID":246006,"DIS_CODE":0,"TOWNNAME":"佳里區","LI":"安西里","LIN":"53鄰","STREET":"佳安西路","SECT":" ","MAREA":" ","LANE":"７巷","ALLEY":" ","HOUSE_NO":"３６號","E_COORD97":163639.76999999999,"N_COORD97":2562211.0800000001,"ADDRESS":"佳安西路７巷３６號","OBJECTID":246002},"geometry":{"x":163639.77000000048,"y":2562211.0800000019}},{"attributes":{"ID":246007,"DIS_CODE":0,"TOWNNAME":"佳里區","LI":"安西里","LIN":"53鄰","STREET":"佳安西路","SECT":" ","MAREA":" ","LANE":"７巷","ALLEY":" ","HOUSE_NO":"３７號","E_COORD97":163653.72,"N_COORD97":2562227.3799999999,"ADDRESS":"佳安西路７巷３７號","OBJECTID":246003},"geometry":{"x":163653.72000000067,"y":2562227.3800000008}},{"attributes":{"ID":246008,"DIS_CODE":0,"TOWNNAME":"佳里區","LI":"安西里","LIN":"53鄰","STREET":"佳安西路","SECT":" ","MAREA":" ","LANE":"７巷","ALLEY":" ","HOUSE_NO":"３８號","E_COORD97":163643.95999999999,"N_COORD97":2562210.8799999999,"ADDRESS":"佳安西路７巷３８號","OBJECTID":246004},"geometry":{"x":163643.96000000089,"y":2562210.8800000008}},{"attributes":{"ID":246009,"DIS_CODE":0,"TOWNNAME":"佳里區","LI":"安西里","LIN":"53鄰","STREET":"佳安西路","SECT":" ","MAREA":" ","LANE":"７巷","ALLEY":" ","HOUSE_NO":"３９號","E_COORD97":163658.10000000001,"N_COORD97":2562226.9500000002,"ADDRESS":"佳安西路７巷３９號","OBJECTID":246005},"geometry":{"x":163658.10000000056,"y":2562226.950000003}},{"attributes":{"ID":246010,"DIS_CODE":0,"TOWNNAME":"佳里區","LI":"安西里","LIN":"53鄰","STREET":"佳安西路","SECT":" ","MAREA":" ","LANE":"７巷","ALLEY":" ","HOUSE_NO":"３號","E_COORD97":163562.87,"N_COORD97":2562227.2799999998,"ADDRESS":"佳安西路７巷３號","OBJECTID":246006},"geometry":{"x":163562.87000000104,"y":2562227.2799999993}},{"attributes":{"ID":246011,"DIS_CODE":0,"TOWNNAME":"佳里區","LI":"安西里","LIN":"53鄰","STREET":"佳安西路","SECT":" ","MAREA":" ","LANE":"７巷","ALLEY":" ","HOUSE_NO":"４０號","E_COORD97":163648.5,"N_COORD97":2562210.5699999998,"ADDRESS":"佳安西路７巷４０號","OBJECTID":246007},"geometry":{"x":163648.50000000093,"y":2562210.5700000022}},{"attributes":{"ID":246012,"DIS_CODE":0,"TOWNNAME":"佳里區","LI":"安西里","LIN":"53鄰","STREET":"佳安西路","SECT":" ","MAREA":" ","LANE":"７巷","ALLEY":" ","HOUSE_NO":"４２號","E_COORD97":163652.38,"N_COORD97":2562210.7599999998,"ADDRESS":"佳安西路７巷４２號","OBJECTID":246008},"geometry":{"x":163652.38000000175,"y":2562210.7599999998}},{"attributes":{"ID":246013,"DIS_CODE":0,"TOWNNAME":"新營區","LI":"南紙里","LIN":"24鄰","STREET":"南紙街","SECT":" ","MAREA":" ","LANE":"１１７巷","ALLEY":" ","HOUSE_NO":"６２號","E_COORD97":177964.07999999999,"N_COORD97":2577462.8399999999,"ADDRESS":"南紙街１１７巷６２號","OBJECTID":246009},"geometry":{"x":177964.08000000101,"y":2577462.8399999999}},{"attributes":{"ID":246014,"DIS_CODE":0,"TOWNNAME":"佳里區","LI":"安西里","LIN":"53鄰","STREET":"佳安西路","SECT":" ","MAREA":" ","LANE":"７巷","ALLEY":" ","HOUSE_NO":"４６號","E_COORD97":163657.54999999999,"N_COORD97":2562211.0499999998,"ADDRESS":"佳安西路７巷４６號","OBJECTID":246010},"geometry":{"x":163657.54999999981,"y":2562211.0500000026}},{"attributes":{"ID":246015,"DIS_CODE":0,"TOWNNAME":"佳里區","LI":"安西里","LIN":"53鄰","STREET":"佳安西路","SECT":" ","MAREA":" ","LANE":"７巷","ALLEY":" ","HOUSE_NO":"４８號","E_COORD97":163661.64000000001,"N_COORD97":2562210.3900000001,"ADDRESS":"佳安西路７巷４８號","OBJECTID":246011},"geometry":{"x":163661.63999999966,"y":2562210.3900000006}},{"attributes":{"ID":246016,"DIS_CODE":0,"TOWNNAME":"東區","LI":"路東里","LIN":"14鄰","STREET":"林森路","SECT":"一段","MAREA":" ","LANE":" ","ALLEY":" ","HOUSE_NO":"１３２號十五樓之６","E_COORD97":169417.22,"N_COORD97":2542428.8700000001,"ADDRESS":"林森路一段１３２號十五樓之６","OBJECTID":246012},"geometry":{"x":169417.22000000067,"y":2542428.870000001}},{"attributes":{"ID":246017,"DIS_CODE":0,"TOWNNAME":"安南區","LI":"溪心里","LIN":"11鄰","STREET":"海佃路","SECT":"三段","MAREA":" ","LANE":"４８巷","ALLEY":" ","HOUSE_NO":"４１號","E_COORD97":166351.85000000001,"N_COORD97":2549916.8199999998,"ADDRESS":"海佃路三段４８巷４１號","OBJECTID":246013},"geometry":{"x":166351.84999999963,"y":2549916.8200000003}},{"attributes":{"ID":246018,"DIS_CODE":0,"TOWNNAME":"安南區","LI":"溪心里","LIN":"11鄰","STREET":"海佃路","SECT":"三段","MAREA":" ","LANE":"４８巷","ALLEY":" ","HOUSE_NO":"４７號","E_COORD97":166354.38,"N_COORD97":2549930.8300000001,"ADDRESS":"海佃路三段４８巷４７號","OBJECTID":246014},"geometry":{"x":166354.38000000175,"y":2549930.8300000001}},{"attributes":{"ID":246019,"DIS_CODE":0,"TOWNNAME":"安南區","LI":"佃西里","LIN":"11鄰","STREET":"公學路","SECT":"五段","MAREA":" ","LANE":"１７６巷","ALLEY":" ","HOUSE_NO":"１３號","E_COORD97":164816.59,"N_COORD97":2552098.8999999999,"ADDRESS":"公學路五段１７６巷１３號","OBJECTID":246015},"geometry":{"x":164816.58999999985,"y":2552098.9000000022}},{"attributes":{"ID":246020,"DIS_CODE":0,"TOWNNAME":"安南區","LI":"佃西里","LIN":"11鄰","STREET":"公學路","SECT":"五段","MAREA":" ","LANE":"１７６巷","ALLEY":" ","HOUSE_NO":"１７號","E_COORD97":164830.48000000001,"N_COORD97":2552093.1400000001,"ADDRESS":"公學路五段１７６巷１７號","OBJECTID":246016},"geometry":{"x":164830.48000000138,"y":2552093.1400000043}},{"attributes":{"ID":246021,"DIS_CODE":0,"TOWNNAME":"佳里區","LI":"安西里","LIN":"53鄰","STREET":"佳安西路","SECT":" ","MAREA":" ","LANE":"７巷","ALLEY":" ","HOUSE_NO":"５０號","E_COORD97":163665.89000000001,"N_COORD97":2562210.71,"ADDRESS":"佳安西路７巷５０號","OBJECTID":246017},"geometry":{"x":163665.8900000006,"y":2562210.7100000028}},{"attributes":{"ID":246022,"DIS_CODE":0,"TOWNNAME":"佳里區","LI":"安西里","LIN":"53鄰","STREET":"佳安西路","SECT":" ","MAREA":" ","LANE":"７巷","ALLEY":" ","HOUSE_NO":"５２號","E_COORD97":163670.51999999999,"N_COORD97":2562210.4100000001,"ADDRESS":"佳安西路７巷５２號","OBJECTID":246018},"geometry":{"x":163670.51999999955,"y":2562210.4100000001}},{"attributes":{"ID":246023,"DIS_CODE":0,"TOWNNAME":"佳里區","LI":"安西里","LIN":"53鄰","STREET":"佳安西路","SECT":" ","MAREA":" ","LANE":"７巷","ALLEY":" ","HOUSE_NO":"５６號","E_COORD97":163675.03,"N_COORD97":2562210.6200000001,"ADDRESS":"佳安西路７巷５６號","OBJECTID":246019},"geometry":{"x":163675.03000000026,"y":2562210.6200000048}},{"attributes":{"ID":246024,"DIS_CODE":0,"TOWNNAME":"歸仁區","LI":"辜厝里","LIN":"53鄰","STREET":"民權南路","SECT":" ","MAREA":" ","LANE":"３３３巷","ALLEY":" ","HOUSE_NO":"５號","E_COORD97":176988.82000000001,"N_COORD97":2540202.5899999999,"ADDRESS":"民權南路３３３巷５號","OBJECTID":246020},"geometry":{"x":176988.8200000003,"y":2540202.5900000036}},{"attributes":{"ID":246025,"DIS_CODE":0,"TOWNNAME":"歸仁區","LI":"辜厝里","LIN":"53鄰","STREET":"民權南路","SECT":" ","MAREA":" ","LANE":"３３３巷","ALLEY":" ","HOUSE_NO":"３號","E_COORD97":176984.72,"N_COORD97":2540203.5899999999,"ADDRESS":"民權南路３３３巷３號","OBJECTID":246021},"geometry":{"x":176984.72000000067,"y":2540203.5900000017}},{"attributes":{"ID":246026,"DIS_CODE":0,"TOWNNAME":"歸仁區","LI":"辜厝里","LIN":"53鄰","STREET":"民權南路","SECT":" ","MAREA":" ","LANE":"３３３巷","ALLEY":" ","HOUSE_NO":"７號","E_COORD97":176993.92000000001,"N_COORD97":2540202.5899999999,"ADDRESS":"民權南路３３３巷７號","OBJECTID":246022},"geometry":{"x":176993.92000000086,"y":2540202.5900000036}},{"attributes":{"ID":246027,"DIS_CODE":0,"TOWNNAME":"新營區","LI":"護鎮里","LIN":"8鄰","STREET":"中正路","SECT":" ","MAREA":" ","LANE":"４３９巷","ALLEY":" ","HOUSE_NO":"１５１號","E_COORD97":178954.16,"N_COORD97":2579950.9399999999,"ADDRESS":"中正路４３９巷１５１號","OBJECTID":246023},"geometry":{"x":178954.16000000015,"y":2579950.9399999995}},{"attributes":{"ID":246028,"DIS_CODE":0,"TOWNNAME":"歸仁區","LI":"辜厝里","LIN":"53鄰","STREET":"民權南路","SECT":" ","MAREA":" ","LANE":"３１５巷","ALLEY":" ","HOUSE_NO":"２號","E_COORD97":176988.19,"N_COORD97":2540229.27,"ADDRESS":"民權南路３１５巷２號","OBJECTID":246024},"geometry":{"x":176988.19000000041,"y":2540229.2700000014}},{"attributes":{"ID":246029,"DIS_CODE":0,"TOWNNAME":"仁德區","LI":"仁義里","LIN":"53鄰","STREET":"仁義三街","SECT":" ","MAREA":" ","LANE":"３４巷","ALLEY":" ","HOUSE_NO":"３３號","E_COORD97":173524.95000000001,"N_COORD97":2541098.7599999998,"ADDRESS":"仁義三街３４巷３３號","OBJECTID":246025},"geometry":{"x":173524.95000000205,"y":2541098.7599999998}},{"attributes":{"ID":246030,"DIS_CODE":0,"TOWNNAME":"仁德區","LI":"仁義里","LIN":"53鄰","STREET":"仁義三街","SECT":" ","MAREA":" ","LANE":"３４巷","ALLEY":" ","HOUSE_NO":"１１號","E_COORD97":173453.67000000001,"N_COORD97":2541096.7599999998,"ADDRESS":"仁義三街３４巷１１號","OBJECTID":246026},"geometry":{"x":173453.67000000179,"y":2541096.7600000016}},{"attributes":{"ID":246031,"DIS_CODE":0,"TOWNNAME":"仁德區","LI":"仁義里","LIN":"53鄰","STREET":"仁義三街","SECT":" ","MAREA":" ","LANE":"３４巷","ALLEY":" ","HOUSE_NO":"１７號","E_COORD97":173466.13,"N_COORD97":2541097.0099999998,"ADDRESS":"仁義三街３４巷１７號","OBJECTID":246027},"geometry":{"x":173466.13000000082,"y":2541097.0099999998}},{"attributes":{"ID":246032,"DIS_CODE":0,"TOWNNAME":"仁德區","LI":"仁義里","LIN":"53鄰","STREET":"仁義三街","SECT":" ","MAREA":" ","LANE":"３４巷","ALLEY":" ","HOUSE_NO":"１９號","E_COORD97":173470.57000000001,"N_COORD97":2541097.2599999998,"ADDRESS":"仁義三街３４巷１９號","OBJECTID":246028},"geometry":{"x":173470.57000000123,"y":2541097.2600000016}},{"attributes":{"ID":246033,"DIS_CODE":0,"TOWNNAME":"仁德區","LI":"仁義里","LIN":"53鄰","STREET":"仁義三街","SECT":" ","MAREA":" ","LANE":"３４巷","ALLEY":" ","HOUSE_NO":"３１號","E_COORD97":173521.22,"N_COORD97":2541098.0099999998,"ADDRESS":"仁義三街３４巷３１號","OBJECTID":246029},"geometry":{"x":173521.22000000067,"y":2541098.0100000035}},{"attributes":{"ID":246034,"DIS_CODE":0,"TOWNNAME":"仁德區","LI":"仁義里","LIN":"53鄰","STREET":"仁義三街","SECT":" ","MAREA":" ","LANE":"３４巷","ALLEY":" ","HOUSE_NO":"２１號","E_COORD97":173474.89999999999,"N_COORD97":2541097.7599999998,"ADDRESS":"仁義三街３４巷２１號","OBJECTID":246030},"geometry":{"x":173474.9000000013,"y":2541097.7600000016}},{"attributes":{"ID":246035,"DIS_CODE":0,"TOWNNAME":"仁德區","LI":"仁義里","LIN":"53鄰","STREET":"仁義三街","SECT":" ","MAREA":" ","LANE":"３４巷","ALLEY":" ","HOUSE_NO":"３號","E_COORD97":173435.95000000001,"N_COORD97":2541096.2599999998,"ADDRESS":"仁義三街３４巷３號","OBJECTID":246031},"geometry":{"x":173435.95000000019,"y":2541096.2600000035}},{"attributes":{"ID":246036,"DIS_CODE":0,"TOWNNAME":"仁德區","LI":"仁義里","LIN":"53鄰","STREET":"仁義三街","SECT":" ","MAREA":" ","LANE":"３４巷","ALLEY":" ","HOUSE_NO":"２９號","E_COORD97":173517.14999999999,"N_COORD97":2541097.7599999998,"ADDRESS":"仁義三街３４巷２９號","OBJECTID":246032},"geometry":{"x":173517.1500000013,"y":2541097.7600000016}},{"attributes":{"ID":246037,"DIS_CODE":0,"TOWNNAME":"仁德區","LI":"仁義里","LIN":"53鄰","STREET":"仁義三街","SECT":" ","MAREA":" ","LANE":"３４巷","ALLEY":" ","HOUSE_NO":"１號","E_COORD97":173431.78,"N_COORD97":2541096.2599999998,"ADDRESS":"仁義三街３４巷１號","OBJECTID":246033},"geometry":{"x":173431.78000000119,"y":2541096.2600000035}},{"attributes":{"ID":246038,"DIS_CODE":0,"TOWNNAME":"新營區","LI":"民榮里","LIN":" ","STREET":"裕民路","SECT":" ","MAREA":" ","LANE":"５８巷","ALLEY":" ","HOUSE_NO":"４２之３號","E_COORD97":179021.12,"N_COORD97":2577853.1600000001,"ADDRESS":"裕民路５８巷４２之３號","OBJECTID":246034},"geometry":{"x":179021.12000000197,"y":2577853.160000002}},{"attributes":{"ID":246039,"DIS_CODE":0,"TOWNNAME":"新營區","LI":"新東里","LIN":"5鄰","STREET":"東大街","SECT":" ","MAREA":" ","LANE":"５２巷","ALLEY":" ","HOUSE_NO":"３９號","E_COORD97":181115.51999999999,"N_COORD97":2579158.8700000001,"ADDRESS":"東大街５２巷３９號","OBJECTID":246035},"geometry":{"x":181115.52000000048,"y":2579158.8700000029}},{"attributes":{"ID":246040,"DIS_CODE":0,"TOWNNAME":"北區","LI":"實踐里","LIN":"13鄰","STREET":"長榮路","SECT":"五段","MAREA":" ","LANE":"２９８巷","ALLEY":" ","HOUSE_NO":"２５號","E_COORD97":169759.41,"N_COORD97":2546047.8700000001,"ADDRESS":"長榮路五段２９８巷２５號","OBJECTID":246036},"geometry":{"x":169759.41000000015,"y":2546047.8700000029}},{"attributes":{"ID":246041,"DIS_CODE":0,"TOWNNAME":"東區","LI":"路東里","LIN":"14鄰","STREET":"林森路","SECT":"一段","MAREA":" ","LANE":" ","ALLEY":" ","HOUSE_NO":"１３２號十五樓之７","E_COORD97":169417.22,"N_COORD97":2542428.8700000001,"ADDRESS":"林森路一段１３２號十五樓之７","OBJECTID":246037},"geometry":{"x":169417.22000000067,"y":2542428.870000001}},{"attributes":{"ID":246042,"DIS_CODE":0,"TOWNNAME":"東區","LI":"路東里","LIN":"14鄰","STREET":"林森路","SECT":"一段","MAREA":" ","LANE":" ","ALLEY":" ","HOUSE_NO":"１３２號十六樓之４","E_COORD97":169417.22,"N_COORD97":2542428.8700000001,"ADDRESS":"林森路一段１３２號十六樓之４","OBJECTID":246038},"geometry":{"x":169417.22000000067,"y":2542428.870000001}},{"attributes":{"ID":246043,"DIS_CODE":0,"TOWNNAME":"東區","LI":"路東里","LIN":"14鄰","STREET":"林森路","SECT":"一段","MAREA":" ","LANE":" ","ALLEY":" ","HOUSE_NO":"１３２號十六樓之５","E_COORD97":169417.22,"N_COORD97":2542428.8700000001,"ADDRESS":"林森路一段１３２號十六樓之５","OBJECTID":246039},"geometry":{"x":169417.22000000067,"y":2542428.870000001}},{"attributes":{"ID":246044,"DIS_CODE":0,"TOWNNAME":"東區","LI":"路東里","LIN":"14鄰","STREET":"林森路","SECT":"一段","MAREA":" ","LANE":" ","ALLEY":" ","HOUSE_NO":"１３２號十六樓之６","E_COORD97":169417.22,"N_COORD97":2542428.8700000001,"ADDRESS":"林森路一段１３２號十六樓之６","OBJECTID":246040},"geometry":{"x":169417.22000000067,"y":2542428.870000001}},{"attributes":{"ID":246045,"DIS_CODE":0,"TOWNNAME":"安南區","LI":"頂安里","LIN":"13鄰","STREET":"安中路","SECT":"一段","MAREA":" ","LANE":"３７９巷","ALLEY":" ","HOUSE_NO":"３７號","E_COORD97":168363.08139499999,"N_COORD97":2548662.27097,"ADDRESS":"安中路一段３７９巷３７號","OBJECTID":246041},"geometry":{"x":168363.08139500022,"y":2548662.2709710002}},{"attributes":{"ID":246046,"DIS_CODE":0,"TOWNNAME":"安南區","LI":"頂安里","LIN":"13鄰","STREET":"安中路","SECT":"一段","MAREA":" ","LANE":"３７９巷","ALLEY":" ","HOUSE_NO":"３９號","E_COORD97":168363.50530399999,"N_COORD97":2548658.4609699999,"ADDRESS":"安中路一段３７９巷３９號","OBJECTID":246042},"geometry":{"x":168363.50530400127,"y":2548658.460973002}},{"attributes":{"ID":246047,"DIS_CODE":0,"TOWNNAME":"安南區","LI":"頂安里","LIN":"13鄰","STREET":"安中路","SECT":"一段","MAREA":" ","LANE":"３７９巷","ALLEY":" ","HOUSE_NO":"４１號","E_COORD97":168363.929213,"N_COORD97":2548653.80431,"ADDRESS":"安中路一段３７９巷４１號","OBJECTID":246043},"geometry":{"x":168363.92921300046,"y":2548653.8043090012}},{"attributes":{"ID":246048,"DIS_CODE":0,"TOWNNAME":"安南區","LI":"頂安里","LIN":"13鄰","STREET":"安中二街","SECT":" ","MAREA":" ","LANE":"１１６巷","ALLEY":" ","HOUSE_NO":"１５號","E_COORD97":168474.35754699999,"N_COORD97":2548605.54434,"ADDRESS":"安中二街１１６巷１５號","OBJECTID":246044},"geometry":{"x":168474.35754700005,"y":2548605.5443350002}},{"attributes":{"ID":246049,"DIS_CODE":0,"TOWNNAME":"安南區","LI":"頂安里","LIN":"13鄰","STREET":"安中二街","SECT":" ","MAREA":" ","LANE":"１１６巷","ALLEY":" ","HOUSE_NO":"１號","E_COORD97":168444.68390599999,"N_COORD97":2548596.6543399999,"ADDRESS":"安中二街１１６巷１號","OBJECTID":246045},"geometry":{"x":168444.68390600104,"y":2548596.6543400008}},{"attributes":{"ID":246050,"DIS_CODE":0,"TOWNNAME":"新營區","LI":"民榮里","LIN":"32鄰","STREET":"太子路","SECT":" ","MAREA":" ","LANE":"５３巷","ALLEY":" ","HOUSE_NO":"２之２號","E_COORD97":178314.79000000001,"N_COORD97":2578004.96,"ADDRESS":"太子路５３巷２之２號","OBJECTID":246046},"geometry":{"x":178314.7900000019,"y":2578004.9600000028}},{"attributes":{"ID":246051,"DIS_CODE":0,"TOWNNAME":"安南區","LI":"頂安里","LIN":"13鄰","STREET":"安中二街","SECT":" ","MAREA":" ","LANE":"１１６巷","ALLEY":" ","HOUSE_NO":"１１號","E_COORD97":168465.24350000001,"N_COORD97":2548603.6393400002,"ADDRESS":"安中二街１１６巷１１號","OBJECTID":246047},"geometry":{"x":168465.24349999987,"y":2548603.6393360011}},{"attributes":{"ID":246052,"DIS_CODE":0,"TOWNNAME":"安南區","LI":"頂安里","LIN":"13鄰","STREET":"安中二街","SECT":" ","MAREA":" ","LANE":"１１６巷","ALLEY":" ","HOUSE_NO":"９號","E_COORD97":168460.79245400001,"N_COORD97":2548602.7926699999,"ADDRESS":"安中二街１１６巷９號","OBJECTID":246048},"geometry":{"x":168460.79245399963,"y":2548602.7926700041}},{"attributes":{"ID":246053,"DIS_CODE":0,"TOWNNAME":"安南區","LI":"頂安里","LIN":"13鄰","STREET":"安中二街","SECT":" ","MAREA":" ","LANE":"１１６巷","ALLEY":" ","HOUSE_NO":"７號","E_COORD97":168457.18922599999,"N_COORD97":2548600.8876700001,"ADDRESS":"安中二街１１６巷７號","OBJECTID":246049},"geometry":{"x":168457.18922599964,"y":2548600.8876709994}},{"attributes":{"ID":246054,"DIS_CODE":0,"TOWNNAME":"安南區","LI":"頂安里","LIN":"13鄰","STREET":"安中二街","SECT":" ","MAREA":" ","LANE":"１１６巷","ALLEY":" ","HOUSE_NO":"５號","E_COORD97":168452.73817999999,"N_COORD97":2548599.8293400002,"ADDRESS":"安中二街１１６巷５號","OBJECTID":246050},"geometry":{"x":168452.73818000127,"y":2548599.8293380011}},{"attributes":{"ID":246055,"DIS_CODE":0,"TOWNNAME":"安南區","LI":"頂安里","LIN":"13鄰","STREET":"安中二街","SECT":" ","MAREA":" ","LANE":"１１６巷","ALLEY":" ","HOUSE_NO":"３號","E_COORD97":168448.49908899999,"N_COORD97":2548598.34767,"ADDRESS":"安中二街１１６巷３號","OBJECTID":246051},"geometry":{"x":168448.49908899982,"y":2548598.3476729989}},{"attributes":{"ID":246056,"DIS_CODE":0,"TOWNNAME":"安南區","LI":"頂安里","LIN":"13鄰","STREET":"安中二街","SECT":" ","MAREA":" ","LANE":"１１６巷","ALLEY":" ","HOUSE_NO":"６號","E_COORD97":168456.76531700001,"N_COORD97":2548570.7251900001,"ADDRESS":"安中二街１１６巷６號","OBJECTID":246052},"geometry":{"x":168456.76531700045,"y":2548570.7251870017}},{"attributes":{"ID":246057,"DIS_CODE":0,"TOWNNAME":"安南區","LI":"頂安里","LIN":"13鄰","STREET":"安中二街","SECT":" ","MAREA":" ","LANE":"１１６巷","ALLEY":" ","HOUSE_NO":"８號","E_COORD97":168461.21636300001,"N_COORD97":2548570.9368500002,"ADDRESS":"安中二街１１６巷８號","OBJECTID":246053},"geometry":{"x":168461.21636300068,"y":2548570.936854003}},{"attributes":{"ID":246058,"DIS_CODE":0,"TOWNNAME":"安南區","LI":"頂安里","LIN":"13鄰","STREET":"安中二街","SECT":" ","MAREA":" ","LANE":"１１６巷","ALLEY":" ","HOUSE_NO":"１０號","E_COORD97":168465.66740899999,"N_COORD97":2548571.3601899999,"ADDRESS":"安中二街１１６巷１０號","OBJECTID":246054},"geometry":{"x":168465.66740900092,"y":2548571.3601870015}},{"attributes":{"ID":246059,"DIS_CODE":0,"TOWNNAME":"安南區","LI":"頂安里","LIN":"13鄰","STREET":"安中二街","SECT":" ","MAREA":" ","LANE":"１１６巷","ALLEY":" ","HOUSE_NO":"１２號","E_COORD97":168469.48259100001,"N_COORD97":2548571.7835200001,"ADDRESS":"安中二街１１６巷１２號","OBJECTID":246055},"geometry":{"x":168469.48259100225,"y":2548571.7835200001}},{"attributes":{"ID":246060,"DIS_CODE":0,"TOWNNAME":"安南區","LI":"頂安里","LIN":"13鄰","STREET":"安中二街","SECT":" ","MAREA":" ","LANE":"１１６巷","ALLEY":" ","HOUSE_NO":"１６號","E_COORD97":168473.93363799999,"N_COORD97":2548572.2068500002,"ADDRESS":"安中二街１１６巷１６號","OBJECTID":246056},"geometry":{"x":168473.93363800086,"y":2548572.2068530042}},{"attributes":{"ID":246061,"DIS_CODE":0,"TOWNNAME":"安南區","LI":"頂安里","LIN":"13鄰","STREET":"安中二街","SECT":" ","MAREA":" ","LANE":"１１６巷","ALLEY":" ","HOUSE_NO":"１８號","E_COORD97":168478.38468399999,"N_COORD97":2548572.2068500002,"ADDRESS":"安中二街１１６巷１８號","OBJECTID":246057},"geometry":{"x":168478.3846840011,"y":2548572.2068530042}},{"attributes":{"ID":246062,"DIS_CODE":0,"TOWNNAME":"安南區","LI":"頂安里","LIN":"13鄰","STREET":"安中二街","SECT":" ","MAREA":" ","LANE":"１１６巷","ALLEY":" ","HOUSE_NO":"２０號","E_COORD97":168481.77595700001,"N_COORD97":2548572.5243500001,"ADDRESS":"安中二街１１６巷２０號","OBJECTID":246058},"geometry":{"x":168481.77595700137,"y":2548572.5243530013}},{"attributes":{"ID":246063,"DIS_CODE":0,"TOWNNAME":"安南區","LI":"頂安里","LIN":"13鄰","STREET":"安中一街","SECT":" ","MAREA":" ","LANE":"８７巷","ALLEY":" ","HOUSE_NO":"２號","E_COORD97":168524.378826,"N_COORD97":2548574.5351800001,"ADDRESS":"安中一街８７巷２號","OBJECTID":246059},"geometry":{"x":168524.3788259998,"y":2548574.5351850018}},{"attributes":{"ID":246064,"DIS_CODE":0,"TOWNNAME":"安南區","LI":"頂安里","LIN":"13鄰","STREET":"安中一街","SECT":" ","MAREA":" ","LANE":"８７巷","ALLEY":" ","HOUSE_NO":"６號","E_COORD97":168519.92778,"N_COORD97":2548574.11185,"ADDRESS":"安中一街８７巷６號","OBJECTID":246060},"geometry":{"x":168519.92777999956,"y":2548574.1118519995}},{"attributes":{"ID":246065,"DIS_CODE":0,"TOWNNAME":"安南區","LI":"頂安里","LIN":"13鄰","STREET":"安中一街","SECT":" ","MAREA":" ","LANE":"８７巷","ALLEY":" ","HOUSE_NO":"１２號","E_COORD97":168507.42246,"N_COORD97":2548573.4768500002,"ADDRESS":"安中一街８７巷１２號","OBJECTID":246061},"geometry":{"x":168507.4224599991,"y":2548573.4768530037}},{"attributes":{"ID":246066,"DIS_CODE":0,"TOWNNAME":"安南區","LI":"頂安里","LIN":"13鄰","STREET":"安中一街","SECT":" ","MAREA":" ","LANE":"８７巷","ALLEY":" ","HOUSE_NO":"８號","E_COORD97":168515.476734,"N_COORD97":2548574.11185,"ADDRESS":"安中一街８７巷８號","OBJECTID":246062},"geometry":{"x":168515.47673399933,"y":2548574.1118519995}},{"attributes":{"ID":246067,"DIS_CODE":0,"TOWNNAME":"安南區","LI":"頂安里","LIN":"13鄰","STREET":"安中一街","SECT":" ","MAREA":" ","LANE":"８７巷","ALLEY":" ","HOUSE_NO":"１６號","E_COORD97":168503.395323,"N_COORD97":2548573.4768500002,"ADDRESS":"安中一街８７巷１６號","OBJECTID":246063},"geometry":{"x":168503.39532300085,"y":2548573.4768530037}},{"attributes":{"ID":246068,"DIS_CODE":0,"TOWNNAME":"安南區","LI":"頂安里","LIN":"13鄰","STREET":"安中一街","SECT":" ","MAREA":" ","LANE":"８７巷","ALLEY":" ","HOUSE_NO":"１８號","E_COORD97":168499.15623200001,"N_COORD97":2548573.1593499999,"ADDRESS":"安中一街８７巷１８號","OBJECTID":246064},"geometry":{"x":168499.15623200033,"y":2548573.159353001}},{"attributes":{"ID":246069,"DIS_CODE":0,"TOWNNAME":"安南區","LI":"頂安里","LIN":"13鄰","STREET":"安中一街","SECT":" ","MAREA":" ","LANE":"８７巷","ALLEY":" ","HOUSE_NO":"２０號","E_COORD97":168494.91714000001,"N_COORD97":2548572.9476899998,"ADDRESS":"安中一街８７巷２０號","OBJECTID":246065},"geometry":{"x":168494.91713999957,"y":2548572.9476859998}},{"attributes":{"ID":246070,"DIS_CODE":0,"TOWNNAME":"安南區","LI":"頂安里","LIN":"13鄰","STREET":"安中一街","SECT":" ","MAREA":" ","LANE":"８７巷","ALLEY":" ","HOUSE_NO":"２２號","E_COORD97":168490.67804900001,"N_COORD97":2548572.7360200002,"ADDRESS":"安中一街８７巷２２號","OBJECTID":246066},"geometry":{"x":168490.67804900184,"y":2548572.7360200025}},{"attributes":{"ID":246071,"DIS_CODE":0,"TOWNNAME":"安南區","LI":"頂安里","LIN":"13鄰","STREET":"安中一街","SECT":" ","MAREA":" ","LANE":"８７巷","ALLEY":" ","HOUSE_NO":"２６號","E_COORD97":168486.65091200001,"N_COORD97":2548572.9476899998,"ADDRESS":"安中一街８７巷２６號","OBJECTID":246067},"geometry":{"x":168486.6509120008,"y":2548572.9476859998}},{"attributes":{"ID":246072,"DIS_CODE":0,"TOWNNAME":"安南區","LI":"頂安里","LIN":"13鄰","STREET":"安中一街","SECT":" ","MAREA":" ","LANE":"８７巷","ALLEY":" ","HOUSE_NO":"１號","E_COORD97":168530.10159999999,"N_COORD97":2548555.3793600001,"ADDRESS":"安中一街８７巷１號","OBJECTID":246068},"geometry":{"x":168530.10160000063,"y":2548555.3793620002}},{"attributes":{"ID":246073,"DIS_CODE":0,"TOWNNAME":"安南區","LI":"頂安里","LIN":"13鄰","STREET":"安中一街","SECT":" ","MAREA":" ","LANE":"８７巷","ALLEY":" ","HOUSE_NO":"３號","E_COORD97":168525.86250799999,"N_COORD97":2548555.1677000001,"ADDRESS":"安中一街８７巷３號","OBJECTID":246069},"geometry":{"x":168525.86250799894,"y":2548555.1676960029}},{"attributes":{"ID":246074,"DIS_CODE":0,"TOWNNAME":"安南區","LI":"頂安里","LIN":"13鄰","STREET":"安中一街","SECT":" ","MAREA":" ","LANE":"８７巷","ALLEY":" ","HOUSE_NO":"５號","E_COORD97":168521.623417,"N_COORD97":2548554.7443599999,"ADDRESS":"安中一街８７巷５號","OBJECTID":246070},"geometry":{"x":168521.62341700122,"y":2548554.7443630043}},{"attributes":{"ID":246075,"DIS_CODE":0,"TOWNNAME":"安南區","LI":"頂安里","LIN":"13鄰","STREET":"安中一街","SECT":" ","MAREA":" ","LANE":"８７巷","ALLEY":" ","HOUSE_NO":"７號","E_COORD97":168517.59628,"N_COORD97":2548554.0035299999,"ADDRESS":"安中一街８７巷７號","OBJECTID":246071},"geometry":{"x":168517.59628000017,"y":2548554.0035299994}},{"attributes":{"ID":246076,"DIS_CODE":0,"TOWNNAME":"安南區","LI":"頂安里","LIN":"13鄰","STREET":"安中一街","SECT":" ","MAREA":" ","LANE":"８７巷","ALLEY":" ","HOUSE_NO":"１１號","E_COORD97":168509.542006,"N_COORD97":2548553.3685300001,"ADDRESS":"安中一街８７巷１１號","OBJECTID":246072},"geometry":{"x":168509.54200599995,"y":2548553.3685299996}},{"attributes":{"ID":246077,"DIS_CODE":0,"TOWNNAME":"安南區","LI":"頂安里","LIN":"13鄰","STREET":"安中一街","SECT":" ","MAREA":" ","LANE":"８７巷","ALLEY":" ","HOUSE_NO":"１３號","E_COORD97":168505.09096,"N_COORD97":2548553.15686,"ADDRESS":"安中一街８７巷１３號","OBJECTID":246073},"geometry":{"x":168505.09095999971,"y":2548553.1568640023}},{"attributes":{"ID":246078,"DIS_CODE":0,"TOWNNAME":"安南區","LI":"頂安里","LIN":"13鄰","STREET":"安中一街","SECT":" ","MAREA":" ","LANE":"８７巷","ALLEY":" ","HOUSE_NO":"１５號","E_COORD97":168501.27577800001,"N_COORD97":2548552.9452,"ADDRESS":"安中一街８７巷１５號","OBJECTID":246074},"geometry":{"x":168501.27577800117,"y":2548552.9451970011}},{"attributes":{"ID":246079,"DIS_CODE":0,"TOWNNAME":"永康區","LI":"神洲里","LIN":"11鄰","STREET":"忠孝路","SECT":" ","MAREA":" ","LANE":"１５２巷","ALLEY":" ","HOUSE_NO":"４４號","E_COORD97":172276.51999999999,"N_COORD97":2545070.8999999999,"ADDRESS":"忠孝路１５２巷４４號","OBJECTID":246075},"geometry":{"x":172276.52000000048,"y":2545070.9000000022}},{"attributes":{"ID":246080,"DIS_CODE":0,"TOWNNAME":"西港區","LI":"劉厝里","LIN":"11鄰","STREET":" ","SECT":" ","MAREA":"劉厝","LANE":" ","ALLEY":" ","HOUSE_NO":"８１號","E_COORD97":165939.59,"N_COORD97":2558823.5899999999,"ADDRESS":"劉厝８１號","OBJECTID":246076},"geometry":{"x":165939.59000000078,"y":2558823.5900000017}},{"attributes":{"ID":246081,"DIS_CODE":0,"TOWNNAME":"東區","LI":"路東里","LIN":"14鄰","STREET":"林森路","SECT":"一段","MAREA":" ","LANE":" ","ALLEY":" ","HOUSE_NO":"１３２號十六樓之７","E_COORD97":169417.22,"N_COORD97":2542428.8700000001,"ADDRESS":"林森路一段１３２號十六樓之７","OBJECTID":246077},"geometry":{"x":169417.22000000067,"y":2542428.870000001}},{"attributes":{"ID":246082,"DIS_CODE":0,"TOWNNAME":"永康區","LI":"埔園里","LIN":"11鄰","STREET":"中山路","SECT":" ","MAREA":" ","LANE":"１７１巷","ALLEY":" ","HOUSE_NO":"１號","E_COORD97":173686.04000000001,"N_COORD97":2547972.25,"ADDRESS":"中山路１７１巷１號","OBJECTID":246078},"geometry":{"x":173686.04000000004,"y":2547972.2500000037}},{"attributes":{"ID":246083,"DIS_CODE":0,"TOWNNAME":"永康區","LI":"埔園里","LIN":"11鄰","STREET":"中山路","SECT":" ","MAREA":" ","LANE":"１５５巷","ALLEY":" ","HOUSE_NO":"２號","E_COORD97":173686.14999999999,"N_COORD97":2547945.2400000002,"ADDRESS":"中山路１５５巷２號","OBJECTID":246079},"geometry":{"x":173686.15000000037,"y":2547945.2400000002}},{"attributes":{"ID":246084,"DIS_CODE":0,"TOWNNAME":"永康區","LI":"東橋里","LIN":"11鄰","STREET":"中山南路","SECT":" ","MAREA":" ","LANE":"２３１巷","ALLEY":" ","HOUSE_NO":"２５號","E_COORD97":171605.04999999999,"N_COORD97":2546270.6499999999,"ADDRESS":"中山南路２３１巷２５號","OBJECTID":246080},"geometry":{"x":171605.05000000075,"y":2546270.6500000004}},{"attributes":{"ID":246085,"DIS_CODE":0,"TOWNNAME":"安南區","LI":"頂安里","LIN":"13鄰","STREET":"安中一街","SECT":" ","MAREA":" ","LANE":"８７巷","ALLEY":" ","HOUSE_NO":"１７號","E_COORD97":168496.82473200001,"N_COORD97":2548552.0985300001,"ADDRESS":"安中一街８７巷１７號","OBJECTID":246081},"geometry":{"x":168496.82473200094,"y":2548552.098531004}},{"attributes":{"ID":246086,"DIS_CODE":0,"TOWNNAME":"安南區","LI":"頂安里","LIN":"13鄰","STREET":"安中一街","SECT":" ","MAREA":" ","LANE":"８７巷","ALLEY":" ","HOUSE_NO":"１９號","E_COORD97":168492.79759500001,"N_COORD97":2548552.3102000002,"ADDRESS":"安中一街８７巷１９號","OBJECTID":246082},"geometry":{"x":168492.79759499989,"y":2548552.3101970013}},{"attributes":{"ID":246087,"DIS_CODE":0,"TOWNNAME":"安南區","LI":"頂安里","LIN":"13鄰","STREET":"安中一街","SECT":" ","MAREA":" ","LANE":"８７巷","ALLEY":" ","HOUSE_NO":"２１號","E_COORD97":168488.55850300001,"N_COORD97":2548551.4635299998,"ADDRESS":"安中一街８７巷２１號","OBJECTID":246083},"geometry":{"x":168488.558503001,"y":2548551.4635309987}},{"attributes":{"ID":246088,"DIS_CODE":0,"TOWNNAME":"安南區","LI":"頂安里","LIN":"13鄰","STREET":"安中一街","SECT":" ","MAREA":" ","LANE":"８７巷","ALLEY":" ","HOUSE_NO":"２３號","E_COORD97":168484.31941200001,"N_COORD97":2548551.2518699998,"ADDRESS":"安中一街８７巷２３號","OBJECTID":246084},"geometry":{"x":168484.31941200048,"y":2548551.2518650014}},{"attributes":{"ID":246089,"DIS_CODE":0,"TOWNNAME":"安南區","LI":"頂安里","LIN":"13鄰","STREET":"安中一街","SECT":" ","MAREA":" ","LANE":"８７巷","ALLEY":" ","HOUSE_NO":"２５號","E_COORD97":168480.29227500001,"N_COORD97":2548550.4051999999,"ADDRESS":"安中一街８７巷２５號","OBJECTID":246085},"geometry":{"x":168480.29227500223,"y":2548550.4051980022}},{"attributes":{"ID":246090,"DIS_CODE":0,"TOWNNAME":"安南區","LI":"頂安里","LIN":"13鄰","STREET":"安中一街","SECT":" ","MAREA":" ","LANE":"８７巷","ALLEY":" ","HOUSE_NO":"２９號","E_COORD97":168471.39018300001,"N_COORD97":2548550.4051999999,"ADDRESS":"安中一街８７巷２９號","OBJECTID":246086},"geometry":{"x":168471.39018299896,"y":2548550.4051980022}},{"attributes":{"ID":246091,"DIS_CODE":0,"TOWNNAME":"安南區","LI":"頂安里","LIN":"13鄰","STREET":"安中一街","SECT":" ","MAREA":" ","LANE":"８７巷","ALLEY":" ","HOUSE_NO":"３１號","E_COORD97":168467.99890899999,"N_COORD97":2548549.7702000001,"ADDRESS":"安中一街８７巷３１號","OBJECTID":246087},"geometry":{"x":168467.99890900031,"y":2548549.7701990008}},{"attributes":{"ID":246092,"DIS_CODE":0,"TOWNNAME":"安南區","LI":"頂安里","LIN":"13鄰","STREET":"安中一街","SECT":" ","MAREA":" ","LANE":"８７巷","ALLEY":" ","HOUSE_NO":"３３號","E_COORD97":168463.75981799999,"N_COORD97":2548548.9235299998,"ADDRESS":"安中一街８７巷３３號","OBJECTID":246088},"geometry":{"x":168463.75981800072,"y":2548548.9235330001}},{"attributes":{"ID":246093,"DIS_CODE":0,"TOWNNAME":"安南區","LI":"頂安里","LIN":"13鄰","STREET":"安中一街","SECT":" ","MAREA":" ","LANE":"８７巷","ALLEY":" ","HOUSE_NO":"３５號","E_COORD97":168459.73268099999,"N_COORD97":2548549.34687,"ADDRESS":"安中一街８７巷３５號","OBJECTID":246089},"geometry":{"x":168459.73268099874,"y":2548549.3468660023}},{"attributes":{"ID":246094,"DIS_CODE":0,"TOWNNAME":"安南區","LI":"頂安里","LIN":"13鄰","STREET":"安中一街","SECT":" ","MAREA":" ","LANE":"７７巷","ALLEY":" ","HOUSE_NO":"２號","E_COORD97":168538.20009500001,"N_COORD97":2548533.26021,"ADDRESS":"安中一街７７巷２號","OBJECTID":246090},"geometry":{"x":168538.20009499975,"y":2548533.2602079995}},{"attributes":{"ID":246095,"DIS_CODE":0,"TOWNNAME":"安南區","LI":"頂安里","LIN":"13鄰","STREET":"安中一街","SECT":" ","MAREA":" ","LANE":"７７巷","ALLEY":" ","HOUSE_NO":"６號","E_COORD97":168534.17295800001,"N_COORD97":2548533.0485399999,"ADDRESS":"安中一街７７巷６號","OBJECTID":246091},"geometry":{"x":168534.17295800056,"y":2548533.048541002}},{"attributes":{"ID":246096,"DIS_CODE":0,"TOWNNAME":"安南區","LI":"頂安里","LIN":"13鄰","STREET":"安中一街","SECT":" ","MAREA":" ","LANE":"７７巷","ALLEY":" ","HOUSE_NO":"８號","E_COORD97":168530.14582100001,"N_COORD97":2548532.6252100002,"ADDRESS":"安中一街７７巷８號","OBJECTID":246092},"geometry":{"x":168530.14582100231,"y":2548532.6252079997}},{"attributes":{"ID":246097,"DIS_CODE":0,"TOWNNAME":"安南區","LI":"頂安里","LIN":"13鄰","STREET":"安中一街","SECT":" ","MAREA":" ","LANE":"７７巷","ALLEY":" ","HOUSE_NO":"１０號","E_COORD97":168526.33063800001,"N_COORD97":2548532.20187,"ADDRESS":"安中一街７７巷１０號","OBJECTID":246093},"geometry":{"x":168526.33063799981,"y":2548532.2018750012}},{"attributes":{"ID":246098,"DIS_CODE":0,"TOWNNAME":"安南區","LI":"頂安里","LIN":"13鄰","STREET":"安中一街","SECT":" ","MAREA":" ","LANE":"７７巷","ALLEY":" ","HOUSE_NO":"１２號","E_COORD97":168522.09154699999,"N_COORD97":2548531.7785399999,"ADDRESS":"安中一街７７巷１２號","OBJECTID":246094},"geometry":{"x":168522.09154700208,"y":2548531.7785420027}},{"attributes":{"ID":246099,"DIS_CODE":0,"TOWNNAME":"安南區","LI":"頂安里","LIN":"13鄰","STREET":"安中一街","SECT":" ","MAREA":" ","LANE":"７７巷","ALLEY":" ","HOUSE_NO":"１６號","E_COORD97":168517.64050099999,"N_COORD97":2548531.5668799998,"ADDRESS":"安中一街７７巷１６號","OBJECTID":246095},"geometry":{"x":168517.64050100185,"y":2548531.5668750014}},{"attributes":{"ID":246100,"DIS_CODE":0,"TOWNNAME":"安南區","LI":"頂安里","LIN":"13鄰","STREET":"安中一街","SECT":" ","MAREA":" ","LANE":"７７巷","ALLEY":" ","HOUSE_NO":"２０號","E_COORD97":168509.37427299999,"N_COORD97":2548530.6143800002,"ADDRESS":"安中一街７７巷２０號","OBJECTID":246096},"geometry":{"x":168509.37427300029,"y":2548530.6143760029}},{"attributes":{"ID":246101,"DIS_CODE":0,"TOWNNAME":"安南區","LI":"頂安里","LIN":"13鄰","STREET":"安中一街","SECT":" ","MAREA":" ","LANE":"７７巷","ALLEY":" ","HOUSE_NO":"２２號","E_COORD97":168505.13518099999,"N_COORD97":2548530.1910399999,"ADDRESS":"安中一街７７巷２２號","OBJECTID":246097},"geometry":{"x":168505.13518100139,"y":2548530.1910430007}},{"attributes":{"ID":246102,"DIS_CODE":0,"TOWNNAME":"安南區","LI":"頂安里","LIN":"13鄰","STREET":"安中一街","SECT":" ","MAREA":" ","LANE":"７７巷","ALLEY":" ","HOUSE_NO":"２６號","E_COORD97":168500.89608999999,"N_COORD97":2548529.7677099998,"ADDRESS":"安中一街７７巷２６號","OBJECTID":246098},"geometry":{"x":168500.8960900018,"y":2548529.7677100021}},{"attributes":{"ID":246103,"DIS_CODE":0,"TOWNNAME":"安南區","LI":"頂安里","LIN":"13鄰","STREET":"安中一街","SECT":" ","MAREA":" ","LANE":"７７巷","ALLEY":" ","HOUSE_NO":"２８號","E_COORD97":168497.080907,"N_COORD97":2548530.1910399999,"ADDRESS":"安中一街７７巷２８號","OBJECTID":246099},"geometry":{"x":168497.08090700116,"y":2548530.1910430007}},{"attributes":{"ID":246104,"DIS_CODE":0,"TOWNNAME":"安南區","LI":"頂安里","LIN":"13鄰","STREET":"安中一街","SECT":" ","MAREA":" ","LANE":"７７巷","ALLEY":" ","HOUSE_NO":"３０號","E_COORD97":168492.841816,"N_COORD97":2548529.9793799999,"ADDRESS":"安中一街７７巷３０號","OBJECTID":246100},"geometry":{"x":168492.84181600157,"y":2548529.9793759994}},{"attributes":{"ID":246105,"DIS_CODE":0,"TOWNNAME":"安南區","LI":"頂安里","LIN":"13鄰","STREET":"安中一街","SECT":" ","MAREA":" ","LANE":"７７巷","ALLEY":" ","HOUSE_NO":"３２號","E_COORD97":168488.602724,"N_COORD97":2548529.5560400002,"ADDRESS":"安中一街７７巷３２號","OBJECTID":246101},"geometry":{"x":168488.60272399988,"y":2548529.5560430009}},{"attributes":{"ID":246106,"DIS_CODE":0,"TOWNNAME":"安南區","LI":"頂安里","LIN":"13鄰","STREET":"安中一街","SECT":" ","MAREA":" ","LANE":"７７巷","ALLEY":" ","HOUSE_NO":"３６號","E_COORD97":168484.15167799999,"N_COORD97":2548528.9210399999,"ADDRESS":"安中一街７７巷３６號","OBJECTID":246102},"geometry":{"x":168484.15167799965,"y":2548528.9210430011}},{"attributes":{"ID":246107,"DIS_CODE":0,"TOWNNAME":"安南區","LI":"頂安里","LIN":"13鄰","STREET":"安中一街","SECT":" ","MAREA":" ","LANE":"７７巷","ALLEY":" ","HOUSE_NO":"３８號","E_COORD97":168480.336496,"N_COORD97":2548528.9210399999,"ADDRESS":"安中一街７７巷３８號","OBJECTID":246103},"geometry":{"x":168480.33649600111,"y":2548528.9210430011}},{"attributes":{"ID":246108,"DIS_CODE":0,"TOWNNAME":"東區","LI":"路東里","LIN":"14鄰","STREET":"林森路","SECT":"一段","MAREA":" ","LANE":" ","ALLEY":" ","HOUSE_NO":"１３２號十四樓之１０","E_COORD97":169417.22,"N_COORD97":2542428.8700000001,"ADDRESS":"林森路一段１３２號十四樓之１０","OBJECTID":246104},"geometry":{"x":169417.22000000067,"y":2542428.870000001}},{"attributes":{"ID":246109,"DIS_CODE":0,"TOWNNAME":"東區","LI":"路東里","LIN":"14鄰","STREET":"林森路","SECT":"一段","MAREA":" ","LANE":" ","ALLEY":" ","HOUSE_NO":"１３２號十四樓之５","E_COORD97":169417.22,"N_COORD97":2542428.8700000001,"ADDRESS":"林森路一段１３２號十四樓之５","OBJECTID":246105},"geometry":{"x":169417.22000000067,"y":2542428.870000001}},{"attributes":{"ID":246110,"DIS_CODE":0,"TOWNNAME":"東區","LI":"路東里","LIN":"14鄰","STREET":"林森路","SECT":"一段","MAREA":" ","LANE":" ","ALLEY":" ","HOUSE_NO":"１３２號十四樓之６","E_COORD97":169417.22,"N_COORD97":2542428.8700000001,"ADDRESS":"林森路一段１３２號十四樓之６","OBJECTID":246106},"geometry":{"x":169417.22000000067,"y":2542428.870000001}},{"attributes":{"ID":246111,"DIS_CODE":0,"TOWNNAME":"山上區","LI":"南洲里","LIN":"11鄰","STREET":" ","SECT":" ","MAREA":"南洲","LANE":" ","ALLEY":" ","HOUSE_NO":"２７３號","E_COORD97":183600.73999999999,"N_COORD97":2555577.25,"ADDRESS":"南洲２７３號","OBJECTID":246107},"geometry":{"x":183600.73999999929,"y":2555577.2500000019}},{"attributes":{"ID":246112,"DIS_CODE":0,"TOWNNAME":"安南區","LI":"學東里","LIN":"11鄰","STREET":"公學路","SECT":"六段","MAREA":" ","LANE":"７２０巷","ALLEY":" ","HOUSE_NO":"２２號","E_COORD97":162092.22,"N_COORD97":2553368.23,"ADDRESS":"公學路六段７２０巷２２號","OBJECTID":246108},"geometry":{"x":162092.22000000067,"y":2553368.2300000023}},{"attributes":{"ID":246113,"DIS_CODE":0,"TOWNNAME":"安南區","LI":"學東里","LIN":"11鄰","STREET":"公學路","SECT":"六段","MAREA":" ","LANE":"７２１巷","ALLEY":" ","HOUSE_NO":"２１號","E_COORD97":162052.42999999999,"N_COORD97":2553229.6600000001,"ADDRESS":"公學路六段７２１巷２１號","OBJECTID":246109},"geometry":{"x":162052.4299999997,"y":2553229.660000002}},{"attributes":{"ID":246114,"DIS_CODE":0,"TOWNNAME":"安南區","LI":"城東里","LIN":"11鄰","STREET":"城北路","SECT":" ","MAREA":" ","LANE":"２６８巷","ALLEY":" ","HOUSE_NO":"２９號","E_COORD97":161016.87,"N_COORD97":2551959.4700000002,"ADDRESS":"城北路２６８巷２９號","OBJECTID":246110},"geometry":{"x":161016.87000000104,"y":2551959.4700000025}},{"attributes":{"ID":246115,"DIS_CODE":0,"TOWNNAME":"安南區","LI":"城東里","LIN":"11鄰","STREET":"城北路","SECT":" ","MAREA":" ","LANE":"２６８巷","ALLEY":" ","HOUSE_NO":"３１號","E_COORD97":161021.41,"N_COORD97":2551959.1699999999,"ADDRESS":"城北路２６８巷３１號","OBJECTID":246111},"geometry":{"x":161021.41000000201,"y":2551959.1699999999}},{"attributes":{"ID":246116,"DIS_CODE":0,"TOWNNAME":"安南區","LI":"城東里","LIN":"11鄰","STREET":"城北路","SECT":" ","MAREA":" ","LANE":"２６８巷","ALLEY":" ","HOUSE_NO":"３３號","E_COORD97":161026.35000000001,"N_COORD97":2551958.8799999999,"ADDRESS":"城北路２６８巷３３號","OBJECTID":246112},"geometry":{"x":161026.35000000149,"y":2551958.8800000008}},{"attributes":{"ID":246117,"DIS_CODE":0,"TOWNNAME":"安南區","LI":"城東里","LIN":"11鄰","STREET":"城北路","SECT":" ","MAREA":" ","LANE":"２６８巷","ALLEY":" ","HOUSE_NO":"３７號","E_COORD97":161034.72,"N_COORD97":2551958.5800000001,"ADDRESS":"城北路２６８巷３７號","OBJECTID":246113},"geometry":{"x":161034.72000000067,"y":2551958.5800000019}},{"attributes":{"ID":246118,"DIS_CODE":0,"TOWNNAME":"安南區","LI":"城東里","LIN":"11鄰","STREET":"城北路","SECT":" ","MAREA":" ","LANE":"２６８巷","ALLEY":" ","HOUSE_NO":"３９號","E_COORD97":161039.79999999999,"N_COORD97":2551958.2799999998,"ADDRESS":"城北路２６８巷３９號","OBJECTID":246114},"geometry":{"x":161039.79999999981,"y":2551958.2799999975}},{"attributes":{"ID":246119,"DIS_CODE":0,"TOWNNAME":"安南區","LI":"城東里","LIN":"11鄰","STREET":"城北路","SECT":" ","MAREA":" ","LANE":"２６８巷","ALLEY":" ","HOUSE_NO":"４１號","E_COORD97":161043.82999999999,"N_COORD97":2551958.73,"ADDRESS":"城北路２６８巷４１號","OBJECTID":246115},"geometry":{"x":161043.83000000194,"y":2551958.7300000004}},{"attributes":{"ID":246120,"DIS_CODE":0,"TOWNNAME":"安南區","LI":"城東里","LIN":"11鄰","STREET":"城北路","SECT":" ","MAREA":" ","LANE":"２６８巷","ALLEY":" ","HOUSE_NO":"４３號","E_COORD97":161048.62,"N_COORD97":2551958.1299999999,"ADDRESS":"城北路２６８巷４３號","OBJECTID":246116},"geometry":{"x":161048.61999999918,"y":2551958.129999999}},{"attributes":{"ID":246121,"DIS_CODE":0,"TOWNNAME":"東區","LI":"路東里","LIN":"14鄰","STREET":"林森路","SECT":"一段","MAREA":" ","LANE":" ","ALLEY":" ","HOUSE_NO":"１３２號十四樓之７","E_COORD97":169417.22,"N_COORD97":2542428.8700000001,"ADDRESS":"林森路一段１３２號十四樓之７","OBJECTID":246117},"geometry":{"x":169417.22000000067,"y":2542428.870000001}},{"attributes":{"ID":246122,"DIS_CODE":0,"TOWNNAME":"東區","LI":"路東里","LIN":"14鄰","STREET":"林森路","SECT":"一段","MAREA":" ","LANE":" ","ALLEY":" ","HOUSE_NO":"１３２號十四樓之８","E_COORD97":169417.22,"N_COORD97":2542428.8700000001,"ADDRESS":"林森路一段１３２號十四樓之８","OBJECTID":246118},"geometry":{"x":169417.22000000067,"y":2542428.870000001}},{"attributes":{"ID":246123,"DIS_CODE":0,"TOWNNAME":"山上區","LI":"南洲里","LIN":"11鄰","STREET":" ","SECT":" ","MAREA":"南洲","LANE":" ","ALLEY":" ","HOUSE_NO":"２６６號","E_COORD97":183671.04000000001,"N_COORD97":2555569.25,"ADDRESS":"南洲２６６號","OBJECTID":246119},"geometry":{"x":183671.04000000004,"y":2555569.25}},{"attributes":{"ID":246124,"DIS_CODE":0,"TOWNNAME":"新市區","LI":"豐華里","LIN":"11鄰","STREET":" ","SECT":" ","MAREA":"豐華","LANE":" ","ALLEY":" ","HOUSE_NO":"４７之１０１號","E_COORD97":174235.57000000001,"N_COORD97":2554515.7999999998,"ADDRESS":"豐華４７之１０１號","OBJECTID":246120},"geometry":{"x":174235.5700000003,"y":2554515.8000000007}},{"attributes":{"ID":246125,"DIS_CODE":0,"TOWNNAME":"東區","LI":"路東里","LIN":"14鄰","STREET":"林森路","SECT":"一段","MAREA":" ","LANE":" ","ALLEY":" ","HOUSE_NO":"１３２號十四樓之９","E_COORD97":169417.22,"N_COORD97":2542428.8700000001,"ADDRESS":"林森路一段１３２號十四樓之９","OBJECTID":246121},"geometry":{"x":169417.22000000067,"y":2542428.870000001}},{"attributes":{"ID":246126,"DIS_CODE":0,"TOWNNAME":"安南區","LI":"頂安里","LIN":"13鄰","STREET":"安中一街","SECT":" ","MAREA":" ","LANE":"７７巷","ALLEY":" ","HOUSE_NO":"４６號","E_COORD97":168467.195312,"N_COORD97":2548528.2860400002,"ADDRESS":"安中一街７７巷４６號","OBJECTID":246122},"geometry":{"x":168467.19531200174,"y":2548528.2860440016}},{"attributes":{"ID":246127,"DIS_CODE":0,"TOWNNAME":"安南區","LI":"頂安里","LIN":"13鄰","STREET":"安中一街","SECT":" ","MAREA":" ","LANE":"７７巷","ALLEY":" ","HOUSE_NO":"１號","E_COORD97":168544.98264100001,"N_COORD97":2548520.8777100001,"ADDRESS":"安中一街７７巷１號","OBJECTID":246123},"geometry":{"x":168544.98264100216,"y":2548520.8777139988}},{"attributes":{"ID":246128,"DIS_CODE":0,"TOWNNAME":"安南區","LI":"頂安里","LIN":"13鄰","STREET":"安中一街","SECT":" ","MAREA":" ","LANE":"７７巷","ALLEY":" ","HOUSE_NO":"３號","E_COORD97":168539.683777,"N_COORD97":2548520.24272,"ADDRESS":"安中一街７７巷３號","OBJECTID":246124},"geometry":{"x":168539.68377700169,"y":2548520.242715003}},{"attributes":{"ID":246129,"DIS_CODE":0,"TOWNNAME":"安南區","LI":"頂安里","LIN":"13鄰","STREET":"安中一街","SECT":" ","MAREA":" ","LANE":"７７巷","ALLEY":" ","HOUSE_NO":"７號","E_COORD97":168531.417548,"N_COORD97":2548519.6077100001,"ADDRESS":"安中一街７７巷７號","OBJECTID":246125},"geometry":{"x":168531.41754800081,"y":2548519.6077149995}},{"attributes":{"ID":246130,"DIS_CODE":0,"TOWNNAME":"安南區","LI":"頂安里","LIN":"13鄰","STREET":"安中一街","SECT":" ","MAREA":" ","LANE":"７７巷","ALLEY":" ","HOUSE_NO":"９號","E_COORD97":168526.966502,"N_COORD97":2548518.97272,"ADDRESS":"安中一街７７巷９號","OBJECTID":246126},"geometry":{"x":168526.96650200058,"y":2548518.9727149997}},{"attributes":{"ID":246131,"DIS_CODE":0,"TOWNNAME":"安南區","LI":"頂安里","LIN":"13鄰","STREET":"安中一街","SECT":" ","MAREA":" ","LANE":"７７巷","ALLEY":" ","HOUSE_NO":"１１號","E_COORD97":168523.363274,"N_COORD97":2548519.3960500001,"ADDRESS":"安中一街７７巷１１號","OBJECTID":246127},"geometry":{"x":168523.36327400059,"y":2548519.3960490022}},{"attributes":{"ID":246132,"DIS_CODE":0,"TOWNNAME":"安南區","LI":"頂安里","LIN":"13鄰","STREET":"安中一街","SECT":" ","MAREA":" ","LANE":"７７巷","ALLEY":" ","HOUSE_NO":"１３號","E_COORD97":168519.12418300001,"N_COORD97":2548518.7610499999,"ADDRESS":"安中一街７７巷１３號","OBJECTID":246128},"geometry":{"x":168519.124183001,"y":2548518.7610490024}},{"attributes":{"ID":246133,"DIS_CODE":0,"TOWNNAME":"安南區","LI":"頂安里","LIN":"13鄰","STREET":"安中一街","SECT":" ","MAREA":" ","LANE":"７７巷","ALLEY":" ","HOUSE_NO":"１５號","E_COORD97":168514.67313700001,"N_COORD97":2548518.1260500001,"ADDRESS":"安中一街７７巷１５號","OBJECTID":246129},"geometry":{"x":168514.67313700076,"y":2548518.1260490026}},{"attributes":{"ID":246134,"DIS_CODE":0,"TOWNNAME":"安南區","LI":"頂安里","LIN":"13鄰","STREET":"安中一街","SECT":" ","MAREA":" ","LANE":"７７巷","ALLEY":" ","HOUSE_NO":"１７號","E_COORD97":168510.85795500001,"N_COORD97":2548517.7027199999,"ADDRESS":"安中一街７７巷１７號","OBJECTID":246130},"geometry":{"x":168510.85795499943,"y":2548517.7027160004}},{"attributes":{"ID":246135,"DIS_CODE":0,"TOWNNAME":"安南區","LI":"頂安里","LIN":"13鄰","STREET":"安中一街","SECT":" ","MAREA":" ","LANE":"７７巷","ALLEY":" ","HOUSE_NO":"１９號","E_COORD97":168506.61886300001,"N_COORD97":2548517.4910499998,"ADDRESS":"安中一街７７巷１９號","OBJECTID":246131},"geometry":{"x":168506.61886300053,"y":2548517.4910500031}},{"attributes":{"ID":246136,"DIS_CODE":0,"TOWNNAME":"安南區","LI":"頂安里","LIN":"13鄰","STREET":"安中一街","SECT":" ","MAREA":" ","LANE":"７７巷","ALLEY":" ","HOUSE_NO":"２１號","E_COORD97":168502.16781700001,"N_COORD97":2548517.0677200002,"ADDRESS":"安中一街７７巷２１號","OBJECTID":246132},"geometry":{"x":168502.1678170003,"y":2548517.0677160006}},{"attributes":{"ID":246137,"DIS_CODE":0,"TOWNNAME":"安南區","LI":"頂安里","LIN":"13鄰","STREET":"安中一街","SECT":" ","MAREA":" ","LANE":"７７巷","ALLEY":" ","HOUSE_NO":"２３號","E_COORD97":168498.14068000001,"N_COORD97":2548516.64438,"ADDRESS":"安中一街７７巷２３號","OBJECTID":246133},"geometry":{"x":168498.14068000112,"y":2548516.6443830021}},{"attributes":{"ID":246138,"DIS_CODE":0,"TOWNNAME":"東區","LI":"路東里","LIN":"14鄰","STREET":"林森路","SECT":"一段","MAREA":" ","LANE":" ","ALLEY":" ","HOUSE_NO":"１３２號十樓之１０","E_COORD97":169417.22,"N_COORD97":2542428.8700000001,"ADDRESS":"林森路一段１３２號十樓之１０","OBJECTID":246134},"geometry":{"x":169417.22000000067,"y":2542428.870000001}},{"attributes":{"ID":246139,"DIS_CODE":0,"TOWNNAME":"東區","LI":"路東里","LIN":"14鄰","STREET":"林森路","SECT":"一段","MAREA":" ","LANE":" ","ALLEY":" ","HOUSE_NO":"１３２號十樓之５","E_COORD97":169417.22,"N_COORD97":2542428.8700000001,"ADDRESS":"林森路一段１３２號十樓之５","OBJECTID":246135},"geometry":{"x":169417.22000000067,"y":2542428.870000001}},{"attributes":{"ID":246140,"DIS_CODE":0,"TOWNNAME":"東區","LI":"路東里","LIN":"14鄰","STREET":"林森路","SECT":"一段","MAREA":" ","LANE":" ","ALLEY":" ","HOUSE_NO":"１３２號十樓之６","E_COORD97":169417.22,"N_COORD97":2542428.8700000001,"ADDRESS":"林森路一段１３２號十樓之６","OBJECTID":246136},"geometry":{"x":169417.22000000067,"y":2542428.870000001}},{"attributes":{"ID":246141,"DIS_CODE":0,"TOWNNAME":"東區","LI":"路東里","LIN":"14鄰","STREET":"林森路","SECT":"一段","MAREA":" ","LANE":" ","ALLEY":" ","HOUSE_NO":"１３２號十樓之７","E_COORD97":169417.22,"N_COORD97":2542428.8700000001,"ADDRESS":"林森路一段１３２號十樓之７","OBJECTID":246137},"geometry":{"x":169417.22000000067,"y":2542428.870000001}},{"attributes":{"ID":246142,"DIS_CODE":0,"TOWNNAME":"東區","LI":"路東里","LIN":"14鄰","STREET":"林森路","SECT":"一段","MAREA":" ","LANE":" ","ALLEY":" ","HOUSE_NO":"１３２號十樓之８","E_COORD97":169417.22,"N_COORD97":2542428.8700000001,"ADDRESS":"林森路一段１３２號十樓之８","OBJECTID":246138},"geometry":{"x":169417.22000000067,"y":2542428.870000001}},{"attributes":{"ID":246143,"DIS_CODE":0,"TOWNNAME":"新市區","LI":"港墘里","LIN":"11鄰","STREET":" ","SECT":" ","MAREA":"崙頂","LANE":" ","ALLEY":" ","HOUSE_NO":"２９之１０號","E_COORD97":178832.04000000001,"N_COORD97":2552580.0499999998,"ADDRESS":"崙頂２９之１０號","OBJECTID":246139},"geometry":{"x":178832.04000000097,"y":2552580.0500000026}},{"attributes":{"ID":246144,"DIS_CODE":0,"TOWNNAME":"東區","LI":"虎尾里","LIN":"11鄰","STREET":"東成街","SECT":" ","MAREA":" ","LANE":"１４２巷","ALLEY":" ","HOUSE_NO":"５２號","E_COORD97":171668.85000000001,"N_COORD97":2542125.75,"ADDRESS":"東成街１４２巷５２號","OBJECTID":246140},"geometry":{"x":171668.85000000149,"y":2542125.75}},{"attributes":{"ID":246145,"DIS_CODE":0,"TOWNNAME":"山上區","LI":"南洲里","LIN":"11鄰","STREET":" ","SECT":" ","MAREA":"南洲","LANE":" ","ALLEY":" ","HOUSE_NO":"３６３之１號","E_COORD97":183469.23999999999,"N_COORD97":2554848.2999999998,"ADDRESS":"南洲３６３之１號","OBJECTID":246141},"geometry":{"x":183469.24000000115,"y":2554848.2999999989}},{"attributes":{"ID":246146,"DIS_CODE":0,"TOWNNAME":"山上區","LI":"南洲里","LIN":"11鄰","STREET":" ","SECT":" ","MAREA":"南洲","LANE":" ","ALLEY":" ","HOUSE_NO":"２２６號之１","E_COORD97":183669.26999999999,"N_COORD97":2555467.29,"ADDRESS":"南洲２２６號之１","OBJECTID":246142},"geometry":{"x":183669.26999999955,"y":2555467.2900000028}},{"attributes":{"ID":246147,"DIS_CODE":0,"TOWNNAME":"安南區","LI":"四草里","LIN":"1鄰","STREET":"大眾六街","SECT":" ","MAREA":" ","LANE":"１４８巷","ALLEY":" ","HOUSE_NO":"４６號","E_COORD97":160591.54392299999,"N_COORD97":2546721.0081799999,"ADDRESS":"大眾六街１４８巷４６號","OBJECTID":246143},"geometry":{"x":160591.54392299987,"y":2546721.0081779994}},{"attributes":{"ID":246148,"DIS_CODE":0,"TOWNNAME":"山上區","LI":"南洲里","LIN":"11鄰","STREET":" ","SECT":" ","MAREA":"南洲","LANE":" ","ALLEY":" ","HOUSE_NO":"４１之５號","E_COORD97":182883.29000000001,"N_COORD97":2554377.2999999998,"ADDRESS":"南洲４１之５號","OBJECTID":246144},"geometry":{"x":182883.2900000019,"y":2554377.3000000045}},{"attributes":{"ID":246149,"DIS_CODE":0,"TOWNNAME":"山上區","LI":"南洲里","LIN":"11鄰","STREET":" ","SECT":" ","MAREA":"南洲","LANE":" ","ALLEY":" ","HOUSE_NO":"３９之１號","E_COORD97":183816.59,"N_COORD97":2555134.2999999998,"ADDRESS":"南洲３９之１號","OBJECTID":246145},"geometry":{"x":183816.58999999985,"y":2555134.3000000026}},{"attributes":{"ID":246150,"DIS_CODE":0,"TOWNNAME":"山上區","LI":"山上里","LIN":"11鄰","STREET":" ","SECT":" ","MAREA":"山上","LANE":" ","ALLEY":" ","HOUSE_NO":"１８０號","E_COORD97":184233.60999999999,"N_COORD97":2555598.25,"ADDRESS":"山上１８０號","OBJECTID":246146},"geometry":{"x":184233.61000000034,"y":2555598.2500000019}},{"attributes":{"ID":246151,"DIS_CODE":0,"TOWNNAME":"山上區","LI":"明和里","LIN":"11鄰","STREET":" ","SECT":" ","MAREA":"明和","LANE":" ","ALLEY":" ","HOUSE_NO":"１６１號","E_COORD97":183324.23999999999,"N_COORD97":2556127.25,"ADDRESS":"明和１６１號","OBJECTID":246147},"geometry":{"x":183324.24000000022,"y":2556127.2500000019}},{"attributes":{"ID":246152,"DIS_CODE":0,"TOWNNAME":"山上區","LI":"山上里","LIN":"11鄰","STREET":" ","SECT":" ","MAREA":"山上","LANE":" ","ALLEY":" ","HOUSE_NO":"１７６號","E_COORD97":184260.31,"N_COORD97":2555594.25,"ADDRESS":"山上１７６號","OBJECTID":246148},"geometry":{"x":184260.30999999959,"y":2555594.2500000019}},{"attributes":{"ID":246153,"DIS_CODE":0,"TOWNNAME":"東區","LI":"路東里","LIN":"14鄰","STREET":"林森路","SECT":"一段","MAREA":" ","LANE":" ","ALLEY":" ","HOUSE_NO":"１３２號十樓之９","E_COORD97":169417.22,"N_COORD97":2542428.8700000001,"ADDRESS":"林森路一段１３２號十樓之９","OBJECTID":246149},"geometry":{"x":169417.22000000067,"y":2542428.870000001}},{"attributes":{"ID":246154,"DIS_CODE":0,"TOWNNAME":"安南區","LI":"頂安里","LIN":"13鄰","STREET":"安中一街","SECT":" ","MAREA":" ","LANE":"７７巷","ALLEY":" ","HOUSE_NO":"２５號","E_COORD97":168493.90158899999,"N_COORD97":2548516.0093800002,"ADDRESS":"安中一街７７巷２５號","OBJECTID":246150},"geometry":{"x":168493.90158899967,"y":2548516.0093840007}},{"attributes":{"ID":246155,"DIS_CODE":0,"TOWNNAME":"安南區","LI":"頂安里","LIN":"13鄰","STREET":"安中一街","SECT":" ","MAREA":" ","LANE":"７７巷","ALLEY":" ","HOUSE_NO":"２７號","E_COORD97":168489.66249700001,"N_COORD97":2548515.7977200001,"ADDRESS":"安中一街７７巷２７號","OBJECTID":246151},"geometry":{"x":168489.66249699984,"y":2548515.7977169994}},{"attributes":{"ID":246156,"DIS_CODE":0,"TOWNNAME":"安南區","LI":"頂安里","LIN":"13鄰","STREET":"安中一街","SECT":" ","MAREA":" ","LANE":"７７巷","ALLEY":" ","HOUSE_NO":"３１號","E_COORD97":168481.18431400001,"N_COORD97":2548515.1627199999,"ADDRESS":"安中一街７７巷３１號","OBJECTID":246152},"geometry":{"x":168481.18431400135,"y":2548515.1627179999}},{"attributes":{"ID":246157,"DIS_CODE":0,"TOWNNAME":"安南區","LI":"頂安里","LIN":"13鄰","STREET":"安中一街","SECT":" ","MAREA":" ","LANE":"７７巷","ALLEY":" ","HOUSE_NO":"３３號","E_COORD97":168477.36913199999,"N_COORD97":2548514.84522,"ADDRESS":"安中一街７７巷３３號","OBJECTID":246153},"geometry":{"x":168477.36913200002,"y":2548514.8452180028}},{"attributes":{"ID":246158,"DIS_CODE":0,"TOWNNAME":"安南區","LI":"頂安里","LIN":"13鄰","STREET":"安中一街","SECT":" ","MAREA":" ","LANE":"６７巷","ALLEY":" ","HOUSE_NO":"２號","E_COORD97":168550.28150499999,"N_COORD97":2548505.63772,"ADDRESS":"安中一街６７巷２號","OBJECTID":246154},"geometry":{"x":168550.28150499985,"y":2548505.6377230026}},{"attributes":{"ID":246159,"DIS_CODE":0,"TOWNNAME":"安南區","LI":"頂安里","LIN":"13鄰","STREET":"安中一街","SECT":" ","MAREA":" ","LANE":"６７巷","ALLEY":" ","HOUSE_NO":"６號","E_COORD97":168546.25436799999,"N_COORD97":2548505.3202200001,"ADDRESS":"安中一街６７巷６號","OBJECTID":246155},"geometry":{"x":168546.25436800066,"y":2548505.3202229999}},{"attributes":{"ID":246160,"DIS_CODE":0,"TOWNNAME":"安南區","LI":"頂安里","LIN":"13鄰","STREET":"安中一街","SECT":" ","MAREA":" ","LANE":"６７巷","ALLEY":" ","HOUSE_NO":"８號","E_COORD97":168542.439186,"N_COORD97":2548504.89689,"ADDRESS":"安中一街６７巷８號","OBJECTID":246156},"geometry":{"x":168542.43918600027,"y":2548504.8968900014}},{"attributes":{"ID":246161,"DIS_CODE":0,"TOWNNAME":"安南區","LI":"頂安里","LIN":"13鄰","STREET":"安中一街","SECT":" ","MAREA":" ","LANE":"６７巷","ALLEY":" ","HOUSE_NO":"１０號","E_COORD97":168537.776185,"N_COORD97":2548504.89689,"ADDRESS":"安中一街６７巷１０號","OBJECTID":246157},"geometry":{"x":168537.77618500125,"y":2548504.8968900014}},{"attributes":{"ID":246162,"DIS_CODE":0,"TOWNNAME":"安南區","LI":"頂安里","LIN":"13鄰","STREET":"安中一街","SECT":" ","MAREA":" ","LANE":"６７巷","ALLEY":" ","HOUSE_NO":"１２號","E_COORD97":168533.74904900001,"N_COORD97":2548504.2618900002,"ADDRESS":"安中一街６７巷１２號","OBJECTID":246158},"geometry":{"x":168533.7490490023,"y":2548504.2618900016}},{"attributes":{"ID":246163,"DIS_CODE":0,"TOWNNAME":"安南區","LI":"頂安里","LIN":"13鄰","STREET":"安中一街","SECT":" ","MAREA":" ","LANE":"６７巷","ALLEY":" ","HOUSE_NO":"１６號","E_COORD97":168529.93386600001,"N_COORD97":2548503.4152199998,"ADDRESS":"安中一街６７巷１６號","OBJECTID":246159},"geometry":{"x":168529.9338659998,"y":2548503.4152240008}},{"attributes":{"ID":246164,"DIS_CODE":0,"TOWNNAME":"安南區","LI":"頂安里","LIN":"13鄰","STREET":"安中一街","SECT":" ","MAREA":" ","LANE":"６７巷","ALLEY":" ","HOUSE_NO":"１８號","E_COORD97":168525.90672900001,"N_COORD97":2548503.2035599998,"ADDRESS":"安中一街６７巷１８號","OBJECTID":246160},"geometry":{"x":168525.90672900062,"y":2548503.2035569996}},{"attributes":{"ID":246165,"DIS_CODE":0,"TOWNNAME":"安南區","LI":"頂安里","LIN":"13鄰","STREET":"安中一街","SECT":" ","MAREA":" ","LANE":"６７巷","ALLEY":" ","HOUSE_NO":"２２號","E_COORD97":168517.00463700001,"N_COORD97":2548502.56856,"ADDRESS":"安中一街６７巷２２號","OBJECTID":246161},"geometry":{"x":168517.00463700015,"y":2548502.5685580038}},{"attributes":{"ID":246166,"DIS_CODE":0,"TOWNNAME":"安南區","LI":"頂安里","LIN":"13鄰","STREET":"安中一街","SECT":" ","MAREA":" ","LANE":"６７巷","ALLEY":" ","HOUSE_NO":"２６號","E_COORD97":168512.76554600001,"N_COORD97":2548502.1452299999,"ADDRESS":"安中一街６７巷２６號","OBJECTID":246162},"geometry":{"x":168512.76554600056,"y":2548502.1452249996}},{"attributes":{"ID":246167,"DIS_CODE":0,"TOWNNAME":"善化區","LI":"小新里","LIN":"11鄰","STREET":" ","SECT":" ","MAREA":"小新營","LANE":" ","ALLEY":" ","HOUSE_NO":"９５號之７","E_COORD97":179425.88,"N_COORD97":2558155.52,"ADDRESS":"小新營９５號之７","OBJECTID":246163},"geometry":{"x":179425.87999999896,"y":2558155.5200000014}},{"attributes":{"ID":246168,"DIS_CODE":0,"TOWNNAME":"善化區","LI":"溪美里","LIN":"11鄰","STREET":" ","SECT":" ","MAREA":"溪尾","LANE":" ","ALLEY":" ","HOUSE_NO":"１０１號","E_COORD97":176666.07000000001,"N_COORD97":2561472.02,"ADDRESS":"溪尾１０１號","OBJECTID":246164},"geometry":{"x":176666.07000000123,"y":2561472.0200000014}},{"attributes":{"ID":246169,"DIS_CODE":0,"TOWNNAME":"善化區","LI":"東昌里","LIN":"11鄰","STREET":" ","SECT":" ","MAREA":"東勢寮","LANE":" ","ALLEY":" ","HOUSE_NO":"９７號之６","E_COORD97":180182.16,"N_COORD97":2561778.02,"ADDRESS":"東勢寮９７號之６","OBJECTID":246165},"geometry":{"x":180182.16000000201,"y":2561778.0199999996}},{"attributes":{"ID":246170,"DIS_CODE":0,"TOWNNAME":"善化區","LI":"胡厝里","LIN":"11鄰","STREET":" ","SECT":" ","MAREA":"百二甲","LANE":" ","ALLEY":" ","HOUSE_NO":"３０號之１","E_COORD97":175309.10999999999,"N_COORD97":2559830.52,"ADDRESS":"百二甲３０號之１","OBJECTID":246166},"geometry":{"x":175309.1100000022,"y":2559830.5200000014}},{"attributes":{"ID":246171,"DIS_CODE":0,"TOWNNAME":"善化區","LI":"東昌里","LIN":"11鄰","STREET":" ","SECT":" ","MAREA":"東勢寮","LANE":" ","ALLEY":" ","HOUSE_NO":"９７號之１０","E_COORD97":180200.32000000001,"N_COORD97":2561780.02,"ADDRESS":"東勢寮９７號之１０","OBJECTID":246167},"geometry":{"x":180200.32000000123,"y":2561780.0200000014}},{"attributes":{"ID":246172,"DIS_CODE":0,"TOWNNAME":"善化區","LI":"牛庄里","LIN":"11鄰","STREET":" ","SECT":" ","MAREA":"牛庄","LANE":" ","ALLEY":" ","HOUSE_NO":"１３１號之１","E_COORD97":179929.88,"N_COORD97":2560067.27,"ADDRESS":"牛庄１３１號之１","OBJECTID":246168},"geometry":{"x":179929.88000000082,"y":2560067.2699999996}},{"attributes":{"ID":246173,"DIS_CODE":0,"TOWNNAME":"善化區","LI":"東昌里","LIN":"11鄰","STREET":" ","SECT":" ","MAREA":"東勢寮","LANE":" ","ALLEY":" ","HOUSE_NO":"１００號","E_COORD97":180122.01999999999,"N_COORD97":2561793.2599999998,"ADDRESS":"東勢寮１００號","OBJECTID":246169},"geometry":{"x":180122.02000000048,"y":2561793.2599999998}},{"attributes":{"ID":246174,"DIS_CODE":0,"TOWNNAME":"善化區","LI":"東昌里","LIN":"11鄰","STREET":" ","SECT":" ","MAREA":"東勢寮","LANE":" ","ALLEY":" ","HOUSE_NO":"１０１之２號","E_COORD97":180095.67999999999,"N_COORD97":2561809.02,"ADDRESS":"東勢寮１０１之２號","OBJECTID":246170},"geometry":{"x":180095.68000000063,"y":2561809.0199999996}},{"attributes":{"ID":246175,"DIS_CODE":0,"TOWNNAME":"善化區","LI":"東昌里","LIN":"11鄰","STREET":" ","SECT":" ","MAREA":"東勢寮","LANE":" ","ALLEY":" ","HOUSE_NO":"１０２號之１０","E_COORD97":180084.04999999999,"N_COORD97":2561821.52,"ADDRESS":"東勢寮１０２號之１０","OBJECTID":246171},"geometry":{"x":180084.04999999888,"y":2561821.5199999996}},{"attributes":{"ID":246176,"DIS_CODE":0,"TOWNNAME":"善化區","LI":"東昌里","LIN":"11鄰","STREET":" ","SECT":" ","MAREA":"東勢寮","LANE":" ","ALLEY":" ","HOUSE_NO":"１０２號之１","E_COORD97":180123.73999999999,"N_COORD97":2561823.52,"ADDRESS":"東勢寮１０２號之１","OBJECTID":246172},"geometry":{"x":180123.74000000022,"y":2561823.5200000014}},{"attributes":{"ID":246177,"DIS_CODE":0,"TOWNNAME":"善化區","LI":"東昌里","LIN":"11鄰","STREET":" ","SECT":" ","MAREA":"東勢寮","LANE":" ","ALLEY":" ","HOUSE_NO":"１０１之２２號","E_COORD97":180176.51000000001,"N_COORD97":2561697.02,"ADDRESS":"東勢寮１０１之２２號","OBJECTID":246173},"geometry":{"x":180176.51000000071,"y":2561697.0199999996}},{"attributes":{"ID":246178,"DIS_CODE":0,"TOWNNAME":"善化區","LI":"田寮里","LIN":"11鄰","STREET":" ","SECT":" ","MAREA":"六分寮","LANE":" ","ALLEY":" ","HOUSE_NO":"１１８號","E_COORD97":178627.35000000001,"N_COORD97":2561375.75,"ADDRESS":"六分寮１１８號","OBJECTID":246174},"geometry":{"x":178627.3499999987,"y":2561375.7500000019}},{"attributes":{"ID":246179,"DIS_CODE":0,"TOWNNAME":"安南區","LI":"四草里","LIN":"1鄰","STREET":"大眾六街","SECT":" ","MAREA":" ","LANE":"１４８巷","ALLEY":" ","HOUSE_NO":"６２號","E_COORD97":160615.57477400001,"N_COORD97":2546719.5265100002,"ADDRESS":"大眾六街１４８巷６２號","OBJECTID":246175},"geometry":{"x":160615.57477399893,"y":2546719.5265120026}},{"attributes":{"ID":246180,"DIS_CODE":0,"TOWNNAME":"善化區","LI":"溪美里","LIN":"11鄰","STREET":" ","SECT":" ","MAREA":"溪尾","LANE":" ","ALLEY":" ","HOUSE_NO":"１０１之２號","E_COORD97":176655.17999999999,"N_COORD97":2561460.52,"ADDRESS":"溪尾１０１之２號","OBJECTID":246176},"geometry":{"x":176655.1799999997,"y":2561460.5200000033}},{"attributes":{"ID":246181,"DIS_CODE":0,"TOWNNAME":"善化區","LI":"光文里","LIN":"11鄰","STREET":"民權路","SECT":" ","MAREA":" ","LANE":"６５巷","ALLEY":" ","HOUSE_NO":"２號","E_COORD97":178588.42000000001,"N_COORD97":2559037.5099999998,"ADDRESS":"民權路６５巷２號","OBJECTID":246177},"geometry":{"x":178588.42000000179,"y":2559037.5100000016}},{"attributes":{"ID":246182,"DIS_CODE":0,"TOWNNAME":"善化區","LI":"田寮里","LIN":"11鄰","STREET":" ","SECT":" ","MAREA":"六分寮","LANE":" ","ALLEY":" ","HOUSE_NO":"１１６號","E_COORD97":178654.70999999999,"N_COORD97":2561369.5,"ADDRESS":"六分寮１１６號","OBJECTID":246178},"geometry":{"x":178654.71000000089,"y":2561369.5000000037}},{"attributes":{"ID":246183,"DIS_CODE":0,"TOWNNAME":"善化區","LI":"嘉北里","LIN":"11鄰","STREET":" ","SECT":" ","MAREA":"茄拔","LANE":" ","ALLEY":" ","HOUSE_NO":"２１０號","E_COORD97":180844.38,"N_COORD97":2560039.0099999998,"ADDRESS":"茄拔２１０號","OBJECTID":246179},"geometry":{"x":180844.37999999989,"y":2560039.0099999998}},{"attributes":{"ID":246184,"DIS_CODE":0,"TOWNNAME":"善化區","LI":"小新里","LIN":"11鄰","STREET":" ","SECT":" ","MAREA":"小新營","LANE":" ","ALLEY":" ","HOUSE_NO":"９７號之６","E_COORD97":179361.12,"N_COORD97":2558197.77,"ADDRESS":"小新營９７號之６","OBJECTID":246180},"geometry":{"x":179361.12000000011,"y":2558197.7700000014}},{"attributes":{"ID":246185,"DIS_CODE":0,"TOWNNAME":"善化區","LI":"田寮里","LIN":"11鄰","STREET":" ","SECT":" ","MAREA":"六分寮","LANE":" ","ALLEY":" ","HOUSE_NO":"１１９號之３","E_COORD97":178688.87,"N_COORD97":2561357.77,"ADDRESS":"六分寮１１９號之３","OBJECTID":246181},"geometry":{"x":178688.87000000197,"y":2561357.7700000014}},{"attributes":{"ID":246186,"DIS_CODE":0,"TOWNNAME":"仁德區","LI":"新田里","LIN":"11鄰","STREET":"北保三街","SECT":" ","MAREA":" ","LANE":" ","ALLEY":" ","HOUSE_NO":"３５號","E_COORD97":173182.78,"N_COORD97":2539464.5,"ADDRESS":"北保三街３５號","OBJECTID":246182},"geometry":{"x":173182.78000000119,"y":2539464.5000000019}},{"attributes":{"ID":246187,"DIS_CODE":0,"TOWNNAME":"仁德區","LI":"二行里","LIN":"11鄰","STREET":"中正西路","SECT":" ","MAREA":" ","LANE":"２１１巷","ALLEY":" ","HOUSE_NO":"７６號","E_COORD97":170044.12,"N_COORD97":2535177.4900000002,"ADDRESS":"中正西路２１１巷７６號","OBJECTID":246183},"geometry":{"x":170044.12000000104,"y":2535177.4900000002}},{"attributes":{"ID":246188,"DIS_CODE":0,"TOWNNAME":"仁德區","LI":"一甲里","LIN":"11鄰","STREET":"忠義一街","SECT":" ","MAREA":" ","LANE":"３８巷","ALLEY":" ","HOUSE_NO":"１５號","E_COORD97":174081.95999999999,"N_COORD97":2542212.2599999998,"ADDRESS":"忠義一街３８巷１５號","OBJECTID":246184},"geometry":{"x":174081.95999999996,"y":2542212.2600000016}},{"attributes":{"ID":246189,"DIS_CODE":0,"TOWNNAME":"仁德區","LI":"一甲里","LIN":"11鄰","STREET":"義林路","SECT":" ","MAREA":" ","LANE":"４５６巷","ALLEY":" ","HOUSE_NO":"７號","E_COORD97":174783.44,"N_COORD97":2542202.02,"ADDRESS":"義林路４５６巷７號","OBJECTID":246185},"geometry":{"x":174783.44000000134,"y":2542202.0199999996}},{"attributes":{"ID":246190,"DIS_CODE":0,"TOWNNAME":"仁德區","LI":"一甲里","LIN":"11鄰","STREET":"忠義一街","SECT":" ","MAREA":" ","LANE":"３８巷","ALLEY":" ","HOUSE_NO":"９號","E_COORD97":174057.60999999999,"N_COORD97":2542154.7599999998,"ADDRESS":"忠義一街３８巷９號","OBJECTID":246186},"geometry":{"x":174057.61000000034,"y":2542154.7600000016}},{"attributes":{"ID":246191,"DIS_CODE":0,"TOWNNAME":"仁德區","LI":"二行里","LIN":"11鄰","STREET":"中正西路","SECT":" ","MAREA":" ","LANE":"２１１巷","ALLEY":" ","HOUSE_NO":"９３號","E_COORD97":170047.62,"N_COORD97":2535124.5,"ADDRESS":"中正西路２１１巷９３號","OBJECTID":246187},"geometry":{"x":170047.62000000104,"y":2535124.5000000037}},{"attributes":{"ID":246192,"DIS_CODE":0,"TOWNNAME":"仁德區","LI":"仁義里","LIN":"11鄰","STREET":"中山路","SECT":" ","MAREA":" ","LANE":" ","ALLEY":" ","HOUSE_NO":"５９７號","E_COORD97":173338.97,"N_COORD97":2541313.9900000002,"ADDRESS":"中山路５９７號","OBJECTID":246188},"geometry":{"x":173338.96999999974,"y":2541313.9900000002}},{"attributes":{"ID":246193,"DIS_CODE":0,"TOWNNAME":"仁德區","LI":"一甲里","LIN":"11鄰","STREET":"義林路","SECT":" ","MAREA":" ","LANE":" ","ALLEY":" ","HOUSE_NO":"３０６號之１","E_COORD97":174633.87,"N_COORD97":2541702.79,"ADDRESS":"義林路３０６號之１","OBJECTID":246189},"geometry":{"x":174633.86999999918,"y":2541702.790000001}},{"attributes":{"ID":246194,"DIS_CODE":0,"TOWNNAME":"仁德區","LI":"一甲里","LIN":"11鄰","STREET":"義林路","SECT":" ","MAREA":" ","LANE":" ","ALLEY":" ","HOUSE_NO":"４１８號","E_COORD97":174721.95000000001,"N_COORD97":2542091.27,"ADDRESS":"義林路４１８號","OBJECTID":246190},"geometry":{"x":174721.95000000112,"y":2542091.2699999996}},{"attributes":{"ID":246195,"DIS_CODE":0,"TOWNNAME":"安南區","LI":"頂安里","LIN":"13鄰","STREET":"安中一街","SECT":" ","MAREA":" ","LANE":"６７巷","ALLEY":" ","HOUSE_NO":"３２號","E_COORD97":168500.89608999999,"N_COORD97":2548500.4518900001,"ADDRESS":"安中一街６７巷３２號","OBJECTID":246191},"geometry":{"x":168500.8960900018,"y":2548500.4518920016}},{"attributes":{"ID":246196,"DIS_CODE":0,"TOWNNAME":"安南區","LI":"頂安里","LIN":"13鄰","STREET":"安中一街","SECT":" ","MAREA":" ","LANE":"６７巷","ALLEY":" ","HOUSE_NO":"３６號","E_COORD97":168496.44504300001,"N_COORD97":2548500.4518900001,"ADDRESS":"安中一街６７巷３６號","OBJECTID":246192},"geometry":{"x":168496.44504300226,"y":2548500.4518920016}},{"attributes":{"ID":246197,"DIS_CODE":0,"TOWNNAME":"安南區","LI":"頂安里","LIN":"13鄰","STREET":"安中一街","SECT":" ","MAREA":" ","LANE":"６７巷","ALLEY":" ","HOUSE_NO":"３８號","E_COORD97":168492.417907,"N_COORD97":2548499.9227300002,"ADDRESS":"安中一街６７巷３８號","OBJECTID":246193},"geometry":{"x":168492.41790700052,"y":2548499.9227260035}},{"attributes":{"ID":246198,"DIS_CODE":0,"TOWNNAME":"仁德區","LI":"一甲里","LIN":"11鄰","STREET":"忠義路","SECT":" ","MAREA":" ","LANE":" ","ALLEY":" ","HOUSE_NO":"２０６號","E_COORD97":173768.45000000001,"N_COORD97":2541868.27,"ADDRESS":"忠義路２０６號","OBJECTID":246194},"geometry":{"x":173768.45000000019,"y":2541868.2699999996}},{"attributes":{"ID":246199,"DIS_CODE":0,"TOWNNAME":"仁德區","LI":"一甲里","LIN":"11鄰","STREET":"忠義一街","SECT":" ","MAREA":" ","LANE":" ","ALLEY":" ","HOUSE_NO":"３１號","E_COORD97":174057.67999999999,"N_COORD97":2541942.5099999998,"ADDRESS":"忠義一街３１號","OBJECTID":246195},"geometry":{"x":174057.6799999997,"y":2541942.5100000035}},{"attributes":{"ID":246200,"DIS_CODE":0,"TOWNNAME":"仁德區","LI":"一甲里","LIN":"11鄰","STREET":"忠義路","SECT":" ","MAREA":" ","LANE":" ","ALLEY":" ","HOUSE_NO":"３０號","E_COORD97":174520.01000000001,"N_COORD97":2541690.52,"ADDRESS":"忠義路３０號","OBJECTID":246196},"geometry":{"x":174520.00999999978,"y":2541690.5199999996}},{"attributes":{"ID":246201,"DIS_CODE":0,"TOWNNAME":"仁德區","LI":"一甲里","LIN":"11鄰","STREET":"義林路","SECT":" ","MAREA":" ","LANE":" ","ALLEY":" ","HOUSE_NO":"３０６之５號","E_COORD97":174664.42999999999,"N_COORD97":2541748.2999999998,"ADDRESS":"義林路３０６之５號","OBJECTID":246197},"geometry":{"x":174664.43000000063,"y":2541748.3000000045}},{"attributes":{"ID":246202,"DIS_CODE":0,"TOWNNAME":"仁德區","LI":"中生里","LIN":"11鄰","STREET":" ","SECT":" ","MAREA":"中洲","LANE":" ","ALLEY":" ","HOUSE_NO":"１９８號","E_COORD97":173122.98000000001,"N_COORD97":2534114.5,"ADDRESS":"中洲１９８號","OBJECTID":246198},"geometry":{"x":173122.98000000045,"y":2534114.5000000019}},{"attributes":{"ID":246203,"DIS_CODE":0,"TOWNNAME":"新化區","LI":"唪口里","LIN":"11鄰","STREET":" ","SECT":" ","MAREA":"唪口","LANE":" ","ALLEY":" ","HOUSE_NO":"１６３號之１２","E_COORD97":177621.04999999999,"N_COORD97":2548824.2599999998,"ADDRESS":"唪口１６３號之１２","OBJECTID":246199},"geometry":{"x":177621.05000000168,"y":2548824.2600000016}},{"attributes":{"ID":246204,"DIS_CODE":0,"TOWNNAME":"新化區","LI":"\u25A0拔里","LIN":"11鄰","STREET":" ","SECT":" ","MAREA":"牧場","LANE":" ","ALLEY":" ","HOUSE_NO":"１３號之１","E_COORD97":181535.76000000001,"N_COORD97":2551115.2599999998,"ADDRESS":"牧場１３號之１","OBJECTID":246200},"geometry":{"x":181535.76000000071,"y":2551115.2600000016}}]}