{"displayFieldName":"TOWNNAME","fieldAliases":{"ID":"ID","DIS_CODE":"DIS_CODE","TOWNNAME":"TOWNNAME","LI":"LI","LIN":"LIN","STREET":"STREET","SECT":"SECT","MAREA":"MAREA","LANE":"LANE","ALLEY":"ALLEY","HOUSE_NO":"HOUSE_NO","E_COORD97":"E_COORD97","N_COORD97":"N_COORD97","ADDRESS":"ADDRESS","OBJECTID":"OBJECTID"},"geometryType":"esriGeometryPoint","spatialReference":{"wkid":102443,"latestWkid":3826},"fields":[{"name":"ID","type":"esriFieldTypeDouble","alias":"ID"},{"name":"DIS_CODE","type":"esriFieldTypeInteger","alias":"DIS_CODE"},{"name":"TOWNNAME","type":"esriFieldTypeString","alias":"TOWNNAME","length":8},{"name":"LI","type":"esriFieldTypeString","alias":"LI","length":8},{"name":"LIN","type":"esriFieldTypeString","alias":"LIN","length":12},{"name":"STREET","type":"esriFieldTypeString","alias":"STREET","length":20},{"name":"SECT","type":"esriFieldTypeString","alias":"SECT","length":8},{"name":"MAREA","type":"esriFieldTypeString","alias":"MAREA","length":12},{"name":"LANE","type":"esriFieldTypeString","alias":"LANE","length":10},{"name":"ALLEY","type":"esriFieldTypeString","alias":"ALLEY","length":10},{"name":"HOUSE_NO","type":"esriFieldTypeString","alias":"HOUSE_NO","length":20},{"name":"E_COORD97","type":"esriFieldTypeDouble","alias":"E_COORD97"},{"name":"N_COORD97","type":"esriFieldTypeDouble","alias":"N_COORD97"},{"name":"ADDRESS","type":"esriFieldTypeString","alias":"ADDRESS","length":50},{"name":"OBJECTID","type":"esriFieldTypeOID","alias":"OBJECTID"}],"features":[{"attributes":{"ID":183602,"DIS_CODE":0,"TOWNNAME":"仁德區","LI":"仁德里","LIN":"4鄰","STREET":"中正路","SECT":"二段","MAREA":" ","LANE":" ","ALLEY":" ","HOUSE_NO":"８８１號","E_COORD97":173379.54000000001,"N_COORD97":2540625.5299999998,"ADDRESS":"中正路二段８８１號","OBJECTID":183601},"geometry":{"x":173379.54000000004,"y":2540625.5299999993}},{"attributes":{"ID":183603,"DIS_CODE":0,"TOWNNAME":"仁德區","LI":"太子里","LIN":"26鄰","STREET":"太子路","SECT":" ","MAREA":" ","LANE":" ","ALLEY":" ","HOUSE_NO":"４２０號","E_COORD97":173576.48000000001,"N_COORD97":2543550.0099999998,"ADDRESS":"太子路４２０號","OBJECTID":183602},"geometry":{"x":173576.48000000138,"y":2543550.0100000016}},{"attributes":{"ID":183604,"DIS_CODE":0,"TOWNNAME":"仁德區","LI":"仁義里","LIN":"4鄰","STREET":"仁義三街","SECT":" ","MAREA":" ","LANE":" ","ALLEY":" ","HOUSE_NO":"１３７號","E_COORD97":173726.10000000001,"N_COORD97":2541134.27,"ADDRESS":"仁義三街１３７號","OBJECTID":183603},"geometry":{"x":173726.09999999963,"y":2541134.2700000014}},{"attributes":{"ID":183605,"DIS_CODE":0,"TOWNNAME":"仁德區","LI":"仁義里","LIN":"42鄰","STREET":"中正路","SECT":"二段","MAREA":" ","LANE":" ","ALLEY":" ","HOUSE_NO":"９５０號","E_COORD97":173442.34,"N_COORD97":2540700.02,"ADDRESS":"中正路二段９５０號","OBJECTID":183604},"geometry":{"x":173442.34000000078,"y":2540700.0199999996}},{"attributes":{"ID":183606,"DIS_CODE":0,"TOWNNAME":"仁德區","LI":"新田里","LIN":"4鄰","STREET":"新田路","SECT":" ","MAREA":" ","LANE":" ","ALLEY":" ","HOUSE_NO":"１９５號","E_COORD97":174481.67000000001,"N_COORD97":2539581,"ADDRESS":"新田路１９５號","OBJECTID":183605},"geometry":{"x":174481.67000000086,"y":2539581.0000000019}},{"attributes":{"ID":183607,"DIS_CODE":0,"TOWNNAME":"佳里區","LI":"六安里","LIN":"20鄰","STREET":"延平路","SECT":" ","MAREA":" ","LANE":"５７７巷","ALLEY":"２弄","HOUSE_NO":"２６號","E_COORD97":165698.75,"N_COORD97":2563526.3900000001,"ADDRESS":"延平路５７７巷２弄２６號","OBJECTID":183606},"geometry":{"x":165698.75,"y":2563526.3900000006}},{"attributes":{"ID":183608,"DIS_CODE":0,"TOWNNAME":"仁德區","LI":"新田里","LIN":"7鄰","STREET":"新田路","SECT":" ","MAREA":" ","LANE":"２巷","ALLEY":"１弄","HOUSE_NO":"３０號","E_COORD97":174466.20196199999,"N_COORD97":2538878.6013199999,"ADDRESS":"新田路２巷１弄３０號","OBJECTID":183607},"geometry":{"x":174466.20196200069,"y":2538878.6013240032}},{"attributes":{"ID":183609,"DIS_CODE":0,"TOWNNAME":"佳里區","LI":"六安里","LIN":"20鄰","STREET":"延平路","SECT":" ","MAREA":" ","LANE":"５７７巷","ALLEY":"２弄","HOUSE_NO":"２８號","E_COORD97":165692.82999999999,"N_COORD97":2563527.1499999999,"ADDRESS":"延平路５７７巷２弄２８號","OBJECTID":183608},"geometry":{"x":165692.83000000101,"y":2563527.1500000004}},{"attributes":{"ID":183610,"DIS_CODE":0,"TOWNNAME":"佳里區","LI":"六安里","LIN":"20鄰","STREET":"延平路","SECT":" ","MAREA":" ","LANE":"５７７巷","ALLEY":"２弄","HOUSE_NO":"２號","E_COORD97":165774.39000000001,"N_COORD97":2563514.52,"ADDRESS":"延平路５７７巷２弄２號","OBJECTID":183609},"geometry":{"x":165774.39000000153,"y":2563514.5199999996}},{"attributes":{"ID":183611,"DIS_CODE":0,"TOWNNAME":"佳里區","LI":"六安里","LIN":"20鄰","STREET":"延平路","SECT":" ","MAREA":" ","LANE":"５７７巷","ALLEY":"２弄","HOUSE_NO":"３號","E_COORD97":165767.01000000001,"N_COORD97":2563502.1200000001,"ADDRESS":"延平路５７７巷２弄３號","OBJECTID":183610},"geometry":{"x":165767.01000000071,"y":2563502.1199999992}},{"attributes":{"ID":183612,"DIS_CODE":0,"TOWNNAME":"歸仁區","LI":"大潭里","LIN":"1鄰","STREET":"中正南路","SECT":"三段","MAREA":" ","LANE":"９５巷","ALLEY":"３０弄","HOUSE_NO":"５１號","E_COORD97":175381.62445,"N_COORD97":2534922.5485700001,"ADDRESS":"中正南路三段９５巷３０弄５１號","OBJECTID":183611},"geometry":{"x":175381.62445000093,"y":2534922.5485700015}},{"attributes":{"ID":183613,"DIS_CODE":0,"TOWNNAME":"仁德區","LI":"仁義里","LIN":"36鄰","STREET":"勝利路","SECT":" ","MAREA":" ","LANE":" ","ALLEY":" ","HOUSE_NO":"６１號","E_COORD97":173552.73000000001,"N_COORD97":2539940.25,"ADDRESS":"勝利路６１號","OBJECTID":183612},"geometry":{"x":173552.73000000138,"y":2539940.25}},{"attributes":{"ID":183614,"DIS_CODE":0,"TOWNNAME":"仁德區","LI":"保安里","LIN":"20鄰","STREET":"保安路","SECT":"一段","MAREA":" ","LANE":" ","ALLEY":" ","HOUSE_NO":"１７號之７","E_COORD97":170516.62,"N_COORD97":2536076.0699999998,"ADDRESS":"保安路一段１７號之７","OBJECTID":183613},"geometry":{"x":170516.62000000104,"y":2536076.0700000003}},{"attributes":{"ID":183615,"DIS_CODE":0,"TOWNNAME":"七股區","LI":"大寮里","LIN":"11鄰","STREET":" ","SECT":" ","MAREA":"大寮","LANE":" ","ALLEY":" ","HOUSE_NO":"１２０號之２","E_COORD97":163260.42999999999,"N_COORD97":2560658.77,"ADDRESS":"大寮１２０號之２","OBJECTID":183614},"geometry":{"x":163260.43000000063,"y":2560658.7700000033}},{"attributes":{"ID":183616,"DIS_CODE":0,"TOWNNAME":"七股區","LI":"大寮里","LIN":"11鄰","STREET":" ","SECT":" ","MAREA":"大寮","LANE":" ","ALLEY":" ","HOUSE_NO":"１２０號之３","E_COORD97":163265.88,"N_COORD97":2560648.3199999998,"ADDRESS":"大寮１２０號之３","OBJECTID":183615},"geometry":{"x":163265.88000000082,"y":2560648.3200000003}},{"attributes":{"ID":183617,"DIS_CODE":0,"TOWNNAME":"七股區","LI":"大寮里","LIN":"11鄰","STREET":" ","SECT":" ","MAREA":"大寮","LANE":" ","ALLEY":" ","HOUSE_NO":"１２０號","E_COORD97":163269.34,"N_COORD97":2560712.46,"ADDRESS":"大寮１２０號","OBJECTID":183616},"geometry":{"x":163269.34000000171,"y":2560712.4600000009}},{"attributes":{"ID":183618,"DIS_CODE":0,"TOWNNAME":"歸仁區","LI":"大潭里","LIN":"1鄰","STREET":"中正南路","SECT":"三段","MAREA":" ","LANE":"９５巷","ALLEY":"３０弄","HOUSE_NO":"５３號","E_COORD97":175390.94667199999,"N_COORD97":2534924.4535699999,"ADDRESS":"中正南路三段９５巷３０弄５３號","OBJECTID":183617},"geometry":{"x":175390.94667199999,"y":2534924.4535710011}},{"attributes":{"ID":183619,"DIS_CODE":0,"TOWNNAME":"七股區","LI":"大寮里","LIN":"11鄰","STREET":" ","SECT":" ","MAREA":"大寮","LANE":" ","ALLEY":" ","HOUSE_NO":"１２１號","E_COORD97":163298.07000000001,"N_COORD97":2560671.6899999999,"ADDRESS":"大寮１２１號之１","OBJECTID":183618},"geometry":{"x":163298.0700000003,"y":2560671.6899999995}},{"attributes":{"ID":183620,"DIS_CODE":0,"TOWNNAME":"永康區","LI":"甲頂里","LIN":"20鄰","STREET":"中正南路","SECT":" ","MAREA":" ","LANE":"５２巷","ALLEY":"５８弄","HOUSE_NO":"１０號","E_COORD97":169862.53,"N_COORD97":2546731.5600000001,"ADDRESS":"中正南路５２巷５８弄１０號","OBJECTID":183619},"geometry":{"x":169862.53000000026,"y":2546731.5600000024}},{"attributes":{"ID":183621,"DIS_CODE":0,"TOWNNAME":"七股區","LI":"大寮里","LIN":"11鄰","STREET":" ","SECT":" ","MAREA":"大寮","LANE":" ","ALLEY":" ","HOUSE_NO":"１２１號之２","E_COORD97":163294.60999999999,"N_COORD97":2560683.75,"ADDRESS":"大寮１２１號之２","OBJECTID":183620},"geometry":{"x":163294.61000000034,"y":2560683.7500000019}},{"attributes":{"ID":183622,"DIS_CODE":0,"TOWNNAME":"安南區","LI":"安慶里","LIN":"20鄰","STREET":"安中路","SECT":"一段","MAREA":" ","LANE":"１８９巷","ALLEY":"７０弄","HOUSE_NO":"１０號","E_COORD97":168726.04999999999,"N_COORD97":2548316.9500000002,"ADDRESS":"安中路一段１８９巷７０弄１０號","OBJECTID":183621},"geometry":{"x":168726.04999999981,"y":2548316.9500000011}},{"attributes":{"ID":183623,"DIS_CODE":0,"TOWNNAME":"安南區","LI":"安慶里","LIN":"20鄰","STREET":"安中路","SECT":"一段","MAREA":" ","LANE":"１８９巷","ALLEY":"７０弄","HOUSE_NO":"１２號","E_COORD97":168722.44,"N_COORD97":2548316.2999999998,"ADDRESS":"安中路一段１８９巷７０弄１２號","OBJECTID":183622},"geometry":{"x":168722.44000000041,"y":2548316.3000000026}},{"attributes":{"ID":183624,"DIS_CODE":0,"TOWNNAME":"安南區","LI":"安慶里","LIN":"20鄰","STREET":"安中路","SECT":"一段","MAREA":" ","LANE":"１８９巷","ALLEY":"７０弄","HOUSE_NO":"１４號","E_COORD97":168718.17999999999,"N_COORD97":2548315.5299999998,"ADDRESS":"安中路一段１８９巷７０弄１４號","OBJECTID":183623},"geometry":{"x":168718.1799999997,"y":2548315.5300000031}},{"attributes":{"ID":183625,"DIS_CODE":0,"TOWNNAME":"七股區","LI":"玉成里","LIN":"11鄰","STREET":" ","SECT":" ","MAREA":"玉成","LANE":" ","ALLEY":" ","HOUSE_NO":"１０４號之５","E_COORD97":161227.26999999999,"N_COORD97":2560919.3799999999,"ADDRESS":"玉成１０４號之５","OBJECTID":183624},"geometry":{"x":161227.27000000048,"y":2560919.3800000008}},{"attributes":{"ID":183626,"DIS_CODE":0,"TOWNNAME":"七股區","LI":"玉成里","LIN":"11鄰","STREET":" ","SECT":" ","MAREA":"玉成","LANE":" ","ALLEY":" ","HOUSE_NO":"１０４號","E_COORD97":161230.91,"N_COORD97":2560633.8199999998,"ADDRESS":"玉成１０４號","OBJECTID":183625},"geometry":{"x":161230.91000000015,"y":2560633.8200000003}},{"attributes":{"ID":183627,"DIS_CODE":0,"TOWNNAME":"安南區","LI":"安慶里","LIN":"20鄰","STREET":"安中路","SECT":"一段","MAREA":" ","LANE":"１８９巷","ALLEY":"７０弄","HOUSE_NO":"１６號","E_COORD97":168714.35000000001,"N_COORD97":2548315.21,"ADDRESS":"安中路一段１８９巷７０弄１６號","OBJECTID":183626},"geometry":{"x":168714.35000000056,"y":2548315.2100000009}},{"attributes":{"ID":183628,"DIS_CODE":0,"TOWNNAME":"安南區","LI":"安慶里","LIN":"20鄰","STREET":"安中路","SECT":"一段","MAREA":" ","LANE":"１８９巷","ALLEY":"７０弄","HOUSE_NO":"２０號","E_COORD97":168706.04000000001,"N_COORD97":2548313.6800000002,"ADDRESS":"安中路一段１８９巷７０弄２０號","OBJECTID":183627},"geometry":{"x":168706.04000000004,"y":2548313.6799999997}},{"attributes":{"ID":183629,"DIS_CODE":0,"TOWNNAME":"安南區","LI":"安慶里","LIN":"20鄰","STREET":"安中路","SECT":"一段","MAREA":" ","LANE":"１８９巷","ALLEY":"７０弄","HOUSE_NO":"２２號","E_COORD97":168701.97,"N_COORD97":2548313.6699999999,"ADDRESS":"安中路一段１８９巷７０弄２２號","OBJECTID":183628},"geometry":{"x":168701.97000000067,"y":2548313.6699999999}},{"attributes":{"ID":183630,"DIS_CODE":0,"TOWNNAME":"七股區","LI":"玉成里","LIN":"11鄰","STREET":" ","SECT":" ","MAREA":"玉成","LANE":" ","ALLEY":" ","HOUSE_NO":"１０５號","E_COORD97":161323,"N_COORD97":2560602.9900000002,"ADDRESS":"玉成１０５號","OBJECTID":183629},"geometry":{"x":161323.00000000093,"y":2560602.9900000002}},{"attributes":{"ID":183631,"DIS_CODE":0,"TOWNNAME":"七股區","LI":"大埕里","LIN":"11鄰","STREET":" ","SECT":" ","MAREA":"大埕","LANE":" ","ALLEY":" ","HOUSE_NO":"３６５號","E_COORD97":161956.06,"N_COORD97":2560204.8300000001,"ADDRESS":"大埕３６５號","OBJECTID":183630},"geometry":{"x":161956.06000000052,"y":2560204.8300000019}},{"attributes":{"ID":183632,"DIS_CODE":0,"TOWNNAME":"七股區","LI":"大埕里","LIN":"11鄰","STREET":" ","SECT":" ","MAREA":"大埕","LANE":" ","ALLEY":" ","HOUSE_NO":"３６６號","E_COORD97":161951.56,"N_COORD97":2560200.9100000001,"ADDRESS":"大埕３６６號","OBJECTID":183631},"geometry":{"x":161951.55999999959,"y":2560200.910000002}},{"attributes":{"ID":183633,"DIS_CODE":0,"TOWNNAME":"七股區","LI":"大埕里","LIN":"11鄰","STREET":" ","SECT":" ","MAREA":"大埕","LANE":" ","ALLEY":" ","HOUSE_NO":"３６７號","E_COORD97":161948.39000000001,"N_COORD97":2560198.3300000001,"ADDRESS":"大埕３６７號","OBJECTID":183632},"geometry":{"x":161948.39000000153,"y":2560198.3300000019}},{"attributes":{"ID":183634,"DIS_CODE":0,"TOWNNAME":"安南區","LI":"安慶里","LIN":"20鄰","STREET":"安中路","SECT":"一段","MAREA":" ","LANE":"１８９巷","ALLEY":"７０弄","HOUSE_NO":"２４號","E_COORD97":168698.14000000001,"N_COORD97":2548312.5800000001,"ADDRESS":"安中路一段１８９巷７０弄２４號","OBJECTID":183633},"geometry":{"x":168698.13999999966,"y":2548312.5800000038}},{"attributes":{"ID":183635,"DIS_CODE":0,"TOWNNAME":"安南區","LI":"安慶里","LIN":"20鄰","STREET":"安中路","SECT":"一段","MAREA":" ","LANE":"１８９巷","ALLEY":"７０弄","HOUSE_NO":"２６號","E_COORD97":168693.76999999999,"N_COORD97":2548312.5800000001,"ADDRESS":"安中路一段１８９巷７０弄２６號","OBJECTID":183634},"geometry":{"x":168693.76999999955,"y":2548312.5800000038}},{"attributes":{"ID":183636,"DIS_CODE":0,"TOWNNAME":"安南區","LI":"安慶里","LIN":"20鄰","STREET":"安中路","SECT":"一段","MAREA":" ","LANE":"１８９巷","ALLEY":"７０弄","HOUSE_NO":"２號","E_COORD97":168742.01000000001,"N_COORD97":2548318.3700000001,"ADDRESS":"安中路一段１８９巷７０弄２號","OBJECTID":183635},"geometry":{"x":168742.01000000164,"y":2548318.3700000048}},{"attributes":{"ID":183637,"DIS_CODE":0,"TOWNNAME":"七股區","LI":"大埕里","LIN":"11鄰","STREET":" ","SECT":" ","MAREA":"大埕","LANE":" ","ALLEY":" ","HOUSE_NO":"３６８號","E_COORD97":161945.16,"N_COORD97":2560196.3500000001,"ADDRESS":"大埕３６８號","OBJECTID":183636},"geometry":{"x":161945.15999999922,"y":2560196.3499999996}},{"attributes":{"ID":183638,"DIS_CODE":0,"TOWNNAME":"七股區","LI":"大埕里","LIN":"11鄰","STREET":" ","SECT":" ","MAREA":"大埕","LANE":" ","ALLEY":" ","HOUSE_NO":"３７２號","E_COORD97":161935.81,"N_COORD97":2560183.04,"ADDRESS":"大埕３７２號","OBJECTID":183637},"geometry":{"x":161935.81000000052,"y":2560183.040000001}},{"attributes":{"ID":183639,"DIS_CODE":0,"TOWNNAME":"安南區","LI":"安慶里","LIN":"20鄰","STREET":"安中路","SECT":"一段","MAREA":" ","LANE":"１８９巷","ALLEY":"７０弄","HOUSE_NO":"３０號","E_COORD97":168685.67999999999,"N_COORD97":2548311.5899999999,"ADDRESS":"安中路一段１８９巷７０弄３０號","OBJECTID":183638},"geometry":{"x":168685.6799999997,"y":2548311.5899999999}},{"attributes":{"ID":183640,"DIS_CODE":0,"TOWNNAME":"安南區","LI":"安慶里","LIN":"20鄰","STREET":"安中路","SECT":"一段","MAREA":" ","LANE":"１８９巷","ALLEY":"７０弄","HOUSE_NO":"３２號","E_COORD97":168681.85000000001,"N_COORD97":2548311.0499999998,"ADDRESS":"安中路一段１８９巷７０弄３２號","OBJECTID":183639},"geometry":{"x":168681.85000000149,"y":2548311.0500000026}},{"attributes":{"ID":183641,"DIS_CODE":0,"TOWNNAME":"安南區","LI":"安慶里","LIN":"20鄰","STREET":"安中路","SECT":"一段","MAREA":" ","LANE":"１８９巷","ALLEY":"７０弄","HOUSE_NO":"３４號","E_COORD97":168678.13,"N_COORD97":2548310.2799999998,"ADDRESS":"安中路一段１８９巷７０弄３４號","OBJECTID":183640},"geometry":{"x":168678.12999999989,"y":2548310.2799999975}},{"attributes":{"ID":183642,"DIS_CODE":0,"TOWNNAME":"安南區","LI":"安慶里","LIN":"20鄰","STREET":"安中路","SECT":"一段","MAREA":" ","LANE":"１８９巷","ALLEY":"７０弄","HOUSE_NO":"３６號","E_COORD97":168673.98000000001,"N_COORD97":2548310.0600000001,"ADDRESS":"安中路一段１８９巷７０弄３６號","OBJECTID":183641},"geometry":{"x":168673.98000000138,"y":2548310.0600000042}},{"attributes":{"ID":183643,"DIS_CODE":0,"TOWNNAME":"安南區","LI":"安慶里","LIN":"20鄰","STREET":"安中路","SECT":"一段","MAREA":" ","LANE":"１８９巷","ALLEY":"７０弄","HOUSE_NO":"３８號","E_COORD97":168669.5,"N_COORD97":2548309.2999999998,"ADDRESS":"安中路一段１８９巷７０弄３８號","OBJECTID":183642},"geometry":{"x":168669.50000000093,"y":2548309.3000000026}},{"attributes":{"ID":183644,"DIS_CODE":0,"TOWNNAME":"歸仁區","LI":"西埔里","LIN":"5鄰","STREET":"保大路","SECT":"二段","MAREA":" ","LANE":"１２２巷","ALLEY":"２３弄","HOUSE_NO":"２６號","E_COORD97":176968.38233399999,"N_COORD97":2544226.4824100002,"ADDRESS":"保大路二段１２２巷２３弄２６號","OBJECTID":183643},"geometry":{"x":176968.38233400229,"y":2544226.4824140035}},{"attributes":{"ID":183645,"DIS_CODE":0,"TOWNNAME":"安南區","LI":"安慶里","LIN":"20鄰","STREET":"安中路","SECT":"一段","MAREA":" ","LANE":"１８９巷","ALLEY":"７０弄","HOUSE_NO":"４０號","E_COORD97":168665.56,"N_COORD97":2548308.6400000001,"ADDRESS":"安中路一段１８９巷７０弄４０號","OBJECTID":183644},"geometry":{"x":168665.56000000052,"y":2548308.6400000006}},{"attributes":{"ID":183646,"DIS_CODE":0,"TOWNNAME":"安南區","LI":"安慶里","LIN":"20鄰","STREET":"安中路","SECT":"一段","MAREA":" ","LANE":"１８９巷","ALLEY":"７０弄","HOUSE_NO":"４２號","E_COORD97":168661.64999999999,"N_COORD97":2548308.6600000001,"ADDRESS":"安中路一段１８９巷７０弄４２號","OBJECTID":183645},"geometry":{"x":168661.65000000037,"y":2548308.6600000039}},{"attributes":{"ID":183647,"DIS_CODE":0,"TOWNNAME":"玉井區","LI":"玉田里","LIN":"24鄰","STREET":"中華路","SECT":" ","MAREA":" ","LANE":" ","ALLEY":" ","HOUSE_NO":"１６４號","E_COORD97":195114.54999999999,"N_COORD97":2557890.2400000002,"ADDRESS":"中華路１６４號","OBJECTID":183646},"geometry":{"x":195114.55000000075,"y":2557890.2400000021}},{"attributes":{"ID":183648,"DIS_CODE":0,"TOWNNAME":"北區","LI":"安民里","LIN":"10鄰","STREET":"成功路","SECT":" ","MAREA":" ","LANE":" ","ALLEY":" ","HOUSE_NO":"４２８號","E_COORD97":167803.557363,"N_COORD97":2544606.77593,"ADDRESS":"成功路４２８號","OBJECTID":183647},"geometry":{"x":167803.5573630007,"y":2544606.775928}},{"attributes":{"ID":183649,"DIS_CODE":0,"TOWNNAME":"安南區","LI":"安慶里","LIN":"20鄰","STREET":"安中路","SECT":"一段","MAREA":" ","LANE":"１８９巷","ALLEY":"７０弄","HOUSE_NO":"４４號","E_COORD97":168657.45999999999,"N_COORD97":2548308.0299999998,"ADDRESS":"安中路一段１８９巷７０弄４４號","OBJECTID":183648},"geometry":{"x":168657.45999999996,"y":2548308.0299999993}},{"attributes":{"ID":183650,"DIS_CODE":0,"TOWNNAME":"安南區","LI":"安慶里","LIN":"20鄰","STREET":"安中路","SECT":"一段","MAREA":" ","LANE":"１８９巷","ALLEY":"７０弄","HOUSE_NO":"４８號","E_COORD97":168649.39999999999,"N_COORD97":2548307.2999999998,"ADDRESS":"安中路一段１８９巷７０弄４８號","OBJECTID":183649},"geometry":{"x":168649.40000000037,"y":2548307.3000000007}},{"attributes":{"ID":183651,"DIS_CODE":0,"TOWNNAME":"安南區","LI":"安慶里","LIN":"20鄰","STREET":"安中路","SECT":"一段","MAREA":" ","LANE":"１８９巷","ALLEY":"７０弄","HOUSE_NO":"５０號","E_COORD97":168645.42000000001,"N_COORD97":2548306.5600000001,"ADDRESS":"安中路一段１８９巷７０弄５０號","OBJECTID":183650},"geometry":{"x":168645.41999999993,"y":2548306.5600000042}},{"attributes":{"ID":183652,"DIS_CODE":0,"TOWNNAME":"新營區","LI":"埤寮里","LIN":"10鄰","STREET":" ","SECT":" ","MAREA":"埤寮","LANE":" ","ALLEY":" ","HOUSE_NO":"７２號","E_COORD97":180411.70999999999,"N_COORD97":2580886.4500000002,"ADDRESS":"埤寮７２號","OBJECTID":183651},"geometry":{"x":180411.70999999996,"y":2580886.4499999993}},{"attributes":{"ID":183653,"DIS_CODE":0,"TOWNNAME":"新營區","LI":"五興里","LIN":"10鄰","STREET":" ","SECT":" ","MAREA":"五間厝","LANE":" ","ALLEY":" ","HOUSE_NO":"１０５之７號","E_COORD97":175611.98000000001,"N_COORD97":2574809.9900000002,"ADDRESS":"五間厝１０５之７號","OBJECTID":183652},"geometry":{"x":175611.98000000138,"y":2574809.9900000021}},{"attributes":{"ID":183654,"DIS_CODE":0,"TOWNNAME":"新營區","LI":"五興里","LIN":"10鄰","STREET":" ","SECT":" ","MAREA":"五間厝","LANE":" ","ALLEY":" ","HOUSE_NO":"１１４號","E_COORD97":175691.01999999999,"N_COORD97":2574747.5099999998,"ADDRESS":"五間厝１１４號","OBJECTID":183653},"geometry":{"x":175691.02000000048,"y":2574747.5100000035}},{"attributes":{"ID":183655,"DIS_CODE":0,"TOWNNAME":"安南區","LI":"安慶里","LIN":"20鄰","STREET":"安中路","SECT":"一段","MAREA":" ","LANE":"１８９巷","ALLEY":"７０弄","HOUSE_NO":"５２號","E_COORD97":168641.32999999999,"N_COORD97":2548306.3500000001,"ADDRESS":"安中路一段１８９巷７０弄５２號","OBJECTID":183654},"geometry":{"x":168641.33000000007,"y":2548306.3499999996}},{"attributes":{"ID":183656,"DIS_CODE":0,"TOWNNAME":"安南區","LI":"安慶里","LIN":"20鄰","STREET":"安中路","SECT":"一段","MAREA":" ","LANE":"１８９巷","ALLEY":"７０弄","HOUSE_NO":"５４號","E_COORD97":168637.23999999999,"N_COORD97":2548306.1499999999,"ADDRESS":"安中路一段１８９巷７０弄５４號","OBJECTID":183655},"geometry":{"x":168637.24000000022,"y":2548306.1500000022}},{"attributes":{"ID":183657,"DIS_CODE":0,"TOWNNAME":"安南區","LI":"安慶里","LIN":"20鄰","STREET":"安中路","SECT":"一段","MAREA":" ","LANE":"１８９巷","ALLEY":"７０弄","HOUSE_NO":"５６號","E_COORD97":168634.10000000001,"N_COORD97":2548305.2000000002,"ADDRESS":"安中路一段１８９巷７０弄５６號","OBJECTID":183656},"geometry":{"x":168634.09999999963,"y":2548305.2000000011}},{"attributes":{"ID":183658,"DIS_CODE":0,"TOWNNAME":"安南區","LI":"安慶里","LIN":"20鄰","STREET":"安中路","SECT":"一段","MAREA":" ","LANE":"１８９巷","ALLEY":"７０弄","HOUSE_NO":"６號","E_COORD97":168734.03,"N_COORD97":2548317.5,"ADDRESS":"安中路一段１８９巷７０弄６號","OBJECTID":183657},"geometry":{"x":168734.03000000119,"y":2548317.5000000019}},{"attributes":{"ID":183659,"DIS_CODE":0,"TOWNNAME":"安南區","LI":"安慶里","LIN":"20鄰","STREET":"安中路","SECT":"一段","MAREA":" ","LANE":"１８９巷","ALLEY":"７０弄","HOUSE_NO":"８號","E_COORD97":168730.20000000001,"N_COORD97":2548317.5,"ADDRESS":"安中路一段１８９巷７０弄８號","OBJECTID":183658},"geometry":{"x":168730.20000000019,"y":2548317.5000000019}},{"attributes":{"ID":183660,"DIS_CODE":0,"TOWNNAME":"安南區","LI":"安東里","LIN":"20鄰","STREET":"安和路","SECT":"一段","MAREA":" ","LANE":"４９６巷","ALLEY":"２３弄","HOUSE_NO":"５３號","E_COORD97":169622.26000000001,"N_COORD97":2548461.2599999998,"ADDRESS":"安和路一段４９６巷２３弄５３號","OBJECTID":183659},"geometry":{"x":169622.26000000071,"y":2548461.2600000016}},{"attributes":{"ID":183661,"DIS_CODE":0,"TOWNNAME":"六甲區","LI":"甲東里","LIN":"20鄰","STREET":"裕農街","SECT":" ","MAREA":" ","LANE":"４９巷","ALLEY":"１４弄","HOUSE_NO":"６號","E_COORD97":184149.07000000001,"N_COORD97":2569768.54,"ADDRESS":"裕農街４９巷１４弄６號","OBJECTID":183660},"geometry":{"x":184149.0700000003,"y":2569768.5399999991}},{"attributes":{"ID":183662,"DIS_CODE":0,"TOWNNAME":"新營區","LI":"五興里","LIN":"10鄰","STREET":" ","SECT":" ","MAREA":"五間厝","LANE":" ","ALLEY":" ","HOUSE_NO":"１１３之１號","E_COORD97":175710.67000000001,"N_COORD97":2574698.75,"ADDRESS":"五間厝１１３之１號","OBJECTID":183661},"geometry":{"x":175710.67000000086,"y":2574698.7500000037}},{"attributes":{"ID":183663,"DIS_CODE":0,"TOWNNAME":"新營區","LI":"五興里","LIN":"10鄰","STREET":" ","SECT":" ","MAREA":"五間厝","LANE":" ","ALLEY":" ","HOUSE_NO":"１０９號","E_COORD97":175601.09,"N_COORD97":2574769,"ADDRESS":"五間厝１０９號","OBJECTID":183662},"geometry":{"x":175601.08999999985,"y":2574769.0000000019}},{"attributes":{"ID":183664,"DIS_CODE":0,"TOWNNAME":"北區","LI":"六甲里","LIN":"10鄰","STREET":"公園路","SECT":" ","MAREA":" ","LANE":"４８７巷","ALLEY":" ","HOUSE_NO":"２９號","E_COORD97":168933.57999999999,"N_COORD97":2545536.9300000002,"ADDRESS":"公園路４８７巷２９號","OBJECTID":183663},"geometry":{"x":168933.58000000101,"y":2545536.9300000016}},{"attributes":{"ID":183665,"DIS_CODE":0,"TOWNNAME":"北區","LI":"安民里","LIN":"10鄰","STREET":"成功路","SECT":" ","MAREA":" ","LANE":" ","ALLEY":" ","HOUSE_NO":"４４０號","E_COORD97":167768.04000000001,"N_COORD97":2544623.7599999998,"ADDRESS":"成功路４４０號","OBJECTID":183664},"geometry":{"x":167768.04000000097,"y":2544623.7600000016}},{"attributes":{"ID":183666,"DIS_CODE":0,"TOWNNAME":"新營區","LI":"五興里","LIN":"10鄰","STREET":" ","SECT":" ","MAREA":"五間厝","LANE":" ","ALLEY":" ","HOUSE_NO":"１０５號","E_COORD97":175626.89000000001,"N_COORD97":2574813.1699999999,"ADDRESS":"五間厝１０５號","OBJECTID":183665},"geometry":{"x":175626.89000000153,"y":2574813.1699999999}},{"attributes":{"ID":183667,"DIS_CODE":0,"TOWNNAME":"新營區","LI":"五興里","LIN":"10鄰","STREET":" ","SECT":" ","MAREA":"五間厝","LANE":" ","ALLEY":" ","HOUSE_NO":"１０９號之２","E_COORD97":175585.95000000001,"N_COORD97":2574766.9199999999,"ADDRESS":"五間厝１０９號之２","OBJECTID":183666},"geometry":{"x":175585.95000000019,"y":2574766.9200000018}},{"attributes":{"ID":183668,"DIS_CODE":0,"TOWNNAME":"新營區","LI":"五興里","LIN":"10鄰","STREET":" ","SECT":" ","MAREA":"五間厝","LANE":" ","ALLEY":" ","HOUSE_NO":"１０５之１０號","E_COORD97":175598.92000000001,"N_COORD97":2574811.1699999999,"ADDRESS":"五間厝１０５之１０號","OBJECTID":183667},"geometry":{"x":175598.91999999993,"y":2574811.1700000037}},{"attributes":{"ID":183669,"DIS_CODE":0,"TOWNNAME":"新營區","LI":"五興里","LIN":"10鄰","STREET":" ","SECT":" ","MAREA":"五間厝","LANE":" ","ALLEY":" ","HOUSE_NO":"１１０號","E_COORD97":175616.31,"N_COORD97":2574743.4500000002,"ADDRESS":"五間厝１１０號","OBJECTID":183668},"geometry":{"x":175616.30999999959,"y":2574743.4499999993}},{"attributes":{"ID":183670,"DIS_CODE":0,"TOWNNAME":"七股區","LI":"大埕里","LIN":"11鄰","STREET":" ","SECT":" ","MAREA":"大埕","LANE":" ","ALLEY":" ","HOUSE_NO":"３７３號","E_COORD97":161922.88,"N_COORD97":2560167.3399999999,"ADDRESS":"大埕３７３號","OBJECTID":183669},"geometry":{"x":161922.87999999989,"y":2560167.3400000017}},{"attributes":{"ID":183671,"DIS_CODE":0,"TOWNNAME":"七股區","LI":"大埕里","LIN":"11鄰","STREET":" ","SECT":" ","MAREA":"大埕","LANE":" ","ALLEY":" ","HOUSE_NO":"３７４號","E_COORD97":161902.60999999999,"N_COORD97":2560150.0499999998,"ADDRESS":"大埕３７４號","OBJECTID":183670},"geometry":{"x":161902.61000000034,"y":2560150.0500000026}},{"attributes":{"ID":183672,"DIS_CODE":0,"TOWNNAME":"仁德區","LI":"中生里","LIN":"7鄰","STREET":" ","SECT":" ","MAREA":"中洲","LANE":" ","ALLEY":" ","HOUSE_NO":"１５０之６號","E_COORD97":173050.42324900001,"N_COORD97":2534162.5133799999,"ADDRESS":"中洲１５０之６號","OBJECTID":183671},"geometry":{"x":173050.42324899975,"y":2534162.5133800022}},{"attributes":{"ID":183673,"DIS_CODE":0,"TOWNNAME":"新營區","LI":"五興里","LIN":"10鄰","STREET":" ","SECT":" ","MAREA":"五間厝","LANE":" ","ALLEY":" ","HOUSE_NO":"１１０之１２號","E_COORD97":175568.57999999999,"N_COORD97":2574678.4199999999,"ADDRESS":"五間厝１１０之１２號","OBJECTID":183672},"geometry":{"x":175568.58000000101,"y":2574678.4200000018}},{"attributes":{"ID":183674,"DIS_CODE":0,"TOWNNAME":"新營區","LI":"五興里","LIN":"10鄰","STREET":" ","SECT":" ","MAREA":"五間厝","LANE":" ","ALLEY":" ","HOUSE_NO":"１０５之９號","E_COORD97":175601.76000000001,"N_COORD97":2574811.1400000001,"ADDRESS":"五間厝１０５之９號","OBJECTID":183673},"geometry":{"x":175601.75999999978,"y":2574811.1400000006}},{"attributes":{"ID":183675,"DIS_CODE":0,"TOWNNAME":"新營區","LI":"五興里","LIN":"10鄰","STREET":" ","SECT":" ","MAREA":"五間厝","LANE":" ","ALLEY":" ","HOUSE_NO":"１１０之１１號","E_COORD97":175568.57999999999,"N_COORD97":2574678.4199999999,"ADDRESS":"五間厝１１０之１１號","OBJECTID":183674},"geometry":{"x":175568.58000000101,"y":2574678.4200000018}},{"attributes":{"ID":183676,"DIS_CODE":0,"TOWNNAME":"新營區","LI":"埤寮里","LIN":"10鄰","STREET":" ","SECT":" ","MAREA":"埤寮","LANE":" ","ALLEY":" ","HOUSE_NO":"７２之７號","E_COORD97":180440.76000000001,"N_COORD97":2580878.6299999999,"ADDRESS":"埤寮７２之７號","OBJECTID":183675},"geometry":{"x":180440.76000000071,"y":2580878.629999999}},{"attributes":{"ID":183677,"DIS_CODE":0,"TOWNNAME":"新營區","LI":"埤寮里","LIN":"10鄰","STREET":" ","SECT":" ","MAREA":"埤寮","LANE":" ","ALLEY":" ","HOUSE_NO":"７２之３號","E_COORD97":180426.45000000001,"N_COORD97":2580882.02,"ADDRESS":"埤寮７２之３號","OBJECTID":183676},"geometry":{"x":180426.45000000112,"y":2580882.0200000014}},{"attributes":{"ID":183678,"DIS_CODE":0,"TOWNNAME":"新營區","LI":"鐵線里","LIN":"10鄰","STREET":" ","SECT":" ","MAREA":"鐵線橋","LANE":" ","ALLEY":" ","HOUSE_NO":"１１８號","E_COORD97":175841.23999999999,"N_COORD97":2573891.7999999998,"ADDRESS":"鐵線橋１１８號","OBJECTID":183677},"geometry":{"x":175841.24000000022,"y":2573891.8000000007}},{"attributes":{"ID":183679,"DIS_CODE":0,"TOWNNAME":"七股區","LI":"大埕里","LIN":"11鄰","STREET":" ","SECT":" ","MAREA":"大埕","LANE":" ","ALLEY":" ","HOUSE_NO":"３７５號","E_COORD97":161878.47,"N_COORD97":2560135.9500000002,"ADDRESS":"大埕３７５號","OBJECTID":183678},"geometry":{"x":161878.47000000067,"y":2560135.9500000011}},{"attributes":{"ID":183680,"DIS_CODE":0,"TOWNNAME":"七股區","LI":"大埕里","LIN":"11鄰","STREET":" ","SECT":" ","MAREA":"大埕","LANE":" ","ALLEY":" ","HOUSE_NO":"３７６號","E_COORD97":161865.01000000001,"N_COORD97":2560125.98,"ADDRESS":"大埕３７６號","OBJECTID":183679},"geometry":{"x":161865.01000000071,"y":2560125.9800000042}},{"attributes":{"ID":183681,"DIS_CODE":0,"TOWNNAME":"七股區","LI":"大埕里","LIN":"11鄰","STREET":" ","SECT":" ","MAREA":"大埕","LANE":" ","ALLEY":" ","HOUSE_NO":"３７７號","E_COORD97":161841.48999999999,"N_COORD97":2560085.5800000001,"ADDRESS":"大埕３７７號","OBJECTID":183680},"geometry":{"x":161841.49000000209,"y":2560085.5800000019}},{"attributes":{"ID":183682,"DIS_CODE":0,"TOWNNAME":"七股區","LI":"大埕里","LIN":"11鄰","STREET":" ","SECT":" ","MAREA":"大埕","LANE":" ","ALLEY":" ","HOUSE_NO":"３７８號","E_COORD97":161805.47,"N_COORD97":2560075.1000000001,"ADDRESS":"大埕３７８號","OBJECTID":183681},"geometry":{"x":161805.4700000016,"y":2560075.0999999996}},{"attributes":{"ID":183683,"DIS_CODE":0,"TOWNNAME":"七股區","LI":"大埕里","LIN":"11鄰","STREET":" ","SECT":" ","MAREA":"大埕","LANE":" ","ALLEY":" ","HOUSE_NO":"３７９號","E_COORD97":161792.81,"N_COORD97":2560064.0299999998,"ADDRESS":"大埕３７９號","OBJECTID":183682},"geometry":{"x":161792.81000000145,"y":2560064.0300000012}},{"attributes":{"ID":183684,"DIS_CODE":0,"TOWNNAME":"新營區","LI":"民權里","LIN":"10鄰","STREET":"中華路","SECT":" ","MAREA":" ","LANE":" ","ALLEY":" ","HOUSE_NO":"１５號之２","E_COORD97":179907.28,"N_COORD97":2578204.4399999999,"ADDRESS":"中華路１５號之２","OBJECTID":183683},"geometry":{"x":179907.28000000119,"y":2578204.4399999995}},{"attributes":{"ID":183685,"DIS_CODE":0,"TOWNNAME":"安南區","LI":"州南里","LIN":"20鄰","STREET":"安和路","SECT":"四段","MAREA":" ","LANE":"５３３巷","ALLEY":"３７弄","HOUSE_NO":"１３號","E_COORD97":169874.67000000001,"N_COORD97":2551239.7400000002,"ADDRESS":"安和路四段５３３巷３７弄１３號","OBJECTID":183684},"geometry":{"x":169874.66999999993,"y":2551239.7400000002}},{"attributes":{"ID":183686,"DIS_CODE":0,"TOWNNAME":"安南區","LI":"州南里","LIN":"20鄰","STREET":"安和路","SECT":"四段","MAREA":" ","LANE":"５３３巷","ALLEY":"３７弄","HOUSE_NO":"１０號","E_COORD97":169851.98000000001,"N_COORD97":2551244.29,"ADDRESS":"安和路四段５３３巷３７弄１０號","OBJECTID":183685},"geometry":{"x":169851.98000000138,"y":2551244.290000001}},{"attributes":{"ID":183687,"DIS_CODE":0,"TOWNNAME":"安南區","LI":"州南里","LIN":"20鄰","STREET":"安和路","SECT":"四段","MAREA":" ","LANE":"５３３巷","ALLEY":"３７弄","HOUSE_NO":"１１號","E_COORD97":169872.62,"N_COORD97":2551244.1200000001,"ADDRESS":"安和路四段５３３巷３７弄１１號","OBJECTID":183686},"geometry":{"x":169872.62000000104,"y":2551244.1200000029}},{"attributes":{"ID":183688,"DIS_CODE":0,"TOWNNAME":"安南區","LI":"州南里","LIN":"20鄰","STREET":"安和路","SECT":"四段","MAREA":" ","LANE":"５３３巷","ALLEY":"３７弄","HOUSE_NO":"１２號","E_COORD97":169853.34,"N_COORD97":2551240.2200000002,"ADDRESS":"安和路四段５３３巷３７弄１２號","OBJECTID":183687},"geometry":{"x":169853.33999999985,"y":2551240.2200000007}},{"attributes":{"ID":183689,"DIS_CODE":0,"TOWNNAME":"安南區","LI":"州南里","LIN":"20鄰","STREET":"安和路","SECT":"四段","MAREA":" ","LANE":"５３３巷","ALLEY":"３７弄","HOUSE_NO":"１４號","E_COORD97":169855.25,"N_COORD97":2551235.6000000001,"ADDRESS":"安和路四段５３３巷３７弄１４號","OBJECTID":183688},"geometry":{"x":169855.25,"y":2551235.6000000015}},{"attributes":{"ID":183690,"DIS_CODE":0,"TOWNNAME":"安南區","LI":"州南里","LIN":"20鄰","STREET":"安和路","SECT":"四段","MAREA":" ","LANE":"５３３巷","ALLEY":"３７弄","HOUSE_NO":"１６號","E_COORD97":169855.51999999999,"N_COORD97":2551229.6200000001,"ADDRESS":"安和路四段５３３巷３７弄１６號","OBJECTID":183689},"geometry":{"x":169855.52000000048,"y":2551229.6200000029}},{"attributes":{"ID":183691,"DIS_CODE":0,"TOWNNAME":"安南區","LI":"州南里","LIN":"20鄰","STREET":"安和路","SECT":"四段","MAREA":" ","LANE":"５３３巷","ALLEY":"３７弄","HOUSE_NO":"１７號","E_COORD97":169875.69,"N_COORD97":2551230.9500000002,"ADDRESS":"安和路四段５３３巷３７弄１７號","OBJECTID":183690},"geometry":{"x":169875.69000000134,"y":2551230.9499999993}},{"attributes":{"ID":183692,"DIS_CODE":0,"TOWNNAME":"安南區","LI":"州南里","LIN":"20鄰","STREET":"安和路","SECT":"四段","MAREA":" ","LANE":"５３３巷","ALLEY":"３７弄","HOUSE_NO":"１８號","E_COORD97":169857.14999999999,"N_COORD97":2551225.8199999998,"ADDRESS":"安和路四段５３３巷３７弄１８號","OBJECTID":183691},"geometry":{"x":169857.1500000013,"y":2551225.8200000003}},{"attributes":{"ID":183693,"DIS_CODE":0,"TOWNNAME":"安南區","LI":"州南里","LIN":"20鄰","STREET":"安和路","SECT":"四段","MAREA":" ","LANE":"５３３巷","ALLEY":"３７弄","HOUSE_NO":"１９號","E_COORD97":169877.94,"N_COORD97":2551226.2400000002,"ADDRESS":"安和路四段５３３巷３７弄１９號","OBJECTID":183692},"geometry":{"x":169877.94000000134,"y":2551226.2400000002}},{"attributes":{"ID":183694,"DIS_CODE":0,"TOWNNAME":"安南區","LI":"州南里","LIN":"20鄰","STREET":"安和路","SECT":"四段","MAREA":" ","LANE":"５３３巷","ALLEY":"３７弄","HOUSE_NO":"２０號","E_COORD97":169856.32999999999,"N_COORD97":2551221.4700000002,"ADDRESS":"安和路四段５３３巷３７弄２０號","OBJECTID":183693},"geometry":{"x":169856.33000000007,"y":2551221.4700000007}},{"attributes":{"ID":183695,"DIS_CODE":0,"TOWNNAME":"新營區","LI":"民榮里","LIN":"10鄰","STREET":"裕民路","SECT":" ","MAREA":" ","LANE":" ","ALLEY":" ","HOUSE_NO":"７號","E_COORD97":179132.54999999999,"N_COORD97":2577983.2400000002,"ADDRESS":"裕民路７號","OBJECTID":183694},"geometry":{"x":179132.54999999981,"y":2577983.2400000002}},{"attributes":{"ID":183696,"DIS_CODE":0,"TOWNNAME":"七股區","LI":"大埕里","LIN":"11鄰","STREET":" ","SECT":" ","MAREA":"大埕","LANE":" ","ALLEY":" ","HOUSE_NO":"３８０號","E_COORD97":161832.54000000001,"N_COORD97":2560059.04,"ADDRESS":"大埕３８０號","OBJECTID":183695},"geometry":{"x":161832.54000000097,"y":2560059.0399999991}},{"attributes":{"ID":183697,"DIS_CODE":0,"TOWNNAME":"七股區","LI":"大埕里","LIN":"11鄰","STREET":" ","SECT":" ","MAREA":"大埕","LANE":" ","ALLEY":" ","HOUSE_NO":"３８２號","E_COORD97":161899.85999999999,"N_COORD97":2560049.8700000001,"ADDRESS":"大埕３８２號","OBJECTID":183696},"geometry":{"x":161899.86000000034,"y":2560049.8700000029}},{"attributes":{"ID":183698,"DIS_CODE":0,"TOWNNAME":"永康區","LI":"烏竹里","LIN":"10鄰","STREET":"竹園二街","SECT":" ","MAREA":" ","LANE":" ","ALLEY":" ","HOUSE_NO":"１５６號","E_COORD97":174553.29000000001,"N_COORD97":2549247.0699999998,"ADDRESS":"竹園二街１５６號","OBJECTID":183697},"geometry":{"x":174553.29000000097,"y":2549247.0700000003}},{"attributes":{"ID":183699,"DIS_CODE":0,"TOWNNAME":"永康區","LI":"烏竹里","LIN":"10鄰","STREET":"竹園二街","SECT":" ","MAREA":" ","LANE":" ","ALLEY":" ","HOUSE_NO":"１６１號","E_COORD97":174543.64999999999,"N_COORD97":2549265.2400000002,"ADDRESS":"竹園二街１６１號","OBJECTID":183698},"geometry":{"x":174543.65000000037,"y":2549265.2400000021}},{"attributes":{"ID":183700,"DIS_CODE":0,"TOWNNAME":"安南區","LI":"州南里","LIN":"20鄰","STREET":"安和路","SECT":"四段","MAREA":" ","LANE":"５３３巷","ALLEY":"３７弄","HOUSE_NO":"２２號","E_COORD97":169859.60000000001,"N_COORD97":2551216.5800000001,"ADDRESS":"安和路四段５３３巷３７弄２２號","OBJECTID":183699},"geometry":{"x":169859.59999999963,"y":2551216.5800000001}},{"attributes":{"ID":183701,"DIS_CODE":0,"TOWNNAME":"佳里區","LI":"鎮山里","LIN":"10鄰","STREET":" ","SECT":" ","MAREA":"鎮山","LANE":" ","ALLEY":" ","HOUSE_NO":"７２號","E_COORD97":166298.91,"N_COORD97":2561536.04,"ADDRESS":"鎮山７２號","OBJECTID":183700},"geometry":{"x":166298.91000000108,"y":2561536.0399999991}},{"attributes":{"ID":183702,"DIS_CODE":0,"TOWNNAME":"安南區","LI":"州南里","LIN":"20鄰","STREET":"安和路","SECT":"四段","MAREA":" ","LANE":"５３３巷","ALLEY":"３７弄","HOUSE_NO":"２３號","E_COORD97":169881.82999999999,"N_COORD97":2551217.8599999999,"ADDRESS":"安和路四段５３３巷３７弄２３號","OBJECTID":183701},"geometry":{"x":169881.83000000007,"y":2551217.8599999994}},{"attributes":{"ID":183703,"DIS_CODE":0,"TOWNNAME":"佳里區","LI":"鎮山里","LIN":"10鄰","STREET":" ","SECT":" ","MAREA":"鎮山","LANE":" ","ALLEY":" ","HOUSE_NO":"７４號","E_COORD97":166261.44,"N_COORD97":2561593.3999999999,"ADDRESS":"鎮山７４號","OBJECTID":183702},"geometry":{"x":166261.44000000134,"y":2561593.4000000004}},{"attributes":{"ID":183704,"DIS_CODE":0,"TOWNNAME":"佳里區","LI":"鎮山里","LIN":"10鄰","STREET":" ","SECT":" ","MAREA":"鎮山","LANE":" ","ALLEY":" ","HOUSE_NO":"７６號之１","E_COORD97":166222.57000000001,"N_COORD97":2561543.52,"ADDRESS":"鎮山７６號之１","OBJECTID":183703},"geometry":{"x":166222.5700000003,"y":2561543.5199999996}},{"attributes":{"ID":183705,"DIS_CODE":0,"TOWNNAME":"安南區","LI":"州南里","LIN":"20鄰","STREET":"安和路","SECT":"四段","MAREA":" ","LANE":"５３３巷","ALLEY":"３７弄","HOUSE_NO":"２４號","E_COORD97":169859.60000000001,"N_COORD97":2551213.0499999998,"ADDRESS":"安和路四段５３３巷３７弄２４號","OBJECTID":183704},"geometry":{"x":169859.59999999963,"y":2551213.0500000026}},{"attributes":{"ID":183706,"DIS_CODE":0,"TOWNNAME":"安南區","LI":"州南里","LIN":"20鄰","STREET":"安和路","SECT":"四段","MAREA":" ","LANE":"５３３巷","ALLEY":"３７弄","HOUSE_NO":"２５號","E_COORD97":169881.82999999999,"N_COORD97":2551212.3399999999,"ADDRESS":"安和路四段５３３巷３７弄２５號","OBJECTID":183705},"geometry":{"x":169881.83000000007,"y":2551212.3399999999}},{"attributes":{"ID":183707,"DIS_CODE":0,"TOWNNAME":"佳里區","LI":"鎮山里","LIN":"10鄰","STREET":" ","SECT":" ","MAREA":"鎮山","LANE":" ","ALLEY":" ","HOUSE_NO":"７６號","E_COORD97":166228.79999999999,"N_COORD97":2561580.79,"ADDRESS":"鎮山７６號","OBJECTID":183706},"geometry":{"x":166228.79999999981,"y":2561580.790000001}},{"attributes":{"ID":183708,"DIS_CODE":0,"TOWNNAME":"佳里區","LI":"鎮山里","LIN":"10鄰","STREET":" ","SECT":" ","MAREA":"鎮山","LANE":" ","ALLEY":" ","HOUSE_NO":"７７號之１","E_COORD97":166208.26000000001,"N_COORD97":2561566.96,"ADDRESS":"鎮山７７號之１","OBJECTID":183707},"geometry":{"x":166208.26000000071,"y":2561566.9600000009}},{"attributes":{"ID":183709,"DIS_CODE":0,"TOWNNAME":"山上區","LI":"明和里","LIN":"10鄰","STREET":" ","SECT":" ","MAREA":"明和","LANE":" ","ALLEY":" ","HOUSE_NO":"１６３之２號","E_COORD97":183320.04000000001,"N_COORD97":2556177.2999999998,"ADDRESS":"明和１６３之２號","OBJECTID":183708},"geometry":{"x":183320.04000000004,"y":2556177.2999999989}},{"attributes":{"ID":183710,"DIS_CODE":0,"TOWNNAME":"安南區","LI":"州南里","LIN":"20鄰","STREET":"安和路","SECT":"四段","MAREA":" ","LANE":"５３３巷","ALLEY":"３７弄","HOUSE_NO":"２６號","E_COORD97":169860.41,"N_COORD97":2551208.1600000001,"ADDRESS":"安和路四段５３３巷３７弄２６號","OBJECTID":183709},"geometry":{"x":169860.41000000108,"y":2551208.160000002}},{"attributes":{"ID":183711,"DIS_CODE":0,"TOWNNAME":"安南區","LI":"州南里","LIN":"20鄰","STREET":"安和路","SECT":"四段","MAREA":" ","LANE":"５３３巷","ALLEY":"３７弄","HOUSE_NO":"２８號","E_COORD97":169862.57999999999,"N_COORD97":2551202.2400000002,"ADDRESS":"安和路四段５３３巷３７弄２８號","OBJECTID":183710},"geometry":{"x":169862.58000000101,"y":2551202.2400000002}},{"attributes":{"ID":183712,"DIS_CODE":0,"TOWNNAME":"安南區","LI":"州南里","LIN":"20鄰","STREET":"安和路","SECT":"四段","MAREA":" ","LANE":"５３３巷","ALLEY":"３７弄","HOUSE_NO":"２９號","E_COORD97":169886.34,"N_COORD97":2551199.8700000001,"ADDRESS":"安和路四段５３３巷３７弄２９號","OBJECTID":183711},"geometry":{"x":169886.34000000078,"y":2551199.870000001}},{"attributes":{"ID":183713,"DIS_CODE":0,"TOWNNAME":"安南區","LI":"州南里","LIN":"20鄰","STREET":"安和路","SECT":"四段","MAREA":" ","LANE":"５３３巷","ALLEY":"３７弄","HOUSE_NO":"３０號","E_COORD97":169884.48999999999,"N_COORD97":2551204.5699999998,"ADDRESS":"安和路四段５３３巷３７弄３０號","OBJECTID":183712},"geometry":{"x":169884.49000000022,"y":2551204.5700000003}},{"attributes":{"ID":183714,"DIS_CODE":0,"TOWNNAME":"安南區","LI":"州南里","LIN":"20鄰","STREET":"安和路","SECT":"四段","MAREA":" ","LANE":"５３３巷","ALLEY":"３７弄","HOUSE_NO":"３２號","E_COORD97":169863.39999999999,"N_COORD97":2551197.7400000002,"ADDRESS":"安和路四段５３３巷３７弄３２號","OBJECTID":183713},"geometry":{"x":169863.40000000037,"y":2551197.7400000021}},{"attributes":{"ID":183715,"DIS_CODE":0,"TOWNNAME":"安南區","LI":"州南里","LIN":"20鄰","STREET":"安和路","SECT":"四段","MAREA":" ","LANE":"５３３巷","ALLEY":"３７弄","HOUSE_NO":"３３號","E_COORD97":169886.95000000001,"N_COORD97":2551190.2599999998,"ADDRESS":"安和路四段５３３巷３７弄３３號","OBJECTID":183714},"geometry":{"x":169886.95000000205,"y":2551190.2600000016}},{"attributes":{"ID":183716,"DIS_CODE":0,"TOWNNAME":"安南區","LI":"州南里","LIN":"20鄰","STREET":"安和路","SECT":"四段","MAREA":" ","LANE":"５３３巷","ALLEY":"３７弄","HOUSE_NO":"３４號","E_COORD97":169864.01999999999,"N_COORD97":2551193.8599999999,"ADDRESS":"安和路四段５３３巷３７弄３４號","OBJECTID":183715},"geometry":{"x":169864.02000000048,"y":2551193.8599999994}},{"attributes":{"ID":183717,"DIS_CODE":0,"TOWNNAME":"安南區","LI":"州南里","LIN":"20鄰","STREET":"安和路","SECT":"四段","MAREA":" ","LANE":"５３３巷","ALLEY":"３７弄","HOUSE_NO":"３６號","E_COORD97":169866.06,"N_COORD97":2551190.79,"ADDRESS":"安和路四段５３３巷３７弄３６號","OBJECTID":183716},"geometry":{"x":169866.06000000052,"y":2551190.7899999991}},{"attributes":{"ID":183718,"DIS_CODE":0,"TOWNNAME":"楠西區","LI":"照興里","LIN":"18鄰","STREET":" ","SECT":" ","MAREA":"興南","LANE":" ","ALLEY":" ","HOUSE_NO":"３號","E_COORD97":196551.01999999999,"N_COORD97":2565213.25,"ADDRESS":"興南３號","OBJECTID":183717},"geometry":{"x":196551.01999999955,"y":2565213.2500000019}},{"attributes":{"ID":183719,"DIS_CODE":0,"TOWNNAME":"七股區","LI":"大埕里","LIN":"11鄰","STREET":" ","SECT":" ","MAREA":"大埕","LANE":" ","ALLEY":" ","HOUSE_NO":"３８４號","E_COORD97":161886.89000000001,"N_COORD97":2560060.7400000002,"ADDRESS":"大埕３８４號","OBJECTID":183718},"geometry":{"x":161886.88999999966,"y":2560060.7400000021}},{"attributes":{"ID":183720,"DIS_CODE":0,"TOWNNAME":"七股區","LI":"大埕里","LIN":"11鄰","STREET":" ","SECT":" ","MAREA":"大埕","LANE":" ","ALLEY":" ","HOUSE_NO":"３９５號","E_COORD97":161764.12,"N_COORD97":2559986.0899999999,"ADDRESS":"大埕３９５號","OBJECTID":183719},"geometry":{"x":161764.12000000197,"y":2559986.0900000017}},{"attributes":{"ID":183721,"DIS_CODE":0,"TOWNNAME":"七股區","LI":"大埕里","LIN":"11鄰","STREET":" ","SECT":" ","MAREA":"大埕","LANE":" ","ALLEY":" ","HOUSE_NO":"３９６號之２２","E_COORD97":161586.64000000001,"N_COORD97":2559856.8199999998,"ADDRESS":"大埕３９６號之２２","OBJECTID":183720},"geometry":{"x":161586.63999999966,"y":2559856.8200000022}},{"attributes":{"ID":183722,"DIS_CODE":0,"TOWNNAME":"七股區","LI":"大埕里","LIN":"11鄰","STREET":" ","SECT":" ","MAREA":"大埕","LANE":" ","ALLEY":" ","HOUSE_NO":"４０１號","E_COORD97":161898.72,"N_COORD97":2559979.9100000001,"ADDRESS":"大埕４０１號","OBJECTID":183721},"geometry":{"x":161898.7200000016,"y":2559979.9099999983}},{"attributes":{"ID":183723,"DIS_CODE":0,"TOWNNAME":"七股區","LI":"大埕里","LIN":"11鄰","STREET":" ","SECT":" ","MAREA":"大埕","LANE":" ","ALLEY":" ","HOUSE_NO":"４０３號","E_COORD97":161892.23999999999,"N_COORD97":2559954.4700000002,"ADDRESS":"大埕４０３號","OBJECTID":183722},"geometry":{"x":161892.24000000209,"y":2559954.4700000025}},{"attributes":{"ID":183724,"DIS_CODE":0,"TOWNNAME":"七股區","LI":"大埕里","LIN":"11鄰","STREET":" ","SECT":" ","MAREA":"大埕","LANE":" ","ALLEY":" ","HOUSE_NO":"４０４號","E_COORD97":161901.16,"N_COORD97":2559953.1899999999,"ADDRESS":"大埕４０４號","OBJECTID":183723},"geometry":{"x":161901.16000000201,"y":2559953.1899999995}},{"attributes":{"ID":183725,"DIS_CODE":0,"TOWNNAME":"楠西區","LI":"灣丘里","LIN":"10鄰","STREET":" ","SECT":" ","MAREA":"香蕉山","LANE":" ","ALLEY":" ","HOUSE_NO":"２８號之１３","E_COORD97":204233.26999999999,"N_COORD97":2564857.2999999998,"ADDRESS":"香蕉山２８號之１３","OBJECTID":183724},"geometry":{"x":204233.26999999955,"y":2564857.3000000026}},{"attributes":{"ID":183726,"DIS_CODE":0,"TOWNNAME":"楠西區","LI":"照興里","LIN":"10鄰","STREET":" ","SECT":" ","MAREA":"興北","LANE":" ","ALLEY":" ","HOUSE_NO":"１３０號之２","E_COORD97":196726.59,"N_COORD97":2565193.2999999998,"ADDRESS":"興北１３０號之２","OBJECTID":183725},"geometry":{"x":196726.58999999985,"y":2565193.3000000026}},{"attributes":{"ID":183727,"DIS_CODE":0,"TOWNNAME":"楠西區","LI":"照興里","LIN":"10鄰","STREET":" ","SECT":" ","MAREA":"興南","LANE":" ","ALLEY":" ","HOUSE_NO":"３號之６","E_COORD97":196543.95999999999,"N_COORD97":2565131.2999999998,"ADDRESS":"興南３號之６","OBJECTID":183726},"geometry":{"x":196543.96000000089,"y":2565131.2999999989}},{"attributes":{"ID":183728,"DIS_CODE":0,"TOWNNAME":"楠西區","LI":"密枝里","LIN":"10鄰","STREET":" ","SECT":" ","MAREA":"密枝","LANE":" ","ALLEY":" ","HOUSE_NO":"６０號","E_COORD97":202778.17000000001,"N_COORD97":2568262.2799999998,"ADDRESS":"密枝６０號","OBJECTID":183727},"geometry":{"x":202778.16999999993,"y":2568262.2799999993}},{"attributes":{"ID":183729,"DIS_CODE":0,"TOWNNAME":"楠西區","LI":"照興里","LIN":"10鄰","STREET":" ","SECT":" ","MAREA":"興南","LANE":" ","ALLEY":" ","HOUSE_NO":"３號之７","E_COORD97":196571.03,"N_COORD97":2565159.2999999998,"ADDRESS":"興南３號之７","OBJECTID":183728},"geometry":{"x":196571.03000000119,"y":2565159.3000000026}},{"attributes":{"ID":183730,"DIS_CODE":0,"TOWNNAME":"學甲區","LI":"秀昌里","LIN":"10鄰","STREET":" ","SECT":" ","MAREA":"一秀","LANE":" ","ALLEY":" ","HOUSE_NO":"１００號之１０","E_COORD97":165986.87,"N_COORD97":2570981.1200000001,"ADDRESS":"一秀１００號之１０","OBJECTID":183729},"geometry":{"x":165986.87000000197,"y":2570981.120000001}},{"attributes":{"ID":183731,"DIS_CODE":0,"TOWNNAME":"學甲區","LI":"秀昌里","LIN":"10鄰","STREET":" ","SECT":" ","MAREA":"一秀","LANE":" ","ALLEY":" ","HOUSE_NO":"１００號之１１","E_COORD97":165981.82999999999,"N_COORD97":2570987.9300000002,"ADDRESS":"一秀１００號之１１","OBJECTID":183730},"geometry":{"x":165981.83000000007,"y":2570987.9299999978}},{"attributes":{"ID":183732,"DIS_CODE":0,"TOWNNAME":"學甲區","LI":"秀昌里","LIN":"10鄰","STREET":" ","SECT":" ","MAREA":"一秀","LANE":" ","ALLEY":" ","HOUSE_NO":"１００號之１２","E_COORD97":165984.37,"N_COORD97":2570992.4700000002,"ADDRESS":"一秀１００號之１２","OBJECTID":183731},"geometry":{"x":165984.37000000011,"y":2570992.4700000044}},{"attributes":{"ID":183733,"DIS_CODE":0,"TOWNNAME":"學甲區","LI":"秀昌里","LIN":"10鄰","STREET":" ","SECT":" ","MAREA":"一秀","LANE":" ","ALLEY":" ","HOUSE_NO":"１００號之１３","E_COORD97":165984.23000000001,"N_COORD97":2570998.02,"ADDRESS":"一秀１００號之１３","OBJECTID":183732},"geometry":{"x":165984.23000000045,"y":2570998.0200000014}},{"attributes":{"ID":183734,"DIS_CODE":0,"TOWNNAME":"學甲區","LI":"秀昌里","LIN":"10鄰","STREET":" ","SECT":" ","MAREA":"一秀","LANE":" ","ALLEY":" ","HOUSE_NO":"１００號之１４","E_COORD97":165979.42999999999,"N_COORD97":2571002.71,"ADDRESS":"一秀１００號之１４","OBJECTID":183733},"geometry":{"x":165979.43000000063,"y":2571002.7100000009}},{"attributes":{"ID":183735,"DIS_CODE":0,"TOWNNAME":"學甲區","LI":"大灣里","LIN":"10鄰","STREET":" ","SECT":" ","MAREA":"大灣","LANE":" ","ALLEY":" ","HOUSE_NO":"１０１號之１０","E_COORD97":166771.85999999999,"N_COORD97":2567807.9500000002,"ADDRESS":"大灣１０１號之１０","OBJECTID":183734},"geometry":{"x":166771.86000000034,"y":2567807.9500000011}},{"attributes":{"ID":183736,"DIS_CODE":0,"TOWNNAME":"學甲區","LI":"大灣里","LIN":"10鄰","STREET":" ","SECT":" ","MAREA":"大灣","LANE":" ","ALLEY":" ","HOUSE_NO":"１０１號之１１","E_COORD97":166769.57999999999,"N_COORD97":2567813.5600000001,"ADDRESS":"大灣１０１號之１１","OBJECTID":183735},"geometry":{"x":166769.58000000007,"y":2567813.5600000005}},{"attributes":{"ID":183737,"DIS_CODE":0,"TOWNNAME":"學甲區","LI":"大灣里","LIN":"10鄰","STREET":" ","SECT":" ","MAREA":"大灣","LANE":" ","ALLEY":" ","HOUSE_NO":"１０１號之１２","E_COORD97":166767.19,"N_COORD97":2567819.6800000002,"ADDRESS":"大灣１０１號之１２","OBJECTID":183736},"geometry":{"x":166767.19000000134,"y":2567819.6800000034}},{"attributes":{"ID":183738,"DIS_CODE":0,"TOWNNAME":"學甲區","LI":"大灣里","LIN":"10鄰","STREET":" ","SECT":" ","MAREA":"大灣","LANE":" ","ALLEY":" ","HOUSE_NO":"１０１號之１３","E_COORD97":166775.89999999999,"N_COORD97":2567748.79,"ADDRESS":"大灣１０１號之１３","OBJECTID":183737},"geometry":{"x":166775.9000000013,"y":2567748.790000001}},{"attributes":{"ID":183739,"DIS_CODE":0,"TOWNNAME":"學甲區","LI":"大灣里","LIN":"10鄰","STREET":" ","SECT":" ","MAREA":"大灣","LANE":" ","ALLEY":" ","HOUSE_NO":"１０１號之１４","E_COORD97":166773.29999999999,"N_COORD97":2567755.2599999998,"ADDRESS":"大灣１０１號之１４","OBJECTID":183738},"geometry":{"x":166773.29999999981,"y":2567755.2600000016}},{"attributes":{"ID":183740,"DIS_CODE":0,"TOWNNAME":"學甲區","LI":"大灣里","LIN":"10鄰","STREET":" ","SECT":" ","MAREA":"大灣","LANE":" ","ALLEY":" ","HOUSE_NO":"１０１號之１５","E_COORD97":166771.32999999999,"N_COORD97":2567761.71,"ADDRESS":"大灣１０１號之１５","OBJECTID":183739},"geometry":{"x":166771.33000000007,"y":2567761.7100000009}},{"attributes":{"ID":183741,"DIS_CODE":0,"TOWNNAME":"學甲區","LI":"大灣里","LIN":"10鄰","STREET":" ","SECT":" ","MAREA":"大灣","LANE":" ","ALLEY":" ","HOUSE_NO":"１０１號之１６","E_COORD97":166768.79999999999,"N_COORD97":2567766.9500000002,"ADDRESS":"大灣１０１號之１６","OBJECTID":183740},"geometry":{"x":166768.80000000075,"y":2567766.9500000011}},{"attributes":{"ID":183742,"DIS_CODE":0,"TOWNNAME":"學甲區","LI":"大灣里","LIN":"10鄰","STREET":" ","SECT":" ","MAREA":"大灣","LANE":" ","ALLEY":" ","HOUSE_NO":"１０１號之１７","E_COORD97":166766.35999999999,"N_COORD97":2567773.0699999998,"ADDRESS":"大灣１０１號之１７","OBJECTID":183741},"geometry":{"x":166766.36000000034,"y":2567773.0700000003}},{"attributes":{"ID":183743,"DIS_CODE":0,"TOWNNAME":"東山區","LI":"東河里","LIN":"10鄰","STREET":" ","SECT":" ","MAREA":"吉貝耍","LANE":" ","ALLEY":" ","HOUSE_NO":"９５號之４","E_COORD97":186840.20999999999,"N_COORD97":2577203.1699999999,"ADDRESS":"吉貝耍９５號之４","OBJECTID":183742},"geometry":{"x":186840.21000000183,"y":2577203.1699999999}},{"attributes":{"ID":183744,"DIS_CODE":0,"TOWNNAME":"東山區","LI":"東河里","LIN":"10鄰","STREET":" ","SECT":" ","MAREA":"吉貝耍","LANE":" ","ALLEY":" ","HOUSE_NO":"９５號之５","E_COORD97":186840.16,"N_COORD97":2577198.1899999999,"ADDRESS":"吉貝耍９５號之５","OBJECTID":183743},"geometry":{"x":186840.16000000015,"y":2577198.1900000013}},{"attributes":{"ID":183745,"DIS_CODE":0,"TOWNNAME":"東山區","LI":"東河里","LIN":"10鄰","STREET":" ","SECT":" ","MAREA":"吉貝耍","LANE":" ","ALLEY":" ","HOUSE_NO":"９５號之６","E_COORD97":186840.19,"N_COORD97":2577193.4199999999,"ADDRESS":"吉貝耍９５號之６","OBJECTID":183744},"geometry":{"x":186840.19000000041,"y":2577193.4200000018}},{"attributes":{"ID":183746,"DIS_CODE":0,"TOWNNAME":"東山區","LI":"東河里","LIN":"10鄰","STREET":" ","SECT":" ","MAREA":"吉貝耍","LANE":" ","ALLEY":" ","HOUSE_NO":"９５號","E_COORD97":186859.06,"N_COORD97":2577227.1099999999,"ADDRESS":"吉貝耍９５號","OBJECTID":183745},"geometry":{"x":186859.05999999959,"y":2577227.1099999994}},{"attributes":{"ID":183747,"DIS_CODE":0,"TOWNNAME":"東山區","LI":"東河里","LIN":"10鄰","STREET":" ","SECT":" ","MAREA":"吉貝耍","LANE":" ","ALLEY":" ","HOUSE_NO":"９７號之１","E_COORD97":186872.76999999999,"N_COORD97":2577186.3900000001,"ADDRESS":"吉貝耍９７號之１","OBJECTID":183746},"geometry":{"x":186872.76999999955,"y":2577186.3900000006}},{"attributes":{"ID":183748,"DIS_CODE":0,"TOWNNAME":"東山區","LI":"東河里","LIN":"10鄰","STREET":" ","SECT":" ","MAREA":"吉貝耍","LANE":" ","ALLEY":" ","HOUSE_NO":"９７號","E_COORD97":186863.97,"N_COORD97":2577185.5600000001,"ADDRESS":"吉貝耍９７號","OBJECTID":183747},"geometry":{"x":186863.97000000067,"y":2577185.5600000042}},{"attributes":{"ID":183749,"DIS_CODE":0,"TOWNNAME":"東山區","LI":"東河里","LIN":"10鄰","STREET":" ","SECT":" ","MAREA":"吉貝耍","LANE":" ","ALLEY":" ","HOUSE_NO":"９９號","E_COORD97":186847.09,"N_COORD97":2577183.3500000001,"ADDRESS":"吉貝耍９９號","OBJECTID":183748},"geometry":{"x":186847.08999999985,"y":2577183.3500000015}},{"attributes":{"ID":183750,"DIS_CODE":0,"TOWNNAME":"東山區","LI":"嶺南里","LIN":"10鄰","STREET":" ","SECT":" ","MAREA":"宅子內","LANE":" ","ALLEY":" ","HOUSE_NO":"３０號","E_COORD97":192727.88,"N_COORD97":2572039.5099999998,"ADDRESS":"宅子內３０號","OBJECTID":183749},"geometry":{"x":192727.87999999989,"y":2572039.5100000016}},{"attributes":{"ID":183751,"DIS_CODE":0,"TOWNNAME":"東山區","LI":"嶺南里","LIN":"10鄰","STREET":" ","SECT":" ","MAREA":"宅子內","LANE":" ","ALLEY":" ","HOUSE_NO":"３１號","E_COORD97":192728.76000000001,"N_COORD97":2572020.1099999999,"ADDRESS":"宅子內３１號","OBJECTID":183750},"geometry":{"x":192728.76000000164,"y":2572020.1099999994}},{"attributes":{"ID":183752,"DIS_CODE":0,"TOWNNAME":"安南區","LI":"州南里","LIN":"20鄰","STREET":"安和路","SECT":"四段","MAREA":" ","LANE":"５３３巷","ALLEY":"３７弄","HOUSE_NO":"３號","E_COORD97":169868.09,"N_COORD97":2551262.6600000001,"ADDRESS":"安和路四段５３３巷３７弄３號","OBJECTID":183751},"geometry":{"x":169868.08999999985,"y":2551262.660000002}},{"attributes":{"ID":183753,"DIS_CODE":0,"TOWNNAME":"安南區","LI":"州南里","LIN":"20鄰","STREET":"安和路","SECT":"四段","MAREA":" ","LANE":"５３３巷","ALLEY":"３７弄","HOUSE_NO":"４號","E_COORD97":169850.06,"N_COORD97":2551257.6400000001,"ADDRESS":"安和路四段５３３巷３７弄４號","OBJECTID":183752},"geometry":{"x":169850.06000000145,"y":2551257.6400000006}},{"attributes":{"ID":183754,"DIS_CODE":0,"TOWNNAME":"東山區","LI":"嶺南里","LIN":"10鄰","STREET":" ","SECT":" ","MAREA":"宅子內","LANE":" ","ALLEY":" ","HOUSE_NO":"３２號","E_COORD97":192707.88,"N_COORD97":2572006.3300000001,"ADDRESS":"宅子內３２號","OBJECTID":183753},"geometry":{"x":192707.88000000175,"y":2572006.3300000038}},{"attributes":{"ID":183755,"DIS_CODE":0,"TOWNNAME":"玉井區","LI":"玉田里","LIN":"24鄰","STREET":"中華路","SECT":" ","MAREA":" ","LANE":" ","ALLEY":" ","HOUSE_NO":"１６６號","E_COORD97":195116.26000000001,"N_COORD97":2557888.2400000002,"ADDRESS":"中華路１６６號","OBJECTID":183754},"geometry":{"x":195116.26000000071,"y":2557888.2400000002}},{"attributes":{"ID":183756,"DIS_CODE":0,"TOWNNAME":"東山區","LI":"嶺南里","LIN":"10鄰","STREET":" ","SECT":" ","MAREA":"宅子內","LANE":" ","ALLEY":" ","HOUSE_NO":"３３號","E_COORD97":192736.51000000001,"N_COORD97":2572020.2200000002,"ADDRESS":"宅子內３３號","OBJECTID":183755},"geometry":{"x":192736.50999999978,"y":2572020.2200000007}},{"attributes":{"ID":183757,"DIS_CODE":0,"TOWNNAME":"新化區","LI":"\u25A0拔里","LIN":"10鄰","STREET":" ","SECT":" ","MAREA":"牧場","LANE":" ","ALLEY":" ","HOUSE_NO":"９９號","E_COORD97":181875.32999999999,"N_COORD97":2551224.25,"ADDRESS":"牧場９９號","OBJECTID":183756},"geometry":{"x":181875.33000000007,"y":2551224.2500000019}},{"attributes":{"ID":183758,"DIS_CODE":0,"TOWNNAME":"新化區","LI":"全興里","LIN":"10鄰","STREET":" ","SECT":" ","MAREA":"竹子\u25A0","LANE":" ","ALLEY":" ","HOUSE_NO":"１７７號之１２","E_COORD97":177663.84,"N_COORD97":2547431.2599999998,"ADDRESS":"竹子\u25A0１７７號之１２","OBJECTID":183757},"geometry":{"x":177663.84000000078,"y":2547431.2600000016}},{"attributes":{"ID":183759,"DIS_CODE":0,"TOWNNAME":"新化區","LI":"唪口里","LIN":"10鄰","STREET":" ","SECT":" ","MAREA":"唪口","LANE":" ","ALLEY":" ","HOUSE_NO":"１４２號之２６","E_COORD97":177242.95000000001,"N_COORD97":2548999.2599999998,"ADDRESS":"唪口１４２號之２６","OBJECTID":183758},"geometry":{"x":177242.95000000112,"y":2548999.2600000035}},{"attributes":{"ID":183760,"DIS_CODE":0,"TOWNNAME":"新化區","LI":"全興里","LIN":"10鄰","STREET":" ","SECT":" ","MAREA":"竹子\u25A0","LANE":" ","ALLEY":" ","HOUSE_NO":"１９７號之１０","E_COORD97":177885.51999999999,"N_COORD97":2547536.2599999998,"ADDRESS":"竹子\u25A0１９７號之１０","OBJECTID":183759},"geometry":{"x":177885.52000000142,"y":2547536.2600000016}},{"attributes":{"ID":183761,"DIS_CODE":0,"TOWNNAME":"新化區","LI":"全興里","LIN":"10鄰","STREET":" ","SECT":" ","MAREA":"竹子\u25A0","LANE":" ","ALLEY":" ","HOUSE_NO":"１８１之１號","E_COORD97":177605.13,"N_COORD97":2547591.2599999998,"ADDRESS":"竹子\u25A0１８１之１號","OBJECTID":183760},"geometry":{"x":177605.12999999989,"y":2547591.2599999998}},{"attributes":{"ID":183762,"DIS_CODE":0,"TOWNNAME":"新化區","LI":"全興里","LIN":"10鄰","STREET":" ","SECT":" ","MAREA":"竹子\u25A0","LANE":" ","ALLEY":" ","HOUSE_NO":"１５８號之１","E_COORD97":177521.66,"N_COORD97":2547522.2599999998,"ADDRESS":"竹子\u25A0１５８號之１","OBJECTID":183761},"geometry":{"x":177521.66000000015,"y":2547522.2600000016}},{"attributes":{"ID":183763,"DIS_CODE":0,"TOWNNAME":"安南區","LI":"州南里","LIN":"20鄰","STREET":"安和路","SECT":"四段","MAREA":" ","LANE":"５３３巷","ALLEY":"３７弄","HOUSE_NO":"５號","E_COORD97":169870.76000000001,"N_COORD97":2551258.3700000001,"ADDRESS":"安和路四段５３３巷３７弄５號","OBJECTID":183762},"geometry":{"x":169870.75999999885,"y":2551258.3700000029}},{"attributes":{"ID":183764,"DIS_CODE":0,"TOWNNAME":"安南區","LI":"州南里","LIN":"20鄰","STREET":"安和路","SECT":"四段","MAREA":" ","LANE":"５３３巷","ALLEY":"３７弄","HOUSE_NO":"６號","E_COORD97":169849.26000000001,"N_COORD97":2551252.1699999999,"ADDRESS":"安和路四段５３３巷３７弄６號","OBJECTID":183763},"geometry":{"x":169849.26000000071,"y":2551252.1700000018}},{"attributes":{"ID":183765,"DIS_CODE":0,"TOWNNAME":"安南區","LI":"州南里","LIN":"20鄰","STREET":"安和路","SECT":"四段","MAREA":" ","LANE":"５３３巷","ALLEY":"３７弄","HOUSE_NO":"７號","E_COORD97":169870.06,"N_COORD97":2551252.8100000001,"ADDRESS":"安和路四段５３３巷３７弄７號","OBJECTID":183764},"geometry":{"x":169870.05999999959,"y":2551252.8100000005}},{"attributes":{"ID":183766,"DIS_CODE":0,"TOWNNAME":"安南區","LI":"州南里","LIN":"20鄰","STREET":"安和路","SECT":"四段","MAREA":" ","LANE":"５３３巷","ALLEY":"３７弄","HOUSE_NO":"８號","E_COORD97":169851.17000000001,"N_COORD97":2551248.6400000001,"ADDRESS":"安和路四段５３３巷３７弄８號","OBJECTID":183765},"geometry":{"x":169851.16999999993,"y":2551248.6399999987}},{"attributes":{"ID":183767,"DIS_CODE":0,"TOWNNAME":"安南區","LI":"安東里","LIN":"20鄰","STREET":"安和路","SECT":"一段","MAREA":" ","LANE":"４９６巷","ALLEY":"２３弄","HOUSE_NO":"３７號","E_COORD97":169590.73000000001,"N_COORD97":2548457.77,"ADDRESS":"安和路一段４９６巷２３弄３７號","OBJECTID":183766},"geometry":{"x":169590.73000000138,"y":2548457.7700000014}},{"attributes":{"ID":183768,"DIS_CODE":0,"TOWNNAME":"新化區","LI":"知義里","LIN":"10鄰","STREET":" ","SECT":" ","MAREA":"新和庄","LANE":" ","ALLEY":" ","HOUSE_NO":"２００號","E_COORD97":181588.69,"N_COORD97":2547118.25,"ADDRESS":"新和庄２００號","OBJECTID":183767},"geometry":{"x":181588.69000000041,"y":2547118.2500000019}},{"attributes":{"ID":183769,"DIS_CODE":0,"TOWNNAME":"新化區","LI":"\u25A0拔里","LIN":"10鄰","STREET":" ","SECT":" ","MAREA":"牧場","LANE":" ","ALLEY":" ","HOUSE_NO":"８９號","E_COORD97":181902.23000000001,"N_COORD97":2551245.25,"ADDRESS":"牧場８９號","OBJECTID":183768},"geometry":{"x":181902.23000000045,"y":2551245.2500000019}},{"attributes":{"ID":183770,"DIS_CODE":0,"TOWNNAME":"歸仁區","LI":"西埔里","LIN":"2鄰","STREET":"保大路","SECT":"二段","MAREA":" ","LANE":"１４５巷","ALLEY":"１２弄","HOUSE_NO":"２號","E_COORD97":176916.32795499999,"N_COORD97":2544062.1628100001,"ADDRESS":"保大路二段１４５巷１２弄２號","OBJECTID":183769},"geometry":{"x":176916.32795500103,"y":2544062.1628120001}},{"attributes":{"ID":183771,"DIS_CODE":0,"TOWNNAME":"仁德區","LI":"新田里","LIN":"7鄰","STREET":"新田路","SECT":" ","MAREA":" ","LANE":"２巷","ALLEY":"１弄","HOUSE_NO":"７８號","E_COORD97":174636.014459,"N_COORD97":2538926.4237600002,"ADDRESS":"新田路２巷１弄７８號","OBJECTID":183770},"geometry":{"x":174636.0144590009,"y":2538926.4237590004}},{"attributes":{"ID":183772,"DIS_CODE":0,"TOWNNAME":"安南區","LI":"安東里","LIN":"20鄰","STREET":"安和路","SECT":"一段","MAREA":" ","LANE":"４９６巷","ALLEY":"２３弄","HOUSE_NO":"１１號","E_COORD97":169539.01000000001,"N_COORD97":2548453.4399999999,"ADDRESS":"安和路一段４９６巷２３弄１１號","OBJECTID":183771},"geometry":{"x":169539.01000000071,"y":2548453.4400000013}},{"attributes":{"ID":183773,"DIS_CODE":0,"TOWNNAME":"新化區","LI":"太平里","LIN":"10鄰","STREET":"中正路","SECT":" ","MAREA":" ","LANE":"７７７巷","ALLEY":" ","HOUSE_NO":"１０３號","E_COORD97":178572.31,"N_COORD97":2549311.25,"ADDRESS":"中正路７７７巷１０３號","OBJECTID":183772},"geometry":{"x":178572.31000000052,"y":2549311.25}},{"attributes":{"ID":183774,"DIS_CODE":0,"TOWNNAME":"玉井區","LI":"玉田里","LIN":"24鄰","STREET":"中華路","SECT":" ","MAREA":" ","LANE":" ","ALLEY":" ","HOUSE_NO":"１５４號","E_COORD97":195089.76000000001,"N_COORD97":2557911.25,"ADDRESS":"中華路１５４號","OBJECTID":183773},"geometry":{"x":195089.75999999978,"y":2557911.25}},{"attributes":{"ID":183775,"DIS_CODE":0,"TOWNNAME":"安南區","LI":"安東里","LIN":"20鄰","STREET":"安和路","SECT":"一段","MAREA":" ","LANE":"４９６巷","ALLEY":"２３弄","HOUSE_NO":"１３號","E_COORD97":169543.06,"N_COORD97":2548452.46,"ADDRESS":"安和路一段４９６巷２３弄１３號","OBJECTID":183774},"geometry":{"x":169543.05999999866,"y":2548452.4600000009}},{"attributes":{"ID":183776,"DIS_CODE":0,"TOWNNAME":"新化區","LI":"全興里","LIN":"10鄰","STREET":" ","SECT":" ","MAREA":"竹子\u25A0","LANE":" ","ALLEY":" ","HOUSE_NO":"１７０號","E_COORD97":177447.23000000001,"N_COORD97":2547331.25,"ADDRESS":"竹子\u25A0１７０號","OBJECTID":183775},"geometry":{"x":177447.23000000045,"y":2547331.25}},{"attributes":{"ID":183777,"DIS_CODE":0,"TOWNNAME":"安南區","LI":"安東里","LIN":"20鄰","STREET":"安和路","SECT":"一段","MAREA":" ","LANE":"４９６巷","ALLEY":"２３弄","HOUSE_NO":"１５號","E_COORD97":169547.39000000001,"N_COORD97":2548454.2799999998,"ADDRESS":"安和路一段４９６巷２３弄１５號","OBJECTID":183776},"geometry":{"x":169547.38999999966,"y":2548454.2800000012}},{"attributes":{"ID":183778,"DIS_CODE":0,"TOWNNAME":"安南區","LI":"安東里","LIN":"20鄰","STREET":"安和路","SECT":"一段","MAREA":" ","LANE":"４９６巷","ALLEY":"２３弄","HOUSE_NO":"１９號","E_COORD97":169555.51999999999,"N_COORD97":2548454.9700000002,"ADDRESS":"安和路一段４９６巷２３弄１９號","OBJECTID":183777},"geometry":{"x":169555.52000000048,"y":2548454.9700000007}},{"attributes":{"ID":183779,"DIS_CODE":0,"TOWNNAME":"安南區","LI":"安東里","LIN":"20鄰","STREET":"安和路","SECT":"一段","MAREA":" ","LANE":"４９６巷","ALLEY":"２３弄","HOUSE_NO":"１號","E_COORD97":169519.31,"N_COORD97":2548452.7400000002,"ADDRESS":"安和路一段４９６巷２３弄１號","OBJECTID":183778},"geometry":{"x":169519.30999999959,"y":2548452.7400000002}},{"attributes":{"ID":183780,"DIS_CODE":0,"TOWNNAME":"新化區","LI":"山\u25A0里","LIN":"10鄰","STREET":" ","SECT":" ","MAREA":"五甲勢","LANE":" ","ALLEY":" ","HOUSE_NO":"５８號","E_COORD97":181901.78,"N_COORD97":2545542.2599999998,"ADDRESS":"五甲勢５８號","OBJECTID":183779},"geometry":{"x":181901.78000000026,"y":2545542.2600000016}},{"attributes":{"ID":183781,"DIS_CODE":0,"TOWNNAME":"安南區","LI":"安東里","LIN":"20鄰","STREET":"安和路","SECT":"一段","MAREA":" ","LANE":"４９６巷","ALLEY":"２３弄","HOUSE_NO":"２１號","E_COORD97":169559.29000000001,"N_COORD97":2548453.8599999999,"ADDRESS":"安和路一段４９６巷２３弄２１號","OBJECTID":183780},"geometry":{"x":169559.29000000097,"y":2548453.8600000013}},{"attributes":{"ID":183782,"DIS_CODE":0,"TOWNNAME":"安南區","LI":"安東里","LIN":"20鄰","STREET":"安和路","SECT":"一段","MAREA":" ","LANE":"４９６巷","ALLEY":"２３弄","HOUSE_NO":"２３號","E_COORD97":169563.06,"N_COORD97":2548455.8100000001,"ADDRESS":"安和路一段４９６巷２３弄２３號","OBJECTID":183781},"geometry":{"x":169563.05999999959,"y":2548455.8100000005}},{"attributes":{"ID":183783,"DIS_CODE":0,"TOWNNAME":"安南區","LI":"安東里","LIN":"20鄰","STREET":"安和路","SECT":"一段","MAREA":" ","LANE":"４９６巷","ALLEY":"２３弄","HOUSE_NO":"２５號","E_COORD97":169567.25,"N_COORD97":2548454.1400000001,"ADDRESS":"安和路一段４９６巷２３弄２５號","OBJECTID":183782},"geometry":{"x":169567.25,"y":2548454.1400000006}},{"attributes":{"ID":183784,"DIS_CODE":0,"TOWNNAME":"新化區","LI":"礁坑里","LIN":"10鄰","STREET":" ","SECT":" ","MAREA":"蔡厝仔","LANE":" ","ALLEY":" ","HOUSE_NO":"１８號","E_COORD97":184554.07000000001,"N_COORD97":2548655.25,"ADDRESS":"蔡厝仔１８號","OBJECTID":183783},"geometry":{"x":184554.0700000003,"y":2548655.2500000019}},{"attributes":{"ID":183785,"DIS_CODE":0,"TOWNNAME":"安南區","LI":"安東里","LIN":"20鄰","STREET":"安和路","SECT":"一段","MAREA":" ","LANE":"４９６巷","ALLEY":"２３弄","HOUSE_NO":"２７號","E_COORD97":169571.17000000001,"N_COORD97":2548456.0899999999,"ADDRESS":"安和路一段４９６巷２３弄２７號","OBJECTID":183784},"geometry":{"x":169571.16999999993,"y":2548456.0900000017}},{"attributes":{"ID":183786,"DIS_CODE":0,"TOWNNAME":"安南區","LI":"安東里","LIN":"20鄰","STREET":"安和路","SECT":"一段","MAREA":" ","LANE":"４９６巷","ALLEY":"２３弄","HOUSE_NO":"２９號","E_COORD97":169574.94,"N_COORD97":2548455.1099999999,"ADDRESS":"安和路一段４９６巷２３弄２９號","OBJECTID":183785},"geometry":{"x":169574.94000000041,"y":2548455.1100000013}},{"attributes":{"ID":183787,"DIS_CODE":0,"TOWNNAME":"安南區","LI":"安東里","LIN":"20鄰","STREET":"安和路","SECT":"一段","MAREA":" ","LANE":"４９６巷","ALLEY":"２３弄","HOUSE_NO":"３１號","E_COORD97":169579.41,"N_COORD97":2548456.79,"ADDRESS":"安和路一段４９６巷２３弄３１號","OBJECTID":183786},"geometry":{"x":169579.41000000108,"y":2548456.790000001}},{"attributes":{"ID":183788,"DIS_CODE":0,"TOWNNAME":"安南區","LI":"安東里","LIN":"20鄰","STREET":"安和路","SECT":"一段","MAREA":" ","LANE":"４９６巷","ALLEY":"２３弄","HOUSE_NO":"３３號","E_COORD97":169582.89999999999,"N_COORD97":2548454.9700000002,"ADDRESS":"安和路一段４９６巷２３弄３３號","OBJECTID":183787},"geometry":{"x":169582.9000000013,"y":2548454.9700000007}},{"attributes":{"ID":183789,"DIS_CODE":0,"TOWNNAME":"新化區","LI":"知義里","LIN":"10鄰","STREET":" ","SECT":" ","MAREA":"新和庄","LANE":" ","ALLEY":" ","HOUSE_NO":"２２０號","E_COORD97":181487.89000000001,"N_COORD97":2546952.25,"ADDRESS":"新和庄２２０號","OBJECTID":183788},"geometry":{"x":181487.88999999966,"y":2546952.2500000019}},{"attributes":{"ID":183790,"DIS_CODE":0,"TOWNNAME":"安南區","LI":"安東里","LIN":"20鄰","STREET":"安和路","SECT":"一段","MAREA":" ","LANE":"４９６巷","ALLEY":"２３弄","HOUSE_NO":"３５號","E_COORD97":169586.54000000001,"N_COORD97":2548456.79,"ADDRESS":"安和路一段４９６巷２３弄３５號","OBJECTID":183789},"geometry":{"x":169586.54000000097,"y":2548456.790000001}},{"attributes":{"ID":183791,"DIS_CODE":0,"TOWNNAME":"新化區","LI":"崙頂里","LIN":"10鄰","STREET":" ","SECT":" ","MAREA":"崙子頂","LANE":" ","ALLEY":" ","HOUSE_NO":"３６７號","E_COORD97":176822.32999999999,"N_COORD97":2546835.25,"ADDRESS":"崙子頂３６７號","OBJECTID":183790},"geometry":{"x":176822.33000000007,"y":2546835.25}},{"attributes":{"ID":183792,"DIS_CODE":0,"TOWNNAME":"新化區","LI":"全興里","LIN":"10鄰","STREET":" ","SECT":" ","MAREA":"竹子\u25A0","LANE":" ","ALLEY":" ","HOUSE_NO":"１４３號","E_COORD97":177557.92999999999,"N_COORD97":2547592.25,"ADDRESS":"竹子\u25A0１４３號","OBJECTID":183791},"geometry":{"x":177557.93000000063,"y":2547592.25}},{"attributes":{"ID":183793,"DIS_CODE":0,"TOWNNAME":"新化區","LI":"唪口里","LIN":"10鄰","STREET":" ","SECT":" ","MAREA":"唪口","LANE":" ","ALLEY":" ","HOUSE_NO":"１５４號","E_COORD97":177581.45000000001,"N_COORD97":2548971.25,"ADDRESS":"唪口１５４號","OBJECTID":183792},"geometry":{"x":177581.45000000205,"y":2548971.25}},{"attributes":{"ID":183794,"DIS_CODE":0,"TOWNNAME":"七股區","LI":"大埕里","LIN":"11鄰","STREET":" ","SECT":" ","MAREA":"大埕","LANE":" ","ALLEY":" ","HOUSE_NO":"４０５號","E_COORD97":161890.60000000001,"N_COORD97":2559938.2999999998,"ADDRESS":"大埕４０５號","OBJECTID":183793},"geometry":{"x":161890.59999999963,"y":2559938.3000000026}},{"attributes":{"ID":183795,"DIS_CODE":0,"TOWNNAME":"七股區","LI":"大埕里","LIN":"11鄰","STREET":" ","SECT":" ","MAREA":"大埕","LANE":" ","ALLEY":" ","HOUSE_NO":"４０６號","E_COORD97":161899.32000000001,"N_COORD97":2559937.4900000002,"ADDRESS":"大埕４０６號","OBJECTID":183794},"geometry":{"x":161899.32000000123,"y":2559937.4900000002}},{"attributes":{"ID":183796,"DIS_CODE":0,"TOWNNAME":"七股區","LI":"中寮里","LIN":"11鄰","STREET":" ","SECT":" ","MAREA":"中寮","LANE":" ","ALLEY":" ","HOUSE_NO":"７５號之３","E_COORD97":158866.95999999999,"N_COORD97":2561581.4700000002,"ADDRESS":"中寮７５號之３","OBJECTID":183795},"geometry":{"x":158866.96000000089,"y":2561581.4700000025}},{"attributes":{"ID":183797,"DIS_CODE":0,"TOWNNAME":"鹽水區","LI":"桐寮里","LIN":"3鄰","STREET":" ","SECT":" ","MAREA":"桐寮","LANE":" ","ALLEY":" ","HOUSE_NO":"５號","E_COORD97":173965.04999999999,"N_COORD97":2576647.8900000001,"ADDRESS":"桐寮５號","OBJECTID":183796},"geometry":{"x":173965.05000000075,"y":2576647.8900000043}},{"attributes":{"ID":183798,"DIS_CODE":0,"TOWNNAME":"七股區","LI":"中寮里","LIN":"11鄰","STREET":" ","SECT":" ","MAREA":"中寮","LANE":" ","ALLEY":" ","HOUSE_NO":"７６號之１","E_COORD97":158828.229525,"N_COORD97":2561606.4466599999,"ADDRESS":"中寮７６號之１","OBJECTID":183797},"geometry":{"x":158828.22952499986,"y":2561606.4466600046}},{"attributes":{"ID":183799,"DIS_CODE":0,"TOWNNAME":"七股區","LI":"中寮里","LIN":"11鄰","STREET":" ","SECT":" ","MAREA":"中寮","LANE":" ","ALLEY":" ","HOUSE_NO":"７６號","E_COORD97":158833.948683,"N_COORD97":2561607.0816600001,"ADDRESS":"中寮７６號","OBJECTID":183798},"geometry":{"x":158833.94868300017,"y":2561607.0816600043}},{"attributes":{"ID":183800,"DIS_CODE":0,"TOWNNAME":"七股區","LI":"中寮里","LIN":"11鄰","STREET":" ","SECT":" ","MAREA":"中寮","LANE":" ","ALLEY":" ","HOUSE_NO":"７７號","E_COORD97":158815.23999999999,"N_COORD97":2561619.4500000002,"ADDRESS":"中寮７７號","OBJECTID":183799},"geometry":{"x":158815.24000000022,"y":2561619.4499999993}},{"attributes":{"ID":183801,"DIS_CODE":0,"TOWNNAME":"七股區","LI":"中寮里","LIN":"11鄰","STREET":" ","SECT":" ","MAREA":"中寮","LANE":" ","ALLEY":" ","HOUSE_NO":"７８號之１","E_COORD97":158867.34,"N_COORD97":2561595.2599999998,"ADDRESS":"中寮７８號之１","OBJECTID":183800},"geometry":{"x":158867.34000000078,"y":2561595.2600000016}}]}