{"displayFieldName":"TOWNNAME","fieldAliases":{"ID":"ID","DIS_CODE":"DIS_CODE","TOWNNAME":"TOWNNAME","LI":"LI","LIN":"LIN","STREET":"STREET","SECT":"SECT","MAREA":"MAREA","LANE":"LANE","ALLEY":"ALLEY","HOUSE_NO":"HOUSE_NO","E_COORD97":"E_COORD97","N_COORD97":"N_COORD97","ADDRESS":"ADDRESS","OBJECTID":"OBJECTID"},"geometryType":"esriGeometryPoint","spatialReference":{"wkid":102443,"latestWkid":3826},"fields":[{"name":"ID","type":"esriFieldTypeDouble","alias":"ID"},{"name":"DIS_CODE","type":"esriFieldTypeInteger","alias":"DIS_CODE"},{"name":"TOWNNAME","type":"esriFieldTypeString","alias":"TOWNNAME","length":8},{"name":"LI","type":"esriFieldTypeString","alias":"LI","length":8},{"name":"LIN","type":"esriFieldTypeString","alias":"LIN","length":12},{"name":"STREET","type":"esriFieldTypeString","alias":"STREET","length":20},{"name":"SECT","type":"esriFieldTypeString","alias":"SECT","length":8},{"name":"MAREA","type":"esriFieldTypeString","alias":"MAREA","length":12},{"name":"LANE","type":"esriFieldTypeString","alias":"LANE","length":10},{"name":"ALLEY","type":"esriFieldTypeString","alias":"ALLEY","length":10},{"name":"HOUSE_NO","type":"esriFieldTypeString","alias":"HOUSE_NO","length":20},{"name":"E_COORD97","type":"esriFieldTypeDouble","alias":"E_COORD97"},{"name":"N_COORD97","type":"esriFieldTypeDouble","alias":"N_COORD97"},{"name":"ADDRESS","type":"esriFieldTypeString","alias":"ADDRESS","length":50},{"name":"OBJECTID","type":"esriFieldTypeOID","alias":"OBJECTID"}],"features":[{"attributes":{"ID":39401,"DIS_CODE":0,"TOWNNAME":"鹽水區","LI":"下中里","LIN":"7鄰","STREET":" ","SECT":" ","MAREA":"下中","LANE":" ","ALLEY":" ","HOUSE_NO":"４６之４７號","E_COORD97":172423.45999999999,"N_COORD97":2579806.8999999999,"ADDRESS":"下中４６之４７號","OBJECTID":39401},"geometry":{"x":172423.46000000089,"y":2579806.9000000004}},{"attributes":{"ID":39402,"DIS_CODE":0,"TOWNNAME":"鹽水區","LI":"下中里","LIN":"7鄰","STREET":" ","SECT":" ","MAREA":"下中","LANE":" ","ALLEY":" ","HOUSE_NO":"４６之４８號","E_COORD97":172423.89000000001,"N_COORD97":2579810.7400000002,"ADDRESS":"下中４６之４８號","OBJECTID":39402},"geometry":{"x":172423.88999999966,"y":2579810.7400000002}},{"attributes":{"ID":39403,"DIS_CODE":0,"TOWNNAME":"鹽水區","LI":"下中里","LIN":"7鄰","STREET":" ","SECT":" ","MAREA":"下中","LANE":" ","ALLEY":" ","HOUSE_NO":"４６之４９號","E_COORD97":172424.23999999999,"N_COORD97":2579814.54,"ADDRESS":"下中４６之４９號","OBJECTID":39403},"geometry":{"x":172424.24000000022,"y":2579814.5399999991}},{"attributes":{"ID":39404,"DIS_CODE":0,"TOWNNAME":"鹽水區","LI":"下中里","LIN":"7鄰","STREET":" ","SECT":" ","MAREA":"下中","LANE":" ","ALLEY":" ","HOUSE_NO":"４６之４號","E_COORD97":172357.94,"N_COORD97":2579778.2400000002,"ADDRESS":"下中４６之４號","OBJECTID":39404},"geometry":{"x":172357.94000000134,"y":2579778.2400000021}},{"attributes":{"ID":39405,"DIS_CODE":0,"TOWNNAME":"鹽水區","LI":"下中里","LIN":"7鄰","STREET":" ","SECT":" ","MAREA":"下中","LANE":" ","ALLEY":" ","HOUSE_NO":"４６號之５０","E_COORD97":172424.87,"N_COORD97":2579818.7799999998,"ADDRESS":"下中４６號之５０","OBJECTID":39405},"geometry":{"x":172424.87000000011,"y":2579818.7800000012}},{"attributes":{"ID":39406,"DIS_CODE":0,"TOWNNAME":"鹽水區","LI":"下中里","LIN":"7鄰","STREET":" ","SECT":" ","MAREA":"下中","LANE":" ","ALLEY":" ","HOUSE_NO":"４６之５１號","E_COORD97":172425.35000000001,"N_COORD97":2579823.1299999999,"ADDRESS":"下中４６之５１號","OBJECTID":39406},"geometry":{"x":172425.35000000056,"y":2579823.129999999}},{"attributes":{"ID":39407,"DIS_CODE":0,"TOWNNAME":"鹽水區","LI":"下中里","LIN":"7鄰","STREET":" ","SECT":" ","MAREA":"下中","LANE":" ","ALLEY":" ","HOUSE_NO":"４６之５２號","E_COORD97":172443.89999999999,"N_COORD97":2579826.1299999999,"ADDRESS":"下中４６之５２號","OBJECTID":39407},"geometry":{"x":172443.90000000224,"y":2579826.1300000008}},{"attributes":{"ID":39408,"DIS_CODE":0,"TOWNNAME":"鹽水區","LI":"下中里","LIN":"7鄰","STREET":" ","SECT":" ","MAREA":"下中","LANE":" ","ALLEY":" ","HOUSE_NO":"４６號之５３","E_COORD97":172443.14000000001,"N_COORD97":2579821.8700000001,"ADDRESS":"下中４６號之５３","OBJECTID":39408},"geometry":{"x":172443.14000000153,"y":2579821.8700000048}},{"attributes":{"ID":39409,"DIS_CODE":0,"TOWNNAME":"鹽水區","LI":"下中里","LIN":"7鄰","STREET":" ","SECT":" ","MAREA":"下中","LANE":" ","ALLEY":" ","HOUSE_NO":"４６之５４號","E_COORD97":172443.04999999999,"N_COORD97":2579818.04,"ADDRESS":"下中４６之５４號","OBJECTID":39409},"geometry":{"x":172443.05000000075,"y":2579818.0399999991}},{"attributes":{"ID":39410,"DIS_CODE":0,"TOWNNAME":"鹽水區","LI":"下中里","LIN":"7鄰","STREET":" ","SECT":" ","MAREA":"下中","LANE":" ","ALLEY":" ","HOUSE_NO":"４６之５５號","E_COORD97":172442.19,"N_COORD97":2579813.6400000001,"ADDRESS":"下中４６之５５號","OBJECTID":39410},"geometry":{"x":172442.19000000134,"y":2579813.6400000025}},{"attributes":{"ID":39411,"DIS_CODE":0,"TOWNNAME":"鹽水區","LI":"下中里","LIN":"7鄰","STREET":" ","SECT":" ","MAREA":"下中","LANE":" ","ALLEY":" ","HOUSE_NO":"４６之５６號","E_COORD97":172441.69,"N_COORD97":2579809.7799999998,"ADDRESS":"下中４６之５６號","OBJECTID":39411},"geometry":{"x":172441.69000000041,"y":2579809.7799999993}},{"attributes":{"ID":39412,"DIS_CODE":0,"TOWNNAME":"鹽水區","LI":"下中里","LIN":"7鄰","STREET":" ","SECT":" ","MAREA":"下中","LANE":" ","ALLEY":" ","HOUSE_NO":"４６之５７號","E_COORD97":172440.79000000001,"N_COORD97":2579805.2200000002,"ADDRESS":"下中４６之５７號","OBJECTID":39412},"geometry":{"x":172440.78999999911,"y":2579805.2200000007}},{"attributes":{"ID":39413,"DIS_CODE":0,"TOWNNAME":"鹽水區","LI":"下中里","LIN":"7鄰","STREET":" ","SECT":" ","MAREA":"下中","LANE":" ","ALLEY":" ","HOUSE_NO":"４６之５８號","E_COORD97":172440.07000000001,"N_COORD97":2579800.79,"ADDRESS":"下中４６之５８號","OBJECTID":39413},"geometry":{"x":172440.07000000123,"y":2579800.790000001}},{"attributes":{"ID":39414,"DIS_CODE":0,"TOWNNAME":"麻豆區","LI":"麻口里","LIN":"7鄰","STREET":" ","SECT":" ","MAREA":"麻豆口","LANE":" ","ALLEY":" ","HOUSE_NO":"５２號之６","E_COORD97":169919.91,"N_COORD97":2564425.77,"ADDRESS":"麻豆口５２號之６","OBJECTID":39414},"geometry":{"x":169919.91000000108,"y":2564425.7700000014}},{"attributes":{"ID":39415,"DIS_CODE":0,"TOWNNAME":"麻豆區","LI":"麻口里","LIN":"7鄰","STREET":" ","SECT":" ","MAREA":"麻豆口","LANE":" ","ALLEY":" ","HOUSE_NO":"５２號之７","E_COORD97":169920.82999999999,"N_COORD97":2564430.0299999998,"ADDRESS":"麻豆口５２號之７","OBJECTID":39415},"geometry":{"x":169920.83000000007,"y":2564430.0300000031}},{"attributes":{"ID":39416,"DIS_CODE":0,"TOWNNAME":"東區","LI":"文聖里","LIN":"14鄰","STREET":"裕孝路","SECT":" ","MAREA":" ","LANE":" ","ALLEY":" ","HOUSE_NO":"２６６之２號","E_COORD97":172422.16,"N_COORD97":2542676.52,"ADDRESS":"裕孝路２６６之２號","OBJECTID":39416},"geometry":{"x":172422.16000000108,"y":2542676.5199999996}},{"attributes":{"ID":39417,"DIS_CODE":0,"TOWNNAME":"永康區","LI":"崑山里","LIN":"7鄰","STREET":"崑大路","SECT":" ","MAREA":" ","LANE":"１５５巷","ALLEY":"５８弄","HOUSE_NO":"２７號","E_COORD97":173518.91,"N_COORD97":2543835.8599999999,"ADDRESS":"崑大路１５５巷５８弄２７號","OBJECTID":39417},"geometry":{"x":173518.91000000108,"y":2543835.8600000013}},{"attributes":{"ID":39418,"DIS_CODE":0,"TOWNNAME":"善化區","LI":"溪美里","LIN":"14鄰","STREET":" ","SECT":" ","MAREA":"溪尾","LANE":" ","ALLEY":" ","HOUSE_NO":"１２１號（已半毀）","E_COORD97":176881.03,"N_COORD97":2561412.77,"ADDRESS":"溪尾１２１號（已半毀）","OBJECTID":39418},"geometry":{"x":176881.03000000119,"y":2561412.7700000014}},{"attributes":{"ID":39419,"DIS_CODE":0,"TOWNNAME":"仁德區","LI":"中洲里","LIN":"14鄰","STREET":" ","SECT":" ","MAREA":"中洲","LANE":" ","ALLEY":" ","HOUSE_NO":"３６５號之６６","E_COORD97":173394.98999999999,"N_COORD97":2534135.29,"ADDRESS":"中洲３６５號之６６","OBJECTID":39419},"geometry":{"x":173394.99000000022,"y":2534135.290000001}},{"attributes":{"ID":39420,"DIS_CODE":0,"TOWNNAME":"麻豆區","LI":"麻口里","LIN":"7鄰","STREET":" ","SECT":" ","MAREA":"麻豆口","LANE":" ","ALLEY":" ","HOUSE_NO":"５２號之８","E_COORD97":169921.75,"N_COORD97":2564434.2999999998,"ADDRESS":"麻豆口５２號之８","OBJECTID":39420},"geometry":{"x":169921.75,"y":2564434.3000000026}},{"attributes":{"ID":39421,"DIS_CODE":0,"TOWNNAME":"永康區","LI":"神洲里","LIN":"7鄰","STREET":"忠孝路","SECT":" ","MAREA":" ","LANE":"５４巷","ALLEY":"９弄","HOUSE_NO":"３號","E_COORD97":172128.42999999999,"N_COORD97":2544783.25,"ADDRESS":"忠孝路５４巷９弄３號","OBJECTID":39421},"geometry":{"x":172128.43000000063,"y":2544783.2500000019}},{"attributes":{"ID":39422,"DIS_CODE":0,"TOWNNAME":"永康區","LI":"勝利里","LIN":"7鄰","STREET":"勝利街","SECT":" ","MAREA":" ","LANE":"２２巷","ALLEY":"５弄","HOUSE_NO":"３號","E_COORD97":171237.17999999999,"N_COORD97":2544611.25,"ADDRESS":"勝利街２２巷５弄３號","OBJECTID":39422},"geometry":{"x":171237.1799999997,"y":2544611.25}},{"attributes":{"ID":39423,"DIS_CODE":0,"TOWNNAME":"麻豆區","LI":"麻口里","LIN":"7鄰","STREET":" ","SECT":" ","MAREA":"麻豆口","LANE":" ","ALLEY":" ","HOUSE_NO":"５２號之９","E_COORD97":169922.67000000001,"N_COORD97":2564438.5699999998,"ADDRESS":"麻豆口５２號之９","OBJECTID":39423},"geometry":{"x":169922.67000000086,"y":2564438.5700000022}},{"attributes":{"ID":39424,"DIS_CODE":0,"TOWNNAME":"麻豆區","LI":"麻口里","LIN":"7鄰","STREET":" ","SECT":" ","MAREA":"麻豆口","LANE":" ","ALLEY":" ","HOUSE_NO":"５４號之３","E_COORD97":170035.50213199999,"N_COORD97":2564436.16114,"ADDRESS":"麻豆口５４號之３","OBJECTID":39424},"geometry":{"x":170035.50213199947,"y":2564436.1611440014}},{"attributes":{"ID":39425,"DIS_CODE":0,"TOWNNAME":"麻豆區","LI":"麻口里","LIN":"7鄰","STREET":" ","SECT":" ","MAREA":"麻豆口","LANE":" ","ALLEY":" ","HOUSE_NO":"５４號之５","E_COORD97":170062.85999999999,"N_COORD97":2564404.1800000002,"ADDRESS":"麻豆口５４號之５","OBJECTID":39425},"geometry":{"x":170062.86000000127,"y":2564404.1799999997}},{"attributes":{"ID":39426,"DIS_CODE":0,"TOWNNAME":"麻豆區","LI":"麻口里","LIN":"7鄰","STREET":" ","SECT":" ","MAREA":"麻豆口","LANE":" ","ALLEY":" ","HOUSE_NO":"５４號之６","E_COORD97":170006.41,"N_COORD97":2564434.54,"ADDRESS":"麻豆口５４號之６","OBJECTID":39426},"geometry":{"x":170006.41000000108,"y":2564434.540000001}},{"attributes":{"ID":39427,"DIS_CODE":0,"TOWNNAME":"麻豆區","LI":"麻口里","LIN":"7鄰","STREET":" ","SECT":" ","MAREA":"麻豆口","LANE":" ","ALLEY":" ","HOUSE_NO":"５４號之７","E_COORD97":169985.35000000001,"N_COORD97":2564424.6800000002,"ADDRESS":"麻豆口５４號之７","OBJECTID":39427},"geometry":{"x":169985.35000000149,"y":2564424.6799999997}},{"attributes":{"ID":39428,"DIS_CODE":0,"TOWNNAME":"麻豆區","LI":"麻口里","LIN":"7鄰","STREET":" ","SECT":" ","MAREA":"麻豆口","LANE":" ","ALLEY":" ","HOUSE_NO":"５６號之１","E_COORD97":170003.50791700001,"N_COORD97":2564331.3862000001,"ADDRESS":"麻豆口５６號之１","OBJECTID":39428},"geometry":{"x":170003.50791699998,"y":2564331.3862010017}},{"attributes":{"ID":39429,"DIS_CODE":0,"TOWNNAME":"麻豆區","LI":"麻口里","LIN":"7鄰","STREET":" ","SECT":" ","MAREA":"麻豆口","LANE":" ","ALLEY":" ","HOUSE_NO":"５６號","E_COORD97":170013.67826399999,"N_COORD97":2564350.8595199999,"ADDRESS":"麻豆口５６號","OBJECTID":39429},"geometry":{"x":170013.67826400138,"y":2564350.8595240004}},{"attributes":{"ID":39430,"DIS_CODE":0,"TOWNNAME":"麻豆區","LI":"麻口里","LIN":"7鄰","STREET":" ","SECT":" ","MAREA":"麻豆口","LANE":" ","ALLEY":" ","HOUSE_NO":"５９號","E_COORD97":170086.56,"N_COORD97":2564386.7000000002,"ADDRESS":"麻豆口５９號","OBJECTID":39430},"geometry":{"x":170086.55999999959,"y":2564386.6999999993}},{"attributes":{"ID":39431,"DIS_CODE":0,"TOWNNAME":"永康區","LI":"崑山里","LIN":"7鄰","STREET":"崑大路","SECT":" ","MAREA":" ","LANE":"１５５巷","ALLEY":"１６８弄","HOUSE_NO":"１１８號","E_COORD97":173339.14000000001,"N_COORD97":2543640.2400000002,"ADDRESS":"崑大路１５５巷１６８弄１１８號","OBJECTID":39431},"geometry":{"x":173339.13999999966,"y":2543640.2400000021}},{"attributes":{"ID":39432,"DIS_CODE":0,"TOWNNAME":"安南區","LI":"安順里","LIN":"7鄰","STREET":"總安街","SECT":"一段","MAREA":" ","LANE":"１１０巷","ALLEY":"７１弄","HOUSE_NO":"１９號之１","E_COORD97":169684.67999999999,"N_COORD97":2550281.6200000001,"ADDRESS":"總安街一段１１０巷７１弄１９號之１","OBJECTID":39432},"geometry":{"x":169684.6799999997,"y":2550281.620000001}},{"attributes":{"ID":39433,"DIS_CODE":0,"TOWNNAME":"麻豆區","LI":"麻口里","LIN":"7鄰","STREET":" ","SECT":" ","MAREA":"麻豆口","LANE":" ","ALLEY":" ","HOUSE_NO":"６０號","E_COORD97":170046.92999999999,"N_COORD97":2564311.7599999998,"ADDRESS":"麻豆口６０號","OBJECTID":39433},"geometry":{"x":170046.9299999997,"y":2564311.7600000016}},{"attributes":{"ID":39434,"DIS_CODE":0,"TOWNNAME":"麻豆區","LI":"麻口里","LIN":"7鄰","STREET":" ","SECT":" ","MAREA":"麻豆口","LANE":" ","ALLEY":" ","HOUSE_NO":"６２號之１","E_COORD97":170004.67999999999,"N_COORD97":2564303.46,"ADDRESS":"麻豆口６２號之１","OBJECTID":39434},"geometry":{"x":170004.6799999997,"y":2564303.4600000046}},{"attributes":{"ID":39435,"DIS_CODE":0,"TOWNNAME":"安南區","LI":"海西里","LIN":"7鄰","STREET":"海中街","SECT":" ","MAREA":" ","LANE":"１２１巷","ALLEY":"２１弄","HOUSE_NO":"８號","E_COORD97":166339.38,"N_COORD97":2549005.4199999999,"ADDRESS":"海中街１２１巷２１弄８號","OBJECTID":39435},"geometry":{"x":166339.38000000082,"y":2549005.4200000037}},{"attributes":{"ID":39436,"DIS_CODE":0,"TOWNNAME":"安南區","LI":"海西里","LIN":"7鄰","STREET":"海中街","SECT":" ","MAREA":" ","LANE":"１２１巷","ALLEY":"２１弄","HOUSE_NO":"１０號","E_COORD97":166340.64000000001,"N_COORD97":2549002.0800000001,"ADDRESS":"海中街１２１巷２１弄１０號","OBJECTID":39436},"geometry":{"x":166340.64000000153,"y":2549002.0800000019}},{"attributes":{"ID":39437,"DIS_CODE":0,"TOWNNAME":"麻豆區","LI":"麻口里","LIN":"7鄰","STREET":" ","SECT":" ","MAREA":"麻豆口","LANE":" ","ALLEY":" ","HOUSE_NO":"６２號","E_COORD97":170004.51000000001,"N_COORD97":2564298.1200000001,"ADDRESS":"麻豆口６２號","OBJECTID":39437},"geometry":{"x":170004.50999999978,"y":2564298.120000001}},{"attributes":{"ID":39438,"DIS_CODE":0,"TOWNNAME":"安南區","LI":"淵中里","LIN":"7鄰","STREET":"安中路","SECT":"四段","MAREA":" ","LANE":"１５４巷","ALLEY":"５７弄","HOUSE_NO":"４１號","E_COORD97":165010.16,"N_COORD97":2550194.5,"ADDRESS":"安中路四段１５４巷５７弄４１號","OBJECTID":39438},"geometry":{"x":165010.16000000201,"y":2550194.4999999981}},{"attributes":{"ID":39439,"DIS_CODE":0,"TOWNNAME":"安南區","LI":"淵中里","LIN":"7鄰","STREET":"安中路","SECT":"四段","MAREA":" ","LANE":"１５４巷","ALLEY":"５７弄","HOUSE_NO":"４３號","E_COORD97":164982.54999999999,"N_COORD97":2550204.3599999999,"ADDRESS":"安中路四段１５４巷５７弄４３號","OBJECTID":39439},"geometry":{"x":164982.55000000075,"y":2550204.3599999994}},{"attributes":{"ID":39440,"DIS_CODE":0,"TOWNNAME":"安南區","LI":"新順里","LIN":"7鄰","STREET":"北安路","SECT":"三段","MAREA":" ","LANE":"７４５巷","ALLEY":"４２弄","HOUSE_NO":"４６號","E_COORD97":169180.54999999999,"N_COORD97":2550073.46,"ADDRESS":"北安路三段７４５巷４２弄４６號","OBJECTID":39440},"geometry":{"x":169180.54999999981,"y":2550073.4600000009}},{"attributes":{"ID":39441,"DIS_CODE":0,"TOWNNAME":"麻豆區","LI":"麻口里","LIN":"7鄰","STREET":" ","SECT":" ","MAREA":"麻豆口","LANE":" ","ALLEY":" ","HOUSE_NO":"６３號之１","E_COORD97":170028.75,"N_COORD97":2564256.21,"ADDRESS":"麻豆口６３號之１","OBJECTID":39441},"geometry":{"x":170028.74999999907,"y":2564256.2100000009}},{"attributes":{"ID":39442,"DIS_CODE":0,"TOWNNAME":"善化區","LI":"光文里","LIN":"14鄰","STREET":"民生路","SECT":" ","MAREA":" ","LANE":" ","ALLEY":" ","HOUSE_NO":"１７８號","E_COORD97":178453.67999999999,"N_COORD97":2558968.2599999998,"ADDRESS":"民生路１７８號","OBJECTID":39442},"geometry":{"x":178453.6799999997,"y":2558968.2600000016}},{"attributes":{"ID":39443,"DIS_CODE":0,"TOWNNAME":"善化區","LI":"文正里","LIN":"14鄰","STREET":"陽明路","SECT":" ","MAREA":" ","LANE":" ","ALLEY":" ","HOUSE_NO":"２６３號","E_COORD97":176010.64999999999,"N_COORD97":2559757.7599999998,"ADDRESS":"陽明路２６３號","OBJECTID":39443},"geometry":{"x":176010.65000000224,"y":2559757.7600000016}},{"attributes":{"ID":39444,"DIS_CODE":0,"TOWNNAME":"善化區","LI":"東關里","LIN":"14鄰","STREET":"中和街","SECT":" ","MAREA":" ","LANE":" ","ALLEY":" ","HOUSE_NO":"３０之２號","E_COORD97":177403.09,"N_COORD97":2559004.27,"ADDRESS":"中和街３０之２號","OBJECTID":39444},"geometry":{"x":177403.08999999985,"y":2559004.2700000033}},{"attributes":{"ID":39445,"DIS_CODE":0,"TOWNNAME":"善化區","LI":"文正里","LIN":"14鄰","STREET":"陽明路","SECT":" ","MAREA":" ","LANE":" ","ALLEY":" ","HOUSE_NO":"１９５號","E_COORD97":176195.06,"N_COORD97":2559604.5099999998,"ADDRESS":"陽明路１９５號","OBJECTID":39445},"geometry":{"x":176195.06000000145,"y":2559604.5099999998}},{"attributes":{"ID":39446,"DIS_CODE":0,"TOWNNAME":"善化區","LI":"東關里","LIN":"14鄰","STREET":"大同路","SECT":" ","MAREA":" ","LANE":" ","ALLEY":" ","HOUSE_NO":"３５０號","E_COORD97":177375.38,"N_COORD97":2558944.75,"ADDRESS":"大同路３５０號","OBJECTID":39446},"geometry":{"x":177375.38000000082,"y":2558944.7500000019}},{"attributes":{"ID":39447,"DIS_CODE":0,"TOWNNAME":"善化區","LI":"文昌里","LIN":"14鄰","STREET":"文賢街","SECT":" ","MAREA":" ","LANE":" ","ALLEY":" ","HOUSE_NO":"１６號","E_COORD97":177637.51000000001,"N_COORD97":2558925.2799999998,"ADDRESS":"文賢街１６號","OBJECTID":39447},"geometry":{"x":177637.50999999978,"y":2558925.2799999993}},{"attributes":{"ID":39448,"DIS_CODE":0,"TOWNNAME":"安南區","LI":"新順里","LIN":"7鄰","STREET":"北安路","SECT":"三段","MAREA":" ","LANE":"７４５巷","ALLEY":"４２弄","HOUSE_NO":"４８號","E_COORD97":169179.53,"N_COORD97":2550078.5499999998,"ADDRESS":"北安路三段７４５巷４２弄４８號","OBJECTID":39448},"geometry":{"x":169179.52999999933,"y":2550078.5500000007}},{"attributes":{"ID":39449,"DIS_CODE":0,"TOWNNAME":"安南區","LI":"溪心里","LIN":"7鄰","STREET":"本原街","SECT":"二段","MAREA":" ","LANE":"１３２巷","ALLEY":"６０弄","HOUSE_NO":"１２號","E_COORD97":166700.44,"N_COORD97":2550852.0499999998,"ADDRESS":"本原街二段１３２巷６０弄１２號","OBJECTID":39449},"geometry":{"x":166700.44000000227,"y":2550852.0500000007}},{"attributes":{"ID":39450,"DIS_CODE":0,"TOWNNAME":"安南區","LI":"溪北里","LIN":"7鄰","STREET":"安和路","SECT":"一段","MAREA":" ","LANE":"１５巷","ALLEY":"３２弄","HOUSE_NO":"３０號","E_COORD97":169433.07000000001,"N_COORD97":2547433.2200000002,"ADDRESS":"安和路一段１５巷３２弄３０號","OBJECTID":39450},"geometry":{"x":169433.0700000003,"y":2547433.2200000007}},{"attributes":{"ID":39451,"DIS_CODE":0,"TOWNNAME":"安南區","LI":"溪北里","LIN":"7鄰","STREET":"安和路","SECT":"一段","MAREA":" ","LANE":"１５巷","ALLEY":"３２弄","HOUSE_NO":"４２號","E_COORD97":169421.63,"N_COORD97":2547457.4500000002,"ADDRESS":"安和路一段１５巷３２弄４２號","OBJECTID":39451},"geometry":{"x":169421.63000000082,"y":2547457.4499999993}},{"attributes":{"ID":39452,"DIS_CODE":0,"TOWNNAME":"永康區","LI":"崑山里","LIN":"7鄰","STREET":"崑大路","SECT":" ","MAREA":" ","LANE":"１５５巷","ALLEY":"１６８弄","HOUSE_NO":"１７２號","E_COORD97":173191.54000000001,"N_COORD97":2543626,"ADDRESS":"崑大路１５５巷１６８弄１７２號","OBJECTID":39452},"geometry":{"x":173191.54000000004,"y":2543626}},{"attributes":{"ID":39453,"DIS_CODE":0,"TOWNNAME":"永康區","LI":"崑山里","LIN":"7鄰","STREET":"崑大路","SECT":" ","MAREA":" ","LANE":"１５５巷","ALLEY":"１６８弄","HOUSE_NO":"８８號","E_COORD97":173380.84,"N_COORD97":2543655.25,"ADDRESS":"崑大路１５５巷１６８弄８８號","OBJECTID":39453},"geometry":{"x":173380.83999999985,"y":2543655.25}},{"attributes":{"ID":39454,"DIS_CODE":0,"TOWNNAME":"永康區","LI":"崑山里","LIN":"7鄰","STREET":"崑大路","SECT":" ","MAREA":" ","LANE":"２０２巷","ALLEY":" ","HOUSE_NO":"６號","E_COORD97":173538.67999999999,"N_COORD97":2544333.2599999998,"ADDRESS":"崑大路２０２巷６號","OBJECTID":39454},"geometry":{"x":173538.68000000063,"y":2544333.2599999998}},{"attributes":{"ID":39455,"DIS_CODE":0,"TOWNNAME":"麻豆區","LI":"麻口里","LIN":"7鄰","STREET":" ","SECT":" ","MAREA":"麻豆口","LANE":" ","ALLEY":" ","HOUSE_NO":"６３號之２","E_COORD97":170022.60000000001,"N_COORD97":2564259.7999999998,"ADDRESS":"麻豆口６３號之２","OBJECTID":39455},"geometry":{"x":170022.5999999987,"y":2564259.8000000007}},{"attributes":{"ID":39456,"DIS_CODE":0,"TOWNNAME":"永康區","LI":"王行里","LIN":"7鄰","STREET":"王行路","SECT":" ","MAREA":" ","LANE":"３５１巷","ALLEY":"７０弄","HOUSE_NO":"４號","E_COORD97":175357.04000000001,"N_COORD97":2548665.9900000002,"ADDRESS":"王行路３５１巷７０弄４號","OBJECTID":39456},"geometry":{"x":175357.04000000097,"y":2548665.9900000039}},{"attributes":{"ID":39457,"DIS_CODE":0,"TOWNNAME":"麻豆區","LI":"麻口里","LIN":"7鄰","STREET":" ","SECT":" ","MAREA":"麻豆口","LANE":" ","ALLEY":" ","HOUSE_NO":"６３號之３","E_COORD97":170063.26000000001,"N_COORD97":2564250.4300000002,"ADDRESS":"麻豆口６３號之３","OBJECTID":39457},"geometry":{"x":170063.26000000071,"y":2564250.4299999997}},{"attributes":{"ID":39458,"DIS_CODE":0,"TOWNNAME":"永康區","LI":"西勢里","LIN":"7鄰","STREET":"富強路","SECT":"一段","MAREA":" ","LANE":"２２７巷","ALLEY":"４６弄","HOUSE_NO":"８號","E_COORD97":175585.87,"N_COORD97":2546541.6499999999,"ADDRESS":"富強路一段２２７巷４６弄８號","OBJECTID":39458},"geometry":{"x":175585.87000000011,"y":2546541.6500000004}},{"attributes":{"ID":39459,"DIS_CODE":0,"TOWNNAME":"麻豆區","LI":"麻口里","LIN":"7鄰","STREET":" ","SECT":" ","MAREA":"麻豆口","LANE":" ","ALLEY":" ","HOUSE_NO":"６３號之５","E_COORD97":170013.28,"N_COORD97":2564254.8700000001,"ADDRESS":"麻豆口６３號之５","OBJECTID":39459},"geometry":{"x":170013.28000000026,"y":2564254.8700000029}},{"attributes":{"ID":39460,"DIS_CODE":0,"TOWNNAME":"永康區","LI":"崑山里","LIN":"7鄰","STREET":"崑大路","SECT":" ","MAREA":" ","LANE":"１５５巷","ALLEY":"１６８弄","HOUSE_NO":"５０號","E_COORD97":173476.48000000001,"N_COORD97":2543685.4900000002,"ADDRESS":"崑大路１５５巷１６８弄５０號","OBJECTID":39460},"geometry":{"x":173476.48000000138,"y":2543685.4900000039}},{"attributes":{"ID":39461,"DIS_CODE":0,"TOWNNAME":"麻豆區","LI":"麻口里","LIN":"7鄰","STREET":" ","SECT":" ","MAREA":"麻豆口","LANE":" ","ALLEY":" ","HOUSE_NO":"６４號","E_COORD97":170049.062595,"N_COORD97":2564282.4912299998,"ADDRESS":"麻豆口６４號","OBJECTID":39461},"geometry":{"x":170049.06259500142,"y":2564282.491227001}},{"attributes":{"ID":39462,"DIS_CODE":0,"TOWNNAME":"新營區","LI":"新南里","LIN":"28鄰","STREET":"秦漢街","SECT":" ","MAREA":" ","LANE":" ","ALLEY":" ","HOUSE_NO":"６１之２號","E_COORD97":178452.34012400001,"N_COORD97":2578733.6092500002,"ADDRESS":"秦漢街６１之２號","OBJECTID":39462},"geometry":{"x":178452.34012400173,"y":2578733.6092530023}},{"attributes":{"ID":39463,"DIS_CODE":0,"TOWNNAME":"麻豆區","LI":"麻口里","LIN":"7鄰","STREET":" ","SECT":" ","MAREA":"麻豆口","LANE":" ","ALLEY":" ","HOUSE_NO":"６５號","E_COORD97":170003.76999999999,"N_COORD97":2564292.4399999999,"ADDRESS":"麻豆口６５號","OBJECTID":39463},"geometry":{"x":170003.76999999955,"y":2564292.4400000013}},{"attributes":{"ID":39464,"DIS_CODE":0,"TOWNNAME":"麻豆區","LI":"麻口里","LIN":"7鄰","STREET":" ","SECT":" ","MAREA":"麻豆口","LANE":" ","ALLEY":" ","HOUSE_NO":"６６號之１","E_COORD97":170002.23999999999,"N_COORD97":2564268.02,"ADDRESS":"麻豆口６６號之１","OBJECTID":39464},"geometry":{"x":170002.24000000115,"y":2564268.0200000014}},{"attributes":{"ID":39465,"DIS_CODE":0,"TOWNNAME":"麻豆區","LI":"麻口里","LIN":"7鄰","STREET":" ","SECT":" ","MAREA":"麻豆口","LANE":" ","ALLEY":" ","HOUSE_NO":"６６號","E_COORD97":170001.48000000001,"N_COORD97":2564257.8799999999,"ADDRESS":"麻豆口６６號","OBJECTID":39465},"geometry":{"x":170001.48000000138,"y":2564257.8800000027}},{"attributes":{"ID":39466,"DIS_CODE":0,"TOWNNAME":"麻豆區","LI":"麻口里","LIN":"7鄰","STREET":" ","SECT":" ","MAREA":"麻豆口","LANE":" ","ALLEY":" ","HOUSE_NO":"６７號","E_COORD97":170026.51999999999,"N_COORD97":2564401.8500000001,"ADDRESS":"麻豆口６７號","OBJECTID":39466},"geometry":{"x":170026.52000000142,"y":2564401.8500000015}},{"attributes":{"ID":39467,"DIS_CODE":0,"TOWNNAME":"麻豆區","LI":"麻口里","LIN":"7鄰","STREET":" ","SECT":" ","MAREA":"麻豆口","LANE":" ","ALLEY":" ","HOUSE_NO":"６８號之１０","E_COORD97":169913.53,"N_COORD97":2564269.8700000001,"ADDRESS":"麻豆口６８號之１０","OBJECTID":39467},"geometry":{"x":169913.52999999933,"y":2564269.870000001}},{"attributes":{"ID":39468,"DIS_CODE":0,"TOWNNAME":"麻豆區","LI":"麻口里","LIN":"7鄰","STREET":" ","SECT":" ","MAREA":"麻豆口","LANE":" ","ALLEY":" ","HOUSE_NO":"６８號之１１","E_COORD97":169917.79000000001,"N_COORD97":2564269.3900000001,"ADDRESS":"麻豆口６８號之１１","OBJECTID":39468},"geometry":{"x":169917.79000000004,"y":2564269.3899999987}},{"attributes":{"ID":39469,"DIS_CODE":0,"TOWNNAME":"麻豆區","LI":"麻口里","LIN":"7鄰","STREET":" ","SECT":" ","MAREA":"麻豆口","LANE":" ","ALLEY":" ","HOUSE_NO":"６８號之１２","E_COORD97":169922.04999999999,"N_COORD97":2564268.8999999999,"ADDRESS":"麻豆口６８號之１２","OBJECTID":39469},"geometry":{"x":169922.05000000075,"y":2564268.9000000004}},{"attributes":{"ID":39470,"DIS_CODE":0,"TOWNNAME":"麻豆區","LI":"麻口里","LIN":"7鄰","STREET":" ","SECT":" ","MAREA":"麻豆口","LANE":" ","ALLEY":" ","HOUSE_NO":"６８號之１３","E_COORD97":169926.31,"N_COORD97":2564268.4199999999,"ADDRESS":"麻豆口６８號之１３","OBJECTID":39470},"geometry":{"x":169926.31000000145,"y":2564268.4199999981}},{"attributes":{"ID":39471,"DIS_CODE":0,"TOWNNAME":"麻豆區","LI":"麻口里","LIN":"7鄰","STREET":" ","SECT":" ","MAREA":"麻豆口","LANE":" ","ALLEY":" ","HOUSE_NO":"６８號之１４","E_COORD97":169930.57000000001,"N_COORD97":2564267.9300000002,"ADDRESS":"麻豆口６８號之１４","OBJECTID":39471},"geometry":{"x":169930.57000000123,"y":2564267.9299999997}},{"attributes":{"ID":39472,"DIS_CODE":0,"TOWNNAME":"麻豆區","LI":"麻口里","LIN":"7鄰","STREET":" ","SECT":" ","MAREA":"麻豆口","LANE":" ","ALLEY":" ","HOUSE_NO":"６８號之１５","E_COORD97":169934.82999999999,"N_COORD97":2564267.4500000002,"ADDRESS":"麻豆口６８號之１５","OBJECTID":39472},"geometry":{"x":169934.83000000007,"y":2564267.4499999993}},{"attributes":{"ID":39473,"DIS_CODE":0,"TOWNNAME":"麻豆區","LI":"麻口里","LIN":"7鄰","STREET":" ","SECT":" ","MAREA":"麻豆口","LANE":" ","ALLEY":" ","HOUSE_NO":"６８號之１６","E_COORD97":169939.09,"N_COORD97":2564266.9700000002,"ADDRESS":"麻豆口６８號之１６","OBJECTID":39473},"geometry":{"x":169939.08999999985,"y":2564266.9700000025}},{"attributes":{"ID":39474,"DIS_CODE":0,"TOWNNAME":"麻豆區","LI":"麻口里","LIN":"7鄰","STREET":" ","SECT":" ","MAREA":"麻豆口","LANE":" ","ALLEY":" ","HOUSE_NO":"６８號之１","E_COORD97":169905.72,"N_COORD97":2564287.3399999999,"ADDRESS":"麻豆口６８號之１","OBJECTID":39474},"geometry":{"x":169905.72000000067,"y":2564287.3400000017}},{"attributes":{"ID":39475,"DIS_CODE":0,"TOWNNAME":"麻豆區","LI":"麻口里","LIN":"7鄰","STREET":" ","SECT":" ","MAREA":"麻豆口","LANE":" ","ALLEY":" ","HOUSE_NO":"６８號之３","E_COORD97":169957.92999999999,"N_COORD97":2564263.5600000001,"ADDRESS":"麻豆口６８號之３","OBJECTID":39475},"geometry":{"x":169957.93000000156,"y":2564263.5600000005}},{"attributes":{"ID":39476,"DIS_CODE":0,"TOWNNAME":"麻豆區","LI":"麻口里","LIN":"7鄰","STREET":" ","SECT":" ","MAREA":"麻豆口","LANE":" ","ALLEY":" ","HOUSE_NO":"６８號之５","E_COORD97":169892.60000000001,"N_COORD97":2564275.8500000001,"ADDRESS":"麻豆口６８號之５","OBJECTID":39476},"geometry":{"x":169892.60000000056,"y":2564275.8500000034}},{"attributes":{"ID":39477,"DIS_CODE":0,"TOWNNAME":"麻豆區","LI":"麻口里","LIN":"7鄰","STREET":" ","SECT":" ","MAREA":"麻豆口","LANE":" ","ALLEY":" ","HOUSE_NO":"６８號之６","E_COORD97":169891.92000000001,"N_COORD97":2564271.5600000001,"ADDRESS":"麻豆口６８號之６","OBJECTID":39477},"geometry":{"x":169891.91999999899,"y":2564271.5599999987}},{"attributes":{"ID":39478,"DIS_CODE":0,"TOWNNAME":"麻豆區","LI":"麻口里","LIN":"7鄰","STREET":" ","SECT":" ","MAREA":"麻豆口","LANE":" ","ALLEY":" ","HOUSE_NO":"６８號之７","E_COORD97":169890.95000000001,"N_COORD97":2564267.7000000002,"ADDRESS":"麻豆口６８號之７","OBJECTID":39478},"geometry":{"x":169890.95000000112,"y":2564267.7000000011}},{"attributes":{"ID":39479,"DIS_CODE":0,"TOWNNAME":"麻豆區","LI":"麻口里","LIN":"7鄰","STREET":" ","SECT":" ","MAREA":"麻豆口","LANE":" ","ALLEY":" ","HOUSE_NO":"６８號之８","E_COORD97":169905.5,"N_COORD97":2564270.4199999999,"ADDRESS":"麻豆口６８號之８","OBJECTID":39479},"geometry":{"x":169905.50000000093,"y":2564270.4199999999}},{"attributes":{"ID":39480,"DIS_CODE":0,"TOWNNAME":"麻豆區","LI":"麻口里","LIN":"7鄰","STREET":" ","SECT":" ","MAREA":"麻豆口","LANE":" ","ALLEY":" ","HOUSE_NO":"６８號之９","E_COORD97":169909.67000000001,"N_COORD97":2564270.2000000002,"ADDRESS":"麻豆口６８號之９","OBJECTID":39480},"geometry":{"x":169909.67000000086,"y":2564270.2000000011}},{"attributes":{"ID":39481,"DIS_CODE":0,"TOWNNAME":"麻豆區","LI":"麻口里","LIN":"7鄰","STREET":" ","SECT":" ","MAREA":"麻豆口","LANE":" ","ALLEY":" ","HOUSE_NO":"７１號之１","E_COORD97":169909.07000000001,"N_COORD97":2564369.7799999998,"ADDRESS":"麻豆口７１號之１","OBJECTID":39481},"geometry":{"x":169909.07000000123,"y":2564369.7799999993}},{"attributes":{"ID":39482,"DIS_CODE":0,"TOWNNAME":"麻豆區","LI":"麻口里","LIN":"7鄰","STREET":" ","SECT":" ","MAREA":"麻豆口","LANE":" ","ALLEY":" ","HOUSE_NO":"７１號之２","E_COORD97":169909.60999999999,"N_COORD97":2564380.52,"ADDRESS":"麻豆口７１號之２","OBJECTID":39482},"geometry":{"x":169909.61000000034,"y":2564380.5200000014}},{"attributes":{"ID":39483,"DIS_CODE":0,"TOWNNAME":"麻豆區","LI":"麻口里","LIN":"7鄰","STREET":" ","SECT":" ","MAREA":"麻豆口","LANE":" ","ALLEY":" ","HOUSE_NO":"７１號之３","E_COORD97":169909.56,"N_COORD97":2564385.3599999999,"ADDRESS":"麻豆口７１號之３","OBJECTID":39483},"geometry":{"x":169909.56000000052,"y":2564385.3600000013}},{"attributes":{"ID":39484,"DIS_CODE":0,"TOWNNAME":"新營區","LI":"鐵線里","LIN":"7鄰","STREET":" ","SECT":" ","MAREA":"鐵線橋","LANE":" ","ALLEY":" ","HOUSE_NO":"８０號","E_COORD97":175923.53,"N_COORD97":2573806.1099999999,"ADDRESS":"鐵線橋８０號","OBJECTID":39484},"geometry":{"x":175923.53000000119,"y":2573806.1099999994}},{"attributes":{"ID":39485,"DIS_CODE":0,"TOWNNAME":"新營區","LI":"鐵線里","LIN":"7鄰","STREET":" ","SECT":" ","MAREA":"鐵線橋","LANE":" ","ALLEY":" ","HOUSE_NO":"７８號","E_COORD97":175957.23000000001,"N_COORD97":2573800.3999999999,"ADDRESS":"鐵線橋７８號","OBJECTID":39485},"geometry":{"x":175957.23000000045,"y":2573800.4000000022}},{"attributes":{"ID":39486,"DIS_CODE":0,"TOWNNAME":"新營區","LI":"五興里","LIN":"7鄰","STREET":" ","SECT":" ","MAREA":"五間厝","LANE":" ","ALLEY":" ","HOUSE_NO":"７５號","E_COORD97":175776.32000000001,"N_COORD97":2574657.3700000001,"ADDRESS":"五間厝７５號","OBJECTID":39486},"geometry":{"x":175776.3200000003,"y":2574657.370000001}},{"attributes":{"ID":39487,"DIS_CODE":0,"TOWNNAME":"新營區","LI":"鐵線里","LIN":"7鄰","STREET":" ","SECT":" ","MAREA":"鐵線橋","LANE":" ","ALLEY":" ","HOUSE_NO":"７１號","E_COORD97":175952.85000000001,"N_COORD97":2573743.9399999999,"ADDRESS":"鐵線橋７１號","OBJECTID":39487},"geometry":{"x":175952.85000000056,"y":2573743.9399999976}},{"attributes":{"ID":39488,"DIS_CODE":0,"TOWNNAME":"鹽水區","LI":"後宅里","LIN":"7鄰","STREET":" ","SECT":" ","MAREA":"後寮","LANE":" ","ALLEY":" ","HOUSE_NO":"５６之５號","E_COORD97":173487,"N_COORD97":2578846.6299999999,"ADDRESS":"後寮５６之５號","OBJECTID":39488},"geometry":{"x":173487.00000000186,"y":2578846.629999999}},{"attributes":{"ID":39489,"DIS_CODE":0,"TOWNNAME":"鹽水區","LI":"後宅里","LIN":"7鄰","STREET":" ","SECT":" ","MAREA":"後寮","LANE":" ","ALLEY":" ","HOUSE_NO":"５６號之６","E_COORD97":173417.17000000001,"N_COORD97":2578778.3599999999,"ADDRESS":"後寮５６號之６","OBJECTID":39489},"geometry":{"x":173417.16999999993,"y":2578778.3599999994}},{"attributes":{"ID":39490,"DIS_CODE":0,"TOWNNAME":"鹽水區","LI":"後宅里","LIN":"7鄰","STREET":" ","SECT":" ","MAREA":"後寮","LANE":" ","ALLEY":" ","HOUSE_NO":"５６之７號","E_COORD97":173457.41,"N_COORD97":2578782.3100000001,"ADDRESS":"後寮５６之７號","OBJECTID":39490},"geometry":{"x":173457.41000000201,"y":2578782.3100000024}},{"attributes":{"ID":39491,"DIS_CODE":0,"TOWNNAME":"鹽水區","LI":"後宅里","LIN":"7鄰","STREET":" ","SECT":" ","MAREA":"後寮","LANE":" ","ALLEY":" ","HOUSE_NO":"５６號","E_COORD97":173322.75,"N_COORD97":2578732.9100000001,"ADDRESS":"後寮５６號","OBJECTID":39491},"geometry":{"x":173322.75000000093,"y":2578732.910000002}},{"attributes":{"ID":39492,"DIS_CODE":0,"TOWNNAME":"鹽水區","LI":"後宅里","LIN":"7鄰","STREET":" ","SECT":" ","MAREA":"後寮","LANE":" ","ALLEY":" ","HOUSE_NO":"５７號","E_COORD97":173257.45999999999,"N_COORD97":2578726.4900000002,"ADDRESS":"後寮５７號","OBJECTID":39492},"geometry":{"x":173257.46000000089,"y":2578726.4900000021}},{"attributes":{"ID":39493,"DIS_CODE":0,"TOWNNAME":"鹽水區","LI":"後宅里","LIN":"7鄰","STREET":" ","SECT":" ","MAREA":"後寮","LANE":" ","ALLEY":" ","HOUSE_NO":"６０號","E_COORD97":173042.25,"N_COORD97":2578753.6600000001,"ADDRESS":"後寮６０號","OBJECTID":39493},"geometry":{"x":173042.25,"y":2578753.6600000001}},{"attributes":{"ID":39494,"DIS_CODE":0,"TOWNNAME":"永康區","LI":"崑山里","LIN":"7鄰","STREET":"崑大路","SECT":" ","MAREA":" ","LANE":"１５５巷","ALLEY":"１６８弄","HOUSE_NO":"１３２號","E_COORD97":173265.64999999999,"N_COORD97":2543643.25,"ADDRESS":"崑大路１５５巷１６８弄１３２號","OBJECTID":39494},"geometry":{"x":173265.65000000037,"y":2543643.2500000019}},{"attributes":{"ID":39495,"DIS_CODE":0,"TOWNNAME":"永康區","LI":"崑山里","LIN":"7鄰","STREET":"崑大路","SECT":" ","MAREA":" ","LANE":"２０２巷","ALLEY":" ","HOUSE_NO":"５號","E_COORD97":173535.39000000001,"N_COORD97":2544329.5,"ADDRESS":"崑大路２０２巷５號","OBJECTID":39495},"geometry":{"x":173535.3900000006,"y":2544329.5000000037}},{"attributes":{"ID":39496,"DIS_CODE":0,"TOWNNAME":"永康區","LI":"崑山里","LIN":"7鄰","STREET":"崑大路","SECT":" ","MAREA":" ","LANE":"２０２巷","ALLEY":" ","HOUSE_NO":"２號","E_COORD97":173540.79999999999,"N_COORD97":2544325.75,"ADDRESS":"崑大路２０２巷２號","OBJECTID":39496},"geometry":{"x":173540.80000000168,"y":2544325.7500000019}},{"attributes":{"ID":39497,"DIS_CODE":0,"TOWNNAME":"安南區","LI":"東和里","LIN":"7鄰","STREET":"長和路","SECT":"一段","MAREA":" ","LANE":"２１７巷","ALLEY":"２５弄","HOUSE_NO":"４０號","E_COORD97":171543.63,"N_COORD97":2550275.1699999999,"ADDRESS":"長和路一段２１７巷２５弄４０號","OBJECTID":39497},"geometry":{"x":171543.63000000082,"y":2550275.1700000018}},{"attributes":{"ID":39498,"DIS_CODE":0,"TOWNNAME":"安南區","LI":"東和里","LIN":"7鄰","STREET":"長和路","SECT":"一段","MAREA":" ","LANE":"２１７巷","ALLEY":"２５弄","HOUSE_NO":"４６號","E_COORD97":171529.35000000001,"N_COORD97":2550275.96,"ADDRESS":"長和路一段２１７巷２５弄４６號","OBJECTID":39498},"geometry":{"x":171529.34999999963,"y":2550275.9600000009}},{"attributes":{"ID":39499,"DIS_CODE":0,"TOWNNAME":"永康區","LI":"烏竹里","LIN":"7鄰","STREET":"龍橋街","SECT":" ","MAREA":" ","LANE":"５２１巷","ALLEY":"１弄","HOUSE_NO":"１０號","E_COORD97":174327.14999999999,"N_COORD97":2549425.5899999999,"ADDRESS":"龍橋街５２１巷１弄１０號","OBJECTID":39499},"geometry":{"x":174327.14999999944,"y":2549425.5900000017}},{"attributes":{"ID":39500,"DIS_CODE":0,"TOWNNAME":"安南區","LI":"東和里","LIN":"7鄰","STREET":"長和路","SECT":"一段","MAREA":" ","LANE":"２１７巷","ALLEY":"１７９弄","HOUSE_NO":"１５號","E_COORD97":171329.20238999999,"N_COORD97":2550143.68059,"ADDRESS":"長和路一段２１７巷１７９弄１５號","OBJECTID":39500},"geometry":{"x":171329.20239000022,"y":2550143.680594001}},{"attributes":{"ID":39501,"DIS_CODE":0,"TOWNNAME":"安南區","LI":"安順里","LIN":"7鄰","STREET":"總安街","SECT":"一段","MAREA":" ","LANE":"１４６巷","ALLEY":"９２弄","HOUSE_NO":"８號","E_COORD97":169691.31,"N_COORD97":2550371.48,"ADDRESS":"總安街一段１４６巷９２弄８號","OBJECTID":39501},"geometry":{"x":169691.31000000052,"y":2550371.4799999986}},{"attributes":{"ID":39502,"DIS_CODE":0,"TOWNNAME":"安南區","LI":"安順里","LIN":"7鄰","STREET":"總安街","SECT":"一段","MAREA":" ","LANE":"１４６巷","ALLEY":"９２弄","HOUSE_NO":"１２號","E_COORD97":169702.57999999999,"N_COORD97":2550370.0499999998,"ADDRESS":"總安街一段１４６巷９２弄１２號","OBJECTID":39502},"geometry":{"x":169702.58000000007,"y":2550370.0500000007}},{"attributes":{"ID":39503,"DIS_CODE":0,"TOWNNAME":"安南區","LI":"安順里","LIN":"7鄰","STREET":"總安街","SECT":"一段","MAREA":" ","LANE":"１４６巷","ALLEY":"９２弄","HOUSE_NO":"１６號","E_COORD97":169707.34,"N_COORD97":2550369.5699999998,"ADDRESS":"總安街一段１４６巷９２弄１６號","OBJECTID":39503},"geometry":{"x":169707.33999999985,"y":2550369.5700000003}},{"attributes":{"ID":39504,"DIS_CODE":0,"TOWNNAME":"安南區","LI":"安順里","LIN":"7鄰","STREET":"總安街","SECT":"一段","MAREA":" ","LANE":"１４６巷","ALLEY":"９２弄","HOUSE_NO":"１８號","E_COORD97":169710.98999999999,"N_COORD97":2550368.7799999998,"ADDRESS":"總安街一段１４６巷９２弄１８號","OBJECTID":39504},"geometry":{"x":169710.99000000115,"y":2550368.7800000012}},{"attributes":{"ID":39505,"DIS_CODE":0,"TOWNNAME":"安南區","LI":"安順里","LIN":"7鄰","STREET":"總安街","SECT":"一段","MAREA":" ","LANE":"１４６巷","ALLEY":"９２弄","HOUSE_NO":"２０號","E_COORD97":169714.64000000001,"N_COORD97":2550367.5099999998,"ADDRESS":"總安街一段１４６巷９２弄２０號","OBJECTID":39505},"geometry":{"x":169714.6400000006,"y":2550367.5100000035}},{"attributes":{"ID":39506,"DIS_CODE":0,"TOWNNAME":"安南區","LI":"安順里","LIN":"7鄰","STREET":"總安街","SECT":"一段","MAREA":" ","LANE":"１４６巷","ALLEY":"９２弄","HOUSE_NO":"２２號","E_COORD97":169718.13,"N_COORD97":2550365.7599999998,"ADDRESS":"總安街一段１４６巷９２弄２２號","OBJECTID":39506},"geometry":{"x":169718.13000000082,"y":2550365.7600000035}},{"attributes":{"ID":39507,"DIS_CODE":0,"TOWNNAME":"安南區","LI":"安順里","LIN":"7鄰","STREET":"總安街","SECT":"一段","MAREA":" ","LANE":"１４６巷","ALLEY":"９２弄","HOUSE_NO":"２６號","E_COORD97":169721.94,"N_COORD97":2550365.4399999999,"ADDRESS":"總安街一段１４６巷９２弄２６號","OBJECTID":39507},"geometry":{"x":169721.94000000134,"y":2550365.4400000013}},{"attributes":{"ID":39508,"DIS_CODE":0,"TOWNNAME":"安南區","LI":"安順里","LIN":"7鄰","STREET":"總安街","SECT":"一段","MAREA":" ","LANE":"１４６巷","ALLEY":"９２弄","HOUSE_NO":"２８號","E_COORD97":169724.95999999999,"N_COORD97":2550364.6499999999,"ADDRESS":"總安街一段１４６巷９２弄２８號","OBJECTID":39508},"geometry":{"x":169724.95999999996,"y":2550364.6500000022}},{"attributes":{"ID":39509,"DIS_CODE":0,"TOWNNAME":"安南區","LI":"安順里","LIN":"7鄰","STREET":"總安街","SECT":"一段","MAREA":" ","LANE":"１４６巷","ALLEY":"９２弄","HOUSE_NO":"３０號","E_COORD97":169728.92999999999,"N_COORD97":2550364.0099999998,"ADDRESS":"總安街一段１４６巷９２弄３０號","OBJECTID":39509},"geometry":{"x":169728.93000000156,"y":2550364.0100000035}},{"attributes":{"ID":39510,"DIS_CODE":0,"TOWNNAME":"南區","LI":"彰南里","LIN":"14鄰","STREET":"新愛路","SECT":" ","MAREA":" ","LANE":" ","ALLEY":" ","HOUSE_NO":"７號","E_COORD97":166124.06,"N_COORD97":2541684.04,"ADDRESS":"新愛路７號","OBJECTID":39510},"geometry":{"x":166124.06000000145,"y":2541684.040000001}},{"attributes":{"ID":39511,"DIS_CODE":0,"TOWNNAME":"鹽水區","LI":"後宅里","LIN":"7鄰","STREET":" ","SECT":" ","MAREA":"後寮","LANE":" ","ALLEY":" ","HOUSE_NO":"７２之１號","E_COORD97":173260.34,"N_COORD97":2577632.2200000002,"ADDRESS":"後寮７２之１號","OBJECTID":39511},"geometry":{"x":173260.33999999985,"y":2577632.2200000044}},{"attributes":{"ID":39512,"DIS_CODE":0,"TOWNNAME":"鹽水區","LI":"後宅里","LIN":"7鄰","STREET":" ","SECT":" ","MAREA":"後寮","LANE":" ","ALLEY":" ","HOUSE_NO":"７２之２號","E_COORD97":173320.47,"N_COORD97":2577593.6499999999,"ADDRESS":"後寮７２之２號","OBJECTID":39512},"geometry":{"x":173320.46999999974,"y":2577593.6500000004}},{"attributes":{"ID":39513,"DIS_CODE":0,"TOWNNAME":"鹽水區","LI":"後宅里","LIN":"7鄰","STREET":" ","SECT":" ","MAREA":"後寮","LANE":" ","ALLEY":" ","HOUSE_NO":"７２號之２","E_COORD97":173320.47,"N_COORD97":2577593.6499999999,"ADDRESS":"後寮７２號之２","OBJECTID":39513},"geometry":{"x":173320.46999999974,"y":2577593.6500000004}},{"attributes":{"ID":39514,"DIS_CODE":0,"TOWNNAME":"鹽水區","LI":"後宅里","LIN":"7鄰","STREET":" ","SECT":" ","MAREA":"後寮","LANE":" ","ALLEY":" ","HOUSE_NO":"７２之３５號","E_COORD97":172515.84,"N_COORD97":2577656.1899999999,"ADDRESS":"後寮７２之３５號","OBJECTID":39514},"geometry":{"x":172515.83999999985,"y":2577656.1900000013}},{"attributes":{"ID":39515,"DIS_CODE":0,"TOWNNAME":"鹽水區","LI":"後宅里","LIN":"7鄰","STREET":" ","SECT":" ","MAREA":"後寮","LANE":" ","ALLEY":" ","HOUSE_NO":"７２號之３","E_COORD97":173104.28,"N_COORD97":2577782.5899999999,"ADDRESS":"後寮７２號之３","OBJECTID":39515},"geometry":{"x":173104.28000000119,"y":2577782.5900000017}},{"attributes":{"ID":39516,"DIS_CODE":0,"TOWNNAME":"鹽水區","LI":"後宅里","LIN":"7鄰","STREET":" ","SECT":" ","MAREA":"後寮","LANE":" ","ALLEY":" ","HOUSE_NO":"７２號","E_COORD97":173402.97,"N_COORD97":2577708.98,"ADDRESS":"後寮７２號","OBJECTID":39516},"geometry":{"x":173402.97000000067,"y":2577708.9800000023}},{"attributes":{"ID":39517,"DIS_CODE":0,"TOWNNAME":"鹽水區","LI":"後宅里","LIN":"7鄰","STREET":" ","SECT":" ","MAREA":"後寮","LANE":" ","ALLEY":" ","HOUSE_NO":"７３號","E_COORD97":173626.45999999999,"N_COORD97":2577753.1600000001,"ADDRESS":"後寮７３號","OBJECTID":39517},"geometry":{"x":173626.46000000089,"y":2577753.1600000001}},{"attributes":{"ID":39518,"DIS_CODE":0,"TOWNNAME":"鹽水區","LI":"後宅里","LIN":"7鄰","STREET":" ","SECT":" ","MAREA":"後寮","LANE":" ","ALLEY":" ","HOUSE_NO":"７７之１號","E_COORD97":172731.82000000001,"N_COORD97":2578269.3799999999,"ADDRESS":"後寮７７之１號","OBJECTID":39518},"geometry":{"x":172731.8200000003,"y":2578269.379999999}},{"attributes":{"ID":39519,"DIS_CODE":0,"TOWNNAME":"安南區","LI":"安順里","LIN":"7鄰","STREET":"總安街","SECT":"一段","MAREA":" ","LANE":"１４６巷","ALLEY":"９２弄","HOUSE_NO":"３２號","E_COORD97":169732.89999999999,"N_COORD97":2550363.3799999999,"ADDRESS":"總安街一段１４６巷９２弄３２號","OBJECTID":39519},"geometry":{"x":169732.90000000037,"y":2550363.379999999}},{"attributes":{"ID":39520,"DIS_CODE":0,"TOWNNAME":"安南區","LI":"安順里","LIN":"7鄰","STREET":"總安街","SECT":"一段","MAREA":" ","LANE":"１４６巷","ALLEY":"９２弄","HOUSE_NO":"３６號","E_COORD97":169737.17999999999,"N_COORD97":2550362.1099999999,"ADDRESS":"總安街一段１４６巷９２弄３６號","OBJECTID":39520},"geometry":{"x":169737.1799999997,"y":2550362.1099999994}},{"attributes":{"ID":39521,"DIS_CODE":0,"TOWNNAME":"鹽水區","LI":"後宅里","LIN":"7鄰","STREET":" ","SECT":" ","MAREA":"後寮","LANE":" ","ALLEY":" ","HOUSE_NO":"７７之２號","E_COORD97":172874.69,"N_COORD97":2578442.04,"ADDRESS":"後寮７７之２號","OBJECTID":39521},"geometry":{"x":172874.69000000134,"y":2578442.0400000028}},{"attributes":{"ID":39522,"DIS_CODE":0,"TOWNNAME":"鹽水區","LI":"孫厝里","LIN":"7鄰","STREET":" ","SECT":" ","MAREA":"孫厝寮","LANE":" ","ALLEY":" ","HOUSE_NO":"４６號","E_COORD97":170219.64000000001,"N_COORD97":2576886.9100000001,"ADDRESS":"孫厝寮４６號","OBJECTID":39522},"geometry":{"x":170219.6400000006,"y":2576886.9100000001}},{"attributes":{"ID":39523,"DIS_CODE":0,"TOWNNAME":"鹽水區","LI":"孫厝里","LIN":"7鄰","STREET":" ","SECT":" ","MAREA":"孫厝寮","LANE":" ","ALLEY":" ","HOUSE_NO":"４９號","E_COORD97":170235.01000000001,"N_COORD97":2576824.46,"ADDRESS":"孫厝寮４９號","OBJECTID":39523},"geometry":{"x":170235.00999999978,"y":2576824.4600000028}},{"attributes":{"ID":39524,"DIS_CODE":0,"TOWNNAME":"鹽水區","LI":"孫厝里","LIN":"7鄰","STREET":" ","SECT":" ","MAREA":"孫厝寮","LANE":" ","ALLEY":" ","HOUSE_NO":"５０號","E_COORD97":170245.07999999999,"N_COORD97":2576807.0800000001,"ADDRESS":"孫厝寮５０號","OBJECTID":39524},"geometry":{"x":170245.08000000007,"y":2576807.0800000001}},{"attributes":{"ID":39525,"DIS_CODE":0,"TOWNNAME":"鹽水區","LI":"孫厝里","LIN":"7鄰","STREET":" ","SECT":" ","MAREA":"孫厝寮","LANE":" ","ALLEY":" ","HOUSE_NO":"５１號","E_COORD97":170261.72,"N_COORD97":2576818.29,"ADDRESS":"孫厝寮５１號","OBJECTID":39525},"geometry":{"x":170261.72000000067,"y":2576818.2899999991}},{"attributes":{"ID":39526,"DIS_CODE":0,"TOWNNAME":"鹽水區","LI":"孫厝里","LIN":"7鄰","STREET":" ","SECT":" ","MAREA":"孫厝寮","LANE":" ","ALLEY":" ","HOUSE_NO":"５３號","E_COORD97":170249.07000000001,"N_COORD97":2576864.48,"ADDRESS":"孫厝寮５３號","OBJECTID":39526},"geometry":{"x":170249.07000000216,"y":2576864.4800000023}},{"attributes":{"ID":39527,"DIS_CODE":0,"TOWNNAME":"鹽水區","LI":"孫厝里","LIN":"7鄰","STREET":" ","SECT":" ","MAREA":"孫厝寮","LANE":" ","ALLEY":" ","HOUSE_NO":"５４號","E_COORD97":170234.59,"N_COORD97":2576880.8599999999,"ADDRESS":"孫厝寮５４號","OBJECTID":39527},"geometry":{"x":170234.58999999985,"y":2576880.8600000031}},{"attributes":{"ID":39528,"DIS_CODE":0,"TOWNNAME":"鹽水區","LI":"孫厝里","LIN":"7鄰","STREET":" ","SECT":" ","MAREA":"孫厝寮","LANE":" ","ALLEY":" ","HOUSE_NO":"５５號","E_COORD97":170234.13,"N_COORD97":2576908,"ADDRESS":"孫厝寮５５號","OBJECTID":39528},"geometry":{"x":170234.12999999989,"y":2576908.0000000019}},{"attributes":{"ID":39529,"DIS_CODE":0,"TOWNNAME":"鹽水區","LI":"孫厝里","LIN":"7鄰","STREET":" ","SECT":" ","MAREA":"孫厝寮","LANE":" ","ALLEY":" ","HOUSE_NO":"５６號","E_COORD97":170222.66,"N_COORD97":2576927.29,"ADDRESS":"孫厝寮５６號","OBJECTID":39529},"geometry":{"x":170222.66000000015,"y":2576927.2899999991}},{"attributes":{"ID":39530,"DIS_CODE":0,"TOWNNAME":"鹽水區","LI":"桐寮里","LIN":"7鄰","STREET":" ","SECT":" ","MAREA":"桐寮","LANE":" ","ALLEY":" ","HOUSE_NO":"２７號之１","E_COORD97":173894.29999999999,"N_COORD97":2576397.7400000002,"ADDRESS":"桐寮２７號之１","OBJECTID":39530},"geometry":{"x":173894.29999999981,"y":2576397.7400000039}},{"attributes":{"ID":39531,"DIS_CODE":0,"TOWNNAME":"鹽水區","LI":"桐寮里","LIN":"7鄰","STREET":" ","SECT":" ","MAREA":"桐寮","LANE":" ","ALLEY":" ","HOUSE_NO":"３２之１號","E_COORD97":173839.92000000001,"N_COORD97":2576387.5800000001,"ADDRESS":"桐寮３２之１號","OBJECTID":39531},"geometry":{"x":173839.91999999993,"y":2576387.5800000001}},{"attributes":{"ID":39532,"DIS_CODE":0,"TOWNNAME":"鹽水區","LI":"桐寮里","LIN":"7鄰","STREET":" ","SECT":" ","MAREA":"桐寮","LANE":" ","ALLEY":" ","HOUSE_NO":"３２號之２","E_COORD97":173781,"N_COORD97":2576464.6400000001,"ADDRESS":"桐寮３２號之２","OBJECTID":39532},"geometry":{"x":173781.00000000093,"y":2576464.6400000025}},{"attributes":{"ID":39533,"DIS_CODE":0,"TOWNNAME":"鹽水區","LI":"桐寮里","LIN":"7鄰","STREET":" ","SECT":" ","MAREA":"桐寮","LANE":" ","ALLEY":" ","HOUSE_NO":"３５號","E_COORD97":173860.76999999999,"N_COORD97":2576447.25,"ADDRESS":"桐寮３５號","OBJECTID":39533},"geometry":{"x":173860.76999999955,"y":2576447.25}},{"attributes":{"ID":39534,"DIS_CODE":0,"TOWNNAME":"鹽水區","LI":"桐寮里","LIN":"7鄰","STREET":" ","SECT":" ","MAREA":"桐寮","LANE":" ","ALLEY":" ","HOUSE_NO":"３７號","E_COORD97":173844.79000000001,"N_COORD97":2576456.04,"ADDRESS":"桐寮３７號","OBJECTID":39534},"geometry":{"x":173844.79000000097,"y":2576456.040000001}},{"attributes":{"ID":39535,"DIS_CODE":0,"TOWNNAME":"鹽水區","LI":"桐寮里","LIN":"7鄰","STREET":" ","SECT":" ","MAREA":"桐寮","LANE":" ","ALLEY":" ","HOUSE_NO":"３８號","E_COORD97":173825.28,"N_COORD97":2576480.1600000001,"ADDRESS":"桐寮３８號","OBJECTID":39535},"geometry":{"x":173825.28000000119,"y":2576480.160000002}},{"attributes":{"ID":39536,"DIS_CODE":0,"TOWNNAME":"安南區","LI":"安順里","LIN":"7鄰","STREET":"總安街","SECT":"一段","MAREA":" ","LANE":"１４６巷","ALLEY":"９２弄","HOUSE_NO":"６８號","E_COORD97":169685.75,"N_COORD97":2550358.2999999998,"ADDRESS":"總安街一段１４６巷９２弄６８號","OBJECTID":39536},"geometry":{"x":169685.75,"y":2550358.3000000007}},{"attributes":{"ID":39537,"DIS_CODE":0,"TOWNNAME":"安南區","LI":"安順里","LIN":"7鄰","STREET":"總安街","SECT":"一段","MAREA":" ","LANE":"１４６巷","ALLEY":"９２弄","HOUSE_NO":"６６號","E_COORD97":169689.07999999999,"N_COORD97":2550357.8199999998,"ADDRESS":"總安街一段１４６巷９２弄６６號","OBJECTID":39537},"geometry":{"x":169689.08000000007,"y":2550357.8200000003}},{"attributes":{"ID":39538,"DIS_CODE":0,"TOWNNAME":"安南區","LI":"安順里","LIN":"7鄰","STREET":"總安街","SECT":"一段","MAREA":" ","LANE":"１４６巷","ALLEY":"９２弄","HOUSE_NO":"６２號","E_COORD97":169693.04999999999,"N_COORD97":2550356.8700000001,"ADDRESS":"總安街一段１４６巷９２弄６２號","OBJECTID":39538},"geometry":{"x":169693.05000000075,"y":2550356.8700000029}},{"attributes":{"ID":39539,"DIS_CODE":0,"TOWNNAME":"鹽水區","LI":"桐寮里","LIN":"7鄰","STREET":" ","SECT":" ","MAREA":"桐寮","LANE":" ","ALLEY":" ","HOUSE_NO":"３９號","E_COORD97":173846.29000000001,"N_COORD97":2576488.6499999999,"ADDRESS":"桐寮３９號","OBJECTID":39539},"geometry":{"x":173846.2900000019,"y":2576488.6500000004}},{"attributes":{"ID":39540,"DIS_CODE":0,"TOWNNAME":"鹽水區","LI":"桐寮里","LIN":"7鄰","STREET":" ","SECT":" ","MAREA":"桐寮","LANE":" ","ALLEY":" ","HOUSE_NO":"４０號","E_COORD97":173858.95999999999,"N_COORD97":2576493.9700000002,"ADDRESS":"桐寮４０號","OBJECTID":39540},"geometry":{"x":173858.96000000089,"y":2576493.9700000007}},{"attributes":{"ID":39541,"DIS_CODE":0,"TOWNNAME":"鹽水區","LI":"桐寮里","LIN":"7鄰","STREET":" ","SECT":" ","MAREA":"桐寮","LANE":" ","ALLEY":" ","HOUSE_NO":"４１號","E_COORD97":173883.03,"N_COORD97":2576455.0800000001,"ADDRESS":"桐寮４１號","OBJECTID":39541},"geometry":{"x":173883.03000000026,"y":2576455.0800000001}},{"attributes":{"ID":39542,"DIS_CODE":0,"TOWNNAME":"鹽水區","LI":"桐寮里","LIN":"7鄰","STREET":" ","SECT":" ","MAREA":"桐寮","LANE":" ","ALLEY":" ","HOUSE_NO":"４８號","E_COORD97":173901.63,"N_COORD97":2576467.7000000002,"ADDRESS":"桐寮４８號","OBJECTID":39542},"geometry":{"x":173901.63000000082,"y":2576467.6999999993}},{"attributes":{"ID":39543,"DIS_CODE":0,"TOWNNAME":"新營區","LI":"埤寮里","LIN":" ","STREET":" ","SECT":" ","MAREA":"許丑","LANE":" ","ALLEY":" ","HOUSE_NO":"３５之５號","E_COORD97":179969.16,"N_COORD97":2581053.6200000001,"ADDRESS":"許丑３５之５號","OBJECTID":39543},"geometry":{"x":179969.16000000108,"y":2581053.620000001}},{"attributes":{"ID":39544,"DIS_CODE":0,"TOWNNAME":"新營區","LI":"太南里","LIN":"20鄰","STREET":" ","SECT":" ","MAREA":"太子宮","LANE":" ","ALLEY":" ","HOUSE_NO":"３４１號之２","E_COORD97":176371.35000000001,"N_COORD97":2576940.2599999998,"ADDRESS":"太子宮３４１號之２","OBJECTID":39544},"geometry":{"x":176371.35000000056,"y":2576940.2600000016}},{"attributes":{"ID":39545,"DIS_CODE":0,"TOWNNAME":"南化區","LI":"玉山里","LIN":"7鄰","STREET":" ","SECT":" ","MAREA":"玉山","LANE":" ","ALLEY":" ","HOUSE_NO":"７２號","E_COORD97":200797.07000000001,"N_COORD97":2552797.75,"ADDRESS":"玉山７２號","OBJECTID":39545},"geometry":{"x":200797.07000000123,"y":2552797.7500000019}},{"attributes":{"ID":39546,"DIS_CODE":0,"TOWNNAME":"南化區","LI":"玉山里","LIN":"7鄰","STREET":" ","SECT":" ","MAREA":"玉山","LANE":" ","ALLEY":" ","HOUSE_NO":"７１之１號","E_COORD97":200782.07000000001,"N_COORD97":2552788.7999999998,"ADDRESS":"玉山７１之１號","OBJECTID":39546},"geometry":{"x":200782.0700000003,"y":2552788.8000000026}},{"attributes":{"ID":39547,"DIS_CODE":0,"TOWNNAME":"南化區","LI":"玉山里","LIN":"7鄰","STREET":" ","SECT":" ","MAREA":"玉山","LANE":" ","ALLEY":" ","HOUSE_NO":"７９號","E_COORD97":200792.97,"N_COORD97":2552531.75,"ADDRESS":"玉山７９號","OBJECTID":39547},"geometry":{"x":200792.96999999881,"y":2552531.75}},{"attributes":{"ID":39548,"DIS_CODE":0,"TOWNNAME":"新營區","LI":"太南里","LIN":"20鄰","STREET":" ","SECT":" ","MAREA":"太子宮","LANE":" ","ALLEY":" ","HOUSE_NO":"３４２之９號","E_COORD97":176328.88,"N_COORD97":2576993.6400000001,"ADDRESS":"太子宮３４２之９號","OBJECTID":39548},"geometry":{"x":176328.88000000175,"y":2576993.6400000025}},{"attributes":{"ID":39549,"DIS_CODE":0,"TOWNNAME":"南化區","LI":"玉山里","LIN":"7鄰","STREET":" ","SECT":" ","MAREA":"玉山","LANE":" ","ALLEY":" ","HOUSE_NO":"８０號","E_COORD97":200788.76999999999,"N_COORD97":2552876.75,"ADDRESS":"玉山８０號","OBJECTID":39549},"geometry":{"x":200788.76999999955,"y":2552876.75}},{"attributes":{"ID":39550,"DIS_CODE":0,"TOWNNAME":"南化區","LI":"玉山里","LIN":"7鄰","STREET":" ","SECT":" ","MAREA":"玉山","LANE":" ","ALLEY":" ","HOUSE_NO":"７９號之４","E_COORD97":200789.73000000001,"N_COORD97":2552871.7999999998,"ADDRESS":"玉山７９號之４","OBJECTID":39550},"geometry":{"x":200789.73000000045,"y":2552871.8000000045}},{"attributes":{"ID":39551,"DIS_CODE":0,"TOWNNAME":"南化區","LI":"玉山里","LIN":"7鄰","STREET":" ","SECT":" ","MAREA":"玉山","LANE":" ","ALLEY":" ","HOUSE_NO":"７５號","E_COORD97":200783.07000000001,"N_COORD97":2552825.75,"ADDRESS":"玉山７５號","OBJECTID":39551},"geometry":{"x":200783.07000000123,"y":2552825.75}},{"attributes":{"ID":39552,"DIS_CODE":0,"TOWNNAME":"南化區","LI":"玉山里","LIN":"7鄰","STREET":" ","SECT":" ","MAREA":"玉山","LANE":" ","ALLEY":" ","HOUSE_NO":"８２號","E_COORD97":200840.26999999999,"N_COORD97":2552882.75,"ADDRESS":"玉山８２號","OBJECTID":39552},"geometry":{"x":200840.27000000048,"y":2552882.7500000019}},{"attributes":{"ID":39553,"DIS_CODE":0,"TOWNNAME":"南化區","LI":"中坑里","LIN":"7鄰","STREET":" ","SECT":" ","MAREA":"中坑","LANE":" ","ALLEY":" ","HOUSE_NO":"５４號","E_COORD97":193651.35999999999,"N_COORD97":2550056.7799999998,"ADDRESS":"中坑５４號","OBJECTID":39553},"geometry":{"x":193651.36000000127,"y":2550056.7800000031}},{"attributes":{"ID":39554,"DIS_CODE":0,"TOWNNAME":"安南區","LI":"安順里","LIN":"7鄰","STREET":"總安街","SECT":"一段","MAREA":" ","LANE":"１４６巷","ALLEY":"９２弄","HOUSE_NO":"６０號","E_COORD97":169697.66,"N_COORD97":2550356.0800000001,"ADDRESS":"總安街一段１４６巷９２弄６０號","OBJECTID":39554},"geometry":{"x":169697.66000000108,"y":2550356.0800000001}},{"attributes":{"ID":39555,"DIS_CODE":0,"TOWNNAME":"南化區","LI":"北平里","LIN":"7鄰","STREET":" ","SECT":" ","MAREA":"北平","LANE":" ","ALLEY":" ","HOUSE_NO":"８４號之１","E_COORD97":194009.73000000001,"N_COORD97":2550982.7999999998,"ADDRESS":"北平８４號之１","OBJECTID":39555},"geometry":{"x":194009.73000000231,"y":2550982.8000000007}},{"attributes":{"ID":39556,"DIS_CODE":0,"TOWNNAME":"南化區","LI":"東和里","LIN":"7鄰","STREET":" ","SECT":" ","MAREA":"東和","LANE":" ","ALLEY":" ","HOUSE_NO":"６５號之１","E_COORD97":197175.29999999999,"N_COORD97":2547426.7999999998,"ADDRESS":"東和６５號之１","OBJECTID":39556},"geometry":{"x":197175.30000000075,"y":2547426.7999999989}},{"attributes":{"ID":39557,"DIS_CODE":0,"TOWNNAME":"南化區","LI":"東和里","LIN":"7鄰","STREET":" ","SECT":" ","MAREA":"東和","LANE":" ","ALLEY":" ","HOUSE_NO":"６３號","E_COORD97":197086.07000000001,"N_COORD97":2547283.75,"ADDRESS":"東和６３號","OBJECTID":39557},"geometry":{"x":197086.07000000123,"y":2547283.75}},{"attributes":{"ID":39558,"DIS_CODE":0,"TOWNNAME":"南化區","LI":"南化里","LIN":"7鄰","STREET":" ","SECT":" ","MAREA":"南化","LANE":" ","ALLEY":" ","HOUSE_NO":"９９號之４","E_COORD97":196391.64999999999,"N_COORD97":2548967.7999999998,"ADDRESS":"南化９９號之４","OBJECTID":39558},"geometry":{"x":196391.65000000037,"y":2548967.8000000026}},{"attributes":{"ID":39559,"DIS_CODE":0,"TOWNNAME":"南化區","LI":"南化里","LIN":"7鄰","STREET":" ","SECT":" ","MAREA":"南化","LANE":" ","ALLEY":" ","HOUSE_NO":"９９號之１","E_COORD97":196336.12,"N_COORD97":2549040.7999999998,"ADDRESS":"南化９９號之１","OBJECTID":39559},"geometry":{"x":196336.12000000104,"y":2549040.8000000045}},{"attributes":{"ID":39560,"DIS_CODE":0,"TOWNNAME":"南化區","LI":"南化里","LIN":"7鄰","STREET":" ","SECT":" ","MAREA":"南化","LANE":" ","ALLEY":" ","HOUSE_NO":"９６號","E_COORD97":196355.69,"N_COORD97":2549057.75,"ADDRESS":"南化９６號","OBJECTID":39560},"geometry":{"x":196355.69000000041,"y":2549057.7500000019}},{"attributes":{"ID":39561,"DIS_CODE":0,"TOWNNAME":"安南區","LI":"安順里","LIN":"7鄰","STREET":"總安街","SECT":"一段","MAREA":" ","LANE":"１４６巷","ALLEY":"９２弄","HOUSE_NO":"５８號","E_COORD97":169702.26000000001,"N_COORD97":2550355.6000000001,"ADDRESS":"總安街一段１４６巷９２弄５８號","OBJECTID":39561},"geometry":{"x":169702.25999999978,"y":2550355.5999999996}},{"attributes":{"ID":39562,"DIS_CODE":0,"TOWNNAME":"南化區","LI":"南化里","LIN":"7鄰","STREET":" ","SECT":" ","MAREA":"南化","LANE":" ","ALLEY":" ","HOUSE_NO":"１０４號之６","E_COORD97":196226.28,"N_COORD97":2548946.7999999998,"ADDRESS":"南化１０４號之６","OBJECTID":39562},"geometry":{"x":196226.27999999933,"y":2548946.8000000026}},{"attributes":{"ID":39563,"DIS_CODE":0,"TOWNNAME":"南化區","LI":"南化里","LIN":"7鄰","STREET":" ","SECT":" ","MAREA":"南化","LANE":" ","ALLEY":" ","HOUSE_NO":"１０４號之７","E_COORD97":196238.25,"N_COORD97":2548949.7999999998,"ADDRESS":"南化１０４號之７","OBJECTID":39563},"geometry":{"x":196238.25000000186,"y":2548949.8000000026}},{"attributes":{"ID":39564,"DIS_CODE":0,"TOWNNAME":"安南區","LI":"安順里","LIN":"7鄰","STREET":"總安街","SECT":"一段","MAREA":" ","LANE":"１４６巷","ALLEY":"９２弄","HOUSE_NO":"５６號","E_COORD97":169706.23000000001,"N_COORD97":2550354.3300000001,"ADDRESS":"總安街一段１４６巷９２弄５６號","OBJECTID":39564},"geometry":{"x":169706.23000000138,"y":2550354.3300000001}},{"attributes":{"ID":39565,"DIS_CODE":0,"TOWNNAME":"南化區","LI":"南化里","LIN":"7鄰","STREET":" ","SECT":" ","MAREA":"南化","LANE":" ","ALLEY":" ","HOUSE_NO":"８７之１號","E_COORD97":196394.79000000001,"N_COORD97":2549033.7999999998,"ADDRESS":"南化８７之１號","OBJECTID":39565},"geometry":{"x":196394.79000000004,"y":2549033.7999999989}},{"attributes":{"ID":39566,"DIS_CODE":0,"TOWNNAME":"南化區","LI":"南化里","LIN":"7鄰","STREET":" ","SECT":" ","MAREA":"南化","LANE":" ","ALLEY":" ","HOUSE_NO":"９１號","E_COORD97":196374.79000000001,"N_COORD97":2549063.75,"ADDRESS":"南化９１號","OBJECTID":39566},"geometry":{"x":196374.79000000004,"y":2549063.75}},{"attributes":{"ID":39567,"DIS_CODE":0,"TOWNNAME":"安南區","LI":"安順里","LIN":"7鄰","STREET":"總安街","SECT":"一段","MAREA":" ","LANE":"１４６巷","ALLEY":"９２弄","HOUSE_NO":"５２號","E_COORD97":169709.88,"N_COORD97":2550354.0099999998,"ADDRESS":"總安街一段１４６巷９２弄５２號","OBJECTID":39567},"geometry":{"x":169709.88000000082,"y":2550354.0100000035}},{"attributes":{"ID":39568,"DIS_CODE":0,"TOWNNAME":"安南區","LI":"安順里","LIN":"7鄰","STREET":"總安街","SECT":"一段","MAREA":" ","LANE":"１４６巷","ALLEY":"９２弄","HOUSE_NO":"５０號","E_COORD97":169713.69,"N_COORD97":2550353.2200000002,"ADDRESS":"總安街一段１４６巷９２弄５０號","OBJECTID":39568},"geometry":{"x":169713.69000000041,"y":2550353.2200000044}},{"attributes":{"ID":39569,"DIS_CODE":0,"TOWNNAME":"安南區","LI":"安順里","LIN":"7鄰","STREET":"總安街","SECT":"一段","MAREA":" ","LANE":"１４６巷","ALLEY":"９２弄","HOUSE_NO":"４８號","E_COORD97":169717.66,"N_COORD97":2550352.4300000002,"ADDRESS":"總安街一段１４６巷９２弄４８號","OBJECTID":39569},"geometry":{"x":169717.66000000201,"y":2550352.4300000016}},{"attributes":{"ID":39570,"DIS_CODE":0,"TOWNNAME":"安南區","LI":"安順里","LIN":"7鄰","STREET":"總安街","SECT":"一段","MAREA":" ","LANE":"１４６巷","ALLEY":"９２弄","HOUSE_NO":"４６號","E_COORD97":169721.79000000001,"N_COORD97":2550351.4700000002,"ADDRESS":"總安街一段１４６巷９２弄４６號","OBJECTID":39570},"geometry":{"x":169721.7900000019,"y":2550351.4700000044}},{"attributes":{"ID":39571,"DIS_CODE":0,"TOWNNAME":"南化區","LI":"南化里","LIN":"7鄰","STREET":" ","SECT":" ","MAREA":"南化","LANE":" ","ALLEY":" ","HOUSE_NO":"９７號","E_COORD97":196350.89000000001,"N_COORD97":2549055.75,"ADDRESS":"南化９７號","OBJECTID":39571},"geometry":{"x":196350.8900000006,"y":2549055.75}},{"attributes":{"ID":39572,"DIS_CODE":0,"TOWNNAME":"南化區","LI":"南化里","LIN":"7鄰","STREET":" ","SECT":" ","MAREA":"南化","LANE":" ","ALLEY":" ","HOUSE_NO":"１０６號之１","E_COORD97":195917.07000000001,"N_COORD97":2548894.7999999998,"ADDRESS":"南化１０６號之１","OBJECTID":39572},"geometry":{"x":195917.0700000003,"y":2548894.7999999989}},{"attributes":{"ID":39573,"DIS_CODE":0,"TOWNNAME":"南化區","LI":"南化里","LIN":"7鄰","STREET":" ","SECT":" ","MAREA":"南化","LANE":" ","ALLEY":" ","HOUSE_NO":"９９號之３","E_COORD97":196338.92000000001,"N_COORD97":2549022.7999999998,"ADDRESS":"南化９９號之３","OBJECTID":39573},"geometry":{"x":196338.92000000086,"y":2549022.8000000007}},{"attributes":{"ID":39574,"DIS_CODE":0,"TOWNNAME":"南化區","LI":"南化里","LIN":"7鄰","STREET":" ","SECT":" ","MAREA":"南化","LANE":" ","ALLEY":" ","HOUSE_NO":"１０４之１０號","E_COORD97":196238.09,"N_COORD97":2548918.7999999998,"ADDRESS":"南化１０４之１０號","OBJECTID":39574},"geometry":{"x":196238.09000000078,"y":2548918.8000000045}},{"attributes":{"ID":39575,"DIS_CODE":0,"TOWNNAME":"安南區","LI":"安順里","LIN":"7鄰","STREET":"總安街","SECT":"一段","MAREA":" ","LANE":"１４６巷","ALLEY":"９２弄","HOUSE_NO":"４２號","E_COORD97":169725.44,"N_COORD97":2550350.8399999999,"ADDRESS":"總安街一段１４６巷９２弄４２號","OBJECTID":39575},"geometry":{"x":169725.44000000041,"y":2550350.8399999999}},{"attributes":{"ID":39576,"DIS_CODE":0,"TOWNNAME":"南化區","LI":"南化里","LIN":"7鄰","STREET":" ","SECT":" ","MAREA":"南化","LANE":" ","ALLEY":" ","HOUSE_NO":"９８號","E_COORD97":196346.48999999999,"N_COORD97":2549053.75,"ADDRESS":"南化９８號","OBJECTID":39576},"geometry":{"x":196346.49000000022,"y":2549053.7500000037}},{"attributes":{"ID":39577,"DIS_CODE":0,"TOWNNAME":"安南區","LI":"安順里","LIN":"7鄰","STREET":"總安街","SECT":"一段","MAREA":" ","LANE":"１４６巷","ALLEY":"９２弄","HOUSE_NO":"４０號","E_COORD97":169729.72,"N_COORD97":2550350.3599999999,"ADDRESS":"總安街一段１４６巷９２弄４０號","OBJECTID":39577},"geometry":{"x":169729.71999999974,"y":2550350.3599999994}},{"attributes":{"ID":39578,"DIS_CODE":0,"TOWNNAME":"白河區","LI":"白河里","LIN":"14鄰","STREET":"新富街","SECT":" ","MAREA":" ","LANE":" ","ALLEY":" ","HOUSE_NO":"３８號","E_COORD97":190329.22,"N_COORD97":2583195.8599999999,"ADDRESS":"新富街３８號","OBJECTID":39578},"geometry":{"x":190329.22000000067,"y":2583195.8599999994}},{"attributes":{"ID":39579,"DIS_CODE":0,"TOWNNAME":"南化區","LI":"南化里","LIN":"7鄰","STREET":" ","SECT":" ","MAREA":"南化","LANE":" ","ALLEY":" ","HOUSE_NO":"１０５號之１","E_COORD97":196443.57000000001,"N_COORD97":2548865.7999999998,"ADDRESS":"南化１０５號之１","OBJECTID":39579},"geometry":{"x":196443.57000000123,"y":2548865.8000000026}},{"attributes":{"ID":39580,"DIS_CODE":0,"TOWNNAME":"南化區","LI":"南化里","LIN":"7鄰","STREET":" ","SECT":" ","MAREA":"南化","LANE":" ","ALLEY":" ","HOUSE_NO":"１０５號","E_COORD97":196372.54000000001,"N_COORD97":2548810.75,"ADDRESS":"南化１０５號","OBJECTID":39580},"geometry":{"x":196372.54000000097,"y":2548810.7500000019}},{"attributes":{"ID":39581,"DIS_CODE":0,"TOWNNAME":"安南區","LI":"安順里","LIN":"7鄰","STREET":"總安街","SECT":"一段","MAREA":" ","LANE":"１４６巷","ALLEY":"９２弄","HOUSE_NO":"３８號","E_COORD97":169733.69,"N_COORD97":2550349.4100000001,"ADDRESS":"總安街一段１４６巷９２弄３８號","OBJECTID":39581},"geometry":{"x":169733.69000000134,"y":2550349.410000002}},{"attributes":{"ID":39582,"DIS_CODE":0,"TOWNNAME":"安南區","LI":"城西里","LIN":"7鄰","STREET":"城西街","SECT":"三段","MAREA":" ","LANE":"５０１巷","ALLEY":"２４８弄","HOUSE_NO":"６６之１號","E_COORD97":157063.94,"N_COORD97":2549990.6400000001,"ADDRESS":"城西街三段５０１巷２４８弄６６之１號","OBJECTID":39582},"geometry":{"x":157063.94000000134,"y":2549990.6400000006}},{"attributes":{"ID":39583,"DIS_CODE":0,"TOWNNAME":"安南區","LI":"安順里","LIN":"7鄰","STREET":"總安街","SECT":"一段","MAREA":" ","LANE":"１４６巷","ALLEY":"９２弄","HOUSE_NO":"７２號","E_COORD97":169682.10000000001,"N_COORD97":2550328.0600000001,"ADDRESS":"總安街一段１４６巷９２弄７２號","OBJECTID":39583},"geometry":{"x":169682.10000000056,"y":2550328.0600000024}},{"attributes":{"ID":39584,"DIS_CODE":0,"TOWNNAME":"安南區","LI":"安順里","LIN":"7鄰","STREET":"總安街","SECT":"一段","MAREA":" ","LANE":"１４６巷","ALLEY":"９２弄","HOUSE_NO":"７０號","E_COORD97":169683.53,"N_COORD97":2550340.2799999998,"ADDRESS":"總安街一段１４６巷９２弄７０號","OBJECTID":39584},"geometry":{"x":169683.53000000119,"y":2550340.2799999993}},{"attributes":{"ID":39585,"DIS_CODE":0,"TOWNNAME":"安南區","LI":"安順里","LIN":"7鄰","STREET":"總安街","SECT":"一段","MAREA":" ","LANE":"１１０巷","ALLEY":"７１弄","HOUSE_NO":"２３號","E_COORD97":169683.84,"N_COORD97":2550274.8799999999,"ADDRESS":"總安街一段１１０巷７１弄２３號","OBJECTID":39585},"geometry":{"x":169683.83999999892,"y":2550274.879999999}},{"attributes":{"ID":39586,"DIS_CODE":0,"TOWNNAME":"安南區","LI":"安順里","LIN":"7鄰","STREET":"總安街","SECT":"一段","MAREA":" ","LANE":"１１０巷","ALLEY":"７１弄","HOUSE_NO":"２５號","E_COORD97":169683.84,"N_COORD97":2550269.6400000001,"ADDRESS":"總安街一段１１０巷７１弄２５號","OBJECTID":39586},"geometry":{"x":169683.83999999892,"y":2550269.6400000025}},{"attributes":{"ID":39587,"DIS_CODE":0,"TOWNNAME":"安平區","LI":"平安里","LIN":"13鄰","STREET":"安平路","SECT":" ","MAREA":" ","LANE":"５５０巷","ALLEY":"１７弄","HOUSE_NO":"１３號","E_COORD97":164943.98000000001,"N_COORD97":2544437.7400000002,"ADDRESS":"安平路５５０巷１７弄１３號","OBJECTID":39587},"geometry":{"x":164943.98000000231,"y":2544437.7400000021}},{"attributes":{"ID":39588,"DIS_CODE":0,"TOWNNAME":"南化區","LI":"東和里","LIN":"7鄰","STREET":" ","SECT":" ","MAREA":"東和","LANE":" ","ALLEY":" ","HOUSE_NO":"６５號","E_COORD97":197150.17000000001,"N_COORD97":2547465.75,"ADDRESS":"東和６５號","OBJECTID":39588},"geometry":{"x":197150.16999999993,"y":2547465.75}},{"attributes":{"ID":39589,"DIS_CODE":0,"TOWNNAME":"安平區","LI":"平安里","LIN":"13鄰","STREET":"安平路","SECT":" ","MAREA":" ","LANE":"５５０巷","ALLEY":"１７弄","HOUSE_NO":"１５號","E_COORD97":164940.79000000001,"N_COORD97":2544438.6499999999,"ADDRESS":"安平路５５０巷１７弄１５號","OBJECTID":39589},"geometry":{"x":164940.79000000004,"y":2544438.6500000022}},{"attributes":{"ID":39590,"DIS_CODE":0,"TOWNNAME":"安平區","LI":"平安里","LIN":"13鄰","STREET":"安平路","SECT":" ","MAREA":" ","LANE":"５５０巷","ALLEY":"１７弄","HOUSE_NO":"１８號","E_COORD97":164961.42000000001,"N_COORD97":2544447.8799999999,"ADDRESS":"安平路５５０巷１７弄１８號","OBJECTID":39590},"geometry":{"x":164961.42000000086,"y":2544447.8800000027}},{"attributes":{"ID":39591,"DIS_CODE":0,"TOWNNAME":"南化區","LI":"南化里","LIN":"7鄰","STREET":" ","SECT":" ","MAREA":"南化","LANE":" ","ALLEY":" ","HOUSE_NO":"８９號","E_COORD97":196375.59,"N_COORD97":2549033.75,"ADDRESS":"南化８９號","OBJECTID":39591},"geometry":{"x":196375.58999999985,"y":2549033.7500000037}},{"attributes":{"ID":39592,"DIS_CODE":0,"TOWNNAME":"南化區","LI":"南化里","LIN":"7鄰","STREET":" ","SECT":" ","MAREA":"南化","LANE":" ","ALLEY":" ","HOUSE_NO":"１０６號","E_COORD97":195967.44,"N_COORD97":2548931.75,"ADDRESS":"南化１０６號","OBJECTID":39592},"geometry":{"x":195967.44000000041,"y":2548931.7500000037}},{"attributes":{"ID":39593,"DIS_CODE":0,"TOWNNAME":"南化區","LI":"南化里","LIN":"7鄰","STREET":" ","SECT":" ","MAREA":"南化","LANE":" ","ALLEY":" ","HOUSE_NO":"９０號","E_COORD97":196378.98999999999,"N_COORD97":2549065.75,"ADDRESS":"南化９０號","OBJECTID":39593},"geometry":{"x":196378.99000000022,"y":2549065.75}},{"attributes":{"ID":39594,"DIS_CODE":0,"TOWNNAME":"南化區","LI":"西埔里","LIN":"7鄰","STREET":" ","SECT":" ","MAREA":"西埔","LANE":" ","ALLEY":" ","HOUSE_NO":"６１號之１","E_COORD97":193871.17999999999,"N_COORD97":2548503.7999999998,"ADDRESS":"西埔６１號之１","OBJECTID":39594},"geometry":{"x":193871.1799999997,"y":2548503.8000000007}},{"attributes":{"ID":39595,"DIS_CODE":0,"TOWNNAME":"南化區","LI":"中坑里","LIN":"7鄰","STREET":" ","SECT":" ","MAREA":"中坑","LANE":" ","ALLEY":" ","HOUSE_NO":"５３號","E_COORD97":193652.76000000001,"N_COORD97":2550018.7799999998,"ADDRESS":"中坑５３號","OBJECTID":39595},"geometry":{"x":193652.76000000164,"y":2550018.7799999993}},{"attributes":{"ID":39596,"DIS_CODE":0,"TOWNNAME":"南化區","LI":"小崙里","LIN":"7鄰","STREET":" ","SECT":" ","MAREA":"小崙","LANE":" ","ALLEY":" ","HOUSE_NO":"７７號之２","E_COORD97":198521.44,"N_COORD97":2549883.7999999998,"ADDRESS":"小崙７７號之２","OBJECTID":39596},"geometry":{"x":198521.44000000134,"y":2549883.8000000007}},{"attributes":{"ID":39597,"DIS_CODE":0,"TOWNNAME":"南化區","LI":"北平里","LIN":"7鄰","STREET":" ","SECT":" ","MAREA":"北平","LANE":" ","ALLEY":" ","HOUSE_NO":"８９號之１","E_COORD97":193944.92999999999,"N_COORD97":2550787.7999999998,"ADDRESS":"北平８９號之１","OBJECTID":39597},"geometry":{"x":193944.93000000063,"y":2550787.8000000026}},{"attributes":{"ID":39598,"DIS_CODE":0,"TOWNNAME":"南化區","LI":"中坑里","LIN":"7鄰","STREET":" ","SECT":" ","MAREA":"中坑","LANE":" ","ALLEY":" ","HOUSE_NO":"７４號之１","E_COORD97":193650.5,"N_COORD97":2550228.7999999998,"ADDRESS":"中坑７４號之１","OBJECTID":39598},"geometry":{"x":193650.5,"y":2550228.8000000026}},{"attributes":{"ID":39599,"DIS_CODE":0,"TOWNNAME":"南化區","LI":"小崙里","LIN":"7鄰","STREET":" ","SECT":" ","MAREA":"小崙","LANE":" ","ALLEY":" ","HOUSE_NO":"７７號","E_COORD97":198326.87,"N_COORD97":2549797.75,"ADDRESS":"小崙７７號","OBJECTID":39599},"geometry":{"x":198326.87000000011,"y":2549797.7500000019}},{"attributes":{"ID":39600,"DIS_CODE":0,"TOWNNAME":"南化區","LI":"北平里","LIN":"7鄰","STREET":" ","SECT":" ","MAREA":"北平","LANE":" ","ALLEY":" ","HOUSE_NO":"８２號","E_COORD97":194012.29000000001,"N_COORD97":2551048.75,"ADDRESS":"北平８２號","OBJECTID":39600},"geometry":{"x":194012.2900000019,"y":2551048.7500000019}}]}