{"displayFieldName":"TOWNNAME","fieldAliases":{"ID":"ID","DIS_CODE":"DIS_CODE","TOWNNAME":"TOWNNAME","LI":"LI","LIN":"LIN","STREET":"STREET","SECT":"SECT","MAREA":"MAREA","LANE":"LANE","ALLEY":"ALLEY","HOUSE_NO":"HOUSE_NO","E_COORD97":"E_COORD97","N_COORD97":"N_COORD97","ADDRESS":"ADDRESS","OBJECTID":"OBJECTID"},"geometryType":"esriGeometryPoint","spatialReference":{"wkid":102443,"latestWkid":3826},"fields":[{"name":"ID","type":"esriFieldTypeDouble","alias":"ID"},{"name":"DIS_CODE","type":"esriFieldTypeInteger","alias":"DIS_CODE"},{"name":"TOWNNAME","type":"esriFieldTypeString","alias":"TOWNNAME","length":8},{"name":"LI","type":"esriFieldTypeString","alias":"LI","length":8},{"name":"LIN","type":"esriFieldTypeString","alias":"LIN","length":12},{"name":"STREET","type":"esriFieldTypeString","alias":"STREET","length":20},{"name":"SECT","type":"esriFieldTypeString","alias":"SECT","length":8},{"name":"MAREA","type":"esriFieldTypeString","alias":"MAREA","length":12},{"name":"LANE","type":"esriFieldTypeString","alias":"LANE","length":10},{"name":"ALLEY","type":"esriFieldTypeString","alias":"ALLEY","length":10},{"name":"HOUSE_NO","type":"esriFieldTypeString","alias":"HOUSE_NO","length":20},{"name":"E_COORD97","type":"esriFieldTypeDouble","alias":"E_COORD97"},{"name":"N_COORD97","type":"esriFieldTypeDouble","alias":"N_COORD97"},{"name":"ADDRESS","type":"esriFieldTypeString","alias":"ADDRESS","length":50},{"name":"OBJECTID","type":"esriFieldTypeOID","alias":"OBJECTID"}],"features":[{"attributes":{"ID":386425,"DIS_CODE":0,"TOWNNAME":"新市區","LI":"新和里","LIN":"37鄰","STREET":"仁愛街","SECT":" ","MAREA":" ","LANE":"２４１巷","ALLEY":" ","HOUSE_NO":"３１號","E_COORD97":177543.12,"N_COORD97":2552871.5299999998,"ADDRESS":"仁愛街２４１巷３１號","OBJECTID":386401},"geometry":{"x":177543.12000000104,"y":2552871.5299999993}},{"attributes":{"ID":386426,"DIS_CODE":0,"TOWNNAME":"永康區","LI":"二王里","LIN":"37鄰","STREET":"中山南路","SECT":" ","MAREA":" ","LANE":"４９０巷","ALLEY":" ","HOUSE_NO":"２６號","E_COORD97":172226.95999999999,"N_COORD97":2546341.8399999999,"ADDRESS":"中山南路４９０巷２６號","OBJECTID":386402},"geometry":{"x":172226.95999999996,"y":2546341.8400000017}},{"attributes":{"ID":386427,"DIS_CODE":0,"TOWNNAME":"永康區","LI":"二王里","LIN":"37鄰","STREET":"中山南路","SECT":" ","MAREA":" ","LANE":"４９０巷","ALLEY":" ","HOUSE_NO":"２８號","E_COORD97":172234.23000000001,"N_COORD97":2546343.0899999999,"ADDRESS":"中山南路４９０巷２８號","OBJECTID":386403},"geometry":{"x":172234.23000000045,"y":2546343.0900000017}},{"attributes":{"ID":386428,"DIS_CODE":0,"TOWNNAME":"永康區","LI":"五王里","LIN":"37鄰","STREET":"中華路","SECT":" ","MAREA":" ","LANE":"５７８巷","ALLEY":" ","HOUSE_NO":"１５號之２７","E_COORD97":171276.03,"N_COORD97":2545965.79,"ADDRESS":"中華路５７８巷１５號之２７","OBJECTID":386404},"geometry":{"x":171276.03000000026,"y":2545965.7899999991}},{"attributes":{"ID":386429,"DIS_CODE":0,"TOWNNAME":"永康區","LI":"五王里","LIN":"37鄰","STREET":"中華路","SECT":" ","MAREA":" ","LANE":"５７８巷","ALLEY":" ","HOUSE_NO":"１５號之２０","E_COORD97":171276,"N_COORD97":2545965.79,"ADDRESS":"中華路５７８巷１５號之２０","OBJECTID":386405},"geometry":{"x":171276,"y":2545965.7899999991}},{"attributes":{"ID":386430,"DIS_CODE":0,"TOWNNAME":"永康區","LI":"五王里","LIN":"37鄰","STREET":"中華路","SECT":" ","MAREA":" ","LANE":"５７８巷","ALLEY":" ","HOUSE_NO":"１５號之１","E_COORD97":171274.70000000001,"N_COORD97":2545965.79,"ADDRESS":"中華路５７８巷１５號之１","OBJECTID":386406},"geometry":{"x":171274.70000000019,"y":2545965.7899999991}},{"attributes":{"ID":386431,"DIS_CODE":0,"TOWNNAME":"永康區","LI":"五王里","LIN":"37鄰","STREET":"中華路","SECT":" ","MAREA":" ","LANE":"５７８巷","ALLEY":" ","HOUSE_NO":"１５號之２５","E_COORD97":171276.10000000001,"N_COORD97":2545965.79,"ADDRESS":"中華路５７８巷１５號之２５","OBJECTID":386407},"geometry":{"x":171276.10000000056,"y":2545965.7899999991}},{"attributes":{"ID":386432,"DIS_CODE":0,"TOWNNAME":"永康區","LI":"五王里","LIN":"37鄰","STREET":"中華路","SECT":" ","MAREA":" ","LANE":"５７８巷","ALLEY":" ","HOUSE_NO":"１５號之７","E_COORD97":171274.78,"N_COORD97":2545965.79,"ADDRESS":"中華路５７８巷１５號之７","OBJECTID":386408},"geometry":{"x":171274.77999999933,"y":2545965.7899999991}},{"attributes":{"ID":386433,"DIS_CODE":0,"TOWNNAME":"永康區","LI":"五王里","LIN":"37鄰","STREET":"中華路","SECT":" ","MAREA":" ","LANE":"５７８巷","ALLEY":" ","HOUSE_NO":"１５號之２４","E_COORD97":171275.97,"N_COORD97":2545965.79,"ADDRESS":"中華路５７８巷１５號之２４","OBJECTID":386409},"geometry":{"x":171275.96999999974,"y":2545965.7899999991}},{"attributes":{"ID":386434,"DIS_CODE":0,"TOWNNAME":"永康區","LI":"五王里","LIN":"37鄰","STREET":"中華路","SECT":" ","MAREA":" ","LANE":"５７８巷","ALLEY":" ","HOUSE_NO":"１５號之３２","E_COORD97":171276.07999999999,"N_COORD97":2545965.79,"ADDRESS":"中華路５７８巷１５號之３２","OBJECTID":386410},"geometry":{"x":171276.08000000194,"y":2545965.7899999991}},{"attributes":{"ID":386435,"DIS_CODE":0,"TOWNNAME":"永康區","LI":"勝利里","LIN":"37鄰","STREET":"勝利街","SECT":" ","MAREA":" ","LANE":"１９７巷","ALLEY":" ","HOUSE_NO":"１５號","E_COORD97":171301.69,"N_COORD97":2545123,"ADDRESS":"勝利街１９７巷１５號","OBJECTID":386411},"geometry":{"x":171301.69000000134,"y":2545123.0000000037}},{"attributes":{"ID":386436,"DIS_CODE":0,"TOWNNAME":"永康區","LI":"崑山里","LIN":"37鄰","STREET":"國光三街","SECT":" ","MAREA":" ","LANE":"６２巷","ALLEY":" ","HOUSE_NO":"１號","E_COORD97":173958.82999999999,"N_COORD97":2545024.0099999998,"ADDRESS":"國光三街６２巷１號","OBJECTID":386412},"geometry":{"x":173958.83000000007,"y":2545024.0100000035}},{"attributes":{"ID":386437,"DIS_CODE":0,"TOWNNAME":"仁德區","LI":"成功里","LIN":"37鄰","STREET":"保華路","SECT":" ","MAREA":" ","LANE":"４６巷","ALLEY":" ","HOUSE_NO":"２８號","E_COORD97":170668.53,"N_COORD97":2540086.5,"ADDRESS":"保華路４６巷２８號","OBJECTID":386413},"geometry":{"x":170668.53000000119,"y":2540086.5}},{"attributes":{"ID":386438,"DIS_CODE":0,"TOWNNAME":"仁德區","LI":"成功里","LIN":"37鄰","STREET":"保華路","SECT":" ","MAREA":" ","LANE":"４６巷","ALLEY":" ","HOUSE_NO":"１８號","E_COORD97":170666.14000000001,"N_COORD97":2540057.2400000002,"ADDRESS":"保華路４６巷１８號","OBJECTID":386414},"geometry":{"x":170666.13999999966,"y":2540057.2400000021}},{"attributes":{"ID":386439,"DIS_CODE":0,"TOWNNAME":"仁德區","LI":"成功里","LIN":"37鄰","STREET":"保華路","SECT":" ","MAREA":" ","LANE":"４６巷","ALLEY":" ","HOUSE_NO":"１０號","E_COORD97":170665.70000000001,"N_COORD97":2540038.7400000002,"ADDRESS":"保華路４６巷１０號","OBJECTID":386415},"geometry":{"x":170665.70000000112,"y":2540038.7400000002}},{"attributes":{"ID":386440,"DIS_CODE":0,"TOWNNAME":"仁德區","LI":"太子里","LIN":"37鄰","STREET":"長興一街","SECT":" ","MAREA":" ","LANE":"４０巷","ALLEY":" ","HOUSE_NO":"３０號","E_COORD97":174494.67999999999,"N_COORD97":2543896.5,"ADDRESS":"長興一街４０巷３０號","OBJECTID":386416},"geometry":{"x":174494.68000000063,"y":2543896.5000000019}},{"attributes":{"ID":386441,"DIS_CODE":0,"TOWNNAME":"仁德區","LI":"後壁里","LIN":"37鄰","STREET":"德洋一街","SECT":" ","MAREA":" ","LANE":"５１巷","ALLEY":" ","HOUSE_NO":"１２號","E_COORD97":173106.57000000001,"N_COORD97":2539227.2599999998,"ADDRESS":"德洋一街５１巷１２號","OBJECTID":386417},"geometry":{"x":173106.5700000003,"y":2539227.2599999998}},{"attributes":{"ID":386442,"DIS_CODE":0,"TOWNNAME":"仁德區","LI":"後壁里","LIN":"37鄰","STREET":"德洋一街","SECT":" ","MAREA":" ","LANE":"８５巷","ALLEY":" ","HOUSE_NO":"９號","E_COORD97":173149.73000000001,"N_COORD97":2539280.52,"ADDRESS":"德洋一街８５巷９號","OBJECTID":386418},"geometry":{"x":173149.73000000045,"y":2539280.5200000033}},{"attributes":{"ID":386443,"DIS_CODE":0,"TOWNNAME":"永康區","LI":"五王里","LIN":"37鄰","STREET":"中華路","SECT":" ","MAREA":" ","LANE":"５７８巷","ALLEY":" ","HOUSE_NO":"１５號之３６","E_COORD97":171276.04999999999,"N_COORD97":2545965.79,"ADDRESS":"中華路５７８巷１５號之３６","OBJECTID":386419},"geometry":{"x":171276.05000000168,"y":2545965.7899999991}},{"attributes":{"ID":386444,"DIS_CODE":0,"TOWNNAME":"永康區","LI":"五王里","LIN":"37鄰","STREET":"中華路","SECT":" ","MAREA":" ","LANE":"５７８巷","ALLEY":" ","HOUSE_NO":"１５號之６１","E_COORD97":171275.95000000001,"N_COORD97":2545965.79,"ADDRESS":"中華路５７８巷１５號之６１","OBJECTID":386420},"geometry":{"x":171275.95000000112,"y":2545965.7899999991}},{"attributes":{"ID":386445,"DIS_CODE":0,"TOWNNAME":"永康區","LI":"五王里","LIN":"37鄰","STREET":"中華路","SECT":" ","MAREA":" ","LANE":"５７８巷","ALLEY":" ","HOUSE_NO":"１５號之３７","E_COORD97":171276.03,"N_COORD97":2545965.79,"ADDRESS":"中華路５７８巷１５號之３７","OBJECTID":386421},"geometry":{"x":171276.03000000026,"y":2545965.7899999991}},{"attributes":{"ID":386446,"DIS_CODE":0,"TOWNNAME":"永康區","LI":"五王里","LIN":"37鄰","STREET":"中華路","SECT":" ","MAREA":" ","LANE":"５７８巷","ALLEY":" ","HOUSE_NO":"１５號之２９","E_COORD97":171276.03,"N_COORD97":2545965.79,"ADDRESS":"中華路５７８巷１５號之２９","OBJECTID":386422},"geometry":{"x":171276.03000000026,"y":2545965.7899999991}},{"attributes":{"ID":386447,"DIS_CODE":0,"TOWNNAME":"永康區","LI":"五王里","LIN":"37鄰","STREET":"中華路","SECT":" ","MAREA":" ","LANE":"５７８巷","ALLEY":" ","HOUSE_NO":"１５號之８９","E_COORD97":171276.03,"N_COORD97":2545965.79,"ADDRESS":"中華路５７８巷１５號之８９","OBJECTID":386423},"geometry":{"x":171276.03000000026,"y":2545965.7899999991}},{"attributes":{"ID":386448,"DIS_CODE":0,"TOWNNAME":"永康區","LI":"五王里","LIN":"37鄰","STREET":"中華路","SECT":" ","MAREA":" ","LANE":"５７８巷","ALLEY":" ","HOUSE_NO":"１５號之９１","E_COORD97":171275.95000000001,"N_COORD97":2545965.79,"ADDRESS":"中華路５７８巷１５號之９１","OBJECTID":386424},"geometry":{"x":171275.95000000112,"y":2545965.7899999991}},{"attributes":{"ID":386449,"DIS_CODE":0,"TOWNNAME":"永康區","LI":"二王里","LIN":"37鄰","STREET":"中山南路","SECT":" ","MAREA":" ","LANE":"４９０巷","ALLEY":" ","HOUSE_NO":"１８號","E_COORD97":172210.82999999999,"N_COORD97":2546342.3399999999,"ADDRESS":"中山南路４９０巷１８號","OBJECTID":386425},"geometry":{"x":172210.83000000101,"y":2546342.3400000017}},{"attributes":{"ID":386450,"DIS_CODE":0,"TOWNNAME":"永康區","LI":"五王里","LIN":"37鄰","STREET":"中華路","SECT":" ","MAREA":" ","LANE":"５７８巷","ALLEY":" ","HOUSE_NO":"１５號之７６","E_COORD97":171276.04999999999,"N_COORD97":2545965.79,"ADDRESS":"中華路５７８巷１５號之７６","OBJECTID":386426},"geometry":{"x":171276.05000000168,"y":2545965.7899999991}},{"attributes":{"ID":386451,"DIS_CODE":0,"TOWNNAME":"永康區","LI":"五王里","LIN":"37鄰","STREET":"中華路","SECT":" ","MAREA":" ","LANE":"５７８巷","ALLEY":" ","HOUSE_NO":"１５號之３０","E_COORD97":171276,"N_COORD97":2545965.79,"ADDRESS":"中華路５７８巷１５號之３０","OBJECTID":386427},"geometry":{"x":171276,"y":2545965.7899999991}},{"attributes":{"ID":386452,"DIS_CODE":0,"TOWNNAME":"永康區","LI":"二王里","LIN":"37鄰","STREET":"中山南路","SECT":" ","MAREA":" ","LANE":"４９０巷","ALLEY":" ","HOUSE_NO":"３６號","E_COORD97":172249.37,"N_COORD97":2546344.0899999999,"ADDRESS":"中山南路４９０巷３６號","OBJECTID":386428},"geometry":{"x":172249.37000000104,"y":2546344.0900000017}},{"attributes":{"ID":386453,"DIS_CODE":0,"TOWNNAME":"永康區","LI":"崑山里","LIN":"37鄰","STREET":"國光五街","SECT":" ","MAREA":" ","LANE":"６３巷","ALLEY":" ","HOUSE_NO":"２之１號","E_COORD97":173990.57000000001,"N_COORD97":2545092.6299999999,"ADDRESS":"國光五街６３巷２之１號","OBJECTID":386429},"geometry":{"x":173990.57000000123,"y":2545092.629999999}},{"attributes":{"ID":386454,"DIS_CODE":0,"TOWNNAME":"仁德區","LI":"太子里","LIN":"37鄰","STREET":"長興一街","SECT":" ","MAREA":" ","LANE":"４０巷","ALLEY":" ","HOUSE_NO":"２４號","E_COORD97":174507.13,"N_COORD97":2543897,"ADDRESS":"長興一街４０巷２４號","OBJECTID":386430},"geometry":{"x":174507.13000000082,"y":2543897.0000000019}},{"attributes":{"ID":386455,"DIS_CODE":0,"TOWNNAME":"仁德區","LI":"太子里","LIN":"37鄰","STREET":"長興一街","SECT":" ","MAREA":" ","LANE":"４０巷","ALLEY":" ","HOUSE_NO":"１８號","E_COORD97":174537.06,"N_COORD97":2543896,"ADDRESS":"長興一街４０巷１８號","OBJECTID":386431},"geometry":{"x":174537.05999999959,"y":2543896.0000000019}},{"attributes":{"ID":386456,"DIS_CODE":0,"TOWNNAME":"仁德區","LI":"太子里","LIN":"37鄰","STREET":"長興一街","SECT":" ","MAREA":" ","LANE":"４０巷","ALLEY":" ","HOUSE_NO":"１２號","E_COORD97":174563.88,"N_COORD97":2543889.25,"ADDRESS":"長興一街４０巷１２號","OBJECTID":386432},"geometry":{"x":174563.87999999989,"y":2543889.25}},{"attributes":{"ID":386457,"DIS_CODE":0,"TOWNNAME":"仁德區","LI":"太子里","LIN":"37鄰","STREET":"長興一街","SECT":" ","MAREA":" ","LANE":"４０巷","ALLEY":" ","HOUSE_NO":"１０號","E_COORD97":174575.79000000001,"N_COORD97":2543891.75,"ADDRESS":"長興一街４０巷１０號","OBJECTID":386433},"geometry":{"x":174575.79000000097,"y":2543891.7500000019}},{"attributes":{"ID":386458,"DIS_CODE":0,"TOWNNAME":"永康區","LI":"\u25A0行里","LIN":"37鄰","STREET":"仁愛街","SECT":" ","MAREA":" ","LANE":"６６巷","ALLEY":" ","HOUSE_NO":"１號","E_COORD97":172044.42999999999,"N_COORD97":2549380.8599999999,"ADDRESS":"仁愛街６６巷１號","OBJECTID":386434},"geometry":{"x":172044.4299999997,"y":2549380.8599999994}},{"attributes":{"ID":386459,"DIS_CODE":0,"TOWNNAME":"永康區","LI":"\u25A0行里","LIN":"37鄰","STREET":"仁愛街","SECT":" ","MAREA":" ","LANE":"６６巷","ALLEY":" ","HOUSE_NO":"３號","E_COORD97":172049.48000000001,"N_COORD97":2549380.02,"ADDRESS":"仁愛街６６巷３號","OBJECTID":386435},"geometry":{"x":172049.48000000045,"y":2549380.0199999996}},{"attributes":{"ID":386460,"DIS_CODE":0,"TOWNNAME":"永康區","LI":"\u25A0行里","LIN":"37鄰","STREET":"仁愛街","SECT":" ","MAREA":" ","LANE":"６６巷","ALLEY":" ","HOUSE_NO":"５號","E_COORD97":172053.51000000001,"N_COORD97":2549378.2400000002,"ADDRESS":"仁愛街６６巷５號","OBJECTID":386436},"geometry":{"x":172053.50999999978,"y":2549378.2400000002}},{"attributes":{"ID":386461,"DIS_CODE":0,"TOWNNAME":"永康區","LI":"\u25A0行里","LIN":"37鄰","STREET":"仁愛街","SECT":" ","MAREA":" ","LANE":"６６巷","ALLEY":" ","HOUSE_NO":"７號","E_COORD97":172058.03,"N_COORD97":2549375.6899999999,"ADDRESS":"仁愛街６６巷７號","OBJECTID":386437},"geometry":{"x":172058.03000000212,"y":2549375.6900000032}},{"attributes":{"ID":386462,"DIS_CODE":0,"TOWNNAME":"永康區","LI":"\u25A0行里","LIN":"37鄰","STREET":"仁愛街","SECT":" ","MAREA":" ","LANE":"６６巷","ALLEY":" ","HOUSE_NO":"９號","E_COORD97":172063.79999999999,"N_COORD97":2549362.75,"ADDRESS":"仁愛街６６巷９號","OBJECTID":386438},"geometry":{"x":172063.79999999981,"y":2549362.7500000019}},{"attributes":{"ID":386463,"DIS_CODE":0,"TOWNNAME":"永康區","LI":"\u25A0行里","LIN":"37鄰","STREET":"三村一街","SECT":" ","MAREA":" ","LANE":"１３８巷","ALLEY":" ","HOUSE_NO":"３７號","E_COORD97":172066.39999999999,"N_COORD97":2549371.3500000001,"ADDRESS":"三村一街１３８巷３７號","OBJECTID":386439},"geometry":{"x":172066.4000000013,"y":2549371.3499999978}},{"attributes":{"ID":386464,"DIS_CODE":0,"TOWNNAME":"永康區","LI":"\u25A0行里","LIN":"37鄰","STREET":"三村一街","SECT":" ","MAREA":" ","LANE":"１３８巷","ALLEY":" ","HOUSE_NO":"３９號","E_COORD97":172069.04999999999,"N_COORD97":2549377.6800000002,"ADDRESS":"三村一街１３８巷３９號","OBJECTID":386440},"geometry":{"x":172069.04999999981,"y":2549377.6800000016}},{"attributes":{"ID":386465,"DIS_CODE":0,"TOWNNAME":"永康區","LI":"龍潭里","LIN":"26鄰","STREET":"龍昌街","SECT":" ","MAREA":" ","LANE":"６６巷","ALLEY":" ","HOUSE_NO":"４６號","E_COORD97":175124.04000000001,"N_COORD97":2547906.1600000001,"ADDRESS":"龍昌街６６巷４６號","OBJECTID":386441},"geometry":{"x":175124.04000000004,"y":2547906.160000002}},{"attributes":{"ID":386466,"DIS_CODE":0,"TOWNNAME":"永康區","LI":"龍潭里","LIN":"33鄰","STREET":"龍國街","SECT":" ","MAREA":" ","LANE":"３２０巷","ALLEY":" ","HOUSE_NO":"３８號","E_COORD97":174613.14999999999,"N_COORD97":2547938.3799999999,"ADDRESS":"龍國街３２０巷３８號","OBJECTID":386442},"geometry":{"x":174613.15000000037,"y":2547938.379999999}},{"attributes":{"ID":386467,"DIS_CODE":0,"TOWNNAME":"永康區","LI":"龍潭里","LIN":"44鄰","STREET":"永平街","SECT":" ","MAREA":" ","LANE":"２９８巷","ALLEY":" ","HOUSE_NO":"１之１１號","E_COORD97":174661.01000000001,"N_COORD97":2547103.79,"ADDRESS":"永平街２９８巷１之１１號","OBJECTID":386443},"geometry":{"x":174661.00999999978,"y":2547103.790000001}},{"attributes":{"ID":386468,"DIS_CODE":0,"TOWNNAME":"北區","LI":"成德里","LIN":"37鄰","STREET":"文成五街","SECT":" ","MAREA":" ","LANE":"２８０巷","ALLEY":" ","HOUSE_NO":"１８號","E_COORD97":168097.07000000001,"N_COORD97":2546521.9900000002,"ADDRESS":"文成五街２８０巷１８號","OBJECTID":386444},"geometry":{"x":168097.0700000003,"y":2546521.9900000002}},{"attributes":{"ID":386469,"DIS_CODE":0,"TOWNNAME":"北區","LI":"成德里","LIN":"37鄰","STREET":"文成五街","SECT":" ","MAREA":" ","LANE":"２８０巷","ALLEY":" ","HOUSE_NO":"１９號","E_COORD97":168082.07999999999,"N_COORD97":2546537.1000000001,"ADDRESS":"文成五街２８０巷１９號","OBJECTID":386445},"geometry":{"x":168082.08000000007,"y":2546537.1000000015}},{"attributes":{"ID":386470,"DIS_CODE":0,"TOWNNAME":"北區","LI":"成德里","LIN":"37鄰","STREET":"文成五街","SECT":" ","MAREA":" ","LANE":"２８０巷","ALLEY":" ","HOUSE_NO":"２０號","E_COORD97":168096.44,"N_COORD97":2546527.1899999999,"ADDRESS":"文成五街２８０巷２０號","OBJECTID":386446},"geometry":{"x":168096.44000000041,"y":2546527.1899999995}},{"attributes":{"ID":386471,"DIS_CODE":0,"TOWNNAME":"北區","LI":"成德里","LIN":"37鄰","STREET":"文成五街","SECT":" ","MAREA":" ","LANE":"２８０巷","ALLEY":" ","HOUSE_NO":"２２號","E_COORD97":168096.06,"N_COORD97":2546532.7799999998,"ADDRESS":"文成五街２８０巷２２號","OBJECTID":386447},"geometry":{"x":168096.06000000052,"y":2546532.7799999993}},{"attributes":{"ID":386472,"DIS_CODE":0,"TOWNNAME":"北區","LI":"成德里","LIN":"37鄰","STREET":"文成五街","SECT":" ","MAREA":" ","LANE":"２８０巷","ALLEY":" ","HOUSE_NO":"２６號","E_COORD97":168095.54999999999,"N_COORD97":2546538.1200000001,"ADDRESS":"文成五街２８０巷２６號","OBJECTID":386448},"geometry":{"x":168095.54999999981,"y":2546538.1200000029}},{"attributes":{"ID":386473,"DIS_CODE":0,"TOWNNAME":"北區","LI":"成德里","LIN":"37鄰","STREET":"文成五街","SECT":" ","MAREA":" ","LANE":"２９０巷","ALLEY":" ","HOUSE_NO":"１號","E_COORD97":168058.59,"N_COORD97":2546479.5,"ADDRESS":"文成五街２９０巷１號","OBJECTID":386449},"geometry":{"x":168058.59000000078,"y":2546479.5000000019}},{"attributes":{"ID":386474,"DIS_CODE":0,"TOWNNAME":"北區","LI":"成德里","LIN":"37鄰","STREET":"文成五街","SECT":" ","MAREA":" ","LANE":"２９０巷","ALLEY":" ","HOUSE_NO":"２號","E_COORD97":168067.10000000001,"N_COORD97":2546479.6299999999,"ADDRESS":"文成五街２９０巷２號","OBJECTID":386450},"geometry":{"x":168067.10000000056,"y":2546479.629999999}},{"attributes":{"ID":386475,"DIS_CODE":0,"TOWNNAME":"北區","LI":"成德里","LIN":"37鄰","STREET":"文成五街","SECT":" ","MAREA":" ","LANE":"２９０巷","ALLEY":" ","HOUSE_NO":"３號","E_COORD97":168058.07999999999,"N_COORD97":2546485.73,"ADDRESS":"文成五街２９０巷３號","OBJECTID":386451},"geometry":{"x":168058.08000000007,"y":2546485.7300000023}},{"attributes":{"ID":386476,"DIS_CODE":0,"TOWNNAME":"北區","LI":"成德里","LIN":"37鄰","STREET":"文成五街","SECT":" ","MAREA":" ","LANE":"２９０巷","ALLEY":" ","HOUSE_NO":"５號","E_COORD97":168057.57000000001,"N_COORD97":2546492.2000000002,"ADDRESS":"文成五街２９０巷５號","OBJECTID":386452},"geometry":{"x":168057.57000000123,"y":2546492.1999999993}},{"attributes":{"ID":386477,"DIS_CODE":0,"TOWNNAME":"北區","LI":"成德里","LIN":"37鄰","STREET":"文成五街","SECT":" ","MAREA":" ","LANE":"２９０巷","ALLEY":" ","HOUSE_NO":"６號","E_COORD97":168066.59,"N_COORD97":2546486.2400000002,"ADDRESS":"文成五街２９０巷６號","OBJECTID":386453},"geometry":{"x":168066.58999999985,"y":2546486.2400000002}},{"attributes":{"ID":386478,"DIS_CODE":0,"TOWNNAME":"北區","LI":"成德里","LIN":"37鄰","STREET":"文成五街","SECT":" ","MAREA":" ","LANE":"２９０巷","ALLEY":" ","HOUSE_NO":"７號","E_COORD97":168056.94,"N_COORD97":2546499.3199999998,"ADDRESS":"文成五街２９０巷７號","OBJECTID":386454},"geometry":{"x":168056.94000000134,"y":2546499.3200000003}},{"attributes":{"ID":386479,"DIS_CODE":0,"TOWNNAME":"北區","LI":"成德里","LIN":"37鄰","STREET":"文成五街","SECT":" ","MAREA":" ","LANE":"２９０巷","ALLEY":" ","HOUSE_NO":"８號","E_COORD97":168065.95999999999,"N_COORD97":2546493.0899999999,"ADDRESS":"文成五街２９０巷８號","OBJECTID":386455},"geometry":{"x":168065.95999999903,"y":2546493.0900000017}},{"attributes":{"ID":386480,"DIS_CODE":0,"TOWNNAME":"東區","LI":"忠孝里","LIN":"37鄰","STREET":"榮譽街","SECT":" ","MAREA":" ","LANE":"１３０巷","ALLEY":" ","HOUSE_NO":"５號七樓","E_COORD97":169916.35999999999,"N_COORD97":2541739.6800000002,"ADDRESS":"榮譽街１３０巷５號七樓","OBJECTID":386456},"geometry":{"x":169916.36000000034,"y":2541739.6799999997}},{"attributes":{"ID":386481,"DIS_CODE":0,"TOWNNAME":"東區","LI":"忠孝里","LIN":"37鄰","STREET":"榮譽街","SECT":" ","MAREA":" ","LANE":"１３０巷","ALLEY":" ","HOUSE_NO":"５號七樓之１","E_COORD97":169916.35999999999,"N_COORD97":2541739.6800000002,"ADDRESS":"榮譽街１３０巷５號七樓之１","OBJECTID":386457},"geometry":{"x":169916.36000000034,"y":2541739.6799999997}},{"attributes":{"ID":386482,"DIS_CODE":0,"TOWNNAME":"永康區","LI":"龍潭里","LIN":"26鄰","STREET":"龍昌街","SECT":" ","MAREA":" ","LANE":"６６巷","ALLEY":" ","HOUSE_NO":"３６號","E_COORD97":175107.95000000001,"N_COORD97":2547904.6899999999,"ADDRESS":"龍昌街６６巷３６號","OBJECTID":386458},"geometry":{"x":175107.95000000019,"y":2547904.6900000013}},{"attributes":{"ID":386483,"DIS_CODE":0,"TOWNNAME":"東區","LI":"忠孝里","LIN":"37鄰","STREET":"榮譽街","SECT":" ","MAREA":" ","LANE":"１３０巷","ALLEY":" ","HOUSE_NO":"５號二樓","E_COORD97":169916.35999999999,"N_COORD97":2541739.6800000002,"ADDRESS":"榮譽街１３０巷５號二樓","OBJECTID":386459},"geometry":{"x":169916.36000000034,"y":2541739.6799999997}},{"attributes":{"ID":386484,"DIS_CODE":0,"TOWNNAME":"東區","LI":"忠孝里","LIN":"37鄰","STREET":"榮譽街","SECT":" ","MAREA":" ","LANE":"１３０巷","ALLEY":" ","HOUSE_NO":"５號二樓之１","E_COORD97":169916.35999999999,"N_COORD97":2541739.6800000002,"ADDRESS":"榮譽街１３０巷５號二樓之１","OBJECTID":386460},"geometry":{"x":169916.36000000034,"y":2541739.6799999997}},{"attributes":{"ID":386485,"DIS_CODE":0,"TOWNNAME":"東區","LI":"忠孝里","LIN":"37鄰","STREET":"榮譽街","SECT":" ","MAREA":" ","LANE":"１３０巷","ALLEY":" ","HOUSE_NO":"５號三樓","E_COORD97":169916.35999999999,"N_COORD97":2541739.6800000002,"ADDRESS":"榮譽街１３０巷５號三樓","OBJECTID":386461},"geometry":{"x":169916.36000000034,"y":2541739.6799999997}},{"attributes":{"ID":386486,"DIS_CODE":0,"TOWNNAME":"東區","LI":"忠孝里","LIN":"37鄰","STREET":"榮譽街","SECT":" ","MAREA":" ","LANE":"１３０巷","ALLEY":" ","HOUSE_NO":"５號三樓之１","E_COORD97":169916.35999999999,"N_COORD97":2541739.6800000002,"ADDRESS":"榮譽街１３０巷５號三樓之１","OBJECTID":386462},"geometry":{"x":169916.36000000034,"y":2541739.6799999997}},{"attributes":{"ID":386487,"DIS_CODE":0,"TOWNNAME":"東區","LI":"忠孝里","LIN":"37鄰","STREET":"榮譽街","SECT":" ","MAREA":" ","LANE":"１３０巷","ALLEY":" ","HOUSE_NO":"５號五樓","E_COORD97":169916.35999999999,"N_COORD97":2541739.6800000002,"ADDRESS":"榮譽街１３０巷５號五樓","OBJECTID":386463},"geometry":{"x":169916.36000000034,"y":2541739.6799999997}},{"attributes":{"ID":386488,"DIS_CODE":0,"TOWNNAME":"東區","LI":"忠孝里","LIN":"37鄰","STREET":"榮譽街","SECT":" ","MAREA":" ","LANE":"１３０巷","ALLEY":" ","HOUSE_NO":"５號五樓之１","E_COORD97":169916.35999999999,"N_COORD97":2541739.6800000002,"ADDRESS":"榮譽街１３０巷５號五樓之１","OBJECTID":386464},"geometry":{"x":169916.36000000034,"y":2541739.6799999997}},{"attributes":{"ID":386489,"DIS_CODE":0,"TOWNNAME":"東區","LI":"忠孝里","LIN":"37鄰","STREET":"榮譽街","SECT":" ","MAREA":" ","LANE":"１３０巷","ALLEY":" ","HOUSE_NO":"５號六樓","E_COORD97":169916.35999999999,"N_COORD97":2541739.6800000002,"ADDRESS":"榮譽街１３０巷５號六樓","OBJECTID":386465},"geometry":{"x":169916.36000000034,"y":2541739.6799999997}},{"attributes":{"ID":386490,"DIS_CODE":0,"TOWNNAME":"東區","LI":"忠孝里","LIN":"37鄰","STREET":"榮譽街","SECT":" ","MAREA":" ","LANE":"１３０巷","ALLEY":" ","HOUSE_NO":"５號六樓之１","E_COORD97":169916.35999999999,"N_COORD97":2541739.6800000002,"ADDRESS":"榮譽街１３０巷５號六樓之１","OBJECTID":386466},"geometry":{"x":169916.36000000034,"y":2541739.6799999997}},{"attributes":{"ID":386491,"DIS_CODE":0,"TOWNNAME":"東區","LI":"忠孝里","LIN":"37鄰","STREET":"榮譽街","SECT":" ","MAREA":" ","LANE":"１３０巷","ALLEY":" ","HOUSE_NO":"５號四樓","E_COORD97":169916.35999999999,"N_COORD97":2541739.6800000002,"ADDRESS":"榮譽街１３０巷５號四樓","OBJECTID":386467},"geometry":{"x":169916.36000000034,"y":2541739.6799999997}},{"attributes":{"ID":386492,"DIS_CODE":0,"TOWNNAME":"東區","LI":"忠孝里","LIN":"37鄰","STREET":"榮譽街","SECT":" ","MAREA":" ","LANE":"１３０巷","ALLEY":" ","HOUSE_NO":"５號四樓之１","E_COORD97":169916.35999999999,"N_COORD97":2541739.6800000002,"ADDRESS":"榮譽街１３０巷５號四樓之１","OBJECTID":386468},"geometry":{"x":169916.36000000034,"y":2541739.6799999997}},{"attributes":{"ID":386493,"DIS_CODE":0,"TOWNNAME":"東區","LI":"忠孝里","LIN":"37鄰","STREET":"榮譽街","SECT":" ","MAREA":" ","LANE":"１３０巷","ALLEY":" ","HOUSE_NO":"７號七樓","E_COORD97":169920.20000000001,"N_COORD97":2541735.2400000002,"ADDRESS":"榮譽街１３０巷７號七樓","OBJECTID":386469},"geometry":{"x":169920.20000000019,"y":2541735.2400000021}},{"attributes":{"ID":386494,"DIS_CODE":0,"TOWNNAME":"東區","LI":"忠孝里","LIN":"37鄰","STREET":"榮譽街","SECT":" ","MAREA":" ","LANE":"１３０巷","ALLEY":" ","HOUSE_NO":"７號七樓之１","E_COORD97":169920.20000000001,"N_COORD97":2541735.2400000002,"ADDRESS":"榮譽街１３０巷７號七樓之１","OBJECTID":386470},"geometry":{"x":169920.20000000019,"y":2541735.2400000021}},{"attributes":{"ID":386495,"DIS_CODE":0,"TOWNNAME":"東區","LI":"忠孝里","LIN":"37鄰","STREET":"榮譽街","SECT":" ","MAREA":" ","LANE":"１３０巷","ALLEY":" ","HOUSE_NO":"７號二樓","E_COORD97":169920.20000000001,"N_COORD97":2541735.2400000002,"ADDRESS":"榮譽街１３０巷７號二樓","OBJECTID":386471},"geometry":{"x":169920.20000000019,"y":2541735.2400000021}},{"attributes":{"ID":386496,"DIS_CODE":0,"TOWNNAME":"東區","LI":"忠孝里","LIN":"37鄰","STREET":"榮譽街","SECT":" ","MAREA":" ","LANE":"１３０巷","ALLEY":" ","HOUSE_NO":"７號二樓之１","E_COORD97":169920.20000000001,"N_COORD97":2541735.2400000002,"ADDRESS":"榮譽街１３０巷７號二樓之１","OBJECTID":386472},"geometry":{"x":169920.20000000019,"y":2541735.2400000021}},{"attributes":{"ID":386497,"DIS_CODE":0,"TOWNNAME":"東區","LI":"忠孝里","LIN":"37鄰","STREET":"榮譽街","SECT":" ","MAREA":" ","LANE":"１３０巷","ALLEY":" ","HOUSE_NO":"７號三樓","E_COORD97":169920.20000000001,"N_COORD97":2541735.2400000002,"ADDRESS":"榮譽街１３０巷７號三樓","OBJECTID":386473},"geometry":{"x":169920.20000000019,"y":2541735.2400000021}},{"attributes":{"ID":386498,"DIS_CODE":0,"TOWNNAME":"東區","LI":"忠孝里","LIN":"37鄰","STREET":"榮譽街","SECT":" ","MAREA":" ","LANE":"１３０巷","ALLEY":" ","HOUSE_NO":"７號三樓之１","E_COORD97":169920.20000000001,"N_COORD97":2541735.2400000002,"ADDRESS":"榮譽街１３０巷７號三樓之１","OBJECTID":386474},"geometry":{"x":169920.20000000019,"y":2541735.2400000021}},{"attributes":{"ID":386499,"DIS_CODE":0,"TOWNNAME":"東區","LI":"忠孝里","LIN":"37鄰","STREET":"榮譽街","SECT":" ","MAREA":" ","LANE":"１３０巷","ALLEY":" ","HOUSE_NO":"７號三樓之２","E_COORD97":169920.20000000001,"N_COORD97":2541735.2400000002,"ADDRESS":"榮譽街１３０巷７號三樓之２","OBJECTID":386475},"geometry":{"x":169920.20000000019,"y":2541735.2400000021}},{"attributes":{"ID":386500,"DIS_CODE":0,"TOWNNAME":"東區","LI":"忠孝里","LIN":"37鄰","STREET":"榮譽街","SECT":" ","MAREA":" ","LANE":"１３０巷","ALLEY":" ","HOUSE_NO":"７號五樓","E_COORD97":169920.20000000001,"N_COORD97":2541735.2400000002,"ADDRESS":"榮譽街１３０巷７號五樓","OBJECTID":386476},"geometry":{"x":169920.20000000019,"y":2541735.2400000021}},{"attributes":{"ID":386501,"DIS_CODE":0,"TOWNNAME":"東區","LI":"忠孝里","LIN":"37鄰","STREET":"榮譽街","SECT":" ","MAREA":" ","LANE":"１３０巷","ALLEY":" ","HOUSE_NO":"７號五樓之１","E_COORD97":169920.20000000001,"N_COORD97":2541735.2400000002,"ADDRESS":"榮譽街１３０巷７號五樓之１","OBJECTID":386477},"geometry":{"x":169920.20000000019,"y":2541735.2400000021}},{"attributes":{"ID":386502,"DIS_CODE":0,"TOWNNAME":"東區","LI":"忠孝里","LIN":"37鄰","STREET":"榮譽街","SECT":" ","MAREA":" ","LANE":"１３０巷","ALLEY":" ","HOUSE_NO":"７號六樓","E_COORD97":169920.20000000001,"N_COORD97":2541735.2400000002,"ADDRESS":"榮譽街１３０巷７號六樓","OBJECTID":386478},"geometry":{"x":169920.20000000019,"y":2541735.2400000021}},{"attributes":{"ID":386503,"DIS_CODE":0,"TOWNNAME":"東區","LI":"忠孝里","LIN":"37鄰","STREET":"榮譽街","SECT":" ","MAREA":" ","LANE":"１３０巷","ALLEY":" ","HOUSE_NO":"７號六樓之１","E_COORD97":169920.20000000001,"N_COORD97":2541735.2400000002,"ADDRESS":"榮譽街１３０巷７號六樓之１","OBJECTID":386479},"geometry":{"x":169920.20000000019,"y":2541735.2400000021}},{"attributes":{"ID":386504,"DIS_CODE":0,"TOWNNAME":"東區","LI":"忠孝里","LIN":"37鄰","STREET":"榮譽街","SECT":" ","MAREA":" ","LANE":"１３０巷","ALLEY":" ","HOUSE_NO":"７號四樓","E_COORD97":169920.20000000001,"N_COORD97":2541735.2400000002,"ADDRESS":"榮譽街１３０巷７號四樓","OBJECTID":386480},"geometry":{"x":169920.20000000019,"y":2541735.2400000021}},{"attributes":{"ID":386505,"DIS_CODE":0,"TOWNNAME":"永康區","LI":"\u25A0行里","LIN":"45鄰","STREET":"中正南路","SECT":" ","MAREA":" ","LANE":"７２６巷","ALLEY":" ","HOUSE_NO":"９號","E_COORD97":171784.32999999999,"N_COORD97":2548876.23,"ADDRESS":"中正南路７２６巷９號","OBJECTID":386481},"geometry":{"x":171784.33000000007,"y":2548876.2300000023}},{"attributes":{"ID":386506,"DIS_CODE":0,"TOWNNAME":"永康區","LI":"蔦松里","LIN":"1鄰","STREET":"蔦松二街","SECT":" ","MAREA":" ","LANE":"８７巷","ALLEY":" ","HOUSE_NO":"１９號","E_COORD97":173662.76999999999,"N_COORD97":2549278.9900000002,"ADDRESS":"蔦松二街８７巷１９號","OBJECTID":386482},"geometry":{"x":173662.77000000142,"y":2549278.9900000002}},{"attributes":{"ID":386507,"DIS_CODE":0,"TOWNNAME":"永康區","LI":"龍潭里","LIN":"33鄰","STREET":"龍國街","SECT":" ","MAREA":" ","LANE":"３２０巷","ALLEY":" ","HOUSE_NO":"１０號","E_COORD97":174619.97,"N_COORD97":2547996.9500000002,"ADDRESS":"龍國街３２０巷１０號","OBJECTID":386483},"geometry":{"x":174619.97000000067,"y":2547996.9499999993}},{"attributes":{"ID":386508,"DIS_CODE":0,"TOWNNAME":"東區","LI":"忠孝里","LIN":"37鄰","STREET":"榮譽街","SECT":" ","MAREA":" ","LANE":"１３０巷","ALLEY":" ","HOUSE_NO":"７號四樓之１","E_COORD97":169920.20000000001,"N_COORD97":2541735.2400000002,"ADDRESS":"榮譽街１３０巷７號四樓之１","OBJECTID":386484},"geometry":{"x":169920.20000000019,"y":2541735.2400000021}},{"attributes":{"ID":386509,"DIS_CODE":0,"TOWNNAME":"東區","LI":"忠孝里","LIN":"37鄰","STREET":"榮譽街","SECT":" ","MAREA":" ","LANE":"１３０巷","ALLEY":" ","HOUSE_NO":"７號四樓之２","E_COORD97":169920.20000000001,"N_COORD97":2541735.2400000002,"ADDRESS":"榮譽街１３０巷７號四樓之２","OBJECTID":386485},"geometry":{"x":169920.20000000019,"y":2541735.2400000021}},{"attributes":{"ID":386510,"DIS_CODE":0,"TOWNNAME":"永康區","LI":"北灣里","LIN":"37鄰","STREET":"大同街","SECT":" ","MAREA":" ","LANE":"３８０巷","ALLEY":" ","HOUSE_NO":"１０號三樓之１","E_COORD97":174757.97,"N_COORD97":2546081,"ADDRESS":"大同街３８０巷１０號三樓之１","OBJECTID":386486},"geometry":{"x":174757.96999999974,"y":2546081}},{"attributes":{"ID":386511,"DIS_CODE":0,"TOWNNAME":"永康區","LI":"網寮里","LIN":"12鄰","STREET":"永二街","SECT":" ","MAREA":" ","LANE":"２４４巷","ALLEY":" ","HOUSE_NO":"４３號","E_COORD97":173265.73999999999,"N_COORD97":2546561.46,"ADDRESS":"永二街２４４巷４３號","OBJECTID":386487},"geometry":{"x":173265.74000000115,"y":2546561.4600000046}},{"attributes":{"ID":386512,"DIS_CODE":0,"TOWNNAME":"永康區","LI":"北灣里","LIN":"37鄰","STREET":"大同街","SECT":" ","MAREA":" ","LANE":"３８０巷","ALLEY":" ","HOUSE_NO":"１０號三樓之３","E_COORD97":174758.07000000001,"N_COORD97":2546081,"ADDRESS":"大同街３８０巷１０號三樓之３","OBJECTID":386488},"geometry":{"x":174758.0700000003,"y":2546081}},{"attributes":{"ID":386513,"DIS_CODE":0,"TOWNNAME":"永康區","LI":"北灣里","LIN":"37鄰","STREET":"大同街","SECT":" ","MAREA":" ","LANE":"３８０巷","ALLEY":" ","HOUSE_NO":"１０號八樓之１","E_COORD97":174757.97,"N_COORD97":2546081,"ADDRESS":"大同街３８０巷１０號八樓之１","OBJECTID":386489},"geometry":{"x":174757.96999999974,"y":2546081}},{"attributes":{"ID":386514,"DIS_CODE":0,"TOWNNAME":"永康區","LI":"北灣里","LIN":"37鄰","STREET":"大同街","SECT":" ","MAREA":" ","LANE":"３８０巷","ALLEY":" ","HOUSE_NO":"１０號九樓之３","E_COORD97":174758.07000000001,"N_COORD97":2546081,"ADDRESS":"大同街３８０巷１０號九樓之３","OBJECTID":386490},"geometry":{"x":174758.0700000003,"y":2546081}},{"attributes":{"ID":386515,"DIS_CODE":0,"TOWNNAME":"永康區","LI":"北灣里","LIN":"37鄰","STREET":"大同街","SECT":" ","MAREA":" ","LANE":"３８０巷","ALLEY":" ","HOUSE_NO":"８號三樓之２","E_COORD97":174772.20000000001,"N_COORD97":2546080.75,"ADDRESS":"大同街３８０巷８號三樓之２","OBJECTID":386491},"geometry":{"x":174772.20000000019,"y":2546080.7500000037}},{"attributes":{"ID":386516,"DIS_CODE":0,"TOWNNAME":"永康區","LI":"北灣里","LIN":"37鄰","STREET":"大同街","SECT":" ","MAREA":" ","LANE":"３８０巷","ALLEY":" ","HOUSE_NO":"８號七樓之２","E_COORD97":174772.20000000001,"N_COORD97":2546080.75,"ADDRESS":"大同街３８０巷８號七樓之２","OBJECTID":386492},"geometry":{"x":174772.20000000019,"y":2546080.7500000037}},{"attributes":{"ID":386517,"DIS_CODE":0,"TOWNNAME":"永康區","LI":"北灣里","LIN":"37鄰","STREET":"大同街","SECT":" ","MAREA":" ","LANE":"３８０巷","ALLEY":" ","HOUSE_NO":"１０號七樓之３","E_COORD97":174758.07000000001,"N_COORD97":2546081,"ADDRESS":"大同街３８０巷１０號七樓之３","OBJECTID":386493},"geometry":{"x":174758.0700000003,"y":2546081}},{"attributes":{"ID":386518,"DIS_CODE":0,"TOWNNAME":"永康區","LI":"北灣里","LIN":"37鄰","STREET":"大同街","SECT":" ","MAREA":" ","LANE":"３８０巷","ALLEY":" ","HOUSE_NO":"１０號五樓之３","E_COORD97":174758.07000000001,"N_COORD97":2546081,"ADDRESS":"大同街３８０巷１０號五樓之３","OBJECTID":386494},"geometry":{"x":174758.0700000003,"y":2546081}},{"attributes":{"ID":386519,"DIS_CODE":0,"TOWNNAME":"永康區","LI":"新樹里","LIN":"1鄰","STREET":"富強路","SECT":"二段","MAREA":" ","LANE":"２９８巷","ALLEY":" ","HOUSE_NO":"２４號","E_COORD97":175695.28,"N_COORD97":2547473.3599999999,"ADDRESS":"富強路二段２９８巷２４號","OBJECTID":386495},"geometry":{"x":175695.28000000026,"y":2547473.3600000013}},{"attributes":{"ID":386520,"DIS_CODE":0,"TOWNNAME":"永康區","LI":"北灣里","LIN":"37鄰","STREET":"大同街","SECT":" ","MAREA":" ","LANE":"３８０巷","ALLEY":" ","HOUSE_NO":"１０號三樓之２","E_COORD97":174758.10999999999,"N_COORD97":2546081,"ADDRESS":"大同街３８０巷１０號三樓之２","OBJECTID":386496},"geometry":{"x":174758.1100000022,"y":2546081}},{"attributes":{"ID":386521,"DIS_CODE":0,"TOWNNAME":"永康區","LI":"北灣里","LIN":"37鄰","STREET":"大同街","SECT":" ","MAREA":" ","LANE":"３８０巷","ALLEY":" ","HOUSE_NO":"１０號八樓之３","E_COORD97":174758.07000000001,"N_COORD97":2546081,"ADDRESS":"大同街３８０巷１０號八樓之３","OBJECTID":386497},"geometry":{"x":174758.0700000003,"y":2546081}},{"attributes":{"ID":386522,"DIS_CODE":0,"TOWNNAME":"永康區","LI":"北灣里","LIN":"37鄰","STREET":"大同街","SECT":" ","MAREA":" ","LANE":"３１５巷","ALLEY":" ","HOUSE_NO":"８號四樓之１","E_COORD97":174723.94,"N_COORD97":2546025.2200000002,"ADDRESS":"大同街３１５巷８號四樓之１","OBJECTID":386498},"geometry":{"x":174723.94000000134,"y":2546025.2200000025}},{"attributes":{"ID":386523,"DIS_CODE":0,"TOWNNAME":"永康區","LI":"北灣里","LIN":"37鄰","STREET":"大同街","SECT":" ","MAREA":" ","LANE":"３１５巷","ALLEY":" ","HOUSE_NO":"８號五樓之２","E_COORD97":174724.07999999999,"N_COORD97":2546025.2200000002,"ADDRESS":"大同街３１５巷８號五樓之２","OBJECTID":386499},"geometry":{"x":174724.08000000194,"y":2546025.2200000025}},{"attributes":{"ID":386524,"DIS_CODE":0,"TOWNNAME":"永康區","LI":"北灣里","LIN":"37鄰","STREET":"大同街","SECT":" ","MAREA":" ","LANE":"３１５巷","ALLEY":" ","HOUSE_NO":"８號三樓之２","E_COORD97":174724.07999999999,"N_COORD97":2546025.2200000002,"ADDRESS":"大同街３１５巷８號三樓之２","OBJECTID":386500},"geometry":{"x":174724.08000000194,"y":2546025.2200000025}},{"attributes":{"ID":386525,"DIS_CODE":0,"TOWNNAME":"永康區","LI":"北灣里","LIN":"37鄰","STREET":"大同街","SECT":" ","MAREA":" ","LANE":"３８０巷","ALLEY":" ","HOUSE_NO":"８號八樓之２","E_COORD97":174772.20000000001,"N_COORD97":2546080.75,"ADDRESS":"大同街３８０巷８號八樓之２","OBJECTID":386501},"geometry":{"x":174772.20000000019,"y":2546080.7500000037}},{"attributes":{"ID":386526,"DIS_CODE":0,"TOWNNAME":"永康區","LI":"北灣里","LIN":"37鄰","STREET":"大同街","SECT":" ","MAREA":" ","LANE":"３１５巷","ALLEY":" ","HOUSE_NO":"１０號七樓之２","E_COORD97":174714.73000000001,"N_COORD97":2546024.02,"ADDRESS":"大同街３１５巷１０號七樓之２","OBJECTID":386502},"geometry":{"x":174714.73000000045,"y":2546024.0200000033}},{"attributes":{"ID":386527,"DIS_CODE":0,"TOWNNAME":"永康區","LI":"北灣里","LIN":"37鄰","STREET":"大同街","SECT":" ","MAREA":" ","LANE":"３８０巷","ALLEY":" ","HOUSE_NO":"１０號六樓之３","E_COORD97":174758.07000000001,"N_COORD97":2546081,"ADDRESS":"大同街３８０巷１０號六樓之３","OBJECTID":386503},"geometry":{"x":174758.0700000003,"y":2546081}},{"attributes":{"ID":386528,"DIS_CODE":0,"TOWNNAME":"永康區","LI":"北灣里","LIN":"37鄰","STREET":"大同街","SECT":" ","MAREA":" ","LANE":"３８０巷","ALLEY":" ","HOUSE_NO":"１０號七樓之２","E_COORD97":174758.10999999999,"N_COORD97":2546081,"ADDRESS":"大同街３８０巷１０號七樓之２","OBJECTID":386504},"geometry":{"x":174758.1100000022,"y":2546081}},{"attributes":{"ID":386529,"DIS_CODE":0,"TOWNNAME":"永康區","LI":"北灣里","LIN":"37鄰","STREET":"大同街","SECT":" ","MAREA":" ","LANE":"３１５巷","ALLEY":" ","HOUSE_NO":"８號六樓之２","E_COORD97":174724.07999999999,"N_COORD97":2546025.2200000002,"ADDRESS":"大同街３１５巷８號六樓之２","OBJECTID":386505},"geometry":{"x":174724.08000000194,"y":2546025.2200000025}},{"attributes":{"ID":386530,"DIS_CODE":0,"TOWNNAME":"永康區","LI":"北灣里","LIN":"37鄰","STREET":"大同街","SECT":" ","MAREA":" ","LANE":"３８０巷","ALLEY":" ","HOUSE_NO":"１０號四樓之２","E_COORD97":174758.10999999999,"N_COORD97":2546081,"ADDRESS":"大同街３８０巷１０號四樓之２","OBJECTID":386506},"geometry":{"x":174758.1100000022,"y":2546081}},{"attributes":{"ID":386531,"DIS_CODE":0,"TOWNNAME":"永康區","LI":"北灣里","LIN":"37鄰","STREET":"大同街","SECT":" ","MAREA":" ","LANE":"３１５巷","ALLEY":" ","HOUSE_NO":"８號八樓之１","E_COORD97":174723.94,"N_COORD97":2546025.2200000002,"ADDRESS":"大同街３１５巷８號八樓之１","OBJECTID":386507},"geometry":{"x":174723.94000000134,"y":2546025.2200000025}},{"attributes":{"ID":386532,"DIS_CODE":0,"TOWNNAME":"永康區","LI":"北灣里","LIN":"37鄰","STREET":"大同街","SECT":" ","MAREA":" ","LANE":"３８０巷","ALLEY":" ","HOUSE_NO":"１０號四樓之３","E_COORD97":174758.07000000001,"N_COORD97":2546081,"ADDRESS":"大同街３８０巷１０號四樓之３","OBJECTID":386508},"geometry":{"x":174758.0700000003,"y":2546081}},{"attributes":{"ID":386533,"DIS_CODE":0,"TOWNNAME":"永康區","LI":"北灣里","LIN":"37鄰","STREET":"大同街","SECT":" ","MAREA":" ","LANE":"３８０巷","ALLEY":" ","HOUSE_NO":"１０號六樓之１","E_COORD97":174757.97,"N_COORD97":2546081,"ADDRESS":"大同街３８０巷１０號六樓之１","OBJECTID":386509},"geometry":{"x":174757.96999999974,"y":2546081}},{"attributes":{"ID":386534,"DIS_CODE":0,"TOWNNAME":"永康區","LI":"北灣里","LIN":"37鄰","STREET":"大同街","SECT":" ","MAREA":" ","LANE":"３１５巷","ALLEY":" ","HOUSE_NO":"８號七樓之１","E_COORD97":174723.94,"N_COORD97":2546025.2200000002,"ADDRESS":"大同街３１５巷８號七樓之１","OBJECTID":386510},"geometry":{"x":174723.94000000134,"y":2546025.2200000025}},{"attributes":{"ID":386535,"DIS_CODE":0,"TOWNNAME":"永康區","LI":"北灣里","LIN":"37鄰","STREET":"大同街","SECT":" ","MAREA":" ","LANE":"３１５巷","ALLEY":" ","HOUSE_NO":"８號七樓之３","E_COORD97":174724.04000000001,"N_COORD97":2546025.2200000002,"ADDRESS":"大同街３１５巷８號七樓之３","OBJECTID":386511},"geometry":{"x":174724.04000000004,"y":2546025.2200000025}},{"attributes":{"ID":386536,"DIS_CODE":0,"TOWNNAME":"永康區","LI":"北灣里","LIN":"37鄰","STREET":"大同街","SECT":" ","MAREA":" ","LANE":"３８０巷","ALLEY":" ","HOUSE_NO":"１０號六樓之２","E_COORD97":174758.10999999999,"N_COORD97":2546081,"ADDRESS":"大同街３８０巷１０號六樓之２","OBJECTID":386512},"geometry":{"x":174758.1100000022,"y":2546081}},{"attributes":{"ID":386537,"DIS_CODE":0,"TOWNNAME":"永康區","LI":"北灣里","LIN":"37鄰","STREET":"大同街","SECT":" ","MAREA":" ","LANE":"３８０巷","ALLEY":" ","HOUSE_NO":"１０號八樓之２","E_COORD97":174758.10999999999,"N_COORD97":2546081,"ADDRESS":"大同街３８０巷１０號八樓之２","OBJECTID":386513},"geometry":{"x":174758.1100000022,"y":2546081}},{"attributes":{"ID":386538,"DIS_CODE":0,"TOWNNAME":"永康區","LI":"北灣里","LIN":"37鄰","STREET":"大同街","SECT":" ","MAREA":" ","LANE":"３１５巷","ALLEY":" ","HOUSE_NO":"１０號八樓之１","E_COORD97":174714.59,"N_COORD97":2546024.02,"ADDRESS":"大同街３１５巷１０號八樓之１","OBJECTID":386514},"geometry":{"x":174714.58999999985,"y":2546024.0200000033}},{"attributes":{"ID":386539,"DIS_CODE":0,"TOWNNAME":"永康區","LI":"\u25A0行里","LIN":"13鄰","STREET":"中正南路","SECT":" ","MAREA":" ","LANE":" ","ALLEY":" ","HOUSE_NO":"７６８號","E_COORD97":171771.47,"N_COORD97":2548990.9900000002,"ADDRESS":"中正南路７６８號","OBJECTID":386515},"geometry":{"x":171771.4700000016,"y":2548990.9900000002}},{"attributes":{"ID":386540,"DIS_CODE":0,"TOWNNAME":"永康區","LI":"北灣里","LIN":"37鄰","STREET":"大同街","SECT":" ","MAREA":" ","LANE":"３８０巷","ALLEY":" ","HOUSE_NO":"１０號五樓之１","E_COORD97":174757.97,"N_COORD97":2546081,"ADDRESS":"大同街３８０巷１０號五樓之１","OBJECTID":386516},"geometry":{"x":174757.96999999974,"y":2546081}},{"attributes":{"ID":386541,"DIS_CODE":0,"TOWNNAME":"永康區","LI":"北灣里","LIN":"37鄰","STREET":"大同街","SECT":" ","MAREA":" ","LANE":"３１５巷","ALLEY":" ","HOUSE_NO":"８號八樓之３","E_COORD97":174724.04000000001,"N_COORD97":2546025.2200000002,"ADDRESS":"大同街３１５巷８號八樓之３","OBJECTID":386517},"geometry":{"x":174724.04000000004,"y":2546025.2200000025}},{"attributes":{"ID":386542,"DIS_CODE":0,"TOWNNAME":"永康區","LI":"北灣里","LIN":"37鄰","STREET":"大同街","SECT":" ","MAREA":" ","LANE":"３１５巷","ALLEY":" ","HOUSE_NO":"１０號八樓之２","E_COORD97":174714.73000000001,"N_COORD97":2546024.02,"ADDRESS":"大同街３１５巷１０號八樓之２","OBJECTID":386518},"geometry":{"x":174714.73000000045,"y":2546024.0200000033}},{"attributes":{"ID":386543,"DIS_CODE":0,"TOWNNAME":"永康區","LI":"北灣里","LIN":"37鄰","STREET":"大同街","SECT":" ","MAREA":" ","LANE":"３１５巷","ALLEY":" ","HOUSE_NO":"８號九樓之２","E_COORD97":174724.07999999999,"N_COORD97":2546025.2200000002,"ADDRESS":"大同街３１５巷８號九樓之２","OBJECTID":386519},"geometry":{"x":174724.08000000194,"y":2546025.2200000025}},{"attributes":{"ID":386544,"DIS_CODE":0,"TOWNNAME":"永康區","LI":"北灣里","LIN":"37鄰","STREET":"大同街","SECT":" ","MAREA":" ","LANE":"３１５巷","ALLEY":" ","HOUSE_NO":"８號四樓之３","E_COORD97":174724.04000000001,"N_COORD97":2546025.2200000002,"ADDRESS":"大同街３１５巷８號四樓之３","OBJECTID":386520},"geometry":{"x":174724.04000000004,"y":2546025.2200000025}},{"attributes":{"ID":386545,"DIS_CODE":0,"TOWNNAME":"永康區","LI":"龍潭里","LIN":"45鄰","STREET":"中山北路","SECT":" ","MAREA":" ","LANE":"２６４巷","ALLEY":" ","HOUSE_NO":"２８２號","E_COORD97":174713.44,"N_COORD97":2546895.5899999999,"ADDRESS":"中山北路２６４巷２８２號","OBJECTID":386521},"geometry":{"x":174713.44000000227,"y":2546895.5900000017}},{"attributes":{"ID":386546,"DIS_CODE":0,"TOWNNAME":"永康區","LI":"北灣里","LIN":"37鄰","STREET":"大同街","SECT":" ","MAREA":" ","LANE":"３１５巷","ALLEY":" ","HOUSE_NO":"１０號七樓之１","E_COORD97":174714.59,"N_COORD97":2546024.02,"ADDRESS":"大同街３１５巷１０號七樓之１","OBJECTID":386522},"geometry":{"x":174714.58999999985,"y":2546024.0200000033}},{"attributes":{"ID":386547,"DIS_CODE":0,"TOWNNAME":"永康區","LI":"北灣里","LIN":"37鄰","STREET":"大同街","SECT":" ","MAREA":" ","LANE":"３８０巷","ALLEY":" ","HOUSE_NO":"１０號九樓之２","E_COORD97":174758.10999999999,"N_COORD97":2546081,"ADDRESS":"大同街３８０巷１０號九樓之２","OBJECTID":386523},"geometry":{"x":174758.1100000022,"y":2546081}},{"attributes":{"ID":386548,"DIS_CODE":0,"TOWNNAME":"永康區","LI":"北灣里","LIN":"37鄰","STREET":"大同街","SECT":" ","MAREA":" ","LANE":"３１５巷","ALLEY":" ","HOUSE_NO":"８號九樓之１","E_COORD97":174723.94,"N_COORD97":2546025.2200000002,"ADDRESS":"大同街３１５巷８號九樓之１","OBJECTID":386524},"geometry":{"x":174723.94000000134,"y":2546025.2200000025}},{"attributes":{"ID":386549,"DIS_CODE":0,"TOWNNAME":"永康區","LI":"北灣里","LIN":"37鄰","STREET":"大同街","SECT":" ","MAREA":" ","LANE":"３１５巷","ALLEY":" ","HOUSE_NO":"１０號五樓之２","E_COORD97":174714.73000000001,"N_COORD97":2546024.02,"ADDRESS":"大同街３１５巷１０號五樓之２","OBJECTID":386525},"geometry":{"x":174714.73000000045,"y":2546024.0200000033}},{"attributes":{"ID":386550,"DIS_CODE":0,"TOWNNAME":"永康區","LI":"北灣里","LIN":"37鄰","STREET":"大同街","SECT":" ","MAREA":" ","LANE":"３１５巷","ALLEY":" ","HOUSE_NO":"１０號六樓之１","E_COORD97":174714.59,"N_COORD97":2546024.02,"ADDRESS":"大同街３１５巷１０號六樓之１","OBJECTID":386526},"geometry":{"x":174714.58999999985,"y":2546024.0200000033}},{"attributes":{"ID":386551,"DIS_CODE":0,"TOWNNAME":"永康區","LI":"北灣里","LIN":"37鄰","STREET":"大同街","SECT":" ","MAREA":" ","LANE":"３１５巷","ALLEY":" ","HOUSE_NO":"８號六樓之１","E_COORD97":174723.94,"N_COORD97":2546025.2200000002,"ADDRESS":"大同街３１５巷８號六樓之１","OBJECTID":386527},"geometry":{"x":174723.94000000134,"y":2546025.2200000025}},{"attributes":{"ID":386552,"DIS_CODE":0,"TOWNNAME":"永康區","LI":"北灣里","LIN":"37鄰","STREET":"大同街","SECT":" ","MAREA":" ","LANE":"３１５巷","ALLEY":" ","HOUSE_NO":"１０號五樓之１","E_COORD97":174714.59,"N_COORD97":2546024.02,"ADDRESS":"大同街３１５巷１０號五樓之１","OBJECTID":386528},"geometry":{"x":174714.58999999985,"y":2546024.0200000033}},{"attributes":{"ID":386553,"DIS_CODE":0,"TOWNNAME":"永康區","LI":"北灣里","LIN":"37鄰","STREET":"大同街","SECT":" ","MAREA":" ","LANE":"３８０巷","ALLEY":" ","HOUSE_NO":"１０號七樓之１","E_COORD97":174757.97,"N_COORD97":2546081,"ADDRESS":"大同街３８０巷１０號七樓之１","OBJECTID":386529},"geometry":{"x":174757.96999999974,"y":2546081}},{"attributes":{"ID":386554,"DIS_CODE":0,"TOWNNAME":"永康區","LI":"北灣里","LIN":"37鄰","STREET":"大同街","SECT":" ","MAREA":" ","LANE":"３８０巷","ALLEY":" ","HOUSE_NO":"８號四樓之１","E_COORD97":174772.06,"N_COORD97":2546080.75,"ADDRESS":"大同街３８０巷８號四樓之１","OBJECTID":386530},"geometry":{"x":174772.05999999959,"y":2546080.7500000037}},{"attributes":{"ID":386555,"DIS_CODE":0,"TOWNNAME":"永康區","LI":"北灣里","LIN":"37鄰","STREET":"大同街","SECT":" ","MAREA":" ","LANE":"３８０巷","ALLEY":" ","HOUSE_NO":"８號六樓之２","E_COORD97":174772.20000000001,"N_COORD97":2546080.75,"ADDRESS":"大同街３８０巷８號六樓之２","OBJECTID":386531},"geometry":{"x":174772.20000000019,"y":2546080.7500000037}},{"attributes":{"ID":386556,"DIS_CODE":0,"TOWNNAME":"永康區","LI":"北灣里","LIN":"37鄰","STREET":"大同街","SECT":" ","MAREA":" ","LANE":"３８０巷","ALLEY":" ","HOUSE_NO":"８號四樓之２","E_COORD97":174772.20000000001,"N_COORD97":2546080.75,"ADDRESS":"大同街３８０巷８號四樓之２","OBJECTID":386532},"geometry":{"x":174772.20000000019,"y":2546080.7500000037}},{"attributes":{"ID":386557,"DIS_CODE":0,"TOWNNAME":"永康區","LI":"北灣里","LIN":"37鄰","STREET":"大同街","SECT":" ","MAREA":" ","LANE":"３１５巷","ALLEY":" ","HOUSE_NO":"８號五樓之１","E_COORD97":174723.94,"N_COORD97":2546025.2200000002,"ADDRESS":"大同街３１５巷８號五樓之１","OBJECTID":386533},"geometry":{"x":174723.94000000134,"y":2546025.2200000025}},{"attributes":{"ID":386558,"DIS_CODE":0,"TOWNNAME":"永康區","LI":"北灣里","LIN":"37鄰","STREET":"大同街","SECT":" ","MAREA":" ","LANE":"３８０巷","ALLEY":" ","HOUSE_NO":"８號五樓之２","E_COORD97":174772.20000000001,"N_COORD97":2546080.75,"ADDRESS":"大同街３８０巷８號五樓之２","OBJECTID":386534},"geometry":{"x":174772.20000000019,"y":2546080.7500000037}},{"attributes":{"ID":386559,"DIS_CODE":0,"TOWNNAME":"永康區","LI":"北灣里","LIN":"37鄰","STREET":"大同街","SECT":" ","MAREA":" ","LANE":"３１５巷","ALLEY":" ","HOUSE_NO":"８號五樓之３","E_COORD97":174724.04000000001,"N_COORD97":2546025.2200000002,"ADDRESS":"大同街３１５巷８號五樓之３","OBJECTID":386535},"geometry":{"x":174724.04000000004,"y":2546025.2200000025}},{"attributes":{"ID":386560,"DIS_CODE":0,"TOWNNAME":"永康區","LI":"新樹里","LIN":"4鄰","STREET":"富強路","SECT":"二段","MAREA":" ","LANE":"２９８巷","ALLEY":" ","HOUSE_NO":"６６號","E_COORD97":175726.98000000001,"N_COORD97":2547576.9900000002,"ADDRESS":"富強路二段２９８巷６６號","OBJECTID":386536},"geometry":{"x":175726.98000000231,"y":2547576.9900000002}},{"attributes":{"ID":386561,"DIS_CODE":0,"TOWNNAME":"永康區","LI":"龍潭里","LIN":"39鄰","STREET":"永明街","SECT":" ","MAREA":" ","LANE":"１７９巷","ALLEY":" ","HOUSE_NO":"１號","E_COORD97":174431.5,"N_COORD97":2547228.46,"ADDRESS":"永明街１７９巷１號","OBJECTID":386537},"geometry":{"x":174431.50000000093,"y":2547228.4600000009}},{"attributes":{"ID":386562,"DIS_CODE":0,"TOWNNAME":"永康區","LI":"龍潭里","LIN":"14鄰","STREET":"龍埔街","SECT":" ","MAREA":" ","LANE":"１５０巷","ALLEY":" ","HOUSE_NO":"３號","E_COORD97":174435.75,"N_COORD97":2548285.5,"ADDRESS":"龍埔街１５０巷３號","OBJECTID":386538},"geometry":{"x":174435.75,"y":2548285.5}},{"attributes":{"ID":386563,"DIS_CODE":0,"TOWNNAME":"永康區","LI":"北灣里","LIN":"37鄰","STREET":"大同街","SECT":" ","MAREA":" ","LANE":"３８０巷","ALLEY":" ","HOUSE_NO":"８號三樓之３","E_COORD97":174772.16,"N_COORD97":2546080.75,"ADDRESS":"大同街３８０巷８號三樓之３","OBJECTID":386539},"geometry":{"x":174772.16000000015,"y":2546080.7500000037}},{"attributes":{"ID":386564,"DIS_CODE":0,"TOWNNAME":"永康區","LI":"北灣里","LIN":"37鄰","STREET":"大同街","SECT":" ","MAREA":" ","LANE":"３８０巷","ALLEY":" ","HOUSE_NO":"８號六樓之１","E_COORD97":174772.06,"N_COORD97":2546080.75,"ADDRESS":"大同街３８０巷８號六樓之１","OBJECTID":386540},"geometry":{"x":174772.05999999959,"y":2546080.7500000037}},{"attributes":{"ID":386565,"DIS_CODE":0,"TOWNNAME":"東區","LI":"泉南里","LIN":"37鄰","STREET":"林森路","SECT":"一段","MAREA":" ","LANE":"１５３巷","ALLEY":" ","HOUSE_NO":"１７號七樓","E_COORD97":169521.66,"N_COORD97":2542730.3700000001,"ADDRESS":"林森路一段１５３巷１７號七樓","OBJECTID":386541},"geometry":{"x":169521.66000000108,"y":2542730.370000001}},{"attributes":{"ID":386566,"DIS_CODE":0,"TOWNNAME":"東區","LI":"泉南里","LIN":"37鄰","STREET":"林森路","SECT":"一段","MAREA":" ","LANE":"１５３巷","ALLEY":" ","HOUSE_NO":"１７號十三樓","E_COORD97":169521.66,"N_COORD97":2542730.3700000001,"ADDRESS":"林森路一段１５３巷１７號十三樓","OBJECTID":386542},"geometry":{"x":169521.66000000108,"y":2542730.370000001}},{"attributes":{"ID":386567,"DIS_CODE":0,"TOWNNAME":"東區","LI":"泉南里","LIN":"37鄰","STREET":"林森路","SECT":"一段","MAREA":" ","LANE":"１５３巷","ALLEY":" ","HOUSE_NO":"１７號十五樓","E_COORD97":169521.66,"N_COORD97":2542730.3700000001,"ADDRESS":"林森路一段１５３巷１７號十五樓","OBJECTID":386543},"geometry":{"x":169521.66000000108,"y":2542730.370000001}},{"attributes":{"ID":386568,"DIS_CODE":0,"TOWNNAME":"東區","LI":"泉南里","LIN":"37鄰","STREET":"林森路","SECT":"一段","MAREA":" ","LANE":"１５３巷","ALLEY":" ","HOUSE_NO":"１７號十四樓","E_COORD97":169521.66,"N_COORD97":2542730.3700000001,"ADDRESS":"林森路一段１５３巷１７號十四樓","OBJECTID":386544},"geometry":{"x":169521.66000000108,"y":2542730.370000001}},{"attributes":{"ID":386569,"DIS_CODE":0,"TOWNNAME":"東區","LI":"泉南里","LIN":"37鄰","STREET":"林森路","SECT":"一段","MAREA":" ","LANE":"１５３巷","ALLEY":" ","HOUSE_NO":"１７號十樓","E_COORD97":169521.66,"N_COORD97":2542730.3700000001,"ADDRESS":"林森路一段１５３巷１７號十樓","OBJECTID":386545},"geometry":{"x":169521.66000000108,"y":2542730.370000001}},{"attributes":{"ID":386570,"DIS_CODE":0,"TOWNNAME":"東區","LI":"泉南里","LIN":"37鄰","STREET":"林森路","SECT":"一段","MAREA":" ","LANE":"１５３巷","ALLEY":" ","HOUSE_NO":"１７號三樓","E_COORD97":169521.66,"N_COORD97":2542730.3700000001,"ADDRESS":"林森路一段１５３巷１７號三樓","OBJECTID":386546},"geometry":{"x":169521.66000000108,"y":2542730.370000001}},{"attributes":{"ID":386571,"DIS_CODE":0,"TOWNNAME":"東區","LI":"泉南里","LIN":"37鄰","STREET":"林森路","SECT":"一段","MAREA":" ","LANE":"１５３巷","ALLEY":" ","HOUSE_NO":"１７號五樓","E_COORD97":169521.66,"N_COORD97":2542730.3700000001,"ADDRESS":"林森路一段１５３巷１７號五樓","OBJECTID":386547},"geometry":{"x":169521.66000000108,"y":2542730.370000001}},{"attributes":{"ID":386572,"DIS_CODE":0,"TOWNNAME":"東區","LI":"泉南里","LIN":"37鄰","STREET":"林森路","SECT":"一段","MAREA":" ","LANE":"１５３巷","ALLEY":" ","HOUSE_NO":"１７號六樓","E_COORD97":169521.66,"N_COORD97":2542730.3700000001,"ADDRESS":"林森路一段１５３巷１７號六樓","OBJECTID":386548},"geometry":{"x":169521.66000000108,"y":2542730.370000001}},{"attributes":{"ID":386573,"DIS_CODE":0,"TOWNNAME":"東區","LI":"泉南里","LIN":"37鄰","STREET":"林森路","SECT":"一段","MAREA":" ","LANE":"１５３巷","ALLEY":" ","HOUSE_NO":"１７號四樓","E_COORD97":169521.66,"N_COORD97":2542730.3700000001,"ADDRESS":"林森路一段１５３巷１７號四樓","OBJECTID":386549},"geometry":{"x":169521.66000000108,"y":2542730.370000001}},{"attributes":{"ID":386574,"DIS_CODE":0,"TOWNNAME":"東區","LI":"泉南里","LIN":"37鄰","STREET":"林森路","SECT":"一段","MAREA":" ","LANE":"１５３巷","ALLEY":" ","HOUSE_NO":"１９號七樓","E_COORD97":169524.70000000001,"N_COORD97":2542744.3300000001,"ADDRESS":"林森路一段１５３巷１９號七樓","OBJECTID":386550},"geometry":{"x":169524.70000000112,"y":2542744.3300000019}},{"attributes":{"ID":386575,"DIS_CODE":0,"TOWNNAME":"東區","LI":"泉南里","LIN":"37鄰","STREET":"林森路","SECT":"一段","MAREA":" ","LANE":"１５３巷","ALLEY":" ","HOUSE_NO":"１９號九樓","E_COORD97":169524.70000000001,"N_COORD97":2542744.3300000001,"ADDRESS":"林森路一段１５３巷１９號九樓","OBJECTID":386551},"geometry":{"x":169524.70000000112,"y":2542744.3300000019}},{"attributes":{"ID":386576,"DIS_CODE":0,"TOWNNAME":"東區","LI":"泉南里","LIN":"37鄰","STREET":"林森路","SECT":"一段","MAREA":" ","LANE":"１５３巷","ALLEY":" ","HOUSE_NO":"１９號二樓","E_COORD97":169524.70000000001,"N_COORD97":2542744.3300000001,"ADDRESS":"林森路一段１５３巷１９號二樓","OBJECTID":386552},"geometry":{"x":169524.70000000112,"y":2542744.3300000019}},{"attributes":{"ID":386577,"DIS_CODE":0,"TOWNNAME":"東區","LI":"泉南里","LIN":"37鄰","STREET":"林森路","SECT":"一段","MAREA":" ","LANE":"１５３巷","ALLEY":" ","HOUSE_NO":"１９號八樓","E_COORD97":169524.70000000001,"N_COORD97":2542744.3300000001,"ADDRESS":"林森路一段１５３巷１９號八樓","OBJECTID":386553},"geometry":{"x":169524.70000000112,"y":2542744.3300000019}},{"attributes":{"ID":386578,"DIS_CODE":0,"TOWNNAME":"東區","LI":"泉南里","LIN":"37鄰","STREET":"林森路","SECT":"一段","MAREA":" ","LANE":"１５３巷","ALLEY":" ","HOUSE_NO":"１９號十一樓","E_COORD97":169524.70000000001,"N_COORD97":2542744.3300000001,"ADDRESS":"林森路一段１５３巷１９號十一樓","OBJECTID":386554},"geometry":{"x":169524.70000000112,"y":2542744.3300000019}},{"attributes":{"ID":386579,"DIS_CODE":0,"TOWNNAME":"東區","LI":"泉南里","LIN":"37鄰","STREET":"林森路","SECT":"一段","MAREA":" ","LANE":"１５３巷","ALLEY":" ","HOUSE_NO":"１９號十二樓","E_COORD97":169524.70000000001,"N_COORD97":2542744.3300000001,"ADDRESS":"林森路一段１５３巷１９號十二樓","OBJECTID":386555},"geometry":{"x":169524.70000000112,"y":2542744.3300000019}},{"attributes":{"ID":386580,"DIS_CODE":0,"TOWNNAME":"東區","LI":"泉南里","LIN":"37鄰","STREET":"林森路","SECT":"一段","MAREA":" ","LANE":"１５３巷","ALLEY":" ","HOUSE_NO":"１９號十三樓","E_COORD97":169524.70000000001,"N_COORD97":2542744.3300000001,"ADDRESS":"林森路一段１５３巷１９號十三樓","OBJECTID":386556},"geometry":{"x":169524.70000000112,"y":2542744.3300000019}},{"attributes":{"ID":386581,"DIS_CODE":0,"TOWNNAME":"東區","LI":"泉南里","LIN":"37鄰","STREET":"林森路","SECT":"一段","MAREA":" ","LANE":"１５３巷","ALLEY":" ","HOUSE_NO":"１９號十五樓","E_COORD97":169524.70000000001,"N_COORD97":2542744.3300000001,"ADDRESS":"林森路一段１５３巷１９號十五樓","OBJECTID":386557},"geometry":{"x":169524.70000000112,"y":2542744.3300000019}},{"attributes":{"ID":386582,"DIS_CODE":0,"TOWNNAME":"東區","LI":"泉南里","LIN":"37鄰","STREET":"林森路","SECT":"一段","MAREA":" ","LANE":"１５３巷","ALLEY":" ","HOUSE_NO":"１９號十四樓","E_COORD97":169524.70000000001,"N_COORD97":2542744.3300000001,"ADDRESS":"林森路一段１５３巷１９號十四樓","OBJECTID":386558},"geometry":{"x":169524.70000000112,"y":2542744.3300000019}},{"attributes":{"ID":386583,"DIS_CODE":0,"TOWNNAME":"東區","LI":"泉南里","LIN":"37鄰","STREET":"林森路","SECT":"一段","MAREA":" ","LANE":"１５３巷","ALLEY":" ","HOUSE_NO":"１９號十樓","E_COORD97":169524.70000000001,"N_COORD97":2542744.3300000001,"ADDRESS":"林森路一段１５３巷１９號十樓","OBJECTID":386559},"geometry":{"x":169524.70000000112,"y":2542744.3300000019}},{"attributes":{"ID":386584,"DIS_CODE":0,"TOWNNAME":"東區","LI":"泉南里","LIN":"37鄰","STREET":"林森路","SECT":"一段","MAREA":" ","LANE":"１５３巷","ALLEY":" ","HOUSE_NO":"１９號三樓","E_COORD97":169524.70000000001,"N_COORD97":2542744.3300000001,"ADDRESS":"林森路一段１５３巷１９號三樓","OBJECTID":386560},"geometry":{"x":169524.70000000112,"y":2542744.3300000019}},{"attributes":{"ID":386585,"DIS_CODE":0,"TOWNNAME":"東區","LI":"泉南里","LIN":"37鄰","STREET":"林森路","SECT":"一段","MAREA":" ","LANE":"１５３巷","ALLEY":" ","HOUSE_NO":"１９號五樓","E_COORD97":169524.70000000001,"N_COORD97":2542744.3300000001,"ADDRESS":"林森路一段１５３巷１９號五樓","OBJECTID":386561},"geometry":{"x":169524.70000000112,"y":2542744.3300000019}},{"attributes":{"ID":386586,"DIS_CODE":0,"TOWNNAME":"東區","LI":"泉南里","LIN":"37鄰","STREET":"林森路","SECT":"一段","MAREA":" ","LANE":"１５３巷","ALLEY":" ","HOUSE_NO":"１９號六樓","E_COORD97":169524.70000000001,"N_COORD97":2542744.3300000001,"ADDRESS":"林森路一段１５３巷１９號六樓","OBJECTID":386562},"geometry":{"x":169524.70000000112,"y":2542744.3300000019}},{"attributes":{"ID":386587,"DIS_CODE":0,"TOWNNAME":"東區","LI":"泉南里","LIN":"37鄰","STREET":"林森路","SECT":"一段","MAREA":" ","LANE":"１５３巷","ALLEY":" ","HOUSE_NO":"１９號四樓","E_COORD97":169524.70000000001,"N_COORD97":2542744.3300000001,"ADDRESS":"林森路一段１５３巷１９號四樓","OBJECTID":386563},"geometry":{"x":169524.70000000112,"y":2542744.3300000019}},{"attributes":{"ID":386588,"DIS_CODE":0,"TOWNNAME":"永康區","LI":"北灣里","LIN":"37鄰","STREET":"大同街","SECT":" ","MAREA":" ","LANE":"３１５巷","ALLEY":" ","HOUSE_NO":"８號九樓之３","E_COORD97":174724.04000000001,"N_COORD97":2546025.2200000002,"ADDRESS":"大同街３１５巷８號九樓之３","OBJECTID":386564},"geometry":{"x":174724.04000000004,"y":2546025.2200000025}},{"attributes":{"ID":386589,"DIS_CODE":0,"TOWNNAME":"永康區","LI":"北灣里","LIN":"37鄰","STREET":"大同街","SECT":" ","MAREA":" ","LANE":"３１５巷","ALLEY":" ","HOUSE_NO":"１０號六樓之２","E_COORD97":174714.73000000001,"N_COORD97":2546024.02,"ADDRESS":"大同街３１５巷１０號六樓之２","OBJECTID":386565},"geometry":{"x":174714.73000000045,"y":2546024.0200000033}},{"attributes":{"ID":386590,"DIS_CODE":0,"TOWNNAME":"永康區","LI":"北灣里","LIN":"37鄰","STREET":"大同街","SECT":" ","MAREA":" ","LANE":"３１５巷","ALLEY":" ","HOUSE_NO":"１０號三樓之２","E_COORD97":174714.73000000001,"N_COORD97":2546024.02,"ADDRESS":"大同街３１５巷１０號三樓之２","OBJECTID":386566},"geometry":{"x":174714.73000000045,"y":2546024.0200000033}},{"attributes":{"ID":386591,"DIS_CODE":0,"TOWNNAME":"永康區","LI":"北灣里","LIN":"37鄰","STREET":"大同街","SECT":" ","MAREA":" ","LANE":"３８０巷","ALLEY":" ","HOUSE_NO":"８號五樓之３","E_COORD97":174772.16,"N_COORD97":2546080.75,"ADDRESS":"大同街３８０巷８號五樓之３","OBJECTID":386567},"geometry":{"x":174772.16000000015,"y":2546080.7500000037}},{"attributes":{"ID":386592,"DIS_CODE":0,"TOWNNAME":"永康區","LI":"龍潭里","LIN":"30鄰","STREET":"龍國街","SECT":" ","MAREA":" ","LANE":"４２０巷","ALLEY":" ","HOUSE_NO":"２９號","E_COORD97":174860.38,"N_COORD97":2547926.1899999999,"ADDRESS":"龍國街４２０巷２９號","OBJECTID":386568},"geometry":{"x":174860.37999999989,"y":2547926.1900000013}},{"attributes":{"ID":386593,"DIS_CODE":0,"TOWNNAME":"永康區","LI":"龍潭里","LIN":"26鄰","STREET":"龍昌街","SECT":" ","MAREA":" ","LANE":"６６巷","ALLEY":" ","HOUSE_NO":"４０號","E_COORD97":175115.95000000001,"N_COORD97":2547905.6699999999,"ADDRESS":"龍昌街６６巷４０號","OBJECTID":386569},"geometry":{"x":175115.95000000019,"y":2547905.6700000018}},{"attributes":{"ID":386594,"DIS_CODE":0,"TOWNNAME":"永康區","LI":"北灣里","LIN":"37鄰","STREET":"大同街","SECT":" ","MAREA":" ","LANE":"３８０巷","ALLEY":" ","HOUSE_NO":"８號八樓之１","E_COORD97":174772.06,"N_COORD97":2546080.75,"ADDRESS":"大同街３８０巷８號八樓之１","OBJECTID":386570},"geometry":{"x":174772.05999999959,"y":2546080.7500000037}},{"attributes":{"ID":386595,"DIS_CODE":0,"TOWNNAME":"永康區","LI":"北灣里","LIN":"37鄰","STREET":"大同街","SECT":" ","MAREA":" ","LANE":"３１５巷","ALLEY":" ","HOUSE_NO":"８號七樓之２","E_COORD97":174724.07999999999,"N_COORD97":2546025.2200000002,"ADDRESS":"大同街３１５巷８號七樓之２","OBJECTID":386571},"geometry":{"x":174724.08000000194,"y":2546025.2200000025}},{"attributes":{"ID":386596,"DIS_CODE":0,"TOWNNAME":"永康區","LI":"復華里","LIN":"37鄰","STREET":"復華七街","SECT":" ","MAREA":" ","LANE":"３２巷","ALLEY":" ","HOUSE_NO":"３５號七樓之２","E_COORD97":172747.70000000001,"N_COORD97":2545943.54,"ADDRESS":"復華七街３２巷３５號七樓之２","OBJECTID":386572},"geometry":{"x":172747.70000000019,"y":2545943.540000001}},{"attributes":{"ID":386597,"DIS_CODE":0,"TOWNNAME":"永康區","LI":"復華里","LIN":"37鄰","STREET":"復華七街","SECT":" ","MAREA":" ","LANE":"３２巷","ALLEY":" ","HOUSE_NO":"２５號十樓之３","E_COORD97":172712.01999999999,"N_COORD97":2545945.04,"ADDRESS":"復華七街３２巷２５號十樓之３","OBJECTID":386573},"geometry":{"x":172712.02000000048,"y":2545945.0399999991}},{"attributes":{"ID":386598,"DIS_CODE":0,"TOWNNAME":"永康區","LI":"龍潭里","LIN":"22鄰","STREET":"龍橋街","SECT":" ","MAREA":" ","LANE":"１３０巷","ALLEY":" ","HOUSE_NO":"１７號","E_COORD97":174700.04000000001,"N_COORD97":2548667.7400000002,"ADDRESS":"龍橋街１３０巷１７號","OBJECTID":386574},"geometry":{"x":174700.04000000004,"y":2548667.7400000039}},{"attributes":{"ID":386599,"DIS_CODE":0,"TOWNNAME":"永康區","LI":"蔦松里","LIN":"1鄰","STREET":"蔦松二街","SECT":" ","MAREA":" ","LANE":"８７巷","ALLEY":" ","HOUSE_NO":"１６號","E_COORD97":173703.32000000001,"N_COORD97":2549363.4900000002,"ADDRESS":"蔦松二街８７巷１６號","OBJECTID":386575},"geometry":{"x":173703.3200000003,"y":2549363.4900000002}},{"attributes":{"ID":386600,"DIS_CODE":0,"TOWNNAME":"永康區","LI":"龍潭里","LIN":"44鄰","STREET":"永平街","SECT":" ","MAREA":" ","LANE":"２９８巷","ALLEY":" ","HOUSE_NO":"２之１７號","E_COORD97":174661.41,"N_COORD97":2547120.04,"ADDRESS":"永平街２９８巷２之１７號","OBJECTID":386576},"geometry":{"x":174661.41000000108,"y":2547120.040000001}},{"attributes":{"ID":386601,"DIS_CODE":0,"TOWNNAME":"永康區","LI":"北灣里","LIN":"37鄰","STREET":"大同街","SECT":" ","MAREA":" ","LANE":"３８０巷","ALLEY":" ","HOUSE_NO":"１０號九樓之１","E_COORD97":174757.97,"N_COORD97":2546081,"ADDRESS":"大同街３８０巷１０號九樓之１","OBJECTID":386577},"geometry":{"x":174757.96999999974,"y":2546081}},{"attributes":{"ID":386602,"DIS_CODE":0,"TOWNNAME":"永康區","LI":"復華里","LIN":"37鄰","STREET":"復華七街","SECT":" ","MAREA":" ","LANE":"３２巷","ALLEY":" ","HOUSE_NO":"３５號四樓之２","E_COORD97":172747.70000000001,"N_COORD97":2545943.54,"ADDRESS":"復華七街３２巷３５號四樓之２","OBJECTID":386578},"geometry":{"x":172747.70000000019,"y":2545943.540000001}},{"attributes":{"ID":386603,"DIS_CODE":0,"TOWNNAME":"永康區","LI":"龍潭里","LIN":"37鄰","STREET":"中山北路","SECT":" ","MAREA":" ","LANE":"１６４巷","ALLEY":" ","HOUSE_NO":"１２０號之３二樓","E_COORD97":174551.03,"N_COORD97":2547397.3399999999,"ADDRESS":"中山北路１６４巷１２０號之３二樓","OBJECTID":386579},"geometry":{"x":174551.03000000026,"y":2547397.3399999999}},{"attributes":{"ID":386604,"DIS_CODE":0,"TOWNNAME":"永康區","LI":"龍潭里","LIN":"37鄰","STREET":"中山北路","SECT":" ","MAREA":" ","LANE":"１６４巷","ALLEY":" ","HOUSE_NO":"１２０號之１五樓","E_COORD97":174551.10000000001,"N_COORD97":2547375.6000000001,"ADDRESS":"中山北路１６４巷１２０號之１五樓","OBJECTID":386580},"geometry":{"x":174551.10000000056,"y":2547375.5999999996}},{"attributes":{"ID":386605,"DIS_CODE":0,"TOWNNAME":"永康區","LI":"\u25A0行里","LIN":"37鄰","STREET":"仁愛街","SECT":" ","MAREA":" ","LANE":"８４巷","ALLEY":" ","HOUSE_NO":"５號三樓","E_COORD97":172088,"N_COORD97":2549414.9100000001,"ADDRESS":"仁愛街８４巷５號三樓","OBJECTID":386581},"geometry":{"x":172088,"y":2549414.9100000001}},{"attributes":{"ID":386606,"DIS_CODE":0,"TOWNNAME":"永康區","LI":"龍潭里","LIN":"37鄰","STREET":"中山北路","SECT":" ","MAREA":" ","LANE":"１６４巷","ALLEY":" ","HOUSE_NO":"１１４號之２五樓","E_COORD97":174537.45999999999,"N_COORD97":2547373.1499999999,"ADDRESS":"中山北路１６４巷１１４號之２五樓","OBJECTID":386582},"geometry":{"x":174537.45999999996,"y":2547373.1499999985}},{"attributes":{"ID":386607,"DIS_CODE":0,"TOWNNAME":"永康區","LI":"蔦松里","LIN":"2鄰","STREET":"蔦松二街","SECT":" ","MAREA":" ","LANE":"１２４巷","ALLEY":" ","HOUSE_NO":"３０號","E_COORD97":173818.75,"N_COORD97":2549312,"ADDRESS":"蔦松二街１２４巷３０號","OBJECTID":386583},"geometry":{"x":173818.75,"y":2549312}},{"attributes":{"ID":386608,"DIS_CODE":0,"TOWNNAME":"永康區","LI":"龍潭里","LIN":"25鄰","STREET":"龍昌街","SECT":" ","MAREA":" ","LANE":"２３巷","ALLEY":" ","HOUSE_NO":"２之１號","E_COORD97":174987.94,"N_COORD97":2547815.1099999999,"ADDRESS":"龍昌街２３巷２之１號","OBJECTID":386584},"geometry":{"x":174987.94000000041,"y":2547815.1099999994}},{"attributes":{"ID":386609,"DIS_CODE":0,"TOWNNAME":"永康區","LI":"龍潭里","LIN":"39鄰","STREET":"永明街","SECT":" ","MAREA":" ","LANE":"２１５巷","ALLEY":" ","HOUSE_NO":"３０號","E_COORD97":174531.44,"N_COORD97":2547277.7599999998,"ADDRESS":"永明街２１５巷３０號","OBJECTID":386585},"geometry":{"x":174531.44000000041,"y":2547277.7600000016}},{"attributes":{"ID":386610,"DIS_CODE":0,"TOWNNAME":"永康區","LI":"蔦松里","LIN":"1鄰","STREET":"蔦松二街","SECT":" ","MAREA":" ","LANE":"８７巷","ALLEY":" ","HOUSE_NO":"１０號","E_COORD97":173714.87,"N_COORD97":2549356.9900000002,"ADDRESS":"蔦松二街８７巷１０號","OBJECTID":386586},"geometry":{"x":173714.87000000011,"y":2549356.9900000002}},{"attributes":{"ID":386611,"DIS_CODE":0,"TOWNNAME":"永康區","LI":"龍潭里","LIN":"30鄰","STREET":"龍昌街","SECT":" ","MAREA":" ","LANE":"６６巷","ALLEY":" ","HOUSE_NO":"３號","E_COORD97":175035.82999999999,"N_COORD97":2547923.2400000002,"ADDRESS":"龍昌街６６巷３號","OBJECTID":386587},"geometry":{"x":175035.83000000007,"y":2547923.2400000021}},{"attributes":{"ID":386612,"DIS_CODE":0,"TOWNNAME":"永康區","LI":"復華里","LIN":"37鄰","STREET":"復華七街","SECT":" ","MAREA":" ","LANE":"３２巷","ALLEY":" ","HOUSE_NO":"２５號六樓之１","E_COORD97":172711.92999999999,"N_COORD97":2545945.04,"ADDRESS":"復華七街３２巷２５號六樓之１","OBJECTID":386588},"geometry":{"x":172711.9299999997,"y":2545945.0399999991}},{"attributes":{"ID":386613,"DIS_CODE":0,"TOWNNAME":"永康區","LI":"復華里","LIN":"37鄰","STREET":"復華七街","SECT":" ","MAREA":" ","LANE":"３２巷","ALLEY":" ","HOUSE_NO":"２９號二樓之１","E_COORD97":172731.04000000001,"N_COORD97":2545951.54,"ADDRESS":"復華七街３２巷２９號二樓之１","OBJECTID":386589},"geometry":{"x":172731.04000000097,"y":2545951.5399999991}},{"attributes":{"ID":386614,"DIS_CODE":0,"TOWNNAME":"永康區","LI":"龍潭里","LIN":"37鄰","STREET":"中山北路","SECT":" ","MAREA":" ","LANE":"１６４巷","ALLEY":" ","HOUSE_NO":"１２０號之２四樓","E_COORD97":174550.89000000001,"N_COORD97":2547385.1000000001,"ADDRESS":"中山北路１６４巷１２０號之２四樓","OBJECTID":386590},"geometry":{"x":174550.8900000006,"y":2547385.0999999996}},{"attributes":{"ID":386615,"DIS_CODE":0,"TOWNNAME":"永康區","LI":"\u25A0行里","LIN":"37鄰","STREET":"仁愛街","SECT":" ","MAREA":" ","LANE":"８４巷","ALLEY":" ","HOUSE_NO":"６號六樓","E_COORD97":172077.14000000001,"N_COORD97":2549388.1499999999,"ADDRESS":"仁愛街８４巷６號六樓","OBJECTID":386591},"geometry":{"x":172077.14000000153,"y":2549388.1500000022}},{"attributes":{"ID":386616,"DIS_CODE":0,"TOWNNAME":"永康區","LI":"復華里","LIN":"37鄰","STREET":"復華七街","SECT":" ","MAREA":" ","LANE":"３２巷","ALLEY":" ","HOUSE_NO":"３７號九樓之１","E_COORD97":172751.10000000001,"N_COORD97":2545927.0499999998,"ADDRESS":"復華七街３２巷３７號九樓之１","OBJECTID":386592},"geometry":{"x":172751.10000000056,"y":2545927.0500000026}},{"attributes":{"ID":386617,"DIS_CODE":0,"TOWNNAME":"永康區","LI":"北灣里","LIN":"37鄰","STREET":"大同街","SECT":" ","MAREA":" ","LANE":"３１５巷","ALLEY":" ","HOUSE_NO":"８號四樓之２","E_COORD97":174724.07999999999,"N_COORD97":2546025.2200000002,"ADDRESS":"大同街３１５巷８號四樓之２","OBJECTID":386593},"geometry":{"x":174724.08000000194,"y":2546025.2200000025}},{"attributes":{"ID":386618,"DIS_CODE":0,"TOWNNAME":"永康區","LI":"龍潭里","LIN":"37鄰","STREET":"中山北路","SECT":" ","MAREA":" ","LANE":"１６４巷","ALLEY":" ","HOUSE_NO":"１１６號之１四樓","E_COORD97":174539.10999999999,"N_COORD97":2547335.1400000001,"ADDRESS":"中山北路１６４巷１１６號之１四樓","OBJECTID":386594},"geometry":{"x":174539.11000000034,"y":2547335.1400000006}},{"attributes":{"ID":386619,"DIS_CODE":0,"TOWNNAME":"永康區","LI":"復華里","LIN":"37鄰","STREET":"復華七街","SECT":" ","MAREA":" ","LANE":"３２巷","ALLEY":" ","HOUSE_NO":"３３號五樓之２","E_COORD97":172738.31,"N_COORD97":2545936.2999999998,"ADDRESS":"復華七街３２巷３３號五樓之２","OBJECTID":386595},"geometry":{"x":172738.30999999959,"y":2545936.3000000026}},{"attributes":{"ID":386620,"DIS_CODE":0,"TOWNNAME":"永康區","LI":"復華里","LIN":"37鄰","STREET":"復華七街","SECT":" ","MAREA":" ","LANE":"３２巷","ALLEY":" ","HOUSE_NO":"２９號三樓之１","E_COORD97":172731.04000000001,"N_COORD97":2545951.54,"ADDRESS":"復華七街３２巷２９號三樓之１","OBJECTID":386596},"geometry":{"x":172731.04000000097,"y":2545951.5399999991}},{"attributes":{"ID":386621,"DIS_CODE":0,"TOWNNAME":"永康區","LI":"復華里","LIN":"37鄰","STREET":"復華七街","SECT":" ","MAREA":" ","LANE":"３２巷","ALLEY":" ","HOUSE_NO":"２５號十一樓之１","E_COORD97":172713.17999999999,"N_COORD97":2545945.04,"ADDRESS":"復華七街３２巷２５號十一樓之１","OBJECTID":386597},"geometry":{"x":172713.18000000063,"y":2545945.0399999991}},{"attributes":{"ID":386622,"DIS_CODE":0,"TOWNNAME":"永康區","LI":"北灣里","LIN":"37鄰","STREET":"大同街","SECT":" ","MAREA":" ","LANE":"３８０巷","ALLEY":" ","HOUSE_NO":"８號七樓之１","E_COORD97":174772.06,"N_COORD97":2546080.75,"ADDRESS":"大同街３８０巷８號七樓之１","OBJECTID":386598},"geometry":{"x":174772.05999999959,"y":2546080.7500000037}},{"attributes":{"ID":386623,"DIS_CODE":0,"TOWNNAME":"永康區","LI":"龍潭里","LIN":"37鄰","STREET":"中山北路","SECT":" ","MAREA":" ","LANE":"１６４巷","ALLEY":" ","HOUSE_NO":"１１４號之１五樓","E_COORD97":174537,"N_COORD97":2547383.8999999999,"ADDRESS":"中山北路１６４巷１１４號之１五樓","OBJECTID":386599},"geometry":{"x":174537.00000000093,"y":2547383.9000000004}},{"attributes":{"ID":386624,"DIS_CODE":0,"TOWNNAME":"永康區","LI":"復華里","LIN":"37鄰","STREET":"復華七街","SECT":" ","MAREA":" ","LANE":"３２巷","ALLEY":" ","HOUSE_NO":"３７號七樓之１","E_COORD97":172751.10000000001,"N_COORD97":2545927.0499999998,"ADDRESS":"復華七街３２巷３７號七樓之１","OBJECTID":386600},"geometry":{"x":172751.10000000056,"y":2545927.0500000026}}]}