{"displayFieldName":"TOWNNAME","fieldAliases":{"ID":"ID","DIS_CODE":"DIS_CODE","TOWNNAME":"TOWNNAME","LI":"LI","LIN":"LIN","STREET":"STREET","SECT":"SECT","MAREA":"MAREA","LANE":"LANE","ALLEY":"ALLEY","HOUSE_NO":"HOUSE_NO","E_COORD97":"E_COORD97","N_COORD97":"N_COORD97","ADDRESS":"ADDRESS","OBJECTID":"OBJECTID"},"geometryType":"esriGeometryPoint","spatialReference":{"wkid":102443,"latestWkid":3826},"fields":[{"name":"ID","type":"esriFieldTypeDouble","alias":"ID"},{"name":"DIS_CODE","type":"esriFieldTypeInteger","alias":"DIS_CODE"},{"name":"TOWNNAME","type":"esriFieldTypeString","alias":"TOWNNAME","length":8},{"name":"LI","type":"esriFieldTypeString","alias":"LI","length":8},{"name":"LIN","type":"esriFieldTypeString","alias":"LIN","length":12},{"name":"STREET","type":"esriFieldTypeString","alias":"STREET","length":20},{"name":"SECT","type":"esriFieldTypeString","alias":"SECT","length":8},{"name":"MAREA","type":"esriFieldTypeString","alias":"MAREA","length":12},{"name":"LANE","type":"esriFieldTypeString","alias":"LANE","length":10},{"name":"ALLEY","type":"esriFieldTypeString","alias":"ALLEY","length":10},{"name":"HOUSE_NO","type":"esriFieldTypeString","alias":"HOUSE_NO","length":20},{"name":"E_COORD97","type":"esriFieldTypeDouble","alias":"E_COORD97"},{"name":"N_COORD97","type":"esriFieldTypeDouble","alias":"N_COORD97"},{"name":"ADDRESS","type":"esriFieldTypeString","alias":"ADDRESS","length":50},{"name":"OBJECTID","type":"esriFieldTypeOID","alias":"OBJECTID"}],"features":[{"attributes":{"ID":1001,"DIS_CODE":0,"TOWNNAME":"佳里區","LI":"通興里","LIN":"5鄰","STREET":" ","SECT":" ","MAREA":"東勢寮","LANE":" ","ALLEY":" ","HOUSE_NO":"２０號之３","E_COORD97":163845.029843,"N_COORD97":2560254.47199,"ADDRESS":"東勢寮２０號之３","OBJECTID":1001},"geometry":{"x":163845.0298430007,"y":2560254.4719890021}},{"attributes":{"ID":1002,"DIS_CODE":0,"TOWNNAME":"安南區","LI":"城東里","LIN":"14鄰","STREET":"城北路","SECT":" ","MAREA":" ","LANE":" ","ALLEY":" ","HOUSE_NO":"４８４號之６","E_COORD97":160914.75585799999,"N_COORD97":2552404.7675899998,"ADDRESS":"城北路４８４號之６","OBJECTID":1002},"geometry":{"x":160914.7558580013,"y":2552404.7675940022}},{"attributes":{"ID":1003,"DIS_CODE":0,"TOWNNAME":"安南區","LI":"城東里","LIN":"2鄰","STREET":"城北路","SECT":" ","MAREA":" ","LANE":" ","ALLEY":" ","HOUSE_NO":"２３６號之１７","E_COORD97":160936.98782800001,"N_COORD97":2551977.6244899998,"ADDRESS":"城北路２３６號之１７","OBJECTID":1003},"geometry":{"x":160936.98782800138,"y":2551977.6244919989}},{"attributes":{"ID":1004,"DIS_CODE":0,"TOWNNAME":"安南區","LI":"城東里","LIN":"15鄰","STREET":"城北路","SECT":" ","MAREA":" ","LANE":"２３４巷","ALLEY":"１０５弄","HOUSE_NO":"２１號","E_COORD97":161205.46532799999,"N_COORD97":2551854.43456,"ADDRESS":"城北路２３４巷１０５弄２１號","OBJECTID":1004},"geometry":{"x":161205.46532799955,"y":2551854.4345580023}},{"attributes":{"ID":1005,"DIS_CODE":0,"TOWNNAME":"安南區","LI":"城東里","LIN":"1鄰","STREET":"安明路","SECT":"四段","MAREA":" ","LANE":"６９６巷","ALLEY":" ","HOUSE_NO":"５號","E_COORD97":161332.50515499999,"N_COORD97":2551741.6162899998,"ADDRESS":"安明路四段６９６巷５號","OBJECTID":1005},"geometry":{"x":161332.50515500084,"y":2551741.6162860002}},{"attributes":{"ID":1006,"DIS_CODE":0,"TOWNNAME":"新營區","LI":"南興里","LIN":"14鄰","STREET":"興農街","SECT":" ","MAREA":" ","LANE":"１３６巷","ALLEY":" ","HOUSE_NO":"１９之１號","E_COORD97":179231.21424599999,"N_COORD97":2577609.4811999998,"ADDRESS":"興農街１３６巷１９之１號","OBJECTID":1006},"geometry":{"x":179231.21424600016,"y":2577609.4811950028}},{"attributes":{"ID":1007,"DIS_CODE":0,"TOWNNAME":"關廟區","LI":"埤頭里","LIN":"1鄰","STREET":"關新路","SECT":"一段","MAREA":" ","LANE":" ","ALLEY":" ","HOUSE_NO":"６９９號","E_COORD97":179110.29743599999,"N_COORD97":2543594.08293,"ADDRESS":"關新路一段６９９號","OBJECTID":1007},"geometry":{"x":179110.29743599985,"y":2543594.0829289984}},{"attributes":{"ID":1008,"DIS_CODE":0,"TOWNNAME":"新市區","LI":"大社里","LIN":"3鄰","STREET":" ","SECT":" ","MAREA":"大社","LANE":" ","ALLEY":" ","HOUSE_NO":"１００號","E_COORD97":180289.502343,"N_COORD97":2554404.0041399999,"ADDRESS":"大社１００號","OBJECTID":1008},"geometry":{"x":180289.50234300084,"y":2554404.0041350015}},{"attributes":{"ID":1009,"DIS_CODE":0,"TOWNNAME":"新營區","LI":"南興里","LIN":"14鄰","STREET":"興農街","SECT":" ","MAREA":" ","LANE":"１３６巷","ALLEY":" ","HOUSE_NO":"５號","E_COORD97":179250.70741,"N_COORD97":2577609.4348900001,"ADDRESS":"興農街１３６巷５號","OBJECTID":1009},"geometry":{"x":179250.70741000213,"y":2577609.4348930009}},{"attributes":{"ID":1010,"DIS_CODE":0,"TOWNNAME":"南區","LI":"新興里","LIN":"2鄰","STREET":"西門路","SECT":"一段","MAREA":" ","LANE":"４７１巷","ALLEY":" ","HOUSE_NO":"８號","E_COORD97":167686.03737000001,"N_COORD97":2542516.9293399998,"ADDRESS":"西門路一段４７１巷８號","OBJECTID":1010},"geometry":{"x":167686.03737000003,"y":2542516.9293410033}},{"attributes":{"ID":1011,"DIS_CODE":0,"TOWNNAME":"新營區","LI":"南興里","LIN":"14鄰","STREET":"興農街","SECT":" ","MAREA":" ","LANE":"１３６巷","ALLEY":" ","HOUSE_NO":"７號","E_COORD97":179248.16482400001,"N_COORD97":2577609.01156,"ADDRESS":"興農街１３６巷７號","OBJECTID":1011},"geometry":{"x":179248.16482400056,"y":2577609.0115600023}},{"attributes":{"ID":1012,"DIS_CODE":0,"TOWNNAME":"新營區","LI":"南興里","LIN":"14鄰","STREET":"興農街","SECT":" ","MAREA":" ","LANE":"１３６巷","ALLEY":" ","HOUSE_NO":"９號","E_COORD97":179246.04600199999,"N_COORD97":2577609.01156,"ADDRESS":"興農街１３６巷９號","OBJECTID":1012},"geometry":{"x":179246.04600200057,"y":2577609.0115600023}},{"attributes":{"ID":1013,"DIS_CODE":0,"TOWNNAME":"仁德區","LI":"後壁里","LIN":"4鄰","STREET":"德善路","SECT":" ","MAREA":" ","LANE":" ","ALLEY":" ","HOUSE_NO":"４５號","E_COORD97":173328.99958999999,"N_COORD97":2538923.8311399999,"ADDRESS":"德善路４５號","OBJECTID":1013},"geometry":{"x":173328.99959000014,"y":2538923.8311439995}},{"attributes":{"ID":1014,"DIS_CODE":0,"TOWNNAME":"新營區","LI":"南興里","LIN":"14鄰","STREET":"興農街","SECT":" ","MAREA":" ","LANE":"１３６巷","ALLEY":" ","HOUSE_NO":"１１號","E_COORD97":179243.50341500001,"N_COORD97":2577609.01156,"ADDRESS":"興農街１３６巷１１號","OBJECTID":1014},"geometry":{"x":179243.50341499969,"y":2577609.0115600023}},{"attributes":{"ID":1015,"DIS_CODE":0,"TOWNNAME":"關廟區","LI":"埤頭里","LIN":"1鄰","STREET":"關新路","SECT":"一段","MAREA":" ","LANE":" ","ALLEY":" ","HOUSE_NO":"７３７號","E_COORD97":179124.87,"N_COORD97":2543678.2999999998,"ADDRESS":"關新路一段７３７號","OBJECTID":1015},"geometry":{"x":179124.87000000104,"y":2543678.3000000026}},{"attributes":{"ID":1016,"DIS_CODE":0,"TOWNNAME":"新營區","LI":"南興里","LIN":"14鄰","STREET":"興農街","SECT":" ","MAREA":" ","LANE":"１３６巷","ALLEY":" ","HOUSE_NO":"３號","E_COORD97":179254.09752000001,"N_COORD97":2577609.1173899998,"ADDRESS":"興農街１３６巷３號","OBJECTID":1016},"geometry":{"x":179254.09752000123,"y":2577609.1173900012}},{"attributes":{"ID":1017,"DIS_CODE":0,"TOWNNAME":"新營區","LI":"南興里","LIN":"14鄰","STREET":"興農街","SECT":" ","MAREA":" ","LANE":"１３６巷","ALLEY":" ","HOUSE_NO":"１３號","E_COORD97":179240.96082000001,"N_COORD97":2577609.01156,"ADDRESS":"興農街１３６巷１３號","OBJECTID":1017},"geometry":{"x":179240.96081999969,"y":2577609.0115600023}},{"attributes":{"ID":1018,"DIS_CODE":0,"TOWNNAME":"新營區","LI":"南興里","LIN":"14鄰","STREET":"興農街","SECT":" ","MAREA":" ","LANE":"１３６巷","ALLEY":" ","HOUSE_NO":"１７號","E_COORD97":179235.87565,"N_COORD97":2577609.8582199998,"ADDRESS":"興農街１３６巷１７號","OBJECTID":1018},"geometry":{"x":179235.87565000076,"y":2577609.8582199998}},{"attributes":{"ID":1019,"DIS_CODE":0,"TOWNNAME":"新營區","LI":"南興里","LIN":"14鄰","STREET":"興農街","SECT":" ","MAREA":" ","LANE":"１３６巷","ALLEY":" ","HOUSE_NO":"１５號","E_COORD97":179238.63011999999,"N_COORD97":2577609.01156,"ADDRESS":"興農街１３６巷１５號","OBJECTID":1019},"geometry":{"x":179238.63011999987,"y":2577609.0115600023}},{"attributes":{"ID":1020,"DIS_CODE":0,"TOWNNAME":"關廟區","LI":"埤頭里","LIN":"1鄰","STREET":"關新路","SECT":"一段","MAREA":" ","LANE":"６６５巷","ALLEY":" ","HOUSE_NO":"１０１號","E_COORD97":178992.07540999999,"N_COORD97":2543475.02049,"ADDRESS":"關新路一段６６５巷１０１號","OBJECTID":1020},"geometry":{"x":178992.07541000005,"y":2543475.0204900019}},{"attributes":{"ID":1021,"DIS_CODE":0,"TOWNNAME":"新市區","LI":"大社里","LIN":"2鄰","STREET":" ","SECT":" ","MAREA":"大社","LANE":" ","ALLEY":" ","HOUSE_NO":"１１７號","E_COORD97":180365.67041699999,"N_COORD97":2554329.1322599999,"ADDRESS":"大社１１７號","OBJECTID":1021},"geometry":{"x":180365.67041699961,"y":2554329.1322639994}},{"attributes":{"ID":1022,"DIS_CODE":0,"TOWNNAME":"新營區","LI":"南興里","LIN":"14鄰","STREET":"興農街","SECT":" ","MAREA":" ","LANE":"１３６巷","ALLEY":" ","HOUSE_NO":"１９號","E_COORD97":179233.33306800001,"N_COORD97":2577609.4811999998,"ADDRESS":"興農街１３６巷１９號","OBJECTID":1022},"geometry":{"x":179233.33306800108,"y":2577609.4811950028}},{"attributes":{"ID":1023,"DIS_CODE":0,"TOWNNAME":"新市區","LI":"大社里","LIN":"1鄰","STREET":" ","SECT":" ","MAREA":"大社","LANE":" ","ALLEY":" ","HOUSE_NO":"１２號","E_COORD97":180296.609451,"N_COORD97":2553721.86093,"ADDRESS":"大社１２號","OBJECTID":1023},"geometry":{"x":180296.60945100058,"y":2553721.8609250039}},{"attributes":{"ID":1024,"DIS_CODE":0,"TOWNNAME":"關廟區","LI":"埤頭里","LIN":"1鄰","STREET":"關新路","SECT":"一段","MAREA":" ","LANE":" ","ALLEY":" ","HOUSE_NO":"７０３號","E_COORD97":179126.39936000001,"N_COORD97":2543593.2362600002,"ADDRESS":"關新路一段７０３號","OBJECTID":1024},"geometry":{"x":179126.39936000109,"y":2543593.2362630032}},{"attributes":{"ID":1025,"DIS_CODE":0,"TOWNNAME":"新營區","LI":"南興里","LIN":"14鄰","STREET":"興農街","SECT":" ","MAREA":" ","LANE":"１３６巷","ALLEY":" ","HOUSE_NO":"１９之２號","E_COORD97":179228.830571,"N_COORD97":2577609.7193200001,"ADDRESS":"興農街１３６巷１９之２號","OBJECTID":1025},"geometry":{"x":179228.83057100046,"y":2577609.7193200011}},{"attributes":{"ID":1026,"DIS_CODE":0,"TOWNNAME":"新市區","LI":"大社里","LIN":"1鄰","STREET":" ","SECT":" ","MAREA":"大社","LANE":" ","ALLEY":" ","HOUSE_NO":"１３３號","E_COORD97":180229.87876299999,"N_COORD97":2554220.5473199999,"ADDRESS":"大社１３３號","OBJECTID":1026},"geometry":{"x":180229.87876300141,"y":2554220.5473220013}},{"attributes":{"ID":1027,"DIS_CODE":0,"TOWNNAME":"關廟區","LI":"埤頭里","LIN":"1鄰","STREET":"關新路","SECT":"一段","MAREA":" ","LANE":" ","ALLEY":" ","HOUSE_NO":"７１９號","E_COORD97":179128.72990199999,"N_COORD97":2543642.3429,"ADDRESS":"關新路一段７１９號","OBJECTID":1027},"geometry":{"x":179128.7299020011,"y":2543642.3429029994}},{"attributes":{"ID":1028,"DIS_CODE":0,"TOWNNAME":"新營區","LI":"南興里","LIN":"14鄰","STREET":"興農街","SECT":" ","MAREA":" ","LANE":"１３６巷","ALLEY":" ","HOUSE_NO":"１９之３號","E_COORD97":179224.80480899999,"N_COORD97":2577609.7193200001,"ADDRESS":"興農街１３６巷１９之３號","OBJECTID":1028},"geometry":{"x":179224.80480900127,"y":2577609.7193200011}},{"attributes":{"ID":1029,"DIS_CODE":0,"TOWNNAME":"新市區","LI":"大社里","LIN":"4鄰","STREET":" ","SECT":" ","MAREA":"大社","LANE":" ","ALLEY":" ","HOUSE_NO":"１６８號","E_COORD97":180112.51748800001,"N_COORD97":2554323.8406000002,"ADDRESS":"大社１６８號","OBJECTID":1029},"geometry":{"x":180112.51748800091,"y":2554323.8405999988}},{"attributes":{"ID":1030,"DIS_CODE":0,"TOWNNAME":"安南區","LI":"\u25A0南里","LIN":"22鄰","STREET":"長和路","SECT":"二段","MAREA":" ","LANE":"１２巷","ALLEY":" ","HOUSE_NO":"３２２號","E_COORD97":170400.64999999999,"N_COORD97":2552350.9100000001,"ADDRESS":"長和路二段１２巷３２２號","OBJECTID":1030},"geometry":{"x":170400.65000000037,"y":2552350.9100000001}},{"attributes":{"ID":1031,"DIS_CODE":0,"TOWNNAME":"安南區","LI":"\u25A0南里","LIN":"22鄰","STREET":"長和路","SECT":"二段","MAREA":" ","LANE":"１２巷","ALLEY":" ","HOUSE_NO":"３３９號","E_COORD97":170370.29999999999,"N_COORD97":2552379.8199999998,"ADDRESS":"長和路二段１２巷３３９號","OBJECTID":1031},"geometry":{"x":170370.29999999981,"y":2552379.820000004}},{"attributes":{"ID":1032,"DIS_CODE":0,"TOWNNAME":"安南區","LI":"\u25A0南里","LIN":"22鄰","STREET":"長和路","SECT":"二段","MAREA":" ","LANE":"１２巷","ALLEY":" ","HOUSE_NO":"３２４號","E_COORD97":170400.31,"N_COORD97":2552355.48,"ADDRESS":"長和路二段１２巷３２４號","OBJECTID":1032},"geometry":{"x":170400.30999999959,"y":2552355.4800000023}},{"attributes":{"ID":1033,"DIS_CODE":0,"TOWNNAME":"官田區","LI":"隆本里","LIN":"15鄰","STREET":"和平街","SECT":"二段","MAREA":" ","LANE":" ","ALLEY":" ","HOUSE_NO":"１０１號","E_COORD97":179482.92297000001,"N_COORD97":2566298.4324500002,"ADDRESS":"和平街二段１０１號","OBJECTID":1033},"geometry":{"x":179482.92296999972,"y":2566298.4324479997}},{"attributes":{"ID":1034,"DIS_CODE":0,"TOWNNAME":"安南區","LI":"\u25A0南里","LIN":"22鄰","STREET":"長和路","SECT":"二段","MAREA":" ","LANE":"１２巷","ALLEY":" ","HOUSE_NO":"３２６號","E_COORD97":170399.97,"N_COORD97":2552359.8700000001,"ADDRESS":"長和路二段１２巷３２６號","OBJECTID":1034},"geometry":{"x":170399.9700000016,"y":2552359.8700000048}},{"attributes":{"ID":1035,"DIS_CODE":0,"TOWNNAME":"安南區","LI":"\u25A0南里","LIN":"22鄰","STREET":"長和路","SECT":"二段","MAREA":" ","LANE":"１２巷","ALLEY":" ","HOUSE_NO":"３２７號","E_COORD97":170370.47,"N_COORD97":2552355.3500000001,"ADDRESS":"長和路二段１２巷３２７號","OBJECTID":1035},"geometry":{"x":170370.46999999974,"y":2552355.3500000015}},{"attributes":{"ID":1036,"DIS_CODE":0,"TOWNNAME":"安南區","LI":"\u25A0南里","LIN":"22鄰","STREET":"長和路","SECT":"二段","MAREA":" ","LANE":"１２巷","ALLEY":" ","HOUSE_NO":"３２９號","E_COORD97":170370.79999999999,"N_COORD97":2552359.9100000001,"ADDRESS":"長和路二段１２巷３２９號","OBJECTID":1036},"geometry":{"x":170370.80000000168,"y":2552359.910000002}},{"attributes":{"ID":1037,"DIS_CODE":0,"TOWNNAME":"安南區","LI":"\u25A0南里","LIN":"22鄰","STREET":"長和路","SECT":"二段","MAREA":" ","LANE":"１２巷","ALLEY":" ","HOUSE_NO":"３３０號","E_COORD97":170400.14000000001,"N_COORD97":2552367.6699999999,"ADDRESS":"長和路二段１２巷３３０號","OBJECTID":1037},"geometry":{"x":170400.13999999966,"y":2552367.6700000018}},{"attributes":{"ID":1038,"DIS_CODE":0,"TOWNNAME":"安南區","LI":"\u25A0南里","LIN":"22鄰","STREET":"長和路","SECT":"二段","MAREA":" ","LANE":"１２巷","ALLEY":" ","HOUSE_NO":"３３１號","E_COORD97":170370.64000000001,"N_COORD97":2552363.6499999999,"ADDRESS":"長和路二段１２巷３３１號","OBJECTID":1038},"geometry":{"x":170370.6400000006,"y":2552363.6500000004}},{"attributes":{"ID":1039,"DIS_CODE":0,"TOWNNAME":"安南區","LI":"\u25A0南里","LIN":"22鄰","STREET":"長和路","SECT":"二段","MAREA":" ","LANE":"１２巷","ALLEY":" ","HOUSE_NO":"３３２號","E_COORD97":170400.14000000001,"N_COORD97":2552371.5699999998,"ADDRESS":"長和路二段１２巷３３２號","OBJECTID":1039},"geometry":{"x":170400.13999999966,"y":2552371.5700000022}},{"attributes":{"ID":1040,"DIS_CODE":0,"TOWNNAME":"安南區","LI":"\u25A0南里","LIN":"22鄰","STREET":"長和路","SECT":"二段","MAREA":" ","LANE":"１２巷","ALLEY":" ","HOUSE_NO":"３３５號","E_COORD97":170370.64000000001,"N_COORD97":2552372.04,"ADDRESS":"長和路二段１２巷３３５號","OBJECTID":1040},"geometry":{"x":170370.6400000006,"y":2552372.0399999991}},{"attributes":{"ID":1041,"DIS_CODE":0,"TOWNNAME":"安南區","LI":"\u25A0南里","LIN":"22鄰","STREET":"長和路","SECT":"二段","MAREA":" ","LANE":"１２巷","ALLEY":" ","HOUSE_NO":"３３６號","E_COORD97":170400.31,"N_COORD97":2552380.2000000002,"ADDRESS":"長和路二段１２巷３３６號","OBJECTID":1041},"geometry":{"x":170400.30999999959,"y":2552380.2000000011}},{"attributes":{"ID":1042,"DIS_CODE":0,"TOWNNAME":"安南區","LI":"\u25A0南里","LIN":"22鄰","STREET":"長和路","SECT":"二段","MAREA":" ","LANE":"１２巷","ALLEY":" ","HOUSE_NO":"３３７號","E_COORD97":170370.47,"N_COORD97":2552375.7599999998,"ADDRESS":"長和路二段１２巷３３７號","OBJECTID":1042},"geometry":{"x":170370.46999999974,"y":2552375.7599999998}},{"attributes":{"ID":1043,"DIS_CODE":0,"TOWNNAME":"安南區","LI":"\u25A0南里","LIN":"22鄰","STREET":"長和路","SECT":"二段","MAREA":" ","LANE":"１２巷","ALLEY":" ","HOUSE_NO":"３３８號","E_COORD97":170399.97,"N_COORD97":2552384.1000000001,"ADDRESS":"長和路二段１２巷３３８號","OBJECTID":1043},"geometry":{"x":170399.9700000016,"y":2552384.1000000034}},{"attributes":{"ID":1044,"DIS_CODE":0,"TOWNNAME":"安南區","LI":"\u25A0南里","LIN":"22鄰","STREET":"長和路","SECT":"二段","MAREA":" ","LANE":"１２巷","ALLEY":" ","HOUSE_NO":"３４０號","E_COORD97":170399.79999999999,"N_COORD97":2552387.8199999998,"ADDRESS":"長和路二段１２巷３４０號","OBJECTID":1044},"geometry":{"x":170399.80000000075,"y":2552387.8200000022}},{"attributes":{"ID":1045,"DIS_CODE":0,"TOWNNAME":"安南區","LI":"\u25A0南里","LIN":"22鄰","STREET":"長和路","SECT":"二段","MAREA":" ","LANE":"１２巷","ALLEY":" ","HOUSE_NO":"３４１號","E_COORD97":170370.47,"N_COORD97":2552383.7200000002,"ADDRESS":"長和路二段１２巷３４１號","OBJECTID":1045},"geometry":{"x":170370.46999999974,"y":2552383.7200000007}},{"attributes":{"ID":1046,"DIS_CODE":0,"TOWNNAME":"安南區","LI":"\u25A0南里","LIN":"22鄰","STREET":"長和路","SECT":"二段","MAREA":" ","LANE":"１２巷","ALLEY":" ","HOUSE_NO":"３４２號","E_COORD97":170399.97,"N_COORD97":2552392.3900000001,"ADDRESS":"長和路二段１２巷３４２號","OBJECTID":1046},"geometry":{"x":170399.9700000016,"y":2552392.3900000006}},{"attributes":{"ID":1047,"DIS_CODE":0,"TOWNNAME":"安南區","LI":"\u25A0南里","LIN":"22鄰","STREET":"長和路","SECT":"二段","MAREA":" ","LANE":"１２巷","ALLEY":" ","HOUSE_NO":"３４３號","E_COORD97":170370.29999999999,"N_COORD97":2552387.9500000002,"ADDRESS":"長和路二段１２巷３４３號","OBJECTID":1047},"geometry":{"x":170370.29999999981,"y":2552387.950000003}},{"attributes":{"ID":1048,"DIS_CODE":0,"TOWNNAME":"安南區","LI":"\u25A0南里","LIN":"22鄰","STREET":"長和路","SECT":"二段","MAREA":" ","LANE":"１２巷","ALLEY":" ","HOUSE_NO":"３４４號","E_COORD97":170399.79999999999,"N_COORD97":2552396.6200000001,"ADDRESS":"長和路二段１２巷３４４號","OBJECTID":1048},"geometry":{"x":170399.80000000075,"y":2552396.6200000029}},{"attributes":{"ID":1049,"DIS_CODE":0,"TOWNNAME":"安南區","LI":"\u25A0南里","LIN":"22鄰","STREET":"長和路","SECT":"二段","MAREA":" ","LANE":"１２巷","ALLEY":" ","HOUSE_NO":"３４５號","E_COORD97":170370.13,"N_COORD97":2552392.52,"ADDRESS":"長和路二段１２巷３４５號","OBJECTID":1049},"geometry":{"x":170370.12999999989,"y":2552392.5200000014}},{"attributes":{"ID":1050,"DIS_CODE":0,"TOWNNAME":"安南區","LI":"\u25A0南里","LIN":"22鄰","STREET":"長和路","SECT":"二段","MAREA":" ","LANE":"１２巷","ALLEY":" ","HOUSE_NO":"３４６號","E_COORD97":170399.29000000001,"N_COORD97":2552400.6899999999,"ADDRESS":"長和路二段１２巷３４６號","OBJECTID":1050},"geometry":{"x":170399.29000000004,"y":2552400.6900000013}},{"attributes":{"ID":1051,"DIS_CODE":0,"TOWNNAME":"安南區","LI":"\u25A0南里","LIN":"22鄰","STREET":"長和路","SECT":"二段","MAREA":" ","LANE":"１２巷","ALLEY":" ","HOUSE_NO":"３４７號","E_COORD97":170369.95999999999,"N_COORD97":2552396.5899999999,"ADDRESS":"長和路二段１２巷３４７號","OBJECTID":1051},"geometry":{"x":170369.96000000089,"y":2552396.5899999999}},{"attributes":{"ID":1052,"DIS_CODE":0,"TOWNNAME":"安南區","LI":"\u25A0南里","LIN":"22鄰","STREET":"長和路","SECT":"二段","MAREA":" ","LANE":"１２巷","ALLEY":" ","HOUSE_NO":"３４８號","E_COORD97":170399.63,"N_COORD97":2552404.0699999998,"ADDRESS":"長和路二段１２巷３４８號","OBJECTID":1052},"geometry":{"x":170399.63000000082,"y":2552404.0700000003}},{"attributes":{"ID":1053,"DIS_CODE":0,"TOWNNAME":"安南區","LI":"\u25A0南里","LIN":"22鄰","STREET":"長和路","SECT":"二段","MAREA":" ","LANE":"１２巷","ALLEY":" ","HOUSE_NO":"３４９號","E_COORD97":170369.79000000001,"N_COORD97":2552400.3100000001,"ADDRESS":"長和路二段１２巷３４９號","OBJECTID":1053},"geometry":{"x":170369.79000000097,"y":2552400.3100000042}},{"attributes":{"ID":1054,"DIS_CODE":0,"TOWNNAME":"安南區","LI":"\u25A0南里","LIN":"22鄰","STREET":"長和路","SECT":"二段","MAREA":" ","LANE":"１２巷","ALLEY":" ","HOUSE_NO":"３５０號","E_COORD97":170399.45999999999,"N_COORD97":2552407.9700000002,"ADDRESS":"長和路二段１２巷３５０號","OBJECTID":1054},"geometry":{"x":170399.46000000089,"y":2552407.9700000007}},{"attributes":{"ID":1055,"DIS_CODE":0,"TOWNNAME":"安南區","LI":"\u25A0南里","LIN":"22鄰","STREET":"長和路","SECT":"二段","MAREA":" ","LANE":"１２巷","ALLEY":" ","HOUSE_NO":"３５１號","E_COORD97":170369.62,"N_COORD97":2552405.4300000002,"ADDRESS":"長和路二段１２巷３５１號","OBJECTID":1055},"geometry":{"x":170369.62000000104,"y":2552405.4300000034}},{"attributes":{"ID":1056,"DIS_CODE":0,"TOWNNAME":"安南區","LI":"\u25A0南里","LIN":"22鄰","STREET":"長和路","SECT":"二段","MAREA":" ","LANE":"１２巷","ALLEY":" ","HOUSE_NO":"３５２號","E_COORD97":170399.45999999999,"N_COORD97":2552413.2200000002,"ADDRESS":"長和路二段１２巷３５２號","OBJECTID":1056},"geometry":{"x":170399.46000000089,"y":2552413.2200000007}},{"attributes":{"ID":1057,"DIS_CODE":0,"TOWNNAME":"安南區","LI":"\u25A0南里","LIN":"22鄰","STREET":"長和路","SECT":"二段","MAREA":" ","LANE":"１２巷","ALLEY":" ","HOUSE_NO":"３５３號","E_COORD97":170369.62,"N_COORD97":2552408.8199999998,"ADDRESS":"長和路二段１２巷３５３號","OBJECTID":1057},"geometry":{"x":170369.62000000104,"y":2552408.8200000003}},{"attributes":{"ID":1058,"DIS_CODE":0,"TOWNNAME":"安南區","LI":"\u25A0南里","LIN":"22鄰","STREET":"長和路","SECT":"二段","MAREA":" ","LANE":"１２巷","ALLEY":" ","HOUSE_NO":"３５４號","E_COORD97":170399.29000000001,"N_COORD97":2552417.2799999998,"ADDRESS":"長和路二段１２巷３５４號","OBJECTID":1058},"geometry":{"x":170399.29000000004,"y":2552417.2800000012}},{"attributes":{"ID":1059,"DIS_CODE":0,"TOWNNAME":"安南區","LI":"\u25A0南里","LIN":"22鄰","STREET":"長和路","SECT":"二段","MAREA":" ","LANE":"１２巷","ALLEY":" ","HOUSE_NO":"３５５號","E_COORD97":170369.95999999999,"N_COORD97":2552413.0499999998,"ADDRESS":"長和路二段１２巷３５５號","OBJECTID":1059},"geometry":{"x":170369.96000000089,"y":2552413.0500000026}},{"attributes":{"ID":1060,"DIS_CODE":0,"TOWNNAME":"安南區","LI":"\u25A0南里","LIN":"22鄰","STREET":"長和路","SECT":"二段","MAREA":" ","LANE":"１２巷","ALLEY":" ","HOUSE_NO":"３５６號","E_COORD97":170398.62,"N_COORD97":2552421.3500000001,"ADDRESS":"長和路二段１２巷３５６號","OBJECTID":1060},"geometry":{"x":170398.62000000011,"y":2552421.3499999996}},{"attributes":{"ID":1061,"DIS_CODE":0,"TOWNNAME":"安南區","LI":"\u25A0南里","LIN":"22鄰","STREET":"長和路","SECT":"二段","MAREA":" ","LANE":"１２巷","ALLEY":" ","HOUSE_NO":"３５７號","E_COORD97":170370.13,"N_COORD97":2552417.79,"ADDRESS":"長和路二段１２巷３５７號","OBJECTID":1061},"geometry":{"x":170370.12999999989,"y":2552417.7899999991}},{"attributes":{"ID":1062,"DIS_CODE":0,"TOWNNAME":"安南區","LI":"\u25A0南里","LIN":"22鄰","STREET":"長和路","SECT":"二段","MAREA":" ","LANE":"１２巷","ALLEY":" ","HOUSE_NO":"３５８號","E_COORD97":170398.45000000001,"N_COORD97":2552425.4100000001,"ADDRESS":"長和路二段１２巷３５８號","OBJECTID":1062},"geometry":{"x":170398.45000000019,"y":2552425.4100000001}},{"attributes":{"ID":1063,"DIS_CODE":0,"TOWNNAME":"安南區","LI":"\u25A0南里","LIN":"22鄰","STREET":"長和路","SECT":"二段","MAREA":" ","LANE":"１２巷","ALLEY":" ","HOUSE_NO":"３５９號","E_COORD97":170370.13,"N_COORD97":2552421.3500000001,"ADDRESS":"長和路二段１２巷３５９號","OBJECTID":1063},"geometry":{"x":170370.12999999989,"y":2552421.3499999996}},{"attributes":{"ID":1064,"DIS_CODE":0,"TOWNNAME":"安南區","LI":"\u25A0南里","LIN":"25鄰","STREET":"長和路","SECT":"二段","MAREA":" ","LANE":"１２巷","ALLEY":"２７７弄","HOUSE_NO":"１２之１號","E_COORD97":170339.57000000001,"N_COORD97":2552239.04,"ADDRESS":"長和路二段１２巷２７７弄１２之１號","OBJECTID":1064},"geometry":{"x":170339.57000000123,"y":2552239.040000001}},{"attributes":{"ID":1065,"DIS_CODE":0,"TOWNNAME":"安南區","LI":"\u25A0南里","LIN":"25鄰","STREET":"長和路","SECT":"二段","MAREA":" ","LANE":"１２巷","ALLEY":"２７７弄","HOUSE_NO":"２０號","E_COORD97":170318.13,"N_COORD97":2552240.1899999999,"ADDRESS":"長和路二段１２巷２７７弄２０號","OBJECTID":1065},"geometry":{"x":170318.13000000082,"y":2552240.1899999995}},{"attributes":{"ID":1066,"DIS_CODE":0,"TOWNNAME":"安南區","LI":"\u25A0南里","LIN":"25鄰","STREET":"長和路","SECT":"二段","MAREA":" ","LANE":"１２巷","ALLEY":"２７７弄","HOUSE_NO":"２２號","E_COORD97":170309.13,"N_COORD97":2552240.6600000001,"ADDRESS":"長和路二段１２巷２７７弄２２號","OBJECTID":1066},"geometry":{"x":170309.12999999896,"y":2552240.6600000001}},{"attributes":{"ID":1067,"DIS_CODE":0,"TOWNNAME":"安南區","LI":"\u25A0南里","LIN":"25鄰","STREET":"長和路","SECT":"二段","MAREA":" ","LANE":"１２巷","ALLEY":"２７７弄","HOUSE_NO":"３０號","E_COORD97":170293.22,"N_COORD97":2552241.1200000001,"ADDRESS":"長和路二段１２巷２７７弄３０號","OBJECTID":1067},"geometry":{"x":170293.2200000016,"y":2552241.120000001}},{"attributes":{"ID":1068,"DIS_CODE":0,"TOWNNAME":"安南區","LI":"\u25A0南里","LIN":"25鄰","STREET":"長和路","SECT":"二段","MAREA":" ","LANE":"１２巷","ALLEY":"２７７弄","HOUSE_NO":"３２號","E_COORD97":170288.38,"N_COORD97":2552241.3500000001,"ADDRESS":"長和路二段１２巷２７７弄３２號","OBJECTID":1068},"geometry":{"x":170288.37999999989,"y":2552241.3500000015}},{"attributes":{"ID":1069,"DIS_CODE":0,"TOWNNAME":"安南區","LI":"\u25A0南里","LIN":"25鄰","STREET":"長和路","SECT":"二段","MAREA":" ","LANE":"１２巷","ALLEY":"２７７弄","HOUSE_NO":"３４號","E_COORD97":170283.98999999999,"N_COORD97":2552241.3500000001,"ADDRESS":"長和路二段１２巷２７７弄３４號","OBJECTID":1069},"geometry":{"x":170283.99000000115,"y":2552241.3500000015}},{"attributes":{"ID":1070,"DIS_CODE":0,"TOWNNAME":"安南區","LI":"\u25A0南里","LIN":"25鄰","STREET":"長和路","SECT":"二段","MAREA":" ","LANE":"１２巷","ALLEY":"２７７弄","HOUSE_NO":"１５號","E_COORD97":170321.82000000001,"N_COORD97":2552210.29,"ADDRESS":"長和路二段１２巷２７７弄１５號","OBJECTID":1070},"geometry":{"x":170321.8200000003,"y":2552210.290000001}},{"attributes":{"ID":1071,"DIS_CODE":0,"TOWNNAME":"安南區","LI":"\u25A0南里","LIN":"25鄰","STREET":"長和路","SECT":"二段","MAREA":" ","LANE":"１２巷","ALLEY":"２７７弄","HOUSE_NO":"１７號","E_COORD97":170316.75,"N_COORD97":2552210.75,"ADDRESS":"長和路二段１２巷２７７弄１７號","OBJECTID":1071},"geometry":{"x":170316.75,"y":2552210.7500000019}},{"attributes":{"ID":1072,"DIS_CODE":0,"TOWNNAME":"安南區","LI":"\u25A0南里","LIN":"25鄰","STREET":"長和路","SECT":"二段","MAREA":" ","LANE":"１２巷","ALLEY":"２７７弄","HOUSE_NO":"１９號","E_COORD97":170311.45000000001,"N_COORD97":2552210.52,"ADDRESS":"長和路二段１２巷２７７弄１９號","OBJECTID":1072},"geometry":{"x":170311.45000000112,"y":2552210.5199999996}},{"attributes":{"ID":1073,"DIS_CODE":0,"TOWNNAME":"安南區","LI":"\u25A0南里","LIN":"25鄰","STREET":"長和路","SECT":"二段","MAREA":" ","LANE":"１２巷","ALLEY":"２７７弄","HOUSE_NO":"２１號","E_COORD97":170307.29999999999,"N_COORD97":2552210.52,"ADDRESS":"長和路二段１２巷２７７弄２１號","OBJECTID":1073},"geometry":{"x":170307.29999999981,"y":2552210.5199999996}},{"attributes":{"ID":1074,"DIS_CODE":0,"TOWNNAME":"安南區","LI":"\u25A0南里","LIN":"25鄰","STREET":"長和路","SECT":"二段","MAREA":" ","LANE":"１２巷","ALLEY":"２７７弄","HOUSE_NO":"２３號","E_COORD97":170302.91,"N_COORD97":2552210.52,"ADDRESS":"長和路二段１２巷２７７弄２３號","OBJECTID":1074},"geometry":{"x":170302.91000000108,"y":2552210.5199999996}},{"attributes":{"ID":1075,"DIS_CODE":0,"TOWNNAME":"安南區","LI":"\u25A0南里","LIN":"25鄰","STREET":"長和路","SECT":"二段","MAREA":" ","LANE":"１２巷","ALLEY":"２７７弄","HOUSE_NO":"２５號","E_COORD97":170298.29999999999,"N_COORD97":2552210.29,"ADDRESS":"長和路二段１２巷２７７弄２５號","OBJECTID":1075},"geometry":{"x":170298.30000000075,"y":2552210.290000001}},{"attributes":{"ID":1076,"DIS_CODE":0,"TOWNNAME":"安南區","LI":"\u25A0南里","LIN":"25鄰","STREET":"長和路","SECT":"二段","MAREA":" ","LANE":"１２巷","ALLEY":"２７７弄","HOUSE_NO":"２７號","E_COORD97":170293,"N_COORD97":2552210.0600000001,"ADDRESS":"長和路二段１２巷２７７弄２７號","OBJECTID":1076},"geometry":{"x":170293,"y":2552210.0600000024}},{"attributes":{"ID":1077,"DIS_CODE":0,"TOWNNAME":"安南區","LI":"\u25A0南里","LIN":"25鄰","STREET":"長和路","SECT":"二段","MAREA":" ","LANE":"１２巷","ALLEY":"２７７弄","HOUSE_NO":"２９號","E_COORD97":170288.85000000001,"N_COORD97":2552210.0600000001,"ADDRESS":"長和路二段１２巷２７７弄２９號","OBJECTID":1077},"geometry":{"x":170288.85000000149,"y":2552210.0600000024}},{"attributes":{"ID":1078,"DIS_CODE":0,"TOWNNAME":"安南區","LI":"\u25A0南里","LIN":"25鄰","STREET":"長和路","SECT":"二段","MAREA":" ","LANE":"１２巷","ALLEY":"２７７弄","HOUSE_NO":"３１號","E_COORD97":170284,"N_COORD97":2552210.0600000001,"ADDRESS":"長和路二段１２巷２７７弄３１號","OBJECTID":1078},"geometry":{"x":170284,"y":2552210.0600000024}},{"attributes":{"ID":1079,"DIS_CODE":0,"TOWNNAME":"安南區","LI":"\u25A0南里","LIN":"25鄰","STREET":"長和路","SECT":"二段","MAREA":" ","LANE":"１２巷","ALLEY":"２６１弄","HOUSE_NO":"２２號","E_COORD97":170323.06,"N_COORD97":2552173.79,"ADDRESS":"長和路二段１２巷２６１弄２２號","OBJECTID":1079},"geometry":{"x":170323.06000000145,"y":2552173.7899999991}},{"attributes":{"ID":1080,"DIS_CODE":0,"TOWNNAME":"安南區","LI":"\u25A0南里","LIN":"25鄰","STREET":"長和路","SECT":"二段","MAREA":" ","LANE":"１２巷","ALLEY":"２６１弄","HOUSE_NO":"２４號","E_COORD97":170318.60000000001,"N_COORD97":2552174.1800000002,"ADDRESS":"長和路二段１２巷２６１弄２４號","OBJECTID":1080},"geometry":{"x":170318.59999999963,"y":2552174.1800000016}},{"attributes":{"ID":1081,"DIS_CODE":0,"TOWNNAME":"安南區","LI":"\u25A0南里","LIN":"25鄰","STREET":"長和路","SECT":"二段","MAREA":" ","LANE":"１２巷","ALLEY":"２６１弄","HOUSE_NO":"２６號","E_COORD97":170314.72,"N_COORD97":2552173.9900000002,"ADDRESS":"長和路二段１２巷２６１弄２６號","OBJECTID":1081},"geometry":{"x":170314.71999999974,"y":2552173.9900000002}},{"attributes":{"ID":1082,"DIS_CODE":0,"TOWNNAME":"安南區","LI":"\u25A0南里","LIN":"25鄰","STREET":"長和路","SECT":"二段","MAREA":" ","LANE":"１２巷","ALLEY":"２６１弄","HOUSE_NO":"２８號","E_COORD97":170309.48000000001,"N_COORD97":2552173.6000000001,"ADDRESS":"長和路二段１２巷２６１弄２８號","OBJECTID":1082},"geometry":{"x":170309.48000000138,"y":2552173.6000000034}},{"attributes":{"ID":1083,"DIS_CODE":0,"TOWNNAME":"安南區","LI":"\u25A0南里","LIN":"25鄰","STREET":"長和路","SECT":"二段","MAREA":" ","LANE":"１２巷","ALLEY":"２６１弄","HOUSE_NO":"３０號","E_COORD97":170314.19,"N_COORD97":2552184.6299999999,"ADDRESS":"長和路二段１２巷２６１弄３０號","OBJECTID":1083},"geometry":{"x":170314.19000000041,"y":2552184.629999999}},{"attributes":{"ID":1084,"DIS_CODE":0,"TOWNNAME":"安南區","LI":"\u25A0南里","LIN":"25鄰","STREET":"長和路","SECT":"二段","MAREA":" ","LANE":"１２巷","ALLEY":"２６１弄","HOUSE_NO":"３２號","E_COORD97":170313.98999999999,"N_COORD97":2552188.71,"ADDRESS":"長和路二段１２巷２６１弄３２號","OBJECTID":1084},"geometry":{"x":170313.99000000209,"y":2552188.7100000028}},{"attributes":{"ID":1085,"DIS_CODE":0,"TOWNNAME":"安南區","LI":"\u25A0南里","LIN":"25鄰","STREET":"長和路","SECT":"二段","MAREA":" ","LANE":"１２巷","ALLEY":"２６１弄","HOUSE_NO":"３４號","E_COORD97":170314.25,"N_COORD97":2552191.9900000002,"ADDRESS":"長和路二段１２巷２６１弄３４號","OBJECTID":1085},"geometry":{"x":170314.25000000093,"y":2552191.9900000039}},{"attributes":{"ID":1086,"DIS_CODE":0,"TOWNNAME":"安南區","LI":"\u25A0南里","LIN":"25鄰","STREET":"長和路","SECT":"二段","MAREA":" ","LANE":"１２巷","ALLEY":"２６１弄","HOUSE_NO":"３６號","E_COORD97":170289.01999999999,"N_COORD97":2552192.0600000001,"ADDRESS":"長和路二段１２巷２６１弄３６號","OBJECTID":1086},"geometry":{"x":170289.01999999955,"y":2552192.0600000042}},{"attributes":{"ID":1087,"DIS_CODE":0,"TOWNNAME":"安南區","LI":"\u25A0南里","LIN":"25鄰","STREET":"長和路","SECT":"二段","MAREA":" ","LANE":"１２巷","ALLEY":"２６１弄","HOUSE_NO":"３８號","E_COORD97":170289.14999999999,"N_COORD97":2552189.1099999999,"ADDRESS":"長和路二段１２巷２６１弄３８號","OBJECTID":1087},"geometry":{"x":170289.14999999944,"y":2552189.1099999994}},{"attributes":{"ID":1088,"DIS_CODE":0,"TOWNNAME":"安南區","LI":"\u25A0南里","LIN":"25鄰","STREET":"長和路","SECT":"二段","MAREA":" ","LANE":"１２巷","ALLEY":"２６１弄","HOUSE_NO":"４０號","E_COORD97":170289.28,"N_COORD97":2552184.5,"ADDRESS":"長和路二段１２巷２６１弄４０號","OBJECTID":1088},"geometry":{"x":170289.28000000026,"y":2552184.5}},{"attributes":{"ID":1089,"DIS_CODE":0,"TOWNNAME":"安南區","LI":"\u25A0南里","LIN":"25鄰","STREET":"長和路","SECT":"二段","MAREA":" ","LANE":"１２巷","ALLEY":"２６１弄","HOUSE_NO":"４２號","E_COORD97":170299.60000000001,"N_COORD97":2552173.79,"ADDRESS":"長和路二段１２巷２６１弄４２號","OBJECTID":1089},"geometry":{"x":170299.60000000056,"y":2552173.7899999991}},{"attributes":{"ID":1090,"DIS_CODE":0,"TOWNNAME":"安南區","LI":"\u25A0南里","LIN":"25鄰","STREET":"長和路","SECT":"二段","MAREA":" ","LANE":"１２巷","ALLEY":"２６１弄","HOUSE_NO":"４４號","E_COORD97":170295.14000000001,"N_COORD97":2552173.21,"ADDRESS":"長和路二段１２巷２６１弄４４號","OBJECTID":1090},"geometry":{"x":170295.13999999966,"y":2552173.2100000009}},{"attributes":{"ID":1091,"DIS_CODE":0,"TOWNNAME":"安南區","LI":"\u25A0南里","LIN":"25鄰","STREET":"長和路","SECT":"二段","MAREA":" ","LANE":"１２巷","ALLEY":"２６１弄","HOUSE_NO":"４６號","E_COORD97":170291.07000000001,"N_COORD97":2552172.6299999999,"ADDRESS":"長和路二段１２巷２６１弄４６號","OBJECTID":1091},"geometry":{"x":170291.0700000003,"y":2552172.6300000027}},{"attributes":{"ID":1092,"DIS_CODE":0,"TOWNNAME":"安南區","LI":"\u25A0南里","LIN":"25鄰","STREET":"長和路","SECT":"二段","MAREA":" ","LANE":"１２巷","ALLEY":"２６１弄","HOUSE_NO":"４８號","E_COORD97":170286.79999999999,"N_COORD97":2552172.6299999999,"ADDRESS":"長和路二段１２巷２６１弄４８號","OBJECTID":1092},"geometry":{"x":170286.80000000075,"y":2552172.6300000027}},{"attributes":{"ID":1093,"DIS_CODE":0,"TOWNNAME":"安南區","LI":"\u25A0南里","LIN":"25鄰","STREET":"長和路","SECT":"二段","MAREA":" ","LANE":"１２巷","ALLEY":"２６１弄","HOUSE_NO":"５０號","E_COORD97":170280.60000000001,"N_COORD97":2552172.0499999998,"ADDRESS":"長和路二段１２巷２６１弄５０號","OBJECTID":1093},"geometry":{"x":170280.60000000056,"y":2552172.0500000026}},{"attributes":{"ID":1094,"DIS_CODE":0,"TOWNNAME":"安南區","LI":"\u25A0南里","LIN":"25鄰","STREET":"長和路","SECT":"二段","MAREA":" ","LANE":"１２巷","ALLEY":"２６１弄","HOUSE_NO":"５２號","E_COORD97":170276.32999999999,"N_COORD97":2552171.6600000001,"ADDRESS":"長和路二段１２巷２６１弄５２號","OBJECTID":1094},"geometry":{"x":170276.33000000101,"y":2552171.660000002}},{"attributes":{"ID":1095,"DIS_CODE":0,"TOWNNAME":"安南區","LI":"\u25A0南里","LIN":"25鄰","STREET":"長和路","SECT":"二段","MAREA":" ","LANE":"１２巷","ALLEY":"２６１弄","HOUSE_NO":"５４號","E_COORD97":170271.87,"N_COORD97":2552171.4700000002,"ADDRESS":"長和路二段１２巷２６１弄５４號","OBJECTID":1095},"geometry":{"x":170271.87000000011,"y":2552171.4700000007}},{"attributes":{"ID":1096,"DIS_CODE":0,"TOWNNAME":"安南區","LI":"\u25A0南里","LIN":"25鄰","STREET":"長和路","SECT":"二段","MAREA":" ","LANE":"１２巷","ALLEY":"２７７弄","HOUSE_NO":"３３號","E_COORD97":170279.39000000001,"N_COORD97":2552210.0600000001,"ADDRESS":"長和路二段１２巷２７７弄３３號","OBJECTID":1096},"geometry":{"x":170279.38999999966,"y":2552210.0600000024}},{"attributes":{"ID":1097,"DIS_CODE":0,"TOWNNAME":"安南區","LI":"\u25A0南里","LIN":"25鄰","STREET":"長和路","SECT":"二段","MAREA":" ","LANE":"１２巷","ALLEY":"２７７弄","HOUSE_NO":"３５號","E_COORD97":170275.01000000001,"N_COORD97":2552210.0600000001,"ADDRESS":"長和路二段１２巷２７７弄３５號","OBJECTID":1097},"geometry":{"x":170275.01000000071,"y":2552210.0600000024}},{"attributes":{"ID":1098,"DIS_CODE":0,"TOWNNAME":"安南區","LI":"\u25A0南里","LIN":"25鄰","STREET":"長和路","SECT":"二段","MAREA":" ","LANE":"１２巷","ALLEY":"２７７弄","HOUSE_NO":"３７號","E_COORD97":170269.92999999999,"N_COORD97":2552210.29,"ADDRESS":"長和路二段１２巷２７７弄３７號","OBJECTID":1098},"geometry":{"x":170269.93000000063,"y":2552210.290000001}},{"attributes":{"ID":1099,"DIS_CODE":0,"TOWNNAME":"安南區","LI":"\u25A0南里","LIN":"25鄰","STREET":"長和路","SECT":"二段","MAREA":" ","LANE":"１２巷","ALLEY":"２７７弄","HOUSE_NO":"３９號","E_COORD97":170270.31,"N_COORD97":2552191.73,"ADDRESS":"長和路二段１２巷２７７弄３９號","OBJECTID":1099},"geometry":{"x":170270.30999999866,"y":2552191.7300000023}},{"attributes":{"ID":1100,"DIS_CODE":0,"TOWNNAME":"安南區","LI":"\u25A0南里","LIN":"25鄰","STREET":"長和路","SECT":"二段","MAREA":" ","LANE":"１２巷","ALLEY":"２７７弄","HOUSE_NO":"４１號","E_COORD97":170271.23999999999,"N_COORD97":2552187.1200000001,"ADDRESS":"長和路二段１２巷２７７弄４１號","OBJECTID":1100},"geometry":{"x":170271.24000000022,"y":2552187.120000001}},{"attributes":{"ID":1101,"DIS_CODE":0,"TOWNNAME":"安南區","LI":"\u25A0南里","LIN":"25鄰","STREET":"長和路","SECT":"二段","MAREA":" ","LANE":"１２巷","ALLEY":"２７７弄","HOUSE_NO":"１０號","E_COORD97":170348.79999999999,"N_COORD97":2552238.8100000001,"ADDRESS":"長和路二段１２巷２７７弄１０號","OBJECTID":1101},"geometry":{"x":170348.80000000168,"y":2552238.8100000024}},{"attributes":{"ID":1102,"DIS_CODE":0,"TOWNNAME":"安南區","LI":"\u25A0南里","LIN":"25鄰","STREET":"長和路","SECT":"二段","MAREA":" ","LANE":"１２巷","ALLEY":"２７７弄","HOUSE_NO":"１１號","E_COORD97":170330.31,"N_COORD97":2552212.8199999998,"ADDRESS":"長和路二段１２巷２７７弄１１號","OBJECTID":1102},"geometry":{"x":170330.31000000052,"y":2552212.8200000003}},{"attributes":{"ID":1103,"DIS_CODE":0,"TOWNNAME":"安南區","LI":"\u25A0南里","LIN":"25鄰","STREET":"長和路","SECT":"二段","MAREA":" ","LANE":"１２巷","ALLEY":"２７７弄","HOUSE_NO":"１２號","E_COORD97":170344.42000000001,"N_COORD97":2552239.04,"ADDRESS":"長和路二段１２巷２７７弄１２號","OBJECTID":1103},"geometry":{"x":170344.41999999993,"y":2552239.040000001}},{"attributes":{"ID":1104,"DIS_CODE":0,"TOWNNAME":"安南區","LI":"\u25A0南里","LIN":"25鄰","STREET":"長和路","SECT":"二段","MAREA":" ","LANE":"１２巷","ALLEY":"２７７弄","HOUSE_NO":"６號","E_COORD97":170358.48000000001,"N_COORD97":2552238.3500000001,"ADDRESS":"長和路二段１２巷２７７弄６號","OBJECTID":1104},"geometry":{"x":170358.48000000138,"y":2552238.3499999996}},{"attributes":{"ID":1105,"DIS_CODE":0,"TOWNNAME":"安南區","LI":"\u25A0南里","LIN":"25鄰","STREET":"長和路","SECT":"二段","MAREA":" ","LANE":"１２巷","ALLEY":"２７７弄","HOUSE_NO":"８號","E_COORD97":170354.79000000001,"N_COORD97":2552238.8100000001,"ADDRESS":"長和路二段１２巷２７７弄８號","OBJECTID":1105},"geometry":{"x":170354.79000000097,"y":2552238.8100000024}},{"attributes":{"ID":1106,"DIS_CODE":0,"TOWNNAME":"安南區","LI":"\u25A0南里","LIN":"25鄰","STREET":"長和路","SECT":"二段","MAREA":" ","LANE":"１２巷","ALLEY":"２９９弄","HOUSE_NO":"１１號","E_COORD97":170346.95000000001,"N_COORD97":2552278.1899999999,"ADDRESS":"長和路二段１２巷２９９弄１１號","OBJECTID":1106},"geometry":{"x":170346.95000000112,"y":2552278.1900000032}},{"attributes":{"ID":1107,"DIS_CODE":0,"TOWNNAME":"安南區","LI":"\u25A0南里","LIN":"25鄰","STREET":"長和路","SECT":"二段","MAREA":" ","LANE":"１２巷","ALLEY":"２９９弄","HOUSE_NO":"１３號","E_COORD97":170343.03,"N_COORD97":2552277.96,"ADDRESS":"長和路二段１２巷２９９弄１３號","OBJECTID":1107},"geometry":{"x":170343.03000000119,"y":2552277.9600000028}},{"attributes":{"ID":1108,"DIS_CODE":0,"TOWNNAME":"安南區","LI":"\u25A0南里","LIN":"25鄰","STREET":"長和路","SECT":"二段","MAREA":" ","LANE":"１２巷","ALLEY":"２９９弄","HOUSE_NO":"７號","E_COORD97":170357.32999999999,"N_COORD97":2552277.5,"ADDRESS":"長和路二段１２巷２９９弄７號","OBJECTID":1108},"geometry":{"x":170357.33000000194,"y":2552277.5000000019}},{"attributes":{"ID":1109,"DIS_CODE":0,"TOWNNAME":"安南區","LI":"\u25A0南里","LIN":"25鄰","STREET":"長和路","SECT":"二段","MAREA":" ","LANE":"１２巷","ALLEY":"２９９弄","HOUSE_NO":"９號","E_COORD97":170351.79999999999,"N_COORD97":2552277.96,"ADDRESS":"長和路二段１２巷２９９弄９號","OBJECTID":1109},"geometry":{"x":170351.79999999981,"y":2552277.9600000028}},{"attributes":{"ID":1110,"DIS_CODE":0,"TOWNNAME":"安南區","LI":"\u25A0南里","LIN":"25鄰","STREET":"長和路","SECT":"二段","MAREA":" ","LANE":"１２巷","ALLEY":"２７７弄","HOUSE_NO":"１３號","E_COORD97":170327.31,"N_COORD97":2552212.3599999999,"ADDRESS":"長和路二段１２巷２７７弄１３號","OBJECTID":1110},"geometry":{"x":170327.30999999959,"y":2552212.3600000031}},{"attributes":{"ID":1111,"DIS_CODE":0,"TOWNNAME":"安南區","LI":"\u25A0南里","LIN":"25鄰","STREET":"長和路","SECT":"二段","MAREA":" ","LANE":"１２巷","ALLEY":"２７７弄","HOUSE_NO":"１６號","E_COORD97":170330.57999999999,"N_COORD97":2552238.5800000001,"ADDRESS":"長和路二段１２巷２７７弄１６號","OBJECTID":1111},"geometry":{"x":170330.58000000101,"y":2552238.5800000038}},{"attributes":{"ID":1112,"DIS_CODE":0,"TOWNNAME":"安南區","LI":"\u25A0南里","LIN":"25鄰","STREET":"長和路","SECT":"二段","MAREA":" ","LANE":"１２巷","ALLEY":"２７７弄","HOUSE_NO":"１８號","E_COORD97":170325.51000000001,"N_COORD97":2552239.5,"ADDRESS":"長和路二段１２巷２７７弄１８號","OBJECTID":1112},"geometry":{"x":170325.51000000071,"y":2552239.5000000019}},{"attributes":{"ID":1113,"DIS_CODE":0,"TOWNNAME":"安南區","LI":"\u25A0南里","LIN":"25鄰","STREET":"長和路","SECT":"二段","MAREA":" ","LANE":"１２巷","ALLEY":"２９９弄","HOUSE_NO":"６９號","E_COORD97":170223.39000000001,"N_COORD97":2552278.3599999999,"ADDRESS":"長和路二段１２巷２９９弄６９號","OBJECTID":1113},"geometry":{"x":170223.38999999966,"y":2552278.3600000013}},{"attributes":{"ID":1114,"DIS_CODE":0,"TOWNNAME":"安南區","LI":"\u25A0南里","LIN":"25鄰","STREET":"長和路","SECT":"二段","MAREA":" ","LANE":"１２巷","ALLEY":"２９９弄","HOUSE_NO":"７１號","E_COORD97":170219.78,"N_COORD97":2552278.5600000001,"ADDRESS":"長和路二段１２巷２９９弄７１號","OBJECTID":1114},"geometry":{"x":170219.78000000026,"y":2552278.5600000005}},{"attributes":{"ID":1115,"DIS_CODE":0,"TOWNNAME":"安南區","LI":"\u25A0南里","LIN":"25鄰","STREET":"長和路","SECT":"二段","MAREA":" ","LANE":"１２巷","ALLEY":"２９９弄","HOUSE_NO":"７３號","E_COORD97":170216.17999999999,"N_COORD97":2552278.5600000001,"ADDRESS":"長和路二段１２巷２９９弄７３號","OBJECTID":1115},"geometry":{"x":170216.18000000063,"y":2552278.5600000005}},{"attributes":{"ID":1116,"DIS_CODE":0,"TOWNNAME":"安南區","LI":"\u25A0南里","LIN":"25鄰","STREET":"長和路","SECT":"二段","MAREA":" ","LANE":"１２巷","ALLEY":"２９９弄","HOUSE_NO":"７５號","E_COORD97":170212.37,"N_COORD97":2552278.1600000001,"ADDRESS":"長和路二段１２巷２９９弄７５號","OBJECTID":1116},"geometry":{"x":170212.37000000011,"y":2552278.1600000001}},{"attributes":{"ID":1117,"DIS_CODE":0,"TOWNNAME":"安南區","LI":"\u25A0南里","LIN":"25鄰","STREET":"長和路","SECT":"二段","MAREA":" ","LANE":"１２巷","ALLEY":"２９９弄","HOUSE_NO":"７７號","E_COORD97":170208.95999999999,"N_COORD97":2552278.1600000001,"ADDRESS":"長和路二段１２巷２９９弄７７號","OBJECTID":1117},"geometry":{"x":170208.96000000089,"y":2552278.1600000001}},{"attributes":{"ID":1118,"DIS_CODE":0,"TOWNNAME":"安南區","LI":"\u25A0南里","LIN":"25鄰","STREET":"長和路","SECT":"二段","MAREA":" ","LANE":"１２巷","ALLEY":"２９９弄","HOUSE_NO":"７９號","E_COORD97":170205.35999999999,"N_COORD97":2552278.1600000001,"ADDRESS":"長和路二段１２巷２９９弄７９號","OBJECTID":1118},"geometry":{"x":170205.36000000127,"y":2552278.1600000001}},{"attributes":{"ID":1119,"DIS_CODE":0,"TOWNNAME":"安南區","LI":"\u25A0南里","LIN":"25鄰","STREET":"長和路","SECT":"二段","MAREA":" ","LANE":"１２巷","ALLEY":"２９９弄","HOUSE_NO":"８１號","E_COORD97":170201.54999999999,"N_COORD97":2552277.7599999998,"ADDRESS":"長和路二段１２巷２９９弄８１號","OBJECTID":1119},"geometry":{"x":170201.55000000075,"y":2552277.7600000035}},{"attributes":{"ID":1120,"DIS_CODE":0,"TOWNNAME":"安南區","LI":"\u25A0南里","LIN":"25鄰","STREET":"長和路","SECT":"二段","MAREA":" ","LANE":"１２巷","ALLEY":"２９９弄","HOUSE_NO":"８５號","E_COORD97":170194.14000000001,"N_COORD97":2552277.7599999998,"ADDRESS":"長和路二段１２巷２９９弄８５號","OBJECTID":1120},"geometry":{"x":170194.1400000006,"y":2552277.7600000035}},{"attributes":{"ID":1121,"DIS_CODE":0,"TOWNNAME":"安南區","LI":"\u25A0南里","LIN":"25鄰","STREET":"長和路","SECT":"二段","MAREA":" ","LANE":"１２巷","ALLEY":"２９９弄","HOUSE_NO":"８３號","E_COORD97":170197.94,"N_COORD97":2552277.7599999998,"ADDRESS":"長和路二段１２巷２９９弄８３號","OBJECTID":1121},"geometry":{"x":170197.94000000134,"y":2552277.7600000035}},{"attributes":{"ID":1122,"DIS_CODE":0,"TOWNNAME":"安南區","LI":"\u25A0南里","LIN":"25鄰","STREET":"長和路","SECT":"二段","MAREA":" ","LANE":"１２巷","ALLEY":"２７７弄","HOUSE_NO":"１４號","E_COORD97":170335.42000000001,"N_COORD97":2552239.27,"ADDRESS":"長和路二段１２巷２７７弄１４號","OBJECTID":1122},"geometry":{"x":170335.41999999993,"y":2552239.2699999996}},{"attributes":{"ID":1123,"DIS_CODE":0,"TOWNNAME":"安南區","LI":"\u25A0南里","LIN":"25鄰","STREET":"長和路","SECT":"二段","MAREA":" ","LANE":"１２巷","ALLEY":"２９９弄","HOUSE_NO":"３９號","E_COORD97":170295.76000000001,"N_COORD97":2552273.5800000001,"ADDRESS":"長和路二段１２巷２９９弄３９號","OBJECTID":1123},"geometry":{"x":170295.75999999978,"y":2552273.5800000019}},{"attributes":{"ID":1124,"DIS_CODE":0,"TOWNNAME":"安南區","LI":"\u25A0南里","LIN":"25鄰","STREET":"長和路","SECT":"二段","MAREA":" ","LANE":"１２巷","ALLEY":"２９９弄","HOUSE_NO":"４１號","E_COORD97":170291.37,"N_COORD97":2552273.5800000001,"ADDRESS":"長和路二段１２巷２９９弄４１號","OBJECTID":1124},"geometry":{"x":170291.37000000104,"y":2552273.5800000019}},{"attributes":{"ID":1125,"DIS_CODE":0,"TOWNNAME":"安南區","LI":"\u25A0南里","LIN":"25鄰","STREET":"長和路","SECT":"二段","MAREA":" ","LANE":"１２巷","ALLEY":"２９９弄","HOUSE_NO":"４３號","E_COORD97":170286.53,"N_COORD97":2552273.5800000001,"ADDRESS":"長和路二段１２巷２９９弄４３號","OBJECTID":1125},"geometry":{"x":170286.53000000212,"y":2552273.5800000019}},{"attributes":{"ID":1126,"DIS_CODE":0,"TOWNNAME":"安南區","LI":"\u25A0南里","LIN":"25鄰","STREET":"長和路","SECT":"二段","MAREA":" ","LANE":"１２巷","ALLEY":"２９９弄","HOUSE_NO":"４５號","E_COORD97":170282.14999999999,"N_COORD97":2552273.1200000001,"ADDRESS":"長和路二段１２巷２９９弄４５號","OBJECTID":1126},"geometry":{"x":170282.15000000037,"y":2552273.1199999992}},{"attributes":{"ID":1127,"DIS_CODE":0,"TOWNNAME":"安南區","LI":"\u25A0南里","LIN":"25鄰","STREET":"長和路","SECT":"二段","MAREA":" ","LANE":"１２巷","ALLEY":"２９９弄","HOUSE_NO":"２３號","E_COORD97":170312.23000000001,"N_COORD97":2552276.6400000001,"ADDRESS":"長和路二段１２巷２９９弄２３號","OBJECTID":1127},"geometry":{"x":170312.23000000045,"y":2552276.6400000025}},{"attributes":{"ID":1128,"DIS_CODE":0,"TOWNNAME":"安南區","LI":"\u25A0南里","LIN":"25鄰","STREET":"長和路","SECT":"二段","MAREA":" ","LANE":"１２巷","ALLEY":"２９９弄","HOUSE_NO":"２５號","E_COORD97":170312.23000000001,"N_COORD97":2552272.0699999998,"ADDRESS":"長和路二段１２巷２９９弄２５號","OBJECTID":1128},"geometry":{"x":170312.23000000045,"y":2552272.0700000003}},{"attributes":{"ID":1129,"DIS_CODE":0,"TOWNNAME":"安南區","LI":"\u25A0南里","LIN":"25鄰","STREET":"長和路","SECT":"二段","MAREA":" ","LANE":"１２巷","ALLEY":"２９９弄","HOUSE_NO":"２７號","E_COORD97":170312.39999999999,"N_COORD97":2552267.8399999999,"ADDRESS":"長和路二段１２巷２９９弄２７號","OBJECTID":1129},"geometry":{"x":170312.40000000037,"y":2552267.8400000017}},{"attributes":{"ID":1130,"DIS_CODE":0,"TOWNNAME":"安南區","LI":"\u25A0南里","LIN":"25鄰","STREET":"長和路","SECT":"二段","MAREA":" ","LANE":"１２巷","ALLEY":"２９９弄","HOUSE_NO":"２９號","E_COORD97":170312.23000000001,"N_COORD97":2552262.7599999998,"ADDRESS":"長和路二段１２巷２９９弄２９號","OBJECTID":1130},"geometry":{"x":170312.23000000045,"y":2552262.7599999998}},{"attributes":{"ID":1131,"DIS_CODE":0,"TOWNNAME":"安南區","LI":"\u25A0南里","LIN":"25鄰","STREET":"長和路","SECT":"二段","MAREA":" ","LANE":"１２巷","ALLEY":"２９９弄","HOUSE_NO":"３７號","E_COORD97":170286.62,"N_COORD97":2552258.3599999999,"ADDRESS":"長和路二段１２巷２９９弄３７號","OBJECTID":1131},"geometry":{"x":170286.62000000104,"y":2552258.3599999994}},{"attributes":{"ID":1132,"DIS_CODE":0,"TOWNNAME":"安南區","LI":"\u25A0南里","LIN":"25鄰","STREET":"長和路","SECT":"二段","MAREA":" ","LANE":"１２巷","ALLEY":"２７７弄","HOUSE_NO":"９號","E_COORD97":170334.45999999999,"N_COORD97":2552212.3300000001,"ADDRESS":"長和路二段１２巷２７７弄９號","OBJECTID":1132},"geometry":{"x":170334.46000000089,"y":2552212.3300000001}},{"attributes":{"ID":1133,"DIS_CODE":0,"TOWNNAME":"安南區","LI":"\u25A0南里","LIN":"10鄰","STREET":"長和路","SECT":"二段","MAREA":" ","LANE":"１２巷","ALLEY":"２１３弄","HOUSE_NO":"２２號","E_COORD97":170324.79999999999,"N_COORD97":2552053.27,"ADDRESS":"長和路二段１２巷２１３弄２２號","OBJECTID":1133},"geometry":{"x":170324.79999999981,"y":2552053.2699999996}},{"attributes":{"ID":1134,"DIS_CODE":0,"TOWNNAME":"安南區","LI":"\u25A0南里","LIN":"10鄰","STREET":"長和路","SECT":"二段","MAREA":" ","LANE":"１２巷","ALLEY":"２１３弄","HOUSE_NO":"２４號","E_COORD97":170320.14999999999,"N_COORD97":2552053.0800000001,"ADDRESS":"長和路二段１２巷２１３弄２４號","OBJECTID":1134},"geometry":{"x":170320.1500000013,"y":2552053.0800000019}},{"attributes":{"ID":1135,"DIS_CODE":0,"TOWNNAME":"安南區","LI":"\u25A0南里","LIN":"10鄰","STREET":"長和路","SECT":"二段","MAREA":" ","LANE":"１２巷","ALLEY":"２１３弄","HOUSE_NO":"２６號","E_COORD97":170314.51999999999,"N_COORD97":2552053.4700000002,"ADDRESS":"長和路二段１２巷２１３弄２６號","OBJECTID":1135},"geometry":{"x":170314.51999999955,"y":2552053.4700000044}},{"attributes":{"ID":1136,"DIS_CODE":0,"TOWNNAME":"安南區","LI":"\u25A0南里","LIN":"10鄰","STREET":"長和路","SECT":"二段","MAREA":" ","LANE":"１２巷","ALLEY":"２１３弄","HOUSE_NO":"２８號","E_COORD97":170310.07000000001,"N_COORD97":2552053.6600000001,"ADDRESS":"長和路二段１２巷２１３弄２８號","OBJECTID":1136},"geometry":{"x":170310.07000000216,"y":2552053.6600000001}},{"attributes":{"ID":1137,"DIS_CODE":0,"TOWNNAME":"安南區","LI":"\u25A0南里","LIN":"10鄰","STREET":"長和路","SECT":"二段","MAREA":" ","LANE":"１２巷","ALLEY":"２１３弄","HOUSE_NO":"２號","E_COORD97":170367.84,"N_COORD97":2552053.8500000001,"ADDRESS":"長和路二段１２巷２１３弄２號","OBJECTID":1137},"geometry":{"x":170367.84000000078,"y":2552053.8500000015}},{"attributes":{"ID":1138,"DIS_CODE":0,"TOWNNAME":"安南區","LI":"\u25A0南里","LIN":"10鄰","STREET":"長和路","SECT":"二段","MAREA":" ","LANE":"１２巷","ALLEY":"２３５弄","HOUSE_NO":"１７號","E_COORD97":170341.67000000001,"N_COORD97":2552059.9500000002,"ADDRESS":"長和路二段１２巷２３５弄１７號","OBJECTID":1138},"geometry":{"x":170341.67000000086,"y":2552059.9500000011}},{"attributes":{"ID":1139,"DIS_CODE":0,"TOWNNAME":"安南區","LI":"\u25A0南里","LIN":"10鄰","STREET":"長和路","SECT":"二段","MAREA":" ","LANE":"１２巷","ALLEY":"２３５弄","HOUSE_NO":"１９號","E_COORD97":170340.70000000001,"N_COORD97":2552064.21,"ADDRESS":"長和路二段１２巷２３５弄１９號","OBJECTID":1139},"geometry":{"x":170340.70000000019,"y":2552064.2100000009}},{"attributes":{"ID":1140,"DIS_CODE":0,"TOWNNAME":"安南區","LI":"\u25A0南里","LIN":"10鄰","STREET":"長和路","SECT":"二段","MAREA":" ","LANE":"１２巷","ALLEY":"２３５弄","HOUSE_NO":"１號","E_COORD97":170359.89000000001,"N_COORD97":2552090.1600000001,"ADDRESS":"長和路二段１２巷２３５弄１號","OBJECTID":1140},"geometry":{"x":170359.89000000153,"y":2552090.160000002}},{"attributes":{"ID":1141,"DIS_CODE":0,"TOWNNAME":"安南區","LI":"\u25A0南里","LIN":"10鄰","STREET":"長和路","SECT":"二段","MAREA":" ","LANE":"１２巷","ALLEY":"２３５弄","HOUSE_NO":"２１號","E_COORD97":170341.28,"N_COORD97":2552067.8900000001,"ADDRESS":"長和路二段１２巷２３５弄２１號","OBJECTID":1141},"geometry":{"x":170341.28000000119,"y":2552067.8900000025}},{"attributes":{"ID":1142,"DIS_CODE":0,"TOWNNAME":"安南區","LI":"\u25A0南里","LIN":"10鄰","STREET":"長和路","SECT":"二段","MAREA":" ","LANE":"１２巷","ALLEY":"２３５弄","HOUSE_NO":"２３號","E_COORD97":170341.28,"N_COORD97":2552072.54,"ADDRESS":"長和路二段１２巷２３５弄２３號","OBJECTID":1142},"geometry":{"x":170341.28000000119,"y":2552072.540000001}},{"attributes":{"ID":1143,"DIS_CODE":0,"TOWNNAME":"安南區","LI":"\u25A0南里","LIN":"10鄰","STREET":"長和路","SECT":"二段","MAREA":" ","LANE":"１２巷","ALLEY":"２３５弄","HOUSE_NO":"２５號","E_COORD97":170341.47,"N_COORD97":2552077.1800000002,"ADDRESS":"長和路二段１２巷２３５弄２５號","OBJECTID":1143},"geometry":{"x":170341.47000000067,"y":2552077.1799999997}},{"attributes":{"ID":1144,"DIS_CODE":0,"TOWNNAME":"安南區","LI":"\u25A0南里","LIN":"10鄰","STREET":"長和路","SECT":"二段","MAREA":" ","LANE":"１２巷","ALLEY":"２３５弄","HOUSE_NO":"２７號","E_COORD97":170341.28,"N_COORD97":2552080.6699999999,"ADDRESS":"長和路二段１２巷２３５弄２７號","OBJECTID":1144},"geometry":{"x":170341.28000000119,"y":2552080.6699999999}},{"attributes":{"ID":1145,"DIS_CODE":0,"TOWNNAME":"安南區","LI":"\u25A0南里","LIN":"10鄰","STREET":"長和路","SECT":"二段","MAREA":" ","LANE":"１２巷","ALLEY":"２１３弄","HOUSE_NO":"３０號","E_COORD97":170304.82999999999,"N_COORD97":2552053.0800000001,"ADDRESS":"長和路二段１２巷２１３弄３０號","OBJECTID":1145},"geometry":{"x":170304.83000000194,"y":2552053.0800000019}},{"attributes":{"ID":1146,"DIS_CODE":0,"TOWNNAME":"安南區","LI":"\u25A0南里","LIN":"10鄰","STREET":"長和路","SECT":"二段","MAREA":" ","LANE":"１２巷","ALLEY":"２１３弄","HOUSE_NO":"３２號","E_COORD97":170300.56,"N_COORD97":2552052.5,"ADDRESS":"長和路二段１２巷２１３弄３２號","OBJECTID":1146},"geometry":{"x":170300.55999999959,"y":2552052.4999999981}},{"attributes":{"ID":1147,"DIS_CODE":0,"TOWNNAME":"安南區","LI":"\u25A0南里","LIN":"10鄰","STREET":"長和路","SECT":"二段","MAREA":" ","LANE":"１２巷","ALLEY":"２１３弄","HOUSE_NO":"３４號","E_COORD97":170295.51999999999,"N_COORD97":2552052.6899999999,"ADDRESS":"長和路二段１２巷２１３弄３４號","OBJECTID":1147},"geometry":{"x":170295.51999999955,"y":2552052.6899999995}},{"attributes":{"ID":1148,"DIS_CODE":0,"TOWNNAME":"安南區","LI":"\u25A0南里","LIN":"10鄰","STREET":"長和路","SECT":"二段","MAREA":" ","LANE":"１２巷","ALLEY":"２１３弄","HOUSE_NO":"３６號","E_COORD97":170289.89999999999,"N_COORD97":2552052.5,"ADDRESS":"長和路二段１２巷２１３弄３６號","OBJECTID":1148},"geometry":{"x":170289.9000000013,"y":2552052.4999999981}},{"attributes":{"ID":1149,"DIS_CODE":0,"TOWNNAME":"安南區","LI":"\u25A0南里","LIN":"10鄰","STREET":"長和路","SECT":"二段","MAREA":" ","LANE":"１２巷","ALLEY":"２１３弄","HOUSE_NO":"３８號","E_COORD97":170285.25,"N_COORD97":2552052.2999999998,"ADDRESS":"長和路二段１２巷２１３弄３８號","OBJECTID":1149},"geometry":{"x":170285.25000000093,"y":2552052.3000000026}},{"attributes":{"ID":1150,"DIS_CODE":0,"TOWNNAME":"安南區","LI":"\u25A0南里","LIN":"10鄰","STREET":"長和路","SECT":"二段","MAREA":" ","LANE":"１２巷","ALLEY":"２１３弄","HOUSE_NO":"４０號","E_COORD97":170280.20999999999,"N_COORD97":2552051.9199999999,"ADDRESS":"長和路二段１２巷２１３弄４０號","OBJECTID":1150},"geometry":{"x":170280.21000000089,"y":2552051.9199999999}},{"attributes":{"ID":1151,"DIS_CODE":0,"TOWNNAME":"安南區","LI":"\u25A0南里","LIN":"10鄰","STREET":"長和路","SECT":"二段","MAREA":" ","LANE":"１２巷","ALLEY":"２１３弄","HOUSE_NO":"４２號","E_COORD97":170274.97,"N_COORD97":2552051.5299999998,"ADDRESS":"長和路二段１２巷２１３弄４２號","OBJECTID":1151},"geometry":{"x":170274.97000000067,"y":2552051.5299999975}},{"attributes":{"ID":1152,"DIS_CODE":0,"TOWNNAME":"安南區","LI":"\u25A0南里","LIN":"10鄰","STREET":"長和路","SECT":"二段","MAREA":" ","LANE":"１２巷","ALLEY":"２１３弄","HOUSE_NO":"４６號","E_COORD97":170275.35999999999,"N_COORD97":2552066.8300000001,"ADDRESS":"長和路二段１２巷２１３弄４６號","OBJECTID":1152},"geometry":{"x":170275.36000000034,"y":2552066.8300000001}},{"attributes":{"ID":1153,"DIS_CODE":0,"TOWNNAME":"安南區","LI":"\u25A0南里","LIN":"10鄰","STREET":"長和路","SECT":"二段","MAREA":" ","LANE":"１２巷","ALLEY":"２１３弄","HOUSE_NO":"４８號","E_COORD97":170280.01000000001,"N_COORD97":2552067.02,"ADDRESS":"長和路二段１２巷２１３弄４８號","OBJECTID":1153},"geometry":{"x":170280.01000000071,"y":2552067.0200000014}},{"attributes":{"ID":1154,"DIS_CODE":0,"TOWNNAME":"安南區","LI":"\u25A0南里","LIN":"10鄰","STREET":"長和路","SECT":"二段","MAREA":" ","LANE":"１２巷","ALLEY":"２１３弄","HOUSE_NO":"４號","E_COORD97":170363.38,"N_COORD97":2552054.0499999998,"ADDRESS":"長和路二段１２巷２１３弄４號","OBJECTID":1154},"geometry":{"x":170363.37999999896,"y":2552054.0500000026}},{"attributes":{"ID":1155,"DIS_CODE":0,"TOWNNAME":"安南區","LI":"\u25A0南里","LIN":"10鄰","STREET":"長和路","SECT":"二段","MAREA":" ","LANE":"１２巷","ALLEY":"２１３弄","HOUSE_NO":"５０號","E_COORD97":170285.25,"N_COORD97":2552067.79,"ADDRESS":"長和路二段１２巷２１３弄５０號","OBJECTID":1155},"geometry":{"x":170285.25000000093,"y":2552067.790000001}},{"attributes":{"ID":1156,"DIS_CODE":0,"TOWNNAME":"安南區","LI":"\u25A0南里","LIN":"10鄰","STREET":"長和路","SECT":"二段","MAREA":" ","LANE":"１２巷","ALLEY":"２１３弄","HOUSE_NO":"５２號","E_COORD97":170289.70999999999,"N_COORD97":2552068.5699999998,"ADDRESS":"長和路二段１２巷２１３弄５２號","OBJECTID":1156},"geometry":{"x":170289.70999999996,"y":2552068.5700000003}},{"attributes":{"ID":1157,"DIS_CODE":0,"TOWNNAME":"安南區","LI":"\u25A0南里","LIN":"10鄰","STREET":"長和路","SECT":"二段","MAREA":" ","LANE":"１２巷","ALLEY":"２１３弄","HOUSE_NO":"５４號","E_COORD97":170295.32999999999,"N_COORD97":2552067.9900000002,"ADDRESS":"長和路二段１２巷２１３弄５４號","OBJECTID":1157},"geometry":{"x":170295.33000000101,"y":2552067.9900000021}},{"attributes":{"ID":1158,"DIS_CODE":0,"TOWNNAME":"安南區","LI":"\u25A0南里","LIN":"10鄰","STREET":"長和路","SECT":"二段","MAREA":" ","LANE":"１２巷","ALLEY":"２１３弄","HOUSE_NO":"５６號","E_COORD97":170299.79000000001,"N_COORD97":2552068.7599999998,"ADDRESS":"長和路二段１２巷２１３弄５６號","OBJECTID":1158},"geometry":{"x":170299.7900000019,"y":2552068.7600000016}},{"attributes":{"ID":1159,"DIS_CODE":0,"TOWNNAME":"安南區","LI":"\u25A0南里","LIN":"10鄰","STREET":"長和路","SECT":"二段","MAREA":" ","LANE":"１２巷","ALLEY":"２１３弄","HOUSE_NO":"５８號","E_COORD97":170304.82999999999,"N_COORD97":2552068.5699999998,"ADDRESS":"長和路二段１２巷２１３弄５８號","OBJECTID":1159},"geometry":{"x":170304.83000000194,"y":2552068.5700000003}},{"attributes":{"ID":1160,"DIS_CODE":0,"TOWNNAME":"安南區","LI":"\u25A0南里","LIN":"10鄰","STREET":"長和路","SECT":"二段","MAREA":" ","LANE":"１２巷","ALLEY":"２１３弄","HOUSE_NO":"６０號","E_COORD97":170309.67999999999,"N_COORD97":2552069.3399999999,"ADDRESS":"長和路二段１２巷２１３弄６０號","OBJECTID":1160},"geometry":{"x":170309.6799999997,"y":2552069.3399999999}},{"attributes":{"ID":1161,"DIS_CODE":0,"TOWNNAME":"安南區","LI":"\u25A0南里","LIN":"10鄰","STREET":"長和路","SECT":"二段","MAREA":" ","LANE":"１２巷","ALLEY":"２１３弄","HOUSE_NO":"６２號","E_COORD97":170314.51999999999,"N_COORD97":2552068.96,"ADDRESS":"長和路二段１２巷２１３弄６２號","OBJECTID":1161},"geometry":{"x":170314.51999999955,"y":2552068.9600000028}},{"attributes":{"ID":1162,"DIS_CODE":0,"TOWNNAME":"安南區","LI":"\u25A0南里","LIN":"10鄰","STREET":"長和路","SECT":"二段","MAREA":" ","LANE":"１２巷","ALLEY":"２１３弄","HOUSE_NO":"６４號","E_COORD97":170319.17999999999,"N_COORD97":2552069.3399999999,"ADDRESS":"長和路二段１２巷２１３弄６４號","OBJECTID":1162},"geometry":{"x":170319.18000000063,"y":2552069.3399999999}},{"attributes":{"ID":1163,"DIS_CODE":0,"TOWNNAME":"安南區","LI":"\u25A0南里","LIN":"10鄰","STREET":"長和路","SECT":"二段","MAREA":" ","LANE":"１２巷","ALLEY":"２１３弄","HOUSE_NO":"６６號","E_COORD97":170324.22,"N_COORD97":2552069.1499999999,"ADDRESS":"長和路二段１２巷２１３弄６６號","OBJECTID":1163},"geometry":{"x":170324.22000000067,"y":2552069.1500000041}},{"attributes":{"ID":1164,"DIS_CODE":0,"TOWNNAME":"安南區","LI":"\u25A0南里","LIN":"10鄰","STREET":"長和路","SECT":"二段","MAREA":" ","LANE":"１２巷","ALLEY":"２１３弄","HOUSE_NO":"６８號","E_COORD97":170329.84,"N_COORD97":2552069.1499999999,"ADDRESS":"長和路二段１２巷２１３弄６８號","OBJECTID":1164},"geometry":{"x":170329.84000000171,"y":2552069.1500000041}},{"attributes":{"ID":1165,"DIS_CODE":0,"TOWNNAME":"安南區","LI":"\u25A0南里","LIN":"10鄰","STREET":"長和路","SECT":"二段","MAREA":" ","LANE":"１２巷","ALLEY":"２１３弄","HOUSE_NO":"６號","E_COORD97":170359.5,"N_COORD97":2552054.0499999998,"ADDRESS":"長和路二段１２巷２１３弄６號","OBJECTID":1165},"geometry":{"x":170359.50000000186,"y":2552054.0500000026}},{"attributes":{"ID":1166,"DIS_CODE":0,"TOWNNAME":"安南區","LI":"\u25A0南里","LIN":"10鄰","STREET":"長和路","SECT":"二段","MAREA":" ","LANE":"１２巷","ALLEY":"２１３弄","HOUSE_NO":"７０號","E_COORD97":170334.10999999999,"N_COORD97":2552069.73,"ADDRESS":"長和路二段１２巷２１３弄７０號","OBJECTID":1166},"geometry":{"x":170334.11000000127,"y":2552069.7300000023}},{"attributes":{"ID":1167,"DIS_CODE":0,"TOWNNAME":"安南區","LI":"\u25A0南里","LIN":"10鄰","STREET":"長和路","SECT":"二段","MAREA":" ","LANE":"１２巷","ALLEY":"２１３弄","HOUSE_NO":"８號","E_COORD97":170355.63,"N_COORD97":2552053.4700000002,"ADDRESS":"長和路二段１２巷２１３弄８號","OBJECTID":1167},"geometry":{"x":170355.63000000082,"y":2552053.4700000044}},{"attributes":{"ID":1168,"DIS_CODE":0,"TOWNNAME":"安南區","LI":"\u25A0南里","LIN":"10鄰","STREET":"長和路","SECT":"二段","MAREA":" ","LANE":"１２巷","ALLEY":"２３５弄","HOUSE_NO":"４５號","E_COORD97":170303.85999999999,"N_COORD97":2552085.2200000002,"ADDRESS":"長和路二段１２巷２３５弄４５號","OBJECTID":1168},"geometry":{"x":170303.86000000127,"y":2552085.2200000007}},{"attributes":{"ID":1169,"DIS_CODE":0,"TOWNNAME":"安南區","LI":"\u25A0南里","LIN":"10鄰","STREET":"長和路","SECT":"二段","MAREA":" ","LANE":"１２巷","ALLEY":"２３５弄","HOUSE_NO":"４７號","E_COORD97":170298.42999999999,"N_COORD97":2552085.4199999999,"ADDRESS":"長和路二段１２巷２３５弄４７號","OBJECTID":1169},"geometry":{"x":170298.42999999877,"y":2552085.4199999999}},{"attributes":{"ID":1170,"DIS_CODE":0,"TOWNNAME":"安南區","LI":"\u25A0南里","LIN":"10鄰","STREET":"長和路","SECT":"二段","MAREA":" ","LANE":"１２巷","ALLEY":"２３５弄","HOUSE_NO":"４９號","E_COORD97":170293.97,"N_COORD97":2552085.2200000002,"ADDRESS":"長和路二段１２巷２３５弄４９號","OBJECTID":1170},"geometry":{"x":170293.97000000067,"y":2552085.2200000007}},{"attributes":{"ID":1171,"DIS_CODE":0,"TOWNNAME":"安南區","LI":"\u25A0南里","LIN":"24鄰","STREET":"長和路","SECT":"二段","MAREA":" ","LANE":"１２巷","ALLEY":"２３５弄","HOUSE_NO":"９２號","E_COORD97":170259.42000000001,"N_COORD97":2552114.48,"ADDRESS":"長和路二段１２巷２３５弄９２號","OBJECTID":1171},"geometry":{"x":170259.41999999993,"y":2552114.4800000042}},{"attributes":{"ID":1172,"DIS_CODE":0,"TOWNNAME":"安南區","LI":"\u25A0南里","LIN":"24鄰","STREET":"長和路","SECT":"二段","MAREA":" ","LANE":"１２巷","ALLEY":"２３５弄","HOUSE_NO":"９６號","E_COORD97":170255.62,"N_COORD97":2552114.1699999999,"ADDRESS":"長和路二段１２巷２３５弄９６號","OBJECTID":1172},"geometry":{"x":170255.62000000104,"y":2552114.1699999999}},{"attributes":{"ID":1173,"DIS_CODE":0,"TOWNNAME":"安南區","LI":"\u25A0南里","LIN":"24鄰","STREET":"長和路","SECT":"二段","MAREA":" ","LANE":"１２巷","ALLEY":"２３５弄","HOUSE_NO":"１０８號","E_COORD97":170236.92999999999,"N_COORD97":2552113.2200000002,"ADDRESS":"長和路二段１２巷２３５弄１０８號","OBJECTID":1173},"geometry":{"x":170236.9299999997,"y":2552113.2200000025}},{"attributes":{"ID":1174,"DIS_CODE":0,"TOWNNAME":"安南區","LI":"\u25A0南里","LIN":"25鄰","STREET":"長和路","SECT":"二段","MAREA":" ","LANE":"１２巷","ALLEY":"２９９弄","HOUSE_NO":"５９號","E_COORD97":170244.78,"N_COORD97":2552278.3900000001,"ADDRESS":"長和路二段１２巷２９９弄５９號","OBJECTID":1174},"geometry":{"x":170244.78000000119,"y":2552278.3900000025}},{"attributes":{"ID":1175,"DIS_CODE":0,"TOWNNAME":"安南區","LI":"\u25A0南里","LIN":"25鄰","STREET":"長和路","SECT":"二段","MAREA":" ","LANE":"１２巷","ALLEY":"２９９弄","HOUSE_NO":"６１號","E_COORD97":170241.79999999999,"N_COORD97":2552278.2599999998,"ADDRESS":"長和路二段１２巷２９９弄６１號","OBJECTID":1175},"geometry":{"x":170241.79999999888,"y":2552278.2600000016}},{"attributes":{"ID":1176,"DIS_CODE":0,"TOWNNAME":"安南區","LI":"\u25A0南里","LIN":"25鄰","STREET":"長和路","SECT":"二段","MAREA":" ","LANE":"１２巷","ALLEY":"２９９弄","HOUSE_NO":"６３號","E_COORD97":170238.89999999999,"N_COORD97":2552278.21,"ADDRESS":"長和路二段１２巷２９９弄６３號","OBJECTID":1176},"geometry":{"x":170238.9000000013,"y":2552278.2100000009}},{"attributes":{"ID":1177,"DIS_CODE":0,"TOWNNAME":"安南區","LI":"\u25A0南里","LIN":"25鄰","STREET":"長和路","SECT":"二段","MAREA":" ","LANE":"１２巷","ALLEY":"２９９弄","HOUSE_NO":"６５號","E_COORD97":170234.47,"N_COORD97":2552278.2999999998,"ADDRESS":"長和路二段１２巷２９９弄６５號","OBJECTID":1177},"geometry":{"x":170234.47000000067,"y":2552278.2999999989}},{"attributes":{"ID":1178,"DIS_CODE":0,"TOWNNAME":"安南區","LI":"\u25A0南里","LIN":"25鄰","STREET":"長和路","SECT":"二段","MAREA":" ","LANE":"１２巷","ALLEY":"２９９弄","HOUSE_NO":"６７號","E_COORD97":170230.32000000001,"N_COORD97":2552278.2599999998,"ADDRESS":"長和路二段１２巷２９９弄６７號","OBJECTID":1178},"geometry":{"x":170230.31999999937,"y":2552278.2600000016}},{"attributes":{"ID":1179,"DIS_CODE":0,"TOWNNAME":"安南區","LI":"\u25A0南里","LIN":"10鄰","STREET":"長和路","SECT":"二段","MAREA":" ","LANE":"１２巷","ALLEY":"２１３弄","HOUSE_NO":"１０號","E_COORD97":170351.35999999999,"N_COORD97":2552052.8799999999,"ADDRESS":"長和路二段１２巷２１３弄１０號","OBJECTID":1179},"geometry":{"x":170351.36000000127,"y":2552052.8800000008}},{"attributes":{"ID":1180,"DIS_CODE":0,"TOWNNAME":"安南區","LI":"\u25A0南里","LIN":"10鄰","STREET":"長和路","SECT":"二段","MAREA":" ","LANE":"１２巷","ALLEY":"２１３弄","HOUSE_NO":"１２號","E_COORD97":170347.10000000001,"N_COORD97":2552052.8799999999,"ADDRESS":"長和路二段１２巷２１３弄１２號","OBJECTID":1180},"geometry":{"x":170347.10000000056,"y":2552052.8800000008}},{"attributes":{"ID":1181,"DIS_CODE":0,"TOWNNAME":"安南區","LI":"\u25A0南里","LIN":"10鄰","STREET":"長和路","SECT":"二段","MAREA":" ","LANE":"１２巷","ALLEY":"２１３弄","HOUSE_NO":"１４號","E_COORD97":170343.41,"N_COORD97":2552052.8799999999,"ADDRESS":"長和路二段１２巷２１３弄１４號","OBJECTID":1181},"geometry":{"x":170343.41000000108,"y":2552052.8800000008}},{"attributes":{"ID":1182,"DIS_CODE":0,"TOWNNAME":"安南區","LI":"\u25A0南里","LIN":"10鄰","STREET":"長和路","SECT":"二段","MAREA":" ","LANE":"１２巷","ALLEY":"２１３弄","HOUSE_NO":"１６號","E_COORD97":170339.34,"N_COORD97":2552052.2999999998,"ADDRESS":"長和路二段１２巷２１３弄１６號","OBJECTID":1182},"geometry":{"x":170339.33999999985,"y":2552052.3000000026}},{"attributes":{"ID":1183,"DIS_CODE":0,"TOWNNAME":"安南區","LI":"\u25A0南里","LIN":"10鄰","STREET":"長和路","SECT":"二段","MAREA":" ","LANE":"１２巷","ALLEY":"２１３弄","HOUSE_NO":"１８號","E_COORD97":170334.29999999999,"N_COORD97":2552053.4700000002,"ADDRESS":"長和路二段１２巷２１３弄１８號","OBJECTID":1183},"geometry":{"x":170334.29999999981,"y":2552053.4700000044}},{"attributes":{"ID":1184,"DIS_CODE":0,"TOWNNAME":"安南區","LI":"\u25A0南里","LIN":"10鄰","STREET":"長和路","SECT":"二段","MAREA":" ","LANE":"１２巷","ALLEY":"２１３弄","HOUSE_NO":"２０號","E_COORD97":170329.64999999999,"N_COORD97":2552053.0800000001,"ADDRESS":"長和路二段１２巷２１３弄２０號","OBJECTID":1184},"geometry":{"x":170329.65000000037,"y":2552053.0800000019}},{"attributes":{"ID":1185,"DIS_CODE":0,"TOWNNAME":"安南區","LI":"\u25A0南里","LIN":"24鄰","STREET":"長和路","SECT":"二段","MAREA":" ","LANE":"１２巷","ALLEY":"２３５弄","HOUSE_NO":"１０號","E_COORD97":170356.98000000001,"N_COORD97":2552123.7999999998,"ADDRESS":"長和路二段１２巷２３５弄１０號","OBJECTID":1185},"geometry":{"x":170356.98000000138,"y":2552123.8000000026}},{"attributes":{"ID":1186,"DIS_CODE":0,"TOWNNAME":"安南區","LI":"\u25A0南里","LIN":"10鄰","STREET":"長和路","SECT":"二段","MAREA":" ","LANE":"１２巷","ALLEY":"２３５弄","HOUSE_NO":"１１號","E_COORD97":170360.85999999999,"N_COORD97":2552068.4700000002,"ADDRESS":"長和路二段１２巷２３５弄１１號","OBJECTID":1186},"geometry":{"x":170360.86000000127,"y":2552068.4700000025}},{"attributes":{"ID":1187,"DIS_CODE":0,"TOWNNAME":"安南區","LI":"\u25A0南里","LIN":"10鄰","STREET":"長和路","SECT":"二段","MAREA":" ","LANE":"１２巷","ALLEY":"２３５弄","HOUSE_NO":"１３號","E_COORD97":170360.85999999999,"N_COORD97":2552065.1800000002,"ADDRESS":"長和路二段１２巷２３５弄１３號","OBJECTID":1187},"geometry":{"x":170360.86000000127,"y":2552065.1800000016}},{"attributes":{"ID":1188,"DIS_CODE":0,"TOWNNAME":"安南區","LI":"\u25A0南里","LIN":"10鄰","STREET":"長和路","SECT":"二段","MAREA":" ","LANE":"１２巷","ALLEY":"２３５弄","HOUSE_NO":"１５號","E_COORD97":170360.85999999999,"N_COORD97":2552060.9199999999,"ADDRESS":"長和路二段１２巷２３５弄１５號","OBJECTID":1188},"geometry":{"x":170360.86000000127,"y":2552060.9200000018}},{"attributes":{"ID":1189,"DIS_CODE":0,"TOWNNAME":"安南區","LI":"\u25A0南里","LIN":"10鄰","STREET":"長和路","SECT":"二段","MAREA":" ","LANE":"１２巷","ALLEY":"２３５弄","HOUSE_NO":"２９號","E_COORD97":170340.5,"N_COORD97":2552085.3199999998,"ADDRESS":"長和路二段１２巷２３５弄２９號","OBJECTID":1189},"geometry":{"x":170340.5,"y":2552085.3200000022}},{"attributes":{"ID":1190,"DIS_CODE":0,"TOWNNAME":"安南區","LI":"\u25A0南里","LIN":"10鄰","STREET":"長和路","SECT":"二段","MAREA":" ","LANE":"１２巷","ALLEY":"２３５弄","HOUSE_NO":"３１號","E_COORD97":170339.73000000001,"N_COORD97":2552089.3799999999,"ADDRESS":"長和路二段１２巷２３５弄３１號","OBJECTID":1190},"geometry":{"x":170339.73000000231,"y":2552089.379999999}},{"attributes":{"ID":1191,"DIS_CODE":0,"TOWNNAME":"安南區","LI":"\u25A0南里","LIN":"10鄰","STREET":"長和路","SECT":"二段","MAREA":" ","LANE":"１２巷","ALLEY":"２３５弄","HOUSE_NO":"３３號","E_COORD97":170333.14000000001,"N_COORD97":2552087.3500000001,"ADDRESS":"長和路二段１２巷２３５弄３３號","OBJECTID":1191},"geometry":{"x":170333.1400000006,"y":2552087.3500000034}},{"attributes":{"ID":1192,"DIS_CODE":0,"TOWNNAME":"安南區","LI":"\u25A0南里","LIN":"10鄰","STREET":"長和路","SECT":"二段","MAREA":" ","LANE":"１２巷","ALLEY":"２３５弄","HOUSE_NO":"３５號","E_COORD97":170328.48000000001,"N_COORD97":2552087.3500000001,"ADDRESS":"長和路二段１２巷２３５弄３５號","OBJECTID":1192},"geometry":{"x":170328.48000000138,"y":2552087.3500000034}},{"attributes":{"ID":1193,"DIS_CODE":0,"TOWNNAME":"安南區","LI":"\u25A0南里","LIN":"10鄰","STREET":"長和路","SECT":"二段","MAREA":" ","LANE":"１２巷","ALLEY":"２３５弄","HOUSE_NO":"３７號","E_COORD97":170323.44,"N_COORD97":2552086.77,"ADDRESS":"長和路二段１２巷２３５弄３７號","OBJECTID":1193},"geometry":{"x":170323.44000000134,"y":2552086.7699999996}},{"attributes":{"ID":1194,"DIS_CODE":0,"TOWNNAME":"安南區","LI":"\u25A0南里","LIN":"10鄰","STREET":"長和路","SECT":"二段","MAREA":" ","LANE":"１２巷","ALLEY":"２３５弄","HOUSE_NO":"３９號","E_COORD97":170318.39999999999,"N_COORD97":2552086.3799999999,"ADDRESS":"長和路二段１２巷２３５弄３９號","OBJECTID":1194},"geometry":{"x":170318.4000000013,"y":2552086.3800000027}},{"attributes":{"ID":1195,"DIS_CODE":0,"TOWNNAME":"安南區","LI":"\u25A0南里","LIN":"10鄰","STREET":"長和路","SECT":"二段","MAREA":" ","LANE":"１２巷","ALLEY":"２３５弄","HOUSE_NO":"３號","E_COORD97":170359.89000000001,"N_COORD97":2552085.1200000001,"ADDRESS":"長和路二段１２巷２３５弄３號","OBJECTID":1195},"geometry":{"x":170359.89000000153,"y":2552085.1200000029}},{"attributes":{"ID":1196,"DIS_CODE":0,"TOWNNAME":"安南區","LI":"\u25A0南里","LIN":"10鄰","STREET":"長和路","SECT":"二段","MAREA":" ","LANE":"１２巷","ALLEY":"２３５弄","HOUSE_NO":"４１號","E_COORD97":170313.75,"N_COORD97":2552086.1899999999,"ADDRESS":"長和路二段１２巷２３５弄４１號","OBJECTID":1196},"geometry":{"x":170313.75000000186,"y":2552086.1900000013}},{"attributes":{"ID":1197,"DIS_CODE":0,"TOWNNAME":"安南區","LI":"\u25A0南里","LIN":"10鄰","STREET":"長和路","SECT":"二段","MAREA":" ","LANE":"１２巷","ALLEY":"２３５弄","HOUSE_NO":"４３號","E_COORD97":170309.29000000001,"N_COORD97":2552085.7999999998,"ADDRESS":"長和路二段１２巷２３５弄４３號","OBJECTID":1197},"geometry":{"x":170309.29000000004,"y":2552085.8000000026}},{"attributes":{"ID":1198,"DIS_CODE":0,"TOWNNAME":"安南區","LI":"\u25A0南里","LIN":"10鄰","STREET":"長和路","SECT":"二段","MAREA":" ","LANE":"１２巷","ALLEY":"２３５弄","HOUSE_NO":"５１號","E_COORD97":170288.92999999999,"N_COORD97":2552085.0299999998,"ADDRESS":"長和路二段１２巷２３５弄５１號","OBJECTID":1198},"geometry":{"x":170288.93000000063,"y":2552085.0299999993}},{"attributes":{"ID":1199,"DIS_CODE":0,"TOWNNAME":"安南區","LI":"\u25A0南里","LIN":"10鄰","STREET":"長和路","SECT":"二段","MAREA":" ","LANE":"１２巷","ALLEY":"２３５弄","HOUSE_NO":"５３號","E_COORD97":170283.70000000001,"N_COORD97":2552084.6400000001,"ADDRESS":"長和路二段１２巷２３５弄５３號","OBJECTID":1199},"geometry":{"x":170283.70000000205,"y":2552084.6400000006}},{"attributes":{"ID":1200,"DIS_CODE":0,"TOWNNAME":"安南區","LI":"\u25A0南里","LIN":"10鄰","STREET":"長和路","SECT":"二段","MAREA":" ","LANE":"１２巷","ALLEY":"２３５弄","HOUSE_NO":"５５號","E_COORD97":170279.04000000001,"N_COORD97":2552084.6400000001,"ADDRESS":"長和路二段１２巷２３５弄５５號","OBJECTID":1200},"geometry":{"x":170279.04000000004,"y":2552084.6400000006}}]}