{"displayFieldName":"TOWNNAME","fieldAliases":{"ID":"ID","DIS_CODE":"DIS_CODE","TOWNNAME":"TOWNNAME","LI":"LI","LIN":"LIN","STREET":"STREET","SECT":"SECT","MAREA":"MAREA","LANE":"LANE","ALLEY":"ALLEY","HOUSE_NO":"HOUSE_NO","E_COORD97":"E_COORD97","N_COORD97":"N_COORD97","ADDRESS":"ADDRESS","OBJECTID":"OBJECTID"},"geometryType":"esriGeometryPoint","spatialReference":{"wkid":102443,"latestWkid":3826},"fields":[{"name":"ID","type":"esriFieldTypeDouble","alias":"ID"},{"name":"DIS_CODE","type":"esriFieldTypeInteger","alias":"DIS_CODE"},{"name":"TOWNNAME","type":"esriFieldTypeString","alias":"TOWNNAME","length":8},{"name":"LI","type":"esriFieldTypeString","alias":"LI","length":8},{"name":"LIN","type":"esriFieldTypeString","alias":"LIN","length":12},{"name":"STREET","type":"esriFieldTypeString","alias":"STREET","length":20},{"name":"SECT","type":"esriFieldTypeString","alias":"SECT","length":8},{"name":"MAREA","type":"esriFieldTypeString","alias":"MAREA","length":12},{"name":"LANE","type":"esriFieldTypeString","alias":"LANE","length":10},{"name":"ALLEY","type":"esriFieldTypeString","alias":"ALLEY","length":10},{"name":"HOUSE_NO","type":"esriFieldTypeString","alias":"HOUSE_NO","length":20},{"name":"E_COORD97","type":"esriFieldTypeDouble","alias":"E_COORD97"},{"name":"N_COORD97","type":"esriFieldTypeDouble","alias":"N_COORD97"},{"name":"ADDRESS","type":"esriFieldTypeString","alias":"ADDRESS","length":50},{"name":"OBJECTID","type":"esriFieldTypeOID","alias":"OBJECTID"}],"features":[{"attributes":{"ID":384411,"DIS_CODE":0,"TOWNNAME":"歸仁區","LI":"武東里","LIN":"9鄰","STREET":"中正南路","SECT":"三段","MAREA":" ","LANE":"９６巷","ALLEY":" ","HOUSE_NO":"３０號","E_COORD97":175193.31,"N_COORD97":2535045.2799999998,"ADDRESS":"中正南路三段９６巷３０號","OBJECTID":384401},"geometry":{"x":175193.31000000145,"y":2535045.2800000012}},{"attributes":{"ID":384412,"DIS_CODE":0,"TOWNNAME":"歸仁區","LI":"南保里","LIN":"9鄰","STREET":"文化十街","SECT":" ","MAREA":" ","LANE":"２８巷","ALLEY":" ","HOUSE_NO":"５３號","E_COORD97":176714.19,"N_COORD97":2541357.3300000001,"ADDRESS":"文化十街２８巷５３號","OBJECTID":384402},"geometry":{"x":176714.19000000134,"y":2541357.3300000038}},{"attributes":{"ID":384413,"DIS_CODE":0,"TOWNNAME":"歸仁區","LI":"看西里","LIN":"9鄰","STREET":"仁愛五街","SECT":" ","MAREA":" ","LANE":"２巷","ALLEY":" ","HOUSE_NO":"９號","E_COORD97":178349.07999999999,"N_COORD97":2540288.2000000002,"ADDRESS":"仁愛五街２巷９號","OBJECTID":384403},"geometry":{"x":178349.08000000101,"y":2540288.1999999993}},{"attributes":{"ID":384414,"DIS_CODE":0,"TOWNNAME":"關廟區","LI":"東勢里","LIN":"9鄰","STREET":"旺萊路","SECT":" ","MAREA":" ","LANE":"２６１巷","ALLEY":" ","HOUSE_NO":"５號","E_COORD97":182049.94,"N_COORD97":2539530.25,"ADDRESS":"旺萊路２６１巷５號","OBJECTID":384404},"geometry":{"x":182049.94000000041,"y":2539530.2500000037}},{"attributes":{"ID":384415,"DIS_CODE":0,"TOWNNAME":"關廟區","LI":"布袋里","LIN":"9鄰","STREET":"長文街","SECT":" ","MAREA":" ","LANE":"３９９巷","ALLEY":" ","HOUSE_NO":"３５號","E_COORD97":182292.34,"N_COORD97":2534646.2999999998,"ADDRESS":"長文街３９９巷３５號","OBJECTID":384405},"geometry":{"x":182292.33999999985,"y":2534646.3000000026}},{"attributes":{"ID":384416,"DIS_CODE":0,"TOWNNAME":"關廟區","LI":"布袋里","LIN":"9鄰","STREET":"長文街","SECT":" ","MAREA":" ","LANE":"３９９巷","ALLEY":" ","HOUSE_NO":"２１號","E_COORD97":182245.69,"N_COORD97":2534688.2999999998,"ADDRESS":"長文街３９９巷２１號","OBJECTID":384406},"geometry":{"x":182245.69000000134,"y":2534688.3000000007}},{"attributes":{"ID":384417,"DIS_CODE":0,"TOWNNAME":"關廟區","LI":"東勢里","LIN":"9鄰","STREET":"旺萊路","SECT":" ","MAREA":" ","LANE":"２６１巷","ALLEY":" ","HOUSE_NO":"２號","E_COORD97":182069.94,"N_COORD97":2539547.25,"ADDRESS":"旺萊路２６１巷２號","OBJECTID":384407},"geometry":{"x":182069.94000000041,"y":2539547.2500000037}},{"attributes":{"ID":384418,"DIS_CODE":0,"TOWNNAME":"關廟區","LI":"布袋里","LIN":"9鄰","STREET":"長文街","SECT":" ","MAREA":" ","LANE":"３７２巷","ALLEY":" ","HOUSE_NO":"３號","E_COORD97":182167.19,"N_COORD97":2534828.25,"ADDRESS":"長文街３７２巷３號","OBJECTID":384408},"geometry":{"x":182167.19000000227,"y":2534828.2500000019}},{"attributes":{"ID":384419,"DIS_CODE":0,"TOWNNAME":"關廟區","LI":"關廟里","LIN":"9鄰","STREET":"大富街","SECT":" ","MAREA":" ","LANE":"３０１巷","ALLEY":" ","HOUSE_NO":"６１號","E_COORD97":180939.01000000001,"N_COORD97":2539688.8799999999,"ADDRESS":"大富街３０１巷６１號","OBJECTID":384409},"geometry":{"x":180939.01000000071,"y":2539688.8800000008}},{"attributes":{"ID":384420,"DIS_CODE":0,"TOWNNAME":"關廟區","LI":"五甲里","LIN":"9鄰","STREET":"南雄路","SECT":"一段","MAREA":" ","LANE":"７２０巷","ALLEY":" ","HOUSE_NO":"５號","E_COORD97":181563.39000000001,"N_COORD97":2538798.2799999998,"ADDRESS":"南雄路一段７２０巷５號","OBJECTID":384410},"geometry":{"x":181563.39000000153,"y":2538798.2800000012}},{"attributes":{"ID":384421,"DIS_CODE":0,"TOWNNAME":"關廟區","LI":"松腳里","LIN":"9鄰","STREET":"四維街","SECT":" ","MAREA":" ","LANE":"１０１巷","ALLEY":" ","HOUSE_NO":"２２號","E_COORD97":181821.60999999999,"N_COORD97":2539695.25,"ADDRESS":"四維街１０１巷２２號","OBJECTID":384411},"geometry":{"x":181821.61000000034,"y":2539695.25}},{"attributes":{"ID":384422,"DIS_CODE":0,"TOWNNAME":"關廟區","LI":"五甲里","LIN":"9鄰","STREET":"南雄路","SECT":"一段","MAREA":" ","LANE":"５１６巷","ALLEY":" ","HOUSE_NO":"２６號","E_COORD97":181768.14000000001,"N_COORD97":2538309.2799999998,"ADDRESS":"南雄路一段５１６巷２６號","OBJECTID":384412},"geometry":{"x":181768.13999999966,"y":2538309.2800000012}},{"attributes":{"ID":384423,"DIS_CODE":0,"TOWNNAME":"關廟區","LI":"關廟里","LIN":"9鄰","STREET":"民生街","SECT":" ","MAREA":" ","LANE":"６３巷","ALLEY":" ","HOUSE_NO":"１７號","E_COORD97":180869.98999999999,"N_COORD97":2539576.29,"ADDRESS":"民生街６３巷１７號","OBJECTID":384413},"geometry":{"x":180869.99000000209,"y":2539576.2899999972}},{"attributes":{"ID":384424,"DIS_CODE":0,"TOWNNAME":"關廟區","LI":"關廟里","LIN":"9鄰","STREET":"大仁街","SECT":" ","MAREA":" ","LANE":"３４６巷","ALLEY":" ","HOUSE_NO":"１１號","E_COORD97":180863.22,"N_COORD97":2539664.25,"ADDRESS":"大仁街３４６巷１１號","OBJECTID":384414},"geometry":{"x":180863.22000000067,"y":2539664.25}},{"attributes":{"ID":384425,"DIS_CODE":0,"TOWNNAME":"關廟區","LI":"深坑里","LIN":"9鄰","STREET":"深坑三街","SECT":" ","MAREA":" ","LANE":"２５巷","ALLEY":" ","HOUSE_NO":"６號","E_COORD97":181858.01999999999,"N_COORD97":2537817.2999999998,"ADDRESS":"深坑三街２５巷６號","OBJECTID":384415},"geometry":{"x":181858.02000000048,"y":2537817.3000000007}},{"attributes":{"ID":384426,"DIS_CODE":0,"TOWNNAME":"關廟區","LI":"關廟里","LIN":"9鄰","STREET":"民生街","SECT":" ","MAREA":" ","LANE":"６３巷","ALLEY":" ","HOUSE_NO":"８號","E_COORD97":180879.14000000001,"N_COORD97":2539637.29,"ADDRESS":"民生街６３巷８號","OBJECTID":384416},"geometry":{"x":180879.1400000006,"y":2539637.2899999991}},{"attributes":{"ID":384427,"DIS_CODE":0,"TOWNNAME":"關廟區","LI":"關廟里","LIN":"9鄰","STREET":"民生街","SECT":" ","MAREA":" ","LANE":"６３巷","ALLEY":" ","HOUSE_NO":"２７號","E_COORD97":180874.59,"N_COORD97":2539595.29,"ADDRESS":"民生街６３巷２７號","OBJECTID":384417},"geometry":{"x":180874.59000000078,"y":2539595.2899999991}},{"attributes":{"ID":384428,"DIS_CODE":0,"TOWNNAME":"關廟區","LI":"埤頭里","LIN":"9鄰","STREET":"關新路","SECT":"二段","MAREA":" ","LANE":"５１巷","ALLEY":" ","HOUSE_NO":"９號","E_COORD97":179040.12,"N_COORD97":2544172.2999999998,"ADDRESS":"關新路二段５１巷９號","OBJECTID":384418},"geometry":{"x":179040.12000000104,"y":2544172.3000000045}},{"attributes":{"ID":384429,"DIS_CODE":0,"TOWNNAME":"關廟區","LI":"新埔里","LIN":"9鄰","STREET":"新埔三街","SECT":" ","MAREA":" ","LANE":"１３７巷","ALLEY":" ","HOUSE_NO":"８１號","E_COORD97":181307.87,"N_COORD97":2541976.25,"ADDRESS":"新埔三街１３７巷８１號","OBJECTID":384419},"geometry":{"x":181307.86999999918,"y":2541976.2500000019}},{"attributes":{"ID":384430,"DIS_CODE":0,"TOWNNAME":"關廟區","LI":"香洋里","LIN":"9鄰","STREET":"中山路","SECT":"二段","MAREA":" ","LANE":"３２巷","ALLEY":" ","HOUSE_NO":"６號","E_COORD97":181030.51000000001,"N_COORD97":2540040.2799999998,"ADDRESS":"中山路二段３２巷６號","OBJECTID":384420},"geometry":{"x":181030.51000000071,"y":2540040.2799999993}},{"attributes":{"ID":384431,"DIS_CODE":0,"TOWNNAME":"關廟區","LI":"新埔里","LIN":"9鄰","STREET":"新埔二街","SECT":" ","MAREA":" ","LANE":"７２巷","ALLEY":" ","HOUSE_NO":"９號","E_COORD97":181417.07000000001,"N_COORD97":2541018.25,"ADDRESS":"新埔二街７２巷９號","OBJECTID":384421},"geometry":{"x":181417.07000000216,"y":2541018.25}},{"attributes":{"ID":384432,"DIS_CODE":0,"TOWNNAME":"關廟區","LI":"關廟里","LIN":"9鄰","STREET":"民生街","SECT":" ","MAREA":" ","LANE":"６３巷","ALLEY":" ","HOUSE_NO":"２５號","E_COORD97":180873.39000000001,"N_COORD97":2539592.29,"ADDRESS":"民生街６３巷２５號","OBJECTID":384422},"geometry":{"x":180873.39000000153,"y":2539592.2899999991}},{"attributes":{"ID":384433,"DIS_CODE":0,"TOWNNAME":"關廟區","LI":"新埔里","LIN":"9鄰","STREET":"新埔二街","SECT":" ","MAREA":" ","LANE":"７２巷","ALLEY":" ","HOUSE_NO":"９５之１號","E_COORD97":181759.72,"N_COORD97":2541425.2999999998,"ADDRESS":"新埔二街７２巷９５之１號","OBJECTID":384423},"geometry":{"x":181759.72000000067,"y":2541425.3000000007}},{"attributes":{"ID":384434,"DIS_CODE":0,"TOWNNAME":"關廟區","LI":"北花里","LIN":"9鄰","STREET":"中正路","SECT":" ","MAREA":" ","LANE":"７３３巷","ALLEY":" ","HOUSE_NO":"５號","E_COORD97":181854.85999999999,"N_COORD97":2540366.25,"ADDRESS":"中正路７３３巷５號","OBJECTID":384424},"geometry":{"x":181854.86000000127,"y":2540366.25}},{"attributes":{"ID":384435,"DIS_CODE":0,"TOWNNAME":"關廟區","LI":"香洋里","LIN":"9鄰","STREET":"中山路","SECT":"二段","MAREA":" ","LANE":"３２巷","ALLEY":" ","HOUSE_NO":"２號","E_COORD97":181028.91,"N_COORD97":2540035.2799999998,"ADDRESS":"中山路二段３２巷２號","OBJECTID":384425},"geometry":{"x":181028.91000000015,"y":2540035.2800000012}},{"attributes":{"ID":384436,"DIS_CODE":0,"TOWNNAME":"關廟區","LI":"南花里","LIN":"9鄰","STREET":"四維街","SECT":" ","MAREA":" ","LANE":"２３１巷","ALLEY":" ","HOUSE_NO":"５號","E_COORD97":181808.85999999999,"N_COORD97":2540218.25,"ADDRESS":"四維街２３１巷５號","OBJECTID":384426},"geometry":{"x":181808.86000000127,"y":2540218.25}},{"attributes":{"ID":384437,"DIS_CODE":0,"TOWNNAME":"關廟區","LI":"南花里","LIN":"9鄰","STREET":"四維街","SECT":" ","MAREA":" ","LANE":"２３１巷","ALLEY":" ","HOUSE_NO":"１５號","E_COORD97":181789.70999999999,"N_COORD97":2540220.25,"ADDRESS":"四維街２３１巷１５號","OBJECTID":384427},"geometry":{"x":181789.70999999996,"y":2540220.25}},{"attributes":{"ID":384438,"DIS_CODE":0,"TOWNNAME":"關廟區","LI":"關廟里","LIN":"9鄰","STREET":"民生街","SECT":" ","MAREA":" ","LANE":"６３巷","ALLEY":" ","HOUSE_NO":"９號","E_COORD97":180884.04000000001,"N_COORD97":2539597.29,"ADDRESS":"民生街６３巷９號","OBJECTID":384428},"geometry":{"x":180884.04000000004,"y":2539597.290000001}},{"attributes":{"ID":384439,"DIS_CODE":0,"TOWNNAME":"關廟區","LI":"關廟里","LIN":"9鄰","STREET":"民生街","SECT":" ","MAREA":" ","LANE":"６３巷","ALLEY":" ","HOUSE_NO":"１５號","E_COORD97":180880.69,"N_COORD97":2539579.29,"ADDRESS":"民生街６３巷１５號","OBJECTID":384429},"geometry":{"x":180880.69000000227,"y":2539579.2899999991}},{"attributes":{"ID":384440,"DIS_CODE":0,"TOWNNAME":"關廟區","LI":"新埔里","LIN":"9鄰","STREET":"新埔三街","SECT":" ","MAREA":" ","LANE":"１３７巷","ALLEY":" ","HOUSE_NO":"８６號","E_COORD97":181541.97,"N_COORD97":2541950.25,"ADDRESS":"新埔三街１３７巷８６號","OBJECTID":384430},"geometry":{"x":181541.96999999974,"y":2541950.25}},{"attributes":{"ID":384441,"DIS_CODE":0,"TOWNNAME":"關廟區","LI":"香洋里","LIN":"9鄰","STREET":"中山路","SECT":"二段","MAREA":" ","LANE":"３２巷","ALLEY":" ","HOUSE_NO":"８號","E_COORD97":181031.31,"N_COORD97":2540045.2799999998,"ADDRESS":"中山路二段３２巷８號","OBJECTID":384431},"geometry":{"x":181031.30999999959,"y":2540045.2800000012}},{"attributes":{"ID":384442,"DIS_CODE":0,"TOWNNAME":"關廟區","LI":"香洋里","LIN":"9鄰","STREET":"中山路","SECT":"二段","MAREA":" ","LANE":"３２巷","ALLEY":" ","HOUSE_NO":"１０號","E_COORD97":181034.45999999999,"N_COORD97":2540054.2799999998,"ADDRESS":"中山路二段３２巷１０號","OBJECTID":384432},"geometry":{"x":181034.46000000089,"y":2540054.2799999993}},{"attributes":{"ID":384443,"DIS_CODE":0,"TOWNNAME":"關廟區","LI":"五甲里","LIN":"9鄰","STREET":"南雄路","SECT":"一段","MAREA":" ","LANE":"５１１巷","ALLEY":" ","HOUSE_NO":"２２號","E_COORD97":181524.73999999999,"N_COORD97":2538291.2799999998,"ADDRESS":"南雄路一段５１１巷２２號","OBJECTID":384433},"geometry":{"x":181524.74000000115,"y":2538291.2799999993}},{"attributes":{"ID":384444,"DIS_CODE":0,"TOWNNAME":"關廟區","LI":"關廟里","LIN":"9鄰","STREET":"民生街","SECT":" ","MAREA":" ","LANE":"６３巷","ALLEY":" ","HOUSE_NO":"３１號","E_COORD97":180876.48999999999,"N_COORD97":2539603.29,"ADDRESS":"民生街６３巷３１號","OBJECTID":384434},"geometry":{"x":180876.49000000022,"y":2539603.2899999991}},{"attributes":{"ID":384445,"DIS_CODE":0,"TOWNNAME":"關廟區","LI":"關廟里","LIN":"9鄰","STREET":"大仁街","SECT":" ","MAREA":" ","LANE":"３４６巷","ALLEY":" ","HOUSE_NO":"３５號","E_COORD97":180853.22,"N_COORD97":2539621.25,"ADDRESS":"大仁街３４６巷３５號","OBJECTID":384435},"geometry":{"x":180853.22000000067,"y":2539621.25}},{"attributes":{"ID":384446,"DIS_CODE":0,"TOWNNAME":"關廟區","LI":"關廟里","LIN":"9鄰","STREET":"民生街","SECT":" ","MAREA":" ","LANE":"６３巷","ALLEY":" ","HOUSE_NO":"３３號","E_COORD97":180877.69,"N_COORD97":2539607.29,"ADDRESS":"民生街６３巷３３號","OBJECTID":384436},"geometry":{"x":180877.69000000134,"y":2539607.2900000028}},{"attributes":{"ID":384447,"DIS_CODE":0,"TOWNNAME":"關廟區","LI":"關廟里","LIN":"9鄰","STREET":"民生街","SECT":" ","MAREA":" ","LANE":"６３巷","ALLEY":" ","HOUSE_NO":"２１號","E_COORD97":180871.89000000001,"N_COORD97":2539584.29,"ADDRESS":"民生街６３巷２１號","OBJECTID":384437},"geometry":{"x":180871.8900000006,"y":2539584.290000001}},{"attributes":{"ID":384448,"DIS_CODE":0,"TOWNNAME":"關廟區","LI":"深坑里","LIN":"9鄰","STREET":"深坑三街","SECT":" ","MAREA":" ","LANE":"２５巷","ALLEY":" ","HOUSE_NO":"１８號","E_COORD97":181879.12,"N_COORD97":2537823.2999999998,"ADDRESS":"深坑三街２５巷１８號","OBJECTID":384438},"geometry":{"x":181879.11999999918,"y":2537823.3000000026}},{"attributes":{"ID":384449,"DIS_CODE":0,"TOWNNAME":"關廟區","LI":"深坑里","LIN":"9鄰","STREET":"深坑三街","SECT":" ","MAREA":" ","LANE":"２５巷","ALLEY":" ","HOUSE_NO":"１７號","E_COORD97":181834.87,"N_COORD97":2537880.2999999998,"ADDRESS":"深坑三街２５巷１７號","OBJECTID":384439},"geometry":{"x":181834.87000000011,"y":2537880.3000000026}},{"attributes":{"ID":384450,"DIS_CODE":0,"TOWNNAME":"關廟區","LI":"南花里","LIN":"9鄰","STREET":"四維街","SECT":" ","MAREA":" ","LANE":"２３１巷","ALLEY":" ","HOUSE_NO":"９號","E_COORD97":181800.76000000001,"N_COORD97":2540218.25,"ADDRESS":"四維街２３１巷９號","OBJECTID":384440},"geometry":{"x":181800.76000000071,"y":2540218.25}},{"attributes":{"ID":384451,"DIS_CODE":0,"TOWNNAME":"關廟區","LI":"埤頭里","LIN":"9鄰","STREET":"關新路","SECT":"二段","MAREA":" ","LANE":"２３巷","ALLEY":" ","HOUSE_NO":"２２號","E_COORD97":179002.26999999999,"N_COORD97":2544094.25,"ADDRESS":"關新路二段２３巷２２號","OBJECTID":384441},"geometry":{"x":179002.26999999955,"y":2544094.2500000019}},{"attributes":{"ID":384452,"DIS_CODE":0,"TOWNNAME":"關廟區","LI":"新埔里","LIN":"9鄰","STREET":"忠孝街","SECT":" ","MAREA":" ","LANE":"３４０巷","ALLEY":" ","HOUSE_NO":"９號","E_COORD97":181230.44,"N_COORD97":2541076.25,"ADDRESS":"忠孝街３４０巷９號","OBJECTID":384442},"geometry":{"x":181230.44000000134,"y":2541076.2500000037}},{"attributes":{"ID":384453,"DIS_CODE":0,"TOWNNAME":"關廟區","LI":"南花里","LIN":"9鄰","STREET":"四維街","SECT":" ","MAREA":" ","LANE":"２３１巷","ALLEY":" ","HOUSE_NO":"１３號","E_COORD97":181794.01000000001,"N_COORD97":2540220.25,"ADDRESS":"四維街２３１巷１３號","OBJECTID":384443},"geometry":{"x":181794.00999999978,"y":2540220.25}},{"attributes":{"ID":384454,"DIS_CODE":0,"TOWNNAME":"關廟區","LI":"新埔里","LIN":"9鄰","STREET":"新埔二街","SECT":" ","MAREA":" ","LANE":"７２巷","ALLEY":" ","HOUSE_NO":"１號","E_COORD97":181393.97,"N_COORD97":2540981.25,"ADDRESS":"新埔二街７２巷１號","OBJECTID":384444},"geometry":{"x":181393.97000000067,"y":2540981.2500000037}},{"attributes":{"ID":384455,"DIS_CODE":0,"TOWNNAME":"關廟區","LI":"深坑里","LIN":"9鄰","STREET":"深坑三街","SECT":" ","MAREA":" ","LANE":"２５巷","ALLEY":" ","HOUSE_NO":"２６號","E_COORD97":181890.62,"N_COORD97":2537826.2999999998,"ADDRESS":"深坑三街２５巷２６號","OBJECTID":384445},"geometry":{"x":181890.62000000011,"y":2537826.3000000026}},{"attributes":{"ID":384456,"DIS_CODE":0,"TOWNNAME":"關廟區","LI":"北勢里","LIN":"9鄰","STREET":"北安一街","SECT":" ","MAREA":" ","LANE":"１９２巷","ALLEY":" ","HOUSE_NO":"９號","E_COORD97":181621.34,"N_COORD97":2540487.3199999998,"ADDRESS":"北安一街１９２巷９號","OBJECTID":384446},"geometry":{"x":181621.33999999985,"y":2540487.3200000022}},{"attributes":{"ID":384457,"DIS_CODE":0,"TOWNNAME":"關廟區","LI":"松腳里","LIN":"9鄰","STREET":"四維街","SECT":" ","MAREA":" ","LANE":"１０１巷","ALLEY":" ","HOUSE_NO":"１２號","E_COORD97":181837.31,"N_COORD97":2539695.25,"ADDRESS":"四維街１０１巷１２號","OBJECTID":384447},"geometry":{"x":181837.31000000052,"y":2539695.25}},{"attributes":{"ID":384458,"DIS_CODE":0,"TOWNNAME":"關廟區","LI":"關廟里","LIN":"9鄰","STREET":"大富街","SECT":" ","MAREA":" ","LANE":"３０１巷","ALLEY":" ","HOUSE_NO":"３７號","E_COORD97":180959.48999999999,"N_COORD97":2539675.1499999999,"ADDRESS":"大富街３０１巷３７號","OBJECTID":384448},"geometry":{"x":180959.49000000022,"y":2539675.1500000022}},{"attributes":{"ID":384459,"DIS_CODE":0,"TOWNNAME":"關廟區","LI":"深坑里","LIN":"9鄰","STREET":"深坑三街","SECT":" ","MAREA":" ","LANE":"２５巷","ALLEY":" ","HOUSE_NO":"１６號","E_COORD97":181874.51999999999,"N_COORD97":2537822.2999999998,"ADDRESS":"深坑三街２５巷１６號","OBJECTID":384449},"geometry":{"x":181874.52000000048,"y":2537822.3000000026}},{"attributes":{"ID":384460,"DIS_CODE":0,"TOWNNAME":"關廟區","LI":"五甲里","LIN":"9鄰","STREET":"南雄路","SECT":"一段","MAREA":" ","LANE":"５１１巷","ALLEY":" ","HOUSE_NO":"１８號","E_COORD97":181553.54000000001,"N_COORD97":2538288.2799999998,"ADDRESS":"南雄路一段５１１巷１８號","OBJECTID":384450},"geometry":{"x":181553.54000000004,"y":2538288.2799999975}},{"attributes":{"ID":384461,"DIS_CODE":0,"TOWNNAME":"鹽水區","LI":"三生里","LIN":"9鄰","STREET":"民生街","SECT":" ","MAREA":" ","LANE":"４巷","ALLEY":" ","HOUSE_NO":"９號","E_COORD97":175135.54999999999,"N_COORD97":2580062.4300000002,"ADDRESS":"民生街４巷９號","OBJECTID":384451},"geometry":{"x":175135.54999999981,"y":2580062.4300000016}},{"attributes":{"ID":384462,"DIS_CODE":0,"TOWNNAME":"關廟區","LI":"關廟里","LIN":"9鄰","STREET":"大富街","SECT":" ","MAREA":" ","LANE":"３０１巷","ALLEY":" ","HOUSE_NO":"５１號","E_COORD97":180964.48999999999,"N_COORD97":2539645.1499999999,"ADDRESS":"大富街３０１巷５１號","OBJECTID":384452},"geometry":{"x":180964.49000000022,"y":2539645.1500000004}},{"attributes":{"ID":384463,"DIS_CODE":0,"TOWNNAME":"關廟區","LI":"新埔里","LIN":"9鄰","STREET":"新埔二街","SECT":" ","MAREA":" ","LANE":"７２巷","ALLEY":" ","HOUSE_NO":"７號","E_COORD97":181423.17000000001,"N_COORD97":2541015.25,"ADDRESS":"新埔二街７２巷７號","OBJECTID":384453},"geometry":{"x":181423.17000000086,"y":2541015.2500000037}},{"attributes":{"ID":384464,"DIS_CODE":0,"TOWNNAME":"關廟區","LI":"五甲里","LIN":"9鄰","STREET":"南雄路","SECT":"一段","MAREA":" ","LANE":"５１１巷","ALLEY":" ","HOUSE_NO":"３號","E_COORD97":181581.39000000001,"N_COORD97":2538281.2799999998,"ADDRESS":"南雄路一段５１１巷３號","OBJECTID":384454},"geometry":{"x":181581.38999999966,"y":2538281.2799999993}},{"attributes":{"ID":384465,"DIS_CODE":0,"TOWNNAME":"關廟區","LI":"深坑里","LIN":"9鄰","STREET":"深坑三街","SECT":" ","MAREA":" ","LANE":"２５巷","ALLEY":" ","HOUSE_NO":"２號","E_COORD97":181853.72,"N_COORD97":2537816.2999999998,"ADDRESS":"深坑三街２５巷２號","OBJECTID":384455},"geometry":{"x":181853.71999999974,"y":2537816.3000000026}},{"attributes":{"ID":384466,"DIS_CODE":0,"TOWNNAME":"關廟區","LI":"深坑里","LIN":"9鄰","STREET":"深坑三街","SECT":" ","MAREA":" ","LANE":"２５巷","ALLEY":" ","HOUSE_NO":"３２號","E_COORD97":181901.67000000001,"N_COORD97":2537829.2999999998,"ADDRESS":"深坑三街２５巷３２號","OBJECTID":384456},"geometry":{"x":181901.66999999993,"y":2537829.3000000026}},{"attributes":{"ID":384467,"DIS_CODE":0,"TOWNNAME":"關廟區","LI":"關廟里","LIN":"9鄰","STREET":"大富街","SECT":" ","MAREA":" ","LANE":"３０１巷","ALLEY":" ","HOUSE_NO":"３１號","E_COORD97":180956.39000000001,"N_COORD97":2539688.1499999999,"ADDRESS":"大富街３０１巷３１號","OBJECTID":384457},"geometry":{"x":180956.39000000153,"y":2539688.1500000022}},{"attributes":{"ID":384468,"DIS_CODE":0,"TOWNNAME":"關廟區","LI":"關廟里","LIN":"9鄰","STREET":"民生街","SECT":" ","MAREA":" ","LANE":"６３巷","ALLEY":" ","HOUSE_NO":"３５號","E_COORD97":180878.39000000001,"N_COORD97":2539611.29,"ADDRESS":"民生街６３巷３５號","OBJECTID":384458},"geometry":{"x":180878.39000000153,"y":2539611.290000001}},{"attributes":{"ID":384469,"DIS_CODE":0,"TOWNNAME":"關廟區","LI":"五甲里","LIN":"9鄰","STREET":"南雄路","SECT":"一段","MAREA":" ","LANE":"５３１巷","ALLEY":" ","HOUSE_NO":"６號","E_COORD97":181558.39000000001,"N_COORD97":2538364.2799999998,"ADDRESS":"南雄路一段５３１巷６號","OBJECTID":384459},"geometry":{"x":181558.3900000006,"y":2538364.2800000012}},{"attributes":{"ID":384470,"DIS_CODE":0,"TOWNNAME":"關廟區","LI":"五甲里","LIN":"9鄰","STREET":"南雄路","SECT":"一段","MAREA":" ","LANE":"５１１巷","ALLEY":" ","HOUSE_NO":"７號","E_COORD97":181554.59,"N_COORD97":2538257.2799999998,"ADDRESS":"南雄路一段５１１巷７號","OBJECTID":384460},"geometry":{"x":181554.58999999985,"y":2538257.2799999993}},{"attributes":{"ID":384471,"DIS_CODE":0,"TOWNNAME":"關廟區","LI":"關廟里","LIN":"9鄰","STREET":"大富街","SECT":" ","MAREA":" ","LANE":"３０１巷","ALLEY":" ","HOUSE_NO":"７７號","E_COORD97":180945.51000000001,"N_COORD97":2539654.8799999999,"ADDRESS":"大富街３０１巷７７號","OBJECTID":384461},"geometry":{"x":180945.51000000164,"y":2539654.8800000008}},{"attributes":{"ID":384472,"DIS_CODE":0,"TOWNNAME":"關廟區","LI":"關廟里","LIN":"9鄰","STREET":"大仁街","SECT":" ","MAREA":" ","LANE":"３４６巷","ALLEY":" ","HOUSE_NO":"１３號","E_COORD97":180874.72,"N_COORD97":2539661.25,"ADDRESS":"大仁街３４６巷１３號","OBJECTID":384462},"geometry":{"x":180874.7200000016,"y":2539661.25}},{"attributes":{"ID":384473,"DIS_CODE":0,"TOWNNAME":"關廟區","LI":"五甲里","LIN":"9鄰","STREET":"南雄路","SECT":"一段","MAREA":" ","LANE":"５１１巷","ALLEY":" ","HOUSE_NO":"１０號","E_COORD97":181583.04000000001,"N_COORD97":2538296.2799999998,"ADDRESS":"南雄路一段５１１巷１０號","OBJECTID":384463},"geometry":{"x":181583.0400000019,"y":2538296.2800000012}},{"attributes":{"ID":384474,"DIS_CODE":0,"TOWNNAME":"關廟區","LI":"關廟里","LIN":"9鄰","STREET":"民生街","SECT":" ","MAREA":" ","LANE":"６３巷","ALLEY":" ","HOUSE_NO":"１１號","E_COORD97":180883.39000000001,"N_COORD97":2539590.29,"ADDRESS":"民生街６３巷１１號","OBJECTID":384464},"geometry":{"x":180883.38999999966,"y":2539590.2900000028}},{"attributes":{"ID":384475,"DIS_CODE":0,"TOWNNAME":"新化區","LI":"武安里","LIN":"9鄰","STREET":"大同街","SECT":" ","MAREA":" ","LANE":"４９巷","ALLEY":" ","HOUSE_NO":"５號","E_COORD97":178956.07999999999,"N_COORD97":2548181.25,"ADDRESS":"大同街４９巷５號","OBJECTID":384465},"geometry":{"x":178956.08000000101,"y":2548181.25}},{"attributes":{"ID":384476,"DIS_CODE":0,"TOWNNAME":"南區","LI":"建南里","LIN":"9鄰","STREET":"德興路","SECT":" ","MAREA":" ","LANE":"２７４巷","ALLEY":" ","HOUSE_NO":"１１號","E_COORD97":167165.85999999999,"N_COORD97":2540001.75,"ADDRESS":"德興路２７４巷１１號","OBJECTID":384466},"geometry":{"x":167165.86000000127,"y":2540001.7500000037}},{"attributes":{"ID":384477,"DIS_CODE":0,"TOWNNAME":"南區","LI":"再興里","LIN":"9鄰","STREET":"仁慈街","SECT":" ","MAREA":" ","LANE":"７６巷","ALLEY":" ","HOUSE_NO":"２號","E_COORD97":167244.12,"N_COORD97":2542167.4100000001,"ADDRESS":"仁慈街７６巷２號","OBJECTID":384467},"geometry":{"x":167244.12000000011,"y":2542167.410000002}},{"attributes":{"ID":384478,"DIS_CODE":0,"TOWNNAME":"南區","LI":"建南里","LIN":"9鄰","STREET":"德興路","SECT":" ","MAREA":" ","LANE":"２７４巷","ALLEY":" ","HOUSE_NO":"７３號","E_COORD97":167006.32000000001,"N_COORD97":2540003.8999999999,"ADDRESS":"德興路２７４巷７３號","OBJECTID":384468},"geometry":{"x":167006.32000000123,"y":2540003.9000000004}},{"attributes":{"ID":384479,"DIS_CODE":0,"TOWNNAME":"南區","LI":"建南里","LIN":"9鄰","STREET":"德興路","SECT":" ","MAREA":" ","LANE":"２７４巷","ALLEY":" ","HOUSE_NO":"７１號","E_COORD97":167011.25,"N_COORD97":2540003.3999999999,"ADDRESS":"德興路２７４巷７１號","OBJECTID":384469},"geometry":{"x":167011.25,"y":2540003.4000000004}},{"attributes":{"ID":384480,"DIS_CODE":0,"TOWNNAME":"南區","LI":"建南里","LIN":"9鄰","STREET":"德興路","SECT":" ","MAREA":" ","LANE":"２７４巷","ALLEY":" ","HOUSE_NO":"７５號","E_COORD97":166983.35000000001,"N_COORD97":2539991.29,"ADDRESS":"德興路２７４巷７５號","OBJECTID":384470},"geometry":{"x":166983.35000000149,"y":2539991.290000001}},{"attributes":{"ID":384481,"DIS_CODE":0,"TOWNNAME":"南區","LI":"建南里","LIN":"9鄰","STREET":"德興路","SECT":" ","MAREA":" ","LANE":"２７４巷","ALLEY":" ","HOUSE_NO":"７７號","E_COORD97":166983.92999999999,"N_COORD97":2539996.8300000001,"ADDRESS":"德興路２７４巷７７號","OBJECTID":384471},"geometry":{"x":166983.9299999997,"y":2539996.8300000001}},{"attributes":{"ID":384482,"DIS_CODE":0,"TOWNNAME":"南區","LI":"建南里","LIN":"9鄰","STREET":"德興路","SECT":" ","MAREA":" ","LANE":"２７４巷","ALLEY":" ","HOUSE_NO":"７９號","E_COORD97":166983.16,"N_COORD97":2540000.8300000001,"ADDRESS":"德興路２７４巷７９號","OBJECTID":384472},"geometry":{"x":166983.16000000015,"y":2540000.8299999982}},{"attributes":{"ID":384483,"DIS_CODE":0,"TOWNNAME":"南區","LI":"建南里","LIN":"9鄰","STREET":"德興路","SECT":" ","MAREA":" ","LANE":"２７４巷","ALLEY":" ","HOUSE_NO":"８１號","E_COORD97":166983.92999999999,"N_COORD97":2540005.2200000002,"ADDRESS":"德興路２７４巷８１號","OBJECTID":384473},"geometry":{"x":166983.9299999997,"y":2540005.2200000007}},{"attributes":{"ID":384484,"DIS_CODE":0,"TOWNNAME":"南區","LI":"日新里","LIN":"9鄰","STREET":"金華路","SECT":"一段","MAREA":" ","LANE":"５０３巷","ALLEY":" ","HOUSE_NO":"１４１號","E_COORD97":166849.78,"N_COORD97":2541547.3900000001,"ADDRESS":"金華路一段５０３巷１４１號","OBJECTID":384474},"geometry":{"x":166849.78000000026,"y":2541547.3900000043}},{"attributes":{"ID":384485,"DIS_CODE":0,"TOWNNAME":"南區","LI":"文南里","LIN":"9鄰","STREET":"健康路","SECT":"二段","MAREA":" ","LANE":"２６４巷","ALLEY":" ","HOUSE_NO":"１１號","E_COORD97":166964.23000000001,"N_COORD97":2542549.25,"ADDRESS":"健康路二段２６４巷１１號","OBJECTID":384475},"geometry":{"x":166964.23000000045,"y":2542549.2500000019}},{"attributes":{"ID":384486,"DIS_CODE":0,"TOWNNAME":"南區","LI":"大忠里","LIN":"9鄰","STREET":"大同路","SECT":"二段","MAREA":" ","LANE":"４８２巷","ALLEY":" ","HOUSE_NO":"１２５號之１","E_COORD97":169150.94,"N_COORD97":2541549.0499999998,"ADDRESS":"大同路二段４８２巷１２５號之１","OBJECTID":384476},"geometry":{"x":169150.94000000041,"y":2541549.0500000007}},{"attributes":{"ID":384487,"DIS_CODE":0,"TOWNNAME":"南區","LI":"大忠里","LIN":"9鄰","STREET":"大同路","SECT":"二段","MAREA":" ","LANE":"４８２巷","ALLEY":" ","HOUSE_NO":"１２５號之２","E_COORD97":169145.89999999999,"N_COORD97":2541549.0499999998,"ADDRESS":"大同路二段４８２巷１２５號之２","OBJECTID":384477},"geometry":{"x":169145.90000000037,"y":2541549.0500000007}},{"attributes":{"ID":384488,"DIS_CODE":0,"TOWNNAME":"南區","LI":"大忠里","LIN":"9鄰","STREET":"大同路","SECT":"二段","MAREA":" ","LANE":"４８２巷","ALLEY":" ","HOUSE_NO":"１２５號之５","E_COORD97":169131.60999999999,"N_COORD97":2541548.8399999999,"ADDRESS":"大同路二段４８２巷１２５號之５","OBJECTID":384478},"geometry":{"x":169131.6099999994,"y":2541548.8399999999}},{"attributes":{"ID":384489,"DIS_CODE":0,"TOWNNAME":"南區","LI":"大忠里","LIN":"9鄰","STREET":"大同路","SECT":"二段","MAREA":" ","LANE":"４８２巷","ALLEY":" ","HOUSE_NO":"１２５號之６","E_COORD97":169126.98999999999,"N_COORD97":2541548.8399999999,"ADDRESS":"大同路二段４８２巷１２５號之６","OBJECTID":384479},"geometry":{"x":169126.99000000022,"y":2541548.8399999999}},{"attributes":{"ID":384490,"DIS_CODE":0,"TOWNNAME":"南區","LI":"大忠里","LIN":"9鄰","STREET":"大同路","SECT":"二段","MAREA":" ","LANE":"４８２巷","ALLEY":" ","HOUSE_NO":"１２５號","E_COORD97":169155.35000000001,"N_COORD97":2541549.2599999998,"ADDRESS":"大同路二段４８２巷１２５號","OBJECTID":384480},"geometry":{"x":169155.35000000056,"y":2541549.2599999998}},{"attributes":{"ID":384491,"DIS_CODE":0,"TOWNNAME":"南區","LI":"大忠里","LIN":"9鄰","STREET":"大同路","SECT":"二段","MAREA":" ","LANE":"４８２巷","ALLEY":" ","HOUSE_NO":"１２５號之３","E_COORD97":169141.06,"N_COORD97":2541549.0499999998,"ADDRESS":"大同路二段４８２巷１２５號之３","OBJECTID":384481},"geometry":{"x":169141.05999999959,"y":2541549.0500000007}},{"attributes":{"ID":384492,"DIS_CODE":0,"TOWNNAME":"南區","LI":"大忠里","LIN":"9鄰","STREET":"大同路","SECT":"二段","MAREA":" ","LANE":"４８２巷","ALLEY":" ","HOUSE_NO":"１２５號之４","E_COORD97":169136.44,"N_COORD97":2541549.0499999998,"ADDRESS":"大同路二段４８２巷１２５號之４","OBJECTID":384482},"geometry":{"x":169136.44000000227,"y":2541549.0500000007}},{"attributes":{"ID":384493,"DIS_CODE":0,"TOWNNAME":"鹽水區","LI":"三生里","LIN":"9鄰","STREET":"民生街","SECT":" ","MAREA":" ","LANE":"４巷","ALLEY":" ","HOUSE_NO":"８之３號","E_COORD97":175112.29000000001,"N_COORD97":2580074.23,"ADDRESS":"民生街４巷８之３號","OBJECTID":384483},"geometry":{"x":175112.29000000004,"y":2580074.2300000023}},{"attributes":{"ID":384494,"DIS_CODE":0,"TOWNNAME":"南區","LI":"大忠里","LIN":"9鄰","STREET":"大同路","SECT":"二段","MAREA":" ","LANE":"４８２巷","ALLEY":" ","HOUSE_NO":"１２５號之７","E_COORD97":169121.95000000001,"N_COORD97":2541548.6299999999,"ADDRESS":"大同路二段４８２巷１２５號之７","OBJECTID":384484},"geometry":{"x":169121.95000000019,"y":2541548.6300000008}},{"attributes":{"ID":384495,"DIS_CODE":0,"TOWNNAME":"南區","LI":"大林里","LIN":"9鄰","STREET":"大同路","SECT":"二段","MAREA":" ","LANE":"４８２巷","ALLEY":" ","HOUSE_NO":"１２６號","E_COORD97":169143.63,"N_COORD97":2541584.8900000001,"ADDRESS":"大同路二段４８２巷１２６號","OBJECTID":384485},"geometry":{"x":169143.63000000082,"y":2541584.8900000025}},{"attributes":{"ID":384496,"DIS_CODE":0,"TOWNNAME":"南區","LI":"大林里","LIN":"9鄰","STREET":"大同路","SECT":"二段","MAREA":" ","LANE":"４８２巷","ALLEY":" ","HOUSE_NO":"１２６號之１","E_COORD97":169143.20000000001,"N_COORD97":2541591.4399999999,"ADDRESS":"大同路二段４８２巷１２６號之１","OBJECTID":384486},"geometry":{"x":169143.20000000112,"y":2541591.4400000013}},{"attributes":{"ID":384497,"DIS_CODE":0,"TOWNNAME":"南區","LI":"大林里","LIN":"9鄰","STREET":"大同路","SECT":"二段","MAREA":" ","LANE":"４８２巷","ALLEY":" ","HOUSE_NO":"１２６號之１０","E_COORD97":169118.51000000001,"N_COORD97":2541594.5699999998,"ADDRESS":"大同路二段４８２巷１２６號之１０","OBJECTID":384487},"geometry":{"x":169118.51000000071,"y":2541594.5700000022}},{"attributes":{"ID":384498,"DIS_CODE":0,"TOWNNAME":"南區","LI":"大林里","LIN":"9鄰","STREET":"大同路","SECT":"二段","MAREA":" ","LANE":"４８２巷","ALLEY":" ","HOUSE_NO":"１２６號之１１","E_COORD97":169118.57000000001,"N_COORD97":2541590.7000000002,"ADDRESS":"大同路二段４８２巷１２６號之１１","OBJECTID":384488},"geometry":{"x":169118.57000000123,"y":2541590.6999999993}},{"attributes":{"ID":384499,"DIS_CODE":0,"TOWNNAME":"南區","LI":"大林里","LIN":"9鄰","STREET":"大同路","SECT":"二段","MAREA":" ","LANE":"４８２巷","ALLEY":" ","HOUSE_NO":"１２６號之１２","E_COORD97":169120.12,"N_COORD97":2541585.9399999999,"ADDRESS":"大同路二段４８２巷１２６號之１２","OBJECTID":384489},"geometry":{"x":169120.12000000104,"y":2541585.9399999995}},{"attributes":{"ID":384500,"DIS_CODE":0,"TOWNNAME":"南區","LI":"大林里","LIN":"9鄰","STREET":"大同路","SECT":"二段","MAREA":" ","LANE":"４８２巷","ALLEY":" ","HOUSE_NO":"１２６號之２","E_COORD97":169143.14000000001,"N_COORD97":2541596.5,"ADDRESS":"大同路二段４８２巷１２６號之２","OBJECTID":384490},"geometry":{"x":169143.1400000006,"y":2541596.4999999981}},{"attributes":{"ID":384501,"DIS_CODE":0,"TOWNNAME":"南區","LI":"大林里","LIN":"9鄰","STREET":"大同路","SECT":"二段","MAREA":" ","LANE":"４８２巷","ALLEY":" ","HOUSE_NO":"１２６號之３","E_COORD97":169142.70000000001,"N_COORD97":2541601.8100000001,"ADDRESS":"大同路二段４８２巷１２６號之３","OBJECTID":384491},"geometry":{"x":169142.69999999925,"y":2541601.8099999987}},{"attributes":{"ID":384502,"DIS_CODE":0,"TOWNNAME":"南區","LI":"大林里","LIN":"9鄰","STREET":"大同路","SECT":"二段","MAREA":" ","LANE":"４８２巷","ALLEY":" ","HOUSE_NO":"１２６號之４","E_COORD97":169142.14999999999,"N_COORD97":2541607.1299999999,"ADDRESS":"大同路二段４８２巷１２６號之４","OBJECTID":384492},"geometry":{"x":169142.1500000013,"y":2541607.129999999}},{"attributes":{"ID":384503,"DIS_CODE":0,"TOWNNAME":"南區","LI":"大林里","LIN":"9鄰","STREET":"大同路","SECT":"二段","MAREA":" ","LANE":"４８２巷","ALLEY":" ","HOUSE_NO":"１２６號之５","E_COORD97":169142.45000000001,"N_COORD97":2541612.6899999999,"ADDRESS":"大同路二段４８２巷１２６號之５","OBJECTID":384493},"geometry":{"x":169142.45000000019,"y":2541612.6900000013}},{"attributes":{"ID":384504,"DIS_CODE":0,"TOWNNAME":"南區","LI":"大林里","LIN":"9鄰","STREET":"大同路","SECT":"二段","MAREA":" ","LANE":"４８２巷","ALLEY":" ","HOUSE_NO":"１２６號之６","E_COORD97":169141.84,"N_COORD97":2541617.4900000002,"ADDRESS":"大同路二段４８２巷１２６號之６","OBJECTID":384494},"geometry":{"x":169141.84000000078,"y":2541617.4900000039}},{"attributes":{"ID":384505,"DIS_CODE":0,"TOWNNAME":"南區","LI":"大林里","LIN":"9鄰","STREET":"大同路","SECT":"二段","MAREA":" ","LANE":"４８２巷","ALLEY":" ","HOUSE_NO":"１２６號之７","E_COORD97":169126.60999999999,"N_COORD97":2541614.9700000002,"ADDRESS":"大同路二段４８２巷１２６號之７","OBJECTID":384495},"geometry":{"x":169126.6100000022,"y":2541614.9700000025}},{"attributes":{"ID":384506,"DIS_CODE":0,"TOWNNAME":"南區","LI":"大林里","LIN":"9鄰","STREET":"大同路","SECT":"二段","MAREA":" ","LANE":"４８２巷","ALLEY":" ","HOUSE_NO":"１２６號之８","E_COORD97":169126.79999999999,"N_COORD97":2541607.9100000001,"ADDRESS":"大同路二段４８２巷１２６號之８","OBJECTID":384496},"geometry":{"x":169126.80000000075,"y":2541607.9100000039}},{"attributes":{"ID":384507,"DIS_CODE":0,"TOWNNAME":"南區","LI":"大林里","LIN":"9鄰","STREET":"大同路","SECT":"二段","MAREA":" ","LANE":"４８２巷","ALLEY":" ","HOUSE_NO":"１２６號之９","E_COORD97":169116.97,"N_COORD97":2541599.2000000002,"ADDRESS":"大同路二段４８２巷１２６號之９","OBJECTID":384497},"geometry":{"x":169116.97000000067,"y":2541599.2000000011}},{"attributes":{"ID":384508,"DIS_CODE":0,"TOWNNAME":"南區","LI":"大林里","LIN":"9鄰","STREET":"大同路","SECT":"二段","MAREA":" ","LANE":"４８２巷","ALLEY":" ","HOUSE_NO":"１２４號","E_COORD97":169146.73999999999,"N_COORD97":2541571.25,"ADDRESS":"大同路二段４８２巷１２４號","OBJECTID":384498},"geometry":{"x":169146.74000000115,"y":2541571.2500000037}},{"attributes":{"ID":384509,"DIS_CODE":0,"TOWNNAME":"南區","LI":"大林里","LIN":"9鄰","STREET":"大同路","SECT":"二段","MAREA":" ","LANE":"４８２巷","ALLEY":" ","HOUSE_NO":"１３０號","E_COORD97":169129.79999999999,"N_COORD97":2541573.48,"ADDRESS":"大同路二段４８２巷１３０號","OBJECTID":384499},"geometry":{"x":169129.80000000168,"y":2541573.4800000042}},{"attributes":{"ID":384510,"DIS_CODE":0,"TOWNNAME":"南區","LI":"大林里","LIN":"9鄰","STREET":"大同路","SECT":"二段","MAREA":" ","LANE":"４８２巷","ALLEY":" ","HOUSE_NO":"１３２號","E_COORD97":169124.78,"N_COORD97":2541573.5600000001,"ADDRESS":"大同路二段４８２巷１３２號","OBJECTID":384500},"geometry":{"x":169124.78000000026,"y":2541573.5600000024}},{"attributes":{"ID":384511,"DIS_CODE":0,"TOWNNAME":"南區","LI":"大林里","LIN":"9鄰","STREET":"大同路","SECT":"二段","MAREA":" ","LANE":"４８２巷","ALLEY":" ","HOUSE_NO":"１３４號","E_COORD97":169120.14999999999,"N_COORD97":2541570.54,"ADDRESS":"大同路二段４８２巷１３４號","OBJECTID":384501},"geometry":{"x":169120.1500000013,"y":2541570.5399999991}},{"attributes":{"ID":384512,"DIS_CODE":0,"TOWNNAME":"鹽水區","LI":"三生里","LIN":"9鄰","STREET":"民生街","SECT":" ","MAREA":" ","LANE":"４巷","ALLEY":" ","HOUSE_NO":"１０號","E_COORD97":175157.59,"N_COORD97":2580087.2200000002,"ADDRESS":"民生街４巷１０號","OBJECTID":384502},"geometry":{"x":175157.58999999892,"y":2580087.2200000025}},{"attributes":{"ID":384513,"DIS_CODE":0,"TOWNNAME":"鹽水區","LI":"三生里","LIN":"9鄰","STREET":"民生街","SECT":" ","MAREA":" ","LANE":"４巷","ALLEY":" ","HOUSE_NO":"１１號","E_COORD97":175171.70000000001,"N_COORD97":2580078.54,"ADDRESS":"民生街４巷１１號","OBJECTID":384503},"geometry":{"x":175171.70000000112,"y":2580078.5399999991}},{"attributes":{"ID":384514,"DIS_CODE":0,"TOWNNAME":"鹽水區","LI":"三生里","LIN":"9鄰","STREET":"民生街","SECT":" ","MAREA":" ","LANE":"４巷","ALLEY":" ","HOUSE_NO":"１２號","E_COORD97":175139.98999999999,"N_COORD97":2580087.9100000001,"ADDRESS":"民生街４巷１２號","OBJECTID":384504},"geometry":{"x":175139.99000000022,"y":2580087.9100000001}},{"attributes":{"ID":384515,"DIS_CODE":0,"TOWNNAME":"鹽水區","LI":"三生里","LIN":"9鄰","STREET":"民生街","SECT":" ","MAREA":" ","LANE":"４巷","ALLEY":" ","HOUSE_NO":"１３號之１","E_COORD97":175126.98999999999,"N_COORD97":2580071.5,"ADDRESS":"民生街４巷１３號之１","OBJECTID":384505},"geometry":{"x":175126.99000000115,"y":2580071.5000000019}},{"attributes":{"ID":384516,"DIS_CODE":0,"TOWNNAME":"永康區","LI":"二王里","LIN":" ","STREET":"永二街","SECT":" ","MAREA":" ","LANE":"３７６巷","ALLEY":" ","HOUSE_NO":"６號","E_COORD97":172885.17999999999,"N_COORD97":2546695.52,"ADDRESS":"永二街３７６巷６號","OBJECTID":384506},"geometry":{"x":172885.1799999997,"y":2546695.5200000033}},{"attributes":{"ID":384517,"DIS_CODE":0,"TOWNNAME":"永康區","LI":"\u25A0行里","LIN":"23鄰","STREET":"中正南路","SECT":" ","MAREA":" ","LANE":"５９２巷","ALLEY":" ","HOUSE_NO":"３５號","E_COORD97":171597.60000000001,"N_COORD97":2548570.4500000002,"ADDRESS":"中正南路５９２巷３５號","OBJECTID":384507},"geometry":{"x":171597.60000000149,"y":2548570.450000003}},{"attributes":{"ID":384518,"DIS_CODE":0,"TOWNNAME":"永康區","LI":"\u25A0洲里","LIN":"32鄰","STREET":"\u25A0行路","SECT":" ","MAREA":" ","LANE":"３２８巷","ALLEY":" ","HOUSE_NO":"１號","E_COORD97":171025.23999999999,"N_COORD97":2548963.0800000001,"ADDRESS":"\u25A0行路３２８巷１號","OBJECTID":384508},"geometry":{"x":171025.24000000022,"y":2548963.0800000001}},{"attributes":{"ID":384519,"DIS_CODE":0,"TOWNNAME":"鹽水區","LI":"三生里","LIN":"9鄰","STREET":"民生街","SECT":" ","MAREA":" ","LANE":"４巷","ALLEY":" ","HOUSE_NO":"２號","E_COORD97":175138.17999999999,"N_COORD97":2580050.79,"ADDRESS":"民生街４巷２號","OBJECTID":384509},"geometry":{"x":175138.17999999877,"y":2580050.7900000028}},{"attributes":{"ID":384520,"DIS_CODE":0,"TOWNNAME":"鹽水區","LI":"三生里","LIN":"9鄰","STREET":"民生街","SECT":" ","MAREA":" ","LANE":"４巷","ALLEY":" ","HOUSE_NO":"５號","E_COORD97":175132.41,"N_COORD97":2580031.8399999999,"ADDRESS":"民生街４巷５號","OBJECTID":384510},"geometry":{"x":175132.41000000108,"y":2580031.8400000017}},{"attributes":{"ID":384521,"DIS_CODE":0,"TOWNNAME":"鹽水區","LI":"三生里","LIN":"9鄰","STREET":"民生街","SECT":" ","MAREA":" ","LANE":"４巷","ALLEY":" ","HOUSE_NO":"６號","E_COORD97":175137.98000000001,"N_COORD97":2580034,"ADDRESS":"民生街４巷６號","OBJECTID":384511},"geometry":{"x":175137.98000000045,"y":2580034.0000000019}},{"attributes":{"ID":384522,"DIS_CODE":0,"TOWNNAME":"鹽水區","LI":"三生里","LIN":"9鄰","STREET":"民生街","SECT":" ","MAREA":" ","LANE":"４巷","ALLEY":" ","HOUSE_NO":"７號","E_COORD97":175142.44,"N_COORD97":2580036.4700000002,"ADDRESS":"民生街４巷７號","OBJECTID":384512},"geometry":{"x":175142.44000000227,"y":2580036.4700000007}},{"attributes":{"ID":384523,"DIS_CODE":0,"TOWNNAME":"鹽水區","LI":"三生里","LIN":"9鄰","STREET":"民生街","SECT":" ","MAREA":" ","LANE":"４巷","ALLEY":" ","HOUSE_NO":"８之２號","E_COORD97":175154.91,"N_COORD97":2580049.2999999998,"ADDRESS":"民生街４巷８之２號","OBJECTID":384513},"geometry":{"x":175154.91000000108,"y":2580049.3000000045}},{"attributes":{"ID":384524,"DIS_CODE":0,"TOWNNAME":"永康區","LI":"\u25A0行里","LIN":"19鄰","STREET":"正南五街","SECT":" ","MAREA":" ","LANE":"５２０巷","ALLEY":" ","HOUSE_NO":"４７號","E_COORD97":171689.25,"N_COORD97":2548796.3300000001,"ADDRESS":"正南五街５２０巷４７號","OBJECTID":384514},"geometry":{"x":171689.25000000093,"y":2548796.3300000019}},{"attributes":{"ID":384525,"DIS_CODE":0,"TOWNNAME":"鹽水區","LI":"中境里","LIN":"9鄰","STREET":"武廟路","SECT":" ","MAREA":" ","LANE":"１０巷","ALLEY":" ","HOUSE_NO":"２號","E_COORD97":174959.16,"N_COORD97":2579963.0800000001,"ADDRESS":"武廟路１０巷２號","OBJECTID":384515},"geometry":{"x":174959.15999999922,"y":2579963.0800000019}},{"attributes":{"ID":384526,"DIS_CODE":0,"TOWNNAME":"鹽水區","LI":"中境里","LIN":"9鄰","STREET":"武廟路","SECT":" ","MAREA":" ","LANE":"１０巷","ALLEY":" ","HOUSE_NO":"４號","E_COORD97":174966.04000000001,"N_COORD97":2579956.4500000002,"ADDRESS":"武廟路１０巷４號","OBJECTID":384516},"geometry":{"x":174966.04000000004,"y":2579956.4500000011}},{"attributes":{"ID":384527,"DIS_CODE":0,"TOWNNAME":"安平區","LI":"華平里","LIN":"9鄰","STREET":"怡平路","SECT":" ","MAREA":" ","LANE":"４１０巷","ALLEY":" ","HOUSE_NO":"２１號","E_COORD97":165399.16,"N_COORD97":2543878.1200000001,"ADDRESS":"怡平路４１０巷２１號","OBJECTID":384517},"geometry":{"x":165399.16000000108,"y":2543878.120000001}},{"attributes":{"ID":384528,"DIS_CODE":0,"TOWNNAME":"鹽水區","LI":"橋南里","LIN":"9鄰","STREET":"南門路","SECT":" ","MAREA":" ","LANE":"１５４巷","ALLEY":" ","HOUSE_NO":"１５號","E_COORD97":175289.69,"N_COORD97":2579036.7000000002,"ADDRESS":"南門路１５４巷１５號","OBJECTID":384518},"geometry":{"x":175289.69000000041,"y":2579036.6999999993}},{"attributes":{"ID":384529,"DIS_CODE":0,"TOWNNAME":"鹽水區","LI":"橋南里","LIN":"9鄰","STREET":"南門路","SECT":" ","MAREA":" ","LANE":"１５４巷","ALLEY":" ","HOUSE_NO":"１７號","E_COORD97":175272.26000000001,"N_COORD97":2579030.2799999998,"ADDRESS":"南門路１５４巷１７號","OBJECTID":384519},"geometry":{"x":175272.26000000071,"y":2579030.2799999993}},{"attributes":{"ID":384530,"DIS_CODE":0,"TOWNNAME":"鹽水區","LI":"橋南里","LIN":"9鄰","STREET":"南門路","SECT":" ","MAREA":" ","LANE":"１５４巷","ALLEY":" ","HOUSE_NO":"１號","E_COORD97":175303.39999999999,"N_COORD97":2579046.0099999998,"ADDRESS":"南門路１５４巷１號","OBJECTID":384520},"geometry":{"x":175303.40000000037,"y":2579046.0099999998}},{"attributes":{"ID":384531,"DIS_CODE":0,"TOWNNAME":"鹽水區","LI":"橋南里","LIN":"9鄰","STREET":"南門路","SECT":" ","MAREA":" ","LANE":"１５４巷","ALLEY":" ","HOUSE_NO":"３號","E_COORD97":175298.56,"N_COORD97":2579043.8700000001,"ADDRESS":"南門路１５４巷３號","OBJECTID":384521},"geometry":{"x":175298.56000000052,"y":2579043.870000001}},{"attributes":{"ID":384532,"DIS_CODE":0,"TOWNNAME":"鹽水區","LI":"橋南里","LIN":"9鄰","STREET":"南門路","SECT":" ","MAREA":" ","LANE":"１５４巷","ALLEY":" ","HOUSE_NO":"５號","E_COORD97":175309.34,"N_COORD97":2579028.3300000001,"ADDRESS":"南門路１５４巷５號","OBJECTID":384522},"geometry":{"x":175309.34000000078,"y":2579028.3300000019}},{"attributes":{"ID":384533,"DIS_CODE":0,"TOWNNAME":"永康區","LI":"五王里","LIN":" ","STREET":"中山東路","SECT":" ","MAREA":" ","LANE":"１２０巷","ALLEY":" ","HOUSE_NO":"１５６號","E_COORD97":171716.98999999999,"N_COORD97":2545814.6200000001,"ADDRESS":"中山東路１２０巷１５６號","OBJECTID":384523},"geometry":{"x":171716.99000000022,"y":2545814.6200000048}},{"attributes":{"ID":384534,"DIS_CODE":0,"TOWNNAME":"永康區","LI":"復興里","LIN":" ","STREET":"復興路","SECT":" ","MAREA":" ","LANE":"２７７巷","ALLEY":" ","HOUSE_NO":"１２０之１號","E_COORD97":172363.26999999999,"N_COORD97":2544040.77,"ADDRESS":"復興路２７７巷１２０之１號","OBJECTID":384524},"geometry":{"x":172363.27000000048,"y":2544040.7699999996}},{"attributes":{"ID":384535,"DIS_CODE":0,"TOWNNAME":"永康區","LI":"大橋里","LIN":" ","STREET":"大橋一街","SECT":" ","MAREA":" ","LANE":"１９７巷","ALLEY":" ","HOUSE_NO":"３０４號","E_COORD97":171199.54000000001,"N_COORD97":2546572.4900000002,"ADDRESS":"大橋一街１９７巷３０４號","OBJECTID":384525},"geometry":{"x":171199.54000000004,"y":2546572.4900000002}},{"attributes":{"ID":384536,"DIS_CODE":0,"TOWNNAME":"永康區","LI":"南灣里","LIN":" ","STREET":"大灣路","SECT":" ","MAREA":" ","LANE":"７６４巷","ALLEY":" ","HOUSE_NO":"３８號","E_COORD97":174185.22,"N_COORD97":2544611.7400000002,"ADDRESS":"大灣路７６４巷３８號","OBJECTID":384526},"geometry":{"x":174185.21999999974,"y":2544611.7400000002}},{"attributes":{"ID":384537,"DIS_CODE":0,"TOWNNAME":"永康區","LI":"正強里","LIN":" ","STREET":"中正路","SECT":" ","MAREA":" ","LANE":"１５３巷","ALLEY":" ","HOUSE_NO":"１５１之１號","E_COORD97":173300.73000000001,"N_COORD97":2547866.0499999998,"ADDRESS":"中正路１５３巷１５１之１號","OBJECTID":384527},"geometry":{"x":173300.73000000045,"y":2547866.0500000045}},{"attributes":{"ID":384538,"DIS_CODE":0,"TOWNNAME":"永康區","LI":"\u25A0行里","LIN":"1鄰","STREET":"中正北路","SECT":" ","MAREA":" ","LANE":"１０２巷","ALLEY":" ","HOUSE_NO":"５號","E_COORD97":172264.48000000001,"N_COORD97":2549025,"ADDRESS":"中正北路１０２巷５號","OBJECTID":384528},"geometry":{"x":172264.48000000138,"y":2549025.0000000037}},{"attributes":{"ID":384539,"DIS_CODE":0,"TOWNNAME":"永康區","LI":"\u25A0行里","LIN":"35鄰","STREET":"中正北路","SECT":" ","MAREA":" ","LANE":"１７７巷","ALLEY":" ","HOUSE_NO":"２５號","E_COORD97":172385.07000000001,"N_COORD97":2549194.2200000002,"ADDRESS":"中正北路１７７巷２５號","OBJECTID":384529},"geometry":{"x":172385.07000000216,"y":2549194.2200000025}},{"attributes":{"ID":384540,"DIS_CODE":0,"TOWNNAME":"永康區","LI":"\u25A0洲里","LIN":"24鄰","STREET":"正南二街","SECT":" ","MAREA":" ","LANE":"８６巷","ALLEY":" ","HOUSE_NO":"２６號","E_COORD97":170802.51000000001,"N_COORD97":2548503.75,"ADDRESS":"正南二街８６巷２６號","OBJECTID":384530},"geometry":{"x":170802.50999999978,"y":2548503.75}},{"attributes":{"ID":384541,"DIS_CODE":0,"TOWNNAME":"永康區","LI":"\u25A0洲里","LIN":"7鄰","STREET":"\u25A0洲二街","SECT":" ","MAREA":" ","LANE":"２２１巷","ALLEY":" ","HOUSE_NO":"２３號","E_COORD97":171783.47,"N_COORD97":2549548.25,"ADDRESS":"\u25A0洲二街２２１巷２３號","OBJECTID":384531},"geometry":{"x":171783.47000000067,"y":2549548.25}},{"attributes":{"ID":384542,"DIS_CODE":0,"TOWNNAME":"永康區","LI":"\u25A0行里","LIN":"39鄰","STREET":"永安路","SECT":" ","MAREA":" ","LANE":"１０５巷","ALLEY":" ","HOUSE_NO":"２１號","E_COORD97":172724.59,"N_COORD97":2549235.6299999999,"ADDRESS":"永安路１０５巷２１號","OBJECTID":384532},"geometry":{"x":172724.58999999985,"y":2549235.629999999}},{"attributes":{"ID":384543,"DIS_CODE":0,"TOWNNAME":"永康區","LI":"\u25A0洲里","LIN":"7鄰","STREET":"\u25A0洲二街","SECT":" ","MAREA":" ","LANE":"２２１巷","ALLEY":" ","HOUSE_NO":"１７號","E_COORD97":171797.26999999999,"N_COORD97":2549541.5,"ADDRESS":"\u25A0洲二街２２１巷１７號","OBJECTID":384533},"geometry":{"x":171797.26999999955,"y":2549541.5000000019}},{"attributes":{"ID":384544,"DIS_CODE":0,"TOWNNAME":"永康區","LI":"\u25A0洲里","LIN":"7鄰","STREET":"\u25A0洲二街","SECT":" ","MAREA":" ","LANE":"２２１巷","ALLEY":" ","HOUSE_NO":"２７號","E_COORD97":171770.76999999999,"N_COORD97":2549556.25,"ADDRESS":"\u25A0洲二街２２１巷２７號","OBJECTID":384534},"geometry":{"x":171770.76999999862,"y":2549556.2500000019}},{"attributes":{"ID":384545,"DIS_CODE":0,"TOWNNAME":"永康區","LI":"\u25A0行里","LIN":"1鄰","STREET":"中正路","SECT":" ","MAREA":" ","LANE":"９７０巷","ALLEY":" ","HOUSE_NO":"１２號","E_COORD97":171988.35999999999,"N_COORD97":2549009,"ADDRESS":"中正路９７０巷１２號","OBJECTID":384535},"geometry":{"x":171988.36000000127,"y":2549009.0000000019}},{"attributes":{"ID":384546,"DIS_CODE":0,"TOWNNAME":"永康區","LI":"五王里","LIN":" ","STREET":"成功路","SECT":" ","MAREA":" ","LANE":"１７２巷","ALLEY":" ","HOUSE_NO":"５２號","E_COORD97":171582.13,"N_COORD97":2545702.4900000002,"ADDRESS":"成功路１７２巷５２號","OBJECTID":384536},"geometry":{"x":171582.12999999989,"y":2545702.4900000002}},{"attributes":{"ID":384547,"DIS_CODE":0,"TOWNNAME":"永康區","LI":"南灣里","LIN":" ","STREET":"南興路","SECT":" ","MAREA":" ","LANE":"２巷","ALLEY":" ","HOUSE_NO":"５之５號","E_COORD97":174258.22,"N_COORD97":2543986.23,"ADDRESS":"南興路２巷５之５號","OBJECTID":384537},"geometry":{"x":174258.2200000016,"y":2543986.2300000023}},{"attributes":{"ID":384548,"DIS_CODE":0,"TOWNNAME":"永康區","LI":"\u25A0行里","LIN":"38鄰","STREET":"仁愛街","SECT":" ","MAREA":" ","LANE":"１３８巷","ALLEY":" ","HOUSE_NO":"７號","E_COORD97":172216.76000000001,"N_COORD97":2549654.7799999998,"ADDRESS":"仁愛街１３８巷７號","OBJECTID":384538},"geometry":{"x":172216.75999999978,"y":2549654.7799999993}},{"attributes":{"ID":384549,"DIS_CODE":0,"TOWNNAME":"永康區","LI":"\u25A0行里","LIN":"40鄰","STREET":"永安路","SECT":" ","MAREA":" ","LANE":"１０５巷","ALLEY":" ","HOUSE_NO":"４８號","E_COORD97":172588.06,"N_COORD97":2549294.8599999999,"ADDRESS":"永安路１０５巷４８號","OBJECTID":384539},"geometry":{"x":172588.06000000052,"y":2549294.8600000013}},{"attributes":{"ID":384550,"DIS_CODE":0,"TOWNNAME":"北區","LI":"成德里","LIN":"9鄰","STREET":"育德路","SECT":" ","MAREA":" ","LANE":"２１５巷","ALLEY":" ","HOUSE_NO":"５號","E_COORD97":168600.87,"N_COORD97":2545707.0800000001,"ADDRESS":"育德路２１５巷５號","OBJECTID":384540},"geometry":{"x":168600.87000000197,"y":2545707.0800000019}},{"attributes":{"ID":384551,"DIS_CODE":0,"TOWNNAME":"北區","LI":"成德里","LIN":"9鄰","STREET":"育德路","SECT":" ","MAREA":" ","LANE":"２１５巷","ALLEY":" ","HOUSE_NO":"６號","E_COORD97":168612.29999999999,"N_COORD97":2545727.2400000002,"ADDRESS":"育德路２１５巷６號","OBJECTID":384541},"geometry":{"x":168612.29999999981,"y":2545727.2400000002}},{"attributes":{"ID":384552,"DIS_CODE":0,"TOWNNAME":"北區","LI":"成德里","LIN":"9鄰","STREET":"育德路","SECT":" ","MAREA":" ","LANE":"２１５巷","ALLEY":" ","HOUSE_NO":"７號","E_COORD97":168595.14999999999,"N_COORD97":2545708.6600000001,"ADDRESS":"育德路２１５巷７號","OBJECTID":384542},"geometry":{"x":168595.15000000037,"y":2545708.660000002}},{"attributes":{"ID":384553,"DIS_CODE":0,"TOWNNAME":"北區","LI":"成德里","LIN":"9鄰","STREET":"育德路","SECT":" ","MAREA":" ","LANE":"２１５巷","ALLEY":" ","HOUSE_NO":"８號","E_COORD97":168605.31,"N_COORD97":2545728.0299999998,"ADDRESS":"育德路２１５巷８號","OBJECTID":384543},"geometry":{"x":168605.30999999959,"y":2545728.0299999993}},{"attributes":{"ID":384554,"DIS_CODE":0,"TOWNNAME":"北區","LI":"成德里","LIN":"9鄰","STREET":"育德路","SECT":" ","MAREA":" ","LANE":"２１５巷","ALLEY":" ","HOUSE_NO":"１０號","E_COORD97":168599.28,"N_COORD97":2545729.46,"ADDRESS":"育德路２１５巷１０號","OBJECTID":384544},"geometry":{"x":168599.28000000026,"y":2545729.4600000009}},{"attributes":{"ID":384555,"DIS_CODE":0,"TOWNNAME":"永康區","LI":"\u25A0行里","LIN":"39鄰","STREET":"永安路","SECT":" ","MAREA":" ","LANE":"１０５巷","ALLEY":" ","HOUSE_NO":"９號","E_COORD97":172730.09,"N_COORD97":2549229.3799999999,"ADDRESS":"永安路１０５巷９號","OBJECTID":384545},"geometry":{"x":172730.08999999892,"y":2549229.3800000008}},{"attributes":{"ID":384556,"DIS_CODE":0,"TOWNNAME":"北區","LI":"成德里","LIN":"9鄰","STREET":"育德路","SECT":" ","MAREA":" ","LANE":"２１５巷","ALLEY":" ","HOUSE_NO":"９號","E_COORD97":168589.44,"N_COORD97":2545709.9300000002,"ADDRESS":"育德路２１５巷９號","OBJECTID":384546},"geometry":{"x":168589.44000000134,"y":2545709.9300000016}},{"attributes":{"ID":384557,"DIS_CODE":0,"TOWNNAME":"北區","LI":"成德里","LIN":"9鄰","STREET":"育德路","SECT":" ","MAREA":" ","LANE":"２１５巷","ALLEY":" ","HOUSE_NO":"１１號","E_COORD97":168582.92999999999,"N_COORD97":2545711.0499999998,"ADDRESS":"育德路２１５巷１１號","OBJECTID":384547},"geometry":{"x":168582.92999999877,"y":2545711.0500000026}},{"attributes":{"ID":384558,"DIS_CODE":0,"TOWNNAME":"北區","LI":"成德里","LIN":"9鄰","STREET":"育德路","SECT":" ","MAREA":" ","LANE":"２１５巷","ALLEY":" ","HOUSE_NO":"１２號","E_COORD97":168593.25,"N_COORD97":2545730.25,"ADDRESS":"育德路２１５巷１２號","OBJECTID":384548},"geometry":{"x":168593.25000000093,"y":2545730.25}},{"attributes":{"ID":384559,"DIS_CODE":0,"TOWNNAME":"北區","LI":"成德里","LIN":"9鄰","STREET":"育德路","SECT":" ","MAREA":" ","LANE":"２１５巷","ALLEY":" ","HOUSE_NO":"１３號","E_COORD97":168577.37,"N_COORD97":2545712,"ADDRESS":"育德路２１５巷１３號","OBJECTID":384549},"geometry":{"x":168577.37000000104,"y":2545712}},{"attributes":{"ID":384560,"DIS_CODE":0,"TOWNNAME":"北區","LI":"成德里","LIN":"9鄰","STREET":"育德路","SECT":" ","MAREA":" ","LANE":"２１５巷","ALLEY":" ","HOUSE_NO":"１５號","E_COORD97":168570.70000000001,"N_COORD97":2545712.79,"ADDRESS":"育德路２１５巷１５號","OBJECTID":384550},"geometry":{"x":168570.70000000019,"y":2545712.7899999991}},{"attributes":{"ID":384561,"DIS_CODE":0,"TOWNNAME":"北區","LI":"成德里","LIN":"9鄰","STREET":"育德路","SECT":" ","MAREA":" ","LANE":"２１５巷","ALLEY":" ","HOUSE_NO":"１６號","E_COORD97":168587.53,"N_COORD97":2545731.52,"ADDRESS":"育德路２１５巷１６號","OBJECTID":384551},"geometry":{"x":168587.53000000026,"y":2545731.5199999996}},{"attributes":{"ID":384562,"DIS_CODE":0,"TOWNNAME":"北區","LI":"成德里","LIN":"9鄰","STREET":"育德路","SECT":" ","MAREA":" ","LANE":"２１５巷","ALLEY":" ","HOUSE_NO":"１７號","E_COORD97":168564.35000000001,"N_COORD97":2545713.7400000002,"ADDRESS":"育德路２１５巷１７號","OBJECTID":384552},"geometry":{"x":168564.34999999963,"y":2545713.7400000002}},{"attributes":{"ID":384563,"DIS_CODE":0,"TOWNNAME":"北區","LI":"成德里","LIN":"9鄰","STREET":"育德路","SECT":" ","MAREA":" ","LANE":"２１５巷","ALLEY":" ","HOUSE_NO":"１８號","E_COORD97":168580.85999999999,"N_COORD97":2545732.48,"ADDRESS":"育德路２１５巷１８號","OBJECTID":384553},"geometry":{"x":168580.8600000022,"y":2545732.4800000004}},{"attributes":{"ID":384564,"DIS_CODE":0,"TOWNNAME":"北區","LI":"成德里","LIN":"9鄰","STREET":"育德路","SECT":" ","MAREA":" ","LANE":"２１５巷","ALLEY":" ","HOUSE_NO":"１９號","E_COORD97":168557.37,"N_COORD97":2545715.1699999999,"ADDRESS":"育德路２１５巷１９號","OBJECTID":384554},"geometry":{"x":168557.37000000104,"y":2545715.1700000018}},{"attributes":{"ID":384565,"DIS_CODE":0,"TOWNNAME":"北區","LI":"成德里","LIN":"9鄰","STREET":"育德路","SECT":" ","MAREA":" ","LANE":"２１５巷","ALLEY":" ","HOUSE_NO":"２０號","E_COORD97":168574.51000000001,"N_COORD97":2545733.1099999999,"ADDRESS":"育德路２１５巷２０號","OBJECTID":384555},"geometry":{"x":168574.51000000071,"y":2545733.1100000013}},{"attributes":{"ID":384566,"DIS_CODE":0,"TOWNNAME":"北區","LI":"成德里","LIN":"9鄰","STREET":"育德路","SECT":" ","MAREA":" ","LANE":"２１５巷","ALLEY":" ","HOUSE_NO":"２１號","E_COORD97":168550.07000000001,"N_COORD97":2545716.2799999998,"ADDRESS":"育德路２１５巷２１號","OBJECTID":384556},"geometry":{"x":168550.0700000003,"y":2545716.2799999993}},{"attributes":{"ID":384567,"DIS_CODE":0,"TOWNNAME":"北區","LI":"成德里","LIN":"9鄰","STREET":"育德路","SECT":" ","MAREA":" ","LANE":"２１５巷","ALLEY":" ","HOUSE_NO":"２２號","E_COORD97":168566.42000000001,"N_COORD97":2545734.3799999999,"ADDRESS":"育德路２１５巷２２號","OBJECTID":384557},"geometry":{"x":168566.42000000179,"y":2545734.3800000008}},{"attributes":{"ID":384568,"DIS_CODE":0,"TOWNNAME":"北區","LI":"成德里","LIN":"9鄰","STREET":"育德路","SECT":" ","MAREA":" ","LANE":"２１５巷","ALLEY":" ","HOUSE_NO":"２３號","E_COORD97":168541.97,"N_COORD97":2545717.8700000001,"ADDRESS":"育德路２１５巷２３號","OBJECTID":384558},"geometry":{"x":168541.96999999881,"y":2545717.8699999992}},{"attributes":{"ID":384569,"DIS_CODE":0,"TOWNNAME":"北區","LI":"成德里","LIN":"9鄰","STREET":"育德路","SECT":" ","MAREA":" ","LANE":"２１５巷","ALLEY":" ","HOUSE_NO":"２５號","E_COORD97":168534.19,"N_COORD97":2545719.2999999998,"ADDRESS":"育德路２１５巷２５號","OBJECTID":384559},"geometry":{"x":168534.19000000041,"y":2545719.3000000026}},{"attributes":{"ID":384570,"DIS_CODE":0,"TOWNNAME":"北區","LI":"成德里","LIN":"9鄰","STREET":"育德路","SECT":" ","MAREA":" ","LANE":"２１５巷","ALLEY":" ","HOUSE_NO":"２６號","E_COORD97":168559.75,"N_COORD97":2545735.3300000001,"ADDRESS":"育德路２１５巷２６號","OBJECTID":384560},"geometry":{"x":168559.75000000093,"y":2545735.3300000019}},{"attributes":{"ID":384571,"DIS_CODE":0,"TOWNNAME":"北區","LI":"成德里","LIN":"9鄰","STREET":"育德路","SECT":" ","MAREA":" ","LANE":"２１５巷","ALLEY":" ","HOUSE_NO":"２７號","E_COORD97":168526.57000000001,"N_COORD97":2545720.5699999998,"ADDRESS":"育德路２１５巷２７號","OBJECTID":384561},"geometry":{"x":168526.5700000003,"y":2545720.5700000022}},{"attributes":{"ID":384572,"DIS_CODE":0,"TOWNNAME":"北區","LI":"成德里","LIN":"9鄰","STREET":"育德路","SECT":" ","MAREA":" ","LANE":"２１５巷","ALLEY":" ","HOUSE_NO":"２８號","E_COORD97":168551.01999999999,"N_COORD97":2545736.7599999998,"ADDRESS":"育德路２１５巷２８號","OBJECTID":384562},"geometry":{"x":168551.01999999955,"y":2545736.7599999998}},{"attributes":{"ID":384573,"DIS_CODE":0,"TOWNNAME":"北區","LI":"成德里","LIN":"9鄰","STREET":"育德路","SECT":" ","MAREA":" ","LANE":"２１５巷","ALLEY":" ","HOUSE_NO":"２９號","E_COORD97":168520.22,"N_COORD97":2545722,"ADDRESS":"育德路２１５巷２９號","OBJECTID":384563},"geometry":{"x":168520.22000000067,"y":2545722}},{"attributes":{"ID":384574,"DIS_CODE":0,"TOWNNAME":"北區","LI":"成德里","LIN":"9鄰","STREET":"育德路","SECT":" ","MAREA":" ","LANE":"２１５巷","ALLEY":" ","HOUSE_NO":"３０號","E_COORD97":168543.23999999999,"N_COORD97":2545737.8700000001,"ADDRESS":"育德路２１５巷３０號","OBJECTID":384564},"geometry":{"x":168543.24000000115,"y":2545737.870000001}},{"attributes":{"ID":384575,"DIS_CODE":0,"TOWNNAME":"北區","LI":"成德里","LIN":"9鄰","STREET":"育德路","SECT":" ","MAREA":" ","LANE":"２１５巷","ALLEY":" ","HOUSE_NO":"３１號","E_COORD97":168514.03,"N_COORD97":2545723.4300000002,"ADDRESS":"育德路２１５巷３１號","OBJECTID":384565},"geometry":{"x":168514.03000000119,"y":2545723.4300000016}},{"attributes":{"ID":384576,"DIS_CODE":0,"TOWNNAME":"北區","LI":"成德里","LIN":"9鄰","STREET":"育德路","SECT":" ","MAREA":" ","LANE":"２１５巷","ALLEY":" ","HOUSE_NO":"３２號","E_COORD97":168535.14000000001,"N_COORD97":2545739.9399999999,"ADDRESS":"育德路２１５巷３２號","OBJECTID":384566},"geometry":{"x":168535.13999999966,"y":2545739.9400000013}},{"attributes":{"ID":384577,"DIS_CODE":0,"TOWNNAME":"北區","LI":"成德里","LIN":"9鄰","STREET":"育德路","SECT":" ","MAREA":" ","LANE":"２１５巷","ALLEY":" ","HOUSE_NO":"３６號","E_COORD97":168527.67999999999,"N_COORD97":2545741.21,"ADDRESS":"育德路２１５巷３６號","OBJECTID":384567},"geometry":{"x":168527.68000000063,"y":2545741.2100000009}},{"attributes":{"ID":384578,"DIS_CODE":0,"TOWNNAME":"北區","LI":"成德里","LIN":"9鄰","STREET":"育德路","SECT":" ","MAREA":" ","LANE":"２１５巷","ALLEY":" ","HOUSE_NO":"３８號","E_COORD97":168521.97,"N_COORD97":2545742.6400000001,"ADDRESS":"育德路２１５巷３８號","OBJECTID":384568},"geometry":{"x":168521.97000000067,"y":2545742.6399999987}},{"attributes":{"ID":384579,"DIS_CODE":0,"TOWNNAME":"北區","LI":"成德里","LIN":"9鄰","STREET":"育德路","SECT":" ","MAREA":" ","LANE":"２１５巷","ALLEY":" ","HOUSE_NO":"４０號","E_COORD97":168514.98000000001,"N_COORD97":2545744.0699999998,"ADDRESS":"育德路２１５巷４０號","OBJECTID":384569},"geometry":{"x":168514.98000000045,"y":2545744.0700000022}},{"attributes":{"ID":384580,"DIS_CODE":0,"TOWNNAME":"南區","LI":"文南里","LIN":"9鄰","STREET":"長南街","SECT":" ","MAREA":" ","LANE":"３６巷","ALLEY":" ","HOUSE_NO":"１號","E_COORD97":166971.59,"N_COORD97":2542648.6600000001,"ADDRESS":"長南街３６巷１號","OBJECTID":384570},"geometry":{"x":166971.59000000171,"y":2542648.6600000001}},{"attributes":{"ID":384581,"DIS_CODE":0,"TOWNNAME":"南區","LI":"文南里","LIN":"9鄰","STREET":"長南街","SECT":" ","MAREA":" ","LANE":"３６巷","ALLEY":" ","HOUSE_NO":"３號","E_COORD97":166972.70999999999,"N_COORD97":2542653.8199999998,"ADDRESS":"長南街３６巷３號","OBJECTID":384571},"geometry":{"x":166972.71000000183,"y":2542653.8200000022}},{"attributes":{"ID":384582,"DIS_CODE":0,"TOWNNAME":"南區","LI":"大恩里","LIN":"9鄰","STREET":"大同路","SECT":"二段","MAREA":" ","LANE":"７５０巷","ALLEY":" ","HOUSE_NO":"８２號","E_COORD97":169313.84,"N_COORD97":2540716.7599999998,"ADDRESS":"大同路二段７５０巷８２號","OBJECTID":384572},"geometry":{"x":169313.83999999985,"y":2540716.7600000035}},{"attributes":{"ID":384583,"DIS_CODE":0,"TOWNNAME":"南區","LI":"再興里","LIN":"9鄰","STREET":"三官路","SECT":" ","MAREA":" ","LANE":"９６巷","ALLEY":" ","HOUSE_NO":"２３號","E_COORD97":167264.88,"N_COORD97":2542183.5800000001,"ADDRESS":"三官路９６巷２３號","OBJECTID":384573},"geometry":{"x":167264.88000000082,"y":2542183.5800000019}},{"attributes":{"ID":384584,"DIS_CODE":0,"TOWNNAME":"南區","LI":"建南里","LIN":"9鄰","STREET":"德興路","SECT":" ","MAREA":" ","LANE":"２７４巷","ALLEY":" ","HOUSE_NO":"９０號","E_COORD97":166986.34,"N_COORD97":2540028.48,"ADDRESS":"德興路２７４巷９０號","OBJECTID":384574},"geometry":{"x":166986.33999999985,"y":2540028.4800000023}},{"attributes":{"ID":384585,"DIS_CODE":0,"TOWNNAME":"南區","LI":"再興里","LIN":"9鄰","STREET":"仁慈街","SECT":" ","MAREA":" ","LANE":"７６巷","ALLEY":" ","HOUSE_NO":"１０號","E_COORD97":167251.01000000001,"N_COORD97":2542187.0699999998,"ADDRESS":"仁慈街７６巷１０號","OBJECTID":384575},"geometry":{"x":167251.00999999978,"y":2542187.0700000022}},{"attributes":{"ID":384586,"DIS_CODE":0,"TOWNNAME":"南區","LI":"再興里","LIN":"9鄰","STREET":"仁慈街","SECT":" ","MAREA":" ","LANE":"７６巷","ALLEY":" ","HOUSE_NO":"１２號","E_COORD97":167250.89999999999,"N_COORD97":2542191.1899999999,"ADDRESS":"仁慈街７６巷１２號","OBJECTID":384576},"geometry":{"x":167250.90000000037,"y":2542191.1899999995}},{"attributes":{"ID":384587,"DIS_CODE":0,"TOWNNAME":"南區","LI":"國宅里","LIN":"9鄰","STREET":"金華路","SECT":"二段","MAREA":" ","LANE":"１５巷","ALLEY":" ","HOUSE_NO":"３０號","E_COORD97":166922.73000000001,"N_COORD97":2541889.3700000001,"ADDRESS":"金華路二段１５巷３０號","OBJECTID":384577},"geometry":{"x":166922.73000000138,"y":2541889.370000001}},{"attributes":{"ID":384588,"DIS_CODE":0,"TOWNNAME":"新化區","LI":"武安里","LIN":"9鄰","STREET":"大同街","SECT":" ","MAREA":" ","LANE":"９１巷","ALLEY":" ","HOUSE_NO":"２號","E_COORD97":178971.67999999999,"N_COORD97":2548275.25,"ADDRESS":"大同街９１巷２號","OBJECTID":384578},"geometry":{"x":178971.68000000063,"y":2548275.2500000019}},{"attributes":{"ID":384589,"DIS_CODE":0,"TOWNNAME":"永康區","LI":"\u25A0行里","LIN":"20鄰","STREET":"正南五街","SECT":" ","MAREA":" ","LANE":"２８９巷","ALLEY":" ","HOUSE_NO":"６８號","E_COORD97":171778.84,"N_COORD97":2548323.6000000001,"ADDRESS":"正南五街２８９巷６８號","OBJECTID":384579},"geometry":{"x":171778.83999999985,"y":2548323.6000000015}},{"attributes":{"ID":384590,"DIS_CODE":0,"TOWNNAME":"永康區","LI":"\u25A0行里","LIN":"35鄰","STREET":"中正北路","SECT":" ","MAREA":" ","LANE":"１７７巷","ALLEY":" ","HOUSE_NO":"７號","E_COORD97":172407.20000000001,"N_COORD97":2549135.75,"ADDRESS":"中正北路１７７巷７號","OBJECTID":384580},"geometry":{"x":172407.20000000019,"y":2549135.7500000019}},{"attributes":{"ID":384591,"DIS_CODE":0,"TOWNNAME":"永康區","LI":"\u25A0洲里","LIN":"12鄰","STREET":"\u25A0洲一街","SECT":" ","MAREA":" ","LANE":"１１巷","ALLEY":" ","HOUSE_NO":"３８號","E_COORD97":171561.42999999999,"N_COORD97":2549094.4900000002,"ADDRESS":"\u25A0洲一街１１巷３８號","OBJECTID":384581},"geometry":{"x":171561.43000000156,"y":2549094.4900000021}},{"attributes":{"ID":384592,"DIS_CODE":0,"TOWNNAME":"北區","LI":"大港里","LIN":"9鄰","STREET":"大興街","SECT":" ","MAREA":" ","LANE":"２６４巷","ALLEY":" ","HOUSE_NO":"１６號","E_COORD97":166648.95000000001,"N_COORD97":2545732.7799999998,"ADDRESS":"大興街２６４巷１６號","OBJECTID":384582},"geometry":{"x":166648.95000000019,"y":2545732.7799999993}},{"attributes":{"ID":384593,"DIS_CODE":0,"TOWNNAME":"北區","LI":"大港里","LIN":"9鄰","STREET":"大興街","SECT":" ","MAREA":" ","LANE":"２６４巷","ALLEY":" ","HOUSE_NO":"１０號","E_COORD97":166651.32999999999,"N_COORD97":2545710.0800000001,"ADDRESS":"大興街２６４巷１０號","OBJECTID":384583},"geometry":{"x":166651.33000000007,"y":2545710.0800000019}},{"attributes":{"ID":384594,"DIS_CODE":0,"TOWNNAME":"北區","LI":"大港里","LIN":"9鄰","STREET":"大興街","SECT":" ","MAREA":" ","LANE":"２６４巷","ALLEY":" ","HOUSE_NO":"１１號","E_COORD97":166638.60999999999,"N_COORD97":2545711.5299999998,"ADDRESS":"大興街２６４巷１１號","OBJECTID":384584},"geometry":{"x":166638.61000000127,"y":2545711.5299999975}},{"attributes":{"ID":384595,"DIS_CODE":0,"TOWNNAME":"北區","LI":"大港里","LIN":"9鄰","STREET":"大興街","SECT":" ","MAREA":" ","LANE":"２６４巷","ALLEY":" ","HOUSE_NO":"１２號","E_COORD97":166650.51999999999,"N_COORD97":2545714.21,"ADDRESS":"大興街２６４巷１２號","OBJECTID":384585},"geometry":{"x":166650.52000000048,"y":2545714.2100000009}},{"attributes":{"ID":384596,"DIS_CODE":0,"TOWNNAME":"北區","LI":"大港里","LIN":"9鄰","STREET":"大興街","SECT":" ","MAREA":" ","LANE":"２６４巷","ALLEY":" ","HOUSE_NO":"１３號","E_COORD97":166637.78,"N_COORD97":2545715.25,"ADDRESS":"大興街２６４巷１３號","OBJECTID":384586},"geometry":{"x":166637.78000000026,"y":2545715.2500000019}},{"attributes":{"ID":384597,"DIS_CODE":0,"TOWNNAME":"北區","LI":"大港里","LIN":"9鄰","STREET":"大興街","SECT":" ","MAREA":" ","LANE":"２６４巷","ALLEY":" ","HOUSE_NO":"１４號","E_COORD97":166650,"N_COORD97":2545718.4500000002,"ADDRESS":"大興街２６４巷１４號","OBJECTID":384587},"geometry":{"x":166650,"y":2545718.4499999993}},{"attributes":{"ID":384598,"DIS_CODE":0,"TOWNNAME":"北區","LI":"大港里","LIN":"9鄰","STREET":"大興街","SECT":" ","MAREA":" ","LANE":"２６４巷","ALLEY":" ","HOUSE_NO":"１５號","E_COORD97":166636.42999999999,"N_COORD97":2545719.54,"ADDRESS":"大興街２６４巷１５號","OBJECTID":384588},"geometry":{"x":166636.4299999997,"y":2545719.540000001}},{"attributes":{"ID":384599,"DIS_CODE":0,"TOWNNAME":"北區","LI":"大港里","LIN":"9鄰","STREET":"大興街","SECT":" ","MAREA":" ","LANE":"２６４巷","ALLEY":" ","HOUSE_NO":"１７號","E_COORD97":166635.76000000001,"N_COORD97":2545723.6600000001,"ADDRESS":"大興街２６４巷１７號","OBJECTID":384589},"geometry":{"x":166635.75999999978,"y":2545723.6600000001}},{"attributes":{"ID":384600,"DIS_CODE":0,"TOWNNAME":"永康區","LI":"正強里","LIN":"9鄰","STREET":"正義街","SECT":" ","MAREA":" ","LANE":"１２６巷","ALLEY":" ","HOUSE_NO":"１６號","E_COORD97":173391.20999999999,"N_COORD97":2547595.7599999998,"ADDRESS":"正義街１２６巷１６號","OBJECTID":384590},"geometry":{"x":173391.21000000089,"y":2547595.7600000035}},{"attributes":{"ID":384601,"DIS_CODE":0,"TOWNNAME":"北區","LI":"賢北里","LIN":"9鄰","STREET":"賢北街","SECT":" ","MAREA":" ","LANE":"２１巷","ALLEY":" ","HOUSE_NO":"１０號","E_COORD97":166276.03,"N_COORD97":2545326.7799999998,"ADDRESS":"賢北街２１巷１０號","OBJECTID":384591},"geometry":{"x":166276.03000000119,"y":2545326.7799999975}},{"attributes":{"ID":384602,"DIS_CODE":0,"TOWNNAME":"北區","LI":"賢北里","LIN":"9鄰","STREET":"賢北街","SECT":" ","MAREA":" ","LANE":"２１巷","ALLEY":" ","HOUSE_NO":"１１號","E_COORD97":166285,"N_COORD97":2545293.2400000002,"ADDRESS":"賢北街２１巷１１號","OBJECTID":384592},"geometry":{"x":166285.00000000093,"y":2545293.2400000002}},{"attributes":{"ID":384603,"DIS_CODE":0,"TOWNNAME":"北區","LI":"賢北里","LIN":"9鄰","STREET":"賢北街","SECT":" ","MAREA":" ","LANE":"２１巷","ALLEY":" ","HOUSE_NO":"１２號","E_COORD97":166271.89000000001,"N_COORD97":2545324.9399999999,"ADDRESS":"賢北街２１巷１２號","OBJECTID":384593},"geometry":{"x":166271.88999999966,"y":2545324.9399999995}},{"attributes":{"ID":384604,"DIS_CODE":0,"TOWNNAME":"北區","LI":"賢北里","LIN":"9鄰","STREET":"賢北街","SECT":" ","MAREA":" ","LANE":"２１巷","ALLEY":" ","HOUSE_NO":"１３號","E_COORD97":166280.39999999999,"N_COORD97":2545292.5499999998,"ADDRESS":"賢北街２１巷１３號","OBJECTID":384594},"geometry":{"x":166280.4000000013,"y":2545292.5499999989}},{"attributes":{"ID":384605,"DIS_CODE":0,"TOWNNAME":"北區","LI":"賢北里","LIN":"9鄰","STREET":"賢北街","SECT":" ","MAREA":" ","LANE":"２１巷","ALLEY":" ","HOUSE_NO":"１４號","E_COORD97":166267.29000000001,"N_COORD97":2545323.1099999999,"ADDRESS":"賢北街２１巷１４號","OBJECTID":384595},"geometry":{"x":166267.29000000097,"y":2545323.1099999994}},{"attributes":{"ID":384606,"DIS_CODE":0,"TOWNNAME":"北區","LI":"賢北里","LIN":"9鄰","STREET":"賢北街","SECT":" ","MAREA":" ","LANE":"２１巷","ALLEY":" ","HOUSE_NO":"１５號","E_COORD97":166276.03,"N_COORD97":2545290.0299999998,"ADDRESS":"賢北街２１巷１５號","OBJECTID":384596},"geometry":{"x":166276.03000000119,"y":2545290.0299999993}},{"attributes":{"ID":384607,"DIS_CODE":0,"TOWNNAME":"北區","LI":"賢北里","LIN":"9鄰","STREET":"賢北街","SECT":" ","MAREA":" ","LANE":"２１巷","ALLEY":" ","HOUSE_NO":"１６號","E_COORD97":166263.14999999999,"N_COORD97":2545321.27,"ADDRESS":"賢北街２１巷１６號","OBJECTID":384597},"geometry":{"x":166263.15000000224,"y":2545321.2700000014}},{"attributes":{"ID":384608,"DIS_CODE":0,"TOWNNAME":"北區","LI":"賢北里","LIN":"9鄰","STREET":"賢北街","SECT":" ","MAREA":" ","LANE":"２１巷","ALLEY":" ","HOUSE_NO":"１７號","E_COORD97":166271.66,"N_COORD97":2545287.73,"ADDRESS":"賢北街２１巷１７號","OBJECTID":384598},"geometry":{"x":166271.66000000108,"y":2545287.7300000042}},{"attributes":{"ID":384609,"DIS_CODE":0,"TOWNNAME":"北區","LI":"賢北里","LIN":"9鄰","STREET":"賢北街","SECT":" ","MAREA":" ","LANE":"２１巷","ALLEY":" ","HOUSE_NO":"１８號","E_COORD97":166258.32000000001,"N_COORD97":2545318.9700000002,"ADDRESS":"賢北街２１巷１８號","OBJECTID":384599},"geometry":{"x":166258.3200000003,"y":2545318.9700000007}},{"attributes":{"ID":384610,"DIS_CODE":0,"TOWNNAME":"北區","LI":"賢北里","LIN":"9鄰","STREET":"賢北街","SECT":" ","MAREA":" ","LANE":"２１巷","ALLEY":" ","HOUSE_NO":"１９號","E_COORD97":166267.98000000001,"N_COORD97":2545286.1200000001,"ADDRESS":"賢北街２１巷１９號","OBJECTID":384600},"geometry":{"x":166267.98000000138,"y":2545286.1200000029}}]}