{"displayFieldName":"TOWNNAME","fieldAliases":{"ID":"ID","DIS_CODE":"DIS_CODE","TOWNNAME":"TOWNNAME","LI":"LI","LIN":"LIN","STREET":"STREET","SECT":"SECT","MAREA":"MAREA","LANE":"LANE","ALLEY":"ALLEY","HOUSE_NO":"HOUSE_NO","E_COORD97":"E_COORD97","N_COORD97":"N_COORD97","ADDRESS":"ADDRESS","OBJECTID":"OBJECTID"},"geometryType":"esriGeometryPoint","spatialReference":{"wkid":102443,"latestWkid":3826},"fields":[{"name":"ID","type":"esriFieldTypeDouble","alias":"ID"},{"name":"DIS_CODE","type":"esriFieldTypeInteger","alias":"DIS_CODE"},{"name":"TOWNNAME","type":"esriFieldTypeString","alias":"TOWNNAME","length":8},{"name":"LI","type":"esriFieldTypeString","alias":"LI","length":8},{"name":"LIN","type":"esriFieldTypeString","alias":"LIN","length":12},{"name":"STREET","type":"esriFieldTypeString","alias":"STREET","length":20},{"name":"SECT","type":"esriFieldTypeString","alias":"SECT","length":8},{"name":"MAREA","type":"esriFieldTypeString","alias":"MAREA","length":12},{"name":"LANE","type":"esriFieldTypeString","alias":"LANE","length":10},{"name":"ALLEY","type":"esriFieldTypeString","alias":"ALLEY","length":10},{"name":"HOUSE_NO","type":"esriFieldTypeString","alias":"HOUSE_NO","length":20},{"name":"E_COORD97","type":"esriFieldTypeDouble","alias":"E_COORD97"},{"name":"N_COORD97","type":"esriFieldTypeDouble","alias":"N_COORD97"},{"name":"ADDRESS","type":"esriFieldTypeString","alias":"ADDRESS","length":50},{"name":"OBJECTID","type":"esriFieldTypeOID","alias":"OBJECTID"}],"features":[{"attributes":{"ID":587228,"DIS_CODE":0,"TOWNNAME":"北區","LI":"文元里","LIN":"11鄰","STREET":"文賢路","SECT":" ","MAREA":" ","LANE":" ","ALLEY":" ","HOUSE_NO":"１０９０號","E_COORD97":167357.23000000001,"N_COORD97":2546229.8199999998,"ADDRESS":"文賢路１０９０號","OBJECTID":587201},"geometry":{"x":167357.23000000045,"y":2546229.8200000022}},{"attributes":{"ID":587229,"DIS_CODE":0,"TOWNNAME":"北區","LI":"文元里","LIN":"11鄰","STREET":"文賢路","SECT":" ","MAREA":" ","LANE":" ","ALLEY":" ","HOUSE_NO":"１０９４號","E_COORD97":167354.45000000001,"N_COORD97":2546244.1000000001,"ADDRESS":"文賢路１０９４號","OBJECTID":587202},"geometry":{"x":167354.45000000205,"y":2546244.1000000034}},{"attributes":{"ID":587230,"DIS_CODE":0,"TOWNNAME":"北區","LI":"文元里","LIN":"11鄰","STREET":"文賢路","SECT":" ","MAREA":" ","LANE":" ","ALLEY":" ","HOUSE_NO":"１０９６號","E_COORD97":167352.72,"N_COORD97":2546251.02,"ADDRESS":"文賢路１０９６號","OBJECTID":587203},"geometry":{"x":167352.72000000067,"y":2546251.0200000033}},{"attributes":{"ID":587231,"DIS_CODE":0,"TOWNNAME":"北區","LI":"文元里","LIN":"11鄰","STREET":"文賢路","SECT":" ","MAREA":" ","LANE":" ","ALLEY":" ","HOUSE_NO":"１１０２號","E_COORD97":167353.41,"N_COORD97":2546263.8199999998,"ADDRESS":"文賢路１１０２號","OBJECTID":587204},"geometry":{"x":167353.41000000108,"y":2546263.8200000022}},{"attributes":{"ID":587232,"DIS_CODE":0,"TOWNNAME":"北區","LI":"文元里","LIN":"11鄰","STREET":"文賢路","SECT":" ","MAREA":" ","LANE":" ","ALLEY":" ","HOUSE_NO":"１１０４號","E_COORD97":167352.01999999999,"N_COORD97":2546267.2799999998,"ADDRESS":"文賢路１１０４號","OBJECTID":587205},"geometry":{"x":167352.02000000048,"y":2546267.2800000012}},{"attributes":{"ID":587233,"DIS_CODE":0,"TOWNNAME":"北區","LI":"文元里","LIN":"11鄰","STREET":"文賢路","SECT":" ","MAREA":" ","LANE":" ","ALLEY":" ","HOUSE_NO":"１１０６號","E_COORD97":167350.29000000001,"N_COORD97":2546272.8100000001,"ADDRESS":"文賢路１１０６號","OBJECTID":587206},"geometry":{"x":167350.2900000019,"y":2546272.8100000005}},{"attributes":{"ID":587234,"DIS_CODE":0,"TOWNNAME":"北區","LI":"文元里","LIN":"11鄰","STREET":"文賢路","SECT":" ","MAREA":" ","LANE":" ","ALLEY":" ","HOUSE_NO":"１１００號","E_COORD97":167352.72,"N_COORD97":2546258.98,"ADDRESS":"文賢路１１００號","OBJECTID":587207},"geometry":{"x":167352.72000000067,"y":2546258.9800000042}},{"attributes":{"ID":587235,"DIS_CODE":0,"TOWNNAME":"北區","LI":"文元里","LIN":"11鄰","STREET":"文賢路","SECT":" ","MAREA":" ","LANE":" ","ALLEY":" ","HOUSE_NO":"１１０８號","E_COORD97":167348.91,"N_COORD97":2546278.6899999999,"ADDRESS":"文賢路１１０８號","OBJECTID":587208},"geometry":{"x":167348.91000000015,"y":2546278.6900000013}},{"attributes":{"ID":587236,"DIS_CODE":0,"TOWNNAME":"新營區","LI":"民權里","LIN":"11鄰","STREET":"信義街","SECT":" ","MAREA":" ","LANE":" ","ALLEY":" ","HOUSE_NO":"４１號","E_COORD97":179915.60000000001,"N_COORD97":2578263.0299999998,"ADDRESS":"信義街４１號","OBJECTID":587209},"geometry":{"x":179915.59999999963,"y":2578263.0300000031}},{"attributes":{"ID":587237,"DIS_CODE":0,"TOWNNAME":"新營區","LI":"三仙里","LIN":"11鄰","STREET":"民權路","SECT":" ","MAREA":" ","LANE":" ","ALLEY":" ","HOUSE_NO":"３７號","E_COORD97":179701.76000000001,"N_COORD97":2578248.54,"ADDRESS":"民權路３７號","OBJECTID":587210},"geometry":{"x":179701.76000000071,"y":2578248.5399999991}},{"attributes":{"ID":587238,"DIS_CODE":0,"TOWNNAME":"新營區","LI":"三仙里","LIN":"11鄰","STREET":"民權路","SECT":" ","MAREA":" ","LANE":" ","ALLEY":" ","HOUSE_NO":"３７號之２","E_COORD97":179703.04999999999,"N_COORD97":2578257.4500000002,"ADDRESS":"民權路３７號之２","OBJECTID":587211},"geometry":{"x":179703.05000000075,"y":2578257.4500000011}},{"attributes":{"ID":587239,"DIS_CODE":0,"TOWNNAME":"新營區","LI":"三仙里","LIN":"11鄰","STREET":"民權路","SECT":" ","MAREA":" ","LANE":" ","ALLEY":" ","HOUSE_NO":"３９號","E_COORD97":179699.76999999999,"N_COORD97":2578260.73,"ADDRESS":"民權路３９號","OBJECTID":587212},"geometry":{"x":179699.77000000048,"y":2578260.7300000023}},{"attributes":{"ID":587240,"DIS_CODE":0,"TOWNNAME":"新營區","LI":"三仙里","LIN":"11鄰","STREET":"民權路","SECT":" ","MAREA":" ","LANE":" ","ALLEY":" ","HOUSE_NO":"３３號","E_COORD97":179704.73999999999,"N_COORD97":2578230.8100000001,"ADDRESS":"民權路３３號","OBJECTID":587213},"geometry":{"x":179704.74000000022,"y":2578230.8100000005}},{"attributes":{"ID":587241,"DIS_CODE":0,"TOWNNAME":"新營區","LI":"民榮里","LIN":"11鄰","STREET":"濟安街","SECT":" ","MAREA":" ","LANE":" ","ALLEY":" ","HOUSE_NO":"９４號","E_COORD97":179221.47,"N_COORD97":2577941.8399999999,"ADDRESS":"濟安街９４號","OBJECTID":587214},"geometry":{"x":179221.46999999974,"y":2577941.8399999999}},{"attributes":{"ID":587242,"DIS_CODE":0,"TOWNNAME":"新營區","LI":"民榮里","LIN":"11鄰","STREET":"興農街","SECT":" ","MAREA":" ","LANE":" ","ALLEY":" ","HOUSE_NO":"２０號","E_COORD97":179254.38,"N_COORD97":2577959.4100000001,"ADDRESS":"興農街２０號","OBJECTID":587215},"geometry":{"x":179254.37999999989,"y":2577959.4100000039}},{"attributes":{"ID":587243,"DIS_CODE":0,"TOWNNAME":"新營區","LI":"民榮里","LIN":"11鄰","STREET":"濟安街","SECT":" ","MAREA":" ","LANE":" ","ALLEY":" ","HOUSE_NO":"８８號","E_COORD97":179234.87,"N_COORD97":2577941.7799999998,"ADDRESS":"濟安街８８號","OBJECTID":587216},"geometry":{"x":179234.87000000104,"y":2577941.7799999993}},{"attributes":{"ID":587244,"DIS_CODE":0,"TOWNNAME":"新營區","LI":"民生里","LIN":"11鄰","STREET":"中華路","SECT":" ","MAREA":" ","LANE":" ","ALLEY":" ","HOUSE_NO":"１１２號","E_COORD97":179164.53,"N_COORD97":2578173.5800000001,"ADDRESS":"中華路１１２號","OBJECTID":587217},"geometry":{"x":179164.53000000119,"y":2578173.5800000001}},{"attributes":{"ID":587245,"DIS_CODE":0,"TOWNNAME":"新營區","LI":"民生里","LIN":"11鄰","STREET":"中華路","SECT":" ","MAREA":" ","LANE":" ","ALLEY":" ","HOUSE_NO":"１１６號","E_COORD97":179155.32999999999,"N_COORD97":2578174.73,"ADDRESS":"中華路１１６號","OBJECTID":587218},"geometry":{"x":179155.33000000194,"y":2578174.7300000023}},{"attributes":{"ID":587246,"DIS_CODE":0,"TOWNNAME":"新營區","LI":"民榮里","LIN":"11鄰","STREET":"興農街","SECT":" ","MAREA":" ","LANE":" ","ALLEY":" ","HOUSE_NO":"２號","E_COORD97":179253.32000000001,"N_COORD97":2577998.1699999999,"ADDRESS":"興農街２號","OBJECTID":587219},"geometry":{"x":179253.3200000003,"y":2577998.1700000037}},{"attributes":{"ID":587247,"DIS_CODE":0,"TOWNNAME":"新營區","LI":"民生里","LIN":"11鄰","STREET":"中華路","SECT":" ","MAREA":" ","LANE":" ","ALLEY":" ","HOUSE_NO":"１０８號","E_COORD97":179186.97,"N_COORD97":2578161.29,"ADDRESS":"中華路１０８號","OBJECTID":587220},"geometry":{"x":179186.97000000067,"y":2578161.2899999991}},{"attributes":{"ID":587248,"DIS_CODE":0,"TOWNNAME":"新營區","LI":"民榮里","LIN":"11鄰","STREET":"興農街","SECT":" ","MAREA":" ","LANE":" ","ALLEY":" ","HOUSE_NO":"１２號","E_COORD97":179254.63,"N_COORD97":2577976.8300000001,"ADDRESS":"興農街１２號","OBJECTID":587221},"geometry":{"x":179254.62999999989,"y":2577976.8300000038}},{"attributes":{"ID":587249,"DIS_CODE":0,"TOWNNAME":"新營區","LI":"民權里","LIN":"11鄰","STREET":"中華路","SECT":" ","MAREA":" ","LANE":" ","ALLEY":" ","HOUSE_NO":"１２號","E_COORD97":179884.72,"N_COORD97":2578237.7000000002,"ADDRESS":"中華路１２號","OBJECTID":587222},"geometry":{"x":179884.7200000016,"y":2578237.700000003}},{"attributes":{"ID":587250,"DIS_CODE":0,"TOWNNAME":"新營區","LI":"民權里","LIN":"11鄰","STREET":"中華路","SECT":" ","MAREA":" ","LANE":" ","ALLEY":" ","HOUSE_NO":"１２號之２","E_COORD97":179877.78,"N_COORD97":2578237.7999999998,"ADDRESS":"中華路１２號之２","OBJECTID":587223},"geometry":{"x":179877.78000000026,"y":2578237.8000000007}},{"attributes":{"ID":587251,"DIS_CODE":0,"TOWNNAME":"新營區","LI":"民權里","LIN":"11鄰","STREET":"中華路","SECT":" ","MAREA":" ","LANE":" ","ALLEY":" ","HOUSE_NO":"１８之４號","E_COORD97":179849.35999999999,"N_COORD97":2578235.7200000002,"ADDRESS":"中華路１８之４號","OBJECTID":587224},"geometry":{"x":179849.36000000127,"y":2578235.7200000044}},{"attributes":{"ID":587252,"DIS_CODE":0,"TOWNNAME":"新營區","LI":"民榮里","LIN":"11鄰","STREET":"濟安街","SECT":" ","MAREA":" ","LANE":" ","ALLEY":" ","HOUSE_NO":"９２號","E_COORD97":179225.56,"N_COORD97":2577941.8300000001,"ADDRESS":"濟安街９２號","OBJECTID":587225},"geometry":{"x":179225.55999999959,"y":2577941.8300000001}},{"attributes":{"ID":587253,"DIS_CODE":0,"TOWNNAME":"新營區","LI":"民生里","LIN":"11鄰","STREET":"民生路","SECT":" ","MAREA":" ","LANE":" ","ALLEY":" ","HOUSE_NO":"４３之２８號","E_COORD97":179198.66,"N_COORD97":2578355.1000000001,"ADDRESS":"民生路４３之２８號","OBJECTID":587226},"geometry":{"x":179198.66000000015,"y":2578355.1000000015}},{"attributes":{"ID":587254,"DIS_CODE":0,"TOWNNAME":"新營區","LI":"民生里","LIN":"11鄰","STREET":"民生路","SECT":" ","MAREA":" ","LANE":" ","ALLEY":" ","HOUSE_NO":"４３之３號","E_COORD97":179276.23000000001,"N_COORD97":2578365.7999999998,"ADDRESS":"民生路４３之３號","OBJECTID":587227},"geometry":{"x":179276.23000000045,"y":2578365.8000000026}},{"attributes":{"ID":587255,"DIS_CODE":0,"TOWNNAME":"新營區","LI":"民榮里","LIN":"11鄰","STREET":"濟安街","SECT":" ","MAREA":" ","LANE":" ","ALLEY":" ","HOUSE_NO":"９６號","E_COORD97":179217.37,"N_COORD97":2577940.7599999998,"ADDRESS":"濟安街９６號","OBJECTID":587228},"geometry":{"x":179217.37000000011,"y":2577940.7600000016}},{"attributes":{"ID":587256,"DIS_CODE":0,"TOWNNAME":"新營區","LI":"三仙里","LIN":"11鄰","STREET":"民權路","SECT":" ","MAREA":" ","LANE":" ","ALLEY":" ","HOUSE_NO":"３９之１號","E_COORD97":179701.28,"N_COORD97":2578266.3199999998,"ADDRESS":"民權路３９之１號","OBJECTID":587229},"geometry":{"x":179701.28000000026,"y":2578266.3200000022}},{"attributes":{"ID":587257,"DIS_CODE":0,"TOWNNAME":"新營區","LI":"三仙里","LIN":"11鄰","STREET":"民權路","SECT":" ","MAREA":" ","LANE":" ","ALLEY":" ","HOUSE_NO":"３５號","E_COORD97":179704.78,"N_COORD97":2578237.4500000002,"ADDRESS":"民權路３５號","OBJECTID":587230},"geometry":{"x":179704.78000000026,"y":2578237.4500000011}},{"attributes":{"ID":587258,"DIS_CODE":0,"TOWNNAME":"新營區","LI":"民榮里","LIN":"11鄰","STREET":"濟安街","SECT":" ","MAREA":" ","LANE":" ","ALLEY":" ","HOUSE_NO":"９０號","E_COORD97":179230.67999999999,"N_COORD97":2577941.7999999998,"ADDRESS":"濟安街９０號","OBJECTID":587231},"geometry":{"x":179230.68000000063,"y":2577941.8000000026}},{"attributes":{"ID":587259,"DIS_CODE":0,"TOWNNAME":"新營區","LI":"民生里","LIN":"11鄰","STREET":"民生路","SECT":" ","MAREA":" ","LANE":" ","ALLEY":" ","HOUSE_NO":"４３之２６號","E_COORD97":179186.42000000001,"N_COORD97":2578361.7999999998,"ADDRESS":"民生路４３之２６號","OBJECTID":587232},"geometry":{"x":179186.41999999993,"y":2578361.8000000026}},{"attributes":{"ID":587260,"DIS_CODE":0,"TOWNNAME":"新營區","LI":"三仙里","LIN":"11鄰","STREET":"民權路","SECT":" ","MAREA":" ","LANE":" ","ALLEY":" ","HOUSE_NO":"３５之２號","E_COORD97":179705.26999999999,"N_COORD97":2578244.1499999999,"ADDRESS":"民權路３５之２號","OBJECTID":587233},"geometry":{"x":179705.26999999955,"y":2578244.1500000022}},{"attributes":{"ID":587261,"DIS_CODE":0,"TOWNNAME":"新營區","LI":"民生里","LIN":"11鄰","STREET":"中華路","SECT":" ","MAREA":" ","LANE":" ","ALLEY":" ","HOUSE_NO":"１１０號","E_COORD97":179171.64000000001,"N_COORD97":2578164.6899999999,"ADDRESS":"中華路１１０號","OBJECTID":587234},"geometry":{"x":179171.6400000006,"y":2578164.6900000013}},{"attributes":{"ID":587262,"DIS_CODE":0,"TOWNNAME":"新營區","LI":"民生里","LIN":"11鄰","STREET":"民生路","SECT":" ","MAREA":" ","LANE":" ","ALLEY":" ","HOUSE_NO":"４３之３５號","E_COORD97":179230.32000000001,"N_COORD97":2578344.98,"ADDRESS":"民生路４３之３５號","OBJECTID":587235},"geometry":{"x":179230.32000000123,"y":2578344.9800000004}},{"attributes":{"ID":587263,"DIS_CODE":0,"TOWNNAME":"新營區","LI":"三仙里","LIN":"11鄰","STREET":"民權路","SECT":" ","MAREA":" ","LANE":" ","ALLEY":" ","HOUSE_NO":"３９之２號","E_COORD97":179700.26999999999,"N_COORD97":2578270.75,"ADDRESS":"民權路３９之２號","OBJECTID":587236},"geometry":{"x":179700.26999999955,"y":2578270.75}},{"attributes":{"ID":587264,"DIS_CODE":0,"TOWNNAME":"楠西區","LI":"楠西里","LIN":"11鄰","STREET":"中興路","SECT":" ","MAREA":" ","LANE":" ","ALLEY":" ","HOUSE_NO":"１３號","E_COORD97":197169.81,"N_COORD97":2564156.25,"ADDRESS":"中興路１３號","OBJECTID":587237},"geometry":{"x":197169.81000000145,"y":2564156.2500000019}},{"attributes":{"ID":587265,"DIS_CODE":0,"TOWNNAME":"楠西區","LI":"東勢里","LIN":"11鄰","STREET":"信義路","SECT":" ","MAREA":" ","LANE":" ","ALLEY":" ","HOUSE_NO":"２１３號","E_COORD97":197668.87,"N_COORD97":2563937.27,"ADDRESS":"信義路２１３號","OBJECTID":587238},"geometry":{"x":197668.87000000104,"y":2563937.2700000033}},{"attributes":{"ID":587266,"DIS_CODE":0,"TOWNNAME":"學甲區","LI":"仁得里","LIN":"11鄰","STREET":"八德街","SECT":" ","MAREA":" ","LANE":" ","ALLEY":" ","HOUSE_NO":"１２１號","E_COORD97":165943.73000000001,"N_COORD97":2569720.1200000001,"ADDRESS":"八德街１２１號","OBJECTID":587239},"geometry":{"x":165943.73000000045,"y":2569720.1200000048}},{"attributes":{"ID":587267,"DIS_CODE":0,"TOWNNAME":"學甲區","LI":"仁得里","LIN":"11鄰","STREET":"八德街","SECT":" ","MAREA":" ","LANE":" ","ALLEY":" ","HOUSE_NO":"１２３號","E_COORD97":165939.82999999999,"N_COORD97":2569721.1899999999,"ADDRESS":"八德街１２３號","OBJECTID":587240},"geometry":{"x":165939.83000000101,"y":2569721.1899999995}},{"attributes":{"ID":587268,"DIS_CODE":0,"TOWNNAME":"學甲區","LI":"仁得里","LIN":"11鄰","STREET":"八德街","SECT":" ","MAREA":" ","LANE":" ","ALLEY":" ","HOUSE_NO":"１３６號","E_COORD97":165938.81,"N_COORD97":2569762.0600000001,"ADDRESS":"八德街１３６號","OBJECTID":587241},"geometry":{"x":165938.80999999959,"y":2569762.0600000024}},{"attributes":{"ID":587269,"DIS_CODE":0,"TOWNNAME":"學甲區","LI":"仁得里","LIN":"11鄰","STREET":"八德街","SECT":" ","MAREA":" ","LANE":" ","ALLEY":" ","HOUSE_NO":"１３８號","E_COORD97":165929.12,"N_COORD97":2569760.3500000001,"ADDRESS":"八德街１３８號","OBJECTID":587242},"geometry":{"x":165929.12000000197,"y":2569760.3499999996}},{"attributes":{"ID":587270,"DIS_CODE":0,"TOWNNAME":"學甲區","LI":"仁得里","LIN":"11鄰","STREET":"八德街","SECT":" ","MAREA":" ","LANE":" ","ALLEY":" ","HOUSE_NO":"１４６號","E_COORD97":165914.63,"N_COORD97":2569759.6699999999,"ADDRESS":"八德街１４６號","OBJECTID":587243},"geometry":{"x":165914.62999999989,"y":2569759.6700000018}},{"attributes":{"ID":587271,"DIS_CODE":0,"TOWNNAME":"學甲區","LI":"仁得里","LIN":"11鄰","STREET":"八德街","SECT":" ","MAREA":" ","LANE":" ","ALLEY":" ","HOUSE_NO":"１４８號","E_COORD97":165910.10000000001,"N_COORD97":2569760.9300000002,"ADDRESS":"八德街１４８號","OBJECTID":587244},"geometry":{"x":165910.10000000149,"y":2569760.9300000034}},{"attributes":{"ID":587272,"DIS_CODE":0,"TOWNNAME":"學甲區","LI":"仁得里","LIN":"11鄰","STREET":"八德街","SECT":" ","MAREA":" ","LANE":" ","ALLEY":" ","HOUSE_NO":"１５０號","E_COORD97":165904.91,"N_COORD97":2569762.5299999998,"ADDRESS":"八德街１５０號","OBJECTID":587245},"geometry":{"x":165904.91000000015,"y":2569762.5299999993}},{"attributes":{"ID":587273,"DIS_CODE":0,"TOWNNAME":"學甲區","LI":"仁得里","LIN":"11鄰","STREET":"八德街","SECT":" ","MAREA":" ","LANE":" ","ALLEY":" ","HOUSE_NO":"１５２號","E_COORD97":165899.20999999999,"N_COORD97":2569769.6400000001,"ADDRESS":"八德街１５２號","OBJECTID":587246},"geometry":{"x":165899.20999999996,"y":2569769.6400000006}},{"attributes":{"ID":587274,"DIS_CODE":0,"TOWNNAME":"學甲區","LI":"仁得里","LIN":"11鄰","STREET":"八德街","SECT":" ","MAREA":" ","LANE":" ","ALLEY":" ","HOUSE_NO":"１７７號之４","E_COORD97":165833.72,"N_COORD97":2569754.8500000001,"ADDRESS":"八德街１７７號之４","OBJECTID":587247},"geometry":{"x":165833.72000000067,"y":2569754.8500000015}},{"attributes":{"ID":587275,"DIS_CODE":0,"TOWNNAME":"學甲區","LI":"仁得里","LIN":"11鄰","STREET":"八德街","SECT":" ","MAREA":" ","LANE":" ","ALLEY":" ","HOUSE_NO":"１７８號","E_COORD97":165854.95999999999,"N_COORD97":2569767.8999999999,"ADDRESS":"八德街１７８號","OBJECTID":587248},"geometry":{"x":165854.95999999996,"y":2569767.9000000004}},{"attributes":{"ID":587276,"DIS_CODE":0,"TOWNNAME":"東山區","LI":"東中里","LIN":"11鄰","STREET":"育仁街","SECT":" ","MAREA":" ","LANE":" ","ALLEY":" ","HOUSE_NO":"１７號","E_COORD97":188825.35999999999,"N_COORD97":2579526.6200000001,"ADDRESS":"育仁街１７號","OBJECTID":587249},"geometry":{"x":188825.36000000127,"y":2579526.6200000029}},{"attributes":{"ID":587277,"DIS_CODE":0,"TOWNNAME":"東山區","LI":"東中里","LIN":"11鄰","STREET":"育仁街","SECT":" ","MAREA":" ","LANE":" ","ALLEY":" ","HOUSE_NO":"１９號","E_COORD97":188821.10000000001,"N_COORD97":2579527.5499999998,"ADDRESS":"育仁街１９號","OBJECTID":587250},"geometry":{"x":188821.10000000056,"y":2579527.5500000007}},{"attributes":{"ID":587278,"DIS_CODE":0,"TOWNNAME":"東山區","LI":"東中里","LIN":"11鄰","STREET":"育仁街","SECT":" ","MAREA":" ","LANE":" ","ALLEY":" ","HOUSE_NO":"２１號","E_COORD97":188816.82999999999,"N_COORD97":2579528.48,"ADDRESS":"育仁街２１號","OBJECTID":587251},"geometry":{"x":188816.83000000101,"y":2579528.4800000004}},{"attributes":{"ID":587279,"DIS_CODE":0,"TOWNNAME":"東山區","LI":"東中里","LIN":"11鄰","STREET":"育仁街","SECT":" ","MAREA":" ","LANE":" ","ALLEY":" ","HOUSE_NO":"２３號","E_COORD97":188812.57000000001,"N_COORD97":2579529.3999999999,"ADDRESS":"育仁街２３號","OBJECTID":587252},"geometry":{"x":188812.5700000003,"y":2579529.4000000041}},{"attributes":{"ID":587280,"DIS_CODE":0,"TOWNNAME":"東山區","LI":"東中里","LIN":"11鄰","STREET":"育仁街","SECT":" ","MAREA":" ","LANE":" ","ALLEY":" ","HOUSE_NO":"５５號","E_COORD97":188717.45999999999,"N_COORD97":2579534.3199999998,"ADDRESS":"育仁街５５號","OBJECTID":587253},"geometry":{"x":188717.46000000089,"y":2579534.3200000022}},{"attributes":{"ID":587281,"DIS_CODE":0,"TOWNNAME":"東山區","LI":"東中里","LIN":"11鄰","STREET":"育仁街","SECT":" ","MAREA":" ","LANE":" ","ALLEY":" ","HOUSE_NO":"５６號","E_COORD97":188766.23000000001,"N_COORD97":2579580.8199999998,"ADDRESS":"育仁街５６號","OBJECTID":587254},"geometry":{"x":188766.23000000045,"y":2579580.820000004}},{"attributes":{"ID":587282,"DIS_CODE":0,"TOWNNAME":"新化區","LI":"護國里","LIN":"11鄰","STREET":"中山路","SECT":" ","MAREA":" ","LANE":" ","ALLEY":" ","HOUSE_NO":"１號之４７","E_COORD97":180759.29999999999,"N_COORD97":2550519.2599999998,"ADDRESS":"中山路１號之４７","OBJECTID":587255},"geometry":{"x":180759.30000000075,"y":2550519.2600000016}},{"attributes":{"ID":587283,"DIS_CODE":0,"TOWNNAME":"新化區","LI":"東榮里","LIN":"11鄰","STREET":"中興路","SECT":" ","MAREA":" ","LANE":" ","ALLEY":" ","HOUSE_NO":"４６６號之１","E_COORD97":180320.14000000001,"N_COORD97":2547712.2599999998,"ADDRESS":"中興路４６６號之１","OBJECTID":587256},"geometry":{"x":180320.13999999966,"y":2547712.2600000016}},{"attributes":{"ID":587284,"DIS_CODE":0,"TOWNNAME":"新化區","LI":"護國里","LIN":"11鄰","STREET":"中山路","SECT":" ","MAREA":" ","LANE":" ","ALLEY":" ","HOUSE_NO":"７７號","E_COORD97":179865.56,"N_COORD97":2549374.25,"ADDRESS":"中山路７７號","OBJECTID":587257},"geometry":{"x":179865.56000000052,"y":2549374.2500000019}},{"attributes":{"ID":587285,"DIS_CODE":0,"TOWNNAME":"新化區","LI":"太平里","LIN":"11鄰","STREET":"民權街","SECT":" ","MAREA":" ","LANE":" ","ALLEY":" ","HOUSE_NO":"１８０號","E_COORD97":178711.20999999999,"N_COORD97":2548922.25,"ADDRESS":"民權街１８０號","OBJECTID":587258},"geometry":{"x":178711.20999999996,"y":2548922.2500000019}},{"attributes":{"ID":587286,"DIS_CODE":0,"TOWNNAME":"新化區","LI":"東榮里","LIN":"11鄰","STREET":"中興路","SECT":" ","MAREA":" ","LANE":" ","ALLEY":" ","HOUSE_NO":"４６０號","E_COORD97":180264.20999999999,"N_COORD97":2547779.25,"ADDRESS":"中興路４６０號","OBJECTID":587259},"geometry":{"x":180264.20999999996,"y":2547779.2500000037}},{"attributes":{"ID":587287,"DIS_CODE":0,"TOWNNAME":"新化區","LI":"武安里","LIN":"11鄰","STREET":"和平街","SECT":" ","MAREA":" ","LANE":" ","ALLEY":" ","HOUSE_NO":"１７１號","E_COORD97":178892.51999999999,"N_COORD97":2548272.25,"ADDRESS":"和平街１７１號","OBJECTID":587260},"geometry":{"x":178892.52000000142,"y":2548272.2500000019}},{"attributes":{"ID":587288,"DIS_CODE":0,"TOWNNAME":"新化區","LI":"護國里","LIN":"11鄰","STREET":"中山路","SECT":" ","MAREA":" ","LANE":" ","ALLEY":" ","HOUSE_NO":"１號之５２","E_COORD97":180740.10999999999,"N_COORD97":2550510.2599999998,"ADDRESS":"中山路１號之５２","OBJECTID":587261},"geometry":{"x":180740.11000000034,"y":2550510.2599999998}},{"attributes":{"ID":587289,"DIS_CODE":0,"TOWNNAME":"新化區","LI":"武安里","LIN":"11鄰","STREET":"信義路","SECT":" ","MAREA":" ","LANE":" ","ALLEY":" ","HOUSE_NO":"３３３號之１","E_COORD97":178854.95999999999,"N_COORD97":2548285.2599999998,"ADDRESS":"信義路３３３號之１","OBJECTID":587262},"geometry":{"x":178854.96000000089,"y":2548285.2600000016}},{"attributes":{"ID":587290,"DIS_CODE":0,"TOWNNAME":"新化區","LI":"武安里","LIN":"11鄰","STREET":"信義路","SECT":" ","MAREA":" ","LANE":" ","ALLEY":" ","HOUSE_NO":"３４９號之３","E_COORD97":178798.28,"N_COORD97":2548274.2599999998,"ADDRESS":"信義路３４９號之３","OBJECTID":587263},"geometry":{"x":178798.28000000119,"y":2548274.2600000016}},{"attributes":{"ID":587291,"DIS_CODE":0,"TOWNNAME":"新化區","LI":"武安里","LIN":"11鄰","STREET":"信義路","SECT":" ","MAREA":" ","LANE":" ","ALLEY":" ","HOUSE_NO":"３４７號","E_COORD97":178814.53,"N_COORD97":2548277.25,"ADDRESS":"信義路３４７號","OBJECTID":587264},"geometry":{"x":178814.53000000026,"y":2548277.2499999981}},{"attributes":{"ID":587292,"DIS_CODE":0,"TOWNNAME":"新化區","LI":"武安里","LIN":"11鄰","STREET":"信義路","SECT":" ","MAREA":" ","LANE":" ","ALLEY":" ","HOUSE_NO":"３４９號之２","E_COORD97":178802.38,"N_COORD97":2548275.2599999998,"ADDRESS":"信義路３４９號之２","OBJECTID":587265},"geometry":{"x":178802.38000000082,"y":2548275.2600000016}},{"attributes":{"ID":587293,"DIS_CODE":0,"TOWNNAME":"新化區","LI":"太平里","LIN":"11鄰","STREET":"民權街","SECT":" ","MAREA":" ","LANE":" ","ALLEY":" ","HOUSE_NO":"１６９號","E_COORD97":178671.81,"N_COORD97":2548917.25,"ADDRESS":"民權街１６９號","OBJECTID":587266},"geometry":{"x":178671.81000000145,"y":2548917.25}},{"attributes":{"ID":587294,"DIS_CODE":0,"TOWNNAME":"新化區","LI":"太平里","LIN":"11鄰","STREET":"民權街","SECT":" ","MAREA":" ","LANE":" ","ALLEY":" ","HOUSE_NO":"１８２號","E_COORD97":178710.41,"N_COORD97":2548926.25,"ADDRESS":"民權街１８２號","OBJECTID":587267},"geometry":{"x":178710.41000000015,"y":2548926.2500000019}},{"attributes":{"ID":587295,"DIS_CODE":0,"TOWNNAME":"新化區","LI":"知義里","LIN":"11鄰","STREET":"中興路","SECT":" ","MAREA":" ","LANE":" ","ALLEY":" ","HOUSE_NO":"２１７號","E_COORD97":181534.31,"N_COORD97":2547295.25,"ADDRESS":"中興路２１７號","OBJECTID":587268},"geometry":{"x":181534.30999999959,"y":2547295.2500000019}},{"attributes":{"ID":587296,"DIS_CODE":0,"TOWNNAME":"新化區","LI":"知義里","LIN":"11鄰","STREET":"中興路","SECT":" ","MAREA":" ","LANE":" ","ALLEY":" ","HOUSE_NO":"２３１號之６","E_COORD97":181480.95999999999,"N_COORD97":2547273.2599999998,"ADDRESS":"中興路２３１號之６","OBJECTID":587269},"geometry":{"x":181480.95999999996,"y":2547273.2599999998}},{"attributes":{"ID":587297,"DIS_CODE":0,"TOWNNAME":"新化區","LI":"東榮里","LIN":"11鄰","STREET":"中興路","SECT":" ","MAREA":" ","LANE":" ","ALLEY":" ","HOUSE_NO":"４５６號","E_COORD97":180264.20999999999,"N_COORD97":2547779.25,"ADDRESS":"中興路４５６號","OBJECTID":587270},"geometry":{"x":180264.20999999996,"y":2547779.2500000037}},{"attributes":{"ID":587298,"DIS_CODE":0,"TOWNNAME":"新化區","LI":"太平里","LIN":"11鄰","STREET":"正新北路","SECT":" ","MAREA":" ","LANE":" ","ALLEY":" ","HOUSE_NO":"５６號","E_COORD97":178621.12,"N_COORD97":2549056.25,"ADDRESS":"正新北路５６號","OBJECTID":587271},"geometry":{"x":178621.12000000197,"y":2549056.25}},{"attributes":{"ID":587299,"DIS_CODE":0,"TOWNNAME":"新化區","LI":"武安里","LIN":"11鄰","STREET":"信義路","SECT":" ","MAREA":" ","LANE":" ","ALLEY":" ","HOUSE_NO":"３２９號","E_COORD97":178873.82999999999,"N_COORD97":2548290.25,"ADDRESS":"信義路３２９號","OBJECTID":587272},"geometry":{"x":178873.83000000194,"y":2548290.25}},{"attributes":{"ID":587300,"DIS_CODE":0,"TOWNNAME":"新化區","LI":"武安里","LIN":"11鄰","STREET":"信義路","SECT":" ","MAREA":" ","LANE":" ","ALLEY":" ","HOUSE_NO":"３３３號","E_COORD97":178858.82999999999,"N_COORD97":2548285.25,"ADDRESS":"信義路３３３號","OBJECTID":587273},"geometry":{"x":178858.83000000101,"y":2548285.2500000019}},{"attributes":{"ID":587301,"DIS_CODE":0,"TOWNNAME":"新化區","LI":"太平里","LIN":"11鄰","STREET":"正新北路","SECT":" ","MAREA":" ","LANE":" ","ALLEY":" ","HOUSE_NO":"６０號","E_COORD97":178615.22,"N_COORD97":2549053.25,"ADDRESS":"正新北路６０號","OBJECTID":587274},"geometry":{"x":178615.22000000067,"y":2549053.25}},{"attributes":{"ID":587302,"DIS_CODE":0,"TOWNNAME":"新化區","LI":"太平里","LIN":"11鄰","STREET":"正新北路","SECT":" ","MAREA":" ","LANE":" ","ALLEY":" ","HOUSE_NO":"１６號","E_COORD97":178728.92000000001,"N_COORD97":2549115.25,"ADDRESS":"正新北路１６號","OBJECTID":587275},"geometry":{"x":178728.91999999899,"y":2549115.2500000019}},{"attributes":{"ID":587303,"DIS_CODE":0,"TOWNNAME":"新化區","LI":"太平里","LIN":"11鄰","STREET":"民權街","SECT":" ","MAREA":" ","LANE":" ","ALLEY":" ","HOUSE_NO":"１９１號","E_COORD97":178691.01000000001,"N_COORD97":2548942.25,"ADDRESS":"民權街１９１號","OBJECTID":587276},"geometry":{"x":178691.01000000164,"y":2548942.2500000037}},{"attributes":{"ID":587304,"DIS_CODE":0,"TOWNNAME":"新化區","LI":"太平里","LIN":"11鄰","STREET":"正新北路","SECT":" ","MAREA":" ","LANE":" ","ALLEY":" ","HOUSE_NO":"２６號","E_COORD97":178714.92000000001,"N_COORD97":2549107.25,"ADDRESS":"正新北路２６號","OBJECTID":587277},"geometry":{"x":178714.91999999993,"y":2549107.25}},{"attributes":{"ID":587305,"DIS_CODE":0,"TOWNNAME":"新化區","LI":"太平里","LIN":"11鄰","STREET":"正新北路","SECT":" ","MAREA":" ","LANE":" ","ALLEY":" ","HOUSE_NO":"７８號","E_COORD97":178594.92000000001,"N_COORD97":2549042.25,"ADDRESS":"正新北路７８號","OBJECTID":587278},"geometry":{"x":178594.91999999993,"y":2549042.25}},{"attributes":{"ID":587306,"DIS_CODE":0,"TOWNNAME":"新化區","LI":"太平里","LIN":"11鄰","STREET":"正新北路","SECT":" ","MAREA":" ","LANE":" ","ALLEY":" ","HOUSE_NO":"８２號","E_COORD97":178587.32000000001,"N_COORD97":2549038.25,"ADDRESS":"正新北路８２號","OBJECTID":587279},"geometry":{"x":178587.3200000003,"y":2549038.2500000019}},{"attributes":{"ID":587307,"DIS_CODE":0,"TOWNNAME":"新化區","LI":"太平里","LIN":"11鄰","STREET":"正新北路","SECT":" ","MAREA":" ","LANE":" ","ALLEY":" ","HOUSE_NO":"３８號","E_COORD97":178698.22,"N_COORD97":2549094.25,"ADDRESS":"正新北路３８號","OBJECTID":587280},"geometry":{"x":178698.22000000067,"y":2549094.25}},{"attributes":{"ID":587308,"DIS_CODE":0,"TOWNNAME":"新化區","LI":"武安里","LIN":"11鄰","STREET":"信義路","SECT":" ","MAREA":" ","LANE":" ","ALLEY":" ","HOUSE_NO":"３３７號之２","E_COORD97":178835.88,"N_COORD97":2548281.2599999998,"ADDRESS":"信義路３３７號之２","OBJECTID":587281},"geometry":{"x":178835.87999999989,"y":2548281.2600000016}},{"attributes":{"ID":587309,"DIS_CODE":0,"TOWNNAME":"新化區","LI":"武安里","LIN":"11鄰","STREET":"信義路","SECT":" ","MAREA":" ","LANE":" ","ALLEY":" ","HOUSE_NO":"３４９號","E_COORD97":178810.42999999999,"N_COORD97":2548276.2400000002,"ADDRESS":"信義路３４９號","OBJECTID":587282},"geometry":{"x":178810.43000000063,"y":2548276.2400000002}},{"attributes":{"ID":587310,"DIS_CODE":0,"TOWNNAME":"新化區","LI":"武安里","LIN":"11鄰","STREET":"和平街","SECT":" ","MAREA":" ","LANE":" ","ALLEY":" ","HOUSE_NO":"１６５號","E_COORD97":178891.01999999999,"N_COORD97":2548258.25,"ADDRESS":"和平街１６５號","OBJECTID":587283},"geometry":{"x":178891.02000000048,"y":2548258.2500000019}},{"attributes":{"ID":587311,"DIS_CODE":0,"TOWNNAME":"新化區","LI":"護國里","LIN":"11鄰","STREET":"中山路","SECT":" ","MAREA":" ","LANE":" ","ALLEY":" ","HOUSE_NO":"２７號之１","E_COORD97":180229.79000000001,"N_COORD97":2549808.2599999998,"ADDRESS":"中山路２７號之１","OBJECTID":587284},"geometry":{"x":180229.79000000004,"y":2549808.2599999998}},{"attributes":{"ID":587312,"DIS_CODE":0,"TOWNNAME":"新化區","LI":"武安里","LIN":"11鄰","STREET":"信義路","SECT":" ","MAREA":" ","LANE":" ","ALLEY":" ","HOUSE_NO":"３３１號","E_COORD97":178868.03,"N_COORD97":2548287.25,"ADDRESS":"信義路３３１號","OBJECTID":587285},"geometry":{"x":178868.03000000119,"y":2548287.25}},{"attributes":{"ID":587313,"DIS_CODE":0,"TOWNNAME":"新化區","LI":"護國里","LIN":"11鄰","STREET":"中山路","SECT":" ","MAREA":" ","LANE":" ","ALLEY":" ","HOUSE_NO":"１號之３２","E_COORD97":180816.51000000001,"N_COORD97":2550550.2599999998,"ADDRESS":"中山路１號之３２","OBJECTID":587286},"geometry":{"x":180816.50999999978,"y":2550550.2600000016}},{"attributes":{"ID":587314,"DIS_CODE":0,"TOWNNAME":"新化區","LI":"太平里","LIN":"11鄰","STREET":"民權街","SECT":" ","MAREA":" ","LANE":" ","ALLEY":" ","HOUSE_NO":"１８６號","E_COORD97":178711.51000000001,"N_COORD97":2548935.25,"ADDRESS":"民權街１８６號","OBJECTID":587287},"geometry":{"x":178711.51000000071,"y":2548935.2500000037}},{"attributes":{"ID":587315,"DIS_CODE":0,"TOWNNAME":"新化區","LI":"太平里","LIN":"11鄰","STREET":"民權街","SECT":" ","MAREA":" ","LANE":" ","ALLEY":" ","HOUSE_NO":"１８９號","E_COORD97":178684.31,"N_COORD97":2548942.25,"ADDRESS":"民權街１８９號","OBJECTID":587288},"geometry":{"x":178684.31000000052,"y":2548942.2500000037}},{"attributes":{"ID":587316,"DIS_CODE":0,"TOWNNAME":"新化區","LI":"護國里","LIN":"11鄰","STREET":"中山路","SECT":" ","MAREA":" ","LANE":" ","ALLEY":" ","HOUSE_NO":"５號","E_COORD97":180657.51000000001,"N_COORD97":2550206.25,"ADDRESS":"中山路５號","OBJECTID":587289},"geometry":{"x":180657.51000000164,"y":2550206.25}},{"attributes":{"ID":587317,"DIS_CODE":0,"TOWNNAME":"新化區","LI":"護國里","LIN":"11鄰","STREET":"中山路","SECT":" ","MAREA":" ","LANE":" ","ALLEY":" ","HOUSE_NO":"３１號","E_COORD97":180134.76000000001,"N_COORD97":2549652.25,"ADDRESS":"中山路３１號","OBJECTID":587290},"geometry":{"x":180134.75999999978,"y":2549652.2500000019}},{"attributes":{"ID":587318,"DIS_CODE":0,"TOWNNAME":"新化區","LI":"太平里","LIN":"11鄰","STREET":"正新北路","SECT":" ","MAREA":" ","LANE":" ","ALLEY":" ","HOUSE_NO":"３０號","E_COORD97":178707.72,"N_COORD97":2549103.25,"ADDRESS":"正新北路３０號","OBJECTID":587291},"geometry":{"x":178707.71999999974,"y":2549103.25}},{"attributes":{"ID":587319,"DIS_CODE":0,"TOWNNAME":"新化區","LI":"護國里","LIN":"11鄰","STREET":"中山路","SECT":" ","MAREA":" ","LANE":" ","ALLEY":" ","HOUSE_NO":"１號之３１","E_COORD97":180820.39000000001,"N_COORD97":2550553.2599999998,"ADDRESS":"中山路１號之３１","OBJECTID":587292},"geometry":{"x":180820.38999999966,"y":2550553.2600000016}},{"attributes":{"ID":587320,"DIS_CODE":0,"TOWNNAME":"新化區","LI":"護國里","LIN":"11鄰","STREET":"中山路","SECT":" ","MAREA":" ","LANE":" ","ALLEY":" ","HOUSE_NO":"３１號之１","E_COORD97":180119.89000000001,"N_COORD97":2549687.2599999998,"ADDRESS":"中山路３１號之１","OBJECTID":587293},"geometry":{"x":180119.88999999966,"y":2549687.2599999998}},{"attributes":{"ID":587321,"DIS_CODE":0,"TOWNNAME":"新化區","LI":"太平里","LIN":"11鄰","STREET":"正新北路","SECT":" ","MAREA":" ","LANE":" ","ALLEY":" ","HOUSE_NO":"６６號","E_COORD97":178609.42000000001,"N_COORD97":2549051.25,"ADDRESS":"正新北路６６號","OBJECTID":587294},"geometry":{"x":178609.42000000086,"y":2549051.2500000019}},{"attributes":{"ID":587322,"DIS_CODE":0,"TOWNNAME":"新化區","LI":"護國里","LIN":"11鄰","STREET":"中山路","SECT":" ","MAREA":" ","LANE":" ","ALLEY":" ","HOUSE_NO":"２７號","E_COORD97":180159.56,"N_COORD97":2549723.25,"ADDRESS":"中山路２７號","OBJECTID":587295},"geometry":{"x":180159.55999999959,"y":2549723.2500000019}},{"attributes":{"ID":587323,"DIS_CODE":0,"TOWNNAME":"新化區","LI":"護國里","LIN":"11鄰","STREET":"中山路","SECT":" ","MAREA":" ","LANE":" ","ALLEY":" ","HOUSE_NO":"１號之４３","E_COORD97":180774.70999999999,"N_COORD97":2550529.2599999998,"ADDRESS":"中山路１號之４３","OBJECTID":587296},"geometry":{"x":180774.70999999996,"y":2550529.2600000016}},{"attributes":{"ID":587324,"DIS_CODE":0,"TOWNNAME":"新化區","LI":"護國里","LIN":"11鄰","STREET":"中山路","SECT":" ","MAREA":" ","LANE":" ","ALLEY":" ","HOUSE_NO":"１號之３４","E_COORD97":180808.79000000001,"N_COORD97":2550546.2599999998,"ADDRESS":"中山路１號之３４","OBJECTID":587297},"geometry":{"x":180808.79000000097,"y":2550546.2600000016}},{"attributes":{"ID":587325,"DIS_CODE":0,"TOWNNAME":"新化區","LI":"護國里","LIN":"11鄰","STREET":"中山路","SECT":" ","MAREA":" ","LANE":" ","ALLEY":" ","HOUSE_NO":"１號之３０","E_COORD97":180824.10000000001,"N_COORD97":2550554.2599999998,"ADDRESS":"中山路１號之３０","OBJECTID":587298},"geometry":{"x":180824.09999999963,"y":2550554.2599999998}},{"attributes":{"ID":587326,"DIS_CODE":0,"TOWNNAME":"新化區","LI":"護國里","LIN":"11鄰","STREET":"中山路","SECT":" ","MAREA":" ","LANE":" ","ALLEY":" ","HOUSE_NO":"１號之５５","E_COORD97":180727.42000000001,"N_COORD97":2550504.2599999998,"ADDRESS":"中山路１號之５５","OBJECTID":587299},"geometry":{"x":180727.41999999993,"y":2550504.2599999998}},{"attributes":{"ID":587327,"DIS_CODE":0,"TOWNNAME":"新化區","LI":"知義里","LIN":"11鄰","STREET":"中興路","SECT":" ","MAREA":" ","LANE":" ","ALLEY":" ","HOUSE_NO":"２２５號","E_COORD97":181507.51000000001,"N_COORD97":2547277.25,"ADDRESS":"中興路２２５號","OBJECTID":587300},"geometry":{"x":181507.51000000071,"y":2547277.2500000037}},{"attributes":{"ID":587328,"DIS_CODE":0,"TOWNNAME":"新化區","LI":"知義里","LIN":"11鄰","STREET":"中興路","SECT":" ","MAREA":" ","LANE":" ","ALLEY":" ","HOUSE_NO":"２２７號","E_COORD97":181507.31,"N_COORD97":2547301.25,"ADDRESS":"中興路２２７號","OBJECTID":587301},"geometry":{"x":181507.30999999959,"y":2547301.2500000037}},{"attributes":{"ID":587329,"DIS_CODE":0,"TOWNNAME":"新化區","LI":"知義里","LIN":"11鄰","STREET":"中興路","SECT":" ","MAREA":" ","LANE":" ","ALLEY":" ","HOUSE_NO":"１２１號之２３","E_COORD97":181457.41,"N_COORD97":2547285.2599999998,"ADDRESS":"中興路１２１號之２３","OBJECTID":587302},"geometry":{"x":181457.41000000108,"y":2547285.2600000016}},{"attributes":{"ID":587330,"DIS_CODE":0,"TOWNNAME":"新化區","LI":"武安里","LIN":"11鄰","STREET":"信義路","SECT":" ","MAREA":" ","LANE":" ","ALLEY":" ","HOUSE_NO":"３４１號","E_COORD97":178826.82999999999,"N_COORD97":2548278.25,"ADDRESS":"信義路３４１號","OBJECTID":587303},"geometry":{"x":178826.83000000101,"y":2548278.2500000019}},{"attributes":{"ID":587331,"DIS_CODE":0,"TOWNNAME":"新化區","LI":"知義里","LIN":"11鄰","STREET":"中興路","SECT":" ","MAREA":" ","LANE":" ","ALLEY":" ","HOUSE_NO":"２２１號","E_COORD97":181524.51000000001,"N_COORD97":2547292.25,"ADDRESS":"中興路２２１號","OBJECTID":587304},"geometry":{"x":181524.50999999978,"y":2547292.2500000019}},{"attributes":{"ID":587332,"DIS_CODE":0,"TOWNNAME":"新化區","LI":"知義里","LIN":"11鄰","STREET":"中興路","SECT":" ","MAREA":" ","LANE":" ","ALLEY":" ","HOUSE_NO":"７９號","E_COORD97":181856.06,"N_COORD97":2547304.25,"ADDRESS":"中興路７９號","OBJECTID":587305},"geometry":{"x":181856.06000000052,"y":2547304.2499999981}},{"attributes":{"ID":587333,"DIS_CODE":0,"TOWNNAME":"新化區","LI":"太平里","LIN":"11鄰","STREET":"正新北路","SECT":" ","MAREA":" ","LANE":" ","ALLEY":" ","HOUSE_NO":"６２號","E_COORD97":178612.72,"N_COORD97":2549052.25,"ADDRESS":"正新北路６２號","OBJECTID":587306},"geometry":{"x":178612.71999999974,"y":2549052.25}},{"attributes":{"ID":587334,"DIS_CODE":0,"TOWNNAME":"新化區","LI":"知義里","LIN":"11鄰","STREET":"中興路","SECT":" ","MAREA":" ","LANE":" ","ALLEY":" ","HOUSE_NO":"２０５號","E_COORD97":181556.51000000001,"N_COORD97":2547296.25,"ADDRESS":"中興路２０５號","OBJECTID":587307},"geometry":{"x":181556.51000000071,"y":2547296.25}},{"attributes":{"ID":587335,"DIS_CODE":0,"TOWNNAME":"新化區","LI":"知義里","LIN":"11鄰","STREET":"中興路","SECT":" ","MAREA":" ","LANE":" ","ALLEY":" ","HOUSE_NO":"２１１號","E_COORD97":181550.20999999999,"N_COORD97":2547279.25,"ADDRESS":"中興路２１１號","OBJECTID":587308},"geometry":{"x":181550.21000000089,"y":2547279.25}},{"attributes":{"ID":587336,"DIS_CODE":0,"TOWNNAME":"新化區","LI":"東榮里","LIN":"11鄰","STREET":"中興路","SECT":" ","MAREA":" ","LANE":" ","ALLEY":" ","HOUSE_NO":"５２３號","E_COORD97":180063.51000000001,"N_COORD97":2547825.25,"ADDRESS":"中興路５２３號","OBJECTID":587309},"geometry":{"x":180063.50999999978,"y":2547825.25}},{"attributes":{"ID":587337,"DIS_CODE":0,"TOWNNAME":"新化區","LI":"太平里","LIN":"11鄰","STREET":"正新北路","SECT":" ","MAREA":" ","LANE":" ","ALLEY":" ","HOUSE_NO":"２９號","E_COORD97":178693.62,"N_COORD97":2549071.25,"ADDRESS":"正新北路２９號","OBJECTID":587310},"geometry":{"x":178693.62000000011,"y":2549071.2500000019}},{"attributes":{"ID":587338,"DIS_CODE":0,"TOWNNAME":"新化區","LI":"護國里","LIN":"11鄰","STREET":"中山路","SECT":" ","MAREA":" ","LANE":" ","ALLEY":" ","HOUSE_NO":"１號之３３","E_COORD97":180812.70999999999,"N_COORD97":2550548.2599999998,"ADDRESS":"中山路１號之３３","OBJECTID":587311},"geometry":{"x":180812.71000000089,"y":2550548.2599999998}},{"attributes":{"ID":587339,"DIS_CODE":0,"TOWNNAME":"新化區","LI":"東榮里","LIN":"11鄰","STREET":"中興路","SECT":" ","MAREA":" ","LANE":" ","ALLEY":" ","HOUSE_NO":"５３１號","E_COORD97":180057.01000000001,"N_COORD97":2547810.25,"ADDRESS":"中興路５３１號","OBJECTID":587312},"geometry":{"x":180057.00999999978,"y":2547810.2500000019}},{"attributes":{"ID":587340,"DIS_CODE":0,"TOWNNAME":"新化區","LI":"護國里","LIN":"11鄰","STREET":"中山路","SECT":" ","MAREA":" ","LANE":" ","ALLEY":" ","HOUSE_NO":"５９號","E_COORD97":179898.66,"N_COORD97":2549399.25,"ADDRESS":"中山路５９號","OBJECTID":587313},"geometry":{"x":179898.66000000015,"y":2549399.25}},{"attributes":{"ID":587341,"DIS_CODE":0,"TOWNNAME":"新化區","LI":"豐榮里","LIN":"11鄰","STREET":"信義路","SECT":" ","MAREA":" ","LANE":" ","ALLEY":" ","HOUSE_NO":"４４９號之１７","E_COORD97":178425.51999999999,"N_COORD97":2548216.2599999998,"ADDRESS":"信義路４４９號之１７","OBJECTID":587314},"geometry":{"x":178425.51999999955,"y":2548216.2600000035}},{"attributes":{"ID":587342,"DIS_CODE":0,"TOWNNAME":"新化區","LI":"護國里","LIN":"11鄰","STREET":"中山路","SECT":" ","MAREA":" ","LANE":" ","ALLEY":" ","HOUSE_NO":"８３號","E_COORD97":179858.45999999999,"N_COORD97":2549365.25,"ADDRESS":"中山路８３號","OBJECTID":587315},"geometry":{"x":179858.46000000089,"y":2549365.25}},{"attributes":{"ID":587343,"DIS_CODE":0,"TOWNNAME":"新化區","LI":"豐榮里","LIN":"11鄰","STREET":"信義路","SECT":" ","MAREA":" ","LANE":" ","ALLEY":" ","HOUSE_NO":"４４９號之１５","E_COORD97":178437.14000000001,"N_COORD97":2548216.2599999998,"ADDRESS":"信義路４４９號之１５","OBJECTID":587316},"geometry":{"x":178437.13999999966,"y":2548216.2600000035}},{"attributes":{"ID":587344,"DIS_CODE":0,"TOWNNAME":"新化區","LI":"豐榮里","LIN":"11鄰","STREET":"信義路","SECT":" ","MAREA":" ","LANE":" ","ALLEY":" ","HOUSE_NO":"４４９號之１４","E_COORD97":178442.01000000001,"N_COORD97":2548217.2599999998,"ADDRESS":"信義路４４９號之１４","OBJECTID":587317},"geometry":{"x":178442.01000000071,"y":2548217.2600000016}},{"attributes":{"ID":587345,"DIS_CODE":0,"TOWNNAME":"新化區","LI":"豐榮里","LIN":"11鄰","STREET":"信義路","SECT":" ","MAREA":" ","LANE":" ","ALLEY":" ","HOUSE_NO":"４４９號之１８","E_COORD97":178419.94,"N_COORD97":2548216.2599999998,"ADDRESS":"信義路４４９號之１８","OBJECTID":587318},"geometry":{"x":178419.94000000134,"y":2548216.2600000035}},{"attributes":{"ID":587346,"DIS_CODE":0,"TOWNNAME":"新化區","LI":"豐榮里","LIN":"11鄰","STREET":"信義路","SECT":" ","MAREA":" ","LANE":" ","ALLEY":" ","HOUSE_NO":"４４９號","E_COORD97":178477.23000000001,"N_COORD97":2548248.25,"ADDRESS":"信義路４４９號","OBJECTID":587319},"geometry":{"x":178477.23000000138,"y":2548248.2500000019}},{"attributes":{"ID":587347,"DIS_CODE":0,"TOWNNAME":"新化區","LI":"武安里","LIN":"11鄰","STREET":"信義路","SECT":" ","MAREA":" ","LANE":" ","ALLEY":" ","HOUSE_NO":"３４９號之１","E_COORD97":178806.06,"N_COORD97":2548275.2599999998,"ADDRESS":"信義路３４９號之１","OBJECTID":587320},"geometry":{"x":178806.06000000052,"y":2548275.2600000016}},{"attributes":{"ID":587348,"DIS_CODE":0,"TOWNNAME":"新化區","LI":"豐榮里","LIN":"11鄰","STREET":"信義路","SECT":" ","MAREA":" ","LANE":" ","ALLEY":" ","HOUSE_NO":"４４９號之５","E_COORD97":178451.69,"N_COORD97":2548245.2599999998,"ADDRESS":"信義路４４９號之５","OBJECTID":587321},"geometry":{"x":178451.69000000134,"y":2548245.2599999998}},{"attributes":{"ID":587349,"DIS_CODE":0,"TOWNNAME":"新化區","LI":"豐榮里","LIN":"11鄰","STREET":"信義路","SECT":" ","MAREA":" ","LANE":" ","ALLEY":" ","HOUSE_NO":"４３１號","E_COORD97":178524.73000000001,"N_COORD97":2548261.25,"ADDRESS":"信義路４３１號","OBJECTID":587322},"geometry":{"x":178524.73000000138,"y":2548261.2500000019}},{"attributes":{"ID":587350,"DIS_CODE":0,"TOWNNAME":"新化區","LI":"豐榮里","LIN":"11鄰","STREET":"信義路","SECT":" ","MAREA":" ","LANE":" ","ALLEY":" ","HOUSE_NO":"４４９號之９","E_COORD97":178465.67000000001,"N_COORD97":2548216.2599999998,"ADDRESS":"信義路４４９號之９","OBJECTID":587323},"geometry":{"x":178465.66999999993,"y":2548216.2600000035}},{"attributes":{"ID":587351,"DIS_CODE":0,"TOWNNAME":"新化區","LI":"豐榮里","LIN":"11鄰","STREET":"信義路","SECT":" ","MAREA":" ","LANE":" ","ALLEY":" ","HOUSE_NO":"４６３號","E_COORD97":178346.73000000001,"N_COORD97":2548288.25,"ADDRESS":"信義路４６３號","OBJECTID":587324},"geometry":{"x":178346.73000000138,"y":2548288.2500000019}},{"attributes":{"ID":587352,"DIS_CODE":0,"TOWNNAME":"新化區","LI":"豐榮里","LIN":"11鄰","STREET":"信義路","SECT":" ","MAREA":" ","LANE":" ","ALLEY":" ","HOUSE_NO":"４４９號之６","E_COORD97":178441.88,"N_COORD97":2548239.2599999998,"ADDRESS":"信義路４４９號之６","OBJECTID":587325},"geometry":{"x":178441.88000000082,"y":2548239.2599999998}},{"attributes":{"ID":587353,"DIS_CODE":0,"TOWNNAME":"新化區","LI":"武安里","LIN":"11鄰","STREET":"信義路","SECT":" ","MAREA":" ","LANE":" ","ALLEY":" ","HOUSE_NO":"３２５號","E_COORD97":178883.03,"N_COORD97":2548291.25,"ADDRESS":"信義路３２５號","OBJECTID":587326},"geometry":{"x":178883.03000000212,"y":2548291.2500000037}},{"attributes":{"ID":587354,"DIS_CODE":0,"TOWNNAME":"新化區","LI":"豐榮里","LIN":"11鄰","STREET":"信義路","SECT":" ","MAREA":" ","LANE":" ","ALLEY":" ","HOUSE_NO":"４４９號之１２","E_COORD97":178451.23000000001,"N_COORD97":2548216.2599999998,"ADDRESS":"信義路４４９號之１２","OBJECTID":587327},"geometry":{"x":178451.23000000231,"y":2548216.2600000035}},{"attributes":{"ID":587355,"DIS_CODE":0,"TOWNNAME":"佳里區","LI":"東寧里","LIN":"11鄰","STREET":"進學路","SECT":" ","MAREA":" ","LANE":" ","ALLEY":" ","HOUSE_NO":"１２１號","E_COORD97":166014.62,"N_COORD97":2562655.9199999999,"ADDRESS":"進學路１２１號","OBJECTID":587328},"geometry":{"x":166014.62000000104,"y":2562655.9200000018}},{"attributes":{"ID":587356,"DIS_CODE":0,"TOWNNAME":"新化區","LI":"豐榮里","LIN":"11鄰","STREET":"信義路","SECT":" ","MAREA":" ","LANE":" ","ALLEY":" ","HOUSE_NO":"４４９號之１１","E_COORD97":178456.10999999999,"N_COORD97":2548217.2599999998,"ADDRESS":"信義路４４９號之１１","OBJECTID":587329},"geometry":{"x":178456.11000000034,"y":2548217.2600000016}},{"attributes":{"ID":587357,"DIS_CODE":0,"TOWNNAME":"新化區","LI":"豐榮里","LIN":"11鄰","STREET":"信義路","SECT":" ","MAREA":" ","LANE":" ","ALLEY":" ","HOUSE_NO":"４４９號之１６","E_COORD97":178432.32999999999,"N_COORD97":2548216.2599999998,"ADDRESS":"信義路４４９號之１６","OBJECTID":587330},"geometry":{"x":178432.33000000007,"y":2548216.2600000035}},{"attributes":{"ID":587358,"DIS_CODE":0,"TOWNNAME":"新化區","LI":"豐榮里","LIN":"11鄰","STREET":"信義路","SECT":" ","MAREA":" ","LANE":" ","ALLEY":" ","HOUSE_NO":"４４９號之８","E_COORD97":178420.59,"N_COORD97":2548239.2599999998,"ADDRESS":"信義路４４９號之８","OBJECTID":587331},"geometry":{"x":178420.58999999985,"y":2548239.2599999998}},{"attributes":{"ID":587359,"DIS_CODE":0,"TOWNNAME":"新化區","LI":"護國里","LIN":"11鄰","STREET":"中山路","SECT":" ","MAREA":" ","LANE":" ","ALLEY":" ","HOUSE_NO":"１號之３６","E_COORD97":180801.41,"N_COORD97":2550542.2599999998,"ADDRESS":"中山路１號之３６","OBJECTID":587332},"geometry":{"x":180801.41000000108,"y":2550542.2600000016}},{"attributes":{"ID":587360,"DIS_CODE":0,"TOWNNAME":"新化區","LI":"護國里","LIN":"11鄰","STREET":"中山路","SECT":" ","MAREA":" ","LANE":" ","ALLEY":" ","HOUSE_NO":"１號之４０","E_COORD97":180786.10000000001,"N_COORD97":2550534.2599999998,"ADDRESS":"中山路１號之４０","OBJECTID":587333},"geometry":{"x":180786.10000000056,"y":2550534.2599999998}},{"attributes":{"ID":587361,"DIS_CODE":0,"TOWNNAME":"新化區","LI":"護國里","LIN":"11鄰","STREET":"中山路","SECT":" ","MAREA":" ","LANE":" ","ALLEY":" ","HOUSE_NO":"４３號","E_COORD97":180038.66,"N_COORD97":2549534.25,"ADDRESS":"中山路４３號","OBJECTID":587334},"geometry":{"x":180038.66000000108,"y":2549534.25}},{"attributes":{"ID":587362,"DIS_CODE":0,"TOWNNAME":"新化區","LI":"豐榮里","LIN":"11鄰","STREET":"信義路","SECT":" ","MAREA":" ","LANE":" ","ALLEY":" ","HOUSE_NO":"４４９號之１","E_COORD97":178465.76000000001,"N_COORD97":2548244.2599999998,"ADDRESS":"信義路４４９號之１","OBJECTID":587335},"geometry":{"x":178465.76000000071,"y":2548244.2600000016}},{"attributes":{"ID":587363,"DIS_CODE":0,"TOWNNAME":"新化區","LI":"知義里","LIN":"11鄰","STREET":"中興路","SECT":" ","MAREA":" ","LANE":" ","ALLEY":" ","HOUSE_NO":"１２１號之２７","E_COORD97":181452.29999999999,"N_COORD97":2547285.2599999998,"ADDRESS":"中興路１２１號之２７","OBJECTID":587336},"geometry":{"x":181452.30000000168,"y":2547285.2600000016}},{"attributes":{"ID":587364,"DIS_CODE":0,"TOWNNAME":"新化區","LI":"護國里","LIN":"11鄰","STREET":"中山路","SECT":" ","MAREA":" ","LANE":" ","ALLEY":" ","HOUSE_NO":"１號之５３","E_COORD97":180736.31,"N_COORD97":2550508.2599999998,"ADDRESS":"中山路１號之５３","OBJECTID":587337},"geometry":{"x":180736.30999999959,"y":2550508.2600000035}},{"attributes":{"ID":587365,"DIS_CODE":0,"TOWNNAME":"佳里區","LI":"東寧里","LIN":"11鄰","STREET":"進學路","SECT":" ","MAREA":" ","LANE":" ","ALLEY":" ","HOUSE_NO":"１３９號","E_COORD97":165948.12,"N_COORD97":2562655.0099999998,"ADDRESS":"進學路１３９號","OBJECTID":587338},"geometry":{"x":165948.12000000104,"y":2562655.0100000016}},{"attributes":{"ID":587366,"DIS_CODE":0,"TOWNNAME":"新化區","LI":"護國里","LIN":"11鄰","STREET":"中山路","SECT":" ","MAREA":" ","LANE":" ","ALLEY":" ","HOUSE_NO":"１號之４４","E_COORD97":180770.79000000001,"N_COORD97":2550527.2599999998,"ADDRESS":"中山路１號之４４","OBJECTID":587339},"geometry":{"x":180770.79000000004,"y":2550527.2599999998}},{"attributes":{"ID":587367,"DIS_CODE":0,"TOWNNAME":"新化區","LI":"護國里","LIN":"11鄰","STREET":"中山路","SECT":" ","MAREA":" ","LANE":" ","ALLEY":" ","HOUSE_NO":"４７號","E_COORD97":179968.16,"N_COORD97":2549467.25,"ADDRESS":"中山路４７號","OBJECTID":587340},"geometry":{"x":179968.16000000015,"y":2549467.2499999981}},{"attributes":{"ID":587368,"DIS_CODE":0,"TOWNNAME":"新化區","LI":"知義里","LIN":"11鄰","STREET":"中興路","SECT":" ","MAREA":" ","LANE":" ","ALLEY":" ","HOUSE_NO":"２９１號","E_COORD97":181241.35999999999,"N_COORD97":2547276.4100000001,"ADDRESS":"中興路２９１號","OBJECTID":587341},"geometry":{"x":181241.36000000034,"y":2547276.4100000039}},{"attributes":{"ID":587369,"DIS_CODE":0,"TOWNNAME":"新化區","LI":"知義里","LIN":"11鄰","STREET":"中興路","SECT":" ","MAREA":" ","LANE":" ","ALLEY":" ","HOUSE_NO":"２９３號","E_COORD97":181243.03,"N_COORD97":2547261.6299999999,"ADDRESS":"中興路２９３號","OBJECTID":587342},"geometry":{"x":181243.03000000119,"y":2547261.6300000008}},{"attributes":{"ID":587370,"DIS_CODE":0,"TOWNNAME":"新化區","LI":"知義里","LIN":"11鄰","STREET":"中興路","SECT":" ","MAREA":" ","LANE":" ","ALLEY":" ","HOUSE_NO":"２９５號","E_COORD97":181216.28,"N_COORD97":2547249.5699999998,"ADDRESS":"中興路２９５號","OBJECTID":587343},"geometry":{"x":181216.28000000119,"y":2547249.5700000022}},{"attributes":{"ID":587371,"DIS_CODE":0,"TOWNNAME":"新化區","LI":"知義里","LIN":"11鄰","STREET":"中興路","SECT":" ","MAREA":" ","LANE":" ","ALLEY":" ","HOUSE_NO":"２８５號","E_COORD97":181337.18450100001,"N_COORD97":2547293.5399000002,"ADDRESS":"中興路２８５號","OBJECTID":587344},"geometry":{"x":181337.18450100161,"y":2547293.5398980025}},{"attributes":{"ID":587372,"DIS_CODE":0,"TOWNNAME":"新化區","LI":"護國里","LIN":"11鄰","STREET":"中山路","SECT":" ","MAREA":" ","LANE":" ","ALLEY":" ","HOUSE_NO":"９１號","E_COORD97":179892.79000000001,"N_COORD97":2549325.5099999998,"ADDRESS":"中山路９１號","OBJECTID":587345},"geometry":{"x":179892.78999999911,"y":2549325.5099999998}},{"attributes":{"ID":587373,"DIS_CODE":0,"TOWNNAME":"新化區","LI":"太平里","LIN":"11鄰","STREET":"中正路","SECT":" ","MAREA":" ","LANE":" ","ALLEY":" ","HOUSE_NO":"６９７號","E_COORD97":178782.29000000001,"N_COORD97":2549148.8700000001,"ADDRESS":"中正路６９７號","OBJECTID":587346},"geometry":{"x":178782.29000000004,"y":2549148.8699999992}},{"attributes":{"ID":587374,"DIS_CODE":0,"TOWNNAME":"新化區","LI":"太平里","LIN":"11鄰","STREET":"中正路","SECT":" ","MAREA":" ","LANE":" ","ALLEY":" ","HOUSE_NO":"６９９號","E_COORD97":178773.81,"N_COORD97":2549164.2599999998,"ADDRESS":"中正路６９９號","OBJECTID":587347},"geometry":{"x":178773.81000000052,"y":2549164.2599999998}},{"attributes":{"ID":587375,"DIS_CODE":0,"TOWNNAME":"新化區","LI":"太平里","LIN":"11鄰","STREET":"中正路","SECT":" ","MAREA":" ","LANE":" ","ALLEY":" ","HOUSE_NO":"７０１號","E_COORD97":178774.45999999999,"N_COORD97":2549146.1899999999,"ADDRESS":"中正路７０１號","OBJECTID":587348},"geometry":{"x":178774.45999999903,"y":2549146.1900000013}},{"attributes":{"ID":587376,"DIS_CODE":0,"TOWNNAME":"新化區","LI":"太平里","LIN":"11鄰","STREET":"中正路","SECT":" ","MAREA":" ","LANE":" ","ALLEY":" ","HOUSE_NO":"７０３號","E_COORD97":178773.81,"N_COORD97":2549164.2599999998,"ADDRESS":"中正路７０３號","OBJECTID":587349},"geometry":{"x":178773.81000000052,"y":2549164.2599999998}},{"attributes":{"ID":587377,"DIS_CODE":0,"TOWNNAME":"新化區","LI":"太平里","LIN":"11鄰","STREET":"中正路","SECT":" ","MAREA":" ","LANE":" ","ALLEY":" ","HOUSE_NO":"７０５號","E_COORD97":178756.14000000001,"N_COORD97":2549157.6400000001,"ADDRESS":"中正路７０５號","OBJECTID":587350},"geometry":{"x":178756.14000000153,"y":2549157.6400000025}},{"attributes":{"ID":587378,"DIS_CODE":0,"TOWNNAME":"安平區","LI":"建平里","LIN":"11鄰","STREET":"建平十五街","SECT":" ","MAREA":" ","LANE":" ","ALLEY":" ","HOUSE_NO":"８６號","E_COORD97":166102.47,"N_COORD97":2544143.0499999998,"ADDRESS":"建平十五街８６號","OBJECTID":587351},"geometry":{"x":166102.46999999974,"y":2544143.0500000007}},{"attributes":{"ID":587379,"DIS_CODE":0,"TOWNNAME":"新營區","LI":"民榮里","LIN":"11鄰","STREET":"復興路","SECT":" ","MAREA":" ","LANE":" ","ALLEY":" ","HOUSE_NO":"１５３號","E_COORD97":179222.41,"N_COORD97":2578001.4100000001,"ADDRESS":"復興路１５３號","OBJECTID":587352},"geometry":{"x":179222.41000000015,"y":2578001.410000002}},{"attributes":{"ID":587380,"DIS_CODE":0,"TOWNNAME":"新營區","LI":"新東里","LIN":"11鄰","STREET":"東泰路","SECT":" ","MAREA":" ","LANE":" ","ALLEY":" ","HOUSE_NO":"８８號","E_COORD97":181130.63,"N_COORD97":2579801.3399999999,"ADDRESS":"東泰路８８號","OBJECTID":587353},"geometry":{"x":181130.62999999989,"y":2579801.3400000017}},{"attributes":{"ID":587381,"DIS_CODE":0,"TOWNNAME":"新營區","LI":"新東里","LIN":"11鄰","STREET":"東泰路","SECT":" ","MAREA":" ","LANE":" ","ALLEY":" ","HOUSE_NO":"９０號","E_COORD97":181134.81,"N_COORD97":2579808.9700000002,"ADDRESS":"東泰路９０號","OBJECTID":587354},"geometry":{"x":181134.80999999866,"y":2579808.9700000007}},{"attributes":{"ID":587382,"DIS_CODE":0,"TOWNNAME":"新營區","LI":"新東里","LIN":"11鄰","STREET":"東泰路","SECT":" ","MAREA":" ","LANE":" ","ALLEY":" ","HOUSE_NO":"９２號","E_COORD97":181134.10000000001,"N_COORD97":2579813.98,"ADDRESS":"東泰路９２號","OBJECTID":587355},"geometry":{"x":181134.09999999963,"y":2579813.9800000023}},{"attributes":{"ID":587383,"DIS_CODE":0,"TOWNNAME":"新營區","LI":"新東里","LIN":"11鄰","STREET":"東泰路","SECT":" ","MAREA":" ","LANE":" ","ALLEY":" ","HOUSE_NO":"９６號","E_COORD97":181130.42892599999,"N_COORD97":2579819.9068700001,"ADDRESS":"東泰路９６號","OBJECTID":587356},"geometry":{"x":181130.42892600037,"y":2579819.906866001}},{"attributes":{"ID":587384,"DIS_CODE":0,"TOWNNAME":"新營區","LI":"新東里","LIN":"11鄰","STREET":"東泰路","SECT":" ","MAREA":" ","LANE":" ","ALLEY":" ","HOUSE_NO":"９８號","E_COORD97":181129.15763199999,"N_COORD97":2579825.5160300001,"ADDRESS":"東泰路９８號","OBJECTID":587357},"geometry":{"x":181129.15763200074,"y":2579825.5160290003}},{"attributes":{"ID":587385,"DIS_CODE":0,"TOWNNAME":"佳里區","LI":"東寧里","LIN":"11鄰","STREET":"進學路","SECT":" ","MAREA":" ","LANE":" ","ALLEY":" ","HOUSE_NO":"１４７號","E_COORD97":165929.44,"N_COORD97":2562650.4199999999,"ADDRESS":"進學路１４７號","OBJECTID":587358},"geometry":{"x":165929.44000000134,"y":2562650.4199999999}},{"attributes":{"ID":587386,"DIS_CODE":0,"TOWNNAME":"永康區","LI":"三民里","LIN":"11鄰","STREET":"和平路","SECT":" ","MAREA":" ","LANE":" ","ALLEY":" ","HOUSE_NO":"２１６之１號","E_COORD97":174762.19,"N_COORD97":2550643.8999999999,"ADDRESS":"和平路２１６之１號","OBJECTID":587359},"geometry":{"x":174762.19000000041,"y":2550643.9000000022}},{"attributes":{"ID":587387,"DIS_CODE":0,"TOWNNAME":"歸仁區","LI":"崙頂里","LIN":"11鄰","STREET":"成功路","SECT":"二段","MAREA":" ","LANE":" ","ALLEY":" ","HOUSE_NO":"１３９號","E_COORD97":177981.20999999999,"N_COORD97":2539709.7400000002,"ADDRESS":"成功路二段１３９號","OBJECTID":587360},"geometry":{"x":177981.21000000183,"y":2539709.7400000002}},{"attributes":{"ID":587388,"DIS_CODE":0,"TOWNNAME":"歸仁區","LI":"崙頂里","LIN":"11鄰","STREET":"成功路","SECT":"二段","MAREA":" ","LANE":" ","ALLEY":" ","HOUSE_NO":"１４３號","E_COORD97":177982.26999999999,"N_COORD97":2539696.3999999999,"ADDRESS":"成功路二段１４３號","OBJECTID":587361},"geometry":{"x":177982.27000000048,"y":2539696.4000000022}},{"attributes":{"ID":587389,"DIS_CODE":0,"TOWNNAME":"歸仁區","LI":"崙頂里","LIN":"11鄰","STREET":"成功路","SECT":"二段","MAREA":" ","LANE":" ","ALLEY":" ","HOUSE_NO":"１４５號","E_COORD97":177966.79999999999,"N_COORD97":2539697.46,"ADDRESS":"成功路二段１４５號","OBJECTID":587362},"geometry":{"x":177966.79999999888,"y":2539697.4600000028}},{"attributes":{"ID":587390,"DIS_CODE":0,"TOWNNAME":"下營區","LI":"後街里","LIN":"11鄰","STREET":"民權一街","SECT":" ","MAREA":" ","LANE":" ","ALLEY":" ","HOUSE_NO":"１０２號","E_COORD97":174438.76000000001,"N_COORD97":2570628.1200000001,"ADDRESS":"民權一街１０２號","OBJECTID":587363},"geometry":{"x":174438.75999999978,"y":2570628.120000001}},{"attributes":{"ID":587391,"DIS_CODE":0,"TOWNNAME":"玉井區","LI":"竹圍里","LIN":"11鄰","STREET":"\u25A0吧哖東路","SECT":" ","MAREA":" ","LANE":" ","ALLEY":" ","HOUSE_NO":"５７６號","E_COORD97":196552.37,"N_COORD97":2559308.29,"ADDRESS":"\u25A0吧哖東路５７６號","OBJECTID":587364},"geometry":{"x":196552.37000000011,"y":2559308.2899999972}},{"attributes":{"ID":587392,"DIS_CODE":0,"TOWNNAME":"玉井區","LI":"竹圍里","LIN":"11鄰","STREET":"\u25A0吧哖東路","SECT":" ","MAREA":" ","LANE":" ","ALLEY":" ","HOUSE_NO":"５１８號","E_COORD97":196551.23000000001,"N_COORD97":2559218.8199999998,"ADDRESS":"\u25A0吧哖東路５１８號","OBJECTID":587365},"geometry":{"x":196551.23000000138,"y":2559218.8200000022}},{"attributes":{"ID":587393,"DIS_CODE":0,"TOWNNAME":"歸仁區","LI":"六甲里","LIN":"11鄰","STREET":"中正南路","SECT":"一段","MAREA":" ","LANE":" ","ALLEY":" ","HOUSE_NO":"１２０５號","E_COORD97":175961.19,"N_COORD97":2538664.8300000001,"ADDRESS":"中正南路一段１２０５號","OBJECTID":587366},"geometry":{"x":175961.19000000227,"y":2538664.8300000001}},{"attributes":{"ID":587394,"DIS_CODE":0,"TOWNNAME":"東區","LI":"德光里","LIN":"11鄰","STREET":"崇德三街","SECT":" ","MAREA":" ","LANE":" ","ALLEY":" ","HOUSE_NO":"８８號","E_COORD97":170328.04000000001,"N_COORD97":2542279.2200000002,"ADDRESS":"崇德三街８８號","OBJECTID":587367},"geometry":{"x":170328.04000000004,"y":2542279.2200000007}},{"attributes":{"ID":587395,"DIS_CODE":0,"TOWNNAME":"東區","LI":"德光里","LIN":"11鄰","STREET":"崇德三街","SECT":" ","MAREA":" ","LANE":" ","ALLEY":" ","HOUSE_NO":"１００號","E_COORD97":170305.28,"N_COORD97":2542296.4199999999,"ADDRESS":"崇德三街１００號","OBJECTID":587368},"geometry":{"x":170305.28000000212,"y":2542296.4200000018}},{"attributes":{"ID":587396,"DIS_CODE":0,"TOWNNAME":"東區","LI":"德光里","LIN":"11鄰","STREET":"崇德三街","SECT":" ","MAREA":" ","LANE":" ","ALLEY":" ","HOUSE_NO":"１０２號","E_COORD97":170301.59,"N_COORD97":2542299.29,"ADDRESS":"崇德三街１０２號","OBJECTID":587369},"geometry":{"x":170301.59000000078,"y":2542299.2900000028}},{"attributes":{"ID":587397,"DIS_CODE":0,"TOWNNAME":"東區","LI":"德光里","LIN":"11鄰","STREET":"崇德三街","SECT":" ","MAREA":" ","LANE":" ","ALLEY":" ","HOUSE_NO":"１０６號","E_COORD97":170313.89999999999,"N_COORD97":2542313.7599999998,"ADDRESS":"崇德三街１０６號","OBJECTID":587370},"geometry":{"x":170313.90000000037,"y":2542313.7600000035}},{"attributes":{"ID":587398,"DIS_CODE":0,"TOWNNAME":"東區","LI":"德光里","LIN":"11鄰","STREET":"崇德三街","SECT":" ","MAREA":" ","LANE":" ","ALLEY":" ","HOUSE_NO":"１０８號","E_COORD97":170327.42000000001,"N_COORD97":2542328.1600000001,"ADDRESS":"崇德三街１０８號","OBJECTID":587371},"geometry":{"x":170327.41999999993,"y":2542328.1600000039}},{"attributes":{"ID":587399,"DIS_CODE":0,"TOWNNAME":"東區","LI":"德光里","LIN":"11鄰","STREET":"崇德三街","SECT":" ","MAREA":" ","LANE":" ","ALLEY":" ","HOUSE_NO":"６４號","E_COORD97":170277.13,"N_COORD97":2542263.8999999999,"ADDRESS":"崇德三街６４號","OBJECTID":587372},"geometry":{"x":170277.13000000175,"y":2542263.9000000022}},{"attributes":{"ID":587400,"DIS_CODE":0,"TOWNNAME":"東區","LI":"德光里","LIN":"11鄰","STREET":"崇德三街","SECT":" ","MAREA":" ","LANE":" ","ALLEY":" ","HOUSE_NO":"６６號","E_COORD97":170279.45999999999,"N_COORD97":2542267.6299999999,"ADDRESS":"崇德三街６６號","OBJECTID":587373},"geometry":{"x":170279.45999999996,"y":2542267.6300000008}},{"attributes":{"ID":587401,"DIS_CODE":0,"TOWNNAME":"東區","LI":"德光里","LIN":"11鄰","STREET":"崇德三街","SECT":" ","MAREA":" ","LANE":" ","ALLEY":" ","HOUSE_NO":"６８號","E_COORD97":170282.42000000001,"N_COORD97":2542271.21,"ADDRESS":"崇德三街６８號","OBJECTID":587374},"geometry":{"x":170282.42000000086,"y":2542271.2100000046}},{"attributes":{"ID":587402,"DIS_CODE":0,"TOWNNAME":"東區","LI":"德光里","LIN":"11鄰","STREET":"崇德三街","SECT":" ","MAREA":" ","LANE":" ","ALLEY":" ","HOUSE_NO":"７０號","E_COORD97":170285.23000000001,"N_COORD97":2542274.3300000001,"ADDRESS":"崇德三街７０號","OBJECTID":587375},"geometry":{"x":170285.23000000045,"y":2542274.3300000019}},{"attributes":{"ID":587403,"DIS_CODE":0,"TOWNNAME":"東區","LI":"德光里","LIN":"11鄰","STREET":"崇德三街","SECT":" ","MAREA":" ","LANE":" ","ALLEY":" ","HOUSE_NO":"７２號","E_COORD97":170288.88,"N_COORD97":2542283.52,"ADDRESS":"崇德三街７２號","OBJECTID":587376},"geometry":{"x":170288.88000000175,"y":2542283.5199999996}},{"attributes":{"ID":587404,"DIS_CODE":0,"TOWNNAME":"東區","LI":"德光里","LIN":"11鄰","STREET":"崇德三街","SECT":" ","MAREA":" ","LANE":" ","ALLEY":" ","HOUSE_NO":"７４號","E_COORD97":170292.98000000001,"N_COORD97":2542280.6499999999,"ADDRESS":"崇德三街７４號","OBJECTID":587377},"geometry":{"x":170292.98000000138,"y":2542280.6500000004}},{"attributes":{"ID":587405,"DIS_CODE":0,"TOWNNAME":"東區","LI":"德光里","LIN":"11鄰","STREET":"崇德三街","SECT":" ","MAREA":" ","LANE":" ","ALLEY":" ","HOUSE_NO":"７６號","E_COORD97":170297.28,"N_COORD97":2542277.1699999999,"ADDRESS":"崇德三街７６號","OBJECTID":587378},"geometry":{"x":170297.28000000119,"y":2542277.1700000037}},{"attributes":{"ID":587406,"DIS_CODE":0,"TOWNNAME":"東區","LI":"德光里","LIN":"11鄰","STREET":"崇德三街","SECT":" ","MAREA":" ","LANE":" ","ALLEY":" ","HOUSE_NO":"７８號","E_COORD97":170300.56,"N_COORD97":2542274.1000000001,"ADDRESS":"崇德三街７８號","OBJECTID":587379},"geometry":{"x":170300.55999999959,"y":2542274.1000000015}},{"attributes":{"ID":587407,"DIS_CODE":0,"TOWNNAME":"東區","LI":"德光里","LIN":"11鄰","STREET":"崇德三街","SECT":" ","MAREA":" ","LANE":" ","ALLEY":" ","HOUSE_NO":"８０號","E_COORD97":170303.64000000001,"N_COORD97":2542271.8500000001,"ADDRESS":"崇德三街８０號","OBJECTID":587380},"geometry":{"x":170303.63999999966,"y":2542271.8499999978}},{"attributes":{"ID":587408,"DIS_CODE":0,"TOWNNAME":"東區","LI":"德光里","LIN":"11鄰","STREET":"崇德三街","SECT":" ","MAREA":" ","LANE":" ","ALLEY":" ","HOUSE_NO":"８２號","E_COORD97":170306.92000000001,"N_COORD97":2542268.77,"ADDRESS":"崇德三街８２號","OBJECTID":587381},"geometry":{"x":170306.91999999993,"y":2542268.7699999996}},{"attributes":{"ID":587409,"DIS_CODE":0,"TOWNNAME":"東區","LI":"德光里","LIN":"11鄰","STREET":"崇德三街","SECT":" ","MAREA":" ","LANE":" ","ALLEY":" ","HOUSE_NO":"８４號","E_COORD97":170309.59,"N_COORD97":2542265.7000000002,"ADDRESS":"崇德三街８４號","OBJECTID":587382},"geometry":{"x":170309.59000000171,"y":2542265.6999999974}},{"attributes":{"ID":587410,"DIS_CODE":0,"TOWNNAME":"東區","LI":"德光里","LIN":"11鄰","STREET":"崇德三街","SECT":" ","MAREA":" ","LANE":" ","ALLEY":" ","HOUSE_NO":"８６號","E_COORD97":170314.29999999999,"N_COORD97":2542262.6299999999,"ADDRESS":"崇德三街８６號","OBJECTID":587383},"geometry":{"x":170314.29999999981,"y":2542262.6300000027}},{"attributes":{"ID":587411,"DIS_CODE":0,"TOWNNAME":"東區","LI":"德光里","LIN":"11鄰","STREET":"崇德三街","SECT":" ","MAREA":" ","LANE":" ","ALLEY":" ","HOUSE_NO":"９０號","E_COORD97":170323.12,"N_COORD97":2542282.29,"ADDRESS":"崇德三街９０號","OBJECTID":587384},"geometry":{"x":170323.12000000197,"y":2542282.2900000028}},{"attributes":{"ID":587412,"DIS_CODE":0,"TOWNNAME":"東區","LI":"德光里","LIN":"11鄰","STREET":"崇德三街","SECT":" ","MAREA":" ","LANE":" ","ALLEY":" ","HOUSE_NO":"９２號","E_COORD97":170320.04000000001,"N_COORD97":2542284.9500000002,"ADDRESS":"崇德三街９２號","OBJECTID":587385},"geometry":{"x":170320.04000000004,"y":2542284.9500000011}},{"attributes":{"ID":587413,"DIS_CODE":0,"TOWNNAME":"東區","LI":"德光里","LIN":"11鄰","STREET":"崇德三街","SECT":" ","MAREA":" ","LANE":" ","ALLEY":" ","HOUSE_NO":"９４號","E_COORD97":170315.94,"N_COORD97":2542287.6099999999,"ADDRESS":"崇德三街９４號","OBJECTID":587386},"geometry":{"x":170315.94000000041,"y":2542287.6100000013}},{"attributes":{"ID":587414,"DIS_CODE":0,"TOWNNAME":"東區","LI":"德光里","LIN":"11鄰","STREET":"崇德三街","SECT":" ","MAREA":" ","LANE":" ","ALLEY":" ","HOUSE_NO":"９６號","E_COORD97":170312.87,"N_COORD97":2542290.6800000002,"ADDRESS":"崇德三街９６號","OBJECTID":587387},"geometry":{"x":170312.86999999918,"y":2542290.6800000016}},{"attributes":{"ID":587415,"DIS_CODE":0,"TOWNNAME":"東區","LI":"德光里","LIN":"11鄰","STREET":"崇德三街","SECT":" ","MAREA":" ","LANE":" ","ALLEY":" ","HOUSE_NO":"９８號","E_COORD97":170309.17999999999,"N_COORD97":2542293.1400000001,"ADDRESS":"崇德三街９８號","OBJECTID":587388},"geometry":{"x":170309.18000000063,"y":2542293.1400000006}},{"attributes":{"ID":587416,"DIS_CODE":0,"TOWNNAME":"南區","LI":"文南里","LIN":"11鄰","STREET":"南明街","SECT":" ","MAREA":" ","LANE":" ","ALLEY":" ","HOUSE_NO":"６２號","E_COORD97":166680.59,"N_COORD97":2542814.98,"ADDRESS":"南明街６２號","OBJECTID":587389},"geometry":{"x":166680.59000000078,"y":2542814.9800000023}},{"attributes":{"ID":587417,"DIS_CODE":0,"TOWNNAME":"南區","LI":"文南里","LIN":"11鄰","STREET":"南明街","SECT":" ","MAREA":" ","LANE":" ","ALLEY":" ","HOUSE_NO":"６４號","E_COORD97":166674.47,"N_COORD97":2542814.98,"ADDRESS":"南明街６４號","OBJECTID":587390},"geometry":{"x":166674.47000000067,"y":2542814.9800000023}},{"attributes":{"ID":587418,"DIS_CODE":0,"TOWNNAME":"南區","LI":"文南里","LIN":"11鄰","STREET":"南明街","SECT":" ","MAREA":" ","LANE":" ","ALLEY":" ","HOUSE_NO":"６６號","E_COORD97":166668.70999999999,"N_COORD97":2542815.75,"ADDRESS":"南明街６６號","OBJECTID":587391},"geometry":{"x":166668.70999999996,"y":2542815.7500000037}},{"attributes":{"ID":587419,"DIS_CODE":0,"TOWNNAME":"南區","LI":"文南里","LIN":"11鄰","STREET":"南明街","SECT":" ","MAREA":" ","LANE":" ","ALLEY":" ","HOUSE_NO":"６８號","E_COORD97":166662.57000000001,"N_COORD97":2542816.3300000001,"ADDRESS":"南明街６８號","OBJECTID":587392},"geometry":{"x":166662.57000000123,"y":2542816.3300000019}},{"attributes":{"ID":587420,"DIS_CODE":0,"TOWNNAME":"南區","LI":"文南里","LIN":"11鄰","STREET":"南明街","SECT":" ","MAREA":" ","LANE":" ","ALLEY":" ","HOUSE_NO":"７０號","E_COORD97":166656.25,"N_COORD97":2542817.2799999998,"ADDRESS":"南明街７０號","OBJECTID":587393},"geometry":{"x":166656.25000000093,"y":2542817.2799999993}},{"attributes":{"ID":587421,"DIS_CODE":0,"TOWNNAME":"南區","LI":"文南里","LIN":"11鄰","STREET":"南明街","SECT":" ","MAREA":" ","LANE":" ","ALLEY":" ","HOUSE_NO":"７２號","E_COORD97":166650.5,"N_COORD97":2542814.23,"ADDRESS":"南明街７２號","OBJECTID":587394},"geometry":{"x":166650.50000000093,"y":2542814.2300000023}},{"attributes":{"ID":587422,"DIS_CODE":0,"TOWNNAME":"南區","LI":"文華里","LIN":"11鄰","STREET":"文南路","SECT":" ","MAREA":" ","LANE":" ","ALLEY":" ","HOUSE_NO":"１２０號","E_COORD97":166964.39999999999,"N_COORD97":2542871.1699999999,"ADDRESS":"文南路１２０號","OBJECTID":587395},"geometry":{"x":166964.40000000037,"y":2542871.1700000018}},{"attributes":{"ID":587423,"DIS_CODE":0,"TOWNNAME":"南區","LI":"文華里","LIN":"11鄰","STREET":"文南路","SECT":" ","MAREA":" ","LANE":" ","ALLEY":" ","HOUSE_NO":"２４４號","E_COORD97":166966.41,"N_COORD97":2542922.25,"ADDRESS":"文南路２４４號","OBJECTID":587396},"geometry":{"x":166966.41000000201,"y":2542922.2500000019}},{"attributes":{"ID":587424,"DIS_CODE":0,"TOWNNAME":"南區","LI":"文華里","LIN":"11鄰","STREET":"文南路","SECT":" ","MAREA":" ","LANE":" ","ALLEY":" ","HOUSE_NO":"２４６號","E_COORD97":166966.67999999999,"N_COORD97":2542927.8999999999,"ADDRESS":"文南路２４６號","OBJECTID":587397},"geometry":{"x":166966.6799999997,"y":2542927.9000000022}},{"attributes":{"ID":587425,"DIS_CODE":0,"TOWNNAME":"南區","LI":"文華里","LIN":"11鄰","STREET":"文南路","SECT":" ","MAREA":" ","LANE":" ","ALLEY":" ","HOUSE_NO":"２４８號","E_COORD97":166966.95000000001,"N_COORD97":2542933.1899999999,"ADDRESS":"文南路２４８號","OBJECTID":587398},"geometry":{"x":166966.95000000112,"y":2542933.1899999995}},{"attributes":{"ID":587426,"DIS_CODE":0,"TOWNNAME":"南區","LI":"文華里","LIN":"11鄰","STREET":"建南路","SECT":" ","MAREA":" ","LANE":" ","ALLEY":" ","HOUSE_NO":"１２２號","E_COORD97":167034.14999999999,"N_COORD97":2542847.73,"ADDRESS":"建南路１２２號","OBJECTID":587399},"geometry":{"x":167034.15000000037,"y":2542847.7300000023}},{"attributes":{"ID":587427,"DIS_CODE":0,"TOWNNAME":"南區","LI":"文華里","LIN":"11鄰","STREET":"建南路","SECT":" ","MAREA":" ","LANE":" ","ALLEY":" ","HOUSE_NO":"１２４號","E_COORD97":167029.26000000001,"N_COORD97":2542848.2599999998,"ADDRESS":"建南路１２４號","OBJECTID":587400},"geometry":{"x":167029.25999999978,"y":2542848.2599999998}}]}