{"displayFieldName":"TOWNNAME","fieldAliases":{"ID":"ID","DIS_CODE":"DIS_CODE","TOWNNAME":"TOWNNAME","LI":"LI","LIN":"LIN","STREET":"STREET","SECT":"SECT","MAREA":"MAREA","LANE":"LANE","ALLEY":"ALLEY","HOUSE_NO":"HOUSE_NO","E_COORD97":"E_COORD97","N_COORD97":"N_COORD97","ADDRESS":"ADDRESS","OBJECTID":"OBJECTID"},"geometryType":"esriGeometryPoint","spatialReference":{"wkid":102443,"latestWkid":3826},"fields":[{"name":"ID","type":"esriFieldTypeDouble","alias":"ID"},{"name":"DIS_CODE","type":"esriFieldTypeInteger","alias":"DIS_CODE"},{"name":"TOWNNAME","type":"esriFieldTypeString","alias":"TOWNNAME","length":8},{"name":"LI","type":"esriFieldTypeString","alias":"LI","length":8},{"name":"LIN","type":"esriFieldTypeString","alias":"LIN","length":12},{"name":"STREET","type":"esriFieldTypeString","alias":"STREET","length":20},{"name":"SECT","type":"esriFieldTypeString","alias":"SECT","length":8},{"name":"MAREA","type":"esriFieldTypeString","alias":"MAREA","length":12},{"name":"LANE","type":"esriFieldTypeString","alias":"LANE","length":10},{"name":"ALLEY","type":"esriFieldTypeString","alias":"ALLEY","length":10},{"name":"HOUSE_NO","type":"esriFieldTypeString","alias":"HOUSE_NO","length":20},{"name":"E_COORD97","type":"esriFieldTypeDouble","alias":"E_COORD97"},{"name":"N_COORD97","type":"esriFieldTypeDouble","alias":"N_COORD97"},{"name":"ADDRESS","type":"esriFieldTypeString","alias":"ADDRESS","length":50},{"name":"OBJECTID","type":"esriFieldTypeOID","alias":"OBJECTID"}],"features":[{"attributes":{"ID":603628,"DIS_CODE":0,"TOWNNAME":"東區","LI":"大同里","LIN":"22鄰","STREET":"大同路","SECT":"一段","MAREA":" ","LANE":" ","ALLEY":" ","HOUSE_NO":"２２５號","E_COORD97":169138.67999999999,"N_COORD97":2542671.8599999999,"ADDRESS":"大同路一段２２５號","OBJECTID":603601},"geometry":{"x":169138.6799999997,"y":2542671.8600000031}},{"attributes":{"ID":603629,"DIS_CODE":0,"TOWNNAME":"中西區","LI":"西賢里","LIN":"22鄰","STREET":"西賢一街","SECT":" ","MAREA":" ","LANE":" ","ALLEY":" ","HOUSE_NO":"２３７號","E_COORD97":165670.10999999999,"N_COORD97":2545030.0099999998,"ADDRESS":"西賢一街２３７號","OBJECTID":603602},"geometry":{"x":165670.1100000022,"y":2545030.0099999998}},{"attributes":{"ID":603630,"DIS_CODE":0,"TOWNNAME":"中西區","LI":"西賢里","LIN":"22鄰","STREET":"西賢一街","SECT":" ","MAREA":" ","LANE":" ","ALLEY":" ","HOUSE_NO":"２３９號","E_COORD97":165671.70999999999,"N_COORD97":2545033.9700000002,"ADDRESS":"西賢一街２３９號","OBJECTID":603603},"geometry":{"x":165671.70999999996,"y":2545033.9700000007}},{"attributes":{"ID":603631,"DIS_CODE":0,"TOWNNAME":"中西區","LI":"西賢里","LIN":"22鄰","STREET":"西賢一街","SECT":" ","MAREA":" ","LANE":" ","ALLEY":" ","HOUSE_NO":"２４１號","E_COORD97":165671.32000000001,"N_COORD97":2545039.6299999999,"ADDRESS":"西賢一街２４１號","OBJECTID":603604},"geometry":{"x":165671.3200000003,"y":2545039.6300000027}},{"attributes":{"ID":603632,"DIS_CODE":0,"TOWNNAME":"中西區","LI":"西賢里","LIN":"22鄰","STREET":"西賢一街","SECT":" ","MAREA":" ","LANE":" ","ALLEY":" ","HOUSE_NO":"２４３號","E_COORD97":165670.14999999999,"N_COORD97":2545043.9300000002,"ADDRESS":"西賢一街２４３號","OBJECTID":603605},"geometry":{"x":165670.1500000013,"y":2545043.9299999997}},{"attributes":{"ID":603633,"DIS_CODE":0,"TOWNNAME":"中西區","LI":"西賢里","LIN":"22鄰","STREET":"西賢一街","SECT":" ","MAREA":" ","LANE":" ","ALLEY":" ","HOUSE_NO":"２４５號","E_COORD97":165670.73999999999,"N_COORD97":2545048.6099999999,"ADDRESS":"西賢一街２４５號","OBJECTID":603606},"geometry":{"x":165670.73999999929,"y":2545048.6099999994}},{"attributes":{"ID":603634,"DIS_CODE":0,"TOWNNAME":"東區","LI":"自強里","LIN":"22鄰","STREET":"富農街","SECT":"一段","MAREA":" ","LANE":" ","ALLEY":" ","HOUSE_NO":"１４７號","E_COORD97":171539.38,"N_COORD97":2542515.9900000002,"ADDRESS":"富農街一段１４７號","OBJECTID":603607},"geometry":{"x":171539.37999999989,"y":2542515.9900000039}},{"attributes":{"ID":603635,"DIS_CODE":0,"TOWNNAME":"永康區","LI":"安康里","LIN":"22鄰","STREET":"中華西街","SECT":" ","MAREA":" ","LANE":" ","ALLEY":" ","HOUSE_NO":"１４２號","E_COORD97":170682.39000000001,"N_COORD97":2546200.8900000001,"ADDRESS":"中華西街１４２號","OBJECTID":603608},"geometry":{"x":170682.3900000006,"y":2546200.8900000006}},{"attributes":{"ID":603636,"DIS_CODE":0,"TOWNNAME":"永康區","LI":"安康里","LIN":"22鄰","STREET":"中華西街","SECT":" ","MAREA":" ","LANE":" ","ALLEY":" ","HOUSE_NO":"１２８號","E_COORD97":170706.04999999999,"N_COORD97":2546153.5800000001,"ADDRESS":"中華西街１２８號","OBJECTID":603609},"geometry":{"x":170706.04999999981,"y":2546153.5800000019}},{"attributes":{"ID":603637,"DIS_CODE":0,"TOWNNAME":"永康區","LI":"甲頂里","LIN":"22鄰","STREET":"中正南路","SECT":" ","MAREA":" ","LANE":" ","ALLEY":" ","HOUSE_NO":"３４號","E_COORD97":169667.12,"N_COORD97":2546689.7400000002,"ADDRESS":"中正南路３４號","OBJECTID":603610},"geometry":{"x":169667.12000000197,"y":2546689.7400000002}},{"attributes":{"ID":603638,"DIS_CODE":0,"TOWNNAME":"永康區","LI":"復華里","LIN":"22鄰","STREET":"復華七街","SECT":" ","MAREA":" ","LANE":" ","ALLEY":" ","HOUSE_NO":"１０７號","E_COORD97":172826.29000000001,"N_COORD97":2546147.29,"ADDRESS":"復華七街１０７號","OBJECTID":603611},"geometry":{"x":172826.29000000097,"y":2546147.2900000028}},{"attributes":{"ID":603639,"DIS_CODE":0,"TOWNNAME":"永康區","LI":"西勢里","LIN":"22鄰","STREET":"富強路","SECT":"一段","MAREA":" ","LANE":" ","ALLEY":" ","HOUSE_NO":"２０６號","E_COORD97":175618.48000000001,"N_COORD97":2546382.77,"ADDRESS":"富強路一段２０６號","OBJECTID":603612},"geometry":{"x":175618.48000000231,"y":2546382.7700000014}},{"attributes":{"ID":603640,"DIS_CODE":0,"TOWNNAME":"下營區","LI":"後街里","LIN":"22鄰","STREET":"大忠街","SECT":" ","MAREA":" ","LANE":" ","ALLEY":" ","HOUSE_NO":"５６號","E_COORD97":174700.95999999999,"N_COORD97":2571040.1400000001,"ADDRESS":"大忠街５６號","OBJECTID":603613},"geometry":{"x":174700.96000000183,"y":2571040.1400000025}},{"attributes":{"ID":603641,"DIS_CODE":0,"TOWNNAME":"安南區","LI":"溪頂里","LIN":"22鄰","STREET":"惠安街","SECT":" ","MAREA":" ","LANE":" ","ALLEY":" ","HOUSE_NO":"１２０號","E_COORD97":168738.19,"N_COORD97":2547489.7000000002,"ADDRESS":"惠安街１２０號","OBJECTID":603614},"geometry":{"x":168738.19000000134,"y":2547489.6999999993}},{"attributes":{"ID":603642,"DIS_CODE":0,"TOWNNAME":"安南區","LI":"溪頂里","LIN":"22鄰","STREET":"惠安街","SECT":" ","MAREA":" ","LANE":" ","ALLEY":" ","HOUSE_NO":"１２６號","E_COORD97":168724.07999999999,"N_COORD97":2547489.3999999999,"ADDRESS":"惠安街１２６號","OBJECTID":603615},"geometry":{"x":168724.08000000007,"y":2547489.4000000004}},{"attributes":{"ID":603643,"DIS_CODE":0,"TOWNNAME":"中西區","LI":"天后里","LIN":"22鄰","STREET":"成功路","SECT":" ","MAREA":" ","LANE":" ","ALLEY":" ","HOUSE_NO":"２３９號","E_COORD97":168256.28,"N_COORD97":2544399.8599999999,"ADDRESS":"成功路２３９號","OBJECTID":603616},"geometry":{"x":168256.28000000119,"y":2544399.8599999994}},{"attributes":{"ID":603644,"DIS_CODE":0,"TOWNNAME":"中西區","LI":"天后里","LIN":"22鄰","STREET":"成功路","SECT":" ","MAREA":" ","LANE":" ","ALLEY":" ","HOUSE_NO":"２４１號","E_COORD97":168251.94,"N_COORD97":2544400.46,"ADDRESS":"成功路２４１號","OBJECTID":603617},"geometry":{"x":168251.94000000134,"y":2544400.4600000009}},{"attributes":{"ID":603645,"DIS_CODE":0,"TOWNNAME":"中西區","LI":"天后里","LIN":"22鄰","STREET":"成功路","SECT":" ","MAREA":" ","LANE":" ","ALLEY":" ","HOUSE_NO":"２４３號","E_COORD97":168247.78,"N_COORD97":2544403.4199999999,"ADDRESS":"成功路２４３號","OBJECTID":603618},"geometry":{"x":168247.78000000119,"y":2544403.4199999999}},{"attributes":{"ID":603646,"DIS_CODE":0,"TOWNNAME":"中西區","LI":"天后里","LIN":"22鄰","STREET":"成功路","SECT":" ","MAREA":" ","LANE":" ","ALLEY":" ","HOUSE_NO":"２４５號","E_COORD97":168236.12,"N_COORD97":2544405.2000000002,"ADDRESS":"成功路２４５號","OBJECTID":603619},"geometry":{"x":168236.12000000011,"y":2544405.200000003}},{"attributes":{"ID":603647,"DIS_CODE":0,"TOWNNAME":"中西區","LI":"天后里","LIN":"22鄰","STREET":"成功路","SECT":" ","MAREA":" ","LANE":" ","ALLEY":" ","HOUSE_NO":"２４７號","E_COORD97":168232.37,"N_COORD97":2544405.79,"ADDRESS":"成功路２４７號","OBJECTID":603620},"geometry":{"x":168232.37000000011,"y":2544405.790000001}},{"attributes":{"ID":603648,"DIS_CODE":0,"TOWNNAME":"中西區","LI":"天后里","LIN":"22鄰","STREET":"成功路","SECT":" ","MAREA":" ","LANE":" ","ALLEY":" ","HOUSE_NO":"２４９號","E_COORD97":168227.03,"N_COORD97":2544407.5699999998,"ADDRESS":"成功路２４９號","OBJECTID":603621},"geometry":{"x":168227.03000000212,"y":2544407.5700000022}},{"attributes":{"ID":603649,"DIS_CODE":0,"TOWNNAME":"中西區","LI":"天后里","LIN":"22鄰","STREET":"成功路","SECT":" ","MAREA":" ","LANE":" ","ALLEY":" ","HOUSE_NO":"２５１號","E_COORD97":168222.29000000001,"N_COORD97":2544409.54,"ADDRESS":"成功路２５１號","OBJECTID":603622},"geometry":{"x":168222.29000000097,"y":2544409.5400000028}},{"attributes":{"ID":603650,"DIS_CODE":0,"TOWNNAME":"中西區","LI":"天后里","LIN":"22鄰","STREET":"成功路","SECT":" ","MAREA":" ","LANE":" ","ALLEY":" ","HOUSE_NO":"２５３號","E_COORD97":168217.54000000001,"N_COORD97":2544411.3199999998,"ADDRESS":"成功路２５３號","OBJECTID":603623},"geometry":{"x":168217.54000000004,"y":2544411.3200000003}},{"attributes":{"ID":603651,"DIS_CODE":0,"TOWNNAME":"中西區","LI":"天后里","LIN":"22鄰","STREET":"成功路","SECT":" ","MAREA":" ","LANE":" ","ALLEY":" ","HOUSE_NO":"２５５號","E_COORD97":168214.57999999999,"N_COORD97":2544416.0600000001,"ADDRESS":"成功路２５５號","OBJECTID":603624},"geometry":{"x":168214.58000000194,"y":2544416.0600000005}},{"attributes":{"ID":603652,"DIS_CODE":0,"TOWNNAME":"中西區","LI":"天后里","LIN":"22鄰","STREET":"成功路","SECT":" ","MAREA":" ","LANE":" ","ALLEY":" ","HOUSE_NO":"２５７號","E_COORD97":168211.60999999999,"N_COORD97":2544417.8399999999,"ADDRESS":"成功路２５７號","OBJECTID":603625},"geometry":{"x":168211.61000000127,"y":2544417.8399999999}},{"attributes":{"ID":603653,"DIS_CODE":0,"TOWNNAME":"中西區","LI":"天后里","LIN":"22鄰","STREET":"成功路","SECT":" ","MAREA":" ","LANE":" ","ALLEY":" ","HOUSE_NO":"２５９號","E_COORD97":168209.23999999999,"N_COORD97":2544419.6099999999,"ADDRESS":"成功路２５９號","OBJECTID":603626},"geometry":{"x":168209.24000000115,"y":2544419.6100000031}},{"attributes":{"ID":603654,"DIS_CODE":0,"TOWNNAME":"中西區","LI":"天后里","LIN":"22鄰","STREET":"成功路","SECT":" ","MAREA":" ","LANE":" ","ALLEY":" ","HOUSE_NO":"２６１號","E_COORD97":168205.09,"N_COORD97":2544421.1899999999,"ADDRESS":"成功路２６１號","OBJECTID":603627},"geometry":{"x":168205.08999999985,"y":2544421.1899999995}},{"attributes":{"ID":603655,"DIS_CODE":0,"TOWNNAME":"中西區","LI":"天后里","LIN":"22鄰","STREET":"成功路","SECT":" ","MAREA":" ","LANE":" ","ALLEY":" ","HOUSE_NO":"２６３號","E_COORD97":168202.32000000001,"N_COORD97":2544422.5800000001,"ADDRESS":"成功路２６３號","OBJECTID":603628},"geometry":{"x":168202.3200000003,"y":2544422.5800000001}},{"attributes":{"ID":603656,"DIS_CODE":0,"TOWNNAME":"中西區","LI":"天后里","LIN":"22鄰","STREET":"赤嵌街","SECT":" ","MAREA":" ","LANE":" ","ALLEY":" ","HOUSE_NO":"６５號","E_COORD97":168250.32999999999,"N_COORD97":2544391.02,"ADDRESS":"赤嵌街６５號","OBJECTID":603629},"geometry":{"x":168250.33000000101,"y":2544391.0200000014}},{"attributes":{"ID":603657,"DIS_CODE":0,"TOWNNAME":"中西區","LI":"天后里","LIN":"22鄰","STREET":"赤嵌街","SECT":" ","MAREA":" ","LANE":" ","ALLEY":" ","HOUSE_NO":"６５號之１","E_COORD97":168251.34,"N_COORD97":2544395.9100000001,"ADDRESS":"赤嵌街６５號之１","OBJECTID":603630},"geometry":{"x":168251.33999999985,"y":2544395.910000002}},{"attributes":{"ID":603658,"DIS_CODE":0,"TOWNNAME":"中西區","LI":"天后里","LIN":"22鄰","STREET":"赤嵌街","SECT":" ","MAREA":" ","LANE":" ","ALLEY":" ","HOUSE_NO":"６７號","E_COORD97":168261.42000000001,"N_COORD97":2544398.2799999998,"ADDRESS":"赤嵌街６７號","OBJECTID":603631},"geometry":{"x":168261.42000000086,"y":2544398.2800000012}},{"attributes":{"ID":603659,"DIS_CODE":0,"TOWNNAME":"中西區","LI":"天后里","LIN":"22鄰","STREET":"新美街","SECT":" ","MAREA":" ","LANE":" ","ALLEY":" ","HOUSE_NO":"３２２號","E_COORD97":168178.47,"N_COORD97":2544371.8199999998,"ADDRESS":"新美街３２２號","OBJECTID":603632},"geometry":{"x":168178.47000000067,"y":2544371.820000004}},{"attributes":{"ID":603660,"DIS_CODE":0,"TOWNNAME":"中西區","LI":"天后里","LIN":"22鄰","STREET":"新美街","SECT":" ","MAREA":" ","LANE":" ","ALLEY":" ","HOUSE_NO":"３２４號","E_COORD97":168182.31,"N_COORD97":2544375.8300000001,"ADDRESS":"新美街３２４號","OBJECTID":603633},"geometry":{"x":168182.31000000052,"y":2544375.8300000019}},{"attributes":{"ID":603661,"DIS_CODE":0,"TOWNNAME":"中西區","LI":"天后里","LIN":"22鄰","STREET":"新美街","SECT":" ","MAREA":" ","LANE":" ","ALLEY":" ","HOUSE_NO":"３２６號","E_COORD97":168184.98999999999,"N_COORD97":2544380,"ADDRESS":"新美街３２６號","OBJECTID":603634},"geometry":{"x":168184.99000000115,"y":2544379.9999999981}},{"attributes":{"ID":603662,"DIS_CODE":0,"TOWNNAME":"中西區","LI":"天后里","LIN":"22鄰","STREET":"新美街","SECT":" ","MAREA":" ","LANE":" ","ALLEY":" ","HOUSE_NO":"３２８號","E_COORD97":168187.32000000001,"N_COORD97":2544384.8399999999,"ADDRESS":"新美街３２８號","OBJECTID":603635},"geometry":{"x":168187.3200000003,"y":2544384.8400000017}},{"attributes":{"ID":603663,"DIS_CODE":0,"TOWNNAME":"中西區","LI":"天后里","LIN":"22鄰","STREET":"新美街","SECT":" ","MAREA":" ","LANE":" ","ALLEY":" ","HOUSE_NO":"３３０號","E_COORD97":168189.32999999999,"N_COORD97":2544389.0099999998,"ADDRESS":"新美街３３０號","OBJECTID":603636},"geometry":{"x":168189.33000000101,"y":2544389.0099999998}},{"attributes":{"ID":603664,"DIS_CODE":0,"TOWNNAME":"中西區","LI":"天后里","LIN":"22鄰","STREET":"新美街","SECT":" ","MAREA":" ","LANE":" ","ALLEY":" ","HOUSE_NO":"３３２號","E_COORD97":168188.85000000001,"N_COORD97":2544394.5299999998,"ADDRESS":"新美街３３２號","OBJECTID":603637},"geometry":{"x":168188.85000000056,"y":2544394.5300000012}},{"attributes":{"ID":603665,"DIS_CODE":0,"TOWNNAME":"中西區","LI":"天后里","LIN":"22鄰","STREET":"新美街","SECT":" ","MAREA":" ","LANE":" ","ALLEY":" ","HOUSE_NO":"３３４號","E_COORD97":168191.22,"N_COORD97":2544398.6800000002,"ADDRESS":"新美街３３４號","OBJECTID":603638},"geometry":{"x":168191.2200000016,"y":2544398.6799999997}},{"attributes":{"ID":603666,"DIS_CODE":0,"TOWNNAME":"中西區","LI":"天后里","LIN":"22鄰","STREET":"新美街","SECT":" ","MAREA":" ","LANE":" ","ALLEY":" ","HOUSE_NO":"３３６號","E_COORD97":168194.38,"N_COORD97":2544403.4199999999,"ADDRESS":"新美街３３６號","OBJECTID":603639},"geometry":{"x":168194.38000000082,"y":2544403.4199999999}},{"attributes":{"ID":603667,"DIS_CODE":0,"TOWNNAME":"中西區","LI":"天后里","LIN":"22鄰","STREET":"新美街","SECT":" ","MAREA":" ","LANE":" ","ALLEY":" ","HOUSE_NO":"３３８號","E_COORD97":168197.73999999999,"N_COORD97":2544405.9900000002,"ADDRESS":"新美街３３８號","OBJECTID":603640},"geometry":{"x":168197.74000000022,"y":2544405.9900000002}},{"attributes":{"ID":603668,"DIS_CODE":0,"TOWNNAME":"中西區","LI":"天后里","LIN":"22鄰","STREET":"新美街","SECT":" ","MAREA":" ","LANE":" ","ALLEY":" ","HOUSE_NO":"３４０號","E_COORD97":168200.12,"N_COORD97":2544409.54,"ADDRESS":"新美街３４０號","OBJECTID":603641},"geometry":{"x":168200.12000000011,"y":2544409.5400000028}},{"attributes":{"ID":603669,"DIS_CODE":0,"TOWNNAME":"中西區","LI":"天后里","LIN":"22鄰","STREET":"新美街","SECT":" ","MAREA":" ","LANE":" ","ALLEY":" ","HOUSE_NO":"３４２號","E_COORD97":168201.89000000001,"N_COORD97":2544413.1000000001,"ADDRESS":"新美街３４２號","OBJECTID":603642},"geometry":{"x":168201.89000000153,"y":2544413.1000000034}},{"attributes":{"ID":603670,"DIS_CODE":0,"TOWNNAME":"中西區","LI":"天后里","LIN":"22鄰","STREET":"新美街","SECT":" ","MAREA":" ","LANE":" ","ALLEY":" ","HOUSE_NO":"３４４號","E_COORD97":168203.07999999999,"N_COORD97":2544415.8599999999,"ADDRESS":"新美街３４４號","OBJECTID":603643},"geometry":{"x":168203.08000000101,"y":2544415.8600000013}},{"attributes":{"ID":603671,"DIS_CODE":0,"TOWNNAME":"仁德區","LI":"仁義里","LIN":"22鄰","STREET":"中清路","SECT":" ","MAREA":" ","LANE":" ","ALLEY":" ","HOUSE_NO":"１２６號","E_COORD97":173731.60000000001,"N_COORD97":2541395.4300000002,"ADDRESS":"中清路１２６號","OBJECTID":603644},"geometry":{"x":173731.59999999963,"y":2541395.4299999997}},{"attributes":{"ID":603672,"DIS_CODE":0,"TOWNNAME":"仁德區","LI":"仁義里","LIN":"22鄰","STREET":"中清路","SECT":" ","MAREA":" ","LANE":" ","ALLEY":" ","HOUSE_NO":"１２８號","E_COORD97":173731.89000000001,"N_COORD97":2541401.1600000001,"ADDRESS":"中清路１２８號","OBJECTID":603645},"geometry":{"x":173731.8900000006,"y":2541401.1600000001}},{"attributes":{"ID":603673,"DIS_CODE":0,"TOWNNAME":"仁德區","LI":"仁義里","LIN":"22鄰","STREET":"中清路","SECT":" ","MAREA":" ","LANE":" ","ALLEY":" ","HOUSE_NO":"１３０號","E_COORD97":173732.45999999999,"N_COORD97":2541406.7400000002,"ADDRESS":"中清路１３０號","OBJECTID":603646},"geometry":{"x":173732.45999999996,"y":2541406.7400000021}},{"attributes":{"ID":603674,"DIS_CODE":0,"TOWNNAME":"仁德區","LI":"仁德里","LIN":"22鄰","STREET":"文南街","SECT":" ","MAREA":" ","LANE":" ","ALLEY":" ","HOUSE_NO":"２６號","E_COORD97":172350.56,"N_COORD97":2541188.52,"ADDRESS":"文南街２６號","OBJECTID":603647},"geometry":{"x":172350.56000000052,"y":2541188.5199999996}},{"attributes":{"ID":603675,"DIS_CODE":0,"TOWNNAME":"仁德區","LI":"仁德里","LIN":"22鄰","STREET":"文善街","SECT":" ","MAREA":" ","LANE":" ","ALLEY":" ","HOUSE_NO":"１００號","E_COORD97":172330.61070200001,"N_COORD97":2541385.8086199998,"ADDRESS":"文善街１００號","OBJECTID":603648},"geometry":{"x":172330.61070199963,"y":2541385.8086170014}},{"attributes":{"ID":603676,"DIS_CODE":0,"TOWNNAME":"仁德區","LI":"仁德里","LIN":"22鄰","STREET":"文善街","SECT":" ","MAREA":" ","LANE":" ","ALLEY":" ","HOUSE_NO":"１１６號","E_COORD97":172341.68388900001,"N_COORD97":2541429.9891599999,"ADDRESS":"文善街１１６號","OBJECTID":603649},"geometry":{"x":172341.68388899975,"y":2541429.9891640041}},{"attributes":{"ID":603677,"DIS_CODE":0,"TOWNNAME":"下營區","LI":"仁里里","LIN":"22鄰","STREET":"九分街","SECT":" ","MAREA":" ","LANE":" ","ALLEY":" ","HOUSE_NO":"１４３號","E_COORD97":173783.85000000001,"N_COORD97":2569951.6299999999,"ADDRESS":"九分街１４３號","OBJECTID":603650},"geometry":{"x":173783.84999999963,"y":2569951.6299999971}},{"attributes":{"ID":603678,"DIS_CODE":0,"TOWNNAME":"下營區","LI":"後街里","LIN":"22鄰","STREET":"大和街","SECT":" ","MAREA":" ","LANE":" ","ALLEY":" ","HOUSE_NO":"１０５號","E_COORD97":174626.69,"N_COORD97":2571222.54,"ADDRESS":"大和街１０５號","OBJECTID":603651},"geometry":{"x":174626.69000000041,"y":2571222.5399999991}},{"attributes":{"ID":603679,"DIS_CODE":0,"TOWNNAME":"下營區","LI":"後街里","LIN":"22鄰","STREET":"大和街","SECT":" ","MAREA":" ","LANE":" ","ALLEY":" ","HOUSE_NO":"１０７號","E_COORD97":174621.63,"N_COORD97":2571222.1899999999,"ADDRESS":"大和街１０７號","OBJECTID":603652},"geometry":{"x":174621.62999999989,"y":2571222.1899999995}},{"attributes":{"ID":603680,"DIS_CODE":0,"TOWNNAME":"下營區","LI":"後街里","LIN":"22鄰","STREET":"大和街","SECT":" ","MAREA":" ","LANE":" ","ALLEY":" ","HOUSE_NO":"１０９號","E_COORD97":174616.41,"N_COORD97":2571221.8100000001,"ADDRESS":"大和街１０９號","OBJECTID":603653},"geometry":{"x":174616.41000000015,"y":2571221.8100000024}},{"attributes":{"ID":603681,"DIS_CODE":0,"TOWNNAME":"下營區","LI":"後街里","LIN":"22鄰","STREET":"大和街","SECT":" ","MAREA":" ","LANE":" ","ALLEY":" ","HOUSE_NO":"１１１號","E_COORD97":174610.72,"N_COORD97":2571220.9700000002,"ADDRESS":"大和街１１１號","OBJECTID":603654},"geometry":{"x":174610.71999999974,"y":2571220.9700000025}},{"attributes":{"ID":603682,"DIS_CODE":0,"TOWNNAME":"下營區","LI":"後街里","LIN":"22鄰","STREET":"大忠街","SECT":" ","MAREA":" ","LANE":" ","ALLEY":" ","HOUSE_NO":"１０６號","E_COORD97":174594.64000000001,"N_COORD97":2571064.8599999999,"ADDRESS":"大忠街１０６號","OBJECTID":603655},"geometry":{"x":174594.6400000006,"y":2571064.8599999994}},{"attributes":{"ID":603683,"DIS_CODE":0,"TOWNNAME":"下營區","LI":"後街里","LIN":"22鄰","STREET":"大忠街","SECT":" ","MAREA":" ","LANE":" ","ALLEY":" ","HOUSE_NO":"５２號","E_COORD97":174705.60000000001,"N_COORD97":2571040.71,"ADDRESS":"大忠街５２號","OBJECTID":603656},"geometry":{"x":174705.60000000056,"y":2571040.7100000009}},{"attributes":{"ID":603684,"DIS_CODE":0,"TOWNNAME":"下營區","LI":"後街里","LIN":"22鄰","STREET":"大忠街","SECT":" ","MAREA":" ","LANE":" ","ALLEY":" ","HOUSE_NO":"５８號","E_COORD97":174696.23000000001,"N_COORD97":2571039.8100000001,"ADDRESS":"大忠街５８號","OBJECTID":603657},"geometry":{"x":174696.22999999952,"y":2571039.8100000005}},{"attributes":{"ID":603685,"DIS_CODE":0,"TOWNNAME":"下營區","LI":"後街里","LIN":"22鄰","STREET":"大忠街","SECT":" ","MAREA":" ","LANE":" ","ALLEY":" ","HOUSE_NO":"６０號","E_COORD97":174690.25,"N_COORD97":2571039.3999999999,"ADDRESS":"大忠街６０號","OBJECTID":603658},"geometry":{"x":174690.25,"y":2571039.4000000004}},{"attributes":{"ID":603686,"DIS_CODE":0,"TOWNNAME":"下營區","LI":"後街里","LIN":"22鄰","STREET":"大忠街","SECT":" ","MAREA":" ","LANE":" ","ALLEY":" ","HOUSE_NO":"９８號","E_COORD97":174603.82000000001,"N_COORD97":2571032.6299999999,"ADDRESS":"大忠街９８號","OBJECTID":603659},"geometry":{"x":174603.8200000003,"y":2571032.629999999}},{"attributes":{"ID":603687,"DIS_CODE":0,"TOWNNAME":"中西區","LI":"開山里","LIN":"22鄰","STREET":"開山路","SECT":" ","MAREA":" ","LANE":" ","ALLEY":" ","HOUSE_NO":"２８９號","E_COORD97":169090.41,"N_COORD97":2542896.6400000001,"ADDRESS":"開山路２８９號","OBJECTID":603660},"geometry":{"x":169090.40999999922,"y":2542896.6400000006}},{"attributes":{"ID":603688,"DIS_CODE":0,"TOWNNAME":"安南區","LI":"海東里","LIN":"22鄰","STREET":"大安街","SECT":" ","MAREA":" ","LANE":" ","ALLEY":" ","HOUSE_NO":"７３１號","E_COORD97":166978.32999999999,"N_COORD97":2549013.1200000001,"ADDRESS":"大安街７３１號","OBJECTID":603661},"geometry":{"x":166978.33000000007,"y":2549013.1200000029}},{"attributes":{"ID":603689,"DIS_CODE":0,"TOWNNAME":"安南區","LI":"海東里","LIN":"22鄰","STREET":"大安街","SECT":" ","MAREA":" ","LANE":" ","ALLEY":" ","HOUSE_NO":"７３３號","E_COORD97":166974.64000000001,"N_COORD97":2549016.3999999999,"ADDRESS":"大安街７３３號","OBJECTID":603662},"geometry":{"x":166974.64000000153,"y":2549016.4000000022}},{"attributes":{"ID":603690,"DIS_CODE":0,"TOWNNAME":"安南區","LI":"海東里","LIN":"22鄰","STREET":"大安街","SECT":" ","MAREA":" ","LANE":" ","ALLEY":" ","HOUSE_NO":"７３５號","E_COORD97":166970.67999999999,"N_COORD97":2549019.27,"ADDRESS":"大安街７３５號","OBJECTID":603663},"geometry":{"x":166970.6799999997,"y":2549019.2700000033}},{"attributes":{"ID":603691,"DIS_CODE":0,"TOWNNAME":"安南區","LI":"海東里","LIN":"22鄰","STREET":"大安街","SECT":" ","MAREA":" ","LANE":" ","ALLEY":" ","HOUSE_NO":"７３９號","E_COORD97":166963.48999999999,"N_COORD97":2549025.9399999999,"ADDRESS":"大安街７３９號","OBJECTID":603664},"geometry":{"x":166963.49000000022,"y":2549025.9400000013}},{"attributes":{"ID":603692,"DIS_CODE":0,"TOWNNAME":"安南區","LI":"海東里","LIN":"22鄰","STREET":"同安路","SECT":" ","MAREA":" ","LANE":" ","ALLEY":" ","HOUSE_NO":"１０９號","E_COORD97":166955.22,"N_COORD97":2548976.1099999999,"ADDRESS":"同安路１０９號","OBJECTID":603665},"geometry":{"x":166955.21999999974,"y":2548976.1100000031}},{"attributes":{"ID":603693,"DIS_CODE":0,"TOWNNAME":"安南區","LI":"海東里","LIN":"22鄰","STREET":"同安路","SECT":" ","MAREA":" ","LANE":" ","ALLEY":" ","HOUSE_NO":"１１１號","E_COORD97":166959.17000000001,"N_COORD97":2548978.52,"ADDRESS":"同安路１１１號","OBJECTID":603666},"geometry":{"x":166959.16999999993,"y":2548978.5200000014}},{"attributes":{"ID":603694,"DIS_CODE":0,"TOWNNAME":"安南區","LI":"海東里","LIN":"22鄰","STREET":"同安路","SECT":" ","MAREA":" ","LANE":" ","ALLEY":" ","HOUSE_NO":"１１３號","E_COORD97":166962.95999999999,"N_COORD97":2548981.02,"ADDRESS":"同安路１１３號","OBJECTID":603667},"geometry":{"x":166962.96000000089,"y":2548981.0200000014}},{"attributes":{"ID":603695,"DIS_CODE":0,"TOWNNAME":"新市區","LI":"永就里","LIN":"22鄰","STREET":"永華三街","SECT":" ","MAREA":" ","LANE":" ","ALLEY":" ","HOUSE_NO":"３０號","E_COORD97":177521.48000000001,"N_COORD97":2551032.5,"ADDRESS":"永華三街３０號","OBJECTID":603668},"geometry":{"x":177521.48000000045,"y":2551032.5000000019}},{"attributes":{"ID":603696,"DIS_CODE":0,"TOWNNAME":"新市區","LI":"永就里","LIN":"22鄰","STREET":"永華三街","SECT":" ","MAREA":" ","LANE":" ","ALLEY":" ","HOUSE_NO":"２９號","E_COORD97":177522.84,"N_COORD97":2551025,"ADDRESS":"永華三街２９號","OBJECTID":603669},"geometry":{"x":177522.84000000078,"y":2551025}},{"attributes":{"ID":603697,"DIS_CODE":0,"TOWNNAME":"新市區","LI":"港墘里","LIN":"22鄰","STREET":"華美街","SECT":" ","MAREA":" ","LANE":" ","ALLEY":" ","HOUSE_NO":"２３號","E_COORD97":178127.59,"N_COORD97":2552862.7999999998,"ADDRESS":"華美街２３號","OBJECTID":603670},"geometry":{"x":178127.58999999892,"y":2552862.8000000026}},{"attributes":{"ID":603698,"DIS_CODE":0,"TOWNNAME":"新市區","LI":"港墘里","LIN":"22鄰","STREET":"華美街","SECT":" ","MAREA":" ","LANE":" ","ALLEY":" ","HOUSE_NO":"２１號","E_COORD97":178126.54000000001,"N_COORD97":2552858.7999999998,"ADDRESS":"華美街２１號","OBJECTID":603671},"geometry":{"x":178126.5400000019,"y":2552858.8000000026}},{"attributes":{"ID":603699,"DIS_CODE":0,"TOWNNAME":"新市區","LI":"港墘里","LIN":"22鄰","STREET":"華美街","SECT":" ","MAREA":" ","LANE":" ","ALLEY":" ","HOUSE_NO":"１４號","E_COORD97":178134.39999999999,"N_COORD97":2552836.0499999998,"ADDRESS":"華美街１４號","OBJECTID":603672},"geometry":{"x":178134.40000000037,"y":2552836.0499999989}},{"attributes":{"ID":603700,"DIS_CODE":0,"TOWNNAME":"新市區","LI":"港墘里","LIN":"22鄰","STREET":"華美街","SECT":" ","MAREA":" ","LANE":" ","ALLEY":" ","HOUSE_NO":"２８號","E_COORD97":178143.26000000001,"N_COORD97":2552865.5499999998,"ADDRESS":"華美街２８號","OBJECTID":603673},"geometry":{"x":178143.25999999978,"y":2552865.5500000007}},{"attributes":{"ID":603701,"DIS_CODE":0,"TOWNNAME":"新市區","LI":"港墘里","LIN":"22鄰","STREET":"華美街","SECT":" ","MAREA":" ","LANE":" ","ALLEY":" ","HOUSE_NO":"６之５號","E_COORD97":178130.59,"N_COORD97":2552794.2999999998,"ADDRESS":"華美街６之５號","OBJECTID":603674},"geometry":{"x":178130.58999999985,"y":2552794.3000000026}},{"attributes":{"ID":603702,"DIS_CODE":0,"TOWNNAME":"新市區","LI":"港墘里","LIN":"22鄰","STREET":"華美街","SECT":" ","MAREA":" ","LANE":" ","ALLEY":" ","HOUSE_NO":"１０之３號","E_COORD97":178132.95000000001,"N_COORD97":2552817.7999999998,"ADDRESS":"華美街１０之３號","OBJECTID":603675},"geometry":{"x":178132.95000000112,"y":2552817.8000000045}},{"attributes":{"ID":603703,"DIS_CODE":0,"TOWNNAME":"新市區","LI":"港墘里","LIN":"22鄰","STREET":"華美街","SECT":" ","MAREA":" ","LANE":" ","ALLEY":" ","HOUSE_NO":"２７號","E_COORD97":178113.01000000001,"N_COORD97":2552871.2999999998,"ADDRESS":"華美街２７號","OBJECTID":603676},"geometry":{"x":178113.01000000164,"y":2552871.3000000007}},{"attributes":{"ID":603704,"DIS_CODE":0,"TOWNNAME":"新市區","LI":"港墘里","LIN":"22鄰","STREET":"華美街","SECT":" ","MAREA":" ","LANE":" ","ALLEY":" ","HOUSE_NO":"２５號","E_COORD97":178128.76000000001,"N_COORD97":2552867.0499999998,"ADDRESS":"華美街２５號","OBJECTID":603677},"geometry":{"x":178128.76000000071,"y":2552867.0500000045}},{"attributes":{"ID":603705,"DIS_CODE":0,"TOWNNAME":"新市區","LI":"港墘里","LIN":"22鄰","STREET":"華美街","SECT":" ","MAREA":" ","LANE":" ","ALLEY":" ","HOUSE_NO":"２０號","E_COORD97":178138.45000000001,"N_COORD97":2552851.0499999998,"ADDRESS":"華美街２０號","OBJECTID":603678},"geometry":{"x":178138.45000000019,"y":2552851.0500000026}},{"attributes":{"ID":603706,"DIS_CODE":0,"TOWNNAME":"新市區","LI":"永就里","LIN":"22鄰","STREET":"永新路","SECT":" ","MAREA":" ","LANE":" ","ALLEY":" ","HOUSE_NO":"５２號","E_COORD97":177478.95999999999,"N_COORD97":2550836.5,"ADDRESS":"永新路５２號","OBJECTID":603679},"geometry":{"x":177478.95999999996,"y":2550836.5000000019}},{"attributes":{"ID":603707,"DIS_CODE":0,"TOWNNAME":"新市區","LI":"港墘里","LIN":"22鄰","STREET":"華美街","SECT":" ","MAREA":" ","LANE":" ","ALLEY":" ","HOUSE_NO":"１０號","E_COORD97":178126.84,"N_COORD97":2552803.7999999998,"ADDRESS":"華美街１０號","OBJECTID":603680},"geometry":{"x":178126.84000000078,"y":2552803.8000000007}},{"attributes":{"ID":603708,"DIS_CODE":0,"TOWNNAME":"新市區","LI":"港墘里","LIN":"22鄰","STREET":"華美街","SECT":" ","MAREA":" ","LANE":" ","ALLEY":" ","HOUSE_NO":"１０之５號","E_COORD97":178134.29000000001,"N_COORD97":2552822.7999999998,"ADDRESS":"華美街１０之５號","OBJECTID":603681},"geometry":{"x":178134.29000000004,"y":2552822.8000000007}},{"attributes":{"ID":603709,"DIS_CODE":0,"TOWNNAME":"新市區","LI":"永就里","LIN":"22鄰","STREET":"永新路","SECT":" ","MAREA":" ","LANE":" ","ALLEY":" ","HOUSE_NO":"７８號","E_COORD97":177342.59,"N_COORD97":2550786.25,"ADDRESS":"永新路７８號","OBJECTID":603682},"geometry":{"x":177342.58999999985,"y":2550786.2500000037}},{"attributes":{"ID":603710,"DIS_CODE":0,"TOWNNAME":"新市區","LI":"港墘里","LIN":"22鄰","STREET":"華美街","SECT":" ","MAREA":" ","LANE":" ","ALLEY":" ","HOUSE_NO":"１９號","E_COORD97":178125.51000000001,"N_COORD97":2552854.7999999998,"ADDRESS":"華美街１９號","OBJECTID":603683},"geometry":{"x":178125.51000000071,"y":2552854.7999999989}},{"attributes":{"ID":603711,"DIS_CODE":0,"TOWNNAME":"新市區","LI":"港墘里","LIN":"22鄰","STREET":"華美街","SECT":" ","MAREA":" ","LANE":" ","ALLEY":" ","HOUSE_NO":"２６號","E_COORD97":178140.89999999999,"N_COORD97":2552860.7999999998,"ADDRESS":"華美街２６號","OBJECTID":603684},"geometry":{"x":178140.90000000037,"y":2552860.8000000007}},{"attributes":{"ID":603712,"DIS_CODE":0,"TOWNNAME":"新市區","LI":"港墘里","LIN":"22鄰","STREET":"華美街","SECT":" ","MAREA":" ","LANE":" ","ALLEY":" ","HOUSE_NO":"１５號","E_COORD97":178119.81,"N_COORD97":2552847.5499999998,"ADDRESS":"華美街１５號","OBJECTID":603685},"geometry":{"x":178119.81000000052,"y":2552847.5500000026}},{"attributes":{"ID":603713,"DIS_CODE":0,"TOWNNAME":"新市區","LI":"永就里","LIN":"22鄰","STREET":"永新路","SECT":" ","MAREA":" ","LANE":" ","ALLEY":" ","HOUSE_NO":"５６號","E_COORD97":177445.79000000001,"N_COORD97":2550818,"ADDRESS":"永新路５６號","OBJECTID":603686},"geometry":{"x":177445.79000000097,"y":2550818}},{"attributes":{"ID":603714,"DIS_CODE":0,"TOWNNAME":"新市區","LI":"永就里","LIN":"22鄰","STREET":"永華三街","SECT":" ","MAREA":" ","LANE":" ","ALLEY":" ","HOUSE_NO":"３４號","E_COORD97":177498.59,"N_COORD97":2551015.25,"ADDRESS":"永華三街３４號","OBJECTID":603687},"geometry":{"x":177498.58999999985,"y":2551015.25}},{"attributes":{"ID":603715,"DIS_CODE":0,"TOWNNAME":"新市區","LI":"港墘里","LIN":"22鄰","STREET":"華美街","SECT":" ","MAREA":" ","LANE":" ","ALLEY":" ","HOUSE_NO":"１６號","E_COORD97":178135.48999999999,"N_COORD97":2552841.0499999998,"ADDRESS":"華美街１６號","OBJECTID":603688},"geometry":{"x":178135.49000000209,"y":2552841.0500000026}},{"attributes":{"ID":603716,"DIS_CODE":0,"TOWNNAME":"安南區","LI":"海東里","LIN":"22鄰","STREET":"海佃路","SECT":"二段","MAREA":" ","LANE":" ","ALLEY":" ","HOUSE_NO":"４７６號","E_COORD97":166785.29000000001,"N_COORD97":2548921.4100000001,"ADDRESS":"海佃路二段４７６號","OBJECTID":603689},"geometry":{"x":166785.29000000004,"y":2548921.410000002}},{"attributes":{"ID":603717,"DIS_CODE":0,"TOWNNAME":"安南區","LI":"海東里","LIN":"22鄰","STREET":"海佃路","SECT":"二段","MAREA":" ","LANE":" ","ALLEY":" ","HOUSE_NO":"４７８號","E_COORD97":166784.28,"N_COORD97":2548925.5499999998,"ADDRESS":"海佃路二段４７８號","OBJECTID":603690},"geometry":{"x":166784.28000000212,"y":2548925.5500000007}},{"attributes":{"ID":603718,"DIS_CODE":0,"TOWNNAME":"安南區","LI":"海東里","LIN":"22鄰","STREET":"海佃路","SECT":"二段","MAREA":" ","LANE":" ","ALLEY":" ","HOUSE_NO":"４８８號","E_COORD97":166782.48000000001,"N_COORD97":2548942.6600000001,"ADDRESS":"海佃路二段４８８號","OBJECTID":603691},"geometry":{"x":166782.48000000045,"y":2548942.6600000039}},{"attributes":{"ID":603719,"DIS_CODE":0,"TOWNNAME":"安南區","LI":"海東里","LIN":"22鄰","STREET":"海佃路","SECT":"二段","MAREA":" ","LANE":" ","ALLEY":" ","HOUSE_NO":"４９０號","E_COORD97":166780.73999999999,"N_COORD97":2548947.8300000001,"ADDRESS":"海佃路二段４９０號","OBJECTID":603692},"geometry":{"x":166780.74000000022,"y":2548947.8300000001}},{"attributes":{"ID":603720,"DIS_CODE":0,"TOWNNAME":"安南區","LI":"海東里","LIN":"22鄰","STREET":"同安路","SECT":" ","MAREA":" ","LANE":" ","ALLEY":" ","HOUSE_NO":"１３號","E_COORD97":166828.35999999999,"N_COORD97":2548873.6600000001,"ADDRESS":"同安路１３號","OBJECTID":603693},"geometry":{"x":166828.36000000127,"y":2548873.6600000001}},{"attributes":{"ID":603721,"DIS_CODE":0,"TOWNNAME":"安南區","LI":"海東里","LIN":"22鄰","STREET":"同安路","SECT":" ","MAREA":" ","LANE":" ","ALLEY":" ","HOUSE_NO":"７號","E_COORD97":166824.01000000001,"N_COORD97":2548870.8799999999,"ADDRESS":"同安路７號","OBJECTID":603694},"geometry":{"x":166824.00999999978,"y":2548870.879999999}},{"attributes":{"ID":603722,"DIS_CODE":0,"TOWNNAME":"安南區","LI":"海東里","LIN":"22鄰","STREET":"同安路","SECT":" ","MAREA":" ","LANE":" ","ALLEY":" ","HOUSE_NO":"２１號","E_COORD97":166853.51999999999,"N_COORD97":2548892.0299999998,"ADDRESS":"同安路２１號","OBJECTID":603695},"geometry":{"x":166853.52000000048,"y":2548892.0300000031}},{"attributes":{"ID":603723,"DIS_CODE":0,"TOWNNAME":"安南區","LI":"海東里","LIN":"22鄰","STREET":"同安路","SECT":" ","MAREA":" ","LANE":" ","ALLEY":" ","HOUSE_NO":"２３號","E_COORD97":166857.60000000001,"N_COORD97":2548894.3300000001,"ADDRESS":"同安路２３號","OBJECTID":603696},"geometry":{"x":166857.59999999963,"y":2548894.3300000038}},{"attributes":{"ID":603724,"DIS_CODE":0,"TOWNNAME":"安南區","LI":"海東里","LIN":"22鄰","STREET":"同安路","SECT":" ","MAREA":" ","LANE":" ","ALLEY":" ","HOUSE_NO":"２５號","E_COORD97":166860.82000000001,"N_COORD97":2548897.29,"ADDRESS":"同安路２５號","OBJECTID":603697},"geometry":{"x":166860.82000000123,"y":2548897.290000001}},{"attributes":{"ID":603725,"DIS_CODE":0,"TOWNNAME":"安南區","LI":"海東里","LIN":"22鄰","STREET":"同安路","SECT":" ","MAREA":" ","LANE":" ","ALLEY":" ","HOUSE_NO":"２７號","E_COORD97":166864.13,"N_COORD97":2548900.6099999999,"ADDRESS":"同安路２７號","OBJECTID":603698},"geometry":{"x":166864.12999999989,"y":2548900.6099999994}},{"attributes":{"ID":603726,"DIS_CODE":0,"TOWNNAME":"安南區","LI":"海東里","LIN":"22鄰","STREET":"同安路","SECT":" ","MAREA":" ","LANE":" ","ALLEY":" ","HOUSE_NO":"２９號","E_COORD97":166867.09,"N_COORD97":2548904.3399999999,"ADDRESS":"同安路２９號","OBJECTID":603699},"geometry":{"x":166867.09000000078,"y":2548904.3400000017}},{"attributes":{"ID":603727,"DIS_CODE":0,"TOWNNAME":"安南區","LI":"海東里","LIN":"22鄰","STREET":"海佃路","SECT":"二段","MAREA":" ","LANE":" ","ALLEY":" ","HOUSE_NO":"４６６號","E_COORD97":166788.01999999999,"N_COORD97":2548904.02,"ADDRESS":"海佃路二段４６６號","OBJECTID":603700},"geometry":{"x":166788.01999999955,"y":2548904.0200000014}},{"attributes":{"ID":603728,"DIS_CODE":0,"TOWNNAME":"安南區","LI":"海東里","LIN":"22鄰","STREET":"海佃路","SECT":"二段","MAREA":" ","LANE":" ","ALLEY":" ","HOUSE_NO":"４６８號","E_COORD97":166787.76000000001,"N_COORD97":2548908.4199999999,"ADDRESS":"海佃路二段４６８號","OBJECTID":603701},"geometry":{"x":166787.76000000071,"y":2548908.4200000018}},{"attributes":{"ID":603729,"DIS_CODE":0,"TOWNNAME":"安南區","LI":"海東里","LIN":"22鄰","STREET":"海佃路","SECT":"二段","MAREA":" ","LANE":" ","ALLEY":" ","HOUSE_NO":"４７０號","E_COORD97":166786.75,"N_COORD97":2548912.8900000001,"ADDRESS":"海佃路二段４７０號","OBJECTID":603702},"geometry":{"x":166786.75000000093,"y":2548912.8900000006}},{"attributes":{"ID":603730,"DIS_CODE":0,"TOWNNAME":"安南區","LI":"海東里","LIN":"22鄰","STREET":"海佃路","SECT":"二段","MAREA":" ","LANE":" ","ALLEY":" ","HOUSE_NO":"４８０號","E_COORD97":166784.29000000001,"N_COORD97":2548930.0499999998,"ADDRESS":"海佃路二段４８０號","OBJECTID":603703},"geometry":{"x":166784.29000000097,"y":2548930.0500000007}},{"attributes":{"ID":603731,"DIS_CODE":0,"TOWNNAME":"安南區","LI":"海東里","LIN":"22鄰","STREET":"海佃路","SECT":"二段","MAREA":" ","LANE":" ","ALLEY":" ","HOUSE_NO":"４８２號","E_COORD97":166783.75,"N_COORD97":2548934.0499999998,"ADDRESS":"海佃路二段４８２號","OBJECTID":603704},"geometry":{"x":166783.75,"y":2548934.0500000045}},{"attributes":{"ID":603732,"DIS_CODE":0,"TOWNNAME":"安南區","LI":"海東里","LIN":"22鄰","STREET":"海佃路","SECT":"二段","MAREA":" ","LANE":" ","ALLEY":" ","HOUSE_NO":"４８６號","E_COORD97":166783.22,"N_COORD97":2548938.1899999999,"ADDRESS":"海佃路二段４８６號","OBJECTID":603705},"geometry":{"x":166783.22000000067,"y":2548938.1899999976}},{"attributes":{"ID":603733,"DIS_CODE":0,"TOWNNAME":"安南區","LI":"溪東里","LIN":"22鄰","STREET":"安富街","SECT":" ","MAREA":" ","LANE":" ","ALLEY":" ","HOUSE_NO":"１３５號","E_COORD97":167892.47,"N_COORD97":2547502.6400000001,"ADDRESS":"安富街１３５號","OBJECTID":603706},"geometry":{"x":167892.46999999974,"y":2547502.6400000043}},{"attributes":{"ID":603734,"DIS_CODE":0,"TOWNNAME":"安南區","LI":"溪東里","LIN":"22鄰","STREET":"安富街","SECT":" ","MAREA":" ","LANE":" ","ALLEY":" ","HOUSE_NO":"１３７號","E_COORD97":167888.69,"N_COORD97":2547499.6099999999,"ADDRESS":"安富街１３７號","OBJECTID":603707},"geometry":{"x":167888.69000000227,"y":2547499.6100000013}},{"attributes":{"ID":603735,"DIS_CODE":0,"TOWNNAME":"安南區","LI":"溪東里","LIN":"22鄰","STREET":"安富街","SECT":" ","MAREA":" ","LANE":" ","ALLEY":" ","HOUSE_NO":"１３９號","E_COORD97":167883.66,"N_COORD97":2547502.8399999999,"ADDRESS":"安富街１３９號","OBJECTID":603708},"geometry":{"x":167883.66000000108,"y":2547502.8399999999}},{"attributes":{"ID":603736,"DIS_CODE":0,"TOWNNAME":"安南區","LI":"溪東里","LIN":"22鄰","STREET":"安富街","SECT":" ","MAREA":" ","LANE":" ","ALLEY":" ","HOUSE_NO":"１４１號","E_COORD97":167879.95999999999,"N_COORD97":2547498,"ADDRESS":"安富街１４１號","OBJECTID":603709},"geometry":{"x":167879.96000000089,"y":2547498}},{"attributes":{"ID":603737,"DIS_CODE":0,"TOWNNAME":"安南區","LI":"溪東里","LIN":"22鄰","STREET":"安富街","SECT":" ","MAREA":" ","LANE":" ","ALLEY":" ","HOUSE_NO":"１４３號","E_COORD97":167874.73999999999,"N_COORD97":2547501.5099999998,"ADDRESS":"安富街１４３號","OBJECTID":603710},"geometry":{"x":167874.74000000115,"y":2547501.5099999998}},{"attributes":{"ID":603738,"DIS_CODE":0,"TOWNNAME":"安南區","LI":"溪東里","LIN":"22鄰","STREET":"安富街","SECT":" ","MAREA":" ","LANE":" ","ALLEY":" ","HOUSE_NO":"１４５號","E_COORD97":167871.14000000001,"N_COORD97":2547495.73,"ADDRESS":"安富街１４５號","OBJECTID":603711},"geometry":{"x":167871.13999999873,"y":2547495.7300000023}},{"attributes":{"ID":603739,"DIS_CODE":0,"TOWNNAME":"安南區","LI":"溪東里","LIN":"22鄰","STREET":"安富街","SECT":" ","MAREA":" ","LANE":" ","ALLEY":" ","HOUSE_NO":"１４５號之１","E_COORD97":167871.14999999999,"N_COORD97":2547487.5699999998,"ADDRESS":"安富街１４５號之１","OBJECTID":603712},"geometry":{"x":167871.15000000037,"y":2547487.5700000003}},{"attributes":{"ID":603740,"DIS_CODE":0,"TOWNNAME":"安南區","LI":"溪東里","LIN":"22鄰","STREET":"安富街","SECT":" ","MAREA":" ","LANE":" ","ALLEY":" ","HOUSE_NO":"１４５號之１０","E_COORD97":167849.44,"N_COORD97":2547481.0299999998,"ADDRESS":"安富街１４５號之１０","OBJECTID":603713},"geometry":{"x":167849.44000000041,"y":2547481.0299999993}},{"attributes":{"ID":603741,"DIS_CODE":0,"TOWNNAME":"安南區","LI":"溪東里","LIN":"22鄰","STREET":"安富街","SECT":" ","MAREA":" ","LANE":" ","ALLEY":" ","HOUSE_NO":"１４５號之１１","E_COORD97":167852.85999999999,"N_COORD97":2547465.46,"ADDRESS":"安富街１４５號之１１","OBJECTID":603714},"geometry":{"x":167852.86000000034,"y":2547465.4600000009}},{"attributes":{"ID":603742,"DIS_CODE":0,"TOWNNAME":"安南區","LI":"溪東里","LIN":"22鄰","STREET":"安富街","SECT":" ","MAREA":" ","LANE":" ","ALLEY":" ","HOUSE_NO":"１４５號之１２","E_COORD97":167843.04999999999,"N_COORD97":2547477.8999999999,"ADDRESS":"安富街１４５號之１２","OBJECTID":603715},"geometry":{"x":167843.04999999981,"y":2547477.9000000022}},{"attributes":{"ID":603743,"DIS_CODE":0,"TOWNNAME":"安南區","LI":"溪東里","LIN":"22鄰","STREET":"安富街","SECT":" ","MAREA":" ","LANE":" ","ALLEY":" ","HOUSE_NO":"１４５號之１３","E_COORD97":167845.38,"N_COORD97":2547465.46,"ADDRESS":"安富街１４５號之１３","OBJECTID":603716},"geometry":{"x":167845.37999999989,"y":2547465.4600000009}},{"attributes":{"ID":603744,"DIS_CODE":0,"TOWNNAME":"安南區","LI":"溪東里","LIN":"22鄰","STREET":"安富街","SECT":" ","MAREA":" ","LANE":" ","ALLEY":" ","HOUSE_NO":"１４５號之１５","E_COORD97":167838.42999999999,"N_COORD97":2547463.1499999999,"ADDRESS":"安富街１４５號之１５","OBJECTID":603717},"geometry":{"x":167838.4299999997,"y":2547463.1500000022}},{"attributes":{"ID":603745,"DIS_CODE":0,"TOWNNAME":"安南區","LI":"溪東里","LIN":"22鄰","STREET":"安富街","SECT":" ","MAREA":" ","LANE":" ","ALLEY":" ","HOUSE_NO":"１４５號之１６","E_COORD97":167828.48000000001,"N_COORD97":2547475.8599999999,"ADDRESS":"安富街１４５號之１６","OBJECTID":603718},"geometry":{"x":167828.48000000045,"y":2547475.8600000031}},{"attributes":{"ID":603746,"DIS_CODE":0,"TOWNNAME":"安南區","LI":"溪東里","LIN":"22鄰","STREET":"安富街","SECT":" ","MAREA":" ","LANE":" ","ALLEY":" ","HOUSE_NO":"１４５號之１７","E_COORD97":167831.07999999999,"N_COORD97":2547463.4300000002,"ADDRESS":"安富街１４５號之１７","OBJECTID":603719},"geometry":{"x":167831.08000000007,"y":2547463.4300000016}},{"attributes":{"ID":603747,"DIS_CODE":0,"TOWNNAME":"安南區","LI":"溪東里","LIN":"22鄰","STREET":"安富街","SECT":" ","MAREA":" ","LANE":" ","ALLEY":" ","HOUSE_NO":"１４５號之１８","E_COORD97":167821.67999999999,"N_COORD97":2547474.9100000001,"ADDRESS":"安富街１４５號之１８","OBJECTID":603720},"geometry":{"x":167821.6799999997,"y":2547474.9100000001}},{"attributes":{"ID":603748,"DIS_CODE":0,"TOWNNAME":"安南區","LI":"溪東里","LIN":"22鄰","STREET":"安富街","SECT":" ","MAREA":" ","LANE":" ","ALLEY":" ","HOUSE_NO":"１４５號之１９","E_COORD97":167824.34,"N_COORD97":2547462.04,"ADDRESS":"安富街１４５號之１９","OBJECTID":603721},"geometry":{"x":167824.34000000171,"y":2547462.040000001}},{"attributes":{"ID":603749,"DIS_CODE":0,"TOWNNAME":"安南區","LI":"溪東里","LIN":"22鄰","STREET":"安富街","SECT":" ","MAREA":" ","LANE":" ","ALLEY":" ","HOUSE_NO":"１４５號之２","E_COORD97":167871.51000000001,"N_COORD97":2547483.04,"ADDRESS":"安富街１４５號之２","OBJECTID":603722},"geometry":{"x":167871.50999999978,"y":2547483.0399999991}},{"attributes":{"ID":603750,"DIS_CODE":0,"TOWNNAME":"安南區","LI":"溪東里","LIN":"22鄰","STREET":"安富街","SECT":" ","MAREA":" ","LANE":" ","ALLEY":" ","HOUSE_NO":"１４５號之３","E_COORD97":167872.70000000001,"N_COORD97":2547479.7000000002,"ADDRESS":"安富街１４５號之３","OBJECTID":603723},"geometry":{"x":167872.70000000019,"y":2547479.6999999993}},{"attributes":{"ID":603751,"DIS_CODE":0,"TOWNNAME":"安南區","LI":"溪東里","LIN":"22鄰","STREET":"安富街","SECT":" ","MAREA":" ","LANE":" ","ALLEY":" ","HOUSE_NO":"１４５號之５","E_COORD97":167874.73000000001,"N_COORD97":2547475.1699999999,"ADDRESS":"安富街１４５號之５","OBJECTID":603724},"geometry":{"x":167874.73000000045,"y":2547475.1700000018}},{"attributes":{"ID":603752,"DIS_CODE":0,"TOWNNAME":"安南區","LI":"溪東里","LIN":"22鄰","STREET":"安富街","SECT":" ","MAREA":" ","LANE":" ","ALLEY":" ","HOUSE_NO":"１４５號之６","E_COORD97":167875.20999999999,"N_COORD97":2547470.8799999999,"ADDRESS":"安富街１４５號之６","OBJECTID":603725},"geometry":{"x":167875.21000000089,"y":2547470.879999999}},{"attributes":{"ID":603753,"DIS_CODE":0,"TOWNNAME":"安南區","LI":"溪東里","LIN":"22鄰","STREET":"安富街","SECT":" ","MAREA":" ","LANE":" ","ALLEY":" ","HOUSE_NO":"１４５號之７","E_COORD97":167875.32999999999,"N_COORD97":2547466.9100000001,"ADDRESS":"安富街１４５號之７","OBJECTID":603726},"geometry":{"x":167875.33000000007,"y":2547466.910000002}},{"attributes":{"ID":603754,"DIS_CODE":0,"TOWNNAME":"安南區","LI":"溪東里","LIN":"22鄰","STREET":"安富街","SECT":" ","MAREA":" ","LANE":" ","ALLEY":" ","HOUSE_NO":"１４５號之８","E_COORD97":167856.92999999999,"N_COORD97":2547482.25,"ADDRESS":"安富街１４５號之８","OBJECTID":603727},"geometry":{"x":167856.9299999997,"y":2547482.2500000019}},{"attributes":{"ID":603755,"DIS_CODE":0,"TOWNNAME":"安南區","LI":"溪東里","LIN":"22鄰","STREET":"安富街","SECT":" ","MAREA":" ","LANE":" ","ALLEY":" ","HOUSE_NO":"１４５號之９","E_COORD97":167859.79999999999,"N_COORD97":2547468.1800000002,"ADDRESS":"安富街１４５號之９","OBJECTID":603728},"geometry":{"x":167859.79999999981,"y":2547468.1800000016}},{"attributes":{"ID":603756,"DIS_CODE":0,"TOWNNAME":"安南區","LI":"溪東里","LIN":"22鄰","STREET":"安富街","SECT":" ","MAREA":" ","LANE":" ","ALLEY":" ","HOUSE_NO":"１４７號","E_COORD97":167856.82000000001,"N_COORD97":2547496.3900000001,"ADDRESS":"安富街１４７號","OBJECTID":603729},"geometry":{"x":167856.8200000003,"y":2547496.3900000006}},{"attributes":{"ID":603757,"DIS_CODE":0,"TOWNNAME":"安南區","LI":"溪東里","LIN":"22鄰","STREET":"安富街","SECT":" ","MAREA":" ","LANE":" ","ALLEY":" ","HOUSE_NO":"１４９號","E_COORD97":167853.01000000001,"N_COORD97":2547493.5299999998,"ADDRESS":"安富街１４９號","OBJECTID":603730},"geometry":{"x":167853.00999999978,"y":2547493.5299999993}},{"attributes":{"ID":603758,"DIS_CODE":0,"TOWNNAME":"安南區","LI":"溪東里","LIN":"22鄰","STREET":"安富街","SECT":" ","MAREA":" ","LANE":" ","ALLEY":" ","HOUSE_NO":"１５１號","E_COORD97":167847.56,"N_COORD97":2547497.2000000002,"ADDRESS":"安富街１５１號","OBJECTID":603731},"geometry":{"x":167847.55999999959,"y":2547497.200000003}},{"attributes":{"ID":603759,"DIS_CODE":0,"TOWNNAME":"安南區","LI":"溪東里","LIN":"22鄰","STREET":"安富街","SECT":" ","MAREA":" ","LANE":" ","ALLEY":" ","HOUSE_NO":"１５３號","E_COORD97":167844.70999999999,"N_COORD97":2547491.3500000001,"ADDRESS":"安富街１５３號","OBJECTID":603732},"geometry":{"x":167844.71000000089,"y":2547491.3500000015}},{"attributes":{"ID":603760,"DIS_CODE":0,"TOWNNAME":"安南區","LI":"溪東里","LIN":"22鄰","STREET":"安富街","SECT":" ","MAREA":" ","LANE":" ","ALLEY":" ","HOUSE_NO":"１５５號","E_COORD97":167839.53,"N_COORD97":2547494.6200000001,"ADDRESS":"安富街１５５號","OBJECTID":603733},"geometry":{"x":167839.53000000119,"y":2547494.620000001}},{"attributes":{"ID":603761,"DIS_CODE":0,"TOWNNAME":"安南區","LI":"溪東里","LIN":"22鄰","STREET":"安富街","SECT":" ","MAREA":" ","LANE":" ","ALLEY":" ","HOUSE_NO":"１５７號","E_COORD97":167836.26999999999,"N_COORD97":2547488.6400000001,"ADDRESS":"安富街１５７號","OBJECTID":603734},"geometry":{"x":167836.26999999862,"y":2547488.6399999987}},{"attributes":{"ID":603762,"DIS_CODE":0,"TOWNNAME":"安南區","LI":"溪東里","LIN":"22鄰","STREET":"安富街","SECT":" ","MAREA":" ","LANE":" ","ALLEY":" ","HOUSE_NO":"１５９號","E_COORD97":167830.92999999999,"N_COORD97":2547493.9399999999,"ADDRESS":"安富街１５９號","OBJECTID":603735},"geometry":{"x":167830.93000000063,"y":2547493.9400000013}},{"attributes":{"ID":603763,"DIS_CODE":0,"TOWNNAME":"安南區","LI":"溪東里","LIN":"22鄰","STREET":"安富街","SECT":" ","MAREA":" ","LANE":" ","ALLEY":" ","HOUSE_NO":"１６１號","E_COORD97":167827.79999999999,"N_COORD97":2547488.23,"ADDRESS":"安富街１６１號","OBJECTID":603736},"geometry":{"x":167827.79999999981,"y":2547488.2300000042}},{"attributes":{"ID":603764,"DIS_CODE":0,"TOWNNAME":"安南區","LI":"溪東里","LIN":"22鄰","STREET":"安富街","SECT":" ","MAREA":" ","LANE":" ","ALLEY":" ","HOUSE_NO":"１６３號","E_COORD97":167822.48999999999,"N_COORD97":2547492.8500000001,"ADDRESS":"安富街１６３號","OBJECTID":603737},"geometry":{"x":167822.49000000115,"y":2547492.8499999996}},{"attributes":{"ID":603765,"DIS_CODE":0,"TOWNNAME":"佳里區","LI":"建南里","LIN":"22鄰","STREET":"仁愛路","SECT":" ","MAREA":" ","LANE":" ","ALLEY":" ","HOUSE_NO":"３１９號","E_COORD97":165812.42999999999,"N_COORD97":2561576.23,"ADDRESS":"仁愛路３１９號","OBJECTID":603738},"geometry":{"x":165812.4299999997,"y":2561576.2300000023}},{"attributes":{"ID":603766,"DIS_CODE":0,"TOWNNAME":"佳里區","LI":"建南里","LIN":"22鄰","STREET":"仁愛路","SECT":" ","MAREA":" ","LANE":" ","ALLEY":" ","HOUSE_NO":"３２１號","E_COORD97":165800.48000000001,"N_COORD97":2561581.5299999998,"ADDRESS":"仁愛路３２１號","OBJECTID":603739},"geometry":{"x":165800.48000000138,"y":2561581.5299999993}},{"attributes":{"ID":603767,"DIS_CODE":0,"TOWNNAME":"佳里區","LI":"建南里","LIN":"22鄰","STREET":"仁愛路","SECT":" ","MAREA":" ","LANE":" ","ALLEY":" ","HOUSE_NO":"３４０號","E_COORD97":165820.53,"N_COORD97":2561603.8500000001,"ADDRESS":"仁愛路３４０號","OBJECTID":603740},"geometry":{"x":165820.53000000119,"y":2561603.8500000034}},{"attributes":{"ID":603768,"DIS_CODE":0,"TOWNNAME":"佳里區","LI":"建南里","LIN":"22鄰","STREET":"仁愛路","SECT":" ","MAREA":" ","LANE":" ","ALLEY":" ","HOUSE_NO":"３４２號","E_COORD97":165815.39000000001,"N_COORD97":2561605.8999999999,"ADDRESS":"仁愛路３４２號","OBJECTID":603741},"geometry":{"x":165815.3900000006,"y":2561605.9000000022}},{"attributes":{"ID":603769,"DIS_CODE":0,"TOWNNAME":"佳里區","LI":"建南里","LIN":"22鄰","STREET":"仁愛路","SECT":" ","MAREA":" ","LANE":" ","ALLEY":" ","HOUSE_NO":"３４３號","E_COORD97":165768.39000000001,"N_COORD97":2561590.9199999999,"ADDRESS":"仁愛路３４３號","OBJECTID":603742},"geometry":{"x":165768.38999999966,"y":2561590.9200000018}},{"attributes":{"ID":603770,"DIS_CODE":0,"TOWNNAME":"佳里區","LI":"建南里","LIN":"22鄰","STREET":"仁愛路","SECT":" ","MAREA":" ","LANE":" ","ALLEY":" ","HOUSE_NO":"３４４號","E_COORD97":165811.82000000001,"N_COORD97":2561607.9900000002,"ADDRESS":"仁愛路３４４號","OBJECTID":603743},"geometry":{"x":165811.82000000123,"y":2561607.9900000021}},{"attributes":{"ID":603771,"DIS_CODE":0,"TOWNNAME":"佳里區","LI":"建南里","LIN":"22鄰","STREET":"仁愛路","SECT":" ","MAREA":" ","LANE":" ","ALLEY":" ","HOUSE_NO":"３４６號","E_COORD97":165807.41,"N_COORD97":2561609.7599999998,"ADDRESS":"仁愛路３４６號","OBJECTID":603744},"geometry":{"x":165807.41000000108,"y":2561609.7600000016}},{"attributes":{"ID":603772,"DIS_CODE":0,"TOWNNAME":"佳里區","LI":"建南里","LIN":"22鄰","STREET":"仁愛路","SECT":" ","MAREA":" ","LANE":" ","ALLEY":" ","HOUSE_NO":"３４７號","E_COORD97":165759.22,"N_COORD97":2561596.6499999999,"ADDRESS":"仁愛路３４７號","OBJECTID":603745},"geometry":{"x":165759.22000000067,"y":2561596.6500000022}},{"attributes":{"ID":603773,"DIS_CODE":0,"TOWNNAME":"佳里區","LI":"建南里","LIN":"22鄰","STREET":"仁愛路","SECT":" ","MAREA":" ","LANE":" ","ALLEY":" ","HOUSE_NO":"３４８號","E_COORD97":165803.26000000001,"N_COORD97":2561611.79,"ADDRESS":"仁愛路３４８號","OBJECTID":603746},"geometry":{"x":165803.26000000071,"y":2561611.790000001}},{"attributes":{"ID":603774,"DIS_CODE":0,"TOWNNAME":"佳里區","LI":"建南里","LIN":"22鄰","STREET":"仁愛路","SECT":" ","MAREA":" ","LANE":" ","ALLEY":" ","HOUSE_NO":"３４９號","E_COORD97":165751.57999999999,"N_COORD97":2561598.6899999999,"ADDRESS":"仁愛路３４９號","OBJECTID":603747},"geometry":{"x":165751.58000000101,"y":2561598.6900000013}},{"attributes":{"ID":603775,"DIS_CODE":0,"TOWNNAME":"佳里區","LI":"建南里","LIN":"22鄰","STREET":"仁愛路","SECT":" ","MAREA":" ","LANE":" ","ALLEY":" ","HOUSE_NO":"３５０號之１","E_COORD97":165794.45000000001,"N_COORD97":2561615.3500000001,"ADDRESS":"仁愛路３５０號之１","OBJECTID":603748},"geometry":{"x":165794.45000000019,"y":2561615.3500000015}},{"attributes":{"ID":603776,"DIS_CODE":0,"TOWNNAME":"佳里區","LI":"建南里","LIN":"22鄰","STREET":"仁愛路","SECT":" ","MAREA":" ","LANE":" ","ALLEY":" ","HOUSE_NO":"３５０號","E_COORD97":165798.85999999999,"N_COORD97":2561613.5699999998,"ADDRESS":"仁愛路３５０號","OBJECTID":603749},"geometry":{"x":165798.8599999994,"y":2561613.570000004}},{"attributes":{"ID":603777,"DIS_CODE":0,"TOWNNAME":"佳里區","LI":"建南里","LIN":"22鄰","STREET":"仁愛路","SECT":" ","MAREA":" ","LANE":" ","ALLEY":" ","HOUSE_NO":"３５１號","E_COORD97":165745.20999999999,"N_COORD97":2561601.8700000001,"ADDRESS":"仁愛路３５１號","OBJECTID":603750},"geometry":{"x":165745.20999999903,"y":2561601.8700000048}},{"attributes":{"ID":603778,"DIS_CODE":0,"TOWNNAME":"佳里區","LI":"建南里","LIN":"22鄰","STREET":"仁愛路","SECT":" ","MAREA":" ","LANE":" ","ALLEY":" ","HOUSE_NO":"３５２號","E_COORD97":165790.04999999999,"N_COORD97":2561617.1299999999,"ADDRESS":"仁愛路３５２號","OBJECTID":603751},"geometry":{"x":165790.04999999981,"y":2561617.129999999}},{"attributes":{"ID":603779,"DIS_CODE":0,"TOWNNAME":"佳里區","LI":"建南里","LIN":"22鄰","STREET":"仁愛路","SECT":" ","MAREA":" ","LANE":" ","ALLEY":" ","HOUSE_NO":"３５３號","E_COORD97":165740.51999999999,"N_COORD97":2561604.29,"ADDRESS":"仁愛路３５３號","OBJECTID":603752},"geometry":{"x":165740.51999999955,"y":2561604.290000001}},{"attributes":{"ID":603780,"DIS_CODE":0,"TOWNNAME":"佳里區","LI":"建南里","LIN":"22鄰","STREET":"仁愛路","SECT":" ","MAREA":" ","LANE":" ","ALLEY":" ","HOUSE_NO":"３５５號","E_COORD97":165731.76999999999,"N_COORD97":2561606.2999999998,"ADDRESS":"仁愛路３５５號","OBJECTID":603753},"geometry":{"x":165731.77000000048,"y":2561606.3000000026}},{"attributes":{"ID":603781,"DIS_CODE":0,"TOWNNAME":"佳里區","LI":"建南里","LIN":"22鄰","STREET":"仁愛路","SECT":" ","MAREA":" ","LANE":" ","ALLEY":" ","HOUSE_NO":"３５６號","E_COORD97":165785.64000000001,"N_COORD97":2561618.9100000001,"ADDRESS":"仁愛路３５６號","OBJECTID":603754},"geometry":{"x":165785.63999999966,"y":2561618.910000002}},{"attributes":{"ID":603782,"DIS_CODE":0,"TOWNNAME":"佳里區","LI":"建南里","LIN":"22鄰","STREET":"仁愛路","SECT":" ","MAREA":" ","LANE":" ","ALLEY":" ","HOUSE_NO":"３６２號","E_COORD97":165769.17999999999,"N_COORD97":2561624.4399999999,"ADDRESS":"仁愛路３６２號","OBJECTID":603755},"geometry":{"x":165769.18000000063,"y":2561624.4400000013}},{"attributes":{"ID":603783,"DIS_CODE":0,"TOWNNAME":"佳里區","LI":"建南里","LIN":"22鄰","STREET":"仁愛路","SECT":" ","MAREA":" ","LANE":" ","ALLEY":" ","HOUSE_NO":"３６６號","E_COORD97":165761.03,"N_COORD97":2561627.5600000001,"ADDRESS":"仁愛路３６６號","OBJECTID":603756},"geometry":{"x":165761.03000000119,"y":2561627.5600000024}},{"attributes":{"ID":603784,"DIS_CODE":0,"TOWNNAME":"佳里區","LI":"建南里","LIN":"22鄰","STREET":"仁愛路","SECT":" ","MAREA":" ","LANE":" ","ALLEY":" ","HOUSE_NO":"３７４號","E_COORD97":165753.48000000001,"N_COORD97":2561630.0499999998,"ADDRESS":"仁愛路３７４號","OBJECTID":603757},"geometry":{"x":165753.48000000045,"y":2561630.0500000007}},{"attributes":{"ID":603785,"DIS_CODE":0,"TOWNNAME":"佳里區","LI":"建南里","LIN":"22鄰","STREET":"仁愛路","SECT":" ","MAREA":" ","LANE":" ","ALLEY":" ","HOUSE_NO":"３８８號","E_COORD97":165708.62,"N_COORD97":2561675.7599999998,"ADDRESS":"仁愛路３８８號","OBJECTID":603758},"geometry":{"x":165708.62000000011,"y":2561675.7599999979}},{"attributes":{"ID":603786,"DIS_CODE":0,"TOWNNAME":"佳里區","LI":"建南里","LIN":"22鄰","STREET":"仁愛路","SECT":" ","MAREA":" ","LANE":" ","ALLEY":" ","HOUSE_NO":"３９７號之２","E_COORD97":165640.26999999999,"N_COORD97":2561648.3399999999,"ADDRESS":"仁愛路３９７號之２","OBJECTID":603759},"geometry":{"x":165640.26999999955,"y":2561648.3400000036}},{"attributes":{"ID":603787,"DIS_CODE":0,"TOWNNAME":"佳里區","LI":"建南里","LIN":"22鄰","STREET":"仁愛路","SECT":" ","MAREA":" ","LANE":" ","ALLEY":" ","HOUSE_NO":"３９７號","E_COORD97":165644.56,"N_COORD97":2561642.8700000001,"ADDRESS":"仁愛路３９７號","OBJECTID":603760},"geometry":{"x":165644.56000000052,"y":2561642.8700000048}},{"attributes":{"ID":603788,"DIS_CODE":0,"TOWNNAME":"佳里區","LI":"建南里","LIN":"22鄰","STREET":"仁愛路","SECT":" ","MAREA":" ","LANE":" ","ALLEY":" ","HOUSE_NO":"４０４號","E_COORD97":165668.37,"N_COORD97":2561670.2000000002,"ADDRESS":"仁愛路４０４號","OBJECTID":603761},"geometry":{"x":165668.37000000104,"y":2561670.2000000011}},{"attributes":{"ID":603789,"DIS_CODE":0,"TOWNNAME":"佳里區","LI":"建南里","LIN":"22鄰","STREET":"仁愛路","SECT":" ","MAREA":" ","LANE":" ","ALLEY":" ","HOUSE_NO":"４０６號","E_COORD97":165660.19,"N_COORD97":2561673.1899999999,"ADDRESS":"仁愛路４０６號","OBJECTID":603762},"geometry":{"x":165660.19000000134,"y":2561673.1900000013}},{"attributes":{"ID":603790,"DIS_CODE":0,"TOWNNAME":"佳里區","LI":"建南里","LIN":"22鄰","STREET":"仁愛路","SECT":" ","MAREA":" ","LANE":" ","ALLEY":" ","HOUSE_NO":"４０８號","E_COORD97":165647.89000000001,"N_COORD97":2561677.5,"ADDRESS":"仁愛路４０８號","OBJECTID":603763},"geometry":{"x":165647.8900000006,"y":2561677.5}},{"attributes":{"ID":603791,"DIS_CODE":0,"TOWNNAME":"佳里區","LI":"建南里","LIN":"22鄰","STREET":"仁愛路","SECT":" ","MAREA":" ","LANE":" ","ALLEY":" ","HOUSE_NO":"４２０號","E_COORD97":165618.60999999999,"N_COORD97":2561686.8599999999,"ADDRESS":"仁愛路４２０號","OBJECTID":603764},"geometry":{"x":165618.61000000034,"y":2561686.8599999994}},{"attributes":{"ID":603792,"DIS_CODE":0,"TOWNNAME":"佳里區","LI":"建南里","LIN":"22鄰","STREET":"仁愛路","SECT":" ","MAREA":" ","LANE":" ","ALLEY":" ","HOUSE_NO":"４２３號","E_COORD97":165595.62,"N_COORD97":2561647.2599999998,"ADDRESS":"仁愛路４２３號","OBJECTID":603765},"geometry":{"x":165595.62000000104,"y":2561647.2599999998}},{"attributes":{"ID":603793,"DIS_CODE":0,"TOWNNAME":"佳里區","LI":"建南里","LIN":"22鄰","STREET":"仁愛路","SECT":" ","MAREA":" ","LANE":" ","ALLEY":" ","HOUSE_NO":"４２４號之１","E_COORD97":165600.85999999999,"N_COORD97":2561697.0899999999,"ADDRESS":"仁愛路４２４號之１","OBJECTID":603766},"geometry":{"x":165600.86000000127,"y":2561697.0899999999}},{"attributes":{"ID":603794,"DIS_CODE":0,"TOWNNAME":"佳里區","LI":"建南里","LIN":"22鄰","STREET":"仁愛路","SECT":" ","MAREA":" ","LANE":" ","ALLEY":" ","HOUSE_NO":"４２６號","E_COORD97":165607.28,"N_COORD97":2561695.1699999999,"ADDRESS":"仁愛路４２６號","OBJECTID":603767},"geometry":{"x":165607.28000000026,"y":2561695.1700000018}},{"attributes":{"ID":603795,"DIS_CODE":0,"TOWNNAME":"佳里區","LI":"六安里","LIN":"22鄰","STREET":"六安街","SECT":" ","MAREA":" ","LANE":" ","ALLEY":" ","HOUSE_NO":"１５９號","E_COORD97":165784.29999999999,"N_COORD97":2563323.1299999999,"ADDRESS":"六安街１５９號","OBJECTID":603768},"geometry":{"x":165784.30000000075,"y":2563323.129999999}},{"attributes":{"ID":603796,"DIS_CODE":0,"TOWNNAME":"佳里區","LI":"六安里","LIN":"22鄰","STREET":"六安街","SECT":" ","MAREA":" ","LANE":" ","ALLEY":" ","HOUSE_NO":"１６１號","E_COORD97":165747.14000000001,"N_COORD97":2563326.3100000001,"ADDRESS":"六安街１６１號","OBJECTID":603769},"geometry":{"x":165747.14000000153,"y":2563326.3100000005}},{"attributes":{"ID":603797,"DIS_CODE":0,"TOWNNAME":"佳里區","LI":"六安里","LIN":"22鄰","STREET":"六安街","SECT":" ","MAREA":" ","LANE":" ","ALLEY":" ","HOUSE_NO":"１６３號","E_COORD97":165736.62,"N_COORD97":2563325.4100000001,"ADDRESS":"六安街１６３號","OBJECTID":603770},"geometry":{"x":165736.62000000104,"y":2563325.4100000001}},{"attributes":{"ID":603798,"DIS_CODE":0,"TOWNNAME":"佳里區","LI":"六安里","LIN":"22鄰","STREET":"六安街","SECT":" ","MAREA":" ","LANE":" ","ALLEY":" ","HOUSE_NO":"１６５號","E_COORD97":165728.54000000001,"N_COORD97":2563327.04,"ADDRESS":"六安街１６５號","OBJECTID":603771},"geometry":{"x":165728.54000000097,"y":2563327.0399999991}},{"attributes":{"ID":603799,"DIS_CODE":0,"TOWNNAME":"佳里區","LI":"六安里","LIN":"22鄰","STREET":"六安街","SECT":" ","MAREA":" ","LANE":" ","ALLEY":" ","HOUSE_NO":"２０６號","E_COORD97":165849.70000000001,"N_COORD97":2563356.3300000001,"ADDRESS":"六安街２０６號","OBJECTID":603772},"geometry":{"x":165849.70000000112,"y":2563356.3300000001}},{"attributes":{"ID":603800,"DIS_CODE":0,"TOWNNAME":"佳里區","LI":"六安里","LIN":"22鄰","STREET":"六安街","SECT":" ","MAREA":" ","LANE":" ","ALLEY":" ","HOUSE_NO":"２０８號","E_COORD97":165853.38,"N_COORD97":2563400.8500000001,"ADDRESS":"六安街２０８號","OBJECTID":603773},"geometry":{"x":165853.38000000082,"y":2563400.8500000034}},{"attributes":{"ID":603801,"DIS_CODE":0,"TOWNNAME":"佳里區","LI":"六安里","LIN":"22鄰","STREET":"六安街","SECT":" ","MAREA":" ","LANE":" ","ALLEY":" ","HOUSE_NO":"２４８號","E_COORD97":165733.75,"N_COORD97":2563352,"ADDRESS":"六安街２４８號","OBJECTID":603774},"geometry":{"x":165733.75000000093,"y":2563352}},{"attributes":{"ID":603802,"DIS_CODE":0,"TOWNNAME":"佳里區","LI":"六安里","LIN":"22鄰","STREET":"六安街","SECT":" ","MAREA":" ","LANE":" ","ALLEY":" ","HOUSE_NO":"２５０號","E_COORD97":165728.98999999999,"N_COORD97":2563352.7999999998,"ADDRESS":"六安街２５０號","OBJECTID":603775},"geometry":{"x":165728.99000000115,"y":2563352.8000000026}},{"attributes":{"ID":603803,"DIS_CODE":0,"TOWNNAME":"佳里區","LI":"六安里","LIN":"22鄰","STREET":"六安街","SECT":" ","MAREA":" ","LANE":" ","ALLEY":" ","HOUSE_NO":"２５２號","E_COORD97":165723.84,"N_COORD97":2563353.75,"ADDRESS":"六安街２５２號","OBJECTID":603776},"geometry":{"x":165723.83999999985,"y":2563353.75}},{"attributes":{"ID":603804,"DIS_CODE":0,"TOWNNAME":"佳里區","LI":"六安里","LIN":"22鄰","STREET":"六安街","SECT":" ","MAREA":" ","LANE":" ","ALLEY":" ","HOUSE_NO":"２５４號","E_COORD97":165719.20000000001,"N_COORD97":2563354.4700000002,"ADDRESS":"六安街２５４號","OBJECTID":603777},"geometry":{"x":165719.20000000112,"y":2563354.4700000025}},{"attributes":{"ID":603805,"DIS_CODE":0,"TOWNNAME":"佳里區","LI":"六安里","LIN":"22鄰","STREET":"六安街","SECT":" ","MAREA":" ","LANE":" ","ALLEY":" ","HOUSE_NO":"２５８號","E_COORD97":165720.19,"N_COORD97":2563383.9300000002,"ADDRESS":"六安街２５８號","OBJECTID":603778},"geometry":{"x":165720.19000000041,"y":2563383.9300000016}},{"attributes":{"ID":603806,"DIS_CODE":0,"TOWNNAME":"佳里區","LI":"六安里","LIN":"22鄰","STREET":"六安街","SECT":" ","MAREA":" ","LANE":" ","ALLEY":" ","HOUSE_NO":"２６０號","E_COORD97":165709.72,"N_COORD97":2563367.0600000001,"ADDRESS":"六安街２６０號","OBJECTID":603779},"geometry":{"x":165709.72000000067,"y":2563367.0600000024}},{"attributes":{"ID":603807,"DIS_CODE":0,"TOWNNAME":"佳里區","LI":"六安里","LIN":"22鄰","STREET":"六安街","SECT":" ","MAREA":" ","LANE":" ","ALLEY":" ","HOUSE_NO":"２６２號","E_COORD97":165701.20999999999,"N_COORD97":2563359.96,"ADDRESS":"六安街２６２號","OBJECTID":603780},"geometry":{"x":165701.21000000183,"y":2563359.9600000009}},{"attributes":{"ID":603808,"DIS_CODE":0,"TOWNNAME":"佳里區","LI":"六安里","LIN":"22鄰","STREET":"六安街","SECT":" ","MAREA":" ","LANE":" ","ALLEY":" ","HOUSE_NO":"２６６號","E_COORD97":165696.81,"N_COORD97":2563360.71,"ADDRESS":"六安街２６６號","OBJECTID":603781},"geometry":{"x":165696.81000000145,"y":2563360.7100000028}},{"attributes":{"ID":603809,"DIS_CODE":0,"TOWNNAME":"佳里區","LI":"六安里","LIN":"22鄰","STREET":"六安街","SECT":" ","MAREA":" ","LANE":" ","ALLEY":" ","HOUSE_NO":"２６８號","E_COORD97":165692.32999999999,"N_COORD97":2563361.6000000001,"ADDRESS":"六安街２６８號","OBJECTID":603782},"geometry":{"x":165692.33000000101,"y":2563361.5999999996}},{"attributes":{"ID":603810,"DIS_CODE":0,"TOWNNAME":"佳里區","LI":"六安里","LIN":"22鄰","STREET":"六安街","SECT":" ","MAREA":" ","LANE":" ","ALLEY":" ","HOUSE_NO":"２７０號","E_COORD97":165686.89999999999,"N_COORD97":2563361.8599999999,"ADDRESS":"六安街２７０號","OBJECTID":603783},"geometry":{"x":165686.90000000224,"y":2563361.8599999994}},{"attributes":{"ID":603811,"DIS_CODE":0,"TOWNNAME":"佳里區","LI":"六安里","LIN":"22鄰","STREET":"六安街","SECT":" ","MAREA":" ","LANE":" ","ALLEY":" ","HOUSE_NO":"２７２號","E_COORD97":165682.73999999999,"N_COORD97":2563362.7400000002,"ADDRESS":"六安街２７２號","OBJECTID":603784},"geometry":{"x":165682.74000000209,"y":2563362.7400000021}},{"attributes":{"ID":603812,"DIS_CODE":0,"TOWNNAME":"佳里區","LI":"六安里","LIN":"22鄰","STREET":"六安街","SECT":" ","MAREA":" ","LANE":" ","ALLEY":" ","HOUSE_NO":"２７６號","E_COORD97":165679.09,"N_COORD97":2563363.3199999998,"ADDRESS":"六安街２７６號","OBJECTID":603785},"geometry":{"x":165679.08999999985,"y":2563363.3200000003}},{"attributes":{"ID":603813,"DIS_CODE":0,"TOWNNAME":"佳里區","LI":"六安里","LIN":"22鄰","STREET":"六安街","SECT":" ","MAREA":" ","LANE":" ","ALLEY":" ","HOUSE_NO":"２７８號","E_COORD97":165664.89999999999,"N_COORD97":2563377.8300000001,"ADDRESS":"六安街２７８號","OBJECTID":603786},"geometry":{"x":165664.90000000224,"y":2563377.8300000038}},{"attributes":{"ID":603814,"DIS_CODE":0,"TOWNNAME":"佳里區","LI":"六安里","LIN":"22鄰","STREET":"六安街","SECT":" ","MAREA":" ","LANE":" ","ALLEY":" ","HOUSE_NO":"２８０號","E_COORD97":165666.53,"N_COORD97":2563386.5600000001,"ADDRESS":"六安街２８０號","OBJECTID":603787},"geometry":{"x":165666.53000000026,"y":2563386.5600000005}},{"attributes":{"ID":603815,"DIS_CODE":0,"TOWNNAME":"佳里區","LI":"六安里","LIN":"22鄰","STREET":"六安街","SECT":" ","MAREA":" ","LANE":" ","ALLEY":" ","HOUSE_NO":"２９２號","E_COORD97":165628.04999999999,"N_COORD97":2563453.5,"ADDRESS":"六安街２９２號","OBJECTID":603788},"geometry":{"x":165628.05000000075,"y":2563453.5}},{"attributes":{"ID":603816,"DIS_CODE":0,"TOWNNAME":"佳里區","LI":"六安里","LIN":"22鄰","STREET":"六順路","SECT":" ","MAREA":" ","LANE":" ","ALLEY":" ","HOUSE_NO":"２３號","E_COORD97":165566.22,"N_COORD97":2563463.96,"ADDRESS":"六順路２３號","OBJECTID":603789},"geometry":{"x":165566.21999999974,"y":2563463.9600000028}},{"attributes":{"ID":603817,"DIS_CODE":0,"TOWNNAME":"佳里區","LI":"建南里","LIN":"22鄰","STREET":"四維三街","SECT":" ","MAREA":" ","LANE":" ","ALLEY":" ","HOUSE_NO":"１１號","E_COORD97":165573.19,"N_COORD97":2561442.7999999998,"ADDRESS":"四維三街１１號","OBJECTID":603790},"geometry":{"x":165573.19000000134,"y":2561442.8000000045}},{"attributes":{"ID":603818,"DIS_CODE":0,"TOWNNAME":"佳里區","LI":"建南里","LIN":"22鄰","STREET":"四維三街","SECT":" ","MAREA":" ","LANE":" ","ALLEY":" ","HOUSE_NO":"１３號","E_COORD97":165572.85999999999,"N_COORD97":2561438.2400000002,"ADDRESS":"四維三街１３號","OBJECTID":603791},"geometry":{"x":165572.86000000034,"y":2561438.2400000002}},{"attributes":{"ID":603819,"DIS_CODE":0,"TOWNNAME":"佳里區","LI":"建南里","LIN":"22鄰","STREET":"四維三街","SECT":" ","MAREA":" ","LANE":" ","ALLEY":" ","HOUSE_NO":"１５號","E_COORD97":165572.23000000001,"N_COORD97":2561433.9300000002,"ADDRESS":"四維三街１５號","OBJECTID":603792},"geometry":{"x":165572.23000000045,"y":2561433.9300000034}},{"attributes":{"ID":603820,"DIS_CODE":0,"TOWNNAME":"佳里區","LI":"建南里","LIN":"22鄰","STREET":"四維三街","SECT":" ","MAREA":" ","LANE":" ","ALLEY":" ","HOUSE_NO":"１７號","E_COORD97":165570.88,"N_COORD97":2561429.8199999998,"ADDRESS":"四維三街１７號","OBJECTID":603793},"geometry":{"x":165570.87999999989,"y":2561429.8200000022}},{"attributes":{"ID":603821,"DIS_CODE":0,"TOWNNAME":"佳里區","LI":"建南里","LIN":"22鄰","STREET":"四維三街","SECT":" ","MAREA":" ","LANE":" ","ALLEY":" ","HOUSE_NO":"１９號","E_COORD97":165570.48000000001,"N_COORD97":2561425.3700000001,"ADDRESS":"四維三街１９號","OBJECTID":603794},"geometry":{"x":165570.48000000045,"y":2561425.370000001}},{"attributes":{"ID":603822,"DIS_CODE":0,"TOWNNAME":"佳里區","LI":"建南里","LIN":"22鄰","STREET":"四維三街","SECT":" ","MAREA":" ","LANE":" ","ALLEY":" ","HOUSE_NO":"２１號","E_COORD97":165569.97,"N_COORD97":2561420.23,"ADDRESS":"四維三街２１號","OBJECTID":603795},"geometry":{"x":165569.96999999974,"y":2561420.2300000023}},{"attributes":{"ID":603823,"DIS_CODE":0,"TOWNNAME":"佳里區","LI":"建南里","LIN":"22鄰","STREET":"四維三街","SECT":" ","MAREA":" ","LANE":" ","ALLEY":" ","HOUSE_NO":"３６號","E_COORD97":165546.59,"N_COORD97":2561386.1600000001,"ADDRESS":"四維三街３６號","OBJECTID":603796},"geometry":{"x":165546.59000000078,"y":2561386.160000002}},{"attributes":{"ID":603824,"DIS_CODE":0,"TOWNNAME":"佳里區","LI":"建南里","LIN":"22鄰","STREET":"四維三街","SECT":" ","MAREA":" ","LANE":" ","ALLEY":" ","HOUSE_NO":"３８號","E_COORD97":165546.39999999999,"N_COORD97":2561381.7200000002,"ADDRESS":"四維三街３８號","OBJECTID":603797},"geometry":{"x":165546.4000000013,"y":2561381.7200000007}},{"attributes":{"ID":603825,"DIS_CODE":0,"TOWNNAME":"佳里區","LI":"建南里","LIN":"22鄰","STREET":"四維三街","SECT":" ","MAREA":" ","LANE":" ","ALLEY":" ","HOUSE_NO":"３號","E_COORD97":165574.34,"N_COORD97":2561460.5099999998,"ADDRESS":"四維三街３號","OBJECTID":603798},"geometry":{"x":165574.33999999985,"y":2561460.5099999979}},{"attributes":{"ID":603826,"DIS_CODE":0,"TOWNNAME":"佳里區","LI":"建南里","LIN":"22鄰","STREET":"四維三街","SECT":" ","MAREA":" ","LANE":" ","ALLEY":" ","HOUSE_NO":"４０號","E_COORD97":165546.53,"N_COORD97":2561377.77,"ADDRESS":"四維三街４０號","OBJECTID":603799},"geometry":{"x":165546.53000000026,"y":2561377.7700000014}},{"attributes":{"ID":603827,"DIS_CODE":0,"TOWNNAME":"佳里區","LI":"建南里","LIN":"22鄰","STREET":"四維三街","SECT":" ","MAREA":" ","LANE":" ","ALLEY":" ","HOUSE_NO":"４２號","E_COORD97":165544.95999999999,"N_COORD97":2561373.21,"ADDRESS":"四維三街４２號","OBJECTID":603800},"geometry":{"x":165544.95999999996,"y":2561373.2100000028}}]}