{"displayFieldName":"TOWNNAME","fieldAliases":{"ID":"ID","DIS_CODE":"DIS_CODE","TOWNNAME":"TOWNNAME","LI":"LI","LIN":"LIN","STREET":"STREET","SECT":"SECT","MAREA":"MAREA","LANE":"LANE","ALLEY":"ALLEY","HOUSE_NO":"HOUSE_NO","E_COORD97":"E_COORD97","N_COORD97":"N_COORD97","ADDRESS":"ADDRESS","OBJECTID":"OBJECTID"},"geometryType":"esriGeometryPoint","spatialReference":{"wkid":102443,"latestWkid":3826},"fields":[{"name":"ID","type":"esriFieldTypeDouble","alias":"ID"},{"name":"DIS_CODE","type":"esriFieldTypeInteger","alias":"DIS_CODE"},{"name":"TOWNNAME","type":"esriFieldTypeString","alias":"TOWNNAME","length":8},{"name":"LI","type":"esriFieldTypeString","alias":"LI","length":8},{"name":"LIN","type":"esriFieldTypeString","alias":"LIN","length":12},{"name":"STREET","type":"esriFieldTypeString","alias":"STREET","length":20},{"name":"SECT","type":"esriFieldTypeString","alias":"SECT","length":8},{"name":"MAREA","type":"esriFieldTypeString","alias":"MAREA","length":12},{"name":"LANE","type":"esriFieldTypeString","alias":"LANE","length":10},{"name":"ALLEY","type":"esriFieldTypeString","alias":"ALLEY","length":10},{"name":"HOUSE_NO","type":"esriFieldTypeString","alias":"HOUSE_NO","length":20},{"name":"E_COORD97","type":"esriFieldTypeDouble","alias":"E_COORD97"},{"name":"N_COORD97","type":"esriFieldTypeDouble","alias":"N_COORD97"},{"name":"ADDRESS","type":"esriFieldTypeString","alias":"ADDRESS","length":50},{"name":"OBJECTID","type":"esriFieldTypeOID","alias":"OBJECTID"}],"features":[{"attributes":{"ID":312009,"DIS_CODE":0,"TOWNNAME":"北區","LI":"大道里","LIN":"7鄰","STREET":"北門路","SECT":"二段","MAREA":" ","LANE":"５７６巷","ALLEY":" ","HOUSE_NO":"１８號三樓之１","E_COORD97":169638.54999999999,"N_COORD97":2545536.4300000002,"ADDRESS":"北門路二段５７６巷１８號三樓之１","OBJECTID":312001},"geometry":{"x":169638.55000000168,"y":2545536.4300000034}},{"attributes":{"ID":312010,"DIS_CODE":0,"TOWNNAME":"安南區","LI":"理想里","LIN":"17鄰","STREET":"大安街","SECT":" ","MAREA":" ","LANE":" ","ALLEY":" ","HOUSE_NO":"２０３號","E_COORD97":167389.70000000001,"N_COORD97":2548330.9399999999,"ADDRESS":"大安街２０３號","OBJECTID":312002},"geometry":{"x":167389.70000000019,"y":2548330.9400000013}},{"attributes":{"ID":312011,"DIS_CODE":0,"TOWNNAME":"安南區","LI":"理想里","LIN":"17鄰","STREET":"大安街","SECT":" ","MAREA":" ","LANE":" ","ALLEY":" ","HOUSE_NO":"２０５號","E_COORD97":167391.79999999999,"N_COORD97":2548334.8399999999,"ADDRESS":"大安街２０５號","OBJECTID":312003},"geometry":{"x":167391.79999999981,"y":2548334.8400000017}},{"attributes":{"ID":312012,"DIS_CODE":0,"TOWNNAME":"新營區","LI":"民生里","LIN":"9鄰","STREET":"復興路","SECT":" ","MAREA":" ","LANE":" ","ALLEY":" ","HOUSE_NO":"１４２號之１","E_COORD97":179314.75,"N_COORD97":2578046.6800000002,"ADDRESS":"復興路１４２號之１","OBJECTID":312004},"geometry":{"x":179314.75,"y":2578046.6800000016}},{"attributes":{"ID":312013,"DIS_CODE":0,"TOWNNAME":"新營區","LI":"興業里","LIN":"20鄰","STREET":"中山路","SECT":" ","MAREA":" ","LANE":" ","ALLEY":" ","HOUSE_NO":"１１５號","E_COORD97":180274.56,"N_COORD97":2578215.9399999999,"ADDRESS":"中山路１１５號","OBJECTID":312005},"geometry":{"x":180274.56000000052,"y":2578215.9400000032}},{"attributes":{"ID":312014,"DIS_CODE":0,"TOWNNAME":"安南區","LI":"理想里","LIN":"17鄰","STREET":"大安街","SECT":" ","MAREA":" ","LANE":" ","ALLEY":" ","HOUSE_NO":"２０７號","E_COORD97":167394.81,"N_COORD97":2548338.2200000002,"ADDRESS":"大安街２０７號","OBJECTID":312006},"geometry":{"x":167394.80999999959,"y":2548338.2200000007}},{"attributes":{"ID":312015,"DIS_CODE":0,"TOWNNAME":"安南區","LI":"理想里","LIN":"17鄰","STREET":"大安街","SECT":" ","MAREA":" ","LANE":" ","ALLEY":" ","HOUSE_NO":"２０９號","E_COORD97":167397.06,"N_COORD97":2548342.27,"ADDRESS":"大安街２０９號","OBJECTID":312007},"geometry":{"x":167397.06000000145,"y":2548342.2700000014}},{"attributes":{"ID":312016,"DIS_CODE":0,"TOWNNAME":"北區","LI":"大道里","LIN":"7鄰","STREET":"北門路","SECT":"二段","MAREA":" ","LANE":"５７６巷","ALLEY":" ","HOUSE_NO":"１８號四樓之２","E_COORD97":169638.54999999999,"N_COORD97":2545536.4300000002,"ADDRESS":"北門路二段５７６巷１８號四樓之２","OBJECTID":312008},"geometry":{"x":169638.55000000168,"y":2545536.4300000034}},{"attributes":{"ID":312017,"DIS_CODE":0,"TOWNNAME":"北區","LI":"大道里","LIN":"7鄰","STREET":"北門路","SECT":"二段","MAREA":" ","LANE":"５７６巷","ALLEY":" ","HOUSE_NO":"１８號四樓之１","E_COORD97":169638.54999999999,"N_COORD97":2545536.4300000002,"ADDRESS":"北門路二段５７６巷１８號四樓之１","OBJECTID":312009},"geometry":{"x":169638.55000000168,"y":2545536.4300000034}},{"attributes":{"ID":312018,"DIS_CODE":0,"TOWNNAME":"北區","LI":"大道里","LIN":"7鄰","STREET":"北門路","SECT":"二段","MAREA":" ","LANE":"５７６巷","ALLEY":" ","HOUSE_NO":"１８號五樓之２","E_COORD97":169638.54999999999,"N_COORD97":2545536.4300000002,"ADDRESS":"北門路二段５７６巷１８號五樓之２","OBJECTID":312010},"geometry":{"x":169638.55000000168,"y":2545536.4300000034}},{"attributes":{"ID":312019,"DIS_CODE":0,"TOWNNAME":"北區","LI":"大道里","LIN":"7鄰","STREET":"北門路","SECT":"二段","MAREA":" ","LANE":"５７６巷","ALLEY":" ","HOUSE_NO":"１８號五樓之１","E_COORD97":169638.54999999999,"N_COORD97":2545536.4300000002,"ADDRESS":"北門路二段５７６巷１８號五樓之１","OBJECTID":312011},"geometry":{"x":169638.55000000168,"y":2545536.4300000034}},{"attributes":{"ID":312020,"DIS_CODE":0,"TOWNNAME":"北區","LI":"大道里","LIN":"7鄰","STREET":"北門路","SECT":"二段","MAREA":" ","LANE":"５７６巷","ALLEY":" ","HOUSE_NO":"１８號六樓之２","E_COORD97":169638.54999999999,"N_COORD97":2545536.4300000002,"ADDRESS":"北門路二段５７６巷１８號六樓之２","OBJECTID":312012},"geometry":{"x":169638.55000000168,"y":2545536.4300000034}},{"attributes":{"ID":312021,"DIS_CODE":0,"TOWNNAME":"北區","LI":"大道里","LIN":"7鄰","STREET":"北門路","SECT":"二段","MAREA":" ","LANE":"５７６巷","ALLEY":" ","HOUSE_NO":"１８號六樓之１","E_COORD97":169638.54999999999,"N_COORD97":2545536.4300000002,"ADDRESS":"北門路二段５７６巷１８號六樓之１","OBJECTID":312013},"geometry":{"x":169638.55000000168,"y":2545536.4300000034}},{"attributes":{"ID":312022,"DIS_CODE":0,"TOWNNAME":"北區","LI":"大道里","LIN":"7鄰","STREET":"北門路","SECT":"二段","MAREA":" ","LANE":"５７６巷","ALLEY":" ","HOUSE_NO":"１８號七樓之２","E_COORD97":169638.54999999999,"N_COORD97":2545536.4300000002,"ADDRESS":"北門路二段５７６巷１８號七樓之２","OBJECTID":312014},"geometry":{"x":169638.55000000168,"y":2545536.4300000034}},{"attributes":{"ID":312023,"DIS_CODE":0,"TOWNNAME":"北區","LI":"大道里","LIN":"7鄰","STREET":"北門路","SECT":"二段","MAREA":" ","LANE":"５７６巷","ALLEY":" ","HOUSE_NO":"１８號七樓之１","E_COORD97":169638.54999999999,"N_COORD97":2545536.4300000002,"ADDRESS":"北門路二段５７６巷１８號七樓之１","OBJECTID":312015},"geometry":{"x":169638.55000000168,"y":2545536.4300000034}},{"attributes":{"ID":312024,"DIS_CODE":0,"TOWNNAME":"安南區","LI":"頂安里","LIN":"17鄰","STREET":"北安三街","SECT":" ","MAREA":" ","LANE":" ","ALLEY":" ","HOUSE_NO":"７號","E_COORD97":168371.92999999999,"N_COORD97":2548614.79,"ADDRESS":"北安三街７號","OBJECTID":312016},"geometry":{"x":168371.93000000063,"y":2548614.7899999991}},{"attributes":{"ID":312025,"DIS_CODE":0,"TOWNNAME":"北區","LI":"大道里","LIN":"7鄰","STREET":"北門路","SECT":"二段","MAREA":" ","LANE":"５７６巷","ALLEY":" ","HOUSE_NO":"１８號八樓之２","E_COORD97":169638.54999999999,"N_COORD97":2545536.4300000002,"ADDRESS":"北門路二段５７６巷１８號八樓之２","OBJECTID":312017},"geometry":{"x":169638.55000000168,"y":2545536.4300000034}},{"attributes":{"ID":312026,"DIS_CODE":0,"TOWNNAME":"北區","LI":"大道里","LIN":"7鄰","STREET":"北門路","SECT":"二段","MAREA":" ","LANE":"５７６巷","ALLEY":" ","HOUSE_NO":"１８號八樓之１","E_COORD97":169638.54999999999,"N_COORD97":2545536.4300000002,"ADDRESS":"北門路二段５７６巷１８號八樓之１","OBJECTID":312018},"geometry":{"x":169638.55000000168,"y":2545536.4300000034}},{"attributes":{"ID":312027,"DIS_CODE":0,"TOWNNAME":"北區","LI":"大道里","LIN":"7鄰","STREET":"北門路","SECT":"二段","MAREA":" ","LANE":"５７６巷","ALLEY":" ","HOUSE_NO":"１８號九樓之２","E_COORD97":169638.54999999999,"N_COORD97":2545536.4300000002,"ADDRESS":"北門路二段５７６巷１８號九樓之２","OBJECTID":312019},"geometry":{"x":169638.55000000168,"y":2545536.4300000034}},{"attributes":{"ID":312028,"DIS_CODE":0,"TOWNNAME":"北區","LI":"大道里","LIN":"7鄰","STREET":"北門路","SECT":"二段","MAREA":" ","LANE":"５７６巷","ALLEY":" ","HOUSE_NO":"１８號九樓之１","E_COORD97":169638.54999999999,"N_COORD97":2545536.4300000002,"ADDRESS":"北門路二段５７６巷１８號九樓之１","OBJECTID":312020},"geometry":{"x":169638.55000000168,"y":2545536.4300000034}},{"attributes":{"ID":312029,"DIS_CODE":0,"TOWNNAME":"北區","LI":"大道里","LIN":"7鄰","STREET":"北門路","SECT":"二段","MAREA":" ","LANE":"５７６巷","ALLEY":" ","HOUSE_NO":"１８號十樓之２","E_COORD97":169638.54999999999,"N_COORD97":2545536.4300000002,"ADDRESS":"北門路二段５７６巷１８號十樓之２","OBJECTID":312021},"geometry":{"x":169638.55000000168,"y":2545536.4300000034}},{"attributes":{"ID":312030,"DIS_CODE":0,"TOWNNAME":"北區","LI":"大道里","LIN":"7鄰","STREET":"北門路","SECT":"二段","MAREA":" ","LANE":"５７６巷","ALLEY":" ","HOUSE_NO":"１８號十樓之１","E_COORD97":169638.54999999999,"N_COORD97":2545536.4300000002,"ADDRESS":"北門路二段５７６巷１８號十樓之１","OBJECTID":312022},"geometry":{"x":169638.55000000168,"y":2545536.4300000034}},{"attributes":{"ID":312031,"DIS_CODE":0,"TOWNNAME":"北區","LI":"光武里","LIN":"7鄰","STREET":"北門路","SECT":"二段","MAREA":" ","LANE":"５７７巷","ALLEY":" ","HOUSE_NO":"１號三樓之１","E_COORD97":169658.07999999999,"N_COORD97":2545759.0800000001,"ADDRESS":"北門路二段５７７巷１號三樓之１","OBJECTID":312023},"geometry":{"x":169658.08000000007,"y":2545759.0800000001}},{"attributes":{"ID":312032,"DIS_CODE":0,"TOWNNAME":"北區","LI":"光武里","LIN":"7鄰","STREET":"北門路","SECT":"二段","MAREA":" ","LANE":"５７７巷","ALLEY":" ","HOUSE_NO":"１號四樓之１","E_COORD97":169658.07999999999,"N_COORD97":2545759.0800000001,"ADDRESS":"北門路二段５７７巷１號四樓之１","OBJECTID":312024},"geometry":{"x":169658.08000000007,"y":2545759.0800000001}},{"attributes":{"ID":312033,"DIS_CODE":0,"TOWNNAME":"北區","LI":"光武里","LIN":"7鄰","STREET":"北門路","SECT":"二段","MAREA":" ","LANE":"５７７巷","ALLEY":" ","HOUSE_NO":"１號五樓之１","E_COORD97":169658.07999999999,"N_COORD97":2545759.0800000001,"ADDRESS":"北門路二段５７７巷１號五樓之１","OBJECTID":312025},"geometry":{"x":169658.08000000007,"y":2545759.0800000001}},{"attributes":{"ID":312034,"DIS_CODE":0,"TOWNNAME":"北區","LI":"光武里","LIN":"7鄰","STREET":"北門路","SECT":"二段","MAREA":" ","LANE":"５７７巷","ALLEY":" ","HOUSE_NO":"１號六樓之１","E_COORD97":169658.07999999999,"N_COORD97":2545759.0800000001,"ADDRESS":"北門路二段５７７巷１號六樓之１","OBJECTID":312026},"geometry":{"x":169658.08000000007,"y":2545759.0800000001}},{"attributes":{"ID":312035,"DIS_CODE":0,"TOWNNAME":"北區","LI":"光武里","LIN":"7鄰","STREET":"北門路","SECT":"二段","MAREA":" ","LANE":"５７７巷","ALLEY":" ","HOUSE_NO":"１號七樓之１","E_COORD97":169658.07999999999,"N_COORD97":2545759.0800000001,"ADDRESS":"北門路二段５７７巷１號七樓之１","OBJECTID":312027},"geometry":{"x":169658.08000000007,"y":2545759.0800000001}},{"attributes":{"ID":312036,"DIS_CODE":0,"TOWNNAME":"北區","LI":"光武里","LIN":"7鄰","STREET":"北門路","SECT":"二段","MAREA":" ","LANE":"５７７巷","ALLEY":" ","HOUSE_NO":"１號八樓之１","E_COORD97":169658.07999999999,"N_COORD97":2545759.0800000001,"ADDRESS":"北門路二段５７７巷１號八樓之１","OBJECTID":312028},"geometry":{"x":169658.08000000007,"y":2545759.0800000001}},{"attributes":{"ID":312037,"DIS_CODE":0,"TOWNNAME":"北區","LI":"光武里","LIN":"7鄰","STREET":"北門路","SECT":"二段","MAREA":" ","LANE":"５７７巷","ALLEY":" ","HOUSE_NO":"１號九樓之１","E_COORD97":169658.07999999999,"N_COORD97":2545759.0800000001,"ADDRESS":"北門路二段５７７巷１號九樓之１","OBJECTID":312029},"geometry":{"x":169658.08000000007,"y":2545759.0800000001}},{"attributes":{"ID":312038,"DIS_CODE":0,"TOWNNAME":"北區","LI":"光武里","LIN":"7鄰","STREET":"北門路","SECT":"二段","MAREA":" ","LANE":"５７７巷","ALLEY":" ","HOUSE_NO":"１號十樓之１","E_COORD97":169658.07999999999,"N_COORD97":2545759.0800000001,"ADDRESS":"北門路二段５７７巷１號十樓之１","OBJECTID":312030},"geometry":{"x":169658.08000000007,"y":2545759.0800000001}},{"attributes":{"ID":312039,"DIS_CODE":0,"TOWNNAME":"北區","LI":"光武里","LIN":"7鄰","STREET":"北門路","SECT":"二段","MAREA":" ","LANE":"５７７巷","ALLEY":" ","HOUSE_NO":"１號三樓之２","E_COORD97":169658.07999999999,"N_COORD97":2545759.0800000001,"ADDRESS":"北門路二段５７７巷１號三樓之２","OBJECTID":312031},"geometry":{"x":169658.08000000007,"y":2545759.0800000001}},{"attributes":{"ID":312040,"DIS_CODE":0,"TOWNNAME":"北區","LI":"光武里","LIN":"7鄰","STREET":"北門路","SECT":"二段","MAREA":" ","LANE":"５７７巷","ALLEY":" ","HOUSE_NO":"１號四樓之２","E_COORD97":169658.07999999999,"N_COORD97":2545759.0800000001,"ADDRESS":"北門路二段５７７巷１號四樓之２","OBJECTID":312032},"geometry":{"x":169658.08000000007,"y":2545759.0800000001}},{"attributes":{"ID":312041,"DIS_CODE":0,"TOWNNAME":"北區","LI":"六甲里","LIN":"7鄰","STREET":"西門路","SECT":"四段","MAREA":" ","LANE":"２００巷","ALLEY":" ","HOUSE_NO":"２８號七樓","E_COORD97":168960.35000000001,"N_COORD97":2545603.6699999999,"ADDRESS":"西門路四段２００巷２８號七樓","OBJECTID":312033},"geometry":{"x":168960.35000000056,"y":2545603.6700000018}},{"attributes":{"ID":312042,"DIS_CODE":0,"TOWNNAME":"北區","LI":"六甲里","LIN":"7鄰","STREET":"西門路","SECT":"四段","MAREA":" ","LANE":"２００巷","ALLEY":" ","HOUSE_NO":"２８號九樓","E_COORD97":168960.35000000001,"N_COORD97":2545603.6699999999,"ADDRESS":"西門路四段２００巷２８號九樓","OBJECTID":312034},"geometry":{"x":168960.35000000056,"y":2545603.6700000018}},{"attributes":{"ID":312043,"DIS_CODE":0,"TOWNNAME":"佳里區","LI":"忠仁里","LIN":"7鄰","STREET":"忠仁街","SECT":" ","MAREA":" ","LANE":"５１巷","ALLEY":" ","HOUSE_NO":"１９號","E_COORD97":165989.67000000001,"N_COORD97":2562046.1800000002,"ADDRESS":"忠仁街５１巷１９號","OBJECTID":312035},"geometry":{"x":165989.67000000179,"y":2562046.1800000034}},{"attributes":{"ID":312044,"DIS_CODE":0,"TOWNNAME":"北區","LI":"六甲里","LIN":"7鄰","STREET":"西門路","SECT":"四段","MAREA":" ","LANE":"２００巷","ALLEY":" ","HOUSE_NO":"２８號二樓","E_COORD97":168960.35000000001,"N_COORD97":2545603.6699999999,"ADDRESS":"西門路四段２００巷２８號二樓","OBJECTID":312036},"geometry":{"x":168960.35000000056,"y":2545603.6700000018}},{"attributes":{"ID":312045,"DIS_CODE":0,"TOWNNAME":"北區","LI":"六甲里","LIN":"7鄰","STREET":"西門路","SECT":"四段","MAREA":" ","LANE":"２００巷","ALLEY":" ","HOUSE_NO":"２８號八樓","E_COORD97":168960.35000000001,"N_COORD97":2545603.6699999999,"ADDRESS":"西門路四段２００巷２８號八樓","OBJECTID":312037},"geometry":{"x":168960.35000000056,"y":2545603.6700000018}},{"attributes":{"ID":312046,"DIS_CODE":0,"TOWNNAME":"北區","LI":"六甲里","LIN":"7鄰","STREET":"西門路","SECT":"四段","MAREA":" ","LANE":"２００巷","ALLEY":" ","HOUSE_NO":"２８號三樓","E_COORD97":168960.35000000001,"N_COORD97":2545603.6699999999,"ADDRESS":"西門路四段２００巷２８號三樓","OBJECTID":312038},"geometry":{"x":168960.35000000056,"y":2545603.6700000018}},{"attributes":{"ID":312047,"DIS_CODE":0,"TOWNNAME":"北區","LI":"六甲里","LIN":"7鄰","STREET":"西門路","SECT":"四段","MAREA":" ","LANE":"２００巷","ALLEY":" ","HOUSE_NO":"２８號五樓","E_COORD97":168960.35000000001,"N_COORD97":2545603.6699999999,"ADDRESS":"西門路四段２００巷２８號五樓","OBJECTID":312039},"geometry":{"x":168960.35000000056,"y":2545603.6700000018}},{"attributes":{"ID":312048,"DIS_CODE":0,"TOWNNAME":"北區","LI":"六甲里","LIN":"7鄰","STREET":"西門路","SECT":"四段","MAREA":" ","LANE":"２００巷","ALLEY":" ","HOUSE_NO":"２８號六樓","E_COORD97":168960.35000000001,"N_COORD97":2545603.6699999999,"ADDRESS":"西門路四段２００巷２８號六樓","OBJECTID":312040},"geometry":{"x":168960.35000000056,"y":2545603.6700000018}},{"attributes":{"ID":312049,"DIS_CODE":0,"TOWNNAME":"北區","LI":"六甲里","LIN":"7鄰","STREET":"西門路","SECT":"四段","MAREA":" ","LANE":"２００巷","ALLEY":" ","HOUSE_NO":"２８號四樓","E_COORD97":168960.35000000001,"N_COORD97":2545603.6699999999,"ADDRESS":"西門路四段２００巷２８號四樓","OBJECTID":312041},"geometry":{"x":168960.35000000056,"y":2545603.6700000018}},{"attributes":{"ID":312050,"DIS_CODE":0,"TOWNNAME":"下營區","LI":"西連里","LIN":"1鄰","STREET":" ","SECT":" ","MAREA":"連表","LANE":" ","ALLEY":" ","HOUSE_NO":"１號之２８","E_COORD97":175360.32999999999,"N_COORD97":2567179.5899999999,"ADDRESS":"連表１號之２８","OBJECTID":312042},"geometry":{"x":175360.33000000101,"y":2567179.589999998}},{"attributes":{"ID":312051,"DIS_CODE":0,"TOWNNAME":"下營區","LI":"西連里","LIN":"1鄰","STREET":" ","SECT":" ","MAREA":"連表","LANE":" ","ALLEY":" ","HOUSE_NO":"１號之２","E_COORD97":175062.98999999999,"N_COORD97":2567592.7000000002,"ADDRESS":"連表１號之２","OBJECTID":312043},"geometry":{"x":175062.99000000115,"y":2567592.7000000011}},{"attributes":{"ID":312052,"DIS_CODE":0,"TOWNNAME":"下營區","LI":"西連里","LIN":"1鄰","STREET":" ","SECT":" ","MAREA":"連表","LANE":" ","ALLEY":" ","HOUSE_NO":"１號之３","E_COORD97":175122.29999999999,"N_COORD97":2567597.6200000001,"ADDRESS":"連表１號之３","OBJECTID":312044},"geometry":{"x":175122.30000000168,"y":2567597.6199999992}},{"attributes":{"ID":312053,"DIS_CODE":0,"TOWNNAME":"下營區","LI":"西連里","LIN":"1鄰","STREET":" ","SECT":" ","MAREA":"連表","LANE":" ","ALLEY":" ","HOUSE_NO":"１號之６","E_COORD97":175137.37,"N_COORD97":2567570.1000000001,"ADDRESS":"連表１號之６","OBJECTID":312045},"geometry":{"x":175137.36999999918,"y":2567570.1000000015}},{"attributes":{"ID":312054,"DIS_CODE":0,"TOWNNAME":"下營區","LI":"西連里","LIN":"1鄰","STREET":" ","SECT":" ","MAREA":"連表","LANE":" ","ALLEY":" ","HOUSE_NO":"１號之７","E_COORD97":175082.26999999999,"N_COORD97":2567544.29,"ADDRESS":"連表１號之７","OBJECTID":312046},"geometry":{"x":175082.27000000048,"y":2567544.290000001}},{"attributes":{"ID":312055,"DIS_CODE":0,"TOWNNAME":"下營區","LI":"西連里","LIN":"4鄰","STREET":" ","SECT":" ","MAREA":"連表","LANE":" ","ALLEY":" ","HOUSE_NO":"３４號之１","E_COORD97":174813.12,"N_COORD97":2567861.0800000001,"ADDRESS":"連表３４號之１","OBJECTID":312047},"geometry":{"x":174813.12000000011,"y":2567861.0800000001}},{"attributes":{"ID":312056,"DIS_CODE":0,"TOWNNAME":"下營區","LI":"西連里","LIN":"4鄰","STREET":" ","SECT":" ","MAREA":"連表","LANE":" ","ALLEY":" ","HOUSE_NO":"３４號","E_COORD97":174838.64999999999,"N_COORD97":2567862.1800000002,"ADDRESS":"連表３４號","OBJECTID":312048},"geometry":{"x":174838.65000000037,"y":2567862.1799999997}},{"attributes":{"ID":312057,"DIS_CODE":0,"TOWNNAME":"下營區","LI":"西連里","LIN":"4鄰","STREET":" ","SECT":" ","MAREA":"連表","LANE":" ","ALLEY":" ","HOUSE_NO":"３５號之１１","E_COORD97":175282.42999999999,"N_COORD97":2568255.77,"ADDRESS":"連表３５號之１１","OBJECTID":312049},"geometry":{"x":175282.43000000156,"y":2568255.7699999996}},{"attributes":{"ID":312058,"DIS_CODE":0,"TOWNNAME":"下營區","LI":"西連里","LIN":"4鄰","STREET":" ","SECT":" ","MAREA":"連表","LANE":" ","ALLEY":" ","HOUSE_NO":"３５號之１３","E_COORD97":174284.76000000001,"N_COORD97":2568106.1899999999,"ADDRESS":"連表３５號之１３","OBJECTID":312050},"geometry":{"x":174284.75999999978,"y":2568106.1899999995}},{"attributes":{"ID":312059,"DIS_CODE":0,"TOWNNAME":"北區","LI":"六甲里","LIN":"7鄰","STREET":"西門路","SECT":"四段","MAREA":" ","LANE":"２００巷","ALLEY":" ","HOUSE_NO":"３０號七樓","E_COORD97":168970.89999999999,"N_COORD97":2545602.3999999999,"ADDRESS":"西門路四段２００巷３０號七樓","OBJECTID":312051},"geometry":{"x":168970.9000000013,"y":2545602.4000000022}},{"attributes":{"ID":312060,"DIS_CODE":0,"TOWNNAME":"下營區","LI":"賀建里","LIN":"1鄰","STREET":" ","SECT":" ","MAREA":"麻豆寮","LANE":" ","ALLEY":" ","HOUSE_NO":"３號","E_COORD97":177877.07000000001,"N_COORD97":2572527.1099999999,"ADDRESS":"麻豆寮３號","OBJECTID":312052},"geometry":{"x":177877.0700000003,"y":2572527.1100000013}},{"attributes":{"ID":312061,"DIS_CODE":0,"TOWNNAME":"下營區","LI":"賀建里","LIN":"1鄰","STREET":" ","SECT":" ","MAREA":"麻豆寮","LANE":" ","ALLEY":" ","HOUSE_NO":"５號之１","E_COORD97":177853.22,"N_COORD97":2572549.4900000002,"ADDRESS":"麻豆寮５號之１","OBJECTID":312053},"geometry":{"x":177853.21999999974,"y":2572549.4900000021}},{"attributes":{"ID":312062,"DIS_CODE":0,"TOWNNAME":"北區","LI":"六甲里","LIN":"7鄰","STREET":"西門路","SECT":"四段","MAREA":" ","LANE":"２００巷","ALLEY":" ","HOUSE_NO":"３０號九樓","E_COORD97":168970.89999999999,"N_COORD97":2545602.3999999999,"ADDRESS":"西門路四段２００巷３０號九樓","OBJECTID":312054},"geometry":{"x":168970.9000000013,"y":2545602.4000000022}},{"attributes":{"ID":312063,"DIS_CODE":0,"TOWNNAME":"北區","LI":"六甲里","LIN":"7鄰","STREET":"西門路","SECT":"四段","MAREA":" ","LANE":"２００巷","ALLEY":" ","HOUSE_NO":"３０號二樓","E_COORD97":168970.89999999999,"N_COORD97":2545602.3999999999,"ADDRESS":"西門路四段２００巷３０號二樓","OBJECTID":312055},"geometry":{"x":168970.9000000013,"y":2545602.4000000022}},{"attributes":{"ID":312064,"DIS_CODE":0,"TOWNNAME":"下營區","LI":"賀建里","LIN":"1鄰","STREET":" ","SECT":" ","MAREA":"麻豆寮","LANE":" ","ALLEY":" ","HOUSE_NO":"５號之２","E_COORD97":177852.34,"N_COORD97":2572553.96,"ADDRESS":"麻豆寮５號之２","OBJECTID":312056},"geometry":{"x":177852.33999999985,"y":2572553.9600000009}},{"attributes":{"ID":312065,"DIS_CODE":0,"TOWNNAME":"下營區","LI":"賀建里","LIN":"1鄰","STREET":" ","SECT":" ","MAREA":"麻豆寮","LANE":" ","ALLEY":" ","HOUSE_NO":"５號之３","E_COORD97":177851.31,"N_COORD97":2572558.3500000001,"ADDRESS":"麻豆寮５號之３","OBJECTID":312057},"geometry":{"x":177851.31000000145,"y":2572558.3500000034}},{"attributes":{"ID":312066,"DIS_CODE":0,"TOWNNAME":"將軍區","LI":"長沙里","LIN":"1鄰","STREET":" ","SECT":" ","MAREA":"長沙","LANE":" ","ALLEY":" ","HOUSE_NO":"１之２３號","E_COORD97":157555.48000000001,"N_COORD97":2568653.2599999998,"ADDRESS":"長沙１之２３號","OBJECTID":312058},"geometry":{"x":157555.48000000045,"y":2568653.2600000035}},{"attributes":{"ID":312067,"DIS_CODE":0,"TOWNNAME":"將軍區","LI":"長沙里","LIN":"4鄰","STREET":" ","SECT":" ","MAREA":"長沙","LANE":" ","ALLEY":" ","HOUSE_NO":"２５號","E_COORD97":157289.01000000001,"N_COORD97":2568697.9700000002,"ADDRESS":"長沙２５號","OBJECTID":312059},"geometry":{"x":157289.00999999978,"y":2568697.9700000025}},{"attributes":{"ID":312068,"DIS_CODE":0,"TOWNNAME":"北區","LI":"六甲里","LIN":"7鄰","STREET":"西門路","SECT":"四段","MAREA":" ","LANE":"２００巷","ALLEY":" ","HOUSE_NO":"３０號八樓","E_COORD97":168970.89999999999,"N_COORD97":2545602.3999999999,"ADDRESS":"西門路四段２００巷３０號八樓","OBJECTID":312060},"geometry":{"x":168970.9000000013,"y":2545602.4000000022}},{"attributes":{"ID":312069,"DIS_CODE":0,"TOWNNAME":"北區","LI":"六甲里","LIN":"7鄰","STREET":"西門路","SECT":"四段","MAREA":" ","LANE":"２００巷","ALLEY":" ","HOUSE_NO":"３０號三樓","E_COORD97":168970.89999999999,"N_COORD97":2545602.3999999999,"ADDRESS":"西門路四段２００巷３０號三樓","OBJECTID":312061},"geometry":{"x":168970.9000000013,"y":2545602.4000000022}},{"attributes":{"ID":312070,"DIS_CODE":0,"TOWNNAME":"北區","LI":"六甲里","LIN":"7鄰","STREET":"西門路","SECT":"四段","MAREA":" ","LANE":"２００巷","ALLEY":" ","HOUSE_NO":"３０號五樓","E_COORD97":168970.89999999999,"N_COORD97":2545602.3999999999,"ADDRESS":"西門路四段２００巷３０號五樓","OBJECTID":312062},"geometry":{"x":168970.9000000013,"y":2545602.4000000022}},{"attributes":{"ID":312071,"DIS_CODE":0,"TOWNNAME":"北區","LI":"六甲里","LIN":"7鄰","STREET":"西門路","SECT":"四段","MAREA":" ","LANE":"２００巷","ALLEY":" ","HOUSE_NO":"３０號六樓","E_COORD97":168970.89999999999,"N_COORD97":2545602.3999999999,"ADDRESS":"西門路四段２００巷３０號六樓","OBJECTID":312063},"geometry":{"x":168970.9000000013,"y":2545602.4000000022}},{"attributes":{"ID":312072,"DIS_CODE":0,"TOWNNAME":"將軍區","LI":"長沙里","LIN":"1鄰","STREET":" ","SECT":" ","MAREA":"長沙","LANE":" ","ALLEY":" ","HOUSE_NO":"２之６號","E_COORD97":157458.01999999999,"N_COORD97":2568682.2799999998,"ADDRESS":"長沙２之６號","OBJECTID":312064},"geometry":{"x":157458.01999999955,"y":2568682.2799999993}},{"attributes":{"ID":312073,"DIS_CODE":0,"TOWNNAME":"北區","LI":"六甲里","LIN":"6鄰","STREET":"西門路","SECT":"四段","MAREA":" ","LANE":"２００巷","ALLEY":" ","HOUSE_NO":"１０號","E_COORD97":168882.84,"N_COORD97":2545602.8199999998,"ADDRESS":"西門路四段２００巷１０號","OBJECTID":312065},"geometry":{"x":168882.84000000078,"y":2545602.8200000022}},{"attributes":{"ID":312074,"DIS_CODE":0,"TOWNNAME":"北區","LI":"六甲里","LIN":"7鄰","STREET":"西門路","SECT":"四段","MAREA":" ","LANE":"２００巷","ALLEY":" ","HOUSE_NO":"３０號四樓","E_COORD97":168970.89999999999,"N_COORD97":2545602.3999999999,"ADDRESS":"西門路四段２００巷３０號四樓","OBJECTID":312066},"geometry":{"x":168970.9000000013,"y":2545602.4000000022}},{"attributes":{"ID":312075,"DIS_CODE":0,"TOWNNAME":"北區","LI":"六甲里","LIN":"7鄰","STREET":"西門路","SECT":"四段","MAREA":" ","LANE":"２００巷","ALLEY":" ","HOUSE_NO":"３２號七樓","E_COORD97":168972.59,"N_COORD97":2545615.46,"ADDRESS":"西門路四段２００巷３２號七樓","OBJECTID":312067},"geometry":{"x":168972.59000000078,"y":2545615.4600000046}},{"attributes":{"ID":312076,"DIS_CODE":0,"TOWNNAME":"北區","LI":"六甲里","LIN":"7鄰","STREET":"西門路","SECT":"四段","MAREA":" ","LANE":"２００巷","ALLEY":" ","HOUSE_NO":"３２號九樓","E_COORD97":168972.59,"N_COORD97":2545615.46,"ADDRESS":"西門路四段２００巷３２號九樓","OBJECTID":312068},"geometry":{"x":168972.59000000078,"y":2545615.4600000046}},{"attributes":{"ID":312077,"DIS_CODE":0,"TOWNNAME":"安南區","LI":"理想里","LIN":"17鄰","STREET":"大安街","SECT":" ","MAREA":" ","LANE":" ","ALLEY":" ","HOUSE_NO":"２１１號","E_COORD97":167399.45999999999,"N_COORD97":2548345.9399999999,"ADDRESS":"大安街２１１號","OBJECTID":312069},"geometry":{"x":167399.45999999996,"y":2548345.9399999995}},{"attributes":{"ID":312078,"DIS_CODE":0,"TOWNNAME":"將軍區","LI":"長沙里","LIN":"1鄰","STREET":" ","SECT":" ","MAREA":"長沙","LANE":" ","ALLEY":" ","HOUSE_NO":"２之７號","E_COORD97":157462.70000000001,"N_COORD97":2568682.1400000001,"ADDRESS":"長沙２之７號","OBJECTID":312070},"geometry":{"x":157462.70000000019,"y":2568682.1400000043}},{"attributes":{"ID":312079,"DIS_CODE":0,"TOWNNAME":"將軍區","LI":"長沙里","LIN":"1鄰","STREET":" ","SECT":" ","MAREA":"長沙","LANE":" ","ALLEY":" ","HOUSE_NO":"２之８號","E_COORD97":157467,"N_COORD97":2568682.1400000001,"ADDRESS":"長沙２之８號","OBJECTID":312071},"geometry":{"x":157467,"y":2568682.1400000043}},{"attributes":{"ID":312080,"DIS_CODE":0,"TOWNNAME":"將軍區","LI":"長沙里","LIN":"1鄰","STREET":" ","SECT":" ","MAREA":"長沙","LANE":" ","ALLEY":" ","HOUSE_NO":"５號","E_COORD97":157381.84,"N_COORD97":2568640.21,"ADDRESS":"長沙５號","OBJECTID":312072},"geometry":{"x":157381.83999999892,"y":2568640.2100000009}},{"attributes":{"ID":312081,"DIS_CODE":0,"TOWNNAME":"將軍區","LI":"長沙里","LIN":"1鄰","STREET":" ","SECT":" ","MAREA":"長沙","LANE":" ","ALLEY":" ","HOUSE_NO":"７號","E_COORD97":157362.63,"N_COORD97":2568644.3300000001,"ADDRESS":"長沙７號","OBJECTID":312073},"geometry":{"x":157362.62999999989,"y":2568644.3300000019}},{"attributes":{"ID":312082,"DIS_CODE":0,"TOWNNAME":"六甲區","LI":"中社里","LIN":"4鄰","STREET":" ","SECT":" ","MAREA":"中社","LANE":" ","ALLEY":" ","HOUSE_NO":"８４號","E_COORD97":181060.47,"N_COORD97":2570845.6800000002,"ADDRESS":"中社８４號","OBJECTID":312074},"geometry":{"x":181060.46999999974,"y":2570845.6800000016}},{"attributes":{"ID":312083,"DIS_CODE":0,"TOWNNAME":"六甲區","LI":"中社里","LIN":"8鄰","STREET":" ","SECT":" ","MAREA":"中社","LANE":" ","ALLEY":" ","HOUSE_NO":"３２４號","E_COORD97":180890.42999999999,"N_COORD97":2570896.1699999999,"ADDRESS":"中社３２４號","OBJECTID":312075},"geometry":{"x":180890.43000000063,"y":2570896.1700000018}},{"attributes":{"ID":312084,"DIS_CODE":0,"TOWNNAME":"北區","LI":"振興里","LIN":"18鄰","STREET":"林森路","SECT":"三段","MAREA":" ","LANE":"１７１巷","ALLEY":" ","HOUSE_NO":"１７號","E_COORD97":170492.60000000001,"N_COORD97":2545114.1600000001,"ADDRESS":"林森路三段１７１巷１７號","OBJECTID":312076},"geometry":{"x":170492.60000000056,"y":2545114.1600000001}},{"attributes":{"ID":312085,"DIS_CODE":0,"TOWNNAME":"北區","LI":"振興里","LIN":"18鄰","STREET":"林森路","SECT":"三段","MAREA":" ","LANE":"１７１巷","ALLEY":" ","HOUSE_NO":"２５號","E_COORD97":170480.5,"N_COORD97":2545097.3599999999,"ADDRESS":"林森路三段１７１巷２５號","OBJECTID":312077},"geometry":{"x":170480.50000000093,"y":2545097.3600000013}},{"attributes":{"ID":312086,"DIS_CODE":0,"TOWNNAME":"北區","LI":"國姓里","LIN":"9鄰","STREET":"公園路","SECT":" ","MAREA":" ","LANE":"４２７巷","ALLEY":" ","HOUSE_NO":"１號","E_COORD97":168975.07000000001,"N_COORD97":2545299.1499999999,"ADDRESS":"公園路４２７巷１號","OBJECTID":312078},"geometry":{"x":168975.07000000123,"y":2545299.1500000022}},{"attributes":{"ID":312087,"DIS_CODE":0,"TOWNNAME":"新營區","LI":"興業里","LIN":" ","STREET":"中興路","SECT":" ","MAREA":" ","LANE":"１５巷","ALLEY":" ","HOUSE_NO":"７之３號","E_COORD97":180178.14000000001,"N_COORD97":2577937.3599999999,"ADDRESS":"中興路１５巷７之３號","OBJECTID":312079},"geometry":{"x":180178.13999999966,"y":2577937.3599999994}},{"attributes":{"ID":312088,"DIS_CODE":0,"TOWNNAME":"北區","LI":"六甲里","LIN":"7鄰","STREET":"西門路","SECT":"四段","MAREA":" ","LANE":"２００巷","ALLEY":" ","HOUSE_NO":"３２號二樓","E_COORD97":168972.59,"N_COORD97":2545615.46,"ADDRESS":"西門路四段２００巷３２號二樓","OBJECTID":312080},"geometry":{"x":168972.59000000078,"y":2545615.4600000046}},{"attributes":{"ID":312089,"DIS_CODE":0,"TOWNNAME":"北區","LI":"六甲里","LIN":"7鄰","STREET":"西門路","SECT":"四段","MAREA":" ","LANE":"２００巷","ALLEY":" ","HOUSE_NO":"３２號八樓","E_COORD97":168972.59,"N_COORD97":2545615.46,"ADDRESS":"西門路四段２００巷３２號八樓","OBJECTID":312081},"geometry":{"x":168972.59000000078,"y":2545615.4600000046}},{"attributes":{"ID":312090,"DIS_CODE":0,"TOWNNAME":"北區","LI":"六甲里","LIN":"7鄰","STREET":"西門路","SECT":"四段","MAREA":" ","LANE":"２００巷","ALLEY":" ","HOUSE_NO":"３２號三樓","E_COORD97":168972.59,"N_COORD97":2545615.46,"ADDRESS":"西門路四段２００巷３２號三樓","OBJECTID":312082},"geometry":{"x":168972.59000000078,"y":2545615.4600000046}},{"attributes":{"ID":312091,"DIS_CODE":0,"TOWNNAME":"北區","LI":"六甲里","LIN":"7鄰","STREET":"西門路","SECT":"四段","MAREA":" ","LANE":"２００巷","ALLEY":" ","HOUSE_NO":"３２號五樓","E_COORD97":168972.59,"N_COORD97":2545615.46,"ADDRESS":"西門路四段２００巷３２號五樓","OBJECTID":312083},"geometry":{"x":168972.59000000078,"y":2545615.4600000046}},{"attributes":{"ID":312092,"DIS_CODE":0,"TOWNNAME":"安南區","LI":"理想里","LIN":"17鄰","STREET":"大安街","SECT":" ","MAREA":" ","LANE":" ","ALLEY":" ","HOUSE_NO":"２１３號","E_COORD97":167402.23999999999,"N_COORD97":2548350.6699999999,"ADDRESS":"大安街２１３號","OBJECTID":312084},"geometry":{"x":167402.24000000115,"y":2548350.6700000018}},{"attributes":{"ID":312093,"DIS_CODE":0,"TOWNNAME":"安南區","LI":"理想里","LIN":"17鄰","STREET":"大安街","SECT":" ","MAREA":" ","LANE":" ","ALLEY":" ","HOUSE_NO":"２３１號","E_COORD97":167427.29999999999,"N_COORD97":2548387.04,"ADDRESS":"大安街２３１號","OBJECTID":312085},"geometry":{"x":167427.29999999981,"y":2548387.040000001}},{"attributes":{"ID":312094,"DIS_CODE":0,"TOWNNAME":"新營區","LI":"鐵線里","LIN":" ","STREET":" ","SECT":" ","MAREA":"鐵線橋","LANE":" ","ALLEY":" ","HOUSE_NO":"１３０之１８號","E_COORD97":175729.92999999999,"N_COORD97":2573800.5099999998,"ADDRESS":"鐵線橋１３０之１８號","OBJECTID":312086},"geometry":{"x":175729.93000000156,"y":2573800.5099999998}},{"attributes":{"ID":312095,"DIS_CODE":0,"TOWNNAME":"新營區","LI":"五興里","LIN":"6鄰","STREET":" ","SECT":" ","MAREA":"五間厝","LANE":" ","ALLEY":" ","HOUSE_NO":"７１號之１","E_COORD97":175846.53,"N_COORD97":2574696.9500000002,"ADDRESS":"五間厝７１之１號","OBJECTID":312087},"geometry":{"x":175846.53000000026,"y":2574696.9500000011}},{"attributes":{"ID":312096,"DIS_CODE":0,"TOWNNAME":"新營區","LI":"鐵線里","LIN":" ","STREET":" ","SECT":" ","MAREA":"鐵線橋","LANE":" ","ALLEY":" ","HOUSE_NO":"８８之１號","E_COORD97":175980.34,"N_COORD97":2573822.5,"ADDRESS":"鐵線橋８８之１號","OBJECTID":312088},"geometry":{"x":175980.34000000078,"y":2573822.5000000037}},{"attributes":{"ID":312097,"DIS_CODE":0,"TOWNNAME":"柳營區","LI":"旭山里","LIN":"18鄰","STREET":" ","SECT":" ","MAREA":"山子腳","LANE":" ","ALLEY":" ","HOUSE_NO":"２５之２２號","E_COORD97":187149.92999999999,"N_COORD97":2575328.2400000002,"ADDRESS":"山子腳２５之２２號","OBJECTID":312089},"geometry":{"x":187149.9299999997,"y":2575328.2400000002}},{"attributes":{"ID":312098,"DIS_CODE":0,"TOWNNAME":"柳營區","LI":"旭山里","LIN":"20鄰","STREET":" ","SECT":" ","MAREA":"山子腳","LANE":" ","ALLEY":" ","HOUSE_NO":"４５之１號","E_COORD97":187179.89999999999,"N_COORD97":2574345.8399999999,"ADDRESS":"山子腳４５之１號","OBJECTID":312090},"geometry":{"x":187179.90000000037,"y":2574345.8400000017}},{"attributes":{"ID":312099,"DIS_CODE":0,"TOWNNAME":"柳營區","LI":"旭山里","LIN":"20鄰","STREET":" ","SECT":" ","MAREA":"山子腳","LANE":" ","ALLEY":" ","HOUSE_NO":"４６號之２","E_COORD97":187188.04999999999,"N_COORD97":2574344.7200000002,"ADDRESS":"山子腳４６號之２","OBJECTID":312091},"geometry":{"x":187188.04999999981,"y":2574344.7200000025}},{"attributes":{"ID":312100,"DIS_CODE":0,"TOWNNAME":"安南區","LI":"理想里","LIN":"17鄰","STREET":"大安街","SECT":" ","MAREA":" ","LANE":" ","ALLEY":" ","HOUSE_NO":"２３３號","E_COORD97":167429.56,"N_COORD97":2548390.9399999999,"ADDRESS":"大安街２３３號","OBJECTID":312092},"geometry":{"x":167429.56000000052,"y":2548390.9400000032}},{"attributes":{"ID":312101,"DIS_CODE":0,"TOWNNAME":"安南區","LI":"理想里","LIN":"17鄰","STREET":"大安街","SECT":" ","MAREA":" ","LANE":" ","ALLEY":" ","HOUSE_NO":"２４７號","E_COORD97":167453.95999999999,"N_COORD97":2548431.8900000001,"ADDRESS":"大安街２４７號","OBJECTID":312093},"geometry":{"x":167453.95999999903,"y":2548431.8900000006}},{"attributes":{"ID":312102,"DIS_CODE":0,"TOWNNAME":"安南區","LI":"理想里","LIN":"17鄰","STREET":"大安街","SECT":" ","MAREA":" ","LANE":" ","ALLEY":" ","HOUSE_NO":"２４９號","E_COORD97":167457.04000000001,"N_COORD97":2548435.27,"ADDRESS":"大安街２４９號","OBJECTID":312094},"geometry":{"x":167457.0400000019,"y":2548435.2699999996}},{"attributes":{"ID":312103,"DIS_CODE":0,"TOWNNAME":"新營區","LI":"埤寮里","LIN":"2鄰","STREET":" ","SECT":" ","MAREA":"許丑","LANE":" ","ALLEY":" ","HOUSE_NO":"１９號之３","E_COORD97":179955.5,"N_COORD97":2580994.98,"ADDRESS":"許丑１９號之３","OBJECTID":312095},"geometry":{"x":179955.5,"y":2580994.9800000023}},{"attributes":{"ID":312104,"DIS_CODE":0,"TOWNNAME":"柳營區","LI":"旭山里","LIN":"17鄰","STREET":" ","SECT":" ","MAREA":"山子腳","LANE":" ","ALLEY":" ","HOUSE_NO":"１７號","E_COORD97":187124.10999999999,"N_COORD97":2574477.0299999998,"ADDRESS":"山子腳１７號","OBJECTID":312096},"geometry":{"x":187124.11000000034,"y":2574477.0300000012}},{"attributes":{"ID":312105,"DIS_CODE":0,"TOWNNAME":"柳營區","LI":"旭山里","LIN":"17鄰","STREET":" ","SECT":" ","MAREA":"山子腳","LANE":" ","ALLEY":" ","HOUSE_NO":"１９號","E_COORD97":187111.04999999999,"N_COORD97":2574526.8300000001,"ADDRESS":"山子腳１９號","OBJECTID":312097},"geometry":{"x":187111.05000000075,"y":2574526.8300000019}},{"attributes":{"ID":312106,"DIS_CODE":0,"TOWNNAME":"新營區","LI":"五興里","LIN":"10鄰","STREET":" ","SECT":" ","MAREA":"五間厝","LANE":" ","ALLEY":" ","HOUSE_NO":"１１３號之１１","E_COORD97":175656.79000000001,"N_COORD97":2574724.4900000002,"ADDRESS":"五間厝１１３之１１號","OBJECTID":312098},"geometry":{"x":175656.79000000097,"y":2574724.4900000039}},{"attributes":{"ID":312107,"DIS_CODE":0,"TOWNNAME":"新營區","LI":"五興里","LIN":"10鄰","STREET":" ","SECT":" ","MAREA":"五間厝","LANE":" ","ALLEY":" ","HOUSE_NO":"１１３號之７","E_COORD97":175694.38,"N_COORD97":2574715.4399999999,"ADDRESS":"五間厝１１３之７號","OBJECTID":312099},"geometry":{"x":175694.37999999989,"y":2574715.4400000013}},{"attributes":{"ID":312108,"DIS_CODE":0,"TOWNNAME":"新營區","LI":"太北里","LIN":" ","STREET":" ","SECT":" ","MAREA":"太子宮","LANE":" ","ALLEY":" ","HOUSE_NO":"１３９號","E_COORD97":175832.59,"N_COORD97":2576869.7999999998,"ADDRESS":"太子宮１３９號","OBJECTID":312100},"geometry":{"x":175832.59000000078,"y":2576869.8000000026}},{"attributes":{"ID":312109,"DIS_CODE":0,"TOWNNAME":"新營區","LI":"護鎮里","LIN":" ","STREET":" ","SECT":" ","MAREA":"後鎮","LANE":" ","ALLEY":" ","HOUSE_NO":"１０之６號","E_COORD97":179347.92999999999,"N_COORD97":2581189.46,"ADDRESS":"後鎮１０之６號","OBJECTID":312101},"geometry":{"x":179347.93000000063,"y":2581189.4600000009}},{"attributes":{"ID":312110,"DIS_CODE":0,"TOWNNAME":"新營區","LI":"護鎮里","LIN":"5鄰","STREET":" ","SECT":" ","MAREA":"後鎮","LANE":" ","ALLEY":" ","HOUSE_NO":"５６號","E_COORD97":179108.98000000001,"N_COORD97":2581141.8199999998,"ADDRESS":"後鎮５６號","OBJECTID":312102},"geometry":{"x":179108.98000000231,"y":2581141.8200000022}},{"attributes":{"ID":312111,"DIS_CODE":0,"TOWNNAME":"新營區","LI":"埤寮里","LIN":"12鄰","STREET":" ","SECT":" ","MAREA":"埤寮","LANE":" ","ALLEY":" ","HOUSE_NO":"８９號之１","E_COORD97":180439.63,"N_COORD97":2580847.6299999999,"ADDRESS":"埤寮８９號之１","OBJECTID":312103},"geometry":{"x":180439.62999999896,"y":2580847.629999999}},{"attributes":{"ID":312112,"DIS_CODE":0,"TOWNNAME":"新營區","LI":"嘉芳里","LIN":"5鄰","STREET":" ","SECT":" ","MAREA":"茄苳腳","LANE":" ","ALLEY":" ","HOUSE_NO":"５７號之２０","E_COORD97":176882.20000000001,"N_COORD97":2578438.3399999999,"ADDRESS":"茄苳腳５７之２０號","OBJECTID":312104},"geometry":{"x":176882.20000000019,"y":2578438.3400000017}},{"attributes":{"ID":312113,"DIS_CODE":0,"TOWNNAME":"新營區","LI":"嘉芳里","LIN":"15鄰","STREET":"復興路","SECT":" ","MAREA":" ","LANE":"１０００巷","ALLEY":" ","HOUSE_NO":"１號之２１","E_COORD97":176331.20999999999,"N_COORD97":2578966,"ADDRESS":"復興路１０００巷１之２１號","OBJECTID":312105},"geometry":{"x":176331.20999999996,"y":2578966.0000000019}},{"attributes":{"ID":312114,"DIS_CODE":0,"TOWNNAME":"新營區","LI":"忠政里","LIN":"32鄰","STREET":"府西路","SECT":" ","MAREA":" ","LANE":"１７巷","ALLEY":" ","HOUSE_NO":"３２號","E_COORD97":179738.73999999999,"N_COORD97":2578928.3399999999,"ADDRESS":"府西路１７巷３２號","OBJECTID":312106},"geometry":{"x":179738.74000000022,"y":2578928.3399999999}},{"attributes":{"ID":312115,"DIS_CODE":0,"TOWNNAME":"北區","LI":"六甲里","LIN":"7鄰","STREET":"西門路","SECT":"四段","MAREA":" ","LANE":"２００巷","ALLEY":" ","HOUSE_NO":"３２號六樓","E_COORD97":168972.59,"N_COORD97":2545615.46,"ADDRESS":"西門路四段２００巷３２號六樓","OBJECTID":312107},"geometry":{"x":168972.59000000078,"y":2545615.4600000046}},{"attributes":{"ID":312116,"DIS_CODE":0,"TOWNNAME":"北區","LI":"六甲里","LIN":"7鄰","STREET":"西門路","SECT":"四段","MAREA":" ","LANE":"２００巷","ALLEY":" ","HOUSE_NO":"３２號四樓","E_COORD97":168972.59,"N_COORD97":2545615.46,"ADDRESS":"西門路四段２００巷３２號四樓","OBJECTID":312108},"geometry":{"x":168972.59000000078,"y":2545615.4600000046}},{"attributes":{"ID":312117,"DIS_CODE":0,"TOWNNAME":"安南區","LI":"理想里","LIN":"17鄰","STREET":"大安街","SECT":" ","MAREA":" ","LANE":" ","ALLEY":" ","HOUSE_NO":"２５１號","E_COORD97":167458.92000000001,"N_COORD97":2548439.7200000002,"ADDRESS":"大安街２５１號","OBJECTID":312109},"geometry":{"x":167458.91999999993,"y":2548439.7200000007}},{"attributes":{"ID":312118,"DIS_CODE":0,"TOWNNAME":"安南區","LI":"理想里","LIN":"17鄰","STREET":"大安街","SECT":" ","MAREA":" ","LANE":" ","ALLEY":" ","HOUSE_NO":"２５５號","E_COORD97":167464.70000000001,"N_COORD97":2548447,"ADDRESS":"大安街２５５號","OBJECTID":312110},"geometry":{"x":167464.70000000205,"y":2548447}},{"attributes":{"ID":312119,"DIS_CODE":0,"TOWNNAME":"新營區","LI":"埤寮里","LIN":"2鄰","STREET":" ","SECT":" ","MAREA":"許丑","LANE":" ","ALLEY":" ","HOUSE_NO":"２２號之１６","E_COORD97":179997.35999999999,"N_COORD97":2580916.1699999999,"ADDRESS":"許丑２２號之１６","OBJECTID":312111},"geometry":{"x":179997.36000000034,"y":2580916.1699999999}},{"attributes":{"ID":312120,"DIS_CODE":0,"TOWNNAME":"新營區","LI":"大宏里","LIN":"18鄰","STREET":"民族路","SECT":" ","MAREA":" ","LANE":" ","ALLEY":" ","HOUSE_NO":"１８號之１","E_COORD97":180330.60999999999,"N_COORD97":2578559.04,"ADDRESS":"民族路１８號之１","OBJECTID":312112},"geometry":{"x":180330.61000000127,"y":2578559.040000001}},{"attributes":{"ID":312121,"DIS_CODE":0,"TOWNNAME":"新營區","LI":"五興里","LIN":"1鄰","STREET":" ","SECT":" ","MAREA":"五間厝","LANE":" ","ALLEY":" ","HOUSE_NO":"２號之４","E_COORD97":175944.25,"N_COORD97":2574839.3199999998,"ADDRESS":"五間厝２之４號","OBJECTID":312113},"geometry":{"x":175944.25,"y":2574839.3200000003}},{"attributes":{"ID":312122,"DIS_CODE":0,"TOWNNAME":"新營區","LI":"王公里","LIN":"12鄰","STREET":"義和街","SECT":" ","MAREA":" ","LANE":" ","ALLEY":" ","HOUSE_NO":"７號之１","E_COORD97":180511.51999999999,"N_COORD97":2579006.7000000002,"ADDRESS":"義和街７號之１","OBJECTID":312114},"geometry":{"x":180511.52000000048,"y":2579006.6999999993}},{"attributes":{"ID":312123,"DIS_CODE":0,"TOWNNAME":"新營區","LI":"民生里","LIN":" ","STREET":"民生路","SECT":" ","MAREA":" ","LANE":"１６３巷","ALLEY":" ","HOUSE_NO":"１００之１號","E_COORD97":179084.91,"N_COORD97":2578541.7000000002,"ADDRESS":"民生路１６３巷１００之１號","OBJECTID":312115},"geometry":{"x":179084.91000000015,"y":2578541.6999999993}},{"attributes":{"ID":312124,"DIS_CODE":0,"TOWNNAME":"新營區","LI":"南興里","LIN":"7鄰","STREET":"和平路","SECT":" ","MAREA":" ","LANE":"９５巷","ALLEY":" ","HOUSE_NO":"１０號","E_COORD97":179446.97,"N_COORD97":2577603,"ADDRESS":"和平街９５巷１０號","OBJECTID":312116},"geometry":{"x":179446.96999999974,"y":2577603.0000000019}},{"attributes":{"ID":312125,"DIS_CODE":0,"TOWNNAME":"新營區","LI":"嘉芳里","LIN":"5鄰","STREET":" ","SECT":" ","MAREA":"茄苳腳","LANE":" ","ALLEY":" ","HOUSE_NO":"５８號","E_COORD97":176927.60000000001,"N_COORD97":2578448.02,"ADDRESS":"茄苳腳５８號","OBJECTID":312117},"geometry":{"x":176927.60000000056,"y":2578448.0199999996}},{"attributes":{"ID":312126,"DIS_CODE":0,"TOWNNAME":"新營區","LI":"埤寮里","LIN":"4鄰","STREET":" ","SECT":" ","MAREA":"許丑","LANE":" ","ALLEY":" ","HOUSE_NO":"５０號","E_COORD97":179776.28,"N_COORD97":2581034.54,"ADDRESS":"許丑５０號","OBJECTID":312118},"geometry":{"x":179776.28000000212,"y":2581034.5399999991}},{"attributes":{"ID":312127,"DIS_CODE":0,"TOWNNAME":"新營區","LI":"民榮里","LIN":"26鄰","STREET":"復興路","SECT":" ","MAREA":" ","LANE":"３０５巷","ALLEY":" ","HOUSE_NO":"７６號","E_COORD97":178488.70000000001,"N_COORD97":2578064.9700000002,"ADDRESS":"復興路３０５巷７６號","OBJECTID":312119},"geometry":{"x":178488.70000000112,"y":2578064.9700000025}},{"attributes":{"ID":312128,"DIS_CODE":0,"TOWNNAME":"新營區","LI":"土庫里","LIN":"4鄰","STREET":" ","SECT":" ","MAREA":"土庫","LANE":" ","ALLEY":" ","HOUSE_NO":"３５之６號","E_COORD97":183300.85999999999,"N_COORD97":2580102.4300000002,"ADDRESS":"土庫３５之６號","OBJECTID":312120},"geometry":{"x":183300.86000000127,"y":2580102.4300000016}},{"attributes":{"ID":312129,"DIS_CODE":0,"TOWNNAME":"北區","LI":"六甲里","LIN":"7鄰","STREET":"西門路","SECT":"四段","MAREA":" ","LANE":"２００巷","ALLEY":" ","HOUSE_NO":"３４號七樓","E_COORD97":168962.67000000001,"N_COORD97":2545614.8300000001,"ADDRESS":"西門路四段２００巷３４號七樓","OBJECTID":312121},"geometry":{"x":168962.66999999993,"y":2545614.8300000001}},{"attributes":{"ID":312130,"DIS_CODE":0,"TOWNNAME":"新營區","LI":"土庫里","LIN":" ","STREET":" ","SECT":" ","MAREA":"土庫","LANE":" ","ALLEY":" ","HOUSE_NO":"６之２９號","E_COORD97":182969.28,"N_COORD97":2580075.1400000001,"ADDRESS":"土庫６之２９號","OBJECTID":312122},"geometry":{"x":182969.28000000026,"y":2580075.1400000025}},{"attributes":{"ID":312131,"DIS_CODE":0,"TOWNNAME":"新營區","LI":"護鎮里","LIN":" ","STREET":" ","SECT":" ","MAREA":"後鎮","LANE":" ","ALLEY":" ","HOUSE_NO":"９７之６號","E_COORD97":179056.26000000001,"N_COORD97":2580939.4700000002,"ADDRESS":"後鎮９７之６號","OBJECTID":312123},"geometry":{"x":179056.26000000071,"y":2580939.4700000044}},{"attributes":{"ID":312132,"DIS_CODE":0,"TOWNNAME":"北區","LI":"六甲里","LIN":"7鄰","STREET":"西門路","SECT":"四段","MAREA":" ","LANE":"２００巷","ALLEY":" ","HOUSE_NO":"３４號九樓","E_COORD97":168962.67000000001,"N_COORD97":2545614.8300000001,"ADDRESS":"西門路四段２００巷３４號九樓","OBJECTID":312124},"geometry":{"x":168962.66999999993,"y":2545614.8300000001}},{"attributes":{"ID":312133,"DIS_CODE":0,"TOWNNAME":"新營區","LI":"新南里","LIN":"30鄰","STREET":"長榮路","SECT":"二段","MAREA":" ","LANE":" ","ALLEY":" ","HOUSE_NO":"９８１號","E_COORD97":178171.88,"N_COORD97":2578930.3300000001,"ADDRESS":"長榮路二段９８１號","OBJECTID":312125},"geometry":{"x":178171.88000000082,"y":2578930.3300000019}},{"attributes":{"ID":312134,"DIS_CODE":0,"TOWNNAME":"新營區","LI":"埤寮里","LIN":"4鄰","STREET":" ","SECT":" ","MAREA":"許丑","LANE":" ","ALLEY":" ","HOUSE_NO":"４５號之６","E_COORD97":179724.35000000001,"N_COORD97":2580973.9300000002,"ADDRESS":"許丑４５號之６","OBJECTID":312126},"geometry":{"x":179724.35000000149,"y":2580973.9300000016}},{"attributes":{"ID":312135,"DIS_CODE":0,"TOWNNAME":"新營區","LI":"護鎮里","LIN":"4鄰","STREET":" ","SECT":" ","MAREA":"後鎮","LANE":" ","ALLEY":" ","HOUSE_NO":"４３號之２５","E_COORD97":179141.67999999999,"N_COORD97":2581193.7799999998,"ADDRESS":"後鎮４３之２５號","OBJECTID":312127},"geometry":{"x":179141.6799999997,"y":2581193.7800000031}},{"attributes":{"ID":312136,"DIS_CODE":0,"TOWNNAME":"新營區","LI":"太北里","LIN":"21鄰","STREET":" ","SECT":" ","MAREA":"太子宮","LANE":" ","ALLEY":" ","HOUSE_NO":"１５２號之５０","E_COORD97":175267.48000000001,"N_COORD97":2577259.2000000002,"ADDRESS":"太子宮１４７之５０號","OBJECTID":312128},"geometry":{"x":175267.47999999952,"y":2577259.2000000011}},{"attributes":{"ID":312137,"DIS_CODE":0,"TOWNNAME":"新營區","LI":"民生里","LIN":" ","STREET":"中華路","SECT":" ","MAREA":" ","LANE":" ","ALLEY":" ","HOUSE_NO":"９８之３號","E_COORD97":179256.70999999999,"N_COORD97":2578157.6899999999,"ADDRESS":"中華路９８之３號","OBJECTID":312129},"geometry":{"x":179256.71000000089,"y":2578157.6900000013}},{"attributes":{"ID":312138,"DIS_CODE":0,"TOWNNAME":"新營區","LI":"大宏里","LIN":"22鄰","STREET":"開元路","SECT":" ","MAREA":" ","LANE":" ","ALLEY":" ","HOUSE_NO":"６９號","E_COORD97":180914.07000000001,"N_COORD97":2578747.8300000001,"ADDRESS":"開元路６９號","OBJECTID":312130},"geometry":{"x":180914.07000000123,"y":2578747.8300000019}},{"attributes":{"ID":312139,"DIS_CODE":0,"TOWNNAME":"安南區","LI":"海南里","LIN":"17鄰","STREET":"國安街","SECT":" ","MAREA":" ","LANE":" ","ALLEY":" ","HOUSE_NO":"２４３號","E_COORD97":166525.75,"N_COORD97":2546910.6099999999,"ADDRESS":"國安街２４３號","OBJECTID":312131},"geometry":{"x":166525.75,"y":2546910.6099999994}},{"attributes":{"ID":312140,"DIS_CODE":0,"TOWNNAME":"安南區","LI":"州北里","LIN":"17鄰","STREET":"安和路","SECT":"六段","MAREA":" ","LANE":" ","ALLEY":" ","HOUSE_NO":"６１號之２","E_COORD97":169537.09,"N_COORD97":2552451.46,"ADDRESS":"安和路六段６１號之２","OBJECTID":312132},"geometry":{"x":169537.09000000078,"y":2552451.4600000028}},{"attributes":{"ID":312141,"DIS_CODE":0,"TOWNNAME":"新營區","LI":"永生里","LIN":"1鄰","STREET":"富源街","SECT":" ","MAREA":" ","LANE":" ","ALLEY":" ","HOUSE_NO":"４號之１","E_COORD97":180100.82000000001,"N_COORD97":2578014.1400000001,"ADDRESS":"富源街４號之１","OBJECTID":312133},"geometry":{"x":180100.8200000003,"y":2578014.1400000025}},{"attributes":{"ID":312142,"DIS_CODE":0,"TOWNNAME":"新營區","LI":"嘉芳里","LIN":" ","STREET":" ","SECT":" ","MAREA":"茄苳腳","LANE":" ","ALLEY":" ","HOUSE_NO":"３３之１號","E_COORD97":177006.64999999999,"N_COORD97":2578398.96,"ADDRESS":"茄苳腳３３之１號","OBJECTID":312134},"geometry":{"x":177006.65000000037,"y":2578398.9600000009}},{"attributes":{"ID":312143,"DIS_CODE":0,"TOWNNAME":"新營區","LI":"土庫里","LIN":" ","STREET":" ","SECT":" ","MAREA":"土庫","LANE":" ","ALLEY":" ","HOUSE_NO":"４８之１號","E_COORD97":183268.95000000001,"N_COORD97":2579834.5699999998,"ADDRESS":"土庫４８之１號","OBJECTID":312135},"geometry":{"x":183268.95000000205,"y":2579834.5700000022}},{"attributes":{"ID":312144,"DIS_CODE":0,"TOWNNAME":"仁德區","LI":"大甲里","LIN":"1鄰","STREET":"行大街","SECT":" ","MAREA":" ","LANE":" ","ALLEY":" ","HOUSE_NO":"２０９號","E_COORD97":169908.974973,"N_COORD97":2535086.73594,"ADDRESS":"行大街２０９號","OBJECTID":312136},"geometry":{"x":169908.97497300152,"y":2535086.7359360009}},{"attributes":{"ID":312145,"DIS_CODE":0,"TOWNNAME":"新營區","LI":"大宏里","LIN":"8鄰","STREET":"文昌街","SECT":" ","MAREA":" ","LANE":" ","ALLEY":" ","HOUSE_NO":"２４號之１","E_COORD97":180431.14000000001,"N_COORD97":2578388.0099999998,"ADDRESS":"文昌街２４號之１","OBJECTID":312137},"geometry":{"x":180431.1400000006,"y":2578388.0099999998}},{"attributes":{"ID":312146,"DIS_CODE":0,"TOWNNAME":"新營區","LI":"南紙里","LIN":"13鄰","STREET":"太子路","SECT":" ","MAREA":" ","LANE":"２００巷","ALLEY":" ","HOUSE_NO":"３３號","E_COORD97":177870.39999999999,"N_COORD97":2577955.0099999998,"ADDRESS":"太子路２００巷３３號","OBJECTID":312138},"geometry":{"x":177870.4000000013,"y":2577955.0100000035}},{"attributes":{"ID":312147,"DIS_CODE":0,"TOWNNAME":"新營區","LI":"忠政里","LIN":"13鄰","STREET":"中正路","SECT":" ","MAREA":" ","LANE":"７７巷","ALLEY":" ","HOUSE_NO":"８號","E_COORD97":180037.39999999999,"N_COORD97":2579627.9300000002,"ADDRESS":"中正路７７巷８號","OBJECTID":312139},"geometry":{"x":180037.4000000013,"y":2579627.9300000016}},{"attributes":{"ID":312148,"DIS_CODE":0,"TOWNNAME":"新營區","LI":"太北里","LIN":"18鄰","STREET":" ","SECT":" ","MAREA":"太子宮","LANE":" ","ALLEY":" ","HOUSE_NO":"８之３２號","E_COORD97":176201.82000000001,"N_COORD97":2577206.8900000001,"ADDRESS":"太子宮８之３２號","OBJECTID":312140},"geometry":{"x":176201.8200000003,"y":2577206.8900000006}},{"attributes":{"ID":312149,"DIS_CODE":0,"TOWNNAME":"新營區","LI":"興業里","LIN":" ","STREET":"中興路","SECT":" ","MAREA":" ","LANE":"１３巷","ALLEY":" ","HOUSE_NO":"１９之２號","E_COORD97":180229.69,"N_COORD97":2577979.2000000002,"ADDRESS":"中興路１３巷１９之２號","OBJECTID":312141},"geometry":{"x":180229.69000000227,"y":2577979.1999999993}},{"attributes":{"ID":312150,"DIS_CODE":0,"TOWNNAME":"新營區","LI":"興業里","LIN":" ","STREET":"中興路","SECT":" ","MAREA":" ","LANE":"１３巷","ALLEY":" ","HOUSE_NO":"１之１號","E_COORD97":180148.66,"N_COORD97":2577981.79,"ADDRESS":"中興路１３巷１之１號","OBJECTID":312142},"geometry":{"x":180148.66000000108,"y":2577981.7899999991}},{"attributes":{"ID":312151,"DIS_CODE":0,"TOWNNAME":"北區","LI":"六甲里","LIN":"7鄰","STREET":"西門路","SECT":"四段","MAREA":" ","LANE":"２００巷","ALLEY":" ","HOUSE_NO":"３４號二樓","E_COORD97":168962.67000000001,"N_COORD97":2545614.8300000001,"ADDRESS":"西門路四段２００巷３４號二樓","OBJECTID":312143},"geometry":{"x":168962.66999999993,"y":2545614.8300000001}},{"attributes":{"ID":312152,"DIS_CODE":0,"TOWNNAME":"北區","LI":"六甲里","LIN":"7鄰","STREET":"西門路","SECT":"四段","MAREA":" ","LANE":"２００巷","ALLEY":" ","HOUSE_NO":"３４號八樓","E_COORD97":168962.67000000001,"N_COORD97":2545614.8300000001,"ADDRESS":"西門路四段２００巷３４號八樓","OBJECTID":312144},"geometry":{"x":168962.66999999993,"y":2545614.8300000001}},{"attributes":{"ID":312153,"DIS_CODE":0,"TOWNNAME":"新營區","LI":"鐵線里","LIN":" ","STREET":" ","SECT":" ","MAREA":"鐵線橋","LANE":" ","ALLEY":" ","HOUSE_NO":"４８之１號","E_COORD97":176060.64000000001,"N_COORD97":2573713.5699999998,"ADDRESS":"鐵線橋４８之１號","OBJECTID":312145},"geometry":{"x":176060.63999999873,"y":2573713.570000004}},{"attributes":{"ID":312154,"DIS_CODE":0,"TOWNNAME":"新營區","LI":"太北里","LIN":"18鄰","STREET":" ","SECT":" ","MAREA":"太子宮","LANE":" ","ALLEY":" ","HOUSE_NO":"８號之２０","E_COORD97":176214.85999999999,"N_COORD97":2577216.79,"ADDRESS":"太子宮８號之２０","OBJECTID":312146},"geometry":{"x":176214.86000000127,"y":2577216.7900000028}},{"attributes":{"ID":312155,"DIS_CODE":0,"TOWNNAME":"北區","LI":"六甲里","LIN":"7鄰","STREET":"西門路","SECT":"四段","MAREA":" ","LANE":"２００巷","ALLEY":" ","HOUSE_NO":"３４號三樓","E_COORD97":168962.67000000001,"N_COORD97":2545614.8300000001,"ADDRESS":"西門路四段２００巷３４號三樓","OBJECTID":312147},"geometry":{"x":168962.66999999993,"y":2545614.8300000001}},{"attributes":{"ID":312156,"DIS_CODE":0,"TOWNNAME":"北區","LI":"六甲里","LIN":"7鄰","STREET":"西門路","SECT":"四段","MAREA":" ","LANE":"２００巷","ALLEY":" ","HOUSE_NO":"３４號五樓","E_COORD97":168962.67000000001,"N_COORD97":2545614.8300000001,"ADDRESS":"西門路四段２００巷３４號五樓","OBJECTID":312148},"geometry":{"x":168962.66999999993,"y":2545614.8300000001}},{"attributes":{"ID":312157,"DIS_CODE":0,"TOWNNAME":"北區","LI":"六甲里","LIN":"7鄰","STREET":"西門路","SECT":"四段","MAREA":" ","LANE":"２００巷","ALLEY":" ","HOUSE_NO":"３４號六樓","E_COORD97":168962.67000000001,"N_COORD97":2545614.8300000001,"ADDRESS":"西門路四段２００巷３４號六樓","OBJECTID":312149},"geometry":{"x":168962.66999999993,"y":2545614.8300000001}},{"attributes":{"ID":312158,"DIS_CODE":0,"TOWNNAME":"北區","LI":"六甲里","LIN":"7鄰","STREET":"西門路","SECT":"四段","MAREA":" ","LANE":"２００巷","ALLEY":" ","HOUSE_NO":"３４號四樓","E_COORD97":168962.67000000001,"N_COORD97":2545614.8300000001,"ADDRESS":"西門路四段２００巷３４號四樓","OBJECTID":312150},"geometry":{"x":168962.66999999993,"y":2545614.8300000001}},{"attributes":{"ID":312159,"DIS_CODE":0,"TOWNNAME":"新營區","LI":"鐵線里","LIN":" ","STREET":" ","SECT":" ","MAREA":"鐵線橋","LANE":" ","ALLEY":" ","HOUSE_NO":"１５之１０號","E_COORD97":176103.07999999999,"N_COORD97":2573988.0099999998,"ADDRESS":"鐵線橋１５之１０號","OBJECTID":312151},"geometry":{"x":176103.08000000101,"y":2573988.0100000035}},{"attributes":{"ID":312160,"DIS_CODE":0,"TOWNNAME":"新營區","LI":"嘉芳里","LIN":" ","STREET":" ","SECT":" ","MAREA":"茄苳腳","LANE":" ","ALLEY":" ","HOUSE_NO":"３５之１號","E_COORD97":177012.07000000001,"N_COORD97":2578460.9500000002,"ADDRESS":"茄苳腳３５之１號","OBJECTID":312152},"geometry":{"x":177012.0700000003,"y":2578460.9500000011}},{"attributes":{"ID":312161,"DIS_CODE":0,"TOWNNAME":"安南區","LI":"城東里","LIN":"1鄰","STREET":"安明路","SECT":"四段","MAREA":" ","LANE":" ","ALLEY":" ","HOUSE_NO":"８２６號","E_COORD97":161431.39000000001,"N_COORD97":2553186.6499999999,"ADDRESS":"安明路四段８２６號","OBJECTID":312153},"geometry":{"x":161431.3900000006,"y":2553186.6500000004}},{"attributes":{"ID":312162,"DIS_CODE":0,"TOWNNAME":"永康區","LI":"中興里","LIN":"17鄰","STREET":"中華路","SECT":" ","MAREA":" ","LANE":" ","ALLEY":" ","HOUSE_NO":"２８０號之４６","E_COORD97":171622.60000000001,"N_COORD97":2545198.5499999998,"ADDRESS":"中華路２８０號之４６","OBJECTID":312154},"geometry":{"x":171622.59999999963,"y":2545198.5500000026}},{"attributes":{"ID":312163,"DIS_CODE":0,"TOWNNAME":"永康區","LI":"中興里","LIN":"17鄰","STREET":"中華路","SECT":" ","MAREA":" ","LANE":" ","ALLEY":" ","HOUSE_NO":"２８０號之４８","E_COORD97":171618.17999999999,"N_COORD97":2545210.2999999998,"ADDRESS":"中華路２８０號之４８","OBJECTID":312155},"geometry":{"x":171618.18000000063,"y":2545210.3000000026}},{"attributes":{"ID":312164,"DIS_CODE":0,"TOWNNAME":"永康區","LI":"中興里","LIN":"17鄰","STREET":"中華路","SECT":" ","MAREA":" ","LANE":" ","ALLEY":" ","HOUSE_NO":"２８０號之３７","E_COORD97":171656.87,"N_COORD97":2545277.98,"ADDRESS":"中華路２８０號之３７","OBJECTID":312156},"geometry":{"x":171656.87000000011,"y":2545277.9800000004}},{"attributes":{"ID":312165,"DIS_CODE":0,"TOWNNAME":"永康區","LI":"中興里","LIN":"17鄰","STREET":"中華路","SECT":" ","MAREA":" ","LANE":" ","ALLEY":" ","HOUSE_NO":"２３６號","E_COORD97":171639.26999999999,"N_COORD97":2545102,"ADDRESS":"中華路２３６號","OBJECTID":312157},"geometry":{"x":171639.27000000048,"y":2545102}},{"attributes":{"ID":312166,"DIS_CODE":0,"TOWNNAME":"永康區","LI":"中興里","LIN":"17鄰","STREET":"中華路","SECT":" ","MAREA":" ","LANE":" ","ALLEY":" ","HOUSE_NO":"２４２號","E_COORD97":171636.89999999999,"N_COORD97":2545114.4900000002,"ADDRESS":"中華路２４２號","OBJECTID":312158},"geometry":{"x":171636.90000000224,"y":2545114.4900000021}},{"attributes":{"ID":312167,"DIS_CODE":0,"TOWNNAME":"新營區","LI":"民生里","LIN":"25鄰","STREET":"民生路","SECT":" ","MAREA":" ","LANE":"１３９巷","ALLEY":" ","HOUSE_NO":"２６號","E_COORD97":179163.31,"N_COORD97":2578593.2999999998,"ADDRESS":"民生路１３９巷２６號","OBJECTID":312159},"geometry":{"x":179163.30999999866,"y":2578593.3000000007}},{"attributes":{"ID":312168,"DIS_CODE":0,"TOWNNAME":"新營區","LI":"護鎮里","LIN":" ","STREET":" ","SECT":" ","MAREA":"後鎮","LANE":" ","ALLEY":" ","HOUSE_NO":"８５之１號","E_COORD97":179245.64000000001,"N_COORD97":2580956.2799999998,"ADDRESS":"後鎮８５之１號","OBJECTID":312160},"geometry":{"x":179245.63999999966,"y":2580956.2799999975}},{"attributes":{"ID":312169,"DIS_CODE":0,"TOWNNAME":"新營區","LI":"太南里","LIN":"20鄰","STREET":" ","SECT":" ","MAREA":"太子宮","LANE":" ","ALLEY":" ","HOUSE_NO":"３４２之７號","E_COORD97":176349.26999999999,"N_COORD97":2576979.1400000001,"ADDRESS":"太子宮３４２之７號","OBJECTID":312161},"geometry":{"x":176349.26999999955,"y":2576979.1400000025}},{"attributes":{"ID":312170,"DIS_CODE":0,"TOWNNAME":"新營區","LI":"埤寮里","LIN":"4鄰","STREET":" ","SECT":" ","MAREA":"許丑","LANE":" ","ALLEY":" ","HOUSE_NO":"４２之１８號","E_COORD97":179782.79000000001,"N_COORD97":2580955.9399999999,"ADDRESS":"許丑４２之１８號","OBJECTID":312162},"geometry":{"x":179782.7900000019,"y":2580955.9400000013}},{"attributes":{"ID":312171,"DIS_CODE":0,"TOWNNAME":"新營區","LI":"太北里","LIN":"10鄰","STREET":" ","SECT":" ","MAREA":"太子宮","LANE":" ","ALLEY":" ","HOUSE_NO":"８６之４號","E_COORD97":176185.81,"N_COORD97":2577072.9700000002,"ADDRESS":"太子宮８６之４號","OBJECTID":312163},"geometry":{"x":176185.80999999959,"y":2577072.9700000007}},{"attributes":{"ID":312172,"DIS_CODE":0,"TOWNNAME":"新營區","LI":"護鎮里","LIN":"1鄰","STREET":" ","SECT":" ","MAREA":"後鎮","LANE":" ","ALLEY":" ","HOUSE_NO":"３號之１３","E_COORD97":179609.34,"N_COORD97":2581087.4399999999,"ADDRESS":"後鎮３之１３號","OBJECTID":312164},"geometry":{"x":179609.34000000171,"y":2581087.4399999995}},{"attributes":{"ID":312173,"DIS_CODE":0,"TOWNNAME":"北區","LI":"六甲里","LIN":"7鄰","STREET":"西門路","SECT":"四段","MAREA":" ","LANE":"２００巷","ALLEY":" ","HOUSE_NO":"３６號七樓","E_COORD97":168968.29000000001,"N_COORD97":2545583.6699999999,"ADDRESS":"西門路四段２００巷３６號七樓","OBJECTID":312165},"geometry":{"x":168968.29000000004,"y":2545583.6700000018}},{"attributes":{"ID":312174,"DIS_CODE":0,"TOWNNAME":"新營區","LI":"嘉芳里","LIN":" ","STREET":" ","SECT":" ","MAREA":"茄苳腳","LANE":" ","ALLEY":" ","HOUSE_NO":"２１號","E_COORD97":177059.32000000001,"N_COORD97":2578389.7799999998,"ADDRESS":"茄苳腳２１號","OBJECTID":312166},"geometry":{"x":177059.32000000123,"y":2578389.7800000031}},{"attributes":{"ID":312175,"DIS_CODE":0,"TOWNNAME":"關廟區","LI":"新光里","LIN":"1鄰","STREET":"新湖街","SECT":" ","MAREA":" ","LANE":" ","ALLEY":" ","HOUSE_NO":"３３８號","E_COORD97":182958.92528200001,"N_COORD97":2542970.3419400002,"ADDRESS":"新湖街３３８號","OBJECTID":312167},"geometry":{"x":182958.92528199963,"y":2542970.3419400025}},{"attributes":{"ID":312176,"DIS_CODE":0,"TOWNNAME":"新營區","LI":"土庫里","LIN":"4鄰","STREET":" ","SECT":" ","MAREA":"土庫","LANE":" ","ALLEY":" ","HOUSE_NO":"２８號之１２","E_COORD97":183193.10999999999,"N_COORD97":2579977.7799999998,"ADDRESS":"土庫２８號之１２","OBJECTID":312168},"geometry":{"x":183193.11000000034,"y":2579977.7800000012}},{"attributes":{"ID":312177,"DIS_CODE":0,"TOWNNAME":"新營區","LI":"姑爺里","LIN":" ","STREET":" ","SECT":" ","MAREA":"挖仔","LANE":" ","ALLEY":" ","HOUSE_NO":"８之１１號","E_COORD97":173775.64999999999,"N_COORD97":2575871.3900000001,"ADDRESS":"挖仔８之１１號","OBJECTID":312169},"geometry":{"x":173775.65000000037,"y":2575871.3900000043}},{"attributes":{"ID":312178,"DIS_CODE":0,"TOWNNAME":"北區","LI":"六甲里","LIN":"7鄰","STREET":"西門路","SECT":"四段","MAREA":" ","LANE":"２００巷","ALLEY":" ","HOUSE_NO":"３６號二樓","E_COORD97":168968.29000000001,"N_COORD97":2545583.6699999999,"ADDRESS":"西門路四段２００巷３６號二樓","OBJECTID":312170},"geometry":{"x":168968.29000000004,"y":2545583.6700000018}},{"attributes":{"ID":312179,"DIS_CODE":0,"TOWNNAME":"北區","LI":"六甲里","LIN":"7鄰","STREET":"西門路","SECT":"四段","MAREA":" ","LANE":"２００巷","ALLEY":" ","HOUSE_NO":"３６號八樓","E_COORD97":168968.29000000001,"N_COORD97":2545583.6699999999,"ADDRESS":"西門路四段２００巷３６號八樓","OBJECTID":312171},"geometry":{"x":168968.29000000004,"y":2545583.6700000018}},{"attributes":{"ID":312180,"DIS_CODE":0,"TOWNNAME":"北區","LI":"六甲里","LIN":"7鄰","STREET":"西門路","SECT":"四段","MAREA":" ","LANE":"２００巷","ALLEY":" ","HOUSE_NO":"３６號三樓","E_COORD97":168968.29000000001,"N_COORD97":2545583.6699999999,"ADDRESS":"西門路四段２００巷３６號三樓","OBJECTID":312172},"geometry":{"x":168968.29000000004,"y":2545583.6700000018}},{"attributes":{"ID":312181,"DIS_CODE":0,"TOWNNAME":"北區","LI":"六甲里","LIN":"7鄰","STREET":"西門路","SECT":"四段","MAREA":" ","LANE":"２００巷","ALLEY":" ","HOUSE_NO":"３６號五樓","E_COORD97":168968.29000000001,"N_COORD97":2545583.6699999999,"ADDRESS":"西門路四段２００巷３６號五樓","OBJECTID":312173},"geometry":{"x":168968.29000000004,"y":2545583.6700000018}},{"attributes":{"ID":312182,"DIS_CODE":0,"TOWNNAME":"新營區","LI":"中營里","LIN":"8鄰","STREET":"新進路","SECT":" ","MAREA":" ","LANE":" ","ALLEY":" ","HOUSE_NO":"３４號","E_COORD97":180601.04000000001,"N_COORD97":2578285.27,"ADDRESS":"新進路３４號","OBJECTID":312174},"geometry":{"x":180601.04000000004,"y":2578285.2700000033}},{"attributes":{"ID":312183,"DIS_CODE":0,"TOWNNAME":"新營區","LI":"新南里","LIN":"8鄰","STREET":"新北五街","SECT":" ","MAREA":" ","LANE":" ","ALLEY":" ","HOUSE_NO":"１０２號","E_COORD97":178611.29999999999,"N_COORD97":2579052.2400000002,"ADDRESS":"新北五街１０２號","OBJECTID":312175},"geometry":{"x":178611.30000000075,"y":2579052.2400000039}},{"attributes":{"ID":312184,"DIS_CODE":0,"TOWNNAME":"新營區","LI":"太北里","LIN":"16鄰","STREET":" ","SECT":" ","MAREA":"太子宮","LANE":" ","ALLEY":" ","HOUSE_NO":"１３２號之９","E_COORD97":175886.31,"N_COORD97":2576882.8799999999,"ADDRESS":"太子宮１３２號之９","OBJECTID":312176},"geometry":{"x":175886.30999999959,"y":2576882.879999999}},{"attributes":{"ID":312185,"DIS_CODE":0,"TOWNNAME":"新營區","LI":"新東里","LIN":"26鄰","STREET":"東興五街","SECT":" ","MAREA":" ","LANE":"２１巷","ALLEY":" ","HOUSE_NO":"２０號","E_COORD97":180693.51999999999,"N_COORD97":2579473.1400000001,"ADDRESS":"東興五街２１巷２０號","OBJECTID":312177},"geometry":{"x":180693.52000000048,"y":2579473.1400000006}},{"attributes":{"ID":312186,"DIS_CODE":0,"TOWNNAME":"新營區","LI":"南紙里","LIN":"17鄰","STREET":"南紙街","SECT":" ","MAREA":" ","LANE":"１６２巷","ALLEY":" ","HOUSE_NO":"３１號","E_COORD97":177814.98999999999,"N_COORD97":2577289.7000000002,"ADDRESS":"南紙街１６２巷３１號","OBJECTID":312178},"geometry":{"x":177814.99000000022,"y":2577289.7000000011}},{"attributes":{"ID":312187,"DIS_CODE":0,"TOWNNAME":"新營區","LI":"太南里","LIN":"14鄰","STREET":" ","SECT":" ","MAREA":"太子宮","LANE":" ","ALLEY":" ","HOUSE_NO":"２８７號","E_COORD97":176247.42000000001,"N_COORD97":2576754.77,"ADDRESS":"太子宮２８７號","OBJECTID":312179},"geometry":{"x":176247.42000000086,"y":2576754.7699999996}},{"attributes":{"ID":312188,"DIS_CODE":0,"TOWNNAME":"新營區","LI":"太南里","LIN":" ","STREET":" ","SECT":" ","MAREA":"太子宮","LANE":" ","ALLEY":" ","HOUSE_NO":"２３２之５號","E_COORD97":176045.20999999999,"N_COORD97":2576938.5600000001,"ADDRESS":"太子宮２３２之５號","OBJECTID":312180},"geometry":{"x":176045.20999999903,"y":2576938.5600000024}},{"attributes":{"ID":312189,"DIS_CODE":0,"TOWNNAME":"新營區","LI":"太南里","LIN":" ","STREET":" ","SECT":" ","MAREA":"太子宮","LANE":" ","ALLEY":" ","HOUSE_NO":"２４２號","E_COORD97":176101.10999999999,"N_COORD97":2576955.9399999999,"ADDRESS":"太子宮２４２號","OBJECTID":312181},"geometry":{"x":176101.11000000127,"y":2576955.9400000013}},{"attributes":{"ID":312190,"DIS_CODE":0,"TOWNNAME":"新營區","LI":"太北里","LIN":"20鄰","STREET":" ","SECT":" ","MAREA":"太子宮","LANE":" ","ALLEY":" ","HOUSE_NO":"１４０之１２號","E_COORD97":175643.42999999999,"N_COORD97":2576751.2000000002,"ADDRESS":"太子宮１４０之１２號","OBJECTID":312182},"geometry":{"x":175643.43000000156,"y":2576751.1999999993}},{"attributes":{"ID":312191,"DIS_CODE":0,"TOWNNAME":"北區","LI":"六甲里","LIN":"7鄰","STREET":"西門路","SECT":"四段","MAREA":" ","LANE":"２００巷","ALLEY":" ","HOUSE_NO":"３６號六樓","E_COORD97":168968.29000000001,"N_COORD97":2545583.6699999999,"ADDRESS":"西門路四段２００巷３６號六樓","OBJECTID":312183},"geometry":{"x":168968.29000000004,"y":2545583.6700000018}},{"attributes":{"ID":312192,"DIS_CODE":0,"TOWNNAME":"新營區","LI":"好平里","LIN":"5鄰","STREET":"南昌街","SECT":" ","MAREA":" ","LANE":" ","ALLEY":" ","HOUSE_NO":"４４號之９","E_COORD97":179464.23000000001,"N_COORD97":2577679.3900000001,"ADDRESS":"南昌街４４號之９","OBJECTID":312184},"geometry":{"x":179464.23000000045,"y":2577679.3900000025}},{"attributes":{"ID":312193,"DIS_CODE":0,"TOWNNAME":"永康區","LI":"中興里","LIN":"17鄰","STREET":"中華路","SECT":" ","MAREA":" ","LANE":" ","ALLEY":" ","HOUSE_NO":"２６２號","E_COORD97":171634.01000000001,"N_COORD97":2545134.7400000002,"ADDRESS":"中華路２６２號","OBJECTID":312185},"geometry":{"x":171634.01000000164,"y":2545134.7399999984}},{"attributes":{"ID":312194,"DIS_CODE":0,"TOWNNAME":"北區","LI":"六甲里","LIN":"7鄰","STREET":"西門路","SECT":"四段","MAREA":" ","LANE":"２００巷","ALLEY":" ","HOUSE_NO":"３６號四樓","E_COORD97":168968.29000000001,"N_COORD97":2545583.6699999999,"ADDRESS":"西門路四段２００巷３６號四樓","OBJECTID":312186},"geometry":{"x":168968.29000000004,"y":2545583.6700000018}},{"attributes":{"ID":312195,"DIS_CODE":0,"TOWNNAME":"北區","LI":"六甲里","LIN":"7鄰","STREET":"西門路","SECT":"四段","MAREA":" ","LANE":"２００巷","ALLEY":" ","HOUSE_NO":"３８號七樓","E_COORD97":168956.60999999999,"N_COORD97":2545585.1499999999,"ADDRESS":"西門路四段２００巷３８號七樓","OBJECTID":312187},"geometry":{"x":168956.61000000034,"y":2545585.1500000004}},{"attributes":{"ID":312196,"DIS_CODE":0,"TOWNNAME":"北區","LI":"六甲里","LIN":"7鄰","STREET":"西門路","SECT":"四段","MAREA":" ","LANE":"２００巷","ALLEY":" ","HOUSE_NO":"３８號二樓","E_COORD97":168956.60999999999,"N_COORD97":2545585.1499999999,"ADDRESS":"西門路四段２００巷３８號二樓","OBJECTID":312188},"geometry":{"x":168956.61000000034,"y":2545585.1500000004}},{"attributes":{"ID":312197,"DIS_CODE":0,"TOWNNAME":"北區","LI":"六甲里","LIN":"7鄰","STREET":"西門路","SECT":"四段","MAREA":" ","LANE":"２００巷","ALLEY":" ","HOUSE_NO":"３８號八樓","E_COORD97":168956.60999999999,"N_COORD97":2545585.1499999999,"ADDRESS":"西門路四段２００巷３８號八樓","OBJECTID":312189},"geometry":{"x":168956.61000000034,"y":2545585.1500000004}},{"attributes":{"ID":312198,"DIS_CODE":0,"TOWNNAME":"北區","LI":"六甲里","LIN":"7鄰","STREET":"西門路","SECT":"四段","MAREA":" ","LANE":"２００巷","ALLEY":" ","HOUSE_NO":"３８號三樓","E_COORD97":168956.60999999999,"N_COORD97":2545585.1499999999,"ADDRESS":"西門路四段２００巷３８號三樓","OBJECTID":312190},"geometry":{"x":168956.61000000034,"y":2545585.1500000004}},{"attributes":{"ID":312199,"DIS_CODE":0,"TOWNNAME":"北區","LI":"六甲里","LIN":"7鄰","STREET":"西門路","SECT":"四段","MAREA":" ","LANE":"２００巷","ALLEY":" ","HOUSE_NO":"３８號五樓","E_COORD97":168956.60999999999,"N_COORD97":2545585.1499999999,"ADDRESS":"西門路四段２００巷３８號五樓","OBJECTID":312191},"geometry":{"x":168956.61000000034,"y":2545585.1500000004}},{"attributes":{"ID":312200,"DIS_CODE":0,"TOWNNAME":"北區","LI":"六甲里","LIN":"7鄰","STREET":"西門路","SECT":"四段","MAREA":" ","LANE":"２００巷","ALLEY":" ","HOUSE_NO":"３８號六樓","E_COORD97":168956.60999999999,"N_COORD97":2545585.1499999999,"ADDRESS":"西門路四段２００巷３８號六樓","OBJECTID":312192},"geometry":{"x":168956.61000000034,"y":2545585.1500000004}},{"attributes":{"ID":312201,"DIS_CODE":0,"TOWNNAME":"北區","LI":"六甲里","LIN":"7鄰","STREET":"西門路","SECT":"四段","MAREA":" ","LANE":"２００巷","ALLEY":" ","HOUSE_NO":"３８號四樓","E_COORD97":168956.60999999999,"N_COORD97":2545585.1499999999,"ADDRESS":"西門路四段２００巷３８號四樓","OBJECTID":312193},"geometry":{"x":168956.61000000034,"y":2545585.1500000004}},{"attributes":{"ID":312202,"DIS_CODE":0,"TOWNNAME":"東區","LI":"和平里","LIN":"7鄰","STREET":"東門路","SECT":"三段","MAREA":" ","LANE":"２６２巷","ALLEY":" ","HOUSE_NO":"４９號","E_COORD97":171653.17000000001,"N_COORD97":2541692.27,"ADDRESS":"東門路三段２６２巷４９號","OBJECTID":312194},"geometry":{"x":171653.16999999899,"y":2541692.2699999996}},{"attributes":{"ID":312203,"DIS_CODE":0,"TOWNNAME":"安平區","LI":"文平里","LIN":"7鄰","STREET":"建平七街","SECT":" ","MAREA":" ","LANE":"５８巷","ALLEY":" ","HOUSE_NO":"３１號二樓","E_COORD97":166316.98999999999,"N_COORD97":2543260.4500000002,"ADDRESS":"建平七街５８巷３１號二樓","OBJECTID":312195},"geometry":{"x":166316.99000000115,"y":2543260.4499999993}},{"attributes":{"ID":312204,"DIS_CODE":0,"TOWNNAME":"安平區","LI":"文平里","LIN":"7鄰","STREET":"建平七街","SECT":" ","MAREA":" ","LANE":"５８巷","ALLEY":" ","HOUSE_NO":"３１號三樓","E_COORD97":166316.98999999999,"N_COORD97":2543260.4500000002,"ADDRESS":"建平七街５８巷３１號三樓","OBJECTID":312196},"geometry":{"x":166316.99000000115,"y":2543260.4499999993}},{"attributes":{"ID":312205,"DIS_CODE":0,"TOWNNAME":"安平區","LI":"文平里","LIN":"7鄰","STREET":"建平七街","SECT":" ","MAREA":" ","LANE":"５８巷","ALLEY":" ","HOUSE_NO":"３１號四樓","E_COORD97":166316.98999999999,"N_COORD97":2543260.4500000002,"ADDRESS":"建平七街５８巷３１號四樓","OBJECTID":312197},"geometry":{"x":166316.99000000115,"y":2543260.4499999993}},{"attributes":{"ID":312206,"DIS_CODE":0,"TOWNNAME":"歸仁區","LI":"後市里","LIN":"24鄰","STREET":"文化街","SECT":"二段","MAREA":" ","LANE":"３５巷","ALLEY":" ","HOUSE_NO":"２９號","E_COORD97":177566.69,"N_COORD97":2541029.2599999998,"ADDRESS":"文化街二段３５巷２９號","OBJECTID":312198},"geometry":{"x":177566.69000000134,"y":2541029.2600000016}},{"attributes":{"ID":312207,"DIS_CODE":0,"TOWNNAME":"歸仁區","LI":"南興里","LIN":"32鄰","STREET":"保興一街","SECT":" ","MAREA":" ","LANE":"３２巷","ALLEY":" ","HOUSE_NO":"１０號","E_COORD97":176399.22,"N_COORD97":2541102.25,"ADDRESS":"保興一街３２巷１０號","OBJECTID":312199},"geometry":{"x":176399.21999999881,"y":2541102.25}},{"attributes":{"ID":312208,"DIS_CODE":0,"TOWNNAME":"歸仁區","LI":"南保里","LIN":"35鄰","STREET":"中山路","SECT":"三段","MAREA":" ","LANE":"１００巷","ALLEY":" ","HOUSE_NO":"１９號","E_COORD97":176737.64999999999,"N_COORD97":2540961.6400000001,"ADDRESS":"中山路三段１００巷１９號","OBJECTID":312200},"geometry":{"x":176737.65000000037,"y":2540961.6400000006}}]}