{"displayFieldName":"TOWNNAME","fieldAliases":{"ID":"ID","DIS_CODE":"DIS_CODE","TOWNNAME":"TOWNNAME","LI":"LI","LIN":"LIN","STREET":"STREET","SECT":"SECT","MAREA":"MAREA","LANE":"LANE","ALLEY":"ALLEY","HOUSE_NO":"HOUSE_NO","E_COORD97":"E_COORD97","N_COORD97":"N_COORD97","ADDRESS":"ADDRESS","OBJECTID":"OBJECTID"},"geometryType":"esriGeometryPoint","spatialReference":{"wkid":102443,"latestWkid":3826},"fields":[{"name":"ID","type":"esriFieldTypeDouble","alias":"ID"},{"name":"DIS_CODE","type":"esriFieldTypeInteger","alias":"DIS_CODE"},{"name":"TOWNNAME","type":"esriFieldTypeString","alias":"TOWNNAME","length":8},{"name":"LI","type":"esriFieldTypeString","alias":"LI","length":8},{"name":"LIN","type":"esriFieldTypeString","alias":"LIN","length":12},{"name":"STREET","type":"esriFieldTypeString","alias":"STREET","length":20},{"name":"SECT","type":"esriFieldTypeString","alias":"SECT","length":8},{"name":"MAREA","type":"esriFieldTypeString","alias":"MAREA","length":12},{"name":"LANE","type":"esriFieldTypeString","alias":"LANE","length":10},{"name":"ALLEY","type":"esriFieldTypeString","alias":"ALLEY","length":10},{"name":"HOUSE_NO","type":"esriFieldTypeString","alias":"HOUSE_NO","length":20},{"name":"E_COORD97","type":"esriFieldTypeDouble","alias":"E_COORD97"},{"name":"N_COORD97","type":"esriFieldTypeDouble","alias":"N_COORD97"},{"name":"ADDRESS","type":"esriFieldTypeString","alias":"ADDRESS","length":50},{"name":"OBJECTID","type":"esriFieldTypeOID","alias":"OBJECTID"}],"features":[{"attributes":{"ID":372611,"DIS_CODE":0,"TOWNNAME":"安南區","LI":"學東里","LIN":"10鄰","STREET":"公學路","SECT":"六段","MAREA":" ","LANE":"６４２巷","ALLEY":" ","HOUSE_NO":"４５之２號","E_COORD97":162283.26000000001,"N_COORD97":2553357.1899999999,"ADDRESS":"公學路六段６４２巷４５之２號","OBJECTID":372601},"geometry":{"x":162283.26000000164,"y":2553357.1900000013}},{"attributes":{"ID":372612,"DIS_CODE":0,"TOWNNAME":"安南區","LI":"海西里","LIN":"10鄰","STREET":"海環街","SECT":" ","MAREA":" ","LANE":"１４６巷","ALLEY":" ","HOUSE_NO":"２８號","E_COORD97":166389.09,"N_COORD97":2548742.6200000001,"ADDRESS":"海環街１４６巷２８號","OBJECTID":372602},"geometry":{"x":166389.09000000078,"y":2548742.620000001}},{"attributes":{"ID":372613,"DIS_CODE":0,"TOWNNAME":"安南區","LI":"城北里","LIN":"10鄰","STREET":"安中路","SECT":"六段","MAREA":" ","LANE":"４２９巷","ALLEY":" ","HOUSE_NO":"３０之６號","E_COORD97":161106.54000000001,"N_COORD97":2551211.23,"ADDRESS":"安中路六段４２９巷３０之６號","OBJECTID":372603},"geometry":{"x":161106.54000000004,"y":2551211.2300000023}},{"attributes":{"ID":372614,"DIS_CODE":0,"TOWNNAME":"安南區","LI":"總頭里","LIN":"10鄰","STREET":"長溪路","SECT":"二段","MAREA":" ","LANE":"５２３巷","ALLEY":" ","HOUSE_NO":"６２號之１","E_COORD97":168079.54000000001,"N_COORD97":2550502.3100000001,"ADDRESS":"長溪路二段５２３巷６２號之１","OBJECTID":372604},"geometry":{"x":168079.54000000097,"y":2550502.3100000024}},{"attributes":{"ID":372615,"DIS_CODE":0,"TOWNNAME":"安南區","LI":"原佃里","LIN":"10鄰","STREET":"本原街","SECT":"一段","MAREA":" ","LANE":"４８２巷","ALLEY":" ","HOUSE_NO":"３號","E_COORD97":167338.95000000001,"N_COORD97":2550524.4399999999,"ADDRESS":"本原街一段４８２巷３號","OBJECTID":372605},"geometry":{"x":167338.95000000019,"y":2550524.4400000013}},{"attributes":{"ID":372616,"DIS_CODE":0,"TOWNNAME":"安南區","LI":"安慶里","LIN":"10鄰","STREET":"長溪路","SECT":"一段","MAREA":" ","LANE":"１６８巷","ALLEY":" ","HOUSE_NO":"３２１號","E_COORD97":168819.25,"N_COORD97":2548835.6499999999,"ADDRESS":"長溪路一段１６８巷３２１號","OBJECTID":372606},"geometry":{"x":168819.25000000093,"y":2548835.6500000022}},{"attributes":{"ID":372617,"DIS_CODE":0,"TOWNNAME":"安南區","LI":"安慶里","LIN":"10鄰","STREET":"長溪路","SECT":"一段","MAREA":" ","LANE":"１６８巷","ALLEY":" ","HOUSE_NO":"３１５號","E_COORD97":168845.35000000001,"N_COORD97":2548832.52,"ADDRESS":"長溪路一段１６８巷３１５號","OBJECTID":372607},"geometry":{"x":168845.35000000056,"y":2548832.5200000014}},{"attributes":{"ID":372618,"DIS_CODE":0,"TOWNNAME":"安南區","LI":"安慶里","LIN":"10鄰","STREET":"長溪路","SECT":"一段","MAREA":" ","LANE":"３０３巷","ALLEY":" ","HOUSE_NO":"２３之１號","E_COORD97":168758.48000000001,"N_COORD97":2548696.25,"ADDRESS":"長溪路一段３０３巷２３之１號","OBJECTID":372608},"geometry":{"x":168758.48000000138,"y":2548696.25}},{"attributes":{"ID":372619,"DIS_CODE":0,"TOWNNAME":"安南區","LI":"城南里","LIN":"10鄰","STREET":"城南路","SECT":" ","MAREA":" ","LANE":"２５２巷","ALLEY":" ","HOUSE_NO":"２６之５０號","E_COORD97":160277.53,"N_COORD97":2550840.48,"ADDRESS":"城南路２５２巷２６之５０號","OBJECTID":372609},"geometry":{"x":160277.53000000026,"y":2550840.4800000023}},{"attributes":{"ID":372620,"DIS_CODE":0,"TOWNNAME":"官田區","LI":"隆田里","LIN":"10鄰","STREET":"中山路","SECT":"一段","MAREA":" ","LANE":"６２巷","ALLEY":" ","HOUSE_NO":"３號","E_COORD97":180183.85999999999,"N_COORD97":2565826.6400000001,"ADDRESS":"中山路一段６２巷３號","OBJECTID":372610},"geometry":{"x":180183.86000000034,"y":2565826.6400000006}},{"attributes":{"ID":372621,"DIS_CODE":0,"TOWNNAME":"官田區","LI":"隆田里","LIN":"10鄰","STREET":"中山路","SECT":"一段","MAREA":" ","LANE":"６２巷","ALLEY":" ","HOUSE_NO":"４號","E_COORD97":180164.25,"N_COORD97":2565831.96,"ADDRESS":"中山路一段６２巷４號","OBJECTID":372611},"geometry":{"x":180164.25,"y":2565831.9600000009}},{"attributes":{"ID":372622,"DIS_CODE":0,"TOWNNAME":"官田區","LI":"隆田里","LIN":"10鄰","STREET":"中山路","SECT":"一段","MAREA":" ","LANE":"６２巷","ALLEY":" ","HOUSE_NO":"５號","E_COORD97":180183.97,"N_COORD97":2565831.3500000001,"ADDRESS":"中山路一段６２巷５號","OBJECTID":372612},"geometry":{"x":180183.96999999974,"y":2565831.3499999996}},{"attributes":{"ID":372623,"DIS_CODE":0,"TOWNNAME":"官田區","LI":"隆田里","LIN":"10鄰","STREET":"中山路","SECT":"一段","MAREA":" ","LANE":"６２巷","ALLEY":" ","HOUSE_NO":"６號","E_COORD97":180163.98999999999,"N_COORD97":2565836.6800000002,"ADDRESS":"中山路一段６２巷６號","OBJECTID":372613},"geometry":{"x":180163.99000000022,"y":2565836.6800000034}},{"attributes":{"ID":372624,"DIS_CODE":0,"TOWNNAME":"官田區","LI":"隆田里","LIN":"10鄰","STREET":"中山路","SECT":"一段","MAREA":" ","LANE":"６２巷","ALLEY":" ","HOUSE_NO":"７號","E_COORD97":180183.89999999999,"N_COORD97":2565835.4100000001,"ADDRESS":"中山路一段６２巷７號","OBJECTID":372614},"geometry":{"x":180183.90000000037,"y":2565835.4100000039}},{"attributes":{"ID":372625,"DIS_CODE":0,"TOWNNAME":"官田區","LI":"隆田里","LIN":"10鄰","STREET":"中山路","SECT":"一段","MAREA":" ","LANE":"６２巷","ALLEY":" ","HOUSE_NO":"８號","E_COORD97":180164.04999999999,"N_COORD97":2565840.54,"ADDRESS":"中山路一段６２巷８號","OBJECTID":372615},"geometry":{"x":180164.05000000075,"y":2565840.540000001}},{"attributes":{"ID":372626,"DIS_CODE":0,"TOWNNAME":"官田區","LI":"隆田里","LIN":"10鄰","STREET":"中山路","SECT":"一段","MAREA":" ","LANE":"６２巷","ALLEY":" ","HOUSE_NO":"９號","E_COORD97":180183.92999999999,"N_COORD97":2565839.9900000002,"ADDRESS":"中山路一段６２巷９號","OBJECTID":372616},"geometry":{"x":180183.93000000063,"y":2565839.9900000002}},{"attributes":{"ID":372627,"DIS_CODE":0,"TOWNNAME":"安南區","LI":"淵東里","LIN":"10鄰","STREET":"安中路","SECT":"三段","MAREA":" ","LANE":"４００巷","ALLEY":" ","HOUSE_NO":"７７號","E_COORD97":165488.85999999999,"N_COORD97":2550157.04,"ADDRESS":"安中路三段４００巷７７號","OBJECTID":372617},"geometry":{"x":165488.8600000022,"y":2550157.040000001}},{"attributes":{"ID":372628,"DIS_CODE":0,"TOWNNAME":"安南區","LI":"淵東里","LIN":"10鄰","STREET":"安中路","SECT":"三段","MAREA":" ","LANE":"４００巷","ALLEY":" ","HOUSE_NO":"７９號","E_COORD97":165484.41,"N_COORD97":2550163.0699999998,"ADDRESS":"安中路三段４００巷７９號","OBJECTID":372618},"geometry":{"x":165484.41000000015,"y":2550163.0700000003}},{"attributes":{"ID":372629,"DIS_CODE":0,"TOWNNAME":"安南區","LI":"淵東里","LIN":"10鄰","STREET":"安中路","SECT":"三段","MAREA":" ","LANE":"４００巷","ALLEY":" ","HOUSE_NO":"８１號","E_COORD97":165480.44,"N_COORD97":2550167.3599999999,"ADDRESS":"安中路三段４００巷８１號","OBJECTID":372619},"geometry":{"x":165480.44000000134,"y":2550167.3599999994}},{"attributes":{"ID":372630,"DIS_CODE":0,"TOWNNAME":"安南區","LI":"淵東里","LIN":"10鄰","STREET":"安中路","SECT":"三段","MAREA":" ","LANE":"４００巷","ALLEY":" ","HOUSE_NO":"８３號","E_COORD97":165476.95000000001,"N_COORD97":2550171.4900000002,"ADDRESS":"安中路三段４００巷８３號","OBJECTID":372620},"geometry":{"x":165476.95000000112,"y":2550171.4900000039}},{"attributes":{"ID":372631,"DIS_CODE":0,"TOWNNAME":"安南區","LI":"淵東里","LIN":"10鄰","STREET":"安中路","SECT":"三段","MAREA":" ","LANE":"４００巷","ALLEY":" ","HOUSE_NO":"８５號","E_COORD97":165474.25,"N_COORD97":2550175.1400000001,"ADDRESS":"安中路三段４００巷８５號","OBJECTID":372621},"geometry":{"x":165474.25000000093,"y":2550175.1400000025}},{"attributes":{"ID":372632,"DIS_CODE":0,"TOWNNAME":"安南區","LI":"淵東里","LIN":"10鄰","STREET":"安中路","SECT":"三段","MAREA":" ","LANE":"４００巷","ALLEY":" ","HOUSE_NO":"８７號","E_COORD97":165471.54999999999,"N_COORD97":2550177.6800000002,"ADDRESS":"安中路三段４００巷８７號","OBJECTID":372622},"geometry":{"x":165471.54999999888,"y":2550177.6800000016}},{"attributes":{"ID":372633,"DIS_CODE":0,"TOWNNAME":"安南區","LI":"州南里","LIN":"10鄰","STREET":"安和路","SECT":"四段","MAREA":" ","LANE":"５８９巷","ALLEY":" ","HOUSE_NO":"８之５號","E_COORD97":169891.5,"N_COORD97":2551453.1600000001,"ADDRESS":"安和路四段５８９巷８之５號","OBJECTID":372623},"geometry":{"x":169891.50000000186,"y":2551453.160000002}},{"attributes":{"ID":372634,"DIS_CODE":0,"TOWNNAME":"永康區","LI":"正強里","LIN":"10鄰","STREET":"正義街","SECT":" ","MAREA":" ","LANE":"１０１巷","ALLEY":" ","HOUSE_NO":"３號","E_COORD97":173424.59,"N_COORD97":2547531.7599999998,"ADDRESS":"正義街１０１巷３號","OBJECTID":372624},"geometry":{"x":173424.58999999985,"y":2547531.7600000016}},{"attributes":{"ID":372635,"DIS_CODE":0,"TOWNNAME":"永康區","LI":"永康里","LIN":"10鄰","STREET":"中山南路","SECT":" ","MAREA":" ","LANE":"１０５４巷","ALLEY":" ","HOUSE_NO":"９號","E_COORD97":173734.13,"N_COORD97":2547269.75,"ADDRESS":"中山南路１０５４巷９號","OBJECTID":372625},"geometry":{"x":173734.13000000082,"y":2547269.75}},{"attributes":{"ID":372636,"DIS_CODE":0,"TOWNNAME":"永康區","LI":"永康里","LIN":"10鄰","STREET":"中山南路","SECT":" ","MAREA":" ","LANE":"１０５４巷","ALLEY":" ","HOUSE_NO":"２９號","E_COORD97":173748.29000000001,"N_COORD97":2547190.7400000002,"ADDRESS":"中山南路１０５４巷２９號","OBJECTID":372626},"geometry":{"x":173748.29000000097,"y":2547190.7400000021}},{"attributes":{"ID":372637,"DIS_CODE":0,"TOWNNAME":"永康區","LI":"永康里","LIN":"10鄰","STREET":"中山南路","SECT":" ","MAREA":" ","LANE":"１０５４巷","ALLEY":" ","HOUSE_NO":"１５號","E_COORD97":173751.17999999999,"N_COORD97":2547250,"ADDRESS":"中山南路１０５４巷１５號","OBJECTID":372627},"geometry":{"x":173751.1799999997,"y":2547250.0000000019}},{"attributes":{"ID":372638,"DIS_CODE":0,"TOWNNAME":"永康區","LI":"正強里","LIN":"10鄰","STREET":"正義街","SECT":" ","MAREA":" ","LANE":"１０１巷","ALLEY":" ","HOUSE_NO":"１５號","E_COORD97":173432.04000000001,"N_COORD97":2547509.0099999998,"ADDRESS":"正義街１０１巷１５號","OBJECTID":372628},"geometry":{"x":173432.04000000004,"y":2547509.0099999979}},{"attributes":{"ID":372639,"DIS_CODE":0,"TOWNNAME":"永康區","LI":"永康里","LIN":"10鄰","STREET":"中山南路","SECT":" ","MAREA":" ","LANE":"１０５４巷","ALLEY":" ","HOUSE_NO":"５號","E_COORD97":173732.28,"N_COORD97":2547280.25,"ADDRESS":"中山南路１０５４巷５號","OBJECTID":372629},"geometry":{"x":173732.28000000026,"y":2547280.25}},{"attributes":{"ID":372640,"DIS_CODE":0,"TOWNNAME":"永康區","LI":"正強里","LIN":"10鄰","STREET":"正義街","SECT":" ","MAREA":" ","LANE":"１０１巷","ALLEY":" ","HOUSE_NO":"１６號","E_COORD97":173420.34,"N_COORD97":2547509.5099999998,"ADDRESS":"正義街１０１巷１６號","OBJECTID":372630},"geometry":{"x":173420.34000000078,"y":2547509.5100000035}},{"attributes":{"ID":372641,"DIS_CODE":0,"TOWNNAME":"永康區","LI":"正強里","LIN":"10鄰","STREET":"正義街","SECT":" ","MAREA":" ","LANE":"１０１巷","ALLEY":" ","HOUSE_NO":"９號","E_COORD97":173428,"N_COORD97":2547520.5099999998,"ADDRESS":"正義街１０１巷９號","OBJECTID":372631},"geometry":{"x":173428.00000000093,"y":2547520.5100000016}},{"attributes":{"ID":372642,"DIS_CODE":0,"TOWNNAME":"永康區","LI":"永康里","LIN":"10鄰","STREET":"中山南路","SECT":" ","MAREA":" ","LANE":"１０５４巷","ALLEY":" ","HOUSE_NO":"７號","E_COORD97":173732.82000000001,"N_COORD97":2547276,"ADDRESS":"中山南路１０５４巷７號","OBJECTID":372632},"geometry":{"x":173732.82000000123,"y":2547276.0000000019}},{"attributes":{"ID":372643,"DIS_CODE":0,"TOWNNAME":"永康區","LI":"正強里","LIN":"10鄰","STREET":"正義街","SECT":" ","MAREA":" ","LANE":"１０１巷","ALLEY":" ","HOUSE_NO":"６號","E_COORD97":173414.63,"N_COORD97":2547525.0099999998,"ADDRESS":"正義街１０１巷６號","OBJECTID":372633},"geometry":{"x":173414.62999999989,"y":2547525.0099999998}},{"attributes":{"ID":372644,"DIS_CODE":0,"TOWNNAME":"永康區","LI":"永康里","LIN":"10鄰","STREET":"中山南路","SECT":" ","MAREA":" ","LANE":"１０５４巷","ALLEY":" ","HOUSE_NO":"２３號","E_COORD97":173748.14999999999,"N_COORD97":2547204.4900000002,"ADDRESS":"中山南路１０５４巷２３號","OBJECTID":372634},"geometry":{"x":173748.1500000013,"y":2547204.4899999984}},{"attributes":{"ID":372645,"DIS_CODE":0,"TOWNNAME":"永康區","LI":"安康里","LIN":"10鄰","STREET":"中華路","SECT":" ","MAREA":" ","LANE":"６１９巷","ALLEY":" ","HOUSE_NO":"４９號","E_COORD97":170889.20999999999,"N_COORD97":2545998.75,"ADDRESS":"中華路６１９巷４９號","OBJECTID":372635},"geometry":{"x":170889.21000000089,"y":2545998.75}},{"attributes":{"ID":372646,"DIS_CODE":0,"TOWNNAME":"永康區","LI":"正強里","LIN":"10鄰","STREET":"正義街","SECT":" ","MAREA":" ","LANE":"１０１巷","ALLEY":" ","HOUSE_NO":"１８號","E_COORD97":173421.59,"N_COORD97":2547506.0099999998,"ADDRESS":"正義街１０１巷１８號","OBJECTID":372636},"geometry":{"x":173421.58999999985,"y":2547506.0100000035}},{"attributes":{"ID":372647,"DIS_CODE":0,"TOWNNAME":"永康區","LI":"安康里","LIN":"10鄰","STREET":"中華路","SECT":" ","MAREA":" ","LANE":"６１９巷","ALLEY":" ","HOUSE_NO":"４１號","E_COORD97":170905.60999999999,"N_COORD97":2546008.25,"ADDRESS":"中華路６１９巷４１號","OBJECTID":372637},"geometry":{"x":170905.61000000127,"y":2546008.25}},{"attributes":{"ID":372648,"DIS_CODE":0,"TOWNNAME":"永康區","LI":"北灣里","LIN":"10鄰","STREET":"大灣路","SECT":" ","MAREA":" ","LANE":"１１２巷","ALLEY":" ","HOUSE_NO":"１２之１號","E_COORD97":175129.29000000001,"N_COORD97":2545689.6699999999,"ADDRESS":"大灣路１１２巷１２之１號","OBJECTID":372638},"geometry":{"x":175129.29000000004,"y":2545689.6699999999}},{"attributes":{"ID":372649,"DIS_CODE":0,"TOWNNAME":"永康區","LI":"正強里","LIN":"10鄰","STREET":"正義街","SECT":" ","MAREA":" ","LANE":"８９巷","ALLEY":" ","HOUSE_NO":"１２號","E_COORD97":173452.59,"N_COORD97":2547527.0099999998,"ADDRESS":"正義街８９巷１２號","OBJECTID":372639},"geometry":{"x":173452.59000000078,"y":2547527.0100000016}},{"attributes":{"ID":372650,"DIS_CODE":0,"TOWNNAME":"永康區","LI":"正強里","LIN":"10鄰","STREET":"正義街","SECT":" ","MAREA":" ","LANE":"１０１巷","ALLEY":" ","HOUSE_NO":"１號","E_COORD97":173423.42000000001,"N_COORD97":2547535.5099999998,"ADDRESS":"正義街１０１巷１號","OBJECTID":372640},"geometry":{"x":173423.42000000086,"y":2547535.5099999998}},{"attributes":{"ID":372651,"DIS_CODE":0,"TOWNNAME":"北區","LI":"裕民里","LIN":"10鄰","STREET":"成功路","SECT":" ","MAREA":" ","LANE":"６００巷","ALLEY":" ","HOUSE_NO":"２１號二樓之１","E_COORD97":167527.20000000001,"N_COORD97":2544847.54,"ADDRESS":"成功路６００巷２１號二樓之１","OBJECTID":372641},"geometry":{"x":167527.19999999925,"y":2544847.540000001}},{"attributes":{"ID":372652,"DIS_CODE":0,"TOWNNAME":"東區","LI":"和平里","LIN":"20鄰","STREET":"仁和路","SECT":" ","MAREA":" ","LANE":"６９巷","ALLEY":" ","HOUSE_NO":"１號","E_COORD97":171218.22,"N_COORD97":2541637.71,"ADDRESS":"仁和路６９巷１號","OBJECTID":372642},"geometry":{"x":171218.21999999974,"y":2541637.7100000028}},{"attributes":{"ID":372653,"DIS_CODE":0,"TOWNNAME":"北區","LI":"裕民里","LIN":"10鄰","STREET":"成功路","SECT":" ","MAREA":" ","LANE":"６００巷","ALLEY":" ","HOUSE_NO":"２１號二樓之２","E_COORD97":167527.20000000001,"N_COORD97":2544847.54,"ADDRESS":"成功路６００巷２１號二樓之２","OBJECTID":372643},"geometry":{"x":167527.19999999925,"y":2544847.540000001}},{"attributes":{"ID":372654,"DIS_CODE":0,"TOWNNAME":"北區","LI":"裕民里","LIN":"10鄰","STREET":"成功路","SECT":" ","MAREA":" ","LANE":"６００巷","ALLEY":" ","HOUSE_NO":"２１號二樓之３","E_COORD97":167527.20000000001,"N_COORD97":2544847.54,"ADDRESS":"成功路６００巷２１號二樓之３","OBJECTID":372644},"geometry":{"x":167527.19999999925,"y":2544847.540000001}},{"attributes":{"ID":372655,"DIS_CODE":0,"TOWNNAME":"北區","LI":"裕民里","LIN":"10鄰","STREET":"成功路","SECT":" ","MAREA":" ","LANE":"６００巷","ALLEY":" ","HOUSE_NO":"２１號二樓之４","E_COORD97":167527.20000000001,"N_COORD97":2544847.54,"ADDRESS":"成功路６００巷２１號二樓之４","OBJECTID":372645},"geometry":{"x":167527.19999999925,"y":2544847.540000001}},{"attributes":{"ID":372656,"DIS_CODE":0,"TOWNNAME":"北區","LI":"裕民里","LIN":"10鄰","STREET":"成功路","SECT":" ","MAREA":" ","LANE":"６００巷","ALLEY":" ","HOUSE_NO":"２１號二樓之５","E_COORD97":167527.20000000001,"N_COORD97":2544847.54,"ADDRESS":"成功路６００巷２１號二樓之５","OBJECTID":372646},"geometry":{"x":167527.19999999925,"y":2544847.540000001}},{"attributes":{"ID":372657,"DIS_CODE":0,"TOWNNAME":"北區","LI":"裕民里","LIN":"10鄰","STREET":"成功路","SECT":" ","MAREA":" ","LANE":"６００巷","ALLEY":" ","HOUSE_NO":"２１號二樓之６","E_COORD97":167527.20000000001,"N_COORD97":2544847.54,"ADDRESS":"成功路６００巷２１號二樓之６","OBJECTID":372647},"geometry":{"x":167527.19999999925,"y":2544847.540000001}},{"attributes":{"ID":372658,"DIS_CODE":0,"TOWNNAME":"北區","LI":"裕民里","LIN":"10鄰","STREET":"成功路","SECT":" ","MAREA":" ","LANE":"６００巷","ALLEY":" ","HOUSE_NO":"２１號二樓之７","E_COORD97":167527.20000000001,"N_COORD97":2544847.54,"ADDRESS":"成功路６００巷２１號二樓之７","OBJECTID":372648},"geometry":{"x":167527.19999999925,"y":2544847.540000001}},{"attributes":{"ID":372659,"DIS_CODE":0,"TOWNNAME":"北區","LI":"裕民里","LIN":"10鄰","STREET":"成功路","SECT":" ","MAREA":" ","LANE":"６００巷","ALLEY":" ","HOUSE_NO":"２１號二樓之８","E_COORD97":167527.20000000001,"N_COORD97":2544847.54,"ADDRESS":"成功路６００巷２１號二樓之８","OBJECTID":372649},"geometry":{"x":167527.19999999925,"y":2544847.540000001}},{"attributes":{"ID":372660,"DIS_CODE":0,"TOWNNAME":"北區","LI":"裕民里","LIN":"10鄰","STREET":"成功路","SECT":" ","MAREA":" ","LANE":"６００巷","ALLEY":" ","HOUSE_NO":"２１號二樓之９","E_COORD97":167527.20000000001,"N_COORD97":2544847.54,"ADDRESS":"成功路６００巷２１號二樓之９","OBJECTID":372650},"geometry":{"x":167527.19999999925,"y":2544847.540000001}},{"attributes":{"ID":372661,"DIS_CODE":0,"TOWNNAME":"北區","LI":"裕民里","LIN":"10鄰","STREET":"成功路","SECT":" ","MAREA":" ","LANE":"６００巷","ALLEY":" ","HOUSE_NO":"２１號三樓之１","E_COORD97":167527.20000000001,"N_COORD97":2544847.54,"ADDRESS":"成功路６００巷２１號三樓之１","OBJECTID":372651},"geometry":{"x":167527.19999999925,"y":2544847.540000001}},{"attributes":{"ID":372662,"DIS_CODE":0,"TOWNNAME":"北區","LI":"裕民里","LIN":"10鄰","STREET":"成功路","SECT":" ","MAREA":" ","LANE":"６００巷","ALLEY":" ","HOUSE_NO":"２１號三樓之２","E_COORD97":167527.20000000001,"N_COORD97":2544847.54,"ADDRESS":"成功路６００巷２１號三樓之２","OBJECTID":372652},"geometry":{"x":167527.19999999925,"y":2544847.540000001}},{"attributes":{"ID":372663,"DIS_CODE":0,"TOWNNAME":"北區","LI":"裕民里","LIN":"10鄰","STREET":"成功路","SECT":" ","MAREA":" ","LANE":"６００巷","ALLEY":" ","HOUSE_NO":"２１號三樓之３","E_COORD97":167527.20000000001,"N_COORD97":2544847.54,"ADDRESS":"成功路６００巷２１號三樓之３","OBJECTID":372653},"geometry":{"x":167527.19999999925,"y":2544847.540000001}},{"attributes":{"ID":372664,"DIS_CODE":0,"TOWNNAME":"北區","LI":"裕民里","LIN":"10鄰","STREET":"成功路","SECT":" ","MAREA":" ","LANE":"６００巷","ALLEY":" ","HOUSE_NO":"２１號三樓之４","E_COORD97":167527.20000000001,"N_COORD97":2544847.54,"ADDRESS":"成功路６００巷２１號三樓之４","OBJECTID":372654},"geometry":{"x":167527.19999999925,"y":2544847.540000001}},{"attributes":{"ID":372665,"DIS_CODE":0,"TOWNNAME":"北區","LI":"裕民里","LIN":"10鄰","STREET":"成功路","SECT":" ","MAREA":" ","LANE":"６００巷","ALLEY":" ","HOUSE_NO":"２１號三樓之５","E_COORD97":167527.20000000001,"N_COORD97":2544847.54,"ADDRESS":"成功路６００巷２１號三樓之５","OBJECTID":372655},"geometry":{"x":167527.19999999925,"y":2544847.540000001}},{"attributes":{"ID":372666,"DIS_CODE":0,"TOWNNAME":"北區","LI":"裕民里","LIN":"10鄰","STREET":"成功路","SECT":" ","MAREA":" ","LANE":"６００巷","ALLEY":" ","HOUSE_NO":"２１號三樓之６","E_COORD97":167527.20000000001,"N_COORD97":2544847.54,"ADDRESS":"成功路６００巷２１號三樓之６","OBJECTID":372656},"geometry":{"x":167527.19999999925,"y":2544847.540000001}},{"attributes":{"ID":372667,"DIS_CODE":0,"TOWNNAME":"北區","LI":"裕民里","LIN":"10鄰","STREET":"成功路","SECT":" ","MAREA":" ","LANE":"６００巷","ALLEY":" ","HOUSE_NO":"２１號三樓之７","E_COORD97":167527.20000000001,"N_COORD97":2544847.54,"ADDRESS":"成功路６００巷２１號三樓之７","OBJECTID":372657},"geometry":{"x":167527.19999999925,"y":2544847.540000001}},{"attributes":{"ID":372668,"DIS_CODE":0,"TOWNNAME":"北區","LI":"裕民里","LIN":"10鄰","STREET":"成功路","SECT":" ","MAREA":" ","LANE":"６００巷","ALLEY":" ","HOUSE_NO":"２１號三樓之８","E_COORD97":167527.20000000001,"N_COORD97":2544847.54,"ADDRESS":"成功路６００巷２１號三樓之８","OBJECTID":372658},"geometry":{"x":167527.19999999925,"y":2544847.540000001}},{"attributes":{"ID":372669,"DIS_CODE":0,"TOWNNAME":"北區","LI":"裕民里","LIN":"10鄰","STREET":"成功路","SECT":" ","MAREA":" ","LANE":"６００巷","ALLEY":" ","HOUSE_NO":"２１號三樓之９","E_COORD97":167527.20000000001,"N_COORD97":2544847.54,"ADDRESS":"成功路６００巷２１號三樓之９","OBJECTID":372659},"geometry":{"x":167527.19999999925,"y":2544847.540000001}},{"attributes":{"ID":372670,"DIS_CODE":0,"TOWNNAME":"北區","LI":"裕民里","LIN":"10鄰","STREET":"成功路","SECT":" ","MAREA":" ","LANE":"６００巷","ALLEY":" ","HOUSE_NO":"２１號五樓之１","E_COORD97":167527.20000000001,"N_COORD97":2544847.54,"ADDRESS":"成功路６００巷２１號五樓之１","OBJECTID":372660},"geometry":{"x":167527.19999999925,"y":2544847.540000001}},{"attributes":{"ID":372671,"DIS_CODE":0,"TOWNNAME":"北區","LI":"裕民里","LIN":"10鄰","STREET":"成功路","SECT":" ","MAREA":" ","LANE":"６００巷","ALLEY":" ","HOUSE_NO":"２１號五樓之２","E_COORD97":167527.20000000001,"N_COORD97":2544847.54,"ADDRESS":"成功路６００巷２１號五樓之２","OBJECTID":372661},"geometry":{"x":167527.19999999925,"y":2544847.540000001}},{"attributes":{"ID":372672,"DIS_CODE":0,"TOWNNAME":"北區","LI":"裕民里","LIN":"10鄰","STREET":"成功路","SECT":" ","MAREA":" ","LANE":"６００巷","ALLEY":" ","HOUSE_NO":"２１號五樓之３","E_COORD97":167527.20000000001,"N_COORD97":2544847.54,"ADDRESS":"成功路６００巷２１號五樓之３","OBJECTID":372662},"geometry":{"x":167527.19999999925,"y":2544847.540000001}},{"attributes":{"ID":372673,"DIS_CODE":0,"TOWNNAME":"南區","LI":"明亮里","LIN":"10鄰","STREET":"新都路","SECT":" ","MAREA":" ","LANE":"４６２巷","ALLEY":" ","HOUSE_NO":"２７號五樓","E_COORD97":167246.06,"N_COORD97":2540939.6600000001,"ADDRESS":"新都路４６２巷２７號五樓","OBJECTID":372663},"geometry":{"x":167246.05999999959,"y":2540939.660000002}},{"attributes":{"ID":372674,"DIS_CODE":0,"TOWNNAME":"北區","LI":"裕民里","LIN":"10鄰","STREET":"成功路","SECT":" ","MAREA":" ","LANE":"６００巷","ALLEY":" ","HOUSE_NO":"２１號五樓之４","E_COORD97":167527.20000000001,"N_COORD97":2544847.54,"ADDRESS":"成功路６００巷２１號五樓之４","OBJECTID":372664},"geometry":{"x":167527.19999999925,"y":2544847.540000001}},{"attributes":{"ID":372675,"DIS_CODE":0,"TOWNNAME":"北區","LI":"裕民里","LIN":"10鄰","STREET":"成功路","SECT":" ","MAREA":" ","LANE":"６００巷","ALLEY":" ","HOUSE_NO":"２１號五樓之５","E_COORD97":167527.20000000001,"N_COORD97":2544847.54,"ADDRESS":"成功路６００巷２１號五樓之５","OBJECTID":372665},"geometry":{"x":167527.19999999925,"y":2544847.540000001}},{"attributes":{"ID":372676,"DIS_CODE":0,"TOWNNAME":"北區","LI":"裕民里","LIN":"10鄰","STREET":"成功路","SECT":" ","MAREA":" ","LANE":"６００巷","ALLEY":" ","HOUSE_NO":"２１號五樓之６","E_COORD97":167527.20000000001,"N_COORD97":2544847.54,"ADDRESS":"成功路６００巷２１號五樓之６","OBJECTID":372666},"geometry":{"x":167527.19999999925,"y":2544847.540000001}},{"attributes":{"ID":372677,"DIS_CODE":0,"TOWNNAME":"北區","LI":"裕民里","LIN":"10鄰","STREET":"成功路","SECT":" ","MAREA":" ","LANE":"６００巷","ALLEY":" ","HOUSE_NO":"２１號五樓之７","E_COORD97":167527.20000000001,"N_COORD97":2544847.54,"ADDRESS":"成功路６００巷２１號五樓之７","OBJECTID":372667},"geometry":{"x":167527.19999999925,"y":2544847.540000001}},{"attributes":{"ID":372678,"DIS_CODE":0,"TOWNNAME":"北區","LI":"裕民里","LIN":"10鄰","STREET":"成功路","SECT":" ","MAREA":" ","LANE":"６００巷","ALLEY":" ","HOUSE_NO":"２１號五樓之８","E_COORD97":167527.20000000001,"N_COORD97":2544847.54,"ADDRESS":"成功路６００巷２１號五樓之８","OBJECTID":372668},"geometry":{"x":167527.19999999925,"y":2544847.540000001}},{"attributes":{"ID":372679,"DIS_CODE":0,"TOWNNAME":"北區","LI":"裕民里","LIN":"10鄰","STREET":"成功路","SECT":" ","MAREA":" ","LANE":"６００巷","ALLEY":" ","HOUSE_NO":"２１號五樓之９","E_COORD97":167527.20000000001,"N_COORD97":2544847.54,"ADDRESS":"成功路６００巷２１號五樓之９","OBJECTID":372669},"geometry":{"x":167527.19999999925,"y":2544847.540000001}},{"attributes":{"ID":372680,"DIS_CODE":0,"TOWNNAME":"北區","LI":"裕民里","LIN":"10鄰","STREET":"成功路","SECT":" ","MAREA":" ","LANE":"６００巷","ALLEY":" ","HOUSE_NO":"２１號四樓之１","E_COORD97":167527.20000000001,"N_COORD97":2544847.54,"ADDRESS":"成功路６００巷２１號四樓之１","OBJECTID":372670},"geometry":{"x":167527.19999999925,"y":2544847.540000001}},{"attributes":{"ID":372681,"DIS_CODE":0,"TOWNNAME":"中西區","LI":"藥王里","LIN":"10鄰","STREET":"大新街","SECT":" ","MAREA":" ","LANE":"４７巷","ALLEY":" ","HOUSE_NO":"５號","E_COORD97":167128.62,"N_COORD97":2544418.0099999998,"ADDRESS":"大新街４７巷５號","OBJECTID":372671},"geometry":{"x":167128.62000000011,"y":2544418.0100000016}},{"attributes":{"ID":372682,"DIS_CODE":0,"TOWNNAME":"北區","LI":"裕民里","LIN":"10鄰","STREET":"成功路","SECT":" ","MAREA":" ","LANE":"６００巷","ALLEY":" ","HOUSE_NO":"２１號四樓之２","E_COORD97":167527.20000000001,"N_COORD97":2544847.54,"ADDRESS":"成功路６００巷２１號四樓之２","OBJECTID":372672},"geometry":{"x":167527.19999999925,"y":2544847.540000001}},{"attributes":{"ID":372683,"DIS_CODE":0,"TOWNNAME":"北區","LI":"裕民里","LIN":"10鄰","STREET":"成功路","SECT":" ","MAREA":" ","LANE":"６００巷","ALLEY":" ","HOUSE_NO":"２１號四樓之３","E_COORD97":167527.20000000001,"N_COORD97":2544847.54,"ADDRESS":"成功路６００巷２１號四樓之３","OBJECTID":372673},"geometry":{"x":167527.19999999925,"y":2544847.540000001}},{"attributes":{"ID":372684,"DIS_CODE":0,"TOWNNAME":"北區","LI":"裕民里","LIN":"10鄰","STREET":"成功路","SECT":" ","MAREA":" ","LANE":"６００巷","ALLEY":" ","HOUSE_NO":"２１號四樓之４","E_COORD97":167527.20000000001,"N_COORD97":2544847.54,"ADDRESS":"成功路６００巷２１號四樓之４","OBJECTID":372674},"geometry":{"x":167527.19999999925,"y":2544847.540000001}},{"attributes":{"ID":372685,"DIS_CODE":0,"TOWNNAME":"北區","LI":"裕民里","LIN":"10鄰","STREET":"成功路","SECT":" ","MAREA":" ","LANE":"６００巷","ALLEY":" ","HOUSE_NO":"２１號四樓之５","E_COORD97":167527.20000000001,"N_COORD97":2544847.54,"ADDRESS":"成功路６００巷２１號四樓之５","OBJECTID":372675},"geometry":{"x":167527.19999999925,"y":2544847.540000001}},{"attributes":{"ID":372686,"DIS_CODE":0,"TOWNNAME":"北區","LI":"裕民里","LIN":"10鄰","STREET":"成功路","SECT":" ","MAREA":" ","LANE":"６００巷","ALLEY":" ","HOUSE_NO":"２１號四樓之６","E_COORD97":167527.20000000001,"N_COORD97":2544847.54,"ADDRESS":"成功路６００巷２１號四樓之６","OBJECTID":372676},"geometry":{"x":167527.19999999925,"y":2544847.540000001}},{"attributes":{"ID":372687,"DIS_CODE":0,"TOWNNAME":"北區","LI":"裕民里","LIN":"10鄰","STREET":"成功路","SECT":" ","MAREA":" ","LANE":"６００巷","ALLEY":" ","HOUSE_NO":"２１號四樓之７","E_COORD97":167527.20000000001,"N_COORD97":2544847.54,"ADDRESS":"成功路６００巷２１號四樓之７","OBJECTID":372677},"geometry":{"x":167527.19999999925,"y":2544847.540000001}},{"attributes":{"ID":372688,"DIS_CODE":0,"TOWNNAME":"北區","LI":"裕民里","LIN":"10鄰","STREET":"成功路","SECT":" ","MAREA":" ","LANE":"６００巷","ALLEY":" ","HOUSE_NO":"２１號四樓之８","E_COORD97":167527.20000000001,"N_COORD97":2544847.54,"ADDRESS":"成功路６００巷２１號四樓之８","OBJECTID":372678},"geometry":{"x":167527.19999999925,"y":2544847.540000001}},{"attributes":{"ID":372689,"DIS_CODE":0,"TOWNNAME":"北區","LI":"裕民里","LIN":"10鄰","STREET":"成功路","SECT":" ","MAREA":" ","LANE":"６００巷","ALLEY":" ","HOUSE_NO":"２１號四樓之９","E_COORD97":167527.20000000001,"N_COORD97":2544847.54,"ADDRESS":"成功路６００巷２１號四樓之９","OBJECTID":372679},"geometry":{"x":167527.19999999925,"y":2544847.540000001}},{"attributes":{"ID":372690,"DIS_CODE":0,"TOWNNAME":"北區","LI":"裕民里","LIN":"10鄰","STREET":"臨安路","SECT":"二段","MAREA":" ","LANE":"９１巷","ALLEY":" ","HOUSE_NO":"１號七樓之１","E_COORD97":167643.88,"N_COORD97":2544870.1800000002,"ADDRESS":"臨安路二段９１巷１號七樓之１","OBJECTID":372680},"geometry":{"x":167643.87999999989,"y":2544870.1800000034}},{"attributes":{"ID":372691,"DIS_CODE":0,"TOWNNAME":"北區","LI":"裕民里","LIN":"10鄰","STREET":"臨安路","SECT":"二段","MAREA":" ","LANE":"９１巷","ALLEY":" ","HOUSE_NO":"１號七樓之２","E_COORD97":167643.88,"N_COORD97":2544870.1800000002,"ADDRESS":"臨安路二段９１巷１號七樓之２","OBJECTID":372681},"geometry":{"x":167643.87999999989,"y":2544870.1800000034}},{"attributes":{"ID":372692,"DIS_CODE":0,"TOWNNAME":"北區","LI":"裕民里","LIN":"10鄰","STREET":"臨安路","SECT":"二段","MAREA":" ","LANE":"９１巷","ALLEY":" ","HOUSE_NO":"１號七樓之３","E_COORD97":167643.88,"N_COORD97":2544870.1800000002,"ADDRESS":"臨安路二段９１巷１號七樓之３","OBJECTID":372682},"geometry":{"x":167643.87999999989,"y":2544870.1800000034}},{"attributes":{"ID":372693,"DIS_CODE":0,"TOWNNAME":"北區","LI":"裕民里","LIN":"10鄰","STREET":"臨安路","SECT":"二段","MAREA":" ","LANE":"９１巷","ALLEY":" ","HOUSE_NO":"１號七樓之４","E_COORD97":167643.88,"N_COORD97":2544870.1800000002,"ADDRESS":"臨安路二段９１巷１號七樓之４","OBJECTID":372683},"geometry":{"x":167643.87999999989,"y":2544870.1800000034}},{"attributes":{"ID":372694,"DIS_CODE":0,"TOWNNAME":"北區","LI":"裕民里","LIN":"10鄰","STREET":"臨安路","SECT":"二段","MAREA":" ","LANE":"９１巷","ALLEY":" ","HOUSE_NO":"１號七樓之５","E_COORD97":167643.88,"N_COORD97":2544870.1800000002,"ADDRESS":"臨安路二段９１巷１號七樓之５","OBJECTID":372684},"geometry":{"x":167643.87999999989,"y":2544870.1800000034}},{"attributes":{"ID":372695,"DIS_CODE":0,"TOWNNAME":"北區","LI":"裕民里","LIN":"10鄰","STREET":"臨安路","SECT":"二段","MAREA":" ","LANE":"９１巷","ALLEY":" ","HOUSE_NO":"１號七樓之６","E_COORD97":167643.88,"N_COORD97":2544870.1800000002,"ADDRESS":"臨安路二段９１巷１號七樓之６","OBJECTID":372685},"geometry":{"x":167643.87999999989,"y":2544870.1800000034}},{"attributes":{"ID":372696,"DIS_CODE":0,"TOWNNAME":"北區","LI":"裕民里","LIN":"10鄰","STREET":"臨安路","SECT":"二段","MAREA":" ","LANE":"９１巷","ALLEY":" ","HOUSE_NO":"１號二樓之１","E_COORD97":167643.88,"N_COORD97":2544870.1800000002,"ADDRESS":"臨安路二段９１巷１號二樓之１","OBJECTID":372686},"geometry":{"x":167643.87999999989,"y":2544870.1800000034}},{"attributes":{"ID":372697,"DIS_CODE":0,"TOWNNAME":"北區","LI":"裕民里","LIN":"10鄰","STREET":"臨安路","SECT":"二段","MAREA":" ","LANE":"９１巷","ALLEY":" ","HOUSE_NO":"１號二樓之２","E_COORD97":167643.88,"N_COORD97":2544870.1800000002,"ADDRESS":"臨安路二段９１巷１號二樓之２","OBJECTID":372687},"geometry":{"x":167643.87999999989,"y":2544870.1800000034}},{"attributes":{"ID":372698,"DIS_CODE":0,"TOWNNAME":"北區","LI":"裕民里","LIN":"10鄰","STREET":"臨安路","SECT":"二段","MAREA":" ","LANE":"９１巷","ALLEY":" ","HOUSE_NO":"１號二樓之３","E_COORD97":167643.88,"N_COORD97":2544870.1800000002,"ADDRESS":"臨安路二段９１巷１號二樓之３","OBJECTID":372688},"geometry":{"x":167643.87999999989,"y":2544870.1800000034}},{"attributes":{"ID":372699,"DIS_CODE":0,"TOWNNAME":"北區","LI":"裕民里","LIN":"10鄰","STREET":"臨安路","SECT":"二段","MAREA":" ","LANE":"９１巷","ALLEY":" ","HOUSE_NO":"１號二樓之４","E_COORD97":167643.88,"N_COORD97":2544870.1800000002,"ADDRESS":"臨安路二段９１巷１號二樓之４","OBJECTID":372689},"geometry":{"x":167643.87999999989,"y":2544870.1800000034}},{"attributes":{"ID":372700,"DIS_CODE":0,"TOWNNAME":"北區","LI":"裕民里","LIN":"10鄰","STREET":"臨安路","SECT":"二段","MAREA":" ","LANE":"９１巷","ALLEY":" ","HOUSE_NO":"１號二樓之５","E_COORD97":167643.88,"N_COORD97":2544870.1800000002,"ADDRESS":"臨安路二段９１巷１號二樓之５","OBJECTID":372690},"geometry":{"x":167643.87999999989,"y":2544870.1800000034}},{"attributes":{"ID":372701,"DIS_CODE":0,"TOWNNAME":"北區","LI":"裕民里","LIN":"10鄰","STREET":"臨安路","SECT":"二段","MAREA":" ","LANE":"９１巷","ALLEY":" ","HOUSE_NO":"１號三樓之１","E_COORD97":167643.88,"N_COORD97":2544870.1800000002,"ADDRESS":"臨安路二段９１巷１號三樓之１","OBJECTID":372691},"geometry":{"x":167643.87999999989,"y":2544870.1800000034}},{"attributes":{"ID":372702,"DIS_CODE":0,"TOWNNAME":"北區","LI":"裕民里","LIN":"10鄰","STREET":"臨安路","SECT":"二段","MAREA":" ","LANE":"９１巷","ALLEY":" ","HOUSE_NO":"１號三樓之２","E_COORD97":167643.88,"N_COORD97":2544870.1800000002,"ADDRESS":"臨安路二段９１巷１號三樓之２","OBJECTID":372692},"geometry":{"x":167643.87999999989,"y":2544870.1800000034}},{"attributes":{"ID":372703,"DIS_CODE":0,"TOWNNAME":"北區","LI":"裕民里","LIN":"10鄰","STREET":"臨安路","SECT":"二段","MAREA":" ","LANE":"９１巷","ALLEY":" ","HOUSE_NO":"１號三樓之３","E_COORD97":167643.88,"N_COORD97":2544870.1800000002,"ADDRESS":"臨安路二段９１巷１號三樓之３","OBJECTID":372693},"geometry":{"x":167643.87999999989,"y":2544870.1800000034}},{"attributes":{"ID":372704,"DIS_CODE":0,"TOWNNAME":"北區","LI":"裕民里","LIN":"10鄰","STREET":"臨安路","SECT":"二段","MAREA":" ","LANE":"９１巷","ALLEY":" ","HOUSE_NO":"１號三樓之４","E_COORD97":167643.88,"N_COORD97":2544870.1800000002,"ADDRESS":"臨安路二段９１巷１號三樓之４","OBJECTID":372694},"geometry":{"x":167643.87999999989,"y":2544870.1800000034}},{"attributes":{"ID":372705,"DIS_CODE":0,"TOWNNAME":"北區","LI":"裕民里","LIN":"10鄰","STREET":"臨安路","SECT":"二段","MAREA":" ","LANE":"９１巷","ALLEY":" ","HOUSE_NO":"１號三樓之５","E_COORD97":167643.88,"N_COORD97":2544870.1800000002,"ADDRESS":"臨安路二段９１巷１號三樓之５","OBJECTID":372695},"geometry":{"x":167643.87999999989,"y":2544870.1800000034}},{"attributes":{"ID":372706,"DIS_CODE":0,"TOWNNAME":"北區","LI":"裕民里","LIN":"10鄰","STREET":"臨安路","SECT":"二段","MAREA":" ","LANE":"９１巷","ALLEY":" ","HOUSE_NO":"１號五樓之１","E_COORD97":167643.88,"N_COORD97":2544870.1800000002,"ADDRESS":"臨安路二段９１巷１號五樓之１","OBJECTID":372696},"geometry":{"x":167643.87999999989,"y":2544870.1800000034}},{"attributes":{"ID":372707,"DIS_CODE":0,"TOWNNAME":"北區","LI":"裕民里","LIN":"10鄰","STREET":"臨安路","SECT":"二段","MAREA":" ","LANE":"９１巷","ALLEY":" ","HOUSE_NO":"１號五樓之２","E_COORD97":167643.88,"N_COORD97":2544870.1800000002,"ADDRESS":"臨安路二段９１巷１號五樓之２","OBJECTID":372697},"geometry":{"x":167643.87999999989,"y":2544870.1800000034}},{"attributes":{"ID":372708,"DIS_CODE":0,"TOWNNAME":"北區","LI":"裕民里","LIN":"10鄰","STREET":"臨安路","SECT":"二段","MAREA":" ","LANE":"９１巷","ALLEY":" ","HOUSE_NO":"１號五樓之３","E_COORD97":167643.88,"N_COORD97":2544870.1800000002,"ADDRESS":"臨安路二段９１巷１號五樓之３","OBJECTID":372698},"geometry":{"x":167643.87999999989,"y":2544870.1800000034}},{"attributes":{"ID":372709,"DIS_CODE":0,"TOWNNAME":"北區","LI":"裕民里","LIN":"10鄰","STREET":"臨安路","SECT":"二段","MAREA":" ","LANE":"９１巷","ALLEY":" ","HOUSE_NO":"１號五樓之４","E_COORD97":167643.88,"N_COORD97":2544870.1800000002,"ADDRESS":"臨安路二段９１巷１號五樓之４","OBJECTID":372699},"geometry":{"x":167643.87999999989,"y":2544870.1800000034}},{"attributes":{"ID":372710,"DIS_CODE":0,"TOWNNAME":"北區","LI":"裕民里","LIN":"10鄰","STREET":"臨安路","SECT":"二段","MAREA":" ","LANE":"９１巷","ALLEY":" ","HOUSE_NO":"１號五樓之５","E_COORD97":167643.88,"N_COORD97":2544870.1800000002,"ADDRESS":"臨安路二段９１巷１號五樓之５","OBJECTID":372700},"geometry":{"x":167643.87999999989,"y":2544870.1800000034}},{"attributes":{"ID":372711,"DIS_CODE":0,"TOWNNAME":"北區","LI":"裕民里","LIN":"10鄰","STREET":"臨安路","SECT":"二段","MAREA":" ","LANE":"９１巷","ALLEY":" ","HOUSE_NO":"１號六樓之１","E_COORD97":167643.88,"N_COORD97":2544870.1800000002,"ADDRESS":"臨安路二段９１巷１號六樓之１","OBJECTID":372701},"geometry":{"x":167643.87999999989,"y":2544870.1800000034}},{"attributes":{"ID":372712,"DIS_CODE":0,"TOWNNAME":"北區","LI":"裕民里","LIN":"10鄰","STREET":"臨安路","SECT":"二段","MAREA":" ","LANE":"９１巷","ALLEY":" ","HOUSE_NO":"１號六樓之２","E_COORD97":167643.88,"N_COORD97":2544870.1800000002,"ADDRESS":"臨安路二段９１巷１號六樓之２","OBJECTID":372702},"geometry":{"x":167643.87999999989,"y":2544870.1800000034}},{"attributes":{"ID":372713,"DIS_CODE":0,"TOWNNAME":"北區","LI":"裕民里","LIN":"10鄰","STREET":"臨安路","SECT":"二段","MAREA":" ","LANE":"９１巷","ALLEY":" ","HOUSE_NO":"１號六樓之３","E_COORD97":167643.88,"N_COORD97":2544870.1800000002,"ADDRESS":"臨安路二段９１巷１號六樓之３","OBJECTID":372703},"geometry":{"x":167643.87999999989,"y":2544870.1800000034}},{"attributes":{"ID":372714,"DIS_CODE":0,"TOWNNAME":"北區","LI":"裕民里","LIN":"10鄰","STREET":"臨安路","SECT":"二段","MAREA":" ","LANE":"９１巷","ALLEY":" ","HOUSE_NO":"１號六樓之４","E_COORD97":167643.88,"N_COORD97":2544870.1800000002,"ADDRESS":"臨安路二段９１巷１號六樓之４","OBJECTID":372704},"geometry":{"x":167643.87999999989,"y":2544870.1800000034}},{"attributes":{"ID":372715,"DIS_CODE":0,"TOWNNAME":"北區","LI":"裕民里","LIN":"10鄰","STREET":"臨安路","SECT":"二段","MAREA":" ","LANE":"９１巷","ALLEY":" ","HOUSE_NO":"１號六樓之５","E_COORD97":167643.88,"N_COORD97":2544870.1800000002,"ADDRESS":"臨安路二段９１巷１號六樓之５","OBJECTID":372705},"geometry":{"x":167643.87999999989,"y":2544870.1800000034}},{"attributes":{"ID":372716,"DIS_CODE":0,"TOWNNAME":"北區","LI":"裕民里","LIN":"10鄰","STREET":"臨安路","SECT":"二段","MAREA":" ","LANE":"９１巷","ALLEY":" ","HOUSE_NO":"１號四樓之１","E_COORD97":167643.88,"N_COORD97":2544870.1800000002,"ADDRESS":"臨安路二段９１巷１號四樓之１","OBJECTID":372706},"geometry":{"x":167643.87999999989,"y":2544870.1800000034}},{"attributes":{"ID":372717,"DIS_CODE":0,"TOWNNAME":"北區","LI":"裕民里","LIN":"10鄰","STREET":"臨安路","SECT":"二段","MAREA":" ","LANE":"９１巷","ALLEY":" ","HOUSE_NO":"１號四樓之２","E_COORD97":167643.88,"N_COORD97":2544870.1800000002,"ADDRESS":"臨安路二段９１巷１號四樓之２","OBJECTID":372707},"geometry":{"x":167643.87999999989,"y":2544870.1800000034}},{"attributes":{"ID":372718,"DIS_CODE":0,"TOWNNAME":"北區","LI":"裕民里","LIN":"10鄰","STREET":"臨安路","SECT":"二段","MAREA":" ","LANE":"９１巷","ALLEY":" ","HOUSE_NO":"１號四樓之３","E_COORD97":167643.88,"N_COORD97":2544870.1800000002,"ADDRESS":"臨安路二段９１巷１號四樓之３","OBJECTID":372708},"geometry":{"x":167643.87999999989,"y":2544870.1800000034}},{"attributes":{"ID":372719,"DIS_CODE":0,"TOWNNAME":"北區","LI":"裕民里","LIN":"10鄰","STREET":"臨安路","SECT":"二段","MAREA":" ","LANE":"９１巷","ALLEY":" ","HOUSE_NO":"１號四樓之４","E_COORD97":167643.88,"N_COORD97":2544870.1800000002,"ADDRESS":"臨安路二段９１巷１號四樓之４","OBJECTID":372709},"geometry":{"x":167643.87999999989,"y":2544870.1800000034}},{"attributes":{"ID":372720,"DIS_CODE":0,"TOWNNAME":"北區","LI":"裕民里","LIN":"10鄰","STREET":"臨安路","SECT":"二段","MAREA":" ","LANE":"９１巷","ALLEY":" ","HOUSE_NO":"１號四樓之５","E_COORD97":167643.88,"N_COORD97":2544870.1800000002,"ADDRESS":"臨安路二段９１巷１號四樓之５","OBJECTID":372710},"geometry":{"x":167643.87999999989,"y":2544870.1800000034}},{"attributes":{"ID":372721,"DIS_CODE":0,"TOWNNAME":"北區","LI":"裕民里","LIN":"10鄰","STREET":"臨安路","SECT":"二段","MAREA":" ","LANE":"９１巷","ALLEY":" ","HOUSE_NO":"１號四樓之６","E_COORD97":167643.88,"N_COORD97":2544870.1800000002,"ADDRESS":"臨安路二段９１巷１號四樓之６","OBJECTID":372711},"geometry":{"x":167643.87999999989,"y":2544870.1800000034}},{"attributes":{"ID":372722,"DIS_CODE":0,"TOWNNAME":"東區","LI":"東光里","LIN":"14鄰","STREET":"東光路","SECT":"一段","MAREA":" ","LANE":"１２６巷","ALLEY":" ","HOUSE_NO":"１１號","E_COORD97":171270.20999999999,"N_COORD97":2543889.02,"ADDRESS":"東光路一段１２６巷１１號","OBJECTID":372712},"geometry":{"x":171270.21000000089,"y":2543889.0200000014}},{"attributes":{"ID":372723,"DIS_CODE":0,"TOWNNAME":"仁德區","LI":"保安里","LIN":"10鄰","STREET":"文賢二街","SECT":" ","MAREA":" ","LANE":"２９巷","ALLEY":" ","HOUSE_NO":"１號","E_COORD97":171677.35999999999,"N_COORD97":2536125.8199999998,"ADDRESS":"文賢二街２９巷１號","OBJECTID":372713},"geometry":{"x":171677.36000000034,"y":2536125.8200000003}},{"attributes":{"ID":372724,"DIS_CODE":0,"TOWNNAME":"東區","LI":"大學里","LIN":"11鄰","STREET":"長榮路","SECT":"三段","MAREA":" ","LANE":"６６巷","ALLEY":" ","HOUSE_NO":"２１號","E_COORD97":170294.32999999999,"N_COORD97":2543802.4199999999,"ADDRESS":"長榮路三段６６巷２１號","OBJECTID":372714},"geometry":{"x":170294.33000000007,"y":2543802.4200000018}},{"attributes":{"ID":372725,"DIS_CODE":0,"TOWNNAME":"東區","LI":"富裕里","LIN":"10鄰","STREET":"東門路","SECT":"二段","MAREA":" ","LANE":"３０１巷","ALLEY":" ","HOUSE_NO":"３９號","E_COORD97":170804.85000000001,"N_COORD97":2542718.3500000001,"ADDRESS":"東門路二段３０１巷３９號","OBJECTID":372715},"geometry":{"x":170804.85000000056,"y":2542718.3499999996}},{"attributes":{"ID":372726,"DIS_CODE":0,"TOWNNAME":"安南區","LI":"安慶里","LIN":"13鄰","STREET":"怡安路","SECT":"一段","MAREA":" ","LANE":" ","ALLEY":" ","HOUSE_NO":"２１號","E_COORD97":169487.64000000001,"N_COORD97":2548944.2599999998,"ADDRESS":"怡安路一段２１號","OBJECTID":372716},"geometry":{"x":169487.63999999966,"y":2548944.2599999998}},{"attributes":{"ID":372727,"DIS_CODE":0,"TOWNNAME":"南區","LI":"竹溪里","LIN":"10鄰","STREET":"體育路","SECT":" ","MAREA":" ","LANE":"４３巷","ALLEY":" ","HOUSE_NO":"３８號三樓之２","E_COORD97":168787.73000000001,"N_COORD97":2542187.1099999999,"ADDRESS":"體育路４３巷３８號三樓之２","OBJECTID":372717},"geometry":{"x":168787.73000000138,"y":2542187.1099999994}},{"attributes":{"ID":372728,"DIS_CODE":0,"TOWNNAME":"南區","LI":"竹溪里","LIN":"10鄰","STREET":"體育路","SECT":" ","MAREA":" ","LANE":"４３巷","ALLEY":" ","HOUSE_NO":"３８號五樓之１","E_COORD97":168787.73000000001,"N_COORD97":2542187.1099999999,"ADDRESS":"體育路４３巷３８號五樓之１","OBJECTID":372718},"geometry":{"x":168787.73000000138,"y":2542187.1099999994}},{"attributes":{"ID":372729,"DIS_CODE":0,"TOWNNAME":"南區","LI":"竹溪里","LIN":"10鄰","STREET":"體育路","SECT":" ","MAREA":" ","LANE":"４３巷","ALLEY":" ","HOUSE_NO":"３８號五樓之２","E_COORD97":168787.73000000001,"N_COORD97":2542187.1099999999,"ADDRESS":"體育路４３巷３８號五樓之２","OBJECTID":372719},"geometry":{"x":168787.73000000138,"y":2542187.1099999994}},{"attributes":{"ID":372730,"DIS_CODE":0,"TOWNNAME":"南區","LI":"竹溪里","LIN":"10鄰","STREET":"體育路","SECT":" ","MAREA":" ","LANE":"４３巷","ALLEY":" ","HOUSE_NO":"３８號四樓之１","E_COORD97":168787.73000000001,"N_COORD97":2542187.1099999999,"ADDRESS":"體育路４３巷３８號四樓之１","OBJECTID":372720},"geometry":{"x":168787.73000000138,"y":2542187.1099999994}},{"attributes":{"ID":372731,"DIS_CODE":0,"TOWNNAME":"南區","LI":"竹溪里","LIN":"10鄰","STREET":"體育路","SECT":" ","MAREA":" ","LANE":"４３巷","ALLEY":" ","HOUSE_NO":"３８號三樓之１","E_COORD97":168787.73000000001,"N_COORD97":2542187.1099999999,"ADDRESS":"體育路４３巷３８號三樓之１","OBJECTID":372721},"geometry":{"x":168787.73000000138,"y":2542187.1099999994}},{"attributes":{"ID":372732,"DIS_CODE":0,"TOWNNAME":"南區","LI":"竹溪里","LIN":"10鄰","STREET":"體育路","SECT":" ","MAREA":" ","LANE":"４３巷","ALLEY":" ","HOUSE_NO":"２４號三樓之２","E_COORD97":168781.48999999999,"N_COORD97":2542209.2799999998,"ADDRESS":"體育路４３巷２４號三樓之２","OBJECTID":372722},"geometry":{"x":168781.49000000209,"y":2542209.2800000012}},{"attributes":{"ID":372733,"DIS_CODE":0,"TOWNNAME":"南區","LI":"竹溪里","LIN":"10鄰","STREET":"體育路","SECT":" ","MAREA":" ","LANE":"４３巷","ALLEY":" ","HOUSE_NO":"２４號三樓之３","E_COORD97":168781.48999999999,"N_COORD97":2542209.2799999998,"ADDRESS":"體育路４３巷２４號三樓之３","OBJECTID":372723},"geometry":{"x":168781.49000000209,"y":2542209.2800000012}},{"attributes":{"ID":372734,"DIS_CODE":0,"TOWNNAME":"南區","LI":"竹溪里","LIN":"10鄰","STREET":"體育路","SECT":" ","MAREA":" ","LANE":"４３巷","ALLEY":" ","HOUSE_NO":"２４號五樓之３","E_COORD97":168781.48999999999,"N_COORD97":2542209.2799999998,"ADDRESS":"體育路４３巷２４號五樓之３","OBJECTID":372724},"geometry":{"x":168781.49000000209,"y":2542209.2800000012}},{"attributes":{"ID":372735,"DIS_CODE":0,"TOWNNAME":"南區","LI":"竹溪里","LIN":"10鄰","STREET":"體育路","SECT":" ","MAREA":" ","LANE":"４３巷","ALLEY":" ","HOUSE_NO":"２４號四樓之１","E_COORD97":168781.48999999999,"N_COORD97":2542209.2799999998,"ADDRESS":"體育路４３巷２４號四樓之１","OBJECTID":372725},"geometry":{"x":168781.49000000209,"y":2542209.2800000012}},{"attributes":{"ID":372736,"DIS_CODE":0,"TOWNNAME":"南區","LI":"竹溪里","LIN":"10鄰","STREET":"體育路","SECT":" ","MAREA":" ","LANE":"４３巷","ALLEY":" ","HOUSE_NO":"２４號四樓之３","E_COORD97":168781.48999999999,"N_COORD97":2542209.2799999998,"ADDRESS":"體育路４３巷２４號四樓之３","OBJECTID":372726},"geometry":{"x":168781.49000000209,"y":2542209.2800000012}},{"attributes":{"ID":372737,"DIS_CODE":0,"TOWNNAME":"南區","LI":"竹溪里","LIN":"10鄰","STREET":"體育路","SECT":" ","MAREA":" ","LANE":"４３巷","ALLEY":" ","HOUSE_NO":"２４號三樓之１","E_COORD97":168781.48999999999,"N_COORD97":2542209.2799999998,"ADDRESS":"體育路４３巷２４號三樓之１","OBJECTID":372727},"geometry":{"x":168781.49000000209,"y":2542209.2800000012}},{"attributes":{"ID":372738,"DIS_CODE":0,"TOWNNAME":"南區","LI":"竹溪里","LIN":"10鄰","STREET":"體育路","SECT":" ","MAREA":" ","LANE":"４３巷","ALLEY":" ","HOUSE_NO":"２４號五樓之２","E_COORD97":168781.48999999999,"N_COORD97":2542209.2799999998,"ADDRESS":"體育路４３巷２４號五樓之２","OBJECTID":372728},"geometry":{"x":168781.49000000209,"y":2542209.2800000012}},{"attributes":{"ID":372739,"DIS_CODE":0,"TOWNNAME":"南區","LI":"竹溪里","LIN":"10鄰","STREET":"體育路","SECT":" ","MAREA":" ","LANE":"４３巷","ALLEY":" ","HOUSE_NO":"２４號五樓之１","E_COORD97":168781.48999999999,"N_COORD97":2542209.2799999998,"ADDRESS":"體育路４３巷２４號五樓之１","OBJECTID":372729},"geometry":{"x":168781.49000000209,"y":2542209.2800000012}},{"attributes":{"ID":372740,"DIS_CODE":0,"TOWNNAME":"安平區","LI":"國平里","LIN":"10鄰","STREET":"建平一街","SECT":" ","MAREA":" ","LANE":"２３８巷","ALLEY":" ","HOUSE_NO":"２５號六樓之２","E_COORD97":165397.14000000001,"N_COORD97":2542888.4100000001,"ADDRESS":"建平一街２３８巷２５號六樓之２","OBJECTID":372730},"geometry":{"x":165397.13999999966,"y":2542888.4100000001}},{"attributes":{"ID":372741,"DIS_CODE":0,"TOWNNAME":"南區","LI":"大忠里","LIN":"10鄰","STREET":"中華南路","SECT":"一段","MAREA":" ","LANE":"９７巷","ALLEY":" ","HOUSE_NO":"６６號二樓","E_COORD97":169258.94,"N_COORD97":2541131.9900000002,"ADDRESS":"中華南路一段９７巷６６號二樓","OBJECTID":372731},"geometry":{"x":169258.94000000134,"y":2541131.9900000002}},{"attributes":{"ID":372742,"DIS_CODE":0,"TOWNNAME":"南區","LI":"大忠里","LIN":"10鄰","STREET":"中華南路","SECT":"一段","MAREA":" ","LANE":"９７巷","ALLEY":" ","HOUSE_NO":"６６號三樓","E_COORD97":169258.94,"N_COORD97":2541131.9900000002,"ADDRESS":"中華南路一段９７巷６６號三樓","OBJECTID":372732},"geometry":{"x":169258.94000000134,"y":2541131.9900000002}},{"attributes":{"ID":372743,"DIS_CODE":0,"TOWNNAME":"南區","LI":"大忠里","LIN":"10鄰","STREET":"中華南路","SECT":"一段","MAREA":" ","LANE":"９７巷","ALLEY":" ","HOUSE_NO":"６６號五樓","E_COORD97":169258.94,"N_COORD97":2541131.9900000002,"ADDRESS":"中華南路一段９７巷６６號五樓","OBJECTID":372733},"geometry":{"x":169258.94000000134,"y":2541131.9900000002}},{"attributes":{"ID":372744,"DIS_CODE":0,"TOWNNAME":"南區","LI":"大忠里","LIN":"10鄰","STREET":"中華南路","SECT":"一段","MAREA":" ","LANE":"９７巷","ALLEY":" ","HOUSE_NO":"６６號四樓","E_COORD97":169258.94,"N_COORD97":2541131.9900000002,"ADDRESS":"中華南路一段９７巷６６號四樓","OBJECTID":372734},"geometry":{"x":169258.94000000134,"y":2541131.9900000002}},{"attributes":{"ID":372745,"DIS_CODE":0,"TOWNNAME":"南區","LI":"大忠里","LIN":"10鄰","STREET":"中華南路","SECT":"一段","MAREA":" ","LANE":"９７巷","ALLEY":" ","HOUSE_NO":"６８號二樓","E_COORD97":169260.07000000001,"N_COORD97":2541125.8500000001,"ADDRESS":"中華南路一段９７巷６８號二樓","OBJECTID":372735},"geometry":{"x":169260.0700000003,"y":2541125.8499999978}},{"attributes":{"ID":372746,"DIS_CODE":0,"TOWNNAME":"南區","LI":"大忠里","LIN":"10鄰","STREET":"中華南路","SECT":"一段","MAREA":" ","LANE":"９７巷","ALLEY":" ","HOUSE_NO":"６８號三樓","E_COORD97":169260.07000000001,"N_COORD97":2541125.8500000001,"ADDRESS":"中華南路一段９７巷６８號三樓","OBJECTID":372736},"geometry":{"x":169260.0700000003,"y":2541125.8499999978}},{"attributes":{"ID":372747,"DIS_CODE":0,"TOWNNAME":"永康區","LI":"復國里","LIN":"10鄰","STREET":"復國二路","SECT":" ","MAREA":" ","LANE":"７９巷","ALLEY":" ","HOUSE_NO":"３號","E_COORD97":172818.26000000001,"N_COORD97":2545263.3199999998,"ADDRESS":"復國二路７９巷３號","OBJECTID":372737},"geometry":{"x":172818.25999999978,"y":2545263.320000004}},{"attributes":{"ID":372748,"DIS_CODE":0,"TOWNNAME":"南區","LI":"大忠里","LIN":"10鄰","STREET":"中華南路","SECT":"一段","MAREA":" ","LANE":"９７巷","ALLEY":" ","HOUSE_NO":"６８號五樓","E_COORD97":169260.07000000001,"N_COORD97":2541125.8500000001,"ADDRESS":"中華南路一段９７巷６８號五樓","OBJECTID":372738},"geometry":{"x":169260.0700000003,"y":2541125.8499999978}},{"attributes":{"ID":372749,"DIS_CODE":0,"TOWNNAME":"南區","LI":"大忠里","LIN":"10鄰","STREET":"中華南路","SECT":"一段","MAREA":" ","LANE":"９７巷","ALLEY":" ","HOUSE_NO":"６８號四樓","E_COORD97":169260.07000000001,"N_COORD97":2541125.8500000001,"ADDRESS":"中華南路一段９７巷６８號四樓","OBJECTID":372739},"geometry":{"x":169260.0700000003,"y":2541125.8499999978}},{"attributes":{"ID":372750,"DIS_CODE":0,"TOWNNAME":"新化區","LI":"協興里","LIN":"10鄰","STREET":"正新路","SECT":" ","MAREA":" ","LANE":"３６３巷","ALLEY":" ","HOUSE_NO":"２０號七樓之３","E_COORD97":178479.22,"N_COORD97":2548904.2599999998,"ADDRESS":"正新路３６３巷２０號七樓之３","OBJECTID":372740},"geometry":{"x":178479.21999999881,"y":2548904.2600000035}},{"attributes":{"ID":372751,"DIS_CODE":0,"TOWNNAME":"新化區","LI":"協興里","LIN":"10鄰","STREET":"正新路","SECT":" ","MAREA":" ","LANE":"３６３巷","ALLEY":" ","HOUSE_NO":"２０號八樓之２","E_COORD97":178479.22,"N_COORD97":2548904.2599999998,"ADDRESS":"正新路３６３巷２０號八樓之２","OBJECTID":372741},"geometry":{"x":178479.21999999881,"y":2548904.2600000035}},{"attributes":{"ID":372752,"DIS_CODE":0,"TOWNNAME":"新化區","LI":"協興里","LIN":"10鄰","STREET":"正新路","SECT":" ","MAREA":" ","LANE":"３６３巷","ALLEY":" ","HOUSE_NO":"１６號八樓之２","E_COORD97":178479.22,"N_COORD97":2548904.2599999998,"ADDRESS":"正新路３６３巷１６號八樓之２","OBJECTID":372742},"geometry":{"x":178479.21999999881,"y":2548904.2600000035}},{"attributes":{"ID":372753,"DIS_CODE":0,"TOWNNAME":"新化區","LI":"協興里","LIN":"10鄰","STREET":"正新路","SECT":" ","MAREA":" ","LANE":"３６３巷","ALLEY":" ","HOUSE_NO":"１６號十樓之２","E_COORD97":178479.22,"N_COORD97":2548904.2599999998,"ADDRESS":"正新路３６３巷１６號十樓之２","OBJECTID":372743},"geometry":{"x":178479.21999999881,"y":2548904.2600000035}},{"attributes":{"ID":372754,"DIS_CODE":0,"TOWNNAME":"新化區","LI":"協興里","LIN":"10鄰","STREET":"正新路","SECT":" ","MAREA":" ","LANE":"３６３巷","ALLEY":" ","HOUSE_NO":"１６號六樓之１","E_COORD97":178479.20000000001,"N_COORD97":2548904.2599999998,"ADDRESS":"正新路３６３巷１６號六樓之１","OBJECTID":372744},"geometry":{"x":178479.20000000019,"y":2548904.2600000035}},{"attributes":{"ID":372755,"DIS_CODE":0,"TOWNNAME":"新化區","LI":"協興里","LIN":"10鄰","STREET":"正新路","SECT":" ","MAREA":" ","LANE":"３６３巷","ALLEY":" ","HOUSE_NO":"１６號七樓之２","E_COORD97":178479.22,"N_COORD97":2548904.2599999998,"ADDRESS":"正新路３６３巷１６號七樓之２","OBJECTID":372745},"geometry":{"x":178479.21999999881,"y":2548904.2600000035}},{"attributes":{"ID":372756,"DIS_CODE":0,"TOWNNAME":"新化區","LI":"協興里","LIN":"10鄰","STREET":"正新路","SECT":" ","MAREA":" ","LANE":"３６３巷","ALLEY":" ","HOUSE_NO":"１２號六樓之１","E_COORD97":178479.20000000001,"N_COORD97":2548904.2599999998,"ADDRESS":"正新路３６３巷１２號六樓之１","OBJECTID":372746},"geometry":{"x":178479.20000000019,"y":2548904.2600000035}},{"attributes":{"ID":372757,"DIS_CODE":0,"TOWNNAME":"新化區","LI":"協興里","LIN":"10鄰","STREET":"正新路","SECT":" ","MAREA":" ","LANE":"３６３巷","ALLEY":" ","HOUSE_NO":"１２號十樓之３","E_COORD97":178479.22,"N_COORD97":2548904.2599999998,"ADDRESS":"正新路３６３巷１２號十樓之３","OBJECTID":372747},"geometry":{"x":178479.21999999881,"y":2548904.2600000035}},{"attributes":{"ID":372758,"DIS_CODE":0,"TOWNNAME":"新化區","LI":"協興里","LIN":"10鄰","STREET":"正新路","SECT":" ","MAREA":" ","LANE":"３６３巷","ALLEY":" ","HOUSE_NO":"１６號五樓之１","E_COORD97":178479.20000000001,"N_COORD97":2548904.2599999998,"ADDRESS":"正新路３６３巷１６號五樓之１","OBJECTID":372748},"geometry":{"x":178479.20000000019,"y":2548904.2600000035}},{"attributes":{"ID":372759,"DIS_CODE":0,"TOWNNAME":"新化區","LI":"協興里","LIN":"10鄰","STREET":"正新路","SECT":" ","MAREA":" ","LANE":"３６３巷","ALLEY":" ","HOUSE_NO":"１２號十一樓之２","E_COORD97":178479.47,"N_COORD97":2548904.2599999998,"ADDRESS":"正新路３６３巷１２號十一樓之２","OBJECTID":372749},"geometry":{"x":178479.47000000067,"y":2548904.2600000035}},{"attributes":{"ID":372760,"DIS_CODE":0,"TOWNNAME":"新化區","LI":"協興里","LIN":"10鄰","STREET":"正新路","SECT":" ","MAREA":" ","LANE":"３６３巷","ALLEY":" ","HOUSE_NO":"２０號三樓之２","E_COORD97":178479.22,"N_COORD97":2548904.2599999998,"ADDRESS":"正新路３６３巷２０號三樓之２","OBJECTID":372750},"geometry":{"x":178479.21999999881,"y":2548904.2600000035}},{"attributes":{"ID":372761,"DIS_CODE":0,"TOWNNAME":"新化區","LI":"豐榮里","LIN":"10鄰","STREET":"信義路","SECT":" ","MAREA":" ","LANE":"４８４巷","ALLEY":" ","HOUSE_NO":"２９號六樓之１","E_COORD97":178370.60999999999,"N_COORD97":2548355.2599999998,"ADDRESS":"信義路４８４巷２９號六樓之１","OBJECTID":372751},"geometry":{"x":178370.6100000022,"y":2548355.2600000035}},{"attributes":{"ID":372762,"DIS_CODE":0,"TOWNNAME":"新化區","LI":"協興里","LIN":"10鄰","STREET":"正新路","SECT":" ","MAREA":" ","LANE":"３６３巷","ALLEY":" ","HOUSE_NO":"２０號九樓之１","E_COORD97":178479.20000000001,"N_COORD97":2548904.2599999998,"ADDRESS":"正新路３６３巷２０號九樓之１","OBJECTID":372752},"geometry":{"x":178479.20000000019,"y":2548904.2600000035}},{"attributes":{"ID":372763,"DIS_CODE":0,"TOWNNAME":"南區","LI":"明亮里","LIN":"10鄰","STREET":"新都路","SECT":" ","MAREA":" ","LANE":"４６２巷","ALLEY":" ","HOUSE_NO":"２９號三樓","E_COORD97":167247.94,"N_COORD97":2540949.0600000001,"ADDRESS":"新都路４６２巷２９號三樓","OBJECTID":372753},"geometry":{"x":167247.94000000227,"y":2540949.0599999987}},{"attributes":{"ID":372764,"DIS_CODE":0,"TOWNNAME":"新化區","LI":"協興里","LIN":"10鄰","STREET":"正新路","SECT":" ","MAREA":" ","LANE":"３６３巷","ALLEY":" ","HOUSE_NO":"１６號十一樓之１","E_COORD97":178479.45000000001,"N_COORD97":2548904.2599999998,"ADDRESS":"正新路３６３巷１６號十一樓之１","OBJECTID":372754},"geometry":{"x":178479.45000000019,"y":2548904.2600000035}},{"attributes":{"ID":372765,"DIS_CODE":0,"TOWNNAME":"新化區","LI":"豐榮里","LIN":"10鄰","STREET":"信義路","SECT":" ","MAREA":" ","LANE":"４８４巷","ALLEY":" ","HOUSE_NO":"１５號六樓之２","E_COORD97":179255.63,"N_COORD97":2548354.2599999998,"ADDRESS":"信義路４８４巷１５號六樓之２","OBJECTID":372755},"geometry":{"x":179255.62999999989,"y":2548354.2599999998}},{"attributes":{"ID":372766,"DIS_CODE":0,"TOWNNAME":"新化區","LI":"協興里","LIN":"10鄰","STREET":"正新路","SECT":" ","MAREA":" ","LANE":"３６３巷","ALLEY":" ","HOUSE_NO":"２０號六樓之３","E_COORD97":178479.22,"N_COORD97":2548904.2599999998,"ADDRESS":"正新路３６３巷２０號六樓之３","OBJECTID":372756},"geometry":{"x":178479.21999999881,"y":2548904.2600000035}},{"attributes":{"ID":372767,"DIS_CODE":0,"TOWNNAME":"新化區","LI":"協興里","LIN":"10鄰","STREET":"正新路","SECT":" ","MAREA":" ","LANE":"３６３巷","ALLEY":" ","HOUSE_NO":"２０號十二樓之２","E_COORD97":178479.47,"N_COORD97":2548904.2599999998,"ADDRESS":"正新路３６３巷２０號十二樓之２","OBJECTID":372757},"geometry":{"x":178479.47000000067,"y":2548904.2600000035}},{"attributes":{"ID":372768,"DIS_CODE":0,"TOWNNAME":"新化區","LI":"協興里","LIN":"10鄰","STREET":"正新路","SECT":" ","MAREA":" ","LANE":"３６３巷","ALLEY":" ","HOUSE_NO":"２０號十一樓之２","E_COORD97":178479.47,"N_COORD97":2548904.2599999998,"ADDRESS":"正新路３６３巷２０號十一樓之２","OBJECTID":372758},"geometry":{"x":178479.47000000067,"y":2548904.2600000035}},{"attributes":{"ID":372769,"DIS_CODE":0,"TOWNNAME":"新化區","LI":"協興里","LIN":"10鄰","STREET":"正新路","SECT":" ","MAREA":" ","LANE":"３６３巷","ALLEY":" ","HOUSE_NO":"２０號八樓之３","E_COORD97":178479.22,"N_COORD97":2548904.2599999998,"ADDRESS":"正新路３６３巷２０號八樓之３","OBJECTID":372759},"geometry":{"x":178479.21999999881,"y":2548904.2600000035}},{"attributes":{"ID":372770,"DIS_CODE":0,"TOWNNAME":"新化區","LI":"協興里","LIN":"10鄰","STREET":"正新路","SECT":" ","MAREA":" ","LANE":"３６３巷","ALLEY":" ","HOUSE_NO":"２０號五樓之３","E_COORD97":178479.22,"N_COORD97":2548904.2599999998,"ADDRESS":"正新路３６３巷２０號五樓之３","OBJECTID":372760},"geometry":{"x":178479.21999999881,"y":2548904.2600000035}},{"attributes":{"ID":372771,"DIS_CODE":0,"TOWNNAME":"新化區","LI":"協興里","LIN":"10鄰","STREET":"正新路","SECT":" ","MAREA":" ","LANE":"３６３巷","ALLEY":" ","HOUSE_NO":"２０號四樓之１","E_COORD97":178479.20000000001,"N_COORD97":2548904.2599999998,"ADDRESS":"正新路３６３巷２０號四樓之１","OBJECTID":372761},"geometry":{"x":178479.20000000019,"y":2548904.2600000035}},{"attributes":{"ID":372772,"DIS_CODE":0,"TOWNNAME":"新化區","LI":"協興里","LIN":"10鄰","STREET":"正新路","SECT":" ","MAREA":" ","LANE":"３６３巷","ALLEY":" ","HOUSE_NO":"２０號二樓之２","E_COORD97":178479.22,"N_COORD97":2548904.2599999998,"ADDRESS":"正新路３６３巷２０號二樓之２","OBJECTID":372762},"geometry":{"x":178479.21999999881,"y":2548904.2600000035}},{"attributes":{"ID":372773,"DIS_CODE":0,"TOWNNAME":"新化區","LI":"協興里","LIN":"10鄰","STREET":"正新路","SECT":" ","MAREA":" ","LANE":"３６３巷","ALLEY":" ","HOUSE_NO":"２０號十樓之１","E_COORD97":178479.20000000001,"N_COORD97":2548904.2599999998,"ADDRESS":"正新路３６３巷２０號十樓之１","OBJECTID":372763},"geometry":{"x":178479.20000000019,"y":2548904.2600000035}},{"attributes":{"ID":372774,"DIS_CODE":0,"TOWNNAME":"新化區","LI":"協興里","LIN":"10鄰","STREET":"正新路","SECT":" ","MAREA":" ","LANE":"３６３巷","ALLEY":" ","HOUSE_NO":"２０號十樓之４","E_COORD97":178479.20000000001,"N_COORD97":2548904.2599999998,"ADDRESS":"正新路３６３巷２０號十樓之４","OBJECTID":372764},"geometry":{"x":178479.20000000019,"y":2548904.2600000035}},{"attributes":{"ID":372775,"DIS_CODE":0,"TOWNNAME":"新化區","LI":"協興里","LIN":"10鄰","STREET":"正新路","SECT":" ","MAREA":" ","LANE":"３６３巷","ALLEY":" ","HOUSE_NO":"２０號六樓之１","E_COORD97":178479.20000000001,"N_COORD97":2548904.2599999998,"ADDRESS":"正新路３６３巷２０號六樓之１","OBJECTID":372765},"geometry":{"x":178479.20000000019,"y":2548904.2600000035}},{"attributes":{"ID":372776,"DIS_CODE":0,"TOWNNAME":"新化區","LI":"協興里","LIN":"10鄰","STREET":"正新路","SECT":" ","MAREA":" ","LANE":"３６３巷","ALLEY":" ","HOUSE_NO":"１６號九樓之２","E_COORD97":178479.22,"N_COORD97":2548904.2599999998,"ADDRESS":"正新路３６３巷１６號九樓之２","OBJECTID":372766},"geometry":{"x":178479.21999999881,"y":2548904.2600000035}},{"attributes":{"ID":372777,"DIS_CODE":0,"TOWNNAME":"新化區","LI":"協興里","LIN":"10鄰","STREET":"正新路","SECT":" ","MAREA":" ","LANE":"３６３巷","ALLEY":" ","HOUSE_NO":"１２號九樓之２","E_COORD97":178479.22,"N_COORD97":2548904.2599999998,"ADDRESS":"正新路３６３巷１２號九樓之２","OBJECTID":372767},"geometry":{"x":178479.21999999881,"y":2548904.2600000035}},{"attributes":{"ID":372778,"DIS_CODE":0,"TOWNNAME":"新化區","LI":"協興里","LIN":"10鄰","STREET":"正新路","SECT":" ","MAREA":" ","LANE":"３６３巷","ALLEY":" ","HOUSE_NO":"１２號六樓之２","E_COORD97":178479.22,"N_COORD97":2548904.2599999998,"ADDRESS":"正新路３６３巷１２號六樓之２","OBJECTID":372768},"geometry":{"x":178479.21999999881,"y":2548904.2600000035}},{"attributes":{"ID":372779,"DIS_CODE":0,"TOWNNAME":"新化區","LI":"協興里","LIN":"10鄰","STREET":"正新路","SECT":" ","MAREA":" ","LANE":"３６３巷","ALLEY":" ","HOUSE_NO":"１２號十二樓之１","E_COORD97":178479.45000000001,"N_COORD97":2548904.2599999998,"ADDRESS":"正新路３６３巷１２號十二樓之１","OBJECTID":372769},"geometry":{"x":178479.45000000019,"y":2548904.2600000035}},{"attributes":{"ID":372780,"DIS_CODE":0,"TOWNNAME":"新化區","LI":"協興里","LIN":"10鄰","STREET":"正新路","SECT":" ","MAREA":" ","LANE":"３６３巷","ALLEY":" ","HOUSE_NO":"２０號七樓之１","E_COORD97":178479.20000000001,"N_COORD97":2548904.2599999998,"ADDRESS":"正新路３６３巷２０號七樓之１","OBJECTID":372770},"geometry":{"x":178479.20000000019,"y":2548904.2600000035}},{"attributes":{"ID":372781,"DIS_CODE":0,"TOWNNAME":"新化區","LI":"協興里","LIN":"10鄰","STREET":"正新路","SECT":" ","MAREA":" ","LANE":"３６３巷","ALLEY":" ","HOUSE_NO":"１６號十樓之１","E_COORD97":178479.20000000001,"N_COORD97":2548904.2599999998,"ADDRESS":"正新路３６３巷１６號十樓之１","OBJECTID":372771},"geometry":{"x":178479.20000000019,"y":2548904.2600000035}},{"attributes":{"ID":372782,"DIS_CODE":0,"TOWNNAME":"新化區","LI":"協興里","LIN":"10鄰","STREET":"正新路","SECT":" ","MAREA":" ","LANE":"３６３巷","ALLEY":" ","HOUSE_NO":"１６號八樓之１","E_COORD97":178479.20000000001,"N_COORD97":2548904.2599999998,"ADDRESS":"正新路３６３巷１６號八樓之１","OBJECTID":372772},"geometry":{"x":178479.20000000019,"y":2548904.2600000035}},{"attributes":{"ID":372783,"DIS_CODE":0,"TOWNNAME":"新化區","LI":"協興里","LIN":"10鄰","STREET":"正新路","SECT":" ","MAREA":" ","LANE":"３６３巷","ALLEY":" ","HOUSE_NO":"２０號六樓之２","E_COORD97":178479.22,"N_COORD97":2548904.2599999998,"ADDRESS":"正新路３６３巷２０號六樓之２","OBJECTID":372773},"geometry":{"x":178479.21999999881,"y":2548904.2600000035}},{"attributes":{"ID":372784,"DIS_CODE":0,"TOWNNAME":"新化區","LI":"協興里","LIN":"10鄰","STREET":"正新路","SECT":" ","MAREA":" ","LANE":"３６３巷","ALLEY":" ","HOUSE_NO":"２０號三樓之３","E_COORD97":178479.22,"N_COORD97":2548904.2599999998,"ADDRESS":"正新路３６３巷２０號三樓之３","OBJECTID":372774},"geometry":{"x":178479.21999999881,"y":2548904.2600000035}},{"attributes":{"ID":372785,"DIS_CODE":0,"TOWNNAME":"新化區","LI":"協興里","LIN":"10鄰","STREET":"正新路","SECT":" ","MAREA":" ","LANE":"３６３巷","ALLEY":" ","HOUSE_NO":"２０號八樓之１","E_COORD97":178479.20000000001,"N_COORD97":2548904.2599999998,"ADDRESS":"正新路３６３巷２０號八樓之１","OBJECTID":372775},"geometry":{"x":178479.20000000019,"y":2548904.2600000035}},{"attributes":{"ID":372786,"DIS_CODE":0,"TOWNNAME":"新化區","LI":"協興里","LIN":"10鄰","STREET":"正新路","SECT":" ","MAREA":" ","LANE":"３６３巷","ALLEY":" ","HOUSE_NO":"２０號十一樓之１","E_COORD97":178479.45000000001,"N_COORD97":2548904.2599999998,"ADDRESS":"正新路３６３巷２０號十一樓之１","OBJECTID":372776},"geometry":{"x":178479.45000000019,"y":2548904.2600000035}},{"attributes":{"ID":372787,"DIS_CODE":0,"TOWNNAME":"新化區","LI":"協興里","LIN":"10鄰","STREET":"正新路","SECT":" ","MAREA":" ","LANE":"３６３巷","ALLEY":" ","HOUSE_NO":"２０號三樓之１","E_COORD97":178479.20000000001,"N_COORD97":2548904.2599999998,"ADDRESS":"正新路３６３巷２０號三樓之１","OBJECTID":372777},"geometry":{"x":178479.20000000019,"y":2548904.2600000035}},{"attributes":{"ID":372788,"DIS_CODE":0,"TOWNNAME":"新化區","LI":"協興里","LIN":"10鄰","STREET":"正新路","SECT":" ","MAREA":" ","LANE":"３６３巷","ALLEY":" ","HOUSE_NO":"２０號十樓之３","E_COORD97":178479.22,"N_COORD97":2548904.2599999998,"ADDRESS":"正新路３６３巷２０號十樓之３","OBJECTID":372778},"geometry":{"x":178479.21999999881,"y":2548904.2600000035}},{"attributes":{"ID":372789,"DIS_CODE":0,"TOWNNAME":"新化區","LI":"協興里","LIN":"10鄰","STREET":"正新路","SECT":" ","MAREA":" ","LANE":"３６３巷","ALLEY":" ","HOUSE_NO":"２０號十二樓之１","E_COORD97":178479.45000000001,"N_COORD97":2548904.2599999998,"ADDRESS":"正新路３６３巷２０號十二樓之１","OBJECTID":372779},"geometry":{"x":178479.45000000019,"y":2548904.2600000035}},{"attributes":{"ID":372790,"DIS_CODE":0,"TOWNNAME":"仁德區","LI":"仁義里","LIN":"10鄰","STREET":"中山路","SECT":" ","MAREA":" ","LANE":"５３９巷","ALLEY":" ","HOUSE_NO":"５號九樓之２","E_COORD97":173487.20000000001,"N_COORD97":2541224.54,"ADDRESS":"中山路５３９巷５號九樓之２","OBJECTID":372780},"geometry":{"x":173487.20000000019,"y":2541224.5399999991}},{"attributes":{"ID":372791,"DIS_CODE":0,"TOWNNAME":"中西區","LI":"元安里","LIN":"10鄰","STREET":"西門路","SECT":"一段","MAREA":" ","LANE":"７４７巷","ALLEY":" ","HOUSE_NO":"３２號二樓","E_COORD97":167656.54000000001,"N_COORD97":2543343.6000000001,"ADDRESS":"西門路一段７４７巷３２號二樓","OBJECTID":372781},"geometry":{"x":167656.54000000004,"y":2543343.5999999996}},{"attributes":{"ID":372792,"DIS_CODE":0,"TOWNNAME":"中西區","LI":"元安里","LIN":"10鄰","STREET":"西門路","SECT":"一段","MAREA":" ","LANE":"７４７巷","ALLEY":" ","HOUSE_NO":"３２號三樓","E_COORD97":167656.54000000001,"N_COORD97":2543343.6000000001,"ADDRESS":"西門路一段７４７巷３２號三樓","OBJECTID":372782},"geometry":{"x":167656.54000000004,"y":2543343.5999999996}},{"attributes":{"ID":372793,"DIS_CODE":0,"TOWNNAME":"中西區","LI":"元安里","LIN":"10鄰","STREET":"西門路","SECT":"一段","MAREA":" ","LANE":"７４７巷","ALLEY":" ","HOUSE_NO":"３２號四樓","E_COORD97":167656.54000000001,"N_COORD97":2543343.6000000001,"ADDRESS":"西門路一段７４７巷３２號四樓","OBJECTID":372783},"geometry":{"x":167656.54000000004,"y":2543343.5999999996}},{"attributes":{"ID":372794,"DIS_CODE":0,"TOWNNAME":"永康區","LI":"安康里","LIN":"10鄰","STREET":"中華路","SECT":" ","MAREA":" ","LANE":"６１９巷","ALLEY":" ","HOUSE_NO":"５３號一樓之２","E_COORD97":170894.20000000001,"N_COORD97":2545979.79,"ADDRESS":"中華路６１９巷５３號一樓之２","OBJECTID":372784},"geometry":{"x":170894.20000000112,"y":2545979.7899999991}},{"attributes":{"ID":372795,"DIS_CODE":0,"TOWNNAME":"永康區","LI":"安康里","LIN":"10鄰","STREET":"中華路","SECT":" ","MAREA":" ","LANE":"６１９巷","ALLEY":" ","HOUSE_NO":"５３號二樓之３","E_COORD97":170894.17000000001,"N_COORD97":2545979.79,"ADDRESS":"中華路６１９巷５３號二樓之３","OBJECTID":372785},"geometry":{"x":170894.17000000086,"y":2545979.7899999991}},{"attributes":{"ID":372796,"DIS_CODE":0,"TOWNNAME":"永康區","LI":"安康里","LIN":"10鄰","STREET":"中華路","SECT":" ","MAREA":" ","LANE":"６１９巷","ALLEY":" ","HOUSE_NO":"５３號四樓之３","E_COORD97":170894.17000000001,"N_COORD97":2545979.79,"ADDRESS":"中華路６１９巷５３號四樓之３","OBJECTID":372786},"geometry":{"x":170894.17000000086,"y":2545979.7899999991}},{"attributes":{"ID":372797,"DIS_CODE":0,"TOWNNAME":"永康區","LI":"安康里","LIN":"10鄰","STREET":"中山南路","SECT":" ","MAREA":" ","LANE":"１２３巷","ALLEY":" ","HOUSE_NO":"３７號三樓之２","E_COORD97":170945.76999999999,"N_COORD97":2546027.0499999998,"ADDRESS":"中山南路１２３巷３７號三樓之２","OBJECTID":372787},"geometry":{"x":170945.77000000048,"y":2546027.0500000007}},{"attributes":{"ID":372798,"DIS_CODE":0,"TOWNNAME":"永康區","LI":"安康里","LIN":"10鄰","STREET":"中華路","SECT":" ","MAREA":" ","LANE":"６１９巷","ALLEY":" ","HOUSE_NO":"５３號三樓之３","E_COORD97":170894.17000000001,"N_COORD97":2545979.79,"ADDRESS":"中華路６１９巷５３號三樓之３","OBJECTID":372788},"geometry":{"x":170894.17000000086,"y":2545979.7899999991}},{"attributes":{"ID":372799,"DIS_CODE":0,"TOWNNAME":"永康區","LI":"安康里","LIN":"10鄰","STREET":"中華路","SECT":" ","MAREA":" ","LANE":"６１９巷","ALLEY":" ","HOUSE_NO":"５３號五樓之２","E_COORD97":170894.20000000001,"N_COORD97":2545979.79,"ADDRESS":"中華路６１９巷５３號五樓之２","OBJECTID":372789},"geometry":{"x":170894.20000000112,"y":2545979.7899999991}},{"attributes":{"ID":372800,"DIS_CODE":0,"TOWNNAME":"永康區","LI":"安康里","LIN":"10鄰","STREET":"中山南路","SECT":" ","MAREA":" ","LANE":"１２３巷","ALLEY":" ","HOUSE_NO":"３７號四樓之２","E_COORD97":170945.76999999999,"N_COORD97":2546027.0499999998,"ADDRESS":"中山南路１２３巷３７號四樓之２","OBJECTID":372790},"geometry":{"x":170945.77000000048,"y":2546027.0500000007}},{"attributes":{"ID":372801,"DIS_CODE":0,"TOWNNAME":"永康區","LI":"安康里","LIN":"10鄰","STREET":"中山南路","SECT":" ","MAREA":" ","LANE":"１２３巷","ALLEY":" ","HOUSE_NO":"３７號四樓之１","E_COORD97":170945.64000000001,"N_COORD97":2546027.0499999998,"ADDRESS":"中山南路１２３巷３７號四樓之１","OBJECTID":372791},"geometry":{"x":170945.63999999966,"y":2546027.0500000007}},{"attributes":{"ID":372802,"DIS_CODE":0,"TOWNNAME":"永康區","LI":"安康里","LIN":"10鄰","STREET":"中山南路","SECT":" ","MAREA":" ","LANE":"１２３巷","ALLEY":" ","HOUSE_NO":"３７號五樓之２","E_COORD97":170945.76999999999,"N_COORD97":2546027.0499999998,"ADDRESS":"中山南路１２３巷３７號五樓之２","OBJECTID":372792},"geometry":{"x":170945.77000000048,"y":2546027.0500000007}},{"attributes":{"ID":372803,"DIS_CODE":0,"TOWNNAME":"永康區","LI":"安康里","LIN":"10鄰","STREET":"中山南路","SECT":" ","MAREA":" ","LANE":"１２３巷","ALLEY":" ","HOUSE_NO":"３７號二樓之２","E_COORD97":170945.76999999999,"N_COORD97":2546027.0499999998,"ADDRESS":"中山南路１２３巷３７號二樓之２","OBJECTID":372793},"geometry":{"x":170945.77000000048,"y":2546027.0500000007}},{"attributes":{"ID":372804,"DIS_CODE":0,"TOWNNAME":"永康區","LI":"安康里","LIN":"10鄰","STREET":"中山南路","SECT":" ","MAREA":" ","LANE":"１２３巷","ALLEY":" ","HOUSE_NO":"３７號五樓之１","E_COORD97":170945.64000000001,"N_COORD97":2546027.0499999998,"ADDRESS":"中山南路１２３巷３７號五樓之１","OBJECTID":372794},"geometry":{"x":170945.63999999966,"y":2546027.0500000007}},{"attributes":{"ID":372805,"DIS_CODE":0,"TOWNNAME":"永康區","LI":"安康里","LIN":"10鄰","STREET":"中華路","SECT":" ","MAREA":" ","LANE":"６１９巷","ALLEY":" ","HOUSE_NO":"５１號一樓之１","E_COORD97":170904.37,"N_COORD97":2545986.29,"ADDRESS":"中華路６１９巷５１號一樓之１","OBJECTID":372795},"geometry":{"x":170904.37000000011,"y":2545986.2899999991}},{"attributes":{"ID":372806,"DIS_CODE":0,"TOWNNAME":"永康區","LI":"安康里","LIN":"10鄰","STREET":"中山南路","SECT":" ","MAREA":" ","LANE":"１２３巷","ALLEY":" ","HOUSE_NO":"３７號三樓之１","E_COORD97":170945.64000000001,"N_COORD97":2546027.0499999998,"ADDRESS":"中山南路１２３巷３７號三樓之１","OBJECTID":372796},"geometry":{"x":170945.63999999966,"y":2546027.0500000007}},{"attributes":{"ID":372807,"DIS_CODE":0,"TOWNNAME":"永康區","LI":"安康里","LIN":"10鄰","STREET":"中華路","SECT":" ","MAREA":" ","LANE":"６１９巷","ALLEY":" ","HOUSE_NO":"５１號五樓之２","E_COORD97":170904.5,"N_COORD97":2545986.29,"ADDRESS":"中華路６１９巷５１號五樓之２","OBJECTID":372797},"geometry":{"x":170904.5,"y":2545986.2899999991}},{"attributes":{"ID":372808,"DIS_CODE":0,"TOWNNAME":"永康區","LI":"安康里","LIN":"10鄰","STREET":"中華路","SECT":" ","MAREA":" ","LANE":"６１９巷","ALLEY":" ","HOUSE_NO":"５１號四樓之１","E_COORD97":170904.37,"N_COORD97":2545986.29,"ADDRESS":"中華路６１９巷５１號四樓之１","OBJECTID":372798},"geometry":{"x":170904.37000000011,"y":2545986.2899999991}},{"attributes":{"ID":372809,"DIS_CODE":0,"TOWNNAME":"仁德區","LI":"仁德里","LIN":"10鄰","STREET":"中正路","SECT":"二段","MAREA":" ","LANE":"１２０５巷","ALLEY":" ","HOUSE_NO":"１３號六樓之１","E_COORD97":173183.82000000001,"N_COORD97":2541157.3100000001,"ADDRESS":"中正路二段１２０５巷１３號六樓之１","OBJECTID":372799},"geometry":{"x":173183.82000000123,"y":2541157.3100000005}},{"attributes":{"ID":372810,"DIS_CODE":0,"TOWNNAME":"仁德區","LI":"仁德里","LIN":"10鄰","STREET":"中正路","SECT":"二段","MAREA":" ","LANE":"１２０５巷","ALLEY":" ","HOUSE_NO":"５號二樓之１","E_COORD97":173225.13,"N_COORD97":2541261.8100000001,"ADDRESS":"中正路二段１２０５巷５號二樓之１","OBJECTID":372800},"geometry":{"x":173225.13000000082,"y":2541261.8100000005}}]}