{"displayFieldName":"TOWNNAME","fieldAliases":{"ID":"ID","DIS_CODE":"DIS_CODE","TOWNNAME":"TOWNNAME","LI":"LI","LIN":"LIN","STREET":"STREET","SECT":"SECT","MAREA":"MAREA","LANE":"LANE","ALLEY":"ALLEY","HOUSE_NO":"HOUSE_NO","E_COORD97":"E_COORD97","N_COORD97":"N_COORD97","ADDRESS":"ADDRESS","OBJECTID":"OBJECTID"},"geometryType":"esriGeometryPoint","spatialReference":{"wkid":102443,"latestWkid":3826},"fields":[{"name":"ID","type":"esriFieldTypeDouble","alias":"ID"},{"name":"DIS_CODE","type":"esriFieldTypeInteger","alias":"DIS_CODE"},{"name":"TOWNNAME","type":"esriFieldTypeString","alias":"TOWNNAME","length":8},{"name":"LI","type":"esriFieldTypeString","alias":"LI","length":8},{"name":"LIN","type":"esriFieldTypeString","alias":"LIN","length":12},{"name":"STREET","type":"esriFieldTypeString","alias":"STREET","length":20},{"name":"SECT","type":"esriFieldTypeString","alias":"SECT","length":8},{"name":"MAREA","type":"esriFieldTypeString","alias":"MAREA","length":12},{"name":"LANE","type":"esriFieldTypeString","alias":"LANE","length":10},{"name":"ALLEY","type":"esriFieldTypeString","alias":"ALLEY","length":10},{"name":"HOUSE_NO","type":"esriFieldTypeString","alias":"HOUSE_NO","length":20},{"name":"E_COORD97","type":"esriFieldTypeDouble","alias":"E_COORD97"},{"name":"N_COORD97","type":"esriFieldTypeDouble","alias":"N_COORD97"},{"name":"ADDRESS","type":"esriFieldTypeString","alias":"ADDRESS","length":50},{"name":"OBJECTID","type":"esriFieldTypeOID","alias":"OBJECTID"}],"features":[{"attributes":{"ID":46801,"DIS_CODE":0,"TOWNNAME":"南區","LI":"日新里","LIN":"15鄰","STREET":"新興路","SECT":" ","MAREA":" ","LANE":"４６１巷","ALLEY":"１０弄","HOUSE_NO":"２４號四樓之３","E_COORD97":166824.45999999999,"N_COORD97":2541651.1699999999,"ADDRESS":"新興路４６１巷１０弄２４號四樓之３","OBJECTID":46801},"geometry":{"x":166824.45999999996,"y":2541651.1700000018}},{"attributes":{"ID":46802,"DIS_CODE":0,"TOWNNAME":"南區","LI":"日新里","LIN":"15鄰","STREET":"新興路","SECT":" ","MAREA":" ","LANE":"４６１巷","ALLEY":"１０弄","HOUSE_NO":"２號三樓之１","E_COORD97":166860.31,"N_COORD97":2541613.23,"ADDRESS":"新興路４６１巷１０弄２號三樓之１","OBJECTID":46802},"geometry":{"x":166860.31000000052,"y":2541613.2300000023}},{"attributes":{"ID":46803,"DIS_CODE":0,"TOWNNAME":"南區","LI":"日新里","LIN":"15鄰","STREET":"新興路","SECT":" ","MAREA":" ","LANE":"４６１巷","ALLEY":"１０弄","HOUSE_NO":"２號三樓之２","E_COORD97":166860.31,"N_COORD97":2541613.23,"ADDRESS":"新興路４６１巷１０弄２號三樓之２","OBJECTID":46803},"geometry":{"x":166860.31000000052,"y":2541613.2300000023}},{"attributes":{"ID":46804,"DIS_CODE":0,"TOWNNAME":"南區","LI":"日新里","LIN":"15鄰","STREET":"新興路","SECT":" ","MAREA":" ","LANE":"４６１巷","ALLEY":"１０弄","HOUSE_NO":"２號五樓之１","E_COORD97":166860.31,"N_COORD97":2541613.23,"ADDRESS":"新興路４６１巷１０弄２號五樓之１","OBJECTID":46804},"geometry":{"x":166860.31000000052,"y":2541613.2300000023}},{"attributes":{"ID":46805,"DIS_CODE":0,"TOWNNAME":"南區","LI":"日新里","LIN":"15鄰","STREET":"新興路","SECT":" ","MAREA":" ","LANE":"４６１巷","ALLEY":"１０弄","HOUSE_NO":"２號五樓之２","E_COORD97":166860.31,"N_COORD97":2541613.23,"ADDRESS":"新興路４６１巷１０弄２號五樓之２","OBJECTID":46805},"geometry":{"x":166860.31000000052,"y":2541613.2300000023}},{"attributes":{"ID":46806,"DIS_CODE":0,"TOWNNAME":"南區","LI":"日新里","LIN":"15鄰","STREET":"新興路","SECT":" ","MAREA":" ","LANE":"４６１巷","ALLEY":"１０弄","HOUSE_NO":"２號四樓之１","E_COORD97":166860.31,"N_COORD97":2541613.23,"ADDRESS":"新興路４６１巷１０弄２號四樓之１","OBJECTID":46806},"geometry":{"x":166860.31000000052,"y":2541613.2300000023}},{"attributes":{"ID":46807,"DIS_CODE":0,"TOWNNAME":"南區","LI":"日新里","LIN":"15鄰","STREET":"新興路","SECT":" ","MAREA":" ","LANE":"４６１巷","ALLEY":"１０弄","HOUSE_NO":"２號四樓之２","E_COORD97":166860.31,"N_COORD97":2541613.23,"ADDRESS":"新興路４６１巷１０弄２號四樓之２","OBJECTID":46807},"geometry":{"x":166860.31000000052,"y":2541613.2300000023}},{"attributes":{"ID":46808,"DIS_CODE":0,"TOWNNAME":"南區","LI":"日新里","LIN":"15鄰","STREET":"新興路","SECT":" ","MAREA":" ","LANE":"４６１巷","ALLEY":"１０弄","HOUSE_NO":"９號三樓之１","E_COORD97":166832.82000000001,"N_COORD97":2541617.0699999998,"ADDRESS":"新興路４６１巷１０弄９號三樓之１","OBJECTID":46808},"geometry":{"x":166832.8200000003,"y":2541617.070000004}},{"attributes":{"ID":46809,"DIS_CODE":0,"TOWNNAME":"南區","LI":"日新里","LIN":"15鄰","STREET":"新興路","SECT":" ","MAREA":" ","LANE":"４６１巷","ALLEY":"１０弄","HOUSE_NO":"９號三樓之２","E_COORD97":166832.82000000001,"N_COORD97":2541617.0699999998,"ADDRESS":"新興路４６１巷１０弄９號三樓之２","OBJECTID":46809},"geometry":{"x":166832.8200000003,"y":2541617.070000004}},{"attributes":{"ID":46810,"DIS_CODE":0,"TOWNNAME":"南區","LI":"日新里","LIN":"15鄰","STREET":"新興路","SECT":" ","MAREA":" ","LANE":"４６１巷","ALLEY":"１０弄","HOUSE_NO":"９號三樓之３","E_COORD97":166832.82000000001,"N_COORD97":2541617.0699999998,"ADDRESS":"新興路４６１巷１０弄９號三樓之３","OBJECTID":46810},"geometry":{"x":166832.8200000003,"y":2541617.070000004}},{"attributes":{"ID":46811,"DIS_CODE":0,"TOWNNAME":"南區","LI":"日新里","LIN":"15鄰","STREET":"新興路","SECT":" ","MAREA":" ","LANE":"４６１巷","ALLEY":"１０弄","HOUSE_NO":"９號五樓之１","E_COORD97":166832.82000000001,"N_COORD97":2541617.0699999998,"ADDRESS":"新興路４６１巷１０弄９號五樓之１","OBJECTID":46811},"geometry":{"x":166832.8200000003,"y":2541617.070000004}},{"attributes":{"ID":46812,"DIS_CODE":0,"TOWNNAME":"南區","LI":"日新里","LIN":"15鄰","STREET":"新興路","SECT":" ","MAREA":" ","LANE":"４６１巷","ALLEY":"１０弄","HOUSE_NO":"９號五樓之２","E_COORD97":166832.82000000001,"N_COORD97":2541617.0699999998,"ADDRESS":"新興路４６１巷１０弄９號五樓之２","OBJECTID":46812},"geometry":{"x":166832.8200000003,"y":2541617.070000004}},{"attributes":{"ID":46813,"DIS_CODE":0,"TOWNNAME":"南區","LI":"日新里","LIN":"15鄰","STREET":"新興路","SECT":" ","MAREA":" ","LANE":"４６１巷","ALLEY":"１０弄","HOUSE_NO":"９號四樓之１","E_COORD97":166832.82000000001,"N_COORD97":2541617.0699999998,"ADDRESS":"新興路４６１巷１０弄９號四樓之１","OBJECTID":46813},"geometry":{"x":166832.8200000003,"y":2541617.070000004}},{"attributes":{"ID":46814,"DIS_CODE":0,"TOWNNAME":"南區","LI":"日新里","LIN":"15鄰","STREET":"新興路","SECT":" ","MAREA":" ","LANE":"４６１巷","ALLEY":"１０弄","HOUSE_NO":"９號四樓之２","E_COORD97":166832.82000000001,"N_COORD97":2541617.0699999998,"ADDRESS":"新興路４６１巷１０弄９號四樓之２","OBJECTID":46814},"geometry":{"x":166832.8200000003,"y":2541617.070000004}},{"attributes":{"ID":46815,"DIS_CODE":0,"TOWNNAME":"南區","LI":"郡南里","LIN":"15鄰","STREET":"德興路","SECT":" ","MAREA":" ","LANE":"１３９巷","ALLEY":"４４弄","HOUSE_NO":"２６號二樓之２","E_COORD97":167358.79000000001,"N_COORD97":2540390.5800000001,"ADDRESS":"德興路１３９巷４４弄２６號二樓之２","OBJECTID":46815},"geometry":{"x":167358.7900000019,"y":2540390.5800000019}},{"attributes":{"ID":46816,"DIS_CODE":0,"TOWNNAME":"南區","LI":"郡南里","LIN":"15鄰","STREET":"德興路","SECT":" ","MAREA":" ","LANE":"１３９巷","ALLEY":"４４弄","HOUSE_NO":"２６號二樓之４","E_COORD97":167358.79000000001,"N_COORD97":2540390.5800000001,"ADDRESS":"德興路１３９巷４４弄２６號二樓之４","OBJECTID":46816},"geometry":{"x":167358.7900000019,"y":2540390.5800000019}},{"attributes":{"ID":46817,"DIS_CODE":0,"TOWNNAME":"南區","LI":"郡南里","LIN":"15鄰","STREET":"德興路","SECT":" ","MAREA":" ","LANE":"１３９巷","ALLEY":"４４弄","HOUSE_NO":"２６號三樓之１","E_COORD97":167358.79000000001,"N_COORD97":2540390.5800000001,"ADDRESS":"德興路１３９巷４４弄２６號三樓之１","OBJECTID":46817},"geometry":{"x":167358.7900000019,"y":2540390.5800000019}},{"attributes":{"ID":46818,"DIS_CODE":0,"TOWNNAME":"南區","LI":"郡南里","LIN":"15鄰","STREET":"德興路","SECT":" ","MAREA":" ","LANE":"１３９巷","ALLEY":"４４弄","HOUSE_NO":"２６號三樓之２","E_COORD97":167358.79000000001,"N_COORD97":2540390.5800000001,"ADDRESS":"德興路１３９巷４４弄２６號三樓之２","OBJECTID":46818},"geometry":{"x":167358.7900000019,"y":2540390.5800000019}},{"attributes":{"ID":46819,"DIS_CODE":0,"TOWNNAME":"南區","LI":"郡南里","LIN":"15鄰","STREET":"德興路","SECT":" ","MAREA":" ","LANE":"１３９巷","ALLEY":"４４弄","HOUSE_NO":"２６號三樓之３","E_COORD97":167358.79000000001,"N_COORD97":2540390.5800000001,"ADDRESS":"德興路１３９巷４４弄２６號三樓之３","OBJECTID":46819},"geometry":{"x":167358.7900000019,"y":2540390.5800000019}},{"attributes":{"ID":46820,"DIS_CODE":0,"TOWNNAME":"南區","LI":"郡南里","LIN":"15鄰","STREET":"德興路","SECT":" ","MAREA":" ","LANE":"１３９巷","ALLEY":"４４弄","HOUSE_NO":"２６號三樓之５","E_COORD97":167358.79000000001,"N_COORD97":2540390.5800000001,"ADDRESS":"德興路１３９巷４４弄２６號三樓之５","OBJECTID":46820},"geometry":{"x":167358.7900000019,"y":2540390.5800000019}},{"attributes":{"ID":46821,"DIS_CODE":0,"TOWNNAME":"東山區","LI":"東河里","LIN":"15鄰","STREET":" ","SECT":" ","MAREA":"吉貝耍","LANE":" ","ALLEY":" ","HOUSE_NO":"１４２號","E_COORD97":186740.19,"N_COORD97":2577215.9100000001,"ADDRESS":"吉貝耍１４２號","OBJECTID":46821},"geometry":{"x":186740.19000000041,"y":2577215.9100000001}},{"attributes":{"ID":46822,"DIS_CODE":0,"TOWNNAME":"南區","LI":"郡南里","LIN":"15鄰","STREET":"德興路","SECT":" ","MAREA":" ","LANE":"１３９巷","ALLEY":"４４弄","HOUSE_NO":"２６號五樓之１","E_COORD97":167358.79000000001,"N_COORD97":2540390.5800000001,"ADDRESS":"德興路１３９巷４４弄２６號五樓之１","OBJECTID":46822},"geometry":{"x":167358.7900000019,"y":2540390.5800000019}},{"attributes":{"ID":46823,"DIS_CODE":0,"TOWNNAME":"南區","LI":"郡南里","LIN":"15鄰","STREET":"德興路","SECT":" ","MAREA":" ","LANE":"１３９巷","ALLEY":"４４弄","HOUSE_NO":"２６號五樓之２","E_COORD97":167358.79000000001,"N_COORD97":2540390.5800000001,"ADDRESS":"德興路１３９巷４４弄２６號五樓之２","OBJECTID":46823},"geometry":{"x":167358.7900000019,"y":2540390.5800000019}},{"attributes":{"ID":46824,"DIS_CODE":0,"TOWNNAME":"南區","LI":"郡南里","LIN":"15鄰","STREET":"德興路","SECT":" ","MAREA":" ","LANE":"１３９巷","ALLEY":"４４弄","HOUSE_NO":"２６號五樓之３","E_COORD97":167358.79000000001,"N_COORD97":2540390.5800000001,"ADDRESS":"德興路１３９巷４４弄２６號五樓之３","OBJECTID":46824},"geometry":{"x":167358.7900000019,"y":2540390.5800000019}},{"attributes":{"ID":46825,"DIS_CODE":0,"TOWNNAME":"南區","LI":"郡南里","LIN":"15鄰","STREET":"德興路","SECT":" ","MAREA":" ","LANE":"１３９巷","ALLEY":"４４弄","HOUSE_NO":"２６號五樓之４","E_COORD97":167358.79000000001,"N_COORD97":2540390.5800000001,"ADDRESS":"德興路１３９巷４４弄２６號五樓之４","OBJECTID":46825},"geometry":{"x":167358.7900000019,"y":2540390.5800000019}},{"attributes":{"ID":46826,"DIS_CODE":0,"TOWNNAME":"南區","LI":"郡南里","LIN":"15鄰","STREET":"德興路","SECT":" ","MAREA":" ","LANE":"１３９巷","ALLEY":"４４弄","HOUSE_NO":"２６號六樓之１","E_COORD97":167358.79000000001,"N_COORD97":2540390.5800000001,"ADDRESS":"德興路１３９巷４４弄２６號六樓之１","OBJECTID":46826},"geometry":{"x":167358.7900000019,"y":2540390.5800000019}},{"attributes":{"ID":46827,"DIS_CODE":0,"TOWNNAME":"南區","LI":"郡南里","LIN":"15鄰","STREET":"德興路","SECT":" ","MAREA":" ","LANE":"１３９巷","ALLEY":"４４弄","HOUSE_NO":"２６號六樓之２","E_COORD97":167358.79000000001,"N_COORD97":2540390.5800000001,"ADDRESS":"德興路１３９巷４４弄２６號六樓之２","OBJECTID":46827},"geometry":{"x":167358.7900000019,"y":2540390.5800000019}},{"attributes":{"ID":46828,"DIS_CODE":0,"TOWNNAME":"南區","LI":"郡南里","LIN":"15鄰","STREET":"德興路","SECT":" ","MAREA":" ","LANE":"１３９巷","ALLEY":"４４弄","HOUSE_NO":"２６號六樓之３","E_COORD97":167358.79000000001,"N_COORD97":2540390.5800000001,"ADDRESS":"德興路１３９巷４４弄２６號六樓之３","OBJECTID":46828},"geometry":{"x":167358.7900000019,"y":2540390.5800000019}},{"attributes":{"ID":46829,"DIS_CODE":0,"TOWNNAME":"南區","LI":"文華里","LIN":"17鄰","STREET":"南樂街","SECT":" ","MAREA":" ","LANE":" ","ALLEY":" ","HOUSE_NO":"１３號五樓","E_COORD97":166836.76999999999,"N_COORD97":2543166.2400000002,"ADDRESS":"南樂街１３號五樓","OBJECTID":46829},"geometry":{"x":166836.77000000048,"y":2543166.2400000021}},{"attributes":{"ID":46830,"DIS_CODE":0,"TOWNNAME":"東山區","LI":"東原里","LIN":"15鄰","STREET":" ","SECT":" ","MAREA":"瓦厝子","LANE":" ","ALLEY":" ","HOUSE_NO":"９號","E_COORD97":193580,"N_COORD97":2574375.1000000001,"ADDRESS":"瓦厝子９號","OBJECTID":46830},"geometry":{"x":193579.99999999907,"y":2574375.1000000015}},{"attributes":{"ID":46831,"DIS_CODE":0,"TOWNNAME":"永康區","LI":"大橋里","LIN":"15鄰","STREET":"大橋一街","SECT":" ","MAREA":" ","LANE":"１０３巷","ALLEY":"４１弄","HOUSE_NO":"８號","E_COORD97":170916.79000000001,"N_COORD97":2546499.7999999998,"ADDRESS":"大橋一街１０３巷４１弄８號","OBJECTID":46831},"geometry":{"x":170916.78999999911,"y":2546499.8000000007}},{"attributes":{"ID":46832,"DIS_CODE":0,"TOWNNAME":"麻豆區","LI":"埤頭里","LIN":"15鄰","STREET":" ","SECT":" ","MAREA":"埤頭","LANE":" ","ALLEY":" ","HOUSE_NO":"１３０號之１","E_COORD97":170715.29000000001,"N_COORD97":2566773.1099999999,"ADDRESS":"埤頭１３０號之１","OBJECTID":46832},"geometry":{"x":170715.2900000019,"y":2566773.1100000013}},{"attributes":{"ID":46833,"DIS_CODE":0,"TOWNNAME":"南區","LI":"郡南里","LIN":"15鄰","STREET":"德興路","SECT":" ","MAREA":" ","LANE":"１３９巷","ALLEY":"４４弄","HOUSE_NO":"２６號六樓之４","E_COORD97":167358.79000000001,"N_COORD97":2540390.5800000001,"ADDRESS":"德興路１３９巷４４弄２６號六樓之４","OBJECTID":46833},"geometry":{"x":167358.7900000019,"y":2540390.5800000019}},{"attributes":{"ID":46834,"DIS_CODE":0,"TOWNNAME":"南區","LI":"郡南里","LIN":"15鄰","STREET":"德興路","SECT":" ","MAREA":" ","LANE":"１３９巷","ALLEY":"４４弄","HOUSE_NO":"２６號四樓之１","E_COORD97":167358.79000000001,"N_COORD97":2540390.5800000001,"ADDRESS":"德興路１３９巷４４弄２６號四樓之１","OBJECTID":46834},"geometry":{"x":167358.7900000019,"y":2540390.5800000019}},{"attributes":{"ID":46835,"DIS_CODE":0,"TOWNNAME":"南區","LI":"郡南里","LIN":"15鄰","STREET":"德興路","SECT":" ","MAREA":" ","LANE":"１３９巷","ALLEY":"４４弄","HOUSE_NO":"２６號四樓之２","E_COORD97":167358.79000000001,"N_COORD97":2540390.5800000001,"ADDRESS":"德興路１３９巷４４弄２６號四樓之２","OBJECTID":46835},"geometry":{"x":167358.7900000019,"y":2540390.5800000019}},{"attributes":{"ID":46836,"DIS_CODE":0,"TOWNNAME":"南區","LI":"郡南里","LIN":"15鄰","STREET":"德興路","SECT":" ","MAREA":" ","LANE":"１３９巷","ALLEY":"４４弄","HOUSE_NO":"２６號四樓之３","E_COORD97":167358.79000000001,"N_COORD97":2540390.5800000001,"ADDRESS":"德興路１３９巷４４弄２６號四樓之３","OBJECTID":46836},"geometry":{"x":167358.7900000019,"y":2540390.5800000019}},{"attributes":{"ID":46837,"DIS_CODE":0,"TOWNNAME":"南區","LI":"郡南里","LIN":"15鄰","STREET":"德興路","SECT":" ","MAREA":" ","LANE":"１３９巷","ALLEY":"４４弄","HOUSE_NO":"２６號四樓之４","E_COORD97":167358.79000000001,"N_COORD97":2540390.5800000001,"ADDRESS":"德興路１３９巷４４弄２６號四樓之４","OBJECTID":46837},"geometry":{"x":167358.7900000019,"y":2540390.5800000019}},{"attributes":{"ID":46838,"DIS_CODE":0,"TOWNNAME":"南區","LI":"郡南里","LIN":"15鄰","STREET":"德興路","SECT":" ","MAREA":" ","LANE":"１３９巷","ALLEY":"４４弄","HOUSE_NO":"２６號四樓之５","E_COORD97":167358.79000000001,"N_COORD97":2540390.5800000001,"ADDRESS":"德興路１３９巷４４弄２６號四樓之５","OBJECTID":46838},"geometry":{"x":167358.7900000019,"y":2540390.5800000019}},{"attributes":{"ID":46839,"DIS_CODE":0,"TOWNNAME":"南區","LI":"郡南里","LIN":"15鄰","STREET":"德興路","SECT":" ","MAREA":" ","LANE":"１３９巷","ALLEY":"４４弄","HOUSE_NO":"２６號三樓之４","E_COORD97":167358.79000000001,"N_COORD97":2540390.5800000001,"ADDRESS":"德興路１３９巷４４弄２６號三樓之４","OBJECTID":46839},"geometry":{"x":167358.7900000019,"y":2540390.5800000019}},{"attributes":{"ID":46840,"DIS_CODE":0,"TOWNNAME":"關廟區","LI":"龜洞里","LIN":"7鄰","STREET":"南雄南路","SECT":" ","MAREA":" ","LANE":"７０１巷","ALLEY":"１６弄","HOUSE_NO":"１３號","E_COORD97":183339.51629699999,"N_COORD97":2533391.1452500001,"ADDRESS":"南雄南路７０１巷１６弄１３號","OBJECTID":46840},"geometry":{"x":183339.51629699953,"y":2533391.1452500001}},{"attributes":{"ID":46841,"DIS_CODE":0,"TOWNNAME":"仁德區","LI":"新田里","LIN":"17鄰","STREET":"民安路","SECT":"二段","MAREA":" ","LANE":" ","ALLEY":" ","HOUSE_NO":"７７號一樓之１","E_COORD97":173501.17999999999,"N_COORD97":2539215.3100000001,"ADDRESS":"民安路二段７７號一樓之１","OBJECTID":46841},"geometry":{"x":173501.18000000063,"y":2539215.3100000042}},{"attributes":{"ID":46842,"DIS_CODE":0,"TOWNNAME":"東山區","LI":"東河里","LIN":"15鄰","STREET":" ","SECT":" ","MAREA":"吉貝耍","LANE":" ","ALLEY":" ","HOUSE_NO":"１３４號","E_COORD97":186698.54000000001,"N_COORD97":2577161.1299999999,"ADDRESS":"吉貝耍１３４號","OBJECTID":46842},"geometry":{"x":186698.54000000004,"y":2577161.1300000008}},{"attributes":{"ID":46843,"DIS_CODE":0,"TOWNNAME":"東山區","LI":"東河里","LIN":"15鄰","STREET":" ","SECT":" ","MAREA":"吉貝耍","LANE":" ","ALLEY":" ","HOUSE_NO":"１３６號","E_COORD97":186709.87,"N_COORD97":2577181.3300000001,"ADDRESS":"吉貝耍１３６號","OBJECTID":46843},"geometry":{"x":186709.87000000011,"y":2577181.3300000019}},{"attributes":{"ID":46844,"DIS_CODE":0,"TOWNNAME":"東山區","LI":"東河里","LIN":"15鄰","STREET":" ","SECT":" ","MAREA":"吉貝耍","LANE":" ","ALLEY":" ","HOUSE_NO":"１３７號之２","E_COORD97":186655.94,"N_COORD97":2577243.2000000002,"ADDRESS":"吉貝耍１３７號之２","OBJECTID":46844},"geometry":{"x":186655.94000000041,"y":2577243.1999999993}},{"attributes":{"ID":46845,"DIS_CODE":0,"TOWNNAME":"東山區","LI":"東河里","LIN":"15鄰","STREET":" ","SECT":" ","MAREA":"吉貝耍","LANE":" ","ALLEY":" ","HOUSE_NO":"１３７號之３","E_COORD97":186636.45999999999,"N_COORD97":2577272.5800000001,"ADDRESS":"吉貝耍１３７號之３","OBJECTID":46845},"geometry":{"x":186636.45999999996,"y":2577272.5800000001}},{"attributes":{"ID":46846,"DIS_CODE":0,"TOWNNAME":"東山區","LI":"東河里","LIN":"15鄰","STREET":" ","SECT":" ","MAREA":"吉貝耍","LANE":" ","ALLEY":" ","HOUSE_NO":"１３７號","E_COORD97":186704.14999999999,"N_COORD97":2577203.7000000002,"ADDRESS":"吉貝耍１３７號","OBJECTID":46846},"geometry":{"x":186704.1500000013,"y":2577203.700000003}},{"attributes":{"ID":46847,"DIS_CODE":0,"TOWNNAME":"東山區","LI":"東河里","LIN":"15鄰","STREET":" ","SECT":" ","MAREA":"吉貝耍","LANE":" ","ALLEY":" ","HOUSE_NO":"１３９號","E_COORD97":186724.98999999999,"N_COORD97":2577188.02,"ADDRESS":"吉貝耍１３９號","OBJECTID":46847},"geometry":{"x":186724.98999999929,"y":2577188.0199999996}},{"attributes":{"ID":46848,"DIS_CODE":0,"TOWNNAME":"東山區","LI":"東河里","LIN":"15鄰","STREET":" ","SECT":" ","MAREA":"吉貝耍","LANE":" ","ALLEY":" ","HOUSE_NO":"１４０號之１","E_COORD97":186744.25,"N_COORD97":2577172,"ADDRESS":"吉貝耍１４０號之１","OBJECTID":46848},"geometry":{"x":186744.25000000093,"y":2577172.0000000037}},{"attributes":{"ID":46849,"DIS_CODE":0,"TOWNNAME":"東山區","LI":"東河里","LIN":"15鄰","STREET":" ","SECT":" ","MAREA":"吉貝耍","LANE":" ","ALLEY":" ","HOUSE_NO":"１４０號","E_COORD97":186729.76000000001,"N_COORD97":2577170.29,"ADDRESS":"吉貝耍１４０號","OBJECTID":46849},"geometry":{"x":186729.76000000071,"y":2577170.290000001}},{"attributes":{"ID":46850,"DIS_CODE":0,"TOWNNAME":"東山區","LI":"東河里","LIN":"15鄰","STREET":" ","SECT":" ","MAREA":"吉貝耍","LANE":" ","ALLEY":" ","HOUSE_NO":"１４１號","E_COORD97":186744.22,"N_COORD97":2577189.5499999998,"ADDRESS":"吉貝耍１４１號","OBJECTID":46850},"geometry":{"x":186744.21999999974,"y":2577189.5500000045}},{"attributes":{"ID":46851,"DIS_CODE":0,"TOWNNAME":"東山區","LI":"東河里","LIN":"15鄰","STREET":" ","SECT":" ","MAREA":"吉貝耍","LANE":" ","ALLEY":" ","HOUSE_NO":"１４２號之１","E_COORD97":186751.63,"N_COORD97":2577222.4500000002,"ADDRESS":"吉貝耍１４２號之１","OBJECTID":46851},"geometry":{"x":186751.63000000082,"y":2577222.450000003}},{"attributes":{"ID":46852,"DIS_CODE":0,"TOWNNAME":"東山區","LI":"東河里","LIN":"15鄰","STREET":" ","SECT":" ","MAREA":"吉貝耍","LANE":" ","ALLEY":" ","HOUSE_NO":"１４３號","E_COORD97":186757.32000000001,"N_COORD97":2577223.8500000001,"ADDRESS":"吉貝耍１４３號","OBJECTID":46852},"geometry":{"x":186757.32000000123,"y":2577223.8500000015}},{"attributes":{"ID":46853,"DIS_CODE":0,"TOWNNAME":"東山區","LI":"東河里","LIN":"15鄰","STREET":" ","SECT":" ","MAREA":"吉貝耍","LANE":" ","ALLEY":" ","HOUSE_NO":"１４４號","E_COORD97":186770.54999999999,"N_COORD97":2577207.5299999998,"ADDRESS":"吉貝耍１４４號","OBJECTID":46853},"geometry":{"x":186770.55000000075,"y":2577207.5299999993}},{"attributes":{"ID":46854,"DIS_CODE":0,"TOWNNAME":"東山區","LI":"東河里","LIN":"15鄰","STREET":" ","SECT":" ","MAREA":"吉貝耍","LANE":" ","ALLEY":" ","HOUSE_NO":"１４５號","E_COORD97":186759.60999999999,"N_COORD97":2577204.4100000001,"ADDRESS":"吉貝耍１４５號","OBJECTID":46854},"geometry":{"x":186759.61000000034,"y":2577204.410000002}},{"attributes":{"ID":46855,"DIS_CODE":0,"TOWNNAME":"東山區","LI":"南勢里","LIN":"15鄰","STREET":" ","SECT":" ","MAREA":"南勢庄","LANE":" ","ALLEY":" ","HOUSE_NO":"５３號","E_COORD97":194518.41,"N_COORD97":2569921.5,"ADDRESS":"南勢庄５３號","OBJECTID":46855},"geometry":{"x":194518.41000000201,"y":2569921.5000000019}},{"attributes":{"ID":46856,"DIS_CODE":0,"TOWNNAME":"東山區","LI":"南勢里","LIN":"15鄰","STREET":" ","SECT":" ","MAREA":"南勢庄","LANE":" ","ALLEY":" ","HOUSE_NO":"５４號","E_COORD97":194490.89000000001,"N_COORD97":2569993.8700000001,"ADDRESS":"南勢庄５４號","OBJECTID":46856},"geometry":{"x":194490.89000000153,"y":2569993.8700000029}},{"attributes":{"ID":46857,"DIS_CODE":0,"TOWNNAME":"東山區","LI":"南勢里","LIN":"15鄰","STREET":" ","SECT":" ","MAREA":"南勢庄","LANE":" ","ALLEY":" ","HOUSE_NO":"５５號","E_COORD97":194457.42999999999,"N_COORD97":2569955.0600000001,"ADDRESS":"南勢庄５５號","OBJECTID":46857},"geometry":{"x":194457.43000000063,"y":2569955.0600000024}},{"attributes":{"ID":46858,"DIS_CODE":0,"TOWNNAME":"東山區","LI":"南勢里","LIN":"15鄰","STREET":" ","SECT":" ","MAREA":"南勢庄","LANE":" ","ALLEY":" ","HOUSE_NO":"５６號","E_COORD97":194517.81,"N_COORD97":2569987.5800000001,"ADDRESS":"南勢庄５６號","OBJECTID":46858},"geometry":{"x":194517.80999999959,"y":2569987.5800000019}},{"attributes":{"ID":46859,"DIS_CODE":0,"TOWNNAME":"東山區","LI":"南勢里","LIN":"15鄰","STREET":" ","SECT":" ","MAREA":"南勢庄","LANE":" ","ALLEY":" ","HOUSE_NO":"５９號","E_COORD97":194516.89999999999,"N_COORD97":2570013.7999999998,"ADDRESS":"南勢庄５９號","OBJECTID":46859},"geometry":{"x":194516.90000000224,"y":2570013.8000000045}},{"attributes":{"ID":46860,"DIS_CODE":0,"TOWNNAME":"東山區","LI":"南勢里","LIN":"15鄰","STREET":" ","SECT":" ","MAREA":"南勢庄","LANE":" ","ALLEY":" ","HOUSE_NO":"６１號","E_COORD97":194571.81,"N_COORD97":2570013.8799999999,"ADDRESS":"南勢庄６１號","OBJECTID":46860},"geometry":{"x":194571.80999999959,"y":2570013.879999999}},{"attributes":{"ID":46861,"DIS_CODE":0,"TOWNNAME":"東山區","LI":"南勢里","LIN":"15鄰","STREET":" ","SECT":" ","MAREA":"南勢庄","LANE":" ","ALLEY":" ","HOUSE_NO":"６２號","E_COORD97":194539.06,"N_COORD97":2570027.8700000001,"ADDRESS":"南勢庄６２號","OBJECTID":46861},"geometry":{"x":194539.06000000052,"y":2570027.8700000029}},{"attributes":{"ID":46862,"DIS_CODE":0,"TOWNNAME":"麻豆區","LI":"埤頭里","LIN":"15鄰","STREET":" ","SECT":" ","MAREA":"埤頭","LANE":" ","ALLEY":" ","HOUSE_NO":"１３０號之１０","E_COORD97":170717.56,"N_COORD97":2566729.5800000001,"ADDRESS":"埤頭１３０號之１０","OBJECTID":46862},"geometry":{"x":170717.55999999959,"y":2566729.5800000019}},{"attributes":{"ID":46863,"DIS_CODE":0,"TOWNNAME":"麻豆區","LI":"埤頭里","LIN":"15鄰","STREET":" ","SECT":" ","MAREA":"埤頭","LANE":" ","ALLEY":" ","HOUSE_NO":"１３０號之１１","E_COORD97":170677.42000000001,"N_COORD97":2566746.3300000001,"ADDRESS":"埤頭１３０號之１１","OBJECTID":46863},"geometry":{"x":170677.42000000086,"y":2566746.3300000001}},{"attributes":{"ID":46864,"DIS_CODE":0,"TOWNNAME":"麻豆區","LI":"埤頭里","LIN":"15鄰","STREET":" ","SECT":" ","MAREA":"埤頭","LANE":" ","ALLEY":" ","HOUSE_NO":"１３０號之１２","E_COORD97":170706.94,"N_COORD97":2566747.9500000002,"ADDRESS":"埤頭１３０號之１２","OBJECTID":46864},"geometry":{"x":170706.94000000041,"y":2566747.9499999993}},{"attributes":{"ID":46865,"DIS_CODE":0,"TOWNNAME":"麻豆區","LI":"埤頭里","LIN":"15鄰","STREET":" ","SECT":" ","MAREA":"埤頭","LANE":" ","ALLEY":" ","HOUSE_NO":"１３０號之２","E_COORD97":170747.85000000001,"N_COORD97":2566772.9300000002,"ADDRESS":"埤頭１３０號之２","OBJECTID":46865},"geometry":{"x":170747.84999999963,"y":2566772.9299999997}},{"attributes":{"ID":46866,"DIS_CODE":0,"TOWNNAME":"麻豆區","LI":"埤頭里","LIN":"15鄰","STREET":" ","SECT":" ","MAREA":"埤頭","LANE":" ","ALLEY":" ","HOUSE_NO":"１３０號之３","E_COORD97":170681.25,"N_COORD97":2566727.8900000001,"ADDRESS":"埤頭１３０號之３","OBJECTID":46866},"geometry":{"x":170681.25,"y":2566727.8900000025}},{"attributes":{"ID":46867,"DIS_CODE":0,"TOWNNAME":"麻豆區","LI":"埤頭里","LIN":"15鄰","STREET":" ","SECT":" ","MAREA":"埤頭","LANE":" ","ALLEY":" ","HOUSE_NO":"１３０號之５","E_COORD97":170780.04000000001,"N_COORD97":2566775.8700000001,"ADDRESS":"埤頭１３０號之５","OBJECTID":46867},"geometry":{"x":170780.04000000097,"y":2566775.8700000048}},{"attributes":{"ID":46868,"DIS_CODE":0,"TOWNNAME":"麻豆區","LI":"埤頭里","LIN":"15鄰","STREET":" ","SECT":" ","MAREA":"埤頭","LANE":" ","ALLEY":" ","HOUSE_NO":"１３０號之７","E_COORD97":170798.32000000001,"N_COORD97":2566777.2999999998,"ADDRESS":"埤頭１３０號之７","OBJECTID":46868},"geometry":{"x":170798.32000000216,"y":2566777.3000000026}},{"attributes":{"ID":46869,"DIS_CODE":0,"TOWNNAME":"麻豆區","LI":"埤頭里","LIN":"15鄰","STREET":" ","SECT":" ","MAREA":"埤頭","LANE":" ","ALLEY":" ","HOUSE_NO":"１３１號之１","E_COORD97":170644.17999999999,"N_COORD97":2566740.3399999999,"ADDRESS":"埤頭１３１號之１","OBJECTID":46869},"geometry":{"x":170644.1799999997,"y":2566740.3399999999}},{"attributes":{"ID":46870,"DIS_CODE":0,"TOWNNAME":"麻豆區","LI":"埤頭里","LIN":"15鄰","STREET":" ","SECT":" ","MAREA":"埤頭","LANE":" ","ALLEY":" ","HOUSE_NO":"１３１號之２","E_COORD97":170644.54000000001,"N_COORD97":2566744.75,"ADDRESS":"埤頭１３１號之２","OBJECTID":46870},"geometry":{"x":170644.54000000097,"y":2566744.7500000037}},{"attributes":{"ID":46871,"DIS_CODE":0,"TOWNNAME":"麻豆區","LI":"埤頭里","LIN":"15鄰","STREET":" ","SECT":" ","MAREA":"埤頭","LANE":" ","ALLEY":" ","HOUSE_NO":"１３１號","E_COORD97":170628.92999999999,"N_COORD97":2566728.4500000002,"ADDRESS":"埤頭１３１號","OBJECTID":46871},"geometry":{"x":170628.9299999997,"y":2566728.4499999993}},{"attributes":{"ID":46872,"DIS_CODE":0,"TOWNNAME":"麻豆區","LI":"埤頭里","LIN":"15鄰","STREET":" ","SECT":" ","MAREA":"埤頭","LANE":" ","ALLEY":" ","HOUSE_NO":"１３２號之２","E_COORD97":170611.17999999999,"N_COORD97":2566786.9700000002,"ADDRESS":"埤頭１３２號之２","OBJECTID":46872},"geometry":{"x":170611.18000000063,"y":2566786.9700000007}},{"attributes":{"ID":46873,"DIS_CODE":0,"TOWNNAME":"麻豆區","LI":"埤頭里","LIN":"15鄰","STREET":" ","SECT":" ","MAREA":"埤頭","LANE":" ","ALLEY":" ","HOUSE_NO":"１３２號之５","E_COORD97":170623.39000000001,"N_COORD97":2566779.6699999999,"ADDRESS":"埤頭１３２號之５","OBJECTID":46873},"geometry":{"x":170623.3900000006,"y":2566779.6700000018}},{"attributes":{"ID":46874,"DIS_CODE":0,"TOWNNAME":"麻豆區","LI":"埤頭里","LIN":"15鄰","STREET":" ","SECT":" ","MAREA":"埤頭","LANE":" ","ALLEY":" ","HOUSE_NO":"１３２號","E_COORD97":170647.76999999999,"N_COORD97":2566786.8199999998,"ADDRESS":"埤頭１３２號","OBJECTID":46874},"geometry":{"x":170647.77000000048,"y":2566786.8200000022}},{"attributes":{"ID":46875,"DIS_CODE":0,"TOWNNAME":"麻豆區","LI":"埤頭里","LIN":"15鄰","STREET":" ","SECT":" ","MAREA":"埤頭","LANE":" ","ALLEY":" ","HOUSE_NO":"１３３號之１７","E_COORD97":170620.75,"N_COORD97":2566826.0099999998,"ADDRESS":"埤頭１３３號之１７","OBJECTID":46875},"geometry":{"x":170620.75000000093,"y":2566826.0099999998}},{"attributes":{"ID":46876,"DIS_CODE":0,"TOWNNAME":"麻豆區","LI":"埤頭里","LIN":"15鄰","STREET":" ","SECT":" ","MAREA":"埤頭","LANE":" ","ALLEY":" ","HOUSE_NO":"１３３號之２","E_COORD97":170457.06,"N_COORD97":2566819.8500000001,"ADDRESS":"埤頭１３３號之２","OBJECTID":46876},"geometry":{"x":170457.06000000052,"y":2566819.8500000015}},{"attributes":{"ID":46877,"DIS_CODE":0,"TOWNNAME":"南區","LI":"郡南里","LIN":"15鄰","STREET":"德興路","SECT":" ","MAREA":" ","LANE":"１３９巷","ALLEY":"４４弄","HOUSE_NO":"２６號二樓之１","E_COORD97":167358.79000000001,"N_COORD97":2540390.5800000001,"ADDRESS":"德興路１３９巷４４弄２６號二樓之１","OBJECTID":46877},"geometry":{"x":167358.7900000019,"y":2540390.5800000019}},{"attributes":{"ID":46878,"DIS_CODE":0,"TOWNNAME":"南區","LI":"郡南里","LIN":"15鄰","STREET":"德興路","SECT":" ","MAREA":" ","LANE":"１３９巷","ALLEY":"４４弄","HOUSE_NO":"２６號二樓之３","E_COORD97":167358.79000000001,"N_COORD97":2540390.5800000001,"ADDRESS":"德興路１３９巷４４弄２６號二樓之３","OBJECTID":46878},"geometry":{"x":167358.7900000019,"y":2540390.5800000019}},{"attributes":{"ID":46879,"DIS_CODE":0,"TOWNNAME":"仁德區","LI":"新田里","LIN":"17鄰","STREET":"民安路","SECT":"二段","MAREA":" ","LANE":" ","ALLEY":" ","HOUSE_NO":"７７號之１六樓之１","E_COORD97":173513.39000000001,"N_COORD97":2539241.3100000001,"ADDRESS":"民安路二段７７號之１六樓之１","OBJECTID":46879},"geometry":{"x":173513.3900000006,"y":2539241.3100000005}},{"attributes":{"ID":46880,"DIS_CODE":0,"TOWNNAME":"麻豆區","LI":"埤頭里","LIN":"15鄰","STREET":" ","SECT":" ","MAREA":"埤頭","LANE":" ","ALLEY":" ","HOUSE_NO":"１３３號之６","E_COORD97":170558.79999999999,"N_COORD97":2566870.1600000001,"ADDRESS":"埤頭１３３號之６","OBJECTID":46880},"geometry":{"x":170558.79999999888,"y":2566870.1600000001}},{"attributes":{"ID":46881,"DIS_CODE":0,"TOWNNAME":"麻豆區","LI":"埤頭里","LIN":"15鄰","STREET":" ","SECT":" ","MAREA":"埤頭","LANE":" ","ALLEY":" ","HOUSE_NO":"１３３號之７","E_COORD97":170556.85000000001,"N_COORD97":2566850.54,"ADDRESS":"埤頭１３３號之７","OBJECTID":46881},"geometry":{"x":170556.85000000056,"y":2566850.5400000028}},{"attributes":{"ID":46882,"DIS_CODE":0,"TOWNNAME":"麻豆區","LI":"埤頭里","LIN":"15鄰","STREET":" ","SECT":" ","MAREA":"埤頭","LANE":" ","ALLEY":" ","HOUSE_NO":"１３３號之９","E_COORD97":170576.60999999999,"N_COORD97":2566825.8399999999,"ADDRESS":"埤頭１３３號之９","OBJECTID":46882},"geometry":{"x":170576.61000000127,"y":2566825.8400000017}},{"attributes":{"ID":46883,"DIS_CODE":0,"TOWNNAME":"麻豆區","LI":"埤頭里","LIN":"15鄰","STREET":" ","SECT":" ","MAREA":"埤頭","LANE":" ","ALLEY":" ","HOUSE_NO":"１３３號","E_COORD97":170591.73000000001,"N_COORD97":2566790.6200000001,"ADDRESS":"埤頭１３３號","OBJECTID":46883},"geometry":{"x":170591.73000000045,"y":2566790.620000001}},{"attributes":{"ID":46884,"DIS_CODE":0,"TOWNNAME":"仁德區","LI":"新田里","LIN":"17鄰","STREET":"民安路","SECT":"二段","MAREA":" ","LANE":" ","ALLEY":" ","HOUSE_NO":"７７號之１十一樓之３","E_COORD97":173514.73999999999,"N_COORD97":2539241.3100000001,"ADDRESS":"民安路二段７７號之１十一樓之３","OBJECTID":46884},"geometry":{"x":173514.74000000115,"y":2539241.3100000005}},{"attributes":{"ID":46885,"DIS_CODE":0,"TOWNNAME":"麻豆區","LI":"埤頭里","LIN":"15鄰","STREET":" ","SECT":" ","MAREA":"埤頭","LANE":" ","ALLEY":" ","HOUSE_NO":"１３４號之１５","E_COORD97":170796.70999999999,"N_COORD97":2566804.1499999999,"ADDRESS":"埤頭１３４號之１５","OBJECTID":46885},"geometry":{"x":170796.70999999996,"y":2566804.1500000022}},{"attributes":{"ID":46886,"DIS_CODE":0,"TOWNNAME":"麻豆區","LI":"埤頭里","LIN":"15鄰","STREET":" ","SECT":" ","MAREA":"埤頭","LANE":" ","ALLEY":" ","HOUSE_NO":"１３４號之１","E_COORD97":170667.75,"N_COORD97":2566815.04,"ADDRESS":"埤頭１３４號之１","OBJECTID":46886},"geometry":{"x":170667.75,"y":2566815.0399999991}},{"attributes":{"ID":46887,"DIS_CODE":0,"TOWNNAME":"麻豆區","LI":"埤頭里","LIN":"15鄰","STREET":" ","SECT":" ","MAREA":"埤頭","LANE":" ","ALLEY":" ","HOUSE_NO":"１３４號之２","E_COORD97":170694.06,"N_COORD97":2566816.8199999998,"ADDRESS":"埤頭１３４號之２","OBJECTID":46887},"geometry":{"x":170694.05999999959,"y":2566816.8200000022}},{"attributes":{"ID":46888,"DIS_CODE":0,"TOWNNAME":"麻豆區","LI":"埤頭里","LIN":"15鄰","STREET":" ","SECT":" ","MAREA":"埤頭","LANE":" ","ALLEY":" ","HOUSE_NO":"１３４號之３","E_COORD97":170698.20999999999,"N_COORD97":2566817.8900000001,"ADDRESS":"埤頭１３４號之３","OBJECTID":46888},"geometry":{"x":170698.20999999996,"y":2566817.8900000006}},{"attributes":{"ID":46889,"DIS_CODE":0,"TOWNNAME":"麻豆區","LI":"埤頭里","LIN":"15鄰","STREET":" ","SECT":" ","MAREA":"埤頭","LANE":" ","ALLEY":" ","HOUSE_NO":"１３４號","E_COORD97":170656.87,"N_COORD97":2566806.1600000001,"ADDRESS":"埤頭１３４號","OBJECTID":46889},"geometry":{"x":170656.87000000011,"y":2566806.1600000001}},{"attributes":{"ID":46890,"DIS_CODE":0,"TOWNNAME":"麻豆區","LI":"埤頭里","LIN":"15鄰","STREET":" ","SECT":" ","MAREA":"埤頭","LANE":" ","ALLEY":" ","HOUSE_NO":"１３５號","E_COORD97":170643.70999999999,"N_COORD97":2566805.1200000001,"ADDRESS":"埤頭１３５號","OBJECTID":46890},"geometry":{"x":170643.70999999996,"y":2566805.1200000029}},{"attributes":{"ID":46891,"DIS_CODE":0,"TOWNNAME":"麻豆區","LI":"埤頭里","LIN":"15鄰","STREET":" ","SECT":" ","MAREA":"埤頭","LANE":" ","ALLEY":" ","HOUSE_NO":"１３６號","E_COORD97":170660.85000000001,"N_COORD97":2566836.6000000001,"ADDRESS":"埤頭１３６號","OBJECTID":46891},"geometry":{"x":170660.85000000056,"y":2566836.5999999996}},{"attributes":{"ID":46892,"DIS_CODE":0,"TOWNNAME":"麻豆區","LI":"埤頭里","LIN":"15鄰","STREET":" ","SECT":" ","MAREA":"埤頭","LANE":" ","ALLEY":" ","HOUSE_NO":"１３８號","E_COORD97":170646.47,"N_COORD97":2566873.9900000002,"ADDRESS":"埤頭１３８號","OBJECTID":46892},"geometry":{"x":170646.47000000067,"y":2566873.9900000021}},{"attributes":{"ID":46893,"DIS_CODE":0,"TOWNNAME":"麻豆區","LI":"埤頭里","LIN":"15鄰","STREET":" ","SECT":" ","MAREA":"埤頭","LANE":" ","ALLEY":" ","HOUSE_NO":"１３９號","E_COORD97":170645.84,"N_COORD97":2566857.7999999998,"ADDRESS":"埤頭１３９號","OBJECTID":46893},"geometry":{"x":170645.84000000078,"y":2566857.8000000026}},{"attributes":{"ID":46894,"DIS_CODE":0,"TOWNNAME":"麻豆區","LI":"埤頭里","LIN":"15鄰","STREET":" ","SECT":" ","MAREA":"埤頭","LANE":" ","ALLEY":" ","HOUSE_NO":"１４０號","E_COORD97":170671.42000000001,"N_COORD97":2566870.2200000002,"ADDRESS":"埤頭１４０號","OBJECTID":46894},"geometry":{"x":170671.41999999993,"y":2566870.2200000007}},{"attributes":{"ID":46895,"DIS_CODE":0,"TOWNNAME":"仁德區","LI":"新田里","LIN":"17鄰","STREET":"民安路","SECT":"二段","MAREA":" ","LANE":" ","ALLEY":" ","HOUSE_NO":"７７號三樓之２","E_COORD97":173501.32000000001,"N_COORD97":2539215.3100000001,"ADDRESS":"民安路二段７７號三樓之２","OBJECTID":46895},"geometry":{"x":173501.3200000003,"y":2539215.3100000042}},{"attributes":{"ID":46896,"DIS_CODE":0,"TOWNNAME":"永康區","LI":"西橋里","LIN":"17鄰","STREET":"大橋三街","SECT":" ","MAREA":" ","LANE":" ","ALLEY":" ","HOUSE_NO":"３２號二樓","E_COORD97":170571.07000000001,"N_COORD97":2546434.5099999998,"ADDRESS":"大橋三街３２號二樓","OBJECTID":46896},"geometry":{"x":170571.06999999937,"y":2546434.5100000035}},{"attributes":{"ID":46897,"DIS_CODE":0,"TOWNNAME":"鹽水區","LI":"水秀里","LIN":"15鄰","STREET":" ","SECT":" ","MAREA":"土庫","LANE":" ","ALLEY":" ","HOUSE_NO":"７４號之１１","E_COORD97":175611.25,"N_COORD97":2580200.8199999998,"ADDRESS":"土庫７４號之１１","OBJECTID":46897},"geometry":{"x":175611.25000000093,"y":2580200.8200000003}},{"attributes":{"ID":46898,"DIS_CODE":0,"TOWNNAME":"鹽水區","LI":"水秀里","LIN":"15鄰","STREET":" ","SECT":" ","MAREA":"土庫","LANE":" ","ALLEY":" ","HOUSE_NO":"７４號之１２","E_COORD97":175574.14000000001,"N_COORD97":2580209.4900000002,"ADDRESS":"土庫７４號之１２","OBJECTID":46898},"geometry":{"x":175574.14000000153,"y":2580209.4900000002}},{"attributes":{"ID":46899,"DIS_CODE":0,"TOWNNAME":"鹽水區","LI":"水秀里","LIN":"15鄰","STREET":" ","SECT":" ","MAREA":"土庫","LANE":" ","ALLEY":" ","HOUSE_NO":"７４之１３號","E_COORD97":175568.48000000001,"N_COORD97":2580210.6800000002,"ADDRESS":"土庫７４之１３號","OBJECTID":46899},"geometry":{"x":175568.48000000138,"y":2580210.6799999997}},{"attributes":{"ID":46900,"DIS_CODE":0,"TOWNNAME":"鹽水區","LI":"水秀里","LIN":"15鄰","STREET":" ","SECT":" ","MAREA":"土庫","LANE":" ","ALLEY":" ","HOUSE_NO":"７４之１４號","E_COORD97":175563.39999999999,"N_COORD97":2580211.2400000002,"ADDRESS":"土庫７４之１４號","OBJECTID":46900},"geometry":{"x":175563.4000000013,"y":2580211.2400000002}},{"attributes":{"ID":46901,"DIS_CODE":0,"TOWNNAME":"鹽水區","LI":"水秀里","LIN":"15鄰","STREET":" ","SECT":" ","MAREA":"土庫","LANE":" ","ALLEY":" ","HOUSE_NO":"７４之１５號","E_COORD97":175559.39999999999,"N_COORD97":2580211.7999999998,"ADDRESS":"土庫７４之１５號","OBJECTID":46901},"geometry":{"x":175559.40000000037,"y":2580211.8000000045}},{"attributes":{"ID":46902,"DIS_CODE":0,"TOWNNAME":"鹽水區","LI":"水秀里","LIN":"15鄰","STREET":" ","SECT":" ","MAREA":"土庫","LANE":" ","ALLEY":" ","HOUSE_NO":"７４號之１６","E_COORD97":175554.29000000001,"N_COORD97":2580212,"ADDRESS":"土庫７４號之１６","OBJECTID":46902},"geometry":{"x":175554.29000000004,"y":2580212}},{"attributes":{"ID":46903,"DIS_CODE":0,"TOWNNAME":"鹽水區","LI":"水秀里","LIN":"15鄰","STREET":" ","SECT":" ","MAREA":"土庫","LANE":" ","ALLEY":" ","HOUSE_NO":"７４號之８","E_COORD97":175636.78,"N_COORD97":2580192.9700000002,"ADDRESS":"土庫７４號之８","OBJECTID":46903},"geometry":{"x":175636.78000000119,"y":2580192.9700000007}},{"attributes":{"ID":46904,"DIS_CODE":0,"TOWNNAME":"鹽水區","LI":"水秀里","LIN":"15鄰","STREET":" ","SECT":" ","MAREA":"土庫","LANE":" ","ALLEY":" ","HOUSE_NO":"７４號之９","E_COORD97":175626.67000000001,"N_COORD97":2580196.23,"ADDRESS":"土庫７４號之９","OBJECTID":46904},"geometry":{"x":175626.66999999993,"y":2580196.2300000023}},{"attributes":{"ID":46905,"DIS_CODE":0,"TOWNNAME":"鹽水區","LI":"歡雅里","LIN":"15鄰","STREET":" ","SECT":" ","MAREA":"中州寮","LANE":" ","ALLEY":" ","HOUSE_NO":"１０號","E_COORD97":171621.12,"N_COORD97":2575987.1299999999,"ADDRESS":"中州寮１０號","OBJECTID":46905},"geometry":{"x":171621.12000000011,"y":2575987.1300000008}},{"attributes":{"ID":46906,"DIS_CODE":0,"TOWNNAME":"鹽水區","LI":"歡雅里","LIN":"15鄰","STREET":" ","SECT":" ","MAREA":"中州寮","LANE":" ","ALLEY":" ","HOUSE_NO":"１１號","E_COORD97":171620.64000000001,"N_COORD97":2576017.5499999998,"ADDRESS":"中州寮１１號","OBJECTID":46906},"geometry":{"x":171620.63999999966,"y":2576017.5500000026}},{"attributes":{"ID":46907,"DIS_CODE":0,"TOWNNAME":"鹽水區","LI":"歡雅里","LIN":"15鄰","STREET":" ","SECT":" ","MAREA":"中州寮","LANE":" ","ALLEY":" ","HOUSE_NO":"１２號","E_COORD97":171659.73999999999,"N_COORD97":2575982.25,"ADDRESS":"中州寮１２號","OBJECTID":46907},"geometry":{"x":171659.74000000022,"y":2575982.25}},{"attributes":{"ID":46908,"DIS_CODE":0,"TOWNNAME":"鹽水區","LI":"歡雅里","LIN":"15鄰","STREET":" ","SECT":" ","MAREA":"中州寮","LANE":" ","ALLEY":" ","HOUSE_NO":"１５號","E_COORD97":171687.31,"N_COORD97":2575966.4500000002,"ADDRESS":"中州寮１５號","OBJECTID":46908},"geometry":{"x":171687.30999999959,"y":2575966.4499999993}},{"attributes":{"ID":46909,"DIS_CODE":0,"TOWNNAME":"鹽水區","LI":"歡雅里","LIN":"15鄰","STREET":" ","SECT":" ","MAREA":"中州寮","LANE":" ","ALLEY":" ","HOUSE_NO":"１６號之１","E_COORD97":171693.41,"N_COORD97":2575950.7200000002,"ADDRESS":"中州寮１６號之１","OBJECTID":46909},"geometry":{"x":171693.41000000108,"y":2575950.7200000044}},{"attributes":{"ID":46910,"DIS_CODE":0,"TOWNNAME":"鹽水區","LI":"歡雅里","LIN":"15鄰","STREET":" ","SECT":" ","MAREA":"中州寮","LANE":" ","ALLEY":" ","HOUSE_NO":"１６號之５","E_COORD97":171768.64999999999,"N_COORD97":2576051.1800000002,"ADDRESS":"中州寮１６號之５","OBJECTID":46910},"geometry":{"x":171768.65000000037,"y":2576051.1799999997}},{"attributes":{"ID":46911,"DIS_CODE":0,"TOWNNAME":"鹽水區","LI":"歡雅里","LIN":"15鄰","STREET":" ","SECT":" ","MAREA":"中州寮","LANE":" ","ALLEY":" ","HOUSE_NO":"１６號","E_COORD97":171720.29999999999,"N_COORD97":2575957.27,"ADDRESS":"中州寮１６號","OBJECTID":46911},"geometry":{"x":171720.30000000075,"y":2575957.2700000014}},{"attributes":{"ID":46912,"DIS_CODE":0,"TOWNNAME":"鹽水區","LI":"歡雅里","LIN":"15鄰","STREET":" ","SECT":" ","MAREA":"中州寮","LANE":" ","ALLEY":" ","HOUSE_NO":"１７號之１","E_COORD97":171699.04999999999,"N_COORD97":2576003.9100000001,"ADDRESS":"中州寮１７號之１","OBJECTID":46912},"geometry":{"x":171699.04999999981,"y":2576003.910000002}},{"attributes":{"ID":46913,"DIS_CODE":0,"TOWNNAME":"鹽水區","LI":"歡雅里","LIN":"15鄰","STREET":" ","SECT":" ","MAREA":"中州寮","LANE":" ","ALLEY":" ","HOUSE_NO":"１７號","E_COORD97":171703.20999999999,"N_COORD97":2575979.1499999999,"ADDRESS":"中州寮１７號","OBJECTID":46913},"geometry":{"x":171703.20999999996,"y":2575979.1500000022}},{"attributes":{"ID":46914,"DIS_CODE":0,"TOWNNAME":"鹽水區","LI":"歡雅里","LIN":"15鄰","STREET":" ","SECT":" ","MAREA":"中州寮","LANE":" ","ALLEY":" ","HOUSE_NO":"２１號","E_COORD97":171972.13,"N_COORD97":2576123.5600000001,"ADDRESS":"中州寮２１號","OBJECTID":46914},"geometry":{"x":171972.12999999896,"y":2576123.5600000005}},{"attributes":{"ID":46915,"DIS_CODE":0,"TOWNNAME":"鹽水區","LI":"歡雅里","LIN":"15鄰","STREET":" ","SECT":" ","MAREA":"中州寮","LANE":" ","ALLEY":" ","HOUSE_NO":"２２號","E_COORD97":170865.5,"N_COORD97":2575891.9399999999,"ADDRESS":"中州寮２２號","OBJECTID":46915},"geometry":{"x":170865.5,"y":2575891.9400000013}},{"attributes":{"ID":46916,"DIS_CODE":0,"TOWNNAME":"鹽水區","LI":"歡雅里","LIN":"15鄰","STREET":" ","SECT":" ","MAREA":"中州寮","LANE":" ","ALLEY":" ","HOUSE_NO":"２３號","E_COORD97":171833.78,"N_COORD97":2575966.79,"ADDRESS":"中州寮２３號","OBJECTID":46916},"geometry":{"x":171833.78000000026,"y":2575966.790000001}},{"attributes":{"ID":46917,"DIS_CODE":0,"TOWNNAME":"鹽水區","LI":"歡雅里","LIN":"15鄰","STREET":" ","SECT":" ","MAREA":"中州寮","LANE":" ","ALLEY":" ","HOUSE_NO":"２４號","E_COORD97":171289.32000000001,"N_COORD97":2576076.1000000001,"ADDRESS":"中州寮２４號","OBJECTID":46917},"geometry":{"x":171289.3200000003,"y":2576076.1000000015}},{"attributes":{"ID":46918,"DIS_CODE":0,"TOWNNAME":"鹽水區","LI":"歡雅里","LIN":"15鄰","STREET":" ","SECT":" ","MAREA":"中州寮","LANE":" ","ALLEY":" ","HOUSE_NO":"２７號","E_COORD97":171459.82999999999,"N_COORD97":2575881.9100000001,"ADDRESS":"中州寮２７號","OBJECTID":46918},"geometry":{"x":171459.83000000101,"y":2575881.910000002}},{"attributes":{"ID":46919,"DIS_CODE":0,"TOWNNAME":"鹽水區","LI":"歡雅里","LIN":"15鄰","STREET":" ","SECT":" ","MAREA":"中州寮","LANE":" ","ALLEY":" ","HOUSE_NO":"２５號","E_COORD97":171970.70999999999,"N_COORD97":2576190.9700000002,"ADDRESS":"中州寮２５號","OBJECTID":46919},"geometry":{"x":171970.71000000089,"y":2576190.9700000025}},{"attributes":{"ID":46920,"DIS_CODE":0,"TOWNNAME":"鹽水區","LI":"歡雅里","LIN":"15鄰","STREET":" ","SECT":" ","MAREA":"中州寮","LANE":" ","ALLEY":" ","HOUSE_NO":"２８號","E_COORD97":171431.98999999999,"N_COORD97":2575903.3399999999,"ADDRESS":"中州寮２８號","OBJECTID":46920},"geometry":{"x":171431.99000000022,"y":2575903.3399999999}},{"attributes":{"ID":46921,"DIS_CODE":0,"TOWNNAME":"鹽水區","LI":"歡雅里","LIN":"15鄰","STREET":" ","SECT":" ","MAREA":"中州寮","LANE":" ","ALLEY":" ","HOUSE_NO":"３０號","E_COORD97":171780.64000000001,"N_COORD97":2575893.79,"ADDRESS":"中州寮３０號","OBJECTID":46921},"geometry":{"x":171780.6400000006,"y":2575893.7899999991}},{"attributes":{"ID":46922,"DIS_CODE":0,"TOWNNAME":"鹽水區","LI":"歡雅里","LIN":"15鄰","STREET":" ","SECT":" ","MAREA":"中州寮","LANE":" ","ALLEY":" ","HOUSE_NO":"３６號","E_COORD97":171919.38,"N_COORD97":2576034.6400000001,"ADDRESS":"中州寮３６號","OBJECTID":46922},"geometry":{"x":171919.37999999989,"y":2576034.6400000006}},{"attributes":{"ID":46923,"DIS_CODE":0,"TOWNNAME":"鹽水區","LI":"歡雅里","LIN":"15鄰","STREET":" ","SECT":" ","MAREA":"中州寮","LANE":" ","ALLEY":" ","HOUSE_NO":"５６號","E_COORD97":171618.26000000001,"N_COORD97":2576046.4100000001,"ADDRESS":"中州寮５６號","OBJECTID":46923},"geometry":{"x":171618.25999999978,"y":2576046.4100000001}},{"attributes":{"ID":46924,"DIS_CODE":0,"TOWNNAME":"鹽水區","LI":"歡雅里","LIN":"15鄰","STREET":" ","SECT":" ","MAREA":"中州寮","LANE":" ","ALLEY":" ","HOUSE_NO":"７號","E_COORD97":171651.01999999999,"N_COORD97":2575929.98,"ADDRESS":"中州寮７號","OBJECTID":46924},"geometry":{"x":171651.02000000048,"y":2575929.9800000023}},{"attributes":{"ID":46925,"DIS_CODE":0,"TOWNNAME":"鹽水區","LI":"歡雅里","LIN":"15鄰","STREET":" ","SECT":" ","MAREA":"中州寮","LANE":" ","ALLEY":" ","HOUSE_NO":"９之２號","E_COORD97":171561.89999999999,"N_COORD97":2575971.8199999998,"ADDRESS":"中州寮９之２號","OBJECTID":46925},"geometry":{"x":171561.90000000037,"y":2575971.8200000003}},{"attributes":{"ID":46926,"DIS_CODE":0,"TOWNNAME":"鹽水區","LI":"歡雅里","LIN":"15鄰","STREET":" ","SECT":" ","MAREA":"中州寮","LANE":" ","ALLEY":" ","HOUSE_NO":"９號之２","E_COORD97":171561.89999999999,"N_COORD97":2575971.8199999998,"ADDRESS":"中州寮９號之２","OBJECTID":46926},"geometry":{"x":171561.90000000037,"y":2575971.8200000003}},{"attributes":{"ID":46927,"DIS_CODE":0,"TOWNNAME":"鹽水區","LI":"歡雅里","LIN":"15鄰","STREET":" ","SECT":" ","MAREA":"中州寮","LANE":" ","ALLEY":" ","HOUSE_NO":"９之３號","E_COORD97":171566.45000000001,"N_COORD97":2575972.6400000001,"ADDRESS":"中州寮９之３號","OBJECTID":46927},"geometry":{"x":171566.45000000019,"y":2575972.6400000025}},{"attributes":{"ID":46928,"DIS_CODE":0,"TOWNNAME":"鹽水區","LI":"歡雅里","LIN":"15鄰","STREET":" ","SECT":" ","MAREA":"中州寮","LANE":" ","ALLEY":" ","HOUSE_NO":"９號","E_COORD97":171591.69,"N_COORD97":2575983.3900000001,"ADDRESS":"中州寮９號","OBJECTID":46928},"geometry":{"x":171591.69000000134,"y":2575983.3900000043}},{"attributes":{"ID":46929,"DIS_CODE":0,"TOWNNAME":"麻豆區","LI":"寮\u25A0里","LIN":"15鄰","STREET":" ","SECT":" ","MAREA":"寮子\u25A0","LANE":" ","ALLEY":" ","HOUSE_NO":"１２１號之１","E_COORD97":176528.31,"N_COORD97":2565384.4700000002,"ADDRESS":"寮子\u25A0１２１號之１","OBJECTID":46929},"geometry":{"x":176528.30999999959,"y":2565384.4700000044}},{"attributes":{"ID":46930,"DIS_CODE":0,"TOWNNAME":"麻豆區","LI":"寮\u25A0里","LIN":"15鄰","STREET":" ","SECT":" ","MAREA":"寮子\u25A0","LANE":" ","ALLEY":" ","HOUSE_NO":"１２１號之２","E_COORD97":176511.84,"N_COORD97":2565380.7999999998,"ADDRESS":"寮子\u25A0１２１號之２","OBJECTID":46930},"geometry":{"x":176511.83999999985,"y":2565380.8000000007}},{"attributes":{"ID":46931,"DIS_CODE":0,"TOWNNAME":"麻豆區","LI":"寮\u25A0里","LIN":"15鄰","STREET":" ","SECT":" ","MAREA":"寮子\u25A0","LANE":" ","ALLEY":" ","HOUSE_NO":"１２１號","E_COORD97":176541.81,"N_COORD97":2565380.54,"ADDRESS":"寮子\u25A0１２１號","OBJECTID":46931},"geometry":{"x":176541.80999999959,"y":2565380.540000001}},{"attributes":{"ID":46932,"DIS_CODE":0,"TOWNNAME":"麻豆區","LI":"寮\u25A0里","LIN":"15鄰","STREET":" ","SECT":" ","MAREA":"寮子\u25A0","LANE":" ","ALLEY":" ","HOUSE_NO":"１２２號之２","E_COORD97":176466.78,"N_COORD97":2565431.9900000002,"ADDRESS":"寮子\u25A0１２２號之２","OBJECTID":46932},"geometry":{"x":176466.78000000026,"y":2565431.9900000021}},{"attributes":{"ID":46933,"DIS_CODE":0,"TOWNNAME":"麻豆區","LI":"寮\u25A0里","LIN":"15鄰","STREET":" ","SECT":" ","MAREA":"寮子\u25A0","LANE":" ","ALLEY":" ","HOUSE_NO":"１２２號之６","E_COORD97":176476.07999999999,"N_COORD97":2565424.3799999999,"ADDRESS":"寮子\u25A0１２２號之６","OBJECTID":46933},"geometry":{"x":176476.08000000007,"y":2565424.3800000008}},{"attributes":{"ID":46934,"DIS_CODE":0,"TOWNNAME":"善化區","LI":"牛庄里","LIN":"1鄰","STREET":" ","SECT":" ","MAREA":"牛庄","LANE":" ","ALLEY":" ","HOUSE_NO":"９號","E_COORD97":180214.63,"N_COORD97":2559809.75,"ADDRESS":"牛庄９號","OBJECTID":46934},"geometry":{"x":180214.63000000082,"y":2559809.7500000019}},{"attributes":{"ID":46935,"DIS_CODE":0,"TOWNNAME":"麻豆區","LI":"寮\u25A0里","LIN":"15鄰","STREET":" ","SECT":" ","MAREA":"寮子\u25A0","LANE":" ","ALLEY":" ","HOUSE_NO":"１２３號之１","E_COORD97":176472.63,"N_COORD97":2565405.9199999999,"ADDRESS":"寮子\u25A0１２３號之１","OBJECTID":46935},"geometry":{"x":176472.62999999989,"y":2565405.9200000018}},{"attributes":{"ID":46936,"DIS_CODE":0,"TOWNNAME":"麻豆區","LI":"寮\u25A0里","LIN":"15鄰","STREET":" ","SECT":" ","MAREA":"寮子\u25A0","LANE":" ","ALLEY":" ","HOUSE_NO":"１２３號之２","E_COORD97":176467.89000000001,"N_COORD97":2565405.5299999998,"ADDRESS":"寮子\u25A0１２３號之２","OBJECTID":46936},"geometry":{"x":176467.8900000006,"y":2565405.5299999993}},{"attributes":{"ID":46937,"DIS_CODE":0,"TOWNNAME":"麻豆區","LI":"寮\u25A0里","LIN":"15鄰","STREET":" ","SECT":" ","MAREA":"寮子\u25A0","LANE":" ","ALLEY":" ","HOUSE_NO":"１２３號之３","E_COORD97":176463.26000000001,"N_COORD97":2565404.9500000002,"ADDRESS":"寮子\u25A0１２３號之３","OBJECTID":46937},"geometry":{"x":176463.25999999978,"y":2565404.9500000011}},{"attributes":{"ID":46938,"DIS_CODE":0,"TOWNNAME":"麻豆區","LI":"寮\u25A0里","LIN":"15鄰","STREET":" ","SECT":" ","MAREA":"寮子\u25A0","LANE":" ","ALLEY":" ","HOUSE_NO":"１２３號之４","E_COORD97":176459.16,"N_COORD97":2565404.23,"ADDRESS":"寮子\u25A0１２３號之４","OBJECTID":46938},"geometry":{"x":176459.16000000015,"y":2565404.2300000023}},{"attributes":{"ID":46939,"DIS_CODE":0,"TOWNNAME":"麻豆區","LI":"寮\u25A0里","LIN":"15鄰","STREET":" ","SECT":" ","MAREA":"寮子\u25A0","LANE":" ","ALLEY":" ","HOUSE_NO":"１２３號之５","E_COORD97":176454.23000000001,"N_COORD97":2565403.3399999999,"ADDRESS":"寮子\u25A0１２３號之５","OBJECTID":46939},"geometry":{"x":176454.23000000231,"y":2565403.3399999999}},{"attributes":{"ID":46940,"DIS_CODE":0,"TOWNNAME":"麻豆區","LI":"寮\u25A0里","LIN":"15鄰","STREET":" ","SECT":" ","MAREA":"寮子\u25A0","LANE":" ","ALLEY":" ","HOUSE_NO":"１２３號之７","E_COORD97":176442.70000000001,"N_COORD97":2565399.8100000001,"ADDRESS":"寮子\u25A0１２３號之７","OBJECTID":46940},"geometry":{"x":176442.70000000112,"y":2565399.8100000024}},{"attributes":{"ID":46941,"DIS_CODE":0,"TOWNNAME":"麻豆區","LI":"寮\u25A0里","LIN":"15鄰","STREET":" ","SECT":" ","MAREA":"寮子\u25A0","LANE":" ","ALLEY":" ","HOUSE_NO":"１２３號","E_COORD97":176485.95000000001,"N_COORD97":2565402.9900000002,"ADDRESS":"寮子\u25A0１２３號","OBJECTID":46941},"geometry":{"x":176485.95000000019,"y":2565402.9900000002}},{"attributes":{"ID":46942,"DIS_CODE":0,"TOWNNAME":"麻豆區","LI":"寮\u25A0里","LIN":"15鄰","STREET":" ","SECT":" ","MAREA":"寮子\u25A0","LANE":" ","ALLEY":" ","HOUSE_NO":"１２４號之１","E_COORD97":176449.82000000001,"N_COORD97":2565425.9399999999,"ADDRESS":"寮子\u25A0１２４號之１","OBJECTID":46942},"geometry":{"x":176449.8200000003,"y":2565425.9399999995}},{"attributes":{"ID":46943,"DIS_CODE":0,"TOWNNAME":"麻豆區","LI":"寮\u25A0里","LIN":"15鄰","STREET":" ","SECT":" ","MAREA":"寮子\u25A0","LANE":" ","ALLEY":" ","HOUSE_NO":"１２４號之２","E_COORD97":176425.48000000001,"N_COORD97":2565410.8500000001,"ADDRESS":"寮子\u25A0１２４號之２","OBJECTID":46943},"geometry":{"x":176425.48000000231,"y":2565410.8499999996}},{"attributes":{"ID":46944,"DIS_CODE":0,"TOWNNAME":"麻豆區","LI":"寮\u25A0里","LIN":"15鄰","STREET":" ","SECT":" ","MAREA":"寮子\u25A0","LANE":" ","ALLEY":" ","HOUSE_NO":"１２４號之５","E_COORD97":176425.64000000001,"N_COORD97":2565400.04,"ADDRESS":"寮子\u25A0１２４號之５","OBJECTID":46944},"geometry":{"x":176425.6400000006,"y":2565400.040000001}},{"attributes":{"ID":46945,"DIS_CODE":0,"TOWNNAME":"南化區","LI":"西埔里","LIN":"15鄰","STREET":" ","SECT":" ","MAREA":"西埔","LANE":" ","ALLEY":" ","HOUSE_NO":"１９１號之１","E_COORD97":192524.03,"N_COORD97":2548795.7999999998,"ADDRESS":"西埔１９１號之１","OBJECTID":46945},"geometry":{"x":192524.03000000212,"y":2548795.8000000007}},{"attributes":{"ID":46946,"DIS_CODE":0,"TOWNNAME":"南化區","LI":"西埔里","LIN":"15鄰","STREET":" ","SECT":" ","MAREA":"西埔","LANE":" ","ALLEY":" ","HOUSE_NO":"１８５號","E_COORD97":192594.98999999999,"N_COORD97":2549051.75,"ADDRESS":"西埔１８５號","OBJECTID":46946},"geometry":{"x":192594.99000000022,"y":2549051.7500000019}},{"attributes":{"ID":46947,"DIS_CODE":0,"TOWNNAME":"南化區","LI":"西埔里","LIN":"15鄰","STREET":" ","SECT":" ","MAREA":"西埔","LANE":" ","ALLEY":" ","HOUSE_NO":"１９０之１號","E_COORD97":192593.48999999999,"N_COORD97":2548854.7999999998,"ADDRESS":"西埔１９０之１號","OBJECTID":46947},"geometry":{"x":192593.49000000022,"y":2548854.8000000026}},{"attributes":{"ID":46948,"DIS_CODE":0,"TOWNNAME":"南化區","LI":"西埔里","LIN":"15鄰","STREET":" ","SECT":" ","MAREA":"西埔","LANE":" ","ALLEY":" ","HOUSE_NO":"１９２號","E_COORD97":192399.89000000001,"N_COORD97":2549055.75,"ADDRESS":"西埔１９２號","OBJECTID":46948},"geometry":{"x":192399.88999999966,"y":2549055.75}},{"attributes":{"ID":46949,"DIS_CODE":0,"TOWNNAME":"南化區","LI":"西埔里","LIN":"15鄰","STREET":" ","SECT":" ","MAREA":"西埔","LANE":" ","ALLEY":" ","HOUSE_NO":"１８８號","E_COORD97":192507.69,"N_COORD97":2549089.75,"ADDRESS":"西埔１８８號","OBJECTID":46949},"geometry":{"x":192507.69000000041,"y":2549089.75}},{"attributes":{"ID":46950,"DIS_CODE":0,"TOWNNAME":"南化區","LI":"西埔里","LIN":"15鄰","STREET":" ","SECT":" ","MAREA":"西埔","LANE":" ","ALLEY":" ","HOUSE_NO":"１９０號","E_COORD97":192512.79000000001,"N_COORD97":2548874.75,"ADDRESS":"西埔１９０號","OBJECTID":46950},"geometry":{"x":192512.79000000004,"y":2548874.7500000019}},{"attributes":{"ID":46951,"DIS_CODE":0,"TOWNNAME":"南化區","LI":"西埔里","LIN":"15鄰","STREET":" ","SECT":" ","MAREA":"西埔","LANE":" ","ALLEY":" ","HOUSE_NO":"１９３號","E_COORD97":192422.89000000001,"N_COORD97":2549112.75,"ADDRESS":"西埔１９３號","OBJECTID":46951},"geometry":{"x":192422.8900000006,"y":2549112.7500000019}},{"attributes":{"ID":46952,"DIS_CODE":0,"TOWNNAME":"南化區","LI":"西埔里","LIN":"15鄰","STREET":" ","SECT":" ","MAREA":"西埔","LANE":" ","ALLEY":" ","HOUSE_NO":"１８９號","E_COORD97":192461.89000000001,"N_COORD97":2548961.75,"ADDRESS":"西埔１８９號","OBJECTID":46952},"geometry":{"x":192461.8900000006,"y":2548961.75}},{"attributes":{"ID":46953,"DIS_CODE":0,"TOWNNAME":"南化區","LI":"西埔里","LIN":"15鄰","STREET":" ","SECT":" ","MAREA":"西埔","LANE":" ","ALLEY":" ","HOUSE_NO":"１８６號","E_COORD97":192617.39000000001,"N_COORD97":2549058.75,"ADDRESS":"西埔１８６號","OBJECTID":46953},"geometry":{"x":192617.38999999966,"y":2549058.7500000019}},{"attributes":{"ID":46954,"DIS_CODE":0,"TOWNNAME":"南化區","LI":"南化里","LIN":"15鄰","STREET":" ","SECT":" ","MAREA":"南化","LANE":" ","ALLEY":" ","HOUSE_NO":"２９７號","E_COORD97":198796.64000000001,"N_COORD97":2548023.75,"ADDRESS":"南化２９７號","OBJECTID":46954},"geometry":{"x":198796.64000000153,"y":2548023.7500000019}},{"attributes":{"ID":46955,"DIS_CODE":0,"TOWNNAME":"南化區","LI":"南化里","LIN":"15鄰","STREET":" ","SECT":" ","MAREA":"南化","LANE":" ","ALLEY":" ","HOUSE_NO":"２９７之１號","E_COORD97":198647.44,"N_COORD97":2547922.7999999998,"ADDRESS":"南化２９７之１號","OBJECTID":46955},"geometry":{"x":198647.44000000041,"y":2547922.8000000026}},{"attributes":{"ID":46956,"DIS_CODE":0,"TOWNNAME":"南化區","LI":"南化里","LIN":"15鄰","STREET":" ","SECT":" ","MAREA":"南化","LANE":" ","ALLEY":" ","HOUSE_NO":"２９７之３號","E_COORD97":198738.64000000001,"N_COORD97":2548005.7999999998,"ADDRESS":"南化２９７之３號","OBJECTID":46956},"geometry":{"x":198738.63999999966,"y":2548005.8000000007}},{"attributes":{"ID":46957,"DIS_CODE":0,"TOWNNAME":"東山區","LI":"科里里","LIN":"15鄰","STREET":" ","SECT":" ","MAREA":"枋子林","LANE":" ","ALLEY":" ","HOUSE_NO":"２２號之２","E_COORD97":188174.94,"N_COORD97":2577068.1899999999,"ADDRESS":"枋子林２２號之２","OBJECTID":46957},"geometry":{"x":188174.94000000227,"y":2577068.1899999976}},{"attributes":{"ID":46958,"DIS_CODE":0,"TOWNNAME":"東山區","LI":"科里里","LIN":"15鄰","STREET":" ","SECT":" ","MAREA":"枋子林","LANE":" ","ALLEY":" ","HOUSE_NO":"２２號之５","E_COORD97":188126.04999999999,"N_COORD97":2576991.71,"ADDRESS":"枋子林２２號之５","OBJECTID":46958},"geometry":{"x":188126.04999999888,"y":2576991.7100000046}},{"attributes":{"ID":46959,"DIS_CODE":0,"TOWNNAME":"東山區","LI":"科里里","LIN":"15鄰","STREET":" ","SECT":" ","MAREA":"枋子林","LANE":" ","ALLEY":" ","HOUSE_NO":"２２號","E_COORD97":188159.39000000001,"N_COORD97":2576970.4500000002,"ADDRESS":"枋子林２２號","OBJECTID":46959},"geometry":{"x":188159.39000000153,"y":2576970.4499999993}},{"attributes":{"ID":46960,"DIS_CODE":0,"TOWNNAME":"東山區","LI":"科里里","LIN":"15鄰","STREET":" ","SECT":" ","MAREA":"枋子林","LANE":" ","ALLEY":" ","HOUSE_NO":"２３號之１","E_COORD97":188187.54000000001,"N_COORD97":2576936.3999999999,"ADDRESS":"枋子林２３號之１","OBJECTID":46960},"geometry":{"x":188187.5400000019,"y":2576936.4000000022}},{"attributes":{"ID":46961,"DIS_CODE":0,"TOWNNAME":"東山區","LI":"科里里","LIN":"15鄰","STREET":" ","SECT":" ","MAREA":"枋子林","LANE":" ","ALLEY":" ","HOUSE_NO":"２３號之２","E_COORD97":188184.73999999999,"N_COORD97":2576963.6899999999,"ADDRESS":"枋子林２３號之２","OBJECTID":46961},"geometry":{"x":188184.74000000209,"y":2576963.6900000013}},{"attributes":{"ID":46962,"DIS_CODE":0,"TOWNNAME":"東山區","LI":"科里里","LIN":"15鄰","STREET":" ","SECT":" ","MAREA":"枋子林","LANE":" ","ALLEY":" ","HOUSE_NO":"２３號","E_COORD97":188181.95999999999,"N_COORD97":2576955.3300000001,"ADDRESS":"枋子林２３號","OBJECTID":46962},"geometry":{"x":188181.96000000089,"y":2576955.3300000001}},{"attributes":{"ID":46963,"DIS_CODE":0,"TOWNNAME":"東山區","LI":"東正里","LIN":"15鄰","STREET":" ","SECT":" ","MAREA":"東勢","LANE":" ","ALLEY":" ","HOUSE_NO":"１０１號","E_COORD97":189245.35000000001,"N_COORD97":2580223.9300000002,"ADDRESS":"東勢１０１號","OBJECTID":46963},"geometry":{"x":189245.34999999963,"y":2580223.9300000016}},{"attributes":{"ID":46964,"DIS_CODE":0,"TOWNNAME":"東山區","LI":"東正里","LIN":"15鄰","STREET":" ","SECT":" ","MAREA":"東勢","LANE":" ","ALLEY":" ","HOUSE_NO":"１０３號","E_COORD97":189243.64999999999,"N_COORD97":2580217.02,"ADDRESS":"東勢１０３號","OBJECTID":46964},"geometry":{"x":189243.6500000013,"y":2580217.0200000014}},{"attributes":{"ID":46965,"DIS_CODE":0,"TOWNNAME":"東山區","LI":"東正里","LIN":"15鄰","STREET":" ","SECT":" ","MAREA":"東勢","LANE":" ","ALLEY":" ","HOUSE_NO":"１０４號","E_COORD97":189250.88,"N_COORD97":2580239.52,"ADDRESS":"東勢１０４號","OBJECTID":46965},"geometry":{"x":189250.87999999989,"y":2580239.5199999977}},{"attributes":{"ID":46966,"DIS_CODE":0,"TOWNNAME":"東山區","LI":"東正里","LIN":"15鄰","STREET":" ","SECT":" ","MAREA":"東勢","LANE":" ","ALLEY":" ","HOUSE_NO":"１０６號","E_COORD97":189222.07000000001,"N_COORD97":2580191.3599999999,"ADDRESS":"東勢１０６號","OBJECTID":46966},"geometry":{"x":189222.07000000123,"y":2580191.3600000013}},{"attributes":{"ID":46967,"DIS_CODE":0,"TOWNNAME":"東山區","LI":"東正里","LIN":"15鄰","STREET":" ","SECT":" ","MAREA":"東勢","LANE":" ","ALLEY":" ","HOUSE_NO":"１０７號","E_COORD97":189212.56,"N_COORD97":2580250.7799999998,"ADDRESS":"東勢１０７號","OBJECTID":46967},"geometry":{"x":189212.56000000145,"y":2580250.7799999993}},{"attributes":{"ID":46968,"DIS_CODE":0,"TOWNNAME":"官田區","LI":"官田里","LIN":"1鄰","STREET":" ","SECT":" ","MAREA":"官田","LANE":" ","ALLEY":" ","HOUSE_NO":"７號","E_COORD97":182533.66,"N_COORD97":2565314.0899999999,"ADDRESS":"官田７號","OBJECTID":46968},"geometry":{"x":182533.66000000108,"y":2565314.0899999999}},{"attributes":{"ID":46969,"DIS_CODE":0,"TOWNNAME":"學甲區","LI":"秀昌里","LIN":"15鄰","STREET":" ","SECT":" ","MAREA":"下溪洲","LANE":" ","ALLEY":" ","HOUSE_NO":"１１號之１","E_COORD97":165175.44,"N_COORD97":2570909.29,"ADDRESS":"下溪洲１１號之１","OBJECTID":46969},"geometry":{"x":165175.44000000134,"y":2570909.2899999991}},{"attributes":{"ID":46970,"DIS_CODE":0,"TOWNNAME":"學甲區","LI":"秀昌里","LIN":"15鄰","STREET":" ","SECT":" ","MAREA":"下溪洲","LANE":" ","ALLEY":" ","HOUSE_NO":"１２號之１","E_COORD97":165213.76000000001,"N_COORD97":2570931.1600000001,"ADDRESS":"下溪洲１２號之１","OBJECTID":46970},"geometry":{"x":165213.75999999978,"y":2570931.1600000001}},{"attributes":{"ID":46971,"DIS_CODE":0,"TOWNNAME":"學甲區","LI":"秀昌里","LIN":"15鄰","STREET":" ","SECT":" ","MAREA":"下溪洲","LANE":" ","ALLEY":" ","HOUSE_NO":"１２號","E_COORD97":165205.37,"N_COORD97":2570910.6800000002,"ADDRESS":"下溪洲１２號","OBJECTID":46971},"geometry":{"x":165205.37000000197,"y":2570910.6799999997}},{"attributes":{"ID":46972,"DIS_CODE":0,"TOWNNAME":"學甲區","LI":"秀昌里","LIN":"15鄰","STREET":" ","SECT":" ","MAREA":"下溪洲","LANE":" ","ALLEY":" ","HOUSE_NO":"１３號之３","E_COORD97":165198,"N_COORD97":2570940.98,"ADDRESS":"下溪洲１３號之３","OBJECTID":46972},"geometry":{"x":165198.00000000093,"y":2570940.9800000042}},{"attributes":{"ID":46973,"DIS_CODE":0,"TOWNNAME":"學甲區","LI":"秀昌里","LIN":"15鄰","STREET":" ","SECT":" ","MAREA":"下溪洲","LANE":" ","ALLEY":" ","HOUSE_NO":"１５號之１１","E_COORD97":165099.32999999999,"N_COORD97":2570992.5699999998,"ADDRESS":"下溪洲１５號之１１","OBJECTID":46973},"geometry":{"x":165099.33000000101,"y":2570992.5700000022}},{"attributes":{"ID":46974,"DIS_CODE":0,"TOWNNAME":"學甲區","LI":"秀昌里","LIN":"15鄰","STREET":" ","SECT":" ","MAREA":"下溪洲","LANE":" ","ALLEY":" ","HOUSE_NO":"１５號之１","E_COORD97":165161.95000000001,"N_COORD97":2570951.9399999999,"ADDRESS":"下溪洲１５號之１","OBJECTID":46974},"geometry":{"x":165161.95000000019,"y":2570951.9400000013}},{"attributes":{"ID":46975,"DIS_CODE":0,"TOWNNAME":"學甲區","LI":"秀昌里","LIN":"15鄰","STREET":" ","SECT":" ","MAREA":"下溪洲","LANE":" ","ALLEY":" ","HOUSE_NO":"１５號之２","E_COORD97":165169.34,"N_COORD97":2570949.3399999999,"ADDRESS":"下溪洲１５號之２","OBJECTID":46975},"geometry":{"x":165169.33999999985,"y":2570949.3400000017}},{"attributes":{"ID":46976,"DIS_CODE":0,"TOWNNAME":"學甲區","LI":"秀昌里","LIN":"15鄰","STREET":" ","SECT":" ","MAREA":"下溪洲","LANE":" ","ALLEY":" ","HOUSE_NO":"１５號之６","E_COORD97":165131.32000000001,"N_COORD97":2570972.8900000001,"ADDRESS":"下溪洲１５號之６","OBJECTID":46976},"geometry":{"x":165131.32000000216,"y":2570972.8900000025}},{"attributes":{"ID":46977,"DIS_CODE":0,"TOWNNAME":"學甲區","LI":"秀昌里","LIN":"15鄰","STREET":" ","SECT":" ","MAREA":"下溪洲","LANE":" ","ALLEY":" ","HOUSE_NO":"１６號之１２","E_COORD97":165070.39000000001,"N_COORD97":2571054.8500000001,"ADDRESS":"下溪洲１６號之１２","OBJECTID":46977},"geometry":{"x":165070.38999999966,"y":2571054.8499999996}},{"attributes":{"ID":46978,"DIS_CODE":0,"TOWNNAME":"學甲區","LI":"秀昌里","LIN":"15鄰","STREET":" ","SECT":" ","MAREA":"下溪洲","LANE":" ","ALLEY":" ","HOUSE_NO":"１６號之１６","E_COORD97":164925.89999999999,"N_COORD97":2571128.75,"ADDRESS":"下溪洲１６號之１６","OBJECTID":46978},"geometry":{"x":164925.9000000013,"y":2571128.7500000037}},{"attributes":{"ID":46979,"DIS_CODE":0,"TOWNNAME":"學甲區","LI":"秀昌里","LIN":"15鄰","STREET":" ","SECT":" ","MAREA":"下溪洲","LANE":" ","ALLEY":" ","HOUSE_NO":"１６號之１９０","E_COORD97":165090.57000000001,"N_COORD97":2571053.73,"ADDRESS":"下溪洲１６號之１９０","OBJECTID":46979},"geometry":{"x":165090.57000000216,"y":2571053.7300000004}},{"attributes":{"ID":46980,"DIS_CODE":0,"TOWNNAME":"學甲區","LI":"秀昌里","LIN":"15鄰","STREET":" ","SECT":" ","MAREA":"下溪洲","LANE":" ","ALLEY":" ","HOUSE_NO":"１６號之１９１","E_COORD97":165091.51999999999,"N_COORD97":2571059.9399999999,"ADDRESS":"下溪洲１６號之１９１","OBJECTID":46980},"geometry":{"x":165091.51999999955,"y":2571059.9400000013}},{"attributes":{"ID":46981,"DIS_CODE":0,"TOWNNAME":"學甲區","LI":"秀昌里","LIN":"15鄰","STREET":" ","SECT":" ","MAREA":"下溪洲","LANE":" ","ALLEY":" ","HOUSE_NO":"１６號之１９２","E_COORD97":165092.48000000001,"N_COORD97":2571066.1600000001,"ADDRESS":"下溪洲１６號之１９２","OBJECTID":46981},"geometry":{"x":165092.48000000045,"y":2571066.160000002}},{"attributes":{"ID":46982,"DIS_CODE":0,"TOWNNAME":"學甲區","LI":"秀昌里","LIN":"15鄰","STREET":" ","SECT":" ","MAREA":"下溪洲","LANE":" ","ALLEY":" ","HOUSE_NO":"１６號之１９３","E_COORD97":165093.42999999999,"N_COORD97":2571072.3799999999,"ADDRESS":"下溪洲１６號之１９３","OBJECTID":46982},"geometry":{"x":165093.43000000063,"y":2571072.3800000027}},{"attributes":{"ID":46983,"DIS_CODE":0,"TOWNNAME":"學甲區","LI":"秀昌里","LIN":"15鄰","STREET":" ","SECT":" ","MAREA":"下溪洲","LANE":" ","ALLEY":" ","HOUSE_NO":"１６號之１９５","E_COORD97":165094.39000000001,"N_COORD97":2571078.6000000001,"ADDRESS":"下溪洲１６號之１９５","OBJECTID":46983},"geometry":{"x":165094.38999999966,"y":2571078.6000000034}},{"attributes":{"ID":46984,"DIS_CODE":0,"TOWNNAME":"學甲區","LI":"秀昌里","LIN":"15鄰","STREET":" ","SECT":" ","MAREA":"下溪洲","LANE":" ","ALLEY":" ","HOUSE_NO":"１６號之１９６","E_COORD97":165095.34,"N_COORD97":2571084.8100000001,"ADDRESS":"下溪洲１６號之１９６","OBJECTID":46984},"geometry":{"x":165095.34000000078,"y":2571084.8100000042}},{"attributes":{"ID":46985,"DIS_CODE":0,"TOWNNAME":"學甲區","LI":"秀昌里","LIN":"15鄰","STREET":" ","SECT":" ","MAREA":"下溪洲","LANE":" ","ALLEY":" ","HOUSE_NO":"１６號之１９７","E_COORD97":165096.29999999999,"N_COORD97":2571091.0299999998,"ADDRESS":"下溪洲１６號之１９７","OBJECTID":46985},"geometry":{"x":165096.29999999981,"y":2571091.0299999993}},{"attributes":{"ID":46986,"DIS_CODE":0,"TOWNNAME":"學甲區","LI":"秀昌里","LIN":"15鄰","STREET":" ","SECT":" ","MAREA":"下溪洲","LANE":" ","ALLEY":" ","HOUSE_NO":"１６號之１９８","E_COORD97":165097.26000000001,"N_COORD97":2571097.25,"ADDRESS":"下溪洲１６號之１９８","OBJECTID":46986},"geometry":{"x":165097.26000000164,"y":2571097.25}},{"attributes":{"ID":46987,"DIS_CODE":0,"TOWNNAME":"學甲區","LI":"秀昌里","LIN":"15鄰","STREET":" ","SECT":" ","MAREA":"下溪洲","LANE":" ","ALLEY":" ","HOUSE_NO":"１６號之１９９","E_COORD97":165098.20999999999,"N_COORD97":2571103.4700000002,"ADDRESS":"下溪洲１６號之１９９","OBJECTID":46987},"geometry":{"x":165098.21000000089,"y":2571103.4700000007}},{"attributes":{"ID":46988,"DIS_CODE":0,"TOWNNAME":"學甲區","LI":"秀昌里","LIN":"15鄰","STREET":" ","SECT":" ","MAREA":"下溪洲","LANE":" ","ALLEY":" ","HOUSE_NO":"１６號之１","E_COORD97":165204.66,"N_COORD97":2570993.0600000001,"ADDRESS":"下溪洲１６號之１","OBJECTID":46988},"geometry":{"x":165204.66000000015,"y":2570993.0600000024}},{"attributes":{"ID":46989,"DIS_CODE":0,"TOWNNAME":"學甲區","LI":"秀昌里","LIN":"15鄰","STREET":" ","SECT":" ","MAREA":"下溪洲","LANE":" ","ALLEY":" ","HOUSE_NO":"１６號之２００","E_COORD97":165099.17000000001,"N_COORD97":2571109.6800000002,"ADDRESS":"下溪洲１６號之２００","OBJECTID":46989},"geometry":{"x":165099.16999999993,"y":2571109.6800000016}},{"attributes":{"ID":46990,"DIS_CODE":0,"TOWNNAME":"學甲區","LI":"秀昌里","LIN":"15鄰","STREET":" ","SECT":" ","MAREA":"下溪洲","LANE":" ","ALLEY":" ","HOUSE_NO":"１６號之２０１","E_COORD97":165100.12,"N_COORD97":2571115.8999999999,"ADDRESS":"下溪洲１６號之２０１","OBJECTID":46990},"geometry":{"x":165100.11999999918,"y":2571115.9000000022}},{"attributes":{"ID":46991,"DIS_CODE":0,"TOWNNAME":"學甲區","LI":"秀昌里","LIN":"15鄰","STREET":" ","SECT":" ","MAREA":"下溪洲","LANE":" ","ALLEY":" ","HOUSE_NO":"１６號之２０２","E_COORD97":165101.07999999999,"N_COORD97":2571122.1200000001,"ADDRESS":"下溪洲１６號之２０２","OBJECTID":46991},"geometry":{"x":165101.08000000101,"y":2571122.1200000029}},{"attributes":{"ID":46992,"DIS_CODE":0,"TOWNNAME":"學甲區","LI":"秀昌里","LIN":"15鄰","STREET":" ","SECT":" ","MAREA":"下溪洲","LANE":" ","ALLEY":" ","HOUSE_NO":"１６號之２０３","E_COORD97":165101.82000000001,"N_COORD97":2571127.9100000001,"ADDRESS":"下溪洲１６號之２０３","OBJECTID":46992},"geometry":{"x":165101.8200000003,"y":2571127.9100000039}},{"attributes":{"ID":46993,"DIS_CODE":0,"TOWNNAME":"學甲區","LI":"秀昌里","LIN":"15鄰","STREET":" ","SECT":" ","MAREA":"下溪洲","LANE":" ","ALLEY":" ","HOUSE_NO":"１６號之２０５","E_COORD97":165102.78,"N_COORD97":2571134.1299999999,"ADDRESS":"下溪洲１６號之２０５","OBJECTID":46993},"geometry":{"x":165102.78000000212,"y":2571134.129999999}},{"attributes":{"ID":46994,"DIS_CODE":0,"TOWNNAME":"學甲區","LI":"秀昌里","LIN":"15鄰","STREET":" ","SECT":" ","MAREA":"下溪洲","LANE":" ","ALLEY":" ","HOUSE_NO":"１６號之２０","E_COORD97":164754.26999999999,"N_COORD97":2571173.9199999999,"ADDRESS":"下溪洲１６號之２０","OBJECTID":46994},"geometry":{"x":164754.26999999955,"y":2571173.9199999999}},{"attributes":{"ID":46995,"DIS_CODE":0,"TOWNNAME":"學甲區","LI":"秀昌里","LIN":"15鄰","STREET":" ","SECT":" ","MAREA":"下溪洲","LANE":" ","ALLEY":" ","HOUSE_NO":"１６號之２８","E_COORD97":164725.04000000001,"N_COORD97":2571250.46,"ADDRESS":"下溪洲１６號之２８","OBJECTID":46995},"geometry":{"x":164725.04000000097,"y":2571250.4600000046}},{"attributes":{"ID":46996,"DIS_CODE":0,"TOWNNAME":"學甲區","LI":"秀昌里","LIN":"15鄰","STREET":" ","SECT":" ","MAREA":"下溪洲","LANE":" ","ALLEY":" ","HOUSE_NO":"１６號之３","E_COORD97":165193,"N_COORD97":2570982.5899999999,"ADDRESS":"下溪洲１６號之３","OBJECTID":46996},"geometry":{"x":165193.00000000093,"y":2570982.5899999999}},{"attributes":{"ID":46997,"DIS_CODE":0,"TOWNNAME":"學甲區","LI":"秀昌里","LIN":"15鄰","STREET":" ","SECT":" ","MAREA":"下溪洲","LANE":" ","ALLEY":" ","HOUSE_NO":"１６號之４","E_COORD97":165187.26000000001,"N_COORD97":2571020.29,"ADDRESS":"下溪洲１６號之４","OBJECTID":46997},"geometry":{"x":165187.26000000071,"y":2571020.290000001}},{"attributes":{"ID":46998,"DIS_CODE":0,"TOWNNAME":"學甲區","LI":"秀昌里","LIN":"15鄰","STREET":" ","SECT":" ","MAREA":"下溪洲","LANE":" ","ALLEY":" ","HOUSE_NO":"１６號之８","E_COORD97":165183.14999999999,"N_COORD97":2571011.75,"ADDRESS":"下溪洲１６號之８","OBJECTID":46998},"geometry":{"x":165183.15000000037,"y":2571011.75}},{"attributes":{"ID":46999,"DIS_CODE":0,"TOWNNAME":"學甲區","LI":"秀昌里","LIN":"15鄰","STREET":" ","SECT":" ","MAREA":"下溪洲","LANE":" ","ALLEY":" ","HOUSE_NO":"１９號","E_COORD97":165192.67999999999,"N_COORD97":2571059.6299999999,"ADDRESS":"下溪洲１９號","OBJECTID":46999},"geometry":{"x":165192.68000000156,"y":2571059.629999999}},{"attributes":{"ID":47000,"DIS_CODE":0,"TOWNNAME":"東山區","LI":"嶺南里","LIN":"15鄰","STREET":" ","SECT":" ","MAREA":"宅子內","LANE":" ","ALLEY":" ","HOUSE_NO":"１號","E_COORD97":192499.76999999999,"N_COORD97":2572350.8100000001,"ADDRESS":"宅子內１號","OBJECTID":47000},"geometry":{"x":192499.77000000142,"y":2572350.8100000024}}]}