{"displayFieldName":"TOWNNAME","fieldAliases":{"ID":"ID","DIS_CODE":"DIS_CODE","TOWNNAME":"TOWNNAME","LI":"LI","LIN":"LIN","STREET":"STREET","SECT":"SECT","MAREA":"MAREA","LANE":"LANE","ALLEY":"ALLEY","HOUSE_NO":"HOUSE_NO","E_COORD97":"E_COORD97","N_COORD97":"N_COORD97","ADDRESS":"ADDRESS","OBJECTID":"OBJECTID"},"geometryType":"esriGeometryPoint","spatialReference":{"wkid":102443,"latestWkid":3826},"fields":[{"name":"ID","type":"esriFieldTypeDouble","alias":"ID"},{"name":"DIS_CODE","type":"esriFieldTypeInteger","alias":"DIS_CODE"},{"name":"TOWNNAME","type":"esriFieldTypeString","alias":"TOWNNAME","length":8},{"name":"LI","type":"esriFieldTypeString","alias":"LI","length":8},{"name":"LIN","type":"esriFieldTypeString","alias":"LIN","length":12},{"name":"STREET","type":"esriFieldTypeString","alias":"STREET","length":20},{"name":"SECT","type":"esriFieldTypeString","alias":"SECT","length":8},{"name":"MAREA","type":"esriFieldTypeString","alias":"MAREA","length":12},{"name":"LANE","type":"esriFieldTypeString","alias":"LANE","length":10},{"name":"ALLEY","type":"esriFieldTypeString","alias":"ALLEY","length":10},{"name":"HOUSE_NO","type":"esriFieldTypeString","alias":"HOUSE_NO","length":20},{"name":"E_COORD97","type":"esriFieldTypeDouble","alias":"E_COORD97"},{"name":"N_COORD97","type":"esriFieldTypeDouble","alias":"N_COORD97"},{"name":"ADDRESS","type":"esriFieldTypeString","alias":"ADDRESS","length":50},{"name":"OBJECTID","type":"esriFieldTypeOID","alias":"OBJECTID"}],"features":[{"attributes":{"ID":41401,"DIS_CODE":0,"TOWNNAME":"北區","LI":"力行里","LIN":"7鄰","STREET":"開南街","SECT":" ","MAREA":" ","LANE":"２７５巷","ALLEY":"８弄","HOUSE_NO":"１７號","E_COORD97":170993.32999999999,"N_COORD97":2545034.3100000001,"ADDRESS":"開南街２７５巷８弄１７號","OBJECTID":41401},"geometry":{"x":170993.33000000101,"y":2545034.3100000024}},{"attributes":{"ID":41402,"DIS_CODE":0,"TOWNNAME":"安南區","LI":"佃西里","LIN":"7鄰","STREET":"海佃路","SECT":"四段","MAREA":" ","LANE":"３８８巷","ALLEY":"６７弄","HOUSE_NO":"１３號","E_COORD97":165544.67000000001,"N_COORD97":2551742.6099999999,"ADDRESS":"海佃路四段３８８巷６７弄１３號","OBJECTID":41402},"geometry":{"x":165544.67000000086,"y":2551742.6099999975}},{"attributes":{"ID":41403,"DIS_CODE":0,"TOWNNAME":"安南區","LI":"佃西里","LIN":"7鄰","STREET":"海佃路","SECT":"四段","MAREA":" ","LANE":"３８８巷","ALLEY":"６７弄","HOUSE_NO":"１５號","E_COORD97":165549.29999999999,"N_COORD97":2551727.7999999998,"ADDRESS":"海佃路四段３８８巷６７弄１５號","OBJECTID":41403},"geometry":{"x":165549.29999999981,"y":2551727.8000000007}},{"attributes":{"ID":41404,"DIS_CODE":0,"TOWNNAME":"安南區","LI":"佃西里","LIN":"7鄰","STREET":"海佃路","SECT":"四段","MAREA":" ","LANE":"３８８巷","ALLEY":"６７弄","HOUSE_NO":"１７號","E_COORD97":165549.17000000001,"N_COORD97":2551723.96,"ADDRESS":"海佃路四段３８８巷６７弄１７號","OBJECTID":41404},"geometry":{"x":165549.17000000086,"y":2551723.9600000009}},{"attributes":{"ID":41405,"DIS_CODE":0,"TOWNNAME":"安南區","LI":"布袋里","LIN":"7鄰","STREET":"長和路","SECT":"四段","MAREA":" ","LANE":" ","ALLEY":" ","HOUSE_NO":"１９８號","E_COORD97":168821.48000000001,"N_COORD97":2551694.5499999998,"ADDRESS":"長和路四段１９８號","OBJECTID":41405},"geometry":{"x":168821.48000000138,"y":2551694.5500000026}},{"attributes":{"ID":41406,"DIS_CODE":0,"TOWNNAME":"安南區","LI":"州南里","LIN":"7鄰","STREET":"長和一街","SECT":" ","MAREA":" ","LANE":"１５巷","ALLEY":" ","HOUSE_NO":"９號","E_COORD97":169571.07871100001,"N_COORD97":2551485.1768399999,"ADDRESS":"長和一街１５巷９號","OBJECTID":41406},"geometry":{"x":169571.0787110012,"y":2551485.1768350042}},{"attributes":{"ID":41407,"DIS_CODE":0,"TOWNNAME":"安南區","LI":"佃西里","LIN":"7鄰","STREET":"海佃路","SECT":"四段","MAREA":" ","LANE":"３８８巷","ALLEY":"６７弄","HOUSE_NO":"１９號","E_COORD97":165548.38,"N_COORD97":2551720.3900000001,"ADDRESS":"海佃路四段３８８巷６７弄１９號","OBJECTID":41407},"geometry":{"x":165548.37999999989,"y":2551720.3900000006}},{"attributes":{"ID":41408,"DIS_CODE":0,"TOWNNAME":"安南區","LI":"城北里","LIN":"7鄰","STREET":"安中路","SECT":"六段","MAREA":" ","LANE":" ","ALLEY":" ","HOUSE_NO":"４８７之１號","E_COORD97":161031.10999999999,"N_COORD97":2551302.1899999999,"ADDRESS":"安中路六段４８７之１號","OBJECTID":41408},"geometry":{"x":161031.11000000127,"y":2551302.1900000013}},{"attributes":{"ID":41409,"DIS_CODE":0,"TOWNNAME":"新市區","LI":"永就里","LIN":"7鄰","STREET":" ","SECT":" ","MAREA":"永就","LANE":" ","ALLEY":" ","HOUSE_NO":"７１之１０號","E_COORD97":177586.60999999999,"N_COORD97":2551414.2999999998,"ADDRESS":"永就７１之１０號","OBJECTID":41409},"geometry":{"x":177586.61000000034,"y":2551414.3000000026}},{"attributes":{"ID":41410,"DIS_CODE":0,"TOWNNAME":"新市區","LI":"社內里","LIN":"7鄰","STREET":" ","SECT":" ","MAREA":"社內","LANE":" ","ALLEY":" ","HOUSE_NO":"６６之１號","E_COORD97":176652.06,"N_COORD97":2552705.2999999998,"ADDRESS":"社內６６之１號","OBJECTID":41410},"geometry":{"x":176652.05999999959,"y":2552705.3000000007}},{"attributes":{"ID":41411,"DIS_CODE":0,"TOWNNAME":"安南區","LI":"砂崙里","LIN":"7鄰","STREET":"青砂街","SECT":"一段","MAREA":" ","LANE":" ","ALLEY":" ","HOUSE_NO":"５９０號","E_COORD97":160060.84,"N_COORD97":2552652.0299999998,"ADDRESS":"青砂街一段５９０號","OBJECTID":41411},"geometry":{"x":160060.84000000078,"y":2552652.0300000031}},{"attributes":{"ID":41412,"DIS_CODE":0,"TOWNNAME":"安南區","LI":"佃西里","LIN":"7鄰","STREET":"海佃路","SECT":"四段","MAREA":" ","LANE":"３８８巷","ALLEY":"６７弄","HOUSE_NO":"１號","E_COORD97":165571.26999999999,"N_COORD97":2551740.1000000001,"ADDRESS":"海佃路四段３８８巷６７弄１號","OBJECTID":41412},"geometry":{"x":165571.26999999955,"y":2551740.1000000015}},{"attributes":{"ID":41413,"DIS_CODE":0,"TOWNNAME":"歸仁區","LI":"辜厝里","LIN":"5鄰","STREET":"大順街","SECT":" ","MAREA":" ","LANE":"７０巷","ALLEY":"２３弄","HOUSE_NO":"６號","E_COORD97":177314.70999999999,"N_COORD97":2540655.5299999998,"ADDRESS":"大順街７０巷２３弄６號","OBJECTID":41413},"geometry":{"x":177314.70999999996,"y":2540655.5299999993}},{"attributes":{"ID":41414,"DIS_CODE":0,"TOWNNAME":"安南區","LI":"佃西里","LIN":"7鄰","STREET":"海佃路","SECT":"四段","MAREA":" ","LANE":"３８８巷","ALLEY":"６７弄","HOUSE_NO":"３號","E_COORD97":165566.64000000001,"N_COORD97":2551738.77,"ADDRESS":"海佃路四段３８８巷６７弄３號","OBJECTID":41414},"geometry":{"x":165566.6400000006,"y":2551738.7700000014}},{"attributes":{"ID":41415,"DIS_CODE":0,"TOWNNAME":"安南區","LI":"佃西里","LIN":"7鄰","STREET":"海佃路","SECT":"四段","MAREA":" ","LANE":"３８８巷","ALLEY":"６７弄","HOUSE_NO":"４號","E_COORD97":165570.60999999999,"N_COORD97":2551756.4300000002,"ADDRESS":"海佃路四段３８８巷６７弄４號","OBJECTID":41415},"geometry":{"x":165570.61000000127,"y":2551756.4299999997}},{"attributes":{"ID":41416,"DIS_CODE":0,"TOWNNAME":"安南區","LI":"佃西里","LIN":"7鄰","STREET":"海佃路","SECT":"四段","MAREA":" ","LANE":"３８８巷","ALLEY":"６７弄","HOUSE_NO":"５號","E_COORD97":165562.79999999999,"N_COORD97":2551741.4199999999,"ADDRESS":"海佃路四段３８８巷６７弄５號","OBJECTID":41416},"geometry":{"x":165562.79999999981,"y":2551741.4200000037}},{"attributes":{"ID":41417,"DIS_CODE":0,"TOWNNAME":"安南區","LI":"佃西里","LIN":"7鄰","STREET":"海佃路","SECT":"四段","MAREA":" ","LANE":"３８８巷","ALLEY":"６７弄","HOUSE_NO":"６號","E_COORD97":165565.98000000001,"N_COORD97":2551757.75,"ADDRESS":"海佃路四段３８８巷６７弄６號","OBJECTID":41417},"geometry":{"x":165565.98000000231,"y":2551757.75}},{"attributes":{"ID":41418,"DIS_CODE":0,"TOWNNAME":"安南區","LI":"佃西里","LIN":"7鄰","STREET":"海佃路","SECT":"四段","MAREA":" ","LANE":"３８８巷","ALLEY":"６７弄","HOUSE_NO":"７號","E_COORD97":165558.44,"N_COORD97":2551739.5699999998,"ADDRESS":"海佃路四段３８８巷６７弄７號","OBJECTID":41418},"geometry":{"x":165558.44000000134,"y":2551739.5700000003}},{"attributes":{"ID":41419,"DIS_CODE":0,"TOWNNAME":"安南區","LI":"佃西里","LIN":"7鄰","STREET":"海佃路","SECT":"四段","MAREA":" ","LANE":"３８８巷","ALLEY":"６７弄","HOUSE_NO":"９號","E_COORD97":165554.60000000001,"N_COORD97":2551742.6099999999,"ADDRESS":"海佃路四段３８８巷６７弄９號","OBJECTID":41419},"geometry":{"x":165554.60000000056,"y":2551742.6099999975}},{"attributes":{"ID":41420,"DIS_CODE":0,"TOWNNAME":"東區","LI":"崇學里","LIN":"7鄰","STREET":"崇善路","SECT":" ","MAREA":" ","LANE":"１８２巷","ALLEY":"３弄","HOUSE_NO":"１０號","E_COORD97":170606.25,"N_COORD97":2542062.3199999998,"ADDRESS":"崇善路１８２巷３弄１０號","OBJECTID":41420},"geometry":{"x":170606.25,"y":2542062.3200000003}},{"attributes":{"ID":41421,"DIS_CODE":0,"TOWNNAME":"東區","LI":"崇學里","LIN":"7鄰","STREET":"崇善路","SECT":" ","MAREA":" ","LANE":"１８２巷","ALLEY":"３弄","HOUSE_NO":"１１號","E_COORD97":170584.94,"N_COORD97":2542110.02,"ADDRESS":"崇善路１８２巷３弄１１號","OBJECTID":41421},"geometry":{"x":170584.94000000041,"y":2542110.0199999996}},{"attributes":{"ID":41422,"DIS_CODE":0,"TOWNNAME":"東區","LI":"崇學里","LIN":"7鄰","STREET":"崇善路","SECT":" ","MAREA":" ","LANE":"１８２巷","ALLEY":"３弄","HOUSE_NO":"１２號","E_COORD97":170611.17000000001,"N_COORD97":2542058.04,"ADDRESS":"崇善路１８２巷３弄１２號","OBJECTID":41422},"geometry":{"x":170611.17000000086,"y":2542058.040000001}},{"attributes":{"ID":41423,"DIS_CODE":0,"TOWNNAME":"東區","LI":"崇學里","LIN":"7鄰","STREET":"崇善路","SECT":" ","MAREA":" ","LANE":"１８２巷","ALLEY":"３弄","HOUSE_NO":"１３號","E_COORD97":170588.64000000001,"N_COORD97":2542106.3300000001,"ADDRESS":"崇善路１８２巷３弄１３號","OBJECTID":41423},"geometry":{"x":170588.64000000153,"y":2542106.3299999982}},{"attributes":{"ID":41424,"DIS_CODE":0,"TOWNNAME":"東區","LI":"崇學里","LIN":"7鄰","STREET":"崇善路","SECT":" ","MAREA":" ","LANE":"１８２巷","ALLEY":"３弄","HOUSE_NO":"１號","E_COORD97":170561.45999999999,"N_COORD97":2542126.54,"ADDRESS":"崇善路１８２巷３弄１號","OBJECTID":41424},"geometry":{"x":170561.46000000183,"y":2542126.5399999991}},{"attributes":{"ID":41425,"DIS_CODE":0,"TOWNNAME":"東區","LI":"崇學里","LIN":"7鄰","STREET":"崇善路","SECT":" ","MAREA":" ","LANE":"１８２巷","ALLEY":"３弄","HOUSE_NO":"２５號","E_COORD97":170605.81,"N_COORD97":2542093.2999999998,"ADDRESS":"崇善路１８２巷３弄２５號","OBJECTID":41425},"geometry":{"x":170605.80999999959,"y":2542093.3000000007}},{"attributes":{"ID":41426,"DIS_CODE":0,"TOWNNAME":"新市區","LI":"社內里","LIN":"7鄰","STREET":" ","SECT":" ","MAREA":"社內","LANE":" ","ALLEY":" ","HOUSE_NO":"７３之１２號","E_COORD97":176674.73000000001,"N_COORD97":2552833.2999999998,"ADDRESS":"社內７３之１２號","OBJECTID":41426},"geometry":{"x":176674.73000000231,"y":2552833.3000000007}},{"attributes":{"ID":41427,"DIS_CODE":0,"TOWNNAME":"新市區","LI":"社內里","LIN":"7鄰","STREET":" ","SECT":" ","MAREA":"社內","LANE":" ","ALLEY":" ","HOUSE_NO":"７４之５號","E_COORD97":176639.23000000001,"N_COORD97":2552968.7999999998,"ADDRESS":"社內７４之５號","OBJECTID":41427},"geometry":{"x":176639.23000000138,"y":2552968.8000000007}},{"attributes":{"ID":41428,"DIS_CODE":0,"TOWNNAME":"新市區","LI":"社內里","LIN":"7鄰","STREET":" ","SECT":" ","MAREA":"社內","LANE":" ","ALLEY":" ","HOUSE_NO":"６９號","E_COORD97":176614.25,"N_COORD97":2552787.25,"ADDRESS":"社內６９號","OBJECTID":41428},"geometry":{"x":176614.25,"y":2552787.2500000019}},{"attributes":{"ID":41429,"DIS_CODE":0,"TOWNNAME":"東區","LI":"崇學里","LIN":"7鄰","STREET":"崇善路","SECT":" ","MAREA":" ","LANE":"１８２巷","ALLEY":"３弄","HOUSE_NO":"２７號","E_COORD97":170609.07999999999,"N_COORD97":2542090.25,"ADDRESS":"崇善路１８２巷３弄２７號","OBJECTID":41429},"geometry":{"x":170609.08000000007,"y":2542090.2500000037}},{"attributes":{"ID":41430,"DIS_CODE":0,"TOWNNAME":"東區","LI":"崇學里","LIN":"7鄰","STREET":"崇善路","SECT":" ","MAREA":" ","LANE":"１８２巷","ALLEY":"３弄","HOUSE_NO":"２號","E_COORD97":170585.48000000001,"N_COORD97":2542079.1299999999,"ADDRESS":"崇善路１８２巷３弄２號","OBJECTID":41430},"geometry":{"x":170585.48000000231,"y":2542079.129999999}},{"attributes":{"ID":41431,"DIS_CODE":0,"TOWNNAME":"東區","LI":"崇學里","LIN":"7鄰","STREET":"崇善路","SECT":" ","MAREA":" ","LANE":"１８２巷","ALLEY":"３弄","HOUSE_NO":"４號","E_COORD97":170590.22,"N_COORD97":2542075.1600000001,"ADDRESS":"崇善路１８２巷３弄４號","OBJECTID":41431},"geometry":{"x":170590.22000000067,"y":2542075.160000002}},{"attributes":{"ID":41432,"DIS_CODE":0,"TOWNNAME":"東區","LI":"崇學里","LIN":"7鄰","STREET":"崇善路","SECT":" ","MAREA":" ","LANE":"１８２巷","ALLEY":"３弄","HOUSE_NO":"６號","E_COORD97":170596.09,"N_COORD97":2542071.2799999998,"ADDRESS":"崇善路１８２巷３弄６號","OBJECTID":41432},"geometry":{"x":170596.09000000171,"y":2542071.2799999993}},{"attributes":{"ID":41433,"DIS_CODE":0,"TOWNNAME":"東區","LI":"崇學里","LIN":"7鄰","STREET":"崇善路","SECT":" ","MAREA":" ","LANE":"１８２巷","ALLEY":"３弄","HOUSE_NO":"７號","E_COORD97":170577.76000000001,"N_COORD97":2542115.02,"ADDRESS":"崇善路１８２巷３弄７號","OBJECTID":41433},"geometry":{"x":170577.76000000164,"y":2542115.0200000033}},{"attributes":{"ID":41434,"DIS_CODE":0,"TOWNNAME":"東區","LI":"崇學里","LIN":"7鄰","STREET":"崇善路","SECT":" ","MAREA":" ","LANE":"１８２巷","ALLEY":"３弄","HOUSE_NO":"８號","E_COORD97":170601.01000000001,"N_COORD97":2542066.9199999999,"ADDRESS":"崇善路１８２巷３弄８號","OBJECTID":41434},"geometry":{"x":170601.00999999978,"y":2542066.9199999999}},{"attributes":{"ID":41435,"DIS_CODE":0,"TOWNNAME":"東區","LI":"崇學里","LIN":"7鄰","STREET":"崇善路","SECT":" ","MAREA":" ","LANE":"１８２巷","ALLEY":"３弄","HOUSE_NO":"９號","E_COORD97":170581.45999999999,"N_COORD97":2542112.4100000001,"ADDRESS":"崇善路１８２巷３弄９號","OBJECTID":41435},"geometry":{"x":170581.45999999996,"y":2542112.4100000001}},{"attributes":{"ID":41436,"DIS_CODE":0,"TOWNNAME":"安南區","LI":"\u25A0田里","LIN":"7鄰","STREET":"本田路","SECT":"二段","MAREA":" ","LANE":" ","ALLEY":" ","HOUSE_NO":"５００號","E_COORD97":163395.996843,"N_COORD97":2548651.8417199999,"ADDRESS":"本田路二段５００號","OBJECTID":41436},"geometry":{"x":163395.99684300087,"y":2548651.8417190015}},{"attributes":{"ID":41437,"DIS_CODE":0,"TOWNNAME":"永康區","LI":"成功里","LIN":"7鄰","STREET":"忠孝路","SECT":" ","MAREA":" ","LANE":"２０７巷","ALLEY":"２２弄","HOUSE_NO":"１２號","E_COORD97":172015.94,"N_COORD97":2544953.1499999999,"ADDRESS":"忠孝路２０７巷２２弄１２號","OBJECTID":41437},"geometry":{"x":172015.94000000041,"y":2544953.1500000022}},{"attributes":{"ID":41438,"DIS_CODE":0,"TOWNNAME":"安南區","LI":"安東里","LIN":"7鄰","STREET":"安和路","SECT":"一段","MAREA":" ","LANE":"２８８巷","ALLEY":"１５弄","HOUSE_NO":"１４號","E_COORD97":169351.59,"N_COORD97":2548126.4700000002,"ADDRESS":"安和路一段２８８巷１５弄１４號","OBJECTID":41438},"geometry":{"x":169351.58999999892,"y":2548126.4700000007}},{"attributes":{"ID":41439,"DIS_CODE":0,"TOWNNAME":"歸仁區","LI":"西埔里","LIN":"8鄰","STREET":"保大路","SECT":"二段","MAREA":" ","LANE":" ","ALLEY":" ","HOUSE_NO":"３１８號","E_COORD97":176567.76999999999,"N_COORD97":2544157.2799999998,"ADDRESS":"保大路二段３１８號","OBJECTID":41439},"geometry":{"x":176567.76999999955,"y":2544157.2800000031}},{"attributes":{"ID":41440,"DIS_CODE":0,"TOWNNAME":"安南區","LI":"安東里","LIN":"7鄰","STREET":"安和路","SECT":"一段","MAREA":" ","LANE":"２８８巷","ALLEY":"１５弄","HOUSE_NO":"１５號","E_COORD97":169326.14999999999,"N_COORD97":2548114.04,"ADDRESS":"安和路一段２８８巷１５弄１５號","OBJECTID":41440},"geometry":{"x":169326.15000000037,"y":2548114.0399999991}},{"attributes":{"ID":41441,"DIS_CODE":0,"TOWNNAME":"安南區","LI":"安東里","LIN":"7鄰","STREET":"安和路","SECT":"一段","MAREA":" ","LANE":"２８８巷","ALLEY":"１５弄","HOUSE_NO":"１８號","E_COORD97":169342.07999999999,"N_COORD97":2548123.6800000002,"ADDRESS":"安和路一段２８８巷１５弄１８號","OBJECTID":41441},"geometry":{"x":169342.08000000101,"y":2548123.6799999997}},{"attributes":{"ID":41442,"DIS_CODE":0,"TOWNNAME":"歸仁區","LI":"看西里","LIN":"23鄰","STREET":"成功五街","SECT":" ","MAREA":" ","LANE":"８８巷","ALLEY":"９７弄","HOUSE_NO":"１６號","E_COORD97":178350.355109,"N_COORD97":2539800.6590100001,"ADDRESS":"成功五街８８巷９７弄１６號","OBJECTID":41442},"geometry":{"x":178350.35510899965,"y":2539800.6590140015}},{"attributes":{"ID":41443,"DIS_CODE":0,"TOWNNAME":"安南區","LI":"安東里","LIN":"7鄰","STREET":"安和路","SECT":"一段","MAREA":" ","LANE":"２８８巷","ALLEY":"１５弄","HOUSE_NO":"８號","E_COORD97":169346.42000000001,"N_COORD97":2548102.8700000001,"ADDRESS":"安和路一段２８８巷１５弄８號","OBJECTID":41443},"geometry":{"x":169346.42000000086,"y":2548102.8700000029}},{"attributes":{"ID":41444,"DIS_CODE":0,"TOWNNAME":"安南區","LI":"安東里","LIN":"7鄰","STREET":"安和路","SECT":"一段","MAREA":" ","LANE":"２８８巷","ALLEY":"３弄","HOUSE_NO":"１號","E_COORD97":169314.76000000001,"N_COORD97":2548062.8700000001,"ADDRESS":"安和路一段２８８巷３弄１號","OBJECTID":41444},"geometry":{"x":169314.75999999885,"y":2548062.870000001}},{"attributes":{"ID":41445,"DIS_CODE":0,"TOWNNAME":"安南區","LI":"安東里","LIN":"7鄰","STREET":"安和路","SECT":"一段","MAREA":" ","LANE":"２８８巷","ALLEY":"３弄","HOUSE_NO":"２號","E_COORD97":169325.82000000001,"N_COORD97":2548064.0800000001,"ADDRESS":"安和路一段２８８巷３弄２號","OBJECTID":41445},"geometry":{"x":169325.82000000123,"y":2548064.0800000001}},{"attributes":{"ID":41446,"DIS_CODE":0,"TOWNNAME":"安南區","LI":"安東里","LIN":"7鄰","STREET":"安和路","SECT":"一段","MAREA":" ","LANE":"２８８巷","ALLEY":"３弄","HOUSE_NO":"３號","E_COORD97":169312.63,"N_COORD97":2548067.7200000002,"ADDRESS":"安和路一段２８８巷３弄３號","OBJECTID":41446},"geometry":{"x":169312.63000000082,"y":2548067.7200000007}},{"attributes":{"ID":41447,"DIS_CODE":0,"TOWNNAME":"安南區","LI":"安東里","LIN":"7鄰","STREET":"安和路","SECT":"一段","MAREA":" ","LANE":"２８８巷","ALLEY":"３弄","HOUSE_NO":"４號","E_COORD97":169324.60999999999,"N_COORD97":2548070.6000000001,"ADDRESS":"安和路一段２８８巷３弄４號","OBJECTID":41447},"geometry":{"x":169324.61000000034,"y":2548070.5999999996}},{"attributes":{"ID":41448,"DIS_CODE":0,"TOWNNAME":"安南區","LI":"安東里","LIN":"7鄰","STREET":"安和路","SECT":"一段","MAREA":" ","LANE":"２８８巷","ALLEY":"１５弄","HOUSE_NO":"１６號","E_COORD97":169345.29999999999,"N_COORD97":2548123.1200000001,"ADDRESS":"安和路一段２８８巷１５弄１６號","OBJECTID":41448},"geometry":{"x":169345.30000000075,"y":2548123.120000001}},{"attributes":{"ID":41449,"DIS_CODE":0,"TOWNNAME":"安南區","LI":"安東里","LIN":"7鄰","STREET":"安和路","SECT":"一段","MAREA":" ","LANE":"２８８巷","ALLEY":"１５弄","HOUSE_NO":"２號","E_COORD97":169357.73000000001,"N_COORD97":2548079.27,"ADDRESS":"安和路一段２８８巷１５弄２號","OBJECTID":41449},"geometry":{"x":169357.73000000045,"y":2548079.2699999996}},{"attributes":{"ID":41450,"DIS_CODE":0,"TOWNNAME":"安南區","LI":"安東里","LIN":"7鄰","STREET":"安和路","SECT":"一段","MAREA":" ","LANE":"２８８巷","ALLEY":"１５弄","HOUSE_NO":"４號","E_COORD97":169355.35999999999,"N_COORD97":2548083.1800000002,"ADDRESS":"安和路一段２８８巷１５弄４號","OBJECTID":41450},"geometry":{"x":169355.3599999994,"y":2548083.1799999997}},{"attributes":{"ID":41451,"DIS_CODE":0,"TOWNNAME":"安南區","LI":"安東里","LIN":"7鄰","STREET":"安和路","SECT":"一段","MAREA":" ","LANE":"２８８巷","ALLEY":"１５弄","HOUSE_NO":"６之１號","E_COORD97":169353.67999999999,"N_COORD97":2548087.79,"ADDRESS":"安和路一段２８８巷１５弄６之１號","OBJECTID":41451},"geometry":{"x":169353.6799999997,"y":2548087.790000001}},{"attributes":{"ID":41452,"DIS_CODE":0,"TOWNNAME":"安南區","LI":"安東里","LIN":"7鄰","STREET":"安和路","SECT":"一段","MAREA":" ","LANE":"２８８巷","ALLEY":"１５弄","HOUSE_NO":"３號","E_COORD97":169334.76999999999,"N_COORD97":2548078.6200000001,"ADDRESS":"安和路一段２８８巷１５弄３號","OBJECTID":41452},"geometry":{"x":169334.76999999955,"y":2548078.620000001}},{"attributes":{"ID":41453,"DIS_CODE":0,"TOWNNAME":"安南區","LI":"安東里","LIN":"7鄰","STREET":"安和路","SECT":"一段","MAREA":" ","LANE":"２８８巷","ALLEY":"１５弄","HOUSE_NO":"５號","E_COORD97":169333.39999999999,"N_COORD97":2548082.71,"ADDRESS":"安和路一段２８８巷１５弄５號","OBJECTID":41453},"geometry":{"x":169333.4000000013,"y":2548082.7100000028}},{"attributes":{"ID":41454,"DIS_CODE":0,"TOWNNAME":"新市區","LI":"永就里","LIN":"7鄰","STREET":" ","SECT":" ","MAREA":"永就","LANE":" ","ALLEY":" ","HOUSE_NO":"７５之３號","E_COORD97":177639.09,"N_COORD97":2551500.2999999998,"ADDRESS":"永就７５之３號","OBJECTID":41454},"geometry":{"x":177639.08999999985,"y":2551500.3000000026}},{"attributes":{"ID":41455,"DIS_CODE":0,"TOWNNAME":"新市區","LI":"社內里","LIN":"7鄰","STREET":" ","SECT":" ","MAREA":"社內","LANE":" ","ALLEY":" ","HOUSE_NO":"７１號","E_COORD97":176601.627006,"N_COORD97":2552786.81911,"ADDRESS":"社內７１號","OBJECTID":41455},"geometry":{"x":176601.62700600084,"y":2552786.8191120028}},{"attributes":{"ID":41456,"DIS_CODE":0,"TOWNNAME":"新市區","LI":"社內里","LIN":"7鄰","STREET":" ","SECT":" ","MAREA":"社內","LANE":" ","ALLEY":" ","HOUSE_NO":"６８之６號","E_COORD97":176646.59,"N_COORD97":2552775.7999999998,"ADDRESS":"社內６８之６號","OBJECTID":41456},"geometry":{"x":176646.59000000078,"y":2552775.8000000007}},{"attributes":{"ID":41457,"DIS_CODE":0,"TOWNNAME":"新市區","LI":"永就里","LIN":"7鄰","STREET":" ","SECT":" ","MAREA":"永就","LANE":" ","ALLEY":" ","HOUSE_NO":"７４之１號","E_COORD97":177628.04000000001,"N_COORD97":2551479.2999999998,"ADDRESS":"永就７４之１號","OBJECTID":41457},"geometry":{"x":177628.03999999911,"y":2551479.3000000026}},{"attributes":{"ID":41458,"DIS_CODE":0,"TOWNNAME":"安南區","LI":"原佃里","LIN":"7鄰","STREET":"安吉路","SECT":"一段","MAREA":" ","LANE":" ","ALLEY":" ","HOUSE_NO":"３１０號","E_COORD97":166890.92999999999,"N_COORD97":2549829.4900000002,"ADDRESS":"安吉路一段３１０號","OBJECTID":41458},"geometry":{"x":166890.9299999997,"y":2549829.4900000021}},{"attributes":{"ID":41459,"DIS_CODE":0,"TOWNNAME":"安南區","LI":"原佃里","LIN":"7鄰","STREET":"安吉路","SECT":"一段","MAREA":" ","LANE":" ","ALLEY":" ","HOUSE_NO":"４７２之２號","E_COORD97":166916.32999999999,"N_COORD97":2549959.8300000001,"ADDRESS":"安吉路一段４７２之２號","OBJECTID":41459},"geometry":{"x":166916.33000000101,"y":2549959.8300000019}},{"attributes":{"ID":41460,"DIS_CODE":0,"TOWNNAME":"安南區","LI":"原佃里","LIN":"7鄰","STREET":"安吉路","SECT":"一段","MAREA":" ","LANE":" ","ALLEY":" ","HOUSE_NO":"４７２之１號","E_COORD97":166917.13,"N_COORD97":2549963.6400000001,"ADDRESS":"安吉路一段４７２之１號","OBJECTID":41460},"geometry":{"x":166917.13000000175,"y":2549963.6399999987}},{"attributes":{"ID":41461,"DIS_CODE":0,"TOWNNAME":"歸仁區","LI":"文化里","LIN":"8鄰","STREET":"民權一街","SECT":" ","MAREA":" ","LANE":" ","ALLEY":" ","HOUSE_NO":"６５號","E_COORD97":177209.75,"N_COORD97":2541355.3300000001,"ADDRESS":"民權一街６５號","OBJECTID":41461},"geometry":{"x":177209.75000000186,"y":2541355.3300000019}},{"attributes":{"ID":41462,"DIS_CODE":0,"TOWNNAME":"歸仁區","LI":"六甲里","LIN":"8鄰","STREET":"中正十五街","SECT":" ","MAREA":" ","LANE":" ","ALLEY":" ","HOUSE_NO":"１０２號","E_COORD97":176488.45999999999,"N_COORD97":2539483.25,"ADDRESS":"中正十五街１０２號","OBJECTID":41462},"geometry":{"x":176488.46000000089,"y":2539483.2500000019}},{"attributes":{"ID":41463,"DIS_CODE":0,"TOWNNAME":"安南區","LI":"東和里","LIN":"7鄰","STREET":"環館三路","SECT":" ","MAREA":" ","LANE":"１３巷","ALLEY":" ","HOUSE_NO":"１２號","E_COORD97":171513.404221,"N_COORD97":2551611.26205,"ADDRESS":"環館三路１３巷１２號","OBJECTID":41463},"geometry":{"x":171513.40422100108,"y":2551611.2620550022}},{"attributes":{"ID":41464,"DIS_CODE":0,"TOWNNAME":"安南區","LI":"東和里","LIN":"7鄰","STREET":"環館北路","SECT":" ","MAREA":" ","LANE":" ","ALLEY":" ","HOUSE_NO":"６５７號","E_COORD97":171535.22345799999,"N_COORD97":2551695.0290899999,"ADDRESS":"環館北路６５７號","OBJECTID":41464},"geometry":{"x":171535.22345800139,"y":2551695.0290930029}},{"attributes":{"ID":41465,"DIS_CODE":0,"TOWNNAME":"安南區","LI":"東和里","LIN":"7鄰","STREET":"環館三路","SECT":" ","MAREA":" ","LANE":" ","ALLEY":" ","HOUSE_NO":"３號","E_COORD97":171559.79657899999,"N_COORD97":2551560.6737500001,"ADDRESS":"環館三路３號","OBJECTID":41465},"geometry":{"x":171559.79657900054,"y":2551560.6737490017}},{"attributes":{"ID":41466,"DIS_CODE":0,"TOWNNAME":"安南區","LI":"東和里","LIN":"7鄰","STREET":"環館三路","SECT":" ","MAREA":" ","LANE":" ","ALLEY":" ","HOUSE_NO":"２１號","E_COORD97":171554.92432200001,"N_COORD97":2551643.4353700001,"ADDRESS":"環館三路２１號","OBJECTID":41466},"geometry":{"x":171554.92432199977,"y":2551643.435371004}},{"attributes":{"ID":41467,"DIS_CODE":0,"TOWNNAME":"歸仁區","LI":"武東里","LIN":"8鄰","STREET":"武東一街","SECT":" ","MAREA":" ","LANE":" ","ALLEY":" ","HOUSE_NO":"７８號","E_COORD97":175820.14000000001,"N_COORD97":2535459.25,"ADDRESS":"武東一街７８號","OBJECTID":41467},"geometry":{"x":175820.14000000153,"y":2535459.2500000019}},{"attributes":{"ID":41468,"DIS_CODE":0,"TOWNNAME":"歸仁區","LI":"武東里","LIN":"8鄰","STREET":"武東一街","SECT":" ","MAREA":" ","LANE":" ","ALLEY":" ","HOUSE_NO":"６７號","E_COORD97":175731.94,"N_COORD97":2535477.25,"ADDRESS":"武東一街６７號","OBJECTID":41468},"geometry":{"x":175731.94000000041,"y":2535477.25}},{"attributes":{"ID":41469,"DIS_CODE":0,"TOWNNAME":"歸仁區","LI":"文化里","LIN":"8鄰","STREET":"民權一街","SECT":" ","MAREA":" ","LANE":" ","ALLEY":" ","HOUSE_NO":"６３號","E_COORD97":177204.64999999999,"N_COORD97":2541355.3300000001,"ADDRESS":"民權一街６３號","OBJECTID":41469},"geometry":{"x":177204.6500000013,"y":2541355.3300000019}},{"attributes":{"ID":41470,"DIS_CODE":0,"TOWNNAME":"新營區","LI":"三仙里","LIN":"24鄰","STREET":"民治路","SECT":" ","MAREA":" ","LANE":" ","ALLEY":" ","HOUSE_NO":"７８號之１９","E_COORD97":179514.57999999999,"N_COORD97":2578823.1499999999,"ADDRESS":"民治路７８號之１９","OBJECTID":41470},"geometry":{"x":179514.57999999914,"y":2578823.1500000022}},{"attributes":{"ID":41471,"DIS_CODE":0,"TOWNNAME":"歸仁區","LI":"文化里","LIN":"8鄰","STREET":"民權一街","SECT":" ","MAREA":" ","LANE":" ","ALLEY":" ","HOUSE_NO":"６１號","E_COORD97":177200.54999999999,"N_COORD97":2541355.3300000001,"ADDRESS":"民權一街６１號","OBJECTID":41471},"geometry":{"x":177200.54999999888,"y":2541355.3300000019}},{"attributes":{"ID":41472,"DIS_CODE":0,"TOWNNAME":"歸仁區","LI":"六甲里","LIN":"8鄰","STREET":"中正十五街","SECT":" ","MAREA":" ","LANE":" ","ALLEY":" ","HOUSE_NO":"１０８號","E_COORD97":176491.56,"N_COORD97":2539501.25,"ADDRESS":"中正十五街１０８號","OBJECTID":41472},"geometry":{"x":176491.55999999959,"y":2539501.2500000019}},{"attributes":{"ID":41473,"DIS_CODE":0,"TOWNNAME":"歸仁區","LI":"文化里","LIN":"8鄰","STREET":"民權一街","SECT":" ","MAREA":" ","LANE":" ","ALLEY":" ","HOUSE_NO":"４９號","E_COORD97":177175.95000000001,"N_COORD97":2541357.3300000001,"ADDRESS":"民權一街４９號","OBJECTID":41473},"geometry":{"x":177175.95000000019,"y":2541357.3300000038}},{"attributes":{"ID":41474,"DIS_CODE":0,"TOWNNAME":"新市區","LI":"永就里","LIN":"7鄰","STREET":" ","SECT":" ","MAREA":"永就","LANE":" ","ALLEY":" ","HOUSE_NO":"７１之１號","E_COORD97":177616.20000000001,"N_COORD97":2551388.5499999998,"ADDRESS":"永就７１之１號","OBJECTID":41474},"geometry":{"x":177616.20000000112,"y":2551388.5500000045}},{"attributes":{"ID":41475,"DIS_CODE":0,"TOWNNAME":"新市區","LI":"永就里","LIN":"7鄰","STREET":" ","SECT":" ","MAREA":"永就","LANE":" ","ALLEY":" ","HOUSE_NO":"７３之１號","E_COORD97":177616.01000000001,"N_COORD97":2551468.5499999998,"ADDRESS":"永就７３之１號","OBJECTID":41475},"geometry":{"x":177616.00999999978,"y":2551468.5500000007}},{"attributes":{"ID":41476,"DIS_CODE":0,"TOWNNAME":"新市區","LI":"永就里","LIN":"7鄰","STREET":" ","SECT":" ","MAREA":"永就","LANE":" ","ALLEY":" ","HOUSE_NO":"７１之５號","E_COORD97":177596.29000000001,"N_COORD97":2551396.2999999998,"ADDRESS":"永就７１之５號","OBJECTID":41476},"geometry":{"x":177596.29000000097,"y":2551396.3000000007}},{"attributes":{"ID":41477,"DIS_CODE":0,"TOWNNAME":"新市區","LI":"社內里","LIN":"7鄰","STREET":" ","SECT":" ","MAREA":"社內","LANE":" ","ALLEY":" ","HOUSE_NO":"７４之６號","E_COORD97":176639.64999999999,"N_COORD97":2552997.5499999998,"ADDRESS":"社內７４之６號","OBJECTID":41477},"geometry":{"x":176639.6500000013,"y":2552997.5500000007}},{"attributes":{"ID":41478,"DIS_CODE":0,"TOWNNAME":"安南區","LI":"安東里","LIN":"7鄰","STREET":"安和路","SECT":"一段","MAREA":" ","LANE":"２８８巷","ALLEY":"１５弄","HOUSE_NO":"７號","E_COORD97":169330.98000000001,"N_COORD97":2548085.4399999999,"ADDRESS":"安和路一段２８８巷１５弄７號","OBJECTID":41478},"geometry":{"x":169330.98000000231,"y":2548085.4399999995}},{"attributes":{"ID":41479,"DIS_CODE":0,"TOWNNAME":"安南區","LI":"安東里","LIN":"7鄰","STREET":"安和路","SECT":"一段","MAREA":" ","LANE":"２８８巷","ALLEY":"１５弄","HOUSE_NO":"１１號","E_COORD97":169329.92999999999,"N_COORD97":2548105.9399999999,"ADDRESS":"安和路一段２８８巷１５弄１１號","OBJECTID":41479},"geometry":{"x":169329.9299999997,"y":2548105.9399999976}},{"attributes":{"ID":41480,"DIS_CODE":0,"TOWNNAME":"安南區","LI":"安東里","LIN":"7鄰","STREET":"安和路","SECT":"一段","MAREA":" ","LANE":"２８８巷","ALLEY":"１５弄","HOUSE_NO":"１７號","E_COORD97":169324.62,"N_COORD97":2548116.7000000002,"ADDRESS":"安和路一段２８８巷１５弄１７號","OBJECTID":41480},"geometry":{"x":169324.62000000197,"y":2548116.6999999993}},{"attributes":{"ID":41481,"DIS_CODE":0,"TOWNNAME":"安南區","LI":"安東里","LIN":"7鄰","STREET":"安和路","SECT":"一段","MAREA":" ","LANE":"２８８巷","ALLEY":"１５弄","HOUSE_NO":"１３號","E_COORD97":169327.97,"N_COORD97":2548109.5699999998,"ADDRESS":"安和路一段２８８巷１５弄１３號","OBJECTID":41481},"geometry":{"x":169327.96999999974,"y":2548109.570000004}},{"attributes":{"ID":41482,"DIS_CODE":0,"TOWNNAME":"安南區","LI":"溪北里","LIN":"7鄰","STREET":"安和路","SECT":"一段","MAREA":" ","LANE":"１５巷","ALLEY":"３２弄","HOUSE_NO":"１１號","E_COORD97":169426.20999999999,"N_COORD97":2547400.6499999999,"ADDRESS":"安和路一段１５巷３２弄１１號","OBJECTID":41482},"geometry":{"x":169426.21000000089,"y":2547400.6500000041}},{"attributes":{"ID":41483,"DIS_CODE":0,"TOWNNAME":"安南區","LI":"溪北里","LIN":"7鄰","STREET":"安和路","SECT":"一段","MAREA":" ","LANE":"１５巷","ALLEY":"３２弄","HOUSE_NO":"１２號","E_COORD97":169451.06,"N_COORD97":2547395.9100000001,"ADDRESS":"安和路一段１５巷３２弄１２號","OBJECTID":41483},"geometry":{"x":169451.05999999959,"y":2547395.910000002}},{"attributes":{"ID":41484,"DIS_CODE":0,"TOWNNAME":"安南區","LI":"溪北里","LIN":"7鄰","STREET":"安和路","SECT":"一段","MAREA":" ","LANE":"１５巷","ALLEY":"３２弄","HOUSE_NO":"１３號","E_COORD97":169422.88,"N_COORD97":2547408.02,"ADDRESS":"安和路一段１５巷３２弄１３號","OBJECTID":41484},"geometry":{"x":169422.88000000082,"y":2547408.0200000014}},{"attributes":{"ID":41485,"DIS_CODE":0,"TOWNNAME":"安南區","LI":"溪北里","LIN":"7鄰","STREET":"安和路","SECT":"一段","MAREA":" ","LANE":"１５巷","ALLEY":"３２弄","HOUSE_NO":"１４號","E_COORD97":169448.94,"N_COORD97":2547399.5499999998,"ADDRESS":"安和路一段１５巷３２弄１４號","OBJECTID":41485},"geometry":{"x":169448.94000000134,"y":2547399.5500000026}},{"attributes":{"ID":41486,"DIS_CODE":0,"TOWNNAME":"安南區","LI":"溪北里","LIN":"7鄰","STREET":"安和路","SECT":"一段","MAREA":" ","LANE":"１５巷","ALLEY":"３２弄","HOUSE_NO":"１５號","E_COORD97":169419.97,"N_COORD97":2547415.2400000002,"ADDRESS":"安和路一段１５巷３２弄１５號","OBJECTID":41486},"geometry":{"x":169419.96999999974,"y":2547415.2400000002}},{"attributes":{"ID":41487,"DIS_CODE":0,"TOWNNAME":"安南區","LI":"溪北里","LIN":"7鄰","STREET":"安和路","SECT":"一段","MAREA":" ","LANE":"１５巷","ALLEY":"３２弄","HOUSE_NO":"１６號","E_COORD97":169446.79999999999,"N_COORD97":2547403.8700000001,"ADDRESS":"安和路一段１５巷３２弄１６號","OBJECTID":41487},"geometry":{"x":169446.80000000168,"y":2547403.8700000029}},{"attributes":{"ID":41488,"DIS_CODE":0,"TOWNNAME":"安南區","LI":"溪北里","LIN":"7鄰","STREET":"安和路","SECT":"一段","MAREA":" ","LANE":"１５巷","ALLEY":"３２弄","HOUSE_NO":"１７號","E_COORD97":169416.45999999999,"N_COORD97":2547421.2599999998,"ADDRESS":"安和路一段１５巷３２弄１７號","OBJECTID":41488},"geometry":{"x":169416.45999999996,"y":2547421.2599999998}},{"attributes":{"ID":41489,"DIS_CODE":0,"TOWNNAME":"安南區","LI":"溪北里","LIN":"7鄰","STREET":"安和路","SECT":"一段","MAREA":" ","LANE":"１５巷","ALLEY":"３２弄","HOUSE_NO":"１８號","E_COORD97":169444.35000000001,"N_COORD97":2547407.6800000002,"ADDRESS":"安和路一段１５巷３２弄１８號","OBJECTID":41489},"geometry":{"x":169444.34999999963,"y":2547407.6800000016}},{"attributes":{"ID":41490,"DIS_CODE":0,"TOWNNAME":"安南區","LI":"溪北里","LIN":"7鄰","STREET":"安和路","SECT":"一段","MAREA":" ","LANE":"１５巷","ALLEY":"３２弄","HOUSE_NO":"１９號","E_COORD97":169411.53,"N_COORD97":2547430.04,"ADDRESS":"安和路一段１５巷３２弄１９號","OBJECTID":41490},"geometry":{"x":169411.53000000026,"y":2547430.0399999991}},{"attributes":{"ID":41491,"DIS_CODE":0,"TOWNNAME":"安南區","LI":"溪北里","LIN":"7鄰","STREET":"安和路","SECT":"一段","MAREA":" ","LANE":"１５巷","ALLEY":"３２弄","HOUSE_NO":"１號","E_COORD97":169441.73000000001,"N_COORD97":2547365.1600000001,"ADDRESS":"安和路一段１５巷３２弄１號","OBJECTID":41491},"geometry":{"x":169441.73000000138,"y":2547365.1600000001}},{"attributes":{"ID":41492,"DIS_CODE":0,"TOWNNAME":"安南區","LI":"東和里","LIN":"7鄰","STREET":"環館五路","SECT":" ","MAREA":" ","LANE":" ","ALLEY":" ","HOUSE_NO":"３號","E_COORD97":171252.14000000001,"N_COORD97":2551465.7000000002,"ADDRESS":"環館五路３號","OBJECTID":41492},"geometry":{"x":171252.1400000006,"y":2551465.6999999993}},{"attributes":{"ID":41493,"DIS_CODE":0,"TOWNNAME":"安南區","LI":"東和里","LIN":"7鄰","STREET":"環館路","SECT":" ","MAREA":" ","LANE":" ","ALLEY":" ","HOUSE_NO":"５０２號","E_COORD97":171245.42000000001,"N_COORD97":2551431.1499999999,"ADDRESS":"環館路５０２號","OBJECTID":41493},"geometry":{"x":171245.42000000086,"y":2551431.1500000004}},{"attributes":{"ID":41494,"DIS_CODE":0,"TOWNNAME":"安南區","LI":"東和里","LIN":"7鄰","STREET":"環館路","SECT":" ","MAREA":" ","LANE":" ","ALLEY":" ","HOUSE_NO":"５０６號","E_COORD97":171234.82999999999,"N_COORD97":2551424.27,"ADDRESS":"環館路５０６號","OBJECTID":41494},"geometry":{"x":171234.83000000007,"y":2551424.2700000014}},{"attributes":{"ID":41495,"DIS_CODE":0,"TOWNNAME":"新市區","LI":"社內里","LIN":"7鄰","STREET":" ","SECT":" ","MAREA":"社內","LANE":" ","ALLEY":" ","HOUSE_NO":"７３之２０號","E_COORD97":176676.67000000001,"N_COORD97":2552792.7999999998,"ADDRESS":"社內７３之２０號","OBJECTID":41495},"geometry":{"x":176676.67000000086,"y":2552792.8000000007}},{"attributes":{"ID":41496,"DIS_CODE":0,"TOWNNAME":"山上區","LI":"南洲里","LIN":"7鄰","STREET":" ","SECT":" ","MAREA":"南洲","LANE":" ","ALLEY":" ","HOUSE_NO":"１５５號","E_COORD97":183803.94,"N_COORD97":2555745.25,"ADDRESS":"南洲１５５號","OBJECTID":41496},"geometry":{"x":183803.94000000134,"y":2555745.25}},{"attributes":{"ID":41497,"DIS_CODE":0,"TOWNNAME":"山上區","LI":"明和里","LIN":"7鄰","STREET":" ","SECT":" ","MAREA":"明和","LANE":" ","ALLEY":" ","HOUSE_NO":"１１７號","E_COORD97":183245.14000000001,"N_COORD97":2556246.25,"ADDRESS":"明和１１７號","OBJECTID":41497},"geometry":{"x":183245.1400000006,"y":2556246.2500000019}},{"attributes":{"ID":41498,"DIS_CODE":0,"TOWNNAME":"山上區","LI":"新莊里","LIN":"7鄰","STREET":" ","SECT":" ","MAREA":"大庄","LANE":" ","ALLEY":" ","HOUSE_NO":"１７之１３號","E_COORD97":183831.01000000001,"N_COORD97":2554736.2999999998,"ADDRESS":"大庄１７之１３號","OBJECTID":41498},"geometry":{"x":183831.01000000071,"y":2554736.3000000007}},{"attributes":{"ID":41499,"DIS_CODE":0,"TOWNNAME":"山上區","LI":"南洲里","LIN":"7鄰","STREET":" ","SECT":" ","MAREA":"南洲","LANE":" ","ALLEY":" ","HOUSE_NO":"１５８號","E_COORD97":183765.04000000001,"N_COORD97":2555711.25,"ADDRESS":"南洲１５８號","OBJECTID":41499},"geometry":{"x":183765.04000000097,"y":2555711.25}},{"attributes":{"ID":41500,"DIS_CODE":0,"TOWNNAME":"山上區","LI":"南洲里","LIN":"7鄰","STREET":" ","SECT":" ","MAREA":"南洲","LANE":" ","ALLEY":" ","HOUSE_NO":"１６１號","E_COORD97":183808.64000000001,"N_COORD97":2555726.25,"ADDRESS":"南洲１６１號","OBJECTID":41500},"geometry":{"x":183808.63999999966,"y":2555726.2500000037}},{"attributes":{"ID":41501,"DIS_CODE":0,"TOWNNAME":"山上區","LI":"南洲里","LIN":"7鄰","STREET":" ","SECT":" ","MAREA":"南洲","LANE":" ","ALLEY":" ","HOUSE_NO":"１５０號","E_COORD97":183831.44,"N_COORD97":2555734.25,"ADDRESS":"南洲１５０號","OBJECTID":41501},"geometry":{"x":183831.44000000041,"y":2555734.2500000019}},{"attributes":{"ID":41502,"DIS_CODE":0,"TOWNNAME":"山上區","LI":"南洲里","LIN":"7鄰","STREET":" ","SECT":" ","MAREA":"南洲","LANE":" ","ALLEY":" ","HOUSE_NO":"１５３號","E_COORD97":183822.73999999999,"N_COORD97":2555737.25,"ADDRESS":"南洲１５３號","OBJECTID":41502},"geometry":{"x":183822.74000000022,"y":2555737.2500000019}},{"attributes":{"ID":41503,"DIS_CODE":0,"TOWNNAME":"安南區","LI":"東和里","LIN":"7鄰","STREET":"環館路","SECT":" ","MAREA":" ","LANE":" ","ALLEY":" ","HOUSE_NO":"５０８號","E_COORD97":171224.25,"N_COORD97":2551418.98,"ADDRESS":"環館路５０８號","OBJECTID":41503},"geometry":{"x":171224.25000000093,"y":2551418.9800000004}},{"attributes":{"ID":41504,"DIS_CODE":0,"TOWNNAME":"安南區","LI":"東和里","LIN":"7鄰","STREET":"環館路","SECT":" ","MAREA":" ","LANE":" ","ALLEY":" ","HOUSE_NO":"５１０號","E_COORD97":171213.67000000001,"N_COORD97":2551414.2200000002,"ADDRESS":"環館路５１０號","OBJECTID":41504},"geometry":{"x":171213.66999999993,"y":2551414.2199999988}},{"attributes":{"ID":41505,"DIS_CODE":0,"TOWNNAME":"安南區","LI":"溪北里","LIN":"7鄰","STREET":"安和路","SECT":"一段","MAREA":" ","LANE":"１５巷","ALLEY":"３２弄","HOUSE_NO":"２０號","E_COORD97":169442.54000000001,"N_COORD97":2547410.6000000001,"ADDRESS":"安和路一段１５巷３２弄２０號","OBJECTID":41505},"geometry":{"x":169442.54000000097,"y":2547410.6000000015}},{"attributes":{"ID":41506,"DIS_CODE":0,"TOWNNAME":"安南區","LI":"溪北里","LIN":"7鄰","STREET":"安和路","SECT":"一段","MAREA":" ","LANE":"１５巷","ALLEY":"３２弄","HOUSE_NO":"２１號","E_COORD97":169410.32999999999,"N_COORD97":2547437.8599999999,"ADDRESS":"安和路一段１５巷３２弄２１號","OBJECTID":41506},"geometry":{"x":169410.33000000101,"y":2547437.8599999994}},{"attributes":{"ID":41507,"DIS_CODE":0,"TOWNNAME":"安南區","LI":"溪北里","LIN":"7鄰","STREET":"安和路","SECT":"一段","MAREA":" ","LANE":"１５巷","ALLEY":"３２弄","HOUSE_NO":"２２號","E_COORD97":169440.57000000001,"N_COORD97":2547415.48,"ADDRESS":"安和路一段１５巷３２弄２２號","OBJECTID":41507},"geometry":{"x":169440.57000000216,"y":2547415.4800000042}},{"attributes":{"ID":41508,"DIS_CODE":0,"TOWNNAME":"山上區","LI":"南洲里","LIN":"7鄰","STREET":" ","SECT":" ","MAREA":"南洲","LANE":" ","ALLEY":" ","HOUSE_NO":"１４８號","E_COORD97":183839.84,"N_COORD97":2555731.25,"ADDRESS":"南洲１４８號","OBJECTID":41508},"geometry":{"x":183839.83999999985,"y":2555731.25}},{"attributes":{"ID":41509,"DIS_CODE":0,"TOWNNAME":"山上區","LI":"南洲里","LIN":"7鄰","STREET":" ","SECT":" ","MAREA":"南洲","LANE":" ","ALLEY":" ","HOUSE_NO":"１４７號","E_COORD97":183844.14000000001,"N_COORD97":2555730.25,"ADDRESS":"南洲１４７號","OBJECTID":41509},"geometry":{"x":183844.1400000006,"y":2555730.2500000019}},{"attributes":{"ID":41510,"DIS_CODE":0,"TOWNNAME":"山上區","LI":"南洲里","LIN":"7鄰","STREET":" ","SECT":" ","MAREA":"南洲","LANE":" ","ALLEY":" ","HOUSE_NO":"１４６號","E_COORD97":183847.84,"N_COORD97":2555729.25,"ADDRESS":"南洲１４６號","OBJECTID":41510},"geometry":{"x":183847.84000000078,"y":2555729.25}},{"attributes":{"ID":41511,"DIS_CODE":0,"TOWNNAME":"山上區","LI":"南洲里","LIN":"7鄰","STREET":" ","SECT":" ","MAREA":"南洲","LANE":" ","ALLEY":" ","HOUSE_NO":"１４５號","E_COORD97":183851.73999999999,"N_COORD97":2555729.25,"ADDRESS":"南洲１４５號","OBJECTID":41511},"geometry":{"x":183851.74000000209,"y":2555729.25}},{"attributes":{"ID":41512,"DIS_CODE":0,"TOWNNAME":"山上區","LI":"南洲里","LIN":"7鄰","STREET":" ","SECT":" ","MAREA":"南洲","LANE":" ","ALLEY":" ","HOUSE_NO":"１６０號","E_COORD97":183789.54000000001,"N_COORD97":2555724.25,"ADDRESS":"南洲１６０號","OBJECTID":41512},"geometry":{"x":183789.54000000004,"y":2555724.2500000019}},{"attributes":{"ID":41513,"DIS_CODE":0,"TOWNNAME":"山上區","LI":"南洲里","LIN":"7鄰","STREET":" ","SECT":" ","MAREA":"南洲","LANE":" ","ALLEY":" ","HOUSE_NO":"１５５號之１","E_COORD97":183810.26999999999,"N_COORD97":2555743.2999999998,"ADDRESS":"南洲１５５號之１","OBJECTID":41513},"geometry":{"x":183810.27000000048,"y":2555743.2999999989}},{"attributes":{"ID":41514,"DIS_CODE":0,"TOWNNAME":"山上區","LI":"新莊里","LIN":"7鄰","STREET":" ","SECT":" ","MAREA":"大庄","LANE":" ","ALLEY":" ","HOUSE_NO":"１７之２號","E_COORD97":183842.76000000001,"N_COORD97":2554694.2999999998,"ADDRESS":"大庄１７之２號","OBJECTID":41514},"geometry":{"x":183842.76000000164,"y":2554694.3000000007}},{"attributes":{"ID":41515,"DIS_CODE":0,"TOWNNAME":"山上區","LI":"新莊里","LIN":"7鄰","STREET":" ","SECT":" ","MAREA":"大庄","LANE":" ","ALLEY":" ","HOUSE_NO":"１６號之３","E_COORD97":183853.89000000001,"N_COORD97":2554793.2999999998,"ADDRESS":"大庄１６號之３","OBJECTID":41515},"geometry":{"x":183853.8900000006,"y":2554793.3000000007}},{"attributes":{"ID":41516,"DIS_CODE":0,"TOWNNAME":"山上區","LI":"南洲里","LIN":"7鄰","STREET":" ","SECT":" ","MAREA":"南洲","LANE":" ","ALLEY":" ","HOUSE_NO":"１５９號","E_COORD97":183771.14000000001,"N_COORD97":2555695.25,"ADDRESS":"南洲１５９號","OBJECTID":41516},"geometry":{"x":183771.1400000006,"y":2555695.25}},{"attributes":{"ID":41517,"DIS_CODE":0,"TOWNNAME":"安南區","LI":"溪北里","LIN":"7鄰","STREET":"安和路","SECT":"一段","MAREA":" ","LANE":"１５巷","ALLEY":"３２弄","HOUSE_NO":"２３號","E_COORD97":169408.01999999999,"N_COORD97":2547444.8799999999,"ADDRESS":"安和路一段１５巷３２弄２３號","OBJECTID":41517},"geometry":{"x":169408.02000000048,"y":2547444.8800000027}},{"attributes":{"ID":41518,"DIS_CODE":0,"TOWNNAME":"安南區","LI":"溪北里","LIN":"7鄰","STREET":"安和路","SECT":"一段","MAREA":" ","LANE":"１５巷","ALLEY":"３２弄","HOUSE_NO":"２４號","E_COORD97":169439.23000000001,"N_COORD97":2547419.4100000001,"ADDRESS":"安和路一段１５巷３２弄２４號","OBJECTID":41518},"geometry":{"x":169439.23000000045,"y":2547419.410000002}},{"attributes":{"ID":41519,"DIS_CODE":0,"TOWNNAME":"安南區","LI":"溪北里","LIN":"7鄰","STREET":"安和路","SECT":"一段","MAREA":" ","LANE":"１５巷","ALLEY":"３２弄","HOUSE_NO":"２６號","E_COORD97":169436.07000000001,"N_COORD97":2547425.6000000001,"ADDRESS":"安和路一段１５巷３２弄２６號","OBJECTID":41519},"geometry":{"x":169436.07000000123,"y":2547425.5999999996}},{"attributes":{"ID":41520,"DIS_CODE":0,"TOWNNAME":"七股區","LI":"十份里","LIN":"1鄰","STREET":" ","SECT":" ","MAREA":"十份","LANE":" ","ALLEY":" ","HOUSE_NO":"７號","E_COORD97":158370.54999999999,"N_COORD97":2555327.6800000002,"ADDRESS":"十份７號","OBJECTID":41520},"geometry":{"x":158370.55000000168,"y":2555327.6800000016}},{"attributes":{"ID":41521,"DIS_CODE":0,"TOWNNAME":"安南區","LI":"溪北里","LIN":"7鄰","STREET":"安和路","SECT":"一段","MAREA":" ","LANE":"１５巷","ALLEY":"３２弄","HOUSE_NO":"２８號","E_COORD97":169434.70999999999,"N_COORD97":2547430.02,"ADDRESS":"安和路一段１５巷３２弄２８號","OBJECTID":41521},"geometry":{"x":169434.71000000089,"y":2547430.0199999996}},{"attributes":{"ID":41522,"DIS_CODE":0,"TOWNNAME":"安南區","LI":"溪北里","LIN":"7鄰","STREET":"安和路","SECT":"一段","MAREA":" ","LANE":"１５巷","ALLEY":"３２弄","HOUSE_NO":"２號","E_COORD97":169456.48000000001,"N_COORD97":2547375.48,"ADDRESS":"安和路一段１５巷３２弄２號","OBJECTID":41522},"geometry":{"x":169456.48000000231,"y":2547375.4800000023}},{"attributes":{"ID":41523,"DIS_CODE":0,"TOWNNAME":"安南區","LI":"溪北里","LIN":"7鄰","STREET":"安和路","SECT":"一段","MAREA":" ","LANE":"１５巷","ALLEY":"３２弄","HOUSE_NO":"３２號","E_COORD97":169430.48000000001,"N_COORD97":2547437.1499999999,"ADDRESS":"安和路一段１５巷３２弄３２號","OBJECTID":41523},"geometry":{"x":169430.48000000045,"y":2547437.1500000004}},{"attributes":{"ID":41524,"DIS_CODE":0,"TOWNNAME":"安南區","LI":"溪北里","LIN":"7鄰","STREET":"安和路","SECT":"一段","MAREA":" ","LANE":"１５巷","ALLEY":"３２弄","HOUSE_NO":"３４號","E_COORD97":169429.14000000001,"N_COORD97":2547442.3300000001,"ADDRESS":"安和路一段１５巷３２弄３４號","OBJECTID":41524},"geometry":{"x":169429.14000000153,"y":2547442.3300000001}},{"attributes":{"ID":41525,"DIS_CODE":0,"TOWNNAME":"安南區","LI":"溪北里","LIN":"7鄰","STREET":"安和路","SECT":"一段","MAREA":" ","LANE":"１５巷","ALLEY":"３２弄","HOUSE_NO":"３６號","E_COORD97":169428.26999999999,"N_COORD97":2547445.3100000001,"ADDRESS":"安和路一段１５巷３２弄３６號","OBJECTID":41525},"geometry":{"x":169428.27000000142,"y":2547445.3100000005}},{"attributes":{"ID":41526,"DIS_CODE":0,"TOWNNAME":"安南區","LI":"溪北里","LIN":"7鄰","STREET":"安和路","SECT":"一段","MAREA":" ","LANE":"１５巷","ALLEY":"３２弄","HOUSE_NO":"３８號","E_COORD97":169425.39000000001,"N_COORD97":2547449.3300000001,"ADDRESS":"安和路一段１５巷３２弄３８號","OBJECTID":41526},"geometry":{"x":169425.38999999966,"y":2547449.3300000001}},{"attributes":{"ID":41527,"DIS_CODE":0,"TOWNNAME":"安南區","LI":"溪北里","LIN":"7鄰","STREET":"安和路","SECT":"一段","MAREA":" ","LANE":"１５巷","ALLEY":"３２弄","HOUSE_NO":"３號","E_COORD97":169438.42000000001,"N_COORD97":2547370.7599999998,"ADDRESS":"安和路一段１５巷３２弄３號","OBJECTID":41527},"geometry":{"x":169438.42000000086,"y":2547370.7599999998}},{"attributes":{"ID":41528,"DIS_CODE":0,"TOWNNAME":"安南區","LI":"東和里","LIN":"7鄰","STREET":"環館五路","SECT":" ","MAREA":" ","LANE":" ","ALLEY":" ","HOUSE_NO":"１３號","E_COORD97":171239.32000000001,"N_COORD97":2551498.6899999999,"ADDRESS":"環館五路１３號","OBJECTID":41528},"geometry":{"x":171239.32000000123,"y":2551498.6900000013}},{"attributes":{"ID":41529,"DIS_CODE":0,"TOWNNAME":"安南區","LI":"東和里","LIN":"7鄰","STREET":"環館五路","SECT":" ","MAREA":" ","LANE":" ","ALLEY":" ","HOUSE_NO":"１５號","E_COORD97":171236.14999999999,"N_COORD97":2551505.04,"ADDRESS":"環館五路１５號","OBJECTID":41529},"geometry":{"x":171236.15000000037,"y":2551505.0399999991}},{"attributes":{"ID":41530,"DIS_CODE":0,"TOWNNAME":"安南區","LI":"東和里","LIN":"7鄰","STREET":"環館五路","SECT":" ","MAREA":" ","LANE":" ","ALLEY":" ","HOUSE_NO":"１７號","E_COORD97":171232.97,"N_COORD97":2551511.5499999998,"ADDRESS":"環館五路１７號","OBJECTID":41530},"geometry":{"x":171232.97000000067,"y":2551511.5500000026}},{"attributes":{"ID":41531,"DIS_CODE":0,"TOWNNAME":"安南區","LI":"東和里","LIN":"7鄰","STREET":"環館五路","SECT":" ","MAREA":" ","LANE":" ","ALLEY":" ","HOUSE_NO":"１９號","E_COORD97":171229.64000000001,"N_COORD97":2551517.7400000002,"ADDRESS":"環館五路１９號","OBJECTID":41531},"geometry":{"x":171229.6400000006,"y":2551517.7400000002}},{"attributes":{"ID":41532,"DIS_CODE":0,"TOWNNAME":"安南區","LI":"東和里","LIN":"7鄰","STREET":"環館五路","SECT":" ","MAREA":" ","LANE":" ","ALLEY":" ","HOUSE_NO":"２１號","E_COORD97":171228.04999999999,"N_COORD97":2551524.25,"ADDRESS":"環館五路２１號","OBJECTID":41532},"geometry":{"x":171228.04999999981,"y":2551524.25}},{"attributes":{"ID":41533,"DIS_CODE":0,"TOWNNAME":"安南區","LI":"東和里","LIN":"7鄰","STREET":"環館五路","SECT":" ","MAREA":" ","LANE":" ","ALLEY":" ","HOUSE_NO":"２３號","E_COORD97":171224.23999999999,"N_COORD97":2551529.96,"ADDRESS":"環館五路２３號","OBJECTID":41533},"geometry":{"x":171224.24000000209,"y":2551529.9600000028}},{"attributes":{"ID":41534,"DIS_CODE":0,"TOWNNAME":"安南區","LI":"城中里","LIN":"7鄰","STREET":"安中路","SECT":"六段","MAREA":" ","LANE":" ","ALLEY":" ","HOUSE_NO":"６１５之１號","E_COORD97":160767.10999999999,"N_COORD97":2551545.7999999998,"ADDRESS":"安中路六段６１５之１號","OBJECTID":41534},"geometry":{"x":160767.11000000034,"y":2551545.8000000007}},{"attributes":{"ID":41535,"DIS_CODE":0,"TOWNNAME":"安南區","LI":"溪北里","LIN":"7鄰","STREET":"安和路","SECT":"一段","MAREA":" ","LANE":"１５巷","ALLEY":"３２弄","HOUSE_NO":"４０號","E_COORD97":169423.57000000001,"N_COORD97":2547453.8399999999,"ADDRESS":"安和路一段１５巷３２弄４０號","OBJECTID":41535},"geometry":{"x":169423.57000000216,"y":2547453.8400000017}},{"attributes":{"ID":41536,"DIS_CODE":0,"TOWNNAME":"安南區","LI":"溪北里","LIN":"7鄰","STREET":"安和路","SECT":"一段","MAREA":" ","LANE":"１５巷","ALLEY":"３２弄","HOUSE_NO":"４號","E_COORD97":169454.35999999999,"N_COORD97":2547379.6099999999,"ADDRESS":"安和路一段１５巷３２弄４號","OBJECTID":41536},"geometry":{"x":169454.36000000127,"y":2547379.6100000031}},{"attributes":{"ID":41537,"DIS_CODE":0,"TOWNNAME":"安南區","LI":"溪北里","LIN":"7鄰","STREET":"安和路","SECT":"一段","MAREA":" ","LANE":"１５巷","ALLEY":"３２弄","HOUSE_NO":"５號","E_COORD97":169435.38,"N_COORD97":2547376.8300000001,"ADDRESS":"安和路一段１５巷３２弄５號","OBJECTID":41537},"geometry":{"x":169435.38000000082,"y":2547376.8300000019}},{"attributes":{"ID":41538,"DIS_CODE":0,"TOWNNAME":"安南區","LI":"溪北里","LIN":"7鄰","STREET":"安和路","SECT":"一段","MAREA":" ","LANE":"１５巷","ALLEY":"３２弄","HOUSE_NO":"６號","E_COORD97":169452.51999999999,"N_COORD97":2547382.8300000001,"ADDRESS":"安和路一段１５巷３２弄６號","OBJECTID":41538},"geometry":{"x":169452.52000000048,"y":2547382.8300000019}},{"attributes":{"ID":41539,"DIS_CODE":0,"TOWNNAME":"安南區","LI":"溪北里","LIN":"7鄰","STREET":"安和路","SECT":"一段","MAREA":" ","LANE":"１５巷","ALLEY":"３２弄","HOUSE_NO":"７號","E_COORD97":169433,"N_COORD97":2547384.3700000001,"ADDRESS":"安和路一段１５巷３２弄７號","OBJECTID":41539},"geometry":{"x":169433,"y":2547384.3700000029}},{"attributes":{"ID":41540,"DIS_CODE":0,"TOWNNAME":"安南區","LI":"溪北里","LIN":"7鄰","STREET":"安和路","SECT":"一段","MAREA":" ","LANE":"１５巷","ALLEY":"３２弄","HOUSE_NO":"８號","E_COORD97":169449.94,"N_COORD97":2547386.23,"ADDRESS":"安和路一段１５巷３２弄８號","OBJECTID":41540},"geometry":{"x":169449.94000000227,"y":2547386.2299999986}},{"attributes":{"ID":41541,"DIS_CODE":0,"TOWNNAME":"安南區","LI":"溪北里","LIN":"7鄰","STREET":"安和路","SECT":"一段","MAREA":" ","LANE":"１５巷","ALLEY":"３２弄","HOUSE_NO":"９號","E_COORD97":169429.42000000001,"N_COORD97":2547394.5299999998,"ADDRESS":"安和路一段１５巷３２弄９號","OBJECTID":41541},"geometry":{"x":169429.42000000086,"y":2547394.5300000012}},{"attributes":{"ID":41542,"DIS_CODE":0,"TOWNNAME":"新營區","LI":"南紙里","LIN":"7鄰","STREET":"建業路","SECT":" ","MAREA":" ","LANE":"２６９巷","ALLEY":"２０弄","HOUSE_NO":"１５號","E_COORD97":177941.31,"N_COORD97":2577410.8999999999,"ADDRESS":"建業路２６９巷２０弄１５號","OBJECTID":41542},"geometry":{"x":177941.31000000052,"y":2577410.9000000022}},{"attributes":{"ID":41543,"DIS_CODE":0,"TOWNNAME":"新營區","LI":"新東里","LIN":"7鄰","STREET":"東學路","SECT":" ","MAREA":" ","LANE":"１４８巷","ALLEY":"１弄","HOUSE_NO":"５號","E_COORD97":181156.44,"N_COORD97":2579334.75,"ADDRESS":"東學路１４８巷１弄５號","OBJECTID":41543},"geometry":{"x":181156.44000000041,"y":2579334.7500000019}},{"attributes":{"ID":41544,"DIS_CODE":0,"TOWNNAME":"安平區","LI":"文平里","LIN":"7鄰","STREET":"建平六街","SECT":" ","MAREA":" ","LANE":"９０巷","ALLEY":"１１弄","HOUSE_NO":"１０號","E_COORD97":166250.84,"N_COORD97":2543208.2799999998,"ADDRESS":"建平六街９０巷１１弄１０號","OBJECTID":41544},"geometry":{"x":166250.83999999985,"y":2543208.2800000012}},{"attributes":{"ID":41545,"DIS_CODE":0,"TOWNNAME":"安平區","LI":"文平里","LIN":"7鄰","STREET":"建平六街","SECT":" ","MAREA":" ","LANE":"９０巷","ALLEY":"７弄","HOUSE_NO":"９號","E_COORD97":166242.91,"N_COORD97":2543141.9100000001,"ADDRESS":"建平六街９０巷７弄９號","OBJECTID":41545},"geometry":{"x":166242.91000000108,"y":2543141.9100000001}},{"attributes":{"ID":41546,"DIS_CODE":0,"TOWNNAME":"安平區","LI":"文平里","LIN":"7鄰","STREET":"建平六街","SECT":" ","MAREA":" ","LANE":"９０巷","ALLEY":"１１弄","HOUSE_NO":"１１號","E_COORD97":166243,"N_COORD97":2543193.8999999999,"ADDRESS":"建平六街９０巷１１弄１１號","OBJECTID":41546},"geometry":{"x":166243,"y":2543193.9000000004}},{"attributes":{"ID":41547,"DIS_CODE":0,"TOWNNAME":"安平區","LI":"文平里","LIN":"7鄰","STREET":"建平六街","SECT":" ","MAREA":" ","LANE":"９０巷","ALLEY":"１１弄","HOUSE_NO":"１２號","E_COORD97":166244.51999999999,"N_COORD97":2543208.3900000001,"ADDRESS":"建平六街９０巷１１弄１２號","OBJECTID":41547},"geometry":{"x":166244.52000000142,"y":2543208.3899999987}},{"attributes":{"ID":41548,"DIS_CODE":0,"TOWNNAME":"安平區","LI":"文平里","LIN":"7鄰","STREET":"建平六街","SECT":" ","MAREA":" ","LANE":"９０巷","ALLEY":"１１弄","HOUSE_NO":"１號","E_COORD97":166272.95000000001,"N_COORD97":2543190.8599999999,"ADDRESS":"建平六街９０巷１１弄１號","OBJECTID":41548},"geometry":{"x":166272.95000000205,"y":2543190.8600000013}},{"attributes":{"ID":41549,"DIS_CODE":0,"TOWNNAME":"七股區","LI":"十份里","LIN":"1鄰","STREET":" ","SECT":" ","MAREA":"十份","LANE":" ","ALLEY":" ","HOUSE_NO":"８號之１","E_COORD97":158351.32000000001,"N_COORD97":2555318.4500000002,"ADDRESS":"十份８號之１","OBJECTID":41549},"geometry":{"x":158351.32000000123,"y":2555318.4500000011}},{"attributes":{"ID":41550,"DIS_CODE":0,"TOWNNAME":"安平區","LI":"文平里","LIN":"7鄰","STREET":"建平六街","SECT":" ","MAREA":" ","LANE":"９０巷","ALLEY":"１１弄","HOUSE_NO":"２號","E_COORD97":166274.57999999999,"N_COORD97":2543205.2400000002,"ADDRESS":"建平六街９０巷１１弄２號","OBJECTID":41550},"geometry":{"x":166274.58000000007,"y":2543205.2400000002}},{"attributes":{"ID":41551,"DIS_CODE":0,"TOWNNAME":"安平區","LI":"文平里","LIN":"7鄰","STREET":"建平六街","SECT":" ","MAREA":" ","LANE":"９０巷","ALLEY":"１１弄","HOUSE_NO":"３號","E_COORD97":166267.10000000001,"N_COORD97":2543191.0899999999,"ADDRESS":"建平六街９０巷１１弄３號","OBJECTID":41551},"geometry":{"x":166267.09999999963,"y":2543191.0900000017}},{"attributes":{"ID":41552,"DIS_CODE":0,"TOWNNAME":"新化區","LI":"協興里","LIN":"14鄰","STREET":"太平街","SECT":" ","MAREA":" ","LANE":" ","ALLEY":" ","HOUSE_NO":"１７０號","E_COORD97":178227.42000000001,"N_COORD97":2548662.25,"ADDRESS":"太平街１７０號","OBJECTID":41552},"geometry":{"x":178227.42000000086,"y":2548662.2500000019}},{"attributes":{"ID":41553,"DIS_CODE":0,"TOWNNAME":"安平區","LI":"文平里","LIN":"7鄰","STREET":"建平六街","SECT":" ","MAREA":" ","LANE":"９０巷","ALLEY":"１１弄","HOUSE_NO":"５號","E_COORD97":166260.66,"N_COORD97":2543191.9100000001,"ADDRESS":"建平六街９０巷１１弄５號","OBJECTID":41553},"geometry":{"x":166260.66000000015,"y":2543191.910000002}},{"attributes":{"ID":41554,"DIS_CODE":0,"TOWNNAME":"安平區","LI":"建平里","LIN":"7鄰","STREET":"府前路","SECT":"二段","MAREA":" ","LANE":" ","ALLEY":" ","HOUSE_NO":"６２８號","E_COORD97":166329.57000000001,"N_COORD97":2543784.25,"ADDRESS":"府前路二段６２８號","OBJECTID":41554},"geometry":{"x":166329.5700000003,"y":2543784.25}},{"attributes":{"ID":41555,"DIS_CODE":0,"TOWNNAME":"安平區","LI":"億載里","LIN":"7鄰","STREET":"建平三街","SECT":" ","MAREA":" ","LANE":" ","ALLEY":" ","HOUSE_NO":"６０－１號","E_COORD97":166176.89999999999,"N_COORD97":2542888.7400000002,"ADDRESS":"建平三街６０－１號","OBJECTID":41555},"geometry":{"x":166176.9000000013,"y":2542888.7400000021}},{"attributes":{"ID":41556,"DIS_CODE":0,"TOWNNAME":"新化區","LI":"協興里","LIN":"14鄰","STREET":"太平街","SECT":" ","MAREA":" ","LANE":" ","ALLEY":" ","HOUSE_NO":"１５８號","E_COORD97":178312.51999999999,"N_COORD97":2548682.25,"ADDRESS":"太平街１５８號","OBJECTID":41556},"geometry":{"x":178312.51999999862,"y":2548682.2500000019}},{"attributes":{"ID":41557,"DIS_CODE":0,"TOWNNAME":"新化區","LI":"太平里","LIN":"17鄰","STREET":"太平街","SECT":" ","MAREA":" ","LANE":" ","ALLEY":" ","HOUSE_NO":"８９號","E_COORD97":178676.87,"N_COORD97":2548744.25,"ADDRESS":"太平街８９號","OBJECTID":41557},"geometry":{"x":178676.87000000011,"y":2548744.25}},{"attributes":{"ID":41558,"DIS_CODE":0,"TOWNNAME":"新化區","LI":"太平里","LIN":"4鄰","STREET":"民生路","SECT":" ","MAREA":" ","LANE":" ","ALLEY":" ","HOUSE_NO":"２２０號","E_COORD97":179073.20999999999,"N_COORD97":2548994.25,"ADDRESS":"民生路２２０號","OBJECTID":41558},"geometry":{"x":179073.21000000089,"y":2548994.2500000019}},{"attributes":{"ID":41559,"DIS_CODE":0,"TOWNNAME":"安南區","LI":"布袋里","LIN":"7鄰","STREET":"長和路","SECT":"四段","MAREA":" ","LANE":"２００巷","ALLEY":" ","HOUSE_NO":"３２號","E_COORD97":168760.94,"N_COORD97":2551809.21,"ADDRESS":"長和路四段２００巷３２號","OBJECTID":41559},"geometry":{"x":168760.94000000041,"y":2551809.2100000028}},{"attributes":{"ID":41560,"DIS_CODE":0,"TOWNNAME":"安南區","LI":"東和里","LIN":"7鄰","STREET":"環館三路","SECT":" ","MAREA":" ","LANE":" ","ALLEY":" ","HOUSE_NO":"５號","E_COORD97":171559.16106700001,"N_COORD97":2551568.92875,"ADDRESS":"環館三路５號","OBJECTID":41560},"geometry":{"x":171559.16106700059,"y":2551568.9287450016}},{"attributes":{"ID":41561,"DIS_CODE":0,"TOWNNAME":"新化區","LI":"觀音里","LIN":"4鄰","STREET":"中正路","SECT":" ","MAREA":" ","LANE":" ","ALLEY":" ","HOUSE_NO":"４８１號","E_COORD97":179045.91,"N_COORD97":2548521.25,"ADDRESS":"中正路４８１號","OBJECTID":41561},"geometry":{"x":179045.91000000015,"y":2548521.25}},{"attributes":{"ID":41562,"DIS_CODE":0,"TOWNNAME":"新化區","LI":"東榮里","LIN":"4鄰","STREET":"信義路","SECT":" ","MAREA":" ","LANE":" ","ALLEY":" ","HOUSE_NO":"３１號之６","E_COORD97":180423.42999999999,"N_COORD97":2548551.2599999998,"ADDRESS":"信義路３１號之６","OBJECTID":41562},"geometry":{"x":180423.4299999997,"y":2548551.2599999998}},{"attributes":{"ID":41563,"DIS_CODE":0,"TOWNNAME":"新化區","LI":"東榮里","LIN":"4鄰","STREET":"信義路","SECT":" ","MAREA":" ","LANE":" ","ALLEY":" ","HOUSE_NO":"３號","E_COORD97":181521.73000000001,"N_COORD97":2548648.25,"ADDRESS":"信義路３號","OBJECTID":41563},"geometry":{"x":181521.73000000138,"y":2548648.2500000019}},{"attributes":{"ID":41564,"DIS_CODE":0,"TOWNNAME":"新化區","LI":"東榮里","LIN":"20鄰","STREET":"復興路","SECT":" ","MAREA":" ","LANE":" ","ALLEY":" ","HOUSE_NO":"２７４號","E_COORD97":179352.22,"N_COORD97":2548366.25,"ADDRESS":"復興路２７４號","OBJECTID":41564},"geometry":{"x":179352.21999999881,"y":2548366.2500000019}},{"attributes":{"ID":41565,"DIS_CODE":0,"TOWNNAME":"新化區","LI":"豐榮里","LIN":"13鄰","STREET":"信義路","SECT":" ","MAREA":" ","LANE":" ","ALLEY":" ","HOUSE_NO":"４０５號","E_COORD97":178607.32999999999,"N_COORD97":2548262.25,"ADDRESS":"信義路４０５號","OBJECTID":41565},"geometry":{"x":178607.33000000007,"y":2548262.25}},{"attributes":{"ID":41566,"DIS_CODE":0,"TOWNNAME":"新化區","LI":"東榮里","LIN":"4鄰","STREET":"信義路","SECT":" ","MAREA":" ","LANE":" ","ALLEY":" ","HOUSE_NO":"９１號之３","E_COORD97":179792.42999999999,"N_COORD97":2548665.2599999998,"ADDRESS":"信義路９１號之３","OBJECTID":41566},"geometry":{"x":179792.43000000063,"y":2548665.2600000016}},{"attributes":{"ID":41567,"DIS_CODE":0,"TOWNNAME":"新化區","LI":"太平里","LIN":"4鄰","STREET":"民生路","SECT":" ","MAREA":" ","LANE":" ","ALLEY":" ","HOUSE_NO":"２２８號","E_COORD97":179068.91,"N_COORD97":2549003.25,"ADDRESS":"民生路２２８號","OBJECTID":41567},"geometry":{"x":179068.91000000108,"y":2549003.2500000037}},{"attributes":{"ID":41568,"DIS_CODE":0,"TOWNNAME":"山上區","LI":"南洲里","LIN":"7鄰","STREET":" ","SECT":" ","MAREA":"南洲","LANE":" ","ALLEY":" ","HOUSE_NO":"１５６之１號","E_COORD97":183795.64000000001,"N_COORD97":2555751.2999999998,"ADDRESS":"南洲１５６之１號","OBJECTID":41568},"geometry":{"x":183795.63999999966,"y":2555751.3000000026}},{"attributes":{"ID":41569,"DIS_CODE":0,"TOWNNAME":"新化區","LI":"太平里","LIN":"4鄰","STREET":"民生路","SECT":" ","MAREA":" ","LANE":" ","ALLEY":" ","HOUSE_NO":"２２６號","E_COORD97":179070.01000000001,"N_COORD97":2548999.25,"ADDRESS":"民生路２２６號","OBJECTID":41569},"geometry":{"x":179070.00999999978,"y":2548999.25}},{"attributes":{"ID":41570,"DIS_CODE":0,"TOWNNAME":"新化區","LI":"東榮里","LIN":"4鄰","STREET":"信義路","SECT":" ","MAREA":" ","LANE":" ","ALLEY":" ","HOUSE_NO":"３１號","E_COORD97":180405.98000000001,"N_COORD97":2548432.25,"ADDRESS":"信義路３１號","OBJECTID":41570},"geometry":{"x":180405.98000000138,"y":2548432.25}},{"attributes":{"ID":41571,"DIS_CODE":0,"TOWNNAME":"新化區","LI":"東榮里","LIN":"4鄰","STREET":"信義路","SECT":" ","MAREA":" ","LANE":" ","ALLEY":" ","HOUSE_NO":"４９號","E_COORD97":180364.78,"N_COORD97":2548681.25,"ADDRESS":"信義路４９號","OBJECTID":41571},"geometry":{"x":180364.78000000119,"y":2548681.2500000019}},{"attributes":{"ID":41572,"DIS_CODE":0,"TOWNNAME":"新化區","LI":"東榮里","LIN":"34鄰","STREET":"中山路","SECT":" ","MAREA":" ","LANE":" ","ALLEY":" ","HOUSE_NO":"２４３號之１","E_COORD97":179090.44,"N_COORD97":2548419.2599999998,"ADDRESS":"中山路２４３號之１","OBJECTID":41572},"geometry":{"x":179090.44000000227,"y":2548419.2599999998}},{"attributes":{"ID":41573,"DIS_CODE":0,"TOWNNAME":"新化區","LI":"知義里","LIN":"14鄰","STREET":"中正路","SECT":" ","MAREA":" ","LANE":" ","ALLEY":" ","HOUSE_NO":"４８號","E_COORD97":179146.95999999999,"N_COORD97":2547215.25,"ADDRESS":"中正路４８號","OBJECTID":41573},"geometry":{"x":179146.95999999996,"y":2547215.25}},{"attributes":{"ID":41574,"DIS_CODE":0,"TOWNNAME":"新化區","LI":"知義里","LIN":"14鄰","STREET":"復興路","SECT":" ","MAREA":" ","LANE":" ","ALLEY":" ","HOUSE_NO":"１３９號","E_COORD97":179466.01999999999,"N_COORD97":2547794.25,"ADDRESS":"復興路１３９號","OBJECTID":41574},"geometry":{"x":179466.02000000048,"y":2547794.2500000019}},{"attributes":{"ID":41575,"DIS_CODE":0,"TOWNNAME":"新化區","LI":"東榮里","LIN":"20鄰","STREET":"復興路","SECT":" ","MAREA":" ","LANE":" ","ALLEY":" ","HOUSE_NO":"２３６號之５","E_COORD97":179392.88,"N_COORD97":2548265.2599999998,"ADDRESS":"復興路２３６號之５","OBJECTID":41575},"geometry":{"x":179392.88000000082,"y":2548265.2600000016}},{"attributes":{"ID":41576,"DIS_CODE":0,"TOWNNAME":"新化區","LI":"東榮里","LIN":"26鄰","STREET":"中正路","SECT":" ","MAREA":" ","LANE":" ","ALLEY":" ","HOUSE_NO":"３２８號","E_COORD97":179161.41,"N_COORD97":2548116.25,"ADDRESS":"中正路３２８號","OBJECTID":41576},"geometry":{"x":179161.41000000015,"y":2548116.2500000019}},{"attributes":{"ID":41577,"DIS_CODE":0,"TOWNNAME":"新化區","LI":"協興里","LIN":"8鄰","STREET":"太平街","SECT":" ","MAREA":" ","LANE":" ","ALLEY":" ","HOUSE_NO":"１４６號","E_COORD97":178359.51999999999,"N_COORD97":2548694.25,"ADDRESS":"太平街１４６號","OBJECTID":41577},"geometry":{"x":178359.51999999955,"y":2548694.2499999981}},{"attributes":{"ID":41578,"DIS_CODE":0,"TOWNNAME":"新化區","LI":"太平里","LIN":"8鄰","STREET":"中正路","SECT":" ","MAREA":" ","LANE":" ","ALLEY":" ","HOUSE_NO":"５９６號","E_COORD97":178775.31,"N_COORD97":2549215.25,"ADDRESS":"中正路５９６號","OBJECTID":41578},"geometry":{"x":178775.31000000145,"y":2549215.25}},{"attributes":{"ID":41579,"DIS_CODE":0,"TOWNNAME":"新化區","LI":"協興里","LIN":"14鄰","STREET":"太平街","SECT":" ","MAREA":" ","LANE":" ","ALLEY":" ","HOUSE_NO":"１７４號之１","E_COORD97":178197.85000000001,"N_COORD97":2548656.2599999998,"ADDRESS":"太平街１７４號之１","OBJECTID":41579},"geometry":{"x":178197.84999999963,"y":2548656.2599999998}},{"attributes":{"ID":41580,"DIS_CODE":0,"TOWNNAME":"新化區","LI":"東榮里","LIN":"4鄰","STREET":"信義路","SECT":" ","MAREA":" ","LANE":" ","ALLEY":" ","HOUSE_NO":"４３號","E_COORD97":180625.67999999999,"N_COORD97":2548687.25,"ADDRESS":"信義路４３號","OBJECTID":41580},"geometry":{"x":180625.68000000156,"y":2548687.25}},{"attributes":{"ID":41581,"DIS_CODE":0,"TOWNNAME":"安平區","LI":"文平里","LIN":"7鄰","STREET":"建平六街","SECT":" ","MAREA":" ","LANE":"９０巷","ALLEY":"１１弄","HOUSE_NO":"６號","E_COORD97":166262.29999999999,"N_COORD97":2543206.4100000001,"ADDRESS":"建平六街９０巷１１弄６號","OBJECTID":41581},"geometry":{"x":166262.30000000075,"y":2543206.4100000001}},{"attributes":{"ID":41582,"DIS_CODE":0,"TOWNNAME":"安平區","LI":"文平里","LIN":"7鄰","STREET":"建平六街","SECT":" ","MAREA":" ","LANE":"９０巷","ALLEY":"１１弄","HOUSE_NO":"７號","E_COORD97":166254.70000000001,"N_COORD97":2543192.2599999998,"ADDRESS":"建平六街９０巷１１弄７號","OBJECTID":41582},"geometry":{"x":166254.70000000112,"y":2543192.2600000016}},{"attributes":{"ID":41583,"DIS_CODE":0,"TOWNNAME":"安平區","LI":"文平里","LIN":"7鄰","STREET":"建平六街","SECT":" ","MAREA":" ","LANE":"９０巷","ALLEY":"１１弄","HOUSE_NO":"８號","E_COORD97":166256.57000000001,"N_COORD97":2543207.2200000002,"ADDRESS":"建平六街９０巷１１弄８號","OBJECTID":41583},"geometry":{"x":166256.5700000003,"y":2543207.2200000025}},{"attributes":{"ID":41584,"DIS_CODE":0,"TOWNNAME":"安平區","LI":"文平里","LIN":"7鄰","STREET":"建平六街","SECT":" ","MAREA":" ","LANE":"９０巷","ALLEY":"１１弄","HOUSE_NO":"９號","E_COORD97":166249.42999999999,"N_COORD97":2543193.0800000001,"ADDRESS":"建平六街９０巷１１弄９號","OBJECTID":41584},"geometry":{"x":166249.43000000063,"y":2543193.0800000038}},{"attributes":{"ID":41585,"DIS_CODE":0,"TOWNNAME":"安平區","LI":"文平里","LIN":"7鄰","STREET":"建平六街","SECT":" ","MAREA":" ","LANE":"９０巷","ALLEY":"７弄","HOUSE_NO":"１０號","E_COORD97":166244.38,"N_COORD97":2543156.48,"ADDRESS":"建平六街９０巷７弄１０號","OBJECTID":41585},"geometry":{"x":166244.38000000082,"y":2543156.4800000004}},{"attributes":{"ID":41586,"DIS_CODE":0,"TOWNNAME":"安平區","LI":"文平里","LIN":"7鄰","STREET":"建平六街","SECT":" ","MAREA":" ","LANE":"９０巷","ALLEY":"７弄","HOUSE_NO":"１１號","E_COORD97":166236.87,"N_COORD97":2543142.1200000001,"ADDRESS":"建平六街９０巷７弄１１號","OBJECTID":41586},"geometry":{"x":166236.87000000011,"y":2543142.120000001}},{"attributes":{"ID":41587,"DIS_CODE":0,"TOWNNAME":"安平區","LI":"文平里","LIN":"7鄰","STREET":"建平六街","SECT":" ","MAREA":" ","LANE":"９０巷","ALLEY":"７弄","HOUSE_NO":"１２號","E_COORD97":166238.53,"N_COORD97":2543157.1499999999,"ADDRESS":"建平六街９０巷７弄１２號","OBJECTID":41587},"geometry":{"x":166238.53000000212,"y":2543157.1500000022}},{"attributes":{"ID":41588,"DIS_CODE":0,"TOWNNAME":"安平區","LI":"文平里","LIN":"7鄰","STREET":"建平六街","SECT":" ","MAREA":" ","LANE":"９０巷","ALLEY":"７弄","HOUSE_NO":"１號","E_COORD97":166266.62,"N_COORD97":2543138.4700000002,"ADDRESS":"建平六街９０巷７弄１號","OBJECTID":41588},"geometry":{"x":166266.62000000197,"y":2543138.4700000025}},{"attributes":{"ID":41589,"DIS_CODE":0,"TOWNNAME":"安平區","LI":"文平里","LIN":"7鄰","STREET":"建平六街","SECT":" ","MAREA":" ","LANE":"９０巷","ALLEY":"９弄","HOUSE_NO":"７號","E_COORD97":166251.85999999999,"N_COORD97":2543166.54,"ADDRESS":"建平六街９０巷９弄７號","OBJECTID":41589},"geometry":{"x":166251.86000000127,"y":2543166.540000001}},{"attributes":{"ID":41590,"DIS_CODE":0,"TOWNNAME":"安平區","LI":"文平里","LIN":"7鄰","STREET":"建平六街","SECT":" ","MAREA":" ","LANE":"９０巷","ALLEY":"９弄","HOUSE_NO":"８號","E_COORD97":166253.39000000001,"N_COORD97":2543181.6400000001,"ADDRESS":"建平六街９０巷９弄８號","OBJECTID":41590},"geometry":{"x":166253.38999999966,"y":2543181.6400000006}},{"attributes":{"ID":41591,"DIS_CODE":0,"TOWNNAME":"安平區","LI":"文平里","LIN":"7鄰","STREET":"建平六街","SECT":" ","MAREA":" ","LANE":"９０巷","ALLEY":"９弄","HOUSE_NO":"９號","E_COORD97":166245.53,"N_COORD97":2543167.3999999999,"ADDRESS":"建平六街９０巷９弄９號","OBJECTID":41591},"geometry":{"x":166245.53000000119,"y":2543167.3999999985}},{"attributes":{"ID":41592,"DIS_CODE":0,"TOWNNAME":"新營區","LI":"新東里","LIN":"7鄰","STREET":"東學路","SECT":" ","MAREA":" ","LANE":"１７６巷","ALLEY":"４弄","HOUSE_NO":"１９號","E_COORD97":181149.72,"N_COORD97":2579274.9900000002,"ADDRESS":"東學路１７６巷４弄１９號","OBJECTID":41592},"geometry":{"x":181149.72000000067,"y":2579274.9900000021}},{"attributes":{"ID":41593,"DIS_CODE":0,"TOWNNAME":"新營區","LI":"新東里","LIN":"7鄰","STREET":"東學路","SECT":" ","MAREA":" ","LANE":"１７６巷","ALLEY":"６弄","HOUSE_NO":"１３號","E_COORD97":181164.85000000001,"N_COORD97":2579230.6099999999,"ADDRESS":"東學路１７６巷６弄１３號","OBJECTID":41593},"geometry":{"x":181164.84999999963,"y":2579230.6099999994}},{"attributes":{"ID":41594,"DIS_CODE":0,"TOWNNAME":"新營區","LI":"新東里","LIN":"7鄰","STREET":"東學路","SECT":" ","MAREA":" ","LANE":"１７６巷","ALLEY":"４弄","HOUSE_NO":"２號","E_COORD97":181194.67000000001,"N_COORD97":2579296.9199999999,"ADDRESS":"東學路１７６巷４弄２號","OBJECTID":41594},"geometry":{"x":181194.67000000086,"y":2579296.9199999999}},{"attributes":{"ID":41595,"DIS_CODE":0,"TOWNNAME":"六甲區","LI":"甲東里","LIN":"7鄰","STREET":"中正路","SECT":" ","MAREA":" ","LANE":"８８０巷","ALLEY":"５５弄","HOUSE_NO":"１５號","E_COORD97":184321.45999999999,"N_COORD97":2570579.6099999999,"ADDRESS":"中正路８８０巷５５弄１５號","OBJECTID":41595},"geometry":{"x":184321.46000000089,"y":2570579.6100000031}},{"attributes":{"ID":41596,"DIS_CODE":0,"TOWNNAME":"新營區","LI":"新東里","LIN":"7鄰","STREET":"東學路","SECT":" ","MAREA":" ","LANE":"１７６巷","ALLEY":"４弄","HOUSE_NO":"６號","E_COORD97":181188.48000000001,"N_COORD97":2579296.9500000002,"ADDRESS":"東學路１７６巷４弄６號","OBJECTID":41596},"geometry":{"x":181188.48000000045,"y":2579296.9499999993}},{"attributes":{"ID":41597,"DIS_CODE":0,"TOWNNAME":"新營區","LI":"新東里","LIN":"7鄰","STREET":"東學路","SECT":" ","MAREA":" ","LANE":"１７６巷","ALLEY":"４弄","HOUSE_NO":"７號","E_COORD97":181179.19,"N_COORD97":2579275.9500000002,"ADDRESS":"東學路１７６巷４弄７號","OBJECTID":41597},"geometry":{"x":181179.19000000134,"y":2579275.9499999993}},{"attributes":{"ID":41598,"DIS_CODE":0,"TOWNNAME":"新營區","LI":"新東里","LIN":"7鄰","STREET":"東學路","SECT":" ","MAREA":" ","LANE":"１７６巷","ALLEY":"２弄","HOUSE_NO":"１２號","E_COORD97":181174.56,"N_COORD97":2579339.1000000001,"ADDRESS":"東學路１７６巷２弄１２號","OBJECTID":41598},"geometry":{"x":181174.56000000052,"y":2579339.0999999996}},{"attributes":{"ID":41599,"DIS_CODE":0,"TOWNNAME":"新營區","LI":"新東里","LIN":"7鄰","STREET":"東學路","SECT":" ","MAREA":" ","LANE":"１７６巷","ALLEY":"４弄","HOUSE_NO":"１７號","E_COORD97":181155.85999999999,"N_COORD97":2579274.96,"ADDRESS":"東學路１７６巷４弄１７號","OBJECTID":41599},"geometry":{"x":181155.86000000127,"y":2579274.959999999}},{"attributes":{"ID":41600,"DIS_CODE":0,"TOWNNAME":"山上區","LI":"玉\u25A0里","LIN":"7鄰","STREET":" ","SECT":" ","MAREA":"牛稠埔","LANE":" ","ALLEY":" ","HOUSE_NO":"１１之２號","E_COORD97":185934.83415899999,"N_COORD97":2554764.3274900001,"ADDRESS":"牛稠埔１１之２號","OBJECTID":41600},"geometry":{"x":185934.83415900078,"y":2554764.3274880014}}]}