{"displayFieldName":"TOWNNAME","fieldAliases":{"ID":"ID","DIS_CODE":"DIS_CODE","TOWNNAME":"TOWNNAME","LI":"LI","LIN":"LIN","STREET":"STREET","SECT":"SECT","MAREA":"MAREA","LANE":"LANE","ALLEY":"ALLEY","HOUSE_NO":"HOUSE_NO","E_COORD97":"E_COORD97","N_COORD97":"N_COORD97","ADDRESS":"ADDRESS","OBJECTID":"OBJECTID"},"geometryType":"esriGeometryPoint","spatialReference":{"wkid":102443,"latestWkid":3826},"fields":[{"name":"ID","type":"esriFieldTypeDouble","alias":"ID"},{"name":"DIS_CODE","type":"esriFieldTypeInteger","alias":"DIS_CODE"},{"name":"TOWNNAME","type":"esriFieldTypeString","alias":"TOWNNAME","length":8},{"name":"LI","type":"esriFieldTypeString","alias":"LI","length":8},{"name":"LIN","type":"esriFieldTypeString","alias":"LIN","length":12},{"name":"STREET","type":"esriFieldTypeString","alias":"STREET","length":20},{"name":"SECT","type":"esriFieldTypeString","alias":"SECT","length":8},{"name":"MAREA","type":"esriFieldTypeString","alias":"MAREA","length":12},{"name":"LANE","type":"esriFieldTypeString","alias":"LANE","length":10},{"name":"ALLEY","type":"esriFieldTypeString","alias":"ALLEY","length":10},{"name":"HOUSE_NO","type":"esriFieldTypeString","alias":"HOUSE_NO","length":20},{"name":"E_COORD97","type":"esriFieldTypeDouble","alias":"E_COORD97"},{"name":"N_COORD97","type":"esriFieldTypeDouble","alias":"N_COORD97"},{"name":"ADDRESS","type":"esriFieldTypeString","alias":"ADDRESS","length":50},{"name":"OBJECTID","type":"esriFieldTypeOID","alias":"OBJECTID"}],"features":[{"attributes":{"ID":258605,"DIS_CODE":0,"TOWNNAME":"歸仁區","LI":"崙頂里","LIN":"16鄰","STREET":"崙頂一街","SECT":" ","MAREA":" ","LANE":"２３巷","ALLEY":" ","HOUSE_NO":"３７號","E_COORD97":177923.936747,"N_COORD97":2540040.3658599998,"ADDRESS":"崙頂一街２３巷３７號","OBJECTID":258601},"geometry":{"x":177923.93674699962,"y":2540040.3658570033}},{"attributes":{"ID":258606,"DIS_CODE":0,"TOWNNAME":"安南區","LI":"大安里","LIN":"16鄰","STREET":"義安街","SECT":" ","MAREA":" ","LANE":"１２８巷","ALLEY":" ","HOUSE_NO":"２之１號","E_COORD97":167523.524469,"N_COORD97":2548127.6919399998,"ADDRESS":"義安街１２８巷２之１號","OBJECTID":258602},"geometry":{"x":167523.52446900122,"y":2548127.6919400021}},{"attributes":{"ID":258607,"DIS_CODE":0,"TOWNNAME":"南區","LI":"郡南里","LIN":"10鄰","STREET":"永成路","SECT":"三段","MAREA":" ","LANE":"１２１巷","ALLEY":" ","HOUSE_NO":"４８號","E_COORD97":167393.188253,"N_COORD97":2540707.9938699999,"ADDRESS":"永成路三段１２１巷４８號","OBJECTID":258603},"geometry":{"x":167393.18825300131,"y":2540707.9938730001}},{"attributes":{"ID":258608,"DIS_CODE":0,"TOWNNAME":"南區","LI":"郡南里","LIN":"10鄰","STREET":"永成路","SECT":"三段","MAREA":" ","LANE":"１２１巷","ALLEY":" ","HOUSE_NO":"５０號","E_COORD97":167389.16454600001,"N_COORD97":2540707.8351199999,"ADDRESS":"永成路三段１２１巷５０號","OBJECTID":258604},"geometry":{"x":167389.16454600077,"y":2540707.8351230007}},{"attributes":{"ID":258609,"DIS_CODE":0,"TOWNNAME":"永康區","LI":"東橋里","LIN":"22鄰","STREET":"中山南路","SECT":" ","MAREA":" ","LANE":"３６５巷","ALLEY":" ","HOUSE_NO":"８號","E_COORD97":172647.42496500001,"N_COORD97":2547197.34552,"ADDRESS":"中山南路３６５巷８號","OBJECTID":258605},"geometry":{"x":172647.42496499978,"y":2547197.3455210011}},{"attributes":{"ID":258610,"DIS_CODE":0,"TOWNNAME":"安南區","LI":"淵中里","LIN":"16鄰","STREET":"本田路","SECT":"三段","MAREA":" ","LANE":"６６８巷","ALLEY":" ","HOUSE_NO":"９號","E_COORD97":164947.53751299999,"N_COORD97":2549808.0622399999,"ADDRESS":"本田路三段６６８巷９號","OBJECTID":258606},"geometry":{"x":164947.53751299996,"y":2549808.0622429997}},{"attributes":{"ID":258611,"DIS_CODE":0,"TOWNNAME":"安南區","LI":"淵中里","LIN":"16鄰","STREET":"本田路","SECT":"三段","MAREA":" ","LANE":"６６８巷","ALLEY":" ","HOUSE_NO":"７號","E_COORD97":164941.60453099999,"N_COORD97":2549813.3539100001,"ADDRESS":"本田路三段６６８巷７號","OBJECTID":258607},"geometry":{"x":164941.60453100037,"y":2549813.3539070003}},{"attributes":{"ID":258612,"DIS_CODE":0,"TOWNNAME":"安南區","LI":"淵中里","LIN":"16鄰","STREET":"本田路","SECT":"三段","MAREA":" ","LANE":"６６８巷","ALLEY":" ","HOUSE_NO":"５號","E_COORD97":164938.63803999999,"N_COORD97":2549817.5872399998,"ADDRESS":"本田路三段６６８巷５號","OBJECTID":258608},"geometry":{"x":164938.63803999964,"y":2549817.5872380026}},{"attributes":{"ID":258613,"DIS_CODE":0,"TOWNNAME":"安南區","LI":"淵中里","LIN":"16鄰","STREET":"本田路","SECT":"三段","MAREA":" ","LANE":"６６８巷","ALLEY":" ","HOUSE_NO":"３號","E_COORD97":164935.247764,"N_COORD97":2549819.4922400001,"ADDRESS":"本田路三段６６８巷３號","OBJECTID":258609},"geometry":{"x":164935.2477640016,"y":2549819.4922370017}},{"attributes":{"ID":258614,"DIS_CODE":0,"TOWNNAME":"安南區","LI":"淵中里","LIN":"16鄰","STREET":"本田路","SECT":"三段","MAREA":" ","LANE":"６６８巷","ALLEY":" ","HOUSE_NO":"１號","E_COORD97":164930.58613499999,"N_COORD97":2549821.1855700002,"ADDRESS":"本田路三段６６８巷１號","OBJECTID":258610},"geometry":{"x":164930.58613500092,"y":2549821.1855689995}},{"attributes":{"ID":258615,"DIS_CODE":0,"TOWNNAME":"安南區","LI":"淵中里","LIN":"16鄰","STREET":"本田路","SECT":"三段","MAREA":" ","LANE":"４２０巷","ALLEY":" ","HOUSE_NO":"８９號","E_COORD97":164848.530871,"N_COORD97":2549702.2652799999,"ADDRESS":"本田路三段４２０巷８９號","OBJECTID":258611},"geometry":{"x":164848.53087100107,"y":2549702.265284}},{"attributes":{"ID":258616,"DIS_CODE":0,"TOWNNAME":"安南區","LI":"淵中里","LIN":"16鄰","STREET":"本田路","SECT":"三段","MAREA":" ","LANE":"６６８巷","ALLEY":" ","HOUSE_NO":"１６號","E_COORD97":164924.229368,"N_COORD97":2549785.6255899998,"ADDRESS":"本田路三段６６８巷１６號","OBJECTID":258612},"geometry":{"x":164924.22936800122,"y":2549785.6255890001}},{"attributes":{"ID":258617,"DIS_CODE":0,"TOWNNAME":"安南區","LI":"頂安里","LIN":"16鄰","STREET":"長溪路","SECT":"一段","MAREA":" ","LANE":"４０７巷","ALLEY":" ","HOUSE_NO":"２８之２０號","E_COORD97":168517.21659200001,"N_COORD97":2548758.5442300001,"ADDRESS":"長溪路一段４０７巷２８之２０號","OBJECTID":258613},"geometry":{"x":168517.2165920008,"y":2548758.544230001}},{"attributes":{"ID":258618,"DIS_CODE":0,"TOWNNAME":"安南區","LI":"淵中里","LIN":"16鄰","STREET":"本田路","SECT":"三段","MAREA":" ","LANE":"６６８巷","ALLEY":" ","HOUSE_NO":"１３號","E_COORD97":164951.56346599999,"N_COORD97":2549800.2305800002,"ADDRESS":"本田路三段６６８巷１３號","OBJECTID":258614},"geometry":{"x":164951.56346600037,"y":2549800.2305810023}},{"attributes":{"ID":258619,"DIS_CODE":0,"TOWNNAME":"安南區","LI":"理想里","LIN":"16鄰","STREET":"大安街","SECT":" ","MAREA":" ","LANE":"１７３巷","ALLEY":" ","HOUSE_NO":"１１號","E_COORD97":167294.89000000001,"N_COORD97":2548274.6899999999,"ADDRESS":"大安街１７３巷１１號","OBJECTID":258615},"geometry":{"x":167294.89000000153,"y":2548274.6900000013}},{"attributes":{"ID":258620,"DIS_CODE":0,"TOWNNAME":"關廟區","LI":"香洋里","LIN":"13鄰","STREET":"中山路","SECT":"一段","MAREA":" ","LANE":"６２０巷","ALLEY":" ","HOUSE_NO":"３號","E_COORD97":181137.92040500001,"N_COORD97":2540027.9106200002,"ADDRESS":"中山路一段６２０巷３號","OBJECTID":258616},"geometry":{"x":181137.92040500231,"y":2540027.9106160011}},{"attributes":{"ID":258621,"DIS_CODE":0,"TOWNNAME":"永康區","LI":"崑山里","LIN":"22鄰","STREET":"永大路","SECT":"二段","MAREA":" ","LANE":" ","ALLEY":" ","HOUSE_NO":"９號","E_COORD97":174085.16,"N_COORD97":2544615.54,"ADDRESS":"永大路二段９號","OBJECTID":258617},"geometry":{"x":174085.16000000108,"y":2544615.5399999991}},{"attributes":{"ID":258622,"DIS_CODE":0,"TOWNNAME":"關廟區","LI":"香洋里","LIN":"26鄰","STREET":"民權路","SECT":" ","MAREA":" ","LANE":"２２８巷","ALLEY":" ","HOUSE_NO":"４８號","E_COORD97":181130.29957100001,"N_COORD97":2539866.4087499999,"ADDRESS":"民權路２２８巷４８號","OBJECTID":258618},"geometry":{"x":181130.2995710019,"y":2539866.408752}},{"attributes":{"ID":258623,"DIS_CODE":0,"TOWNNAME":"仁德區","LI":"上崙里","LIN":"20鄰","STREET":"上崙一街","SECT":" ","MAREA":" ","LANE":"５６巷","ALLEY":" ","HOUSE_NO":"１５號","E_COORD97":173779.34806799999,"N_COORD97":2537997.33819,"ADDRESS":"上崙一街５６巷１５號","OBJECTID":258619},"geometry":{"x":173779.34806800075,"y":2537997.3381949998}},{"attributes":{"ID":258624,"DIS_CODE":0,"TOWNNAME":"仁德區","LI":"上崙里","LIN":"20鄰","STREET":"上崙一街","SECT":" ","MAREA":" ","LANE":"５６巷","ALLEY":" ","HOUSE_NO":"１７號","E_COORD97":173775.11062299999,"N_COORD97":2537996.06819,"ADDRESS":"上崙一街５６巷１７號","OBJECTID":258620},"geometry":{"x":173775.11062300112,"y":2537996.0681950003}},{"attributes":{"ID":258625,"DIS_CODE":0,"TOWNNAME":"仁德區","LI":"上崙里","LIN":"20鄰","STREET":"上崙一街","SECT":" ","MAREA":" ","LANE":"５６巷","ALLEY":" ","HOUSE_NO":"１９號","E_COORD97":173771.50879399999,"N_COORD97":2537995.2215300002,"ADDRESS":"上崙一街５６巷１９號","OBJECTID":258621},"geometry":{"x":173771.50879400037,"y":2537995.2215290032}},{"attributes":{"ID":258626,"DIS_CODE":0,"TOWNNAME":"中西區","LI":"建國里","LIN":"9鄰","STREET":"民生路","SECT":"一段","MAREA":" ","LANE":"２０５巷","ALLEY":" ","HOUSE_NO":"１６號","E_COORD97":167925.558372,"N_COORD97":2543843.2752200002,"ADDRESS":"民生路一段２０５巷１６號","OBJECTID":258622},"geometry":{"x":167925.55837200023,"y":2543843.2752230037}},{"attributes":{"ID":258627,"DIS_CODE":0,"TOWNNAME":"南區","LI":"郡南里","LIN":"8鄰","STREET":"永成路","SECT":"三段","MAREA":" ","LANE":"１５７巷","ALLEY":" ","HOUSE_NO":"１２號","E_COORD97":167449.37358799999,"N_COORD97":2540798.23471,"ADDRESS":"永成路三段１５７巷１２號","OBJECTID":258623},"geometry":{"x":167449.37358800042,"y":2540798.2347140014}},{"attributes":{"ID":258628,"DIS_CODE":0,"TOWNNAME":"南區","LI":"郡南里","LIN":"8鄰","STREET":"永成路","SECT":"三段","MAREA":" ","LANE":"１５７巷","ALLEY":" ","HOUSE_NO":"１８號","E_COORD97":167433.59641999999,"N_COORD97":2540800.2455500001,"ADDRESS":"永成路三段１５７巷１８號","OBJECTID":258624},"geometry":{"x":167433.59642000031,"y":2540800.2455470022}},{"attributes":{"ID":258629,"DIS_CODE":0,"TOWNNAME":"南區","LI":"郡南里","LIN":"8鄰","STREET":"永成路","SECT":"三段","MAREA":" ","LANE":"１５７巷","ALLEY":" ","HOUSE_NO":"１６號","E_COORD97":167439.31432,"N_COORD97":2540800.2984600002,"ADDRESS":"永成路三段１５７巷１６號","OBJECTID":258625},"geometry":{"x":167439.31432000082,"y":2540800.298463}},{"attributes":{"ID":258630,"DIS_CODE":0,"TOWNNAME":"南區","LI":"郡南里","LIN":"8鄰","STREET":"永成路","SECT":"三段","MAREA":" ","LANE":"１５７巷","ALLEY":" ","HOUSE_NO":"２０號","E_COORD97":167428.61973000001,"N_COORD97":2540801.8859600001,"ADDRESS":"永成路三段１５７巷２０號","OBJECTID":258626},"geometry":{"x":167428.61973000038,"y":2540801.885962002}},{"attributes":{"ID":258631,"DIS_CODE":0,"TOWNNAME":"南區","LI":"郡南里","LIN":"8鄰","STREET":"永成路","SECT":"三段","MAREA":" ","LANE":"１５７巷","ALLEY":" ","HOUSE_NO":"２６號","E_COORD97":167420.995864,"N_COORD97":2540803.8438800001,"ADDRESS":"永成路三段１５７巷２６號","OBJECTID":258627},"geometry":{"x":167420.99586400017,"y":2540803.8438780047}},{"attributes":{"ID":258632,"DIS_CODE":0,"TOWNNAME":"安南區","LI":"東和里","LIN":"5鄰","STREET":"長和路","SECT":"一段","MAREA":" ","LANE":"８２３巷","ALLEY":" ","HOUSE_NO":"１８號","E_COORD97":170893.982965,"N_COORD97":2551368.4230300002,"ADDRESS":"長和路一段８２３巷１８號","OBJECTID":258628},"geometry":{"x":170893.98296500091,"y":2551368.4230269995}},{"attributes":{"ID":258633,"DIS_CODE":0,"TOWNNAME":"關廟區","LI":"布袋里","LIN":"11鄰","STREET":"南雄南路","SECT":" ","MAREA":" ","LANE":"８５２巷","ALLEY":" ","HOUSE_NO":"２６５號","E_COORD97":182011.69,"N_COORD97":2533723.25,"ADDRESS":"南雄南路８５２巷２６５號","OBJECTID":258629},"geometry":{"x":182011.69000000134,"y":2533723.2500000019}},{"attributes":{"ID":258634,"DIS_CODE":0,"TOWNNAME":"新營區","LI":"王公里","LIN":"27鄰","STREET":"民族路","SECT":" ","MAREA":" ","LANE":"３０８巷","ALLEY":" ","HOUSE_NO":"７２號","E_COORD97":180538.05254999999,"N_COORD97":2579735.71649,"ADDRESS":"民族路３０８巷７２號","OBJECTID":258630},"geometry":{"x":180538.05255000107,"y":2579735.7164940033}},{"attributes":{"ID":258635,"DIS_CODE":0,"TOWNNAME":"新營區","LI":"王公里","LIN":"27鄰","STREET":"民族路","SECT":" ","MAREA":" ","LANE":"３０８巷","ALLEY":" ","HOUSE_NO":"７６號","E_COORD97":180537.84066700001,"N_COORD97":2579731.9065,"ADDRESS":"民族路３０８巷７６號","OBJECTID":258631},"geometry":{"x":180537.84066700004,"y":2579731.9064970035}},{"attributes":{"ID":258636,"DIS_CODE":0,"TOWNNAME":"關廟區","LI":"龜洞里","LIN":"3鄰","STREET":"中崙街","SECT":" ","MAREA":" ","LANE":"１１巷","ALLEY":" ","HOUSE_NO":"４６號","E_COORD97":183242.667862,"N_COORD97":2533539.4404600002,"ADDRESS":"中崙街１１巷４６號","OBJECTID":258632},"geometry":{"x":183242.66786199901,"y":2533539.440460002}},{"attributes":{"ID":258637,"DIS_CODE":0,"TOWNNAME":"歸仁區","LI":"看東里","LIN":"11鄰","STREET":"中山一街","SECT":" ","MAREA":" ","LANE":"９６巷","ALLEY":" ","HOUSE_NO":"５號","E_COORD97":178578.42000000001,"N_COORD97":2540426.29,"ADDRESS":"中山一街９６巷５號","OBJECTID":258633},"geometry":{"x":178578.42000000086,"y":2540426.2899999991}},{"attributes":{"ID":258638,"DIS_CODE":0,"TOWNNAME":"歸仁區","LI":"看東里","LIN":"11鄰","STREET":"中山一街","SECT":" ","MAREA":" ","LANE":"９６巷","ALLEY":" ","HOUSE_NO":"１號","E_COORD97":178599.10999999999,"N_COORD97":2540427.2200000002,"ADDRESS":"中山一街９６巷１號","OBJECTID":258634},"geometry":{"x":178599.11000000034,"y":2540427.2200000025}},{"attributes":{"ID":258639,"DIS_CODE":0,"TOWNNAME":"關廟區","LI":"布袋里","LIN":"11鄰","STREET":"南雄南路","SECT":" ","MAREA":" ","LANE":"８５２巷","ALLEY":" ","HOUSE_NO":"２２６號","E_COORD97":182058.34534299999,"N_COORD97":2533803.2321199998,"ADDRESS":"南雄南路８５２巷２２６號","OBJECTID":258635},"geometry":{"x":182058.34534300026,"y":2533803.2321219984}},{"attributes":{"ID":258640,"DIS_CODE":0,"TOWNNAME":"關廟區","LI":"布袋里","LIN":"11鄰","STREET":"南雄南路","SECT":" ","MAREA":" ","LANE":"８５２巷","ALLEY":" ","HOUSE_NO":"２５９號","E_COORD97":182013.79000000001,"N_COORD97":2533752.2999999998,"ADDRESS":"南雄南路８５２巷２５９號","OBJECTID":258636},"geometry":{"x":182013.79000000097,"y":2533752.3000000007}},{"attributes":{"ID":258641,"DIS_CODE":0,"TOWNNAME":"中西區","LI":"藥王里","LIN":"19鄰","STREET":"和真街","SECT":" ","MAREA":" ","LANE":" ","ALLEY":" ","HOUSE_NO":"２６號","E_COORD97":166975.19,"N_COORD97":2544520,"ADDRESS":"和真街２６號","OBJECTID":258637},"geometry":{"x":166975.19000000134,"y":2544520.0000000019}},{"attributes":{"ID":258642,"DIS_CODE":0,"TOWNNAME":"永康區","LI":"中興里","LIN":"22鄰","STREET":"中華路","SECT":" ","MAREA":" ","LANE":" ","ALLEY":" ","HOUSE_NO":"１９６號之１９","E_COORD97":171634.59,"N_COORD97":2544991.2999999998,"ADDRESS":"中華路１９６號之１９","OBJECTID":258638},"geometry":{"x":171634.58999999985,"y":2544991.3000000007}},{"attributes":{"ID":258643,"DIS_CODE":0,"TOWNNAME":"安南區","LI":"溪墘里","LIN":"22鄰","STREET":"海佃路","SECT":"一段","MAREA":" ","LANE":" ","ALLEY":" ","HOUSE_NO":"１２６之１號","E_COORD97":167181.48000000001,"N_COORD97":2547098.9900000002,"ADDRESS":"海佃路一段１２６之１號","OBJECTID":258639},"geometry":{"x":167181.48000000231,"y":2547098.9900000002}},{"attributes":{"ID":258644,"DIS_CODE":0,"TOWNNAME":"安南區","LI":"新順里","LIN":"22鄰","STREET":"育安一街","SECT":" ","MAREA":" ","LANE":" ","ALLEY":" ","HOUSE_NO":"４８號","E_COORD97":169293.67999999999,"N_COORD97":2549801.4100000001,"ADDRESS":"育安一街４８號","OBJECTID":258640},"geometry":{"x":169293.68000000063,"y":2549801.4100000001}},{"attributes":{"ID":258645,"DIS_CODE":0,"TOWNNAME":"關廟區","LI":"龜洞里","LIN":"3鄰","STREET":"中崙街","SECT":" ","MAREA":" ","LANE":"１１巷","ALLEY":" ","HOUSE_NO":"２２號","E_COORD97":183298.81401,"N_COORD97":2533535.0483800001,"ADDRESS":"中崙街１１巷２２號","OBJECTID":258641},"geometry":{"x":183298.81401000079,"y":2533535.0483790021}},{"attributes":{"ID":258646,"DIS_CODE":0,"TOWNNAME":"關廟區","LI":"下湖里","LIN":"6鄰","STREET":"下湖二街","SECT":" ","MAREA":" ","LANE":"９６巷","ALLEY":" ","HOUSE_NO":"６號","E_COORD97":179370.18797200001,"N_COORD97":2543140.6989899999,"ADDRESS":"下湖二街９６巷６號","OBJECTID":258642},"geometry":{"x":179370.1879720008,"y":2543140.6989910007}},{"attributes":{"ID":258647,"DIS_CODE":0,"TOWNNAME":"關廟區","LI":"龜洞里","LIN":"3鄰","STREET":"中崙街","SECT":" ","MAREA":" ","LANE":"１１巷","ALLEY":" ","HOUSE_NO":"２３號","E_COORD97":183295.00031,"N_COORD97":2533494.4084000001,"ADDRESS":"中崙街１１巷２３號","OBJECTID":258643},"geometry":{"x":183295.00031000189,"y":2533494.4084009994}},{"attributes":{"ID":258648,"DIS_CODE":0,"TOWNNAME":"關廟區","LI":"龜洞里","LIN":"4鄰鄰","STREET":"中崙街","SECT":" ","MAREA":" ","LANE":"１１巷","ALLEY":" ","HOUSE_NO":"２９號","E_COORD97":183288.644142,"N_COORD97":2533469.0084199999,"ADDRESS":"中崙街１１巷２９號","OBJECTID":258644},"geometry":{"x":183288.644142,"y":2533469.0084149987}},{"attributes":{"ID":258649,"DIS_CODE":0,"TOWNNAME":"仁德區","LI":"一甲里","LIN":"11鄰","STREET":"忠義一街","SECT":" ","MAREA":" ","LANE":"３８巷","ALLEY":" ","HOUSE_NO":"１之２號","E_COORD97":174044.611745,"N_COORD97":2542114.5374199999,"ADDRESS":"忠義一街３８巷１之２號","OBJECTID":258645},"geometry":{"x":174044.61174499989,"y":2542114.5374150034}},{"attributes":{"ID":258650,"DIS_CODE":0,"TOWNNAME":"安南區","LI":"淵中里","LIN":"11鄰","STREET":"本原街","SECT":"三段","MAREA":" ","LANE":"２５８巷","ALLEY":" ","HOUSE_NO":"６號","E_COORD97":165309.459305,"N_COORD97":2550250.1426200001,"ADDRESS":"本原街三段２５８巷６號","OBJECTID":258646},"geometry":{"x":165309.45930499863,"y":2550250.1426250003}},{"attributes":{"ID":258651,"DIS_CODE":0,"TOWNNAME":"南區","LI":"郡南里","LIN":"11鄰","STREET":"永成路","SECT":"三段","MAREA":" ","LANE":"１０３巷","ALLEY":" ","HOUSE_NO":"３０號","E_COORD97":167415.172077,"N_COORD97":2540665.04354,"ADDRESS":"永成路三段１０３巷３０號","OBJECTID":258647},"geometry":{"x":167415.17207700014,"y":2540665.043536}},{"attributes":{"ID":258652,"DIS_CODE":0,"TOWNNAME":"仁德區","LI":"保安里","LIN":"11鄰","STREET":"文賢路","SECT":"一段","MAREA":" ","LANE":"８５３巷","ALLEY":" ","HOUSE_NO":"１０號","E_COORD97":171703.368559,"N_COORD97":2535942.9013299998,"ADDRESS":"文賢路一段８５３巷１０號","OBJECTID":258648},"geometry":{"x":171703.36855900008,"y":2535942.9013269991}},{"attributes":{"ID":258653,"DIS_CODE":0,"TOWNNAME":"仁德區","LI":"保安里","LIN":"11鄰","STREET":"文賢路","SECT":"一段","MAREA":" ","LANE":"８５３巷","ALLEY":" ","HOUSE_NO":"１號","E_COORD97":171657.40229999999,"N_COORD97":2535956.4479899998,"ADDRESS":"文賢路一段８５３巷１號","OBJECTID":258649},"geometry":{"x":171657.40230000205,"y":2535956.4479859974}},{"attributes":{"ID":258654,"DIS_CODE":0,"TOWNNAME":"安定區","LI":"港口里","LIN":"22鄰","STREET":" ","SECT":" ","MAREA":"港口","LANE":" ","ALLEY":" ","HOUSE_NO":"４１１號","E_COORD97":171659.89000000001,"N_COORD97":2555078.25,"ADDRESS":"港口４１１號","OBJECTID":258650},"geometry":{"x":171659.88999999873,"y":2555078.25}},{"attributes":{"ID":258655,"DIS_CODE":0,"TOWNNAME":"學甲區","LI":"中洲里","LIN":"22鄰","STREET":" ","SECT":" ","MAREA":"中洲","LANE":" ","ALLEY":" ","HOUSE_NO":"２７７號","E_COORD97":163581.91,"N_COORD97":2571689.3399999999,"ADDRESS":"中洲２７７號","OBJECTID":258651},"geometry":{"x":163581.91000000108,"y":2571689.3399999999}},{"attributes":{"ID":258656,"DIS_CODE":0,"TOWNNAME":"仁德區","LI":"保安里","LIN":"11鄰","STREET":"文賢路","SECT":"一段","MAREA":" ","LANE":"８５３巷","ALLEY":" ","HOUSE_NO":"８號","E_COORD97":171686.42247300001,"N_COORD97":2535942.9013299998,"ADDRESS":"文賢路一段８５３巷８號","OBJECTID":258652},"geometry":{"x":171686.42247300129,"y":2535942.9013269991}},{"attributes":{"ID":258657,"DIS_CODE":0,"TOWNNAME":"仁德區","LI":"太子里","LIN":"4鄰","STREET":"太子路","SECT":" ","MAREA":" ","LANE":"１９０巷","ALLEY":" ","HOUSE_NO":"１６號五樓","E_COORD97":174327.287446,"N_COORD97":2543643.2661799998,"ADDRESS":"太子路１９０巷１６號五樓","OBJECTID":258653},"geometry":{"x":174327.28744599968,"y":2543643.2661780026}},{"attributes":{"ID":258658,"DIS_CODE":0,"TOWNNAME":"歸仁區","LI":"南興里","LIN":"19鄰","STREET":"南興一街","SECT":" ","MAREA":" ","LANE":"２４巷","ALLEY":" ","HOUSE_NO":"９號","E_COORD97":175700.47490999999,"N_COORD97":2541300.2531599998,"ADDRESS":"南興一街２４巷９號","OBJECTID":258654},"geometry":{"x":175700.47491000127,"y":2541300.2531600017}},{"attributes":{"ID":258659,"DIS_CODE":0,"TOWNNAME":"永康區","LI":"二王里","LIN":"43鄰","STREET":"中山南路","SECT":" ","MAREA":" ","LANE":"３１６巷","ALLEY":" ","HOUSE_NO":"５０之３號","E_COORD97":172114.63,"N_COORD97":2546127.3700000001,"ADDRESS":"中山南路３１６巷５０之３號","OBJECTID":258655},"geometry":{"x":172114.63000000175,"y":2546127.370000001}},{"attributes":{"ID":258660,"DIS_CODE":0,"TOWNNAME":"中西區","LI":"萬昌里","LIN":"23鄰","STREET":"青年路","SECT":" ","MAREA":" ","LANE":"２２６巷","ALLEY":" ","HOUSE_NO":"６１號之１","E_COORD97":169138.14795000001,"N_COORD97":2543454.2957899999,"ADDRESS":"青年路２２６巷６１號之１","OBJECTID":258656},"geometry":{"x":169138.14795000106,"y":2543454.2957899999}},{"attributes":{"ID":258661,"DIS_CODE":0,"TOWNNAME":"新營區","LI":"王公里","LIN":"21鄰","STREET":"民族路","SECT":" ","MAREA":" ","LANE":"１５０巷","ALLEY":" ","HOUSE_NO":"３９號","E_COORD97":180546.104074,"N_COORD97":2579361.0137800002,"ADDRESS":"民族路１５０巷３９號","OBJECTID":258657},"geometry":{"x":180546.10407400038,"y":2579361.0137800016}},{"attributes":{"ID":258662,"DIS_CODE":0,"TOWNNAME":"中西區","LI":"萬昌里","LIN":"23鄰","STREET":"青年路","SECT":" ","MAREA":" ","LANE":"２２６巷","ALLEY":" ","HOUSE_NO":"６１號之２","E_COORD97":169140.26676999999,"N_COORD97":2543454.0841199998,"ADDRESS":"青年路２２６巷６１號之２","OBJECTID":258658},"geometry":{"x":169140.26676999964,"y":2543454.0841200016}},{"attributes":{"ID":258663,"DIS_CODE":0,"TOWNNAME":"仁德區","LI":"太子里","LIN":"4鄰","STREET":"太子路","SECT":" ","MAREA":" ","LANE":"１９０巷","ALLEY":" ","HOUSE_NO":"２４號三樓","E_COORD97":174325.59327000001,"N_COORD97":2543668.2428299999,"ADDRESS":"太子路１９０巷２４號三樓","OBJECTID":258659},"geometry":{"x":174325.593270001,"y":2543668.2428309992}},{"attributes":{"ID":258664,"DIS_CODE":0,"TOWNNAME":"仁德區","LI":"太子里","LIN":"4鄰","STREET":"太子路","SECT":" ","MAREA":" ","LANE":"１９０巷","ALLEY":" ","HOUSE_NO":"２４號四樓","E_COORD97":174325.59327000001,"N_COORD97":2543668.2428299999,"ADDRESS":"太子路１９０巷２４號四樓","OBJECTID":258660},"geometry":{"x":174325.593270001,"y":2543668.2428309992}},{"attributes":{"ID":258665,"DIS_CODE":0,"TOWNNAME":"仁德區","LI":"仁義里","LIN":"12鄰","STREET":"義林路","SECT":" ","MAREA":" ","LANE":"２５６巷","ALLEY":" ","HOUSE_NO":"１６８之１號","E_COORD97":175093.841656,"N_COORD97":2541481.36136,"ADDRESS":"義林路２５６巷１６８之１號","OBJECTID":258661},"geometry":{"x":175093.84165600035,"y":2541481.361358}},{"attributes":{"ID":258666,"DIS_CODE":0,"TOWNNAME":"仁德區","LI":"太子里","LIN":"4鄰","STREET":"太子路","SECT":" ","MAREA":" ","LANE":"１９０巷","ALLEY":" ","HOUSE_NO":"２４號五樓","E_COORD97":174325.59327000001,"N_COORD97":2543668.2428299999,"ADDRESS":"太子路１９０巷２４號五樓","OBJECTID":258662},"geometry":{"x":174325.593270001,"y":2543668.2428309992}},{"attributes":{"ID":258667,"DIS_CODE":0,"TOWNNAME":"關廟區","LI":"下湖里","LIN":"6鄰","STREET":"下湖二街","SECT":" ","MAREA":" ","LANE":"８２巷","ALLEY":" ","HOUSE_NO":"７號","E_COORD97":179503.69273400001,"N_COORD97":2543079.5621199999,"ADDRESS":"下湖二街８２巷７號","OBJECTID":258663},"geometry":{"x":179503.6927340012,"y":2543079.5621200018}},{"attributes":{"ID":258668,"DIS_CODE":0,"TOWNNAME":"仁德區","LI":"後壁里","LIN":"12鄰","STREET":"德南路","SECT":" ","MAREA":" ","LANE":"２５１巷","ALLEY":" ","HOUSE_NO":"１６號","E_COORD97":173842.95975000001,"N_COORD97":2538442.28608,"ADDRESS":"德南路２５１巷１６號","OBJECTID":258664},"geometry":{"x":173842.95975000132,"y":2538442.2860790025}},{"attributes":{"ID":258669,"DIS_CODE":0,"TOWNNAME":"仁德區","LI":"太子里","LIN":"4鄰","STREET":"太子路","SECT":" ","MAREA":" ","LANE":"１９０巷","ALLEY":" ","HOUSE_NO":"１６號二樓","E_COORD97":174327.287446,"N_COORD97":2543643.2661799998,"ADDRESS":"太子路１９０巷１６號二樓","OBJECTID":258665},"geometry":{"x":174327.28744599968,"y":2543643.2661780026}},{"attributes":{"ID":258670,"DIS_CODE":0,"TOWNNAME":"仁德區","LI":"太子里","LIN":"4鄰","STREET":"太子路","SECT":" ","MAREA":" ","LANE":"１９０巷","ALLEY":" ","HOUSE_NO":"２４號二樓","E_COORD97":174325.59327000001,"N_COORD97":2543668.2428299999,"ADDRESS":"太子路１９０巷２４號二樓","OBJECTID":258666},"geometry":{"x":174325.593270001,"y":2543668.2428309992}},{"attributes":{"ID":258671,"DIS_CODE":0,"TOWNNAME":"南區","LI":"郡南里","LIN":"13鄰","STREET":"永成路","SECT":"三段","MAREA":" ","LANE":"７１巷","ALLEY":" ","HOUSE_NO":"２２號","E_COORD97":167449.30837899999,"N_COORD97":2540575.3755199998,"ADDRESS":"永成路三段７１巷２２號","OBJECTID":258667},"geometry":{"x":167449.30837900005,"y":2540575.375514999}},{"attributes":{"ID":258672,"DIS_CODE":0,"TOWNNAME":"仁德區","LI":"後壁里","LIN":"12鄰","STREET":"德南路","SECT":" ","MAREA":" ","LANE":"２５１巷","ALLEY":" ","HOUSE_NO":"２１號","E_COORD97":173832.369791,"N_COORD97":2538456.4677400002,"ADDRESS":"德南路２５１巷２１號","OBJECTID":258668},"geometry":{"x":173832.36979100108,"y":2538456.4677380025}},{"attributes":{"ID":258673,"DIS_CODE":0,"TOWNNAME":"仁德區","LI":"後壁里","LIN":"12鄰","STREET":"德南路","SECT":" ","MAREA":" ","LANE":"２５１巷","ALLEY":" ","HOUSE_NO":"２３號","E_COORD97":173835.75857800001,"N_COORD97":2538460.2777399998,"ADDRESS":"德南路２５１巷２３號","OBJECTID":258669},"geometry":{"x":173835.75857800059,"y":2538460.2777360007}},{"attributes":{"ID":258674,"DIS_CODE":0,"TOWNNAME":"仁德區","LI":"後壁里","LIN":"12鄰","STREET":"德南路","SECT":" ","MAREA":" ","LANE":"２５１巷","ALLEY":" ","HOUSE_NO":"２５號","E_COORD97":173838.72376600001,"N_COORD97":2538462.8177399999,"ADDRESS":"德南路２５１巷２５號","OBJECTID":258670},"geometry":{"x":173838.72376600001,"y":2538462.8177350014}},{"attributes":{"ID":258675,"DIS_CODE":0,"TOWNNAME":"仁德區","LI":"一甲里","LIN":"11鄰","STREET":"忠義二街","SECT":" ","MAREA":" ","LANE":"３６巷","ALLEY":" ","HOUSE_NO":"９號","E_COORD97":173807.37,"N_COORD97":2542035.2599999998,"ADDRESS":"忠義二街３６巷９號","OBJECTID":258671},"geometry":{"x":173807.37000000104,"y":2542035.2599999979}},{"attributes":{"ID":258676,"DIS_CODE":0,"TOWNNAME":"仁德區","LI":"保安里","LIN":"19鄰","STREET":"文賢路","SECT":"二段","MAREA":" ","LANE":"１５巷","ALLEY":" ","HOUSE_NO":"２５號","E_COORD97":171829.55909600001,"N_COORD97":2535915.07687,"ADDRESS":"文賢路二段１５巷２５號","OBJECTID":258672},"geometry":{"x":171829.55909600109,"y":2535915.0768680032}},{"attributes":{"ID":258677,"DIS_CODE":0,"TOWNNAME":"龍崎區","LI":"崎頂里","LIN":"22鄰","STREET":" ","SECT":" ","MAREA":"嶺頂","LANE":" ","ALLEY":" ","HOUSE_NO":"２５號","E_COORD97":186247.97,"N_COORD97":2542371.25,"ADDRESS":"嶺頂２５號","OBJECTID":258673},"geometry":{"x":186247.96999999974,"y":2542371.2499999981}},{"attributes":{"ID":258678,"DIS_CODE":0,"TOWNNAME":"龍崎區","LI":"崎頂里","LIN":"22鄰","STREET":" ","SECT":" ","MAREA":"嶺頂","LANE":" ","ALLEY":" ","HOUSE_NO":"２０號","E_COORD97":186170.26999999999,"N_COORD97":2542112.25,"ADDRESS":"嶺頂２０號","OBJECTID":258674},"geometry":{"x":186170.27000000048,"y":2542112.25}},{"attributes":{"ID":258679,"DIS_CODE":0,"TOWNNAME":"南區","LI":"郡南里","LIN":"13鄰","STREET":"永成路","SECT":"三段","MAREA":" ","LANE":"７１巷","ALLEY":" ","HOUSE_NO":"２６號","E_COORD97":167442.531609,"N_COORD97":2540575.5871799998,"ADDRESS":"永成路三段７１巷２６號","OBJECTID":258675},"geometry":{"x":167442.53160899971,"y":2540575.5871820003}},{"attributes":{"ID":258680,"DIS_CODE":0,"TOWNNAME":"南區","LI":"郡南里","LIN":"13鄰","STREET":"永成路","SECT":"三段","MAREA":" ","LANE":"７１巷","ALLEY":" ","HOUSE_NO":"２８號","E_COORD97":167435.11951700001,"N_COORD97":2540577.0688499999,"ADDRESS":"永成路三段７１巷２８號","OBJECTID":258676},"geometry":{"x":167435.11951700039,"y":2540577.0688480008}},{"attributes":{"ID":258681,"DIS_CODE":0,"TOWNNAME":"關廟區","LI":"布袋里","LIN":"5鄰","STREET":"長文街","SECT":" ","MAREA":" ","LANE":"１５５巷","ALLEY":" ","HOUSE_NO":"３號","E_COORD97":182818.64397999999,"N_COORD97":2535338.6584800002,"ADDRESS":"長文街１５５巷３號","OBJECTID":258677},"geometry":{"x":182818.6439800011,"y":2535338.6584840026}},{"attributes":{"ID":258682,"DIS_CODE":0,"TOWNNAME":"龍崎區","LI":"崎頂里","LIN":"22鄰","STREET":" ","SECT":" ","MAREA":"嶺頂","LANE":" ","ALLEY":" ","HOUSE_NO":"３１號","E_COORD97":186246.07000000001,"N_COORD97":2542488.25,"ADDRESS":"嶺頂３１號","OBJECTID":258678},"geometry":{"x":186246.0700000003,"y":2542488.2500000019}},{"attributes":{"ID":258683,"DIS_CODE":0,"TOWNNAME":"安南區","LI":"四草里","LIN":"4鄰","STREET":"大眾路","SECT":" ","MAREA":" ","LANE":"６３４巷","ALLEY":" ","HOUSE_NO":"５號","E_COORD97":160662.42207900001,"N_COORD97":2546458.81672,"ADDRESS":"大眾路６３４巷５號","OBJECTID":258679},"geometry":{"x":160662.42207899969,"y":2546458.8167250026}},{"attributes":{"ID":258684,"DIS_CODE":0,"TOWNNAME":"南區","LI":"郡南里","LIN":"13鄰","STREET":"永成路","SECT":"三段","MAREA":" ","LANE":"７１巷","ALLEY":" ","HOUSE_NO":"２９號","E_COORD97":167397.10607400001,"N_COORD97":2540553.3621899998,"ADDRESS":"永成路三段７１巷２９號","OBJECTID":258680},"geometry":{"x":167397.10607399978,"y":2540553.3621939998}},{"attributes":{"ID":258685,"DIS_CODE":0,"TOWNNAME":"仁德區","LI":"大甲里","LIN":"23鄰","STREET":"中正西路","SECT":" ","MAREA":" ","LANE":"３６０巷","ALLEY":" ","HOUSE_NO":"１１３０號","E_COORD97":169186.07785500001,"N_COORD97":2536459.7785200002,"ADDRESS":"中正西路３６０巷１１３０號","OBJECTID":258681},"geometry":{"x":169186.0778550012,"y":2536459.778523}},{"attributes":{"ID":258686,"DIS_CODE":0,"TOWNNAME":"龍崎區","LI":"崎頂里","LIN":"22鄰","STREET":" ","SECT":" ","MAREA":"嶺頂","LANE":" ","ALLEY":" ","HOUSE_NO":"３０號","E_COORD97":186274.47,"N_COORD97":2542475.25,"ADDRESS":"嶺頂３０號","OBJECTID":258682},"geometry":{"x":186274.47000000067,"y":2542475.25}},{"attributes":{"ID":258687,"DIS_CODE":0,"TOWNNAME":"龍崎區","LI":"崎頂里","LIN":"22鄰","STREET":" ","SECT":" ","MAREA":"嶺頂","LANE":" ","ALLEY":" ","HOUSE_NO":"２９號","E_COORD97":186138.26999999999,"N_COORD97":2542473.25,"ADDRESS":"嶺頂２９號","OBJECTID":258683},"geometry":{"x":186138.27000000048,"y":2542473.2500000037}},{"attributes":{"ID":258688,"DIS_CODE":0,"TOWNNAME":"龍崎區","LI":"崎頂里","LIN":"22鄰","STREET":" ","SECT":" ","MAREA":"嶺頂","LANE":" ","ALLEY":" ","HOUSE_NO":"１８號","E_COORD97":186120.67000000001,"N_COORD97":2542031.25,"ADDRESS":"嶺頂１８號","OBJECTID":258684},"geometry":{"x":186120.67000000086,"y":2542031.25}},{"attributes":{"ID":258689,"DIS_CODE":0,"TOWNNAME":"龍崎區","LI":"崎頂里","LIN":"22鄰","STREET":" ","SECT":" ","MAREA":"嶺頂","LANE":" ","ALLEY":" ","HOUSE_NO":"２４號","E_COORD97":186219.57000000001,"N_COORD97":2542243.25,"ADDRESS":"嶺頂２４號","OBJECTID":258685},"geometry":{"x":186219.57000000216,"y":2542243.2500000019}},{"attributes":{"ID":258690,"DIS_CODE":0,"TOWNNAME":"龍崎區","LI":"崎頂里","LIN":"22鄰","STREET":" ","SECT":" ","MAREA":"嶺頂","LANE":" ","ALLEY":" ","HOUSE_NO":"２３號","E_COORD97":186210.26999999999,"N_COORD97":2542170.25,"ADDRESS":"嶺頂２３號","OBJECTID":258686},"geometry":{"x":186210.26999999955,"y":2542170.25}},{"attributes":{"ID":258691,"DIS_CODE":0,"TOWNNAME":"西港區","LI":"港東里","LIN":"22鄰","STREET":" ","SECT":" ","MAREA":"八份","LANE":" ","ALLEY":" ","HOUSE_NO":"１００之２號","E_COORD97":169320.89000000001,"N_COORD97":2558865.2599999998,"ADDRESS":"八份１００之２號","OBJECTID":258687},"geometry":{"x":169320.8900000006,"y":2558865.2600000035}},{"attributes":{"ID":258692,"DIS_CODE":0,"TOWNNAME":"西港區","LI":"港東里","LIN":"22鄰","STREET":" ","SECT":" ","MAREA":"八份","LANE":" ","ALLEY":" ","HOUSE_NO":"１００號","E_COORD97":169276.32000000001,"N_COORD97":2558791.1800000002,"ADDRESS":"八份１００號","OBJECTID":258688},"geometry":{"x":169276.32000000123,"y":2558791.1800000034}},{"attributes":{"ID":258693,"DIS_CODE":0,"TOWNNAME":"西港區","LI":"港東里","LIN":"22鄰","STREET":" ","SECT":" ","MAREA":"八份","LANE":" ","ALLEY":" ","HOUSE_NO":"１０２之２號","E_COORD97":169526.10000000001,"N_COORD97":2558869.6299999999,"ADDRESS":"八份１０２之２號","OBJECTID":258689},"geometry":{"x":169526.10000000149,"y":2558869.6300000008}},{"attributes":{"ID":258694,"DIS_CODE":0,"TOWNNAME":"西港區","LI":"港東里","LIN":"22鄰","STREET":" ","SECT":" ","MAREA":"八份","LANE":" ","ALLEY":" ","HOUSE_NO":"１０２號","E_COORD97":169358.89000000001,"N_COORD97":2558887.71,"ADDRESS":"八份１０２號","OBJECTID":258690},"geometry":{"x":169358.88999999966,"y":2558887.7100000028}},{"attributes":{"ID":258695,"DIS_CODE":0,"TOWNNAME":"西港區","LI":"港東里","LIN":"22鄰","STREET":" ","SECT":" ","MAREA":"八份","LANE":" ","ALLEY":" ","HOUSE_NO":"１０３號","E_COORD97":169671.63,"N_COORD97":2558859.3700000001,"ADDRESS":"八份１０３號","OBJECTID":258691},"geometry":{"x":169671.62999999989,"y":2558859.3700000048}},{"attributes":{"ID":258696,"DIS_CODE":0,"TOWNNAME":"中西區","LI":"五妃里","LIN":"4鄰","STREET":"南門路","SECT":" ","MAREA":" ","LANE":"２３７巷","ALLEY":" ","HOUSE_NO":"２號","E_COORD97":168442.248632,"N_COORD97":2542632.0106500001,"ADDRESS":"南門路２３７巷２號","OBJECTID":258692},"geometry":{"x":168442.24863200076,"y":2542632.0106469989}},{"attributes":{"ID":258697,"DIS_CODE":0,"TOWNNAME":"西港區","LI":"港東里","LIN":"22鄰","STREET":" ","SECT":" ","MAREA":"八份","LANE":" ","ALLEY":" ","HOUSE_NO":"１０６之１號","E_COORD97":169463.04000000001,"N_COORD97":2558986.0499999998,"ADDRESS":"八份１０６之１號","OBJECTID":258693},"geometry":{"x":169463.04000000097,"y":2558986.0500000007}},{"attributes":{"ID":258698,"DIS_CODE":0,"TOWNNAME":"西港區","LI":"港東里","LIN":"22鄰","STREET":" ","SECT":" ","MAREA":"八份","LANE":" ","ALLEY":" ","HOUSE_NO":"１０６號","E_COORD97":169485.79999999999,"N_COORD97":2559041.48,"ADDRESS":"八份１０６號","OBJECTID":258694},"geometry":{"x":169485.80000000168,"y":2559041.4800000023}},{"attributes":{"ID":258699,"DIS_CODE":0,"TOWNNAME":"仁德區","LI":"仁德里","LIN":"2鄰","STREET":"中正路","SECT":"二段","MAREA":" ","LANE":"７２９巷","ALLEY":" ","HOUSE_NO":"９號","E_COORD97":173430.93997199999,"N_COORD97":2540163.2469600001,"ADDRESS":"中正路二段７２９巷９號","OBJECTID":258695},"geometry":{"x":173430.9399720002,"y":2540163.2469650004}},{"attributes":{"ID":258700,"DIS_CODE":0,"TOWNNAME":"中西區","LI":"大涼里","LIN":"22鄰","STREET":"府前路","SECT":"二段","MAREA":" ","LANE":" ","ALLEY":" ","HOUSE_NO":"２３９號","E_COORD97":167025.89999999999,"N_COORD97":2543596.25,"ADDRESS":"府前路二段２３９號","OBJECTID":258696},"geometry":{"x":167025.90000000037,"y":2543596.2500000019}},{"attributes":{"ID":258701,"DIS_CODE":0,"TOWNNAME":"新營區","LI":"新南里","LIN":"15鄰","STREET":"民治路","SECT":" ","MAREA":" ","LANE":"３００巷","ALLEY":" ","HOUSE_NO":"６９號","E_COORD97":178683.97370500001,"N_COORD97":2578569.2733100001,"ADDRESS":"民治路３００巷６９號","OBJECTID":258697},"geometry":{"x":178683.97370500118,"y":2578569.2733080015}},{"attributes":{"ID":258702,"DIS_CODE":0,"TOWNNAME":"南區","LI":"建南里","LIN":"21鄰","STREET":"永成路","SECT":"二段","MAREA":" ","LANE":"８８１巷","ALLEY":" ","HOUSE_NO":"１８號","E_COORD97":167435.61526799999,"N_COORD97":2540277.4960699999,"ADDRESS":"永成路二段８８１巷１８號","OBJECTID":258698},"geometry":{"x":167435.6152680004,"y":2540277.4960660022}},{"attributes":{"ID":258703,"DIS_CODE":0,"TOWNNAME":"新營區","LI":"新南里","LIN":"15鄰","STREET":"民治路","SECT":" ","MAREA":" ","LANE":"３００巷","ALLEY":" ","HOUSE_NO":"６７號","E_COORD97":178687.151938,"N_COORD97":2578570.33164,"ADDRESS":"民治路３００巷６７號","OBJECTID":258699},"geometry":{"x":178687.15193800069,"y":2578570.3316409998}},{"attributes":{"ID":258704,"DIS_CODE":0,"TOWNNAME":"新營區","LI":"新南里","LIN":"15鄰","STREET":"民治路","SECT":" ","MAREA":" ","LANE":"３００巷","ALLEY":" ","HOUSE_NO":"６５號","E_COORD97":178690.54205399999,"N_COORD97":2578570.33164,"ADDRESS":"民治路３００巷６５號","OBJECTID":258700},"geometry":{"x":178690.54205400124,"y":2578570.3316409998}},{"attributes":{"ID":258705,"DIS_CODE":0,"TOWNNAME":"南區","LI":"建南里","LIN":"21鄰","STREET":"永成路","SECT":"二段","MAREA":" ","LANE":"８８１巷","ALLEY":" ","HOUSE_NO":"２６號","E_COORD97":167421.53060900001,"N_COORD97":2540274.3739800001,"ADDRESS":"永成路二段８８１巷２６號","OBJECTID":258701},"geometry":{"x":167421.53060900234,"y":2540274.3739840016}},{"attributes":{"ID":258706,"DIS_CODE":0,"TOWNNAME":"南區","LI":"建南里","LIN":"21鄰","STREET":"永成路","SECT":"二段","MAREA":" ","LANE":"８８１巷","ALLEY":" ","HOUSE_NO":"２８號","E_COORD97":167417.82412,"N_COORD97":2540273.8448200002,"ADDRESS":"永成路二段８８１巷２８號","OBJECTID":258702},"geometry":{"x":167417.82412,"y":2540273.8448180016}},{"attributes":{"ID":258707,"DIS_CODE":0,"TOWNNAME":"學甲區","LI":"新達里","LIN":"22鄰","STREET":" ","SECT":" ","MAREA":"山寮","LANE":" ","ALLEY":" ","HOUSE_NO":"５３號","E_COORD97":168228.57999999999,"N_COORD97":2570715.1000000001,"ADDRESS":"山寮５３號","OBJECTID":258703},"geometry":{"x":168228.58000000101,"y":2570715.0999999996}},{"attributes":{"ID":258708,"DIS_CODE":0,"TOWNNAME":"南區","LI":"建南里","LIN":"21鄰","STREET":"永成路","SECT":"二段","MAREA":" ","LANE":"８８１巷","ALLEY":" ","HOUSE_NO":"３０號","E_COORD97":167411.47013900001,"N_COORD97":2540272.5748200002,"ADDRESS":"永成路二段８８１巷３０號","OBJECTID":258704},"geometry":{"x":167411.47013900056,"y":2540272.5748180021}},{"attributes":{"ID":258709,"DIS_CODE":0,"TOWNNAME":"南區","LI":"建南里","LIN":"21鄰","STREET":"永成路","SECT":"二段","MAREA":" ","LANE":"８８１巷","ALLEY":" ","HOUSE_NO":"３０號","E_COORD97":167411.47013900001,"N_COORD97":2540272.5748200002,"ADDRESS":"永成路二段８８１巷３０號","OBJECTID":258705},"geometry":{"x":167411.47013900056,"y":2540272.5748180021}},{"attributes":{"ID":258710,"DIS_CODE":0,"TOWNNAME":"南區","LI":"建南里","LIN":"2鄰","STREET":"永成路","SECT":"二段","MAREA":" ","LANE":"８８１巷","ALLEY":" ","HOUSE_NO":"９８號","E_COORD97":167249.44361700001,"N_COORD97":2540231.1940100002,"ADDRESS":"永成路二段８８１巷９８號","OBJECTID":258706},"geometry":{"x":167249.44361700024,"y":2540231.194007}},{"attributes":{"ID":258711,"DIS_CODE":0,"TOWNNAME":"南區","LI":"建南里","LIN":"2鄰","STREET":"永成路","SECT":"二段","MAREA":" ","LANE":"８８１巷","ALLEY":" ","HOUSE_NO":"１００號","E_COORD97":167245.419429,"N_COORD97":2540230.2415100001,"ADDRESS":"永成路二段８８１巷１００號","OBJECTID":258707},"geometry":{"x":167245.41942900047,"y":2540230.2415080015}},{"attributes":{"ID":258712,"DIS_CODE":0,"TOWNNAME":"新營區","LI":"新東里","LIN":"27鄰","STREET":"東光街","SECT":" ","MAREA":" ","LANE":"４０巷","ALLEY":" ","HOUSE_NO":"１１號","E_COORD97":180644.45881700001,"N_COORD97":2579588.0377199999,"ADDRESS":"東光街４０巷１１號","OBJECTID":258708},"geometry":{"x":180644.45881699957,"y":2579588.0377239995}},{"attributes":{"ID":258713,"DIS_CODE":0,"TOWNNAME":"永康區","LI":"復國里","LIN":"31鄰","STREET":"復國一路","SECT":" ","MAREA":" ","LANE":"１５９巷","ALLEY":" ","HOUSE_NO":"２之１號","E_COORD97":172693.09473800001,"N_COORD97":2545178.14347,"ADDRESS":"復國一路１５９巷２之１號","OBJECTID":258709},"geometry":{"x":172693.09473800194,"y":2545178.1434700042}},{"attributes":{"ID":258714,"DIS_CODE":0,"TOWNNAME":"南區","LI":"建南里","LIN":"2鄰","STREET":"永成路","SECT":"二段","MAREA":" ","LANE":"８８１巷","ALLEY":" ","HOUSE_NO":"１０２號","E_COORD97":167241.81883900001,"N_COORD97":2540229.2890099999,"ADDRESS":"永成路二段８８１巷１０２號","OBJECTID":258710},"geometry":{"x":167241.81883900054,"y":2540229.289007999}},{"attributes":{"ID":258715,"DIS_CODE":0,"TOWNNAME":"新營區","LI":"王公里","LIN":"27鄰","STREET":"民族路","SECT":" ","MAREA":" ","LANE":"３０８巷","ALLEY":" ","HOUSE_NO":"４２號","E_COORD97":180485.936182,"N_COORD97":2579733.7559000002,"ADDRESS":"民族路３０８巷４２號","OBJECTID":258711},"geometry":{"x":180485.93618199974,"y":2579733.7558950037}},{"attributes":{"ID":258716,"DIS_CODE":0,"TOWNNAME":"新營區","LI":"王公里","LIN":"27鄰","STREET":"民族路","SECT":" ","MAREA":" ","LANE":"３０８巷","ALLEY":" ","HOUSE_NO":"５０號","E_COORD97":180499.92040900001,"N_COORD97":2579734.07339,"ADDRESS":"民族路３０８巷５０號","OBJECTID":258712},"geometry":{"x":180499.92040900048,"y":2579734.0733940005}},{"attributes":{"ID":258717,"DIS_CODE":0,"TOWNNAME":"新營區","LI":"王公里","LIN":"27鄰","STREET":"民族路","SECT":" ","MAREA":" ","LANE":"３０８巷","ALLEY":" ","HOUSE_NO":"４８號","E_COORD97":180493.98770699999,"N_COORD97":2579733.5442300001,"ADDRESS":"民族路３０８巷４８號","OBJECTID":258713},"geometry":{"x":180493.98770700116,"y":2579733.5442280024}},{"attributes":{"ID":258718,"DIS_CODE":0,"TOWNNAME":"歸仁區","LI":"後市里","LIN":"27鄰","STREET":"民族北街","SECT":" ","MAREA":" ","LANE":"１７巷","ALLEY":" ","HOUSE_NO":"２５號","E_COORD97":177357.78,"N_COORD97":2540866.75,"ADDRESS":"民族北街１７巷２５號","OBJECTID":258714},"geometry":{"x":177357.78000000119,"y":2540866.7500000019}},{"attributes":{"ID":258719,"DIS_CODE":0,"TOWNNAME":"新營區","LI":"新南里","LIN":"15鄰","STREET":"民治路","SECT":" ","MAREA":" ","LANE":"３００巷","ALLEY":" ","HOUSE_NO":"７１號","E_COORD97":178679.73606,"N_COORD97":2578569.4849700001,"ADDRESS":"民治路３００巷７１號","OBJECTID":258715},"geometry":{"x":178679.73606000002,"y":2578569.4849700015}},{"attributes":{"ID":258720,"DIS_CODE":0,"TOWNNAME":"學甲區","LI":"新達里","LIN":"22鄰","STREET":" ","SECT":" ","MAREA":"山寮","LANE":" ","ALLEY":" ","HOUSE_NO":"５４號之１","E_COORD97":168203.37,"N_COORD97":2570732.9700000002,"ADDRESS":"山寮５４號之１","OBJECTID":258716},"geometry":{"x":168203.37000000011,"y":2570732.9700000007}},{"attributes":{"ID":258721,"DIS_CODE":0,"TOWNNAME":"學甲區","LI":"新達里","LIN":"22鄰","STREET":" ","SECT":" ","MAREA":"山寮","LANE":" ","ALLEY":" ","HOUSE_NO":"５４號","E_COORD97":168220.38,"N_COORD97":2570731.4399999999,"ADDRESS":"山寮５４號","OBJECTID":258717},"geometry":{"x":168220.37999999989,"y":2570731.4400000013}},{"attributes":{"ID":258722,"DIS_CODE":0,"TOWNNAME":"學甲區","LI":"新達里","LIN":"22鄰","STREET":" ","SECT":" ","MAREA":"山寮","LANE":" ","ALLEY":" ","HOUSE_NO":"５５號","E_COORD97":168232.29000000001,"N_COORD97":2570746.6899999999,"ADDRESS":"山寮５５號","OBJECTID":258718},"geometry":{"x":168232.29000000097,"y":2570746.6900000013}},{"attributes":{"ID":258723,"DIS_CODE":0,"TOWNNAME":"學甲區","LI":"新達里","LIN":"22鄰","STREET":" ","SECT":" ","MAREA":"山寮","LANE":" ","ALLEY":" ","HOUSE_NO":"５６號","E_COORD97":168236.98000000001,"N_COORD97":2570763.3500000001,"ADDRESS":"山寮５６號","OBJECTID":258719},"geometry":{"x":168236.98000000045,"y":2570763.3499999996}},{"attributes":{"ID":258724,"DIS_CODE":0,"TOWNNAME":"學甲區","LI":"新達里","LIN":"22鄰","STREET":" ","SECT":" ","MAREA":"山寮","LANE":" ","ALLEY":" ","HOUSE_NO":"５７號之１０","E_COORD97":168036.48000000001,"N_COORD97":2570758.6400000001,"ADDRESS":"山寮５７號之１０","OBJECTID":258720},"geometry":{"x":168036.48000000138,"y":2570758.6400000025}},{"attributes":{"ID":258725,"DIS_CODE":0,"TOWNNAME":"學甲區","LI":"中洲里","LIN":"22鄰","STREET":" ","SECT":" ","MAREA":"中洲","LANE":" ","ALLEY":" ","HOUSE_NO":"２７１號之１","E_COORD97":163652.01000000001,"N_COORD97":2571635.3300000001,"ADDRESS":"中洲２７１號之１","OBJECTID":258721},"geometry":{"x":163652.01000000071,"y":2571635.3300000001}},{"attributes":{"ID":258726,"DIS_CODE":0,"TOWNNAME":"學甲區","LI":"中洲里","LIN":"22鄰","STREET":" ","SECT":" ","MAREA":"中洲","LANE":" ","ALLEY":" ","HOUSE_NO":"２７１號","E_COORD97":163652.16,"N_COORD97":2571626.5800000001,"ADDRESS":"中洲２７１號","OBJECTID":258722},"geometry":{"x":163652.16000000015,"y":2571626.5800000001}},{"attributes":{"ID":258727,"DIS_CODE":0,"TOWNNAME":"學甲區","LI":"中洲里","LIN":"22鄰","STREET":" ","SECT":" ","MAREA":"中洲","LANE":" ","ALLEY":" ","HOUSE_NO":"２７２號","E_COORD97":163630.76000000001,"N_COORD97":2571636.0699999998,"ADDRESS":"中洲２７２號","OBJECTID":258723},"geometry":{"x":163630.75999999978,"y":2571636.0700000022}},{"attributes":{"ID":258728,"DIS_CODE":0,"TOWNNAME":"學甲區","LI":"中洲里","LIN":"22鄰","STREET":" ","SECT":" ","MAREA":"中洲","LANE":" ","ALLEY":" ","HOUSE_NO":"２７３號之１","E_COORD97":163579.56,"N_COORD97":2571622.79,"ADDRESS":"中洲２７３號之１","OBJECTID":258724},"geometry":{"x":163579.56000000145,"y":2571622.790000001}},{"attributes":{"ID":258729,"DIS_CODE":0,"TOWNNAME":"學甲區","LI":"中洲里","LIN":"22鄰","STREET":" ","SECT":" ","MAREA":"中洲","LANE":" ","ALLEY":" ","HOUSE_NO":"２７３號之２","E_COORD97":163609.17000000001,"N_COORD97":2571624.4100000001,"ADDRESS":"中洲２７３號之２","OBJECTID":258725},"geometry":{"x":163609.16999999993,"y":2571624.4100000001}},{"attributes":{"ID":258730,"DIS_CODE":0,"TOWNNAME":"學甲區","LI":"中洲里","LIN":"22鄰","STREET":" ","SECT":" ","MAREA":"中洲","LANE":" ","ALLEY":" ","HOUSE_NO":"２７３號之３","E_COORD97":163600.66,"N_COORD97":2571621.8100000001,"ADDRESS":"中洲２７３號之３","OBJECTID":258726},"geometry":{"x":163600.66000000015,"y":2571621.8100000024}},{"attributes":{"ID":258731,"DIS_CODE":0,"TOWNNAME":"學甲區","LI":"中洲里","LIN":"22鄰","STREET":" ","SECT":" ","MAREA":"中洲","LANE":" ","ALLEY":" ","HOUSE_NO":"２７３號之６","E_COORD97":163575.14999999999,"N_COORD97":2571657.77,"ADDRESS":"中洲２７３號之６","OBJECTID":258727},"geometry":{"x":163575.1500000013,"y":2571657.7700000014}},{"attributes":{"ID":258732,"DIS_CODE":0,"TOWNNAME":"學甲區","LI":"中洲里","LIN":"22鄰","STREET":" ","SECT":" ","MAREA":"中洲","LANE":" ","ALLEY":" ","HOUSE_NO":"２７３號","E_COORD97":163605.09,"N_COORD97":2571648.3300000001,"ADDRESS":"中洲２７３號","OBJECTID":258728},"geometry":{"x":163605.09000000171,"y":2571648.3300000019}},{"attributes":{"ID":258733,"DIS_CODE":0,"TOWNNAME":"學甲區","LI":"中洲里","LIN":"22鄰","STREET":" ","SECT":" ","MAREA":"中洲","LANE":" ","ALLEY":" ","HOUSE_NO":"２７６號","E_COORD97":163598.42000000001,"N_COORD97":2571682.4399999999,"ADDRESS":"中洲２７６號","OBJECTID":258729},"geometry":{"x":163598.42000000086,"y":2571682.4399999995}},{"attributes":{"ID":258734,"DIS_CODE":0,"TOWNNAME":"學甲區","LI":"中洲里","LIN":"22鄰","STREET":" ","SECT":" ","MAREA":"中洲","LANE":" ","ALLEY":" ","HOUSE_NO":"２７７號之１","E_COORD97":163567.81,"N_COORD97":2571699.29,"ADDRESS":"中洲２７７號之１","OBJECTID":258730},"geometry":{"x":163567.81000000052,"y":2571699.2899999991}},{"attributes":{"ID":258735,"DIS_CODE":0,"TOWNNAME":"學甲區","LI":"中洲里","LIN":"22鄰","STREET":" ","SECT":" ","MAREA":"中洲","LANE":" ","ALLEY":" ","HOUSE_NO":"２７８號之１","E_COORD97":163631.28,"N_COORD97":2571673.29,"ADDRESS":"中洲２７８號之１","OBJECTID":258731},"geometry":{"x":163631.28000000212,"y":2571673.2900000028}},{"attributes":{"ID":258736,"DIS_CODE":0,"TOWNNAME":"學甲區","LI":"中洲里","LIN":"22鄰","STREET":" ","SECT":" ","MAREA":"中洲","LANE":" ","ALLEY":" ","HOUSE_NO":"２７８號","E_COORD97":163627.60999999999,"N_COORD97":2571684.7200000002,"ADDRESS":"中洲２７８號","OBJECTID":258732},"geometry":{"x":163627.61000000127,"y":2571684.7200000007}},{"attributes":{"ID":258737,"DIS_CODE":0,"TOWNNAME":"歸仁區","LI":"新厝里","LIN":"27鄰","STREET":"中正五街","SECT":" ","MAREA":" ","LANE":"３９巷","ALLEY":" ","HOUSE_NO":"１１號","E_COORD97":177057.32244700001,"N_COORD97":2540088.61148,"ADDRESS":"中正五街３９巷１１號","OBJECTID":258733},"geometry":{"x":177057.32244700007,"y":2540088.6114790011}},{"attributes":{"ID":258738,"DIS_CODE":0,"TOWNNAME":"學甲區","LI":"中洲里","LIN":"22鄰","STREET":" ","SECT":" ","MAREA":"中洲","LANE":" ","ALLEY":" ","HOUSE_NO":"２７９號之８","E_COORD97":163591.13,"N_COORD97":2571721.2000000002,"ADDRESS":"中洲２７９號之８","OBJECTID":258734},"geometry":{"x":163591.12999999896,"y":2571721.1999999993}},{"attributes":{"ID":258739,"DIS_CODE":0,"TOWNNAME":"學甲區","LI":"中洲里","LIN":"22鄰","STREET":" ","SECT":" ","MAREA":"中洲","LANE":" ","ALLEY":" ","HOUSE_NO":"２７９號","E_COORD97":163604.88,"N_COORD97":2571718.1699999999,"ADDRESS":"中洲２７９號","OBJECTID":258735},"geometry":{"x":163604.88000000175,"y":2571718.1699999999}},{"attributes":{"ID":258740,"DIS_CODE":0,"TOWNNAME":"歸仁區","LI":"崙頂里","LIN":"22鄰","STREET":"崙頂二街","SECT":" ","MAREA":" ","LANE":"５０巷","ALLEY":" ","HOUSE_NO":"７７號","E_COORD97":177700.04000000001,"N_COORD97":2540004.48,"ADDRESS":"崙頂二街５０巷７７號","OBJECTID":258736},"geometry":{"x":177700.04000000097,"y":2540004.4800000023}},{"attributes":{"ID":258741,"DIS_CODE":0,"TOWNNAME":"歸仁區","LI":"許厝里","LIN":"22鄰","STREET":"仁愛六街","SECT":" ","MAREA":" ","LANE":" ","ALLEY":" ","HOUSE_NO":"９９號","E_COORD97":178080.53,"N_COORD97":2540896.25,"ADDRESS":"仁愛六街９９號","OBJECTID":258737},"geometry":{"x":178080.53000000026,"y":2540896.25}},{"attributes":{"ID":258742,"DIS_CODE":0,"TOWNNAME":"南區","LI":"建南里","LIN":"22鄰","STREET":"永成路","SECT":"二段","MAREA":" ","LANE":"８４５巷","ALLEY":" ","HOUSE_NO":"１５號","E_COORD97":167424.00137899999,"N_COORD97":2540151.3002499999,"ADDRESS":"永成路二段８４５巷１５號","OBJECTID":258738},"geometry":{"x":167424.00137900095,"y":2540151.3002470024}},{"attributes":{"ID":258743,"DIS_CODE":0,"TOWNNAME":"永康區","LI":"\u25A0洲里","LIN":"2鄰","STREET":"鹽行路","SECT":" ","MAREA":" ","LANE":"２２巷","ALLEY":" ","HOUSE_NO":"５號","E_COORD97":171687.92345500001,"N_COORD97":2549224.8347200002,"ADDRESS":"鹽行路２２巷５號","OBJECTID":258739},"geometry":{"x":171687.92345499899,"y":2549224.8347220011}},{"attributes":{"ID":258744,"DIS_CODE":0,"TOWNNAME":"歸仁區","LI":"歸仁里","LIN":"22鄰","STREET":"文化街","SECT":"一段","MAREA":" ","LANE":" ","ALLEY":" ","HOUSE_NO":"８０號","E_COORD97":178055.47,"N_COORD97":2541172.2599999998,"ADDRESS":"文化街一段８０號","OBJECTID":258740},"geometry":{"x":178055.4700000016,"y":2541172.2600000016}},{"attributes":{"ID":258745,"DIS_CODE":0,"TOWNNAME":"歸仁區","LI":"看西里","LIN":"22鄰","STREET":"成功七街","SECT":" ","MAREA":" ","LANE":" ","ALLEY":" ","HOUSE_NO":"７７號","E_COORD97":178251.66,"N_COORD97":2539793.3599999999,"ADDRESS":"成功七街７７號","OBJECTID":258741},"geometry":{"x":178251.66000000108,"y":2539793.3600000031}},{"attributes":{"ID":258746,"DIS_CODE":0,"TOWNNAME":"南區","LI":"建南里","LIN":"22鄰","STREET":"永成路","SECT":"二段","MAREA":" ","LANE":"８４５巷","ALLEY":" ","HOUSE_NO":"２１號","E_COORD97":167399.64736199999,"N_COORD97":2540149.3952500001,"ADDRESS":"永成路二段８４５巷２１號","OBJECTID":258742},"geometry":{"x":167399.64736200124,"y":2540149.3952480033}},{"attributes":{"ID":258747,"DIS_CODE":0,"TOWNNAME":"歸仁區","LI":"歸仁里","LIN":"22鄰","STREET":"文化街","SECT":"一段","MAREA":" ","LANE":" ","ALLEY":" ","HOUSE_NO":"８６號","E_COORD97":178043.20000000001,"N_COORD97":2541162.2599999998,"ADDRESS":"文化街一段８６號","OBJECTID":258743},"geometry":{"x":178043.20000000112,"y":2541162.2600000016}},{"attributes":{"ID":258748,"DIS_CODE":0,"TOWNNAME":"歸仁區","LI":"歸仁里","LIN":"22鄰","STREET":"忠孝北路","SECT":" ","MAREA":" ","LANE":" ","ALLEY":" ","HOUSE_NO":"１９５號","E_COORD97":178101.42000000001,"N_COORD97":2541203.1099999999,"ADDRESS":"忠孝北路１９５號","OBJECTID":258744},"geometry":{"x":178101.41999999993,"y":2541203.1100000013}},{"attributes":{"ID":258749,"DIS_CODE":0,"TOWNNAME":"安南區","LI":"城中里","LIN":"6鄰","STREET":"安中路","SECT":"六段","MAREA":" ","LANE":"５８１巷","ALLEY":" ","HOUSE_NO":"２２號","E_COORD97":160774.27996399999,"N_COORD97":2551394.1424699998,"ADDRESS":"安中路六段５８１巷２２號","OBJECTID":258745},"geometry":{"x":160774.27996400092,"y":2551394.1424710024}},{"attributes":{"ID":258750,"DIS_CODE":0,"TOWNNAME":"安南區","LI":"城西里","LIN":"1鄰","STREET":"城西街","SECT":"三段","MAREA":" ","LANE":"１巷","ALLEY":" ","HOUSE_NO":"１８５號","E_COORD97":158880.304924,"N_COORD97":2550122.7614600002,"ADDRESS":"城西街三段１巷１８５號","OBJECTID":258746},"geometry":{"x":158880.30492400099,"y":2550122.7614560015}},{"attributes":{"ID":258751,"DIS_CODE":0,"TOWNNAME":"仁德區","LI":"新田里","LIN":"4鄰","STREET":"勝利一街","SECT":" ","MAREA":" ","LANE":"５８巷","ALLEY":" ","HOUSE_NO":"１０號","E_COORD97":173918.507839,"N_COORD97":2539299.00764,"ADDRESS":"勝利一街５８巷１０號","OBJECTID":258747},"geometry":{"x":173918.50783899985,"y":2539299.0076350011}},{"attributes":{"ID":258752,"DIS_CODE":0,"TOWNNAME":"南區","LI":"大恩里","LIN":"23鄰","STREET":"大同路","SECT":"二段","MAREA":" ","LANE":"７５０巷","ALLEY":" ","HOUSE_NO":"１４號","E_COORD97":169562.35000000001,"N_COORD97":2540717.6099999999,"ADDRESS":"大同路二段７５０巷１４號","OBJECTID":258748},"geometry":{"x":169562.35000000056,"y":2540717.6100000013}},{"attributes":{"ID":258753,"DIS_CODE":0,"TOWNNAME":"安南區","LI":"海東里","LIN":"22鄰","STREET":"同安路","SECT":" ","MAREA":" ","LANE":"８３巷","ALLEY":" ","HOUSE_NO":"３８號","E_COORD97":166885.915848,"N_COORD97":2549020.4199999999,"ADDRESS":"同安路８３巷３８號","OBJECTID":258749},"geometry":{"x":166885.91584799998,"y":2549020.4200000018}},{"attributes":{"ID":258754,"DIS_CODE":0,"TOWNNAME":"安南區","LI":"海東里","LIN":"22鄰","STREET":"同安路","SECT":" ","MAREA":" ","LANE":"８３巷","ALLEY":" ","HOUSE_NO":"３２號","E_COORD97":166886.55115000001,"N_COORD97":2549009.6250100001,"ADDRESS":"同安路８３巷３２號","OBJECTID":258750},"geometry":{"x":166886.55114999972,"y":2549009.6250060033}},{"attributes":{"ID":258755,"DIS_CODE":0,"TOWNNAME":"安南區","LI":"海東里","LIN":"22鄰","STREET":"同安路","SECT":" ","MAREA":" ","LANE":"８３巷","ALLEY":" ","HOUSE_NO":"３６號","E_COORD97":166886.33938200001,"N_COORD97":2549015.7633400001,"ADDRESS":"同安路８３巷３６號","OBJECTID":258751},"geometry":{"x":166886.33938200213,"y":2549015.763336001}},{"attributes":{"ID":258756,"DIS_CODE":0,"TOWNNAME":"永康區","LI":"復國里","LIN":"30鄰","STREET":"復國一路","SECT":" ","MAREA":" ","LANE":"１７６巷","ALLEY":" ","HOUSE_NO":"２９號","E_COORD97":172624.873429,"N_COORD97":2545271.7000899999,"ADDRESS":"復國一路１７６巷２９號","OBJECTID":258752},"geometry":{"x":172624.87342900131,"y":2545271.7000860032}},{"attributes":{"ID":258757,"DIS_CODE":0,"TOWNNAME":"安南區","LI":"海西里","LIN":"8鄰","STREET":"海中街","SECT":" ","MAREA":" ","LANE":"１０１巷","ALLEY":" ","HOUSE_NO":"９３之１號","E_COORD97":166206.288695,"N_COORD97":2548887.2272600001,"ADDRESS":"海中街１０１巷９３之１號","OBJECTID":258753},"geometry":{"x":166206.28869500104,"y":2548887.2272610012}},{"attributes":{"ID":258758,"DIS_CODE":0,"TOWNNAME":"關廟區","LI":"下湖里","LIN":"4鄰","STREET":"下湖二街","SECT":" ","MAREA":" ","LANE":"６９巷","ALLEY":" ","HOUSE_NO":"６號","E_COORD97":179367.19793200001,"N_COORD97":2543075.0364600001,"ADDRESS":"下湖二街６９巷６號","OBJECTID":258754},"geometry":{"x":179367.1979320012,"y":2543075.0364620015}},{"attributes":{"ID":258759,"DIS_CODE":0,"TOWNNAME":"新營區","LI":"王公里","LIN":"27鄰","STREET":"民族路","SECT":" ","MAREA":" ","LANE":"３０６巷","ALLEY":" ","HOUSE_NO":"１號","E_COORD97":180404.10089199999,"N_COORD97":2579716.1242800001,"ADDRESS":"民族路３０６巷１號","OBJECTID":258755},"geometry":{"x":180404.10089200176,"y":2579716.124280002}},{"attributes":{"ID":258760,"DIS_CODE":0,"TOWNNAME":"新營區","LI":"王公里","LIN":"27鄰","STREET":"民族路","SECT":" ","MAREA":" ","LANE":"３０６巷","ALLEY":" ","HOUSE_NO":"２號","E_COORD97":180409.60983,"N_COORD97":2579716.97095,"ADDRESS":"民族路３０６巷２號","OBJECTID":258756},"geometry":{"x":180409.60983000137,"y":2579716.970945999}},{"attributes":{"ID":258761,"DIS_CODE":0,"TOWNNAME":"仁德區","LI":"太子里","LIN":"27鄰","STREET":"中正路","SECT":"三段","MAREA":" ","LANE":"５２３巷","ALLEY":" ","HOUSE_NO":"９６號","E_COORD97":173629.114673,"N_COORD97":2543077.4019300002,"ADDRESS":"中正路三段５２３巷９６號","OBJECTID":258757},"geometry":{"x":173629.11467300076,"y":2543077.4019280002}},{"attributes":{"ID":258762,"DIS_CODE":0,"TOWNNAME":"仁德區","LI":"太子里","LIN":"27鄰","STREET":"中正路","SECT":"三段","MAREA":" ","LANE":"５２３巷","ALLEY":" ","HOUSE_NO":"９６之１號","E_COORD97":173616.62012499999,"N_COORD97":2543077.6135999998,"ADDRESS":"中正路三段５２３巷９６之１號","OBJECTID":258758},"geometry":{"x":173616.62012500037,"y":2543077.6135950014}},{"attributes":{"ID":258763,"DIS_CODE":0,"TOWNNAME":"永康區","LI":"\u25A0洲里","LIN":"33鄰","STREET":"洲尾街","SECT":" ","MAREA":" ","LANE":"７４巷","ALLEY":" ","HOUSE_NO":"３號","E_COORD97":170942.41792800001,"N_COORD97":2548968.6123600001,"ADDRESS":"洲尾街７４巷３號","OBJECTID":258759},"geometry":{"x":170942.41792800091,"y":2548968.6123600025}},{"attributes":{"ID":258764,"DIS_CODE":0,"TOWNNAME":"歸仁區","LI":"崙頂里","LIN":"22鄰","STREET":"崙頂二街","SECT":" ","MAREA":" ","LANE":"５０巷","ALLEY":" ","HOUSE_NO":"１０１號","E_COORD97":177681.73999999999,"N_COORD97":2540030.48,"ADDRESS":"崙頂二街５０巷１０１號","OBJECTID":258760},"geometry":{"x":177681.74000000115,"y":2540030.4800000004}},{"attributes":{"ID":258765,"DIS_CODE":0,"TOWNNAME":"南區","LI":"彰南里","LIN":"18鄰","STREET":"新和一路","SECT":" ","MAREA":" ","LANE":"１巷","ALLEY":" ","HOUSE_NO":"６號之２","E_COORD97":166129.45696700001,"N_COORD97":2540773.3816399998,"ADDRESS":"新和一路１巷６號之２","OBJECTID":258761},"geometry":{"x":166129.45696700178,"y":2540773.381643001}},{"attributes":{"ID":258766,"DIS_CODE":0,"TOWNNAME":"南區","LI":"彰南里","LIN":"18鄰","STREET":"新和一路","SECT":" ","MAREA":" ","LANE":"３巷","ALLEY":" ","HOUSE_NO":"１號之１","E_COORD97":166049.56520300001,"N_COORD97":2540720.8618800002,"ADDRESS":"新和一路３巷１號之１","OBJECTID":258762},"geometry":{"x":166049.56520300079,"y":2540720.8618790023}},{"attributes":{"ID":258767,"DIS_CODE":0,"TOWNNAME":"歸仁區","LI":"辜厝里","LIN":"22鄰","STREET":"大順街","SECT":" ","MAREA":" ","LANE":" ","ALLEY":" ","HOUSE_NO":"３５號","E_COORD97":177419.48000000001,"N_COORD97":2540579.1499999999,"ADDRESS":"大順街３５號","OBJECTID":258763},"geometry":{"x":177419.48000000138,"y":2540579.1500000041}},{"attributes":{"ID":258768,"DIS_CODE":0,"TOWNNAME":"歸仁區","LI":"歸仁里","LIN":"22鄰","STREET":"文化二街","SECT":" ","MAREA":" ","LANE":" ","ALLEY":" ","HOUSE_NO":"８號","E_COORD97":178015,"N_COORD97":2541174.2599999998,"ADDRESS":"文化二街８號","OBJECTID":258764},"geometry":{"x":178015.00000000186,"y":2541174.2600000035}},{"attributes":{"ID":258769,"DIS_CODE":0,"TOWNNAME":"歸仁區","LI":"南保里","LIN":"22鄰","STREET":"民權六街","SECT":" ","MAREA":" ","LANE":"５２巷","ALLEY":" ","HOUSE_NO":"７號","E_COORD97":176852.70999999999,"N_COORD97":2541131.25,"ADDRESS":"民權六街５２巷７號","OBJECTID":258765},"geometry":{"x":176852.71000000089,"y":2541131.2500000019}},{"attributes":{"ID":258770,"DIS_CODE":0,"TOWNNAME":"南區","LI":"彰南里","LIN":"18鄰","STREET":"新和一路","SECT":" ","MAREA":" ","LANE":"３巷","ALLEY":" ","HOUSE_NO":"１號之２","E_COORD97":166052.31826599999,"N_COORD97":2540720.8618800002,"ADDRESS":"新和一路３巷１號之２","OBJECTID":258766},"geometry":{"x":166052.31826599967,"y":2540720.8618790023}},{"attributes":{"ID":258771,"DIS_CODE":0,"TOWNNAME":"安南區","LI":"總頭里","LIN":"11鄰","STREET":"長溪路","SECT":"二段","MAREA":" ","LANE":"５２３巷","ALLEY":" ","HOUSE_NO":"２４號","E_COORD97":168200.33790899999,"N_COORD97":2550529.9231400001,"ADDRESS":"長溪路二段５２３巷２４號","OBJECTID":258767},"geometry":{"x":168200.33790899999,"y":2550529.9231410027}},{"attributes":{"ID":258772,"DIS_CODE":0,"TOWNNAME":"南區","LI":"彰南里","LIN":"18鄰","STREET":"新和一路","SECT":" ","MAREA":" ","LANE":"３巷","ALLEY":" ","HOUSE_NO":"３號之１","E_COORD97":166094.03775600001,"N_COORD97":2540721.2852099999,"ADDRESS":"新和一路３巷３號之１","OBJECTID":258768},"geometry":{"x":166094.03775600065,"y":2540721.2852120008}},{"attributes":{"ID":258773,"DIS_CODE":0,"TOWNNAME":"安南區","LI":"總頭里","LIN":"11鄰","STREET":"長溪路","SECT":"二段","MAREA":" ","LANE":"５２３巷","ALLEY":" ","HOUSE_NO":"２０號","E_COORD97":168198.219235,"N_COORD97":2550540.71814,"ADDRESS":"長溪路二段５２３巷２０號","OBJECTID":258769},"geometry":{"x":168198.2192350002,"y":2550540.7181350011}},{"attributes":{"ID":258774,"DIS_CODE":0,"TOWNNAME":"南區","LI":"彰南里","LIN":"18鄰","STREET":"新和一路","SECT":" ","MAREA":" ","LANE":"３巷","ALLEY":" ","HOUSE_NO":"３號之２","E_COORD97":166090.861145,"N_COORD97":2540720.4385500001,"ADDRESS":"新和一路３巷３號之２","OBJECTID":258770},"geometry":{"x":166090.8611450009,"y":2540720.4385460038}},{"attributes":{"ID":258775,"DIS_CODE":0,"TOWNNAME":"安南區","LI":"總頭里","LIN":"11鄰","STREET":"長溪路","SECT":"二段","MAREA":" ","LANE":"５２３巷","ALLEY":" ","HOUSE_NO":"２２號","E_COORD97":168186.77839399999,"N_COORD97":2550544.9514700002,"ADDRESS":"長溪路二段５２３巷２２號","OBJECTID":258771},"geometry":{"x":168186.7783940006,"y":2550544.9514670018}},{"attributes":{"ID":258776,"DIS_CODE":0,"TOWNNAME":"東區","LI":"裕農里","LIN":"22鄰","STREET":"裕豐街","SECT":" ","MAREA":" ","LANE":"１４２巷","ALLEY":" ","HOUSE_NO":"２之１號","E_COORD97":170783.81,"N_COORD97":2543016.1800000002,"ADDRESS":"裕豐街１４２巷２之１號","OBJECTID":258772},"geometry":{"x":170783.80999999959,"y":2543016.1800000016}},{"attributes":{"ID":258777,"DIS_CODE":0,"TOWNNAME":"歸仁區","LI":"崙頂里","LIN":"22鄰","STREET":"崙頂二街","SECT":" ","MAREA":" ","LANE":"５０巷","ALLEY":" ","HOUSE_NO":"６７號","E_COORD97":177717.54000000001,"N_COORD97":2540017.48,"ADDRESS":"崙頂二街５０巷６７號","OBJECTID":258773},"geometry":{"x":177717.54000000004,"y":2540017.4800000042}},{"attributes":{"ID":258778,"DIS_CODE":0,"TOWNNAME":"歸仁區","LI":"崙頂里","LIN":"22鄰","STREET":"崙頂二街","SECT":" ","MAREA":" ","LANE":"５０巷","ALLEY":" ","HOUSE_NO":"６９號","E_COORD97":177713.44,"N_COORD97":2540014.48,"ADDRESS":"崙頂二街５０巷６９號","OBJECTID":258774},"geometry":{"x":177713.44000000041,"y":2540014.4800000023}},{"attributes":{"ID":258779,"DIS_CODE":0,"TOWNNAME":"歸仁區","LI":"崙頂里","LIN":"22鄰","STREET":"崙頂二街","SECT":" ","MAREA":" ","LANE":"５０巷","ALLEY":" ","HOUSE_NO":"７１號","E_COORD97":177711.34,"N_COORD97":2540011.48,"ADDRESS":"崙頂二街５０巷７１號","OBJECTID":258775},"geometry":{"x":177711.34000000078,"y":2540011.4800000023}},{"attributes":{"ID":258780,"DIS_CODE":0,"TOWNNAME":"歸仁區","LI":"崙頂里","LIN":"22鄰","STREET":"崙頂二街","SECT":" ","MAREA":" ","LANE":"５０巷","ALLEY":" ","HOUSE_NO":"９３號","E_COORD97":177698.39000000001,"N_COORD97":2540040.48,"ADDRESS":"崙頂二街５０巷９３號","OBJECTID":258776},"geometry":{"x":177698.39000000153,"y":2540040.4800000004}},{"attributes":{"ID":258781,"DIS_CODE":0,"TOWNNAME":"歸仁區","LI":"崙頂里","LIN":"22鄰","STREET":"崙頂二街","SECT":" ","MAREA":" ","LANE":"５０巷","ALLEY":" ","HOUSE_NO":"９５號","E_COORD97":177694.29000000001,"N_COORD97":2540037.48,"ADDRESS":"崙頂二街５０巷９５號","OBJECTID":258777},"geometry":{"x":177694.2900000019,"y":2540037.4800000004}},{"attributes":{"ID":258782,"DIS_CODE":0,"TOWNNAME":"歸仁區","LI":"崙頂里","LIN":"22鄰","STREET":"崙頂二街","SECT":" ","MAREA":" ","LANE":"５０巷","ALLEY":" ","HOUSE_NO":"９７號","E_COORD97":177689.94,"N_COORD97":2540034.48,"ADDRESS":"崙頂二街５０巷９７號","OBJECTID":258778},"geometry":{"x":177689.94000000041,"y":2540034.4800000042}},{"attributes":{"ID":258783,"DIS_CODE":0,"TOWNNAME":"歸仁區","LI":"崙頂里","LIN":"22鄰","STREET":"崙頂二街","SECT":" ","MAREA":" ","LANE":"５０巷","ALLEY":" ","HOUSE_NO":"１０３號","E_COORD97":177677.64000000001,"N_COORD97":2540026.48,"ADDRESS":"崙頂二街５０巷１０３號","OBJECTID":258779},"geometry":{"x":177677.63999999966,"y":2540026.4800000004}},{"attributes":{"ID":258784,"DIS_CODE":0,"TOWNNAME":"歸仁區","LI":"崙頂里","LIN":"22鄰","STREET":"崙頂二街","SECT":" ","MAREA":" ","LANE":"５０巷","ALLEY":" ","HOUSE_NO":"９９號","E_COORD97":177685.84,"N_COORD97":2540032.48,"ADDRESS":"崙頂二街５０巷９９號","OBJECTID":258780},"geometry":{"x":177685.84000000078,"y":2540032.4800000023}},{"attributes":{"ID":258785,"DIS_CODE":0,"TOWNNAME":"永康區","LI":"永康里","LIN":"22鄰","STREET":"中山南路","SECT":" ","MAREA":" ","LANE":"５１７巷","ALLEY":" ","HOUSE_NO":"２３號","E_COORD97":173209.606898,"N_COORD97":2547121.4680400002,"ADDRESS":"中山南路５１７巷２３號","OBJECTID":258781},"geometry":{"x":173209.60689800046,"y":2547121.4680400044}},{"attributes":{"ID":258786,"DIS_CODE":0,"TOWNNAME":"永康區","LI":"永康里","LIN":"22鄰","STREET":"中山南路","SECT":" ","MAREA":" ","LANE":"５１７巷","ALLEY":" ","HOUSE_NO":"２２號","E_COORD97":173215.540427,"N_COORD97":2547095.1155500002,"ADDRESS":"中山南路５１７巷２２號","OBJECTID":258782},"geometry":{"x":173215.54042700026,"y":2547095.1155540012}},{"attributes":{"ID":258787,"DIS_CODE":0,"TOWNNAME":"永康區","LI":"永康里","LIN":"22鄰","STREET":"中山南路","SECT":" ","MAREA":" ","LANE":"５１７巷","ALLEY":" ","HOUSE_NO":"１９號","E_COORD97":173224.65263200001,"N_COORD97":2547097.2322200001,"ADDRESS":"中山南路５１７巷１９號","OBJECTID":258783},"geometry":{"x":173224.65263200086,"y":2547097.2322189994}},{"attributes":{"ID":258788,"DIS_CODE":0,"TOWNNAME":"永康區","LI":"永康里","LIN":"22鄰","STREET":"中山南路","SECT":" ","MAREA":" ","LANE":"５１７巷","ALLEY":" ","HOUSE_NO":"１６號","E_COORD97":173238.63880700001,"N_COORD97":2547100.3013800001,"ADDRESS":"中山南路５１７巷１６號","OBJECTID":258784},"geometry":{"x":173238.63880699966,"y":2547100.301384002}},{"attributes":{"ID":258789,"DIS_CODE":0,"TOWNNAME":"仁德區","LI":"太子里","LIN":"27鄰","STREET":"中正路","SECT":"三段","MAREA":" ","LANE":"５２３巷","ALLEY":" ","HOUSE_NO":"１５６號","E_COORD97":173420.307485,"N_COORD97":2543083.7519299998,"ADDRESS":"中正路三段５２３巷１５６號","OBJECTID":258785},"geometry":{"x":173420.30748500023,"y":2543083.7519249991}},{"attributes":{"ID":258790,"DIS_CODE":0,"TOWNNAME":"新營區","LI":"埤寮里","LIN":"13鄰","STREET":"中正路","SECT":" ","MAREA":" ","LANE":"４３９巷","ALLEY":" ","HOUSE_NO":"３號","E_COORD97":180037.81927599999,"N_COORD97":2580315.6287199999,"ADDRESS":"中正路４３９巷３號","OBJECTID":258786},"geometry":{"x":180037.81927600037,"y":2580315.6287200022}},{"attributes":{"ID":258791,"DIS_CODE":0,"TOWNNAME":"新營區","LI":"埤寮里","LIN":"13鄰","STREET":"中正路","SECT":" ","MAREA":" ","LANE":"４３９巷","ALLEY":" ","HOUSE_NO":"５號","E_COORD97":180034.64051299999,"N_COORD97":2580315.4170499998,"ADDRESS":"中正路４３９巷５號","OBJECTID":258787},"geometry":{"x":180034.64051300008,"y":2580315.417053001}},{"attributes":{"ID":258792,"DIS_CODE":0,"TOWNNAME":"新營區","LI":"埤寮里","LIN":"13鄰","STREET":"中正路","SECT":" ","MAREA":" ","LANE":"４３９巷","ALLEY":" ","HOUSE_NO":"７號","E_COORD97":180031.88558599999,"N_COORD97":2580315.4170499998,"ADDRESS":"中正路４３９巷７號","OBJECTID":258788},"geometry":{"x":180031.88558600005,"y":2580315.417053001}},{"attributes":{"ID":258793,"DIS_CODE":0,"TOWNNAME":"安南區","LI":"總頭里","LIN":"9鄰","STREET":"長溪路","SECT":"二段","MAREA":" ","LANE":"５８１巷","ALLEY":" ","HOUSE_NO":"２２號","E_COORD97":168142.07436900001,"N_COORD97":2550677.7722299998,"ADDRESS":"長溪路二段５８１巷２２號","OBJECTID":258789},"geometry":{"x":168142.0743690012,"y":2550677.7722280025}},{"attributes":{"ID":258794,"DIS_CODE":0,"TOWNNAME":"安南區","LI":"安東里","LIN":"22鄰","STREET":"安和路","SECT":"二段","MAREA":" ","LANE":"１７４巷","ALLEY":" ","HOUSE_NO":"１６號","E_COORD97":169683.95454999999,"N_COORD97":2548945.5879500001,"ADDRESS":"安和路二段１７４巷１６號","OBJECTID":258790},"geometry":{"x":169683.95454999991,"y":2548945.5879459996}},{"attributes":{"ID":258795,"DIS_CODE":0,"TOWNNAME":"安南區","LI":"淵中里","LIN":"16鄰","STREET":"本田路","SECT":"三段","MAREA":" ","LANE":"７２０巷","ALLEY":" ","HOUSE_NO":"６號","E_COORD97":164986.78,"N_COORD97":2549864.5600000001,"ADDRESS":"本田路三段７２０巷６號","OBJECTID":258791},"geometry":{"x":164986.78000000026,"y":2549864.5600000005}},{"attributes":{"ID":258796,"DIS_CODE":0,"TOWNNAME":"安南區","LI":"淵中里","LIN":"16鄰","STREET":"本田路","SECT":"三段","MAREA":" ","LANE":"７２０巷","ALLEY":" ","HOUSE_NO":"８號","E_COORD97":164984.70999999999,"N_COORD97":2549860.9700000002,"ADDRESS":"本田路三段７２０巷８號","OBJECTID":258792},"geometry":{"x":164984.71000000089,"y":2549860.9700000025}},{"attributes":{"ID":258797,"DIS_CODE":0,"TOWNNAME":"安南區","LI":"淵中里","LIN":"16鄰","STREET":"本田路","SECT":"三段","MAREA":" ","LANE":"７２０巷","ALLEY":" ","HOUSE_NO":"１０號","E_COORD97":164981.48000000001,"N_COORD97":2549856.5800000001,"ADDRESS":"本田路三段７２０巷１０號","OBJECTID":258793},"geometry":{"x":164981.48000000138,"y":2549856.5800000019}},{"attributes":{"ID":258798,"DIS_CODE":0,"TOWNNAME":"安南區","LI":"淵中里","LIN":"16鄰","STREET":"本田路","SECT":"三段","MAREA":" ","LANE":"７２０巷","ALLEY":" ","HOUSE_NO":"９號","E_COORD97":165002.13,"N_COORD97":2549847.6099999999,"ADDRESS":"本田路三段７２０巷９號","OBJECTID":258794},"geometry":{"x":165002.13000000082,"y":2549847.6100000031}},{"attributes":{"ID":258799,"DIS_CODE":0,"TOWNNAME":"安南區","LI":"淵中里","LIN":"16鄰","STREET":"本田路","SECT":"三段","MAREA":" ","LANE":"７２０巷","ALLEY":" ","HOUSE_NO":"１１號","E_COORD97":164998.54000000001,"N_COORD97":2549842.9500000002,"ADDRESS":"本田路三段７２０巷１１號","OBJECTID":258795},"geometry":{"x":164998.54000000004,"y":2549842.9500000011}},{"attributes":{"ID":258800,"DIS_CODE":0,"TOWNNAME":"安南區","LI":"淵中里","LIN":"16鄰","STREET":"本田路","SECT":"三段","MAREA":" ","LANE":"７２０巷","ALLEY":" ","HOUSE_NO":"１２號","E_COORD97":164979.85000000001,"N_COORD97":2549851.8700000001,"ADDRESS":"本田路三段７２０巷１２號","OBJECTID":258796},"geometry":{"x":164979.85000000056,"y":2549851.8700000029}},{"attributes":{"ID":258801,"DIS_CODE":0,"TOWNNAME":"安南區","LI":"淵中里","LIN":"16鄰","STREET":"本田路","SECT":"三段","MAREA":" ","LANE":"７２０巷","ALLEY":" ","HOUSE_NO":"１４號","E_COORD97":164977.14999999999,"N_COORD97":2549848.0899999999,"ADDRESS":"本田路三段７２０巷１４號","OBJECTID":258797},"geometry":{"x":164977.1500000013,"y":2549848.0900000036}},{"attributes":{"ID":258802,"DIS_CODE":0,"TOWNNAME":"安南區","LI":"淵中里","LIN":"16鄰","STREET":"本田路","SECT":"三段","MAREA":" ","LANE":"７２０巷","ALLEY":" ","HOUSE_NO":"１６號","E_COORD97":164973.82999999999,"N_COORD97":2549843.7799999998,"ADDRESS":"本田路三段７２０巷１６號","OBJECTID":258798},"geometry":{"x":164973.83000000101,"y":2549843.7800000012}},{"attributes":{"ID":258803,"DIS_CODE":0,"TOWNNAME":"安南區","LI":"淵中里","LIN":"16鄰","STREET":"本田路","SECT":"三段","MAREA":" ","LANE":"７２０巷","ALLEY":" ","HOUSE_NO":"１７號","E_COORD97":164990.98999999999,"N_COORD97":2549831.1899999999,"ADDRESS":"本田路三段７２０巷１７號","OBJECTID":258799},"geometry":{"x":164990.99000000209,"y":2549831.1900000013}},{"attributes":{"ID":258804,"DIS_CODE":0,"TOWNNAME":"安南區","LI":"淵中里","LIN":"16鄰","STREET":"本田路","SECT":"三段","MAREA":" ","LANE":"７２０巷","ALLEY":" ","HOUSE_NO":"１９號","E_COORD97":164988.12,"N_COORD97":2549827.25,"ADDRESS":"本田路三段７２０巷１９號","OBJECTID":258800},"geometry":{"x":164988.12000000011,"y":2549827.2500000019}}]}