{"displayFieldName":"TOWNNAME","fieldAliases":{"ID":"ID","DIS_CODE":"DIS_CODE","TOWNNAME":"TOWNNAME","LI":"LI","LIN":"LIN","STREET":"STREET","SECT":"SECT","MAREA":"MAREA","LANE":"LANE","ALLEY":"ALLEY","HOUSE_NO":"HOUSE_NO","E_COORD97":"E_COORD97","N_COORD97":"N_COORD97","ADDRESS":"ADDRESS","OBJECTID":"OBJECTID"},"geometryType":"esriGeometryPoint","spatialReference":{"wkid":102443,"latestWkid":3826},"fields":[{"name":"ID","type":"esriFieldTypeDouble","alias":"ID"},{"name":"DIS_CODE","type":"esriFieldTypeInteger","alias":"DIS_CODE"},{"name":"TOWNNAME","type":"esriFieldTypeString","alias":"TOWNNAME","length":8},{"name":"LI","type":"esriFieldTypeString","alias":"LI","length":8},{"name":"LIN","type":"esriFieldTypeString","alias":"LIN","length":12},{"name":"STREET","type":"esriFieldTypeString","alias":"STREET","length":20},{"name":"SECT","type":"esriFieldTypeString","alias":"SECT","length":8},{"name":"MAREA","type":"esriFieldTypeString","alias":"MAREA","length":12},{"name":"LANE","type":"esriFieldTypeString","alias":"LANE","length":10},{"name":"ALLEY","type":"esriFieldTypeString","alias":"ALLEY","length":10},{"name":"HOUSE_NO","type":"esriFieldTypeString","alias":"HOUSE_NO","length":20},{"name":"E_COORD97","type":"esriFieldTypeDouble","alias":"E_COORD97"},{"name":"N_COORD97","type":"esriFieldTypeDouble","alias":"N_COORD97"},{"name":"ADDRESS","type":"esriFieldTypeString","alias":"ADDRESS","length":50},{"name":"OBJECTID","type":"esriFieldTypeOID","alias":"OBJECTID"}],"features":[{"attributes":{"ID":392425,"DIS_CODE":0,"TOWNNAME":"東區","LI":"東光里","LIN":"23鄰","STREET":"東安路","SECT":" ","MAREA":" ","LANE":"１５６巷","ALLEY":" ","HOUSE_NO":"６號","E_COORD97":170772.98999999999,"N_COORD97":2543873.4100000001,"ADDRESS":"東安路１５６巷６號","OBJECTID":392401},"geometry":{"x":170772.99000000022,"y":2543873.410000002}},{"attributes":{"ID":392426,"DIS_CODE":0,"TOWNNAME":"東區","LI":"東光里","LIN":"23鄰","STREET":"東安路","SECT":" ","MAREA":" ","LANE":"１５６巷","ALLEY":" ","HOUSE_NO":"８號","E_COORD97":170777.17000000001,"N_COORD97":2543875.5,"ADDRESS":"東安路１５６巷８號","OBJECTID":392402},"geometry":{"x":170777.17000000086,"y":2543875.5000000019}},{"attributes":{"ID":392427,"DIS_CODE":0,"TOWNNAME":"東區","LI":"東光里","LIN":"23鄰","STREET":"東安路","SECT":" ","MAREA":" ","LANE":"１５６巷","ALLEY":" ","HOUSE_NO":"１０號","E_COORD97":170780.82000000001,"N_COORD97":2543873.2000000002,"ADDRESS":"東安路１５６巷１０號","OBJECTID":392403},"geometry":{"x":170780.8200000003,"y":2543873.200000003}},{"attributes":{"ID":392428,"DIS_CODE":0,"TOWNNAME":"東區","LI":"東光里","LIN":"23鄰","STREET":"東安路","SECT":" ","MAREA":" ","LANE":"１５６巷","ALLEY":" ","HOUSE_NO":"１２號","E_COORD97":170785.20999999999,"N_COORD97":2543871.5299999998,"ADDRESS":"東安路１５６巷１２號","OBJECTID":392404},"geometry":{"x":170785.21000000183,"y":2543871.5300000012}},{"attributes":{"ID":392429,"DIS_CODE":0,"TOWNNAME":"東區","LI":"東光里","LIN":"23鄰","STREET":"東安路","SECT":" ","MAREA":" ","LANE":"１５６巷","ALLEY":" ","HOUSE_NO":"１４號","E_COORD97":170788.98000000001,"N_COORD97":2543873.9300000002,"ADDRESS":"東安路１５６巷１４號","OBJECTID":392405},"geometry":{"x":170788.98000000231,"y":2543873.9299999997}},{"attributes":{"ID":392430,"DIS_CODE":0,"TOWNNAME":"東區","LI":"東光里","LIN":"23鄰","STREET":"東安路","SECT":" ","MAREA":" ","LANE":"１５６巷","ALLEY":" ","HOUSE_NO":"１６號","E_COORD97":170792.53,"N_COORD97":2543871.5299999998,"ADDRESS":"東安路１５６巷１６號","OBJECTID":392406},"geometry":{"x":170792.53000000119,"y":2543871.5300000012}},{"attributes":{"ID":392431,"DIS_CODE":0,"TOWNNAME":"東區","LI":"東光里","LIN":"23鄰","STREET":"東安路","SECT":" ","MAREA":" ","LANE":"１５６巷","ALLEY":" ","HOUSE_NO":"１８號","E_COORD97":170796.70999999999,"N_COORD97":2543873.6200000001,"ADDRESS":"東安路１５６巷１８號","OBJECTID":392407},"geometry":{"x":170796.70999999996,"y":2543873.6200000029}},{"attributes":{"ID":392432,"DIS_CODE":0,"TOWNNAME":"東區","LI":"東光里","LIN":"23鄰","STREET":"東安路","SECT":" ","MAREA":" ","LANE":"１５６巷","ALLEY":" ","HOUSE_NO":"２０號","E_COORD97":170800.67999999999,"N_COORD97":2543871.5299999998,"ADDRESS":"東安路１５６巷２０號","OBJECTID":392408},"geometry":{"x":170800.68000000063,"y":2543871.5300000012}},{"attributes":{"ID":392433,"DIS_CODE":0,"TOWNNAME":"東區","LI":"東光里","LIN":"23鄰","STREET":"東安路","SECT":" ","MAREA":" ","LANE":"１５６巷","ALLEY":" ","HOUSE_NO":"２２號","E_COORD97":170805.07000000001,"N_COORD97":2543874.25,"ADDRESS":"東安路１５６巷２２號","OBJECTID":392409},"geometry":{"x":170805.07000000216,"y":2543874.2500000019}},{"attributes":{"ID":392434,"DIS_CODE":0,"TOWNNAME":"東區","LI":"東光里","LIN":"23鄰","STREET":"東安路","SECT":" ","MAREA":" ","LANE":"１５６巷","ALLEY":" ","HOUSE_NO":"２４號","E_COORD97":170809.04000000001,"N_COORD97":2543871.6400000001,"ADDRESS":"東安路１５６巷２４號","OBJECTID":392410},"geometry":{"x":170809.04000000097,"y":2543871.6400000025}},{"attributes":{"ID":392435,"DIS_CODE":0,"TOWNNAME":"東區","LI":"新東里","LIN":"23鄰","STREET":"裕豐街","SECT":" ","MAREA":" ","LANE":"９９巷","ALLEY":" ","HOUSE_NO":"２０號","E_COORD97":170694.51999999999,"N_COORD97":2542975.3300000001,"ADDRESS":"裕豐街９９巷２０號","OBJECTID":392411},"geometry":{"x":170694.52000000142,"y":2542975.3300000019}},{"attributes":{"ID":392436,"DIS_CODE":0,"TOWNNAME":"東區","LI":"東明里","LIN":"23鄰","STREET":"東安路","SECT":" ","MAREA":" ","LANE":"３０巷","ALLEY":" ","HOUSE_NO":"２０號","E_COORD97":170757.70000000001,"N_COORD97":2543542.3300000001,"ADDRESS":"東安路３０巷２０號","OBJECTID":392412},"geometry":{"x":170757.70000000019,"y":2543542.3300000019}},{"attributes":{"ID":392437,"DIS_CODE":0,"TOWNNAME":"東區","LI":"東明里","LIN":"23鄰","STREET":"東安路","SECT":" ","MAREA":" ","LANE":"３０巷","ALLEY":" ","HOUSE_NO":"２６號","E_COORD97":170778.34,"N_COORD97":2543537.9300000002,"ADDRESS":"東安路３０巷２６號","OBJECTID":392413},"geometry":{"x":170778.33999999985,"y":2543537.9299999997}},{"attributes":{"ID":392438,"DIS_CODE":0,"TOWNNAME":"東區","LI":"東明里","LIN":"23鄰","STREET":"東安路","SECT":" ","MAREA":" ","LANE":"３０巷","ALLEY":" ","HOUSE_NO":"２８號","E_COORD97":170785.75,"N_COORD97":2543537.5299999998,"ADDRESS":"東安路３０巷２８號","OBJECTID":392414},"geometry":{"x":170785.75000000093,"y":2543537.5299999993}},{"attributes":{"ID":392439,"DIS_CODE":0,"TOWNNAME":"東區","LI":"東明里","LIN":"23鄰","STREET":"東安路","SECT":" ","MAREA":" ","LANE":"３０巷","ALLEY":" ","HOUSE_NO":"２４號","E_COORD97":170771.92000000001,"N_COORD97":2543539.9300000002,"ADDRESS":"東安路３０巷２４號","OBJECTID":392415},"geometry":{"x":170771.92000000179,"y":2543539.9300000016}},{"attributes":{"ID":392440,"DIS_CODE":0,"TOWNNAME":"東區","LI":"富強里","LIN":"23鄰","STREET":"中華東路","SECT":"二段","MAREA":" ","LANE":"４８巷","ALLEY":" ","HOUSE_NO":"６號","E_COORD97":171360.95999999999,"N_COORD97":2543025.29,"ADDRESS":"中華東路二段４８巷６號","OBJECTID":392416},"geometry":{"x":171360.95999999996,"y":2543025.290000001}},{"attributes":{"ID":392441,"DIS_CODE":0,"TOWNNAME":"東區","LI":"富強里","LIN":"23鄰","STREET":"中華東路","SECT":"二段","MAREA":" ","LANE":"４８巷","ALLEY":" ","HOUSE_NO":"７號","E_COORD97":171343.39000000001,"N_COORD97":2542998.8999999999,"ADDRESS":"中華東路二段４８巷７號","OBJECTID":392417},"geometry":{"x":171343.3900000006,"y":2542998.9000000022}},{"attributes":{"ID":392442,"DIS_CODE":0,"TOWNNAME":"東區","LI":"富強里","LIN":"23鄰","STREET":"中華東路","SECT":"二段","MAREA":" ","LANE":"４８巷","ALLEY":" ","HOUSE_NO":"１３號","E_COORD97":171330.01000000001,"N_COORD97":2542998.5499999998,"ADDRESS":"中華東路二段４８巷１３號","OBJECTID":392418},"geometry":{"x":171330.00999999978,"y":2542998.5500000026}},{"attributes":{"ID":392443,"DIS_CODE":0,"TOWNNAME":"東區","LI":"龍山里","LIN":"23鄰","STREET":"東門路","SECT":"二段","MAREA":" ","LANE":"１０４巷","ALLEY":" ","HOUSE_NO":"６號","E_COORD97":170028.92999999999,"N_COORD97":2542937.9100000001,"ADDRESS":"東門路二段１０４巷６號","OBJECTID":392419},"geometry":{"x":170028.92999999877,"y":2542937.910000002}},{"attributes":{"ID":392444,"DIS_CODE":0,"TOWNNAME":"善化區","LI":"坐駕里","LIN":"10鄰","STREET":"自強路","SECT":" ","MAREA":" ","LANE":"１２７巷","ALLEY":" ","HOUSE_NO":"８號","E_COORD97":177927.51999999999,"N_COORD97":2558662.25,"ADDRESS":"自強路１２７巷８號","OBJECTID":392420},"geometry":{"x":177927.51999999955,"y":2558662.2500000037}},{"attributes":{"ID":392445,"DIS_CODE":0,"TOWNNAME":"新市區","LI":"港墘里","LIN":"23鄰","STREET":"光華街","SECT":" ","MAREA":" ","LANE":"１５２巷","ALLEY":" ","HOUSE_NO":"１３號","E_COORD97":177943.34,"N_COORD97":2552821.75,"ADDRESS":"光華街１５２巷１３號","OBJECTID":392421},"geometry":{"x":177943.34000000078,"y":2552821.7500000019}},{"attributes":{"ID":392446,"DIS_CODE":0,"TOWNNAME":"新市區","LI":"港墘里","LIN":"23鄰","STREET":"南昌街","SECT":" ","MAREA":" ","LANE":"１７巷","ALLEY":" ","HOUSE_NO":"１號","E_COORD97":177968.51999999999,"N_COORD97":2552869.25,"ADDRESS":"南昌街１７巷１號","OBJECTID":392422},"geometry":{"x":177968.52000000142,"y":2552869.2500000019}},{"attributes":{"ID":392447,"DIS_CODE":0,"TOWNNAME":"新市區","LI":"新市里","LIN":"23鄰","STREET":"和平街","SECT":" ","MAREA":" ","LANE":"１６巷","ALLEY":" ","HOUSE_NO":"６號","E_COORD97":177756.04000000001,"N_COORD97":2553500,"ADDRESS":"和平街１６巷６號","OBJECTID":392423},"geometry":{"x":177756.04000000097,"y":2553500}},{"attributes":{"ID":392448,"DIS_CODE":0,"TOWNNAME":"新市區","LI":"新市里","LIN":"23鄰","STREET":"和平街","SECT":" ","MAREA":" ","LANE":"１６巷","ALLEY":" ","HOUSE_NO":"２號","E_COORD97":177756.39999999999,"N_COORD97":2553492,"ADDRESS":"和平街１６巷２號","OBJECTID":392424},"geometry":{"x":177756.40000000037,"y":2553492}},{"attributes":{"ID":392449,"DIS_CODE":0,"TOWNNAME":"永康區","LI":"網寮里","LIN":"20鄰","STREET":"永二街","SECT":" ","MAREA":" ","LANE":"２４５巷","ALLEY":" ","HOUSE_NO":"２７號之４","E_COORD97":173342.5,"N_COORD97":2546131.1200000001,"ADDRESS":"永二街２４５巷２７號之４","OBJECTID":392425},"geometry":{"x":173342.5,"y":2546131.1200000029}},{"attributes":{"ID":392450,"DIS_CODE":0,"TOWNNAME":"永康區","LI":"網寮里","LIN":"25鄰","STREET":"永春街","SECT":" ","MAREA":" ","LANE":"９６巷","ALLEY":" ","HOUSE_NO":"２號","E_COORD97":173732.32999999999,"N_COORD97":2546519.4300000002,"ADDRESS":"永春街９６巷２號","OBJECTID":392426},"geometry":{"x":173732.33000000194,"y":2546519.4299999997}},{"attributes":{"ID":392451,"DIS_CODE":0,"TOWNNAME":"永康區","LI":"龍潭里","LIN":"42鄰","STREET":"永平街","SECT":" ","MAREA":" ","LANE":"７５９巷","ALLEY":" ","HOUSE_NO":"１０號","E_COORD97":174612.98999999999,"N_COORD97":2547073.2000000002,"ADDRESS":"永平街７５９巷１０號","OBJECTID":392427},"geometry":{"x":174612.99000000209,"y":2547073.1999999974}},{"attributes":{"ID":392452,"DIS_CODE":0,"TOWNNAME":"永康區","LI":"網寮里","LIN":"15鄰","STREET":"永和街","SECT":" ","MAREA":" ","LANE":"２８２巷","ALLEY":" ","HOUSE_NO":"１３號","E_COORD97":173328.89000000001,"N_COORD97":2546635.5,"ADDRESS":"永和街２８２巷１３號","OBJECTID":392428},"geometry":{"x":173328.8900000006,"y":2546635.5000000019}},{"attributes":{"ID":392453,"DIS_CODE":0,"TOWNNAME":"永康區","LI":"蔦松里","LIN":"6鄰","STREET":"蔦松三街","SECT":" ","MAREA":" ","LANE":"１４７巷","ALLEY":" ","HOUSE_NO":"６６號","E_COORD97":173889.42000000001,"N_COORD97":2549993.9900000002,"ADDRESS":"蔦松三街１４７巷６６號","OBJECTID":392429},"geometry":{"x":173889.42000000086,"y":2549993.9900000002}},{"attributes":{"ID":392454,"DIS_CODE":0,"TOWNNAME":"官田區","LI":"隆本里","LIN":"23鄰","STREET":"勝利路","SECT":" ","MAREA":" ","LANE":"６８巷","ALLEY":" ","HOUSE_NO":"２號","E_COORD97":179958.62,"N_COORD97":2565988.0800000001,"ADDRESS":"勝利路６８巷２號","OBJECTID":392430},"geometry":{"x":179958.62000000197,"y":2565988.0800000019}},{"attributes":{"ID":392455,"DIS_CODE":0,"TOWNNAME":"官田區","LI":"隆本里","LIN":"23鄰","STREET":"勝利路","SECT":" ","MAREA":" ","LANE":"６８巷","ALLEY":" ","HOUSE_NO":"６號","E_COORD97":179954.47,"N_COORD97":2565986.5099999998,"ADDRESS":"勝利路６８巷６號","OBJECTID":392431},"geometry":{"x":179954.47000000067,"y":2565986.5099999998}},{"attributes":{"ID":392456,"DIS_CODE":0,"TOWNNAME":"官田區","LI":"隆本里","LIN":"23鄰","STREET":"勝利路","SECT":" ","MAREA":" ","LANE":"６８巷","ALLEY":" ","HOUSE_NO":"８號","E_COORD97":179950.20999999999,"N_COORD97":2565985.0699999998,"ADDRESS":"勝利路６８巷８號","OBJECTID":392432},"geometry":{"x":179950.20999999996,"y":2565985.0700000022}},{"attributes":{"ID":392457,"DIS_CODE":0,"TOWNNAME":"永康區","LI":"復興里","LIN":"17鄰","STREET":"復興路","SECT":" ","MAREA":" ","LANE":"３５６巷","ALLEY":" ","HOUSE_NO":"６３號","E_COORD97":172320.73000000001,"N_COORD97":2544475.7400000002,"ADDRESS":"復興路３５６巷６３號","OBJECTID":392433},"geometry":{"x":172320.73000000045,"y":2544475.7400000002}},{"attributes":{"ID":392458,"DIS_CODE":0,"TOWNNAME":"永康區","LI":"蔦松里","LIN":"7鄰","STREET":"蔦松一街","SECT":" ","MAREA":" ","LANE":"２２巷","ALLEY":" ","HOUSE_NO":"１３號","E_COORD97":174052.91,"N_COORD97":2549450.75,"ADDRESS":"蔦松一街２２巷１３號","OBJECTID":392434},"geometry":{"x":174052.91000000108,"y":2549450.7500000037}},{"attributes":{"ID":392459,"DIS_CODE":0,"TOWNNAME":"永康區","LI":"蔦松里","LIN":"6鄰","STREET":"蔦松一街","SECT":" ","MAREA":" ","LANE":"７４巷","ALLEY":" ","HOUSE_NO":"４２號","E_COORD97":173924.32999999999,"N_COORD97":2549553,"ADDRESS":"蔦松一街７４巷４２號","OBJECTID":392435},"geometry":{"x":173924.33000000101,"y":2549553}},{"attributes":{"ID":392460,"DIS_CODE":0,"TOWNNAME":"永康區","LI":"蔦松里","LIN":"9鄰","STREET":"正北三路","SECT":" ","MAREA":" ","LANE":"１１３巷","ALLEY":" ","HOUSE_NO":"１５號","E_COORD97":174323.98000000001,"N_COORD97":2549951,"ADDRESS":"正北三路１１３巷１５號","OBJECTID":392436},"geometry":{"x":174323.98000000138,"y":2549951.0000000019}},{"attributes":{"ID":392461,"DIS_CODE":0,"TOWNNAME":"永康區","LI":"新樹里","LIN":"4鄰","STREET":"富強路","SECT":"二段","MAREA":" ","LANE":"３９８巷","ALLEY":" ","HOUSE_NO":"１９３號","E_COORD97":176028.54999999999,"N_COORD97":2547662.3300000001,"ADDRESS":"富強路二段３９８巷１９３號","OBJECTID":392437},"geometry":{"x":176028.54999999981,"y":2547662.3300000001}},{"attributes":{"ID":392462,"DIS_CODE":0,"TOWNNAME":"永康區","LI":"復興里","LIN":"25鄰","STREET":"復興路","SECT":" ","MAREA":" ","LANE":"４２９巷","ALLEY":" ","HOUSE_NO":"１２０號","E_COORD97":172292.26999999999,"N_COORD97":2543789.9100000001,"ADDRESS":"復興路４２９巷１２０號","OBJECTID":392438},"geometry":{"x":172292.26999999955,"y":2543789.9100000001}},{"attributes":{"ID":392463,"DIS_CODE":0,"TOWNNAME":"永康區","LI":"復興里","LIN":"25鄰","STREET":"復興路","SECT":" ","MAREA":" ","LANE":"４２９巷","ALLEY":" ","HOUSE_NO":"９７號","E_COORD97":172285.64999999999,"N_COORD97":2543855.46,"ADDRESS":"復興路４２９巷９７號","OBJECTID":392439},"geometry":{"x":172285.65000000037,"y":2543855.4600000009}},{"attributes":{"ID":392464,"DIS_CODE":0,"TOWNNAME":"永康區","LI":"網寮里","LIN":"24鄰","STREET":"永春街","SECT":" ","MAREA":" ","LANE":"３８巷","ALLEY":" ","HOUSE_NO":"３４號","E_COORD97":173818.35999999999,"N_COORD97":2546441.96,"ADDRESS":"永春街３８巷３４號","OBJECTID":392440},"geometry":{"x":173818.36000000034,"y":2546441.9600000009}},{"attributes":{"ID":392465,"DIS_CODE":0,"TOWNNAME":"永康區","LI":"網寮里","LIN":"24鄰","STREET":"永春街","SECT":" ","MAREA":" ","LANE":"３８巷","ALLEY":" ","HOUSE_NO":"３７號","E_COORD97":173831.88,"N_COORD97":2546460.9300000002,"ADDRESS":"永春街３８巷３７號","OBJECTID":392441},"geometry":{"x":173831.88000000175,"y":2546460.9299999997}},{"attributes":{"ID":392466,"DIS_CODE":0,"TOWNNAME":"永康區","LI":"\u25A0行里","LIN":"8鄰","STREET":"中正一街","SECT":" ","MAREA":" ","LANE":"３２巷","ALLEY":" ","HOUSE_NO":"１６號","E_COORD97":172862.98999999999,"N_COORD97":2548335.3599999999,"ADDRESS":"中正一街３２巷１６號","OBJECTID":392442},"geometry":{"x":172862.99000000022,"y":2548335.3600000013}},{"attributes":{"ID":392467,"DIS_CODE":0,"TOWNNAME":"永康區","LI":"網寮里","LIN":"23鄰","STREET":"永春街","SECT":" ","MAREA":" ","LANE":"２０巷","ALLEY":" ","HOUSE_NO":"３０號","E_COORD97":173843.67000000001,"N_COORD97":2546304.1400000001,"ADDRESS":"永春街２０巷３０號","OBJECTID":392443},"geometry":{"x":173843.67000000086,"y":2546304.1400000006}},{"attributes":{"ID":392468,"DIS_CODE":0,"TOWNNAME":"永康區","LI":"網寮里","LIN":"23鄰","STREET":"永春街","SECT":" ","MAREA":" ","LANE":"１２巷","ALLEY":" ","HOUSE_NO":"６號","E_COORD97":173804.17000000001,"N_COORD97":2546243.1899999999,"ADDRESS":"永春街１２巷６號","OBJECTID":392444},"geometry":{"x":173804.16999999993,"y":2546243.1900000032}},{"attributes":{"ID":392469,"DIS_CODE":0,"TOWNNAME":"新市區","LI":"新和里","LIN":"23鄰","STREET":"中正路","SECT":" ","MAREA":" ","LANE":"１３９巷","ALLEY":" ","HOUSE_NO":"１３號","E_COORD97":177349.76000000001,"N_COORD97":2552722.25,"ADDRESS":"中正路１３９巷１３號","OBJECTID":392445},"geometry":{"x":177349.75999999978,"y":2552722.2500000037}},{"attributes":{"ID":392470,"DIS_CODE":0,"TOWNNAME":"新市區","LI":"新和里","LIN":"23鄰","STREET":"中正路","SECT":" ","MAREA":" ","LANE":"１３９巷","ALLEY":" ","HOUSE_NO":"３號","E_COORD97":177349.76999999999,"N_COORD97":2552744,"ADDRESS":"中正路１３９巷３號","OBJECTID":392446},"geometry":{"x":177349.77000000142,"y":2552744}},{"attributes":{"ID":392471,"DIS_CODE":0,"TOWNNAME":"新市區","LI":"新和里","LIN":"23鄰","STREET":"中正路","SECT":" ","MAREA":" ","LANE":"１３９巷","ALLEY":" ","HOUSE_NO":"１號","E_COORD97":177350.26000000001,"N_COORD97":2552747.75,"ADDRESS":"中正路１３９巷１號","OBJECTID":392447},"geometry":{"x":177350.26000000071,"y":2552747.75}},{"attributes":{"ID":392472,"DIS_CODE":0,"TOWNNAME":"新市區","LI":"新和里","LIN":"23鄰","STREET":"中正路","SECT":" ","MAREA":" ","LANE":"１３９巷","ALLEY":" ","HOUSE_NO":"９號","E_COORD97":177348.98000000001,"N_COORD97":2552730.75,"ADDRESS":"中正路１３９巷９號","OBJECTID":392448},"geometry":{"x":177348.98000000045,"y":2552730.75}},{"attributes":{"ID":392473,"DIS_CODE":0,"TOWNNAME":"永康區","LI":"正強里","LIN":"23鄰","STREET":"中正路","SECT":" ","MAREA":" ","LANE":"１２７巷","ALLEY":" ","HOUSE_NO":"３６號","E_COORD97":173387.37,"N_COORD97":2547771.5,"ADDRESS":"中正路１２７巷３６號","OBJECTID":392449},"geometry":{"x":173387.37000000011,"y":2547771.5000000019}},{"attributes":{"ID":392474,"DIS_CODE":0,"TOWNNAME":"永康區","LI":"正強里","LIN":"23鄰","STREET":"中正路","SECT":" ","MAREA":" ","LANE":"１２７巷","ALLEY":" ","HOUSE_NO":"３８號","E_COORD97":173388.51000000001,"N_COORD97":2547767,"ADDRESS":"中正路１２７巷３８號","OBJECTID":392450},"geometry":{"x":173388.51000000164,"y":2547766.9999999981}},{"attributes":{"ID":392475,"DIS_CODE":0,"TOWNNAME":"永康區","LI":"正強里","LIN":"23鄰","STREET":"中正路","SECT":" ","MAREA":" ","LANE":"１２７巷","ALLEY":" ","HOUSE_NO":"３４號","E_COORD97":173386.37,"N_COORD97":2547775.75,"ADDRESS":"中正路１２７巷３４號","OBJECTID":392451},"geometry":{"x":173386.37000000197,"y":2547775.7500000037}},{"attributes":{"ID":392476,"DIS_CODE":0,"TOWNNAME":"永康區","LI":"五王里","LIN":"23鄰","STREET":"成功路","SECT":" ","MAREA":" ","LANE":"２４４巷","ALLEY":" ","HOUSE_NO":"６３號","E_COORD97":171441.44,"N_COORD97":2545920.52,"ADDRESS":"成功路２４４巷６３號","OBJECTID":392452},"geometry":{"x":171441.44000000041,"y":2545920.5200000014}},{"attributes":{"ID":392477,"DIS_CODE":0,"TOWNNAME":"永康區","LI":"五王里","LIN":"23鄰","STREET":"成功路","SECT":" ","MAREA":" ","LANE":"２４４巷","ALLEY":" ","HOUSE_NO":"６２號","E_COORD97":171468.07000000001,"N_COORD97":2545889.27,"ADDRESS":"成功路２４４巷６２號","OBJECTID":392453},"geometry":{"x":171468.07000000123,"y":2545889.2699999996}},{"attributes":{"ID":392478,"DIS_CODE":0,"TOWNNAME":"永康區","LI":"五王里","LIN":"23鄰","STREET":"成功路","SECT":" ","MAREA":" ","LANE":"２４４巷","ALLEY":" ","HOUSE_NO":"２３號","E_COORD97":171381.23999999999,"N_COORD97":2545855.2599999998,"ADDRESS":"成功路２４４巷２３號","OBJECTID":392454},"geometry":{"x":171381.24000000022,"y":2545855.2599999998}},{"attributes":{"ID":392479,"DIS_CODE":0,"TOWNNAME":"永康區","LI":"五王里","LIN":"23鄰","STREET":"成功路","SECT":" ","MAREA":" ","LANE":"２４４巷","ALLEY":" ","HOUSE_NO":"４３號","E_COORD97":171421.42000000001,"N_COORD97":2545878.2599999998,"ADDRESS":"成功路２４４巷４３號","OBJECTID":392455},"geometry":{"x":171421.42000000086,"y":2545878.2600000016}},{"attributes":{"ID":392480,"DIS_CODE":0,"TOWNNAME":"永康區","LI":"五王里","LIN":"23鄰","STREET":"成功路","SECT":" ","MAREA":" ","LANE":"２４４巷","ALLEY":" ","HOUSE_NO":"６０號","E_COORD97":171462.88,"N_COORD97":2545886.52,"ADDRESS":"成功路２４４巷６０號","OBJECTID":392456},"geometry":{"x":171462.87999999989,"y":2545886.5200000014}},{"attributes":{"ID":392481,"DIS_CODE":0,"TOWNNAME":"永康區","LI":"五王里","LIN":"23鄰","STREET":"成功路","SECT":" ","MAREA":" ","LANE":"２４４巷","ALLEY":" ","HOUSE_NO":"６７號","E_COORD97":171436.17999999999,"N_COORD97":2545931.52,"ADDRESS":"成功路２４４巷６７號","OBJECTID":392457},"geometry":{"x":171436.18000000063,"y":2545931.5199999996}},{"attributes":{"ID":392482,"DIS_CODE":0,"TOWNNAME":"永康區","LI":"五王里","LIN":"23鄰","STREET":"成功路","SECT":" ","MAREA":" ","LANE":"２４４巷","ALLEY":" ","HOUSE_NO":"６６號","E_COORD97":171479.23000000001,"N_COORD97":2545897.52,"ADDRESS":"成功路２４４巷６６號","OBJECTID":392458},"geometry":{"x":171479.23000000138,"y":2545897.5199999996}},{"attributes":{"ID":392483,"DIS_CODE":0,"TOWNNAME":"永康區","LI":"五王里","LIN":"23鄰","STREET":"成功路","SECT":" ","MAREA":" ","LANE":"２４４巷","ALLEY":" ","HOUSE_NO":"５６號","E_COORD97":171452.12,"N_COORD97":2545880.7599999998,"ADDRESS":"成功路２４４巷５６號","OBJECTID":392459},"geometry":{"x":171452.12000000197,"y":2545880.7600000016}},{"attributes":{"ID":392484,"DIS_CODE":0,"TOWNNAME":"永康區","LI":"\u25A0行里","LIN":"8鄰","STREET":"中正一街","SECT":" ","MAREA":" ","LANE":"３２巷","ALLEY":" ","HOUSE_NO":"３２號","E_COORD97":172980.56,"N_COORD97":2548378.7000000002,"ADDRESS":"中正一街３２巷３２號","OBJECTID":392460},"geometry":{"x":172980.55999999959,"y":2548378.700000003}},{"attributes":{"ID":392485,"DIS_CODE":0,"TOWNNAME":"永康區","LI":"五王里","LIN":"23鄰","STREET":"成功路","SECT":" ","MAREA":" ","LANE":"２４４巷","ALLEY":" ","HOUSE_NO":"３６號","E_COORD97":171410.35000000001,"N_COORD97":2545856.7599999998,"ADDRESS":"成功路２４４巷３６號","OBJECTID":392461},"geometry":{"x":171410.34999999963,"y":2545856.7600000016}},{"attributes":{"ID":392486,"DIS_CODE":0,"TOWNNAME":"永康區","LI":"五王里","LIN":"23鄰","STREET":"成功路","SECT":" ","MAREA":" ","LANE":"２４４巷","ALLEY":" ","HOUSE_NO":"７６號","E_COORD97":171458.89999999999,"N_COORD97":2545923.02,"ADDRESS":"成功路２４４巷７６號","OBJECTID":392462},"geometry":{"x":171458.90000000224,"y":2545923.0200000014}},{"attributes":{"ID":392487,"DIS_CODE":0,"TOWNNAME":"永康區","LI":"五王里","LIN":"23鄰","STREET":"成功路","SECT":" ","MAREA":" ","LANE":"２４４巷","ALLEY":" ","HOUSE_NO":"５８號","E_COORD97":171457.57000000001,"N_COORD97":2545883.7599999998,"ADDRESS":"成功路２４４巷５８號","OBJECTID":392463},"geometry":{"x":171457.5700000003,"y":2545883.7600000035}},{"attributes":{"ID":392488,"DIS_CODE":0,"TOWNNAME":"永康區","LI":"正強里","LIN":"23鄰","STREET":"中正路","SECT":" ","MAREA":" ","LANE":"１２７巷","ALLEY":" ","HOUSE_NO":"４０號","E_COORD97":173389.73000000001,"N_COORD97":2547762.75,"ADDRESS":"中正路１２７巷４０號","OBJECTID":392464},"geometry":{"x":173389.73000000138,"y":2547762.7500000019}},{"attributes":{"ID":392489,"DIS_CODE":0,"TOWNNAME":"永康區","LI":"正強里","LIN":"23鄰","STREET":"中正路","SECT":" ","MAREA":" ","LANE":"１２７巷","ALLEY":" ","HOUSE_NO":"４８號","E_COORD97":173395.85999999999,"N_COORD97":2547736.3999999999,"ADDRESS":"中正路１２７巷４８號","OBJECTID":392465},"geometry":{"x":173395.86000000127,"y":2547736.4000000004}},{"attributes":{"ID":392490,"DIS_CODE":0,"TOWNNAME":"永康區","LI":"復興里","LIN":"3鄰","STREET":"復興路","SECT":" ","MAREA":" ","LANE":"２７７巷","ALLEY":" ","HOUSE_NO":"８６號","E_COORD97":172354.64000000001,"N_COORD97":2544080.27,"ADDRESS":"復興路２７７巷８６號","OBJECTID":392466},"geometry":{"x":172354.63999999966,"y":2544080.2700000014}},{"attributes":{"ID":392491,"DIS_CODE":0,"TOWNNAME":"善化區","LI":"坐駕里","LIN":" ","STREET":"興華路","SECT":" ","MAREA":" ","LANE":"２８９巷","ALLEY":" ","HOUSE_NO":"１７號","E_COORD97":177816.89999999999,"N_COORD97":2558444.5,"ADDRESS":"興華路２８９巷１７號","OBJECTID":392467},"geometry":{"x":177816.90000000037,"y":2558444.5000000019}},{"attributes":{"ID":392492,"DIS_CODE":0,"TOWNNAME":"善化區","LI":"坐駕里","LIN":"10鄰","STREET":"自強路","SECT":" ","MAREA":" ","LANE":"１２７巷","ALLEY":" ","HOUSE_NO":"１５號","E_COORD97":177932.47,"N_COORD97":2558642.75,"ADDRESS":"自強路１２７巷１５號","OBJECTID":392468},"geometry":{"x":177932.47000000067,"y":2558642.7500000019}},{"attributes":{"ID":392493,"DIS_CODE":0,"TOWNNAME":"永康區","LI":"五王里","LIN":"23鄰","STREET":"成功路","SECT":" ","MAREA":" ","LANE":"２４４巷","ALLEY":" ","HOUSE_NO":"５７號","E_COORD97":171449.98999999999,"N_COORD97":2545904.02,"ADDRESS":"成功路２４４巷５７號","OBJECTID":392469},"geometry":{"x":171449.99000000115,"y":2545904.0199999996}},{"attributes":{"ID":392494,"DIS_CODE":0,"TOWNNAME":"永康區","LI":"正強里","LIN":"23鄰","STREET":"中正路","SECT":" ","MAREA":" ","LANE":"１２７巷","ALLEY":" ","HOUSE_NO":"５０號","E_COORD97":173397.67000000001,"N_COORD97":2547730.8999999999,"ADDRESS":"中正路１２７巷５０號","OBJECTID":392470},"geometry":{"x":173397.67000000179,"y":2547730.9000000041}},{"attributes":{"ID":392495,"DIS_CODE":0,"TOWNNAME":"永康區","LI":"正強里","LIN":"23鄰","STREET":"中正路","SECT":" ","MAREA":" ","LANE":"１２７巷","ALLEY":" ","HOUSE_NO":"４２號","E_COORD97":173391.07000000001,"N_COORD97":2547758.5,"ADDRESS":"中正路１２７巷４２號","OBJECTID":392471},"geometry":{"x":173391.07000000123,"y":2547758.5000000019}},{"attributes":{"ID":392496,"DIS_CODE":0,"TOWNNAME":"新市區","LI":"新和里","LIN":"23鄰","STREET":"中正路","SECT":" ","MAREA":" ","LANE":"１３９巷","ALLEY":" ","HOUSE_NO":"１１號","E_COORD97":177350.01999999999,"N_COORD97":2552726.5,"ADDRESS":"中正路１３９巷１１號","OBJECTID":392472},"geometry":{"x":177350.02000000048,"y":2552726.5}},{"attributes":{"ID":392497,"DIS_CODE":0,"TOWNNAME":"新市區","LI":"新和里","LIN":"23鄰","STREET":"中正路","SECT":" ","MAREA":" ","LANE":"１３９巷","ALLEY":" ","HOUSE_NO":"７號","E_COORD97":177349.32000000001,"N_COORD97":2552735,"ADDRESS":"中正路１３９巷７號","OBJECTID":392473},"geometry":{"x":177349.32000000123,"y":2552735.0000000019}},{"attributes":{"ID":392498,"DIS_CODE":0,"TOWNNAME":"東區","LI":"富強里","LIN":"23鄰","STREET":"裕農路","SECT":" ","MAREA":" ","LANE":"４４６巷","ALLEY":" ","HOUSE_NO":"１９之３號","E_COORD97":171255.63,"N_COORD97":2543094.1800000002,"ADDRESS":"裕農路４４６巷１９之３號","OBJECTID":392474},"geometry":{"x":171255.63000000082,"y":2543094.1800000016}},{"attributes":{"ID":392499,"DIS_CODE":0,"TOWNNAME":"東區","LI":"大同里","LIN":"23鄰","STREET":"大同路","SECT":"一段","MAREA":" ","LANE":"１９７巷","ALLEY":" ","HOUSE_NO":"５８號","E_COORD97":169257.54999999999,"N_COORD97":2542657.23,"ADDRESS":"大同路一段１９７巷５８號","OBJECTID":392475},"geometry":{"x":169257.55000000075,"y":2542657.2300000023}},{"attributes":{"ID":392500,"DIS_CODE":0,"TOWNNAME":"東區","LI":"大同里","LIN":"23鄰","STREET":"大同路","SECT":"一段","MAREA":" ","LANE":"２４１巷","ALLEY":" ","HOUSE_NO":"１０號","E_COORD97":169198.91,"N_COORD97":2542636.4500000002,"ADDRESS":"大同路一段２４１巷１０號","OBJECTID":392476},"geometry":{"x":169198.91000000201,"y":2542636.4499999993}},{"attributes":{"ID":392501,"DIS_CODE":0,"TOWNNAME":"東區","LI":"大同里","LIN":"23鄰","STREET":"大同路","SECT":"一段","MAREA":" ","LANE":"２４１巷","ALLEY":" ","HOUSE_NO":"１５號","E_COORD97":169181.57000000001,"N_COORD97":2542683.2999999998,"ADDRESS":"大同路一段２４１巷１５號","OBJECTID":392477},"geometry":{"x":169181.57000000123,"y":2542683.3000000007}},{"attributes":{"ID":392502,"DIS_CODE":0,"TOWNNAME":"善化區","LI":"東關里","LIN":"1鄰","STREET":"中正路","SECT":" ","MAREA":" ","LANE":"６６７巷","ALLEY":" ","HOUSE_NO":"２號","E_COORD97":177529.98000000001,"N_COORD97":2559544.75,"ADDRESS":"中正路６６７巷２號","OBJECTID":392478},"geometry":{"x":177529.98000000045,"y":2559544.7500000019}},{"attributes":{"ID":392503,"DIS_CODE":0,"TOWNNAME":"善化區","LI":"坐駕里","LIN":"10鄰","STREET":"自強路","SECT":" ","MAREA":" ","LANE":"１２７巷","ALLEY":" ","HOUSE_NO":"１６號","E_COORD97":177919.12,"N_COORD97":2558646.5,"ADDRESS":"自強路１２７巷１６號","OBJECTID":392479},"geometry":{"x":177919.12000000011,"y":2558646.5}},{"attributes":{"ID":392504,"DIS_CODE":0,"TOWNNAME":"東區","LI":"大同里","LIN":"23鄰","STREET":"大同路","SECT":"一段","MAREA":" ","LANE":"２４１巷","ALLEY":" ","HOUSE_NO":"１６號","E_COORD97":169213.04999999999,"N_COORD97":2542642.1699999999,"ADDRESS":"大同路一段２４１巷１６號","OBJECTID":392480},"geometry":{"x":169213.05000000168,"y":2542642.1699999999}},{"attributes":{"ID":392505,"DIS_CODE":0,"TOWNNAME":"東區","LI":"大同里","LIN":"23鄰","STREET":"大同路","SECT":"一段","MAREA":" ","LANE":"２４１巷","ALLEY":" ","HOUSE_NO":"２０號","E_COORD97":169233.51999999999,"N_COORD97":2542628,"ADDRESS":"大同路一段２４１巷２０號","OBJECTID":392481},"geometry":{"x":169233.52000000048,"y":2542628.0000000019}},{"attributes":{"ID":392506,"DIS_CODE":0,"TOWNNAME":"東區","LI":"大同里","LIN":"23鄰","STREET":"大同路","SECT":"一段","MAREA":" ","LANE":"２４１巷","ALLEY":" ","HOUSE_NO":"２４號","E_COORD97":169244.82999999999,"N_COORD97":2542623.9199999999,"ADDRESS":"大同路一段２４１巷２４號","OBJECTID":392482},"geometry":{"x":169244.83000000007,"y":2542623.9199999999}},{"attributes":{"ID":392507,"DIS_CODE":0,"TOWNNAME":"東區","LI":"大同里","LIN":"23鄰","STREET":"大同路","SECT":"一段","MAREA":" ","LANE":"２４１巷","ALLEY":" ","HOUSE_NO":"２６號","E_COORD97":169257.45000000001,"N_COORD97":2542626.2999999998,"ADDRESS":"大同路一段２４１巷２６號","OBJECTID":392483},"geometry":{"x":169257.45000000019,"y":2542626.3000000045}},{"attributes":{"ID":392508,"DIS_CODE":0,"TOWNNAME":"東區","LI":"大同里","LIN":"23鄰","STREET":"大同路","SECT":"一段","MAREA":" ","LANE":"２４１巷","ALLEY":" ","HOUSE_NO":"２９號","E_COORD97":169186.09,"N_COORD97":2542650.5,"ADDRESS":"大同路一段２４１巷２９號","OBJECTID":392484},"geometry":{"x":169186.09000000078,"y":2542650.5}},{"attributes":{"ID":392509,"DIS_CODE":0,"TOWNNAME":"中西區","LI":"西賢里","LIN":"23鄰","STREET":"西賢二街","SECT":" ","MAREA":" ","LANE":"１０９巷","ALLEY":" ","HOUSE_NO":"１號","E_COORD97":165557.79000000001,"N_COORD97":2544581.1699999999,"ADDRESS":"西賢二街１０９巷１號","OBJECTID":392485},"geometry":{"x":165557.79000000004,"y":2544581.1699999999}},{"attributes":{"ID":392510,"DIS_CODE":0,"TOWNNAME":"善化區","LI":"坐駕里","LIN":"14鄰","STREET":"和平路","SECT":" ","MAREA":" ","LANE":"１５巷","ALLEY":" ","HOUSE_NO":"７號","E_COORD97":178144.73999999999,"N_COORD97":2558616.5,"ADDRESS":"和平路１５巷７號","OBJECTID":392486},"geometry":{"x":178144.74000000115,"y":2558616.5000000037}},{"attributes":{"ID":392511,"DIS_CODE":0,"TOWNNAME":"善化區","LI":"坐駕里","LIN":"10鄰","STREET":"自強路","SECT":" ","MAREA":" ","LANE":"１１１巷","ALLEY":" ","HOUSE_NO":"７號","E_COORD97":177965.35000000001,"N_COORD97":2558661.25,"ADDRESS":"自強路１１１巷７號","OBJECTID":392487},"geometry":{"x":177965.35000000056,"y":2558661.25}},{"attributes":{"ID":392512,"DIS_CODE":0,"TOWNNAME":"善化區","LI":"坐駕里","LIN":"10鄰","STREET":"自強路","SECT":" ","MAREA":" ","LANE":"１１１巷","ALLEY":" ","HOUSE_NO":"１號","E_COORD97":177986.01999999999,"N_COORD97":2558676.5,"ADDRESS":"自強路１１１巷１號","OBJECTID":392488},"geometry":{"x":177986.02000000048,"y":2558676.5}},{"attributes":{"ID":392513,"DIS_CODE":0,"TOWNNAME":"中西區","LI":"西賢里","LIN":"23鄰","STREET":"西賢二街","SECT":" ","MAREA":" ","LANE":"１０９巷","ALLEY":" ","HOUSE_NO":"２號","E_COORD97":165554.60000000001,"N_COORD97":2544609.6400000001,"ADDRESS":"西賢二街１０９巷２號","OBJECTID":392489},"geometry":{"x":165554.60000000056,"y":2544609.6400000006}},{"attributes":{"ID":392514,"DIS_CODE":0,"TOWNNAME":"中西區","LI":"西賢里","LIN":"23鄰","STREET":"西賢二街","SECT":" ","MAREA":" ","LANE":"１０９巷","ALLEY":" ","HOUSE_NO":"３號","E_COORD97":165549.89000000001,"N_COORD97":2544580.79,"ADDRESS":"西賢二街１０９巷３號","OBJECTID":392490},"geometry":{"x":165549.88999999966,"y":2544580.7900000028}},{"attributes":{"ID":392515,"DIS_CODE":0,"TOWNNAME":"中西區","LI":"西賢里","LIN":"23鄰","STREET":"西賢二街","SECT":" ","MAREA":" ","LANE":"１０９巷","ALLEY":" ","HOUSE_NO":"５號","E_COORD97":165542.62,"N_COORD97":2544581.1699999999,"ADDRESS":"西賢二街１０９巷５號","OBJECTID":392491},"geometry":{"x":165542.62000000197,"y":2544581.1699999999}},{"attributes":{"ID":392516,"DIS_CODE":0,"TOWNNAME":"中西區","LI":"西賢里","LIN":"23鄰","STREET":"西賢二街","SECT":" ","MAREA":" ","LANE":"１０９巷","ALLEY":" ","HOUSE_NO":"６號","E_COORD97":165547.45999999999,"N_COORD97":2544608.1099999999,"ADDRESS":"西賢二街１０９巷６號","OBJECTID":392492},"geometry":{"x":165547.46000000089,"y":2544608.1099999994}},{"attributes":{"ID":392517,"DIS_CODE":0,"TOWNNAME":"中西區","LI":"西賢里","LIN":"23鄰","STREET":"西賢二街","SECT":" ","MAREA":" ","LANE":"１０９巷","ALLEY":" ","HOUSE_NO":"７號","E_COORD97":165538.54000000001,"N_COORD97":2544582.5699999998,"ADDRESS":"西賢二街１０９巷７號","OBJECTID":392493},"geometry":{"x":165538.54000000097,"y":2544582.5700000003}},{"attributes":{"ID":392518,"DIS_CODE":0,"TOWNNAME":"中西區","LI":"西賢里","LIN":"23鄰","STREET":"西賢二街","SECT":" ","MAREA":" ","LANE":"１０９巷","ALLEY":" ","HOUSE_NO":"８號","E_COORD97":165542.73999999999,"N_COORD97":2544609,"ADDRESS":"西賢二街１０９巷８號","OBJECTID":392494},"geometry":{"x":165542.74000000115,"y":2544609.0000000019}},{"attributes":{"ID":392519,"DIS_CODE":0,"TOWNNAME":"善化區","LI":"東關里","LIN":"1鄰","STREET":"中正路","SECT":" ","MAREA":" ","LANE":"６６７巷","ALLEY":" ","HOUSE_NO":"１號","E_COORD97":177527.13,"N_COORD97":2559561.75,"ADDRESS":"中正路６６７巷１號","OBJECTID":392495},"geometry":{"x":177527.12999999989,"y":2559561.7500000019}},{"attributes":{"ID":392520,"DIS_CODE":0,"TOWNNAME":"中西區","LI":"西賢里","LIN":"23鄰","STREET":"西賢二街","SECT":" ","MAREA":" ","LANE":"９９巷","ALLEY":" ","HOUSE_NO":"１０號","E_COORD97":165556.13,"N_COORD97":2544560.98,"ADDRESS":"西賢二街９９巷１０號","OBJECTID":392496},"geometry":{"x":165556.13000000082,"y":2544560.9800000023}},{"attributes":{"ID":392521,"DIS_CODE":0,"TOWNNAME":"中西區","LI":"西賢里","LIN":"23鄰","STREET":"西賢二街","SECT":" ","MAREA":" ","LANE":"９９巷","ALLEY":" ","HOUSE_NO":"１２號","E_COORD97":165548.98999999999,"N_COORD97":2544560.98,"ADDRESS":"西賢二街９９巷１２號","OBJECTID":392497},"geometry":{"x":165548.99000000115,"y":2544560.9800000023}},{"attributes":{"ID":392522,"DIS_CODE":0,"TOWNNAME":"中西區","LI":"西賢里","LIN":"23鄰","STREET":"西賢二街","SECT":" ","MAREA":" ","LANE":"９９巷","ALLEY":" ","HOUSE_NO":"１６號","E_COORD97":165542.62,"N_COORD97":2544561.1099999999,"ADDRESS":"西賢二街９９巷１６號","OBJECTID":392498},"geometry":{"x":165542.62000000197,"y":2544561.1099999994}},{"attributes":{"ID":392523,"DIS_CODE":0,"TOWNNAME":"中西區","LI":"西賢里","LIN":"23鄰","STREET":"西賢二街","SECT":" ","MAREA":" ","LANE":"９９巷","ALLEY":" ","HOUSE_NO":"１８號","E_COORD97":165536.88,"N_COORD97":2544560.3500000001,"ADDRESS":"西賢二街９９巷１８號","OBJECTID":392499},"geometry":{"x":165536.87999999989,"y":2544560.3499999978}},{"attributes":{"ID":392524,"DIS_CODE":0,"TOWNNAME":"中西區","LI":"西賢里","LIN":"23鄰","STREET":"西賢二街","SECT":" ","MAREA":" ","LANE":"９９巷","ALLEY":" ","HOUSE_NO":"２０號","E_COORD97":165529.79000000001,"N_COORD97":2544559.9300000002,"ADDRESS":"西賢二街９９巷２０號","OBJECTID":392500},"geometry":{"x":165529.79000000097,"y":2544559.9299999978}},{"attributes":{"ID":392525,"DIS_CODE":0,"TOWNNAME":"中西區","LI":"西賢里","LIN":"23鄰","STREET":"西賢二街","SECT":" ","MAREA":" ","LANE":"９９巷","ALLEY":" ","HOUSE_NO":"２號","E_COORD97":165573.60999999999,"N_COORD97":2544562,"ADDRESS":"西賢二街９９巷２號","OBJECTID":392501},"geometry":{"x":165573.6100000022,"y":2544562}},{"attributes":{"ID":392526,"DIS_CODE":0,"TOWNNAME":"中西區","LI":"西賢里","LIN":"23鄰","STREET":"西賢二街","SECT":" ","MAREA":" ","LANE":"９９巷","ALLEY":" ","HOUSE_NO":"６號","E_COORD97":165568.12,"N_COORD97":2544561.6200000001,"ADDRESS":"西賢二街９９巷６號","OBJECTID":392502},"geometry":{"x":165568.12000000197,"y":2544561.6200000029}},{"attributes":{"ID":392527,"DIS_CODE":0,"TOWNNAME":"中西區","LI":"西賢里","LIN":"23鄰","STREET":"西賢二街","SECT":" ","MAREA":" ","LANE":"９９巷","ALLEY":" ","HOUSE_NO":"８號","E_COORD97":165562.13,"N_COORD97":2544561.3700000001,"ADDRESS":"西賢二街９９巷８號","OBJECTID":392503},"geometry":{"x":165562.12999999989,"y":2544561.370000001}},{"attributes":{"ID":392528,"DIS_CODE":0,"TOWNNAME":"永康區","LI":"西勢里","LIN":"23鄰","STREET":"富強路","SECT":"一段","MAREA":" ","LANE":"１６８巷","ALLEY":" ","HOUSE_NO":"１號","E_COORD97":175606.89999999999,"N_COORD97":2546286.6099999999,"ADDRESS":"富強路一段１６８巷１號","OBJECTID":392504},"geometry":{"x":175606.90000000037,"y":2546286.6099999994}},{"attributes":{"ID":392529,"DIS_CODE":0,"TOWNNAME":"永康區","LI":"西勢里","LIN":"23鄰","STREET":"富強路","SECT":"一段","MAREA":" ","LANE":"１６８巷","ALLEY":" ","HOUSE_NO":"３號","E_COORD97":175613.92999999999,"N_COORD97":2546285.0800000001,"ADDRESS":"富強路一段１６８巷３號","OBJECTID":392505},"geometry":{"x":175613.9299999997,"y":2546285.0800000038}},{"attributes":{"ID":392530,"DIS_CODE":0,"TOWNNAME":"永康區","LI":"西勢里","LIN":"23鄰","STREET":"富強路","SECT":"一段","MAREA":" ","LANE":"１６８巷","ALLEY":" ","HOUSE_NO":"５號","E_COORD97":175618.29000000001,"N_COORD97":2546282.6899999999,"ADDRESS":"富強路一段１６８巷５號","OBJECTID":392506},"geometry":{"x":175618.29000000097,"y":2546282.6899999995}},{"attributes":{"ID":392531,"DIS_CODE":0,"TOWNNAME":"永康區","LI":"西勢里","LIN":"23鄰","STREET":"富強路","SECT":"一段","MAREA":" ","LANE":"１６８巷","ALLEY":" ","HOUSE_NO":"７號","E_COORD97":175622.57000000001,"N_COORD97":2546279.9900000002,"ADDRESS":"富強路一段１６８巷７號","OBJECTID":392507},"geometry":{"x":175622.5700000003,"y":2546279.9900000021}},{"attributes":{"ID":392532,"DIS_CODE":0,"TOWNNAME":"善化區","LI":"坐駕里","LIN":"10鄰","STREET":"自強路","SECT":" ","MAREA":" ","LANE":"１２７巷","ALLEY":" ","HOUSE_NO":"１３號","E_COORD97":177933.22,"N_COORD97":2558647.75,"ADDRESS":"自強路１２７巷１３號","OBJECTID":392508},"geometry":{"x":177933.21999999974,"y":2558647.75}},{"attributes":{"ID":392533,"DIS_CODE":0,"TOWNNAME":"善化區","LI":"坐駕里","LIN":"10鄰","STREET":"自強路","SECT":" ","MAREA":" ","LANE":"１２７巷","ALLEY":" ","HOUSE_NO":"７號","E_COORD97":177941.56,"N_COORD97":2558662.5,"ADDRESS":"自強路１２７巷７號","OBJECTID":392509},"geometry":{"x":177941.56000000052,"y":2558662.5}},{"attributes":{"ID":392534,"DIS_CODE":0,"TOWNNAME":"永康區","LI":"西勢里","LIN":"23鄰","STREET":"富強路","SECT":"一段","MAREA":" ","LANE":"１６８巷","ALLEY":" ","HOUSE_NO":"９號","E_COORD97":175624.39000000001,"N_COORD97":2546275.3199999998,"ADDRESS":"富強路一段１６８巷９號","OBJECTID":392510},"geometry":{"x":175624.38999999966,"y":2546275.3200000003}},{"attributes":{"ID":392535,"DIS_CODE":0,"TOWNNAME":"永康區","LI":"西勢里","LIN":"23鄰","STREET":"富強路","SECT":"一段","MAREA":" ","LANE":"１６８巷","ALLEY":" ","HOUSE_NO":"１１號","E_COORD97":175628.84,"N_COORD97":2546274.1299999999,"ADDRESS":"富強路一段１６８巷１１號","OBJECTID":392511},"geometry":{"x":175628.83999999985,"y":2546274.1300000008}},{"attributes":{"ID":392536,"DIS_CODE":0,"TOWNNAME":"永康區","LI":"西勢里","LIN":"23鄰","STREET":"富強路","SECT":"一段","MAREA":" ","LANE":"１６８巷","ALLEY":" ","HOUSE_NO":"１３號","E_COORD97":175632,"N_COORD97":2546271.1800000002,"ADDRESS":"富強路一段１６８巷１３號","OBJECTID":392512},"geometry":{"x":175632.00000000093,"y":2546271.1800000016}},{"attributes":{"ID":392537,"DIS_CODE":0,"TOWNNAME":"永康區","LI":"西勢里","LIN":"23鄰","STREET":"富強路","SECT":"一段","MAREA":" ","LANE":"１６８巷","ALLEY":" ","HOUSE_NO":"１５號","E_COORD97":175634.19,"N_COORD97":2546267.8399999999,"ADDRESS":"富強路一段１６８巷１５號","OBJECTID":392513},"geometry":{"x":175634.19000000134,"y":2546267.8400000017}},{"attributes":{"ID":392538,"DIS_CODE":0,"TOWNNAME":"永康區","LI":"西勢里","LIN":"23鄰","STREET":"富強路","SECT":"一段","MAREA":" ","LANE":"１６８巷","ALLEY":" ","HOUSE_NO":"１７號","E_COORD97":175638.29000000001,"N_COORD97":2546265.2999999998,"ADDRESS":"富強路一段１６８巷１７號","OBJECTID":392514},"geometry":{"x":175638.29000000097,"y":2546265.3000000026}},{"attributes":{"ID":392539,"DIS_CODE":0,"TOWNNAME":"永康區","LI":"西勢里","LIN":"23鄰","STREET":"富強路","SECT":"一段","MAREA":" ","LANE":"１６８巷","ALLEY":" ","HOUSE_NO":"１９號","E_COORD97":175641.42000000001,"N_COORD97":2546262.3799999999,"ADDRESS":"富強路一段１６８巷１９號","OBJECTID":392515},"geometry":{"x":175641.41999999993,"y":2546262.3800000008}},{"attributes":{"ID":392540,"DIS_CODE":0,"TOWNNAME":"永康區","LI":"西勢里","LIN":"23鄰","STREET":"富強路","SECT":"一段","MAREA":" ","LANE":"１６８巷","ALLEY":" ","HOUSE_NO":"２１號","E_COORD97":175643.07000000001,"N_COORD97":2546257.8799999999,"ADDRESS":"富強路一段１６８巷２１號","OBJECTID":392516},"geometry":{"x":175643.06999999937,"y":2546257.879999999}},{"attributes":{"ID":392541,"DIS_CODE":0,"TOWNNAME":"永康區","LI":"西勢里","LIN":"23鄰","STREET":"富強路","SECT":"一段","MAREA":" ","LANE":"１６８巷","ALLEY":" ","HOUSE_NO":"２３號","E_COORD97":175648.22,"N_COORD97":2546256.0299999998,"ADDRESS":"富強路一段１６８巷２３號","OBJECTID":392517},"geometry":{"x":175648.21999999881,"y":2546256.0299999993}},{"attributes":{"ID":392542,"DIS_CODE":0,"TOWNNAME":"永康區","LI":"西勢里","LIN":"23鄰","STREET":"富強路","SECT":"一段","MAREA":" ","LANE":"１６８巷","ALLEY":" ","HOUSE_NO":"２５號","E_COORD97":175651.85999999999,"N_COORD97":2546252.6299999999,"ADDRESS":"富強路一段１６８巷２５號","OBJECTID":392518},"geometry":{"x":175651.86000000127,"y":2546252.629999999}},{"attributes":{"ID":392543,"DIS_CODE":0,"TOWNNAME":"永康區","LI":"西勢里","LIN":"23鄰","STREET":"富強路","SECT":"一段","MAREA":" ","LANE":"１６８巷","ALLEY":" ","HOUSE_NO":"２７號","E_COORD97":175654.95999999999,"N_COORD97":2546249.73,"ADDRESS":"富強路一段１６８巷２７號","OBJECTID":392519},"geometry":{"x":175654.95999999996,"y":2546249.7300000004}},{"attributes":{"ID":392544,"DIS_CODE":0,"TOWNNAME":"永康區","LI":"西勢里","LIN":"23鄰","STREET":"富強路","SECT":"一段","MAREA":" ","LANE":"１６８巷","ALLEY":" ","HOUSE_NO":"２９號","E_COORD97":175658.12,"N_COORD97":2546246.77,"ADDRESS":"富強路一段１６８巷２９號","OBJECTID":392520},"geometry":{"x":175658.12000000104,"y":2546246.7700000014}},{"attributes":{"ID":392545,"DIS_CODE":0,"TOWNNAME":"永康區","LI":"西勢里","LIN":"23鄰","STREET":"富強路","SECT":"一段","MAREA":" ","LANE":"１６８巷","ALLEY":" ","HOUSE_NO":"３１號","E_COORD97":175659.59,"N_COORD97":2546242.4700000002,"ADDRESS":"富強路一段１６８巷３１號","OBJECTID":392521},"geometry":{"x":175659.59000000171,"y":2546242.4700000044}},{"attributes":{"ID":392546,"DIS_CODE":0,"TOWNNAME":"永康區","LI":"西勢里","LIN":"23鄰","STREET":"富強路","SECT":"一段","MAREA":" ","LANE":"１６８巷","ALLEY":" ","HOUSE_NO":"３３號","E_COORD97":175664.42999999999,"N_COORD97":2546240.8799999999,"ADDRESS":"富強路一段１６８巷３３號","OBJECTID":392522},"geometry":{"x":175664.43000000063,"y":2546240.879999999}},{"attributes":{"ID":392547,"DIS_CODE":0,"TOWNNAME":"永康區","LI":"西勢里","LIN":"23鄰","STREET":"富強路","SECT":"一段","MAREA":" ","LANE":"１６８巷","ALLEY":" ","HOUSE_NO":"３５號","E_COORD97":175667.56,"N_COORD97":2546237.96,"ADDRESS":"富強路一段１６８巷３５號","OBJECTID":392523},"geometry":{"x":175667.55999999959,"y":2546237.9600000009}},{"attributes":{"ID":392548,"DIS_CODE":0,"TOWNNAME":"永康區","LI":"西勢里","LIN":"23鄰","STREET":"富強路","SECT":"一段","MAREA":" ","LANE":"１６８巷","ALLEY":" ","HOUSE_NO":"３７號","E_COORD97":175669.16,"N_COORD97":2546233.54,"ADDRESS":"富強路一段１６８巷３７號","OBJECTID":392524},"geometry":{"x":175669.16000000015,"y":2546233.5400000028}},{"attributes":{"ID":392549,"DIS_CODE":0,"TOWNNAME":"永康區","LI":"西勢里","LIN":"23鄰","STREET":"富強路","SECT":"一段","MAREA":" ","LANE":"１６８巷","ALLEY":" ","HOUSE_NO":"３９號","E_COORD97":175669.95999999999,"N_COORD97":2546227.54,"ADDRESS":"富強路一段１６８巷３９號","OBJECTID":392525},"geometry":{"x":175669.95999999996,"y":2546227.540000001}},{"attributes":{"ID":392550,"DIS_CODE":0,"TOWNNAME":"永康區","LI":"西勢里","LIN":"23鄰","STREET":"富強路","SECT":"一段","MAREA":" ","LANE":"１６８巷","ALLEY":" ","HOUSE_NO":"４１號","E_COORD97":175673.23000000001,"N_COORD97":2546224.5,"ADDRESS":"富強路一段１６８巷４１號","OBJECTID":392526},"geometry":{"x":175673.23000000138,"y":2546224.5000000037}},{"attributes":{"ID":392551,"DIS_CODE":0,"TOWNNAME":"永康區","LI":"西勢里","LIN":"23鄰","STREET":"富強路","SECT":"一段","MAREA":" ","LANE":"１６８巷","ALLEY":" ","HOUSE_NO":"４３號","E_COORD97":175676.48999999999,"N_COORD97":2546221.46,"ADDRESS":"富強路一段１６８巷４３號","OBJECTID":392527},"geometry":{"x":175676.49000000115,"y":2546221.4600000009}},{"attributes":{"ID":392552,"DIS_CODE":0,"TOWNNAME":"永康區","LI":"西勢里","LIN":"23鄰","STREET":"富強路","SECT":"一段","MAREA":" ","LANE":"１６８巷","ALLEY":" ","HOUSE_NO":"４５號","E_COORD97":175682.94,"N_COORD97":2546218.5,"ADDRESS":"富強路一段１６８巷４５號","OBJECTID":392528},"geometry":{"x":175682.94000000041,"y":2546218.5000000019}},{"attributes":{"ID":392553,"DIS_CODE":0,"TOWNNAME":"永康區","LI":"西勢里","LIN":"23鄰","STREET":"富強路","SECT":"一段","MAREA":" ","LANE":"１６８巷","ALLEY":" ","HOUSE_NO":"２號","E_COORD97":175576.56,"N_COORD97":2546271.0800000001,"ADDRESS":"富強路一段１６８巷２號","OBJECTID":392529},"geometry":{"x":175576.56000000052,"y":2546271.0800000001}},{"attributes":{"ID":392554,"DIS_CODE":0,"TOWNNAME":"永康區","LI":"西勢里","LIN":"23鄰","STREET":"富強路","SECT":"一段","MAREA":" ","LANE":"１６８巷","ALLEY":" ","HOUSE_NO":"８號","E_COORD97":175594.45999999999,"N_COORD97":2546265.3999999999,"ADDRESS":"富強路一段１６８巷８號","OBJECTID":392530},"geometry":{"x":175594.46000000183,"y":2546265.4000000004}},{"attributes":{"ID":392555,"DIS_CODE":0,"TOWNNAME":"永康區","LI":"西勢里","LIN":"23鄰","STREET":"富強路","SECT":"一段","MAREA":" ","LANE":"１６８巷","ALLEY":" ","HOUSE_NO":"１０號","E_COORD97":175596.01999999999,"N_COORD97":2546257.8599999999,"ADDRESS":"富強路一段１６８巷１０號","OBJECTID":392531},"geometry":{"x":175596.02000000048,"y":2546257.8599999994}},{"attributes":{"ID":392556,"DIS_CODE":0,"TOWNNAME":"永康區","LI":"西勢里","LIN":"23鄰","STREET":"富強路","SECT":"一段","MAREA":" ","LANE":"１６８巷","ALLEY":" ","HOUSE_NO":"１２號","E_COORD97":175599.85000000001,"N_COORD97":2546254.3700000001,"ADDRESS":"富強路一段１６８巷１２號","OBJECTID":392532},"geometry":{"x":175599.85000000149,"y":2546254.3700000029}},{"attributes":{"ID":392557,"DIS_CODE":0,"TOWNNAME":"永康區","LI":"西勢里","LIN":"23鄰","STREET":"富強路","SECT":"一段","MAREA":" ","LANE":"１６８巷","ALLEY":" ","HOUSE_NO":"１６號","E_COORD97":175604.13,"N_COORD97":2546252.5899999999,"ADDRESS":"富強路一段１６８巷１６號","OBJECTID":392533},"geometry":{"x":175604.13000000082,"y":2546252.5900000017}},{"attributes":{"ID":392558,"DIS_CODE":0,"TOWNNAME":"善化區","LI":"坐駕里","LIN":"10鄰","STREET":"自強路","SECT":" ","MAREA":" ","LANE":"１２７巷","ALLEY":" ","HOUSE_NO":"１１號","E_COORD97":177936.57000000001,"N_COORD97":2558652.5,"ADDRESS":"自強路１２７巷１１號","OBJECTID":392534},"geometry":{"x":177936.5700000003,"y":2558652.5}},{"attributes":{"ID":392559,"DIS_CODE":0,"TOWNNAME":"善化區","LI":"坐駕里","LIN":"10鄰","STREET":"自強路","SECT":" ","MAREA":" ","LANE":"１２７巷","ALLEY":" ","HOUSE_NO":"９號","E_COORD97":177938.35999999999,"N_COORD97":2558657,"ADDRESS":"自強路１２７巷９號","OBJECTID":392535},"geometry":{"x":177938.36000000127,"y":2558657.0000000037}},{"attributes":{"ID":392560,"DIS_CODE":0,"TOWNNAME":"永康區","LI":"西勢里","LIN":"23鄰","STREET":"富強路","SECT":"一段","MAREA":" ","LANE":"１６８巷","ALLEY":" ","HOUSE_NO":"１８號","E_COORD97":175606.39999999999,"N_COORD97":2546248.3900000001,"ADDRESS":"富強路一段１６８巷１８號","OBJECTID":392536},"geometry":{"x":175606.40000000037,"y":2546248.3900000006}},{"attributes":{"ID":392561,"DIS_CODE":0,"TOWNNAME":"永康區","LI":"西勢里","LIN":"23鄰","STREET":"富強路","SECT":"一段","MAREA":" ","LANE":"１６８巷","ALLEY":" ","HOUSE_NO":"２０號","E_COORD97":175610.89000000001,"N_COORD97":2546246.3999999999,"ADDRESS":"富強路一段１６８巷２０號","OBJECTID":392537},"geometry":{"x":175610.88999999966,"y":2546246.4000000022}},{"attributes":{"ID":392562,"DIS_CODE":0,"TOWNNAME":"永康區","LI":"西勢里","LIN":"23鄰","STREET":"富強路","SECT":"一段","MAREA":" ","LANE":"１６８巷","ALLEY":" ","HOUSE_NO":"２２號","E_COORD97":175612.95000000001,"N_COORD97":2546242.4100000001,"ADDRESS":"富強路一段１６８巷２２號","OBJECTID":392538},"geometry":{"x":175612.95000000019,"y":2546242.4100000039}},{"attributes":{"ID":392563,"DIS_CODE":0,"TOWNNAME":"永康區","LI":"西勢里","LIN":"23鄰","STREET":"富強路","SECT":"一段","MAREA":" ","LANE":"１６８巷","ALLEY":" ","HOUSE_NO":"２６號","E_COORD97":175616.23000000001,"N_COORD97":2546239.4199999999,"ADDRESS":"富強路一段１６８巷２６號","OBJECTID":392539},"geometry":{"x":175616.23000000045,"y":2546239.4200000018}},{"attributes":{"ID":392564,"DIS_CODE":0,"TOWNNAME":"永康區","LI":"西勢里","LIN":"23鄰","STREET":"富強路","SECT":"一段","MAREA":" ","LANE":"１６８巷","ALLEY":" ","HOUSE_NO":"２８號","E_COORD97":175619.51000000001,"N_COORD97":2546236.4300000002,"ADDRESS":"富強路一段１６８巷２８號","OBJECTID":392540},"geometry":{"x":175619.51000000071,"y":2546236.4300000016}},{"attributes":{"ID":392565,"DIS_CODE":0,"TOWNNAME":"善化區","LI":"坐駕里","LIN":"14鄰","STREET":"和平路","SECT":" ","MAREA":" ","LANE":"１５巷","ALLEY":" ","HOUSE_NO":"３號","E_COORD97":178137.79000000001,"N_COORD97":2558601.25,"ADDRESS":"和平路１５巷３號","OBJECTID":392541},"geometry":{"x":178137.79000000004,"y":2558601.2500000037}},{"attributes":{"ID":392566,"DIS_CODE":0,"TOWNNAME":"善化區","LI":"坐駕里","LIN":"14鄰","STREET":"和平路","SECT":" ","MAREA":" ","LANE":"１５巷","ALLEY":" ","HOUSE_NO":"１號","E_COORD97":178147.98999999999,"N_COORD97":2558603,"ADDRESS":"和平路１５巷１號","OBJECTID":392542},"geometry":{"x":178147.99000000115,"y":2558603.0000000037}},{"attributes":{"ID":392567,"DIS_CODE":0,"TOWNNAME":"永康區","LI":"西勢里","LIN":"23鄰","STREET":"富強路","SECT":"一段","MAREA":" ","LANE":"１６８巷","ALLEY":" ","HOUSE_NO":"３８號","E_COORD97":175629.85000000001,"N_COORD97":2546222.1200000001,"ADDRESS":"富強路一段１６８巷３８號","OBJECTID":392543},"geometry":{"x":175629.84999999963,"y":2546222.1200000029}},{"attributes":{"ID":392568,"DIS_CODE":0,"TOWNNAME":"永康區","LI":"西勢里","LIN":"23鄰","STREET":"富強路","SECT":"一段","MAREA":" ","LANE":"１６８巷","ALLEY":" ","HOUSE_NO":"４０號","E_COORD97":175638.48000000001,"N_COORD97":2546223.9399999999,"ADDRESS":"富強路一段１６８巷４０號","OBJECTID":392544},"geometry":{"x":175638.48000000045,"y":2546223.9399999995}},{"attributes":{"ID":392569,"DIS_CODE":0,"TOWNNAME":"永康區","LI":"西勢里","LIN":"23鄰","STREET":"富強路","SECT":"一段","MAREA":" ","LANE":"１６８巷","ALLEY":" ","HOUSE_NO":"４２號","E_COORD97":175640.79000000001,"N_COORD97":2546219.8500000001,"ADDRESS":"富強路一段１６８巷４２號","OBJECTID":392545},"geometry":{"x":175640.79000000004,"y":2546219.8500000015}},{"attributes":{"ID":392570,"DIS_CODE":0,"TOWNNAME":"永康區","LI":"西勢里","LIN":"23鄰","STREET":"富強路","SECT":"一段","MAREA":" ","LANE":"１６８巷","ALLEY":" ","HOUSE_NO":"４６號","E_COORD97":175644.07000000001,"N_COORD97":2546216.8300000001,"ADDRESS":"富強路一段１６８巷４６號","OBJECTID":392546},"geometry":{"x":175644.0700000003,"y":2546216.8300000019}},{"attributes":{"ID":392571,"DIS_CODE":0,"TOWNNAME":"永康區","LI":"西勢里","LIN":"23鄰","STREET":"富強路","SECT":"一段","MAREA":" ","LANE":"１６８巷","ALLEY":" ","HOUSE_NO":"４８號","E_COORD97":175647.01999999999,"N_COORD97":2546213.27,"ADDRESS":"富強路一段１６８巷４８號","OBJECTID":392547},"geometry":{"x":175647.01999999955,"y":2546213.2700000014}},{"attributes":{"ID":392572,"DIS_CODE":0,"TOWNNAME":"永康區","LI":"西勢里","LIN":"23鄰","STREET":"富強路","SECT":"一段","MAREA":" ","LANE":"１６８巷","ALLEY":" ","HOUSE_NO":"５０號","E_COORD97":175646.39999999999,"N_COORD97":2546206.8700000001,"ADDRESS":"富強路一段１６８巷５０號","OBJECTID":392548},"geometry":{"x":175646.4000000013,"y":2546206.8700000029}},{"attributes":{"ID":392573,"DIS_CODE":0,"TOWNNAME":"永康區","LI":"西勢里","LIN":"23鄰","STREET":"富強路","SECT":"一段","MAREA":" ","LANE":"１６８巷","ALLEY":" ","HOUSE_NO":"５２號","E_COORD97":175649.57999999999,"N_COORD97":2546203.9300000002,"ADDRESS":"富強路一段１６８巷５２號","OBJECTID":392549},"geometry":{"x":175649.58000000194,"y":2546203.9299999997}},{"attributes":{"ID":392574,"DIS_CODE":0,"TOWNNAME":"善化區","LI":"坐駕里","LIN":"10鄰","STREET":"自強路","SECT":" ","MAREA":" ","LANE":"１１１巷","ALLEY":" ","HOUSE_NO":"４號","E_COORD97":177973.48000000001,"N_COORD97":2558679.2400000002,"ADDRESS":"自強路１１１巷４號","OBJECTID":392550},"geometry":{"x":177973.48000000138,"y":2558679.2399999984}},{"attributes":{"ID":392575,"DIS_CODE":0,"TOWNNAME":"善化區","LI":"坐駕里","LIN":"10鄰","STREET":"自強路","SECT":" ","MAREA":" ","LANE":"１２７巷","ALLEY":" ","HOUSE_NO":"５號","E_COORD97":177944.26999999999,"N_COORD97":2558667,"ADDRESS":"自強路１２７巷５號","OBJECTID":392551},"geometry":{"x":177944.26999999955,"y":2558667}},{"attributes":{"ID":392576,"DIS_CODE":0,"TOWNNAME":"永康區","LI":"西勢里","LIN":"23鄰","STREET":"富強路","SECT":"一段","MAREA":" ","LANE":"１６８巷","ALLEY":" ","HOUSE_NO":"５６號","E_COORD97":175652.73000000001,"N_COORD97":2546201.02,"ADDRESS":"富強路一段１６８巷５６號","OBJECTID":392552},"geometry":{"x":175652.73000000138,"y":2546201.0200000014}},{"attributes":{"ID":392577,"DIS_CODE":0,"TOWNNAME":"永康區","LI":"五王里","LIN":"23鄰","STREET":"成功路","SECT":" ","MAREA":" ","LANE":"２４４巷","ALLEY":" ","HOUSE_NO":"３４號","E_COORD97":171384.57000000001,"N_COORD97":2545838.7200000002,"ADDRESS":"成功路２４４巷３４號","OBJECTID":392553},"geometry":{"x":171384.5700000003,"y":2545838.7200000025}},{"attributes":{"ID":392578,"DIS_CODE":0,"TOWNNAME":"善化區","LI":"坐駕里","LIN":"10鄰","STREET":"自強路","SECT":" ","MAREA":" ","LANE":"１２７巷","ALLEY":" ","HOUSE_NO":"３號","E_COORD97":177947.35999999999,"N_COORD97":2558672.75,"ADDRESS":"自強路１２７巷３號","OBJECTID":392554},"geometry":{"x":177947.36000000127,"y":2558672.7500000019}},{"attributes":{"ID":392579,"DIS_CODE":0,"TOWNNAME":"善化區","LI":"坐駕里","LIN":"10鄰","STREET":"自強路","SECT":" ","MAREA":" ","LANE":"１２７巷","ALLEY":" ","HOUSE_NO":"１０號","E_COORD97":177925.22,"N_COORD97":2558657.25,"ADDRESS":"自強路１２７巷１０號","OBJECTID":392555},"geometry":{"x":177925.22000000067,"y":2558657.25}},{"attributes":{"ID":392580,"DIS_CODE":0,"TOWNNAME":"永康區","LI":"東灣里","LIN":"23鄰","STREET":"大灣二街","SECT":" ","MAREA":" ","LANE":"３８巷","ALLEY":" ","HOUSE_NO":"１６號","E_COORD97":174941.79999999999,"N_COORD97":2544755.5099999998,"ADDRESS":"大灣二街３８巷１６號","OBJECTID":392556},"geometry":{"x":174941.80000000075,"y":2544755.5099999998}},{"attributes":{"ID":392581,"DIS_CODE":0,"TOWNNAME":"永康區","LI":"正強里","LIN":"23鄰","STREET":"自強路","SECT":" ","MAREA":" ","LANE":"２５５巷","ALLEY":" ","HOUSE_NO":"２４號","E_COORD97":173190.23000000001,"N_COORD97":2547623.2400000002,"ADDRESS":"自強路２５５巷２４號","OBJECTID":392557},"geometry":{"x":173190.23000000045,"y":2547623.2399999984}},{"attributes":{"ID":392582,"DIS_CODE":0,"TOWNNAME":"永康區","LI":"安康里","LIN":"23鄰","STREET":"中華路","SECT":" ","MAREA":" ","LANE":"７０３巷","ALLEY":" ","HOUSE_NO":"６９號","E_COORD97":170744.01999999999,"N_COORD97":2546227.75,"ADDRESS":"中華路７０３巷６９號","OBJECTID":392558},"geometry":{"x":170744.02000000048,"y":2546227.7500000019}},{"attributes":{"ID":392583,"DIS_CODE":0,"TOWNNAME":"永康區","LI":"埔園里","LIN":"23鄰","STREET":"自強路","SECT":" ","MAREA":" ","LANE":"３７９巷","ALLEY":" ","HOUSE_NO":"４９號","E_COORD97":173586.06,"N_COORD97":2548003,"ADDRESS":"自強路３７９巷４９號","OBJECTID":392559},"geometry":{"x":173586.05999999959,"y":2548003}},{"attributes":{"ID":392584,"DIS_CODE":0,"TOWNNAME":"永康區","LI":"北灣里","LIN":"23鄰","STREET":"大灣路","SECT":" ","MAREA":" ","LANE":"４０巷","ALLEY":" ","HOUSE_NO":"１０號","E_COORD97":175267.89000000001,"N_COORD97":2545930.25,"ADDRESS":"大灣路４０巷１０號","OBJECTID":392560},"geometry":{"x":175267.8900000006,"y":2545930.25}},{"attributes":{"ID":392585,"DIS_CODE":0,"TOWNNAME":"永康區","LI":"西勢里","LIN":"23鄰","STREET":"富強路","SECT":"一段","MAREA":" ","LANE":"１９４巷","ALLEY":" ","HOUSE_NO":"２４號","E_COORD97":175659.76999999999,"N_COORD97":2546289.5699999998,"ADDRESS":"富強路一段１９４巷２４號","OBJECTID":392561},"geometry":{"x":175659.77000000142,"y":2546289.5700000022}},{"attributes":{"ID":392586,"DIS_CODE":0,"TOWNNAME":"永康區","LI":"安康里","LIN":"23鄰","STREET":"中華路","SECT":" ","MAREA":" ","LANE":"７０３巷","ALLEY":" ","HOUSE_NO":"４７號","E_COORD97":170787.89000000001,"N_COORD97":2546253.2400000002,"ADDRESS":"中華路７０３巷４７號","OBJECTID":392562},"geometry":{"x":170787.88999999966,"y":2546253.2400000002}},{"attributes":{"ID":392587,"DIS_CODE":0,"TOWNNAME":"永康區","LI":"北灣里","LIN":"23鄰","STREET":"大灣路","SECT":" ","MAREA":" ","LANE":"１２巷","ALLEY":" ","HOUSE_NO":"１４號","E_COORD97":175312.38,"N_COORD97":2546012.4500000002,"ADDRESS":"大灣路１２巷１４號","OBJECTID":392563},"geometry":{"x":175312.38000000082,"y":2546012.4499999993}},{"attributes":{"ID":392588,"DIS_CODE":0,"TOWNNAME":"安南區","LI":"溪頂里","LIN":"23鄰","STREET":"泰安街","SECT":" ","MAREA":" ","LANE":"１６巷","ALLEY":" ","HOUSE_NO":"２３號","E_COORD97":168922.5,"N_COORD97":2547560.5899999999,"ADDRESS":"泰安街１６巷２３號","OBJECTID":392564},"geometry":{"x":168922.50000000093,"y":2547560.5900000017}},{"attributes":{"ID":392589,"DIS_CODE":0,"TOWNNAME":"安南區","LI":"溪頂里","LIN":"23鄰","STREET":"泰安街","SECT":" ","MAREA":" ","LANE":"１６巷","ALLEY":" ","HOUSE_NO":"３號","E_COORD97":168817.01999999999,"N_COORD97":2547563.73,"ADDRESS":"泰安街１６巷３號","OBJECTID":392565},"geometry":{"x":168817.02000000048,"y":2547563.7300000023}},{"attributes":{"ID":392590,"DIS_CODE":0,"TOWNNAME":"安南區","LI":"溪頂里","LIN":"23鄰","STREET":"泰安街","SECT":" ","MAREA":" ","LANE":"１６巷","ALLEY":" ","HOUSE_NO":"５號","E_COORD97":168821.67000000001,"N_COORD97":2547563.7999999998,"ADDRESS":"泰安街１６巷５號","OBJECTID":392566},"geometry":{"x":168821.66999999993,"y":2547563.8000000026}},{"attributes":{"ID":392591,"DIS_CODE":0,"TOWNNAME":"中西區","LI":"天后里","LIN":"23鄰","STREET":"赤嵌街","SECT":" ","MAREA":" ","LANE":"４５巷","ALLEY":" ","HOUSE_NO":"９號","E_COORD97":168208.87,"N_COORD97":2544367.8199999998,"ADDRESS":"赤嵌街４５巷９號","OBJECTID":392567},"geometry":{"x":168208.87000000011,"y":2544367.8200000003}},{"attributes":{"ID":392592,"DIS_CODE":0,"TOWNNAME":"仁德區","LI":"後壁里","LIN":"23鄰","STREET":"中正路","SECT":"二段","MAREA":" ","LANE":"９７巷","ALLEY":" ","HOUSE_NO":"８４號","E_COORD97":173040.48999999999,"N_COORD97":2538666.0299999998,"ADDRESS":"中正路二段９７巷８４號","OBJECTID":392568},"geometry":{"x":173040.49000000115,"y":2538666.0299999993}},{"attributes":{"ID":392593,"DIS_CODE":0,"TOWNNAME":"仁德區","LI":"後壁里","LIN":"23鄰","STREET":"中正路","SECT":"二段","MAREA":" ","LANE":"９７巷","ALLEY":" ","HOUSE_NO":"８６號","E_COORD97":173029.98999999999,"N_COORD97":2538676.7799999998,"ADDRESS":"中正路二段９７巷８６號","OBJECTID":392569},"geometry":{"x":173029.99000000115,"y":2538676.7799999993}},{"attributes":{"ID":392594,"DIS_CODE":0,"TOWNNAME":"仁德區","LI":"後壁里","LIN":"23鄰","STREET":"中正路","SECT":"二段","MAREA":" ","LANE":"９７巷","ALLEY":" ","HOUSE_NO":"６６號","E_COORD97":173107.34,"N_COORD97":2538618.02,"ADDRESS":"中正路二段９７巷６６號","OBJECTID":392570},"geometry":{"x":173107.34000000078,"y":2538618.0199999996}},{"attributes":{"ID":392595,"DIS_CODE":0,"TOWNNAME":"仁德區","LI":"後壁里","LIN":"23鄰","STREET":"中正路","SECT":"二段","MAREA":" ","LANE":"９７巷","ALLEY":" ","HOUSE_NO":"７４號","E_COORD97":173048.51000000001,"N_COORD97":2538628.52,"ADDRESS":"中正路二段９７巷７４號","OBJECTID":392571},"geometry":{"x":173048.51000000071,"y":2538628.5199999996}},{"attributes":{"ID":392596,"DIS_CODE":0,"TOWNNAME":"仁德區","LI":"大甲里","LIN":"23鄰","STREET":"中正西路","SECT":" ","MAREA":" ","LANE":"１１９２巷","ALLEY":" ","HOUSE_NO":"１９０號","E_COORD97":168081.67000000001,"N_COORD97":2536042.8199999998,"ADDRESS":"中正西路１１９２巷１９０號","OBJECTID":392572},"geometry":{"x":168081.67000000179,"y":2536042.8200000022}},{"attributes":{"ID":392597,"DIS_CODE":0,"TOWNNAME":"仁德區","LI":"大甲里","LIN":"23鄰","STREET":"行大街","SECT":" ","MAREA":" ","LANE":"４０２巷","ALLEY":" ","HOUSE_NO":"３６號","E_COORD97":169590.14999999999,"N_COORD97":2535242.6499999999,"ADDRESS":"行大街４０２巷３６號","OBJECTID":392573},"geometry":{"x":169590.15000000037,"y":2535242.6500000041}},{"attributes":{"ID":392598,"DIS_CODE":0,"TOWNNAME":"仁德區","LI":"保安里","LIN":"23鄰","STREET":"保學一街","SECT":" ","MAREA":" ","LANE":"１７巷","ALLEY":" ","HOUSE_NO":"１１號","E_COORD97":171746.5,"N_COORD97":2535651.27,"ADDRESS":"保學一街１７巷１１號","OBJECTID":392574},"geometry":{"x":171746.50000000093,"y":2535651.2700000033}},{"attributes":{"ID":392599,"DIS_CODE":0,"TOWNNAME":"仁德區","LI":"保安里","LIN":"23鄰","STREET":"保學一街","SECT":" ","MAREA":" ","LANE":"１７巷","ALLEY":" ","HOUSE_NO":"１號","E_COORD97":171630.44,"N_COORD97":2535591.5899999999,"ADDRESS":"保學一街１７巷１號","OBJECTID":392575},"geometry":{"x":171630.44000000134,"y":2535591.5900000036}},{"attributes":{"ID":392600,"DIS_CODE":0,"TOWNNAME":"仁德區","LI":"保安里","LIN":"23鄰","STREET":"保學一街","SECT":" ","MAREA":" ","LANE":"１７巷","ALLEY":" ","HOUSE_NO":"３號","E_COORD97":171651.92999999999,"N_COORD97":2535602.71,"ADDRESS":"保學一街１７巷３號","OBJECTID":392576},"geometry":{"x":171651.93000000063,"y":2535602.7100000028}},{"attributes":{"ID":392601,"DIS_CODE":0,"TOWNNAME":"仁德區","LI":"保安里","LIN":"23鄰","STREET":"保學一街","SECT":" ","MAREA":" ","LANE":"１７巷","ALLEY":" ","HOUSE_NO":"５號","E_COORD97":171676.70999999999,"N_COORD97":2535614.8900000001,"ADDRESS":"保學一街１７巷５號","OBJECTID":392577},"geometry":{"x":171676.70999999903,"y":2535614.8900000025}},{"attributes":{"ID":392602,"DIS_CODE":0,"TOWNNAME":"仁德區","LI":"保安里","LIN":"23鄰","STREET":"保學一街","SECT":" ","MAREA":" ","LANE":"１７巷","ALLEY":" ","HOUSE_NO":"９號","E_COORD97":171721.23000000001,"N_COORD97":2535638.1200000001,"ADDRESS":"保學一街１７巷９號","OBJECTID":392578},"geometry":{"x":171721.23000000231,"y":2535638.1200000029}},{"attributes":{"ID":392603,"DIS_CODE":0,"TOWNNAME":"仁德區","LI":"保安里","LIN":"23鄰","STREET":"保學路","SECT":" ","MAREA":" ","LANE":"３７巷","ALLEY":" ","HOUSE_NO":"１０號","E_COORD97":171571.60999999999,"N_COORD97":2535668.4300000002,"ADDRESS":"保學路３７巷１０號","OBJECTID":392579},"geometry":{"x":171571.61000000127,"y":2535668.4300000016}},{"attributes":{"ID":392604,"DIS_CODE":0,"TOWNNAME":"善化區","LI":"坐駕里","LIN":"14鄰","STREET":"和平路","SECT":" ","MAREA":" ","LANE":"１５巷","ALLEY":" ","HOUSE_NO":"２號","E_COORD97":178143.01000000001,"N_COORD97":2558602,"ADDRESS":"和平路１５巷２號","OBJECTID":392580},"geometry":{"x":178143.00999999978,"y":2558602}},{"attributes":{"ID":392605,"DIS_CODE":0,"TOWNNAME":"仁德區","LI":"保安里","LIN":"23鄰","STREET":"保學路","SECT":" ","MAREA":" ","LANE":"３７巷","ALLEY":" ","HOUSE_NO":"１１號","E_COORD97":171506.35000000001,"N_COORD97":2535637.8199999998,"ADDRESS":"保學路３７巷１１號","OBJECTID":392581},"geometry":{"x":171506.35000000056,"y":2535637.8199999984}},{"attributes":{"ID":392606,"DIS_CODE":0,"TOWNNAME":"仁德區","LI":"保安里","LIN":"23鄰","STREET":"保學路","SECT":" ","MAREA":" ","LANE":"３７巷","ALLEY":" ","HOUSE_NO":"１２號","E_COORD97":171580.26999999999,"N_COORD97":2535672.8900000001,"ADDRESS":"保學路３７巷１２號","OBJECTID":392582},"geometry":{"x":171580.26999999955,"y":2535672.8900000025}},{"attributes":{"ID":392607,"DIS_CODE":0,"TOWNNAME":"仁德區","LI":"保安里","LIN":"23鄰","STREET":"保學路","SECT":" ","MAREA":" ","LANE":"３７巷","ALLEY":" ","HOUSE_NO":"１３號","E_COORD97":171502.39000000001,"N_COORD97":2535635.5899999999,"ADDRESS":"保學路３７巷１３號","OBJECTID":392583},"geometry":{"x":171502.39000000153,"y":2535635.5900000036}},{"attributes":{"ID":392608,"DIS_CODE":0,"TOWNNAME":"仁德區","LI":"保安里","LIN":"23鄰","STREET":"保學路","SECT":" ","MAREA":" ","LANE":"３７巷","ALLEY":" ","HOUSE_NO":"１５號","E_COORD97":171497.87,"N_COORD97":2535633.54,"ADDRESS":"保學路３７巷１５號","OBJECTID":392584},"geometry":{"x":171497.87000000197,"y":2535633.5399999991}},{"attributes":{"ID":392609,"DIS_CODE":0,"TOWNNAME":"仁德區","LI":"保安里","LIN":"23鄰","STREET":"保學路","SECT":" ","MAREA":" ","LANE":"３７巷","ALLEY":" ","HOUSE_NO":"１６號","E_COORD97":171589.75,"N_COORD97":2535678.1800000002,"ADDRESS":"保學路３７巷１６號","OBJECTID":392585},"geometry":{"x":171589.75,"y":2535678.1799999997}},{"attributes":{"ID":392610,"DIS_CODE":0,"TOWNNAME":"仁德區","LI":"保安里","LIN":"23鄰","STREET":"保學路","SECT":" ","MAREA":" ","LANE":"３７巷","ALLEY":" ","HOUSE_NO":"１７號","E_COORD97":171492.5,"N_COORD97":2535630.3199999998,"ADDRESS":"保學路３７巷１７號","OBJECTID":392586},"geometry":{"x":171492.50000000093,"y":2535630.3200000003}},{"attributes":{"ID":392611,"DIS_CODE":0,"TOWNNAME":"仁德區","LI":"保安里","LIN":"23鄰","STREET":"保學路","SECT":" ","MAREA":" ","LANE":"３７巷","ALLEY":" ","HOUSE_NO":"１８號","E_COORD97":171598.51000000001,"N_COORD97":2535682.0600000001,"ADDRESS":"保學路３７巷１８號","OBJECTID":392587},"geometry":{"x":171598.51000000071,"y":2535682.0600000024}},{"attributes":{"ID":392612,"DIS_CODE":0,"TOWNNAME":"仁德區","LI":"保安里","LIN":"23鄰","STREET":"保學路","SECT":" ","MAREA":" ","LANE":"３７巷","ALLEY":" ","HOUSE_NO":"１號","E_COORD97":171526.92000000001,"N_COORD97":2535648.1800000002,"ADDRESS":"保學路３７巷１號","OBJECTID":392588},"geometry":{"x":171526.92000000086,"y":2535648.1799999997}},{"attributes":{"ID":392613,"DIS_CODE":0,"TOWNNAME":"仁德區","LI":"保安里","LIN":"23鄰","STREET":"保學路","SECT":" ","MAREA":" ","LANE":"３７巷","ALLEY":" ","HOUSE_NO":"２０號","E_COORD97":171607.57999999999,"N_COORD97":2535686.96,"ADDRESS":"保學路３７巷２０號","OBJECTID":392589},"geometry":{"x":171607.58000000007,"y":2535686.9600000009}},{"attributes":{"ID":392614,"DIS_CODE":0,"TOWNNAME":"仁德區","LI":"保安里","LIN":"23鄰","STREET":"保學路","SECT":" ","MAREA":" ","LANE":"３７巷","ALLEY":" ","HOUSE_NO":"２２號","E_COORD97":171616.82000000001,"N_COORD97":2535691.6800000002,"ADDRESS":"保學路３７巷２２號","OBJECTID":392590},"geometry":{"x":171616.8200000003,"y":2535691.6799999997}},{"attributes":{"ID":392615,"DIS_CODE":0,"TOWNNAME":"仁德區","LI":"保安里","LIN":"23鄰","STREET":"保學路","SECT":" ","MAREA":" ","LANE":"３７巷","ALLEY":" ","HOUSE_NO":"２６號","E_COORD97":171625.95000000001,"N_COORD97":2535696.1699999999,"ADDRESS":"保學路３７巷２６號","OBJECTID":392591},"geometry":{"x":171625.95000000019,"y":2535696.1700000037}},{"attributes":{"ID":392616,"DIS_CODE":0,"TOWNNAME":"仁德區","LI":"保安里","LIN":"23鄰","STREET":"保學路","SECT":" ","MAREA":" ","LANE":"３７巷","ALLEY":" ","HOUSE_NO":"２８號","E_COORD97":171634.26000000001,"N_COORD97":2535700.48,"ADDRESS":"保學路３７巷２８號","OBJECTID":392592},"geometry":{"x":171634.26000000071,"y":2535700.4800000004}},{"attributes":{"ID":392617,"DIS_CODE":0,"TOWNNAME":"仁德區","LI":"保安里","LIN":"23鄰","STREET":"保學路","SECT":" ","MAREA":" ","LANE":"３７巷","ALLEY":" ","HOUSE_NO":"２號","E_COORD97":171543,"N_COORD97":2535655.0099999998,"ADDRESS":"保學路３７巷２號","OBJECTID":392593},"geometry":{"x":171543.00000000093,"y":2535655.0099999998}},{"attributes":{"ID":392618,"DIS_CODE":0,"TOWNNAME":"仁德區","LI":"保安里","LIN":"23鄰","STREET":"保學路","SECT":" ","MAREA":" ","LANE":"３７巷","ALLEY":" ","HOUSE_NO":"３０號","E_COORD97":171643.95999999999,"N_COORD97":2535705.3900000001,"ADDRESS":"保學路３７巷３０號","OBJECTID":392594},"geometry":{"x":171643.95999999996,"y":2535705.3899999987}},{"attributes":{"ID":392619,"DIS_CODE":0,"TOWNNAME":"仁德區","LI":"保安里","LIN":"23鄰","STREET":"保學路","SECT":" ","MAREA":" ","LANE":"３７巷","ALLEY":" ","HOUSE_NO":"３２號","E_COORD97":171652.48000000001,"N_COORD97":2535709.46,"ADDRESS":"保學路３７巷３２號","OBJECTID":392595},"geometry":{"x":171652.48000000138,"y":2535709.4600000028}},{"attributes":{"ID":392620,"DIS_CODE":0,"TOWNNAME":"仁德區","LI":"保安里","LIN":"23鄰","STREET":"保學路","SECT":" ","MAREA":" ","LANE":"３７巷","ALLEY":" ","HOUSE_NO":"３６號","E_COORD97":171661.95000000001,"N_COORD97":2535714.54,"ADDRESS":"保學路３７巷３６號","OBJECTID":392596},"geometry":{"x":171661.95000000205,"y":2535714.540000001}},{"attributes":{"ID":392621,"DIS_CODE":0,"TOWNNAME":"仁德區","LI":"保安里","LIN":"23鄰","STREET":"保學路","SECT":" ","MAREA":" ","LANE":"３７巷","ALLEY":" ","HOUSE_NO":"３８號","E_COORD97":171670.85000000001,"N_COORD97":2535718.9700000002,"ADDRESS":"保學路３７巷３８號","OBJECTID":392597},"geometry":{"x":171670.85000000056,"y":2535718.9700000044}},{"attributes":{"ID":392622,"DIS_CODE":0,"TOWNNAME":"仁德區","LI":"保安里","LIN":"23鄰","STREET":"保學路","SECT":" ","MAREA":" ","LANE":"３７巷","ALLEY":" ","HOUSE_NO":"３號","E_COORD97":171522.38,"N_COORD97":2535645.8999999999,"ADDRESS":"保學路３７巷３號","OBJECTID":392598},"geometry":{"x":171522.37999999989,"y":2535645.9000000022}},{"attributes":{"ID":392623,"DIS_CODE":0,"TOWNNAME":"仁德區","LI":"保安里","LIN":"23鄰","STREET":"保學路","SECT":" ","MAREA":" ","LANE":"３７巷","ALLEY":" ","HOUSE_NO":"４０號","E_COORD97":171680.10000000001,"N_COORD97":2535723.3100000001,"ADDRESS":"保學路３７巷４０號","OBJECTID":392599},"geometry":{"x":171680.09999999963,"y":2535723.3100000042}},{"attributes":{"ID":392624,"DIS_CODE":0,"TOWNNAME":"仁德區","LI":"保安里","LIN":"23鄰","STREET":"保學路","SECT":" ","MAREA":" ","LANE":"３７巷","ALLEY":" ","HOUSE_NO":"４２號","E_COORD97":171689.17999999999,"N_COORD97":2535727.8399999999,"ADDRESS":"保學路３７巷４２號","OBJECTID":392600},"geometry":{"x":171689.18000000063,"y":2535727.8399999999}}]}