{"displayFieldName":"TOWNNAME","fieldAliases":{"ID":"ID","DIS_CODE":"DIS_CODE","TOWNNAME":"TOWNNAME","LI":"LI","LIN":"LIN","STREET":"STREET","SECT":"SECT","MAREA":"MAREA","LANE":"LANE","ALLEY":"ALLEY","HOUSE_NO":"HOUSE_NO","E_COORD97":"E_COORD97","N_COORD97":"N_COORD97","ADDRESS":"ADDRESS","OBJECTID":"OBJECTID"},"geometryType":"esriGeometryPoint","spatialReference":{"wkid":102443,"latestWkid":3826},"fields":[{"name":"ID","type":"esriFieldTypeDouble","alias":"ID"},{"name":"DIS_CODE","type":"esriFieldTypeInteger","alias":"DIS_CODE"},{"name":"TOWNNAME","type":"esriFieldTypeString","alias":"TOWNNAME","length":8},{"name":"LI","type":"esriFieldTypeString","alias":"LI","length":8},{"name":"LIN","type":"esriFieldTypeString","alias":"LIN","length":12},{"name":"STREET","type":"esriFieldTypeString","alias":"STREET","length":20},{"name":"SECT","type":"esriFieldTypeString","alias":"SECT","length":8},{"name":"MAREA","type":"esriFieldTypeString","alias":"MAREA","length":12},{"name":"LANE","type":"esriFieldTypeString","alias":"LANE","length":10},{"name":"ALLEY","type":"esriFieldTypeString","alias":"ALLEY","length":10},{"name":"HOUSE_NO","type":"esriFieldTypeString","alias":"HOUSE_NO","length":20},{"name":"E_COORD97","type":"esriFieldTypeDouble","alias":"E_COORD97"},{"name":"N_COORD97","type":"esriFieldTypeDouble","alias":"N_COORD97"},{"name":"ADDRESS","type":"esriFieldTypeString","alias":"ADDRESS","length":50},{"name":"OBJECTID","type":"esriFieldTypeOID","alias":"OBJECTID"}],"features":[{"attributes":{"ID":272406,"DIS_CODE":0,"TOWNNAME":"北區","LI":"仁愛里","LIN":"7鄰","STREET":"勝利路","SECT":" ","MAREA":" ","LANE":"１９０巷","ALLEY":" ","HOUSE_NO":"２２號","E_COORD97":170021.01000000001,"N_COORD97":2544948.3399999999,"ADDRESS":"勝利路１９０巷２２號","OBJECTID":272401},"geometry":{"x":170021.00999999978,"y":2544948.3400000017}},{"attributes":{"ID":272407,"DIS_CODE":0,"TOWNNAME":"北區","LI":"仁愛里","LIN":"7鄰","STREET":"勝利路","SECT":" ","MAREA":" ","LANE":"１９０巷","ALLEY":" ","HOUSE_NO":"２２號之１","E_COORD97":170026.78,"N_COORD97":2544950.0299999998,"ADDRESS":"勝利路１９０巷２２號之１","OBJECTID":272402},"geometry":{"x":170026.78000000026,"y":2544950.0300000012}},{"attributes":{"ID":272408,"DIS_CODE":0,"TOWNNAME":"北區","LI":"仁愛里","LIN":"7鄰","STREET":"勝利路","SECT":" ","MAREA":" ","LANE":"１９０巷","ALLEY":" ","HOUSE_NO":"２４號","E_COORD97":170033.23000000001,"N_COORD97":2544951.79,"ADDRESS":"勝利路１９０巷２４號","OBJECTID":272403},"geometry":{"x":170033.23000000138,"y":2544951.790000001}},{"attributes":{"ID":272409,"DIS_CODE":0,"TOWNNAME":"北區","LI":"文成里","LIN":"7鄰","STREET":"文賢路","SECT":" ","MAREA":" ","LANE":"５４６巷","ALLEY":" ","HOUSE_NO":"１０號","E_COORD97":167421.12,"N_COORD97":2545344.7799999998,"ADDRESS":"文賢路５４６巷１０號","OBJECTID":272404},"geometry":{"x":167421.12000000104,"y":2545344.7800000012}},{"attributes":{"ID":272410,"DIS_CODE":0,"TOWNNAME":"北區","LI":"文成里","LIN":"7鄰","STREET":"文賢路","SECT":" ","MAREA":" ","LANE":"５４６巷","ALLEY":" ","HOUSE_NO":"１６號","E_COORD97":167437.32999999999,"N_COORD97":2545343.6299999999,"ADDRESS":"文賢路５４６巷１６號","OBJECTID":272405},"geometry":{"x":167437.33000000007,"y":2545343.629999999}},{"attributes":{"ID":272411,"DIS_CODE":0,"TOWNNAME":"北區","LI":"文成里","LIN":"7鄰","STREET":"文賢路","SECT":" ","MAREA":" ","LANE":"５４６巷","ALLEY":" ","HOUSE_NO":"１８號","E_COORD97":167442.48000000001,"N_COORD97":2545346.4900000002,"ADDRESS":"文賢路５４６巷１８號","OBJECTID":272406},"geometry":{"x":167442.47999999952,"y":2545346.4900000002}},{"attributes":{"ID":272412,"DIS_CODE":0,"TOWNNAME":"北區","LI":"文成里","LIN":"7鄰","STREET":"文賢路","SECT":" ","MAREA":" ","LANE":"５４６巷","ALLEY":" ","HOUSE_NO":"２０號","E_COORD97":167446.87,"N_COORD97":2545346.1099999999,"ADDRESS":"文賢路５４６巷２０號","OBJECTID":272407},"geometry":{"x":167446.87000000104,"y":2545346.1100000013}},{"attributes":{"ID":272413,"DIS_CODE":0,"TOWNNAME":"北區","LI":"文成里","LIN":"7鄰","STREET":"文賢路","SECT":" ","MAREA":" ","LANE":"５４６巷","ALLEY":" ","HOUSE_NO":"２２號","E_COORD97":167450.87,"N_COORD97":2545345.9199999999,"ADDRESS":"文賢路５４６巷２２號","OBJECTID":272408},"geometry":{"x":167450.87000000011,"y":2545345.9199999999}},{"attributes":{"ID":272414,"DIS_CODE":0,"TOWNNAME":"官田區","LI":"拔林里","LIN":"3鄰","STREET":" ","SECT":" ","MAREA":"拔子林","LANE":" ","ALLEY":" ","HOUSE_NO":"１９號","E_COORD97":180668.26000000001,"N_COORD97":2563636.3700000001,"ADDRESS":"拔子林１９號","OBJECTID":272409},"geometry":{"x":180668.26000000071,"y":2563636.3700000048}},{"attributes":{"ID":272415,"DIS_CODE":0,"TOWNNAME":"官田區","LI":"拔林里","LIN":"3鄰","STREET":" ","SECT":" ","MAREA":"拔子林","LANE":" ","ALLEY":" ","HOUSE_NO":"２０號","E_COORD97":180637.53,"N_COORD97":2563599.1800000002,"ADDRESS":"拔子林２０號","OBJECTID":272410},"geometry":{"x":180637.53000000212,"y":2563599.1800000016}},{"attributes":{"ID":272416,"DIS_CODE":0,"TOWNNAME":"官田區","LI":"拔林里","LIN":"3鄰","STREET":" ","SECT":" ","MAREA":"拔子林","LANE":" ","ALLEY":" ","HOUSE_NO":"２１號","E_COORD97":180650.95000000001,"N_COORD97":2563577.8599999999,"ADDRESS":"拔子林２１號","OBJECTID":272411},"geometry":{"x":180650.95000000019,"y":2563577.8600000013}},{"attributes":{"ID":272417,"DIS_CODE":0,"TOWNNAME":"官田區","LI":"拔林里","LIN":"3鄰","STREET":" ","SECT":" ","MAREA":"拔子林","LANE":" ","ALLEY":" ","HOUSE_NO":"２２號之１","E_COORD97":180623.17999999999,"N_COORD97":2563565.71,"ADDRESS":"拔子林２２號之１","OBJECTID":272412},"geometry":{"x":180623.1799999997,"y":2563565.709999999}},{"attributes":{"ID":272418,"DIS_CODE":0,"TOWNNAME":"北區","LI":"文成里","LIN":"7鄰","STREET":"文賢路","SECT":" ","MAREA":" ","LANE":"５４６巷","ALLEY":" ","HOUSE_NO":"２４號","E_COORD97":167457.60000000001,"N_COORD97":2545342.8700000001,"ADDRESS":"文賢路５４６巷２４號","OBJECTID":272413},"geometry":{"x":167457.59999999963,"y":2545342.8700000029}},{"attributes":{"ID":272419,"DIS_CODE":0,"TOWNNAME":"白河區","LI":"永安里","LIN":"15鄰","STREET":"三民路","SECT":" ","MAREA":" ","LANE":" ","ALLEY":" ","HOUSE_NO":"４４１號","E_COORD97":189998.66,"N_COORD97":2583406.5600000001,"ADDRESS":"三民路４４１號","OBJECTID":272414},"geometry":{"x":189998.66000000015,"y":2583406.5600000005}},{"attributes":{"ID":272420,"DIS_CODE":0,"TOWNNAME":"新化區","LI":"武安里","LIN":"3鄰","STREET":"中正路","SECT":" ","MAREA":" ","LANE":" ","ALLEY":" ","HOUSE_NO":"３０１號之２","E_COORD97":179132.5,"N_COORD97":2548114.8300000001,"ADDRESS":"中正路３０１號之２","OBJECTID":272415},"geometry":{"x":179132.50000000093,"y":2548114.8300000019}},{"attributes":{"ID":272421,"DIS_CODE":0,"TOWNNAME":"安南區","LI":"城南里","LIN":"3鄰","STREET":"城西街","SECT":"一段","MAREA":" ","LANE":" ","ALLEY":" ","HOUSE_NO":"１０１號","E_COORD97":160635.59,"N_COORD97":2551370.8700000001,"ADDRESS":"城西街一段１０１號","OBJECTID":272416},"geometry":{"x":160635.59000000078,"y":2551370.8700000029}},{"attributes":{"ID":272422,"DIS_CODE":0,"TOWNNAME":"安南區","LI":"城南里","LIN":"3鄰","STREET":"城西街","SECT":"一段","MAREA":" ","LANE":" ","ALLEY":" ","HOUSE_NO":"１０７號","E_COORD97":160624.14999999999,"N_COORD97":2551364.1699999999,"ADDRESS":"城西街一段１０７號","OBJECTID":272417},"geometry":{"x":160624.1500000013,"y":2551364.1700000018}},{"attributes":{"ID":272423,"DIS_CODE":0,"TOWNNAME":"安南區","LI":"城南里","LIN":"3鄰","STREET":"城西街","SECT":"一段","MAREA":" ","LANE":" ","ALLEY":" ","HOUSE_NO":"１０９號","E_COORD97":160621.17000000001,"N_COORD97":2551361.4399999999,"ADDRESS":"城西街一段１０９號","OBJECTID":272418},"geometry":{"x":160621.17000000086,"y":2551361.4400000013}},{"attributes":{"ID":272424,"DIS_CODE":0,"TOWNNAME":"北區","LI":"文成里","LIN":"7鄰","STREET":"文賢路","SECT":" ","MAREA":" ","LANE":"５４６巷","ALLEY":" ","HOUSE_NO":"２６號","E_COORD97":167464.66,"N_COORD97":2545345.1499999999,"ADDRESS":"文賢路５４６巷２６號","OBJECTID":272419},"geometry":{"x":167464.66000000015,"y":2545345.1500000004}},{"attributes":{"ID":272425,"DIS_CODE":0,"TOWNNAME":"北區","LI":"三德里","LIN":"7鄰","STREET":"裕民街","SECT":" ","MAREA":" ","LANE":"３４巷","ALLEY":" ","HOUSE_NO":"１０號","E_COORD97":168463.16,"N_COORD97":2544425.9700000002,"ADDRESS":"裕民街３４巷１０號","OBJECTID":272420},"geometry":{"x":168463.15999999922,"y":2544425.9700000025}},{"attributes":{"ID":272426,"DIS_CODE":0,"TOWNNAME":"北區","LI":"三德里","LIN":"7鄰","STREET":"裕民街","SECT":" ","MAREA":" ","LANE":"３４巷","ALLEY":" ","HOUSE_NO":"１２號","E_COORD97":168464.60000000001,"N_COORD97":2544424.0899999999,"ADDRESS":"裕民街３４巷１２號","OBJECTID":272421},"geometry":{"x":168464.59999999963,"y":2544424.0900000017}},{"attributes":{"ID":272427,"DIS_CODE":0,"TOWNNAME":"北區","LI":"三德里","LIN":"7鄰","STREET":"裕民街","SECT":" ","MAREA":" ","LANE":"３４巷","ALLEY":" ","HOUSE_NO":"１４號","E_COORD97":168467.07000000001,"N_COORD97":2544421.0600000001,"ADDRESS":"裕民街３４巷１４號","OBJECTID":272422},"geometry":{"x":168467.0700000003,"y":2544421.0600000042}},{"attributes":{"ID":272428,"DIS_CODE":0,"TOWNNAME":"安南區","LI":"城南里","LIN":"3鄰","STREET":"城西街","SECT":"一段","MAREA":" ","LANE":" ","ALLEY":" ","HOUSE_NO":"１１１號","E_COORD97":160618.67999999999,"N_COORD97":2551358.21,"ADDRESS":"城西街一段１１１號","OBJECTID":272423},"geometry":{"x":160618.6799999997,"y":2551358.2100000028}},{"attributes":{"ID":272429,"DIS_CODE":0,"TOWNNAME":"北區","LI":"三德里","LIN":"7鄰","STREET":"裕民街","SECT":" ","MAREA":" ","LANE":"３４巷","ALLEY":" ","HOUSE_NO":"１６號","E_COORD97":168468.19,"N_COORD97":2544419.52,"ADDRESS":"裕民街３４巷１６號","OBJECTID":272424},"geometry":{"x":168468.19000000041,"y":2544419.5199999996}},{"attributes":{"ID":272430,"DIS_CODE":0,"TOWNNAME":"新化區","LI":"羊林里","LIN":"3鄰","STREET":" ","SECT":" ","MAREA":"\u25A0拔林","LANE":" ","ALLEY":" ","HOUSE_NO":"４３９號之７","E_COORD97":183714.82999999999,"N_COORD97":2551743.1400000001,"ADDRESS":"\u25A0拔林４３９號之７","OBJECTID":272425},"geometry":{"x":183714.83000000007,"y":2551743.1400000006}},{"attributes":{"ID":272431,"DIS_CODE":0,"TOWNNAME":"北區","LI":"三德里","LIN":"7鄰","STREET":"裕民街","SECT":" ","MAREA":" ","LANE":"３４巷","ALLEY":" ","HOUSE_NO":"１８號","E_COORD97":168470.07999999999,"N_COORD97":2544417.6800000002,"ADDRESS":"裕民街３４巷１８號","OBJECTID":272426},"geometry":{"x":168470.08000000007,"y":2544417.6800000016}},{"attributes":{"ID":272432,"DIS_CODE":0,"TOWNNAME":"北區","LI":"重興里","LIN":"7鄰","STREET":"林森路","SECT":"三段","MAREA":" ","LANE":"８６巷","ALLEY":" ","HOUSE_NO":"８號","E_COORD97":170589.32999999999,"N_COORD97":2544906.46,"ADDRESS":"林森路三段８６巷８號","OBJECTID":272427},"geometry":{"x":170589.33000000007,"y":2544906.4600000009}},{"attributes":{"ID":272433,"DIS_CODE":0,"TOWNNAME":"北區","LI":"安民里","LIN":"7鄰","STREET":"成功路","SECT":" ","MAREA":" ","LANE":"４１０巷","ALLEY":" ","HOUSE_NO":"１８號","E_COORD97":167822.81,"N_COORD97":2544637.8199999998,"ADDRESS":"成功路４１０巷１８號","OBJECTID":272428},"geometry":{"x":167822.81000000052,"y":2544637.8200000003}},{"attributes":{"ID":272434,"DIS_CODE":0,"TOWNNAME":"北區","LI":"安民里","LIN":"7鄰","STREET":"成功路","SECT":" ","MAREA":" ","LANE":"４１０巷","ALLEY":" ","HOUSE_NO":"２６號","E_COORD97":167792.44,"N_COORD97":2544639.0499999998,"ADDRESS":"成功路４１０巷２６號","OBJECTID":272429},"geometry":{"x":167792.44000000134,"y":2544639.0500000026}},{"attributes":{"ID":272435,"DIS_CODE":0,"TOWNNAME":"北區","LI":"和順里","LIN":"7鄰","STREET":"育德路","SECT":" ","MAREA":" ","LANE":"２８巷","ALLEY":" ","HOUSE_NO":"１號","E_COORD97":168367.26000000001,"N_COORD97":2545196.7000000002,"ADDRESS":"育德路２８巷１號","OBJECTID":272430},"geometry":{"x":168367.26000000164,"y":2545196.7000000011}},{"attributes":{"ID":272436,"DIS_CODE":0,"TOWNNAME":"北區","LI":"和順里","LIN":"7鄰","STREET":"育德路","SECT":" ","MAREA":" ","LANE":"２８巷","ALLEY":" ","HOUSE_NO":"３號","E_COORD97":168362.54999999999,"N_COORD97":2545190.6499999999,"ADDRESS":"育德路２８巷３號","OBJECTID":272431},"geometry":{"x":168362.55000000075,"y":2545190.6500000022}},{"attributes":{"ID":272437,"DIS_CODE":0,"TOWNNAME":"北區","LI":"和順里","LIN":"7鄰","STREET":"育德路","SECT":" ","MAREA":" ","LANE":"２８巷","ALLEY":" ","HOUSE_NO":"５號","E_COORD97":168356.66,"N_COORD97":2545184.1000000001,"ADDRESS":"育德路２８巷５號","OBJECTID":272432},"geometry":{"x":168356.66000000108,"y":2545184.1000000015}},{"attributes":{"ID":272438,"DIS_CODE":0,"TOWNNAME":"北區","LI":"和順里","LIN":"7鄰","STREET":"育德路","SECT":" ","MAREA":" ","LANE":"２８巷","ALLEY":" ","HOUSE_NO":"７號","E_COORD97":168349.92999999999,"N_COORD97":2545176.2799999998,"ADDRESS":"育德路２８巷７號","OBJECTID":272433},"geometry":{"x":168349.9299999997,"y":2545176.2799999993}},{"attributes":{"ID":272439,"DIS_CODE":0,"TOWNNAME":"北區","LI":"裕民里","LIN":"7鄰","STREET":"成功路","SECT":" ","MAREA":" ","LANE":"５０４巷","ALLEY":" ","HOUSE_NO":"３１號","E_COORD97":167699.98000000001,"N_COORD97":2544736.9199999999,"ADDRESS":"成功路５０４巷３１號","OBJECTID":272434},"geometry":{"x":167699.98000000045,"y":2544736.9200000037}},{"attributes":{"ID":272440,"DIS_CODE":0,"TOWNNAME":"北區","LI":"重興里","LIN":"7鄰","STREET":"林森路","SECT":"三段","MAREA":" ","LANE":"１４０巷","ALLEY":" ","HOUSE_NO":"６５號","E_COORD97":170652.64999999999,"N_COORD97":2544920.29,"ADDRESS":"林森路三段１４０巷６５號","OBJECTID":272435},"geometry":{"x":170652.6500000013,"y":2544920.290000001}},{"attributes":{"ID":272441,"DIS_CODE":0,"TOWNNAME":"北區","LI":"興北里","LIN":"7鄰","STREET":"公園北路","SECT":" ","MAREA":" ","LANE":"８８巷","ALLEY":" ","HOUSE_NO":"１０號","E_COORD97":169130.62,"N_COORD97":2545022.5600000001,"ADDRESS":"公園北路８８巷１０號","OBJECTID":272436},"geometry":{"x":169130.62000000011,"y":2545022.5600000024}},{"attributes":{"ID":272442,"DIS_CODE":0,"TOWNNAME":"善化區","LI":"文昌里","LIN":"4鄰","STREET":"自由路","SECT":" ","MAREA":" ","LANE":" ","ALLEY":" ","HOUSE_NO":"７０號","E_COORD97":177256.04000000001,"N_COORD97":2558915.25,"ADDRESS":"自由路７０號","OBJECTID":272437},"geometry":{"x":177256.04000000097,"y":2558915.25}},{"attributes":{"ID":272443,"DIS_CODE":0,"TOWNNAME":"新化區","LI":"羊林里","LIN":"3鄰","STREET":" ","SECT":" ","MAREA":"\u25A0拔林","LANE":" ","ALLEY":" ","HOUSE_NO":"４３９號之８","E_COORD97":183708.82000000001,"N_COORD97":2551741.1400000001,"ADDRESS":"\u25A0拔林４３９號之８","OBJECTID":272438},"geometry":{"x":183708.82000000216,"y":2551741.1400000025}},{"attributes":{"ID":272444,"DIS_CODE":0,"TOWNNAME":"新化區","LI":"羊林里","LIN":"3鄰","STREET":" ","SECT":" ","MAREA":"\u25A0拔林","LANE":" ","ALLEY":" ","HOUSE_NO":"４３９號之９","E_COORD97":183702.5,"N_COORD97":2551738.6800000002,"ADDRESS":"\u25A0拔林４３９號之９","OBJECTID":272439},"geometry":{"x":183702.50000000093,"y":2551738.6799999997}},{"attributes":{"ID":272445,"DIS_CODE":0,"TOWNNAME":"新化區","LI":"崙頂里","LIN":"3鄰","STREET":" ","SECT":" ","MAREA":"崙子頂","LANE":" ","ALLEY":" ","HOUSE_NO":"１７７號之３","E_COORD97":176641.09,"N_COORD97":2546748.0499999998,"ADDRESS":"崙子頂１７７之３號","OBJECTID":272440},"geometry":{"x":176641.09000000171,"y":2546748.0500000026}},{"attributes":{"ID":272446,"DIS_CODE":0,"TOWNNAME":"新化區","LI":"豐榮里","LIN":"3鄰","STREET":" ","SECT":" ","MAREA":"洋子","LANE":" ","ALLEY":" ","HOUSE_NO":"４６號之１","E_COORD97":178076.17999999999,"N_COORD97":2548210.9900000002,"ADDRESS":"洋子４６號之１","OBJECTID":272441},"geometry":{"x":178076.18000000156,"y":2548210.9900000002}},{"attributes":{"ID":272447,"DIS_CODE":0,"TOWNNAME":"新化區","LI":"豐榮里","LIN":"3鄰","STREET":" ","SECT":" ","MAREA":"洋子","LANE":" ","ALLEY":" ","HOUSE_NO":"７７號","E_COORD97":178027.17000000001,"N_COORD97":2548220.6499999999,"ADDRESS":"洋子７７號","OBJECTID":272442},"geometry":{"x":178027.17000000179,"y":2548220.6499999985}},{"attributes":{"ID":272448,"DIS_CODE":0,"TOWNNAME":"北區","LI":"興北里","LIN":"7鄰","STREET":"公園北路","SECT":" ","MAREA":" ","LANE":"８８巷","ALLEY":" ","HOUSE_NO":"１２號","E_COORD97":169130.16,"N_COORD97":2545027.5299999998,"ADDRESS":"公園北路８８巷１２號","OBJECTID":272443},"geometry":{"x":169130.16000000108,"y":2545027.5300000012}},{"attributes":{"ID":272449,"DIS_CODE":0,"TOWNNAME":"北區","LI":"興北里","LIN":"7鄰","STREET":"公園北路","SECT":" ","MAREA":" ","LANE":"８８巷","ALLEY":" ","HOUSE_NO":"１４號","E_COORD97":169129.69,"N_COORD97":2545030.6600000001,"ADDRESS":"公園北路８８巷１４號","OBJECTID":272444},"geometry":{"x":169129.69000000134,"y":2545030.660000002}},{"attributes":{"ID":272450,"DIS_CODE":0,"TOWNNAME":"北區","LI":"興北里","LIN":"7鄰","STREET":"公園北路","SECT":" ","MAREA":" ","LANE":"８８巷","ALLEY":" ","HOUSE_NO":"１６號","E_COORD97":169127.78,"N_COORD97":2545036.46,"ADDRESS":"公園北路８８巷１６號","OBJECTID":272445},"geometry":{"x":169127.78000000119,"y":2545036.4600000028}},{"attributes":{"ID":272451,"DIS_CODE":0,"TOWNNAME":"北區","LI":"興北里","LIN":"7鄰","STREET":"公園北路","SECT":" ","MAREA":" ","LANE":"８８巷","ALLEY":" ","HOUSE_NO":"１８號","E_COORD97":169125.10999999999,"N_COORD97":2545047.1200000001,"ADDRESS":"公園北路８８巷１８號","OBJECTID":272446},"geometry":{"x":169125.11000000127,"y":2545047.120000001}},{"attributes":{"ID":272452,"DIS_CODE":0,"TOWNNAME":"北區","LI":"興北里","LIN":"7鄰","STREET":"公園北路","SECT":" ","MAREA":" ","LANE":"８８巷","ALLEY":" ","HOUSE_NO":"１９號","E_COORD97":169116.28,"N_COORD97":2545053.3700000001,"ADDRESS":"公園北路８８巷１９號","OBJECTID":272447},"geometry":{"x":169116.28000000026,"y":2545053.3699999992}},{"attributes":{"ID":272453,"DIS_CODE":0,"TOWNNAME":"北區","LI":"興北里","LIN":"7鄰","STREET":"公園北路","SECT":" ","MAREA":" ","LANE":"８８巷","ALLEY":" ","HOUSE_NO":"１號","E_COORD97":169120.63,"N_COORD97":2545017.5600000001,"ADDRESS":"公園北路８８巷１號","OBJECTID":272448},"geometry":{"x":169120.62999999989,"y":2545017.5599999987}},{"attributes":{"ID":272454,"DIS_CODE":0,"TOWNNAME":"北區","LI":"興北里","LIN":"7鄰","STREET":"公園北路","SECT":" ","MAREA":" ","LANE":"８８巷","ALLEY":" ","HOUSE_NO":"２０號","E_COORD97":169124.82000000001,"N_COORD97":2545051.4100000001,"ADDRESS":"公園北路８８巷２０號","OBJECTID":272449},"geometry":{"x":169124.8200000003,"y":2545051.4100000001}},{"attributes":{"ID":272455,"DIS_CODE":0,"TOWNNAME":"北區","LI":"興北里","LIN":"7鄰","STREET":"公園北路","SECT":" ","MAREA":" ","LANE":"８８巷","ALLEY":" ","HOUSE_NO":"２２號","E_COORD97":169124.23999999999,"N_COORD97":2545055.6400000001,"ADDRESS":"公園北路８８巷２２號","OBJECTID":272450},"geometry":{"x":169124.24000000115,"y":2545055.6400000025}},{"attributes":{"ID":272456,"DIS_CODE":0,"TOWNNAME":"北區","LI":"興北里","LIN":"7鄰","STREET":"公園北路","SECT":" ","MAREA":" ","LANE":"８８巷","ALLEY":" ","HOUSE_NO":"２４號","E_COORD97":169123.48000000001,"N_COORD97":2545060.8599999999,"ADDRESS":"公園北路８８巷２４號","OBJECTID":272451},"geometry":{"x":169123.48000000045,"y":2545060.8599999994}},{"attributes":{"ID":272457,"DIS_CODE":0,"TOWNNAME":"北區","LI":"興北里","LIN":"7鄰","STREET":"公園北路","SECT":" ","MAREA":" ","LANE":"８８巷","ALLEY":" ","HOUSE_NO":"２６號","E_COORD97":169123.31,"N_COORD97":2545066.0800000001,"ADDRESS":"公園北路８８巷２６號","OBJECTID":272452},"geometry":{"x":169123.31000000052,"y":2545066.0800000019}},{"attributes":{"ID":272458,"DIS_CODE":0,"TOWNNAME":"北區","LI":"興北里","LIN":"7鄰","STREET":"公園北路","SECT":" ","MAREA":" ","LANE":"８８巷","ALLEY":" ","HOUSE_NO":"２８號","E_COORD97":169137.23999999999,"N_COORD97":2545075.0800000001,"ADDRESS":"公園北路８８巷２８號","OBJECTID":272453},"geometry":{"x":169137.24000000022,"y":2545075.0800000019}},{"attributes":{"ID":272459,"DIS_CODE":0,"TOWNNAME":"仁德區","LI":"太子里","LIN":"7鄰","STREET":"太子路","SECT":" ","MAREA":" ","LANE":"１９０巷","ALLEY":" ","HOUSE_NO":"８號三樓","E_COORD97":174328.12,"N_COORD97":2543607,"ADDRESS":"太子路１９０巷８號三樓","OBJECTID":272454},"geometry":{"x":174328.12000000011,"y":2543606.9999999981}},{"attributes":{"ID":272460,"DIS_CODE":0,"TOWNNAME":"仁德區","LI":"太子里","LIN":"7鄰","STREET":"太子路","SECT":" ","MAREA":" ","LANE":"１９０巷","ALLEY":" ","HOUSE_NO":"６號一樓","E_COORD97":174328.57000000001,"N_COORD97":2543600.75,"ADDRESS":"太子路１９０巷６號一樓","OBJECTID":272455},"geometry":{"x":174328.5700000003,"y":2543600.75}},{"attributes":{"ID":272461,"DIS_CODE":0,"TOWNNAME":"仁德區","LI":"太子里","LIN":"7鄰","STREET":"太子路","SECT":" ","MAREA":" ","LANE":"１９０巷","ALLEY":" ","HOUSE_NO":"１０號四樓","E_COORD97":174329.20999999999,"N_COORD97":2543613.7599999998,"ADDRESS":"太子路１９０巷１０號四樓","OBJECTID":272456},"geometry":{"x":174329.20999999996,"y":2543613.7599999998}},{"attributes":{"ID":272462,"DIS_CODE":0,"TOWNNAME":"白河區","LI":"永安里","LIN":"15鄰","STREET":"三民路","SECT":" ","MAREA":" ","LANE":" ","ALLEY":" ","HOUSE_NO":"４４２號","E_COORD97":190179.66,"N_COORD97":2583370.6299999999,"ADDRESS":"三民路４４２號","OBJECTID":272457},"geometry":{"x":190179.66000000015,"y":2583370.629999999}},{"attributes":{"ID":272463,"DIS_CODE":0,"TOWNNAME":"白河區","LI":"永安里","LIN":"15鄰","STREET":"三民路","SECT":" ","MAREA":" ","LANE":" ","ALLEY":" ","HOUSE_NO":"４４３號","E_COORD97":189994.35999999999,"N_COORD97":2583407.2999999998,"ADDRESS":"三民路４４３號","OBJECTID":272458},"geometry":{"x":189994.3600000022,"y":2583407.3000000026}},{"attributes":{"ID":272464,"DIS_CODE":0,"TOWNNAME":"白河區","LI":"永安里","LIN":"15鄰","STREET":"三民路","SECT":" ","MAREA":" ","LANE":" ","ALLEY":" ","HOUSE_NO":"４４５號","E_COORD97":189990.39000000001,"N_COORD97":2583408.4500000002,"ADDRESS":"三民路４４５號","OBJECTID":272459},"geometry":{"x":189990.3900000006,"y":2583408.4499999993}},{"attributes":{"ID":272465,"DIS_CODE":0,"TOWNNAME":"白河區","LI":"永安里","LIN":"15鄰","STREET":"三民路","SECT":" ","MAREA":" ","LANE":" ","ALLEY":" ","HOUSE_NO":"４４７號","E_COORD97":189986.34,"N_COORD97":2583409.9199999999,"ADDRESS":"三民路４４７號","OBJECTID":272460},"geometry":{"x":189986.34000000078,"y":2583409.9199999999}},{"attributes":{"ID":272466,"DIS_CODE":0,"TOWNNAME":"白河區","LI":"永安里","LIN":"15鄰","STREET":"三民路","SECT":" ","MAREA":" ","LANE":" ","ALLEY":" ","HOUSE_NO":"４４８號","E_COORD97":190067.10999999999,"N_COORD97":2583433.3900000001,"ADDRESS":"三民路４４８號","OBJECTID":272461},"geometry":{"x":190067.11000000034,"y":2583433.3900000025}},{"attributes":{"ID":272467,"DIS_CODE":0,"TOWNNAME":"白河區","LI":"永安里","LIN":"15鄰","STREET":"三民路","SECT":" ","MAREA":" ","LANE":" ","ALLEY":" ","HOUSE_NO":"４４９號","E_COORD97":189982.51000000001,"N_COORD97":2583411.2400000002,"ADDRESS":"三民路４４９號","OBJECTID":272462},"geometry":{"x":189982.50999999885,"y":2583411.2400000002}},{"attributes":{"ID":272468,"DIS_CODE":0,"TOWNNAME":"白河區","LI":"永安里","LIN":"15鄰","STREET":"三民路","SECT":" ","MAREA":" ","LANE":" ","ALLEY":" ","HOUSE_NO":"４５１號","E_COORD97":189978.17000000001,"N_COORD97":2583412.8500000001,"ADDRESS":"三民路４５１號","OBJECTID":272463},"geometry":{"x":189978.16999999899,"y":2583412.8499999996}},{"attributes":{"ID":272469,"DIS_CODE":0,"TOWNNAME":"白河區","LI":"永安里","LIN":"15鄰","STREET":"三民路","SECT":" ","MAREA":" ","LANE":" ","ALLEY":" ","HOUSE_NO":"４９３號","E_COORD97":189805.07999999999,"N_COORD97":2583471.6200000001,"ADDRESS":"三民路４９３號","OBJECTID":272464},"geometry":{"x":189805.08000000101,"y":2583471.6200000048}},{"attributes":{"ID":272470,"DIS_CODE":0,"TOWNNAME":"白河區","LI":"永安里","LIN":"15鄰","STREET":"三民路","SECT":" ","MAREA":" ","LANE":" ","ALLEY":" ","HOUSE_NO":"４９５號","E_COORD97":189801.45999999999,"N_COORD97":2583473.27,"ADDRESS":"三民路４９５號","OBJECTID":272465},"geometry":{"x":189801.45999999996,"y":2583473.2700000014}},{"attributes":{"ID":272471,"DIS_CODE":0,"TOWNNAME":"新營區","LI":"三仙里","LIN":"31鄰","STREET":"育德街","SECT":" ","MAREA":" ","LANE":" ","ALLEY":" ","HOUSE_NO":"１３７號","E_COORD97":179587.19,"N_COORD97":2579294.52,"ADDRESS":"育德街１３７號","OBJECTID":272466},"geometry":{"x":179587.19000000227,"y":2579294.5200000014}},{"attributes":{"ID":272472,"DIS_CODE":0,"TOWNNAME":"新營區","LI":"民權里","LIN":" ","STREET":"民治路","SECT":" ","MAREA":" ","LANE":" ","ALLEY":" ","HOUSE_NO":"５１號","E_COORD97":179683.95999999999,"N_COORD97":2578823.3799999999,"ADDRESS":"民治路５１號","OBJECTID":272467},"geometry":{"x":179683.96000000089,"y":2578823.3800000008}},{"attributes":{"ID":272473,"DIS_CODE":0,"TOWNNAME":"新營區","LI":"民權里","LIN":"5鄰","STREET":"信義街","SECT":" ","MAREA":" ","LANE":" ","ALLEY":" ","HOUSE_NO":"６０號","E_COORD97":179919.67999999999,"N_COORD97":2578491.1400000001,"ADDRESS":"信義街６０號","OBJECTID":272468},"geometry":{"x":179919.6799999997,"y":2578491.1400000025}},{"attributes":{"ID":272474,"DIS_CODE":0,"TOWNNAME":"新營區","LI":"新北里","LIN":"18鄰","STREET":"民生路","SECT":" ","MAREA":" ","LANE":" ","ALLEY":" ","HOUSE_NO":"８２號","E_COORD97":179213.17000000001,"N_COORD97":2578751.4399999999,"ADDRESS":"民生路８２號","OBJECTID":272469},"geometry":{"x":179213.16999999993,"y":2578751.4399999995}},{"attributes":{"ID":272475,"DIS_CODE":0,"TOWNNAME":"新營區","LI":"王公里","LIN":"25鄰","STREET":"中正路","SECT":" ","MAREA":" ","LANE":" ","ALLEY":" ","HOUSE_NO":"１３０之９號","E_COORD97":180100.28,"N_COORD97":2579554.6200000001,"ADDRESS":"中正路１３０之９號","OBJECTID":272470},"geometry":{"x":180100.28000000119,"y":2579554.620000001}},{"attributes":{"ID":272476,"DIS_CODE":0,"TOWNNAME":"安南區","LI":"淵中里","LIN":"3鄰","STREET":"安中路","SECT":"四段","MAREA":" ","LANE":" ","ALLEY":" ","HOUSE_NO":"８９號","E_COORD97":165159.31,"N_COORD97":2550002.2000000002,"ADDRESS":"安中路四段８９號","OBJECTID":272471},"geometry":{"x":165159.30999999866,"y":2550002.1999999993}},{"attributes":{"ID":272477,"DIS_CODE":0,"TOWNNAME":"仁德區","LI":"太子里","LIN":"7鄰","STREET":"太子路","SECT":" ","MAREA":" ","LANE":"１９０巷","ALLEY":" ","HOUSE_NO":"１０號五樓","E_COORD97":174329.20999999999,"N_COORD97":2543613.7599999998,"ADDRESS":"太子路１９０巷１０號五樓","OBJECTID":272472},"geometry":{"x":174329.20999999996,"y":2543613.7599999998}},{"attributes":{"ID":272478,"DIS_CODE":0,"TOWNNAME":"仁德區","LI":"太子里","LIN":"7鄰","STREET":"太子路","SECT":" ","MAREA":" ","LANE":"１９０巷","ALLEY":" ","HOUSE_NO":"８號四樓","E_COORD97":174328.12,"N_COORD97":2543607,"ADDRESS":"太子路１９０巷８號四樓","OBJECTID":272473},"geometry":{"x":174328.12000000011,"y":2543606.9999999981}},{"attributes":{"ID":272479,"DIS_CODE":0,"TOWNNAME":"中西區","LI":"開山里","LIN":"7鄰","STREET":"開山路","SECT":" ","MAREA":" ","LANE":"１２７巷","ALLEY":" ","HOUSE_NO":"１０２號一樓之１","E_COORD97":169036.94,"N_COORD97":2543065.5899999999,"ADDRESS":"開山路１２７巷１０２號一樓之１","OBJECTID":272474},"geometry":{"x":169036.94000000134,"y":2543065.5900000017}},{"attributes":{"ID":272480,"DIS_CODE":0,"TOWNNAME":"中西區","LI":"開山里","LIN":"7鄰","STREET":"開山路","SECT":" ","MAREA":" ","LANE":"１２７巷","ALLEY":" ","HOUSE_NO":"１０２號一樓之２","E_COORD97":169036.94,"N_COORD97":2543065.5899999999,"ADDRESS":"開山路１２７巷１０２號一樓之２","OBJECTID":272475},"geometry":{"x":169036.94000000134,"y":2543065.5900000017}},{"attributes":{"ID":272481,"DIS_CODE":0,"TOWNNAME":"中西區","LI":"開山里","LIN":"7鄰","STREET":"開山路","SECT":" ","MAREA":" ","LANE":"１２７巷","ALLEY":" ","HOUSE_NO":"１０２號二樓之１","E_COORD97":169036.94,"N_COORD97":2543065.5899999999,"ADDRESS":"開山路１２７巷１０２號二樓之１","OBJECTID":272476},"geometry":{"x":169036.94000000134,"y":2543065.5900000017}},{"attributes":{"ID":272482,"DIS_CODE":0,"TOWNNAME":"仁德區","LI":"太子里","LIN":"7鄰","STREET":"太子路","SECT":" ","MAREA":" ","LANE":"１９０巷","ALLEY":" ","HOUSE_NO":"８號五樓","E_COORD97":174328.12,"N_COORD97":2543607,"ADDRESS":"太子路１９０巷８號五樓","OBJECTID":272477},"geometry":{"x":174328.12000000011,"y":2543606.9999999981}},{"attributes":{"ID":272483,"DIS_CODE":0,"TOWNNAME":"安南區","LI":"淵中里","LIN":"3鄰","STREET":"安中路","SECT":"四段","MAREA":" ","LANE":" ","ALLEY":" ","HOUSE_NO":"１０１號","E_COORD97":165136.13,"N_COORD97":2549987.6400000001,"ADDRESS":"安中路四段１０１號","OBJECTID":272478},"geometry":{"x":165136.13000000082,"y":2549987.6400000043}},{"attributes":{"ID":272484,"DIS_CODE":0,"TOWNNAME":"安南區","LI":"淵中里","LIN":"3鄰","STREET":"安中路","SECT":"四段","MAREA":" ","LANE":" ","ALLEY":" ","HOUSE_NO":"１０３號","E_COORD97":165132.35999999999,"N_COORD97":2549984.4100000001,"ADDRESS":"安中路四段１０３號","OBJECTID":272479},"geometry":{"x":165132.36000000034,"y":2549984.4100000001}},{"attributes":{"ID":272485,"DIS_CODE":0,"TOWNNAME":"安南區","LI":"淵中里","LIN":"3鄰","STREET":"安中路","SECT":"四段","MAREA":" ","LANE":" ","ALLEY":" ","HOUSE_NO":"３９號","E_COORD97":165234.64999999999,"N_COORD97":2550061.3799999999,"ADDRESS":"安中路四段３９號","OBJECTID":272480},"geometry":{"x":165234.6500000013,"y":2550061.379999999}},{"attributes":{"ID":272486,"DIS_CODE":0,"TOWNNAME":"安南區","LI":"淵中里","LIN":"3鄰","STREET":"安中路","SECT":"四段","MAREA":" ","LANE":" ","ALLEY":" ","HOUSE_NO":"４３號","E_COORD97":165228.81,"N_COORD97":2550056.8100000001,"ADDRESS":"安中路四段４３號","OBJECTID":272481},"geometry":{"x":165228.80999999866,"y":2550056.8100000005}},{"attributes":{"ID":272487,"DIS_CODE":0,"TOWNNAME":"善化區","LI":"什乃里","LIN":"3鄰","STREET":" ","SECT":" ","MAREA":"什乃","LANE":" ","ALLEY":" ","HOUSE_NO":"２６號","E_COORD97":176159.95000000001,"N_COORD97":2560600.5,"ADDRESS":"什乃２６號","OBJECTID":272482},"geometry":{"x":176159.95000000112,"y":2560600.5000000019}},{"attributes":{"ID":272488,"DIS_CODE":0,"TOWNNAME":"仁德區","LI":"太子里","LIN":"7鄰","STREET":"太子路","SECT":" ","MAREA":" ","LANE":"１９０巷","ALLEY":" ","HOUSE_NO":"６號二樓","E_COORD97":174328.57000000001,"N_COORD97":2543600.75,"ADDRESS":"太子路１９０巷６號二樓","OBJECTID":272483},"geometry":{"x":174328.5700000003,"y":2543600.75}},{"attributes":{"ID":272489,"DIS_CODE":0,"TOWNNAME":"仁德區","LI":"太子里","LIN":"7鄰","STREET":"太子路","SECT":" ","MAREA":" ","LANE":"１９０巷","ALLEY":" ","HOUSE_NO":"８號二樓","E_COORD97":174328.12,"N_COORD97":2543607,"ADDRESS":"太子路１９０巷８號二樓","OBJECTID":272484},"geometry":{"x":174328.12000000011,"y":2543606.9999999981}},{"attributes":{"ID":272490,"DIS_CODE":0,"TOWNNAME":"安南區","LI":"淵中里","LIN":"3鄰","STREET":"安中路","SECT":"四段","MAREA":" ","LANE":" ","ALLEY":" ","HOUSE_NO":"４７號","E_COORD97":165227.07000000001,"N_COORD97":2550050.8999999999,"ADDRESS":"安中路四段４７號","OBJECTID":272485},"geometry":{"x":165227.0700000003,"y":2550050.9000000022}},{"attributes":{"ID":272491,"DIS_CODE":0,"TOWNNAME":"仁德區","LI":"太子里","LIN":"7鄰","STREET":"太子路","SECT":" ","MAREA":" ","LANE":"１９０巷","ALLEY":" ","HOUSE_NO":"６號五樓","E_COORD97":174328.57000000001,"N_COORD97":2543600.75,"ADDRESS":"太子路１９０巷６號五樓","OBJECTID":272486},"geometry":{"x":174328.5700000003,"y":2543600.75}},{"attributes":{"ID":272492,"DIS_CODE":0,"TOWNNAME":"仁德區","LI":"太子里","LIN":"7鄰","STREET":"太子路","SECT":" ","MAREA":" ","LANE":"１９０巷","ALLEY":" ","HOUSE_NO":"１０號三樓","E_COORD97":174329.20999999999,"N_COORD97":2543613.7599999998,"ADDRESS":"太子路１９０巷１０號三樓","OBJECTID":272487},"geometry":{"x":174329.20999999996,"y":2543613.7599999998}},{"attributes":{"ID":272493,"DIS_CODE":0,"TOWNNAME":"安南區","LI":"顯宮里","LIN":"3鄰","STREET":"安中路","SECT":"五段","MAREA":" ","LANE":" ","ALLEY":" ","HOUSE_NO":"２６５號","E_COORD97":162937.97,"N_COORD97":2550860,"ADDRESS":"安中路五段２６５號","OBJECTID":272488},"geometry":{"x":162937.97000000067,"y":2550860.0000000019}},{"attributes":{"ID":272494,"DIS_CODE":0,"TOWNNAME":"東區","LI":"東光里","LIN":"7鄰","STREET":"東興路","SECT":" ","MAREA":" ","LANE":"１６９巷","ALLEY":" ","HOUSE_NO":"１６號二樓","E_COORD97":170928.42000000001,"N_COORD97":2543817.98,"ADDRESS":"東興路１６９巷１６號二樓","OBJECTID":272489},"geometry":{"x":170928.42000000086,"y":2543817.9800000042}},{"attributes":{"ID":272495,"DIS_CODE":0,"TOWNNAME":"安南區","LI":"幸福里","LIN":"3鄰","STREET":"國安街","SECT":" ","MAREA":" ","LANE":" ","ALLEY":" ","HOUSE_NO":"８７號","E_COORD97":166924.17000000001,"N_COORD97":2546982.6600000001,"ADDRESS":"國安街８７號","OBJECTID":272490},"geometry":{"x":166924.17000000086,"y":2546982.6600000001}},{"attributes":{"ID":272496,"DIS_CODE":0,"TOWNNAME":"東區","LI":"崇成里","LIN":"25鄰","STREET":"崇明二十四街","SECT":" ","MAREA":" ","LANE":" ","ALLEY":" ","HOUSE_NO":"５１號","E_COORD97":170740.10999999999,"N_COORD97":2540828.02,"ADDRESS":"崇明二十四街５１號","OBJECTID":272491},"geometry":{"x":170740.11000000034,"y":2540828.0200000014}},{"attributes":{"ID":272497,"DIS_CODE":0,"TOWNNAME":"東區","LI":"東門里","LIN":"6鄰","STREET":"前鋒路","SECT":" ","MAREA":" ","LANE":" ","ALLEY":" ","HOUSE_NO":"６５號","E_COORD97":169284.17000000001,"N_COORD97":2543485.4300000002,"ADDRESS":"前鋒路６５號","OBJECTID":272492},"geometry":{"x":169284.17000000086,"y":2543485.4300000034}},{"attributes":{"ID":272498,"DIS_CODE":0,"TOWNNAME":"東區","LI":"東光里","LIN":"7鄰","STREET":"東興路","SECT":" ","MAREA":" ","LANE":"１６９巷","ALLEY":" ","HOUSE_NO":"１６號三樓","E_COORD97":170928.42000000001,"N_COORD97":2543817.98,"ADDRESS":"東興路１６９巷１６號三樓","OBJECTID":272493},"geometry":{"x":170928.42000000086,"y":2543817.9800000042}},{"attributes":{"ID":272499,"DIS_CODE":0,"TOWNNAME":"東區","LI":"東光里","LIN":"7鄰","STREET":"東興路","SECT":" ","MAREA":" ","LANE":"１６９巷","ALLEY":" ","HOUSE_NO":"１６號四樓","E_COORD97":170928.42000000001,"N_COORD97":2543817.98,"ADDRESS":"東興路１６９巷１６號四樓","OBJECTID":272494},"geometry":{"x":170928.42000000086,"y":2543817.9800000042}},{"attributes":{"ID":272500,"DIS_CODE":0,"TOWNNAME":"東區","LI":"莊敬里","LIN":"7鄰","STREET":"東光路","SECT":"二段","MAREA":" ","LANE":"１２１巷","ALLEY":" ","HOUSE_NO":"５１號二樓","E_COORD97":171099.66,"N_COORD97":2544196.1000000001,"ADDRESS":"東光路二段１２１巷５１號二樓","OBJECTID":272495},"geometry":{"x":171099.66000000108,"y":2544196.1000000034}},{"attributes":{"ID":272501,"DIS_CODE":0,"TOWNNAME":"佳里區","LI":"建南里","LIN":"7鄰","STREET":"建南街","SECT":" ","MAREA":" ","LANE":"１７９巷","ALLEY":" ","HOUSE_NO":"４號二樓","E_COORD97":165676.32000000001,"N_COORD97":2562209.4900000002,"ADDRESS":"建南街１７９巷４號二樓","OBJECTID":272496},"geometry":{"x":165676.3200000003,"y":2562209.4900000002}},{"attributes":{"ID":272502,"DIS_CODE":0,"TOWNNAME":"佳里區","LI":"建南里","LIN":"7鄰","STREET":"建南街","SECT":" ","MAREA":" ","LANE":"１７９巷","ALLEY":" ","HOUSE_NO":"４號三樓","E_COORD97":165676.32000000001,"N_COORD97":2562209.4900000002,"ADDRESS":"建南街１７９巷４號三樓","OBJECTID":272497},"geometry":{"x":165676.3200000003,"y":2562209.4900000002}},{"attributes":{"ID":272503,"DIS_CODE":0,"TOWNNAME":"麻豆區","LI":"興農里","LIN":"8鄰","STREET":"新生南路","SECT":" ","MAREA":" ","LANE":"２１８巷","ALLEY":" ","HOUSE_NO":"７３號","E_COORD97":172261.26000000001,"N_COORD97":2564382.54,"ADDRESS":"新生南路２１８巷７３號","OBJECTID":272498},"geometry":{"x":172261.26000000071,"y":2564382.540000001}},{"attributes":{"ID":272504,"DIS_CODE":0,"TOWNNAME":"北區","LI":"延平里","LIN":"7鄰","STREET":"公園路","SECT":" ","MAREA":" ","LANE":"７７２巷","ALLEY":" ","HOUSE_NO":"２５號二樓","E_COORD97":169222.67000000001,"N_COORD97":2545721.8799999999,"ADDRESS":"公園路７７２巷２５號二樓","OBJECTID":272499},"geometry":{"x":169222.67000000086,"y":2545721.879999999}},{"attributes":{"ID":272505,"DIS_CODE":0,"TOWNNAME":"安平區","LI":"文平里","LIN":"7鄰","STREET":"建平六街","SECT":" ","MAREA":" ","LANE":"１１０巷","ALLEY":" ","HOUSE_NO":"１９號七樓之１","E_COORD97":166202.82999999999,"N_COORD97":2543165,"ADDRESS":"建平六街１１０巷１９號七樓之１","OBJECTID":272500},"geometry":{"x":166202.83000000101,"y":2543165}},{"attributes":{"ID":272506,"DIS_CODE":0,"TOWNNAME":"北區","LI":"大道里","LIN":"7鄰","STREET":"北門路","SECT":"二段","MAREA":" ","LANE":"５７６巷","ALLEY":" ","HOUSE_NO":"１６號九樓之１","E_COORD97":169645.53,"N_COORD97":2545555.0800000001,"ADDRESS":"北門路二段５７６巷１６號九樓之１","OBJECTID":272501},"geometry":{"x":169645.53000000026,"y":2545555.0800000001}},{"attributes":{"ID":272507,"DIS_CODE":0,"TOWNNAME":"東區","LI":"東門里","LIN":"6鄰","STREET":"前鋒路","SECT":" ","MAREA":" ","LANE":" ","ALLEY":" ","HOUSE_NO":"６５號之１","E_COORD97":169283.35000000001,"N_COORD97":2543488.8500000001,"ADDRESS":"前鋒路６５號之１","OBJECTID":272502},"geometry":{"x":169283.34999999963,"y":2543488.8499999996}},{"attributes":{"ID":272508,"DIS_CODE":0,"TOWNNAME":"東區","LI":"東門里","LIN":"6鄰","STREET":"前鋒路","SECT":" ","MAREA":" ","LANE":" ","ALLEY":" ","HOUSE_NO":"６７號","E_COORD97":169286.45000000001,"N_COORD97":2543493.7599999998,"ADDRESS":"前鋒路６７號","OBJECTID":272503},"geometry":{"x":169286.45000000019,"y":2543493.7600000016}},{"attributes":{"ID":272509,"DIS_CODE":0,"TOWNNAME":"東區","LI":"東門里","LIN":"6鄰","STREET":"前鋒路","SECT":" ","MAREA":" ","LANE":" ","ALLEY":" ","HOUSE_NO":"６７號地下層","E_COORD97":169286.45000000001,"N_COORD97":2543493.7599999998,"ADDRESS":"前鋒路６７號地下層","OBJECTID":272504},"geometry":{"x":169286.45000000019,"y":2543493.7600000016}},{"attributes":{"ID":272510,"DIS_CODE":0,"TOWNNAME":"東區","LI":"東門里","LIN":"6鄰","STREET":"前鋒路","SECT":" ","MAREA":" ","LANE":" ","ALLEY":" ","HOUSE_NO":"６９號","E_COORD97":169284.75,"N_COORD97":2543498.3399999999,"ADDRESS":"前鋒路６９號","OBJECTID":272505},"geometry":{"x":169284.75000000186,"y":2543498.3399999999}},{"attributes":{"ID":272511,"DIS_CODE":0,"TOWNNAME":"東區","LI":"東門里","LIN":"6鄰","STREET":"前鋒路","SECT":" ","MAREA":" ","LANE":" ","ALLEY":" ","HOUSE_NO":"６９號地下層","E_COORD97":169284.75,"N_COORD97":2543498.3399999999,"ADDRESS":"前鋒路６９號地下層","OBJECTID":272506},"geometry":{"x":169284.75000000186,"y":2543498.3399999999}},{"attributes":{"ID":272512,"DIS_CODE":0,"TOWNNAME":"東區","LI":"東門里","LIN":"6鄰","STREET":"前鋒路","SECT":" ","MAREA":" ","LANE":" ","ALLEY":" ","HOUSE_NO":"７１號","E_COORD97":169288.10999999999,"N_COORD97":2543511.5,"ADDRESS":"前鋒路７１號","OBJECTID":272507},"geometry":{"x":169288.11000000127,"y":2543511.5}},{"attributes":{"ID":272513,"DIS_CODE":0,"TOWNNAME":"東區","LI":"東門里","LIN":"9鄰","STREET":"前鋒路","SECT":" ","MAREA":" ","LANE":" ","ALLEY":" ","HOUSE_NO":"４９號","E_COORD97":169282.64999999999,"N_COORD97":2543438.2200000002,"ADDRESS":"前鋒路４９號","OBJECTID":272508},"geometry":{"x":169282.6500000013,"y":2543438.2200000025}},{"attributes":{"ID":272514,"DIS_CODE":0,"TOWNNAME":"善化區","LI":"文正里","LIN":" ","STREET":"興農路","SECT":" ","MAREA":" ","LANE":" ","ALLEY":" ","HOUSE_NO":"２８號","E_COORD97":176583.04000000001,"N_COORD97":2559189.7599999998,"ADDRESS":"興農路２８號","OBJECTID":272509},"geometry":{"x":176583.04000000097,"y":2559189.7599999998}},{"attributes":{"ID":272515,"DIS_CODE":0,"TOWNNAME":"安平區","LI":"港仔里","LIN":"7鄰","STREET":"安平路","SECT":" ","MAREA":" ","LANE":"７２４巷","ALLEY":" ","HOUSE_NO":"３號二樓","E_COORD97":164330.85000000001,"N_COORD97":2544520.1200000001,"ADDRESS":"安平路７２４巷３號二樓","OBJECTID":272510},"geometry":{"x":164330.85000000056,"y":2544520.1200000029}},{"attributes":{"ID":272516,"DIS_CODE":0,"TOWNNAME":"安平區","LI":"港仔里","LIN":"7鄰","STREET":"安平路","SECT":" ","MAREA":" ","LANE":"７２４巷","ALLEY":" ","HOUSE_NO":"３號三樓","E_COORD97":164330.85000000001,"N_COORD97":2544520.1200000001,"ADDRESS":"安平路７２４巷３號三樓","OBJECTID":272511},"geometry":{"x":164330.85000000056,"y":2544520.1200000029}},{"attributes":{"ID":272517,"DIS_CODE":0,"TOWNNAME":"安平區","LI":"港仔里","LIN":"7鄰","STREET":"安平路","SECT":" ","MAREA":" ","LANE":"７２４巷","ALLEY":" ","HOUSE_NO":"３號四樓","E_COORD97":164330.85000000001,"N_COORD97":2544520.1200000001,"ADDRESS":"安平路７２４巷３號四樓","OBJECTID":272512},"geometry":{"x":164330.85000000056,"y":2544520.1200000029}},{"attributes":{"ID":272518,"DIS_CODE":0,"TOWNNAME":"歸仁區","LI":"南興里","LIN":"17鄰","STREET":"南興街","SECT":" ","MAREA":" ","LANE":"２０７巷","ALLEY":" ","HOUSE_NO":"３號","E_COORD97":175702.89000000001,"N_COORD97":2541364.25,"ADDRESS":"南興街２０７巷３號","OBJECTID":272513},"geometry":{"x":175702.88999999966,"y":2541364.2499999981}},{"attributes":{"ID":272519,"DIS_CODE":0,"TOWNNAME":"北區","LI":"長榮里","LIN":"7鄰","STREET":"長榮路","SECT":"五段","MAREA":" ","LANE":"４１巷","ALLEY":" ","HOUSE_NO":"１６號十樓之２","E_COORD97":170015.07999999999,"N_COORD97":2545549.6499999999,"ADDRESS":"長榮路五段４１巷１６號十樓之２","OBJECTID":272514},"geometry":{"x":170015.08000000101,"y":2545549.6500000022}},{"attributes":{"ID":272520,"DIS_CODE":0,"TOWNNAME":"北區","LI":"長榮里","LIN":"7鄰","STREET":"長榮路","SECT":"五段","MAREA":" ","LANE":"４１巷","ALLEY":" ","HOUSE_NO":"１６號十樓之３","E_COORD97":170015.07999999999,"N_COORD97":2545549.6499999999,"ADDRESS":"長榮路五段４１巷１６號十樓之３","OBJECTID":272515},"geometry":{"x":170015.08000000101,"y":2545549.6500000022}},{"attributes":{"ID":272521,"DIS_CODE":0,"TOWNNAME":"東區","LI":"東門里","LIN":"8鄰","STREET":"前鋒路","SECT":" ","MAREA":" ","LANE":" ","ALLEY":" ","HOUSE_NO":"２０號","E_COORD97":169297.26000000001,"N_COORD97":2543408.3199999998,"ADDRESS":"前鋒路２０號","OBJECTID":272516},"geometry":{"x":169297.25999999978,"y":2543408.3200000003}},{"attributes":{"ID":272522,"DIS_CODE":0,"TOWNNAME":"東區","LI":"東門里","LIN":"8鄰","STREET":"前鋒路","SECT":" ","MAREA":" ","LANE":" ","ALLEY":" ","HOUSE_NO":"２２號","E_COORD97":169298.13,"N_COORD97":2543422.1000000001,"ADDRESS":"前鋒路２２號","OBJECTID":272517},"geometry":{"x":169298.12999999989,"y":2543422.0999999996}},{"attributes":{"ID":272523,"DIS_CODE":0,"TOWNNAME":"東區","LI":"東門里","LIN":"8鄰","STREET":"前鋒路","SECT":" ","MAREA":" ","LANE":" ","ALLEY":" ","HOUSE_NO":"３０號","E_COORD97":169300.13,"N_COORD97":2543446.5499999998,"ADDRESS":"前鋒路３０號","OBJECTID":272518},"geometry":{"x":169300.12999999989,"y":2543446.5500000026}},{"attributes":{"ID":272524,"DIS_CODE":0,"TOWNNAME":"東區","LI":"東門里","LIN":"8鄰","STREET":"前鋒路","SECT":" ","MAREA":" ","LANE":" ","ALLEY":" ","HOUSE_NO":"３２號","E_COORD97":169300.32999999999,"N_COORD97":2543449.8100000001,"ADDRESS":"前鋒路３２號","OBJECTID":272519},"geometry":{"x":169300.33000000007,"y":2543449.8100000042}},{"attributes":{"ID":272525,"DIS_CODE":0,"TOWNNAME":"東區","LI":"東門里","LIN":"8鄰","STREET":"前鋒路","SECT":" ","MAREA":" ","LANE":" ","ALLEY":" ","HOUSE_NO":"３４號","E_COORD97":169301.39000000001,"N_COORD97":2543455.7599999998,"ADDRESS":"前鋒路３４號","OBJECTID":272520},"geometry":{"x":169301.38999999966,"y":2543455.7599999998}},{"attributes":{"ID":272526,"DIS_CODE":0,"TOWNNAME":"東區","LI":"東門里","LIN":"8鄰","STREET":"前鋒路","SECT":" ","MAREA":" ","LANE":" ","ALLEY":" ","HOUSE_NO":"３６號","E_COORD97":169301.26000000001,"N_COORD97":2543459.3500000001,"ADDRESS":"前鋒路３６號","OBJECTID":272521},"geometry":{"x":169301.26000000164,"y":2543459.3500000015}},{"attributes":{"ID":272527,"DIS_CODE":0,"TOWNNAME":"善化區","LI":"光文里","LIN":" ","STREET":"建國路","SECT":" ","MAREA":" ","LANE":" ","ALLEY":" ","HOUSE_NO":"１８８號","E_COORD97":177979.57999999999,"N_COORD97":2559063.7799999998,"ADDRESS":"建國路１８８號","OBJECTID":272522},"geometry":{"x":177979.58000000101,"y":2559063.7799999993}},{"attributes":{"ID":272528,"DIS_CODE":0,"TOWNNAME":"善化區","LI":"文昌里","LIN":"4鄰","STREET":"自由路","SECT":" ","MAREA":" ","LANE":" ","ALLEY":" ","HOUSE_NO":"６４號","E_COORD97":177261.04000000001,"N_COORD97":2558915.5,"ADDRESS":"自由路６４號","OBJECTID":272523},"geometry":{"x":177261.04000000097,"y":2558915.5000000019}},{"attributes":{"ID":272529,"DIS_CODE":0,"TOWNNAME":"善化區","LI":"文昌里","LIN":"4鄰","STREET":"中華路","SECT":" ","MAREA":" ","LANE":" ","ALLEY":" ","HOUSE_NO":"１０６號","E_COORD97":177224.09,"N_COORD97":2558930.25,"ADDRESS":"中華路１０６號","OBJECTID":272524},"geometry":{"x":177224.08999999892,"y":2558930.2500000037}},{"attributes":{"ID":272530,"DIS_CODE":0,"TOWNNAME":"善化區","LI":"文正里","LIN":"13鄰","STREET":"中山路","SECT":" ","MAREA":" ","LANE":" ","ALLEY":" ","HOUSE_NO":"５５０號之２","E_COORD97":176839.75,"N_COORD97":2559228.02,"ADDRESS":"中山路５５０號之２","OBJECTID":272525},"geometry":{"x":176839.75,"y":2559228.0199999996}},{"attributes":{"ID":272531,"DIS_CODE":0,"TOWNNAME":"善化區","LI":"文昌里","LIN":"20鄰","STREET":"中正路","SECT":" ","MAREA":" ","LANE":" ","ALLEY":" ","HOUSE_NO":"１９６之１","E_COORD97":177715.32999999999,"N_COORD97":2558248.27,"ADDRESS":"中正路１９６之１","OBJECTID":272526},"geometry":{"x":177715.33000000007,"y":2558248.2700000014}},{"attributes":{"ID":272532,"DIS_CODE":0,"TOWNNAME":"善化區","LI":"文昌里","LIN":"4鄰","STREET":"自由路","SECT":" ","MAREA":" ","LANE":" ","ALLEY":" ","HOUSE_NO":"６０號","E_COORD97":177266.32999999999,"N_COORD97":2558916,"ADDRESS":"自由路６０號","OBJECTID":272527},"geometry":{"x":177266.33000000007,"y":2558916.0000000019}},{"attributes":{"ID":272533,"DIS_CODE":0,"TOWNNAME":"善化區","LI":"文昌里","LIN":"4鄰","STREET":"中華路","SECT":" ","MAREA":" ","LANE":" ","ALLEY":" ","HOUSE_NO":"１１０號","E_COORD97":177224.87,"N_COORD97":2558936.25,"ADDRESS":"中華路１１０號","OBJECTID":272528},"geometry":{"x":177224.87000000104,"y":2558936.25}},{"attributes":{"ID":272534,"DIS_CODE":0,"TOWNNAME":"北區","LI":"長榮里","LIN":"7鄰","STREET":"長榮路","SECT":"五段","MAREA":" ","LANE":"４１巷","ALLEY":" ","HOUSE_NO":"１６號十樓之５","E_COORD97":170015.07999999999,"N_COORD97":2545549.6499999999,"ADDRESS":"長榮路五段４１巷１６號十樓之５","OBJECTID":272529},"geometry":{"x":170015.08000000101,"y":2545549.6500000022}},{"attributes":{"ID":272535,"DIS_CODE":0,"TOWNNAME":"北區","LI":"長榮里","LIN":"7鄰","STREET":"長榮路","SECT":"五段","MAREA":" ","LANE":"４１巷","ALLEY":" ","HOUSE_NO":"１６號十一樓之１","E_COORD97":170015.07999999999,"N_COORD97":2545549.6499999999,"ADDRESS":"長榮路五段４１巷１６號十一樓之１","OBJECTID":272530},"geometry":{"x":170015.08000000101,"y":2545549.6500000022}},{"attributes":{"ID":272536,"DIS_CODE":0,"TOWNNAME":"北區","LI":"長榮里","LIN":"7鄰","STREET":"長榮路","SECT":"五段","MAREA":" ","LANE":"４１巷","ALLEY":" ","HOUSE_NO":"１６號十一樓之２","E_COORD97":170015.07999999999,"N_COORD97":2545549.6499999999,"ADDRESS":"長榮路五段４１巷１６號十一樓之２","OBJECTID":272531},"geometry":{"x":170015.08000000101,"y":2545549.6500000022}},{"attributes":{"ID":272537,"DIS_CODE":0,"TOWNNAME":"北區","LI":"長榮里","LIN":"7鄰","STREET":"長榮路","SECT":"五段","MAREA":" ","LANE":"４１巷","ALLEY":" ","HOUSE_NO":"１６號十一樓之３","E_COORD97":170015.07999999999,"N_COORD97":2545549.6499999999,"ADDRESS":"長榮路五段４１巷１６號十一樓之３","OBJECTID":272532},"geometry":{"x":170015.08000000101,"y":2545549.6500000022}},{"attributes":{"ID":272538,"DIS_CODE":0,"TOWNNAME":"善化區","LI":"文正里","LIN":"13鄰","STREET":"中山路","SECT":" ","MAREA":" ","LANE":" ","ALLEY":" ","HOUSE_NO":"５６６號之６","E_COORD97":176788.95999999999,"N_COORD97":2559218.0499999998,"ADDRESS":"中山路５６６號之６","OBJECTID":272533},"geometry":{"x":176788.95999999996,"y":2559218.0500000026}},{"attributes":{"ID":272539,"DIS_CODE":0,"TOWNNAME":"北區","LI":"長榮里","LIN":"7鄰","STREET":"長榮路","SECT":"五段","MAREA":" ","LANE":"４１巷","ALLEY":" ","HOUSE_NO":"１６號十一樓之５","E_COORD97":170015.07999999999,"N_COORD97":2545549.6499999999,"ADDRESS":"長榮路五段４１巷１６號十一樓之５","OBJECTID":272534},"geometry":{"x":170015.08000000101,"y":2545549.6500000022}},{"attributes":{"ID":272540,"DIS_CODE":0,"TOWNNAME":"東區","LI":"東門里","LIN":"8鄰","STREET":"前鋒路","SECT":" ","MAREA":" ","LANE":"２４巷","ALLEY":" ","HOUSE_NO":"１號","E_COORD97":169327.92000000001,"N_COORD97":2543442.9100000001,"ADDRESS":"前鋒路２４巷１號","OBJECTID":272535},"geometry":{"x":169327.92000000086,"y":2543442.910000002}},{"attributes":{"ID":272541,"DIS_CODE":0,"TOWNNAME":"新營區","LI":"忠政里","LIN":"7鄰","STREET":"中正路","SECT":" ","MAREA":" ","LANE":"３５巷","ALLEY":" ","HOUSE_NO":"１９號三樓","E_COORD97":180012.98999999999,"N_COORD97":2579095.3900000001,"ADDRESS":"中正路３５巷１９號三樓","OBJECTID":272536},"geometry":{"x":180012.99000000022,"y":2579095.3900000006}},{"attributes":{"ID":272542,"DIS_CODE":0,"TOWNNAME":"新營區","LI":"忠政里","LIN":"7鄰","STREET":"中正路","SECT":" ","MAREA":" ","LANE":"３５巷","ALLEY":" ","HOUSE_NO":"１５號三樓","E_COORD97":180025.26999999999,"N_COORD97":2579095.3300000001,"ADDRESS":"中正路３５巷１５號三樓","OBJECTID":272537},"geometry":{"x":180025.27000000048,"y":2579095.3299999982}},{"attributes":{"ID":272543,"DIS_CODE":0,"TOWNNAME":"北區","LI":"大仁里","LIN":"7鄰","STREET":"北門路","SECT":"二段","MAREA":" ","LANE":"２３７巷","ALLEY":" ","HOUSE_NO":"６號二樓之１","E_COORD97":169477.66,"N_COORD97":2545360.1200000001,"ADDRESS":"北門路二段２３７巷６號二樓之１","OBJECTID":272538},"geometry":{"x":169477.66000000108,"y":2545360.1199999992}},{"attributes":{"ID":272544,"DIS_CODE":0,"TOWNNAME":"北區","LI":"大仁里","LIN":"7鄰","STREET":"北門路","SECT":"二段","MAREA":" ","LANE":"２３７巷","ALLEY":" ","HOUSE_NO":"６號二樓之２","E_COORD97":169474.94,"N_COORD97":2545368.1400000001,"ADDRESS":"北門路二段２３７巷６號二樓之２","OBJECTID":272539},"geometry":{"x":169474.94000000041,"y":2545368.1400000025}},{"attributes":{"ID":272545,"DIS_CODE":0,"TOWNNAME":"北區","LI":"大仁里","LIN":"7鄰","STREET":"北門路","SECT":"二段","MAREA":" ","LANE":"２３７巷","ALLEY":" ","HOUSE_NO":"６號三樓之１","E_COORD97":169477.66,"N_COORD97":2545360.1200000001,"ADDRESS":"北門路二段２３７巷６號三樓之１","OBJECTID":272540},"geometry":{"x":169477.66000000108,"y":2545360.1199999992}},{"attributes":{"ID":272546,"DIS_CODE":0,"TOWNNAME":"北區","LI":"大仁里","LIN":"7鄰","STREET":"北門路","SECT":"二段","MAREA":" ","LANE":"２３７巷","ALLEY":" ","HOUSE_NO":"６號三樓之２","E_COORD97":169474.94,"N_COORD97":2545368.1400000001,"ADDRESS":"北門路二段２３７巷６號三樓之２","OBJECTID":272541},"geometry":{"x":169474.94000000041,"y":2545368.1400000025}},{"attributes":{"ID":272547,"DIS_CODE":0,"TOWNNAME":"北區","LI":"大仁里","LIN":"7鄰","STREET":"北門路","SECT":"二段","MAREA":" ","LANE":"２３７巷","ALLEY":" ","HOUSE_NO":"６號五樓之１","E_COORD97":169477.66,"N_COORD97":2545360.1200000001,"ADDRESS":"北門路二段２３７巷６號五樓之１","OBJECTID":272542},"geometry":{"x":169477.66000000108,"y":2545360.1199999992}},{"attributes":{"ID":272548,"DIS_CODE":0,"TOWNNAME":"善化區","LI":"西關里","LIN":"3鄰","STREET":"中華路","SECT":" ","MAREA":" ","LANE":" ","ALLEY":" ","HOUSE_NO":"１５３號","E_COORD97":177216.92000000001,"N_COORD97":2559090.5,"ADDRESS":"中華路１５３號","OBJECTID":272543},"geometry":{"x":177216.92000000179,"y":2559090.5}},{"attributes":{"ID":272549,"DIS_CODE":0,"TOWNNAME":"善化區","LI":"北關里","LIN":"3鄰","STREET":"文正路","SECT":" ","MAREA":" ","LANE":" ","ALLEY":" ","HOUSE_NO":"８號","E_COORD97":177051.79000000001,"N_COORD97":2559251.0299999998,"ADDRESS":"文正路８號","OBJECTID":272544},"geometry":{"x":177051.7900000019,"y":2559251.0300000012}},{"attributes":{"ID":272550,"DIS_CODE":0,"TOWNNAME":"東區","LI":"東門里","LIN":"9鄰","STREET":"前鋒路","SECT":" ","MAREA":" ","LANE":" ","ALLEY":" ","HOUSE_NO":"３７號","E_COORD97":169277.60999999999,"N_COORD97":2543410.2200000002,"ADDRESS":"前鋒路３７號","OBJECTID":272545},"geometry":{"x":169277.6100000022,"y":2543410.2200000025}},{"attributes":{"ID":272551,"DIS_CODE":0,"TOWNNAME":"東區","LI":"東門里","LIN":"9鄰","STREET":"前鋒路","SECT":" ","MAREA":" ","LANE":" ","ALLEY":" ","HOUSE_NO":"３９號","E_COORD97":169282,"N_COORD97":2543413.2599999998,"ADDRESS":"前鋒路３９號","OBJECTID":272546},"geometry":{"x":169282.00000000093,"y":2543413.2600000016}},{"attributes":{"ID":272552,"DIS_CODE":0,"TOWNNAME":"東區","LI":"東門里","LIN":"9鄰","STREET":"前鋒路","SECT":" ","MAREA":" ","LANE":" ","ALLEY":" ","HOUSE_NO":"３９號地下層","E_COORD97":169282,"N_COORD97":2543413.2599999998,"ADDRESS":"前鋒路３９號地下層","OBJECTID":272547},"geometry":{"x":169282.00000000093,"y":2543413.2600000016}},{"attributes":{"ID":272553,"DIS_CODE":0,"TOWNNAME":"東區","LI":"東門里","LIN":"9鄰","STREET":"前鋒路","SECT":" ","MAREA":" ","LANE":" ","ALLEY":" ","HOUSE_NO":"４１號","E_COORD97":169282.54999999999,"N_COORD97":2543424.2599999998,"ADDRESS":"前鋒路４１號","OBJECTID":272548},"geometry":{"x":169282.55000000168,"y":2543424.2599999998}},{"attributes":{"ID":272554,"DIS_CODE":0,"TOWNNAME":"東區","LI":"東門里","LIN":"9鄰","STREET":"前鋒路","SECT":" ","MAREA":" ","LANE":" ","ALLEY":" ","HOUSE_NO":"４１號地下層","E_COORD97":169282.54999999999,"N_COORD97":2543424.2599999998,"ADDRESS":"前鋒路４１號地下層","OBJECTID":272549},"geometry":{"x":169282.55000000168,"y":2543424.2599999998}},{"attributes":{"ID":272555,"DIS_CODE":0,"TOWNNAME":"北區","LI":"大仁里","LIN":"7鄰","STREET":"北門路","SECT":"二段","MAREA":" ","LANE":"２３７巷","ALLEY":" ","HOUSE_NO":"６號五樓之２","E_COORD97":169474.94,"N_COORD97":2545368.1400000001,"ADDRESS":"北門路二段２３７巷６號五樓之２","OBJECTID":272550},"geometry":{"x":169474.94000000041,"y":2545368.1400000025}},{"attributes":{"ID":272556,"DIS_CODE":0,"TOWNNAME":"北區","LI":"大仁里","LIN":"7鄰","STREET":"北門路","SECT":"二段","MAREA":" ","LANE":"２３７巷","ALLEY":" ","HOUSE_NO":"６號四樓之１","E_COORD97":169477.66,"N_COORD97":2545360.1200000001,"ADDRESS":"北門路二段２３７巷６號四樓之１","OBJECTID":272551},"geometry":{"x":169477.66000000108,"y":2545360.1199999992}},{"attributes":{"ID":272557,"DIS_CODE":0,"TOWNNAME":"善化區","LI":"文正里","LIN":"14鄰","STREET":"興農路","SECT":" ","MAREA":" ","LANE":" ","ALLEY":" ","HOUSE_NO":"４號","E_COORD97":176636.37,"N_COORD97":2559198.2599999998,"ADDRESS":"興農路４號","OBJECTID":272552},"geometry":{"x":176636.37000000104,"y":2559198.2600000016}},{"attributes":{"ID":272558,"DIS_CODE":0,"TOWNNAME":"善化區","LI":"光文里","LIN":"3鄰","STREET":" ","SECT":" ","MAREA":"北子店","LANE":"１１６巷","ALLEY":" ","HOUSE_NO":"５號","E_COORD97":179530.16,"N_COORD97":2559584.5,"ADDRESS":"北子店１１６巷５號","OBJECTID":272553},"geometry":{"x":179530.16000000108,"y":2559584.5}},{"attributes":{"ID":272559,"DIS_CODE":0,"TOWNNAME":"善化區","LI":"光文里","LIN":"3鄰","STREET":" ","SECT":" ","MAREA":"北子店","LANE":"１１６巷","ALLEY":" ","HOUSE_NO":"６號","E_COORD97":179568.95999999999,"N_COORD97":2559604.75,"ADDRESS":"北子店１１６巷６號","OBJECTID":272554},"geometry":{"x":179568.95999999996,"y":2559604.7500000037}},{"attributes":{"ID":272560,"DIS_CODE":0,"TOWNNAME":"善化區","LI":"小新里","LIN":"3鄰","STREET":" ","SECT":" ","MAREA":"小新營","LANE":" ","ALLEY":" ","HOUSE_NO":"２２號之３","E_COORD97":179844.17999999999,"N_COORD97":2558308.27,"ADDRESS":"小新營２２號之３","OBJECTID":272555},"geometry":{"x":179844.18000000156,"y":2558308.2699999996}},{"attributes":{"ID":272561,"DIS_CODE":0,"TOWNNAME":"大內區","LI":"頭社里","LIN":"3鄰","STREET":" ","SECT":" ","MAREA":"頭社","LANE":" ","ALLEY":" ","HOUSE_NO":"３８號","E_COORD97":187114.64000000001,"N_COORD97":2560283.25,"ADDRESS":"頭社３８號","OBJECTID":272556},"geometry":{"x":187114.63999999966,"y":2560283.2500000019}},{"attributes":{"ID":272562,"DIS_CODE":0,"TOWNNAME":"大內區","LI":"大內里","LIN":"3鄰","STREET":" ","SECT":" ","MAREA":"內庄","LANE":" ","ALLEY":" ","HOUSE_NO":"２６號","E_COORD97":184581.63,"N_COORD97":2557478.25,"ADDRESS":"內庄２６號","OBJECTID":272557},"geometry":{"x":184581.63000000082,"y":2557478.25}},{"attributes":{"ID":272563,"DIS_CODE":0,"TOWNNAME":"善化區","LI":"光文里","LIN":"3鄰","STREET":" ","SECT":" ","MAREA":"北子店","LANE":" ","ALLEY":" ","HOUSE_NO":"１２８號","E_COORD97":179496.17000000001,"N_COORD97":2559644.5,"ADDRESS":"北子店１２８號","OBJECTID":272558},"geometry":{"x":179496.16999999993,"y":2559644.5000000019}},{"attributes":{"ID":272564,"DIS_CODE":0,"TOWNNAME":"善化區","LI":"光文里","LIN":"3鄰","STREET":" ","SECT":" ","MAREA":"北子店","LANE":" ","ALLEY":" ","HOUSE_NO":"１４０號","E_COORD97":179470.47,"N_COORD97":2559639.5,"ADDRESS":"北子店１４０號","OBJECTID":272559},"geometry":{"x":179470.46999999974,"y":2559639.5}},{"attributes":{"ID":272565,"DIS_CODE":0,"TOWNNAME":"善化區","LI":"什乃里","LIN":"3鄰","STREET":" ","SECT":" ","MAREA":"什乃","LANE":" ","ALLEY":" ","HOUSE_NO":"２４號","E_COORD97":176127.48000000001,"N_COORD97":2560572.25,"ADDRESS":"什乃２４號","OBJECTID":272560},"geometry":{"x":176127.48000000138,"y":2560572.2500000019}},{"attributes":{"ID":272566,"DIS_CODE":0,"TOWNNAME":"善化區","LI":"六分里","LIN":"3鄰","STREET":" ","SECT":" ","MAREA":"東勢宅","LANE":" ","ALLEY":" ","HOUSE_NO":"１８０號","E_COORD97":177841.75,"N_COORD97":2560184.5099999998,"ADDRESS":"東勢宅１８０號","OBJECTID":272561},"geometry":{"x":177841.75,"y":2560184.5099999998}},{"attributes":{"ID":272567,"DIS_CODE":0,"TOWNNAME":"善化區","LI":"什乃里","LIN":"3鄰","STREET":" ","SECT":" ","MAREA":"什乃","LANE":" ","ALLEY":" ","HOUSE_NO":"２５號","E_COORD97":176144.59,"N_COORD97":2560559,"ADDRESS":"什乃２５號","OBJECTID":272562},"geometry":{"x":176144.59000000078,"y":2560559.0000000037}},{"attributes":{"ID":272568,"DIS_CODE":0,"TOWNNAME":"善化區","LI":"六德里","LIN":"3鄰","STREET":" ","SECT":" ","MAREA":"六分寮","LANE":" ","ALLEY":" ","HOUSE_NO":"２１７號","E_COORD97":178651.89999999999,"N_COORD97":2561702.5,"ADDRESS":"六分寮２１７號","OBJECTID":272563},"geometry":{"x":178651.9000000013,"y":2561702.5000000019}},{"attributes":{"ID":272569,"DIS_CODE":0,"TOWNNAME":"善化區","LI":"小新里","LIN":"3鄰","STREET":" ","SECT":" ","MAREA":"小新營","LANE":" ","ALLEY":" ","HOUSE_NO":"２０號之２","E_COORD97":179817.26709400001,"N_COORD97":2558275.1141400002,"ADDRESS":"小新營２０號之２","OBJECTID":272564},"geometry":{"x":179817.26709400024,"y":2558275.1141429991}},{"attributes":{"ID":272570,"DIS_CODE":0,"TOWNNAME":"仁德區","LI":"仁和里","LIN":"2鄰","STREET":"和愛街","SECT":" ","MAREA":" ","LANE":" ","ALLEY":" ","HOUSE_NO":"３號二樓之１","E_COORD97":170387.54999999999,"N_COORD97":2540119.5299999998,"ADDRESS":"和愛街３號二樓之１","OBJECTID":272565},"geometry":{"x":170387.54999999981,"y":2540119.5299999993}},{"attributes":{"ID":272571,"DIS_CODE":0,"TOWNNAME":"北區","LI":"大仁里","LIN":"7鄰","STREET":"北門路","SECT":"二段","MAREA":" ","LANE":"２３７巷","ALLEY":" ","HOUSE_NO":"６號四樓之２","E_COORD97":169474.94,"N_COORD97":2545368.1400000001,"ADDRESS":"北門路二段２３７巷６號四樓之２","OBJECTID":272566},"geometry":{"x":169474.94000000041,"y":2545368.1400000025}},{"attributes":{"ID":272572,"DIS_CODE":0,"TOWNNAME":"北區","LI":"大仁里","LIN":"7鄰","STREET":"北門路","SECT":"二段","MAREA":" ","LANE":"２３７巷","ALLEY":" ","HOUSE_NO":"８號二樓之１","E_COORD97":169481.70999999999,"N_COORD97":2545333.3900000001,"ADDRESS":"北門路二段２３７巷８號二樓之１","OBJECTID":272567},"geometry":{"x":169481.71000000089,"y":2545333.3900000006}},{"attributes":{"ID":272573,"DIS_CODE":0,"TOWNNAME":"北區","LI":"大仁里","LIN":"7鄰","STREET":"北門路","SECT":"二段","MAREA":" ","LANE":"２３７巷","ALLEY":" ","HOUSE_NO":"８號二樓之２","E_COORD97":169484.23999999999,"N_COORD97":2545346.0299999998,"ADDRESS":"北門路二段２３７巷８號二樓之２","OBJECTID":272568},"geometry":{"x":169484.24000000022,"y":2545346.0300000012}},{"attributes":{"ID":272574,"DIS_CODE":0,"TOWNNAME":"北區","LI":"大仁里","LIN":"7鄰","STREET":"北門路","SECT":"二段","MAREA":" ","LANE":"２３７巷","ALLEY":" ","HOUSE_NO":"８號三樓之１","E_COORD97":169481.70999999999,"N_COORD97":2545333.3900000001,"ADDRESS":"北門路二段２３７巷８號三樓之１","OBJECTID":272569},"geometry":{"x":169481.71000000089,"y":2545333.3900000006}},{"attributes":{"ID":272575,"DIS_CODE":0,"TOWNNAME":"北區","LI":"大仁里","LIN":"7鄰","STREET":"北門路","SECT":"二段","MAREA":" ","LANE":"２３７巷","ALLEY":" ","HOUSE_NO":"８號三樓之２","E_COORD97":169484.23999999999,"N_COORD97":2545346.0299999998,"ADDRESS":"北門路二段２３７巷８號三樓之２","OBJECTID":272570},"geometry":{"x":169484.24000000022,"y":2545346.0300000012}},{"attributes":{"ID":272576,"DIS_CODE":0,"TOWNNAME":"北區","LI":"大仁里","LIN":"7鄰","STREET":"北門路","SECT":"二段","MAREA":" ","LANE":"２３７巷","ALLEY":" ","HOUSE_NO":"８號五樓之１","E_COORD97":169481.70999999999,"N_COORD97":2545333.3900000001,"ADDRESS":"北門路二段２３７巷８號五樓之１","OBJECTID":272571},"geometry":{"x":169481.71000000089,"y":2545333.3900000006}},{"attributes":{"ID":272577,"DIS_CODE":0,"TOWNNAME":"北區","LI":"大仁里","LIN":"7鄰","STREET":"北門路","SECT":"二段","MAREA":" ","LANE":"２３７巷","ALLEY":" ","HOUSE_NO":"８號五樓之２","E_COORD97":169484.23999999999,"N_COORD97":2545346.0299999998,"ADDRESS":"北門路二段２３７巷８號五樓之２","OBJECTID":272572},"geometry":{"x":169484.24000000022,"y":2545346.0300000012}},{"attributes":{"ID":272578,"DIS_CODE":0,"TOWNNAME":"善化區","LI":"六德里","LIN":"3鄰","STREET":" ","SECT":" ","MAREA":"六分寮","LANE":" ","ALLEY":" ","HOUSE_NO":"２２３號","E_COORD97":178671.20999999999,"N_COORD97":2561706,"ADDRESS":"六分寮２２３號","OBJECTID":272573},"geometry":{"x":178671.21000000183,"y":2561706.0000000019}},{"attributes":{"ID":272579,"DIS_CODE":0,"TOWNNAME":"善化區","LI":"什乃里","LIN":"3鄰","STREET":" ","SECT":" ","MAREA":"什乃","LANE":" ","ALLEY":" ","HOUSE_NO":"２３號之２","E_COORD97":176073.66,"N_COORD97":2560595.77,"ADDRESS":"什乃２３號之２","OBJECTID":272574},"geometry":{"x":176073.66000000108,"y":2560595.7700000014}},{"attributes":{"ID":272580,"DIS_CODE":0,"TOWNNAME":"善化區","LI":"小新里","LIN":"3鄰","STREET":" ","SECT":" ","MAREA":"小新營","LANE":" ","ALLEY":" ","HOUSE_NO":"２２號之４","E_COORD97":179843.41,"N_COORD97":2558313.02,"ADDRESS":"小新營２２號之４","OBJECTID":272575},"geometry":{"x":179843.41000000108,"y":2558313.0199999996}},{"attributes":{"ID":272581,"DIS_CODE":0,"TOWNNAME":"善化區","LI":"六德里","LIN":"3鄰","STREET":" ","SECT":" ","MAREA":"六分寮","LANE":" ","ALLEY":" ","HOUSE_NO":"２１８號","E_COORD97":178650.67000000001,"N_COORD97":2561660.5,"ADDRESS":"六分寮２１８號","OBJECTID":272576},"geometry":{"x":178650.66999999993,"y":2561660.5}},{"attributes":{"ID":272582,"DIS_CODE":0,"TOWNNAME":"北區","LI":"大仁里","LIN":"7鄰","STREET":"北門路","SECT":"二段","MAREA":" ","LANE":"２３７巷","ALLEY":" ","HOUSE_NO":"８號四樓之１","E_COORD97":169481.70999999999,"N_COORD97":2545333.3900000001,"ADDRESS":"北門路二段２３７巷８號四樓之１","OBJECTID":272577},"geometry":{"x":169481.71000000089,"y":2545333.3900000006}},{"attributes":{"ID":272583,"DIS_CODE":0,"TOWNNAME":"北區","LI":"大仁里","LIN":"7鄰","STREET":"北門路","SECT":"二段","MAREA":" ","LANE":"２３７巷","ALLEY":" ","HOUSE_NO":"８號四樓之２","E_COORD97":169484.23999999999,"N_COORD97":2545346.0299999998,"ADDRESS":"北門路二段２３７巷８號四樓之２","OBJECTID":272578},"geometry":{"x":169484.24000000022,"y":2545346.0300000012}},{"attributes":{"ID":272584,"DIS_CODE":0,"TOWNNAME":"新營區","LI":"忠政里","LIN":"7鄰","STREET":"中正路","SECT":" ","MAREA":" ","LANE":"３７巷","ALLEY":" ","HOUSE_NO":"１７號三樓","E_COORD97":180017.22,"N_COORD97":2579124.1600000001,"ADDRESS":"中正路３７巷１７號三樓","OBJECTID":272579},"geometry":{"x":180017.22000000067,"y":2579124.1600000039}},{"attributes":{"ID":272585,"DIS_CODE":0,"TOWNNAME":"永康區","LI":"永康里","LIN":"7鄰","STREET":"中山南路","SECT":" ","MAREA":" ","LANE":"１１１６巷","ALLEY":" ","HOUSE_NO":"２３號","E_COORD97":173912.39999999999,"N_COORD97":2547257.5,"ADDRESS":"中山南路１１１６巷２３號","OBJECTID":272580},"geometry":{"x":173912.4000000013,"y":2547257.5}},{"attributes":{"ID":272586,"DIS_CODE":0,"TOWNNAME":"安南區","LI":"總頭里","LIN":"7鄰","STREET":"長溪路","SECT":"二段","MAREA":" ","LANE":"５９８巷","ALLEY":" ","HOUSE_NO":"１２號","E_COORD97":168283.10000000001,"N_COORD97":2550701,"ADDRESS":"長溪路二段５９８巷１２號","OBJECTID":272581},"geometry":{"x":168283.09999999963,"y":2550701.0000000019}},{"attributes":{"ID":272587,"DIS_CODE":0,"TOWNNAME":"仁德區","LI":"仁義里","LIN":"34鄰","STREET":"正義二街","SECT":" ","MAREA":" ","LANE":" ","ALLEY":" ","HOUSE_NO":"１４７號八樓","E_COORD97":173780.64000000001,"N_COORD97":2541601.0099999998,"ADDRESS":"正義二街１４７號八樓","OBJECTID":272582},"geometry":{"x":173780.64000000153,"y":2541601.0100000016}},{"attributes":{"ID":272588,"DIS_CODE":0,"TOWNNAME":"善化區","LI":"什乃里","LIN":"3鄰","STREET":" ","SECT":" ","MAREA":"什乃","LANE":" ","ALLEY":" ","HOUSE_NO":"２３號之１","E_COORD97":176102.76999999999,"N_COORD97":2560582.27,"ADDRESS":"什乃２３號之１","OBJECTID":272583},"geometry":{"x":176102.77000000048,"y":2560582.2699999996}},{"attributes":{"ID":272589,"DIS_CODE":0,"TOWNNAME":"善化區","LI":"六德里","LIN":"3鄰","STREET":" ","SECT":" ","MAREA":"六分寮","LANE":" ","ALLEY":" ","HOUSE_NO":"２１７號之３","E_COORD97":178646.94,"N_COORD97":2561682.02,"ADDRESS":"六分寮２１７號之３","OBJECTID":272584},"geometry":{"x":178646.94000000134,"y":2561682.0200000014}},{"attributes":{"ID":272590,"DIS_CODE":0,"TOWNNAME":"安南區","LI":"總頭里","LIN":"7鄰","STREET":"長溪路","SECT":"二段","MAREA":" ","LANE":"５９８巷","ALLEY":" ","HOUSE_NO":"２６號","E_COORD97":168345.73999999999,"N_COORD97":2550697.7400000002,"ADDRESS":"長溪路二段５９８巷２６號","OBJECTID":272585},"geometry":{"x":168345.73999999929,"y":2550697.7400000002}},{"attributes":{"ID":272591,"DIS_CODE":0,"TOWNNAME":"善化區","LI":"小新里","LIN":"3鄰","STREET":" ","SECT":" ","MAREA":"小新營","LANE":" ","ALLEY":" ","HOUSE_NO":"２２號之５","E_COORD97":179844.17999999999,"N_COORD97":2558317.02,"ADDRESS":"小新營２２號之５","OBJECTID":272586},"geometry":{"x":179844.18000000156,"y":2558317.0199999996}},{"attributes":{"ID":272592,"DIS_CODE":0,"TOWNNAME":"善化區","LI":"六德里","LIN":"3鄰","STREET":" ","SECT":" ","MAREA":"六分寮","LANE":" ","ALLEY":" ","HOUSE_NO":"２１６號","E_COORD97":178639.48999999999,"N_COORD97":2561715.75,"ADDRESS":"六分寮２１６號","OBJECTID":272587},"geometry":{"x":178639.49000000115,"y":2561715.75}},{"attributes":{"ID":272593,"DIS_CODE":0,"TOWNNAME":"善化區","LI":"六德里","LIN":"3鄰","STREET":" ","SECT":" ","MAREA":"六分寮","LANE":" ","ALLEY":" ","HOUSE_NO":"２１６號之３","E_COORD97":178600.82000000001,"N_COORD97":2561704.77,"ADDRESS":"六分寮２１６號之３","OBJECTID":272588},"geometry":{"x":178600.8200000003,"y":2561704.7699999996}},{"attributes":{"ID":272594,"DIS_CODE":0,"TOWNNAME":"善化區","LI":"六德里","LIN":"3鄰","STREET":" ","SECT":" ","MAREA":"六分寮","LANE":" ","ALLEY":" ","HOUSE_NO":"２１９號","E_COORD97":178665.95999999999,"N_COORD97":2561657.75,"ADDRESS":"六分寮２１９號","OBJECTID":272589},"geometry":{"x":178665.95999999903,"y":2561657.75}},{"attributes":{"ID":272595,"DIS_CODE":0,"TOWNNAME":"善化區","LI":"田寮里","LIN":"3鄰","STREET":" ","SECT":" ","MAREA":"六分寮","LANE":" ","ALLEY":" ","HOUSE_NO":"４０號之３","E_COORD97":178384.07000000001,"N_COORD97":2561080.52,"ADDRESS":"六分寮４０號之３","OBJECTID":272590},"geometry":{"x":178384.0700000003,"y":2561080.5200000033}},{"attributes":{"ID":272596,"DIS_CODE":0,"TOWNNAME":"善化區","LI":"田寮里","LIN":"3鄰","STREET":" ","SECT":" ","MAREA":"六分寮","LANE":" ","ALLEY":" ","HOUSE_NO":"４０之２１號","E_COORD97":178364.53,"N_COORD97":2561120.27,"ADDRESS":"六分寮４０之２１號","OBJECTID":272591},"geometry":{"x":178364.53000000119,"y":2561120.2700000014}},{"attributes":{"ID":272597,"DIS_CODE":0,"TOWNNAME":"善化區","LI":"光文里","LIN":"3鄰","STREET":" ","SECT":" ","MAREA":"北子店","LANE":"１２４巷","ALLEY":" ","HOUSE_NO":"７號","E_COORD97":179515.07999999999,"N_COORD97":2559617,"ADDRESS":"北子店１２４巷７號","OBJECTID":272592},"geometry":{"x":179515.08000000101,"y":2559617.0000000019}},{"attributes":{"ID":272598,"DIS_CODE":0,"TOWNNAME":"善化區","LI":"光文里","LIN":"3鄰","STREET":" ","SECT":" ","MAREA":"北子店","LANE":"１２４巷","ALLEY":" ","HOUSE_NO":"１０號","E_COORD97":179504.42999999999,"N_COORD97":2559613.75,"ADDRESS":"北子店１２４巷１０號","OBJECTID":272593},"geometry":{"x":179504.4299999997,"y":2559613.75}},{"attributes":{"ID":272599,"DIS_CODE":0,"TOWNNAME":"善化區","LI":"光文里","LIN":"3鄰","STREET":" ","SECT":" ","MAREA":"北子店","LANE":"１２４巷","ALLEY":" ","HOUSE_NO":"１號","E_COORD97":179513.48999999999,"N_COORD97":2559629.75,"ADDRESS":"北子店１２４巷１號","OBJECTID":272594},"geometry":{"x":179513.49000000022,"y":2559629.7500000019}},{"attributes":{"ID":272600,"DIS_CODE":0,"TOWNNAME":"安南區","LI":"總頭里","LIN":"7鄰","STREET":"長溪路","SECT":"二段","MAREA":" ","LANE":"５９８巷","ALLEY":" ","HOUSE_NO":"３３號","E_COORD97":168317.29000000001,"N_COORD97":2550753.2999999998,"ADDRESS":"長溪路二段５９８巷３３號","OBJECTID":272595},"geometry":{"x":168317.29000000097,"y":2550753.3000000026}},{"attributes":{"ID":272601,"DIS_CODE":0,"TOWNNAME":"安南區","LI":"總頭里","LIN":"7鄰","STREET":"長溪路","SECT":"二段","MAREA":" ","LANE":"５９８巷","ALLEY":" ","HOUSE_NO":"３４號","E_COORD97":168336.37,"N_COORD97":2550721.4100000001,"ADDRESS":"長溪路二段５９８巷３４號","OBJECTID":272596},"geometry":{"x":168336.37000000197,"y":2550721.410000002}},{"attributes":{"ID":272602,"DIS_CODE":0,"TOWNNAME":"安南區","LI":"總頭里","LIN":"7鄰","STREET":"長溪路","SECT":"二段","MAREA":" ","LANE":"５９８巷","ALLEY":" ","HOUSE_NO":"３５號","E_COORD97":168328.87,"N_COORD97":2550759.8999999999,"ADDRESS":"長溪路二段５９８巷３５號","OBJECTID":272597},"geometry":{"x":168328.87000000011,"y":2550759.9000000022}},{"attributes":{"ID":272603,"DIS_CODE":0,"TOWNNAME":"安南區","LI":"總頭里","LIN":"7鄰","STREET":"長溪路","SECT":"二段","MAREA":" ","LANE":"５９８巷","ALLEY":" ","HOUSE_NO":"３８號","E_COORD97":168338.01999999999,"N_COORD97":2550734.6200000001,"ADDRESS":"長溪路二段５９８巷３８號","OBJECTID":272598},"geometry":{"x":168338.01999999862,"y":2550734.6200000029}},{"attributes":{"ID":272604,"DIS_CODE":0,"TOWNNAME":"大內區","LI":"石湖里","LIN":"3鄰","STREET":" ","SECT":" ","MAREA":"石子瀨","LANE":" ","ALLEY":" ","HOUSE_NO":"２５６號","E_COORD97":184060.67000000001,"N_COORD97":2558397.25,"ADDRESS":"石子瀨２５６號","OBJECTID":272599},"geometry":{"x":184060.67000000086,"y":2558397.25}},{"attributes":{"ID":272605,"DIS_CODE":0,"TOWNNAME":"大內區","LI":"環湖里","LIN":"3鄰","STREET":" ","SECT":" ","MAREA":"環湖","LANE":" ","ALLEY":" ","HOUSE_NO":"２３號之６","E_COORD97":190629.67999999999,"N_COORD97":2560605.2999999998,"ADDRESS":"環湖２３號之６","OBJECTID":272600},"geometry":{"x":190629.68000000063,"y":2560605.3000000045}}]}