{"displayFieldName":"TOWNNAME","fieldAliases":{"ID":"ID","DIS_CODE":"DIS_CODE","TOWNNAME":"TOWNNAME","LI":"LI","LIN":"LIN","STREET":"STREET","SECT":"SECT","MAREA":"MAREA","LANE":"LANE","ALLEY":"ALLEY","HOUSE_NO":"HOUSE_NO","E_COORD97":"E_COORD97","N_COORD97":"N_COORD97","ADDRESS":"ADDRESS","OBJECTID":"OBJECTID"},"geometryType":"esriGeometryPoint","spatialReference":{"wkid":102443,"latestWkid":3826},"fields":[{"name":"ID","type":"esriFieldTypeDouble","alias":"ID"},{"name":"DIS_CODE","type":"esriFieldTypeInteger","alias":"DIS_CODE"},{"name":"TOWNNAME","type":"esriFieldTypeString","alias":"TOWNNAME","length":8},{"name":"LI","type":"esriFieldTypeString","alias":"LI","length":8},{"name":"LIN","type":"esriFieldTypeString","alias":"LIN","length":12},{"name":"STREET","type":"esriFieldTypeString","alias":"STREET","length":20},{"name":"SECT","type":"esriFieldTypeString","alias":"SECT","length":8},{"name":"MAREA","type":"esriFieldTypeString","alias":"MAREA","length":12},{"name":"LANE","type":"esriFieldTypeString","alias":"LANE","length":10},{"name":"ALLEY","type":"esriFieldTypeString","alias":"ALLEY","length":10},{"name":"HOUSE_NO","type":"esriFieldTypeString","alias":"HOUSE_NO","length":20},{"name":"E_COORD97","type":"esriFieldTypeDouble","alias":"E_COORD97"},{"name":"N_COORD97","type":"esriFieldTypeDouble","alias":"N_COORD97"},{"name":"ADDRESS","type":"esriFieldTypeString","alias":"ADDRESS","length":50},{"name":"OBJECTID","type":"esriFieldTypeOID","alias":"OBJECTID"}],"features":[{"attributes":{"ID":352810,"DIS_CODE":0,"TOWNNAME":"東區","LI":"龍山里","LIN":"18鄰","STREET":"東門路","SECT":"一段","MAREA":" ","LANE":"２１２巷","ALLEY":" ","HOUSE_NO":"１９號","E_COORD97":169663.42000000001,"N_COORD97":2543022.8100000001,"ADDRESS":"東門路一段２１２巷１９號","OBJECTID":352801},"geometry":{"x":169663.42000000086,"y":2543022.8100000024}},{"attributes":{"ID":352811,"DIS_CODE":0,"TOWNNAME":"東區","LI":"龍山里","LIN":"18鄰","STREET":"東門路","SECT":"一段","MAREA":" ","LANE":"２１２巷","ALLEY":" ","HOUSE_NO":"５號","E_COORD97":169677.85000000001,"N_COORD97":2543062.3100000001,"ADDRESS":"東門路一段２１２巷５號","OBJECTID":352802},"geometry":{"x":169677.84999999963,"y":2543062.3100000005}},{"attributes":{"ID":352812,"DIS_CODE":0,"TOWNNAME":"新營區","LI":"太北里","LIN":"18鄰","STREET":" ","SECT":" ","MAREA":"太子宮","LANE":" ","ALLEY":" ","HOUSE_NO":"８之２號","E_COORD97":176263.63,"N_COORD97":2577180,"ADDRESS":"太子宮８之２號","OBJECTID":352803},"geometry":{"x":176263.62999999989,"y":2577180.0000000019}},{"attributes":{"ID":352813,"DIS_CODE":0,"TOWNNAME":"東區","LI":"龍山里","LIN":"18鄰","STREET":"東門路","SECT":"一段","MAREA":" ","LANE":"２１２巷","ALLEY":" ","HOUSE_NO":"９號","E_COORD97":169675.28,"N_COORD97":2543054.75,"ADDRESS":"東門路一段２１２巷９號","OBJECTID":352804},"geometry":{"x":169675.28000000119,"y":2543054.75}},{"attributes":{"ID":352814,"DIS_CODE":0,"TOWNNAME":"北區","LI":"大山里","LIN":"6鄰","STREET":"精忠街","SECT":" ","MAREA":" ","LANE":"２５巷","ALLEY":" ","HOUSE_NO":"２７號之６","E_COORD97":169343.04000000001,"N_COORD97":2545453.1000000001,"ADDRESS":"精忠街２５巷２７號之６","OBJECTID":352805},"geometry":{"x":169343.04000000004,"y":2545453.0999999996}},{"attributes":{"ID":352815,"DIS_CODE":0,"TOWNNAME":"北區","LI":"大山里","LIN":"6鄰","STREET":"精忠街","SECT":" ","MAREA":" ","LANE":"１０３巷","ALLEY":" ","HOUSE_NO":"１１號","E_COORD97":169331.09,"N_COORD97":2545444.8399999999,"ADDRESS":"精忠街１０３巷１１號","OBJECTID":352806},"geometry":{"x":169331.08999999985,"y":2545444.8399999999}},{"attributes":{"ID":352816,"DIS_CODE":0,"TOWNNAME":"北區","LI":"大山里","LIN":"6鄰","STREET":"精忠街","SECT":" ","MAREA":" ","LANE":"１０３巷","ALLEY":" ","HOUSE_NO":"１１號之１","E_COORD97":169336.94,"N_COORD97":2545444.9100000001,"ADDRESS":"精忠街１０３巷１１號之１","OBJECTID":352807},"geometry":{"x":169336.94000000134,"y":2545444.9100000001}},{"attributes":{"ID":352817,"DIS_CODE":0,"TOWNNAME":"學甲區","LI":"明宜里","LIN":"8鄰","STREET":"濟生路","SECT":" ","MAREA":" ","LANE":" ","ALLEY":" ","HOUSE_NO":"２５８號","E_COORD97":165812.69,"N_COORD97":2570539.25,"ADDRESS":"濟生路２５８號","OBJECTID":352808},"geometry":{"x":165812.69000000134,"y":2570539.2500000019}},{"attributes":{"ID":352818,"DIS_CODE":0,"TOWNNAME":"學甲區","LI":"新榮里","LIN":"8鄰","STREET":"濟生路","SECT":" ","MAREA":" ","LANE":" ","ALLEY":" ","HOUSE_NO":"２５號","E_COORD97":166773.66,"N_COORD97":2570177.77,"ADDRESS":"濟生路２５號","OBJECTID":352809},"geometry":{"x":166773.66000000108,"y":2570177.7699999996}},{"attributes":{"ID":352819,"DIS_CODE":0,"TOWNNAME":"學甲區","LI":"明宜里","LIN":"8鄰","STREET":"濟生路","SECT":" ","MAREA":" ","LANE":" ","ALLEY":" ","HOUSE_NO":"２６０號","E_COORD97":165813.69,"N_COORD97":2570548.5499999998,"ADDRESS":"濟生路２６０號","OBJECTID":352810},"geometry":{"x":165813.69000000227,"y":2570548.5500000026}},{"attributes":{"ID":352820,"DIS_CODE":0,"TOWNNAME":"學甲區","LI":"慈福里","LIN":"8鄰","STREET":"濟生路","SECT":" ","MAREA":" ","LANE":" ","ALLEY":" ","HOUSE_NO":"３３號","E_COORD97":166585.54000000001,"N_COORD97":2570197.1400000001,"ADDRESS":"濟生路３３號","OBJECTID":352811},"geometry":{"x":166585.54000000004,"y":2570197.1400000006}},{"attributes":{"ID":352821,"DIS_CODE":0,"TOWNNAME":"學甲區","LI":"慈福里","LIN":"8鄰","STREET":"濟生路","SECT":" ","MAREA":" ","LANE":" ","ALLEY":" ","HOUSE_NO":"３５號","E_COORD97":166580.92000000001,"N_COORD97":2570198.0099999998,"ADDRESS":"濟生路３５號","OBJECTID":352812},"geometry":{"x":166580.91999999993,"y":2570198.0100000016}},{"attributes":{"ID":352822,"DIS_CODE":0,"TOWNNAME":"學甲區","LI":"慈福里","LIN":"8鄰","STREET":"濟生路","SECT":" ","MAREA":" ","LANE":" ","ALLEY":" ","HOUSE_NO":"３９號","E_COORD97":166572.28,"N_COORD97":2570199.9300000002,"ADDRESS":"濟生路３９號","OBJECTID":352813},"geometry":{"x":166572.28000000026,"y":2570199.9299999997}},{"attributes":{"ID":352823,"DIS_CODE":0,"TOWNNAME":"學甲區","LI":"慈福里","LIN":"8鄰","STREET":"濟生路","SECT":" ","MAREA":" ","LANE":" ","ALLEY":" ","HOUSE_NO":"４３號之１","E_COORD97":166555.76000000001,"N_COORD97":2570201.3900000001,"ADDRESS":"濟生路４３號之１","OBJECTID":352814},"geometry":{"x":166555.76000000071,"y":2570201.3900000006}},{"attributes":{"ID":352824,"DIS_CODE":0,"TOWNNAME":"永康區","LI":"西橋里","LIN":"18鄰","STREET":"大橋一街","SECT":" ","MAREA":" ","LANE":"３１巷","ALLEY":" ","HOUSE_NO":"６３號之１","E_COORD97":170605.03099,"N_COORD97":2546446.4577899999,"ADDRESS":"大橋一街３１巷６３號之１","OBJECTID":352815},"geometry":{"x":170605.03099000175,"y":2546446.4577940013}},{"attributes":{"ID":352825,"DIS_CODE":0,"TOWNNAME":"仁德區","LI":"仁愛里","LIN":"18鄰","STREET":"保仁路","SECT":" ","MAREA":" ","LANE":"１２０巷","ALLEY":" ","HOUSE_NO":"９９號","E_COORD97":170151.309935,"N_COORD97":2540236.9966099998,"ADDRESS":"保仁路１２０巷９９號","OBJECTID":352816},"geometry":{"x":170151.30993499979,"y":2540236.9966090005}},{"attributes":{"ID":352826,"DIS_CODE":0,"TOWNNAME":"仁德區","LI":"仁愛里","LIN":"18鄰","STREET":"保仁路","SECT":" ","MAREA":" ","LANE":"１２０巷","ALLEY":" ","HOUSE_NO":"１０１號","E_COORD97":170151.94572799999,"N_COORD97":2540241.5474399999,"ADDRESS":"保仁路１２０巷１０１號","OBJECTID":352817},"geometry":{"x":170151.94572800118,"y":2540241.5474399999}},{"attributes":{"ID":352827,"DIS_CODE":0,"TOWNNAME":"仁德區","LI":"仁愛里","LIN":"18鄰","STREET":"保仁路","SECT":" ","MAREA":" ","LANE":"１２０巷","ALLEY":" ","HOUSE_NO":"１０５號","E_COORD97":170153.21731499999,"N_COORD97":2540270.2282599998,"ADDRESS":"保仁路１２０巷１０５號","OBJECTID":352818},"geometry":{"x":170153.21731499955,"y":2540270.2282570004}},{"attributes":{"ID":352828,"DIS_CODE":0,"TOWNNAME":"仁德區","LI":"仁愛里","LIN":"18鄰","STREET":"保仁路","SECT":" ","MAREA":" ","LANE":"１２０巷","ALLEY":" ","HOUSE_NO":"１０７號","E_COORD97":170153.48215299999,"N_COORD97":2540278.2185900002,"ADDRESS":"保仁路１２０巷１０７號","OBJECTID":352819},"geometry":{"x":170153.48215300124,"y":2540278.2185939997}},{"attributes":{"ID":352829,"DIS_CODE":0,"TOWNNAME":"北區","LI":"大山里","LIN":"6鄰","STREET":"精忠街","SECT":" ","MAREA":" ","LANE":"１０３巷","ALLEY":" ","HOUSE_NO":"１３號","E_COORD97":169330.39000000001,"N_COORD97":2545414.1699999999,"ADDRESS":"精忠街１０３巷１３號","OBJECTID":352820},"geometry":{"x":169330.38999999966,"y":2545414.1700000018}},{"attributes":{"ID":352830,"DIS_CODE":0,"TOWNNAME":"北區","LI":"大山里","LIN":"6鄰","STREET":"精忠街","SECT":" ","MAREA":" ","LANE":"１０３巷","ALLEY":" ","HOUSE_NO":"１５號","E_COORD97":169339.17000000001,"N_COORD97":2545408.7799999998,"ADDRESS":"精忠街１０３巷１５號","OBJECTID":352821},"geometry":{"x":169339.16999999993,"y":2545408.7800000012}},{"attributes":{"ID":352831,"DIS_CODE":0,"TOWNNAME":"北區","LI":"大山里","LIN":"6鄰","STREET":"精忠街","SECT":" ","MAREA":" ","LANE":"１０３巷","ALLEY":" ","HOUSE_NO":"１７號","E_COORD97":169347.85999999999,"N_COORD97":2545410.3199999998,"ADDRESS":"精忠街１０３巷１７號","OBJECTID":352822},"geometry":{"x":169347.86000000034,"y":2545410.3200000022}},{"attributes":{"ID":352832,"DIS_CODE":0,"TOWNNAME":"北區","LI":"大山里","LIN":"6鄰","STREET":"精忠街","SECT":" ","MAREA":" ","LANE":"１０３巷","ALLEY":" ","HOUSE_NO":"１７號之３","E_COORD97":169352.70999999999,"N_COORD97":2545398.1899999999,"ADDRESS":"精忠街１０３巷１７號之３","OBJECTID":352823},"geometry":{"x":169352.71000000183,"y":2545398.1899999995}},{"attributes":{"ID":352833,"DIS_CODE":0,"TOWNNAME":"北區","LI":"大山里","LIN":"6鄰","STREET":"精忠街","SECT":" ","MAREA":" ","LANE":"２５巷","ALLEY":" ","HOUSE_NO":"２９號","E_COORD97":169342.79000000001,"N_COORD97":2545445.0699999998,"ADDRESS":"精忠街２５巷２９號","OBJECTID":352824},"geometry":{"x":169342.79000000097,"y":2545445.0700000022}},{"attributes":{"ID":352834,"DIS_CODE":0,"TOWNNAME":"北區","LI":"大山里","LIN":"6鄰","STREET":"精忠街","SECT":" ","MAREA":" ","LANE":"２５巷","ALLEY":" ","HOUSE_NO":"３０號","E_COORD97":169346.87,"N_COORD97":2545444.6099999999,"ADDRESS":"精忠街２５巷３０號","OBJECTID":352825},"geometry":{"x":169346.87000000104,"y":2545444.6100000013}},{"attributes":{"ID":352835,"DIS_CODE":0,"TOWNNAME":"北區","LI":"大山里","LIN":"6鄰","STREET":"精忠街","SECT":" ","MAREA":" ","LANE":"２５巷","ALLEY":" ","HOUSE_NO":"３１號","E_COORD97":169350.48000000001,"N_COORD97":2545444.1400000001,"ADDRESS":"精忠街２５巷３１號","OBJECTID":352826},"geometry":{"x":169350.48000000138,"y":2545444.1400000006}},{"attributes":{"ID":352836,"DIS_CODE":0,"TOWNNAME":"北區","LI":"大山里","LIN":"6鄰","STREET":"精忠街","SECT":" ","MAREA":" ","LANE":"２５巷","ALLEY":" ","HOUSE_NO":"３２號","E_COORD97":169355.87,"N_COORD97":2545442.9100000001,"ADDRESS":"精忠街２５巷３２號","OBJECTID":352827},"geometry":{"x":169355.87000000104,"y":2545442.910000002}},{"attributes":{"ID":352837,"DIS_CODE":0,"TOWNNAME":"北區","LI":"大山里","LIN":"6鄰","STREET":"精忠街","SECT":" ","MAREA":" ","LANE":"２５巷","ALLEY":" ","HOUSE_NO":"３３號","E_COORD97":169365.26000000001,"N_COORD97":2545437.2999999998,"ADDRESS":"精忠街２５巷３３號","OBJECTID":352828},"geometry":{"x":169365.25999999978,"y":2545437.3000000026}},{"attributes":{"ID":352838,"DIS_CODE":0,"TOWNNAME":"北區","LI":"大山里","LIN":"6鄰","STREET":"精忠街","SECT":" ","MAREA":" ","LANE":"２５巷","ALLEY":" ","HOUSE_NO":"３３號之２","E_COORD97":169369.26999999999,"N_COORD97":2545426.6499999999,"ADDRESS":"精忠街２５巷３３號之２","OBJECTID":352829},"geometry":{"x":169369.27000000048,"y":2545426.6500000004}},{"attributes":{"ID":352839,"DIS_CODE":0,"TOWNNAME":"北區","LI":"大山里","LIN":"6鄰","STREET":"精忠街","SECT":" ","MAREA":" ","LANE":"２５巷","ALLEY":" ","HOUSE_NO":"３３號之３","E_COORD97":169359.14999999999,"N_COORD97":2545401.7200000002,"ADDRESS":"精忠街２５巷３３號之３","OBJECTID":352830},"geometry":{"x":169359.1500000013,"y":2545401.7200000007}},{"attributes":{"ID":352840,"DIS_CODE":0,"TOWNNAME":"北區","LI":"大山里","LIN":"6鄰","STREET":"精忠街","SECT":" ","MAREA":" ","LANE":"２５巷","ALLEY":" ","HOUSE_NO":"３３號之４","E_COORD97":169365.76000000001,"N_COORD97":2545403.79,"ADDRESS":"精忠街２５巷３３號之４","OBJECTID":352831},"geometry":{"x":169365.76000000164,"y":2545403.7899999991}},{"attributes":{"ID":352841,"DIS_CODE":0,"TOWNNAME":"北區","LI":"大山里","LIN":"6鄰","STREET":"精忠街","SECT":" ","MAREA":" ","LANE":"２５巷","ALLEY":" ","HOUSE_NO":"３７號","E_COORD97":169413.81,"N_COORD97":2545413.9100000001,"ADDRESS":"精忠街２５巷３７號","OBJECTID":352832},"geometry":{"x":169413.80999999959,"y":2545413.9100000001}},{"attributes":{"ID":352842,"DIS_CODE":0,"TOWNNAME":"北區","LI":"大山里","LIN":"6鄰","STREET":"精忠街","SECT":" ","MAREA":" ","LANE":"２５巷","ALLEY":" ","HOUSE_NO":"３８號","E_COORD97":169423.51999999999,"N_COORD97":2545402.8999999999,"ADDRESS":"精忠街２５巷３８號","OBJECTID":352833},"geometry":{"x":169423.52000000048,"y":2545402.9000000022}},{"attributes":{"ID":352843,"DIS_CODE":0,"TOWNNAME":"北區","LI":"大山里","LIN":"6鄰","STREET":"精忠街","SECT":" ","MAREA":" ","LANE":"２５巷","ALLEY":" ","HOUSE_NO":"３９號","E_COORD97":169429.57000000001,"N_COORD97":2545414.1400000001,"ADDRESS":"精忠街２５巷３９號","OBJECTID":352834},"geometry":{"x":169429.5700000003,"y":2545414.1400000043}},{"attributes":{"ID":352844,"DIS_CODE":0,"TOWNNAME":"北區","LI":"大山里","LIN":"6鄰","STREET":"精忠街","SECT":" ","MAREA":" ","LANE":"２５巷","ALLEY":" ","HOUSE_NO":"３９號之１","E_COORD97":169429.45999999999,"N_COORD97":2545402.5699999998,"ADDRESS":"精忠街２５巷３９號之１","OBJECTID":352835},"geometry":{"x":169429.46000000089,"y":2545402.5700000003}},{"attributes":{"ID":352845,"DIS_CODE":0,"TOWNNAME":"東區","LI":"崇信里","LIN":"18鄰","STREET":"崇善一街","SECT":" ","MAREA":" ","LANE":"４３巷","ALLEY":" ","HOUSE_NO":"３號","E_COORD97":170725.79000000001,"N_COORD97":2542212.5899999999,"ADDRESS":"崇善一街４３巷３號","OBJECTID":352836},"geometry":{"x":170725.79000000097,"y":2542212.5899999999}},{"attributes":{"ID":352846,"DIS_CODE":0,"TOWNNAME":"北區","LI":"大仁里","LIN":"6鄰","STREET":"北門路","SECT":"二段","MAREA":" ","LANE":"２４７巷","ALLEY":" ","HOUSE_NO":"２２號之１","E_COORD97":169494.78,"N_COORD97":2545389.98,"ADDRESS":"北門路二段２４７巷２２號之１","OBJECTID":352837},"geometry":{"x":169494.78000000026,"y":2545389.9800000004}},{"attributes":{"ID":352847,"DIS_CODE":0,"TOWNNAME":"北區","LI":"大仁里","LIN":"6鄰","STREET":"北門路","SECT":"二段","MAREA":" ","LANE":"２４７巷","ALLEY":" ","HOUSE_NO":"２號","E_COORD97":169521.64999999999,"N_COORD97":2545340.3399999999,"ADDRESS":"北門路二段２４７巷２號","OBJECTID":352838},"geometry":{"x":169521.6500000013,"y":2545340.3399999999}},{"attributes":{"ID":352848,"DIS_CODE":0,"TOWNNAME":"學甲區","LI":"慈福里","LIN":"8鄰","STREET":"濟生路","SECT":" ","MAREA":" ","LANE":" ","ALLEY":" ","HOUSE_NO":"４３號","E_COORD97":166559.14999999999,"N_COORD97":2570200.98,"ADDRESS":"濟生路４３號","OBJECTID":352839},"geometry":{"x":166559.15000000037,"y":2570200.9800000004}},{"attributes":{"ID":352849,"DIS_CODE":0,"TOWNNAME":"學甲區","LI":"慈福里","LIN":"8鄰","STREET":"濟生路","SECT":" ","MAREA":" ","LANE":" ","ALLEY":" ","HOUSE_NO":"４５號","E_COORD97":166552.28,"N_COORD97":2570202.0699999998,"ADDRESS":"濟生路４５號","OBJECTID":352840},"geometry":{"x":166552.28000000119,"y":2570202.0700000022}},{"attributes":{"ID":352850,"DIS_CODE":0,"TOWNNAME":"南區","LI":"廣州里","LIN":"8鄰","STREET":"樹林街","SECT":"二段","MAREA":" ","LANE":" ","ALLEY":" ","HOUSE_NO":"２８１號","E_COORD97":167502.39000000001,"N_COORD97":2542991.0499999998,"ADDRESS":"樹林街二段２８１號","OBJECTID":352841},"geometry":{"x":167502.3900000006,"y":2542991.0500000026}},{"attributes":{"ID":352851,"DIS_CODE":0,"TOWNNAME":"南區","LI":"廣州里","LIN":"8鄰","STREET":"樹林街","SECT":"二段","MAREA":" ","LANE":" ","ALLEY":" ","HOUSE_NO":"２８３號","E_COORD97":167497.70999999999,"N_COORD97":2542987.8599999999,"ADDRESS":"樹林街二段２８３號","OBJECTID":352842},"geometry":{"x":167497.70999999996,"y":2542987.8600000013}},{"attributes":{"ID":352852,"DIS_CODE":0,"TOWNNAME":"南區","LI":"廣州里","LIN":"8鄰","STREET":"樹林街","SECT":"二段","MAREA":" ","LANE":" ","ALLEY":" ","HOUSE_NO":"２８５號","E_COORD97":167491.97,"N_COORD97":2542990.8399999999,"ADDRESS":"樹林街二段２８５號","OBJECTID":352843},"geometry":{"x":167491.96999999974,"y":2542990.839999998}},{"attributes":{"ID":352853,"DIS_CODE":0,"TOWNNAME":"北區","LI":"仁愛里","LIN":"8鄰","STREET":"東豐路","SECT":" ","MAREA":" ","LANE":" ","ALLEY":" ","HOUSE_NO":"２０３號","E_COORD97":170044.73999999999,"N_COORD97":2544880.1000000001,"ADDRESS":"東豐路２０３號","OBJECTID":352844},"geometry":{"x":170044.74000000115,"y":2544880.0999999996}},{"attributes":{"ID":352854,"DIS_CODE":0,"TOWNNAME":"中西區","LI":"安海里","LIN":"18鄰","STREET":"民生路","SECT":"二段","MAREA":" ","LANE":"３６３巷","ALLEY":" ","HOUSE_NO":"１０號","E_COORD97":166917.31,"N_COORD97":2544174.6600000001,"ADDRESS":"民生路二段３６３巷１０號","OBJECTID":352845},"geometry":{"x":166917.31000000145,"y":2544174.6600000001}},{"attributes":{"ID":352855,"DIS_CODE":0,"TOWNNAME":"中西區","LI":"安海里","LIN":"18鄰","STREET":"民生路","SECT":"二段","MAREA":" ","LANE":"３６３巷","ALLEY":" ","HOUSE_NO":"１２號","E_COORD97":166912.92999999999,"N_COORD97":2544171.1600000001,"ADDRESS":"民生路二段３６３巷１２號","OBJECTID":352846},"geometry":{"x":166912.9299999997,"y":2544171.1600000001}},{"attributes":{"ID":352856,"DIS_CODE":0,"TOWNNAME":"中西區","LI":"安海里","LIN":"18鄰","STREET":"民生路","SECT":"二段","MAREA":" ","LANE":"３６３巷","ALLEY":" ","HOUSE_NO":"１４號","E_COORD97":166907.69,"N_COORD97":2544172.04,"ADDRESS":"民生路二段３６３巷１４號","OBJECTID":352847},"geometry":{"x":166907.69000000134,"y":2544172.0399999972}},{"attributes":{"ID":352857,"DIS_CODE":0,"TOWNNAME":"中西區","LI":"安海里","LIN":"18鄰","STREET":"民生路","SECT":"二段","MAREA":" ","LANE":"３６３巷","ALLEY":" ","HOUSE_NO":"２號","E_COORD97":166922.54999999999,"N_COORD97":2544201.2999999998,"ADDRESS":"民生路二段３６３巷２號","OBJECTID":352848},"geometry":{"x":166922.54999999981,"y":2544201.3000000007}},{"attributes":{"ID":352858,"DIS_CODE":0,"TOWNNAME":"中西區","LI":"安海里","LIN":"18鄰","STREET":"民生路","SECT":"二段","MAREA":" ","LANE":"３６３巷","ALLEY":" ","HOUSE_NO":"２號之７","E_COORD97":166919.48999999999,"N_COORD97":2544196.0600000001,"ADDRESS":"民生路二段３６３巷２號之７","OBJECTID":352849},"geometry":{"x":166919.49000000022,"y":2544196.0600000005}},{"attributes":{"ID":352859,"DIS_CODE":0,"TOWNNAME":"中西區","LI":"安海里","LIN":"18鄰","STREET":"民生路","SECT":"二段","MAREA":" ","LANE":"３６３巷","ALLEY":" ","HOUSE_NO":"６號","E_COORD97":166917.73999999999,"N_COORD97":2544189.5099999998,"ADDRESS":"民生路二段３６３巷６號","OBJECTID":352850},"geometry":{"x":166917.74000000022,"y":2544189.5099999998}},{"attributes":{"ID":352860,"DIS_CODE":0,"TOWNNAME":"中西區","LI":"安海里","LIN":"18鄰","STREET":"民生路","SECT":"二段","MAREA":" ","LANE":"３６３巷","ALLEY":" ","HOUSE_NO":"８號","E_COORD97":166916.42999999999,"N_COORD97":2544185.1400000001,"ADDRESS":"民生路二段３６３巷８號","OBJECTID":352851},"geometry":{"x":166916.4299999997,"y":2544185.1400000006}},{"attributes":{"ID":352861,"DIS_CODE":0,"TOWNNAME":"北區","LI":"大仁里","LIN":"6鄰","STREET":"北門路","SECT":"二段","MAREA":" ","LANE":"２４７巷","ALLEY":" ","HOUSE_NO":"４號","E_COORD97":169518.39999999999,"N_COORD97":2545341.1800000002,"ADDRESS":"北門路二段２４７巷４號","OBJECTID":352852},"geometry":{"x":169518.4000000013,"y":2545341.1799999997}},{"attributes":{"ID":352862,"DIS_CODE":0,"TOWNNAME":"北區","LI":"大仁里","LIN":"6鄰","STREET":"北門路","SECT":"二段","MAREA":" ","LANE":"２４７巷","ALLEY":" ","HOUSE_NO":"６號","E_COORD97":169514.79999999999,"N_COORD97":2545342.1400000001,"ADDRESS":"北門路二段２４７巷６號","OBJECTID":352853},"geometry":{"x":169514.80000000168,"y":2545342.1400000006}},{"attributes":{"ID":352863,"DIS_CODE":0,"TOWNNAME":"北區","LI":"大仁里","LIN":"6鄰","STREET":"北門路","SECT":"二段","MAREA":" ","LANE":"２４７巷","ALLEY":" ","HOUSE_NO":"８號","E_COORD97":169511.98000000001,"N_COORD97":2545342.98,"ADDRESS":"北門路二段２４７巷８號","OBJECTID":352854},"geometry":{"x":169511.98000000045,"y":2545342.9800000004}},{"attributes":{"ID":352864,"DIS_CODE":0,"TOWNNAME":"北區","LI":"大仁里","LIN":"6鄰","STREET":"北門路","SECT":"二段","MAREA":" ","LANE":"２６３巷","ALLEY":" ","HOUSE_NO":"１０號","E_COORD97":169520.35000000001,"N_COORD97":2545383.6000000001,"ADDRESS":"北門路二段２６３巷１０號","OBJECTID":352855},"geometry":{"x":169520.34999999963,"y":2545383.6000000015}},{"attributes":{"ID":352865,"DIS_CODE":0,"TOWNNAME":"北區","LI":"仁愛里","LIN":"8鄰","STREET":"東豐路","SECT":" ","MAREA":" ","LANE":" ","ALLEY":" ","HOUSE_NO":"２０７號","E_COORD97":170057.69,"N_COORD97":2544879.4700000002,"ADDRESS":"東豐路２０７號","OBJECTID":352856},"geometry":{"x":170057.69000000041,"y":2544879.4700000044}},{"attributes":{"ID":352866,"DIS_CODE":0,"TOWNNAME":"北區","LI":"仁愛里","LIN":"8鄰","STREET":"東豐路","SECT":" ","MAREA":" ","LANE":" ","ALLEY":" ","HOUSE_NO":"２０９號","E_COORD97":170063.23000000001,"N_COORD97":2544876.5499999998,"ADDRESS":"東豐路２０９號","OBJECTID":352857},"geometry":{"x":170063.22999999952,"y":2544876.5500000026}},{"attributes":{"ID":352867,"DIS_CODE":0,"TOWNNAME":"北區","LI":"仁愛里","LIN":"8鄰","STREET":"東豐路","SECT":" ","MAREA":" ","LANE":" ","ALLEY":" ","HOUSE_NO":"２１１號","E_COORD97":170068.23999999999,"N_COORD97":2544879.0600000001,"ADDRESS":"東豐路２１１號","OBJECTID":352858},"geometry":{"x":170068.24000000209,"y":2544879.0600000024}},{"attributes":{"ID":352868,"DIS_CODE":0,"TOWNNAME":"北區","LI":"仁愛里","LIN":"8鄰","STREET":"東豐路","SECT":" ","MAREA":" ","LANE":" ","ALLEY":" ","HOUSE_NO":"２１３號","E_COORD97":170073.35000000001,"N_COORD97":2544875.5099999998,"ADDRESS":"東豐路２１３號","OBJECTID":352859},"geometry":{"x":170073.34999999963,"y":2544875.5100000016}},{"attributes":{"ID":352869,"DIS_CODE":0,"TOWNNAME":"北區","LI":"仁愛里","LIN":"8鄰","STREET":"東豐路","SECT":" ","MAREA":" ","LANE":" ","ALLEY":" ","HOUSE_NO":"２１５號","E_COORD97":170077.84,"N_COORD97":2544876.2400000002,"ADDRESS":"東豐路２１５號","OBJECTID":352860},"geometry":{"x":170077.84000000078,"y":2544876.2400000002}},{"attributes":{"ID":352870,"DIS_CODE":0,"TOWNNAME":"北區","LI":"仁愛里","LIN":"8鄰","STREET":"東豐路","SECT":" ","MAREA":" ","LANE":" ","ALLEY":" ","HOUSE_NO":"２１７號","E_COORD97":170085.54999999999,"N_COORD97":2544870.7200000002,"ADDRESS":"東豐路２１７號","OBJECTID":352861},"geometry":{"x":170085.54999999981,"y":2544870.7200000007}},{"attributes":{"ID":352871,"DIS_CODE":0,"TOWNNAME":"北區","LI":"仁愛里","LIN":"8鄰","STREET":"東豐路","SECT":" ","MAREA":" ","LANE":" ","ALLEY":" ","HOUSE_NO":"２１９號","E_COORD97":170090.45999999999,"N_COORD97":2544869.8100000001,"ADDRESS":"東豐路２１９號","OBJECTID":352862},"geometry":{"x":170090.46000000089,"y":2544869.8100000005}},{"attributes":{"ID":352872,"DIS_CODE":0,"TOWNNAME":"北區","LI":"文元里","LIN":"8鄰","STREET":"中華北路","SECT":"二段","MAREA":" ","LANE":" ","ALLEY":" ","HOUSE_NO":"５６號","E_COORD97":167583.72,"N_COORD97":2546599.9100000001,"ADDRESS":"中華北路二段５６號","OBJECTID":352863},"geometry":{"x":167583.71999999974,"y":2546599.910000002}},{"attributes":{"ID":352873,"DIS_CODE":0,"TOWNNAME":"白河區","LI":"永安里","LIN":"18鄰","STREET":" ","SECT":" ","MAREA":"新厝子","LANE":"８３巷","ALLEY":" ","HOUSE_NO":"８號","E_COORD97":189479.20084,"N_COORD97":2583019.03669,"ADDRESS":"新厝子８３巷８號","OBJECTID":352864},"geometry":{"x":189479.20084000099,"y":2583019.0366900004}},{"attributes":{"ID":352874,"DIS_CODE":0,"TOWNNAME":"柳營區","LI":"篤農里","LIN":"18鄰","STREET":" ","SECT":" ","MAREA":"小腳腿","LANE":" ","ALLEY":" ","HOUSE_NO":"３４１號","E_COORD97":185495.51000000001,"N_COORD97":2576702.27,"ADDRESS":"小腳腿３４１號","OBJECTID":352865},"geometry":{"x":185495.51000000164,"y":2576702.2700000014}},{"attributes":{"ID":352875,"DIS_CODE":0,"TOWNNAME":"永康區","LI":"勝利里","LIN":"18鄰","STREET":"中華一路","SECT":" ","MAREA":" ","LANE":"３２４巷","ALLEY":" ","HOUSE_NO":"６號","E_COORD97":171224.97,"N_COORD97":2545027.7400000002,"ADDRESS":"中華一路３２４巷６號","OBJECTID":352866},"geometry":{"x":171224.96999999974,"y":2545027.7400000021}},{"attributes":{"ID":352876,"DIS_CODE":0,"TOWNNAME":"永康區","LI":"崑山里","LIN":"18鄰","STREET":"大仁街","SECT":" ","MAREA":" ","LANE":"１１巷","ALLEY":" ","HOUSE_NO":"３３號","E_COORD97":173681.69,"N_COORD97":2544569.6400000001,"ADDRESS":"大仁街１１巷３３號","OBJECTID":352867},"geometry":{"x":173681.69000000134,"y":2544569.6399999987}},{"attributes":{"ID":352877,"DIS_CODE":0,"TOWNNAME":"東區","LI":"崇信里","LIN":"18鄰","STREET":"崇善一街","SECT":" ","MAREA":" ","LANE":"３巷","ALLEY":" ","HOUSE_NO":"８號","E_COORD97":170644.75,"N_COORD97":2542188.9100000001,"ADDRESS":"崇善一街３巷８號","OBJECTID":352868},"geometry":{"x":170644.75000000093,"y":2542188.910000002}},{"attributes":{"ID":352878,"DIS_CODE":0,"TOWNNAME":"東區","LI":"崇信里","LIN":"18鄰","STREET":"崇善一街","SECT":" ","MAREA":" ","LANE":"４３巷","ALLEY":" ","HOUSE_NO":"１號","E_COORD97":170728.39999999999,"N_COORD97":2542200.9399999999,"ADDRESS":"崇善一街４３巷１號","OBJECTID":352869},"geometry":{"x":170728.40000000224,"y":2542200.9400000013}},{"attributes":{"ID":352879,"DIS_CODE":0,"TOWNNAME":"東區","LI":"崇信里","LIN":"18鄰","STREET":"崇善一街","SECT":" ","MAREA":" ","LANE":"４３巷","ALLEY":" ","HOUSE_NO":"１號地下層","E_COORD97":170728.39999999999,"N_COORD97":2542200.9399999999,"ADDRESS":"崇善一街４３巷１號地下層","OBJECTID":352870},"geometry":{"x":170728.40000000224,"y":2542200.9400000013}},{"attributes":{"ID":352880,"DIS_CODE":0,"TOWNNAME":"東區","LI":"崇信里","LIN":"18鄰","STREET":"崇善一街","SECT":" ","MAREA":" ","LANE":"４３巷","ALLEY":" ","HOUSE_NO":"５號","E_COORD97":170717.20000000001,"N_COORD97":2542209.8300000001,"ADDRESS":"崇善一街４３巷５號","OBJECTID":352871},"geometry":{"x":170717.20000000019,"y":2542209.8300000019}},{"attributes":{"ID":352881,"DIS_CODE":0,"TOWNNAME":"北區","LI":"大仁里","LIN":"6鄰","STREET":"北門路","SECT":"二段","MAREA":" ","LANE":"２６３巷","ALLEY":" ","HOUSE_NO":"１１號","E_COORD97":169523.44,"N_COORD97":2545384.1099999999,"ADDRESS":"北門路二段２６３巷１１號","OBJECTID":352872},"geometry":{"x":169523.44000000134,"y":2545384.1099999994}},{"attributes":{"ID":352882,"DIS_CODE":0,"TOWNNAME":"北區","LI":"大仁里","LIN":"6鄰","STREET":"北門路","SECT":"二段","MAREA":" ","LANE":"２６３巷","ALLEY":" ","HOUSE_NO":"１２號","E_COORD97":169527.32999999999,"N_COORD97":2545384,"ADDRESS":"北門路二段２６３巷１２號","OBJECTID":352873},"geometry":{"x":169527.33000000101,"y":2545384.0000000037}},{"attributes":{"ID":352883,"DIS_CODE":0,"TOWNNAME":"北區","LI":"大仁里","LIN":"6鄰","STREET":"北門路","SECT":"二段","MAREA":" ","LANE":"２６３巷","ALLEY":" ","HOUSE_NO":"１３號","E_COORD97":169531.10000000001,"N_COORD97":2545383.6499999999,"ADDRESS":"北門路二段２６３巷１３號","OBJECTID":352874},"geometry":{"x":169531.10000000149,"y":2545383.6500000022}},{"attributes":{"ID":352884,"DIS_CODE":0,"TOWNNAME":"歸仁區","LI":"後市里","LIN":"6鄰","STREET":"大吉一街","SECT":" ","MAREA":" ","LANE":"４３巷","ALLEY":" ","HOUSE_NO":"３號","E_COORD97":177188.10999999999,"N_COORD97":2540662.25,"ADDRESS":"大吉一街４３巷３號","OBJECTID":352875},"geometry":{"x":177188.11000000034,"y":2540662.25}},{"attributes":{"ID":352885,"DIS_CODE":0,"TOWNNAME":"北區","LI":"大仁里","LIN":"6鄰","STREET":"北門路","SECT":"二段","MAREA":" ","LANE":"２６３巷","ALLEY":" ","HOUSE_NO":"１４號","E_COORD97":169534.88,"N_COORD97":2545383.0299999998,"ADDRESS":"北門路二段２６３巷１４號","OBJECTID":352876},"geometry":{"x":169534.88000000082,"y":2545383.0300000031}},{"attributes":{"ID":352886,"DIS_CODE":0,"TOWNNAME":"北區","LI":"文元里","LIN":"8鄰","STREET":"中華北路","SECT":"二段","MAREA":" ","LANE":" ","ALLEY":" ","HOUSE_NO":"５７號","E_COORD97":167588.35999999999,"N_COORD97":2546601.3900000001,"ADDRESS":"中華北路二段５７號","OBJECTID":352877},"geometry":{"x":167588.36000000034,"y":2546601.3900000006}},{"attributes":{"ID":352887,"DIS_CODE":0,"TOWNNAME":"北區","LI":"文元里","LIN":"8鄰","STREET":"中華北路","SECT":"二段","MAREA":" ","LANE":" ","ALLEY":" ","HOUSE_NO":"５８號","E_COORD97":167593.63,"N_COORD97":2546603.3100000001,"ADDRESS":"中華北路二段５８號","OBJECTID":352878},"geometry":{"x":167593.63000000175,"y":2546603.3100000024}},{"attributes":{"ID":352888,"DIS_CODE":0,"TOWNNAME":"北區","LI":"文成里","LIN":"8鄰","STREET":"文賢路","SECT":" ","MAREA":" ","LANE":" ","ALLEY":" ","HOUSE_NO":"５１２號","E_COORD97":167354.32000000001,"N_COORD97":2545274.3500000001,"ADDRESS":"文賢路５１２號","OBJECTID":352879},"geometry":{"x":167354.32000000123,"y":2545274.3499999996}},{"attributes":{"ID":352889,"DIS_CODE":0,"TOWNNAME":"北區","LI":"文成里","LIN":"8鄰","STREET":"文賢路","SECT":" ","MAREA":" ","LANE":" ","ALLEY":" ","HOUSE_NO":"５１４號","E_COORD97":167354.72,"N_COORD97":2545278.5800000001,"ADDRESS":"文賢路５１４號","OBJECTID":352880},"geometry":{"x":167354.71999999974,"y":2545278.5800000019}},{"attributes":{"ID":352890,"DIS_CODE":0,"TOWNNAME":"北區","LI":"文成里","LIN":"8鄰","STREET":"文賢路","SECT":" ","MAREA":" ","LANE":" ","ALLEY":" ","HOUSE_NO":"５１６號","E_COORD97":167354.92999999999,"N_COORD97":2545283.6000000001,"ADDRESS":"文賢路５１６號","OBJECTID":352881},"geometry":{"x":167354.9299999997,"y":2545283.5999999996}},{"attributes":{"ID":352891,"DIS_CODE":0,"TOWNNAME":"北區","LI":"文成里","LIN":"8鄰","STREET":"文賢路","SECT":" ","MAREA":" ","LANE":" ","ALLEY":" ","HOUSE_NO":"５１８號","E_COORD97":167355.73000000001,"N_COORD97":2545288.23,"ADDRESS":"文賢路５１８號","OBJECTID":352882},"geometry":{"x":167355.73000000045,"y":2545288.2300000023}},{"attributes":{"ID":352892,"DIS_CODE":0,"TOWNNAME":"北區","LI":"文成里","LIN":"8鄰","STREET":"文賢路","SECT":" ","MAREA":" ","LANE":" ","ALLEY":" ","HOUSE_NO":"５１８號之１","E_COORD97":167356.54000000001,"N_COORD97":2545291.8500000001,"ADDRESS":"文賢路５１８號之１","OBJECTID":352883},"geometry":{"x":167356.54000000004,"y":2545291.8499999996}},{"attributes":{"ID":352893,"DIS_CODE":0,"TOWNNAME":"北區","LI":"長榮里","LIN":"6鄰","STREET":"長勝路","SECT":" ","MAREA":" ","LANE":" ","ALLEY":" ","HOUSE_NO":"３５號","E_COORD97":169986.03,"N_COORD97":2545589.4900000002,"ADDRESS":"長勝路３５號","OBJECTID":352884},"geometry":{"x":169986.03000000026,"y":2545589.4900000002}},{"attributes":{"ID":352894,"DIS_CODE":0,"TOWNNAME":"中西區","LI":"西賢里","LIN":"24鄰","STREET":"西賢二街","SECT":" ","MAREA":" ","LANE":"１４１巷","ALLEY":" ","HOUSE_NO":"２號","E_COORD97":165567.98999999999,"N_COORD97":2544690.6000000001,"ADDRESS":"西賢二街１４１巷２號","OBJECTID":352885},"geometry":{"x":165567.99000000115,"y":2544690.5999999996}},{"attributes":{"ID":352895,"DIS_CODE":0,"TOWNNAME":"中西區","LI":"西賢里","LIN":"24鄰","STREET":"西賢二街","SECT":" ","MAREA":" ","LANE":"１４１巷","ALLEY":" ","HOUSE_NO":"６號","E_COORD97":165564.17000000001,"N_COORD97":2544690.4399999999,"ADDRESS":"西賢二街１４１巷６號","OBJECTID":352886},"geometry":{"x":165564.17000000179,"y":2544690.4399999995}},{"attributes":{"ID":352896,"DIS_CODE":0,"TOWNNAME":"中西區","LI":"西賢里","LIN":"24鄰","STREET":"西賢二街","SECT":" ","MAREA":" ","LANE":"１４１巷","ALLEY":" ","HOUSE_NO":"１０號","E_COORD97":165559.57000000001,"N_COORD97":2544690.4399999999,"ADDRESS":"西賢二街１４１巷１０號","OBJECTID":352887},"geometry":{"x":165559.5700000003,"y":2544690.4399999995}},{"attributes":{"ID":352897,"DIS_CODE":0,"TOWNNAME":"中西區","LI":"西賢里","LIN":"24鄰","STREET":"西賢二街","SECT":" ","MAREA":" ","LANE":"１４１巷","ALLEY":" ","HOUSE_NO":"１２號","E_COORD97":165554.97,"N_COORD97":2544690.2799999998,"ADDRESS":"西賢二街１４１巷１２號","OBJECTID":352888},"geometry":{"x":165554.96999999974,"y":2544690.2800000012}},{"attributes":{"ID":352898,"DIS_CODE":0,"TOWNNAME":"中西區","LI":"西賢里","LIN":"24鄰","STREET":"西賢二街","SECT":" ","MAREA":" ","LANE":"１４１巷","ALLEY":" ","HOUSE_NO":"１６號","E_COORD97":165549.57000000001,"N_COORD97":2544690.2799999998,"ADDRESS":"西賢二街１４１巷１６號","OBJECTID":352889},"geometry":{"x":165549.5700000003,"y":2544690.2800000012}},{"attributes":{"ID":352899,"DIS_CODE":0,"TOWNNAME":"中西區","LI":"西賢里","LIN":"24鄰","STREET":"西賢二街","SECT":" ","MAREA":" ","LANE":"１４１巷","ALLEY":" ","HOUSE_NO":"８號","E_COORD97":165561.79000000001,"N_COORD97":2544690.4399999999,"ADDRESS":"西賢二街１４１巷８號","OBJECTID":352890},"geometry":{"x":165561.7900000019,"y":2544690.4399999995}},{"attributes":{"ID":352900,"DIS_CODE":0,"TOWNNAME":"安南區","LI":"海東里","LIN":"24鄰","STREET":"同安路","SECT":" ","MAREA":" ","LANE":"２２５巷","ALLEY":" ","HOUSE_NO":"３７號九樓","E_COORD97":167107.10000000001,"N_COORD97":2549195.9100000001,"ADDRESS":"同安路２２５巷３７號九樓","OBJECTID":352891},"geometry":{"x":167107.10000000149,"y":2549195.910000002}},{"attributes":{"ID":352901,"DIS_CODE":0,"TOWNNAME":"安南區","LI":"海東里","LIN":"24鄰","STREET":"同安路","SECT":" ","MAREA":" ","LANE":"２２５巷","ALLEY":" ","HOUSE_NO":"３９號九樓","E_COORD97":167103.81,"N_COORD97":2549198.6899999999,"ADDRESS":"同安路２２５巷３９號九樓","OBJECTID":352892},"geometry":{"x":167103.81000000145,"y":2549198.6899999995}},{"attributes":{"ID":352902,"DIS_CODE":0,"TOWNNAME":"南區","LI":"開南里","LIN":"24鄰","STREET":"\u25A0埕路","SECT":" ","MAREA":" ","LANE":"１３１巷","ALLEY":" ","HOUSE_NO":"１６３號七樓","E_COORD97":166523.69,"N_COORD97":2540877.46,"ADDRESS":"\u25A0埕路１３１巷１６３號七樓","OBJECTID":352893},"geometry":{"x":166523.69000000041,"y":2540877.4600000028}},{"attributes":{"ID":352903,"DIS_CODE":0,"TOWNNAME":"南區","LI":"開南里","LIN":"24鄰","STREET":"\u25A0埕路","SECT":" ","MAREA":" ","LANE":"１３１巷","ALLEY":" ","HOUSE_NO":"１６３號七樓之１","E_COORD97":166523.69,"N_COORD97":2540877.46,"ADDRESS":"\u25A0埕路１３１巷１６３號七樓之１","OBJECTID":352894},"geometry":{"x":166523.69000000041,"y":2540877.4600000028}},{"attributes":{"ID":352904,"DIS_CODE":0,"TOWNNAME":"南區","LI":"開南里","LIN":"24鄰","STREET":"\u25A0埕路","SECT":" ","MAREA":" ","LANE":"１３１巷","ALLEY":" ","HOUSE_NO":"１６３號七樓之２","E_COORD97":166523.69,"N_COORD97":2540877.46,"ADDRESS":"\u25A0埕路１３１巷１６３號七樓之２","OBJECTID":352895},"geometry":{"x":166523.69000000041,"y":2540877.4600000028}},{"attributes":{"ID":352905,"DIS_CODE":0,"TOWNNAME":"南區","LI":"開南里","LIN":"24鄰","STREET":"\u25A0埕路","SECT":" ","MAREA":" ","LANE":"１３１巷","ALLEY":" ","HOUSE_NO":"１６３號七樓之３","E_COORD97":166523.69,"N_COORD97":2540877.46,"ADDRESS":"\u25A0埕路１３１巷１６３號七樓之３","OBJECTID":352896},"geometry":{"x":166523.69000000041,"y":2540877.4600000028}},{"attributes":{"ID":352906,"DIS_CODE":0,"TOWNNAME":"北區","LI":"大仁里","LIN":"6鄰","STREET":"北門路","SECT":"二段","MAREA":" ","LANE":"２６３巷","ALLEY":" ","HOUSE_NO":"１５號","E_COORD97":169538.42999999999,"N_COORD97":2545382.6299999999,"ADDRESS":"北門路二段２６３巷１５號","OBJECTID":352897},"geometry":{"x":169538.4299999997,"y":2545382.6300000008}},{"attributes":{"ID":352907,"DIS_CODE":0,"TOWNNAME":"北區","LI":"大仁里","LIN":"6鄰","STREET":"北門路","SECT":"二段","MAREA":" ","LANE":"２６３巷","ALLEY":" ","HOUSE_NO":"５號","E_COORD97":169521.66,"N_COORD97":2545373.6899999999,"ADDRESS":"北門路二段２６３巷５號","OBJECTID":352898},"geometry":{"x":169521.66000000108,"y":2545373.6899999995}},{"attributes":{"ID":352908,"DIS_CODE":0,"TOWNNAME":"北區","LI":"大仁里","LIN":"6鄰","STREET":"北門路","SECT":"二段","MAREA":" ","LANE":"２６３巷","ALLEY":" ","HOUSE_NO":"６號","E_COORD97":169512.28,"N_COORD97":2545371.6499999999,"ADDRESS":"北門路二段２６３巷６號","OBJECTID":352899},"geometry":{"x":169512.28000000119,"y":2545371.6500000004}},{"attributes":{"ID":352909,"DIS_CODE":0,"TOWNNAME":"北區","LI":"大仁里","LIN":"6鄰","STREET":"北門路","SECT":"二段","MAREA":" ","LANE":"２６３巷","ALLEY":" ","HOUSE_NO":"７號","E_COORD97":169511.35999999999,"N_COORD97":2545376.2000000002,"ADDRESS":"北門路二段２６３巷７號","OBJECTID":352900},"geometry":{"x":169511.3600000022,"y":2545376.2000000011}},{"attributes":{"ID":352910,"DIS_CODE":0,"TOWNNAME":"東山區","LI":"東中里","LIN":"20鄰","STREET":"中興路","SECT":" ","MAREA":" ","LANE":" ","ALLEY":" ","HOUSE_NO":"３７號","E_COORD97":188976.62,"N_COORD97":2580175.48,"ADDRESS":"中興路３７號","OBJECTID":352901},"geometry":{"x":188976.62000000011,"y":2580175.4800000004}},{"attributes":{"ID":352911,"DIS_CODE":0,"TOWNNAME":"北區","LI":"文成里","LIN":"8鄰","STREET":"文賢路","SECT":" ","MAREA":" ","LANE":" ","ALLEY":" ","HOUSE_NO":"５２２號","E_COORD97":167357.98999999999,"N_COORD97":2545302.8799999999,"ADDRESS":"文賢路５２２號","OBJECTID":352902},"geometry":{"x":167357.99000000115,"y":2545302.8800000008}},{"attributes":{"ID":352912,"DIS_CODE":0,"TOWNNAME":"北區","LI":"文成里","LIN":"8鄰","STREET":"文賢路","SECT":" ","MAREA":" ","LANE":" ","ALLEY":" ","HOUSE_NO":"５２４號","E_COORD97":167357.79999999999,"N_COORD97":2545308.02,"ADDRESS":"文賢路５２４號","OBJECTID":352903},"geometry":{"x":167357.79999999981,"y":2545308.0199999996}},{"attributes":{"ID":352913,"DIS_CODE":0,"TOWNNAME":"北區","LI":"文成里","LIN":"8鄰","STREET":"文賢路","SECT":" ","MAREA":" ","LANE":" ","ALLEY":" ","HOUSE_NO":"５２６號","E_COORD97":167358.17999999999,"N_COORD97":2545312.7799999998,"ADDRESS":"文賢路５２６號","OBJECTID":352904},"geometry":{"x":167358.18000000063,"y":2545312.7799999993}},{"attributes":{"ID":352914,"DIS_CODE":0,"TOWNNAME":"北區","LI":"文成里","LIN":"8鄰","STREET":"文賢路","SECT":" ","MAREA":" ","LANE":" ","ALLEY":" ","HOUSE_NO":"５２８號","E_COORD97":167358.95000000001,"N_COORD97":2545317.54,"ADDRESS":"文賢路５２８號","OBJECTID":352905},"geometry":{"x":167358.95000000019,"y":2545317.5399999991}},{"attributes":{"ID":352915,"DIS_CODE":0,"TOWNNAME":"北區","LI":"文成里","LIN":"8鄰","STREET":"文賢路","SECT":" ","MAREA":" ","LANE":" ","ALLEY":" ","HOUSE_NO":"５３０號","E_COORD97":167359.14000000001,"N_COORD97":2545321.73,"ADDRESS":"文賢路５３０號","OBJECTID":352906},"geometry":{"x":167359.13999999966,"y":2545321.7300000042}},{"attributes":{"ID":352916,"DIS_CODE":0,"TOWNNAME":"北區","LI":"文元里","LIN":"8鄰","STREET":"中華北路","SECT":"二段","MAREA":" ","LANE":" ","ALLEY":" ","HOUSE_NO":"４９號","E_COORD97":167550.10000000001,"N_COORD97":2546587.04,"ADDRESS":"中華北路二段４９號","OBJECTID":352907},"geometry":{"x":167550.10000000056,"y":2546587.040000001}},{"attributes":{"ID":352917,"DIS_CODE":0,"TOWNNAME":"北區","LI":"文元里","LIN":"8鄰","STREET":"中華北路","SECT":"二段","MAREA":" ","LANE":" ","ALLEY":" ","HOUSE_NO":"５０號","E_COORD97":167554.29000000001,"N_COORD97":2546588.8199999998,"ADDRESS":"中華北路二段５０號","OBJECTID":352908},"geometry":{"x":167554.29000000097,"y":2546588.820000004}},{"attributes":{"ID":352918,"DIS_CODE":0,"TOWNNAME":"北區","LI":"文元里","LIN":"8鄰","STREET":"中華北路","SECT":"二段","MAREA":" ","LANE":" ","ALLEY":" ","HOUSE_NO":"５１號","E_COORD97":167558.10000000001,"N_COORD97":2546590.5899999999,"ADDRESS":"中華北路二段５１號","OBJECTID":352909},"geometry":{"x":167558.10000000056,"y":2546590.5900000017}},{"attributes":{"ID":352919,"DIS_CODE":0,"TOWNNAME":"北區","LI":"文元里","LIN":"8鄰","STREET":"中華北路","SECT":"二段","MAREA":" ","LANE":" ","ALLEY":" ","HOUSE_NO":"５２號","E_COORD97":167562.29000000001,"N_COORD97":2546592.2400000002,"ADDRESS":"中華北路二段５２號","OBJECTID":352910},"geometry":{"x":167562.29000000097,"y":2546592.2400000002}},{"attributes":{"ID":352920,"DIS_CODE":0,"TOWNNAME":"北區","LI":"長德里","LIN":"8鄰","STREET":"公園南路","SECT":" ","MAREA":" ","LANE":" ","ALLEY":" ","HOUSE_NO":"２６０之１１號","E_COORD97":168403.17000000001,"N_COORD97":2544779.1000000001,"ADDRESS":"公園南路２６０之１１號","OBJECTID":352911},"geometry":{"x":168403.16999999993,"y":2544779.1000000034}},{"attributes":{"ID":352921,"DIS_CODE":0,"TOWNNAME":"北區","LI":"長德里","LIN":"8鄰","STREET":"公園南路","SECT":" ","MAREA":" ","LANE":" ","ALLEY":" ","HOUSE_NO":"２６０之１０號","E_COORD97":168407.35999999999,"N_COORD97":2544777.5699999998,"ADDRESS":"公園南路２６０之１０號","OBJECTID":352912},"geometry":{"x":168407.36000000034,"y":2544777.5700000022}},{"attributes":{"ID":352922,"DIS_CODE":0,"TOWNNAME":"北區","LI":"長德里","LIN":"8鄰","STREET":"公園南路","SECT":" ","MAREA":" ","LANE":" ","ALLEY":" ","HOUSE_NO":"２６０之９號","E_COORD97":168413.07000000001,"N_COORD97":2544775.54,"ADDRESS":"公園南路２６０之９號","OBJECTID":352913},"geometry":{"x":168413.06999999937,"y":2544775.5399999972}},{"attributes":{"ID":352923,"DIS_CODE":0,"TOWNNAME":"北區","LI":"大仁里","LIN":"6鄰","STREET":"北門路","SECT":"二段","MAREA":" ","LANE":"２６３巷","ALLEY":" ","HOUSE_NO":"８號","E_COORD97":169514.51000000001,"N_COORD97":2545378.3700000001,"ADDRESS":"北門路二段２６３巷８號","OBJECTID":352914},"geometry":{"x":169514.50999999978,"y":2545378.370000001}},{"attributes":{"ID":352924,"DIS_CODE":0,"TOWNNAME":"安平區","LI":"平安里","LIN":"6鄰","STREET":"安平路","SECT":" ","MAREA":" ","LANE":"３３６巷","ALLEY":" ","HOUSE_NO":"９號","E_COORD97":165653.10999999999,"N_COORD97":2544373.52,"ADDRESS":"安平路３３６巷９號","OBJECTID":352915},"geometry":{"x":165653.1100000022,"y":2544373.5200000014}},{"attributes":{"ID":352925,"DIS_CODE":0,"TOWNNAME":"北區","LI":"大和里","LIN":"6鄰","STREET":"大興街","SECT":" ","MAREA":" ","LANE":"１３２巷","ALLEY":" ","HOUSE_NO":"５８號","E_COORD97":167033.98999999999,"N_COORD97":2545904.52,"ADDRESS":"大興街１３２巷５８號","OBJECTID":352916},"geometry":{"x":167033.99000000115,"y":2545904.5199999996}},{"attributes":{"ID":352926,"DIS_CODE":0,"TOWNNAME":"北區","LI":"大和里","LIN":"6鄰","STREET":"大興街","SECT":" ","MAREA":" ","LANE":"１３２巷","ALLEY":" ","HOUSE_NO":"６０號","E_COORD97":167033.73999999999,"N_COORD97":2545909.3599999999,"ADDRESS":"大興街１３２巷６０號","OBJECTID":352917},"geometry":{"x":167033.74000000209,"y":2545909.3599999975}},{"attributes":{"ID":352927,"DIS_CODE":0,"TOWNNAME":"北區","LI":"大和里","LIN":"6鄰","STREET":"大興街","SECT":" ","MAREA":" ","LANE":"１３２巷","ALLEY":" ","HOUSE_NO":"６８號","E_COORD97":167030.06,"N_COORD97":2545926.9399999999,"ADDRESS":"大興街１３２巷６８號","OBJECTID":352918},"geometry":{"x":167030.06000000052,"y":2545926.9400000013}},{"attributes":{"ID":352928,"DIS_CODE":0,"TOWNNAME":"北區","LI":"大和里","LIN":"6鄰","STREET":"大興街","SECT":" ","MAREA":" ","LANE":"１３２巷","ALLEY":" ","HOUSE_NO":"６號","E_COORD97":167041.45999999999,"N_COORD97":2545778.5099999998,"ADDRESS":"大興街１３２巷６號","OBJECTID":352919},"geometry":{"x":167041.45999999996,"y":2545778.5099999998}},{"attributes":{"ID":352929,"DIS_CODE":0,"TOWNNAME":"北區","LI":"大和里","LIN":"6鄰","STREET":"大興街","SECT":" ","MAREA":" ","LANE":"１３２巷","ALLEY":" ","HOUSE_NO":"７０號","E_COORD97":167029.75,"N_COORD97":2545931.54,"ADDRESS":"大興街１３２巷７０號","OBJECTID":352920},"geometry":{"x":167029.75,"y":2545931.5399999991}},{"attributes":{"ID":352930,"DIS_CODE":0,"TOWNNAME":"北區","LI":"大和里","LIN":"6鄰","STREET":"大興街","SECT":" ","MAREA":" ","LANE":"１３２巷","ALLEY":" ","HOUSE_NO":"７２號","E_COORD97":167029.57000000001,"N_COORD97":2545935.8399999999,"ADDRESS":"大興街１３２巷７２號","OBJECTID":352921},"geometry":{"x":167029.5700000003,"y":2545935.8399999999}},{"attributes":{"ID":352931,"DIS_CODE":0,"TOWNNAME":"北區","LI":"大和里","LIN":"6鄰","STREET":"大興街","SECT":" ","MAREA":" ","LANE":"１３２巷","ALLEY":" ","HOUSE_NO":"７４號","E_COORD97":167029.63,"N_COORD97":2545940.6299999999,"ADDRESS":"大興街１３２巷７４號","OBJECTID":352922},"geometry":{"x":167029.63000000082,"y":2545940.629999999}},{"attributes":{"ID":352932,"DIS_CODE":0,"TOWNNAME":"北區","LI":"大和里","LIN":"6鄰","STREET":"大興街","SECT":" ","MAREA":" ","LANE":"１３２巷","ALLEY":" ","HOUSE_NO":"７６號","E_COORD97":167027.92000000001,"N_COORD97":2545953.71,"ADDRESS":"大興街１３２巷７６號","OBJECTID":352923},"geometry":{"x":167027.92000000086,"y":2545953.7100000028}},{"attributes":{"ID":352933,"DIS_CODE":0,"TOWNNAME":"北區","LI":"大和里","LIN":"6鄰","STREET":"大興街","SECT":" ","MAREA":" ","LANE":"１３２巷","ALLEY":" ","HOUSE_NO":"７６號之１","E_COORD97":167027.17999999999,"N_COORD97":2545958.8799999999,"ADDRESS":"大興街１３２巷７６號之１","OBJECTID":352924},"geometry":{"x":167027.18000000063,"y":2545958.879999999}},{"attributes":{"ID":352934,"DIS_CODE":0,"TOWNNAME":"北區","LI":"大和里","LIN":"6鄰","STREET":"大興街","SECT":" ","MAREA":" ","LANE":"１３２巷","ALLEY":" ","HOUSE_NO":"７６號之２","E_COORD97":167026.69,"N_COORD97":2545963.4199999999,"ADDRESS":"大興街１３２巷７６號之２","OBJECTID":352925},"geometry":{"x":167026.69000000041,"y":2545963.4199999999}},{"attributes":{"ID":352935,"DIS_CODE":0,"TOWNNAME":"北區","LI":"大和里","LIN":"6鄰","STREET":"大興街","SECT":" ","MAREA":" ","LANE":"１３２巷","ALLEY":" ","HOUSE_NO":"７６號之３","E_COORD97":167026.38,"N_COORD97":2545967.54,"ADDRESS":"大興街１３２巷７６號之３","OBJECTID":352926},"geometry":{"x":167026.38000000082,"y":2545967.5399999991}},{"attributes":{"ID":352936,"DIS_CODE":0,"TOWNNAME":"北區","LI":"大和里","LIN":"6鄰","STREET":"大興街","SECT":" ","MAREA":" ","LANE":"１３２巷","ALLEY":" ","HOUSE_NO":"７８號","E_COORD97":167026.01000000001,"N_COORD97":2545971.4700000002,"ADDRESS":"大興街１３２巷７８號","OBJECTID":352927},"geometry":{"x":167026.00999999978,"y":2545971.4700000044}},{"attributes":{"ID":352937,"DIS_CODE":0,"TOWNNAME":"北區","LI":"大和里","LIN":"6鄰","STREET":"大興街","SECT":" ","MAREA":" ","LANE":"１３２巷","ALLEY":" ","HOUSE_NO":"８０號","E_COORD97":167025.45999999999,"N_COORD97":2545976.1899999999,"ADDRESS":"大興街１３２巷８０號","OBJECTID":352928},"geometry":{"x":167025.46000000089,"y":2545976.1900000013}},{"attributes":{"ID":352938,"DIS_CODE":0,"TOWNNAME":"北區","LI":"大和里","LIN":"6鄰","STREET":"大興街","SECT":" ","MAREA":" ","LANE":"１３２巷","ALLEY":" ","HOUSE_NO":"８２號","E_COORD97":167025.09,"N_COORD97":2545980.4199999999,"ADDRESS":"大興街１３２巷８２號","OBJECTID":352929},"geometry":{"x":167025.08999999985,"y":2545980.4199999999}},{"attributes":{"ID":352939,"DIS_CODE":0,"TOWNNAME":"北區","LI":"大和里","LIN":"6鄰","STREET":"大興街","SECT":" ","MAREA":" ","LANE":"１３２巷","ALLEY":" ","HOUSE_NO":"８４號","E_COORD97":167024.85000000001,"N_COORD97":2545985.04,"ADDRESS":"大興街１３２巷８４號","OBJECTID":352930},"geometry":{"x":167024.84999999963,"y":2545985.0399999991}},{"attributes":{"ID":352940,"DIS_CODE":0,"TOWNNAME":"北區","LI":"大和里","LIN":"6鄰","STREET":"大興街","SECT":" ","MAREA":" ","LANE":"１３２巷","ALLEY":" ","HOUSE_NO":"８６號","E_COORD97":167024.29999999999,"N_COORD97":2545989.52,"ADDRESS":"大興街１３２巷８６號","OBJECTID":352931},"geometry":{"x":167024.29999999981,"y":2545989.5199999996}},{"attributes":{"ID":352941,"DIS_CODE":0,"TOWNNAME":"北區","LI":"大和里","LIN":"6鄰","STREET":"大興街","SECT":" ","MAREA":" ","LANE":"１３２巷","ALLEY":" ","HOUSE_NO":"８號","E_COORD97":167042.94,"N_COORD97":2545783.27,"ADDRESS":"大興街１３２巷８號","OBJECTID":352932},"geometry":{"x":167042.94000000134,"y":2545783.2699999996}},{"attributes":{"ID":352942,"DIS_CODE":0,"TOWNNAME":"北區","LI":"大和里","LIN":"6鄰","STREET":"大興街","SECT":" ","MAREA":" ","LANE":"１３２巷","ALLEY":" ","HOUSE_NO":"１１號","E_COORD97":167020.07000000001,"N_COORD97":2545786.1099999999,"ADDRESS":"大興街１３２巷１１號","OBJECTID":352933},"geometry":{"x":167020.07000000123,"y":2545786.1100000031}},{"attributes":{"ID":352943,"DIS_CODE":0,"TOWNNAME":"北區","LI":"大和里","LIN":"6鄰","STREET":"大興街","SECT":" ","MAREA":" ","LANE":"１３２巷","ALLEY":" ","HOUSE_NO":"１３號","E_COORD97":167019.67000000001,"N_COORD97":2545790.5299999998,"ADDRESS":"大興街１３２巷１３號","OBJECTID":352934},"geometry":{"x":167019.66999999993,"y":2545790.5300000012}},{"attributes":{"ID":352944,"DIS_CODE":0,"TOWNNAME":"北區","LI":"大和里","LIN":"6鄰","STREET":"大興街","SECT":" ","MAREA":" ","LANE":"１３２巷","ALLEY":" ","HOUSE_NO":"１５號","E_COORD97":167019.13,"N_COORD97":2545795.23,"ADDRESS":"大興街１３２巷１５號","OBJECTID":352935},"geometry":{"x":167019.13000000082,"y":2545795.2300000004}},{"attributes":{"ID":352945,"DIS_CODE":0,"TOWNNAME":"北區","LI":"大和里","LIN":"6鄰","STREET":"大興街","SECT":" ","MAREA":" ","LANE":"１３２巷","ALLEY":" ","HOUSE_NO":"１７號","E_COORD97":167018.60000000001,"N_COORD97":2545799.1800000002,"ADDRESS":"大興街１３２巷１７號","OBJECTID":352936},"geometry":{"x":167018.59999999963,"y":2545799.1800000034}},{"attributes":{"ID":352946,"DIS_CODE":0,"TOWNNAME":"北區","LI":"大和里","LIN":"6鄰","STREET":"大興街","SECT":" ","MAREA":" ","LANE":"１３２巷","ALLEY":" ","HOUSE_NO":"１號","E_COORD97":167022.82000000001,"N_COORD97":2545763.6000000001,"ADDRESS":"大興街１３２巷１號","OBJECTID":352937},"geometry":{"x":167022.8200000003,"y":2545763.6000000015}},{"attributes":{"ID":352947,"DIS_CODE":0,"TOWNNAME":"北區","LI":"大和里","LIN":"6鄰","STREET":"大興街","SECT":" ","MAREA":" ","LANE":"１３２巷","ALLEY":" ","HOUSE_NO":"２１號","E_COORD97":167017.73000000001,"N_COORD97":2545808.8300000001,"ADDRESS":"大興街１３２巷２１號","OBJECTID":352938},"geometry":{"x":167017.73000000138,"y":2545808.8300000038}},{"attributes":{"ID":352948,"DIS_CODE":0,"TOWNNAME":"北區","LI":"大和里","LIN":"6鄰","STREET":"大興街","SECT":" ","MAREA":" ","LANE":"１３２巷","ALLEY":" ","HOUSE_NO":"２３號","E_COORD97":167017.39000000001,"N_COORD97":2545812.9100000001,"ADDRESS":"大興街１３２巷２３號","OBJECTID":352939},"geometry":{"x":167017.3900000006,"y":2545812.910000002}},{"attributes":{"ID":352949,"DIS_CODE":0,"TOWNNAME":"北區","LI":"大和里","LIN":"6鄰","STREET":"大興街","SECT":" ","MAREA":" ","LANE":"１３２巷","ALLEY":" ","HOUSE_NO":"２９號","E_COORD97":167016.85000000001,"N_COORD97":2545827.2599999998,"ADDRESS":"大興街１３２巷２９號","OBJECTID":352940},"geometry":{"x":167016.84999999963,"y":2545827.2600000016}},{"attributes":{"ID":352950,"DIS_CODE":0,"TOWNNAME":"北區","LI":"大和里","LIN":"6鄰","STREET":"大興街","SECT":" ","MAREA":" ","LANE":"１３２巷","ALLEY":" ","HOUSE_NO":"３１號","E_COORD97":167016.17999999999,"N_COORD97":2545831.5499999998,"ADDRESS":"大興街１３２巷３１號","OBJECTID":352941},"geometry":{"x":167016.1799999997,"y":2545831.5499999989}},{"attributes":{"ID":352951,"DIS_CODE":0,"TOWNNAME":"北區","LI":"大和里","LIN":"6鄰","STREET":"大興街","SECT":" ","MAREA":" ","LANE":"１３２巷","ALLEY":" ","HOUSE_NO":"３３號","E_COORD97":167015.92000000001,"N_COORD97":2545836.04,"ADDRESS":"大興街１３２巷３３號","OBJECTID":352942},"geometry":{"x":167015.92000000086,"y":2545836.0399999991}},{"attributes":{"ID":352952,"DIS_CODE":0,"TOWNNAME":"北區","LI":"大和里","LIN":"6鄰","STREET":"大興街","SECT":" ","MAREA":" ","LANE":"１３２巷","ALLEY":" ","HOUSE_NO":"３５號","E_COORD97":167015.70999999999,"N_COORD97":2545840.5899999999,"ADDRESS":"大興街１３２巷３５號","OBJECTID":352943},"geometry":{"x":167015.71000000089,"y":2545840.5900000036}},{"attributes":{"ID":352953,"DIS_CODE":0,"TOWNNAME":"北區","LI":"大和里","LIN":"6鄰","STREET":"大興街","SECT":" ","MAREA":" ","LANE":"１３２巷","ALLEY":" ","HOUSE_NO":"３７號","E_COORD97":167015.38,"N_COORD97":2545845.1400000001,"ADDRESS":"大興街１３２巷３７號","OBJECTID":352944},"geometry":{"x":167015.37999999896,"y":2545845.1400000025}},{"attributes":{"ID":352954,"DIS_CODE":0,"TOWNNAME":"北區","LI":"大和里","LIN":"6鄰","STREET":"大興街","SECT":" ","MAREA":" ","LANE":"１３２巷","ALLEY":" ","HOUSE_NO":"３９號","E_COORD97":167015.17999999999,"N_COORD97":2545849.5600000001,"ADDRESS":"大興街１３２巷３９號","OBJECTID":352945},"geometry":{"x":167015.18000000063,"y":2545849.5600000024}},{"attributes":{"ID":352955,"DIS_CODE":0,"TOWNNAME":"南區","LI":"開南里","LIN":"24鄰","STREET":"\u25A0埕路","SECT":" ","MAREA":" ","LANE":"１３１巷","ALLEY":" ","HOUSE_NO":"１６３號四樓之３","E_COORD97":166523.69,"N_COORD97":2540877.46,"ADDRESS":"\u25A0埕路１３１巷１６３號四樓之３","OBJECTID":352946},"geometry":{"x":166523.69000000041,"y":2540877.4600000028}},{"attributes":{"ID":352956,"DIS_CODE":0,"TOWNNAME":"南區","LI":"建南里","LIN":"24鄰","STREET":"明興路","SECT":" ","MAREA":" ","LANE":"１１９巷","ALLEY":" ","HOUSE_NO":"３號十四樓之４","E_COORD97":166694.79999999999,"N_COORD97":2539874,"ADDRESS":"明興路１１９巷３號十四樓之４","OBJECTID":352947},"geometry":{"x":166694.79999999981,"y":2539874}},{"attributes":{"ID":352957,"DIS_CODE":0,"TOWNNAME":"安南區","LI":"海東里","LIN":"24鄰","STREET":"同安路","SECT":" ","MAREA":" ","LANE":"１６７巷","ALLEY":" ","HOUSE_NO":"１１０號","E_COORD97":166895.26999999999,"N_COORD97":2549258.9700000002,"ADDRESS":"同安路１６７巷１１０號","OBJECTID":352948},"geometry":{"x":166895.26999999955,"y":2549258.9700000007}},{"attributes":{"ID":352958,"DIS_CODE":0,"TOWNNAME":"安南區","LI":"海東里","LIN":"24鄰","STREET":"同安路","SECT":" ","MAREA":" ","LANE":"１６７巷","ALLEY":" ","HOUSE_NO":"１１２號","E_COORD97":166892.25,"N_COORD97":2549261.6699999999,"ADDRESS":"同安路１６７巷１１２號","OBJECTID":352949},"geometry":{"x":166892.25,"y":2549261.6700000018}},{"attributes":{"ID":352959,"DIS_CODE":0,"TOWNNAME":"安南區","LI":"海東里","LIN":"24鄰","STREET":"同安路","SECT":" ","MAREA":" ","LANE":"１６７巷","ALLEY":" ","HOUSE_NO":"１１６號","E_COORD97":166888.44,"N_COORD97":2549264.3700000001,"ADDRESS":"同安路１６７巷１１６號","OBJECTID":352950},"geometry":{"x":166888.44000000227,"y":2549264.3700000048}},{"attributes":{"ID":352960,"DIS_CODE":0,"TOWNNAME":"安南區","LI":"海東里","LIN":"24鄰","STREET":"同安路","SECT":" ","MAREA":" ","LANE":"１６７巷","ALLEY":" ","HOUSE_NO":"１１８號","E_COORD97":166885.10999999999,"N_COORD97":2549267.3799999999,"ADDRESS":"同安路１６７巷１１８號","OBJECTID":352951},"geometry":{"x":166885.11000000034,"y":2549267.379999999}},{"attributes":{"ID":352961,"DIS_CODE":0,"TOWNNAME":"安南區","LI":"海東里","LIN":"24鄰","STREET":"同安路","SECT":" ","MAREA":" ","LANE":"１６７巷","ALLEY":" ","HOUSE_NO":"１２０號","E_COORD97":166881.62,"N_COORD97":2549270.3999999999,"ADDRESS":"同安路１６７巷１２０號","OBJECTID":352952},"geometry":{"x":166881.62000000011,"y":2549270.4000000041}},{"attributes":{"ID":352962,"DIS_CODE":0,"TOWNNAME":"北區","LI":"大和里","LIN":"6鄰","STREET":"大興街","SECT":" ","MAREA":" ","LANE":"１３２巷","ALLEY":" ","HOUSE_NO":"３號","E_COORD97":167022.48000000001,"N_COORD97":2545767.4100000001,"ADDRESS":"大興街１３２巷３號","OBJECTID":352953},"geometry":{"x":167022.48000000138,"y":2545767.4099999983}},{"attributes":{"ID":352963,"DIS_CODE":0,"TOWNNAME":"北區","LI":"大和里","LIN":"6鄰","STREET":"大興街","SECT":" ","MAREA":" ","LANE":"１３２巷","ALLEY":" ","HOUSE_NO":"４１號","E_COORD97":167014.64000000001,"N_COORD97":2545853.8399999999,"ADDRESS":"大興街１３２巷４１號","OBJECTID":352954},"geometry":{"x":167014.63999999966,"y":2545853.8400000017}},{"attributes":{"ID":352964,"DIS_CODE":0,"TOWNNAME":"北區","LI":"大和里","LIN":"6鄰","STREET":"大興街","SECT":" ","MAREA":" ","LANE":"１３２巷","ALLEY":" ","HOUSE_NO":"４３號","E_COORD97":167014.54999999999,"N_COORD97":2545858.8900000001,"ADDRESS":"大興街１３２巷４３號","OBJECTID":352955},"geometry":{"x":167014.55000000075,"y":2545858.8900000006}},{"attributes":{"ID":352965,"DIS_CODE":0,"TOWNNAME":"北區","LI":"大和里","LIN":"6鄰","STREET":"大興街","SECT":" ","MAREA":" ","LANE":"１３２巷","ALLEY":" ","HOUSE_NO":"４７號","E_COORD97":167014.54999999999,"N_COORD97":2545862.8700000001,"ADDRESS":"大興街１３２巷４７號","OBJECTID":352956},"geometry":{"x":167014.55000000075,"y":2545862.870000001}},{"attributes":{"ID":352966,"DIS_CODE":0,"TOWNNAME":"北區","LI":"大和里","LIN":"6鄰","STREET":"大興街","SECT":" ","MAREA":" ","LANE":"１３２巷","ALLEY":" ","HOUSE_NO":"７１號","E_COORD97":167007.53,"N_COORD97":2545925.73,"ADDRESS":"大興街１３２巷７１號","OBJECTID":352957},"geometry":{"x":167007.53000000026,"y":2545925.7300000023}},{"attributes":{"ID":352967,"DIS_CODE":0,"TOWNNAME":"北區","LI":"長德里","LIN":"8鄰","STREET":"公園南路","SECT":" ","MAREA":" ","LANE":" ","ALLEY":" ","HOUSE_NO":"２６０之８號","E_COORD97":168419.04000000001,"N_COORD97":2544774.27,"ADDRESS":"公園南路２６０之８號","OBJECTID":352958},"geometry":{"x":168419.04000000004,"y":2544774.2699999996}},{"attributes":{"ID":352968,"DIS_CODE":0,"TOWNNAME":"北區","LI":"長德里","LIN":"8鄰","STREET":"公園南路","SECT":" ","MAREA":" ","LANE":" ","ALLEY":" ","HOUSE_NO":"２６０之７號","E_COORD97":168424.88,"N_COORD97":2544772.2400000002,"ADDRESS":"公園南路２６０之７號","OBJECTID":352959},"geometry":{"x":168424.88000000082,"y":2544772.2400000039}},{"attributes":{"ID":352969,"DIS_CODE":0,"TOWNNAME":"歸仁區","LI":"歸南里","LIN":"6鄰","STREET":"中正十二街","SECT":" ","MAREA":" ","LANE":"２巷","ALLEY":" ","HOUSE_NO":"３０號","E_COORD97":176749.35000000001,"N_COORD97":2540030.4399999999,"ADDRESS":"中正十二街２巷３０號","OBJECTID":352960},"geometry":{"x":176749.35000000056,"y":2540030.4400000032}},{"attributes":{"ID":352970,"DIS_CODE":0,"TOWNNAME":"北區","LI":"長德里","LIN":"8鄰","STREET":"公園南路","SECT":" ","MAREA":" ","LANE":" ","ALLEY":" ","HOUSE_NO":"２６０之６號","E_COORD97":168430.60000000001,"N_COORD97":2544770.71,"ADDRESS":"公園南路２６０之６號","OBJECTID":352961},"geometry":{"x":168430.59999999963,"y":2544770.7100000028}},{"attributes":{"ID":352971,"DIS_CODE":0,"TOWNNAME":"北區","LI":"成功里","LIN":"8鄰","STREET":"北安路","SECT":"一段","MAREA":" ","LANE":" ","ALLEY":" ","HOUSE_NO":"３００號","E_COORD97":168716.70999999999,"N_COORD97":2546637.77,"ADDRESS":"北安路一段３００號","OBJECTID":352962},"geometry":{"x":168716.70999999996,"y":2546637.7699999996}},{"attributes":{"ID":352972,"DIS_CODE":0,"TOWNNAME":"北區","LI":"大道里","LIN":"8鄰","STREET":"和緯路","SECT":"一段","MAREA":" ","LANE":" ","ALLEY":" ","HOUSE_NO":"４２號","E_COORD97":169557.59,"N_COORD97":2545550.6400000001,"ADDRESS":"和緯路一段４２號","OBJECTID":352963},"geometry":{"x":169557.59000000078,"y":2545550.6400000025}},{"attributes":{"ID":352973,"DIS_CODE":0,"TOWNNAME":"北區","LI":"大道里","LIN":"8鄰","STREET":"和緯路","SECT":"一段","MAREA":" ","LANE":" ","ALLEY":" ","HOUSE_NO":"６２號","E_COORD97":169521.07999999999,"N_COORD97":2545563.02,"ADDRESS":"和緯路一段６２號","OBJECTID":352964},"geometry":{"x":169521.08000000007,"y":2545563.0200000033}},{"attributes":{"ID":352974,"DIS_CODE":0,"TOWNNAME":"北區","LI":"大道里","LIN":"8鄰","STREET":"和緯路","SECT":"一段","MAREA":" ","LANE":" ","ALLEY":" ","HOUSE_NO":"６０號","E_COORD97":169526.16,"N_COORD97":2545561.1200000001,"ADDRESS":"和緯路一段６０號","OBJECTID":352965},"geometry":{"x":169526.16000000201,"y":2545561.1200000029}},{"attributes":{"ID":352975,"DIS_CODE":0,"TOWNNAME":"北區","LI":"大道里","LIN":"8鄰","STREET":"和緯路","SECT":"一段","MAREA":" ","LANE":" ","ALLEY":" ","HOUSE_NO":"８２號","E_COORD97":169482.98000000001,"N_COORD97":2545576.04,"ADDRESS":"和緯路一段８２號","OBJECTID":352966},"geometry":{"x":169482.98000000045,"y":2545576.0400000028}},{"attributes":{"ID":352976,"DIS_CODE":0,"TOWNNAME":"南區","LI":"明興里","LIN":"8鄰","STREET":"金華路","SECT":"一段","MAREA":" ","LANE":" ","ALLEY":" ","HOUSE_NO":"１４２號","E_COORD97":166933.25,"N_COORD97":2540617.27,"ADDRESS":"金華路一段１４２號","OBJECTID":352967},"geometry":{"x":166933.25,"y":2540617.2699999996}},{"attributes":{"ID":352977,"DIS_CODE":0,"TOWNNAME":"南區","LI":"明興里","LIN":"8鄰","STREET":"金華路","SECT":"一段","MAREA":" ","LANE":" ","ALLEY":" ","HOUSE_NO":"１４６號","E_COORD97":166934.44,"N_COORD97":2540628.2200000002,"ADDRESS":"金華路一段１４６號","OBJECTID":352968},"geometry":{"x":166934.44000000134,"y":2540628.2200000007}},{"attributes":{"ID":352978,"DIS_CODE":0,"TOWNNAME":"南區","LI":"明興里","LIN":"8鄰","STREET":"金華路","SECT":"一段","MAREA":" ","LANE":" ","ALLEY":" ","HOUSE_NO":"１４８號","E_COORD97":166935.29000000001,"N_COORD97":2540633.3399999999,"ADDRESS":"金華路一段１４８號","OBJECTID":352969},"geometry":{"x":166935.29000000097,"y":2540633.3399999999}},{"attributes":{"ID":352979,"DIS_CODE":0,"TOWNNAME":"南區","LI":"明興里","LIN":"8鄰","STREET":"金華路","SECT":"一段","MAREA":" ","LANE":" ","ALLEY":" ","HOUSE_NO":"１５０號","E_COORD97":166935.72,"N_COORD97":2540638.5099999998,"ADDRESS":"金華路一段１５０號","OBJECTID":352970},"geometry":{"x":166935.72000000067,"y":2540638.5100000016}},{"attributes":{"ID":352980,"DIS_CODE":0,"TOWNNAME":"南區","LI":"明興里","LIN":"8鄰","STREET":"金華路","SECT":"一段","MAREA":" ","LANE":" ","ALLEY":" ","HOUSE_NO":"１５２號","E_COORD97":166937.16,"N_COORD97":2540644.2799999998,"ADDRESS":"金華路一段１５２號","OBJECTID":352971},"geometry":{"x":166937.16000000015,"y":2540644.2799999993}},{"attributes":{"ID":352981,"DIS_CODE":0,"TOWNNAME":"安南區","LI":"安順里","LIN":"24鄰","STREET":"北安路","SECT":"三段","MAREA":" ","LANE":"６８０巷","ALLEY":" ","HOUSE_NO":"１１號","E_COORD97":169488.73999999999,"N_COORD97":2550464.8999999999,"ADDRESS":"北安路三段６８０巷１１號","OBJECTID":352972},"geometry":{"x":169488.74000000115,"y":2550464.9000000022}},{"attributes":{"ID":352982,"DIS_CODE":0,"TOWNNAME":"柳營區","LI":"旭山里","LIN":"18鄰","STREET":" ","SECT":" ","MAREA":"山子腳","LANE":" ","ALLEY":" ","HOUSE_NO":"２５號","E_COORD97":187081.98999999999,"N_COORD97":2574430.6899999999,"ADDRESS":"山子腳２５號","OBJECTID":352973},"geometry":{"x":187081.99000000022,"y":2574430.6900000032}},{"attributes":{"ID":352983,"DIS_CODE":0,"TOWNNAME":"安南區","LI":"安順里","LIN":"24鄰","STREET":"北安路","SECT":"三段","MAREA":" ","LANE":"６８０巷","ALLEY":" ","HOUSE_NO":"１３號","E_COORD97":169496.20000000001,"N_COORD97":2550464.27,"ADDRESS":"北安路三段６８０巷１３號","OBJECTID":352974},"geometry":{"x":169496.20000000112,"y":2550464.2700000014}},{"attributes":{"ID":352984,"DIS_CODE":0,"TOWNNAME":"北區","LI":"大和里","LIN":"6鄰","STREET":"大興街","SECT":" ","MAREA":" ","LANE":"１３２巷","ALLEY":" ","HOUSE_NO":"７３號","E_COORD97":167006.79999999999,"N_COORD97":2545930.02,"ADDRESS":"大興街１３２巷７３號","OBJECTID":352975},"geometry":{"x":167006.79999999981,"y":2545930.0200000014}},{"attributes":{"ID":352985,"DIS_CODE":0,"TOWNNAME":"北區","LI":"大和里","LIN":"6鄰","STREET":"大興街","SECT":" ","MAREA":" ","LANE":"１３２巷","ALLEY":" ","HOUSE_NO":"７５號","E_COORD97":167006.79000000001,"N_COORD97":2545934.9399999999,"ADDRESS":"大興街１３２巷７５號","OBJECTID":352976},"geometry":{"x":167006.79000000097,"y":2545934.9399999995}},{"attributes":{"ID":352986,"DIS_CODE":0,"TOWNNAME":"北區","LI":"大和里","LIN":"6鄰","STREET":"大興街","SECT":" ","MAREA":" ","LANE":"１３２巷","ALLEY":" ","HOUSE_NO":"７７號","E_COORD97":167006.42999999999,"N_COORD97":2545939.3500000001,"ADDRESS":"大興街１３２巷７７號","OBJECTID":352977},"geometry":{"x":167006.43000000156,"y":2545939.3499999996}},{"attributes":{"ID":352987,"DIS_CODE":0,"TOWNNAME":"歸仁區","LI":"辜厝里","LIN":"6鄰","STREET":"民族南街","SECT":" ","MAREA":" ","LANE":"９３巷","ALLEY":" ","HOUSE_NO":"２５號","E_COORD97":177445.54000000001,"N_COORD97":2540623.5499999998,"ADDRESS":"民族南街９３巷２５號","OBJECTID":352978},"geometry":{"x":177445.54000000097,"y":2540623.5500000007}},{"attributes":{"ID":352988,"DIS_CODE":0,"TOWNNAME":"歸仁區","LI":"歸南里","LIN":"6鄰","STREET":"中正十二街","SECT":" ","MAREA":" ","LANE":"２巷","ALLEY":" ","HOUSE_NO":"８號","E_COORD97":176745.79999999999,"N_COORD97":2539982.4399999999,"ADDRESS":"中正十二街２巷８號","OBJECTID":352979},"geometry":{"x":176745.79999999981,"y":2539982.4399999995}},{"attributes":{"ID":352989,"DIS_CODE":0,"TOWNNAME":"歸仁區","LI":"歸南里","LIN":"6鄰","STREET":"中正十二街","SECT":" ","MAREA":" ","LANE":"２巷","ALLEY":" ","HOUSE_NO":"３號","E_COORD97":176729.29999999999,"N_COORD97":2539970.4399999999,"ADDRESS":"中正十二街２巷３號","OBJECTID":352980},"geometry":{"x":176729.29999999888,"y":2539970.4400000013}},{"attributes":{"ID":352990,"DIS_CODE":0,"TOWNNAME":"歸仁區","LI":"歸南里","LIN":"6鄰","STREET":"中正十二街","SECT":" ","MAREA":" ","LANE":"２巷","ALLEY":" ","HOUSE_NO":"１９號","E_COORD97":176730.75,"N_COORD97":2540004.4399999999,"ADDRESS":"中正十二街２巷１９號","OBJECTID":352981},"geometry":{"x":176730.75000000093,"y":2540004.4400000013}},{"attributes":{"ID":352991,"DIS_CODE":0,"TOWNNAME":"歸仁區","LI":"歸南里","LIN":"6鄰","STREET":"中正十二街","SECT":" ","MAREA":" ","LANE":"２巷","ALLEY":" ","HOUSE_NO":"１８號","E_COORD97":176747.14999999999,"N_COORD97":2540003.4399999999,"ADDRESS":"中正十二街２巷１８號","OBJECTID":352982},"geometry":{"x":176747.15000000037,"y":2540003.4400000013}},{"attributes":{"ID":352992,"DIS_CODE":0,"TOWNNAME":"歸仁區","LI":"歸南里","LIN":"6鄰","STREET":"中正十二街","SECT":" ","MAREA":" ","LANE":"２巷","ALLEY":" ","HOUSE_NO":"２２號","E_COORD97":176747.25,"N_COORD97":2540012.4399999999,"ADDRESS":"中正十二街２巷２２號","OBJECTID":352983},"geometry":{"x":176747.25000000093,"y":2540012.4399999995}},{"attributes":{"ID":352993,"DIS_CODE":0,"TOWNNAME":"歸仁區","LI":"媽廟里","LIN":"6鄰","STREET":"中正北路","SECT":"三段","MAREA":" ","LANE":"２０５巷","ALLEY":" ","HOUSE_NO":"９號","E_COORD97":177551.06,"N_COORD97":2543853.7200000002,"ADDRESS":"中正北路三段２０５巷９號","OBJECTID":352984},"geometry":{"x":177551.05999999959,"y":2543853.7199999988}},{"attributes":{"ID":352994,"DIS_CODE":0,"TOWNNAME":"歸仁區","LI":"歸南里","LIN":"6鄰","STREET":"中正十二街","SECT":" ","MAREA":" ","LANE":"２巷","ALLEY":" ","HOUSE_NO":"２７號","E_COORD97":176731.85000000001,"N_COORD97":2540021.4399999999,"ADDRESS":"中正十二街２巷２７號","OBJECTID":352985},"geometry":{"x":176731.84999999963,"y":2540021.4400000013}},{"attributes":{"ID":352995,"DIS_CODE":0,"TOWNNAME":"歸仁區","LI":"辜厝里","LIN":"6鄰","STREET":"民族南街","SECT":" ","MAREA":" ","LANE":"９３巷","ALLEY":" ","HOUSE_NO":"３號","E_COORD97":177436.09,"N_COORD97":2540625.5499999998,"ADDRESS":"民族南街９３巷３號","OBJECTID":352986},"geometry":{"x":177436.09000000171,"y":2540625.5500000026}},{"attributes":{"ID":352996,"DIS_CODE":0,"TOWNNAME":"歸仁區","LI":"辜厝里","LIN":"6鄰","STREET":"民族南街","SECT":" ","MAREA":" ","LANE":"９３巷","ALLEY":" ","HOUSE_NO":"５號","E_COORD97":177440.19,"N_COORD97":2540623.5499999998,"ADDRESS":"民族南街９３巷５號","OBJECTID":352987},"geometry":{"x":177440.19000000134,"y":2540623.5500000007}},{"attributes":{"ID":352997,"DIS_CODE":0,"TOWNNAME":"歸仁區","LI":"媽廟里","LIN":"6鄰","STREET":"中正北路","SECT":"三段","MAREA":" ","LANE":"２０５巷","ALLEY":" ","HOUSE_NO":"７號","E_COORD97":177570.56,"N_COORD97":2543857.7200000002,"ADDRESS":"中正北路三段２０５巷７號","OBJECTID":352988},"geometry":{"x":177570.56000000052,"y":2543857.7200000025}},{"attributes":{"ID":352998,"DIS_CODE":0,"TOWNNAME":"歸仁區","LI":"許厝里","LIN":"6鄰","STREET":"中山路","SECT":"一段","MAREA":" ","LANE":"３１９巷","ALLEY":" ","HOUSE_NO":"５８號","E_COORD97":178347.53,"N_COORD97":2540493.25,"ADDRESS":"中山路一段３１９巷５８號","OBJECTID":352989},"geometry":{"x":178347.53000000119,"y":2540493.2500000037}},{"attributes":{"ID":352999,"DIS_CODE":0,"TOWNNAME":"歸仁區","LI":"歸南里","LIN":"6鄰","STREET":"中正十二街","SECT":" ","MAREA":" ","LANE":"２巷","ALLEY":" ","HOUSE_NO":"２８號","E_COORD97":176749.35000000001,"N_COORD97":2540025.4399999999,"ADDRESS":"中正十二街２巷２８號","OBJECTID":352990},"geometry":{"x":176749.35000000056,"y":2540025.4399999995}},{"attributes":{"ID":353000,"DIS_CODE":0,"TOWNNAME":"南區","LI":"建南里","LIN":"8鄰","STREET":"德興路","SECT":" ","MAREA":" ","LANE":" ","ALLEY":" ","HOUSE_NO":"２１２號","E_COORD97":167199.20999999999,"N_COORD97":2540156.21,"ADDRESS":"德興路２１２號","OBJECTID":352991},"geometry":{"x":167199.20999999996,"y":2540156.2100000028}},{"attributes":{"ID":353001,"DIS_CODE":0,"TOWNNAME":"南區","LI":"建南里","LIN":"8鄰","STREET":"德興路","SECT":" ","MAREA":" ","LANE":" ","ALLEY":" ","HOUSE_NO":"２１４號","E_COORD97":167200.28,"N_COORD97":2540150.6000000001,"ADDRESS":"德興路２１４號","OBJECTID":352992},"geometry":{"x":167200.28000000119,"y":2540150.5999999996}},{"attributes":{"ID":353002,"DIS_CODE":0,"TOWNNAME":"南區","LI":"建南里","LIN":"8鄰","STREET":"德興路","SECT":" ","MAREA":" ","LANE":" ","ALLEY":" ","HOUSE_NO":"２１６號","E_COORD97":167200.28,"N_COORD97":2540146.3300000001,"ADDRESS":"德興路２１６號","OBJECTID":352993},"geometry":{"x":167200.28000000119,"y":2540146.3300000001}},{"attributes":{"ID":353003,"DIS_CODE":0,"TOWNNAME":"南區","LI":"建南里","LIN":"8鄰","STREET":"德興路","SECT":" ","MAREA":" ","LANE":" ","ALLEY":" ","HOUSE_NO":"２２０號","E_COORD97":167200.01000000001,"N_COORD97":2540137.5,"ADDRESS":"德興路２２０號","OBJECTID":352994},"geometry":{"x":167200.01000000071,"y":2540137.5}},{"attributes":{"ID":353004,"DIS_CODE":0,"TOWNNAME":"南區","LI":"建南里","LIN":"8鄰","STREET":"德興路","SECT":" ","MAREA":" ","LANE":" ","ALLEY":" ","HOUSE_NO":"２２２號","E_COORD97":167200.25,"N_COORD97":2540133.5600000001,"ADDRESS":"德興路２２２號","OBJECTID":352995},"geometry":{"x":167200.25000000093,"y":2540133.5600000024}},{"attributes":{"ID":353005,"DIS_CODE":0,"TOWNNAME":"南區","LI":"郡南里","LIN":"24鄰","STREET":"永成路","SECT":"三段","MAREA":" ","LANE":" ","ALLEY":" ","HOUSE_NO":"６號","E_COORD97":167505.98000000001,"N_COORD97":2540411.3700000001,"ADDRESS":"永成路三段６號","OBJECTID":352996},"geometry":{"x":167505.98000000138,"y":2540411.370000001}},{"attributes":{"ID":353006,"DIS_CODE":0,"TOWNNAME":"安南區","LI":"州南里","LIN":"24鄰","STREET":"長和路","SECT":"三段","MAREA":" ","LANE":"１３３巷","ALLEY":" ","HOUSE_NO":"９５號","E_COORD97":169765.29999999999,"N_COORD97":2551376.1099999999,"ADDRESS":"長和路三段１３３巷９５號","OBJECTID":352997},"geometry":{"x":169765.29999999981,"y":2551376.1099999994}},{"attributes":{"ID":353007,"DIS_CODE":0,"TOWNNAME":"安南區","LI":"州南里","LIN":"24鄰","STREET":"長和路","SECT":"三段","MAREA":" ","LANE":"１３３巷","ALLEY":" ","HOUSE_NO":"９９號","E_COORD97":169768.5,"N_COORD97":2551369.04,"ADDRESS":"長和路三段１３３巷９９號","OBJECTID":352998},"geometry":{"x":169768.50000000093,"y":2551369.0399999991}},{"attributes":{"ID":353008,"DIS_CODE":0,"TOWNNAME":"歸仁區","LI":"許厝里","LIN":"6鄰","STREET":"仁愛一街","SECT":" ","MAREA":" ","LANE":"１２巷","ALLEY":" ","HOUSE_NO":"２９號","E_COORD97":178346.54000000001,"N_COORD97":2540545.73,"ADDRESS":"仁愛一街１２巷２９號","OBJECTID":352999},"geometry":{"x":178346.54000000004,"y":2540545.7300000023}},{"attributes":{"ID":353009,"DIS_CODE":0,"TOWNNAME":"歸仁區","LI":"許厝里","LIN":"6鄰","STREET":"中山路","SECT":"一段","MAREA":" ","LANE":"３１９巷","ALLEY":" ","HOUSE_NO":"５６號","E_COORD97":178352.63,"N_COORD97":2540496.25,"ADDRESS":"中山路一段３１９巷５６號","OBJECTID":353000},"geometry":{"x":178352.62999999989,"y":2540496.25}}]}