{"displayFieldName":"TOWNNAME","fieldAliases":{"ID":"ID","DIS_CODE":"DIS_CODE","TOWNNAME":"TOWNNAME","LI":"LI","LIN":"LIN","STREET":"STREET","SECT":"SECT","MAREA":"MAREA","LANE":"LANE","ALLEY":"ALLEY","HOUSE_NO":"HOUSE_NO","E_COORD97":"E_COORD97","N_COORD97":"N_COORD97","ADDRESS":"ADDRESS","OBJECTID":"OBJECTID"},"geometryType":"esriGeometryPoint","spatialReference":{"wkid":102443,"latestWkid":3826},"fields":[{"name":"ID","type":"esriFieldTypeDouble","alias":"ID"},{"name":"DIS_CODE","type":"esriFieldTypeInteger","alias":"DIS_CODE"},{"name":"TOWNNAME","type":"esriFieldTypeString","alias":"TOWNNAME","length":8},{"name":"LI","type":"esriFieldTypeString","alias":"LI","length":8},{"name":"LIN","type":"esriFieldTypeString","alias":"LIN","length":12},{"name":"STREET","type":"esriFieldTypeString","alias":"STREET","length":20},{"name":"SECT","type":"esriFieldTypeString","alias":"SECT","length":8},{"name":"MAREA","type":"esriFieldTypeString","alias":"MAREA","length":12},{"name":"LANE","type":"esriFieldTypeString","alias":"LANE","length":10},{"name":"ALLEY","type":"esriFieldTypeString","alias":"ALLEY","length":10},{"name":"HOUSE_NO","type":"esriFieldTypeString","alias":"HOUSE_NO","length":20},{"name":"E_COORD97","type":"esriFieldTypeDouble","alias":"E_COORD97"},{"name":"N_COORD97","type":"esriFieldTypeDouble","alias":"N_COORD97"},{"name":"ADDRESS","type":"esriFieldTypeString","alias":"ADDRESS","length":50},{"name":"OBJECTID","type":"esriFieldTypeOID","alias":"OBJECTID"}],"features":[{"attributes":{"ID":364811,"DIS_CODE":0,"TOWNNAME":"北區","LI":"長德里","LIN":"12鄰","STREET":"長北街","SECT":" ","MAREA":" ","LANE":"２１０巷","ALLEY":" ","HOUSE_NO":"２號","E_COORD97":168576.01000000001,"N_COORD97":2545012.5499999998,"ADDRESS":"長北街２１０巷２號","OBJECTID":364801},"geometry":{"x":168576.01000000071,"y":2545012.5500000026}},{"attributes":{"ID":364812,"DIS_CODE":0,"TOWNNAME":"北區","LI":"長德里","LIN":"12鄰","STREET":"長北街","SECT":" ","MAREA":" ","LANE":"２１０巷","ALLEY":" ","HOUSE_NO":"４號","E_COORD97":168582.94,"N_COORD97":2545010.48,"ADDRESS":"長北街２１０巷４號","OBJECTID":364802},"geometry":{"x":168582.94000000041,"y":2545010.4800000004}},{"attributes":{"ID":364813,"DIS_CODE":0,"TOWNNAME":"北區","LI":"玉皇里","LIN":"12鄰","STREET":"成功路","SECT":" ","MAREA":" ","LANE":"６８巷","ALLEY":" ","HOUSE_NO":"６１號之２","E_COORD97":168716.53,"N_COORD97":2544445.8599999999,"ADDRESS":"成功路６８巷６１號之２","OBJECTID":364803},"geometry":{"x":168716.53000000026,"y":2544445.8600000013}},{"attributes":{"ID":364814,"DIS_CODE":0,"TOWNNAME":"北區","LI":"玉皇里","LIN":"12鄰","STREET":"成功路","SECT":" ","MAREA":" ","LANE":"６８巷","ALLEY":" ","HOUSE_NO":"６１號之３","E_COORD97":168708.84,"N_COORD97":2544453.1000000001,"ADDRESS":"成功路６８巷６１號之３","OBJECTID":364804},"geometry":{"x":168708.83999999985,"y":2544453.0999999996}},{"attributes":{"ID":364815,"DIS_CODE":0,"TOWNNAME":"北區","LI":"玉皇里","LIN":"12鄰","STREET":"成功路","SECT":" ","MAREA":" ","LANE":"６８巷","ALLEY":" ","HOUSE_NO":"６１號之５","E_COORD97":168693.38,"N_COORD97":2544451.5299999998,"ADDRESS":"成功路６８巷６１號之５","OBJECTID":364805},"geometry":{"x":168693.37999999989,"y":2544451.5300000012}},{"attributes":{"ID":364816,"DIS_CODE":0,"TOWNNAME":"北區","LI":"玉皇里","LIN":"12鄰","STREET":"成功路","SECT":" ","MAREA":" ","LANE":"６８巷","ALLEY":" ","HOUSE_NO":"６１號之６","E_COORD97":168688.75,"N_COORD97":2544449,"ADDRESS":"成功路６８巷６１號之６","OBJECTID":364806},"geometry":{"x":168688.75000000093,"y":2544449.0000000019}},{"attributes":{"ID":364817,"DIS_CODE":0,"TOWNNAME":"北區","LI":"玉皇里","LIN":"12鄰","STREET":"佑民街","SECT":" ","MAREA":" ","LANE":"４２巷","ALLEY":" ","HOUSE_NO":"２１號","E_COORD97":168683.16,"N_COORD97":2544432.4500000002,"ADDRESS":"佑民街４２巷２１號","OBJECTID":364807},"geometry":{"x":168683.16000000015,"y":2544432.4499999993}},{"attributes":{"ID":364818,"DIS_CODE":0,"TOWNNAME":"北區","LI":"玉皇里","LIN":"12鄰","STREET":"佑民街","SECT":" ","MAREA":" ","LANE":"４２巷","ALLEY":" ","HOUSE_NO":"２３號","E_COORD97":168677,"N_COORD97":2544431.7200000002,"ADDRESS":"佑民街４２巷２３號","OBJECTID":364808},"geometry":{"x":168677,"y":2544431.7200000025}},{"attributes":{"ID":364819,"DIS_CODE":0,"TOWNNAME":"北區","LI":"玉皇里","LIN":"12鄰","STREET":"佑民街","SECT":" ","MAREA":" ","LANE":"４２巷","ALLEY":" ","HOUSE_NO":"２７號","E_COORD97":168671.34,"N_COORD97":2544429.8100000001,"ADDRESS":"佑民街４２巷２７號","OBJECTID":364809},"geometry":{"x":168671.33999999985,"y":2544429.8100000042}},{"attributes":{"ID":364820,"DIS_CODE":0,"TOWNNAME":"北區","LI":"玉皇里","LIN":"12鄰","STREET":"佑民街","SECT":" ","MAREA":" ","LANE":"４２巷","ALLEY":" ","HOUSE_NO":"２９號","E_COORD97":168667.42999999999,"N_COORD97":2544427.5600000001,"ADDRESS":"佑民街４２巷２９號","OBJECTID":364810},"geometry":{"x":168667.4299999997,"y":2544427.5600000005}},{"attributes":{"ID":364821,"DIS_CODE":0,"TOWNNAME":"北區","LI":"玉皇里","LIN":"12鄰","STREET":"佑民街","SECT":" ","MAREA":" ","LANE":"４２巷","ALLEY":" ","HOUSE_NO":"３１號","E_COORD97":168662.92999999999,"N_COORD97":2544425.73,"ADDRESS":"佑民街４２巷３１號","OBJECTID":364811},"geometry":{"x":168662.93000000063,"y":2544425.7300000004}},{"attributes":{"ID":364822,"DIS_CODE":0,"TOWNNAME":"北區","LI":"玉皇里","LIN":"12鄰","STREET":"佑民街","SECT":" ","MAREA":" ","LANE":"４２巷","ALLEY":" ","HOUSE_NO":"３３號","E_COORD97":168655.60000000001,"N_COORD97":2544423.3199999998,"ADDRESS":"佑民街４２巷３３號","OBJECTID":364812},"geometry":{"x":168655.59999999963,"y":2544423.3200000022}},{"attributes":{"ID":364823,"DIS_CODE":0,"TOWNNAME":"北區","LI":"玉皇里","LIN":"12鄰","STREET":"佑民街","SECT":" ","MAREA":" ","LANE":"４２巷","ALLEY":" ","HOUSE_NO":"３５號","E_COORD97":168656.42999999999,"N_COORD97":2544416.25,"ADDRESS":"佑民街４２巷３５號","OBJECTID":364813},"geometry":{"x":168656.43000000063,"y":2544416.2500000019}},{"attributes":{"ID":364824,"DIS_CODE":0,"TOWNNAME":"北區","LI":"玉皇里","LIN":"12鄰","STREET":"佑民街","SECT":" ","MAREA":" ","LANE":"４２巷","ALLEY":" ","HOUSE_NO":"３９號","E_COORD97":168661.42999999999,"N_COORD97":2544410.8399999999,"ADDRESS":"佑民街４２巷３９號","OBJECTID":364814},"geometry":{"x":168661.43000000063,"y":2544410.8399999999}},{"attributes":{"ID":364825,"DIS_CODE":0,"TOWNNAME":"北區","LI":"玉皇里","LIN":"12鄰","STREET":"佑民街","SECT":" ","MAREA":" ","LANE":"４２巷","ALLEY":" ","HOUSE_NO":"４１號","E_COORD97":168668.42000000001,"N_COORD97":2544408.5099999998,"ADDRESS":"佑民街４２巷４１號","OBJECTID":364815},"geometry":{"x":168668.42000000086,"y":2544408.5100000016}},{"attributes":{"ID":364826,"DIS_CODE":0,"TOWNNAME":"北區","LI":"玉皇里","LIN":"12鄰","STREET":"佑民街","SECT":" ","MAREA":" ","LANE":"４２巷","ALLEY":" ","HOUSE_NO":"４３號","E_COORD97":168671.75,"N_COORD97":2544404.52,"ADDRESS":"佑民街４２巷４３號","OBJECTID":364816},"geometry":{"x":168671.75000000093,"y":2544404.5200000014}},{"attributes":{"ID":364827,"DIS_CODE":0,"TOWNNAME":"北區","LI":"玉皇里","LIN":"12鄰","STREET":"佑民街","SECT":" ","MAREA":" ","LANE":"４２巷","ALLEY":" ","HOUSE_NO":"４３號之１","E_COORD97":168675.57999999999,"N_COORD97":2544402.02,"ADDRESS":"佑民街４２巷４３號之１","OBJECTID":364817},"geometry":{"x":168675.58000000194,"y":2544402.0199999996}},{"attributes":{"ID":364828,"DIS_CODE":0,"TOWNNAME":"北區","LI":"玉皇里","LIN":"12鄰","STREET":"佑民街","SECT":" ","MAREA":" ","LANE":"４２巷","ALLEY":" ","HOUSE_NO":"４５號","E_COORD97":168680.07999999999,"N_COORD97":2544400.1099999999,"ADDRESS":"佑民街４２巷４５號","OBJECTID":364818},"geometry":{"x":168680.08000000007,"y":2544400.1100000013}},{"attributes":{"ID":364829,"DIS_CODE":0,"TOWNNAME":"北區","LI":"玉皇里","LIN":"12鄰","STREET":"佑民街","SECT":" ","MAREA":" ","LANE":"４２巷","ALLEY":" ","HOUSE_NO":"４７號","E_COORD97":168684.57999999999,"N_COORD97":2544398.6099999999,"ADDRESS":"佑民街４２巷４７號","OBJECTID":364819},"geometry":{"x":168684.58000000101,"y":2544398.6099999994}},{"attributes":{"ID":364830,"DIS_CODE":0,"TOWNNAME":"歸仁區","LI":"歸南里","LIN":"12鄰","STREET":"民生南街","SECT":"二段","MAREA":" ","LANE":"２６９巷","ALLEY":" ","HOUSE_NO":"１１號","E_COORD97":176122.20999999999,"N_COORD97":2540014.25,"ADDRESS":"民生南街二段２６９巷１１號","OBJECTID":364820},"geometry":{"x":176122.21000000089,"y":2540014.25}},{"attributes":{"ID":364831,"DIS_CODE":0,"TOWNNAME":"新營區","LI":"南紙里","LIN":"12鄰","STREET":"太子路","SECT":" ","MAREA":" ","LANE":"１５３巷","ALLEY":" ","HOUSE_NO":"２９號","E_COORD97":177942.16,"N_COORD97":2577780.7799999998,"ADDRESS":"太子路１５３巷２９號","OBJECTID":364821},"geometry":{"x":177942.16000000015,"y":2577780.7800000012}},{"attributes":{"ID":364832,"DIS_CODE":0,"TOWNNAME":"新營區","LI":"南紙里","LIN":"12鄰","STREET":"太子路","SECT":" ","MAREA":" ","LANE":"１５３巷","ALLEY":" ","HOUSE_NO":"５８號","E_COORD97":177962.09,"N_COORD97":2577682.1200000001,"ADDRESS":"太子路１５３巷５８號","OBJECTID":364822},"geometry":{"x":177962.09000000078,"y":2577682.1200000029}},{"attributes":{"ID":364833,"DIS_CODE":0,"TOWNNAME":"新營區","LI":"南紙里","LIN":"12鄰","STREET":"太子路","SECT":" ","MAREA":" ","LANE":"１５３巷","ALLEY":" ","HOUSE_NO":"６９號","E_COORD97":177973.32000000001,"N_COORD97":2577679.8500000001,"ADDRESS":"太子路１５３巷６９號","OBJECTID":364823},"geometry":{"x":177973.3200000003,"y":2577679.8499999996}},{"attributes":{"ID":364834,"DIS_CODE":0,"TOWNNAME":"新營區","LI":"南紙里","LIN":"12鄰","STREET":"太子路","SECT":" ","MAREA":" ","LANE":"１５３巷","ALLEY":" ","HOUSE_NO":"３３號","E_COORD97":177945.20999999999,"N_COORD97":2577773.02,"ADDRESS":"太子路１５３巷３３號","OBJECTID":364824},"geometry":{"x":177945.20999999996,"y":2577773.0200000014}},{"attributes":{"ID":364835,"DIS_CODE":0,"TOWNNAME":"新營區","LI":"忠政里","LIN":"12鄰","STREET":"府西路","SECT":" ","MAREA":" ","LANE":"２０２巷","ALLEY":" ","HOUSE_NO":"１１號","E_COORD97":179855.10000000001,"N_COORD97":2579543.5299999998,"ADDRESS":"府西路２０２巷１１號","OBJECTID":364825},"geometry":{"x":179855.10000000056,"y":2579543.5299999993}},{"attributes":{"ID":364836,"DIS_CODE":0,"TOWNNAME":"新營區","LI":"南紙里","LIN":"12鄰","STREET":"太子路","SECT":" ","MAREA":" ","LANE":"１５３巷","ALLEY":" ","HOUSE_NO":"３１號","E_COORD97":177944.20999999999,"N_COORD97":2577776.3399999999,"ADDRESS":"太子路１５３巷３１號","OBJECTID":364826},"geometry":{"x":177944.21000000089,"y":2577776.3400000036}},{"attributes":{"ID":364837,"DIS_CODE":0,"TOWNNAME":"新營區","LI":"忠政里","LIN":"12鄰","STREET":"府西路","SECT":" ","MAREA":" ","LANE":"２０２巷","ALLEY":" ","HOUSE_NO":"６１號","E_COORD97":179998.32000000001,"N_COORD97":2579548.3799999999,"ADDRESS":"府西路２０２巷６１號","OBJECTID":364827},"geometry":{"x":179998.32000000123,"y":2579548.3800000027}},{"attributes":{"ID":364838,"DIS_CODE":0,"TOWNNAME":"新營區","LI":"大宏里","LIN":"12鄰","STREET":"開元路","SECT":" ","MAREA":" ","LANE":"５９巷","ALLEY":" ","HOUSE_NO":"２０號","E_COORD97":180825.39999999999,"N_COORD97":2578802.5099999998,"ADDRESS":"開元路５９巷２０號","OBJECTID":364828},"geometry":{"x":180825.4000000013,"y":2578802.5100000035}},{"attributes":{"ID":364839,"DIS_CODE":0,"TOWNNAME":"新營區","LI":"大宏里","LIN":"12鄰","STREET":"開元路","SECT":" ","MAREA":" ","LANE":"５９巷","ALLEY":" ","HOUSE_NO":"１０號","E_COORD97":180836.48000000001,"N_COORD97":2578780.3100000001,"ADDRESS":"開元路５９巷１０號","OBJECTID":364829},"geometry":{"x":180836.48000000138,"y":2578780.3100000005}},{"attributes":{"ID":364840,"DIS_CODE":0,"TOWNNAME":"新營區","LI":"南紙里","LIN":"12鄰","STREET":"太子路","SECT":" ","MAREA":" ","LANE":"１５３巷","ALLEY":" ","HOUSE_NO":"６７號","E_COORD97":177972.32000000001,"N_COORD97":2577684.29,"ADDRESS":"太子路１５３巷６７號","OBJECTID":364830},"geometry":{"x":177972.32000000216,"y":2577684.2900000028}},{"attributes":{"ID":364841,"DIS_CODE":0,"TOWNNAME":"南區","LI":"建南里","LIN":"12鄰","STREET":"中華南路","SECT":"二段","MAREA":" ","LANE":"１７７巷","ALLEY":" ","HOUSE_NO":"５６號","E_COORD97":167077.60999999999,"N_COORD97":2540052.1600000001,"ADDRESS":"中華南路二段１７７巷５６號","OBJECTID":364831},"geometry":{"x":167077.61000000127,"y":2540052.1600000001}},{"attributes":{"ID":364842,"DIS_CODE":0,"TOWNNAME":"北區","LI":"元寶里","LIN":"12鄰","STREET":"北園街","SECT":" ","MAREA":" ","LANE":"８巷","ALLEY":" ","HOUSE_NO":"５３號","E_COORD97":170420.26999999999,"N_COORD97":2545687.6800000002,"ADDRESS":"北園街８巷５３號","OBJECTID":364832},"geometry":{"x":170420.27000000048,"y":2545687.6800000016}},{"attributes":{"ID":364843,"DIS_CODE":0,"TOWNNAME":"仁德區","LI":"成功里","LIN":"10鄰","STREET":"成功二街","SECT":" ","MAREA":" ","LANE":"１５巷","ALLEY":" ","HOUSE_NO":"２之１號","E_COORD97":170926.60000000001,"N_COORD97":2539948.7599999998,"ADDRESS":"成功二街１５巷２之１號","OBJECTID":364833},"geometry":{"x":170926.60000000056,"y":2539948.7599999998}},{"attributes":{"ID":364844,"DIS_CODE":0,"TOWNNAME":"仁德區","LI":"保安里","LIN":"10鄰","STREET":"中正路","SECT":"一段","MAREA":" ","LANE":"２５１巷","ALLEY":" ","HOUSE_NO":"１６號","E_COORD97":171773.38,"N_COORD97":2536030.02,"ADDRESS":"中正路一段２５１巷１６號","OBJECTID":364834},"geometry":{"x":171773.37999999989,"y":2536030.0200000014}},{"attributes":{"ID":364845,"DIS_CODE":0,"TOWNNAME":"仁德區","LI":"後壁里","LIN":"10鄰","STREET":"民安路","SECT":"二段","MAREA":" ","LANE":"１８２巷","ALLEY":" ","HOUSE_NO":"４１號","E_COORD97":173755.98999999999,"N_COORD97":2538838.8100000001,"ADDRESS":"民安路二段１８２巷４１號","OBJECTID":364835},"geometry":{"x":173755.99000000115,"y":2538838.8100000042}},{"attributes":{"ID":364846,"DIS_CODE":0,"TOWNNAME":"北區","LI":"元寶里","LIN":"12鄰","STREET":"北園街","SECT":" ","MAREA":" ","LANE":"８巷","ALLEY":" ","HOUSE_NO":"５５號地下室","E_COORD97":170420.26999999999,"N_COORD97":2545692.3999999999,"ADDRESS":"北園街８巷５５號地下室","OBJECTID":364836},"geometry":{"x":170420.27000000048,"y":2545692.4000000004}},{"attributes":{"ID":364847,"DIS_CODE":0,"TOWNNAME":"北區","LI":"元寶里","LIN":"12鄰","STREET":"北園街","SECT":" ","MAREA":" ","LANE":"８巷","ALLEY":" ","HOUSE_NO":"５７號","E_COORD97":170420.04999999999,"N_COORD97":2545697.1200000001,"ADDRESS":"北園街８巷５７號","OBJECTID":364837},"geometry":{"x":170420.05000000075,"y":2545697.1200000029}},{"attributes":{"ID":364848,"DIS_CODE":0,"TOWNNAME":"北區","LI":"元寶里","LIN":"12鄰","STREET":"北園街","SECT":" ","MAREA":" ","LANE":"８巷","ALLEY":" ","HOUSE_NO":"５９號","E_COORD97":170419.14999999999,"N_COORD97":2545702.0699999998,"ADDRESS":"北園街８巷５９號","OBJECTID":364838},"geometry":{"x":170419.15000000037,"y":2545702.0699999984}},{"attributes":{"ID":364849,"DIS_CODE":0,"TOWNNAME":"北區","LI":"元寶里","LIN":"12鄰","STREET":"北園街","SECT":" ","MAREA":" ","LANE":"８巷","ALLEY":" ","HOUSE_NO":"６１號","E_COORD97":170418.70000000001,"N_COORD97":2545706.5600000001,"ADDRESS":"北園街８巷６１號","OBJECTID":364839},"geometry":{"x":170418.70000000019,"y":2545706.5600000024}},{"attributes":{"ID":364850,"DIS_CODE":0,"TOWNNAME":"北區","LI":"元寶里","LIN":"12鄰","STREET":"北園街","SECT":" ","MAREA":" ","LANE":"８巷","ALLEY":" ","HOUSE_NO":"６３號","E_COORD97":170418.70000000001,"N_COORD97":2545712.4100000001,"ADDRESS":"北園街８巷６３號","OBJECTID":364840},"geometry":{"x":170418.70000000019,"y":2545712.4100000001}},{"attributes":{"ID":364851,"DIS_CODE":0,"TOWNNAME":"北區","LI":"元寶里","LIN":"12鄰","STREET":"北園街","SECT":" ","MAREA":" ","LANE":"８巷","ALLEY":" ","HOUSE_NO":"６５號","E_COORD97":170416.45000000001,"N_COORD97":2545717.1299999999,"ADDRESS":"北園街８巷６５號","OBJECTID":364841},"geometry":{"x":170416.45000000112,"y":2545717.129999999}},{"attributes":{"ID":364852,"DIS_CODE":0,"TOWNNAME":"北區","LI":"元寶里","LIN":"12鄰","STREET":"北園街","SECT":" ","MAREA":" ","LANE":"８巷","ALLEY":" ","HOUSE_NO":"６７號","E_COORD97":170416,"N_COORD97":2545722.0800000001,"ADDRESS":"北園街８巷６７號","OBJECTID":364842},"geometry":{"x":170416.00000000093,"y":2545722.0800000001}},{"attributes":{"ID":364853,"DIS_CODE":0,"TOWNNAME":"北區","LI":"元寶里","LIN":"12鄰","STREET":"北園街","SECT":" ","MAREA":" ","LANE":"８巷","ALLEY":" ","HOUSE_NO":"７５號","E_COORD97":170415.79999999999,"N_COORD97":2545748.1200000001,"ADDRESS":"北園街８巷７５號","OBJECTID":364843},"geometry":{"x":170415.79999999981,"y":2545748.1200000029}},{"attributes":{"ID":364854,"DIS_CODE":0,"TOWNNAME":"北區","LI":"開元里","LIN":"12鄰","STREET":"北園街","SECT":" ","MAREA":" ","LANE":"８７巷","ALLEY":" ","HOUSE_NO":"２０５號","E_COORD97":170157.89000000001,"N_COORD97":2546077.48,"ADDRESS":"北園街８７巷２０５號","OBJECTID":364844},"geometry":{"x":170157.88999999966,"y":2546077.4800000023}},{"attributes":{"ID":364855,"DIS_CODE":0,"TOWNNAME":"南區","LI":"建南里","LIN":"12鄰","STREET":"中華南路","SECT":"二段","MAREA":" ","LANE":"１７７巷","ALLEY":" ","HOUSE_NO":"８號","E_COORD97":167054.31,"N_COORD97":2540149.1899999999,"ADDRESS":"中華南路二段１７７巷８號","OBJECTID":364845},"geometry":{"x":167054.30999999959,"y":2540149.1899999995}},{"attributes":{"ID":364856,"DIS_CODE":0,"TOWNNAME":"南區","LI":"建南里","LIN":"12鄰","STREET":"中華南路","SECT":"二段","MAREA":" ","LANE":"１７７巷","ALLEY":" ","HOUSE_NO":"８之１號","E_COORD97":167054.31,"N_COORD97":2540153.1899999999,"ADDRESS":"中華南路二段１７７巷８之１號","OBJECTID":364846},"geometry":{"x":167054.30999999959,"y":2540153.1899999995}},{"attributes":{"ID":364857,"DIS_CODE":0,"TOWNNAME":"南區","LI":"建南里","LIN":"12鄰","STREET":"中華南路","SECT":"二段","MAREA":" ","LANE":"１７７巷","ALLEY":" ","HOUSE_NO":"８之２號","E_COORD97":167054.31,"N_COORD97":2540156.75,"ADDRESS":"中華南路二段１７７巷８之２號","OBJECTID":364847},"geometry":{"x":167054.30999999959,"y":2540156.75}},{"attributes":{"ID":364858,"DIS_CODE":0,"TOWNNAME":"南區","LI":"建南里","LIN":"12鄰","STREET":"中華南路","SECT":"二段","MAREA":" ","LANE":"１７７巷","ALLEY":" ","HOUSE_NO":"８之３號","E_COORD97":167055.20000000001,"N_COORD97":2540160.3100000001,"ADDRESS":"中華南路二段１７７巷８之３號","OBJECTID":364848},"geometry":{"x":167055.20000000019,"y":2540160.3100000005}},{"attributes":{"ID":364859,"DIS_CODE":0,"TOWNNAME":"南區","LI":"建南里","LIN":"12鄰","STREET":"中華南路","SECT":"二段","MAREA":" ","LANE":"１７７巷","ALLEY":" ","HOUSE_NO":"８之５號","E_COORD97":167055.64000000001,"N_COORD97":2540168.1000000001,"ADDRESS":"中華南路二段１７７巷８之５號","OBJECTID":364849},"geometry":{"x":167055.63999999966,"y":2540168.0999999978}},{"attributes":{"ID":364860,"DIS_CODE":0,"TOWNNAME":"南區","LI":"建南里","LIN":"12鄰","STREET":"中華南路","SECT":"二段","MAREA":" ","LANE":"１７７巷","ALLEY":" ","HOUSE_NO":"８之６號","E_COORD97":167055.42000000001,"N_COORD97":2540171.4300000002,"ADDRESS":"中華南路二段１７７巷８之６號","OBJECTID":364850},"geometry":{"x":167055.41999999993,"y":2540171.4299999997}},{"attributes":{"ID":364861,"DIS_CODE":0,"TOWNNAME":"南區","LI":"建南里","LIN":"12鄰","STREET":"中華南路","SECT":"二段","MAREA":" ","LANE":"１７７巷","ALLEY":" ","HOUSE_NO":"１０號","E_COORD97":167059.95999999999,"N_COORD97":2540178.6499999999,"ADDRESS":"中華南路二段１７７巷１０號","OBJECTID":364851},"geometry":{"x":167059.95999999996,"y":2540178.6500000004}},{"attributes":{"ID":364862,"DIS_CODE":0,"TOWNNAME":"南區","LI":"建南里","LIN":"12鄰","STREET":"中華南路","SECT":"二段","MAREA":" ","LANE":"１７７巷","ALLEY":" ","HOUSE_NO":"１０之１號","E_COORD97":167064.12,"N_COORD97":2540179.7599999998,"ADDRESS":"中華南路二段１７７巷１０之１號","OBJECTID":364852},"geometry":{"x":167064.12000000011,"y":2540179.7599999998}},{"attributes":{"ID":364863,"DIS_CODE":0,"TOWNNAME":"南區","LI":"建南里","LIN":"12鄰","STREET":"中華南路","SECT":"二段","MAREA":" ","LANE":"１７７巷","ALLEY":" ","HOUSE_NO":"１０之２號","E_COORD97":167068.56,"N_COORD97":2540180.3199999998,"ADDRESS":"中華南路二段１７７巷１０之２號","OBJECTID":364853},"geometry":{"x":167068.56000000052,"y":2540180.3200000003}},{"attributes":{"ID":364864,"DIS_CODE":0,"TOWNNAME":"永康區","LI":"\u25A0行里","LIN":"41鄰","STREET":"永安路","SECT":" ","MAREA":" ","LANE":"１６５巷","ALLEY":" ","HOUSE_NO":"１４７號","E_COORD97":172427.67000000001,"N_COORD97":2549430.5699999998,"ADDRESS":"永安路１６５巷１４７號","OBJECTID":364854},"geometry":{"x":172427.66999999993,"y":2549430.5700000003}},{"attributes":{"ID":364865,"DIS_CODE":0,"TOWNNAME":"永康區","LI":"復華里","LIN":"41鄰","STREET":"復華六街","SECT":" ","MAREA":" ","LANE":"１０６巷","ALLEY":" ","HOUSE_NO":"９號","E_COORD97":172607.88,"N_COORD97":2545891.0899999999,"ADDRESS":"復華六街１０６巷９號","OBJECTID":364855},"geometry":{"x":172607.88000000175,"y":2545891.0899999999}},{"attributes":{"ID":364866,"DIS_CODE":0,"TOWNNAME":"新市區","LI":"新和里","LIN":"41鄰","STREET":"西寧街","SECT":" ","MAREA":" ","LANE":"４２巷","ALLEY":" ","HOUSE_NO":"１０號","E_COORD97":177047.62,"N_COORD97":2552940.75,"ADDRESS":"西寧街４２巷１０號","OBJECTID":364856},"geometry":{"x":177047.62000000011,"y":2552940.7500000019}},{"attributes":{"ID":364867,"DIS_CODE":0,"TOWNNAME":"南區","LI":"建南里","LIN":"12鄰","STREET":"中華南路","SECT":"二段","MAREA":" ","LANE":"１７７巷","ALLEY":" ","HOUSE_NO":"１２號","E_COORD97":167090.28,"N_COORD97":2540180.27,"ADDRESS":"中華南路二段１７７巷１２號","OBJECTID":364857},"geometry":{"x":167090.28000000119,"y":2540180.2699999996}},{"attributes":{"ID":364868,"DIS_CODE":0,"TOWNNAME":"南區","LI":"建南里","LIN":"12鄰","STREET":"中華南路","SECT":"二段","MAREA":" ","LANE":"１７７巷","ALLEY":" ","HOUSE_NO":"１２之１號","E_COORD97":167085,"N_COORD97":2540180.27,"ADDRESS":"中華南路二段１７７巷１２之１號","OBJECTID":364858},"geometry":{"x":167085.00000000093,"y":2540180.2699999996}},{"attributes":{"ID":364869,"DIS_CODE":0,"TOWNNAME":"南區","LI":"建南里","LIN":"12鄰","STREET":"中華南路","SECT":"二段","MAREA":" ","LANE":"１７７巷","ALLEY":" ","HOUSE_NO":"１２之２號","E_COORD97":167080.10999999999,"N_COORD97":2540180.0699999998,"ADDRESS":"中華南路二段１７７巷１２之２號","OBJECTID":364859},"geometry":{"x":167080.11000000034,"y":2540180.0700000022}},{"attributes":{"ID":364870,"DIS_CODE":0,"TOWNNAME":"新營區","LI":"好平里","LIN":"12鄰","STREET":"濟安街","SECT":" ","MAREA":" ","LANE":"１８巷","ALLEY":" ","HOUSE_NO":"１１號","E_COORD97":179446.70999999999,"N_COORD97":2577977.3100000001,"ADDRESS":"濟安街１８巷１１號","OBJECTID":364860},"geometry":{"x":179446.70999999996,"y":2577977.3100000042}},{"attributes":{"ID":364871,"DIS_CODE":0,"TOWNNAME":"新化區","LI":"豐榮里","LIN":"12鄰","STREET":"民治路","SECT":" ","MAREA":" ","LANE":"４３巷","ALLEY":" ","HOUSE_NO":"４２號","E_COORD97":178631.70999999999,"N_COORD97":2548100.25,"ADDRESS":"民治路４３巷４２號","OBJECTID":364861},"geometry":{"x":178631.70999999996,"y":2548100.25}},{"attributes":{"ID":364872,"DIS_CODE":0,"TOWNNAME":"新化區","LI":"東榮里","LIN":"12鄰","STREET":"中興路","SECT":" ","MAREA":" ","LANE":"５３４巷","ALLEY":" ","HOUSE_NO":"２號之３","E_COORD97":179969.35999999999,"N_COORD97":2547961.2599999998,"ADDRESS":"中興路５３４巷２號之３","OBJECTID":364862},"geometry":{"x":179969.36000000127,"y":2547961.2599999998}},{"attributes":{"ID":364873,"DIS_CODE":0,"TOWNNAME":"新化區","LI":"協興里","LIN":"12鄰","STREET":"太平街","SECT":" ","MAREA":" ","LANE":"１５０巷","ALLEY":" ","HOUSE_NO":"１２１號之１","E_COORD97":178303.14999999999,"N_COORD97":2548870.2599999998,"ADDRESS":"太平街１５０巷１２１號之１","OBJECTID":364863},"geometry":{"x":178303.1500000013,"y":2548870.2599999979}},{"attributes":{"ID":364874,"DIS_CODE":0,"TOWNNAME":"新化區","LI":"豐榮里","LIN":"12鄰","STREET":"民治路","SECT":" ","MAREA":" ","LANE":"４３巷","ALLEY":" ","HOUSE_NO":"４８號","E_COORD97":178624.20999999999,"N_COORD97":2548099.25,"ADDRESS":"民治路４３巷４８號","OBJECTID":364864},"geometry":{"x":178624.21000000089,"y":2548099.2500000019}},{"attributes":{"ID":364875,"DIS_CODE":0,"TOWNNAME":"永康區","LI":"新樹里","LIN":"12鄰","STREET":"富強路","SECT":"二段","MAREA":" ","LANE":"７７巷","ALLEY":" ","HOUSE_NO":"２１號","E_COORD97":175618.35999999999,"N_COORD97":2546924.2000000002,"ADDRESS":"富強路二段７７巷２１號","OBJECTID":364865},"geometry":{"x":175618.36000000034,"y":2546924.200000003}},{"attributes":{"ID":364876,"DIS_CODE":0,"TOWNNAME":"永康區","LI":"新樹里","LIN":"12鄰","STREET":"富強路","SECT":"二段","MAREA":" ","LANE":"１２１巷","ALLEY":" ","HOUSE_NO":"２１號","E_COORD97":175577.41,"N_COORD97":2547068.79,"ADDRESS":"富強路二段１２１巷２１號","OBJECTID":364866},"geometry":{"x":175577.41000000015,"y":2547068.7899999991}},{"attributes":{"ID":364877,"DIS_CODE":0,"TOWNNAME":"中西區","LI":"天后里","LIN":"12鄰","STREET":"民族路","SECT":"二段","MAREA":" ","LANE":"３５９巷","ALLEY":" ","HOUSE_NO":"１號","E_COORD97":168176.5,"N_COORD97":2544138.5299999998,"ADDRESS":"民族路二段３５９巷１號","OBJECTID":364867},"geometry":{"x":168176.50000000093,"y":2544138.5300000031}},{"attributes":{"ID":364878,"DIS_CODE":0,"TOWNNAME":"中西區","LI":"天后里","LIN":"12鄰","STREET":"民族路","SECT":"二段","MAREA":" ","LANE":"３５９巷","ALLEY":" ","HOUSE_NO":"３號","E_COORD97":168166.32999999999,"N_COORD97":2544151.4199999999,"ADDRESS":"民族路二段３５９巷３號","OBJECTID":364868},"geometry":{"x":168166.33000000007,"y":2544151.4200000018}},{"attributes":{"ID":364879,"DIS_CODE":0,"TOWNNAME":"中西區","LI":"天后里","LIN":"12鄰","STREET":"民族路","SECT":"二段","MAREA":" ","LANE":"３５９巷","ALLEY":" ","HOUSE_NO":"５號","E_COORD97":168160.26999999999,"N_COORD97":2544153.77,"ADDRESS":"民族路二段３５９巷５號","OBJECTID":364869},"geometry":{"x":168160.27000000142,"y":2544153.7699999996}},{"attributes":{"ID":364880,"DIS_CODE":0,"TOWNNAME":"南區","LI":"郡南里","LIN":"13鄰","STREET":"永興三街","SECT":" ","MAREA":" ","LANE":" ","ALLEY":" ","HOUSE_NO":"５２號","E_COORD97":167367.09,"N_COORD97":2540614.6299999999,"ADDRESS":"永興三街５２號","OBJECTID":364870},"geometry":{"x":167367.09000000078,"y":2540614.629999999}},{"attributes":{"ID":364881,"DIS_CODE":0,"TOWNNAME":"南區","LI":"郡南里","LIN":"13鄰","STREET":"永興三街","SECT":" ","MAREA":" ","LANE":" ","ALLEY":" ","HOUSE_NO":"５４號","E_COORD97":167361.98000000001,"N_COORD97":2540614.6299999999,"ADDRESS":"永興三街５４號","OBJECTID":364871},"geometry":{"x":167361.98000000138,"y":2540614.629999999}},{"attributes":{"ID":364882,"DIS_CODE":0,"TOWNNAME":"南區","LI":"郡南里","LIN":"13鄰","STREET":"永興三街","SECT":" ","MAREA":" ","LANE":" ","ALLEY":" ","HOUSE_NO":"５６號","E_COORD97":167358.14999999999,"N_COORD97":2540614.6299999999,"ADDRESS":"永興三街５６號","OBJECTID":364872},"geometry":{"x":167358.15000000037,"y":2540614.629999999}},{"attributes":{"ID":364883,"DIS_CODE":0,"TOWNNAME":"南區","LI":"郡南里","LIN":"13鄰","STREET":"永興三街","SECT":" ","MAREA":" ","LANE":" ","ALLEY":" ","HOUSE_NO":"６０號","E_COORD97":167349.22,"N_COORD97":2540613.9900000002,"ADDRESS":"永興三街６０號","OBJECTID":364873},"geometry":{"x":167349.22000000067,"y":2540613.9900000039}},{"attributes":{"ID":364884,"DIS_CODE":0,"TOWNNAME":"玉井區","LI":"玉田里","LIN":"41鄰","STREET":"民族路","SECT":" ","MAREA":" ","LANE":"１７９巷","ALLEY":" ","HOUSE_NO":"３號","E_COORD97":195439.79000000001,"N_COORD97":2558126.29,"ADDRESS":"民族路１７９巷３號","OBJECTID":364874},"geometry":{"x":195439.79000000097,"y":2558126.290000001}},{"attributes":{"ID":364885,"DIS_CODE":0,"TOWNNAME":"玉井區","LI":"玉田里","LIN":"41鄰","STREET":"民族路","SECT":" ","MAREA":" ","LANE":"１７９巷","ALLEY":" ","HOUSE_NO":"１４號","E_COORD97":195458.13,"N_COORD97":2558140.29,"ADDRESS":"民族路１７９巷１４號","OBJECTID":364875},"geometry":{"x":195458.13000000082,"y":2558140.290000001}},{"attributes":{"ID":364886,"DIS_CODE":0,"TOWNNAME":"中西區","LI":"天后里","LIN":"12鄰","STREET":"民族路","SECT":"二段","MAREA":" ","LANE":"３５９巷","ALLEY":" ","HOUSE_NO":"６號","E_COORD97":168158.51000000001,"N_COORD97":2544155.1299999999,"ADDRESS":"民族路二段３５９巷６號","OBJECTID":364876},"geometry":{"x":168158.50999999978,"y":2544155.1300000008}},{"attributes":{"ID":364887,"DIS_CODE":0,"TOWNNAME":"中西區","LI":"天后里","LIN":"12鄰","STREET":"永福路","SECT":"二段","MAREA":" ","LANE":"２２７巷","ALLEY":" ","HOUSE_NO":"１０號","E_COORD97":168177.82999999999,"N_COORD97":2544102.9300000002,"ADDRESS":"永福路二段２２７巷１０號","OBJECTID":364877},"geometry":{"x":168177.83000000101,"y":2544102.9300000016}},{"attributes":{"ID":364888,"DIS_CODE":0,"TOWNNAME":"中西區","LI":"天后里","LIN":"12鄰","STREET":"永福路","SECT":"二段","MAREA":" ","LANE":"２２７巷","ALLEY":" ","HOUSE_NO":"１２號","E_COORD97":168174.03,"N_COORD97":2544104.8300000001,"ADDRESS":"永福路二段２２７巷１２號","OBJECTID":364878},"geometry":{"x":168174.03000000026,"y":2544104.8300000019}},{"attributes":{"ID":364889,"DIS_CODE":0,"TOWNNAME":"中西區","LI":"天后里","LIN":"12鄰","STREET":"永福路","SECT":"二段","MAREA":" ","LANE":"２２７巷","ALLEY":" ","HOUSE_NO":"１４號","E_COORD97":168170.70000000001,"N_COORD97":2544106.25,"ADDRESS":"永福路二段２２７巷１４號","OBJECTID":364879},"geometry":{"x":168170.70000000019,"y":2544106.25}},{"attributes":{"ID":364890,"DIS_CODE":0,"TOWNNAME":"中西區","LI":"天后里","LIN":"12鄰","STREET":"永福路","SECT":"二段","MAREA":" ","LANE":"２２７巷","ALLEY":" ","HOUSE_NO":"１６號","E_COORD97":168167.69,"N_COORD97":2544107.52,"ADDRESS":"永福路二段２２７巷１６號","OBJECTID":364880},"geometry":{"x":168167.69000000041,"y":2544107.5199999996}},{"attributes":{"ID":364891,"DIS_CODE":0,"TOWNNAME":"中西區","LI":"天后里","LIN":"12鄰","STREET":"永福路","SECT":"二段","MAREA":" ","LANE":"２２７巷","ALLEY":" ","HOUSE_NO":"１８號","E_COORD97":168162.14000000001,"N_COORD97":2544110.3700000001,"ADDRESS":"永福路二段２２７巷１８號","OBJECTID":364881},"geometry":{"x":168162.13999999966,"y":2544110.370000001}},{"attributes":{"ID":364892,"DIS_CODE":0,"TOWNNAME":"中西區","LI":"天后里","LIN":"12鄰","STREET":"永福路","SECT":"二段","MAREA":" ","LANE":"２２７巷","ALLEY":" ","HOUSE_NO":"２號","E_COORD97":168194.48000000001,"N_COORD97":2544098.1699999999,"ADDRESS":"永福路二段２２７巷２號","OBJECTID":364882},"geometry":{"x":168194.48000000045,"y":2544098.1700000018}},{"attributes":{"ID":364893,"DIS_CODE":0,"TOWNNAME":"中西區","LI":"天后里","LIN":"12鄰","STREET":"永福路","SECT":"二段","MAREA":" ","LANE":"２２７巷","ALLEY":" ","HOUSE_NO":"６號","E_COORD97":168190.51999999999,"N_COORD97":2544099.1200000001,"ADDRESS":"永福路二段２２７巷６號","OBJECTID":364883},"geometry":{"x":168190.51999999955,"y":2544099.1200000048}},{"attributes":{"ID":364894,"DIS_CODE":0,"TOWNNAME":"中西區","LI":"天后里","LIN":"12鄰","STREET":"永福路","SECT":"二段","MAREA":" ","LANE":"２２７巷","ALLEY":" ","HOUSE_NO":"８號","E_COORD97":168185.92000000001,"N_COORD97":2544100.0800000001,"ADDRESS":"永福路二段２２７巷８號","OBJECTID":364884},"geometry":{"x":168185.91999999993,"y":2544100.0800000001}},{"attributes":{"ID":364895,"DIS_CODE":0,"TOWNNAME":"中西區","LI":"法華里","LIN":"12鄰","STREET":"健康路","SECT":"一段","MAREA":" ","LANE":"１００巷","ALLEY":" ","HOUSE_NO":"１０號","E_COORD97":168935.34,"N_COORD97":2542477.6499999999,"ADDRESS":"健康路一段１００巷１０號","OBJECTID":364885},"geometry":{"x":168935.34000000078,"y":2542477.6500000041}},{"attributes":{"ID":364896,"DIS_CODE":0,"TOWNNAME":"中西區","LI":"法華里","LIN":"12鄰","STREET":"健康路","SECT":"一段","MAREA":" ","LANE":"１００巷","ALLEY":" ","HOUSE_NO":"１１號","E_COORD97":168883.76999999999,"N_COORD97":2542468.2200000002,"ADDRESS":"健康路一段１００巷１１號","OBJECTID":364886},"geometry":{"x":168883.76999999955,"y":2542468.2200000025}},{"attributes":{"ID":364897,"DIS_CODE":0,"TOWNNAME":"中西區","LI":"法華里","LIN":"12鄰","STREET":"健康路","SECT":"一段","MAREA":" ","LANE":"１００巷","ALLEY":" ","HOUSE_NO":"１２號","E_COORD97":168934.16,"N_COORD97":2542481.1899999999,"ADDRESS":"健康路一段１００巷１２號","OBJECTID":364887},"geometry":{"x":168934.16000000015,"y":2542481.1900000013}},{"attributes":{"ID":364898,"DIS_CODE":0,"TOWNNAME":"中西區","LI":"法華里","LIN":"12鄰","STREET":"健康路","SECT":"一段","MAREA":" ","LANE":"１００巷","ALLEY":" ","HOUSE_NO":"１４號","E_COORD97":168934.16,"N_COORD97":2542484.73,"ADDRESS":"健康路一段１００巷１４號","OBJECTID":364888},"geometry":{"x":168934.16000000015,"y":2542484.7300000023}},{"attributes":{"ID":364899,"DIS_CODE":0,"TOWNNAME":"中西區","LI":"法華里","LIN":"12鄰","STREET":"健康路","SECT":"一段","MAREA":" ","LANE":"１００巷","ALLEY":" ","HOUSE_NO":"１６號","E_COORD97":168935.34,"N_COORD97":2542489.0499999998,"ADDRESS":"健康路一段１００巷１６號","OBJECTID":364889},"geometry":{"x":168935.34000000078,"y":2542489.0500000045}},{"attributes":{"ID":364900,"DIS_CODE":0,"TOWNNAME":"中西區","LI":"法華里","LIN":"12鄰","STREET":"健康路","SECT":"一段","MAREA":" ","LANE":"１００巷","ALLEY":" ","HOUSE_NO":"１８號","E_COORD97":168933.37,"N_COORD97":2542493.3700000001,"ADDRESS":"健康路一段１００巷１８號","OBJECTID":364890},"geometry":{"x":168933.37000000104,"y":2542493.370000001}},{"attributes":{"ID":364901,"DIS_CODE":0,"TOWNNAME":"中西區","LI":"法華里","LIN":"12鄰","STREET":"健康路","SECT":"一段","MAREA":" ","LANE":"１００巷","ALLEY":" ","HOUSE_NO":"２０之１號","E_COORD97":168923.92999999999,"N_COORD97":2542501.23,"ADDRESS":"健康路一段１００巷２０之１號","OBJECTID":364891},"geometry":{"x":168923.93000000063,"y":2542501.2300000023}},{"attributes":{"ID":364902,"DIS_CODE":0,"TOWNNAME":"中西區","LI":"法華里","LIN":"12鄰","STREET":"健康路","SECT":"一段","MAREA":" ","LANE":"１００巷","ALLEY":" ","HOUSE_NO":"２０號","E_COORD97":168918.81,"N_COORD97":2542499.27,"ADDRESS":"健康路一段１００巷２０號","OBJECTID":364892},"geometry":{"x":168918.80999999959,"y":2542499.2699999996}},{"attributes":{"ID":364903,"DIS_CODE":0,"TOWNNAME":"南區","LI":"郡南里","LIN":"13鄰","STREET":"永興三街","SECT":" ","MAREA":" ","LANE":" ","ALLEY":" ","HOUSE_NO":"６２號","E_COORD97":167346.45000000001,"N_COORD97":2540615.48,"ADDRESS":"永興三街６２號","OBJECTID":364893},"geometry":{"x":167346.45000000112,"y":2540615.4800000023}},{"attributes":{"ID":364904,"DIS_CODE":0,"TOWNNAME":"南區","LI":"郡南里","LIN":"13鄰","STREET":"永興三街","SECT":" ","MAREA":" ","LANE":" ","ALLEY":" ","HOUSE_NO":"６４號","E_COORD97":167340.70999999999,"N_COORD97":2540617.1800000002,"ADDRESS":"永興三街６４號","OBJECTID":364894},"geometry":{"x":167340.71000000089,"y":2540617.1799999997}},{"attributes":{"ID":364905,"DIS_CODE":0,"TOWNNAME":"楠西區","LI":"龜丹里","LIN":"5鄰","STREET":" ","SECT":" ","MAREA":"龜丹","LANE":" ","ALLEY":" ","HOUSE_NO":"６３號之８","E_COORD97":200815.22,"N_COORD97":2558924.2999999998,"ADDRESS":"龜丹６３號之８","OBJECTID":364895},"geometry":{"x":200815.2200000016,"y":2558924.3000000026}},{"attributes":{"ID":364906,"DIS_CODE":0,"TOWNNAME":"中西區","LI":"法華里","LIN":"12鄰","STREET":"健康路","SECT":"一段","MAREA":" ","LANE":"１００巷","ALLEY":" ","HOUSE_NO":"２２號","E_COORD97":168912.89999999999,"N_COORD97":2542496.9100000001,"ADDRESS":"健康路一段１００巷２２號","OBJECTID":364896},"geometry":{"x":168912.90000000224,"y":2542496.910000002}},{"attributes":{"ID":364907,"DIS_CODE":0,"TOWNNAME":"中西區","LI":"法華里","LIN":"12鄰","STREET":"健康路","SECT":"一段","MAREA":" ","LANE":"１００巷","ALLEY":" ","HOUSE_NO":"２４號","E_COORD97":168905.82000000001,"N_COORD97":2542495.73,"ADDRESS":"健康路一段１００巷２４號","OBJECTID":364897},"geometry":{"x":168905.8200000003,"y":2542495.7300000023}},{"attributes":{"ID":364908,"DIS_CODE":0,"TOWNNAME":"安南區","LI":"安順里","LIN":"12鄰","STREET":"安和路","SECT":"四段","MAREA":" ","LANE":"３６巷","ALLEY":" ","HOUSE_NO":"５５號","E_COORD97":170126.57999999999,"N_COORD97":2550196.3399999999,"ADDRESS":"安和路四段３６巷５５號","OBJECTID":364898},"geometry":{"x":170126.57999999914,"y":2550196.3400000017}},{"attributes":{"ID":364909,"DIS_CODE":0,"TOWNNAME":"安南區","LI":"安順里","LIN":"12鄰","STREET":"安和路","SECT":"四段","MAREA":" ","LANE":"３６巷","ALLEY":" ","HOUSE_NO":"７２號","E_COORD97":170178.59,"N_COORD97":2550119.1800000002,"ADDRESS":"安和路四段３６巷７２號","OBJECTID":364899},"geometry":{"x":170178.58999999985,"y":2550119.1800000016}},{"attributes":{"ID":364910,"DIS_CODE":0,"TOWNNAME":"安南區","LI":"安順里","LIN":"12鄰","STREET":"安和路","SECT":"四段","MAREA":" ","LANE":"３６巷","ALLEY":" ","HOUSE_NO":"２７６號","E_COORD97":170642.07000000001,"N_COORD97":2550103.8799999999,"ADDRESS":"安和路四段３６巷２７６號","OBJECTID":364900},"geometry":{"x":170642.0700000003,"y":2550103.8800000008}},{"attributes":{"ID":364911,"DIS_CODE":0,"TOWNNAME":"安南區","LI":"安順里","LIN":"12鄰","STREET":"安和路","SECT":"四段","MAREA":" ","LANE":"２巷","ALLEY":" ","HOUSE_NO":"３號","E_COORD97":169980.82999999999,"N_COORD97":2550048.6699999999,"ADDRESS":"安和路四段２巷３號","OBJECTID":364901},"geometry":{"x":169980.82999999914,"y":2550048.6700000018}},{"attributes":{"ID":364912,"DIS_CODE":0,"TOWNNAME":"安南區","LI":"安順里","LIN":"12鄰","STREET":"安和路","SECT":"四段","MAREA":" ","LANE":"２巷","ALLEY":" ","HOUSE_NO":"５號","E_COORD97":170023.14999999999,"N_COORD97":2550068.5800000001,"ADDRESS":"安和路四段２巷５號","OBJECTID":364902},"geometry":{"x":170023.15000000224,"y":2550068.5799999982}},{"attributes":{"ID":364913,"DIS_CODE":0,"TOWNNAME":"安南區","LI":"安順里","LIN":"12鄰","STREET":"安和路","SECT":"四段","MAREA":" ","LANE":"２巷","ALLEY":" ","HOUSE_NO":"７號","E_COORD97":170015.82000000001,"N_COORD97":2549999.9100000001,"ADDRESS":"安和路四段２巷７號","OBJECTID":364903},"geometry":{"x":170015.82000000123,"y":2549999.910000002}},{"attributes":{"ID":364914,"DIS_CODE":0,"TOWNNAME":"安南區","LI":"安慶里","LIN":"12鄰","STREET":"長溪路","SECT":"一段","MAREA":" ","LANE":"６１巷","ALLEY":" ","HOUSE_NO":"２７號","E_COORD97":169109.39000000001,"N_COORD97":2548335.9700000002,"ADDRESS":"長溪路一段６１巷２７號","OBJECTID":364904},"geometry":{"x":169109.3900000006,"y":2548335.9700000025}},{"attributes":{"ID":364915,"DIS_CODE":0,"TOWNNAME":"安南區","LI":"淵西里","LIN":"12鄰","STREET":"安中路","SECT":"四段","MAREA":" ","LANE":"２４０巷","ALLEY":" ","HOUSE_NO":"３１號","E_COORD97":164668.10999999999,"N_COORD97":2550207.4900000002,"ADDRESS":"安中路四段２４０巷３１號","OBJECTID":364905},"geometry":{"x":164668.11000000034,"y":2550207.4900000002}},{"attributes":{"ID":364916,"DIS_CODE":0,"TOWNNAME":"安南區","LI":"淵西里","LIN":"12鄰","STREET":"安中路","SECT":"四段","MAREA":" ","LANE":"２４０巷","ALLEY":" ","HOUSE_NO":"３３號","E_COORD97":164665.20999999999,"N_COORD97":2550209.98,"ADDRESS":"安中路四段２４０巷３３號","OBJECTID":364906},"geometry":{"x":164665.20999999996,"y":2550209.9800000023}},{"attributes":{"ID":364917,"DIS_CODE":0,"TOWNNAME":"安南區","LI":"淵西里","LIN":"12鄰","STREET":"安中路","SECT":"四段","MAREA":" ","LANE":"２４０巷","ALLEY":" ","HOUSE_NO":"３５號","E_COORD97":164660.64000000001,"N_COORD97":2550212.0499999998,"ADDRESS":"安中路四段２４０巷３５號","OBJECTID":364907},"geometry":{"x":164660.64000000153,"y":2550212.0500000045}},{"attributes":{"ID":364918,"DIS_CODE":0,"TOWNNAME":"安南區","LI":"淵西里","LIN":"12鄰","STREET":"安中路","SECT":"四段","MAREA":" ","LANE":"２４０巷","ALLEY":" ","HOUSE_NO":"３７號","E_COORD97":164657.51999999999,"N_COORD97":2550213.29,"ADDRESS":"安中路四段２４０巷３７號","OBJECTID":364908},"geometry":{"x":164657.51999999955,"y":2550213.290000001}},{"attributes":{"ID":364919,"DIS_CODE":0,"TOWNNAME":"安南區","LI":"淵西里","LIN":"12鄰","STREET":"安中路","SECT":"四段","MAREA":" ","LANE":"２４０巷","ALLEY":" ","HOUSE_NO":"３９號","E_COORD97":164652.54000000001,"N_COORD97":2550215.3700000001,"ADDRESS":"安中路四段２４０巷３９號","OBJECTID":364909},"geometry":{"x":164652.54000000004,"y":2550215.370000001}},{"attributes":{"ID":364920,"DIS_CODE":0,"TOWNNAME":"安南區","LI":"淵西里","LIN":"12鄰","STREET":"安中路","SECT":"四段","MAREA":" ","LANE":"２４０巷","ALLEY":" ","HOUSE_NO":"４１號","E_COORD97":164649.84,"N_COORD97":2550217.8599999999,"ADDRESS":"安中路四段２４０巷４１號","OBJECTID":364910},"geometry":{"x":164649.84000000078,"y":2550217.8599999994}},{"attributes":{"ID":364921,"DIS_CODE":0,"TOWNNAME":"安南區","LI":"淵西里","LIN":"12鄰","STREET":"安中路","SECT":"四段","MAREA":" ","LANE":"２４０巷","ALLEY":" ","HOUSE_NO":"４３號","E_COORD97":164645.26999999999,"N_COORD97":2550219.3100000001,"ADDRESS":"安中路四段２４０巷４３號","OBJECTID":364911},"geometry":{"x":164645.26999999955,"y":2550219.3100000005}},{"attributes":{"ID":364922,"DIS_CODE":0,"TOWNNAME":"安南區","LI":"幸福里","LIN":"12鄰","STREET":"府安路","SECT":"六段","MAREA":" ","LANE":"８６巷","ALLEY":" ","HOUSE_NO":"５７號","E_COORD97":166760.20999999999,"N_COORD97":2546694.02,"ADDRESS":"府安路六段８６巷５７號","OBJECTID":364912},"geometry":{"x":166760.20999999996,"y":2546694.0199999996}},{"attributes":{"ID":364923,"DIS_CODE":0,"TOWNNAME":"永康區","LI":"成功里","LIN":"41鄰","STREET":"中華路","SECT":" ","MAREA":" ","LANE":"１５４巷","ALLEY":" ","HOUSE_NO":"４１號","E_COORD97":171725.29000000001,"N_COORD97":2544896.5099999998,"ADDRESS":"中華路１５４巷４１號","OBJECTID":364913},"geometry":{"x":171725.29000000004,"y":2544896.5100000016}},{"attributes":{"ID":364924,"DIS_CODE":0,"TOWNNAME":"永康區","LI":"成功里","LIN":"41鄰","STREET":"中華路","SECT":" ","MAREA":" ","LANE":"１５４巷","ALLEY":" ","HOUSE_NO":"６１號","E_COORD97":171762.35999999999,"N_COORD97":2544891.7599999998,"ADDRESS":"中華路１５４巷６１號","OBJECTID":364914},"geometry":{"x":171762.36000000034,"y":2544891.7600000016}},{"attributes":{"ID":364925,"DIS_CODE":0,"TOWNNAME":"永康區","LI":"成功里","LIN":"41鄰","STREET":"中華路","SECT":" ","MAREA":" ","LANE":"１５４巷","ALLEY":" ","HOUSE_NO":"３１號","E_COORD97":171706.28,"N_COORD97":2544898.7599999998,"ADDRESS":"中華路１５４巷３１號","OBJECTID":364915},"geometry":{"x":171706.28000000119,"y":2544898.7599999998}},{"attributes":{"ID":364926,"DIS_CODE":0,"TOWNNAME":"永康區","LI":"成功里","LIN":"41鄰","STREET":"中華路","SECT":" ","MAREA":" ","LANE":"１５４巷","ALLEY":" ","HOUSE_NO":"９號","E_COORD97":171665.13,"N_COORD97":2544886,"ADDRESS":"中華路１５４巷９號","OBJECTID":364916},"geometry":{"x":171665.12999999989,"y":2544886.0000000019}},{"attributes":{"ID":364927,"DIS_CODE":0,"TOWNNAME":"永康區","LI":"成功里","LIN":"41鄰","STREET":"中華路","SECT":" ","MAREA":" ","LANE":"１５４巷","ALLEY":" ","HOUSE_NO":"４５號","E_COORD97":171731.95000000001,"N_COORD97":2544895.5099999998,"ADDRESS":"中華路１５４巷４５號","OBJECTID":364917},"geometry":{"x":171731.95000000112,"y":2544895.5100000035}},{"attributes":{"ID":364928,"DIS_CODE":0,"TOWNNAME":"永康區","LI":"成功里","LIN":"41鄰","STREET":"中華路","SECT":" ","MAREA":" ","LANE":"１５４巷","ALLEY":" ","HOUSE_NO":"６３號","E_COORD97":171765.84,"N_COORD97":2544891.0099999998,"ADDRESS":"中華路１５４巷６３號","OBJECTID":364918},"geometry":{"x":171765.84000000078,"y":2544891.0099999998}},{"attributes":{"ID":364929,"DIS_CODE":0,"TOWNNAME":"永康區","LI":"成功里","LIN":"41鄰","STREET":"中華路","SECT":" ","MAREA":" ","LANE":"１５４巷","ALLEY":" ","HOUSE_NO":"３號","E_COORD97":171652.10000000001,"N_COORD97":2544887.5,"ADDRESS":"中華路１５４巷３號","OBJECTID":364919},"geometry":{"x":171652.10000000056,"y":2544887.5}},{"attributes":{"ID":364930,"DIS_CODE":0,"TOWNNAME":"永康區","LI":"成功里","LIN":"41鄰","STREET":"中華路","SECT":" ","MAREA":" ","LANE":"１５４巷","ALLEY":" ","HOUSE_NO":"６７號","E_COORD97":171773.39999999999,"N_COORD97":2544890.2599999998,"ADDRESS":"中華路１５４巷６７號","OBJECTID":364920},"geometry":{"x":171773.4000000013,"y":2544890.2600000035}},{"attributes":{"ID":364931,"DIS_CODE":0,"TOWNNAME":"仁德區","LI":"仁義里","LIN":"41鄰","STREET":"中正路","SECT":"二段","MAREA":" ","LANE":"９３６巷","ALLEY":" ","HOUSE_NO":"２５號","E_COORD97":173512.04999999999,"N_COORD97":2540702.02,"ADDRESS":"中正路二段９３６巷２５號","OBJECTID":364921},"geometry":{"x":173512.05000000168,"y":2540702.0200000014}},{"attributes":{"ID":364932,"DIS_CODE":0,"TOWNNAME":"楠西區","LI":"東勢里","LIN":"14鄰","STREET":"茄拔路","SECT":" ","MAREA":" ","LANE":"１７７巷","ALLEY":" ","HOUSE_NO":"２６號","E_COORD97":197455.42999999999,"N_COORD97":2563830.2000000002,"ADDRESS":"茄拔路１７７巷２６號","OBJECTID":364922},"geometry":{"x":197455.43000000156,"y":2563830.2000000011}},{"attributes":{"ID":364933,"DIS_CODE":0,"TOWNNAME":"東區","LI":"裕聖里","LIN":"8鄰","STREET":"裕信六街","SECT":" ","MAREA":" ","LANE":" ","ALLEY":" ","HOUSE_NO":"１９０號","E_COORD97":172866.73000000001,"N_COORD97":2541815.23,"ADDRESS":"裕信六街１９０號","OBJECTID":364923},"geometry":{"x":172866.73000000045,"y":2541815.2300000004}},{"attributes":{"ID":364934,"DIS_CODE":0,"TOWNNAME":"仁德區","LI":"仁義里","LIN":"41鄰","STREET":"中正路","SECT":"二段","MAREA":" ","LANE":"８９２巷","ALLEY":" ","HOUSE_NO":"１４號","E_COORD97":173488.92000000001,"N_COORD97":2540564.27,"ADDRESS":"中正路二段８９２巷１４號","OBJECTID":364924},"geometry":{"x":173488.91999999993,"y":2540564.2700000014}},{"attributes":{"ID":364935,"DIS_CODE":0,"TOWNNAME":"東區","LI":"裕聖里","LIN":"8鄰","STREET":"裕信六街","SECT":" ","MAREA":" ","LANE":" ","ALLEY":" ","HOUSE_NO":"１９２號","E_COORD97":172865.48000000001,"N_COORD97":2541820.8700000001,"ADDRESS":"裕信六街１９２號","OBJECTID":364925},"geometry":{"x":172865.48000000231,"y":2541820.870000001}},{"attributes":{"ID":364936,"DIS_CODE":0,"TOWNNAME":"東區","LI":"裕聖里","LIN":"8鄰","STREET":"裕信六街","SECT":" ","MAREA":" ","LANE":" ","ALLEY":" ","HOUSE_NO":"１９６號","E_COORD97":172865.79000000001,"N_COORD97":2541825.8900000001,"ADDRESS":"裕信六街１９６號","OBJECTID":364926},"geometry":{"x":172865.79000000004,"y":2541825.8900000025}},{"attributes":{"ID":364937,"DIS_CODE":0,"TOWNNAME":"東區","LI":"裕聖里","LIN":"8鄰","STREET":"裕信六街","SECT":" ","MAREA":" ","LANE":" ","ALLEY":" ","HOUSE_NO":"１９８號","E_COORD97":172864.85000000001,"N_COORD97":2541830.8999999999,"ADDRESS":"裕信六街１９８號","OBJECTID":364927},"geometry":{"x":172864.84999999963,"y":2541830.9000000004}},{"attributes":{"ID":364938,"DIS_CODE":0,"TOWNNAME":"東區","LI":"裕聖里","LIN":"8鄰","STREET":"裕信六街","SECT":" ","MAREA":" ","LANE":" ","ALLEY":" ","HOUSE_NO":"２００號","E_COORD97":172863.91,"N_COORD97":2541836.23,"ADDRESS":"裕信六街２００號","OBJECTID":364928},"geometry":{"x":172863.91000000201,"y":2541836.2300000042}},{"attributes":{"ID":364939,"DIS_CODE":0,"TOWNNAME":"東區","LI":"裕聖里","LIN":"8鄰","STREET":"裕信六街","SECT":" ","MAREA":" ","LANE":" ","ALLEY":" ","HOUSE_NO":"２０２號","E_COORD97":172863.20999999999,"N_COORD97":2541840.4700000002,"ADDRESS":"裕信六街２０２號","OBJECTID":364929},"geometry":{"x":172863.20999999996,"y":2541840.4700000007}},{"attributes":{"ID":364940,"DIS_CODE":0,"TOWNNAME":"東區","LI":"裕聖里","LIN":"8鄰","STREET":"裕信六街","SECT":" ","MAREA":" ","LANE":" ","ALLEY":" ","HOUSE_NO":"２０６號","E_COORD97":172862.85999999999,"N_COORD97":2541845.4500000002,"ADDRESS":"裕信六街２０６號","OBJECTID":364930},"geometry":{"x":172862.8600000022,"y":2541845.4500000011}},{"attributes":{"ID":364941,"DIS_CODE":0,"TOWNNAME":"東區","LI":"裕聖里","LIN":"8鄰","STREET":"裕信六街","SECT":" ","MAREA":" ","LANE":" ","ALLEY":" ","HOUSE_NO":"２０８號","E_COORD97":172862.62,"N_COORD97":2541850.1800000002,"ADDRESS":"裕信六街２０８號","OBJECTID":364931},"geometry":{"x":172862.62000000197,"y":2541850.1800000016}},{"attributes":{"ID":364942,"DIS_CODE":0,"TOWNNAME":"東區","LI":"裕聖里","LIN":"8鄰","STREET":"裕信六街","SECT":" ","MAREA":" ","LANE":" ","ALLEY":" ","HOUSE_NO":"２１０號","E_COORD97":172862.62,"N_COORD97":2541855.1499999999,"ADDRESS":"裕信六街２１０號","OBJECTID":364932},"geometry":{"x":172862.62000000197,"y":2541855.1500000022}},{"attributes":{"ID":364943,"DIS_CODE":0,"TOWNNAME":"東區","LI":"裕聖里","LIN":"8鄰","STREET":"裕信六街","SECT":" ","MAREA":" ","LANE":" ","ALLEY":" ","HOUSE_NO":"２１２號","E_COORD97":172862.97,"N_COORD97":2541859.4100000001,"ADDRESS":"裕信六街２１２號","OBJECTID":364933},"geometry":{"x":172862.96999999974,"y":2541859.410000002}},{"attributes":{"ID":364944,"DIS_CODE":0,"TOWNNAME":"東區","LI":"裕聖里","LIN":"8鄰","STREET":"裕信六街","SECT":" ","MAREA":" ","LANE":" ","ALLEY":" ","HOUSE_NO":"２１６號","E_COORD97":172862.26000000001,"N_COORD97":2541864.2599999998,"ADDRESS":"裕信六街２１６號","OBJECTID":364934},"geometry":{"x":172862.25999999978,"y":2541864.2600000016}},{"attributes":{"ID":364945,"DIS_CODE":0,"TOWNNAME":"東區","LI":"裕聖里","LIN":"8鄰","STREET":"裕信六街","SECT":" ","MAREA":" ","LANE":" ","ALLEY":" ","HOUSE_NO":"２１８號","E_COORD97":172862.14999999999,"N_COORD97":2541871.0099999998,"ADDRESS":"裕信六街２１８號","OBJECTID":364935},"geometry":{"x":172862.15000000037,"y":2541871.0100000035}},{"attributes":{"ID":364946,"DIS_CODE":0,"TOWNNAME":"東區","LI":"裕聖里","LIN":"8鄰","STREET":"裕信六街","SECT":" ","MAREA":" ","LANE":" ","ALLEY":" ","HOUSE_NO":"２２０號","E_COORD97":172862.38,"N_COORD97":2541876.8100000001,"ADDRESS":"裕信六街２２０號","OBJECTID":364936},"geometry":{"x":172862.38000000082,"y":2541876.8100000042}},{"attributes":{"ID":364947,"DIS_CODE":0,"TOWNNAME":"永康區","LI":"崑山里","LIN":"41鄰","STREET":"崑山街","SECT":" ","MAREA":" ","LANE":"２１９巷","ALLEY":" ","HOUSE_NO":"７號","E_COORD97":174057.57000000001,"N_COORD97":2545048.7999999998,"ADDRESS":"崑山街２１９巷７號","OBJECTID":364937},"geometry":{"x":174057.5700000003,"y":2545048.8000000007}},{"attributes":{"ID":364948,"DIS_CODE":0,"TOWNNAME":"永康區","LI":"永康里","LIN":"41鄰","STREET":"永福街","SECT":" ","MAREA":" ","LANE":"９７巷","ALLEY":" ","HOUSE_NO":"６號","E_COORD97":174267.38,"N_COORD97":2546637.6800000002,"ADDRESS":"永福街９７巷６號","OBJECTID":364938},"geometry":{"x":174267.37999999989,"y":2546637.6800000016}},{"attributes":{"ID":364949,"DIS_CODE":0,"TOWNNAME":"永康區","LI":"成功里","LIN":"41鄰","STREET":"中華路","SECT":" ","MAREA":" ","LANE":"１５４巷","ALLEY":" ","HOUSE_NO":"５３號","E_COORD97":171747.28,"N_COORD97":2544893.7599999998,"ADDRESS":"中華路１５４巷５３號","OBJECTID":364939},"geometry":{"x":171747.28000000026,"y":2544893.7600000035}},{"attributes":{"ID":364950,"DIS_CODE":0,"TOWNNAME":"仁德區","LI":"仁義里","LIN":"41鄰","STREET":"中正路","SECT":"二段","MAREA":" ","LANE":"８９２巷","ALLEY":" ","HOUSE_NO":"１０號","E_COORD97":173480.35000000001,"N_COORD97":2540563.77,"ADDRESS":"中正路二段８９２巷１０號","OBJECTID":364940},"geometry":{"x":173480.34999999963,"y":2540563.7700000033}},{"attributes":{"ID":364951,"DIS_CODE":0,"TOWNNAME":"永康區","LI":"西灣里","LIN":"41鄰","STREET":"國光六街","SECT":" ","MAREA":" ","LANE":"９０巷","ALLEY":" ","HOUSE_NO":"２２號","E_COORD97":174062.04000000001,"N_COORD97":2545405.9700000002,"ADDRESS":"國光六街９０巷２２號","OBJECTID":364941},"geometry":{"x":174062.04000000097,"y":2545405.9700000025}},{"attributes":{"ID":364952,"DIS_CODE":0,"TOWNNAME":"仁德區","LI":"仁德里","LIN":"41鄰","STREET":"中山路","SECT":" ","MAREA":" ","LANE":"８７０巷","ALLEY":" ","HOUSE_NO":"２１３號","E_COORD97":172062.82000000001,"N_COORD97":2542246.4900000002,"ADDRESS":"中山路８７０巷２１３號","OBJECTID":364942},"geometry":{"x":172062.81999999937,"y":2542246.4900000002}},{"attributes":{"ID":364953,"DIS_CODE":0,"TOWNNAME":"仁德區","LI":"仁德里","LIN":"41鄰","STREET":"中山路","SECT":" ","MAREA":" ","LANE":"８７０巷","ALLEY":" ","HOUSE_NO":"２１９號","E_COORD97":172010.34,"N_COORD97":2542267,"ADDRESS":"中山路８７０巷２１９號","OBJECTID":364943},"geometry":{"x":172010.34000000078,"y":2542267}},{"attributes":{"ID":364954,"DIS_CODE":0,"TOWNNAME":"仁德區","LI":"仁義里","LIN":"41鄰","STREET":"中正路","SECT":"二段","MAREA":" ","LANE":"９３６巷","ALLEY":" ","HOUSE_NO":"３２號","E_COORD97":173554.23000000001,"N_COORD97":2540694.27,"ADDRESS":"中正路二段９３６巷３２號","OBJECTID":364944},"geometry":{"x":173554.23000000138,"y":2540694.2700000014}},{"attributes":{"ID":364955,"DIS_CODE":0,"TOWNNAME":"仁德區","LI":"仁德里","LIN":"41鄰","STREET":"中山路","SECT":" ","MAREA":" ","LANE":"８７０巷","ALLEY":" ","HOUSE_NO":"２０５號","E_COORD97":172146.28,"N_COORD97":2542207.5,"ADDRESS":"中山路８７０巷２０５號","OBJECTID":364945},"geometry":{"x":172146.28000000212,"y":2542207.5000000019}},{"attributes":{"ID":364956,"DIS_CODE":0,"TOWNNAME":"仁德區","LI":"仁義里","LIN":"41鄰","STREET":"中正路","SECT":"二段","MAREA":" ","LANE":"９３６巷","ALLEY":" ","HOUSE_NO":"３１號","E_COORD97":173524.45000000001,"N_COORD97":2540700.27,"ADDRESS":"中正路二段９３６巷３１號","OBJECTID":364946},"geometry":{"x":173524.45000000019,"y":2540700.2700000014}},{"attributes":{"ID":364957,"DIS_CODE":0,"TOWNNAME":"仁德區","LI":"仁德里","LIN":"41鄰","STREET":"中山路","SECT":" ","MAREA":" ","LANE":"８７０巷","ALLEY":" ","HOUSE_NO":"２１１號","E_COORD97":172104.04000000001,"N_COORD97":2542230.2400000002,"ADDRESS":"中山路８７０巷２１１號","OBJECTID":364947},"geometry":{"x":172104.04000000097,"y":2542230.2400000021}},{"attributes":{"ID":364958,"DIS_CODE":0,"TOWNNAME":"仁德區","LI":"仁義里","LIN":"41鄰","STREET":"中正路","SECT":"二段","MAREA":" ","LANE":"９３６巷","ALLEY":" ","HOUSE_NO":"１４號","E_COORD97":173501.26999999999,"N_COORD97":2540684.3999999999,"ADDRESS":"中正路二段９３６巷１４號","OBJECTID":364948},"geometry":{"x":173501.26999999955,"y":2540684.4000000004}},{"attributes":{"ID":364959,"DIS_CODE":0,"TOWNNAME":"仁德區","LI":"仁義里","LIN":"41鄰","STREET":"中正路","SECT":"二段","MAREA":" ","LANE":"９３６巷","ALLEY":" ","HOUSE_NO":"２９號","E_COORD97":173520.45000000001,"N_COORD97":2540699.77,"ADDRESS":"中正路二段９３６巷２９號","OBJECTID":364949},"geometry":{"x":173520.45000000112,"y":2540699.7700000014}},{"attributes":{"ID":364960,"DIS_CODE":0,"TOWNNAME":"安南區","LI":"佃西里","LIN":"12鄰","STREET":"公學路","SECT":"五段","MAREA":" ","LANE":"１７６巷","ALLEY":" ","HOUSE_NO":"５２號之１","E_COORD97":164891.04999999999,"N_COORD97":2552133.6899999999,"ADDRESS":"公學路五段１７６巷５２號之１","OBJECTID":364950},"geometry":{"x":164891.04999999981,"y":2552133.6900000013}},{"attributes":{"ID":364961,"DIS_CODE":0,"TOWNNAME":"南區","LI":"郡南里","LIN":"13鄰","STREET":"永興三街","SECT":" ","MAREA":" ","LANE":" ","ALLEY":" ","HOUSE_NO":"６６號","E_COORD97":167338.37,"N_COORD97":2540616.3300000001,"ADDRESS":"永興三街６６號","OBJECTID":364951},"geometry":{"x":167338.37000000104,"y":2540616.3300000019}},{"attributes":{"ID":364962,"DIS_CODE":0,"TOWNNAME":"南區","LI":"郡南里","LIN":"13鄰","STREET":"永興三街","SECT":" ","MAREA":" ","LANE":" ","ALLEY":" ","HOUSE_NO":"６８號","E_COORD97":167333.47,"N_COORD97":2540615.6899999999,"ADDRESS":"永興三街６８號","OBJECTID":364952},"geometry":{"x":167333.4700000016,"y":2540615.6900000013}},{"attributes":{"ID":364963,"DIS_CODE":0,"TOWNNAME":"永康區","LI":"南灣里","LIN":"13鄰","STREET":"大灣路","SECT":" ","MAREA":" ","LANE":" ","ALLEY":" ","HOUSE_NO":"５８８號","E_COORD97":174612.64000000001,"N_COORD97":2544670.7599999998,"ADDRESS":"大灣路５８８號","OBJECTID":364953},"geometry":{"x":174612.63999999966,"y":2544670.7600000016}},{"attributes":{"ID":364964,"DIS_CODE":0,"TOWNNAME":"永康區","LI":"東橋里","LIN":"13鄰","STREET":"中山南路","SECT":" ","MAREA":" ","LANE":" ","ALLEY":" ","HOUSE_NO":"２３３號","E_COORD97":171658.26000000001,"N_COORD97":2546214.75,"ADDRESS":"中山南路２３３號","OBJECTID":364954},"geometry":{"x":171658.26000000071,"y":2546214.75}},{"attributes":{"ID":364965,"DIS_CODE":0,"TOWNNAME":"永康區","LI":"南灣里","LIN":"13鄰","STREET":"立興街","SECT":" ","MAREA":" ","LANE":" ","ALLEY":" ","HOUSE_NO":"７５號","E_COORD97":174588.79999999999,"N_COORD97":2544769.4199999999,"ADDRESS":"立興街７５號","OBJECTID":364955},"geometry":{"x":174588.80000000075,"y":2544769.4199999999}},{"attributes":{"ID":364966,"DIS_CODE":0,"TOWNNAME":"永康區","LI":"南灣里","LIN":"13鄰","STREET":"立興街","SECT":" ","MAREA":" ","LANE":" ","ALLEY":" ","HOUSE_NO":"８３號","E_COORD97":174554.54999999999,"N_COORD97":2544765.0099999998,"ADDRESS":"立興街８３號","OBJECTID":364956},"geometry":{"x":174554.55000000168,"y":2544765.0099999998}},{"attributes":{"ID":364967,"DIS_CODE":0,"TOWNNAME":"永康區","LI":"埔園里","LIN":"13鄰","STREET":"中山路","SECT":" ","MAREA":" ","LANE":" ","ALLEY":" ","HOUSE_NO":"１９９號","E_COORD97":173676.07000000001,"N_COORD97":2548070,"ADDRESS":"中山路１９９號","OBJECTID":364957},"geometry":{"x":173676.0700000003,"y":2548070.0000000019}},{"attributes":{"ID":364968,"DIS_CODE":0,"TOWNNAME":"東區","LI":"小東里","LIN":"13鄰","STREET":"光明街","SECT":" ","MAREA":" ","LANE":" ","ALLEY":" ","HOUSE_NO":"５２號","E_COORD97":170886.12,"N_COORD97":2544309.4700000002,"ADDRESS":"光明街５２號","OBJECTID":364958},"geometry":{"x":170886.12000000104,"y":2544309.4700000007}},{"attributes":{"ID":364969,"DIS_CODE":0,"TOWNNAME":"東區","LI":"關聖里","LIN":"13鄰","STREET":"裕和路","SECT":" ","MAREA":" ","LANE":" ","ALLEY":" ","HOUSE_NO":"１２０號","E_COORD97":172232.42999999999,"N_COORD97":2543117.4700000002,"ADDRESS":"裕和路１２０號","OBJECTID":364959},"geometry":{"x":172232.4299999997,"y":2543117.4700000025}},{"attributes":{"ID":364970,"DIS_CODE":0,"TOWNNAME":"東區","LI":"關聖里","LIN":"13鄰","STREET":"裕和路","SECT":" ","MAREA":" ","LANE":" ","ALLEY":" ","HOUSE_NO":"１２２號","E_COORD97":172241.44,"N_COORD97":2543118.4100000001,"ADDRESS":"裕和路１２２號","OBJECTID":364960},"geometry":{"x":172241.44000000041,"y":2543118.4100000001}},{"attributes":{"ID":364971,"DIS_CODE":0,"TOWNNAME":"東區","LI":"關聖里","LIN":"13鄰","STREET":"裕和二街","SECT":" ","MAREA":" ","LANE":" ","ALLEY":" ","HOUSE_NO":"２５號","E_COORD97":172207.38,"N_COORD97":2543058.77,"ADDRESS":"裕和二街２５號","OBJECTID":364961},"geometry":{"x":172207.37999999989,"y":2543058.7699999996}},{"attributes":{"ID":364972,"DIS_CODE":0,"TOWNNAME":"東區","LI":"關聖里","LIN":"13鄰","STREET":"裕和二街","SECT":" ","MAREA":" ","LANE":" ","ALLEY":" ","HOUSE_NO":"２６號","E_COORD97":172189.20000000001,"N_COORD97":2543057.9500000002,"ADDRESS":"裕和二街２６號","OBJECTID":364962},"geometry":{"x":172189.20000000112,"y":2543057.9500000011}},{"attributes":{"ID":364973,"DIS_CODE":0,"TOWNNAME":"東區","LI":"關聖里","LIN":"13鄰","STREET":"裕和二街","SECT":" ","MAREA":" ","LANE":" ","ALLEY":" ","HOUSE_NO":"２７號","E_COORD97":172207.38,"N_COORD97":2543054.6699999999,"ADDRESS":"裕和二街２７號","OBJECTID":364963},"geometry":{"x":172207.37999999989,"y":2543054.6700000018}},{"attributes":{"ID":364974,"DIS_CODE":0,"TOWNNAME":"東區","LI":"關聖里","LIN":"13鄰","STREET":"裕和二街","SECT":" ","MAREA":" ","LANE":" ","ALLEY":" ","HOUSE_NO":"２８號","E_COORD97":172189.20000000001,"N_COORD97":2543053.6899999999,"ADDRESS":"裕和二街２８號","OBJECTID":364964},"geometry":{"x":172189.20000000112,"y":2543053.6900000013}},{"attributes":{"ID":364975,"DIS_CODE":0,"TOWNNAME":"東區","LI":"關聖里","LIN":"13鄰","STREET":"裕和二街","SECT":" ","MAREA":" ","LANE":" ","ALLEY":" ","HOUSE_NO":"２９號","E_COORD97":172207.38,"N_COORD97":2543049.9199999999,"ADDRESS":"裕和二街２９號","OBJECTID":364965},"geometry":{"x":172207.37999999989,"y":2543049.9200000018}},{"attributes":{"ID":364976,"DIS_CODE":0,"TOWNNAME":"永康區","LI":"成功里","LIN":"41鄰","STREET":"中華路","SECT":" ","MAREA":" ","LANE":"１５４巷","ALLEY":" ","HOUSE_NO":"１１號","E_COORD97":171670.73000000001,"N_COORD97":2544886,"ADDRESS":"中華路１５４巷１１號","OBJECTID":364966},"geometry":{"x":171670.73000000138,"y":2544886.0000000019}},{"attributes":{"ID":364977,"DIS_CODE":0,"TOWNNAME":"永康區","LI":"西灣里","LIN":"41鄰","STREET":"國光六街","SECT":" ","MAREA":" ","LANE":"９０巷","ALLEY":" ","HOUSE_NO":"３８號","E_COORD97":174072.84,"N_COORD97":2545436.6499999999,"ADDRESS":"國光六街９０巷３８號","OBJECTID":364967},"geometry":{"x":174072.84000000171,"y":2545436.6500000004}},{"attributes":{"ID":364978,"DIS_CODE":0,"TOWNNAME":"永康區","LI":"西灣里","LIN":"41鄰","STREET":"國光六街","SECT":" ","MAREA":" ","LANE":"９０巷","ALLEY":" ","HOUSE_NO":"３６號","E_COORD97":174071.28,"N_COORD97":2545431.1499999999,"ADDRESS":"國光六街９０巷３６號","OBJECTID":364968},"geometry":{"x":174071.28000000026,"y":2545431.1500000022}},{"attributes":{"ID":364979,"DIS_CODE":0,"TOWNNAME":"永康區","LI":"西灣里","LIN":"41鄰","STREET":"國光六街","SECT":" ","MAREA":" ","LANE":"９０巷","ALLEY":" ","HOUSE_NO":"２８號","E_COORD97":174064.73999999999,"N_COORD97":2545414.4700000002,"ADDRESS":"國光六街９０巷２８號","OBJECTID":364969},"geometry":{"x":174064.74000000022,"y":2545414.4700000007}},{"attributes":{"ID":364980,"DIS_CODE":0,"TOWNNAME":"永康區","LI":"西灣里","LIN":"41鄰","STREET":"國光六街","SECT":" ","MAREA":" ","LANE":"９０巷","ALLEY":" ","HOUSE_NO":"２０號","E_COORD97":174051.92000000001,"N_COORD97":2545389.0499999998,"ADDRESS":"國光六街９０巷２０號","OBJECTID":364970},"geometry":{"x":174051.91999999899,"y":2545389.0500000026}},{"attributes":{"ID":364981,"DIS_CODE":0,"TOWNNAME":"永康區","LI":"\u25A0行里","LIN":"41鄰","STREET":"永安路","SECT":" ","MAREA":" ","LANE":"１６５巷","ALLEY":" ","HOUSE_NO":"１４９號","E_COORD97":172423.39999999999,"N_COORD97":2549431.0699999998,"ADDRESS":"永安路１６５巷１４９號","OBJECTID":364971},"geometry":{"x":172423.39999999944,"y":2549431.0700000003}},{"attributes":{"ID":364982,"DIS_CODE":0,"TOWNNAME":"永康區","LI":"\u25A0行里","LIN":"41鄰","STREET":"永安路","SECT":" ","MAREA":" ","LANE":"１６５巷","ALLEY":" ","HOUSE_NO":"１１９號","E_COORD97":172462.84,"N_COORD97":2549432.3199999998,"ADDRESS":"永安路１６５巷１１９號","OBJECTID":364972},"geometry":{"x":172462.84000000078,"y":2549432.3200000003}},{"attributes":{"ID":364983,"DIS_CODE":0,"TOWNNAME":"永康區","LI":"\u25A0行里","LIN":"41鄰","STREET":"永安路","SECT":" ","MAREA":" ","LANE":"１６５巷","ALLEY":" ","HOUSE_NO":"１３０號","E_COORD97":172439.44,"N_COORD97":2549450.8199999998,"ADDRESS":"永安路１６５巷１３０號","OBJECTID":364973},"geometry":{"x":172439.44000000041,"y":2549450.8200000022}},{"attributes":{"ID":364984,"DIS_CODE":0,"TOWNNAME":"永康區","LI":"\u25A0行里","LIN":"41鄰","STREET":"永安路","SECT":" ","MAREA":" ","LANE":"１６５巷","ALLEY":" ","HOUSE_NO":"１３２號","E_COORD97":172435.39000000001,"N_COORD97":2549450.5699999998,"ADDRESS":"永安路１６５巷１３２號","OBJECTID":364974},"geometry":{"x":172435.3900000006,"y":2549450.5700000003}},{"attributes":{"ID":364985,"DIS_CODE":0,"TOWNNAME":"永康區","LI":"\u25A0行里","LIN":"41鄰","STREET":"永安路","SECT":" ","MAREA":" ","LANE":"１６５巷","ALLEY":" ","HOUSE_NO":"１１３號","E_COORD97":172476.29000000001,"N_COORD97":2549432.8199999998,"ADDRESS":"永安路１６５巷１１３號","OBJECTID":364975},"geometry":{"x":172476.29000000004,"y":2549432.8200000003}},{"attributes":{"ID":364986,"DIS_CODE":0,"TOWNNAME":"永康區","LI":"\u25A0行里","LIN":"41鄰","STREET":"永安路","SECT":" ","MAREA":" ","LANE":"１６５巷","ALLEY":" ","HOUSE_NO":"１２１號底二層之２","E_COORD97":172464.72,"N_COORD97":2549432.0699999998,"ADDRESS":"永安路１６５巷１２１號底二層之２","OBJECTID":364976},"geometry":{"x":172464.7200000016,"y":2549432.0700000022}},{"attributes":{"ID":364987,"DIS_CODE":0,"TOWNNAME":"永康區","LI":"\u25A0行里","LIN":"41鄰","STREET":"永安路","SECT":" ","MAREA":" ","LANE":"１６５巷","ALLEY":" ","HOUSE_NO":"１４３號","E_COORD97":172436.92000000001,"N_COORD97":2549430.8199999998,"ADDRESS":"永安路１６５巷１４３號","OBJECTID":364977},"geometry":{"x":172436.92000000086,"y":2549430.8200000022}},{"attributes":{"ID":364988,"DIS_CODE":0,"TOWNNAME":"安南區","LI":"佃西里","LIN":"12鄰","STREET":"公學路","SECT":"五段","MAREA":" ","LANE":"１７６巷","ALLEY":" ","HOUSE_NO":"５２號之２","E_COORD97":164896.04999999999,"N_COORD97":2552134.25,"ADDRESS":"公學路五段１７６巷５２號之２","OBJECTID":364978},"geometry":{"x":164896.05000000075,"y":2552134.25}},{"attributes":{"ID":364989,"DIS_CODE":0,"TOWNNAME":"安南區","LI":"佃西里","LIN":"12鄰","STREET":"公學路","SECT":"五段","MAREA":" ","LANE":"１７６巷","ALLEY":" ","HOUSE_NO":"５２號之３","E_COORD97":164901.42000000001,"N_COORD97":2552135.54,"ADDRESS":"公學路五段１７６巷５２號之３","OBJECTID":364979},"geometry":{"x":164901.42000000179,"y":2552135.5399999991}},{"attributes":{"ID":364990,"DIS_CODE":0,"TOWNNAME":"安南區","LI":"溪東里","LIN":"12鄰","STREET":"北安路","SECT":"二段","MAREA":" ","LANE":"６３巷","ALLEY":" ","HOUSE_NO":"１號","E_COORD97":168477.92999999999,"N_COORD97":2547370.8999999999,"ADDRESS":"北安路二段６３巷１號","OBJECTID":364980},"geometry":{"x":168477.93000000156,"y":2547370.9000000004}},{"attributes":{"ID":364991,"DIS_CODE":0,"TOWNNAME":"安南區","LI":"溪東里","LIN":"12鄰","STREET":"北安路","SECT":"二段","MAREA":" ","LANE":"６３巷","ALLEY":" ","HOUSE_NO":"６號","E_COORD97":168462.67000000001,"N_COORD97":2547385.9100000001,"ADDRESS":"北安路二段６３巷６號","OBJECTID":364981},"geometry":{"x":168462.66999999993,"y":2547385.910000002}},{"attributes":{"ID":364992,"DIS_CODE":0,"TOWNNAME":"東區","LI":"關聖里","LIN":"13鄰","STREET":"裕和二街","SECT":" ","MAREA":" ","LANE":" ","ALLEY":" ","HOUSE_NO":"３０號","E_COORD97":172189.53,"N_COORD97":2543049.27,"ADDRESS":"裕和二街３０號","OBJECTID":364982},"geometry":{"x":172189.53000000026,"y":2543049.2700000014}},{"attributes":{"ID":364993,"DIS_CODE":0,"TOWNNAME":"東區","LI":"關聖里","LIN":"13鄰","STREET":"裕和二街","SECT":" ","MAREA":" ","LANE":" ","ALLEY":" ","HOUSE_NO":"３２號","E_COORD97":172189.37,"N_COORD97":2543044.8500000001,"ADDRESS":"裕和二街３２號","OBJECTID":364983},"geometry":{"x":172189.37000000011,"y":2543044.8499999978}},{"attributes":{"ID":364994,"DIS_CODE":0,"TOWNNAME":"東區","LI":"關聖里","LIN":"13鄰","STREET":"裕和二街","SECT":" ","MAREA":" ","LANE":" ","ALLEY":" ","HOUSE_NO":"３３號","E_COORD97":172207.04999999999,"N_COORD97":2543040.1000000001,"ADDRESS":"裕和二街３３號","OBJECTID":364984},"geometry":{"x":172207.05000000075,"y":2543040.1000000034}},{"attributes":{"ID":364995,"DIS_CODE":0,"TOWNNAME":"東區","LI":"關聖里","LIN":"13鄰","STREET":"裕和二街","SECT":" ","MAREA":" ","LANE":" ","ALLEY":" ","HOUSE_NO":"３６號","E_COORD97":172188.70999999999,"N_COORD97":2543040.2599999998,"ADDRESS":"裕和二街３６號","OBJECTID":364985},"geometry":{"x":172188.71000000183,"y":2543040.2600000016}},{"attributes":{"ID":364996,"DIS_CODE":0,"TOWNNAME":"東區","LI":"關聖里","LIN":"13鄰","STREET":"裕忠路","SECT":" ","MAREA":" ","LANE":" ","ALLEY":" ","HOUSE_NO":"１０８號","E_COORD97":172243.81,"N_COORD97":2543102.2200000002,"ADDRESS":"裕忠路１０８號","OBJECTID":364986},"geometry":{"x":172243.81000000052,"y":2543102.2200000025}},{"attributes":{"ID":364997,"DIS_CODE":0,"TOWNNAME":"東區","LI":"關聖里","LIN":"13鄰","STREET":"裕忠路","SECT":" ","MAREA":" ","LANE":" ","ALLEY":" ","HOUSE_NO":"１２６號","E_COORD97":172243.81,"N_COORD97":2543047.1400000001,"ADDRESS":"裕忠路１２６號","OBJECTID":364987},"geometry":{"x":172243.81000000052,"y":2543047.1400000006}},{"attributes":{"ID":364998,"DIS_CODE":0,"TOWNNAME":"東區","LI":"關聖里","LIN":"13鄰","STREET":"裕忠路","SECT":" ","MAREA":" ","LANE":" ","ALLEY":" ","HOUSE_NO":"１２８之１號","E_COORD97":172242.03,"N_COORD97":2543039.2400000002,"ADDRESS":"裕忠路１２８之１號","OBJECTID":364988},"geometry":{"x":172242.03000000026,"y":2543039.2400000002}},{"attributes":{"ID":364999,"DIS_CODE":0,"TOWNNAME":"東區","LI":"關聖里","LIN":"13鄰","STREET":"裕忠路","SECT":" ","MAREA":" ","LANE":" ","ALLEY":" ","HOUSE_NO":"１２８之２號","E_COORD97":172241.51000000001,"N_COORD97":2543036.6899999999,"ADDRESS":"裕忠路１２８之２號","OBJECTID":364989},"geometry":{"x":172241.51000000071,"y":2543036.6900000013}},{"attributes":{"ID":365000,"DIS_CODE":0,"TOWNNAME":"東區","LI":"關聖里","LIN":"13鄰","STREET":"裕忠路","SECT":" ","MAREA":" ","LANE":" ","ALLEY":" ","HOUSE_NO":"１２８之３號","E_COORD97":172242.28,"N_COORD97":2543034.1400000001,"ADDRESS":"裕忠路１２８之３號","OBJECTID":364990},"geometry":{"x":172242.28000000026,"y":2543034.1400000043}},{"attributes":{"ID":365001,"DIS_CODE":0,"TOWNNAME":"東區","LI":"關聖里","LIN":"13鄰","STREET":"裕忠路","SECT":" ","MAREA":" ","LANE":" ","ALLEY":" ","HOUSE_NO":"１２８號","E_COORD97":172243.04000000001,"N_COORD97":2543043.3199999998,"ADDRESS":"裕忠路１２８號","OBJECTID":364991},"geometry":{"x":172243.04000000097,"y":2543043.3200000022}},{"attributes":{"ID":365002,"DIS_CODE":0,"TOWNNAME":"東區","LI":"關聖里","LIN":"13鄰","STREET":"裕忠路","SECT":" ","MAREA":" ","LANE":" ","ALLEY":" ","HOUSE_NO":"１３６號","E_COORD97":172243.04000000001,"N_COORD97":2543023.9399999999,"ADDRESS":"裕忠路１３６號","OBJECTID":364992},"geometry":{"x":172243.04000000097,"y":2543023.9400000032}},{"attributes":{"ID":365003,"DIS_CODE":0,"TOWNNAME":"東區","LI":"關聖里","LIN":"13鄰","STREET":"裕忠路","SECT":" ","MAREA":" ","LANE":" ","ALLEY":" ","HOUSE_NO":"１３２號","E_COORD97":172243.29999999999,"N_COORD97":2543027,"ADDRESS":"裕忠路１３２號","OBJECTID":364993},"geometry":{"x":172243.29999999981,"y":2543027}},{"attributes":{"ID":365004,"DIS_CODE":0,"TOWNNAME":"東區","LI":"關聖里","LIN":"13鄰","STREET":"裕忠路","SECT":" ","MAREA":" ","LANE":" ","ALLEY":" ","HOUSE_NO":"１３０號","E_COORD97":172242.79000000001,"N_COORD97":2543030.3100000001,"ADDRESS":"裕忠路１３０號","OBJECTID":364994},"geometry":{"x":172242.79000000097,"y":2543030.3100000024}},{"attributes":{"ID":365005,"DIS_CODE":0,"TOWNNAME":"永康區","LI":"\u25A0行里","LIN":"41鄰","STREET":"永安路","SECT":" ","MAREA":" ","LANE":"１６５巷","ALLEY":" ","HOUSE_NO":"１２２號","E_COORD97":172457.14000000001,"N_COORD97":2549451.8199999998,"ADDRESS":"永安路１６５巷１２２號","OBJECTID":364995},"geometry":{"x":172457.1400000006,"y":2549451.8200000022}},{"attributes":{"ID":365006,"DIS_CODE":0,"TOWNNAME":"永康區","LI":"\u25A0行里","LIN":"41鄰","STREET":"永安路","SECT":" ","MAREA":" ","LANE":"１６５巷","ALLEY":" ","HOUSE_NO":"１２８號","E_COORD97":172443.84,"N_COORD97":2549451.0699999998,"ADDRESS":"永安路１６５巷１２８號","OBJECTID":364996},"geometry":{"x":172443.84000000171,"y":2549451.0700000003}},{"attributes":{"ID":365007,"DIS_CODE":0,"TOWNNAME":"永康區","LI":"\u25A0行里","LIN":"41鄰","STREET":"永安路","SECT":" ","MAREA":" ","LANE":"１６５巷","ALLEY":" ","HOUSE_NO":"１３４號","E_COORD97":172430.73000000001,"N_COORD97":2549450.3199999998,"ADDRESS":"永安路１６５巷１３４號","OBJECTID":364997},"geometry":{"x":172430.73000000045,"y":2549450.320000004}},{"attributes":{"ID":365008,"DIS_CODE":0,"TOWNNAME":"永康區","LI":"\u25A0行里","LIN":"41鄰","STREET":"永安路","SECT":" ","MAREA":" ","LANE":"１６５巷","ALLEY":" ","HOUSE_NO":"１１６號","E_COORD97":172470.5,"N_COORD97":2549452.5699999998,"ADDRESS":"永安路１６５巷１１６號","OBJECTID":364998},"geometry":{"x":172470.50000000093,"y":2549452.5700000022}},{"attributes":{"ID":365009,"DIS_CODE":0,"TOWNNAME":"永康區","LI":"\u25A0行里","LIN":"41鄰","STREET":"永安路","SECT":" ","MAREA":" ","LANE":"１６５巷","ALLEY":" ","HOUSE_NO":"１１２號","E_COORD97":172478.75,"N_COORD97":2549452.8199999998,"ADDRESS":"永安路１６５巷１１２號","OBJECTID":364999},"geometry":{"x":172478.75000000093,"y":2549452.8200000003}},{"attributes":{"ID":365010,"DIS_CODE":0,"TOWNNAME":"永康區","LI":"\u25A0行里","LIN":"41鄰","STREET":"永安路","SECT":" ","MAREA":" ","LANE":"１６５巷","ALLEY":" ","HOUSE_NO":"１２４號","E_COORD97":172452.84,"N_COORD97":2549451.5699999998,"ADDRESS":"永安路１６５巷１２４號","OBJECTID":365000},"geometry":{"x":172452.84000000078,"y":2549451.5700000003}}]}